passes_logs/2026/01/01/R2M6_AANII_01/R2M6_AANII_01__20260101_131935_FENGYUN_3E_rec.log

#Pass ID: 20260101_131935_FENGYUN 3E
#Satellite: FENGYUN 3E
#Configuration: FENGYUN 3E
#almurnet v.1.7.20240730
#Start time: 2026-01-01 13:23:48

#Version: 2.2.20231116
#Station: R2M6_AANII_01
#Location: 30.233357 lon 59.946436 lat
#TLE: 1 49008U 21062A   25365.98258168  .00000149  00000+0  90987-4 0  9990
#TLE: 2 49008  98.7481   6.2763 0001360 169.3782 190.7423 14.19883270232859

#Time	Az	El	Level	Level2	SNR	BER	BlckErr	Temp	State	Recorded	gain1	gain2
2026-01-01 13:23:48.31	83.17	31.16	-33.3	-44.6	3.8	8.45e-01	0	43	0	0	26	13225
2026-01-01 13:23:50.30	82.55	31.36	-33.7	-42.7	3.8	8.45e-01	0	43	104	0	28	10173
2026-01-01 13:23:52.30	81.92	31.55	-33.7	-42.8	3.8	8.46e-01	0	43	104	0	28	10223
2026-01-01 13:23:54.29	81.28	31.74	-33.7	-42.7	3.8	8.46e-01	0	43	104	0	28	10201
2026-01-01 13:23:56.30	80.63	31.92	-33.7	-42.8	3.8	8.45e-01	0	43	104	0	28	10215
2026-01-01 13:23:58.29	79.98	32.10	-33.7	-42.7	3.8	8.46e-01	0	44	104	0	28	10201
2026-01-01 13:24:00.28	79.33	32.28	-33.7	-42.7	3.8	8.46e-01	0	43	104	0	28	10169
2026-01-01 13:24:02.27	78.66	32.46	-33.7	-42.7	3.8	8.46e-01	0	44	104	0	28	10129
2026-01-01 13:24:04.26	77.99	32.63	-33.7	-42.8	3.8	8.47e-01	0	43	104	0	28	10213
2026-01-01 13:24:06.25	77.31	32.80	-33.7	-42.7	3.8	8.47e-01	0	44	104	0	28	10171
2026-01-01 13:24:08.24	76.62	32.96	-33.8	-42.9	3.8	8.46e-01	0	44	104	0	28	10286
2026-01-01 13:24:10.23	75.93	33.12	-33.7	-42.7	3.8	8.48e-01	0	43	104	0	28	10142
2026-01-01 13:24:12.21	75.24	33.28	-33.6	-42.5	3.8	8.45e-01	0	44	104	0	28	10070
2026-01-01 13:24:14.21	74.53	33.43	-33.6	-42.4	3.8	8.46e-01	0	43	104	0	28	9997
2026-01-01 13:24:16.20	73.81	33.58	-33.5	-42.1	3.8	8.47e-01	0	44	104	0	28	9705
2026-01-01 13:24:18.19	73.09	33.72	-33.4	-41.7	3.8	8.46e-01	0	44	104	0	28	9400
2026-01-01 13:24:20.18	72.37	33.86	-33.4	-41.8	3.8	8.46e-01	0	44	104	0	27	9436
2026-01-01 13:24:22.18	71.63	34.00	-33.4	-42.0	3.8	8.45e-01	0	44	104	0	27	9678
2026-01-01 13:24:24.18	70.89	34.13	-33.5	-42.6	3.8	8.45e-01	0	44	104	0	27	10266
2026-01-01 13:24:26.18	70.14	34.25	-33.5	-42.2	3.8	8.47e-01	0	44	104	0	27	9862
2026-01-01 13:24:28.18	69.39	34.37	-33.3	-41.3	3.8	8.45e-01	0	44	104	0	27	9015
2026-01-01 13:24:30.17	68.64	34.49	-33.2	-40.4	3.9	8.44e-01	0	44	104	0	27	8263
2026-01-01 13:24:32.17	67.87	34.60	-33.4	-41.7	3.8	8.45e-01	0	44	104	0	27	9340
2026-01-01 13:24:34.18	67.10	34.70	-33.5	-42.5	3.8	8.46e-01	0	44	104	0	27	10203
2026-01-01 13:24:36.17	66.33	34.80	-33.4	-42.1	3.8	8.46e-01	0	44	104	0	27	9781
2026-01-01 13:24:38.16	65.56	34.90	-33.4	-42.0	3.8	8.46e-01	0	44	104	0	27	9692
2026-01-01 13:24:40.18	64.76	34.98	-33.0	-39.0	3.9	8.45e-01	0	44	104	0	27	7218
2026-01-01 13:24:42.18	63.98	35.07	-28.0	-28.7	12.7	2.53e-04	0	44	0	7340032	17	3864
2026-01-01 13:24:44.17	63.19	35.14	-26.0	-26.1	15.1	0.00e+00	0	44	0	22020096	13	3644
2026-01-01 13:24:46.17	62.40	35.21	-26.1	-26.4	15.0	0.00e+00	0	44	0	36700160	13	3704
2026-01-01 13:24:48.16	61.61	35.27	-25.9	-26.0	15.1	0.00e+00	0	44	0	50331648	13	3616
2026-01-01 13:24:50.14	60.81	35.33	-25.9	-26.3	15.2	0.00e+00	0	44	0	65011712	12	3795
2026-01-01 13:24:52.13	60.01	35.38	-25.8	-26.2	15.3	0.00e+00	0	44	0	79691776	12	3767
2026-01-01 13:24:54.12	59.21	35.42	-24.2	-24.3	17.2	0.00e+00	0	44	0	93323264	9	3625
2026-01-01 13:24:56.12	58.41	35.46	-23.1	-23.0	18.3	0.00e+00	0	44	0	108003328	7	3550
2026-01-01 13:24:58.12	57.60	35.49	-22.5	-22.2	19.0	0.00e+00	0	44	0	122683392	6	3463
2026-01-01 13:25:00.11	56.79	35.52	-22.5	-22.7	18.9	0.00e+00	0	44	0	137363456	5	3674
2026-01-01 13:25:02.10	55.99	35.54	-22.4	-22.5	19.0	0.00e+00	0	44	0	150994944	5	3630
2026-01-01 13:25:04.08	55.18	35.55	-22.4	-22.4	19.1	0.00e+00	0	44	0	165675008	5	3615
2026-01-01 13:25:06.07	54.37	35.56	-22.5	-22.6	19.0	0.00e+00	0	44	0	180355072	5	3655
2026-01-01 13:25:08.07	53.56	35.56	-22.5	-22.7	18.9	0.00e+00	0	44	0	193986560	5	3672
2026-01-01 13:25:10.06	52.75	35.55	-22.3	-22.3	19.1	0.00e+00	0	44	0	208666624	5	3589
2026-01-01 13:25:12.05	51.95	35.53	-22.3	-22.2	19.2	0.00e+00	0	44	0	223346688	5	3563
2026-01-01 13:25:14.05	51.14	35.51	-22.4	-22.4	19.1	0.00e+00	0	44	0	238026752	5	3616
2026-01-01 13:25:16.05	50.33	35.49	-22.6	-22.8	18.9	0.00e+00	0	44	0	251658240	5	3710
2026-01-01 13:25:18.04	49.52	35.45	-22.4	-22.5	19.0	0.00e+00	0	44	0	266338304	5	3639
2026-01-01 13:25:20.02	48.72	35.41	-22.2	-22.1	19.2	0.00e+00	0	44	0	281018368	5	3540
2026-01-01 13:25:22.01	47.92	35.37	-22.2	-22.1	19.2	0.00e+00	0	44	0	294649856	5	3553
2026-01-01 13:25:24.00	47.13	35.32	-22.3	-22.2	19.2	0.00e+00	0	44	0	309329920	5	3570
2026-01-01 13:25:25.98	46.34	35.26	-22.2	-22.1	19.2	0.00e+00	0	44	0	324009984	5	3560
2026-01-01 13:25:27.96	45.55	35.19	-22.1	-21.8	19.4	0.00e+00	0	44	0	337641472	5	3485
2026-01-01 13:25:29.94	44.76	35.12	-22.1	-21.9	19.3	0.00e+00	0	44	0	352321536	5	3509
2026-01-01 13:25:31.93	43.98	35.05	-22.3	-22.2	19.2	0.00e+00	0	44	0	367001600	5	3576
2026-01-01 13:25:33.93	43.19	34.97	-22.4	-22.5	19.0	0.00e+00	0	44	0	380633088	5	3631
2026-01-01 13:25:35.91	42.42	34.88	-22.2	-22.1	19.2	0.00e+00	0	44	0	395313152	5	3551
2026-01-01 13:25:37.91	41.65	34.78	-22.3	-22.2	19.2	0.00e+00	0	44	0	409993216	5	3560
2026-01-01 13:25:39.89	40.88	34.68	-22.3	-22.3	19.1	0.00e+00	0	44	0	423624704	5	3599
2026-01-01 13:25:41.88	40.12	34.58	-22.4	-22.5	19.0	0.00e+00	0	44	0	438304768	5	3636
2026-01-01 13:25:43.87	39.36	34.47	-22.1	-21.8	19.3	0.00e+00	0	44	0	452984832	5	3493
2026-01-01 13:25:45.87	38.60	34.35	-22.2	-22.0	19.3	0.00e+00	0	44	0	467664896	5	3526
2026-01-01 13:25:47.85	37.86	34.23	-22.3	-22.2	19.2	0.00e+00	0	44	0	481296384	5	3563
2026-01-01 13:25:49.84	37.12	34.11	-22.2	-22.0	19.2	0.00e+00	0	44	0	495976448	5	3535
2026-01-01 13:25:51.84	36.38	33.98	-22.2	-21.9	19.2	0.00e+00	0	44	0	510656512	5	3510
2026-01-01 13:25:53.83	35.65	33.84	-22.2	-22.0	19.2	0.00e+00	0	44	0	524288000	5	3524
2026-01-01 13:25:55.82	34.93	33.70	-22.2	-22.1	19.1	0.00e+00	0	44	0	538968064	5	3560
2026-01-01 13:25:57.82	34.21	33.56	-22.3	-22.3	19.1	0.00e+00	0	44	0	553648128	5	3587
2026-01-01 13:25:59.81	33.50	33.41	-22.3	-22.2	19.1	0.00e+00	0	44	0	568328192	5	3576
2026-01-01 13:26:01.80	32.79	33.26	-22.1	-21.8	19.3	0.00e+00	0	44	0	581959680	5	3496
2026-01-01 13:26:03.79	32.10	33.10	-22.1	-21.8	19.3	0.00e+00	0	44	0	596639744	5	3481
2026-01-01 13:26:05.79	31.40	32.94	-22.1	-21.9	19.2	0.00e+00	0	44	0	611319808	5	3509
2026-01-01 13:26:07.78	30.72	32.77	-22.2	-22.1	19.1	0.00e+00	0	44	0	624951296	5	3558
2026-01-01 13:26:09.76	30.05	32.60	-22.3	-22.3	19.0	0.00e+00	0	44	0	639631360	5	3593
2026-01-01 13:26:11.75	29.38	32.43	-22.5	-22.6	18.9	0.00e+00	0	44	0	654311424	5	3658
2026-01-01 13:26:13.74	28.72	32.26	-22.8	-23.3	18.5	0.00e+00	0	44	0	668991488	5	3809
2026-01-01 13:26:15.73	28.06	32.08	-22.9	-23.5	18.4	0.00e+00	0	44	0	682622976	5	3855
2026-01-01 13:26:17.74	27.41	31.90	-23.0	-23.7	18.3	0.00e+00	0	44	0	697303040	5	3920
2026-01-01 13:26:19.73	26.77	31.71	-22.6	-22.9	18.7	0.00e+00	0	44	0	711983104	5	3731
2026-01-01 13:26:21.72	26.14	31.52	-22.6	-22.9	18.7	0.00e+00	0	44	0	725614592	5	3719
2026-01-01 13:26:23.72	25.51	31.33	-22.9	-23.0	18.5	0.00e+00	0	44	0	740294656	6	3638
2026-01-01 13:26:25.72	24.89	31.14	-22.7	-22.6	18.7	0.00e+00	0	44	0	754974720	6	3551
2026-01-01 13:26:27.71	24.28	30.94	-22.5	-22.3	18.8	0.00e+00	0	44	0	769654784	6	3486
2026-01-01 13:26:29.71	23.67	30.75	-22.5	-22.2	18.8	0.00e+00	0	44	0	783286272	6	3482
2026-01-01 13:26:31.70	23.08	30.55	-22.3	-22.3	19.0	0.00e+00	0	44	0	797966336	5	3601
2026-01-01 13:26:33.69	22.49	30.34	-22.5	-22.8	18.8	0.00e+00	0	44	0	812646400	5	3701
2026-01-01 13:26:35.68	21.91	30.14	-22.6	-22.9	18.7	0.00e+00	0	44	0	826277888	5	3733
2026-01-01 13:26:37.68	21.33	29.93	-22.7	-23.2	18.5	0.00e+00	0	44	0	840957952	5	3790
2026-01-01 13:26:39.68	20.76	29.73	-22.7	-23.2	18.6	0.00e+00	0	44	0	855638016	5	3781
2026-01-01 13:26:41.68	20.20	29.52	-22.6	-22.9	18.7	0.00e+00	0	44	0	870318080	5	3716
2026-01-01 13:26:43.66	19.65	29.31	-22.6	-22.9	18.4	0.00e+00	0	44	0	884998144	5	3725
2026-01-01 13:26:45.65	19.11	29.10	-22.5	-22.6	18.8	0.00e+00	0	44	0	898629632	5	3665
2026-01-01 13:26:47.65	18.57	28.88	-22.6	-22.9	18.7	0.00e+00	0	44	0	913309696	5	3718
2026-01-01 13:26:49.64	18.04	28.67	-22.7	-23.2	18.6	0.00e+00	0	44	0	926941184	5	3787
2026-01-01 13:26:51.64	17.52	28.45	-22.6	-22.9	18.7	0.00e+00	0	44	0	941621248	5	3720
2026-01-01 13:26:53.63	17.00	28.24	-22.7	-23.0	18.6	0.00e+00	0	44	0	956301312	5	3745
2026-01-01 13:26:55.62	16.49	28.02	-22.9	-23.4	18.4	0.00e+00	0	44	0	970981376	5	3844
2026-01-01 13:26:57.62	15.99	27.80	-22.9	-23.5	18.3	0.00e+00	0	44	0	985661440	5	3873
2026-01-01 13:26:59.60	15.50	27.58	-22.8	-23.3	18.4	0.00e+00	0	44	0	999292928	5	3810
2026-01-01 13:27:01.59	15.01	27.36	-22.9	-23.4	18.4	0.00e+00	0	44	0	1013972992	5	3845
2026-01-01 13:27:03.59	14.53	27.14	-22.8	-23.4	18.4	0.00e+00	0	44	0	1028653056	5	3827
2026-01-01 13:27:05.59	14.05	26.92	-22.9	-23.6	18.3	0.00e+00	0	44	0	1042284544	5	3876
2026-01-01 13:27:07.58	13.58	26.70	-22.9	-23.6	18.3	0.00e+00	0	44	0	1056964608	5	3885
2026-01-01 13:27:09.57	13.12	26.48	-22.9	-23.6	18.3	0.00e+00	0	44	0	1071644672	5	3882
2026-01-01 13:27:11.57	12.67	26.26	-23.0	-23.8	18.2	0.00e+00	0	44	0	1086324736	5	3928
2026-01-01 13:27:13.57	12.22	26.04	-22.8	-23.4	18.3	0.00e+00	0	44	0	1099956224	5	3844
2026-01-01 13:27:15.56	11.77	25.82	-22.9	-23.5	18.3	0.00e+00	0	44	0	1114636288	5	3853
2026-01-01 13:27:17.54	11.34	25.60	-22.8	-23.2	18.4	0.00e+00	0	44	0	1129316352	5	3802
2026-01-01 13:27:19.53	10.91	25.38	-22.8	-23.3	18.3	0.00e+00	0	44	0	1142947840	5	3826
2026-01-01 13:27:21.53	10.49	25.16	-23.0	-23.7	18.2	0.00e+00	0	44	0	1157627904	5	3911
2026-01-01 13:27:23.52	10.07	24.93	-23.2	-23.7	17.9	0.00e+00	0	44	0	1172307968	6	3801
2026-01-01 13:27:25.51	9.66	24.71	-23.0	-23.2	18.1	0.00e+00	0	44	0	1186988032	6	3694
2026-01-01 13:27:27.49	9.25	24.50	-23.0	-23.2	18.2	0.00e+00	0	44	0	1200619520	6	3684
2026-01-01 13:27:29.48	8.85	24.28	-23.1	-23.4	18.1	0.00e+00	0	44	0	1215299584	6	3739
2026-01-01 13:27:31.47	8.46	24.06	-23.0	-23.2	18.1	0.00e+00	0	44	0	1229979648	6	3693
2026-01-01 13:27:33.46	8.07	23.84	-22.9	-22.9	18.3	0.00e+00	0	44	0	1243611136	6	3631
2026-01-01 13:27:35.45	7.69	23.62	-22.9	-23.0	18.3	0.00e+00	0	44	0	1258291200	6	3643
2026-01-01 13:27:37.44	7.31	23.40	-23.1	-23.4	18.1	0.00e+00	0	44	0	1272971264	6	3730
2026-01-01 13:27:39.43	6.94	23.18	-23.2	-23.7	17.9	0.00e+00	0	44	0	1286602752	6	3814
2026-01-01 13:27:41.41	6.57	22.97	-23.4	-24.1	17.7	0.00e+00	0	44	0	1301282816	6	3889
2026-01-01 13:27:43.40	6.21	22.75	-23.2	-23.7	17.9	0.00e+00	0	44	0	1315962880	6	3808
2026-01-01 13:27:45.40	5.85	22.53	-23.2	-23.7	17.8	0.00e+00	0	44	0	1330642944	6	3816
2026-01-01 13:27:47.40	5.50	22.31	-23.0	-23.3	18.1	0.00e+00	0	44	0	1344274432	6	3722
2026-01-01 13:27:49.39	5.15	22.10	-23.1	-23.5	18.0	0.00e+00	0	44	0	1358954496	6	3756
2026-01-01 13:27:51.39	4.80	21.88	-23.3	-23.8	17.8	0.00e+00	0	44	0	1373634560	6	3834
2026-01-01 13:27:53.38	4.47	21.67	-23.4	-24.1	17.6	0.00e+00	0	44	0	1387266048	6	3913
2026-01-01 13:27:55.37	4.13	21.46	-23.5	-24.4	17.5	0.00e+00	0	44	0	1401946112	6	3964
2026-01-01 13:27:57.36	3.81	21.25	-23.4	-24.1	17.6	0.00e+00	0	44	0	1416626176	6	3897
2026-01-01 13:27:59.36	3.48	21.03	-23.4	-24.1	17.6	0.00e+00	0	44	0	1431306240	6	3893
2026-01-01 13:28:01.36	3.16	20.82	-23.2	-23.7	17.8	0.00e+00	0	44	0	1444937728	6	3803
2026-01-01 13:28:03.35	2.84	20.61	-23.4	-24.1	17.6	0.00e+00	0	44	0	1459617792	6	3905
2026-01-01 13:28:05.34	2.53	20.41	-23.6	-24.5	17.4	0.00e+00	0	44	0	1474297856	6	3983
2026-01-01 13:28:07.34	2.23	20.20	-23.8	-24.5	17.1	0.00e+00	0	44	0	1487929344	7	3889
2026-01-01 13:28:09.33	1.92	19.99	-24.0	-24.8	16.9	0.00e+00	0	44	0	1502609408	7	3956
2026-01-01 13:28:11.32	1.63	19.78	-24.3	-25.0	16.7	0.00e+00	0	44	0	1517289472	8	3893
2026-01-01 13:28:13.31	1.33	19.58	-24.3	-25.0	16.6	0.00e+00	0	44	0	1531969536	8	3905
2026-01-01 13:28:15.31	1.04	19.37	-24.1	-24.5	16.8	0.00e+00	0	44	0	1545601024	8	3796
2026-01-01 13:28:17.30	0.76	19.17	-24.0	-24.4	16.9	0.00e+00	0	44	0	1560281088	8	3751
2026-01-01 13:28:19.30	0.47	18.97	-23.8	-23.9	17.2	0.00e+00	0	44	0	1574961152	8	3657
2026-01-01 13:28:21.29	0.20	18.76	-23.8	-23.8	17.2	0.00e+00	0	44	0	1588592640	8	3629
2026-01-01 13:28:23.27	359.92	18.56	-23.9	-24.1	17.0	0.00e+00	0	44	0	1603272704	8	3696
2026-01-01 13:28:25.26	359.65	18.36	-24.1	-24.7	16.7	0.00e+00	0	44	0	1617952768	8	3832
2026-01-01 13:28:27.25	359.38	18.17	-24.3	-24.9	16.6	0.00e+00	0	44	0	1632632832	8	3881
2026-01-01 13:28:29.24	359.12	17.97	-24.2	-24.8	16.7	0.00e+00	0	44	0	1646264320	8	3845
2026-01-01 13:28:31.23	358.86	17.77	-24.0	-24.4	16.8	0.00e+00	0	44	0	1660944384	8	3771
2026-01-01 13:28:33.21	358.61	17.58	-24.1	-24.7	16.7	0.00e+00	0	44	0	1675624448	8	3824
2026-01-01 13:28:35.21	358.35	17.38	-24.1	-24.5	16.8	0.00e+00	0	44	0	1689255936	8	3787
2026-01-01 13:28:37.21	358.10	17.19	-24.2	-24.9	16.6	0.00e+00	0	44	0	1703936000	8	3876
2026-01-01 13:28:39.20	357.85	16.99	-24.2	-24.9	16.6	0.00e+00	0	44	0	1718616064	8	3869
2026-01-01 13:28:41.18	357.61	16.80	-24.2	-24.9	16.6	0.00e+00	0	44	0	1732247552	8	3876
2026-01-01 13:28:43.17	357.37	16.61	-24.3	-25.0	16.5	0.00e+00	0	44	0	1746927616	8	3912
2026-01-01 13:28:45.17	357.13	16.42	-24.3	-25.0	16.5	0.00e+00	0	44	0	1761607680	8	3901
2026-01-01 13:28:47.17	356.90	16.23	-24.3	-25.1	16.4	0.00e+00	0	44	0	1776287744	8	3917
2026-01-01 13:28:49.15	356.67	16.04	-24.4	-25.3	16.3	0.00e+00	0	44	0	1789919232	8	3972
2026-01-01 13:28:51.14	356.44	15.86	-24.7	-25.3	16.0	0.00e+00	0	44	0	1804599296	9	3878
2026-01-01 13:28:53.14	356.21	15.67	-24.7	-25.4	16.0	0.00e+00	0	44	0	1819279360	9	3898
2026-01-01 13:28:55.15	355.99	15.48	-24.7	-25.3	16.0	0.00e+00	0	44	0	1833959424	9	3868
2026-01-01 13:28:57.15	355.77	15.30	-24.7	-25.4	15.9	0.00e+00	0	44	0	1848639488	9	3899
2026-01-01 13:28:59.14	355.55	15.11	-24.9	-25.7	15.8	0.00e+00	0	44	0	1862270976	9	3974
2026-01-01 13:29:01.13	355.34	14.93	-24.9	-25.7	15.8	0.00e+00	0	44	0	1876951040	9	3978
2026-01-01 13:29:03.12	355.13	14.75	-25.0	-26.1	15.6	0.00e+00	0	44	0	1891631104	9	4060
2026-01-01 13:29:05.11	354.92	14.57	-25.5	-26.7	15.0	0.00e+00	0	44	0	1905262592	10	4104
2026-01-01 13:29:07.10	354.71	14.39	-25.1	-25.8	15.5	0.00e+00	0	44	0	1919942656	10	3885
2026-01-01 13:29:09.09	354.51	14.21	-25.0	-25.6	15.5	0.00e+00	0	44	0	1934622720	10	3835
2026-01-01 13:29:11.08	354.31	14.03	-25.1	-25.7	15.5	0.00e+00	0	44	0	1948254208	10	3860
2026-01-01 13:29:13.07	354.11	13.86	-25.1	-25.7	15.5	0.00e+00	0	44	0	1962934272	10	3863
2026-01-01 13:29:15.06	353.91	13.68	-25.0	-25.6	15.5	0.00e+00	0	44	0	1977614336	10	3846
2026-01-01 13:29:17.06	353.72	13.50	-25.0	-25.4	15.6	0.00e+00	0	44	0	1992294400	10	3805
2026-01-01 13:29:19.06	353.53	13.33	-25.1	-25.7	15.5	0.00e+00	0	44	0	2005925888	10	3872
2026-01-01 13:29:21.06	353.34	13.16	-25.0	-25.5	15.6	0.00e+00	0	44	0	2020605952	10	3811
2026-01-01 13:29:23.07	353.15	12.98	-25.1	-25.8	15.4	0.00e+00	0	44	0	2035286016	10	3892
2026-01-01 13:29:25.07	352.96	12.81	-25.2	-26.1	15.2	0.00e+00	0	44	0	2049966080	10	3958
2026-01-01 13:29:27.08	352.78	12.64	-25.4	-26.5	15.0	0.00e+00	0	44	0	2063597568	10	4057
2026-01-01 13:29:29.09	352.60	12.47	-25.6	-26.3	14.7	0.00e+00	0	44	0	2078277632	11	3923
2026-01-01 13:29:31.09	352.42	12.30	-25.8	-26.9	14.5	1.10e-06	0	44	0	2092957696	11	4061
2026-01-01 13:29:33.10	352.24	12.13	-25.8	-26.9	14.4	0.00e+00	0	44	0	2107637760	11	4072
2026-01-01 13:29:35.11	352.07	11.96	-25.8	-26.9	14.4	0.00e+00	0	44	0	2122317824	11	4057
2026-01-01 13:29:37.12	351.89	11.79	-25.9	-27.0	14.4	2.20e-06	0	44	0	2136997888	11	4092
2026-01-01 13:29:39.12	351.72	11.63	-26.0	-27.2	14.3	0.00e+00	0	44	0	2150629376	11	4137
2026-01-01 13:29:41.13	351.55	11.46	-25.7	-26.5	14.7	0.00e+00	0	44	0	2165309440	11	3958
2026-01-01 13:29:43.14	351.39	11.30	-25.6	-26.4	14.7	0.00e+00	0	44	0	2179989504	11	3927
2026-01-01 13:29:45.14	351.22	11.13	-25.6	-26.3	14.7	0.00e+00	0	44	0	2194669568	11	3908
2026-01-01 13:29:47.15	351.06	10.97	-25.7	-26.6	14.6	1.10e-06	0	44	0	2209349632	11	3981
2026-01-01 13:29:49.15	350.90	10.81	-25.5	-26.2	14.8	0.00e+00	0	44	0	2224029696	11	3888
2026-01-01 13:29:51.16	350.74	10.65	-25.6	-26.5	14.6	0.00e+00	0	44	0	2237661184	11	3958
2026-01-01 13:29:53.17	350.58	10.49	-25.8	-26.7	14.4	0.00e+00	0	44	0	2252341248	11	4021
2026-01-01 13:29:55.17	350.43	10.33	-25.7	-26.7	14.4	0.00e+00	0	44	0	2267021312	11	4015
2026-01-01 13:29:57.18	350.27	10.17	-25.9	-27.0	14.3	0.00e+00	0	44	0	2281701376	11	4094
2026-01-01 13:29:59.18	350.12	10.01	-25.9	-27.0	14.3	1.10e-06	0	44	0	2295332864	11	4087
2026-01-01 13:30:01.19	349.97	9.85	-25.9	-27.1	14.2	1.10e-06	0	44	0	2310012928	11	4129
2026-01-01 13:30:03.20	349.82	9.70	-26.1	-26.9	13.9	3.40e-06	0	44	0	2324692992	12	3976
2026-01-01 13:30:05.21	349.67	9.54	-25.8	-26.4	14.2	0.00e+00	0	44	0	2339373056	12	3856
2026-01-01 13:30:07.21	349.53	9.39	-25.9	-26.7	14.1	0.00e+00	0	44	0	2354053120	12	3907
2026-01-01 13:30:09.21	349.38	9.23	-26.0	-26.7	14.0	1.10e-06	0	44	0	2368733184	12	3931
2026-01-01 13:30:11.22	349.24	9.08	-26.1	-26.9	13.9	3.40e-06	0	44	0	2382364672	12	3973
2026-01-01 13:30:13.22	349.10	8.93	-26.1	-27.1	13.8	3.40e-06	0	44	0	2397044736	12	4026
2026-01-01 13:30:15.23	348.96	8.78	-26.3	-27.5	13.5	1.02e-05	0	44	0	2411724800	12	4122
2026-01-01 13:30:17.24	348.82	8.63	-26.2	-27.3	13.6	4.50e-06	0	44	0	2426404864	12	4085
2026-01-01 13:30:19.24	348.69	8.48	-26.4	-27.6	13.4	6.80e-06	0	44	0	2440036352	12	4164
2026-01-01 13:30:21.24	348.55	8.33	-26.3	-27.5	13.5	1.02e-05	0	44	0	2454716416	12	4131
2026-01-01 13:30:23.25	348.42	8.18	-26.4	-27.9	13.3	1.94e-05	0	44	0	2469396480	12	4232
2026-01-01 13:30:25.26	348.29	8.03	-26.3	-27.6	13.4	1.71e-05	0	44	0	2484076544	12	4164
2026-01-01 13:30:27.26	348.16	7.88	-26.2	-27.3	13.5	8.00e-06	0	44	0	2498756608	12	4079
2026-01-01 13:30:29.27	348.03	7.74	-26.3	-27.4	13.5	1.02e-05	0	44	0	2513436672	12	4106
2026-01-01 13:30:31.27	347.90	7.59	-26.3	-27.6	13.4	1.02e-05	0	44	0	2527068160	12	4164
2026-01-01 13:30:33.29	347.77	7.44	-26.2	-27.3	13.5	5.70e-06	0	44	0	2541748224	12	4079
2026-01-01 13:30:35.30	347.65	7.30	-26.3	-27.5	13.4	8.00e-06	0	44	0	2556428288	12	4131
2026-01-01 13:30:37.31	347.52	7.15	-26.3	-27.5	13.4	1.48e-05	0	44	0	2571108352	12	4126
2026-01-01 13:30:39.32	347.40	7.01	-32.5	-41.0	3.8	8.43e-01	0	44	104	2579496960	24	9645

#Closed at: 2026-01-01 13:30:40
#Recorded file [2579 MB]: D:/data/31010_260101_162440.dat