passes_logs/2026/01/01/R2M6_AANII_01/R2M6_AANII_01__20260101_005800_NOAA_20_JPSS-1_rec.log

#Pass ID: 20260101_005800_NOAA 20 (JPSS-1)
#Satellite: NOAA 20 (JPSS-1)
#Configuration: NOAA 20
#almurnet v.1.7.20240730
#Start time: 2026-01-01 00:58:02

#Version: 2.2.20231116
#Station: R2M6_AANII_01
#Location: 30.233357 lon 59.946436 lat
#TLE: 1 43013U 17073A   25365.45761817  .00000173  00000+0  10307-3 0  9993
#TLE: 2 43013  98.7620 301.5517 0001951  60.3814 299.7557 14.19531661420675

#Time	Az	El	Level	Level2	SNR	BER	BlckErr	Temp	State	Recorded	gain1	gain2
2026-01-01 00:58:02.11	15.12	7.09	-31.0	-37.9	5.0	1.29e+00	0	40	0	0	21	7941
2026-01-01 00:58:05.12	15.03	7.32	-31.1	-37.5	7.5	1.24e-01	0	41	0	1048576	22	7555
2026-01-01 00:58:08.13	14.94	7.55	-30.7	-36.2	9.0	3.63e-02	0	41	0	7340032	21	6782
2026-01-01 00:58:11.14	14.85	7.78	-30.6	-35.7	9.5	1.78e-02	0	41	0	12582912	21	6470
2026-01-01 00:58:14.15	14.75	8.02	-30.0	-34.1	11.0	3.74e-03	0	41	0	17825792	20	5793
2026-01-01 00:58:17.15	14.66	8.26	-29.5	-33.3	12.4	1.26e-03	0	41	0	24117248	18	5623
2026-01-01 00:58:20.16	14.56	8.49	-29.5	-33.0	12.3	1.66e-04	0	41	0	29360128	19	5363
2026-01-01 00:58:23.16	14.46	8.74	-28.6	-33.0	12.0	8.48e-03	0	41	0	35651584	17	6030
2026-01-01 00:58:26.16	14.36	8.98	-28.7	-33.3	12.0	1.39e-02	0	41	0	40894464	17	6089
2026-01-01 00:58:29.17	14.25	9.22	-29.8	-33.8	11.8	1.43e-03	0	41	0	46137344	19	5698
2026-01-01 00:58:32.18	14.15	9.47	-29.3	-32.8	12.9	1.17e-03	0	41	0	52428800	18	5394
2026-01-01 00:58:35.18	14.04	9.72	-29.3	-32.9	12.8	1.21e-03	0	41	0	57671680	18	5429
2026-01-01 00:58:38.19	13.93	9.98	-29.2	-32.6	13.1	3.12e-05	0	42	0	62914560	18	5320
2026-01-01 00:58:41.20	13.82	10.23	-29.1	-32.3	13.3	9.22e-04	0	42	0	69206016	18	5190
2026-01-01 00:58:44.21	13.70	10.49	-29.0	-32.0	13.6	7.54e-04	0	42	0	74448896	18	5048
2026-01-01 00:58:47.22	13.58	10.75	-28.9	-32.0	13.8	8.42e-04	0	42	0	80740352	17	5193
2026-01-01 00:58:50.23	13.47	11.02	-28.8	-32.0	13.9	7.95e-04	0	42	0	85983232	17	5175
2026-01-01 00:58:53.24	13.34	11.28	-28.8	-32.0	13.9	7.04e-04	0	42	0	91226112	17	5171
2026-01-01 00:58:56.25	13.22	11.55	-28.8	-32.0	12.7	8.17e-04	0	42	0	97517568	17	5168
2026-01-01 00:58:59.26	13.09	11.82	-28.9	-32.0	13.9	2.76e-03	0	42	0	102760448	17	5183
2026-01-01 00:59:02.27	12.96	12.10	-29.0	-32.0	13.6	8.98e-04	0	42	0	109051904	18	5053
2026-01-01 00:59:05.27	12.83	12.38	-29.0	-32.3	13.8	9.09e-04	0	42	0	114294784	17	5267
2026-01-01 00:59:08.29	12.70	12.66	-29.4	-32.9	13.1	8.27e-04	0	42	0	119537664	18	5393
2026-01-01 00:59:11.30	12.56	12.94	-28.8	-31.9	14.1	8.09e-04	0	42	0	125829120	17	5118
2026-01-01 00:59:14.30	12.42	13.23	-29.2	-32.3	13.5	1.52e-05	0	42	0	131072000	18	5176
2026-01-01 00:59:17.32	12.28	13.52	-29.2	-32.3	13.5	2.64e-03	0	42	0	136314880	18	5173
2026-01-01 00:59:20.32	12.13	13.81	-29.4	-32.9	13.2	2.64e-03	0	42	0	142606336	18	5378
2026-01-01 00:59:23.34	11.98	14.11	-29.0	-31.9	13.8	2.72e-03	0	42	0	147849216	18	5010
2026-01-01 00:59:26.35	11.83	14.41	-28.8	-31.9	14.2	4.25e-04	0	42	0	154140672	17	5101
2026-01-01 00:59:29.35	11.67	14.71	-28.9	-31.9	14.2	4.42e-04	0	42	0	159383552	17	5126
2026-01-01 00:59:32.36	11.51	15.02	-28.9	-32.1	14.1	1.50e-06	0	42	0	164626432	17	5198
2026-01-01 00:59:35.37	11.35	15.33	-28.8	-31.7	14.4	2.59e-03	0	42	0	170917888	17	5019
2026-01-01 00:59:38.38	11.18	15.65	-28.8	-31.7	14.4	2.41e-03	0	42	0	176160768	17	5038
2026-01-01 00:59:41.39	11.01	15.97	-28.8	-31.8	14.3	2.73e-03	0	42	0	181403648	17	5084
2026-01-01 00:59:44.40	10.83	16.29	-28.8	-31.7	14.4	2.58e-03	0	42	0	187695104	17	5013
2026-01-01 00:59:47.41	10.65	16.62	-27.8	-30.6	14.5	2.46e-03	0	42	0	192937984	17	4970
2026-01-01 00:59:50.42	10.47	16.95	-28.8	-31.7	13.9	2.60e-03	0	42	0	199229440	17	5011
2026-01-01 00:59:53.43	10.28	17.28	-28.8	-31.7	14.5	7.83e-04	0	43	0	204472320	17	5024
2026-01-01 00:59:56.43	10.09	17.62	-28.8	-31.7	14.5	2.32e-03	0	43	0	209715200	17	5010
2026-01-01 00:59:59.44	9.89	17.97	-28.7	-31.4	14.6	2.56e-03	0	42	0	216006656	17	4933
2026-01-01 01:00:02.44	9.69	18.31	-28.7	-31.3	14.8	2.48e-03	0	43	0	221249536	17	4877
2026-01-01 01:00:05.44	9.49	18.67	-28.6	-31.3	14.8	2.29e-03	0	43	0	226492416	17	4864
2026-01-01 01:00:08.45	9.27	19.02	-28.6	-31.2	14.8	8.03e-04	0	43	0	232783872	17	4856
2026-01-01 01:00:11.46	9.06	19.39	-28.6	-31.1	15.0	3.94e-04	0	43	0	238026752	17	4804
2026-01-01 01:00:14.45	8.84	19.75	-28.6	-31.1	15.0	3.33e-04	0	43	0	244318208	17	4793
2026-01-01 01:00:17.46	8.61	20.13	-28.6	-31.0	15.0	3.07e-04	0	43	0	249561088	17	4777
2026-01-01 01:00:20.47	8.37	20.50	-28.4	-30.7	15.2	2.33e-03	0	43	0	254803968	17	4668
2026-01-01 01:00:23.47	8.13	20.88	-28.5	-30.8	15.1	2.19e-03	0	43	0	261095424	17	4719
2026-01-01 01:00:26.48	7.89	21.27	-28.6	-31.2	15.0	2.43e-04	0	43	0	266338304	17	4824
2026-01-01 01:00:29.49	7.63	21.67	-28.5	-30.7	15.3	1.23e-04	0	43	0	272629760	17	4681
2026-01-01 01:00:32.50	7.37	22.07	-28.4	-30.7	15.3	1.30e-04	0	43	0	277872640	17	4673
2026-01-01 01:00:35.51	7.11	22.47	-28.7	-31.3	14.9	2.32e-04	0	43	0	283115520	17	4864
2026-01-01 01:00:38.52	6.83	22.88	-28.6	-31.0	15.1	2.21e-04	0	43	0	289406976	17	4759
2026-01-01 01:00:41.53	6.55	23.30	-28.7	-31.3	15.0	0.00e+00	0	43	0	294649856	17	4857
2026-01-01 01:00:44.54	6.26	23.72	-28.7	-31.4	14.9	3.10e-04	0	43	0	299892736	17	4902
2026-01-01 01:00:47.54	5.96	24.15	-28.9	-31.7	14.8	4.92e-04	0	43	0	306184192	17	4989
2026-01-01 01:00:50.54	5.65	24.58	-29.0	-31.6	14.6	4.43e-04	0	43	0	311427072	18	4832
2026-01-01 01:00:53.55	5.34	25.03	-29.2	-32.2	14.2	3.35e-04	0	43	0	317718528	18	5057
2026-01-01 01:00:56.54	5.01	25.47	-29.5	-32.3	13.8	3.43e-04	0	43	0	322961408	19	4964
2026-01-01 01:00:59.55	4.68	25.93	-29.9	-33.4	13.1	1.90e-05	0	43	0	328204288	19	5399
2026-01-01 01:01:02.56	4.33	26.39	-30.2	-33.7	12.4	1.06e-04	0	43	0	334495744	20	5434
2026-01-01 01:01:05.58	3.98	26.86	-30.0	-33.3	12.8	6.25e-05	0	43	0	339738624	20	5253
2026-01-01 01:01:08.59	3.61	27.33	-30.3	-34.3	12.1	3.22e-03	0	43	0	344981504	20	5666
2026-01-01 01:01:11.59	3.23	27.81	-30.8	-35.2	11.2	9.71e-04	0	43	0	351272960	21	5950
2026-01-01 01:01:14.60	2.84	28.30	-30.9	-35.5	10.9	2.30e-03	0	43	0	356515840	21	6092
2026-01-01 01:01:17.61	2.44	28.80	-30.8	-35.2	11.1	1.63e-03	0	43	0	362807296	21	5973
2026-01-01 01:01:20.61	2.02	29.30	-30.6	-34.6	11.6	1.50e-03	0	43	0	368050176	21	5698
2026-01-01 01:01:23.62	1.59	29.81	-30.5	-34.3	11.8	6.56e-04	0	43	0	373293056	21	5538
2026-01-01 01:01:26.62	1.15	30.33	-30.5	-34.5	12.0	3.42e-03	0	43	0	379584512	20	5762
2026-01-01 01:01:29.63	0.69	30.85	-30.5	-34.3	11.9	3.38e-03	0	43	0	384827392	21	5531
2026-01-01 01:01:32.64	0.22	31.39	-30.4	-34.3	12.2	3.02e-03	0	43	0	390070272	20	5658
2026-01-01 01:01:35.66	359.72	31.93	-30.1	-33.5	12.7	6.63e-05	0	43	0	396361728	20	5331
2026-01-01 01:01:38.67	359.22	32.48	-30.2	-33.9	12.5	1.11e-04	0	43	0	401604608	20	5473
2026-01-01 01:01:41.67	358.69	33.03	-30.3	-34.2	12.4	2.69e-03	0	43	0	407896064	20	5586
2026-01-01 01:01:44.68	358.15	33.60	-30.2	-33.8	12.6	2.89e-03	0	43	0	413138944	20	5432
2026-01-01 01:01:47.68	357.58	34.16	-30.1	-33.3	12.9	2.60e-03	0	43	0	418381824	20	5246
2026-01-01 01:01:50.68	357.00	34.74	-30.4	-34.3	12.3	2.41e-03	0	43	0	424673280	20	5626
2026-01-01 01:01:53.69	356.39	35.33	-30.6	-34.4	11.8	3.07e-03	0	43	0	429916160	21	5587
2026-01-01 01:01:56.69	355.77	35.92	-30.7	-34.7	11.6	3.07e-03	0	43	0	435159040	21	5731
2026-01-01 01:01:59.70	355.11	36.52	-30.8	-35.1	11.4	3.11e-03	0	43	0	441450496	21	5880
2026-01-01 01:02:02.71	354.44	37.12	-31.1	-35.4	10.9	4.37e-03	0	43	0	446693376	22	5913
2026-01-01 01:02:05.72	353.73	37.73	-31.0	-35.1	11.0	3.91e-03	0	43	0	452984832	22	5783
2026-01-01 01:02:08.73	353.00	38.35	-31.1	-35.3	11.0	3.84e-03	0	43	0	458227712	22	5851
2026-01-01 01:02:11.74	352.24	38.98	-31.2	-35.7	10.6	6.00e-03	0	43	0	463470592	22	6059
2026-01-01 01:02:14.75	351.45	39.61	-31.3	-36.1	10.3	6.61e-03	0	43	0	469762048	22	6267
2026-01-01 01:02:17.76	350.63	40.24	-31.6	-36.6	9.6	1.12e-02	0	43	0	475004928	23	6414
2026-01-01 01:02:20.78	349.77	40.89	-31.5	-36.4	9.8	9.04e-03	0	43	0	481296384	23	6290
2026-01-01 01:02:23.78	348.88	41.53	-31.3	-36.1	10.4	6.18e-03	0	43	0	486539264	22	6240
2026-01-01 01:02:26.79	347.95	42.17	-30.6	-34.3	12.0	2.72e-04	0	43	0	491782144	21	5500
2026-01-01 01:02:29.81	346.98	42.82	-30.6	-34.4	11.9	2.19e-03	0	43	0	498073600	21	5581
2026-01-01 01:02:32.80	345.98	43.47	-30.5	-34.2	12.1	3.96e-04	0	43	0	503316480	21	5464
2026-01-01 01:02:35.81	344.93	44.12	-30.3	-34.1	12.6	1.25e-04	0	43	0	508559360	20	5524
2026-01-01 01:02:38.81	343.84	44.77	-30.7	-34.7	11.8	3.20e-04	0	43	0	514850816	21	5697
2026-01-01 01:02:41.82	342.70	45.42	-31.0	-34.9	11.3	1.55e-03	0	43	0	520093696	22	5689
2026-01-01 01:02:44.82	341.52	46.07	-30.7	-34.7	11.8	6.10e-04	0	43	0	526385152	21	5700
2026-01-01 01:02:47.83	340.28	46.71	-30.7	-34.7	11.8	4.81e-04	0	43	0	531628032	21	5683
2026-01-01 01:02:50.82	339.00	47.34	-31.1	-35.3	11.0	1.24e-03	0	43	0	536870912	22	5865
2026-01-01 01:02:53.83	337.66	47.97	-30.9	-34.8	11.4	1.76e-03	0	43	0	543162368	22	5618
2026-01-01 01:02:56.84	336.26	48.59	-30.9	-35.2	11.5	1.13e-03	0	43	0	548405248	21	5909
2026-01-01 01:02:59.84	334.81	49.20	-30.4	-33.9	12.3	1.74e-04	0	43	0	553648128	21	5345
2026-01-01 01:03:02.85	333.30	49.80	-30.2	-33.3	12.8	1.06e-04	0	43	0	559939584	21	5093
2026-01-01 01:03:05.86	331.72	50.39	-29.8	-32.6	13.5	1.37e-05	0	43	0	565182464	20	4952
2026-01-01 01:03:08.86	330.09	50.95	-29.5	-32.2	14.2	7.00e-07	0	43	0	571473920	19	4916
2026-01-01 01:03:11.87	328.39	51.50	-29.3	-32.1	14.6	4.65e-05	0	43	0	576716800	18	5004
2026-01-01 01:03:14.88	326.63	52.03	-29.0	-31.5	15.0	4.27e-05	0	43	0	581959680	18	4772
2026-01-01 01:03:17.88	324.81	52.53	-28.6	-31.0	15.5	0.00e+00	0	43	0	588251136	17	4730
2026-01-01 01:03:20.89	322.92	53.01	-28.5	-30.6	15.8	0.00e+00	0	43	0	593494016	17	4593
2026-01-01 01:03:23.91	320.97	53.46	-28.7	-31.1	15.5	0.00e+00	0	43	0	598736896	17	4745
2026-01-01 01:03:26.91	318.97	53.88	-29.5	-32.6	14.3	7.00e-07	0	43	0	605028352	18	5179
2026-01-01 01:03:29.92	316.90	54.26	-29.4	-31.9	14.4	1.50e-06	0	43	0	610271232	19	4814
2026-01-01 01:03:32.93	314.79	54.61	-29.2	-31.8	14.8	4.50e-06	0	43	0	616562688	18	4875
2026-01-01 01:03:35.93	312.63	54.92	-28.7	-31.2	15.5	3.80e-06	0	43	0	621805568	17	4772
2026-01-01 01:03:38.93	310.42	55.19	-28.6	-30.9	15.6	0.00e+00	0	43	0	627048448	17	4693
2026-01-01 01:03:41.94	308.17	55.42	-28.4	-30.9	16.0	1.65e-04	0	43	0	633339904	16	4790
2026-01-01 01:03:44.95	305.88	55.60	-28.0	-30.0	16.5	0.00e+00	0	43	0	638582784	16	4513
2026-01-01 01:03:47.95	303.58	55.74	-27.8	-29.4	16.8	0.00e+00	0	43	0	643825664	16	4350
2026-01-01 01:03:50.97	301.24	55.84	-27.6	-29.6	16.8	7.00e-07	0	43	0	650117120	15	4516
2026-01-01 01:03:53.97	298.90	55.88	-27.7	-29.9	16.7	0.00e+00	0	43	0	655360000	15	4607
2026-01-01 01:03:56.97	296.56	55.88	-27.8	-29.5	16.8	0.00e+00	0	43	0	661651456	16	4373
2026-01-01 01:03:59.97	294.22	55.84	-27.9	-30.3	16.4	2.66e-04	0	43	0	666894336	15	4757
2026-01-01 01:04:02.97	291.90	55.75	-28.2	-30.3	16.2	1.70e-04	0	43	0	672137216	16	4633
2026-01-01 01:04:05.98	289.58	55.61	-27.5	-29.3	17.0	3.56e-04	0	43	0	678428672	15	4424
2026-01-01 01:04:08.98	287.30	55.42	-26.9	-28.5	17.7	7.70e-05	0	43	0	683671552	14	4324
2026-01-01 01:04:11.98	285.05	55.20	-26.5	-28.1	18.1	0.00e+00	0	43	0	688914432	13	4327
2026-01-01 01:04:14.98	282.84	54.93	-26.2	-27.5	18.5	7.00e-07	0	43	0	695205888	13	4150
2026-01-01 01:04:17.99	280.67	54.62	-26.2	-27.9	18.5	4.50e-05	0	43	0	700448768	12	4377
2026-01-01 01:04:21.00	278.55	54.27	-26.8	-28.7	17.8	0.00e+00	0	43	0	705691648	13	4495
2026-01-01 01:04:24.01	276.48	53.88	-27.7	-29.9	16.6	0.00e+00	0	43	0	711983104	15	4624
2026-01-01 01:04:27.01	274.48	53.47	-28.3	-30.7	16.0	8.30e-06	0	43	0	717225984	16	4730
2026-01-01 01:04:30.02	272.53	53.02	-28.8	-31.4	15.3	0.00e+00	0	43	0	723517440	17	4870
2026-01-01 01:04:33.02	270.64	52.54	-28.4	-29.9	15.9	0.00e+00	0	43	0	728760320	18	4289
2026-01-01 01:04:36.04	268.81	52.04	-28.9	-31.7	15.1	0.00e+00	0	43	0	734003200	17	4969
2026-01-01 01:04:39.05	267.04	51.51	-29.1	-31.6	14.9	0.00e+00	0	43	0	740294656	18	4819
2026-01-01 01:04:42.06	265.34	50.96	-29.0	-31.3	15.0	2.46e-04	0	43	0	745537536	18	4719
2026-01-01 01:04:45.07	263.70	50.39	-29.9	-33.3	13.4	9.44e-04	0	43	0	751828992	19	5335
2026-01-01 01:04:48.07	262.12	49.81	-30.1	-33.4	13.0	1.68e-03	0	43	0	757071872	20	5240
2026-01-01 01:04:51.08	260.60	49.21	-30.4	-34.4	12.4	1.07e-04	0	43	0	762314752	20	5658
2026-01-01 01:04:54.09	259.14	48.59	-31.4	-36.4	10.1	7.36e-03	0	43	0	768606208	22	6409
2026-01-01 01:04:57.11	257.74	47.97	-31.5	-36.7	10.0	7.50e-03	0	43	0	773849088	22	6573
2026-01-01 01:05:00.12	256.39	47.33	-31.8	-37.5	8.9	3.44e-02	0	43	0	779091968	23	6940
2026-01-01 01:05:03.12	255.10	46.70	-32.0	-38.0	8.1	5.14e-02	0	43	0	785383424	24	7155
2026-01-01 01:05:06.14	253.86	46.05	-31.8	-37.5	8.8	2.70e-02	0	43	0	790626304	23	6939
2026-01-01 01:05:09.14	252.67	45.40	-31.4	-36.4	10.1	6.10e-03	0	43	0	796917760	22	6404
2026-01-01 01:05:12.15	251.53	44.75	-31.1	-35.6	10.6	6.61e-03	0	43	0	802160640	22	6004
2026-01-01 01:05:15.15	250.44	44.10	-30.4	-34.4	12.2	2.89e-03	0	43	0	807403520	20	5683
2026-01-01 01:05:18.16	249.39	43.45	-30.5	-34.1	12.1	3.21e-03	0	43	0	813694976	21	5442
2026-01-01 01:05:21.17	248.38	42.79	-30.3	-34.0	12.5	3.32e-03	0	43	0	818937856	20	5514
2026-01-01 01:05:24.17	247.41	42.14	-30.5	-34.2	12.0	3.74e-03	0	43	0	824180736	21	5495
2026-01-01 01:05:27.19	246.48	41.49	-31.3	-36.1	10.2	4.53e-03	0	43	0	830472192	22	6285
2026-01-01 01:05:30.21	245.58	40.85	-31.6	-36.9	9.3	1.26e-02	0	43	0	835715072	23	6597
2026-01-01 01:05:33.20	244.73	40.21	-31.3	-36.4	10.0	1.22e-02	0	43	0	842006528	22	6416
2026-01-01 01:05:36.21	243.90	39.57	-31.4	-36.7	9.8	1.43e-02	0	43	0	847249408	22	6598
2026-01-01 01:05:39.22	243.11	38.94	-31.3	-36.2	10.1	1.10e-02	0	43	0	852492288	22	6343
2026-01-01 01:05:42.22	242.35	38.31	-30.9	-35.6	11.0	4.63e-03	0	43	0	858783744	21	6143
2026-01-01 01:05:45.23	241.61	37.69	-31.0	-35.2	10.9	5.19e-03	0	43	0	864026624	22	5840
2026-01-01 01:05:48.23	240.91	37.08	-30.9	-35.5	10.9	2.17e-03	0	43	0	869269504	21	6130
2026-01-01 01:05:51.24	240.23	36.47	-31.0	-35.7	10.8	4.33e-03	0	43	0	875560960	21	6182
2026-01-01 01:05:54.25	239.57	35.87	-30.3	-34.2	12.3	2.62e-03	0	43	0	880803840	20	5601
2026-01-01 01:05:57.27	238.94	35.27	-30.2	-33.9	12.4	2.49e-03	0	43	0	887095296	20	5502
2026-01-01 01:06:00.28	238.33	34.68	-30.5	-34.4	11.8	8.09e-04	0	43	0	892338176	21	5586
2026-01-01 01:06:03.29	237.74	34.10	-30.8	-35.2	11.1	1.93e-03	0	43	0	897581056	21	5971
2026-01-01 01:06:06.30	237.18	33.53	-30.4	-34.0	11.9	4.32e-04	0	43	0	903872512	21	5453
2026-01-01 01:06:09.29	236.64	32.97	-30.3	-34.2	12.1	2.24e-04	0	43	0	909115392	20	5635
2026-01-01 01:06:12.31	236.11	32.41	-30.3	-34.1	12.2	2.70e-04	0	43	0	915406848	20	5570
2026-01-01 01:06:15.33	235.59	31.86	-30.4	-34.5	11.9	4.05e-04	0	43	0	920649728	20	5770
2026-01-01 01:06:18.34	235.10	31.32	-30.8	-35.2	11.1	1.46e-03	0	43	0	925892608	21	5961
2026-01-01 01:06:21.36	234.62	30.78	-30.7	-35.0	11.2	2.05e-03	0	43	0	932184064	21	5890
2026-01-01 01:06:24.36	234.16	30.25	-30.7	-35.0	11.2	1.55e-03	0	43	0	937426944	21	5880
2026-01-01 01:06:27.36	233.72	29.73	-30.8	-35.2	11.0	2.49e-03	0	43	0	942669824	21	5994
2026-01-01 01:06:30.36	233.29	29.22	-29.9	-33.1	12.8	8.46e-05	0	43	0	948961280	20	5204
2026-01-01 01:06:33.36	232.87	28.72	-30.1	-33.5	12.6	7.01e-05	0	43	0	954204160	20	5363
2026-01-01 01:06:36.37	232.47	28.22	-30.2	-33.9	12.3	2.08e-04	0	43	0	960495616	20	5502
2026-01-01 01:06:39.37	232.08	27.73	-29.9	-33.2	12.7	6.40e-05	0	43	0	965738496	20	5245
2026-01-01 01:06:42.39	231.69	27.25	-29.9	-33.5	12.9	5.64e-05	0	43	0	970981376	19	5442
2026-01-01 01:06:45.39	231.33	26.77	-29.8	-33.3	12.7	9.25e-04	0	43	0	977272832	19	5371
2026-01-01 01:06:48.40	230.97	26.30	-29.9	-33.6	12.8	1.04e-03	0	43	0	982515712	19	5510
2026-01-01 01:06:51.40	230.62	25.84	-30.0	-33.5	12.5	8.39e-05	0	43	0	987758592	20	5359
2026-01-01 01:06:54.41	230.29	25.38	-29.9	-33.6	12.8	7.62e-05	0	43	0	994050048	19	5527
2026-01-01 01:06:57.41	229.96	24.94	-30.0	-33.8	12.7	6.17e-05	0	43	0	999292928	19	5583
2026-01-01 01:07:00.42	229.64	24.49	-29.6	-32.7	13.4	1.21e-03	0	43	0	1005584384	19	5149
2026-01-01 01:07:03.42	229.33	24.06	-29.4	-32.8	13.6	2.22e-03	0	43	0	1010827264	18	5293
2026-01-01 01:07:06.43	229.03	23.63	-29.4	-32.7	13.7	2.29e-03	0	43	0	1016070144	18	5257
2026-01-01 01:07:09.44	228.74	23.20	-29.6	-32.8	13.2	1.22e-05	0	43	0	1022361600	19	5205
2026-01-01 01:07:12.43	228.46	22.79	-29.6	-32.7	13.3	1.37e-05	0	43	0	1027604480	19	5151
2026-01-01 01:07:15.43	228.18	22.38	-29.7	-33.0	13.1	3.12e-05	0	43	0	1032847360	19	5300
2026-01-01 01:07:18.44	227.91	21.97	-29.5	-32.6	13.3	2.76e-03	0	43	0	1039138816	19	5138
2026-01-01 01:07:21.44	227.65	21.57	-29.6	-32.7	13.3	2.55e-03	0	43	0	1044381696	19	5186
2026-01-01 01:07:24.45	227.39	21.18	-29.6	-32.8	13.2	2.82e-03	0	43	0	1049624576	19	5211
2026-01-01 01:07:27.46	227.15	20.79	-29.7	-33.2	12.9	3.00e-03	0	43	0	1055916032	19	5362
2026-01-01 01:07:30.47	226.90	20.40	-29.8	-33.3	12.8	2.77e-03	0	43	0	1061158912	19	5411
2026-01-01 01:07:33.48	226.67	20.02	-29.6	-32.8	13.1	2.74e-05	0	43	0	1067450368	19	5231
2026-01-01 01:07:36.49	226.44	19.65	-29.6	-32.8	13.1	2.78e-03	0	43	0	1072693248	19	5224
2026-01-01 01:07:39.50	226.21	19.28	-29.5	-33.0	13.3	2.45e-03	0	43	0	1077936128	18	5412
2026-01-01 01:07:42.51	225.99	18.92	-29.6	-33.0	13.0	2.71e-03	0	43	0	1084227584	19	5297
2026-01-01 01:07:45.52	225.78	18.56	-29.6	-33.0	12.9	2.76e-03	0	43	0	1089470464	19	5293
2026-01-01 01:07:48.53	225.57	18.20	-29.4	-32.9	13.3	2.44e-03	0	43	0	1095761920	18	5365
2026-01-01 01:07:51.55	225.37	17.85	-29.6	-32.8	13.0	2.75e-03	0	43	0	1101004800	19	5246
2026-01-01 01:07:54.54	225.17	17.51	-29.5	-33.0	13.2	1.22e-05	0	43	0	1106247680	18	5410
2026-01-01 01:07:57.54	224.97	17.17	-29.5	-32.7	13.0	2.97e-05	0	43	0	1112539136	19	5185
2026-01-01 01:08:00.56	224.78	16.83	-29.6	-33.0	12.8	7.47e-05	0	43	0	1117782016	19	5319
2026-01-01 01:08:03.56	224.60	16.50	-29.7	-33.3	12.6	2.03e-03	0	43	0	1124073472	19	5440
2026-01-01 01:08:06.57	224.42	16.17	-29.7	-33.4	12.5	1.78e-03	0	43	0	1129316352	19	5466
2026-01-01 01:08:09.58	224.24	15.85	-29.7	-33.3	12.6	1.93e-03	0	43	0	1134559232	19	5425
2026-01-01 01:08:12.58	224.07	15.53	-29.8	-33.5	12.4	1.78e-04	0	43	0	1140850688	19	5519
2026-01-01 01:08:15.59	223.90	15.21	-29.7	-33.4	12.4	1.44e-04	0	43	0	1146093568	19	5500
2026-01-01 01:08:18.60	223.73	14.90	-29.7	-33.3	12.5	1.06e-04	0	43	0	1151336448	19	5445
2026-01-01 01:08:21.61	223.57	14.59	-29.8	-33.5	12.3	2.27e-04	0	43	0	1157627904	19	5540
2026-01-01 01:08:24.61	223.41	14.29	-29.9	-33.9	12.1	2.61e-04	0	43	0	1162870784	19	5707
2026-01-01 01:08:27.62	223.26	13.99	-30.0	-33.8	11.6	1.80e-03	0	43	0	1169162240	20	5596
2026-01-01 01:08:30.63	223.10	13.69	-30.0	-34.0	11.5	6.82e-04	0	43	0	1174405120	20	5658
2026-01-01 01:08:33.64	222.96	13.40	-29.9	-34.1	11.8	5.05e-04	0	43	0	1179648000	19	5821
2026-01-01 01:08:36.64	222.81	13.11	-30.0	-33.9	11.5	1.02e-03	0	43	0	1185939456	20	5623
2026-01-01 01:08:39.65	222.67	12.82	-30.0	-33.9	11.4	7.10e-04	0	43	0	1191182336	20	5666
2026-01-01 01:08:42.66	222.53	12.53	-30.0	-34.0	11.4	1.18e-03	0	43	0	1196425216	20	5691
2026-01-01 01:08:45.66	222.39	12.25	-30.0	-33.8	11.4	9.08e-04	0	43	0	1202716672	20	5623
2026-01-01 01:08:48.68	222.26	11.97	-30.0	-33.9	11.4	8.05e-04	0	43	0	1207959552	20	5655
2026-01-01 01:08:51.69	222.12	11.70	-30.1	-34.3	11.1	1.10e-03	0	43	0	1214251008	20	5840
2026-01-01 01:08:54.68	222.00	11.43	-30.0	-33.9	11.3	1.04e-03	0	43	0	1219493888	20	5677
2026-01-01 01:08:57.69	221.87	11.16	-30.1	-34.3	11.1	1.40e-03	0	43	0	1224736768	20	5830
2026-01-01 01:09:00.69	221.75	10.89	-30.1	-34.4	11.0	1.74e-03	0	43	0	1231028224	20	5875
2026-01-01 01:09:03.70	221.62	10.63	-30.1	-34.2	11.1	1.75e-03	0	43	0	1236271104	20	5812
2026-01-01 01:09:06.71	221.50	10.36	-30.1	-34.5	10.9	2.05e-03	0	43	0	1241513984	20	5948
2026-01-01 01:09:09.73	221.39	10.10	-29.9	-33.8	11.4	1.20e-03	0	43	0	1247805440	20	5623
2026-01-01 01:09:12.74	221.27	9.85	-29.9	-33.9	11.3	1.59e-03	0	43	0	1253048320	20	5662
2026-01-01 01:09:15.75	221.16	9.59	-29.9	-34.3	11.4	1.40e-03	0	43	0	1259339776	19	5966
2026-01-01 01:09:18.76	221.05	9.34	-30.0	-34.1	11.1	2.10e-03	0	43	0	1264582656	20	5758
2026-01-01 01:09:21.76	220.94	9.09	-30.0	-34.1	11.0	2.11e-03	0	43	0	1269825536	20	5796
2026-01-01 01:09:24.77	220.83	8.85	-30.0	-34.3	10.8	2.45e-03	0	43	0	1276116992	20	5896
2026-01-01 01:09:27.78	220.73	8.60	-30.1	-34.5	10.6	2.96e-03	0	43	0	1281359872	20	6004
2026-01-01 01:09:30.77	220.62	8.36	-30.0	-34.4	10.7	3.84e-03	0	43	0	1286602752	20	5928
2026-01-01 01:09:33.78	220.52	8.12	-30.3	-35.1	10.1	7.62e-03	0	43	0	1292894208	20	6308
2026-01-01 01:09:36.79	220.42	7.89	-30.3	-35.4	9.9	8.92e-03	0	43	0	1298137088	20	6460
2026-01-01 01:09:39.80	220.33	7.65	-30.4	-35.7	9.6	1.27e-02	0	43	0	1304428544	20	6644
2026-01-01 01:09:42.82	220.23	7.42	-30.4	-35.9	9.3	1.77e-02	0	43	0	1309671424	20	6794
2026-01-01 01:09:45.84	220.13	7.18	-30.4	-36.0	9.3	1.60e-02	0	43	0	1314914304	20	6831

#Closed at: 2026-01-01 01:09:48
#Recorded file [1318 MB]: D:/data/31010_260101_035803.dat