passes_logs/2026/01/01/R2M6_AANII_01/R2M6_AANII_01__20260101_013802_AQUA_rec.log

#Pass ID: 20260101_013802_AQUA
#Satellite: AQUA
#Configuration: AQUA
#almurnet v.1.7.20240730
#Start time: 2026-01-01 01:38:03

#Version: 2.2.20231116
#Station: R2M6_AANII_01
#Location: 30.233357 lon 59.946436 lat
#TLE: 1 27424U 02022A   25364.96158943  .00001951  00000+0  40088-3 0  9998
#TLE: 2 27424  98.4061 326.1389 0001917  95.3187 305.7939 14.61780362258696

#Time	Az	El	Level	Level2	SNR	BER	BlckErr	Temp	State	Recorded	gain1	gain2
2026-01-01 01:38:03.34	20.26	7.05	-31.2	-46.6	3.8	7.46e-01	0	40	0	0	23	21215
2026-01-01 01:38:06.33	20.35	7.30	-30.2	-45.6	3.8	7.45e-01	0	41	104	0	23	21259
2026-01-01 01:38:09.33	20.43	7.54	-31.4	-47.5	3.8	7.46e-01	0	41	104	0	23	22941
2026-01-01 01:38:12.34	20.52	7.79	-30.7	-45.0	3.8	7.45e-01	0	41	104	0	22	18784
2026-01-01 01:38:15.35	20.61	8.04	-30.1	-44.1	3.7	7.45e-01	0	41	104	0	20	18133
2026-01-01 01:38:18.35	20.70	8.29	-29.9	-43.6	3.8	7.47e-01	0	41	104	0	20	17478
2026-01-01 01:38:21.35	20.79	8.55	-30.0	-44.0	3.8	7.44e-01	0	41	104	0	20	17914
2026-01-01 01:38:24.35	20.89	8.81	-30.6	-45.1	3.8	7.46e-01	0	41	104	0	21	19080
2026-01-01 01:38:27.36	20.98	9.07	-31.3	-46.7	3.8	7.45e-01	0	41	104	0	23	21133
2026-01-01 01:38:30.37	21.08	9.34	-31.6	-47.5	3.8	7.49e-01	0	41	104	0	24	22242
2026-01-01 01:38:33.37	21.18	9.61	-32.0	-49.1	3.8	7.45e-01	0	41	104	0	24	25896
2026-01-01 01:38:36.37	21.28	9.88	-32.4	-50.8	3.8	7.44e-01	0	41	104	0	25	29971
2026-01-01 01:38:39.38	21.38	10.15	-32.6	-51.5	3.8	7.42e-01	0	41	104	0	26	31786
2026-01-01 01:38:42.40	21.48	10.43	-32.6	-51.6	3.8	7.45e-01	0	41	104	0	26	31839
2026-01-01 01:38:45.41	21.59	10.72	-32.6	-51.2	3.8	7.49e-01	0	42	104	0	26	30420
2026-01-01 01:38:48.43	21.70	11.00	-32.3	-49.9	3.8	7.48e-01	0	41	104	0	25	27234
2026-01-01 01:38:51.44	21.81	11.29	-31.7	-47.1	3.8	7.43e-01	0	42	104	0	24	21414
2026-01-01 01:38:54.45	21.92	11.59	-31.0	-45.6	3.8	7.43e-01	0	42	104	0	22	19297
2026-01-01 01:38:57.46	22.04	11.88	-30.9	-45.3	3.8	7.46e-01	0	42	104	0	22	18945
2026-01-01 01:39:00.46	22.15	12.18	-30.6	-44.2	3.8	7.42e-01	0	42	104	0	22	17293
2026-01-01 01:39:03.48	22.27	12.49	-29.8	-43.1	3.8	7.44e-01	0	42	104	0	20	16663
2026-01-01 01:39:06.49	22.39	12.80	-30.4	-44.4	3.8	7.45e-01	0	42	104	0	21	17918
2026-01-01 01:39:09.51	22.52	13.12	-30.1	-43.4	3.8	7.43e-01	0	42	104	0	21	16631
2026-01-01 01:39:12.52	22.64	13.44	-30.5	-44.7	3.8	7.44e-01	0	42	104	0	21	18299
2026-01-01 01:39:15.54	22.77	13.76	-31.4	-46.3	3.8	7.49e-01	0	42	104	0	23	20206
2026-01-01 01:39:18.56	22.91	14.09	-32.2	-48.7	3.8	7.44e-01	0	42	104	0	25	24093
2026-01-01 01:39:21.58	23.04	14.42	-32.4	-49.6	3.8	7.46e-01	0	42	104	0	25	26163
2026-01-01 01:39:24.60	23.18	14.76	-32.7	-51.1	3.8	7.46e-01	0	42	104	0	26	29739
2026-01-01 01:39:27.62	23.32	15.11	-32.8	-51.8	3.8	7.45e-01	0	42	104	0	26	32001
2026-01-01 01:39:30.62	23.46	15.45	-32.8	-51.5	3.8	7.43e-01	0	42	104	0	26	30924
2026-01-01 01:39:33.63	23.61	15.81	-32.7	-50.6	3.8	7.42e-01	0	42	104	0	26	28372
2026-01-01 01:39:36.64	23.76	16.17	-32.3	-49.3	3.8	7.44e-01	0	42	104	0	25	25301
2026-01-01 01:39:39.66	23.92	16.54	-31.6	-46.4	3.8	7.44e-01	0	42	104	0	24	19850
2026-01-01 01:39:42.66	24.08	16.91	-30.4	-43.6	3.8	7.48e-01	0	42	104	0	22	16371
2026-01-01 01:39:45.66	24.24	17.28	-29.9	-42.6	3.8	7.43e-01	0	42	104	0	21	15615
2026-01-01 01:39:48.68	24.40	17.67	-30.2	-43.6	3.8	7.47e-01	0	42	104	0	21	16661
2026-01-01 01:39:51.69	24.58	18.06	-29.8	-42.9	3.8	7.47e-01	0	42	104	0	20	16227
2026-01-01 01:39:54.70	24.75	18.46	-30.9	-44.9	3.8	7.44e-01	0	42	104	0	22	18080
2026-01-01 01:39:57.71	24.93	18.86	-30.9	-44.3	3.8	7.45e-01	0	42	104	0	23	16943
2026-01-01 01:40:00.72	25.11	19.27	-30.8	-44.5	3.8	7.46e-01	0	42	104	0	22	17480
2026-01-01 01:40:03.73	25.30	19.69	-31.9	-47.4	3.8	7.41e-01	0	42	104	0	24	21536
2026-01-01 01:40:06.75	25.50	20.12	-31.7	-49.2	3.8	7.45e-01	0	42	104	0	25	27040
2026-01-01 01:40:09.76	25.70	20.55	-33.0	-47.1	5.0	7.10e-01	0	43	104	0	26	18247
2026-01-01 01:40:12.78	25.90	21.00	-33.0	-49.2	4.0	7.39e-01	0	42	104	0	26	22979
2026-01-01 01:40:15.79	26.12	21.45	-33.1	-49.0	4.2	7.32e-01	0	43	104	0	26	22436
2026-01-01 01:40:18.81	26.33	21.91	-32.2	-40.1	11.1	6.14e-01	0	42	0	1572864	25	8936
2026-01-01 01:40:21.81	26.56	22.38	-31.8	-38.4	13.1	6.07e-01	0	43	0	7340032	24	7678
2026-01-01 01:40:24.83	26.79	22.85	-31.7	-37.7	13.7	6.03e-01	0	43	0	13107200	24	7189
2026-01-01 01:40:27.84	27.03	23.34	-31.2	-36.4	15.0	6.03e-01	0	42	0	18874368	23	6532
2026-01-01 01:40:30.85	27.27	23.84	-30.3	-34.4	17.1	6.03e-01	0	42	0	24641536	21	5776
2026-01-01 01:40:33.86	27.53	24.34	-29.4	-32.8	18.9	6.02e-01	0	43	0	29884416	19	5303
2026-01-01 01:40:36.87	27.79	24.86	-27.8	-30.8	19.8	6.04e-01	0	43	0	35651584	18	5077
2026-01-01 01:40:39.88	28.06	25.39	-28.9	-32.0	19.5	6.04e-01	0	43	0	41418752	18	5120
2026-01-01 01:40:42.89	28.34	25.93	-29.0	-32.2	19.6	6.03e-01	0	43	0	47185920	18	5187
2026-01-01 01:40:45.90	28.63	26.48	-29.2	-32.1	19.4	6.03e-01	0	42	0	52428800	19	5032
2026-01-01 01:40:48.90	28.93	27.04	-29.5	-32.9	18.9	6.03e-01	0	43	0	58195968	19	5329
2026-01-01 01:40:51.90	29.24	27.61	-29.8	-33.3	18.3	6.01e-01	0	43	0	63963136	20	5386
2026-01-01 01:40:54.91	29.56	28.20	-29.5	-32.4	18.9	6.02e-01	0	43	0	69730304	20	5056
2026-01-01 01:40:57.92	29.90	28.80	-30.0	-33.8	18.0	6.03e-01	0	43	0	74973184	20	5596
2026-01-01 01:41:00.93	30.25	29.41	-29.0	-32.1	19.7	6.03e-01	0	43	0	80740352	18	5166
2026-01-01 01:41:03.94	30.61	30.03	-29.2	-32.0	19.5	6.05e-01	0	43	0	86507520	19	5015
2026-01-01 01:41:06.95	30.98	30.67	-29.3	-32.3	19.4	6.03e-01	0	42	0	92274688	19	5093
2026-01-01 01:41:09.96	31.37	31.33	-29.2	-32.1	19.6	6.04e-01	0	43	0	97517568	19	5023
2026-01-01 01:41:12.96	31.78	31.99	-28.9	-31.8	20.0	6.03e-01	0	43	0	103284736	18	5056
2026-01-01 01:41:15.96	32.20	32.67	-28.8	-31.5	20.2	6.04e-01	0	42	0	109051904	18	4939
2026-01-01 01:41:18.97	32.65	33.37	-28.8	-31.5	20.2	6.03e-01	0	43	0	114819072	18	4946
2026-01-01 01:41:21.98	33.11	34.09	-29.0	-32.0	20.0	6.02e-01	0	43	0	120061952	18	5111
2026-01-01 01:41:24.99	33.59	34.82	-29.3	-32.2	19.5	6.04e-01	0	43	0	125829120	19	5066
2026-01-01 01:41:27.99	34.09	35.56	-29.5	-33.0	19.1	6.03e-01	0	43	0	131596288	19	5342
2026-01-01 01:41:30.98	34.62	36.32	-29.6	-33.1	19.1	6.03e-01	0	43	0	136839168	19	5375
2026-01-01 01:41:33.99	35.18	37.10	-29.9	-33.5	18.4	6.03e-01	0	43	0	142606336	20	5421
2026-01-01 01:41:37.00	35.76	37.89	-30.1	-33.4	18.2	6.04e-01	0	43	0	148373504	21	5294
2026-01-01 01:41:40.00	36.37	38.71	-30.1	-33.4	18.2	6.03e-01	0	43	0	154140672	21	5301
2026-01-01 01:41:43.00	37.01	39.53	-30.0	-33.7	18.3	6.04e-01	0	43	0	159907840	20	5526
2026-01-01 01:41:46.00	37.68	40.38	-29.9	-33.5	18.5	6.03e-01	0	43	0	165150720	20	5436
2026-01-01 01:41:49.01	38.40	41.25	-29.9	-33.5	18.5	6.03e-01	0	43	0	170917888	20	5421
2026-01-01 01:41:52.01	39.15	42.13	-29.1	-31.8	19.9	6.04e-01	0	43	0	176685056	19	4894
2026-01-01 01:41:55.03	39.95	43.03	-28.9	-31.2	20.3	6.03e-01	0	43	0	181927936	19	4709
2026-01-01 01:41:58.04	40.79	43.95	-28.7	-30.9	20.4	6.03e-01	0	43	0	187695104	19	4591
2026-01-01 01:42:01.04	41.68	44.88	-28.7	-30.8	20.5	6.00e-01	0	43	0	193462272	19	4577
2026-01-01 01:42:04.05	42.63	45.83	-28.4	-31.0	21.0	6.00e-01	0	43	0	199229440	17	4858
2026-01-01 01:42:07.06	43.64	46.79	-28.4	-31.0	20.9	6.05e-01	0	43	0	204996608	17	4861
2026-01-01 01:42:10.08	44.72	47.77	-28.2	-30.5	21.2	6.03e-01	0	43	0	210239488	17	4715
2026-01-01 01:42:13.09	45.86	48.76	-28.4	-31.1	20.9	6.02e-01	0	43	0	216006656	17	4885
2026-01-01 01:42:16.07	47.07	49.75	-28.4	-31.0	21.0	6.03e-01	0	43	0	221773824	17	4862
2026-01-01 01:42:19.08	48.37	50.76	-28.2	-30.6	21.2	6.02e-01	0	43	0	227016704	17	4735
2026-01-01 01:42:22.07	49.75	51.78	-28.3	-30.8	21.1	6.02e-01	0	43	0	232783872	17	4807
2026-01-01 01:42:25.08	51.25	52.80	-28.2	-30.6	21.3	6.03e-01	0	43	0	238551040	17	4719
2026-01-01 01:42:28.07	52.83	53.81	-28.4	-31.0	21.1	6.01e-01	0	43	0	244318208	17	4851
2026-01-01 01:42:31.07	54.54	54.83	-27.8	-30.3	21.0	6.03e-01	0	43	0	249561088	17	4842
2026-01-01 01:42:34.07	56.38	55.84	-28.9	-31.6	20.4	6.04e-01	0	43	0	255328256	18	4952
2026-01-01 01:42:37.08	58.36	56.85	-29.3	-32.3	19.1	6.04e-01	0	43	0	261095424	19	5068
2026-01-01 01:42:40.09	60.49	57.84	-29.9	-33.4	18.7	6.03e-01	0	43	0	266862592	20	5375
2026-01-01 01:42:43.10	62.79	58.80	-30.4	-34.1	17.9	6.03e-01	0	42	0	272105472	21	5553
2026-01-01 01:42:46.10	65.24	59.74	-30.3	-33.8	18.2	6.01e-01	0	43	0	277872640	21	5397
2026-01-01 01:42:49.09	67.87	60.63	-31.2	-35.6	16.3	6.04e-01	0	43	0	283639808	23	5981
2026-01-01 01:42:52.09	70.69	61.49	-31.1	-35.6	16.7	6.01e-01	0	43	0	289406976	22	6076
2026-01-01 01:42:55.10	73.72	62.29	-31.3	-35.7	16.3	6.03e-01	0	43	0	294649856	23	6019
2026-01-01 01:42:58.09	76.92	63.03	-31.0	-35.3	17.0	6.04e-01	0	43	0	300417024	22	5918
2026-01-01 01:43:01.09	80.34	63.69	-31.3	-35.9	16.2	6.02e-01	0	43	0	306184192	23	6087
2026-01-01 01:43:04.09	83.94	64.28	-31.2	-35.5	16.5	6.04e-01	0	42	0	311951360	23	5914
2026-01-01 01:43:07.09	87.71	64.78	-31.1	-35.2	16.6	6.02e-01	0	43	0	317194240	23	5747
2026-01-01 01:43:10.10	91.66	65.18	-31.2	-35.5	16.5	6.03e-01	0	43	0	322961408	23	5878
2026-01-01 01:43:13.11	95.72	65.47	-31.7	-36.7	15.4	6.03e-01	0	42	0	328728576	24	6383
2026-01-01 01:43:16.12	99.88	65.65	-31.4	-36.2	16.1	6.05e-01	0	43	0	334495744	23	6215
2026-01-01 01:43:19.13	104.08	65.72	-31.4	-36.2	16.1	6.04e-01	0	43	0	339738624	23	6218
2026-01-01 01:43:22.12	108.25	65.66	-31.2	-35.3	16.7	6.04e-01	0	43	0	345505792	23	5818
2026-01-01 01:43:25.12	112.40	65.50	-31.2	-35.5	16.6	6.04e-01	0	43	0	351272960	23	5921
2026-01-01 01:43:28.13	116.48	65.22	-31.0	-35.3	17.0	6.02e-01	0	43	0	356515840	22	5905
2026-01-01 01:43:31.14	120.44	64.83	-31.0	-34.7	17.1	6.02e-01	0	43	0	362283008	23	5512
2026-01-01 01:43:34.14	124.24	64.34	-30.8	-34.7	17.5	6.02e-01	0	43	0	368050176	22	5636
2026-01-01 01:43:37.14	127.87	63.77	-30.6	-34.3	17.8	6.01e-01	0	43	0	373817344	22	5456
2026-01-01 01:43:40.14	131.31	63.11	-30.2	-33.6	18.4	6.01e-01	0	43	0	379584512	21	5316
2026-01-01 01:43:43.15	134.56	62.37	-30.1	-33.4	18.6	6.04e-01	0	43	0	384827392	21	5227
2026-01-01 01:43:46.16	137.61	61.57	-30.0	-33.5	18.8	6.03e-01	0	43	0	390594560	20	5405
2026-01-01 01:43:49.16	140.46	60.72	-30.0	-33.6	18.7	6.03e-01	0	43	0	396361728	20	5469
2026-01-01 01:43:52.17	143.13	59.82	-30.2	-33.5	18.3	6.04e-01	0	43	0	401604608	21	5292
2026-01-01 01:43:55.18	145.61	58.88	-30.1	-33.8	18.6	6.02e-01	0	43	0	407371776	20	5547
2026-01-01 01:43:58.20	147.93	57.91	-29.8	-33.0	19.1	6.03e-01	0	43	0	413138944	20	5218
2026-01-01 01:44:01.20	150.07	56.93	-29.6	-32.6	19.2	6.02e-01	0	43	0	418906112	20	5067
2026-01-01 01:44:04.21	152.07	55.92	-29.7	-32.4	19.1	6.03e-01	0	43	0	424673280	21	4874
2026-01-01 01:44:07.22	153.93	54.90	-29.4	-32.5	19.7	6.03e-01	0	43	0	429916160	19	5138
2026-01-01 01:44:10.21	155.65	53.89	-29.5	-32.4	19.4	6.02e-01	0	43	0	435683328	20	5000
2026-01-01 01:44:13.22	157.26	52.86	-29.4	-32.6	19.6	6.04e-01	0	43	0	441450496	19	5176
2026-01-01 01:44:16.23	158.76	51.83	-29.7	-32.7	19.2	6.04e-01	0	43	0	446693376	20	5092
2026-01-01 01:44:19.23	160.16	50.81	-29.7	-32.8	19.1	6.02e-01	0	43	0	452460544	20	5134
2026-01-01 01:44:22.23	161.47	49.80	-29.6	-32.9	19.5	6.02e-01	0	43	0	458227712	19	5272
2026-01-01 01:44:25.24	162.70	48.80	-29.6	-32.5	19.3	6.03e-01	0	43	0	463994880	20	5030
2026-01-01 01:44:28.24	163.84	47.80	-29.9	-33.3	18.8	6.03e-01	0	43	0	469762048	20	5335
2026-01-01 01:44:31.25	164.92	46.82	-29.9	-33.5	18.6	6.03e-01	0	43	0	475004928	20	5439
2026-01-01 01:44:34.26	165.94	45.85	-30.0	-33.6	18.6	6.04e-01	0	43	0	480772096	20	5462
2026-01-01 01:44:37.28	166.89	44.89	-29.5	-32.4	19.3	6.04e-01	0	43	0	486539264	20	4996
2026-01-01 01:44:40.28	167.79	43.96	-29.4	-32.6	19.6	6.03e-01	0	43	0	491782144	19	5167
2026-01-01 01:44:43.29	168.64	43.04	-29.6	-32.5	19.1	6.03e-01	0	43	0	497549312	20	5054
2026-01-01 01:44:46.31	169.44	42.13	-29.8	-33.2	18.7	6.01e-01	0	43	0	503316480	20	5303
2026-01-01 01:44:49.31	170.20	41.24	-29.6	-32.6	19.0	6.04e-01	0	43	0	509083648	20	5069
2026-01-01 01:44:52.32	170.92	40.37	-29.8	-33.2	18.6	6.03e-01	0	43	0	514850816	20	5325
2026-01-01 01:44:55.33	171.60	39.52	-29.8	-33.0	18.8	6.01e-01	0	43	0	520093696	20	5226
2026-01-01 01:44:58.35	172.24	38.68	-30.1	-33.5	18.3	6.04e-01	0	43	0	525860864	21	5324
2026-01-01 01:45:01.35	172.86	37.86	-29.8	-33.1	18.8	6.04e-01	0	43	0	531628032	20	5260
2026-01-01 01:45:04.35	173.44	37.06	-29.7	-32.8	18.9	6.02e-01	0	43	0	537395200	20	5171
2026-01-01 01:45:07.36	174.00	36.28	-29.6	-32.7	19.0	6.02e-01	0	43	0	542638080	20	5116
2026-01-01 01:45:10.37	174.53	35.51	-29.3	-32.4	19.6	6.04e-01	0	43	0	548405248	19	5104
2026-01-01 01:45:13.38	175.03	34.76	-29.0	-31.9	20.1	6.04e-01	0	43	0	554172416	18	5070
2026-01-01 01:45:16.39	175.52	34.03	-29.1	-31.7	19.8	6.03e-01	0	43	0	559939584	19	4898
2026-01-01 01:45:19.39	175.98	33.31	-28.8	-31.5	20.3	6.03e-01	0	43	0	565182464	18	4924
2026-01-01 01:45:22.41	176.42	32.61	-28.7	-31.3	20.4	6.01e-01	0	43	0	570949632	18	4864
2026-01-01 01:45:25.41	176.85	31.92	-28.5	-31.3	20.7	6.04e-01	0	43	0	576716800	17	4973
2026-01-01 01:45:28.42	177.25	31.25	-28.6	-31.1	20.5	6.00e-01	0	43	0	582483968	18	4792
2026-01-01 01:45:31.42	177.64	30.60	-28.7	-31.2	20.4	6.02e-01	0	43	0	587726848	18	4839
2026-01-01 01:45:34.42	178.02	29.96	-28.8	-31.6	20.2	6.02e-01	0	43	0	593494016	18	4960
2026-01-01 01:45:37.43	178.38	29.33	-29.4	-32.7	19.3	6.03e-01	0	43	0	599261184	19	5250
2026-01-01 01:45:40.44	178.73	28.71	-29.1	-31.9	19.7	6.02e-01	0	43	0	605028352	19	4950
2026-01-01 01:45:43.45	179.06	28.11	-29.0	-32.0	19.9	6.04e-01	0	43	0	610271232	18	5123
2026-01-01 01:45:46.46	179.38	27.52	-28.8	-31.6	20.2	6.03e-01	0	43	0	616038400	18	4961
2026-01-01 01:45:49.47	179.70	26.94	-29.0	-32.1	19.9	6.02e-01	0	43	0	621805568	18	5125
2026-01-01 01:45:52.48	180.00	26.38	-29.1	-31.9	19.6	6.04e-01	0	43	0	627572736	19	4944
2026-01-01 01:45:55.49	180.28	25.82	-29.2	-32.1	19.6	6.05e-01	0	43	0	633339904	19	5036
2026-01-01 01:45:58.49	180.56	25.29	-29.3	-32.5	19.3	6.03e-01	0	43	0	638582784	19	5174
2026-01-01 01:46:01.49	180.83	24.76	-29.2	-32.3	19.4	6.04e-01	0	43	0	644349952	19	5098
2026-01-01 01:46:04.50	181.09	24.24	-29.3	-32.6	19.2	6.01e-01	0	43	0	650117120	19	5213
2026-01-01 01:46:07.52	181.35	23.73	-29.5	-32.9	19.0	6.01e-01	0	43	0	655360000	19	5342
2026-01-01 01:46:10.52	181.59	23.23	-29.4	-32.8	19.0	6.02e-01	0	43	0	661127168	19	5318
2026-01-01 01:46:13.54	181.83	22.74	-29.2	-32.2	19.4	6.04e-01	0	43	0	666894336	19	5072
2026-01-01 01:46:16.54	182.06	22.26	-29.4	-32.6	19.0	6.04e-01	0	43	0	672661504	19	5251
2026-01-01 01:46:19.55	182.28	21.79	-29.2	-32.2	19.3	6.01e-01	0	43	0	678428672	19	5082
2026-01-01 01:46:22.56	182.50	21.33	-29.2	-32.3	19.2	6.02e-01	0	43	0	683671552	19	5131
2026-01-01 01:46:25.56	182.71	20.88	-29.1	-32.0	19.4	6.03e-01	0	43	0	689438720	19	5047
2026-01-01 01:46:28.56	182.92	20.43	-29.3	-32.4	19.1	6.03e-01	0	43	0	695205888	19	5198
2026-01-01 01:46:31.56	183.11	20.00	-29.4	-32.5	18.6	6.03e-01	0	43	0	700448768	20	5132
2026-01-01 01:46:34.58	183.31	19.57	-29.1	-32.0	19.3	6.03e-01	0	43	0	706215936	19	5042
2026-01-01 01:46:37.59	183.50	19.15	-29.1	-32.0	19.3	6.02e-01	0	43	0	711983104	19	5042
2026-01-01 01:46:40.59	183.68	18.73	-29.0	-32.2	19.5	6.04e-01	0	43	0	717750272	18	5235
2026-01-01 01:46:43.59	183.86	18.33	-29.2	-32.2	19.2	6.01e-01	0	43	0	723517440	19	5097
2026-01-01 01:46:46.60	184.03	17.93	-29.3	-32.6	18.9	6.03e-01	0	43	0	728760320	19	5260
2026-01-01 01:46:49.61	184.20	17.54	-29.0	-32.2	19.5	6.03e-01	0	43	0	734527488	18	5232
2026-01-01 01:46:52.61	184.36	17.15	-29.3	-32.6	18.9	6.02e-01	0	43	0	740294656	19	5267
2026-01-01 01:46:55.61	184.52	16.77	-29.2	-32.3	19.0	6.04e-01	0	43	0	745537536	19	5161
2026-01-01 01:46:58.61	184.68	16.40	-28.9	-31.5	19.5	6.02e-01	0	43	0	751304704	19	4877
2026-01-01 01:47:01.61	184.83	16.04	-28.9	-32.0	19.5	6.03e-01	0	43	0	757071872	18	5168
2026-01-01 01:47:04.63	184.98	15.67	-29.1	-32.2	19.1	6.03e-01	0	43	0	762839040	19	5110
2026-01-01 01:47:07.63	185.13	15.32	-29.2	-32.3	19.0	6.02e-01	0	43	0	768081920	19	5170
2026-01-01 01:47:10.63	185.27	14.97	-29.3	-33.0	18.6	6.03e-01	0	43	0	773849088	18	5552
2026-01-01 01:47:13.62	185.41	14.63	-29.0	-32.2	18.6	6.05e-01	0	43	0	779616256	18	5253
2026-01-01 01:47:16.64	185.54	14.29	-28.9	-32.2	19.3	6.03e-01	0	43	0	785383424	18	5234
2026-01-01 01:47:19.64	185.68	13.95	-29.0	-32.5	19.1	6.03e-01	0	43	0	791150592	18	5344
2026-01-01 01:47:22.66	185.81	13.62	-29.5	-33.1	18.4	6.05e-01	0	43	0	796393472	19	5490
2026-01-01 01:47:25.67	185.94	13.30	-29.5	-33.4	18.2	6.02e-01	0	43	0	802160640	19	5600
2026-01-01 01:47:28.69	186.06	12.98	-29.5	-32.9	18.1	6.04e-01	0	43	0	807927808	20	5317
2026-01-01 01:47:31.69	186.18	12.66	-29.5	-33.4	18.1	6.02e-01	0	43	0	813694976	19	5620
2026-01-01 01:47:34.70	186.30	12.35	-29.8	-33.7	17.5	6.01e-01	0	43	0	818937856	20	5630
2026-01-01 01:47:37.71	186.42	12.04	-29.8	-33.6	17.6	6.05e-01	0	43	0	824705024	20	5596
2026-01-01 01:47:40.72	186.53	11.74	-29.7	-33.4	17.7	6.03e-01	0	43	0	830472192	20	5509
2026-01-01 01:47:43.73	186.65	11.44	-30.2	-34.5	16.6	6.05e-01	0	43	0	836239360	21	5904
2026-01-01 01:47:46.74	186.76	11.15	-29.7	-33.4	17.6	6.04e-01	0	43	0	841482240	20	5541
2026-01-01 01:47:49.74	186.86	10.86	-29.7	-33.4	17.6	6.05e-01	0	43	0	847249408	20	5546
2026-01-01 01:47:52.75	186.97	10.57	-29.8	-33.8	17.3	6.04e-01	0	43	0	853016576	20	5710
2026-01-01 01:47:55.76	187.07	10.28	-29.6	-33.3	17.6	6.04e-01	0	43	0	858783744	20	5502
2026-01-01 01:47:58.77	187.18	10.00	-29.2	-32.6	18.5	6.04e-01	0	43	0	864026624	19	5307
2026-01-01 01:48:01.79	187.28	9.73	-29.4	-33.1	18.1	6.02e-01	0	43	0	869793792	19	5505
2026-01-01 01:48:04.80	187.38	9.45	-29.6	-33.6	17.7	6.02e-01	0	43	0	875560960	19	5731
2026-01-01 01:48:07.80	187.47	9.18	-29.4	-33.3	17.9	6.02e-01	0	43	0	881328128	19	5615
2026-01-01 01:48:10.79	187.57	8.92	-29.4	-33.1	18.1	6.04e-01	0	43	0	886571008	19	5505
2026-01-01 01:48:13.80	187.66	8.65	-29.5	-33.3	17.8	6.04e-01	0	43	0	892338176	19	5633
2026-01-01 01:48:16.80	187.75	8.39	-29.4	-33.1	17.9	6.01e-01	0	43	0	898105344	19	5527
2026-01-01 01:48:19.82	187.84	8.14	-29.3	-32.9	18.0	6.03e-01	0	43	0	903872512	19	5473
2026-01-01 01:48:22.82	187.93	7.88	-29.5	-33.4	17.6	6.04e-01	0	43	0	909115392	19	5679
2026-01-01 01:48:25.83	188.02	7.63	-29.4	-33.3	17.7	6.02e-01	0	43	0	914882560	19	5622
2026-01-01 01:48:28.84	188.10	7.38	-29.5	-33.7	17.4	6.02e-01	0	43	0	920649728	19	5814
2026-01-01 01:48:31.84	188.19	7.13	-29.7	-33.9	16.9	6.02e-01	0	43	0	926416896	20	5790

#Closed at: 2026-01-01 01:48:34
#Recorded file [927 MB]: D:/data/31010_260101_044017.dat