passes_logs/2026/01/01/R2M6_AANII_01/R2M6_AANII_01__20260101_064706_FENGYUN_3E_rec.log

#Pass ID: 20260101_064706_FENGYUN 3E
#Satellite: FENGYUN 3E
#Configuration: FENGYUN 3E
#almurnet v.1.7.20240730
#Start time: 2026-01-01 06:47:06

#Version: 2.2.20231116
#Station: R2M6_AANII_01
#Location: 30.233357 lon 59.946436 lat
#TLE: 1 49008U 21062A   25365.55977344  .00000403  00000+0  21051-3 0  9995
#TLE: 2 49008  98.7483   5.8586 0001311 170.0615 190.0588 14.19883886232790

#Time	Az	El	Level	Level2	SNR	BER	BlckErr	Temp	State	Recorded	gain1	gain2
2026-01-01 06:47:06.19	9.62	6.96	-30.4	-34.3	4.7	8.05e-01	0	40	0	0	20	5648
2026-01-01 06:47:09.20	9.32	7.14	-29.9	-33.1	7.8	9.27e-02	0	41	0	7340032	19	5204
2026-01-01 06:47:12.21	9.01	7.33	-29.8	-32.7	8.1	7.96e-02	0	41	0	28311552	19	5035
2026-01-01 06:47:15.22	8.70	7.51	-29.7	-32.4	8.3	7.13e-02	0	41	0	50331648	19	4929
2026-01-01 06:47:18.24	8.39	7.69	-28.1	-29.8	11.0	2.06e-03	0	41	0	72351744	16	4366
2026-01-01 06:47:21.25	8.07	7.88	-27.0	-28.1	12.6	2.77e-03	0	41	0	94371840	14	4077
2026-01-01 06:47:24.26	7.75	8.06	-26.7	-28.0	12.9	2.57e-03	0	41	0	115343360	13	4166
2026-01-01 06:47:27.27	7.42	8.25	-26.8	-28.1	12.9	4.46e-05	0	41	0	137363456	13	4182
2026-01-01 06:47:30.29	7.09	8.43	-26.8	-28.2	12.8	4.00e-05	0	41	0	159383552	13	4204
2026-01-01 06:47:33.30	6.75	8.62	-27.0	-28.6	12.5	6.98e-05	0	41	0	181403648	13	4327
2026-01-01 06:47:36.30	6.41	8.80	-26.4	-27.1	13.5	1.71e-05	0	41	0	202375168	13	3931
2026-01-01 06:47:39.31	6.07	8.99	-26.5	-28.0	13.2	2.17e-05	0	42	0	224395264	12	4280
2026-01-01 06:47:42.32	5.72	9.17	-26.4	-27.8	13.4	1.25e-05	0	42	0	246415360	12	4210
2026-01-01 06:47:45.33	5.37	9.36	-26.7	-27.8	13.1	2.28e-05	0	42	0	267386880	13	4115
2026-01-01 06:47:48.34	5.01	9.55	-26.5	-27.9	13.4	9.10e-06	0	42	0	289406976	12	4232
2026-01-01 06:47:51.35	4.65	9.74	-26.3	-27.5	13.6	5.70e-06	0	42	0	311427072	12	4125
2026-01-01 06:47:54.36	4.28	9.92	-26.2	-27.2	13.8	1.10e-06	0	42	0	333447168	12	4045
2026-01-01 06:47:57.36	3.91	10.11	-26.2	-27.2	13.8	6.80e-06	0	42	0	354418688	12	4042
2026-01-01 06:48:00.37	3.53	10.30	-26.1	-27.1	13.9	9.10e-06	0	42	0	376438784	12	4012
2026-01-01 06:48:03.40	3.15	10.49	-26.2	-27.3	13.8	9.10e-06	0	42	0	398458880	12	4074
2026-01-01 06:48:06.42	2.76	10.68	-26.4	-27.7	13.5	3.40e-06	0	42	0	419430400	12	4186
2026-01-01 06:48:09.42	2.37	10.87	-26.6	-27.6	13.4	9.10e-06	0	42	0	441450496	13	4032
2026-01-01 06:48:12.44	1.97	11.06	-26.3	-27.4	13.7	3.40e-06	0	42	0	463470592	12	4107
2026-01-01 06:48:15.45	1.56	11.25	-26.2	-27.3	13.8	3.40e-06	0	42	0	485490688	12	4073
2026-01-01 06:48:18.47	1.15	11.44	-26.0	-26.8	14.1	0.00e+00	0	42	0	506462208	12	3935
2026-01-01 06:48:21.50	0.74	11.63	-25.4	-26.5	11.4	1.10e-06	0	42	0	528482304	11	4114
2026-01-01 06:48:24.50	0.32	11.82	-25.8	-26.7	14.5	0.00e+00	0	42	0	550502400	11	4017
2026-01-01 06:48:27.51	359.89	12.01	-26.0	-27.3	14.2	2.20e-06	0	42	0	572522496	11	4163
2026-01-01 06:48:30.52	359.46	12.19	-25.9	-27.1	14.3	1.10e-06	0	42	0	593494016	11	4107
2026-01-01 06:48:33.53	359.03	12.38	-26.0	-27.2	14.3	0.00e+00	0	42	0	615514112	11	4135
2026-01-01 06:48:36.53	358.58	12.57	-26.0	-27.3	14.2	2.00e-03	0	42	0	637534208	11	4181
2026-01-01 06:48:39.53	358.14	12.76	-26.2	-27.3	13.9	2.33e-03	0	43	0	658505728	12	4060
2026-01-01 06:48:42.53	357.68	12.95	-26.0	-26.9	14.2	2.09e-03	0	43	0	680525824	12	3955
2026-01-01 06:48:45.53	357.23	13.13	-25.9	-27.1	14.4	0.00e+00	0	43	0	702545920	11	4097
2026-01-01 06:48:48.54	356.76	13.32	-25.5	-26.6	15.0	2.01e-03	0	43	0	724566016	10	4081
2026-01-01 06:48:51.55	356.29	13.51	-25.4	-26.5	15.1	1.79e-03	0	43	0	745537536	10	4062
2026-01-01 06:48:54.56	355.81	13.69	-25.5	-26.6	15.0	1.48e-03	0	43	0	767557632	10	4078
2026-01-01 06:48:57.56	355.33	13.88	-25.5	-26.6	15.0	1.53e-03	0	43	0	789577728	10	4098
2026-01-01 06:49:00.57	354.84	14.06	-25.4	-26.4	15.1	0.00e+00	0	43	0	810549248	10	4034
2026-01-01 06:49:03.58	354.34	14.25	-25.4	-26.4	15.1	0.00e+00	0	43	0	832569344	10	4053
2026-01-01 06:49:06.59	353.84	14.43	-25.4	-26.4	15.1	0.00e+00	0	43	0	854589440	10	4027
2026-01-01 06:49:09.60	353.33	14.61	-25.5	-26.6	15.1	1.36e-03	0	43	0	876609536	10	4080
2026-01-01 06:49:12.61	352.81	14.79	-25.4	-26.3	15.2	0.00e+00	0	43	0	897581056	10	4017
2026-01-01 06:49:15.63	352.29	14.98	-25.3	-26.3	15.2	0.00e+00	0	43	0	919601152	10	4005
2026-01-01 06:49:18.64	351.76	15.16	-25.2	-26.0	15.4	0.00e+00	0	43	0	941621248	10	3951
2026-01-01 06:49:21.65	351.22	15.33	-25.0	-25.6	15.6	0.00e+00	0	43	0	963641344	10	3845
2026-01-01 06:49:24.68	350.68	15.51	-24.8	-25.6	15.9	0.00e+00	0	43	0	984612864	9	3937
2026-01-01 06:49:27.68	350.13	15.69	-24.7	-25.4	16.0	0.00e+00	0	43	0	1006632960	9	3891
2026-01-01 06:49:30.69	349.58	15.86	-24.6	-25.3	16.1	0.00e+00	0	43	0	1028653056	9	3861
2026-01-01 06:49:33.70	349.01	16.03	-24.7	-25.4	16.0	0.00e+00	0	43	0	1049624576	9	3888
2026-01-01 06:49:36.71	348.45	16.21	-24.7	-25.4	16.0	0.00e+00	0	43	0	1071644672	9	3888
2026-01-01 06:49:39.71	347.87	16.37	-24.7	-25.4	16.1	0.00e+00	0	43	0	1093664768	9	3884
2026-01-01 06:49:42.73	347.29	16.54	-24.5	-24.9	16.3	0.00e+00	0	43	0	1114636288	9	3764
2026-01-01 06:49:45.74	346.70	16.71	-24.4	-24.8	16.4	0.00e+00	0	43	0	1136656384	9	3744
2026-01-01 06:49:48.75	346.11	16.87	-24.3	-25.0	16.5	0.00e+00	0	43	0	1158676480	8	3893
2026-01-01 06:49:51.75	345.51	17.03	-24.3	-25.0	16.5	0.00e+00	0	43	0	1180696576	8	3900
2026-01-01 06:49:54.76	344.90	17.19	-24.4	-25.2	16.4	0.00e+00	0	43	0	1201668096	8	3953
2026-01-01 06:49:57.77	344.29	17.35	-24.6	-25.6	16.2	0.00e+00	0	43	0	1223688192	8	4040
2026-01-01 06:50:00.78	343.66	17.50	-24.7	-25.3	16.1	0.00e+00	0	43	0	1245708288	9	3874
2026-01-01 06:50:03.79	343.04	17.66	-24.5	-25.5	16.3	0.00e+00	0	43	0	1267728384	8	4033
2026-01-01 06:50:06.80	342.40	17.80	-24.3	-24.9	16.6	0.00e+00	0	43	0	1288699904	8	3882
2026-01-01 06:50:09.81	341.76	17.95	-24.1	-24.7	16.7	4.57e-05	0	43	0	1310720000	8	3822
2026-01-01 06:50:12.82	341.12	18.09	-23.9	-24.7	16.9	0.00e+00	0	43	0	1332740096	7	3941
2026-01-01 06:50:15.84	340.46	18.24	-24.0	-24.8	16.9	0.00e+00	0	43	0	1354760192	7	3964
2026-01-01 06:50:18.85	339.80	18.37	-24.2	-24.9	16.6	1.07e-04	0	43	0	1375731712	8	3877
2026-01-01 06:50:21.85	339.14	18.51	-24.4	-25.2	16.5	1.70e-04	0	43	0	1397751808	8	3942
2026-01-01 06:50:24.85	338.47	18.64	-24.2	-24.9	16.6	1.88e-04	0	43	0	1419771904	8	3871
2026-01-01 06:50:27.86	337.80	18.77	-24.2	-24.9	16.6	1.77e-04	0	43	0	1440743424	8	3868
2026-01-01 06:50:30.87	337.12	18.89	-24.1	-24.6	16.8	7.09e-05	0	43	0	1462763520	8	3801
2026-01-01 06:50:33.89	336.43	19.01	-23.8	-24.4	17.1	0.00e+00	0	43	0	1484783616	7	3869
2026-01-01 06:50:36.89	335.74	19.13	-23.7	-24.1	17.3	0.00e+00	0	43	0	1506803712	7	3808
2026-01-01 06:50:39.90	335.04	19.24	-23.6	-24.1	17.3	0.00e+00	0	43	0	1527775232	7	3799
2026-01-01 06:50:42.92	334.33	19.35	-23.4	-23.7	17.5	0.00e+00	0	43	0	1549795328	7	3701
2026-01-01 06:50:45.93	333.62	19.45	-23.4	-23.5	17.6	0.00e+00	0	43	0	1571815424	7	3650
2026-01-01 06:50:48.94	332.91	19.55	-23.4	-24.0	17.6	0.00e+00	0	43	0	1593835520	6	3871
2026-01-01 06:50:51.94	332.19	19.65	-23.6	-23.9	17.4	0.00e+00	0	43	0	1614807040	7	3747
2026-01-01 06:50:54.96	331.47	19.74	-23.8	-24.4	17.2	0.00e+00	0	43	0	1636827136	7	3859
2026-01-01 06:50:57.97	330.74	19.83	-23.6	-24.0	17.3	0.00e+00	0	43	0	1657798656	7	3783
2026-01-01 06:51:00.99	330.01	19.91	-23.6	-24.0	17.4	0.00e+00	0	43	0	1679818752	7	3762
2026-01-01 06:51:04.00	329.27	19.99	-23.5	-23.8	17.5	0.00e+00	0	43	0	1701838848	7	3725
2026-01-01 06:51:07.02	328.53	20.07	-23.5	-23.7	17.5	0.00e+00	0	43	0	1723858944	7	3711
2026-01-01 06:51:10.03	327.79	20.13	-23.4	-24.2	17.5	0.00e+00	0	43	0	1744830464	6	3927
2026-01-01 06:51:13.05	327.04	20.20	-23.9	-24.7	17.0	0.00e+00	0	43	0	1766850560	7	3934
2026-01-01 06:51:16.06	326.29	20.26	-23.6	-24.1	17.3	0.00e+00	0	43	0	1788870656	7	3794
2026-01-01 06:51:19.08	325.54	20.31	-23.6	-24.0	17.4	0.00e+00	0	43	0	1810890752	7	3779
2026-01-01 06:51:22.10	324.78	20.36	-23.6	-24.0	17.4	0.00e+00	0	43	0	1832910848	7	3763
2026-01-01 06:51:25.11	324.03	20.40	-23.6	-24.0	17.4	0.00e+00	0	43	0	1853882368	7	3764
2026-01-01 06:51:28.12	323.27	20.44	-23.5	-24.3	17.4	0.00e+00	0	43	0	1875902464	6	3956
2026-01-01 06:51:31.13	322.51	20.47	-23.6	-24.1	17.3	0.00e+00	0	43	0	1897922560	7	3784
2026-01-01 06:51:34.13	321.75	20.50	-23.4	-24.2	17.5	0.00e+00	0	43	0	1918894080	6	3919
2026-01-01 06:51:37.14	320.98	20.52	-23.4	-24.2	17.5	2.05e-04	0	43	0	1940914176	6	3922
2026-01-01 06:51:40.15	320.22	20.54	-23.3	-23.9	17.7	0.00e+00	0	43	0	1962934272	6	3854
2026-01-01 06:51:43.16	319.46	20.55	-23.3	-23.8	17.7	0.00e+00	0	44	0	1984954368	6	3839
2026-01-01 06:51:46.17	318.69	20.56	-23.4	-24.0	17.6	0.00e+00	0	43	0	2005925888	6	3878
2026-01-01 06:51:49.17	317.93	20.56	-23.3	-23.9	17.7	0.00e+00	0	43	0	2027945984	6	3858
2026-01-01 06:51:52.18	317.16	20.56	-23.3	-23.8	17.7	1.47e-03	0	43	0	2049966080	6	3834
2026-01-01 06:51:55.20	316.39	20.55	-23.1	-23.5	17.9	1.52e-03	0	43	0	2071986176	6	3767
2026-01-01 06:51:58.21	315.63	20.53	-23.4	-24.2	17.5	1.76e-03	0	43	0	2092957696	6	3921
2026-01-01 06:52:01.21	314.87	20.51	-23.7	-24.2	17.2	1.80e-03	0	43	0	2114977792	7	3823
2026-01-01 06:52:04.21	314.11	20.48	-23.8	-24.5	17.1	1.48e-03	0	43	0	2136997888	7	3889
2026-01-01 06:52:07.23	313.34	20.45	-23.3	-23.8	17.7	1.59e-03	0	43	0	2157969408	6	3834
2026-01-01 06:52:10.24	312.58	20.42	-23.7	-24.2	17.3	1.66e-03	0	43	0	2179989504	7	3809
2026-01-01 06:52:13.25	311.83	20.37	-23.3	-24.0	17.6	0.00e+00	0	43	0	2202009600	6	3866
2026-01-01 06:52:16.26	311.07	20.33	-23.2	-23.7	17.8	0.00e+00	0	43	0	2224029696	6	3811
2026-01-01 06:52:19.28	310.31	20.28	-23.1	-23.5	17.8	0.00e+00	0	43	0	2245001216	6	3770
2026-01-01 06:52:22.29	309.56	20.22	-23.4	-24.0	17.6	0.00e+00	0	43	0	2267021312	6	3878
2026-01-01 06:52:25.30	308.82	20.16	-23.4	-24.1	17.5	0.00e+00	0	43	0	2289041408	6	3906
2026-01-01 06:52:28.31	308.07	20.09	-23.1	-23.5	17.9	0.00e+00	0	43	0	2310012928	6	3771
2026-01-01 06:52:31.32	307.33	20.02	-23.2	-23.7	17.7	0.00e+00	0	43	0	2332033024	6	3807
2026-01-01 06:52:34.32	306.60	19.94	-23.3	-23.9	17.6	0.00e+00	0	43	0	2354053120	6	3854
2026-01-01 06:52:37.33	305.86	19.86	-23.3	-23.9	17.6	0.00e+00	0	43	0	2375024640	6	3861
2026-01-01 06:52:40.34	305.13	19.77	-23.4	-24.1	17.5	0.00e+00	0	43	0	2397044736	6	3890
2026-01-01 06:52:43.35	304.41	19.68	-23.3	-24.0	17.6	0.00e+00	0	43	0	2419064832	6	3870
2026-01-01 06:52:46.36	303.69	19.59	-23.4	-24.1	17.5	0.00e+00	0	43	0	2441084928	6	3895
2026-01-01 06:52:49.38	302.97	19.49	-23.3	-23.9	17.6	0.00e+00	0	43	0	2462056448	6	3860
2026-01-01 06:52:52.39	302.25	19.38	-23.4	-24.2	17.5	0.00e+00	0	43	0	2484076544	6	3921
2026-01-01 06:52:55.40	301.55	19.28	-23.6	-24.0	17.3	0.00e+00	0	43	0	2506096640	7	3772
2026-01-01 06:52:58.40	300.85	19.17	-23.8	-24.4	17.1	0.00e+00	0	43	0	2528116736	7	3860
2026-01-01 06:53:01.42	300.15	19.05	-23.6	-24.0	17.3	0.00e+00	0	43	0	2549088256	7	3776
2026-01-01 06:53:04.43	299.46	18.93	-23.6	-24.0	17.3	0.00e+00	0	43	0	2571108352	7	3769
2026-01-01 06:53:07.44	298.77	18.81	-23.5	-23.9	17.4	0.00e+00	0	43	0	2593128448	7	3741
2026-01-01 06:53:10.44	298.09	18.68	-23.7	-24.1	17.2	0.00e+00	0	43	0	2615148544	7	3803
2026-01-01 06:53:13.45	297.42	18.55	-23.7	-24.2	17.1	0.00e+00	0	43	0	2636120064	7	3824
2026-01-01 06:53:16.45	296.75	18.42	-23.7	-24.2	17.1	0.00e+00	0	43	0	2658140160	7	3822
2026-01-01 06:53:19.46	296.09	18.28	-23.7	-24.3	17.1	0.00e+00	0	43	0	2680160256	7	3834
2026-01-01 06:53:22.47	295.43	18.14	-23.4	-24.0	16.5	0.00e+00	0	43	0	2701131776	7	3866
2026-01-01 06:53:25.48	294.78	18.00	-23.8	-24.5	16.4	0.00e+00	0	43	0	2723151872	7	3882
2026-01-01 06:53:28.48	294.14	17.85	-23.8	-24.4	17.0	0.00e+00	0	43	0	2745171968	7	3857
2026-01-01 06:53:31.48	293.50	17.70	-23.7	-24.2	17.1	0.00e+00	0	44	0	2766143488	7	3814
2026-01-01 06:53:34.50	292.87	17.55	-23.8	-24.4	17.0	1.99e-03	0	43	0	2788163584	7	3871
2026-01-01 06:53:37.51	292.25	17.40	-23.9	-24.8	16.8	1.94e-03	0	43	0	2810183680	7	3951
2026-01-01 06:53:40.52	291.63	17.24	-23.9	-24.6	16.9	1.62e-03	0	43	0	2832203776	7	3929
2026-01-01 06:53:43.54	291.01	17.08	-23.9	-24.7	16.8	1.79e-03	0	43	0	2854223872	7	3940
2026-01-01 06:53:46.54	290.41	16.92	-23.9	-24.6	16.9	1.90e-03	0	43	0	2875195392	7	3927
2026-01-01 06:53:49.55	289.81	16.76	-24.4	-25.2	16.3	2.00e-03	0	43	0	2897215488	8	3950
2026-01-01 06:53:52.56	289.22	16.59	-24.5	-25.0	16.1	2.31e-03	0	43	0	2918187008	9	3805
2026-01-01 06:53:55.57	288.63	16.42	-24.5	-25.3	16.2	2.20e-03	0	43	0	2940207104	8	3987
2026-01-01 06:53:58.57	288.05	16.25	-24.4	-25.3	16.2	0.00e+00	0	43	0	2962227200	8	3977
2026-01-01 06:54:01.57	287.48	16.08	-24.5	-25.4	16.2	0.00e+00	0	43	0	2983198720	8	4002
2026-01-01 06:54:04.58	286.91	15.91	-24.3	-25.1	16.4	0.00e+00	0	43	0	3005218816	8	3929
2026-01-01 06:54:07.59	286.35	15.74	-24.4	-25.3	16.2	2.08e-03	0	43	0	3027238912	8	3978
2026-01-01 06:54:10.60	285.80	15.56	-24.9	-25.7	15.7	0.00e+00	0	44	0	3049259008	9	3984
2026-01-01 06:54:13.61	285.25	15.38	-24.5	-25.5	16.1	0.00e+00	0	43	0	3070230528	8	4021
2026-01-01 06:54:16.62	284.71	15.21	-24.4	-25.2	16.2	0.00e+00	0	43	0	3092250624	8	3963
2026-01-01 06:54:19.63	284.18	15.03	-24.8	-25.6	15.7	0.00e+00	0	43	0	3114270720	9	3949
2026-01-01 06:54:22.64	283.65	14.84	-24.7	-25.5	15.8	0.00e+00	0	43	0	3136290816	9	3916
2026-01-01 06:54:25.65	283.13	14.66	-24.7	-25.4	15.9	0.00e+00	0	43	0	3157262336	9	3895
2026-01-01 06:54:28.66	282.62	14.48	-24.9	-25.7	15.6	0.00e+00	0	43	0	3179282432	9	3981
2026-01-01 06:54:31.67	282.11	14.30	-24.6	-25.1	16.0	0.00e+00	0	43	0	3201302528	9	3841
2026-01-01 06:54:34.67	281.61	14.11	-24.6	-25.2	15.9	0.00e+00	0	43	0	3222274048	9	3850
2026-01-01 06:54:37.69	281.11	13.93	-24.6	-25.2	15.9	0.00e+00	0	43	0	3244294144	9	3851
2026-01-01 06:54:40.70	280.62	13.74	-24.8	-25.6	15.7	0.00e+00	0	43	0	3266314240	9	3940
2026-01-01 06:54:43.72	280.14	13.55	-24.8	-25.7	15.6	0.00e+00	0	43	0	3288334336	9	3967
2026-01-01 06:54:46.73	279.66	13.37	-25.0	-26.0	15.4	0.00e+00	0	43	0	3310354432	9	4056
2026-01-01 06:54:49.74	279.19	13.18	-25.1	-25.8	15.2	0.00e+00	0	43	0	3331325952	10	3905
2026-01-01 06:54:52.75	278.73	12.99	-25.1	-25.8	15.2	0.00e+00	0	43	0	3353346048	10	3904
2026-01-01 06:54:55.77	278.27	12.80	-25.0	-26.2	15.3	0.00e+00	0	43	0	3375366144	9	4093
2026-01-01 06:54:58.78	277.81	12.61	-24.9	-25.9	15.5	0.00e+00	0	43	0	3397386240	9	4015
2026-01-01 06:55:01.78	277.37	12.42	-25.0	-26.1	15.4	0.00e+00	0	43	0	3418357760	9	4065
2026-01-01 06:55:04.79	276.93	12.23	-25.2	-26.1	15.1	0.00e+00	0	43	0	3440377856	10	3962
2026-01-01 06:55:07.80	276.49	12.04	-25.3	-26.2	15.1	0.00e+00	0	43	0	3461349376	10	3985
2026-01-01 06:55:10.81	276.06	11.85	-25.2	-26.0	15.1	0.00e+00	0	43	0	3483369472	10	3944
2026-01-01 06:55:13.82	275.64	11.66	-25.4	-26.4	14.9	0.00e+00	0	43	0	3505389568	10	4047
2026-01-01 06:55:16.83	275.22	11.47	-25.4	-26.5	14.9	0.00e+00	0	43	0	3526361088	10	4064
2026-01-01 06:55:19.83	274.81	11.29	-25.4	-26.5	14.8	0.00e+00	0	43	0	3548381184	10	4063
2026-01-01 06:55:22.85	274.40	11.09	-25.3	-26.3	14.9	0.00e+00	0	43	0	3570401280	10	4025
2026-01-01 06:55:25.85	274.00	10.91	-25.2	-26.1	15.0	0.00e+00	0	43	0	3592421376	10	3970
2026-01-01 06:55:28.85	273.60	10.72	-25.4	-26.4	14.8	0.00e+00	0	43	0	3613392896	10	4053
2026-01-01 06:55:31.87	273.21	10.53	-25.6	-26.8	14.6	0.00e+00	0	43	0	3635412992	10	4154
2026-01-01 06:55:34.88	272.82	10.34	-25.7	-26.7	14.4	0.00e+00	0	43	0	3657433088	11	4013
2026-01-01 06:55:37.89	272.44	10.15	-25.8	-26.8	14.3	1.10e-06	0	43	0	3679453184	11	4042
2026-01-01 06:55:40.90	272.06	9.96	-25.7	-26.7	14.4	0.00e+00	0	43	0	3700424704	11	4016
2026-01-01 06:55:43.92	271.69	9.77	-25.9	-27.0	14.2	1.10e-06	0	43	0	3722444800	11	4107
2026-01-01 06:55:46.93	271.32	9.58	-25.9	-27.0	14.2	2.20e-06	0	43	0	3744464896	11	4094
2026-01-01 06:55:49.95	270.96	9.39	-26.0	-27.2	14.0	0.00e+00	0	43	0	3766484992	11	4160
2026-01-01 06:55:52.96	270.60	9.20	-25.8	-27.0	14.1	1.10e-06	0	43	0	3787456512	11	4092
2026-01-01 06:55:55.96	270.25	9.02	-25.7	-26.6	14.4	0.00e+00	0	43	0	3809476608	11	3987
2026-01-01 06:55:58.97	269.90	8.83	-25.7	-26.6	14.3	0.00e+00	0	43	0	3831496704	11	4011
2026-01-01 06:56:01.96	269.56	8.65	-25.8	-27.0	14.1	3.40e-06	0	43	0	3852468224	11	4094
2026-01-01 06:56:04.97	269.22	8.46	-26.0	-27.4	13.8	4.50e-06	0	44	0	3874488320	11	4199
2026-01-01 06:56:07.97	268.88	8.27	-25.9	-26.7	13.8	4.50e-06	0	43	0	3896508416	12	3944
2026-01-01 06:56:10.97	268.56	8.09	-25.9	-26.7	13.8	6.80e-06	0	43	0	3917479936	12	3920
2026-01-01 06:56:13.96	268.23	7.91	-26.1	-27.0	13.6	4.50e-06	0	43	0	3939500032	12	3999
2026-01-01 06:56:16.97	267.91	7.72	-26.2	-27.3	13.5	5.70e-06	0	43	0	3961520128	12	4081
2026-01-01 06:56:19.98	267.59	7.54	-26.4	-27.8	13.1	3.43e-05	0	43	0	3983540224	12	4215
2026-01-01 06:56:23.00	267.28	7.35	-26.6	-27.6	12.9	4.34e-05	0	43	0	4004511744	13	4081
2026-01-01 06:56:26.00	266.97	7.17	-26.4	-27.4	13.1	2.28e-05	0	43	0	4026531840	13	3999
2026-01-01 06:56:29.02	266.66	6.99	-32.7	-42.3	3.8	8.45e-01	0	43	104	4037017600	25	10883

#Closed at: 2026-01-01 06:56:31
#Recorded file [4037 MB]: D:/data/31010_260101_094708.dat