passes_logs/2026/01/01/R2M6_AANII_01/R2M6_AANII_01__20260101_091104_NOAA_20_JPSS-1_rec.log

#Pass ID: 20260101_091104_NOAA 20 (JPSS-1)
#Satellite: NOAA 20 (JPSS-1)
#Configuration: NOAA 20
#almurnet v.1.7.20240730
#Start time: 2026-01-01 09:11:04

#Version: 2.2.20231116
#Station: R2M6_AANII_01
#Location: 30.233357 lon 59.946436 lat
#TLE: 1 43013U 17073A   25365.45761817  .00000173  00000+0  10307-3 0  9993
#TLE: 2 43013  98.7620 301.5517 0001951  60.3814 299.7557 14.19531661420675

#Time	Az	El	Level	Level2	SNR	BER	BlckErr	Temp	State	Recorded	gain1	gain2
2026-01-01 09:11:04.50	125.18	7.02	-31.5	-38.1	4.8	1.32e+00	0	40	0	0	24	7674
2026-01-01 09:11:07.51	125.02	7.24	-31.4	-37.3	7.3	1.19e-01	0	41	0	1048576	24	7140
2026-01-01 09:11:10.52	124.85	7.47	-31.4	-37.1	7.4	1.09e-01	0	41	0	7340032	24	7011
2026-01-01 09:11:13.54	124.67	7.69	-31.5	-37.9	7.0	1.15e-01	0	41	0	12582912	24	7503
2026-01-01 09:11:16.55	124.50	7.92	-31.2	-36.5	8.4	6.63e-02	0	41	0	17825792	23	6701
2026-01-01 09:11:19.56	124.32	8.14	-30.4	-34.2	10.7	5.36e-03	0	41	0	24117248	22	5562
2026-01-01 09:11:22.56	124.14	8.37	-30.0	-33.2	11.8	5.93e-04	0	41	0	29360128	21	5217
2026-01-01 09:11:25.58	123.95	8.60	-30.2	-33.9	11.3	1.05e-03	0	41	0	35651584	21	5521
2026-01-01 09:11:28.59	123.76	8.84	-30.3	-34.1	11.2	1.42e-03	0	41	0	40894464	21	5610
2026-01-01 09:11:31.59	123.57	9.07	-30.2	-33.9	11.4	1.21e-03	0	41	0	46137344	21	5509
2026-01-01 09:11:34.59	123.38	9.31	-30.2	-33.8	11.5	1.03e-03	0	42	0	52428800	21	5453
2026-01-01 09:11:37.60	123.18	9.54	-30.2	-33.9	11.4	1.04e-03	0	41	0	57671680	21	5500
2026-01-01 09:11:40.61	122.98	9.78	-30.2	-33.8	11.6	8.94e-04	0	42	0	63963136	21	5433
2026-01-01 09:11:43.62	122.78	10.03	-30.1	-33.5	11.8	4.52e-04	0	42	0	69206016	21	5287
2026-01-01 09:11:46.64	122.57	10.27	-30.2	-33.7	11.7	5.55e-04	0	42	0	74448896	21	5387
2026-01-01 09:11:49.64	122.36	10.52	-30.2	-33.6	11.7	5.69e-04	0	42	0	80740352	21	5357
2026-01-01 09:11:52.65	122.14	10.77	-30.1	-33.5	11.9	4.68e-04	0	42	0	85983232	21	5295
2026-01-01 09:11:55.66	121.92	11.02	-30.0	-33.1	12.2	1.84e-04	0	42	0	91226112	21	5124
2026-01-01 09:11:58.67	121.70	11.27	-30.0	-33.2	12.1	2.35e-04	0	42	0	97517568	21	5155
2026-01-01 09:12:01.67	121.47	11.52	-30.1	-33.4	12.0	2.78e-04	0	42	0	102760448	21	5229
2026-01-01 09:12:04.68	121.24	11.78	-30.0	-33.0	12.3	1.87e-04	0	42	0	109051904	21	5074
2026-01-01 09:12:07.70	121.01	12.04	-30.0	-33.0	12.3	2.29e-04	0	42	0	114294784	21	5068
2026-01-01 09:12:10.71	120.77	12.30	-30.0	-33.0	12.3	1.39e-04	0	42	0	119537664	21	5089
2026-01-01 09:12:13.71	120.52	12.57	-30.0	-33.0	12.3	1.65e-04	0	42	0	125829120	21	5078
2026-01-01 09:12:16.71	120.27	12.83	-30.2	-33.7	11.8	2.92e-04	0	42	0	131072000	21	5384
2026-01-01 09:12:19.72	120.02	13.10	-30.1	-33.1	12.3	1.48e-04	0	42	0	136314880	21	5139
2026-01-01 09:12:22.73	119.76	13.37	-30.0	-32.8	12.5	1.15e-04	0	42	0	142606336	21	5012
2026-01-01 09:12:25.73	119.50	13.64	-29.9	-32.6	12.7	8.46e-05	0	42	0	147849216	21	4933
2026-01-01 09:12:28.73	119.23	13.92	-29.9	-32.6	12.8	7.47e-05	0	43	0	154140672	21	4912
2026-01-01 09:12:31.74	118.96	14.20	-29.9	-32.6	12.8	5.11e-05	0	42	0	159383552	21	4904
2026-01-01 09:12:34.75	118.68	14.48	-29.9	-32.5	12.8	6.79e-05	0	43	0	164626432	21	4880
2026-01-01 09:12:37.75	118.40	14.76	-29.8	-32.4	12.9	4.11e-05	0	42	0	170917888	21	4833
2026-01-01 09:12:40.75	118.11	15.05	-29.8	-32.4	13.0	4.80e-05	0	43	0	176160768	21	4813
2026-01-01 09:12:43.76	117.81	15.34	-29.9	-32.9	12.9	2.97e-05	0	42	0	181403648	20	5137
2026-01-01 09:12:46.77	117.51	15.63	-29.7	-32.6	13.2	2.28e-05	0	43	0	187695104	20	4994
2026-01-01 09:12:49.78	117.20	15.92	-29.8	-32.8	13.0	3.05e-05	0	42	0	192937984	20	5088
2026-01-01 09:12:52.78	116.89	16.22	-29.7	-32.5	13.2	1.90e-05	0	43	0	199229440	20	4968
2026-01-01 09:12:55.80	116.57	16.52	-29.8	-32.9	13.1	1.60e-05	0	43	0	204472320	20	5105
2026-01-01 09:12:58.82	116.24	16.82	-29.9	-33.0	13.0	4.95e-05	0	43	0	209715200	20	5151
2026-01-01 09:13:01.83	115.91	17.13	-29.9	-33.0	13.0	3.66e-05	0	43	0	216006656	20	5163
2026-01-01 09:13:04.84	115.57	17.43	-30.0	-33.2	12.9	4.57e-05	0	43	0	221249536	20	5208
2026-01-01 09:13:07.85	115.22	17.75	-29.8	-32.6	13.3	2.13e-05	0	43	0	226492416	20	5009
2026-01-01 09:13:10.87	114.86	18.06	-29.7	-32.5	13.4	2.05e-05	0	43	0	232783872	20	4938
2026-01-01 09:13:13.89	114.50	18.38	-29.7	-32.5	13.4	1.29e-05	0	43	0	238026752	20	4958
2026-01-01 09:13:16.89	114.13	18.70	-29.7	-32.5	13.4	1.44e-05	0	43	0	244318208	20	4956
2026-01-01 09:13:19.91	113.75	19.02	-29.7	-32.6	13.4	1.22e-05	0	43	0	249561088	20	4977
2026-01-01 09:13:22.90	113.36	19.34	-29.8	-32.7	13.3	2.28e-05	0	43	0	254803968	20	5032
2026-01-01 09:13:25.90	112.97	19.67	-29.8	-32.6	13.4	1.52e-05	0	43	0	261095424	20	4980
2026-01-01 09:13:28.91	112.56	20.00	-29.9	-32.9	13.2	1.98e-05	0	43	0	266338304	20	5108
2026-01-01 09:13:31.91	112.15	20.33	-30.0	-33.2	13.0	2.74e-05	0	43	0	272629760	20	5200
2026-01-01 09:13:34.92	111.73	20.67	-30.0	-33.1	13.1	2.89e-05	0	43	0	277872640	20	5152
2026-01-01 09:13:37.92	111.30	21.01	-30.1	-33.4	12.9	3.73e-05	0	43	0	283115520	20	5294
2026-01-01 09:13:40.93	110.85	21.35	-30.2	-33.8	12.7	7.47e-05	0	43	0	289406976	20	5451
2026-01-01 09:13:43.93	110.40	21.69	-30.0	-33.1	13.2	2.44e-05	0	43	0	294649856	20	5173
2026-01-01 09:13:46.94	109.94	22.04	-30.0	-33.3	13.1	2.51e-05	0	43	0	299892736	20	5224
2026-01-01 09:13:49.95	109.47	22.39	-29.9	-32.8	13.4	1.60e-05	0	43	0	306184192	20	5033
2026-01-01 09:13:52.95	108.98	22.75	-29.9	-32.9	13.4	2.28e-05	0	43	0	311427072	20	5071
2026-01-01 09:13:55.96	108.49	23.10	-29.8	-32.4	13.7	9.90e-06	0	43	0	317718528	20	4896
2026-01-01 09:13:58.96	107.98	23.46	-29.8	-32.4	13.7	6.10e-06	0	43	0	322961408	20	4894
2026-01-01 09:14:01.97	107.46	23.82	-29.8	-32.5	13.7	6.10e-06	0	43	0	328204288	20	4937
2026-01-01 09:14:04.98	106.93	24.18	-30.0	-33.0	13.4	1.29e-05	0	43	0	334495744	20	5114
2026-01-01 09:14:07.98	106.39	24.55	-30.0	-33.1	13.3	1.75e-05	0	43	0	339738624	20	5137
2026-01-01 09:14:10.99	105.83	24.92	-30.2	-33.5	13.0	2.36e-05	0	43	0	344981504	20	5311
2026-01-01 09:14:13.98	105.27	25.28	-30.1	-33.4	13.2	2.21e-05	0	43	0	351272960	20	5234
2026-01-01 09:14:16.99	104.68	25.65	-30.2	-33.7	13.0	3.35e-05	0	43	0	356515840	20	5353
2026-01-01 09:14:19.99	104.09	26.03	-30.6	-34.2	12.3	1.16e-04	0	43	0	362807296	21	5449
2026-01-01 09:14:22.99	103.48	26.40	-30.8	-35.0	11.8	4.67e-04	0	43	0	368050176	21	5800
2026-01-01 09:14:26.00	102.85	26.78	-31.2	-35.5	11.1	1.34e-03	0	43	0	373293056	22	5929
2026-01-01 09:14:29.01	102.21	27.16	-31.1	-35.3	11.3	1.09e-03	0	43	0	379584512	22	5813
2026-01-01 09:14:32.02	101.55	27.54	-31.3	-36.0	10.7	2.79e-03	0	43	0	384827392	22	6167
2026-01-01 09:14:35.03	100.88	27.92	-31.2	-35.4	11.2	1.76e-03	0	43	0	390070272	22	5885
2026-01-01 09:14:38.04	100.19	28.30	-31.4	-36.2	10.6	1.88e-03	0	43	0	396361728	22	6275
2026-01-01 09:14:41.05	99.48	28.68	-31.4	-36.2	10.6	3.73e-03	0	43	0	401604608	22	6283
2026-01-01 09:14:44.06	98.76	29.06	-31.5	-36.1	10.4	7.36e-03	0	43	0	407896064	23	6074
2026-01-01 09:14:47.07	98.02	29.44	-31.6	-36.5	10.1	5.77e-03	0	43	0	413138944	23	6278
2026-01-01 09:14:50.09	97.25	29.83	-31.6	-36.5	10.1	6.97e-03	0	43	0	418381824	23	6306
2026-01-01 09:14:53.10	96.48	30.21	-31.4	-35.5	10.8	3.35e-03	0	43	0	424673280	23	5813
2026-01-01 09:14:56.11	95.68	30.59	-31.2	-35.0	11.2	1.33e-03	0	43	0	429916160	23	5578
2026-01-01 09:14:59.11	94.87	30.96	-31.4	-35.5	10.9	1.87e-03	0	43	0	436207616	23	5802
2026-01-01 09:15:02.10	94.04	31.34	-31.0	-34.3	11.8	4.82e-04	0	43	0	441450496	23	5253
2026-01-01 09:15:05.11	93.19	31.71	-31.2	-34.9	11.3	5.99e-04	0	43	0	446693376	23	5504
2026-01-01 09:15:08.12	92.31	32.08	-31.5	-35.9	10.7	2.78e-03	0	43	0	452984832	23	5944
2026-01-01 09:15:11.13	91.42	32.45	-31.8	-36.9	9.9	7.64e-03	0	43	0	458227712	23	6477
2026-01-01 09:15:14.14	90.50	32.82	-31.8	-36.9	10.0	7.87e-03	0	43	0	463470592	23	6446
2026-01-01 09:15:17.16	89.56	33.18	-32.1	-37.6	9.0	1.88e-02	0	43	0	469762048	24	6743
2026-01-01 09:15:20.17	88.61	33.53	-32.3	-38.5	8.4	3.82e-02	0	43	0	475004928	24	7286
2026-01-01 09:15:23.18	87.63	33.88	-32.3	-38.0	8.7	2.90e-02	0	43	0	481296384	24	7008
2026-01-01 09:15:26.20	86.63	34.23	-32.5	-38.8	7.7	8.38e-02	0	43	0	486539264	25	7419
2026-01-01 09:15:29.22	85.61	34.57	-32.7	-39.3	7.4	1.13e-01	0	43	0	491782144	25	7714
2026-01-01 09:15:32.21	84.57	34.90	-32.2	-37.2	9.0	2.96e-02	0	43	0	498073600	25	6417
2026-01-01 09:15:35.22	83.51	35.22	-32.0	-36.5	9.5	1.85e-02	0	43	0	503316480	25	6057
2026-01-01 09:15:38.22	82.43	35.54	-32.0	-36.4	9.6	1.71e-02	0	43	0	508559360	25	5973
2026-01-01 09:15:41.24	81.32	35.84	-31.8	-35.7	10.1	7.62e-03	0	43	0	514850816	25	5651
2026-01-01 09:15:44.26	80.19	36.14	-31.1	-34.5	11.7	6.91e-04	0	43	0	520093696	23	5319
2026-01-01 09:15:47.26	79.05	36.43	-30.8	-33.6	12.4	2.16e-04	0	43	0	526385152	23	4943
2026-01-01 09:15:50.27	77.89	36.70	-30.6	-33.4	12.8	8.01e-05	0	43	0	531628032	22	4987
2026-01-01 09:15:53.26	76.71	36.97	-30.7	-33.7	12.7	8.69e-05	0	43	0	536870912	22	5080
2026-01-01 09:15:56.27	75.51	37.22	-30.1	-32.5	13.8	9.90e-06	0	43	0	543162368	21	4770
2026-01-01 09:15:59.27	74.29	37.46	-30.0	-32.3	13.9	4.50e-06	0	43	0	548405248	21	4676
2026-01-01 09:16:02.27	73.05	37.68	-30.1	-32.7	13.6	9.90e-06	0	43	0	553648128	21	4835
2026-01-01 09:16:05.28	71.80	37.90	-30.0	-32.2	13.9	4.50e-06	0	43	0	559939584	21	4671
2026-01-01 09:16:08.29	70.52	38.09	-29.4	-31.3	14.8	0.00e+00	0	43	0	565182464	20	4467
2026-01-01 09:16:11.29	69.24	38.28	-29.4	-31.7	14.9	0.00e+00	0	43	0	571473920	19	4705
2026-01-01 09:16:14.29	67.94	38.44	-29.4	-31.8	14.9	0.00e+00	0	43	0	576716800	19	4721
2026-01-01 09:16:17.30	66.63	38.59	-29.6	-32.3	14.5	0.00e+00	0	43	0	581959680	19	4913
2026-01-01 09:16:20.31	65.31	38.73	-29.5	-32.1	14.6	7.00e-07	0	43	0	588251136	19	4852
2026-01-01 09:16:23.32	63.97	38.84	-29.3	-31.5	15.0	0.00e+00	0	43	0	593494016	19	4640
2026-01-01 09:16:26.35	62.62	38.94	-29.6	-32.2	14.7	7.00e-07	0	43	0	598736896	19	4851
2026-01-01 09:16:29.35	61.27	39.02	-29.4	-31.6	15.0	0.00e+00	0	43	0	605028352	19	4681
2026-01-01 09:16:32.35	59.92	39.09	-29.5	-32.1	14.7	0.00e+00	0	43	0	610271232	19	4826
2026-01-01 09:16:35.36	58.56	39.13	-29.9	-33.1	14.0	3.00e-06	0	43	0	616562688	19	5198
2026-01-01 09:16:38.37	57.19	39.16	-30.4	-34.0	13.1	1.22e-05	0	43	0	621805568	20	5414
2026-01-01 09:16:41.38	55.83	39.17	-30.3	-33.3	13.2	1.98e-05	0	43	0	627048448	21	5042
2026-01-01 09:16:44.39	54.46	39.16	-30.6	-33.9	12.9	5.26e-05	0	43	0	633339904	21	5277
2026-01-01 09:16:47.40	53.10	39.13	-31.1	-35.0	11.8	4.34e-04	0	43	0	638582784	22	5614
2026-01-01 09:16:50.41	51.74	39.08	-31.2	-35.1	11.7	4.41e-04	0	43	0	644874240	22	5698
2026-01-01 09:16:53.40	50.39	39.01	-31.4	-35.9	11.1	1.25e-03	0	43	0	650117120	22	6037
2026-01-01 09:16:56.40	49.04	38.93	-31.6	-36.0	10.6	3.12e-03	0	43	0	655360000	23	5996
2026-01-01 09:16:59.43	47.69	38.83	-31.6	-36.1	10.6	3.11e-03	0	43	0	661651456	23	6054
2026-01-01 09:17:02.44	46.36	38.71	-31.8	-36.9	9.9	8.00e-03	0	43	0	666894336	23	6429
2026-01-01 09:17:05.47	45.03	38.57	-31.7	-36.5	10.3	7.04e-03	0	43	0	672137216	23	6249
2026-01-01 09:17:08.47	43.72	38.42	-31.8	-36.7	10.1	6.21e-03	0	43	0	678428672	23	6334
2026-01-01 09:17:11.49	42.42	38.25	-31.5	-35.8	10.8	2.71e-03	0	43	0	683671552	23	5875
2026-01-01 09:17:14.49	41.14	38.07	-31.1	-34.4	11.8	4.39e-04	0	43	0	689963008	23	5278
2026-01-01 09:17:17.50	39.87	37.87	-30.8	-34.0	12.4	2.54e-04	0	43	0	695205888	22	5213
2026-01-01 09:17:20.51	38.62	37.66	-29.8	-31.9	14.1	3.00e-06	0	43	0	700448768	21	4566
2026-01-01 09:17:23.52	37.39	37.43	-29.4	-31.2	14.9	7.00e-07	0	43	0	706740224	20	4449
2026-01-01 09:17:26.53	36.17	37.19	-29.3	-31.1	14.9	0.00e+00	0	43	0	711983104	20	4397
2026-01-01 09:17:29.54	34.97	36.93	-29.4	-31.3	14.8	7.00e-07	0	43	0	717225984	20	4467
2026-01-01 09:17:32.54	33.80	36.67	-29.3	-31.1	14.8	0.00e+00	0	43	0	723517440	20	4423
2026-01-01 09:17:35.54	32.64	36.39	-29.5	-31.9	14.8	0.00e+00	0	43	0	728760320	19	4766
2026-01-01 09:17:38.55	31.50	36.11	-29.8	-32.7	14.3	0.00e+00	0	43	0	735051776	19	5040
2026-01-01 09:17:41.56	30.38	35.81	-29.8	-32.3	14.1	2.20e-06	0	43	0	740294656	20	4794
2026-01-01 09:17:44.57	29.28	35.50	-30.0	-32.9	13.7	7.60e-06	0	43	0	745537536	20	5008
2026-01-01 09:17:47.57	28.21	35.19	-30.0	-32.9	13.7	3.00e-06	0	43	0	751828992	20	5013
2026-01-01 09:17:50.59	27.15	34.86	-30.0	-32.8	13.7	4.50e-06	0	43	0	757071872	20	4980
2026-01-01 09:17:53.59	26.12	34.53	-30.0	-33.0	13.7	1.14e-05	0	43	0	762314752	20	5049
2026-01-01 09:17:56.59	25.11	34.19	-30.0	-32.9	13.7	6.80e-06	0	43	0	768606208	20	5009
2026-01-01 09:17:59.60	24.12	33.85	-30.1	-33.1	13.5	7.60e-06	0	43	0	773849088	20	5099
2026-01-01 09:18:02.60	23.15	33.50	-30.5	-33.8	12.8	4.88e-05	0	43	0	780140544	21	5257
2026-01-01 09:18:05.62	22.19	33.14	-30.7	-34.3	12.4	1.26e-04	0	43	0	785383424	21	5473
2026-01-01 09:18:08.62	21.27	32.79	-30.9	-35.1	11.9	3.81e-04	0	43	0	790626304	21	5796
2026-01-01 09:18:11.62	20.36	32.42	-31.1	-35.0	11.7	6.22e-04	0	43	0	796917760	22	5633
2026-01-01 09:18:14.64	19.47	32.06	-31.2	-35.5	11.3	1.29e-03	0	43	0	802160640	22	5874
2026-01-01 09:18:17.64	18.61	31.69	-31.2	-35.4	11.3	1.30e-03	0	43	0	807403520	22	5835
2026-01-01 09:18:20.65	17.76	31.31	-31.3	-35.6	11.1	1.30e-03	0	43	0	813694976	22	5952
2026-01-01 09:18:23.64	16.93	30.94	-31.3	-35.8	10.9	2.32e-03	0	43	0	818937856	22	6046
2026-01-01 09:18:26.66	16.12	30.56	-31.0	-34.7	11.7	5.52e-04	0	43	0	825229312	22	5546
2026-01-01 09:18:29.66	15.33	30.19	-31.0	-34.9	11.6	6.73e-04	0	43	0	830472192	22	5618
2026-01-01 09:18:32.68	14.56	29.81	-30.9	-34.5	11.9	3.62e-04	0	43	0	835715072	22	5444
2026-01-01 09:18:35.69	13.80	29.43	-30.7	-33.7	12.4	2.76e-04	0	43	0	842006528	22	5141
2026-01-01 09:18:38.70	13.07	29.05	-30.7	-33.9	12.2	1.85e-04	0	43	0	847249408	22	5216
2026-01-01 09:18:41.71	12.35	28.67	-30.4	-33.2	12.8	1.01e-04	0	43	0	853540864	22	4920
2026-01-01 09:18:44.72	11.65	28.29	-30.4	-33.1	12.8	4.04e-05	0	43	0	858783744	22	4909
2026-01-01 09:18:47.72	10.97	27.91	-30.6	-33.6	12.4	1.01e-04	0	43	0	864026624	22	5093
2026-01-01 09:18:50.73	10.30	27.53	-30.3	-32.9	12.9	5.26e-05	0	43	0	870318080	22	4818
2026-01-01 09:18:53.74	9.64	27.15	-30.3	-33.4	12.9	2.82e-05	0	43	0	875560960	21	5141
2026-01-01 09:18:56.75	9.01	26.77	-30.1	-32.8	13.2	1.83e-05	0	43	0	880803840	21	4923
2026-01-01 09:18:59.76	8.38	26.40	-30.1	-32.9	13.2	2.21e-05	0	43	0	887095296	21	4937
2026-01-01 09:19:02.78	7.78	26.02	-30.0	-32.6	13.3	1.67e-05	0	43	0	892338176	21	4845
2026-01-01 09:19:05.78	7.18	25.65	-30.0	-32.6	13.4	2.28e-05	0	43	0	898629632	21	4836
2026-01-01 09:19:08.79	6.60	25.28	-30.4	-33.6	12.6	5.26e-05	0	43	0	903872512	21	5231
2026-01-01 09:19:11.80	6.04	24.91	-30.1	-32.8	13.2	3.66e-05	0	43	0	909115392	21	4932
2026-01-01 09:19:14.81	5.49	24.55	-30.1	-32.7	13.2	2.82e-05	0	43	0	915406848	21	4879
2026-01-01 09:19:17.81	4.95	24.19	-30.3	-33.3	12.8	2.44e-05	0	43	0	920649728	21	5092
2026-01-01 09:19:20.83	4.42	23.82	-30.0	-32.5	13.3	1.98e-05	0	43	0	925892608	21	4824
2026-01-01 09:19:23.83	3.91	23.47	-30.0	-32.6	13.2	1.83e-05	0	43	0	932184064	21	4856
2026-01-01 09:19:26.84	3.40	23.11	-30.2	-33.1	12.9	5.64e-05	0	43	0	937426944	21	5030
2026-01-01 09:19:29.84	2.92	22.76	-30.4	-33.7	12.5	9.61e-05	0	43	0	943718400	21	5275
2026-01-01 09:19:32.85	2.44	22.41	-30.2	-33.2	12.8	6.79e-05	0	43	0	948961280	21	5085
2026-01-01 09:19:35.86	1.97	22.06	-30.3	-33.3	12.8	6.33e-05	0	43	0	954204160	21	5106
2026-01-01 09:19:38.86	1.51	21.71	-30.3	-33.4	12.6	1.14e-04	0	44	0	960495616	21	5167
2026-01-01 09:19:41.86	1.06	21.37	-30.3	-33.5	12.6	7.32e-05	0	43	0	965738496	21	5186
2026-01-01 09:19:44.87	0.62	21.03	-30.5	-34.0	12.2	2.27e-04	0	43	0	970981376	21	5405
2026-01-01 09:19:47.86	0.20	20.69	-30.4	-33.9	12.2	1.74e-04	0	43	0	977272832	21	5379
2026-01-01 09:19:50.87	359.78	20.36	-30.5	-34.0	12.1	2.46e-04	0	43	0	982515712	21	5421
2026-01-01 09:19:53.88	359.37	20.03	-30.2	-33.2	12.7	8.23e-05	0	43	0	988807168	21	5084
2026-01-01 09:19:56.89	358.97	19.70	-30.3	-33.6	12.4	1.22e-04	0	43	0	994050048	21	5234
2026-01-01 09:19:59.90	358.58	19.37	-30.1	-33.0	12.8	5.41e-05	0	43	0	999292928	21	5010
2026-01-01 09:20:02.91	358.19	19.05	-30.2	-33.2	12.6	9.15e-05	0	43	0	1005584384	21	5114
2026-01-01 09:20:05.91	357.82	18.73	-30.2	-33.3	12.5	1.04e-04	0	44	0	1010827264	21	5129
2026-01-01 09:20:08.92	357.45	18.41	-30.2	-33.2	12.6	1.02e-04	0	43	0	1016070144	21	5107
2026-01-01 09:20:11.93	357.09	18.10	-30.1	-33.0	12.7	7.70e-05	0	43	0	1022361600	21	5036
2026-01-01 09:20:14.94	356.74	17.78	-30.1	-33.0	12.7	9.07e-05	0	43	0	1027604480	21	5050
2026-01-01 09:20:17.95	356.39	17.47	-30.1	-32.9	12.8	5.79e-05	0	43	0	1033895936	21	5011
2026-01-01 09:20:20.95	356.06	17.17	-29.9	-32.5	13.0	4.42e-05	0	43	0	1039138816	21	4851
2026-01-01 09:20:23.96	355.73	16.86	-29.8	-32.3	13.2	3.20e-05	0	43	0	1044381696	21	4766
2026-01-01 09:20:26.96	355.40	16.56	-30.0	-32.8	12.8	3.43e-05	0	43	0	1050673152	21	4960
2026-01-01 09:20:29.97	355.09	16.27	-30.2	-33.4	12.3	1.47e-04	0	43	0	1055916032	21	5206
2026-01-01 09:20:32.97	354.78	15.97	-30.3	-33.6	12.2	2.53e-04	0	43	0	1061158912	21	5298
2026-01-01 09:20:35.97	354.47	15.68	-30.2	-33.5	12.3	2.13e-04	0	43	0	1067450368	21	5229
2026-01-01 09:20:38.97	354.18	15.39	-30.2	-33.6	12.2	2.00e-04	0	43	0	1072693248	21	5268
2026-01-01 09:20:41.98	353.88	15.10	-30.2	-33.3	12.3	1.88e-04	0	43	0	1078984704	21	5181
2026-01-01 09:20:44.99	353.60	14.82	-30.3	-33.7	12.1	2.21e-04	0	44	0	1084227584	21	5323
2026-01-01 09:20:48.00	353.32	14.54	-30.5	-34.2	11.6	4.64e-04	0	43	0	1089470464	21	5559
2026-01-01 09:20:51.01	353.04	14.26	-30.4	-34.0	11.8	6.38e-04	0	44	0	1095761920	21	5470
2026-01-01 09:20:54.01	352.77	13.98	-30.5	-34.3	11.6	6.41e-04	0	43	0	1101004800	21	5613
2026-01-01 09:20:57.02	352.50	13.71	-30.5	-34.3	11.5	7.80e-04	0	43	0	1106247680	21	5597
2026-01-01 09:21:00.03	352.24	13.43	-30.6	-34.8	11.2	1.34e-03	0	43	0	1112539136	21	5807
2026-01-01 09:21:03.03	351.99	13.16	-30.5	-34.5	11.4	9.25e-04	0	43	0	1117782016	21	5665
2026-01-01 09:21:06.05	351.74	12.90	-30.6	-34.8	11.1	1.48e-03	0	43	0	1124073472	21	5844
2026-01-01 09:21:09.05	351.49	12.63	-30.7	-35.0	11.0	1.88e-03	0	43	0	1129316352	21	5915
2026-01-01 09:21:12.05	351.25	12.37	-30.8	-35.4	10.6	2.83e-03	0	43	0	1134559232	21	6143
2026-01-01 09:21:15.05	351.02	12.11	-30.7	-35.2	10.8	2.94e-03	0	43	0	1140850688	21	6037
2026-01-01 09:21:18.06	350.79	11.85	-30.7	-35.1	10.8	2.52e-03	0	43	0	1146093568	21	5978
2026-01-01 09:21:21.06	350.56	11.60	-30.8	-35.4	10.6	3.10e-03	0	43	0	1152385024	21	6134
2026-01-01 09:21:24.07	350.33	11.34	-30.6	-35.0	10.8	2.77e-03	0	43	0	1157627904	21	5948
2026-01-01 09:21:27.07	350.11	11.09	-30.6	-34.9	10.9	2.28e-03	0	43	0	1162870784	21	5912
2026-01-01 09:21:30.09	349.90	10.84	-30.8	-35.4	10.5	3.59e-03	0	44	0	1169162240	21	6166
2026-01-01 09:21:33.10	349.69	10.59	-30.7	-35.2	10.6	3.40e-03	0	43	0	1174405120	21	6060
2026-01-01 09:21:36.10	349.48	10.35	-30.7	-35.4	10.5	3.73e-03	0	43	0	1179648000	21	6157
2026-01-01 09:21:39.10	349.27	10.11	-30.8	-35.6	10.3	4.66e-03	0	43	0	1185939456	21	6281
2026-01-01 09:21:42.11	349.07	9.86	-30.9	-36.0	9.9	7.49e-03	0	43	0	1191182336	21	6493
2026-01-01 09:21:45.11	348.87	9.63	-30.8	-35.7	10.2	5.93e-03	0	43	0	1197473792	21	6346
2026-01-01 09:21:48.11	348.68	9.39	-30.9	-36.2	9.8	9.62e-03	0	43	0	1202716672	21	6595
2026-01-01 09:21:51.12	348.49	9.15	-31.0	-36.0	9.6	1.27e-02	0	43	0	1207959552	22	6364
2026-01-01 09:21:54.14	348.30	8.92	-31.0	-36.0	9.5	1.38e-02	0	43	0	1214251008	22	6417
2026-01-01 09:21:57.15	348.12	8.69	-30.9	-35.8	9.6	1.38e-02	0	43	0	1219493888	22	6286
2026-01-01 09:22:00.16	347.93	8.46	-30.8	-35.4	10.0	7.89e-03	0	43	0	1224736768	22	6093
2026-01-01 09:22:03.15	347.76	8.23	-30.8	-35.4	9.9	7.60e-03	0	43	0	1231028224	22	6107
2026-01-01 09:22:06.16	347.58	8.00	-30.8	-35.2	10.0	7.97e-03	0	44	0	1236271104	22	6014
2026-01-01 09:22:09.17	347.41	7.78	-30.8	-35.4	9.8	8.97e-03	0	43	0	1242562560	22	6111
2026-01-01 09:22:12.17	347.24	7.56	-30.8	-35.4	9.8	9.58e-03	0	43	0	1247805440	22	6099
2026-01-01 09:22:15.17	347.07	7.34	-30.7	-35.3	9.8	1.02e-02	0	43	0	1253048320	22	6061
2026-01-01 09:22:18.17	346.91	7.12	-30.8	-35.6	9.6	1.24e-02	0	44	0	1259339776	22	6237

#Closed at: 2026-01-01 09:22:21
#Recorded file [1259 MB]: D:/data/31010_260101_121106.dat