passes_logs/2026/01/01/R2M6_AANII_01/R2M6_AANII_01__20260101_131203_FENGYUN_3D_rec.log

#Pass ID: 20260101_131203_FENGYUN 3D
#Satellite: FENGYUN 3D
#Configuration: FENGYUN 3D
#almurnet v.1.7.20240730
#Start time: 2026-01-01 13:12:03

#Version: 2.2.20231116
#Station: R2M6_AANII_01
#Location: 30.233357 lon 59.946436 lat
#TLE: 1 43010U 17072A   25365.97861918  .00000231  00000+0  13096-3 0  9992
#TLE: 2 43010  98.9911 332.5795 0001872 134.7521 225.3807 14.19690547421260

#Time	Az	El	Level	Level2	SNR	BER	BlckErr	Temp	State	Recorded	gain1	gain2
2026-01-01 13:12:03.73	187.43	7.04	-27.3	-29.6	5.7	7.70e-01	0	41	0	0	14	4727
2026-01-01 13:12:06.73	187.60	7.26	-28.8	-31.9	10.5	2.59e-03	0	41	0	5242880	17	5149
2026-01-01 13:12:09.73	187.76	7.48	-27.8	-29.7	12.3	2.20e-04	0	41	0	22020096	16	4513
2026-01-01 13:12:12.74	187.93	7.70	-26.5	-27.9	13.9	0.00e+00	0	41	0	38797312	14	4205
2026-01-01 13:12:15.76	188.10	7.93	-26.2	-27.6	14.3	1.10e-06	0	41	0	55574528	13	4239
2026-01-01 13:12:18.76	188.27	8.16	-26.1	-27.5	14.4	0.00e+00	0	42	0	73400320	13	4198
2026-01-01 13:12:21.76	188.45	8.39	-26.0	-27.2	14.6	0.00e+00	0	42	0	90177536	13	4125
2026-01-01 13:12:24.77	188.63	8.62	-26.1	-27.3	14.5	0.00e+00	0	42	0	106954752	13	4146
2026-01-01 13:12:27.77	188.81	8.85	-25.9	-27.0	14.8	0.00e+00	0	42	0	123731968	13	4059
2026-01-01 13:12:30.79	188.99	9.09	-25.9	-26.8	14.9	0.00e+00	0	42	0	140509184	13	4020
2026-01-01 13:12:33.80	189.18	9.33	-25.8	-27.3	14.9	0.00e+00	0	42	0	157286400	12	4243
2026-01-01 13:12:36.81	189.37	9.57	-25.9	-27.5	14.8	0.00e+00	0	42	0	174063616	12	4290
2026-01-01 13:12:39.82	189.56	9.81	-25.6	-26.7	15.3	0.00e+00	0	42	0	190840832	12	4085
2026-01-01 13:12:42.83	189.76	10.06	-25.6	-26.7	15.3	0.00e+00	0	42	0	208666624	12	4088
2026-01-01 13:12:45.83	189.95	10.30	-25.6	-26.6	15.3	0.00e+00	0	42	0	225443840	12	4072
2026-01-01 13:12:48.85	190.16	10.55	-25.5	-26.4	15.5	0.00e+00	0	42	0	242221056	12	4003
2026-01-01 13:12:51.86	190.36	10.80	-25.4	-26.3	15.6	0.00e+00	0	42	0	258998272	12	3976
2026-01-01 13:12:54.87	190.57	11.06	-25.3	-26.1	15.7	0.00e+00	0	42	0	275775488	12	3927
2026-01-01 13:12:57.89	190.78	11.32	-25.4	-26.6	15.7	0.00e+00	0	42	0	293601280	11	4179
2026-01-01 13:13:00.90	191.00	11.57	-25.3	-26.6	15.8	0.00e+00	0	42	0	310378496	11	4164
2026-01-01 13:13:03.91	191.22	11.83	-25.3	-26.4	15.9	0.00e+00	0	42	0	327155712	11	4121
2026-01-01 13:13:06.93	191.44	12.10	-25.2	-26.2	16.1	0.00e+00	0	42	0	343932928	11	4052
2026-01-01 13:13:09.94	191.67	12.36	-25.2	-26.4	16.0	0.00e+00	0	42	0	360710144	11	4111
2026-01-01 13:13:12.94	191.90	12.63	-25.3	-26.5	15.9	0.00e+00	0	42	0	377487360	11	4125
2026-01-01 13:13:15.96	192.14	12.90	-25.3	-26.4	15.9	0.00e+00	0	42	0	394264576	11	4126
2026-01-01 13:13:18.97	192.37	13.18	-25.2	-26.2	16.1	0.00e+00	0	43	0	411041792	11	4073
2026-01-01 13:13:21.99	192.62	13.45	-25.1	-26.0	16.2	0.00e+00	0	43	0	428867584	11	4011
2026-01-01 13:13:25.00	192.87	13.73	-25.0	-25.8	16.3	0.00e+00	0	42	0	445644800	11	3956
2026-01-01 13:13:28.01	193.12	14.01	-24.8	-25.8	16.6	0.00e+00	0	43	0	462422016	10	4072
2026-01-01 13:13:31.02	193.38	14.30	-24.9	-26.0	16.5	0.00e+00	0	43	0	479199232	10	4126
2026-01-01 13:13:34.03	193.64	14.58	-24.8	-25.9	16.6	0.00e+00	0	43	0	495976448	10	4083
2026-01-01 13:13:37.05	193.90	14.87	-25.0	-26.3	16.4	0.00e+00	0	43	0	513802240	10	4194
2026-01-01 13:13:40.06	194.18	15.17	-24.3	-24.8	17.2	0.00e+00	0	43	0	530579456	10	3829
2026-01-01 13:13:43.08	194.45	15.46	-24.3	-25.4	17.1	0.00e+00	0	43	0	547356672	9	4058
2026-01-01 13:13:46.09	194.74	15.76	-24.3	-25.4	17.1	0.00e+00	0	43	0	564133888	9	4064
2026-01-01 13:13:49.10	195.02	16.06	-24.3	-25.4	17.2	0.00e+00	0	43	0	580911104	9	4071
2026-01-01 13:13:52.11	195.32	16.37	-24.2	-25.2	17.3	0.00e+00	0	43	0	597688320	9	4017
2026-01-01 13:13:55.12	195.62	16.68	-24.3	-25.3	17.2	0.00e+00	0	43	0	614465536	9	4035
2026-01-01 13:13:58.14	195.92	16.99	-24.2	-25.1	17.3	0.00e+00	0	43	0	632291328	9	3991
2026-01-01 13:14:01.14	196.23	17.30	-24.1	-24.9	17.4	0.00e+00	0	43	0	649068544	9	3945
2026-01-01 13:14:04.15	196.55	17.62	-23.8	-24.3	17.7	0.00e+00	0	43	0	665845760	9	3812
2026-01-01 13:14:07.17	196.88	17.94	-23.7	-24.4	18.0	0.00e+00	0	43	0	682622976	8	3939
2026-01-01 13:14:10.18	197.21	18.27	-23.7	-24.5	18.0	0.00e+00	0	43	0	699400192	8	3953
2026-01-01 13:14:13.18	197.54	18.60	-23.8	-24.7	17.9	0.00e+00	0	43	0	716177408	8	3992
2026-01-01 13:14:16.19	197.89	18.93	-23.7	-24.5	18.0	0.00e+00	0	43	0	734003200	8	3957
2026-01-01 13:14:19.21	198.24	19.26	-23.6	-24.3	18.1	0.00e+00	0	43	0	750780416	8	3909
2026-01-01 13:14:22.21	198.60	19.60	-23.6	-24.3	18.1	0.00e+00	0	43	0	767557632	8	3905
2026-01-01 13:14:25.22	198.97	19.94	-23.6	-24.2	18.1	0.00e+00	0	43	0	784334848	8	3892
2026-01-01 13:14:28.24	199.35	20.29	-23.7	-24.4	18.0	0.00e+00	0	43	0	801112064	8	3944
2026-01-01 13:14:31.25	199.73	20.64	-23.8	-24.7	17.9	0.00e+00	0	43	0	817889280	8	4013
2026-01-01 13:14:34.28	200.13	20.99	-23.6	-24.3	18.1	0.00e+00	0	43	0	835715072	8	3899
2026-01-01 13:14:37.28	200.53	21.35	-23.5	-24.2	18.2	0.00e+00	0	43	0	852492288	8	3884
2026-01-01 13:14:40.29	200.94	21.71	-23.5	-24.0	18.3	0.00e+00	0	43	0	869269504	8	3843
2026-01-01 13:14:43.32	201.36	22.07	-23.5	-24.2	18.2	0.00e+00	0	43	0	886046720	8	3880
2026-01-01 13:14:46.33	201.79	22.44	-23.5	-24.0	18.3	0.00e+00	0	43	0	902823936	8	3843
2026-01-01 13:14:49.34	202.23	22.81	-23.4	-23.8	18.5	0.00e+00	0	43	0	919601152	8	3796
2026-01-01 13:14:52.35	202.68	23.19	-23.1	-23.8	18.7	0.00e+00	0	43	0	937426944	7	3902
2026-01-01 13:14:55.35	203.14	23.57	-23.2	-24.1	18.6	0.00e+00	0	43	0	954204160	7	3962
2026-01-01 13:14:58.37	203.61	23.95	-23.0	-23.6	18.8	0.00e+00	0	43	0	970981376	7	3836
2026-01-01 13:15:01.39	204.10	24.34	-22.8	-23.6	19.1	2.20e-06	0	43	0	987758592	6	3958
2026-01-01 13:15:04.40	204.59	24.73	-22.7	-23.4	19.2	0.00e+00	0	43	0	1004535808	6	3907
2026-01-01 13:15:07.40	205.10	25.12	-22.7	-23.5	19.1	0.00e+00	0	43	0	1021313024	6	3927
2026-01-01 13:15:10.41	205.62	25.51	-22.9	-23.8	19.0	1.10e-06	0	43	0	1038090240	6	3992
2026-01-01 13:15:13.42	206.15	25.91	-22.5	-23.1	19.4	0.00e+00	0	43	0	1054867456	6	3827
2026-01-01 13:15:16.44	206.70	26.32	-22.6	-23.2	19.3	0.00e+00	0	43	0	1072693248	6	3862
2026-01-01 13:15:19.45	207.26	26.73	-22.2	-23.0	19.6	0.00e+00	0	43	0	1089470464	5	3906
2026-01-01 13:15:22.46	207.83	27.14	-22.4	-23.2	19.5	2.20e-06	0	43	0	1106247680	5	3969
2026-01-01 13:15:25.46	208.42	27.55	-22.4	-23.3	19.4	2.20e-06	0	43	0	1123024896	5	3992
2026-01-01 13:15:28.47	209.02	27.96	-22.5	-23.6	19.4	0.00e+00	0	43	0	1139802112	5	4052
2026-01-01 13:15:31.48	209.64	28.38	-22.5	-23.5	19.4	0.00e+00	0	43	0	1157627904	5	4036
2026-01-01 13:15:34.49	210.27	28.81	-22.2	-22.8	19.8	0.00e+00	0	43	0	1174405120	5	3874
2026-01-01 13:15:37.49	210.92	29.23	-22.4	-23.3	19.5	0.00e+00	0	43	0	1191182336	5	3986
2026-01-01 13:15:40.49	211.59	29.65	-22.6	-23.7	19.5	0.00e+00	0	43	0	1207959552	5	4078
2026-01-01 13:15:43.50	212.28	30.08	-22.9	-24.2	19.3	0.00e+00	0	43	0	1224736768	5	4186
2026-01-01 13:15:46.51	212.98	30.51	-22.7	-23.9	19.4	0.00e+00	0	43	0	1241513984	5	4126
2026-01-01 13:15:49.52	213.70	30.95	-22.8	-24.0	19.4	0.00e+00	0	43	0	1258291200	5	4138
2026-01-01 13:15:52.53	214.45	31.38	-22.5	-23.4	19.7	0.00e+00	0	43	0	1275068416	5	3992
2026-01-01 13:15:55.53	215.21	31.82	-22.5	-23.4	19.7	0.00e+00	0	43	0	1292894208	5	3998
2026-01-01 13:15:58.53	215.99	32.25	-22.3	-23.0	19.9	0.00e+00	0	43	0	1309671424	5	3904
2026-01-01 13:16:01.54	216.79	32.69	-22.2	-22.8	20.0	0.00e+00	0	43	0	1326448640	5	3848
2026-01-01 13:16:04.55	217.61	33.12	-22.2	-22.9	20.0	0.00e+00	0	43	0	1343225856	5	3871
2026-01-01 13:16:07.56	218.46	33.56	-22.4	-23.2	19.9	0.00e+00	0	43	0	1360003072	5	3946
2026-01-01 13:16:10.56	219.33	33.99	-22.3	-23.0	20.0	0.00e+00	0	43	0	1376780288	5	3905
2026-01-01 13:16:13.57	220.22	34.43	-22.4	-23.2	19.9	0.00e+00	0	43	0	1393557504	5	3953
2026-01-01 13:16:16.58	221.13	34.86	-22.3	-22.9	20.0	0.00e+00	0	43	0	1410334720	5	3885
2026-01-01 13:16:19.59	222.07	35.29	-22.3	-23.1	19.9	0.00e+00	0	43	0	1428160512	5	3924
2026-01-01 13:16:22.60	223.04	35.72	-22.1	-22.6	20.1	0.00e+00	0	44	0	1444937728	5	3813
2026-01-01 13:16:25.61	224.03	36.14	-22.1	-22.5	20.2	0.00e+00	0	43	0	1461714944	5	3785
2026-01-01 13:16:28.63	225.05	36.56	-22.0	-22.3	20.3	0.00e+00	0	43	0	1478492160	5	3748
2026-01-01 13:16:31.64	226.09	36.98	-21.9	-22.1	20.4	0.00e+00	0	44	0	1495269376	5	3709
2026-01-01 13:16:34.65	227.16	37.39	-21.7	-22.3	20.6	0.00e+00	0	43	0	1512046592	4	3844
2026-01-01 13:16:37.66	228.25	37.79	-21.9	-22.6	20.4	0.00e+00	0	43	0	1528823808	4	3918
2026-01-01 13:16:40.68	229.37	38.19	-22.0	-22.8	20.3	0.00e+00	0	43	0	1546649600	4	3975
2026-01-01 13:16:43.69	230.52	38.58	-22.0	-22.8	20.3	0.00e+00	0	43	0	1563426816	4	3976
2026-01-01 13:16:46.69	231.69	38.96	-22.0	-22.8	20.3	0.00e+00	0	43	0	1580204032	4	3966
2026-01-01 13:16:49.70	232.89	39.33	-22.0	-22.9	20.3	0.00e+00	0	43	0	1596981248	4	3987
2026-01-01 13:16:52.71	234.12	39.69	-22.3	-23.5	20.0	0.00e+00	0	43	0	1613758464	4	4146
2026-01-01 13:16:55.72	235.38	40.03	-22.2	-23.3	20.1	0.00e+00	0	43	0	1630535680	4	4087
2026-01-01 13:16:58.74	236.66	40.37	-22.0	-22.8	20.4	0.00e+00	0	43	0	1648361472	4	3963
2026-01-01 13:17:01.75	237.97	40.70	-22.3	-23.5	20.0	0.00e+00	0	43	0	1665138688	4	4132
2026-01-01 13:17:04.77	239.31	41.01	-22.2	-23.3	20.1	0.00e+00	0	43	0	1681915904	4	4077
2026-01-01 13:17:07.77	240.66	41.30	-22.0	-22.9	20.3	0.00e+00	0	43	0	1698693120	4	3974
2026-01-01 13:17:10.78	242.04	41.58	-22.0	-22.8	20.4	0.00e+00	0	43	0	1715470336	4	3958
2026-01-01 13:17:13.79	243.45	41.84	-22.1	-23.1	20.2	0.00e+00	0	44	0	1732247552	4	4034
2026-01-01 13:17:16.81	244.88	42.09	-22.2	-23.4	20.1	0.00e+00	0	43	0	1749024768	4	4103
2026-01-01 13:17:19.81	246.32	42.31	-22.0	-22.9	20.3	0.00e+00	0	43	0	1765801984	4	3999
2026-01-01 13:17:22.82	247.79	42.52	-22.1	-23.0	20.3	0.00e+00	0	43	0	1783627776	4	4004
2026-01-01 13:17:25.83	249.27	42.71	-22.1	-23.0	20.3	0.00e+00	0	43	0	1800404992	4	4013
2026-01-01 13:17:28.83	250.77	42.88	-21.9	-22.6	20.5	0.00e+00	0	43	0	1817182208	4	3911
2026-01-01 13:17:31.84	252.28	43.02	-22.8	-24.1	19.5	0.00e+00	0	43	0	1833959424	5	4169
2026-01-01 13:17:34.85	253.81	43.15	-22.7	-23.8	19.6	0.00e+00	0	43	0	1850736640	5	4082
2026-01-01 13:17:37.86	255.35	43.25	-22.7	-23.8	19.6	0.00e+00	0	43	0	1867513856	5	4100
2026-01-01 13:17:40.87	256.89	43.33	-22.5	-23.5	19.8	0.00e+00	0	43	0	1884291072	5	4009
2026-01-01 13:17:43.88	258.45	43.39	-22.3	-23.0	20.1	0.00e+00	0	43	0	1902116864	5	3894
2026-01-01 13:17:46.90	260.01	43.43	-22.3	-23.0	20.0	0.00e+00	0	43	0	1918894080	5	3901
2026-01-01 13:17:49.91	261.57	43.44	-22.3	-23.0	20.1	0.00e+00	0	43	0	1935671296	5	3894
2026-01-01 13:17:52.92	263.13	43.43	-22.6	-23.5	19.8	0.00e+00	0	43	0	1952448512	5	4019
2026-01-01 13:17:55.93	264.69	43.39	-22.5	-23.4	19.9	0.00e+00	0	43	0	1969225728	5	3989
2026-01-01 13:17:58.93	266.24	43.33	-22.4	-23.3	19.9	0.00e+00	0	43	0	1987051520	5	3961
2026-01-01 13:18:01.94	267.78	43.25	-22.6	-23.7	19.7	0.00e+00	0	44	0	2003828736	5	4068
2026-01-01 13:18:04.95	269.32	43.15	-22.2	-22.9	20.1	0.00e+00	0	43	0	2020605952	5	3868
2026-01-01 13:18:07.96	270.85	43.03	-22.3	-23.0	20.1	0.00e+00	0	43	0	2037383168	5	3904
2026-01-01 13:18:10.98	272.37	42.88	-22.4	-23.1	20.0	0.00e+00	0	43	0	2054160384	5	3936
2026-01-01 13:18:13.99	273.86	42.71	-22.5	-23.4	19.9	0.00e+00	0	43	0	2070937600	5	3995
2026-01-01 13:18:17.00	275.35	42.52	-22.2	-22.7	20.2	0.00e+00	0	43	0	2087714816	5	3834
2026-01-01 13:18:20.00	276.81	42.32	-22.4	-23.2	20.0	0.00e+00	0	43	0	2104492032	5	3944
2026-01-01 13:18:23.01	278.25	42.09	-22.2	-22.8	20.2	0.00e+00	0	43	0	2122317824	5	3859
2026-01-01 13:18:26.02	279.68	41.85	-22.2	-22.8	20.2	0.00e+00	0	43	0	2139095040	5	3856
2026-01-01 13:18:29.03	281.08	41.59	-22.1	-22.6	20.3	0.00e+00	0	43	0	2155872256	5	3798
2026-01-01 13:18:32.04	282.46	41.31	-22.1	-22.6	20.2	0.00e+00	0	43	0	2172649472	5	3816
2026-01-01 13:18:35.06	283.82	41.01	-22.2	-22.8	20.2	0.00e+00	0	43	0	2189426688	5	3856
2026-01-01 13:18:38.07	285.15	40.70	-22.1	-22.5	20.3	0.00e+00	0	43	0	2206203904	5	3791
2026-01-01 13:18:41.09	286.46	40.38	-22.4	-23.1	20.0	0.00e+00	0	43	0	2224029696	5	3935
2026-01-01 13:18:44.10	287.74	40.04	-22.2	-22.7	20.2	0.00e+00	0	43	0	2240806912	5	3825
2026-01-01 13:18:47.10	288.98	39.70	-22.0	-22.3	20.5	0.00e+00	0	43	0	2257584128	5	3733
2026-01-01 13:18:50.10	290.20	39.34	-22.2	-22.8	20.2	0.00e+00	0	43	0	2274361344	5	3856
2026-01-01 13:18:53.11	291.40	38.97	-22.1	-22.6	20.3	0.00e+00	0	43	0	2291138560	5	3802
2026-01-01 13:18:56.12	292.58	38.59	-22.0	-22.3	20.4	0.00e+00	0	43	0	2307915776	5	3742
2026-01-01 13:18:59.14	293.72	38.21	-22.0	-22.3	20.4	0.00e+00	0	43	0	2324692992	5	3751
2026-01-01 13:19:02.15	294.84	37.81	-22.0	-22.4	20.3	0.00e+00	0	44	0	2342518784	5	3766
2026-01-01 13:19:05.16	295.93	37.41	-22.2	-22.9	20.1	0.00e+00	0	43	0	2359296000	5	3875
2026-01-01 13:19:08.17	297.00	37.00	-22.4	-23.3	19.9	0.00e+00	0	44	0	2376073216	5	3983
2026-01-01 13:19:11.20	298.04	36.59	-22.4	-23.1	20.0	0.00e+00	0	43	0	2392850432	5	3922
2026-01-01 13:19:14.20	299.05	36.17	-22.1	-22.6	20.2	0.00e+00	0	43	0	2409627648	5	3825
2026-01-01 13:19:17.20	300.04	35.75	-22.0	-22.4	20.3	0.00e+00	0	43	0	2426404864	5	3773
2026-01-01 13:19:20.21	301.00	35.33	-22.3	-22.9	20.0	0.00e+00	0	44	0	2443182080	5	3882
2026-01-01 13:19:23.21	301.94	34.90	-22.5	-23.4	19.8	0.00e+00	0	43	0	2459959296	5	4007
2026-01-01 13:19:26.23	302.85	34.47	-22.2	-22.7	20.1	0.00e+00	0	44	0	2477785088	5	3836
2026-01-01 13:19:29.24	303.74	34.04	-22.3	-22.9	20.0	0.00e+00	0	43	0	2494562304	5	3884
2026-01-01 13:19:32.25	304.61	33.60	-22.4	-23.2	19.9	0.00e+00	0	43	0	2511339520	5	3945
2026-01-01 13:19:35.26	305.46	33.17	-22.2	-22.7	20.1	0.00e+00	0	43	0	2528116736	5	3817
2026-01-01 13:19:38.27	306.28	32.74	-22.4	-23.2	19.8	0.00e+00	0	43	0	2544893952	5	3960
2026-01-01 13:19:41.27	307.08	32.30	-22.5	-23.5	19.7	0.00e+00	0	44	0	2561671168	5	4033
2026-01-01 13:19:44.29	307.86	31.87	-22.5	-23.4	19.7	0.00e+00	0	44	0	2579496960	5	4002
2026-01-01 13:19:47.30	308.62	31.43	-22.4	-23.1	19.9	0.00e+00	0	44	0	2596274176	5	3937
2026-01-01 13:19:50.31	309.36	31.00	-22.8	-24.1	19.4	0.00e+00	0	44	0	2613051392	5	4164
2026-01-01 13:19:53.32	310.08	30.57	-22.9	-24.3	19.3	0.00e+00	0	43	0	2629828608	5	4210
2026-01-01 13:19:56.32	310.79	30.15	-22.8	-24.1	19.4	0.00e+00	0	43	0	2646605824	5	4171
2026-01-01 13:19:59.33	311.47	29.72	-22.8	-24.1	19.4	0.00e+00	0	43	0	2663383040	5	4167
2026-01-01 13:20:02.34	312.14	29.29	-22.8	-23.6	19.4	0.00e+00	0	44	0	2680160256	6	3947
2026-01-01 13:20:05.35	312.79	28.87	-22.7	-23.4	19.5	0.00e+00	0	43	0	2697986048	6	3879
2026-01-01 13:20:08.35	313.42	28.45	-22.6	-23.1	19.6	0.00e+00	0	43	0	2714763264	6	3826
2026-01-01 13:20:11.37	314.04	28.04	-22.8	-23.5	19.4	0.00e+00	0	44	0	2731540480	6	3920
2026-01-01 13:20:14.38	314.64	27.62	-22.7	-23.3	19.5	0.00e+00	0	44	0	2748317696	6	3880
2026-01-01 13:20:17.40	315.23	27.21	-22.7	-23.3	19.5	0.00e+00	0	44	0	2765094912	6	3861
2026-01-01 13:20:20.41	315.81	26.80	-22.5	-23.0	19.7	0.00e+00	0	43	0	2781872128	6	3794
2026-01-01 13:20:23.42	316.37	26.40	-22.8	-23.6	19.4	0.00e+00	0	44	0	2798649344	6	3935
2026-01-01 13:20:26.43	316.91	26.00	-23.0	-24.0	19.2	0.00e+00	0	43	0	2816475136	6	4033
2026-01-01 13:20:29.44	317.44	25.60	-22.9	-23.8	19.2	0.00e+00	0	44	0	2833252352	6	3983
2026-01-01 13:20:32.44	317.96	25.21	-23.0	-23.9	19.2	0.00e+00	0	43	0	2850029568	6	4011
2026-01-01 13:20:35.45	318.47	24.81	-22.9	-23.9	19.2	0.00e+00	0	43	0	2866806784	6	4003
2026-01-01 13:20:38.47	318.96	24.43	-22.9	-23.7	19.3	0.00e+00	0	44	0	2883584000	6	3956
2026-01-01 13:20:41.48	319.45	24.04	-23.1	-24.1	19.0	0.00e+00	0	44	0	2900361216	6	4064
2026-01-01 13:20:44.49	319.92	23.66	-23.2	-24.5	18.9	0.00e+00	0	43	0	2918187008	6	4150
2026-01-01 13:20:47.50	320.38	23.29	-23.7	-25.0	18.3	0.00e+00	0	44	0	2934964224	7	4172
2026-01-01 13:20:50.51	320.83	22.91	-23.4	-24.2	18.7	0.00e+00	0	43	0	2951741440	7	3980
2026-01-01 13:20:53.51	321.27	22.55	-23.4	-24.4	18.7	0.00e+00	0	44	0	2968518656	7	4014
2026-01-01 13:20:56.52	321.70	22.18	-23.6	-24.7	18.5	0.00e+00	0	43	0	2985295872	7	4083
2026-01-01 13:20:59.54	322.12	21.82	-23.7	-24.9	18.3	0.00e+00	0	43	0	3002073088	7	4154
2026-01-01 13:21:02.56	322.53	21.46	-23.8	-25.1	18.2	0.00e+00	0	43	0	3018850304	7	4198
2026-01-01 13:21:05.58	322.94	21.10	-23.8	-25.1	18.2	0.00e+00	0	43	0	3036676096	7	4197
2026-01-01 13:21:08.59	323.33	20.75	-24.0	-25.5	18.0	0.00e+00	0	44	0	3053453312	7	4300
2026-01-01 13:21:11.61	323.72	20.40	-24.2	-25.6	17.7	0.00e+00	0	44	0	3070230528	8	4202
2026-01-01 13:21:14.62	324.09	20.06	-24.3	-25.6	17.7	0.00e+00	0	43	0	3087007744	8	4225
2026-01-01 13:21:17.64	324.46	19.72	-24.3	-25.8	17.6	0.00e+00	0	44	0	3103784960	8	4265
2026-01-01 13:21:20.64	324.82	19.38	-24.3	-25.7	17.7	0.00e+00	0	44	0	3121610752	8	4231
2026-01-01 13:21:23.65	325.18	19.05	-24.2	-25.5	17.7	0.00e+00	0	43	0	3138387968	8	4198
2026-01-01 13:21:26.65	325.52	18.72	-24.4	-25.9	17.5	0.00e+00	0	43	0	3155165184	8	4277
2026-01-01 13:21:29.67	325.86	18.39	-24.3	-25.6	17.6	0.00e+00	0	44	0	3171942400	8	4224
2026-01-01 13:21:32.67	326.19	18.07	-24.5	-25.6	17.4	0.00e+00	0	43	0	3188719616	9	4100
2026-01-01 13:21:35.67	326.52	17.75	-24.5	-25.8	17.2	0.00e+00	0	43	0	3205496832	9	4140
2026-01-01 13:21:38.68	326.84	17.44	-24.5	-25.7	17.3	0.00e+00	0	43	0	3222274048	9	4123
2026-01-01 13:21:41.69	327.15	17.12	-24.6	-25.8	17.2	0.00e+00	0	43	0	3239051264	9	4147
2026-01-01 13:21:44.71	327.46	16.81	-24.7	-26.2	17.0	0.00e+00	0	44	0	3256877056	9	4257
2026-01-01 13:21:47.72	327.76	16.51	-24.8	-26.4	16.9	0.00e+00	0	43	0	3273654272	9	4320
2026-01-01 13:21:50.73	328.05	16.20	-24.9	-26.6	16.8	0.00e+00	0	43	0	3290431488	9	4363
2026-01-01 13:21:53.74	328.34	15.90	-25.0	-26.2	16.7	0.00e+00	0	43	0	3307208704	10	4160
2026-01-01 13:21:56.73	328.62	15.61	-25.0	-26.3	16.6	0.00e+00	0	44	0	3323985920	10	4180
2026-01-01 13:21:59.74	328.90	15.31	-25.1	-26.6	16.5	0.00e+00	0	44	0	3340763136	10	4238
2026-01-01 13:22:02.75	329.17	15.02	-25.1	-26.5	16.5	0.00e+00	0	43	0	3357540352	10	4227
2026-01-01 13:22:05.76	329.44	14.73	-25.4	-27.0	16.2	0.00e+00	0	43	0	3374317568	10	4371
2026-01-01 13:22:08.76	329.71	14.45	-25.4	-27.1	16.1	0.00e+00	0	44	0	3392143360	10	4397
2026-01-01 13:22:11.78	329.96	14.17	-25.4	-27.1	16.1	0.00e+00	0	43	0	3408920576	10	4385
2026-01-01 13:22:14.79	330.22	13.89	-25.5	-26.9	15.9	0.00e+00	0	44	0	3425697792	11	4226
2026-01-01 13:22:17.80	330.47	13.61	-25.7	-27.3	15.7	0.00e+00	0	43	0	3442475008	11	4339
2026-01-01 13:22:20.81	330.71	13.33	-25.6	-27.1	15.9	0.00e+00	0	44	0	3459252224	11	4271
2026-01-01 13:22:23.82	330.95	13.06	-25.7	-27.2	15.8	0.00e+00	0	44	0	3476029440	11	4304
2026-01-01 13:22:26.82	331.19	12.79	-25.6	-27.2	15.7	0.00e+00	0	44	0	3492806656	11	4302
2026-01-01 13:22:29.83	331.42	12.53	-25.8	-27.5	15.6	0.00e+00	0	43	0	3510632448	11	4379
2026-01-01 13:22:32.84	331.65	12.26	-25.8	-27.1	15.4	0.00e+00	0	43	0	3527409664	12	4168
2026-01-01 13:22:35.85	331.88	12.00	-25.8	-27.1	15.4	0.00e+00	0	43	0	3544186880	12	4187
2026-01-01 13:22:38.86	332.10	11.74	-25.9	-27.4	15.2	0.00e+00	0	43	0	3560964096	12	4265
2026-01-01 13:22:41.87	332.32	11.48	-26.1	-27.7	15.0	0.00e+00	0	44	0	3577741312	12	4352
2026-01-01 13:22:44.89	332.53	11.23	-26.1	-27.7	15.0	0.00e+00	0	44	0	3594518528	12	4338
2026-01-01 13:22:47.91	332.74	10.97	-26.0	-27.6	15.1	0.00e+00	0	44	0	3612344320	12	4300
2026-01-01 13:22:50.91	332.95	10.73	-25.9	-27.4	15.2	0.00e+00	0	43	0	3629121536	12	4253
2026-01-01 13:22:53.92	333.16	10.48	-25.9	-27.2	15.2	0.00e+00	0	43	0	3645898752	12	4211
2026-01-01 13:22:56.94	333.36	10.23	-26.0	-27.5	15.0	0.00e+00	0	43	0	3662675968	12	4283
2026-01-01 13:22:59.94	333.55	9.99	-26.0	-27.6	15.0	0.00e+00	0	43	0	3679453184	12	4301
2026-01-01 13:23:02.94	333.75	9.75	-26.1	-27.8	14.9	0.00e+00	0	44	0	3696230400	12	4358
2026-01-01 13:23:05.94	333.94	9.51	-26.4	-28.4	14.5	0.00e+00	0	44	0	3713007616	12	4553
2026-01-01 13:23:08.95	334.13	9.27	-26.3	-28.3	14.5	1.10e-06	0	44	0	3729784832	12	4527
2026-01-01 13:23:11.96	334.32	9.04	-26.6	-28.4	14.1	0.00e+00	0	44	0	3747610624	13	4440
2026-01-01 13:23:14.95	334.50	8.81	-26.6	-28.5	14.1	1.10e-06	0	43	0	3764387840	13	4468
2026-01-01 13:23:17.96	334.68	8.57	-26.6	-28.5	14.0	2.20e-06	0	44	0	3781165056	13	4474
2026-01-01 13:23:20.97	334.86	8.34	-26.5	-28.3	14.2	1.10e-06	0	44	0	3797942272	13	4410
2026-01-01 13:23:23.99	335.03	8.12	-26.6	-28.3	14.1	0.00e+00	0	44	0	3814719488	13	4417
2026-01-01 13:23:26.99	335.21	7.89	-26.5	-28.3	14.1	2.20e-06	0	44	0	3831496704	13	4402
2026-01-01 13:23:30.00	335.38	7.67	-26.6	-28.4	14.1	0.00e+00	0	44	0	3848273920	13	4438
2026-01-01 13:23:33.01	335.55	7.44	-26.6	-28.5	13.9	0.00e+00	0	43	0	3865051136	13	4483
2026-01-01 13:23:36.03	335.71	7.22	-26.7	-28.6	13.9	1.10e-06	0	43	0	3882876928	13	4498
2026-01-01 13:23:39.05	335.88	7.00	-32.6	-43.4	3.8	8.46e-01	0	44	104	3895459840	25	12462

#Closed at: 2026-01-01 13:23:41
#Recorded file [3895 MB]: D:/data/31010_260101_161205.dat