passes_logs/2026/01/01/R2M6_AANII_01/R2M6_AANII_01__20260101_050628_FENGYUN_3E_rec.log

#Pass ID: 20260101_050628_FENGYUN 3E
#Satellite: FENGYUN 3E
#Configuration: FENGYUN 3E
#almurnet v.1.7.20240730
#Start time: 2026-01-01 05:08:14

#Version: 2.2.20231116
#Station: R2M6_AANII_01
#Location: 30.233357 lon 59.946436 lat
#TLE: 1 49008U 21062A   25365.55977344  .00000403  00000+0  21051-3 0  9995
#TLE: 2 49008  98.7483   5.8586 0001311 170.0615 190.0588 14.19883886232790

#Time	Az	El	Level	Level2	SNR	BER	BlckErr	Temp	State	Recorded	gain1	gain2
2026-01-01 05:08:14.42	12.30	16.65	-32.8	-44.3	3.8	8.47e-01	0	43	0	0	25	13418
2026-01-01 05:08:17.40	12.16	16.98	-33.5	-43.4	3.8	8.46e-01	0	43	104	0	26	11203
2026-01-01 05:08:20.41	12.02	17.32	-33.6	-43.5	3.8	8.47e-01	0	43	104	0	26	11290
2026-01-01 05:08:23.40	11.87	17.67	-33.6	-43.5	3.8	8.46e-01	0	43	104	0	26	11297
2026-01-01 05:08:26.40	11.71	18.02	-33.6	-43.5	3.8	8.46e-01	0	43	104	0	26	11299
2026-01-01 05:08:29.39	11.56	18.37	-33.6	-43.5	3.8	8.47e-01	0	43	104	0	26	11279
2026-01-01 05:08:32.38	11.40	18.73	-33.6	-43.0	3.8	8.46e-01	0	43	104	0	27	10653
2026-01-01 05:08:35.38	11.23	19.09	-33.6	-43.0	3.8	8.46e-01	0	43	104	0	27	10614
2026-01-01 05:08:38.37	11.07	19.46	-33.5	-43.3	3.8	8.46e-01	0	43	104	0	26	11165
2026-01-01 05:08:41.36	10.89	19.83	-33.4	-43.2	3.8	8.46e-01	0	43	104	0	26	11132
2026-01-01 05:08:44.36	10.72	20.21	-33.3	-42.9	3.8	8.46e-01	0	43	104	0	26	10893
2026-01-01 05:08:47.35	10.53	20.60	-32.4	-38.0	4.3	8.34e-01	0	43	104	0	26	6847
2026-01-01 05:08:50.34	10.35	20.99	-31.8	-36.3	5.3	7.48e-01	0	43	0	0	24	6009
2026-01-01 05:08:53.33	10.15	21.38	-31.4	-35.5	6.2	3.12e-01	0	43	0	13631488	22	5794
2026-01-01 05:08:56.34	9.96	21.79	-32.0	-37.6	4.9	7.54e-01	0	43	0	28311552	23	6847
2026-01-01 05:08:59.33	9.75	22.20	-31.7	-35.8	5.4	7.42e-01	0	43	0	28311552	24	5779
2026-01-01 05:09:02.31	9.55	22.61	-28.0	-28.7	12.1	3.07e-04	0	43	0	49283072	17	3893
2026-01-01 05:09:05.31	9.33	23.03	-25.7	-26.0	14.9	1.10e-06	0	44	0	71303168	12	3741
2026-01-01 05:09:08.32	9.11	23.46	-26.4	-27.7	13.9	1.10e-06	0	43	0	93323264	12	4153
2026-01-01 05:09:11.32	8.88	23.90	-26.4	-27.1	14.0	4.50e-06	0	43	0	114294784	13	3894
2026-01-01 05:09:14.33	8.64	24.34	-25.6	-25.8	15.0	0.00e+00	0	43	0	136314880	12	3678
2026-01-01 05:09:17.32	8.40	24.79	-25.9	-26.9	14.8	0.00e+00	0	43	0	158334976	11	4047
2026-01-01 05:09:20.31	8.15	25.24	-25.0	-25.1	15.8	0.00e+00	0	43	0	179306496	11	3615
2026-01-01 05:09:23.30	7.90	25.70	-23.7	-23.7	17.3	0.00e+00	0	43	0	201326592	8	3610
2026-01-01 05:09:26.28	7.63	26.17	-23.4	-24.2	17.5	0.00e+00	0	43	0	222298112	6	3919
2026-01-01 05:09:29.29	7.36	26.65	-23.0	-23.3	18.0	0.00e+00	0	43	0	244318208	6	3709
2026-01-01 05:09:32.27	7.08	27.14	-23.2	-23.8	17.8	0.00e+00	0	43	0	265289728	6	3825
2026-01-01 05:09:35.25	6.79	27.63	-22.8	-22.8	18.2	0.00e+00	0	43	0	287309824	6	3611
2026-01-01 05:09:38.23	6.49	28.13	-22.8	-23.3	18.3	0.00e+00	0	43	0	309329920	5	3811
2026-01-01 05:09:41.21	6.18	28.64	-22.4	-22.5	18.6	0.00e+00	0	43	0	330301440	5	3643
2026-01-01 05:09:44.21	5.86	29.16	-22.3	-22.8	18.8	0.00e+00	0	43	0	352321536	4	3817
2026-01-01 05:09:47.20	5.53	29.68	-22.2	-22.5	18.9	0.00e+00	0	43	0	373293056	4	3739
2026-01-01 05:09:50.19	5.19	30.22	-22.1	-22.3	19.1	0.00e+00	0	43	0	395313152	4	3706
2026-01-01 05:09:53.17	4.83	30.76	-22.0	-22.2	19.1	0.00e+00	0	43	0	416284672	4	3685
2026-01-01 05:09:56.15	4.47	31.31	-22.3	-22.9	18.8	0.00e+00	0	43	0	438304768	4	3823
2026-01-01 05:09:59.14	4.09	31.87	-22.2	-22.7	18.9	0.00e+00	0	43	0	460324864	4	3782
2026-01-01 05:10:02.12	3.70	32.44	-21.8	-22.0	15.6	0.00e+00	0	43	0	481296384	5	3649
2026-01-01 05:10:05.11	3.29	33.03	-22.4	-23.1	18.7	0.00e+00	0	43	0	503316480	4	3871
2026-01-01 05:10:08.11	2.86	33.62	-22.8	-23.4	18.2	0.00e+00	0	43	0	524288000	5	3845
2026-01-01 05:10:11.10	2.42	34.22	-22.5	-22.6	12.2	0.00e+00	0	44	0	546308096	5	3662
2026-01-01 05:10:14.08	1.96	34.83	-22.3	-22.3	18.8	0.00e+00	0	43	0	568328192	5	3603
2026-01-01 05:10:17.07	1.49	35.45	-22.1	-22.4	18.7	0.00e+00	0	43	0	589299712	4	3734
2026-01-01 05:10:20.06	0.99	36.08	-22.0	-22.2	18.9	0.00e+00	0	43	0	611319808	4	3664
2026-01-01 05:10:23.05	0.48	36.72	-22.0	-22.2	19.2	0.00e+00	0	43	0	632291328	4	3670
2026-01-01 05:10:26.04	359.94	37.37	-22.2	-22.6	19.0	1.35e-03	0	43	0	654311424	4	3753
2026-01-01 05:10:29.03	359.38	38.03	-22.4	-22.5	18.8	1.53e-03	0	43	0	675282944	5	3628
2026-01-01 05:10:32.02	358.80	38.70	-22.5	-22.7	18.6	0.00e+00	0	43	0	697303040	5	3690
2026-01-01 05:10:35.01	358.19	39.38	-22.6	-23.0	18.5	0.00e+00	0	44	0	718274560	5	3747
2026-01-01 05:10:38.00	357.56	40.07	-22.4	-22.6	18.8	0.00e+00	0	43	0	740294656	5	3660
2026-01-01 05:10:40.99	356.90	40.77	-22.6	-22.9	18.6	0.00e+00	0	43	0	762314752	5	3714
2026-01-01 05:10:44.00	356.20	41.49	-22.9	-23.5	18.3	1.21e-03	0	43	0	783286272	5	3861
2026-01-01 05:10:46.98	355.48	42.20	-22.8	-23.3	18.4	1.20e-03	0	43	0	805306368	5	3822
2026-01-01 05:10:49.97	354.72	42.93	-22.8	-23.4	18.4	1.15e-03	0	43	0	827326464	5	3842
2026-01-01 05:10:52.97	353.93	43.67	-22.6	-22.8	18.6	1.10e-03	0	43	0	848297984	5	3706
2026-01-01 05:10:55.97	353.09	44.41	-23.4	-24.0	17.8	0.00e+00	0	43	0	870318080	6	3885
2026-01-01 05:10:58.96	352.22	45.16	-23.3	-23.3	17.9	0.00e+00	0	43	0	891289600	7	3621
2026-01-01 05:11:01.95	351.30	45.92	-23.0	-23.3	18.2	1.21e-03	0	43	0	913309696	6	3700
2026-01-01 05:11:04.94	350.34	46.68	-22.8	-23.2	18.5	1.48e-03	0	43	0	935329792	5	3788
2026-01-01 05:11:07.93	349.33	47.45	-23.4	-24.0	17.8	1.26e-03	0	43	0	956301312	6	3882
2026-01-01 05:11:10.91	348.28	48.21	-24.0	-24.9	17.1	7.33e-04	0	43	0	978321408	7	3996
2026-01-01 05:11:13.90	347.16	48.99	-23.3	-23.4	17.9	8.90e-04	0	43	0	999292928	7	3622
2026-01-01 05:11:16.88	345.99	49.76	-23.1	-23.5	18.1	0.00e+00	0	44	0	1021313024	6	3746
2026-01-01 05:11:19.88	344.75	50.53	-23.4	-23.6	17.8	1.20e-03	0	43	0	1043333120	7	3682
2026-01-01 05:11:22.87	343.45	51.31	-23.8	-24.3	17.4	1.42e-03	0	43	0	1064304640	7	3845
2026-01-01 05:11:25.87	342.08	52.08	-24.3	-25.0	16.9	1.47e-03	0	44	0	1086324736	8	3902
2026-01-01 05:11:28.87	340.63	52.84	-23.6	-24.1	17.6	1.23e-03	0	43	0	1107296256	7	3782
2026-01-01 05:11:31.86	339.11	53.59	-23.1	-23.5	18.2	9.51e-04	0	43	0	1129316352	6	3743
2026-01-01 05:11:34.85	337.50	54.34	-24.0	-24.2	17.2	0.00e+00	0	43	0	1150287872	8	3713
2026-01-01 05:11:37.85	335.81	55.07	-23.8	-24.4	17.4	0.00e+00	0	43	0	1172307968	7	3868
2026-01-01 05:11:40.84	334.03	55.78	-23.5	-23.8	17.7	0.00e+00	0	43	0	1194328064	7	3730
2026-01-01 05:11:43.83	332.17	56.48	-24.2	-24.7	17.0	8.52e-04	0	43	0	1215299584	8	3826
2026-01-01 05:11:46.80	330.21	57.15	-23.6	-23.4	17.7	9.21e-04	0	43	0	1237319680	8	3530
2026-01-01 05:11:49.79	328.15	57.79	-23.6	-23.9	17.6	0.00e+00	0	44	0	1258291200	7	3740
2026-01-01 05:11:52.79	325.99	58.41	-23.9	-24.0	17.4	0.00e+00	0	44	0	1280311296	8	3675
2026-01-01 05:11:55.77	323.73	58.99	-23.7	-23.6	17.6	0.00e+00	0	44	0	1302331392	8	3565
2026-01-01 05:11:58.77	321.36	59.53	-23.6	-24.0	17.7	0.00e+00	0	43	0	1323302912	7	3766
2026-01-01 05:12:01.75	318.92	60.03	-23.8	-23.8	17.5	0.00e+00	0	44	0	1345323008	8	3629
2026-01-01 05:12:04.75	316.36	60.49	-23.2	-23.1	18.1	0.00e+00	0	43	0	1366294528	7	3569
2026-01-01 05:12:07.74	313.72	60.90	-23.6	-24.1	17.6	0.00e+00	0	44	0	1388314624	7	3792
2026-01-01 05:12:10.72	311.00	61.25	-23.4	-23.6	17.8	0.00e+00	0	43	0	1410334720	7	3676
2026-01-01 05:12:13.72	308.20	61.55	-23.4	-23.6	17.8	0.00e+00	0	43	0	1431306240	7	3677
2026-01-01 05:12:16.74	305.32	61.79	-23.7	-24.1	17.6	0.00e+00	0	43	0	1453326336	7	3787
2026-01-01 05:12:19.75	302.39	61.97	-23.3	-23.3	18.0	0.00e+00	0	44	0	1475346432	7	3620
2026-01-01 05:12:22.76	299.43	62.08	-23.6	-24.1	17.7	0.00e+00	0	43	0	1496317952	7	3786
2026-01-01 05:12:25.76	296.46	62.12	-23.4	-23.6	17.8	0.00e+00	0	43	0	1518338048	7	3673
2026-01-01 05:12:28.76	293.49	62.10	-22.9	-23.1	18.4	0.00e+00	0	43	0	1540358144	6	3653
2026-01-01 05:12:31.78	290.51	62.02	-23.0	-23.2	18.3	0.00e+00	0	43	0	1562378240	6	3676
2026-01-01 05:12:34.78	287.58	61.86	-22.9	-23.0	18.4	0.00e+00	0	44	0	1583349760	6	3653
2026-01-01 05:12:37.80	284.68	61.65	-23.7	-24.1	17.6	0.00e+00	0	44	0	1605369856	7	3799
2026-01-01 05:12:40.81	281.84	61.37	-23.5	-23.8	17.7	0.00e+00	0	43	0	1626341376	7	3726
2026-01-01 05:12:43.82	279.07	61.03	-24.0	-24.8	17.2	0.00e+00	0	43	0	1648361472	7	3951
2026-01-01 05:12:46.82	276.38	60.64	-24.0	-24.3	17.2	0.00e+00	0	43	0	1670381568	8	3737
2026-01-01 05:12:49.83	273.78	60.20	-24.2	-24.8	17.0	0.00e+00	0	43	0	1692401664	8	3847
2026-01-01 05:12:52.84	271.27	59.71	-23.9	-24.7	17.3	0.00e+00	0	44	0	1713373184	7	3936
2026-01-01 05:12:55.85	268.86	59.18	-23.4	-23.6	17.8	0.00e+00	0	43	0	1735393280	7	3663
2026-01-01 05:12:58.86	266.54	58.60	-23.2	-23.6	18.0	0.00e+00	0	43	0	1757413376	6	3767
2026-01-01 05:13:01.87	264.33	57.99	-23.4	-24.0	17.9	0.00e+00	0	43	0	1778384896	6	3870
2026-01-01 05:13:04.88	262.22	57.35	-23.4	-23.6	17.8	0.00e+00	0	43	0	1800404992	7	3684
2026-01-01 05:13:07.89	260.21	56.68	-23.2	-23.7	14.5	0.00e+00	0	43	0	1822425088	7	3822
2026-01-01 05:13:10.88	258.30	55.99	-23.9	-24.6	17.3	0.00e+00	0	43	0	1844445184	7	3917
2026-01-01 05:13:13.89	256.48	55.28	-23.5	-23.7	17.7	0.00e+00	0	43	0	1865416704	7	3706
2026-01-01 05:13:16.89	254.76	54.55	-24.0	-24.8	17.1	0.00e+00	0	44	0	1887436800	7	3955
2026-01-01 05:13:19.90	253.12	53.80	-23.4	-24.2	17.6	1.59e-03	0	44	0	1909456896	6	3908
2026-01-01 05:13:22.91	251.56	53.04	-24.1	-24.6	17.0	1.33e-03	0	44	0	1930428416	8	3793
2026-01-01 05:13:25.93	250.08	52.27	-23.5	-23.9	17.6	0.00e+00	0	43	0	1952448512	7	3741
2026-01-01 05:13:28.93	248.68	51.50	-23.6	-24.0	17.5	0.00e+00	0	43	0	1974468608	7	3778
2026-01-01 05:13:31.94	247.35	50.72	-23.6	-24.1	17.5	1.66e-03	0	43	0	1996488704	7	3784
2026-01-01 05:13:34.95	246.08	49.94	-23.8	-24.3	17.3	2.11e-03	0	43	0	2017460224	7	3850
2026-01-01 05:13:37.96	244.88	49.16	-23.6	-24.0	17.5	1.83e-03	0	44	0	2039480320	7	3775
2026-01-01 05:13:40.98	243.74	48.37	-22.9	-23.0	18.2	9.49e-04	0	43	0	2061500416	6	3655
2026-01-01 05:13:43.98	242.66	47.60	-23.1	-23.5	18.0	0.00e+00	0	43	0	2083520512	6	3754
2026-01-01 05:13:46.99	241.63	46.82	-22.3	-22.3	18.8	0.00e+00	0	43	0	2104492032	5	3589
2026-01-01 05:13:49.99	240.65	46.05	-22.6	-23.0	18.5	6.75e-04	0	44	0	2126512128	5	3748
2026-01-01 05:13:53.01	239.71	45.28	-23.1	-23.9	18.0	1.29e-03	0	43	0	2148532224	5	3954
2026-01-01 05:13:56.01	238.83	44.53	-22.8	-23.4	18.2	0.00e+00	0	44	0	2169503744	5	3845
2026-01-01 05:13:59.02	237.98	43.78	-22.6	-22.9	18.4	0.00e+00	0	43	0	2191523840	5	3738
2026-01-01 05:14:02.04	237.17	43.03	-22.5	-22.8	18.5	0.00e+00	0	44	0	2213543936	5	3703
2026-01-01 05:14:05.04	236.40	42.29	-22.4	-22.4	18.7	0.00e+00	0	44	0	2234515456	5	3618
2026-01-01 05:14:08.05	235.66	41.57	-22.2	-22.7	18.8	0.00e+00	0	44	0	2256535552	4	3778
2026-01-01 05:14:11.07	234.95	40.85	-22.4	-22.9	18.7	0.00e+00	0	44	0	2278555648	4	3841
2026-01-01 05:14:14.07	234.28	40.14	-22.3	-22.8	18.7	0.00e+00	0	43	0	2299527168	4	3814
2026-01-01 05:14:17.06	233.64	39.44	-22.6	-23.0	18.0	0.00e+00	0	43	0	2321547264	5	3756
2026-01-01 05:14:20.08	233.02	38.75	-22.4	-22.5	18.6	0.00e+00	0	43	0	2343567360	5	3646
2026-01-01 05:14:23.09	232.43	38.07	-22.3	-22.2	18.7	0.00e+00	0	43	0	2365587456	5	3582
2026-01-01 05:14:26.09	231.86	37.41	-22.3	-22.4	18.7	0.00e+00	0	43	0	2386558976	5	3612
2026-01-01 05:14:29.09	231.32	36.75	-22.2	-22.1	18.8	0.00e+00	0	43	0	2408579072	5	3552
2026-01-01 05:14:32.09	230.79	36.10	-22.5	-23.2	18.4	0.00e+00	0	43	0	2430599168	4	3919
2026-01-01 05:14:35.10	230.29	35.46	-22.6	-23.0	18.3	0.00e+00	0	44	0	2451570688	5	3765
2026-01-01 05:14:38.11	229.81	34.83	-22.3	-22.2	18.7	0.00e+00	0	43	0	2473590784	5	3585
2026-01-01 05:14:41.13	229.34	34.21	-22.2	-22.0	18.8	0.00e+00	0	43	0	2495610880	5	3537
2026-01-01 05:14:44.14	228.89	33.60	-22.1	-22.5	18.8	0.00e+00	0	44	0	2517630976	4	3745
2026-01-01 05:14:47.15	228.46	33.00	-22.0	-22.1	18.9	0.00e+00	0	43	0	2538602496	4	3666
2026-01-01 05:14:50.16	228.05	32.42	-22.1	-22.4	18.8	0.00e+00	0	43	0	2560622592	4	3731
2026-01-01 05:14:53.16	227.65	31.84	-22.3	-22.8	18.6	0.00e+00	0	43	0	2582642688	4	3815
2026-01-01 05:14:56.17	227.26	31.27	-22.4	-23.1	18.5	0.00e+00	0	44	0	2603614208	4	3874
2026-01-01 05:14:59.18	226.89	30.71	-22.3	-22.9	18.3	0.00e+00	0	43	0	2625634304	4	3839
2026-01-01 05:15:02.20	226.53	30.16	-22.5	-23.2	18.3	0.00e+00	0	43	0	2647654400	4	3914
2026-01-01 05:15:05.21	226.18	29.61	-22.6	-23.3	18.3	0.00e+00	0	44	0	2669674496	4	3939
2026-01-01 05:15:08.23	225.84	29.08	-22.9	-23.6	17.9	0.00e+00	0	44	0	2691694592	5	3890
2026-01-01 05:15:11.23	225.52	28.56	-22.7	-23.2	18.1	0.00e+00	0	43	0	2712666112	5	3812
2026-01-01 05:15:14.24	225.21	28.04	-22.9	-23.5	18.0	0.00e+00	0	43	0	2734686208	5	3878
2026-01-01 05:15:17.25	224.90	27.53	-22.6	-23.0	18.2	7.78e-05	0	43	0	2756706304	5	3756
2026-01-01 05:15:20.26	224.61	27.04	-22.5	-22.7	18.4	2.48e-04	0	44	0	2777677824	5	3690
2026-01-01 05:15:23.27	224.32	26.54	-22.7	-23.2	18.1	3.44e-04	0	43	0	2799697920	5	3799
2026-01-01 05:15:26.28	224.05	26.06	-22.7	-23.2	18.1	5.86e-04	0	43	0	2821718016	5	3813
2026-01-01 05:15:29.29	223.78	25.59	-22.8	-23.4	18.0	0.00e+00	0	43	0	2842689536	5	3844
2026-01-01 05:15:32.29	223.52	25.12	-22.8	-23.3	18.0	0.00e+00	0	44	0	2864709632	5	3830
2026-01-01 05:15:35.30	223.27	24.66	-22.7	-23.1	18.1	0.00e+00	0	44	0	2886729728	5	3789
2026-01-01 05:15:38.30	223.02	24.21	-22.7	-23.1	18.1	0.00e+00	0	43	0	2907701248	5	3771
2026-01-01 05:15:41.31	222.79	23.77	-22.8	-23.3	18.0	0.00e+00	0	43	0	2929721344	5	3820
2026-01-01 05:15:44.31	222.56	23.33	-22.5	-22.8	18.2	0.00e+00	0	44	0	2951741440	5	3719
2026-01-01 05:15:47.32	222.33	22.90	-22.5	-22.8	18.2	0.00e+00	0	44	0	2973761536	5	3708
2026-01-01 05:15:50.33	222.11	22.47	-22.6	-23.0	18.0	0.00e+00	0	44	0	2994733056	5	3753
2026-01-01 05:15:53.34	221.90	22.06	-22.5	-23.3	18.2	4.50e-06	0	43	0	3016753152	4	3926
2026-01-01 05:15:56.35	221.70	21.64	-22.6	-23.0	18.1	3.40e-06	0	44	0	3038773248	5	3756
2026-01-01 05:15:59.35	221.50	21.24	-22.7	-23.1	18.0	1.10e-06	0	43	0	3059744768	5	3783
2026-01-01 05:16:02.37	221.30	20.84	-22.9	-23.6	17.7	4.50e-06	0	44	0	3081764864	5	3895
2026-01-01 05:16:05.37	221.11	20.45	-23.1	-23.9	17.6	1.10e-06	0	44	0	3103784960	5	3981
2026-01-01 05:16:08.38	220.93	20.06	-23.2	-23.8	17.4	0.00e+00	0	43	0	3125805056	6	3832
2026-01-01 05:16:11.40	220.75	19.67	-23.3	-23.8	17.4	1.10e-06	0	43	0	3146776576	6	3842
2026-01-01 05:16:14.41	220.57	19.30	-23.3	-23.9	17.3	2.20e-06	0	44	0	3168796672	6	3868
2026-01-01 05:16:17.41	220.40	18.93	-23.3	-24.0	17.3	0.00e+00	0	43	0	3190816768	6	3885
2026-01-01 05:16:20.42	220.23	18.56	-23.5	-24.3	17.1	0.00e+00	0	44	0	3211788288	6	3963
2026-01-01 05:16:23.44	220.07	18.20	-23.6	-24.1	16.9	0.00e+00	0	43	0	3233808384	7	3817
2026-01-01 05:16:26.45	219.91	17.84	-23.7	-24.4	16.8	0.00e+00	0	44	0	3255828480	7	3875
2026-01-01 05:16:29.46	219.76	17.49	-23.8	-24.4	16.7	0.00e+00	0	44	0	3277848576	7	3888
2026-01-01 05:16:32.47	219.60	17.14	-23.8	-24.5	16.7	0.00e+00	0	44	0	3298820096	7	3904
2026-01-01 05:16:35.48	219.46	16.80	-24.1	-25.1	16.3	0.00e+00	0	43	0	3320840192	7	4056
2026-01-01 05:16:38.49	219.31	16.46	-24.2	-24.8	16.2	0.00e+00	0	44	0	3342860288	8	3855
2026-01-01 05:16:41.50	219.17	16.13	-24.2	-24.9	16.2	0.00e+00	0	43	0	3363831808	8	3895
2026-01-01 05:16:44.50	219.04	15.80	-24.4	-25.3	15.9	0.00e+00	0	43	0	3385851904	8	3979
2026-01-01 05:16:47.51	218.90	15.48	-24.1	-24.7	15.5	0.00e+00	0	43	0	3407872000	8	3849
2026-01-01 05:16:50.53	218.77	15.16	-24.3	-25.1	16.0	3.50e-04	0	44	0	3429892096	8	3939
2026-01-01 05:16:53.53	218.64	14.84	-24.3	-25.0	16.1	3.43e-04	0	43	0	3450863616	8	3929
2026-01-01 05:16:56.53	218.52	14.53	-24.4	-25.3	15.9	0.00e+00	0	43	0	3472883712	8	3983
2026-01-01 05:16:59.54	218.39	14.22	-24.6	-25.1	15.7	0.00e+00	0	43	0	3494903808	9	3848
2026-01-01 05:17:02.54	218.27	13.92	-24.6	-25.1	15.7	0.00e+00	0	43	0	3515875328	9	3850
2026-01-01 05:17:05.56	218.16	13.61	-24.6	-25.2	15.6	4.00e-04	0	44	0	3537895424	9	3866
2026-01-01 05:17:08.57	218.04	13.32	-24.7	-25.5	15.5	7.01e-04	0	44	0	3559915520	9	3933
2026-01-01 05:17:11.57	217.93	13.02	-24.8	-25.7	15.3	5.81e-04	0	43	0	3581935616	9	3996
2026-01-01 05:17:14.59	217.82	12.73	-24.9	-25.8	15.3	0.00e+00	0	43	0	3602907136	9	4014
2026-01-01 05:17:17.60	217.71	12.44	-25.0	-26.1	15.2	0.00e+00	0	43	0	3624927232	9	4085
2026-01-01 05:17:20.61	217.61	12.16	-25.4	-26.5	14.6	1.16e-03	0	43	0	3646947328	10	4087
2026-01-01 05:17:23.62	217.50	11.88	-25.1	-25.8	15.0	1.06e-03	0	43	0	3667918848	10	3916
2026-01-01 05:17:26.62	217.40	11.60	-25.1	-25.9	14.9	1.06e-03	0	44	0	3689938944	10	3930
2026-01-01 05:17:29.62	217.30	11.33	-25.1	-25.9	14.9	0.00e+00	0	43	0	3711959040	10	3945
2026-01-01 05:17:32.64	217.20	11.05	-25.2	-26.1	14.8	0.00e+00	0	44	0	3733979136	10	3974
2026-01-01 05:17:35.65	217.11	10.79	-25.2	-26.0	14.8	0.00e+00	0	44	0	3754950656	10	3968
2026-01-01 05:17:38.67	217.02	10.52	-25.3	-26.3	14.6	0.00e+00	0	43	0	3776970752	10	4038
2026-01-01 05:17:41.68	216.92	10.26	-25.3	-26.3	14.6	0.00e+00	0	44	0	3798990848	10	4032
2026-01-01 05:17:44.69	216.83	9.99	-25.3	-26.2	14.7	0.00e+00	0	44	0	3821010944	10	4003
2026-01-01 05:17:47.69	216.75	9.74	-25.4	-26.5	14.5	0.00e+00	0	43	0	3841982464	10	4087
2026-01-01 05:17:50.71	216.66	9.48	-25.4	-26.5	14.5	0.00e+00	0	43	0	3864002560	10	4082
2026-01-01 05:17:53.72	216.57	9.23	-25.4	-26.6	14.4	0.00e+00	0	43	0	3886022656	10	4118
2026-01-01 05:17:56.73	216.49	8.98	-25.4	-26.5	14.4	0.00e+00	0	43	0	3908042752	10	4095
2026-01-01 05:17:59.73	216.41	8.73	-25.6	-26.4	14.1	1.10e-06	0	44	0	3929014272	11	3959
2026-01-01 05:18:02.74	216.33	8.48	-25.7	-26.7	14.0	5.70e-06	0	44	0	3951034368	11	4045
2026-01-01 05:18:05.75	216.25	8.24	-25.9	-27.2	13.7	3.40e-06	0	44	0	3972005888	11	4163
2026-01-01 05:18:08.76	216.17	8.00	-26.0	-27.4	13.5	4.50e-06	0	44	0	3994025984	11	4220
2026-01-01 05:18:11.77	216.10	7.76	-25.9	-27.2	13.6	5.70e-06	0	44	0	4016046080	11	4171
2026-01-01 05:18:14.78	216.02	7.52	-25.9	-27.1	13.7	3.40e-06	0	44	0	4038066176	11	4147
2026-01-01 05:18:17.79	215.95	7.29	-26.0	-26.9	13.4	1.48e-05	0	43	0	4059037696	12	4001
2026-01-01 05:18:20.78	215.88	7.06	-32.1	-41.0	3.8	7.18e-01	0	44	104	4078960640	24	9999

#Closed at: 2026-01-01 05:18:22
#Recorded file [4078 MB]: D:/data/31010_260101_080847.dat