passes_logs/2026/01/01/R2M6_AANII_01/R2M6_AANII_01__20260101_014808_NOAA_21_JPSS-2_rec.log

#Pass ID: 20260101_014808_NOAA 21 (JPSS-2)
#Satellite: NOAA 21 (JPSS-2)
#Configuration: NOAA 21
#almurnet v.1.7.20240730
#Start time: 2026-01-01 01:50:34

#Version: 2.2.20231116
#Station: R2M6_AANII_01
#Location: 30.233357 lon 59.946436 lat
#TLE: 1 54234U 22150A   25365.42224288  .00000199  00000+0  11529-3 0  9990
#TLE: 2 54234  98.7483 301.4995 0001320 356.2106   3.9060 14.19530300162743

#Time	Az	El	Level	Level2	SNR	BER	BlckErr	Temp	State	Recorded	gain1	gain2
2026-01-01 01:50:34.25	356.23	18.79	-32.5	-43.5	3.8	8.45e-01	0	43	0	0	25	12833
2026-01-01 01:50:36.25	355.91	18.98	-33.5	-45.8	3.8	1.49e+00	0	43	104	0	26	14898
2026-01-01 01:50:38.25	355.58	19.16	-33.5	-45.4	3.8	1.49e+00	0	43	104	0	27	14133
2026-01-01 01:50:40.25	355.25	19.35	-33.6	-45.5	3.8	1.49e+00	0	43	104	0	27	14217
2026-01-01 01:50:42.26	354.92	19.53	-33.6	-45.5	3.8	1.49e+00	0	43	104	0	27	14190
2026-01-01 01:50:44.26	354.58	19.72	-33.6	-45.5	3.8	1.49e+00	0	43	104	0	27	14208
2026-01-01 01:50:46.27	354.24	19.91	-33.6	-45.5	3.8	1.49e+00	0	43	104	0	27	14213
2026-01-01 01:50:48.28	353.89	20.09	-33.6	-45.5	3.8	1.49e+00	0	43	104	0	27	14171
2026-01-01 01:50:50.28	353.54	20.28	-33.6	-45.4	3.8	1.49e+00	0	43	104	0	27	14125
2026-01-01 01:50:52.28	353.18	20.47	-33.5	-45.4	3.8	1.49e+00	0	43	104	0	27	14160
2026-01-01 01:50:54.28	352.82	20.66	-33.5	-45.4	3.8	1.49e+00	0	43	104	0	27	14140
2026-01-01 01:50:56.29	352.45	20.85	-33.5	-45.4	3.8	1.49e+00	0	43	104	0	27	14152
2026-01-01 01:50:58.30	352.08	21.03	-33.5	-45.3	3.8	1.49e+00	0	43	104	0	27	14070
2026-01-01 01:51:00.31	351.71	21.22	-33.4	-45.7	3.8	1.49e+00	0	43	104	0	26	14784
2026-01-01 01:51:02.31	351.33	21.41	-33.4	-45.5	3.8	1.49e+00	0	43	104	0	26	14647
2026-01-01 01:51:04.32	350.95	21.60	-33.2	-45.3	3.8	1.49e+00	0	43	104	0	26	14450
2026-01-01 01:51:06.32	350.56	21.79	-33.1	-44.6	3.8	1.49e+00	0	43	104	0	26	13607
2026-01-01 01:51:08.32	350.16	21.98	-33.0	-44.6	3.8	1.49e+00	0	43	104	0	25	13780
2026-01-01 01:51:10.33	349.77	22.17	-33.0	-44.8	3.8	1.49e+00	0	43	104	0	25	14017
2026-01-01 01:51:12.33	349.36	22.35	-33.0	-44.7	3.8	1.49e+00	0	43	104	0	26	13764
2026-01-01 01:51:14.33	348.96	22.54	-33.1	-44.9	3.8	1.49e+00	0	43	104	0	26	14076
2026-01-01 01:51:16.34	348.54	22.73	-33.0	-44.8	3.8	1.49e+00	0	43	104	0	26	13954
2026-01-01 01:51:18.35	348.12	22.92	-33.0	-44.1	3.8	1.49e+00	0	43	104	0	26	12952
2026-01-01 01:51:20.36	347.70	23.11	-32.9	-43.9	3.8	1.49e+00	0	43	104	0	25	12796
2026-01-01 01:51:22.37	347.27	23.29	-33.0	-45.0	3.8	1.49e+00	0	43	104	0	26	14190
2026-01-01 01:51:24.38	346.83	23.48	-31.9	-37.6	4.6	1.45e+00	0	43	104	0	25	6927
2026-01-01 01:51:26.38	346.39	23.67	-30.0	-32.7	10.4	7.58e-03	0	43	0	3145728	21	4908
2026-01-01 01:51:28.39	345.95	23.85	-29.6	-32.5	11.4	1.12e-03	0	43	0	9437184	19	5015
2026-01-01 01:51:30.40	345.50	24.04	-29.6	-32.4	11.3	1.07e-03	0	43	0	15728640	19	5001
2026-01-01 01:51:32.41	345.04	24.22	-29.5	-32.2	11.5	8.12e-04	0	43	0	22020096	19	4938
2026-01-01 01:51:34.42	344.58	24.41	-29.2	-31.4	12.1	4.56e-04	0	43	0	28311552	19	4637
2026-01-01 01:51:36.42	344.11	24.59	-28.0	-29.5	13.8	8.30e-06	0	43	0	34603008	17	4267
2026-01-01 01:51:38.42	343.64	24.77	-26.9	-27.9	15.2	0.00e+00	0	43	0	40894464	15	4037
2026-01-01 01:51:40.43	343.16	24.96	-25.4	-27.1	15.0	0.00e+00	0	43	0	47185920	12	4382
2026-01-01 01:51:42.44	342.68	25.14	-26.3	-28.2	13.3	3.88e-03	0	43	0	53477376	12	4452
2026-01-01 01:51:44.45	342.19	25.32	-26.4	-28.4	15.7	7.00e-07	0	43	0	59768832	12	4501
2026-01-01 01:51:46.45	341.70	25.49	-26.7	-28.5	15.4	0.00e+00	0	43	0	66060288	13	4417
2026-01-01 01:51:48.46	341.19	25.67	-26.9	-28.9	15.1	4.54e-03	0	43	0	72351744	13	4556
2026-01-01 01:51:50.47	340.69	25.85	-27.0	-29.2	15.0	0.00e+00	0	43	0	78643200	13	4622
2026-01-01 01:51:52.47	340.18	26.02	-26.9	-29.0	15.1	4.28e-03	0	43	0	84934656	13	4586
2026-01-01 01:51:54.48	339.66	26.20	-27.3	-29.3	14.7	7.00e-07	0	43	0	91226112	14	4542
2026-01-01 01:51:56.48	339.14	26.37	-26.5	-28.1	15.6	0.00e+00	0	43	0	97517568	13	4320
2026-01-01 01:51:58.48	338.61	26.54	-26.3	-28.1	15.9	3.64e-03	0	43	0	103809024	12	4440
2026-01-01 01:52:00.49	338.08	26.70	-26.4	-28.4	15.8	0.00e+00	0	43	0	110100480	12	4508
2026-01-01 01:52:02.49	337.54	26.87	-26.6	-28.2	15.6	1.92e-04	0	43	0	116391936	13	4330
2026-01-01 01:52:04.50	336.99	27.04	-26.5	-28.1	15.7	3.72e-03	0	43	0	121634816	13	4301
2026-01-01 01:52:06.51	336.44	27.20	-26.5	-28.0	15.7	3.38e-03	0	43	0	128974848	13	4277
2026-01-01 01:52:08.52	335.88	27.36	-26.9	-28.8	15.2	4.16e-04	0	43	0	135266304	13	4523
2026-01-01 01:52:10.52	335.32	27.52	-26.9	-28.9	15.2	2.63e-03	0	43	0	141557760	13	4554
2026-01-01 01:52:12.52	334.75	27.67	-26.6	-28.3	15.6	3.30e-03	0	43	0	146800640	13	4363
2026-01-01 01:52:14.53	334.17	27.83	-26.4	-28.3	15.8	6.56e-04	0	43	0	153092096	12	4485
2026-01-01 01:52:16.53	333.60	27.98	-26.5	-28.0	15.7	0.00e+00	0	43	0	159383552	13	4280
2026-01-01 01:52:18.54	333.01	28.13	-26.6	-28.3	15.5	6.47e-04	0	43	0	165675008	13	4376
2026-01-01 01:52:20.55	332.42	28.28	-26.6	-28.2	15.6	1.87e-03	0	43	0	171966464	13	4348
2026-01-01 01:52:22.55	331.82	28.42	-26.7	-28.5	15.5	0.00e+00	0	43	0	178257920	13	4424
2026-01-01 01:52:24.55	331.22	28.56	-26.8	-28.7	15.4	3.23e-03	0	43	0	184549376	13	4471
2026-01-01 01:52:26.56	330.62	28.70	-26.7	-28.4	15.5	0.00e+00	0	43	0	190840832	13	4386
2026-01-01 01:52:28.55	330.01	28.84	-26.4	-28.2	15.9	0.00e+00	0	43	0	197132288	12	4457
2026-01-01 01:52:30.56	329.39	28.97	-26.4	-28.3	15.7	3.03e-03	0	43	0	203423744	12	4471
2026-01-01 01:52:32.57	328.77	29.10	-26.5	-28.4	15.8	0.00e+00	0	43	0	209715200	12	4516
2026-01-01 01:52:34.57	328.14	29.22	-26.8	-28.7	15.4	3.48e-03	0	43	0	216006656	13	4470
2026-01-01 01:52:36.58	327.51	29.35	-26.7	-28.4	15.6	0.00e+00	0	43	0	222298112	13	4375
2026-01-01 01:52:38.59	326.87	29.47	-27.0	-29.1	15.1	2.11e-03	0	43	0	228589568	13	4597
2026-01-01 01:52:40.60	326.22	29.58	-27.1	-28.8	15.0	0.00e+00	0	43	0	234881024	14	4404
2026-01-01 01:52:42.61	325.58	29.70	-26.8	-28.6	15.4	0.00e+00	0	43	0	241172480	13	4448
2026-01-01 01:52:44.61	324.93	29.80	-26.8	-28.7	15.4	1.12e-04	0	43	0	247463936	13	4463
2026-01-01 01:52:46.61	324.27	29.91	-26.8	-28.8	15.3	0.00e+00	0	43	0	253755392	13	4499
2026-01-01 01:52:48.62	323.61	30.01	-26.7	-28.4	15.5	5.84e-04	0	43	0	260046848	13	4392
2026-01-01 01:52:50.63	322.95	30.11	-26.8	-28.8	15.3	6.16e-04	0	43	0	266338304	13	4494
2026-01-01 01:52:52.63	322.28	30.20	-26.9	-28.9	15.3	0.00e+00	0	43	0	272629760	13	4536
2026-01-01 01:52:54.64	321.61	30.29	-26.9	-28.8	15.3	8.89e-04	0	43	0	278921216	13	4505
2026-01-01 01:52:56.64	320.93	30.37	-26.9	-28.9	15.3	1.09e-03	0	43	0	285212672	13	4522
2026-01-01 01:52:58.64	320.26	30.45	-26.9	-28.8	15.3	0.00e+00	0	43	0	291504128	13	4510
2026-01-01 01:53:00.65	319.57	30.53	-27.1	-28.8	15.1	6.17e-04	0	43	0	297795584	14	4399
2026-01-01 01:53:02.66	318.89	30.60	-27.3	-29.2	14.9	0.00e+00	0	43	0	304087040	14	4510
2026-01-01 01:53:04.66	318.20	30.67	-27.4	-29.5	14.7	1.50e-06	0	43	0	310378496	14	4593
2026-01-01 01:53:06.67	317.51	30.73	-27.2	-29.1	14.9	3.94e-04	0	43	0	316669952	14	4481
2026-01-01 01:53:08.68	316.81	30.79	-27.2	-29.0	15.0	0.00e+00	0	43	0	322961408	14	4455
2026-01-01 01:53:10.69	316.11	30.84	-27.2	-29.0	14.9	0.00e+00	0	43	0	329252864	14	4454
2026-01-01 01:53:12.70	315.41	30.89	-26.8	-28.7	15.4	0.00e+00	0	43	0	335544320	13	4470
2026-01-01 01:53:14.70	314.71	30.94	-26.6	-28.3	15.6	3.71e-04	0	43	0	341835776	13	4352
2026-01-01 01:53:16.70	314.01	30.98	-26.7	-28.4	15.6	0.00e+00	0	43	0	348127232	13	4390
2026-01-01 01:53:18.72	313.30	31.01	-26.7	-28.4	15.6	0.00e+00	0	43	0	354418688	13	4376
2026-01-01 01:53:20.72	312.60	31.04	-26.8	-28.6	15.4	0.00e+00	0	43	0	360710144	13	4451
2026-01-01 01:53:22.73	311.89	31.06	-26.9	-29.0	15.3	0.00e+00	0	43	0	367001600	13	4549
2026-01-01 01:53:24.73	311.19	31.08	-27.1	-28.7	15.1	0.00e+00	0	43	0	373293056	14	4375
2026-01-01 01:53:26.73	310.48	31.10	-27.2	-29.0	15.0	0.00e+00	0	43	0	379584512	14	4467
2026-01-01 01:53:28.75	309.77	31.11	-27.4	-29.0	14.7	7.00e-07	0	43	0	385875968	15	4345
2026-01-01 01:53:30.75	309.06	31.11	-27.5	-29.3	14.5	0.00e+00	0	43	0	392167424	15	4422
2026-01-01 01:53:32.76	308.35	31.11	-27.5	-29.3	14.5	7.00e-07	0	43	0	398458880	15	4427
2026-01-01 01:53:34.77	307.64	31.11	-27.1	-28.9	15.1	0.00e+00	0	43	0	404750336	14	4417
2026-01-01 01:53:36.77	306.93	31.10	-26.6	-28.3	14.0	0.00e+00	0	43	0	411041792	13	4367
2026-01-01 01:53:38.77	306.22	31.08	-26.9	-28.9	14.4	0.00e+00	0	43	0	417333248	13	4535
2026-01-01 01:53:40.77	305.52	31.06	-27.0	-28.6	15.2	7.00e-07	0	43	0	422576128	14	4349
2026-01-01 01:53:42.78	304.81	31.04	-27.2	-29.1	14.9	4.30e-03	0	43	0	428867584	14	4476
2026-01-01 01:53:44.79	304.10	31.01	-27.2	-29.0	15.0	7.00e-07	0	43	0	435159040	14	4451
2026-01-01 01:53:46.79	303.40	30.98	-26.7	-28.5	15.5	0.00e+00	0	43	0	441450496	13	4419
2026-01-01 01:53:48.80	302.69	30.94	-26.8	-28.6	15.5	3.91e-03	0	43	0	447741952	13	4431
2026-01-01 01:53:50.80	301.99	30.89	-26.5	-28.4	15.8	0.00e+00	0	43	0	454033408	12	4504
2026-01-01 01:53:52.81	301.29	30.84	-26.9	-28.8	15.3	3.59e-04	0	43	0	460324864	13	4514
2026-01-01 01:53:54.83	300.59	30.79	-27.0	-29.1	15.2	3.50e-03	0	43	0	466616320	13	4589
2026-01-01 01:53:56.84	299.90	30.73	-27.0	-29.1	15.2	0.00e+00	0	43	0	472907776	13	4578
2026-01-01 01:53:58.84	299.21	30.67	-26.8	-28.7	15.4	6.03e-04	0	43	0	479199232	13	4468
2026-01-01 01:54:00.83	298.52	30.60	-27.2	-29.0	15.0	0.00e+00	0	43	0	485490688	14	4460
2026-01-01 01:54:02.85	297.83	30.53	-27.0	-28.7	15.1	3.88e-03	0	43	0	491782144	14	4362
2026-01-01 01:54:04.86	297.15	30.45	-26.6	-28.2	15.7	6.66e-04	0	43	0	498073600	13	4330
2026-01-01 01:54:06.87	296.46	30.37	-26.7	-28.5	15.4	2.21e-03	0	43	0	504365056	13	4434
2026-01-01 01:54:08.87	295.79	30.29	-26.5	-28.0	15.7	4.43e-03	0	43	0	510656512	13	4276
2026-01-01 01:54:10.88	295.12	30.20	-26.6	-28.3	15.6	8.59e-04	0	43	0	516947968	13	4357
2026-01-01 01:54:12.89	294.45	30.11	-27.1	-28.8	15.0	3.51e-03	0	43	0	523239424	14	4401
2026-01-01 01:54:14.89	293.78	30.01	-27.5	-29.7	14.5	3.88e-03	0	43	0	529530880	14	4656
2026-01-01 01:54:16.90	293.12	29.91	-27.0	-28.5	15.2	0.00e+00	0	43	0	535822336	14	4305
2026-01-01 01:54:18.91	292.46	29.80	-27.1	-28.8	15.0	0.00e+00	0	43	0	542113792	14	4397
2026-01-01 01:54:20.93	291.80	29.69	-27.3	-29.4	14.7	4.28e-03	0	43	0	548405248	14	4582
2026-01-01 01:54:22.93	291.16	29.58	-27.0	-28.7	15.1	0.00e+00	0	43	0	554696704	14	4375
2026-01-01 01:54:24.93	290.52	29.46	-26.6	-28.2	15.6	4.78e-03	0	43	0	560988160	13	4340
2026-01-01 01:54:26.94	289.88	29.34	-26.8	-28.7	15.4	0.00e+00	0	43	0	567279616	13	4487
2026-01-01 01:54:28.95	289.24	29.22	-27.0	-28.7	15.1	2.77e-04	0	43	0	573571072	14	4379
2026-01-01 01:54:30.96	288.61	29.09	-26.9	-28.8	15.3	3.72e-03	0	43	0	579862528	13	4519
2026-01-01 01:54:32.96	287.99	28.96	-26.5	-28.1	15.7	1.62e-04	0	43	0	586153984	13	4295
2026-01-01 01:54:34.97	287.37	28.83	-26.3	-28.0	16.0	9.90e-06	0	43	0	592445440	12	4379
2026-01-01 01:54:36.98	286.75	28.70	-26.4	-28.3	15.8	0.00e+00	0	43	0	598736896	12	4470
2026-01-01 01:54:38.99	286.14	28.56	-26.6	-28.3	15.6	1.08e-04	0	43	0	605028352	13	4360
2026-01-01 01:54:41.00	285.54	28.41	-26.5	-28.0	15.7	3.38e-04	0	43	0	611319808	13	4291
2026-01-01 01:54:43.00	284.94	28.27	-26.3	-28.0	16.0	0.00e+00	0	43	0	617611264	12	4382
2026-01-01 01:54:45.00	284.35	28.12	-26.3	-28.1	15.9	6.38e-04	0	43	0	623902720	12	4425
2026-01-01 01:54:47.01	283.77	27.97	-26.6	-28.3	15.5	1.65e-04	0	43	0	630194176	13	4371
2026-01-01 01:54:49.00	283.19	27.82	-27.0	-29.1	15.1	0.00e+00	0	43	0	636485632	13	4593
2026-01-01 01:54:51.01	282.61	27.67	-27.3	-29.3	14.6	1.96e-04	0	43	0	642777088	14	4550
2026-01-01 01:54:53.01	282.04	27.51	-26.5	-27.4	15.7	0.00e+00	0	43	0	649068544	14	4029
2026-01-01 01:54:55.02	281.48	27.35	-26.4	-27.3	15.8	0.00e+00	0	43	0	655360000	14	3999
2026-01-01 01:54:57.03	280.92	27.19	-26.5	-28.0	15.7	0.00e+00	0	43	0	661651456	13	4283
2026-01-01 01:54:59.03	280.37	27.03	-26.3	-27.5	15.9	0.00e+00	0	43	0	667942912	13	4157
2026-01-01 01:55:01.03	279.82	26.86	-25.8	-27.1	16.4	0.00e+00	0	43	0	674234368	12	4145
2026-01-01 01:55:03.04	279.28	26.69	-25.5	-26.8	16.9	3.80e-06	0	43	0	680525824	11	4169
2026-01-01 01:55:05.04	278.74	26.52	-25.9	-27.7	16.4	0.00e+00	0	43	0	686817280	11	4425
2026-01-01 01:55:07.05	278.21	26.35	-26.4	-28.3	15.7	0.00e+00	0	43	0	693108736	12	4476
2026-01-01 01:55:09.06	277.69	26.18	-26.5	-28.1	15.6	7.00e-07	0	43	0	699400192	13	4318
2026-01-01 01:55:11.06	277.17	26.01	-26.2	-27.8	16.0	0.00e+00	0	43	0	705691648	12	4350
2026-01-01 01:55:13.07	276.65	25.83	-25.6	-26.9	16.8	0.00e+00	0	43	0	711983104	11	4207
2026-01-01 01:55:15.07	276.15	25.66	-25.7	-27.3	16.6	4.50e-06	0	43	0	718274560	11	4314
2026-01-01 01:55:17.06	275.65	25.48	-26.1	-27.7	16.0	0.00e+00	0	43	0	723517440	12	4322
2026-01-01 01:55:19.07	275.15	25.30	-27.0	-28.6	15.6	0.00e+00	0	43	0	729808896	13	4340
2026-01-01 01:55:21.07	274.66	25.12	-26.4	-28.3	15.7	0.00e+00	0	43	0	736100352	12	4484
2026-01-01 01:55:23.08	274.18	24.94	-26.1	-27.6	16.1	0.00e+00	0	43	0	742391808	12	4297
2026-01-01 01:55:25.08	273.70	24.76	-26.2	-27.9	15.9	0.00e+00	0	43	0	748683264	12	4373
2026-01-01 01:55:27.08	273.23	24.58	-26.5	-28.5	15.5	7.60e-06	0	43	0	754974720	12	4554
2026-01-01 01:55:29.09	272.76	24.39	-26.5	-28.1	15.4	0.00e+00	0	43	0	761266176	13	4331
2026-01-01 01:55:31.09	272.30	24.21	-26.4	-27.8	15.7	0.00e+00	0	43	0	767557632	13	4234
2026-01-01 01:55:33.10	271.84	24.02	-25.7	-27.7	15.7	0.00e+00	0	43	0	773849088	12	4516
2026-01-01 01:55:35.11	271.38	23.84	-26.3	-28.0	13.6	0.00e+00	0	43	0	780140544	12	4406
2026-01-01 01:55:37.12	270.94	23.65	-26.6	-28.3	15.4	0.00e+00	0	43	0	786432000	13	4366
2026-01-01 01:55:39.13	270.49	23.46	-26.8	-28.7	15.1	0.00e+00	0	43	0	792723456	13	4489
2026-01-01 01:55:41.13	270.06	23.27	-26.8	-28.7	15.1	0.00e+00	0	43	0	799014912	13	4502
2026-01-01 01:55:43.12	269.63	23.09	-26.2	-27.5	15.8	0.00e+00	0	43	0	805306368	13	4148
2026-01-01 01:55:45.14	269.20	22.90	-25.9	-27.2	16.2	0.00e+00	0	43	0	811597824	12	4188
2026-01-01 01:55:47.15	268.78	22.71	-25.9	-27.7	16.3	0.00e+00	0	43	0	817889280	11	4422
2026-01-01 01:55:49.16	268.37	22.52	-25.8	-27.1	16.3	3.80e-06	0	43	0	824180736	12	4148
2026-01-01 01:55:51.16	267.96	22.33	-26.0	-27.4	16.1	0.00e+00	0	43	0	830472192	12	4248
2026-01-01 01:55:53.16	267.55	22.14	-26.2	-27.9	15.8	4.54e-03	0	43	0	836763648	12	4385
2026-01-01 01:55:55.16	267.15	21.95	-26.3	-28.2	15.7	9.79e-04	0	43	0	843055104	12	4469
2026-01-01 01:55:57.18	266.76	21.76	-26.5	-28.1	15.4	0.00e+00	0	43	0	849346560	13	4316
2026-01-01 01:55:59.19	266.36	21.57	-26.4	-28.4	15.5	4.92e-03	0	43	0	855638016	12	4531
2026-01-01 01:56:01.19	265.98	21.38	-26.1	-27.7	15.9	5.61e-04	0	43	0	861929472	12	4332
2026-01-01 01:56:03.20	265.60	21.19	-26.4	-28.3	15.5	5.17e-03	0	43	0	868220928	12	4491
2026-01-01 01:56:05.20	265.22	21.01	-26.2	-27.8	15.8	5.22e-03	0	43	0	874512384	12	4358
2026-01-01 01:56:07.20	264.85	20.82	-26.3	-28.1	15.7	4.04e-03	0	43	0	880803840	12	4426
2026-01-01 01:56:09.21	264.48	20.63	-26.3	-28.1	15.6	4.22e-03	0	43	0	887095296	12	4444
2026-01-01 01:56:11.22	264.12	20.44	-26.7	-28.5	15.1	2.53e-03	0	43	0	893386752	13	4438
2026-01-01 01:56:13.24	263.76	20.25	-26.5	-28.2	15.2	2.12e-03	0	43	0	899678208	13	4357
2026-01-01 01:56:15.23	263.41	20.06	-26.1	-27.7	15.8	3.67e-03	0	43	0	905969664	12	4339
2026-01-01 01:56:17.25	263.06	19.87	-26.2	-27.9	15.7	4.11e-03	0	43	0	912261120	12	4374
2026-01-01 01:56:19.25	262.71	19.68	-26.0	-27.5	15.9	1.27e-04	0	43	0	918552576	12	4260
2026-01-01 01:56:21.25	262.37	19.50	-26.1	-27.7	15.8	3.94e-03	0	43	0	924844032	12	4345
2026-01-01 01:56:23.26	262.04	19.31	-26.2	-27.9	15.7	6.71e-04	0	43	0	931135488	12	4395
2026-01-01 01:56:25.25	261.71	19.12	-25.9	-27.2	16.1	5.51e-04	0	43	0	937426944	12	4193
2026-01-01 01:56:27.25	261.38	18.94	-25.8	-27.4	16.3	0.00e+00	0	43	0	943718400	11	4348
2026-01-01 01:56:29.26	261.05	18.75	-25.8	-27.4	16.3	1.87e-04	0	43	0	950009856	11	4349
2026-01-01 01:56:31.26	260.73	18.57	-26.2	-28.0	15.6	7.00e-07	0	43	0	956301312	12	4405
2026-01-01 01:56:33.26	260.42	18.38	-26.7	-28.6	15.0	0.00e+00	0	43	0	962592768	13	4495
2026-01-01 01:56:35.27	260.10	18.20	-26.9	-29.1	14.7	9.10e-06	0	43	0	968884224	13	4626
2026-01-01 01:56:37.27	259.80	18.01	-26.9	-29.1	14.7	2.90e-04	0	43	0	974127104	13	4614
2026-01-01 01:56:39.28	259.49	17.83	-26.5	-28.2	15.2	0.00e+00	0	43	0	980418560	13	4352
2026-01-01 01:56:41.28	259.19	17.65	-26.3	-28.1	15.5	0.00e+00	0	43	0	986710016	12	4441
2026-01-01 01:56:43.29	258.89	17.47	-26.5	-28.6	15.2	0.00e+00	0	43	0	993001472	12	4584
2026-01-01 01:56:45.30	258.60	17.28	-26.7	-28.5	15.0	0.00e+00	0	43	0	999292928	13	4454
2026-01-01 01:56:47.30	258.31	17.10	-26.9	-29.1	14.6	0.00e+00	0	43	0	1005584384	13	4629
2026-01-01 01:56:49.31	258.02	16.92	-27.1	-29.0	14.4	7.00e-07	0	43	0	1011875840	14	4484
2026-01-01 01:56:51.32	257.74	16.74	-26.8	-28.8	14.8	0.00e+00	0	43	0	1018167296	13	4548
2026-01-01 01:56:53.32	257.46	16.56	-26.6	-28.4	15.0	0.00e+00	0	43	0	1024458752	13	4414
2026-01-01 01:56:55.32	257.18	16.38	-26.1	-27.7	15.7	0.00e+00	0	43	0	1030750208	12	4334
2026-01-01 01:56:57.34	256.91	16.20	-26.1	-27.7	15.7	0.00e+00	0	43	0	1037041664	12	4340
2026-01-01 01:56:59.35	256.63	16.03	-26.5	-28.1	15.2	0.00e+00	0	43	0	1043333120	13	4335
2026-01-01 01:57:01.35	256.37	15.85	-26.7	-28.6	14.9	7.00e-07	0	43	0	1049624576	13	4479
2026-01-01 01:57:03.35	256.11	15.67	-26.8	-28.9	14.7	7.00e-07	0	43	0	1055916032	13	4554
2026-01-01 01:57:05.37	255.84	15.50	-26.8	-28.9	14.7	1.50e-06	0	43	0	1062207488	13	4580
2026-01-01 01:57:07.37	255.59	15.32	-26.8	-28.9	14.7	0.00e+00	0	43	0	1068498944	13	4564
2026-01-01 01:57:09.39	255.33	15.15	-26.6	-28.3	15.0	0.00e+00	0	43	0	1074790400	13	4387
2026-01-01 01:57:11.40	255.08	14.97	-26.5	-28.1	15.1	0.00e+00	0	43	0	1081081856	13	4323
2026-01-01 01:57:13.40	254.83	14.80	-26.5	-28.6	15.1	0.00e+00	0	43	0	1087373312	12	4591
2026-01-01 01:57:15.40	254.59	14.63	-26.4	-28.0	15.1	0.00e+00	0	43	0	1093664768	13	4319
2026-01-01 01:57:17.40	254.34	14.46	-26.8	-28.8	14.7	0.00e+00	0	43	0	1099956224	13	4544
2026-01-01 01:57:19.41	254.10	14.28	-26.9	-29.0	14.5	7.00e-07	0	43	0	1106247680	13	4614
2026-01-01 01:57:21.42	253.87	14.11	-26.9	-29.1	14.4	7.00e-07	0	43	0	1112539136	13	4633
2026-01-01 01:57:23.43	253.63	13.94	-27.0	-29.0	14.2	7.00e-07	0	43	0	1118830592	14	4487
2026-01-01 01:57:25.43	253.40	13.78	-27.1	-29.0	14.2	3.00e-06	0	43	0	1125122048	14	4510
2026-01-01 01:57:27.44	253.17	13.61	-26.9	-29.1	14.4	7.00e-07	0	43	0	1131413504	13	4629
2026-01-01 01:57:29.44	252.95	13.44	-26.9	-29.2	14.4	0.00e+00	0	43	0	1137704960	13	4662
2026-01-01 01:57:31.45	252.72	13.27	-25.9	-27.7	14.8	0.00e+00	0	43	0	1143996416	13	4449
2026-01-01 01:57:33.45	252.50	13.11	-26.2	-28.0	13.6	0.00e+00	0	43	0	1150287872	12	4433
2026-01-01 01:57:35.45	252.28	12.94	-26.3	-28.2	14.7	0.00e+00	0	43	0	1156579328	12	4480
2026-01-01 01:57:37.46	252.07	12.78	-26.5	-28.6	14.9	1.14e-05	0	43	0	1162870784	12	4604
2026-01-01 01:57:39.47	251.85	12.61	-26.7	-28.8	14.5	3.17e-03	0	43	0	1169162240	13	4543
2026-01-01 01:57:41.47	251.64	12.45	-27.1	-29.1	14.1	1.50e-06	0	43	0	1175453696	14	4542
2026-01-01 01:57:43.46	251.43	12.29	-27.4	-29.7	13.7	8.92e-05	0	43	0	1181745152	14	4727
2026-01-01 01:57:45.47	251.23	12.13	-27.6	-29.8	13.3	1.37e-05	0	43	0	1188036608	15	4636
2026-01-01 01:57:47.47	251.02	11.97	-27.5	-30.1	13.5	1.83e-05	0	43	0	1194328064	14	4848
2026-01-01 01:57:49.48	250.82	11.81	-27.4	-29.9	12.4	5.22e-03	0	43	0	1200619520	14	4797
2026-01-01 01:57:51.48	250.62	11.65	-27.2	-29.2	13.9	6.10e-06	0	43	0	1206910976	14	4579
2026-01-01 01:57:53.48	250.42	11.49	-27.3	-29.5	13.8	4.84e-03	0	43	0	1213202432	14	4664
2026-01-01 01:57:55.48	250.23	11.33	-27.3	-29.6	13.7	5.94e-03	0	43	0	1219493888	14	4685
2026-01-01 01:57:57.49	250.04	11.17	-27.3	-29.6	13.6	6.10e-06	0	43	0	1224736768	14	4701
2026-01-01 01:57:59.50	249.84	11.01	-27.3	-29.5	13.7	4.47e-03	0	43	0	1232076800	14	4660
2026-01-01 01:58:01.50	249.66	10.86	-27.4	-29.9	13.5	5.86e-03	0	43	0	1238368256	14	4793
2026-01-01 01:58:03.51	249.47	10.70	-27.4	-29.8	13.5	2.33e-04	0	43	0	1244659712	14	4760
2026-01-01 01:58:05.52	249.28	10.55	-27.7	-30.1	13.0	5.32e-03	0	43	0	1249902592	15	4742
2026-01-01 01:58:07.53	249.10	10.39	-27.8	-30.5	12.8	2.16e-03	0	43	0	1256194048	15	4879
2026-01-01 01:58:09.53	248.92	10.24	-27.9	-30.7	12.6	3.37e-03	0	43	0	1262485504	15	4954
2026-01-01 01:58:11.54	248.74	10.09	-28.2	-30.7	12.5	5.84e-03	0	43	0	1268776960	16	4830
2026-01-01 01:58:13.54	248.56	9.93	-28.1	-30.6	12.5	5.42e-03	0	43	0	1275068416	16	4785
2026-01-01 01:58:15.55	248.39	9.78	-28.2	-30.9	12.4	3.43e-03	0	43	0	1281359872	16	4878
2026-01-01 01:58:17.56	248.21	9.63	-27.8	-30.3	12.8	5.26e-05	0	43	0	1287651328	15	4814
2026-01-01 01:58:19.56	248.04	9.48	-27.7	-30.2	12.9	5.34e-05	0	43	0	1293942784	15	4787
2026-01-01 01:58:21.57	247.87	9.33	-27.7	-30.0	13.0	2.92e-03	0	43	0	1300234240	15	4735
2026-01-01 01:58:23.58	247.70	9.18	-27.8	-30.3	12.8	4.42e-05	0	43	0	1306525696	15	4814
2026-01-01 01:58:25.58	247.54	9.03	-28.1	-30.7	12.4	6.67e-03	0	43	0	1312817152	16	4815
2026-01-01 01:58:27.60	247.37	8.89	-27.7	-30.1	12.9	1.32e-03	0	43	0	1319108608	15	4754
2026-01-01 01:58:29.61	247.21	8.74	-27.7	-30.2	12.8	7.62e-05	0	43	0	1325400064	15	4802
2026-01-01 01:58:31.62	247.05	8.59	-27.9	-30.7	12.5	9.06e-04	0	43	0	1331691520	15	4943
2026-01-01 01:58:33.63	246.89	8.45	-27.9	-30.6	12.5	1.14e-04	0	43	0	1337982976	15	4945
2026-01-01 01:58:35.63	246.73	8.30	-28.1	-30.7	12.3	1.53e-04	0	43	0	1344274432	16	4852
2026-01-01 01:58:37.63	246.57	8.16	-28.4	-31.3	11.9	4.90e-04	0	43	0	1350565888	16	5054
2026-01-01 01:58:39.64	246.42	8.01	-28.5	-31.3	11.6	7.97e-04	0	43	0	1356857344	17	4938
2026-01-01 01:58:41.64	246.27	7.87	-28.6	-31.5	11.4	7.93e-04	0	43	0	1363148800	17	5026
2026-01-01 01:58:43.65	246.11	7.73	-28.5	-31.2	11.6	7.57e-04	0	43	0	1369440256	17	4928
2026-01-01 01:58:45.66	245.96	7.58	-28.4	-31.5	11.7	5.91e-04	0	43	0	1375731712	16	5124
2026-01-01 01:58:47.66	245.82	7.44	-28.4	-31.5	11.7	5.00e-04	0	43	0	1382023168	16	5123
2026-01-01 01:58:49.67	245.67	7.30	-28.4	-31.4	11.8	6.35e-04	0	43	0	1388314624	16	5080
2026-01-01 01:58:51.67	245.52	7.16	-28.3	-31.2	11.9	4.61e-04	0	43	0	1394606080	16	5025
2026-01-01 01:58:53.67	245.38	7.02	-32.1	-43.7	3.8	1.10e+00	0	43	104	1399848960	24	13711
2026-01-01 01:58:55.67	245.24	6.88	-32.7	-44.7	3.8	1.49e+00	0	43	104	1399848960	25	14426

#Closed at: 2026-01-01 01:58:56
#Recorded file [1399 MB]: D:/data/31010_260101_045125.dat