passes_logs/2026/01/01/R2M6_AANII_01/R2M6_AANII_01__20260101_100025_NOAA_21_JPSS-2_rec.log

#Pass ID: 20260101_100025_NOAA 21 (JPSS-2)
#Satellite: NOAA 21 (JPSS-2)
#Configuration: NOAA 21
#almurnet v.1.7.20240730
#Start time: 2026-01-01 10:02:49

#Version: 2.2.20231116
#Station: R2M6_AANII_01
#Location: 30.233357 lon 59.946436 lat
#TLE: 1 54234U 22150A   25365.42224288  .00000199  00000+0  11529-3 0  9990
#TLE: 2 54234  98.7483 301.4995 0001320 356.2106   3.9060 14.19530300162743

#Time	Az	El	Level	Level2	SNR	BER	BlckErr	Temp	State	Recorded	gain1	gain2
2026-01-01 10:02:49.77	147.38	21.80	-33.1	-44.3	3.8	8.46e-01	0	43	0	0	26	13006
2026-01-01 10:02:52.74	147.26	22.22	-33.8	-45.5	3.8	1.49e+00	0	43	104	0	28	13802
2026-01-01 10:02:55.73	147.15	22.64	-33.9	-45.6	3.8	1.49e+00	0	43	104	0	28	13846
2026-01-01 10:02:58.72	147.02	23.08	-33.8	-45.5	3.8	1.49e+00	0	43	104	0	28	13857
2026-01-01 10:03:01.71	146.90	23.52	-33.8	-45.5	3.8	1.49e+00	0	43	104	0	28	13851
2026-01-01 10:03:04.68	146.77	23.97	-33.8	-45.5	3.8	1.49e+00	0	43	104	0	28	13856
2026-01-01 10:03:07.67	146.63	24.43	-33.8	-45.6	3.8	1.49e+00	0	43	104	0	28	13908
2026-01-01 10:03:10.66	146.50	24.89	-33.8	-45.5	3.8	1.49e+00	0	43	104	0	28	13864
2026-01-01 10:03:13.67	146.35	25.37	-33.9	-45.7	3.8	1.49e+00	0	43	104	0	28	13965
2026-01-01 10:03:16.65	146.20	25.85	-33.9	-45.7	3.8	1.49e+00	0	43	104	0	28	13981
2026-01-01 10:03:19.65	146.05	26.34	-33.8	-45.5	3.8	1.49e+00	0	43	104	0	28	13873
2026-01-01 10:03:22.64	145.89	26.84	-33.7	-45.2	3.8	1.49e+00	0	43	104	0	28	13581
2026-01-01 10:03:25.63	145.73	27.35	-33.5	-44.5	3.8	1.49e+00	0	43	104	0	28	12771
2026-01-01 10:03:28.63	145.56	27.87	-33.5	-44.8	3.8	1.49e+00	0	43	104	0	28	13282
2026-01-01 10:03:31.61	145.39	28.40	-33.4	-43.9	3.8	1.49e+00	0	43	104	0	28	12051
2026-01-01 10:03:34.60	145.21	28.94	-33.1	-41.8	3.9	1.48e+00	0	43	104	0	27	9769
2026-01-01 10:03:37.60	145.02	29.49	-32.1	-37.1	6.7	2.55e-01	0	43	0	1048576	25	6364
2026-01-01 10:03:40.58	144.83	30.04	-29.2	-31.1	12.9	1.75e-04	0	43	0	9437184	19	4502
2026-01-01 10:03:43.57	144.63	30.61	-28.1	-29.5	14.5	1.50e-06	0	43	0	18874368	17	4231
2026-01-01 10:03:46.56	144.42	31.19	-27.8	-29.3	14.8	0.00e+00	0	43	0	28311552	16	4279
2026-01-01 10:03:49.55	144.20	31.78	-27.4	-28.5	15.3	0.00e+00	0	43	0	37748736	16	4057
2026-01-01 10:03:52.54	143.98	32.38	-27.7	-29.2	15.0	0.00e+00	0	43	0	47185920	16	4245
2026-01-01 10:03:55.53	143.74	33.00	-27.5	-28.6	15.2	0.00e+00	0	43	0	56623104	16	4097
2026-01-01 10:03:58.52	143.50	33.63	-27.4	-28.3	15.4	0.00e+00	0	43	0	66060288	16	4007
2026-01-01 10:04:01.52	143.25	34.27	-27.4	-28.5	15.4	0.00e+00	0	43	0	75497472	16	4052
2026-01-01 10:04:04.52	142.98	34.92	-27.8	-29.2	15.0	0.00e+00	0	43	0	84934656	16	4263
2026-01-01 10:04:07.51	142.71	35.59	-28.3	-30.3	14.3	0.00e+00	0	43	0	94371840	16	4584
2026-01-01 10:04:10.49	142.42	36.26	-28.5	-30.5	14.0	3.00e-06	0	43	0	103809024	17	4511
2026-01-01 10:04:13.49	142.12	36.96	-28.7	-30.8	13.8	6.80e-06	0	43	0	113246208	17	4602
2026-01-01 10:04:16.48	141.81	37.66	-28.7	-30.8	13.8	6.80e-06	0	43	0	121634816	17	4615
2026-01-01 10:04:19.49	141.48	38.39	-28.9	-31.4	13.5	1.06e-05	0	43	0	131072000	17	4802
2026-01-01 10:04:22.49	141.13	39.12	-29.3	-31.8	12.9	5.95e-05	0	43	0	140509184	18	4838
2026-01-01 10:04:25.48	140.77	39.87	-28.9	-30.9	13.5	1.29e-05	0	43	0	149946368	18	4522
2026-01-01 10:04:28.48	140.40	40.64	-29.0	-31.1	13.4	1.37e-05	0	43	0	159383552	18	4589
2026-01-01 10:04:31.46	140.00	41.41	-28.8	-30.6	13.7	7.60e-06	0	43	0	168820736	18	4421
2026-01-01 10:04:34.46	139.58	42.21	-29.1	-31.4	13.2	2.28e-05	0	43	0	178257920	18	4695
2026-01-01 10:04:37.45	139.15	43.02	-29.2	-31.7	13.0	4.42e-05	0	43	0	187695104	18	4776
2026-01-01 10:04:40.45	138.68	43.85	-29.2	-31.6	13.1	3.05e-05	0	43	0	197132288	18	4728
2026-01-01 10:04:43.43	138.20	44.69	-29.4	-32.0	12.9	5.03e-05	0	43	0	206569472	18	4861
2026-01-01 10:04:46.42	137.69	45.54	-29.6	-32.0	12.6	1.61e-04	0	43	0	216006656	19	4763
2026-01-01 10:04:49.41	137.14	46.41	-29.1	-30.8	13.3	1.06e-05	0	43	0	225443840	19	4381
2026-01-01 10:04:52.39	136.57	47.30	-29.0	-30.4	13.6	1.52e-05	0	43	0	233832448	19	4277
2026-01-01 10:04:55.37	135.96	48.20	-28.8	-30.2	13.8	7.60e-06	0	43	0	243269632	19	4211
2026-01-01 10:04:58.37	135.32	49.12	-28.6	-30.1	14.1	5.30e-06	0	43	0	252706816	18	4287
2026-01-01 10:05:01.35	134.63	50.05	-28.7	-30.5	13.8	3.80e-06	0	43	0	262144000	18	4392
2026-01-01 10:05:04.34	133.90	51.00	-28.4	-29.7	14.3	4.50e-06	0	43	0	271581184	18	4184
2026-01-01 10:05:07.34	133.12	51.97	-28.9	-30.8	13.7	3.80e-06	0	43	0	281018368	18	4493
2026-01-01 10:05:10.34	132.28	52.95	-28.4	-29.6	14.4	7.00e-07	0	43	0	290455552	18	4151
2026-01-01 10:05:13.33	131.39	53.93	-28.1	-29.4	14.8	1.50e-06	0	43	0	299892736	17	4198
2026-01-01 10:05:16.32	130.44	54.93	-27.7	-28.9	15.3	1.50e-06	0	43	0	309329920	16	4166
2026-01-01 10:05:19.30	129.41	55.94	-27.3	-28.2	15.8	0.00e+00	0	43	0	318767104	16	3962
2026-01-01 10:05:22.29	128.31	56.96	-27.1	-28.7	15.8	3.80e-06	0	43	0	328204288	14	4343
2026-01-01 10:05:25.28	127.12	57.99	-27.3	-29.1	15.6	0.00e+00	0	43	0	337641472	14	4441
2026-01-01 10:05:28.27	125.84	59.02	-26.7	-27.8	16.3	0.00e+00	0	43	0	346030080	14	4086
2026-01-01 10:05:31.26	124.44	60.06	-27.0	-28.4	16.0	0.00e+00	0	43	0	355467264	14	4245
2026-01-01 10:05:34.26	122.93	61.09	-26.9	-28.2	16.1	0.00e+00	0	43	0	364904448	14	4192
2026-01-01 10:05:37.26	121.28	62.13	-26.1	-27.0	17.0	0.00e+00	0	43	0	374341632	13	3986
2026-01-01 10:05:40.25	119.50	63.16	-25.9	-26.5	17.3	0.00e+00	0	43	0	383778816	13	3872
2026-01-01 10:05:43.24	117.55	64.17	-25.9	-26.5	17.4	0.00e+00	0	43	0	393216000	13	3862
2026-01-01 10:05:46.23	115.43	65.17	-26.0	-27.3	17.1	0.00e+00	0	43	0	402653184	12	4183
2026-01-01 10:05:49.22	113.10	66.15	-25.8	-26.8	17.4	0.00e+00	0	43	0	412090368	12	4049
2026-01-01 10:05:52.19	110.58	67.10	-26.2	-27.8	16.9	0.00e+00	0	43	0	421527552	12	4296
2026-01-01 10:05:55.18	107.81	68.01	-26.1	-27.5	17.1	0.00e+00	0	43	0	430964736	12	4218
2026-01-01 10:05:58.19	104.75	68.89	-25.7	-26.5	17.6	0.00e+00	0	43	0	440401920	12	3977
2026-01-01 10:06:01.19	101.43	69.71	-26.0	-27.3	17.1	0.00e+00	0	43	0	449839104	12	4184
2026-01-01 10:06:04.18	97.83	70.47	-26.4	-27.6	16.8	0.00e+00	0	43	0	458227712	13	4137
2026-01-01 10:06:07.18	93.92	71.16	-26.3	-27.5	16.9	0.00e+00	0	43	0	467664896	13	4122
2026-01-01 10:06:10.18	89.72	71.76	-26.1	-27.4	17.1	0.00e+00	0	43	0	477102080	12	4204
2026-01-01 10:06:13.18	85.24	72.26	-26.2	-27.1	17.0	0.00e+00	0	43	0	486539264	13	4013
2026-01-01 10:06:16.19	80.50	72.66	-26.0	-26.8	17.2	0.00e+00	0	43	0	495976448	13	3939
2026-01-01 10:06:19.20	75.56	72.94	-25.3	-25.7	18.0	0.00e+00	0	43	0	505413632	12	3778
2026-01-01 10:06:22.17	70.55	73.10	-26.3	-27.8	16.8	0.00e+00	0	43	0	514850816	12	4309
2026-01-01 10:06:25.16	65.44	73.13	-26.5	-27.9	16.6	0.00e+00	0	43	0	524288000	13	4217
2026-01-01 10:06:28.16	60.35	73.03	-25.8	-26.8	17.4	0.00e+00	0	43	0	533725184	12	4049
2026-01-01 10:06:31.15	55.37	72.80	-26.0	-27.2	17.3	0.00e+00	0	43	0	543162368	12	4140
2026-01-01 10:06:34.14	50.56	72.46	-26.0	-27.2	17.2	0.00e+00	0	43	0	552599552	12	4148
2026-01-01 10:06:37.13	45.98	72.01	-25.9	-27.0	17.4	0.00e+00	0	43	0	562036736	12	4085
2026-01-01 10:06:40.12	41.66	71.45	-26.6	-28.0	16.5	0.00e+00	0	43	0	570425344	13	4251
2026-01-01 10:06:43.11	37.63	70.81	-25.9	-26.5	17.3	0.00e+00	0	43	0	579862528	13	3871
2026-01-01 10:06:46.09	33.91	70.09	-25.9	-26.5	17.3	0.00e+00	0	43	0	589299712	13	3859
2026-01-01 10:06:49.09	30.46	69.30	-25.0	-25.5	18.4	0.00e+00	0	43	0	598736896	11	3821
2026-01-01 10:06:52.08	27.29	68.45	-26.2	-27.7	17.0	0.00e+00	0	43	0	608174080	12	4275
2026-01-01 10:06:55.06	24.41	67.56	-25.9	-27.1	17.3	0.00e+00	0	43	0	617611264	12	4105
2026-01-01 10:06:58.05	21.76	66.62	-26.5	-28.3	16.6	0.00e+00	0	43	0	627048448	12	4448
2026-01-01 10:07:01.05	19.33	65.66	-26.2	-27.1	17.0	0.00e+00	0	43	0	636485632	13	4000
2026-01-01 10:07:04.07	17.10	64.66	-27.4	-29.3	15.6	0.00e+00	0	43	0	645922816	14	4495
2026-01-01 10:07:07.07	15.06	63.65	-27.0	-28.5	16.0	0.00e+00	0	43	0	655360000	14	4270
2026-01-01 10:07:10.09	13.19	62.62	-27.8	-29.8	15.0	0.00e+00	0	43	0	664797184	15	4529
2026-01-01 10:07:13.10	11.48	61.58	-28.2	-29.6	14.6	7.00e-07	0	43	0	674234368	17	4256
2026-01-01 10:07:16.11	9.90	60.55	-27.6	-28.8	15.4	0.00e+00	0	43	0	683671552	16	4141
2026-01-01 10:07:19.12	8.45	59.51	-29.4	-32.0	13.0	3.28e-05	0	43	0	693108736	18	4865
2026-01-01 10:07:22.14	7.11	58.47	-26.7	-27.9	16.2	0.00e+00	0	43	0	702545920	14	4106
2026-01-01 10:07:25.16	5.87	57.43	-26.8	-28.6	16.2	0.00e+00	0	43	0	711983104	13	4402
2026-01-01 10:07:28.16	4.73	56.41	-27.7	-29.6	15.0	0.00e+00	0	43	0	721420288	15	4461
2026-01-01 10:07:31.17	3.67	55.39	-26.7	-27.7	16.2	0.00e+00	0	43	0	730857472	14	4067
2026-01-01 10:07:34.18	2.68	54.38	-27.6	-29.3	15.1	0.00e+00	0	43	0	740294656	15	4377
2026-01-01 10:07:37.21	1.75	53.38	-28.7	-30.8	14.0	2.20e-06	0	43	0	749731840	17	4594
2026-01-01 10:07:40.22	0.89	52.39	-28.3	-29.9	14.4	7.00e-07	0	43	0	759169024	17	4344
2026-01-01 10:07:43.23	0.09	51.42	-27.8	-29.3	15.1	0.00e+00	0	43	0	768606208	16	4271
2026-01-01 10:07:46.25	359.33	50.46	-29.9	-32.8	12.1	1.04e-04	0	43	0	778043392	19	5026
2026-01-01 10:07:49.25	358.63	49.52	-30.0	-32.1	11.7	1.05e-03	0	43	0	787480576	21	4614
2026-01-01 10:07:52.27	357.96	48.59	-29.0	-30.5	13.4	1.22e-05	0	43	0	795869184	19	4307
2026-01-01 10:07:55.28	357.34	47.68	-28.6	-30.1	14.0	3.80e-06	0	43	0	806354944	18	4289
2026-01-01 10:07:58.28	356.75	46.79	-28.5	-30.3	14.1	4.50e-06	0	43	0	814743552	17	4456
2026-01-01 10:08:01.29	356.20	45.91	-29.6	-32.2	12.4	1.18e-04	0	43	0	824180736	19	4849
2026-01-01 10:08:04.30	355.67	45.05	-29.0	-30.7	13.2	2.51e-05	0	43	0	833617920	19	4341
2026-01-01 10:08:07.30	355.18	44.20	-29.0	-30.5	13.4	6.80e-06	0	43	0	843055104	19	4300
2026-01-01 10:08:10.31	354.71	43.37	-29.6	-32.2	12.4	1.62e-04	0	43	0	852492288	19	4828
2026-01-01 10:08:13.31	354.26	42.55	-29.3	-31.4	12.9	6.63e-05	0	43	0	861929472	19	4562
2026-01-01 10:08:16.31	353.84	41.75	-29.4	-31.7	12.7	6.56e-05	0	43	0	871366656	19	4661
2026-01-01 10:08:19.33	353.43	40.97	-29.6	-32.3	12.3	2.40e-04	0	43	0	880803840	19	4871
2026-01-01 10:08:22.33	353.05	40.20	-28.7	-30.5	13.6	1.06e-05	0	43	0	890241024	18	4411
2026-01-01 10:08:25.34	352.69	39.44	-28.6	-30.1	13.8	3.80e-06	0	43	0	899678208	18	4302
2026-01-01 10:08:28.35	352.34	38.70	-29.0	-31.0	13.2	1.60e-05	0	43	0	909115392	18	4580
2026-01-01 10:08:31.36	352.00	37.98	-29.0	-31.2	13.2	2.28e-05	0	43	0	918552576	18	4641
2026-01-01 10:08:34.37	351.69	37.26	-29.1	-31.5	13.0	4.27e-05	0	43	0	927989760	18	4737
2026-01-01 10:08:37.38	351.38	36.57	-28.5	-30.0	13.9	3.00e-06	0	43	0	937426944	18	4281
2026-01-01 10:08:40.40	351.09	35.88	-28.1	-29.4	14.5	0.00e+00	0	43	0	946864128	17	4199
2026-01-01 10:08:43.41	350.81	35.21	-28.3	-30.1	14.1	2.20e-06	0	43	0	956301312	17	4401
2026-01-01 10:08:46.41	350.54	34.55	-28.2	-29.7	14.3	2.20e-06	0	43	0	965738496	17	4299
2026-01-01 10:08:49.42	350.29	33.91	-28.1	-29.5	14.4	7.00e-07	0	43	0	975175680	17	4239
2026-01-01 10:08:52.41	350.04	33.28	-28.2	-29.7	14.3	0.00e+00	0	43	0	984612864	17	4302
2026-01-01 10:08:55.41	349.81	32.67	-28.4	-30.2	14.0	7.00e-07	0	43	0	994050048	17	4441
2026-01-01 10:08:58.42	349.58	32.06	-28.0	-29.2	14.6	0.00e+00	0	43	0	1003487232	17	4165
2026-01-01 10:09:01.43	349.36	31.46	-27.7	-29.1	14.9	7.00e-07	0	43	0	1012924416	16	4238
2026-01-01 10:09:04.44	349.15	30.88	-27.4	-28.4	15.4	0.00e+00	0	43	0	1022361600	16	4025
2026-01-01 10:09:07.45	348.95	30.30	-26.7	-27.8	16.1	0.00e+00	0	43	0	1031798784	14	4089
2026-01-01 10:09:10.46	348.75	29.74	-26.5	-27.3	16.3	0.00e+00	0	43	0	1041235968	14	3970
2026-01-01 10:09:13.45	348.57	29.19	-26.3	-27.0	16.4	0.00e+00	0	43	0	1049624576	14	3886
2026-01-01 10:09:16.46	348.39	28.65	-26.4	-27.8	16.3	0.00e+00	0	43	0	1059061760	13	4203
2026-01-01 10:09:19.49	348.21	28.12	-26.8	-28.5	15.9	0.00e+00	0	43	0	1068498944	13	4406
2026-01-01 10:09:22.48	348.04	27.60	-26.8	-28.7	15.8	0.00e+00	0	43	0	1077936128	13	4457
2026-01-01 10:09:25.48	347.88	27.09	-27.0	-28.6	15.5	0.00e+00	0	43	0	1087373312	14	4329
2026-01-01 10:09:28.49	347.72	26.58	-27.0	-28.5	15.6	0.00e+00	0	43	0	1096810496	14	4303
2026-01-01 10:09:31.50	347.57	26.09	-26.9	-28.3	15.7	0.00e+00	0	43	0	1106247680	14	4238
2026-01-01 10:09:34.50	347.42	25.61	-26.7	-28.0	15.9	1.50e-06	0	43	0	1115684864	14	4147
2026-01-01 10:09:37.50	347.28	25.13	-26.7	-27.9	15.9	0.00e+00	0	43	0	1125122048	14	4136
2026-01-01 10:09:40.52	347.14	24.66	-26.7	-28.0	15.8	0.00e+00	0	43	0	1134559232	14	4151
2026-01-01 10:09:43.53	347.00	24.20	-26.8	-28.1	15.7	0.00e+00	0	43	0	1143996416	14	4189
2026-01-01 10:09:46.54	346.87	23.75	-26.8	-28.1	15.8	0.00e+00	0	43	0	1153433600	14	4176
2026-01-01 10:09:49.54	346.75	23.30	-26.9	-28.3	15.6	0.00e+00	0	43	0	1162870784	14	4232
2026-01-01 10:09:52.55	346.63	22.86	-26.8	-28.1	15.7	0.00e+00	0	43	0	1172307968	14	4193
2026-01-01 10:09:55.56	346.51	22.43	-26.8	-28.2	15.7	0.00e+00	0	43	0	1181745152	14	4208
2026-01-01 10:09:58.58	346.39	22.01	-26.9	-28.3	15.6	0.00e+00	0	43	0	1191182336	14	4241
2026-01-01 10:10:01.59	346.28	21.59	-26.8	-28.1	15.7	0.00e+00	0	43	0	1200619520	14	4184
2026-01-01 10:10:04.62	346.17	21.18	-26.6	-27.8	15.9	0.00e+00	0	43	0	1210056704	14	4104
2026-01-01 10:10:07.63	346.07	20.78	-26.6	-27.8	15.8	0.00e+00	0	43	0	1219493888	14	4104
2026-01-01 10:10:10.65	345.97	20.38	-26.4	-27.3	16.1	0.00e+00	0	43	0	1228931072	14	3982
2026-01-01 10:10:13.66	345.87	19.99	-26.5	-27.5	16.0	0.00e+00	0	43	0	1238368256	14	4038
2026-01-01 10:10:16.67	345.77	19.60	-26.6	-27.7	15.9	0.00e+00	0	43	0	1247805440	14	4070
2026-01-01 10:10:19.67	345.68	19.22	-26.8	-28.0	15.6	0.00e+00	0	43	0	1257242624	14	4170
2026-01-01 10:10:22.67	345.59	18.85	-26.9	-28.3	15.5	0.00e+00	0	43	0	1266679808	14	4243
2026-01-01 10:10:25.69	345.50	18.48	-26.9	-28.3	15.5	0.00e+00	0	43	0	1276116992	14	4235
2026-01-01 10:10:28.70	345.41	18.12	-26.9	-28.3	15.5	0.00e+00	0	43	0	1285554176	14	4240
2026-01-01 10:10:31.71	345.33	17.76	-27.0	-28.7	15.2	7.00e-07	0	43	0	1294991360	14	4361
2026-01-01 10:10:34.72	345.24	17.41	-27.2	-29.1	15.0	1.50e-06	0	43	0	1304428544	14	4472
2026-01-01 10:10:37.72	345.16	17.06	-27.3	-29.3	14.8	0.00e+00	0	43	0	1313865728	14	4541
2026-01-01 10:10:40.73	345.09	16.72	-27.3	-29.2	14.9	0.00e+00	0	43	0	1323302912	14	4514
2026-01-01 10:10:43.74	345.01	16.38	-27.4	-29.5	14.7	0.00e+00	0	43	0	1332740096	14	4592
2026-01-01 10:10:46.75	344.94	16.04	-27.5	-29.7	14.6	0.00e+00	0	43	0	1342177280	14	4675
2026-01-01 10:10:49.75	344.87	15.72	-27.8	-30.0	14.1	2.20e-06	0	43	0	1350565888	15	4639
2026-01-01 10:10:52.76	344.80	15.39	-27.6	-29.4	14.4	0.00e+00	0	43	0	1360003072	15	4468
2026-01-01 10:10:55.77	344.73	15.07	-27.6	-29.6	14.3	1.50e-06	0	43	0	1369440256	15	4510
2026-01-01 10:10:58.77	344.66	14.75	-27.4	-29.2	14.5	7.00e-07	0	43	0	1378877440	15	4397
2026-01-01 10:11:01.79	344.60	14.44	-27.4	-29.2	14.5	1.50e-06	0	43	0	1388314624	15	4397
2026-01-01 10:11:04.79	344.53	14.13	-27.6	-29.6	14.3	1.50e-06	0	43	0	1397751808	15	4513
2026-01-01 10:11:07.80	344.47	13.83	-27.5	-29.3	14.4	7.00e-07	0	43	0	1407188992	15	4432
2026-01-01 10:11:10.81	344.41	13.53	-27.5	-29.4	14.3	0.00e+00	0	43	0	1416626176	15	4468
2026-01-01 10:11:13.82	344.35	13.23	-27.6	-29.7	14.2	7.00e-07	0	43	0	1426063360	15	4545
2026-01-01 10:11:16.82	344.30	12.94	-27.7	-29.9	14.0	3.80e-06	0	43	0	1435500544	15	4617
2026-01-01 10:11:19.83	344.24	12.65	-27.7	-29.7	14.1	1.50e-06	0	43	0	1444937728	15	4559
2026-01-01 10:11:22.83	344.19	12.36	-27.7	-29.7	14.1	6.10e-06	0	43	0	1454374912	15	4558
2026-01-01 10:11:25.84	344.13	12.08	-27.6	-29.6	14.1	1.50e-06	0	43	0	1463812096	15	4535
2026-01-01 10:11:28.84	344.08	11.80	-27.6	-29.6	14.1	0.00e+00	0	43	0	1473249280	15	4540
2026-01-01 10:11:31.86	344.03	11.52	-27.7	-29.7	14.0	2.20e-06	0	43	0	1482686464	15	4570
2026-01-01 10:11:34.87	343.98	11.25	-27.7	-29.9	13.9	3.00e-06	0	43	0	1492123648	15	4622
2026-01-01 10:11:37.87	343.93	10.98	-27.7	-29.9	13.8	3.00e-06	0	43	0	1501560832	15	4627
2026-01-01 10:11:40.88	343.88	10.71	-27.8	-30.2	13.7	7.60e-06	0	43	0	1510998016	15	4715
2026-01-01 10:11:43.89	343.84	10.44	-27.8	-30.1	13.7	5.30e-06	0	43	0	1520435200	15	4687
2026-01-01 10:11:46.89	343.79	10.18	-27.9	-30.2	13.6	9.90e-06	0	43	0	1529872384	15	4739
2026-01-01 10:11:49.90	343.75	9.92	-28.2	-30.5	13.3	1.44e-05	0	43	0	1539309568	16	4708
2026-01-01 10:11:52.91	343.70	9.66	-28.1	-30.3	13.4	1.06e-05	0	43	0	1548746752	16	4630
2026-01-01 10:11:55.92	343.66	9.41	-28.1	-30.3	13.3	2.44e-05	0	43	0	1558183936	16	4649
2026-01-01 10:11:58.94	343.62	9.16	-28.2	-30.4	13.3	1.75e-05	0	43	0	1567621120	16	4684
2026-01-01 10:12:01.94	343.58	8.91	-28.3	-30.9	13.0	4.50e-05	0	43	0	1577058304	16	4841
2026-01-01 10:12:04.95	343.54	8.66	-28.4	-31.2	12.8	7.78e-05	0	43	0	1586495488	16	4925
2026-01-01 10:12:07.97	343.50	8.41	-28.7	-31.2	12.3	1.33e-04	0	43	0	1595932672	17	4843
2026-01-01 10:12:10.97	343.46	8.17	-28.4	-30.5	12.8	6.63e-05	0	43	0	1604321280	17	4608
2026-01-01 10:12:13.97	343.43	7.93	-28.5	-30.8	12.6	8.92e-05	0	43	0	1614807040	17	4693
2026-01-01 10:12:16.98	343.39	7.70	-28.5	-31.0	12.5	1.14e-04	0	43	0	1623195648	17	4754
2026-01-01 10:12:19.99	343.36	7.46	-28.7	-31.3	12.2	2.13e-04	0	43	0	1632632832	17	4873
2026-01-01 10:12:23.00	343.32	7.23	-28.7	-31.4	12.1	2.51e-04	0	43	0	1642070016	17	4900
2026-01-01 10:12:26.01	343.29	7.00	-33.0	-44.8	3.8	1.49e+00	0	43	104	1647312896	26	13948

#Closed at: 2026-01-01 10:12:27
#Recorded file [1647 MB]: D:/data/31010_260101_130337.dat