passes_logs/2026/01/01/R2M6_AANII_01/R2M6_AANII_01__20260101_021745_SUOMI_NPP_rec.log

#Pass ID: 20260101_021745_SUOMI NPP
#Satellite: SUOMI NPP
#Configuration: NPP
#almurnet v.1.7.20240730
#Start time: 2026-01-01 02:17:45

#Version: 2.2.20231116
#Station: R2M6_AANII_01
#Location: 30.233357 lon 59.946436 lat
#TLE: 1 37849U 11061A   25364.87906317  .00000195  00000+0  11345-3 0  9992
#TLE: 2 37849  98.7794 302.0592 0002571  89.2401 270.9069 14.19520347734561

#Time	Az	El	Level	Level2	SNR	BER	BlckErr	Temp	State	Recorded	gain1	gain2
2026-01-01 02:17:45.76	10.54	6.99	-31.5	-38.6	4.2	1.42e+00	0	40	0	0	23	8144
2026-01-01 02:17:48.76	10.27	7.18	-31.5	-38.6	5.5	4.72e-01	0	40	0	1048576	22	8139
2026-01-01 02:17:51.76	10.00	7.38	-31.5	-37.9	5.6	4.54e-01	0	41	0	7340032	23	7524
2026-01-01 02:17:54.76	9.73	7.57	-31.1	-36.2	7.2	1.80e-01	0	41	0	12582912	22	6440
2026-01-01 02:17:57.77	9.45	7.77	-30.4	-33.7	9.5	2.29e-02	0	41	0	17825792	21	5246
2026-01-01 02:18:00.77	9.17	7.96	-30.4	-34.2	9.5	1.74e-02	0	41	0	24117248	20	5590
2026-01-01 02:18:03.78	8.88	8.16	-30.5	-34.2	9.1	2.48e-02	0	41	0	29360128	21	5489
2026-01-01 02:18:06.79	8.59	8.36	-30.5	-34.0	9.3	2.43e-02	0	41	0	35651584	21	5390
2026-01-01 02:18:09.79	8.29	8.56	-30.6	-34.3	9.1	2.01e-02	0	41	0	40894464	21	5524
2026-01-01 02:18:12.81	7.99	8.76	-30.2	-33.6	10.0	8.12e-03	0	41	0	46137344	20	5292
2026-01-01 02:18:15.82	7.69	8.96	-30.1	-33.1	10.5	4.13e-03	0	41	0	52428800	20	5074
2026-01-01 02:18:18.83	7.38	9.17	-30.0	-32.8	10.7	6.86e-03	0	41	0	57671680	20	4963
2026-01-01 02:18:21.84	7.07	9.37	-30.0	-32.8	10.8	6.26e-03	0	41	0	62914560	20	4937
2026-01-01 02:18:24.83	6.75	9.57	-30.1	-32.9	10.7	5.76e-03	0	42	0	69206016	20	4983
2026-01-01 02:18:27.84	6.43	9.78	-29.8	-32.6	11.4	3.99e-03	0	41	0	74448896	19	4921
2026-01-01 02:18:30.85	6.10	9.98	-30.0	-32.6	11.0	1.62e-03	0	41	0	80740352	20	4842
2026-01-01 02:18:33.85	5.77	10.19	-30.0	-32.6	11.0	1.60e-03	0	42	0	85983232	20	4837
2026-01-01 02:18:36.86	5.43	10.39	-30.0	-32.4	11.1	1.92e-03	0	42	0	91226112	20	4784
2026-01-01 02:18:39.87	5.09	10.60	-30.0	-32.5	11.0	1.55e-03	0	42	0	97517568	20	4822
2026-01-01 02:18:42.88	4.75	10.81	-30.3	-33.3	10.5	6.22e-03	0	42	0	102760448	20	5141
2026-01-01 02:18:45.89	4.39	11.02	-30.3	-33.5	10.4	7.24e-03	0	42	0	108003328	20	5181
2026-01-01 02:18:48.90	4.04	11.23	-30.4	-33.4	10.1	1.19e-02	0	42	0	114294784	21	5051
2026-01-01 02:18:51.90	3.68	11.44	-30.3	-33.5	10.4	5.36e-03	0	42	0	119537664	20	5190
2026-01-01 02:18:54.91	3.31	11.65	-30.3	-33.4	10.5	3.97e-03	0	42	0	125829120	20	5158
2026-01-01 02:18:57.92	2.94	11.86	-30.3	-33.5	10.4	3.46e-03	0	42	0	131072000	20	5194
2026-01-01 02:19:00.94	2.56	12.08	-30.4	-33.7	10.3	3.90e-03	0	42	0	136314880	20	5270
2026-01-01 02:19:03.96	2.17	12.29	-30.1	-32.9	10.9	3.02e-03	0	42	0	142606336	20	4956
2026-01-01 02:19:06.97	1.78	12.50	-29.9	-32.3	11.4	1.21e-03	0	42	0	147849216	20	4694
2026-01-01 02:19:09.98	1.38	12.72	-29.8	-31.9	11.8	6.13e-04	0	42	0	154140672	20	4564
2026-01-01 02:19:12.98	0.98	12.93	-29.8	-32.3	11.8	5.36e-04	0	42	0	159383552	19	4797
2026-01-01 02:19:16.00	0.57	13.15	-30.0	-32.5	11.2	8.72e-04	0	42	0	164626432	20	4795
2026-01-01 02:19:19.01	0.16	13.37	-29.9	-32.4	11.3	7.55e-04	0	42	0	170917888	19	4828
2026-01-01 02:19:22.01	359.74	13.58	-30.0	-32.3	11.4	4.67e-04	0	42	0	176160768	20	4688
2026-01-01 02:19:25.03	359.31	13.80	-30.0	-32.5	11.3	1.04e-03	0	42	0	181403648	20	4772
2026-01-01 02:19:28.03	358.88	14.01	-30.0	-32.7	11.7	9.41e-04	0	42	0	187695104	19	4915
2026-01-01 02:19:31.04	358.44	14.23	-29.7	-31.9	12.2	3.19e-03	0	42	0	192937984	19	4620
2026-01-01 02:19:34.05	357.99	14.45	-29.4	-31.7	12.7	2.59e-03	0	42	0	199229440	18	4642
2026-01-01 02:19:37.06	357.54	14.67	-29.6	-31.6	12.4	3.05e-03	0	42	0	204472320	19	4537
2026-01-01 02:19:40.07	357.08	14.88	-29.7	-32.0	12.2	2.11e-04	0	42	0	209715200	19	4665
2026-01-01 02:19:43.07	356.62	15.10	-29.7	-31.8	12.3	2.10e-04	0	42	0	216006656	19	4612
2026-01-01 02:19:46.07	356.14	15.32	-29.7	-32.0	12.2	2.45e-04	0	42	0	221249536	19	4672
2026-01-01 02:19:49.08	355.66	15.53	-30.1	-32.6	11.3	3.68e-03	0	42	0	226492416	20	4834
2026-01-01 02:19:52.08	355.18	15.75	-30.0	-32.3	11.6	3.08e-03	0	42	0	232783872	20	4680
2026-01-01 02:19:55.09	354.68	15.97	-29.9	-32.3	12.0	2.81e-03	0	42	0	238026752	19	4767
2026-01-01 02:19:58.10	354.18	16.18	-29.9	-32.3	12.0	2.56e-03	0	43	0	244318208	19	4773
2026-01-01 02:20:01.10	353.67	16.40	-30.2	-33.0	11.1	1.28e-03	0	42	0	249561088	20	4965
2026-01-01 02:20:04.10	353.15	16.62	-30.2	-32.8	11.3	1.14e-03	0	43	0	254803968	20	4876
2026-01-01 02:20:07.13	352.62	16.83	-30.1	-32.6	11.4	2.58e-03	0	43	0	261095424	20	4807
2026-01-01 02:20:10.13	352.09	17.05	-30.1	-32.6	11.4	2.49e-03	0	43	0	266338304	20	4804
2026-01-01 02:20:13.14	351.55	17.26	-29.9	-32.0	11.8	2.48e-03	0	43	0	271581184	20	4595
2026-01-01 02:20:16.14	351.00	17.47	-29.8	-32.1	12.2	2.13e-03	0	43	0	277872640	19	4680
2026-01-01 02:20:19.15	350.45	17.69	-29.9	-32.0	11.8	2.56e-03	0	43	0	283115520	20	4592
2026-01-01 02:20:22.16	349.88	17.90	-29.9	-32.4	12.0	2.71e-03	0	43	0	289406976	19	4796
2026-01-01 02:20:25.17	349.31	18.11	-29.9	-32.2	12.2	2.01e-04	0	43	0	294649856	19	4727
2026-01-01 02:20:28.19	348.73	18.32	-29.8	-32.0	12.3	2.33e-03	0	43	0	299892736	19	4670
2026-01-01 02:20:31.19	348.14	18.52	-29.9	-32.1	11.9	2.19e-03	0	43	0	306184192	20	4599
2026-01-01 02:20:34.20	347.54	18.73	-29.7	-31.7	12.8	1.08e-03	0	43	0	311427072	19	4527
2026-01-01 02:20:37.22	346.94	18.94	-29.3	-30.6	13.1	9.76e-05	0	43	0	317718528	19	4194
2026-01-01 02:20:40.22	346.32	19.14	-29.5	-31.4	12.7	2.04e-03	0	43	0	322961408	19	4440
2026-01-01 02:20:43.23	345.70	19.34	-29.4	-31.4	13.1	2.59e-05	0	43	0	328204288	18	4531
2026-01-01 02:20:46.24	345.07	19.54	-29.1	-30.5	13.7	5.30e-06	0	43	0	334495744	18	4263
2026-01-01 02:20:49.23	344.44	19.73	-29.3	-31.2	13.2	1.52e-05	0	43	0	339738624	18	4471
2026-01-01 02:20:52.24	343.79	19.93	-29.4	-31.4	13.1	2.89e-05	0	43	0	344981504	18	4549
2026-01-01 02:20:55.23	343.14	20.12	-29.5	-31.2	13.0	2.61e-03	0	43	0	351272960	19	4356
2026-01-01 02:20:58.25	342.47	20.31	-29.5	-31.3	12.8	8.62e-05	0	43	0	356515840	19	4394
2026-01-01 02:21:01.23	341.81	20.50	-29.3	-31.2	13.2	2.59e-05	0	43	0	362807296	18	4474
2026-01-01 02:21:04.24	341.13	20.68	-29.2	-30.7	13.6	1.67e-05	0	43	0	368050176	18	4303
2026-01-01 02:21:07.25	340.44	20.86	-29.2	-30.9	13.5	4.50e-06	0	43	0	373293056	18	4388
2026-01-01 02:21:10.25	339.75	21.04	-28.9	-30.0	14.0	4.50e-06	0	43	0	379584512	18	4110
2026-01-01 02:21:13.25	339.04	21.21	-28.2	-29.3	15.1	0.00e+00	0	43	0	384827392	16	4065
2026-01-01 02:21:16.25	338.33	21.39	-28.6	-29.7	14.6	0.00e+00	0	43	0	390070272	17	4101
2026-01-01 02:21:19.25	337.61	21.55	-28.6	-29.6	14.6	0.00e+00	0	43	0	396361728	17	4075
2026-01-01 02:21:22.26	336.89	21.72	-28.0	-28.7	15.4	0.00e+00	0	43	0	401604608	16	3919
2026-01-01 02:21:25.27	336.15	21.88	-28.3	-29.4	15.1	0.00e+00	0	43	0	407896064	16	4115
2026-01-01 02:21:28.27	335.41	22.03	-28.4	-29.2	14.9	0.00e+00	0	43	0	413138944	17	3952
2026-01-01 02:21:31.28	334.66	22.18	-27.9	-28.5	15.6	0.00e+00	0	43	0	418381824	16	3855
2026-01-01 02:21:34.28	333.90	22.33	-28.1	-29.0	15.4	0.00e+00	0	43	0	424673280	16	3979
2026-01-01 02:21:37.30	333.13	22.47	-28.3	-29.5	15.1	0.00e+00	0	43	0	429916160	16	4127
2026-01-01 02:21:40.30	332.36	22.61	-28.1	-28.9	15.4	0.00e+00	0	43	0	435159040	16	3948
2026-01-01 02:21:43.31	331.58	22.74	-28.4	-29.8	14.9	0.00e+00	0	43	0	441450496	16	4206
2026-01-01 02:21:46.32	330.79	22.87	-28.3	-28.9	15.1	0.00e+00	0	43	0	446693376	17	3852
2026-01-01 02:21:49.34	330.00	23.00	-27.8	-28.7	15.7	0.00e+00	0	43	0	452984832	15	4017
2026-01-01 02:21:52.36	329.19	23.11	-28.1	-28.9	15.4	0.00e+00	0	43	0	458227712	16	3949
2026-01-01 02:21:55.37	328.39	23.23	-27.8	-28.7	15.7	2.30e-04	0	43	0	463470592	15	3998
2026-01-01 02:21:58.38	327.58	23.33	-27.9	-29.0	15.5	4.27e-04	0	43	0	469762048	15	4091
2026-01-01 02:22:01.39	326.76	23.43	-28.9	-30.3	14.3	4.45e-04	0	43	0	475004928	17	4273
2026-01-01 02:22:04.40	325.94	23.53	-29.5	-31.1	13.2	3.75e-04	0	43	0	480247808	19	4313
2026-01-01 02:22:07.41	325.11	23.61	-29.8	-31.8	12.7	7.48e-04	0	43	0	486539264	19	4566
2026-01-01 02:22:10.42	324.28	23.70	-29.8	-31.9	12.6	1.17e-03	0	43	0	491782144	19	4567
2026-01-01 02:22:13.43	323.45	23.77	-29.6	-31.3	13.0	1.19e-03	0	43	0	498073600	19	4390
2026-01-01 02:22:16.43	322.61	23.84	-28.8	-30.3	14.3	9.76e-04	0	43	0	503316480	17	4258
2026-01-01 02:22:19.45	321.76	23.90	-28.7	-30.1	14.4	1.43e-03	0	43	0	508559360	17	4202
2026-01-01 02:22:22.46	320.92	23.96	-29.3	-31.0	13.5	1.70e-03	0	43	0	514850816	18	4387
2026-01-01 02:22:25.47	320.07	24.01	-29.3	-31.1	13.5	1.60e-03	0	43	0	520093696	18	4415
2026-01-01 02:22:28.47	319.22	24.05	-29.7	-31.7	12.7	1.45e-03	0	43	0	526385152	19	4523
2026-01-01 02:22:31.47	318.37	24.09	-30.0	-32.0	11.9	3.17e-04	0	43	0	531628032	20	4554
2026-01-01 02:22:34.48	317.51	24.12	-29.8	-32.0	12.6	7.62e-05	0	43	0	536870912	19	4619
2026-01-01 02:22:37.48	316.66	24.14	-29.9	-32.1	12.5	1.66e-03	0	43	0	543162368	19	4645
2026-01-01 02:22:40.49	315.80	24.15	-30.3	-33.0	11.4	1.89e-03	0	43	0	548405248	20	4898
2026-01-01 02:22:43.50	314.94	24.16	-29.6	-31.5	12.8	6.87e-04	0	43	0	553648128	19	4445
2026-01-01 02:22:46.51	314.08	24.16	-29.2	-30.8	13.6	2.47e-04	0	43	0	559939584	18	4334
2026-01-01 02:22:49.52	313.22	24.16	-29.2	-30.9	13.6	1.14e-05	0	43	0	565182464	18	4351
2026-01-01 02:22:52.52	312.36	24.15	-29.8	-32.0	12.5	8.85e-05	0	43	0	571473920	19	4616
2026-01-01 02:22:55.53	311.51	24.13	-29.7	-31.6	12.7	9.23e-05	0	43	0	576716800	19	4513
2026-01-01 02:22:58.55	310.65	24.10	-29.4	-30.9	13.3	2.59e-05	0	43	0	581959680	19	4250
2026-01-01 02:23:01.55	309.79	24.07	-29.2	-30.9	13.6	5.30e-06	0	43	0	588251136	18	4359
2026-01-01 02:23:04.55	308.94	24.03	-29.1	-30.4	13.9	1.61e-04	0	43	0	593494016	18	4200
2026-01-01 02:23:07.56	308.09	23.98	-28.8	-30.1	14.4	0.00e+00	0	43	0	598736896	17	4204
2026-01-01 02:23:10.56	307.25	23.93	-29.0	-30.3	14.0	3.00e-06	0	43	0	605028352	18	4149
2026-01-01 02:23:13.58	306.40	23.86	-28.2	-28.7	15.3	7.00e-07	0	43	0	610271232	17	3804
2026-01-01 02:23:16.58	305.56	23.80	-27.9	-28.9	15.6	1.50e-06	0	43	0	616562688	15	4061
2026-01-01 02:23:19.59	304.72	23.72	-27.5	-27.9	16.2	0.00e+00	0	43	0	621805568	15	3784
2026-01-01 02:23:22.61	303.89	23.64	-27.3	-28.1	16.3	0.00e+00	0	43	0	627048448	14	3947
2026-01-01 02:23:25.61	303.06	23.56	-27.9	-29.0	14.1	0.00e+00	0	43	0	633339904	15	4088
2026-01-01 02:23:28.62	302.23	23.47	-28.3	-29.4	13.1	7.00e-07	0	43	0	638582784	16	4094
2026-01-01 02:23:31.63	301.41	23.37	-27.9	-29.0	15.3	7.00e-07	0	43	0	643825664	15	4087
2026-01-01 02:23:34.64	300.60	23.26	-27.8	-28.8	15.7	0.00e+00	0	43	0	650117120	15	4017
2026-01-01 02:23:37.65	299.79	23.15	-27.6	-28.3	15.9	0.00e+00	0	43	0	655360000	15	3892
2026-01-01 02:23:40.65	298.99	23.04	-28.5	-29.9	14.9	1.50e-06	0	43	0	661651456	16	4231
2026-01-01 02:23:43.65	298.20	22.92	-28.3	-29.4	15.2	0.00e+00	0	43	0	666894336	16	4080
2026-01-01 02:23:46.66	297.40	22.79	-28.9	-30.3	14.3	2.52e-03	0	43	0	672137216	17	4264
2026-01-01 02:23:49.68	296.62	22.66	-29.3	-31.0	13.6	2.79e-03	0	43	0	678428672	18	4384
2026-01-01 02:23:52.68	295.84	22.52	-29.4	-31.1	13.5	2.41e-03	0	43	0	683671552	18	4401
2026-01-01 02:23:55.68	295.07	22.38	-29.9	-32.0	12.6	6.56e-05	0	43	0	688914432	19	4585
2026-01-01 02:23:58.69	294.31	22.24	-29.9	-32.1	12.5	1.71e-04	0	43	0	695205888	19	4637
2026-01-01 02:24:01.70	293.56	22.09	-29.8	-31.8	12.7	1.08e-04	0	43	0	700448768	19	4532
2026-01-01 02:24:04.71	292.81	21.93	-29.7	-31.4	13.0	3.31e-04	0	43	0	706740224	19	4405
2026-01-01 02:24:07.72	292.06	21.77	-29.4	-30.6	13.5	4.50e-05	0	43	0	711983104	19	4145
2026-01-01 02:24:10.72	291.33	21.61	-29.2	-30.5	13.9	1.32e-03	0	43	0	717225984	18	4215
2026-01-01 02:24:13.74	290.61	21.44	-29.2	-30.6	13.8	8.69e-04	0	43	0	723517440	18	4236
2026-01-01 02:24:16.75	289.89	21.27	-29.1	-30.4	13.9	3.02e-04	0	43	0	728760320	18	4194
2026-01-01 02:24:19.76	289.18	21.10	-29.8	-31.7	12.7	4.73e-05	0	43	0	735051776	19	4510
2026-01-01 02:24:22.77	288.48	20.92	-29.8	-31.9	12.6	1.45e-03	0	43	0	740294656	19	4577
2026-01-01 02:24:25.78	287.78	20.74	-29.8	-31.7	12.8	2.40e-03	0	43	0	745537536	19	4502
2026-01-01 02:24:28.79	287.10	20.56	-30.2	-32.5	11.7	1.99e-03	0	43	0	751828992	20	4710
2026-01-01 02:24:31.79	286.42	20.37	-30.7	-33.6	10.8	4.80e-03	0	43	0	757071872	21	5046
2026-01-01 02:24:34.79	285.76	20.18	-29.9	-31.1	12.3	3.29e-04	0	43	0	762314752	21	4149
2026-01-01 02:24:37.80	285.09	19.99	-29.5	-30.4	13.2	4.18e-04	0	43	0	768606208	20	4020
2026-01-01 02:24:40.80	284.44	19.79	-29.5	-30.9	13.2	4.95e-05	0	43	0	773849088	19	4244
2026-01-01 02:24:43.81	283.80	19.60	-29.2	-30.8	13.6	8.30e-06	0	43	0	780140544	18	4311
2026-01-01 02:24:46.81	283.17	19.40	-28.7	-29.9	14.4	1.74e-03	0	43	0	785383424	17	4139
2026-01-01 02:24:49.82	282.54	19.20	-28.2	-29.2	15.2	2.03e-03	0	43	0	790626304	16	4025
2026-01-01 02:24:52.83	281.92	19.00	-29.1	-30.4	13.9	2.23e-03	0	43	0	796917760	18	4185
2026-01-01 02:24:55.84	281.31	18.79	-29.5	-31.0	13.2	9.78e-04	0	43	0	802160640	19	4275
2026-01-01 02:24:58.85	280.71	18.58	-29.9	-32.2	12.3	8.39e-05	0	43	0	807403520	19	4670
2026-01-01 02:25:01.84	280.12	18.38	-30.2	-32.6	11.6	6.91e-04	0	43	0	813694976	20	4766
2026-01-01 02:25:04.86	279.53	18.17	-29.9	-31.6	12.2	1.98e-04	0	43	0	818937856	20	4410
2026-01-01 02:25:07.86	278.95	17.96	-29.3	-30.6	13.3	2.82e-05	0	43	0	825229312	19	4179
2026-01-01 02:25:10.86	278.38	17.75	-28.5	-29.5	14.6	0.00e+00	0	43	0	830472192	17	4031
2026-01-01 02:25:13.87	277.82	17.53	-28.7	-29.9	14.4	2.33e-03	0	43	0	835715072	17	4150
2026-01-01 02:25:16.87	277.27	17.32	-29.5	-31.1	12.9	1.60e-05	0	43	0	842006528	19	4340
2026-01-01 02:25:19.88	276.72	17.11	-29.1	-30.6	13.6	6.80e-06	0	43	0	847249408	18	4270
2026-01-01 02:25:22.90	276.18	16.89	-29.2	-30.7	13.5	6.10e-06	0	43	0	852492288	18	4306
2026-01-01 02:25:25.91	275.65	16.67	-29.4	-31.2	13.2	2.21e-05	0	43	0	858783744	18	4470
2026-01-01 02:25:28.92	275.13	16.46	-29.3	-31.0	13.3	1.83e-05	0	43	0	864026624	18	4391
2026-01-01 02:25:31.93	274.62	16.24	-29.2	-30.8	13.4	1.75e-05	0	43	0	870318080	18	4328
2026-01-01 02:25:34.94	274.11	16.02	-28.9	-30.4	13.9	3.00e-06	0	43	0	875560960	17	4313
2026-01-01 02:25:37.96	273.61	15.81	-29.2	-30.7	13.5	6.80e-06	0	43	0	880803840	18	4304
2026-01-01 02:25:40.98	273.11	15.59	-28.9	-30.6	13.2	6.10e-06	0	43	0	887095296	17	4379
2026-01-01 02:25:43.99	272.63	15.37	-28.9	-30.5	12.2	4.50e-06	0	43	0	892338176	17	4336
2026-01-01 02:25:47.00	272.15	15.15	-28.3	-29.5	14.8	0.00e+00	0	43	0	898629632	16	4126
2026-01-01 02:25:50.01	271.67	14.93	-28.4	-29.8	14.6	0.00e+00	0	43	0	903872512	16	4225
2026-01-01 02:25:53.01	271.21	14.71	-28.9	-30.5	13.8	7.00e-07	0	43	0	909115392	17	4343
2026-01-01 02:25:56.02	270.75	14.50	-29.3	-31.1	13.2	9.10e-06	0	43	0	915406848	18	4421
2026-01-01 02:25:59.04	270.30	14.28	-29.1	-30.7	13.4	3.21e-03	0	43	0	920649728	18	4301
2026-01-01 02:26:02.05	269.86	14.06	-28.7	-30.1	14.0	3.40e-03	0	43	0	925892608	17	4216
2026-01-01 02:26:05.05	269.42	13.84	-28.8	-30.2	14.0	3.09e-03	0	43	0	932184064	17	4249
2026-01-01 02:26:08.06	268.99	13.63	-29.4	-31.4	12.9	8.46e-05	0	43	0	937426944	18	4545
2026-01-01 02:26:11.08	268.56	13.41	-29.9	-32.3	11.9	4.10e-04	0	43	0	943718400	19	4760
2026-01-01 02:26:14.09	268.14	13.19	-29.8	-32.1	12.0	2.96e-03	0	43	0	948961280	19	4696
2026-01-01 02:26:17.10	267.73	12.98	-29.6	-31.5	12.4	2.87e-03	0	43	0	954204160	19	4499
2026-01-01 02:26:20.10	267.33	12.76	-28.7	-30.0	14.0	2.63e-03	0	43	0	960495616	17	4203
2026-01-01 02:26:23.12	266.92	12.54	-28.3	-29.5	14.6	2.62e-03	0	43	0	965738496	16	4145
2026-01-01 02:26:26.12	266.53	12.33	-28.5	-30.1	14.3	2.73e-03	0	43	0	970981376	16	4312
2026-01-01 02:26:29.12	266.14	12.12	-29.1	-30.7	13.2	3.43e-03	0	43	0	977272832	18	4334
2026-01-01 02:26:32.13	265.76	11.90	-29.7	-31.7	12.2	3.26e-03	0	43	0	982515712	19	4573
2026-01-01 02:26:35.13	265.38	11.69	-29.3	-30.7	12.9	2.86e-03	0	43	0	988807168	19	4229
2026-01-01 02:26:38.14	265.01	11.48	-28.8	-30.4	13.7	2.72e-03	0	43	0	994050048	17	4316
2026-01-01 02:26:41.16	264.64	11.27	-28.9	-30.6	13.5	2.98e-03	0	43	0	999292928	17	4399
2026-01-01 02:26:44.17	264.28	11.06	-29.0	-30.5	13.2	4.46e-03	0	43	0	1005584384	18	4260
2026-01-01 02:26:47.18	263.93	10.85	-29.0	-30.9	13.3	7.24e-03	0	43	0	1010827264	17	4503
2026-01-01 02:26:50.18	263.58	10.64	-29.3	-31.2	12.7	7.01e-05	0	43	0	1016070144	18	4515
2026-01-01 02:26:53.19	263.23	10.43	-29.4	-31.8	12.3	1.13e-04	0	43	0	1022361600	18	4715
2026-01-01 02:26:56.19	262.89	10.22	-29.5	-31.4	12.2	2.75e-04	0	43	0	1027604480	19	4477
2026-01-01 02:26:59.20	262.56	10.01	-29.6	-31.6	12.1	2.75e-04	0	43	0	1033895936	19	4563
2026-01-01 02:27:02.21	262.22	9.81	-29.6	-31.9	11.9	3.07e-03	0	43	0	1039138816	19	4660
2026-01-01 02:27:05.22	261.90	9.60	-29.9	-32.6	11.3	4.82e-03	0	43	0	1044381696	19	4941
2026-01-01 02:27:08.24	261.58	9.40	-30.0	-32.7	10.8	1.79e-03	0	43	0	1050673152	20	4882
2026-01-01 02:27:11.25	261.26	9.19	-30.1	-32.9	10.6	3.94e-03	0	43	0	1055916032	20	4999
2026-01-01 02:27:14.24	260.95	8.99	-30.0	-32.7	10.7	2.16e-03	0	43	0	1061158912	20	4901
2026-01-01 02:27:17.25	260.64	8.79	-29.9	-32.4	10.9	2.70e-03	0	43	0	1067450368	20	4811
2026-01-01 02:27:20.26	260.34	8.59	-29.3	-31.6	12.2	1.96e-04	0	43	0	1072693248	18	4659
2026-01-01 02:27:23.26	260.04	8.39	-29.5	-31.6	11.8	4.66e-04	0	43	0	1078984704	19	4599
2026-01-01 02:27:26.26	259.74	8.19	-29.8	-32.6	11.0	1.49e-03	0	43	0	1084227584	19	4959
2026-01-01 02:27:29.28	259.45	7.99	-29.7	-32.3	11.2	1.38e-03	0	43	0	1089470464	19	4848
2026-01-01 02:27:32.28	259.16	7.79	-29.7	-32.4	11.2	1.36e-03	0	43	0	1095761920	19	4876
2026-01-01 02:27:35.28	258.88	7.59	-29.7	-32.4	11.1	1.50e-03	0	43	0	1101004800	19	4915
2026-01-01 02:27:38.30	258.60	7.40	-29.5	-32.1	11.7	7.55e-04	0	43	0	1107296256	18	4853
2026-01-01 02:27:41.31	258.33	7.20	-29.4	-31.9	11.8	4.08e-04	0	43	0	1112539136	18	4801
2026-01-01 02:27:44.32	258.05	7.01	-32.3	-44.9	3.8	1.49e+00	0	43	104	1116733440	24	15349

#Closed at: 2026-01-01 02:27:47
#Recorded file [1116 MB]: D:/data/31010_260101_051747.dat