passes_logs/2026/01/01/R2M6_AANII_01/R2M6_AANII_01__20260101_031545_AQUA_rec.log

#Pass ID: 20260101_031545_AQUA
#Satellite: AQUA
#Configuration: AQUA
#almurnet v.1.7.20240730
#Start time: 2026-01-01 03:15:47

#Version: 2.2.20231116
#Station: R2M6_AANII_01
#Location: 30.233357 lon 59.946436 lat
#TLE: 1 27424U 02022A   25364.96158943  .00001951  00000+0  40088-3 0  9998
#TLE: 2 27424  98.4061 326.1389 0001917  95.3187 305.7939 14.61780362258696

#Time	Az	El	Level	Level2	SNR	BER	BlckErr	Temp	State	Recorded	gain1	gain2
2026-01-01 03:15:47.77	8.81	7.15	-31.6	-47.8	3.8	7.46e-01	0	40	0	0	23	23336
2026-01-01 03:15:50.77	8.57	7.37	-31.5	-47.2	3.8	7.47e-01	0	40	104	0	23	21957
2026-01-01 03:15:53.77	8.32	7.59	-29.6	-44.1	3.8	7.44e-01	0	41	104	0	22	18991
2026-01-01 03:15:56.79	8.07	7.82	-30.3	-44.1	3.8	7.48e-01	0	41	104	0	21	17610
2026-01-01 03:15:59.81	7.81	8.05	-30.0	-43.7	3.9	7.45e-01	0	41	104	0	20	17315
2026-01-01 03:16:02.81	7.55	8.28	-29.9	-43.4	3.8	7.44e-01	0	41	104	0	20	17007
2026-01-01 03:16:05.83	7.29	8.51	-30.4	-44.2	3.8	7.45e-01	0	41	104	0	21	17711
2026-01-01 03:16:08.84	7.02	8.74	-31.2	-46.0	3.8	7.44e-01	0	41	104	0	23	19729
2026-01-01 03:16:11.85	6.74	8.98	-31.7	-47.3	3.8	7.44e-01	0	41	104	0	24	21822
2026-01-01 03:16:14.86	6.46	9.21	-32.0	-48.7	3.8	7.46e-01	0	41	104	0	24	24697
2026-01-01 03:16:17.87	6.18	9.45	-32.3	-49.9	3.8	7.43e-01	0	41	104	0	25	27096
2026-01-01 03:16:20.88	5.89	9.69	-32.5	-50.8	3.8	7.45e-01	0	41	104	0	25	29760
2026-01-01 03:16:23.88	5.59	9.93	-32.6	-51.2	3.8	7.44e-01	0	41	104	0	25	30902
2026-01-01 03:16:26.90	5.29	10.18	-32.4	-50.2	3.8	7.46e-01	0	41	104	0	25	27805
2026-01-01 03:16:29.92	4.98	10.43	-32.3	-49.2	3.8	7.41e-01	0	41	104	0	25	25133
2026-01-01 03:16:32.93	4.67	10.67	-32.0	-48.2	3.8	7.42e-01	0	41	104	0	24	23331
2026-01-01 03:16:35.94	4.35	10.93	-31.5	-46.6	3.8	7.46e-01	0	41	104	0	23	20612
2026-01-01 03:16:38.96	4.02	11.18	-31.4	-46.4	3.8	7.48e-01	0	42	104	0	23	20253
2026-01-01 03:16:41.97	3.69	11.43	-31.5	-46.7	3.8	7.45e-01	0	42	104	0	23	20614
2026-01-01 03:16:44.97	3.36	11.69	-30.6	-44.0	3.8	7.47e-01	0	42	104	0	22	16960
2026-01-01 03:16:47.99	3.01	11.95	-29.8	-42.8	3.9	7.43e-01	0	42	104	0	20	16114
2026-01-01 03:16:51.00	2.66	12.21	-29.6	-42.3	3.8	7.44e-01	0	42	104	0	20	15580
2026-01-01 03:16:54.02	2.30	12.47	-29.9	-43.1	3.8	7.44e-01	0	42	104	0	20	16517
2026-01-01 03:16:57.03	1.93	12.74	-30.7	-44.5	3.8	7.41e-01	0	42	104	0	22	17506
2026-01-01 03:17:00.03	1.56	13.00	-31.6	-46.9	3.8	7.47e-01	0	42	104	0	23	20907
2026-01-01 03:17:03.06	1.18	13.27	-32.0	-48.2	3.8	7.44e-01	0	42	104	0	24	23162
2026-01-01 03:17:06.07	0.79	13.55	-32.2	-48.3	3.8	7.46e-01	0	42	104	0	25	23034
2026-01-01 03:17:09.08	0.39	13.82	-32.4	-49.1	3.8	7.44e-01	0	42	104	0	25	24765
2026-01-01 03:17:12.07	359.99	14.09	-32.6	-50.0	3.8	7.47e-01	0	42	104	0	26	26555
2026-01-01 03:17:15.08	359.58	14.37	-32.6	-49.6	3.8	7.46e-01	0	42	104	0	26	25568
2026-01-01 03:17:18.09	359.16	14.65	-32.4	-49.1	3.8	7.48e-01	0	42	104	0	25	24533
2026-01-01 03:17:21.11	358.73	14.93	-32.2	-48.2	3.8	7.44e-01	0	42	104	0	25	22715
2026-01-01 03:17:24.12	358.29	15.21	-31.7	-46.6	3.8	7.45e-01	0	42	104	0	24	19958
2026-01-01 03:17:27.13	357.84	15.50	-31.5	-46.3	3.8	7.47e-01	0	42	104	0	23	19787
2026-01-01 03:17:30.12	357.39	15.79	-31.6	-46.1	3.8	7.47e-01	0	42	104	0	24	19103
2026-01-01 03:17:33.14	356.92	16.08	-31.0	-44.7	3.8	7.45e-01	0	42	104	0	23	17355
2026-01-01 03:17:36.15	356.44	16.37	-29.6	-33.1	5.2	7.03e-01	0	42	104	0	21	5365
2026-01-01 03:17:39.16	355.95	16.66	-29.4	-33.5	5.3	7.10e-01	0	42	0	0	18	5760
2026-01-01 03:17:42.17	355.45	16.96	-29.4	-33.3	5.3	7.07e-01	0	42	0	0	19	5688
2026-01-01 03:17:45.18	354.94	17.25	-29.1	-32.7	5.3	7.11e-01	0	42	0	0	19	5420
2026-01-01 03:17:48.18	354.43	17.55	-29.4	-33.4	5.3	7.06e-01	0	42	0	0	19	5710
2026-01-01 03:17:51.19	353.90	17.85	-28.9	-32.6	5.3	7.06e-01	0	42	0	0	18	5524
2026-01-01 03:17:54.20	353.35	18.15	-28.9	-32.7	5.3	7.08e-01	0	42	0	0	18	5532
2026-01-01 03:17:57.21	352.80	18.46	-28.9	-32.7	5.3	7.04e-01	0	42	0	0	18	5539
2026-01-01 03:18:00.22	352.23	18.76	-29.0	-32.8	5.3	7.07e-01	0	42	0	0	18	5597
2026-01-01 03:18:03.23	351.65	19.07	-29.1	-33.0	5.4	7.04e-01	0	42	0	0	18	5650
2026-01-01 03:18:06.24	351.06	19.37	-29.2	-32.8	5.3	7.07e-01	0	42	0	0	19	5453
2026-01-01 03:18:09.25	350.46	19.68	-29.0	-32.3	5.3	7.06e-01	0	42	0	0	19	5268
2026-01-01 03:18:12.27	349.84	19.99	-29.0	-32.9	5.3	7.10e-01	0	42	0	0	18	5623
2026-01-01 03:18:15.28	349.21	20.30	-29.5	-33.6	5.3	7.11e-01	0	42	0	0	19	5768
2026-01-01 03:18:18.30	348.56	20.61	-29.1	-32.6	5.3	7.09e-01	0	42	0	0	19	5361
2026-01-01 03:18:21.31	347.90	20.93	-29.2	-32.7	5.3	7.05e-01	0	42	0	0	19	5424
2026-01-01 03:18:24.32	347.23	21.24	-29.1	-32.6	5.3	7.06e-01	0	43	0	0	19	5364
2026-01-01 03:18:27.33	346.54	21.55	-29.1	-32.6	5.3	7.08e-01	0	42	0	0	19	5385
2026-01-01 03:18:30.34	345.84	21.86	-29.2	-32.8	5.3	7.06e-01	0	43	0	0	19	5469
2026-01-01 03:18:33.36	345.12	22.17	-29.2	-32.8	5.3	7.09e-01	0	43	0	0	19	5452
2026-01-01 03:18:36.37	344.38	22.48	-29.4	-33.3	5.3	7.06e-01	0	43	0	0	19	5626
2026-01-01 03:18:39.38	343.63	22.79	-29.2	-32.8	5.3	7.06e-01	0	42	0	0	19	5441
2026-01-01 03:18:42.39	342.87	23.10	-29.2	-32.7	5.3	7.08e-01	0	42	0	0	19	5400
2026-01-01 03:18:45.40	342.09	23.40	-29.2	-32.9	5.3	7.08e-01	0	43	0	0	19	5484
2026-01-01 03:18:48.41	341.29	23.71	-29.1	-32.6	5.3	7.07e-01	0	42	0	0	19	5347
2026-01-01 03:18:51.42	340.48	24.01	-29.3	-33.0	5.3	7.05e-01	0	42	0	0	19	5502
2026-01-01 03:18:54.43	339.65	24.31	-29.4	-33.2	5.3	7.06e-01	0	42	0	0	19	5595
2026-01-01 03:18:57.43	338.80	24.61	-29.2	-32.7	5.3	7.10e-01	0	43	0	0	19	5410
2026-01-01 03:19:00.45	337.93	24.91	-29.4	-33.3	5.3	7.08e-01	0	43	0	0	19	5644
2026-01-01 03:19:03.47	337.05	25.20	-29.1	-32.6	5.3	7.09e-01	0	43	0	0	19	5353
2026-01-01 03:19:06.48	336.15	25.48	-29.1	-32.4	5.3	7.04e-01	0	43	0	0	19	5272
2026-01-01 03:19:09.48	335.24	25.77	-28.9	-32.5	5.3	7.08e-01	0	43	0	0	18	5459
2026-01-01 03:19:12.49	334.30	26.04	-29.0	-32.7	5.3	7.09e-01	0	43	0	0	18	5526
2026-01-01 03:19:15.51	333.35	26.32	-29.1	-32.9	5.3	7.07e-01	0	42	0	0	18	5601
2026-01-01 03:19:18.52	332.38	26.59	-28.9	-32.7	5.3	7.07e-01	0	42	0	0	18	5559
2026-01-01 03:19:21.53	331.39	26.85	-29.0	-32.7	5.3	7.09e-01	0	43	0	0	18	5501
2026-01-01 03:19:24.54	330.39	27.10	-28.9	-32.4	5.3	7.06e-01	0	43	0	0	18	5393
2026-01-01 03:19:27.54	329.38	27.35	-28.9	-32.4	5.3	7.10e-01	0	43	0	0	18	5393
2026-01-01 03:19:30.55	328.34	27.59	-28.7	-31.9	5.3	7.08e-01	0	43	0	0	18	5230
2026-01-01 03:19:33.56	327.29	27.82	-28.9	-32.4	5.3	7.06e-01	0	43	0	0	18	5386
2026-01-01 03:19:36.57	326.22	28.05	-28.7	-31.9	5.3	7.07e-01	0	43	0	0	18	5232
2026-01-01 03:19:39.58	325.14	28.26	-28.7	-31.8	5.3	7.06e-01	0	43	0	0	18	5194
2026-01-01 03:19:42.59	324.04	28.47	-28.7	-31.9	5.3	7.05e-01	0	43	0	0	18	5225
2026-01-01 03:19:45.60	322.93	28.66	-28.7	-32.0	5.3	7.08e-01	0	43	0	0	18	5266
2026-01-01 03:19:48.60	321.81	28.85	-29.0	-32.7	5.3	7.06e-01	0	43	0	0	18	5511
2026-01-01 03:19:51.61	320.67	29.02	-28.9	-32.4	5.3	7.10e-01	0	43	0	0	18	5384
2026-01-01 03:19:54.62	319.52	29.18	-28.7	-32.0	5.3	7.03e-01	0	43	0	0	18	5236
2026-01-01 03:19:57.61	318.36	29.33	-28.7	-31.9	5.3	7.06e-01	0	43	0	0	18	5220
2026-01-01 03:20:00.62	317.19	29.47	-28.5	-31.9	5.3	7.05e-01	0	43	0	0	17	5338
2026-01-01 03:20:03.63	316.00	29.60	-28.5	-31.9	5.3	7.01e-01	0	43	0	0	17	5351
2026-01-01 03:20:06.65	314.81	29.71	-28.7	-31.8	5.3	7.05e-01	0	43	0	0	18	5188
2026-01-01 03:20:09.65	313.61	29.81	-28.7	-32.0	5.3	7.07e-01	0	43	0	0	18	5251
2026-01-01 03:20:12.66	312.40	29.90	-29.0	-32.1	5.3	7.04e-01	0	43	0	0	19	5160
2026-01-01 03:20:15.67	311.18	29.97	-28.7	-31.3	5.3	7.04e-01	0	43	0	0	19	4885
2026-01-01 03:20:18.68	309.96	30.03	-28.4	-31.1	5.3	7.04e-01	0	43	0	0	18	4910
2026-01-01 03:20:21.69	308.73	30.08	-28.7	-32.0	5.3	7.08e-01	0	43	0	0	18	5236
2026-01-01 03:20:24.71	307.50	30.11	-29.2	-32.7	5.2	7.07e-01	0	43	0	0	19	5387
2026-01-01 03:20:27.69	306.28	30.12	-29.0	-32.7	5.3	7.06e-01	0	43	0	0	18	5507
2026-01-01 03:20:30.69	305.06	30.12	-29.4	-33.1	5.3	7.04e-01	0	43	0	0	19	5555
2026-01-01 03:20:33.70	303.83	30.11	-29.4	-32.9	5.3	7.04e-01	0	43	0	0	20	5358
2026-01-01 03:20:36.70	302.60	30.09	-29.2	-32.6	5.3	7.05e-01	0	43	0	0	19	5358
2026-01-01 03:20:39.71	301.37	30.04	-29.0	-32.2	5.3	7.06e-01	0	43	0	0	19	5204
2026-01-01 03:20:42.71	300.15	29.99	-28.8	-32.2	5.3	7.06e-01	0	43	0	0	18	5317
2026-01-01 03:20:45.73	298.93	29.92	-29.2	-32.7	5.3	7.04e-01	0	43	0	0	19	5381
2026-01-01 03:20:48.73	297.72	29.84	-28.8	-31.8	5.3	7.09e-01	0	43	0	0	19	5039
2026-01-01 03:20:51.73	296.52	29.74	-28.9	-31.9	5.3	7.04e-01	0	43	0	0	19	5103
2026-01-01 03:20:54.74	295.32	29.63	-29.4	-33.1	5.3	7.06e-01	0	43	0	0	19	5571
2026-01-01 03:20:57.76	294.13	29.51	-29.5	-33.6	5.3	7.08e-01	0	43	0	0	19	5747
2026-01-01 03:21:00.74	292.96	29.37	-29.2	-32.8	5.3	7.07e-01	0	43	0	0	19	5437
2026-01-01 03:21:03.75	291.79	29.22	-28.8	-31.7	5.3	7.07e-01	0	43	0	0	19	5022
2026-01-01 03:21:06.75	290.64	29.07	-28.7	-31.4	5.3	7.04e-01	0	43	0	0	19	4902
2026-01-01 03:21:09.75	289.50	28.89	-29.6	-33.5	5.3	7.05e-01	0	43	0	0	20	5611
2026-01-01 03:21:12.76	288.37	28.71	-29.4	-33.4	5.3	7.06e-01	0	43	0	0	19	5689
2026-01-01 03:21:15.78	287.24	28.52	-28.7	-31.9	5.3	7.09e-01	0	43	0	0	18	5225
2026-01-01 03:21:18.78	286.14	28.32	-29.2	-32.7	5.2	7.05e-01	0	43	0	0	19	5398
2026-01-01 03:21:21.78	285.06	28.10	-29.0	-32.1	5.3	7.05e-01	0	43	0	0	19	5176
2026-01-01 03:21:24.79	283.98	27.88	-29.0	-32.7	5.3	7.07e-01	0	43	0	0	18	5518
2026-01-01 03:21:27.79	282.93	27.65	-29.1	-32.9	5.3	7.04e-01	0	43	0	0	18	5592
2026-01-01 03:21:30.81	281.88	27.41	-29.4	-32.8	5.3	7.07e-01	0	43	0	0	20	5300
2026-01-01 03:21:33.83	280.85	27.17	-30.3	-34.7	5.2	7.05e-01	0	43	0	0	21	5988
2026-01-01 03:21:36.82	279.85	26.91	-29.5	-33.5	5.3	7.07e-01	0	43	0	0	19	5732
2026-01-01 03:21:39.82	278.86	26.65	-29.8	-33.8	5.3	7.07e-01	0	43	0	0	20	5727
2026-01-01 03:21:42.82	277.89	26.39	-29.6	-33.2	5.3	7.09e-01	0	43	0	0	20	5495
2026-01-01 03:21:45.84	276.92	26.11	-30.0	-34.4	5.2	7.05e-01	0	43	0	0	20	5989
2026-01-01 03:21:48.85	275.98	25.84	-29.1	-32.6	5.3	7.09e-01	0	43	0	0	19	5371
2026-01-01 03:21:51.86	275.06	25.55	-29.6	-33.2	5.3	7.07e-01	0	43	0	0	20	5504
2026-01-01 03:21:54.87	274.15	25.27	-30.1	-34.3	5.2	7.08e-01	0	43	0	0	21	5861
2026-01-01 03:21:57.87	273.26	24.98	-30.1	-34.2	5.2	7.07e-01	0	43	0	0	21	5800
2026-01-01 03:22:00.87	272.39	24.68	-30.1	-34.2	5.2	7.08e-01	0	43	0	0	21	5772
2026-01-01 03:22:03.88	271.54	24.38	-30.1	-34.7	5.2	7.06e-01	0	43	0	0	20	6157
2026-01-01 03:22:06.89	270.70	24.08	-30.6	-35.3	5.2	7.11e-01	0	43	0	0	22	6186
2026-01-01 03:22:09.90	269.88	23.78	-29.7	-32.4	18.5	6.05e-01	0	43	0	1572864	21	4949
2026-01-01 03:22:12.92	269.07	23.47	-29.5	-32.8	19.1	6.04e-01	0	43	0	7340032	19	5280
2026-01-01 03:22:15.91	268.28	23.17	-29.5	-32.9	19.0	6.03e-01	0	43	0	12582912	19	5313
2026-01-01 03:22:18.91	267.51	22.86	-29.8	-33.2	18.4	6.04e-01	0	43	0	18350080	20	5341
2026-01-01 03:22:21.93	266.75	22.55	-29.6	-32.7	18.7	6.01e-01	0	43	0	24117248	20	5136
2026-01-01 03:22:24.94	266.01	22.24	-29.5	-32.9	19.0	6.03e-01	0	43	0	29884416	19	5318
2026-01-01 03:22:27.95	265.28	21.93	-29.4	-32.6	19.2	6.01e-01	0	43	0	35127296	19	5213
2026-01-01 03:22:30.96	264.57	21.61	-29.4	-32.6	19.1	6.04e-01	0	43	0	40894464	19	5231
2026-01-01 03:22:33.97	263.88	21.30	-29.0	-32.1	19.7	6.06e-01	0	43	0	46661632	18	5155
2026-01-01 03:22:36.97	263.20	20.99	-29.0	-32.2	19.6	6.00e-01	0	43	0	52428800	18	5191
2026-01-01 03:22:39.97	262.54	20.68	-28.9	-31.9	19.8	6.02e-01	0	43	0	58195968	18	5102
2026-01-01 03:22:42.98	261.88	20.37	-29.0	-32.3	19.5	6.02e-01	0	43	0	63438848	18	5234
2026-01-01 03:22:45.98	261.25	20.05	-29.2	-32.3	19.2	6.06e-01	0	43	0	69206016	19	5121
2026-01-01 03:22:48.99	260.62	19.74	-28.9	-31.9	19.8	6.02e-01	0	43	0	74973184	18	5079
2026-01-01 03:22:52.00	260.01	19.43	-29.2	-32.3	19.2	6.03e-01	0	43	0	80216064	19	5120
2026-01-01 03:22:55.01	259.41	19.13	-29.0	-31.7	19.6	6.03e-01	0	43	0	85983232	19	4904
2026-01-01 03:22:58.02	258.83	18.82	-29.0	-32.2	19.6	6.02e-01	0	43	0	91750400	18	5191
2026-01-01 03:23:01.01	258.26	18.51	-29.0	-31.6	19.6	6.05e-01	0	43	0	97517568	19	4889
2026-01-01 03:23:04.02	257.69	18.21	-28.9	-31.6	19.6	6.05e-01	0	43	0	102760448	19	4870
2026-01-01 03:23:07.02	257.15	17.90	-28.9	-32.0	19.6	6.00e-01	0	43	0	108527616	18	5122
2026-01-01 03:23:10.03	256.61	17.60	-29.3	-32.6	18.9	6.05e-01	0	43	0	114294784	19	5258
2026-01-01 03:23:13.04	256.08	17.30	-29.2	-32.3	19.0	6.01e-01	0	43	0	120061952	19	5145
2026-01-01 03:23:16.04	255.57	17.00	-29.5	-33.1	18.5	6.03e-01	0	43	0	125304832	19	5434
2026-01-01 03:23:19.04	255.07	16.71	-29.1	-32.1	19.1	6.03e-01	0	43	0	131072000	19	5069
2026-01-01 03:23:22.05	254.57	16.41	-29.3	-32.6	18.9	6.04e-01	0	43	0	136839168	19	5247
2026-01-01 03:23:25.06	254.09	16.12	-29.4	-32.8	18.7	6.05e-01	0	43	0	142606336	19	5315
2026-01-01 03:23:28.07	253.62	15.83	-29.1	-32.5	19.2	6.02e-01	0	43	0	148373504	18	5345
2026-01-01 03:23:31.08	253.15	15.54	-29.4	-32.8	18.6	6.04e-01	0	43	0	153616384	19	5350
2026-01-01 03:23:34.09	252.70	15.25	-29.1	-32.1	19.1	6.01e-01	0	43	0	159383552	19	5077
2026-01-01 03:23:37.09	252.25	14.97	-29.0	-32.4	19.1	6.02e-01	0	43	0	165150720	18	5302
2026-01-01 03:23:40.10	251.82	14.68	-28.9	-32.0	19.3	6.04e-01	0	43	0	170393600	18	5151
2026-01-01 03:23:43.12	251.39	14.40	-29.0	-32.4	19.1	6.03e-01	0	43	0	176160768	18	5302
2026-01-01 03:23:46.13	250.97	14.12	-28.9	-32.1	19.3	6.01e-01	0	43	0	181927936	18	5193
2026-01-01 03:23:49.14	250.56	13.84	-28.8	-31.9	19.4	6.03e-01	0	43	0	187695104	18	5114
2026-01-01 03:23:52.15	250.16	13.57	-29.0	-32.5	19.0	6.04e-01	0	43	0	193462272	18	5339
2026-01-01 03:23:55.16	249.77	13.30	-29.0	-32.4	19.1	6.02e-01	0	43	0	198705152	18	5314
2026-01-01 03:23:58.15	249.38	13.03	-29.3	-32.5	18.7	6.01e-01	0	43	0	204472320	19	5257
2026-01-01 03:24:01.16	249.01	12.76	-29.5	-33.2	18.2	6.06e-01	0	43	0	210239488	19	5514
2026-01-01 03:24:04.18	248.63	12.49	-29.2	-32.5	18.6	6.02e-01	0	43	0	216006656	19	5238
2026-01-01 03:24:07.18	248.27	12.23	-29.3	-32.8	18.4	6.04e-01	0	43	0	221249536	19	5364
2026-01-01 03:24:10.19	247.91	11.97	-29.4	-32.9	18.3	6.03e-01	0	43	0	227016704	19	5422
2026-01-01 03:24:13.20	247.56	11.71	-29.3	-32.6	18.5	6.02e-01	0	43	0	232783872	19	5301
2026-01-01 03:24:16.21	247.22	11.45	-29.2	-32.6	18.5	6.02e-01	0	43	0	238551040	19	5288
2026-01-01 03:24:19.22	246.89	11.19	-29.2	-32.4	18.7	6.04e-01	0	43	0	243793920	19	5205
2026-01-01 03:24:22.23	246.56	10.94	-29.1	-32.3	18.7	6.01e-01	0	43	0	249561088	19	5185
2026-01-01 03:24:25.23	246.23	10.69	-29.3	-32.8	18.3	6.02e-01	0	43	0	255328256	19	5391
2026-01-01 03:24:28.24	245.92	10.44	-29.4	-33.0	18.2	6.02e-01	0	43	0	261095424	19	5469
2026-01-01 03:24:31.25	245.60	10.19	-29.3	-32.8	18.3	6.01e-01	0	43	0	266338304	19	5385
2026-01-01 03:24:34.24	245.30	9.94	-29.2	-32.4	18.5	6.03e-01	0	43	0	272105472	19	5240
2026-01-01 03:24:37.25	245.00	9.70	-29.2	-32.6	18.3	6.03e-01	0	43	0	277872640	19	5317
2026-01-01 03:24:40.25	244.71	9.46	-29.3	-32.9	18.2	6.04e-01	0	43	0	283639808	19	5427
2026-01-01 03:24:43.27	244.41	9.22	-29.5	-33.3	17.9	6.05e-01	0	43	0	288882688	19	5621
2026-01-01 03:24:46.27	244.13	8.98	-29.5	-33.4	17.8	6.04e-01	0	43	0	294649856	19	5644
2026-01-01 03:24:49.28	243.85	8.74	-29.5	-33.4	17.8	6.03e-01	0	43	0	300417024	19	5650
2026-01-01 03:24:52.29	243.58	8.51	-29.4	-32.8	17.7	6.04e-01	0	43	0	306184192	20	5328
2026-01-01 03:24:55.30	243.31	8.27	-29.6	-33.5	17.3	6.04e-01	0	43	0	311427072	20	5604
2026-01-01 03:24:58.30	243.04	8.04	-29.4	-33.0	17.5	6.04e-01	0	43	0	317194240	20	5394
2026-01-01 03:25:01.30	242.79	7.82	-29.6	-33.5	17.2	6.02e-01	0	43	0	322961408	20	5649
2026-01-01 03:25:04.31	242.53	7.59	-29.5	-33.7	16.2	6.05e-01	0	43	0	328728576	19	5793
2026-01-01 03:25:07.32	242.28	7.36	-29.6	-33.5	16.4	6.03e-01	0	43	0	333971456	20	5655
2026-01-01 03:25:10.33	242.03	7.14	-29.9	-34.4	16.4	6.05e-01	0	43	0	339738624	20	6050

#Closed at: 2026-01-01 03:25:13
#Recorded file [341 MB]: D:/data/31010_260101_062208.dat