passes_logs/2026/01/01/R2M6_AANII_01/R2M6_AANII_01__20260101_164205_FENGYUN_3E_rec.log

#Pass ID: 20260101_164205_FENGYUN 3E
#Satellite: FENGYUN 3E
#Configuration: FENGYUN 3E
#almurnet v.1.7.20240730
#Start time: 2026-01-01 16:42:05

#Version: 2.2.20231116
#Station: R2M6_AANII_01
#Location: 30.233357 lon 59.946436 lat
#TLE: 1 49008U 21062A   25365.98258168  .00000149  00000+0  90987-4 0  9990
#TLE: 2 49008  98.7481   6.2763 0001360 169.3782 190.7423 14.19883270232859

#Time	Az	El	Level	Level2	SNR	BER	BlckErr	Temp	State	Recorded	gain1	gain2
2026-01-01 16:42:05.32	231.72	7.00	-27.5	-29.5	5.6	7.29e-01	0	41	0	0	14	4518
2026-01-01 16:42:08.33	232.08	7.16	-29.8	-33.0	7.6	9.02e-02	0	41	0	7340032	19	5222
2026-01-01 16:42:11.33	232.45	7.32	-29.3	-32.0	8.6	4.93e-02	0	41	0	28311552	18	4906
2026-01-01 16:42:14.34	232.82	7.47	-28.1	-29.9	10.6	4.81e-03	0	41	0	50331648	16	4424
2026-01-01 16:42:17.34	233.19	7.63	-27.2	-28.2	11.8	5.60e-04	0	41	0	72351744	15	4024
2026-01-01 16:42:20.35	233.57	7.79	-26.7	-28.1	12.5	7.74e-04	0	41	0	93323264	13	4213
2026-01-01 16:42:23.36	233.96	7.94	-26.5	-27.6	12.8	5.41e-04	0	41	0	115343360	13	4061
2026-01-01 16:42:26.37	234.35	8.10	-26.0	-26.9	13.5	4.74e-04	0	42	0	137363456	12	4000
2026-01-01 16:42:29.38	234.74	8.25	-26.2	-27.4	13.3	1.60e-05	0	42	0	159383552	12	4109
2026-01-01 16:42:32.39	235.13	8.41	-25.9	-27.1	13.9	2.20e-06	0	42	0	180355072	11	4126
2026-01-01 16:42:35.40	235.53	8.57	-25.8	-26.8	14.0	3.40e-06	0	42	0	202375168	11	4057
2026-01-01 16:42:38.41	235.94	8.72	-25.7	-26.7	14.1	4.65e-04	0	42	0	224395264	11	4043
2026-01-01 16:42:41.43	236.35	8.88	-25.8	-26.8	14.0	3.40e-06	0	42	0	246415360	11	4064
2026-01-01 16:42:44.44	236.76	9.03	-25.6	-26.5	14.3	2.20e-06	0	42	0	267386880	11	3984
2026-01-01 16:42:47.45	237.18	9.19	-25.6	-26.3	14.4	1.10e-06	0	42	0	289406976	11	3925
2026-01-01 16:42:50.46	237.60	9.34	-25.5	-26.6	14.5	1.10e-06	0	42	0	311427072	10	4122
2026-01-01 16:42:53.47	238.02	9.49	-25.5	-26.1	14.5	1.10e-06	0	42	0	332398592	11	3887
2026-01-01 16:42:56.48	238.45	9.65	-25.4	-26.6	14.5	2.20e-06	0	42	0	354418688	10	4093
2026-01-01 16:42:59.49	238.89	9.80	-25.5	-26.7	14.5	2.20e-06	0	42	0	376438784	10	4132
2026-01-01 16:43:02.49	239.32	9.95	-25.8	-26.8	14.2	1.10e-06	0	42	0	398458880	11	4046
2026-01-01 16:43:05.51	239.77	10.10	-25.6	-26.4	14.4	1.10e-06	0	43	0	419430400	11	3959
2026-01-01 16:43:08.51	240.21	10.25	-25.9	-27.1	14.0	1.10e-06	0	42	0	441450496	11	4138
2026-01-01 16:43:11.52	240.67	10.40	-25.5	-26.2	14.5	0.00e+00	0	43	0	462422016	11	3900
2026-01-01 16:43:14.54	241.12	10.55	-25.5	-26.2	14.5	1.10e-06	0	43	0	484442112	11	3901
2026-01-01 16:43:17.55	241.59	10.70	-25.3	-25.8	14.7	0.00e+00	0	43	0	506462208	11	3814
2026-01-01 16:43:20.57	242.05	10.85	-25.3	-25.8	14.7	1.10e-06	0	43	0	528482304	11	3804
2026-01-01 16:43:23.58	242.52	11.00	-25.3	-26.3	14.8	0.00e+00	0	43	0	549453824	10	4030
2026-01-01 16:43:26.58	243.00	11.15	-25.4	-26.6	14.6	0.00e+00	0	43	0	571473920	10	4096
2026-01-01 16:43:29.60	243.48	11.29	-25.3	-26.3	14.8	0.00e+00	0	43	0	593494016	10	4035
2026-01-01 16:43:32.61	243.96	11.44	-25.4	-26.6	14.7	0.00e+00	0	43	0	615514112	10	4096
2026-01-01 16:43:35.62	244.45	11.58	-25.3	-26.3	14.8	0.00e+00	0	43	0	636485632	10	4020
2026-01-01 16:43:38.62	244.94	11.72	-25.4	-26.5	14.7	0.00e+00	0	43	0	658505728	10	4076
2026-01-01 16:43:41.63	245.44	11.86	-25.1	-25.9	15.0	0.00e+00	0	43	0	680525824	10	3932
2026-01-01 16:43:44.64	245.94	12.01	-25.1	-26.2	15.1	0.00e+00	0	43	0	702545920	9	4113
2026-01-01 16:43:47.65	246.45	12.14	-25.2	-26.6	12.7	1.11e-03	0	43	0	723517440	9	4207
2026-01-01 16:43:50.66	246.96	12.28	-25.1	-25.9	15.1	0.00e+00	0	43	0	745537536	10	3920
2026-01-01 16:43:53.66	247.47	12.42	-25.1	-25.7	15.2	0.00e+00	0	43	0	767557632	10	3880
2026-01-01 16:43:56.67	247.99	12.55	-24.8	-25.7	15.5	0.00e+00	0	43	0	788529152	9	3982
2026-01-01 16:43:59.67	248.52	12.69	-24.8	-25.6	15.5	0.00e+00	0	43	0	810549248	9	3958
2026-01-01 16:44:02.68	249.05	12.82	-24.8	-25.6	15.5	9.04e-05	0	43	0	832569344	9	3962
2026-01-01 16:44:05.70	249.58	12.95	-24.8	-25.5	15.6	1.51e-04	0	43	0	854589440	9	3939
2026-01-01 16:44:08.71	250.12	13.08	-24.6	-25.3	15.7	0.00e+00	0	43	0	875560960	9	3871
2026-01-01 16:44:11.71	250.67	13.21	-24.7	-25.5	15.6	0.00e+00	0	43	0	897581056	9	3941
2026-01-01 16:44:14.71	251.21	13.34	-24.5	-25.5	15.9	1.07e-03	0	43	0	919601152	8	4042
2026-01-01 16:44:17.73	251.77	13.46	-24.6	-25.6	15.8	8.91e-04	0	43	0	941621248	8	4066
2026-01-01 16:44:20.73	252.32	13.58	-24.8	-25.5	15.6	0.00e+00	0	43	0	962592768	9	3935
2026-01-01 16:44:23.74	252.88	13.70	-24.7	-25.4	15.6	0.00e+00	0	43	0	984612864	9	3916
2026-01-01 16:44:26.75	253.45	13.82	-24.6	-25.1	15.9	0.00e+00	0	43	0	1006632960	9	3831
2026-01-01 16:44:29.75	254.02	13.94	-24.3	-25.1	16.1	6.82e-04	0	43	0	1027604480	8	3943
2026-01-01 16:44:32.77	254.60	14.05	-24.5	-25.4	15.9	3.04e-04	0	43	0	1049624576	8	4022
2026-01-01 16:44:35.78	255.17	14.17	-24.5	-25.0	16.0	0.00e+00	0	43	0	1071644672	9	3803
2026-01-01 16:44:38.78	255.76	14.28	-24.4	-25.3	16.0	0.00e+00	0	43	0	1092616192	8	3995
2026-01-01 16:44:41.79	256.34	14.38	-24.6	-25.2	15.8	0.00e+00	0	43	0	1114636288	9	3847
2026-01-01 16:44:44.80	256.94	14.49	-24.4	-25.3	16.0	0.00e+00	0	43	0	1136656384	8	3992
2026-01-01 16:44:47.81	257.53	14.59	-24.4	-25.2	16.1	0.00e+00	0	43	0	1157627904	8	3957
2026-01-01 16:44:50.83	258.13	14.69	-24.4	-25.3	16.1	0.00e+00	0	43	0	1179648000	8	3989
2026-01-01 16:44:53.85	258.74	14.79	-24.3	-24.9	16.3	0.00e+00	0	43	0	1201668096	8	3897
2026-01-01 16:44:56.85	259.34	14.89	-24.3	-25.1	16.2	0.00e+00	0	43	0	1223688192	8	3933
2026-01-01 16:44:59.86	259.95	14.98	-24.3	-25.0	16.2	0.00e+00	0	44	0	1244659712	8	3907
2026-01-01 16:45:02.87	260.57	15.07	-24.3	-25.0	16.3	0.00e+00	0	43	0	1266679808	8	3911
2026-01-01 16:45:05.88	261.19	15.16	-24.3	-24.9	16.3	0.00e+00	0	43	0	1288699904	8	3896
2026-01-01 16:45:08.90	261.81	15.24	-24.3	-25.1	16.2	0.00e+00	0	43	0	1310720000	8	3932
2026-01-01 16:45:11.90	262.43	15.32	-24.2	-24.8	16.4	0.00e+00	0	43	0	1331691520	8	3856
2026-01-01 16:45:14.91	263.06	15.40	-24.0	-24.9	16.6	0.00e+00	0	43	0	1353711616	7	3981
2026-01-01 16:45:17.91	263.69	15.48	-24.1	-25.0	16.5	0.00e+00	0	43	0	1375731712	7	4026
2026-01-01 16:45:20.91	264.32	15.55	-24.4	-25.2	16.1	0.00e+00	0	43	0	1396703232	8	3970
2026-01-01 16:45:23.92	264.96	15.62	-24.2	-24.8	16.4	0.00e+00	0	43	0	1418723328	8	3874
2026-01-01 16:45:26.93	265.60	15.69	-24.2	-24.7	16.4	0.00e+00	0	44	0	1440743424	8	3850
2026-01-01 16:45:29.94	266.24	15.75	-24.0	-24.8	16.6	0.00e+00	0	43	0	1462763520	7	3963
2026-01-01 16:45:32.95	266.89	15.81	-24.1	-25.0	16.5	0.00e+00	0	43	0	1483735040	7	4027
2026-01-01 16:45:35.95	267.54	15.87	-24.3	-25.1	16.2	0.00e+00	0	43	0	1505755136	8	3939
2026-01-01 16:45:38.96	268.19	15.92	-24.8	-25.7	15.6	0.00e+00	0	43	0	1527775232	9	3982
2026-01-01 16:45:41.97	268.84	15.97	-24.8	-25.5	15.6	0.00e+00	0	43	0	1548746752	9	3936
2026-01-01 16:45:44.98	269.49	16.02	-24.6	-25.2	15.9	8.00e-06	0	43	0	1570766848	9	3852
2026-01-01 16:45:48.00	270.15	16.06	-24.4	-24.7	16.2	1.10e-06	0	43	0	1592786944	9	3732
2026-01-01 16:45:51.00	270.81	16.10	-24.1	-24.7	16.4	0.00e+00	0	44	0	1614807040	8	3838
2026-01-01 16:45:54.01	271.47	16.14	-24.2	-24.8	16.4	0.00e+00	0	44	0	1635778560	8	3865
2026-01-01 16:45:57.02	272.13	16.17	-24.3	-25.1	16.2	0.00e+00	0	43	0	1657798656	8	3932
2026-01-01 16:46:00.03	272.79	16.20	-24.1	-24.6	16.5	2.20e-06	0	43	0	1679818752	8	3808
2026-01-01 16:46:03.04	273.45	16.22	-23.9	-24.7	16.7	5.70e-06	0	44	0	1700790272	7	3944
2026-01-01 16:46:06.05	274.12	16.25	-23.9	-24.7	16.7	4.50e-06	0	43	0	1722810368	7	3936
2026-01-01 16:46:09.06	274.78	16.26	-23.9	-24.8	16.6	0.00e+00	0	43	0	1744830464	7	3959
2026-01-01 16:46:12.06	275.45	16.28	-24.0	-24.4	16.6	0.00e+00	0	43	0	1765801984	8	3770
2026-01-01 16:46:15.08	276.11	16.29	-24.1	-24.6	16.5	0.00e+00	0	43	0	1787822080	8	3810
2026-01-01 16:46:18.08	276.78	16.30	-24.2	-24.9	16.3	0.00e+00	0	43	0	1809842176	8	3888
2026-01-01 16:46:21.08	277.44	16.30	-24.3	-25.0	16.3	0.00e+00	0	43	0	1831862272	8	3915
2026-01-01 16:46:24.09	278.11	16.30	-24.1	-24.5	16.5	0.00e+00	0	44	0	1852833792	8	3792
2026-01-01 16:46:27.10	278.78	16.30	-24.2	-24.8	16.4	0.00e+00	0	44	0	1874853888	8	3856
2026-01-01 16:46:30.11	279.44	16.29	-23.9	-24.2	16.7	0.00e+00	0	43	0	1896873984	8	3716
2026-01-01 16:46:33.12	280.11	16.28	-23.9	-24.7	16.7	0.00e+00	0	44	0	1917845504	7	3948
2026-01-01 16:46:36.13	280.77	16.26	-24.3	-25.0	16.3	0.00e+00	0	43	0	1939865600	8	3917
2026-01-01 16:46:39.13	281.44	16.24	-24.2	-24.7	16.4	0.00e+00	0	43	0	1961885696	8	3845
2026-01-01 16:46:42.14	282.10	16.22	-24.3	-25.0	16.3	0.00e+00	0	43	0	1983905792	8	3915
2026-01-01 16:46:45.14	282.76	16.20	-24.1	-24.5	16.5	0.00e+00	0	44	0	2004877312	8	3801
2026-01-01 16:46:48.16	283.42	16.17	-24.2	-24.8	16.4	0.00e+00	0	44	0	2026897408	8	3854
2026-01-01 16:46:51.17	284.08	16.14	-24.1	-24.7	16.4	0.00e+00	0	44	0	2048917504	8	3837
2026-01-01 16:46:54.18	284.74	16.10	-24.2	-24.8	16.4	0.00e+00	0	43	0	2070937600	8	3858
2026-01-01 16:46:57.20	285.40	16.06	-24.1	-24.6	16.5	0.00e+00	0	44	0	2091909120	8	3811
2026-01-01 16:47:00.19	286.05	16.02	-24.2	-24.9	16.3	0.00e+00	0	44	0	2113929216	8	3881
2026-01-01 16:47:03.21	286.71	15.97	-24.4	-25.4	16.1	0.00e+00	0	44	0	2135949312	8	3999
2026-01-01 16:47:06.22	287.36	15.92	-24.4	-25.2	16.1	0.00e+00	0	44	0	2156920832	8	3960
2026-01-01 16:47:09.24	288.01	15.87	-24.4	-24.9	16.0	0.00e+00	0	44	0	2178940928	9	3774
2026-01-01 16:47:12.25	288.66	15.81	-24.2	-24.8	16.4	0.00e+00	0	44	0	2200961024	8	3857
2026-01-01 16:47:15.26	289.30	15.75	-24.2	-24.8	16.4	0.00e+00	0	43	0	2222981120	8	3855
2026-01-01 16:47:18.28	289.94	15.69	-24.3	-25.0	16.2	0.00e+00	0	44	0	2245001216	8	3918
2026-01-01 16:47:21.29	290.58	15.62	-24.3	-25.0	16.3	0.00e+00	0	43	0	2265972736	8	3910
2026-01-01 16:47:24.29	291.22	15.55	-24.5	-25.4	16.0	0.00e+00	0	43	0	2287992832	8	4012
2026-01-01 16:47:27.30	291.85	15.48	-24.3	-25.0	15.5	0.00e+00	0	43	0	2308964352	8	3918
2026-01-01 16:47:30.32	292.48	15.40	-24.3	-25.0	16.3	0.00e+00	0	44	0	2330984448	8	3899
2026-01-01 16:47:33.32	293.11	15.32	-24.4	-25.3	16.1	6.87e-04	0	43	0	2353004544	8	3975
2026-01-01 16:47:36.33	293.73	15.24	-24.4	-25.3	16.1	0.00e+00	0	44	0	2375024640	8	3976
2026-01-01 16:47:39.34	294.35	15.16	-24.5	-25.5	15.9	0.00e+00	0	43	0	2395996160	8	4029
2026-01-01 16:47:42.35	294.96	15.07	-24.4	-25.2	16.1	8.65e-04	0	44	0	2418016256	8	3969
2026-01-01 16:47:45.34	295.57	14.98	-24.5	-25.0	16.0	9.10e-06	0	44	0	2440036352	9	3794
2026-01-01 16:47:48.35	296.18	14.89	-24.5	-25.1	15.9	1.07e-03	0	44	0	2461007872	9	3824
2026-01-01 16:47:51.36	296.79	14.79	-24.4	-25.4	16.0	1.15e-03	0	44	0	2483027968	8	4006
2026-01-01 16:47:54.36	297.39	14.70	-24.5	-25.6	15.9	1.03e-03	0	44	0	2505048064	8	4058
2026-01-01 16:47:57.36	297.98	14.60	-24.5	-25.0	15.9	1.82e-04	0	44	0	2526019584	9	3818
2026-01-01 16:48:00.38	298.58	14.49	-24.3	-25.1	16.1	8.60e-04	0	44	0	2548039680	8	3941
2026-01-01 16:48:03.38	299.17	14.39	-24.4	-25.2	16.1	1.33e-03	0	43	0	2570059776	8	3969
2026-01-01 16:48:06.40	299.75	14.28	-24.6	-25.2	15.8	0.00e+00	0	44	0	2592079872	9	3845
2026-01-01 16:48:09.41	300.33	14.17	-24.6	-25.2	15.8	0.00e+00	0	44	0	2613051392	9	3851
2026-01-01 16:48:12.43	300.91	14.06	-24.7	-25.4	15.7	0.00e+00	0	44	0	2635071488	9	3903
2026-01-01 16:48:15.44	301.49	13.95	-24.8	-25.7	15.5	0.00e+00	0	44	0	2657091584	9	3970
2026-01-01 16:48:18.45	302.05	13.83	-24.9	-25.8	15.4	0.00e+00	0	44	0	2679111680	9	4016
2026-01-01 16:48:21.46	302.62	13.71	-25.1	-25.8	15.2	0.00e+00	0	43	0	2700083200	10	3893
2026-01-01 16:48:24.47	303.18	13.59	-25.2	-25.9	15.1	0.00e+00	0	44	0	2722103296	10	3923
2026-01-01 16:48:27.49	303.73	13.47	-25.0	-26.0	15.3	0.00e+00	0	44	0	2744123392	9	4048
2026-01-01 16:48:30.49	304.28	13.35	-25.4	-26.4	14.9	0.00e+00	0	43	0	2766143488	10	4042
2026-01-01 16:48:33.50	304.83	13.22	-25.0	-25.6	15.3	1.10e-06	0	44	0	2787115008	10	3846
2026-01-01 16:48:36.51	305.37	13.10	-25.1	-26.2	15.2	0.00e+00	0	44	0	2809135104	9	4108
2026-01-01 16:48:39.52	305.91	12.97	-25.0	-26.2	15.2	0.00e+00	0	44	0	2831155200	9	4094
2026-01-01 16:48:42.53	306.44	12.84	-25.1	-25.8	15.1	0.00e+00	0	44	0	2852126720	10	3910
2026-01-01 16:48:45.54	306.97	12.71	-25.5	-26.6	14.7	1.10e-06	0	44	0	2874146816	10	4097
2026-01-01 16:48:48.55	307.49	12.57	-25.1	-25.8	15.1	0.00e+00	0	44	0	2896166912	10	3915
2026-01-01 16:48:51.55	308.01	12.44	-25.2	-26.0	15.0	0.00e+00	0	44	0	2917138432	10	3963
2026-01-01 16:48:54.57	308.52	12.30	-25.1	-25.9	15.1	1.10e-06	0	44	0	2939158528	10	3923
2026-01-01 16:48:57.57	309.03	12.17	-25.1	-25.9	15.1	0.00e+00	0	44	0	2961178624	10	3924
2026-01-01 16:49:00.58	309.54	12.03	-25.2	-26.0	15.0	0.00e+00	0	44	0	2983198720	10	3946
2026-01-01 16:49:03.60	310.04	11.89	-25.3	-26.3	14.8	1.10e-06	0	44	0	3004170240	10	4020
2026-01-01 16:49:06.61	310.53	11.75	-25.6	-26.8	14.6	0.00e+00	0	44	0	3026190336	10	4148
2026-01-01 16:49:09.62	311.02	11.61	-25.6	-26.4	14.5	0.00e+00	0	44	0	3048210432	11	3957
2026-01-01 16:49:12.62	311.51	11.46	-25.4	-26.5	14.7	0.00e+00	0	44	0	3069181952	10	4080
2026-01-01 16:49:15.63	311.99	11.32	-24.8	-26.0	14.6	1.10e-06	0	44	0	3091202048	10	4112
2026-01-01 16:49:18.64	312.47	11.18	-25.4	-26.6	14.6	0.00e+00	0	44	0	3113222144	10	4094
2026-01-01 16:49:21.66	312.94	11.03	-25.8	-26.9	14.2	1.10e-06	0	44	0	3135242240	11	4070
2026-01-01 16:49:24.67	313.41	10.88	-25.6	-26.4	14.4	0.00e+00	0	44	0	3156213760	11	3955
2026-01-01 16:49:27.68	313.87	10.74	-25.5	-26.2	14.5	5.01e-04	0	44	0	3178233856	11	3906
2026-01-01 16:49:30.69	314.33	10.59	-25.5	-26.7	14.5	3.01e-04	0	43	0	3200253952	10	4138
2026-01-01 16:49:33.69	314.79	10.44	-25.3	-25.8	14.8	1.10e-06	0	44	0	3222274048	11	3798
2026-01-01 16:49:36.71	315.24	10.29	-25.5	-26.1	14.6	3.40e-06	0	44	0	3243245568	11	3864
2026-01-01 16:49:39.72	315.68	10.14	-25.7	-26.6	14.3	4.23e-05	0	44	0	3265265664	11	3990
2026-01-01 16:49:42.73	316.13	9.99	-26.0	-27.3	13.9	3.40e-06	0	44	0	3287285760	11	4175
2026-01-01 16:49:45.74	316.56	9.84	-26.0	-27.2	13.9	4.50e-06	0	44	0	3309305856	11	4169
2026-01-01 16:49:48.75	316.99	9.69	-26.1	-27.0	13.7	5.70e-06	0	44	0	3330277376	12	3991
2026-01-01 16:49:51.75	317.42	9.54	-26.0	-26.8	13.8	3.40e-06	0	44	0	3352297472	12	3950
2026-01-01 16:49:54.77	317.85	9.39	-26.0	-27.2	13.9	8.50e-04	0	44	0	3374317568	11	4168
2026-01-01 16:49:57.78	318.27	9.23	-25.5	-26.7	14.5	9.39e-04	0	43	0	3396337664	10	4125
2026-01-01 16:50:00.79	318.68	9.08	-25.6	-26.4	14.3	1.10e-06	0	44	0	3417309184	11	3949
2026-01-01 16:50:03.80	319.09	8.93	-25.8	-26.8	14.1	2.20e-06	0	44	0	3439329280	11	4066
2026-01-01 16:50:06.81	319.50	8.78	-26.1	-27.6	13.6	5.70e-06	0	44	0	3461349376	11	4264
2026-01-01 16:50:09.82	319.90	8.62	-26.2	-27.3	13.4	1.71e-05	0	44	0	3482320896	12	4088
2026-01-01 16:50:12.84	320.30	8.47	-26.4	-27.7	13.2	2.86e-05	0	44	0	3504340992	12	4185
2026-01-01 16:50:15.84	320.70	8.31	-26.4	-27.7	13.2	3.31e-05	0	43	0	3526361088	12	4195
2026-01-01 16:50:18.85	321.09	8.16	-26.2	-27.3	13.4	1.48e-05	0	44	0	3547332608	12	4084
2026-01-01 16:50:21.87	321.48	8.00	-26.0	-27.4	13.6	1.02e-05	0	44	0	3569352704	11	4234
2026-01-01 16:50:24.88	321.86	7.85	-25.8	-26.9	13.9	1.10e-06	0	44	0	3591372800	11	4071
2026-01-01 16:50:27.88	322.24	7.69	-25.9	-27.1	13.8	4.50e-06	0	44	0	3613392896	11	4151
2026-01-01 16:50:30.89	322.61	7.54	-26.0	-27.3	13.6	1.94e-05	0	44	0	3634364416	11	4205
2026-01-01 16:50:33.91	322.99	7.38	-26.1	-27.1	13.4	2.51e-05	0	44	0	3656384512	12	4051
2026-01-01 16:50:36.92	323.35	7.23	-26.3	-27.6	13.1	3.31e-05	0	44	0	3678404608	12	4159
2026-01-01 16:50:39.93	323.72	7.07	-26.4	-27.7	13.0	4.11e-05	0	44	0	3699376128	12	4214

#Closed at: 2026-01-01 16:50:42
#Recorded file [3703 MB]: D:/data/31010_260101_194207.dat