passes_logs/2026/01/01/R2M6_AANII_01/R2M6_AANII_01__20260101_095357_FENGYUN_3D_rec.log

#Pass ID: 20260101_095357_FENGYUN 3D
#Satellite: FENGYUN 3D
#Configuration: FENGYUN 3D
#almurnet v.1.7.20240730
#Start time: 2026-01-01 09:53:56

#Version: 2.2.20231116
#Station: R2M6_AANII_01
#Location: 30.233357 lon 59.946436 lat
#TLE: 1 43010U 17072A   25365.48527867  .00000101  00000+0  69745-4 0  9999
#TLE: 2 43010  98.9911 332.0787 0001837 134.4748 225.6578 14.19689788421190

#Time	Az	El	Level	Level2	SNR	BER	BlckErr	Temp	State	Recorded	gain1	gain2
2026-01-01 09:53:56.80	84.64	6.97	-31.3	-37.2	4.3	8.31e-01	0	41	0	0	23	7090
2026-01-01 09:53:59.80	84.31	7.14	-29.9	-33.1	8.4	3.96e-02	0	41	0	5242880	21	5195
2026-01-01 09:54:02.81	83.97	7.31	-29.8	-32.7	8.7	2.94e-02	0	41	0	22020096	21	5027
2026-01-01 09:54:05.83	83.62	7.48	-30.2	-34.4	7.9	5.31e-02	0	41	0	38797312	20	5859
2026-01-01 09:54:08.85	83.28	7.65	-29.1	-31.6	10.3	5.63e-03	0	41	0	55574528	19	4813
2026-01-01 09:54:11.84	82.93	7.82	-27.7	-29.5	12.6	1.01e-04	0	41	0	73400320	16	4436
2026-01-01 09:54:14.86	82.57	7.99	-26.6	-28.1	13.9	1.10e-06	0	41	0	90177536	14	4250
2026-01-01 09:54:17.88	82.21	8.16	-26.6	-28.0	14.0	0.00e+00	0	41	0	106954752	14	4226
2026-01-01 09:54:20.89	81.85	8.33	-26.4	-27.6	14.2	0.00e+00	0	41	0	123731968	14	4134
2026-01-01 09:54:23.90	81.48	8.51	-26.5	-27.7	14.2	0.00e+00	0	42	0	140509184	14	4142
2026-01-01 09:54:26.91	81.11	8.68	-26.2	-27.7	14.5	0.00e+00	0	41	0	158334976	13	4244
2026-01-01 09:54:29.91	80.73	8.85	-26.4	-28.0	14.3	1.10e-06	0	42	0	175112192	13	4329
2026-01-01 09:54:32.91	80.35	9.02	-26.3	-27.8	14.4	0.00e+00	0	42	0	191889408	13	4285
2026-01-01 09:54:35.93	79.97	9.19	-26.4	-28.1	14.3	0.00e+00	0	42	0	208666624	13	4377
2026-01-01 09:54:38.93	79.58	9.36	-26.6	-28.4	14.1	2.20e-06	0	42	0	225443840	13	4454
2026-01-01 09:54:41.94	79.18	9.53	-26.4	-28.1	14.3	0.00e+00	0	42	0	242221056	13	4361
2026-01-01 09:54:44.96	78.78	9.70	-26.3	-27.9	14.5	4.50e-06	0	42	0	258998272	13	4296
2026-01-01 09:54:47.97	78.38	9.87	-26.2	-27.5	14.7	4.50e-06	0	42	0	275775488	13	4201
2026-01-01 09:54:50.98	77.97	10.04	-26.2	-27.6	14.7	2.20e-06	0	42	0	293601280	13	4222
2026-01-01 09:54:53.99	77.55	10.21	-26.0	-27.2	14.9	6.80e-06	0	42	0	310378496	13	4107
2026-01-01 09:54:56.99	77.13	10.38	-26.1	-27.3	14.8	3.40e-06	0	42	0	327155712	13	4136
2026-01-01 09:55:00.00	76.71	10.55	-25.9	-26.9	15.1	0.00e+00	0	42	0	343932928	13	4046
2026-01-01 09:55:03.01	76.28	10.72	-26.0	-27.0	15.1	0.00e+00	0	42	0	360710144	13	4059
2026-01-01 09:55:06.01	75.85	10.89	-25.8	-26.7	15.2	0.00e+00	0	42	0	377487360	13	3990
2026-01-01 09:55:09.01	75.41	11.06	-25.9	-27.3	15.2	0.00e+00	0	42	0	394264576	12	4240
2026-01-01 09:55:12.02	74.97	11.22	-25.9	-27.3	15.2	0.00e+00	0	42	0	411041792	12	4248
2026-01-01 09:55:15.03	74.52	11.39	-25.9	-27.3	15.2	0.00e+00	0	42	0	428867584	12	4238
2026-01-01 09:55:18.03	74.06	11.56	-25.8	-27.1	15.3	0.00e+00	0	42	0	445644800	12	4199
2026-01-01 09:55:21.04	73.60	11.72	-26.0	-27.6	15.1	0.00e+00	0	42	0	462422016	12	4310
2026-01-01 09:55:24.05	73.14	11.89	-25.7	-27.0	15.5	0.00e+00	0	43	0	479199232	12	4152
2026-01-01 09:55:27.04	72.67	12.05	-25.7	-27.0	15.4	0.00e+00	0	42	0	495976448	12	4161
2026-01-01 09:55:30.06	72.19	12.21	-25.6	-26.8	15.5	0.00e+00	0	42	0	512753664	12	4112
2026-01-01 09:55:33.08	71.71	12.38	-25.4	-26.3	15.8	0.00e+00	0	43	0	529530880	12	3989
2026-01-01 09:55:36.08	71.22	12.54	-25.3	-26.6	16.0	0.00e+00	0	42	0	546308096	11	4153
2026-01-01 09:55:39.09	70.73	12.70	-25.3	-26.6	16.1	0.00e+00	0	42	0	564133888	11	4153
2026-01-01 09:55:42.11	70.23	12.86	-25.3	-26.5	16.1	0.00e+00	0	43	0	580911104	11	4134
2026-01-01 09:55:45.12	69.73	13.02	-25.4	-26.7	16.0	0.00e+00	0	43	0	597688320	11	4191
2026-01-01 09:55:48.13	69.22	13.18	-25.7	-27.3	15.7	0.00e+00	0	43	0	614465536	11	4335
2026-01-01 09:55:51.13	68.71	13.33	-25.4	-26.7	16.1	0.00e+00	0	43	0	631242752	11	4169
2026-01-01 09:55:54.13	68.19	13.49	-25.3	-26.3	16.3	0.00e+00	0	43	0	648019968	11	4078
2026-01-01 09:55:57.15	67.66	13.64	-25.4	-26.6	16.2	0.00e+00	0	43	0	665845760	11	4139
2026-01-01 09:56:00.15	67.14	13.79	-25.6	-27.0	16.0	0.00e+00	0	43	0	682622976	11	4253
2026-01-01 09:56:03.17	66.60	13.94	-25.4	-26.5	16.3	0.00e+00	0	43	0	699400192	11	4124
2026-01-01 09:56:06.18	66.06	14.09	-25.4	-26.7	16.2	0.00e+00	0	43	0	716177408	11	4158
2026-01-01 09:56:09.19	65.51	14.24	-25.7	-27.2	15.9	0.00e+00	0	43	0	732954624	11	4305
2026-01-01 09:56:12.20	64.96	14.38	-25.8	-27.4	15.8	0.00e+00	0	43	0	749731840	11	4351
2026-01-01 09:56:15.21	64.40	14.53	-25.6	-27.0	16.0	0.00e+00	0	43	0	766509056	11	4242
2026-01-01 09:56:18.21	63.84	14.67	-25.5	-26.9	16.1	0.00e+00	0	43	0	784334848	11	4213
2026-01-01 09:56:21.22	63.27	14.81	-25.2	-26.1	16.5	0.00e+00	0	43	0	801112064	11	4016
2026-01-01 09:56:24.22	62.70	14.94	-25.1	-26.0	16.6	0.00e+00	0	43	0	817889280	11	3982
2026-01-01 09:56:27.24	62.12	15.08	-25.1	-26.1	16.6	0.00e+00	0	43	0	834666496	11	4003
2026-01-01 09:56:30.25	61.53	15.21	-24.9	-25.5	16.9	0.00e+00	0	43	0	851443712	11	3863
2026-01-01 09:56:33.27	60.94	15.34	-24.8	-25.9	17.0	0.00e+00	0	43	0	868220928	10	4053
2026-01-01 09:56:36.27	60.35	15.47	-24.7	-25.5	17.2	0.00e+00	0	43	0	884998144	10	3966
2026-01-01 09:56:39.29	59.74	15.60	-24.5	-25.1	17.4	0.00e+00	0	43	0	902823936	10	3865
2026-01-01 09:56:42.28	59.14	15.72	-24.6	-25.3	17.3	0.00e+00	0	43	0	919601152	10	3908
2026-01-01 09:56:45.31	58.53	15.84	-24.5	-25.2	17.3	0.00e+00	0	43	0	936378368	10	3901
2026-01-01 09:56:48.32	57.91	15.96	-24.5	-25.2	17.4	0.00e+00	0	43	0	953155584	10	3896
2026-01-01 09:56:51.33	57.29	16.08	-24.2	-25.1	17.7	0.00e+00	0	43	0	969932800	9	3969
2026-01-01 09:56:54.33	56.67	16.19	-24.1	-24.9	17.8	0.00e+00	0	43	0	986710016	9	3928
2026-01-01 09:56:57.33	56.04	16.30	-24.3	-25.2	17.6	0.00e+00	0	43	0	1003487232	9	3997
2026-01-01 09:57:00.34	55.41	16.40	-24.5	-25.6	17.4	0.00e+00	0	43	0	1021313024	9	4094
2026-01-01 09:57:03.36	54.77	16.51	-24.6	-25.8	17.3	0.00e+00	0	43	0	1038090240	9	4164
2026-01-01 09:57:06.38	54.12	16.61	-24.6	-25.9	17.3	0.00e+00	0	43	0	1054867456	9	4162
2026-01-01 09:57:09.38	53.48	16.70	-24.6	-25.9	17.3	0.00e+00	0	43	0	1071644672	9	4175
2026-01-01 09:57:12.39	52.83	16.80	-24.3	-25.3	17.6	0.00e+00	0	43	0	1088421888	9	4030
2026-01-01 09:57:15.40	52.17	16.89	-24.6	-25.9	17.3	0.00e+00	0	43	0	1105199104	9	4167
2026-01-01 09:57:18.41	51.51	16.97	-24.5	-25.6	17.4	0.00e+00	0	43	0	1123024896	9	4100
2026-01-01 09:57:21.41	50.85	17.05	-24.4	-25.4	17.5	0.00e+00	0	43	0	1139802112	9	4047
2026-01-01 09:57:24.42	50.19	17.13	-24.2	-25.1	17.7	0.00e+00	0	43	0	1156579328	9	3978
2026-01-01 09:57:27.43	49.52	17.21	-24.3	-25.3	17.6	0.00e+00	0	43	0	1173356544	9	4018
2026-01-01 09:57:30.43	48.84	17.28	-24.2	-25.0	17.7	0.00e+00	0	43	0	1190133760	9	3963
2026-01-01 09:57:33.42	48.17	17.35	-24.1	-24.7	17.9	0.00e+00	0	43	0	1206910976	9	3878
2026-01-01 09:57:36.42	47.50	17.41	-24.3	-25.1	17.7	0.00e+00	0	43	0	1223688192	9	3980
2026-01-01 09:57:39.44	46.81	17.47	-24.4	-25.5	17.5	0.00e+00	0	43	0	1240465408	9	4078
2026-01-01 09:57:42.44	46.13	17.53	-24.2	-25.1	17.7	0.00e+00	0	43	0	1258291200	9	3974
2026-01-01 09:57:45.45	45.44	17.58	-24.3	-25.2	17.6	0.00e+00	0	43	0	1275068416	9	4003
2026-01-01 09:57:48.46	44.75	17.62	-24.2	-25.0	17.8	0.00e+00	0	43	0	1291845632	9	3954
2026-01-01 09:57:51.47	44.06	17.67	-24.2	-25.0	17.8	0.00e+00	0	43	0	1308622848	9	3951
2026-01-01 09:57:54.47	43.37	17.71	-24.2	-25.0	17.7	0.00e+00	0	43	0	1325400064	9	3947
2026-01-01 09:57:57.48	42.68	17.74	-24.0	-24.6	18.0	0.00e+00	0	43	0	1342177280	9	3847
2026-01-01 09:58:00.49	41.98	17.77	-24.1	-24.8	17.9	0.00e+00	0	43	0	1358954496	9	3904
2026-01-01 09:58:03.50	41.28	17.80	-24.2	-24.9	17.8	0.00e+00	0	43	0	1375731712	9	3937
2026-01-01 09:58:06.51	40.59	17.82	-23.9	-24.3	18.1	0.00e+00	0	43	0	1393557504	9	3781
2026-01-01 09:58:09.52	39.89	17.84	-23.8	-24.2	18.2	0.00e+00	0	43	0	1410334720	9	3766
2026-01-01 09:58:12.53	39.19	17.85	-23.8	-24.3	18.1	0.00e+00	0	43	0	1427111936	9	3774
2026-01-01 09:58:15.54	38.49	17.86	-24.0	-24.6	18.0	0.00e+00	0	43	0	1443889152	9	3849
2026-01-01 09:58:18.55	37.78	17.86	-24.2	-24.9	17.8	0.00e+00	0	43	0	1460666368	9	3932
2026-01-01 09:58:21.55	37.09	17.86	-24.2	-25.1	17.7	0.00e+00	0	43	0	1477443584	9	3979
2026-01-01 09:58:24.54	36.39	17.86	-24.1	-24.7	17.9	0.00e+00	0	43	0	1494220800	9	3890
2026-01-01 09:58:27.55	35.69	17.85	-24.0	-24.5	18.0	0.00e+00	0	43	0	1510998016	9	3830
2026-01-01 09:58:30.56	34.99	17.84	-23.9	-24.8	18.1	0.00e+00	0	43	0	1528823808	8	4013
2026-01-01 09:58:33.57	34.29	17.82	-23.8	-24.7	18.1	0.00e+00	0	43	0	1545601024	8	3997
2026-01-01 09:58:36.58	33.59	17.80	-24.1	-25.3	17.8	0.00e+00	0	43	0	1562378240	8	4136
2026-01-01 09:58:39.60	32.89	17.77	-24.1	-25.2	17.9	0.00e+00	0	43	0	1579155456	8	4120
2026-01-01 09:58:42.62	32.20	17.74	-24.2	-25.6	17.6	0.00e+00	0	43	0	1595932672	8	4218
2026-01-01 09:58:45.62	31.50	17.70	-24.0	-25.1	17.9	0.00e+00	0	43	0	1612709888	8	4084
2026-01-01 09:58:48.61	30.82	17.66	-24.0	-25.0	18.0	0.00e+00	0	43	0	1629487104	8	4060
2026-01-01 09:58:51.62	30.13	17.62	-24.0	-25.1	18.0	0.00e+00	0	43	0	1646264320	8	4075
2026-01-01 09:58:54.62	29.44	17.57	-23.9	-24.9	18.0	0.00e+00	0	43	0	1664090112	8	4039
2026-01-01 09:58:57.64	28.75	17.52	-24.1	-25.2	17.9	0.00e+00	0	43	0	1680867328	8	4116
2026-01-01 09:59:00.64	28.07	17.46	-24.1	-25.4	17.8	0.00e+00	0	43	0	1697644544	8	4155
2026-01-01 09:59:03.64	27.39	17.41	-24.2	-25.4	17.8	0.00e+00	0	43	0	1714421760	8	4169
2026-01-01 09:59:06.66	26.71	17.34	-24.1	-25.3	17.8	0.00e+00	0	43	0	1731198976	8	4143
2026-01-01 09:59:09.66	26.04	17.27	-24.3	-25.8	17.6	0.00e+00	0	43	0	1747976192	8	4270
2026-01-01 09:59:12.67	25.37	17.20	-24.2	-25.6	17.7	0.00e+00	0	43	0	1764753408	8	4201
2026-01-01 09:59:15.68	24.70	17.13	-24.0	-25.1	17.9	0.00e+00	0	43	0	1781530624	8	4082
2026-01-01 09:59:18.70	24.03	17.05	-24.0	-25.1	17.9	0.00e+00	0	43	0	1799356416	8	4096
2026-01-01 09:59:21.71	23.37	16.96	-23.9	-24.8	18.1	0.00e+00	0	43	0	1816133632	8	4016
2026-01-01 09:59:24.71	22.71	16.88	-24.3	-25.7	17.6	0.00e+00	0	43	0	1832910848	8	4234
2026-01-01 09:59:27.72	22.06	16.79	-24.2	-25.5	17.7	0.00e+00	0	43	0	1849688064	8	4189
2026-01-01 09:59:30.72	21.41	16.69	-24.3	-25.8	17.6	0.00e+00	0	43	0	1866465280	8	4256
2026-01-01 09:59:33.73	20.77	16.60	-24.4	-25.9	17.5	0.00e+00	0	43	0	1883242496	8	4287
2026-01-01 09:59:36.74	20.13	16.50	-24.2	-25.6	17.7	0.00e+00	0	43	0	1901068288	8	4213
2026-01-01 09:59:39.75	19.49	16.39	-25.0	-26.5	17.4	0.00e+00	0	43	0	1917845504	9	4288
2026-01-01 09:59:42.75	18.86	16.29	-24.5	-25.6	17.4	0.00e+00	0	43	0	1934622720	9	4106
2026-01-01 09:59:45.76	18.23	16.18	-24.4	-25.5	17.5	0.00e+00	0	43	0	1951399936	9	4071
2026-01-01 09:59:48.76	17.61	16.07	-24.5	-25.6	17.4	0.00e+00	0	43	0	1968177152	9	4099
2026-01-01 09:59:51.77	16.99	15.95	-24.7	-26.2	17.1	0.00e+00	0	43	0	1984954368	9	4249
2026-01-01 09:59:54.78	16.38	15.83	-24.6	-25.8	17.2	0.00e+00	0	43	0	2001731584	9	4147
2026-01-01 09:59:57.78	15.77	15.71	-24.7	-26.0	17.2	0.00e+00	0	43	0	2018508800	9	4198
2026-01-01 10:00:00.79	15.17	15.59	-24.5	-25.7	17.3	0.00e+00	0	43	0	2036334592	9	4115
2026-01-01 10:00:03.79	14.57	15.46	-24.7	-26.0	17.1	0.00e+00	0	43	0	2053111808	9	4198
2026-01-01 10:00:06.81	13.98	15.33	-24.7	-26.0	17.1	0.00e+00	0	43	0	2069889024	9	4210
2026-01-01 10:00:09.83	13.39	15.20	-24.8	-26.4	16.9	0.00e+00	0	43	0	2086666240	9	4310
2026-01-01 10:00:12.84	12.81	15.07	-24.8	-26.3	17.0	0.00e+00	0	43	0	2103443456	9	4286
2026-01-01 10:00:15.83	12.23	14.94	-24.7	-26.0	17.1	0.00e+00	0	43	0	2120220672	9	4191
2026-01-01 10:00:18.85	11.66	14.80	-24.9	-26.6	16.8	0.00e+00	0	43	0	2138046464	9	4367
2026-01-01 10:00:21.86	11.09	14.66	-24.9	-26.5	16.8	0.00e+00	0	43	0	2154823680	9	4341
2026-01-01 10:00:24.88	10.53	14.52	-24.9	-26.1	16.8	0.00e+00	0	44	0	2171600896	10	4106
2026-01-01 10:00:27.89	9.97	14.37	-25.1	-26.4	16.7	0.00e+00	0	43	0	2188378112	10	4188
2026-01-01 10:00:30.89	9.43	14.23	-25.0	-26.3	16.7	0.00e+00	0	43	0	2205155328	10	4174
2026-01-01 10:00:33.90	8.88	14.08	-25.2	-26.7	16.5	0.00e+00	0	43	0	2221932544	10	4265
2026-01-01 10:00:36.92	8.34	13.93	-25.1	-26.5	16.6	0.00e+00	0	43	0	2238709760	10	4219
2026-01-01 10:00:39.93	7.81	13.78	-25.0	-26.3	16.7	0.00e+00	0	43	0	2255486976	10	4179
2026-01-01 10:00:42.95	7.28	13.63	-25.1	-26.5	16.6	0.00e+00	0	43	0	2273312768	10	4212
2026-01-01 10:00:45.96	6.75	13.48	-24.9	-26.0	16.8	0.00e+00	0	43	0	2290089984	10	4097
2026-01-01 10:00:48.96	6.24	13.32	-25.2	-26.7	16.5	0.00e+00	0	43	0	2306867200	10	4276
2026-01-01 10:00:51.97	5.73	13.17	-25.3	-26.8	16.4	0.00e+00	0	43	0	2323644416	10	4313
2026-01-01 10:00:54.97	5.22	13.01	-25.1	-26.5	16.6	0.00e+00	0	43	0	2340421632	10	4218
2026-01-01 10:00:57.99	4.72	12.85	-25.5	-27.3	16.1	0.00e+00	0	43	0	2358247424	10	4450
2026-01-01 10:01:01.00	4.22	12.69	-25.4	-26.6	16.2	0.00e+00	0	43	0	2375024640	11	4133
2026-01-01 10:01:04.01	3.73	12.53	-25.4	-26.7	16.2	0.00e+00	0	43	0	2391801856	11	4155
2026-01-01 10:01:07.03	3.25	12.37	-25.7	-27.3	15.8	0.00e+00	0	43	0	2408579072	11	4335
2026-01-01 10:01:10.03	2.77	12.21	-25.8	-27.4	15.7	0.00e+00	0	43	0	2425356288	11	4361
2026-01-01 10:01:13.04	2.30	12.04	-25.7	-27.3	15.8	0.00e+00	0	43	0	2442133504	11	4335
2026-01-01 10:01:16.05	1.83	11.88	-25.9	-27.8	15.4	0.00e+00	0	43	0	2458910720	11	4473
2026-01-01 10:01:19.07	1.36	11.71	-25.8	-27.6	15.6	0.00e+00	0	43	0	2475687936	11	4425
2026-01-01 10:01:22.07	0.91	11.55	-25.7	-27.3	15.7	0.00e+00	0	43	0	2493513728	11	4338
2026-01-01 10:01:25.08	0.46	11.38	-26.0	-27.9	15.4	0.00e+00	0	43	0	2510290944	11	4497
2026-01-01 10:01:28.09	0.01	11.22	-26.2	-27.9	15.1	0.00e+00	0	43	0	2527068160	12	4390
2026-01-01 10:01:31.10	359.57	11.05	-25.8	-27.1	15.5	0.00e+00	0	43	0	2543845376	12	4161
2026-01-01 10:01:34.11	359.13	10.88	-26.1	-27.6	15.2	0.00e+00	0	43	0	2560622592	12	4311
2026-01-01 10:01:37.11	358.70	10.71	-26.1	-27.6	15.2	0.00e+00	0	43	0	2577399808	12	4304
2026-01-01 10:01:40.12	358.27	10.55	-25.9	-27.3	15.4	0.00e+00	0	44	0	2594177024	12	4223
2026-01-01 10:01:43.12	357.85	10.38	-26.1	-27.8	15.1	0.00e+00	0	43	0	2610954240	12	4350
2026-01-01 10:01:46.14	357.44	10.21	-26.0	-27.6	15.2	0.00e+00	0	43	0	2628780032	12	4297
2026-01-01 10:01:49.16	357.02	10.04	-26.0	-27.4	15.3	0.00e+00	0	43	0	2645557248	12	4250
2026-01-01 10:01:52.17	356.62	9.87	-26.3	-28.1	14.9	0.00e+00	0	43	0	2662334464	12	4446
2026-01-01 10:01:55.17	356.21	9.70	-26.7	-28.5	14.3	0.00e+00	0	43	0	2679111680	13	4448
2026-01-01 10:01:58.18	355.82	9.53	-26.4	-27.9	14.7	0.00e+00	0	43	0	2695888896	13	4278
2026-01-01 10:02:01.18	355.43	9.36	-26.4	-27.9	14.6	0.00e+00	0	43	0	2712666112	13	4291
2026-01-01 10:02:04.19	355.04	9.19	-26.5	-28.0	14.6	0.00e+00	0	43	0	2730491904	13	4309
2026-01-01 10:02:07.21	354.65	9.01	-26.4	-27.9	14.6	0.00e+00	0	43	0	2747269120	13	4290
2026-01-01 10:02:10.22	354.28	8.84	-26.6	-28.4	14.3	0.00e+00	0	43	0	2764046336	13	4426
2026-01-01 10:02:13.22	353.90	8.67	-26.6	-28.3	14.4	2.20e-06	0	43	0	2780823552	13	4394
2026-01-01 10:02:16.23	353.53	8.50	-26.5	-28.2	14.4	0.00e+00	0	43	0	2797600768	13	4369
2026-01-01 10:02:19.25	353.17	8.33	-26.4	-27.9	14.5	0.00e+00	0	43	0	2814377984	13	4292
2026-01-01 10:02:22.25	352.81	8.16	-26.5	-28.2	14.4	1.10e-06	0	44	0	2831155200	13	4375
2026-01-01 10:02:25.26	352.45	7.99	-26.7	-28.5	14.2	1.10e-06	0	44	0	2848980992	13	4462
2026-01-01 10:02:28.27	352.10	7.82	-26.6	-28.5	14.2	0.00e+00	0	43	0	2865758208	13	4444
2026-01-01 10:02:31.27	351.75	7.65	-26.7	-28.6	14.1	1.10e-06	0	43	0	2882535424	13	4481
2026-01-01 10:02:34.27	351.41	7.48	-26.8	-28.8	14.0	2.20e-06	0	43	0	2899312640	13	4539
2026-01-01 10:02:37.28	351.07	7.31	-27.1	-29.2	13.5	8.00e-06	0	43	0	2916089856	14	4541
2026-01-01 10:02:40.30	350.73	7.14	-26.9	-28.6	13.7	5.70e-06	0	43	0	2932867072	14	4390

#Closed at: 2026-01-01 10:02:43
#Recorded file [2940 MB]: D:/data/31010_260101_125358.dat