passes_logs/2026/01/01/R2M6_AANII_01/R2M6_AANII_01__20260101_125145_AQUA_rec.log

#Pass ID: 20260101_125145_AQUA
#Satellite: AQUA
#Configuration: AQUA
#almurnet v.1.7.20240730
#Start time: 2026-01-01 12:51:44

#Version: 2.2.20231116
#Station: R2M6_AANII_01
#Location: 30.233357 lon 59.946436 lat
#TLE: 1 27424U 02022A   25365.92641128  .00002078  00000+0  42628-3 0  9990
#TLE: 2 27424  98.4058 327.1196 0001962  94.7781 340.6230 14.61783896258835

#Time	Az	El	Level	Level2	SNR	BER	BlckErr	Temp	State	Recorded	gain1	gain2
2026-01-01 12:51:44.58	188.82	6.96	-30.3	-35.1	5.2	7.07e-01	0	40	0	0	22	6267
2026-01-01 12:51:47.58	189.01	7.19	-31.1	-36.8	13.9	6.12e-01	0	40	0	1572864	23	6947
2026-01-01 12:51:50.59	189.20	7.42	-30.8	-35.6	14.9	6.07e-01	0	41	0	7340032	23	6245
2026-01-01 12:51:53.58	189.40	7.66	-30.1	-33.9	16.6	6.08e-01	0	41	0	13107200	22	5525
2026-01-01 12:51:56.60	189.60	7.90	-29.8	-33.4	17.2	6.06e-01	0	41	0	18350080	21	5438
2026-01-01 12:51:59.61	189.80	8.14	-29.7	-32.8	17.6	6.07e-01	0	41	0	24117248	21	5197
2026-01-01 12:52:02.62	190.01	8.39	-29.7	-32.8	17.7	6.08e-01	0	41	0	29884416	21	5183
2026-01-01 12:52:05.64	190.22	8.63	-29.6	-32.5	18.0	6.06e-01	0	41	0	35651584	21	5056
2026-01-01 12:52:08.65	190.43	8.88	-29.6	-32.5	18.0	6.06e-01	0	41	0	40894464	21	5056
2026-01-01 12:52:11.65	190.65	9.13	-29.5	-32.4	18.0	6.08e-01	0	41	0	46661632	21	5026
2026-01-01 12:52:14.67	190.87	9.39	-29.5	-32.2	18.2	6.03e-01	0	42	0	52428800	21	4934
2026-01-01 12:52:17.67	191.10	9.65	-29.6	-32.5	18.1	6.06e-01	0	41	0	58195968	21	5025
2026-01-01 12:52:20.69	191.33	9.91	-29.5	-32.3	18.2	6.07e-01	0	41	0	63438848	21	4976
2026-01-01 12:52:23.69	191.56	10.17	-29.4	-32.5	18.4	6.05e-01	0	42	0	69206016	20	5129
2026-01-01 12:52:26.69	191.80	10.43	-29.5	-32.7	18.3	6.05e-01	0	42	0	74973184	20	5230
2026-01-01 12:52:29.71	192.04	10.70	-29.3	-32.2	18.7	6.07e-01	0	42	0	80740352	20	5010
2026-01-01 12:52:32.72	192.29	10.97	-29.3	-32.3	18.6	6.07e-01	0	42	0	85983232	20	5041
2026-01-01 12:52:35.72	192.54	11.24	-29.4	-32.4	18.5	6.05e-01	0	42	0	91750400	20	5113
2026-01-01 12:52:38.73	192.80	11.52	-29.3	-32.2	18.7	6.06e-01	0	42	0	97517568	20	5029
2026-01-01 12:52:41.73	193.06	11.80	-29.3	-32.1	18.8	6.07e-01	0	42	0	103284736	20	4979
2026-01-01 12:52:44.72	193.32	12.08	-29.3	-32.1	18.8	6.07e-01	0	42	0	108527616	20	4961
2026-01-01 12:52:47.73	193.60	12.36	-29.2	-31.9	18.9	6.07e-01	0	42	0	114294784	20	4910
2026-01-01 12:52:50.73	193.87	12.65	-29.2	-31.9	18.9	6.07e-01	0	42	0	120061952	20	4913
2026-01-01 12:52:53.73	194.16	12.94	-29.2	-31.7	19.1	6.07e-01	0	42	0	125304832	20	4828
2026-01-01 12:52:56.73	194.45	13.24	-29.1	-31.6	19.1	6.06e-01	0	42	0	131072000	20	4797
2026-01-01 12:52:59.73	194.74	13.53	-29.2	-31.9	19.0	6.07e-01	0	42	0	136839168	20	4894
2026-01-01 12:53:02.74	195.04	13.84	-29.2	-31.9	19.0	6.07e-01	0	42	0	142606336	20	4882
2026-01-01 12:53:05.75	195.35	14.14	-29.1	-31.6	19.2	6.06e-01	0	42	0	148373504	20	4782
2026-01-01 12:53:08.76	195.67	14.45	-29.2	-31.8	19.1	6.06e-01	0	42	0	153616384	20	4858
2026-01-01 12:53:11.77	195.99	14.76	-29.0	-31.3	19.4	6.09e-01	0	42	0	159383552	20	4678
2026-01-01 12:53:14.78	196.32	15.08	-28.9	-31.1	19.6	6.05e-01	0	42	0	165150720	20	4605
2026-01-01 12:53:17.79	196.65	15.40	-28.9	-31.1	19.6	6.08e-01	0	42	0	170917888	20	4603
2026-01-01 12:53:20.81	197.00	15.73	-29.0	-31.1	19.6	6.06e-01	0	42	0	176160768	20	4620
2026-01-01 12:53:23.82	197.35	16.05	-28.9	-31.0	19.6	6.07e-01	0	42	0	181927936	20	4578
2026-01-01 12:53:26.82	197.71	16.39	-29.0	-31.2	19.6	6.07e-01	0	42	0	187695104	20	4645
2026-01-01 12:53:29.84	198.08	16.72	-28.9	-31.0	19.7	6.06e-01	0	42	0	193462272	20	4571
2026-01-01 12:53:32.85	198.46	17.06	-29.1	-31.8	19.6	6.07e-01	0	42	0	198705152	19	4936
2026-01-01 12:53:35.85	198.84	17.41	-29.0	-31.6	19.8	6.07e-01	0	43	0	204472320	19	4878
2026-01-01 12:53:38.87	199.24	17.76	-29.0	-31.7	19.7	6.07e-01	0	43	0	210239488	19	4900
2026-01-01 12:53:41.87	199.64	18.11	-29.0	-31.5	19.8	6.06e-01	0	43	0	216006656	19	4841
2026-01-01 12:53:44.87	200.05	18.46	-29.3	-32.3	19.4	6.07e-01	0	43	0	221249536	19	5086
2026-01-01 12:53:47.87	200.48	18.82	-29.0	-31.6	19.8	6.05e-01	0	43	0	227016704	19	4849
2026-01-01 12:53:50.88	200.91	19.19	-29.0	-31.6	19.8	6.05e-01	0	43	0	232783872	19	4866
2026-01-01 12:53:53.89	201.36	19.56	-29.1	-31.9	19.7	6.06e-01	0	43	0	238551040	19	4955
2026-01-01 12:53:56.90	201.81	19.94	-29.0	-31.5	20.0	6.05e-01	0	43	0	243793920	19	4808
2026-01-01 12:53:59.90	202.28	20.31	-29.0	-31.6	19.9	6.06e-01	0	43	0	249561088	19	4860
2026-01-01 12:54:02.91	202.76	20.70	-29.2	-32.0	19.7	6.06e-01	0	43	0	255328256	19	4983
2026-01-01 12:54:05.92	203.25	21.09	-29.2	-32.0	19.7	6.04e-01	0	43	0	261095424	19	4980
2026-01-01 12:54:08.93	203.76	21.48	-29.0	-31.6	19.9	6.06e-01	0	43	0	266862592	19	4858
2026-01-01 12:54:11.95	204.28	21.88	-29.1	-31.7	19.9	6.05e-01	0	43	0	272105472	19	4874
2026-01-01 12:54:14.96	204.81	22.28	-29.3	-32.3	19.6	6.08e-01	0	43	0	277872640	19	5079
2026-01-01 12:54:17.96	205.36	22.68	-29.2	-32.0	19.7	6.07e-01	0	42	0	283639808	19	4977
2026-01-01 12:54:20.96	205.92	23.09	-29.1	-31.7	19.9	6.06e-01	0	43	0	289406976	19	4880
2026-01-01 12:54:23.96	206.50	23.51	-29.0	-31.5	20.0	6.08e-01	0	43	0	294649856	19	4816
2026-01-01 12:54:26.97	207.09	23.93	-29.1	-31.7	20.0	6.05e-01	0	43	0	300417024	19	4879
2026-01-01 12:54:29.97	207.70	24.35	-29.1	-31.8	20.0	6.09e-01	0	43	0	306184192	19	4900
2026-01-01 12:54:32.98	208.33	24.78	-29.1	-31.9	19.9	6.06e-01	0	43	0	311951360	19	4934
2026-01-01 12:54:35.99	208.97	25.21	-29.1	-31.6	20.0	6.06e-01	0	43	0	317194240	19	4850
2026-01-01 12:54:38.99	209.63	25.64	-29.0	-31.6	20.1	6.07e-01	0	43	0	322961408	19	4838
2026-01-01 12:54:41.99	210.31	26.08	-29.2	-32.0	19.9	6.08e-01	0	43	0	328728576	19	4958
2026-01-01 12:54:45.00	211.01	26.53	-29.1	-31.8	20.0	6.07e-01	0	43	0	334495744	19	4902
2026-01-01 12:54:48.01	211.74	26.97	-29.3	-32.2	19.8	6.06e-01	0	43	0	339738624	19	5030
2026-01-01 12:54:51.01	212.48	27.42	-29.2	-31.9	19.9	6.07e-01	0	43	0	345505792	19	4951
2026-01-01 12:54:54.02	213.24	27.88	-29.1	-31.6	20.1	6.06e-01	0	43	0	351272960	19	4840
2026-01-01 12:54:57.03	214.03	28.33	-29.0	-31.5	20.2	6.05e-01	0	43	0	357040128	19	4805
2026-01-01 12:55:00.04	214.84	28.79	-29.0	-31.5	20.2	6.04e-01	0	43	0	362283008	19	4783
2026-01-01 12:55:03.06	215.67	29.25	-29.0	-31.4	20.3	6.07e-01	0	43	0	368050176	19	4756
2026-01-01 12:55:06.08	216.54	29.72	-29.0	-31.3	20.3	6.05e-01	0	43	0	373817344	19	4742
2026-01-01 12:55:09.08	217.42	30.18	-29.0	-31.6	20.2	6.07e-01	0	43	0	379584512	19	4808
2026-01-01 12:55:12.09	218.33	30.64	-29.0	-31.5	20.2	6.06e-01	0	43	0	384827392	19	4783
2026-01-01 12:55:15.10	219.26	31.10	-29.1	-31.6	20.2	6.06e-01	0	43	0	390594560	19	4833
2026-01-01 12:55:18.11	220.23	31.57	-29.0	-31.6	20.2	6.09e-01	0	43	0	396361728	19	4805
2026-01-01 12:55:21.13	221.22	32.03	-29.1	-31.6	20.2	6.06e-01	0	43	0	402128896	19	4808
2026-01-01 12:55:24.13	222.24	32.49	-29.4	-32.5	19.7	6.06e-01	0	43	0	407896064	19	5120
2026-01-01 12:55:27.13	223.29	32.95	-29.4	-31.9	19.7	6.04e-01	0	43	0	413138944	20	4833
2026-01-01 12:55:30.14	224.37	33.40	-29.5	-32.1	19.5	6.07e-01	0	43	0	418906112	20	4893
2026-01-01 12:55:33.15	225.48	33.85	-29.2	-31.4	20.0	6.07e-01	0	43	0	424673280	20	4659
2026-01-01 12:55:36.16	226.63	34.30	-29.3	-31.8	19.8	6.07e-01	0	43	0	429916160	20	4784
2026-01-01 12:55:39.16	227.80	34.73	-29.5	-32.2	19.5	6.05e-01	0	43	0	435683328	20	4924
2026-01-01 12:55:42.18	229.01	35.17	-29.2	-31.6	19.9	6.04e-01	0	43	0	441450496	20	4713
2026-01-01 12:55:45.18	230.25	35.59	-29.3	-31.7	19.9	6.05e-01	0	43	0	447217664	20	4757
2026-01-01 12:55:48.18	231.52	36.01	-29.2	-31.5	20.0	6.08e-01	0	43	0	452984832	20	4679
2026-01-01 12:55:51.20	232.83	36.41	-29.3	-31.7	19.9	6.08e-01	0	43	0	458227712	20	4734
2026-01-01 12:55:54.19	234.16	36.80	-29.3	-31.7	19.9	6.04e-01	0	43	0	463994880	20	4728
2026-01-01 12:55:57.20	235.53	37.19	-29.5	-32.1	19.7	6.07e-01	0	43	0	469762048	20	4884
2026-01-01 12:56:00.21	236.93	37.55	-29.3	-31.7	19.8	6.04e-01	0	43	0	475004928	20	4754
2026-01-01 12:56:03.22	238.36	37.91	-29.3	-31.6	19.9	6.06e-01	0	43	0	480772096	20	4715
2026-01-01 12:56:06.24	239.83	38.25	-29.3	-31.7	19.9	6.04e-01	0	43	0	486539264	20	4755
2026-01-01 12:56:09.25	241.33	38.57	-29.3	-31.5	20.0	6.05e-01	0	43	0	492306432	20	4683
2026-01-01 12:56:12.26	242.85	38.87	-29.4	-32.0	19.7	6.08e-01	0	43	0	498073600	20	4849
2026-01-01 12:56:15.27	244.40	39.15	-29.2	-31.5	20.0	6.06e-01	0	43	0	503316480	20	4657
2026-01-01 12:56:18.29	245.99	39.41	-29.0	-30.8	20.4	6.07e-01	0	43	0	509083648	20	4449
2026-01-01 12:56:21.29	247.58	39.65	-29.3	-31.6	20.0	6.05e-01	0	43	0	514850816	20	4706
2026-01-01 12:56:24.30	249.21	39.86	-29.2	-31.3	20.1	6.08e-01	0	43	0	520617984	20	4619
2026-01-01 12:56:27.31	250.86	40.05	-29.1	-31.1	20.3	6.06e-01	0	43	0	525860864	20	4536
2026-01-01 12:56:30.31	252.51	40.22	-29.3	-31.6	20.0	6.06e-01	0	43	0	531628032	20	4691
2026-01-01 12:56:33.32	254.19	40.36	-29.3	-31.6	20.0	6.06e-01	0	43	0	537395200	20	4709
2026-01-01 12:56:36.33	255.89	40.47	-29.0	-31.0	20.4	6.08e-01	0	43	0	543162368	20	4501
2026-01-01 12:56:39.34	257.59	40.56	-29.2	-31.4	20.1	6.07e-01	0	43	0	548405248	20	4633
2026-01-01 12:56:42.35	259.30	40.62	-29.1	-31.2	20.3	6.07e-01	0	43	0	554172416	20	4565
2026-01-01 12:56:45.37	261.02	40.65	-29.1	-31.1	20.3	6.06e-01	0	43	0	559939584	20	4532
2026-01-01 12:56:48.37	262.73	40.65	-29.0	-30.9	20.4	6.05e-01	0	43	0	565706752	20	4470
2026-01-01 12:56:51.37	264.44	40.62	-29.1	-31.2	20.3	6.03e-01	0	43	0	571473920	20	4580
2026-01-01 12:56:54.37	266.15	40.57	-29.4	-32.0	19.8	6.07e-01	0	43	0	576716800	20	4824
2026-01-01 12:56:57.38	267.85	40.49	-29.5	-32.2	19.6	6.03e-01	0	43	0	582483968	20	4913
2026-01-01 12:57:00.39	269.54	40.39	-29.6	-32.4	19.6	6.06e-01	0	43	0	588251136	20	4959
2026-01-01 12:57:03.39	271.22	40.25	-29.2	-31.3	20.2	6.06e-01	0	43	0	593494016	20	4605
2026-01-01 12:57:06.40	272.89	40.09	-29.5	-32.1	19.8	6.08e-01	0	43	0	599261184	20	4863
2026-01-01 12:57:09.40	274.53	39.91	-29.4	-31.9	19.9	6.05e-01	0	43	0	605028352	20	4790
2026-01-01 12:57:12.40	276.15	39.70	-29.5	-32.2	19.7	6.06e-01	0	43	0	610795520	20	4881
2026-01-01 12:57:15.41	277.76	39.47	-29.3	-31.6	20.1	6.06e-01	0	43	0	616038400	20	4682
2026-01-01 12:57:18.41	279.33	39.22	-29.4	-31.8	20.0	6.05e-01	0	43	0	621805568	20	4752
2026-01-01 12:57:21.41	280.88	38.94	-29.4	-31.8	19.9	6.06e-01	0	43	0	627572736	20	4771
2026-01-01 12:57:24.41	282.41	38.65	-29.3	-31.7	20.0	6.08e-01	0	43	0	633339904	20	4738
2026-01-01 12:57:27.41	283.90	38.33	-29.2	-31.4	20.2	6.05e-01	0	43	0	638582784	20	4626
2026-01-01 12:57:30.42	285.37	38.00	-29.5	-32.0	19.8	6.06e-01	0	43	0	644349952	20	4843
2026-01-01 12:57:33.43	286.81	37.66	-29.3	-31.7	20.0	6.07e-01	0	43	0	650117120	20	4729
2026-01-01 12:57:36.44	288.22	37.29	-29.2	-31.3	20.2	6.05e-01	0	43	0	655884288	20	4598
2026-01-01 12:57:39.44	289.59	36.92	-29.1	-31.2	20.2	6.06e-01	0	43	0	661127168	20	4571
2026-01-01 12:57:42.44	290.92	36.53	-29.2	-31.5	20.1	6.08e-01	0	43	0	666894336	20	4650
2026-01-01 12:57:45.46	292.24	36.13	-29.2	-31.4	20.1	6.04e-01	0	43	0	672661504	20	4640
2026-01-01 12:57:48.47	293.52	35.71	-29.2	-31.3	20.2	6.08e-01	0	43	0	678428672	20	4594
2026-01-01 12:57:51.48	294.76	35.29	-28.9	-30.7	20.5	6.07e-01	0	43	0	683671552	20	4425
2026-01-01 12:57:54.49	295.97	34.87	-29.2	-31.8	20.2	6.06e-01	0	43	0	689438720	19	4866
2026-01-01 12:57:57.49	297.15	34.43	-29.1	-31.7	20.3	6.07e-01	0	43	0	695205888	19	4835
2026-01-01 12:58:00.51	298.30	33.99	-28.7	-30.6	20.9	6.07e-01	0	43	0	700973056	19	4482
2026-01-01 12:58:03.52	299.42	33.54	-28.8	-30.8	20.8	6.06e-01	0	43	0	706740224	19	4556
2026-01-01 12:58:06.52	300.50	33.09	-28.5	-30.3	21.1	6.06e-01	0	43	0	711983104	19	4384
2026-01-01 12:58:09.53	301.56	32.64	-28.5	-30.2	21.1	6.04e-01	0	43	0	717750272	19	4373
2026-01-01 12:58:12.53	302.58	32.18	-28.4	-30.0	21.2	6.08e-01	0	43	0	723517440	19	4308
2026-01-01 12:58:15.54	303.58	31.72	-28.5	-30.1	21.2	6.06e-01	0	43	0	729284608	19	4332
2026-01-01 12:58:18.55	304.55	31.26	-28.7	-30.5	20.9	6.07e-01	0	43	0	734527488	19	4472
2026-01-01 12:58:21.56	305.49	30.80	-28.6	-30.3	21.1	6.06e-01	0	43	0	740294656	19	4411
2026-01-01 12:58:24.55	306.40	30.34	-28.6	-30.5	20.9	6.06e-01	0	43	0	746061824	19	4461
2026-01-01 12:58:27.57	307.29	29.88	-28.7	-30.7	20.8	6.07e-01	0	43	0	751828992	19	4519
2026-01-01 12:58:30.58	308.15	29.42	-28.6	-30.4	21.0	6.07e-01	0	43	0	757071872	19	4417
2026-01-01 12:58:33.58	308.99	28.97	-28.9	-31.2	20.5	6.07e-01	0	43	0	762839040	19	4693
2026-01-01 12:58:36.59	309.80	28.51	-29.0	-31.4	20.4	6.01e-01	0	43	0	768606208	19	4747
2026-01-01 12:58:39.61	310.59	28.06	-29.0	-31.5	20.3	6.02e-01	0	43	0	774373376	19	4777
2026-01-01 12:58:42.61	311.36	27.61	-29.3	-32.1	20.0	6.02e-01	0	43	0	779616256	19	4963
2026-01-01 12:58:45.61	312.10	27.16	-29.0	-31.3	20.4	6.01e-01	0	43	0	785383424	19	4720
2026-01-01 12:58:48.62	312.83	26.71	-29.1	-31.7	20.2	6.04e-01	0	43	0	791150592	19	4846
2026-01-01 12:58:51.62	313.53	26.27	-29.1	-31.6	20.2	6.02e-01	0	43	0	796917760	19	4809
2026-01-01 12:58:54.63	314.22	25.84	-29.2	-32.0	20.0	6.01e-01	0	43	0	802160640	19	4959
2026-01-01 12:58:57.63	314.88	25.40	-29.3	-32.2	19.8	6.03e-01	0	43	0	807927808	19	5029
2026-01-01 12:59:00.64	315.53	24.97	-29.2	-32.0	20.0	6.02e-01	0	43	0	813694976	19	4933
2026-01-01 12:59:03.65	316.16	24.55	-29.3	-32.3	19.8	6.00e-01	0	43	0	819462144	19	5041
2026-01-01 12:59:06.66	316.78	24.12	-29.5	-32.6	19.6	6.01e-01	0	43	0	824705024	19	5173
2026-01-01 12:59:09.68	317.38	23.70	-29.3	-32.3	19.7	6.03e-01	0	43	0	830472192	19	5068
2026-01-01 12:59:12.68	317.96	23.29	-29.2	-31.9	19.9	6.03e-01	0	43	0	836239360	19	4910
2026-01-01 12:59:15.69	318.52	22.88	-29.2	-32.0	19.9	6.00e-01	0	43	0	842006528	19	4946
2026-01-01 12:59:18.71	319.07	22.48	-29.2	-32.0	19.9	6.01e-01	0	43	0	847249408	19	4949
2026-01-01 12:59:21.72	319.61	22.08	-29.3	-32.1	19.8	6.00e-01	0	43	0	853016576	19	5020
2026-01-01 12:59:24.72	320.13	21.68	-29.3	-32.2	19.7	6.01e-01	0	43	0	858783744	19	5030
2026-01-01 12:59:27.73	320.64	21.29	-29.1	-31.7	20.0	6.03e-01	0	43	0	864550912	19	4871
2026-01-01 12:59:30.74	321.14	20.90	-29.2	-32.0	19.8	6.02e-01	0	43	0	869793792	19	4960
2026-01-01 12:59:33.75	321.62	20.52	-29.1	-31.8	19.9	6.02e-01	0	43	0	875560960	19	4897
2026-01-01 12:59:36.75	322.09	20.14	-29.1	-31.9	19.9	6.01e-01	0	43	0	881328128	19	4921
2026-01-01 12:59:39.76	322.55	19.77	-29.2	-32.1	19.8	6.01e-01	0	43	0	887095296	19	5002
2026-01-01 12:59:42.77	323.00	19.40	-29.3	-32.4	19.5	6.03e-01	0	43	0	892338176	19	5120
2026-01-01 12:59:45.78	323.44	19.03	-29.3	-32.1	19.7	6.03e-01	0	43	0	898105344	19	5026
2026-01-01 12:59:48.79	323.86	18.67	-29.1	-31.9	19.8	6.01e-01	0	43	0	903872512	19	4927
2026-01-01 12:59:51.80	324.28	18.32	-28.9	-31.2	20.2	6.00e-01	0	43	0	909639680	19	4686
2026-01-01 12:59:54.81	324.69	17.97	-28.9	-31.2	20.2	6.01e-01	0	43	0	914882560	19	4693
2026-01-01 12:59:57.81	325.08	17.62	-29.0	-31.4	20.1	6.02e-01	0	43	0	920649728	19	4781
2026-01-01 13:00:00.82	325.47	17.28	-29.0	-31.7	19.9	6.01e-01	0	43	0	926416896	19	4863
2026-01-01 13:00:03.83	325.85	16.94	-29.0	-31.6	20.0	6.01e-01	0	43	0	932184064	19	4836
2026-01-01 13:00:06.83	326.22	16.60	-29.1	-31.8	19.7	6.03e-01	0	43	0	937951232	19	4925
2026-01-01 13:00:09.84	326.59	16.27	-29.0	-31.5	19.9	6.01e-01	0	43	0	943194112	19	4816
2026-01-01 13:00:12.85	326.94	15.94	-28.9	-31.3	20.1	5.99e-01	0	43	0	948961280	19	4729
2026-01-01 13:00:15.86	327.29	15.62	-29.0	-31.5	19.9	6.01e-01	0	43	0	954728448	19	4827
2026-01-01 13:00:18.87	327.63	15.30	-29.0	-31.5	19.8	6.00e-01	0	43	0	960495616	19	4826
2026-01-01 13:00:21.88	327.96	14.98	-29.0	-31.7	19.8	6.01e-01	0	43	0	965738496	19	4872
2026-01-01 13:00:24.89	328.28	14.67	-29.0	-31.7	19.7	6.00e-01	0	43	0	971505664	19	4881
2026-01-01 13:00:27.89	328.60	14.36	-29.2	-32.0	19.6	6.02e-01	0	43	0	977272832	19	5001
2026-01-01 13:00:30.89	328.91	14.06	-29.4	-32.6	19.2	6.03e-01	0	43	0	983040000	19	5207
2026-01-01 13:00:33.91	329.22	13.76	-29.1	-32.0	19.5	6.05e-01	0	43	0	988282880	19	5007
2026-01-01 13:00:36.92	329.51	13.46	-29.2	-32.2	19.3	6.02e-01	0	43	0	994050048	19	5066
2026-01-01 13:00:39.93	329.81	13.17	-29.1	-32.0	19.5	6.03e-01	0	43	0	999817216	19	4993
2026-01-01 13:00:42.93	330.09	12.88	-29.2	-32.2	19.3	6.03e-01	0	43	0	1005584384	19	5067
2026-01-01 13:00:45.94	330.37	12.59	-29.4	-32.7	19.0	6.01e-01	0	43	0	1010827264	19	5260
2026-01-01 13:00:48.96	330.65	12.30	-29.2	-32.3	19.2	6.01e-01	0	43	0	1016594432	19	5111
2026-01-01 13:00:51.96	330.92	12.02	-29.2	-32.3	19.2	6.00e-01	0	43	0	1022361600	19	5109
2026-01-01 13:00:54.97	331.18	11.74	-29.2	-32.1	19.3	6.02e-01	0	43	0	1028128768	19	5051
2026-01-01 13:00:57.97	331.44	11.47	-29.2	-32.2	19.1	6.02e-01	0	43	0	1033371648	19	5100
2026-01-01 13:01:00.99	331.70	11.19	-29.3	-32.6	18.9	6.01e-01	0	43	0	1039138816	19	5229
2026-01-01 13:01:04.00	331.95	10.92	-29.3	-32.5	19.0	6.02e-01	0	43	0	1044905984	19	5197
2026-01-01 13:01:07.01	332.20	10.66	-29.3	-32.5	19.0	5.99e-01	0	43	0	1050673152	19	5214
2026-01-01 13:01:10.02	332.44	10.39	-29.3	-32.6	18.9	6.05e-01	0	43	0	1056440320	19	5242
2026-01-01 13:01:13.03	332.67	10.13	-29.4	-32.9	18.7	6.00e-01	0	43	0	1061683200	19	5346
2026-01-01 13:01:16.04	332.91	9.87	-29.5	-33.1	18.5	5.99e-01	0	43	0	1067450368	19	5456
2026-01-01 13:01:19.04	333.13	9.62	-29.6	-32.9	18.2	6.01e-01	0	43	0	1073217536	20	5258
2026-01-01 13:01:22.04	333.36	9.36	-29.6	-32.8	18.3	6.02e-01	0	43	0	1078460416	20	5253
2026-01-01 13:01:25.05	333.58	9.11	-29.7	-33.2	18.1	6.00e-01	0	43	0	1084227584	20	5389
2026-01-01 13:01:28.06	333.79	8.86	-29.7	-33.3	18.0	6.03e-01	0	43	0	1089994752	20	5425
2026-01-01 13:01:31.07	334.01	8.62	-29.7	-33.2	18.0	6.00e-01	0	43	0	1095761920	20	5405
2026-01-01 13:01:34.08	334.22	8.37	-29.8	-33.5	17.7	6.01e-01	0	43	0	1101529088	20	5528
2026-01-01 13:01:37.09	334.42	8.13	-29.9	-33.8	17.5	6.01e-01	0	43	0	1106771968	20	5664
2026-01-01 13:01:40.09	334.62	7.90	-29.9	-33.9	17.5	6.01e-01	0	43	0	1112539136	20	5692
2026-01-01 13:01:43.10	334.82	7.66	-29.9	-34.1	17.3	6.01e-01	0	43	0	1118306304	20	5797
2026-01-01 13:01:46.10	335.02	7.42	-29.7	-33.5	17.6	6.01e-01	0	43	0	1123549184	20	5552
2026-01-01 13:01:49.11	335.21	7.19	-29.8	-33.6	17.5	6.01e-01	0	43	0	1129316352	20	5615

#Closed at: 2026-01-01 13:01:52
#Recorded file [1131 MB]: D:/data/31010_260101_155146.dat