passes_logs/2026/01/01/R2M6_AANII_01/R2M6_AANII_01__20260101_234849_NOAA_21_JPSS-2_rec.log

#Pass ID: 20260101_234849_NOAA 21 (JPSS-2)
#Satellite: NOAA 21 (JPSS-2)
#Configuration: NOAA 21
#almurnet v.1.7.20240730
#Start time: 2026-01-01 23:48:49

#Version: 2.2.20231116
#Station: R2M6_AANII_01
#Location: 30.233357 lon 59.946436 lat
#TLE: 1 54234U 22150A   26001.26806856  .00000185  00000+0  10843-3 0  9990
#TLE: 2 54234  98.7484 302.3349 0001277 353.3887   6.7272 14.19530660162860

#Time	Az	El	Level	Level2	SNR	BER	BlckErr	Temp	State	Recorded	gain1	gain2
2026-01-01 23:48:49.41	21.08	7.01	-30.6	-36.5	4.4	1.43e+00	0	41	0	0	21	7099
2026-01-01 23:48:52.43	21.18	7.23	-31.0	-36.7	6.3	2.73e-01	0	41	0	3145728	22	6947
2026-01-01 23:48:55.44	21.28	7.46	-31.0	-36.4	6.5	2.67e-01	0	41	0	12582912	22	6753
2026-01-01 23:48:58.45	21.38	7.69	-30.8	-36.4	6.8	1.85e-01	0	41	0	22020096	21	6827
2026-01-01 23:49:01.46	21.48	7.93	-31.0	-36.6	6.4	2.35e-01	0	41	0	30408704	22	6850
2026-01-01 23:49:04.46	21.59	8.16	-31.0	-36.4	6.5	2.46e-01	0	41	0	39845888	22	6713
2026-01-01 23:49:07.47	21.69	8.40	-29.8	-33.7	9.5	3.06e-02	0	41	0	49283072	19	5626
2026-01-01 23:49:10.46	21.80	8.64	-28.8	-31.7	11.5	9.28e-04	0	41	0	58720256	17	5071
2026-01-01 23:49:13.48	21.91	8.88	-28.4	-31.3	12.2	2.05e-03	0	41	0	68157440	16	5031
2026-01-01 23:49:16.48	22.02	9.12	-28.8	-31.8	11.5	1.08e-03	0	42	0	77594624	17	5094
2026-01-01 23:49:19.49	22.14	9.37	-27.8	-30.5	12.9	4.95e-05	0	42	0	87031808	15	4863
2026-01-01 23:49:22.50	22.25	9.62	-27.8	-30.4	13.0	1.88e-04	0	42	0	96468992	15	4828
2026-01-01 23:49:25.52	22.37	9.87	-27.4	-29.4	13.5	1.11e-04	0	42	0	105906176	15	4527
2026-01-01 23:49:28.53	22.49	10.13	-27.3	-29.6	13.7	6.80e-06	0	41	0	115343360	14	4699
2026-01-01 23:49:31.53	22.61	10.38	-27.2	-29.3	13.9	1.50e-06	0	42	0	124780544	14	4608
2026-01-01 23:49:34.53	22.73	10.64	-27.1	-29.1	14.1	7.00e-07	0	42	0	134217728	14	4540
2026-01-01 23:49:37.53	22.85	10.90	-27.1	-29.0	14.2	2.20e-06	0	42	0	143654912	14	4498
2026-01-01 23:49:40.55	22.98	11.17	-26.9	-28.7	14.3	0.00e+00	0	42	0	153092096	14	4417
2026-01-01 23:49:43.55	23.10	11.43	-26.8	-28.9	14.5	0.00e+00	0	42	0	162529280	13	4575
2026-01-01 23:49:46.57	23.24	11.70	-26.7	-28.7	14.6	7.00e-07	0	42	0	171966464	13	4526
2026-01-01 23:49:49.57	23.37	11.98	-26.8	-28.8	14.5	1.50e-06	0	42	0	181403648	13	4557
2026-01-01 23:49:52.57	23.50	12.25	-26.8	-28.8	14.6	0.00e+00	0	42	0	190840832	13	4551
2026-01-01 23:49:55.57	23.64	12.53	-27.0	-29.2	14.4	1.50e-06	0	42	0	200278016	13	4680
2026-01-01 23:49:58.58	23.78	12.81	-26.8	-28.8	14.7	0.00e+00	0	42	0	209715200	13	4535
2026-01-01 23:50:01.58	23.92	13.09	-27.0	-28.8	14.4	7.00e-07	0	42	0	219152384	14	4432
2026-01-01 23:50:04.59	24.06	13.38	-26.9	-29.0	14.5	7.00e-07	0	42	0	228589568	13	4597
2026-01-01 23:50:07.60	24.21	13.67	-26.8	-28.9	14.6	0.00e+00	0	42	0	238026752	13	4576
2026-01-01 23:50:10.60	24.36	13.97	-26.9	-28.5	14.6	0.00e+00	0	42	0	247463936	14	4331
2026-01-01 23:50:13.62	24.51	14.27	-26.8	-28.8	14.7	0.00e+00	0	42	0	256901120	13	4547
2026-01-01 23:50:16.62	24.66	14.57	-26.6	-28.4	15.0	0.00e+00	0	42	0	266338304	13	4422
2026-01-01 23:50:19.63	24.82	14.87	-26.4	-27.9	15.2	0.00e+00	0	42	0	275775488	13	4297
2026-01-01 23:50:22.65	24.98	15.19	-26.5	-28.1	15.2	0.00e+00	0	43	0	284164096	13	4329
2026-01-01 23:50:25.66	25.15	15.50	-26.5	-28.1	15.2	0.00e+00	0	42	0	293601280	13	4325
2026-01-01 23:50:28.69	25.31	15.82	-26.3	-28.3	15.4	0.00e+00	0	42	0	303038464	12	4497
2026-01-01 23:50:31.70	25.49	16.14	-26.6	-28.3	15.1	0.00e+00	0	42	0	312475648	13	4397
2026-01-01 23:50:34.72	25.66	16.47	-26.3	-27.7	15.4	0.00e+00	0	43	0	322961408	13	4232
2026-01-01 23:50:37.74	25.84	16.80	-26.3	-28.1	15.4	0.00e+00	0	43	0	331350016	12	4452
2026-01-01 23:50:40.75	26.02	17.13	-26.3	-28.2	15.5	0.00e+00	0	43	0	340787200	12	4469
2026-01-01 23:50:43.76	26.20	17.47	-26.4	-28.4	15.4	0.00e+00	0	43	0	350224384	12	4519
2026-01-01 23:50:46.77	26.39	17.81	-26.0	-27.8	14.7	0.00e+00	0	43	0	359661568	13	4444
2026-01-01 23:50:49.78	26.59	18.16	-26.7	-28.5	13.9	0.00e+00	0	43	0	369098752	13	4441
2026-01-01 23:50:52.80	26.78	18.51	-26.7	-28.7	14.9	0.00e+00	0	43	0	378535936	13	4510
2026-01-01 23:50:55.79	26.98	18.87	-26.9	-28.9	14.8	8.15e-04	0	43	0	387973120	13	4577
2026-01-01 23:50:58.79	27.19	19.23	-27.1	-29.0	13.8	0.00e+00	0	43	0	397410304	14	4476
2026-01-01 23:51:01.80	27.40	19.59	-27.2	-29.1	13.9	0.00e+00	0	43	0	406847488	14	4518
2026-01-01 23:51:04.81	27.61	19.96	-27.0	-28.7	14.7	0.00e+00	0	43	0	416284672	14	4380
2026-01-01 23:51:07.81	27.83	20.34	-27.2	-29.1	14.5	9.15e-04	0	43	0	425721856	14	4513
2026-01-01 23:51:10.82	28.06	20.72	-26.5	-28.0	15.4	7.00e-07	0	43	0	435159040	13	4300
2026-01-01 23:51:13.82	28.29	21.11	-26.3	-27.6	15.6	0.00e+00	0	43	0	444596224	13	4189
2026-01-01 23:51:16.83	28.53	21.50	-26.4	-28.3	15.5	9.34e-04	0	43	0	454033408	12	4484
2026-01-01 23:51:19.83	28.77	21.90	-26.0	-27.9	16.1	0.00e+00	0	43	0	463470592	11	4479
2026-01-01 23:51:22.85	29.02	22.31	-25.8	-27.5	16.4	2.23e-03	0	43	0	472907776	11	4367
2026-01-01 23:51:25.87	29.27	22.72	-25.5	-26.9	16.6	2.13e-03	0	43	0	482344960	11	4219
2026-01-01 23:51:28.88	29.53	23.14	-25.5	-26.8	16.7	3.16e-03	0	43	0	491782144	11	4191
2026-01-01 23:51:31.90	29.80	23.56	-25.6	-27.1	16.6	1.96e-03	0	43	0	501219328	11	4279
2026-01-01 23:51:34.90	30.07	23.99	-25.6	-27.0	16.7	1.09e-03	0	43	0	510656512	11	4235
2026-01-01 23:51:37.92	30.36	24.43	-25.7	-27.2	16.6	7.63e-04	0	43	0	520093696	11	4284
2026-01-01 23:51:40.93	30.65	24.87	-25.8	-27.0	16.3	5.20e-04	0	43	0	529530880	12	4141
2026-01-01 23:51:43.93	30.94	25.32	-25.9	-27.7	16.3	6.92e-04	0	43	0	538968064	11	4435
2026-01-01 23:51:46.95	31.25	25.78	-26.2	-27.4	15.8	3.94e-04	0	43	0	548405248	13	4139
2026-01-01 23:51:49.96	31.57	26.24	-26.2	-27.9	15.8	3.40e-04	0	43	0	557842432	12	4387
2026-01-01 23:51:52.97	31.89	26.72	-26.4	-28.3	15.7	3.34e-04	0	43	0	567279616	12	4479
2026-01-01 23:51:55.98	32.22	27.20	-26.3	-28.2	15.7	4.13e-04	0	43	0	576716800	12	4464
2026-01-01 23:51:58.98	32.56	27.68	-26.5	-28.0	15.6	0.00e+00	0	43	0	586153984	13	4288
2026-01-01 23:52:01.99	32.92	28.18	-26.8	-28.6	15.2	4.40e-04	0	43	0	595591168	13	4468
2026-01-01 23:52:05.00	33.28	28.68	-27.0	-28.8	14.9	0.00e+00	0	43	0	603979776	14	4402
2026-01-01 23:52:08.01	33.66	29.19	-26.9	-28.5	15.1	4.44e-04	0	43	0	613416960	14	4317
2026-01-01 23:52:11.03	34.04	29.71	-26.8	-28.8	15.1	0.00e+00	0	43	0	623902720	13	4522
2026-01-01 23:52:14.04	34.44	30.24	-26.6	-28.2	15.4	0.00e+00	0	43	0	632291328	13	4357
2026-01-01 23:52:17.05	34.86	30.77	-26.5	-28.2	15.5	0.00e+00	0	43	0	641728512	13	4334
2026-01-01 23:52:20.04	35.28	31.31	-26.3	-27.6	15.8	0.00e+00	0	43	0	651165696	13	4193
2026-01-01 23:52:23.05	35.72	31.86	-26.4	-28.3	15.8	7.61e-04	0	43	0	660602880	12	4472
2026-01-01 23:52:26.05	36.17	32.42	-26.3	-28.2	15.8	0.00e+00	0	43	0	670040064	12	4457
2026-01-01 23:52:29.06	36.64	32.99	-26.4	-28.4	15.7	0.00e+00	0	43	0	679477248	12	4511
2026-01-01 23:52:32.08	37.13	33.57	-26.6	-28.3	15.6	0.00e+00	0	43	0	688914432	13	4364
2026-01-01 23:52:35.08	37.63	34.16	-27.0	-28.7	15.0	0.00e+00	0	43	0	698351616	14	4385
2026-01-01 23:52:38.10	38.16	34.75	-27.7	-29.9	14.1	7.00e-07	0	43	0	707788800	15	4607
2026-01-01 23:52:41.11	38.70	35.36	-28.1	-30.3	13.7	1.50e-06	0	43	0	717225984	16	4608
2026-01-01 23:52:44.12	39.26	35.97	-27.7	-29.1	14.4	0.00e+00	0	43	0	726663168	16	4264
2026-01-01 23:52:47.13	39.84	36.60	-27.6	-29.0	14.5	1.50e-06	0	43	0	736100352	16	4236
2026-01-01 23:52:50.14	40.45	37.23	-27.7	-29.2	14.4	1.50e-06	0	43	0	745537536	16	4279
2026-01-01 23:52:53.14	41.07	37.87	-27.7	-29.2	14.4	7.00e-07	0	43	0	754974720	16	4292
2026-01-01 23:52:56.15	41.73	38.52	-27.8	-29.4	13.8	1.50e-06	0	43	0	764411904	16	4343
2026-01-01 23:52:59.14	42.40	39.17	-27.9	-30.3	13.9	2.20e-06	0	43	0	773849088	15	4713
2026-01-01 23:53:02.15	43.11	39.83	-28.3	-30.5	13.7	5.69e-04	0	43	0	783286272	16	4675
2026-01-01 23:53:05.17	43.85	40.51	-28.4	-30.9	13.4	1.14e-05	0	43	0	792723456	16	4791
2026-01-01 23:53:08.18	44.61	41.19	-28.2	-29.9	13.8	5.41e-05	0	43	0	802160640	17	4360
2026-01-01 23:53:11.19	45.41	41.88	-28.4	-30.3	13.5	9.90e-06	0	43	0	811597824	17	4503
2026-01-01 23:53:14.20	46.25	42.57	-28.5	-30.5	13.4	1.61e-04	0	43	0	821035008	17	4554
2026-01-01 23:53:17.20	47.12	43.27	-28.6	-30.8	13.2	1.29e-04	0	43	0	830472192	17	4666
2026-01-01 23:53:20.22	48.03	43.98	-28.9	-31.6	12.8	1.54e-04	0	43	0	839909376	17	4903
2026-01-01 23:53:23.23	48.98	44.69	-28.7	-31.0	13.2	4.65e-04	0	43	0	849346560	17	4709
2026-01-01 23:53:26.24	49.97	45.41	-28.8	-31.3	13.0	3.46e-04	0	43	0	858783744	17	4814
2026-01-01 23:53:29.23	51.00	46.12	-28.5	-30.7	13.4	3.20e-05	0	43	0	868220928	17	4619
2026-01-01 23:53:32.25	52.10	46.85	-28.4	-30.3	13.6	5.03e-05	0	43	0	877658112	17	4488
2026-01-01 23:53:35.27	53.24	47.57	-28.8	-31.3	13.0	3.73e-05	0	43	0	887095296	17	4806
2026-01-01 23:53:38.27	54.42	48.29	-28.9	-31.5	12.8	3.20e-04	0	43	0	896532480	17	4886
2026-01-01 23:53:41.28	55.67	49.01	-28.6	-30.7	13.3	1.06e-05	0	43	0	904921088	17	4628
2026-01-01 23:53:44.28	56.97	49.73	-28.4	-30.3	13.5	1.22e-04	0	43	0	914358272	17	4496
2026-01-01 23:53:47.29	58.34	50.44	-27.8	-29.5	14.4	7.00e-07	0	43	0	923795456	16	4353
2026-01-01 23:53:50.31	59.78	51.15	-27.9	-29.6	14.4	0.00e+00	0	43	0	933232640	16	4372
2026-01-01 23:53:53.33	61.29	51.85	-27.5	-28.7	14.9	0.00e+00	0	43	0	942669824	16	4129
2026-01-01 23:53:56.33	62.86	52.53	-27.5	-28.7	14.8	0.00e+00	0	43	0	952107008	16	4140
2026-01-01 23:53:59.33	64.50	53.20	-27.7	-29.2	14.5	7.00e-07	0	43	0	961544192	16	4285
2026-01-01 23:54:02.34	66.22	53.86	-27.9	-29.8	14.2	7.00e-07	0	43	0	970981376	16	4443
2026-01-01 23:54:05.36	68.03	54.50	-27.0	-28.6	15.4	0.00e+00	0	43	0	980418560	14	4312
2026-01-01 23:54:08.37	69.91	55.12	-27.2	-29.0	15.1	0.00e+00	0	43	0	989855744	14	4447
2026-01-01 23:54:11.38	71.87	55.71	-27.3	-29.2	15.1	0.00e+00	0	43	0	999292928	14	4500
2026-01-01 23:54:14.39	73.92	56.27	-27.1	-28.9	15.2	0.00e+00	0	43	0	1008730112	14	4407
2026-01-01 23:54:17.38	76.04	56.80	-26.9	-28.4	15.5	0.00e+00	0	43	0	1018167296	14	4271
2026-01-01 23:54:20.39	78.24	57.31	-27.2	-29.1	15.1	0.00e+00	0	43	0	1027604480	14	4477
2026-01-01 23:54:23.40	80.53	57.77	-26.2	-27.2	16.3	0.00e+00	0	43	0	1037041664	13	4065
2026-01-01 23:54:26.42	82.91	58.19	-26.1	-27.0	16.5	0.00e+00	0	43	0	1046478848	13	4016
2026-01-01 23:54:29.44	85.35	58.57	-26.4	-27.8	16.1	0.00e+00	0	43	0	1055916032	13	4212
2026-01-01 23:54:32.45	87.85	58.90	-26.3	-27.9	16.3	0.00e+00	0	43	0	1065353216	12	4360
2026-01-01 23:54:35.46	90.42	59.19	-26.4	-28.3	16.1	0.00e+00	0	43	0	1074790400	12	4478
2026-01-01 23:54:38.48	93.04	59.42	-26.5	-27.9	16.1	0.00e+00	0	43	0	1084227584	13	4238
2026-01-01 23:54:41.49	95.69	59.60	-26.3	-27.4	16.3	0.00e+00	0	43	0	1093664768	13	4116
2026-01-01 23:54:44.50	98.38	59.72	-26.2	-27.7	16.4	0.00e+00	0	43	0	1103101952	12	4298
2026-01-01 23:54:47.50	101.07	59.78	-26.3	-28.1	16.1	0.00e+00	0	43	0	1112539136	12	4418
2026-01-01 23:54:50.51	103.78	59.79	-25.9	-27.6	16.8	0.00e+00	0	43	0	1121976320	11	4382
2026-01-01 23:54:53.51	106.48	59.74	-26.0	-27.4	16.5	0.00e+00	0	43	0	1131413504	12	4220
2026-01-01 23:54:56.53	109.18	59.64	-26.5	-28.0	16.0	0.00e+00	0	43	0	1140850688	13	4260
2026-01-01 23:54:59.53	111.84	59.47	-27.2	-29.0	15.2	0.00e+00	0	43	0	1150287872	14	4434
2026-01-01 23:55:02.52	114.45	59.26	-27.1	-28.8	15.3	0.00e+00	0	43	0	1159725056	14	4387
2026-01-01 23:55:05.52	117.02	58.99	-26.0	-26.8	16.6	0.00e+00	0	43	0	1169162240	13	3958
2026-01-01 23:55:08.52	119.54	58.68	-26.4	-27.7	16.2	0.00e+00	0	43	0	1178599424	13	4202
2026-01-01 23:55:11.53	122.00	58.31	-26.5	-28.0	15.9	0.00e+00	0	43	0	1186988032	13	4277
2026-01-01 23:55:14.52	124.37	57.90	-27.1	-28.8	15.3	0.00e+00	0	43	0	1196425216	14	4394
2026-01-01 23:55:17.53	126.69	57.45	-26.4	-27.8	16.1	0.00e+00	0	43	0	1205862400	13	4212
2026-01-01 23:55:20.53	128.92	56.96	-27.1	-28.8	15.3	0.00e+00	0	43	0	1215299584	14	4385
2026-01-01 23:55:23.55	131.08	56.44	-26.8	-28.2	15.7	0.00e+00	0	43	0	1224736768	14	4207
2026-01-01 23:55:26.55	133.15	55.88	-27.3	-29.2	15.0	0.00e+00	0	43	0	1234173952	14	4506
2026-01-01 23:55:29.56	135.14	55.30	-26.9	-28.4	15.4	0.00e+00	0	43	0	1243611136	14	4274
2026-01-01 23:55:32.58	137.06	54.68	-26.6	-28.3	15.9	0.00e+00	0	43	0	1253048320	13	4339
2026-01-01 23:55:35.58	138.88	54.05	-27.0	-28.6	15.4	0.00e+00	0	43	0	1262485504	14	4329
2026-01-01 23:55:38.59	140.63	53.40	-28.0	-29.9	14.3	3.00e-06	0	43	0	1271922688	16	4463
2026-01-01 23:55:41.59	142.30	52.73	-27.4	-29.6	14.9	0.00e+00	0	43	0	1281359872	14	4603
2026-01-01 23:55:44.59	143.90	52.05	-27.4	-29.5	14.9	0.00e+00	0	43	0	1290797056	14	4590
2026-01-01 23:55:47.60	145.42	51.35	-27.6	-29.6	14.6	0.00e+00	0	43	0	1300234240	15	4488
2026-01-01 23:55:50.60	146.88	50.65	-27.9	-30.1	14.2	3.00e-06	0	43	0	1309671424	15	4639
2026-01-01 23:55:53.62	148.27	49.93	-28.3	-30.6	13.8	1.50e-06	0	43	0	1319108608	16	4695
2026-01-01 23:55:56.62	149.60	49.21	-29.6	-32.4	11.7	4.55e-04	0	43	0	1328545792	19	4963
2026-01-01 23:55:59.61	150.86	48.50	-28.6	-30.3	13.4	1.67e-05	0	43	0	1337982976	18	4371
2026-01-01 23:56:02.63	152.07	47.77	-29.1	-31.7	12.6	7.24e-05	0	43	0	1347420160	18	4817
2026-01-01 23:56:05.66	153.23	47.04	-28.5	-30.1	13.5	1.29e-05	0	43	0	1356857344	18	4327
2026-01-01 23:56:08.66	154.33	46.32	-28.1	-29.6	14.1	2.20e-06	0	43	0	1366294528	17	4285
2026-01-01 23:56:11.66	155.39	45.60	-28.9	-31.5	13.0	3.28e-05	0	43	0	1375731712	17	4882
2026-01-01 23:56:14.68	156.40	44.87	-29.4	-31.8	12.1	2.52e-04	0	43	0	1385168896	19	4758
2026-01-01 23:56:17.68	157.36	44.16	-29.2	-31.3	12.4	1.56e-04	0	43	0	1394606080	19	4575
2026-01-01 23:56:20.70	158.29	43.44	-28.7	-30.6	13.2	2.13e-05	0	43	0	1404043264	18	4468
2026-01-01 23:56:23.70	159.17	42.74	-28.8	-31.4	13.0	2.67e-05	0	43	0	1412431872	17	4827
2026-01-01 23:56:26.72	160.02	42.04	-28.8	-31.4	12.9	3.50e-05	0	43	0	1422917632	17	4834
2026-01-01 23:56:29.72	160.83	41.35	-27.8	-29.0	14.3	2.20e-06	0	43	0	1432354816	17	4112
2026-01-01 23:56:32.73	161.60	40.66	-28.7	-31.2	13.1	2.67e-05	0	43	0	1440743424	17	4770
2026-01-01 23:56:35.73	162.35	39.98	-28.8	-31.3	12.9	4.27e-05	0	43	0	1450180608	17	4827
2026-01-01 23:56:38.74	163.06	39.31	-28.4	-30.4	13.4	1.52e-05	0	43	0	1459617792	17	4535
2026-01-01 23:56:41.73	163.75	38.65	-28.4	-30.8	13.6	1.14e-05	0	43	0	1469054976	16	4775
2026-01-01 23:56:44.75	164.41	38.00	-27.2	-29.0	14.3	5.30e-06	0	43	0	1478492160	16	4395
2026-01-01 23:56:47.76	165.05	37.35	-27.9	-30.1	13.8	7.60e-06	0	43	0	1487929344	15	4676
2026-01-01 23:56:50.77	165.66	36.71	-28.4	-30.8	13.5	5.03e-04	0	43	0	1497366528	16	4788
2026-01-01 23:56:53.78	166.25	36.09	-27.9	-29.6	14.2	1.06e-05	0	43	0	1506803712	16	4404
2026-01-01 23:56:56.79	166.82	35.47	-27.5	-29.3	14.5	1.35e-03	0	43	0	1516240896	15	4437
2026-01-01 23:56:59.80	167.37	34.86	-27.7	-29.8	14.2	9.90e-06	0	43	0	1525678080	15	4592
2026-01-01 23:57:02.82	167.90	34.25	-27.8	-30.1	14.0	2.25e-03	0	43	0	1535115264	15	4667
2026-01-01 23:57:05.82	168.40	33.66	-27.7	-29.8	14.2	2.03e-03	0	43	0	1544552448	15	4593
2026-01-01 23:57:08.83	168.90	33.08	-27.5	-29.4	14.5	2.34e-03	0	43	0	1553989632	15	4460
2026-01-01 23:57:11.84	169.37	32.50	-26.5	-28.1	15.7	2.06e-03	0	43	0	1563426816	13	4302
2026-01-01 23:57:14.85	169.83	31.94	-26.1	-27.7	16.2	0.00e+00	0	43	0	1572864000	12	4301
2026-01-01 23:57:17.86	170.27	31.38	-26.3	-28.0	16.0	1.90e-03	0	43	0	1582301184	12	4395
2026-01-01 23:57:20.87	170.70	30.83	-26.5	-28.5	15.7	0.00e+00	0	43	0	1591738368	12	4543
2026-01-01 23:57:23.89	171.12	30.29	-26.7	-28.4	15.5	1.59e-03	0	43	0	1601175552	13	4385
2026-01-01 23:57:26.90	171.52	29.76	-26.9	-28.9	15.2	1.92e-03	0	43	0	1610612736	13	4542
2026-01-01 23:57:29.90	171.91	29.23	-26.7	-28.5	15.4	0.00e+00	0	43	0	1620049920	13	4435
2026-01-01 23:57:32.92	172.29	28.72	-26.6	-28.2	15.6	1.66e-04	0	43	0	1629487104	13	4332
2026-01-01 23:57:35.94	172.66	28.21	-26.4	-27.8	15.8	0.00e+00	0	43	0	1638924288	13	4229
2026-01-01 23:57:38.94	173.01	27.71	-26.2	-27.8	16.1	0.00e+00	0	43	0	1648361472	12	4343
2026-01-01 23:57:41.95	173.36	27.22	-26.3	-27.5	15.9	0.00e+00	0	43	0	1657798656	13	4152
2026-01-01 23:57:44.96	173.69	26.74	-26.4	-28.2	15.8	4.00e-04	0	43	0	1667235840	12	4456
2026-01-01 23:57:47.97	174.02	26.26	-26.3	-28.1	15.9	0.00e+00	0	43	0	1676673024	12	4419
2026-01-01 23:57:50.97	174.33	25.79	-26.4	-28.2	15.8	0.00e+00	0	43	0	1686110208	12	4462
2026-01-01 23:57:53.97	174.64	25.33	-27.0	-28.8	15.0	5.13e-04	0	43	0	1695547392	14	4396
2026-01-01 23:57:56.96	174.94	24.88	-26.7	-28.6	15.3	0.00e+00	0	43	0	1704984576	13	4452
2026-01-01 23:57:59.96	175.23	24.44	-26.5	-28.0	15.6	6.17e-04	0	43	0	1713373184	13	4279
2026-01-01 23:58:02.97	175.51	23.99	-26.5	-28.1	15.6	0.00e+00	0	43	0	1722810368	13	4319
2026-01-01 23:58:05.97	175.78	23.56	-26.5	-28.5	15.6	4.48e-04	0	43	0	1732247552	12	4538
2026-01-01 23:58:08.98	176.05	23.13	-26.3	-28.0	15.8	0.00e+00	0	43	0	1741684736	12	4405
2026-01-01 23:58:11.99	176.31	22.71	-26.2	-27.9	15.9	7.69e-04	0	43	0	1751121920	12	4356
2026-01-01 23:58:15.01	176.57	22.30	-26.1	-27.7	16.0	1.20e-03	0	43	0	1760559104	12	4312
2026-01-01 23:58:18.02	176.82	21.89	-26.0	-27.3	16.2	1.05e-03	0	43	0	1769996288	12	4204
2026-01-01 23:58:21.02	177.06	21.49	-26.2	-27.8	15.9	8.49e-04	0	43	0	1779433472	12	4335
2026-01-01 23:58:24.03	177.30	21.09	-26.3	-28.1	15.8	0.00e+00	0	43	0	1788870656	12	4431
2026-01-01 23:58:27.03	177.53	20.70	-26.6	-28.3	15.3	6.26e-04	0	43	0	1798307840	13	4386
2026-01-01 23:58:30.04	177.75	20.31	-26.8	-28.8	15.1	1.98e-04	0	43	0	1807745024	13	4521
2026-01-01 23:58:33.05	177.97	19.93	-26.4	-28.4	15.6	7.68e-04	0	43	0	1817182208	12	4524
2026-01-01 23:58:36.07	178.19	19.56	-26.5	-28.2	15.4	7.28e-04	0	43	0	1826619392	13	4347
2026-01-01 23:58:39.08	178.40	19.19	-26.5	-28.5	13.8	9.08e-04	0	43	0	1836056576	12	4566
2026-01-01 23:58:42.08	178.60	18.82	-26.7	-28.5	15.1	1.05e-03	0	43	0	1845493760	13	4456
2026-01-01 23:58:45.09	178.81	18.47	-26.7	-28.5	15.1	1.43e-03	0	43	0	1854930944	13	4451
2026-01-01 23:58:48.11	179.00	18.11	-26.8	-28.9	15.0	1.59e-03	0	43	0	1864368128	13	4555
2026-01-01 23:58:51.12	179.20	17.76	-26.8	-28.9	14.9	2.78e-03	0	43	0	1873805312	13	4557
2026-01-01 23:58:54.12	179.38	17.42	-26.9	-29.0	14.9	1.05e-03	0	43	0	1883242496	13	4591
2026-01-01 23:58:57.13	179.57	17.07	-26.9	-29.0	14.8	2.68e-03	0	43	0	1892679680	13	4592
2026-01-01 23:59:00.14	179.75	16.74	-26.9	-29.1	14.8	3.17e-03	0	43	0	1902116864	13	4640
2026-01-01 23:59:03.14	179.92	16.41	-27.2	-29.2	14.5	2.33e-03	0	43	0	1911554048	14	4531
2026-01-01 23:59:06.15	180.10	16.08	-27.0	-29.3	14.7	1.72e-03	0	43	0	1920991232	13	4670
2026-01-01 23:59:09.17	180.27	15.75	-26.9	-28.9	14.8	1.44e-03	0	43	0	1930428416	13	4571
2026-01-01 23:59:12.17	180.43	15.44	-27.3	-29.5	14.2	6.97e-04	0	43	0	1939865600	14	4644
2026-01-01 23:59:15.17	180.59	15.12	-27.6	-29.7	13.8	9.90e-06	0	43	0	1949302784	15	4576
2026-01-01 23:59:18.18	180.75	14.81	-27.8	-30.2	13.5	8.99e-04	0	43	0	1958739968	15	4737
2026-01-01 23:59:21.19	180.91	14.50	-27.5	-29.5	13.9	3.80e-06	0	43	0	1967128576	15	4513
2026-01-01 23:59:24.21	181.07	14.20	-27.5	-29.4	13.9	4.50e-06	0	43	0	1977614336	15	4490
2026-01-01 23:59:27.21	181.22	13.90	-27.4	-29.7	14.1	0.00e+00	0	43	0	1986002944	14	4685
2026-01-01 23:59:30.22	181.36	13.60	-27.5	-29.3	14.0	4.50e-06	0	43	0	1995440128	15	4469
2026-01-01 23:59:33.22	181.51	13.31	-27.3	-29.4	14.2	8.96e-04	0	43	0	2004877312	14	4598
2026-01-01 23:59:36.22	181.65	13.02	-27.4	-29.7	14.0	1.50e-06	0	43	0	2014314496	14	4697
2026-01-01 23:59:39.23	181.79	12.73	-27.3	-29.5	14.1	2.20e-06	0	43	0	2023751680	14	4639
2026-01-01 23:59:42.25	181.93	12.44	-27.6	-29.6	13.7	3.00e-06	0	43	0	2033188864	15	4560
2026-01-01 23:59:45.25	182.06	12.16	-27.3	-28.9	14.1	1.50e-06	0	43	0	2042626048	15	4351
2026-01-01 23:59:48.25	182.20	11.89	-27.2	-29.3	14.2	6.10e-06	0	43	0	2052063232	14	4567
2026-01-01 23:59:51.26	182.33	11.61	-27.2	-29.3	14.2	1.50e-06	0	43	0	2061500416	14	4563
2026-01-01 23:59:54.28	182.45	11.34	-27.5	-29.9	13.8	2.20e-06	0	43	0	2070937600	14	4776
2026-01-01 23:59:57.29	182.58	11.07	-27.6	-29.8	13.6	1.22e-05	0	43	0	2080374784	15	4613
2026-01-02 00:00:00.29	182.70	10.80	-27.5	-29.6	13.7	5.30e-06	0	43	0	2089811968	15	4558
2026-01-02 00:00:03.29	182.83	10.54	-27.6	-29.8	13.5	6.80e-06	0	43	0	2099249152	15	4618
2026-01-02 00:00:06.29	182.95	10.28	-27.4	-29.7	13.8	7.60e-06	0	43	0	2108686336	14	4723
2026-01-02 00:00:09.31	183.06	10.02	-27.5	-29.6	13.6	3.00e-06	0	43	0	2118123520	15	4562
2026-01-02 00:00:12.32	183.18	9.77	-27.7	-30.0	13.4	1.14e-05	0	43	0	2127560704	15	4684
2026-01-02 00:00:15.33	183.29	9.51	-27.8	-30.3	13.2	2.36e-05	0	43	0	2136997888	15	4791
2026-01-02 00:00:18.35	183.41	9.26	-28.0	-30.7	12.9	4.34e-05	0	43	0	2146435072	15	4921
2026-01-02 00:00:21.36	183.52	9.01	-28.3	-30.9	12.6	8.69e-05	0	43	0	2155872256	16	4873
2026-01-02 00:00:24.36	183.63	8.77	-28.2	-30.8	12.6	8.92e-05	0	43	0	2165309440	16	4849
2026-01-02 00:00:27.37	183.73	8.53	-28.3	-31.0	12.5	9.07e-05	0	43	0	2174746624	16	4915
2026-01-02 00:00:30.37	183.84	8.29	-28.4	-30.8	12.3	1.65e-04	0	43	0	2184183808	17	4716
2026-01-02 00:00:33.37	183.94	8.05	-28.7	-31.5	11.9	2.91e-04	0	43	0	2193620992	17	4965
2026-01-02 00:00:36.38	184.05	7.81	-28.8	-31.8	11.7	4.87e-04	0	43	0	2203058176	17	5064
2026-01-02 00:00:39.39	184.15	7.58	-28.6	-31.4	11.8	4.83e-04	0	43	0	2212495360	17	4940
2026-01-02 00:00:42.40	184.25	7.34	-28.6	-31.3	11.9	4.13e-04	0	43	0	2220883968	17	4912
2026-01-02 00:00:45.40	184.35	7.11	-32.3	-43.7	3.8	1.22e-01	0	43	104	2230321152	24	13379

#Closed at: 2026-01-02 00:00:48
#Recorded file [2230 MB]: D:/data/31010_260102_024851.dat