passes_logs/2026/01/01/R2M6_AANII_01/R2M6_AANII_01__20260101_032616_FENGYUN_3E_rec.log

#Pass ID: 20260101_032616_FENGYUN 3E
#Satellite: FENGYUN 3E
#Configuration: FENGYUN 3E
#almurnet v.1.7.20240730
#Start time: 2026-01-01 03:30:42

#Version: 2.2.20231116
#Station: R2M6_AANII_01
#Location: 30.233357 lon 59.946436 lat
#TLE: 1 49008U 21062A   25365.55977344  .00000403  00000+0  21051-3 0  9995
#TLE: 2 49008  98.7483   5.8586 0001311 170.0615 190.0588 14.19883886232790

#Time	Az	El	Level	Level2	SNR	BER	BlckErr	Temp	State	Recorded	gain1	gain2
2026-01-01 03:30:42.85	68.49	31.08	-33.1	-44.2	3.8	8.45e-01	0	43	0	0	26	13006
2026-01-01 03:30:44.83	69.13	31.25	-33.5	-43.4	3.8	8.45e-01	0	43	104	0	26	11213
2026-01-01 03:30:46.83	69.78	31.41	-33.6	-43.5	3.8	8.46e-01	0	43	104	0	26	11271
2026-01-01 03:30:48.82	70.44	31.57	-33.6	-43.5	3.8	8.46e-01	0	43	104	0	26	11257
2026-01-01 03:30:50.82	71.11	31.73	-33.6	-43.4	3.8	8.45e-01	0	43	104	0	26	11237
2026-01-01 03:30:52.81	71.77	31.88	-33.6	-43.5	3.8	8.46e-01	0	43	104	0	26	11254
2026-01-01 03:30:54.81	72.45	32.03	-33.5	-43.4	3.8	8.47e-01	0	43	104	0	26	11227
2026-01-01 03:30:56.81	73.13	32.17	-33.5	-43.4	3.8	8.45e-01	0	43	104	0	26	11233
2026-01-01 03:30:58.81	73.82	32.31	-33.6	-43.5	3.8	8.45e-01	0	43	104	0	26	11265
2026-01-01 03:31:00.80	74.52	32.45	-33.5	-43.4	3.8	8.47e-01	0	43	104	0	26	11221
2026-01-01 03:31:02.79	75.21	32.59	-33.4	-43.2	3.8	8.46e-01	0	43	104	0	26	11070
2026-01-01 03:31:04.79	75.92	32.72	-33.5	-43.3	3.8	8.46e-01	0	43	104	0	26	11180
2026-01-01 03:31:06.77	76.63	32.84	-33.4	-43.2	3.8	8.46e-01	0	43	104	0	26	11085
2026-01-01 03:31:08.77	77.35	32.96	-33.3	-42.6	3.8	8.46e-01	0	43	104	0	26	10515
2026-01-01 03:31:10.76	78.07	33.08	-33.2	-42.2	3.8	8.46e-01	0	43	104	0	26	10198
2026-01-01 03:31:12.76	78.79	33.19	-33.1	-42.0	3.8	8.46e-01	0	43	104	0	26	10015
2026-01-01 03:31:14.76	79.53	33.30	-33.2	-42.6	3.8	8.46e-01	0	43	104	0	26	10575
2026-01-01 03:31:16.76	80.27	33.40	-33.2	-42.6	3.8	8.47e-01	0	43	104	0	26	10665
2026-01-01 03:31:18.78	81.02	33.50	-33.1	-41.8	3.8	8.45e-01	0	43	104	0	26	9789
2026-01-01 03:31:20.79	81.77	33.59	-32.9	-41.2	3.8	8.45e-01	0	43	104	0	25	9344
2026-01-01 03:31:22.79	82.52	33.68	-32.9	-41.1	3.9	8.45e-01	0	43	104	0	25	9186
2026-01-01 03:31:24.80	83.28	33.77	-33.0	-41.8	3.8	8.46e-01	0	43	104	0	25	9865
2026-01-01 03:31:26.81	84.04	33.84	-32.9	-41.3	3.8	8.45e-01	0	43	104	0	25	9393
2026-01-01 03:31:28.82	84.81	33.92	-33.1	-42.2	3.8	8.47e-01	0	43	104	0	25	10339
2026-01-01 03:31:30.83	85.58	33.98	-33.1	-42.0	3.8	8.47e-01	0	44	104	0	26	10063
2026-01-01 03:31:32.83	86.34	34.04	-31.9	-36.4	4.3	8.29e-01	0	44	104	0	24	6038
2026-01-01 03:31:34.85	87.12	34.10	-26.5	-26.8	14.1	7.43e-05	0	43	0	7340032	14	3712
2026-01-01 03:31:36.86	87.90	34.15	-25.4	-26.0	15.4	0.00e+00	0	43	0	20971520	11	3821
2026-01-01 03:31:38.86	88.68	34.20	-25.5	-26.1	15.3	0.00e+00	0	43	0	35651584	11	3862
2026-01-01 03:31:40.87	89.46	34.23	-25.4	-25.9	15.4	0.00e+00	0	43	0	50331648	11	3809
2026-01-01 03:31:42.88	90.24	34.27	-25.2	-25.4	15.7	0.00e+00	0	43	0	65011712	11	3696
2026-01-01 03:31:44.89	91.03	34.29	-25.2	-25.5	15.7	0.00e+00	0	43	0	79691776	11	3705
2026-01-01 03:31:46.89	91.81	34.32	-25.4	-25.9	15.4	1.10e-06	0	43	0	93323264	11	3818
2026-01-01 03:31:48.90	92.60	34.33	-23.9	-24.0	17.2	0.00e+00	0	43	0	108003328	8	3681
2026-01-01 03:31:50.90	93.38	34.34	-22.7	-22.7	18.3	0.00e+00	0	43	0	122683392	6	3597
2026-01-01 03:31:52.91	94.17	34.34	-22.5	-22.2	18.6	7.66e-05	0	43	0	137363456	6	3493
2026-01-01 03:31:54.92	94.96	34.34	-22.3	-22.4	18.8	0.00e+00	0	43	0	152043520	5	3615
2026-01-01 03:31:56.92	95.75	34.33	-22.4	-22.5	18.7	0.00e+00	0	43	0	166723584	5	3643
2026-01-01 03:31:58.93	96.53	34.32	-22.3	-22.4	18.7	0.00e+00	0	43	0	180355072	5	3615
2026-01-01 03:32:00.93	97.32	34.30	-22.4	-22.6	18.6	0.00e+00	0	43	0	195035136	5	3666
2026-01-01 03:32:02.94	98.10	34.27	-22.6	-22.9	18.5	6.80e-06	0	43	0	209715200	5	3734
2026-01-01 03:32:04.94	98.88	34.24	-22.3	-22.2	18.8	0.00e+00	0	43	0	224395264	5	3584
2026-01-01 03:32:06.94	99.66	34.20	-22.1	-22.0	19.0	0.00e+00	0	43	0	238026752	5	3524
2026-01-01 03:32:08.95	100.44	34.16	-22.3	-22.3	18.8	0.00e+00	0	43	0	252706816	5	3609
2026-01-01 03:32:10.96	101.22	34.11	-22.3	-22.3	18.8	0.00e+00	0	43	0	267386880	5	3610
2026-01-01 03:32:12.96	102.00	34.06	-22.4	-22.6	18.6	0.00e+00	0	43	0	282066944	5	3668
2026-01-01 03:32:14.96	102.77	34.00	-22.4	-22.4	18.7	0.00e+00	0	43	0	296747008	5	3620
2026-01-01 03:32:16.97	103.54	33.93	-22.6	-23.0	18.4	0.00e+00	0	43	0	311427072	5	3744
2026-01-01 03:32:18.98	104.31	33.86	-22.7	-23.1	18.3	0.00e+00	0	43	0	325058560	5	3762
2026-01-01 03:32:20.99	105.07	33.78	-22.7	-23.1	18.4	0.00e+00	0	43	0	339738624	5	3766
2026-01-01 03:32:22.99	105.83	33.70	-22.5	-22.7	18.6	0.00e+00	0	43	0	354418688	5	3682
2026-01-01 03:32:25.00	106.59	33.61	-22.5	-22.6	18.6	0.00e+00	0	43	0	369098752	5	3656
2026-01-01 03:32:27.01	107.34	33.52	-22.5	-22.6	18.6	0.00e+00	0	43	0	383778816	5	3665
2026-01-01 03:32:29.02	108.09	33.42	-22.1	-21.9	18.9	0.00e+00	0	43	0	398458880	5	3516
2026-01-01 03:32:31.02	108.83	33.32	-22.1	-21.9	18.9	0.00e+00	0	44	0	412090368	5	3523
2026-01-01 03:32:33.03	109.57	33.21	-22.5	-22.6	18.6	0.00e+00	0	43	0	426770432	5	3666
2026-01-01 03:32:35.04	110.30	33.10	-22.7	-23.1	18.3	0.00e+00	0	43	0	441450496	5	3768
2026-01-01 03:32:37.04	111.03	32.98	-22.6	-22.8	18.4	0.00e+00	0	43	0	456130560	5	3712
2026-01-01 03:32:39.05	111.75	32.86	-22.8	-23.3	18.2	0.00e+00	0	43	0	470810624	5	3813
2026-01-01 03:32:41.06	112.47	32.73	-22.6	-23.0	18.3	0.00e+00	0	43	0	484442112	5	3751
2026-01-01 03:32:43.06	113.18	32.61	-22.8	-23.4	18.2	0.00e+00	0	44	0	499122176	5	3836
2026-01-01 03:32:45.07	113.89	32.47	-22.5	-22.7	18.5	0.00e+00	0	43	0	513802240	5	3689
2026-01-01 03:32:47.07	114.59	32.33	-22.3	-22.2	18.7	0.00e+00	0	43	0	528482304	5	3573
2026-01-01 03:32:49.06	115.28	32.19	-22.3	-22.2	18.7	1.10e-06	0	43	0	543162368	5	3584
2026-01-01 03:32:51.07	115.97	32.04	-22.5	-22.6	18.5	0.00e+00	0	43	0	556793856	5	3669
2026-01-01 03:32:53.07	116.65	31.90	-22.5	-22.8	18.4	0.00e+00	0	43	0	571473920	5	3700
2026-01-01 03:32:55.08	117.33	31.74	-22.6	-22.9	18.4	4.50e-06	0	43	0	586153984	5	3738
2026-01-01 03:32:57.09	118.00	31.58	-22.3	-22.3	18.6	0.00e+00	0	43	0	600834048	5	3607
2026-01-01 03:32:59.10	118.66	31.42	-22.2	-22.1	18.7	0.00e+00	0	43	0	615514112	5	3547
2026-01-01 03:33:01.10	119.32	31.26	-22.1	-21.9	18.8	0.00e+00	0	43	0	629145600	5	3516
2026-01-01 03:33:03.11	119.97	31.09	-22.2	-22.2	18.7	0.00e+00	0	43	0	643825664	5	3568
2026-01-01 03:33:05.12	120.62	30.92	-22.2	-22.1	18.7	0.00e+00	0	43	0	658505728	5	3564
2026-01-01 03:33:07.13	121.26	30.75	-22.2	-22.1	18.7	0.00e+00	0	44	0	673185792	5	3554
2026-01-01 03:33:09.14	121.89	30.57	-22.4	-22.5	18.5	0.00e+00	0	43	0	687865856	5	3638
2026-01-01 03:33:11.14	122.51	30.40	-22.3	-22.3	18.6	0.00e+00	0	43	0	701497344	5	3599
2026-01-01 03:33:13.14	123.13	30.22	-22.5	-22.8	18.4	0.00e+00	0	43	0	716177408	5	3712
2026-01-01 03:33:15.16	123.74	30.03	-22.7	-23.0	18.3	0.00e+00	0	43	0	730857472	5	3759
2026-01-01 03:33:17.17	124.35	29.85	-22.6	-22.8	18.2	0.00e+00	0	43	0	745537536	5	3719
2026-01-01 03:33:19.18	124.94	29.66	-22.4	-22.6	18.5	0.00e+00	0	43	0	760217600	5	3672
2026-01-01 03:33:21.18	125.53	29.47	-22.4	-22.6	18.5	0.00e+00	0	44	0	774897664	5	3666
2026-01-01 03:33:23.19	126.12	29.28	-22.4	-22.5	18.5	4.80e-05	0	43	0	788529152	5	3654
2026-01-01 03:33:25.18	126.69	29.09	-22.4	-22.5	18.5	4.50e-06	0	44	0	803209216	5	3653
2026-01-01 03:33:27.19	127.26	28.89	-22.6	-23.0	18.3	0.00e+00	0	43	0	817889280	5	3749
2026-01-01 03:33:29.20	127.82	28.70	-22.5	-22.8	18.4	0.00e+00	0	43	0	832569344	5	3701
2026-01-01 03:33:31.20	128.38	28.50	-22.3	-22.3	18.6	0.00e+00	0	43	0	847249408	5	3610
2026-01-01 03:33:33.21	128.93	28.30	-22.3	-22.2	18.6	0.00e+00	0	43	0	860880896	5	3590
2026-01-01 03:33:35.21	129.47	28.10	-22.3	-22.3	18.6	0.00e+00	0	43	0	875560960	5	3601
2026-01-01 03:33:37.22	130.01	27.90	-22.3	-22.4	18.5	0.00e+00	0	43	0	890241024	5	3620
2026-01-01 03:33:39.23	130.54	27.69	-22.5	-22.8	18.3	0.00e+00	0	43	0	904921088	5	3706
2026-01-01 03:33:41.23	131.06	27.49	-22.7	-23.2	18.1	0.00e+00	0	43	0	919601152	5	3805
2026-01-01 03:33:43.24	131.58	27.28	-22.7	-23.1	18.1	2.41e-04	0	44	0	933232640	5	3781
2026-01-01 03:33:45.24	132.09	27.08	-22.5	-22.6	18.3	0.00e+00	0	43	0	947912704	5	3674
2026-01-01 03:33:47.24	132.59	26.87	-22.5	-22.8	18.3	0.00e+00	0	43	0	962592768	5	3701
2026-01-01 03:33:49.24	133.09	26.67	-22.6	-22.8	18.3	0.00e+00	0	43	0	977272832	5	3714
2026-01-01 03:33:51.25	133.58	26.46	-22.6	-22.9	18.2	0.00e+00	0	43	0	990904320	5	3738
2026-01-01 03:33:53.25	134.06	26.25	-22.8	-23.3	18.0	0.00e+00	0	43	0	1005584384	5	3834
2026-01-01 03:33:55.25	134.54	26.04	-22.8	-23.5	17.9	0.00e+00	0	43	0	1020264448	5	3873
2026-01-01 03:33:57.27	135.02	25.83	-22.7	-23.1	18.1	0.00e+00	0	43	0	1034944512	5	3776
2026-01-01 03:33:59.27	135.48	25.62	-22.6	-23.0	18.1	0.00e+00	0	43	0	1049624576	5	3760
2026-01-01 03:34:01.28	135.94	25.41	-22.7	-23.2	18.1	0.00e+00	0	43	0	1064304640	5	3791
2026-01-01 03:34:03.29	136.40	25.20	-22.6	-22.9	18.2	1.10e-06	0	43	0	1077936128	5	3730
2026-01-01 03:34:05.29	136.85	24.99	-22.5	-22.8	18.2	0.00e+00	0	43	0	1092616192	5	3706
2026-01-01 03:34:07.29	137.29	24.78	-22.6	-23.0	18.1	0.00e+00	0	43	0	1107296256	5	3756
2026-01-01 03:34:09.29	137.72	24.57	-22.9	-23.5	17.9	0.00e+00	0	43	0	1121976320	5	3869
2026-01-01 03:34:11.29	138.15	24.36	-22.8	-23.4	17.9	0.00e+00	0	43	0	1135607808	5	3862
2026-01-01 03:34:13.31	138.58	24.15	-22.9	-23.5	17.9	0.00e+00	0	43	0	1151336448	5	3870
2026-01-01 03:34:15.31	139.00	23.94	-22.9	-23.6	17.8	0.00e+00	0	43	0	1164967936	5	3902
2026-01-01 03:34:17.32	139.42	23.73	-22.9	-23.5	17.8	0.00e+00	0	43	0	1179648000	5	3873
2026-01-01 03:34:19.33	139.83	23.51	-22.9	-23.6	17.8	0.00e+00	0	43	0	1194328064	5	3898
2026-01-01 03:34:21.34	140.23	23.30	-23.0	-23.9	17.6	0.00e+00	0	43	0	1209008128	5	3960
2026-01-01 03:34:23.35	140.63	23.09	-23.0	-23.9	17.6	0.00e+00	0	43	0	1223688192	5	3964
2026-01-01 03:34:25.36	141.03	22.88	-23.0	-23.3	17.7	0.00e+00	0	43	0	1237319680	6	3731
2026-01-01 03:34:27.37	141.42	22.67	-23.1	-23.4	17.5	0.00e+00	0	44	0	1251999744	6	3751
2026-01-01 03:34:29.37	141.80	22.47	-23.1	-23.5	17.6	0.00e+00	0	43	0	1266679808	6	3760
2026-01-01 03:34:31.38	142.18	22.26	-23.1	-23.4	17.6	0.00e+00	0	43	0	1281359872	6	3749
2026-01-01 03:34:33.38	142.55	22.05	-23.1	-23.5	17.5	0.00e+00	0	43	0	1296039936	6	3775
2026-01-01 03:34:35.39	142.92	21.84	-23.0	-23.4	17.6	0.00e+00	0	44	0	1309671424	6	3745
2026-01-01 03:34:37.39	143.28	21.64	-23.3	-23.9	17.3	0.00e+00	0	44	0	1324351488	6	3851
2026-01-01 03:34:39.40	143.64	21.43	-23.5	-24.4	17.0	0.00e+00	0	43	0	1339031552	6	3982
2026-01-01 03:34:41.40	144.00	21.23	-23.6	-24.6	16.9	0.00e+00	0	43	0	1353711616	6	4029
2026-01-01 03:34:43.41	144.35	21.02	-23.8	-24.4	16.7	0.00e+00	0	43	0	1368391680	7	3890
2026-01-01 03:34:45.42	144.69	20.81	-23.5	-23.9	16.9	0.00e+00	0	43	0	1383071744	7	3756
2026-01-01 03:34:47.43	145.04	20.61	-23.4	-23.7	17.0	0.00e+00	0	43	0	1396703232	7	3729
2026-01-01 03:34:49.44	145.37	20.41	-23.5	-23.8	17.0	0.00e+00	0	43	0	1411383296	7	3738
2026-01-01 03:34:51.44	145.71	20.21	-23.4	-23.7	17.1	0.00e+00	0	43	0	1426063360	7	3719
2026-01-01 03:34:53.45	146.03	20.00	-23.4	-23.8	17.0	0.00e+00	0	44	0	1440743424	7	3734
2026-01-01 03:34:55.45	146.36	19.80	-23.6	-24.0	16.8	1.48e-03	0	43	0	1455423488	7	3798
2026-01-01 03:34:57.45	146.68	19.60	-23.7	-24.2	16.7	0.00e+00	0	43	0	1469054976	7	3842
2026-01-01 03:34:59.46	146.99	19.40	-23.7	-24.4	16.6	0.00e+00	0	43	0	1483735040	7	3893
2026-01-01 03:35:01.46	147.31	19.20	-23.8	-24.6	16.5	0.00e+00	0	43	0	1498415104	7	3927
2026-01-01 03:35:03.47	147.61	19.01	-24.2	-24.9	16.1	1.50e-03	0	43	0	1513095168	8	3904
2026-01-01 03:35:05.48	147.92	18.81	-23.9	-24.3	16.4	2.20e-06	0	43	0	1527775232	8	3762
2026-01-01 03:35:07.49	148.22	18.61	-24.0	-24.9	16.3	1.76e-03	0	43	0	1541406720	7	4006
2026-01-01 03:35:09.49	148.52	18.42	-23.9	-24.8	16.4	0.00e+00	0	44	0	1556086784	7	3979
2026-01-01 03:35:11.50	148.81	18.22	-23.8	-24.6	16.5	1.02e-05	0	43	0	1570766848	7	3932
2026-01-01 03:35:13.50	149.10	18.03	-23.8	-24.6	16.5	1.62e-03	0	43	0	1585446912	7	3933
2026-01-01 03:35:15.51	149.39	17.83	-24.0	-25.0	16.3	1.63e-03	0	44	0	1600126976	7	4017
2026-01-01 03:35:17.51	149.67	17.64	-24.1	-25.1	16.2	8.12e-05	0	43	0	1613758464	7	4057
2026-01-01 03:35:19.52	149.95	17.45	-24.4	-25.2	15.8	0.00e+00	0	43	0	1628438528	8	3984
2026-01-01 03:35:21.53	150.22	17.26	-24.0	-24.6	16.2	1.80e-03	0	43	0	1643118592	8	3817
2026-01-01 03:35:23.54	150.50	17.07	-24.1	-24.6	16.1	2.49e-04	0	43	0	1657798656	8	3832
2026-01-01 03:35:25.54	150.76	16.88	-24.0	-25.0	16.1	1.98e-03	0	43	0	1672478720	7	4035
2026-01-01 03:35:27.55	151.03	16.69	-24.0	-25.0	16.1	0.00e+00	0	43	0	1687158784	7	4030
2026-01-01 03:35:29.55	151.29	16.51	-24.3	-25.1	15.8	0.00e+00	0	43	0	1700790272	8	3952
2026-01-01 03:35:31.56	151.55	16.32	-24.2	-25.0	15.9	0.00e+00	0	43	0	1715470336	8	3915
2026-01-01 03:35:33.57	151.81	16.13	-24.3	-25.2	15.7	0.00e+00	0	43	0	1730150400	8	3967
2026-01-01 03:35:35.57	152.06	15.95	-24.3	-25.2	15.7	0.00e+00	0	44	0	1744830464	8	3967
2026-01-01 03:35:37.58	152.31	15.77	-24.6	-25.3	15.4	0.00e+00	0	43	0	1759510528	9	3900
2026-01-01 03:35:39.60	152.56	15.58	-24.8	-25.7	15.2	1.10e-06	0	43	0	1774190592	9	3986
2026-01-01 03:35:41.61	152.81	15.40	-24.7	-25.5	15.3	0.00e+00	0	43	0	1787822080	9	3937
2026-01-01 03:35:43.61	153.05	15.22	-24.8	-25.7	15.2	0.00e+00	0	43	0	1802502144	9	3996
2026-01-01 03:35:45.62	153.29	15.04	-24.8	-25.6	15.2	0.00e+00	0	43	0	1817182208	9	3987
2026-01-01 03:35:47.62	153.52	14.86	-24.8	-25.6	15.1	0.00e+00	0	43	0	1831862272	9	3991
2026-01-01 03:35:49.64	153.76	14.68	-24.8	-25.7	15.1	0.00e+00	0	44	0	1845493760	9	4016
2026-01-01 03:35:51.63	153.99	14.51	-24.9	-26.1	14.9	0.00e+00	0	43	0	1860173824	9	4096
2026-01-01 03:35:53.64	154.21	14.33	-24.9	-26.0	14.9	0.00e+00	0	43	0	1874853888	9	4069
2026-01-01 03:35:55.64	154.44	14.15	-24.8	-25.8	15.0	0.00e+00	0	43	0	1889533952	9	4039
2026-01-01 03:35:57.65	154.66	13.98	-25.0	-25.6	14.9	0.00e+00	0	43	0	1904214016	10	3878
2026-01-01 03:35:59.66	154.88	13.80	-24.8	-25.7	15.1	0.00e+00	0	43	0	1918894080	9	3995
2026-01-01 03:36:01.67	155.10	13.63	-24.7	-25.4	15.2	0.00e+00	0	43	0	1932525568	9	3928
2026-01-01 03:36:03.67	155.32	13.46	-24.7	-25.6	15.2	0.00e+00	0	43	0	1947205632	9	3961
2026-01-01 03:36:05.68	155.53	13.29	-24.8	-25.7	15.1	0.00e+00	0	43	0	1961885696	9	3999
2026-01-01 03:36:07.68	155.74	13.12	-24.9	-26.0	14.9	0.00e+00	0	43	0	1976565760	9	4067
2026-01-01 03:36:09.68	155.95	12.95	-25.0	-26.2	14.8	1.10e-06	0	43	0	1990197248	9	4132
2026-01-01 03:36:11.69	156.15	12.78	-25.2	-26.1	14.6	0.00e+00	0	43	0	2004877312	10	3992
2026-01-01 03:36:13.69	156.36	12.61	-25.1	-26.0	14.7	0.00e+00	0	43	0	2019557376	10	3972
2026-01-01 03:36:15.70	156.56	12.44	-25.3	-26.3	14.5	1.10e-06	0	43	0	2034237440	10	4048
2026-01-01 03:36:17.70	156.76	12.28	-25.4	-26.6	14.3	1.10e-06	0	44	0	2048917504	10	4136
2026-01-01 03:36:19.71	156.96	12.11	-25.5	-26.7	14.2	2.20e-06	0	43	0	2063597568	10	4161
2026-01-01 03:36:21.71	157.15	11.95	-25.5	-26.9	14.1	1.10e-06	0	43	0	2077229056	10	4190
2026-01-01 03:36:23.72	157.34	11.78	-25.7	-26.8	13.9	2.20e-06	0	43	0	2091909120	11	4074
2026-01-01 03:36:25.73	157.54	11.62	-25.9	-26.6	13.6	1.14e-05	0	43	0	2106589184	12	3917
2026-01-01 03:36:27.74	157.73	11.46	-25.4	-26.1	14.3	3.40e-06	0	43	0	2121269248	11	3883
2026-01-01 03:36:29.75	157.91	11.30	-25.6	-26.9	14.1	1.10e-06	0	43	0	2135949312	10	4207
2026-01-01 03:36:31.75	158.10	11.14	-25.5	-26.9	14.1	0.00e+00	0	43	0	2150629376	10	4193
2026-01-01 03:36:33.76	158.28	10.98	-25.6	-26.7	12.2	3.40e-06	0	43	0	2164260864	11	4086
2026-01-01 03:36:35.77	158.46	10.82	-25.7	-26.8	13.8	1.76e-03	0	43	0	2178940928	11	4071
2026-01-01 03:36:37.77	158.64	10.66	-25.7	-26.7	13.9	5.70e-06	0	43	0	2193620992	11	4035
2026-01-01 03:36:39.76	158.82	10.50	-25.6	-26.6	13.9	1.10e-06	0	43	0	2208301056	11	4027
2026-01-01 03:36:41.77	158.99	10.34	-25.6	-26.6	13.9	6.80e-06	0	43	0	2221932544	11	4024
2026-01-01 03:36:43.77	159.17	10.19	-25.5	-26.4	14.0	1.25e-05	0	43	0	2236612608	11	3970
2026-01-01 03:36:45.77	159.34	10.03	-25.5	-26.8	14.0	1.71e-03	0	43	0	2251292672	10	4190
2026-01-01 03:36:47.78	159.51	9.88	-25.7	-26.8	13.8	3.40e-06	0	44	0	2265972736	11	4074
2026-01-01 03:36:49.79	159.68	9.73	-25.7	-26.7	13.9	1.10e-06	0	43	0	2280652800	11	4046
2026-01-01 03:36:51.80	159.85	9.57	-25.6	-26.6	13.9	3.40e-06	0	43	0	2294284288	11	4017
2026-01-01 03:36:53.80	160.01	9.42	-25.6	-26.6	13.9	1.66e-03	0	43	0	2308964352	11	4026
2026-01-01 03:36:55.81	160.18	9.27	-25.5	-26.4	14.0	5.70e-06	0	43	0	2323644416	11	3979
2026-01-01 03:36:57.82	160.34	9.12	-25.5	-26.9	13.9	1.75e-03	0	43	0	2338324480	10	4207
2026-01-01 03:36:59.82	160.50	8.97	-25.5	-27.0	13.9	1.86e-03	0	43	0	2353004544	10	4244
2026-01-01 03:37:01.83	160.66	8.82	-25.7	-26.7	13.7	2.97e-05	0	43	0	2367684608	11	4064
2026-01-01 03:37:03.84	160.81	8.67	-25.7	-26.7	13.7	2.08e-03	0	43	0	2381316096	11	4077
2026-01-01 03:37:05.84	160.97	8.52	-25.8	-27.0	13.5	2.22e-03	0	43	0	2395996160	11	4157
2026-01-01 03:37:07.85	161.12	8.37	-25.7	-26.9	13.5	1.34e-04	0	43	0	2410676224	11	4121
2026-01-01 03:37:09.85	161.28	8.23	-25.9	-27.2	13.4	8.00e-06	0	43	0	2425356288	11	4202
2026-01-01 03:37:11.86	161.43	8.08	-25.8	-27.0	13.5	8.00e-06	0	43	0	2440036352	11	4149
2026-01-01 03:37:13.87	161.58	7.94	-25.9	-27.2	13.4	1.98e-04	0	43	0	2453667840	11	4205
2026-01-01 03:37:15.87	161.73	7.79	-26.0	-27.5	13.2	2.29e-03	0	43	0	2468347904	11	4280
2026-01-01 03:37:17.88	161.88	7.65	-26.1	-27.6	13.2	1.37e-05	0	43	0	2483027968	11	4315
2026-01-01 03:37:19.89	162.02	7.51	-26.2	-27.5	12.8	3.54e-05	0	43	0	2497708032	12	4188
2026-01-01 03:37:21.90	162.17	7.36	-26.2	-27.5	12.8	3.54e-05	0	43	0	2512388096	12	4162
2026-01-01 03:37:23.92	162.31	7.22	-26.3	-27.7	12.7	7.78e-05	0	43	0	2527068160	12	4245
2026-01-01 03:37:25.92	162.45	7.08	-26.3	-27.7	12.7	6.17e-05	0	43	0	2540699648	12	4242
2026-01-01 03:37:27.93	162.59	6.94	-32.0	-42.1	3.8	8.45e-01	0	43	104	2544893952	23	11403

#Closed at: 2026-01-01 03:37:29
#Recorded file [2544 MB]: D:/data/31010_260101_063133.dat