passes_logs/2026/01/01/R2M6_AANII_01/R2M6_AANII_01__20260101_105051_NOAA_20_JPSS-1_rec.log

#Pass ID: 20260101_105051_NOAA 20 (JPSS-1)
#Satellite: NOAA 20 (JPSS-1)
#Configuration: NOAA 20
#almurnet v.1.7.20240730
#Start time: 2026-01-01 10:50:53

#Version: 2.2.20231116
#Station: R2M6_AANII_01
#Location: 30.233357 lon 59.946436 lat
#TLE: 1 43013U 17073A   25365.45761817  .00000173  00000+0  10307-3 0  9993
#TLE: 2 43013  98.7620 301.5517 0001951  60.3814 299.7557 14.19531661420675

#Time	Az	El	Level	Level2	SNR	BER	BlckErr	Temp	State	Recorded	gain1	gain2
2026-01-01 10:50:53.77	176.85	7.14	-30.4	-34.7	5.5	1.19e+00	0	41	0	0	21	5901
2026-01-01 10:50:56.78	176.95	7.37	-30.4	-34.1	10.6	3.82e-03	0	41	0	1048576	22	5537
2026-01-01 10:50:59.79	177.06	7.60	-29.9	-33.0	11.8	5.55e-04	0	41	0	7340032	21	5140
2026-01-01 10:51:02.79	177.17	7.83	-29.8	-33.0	12.2	2.96e-04	0	41	0	12582912	20	5256
2026-01-01 10:51:05.80	177.28	8.07	-29.7	-33.0	12.2	2.14e-04	0	41	0	17825792	20	5240
2026-01-01 10:51:08.81	177.39	8.31	-29.7	-33.0	12.3	1.98e-04	0	41	0	24117248	20	5224
2026-01-01 10:51:11.82	177.50	8.55	-29.9	-33.5	12.0	2.32e-04	0	41	0	29360128	20	5416
2026-01-01 10:51:14.83	177.62	8.79	-29.9	-33.5	12.0	4.20e-04	0	41	0	35651584	20	5423
2026-01-01 10:51:17.84	177.73	9.04	-30.0	-33.7	11.9	5.03e-04	0	41	0	40894464	20	5530
2026-01-01 10:51:20.85	177.85	9.29	-29.8	-33.1	12.3	1.85e-04	0	41	0	46137344	20	5252
2026-01-01 10:51:23.86	177.97	9.54	-29.9	-33.3	12.2	1.81e-04	0	41	0	52428800	20	5360
2026-01-01 10:51:26.86	178.09	9.79	-29.7	-32.7	12.7	7.17e-05	0	42	0	57671680	20	5081
2026-01-01 10:51:29.86	178.22	10.04	-29.6	-32.5	12.8	9.38e-05	0	42	0	62914560	20	5022
2026-01-01 10:51:32.88	178.34	10.30	-29.7	-32.7	12.7	6.40e-05	0	42	0	69206016	20	5089
2026-01-01 10:51:35.88	178.47	10.56	-29.8	-33.0	12.5	1.04e-04	0	42	0	74448896	20	5205
2026-01-01 10:51:38.89	178.60	10.83	-29.8	-33.1	12.5	9.91e-05	0	42	0	80740352	20	5239
2026-01-01 10:51:41.90	178.74	11.09	-30.0	-33.7	12.1	2.02e-04	0	42	0	85983232	20	5467
2026-01-01 10:51:44.91	178.87	11.36	-29.8	-32.8	12.7	7.85e-05	0	42	0	91226112	20	5129
2026-01-01 10:51:47.92	179.01	11.63	-29.8	-33.0	12.6	1.05e-04	0	42	0	97517568	20	5199
2026-01-01 10:51:50.93	179.15	11.91	-29.9	-33.3	12.4	1.76e-04	0	42	0	102760448	20	5310
2026-01-01 10:51:53.94	179.29	12.18	-29.7	-32.7	12.9	5.11e-05	0	42	0	109051904	20	5068
2026-01-01 10:51:56.94	179.43	12.46	-29.7	-32.7	12.9	6.10e-05	0	42	0	114294784	20	5054
2026-01-01 10:51:59.94	179.58	12.75	-29.5	-31.9	13.4	1.29e-05	0	42	0	119537664	20	4782
2026-01-01 10:52:02.95	179.73	13.03	-29.5	-32.1	13.3	1.44e-05	0	42	0	125829120	20	4839
2026-01-01 10:52:05.96	179.88	13.32	-29.4	-31.8	13.6	8.30e-06	0	42	0	131072000	20	4725
2026-01-01 10:52:08.97	180.04	13.61	-29.5	-31.9	13.5	1.06e-05	0	43	0	136314880	20	4761
2026-01-01 10:52:11.98	180.20	13.91	-29.4	-31.6	13.7	7.60e-06	0	42	0	142606336	20	4674
2026-01-01 10:52:14.98	180.36	14.21	-29.5	-32.0	13.4	1.67e-05	0	42	0	147849216	20	4801
2026-01-01 10:52:17.99	180.52	14.51	-29.5	-32.0	13.5	6.80e-06	0	42	0	154140672	20	4788
2026-01-01 10:52:21.01	180.69	14.82	-29.7	-32.5	13.2	1.37e-05	0	42	0	159383552	20	4955
2026-01-01 10:52:24.02	180.86	15.13	-29.5	-31.9	13.6	1.14e-05	0	42	0	164626432	20	4772
2026-01-01 10:52:27.03	181.04	15.45	-29.6	-32.1	13.4	6.80e-06	0	43	0	170917888	20	4823
2026-01-01 10:52:30.05	181.22	15.77	-29.4	-31.7	13.7	4.50e-06	0	43	0	176160768	20	4695
2026-01-01 10:52:33.05	181.40	16.09	-29.4	-31.7	13.8	9.90e-06	0	43	0	181403648	20	4695
2026-01-01 10:52:36.06	181.58	16.42	-29.4	-31.7	13.8	3.00e-06	0	43	0	187695104	20	4680
2026-01-01 10:52:39.06	181.77	16.75	-29.4	-31.7	13.8	8.30e-06	0	43	0	192937984	20	4663
2026-01-01 10:52:42.07	181.97	17.08	-29.4	-31.7	13.9	6.80e-06	0	43	0	199229440	20	4663
2026-01-01 10:52:45.08	182.16	17.42	-29.4	-31.8	13.8	1.75e-05	0	43	0	204472320	20	4696
2026-01-01 10:52:48.07	182.37	17.76	-29.4	-31.7	13.8	9.10e-06	0	43	0	209715200	20	4685
2026-01-01 10:52:51.08	182.57	18.11	-29.6	-32.1	13.6	1.22e-05	0	43	0	216006656	20	4830
2026-01-01 10:52:54.09	182.78	18.47	-29.5	-32.0	13.7	1.22e-05	0	43	0	221249536	20	4780
2026-01-01 10:52:57.10	183.00	18.82	-29.5	-31.8	13.8	5.30e-06	0	43	0	226492416	20	4711
2026-01-01 10:53:00.10	183.22	19.19	-29.5	-31.8	13.8	5.30e-06	0	43	0	232783872	20	4726
2026-01-01 10:53:03.10	183.44	19.55	-29.4	-31.8	13.9	5.30e-06	0	43	0	238026752	20	4708
2026-01-01 10:53:06.11	183.67	19.92	-29.4	-31.7	14.0	3.00e-06	0	43	0	244318208	20	4667
2026-01-01 10:53:09.13	183.91	20.30	-29.5	-32.0	13.8	2.20e-06	0	43	0	249561088	20	4776
2026-01-01 10:53:12.14	184.15	20.69	-29.5	-32.0	13.8	2.20e-06	0	43	0	254803968	20	4780
2026-01-01 10:53:15.14	184.40	21.08	-29.4	-31.6	14.1	3.00e-06	0	43	0	261095424	20	4641
2026-01-01 10:53:18.14	184.65	21.47	-29.3	-31.7	14.4	0.00e+00	0	43	0	266338304	19	4765
2026-01-01 10:53:21.15	184.91	21.87	-29.0	-31.1	14.8	0.00e+00	0	43	0	272629760	19	4550
2026-01-01 10:53:24.15	185.18	22.27	-28.9	-30.8	15.0	0.00e+00	0	43	0	277872640	19	4469
2026-01-01 10:53:27.16	185.45	22.69	-28.7	-30.7	15.4	0.00e+00	0	43	0	283115520	18	4543
2026-01-01 10:53:30.17	185.73	23.10	-28.5	-30.3	15.7	0.00e+00	0	43	0	289406976	18	4395
2026-01-01 10:53:33.18	186.02	23.53	-28.5	-30.1	15.8	0.00e+00	0	43	0	294649856	18	4334
2026-01-01 10:53:36.18	186.31	23.96	-28.5	-30.2	15.8	0.00e+00	0	43	0	299892736	18	4366
2026-01-01 10:53:39.18	186.62	24.39	-28.4	-29.9	16.0	0.00e+00	0	43	0	306184192	18	4269
2026-01-01 10:53:42.19	186.93	24.84	-28.4	-29.9	15.9	0.00e+00	0	43	0	311427072	18	4290
2026-01-01 10:53:45.21	187.25	25.29	-28.2	-30.0	16.2	0.00e+00	0	43	0	317718528	17	4420
2026-01-01 10:53:48.22	187.58	25.75	-28.2	-30.0	16.2	0.00e+00	0	43	0	322961408	17	4409
2026-01-01 10:53:51.23	187.92	26.21	-28.3	-30.2	16.1	0.00e+00	0	43	0	328204288	17	4465
2026-01-01 10:53:54.23	188.26	26.68	-28.5	-30.6	15.9	0.00e+00	0	43	0	334495744	17	4580
2026-01-01 10:53:57.24	188.62	27.16	-28.7	-31.1	15.6	0.00e+00	0	43	0	339738624	17	4739
2026-01-01 10:54:00.24	188.99	27.64	-28.9	-31.5	15.4	0.00e+00	0	43	0	344981504	17	4885
2026-01-01 10:54:03.24	189.37	28.13	-29.0	-31.4	15.2	0.00e+00	0	43	0	351272960	18	4733
2026-01-01 10:54:06.25	189.76	28.63	-29.4	-32.4	14.6	0.00e+00	0	43	0	356515840	18	5077
2026-01-01 10:54:09.25	190.16	29.14	-30.0	-32.9	13.5	8.30e-06	0	43	0	362807296	20	5059
2026-01-01 10:54:12.26	190.58	29.66	-30.3	-33.8	13.0	4.27e-05	0	43	0	368050176	20	5385
2026-01-01 10:54:15.28	191.01	30.18	-30.5	-34.0	12.5	8.62e-05	0	43	0	373293056	21	5352
2026-01-01 10:54:18.28	191.45	30.71	-31.0	-34.9	11.6	6.22e-04	0	43	0	379584512	22	5638
2026-01-01 10:54:21.30	191.91	31.26	-31.3	-35.7	11.0	1.76e-03	0	43	0	384827392	22	6018
2026-01-01 10:54:24.31	192.39	31.80	-31.5	-36.0	10.4	4.32e-03	0	43	0	390070272	23	6042
2026-01-01 10:54:27.30	192.87	32.36	-31.3	-35.3	11.0	2.46e-03	0	43	0	396361728	23	5702
2026-01-01 10:54:30.30	193.38	32.92	-31.2	-34.9	11.3	1.11e-03	0	43	0	401604608	23	5510
2026-01-01 10:54:33.29	193.90	33.49	-30.9	-34.0	11.9	6.77e-04	0	43	0	407896064	23	5147
2026-01-01 10:54:36.30	194.44	34.07	-30.7	-33.9	12.3	1.20e-04	0	43	0	413138944	22	5193
2026-01-01 10:54:39.31	195.00	34.66	-30.9	-34.3	12.1	2.43e-04	0	43	0	418381824	22	5360
2026-01-01 10:54:42.32	195.58	35.26	-30.9	-34.3	12.1	2.78e-04	0	43	0	424673280	22	5354
2026-01-01 10:54:45.34	196.19	35.86	-30.6	-33.6	12.6	9.15e-05	0	43	0	429916160	22	5089
2026-01-01 10:54:48.34	196.81	36.48	-30.2	-33.0	13.3	2.51e-05	0	43	0	435159040	21	4935
2026-01-01 10:54:51.34	197.46	37.10	-30.1	-32.5	13.6	1.52e-05	0	43	0	441450496	21	4788
2026-01-01 10:54:54.34	198.13	37.72	-30.0	-32.4	13.7	2.20e-06	0	43	0	446693376	21	4744
2026-01-01 10:54:57.35	198.83	38.36	-30.0	-32.5	13.7	6.80e-06	0	43	0	452984832	21	4764
2026-01-01 10:55:00.36	199.56	39.00	-30.3	-33.1	13.3	1.67e-05	0	43	0	458227712	21	4971
2026-01-01 10:55:03.36	200.31	39.65	-30.2	-33.0	13.4	9.90e-06	0	43	0	463470592	21	4946
2026-01-01 10:55:06.37	201.10	40.31	-30.1	-32.5	13.7	6.80e-06	0	43	0	469762048	21	4787
2026-01-01 10:55:09.38	201.92	40.97	-30.2	-33.0	13.4	1.14e-05	0	43	0	475004928	21	4937
2026-01-01 10:55:12.38	202.77	41.64	-29.9	-32.1	14.0	3.80e-06	0	43	0	480247808	21	4616
2026-01-01 10:55:15.39	203.65	42.31	-29.3	-31.1	14.9	0.00e+00	0	43	0	486539264	20	4408
2026-01-01 10:55:18.40	204.58	42.99	-29.6	-31.8	14.4	0.00e+00	0	43	0	491782144	20	4645
2026-01-01 10:55:21.41	205.54	43.67	-29.9	-32.6	14.0	3.00e-06	0	43	0	498073600	20	4900
2026-01-01 10:55:24.41	206.55	44.36	-30.3	-33.6	13.3	8.30e-06	0	43	0	503316480	20	5276
2026-01-01 10:55:27.43	207.60	45.05	-30.7	-34.3	12.6	5.87e-05	0	43	0	508559360	21	5448
2026-01-01 10:55:30.45	208.70	45.74	-31.0	-34.6	12.0	3.31e-04	0	43	0	514850816	22	5455
2026-01-01 10:55:33.46	209.85	46.43	-30.9	-34.3	12.3	1.75e-04	0	43	0	520093696	22	5321
2026-01-01 10:55:36.47	211.04	47.11	-31.7	-36.4	10.4	2.52e-03	0	43	0	526385152	23	6198
2026-01-01 10:55:39.49	212.29	47.80	-32.0	-37.0	9.6	1.44e-02	0	43	0	531628032	24	6403
2026-01-01 10:55:42.52	213.61	48.49	-32.1	-37.3	9.4	1.81e-02	0	43	0	536870912	24	6558
2026-01-01 10:55:45.52	214.96	49.16	-32.5	-38.7	8.0	7.87e-02	0	43	0	543162368	25	7279
2026-01-01 10:55:48.52	216.38	49.82	-32.0	-36.5	9.7	1.23e-02	0	43	0	548405248	25	6000
2026-01-01 10:55:51.53	217.86	50.48	-31.7	-35.8	10.5	3.47e-03	0	43	0	553648128	24	5760
2026-01-01 10:55:54.54	219.41	51.13	-31.3	-34.8	11.6	1.08e-03	0	43	0	559939584	23	5430
2026-01-01 10:55:57.55	221.03	51.76	-31.1	-34.4	11.9	7.74e-04	0	43	0	565182464	23	5247
2026-01-01 10:56:00.55	222.71	52.37	-30.5	-33.1	13.2	2.05e-05	0	43	0	571473920	22	4850
2026-01-01 10:56:03.56	224.46	52.97	-30.2	-32.9	13.7	6.80e-06	0	43	0	576716800	21	4876
2026-01-01 10:56:06.57	226.29	53.54	-30.2	-32.8	13.7	7.60e-06	0	43	0	581959680	21	4842
2026-01-01 10:56:09.58	228.18	54.10	-29.6	-31.7	14.7	0.00e+00	0	43	0	588251136	20	4583
2026-01-01 10:56:12.59	230.15	54.62	-30.1	-33.0	13.9	6.10e-06	0	43	0	593494016	20	5030
2026-01-01 10:56:15.61	232.20	55.12	-29.3	-31.0	15.1	7.00e-07	0	43	0	599785472	20	4380
2026-01-01 10:56:18.62	234.31	55.58	-29.8	-32.6	14.6	0.00e+00	0	43	0	605028352	19	4984
2026-01-01 10:56:21.63	236.48	56.01	-29.4	-31.2	15.1	0.00e+00	0	43	0	610271232	20	4425
2026-01-01 10:56:24.64	238.72	56.40	-29.5	-31.8	15.1	0.00e+00	0	43	0	616562688	19	4716
2026-01-01 10:56:27.66	241.03	56.76	-29.9	-32.8	14.5	7.00e-07	0	43	0	621805568	19	5045
2026-01-01 10:56:30.68	243.40	57.06	-30.0	-33.1	14.3	1.50e-06	0	43	0	627048448	19	5155
2026-01-01 10:56:33.68	245.80	57.33	-30.8	-34.3	12.8	3.73e-05	0	43	0	633339904	21	5397
2026-01-01 10:56:36.68	248.23	57.54	-31.3	-35.2	12.0	1.88e-04	0	43	0	638582784	22	5686
2026-01-01 10:56:39.70	250.73	57.71	-31.6	-35.6	11.3	2.54e-03	0	43	0	644874240	23	5764
2026-01-01 10:56:42.71	253.23	57.82	-31.2	-34.5	12.1	1.85e-04	0	43	0	650117120	23	5269
2026-01-01 10:56:45.72	255.76	57.89	-31.5	-35.5	11.3	2.26e-03	0	43	0	655360000	23	5707
2026-01-01 10:56:48.73	258.29	57.90	-31.5	-35.4	11.4	1.65e-03	0	43	0	661651456	23	5646
2026-01-01 10:56:51.73	260.81	57.86	-31.7	-36.2	10.8	5.30e-03	0	43	0	666894336	23	6022
2026-01-01 10:56:54.74	263.32	57.77	-30.7	-33.6	13.0	3.58e-05	0	43	0	672137216	22	5012
2026-01-01 10:56:57.75	265.82	57.63	-30.9	-34.1	12.7	3.28e-05	0	43	0	678428672	22	5208
2026-01-01 10:57:00.76	268.28	57.44	-31.0	-34.2	12.6	7.17e-05	0	43	0	683671552	22	5259
2026-01-01 10:57:03.76	270.70	57.20	-32.3	-37.7	9.4	9.57e-03	0	43	0	689963008	24	6682
2026-01-01 10:57:06.76	273.07	56.92	-32.5	-38.0	8.7	4.36e-02	0	43	0	695205888	25	6800
2026-01-01 10:57:09.77	275.40	56.59	-32.0	-36.3	10.0	2.10e-02	0	43	0	700448768	25	5859
2026-01-01 10:57:12.78	277.67	56.22	-32.1	-36.9	9.9	8.81e-03	0	43	0	706740224	24	6285
2026-01-01 10:57:15.78	279.87	55.81	-31.2	-34.5	12.0	1.25e-03	0	44	0	711983104	23	5284
2026-01-01 10:57:18.79	282.01	55.36	-29.9	-32.0	14.3	1.50e-06	0	43	0	717225984	21	4584
2026-01-01 10:57:21.81	284.09	54.88	-28.4	-29.7	16.7	0.00e+00	0	43	0	723517440	18	4166
2026-01-01 10:57:24.82	286.09	54.37	-28.5	-29.9	16.6	0.00e+00	0	43	0	728760320	18	4236
2026-01-01 10:57:27.83	288.02	53.83	-28.0	-29.3	17.2	0.00e+00	0	43	0	735051776	17	4176
2026-01-01 10:57:30.83	289.87	53.27	-28.0	-29.4	17.2	0.00e+00	0	43	0	740294656	17	4189
2026-01-01 10:57:33.85	291.66	52.69	-28.0	-29.3	17.2	0.00e+00	0	43	0	745537536	17	4169
2026-01-01 10:57:36.85	293.37	52.08	-29.3	-31.7	15.5	0.00e+00	0	43	0	751828992	18	4791
2026-01-01 10:57:39.86	295.02	51.46	-30.0	-33.1	14.4	0.00e+00	0	43	0	757071872	19	5136
2026-01-01 10:57:42.87	296.60	50.83	-31.5	-35.6	11.3	1.82e-03	0	43	0	763363328	23	5721
2026-01-01 10:57:45.88	298.11	50.18	-31.9	-36.8	10.4	1.82e-03	0	43	0	768606208	23	6336
2026-01-01 10:57:48.88	299.56	49.52	-32.5	-37.7	8.5	6.88e-02	0	43	0	773849088	26	6550
2026-01-01 10:57:51.90	300.95	48.85	-32.3	-37.3	9.2	1.93e-02	0	43	0	780140544	25	6385
2026-01-01 10:57:54.90	302.28	48.18	-32.5	-38.0	8.7	4.59e-02	0	43	0	785383424	25	6815
2026-01-01 10:57:57.90	303.55	47.50	-32.2	-36.8	9.6	4.79e-03	0	43	0	790626304	25	6137
2026-01-01 10:58:00.91	304.77	46.82	-32.7	-38.2	8.1	2.03e-01	0	43	0	796917760	26	6848
2026-01-01 10:58:03.92	305.93	46.13	-32.0	-36.6	10.1	2.80e-03	0	43	0	802160640	24	6121
2026-01-01 10:58:06.92	307.05	45.45	-32.1	-37.0	9.8	2.27e-02	0	43	0	808452096	24	6363
2026-01-01 10:58:09.93	308.12	44.76	-31.0	-34.0	12.4	2.05e-04	0	43	0	813694976	23	5058
2026-01-01 10:58:12.95	309.15	44.08	-31.5	-35.4	11.4	7.51e-04	0	43	0	818937856	23	5677
2026-01-01 10:58:15.94	310.13	43.40	-31.4	-35.2	11.5	6.00e-04	0	43	0	825229312	23	5563
2026-01-01 10:58:18.95	311.08	42.72	-31.8	-36.6	10.5	4.18e-03	0	43	0	830472192	23	6251
2026-01-01 10:58:21.95	311.98	42.05	-31.9	-36.7	10.4	4.27e-03	0	43	0	835715072	23	6282
2026-01-01 10:58:24.96	312.85	41.38	-32.0	-36.6	10.1	8.94e-03	0	43	0	842006528	24	6112
2026-01-01 10:58:27.97	313.68	40.72	-32.0	-36.7	10.0	9.14e-03	0	43	0	847249408	24	6188
2026-01-01 10:58:30.97	314.48	40.07	-31.9	-36.3	10.3	4.11e-03	0	43	0	853540864	24	5975
2026-01-01 10:58:33.98	315.26	39.42	-32.1	-37.1	9.7	1.96e-02	0	43	0	858783744	24	6389
2026-01-01 10:58:36.98	316.00	38.77	-31.7	-35.5	10.9	1.30e-03	0	43	0	864026624	24	5618
2026-01-01 10:58:39.98	316.71	38.14	-32.7	-39.1	7.7	7.05e-02	0	43	0	870318080	25	7547
2026-01-01 10:58:42.98	317.39	37.51	-31.7	-35.6	10.8	2.87e-03	0	43	0	875560960	24	5669
2026-01-01 10:58:45.98	318.05	36.89	-31.7	-35.7	10.7	2.50e-03	0	44	0	880803840	24	5724
2026-01-01 10:58:48.99	318.69	36.28	-32.7	-39.5	7.4	7.57e-02	0	43	0	887095296	25	7815
2026-01-01 10:58:51.99	319.30	35.67	-31.1	-34.2	12.1	1.27e-03	0	43	0	892338176	23	5169
2026-01-01 10:58:54.99	319.89	35.07	-30.2	-32.7	13.8	4.50e-06	0	43	0	897581056	21	4806
2026-01-01 10:58:58.00	320.46	34.48	-31.8	-36.8	10.3	1.50e-03	0	43	0	903872512	23	6340
2026-01-01 10:59:01.01	321.02	33.90	-31.9	-36.5	10.1	1.42e-02	0	43	0	909115392	24	6133
2026-01-01 10:59:04.02	321.55	33.33	-30.3	-32.5	13.5	1.22e-05	0	43	0	915406848	22	4636
2026-01-01 10:59:07.02	322.06	32.76	-30.7	-34.2	12.8	2.89e-05	0	43	0	920649728	21	5358
2026-01-01 10:59:10.04	322.56	32.20	-31.2	-35.3	11.7	5.55e-04	0	43	0	925892608	22	5756
2026-01-01 10:59:13.06	323.05	31.65	-31.7	-36.2	10.6	3.13e-03	0	43	0	932184064	23	6075
2026-01-01 10:59:16.07	323.51	31.11	-31.6	-36.0	10.7	4.32e-03	0	43	0	937426944	23	5963
2026-01-01 10:59:19.09	323.97	30.57	-31.3	-35.0	11.5	7.23e-04	0	44	0	943718400	23	5517
2026-01-01 10:59:22.10	324.40	30.05	-31.0	-34.1	12.1	2.71e-04	0	43	0	948961280	23	5133
2026-01-01 10:59:25.11	324.83	29.53	-30.9	-33.8	12.3	2.70e-04	0	43	0	954204160	23	5022
2026-01-01 10:59:28.12	325.24	29.02	-31.1	-34.4	11.8	2.97e-04	0	43	0	960495616	23	5277
2026-01-01 10:59:31.13	325.64	28.52	-31.2	-34.8	11.6	6.95e-04	0	43	0	965738496	23	5447
2026-01-01 10:59:34.14	326.03	28.02	-31.0	-34.2	12.0	3.75e-04	0	43	0	970981376	23	5180
2026-01-01 10:59:37.15	326.40	27.53	-30.7	-33.6	12.7	9.23e-05	0	43	0	977272832	22	5069
2026-01-01 10:59:40.15	326.76	27.06	-31.0	-34.5	12.0	4.34e-04	0	43	0	982515712	22	5436
2026-01-01 10:59:43.16	327.12	26.58	-31.0	-34.7	11.9	2.64e-04	0	43	0	988807168	22	5521
2026-01-01 10:59:46.16	327.46	26.12	-31.4	-35.8	11.1	1.25e-03	0	43	0	994050048	22	6013
2026-01-01 10:59:49.16	327.80	25.66	-31.3	-35.5	11.4	1.10e-03	0	43	0	999292928	22	5864
2026-01-01 10:59:52.18	328.12	25.21	-31.1	-34.9	11.7	8.77e-04	0	43	0	1005584384	22	5612
2026-01-01 10:59:55.18	328.44	24.76	-30.7	-33.8	12.6	1.03e-04	0	43	0	1010827264	22	5129
2026-01-01 10:59:58.20	328.75	24.32	-30.4	-32.8	13.2	2.82e-05	0	43	0	1016070144	22	4774
2026-01-01 11:00:01.21	329.05	23.89	-30.1	-32.6	13.6	6.10e-06	0	43	0	1022361600	21	4824
2026-01-01 11:00:04.21	329.34	23.47	-30.0	-32.5	13.7	3.00e-06	0	43	0	1027604480	21	4774
2026-01-01 11:00:07.23	329.63	23.05	-30.3	-33.3	13.1	2.44e-05	0	43	0	1033895936	21	5072
2026-01-01 11:00:10.24	329.91	22.63	-30.5	-33.8	12.8	7.55e-05	0	43	0	1039138816	21	5248
2026-01-01 11:00:13.26	330.18	22.23	-30.4	-33.5	12.9	6.71e-05	0	43	0	1044381696	21	5155
2026-01-01 11:00:16.26	330.44	21.83	-30.3	-33.2	13.2	2.97e-05	0	43	0	1050673152	21	5021
2026-01-01 11:00:19.27	330.70	21.43	-30.2	-32.9	13.4	1.60e-05	0	43	0	1055916032	21	4903
2026-01-01 11:00:22.28	330.95	21.04	-30.0	-32.4	13.7	7.60e-06	0	43	0	1062207488	21	4738
2026-01-01 11:00:25.28	331.20	20.66	-30.3	-33.2	13.1	3.89e-05	0	43	0	1067450368	21	5030
2026-01-01 11:00:28.29	331.44	20.28	-30.3	-33.3	13.0	3.73e-05	0	43	0	1072693248	21	5100
2026-01-01 11:00:31.29	331.67	19.90	-30.4	-33.6	12.8	4.11e-05	0	43	0	1078984704	21	5187
2026-01-01 11:00:34.29	331.90	19.54	-30.1	-32.7	13.4	2.21e-05	0	44	0	1084227584	21	4875
2026-01-01 11:00:37.29	332.13	19.17	-29.9	-32.1	13.7	2.20e-06	0	43	0	1089470464	21	4664
2026-01-01 11:00:40.30	332.35	18.82	-29.8	-32.5	13.8	4.50e-06	0	43	0	1095761920	20	4879
2026-01-01 11:00:43.31	332.56	18.46	-29.4	-31.4	14.5	1.50e-06	0	43	0	1101004800	20	4536
2026-01-01 11:00:46.32	332.77	18.11	-29.3	-31.5	14.8	0.00e+00	0	43	0	1107296256	19	4649
2026-01-01 11:00:49.32	332.98	17.77	-29.2	-31.4	14.8	0.00e+00	0	43	0	1112539136	19	4637
2026-01-01 11:00:52.32	333.18	17.43	-29.3	-31.6	14.7	0.00e+00	0	43	0	1117782016	19	4697
2026-01-01 11:00:55.34	333.38	17.09	-29.5	-32.1	14.4	0.00e+00	0	43	0	1124073472	19	4875
2026-01-01 11:00:58.35	333.57	16.76	-29.8	-33.0	13.8	1.50e-06	0	43	0	1129316352	19	5176
2026-01-01 11:01:01.36	333.76	16.43	-30.0	-33.2	13.3	1.14e-05	0	43	0	1135607808	20	5160
2026-01-01 11:01:04.35	333.94	16.11	-30.3	-33.8	12.8	5.34e-05	0	44	0	1140850688	20	5406
2026-01-01 11:01:07.36	334.13	15.79	-30.3	-33.9	12.7	7.40e-05	0	43	0	1146093568	20	5473
2026-01-01 11:01:10.37	334.30	15.47	-30.3	-33.8	12.8	5.49e-05	0	44	0	1152385024	20	5408
2026-01-01 11:01:13.38	334.48	15.16	-30.0	-33.2	13.2	2.44e-05	0	43	0	1157627904	20	5173
2026-01-01 11:01:16.39	334.65	14.86	-29.9	-32.7	13.5	1.52e-05	0	43	0	1162870784	20	4986
2026-01-01 11:01:19.40	334.82	14.55	-29.9	-32.7	13.5	1.44e-05	0	43	0	1169162240	20	4974
2026-01-01 11:01:22.40	334.99	14.25	-29.9	-32.7	13.4	1.22e-05	0	44	0	1174405120	20	5010
2026-01-01 11:01:25.41	335.15	13.95	-30.0	-33.2	13.1	2.44e-05	0	43	0	1180696576	20	5174
2026-01-01 11:01:28.42	335.31	13.66	-29.9	-32.8	13.3	1.90e-05	0	43	0	1185939456	20	5046
2026-01-01 11:01:31.44	335.46	13.37	-30.0	-33.1	13.1	1.98e-05	0	43	0	1191182336	20	5147
2026-01-01 11:01:34.45	335.62	13.08	-30.0	-33.1	13.1	3.66e-05	0	43	0	1197473792	20	5149
2026-01-01 11:01:37.45	335.77	12.80	-30.1	-33.6	12.7	5.72e-05	0	43	0	1202716672	20	5346
2026-01-01 11:01:40.46	335.92	12.52	-30.3	-33.9	12.4	1.43e-04	0	43	0	1207959552	20	5506
2026-01-01 11:01:43.45	336.06	12.24	-30.3	-34.2	12.2	2.29e-04	0	43	0	1214251008	20	5639
2026-01-01 11:01:46.46	336.21	11.97	-30.3	-33.7	12.2	2.33e-04	0	43	0	1219493888	21	5321
2026-01-01 11:01:49.48	336.35	11.69	-30.3	-33.5	12.3	1.52e-04	0	43	0	1225785344	21	5229
2026-01-01 11:01:52.47	336.48	11.43	-30.5	-34.1	11.9	3.55e-04	0	44	0	1231028224	21	5493
2026-01-01 11:01:55.48	336.62	11.16	-30.4	-34.1	11.9	3.49e-04	0	43	0	1236271104	21	5470
2026-01-01 11:01:58.48	336.76	10.90	-30.4	-34.1	11.8	5.93e-04	0	44	0	1242562560	21	5486
2026-01-01 11:02:01.50	336.89	10.64	-30.1	-33.2	12.5	1.32e-04	0	43	0	1247805440	21	5098
2026-01-01 11:02:04.51	337.02	10.38	-30.1	-33.1	12.6	1.09e-04	0	44	0	1253048320	21	5074
2026-01-01 11:02:07.53	337.15	10.12	-30.1	-33.2	12.4	1.17e-04	0	43	0	1259339776	21	5112
2026-01-01 11:02:10.55	337.27	9.87	-30.2	-33.3	12.3	1.69e-04	0	43	0	1264582656	21	5179
2026-01-01 11:02:13.54	337.40	9.62	-30.2	-33.6	12.1	2.86e-04	0	43	0	1270874112	21	5294
2026-01-01 11:02:16.54	337.52	9.37	-30.3	-33.7	12.0	2.85e-04	0	44	0	1276116992	21	5331
2026-01-01 11:02:19.55	337.64	9.12	-30.1	-33.2	12.3	1.74e-04	0	43	0	1281359872	21	5123
2026-01-01 11:02:22.56	337.76	8.88	-30.2	-33.5	12.1	2.59e-04	0	43	0	1287651328	21	5259
2026-01-01 11:02:25.57	337.87	8.64	-30.3	-33.7	11.9	4.65e-04	0	44	0	1292894208	21	5368
2026-01-01 11:02:28.57	337.99	8.40	-30.4	-34.2	11.5	1.03e-03	0	43	0	1298137088	21	5559
2026-01-01 11:02:31.59	338.10	8.16	-30.4	-34.2	11.5	8.93e-04	0	43	0	1304428544	21	5573
2026-01-01 11:02:34.59	338.22	7.93	-30.5	-34.4	11.3	1.06e-03	0	44	0	1309671424	21	5683
2026-01-01 11:02:37.60	338.33	7.70	-30.7	-35.3	10.5	3.97e-03	0	43	0	1315962880	21	6119
2026-01-01 11:02:40.61	338.43	7.47	-30.6	-35.0	10.8	2.40e-03	0	43	0	1321205760	21	5941
2026-01-01 11:02:43.62	338.54	7.24	-30.8	-35.7	10.3	3.21e-03	0	43	0	1326448640	21	6290
2026-01-01 11:02:46.63	338.65	7.01	-33.2	-47.4	3.8	1.49e+00	0	44	104	1330642944	26	18570

#Closed at: 2026-01-01 11:02:49
#Recorded file [1330 MB]: D:/data/31010_260101_135055.dat