passes_logs/2026/01/01/R2M6_AANII_01/R2M6_AANII_01__20260101_121211_SUOMI_NPP_rec.log

#Pass ID: 20260101_121211_SUOMI NPP
#Satellite: SUOMI NPP
#Configuration: NPP
#almurnet v.1.7.20240730
#Start time: 2026-01-01 12:12:13

#Version: 2.2.20231116
#Station: R2M6_AANII_01
#Location: 30.233357 lon 59.946436 lat
#TLE: 1 37849U 11061A   25364.87906317  .00000195  00000+0  11345-3 0  9992
#TLE: 2 37849  98.7794 302.0592 0002571  89.2401 270.9069 14.19520347734561

#Time	Az	El	Level	Level2	SNR	BER	BlckErr	Temp	State	Recorded	gain1	gain2
2026-01-01 12:12:13.63	220.68	7.11	-31.1	-35.4	5.1	1.20e+00	0	41	0	0	22	5932
2026-01-01 12:12:16.64	221.00	7.29	-31.4	-35.5	7.4	1.20e-01	0	41	0	1048576	24	5802
2026-01-01 12:12:19.65	221.33	7.47	-31.2	-35.1	8.2	5.08e-02	0	41	0	7340032	23	5636
2026-01-01 12:12:22.67	221.66	7.65	-30.9	-33.7	9.4	2.06e-02	0	41	0	12582912	23	4969
2026-01-01 12:12:25.68	221.99	7.83	-30.8	-33.9	9.5	1.08e-02	0	41	0	18874368	22	5162
2026-01-01 12:12:28.69	222.33	8.01	-30.7	-33.6	9.9	1.20e-02	0	41	0	24117248	22	5008
2026-01-01 12:12:31.69	222.67	8.19	-30.8	-33.8	9.7	8.58e-03	0	41	0	29360128	22	5095
2026-01-01 12:12:34.71	223.02	8.37	-30.5	-32.8	10.6	4.28e-03	0	41	0	35651584	22	4675
2026-01-01 12:12:37.71	223.37	8.55	-30.5	-32.7	10.6	3.46e-03	0	41	0	40894464	22	4628
2026-01-01 12:12:40.72	223.72	8.73	-30.4	-32.4	10.8	2.24e-03	0	41	0	46137344	22	4533
2026-01-01 12:12:43.72	224.08	8.91	-29.9	-31.4	11.8	5.24e-04	0	42	0	52428800	21	4288
2026-01-01 12:12:46.73	224.44	9.09	-29.9	-31.3	12.0	3.49e-04	0	42	0	57671680	21	4236
2026-01-01 12:12:49.74	224.81	9.28	-29.9	-31.3	12.0	4.12e-04	0	42	0	63963136	21	4235
2026-01-01 12:12:52.75	225.18	9.46	-29.8	-31.5	12.3	2.79e-04	0	42	0	69206016	20	4372
2026-01-01 12:12:55.76	225.56	9.64	-29.9	-31.7	12.1	2.16e-04	0	42	0	74448896	20	4449
2026-01-01 12:12:58.76	225.94	9.83	-30.0	-32.1	11.9	4.84e-04	0	42	0	80740352	20	4571
2026-01-01 12:13:01.76	226.32	10.01	-30.0	-32.0	12.0	4.20e-04	0	42	0	85983232	20	4535
2026-01-01 12:13:04.76	226.71	10.19	-29.8	-31.4	12.4	2.01e-04	0	42	0	91226112	20	4332
2026-01-01 12:13:07.77	227.11	10.38	-29.6	-31.0	12.7	7.55e-05	0	42	0	97517568	20	4207
2026-01-01 12:13:10.78	227.51	10.56	-29.7	-31.1	12.6	9.61e-05	0	42	0	102760448	20	4246
2026-01-01 12:13:13.79	227.91	10.75	-29.7	-31.3	12.5	2.16e-04	0	42	0	109051904	20	4291
2026-01-01 12:13:16.80	228.32	10.93	-29.7	-31.3	12.5	1.35e-04	0	42	0	114294784	20	4291
2026-01-01 12:13:19.81	228.73	11.12	-29.9	-31.7	12.2	2.94e-04	0	42	0	119537664	20	4447
2026-01-01 12:13:22.82	229.15	11.30	-29.5	-30.7	12.9	5.11e-05	0	42	0	125829120	20	4103
2026-01-01 12:13:25.83	229.58	11.49	-29.4	-30.4	13.1	3.96e-05	0	42	0	131072000	20	4038
2026-01-01 12:13:28.84	230.01	11.67	-29.6	-30.7	12.9	7.62e-05	0	42	0	136314880	20	4110
2026-01-01 12:13:31.84	230.44	11.86	-30.0	-31.9	12.1	2.49e-04	0	42	0	142606336	20	4505
2026-01-01 12:13:34.85	230.88	12.04	-30.1	-32.3	11.9	3.68e-04	0	42	0	147849216	20	4637
2026-01-01 12:13:37.87	231.33	12.23	-30.3	-32.8	11.5	4.59e-04	0	43	0	154140672	20	4823
2026-01-01 12:13:40.89	231.78	12.41	-29.7	-31.2	12.6	1.34e-04	0	43	0	159383552	20	4279
2026-01-01 12:13:43.90	232.24	12.59	-29.6	-30.9	12.8	5.34e-05	0	42	0	164626432	20	4179
2026-01-01 12:13:46.90	232.70	12.78	-29.6	-30.9	12.9	7.01e-05	0	43	0	170917888	20	4148
2026-01-01 12:13:49.91	233.17	12.96	-29.5	-30.6	13.1	4.50e-05	0	43	0	176160768	20	4063
2026-01-01 12:13:52.92	233.65	13.14	-29.4	-30.1	13.4	1.60e-05	0	43	0	181403648	20	3937
2026-01-01 12:13:55.92	234.12	13.33	-29.4	-30.2	13.4	1.29e-05	0	43	0	187695104	20	3948
2026-01-01 12:13:58.92	234.61	13.51	-29.4	-30.2	13.4	1.52e-05	0	42	0	192937984	20	3950
2026-01-01 12:14:01.93	235.10	13.69	-29.3	-30.1	13.4	1.14e-05	0	43	0	199229440	20	3913
2026-01-01 12:14:04.94	235.60	13.87	-29.6	-30.7	13.1	2.05e-05	0	43	0	204472320	20	4110
2026-01-01 12:14:07.94	236.10	14.05	-29.5	-30.4	13.3	2.05e-05	0	43	0	209715200	20	4014
2026-01-01 12:14:10.94	236.60	14.23	-29.5	-30.4	13.3	2.13e-05	0	43	0	216006656	20	3994
2026-01-01 12:14:13.96	237.12	14.41	-29.7	-31.0	12.9	2.05e-05	0	43	0	221249536	20	4187
2026-01-01 12:14:16.96	237.64	14.59	-29.8	-31.4	12.6	9.38e-05	0	43	0	226492416	20	4318
2026-01-01 12:14:19.97	238.17	14.77	-29.6	-30.7	13.2	3.66e-05	0	43	0	232783872	20	4085
2026-01-01 12:14:22.98	238.70	14.94	-29.4	-30.2	13.4	1.83e-05	0	43	0	238026752	20	3945
2026-01-01 12:14:25.99	239.24	15.12	-29.7	-30.9	13.0	2.82e-05	0	43	0	244318208	20	4156
2026-01-01 12:14:29.01	239.79	15.29	-29.7	-30.9	13.0	4.80e-05	0	43	0	249561088	20	4152
2026-01-01 12:14:32.02	240.34	15.46	-29.4	-30.2	13.5	1.44e-05	0	43	0	254803968	20	3939
2026-01-01 12:14:35.03	240.90	15.64	-29.4	-30.2	13.5	1.60e-05	0	43	0	261095424	20	3939
2026-01-01 12:14:38.03	241.46	15.81	-29.4	-30.5	13.7	9.10e-06	0	43	0	266338304	19	4096
2026-01-01 12:14:41.03	242.03	15.97	-29.3	-30.3	13.8	6.10e-06	0	43	0	272629760	19	4057
2026-01-01 12:14:44.05	242.61	16.14	-29.4	-30.5	13.7	9.90e-06	0	43	0	277872640	19	4119
2026-01-01 12:14:47.06	243.19	16.31	-29.4	-30.6	13.7	7.60e-06	0	43	0	283115520	19	4118
2026-01-01 12:14:50.06	243.78	16.47	-29.6	-31.0	13.4	9.10e-06	0	43	0	289406976	19	4246
2026-01-01 12:14:53.08	244.37	16.63	-29.3	-30.2	13.9	4.50e-06	0	43	0	294649856	19	4019
2026-01-01 12:14:56.08	244.97	16.79	-29.6	-31.2	13.3	8.30e-06	0	43	0	299892736	19	4306
2026-01-01 12:14:59.09	245.58	16.95	-29.8	-31.6	13.0	2.89e-05	0	43	0	306184192	19	4451
2026-01-01 12:15:02.10	246.19	17.11	-29.7	-31.3	13.3	2.21e-05	0	43	0	311427072	19	4347
2026-01-01 12:15:05.11	246.81	17.26	-29.8	-31.7	13.0	3.43e-05	0	43	0	317718528	19	4480
2026-01-01 12:15:08.12	247.44	17.41	-29.9	-31.3	12.9	5.18e-05	0	43	0	322961408	20	4260
2026-01-01 12:15:11.13	248.07	17.56	-30.0	-31.6	12.7	5.03e-05	0	43	0	328204288	20	4346
2026-01-01 12:15:14.14	248.71	17.71	-30.1	-32.0	12.5	8.62e-05	0	43	0	334495744	20	4471
2026-01-01 12:15:17.14	249.35	17.85	-30.2	-32.3	12.3	1.99e-04	0	43	0	339738624	20	4579
2026-01-01 12:15:20.14	250.00	17.99	-30.5	-33.1	11.7	5.01e-04	0	43	0	346030080	20	4878
2026-01-01 12:15:23.15	250.66	18.13	-30.5	-32.8	11.5	5.23e-04	0	43	0	351272960	21	4678
2026-01-01 12:15:26.16	251.32	18.27	-30.6	-32.8	11.5	6.18e-04	0	43	0	356515840	21	4685
2026-01-01 12:15:29.16	251.98	18.40	-30.7	-33.3	11.3	7.97e-04	0	43	0	362807296	21	4846
2026-01-01 12:15:32.17	252.66	18.53	-30.4	-32.4	11.9	4.22e-04	0	43	0	368050176	21	4534
2026-01-01 12:15:35.18	253.34	18.66	-30.5	-32.7	11.7	6.16e-04	0	43	0	373293056	21	4644
2026-01-01 12:15:38.20	254.02	18.78	-30.6	-32.9	11.5	8.68e-04	0	43	0	379584512	21	4696
2026-01-01 12:15:41.22	254.71	18.90	-30.1	-31.6	12.5	1.30e-04	0	43	0	384827392	21	4248
2026-01-01 12:15:44.22	255.41	19.02	-30.4	-32.3	11.9	5.03e-04	0	43	0	391118848	21	4509
2026-01-01 12:15:47.24	256.11	19.13	-30.3	-32.0	12.1	2.29e-04	0	43	0	396361728	21	4406
2026-01-01 12:15:50.24	256.81	19.24	-30.1	-31.4	12.5	1.15e-04	0	43	0	401604608	21	4210
2026-01-01 12:15:53.25	257.52	19.34	-29.9	-31.0	12.8	3.50e-05	0	43	0	407896064	21	4070
2026-01-01 12:15:56.26	258.23	19.44	-29.4	-29.9	13.8	1.52e-05	0	43	0	413138944	20	3845
2026-01-01 12:15:59.26	258.95	19.54	-29.1	-29.7	14.4	9.10e-06	0	43	0	418381824	19	3854
2026-01-01 12:16:02.26	259.67	19.63	-29.2	-29.9	14.4	5.30e-06	0	43	0	424673280	19	3908
2026-01-01 12:16:05.27	260.40	19.72	-28.9	-29.2	14.7	0.00e+00	0	43	0	429916160	19	3728
2026-01-01 12:16:08.27	261.13	19.81	-29.2	-30.4	14.3	2.20e-06	0	43	0	436207616	18	4154
2026-01-01 12:16:11.28	261.86	19.89	-29.2	-30.5	14.3	7.00e-07	0	43	0	441450496	18	4166
2026-01-01 12:16:14.29	262.60	19.96	-29.3	-30.6	14.2	0.00e+00	0	43	0	446693376	18	4210
2026-01-01 12:16:17.29	263.34	20.03	-29.3	-30.7	14.1	0.00e+00	0	43	0	452984832	18	4232
2026-01-01 12:16:20.29	264.08	20.10	-29.3	-30.7	14.2	4.50e-06	0	43	0	458227712	18	4220
2026-01-01 12:16:23.30	264.83	20.16	-29.4	-30.4	14.0	5.30e-06	0	43	0	463470592	19	4071
2026-01-01 12:16:26.31	265.58	20.22	-28.8	-29.0	14.9	7.00e-07	0	43	0	469762048	19	3665
2026-01-01 12:16:29.32	266.33	20.27	-29.4	-30.4	14.0	7.00e-07	0	43	0	475004928	19	4060
2026-01-01 12:16:32.33	267.09	20.32	-29.5	-30.8	13.8	6.80e-06	0	43	0	481296384	19	4165
2026-01-01 12:16:35.33	267.85	20.36	-29.7	-31.2	13.5	9.10e-06	0	43	0	486539264	19	4281
2026-01-01 12:16:38.33	268.60	20.40	-30.0	-31.5	12.9	3.66e-05	0	43	0	491782144	20	4306
2026-01-01 12:16:41.34	269.37	20.43	-29.3	-29.8	14.1	4.50e-06	0	43	0	498073600	20	3789
2026-01-01 12:16:44.35	270.13	20.46	-29.6	-30.9	13.7	4.50e-06	0	43	0	503316480	19	4211
2026-01-01 12:16:47.36	270.89	20.49	-29.3	-30.1	14.2	7.00e-07	0	43	0	508559360	19	3964
2026-01-01 12:16:50.37	271.66	20.50	-29.4	-30.4	14.0	2.20e-06	0	43	0	514850816	19	4062
2026-01-01 12:16:53.37	272.42	20.52	-29.9	-31.9	13.1	3.43e-05	0	43	0	520093696	19	4500
2026-01-01 12:16:56.38	273.19	20.53	-29.8	-31.7	13.2	2.67e-05	0	43	0	526385152	19	4458
2026-01-01 12:16:59.37	273.95	20.53	-30.0	-31.6	12.8	7.85e-05	0	43	0	531628032	20	4348
2026-01-01 12:17:02.38	274.72	20.53	-29.9	-31.4	13.0	3.28e-05	0	43	0	536870912	20	4259
2026-01-01 12:17:05.38	275.48	20.52	-30.0	-31.7	12.8	3.58e-05	0	43	0	543162368	20	4383
2026-01-01 12:17:08.38	276.24	20.51	-29.8	-31.1	13.2	2.74e-05	0	43	0	548405248	20	4179
2026-01-01 12:17:11.38	277.01	20.49	-29.6	-30.5	13.6	1.06e-05	0	43	0	553648128	20	3990
2026-01-01 12:17:14.39	277.77	20.47	-30.1	-31.9	12.7	5.18e-05	0	43	0	559939584	20	4439
2026-01-01 12:17:17.40	278.53	20.44	-29.7	-30.9	13.3	2.28e-05	0	43	0	565182464	20	4128
2026-01-01 12:17:20.41	279.29	20.41	-30.0	-31.6	12.8	6.02e-05	0	43	0	571473920	20	4348
2026-01-01 12:17:23.42	280.05	20.37	-29.8	-31.2	13.1	3.35e-05	0	43	0	576716800	20	4215
2026-01-01 12:17:26.42	280.81	20.33	-29.8	-31.0	13.2	3.35e-05	0	43	0	581959680	20	4145
2026-01-01 12:17:29.44	281.57	20.28	-29.6	-30.5	13.7	3.80e-06	0	43	0	588251136	20	3989
2026-01-01 12:17:32.45	282.32	20.23	-30.0	-31.6	12.8	4.04e-05	0	43	0	593494016	20	4342
2026-01-01 12:17:35.46	283.07	20.17	-30.0	-31.6	12.8	8.85e-05	0	43	0	598736896	20	4345
2026-01-01 12:17:38.48	283.82	20.11	-29.7	-30.7	13.4	1.29e-05	0	43	0	605028352	20	4046
2026-01-01 12:17:41.48	284.56	20.05	-29.7	-30.8	13.4	1.44e-05	0	43	0	610271232	20	4079
2026-01-01 12:17:44.49	285.30	19.98	-29.7	-30.8	13.4	2.74e-05	0	43	0	616562688	20	4080
2026-01-01 12:17:47.49	286.04	19.90	-29.7	-30.9	13.3	1.37e-05	0	43	0	621805568	20	4122
2026-01-01 12:17:50.50	286.77	19.82	-29.5	-30.4	13.6	8.30e-06	0	43	0	627048448	20	3990
2026-01-01 12:17:53.50	287.50	19.74	-29.7	-30.9	13.3	2.05e-05	0	43	0	633339904	20	4138
2026-01-01 12:17:56.51	288.22	19.65	-29.7	-30.7	13.4	6.80e-06	0	43	0	638582784	20	4075
2026-01-01 12:17:59.51	288.94	19.56	-30.1	-32.0	12.6	8.62e-05	0	43	0	643825664	20	4469
2026-01-01 12:18:02.53	289.66	19.46	-30.0	-31.8	12.6	1.20e-04	0	43	0	650117120	20	4423
2026-01-01 12:18:05.53	290.37	19.36	-29.5	-30.4	13.6	1.52e-05	0	43	0	655360000	20	3980
2026-01-01 12:18:08.55	291.08	19.26	-29.5	-30.5	13.5	1.22e-05	0	43	0	661651456	20	4022
2026-01-01 12:18:11.56	291.79	19.15	-29.7	-30.8	13.3	1.52e-05	0	43	0	666894336	20	4095
2026-01-01 12:18:14.57	292.49	19.04	-29.9	-31.5	12.8	5.18e-05	0	43	0	672137216	20	4307
2026-01-01 12:18:17.58	293.18	18.92	-29.8	-31.1	13.0	5.87e-05	0	43	0	678428672	20	4212
2026-01-01 12:18:20.58	293.86	18.81	-29.8	-31.3	12.9	4.42e-05	0	43	0	683671552	20	4273
2026-01-01 12:18:23.60	294.55	18.68	-29.5	-30.4	13.5	2.67e-05	0	43	0	689963008	20	3979
2026-01-01 12:18:26.61	295.23	18.56	-29.4	-30.6	13.8	8.30e-06	0	43	0	695205888	19	4114
2026-01-01 12:18:29.60	295.89	18.43	-29.4	-30.5	13.8	1.50e-06	0	43	0	700448768	19	4105
2026-01-01 12:18:32.62	296.56	18.30	-29.3	-30.3	13.9	4.50e-06	0	43	0	706740224	19	4054
2026-01-01 12:18:35.62	297.22	18.17	-29.8	-31.6	13.1	2.05e-05	0	43	0	711983104	19	4460
2026-01-01 12:18:38.64	297.88	18.03	-29.5	-30.9	13.5	6.10e-06	0	43	0	717225984	19	4231
2026-01-01 12:18:41.64	298.52	17.89	-29.5	-30.9	13.6	4.50e-06	0	43	0	723517440	19	4232
2026-01-01 12:18:44.65	299.17	17.75	-29.4	-30.7	13.8	5.30e-06	0	43	0	728760320	19	4141
2026-01-01 12:18:47.66	299.80	17.60	-29.5	-30.8	13.6	1.14e-05	0	43	0	735051776	19	4189
2026-01-01 12:18:50.67	300.44	17.45	-29.9	-31.6	12.8	7.62e-05	0	43	0	740294656	20	4343
2026-01-01 12:18:53.67	301.06	17.30	-29.9	-31.5	12.8	7.09e-05	0	43	0	745537536	20	4307
2026-01-01 12:18:56.68	301.68	17.15	-30.0	-31.8	12.6	9.00e-05	0	43	0	751828992	20	4411
2026-01-01 12:18:59.69	302.29	17.00	-29.9	-31.5	12.8	8.01e-05	0	43	0	757071872	20	4330
2026-01-01 12:19:02.70	302.90	16.84	-29.7	-31.0	13.1	3.35e-05	0	43	0	762314752	20	4150
2026-01-01 12:19:05.70	303.49	16.68	-29.8	-31.2	12.9	4.95e-05	0	43	0	768606208	20	4243
2026-01-01 12:19:08.71	304.09	16.52	-30.2	-32.5	12.0	2.04e-04	0	43	0	773849088	20	4652
2026-01-01 12:19:11.71	304.67	16.36	-30.6	-33.1	11.3	6.86e-04	0	43	0	780140544	21	4794
2026-01-01 12:19:14.71	305.25	16.20	-30.5	-32.9	11.4	1.06e-03	0	43	0	785383424	21	4715
2026-01-01 12:19:17.71	305.83	16.03	-30.2	-31.9	12.1	3.00e-04	0	43	0	790626304	21	4360
2026-01-01 12:19:20.72	306.40	15.86	-29.9	-31.0	12.7	6.71e-05	0	43	0	796917760	21	4093
2026-01-01 12:19:23.73	306.96	15.70	-29.8	-31.2	12.9	3.73e-05	0	43	0	802160640	20	4230
2026-01-01 12:19:26.74	307.52	15.53	-30.3	-32.8	11.8	4.21e-04	0	43	0	807403520	20	4773
2026-01-01 12:19:29.76	308.07	15.35	-30.7	-33.6	10.9	2.34e-03	0	43	0	813694976	21	4993
2026-01-01 12:19:32.77	308.61	15.18	-30.4	-32.6	11.6	8.52e-04	0	43	0	818937856	21	4605
2026-01-01 12:19:35.78	309.15	15.01	-30.1	-31.7	12.2	2.06e-04	0	43	0	825229312	21	4328
2026-01-01 12:19:38.78	309.68	14.83	-30.2	-31.8	12.1	4.29e-04	0	43	0	830472192	21	4360
2026-01-01 12:19:41.77	310.20	14.66	-29.9	-30.9	12.7	1.65e-04	0	43	0	835715072	21	4060
2026-01-01 12:19:44.79	310.73	14.48	-29.7	-31.0	12.9	7.01e-05	0	43	0	842006528	20	4176
2026-01-01 12:19:47.79	311.24	14.31	-30.1	-32.1	12.3	1.21e-04	0	43	0	847249408	20	4526
2026-01-01 12:19:50.80	311.75	14.13	-30.1	-32.1	12.2	2.32e-04	0	43	0	852492288	20	4550
2026-01-01 12:19:53.81	312.25	13.95	-30.1	-32.1	12.2	1.86e-04	0	43	0	858783744	20	4551
2026-01-01 12:19:56.82	312.75	13.77	-30.0	-31.8	12.4	1.67e-04	0	43	0	864026624	20	4433
2026-01-01 12:19:59.83	313.24	13.59	-30.1	-32.0	12.2	2.96e-04	0	43	0	870318080	20	4527
2026-01-01 12:20:02.84	313.72	13.41	-30.0	-31.8	12.3	1.27e-04	0	43	0	875560960	20	4451
2026-01-01 12:20:05.85	314.20	13.23	-30.0	-32.0	12.2	1.75e-04	0	43	0	880803840	20	4498
2026-01-01 12:20:08.86	314.67	13.05	-30.1	-32.2	12.1	4.29e-04	0	43	0	887095296	20	4573
2026-01-01 12:20:11.88	315.14	12.86	-29.6	-30.7	13.1	5.72e-05	0	43	0	892338176	20	4091
2026-01-01 12:20:14.88	315.60	12.68	-29.3	-29.9	13.6	1.29e-05	0	43	0	897581056	20	3862
2026-01-01 12:20:17.89	316.06	12.50	-29.3	-30.4	13.6	7.60e-06	0	43	0	903872512	19	4097
2026-01-01 12:20:20.90	316.51	12.32	-29.9	-31.9	12.6	3.66e-05	0	43	0	909115392	19	4559
2026-01-01 12:20:23.92	316.96	12.13	-29.9	-31.7	12.4	1.46e-04	0	43	0	915406848	20	4407
2026-01-01 12:20:26.93	317.40	11.95	-29.8	-31.3	12.6	7.47e-05	0	43	0	920649728	20	4297
2026-01-01 12:20:29.94	317.84	11.77	-29.6	-30.8	13.0	6.48e-05	0	43	0	925892608	20	4116
2026-01-01 12:20:32.95	318.27	11.58	-29.7	-31.2	12.7	9.53e-05	0	43	0	932184064	20	4249
2026-01-01 12:20:35.97	318.69	11.40	-29.9	-31.5	12.5	1.33e-04	0	43	0	937426944	20	4354
2026-01-01 12:20:38.98	319.11	11.22	-29.7	-30.9	12.8	4.88e-05	0	43	0	943718400	20	4171
2026-01-01 12:20:41.98	319.53	11.04	-29.6	-30.9	12.9	5.26e-05	0	43	0	948961280	20	4154
2026-01-01 12:20:44.99	319.94	10.85	-30.1	-32.4	11.8	2.55e-04	0	43	0	954204160	20	4657
2026-01-01 12:20:48.00	320.34	10.67	-30.4	-33.1	11.3	1.06e-03	0	43	0	960495616	20	4922
2026-01-01 12:20:51.01	320.74	10.49	-30.2	-32.7	11.5	1.08e-03	0	43	0	965738496	20	4774
2026-01-01 12:20:54.03	321.14	10.30	-30.2	-32.6	11.6	7.03e-04	0	43	0	970981376	20	4754
2026-01-01 12:20:57.04	321.53	10.12	-30.3	-32.8	11.4	8.49e-04	0	43	0	977272832	20	4831
2026-01-01 12:21:00.05	321.91	9.94	-30.2	-32.7	11.5	7.32e-04	0	43	0	982515712	20	4797
2026-01-01 12:21:03.06	322.29	9.76	-30.1	-32.4	11.7	6.03e-04	0	43	0	988807168	20	4676
2026-01-01 12:21:06.07	322.67	9.58	-30.0	-31.9	12.0	4.13e-04	0	43	0	994050048	20	4508
2026-01-01 12:21:09.08	323.04	9.39	-30.2	-32.6	11.5	5.30e-04	0	43	0	999292928	20	4760
2026-01-01 12:21:12.09	323.41	9.21	-30.3	-33.0	11.2	1.22e-03	0	43	0	1005584384	20	4923
2026-01-01 12:21:15.10	323.77	9.03	-30.2	-32.8	11.3	1.13e-03	0	43	0	1010827264	20	4859
2026-01-01 12:21:18.10	324.13	8.85	-29.9	-31.9	11.9	5.20e-04	0	43	0	1017118720	20	4519
2026-01-01 12:21:21.11	324.49	8.67	-29.8	-31.4	12.3	2.17e-04	0	43	0	1022361600	20	4348
2026-01-01 12:21:24.12	324.84	8.49	-29.9	-31.9	12.0	3.42e-04	0	43	0	1027604480	20	4510
2026-01-01 12:21:27.13	325.18	8.31	-30.2	-32.7	11.3	1.01e-03	0	43	0	1033895936	20	4821
2026-01-01 12:21:30.14	325.53	8.14	-30.3	-33.2	10.9	2.05e-03	0	43	0	1039138816	20	5019
2026-01-01 12:21:33.15	325.87	7.96	-30.3	-33.1	11.0	1.52e-03	0	43	0	1044381696	20	4962
2026-01-01 12:21:36.16	326.20	7.78	-30.0	-32.2	11.6	7.02e-04	0	43	0	1050673152	20	4640
2026-01-01 12:21:39.17	326.53	7.60	-29.8	-31.6	12.1	2.81e-04	0	43	0	1055916032	20	4412
2026-01-01 12:21:42.18	326.86	7.43	-29.9	-31.9	11.8	5.45e-04	0	43	0	1062207488	20	4530
2026-01-01 12:21:45.18	327.18	7.25	-30.3	-33.0	10.9	1.83e-03	0	43	0	1067450368	20	4967
2026-01-01 12:21:48.18	327.50	7.07	-30.4	-33.0	10.6	6.28e-03	0	43	0	1072693248	21	4854

#Closed at: 2026-01-01 12:21:51
#Recorded file [1073 MB]: D:/data/31010_260101_151215.dat