passes_logs/2026/01/01/R2M6_AANII_01/R2M6_AANII_01__20260101_085048_SUOMI_NPP_rec.log

#Pass ID: 20260101_085048_SUOMI NPP
#Satellite: SUOMI NPP
#Configuration: NPP
#almurnet v.1.7.20240730
#Start time: 2026-01-01 08:50:48

#Version: 2.2.20231116
#Station: R2M6_AANII_01
#Location: 30.233357 lon 59.946436 lat
#TLE: 1 37849U 11061A   25364.87906317  .00000195  00000+0  11345-3 0  9992
#TLE: 2 37849  98.7794 302.0592 0002571  89.2401 270.9069 14.19520347734561

#Time	Az	El	Level	Level2	SNR	BER	BlckErr	Temp	State	Recorded	gain1	gain2
2026-01-01 08:50:48.20	112.54	7.00	-31.8	-38.1	4.3	1.42e+00	0	40	0	0	25	7384
2026-01-01 08:50:51.21	112.31	7.21	-31.5	-36.6	6.6	2.39e-01	0	41	0	1048576	24	6408
2026-01-01 08:50:54.21	112.08	7.42	-31.5	-36.1	6.9	2.17e-01	0	41	0	7340032	24	6158
2026-01-01 08:50:57.21	111.85	7.63	-31.6	-36.4	6.7	1.62e-01	0	41	0	12582912	24	6294
2026-01-01 08:51:00.22	111.61	7.84	-31.2	-35.1	8.1	9.10e-02	0	41	0	17825792	23	5641
2026-01-01 08:51:03.23	111.37	8.05	-30.5	-32.9	10.3	5.35e-03	0	41	0	24117248	22	4752
2026-01-01 08:51:06.24	111.13	8.26	-30.5	-33.3	10.4	2.56e-03	0	41	0	29360128	21	4993
2026-01-01 08:51:09.24	110.88	8.48	-30.5	-33.4	10.4	4.68e-03	0	41	0	35651584	21	5021
2026-01-01 08:51:12.24	110.63	8.69	-30.6	-33.6	10.2	4.39e-03	0	41	0	40894464	21	5087
2026-01-01 08:51:15.25	110.38	8.91	-30.6	-33.6	10.3	5.11e-03	0	42	0	46137344	21	5092
2026-01-01 08:51:18.26	110.12	9.13	-30.5	-33.3	10.5	3.86e-03	0	42	0	52428800	21	4982
2026-01-01 08:51:21.27	109.85	9.35	-30.5	-33.1	10.8	2.57e-03	0	41	0	57671680	21	4863
2026-01-01 08:51:24.28	109.59	9.57	-30.3	-32.4	11.2	1.16e-03	0	42	0	62914560	21	4618
2026-01-01 08:51:27.28	109.32	9.80	-30.3	-32.5	11.3	1.36e-03	0	42	0	69206016	21	4628
2026-01-01 08:51:30.29	109.04	10.02	-30.3	-32.5	11.3	1.48e-03	0	42	0	74448896	21	4638
2026-01-01 08:51:33.32	108.76	10.25	-30.4	-32.7	11.1	1.24e-03	0	42	0	80740352	21	4722
2026-01-01 08:51:36.33	108.47	10.48	-30.5	-33.1	10.8	3.06e-03	0	42	0	85983232	21	4862
2026-01-01 08:51:39.34	108.18	10.71	-30.2	-32.2	11.5	1.07e-03	0	42	0	91226112	21	4538
2026-01-01 08:51:42.35	107.89	10.94	-30.3	-32.4	11.4	1.01e-03	0	42	0	97517568	21	4601
2026-01-01 08:51:45.36	107.59	11.17	-30.4	-32.8	11.2	1.29e-03	0	42	0	102760448	21	4730
2026-01-01 08:51:48.36	107.29	11.40	-30.4	-32.6	11.2	1.33e-03	0	42	0	109051904	21	4673
2026-01-01 08:51:51.37	106.98	11.64	-30.4	-32.5	11.3	1.24e-03	0	42	0	114294784	21	4635
2026-01-01 08:51:54.38	106.67	11.87	-30.2	-32.2	11.6	1.20e-03	0	42	0	119537664	21	4500
2026-01-01 08:51:57.38	106.35	12.11	-30.6	-33.4	10.8	1.37e-03	0	42	0	125829120	21	4950
2026-01-01 08:52:00.39	106.02	12.35	-30.4	-32.7	11.3	1.10e-03	0	42	0	131072000	21	4691
2026-01-01 08:52:03.39	105.69	12.59	-30.3	-32.4	11.5	8.15e-04	0	42	0	136314880	21	4591
2026-01-01 08:52:06.42	105.36	12.83	-30.3	-32.4	11.6	8.44e-04	0	42	0	142606336	21	4565
2026-01-01 08:52:09.41	105.02	13.07	-30.1	-31.6	12.1	4.50e-04	0	42	0	147849216	21	4312
2026-01-01 08:52:12.43	104.67	13.32	-30.0	-31.5	12.1	2.55e-04	0	42	0	154140672	21	4272
2026-01-01 08:52:15.43	104.32	13.56	-30.1	-32.3	12.0	3.00e-04	0	42	0	159383552	20	4610
2026-01-01 08:52:18.45	103.96	13.81	-29.9	-31.5	12.6	1.90e-04	0	42	0	164626432	20	4340
2026-01-01 08:52:21.46	103.59	14.06	-30.2	-32.4	12.0	1.77e-04	0	42	0	170917888	20	4660
2026-01-01 08:52:24.47	103.22	14.31	-30.7	-33.4	10.9	1.20e-03	0	42	0	176160768	21	4947
2026-01-01 08:52:27.47	102.84	14.56	-30.5	-32.7	11.6	7.24e-04	0	42	0	181403648	21	4655
2026-01-01 08:52:30.48	102.46	14.81	-30.3	-32.1	12.0	3.93e-04	0	42	0	187695104	21	4434
2026-01-01 08:52:33.48	102.07	15.07	-30.5	-32.7	11.5	9.80e-04	0	42	0	192937984	21	4670
2026-01-01 08:52:36.49	101.67	15.32	-30.2	-31.9	12.0	3.28e-04	0	42	0	199229440	21	4397
2026-01-01 08:52:39.51	101.27	15.58	-30.1	-31.6	12.3	2.78e-04	0	43	0	204472320	21	4270
2026-01-01 08:52:42.50	100.86	15.84	-29.8	-30.8	12.9	1.56e-04	0	43	0	209715200	21	4021
2026-01-01 08:52:45.51	100.44	16.10	-29.8	-31.1	13.0	3.05e-05	0	43	0	216006656	20	4199
2026-01-01 08:52:48.52	100.01	16.36	-29.8	-31.3	12.9	3.73e-05	0	42	0	221249536	20	4269
2026-01-01 08:52:51.53	99.58	16.62	-29.7	-30.9	13.2	1.22e-05	0	42	0	226492416	20	4139
2026-01-01 08:52:54.54	99.13	16.88	-29.7	-31.0	13.2	2.05e-05	0	43	0	232783872	20	4176
2026-01-01 08:52:57.55	98.68	17.15	-29.7	-30.9	13.1	2.13e-05	0	43	0	238026752	20	4148
2026-01-01 08:53:00.55	98.23	17.41	-29.7	-31.1	13.0	3.66e-05	0	43	0	244318208	20	4234
2026-01-01 08:53:03.57	97.76	17.68	-29.6	-30.6	13.3	1.98e-05	0	43	0	249561088	20	4077
2026-01-01 08:53:06.58	97.28	17.94	-29.6	-30.9	13.1	1.83e-05	0	43	0	254803968	20	4176
2026-01-01 08:53:09.58	96.80	18.21	-29.7	-30.9	13.1	3.43e-05	0	43	0	261095424	20	4177
2026-01-01 08:53:12.59	96.31	18.48	-29.6	-30.7	13.3	4.27e-05	0	43	0	266338304	20	4107
2026-01-01 08:53:15.60	95.81	18.75	-29.5	-30.9	13.5	9.90e-06	0	43	0	271581184	19	4245
2026-01-01 08:53:18.62	95.30	19.02	-29.7	-31.5	13.2	1.98e-05	0	43	0	277872640	19	4440
2026-01-01 08:53:21.62	94.78	19.29	-29.9	-32.0	12.9	4.34e-05	0	43	0	283115520	19	4600
2026-01-01 08:53:24.62	94.25	19.55	-29.9	-32.2	12.8	6.48e-05	0	43	0	289406976	19	4651
2026-01-01 08:53:27.64	93.71	19.83	-30.1	-32.2	12.4	2.32e-04	0	43	0	294649856	20	4588
2026-01-01 08:53:30.66	93.16	20.10	-30.2	-32.4	12.2	1.69e-04	0	43	0	300941312	20	4658
2026-01-01 08:53:33.66	92.61	20.37	-30.0	-32.0	12.5	7.93e-05	0	43	0	306184192	20	4501
2026-01-01 08:53:36.67	92.04	20.64	-30.0	-31.8	12.7	7.78e-05	0	43	0	311427072	20	4437
2026-01-01 08:53:39.67	91.47	20.91	-30.2	-32.6	12.1	2.66e-04	0	43	0	317718528	20	4717
2026-01-01 08:53:42.68	90.88	21.18	-30.2	-32.3	12.4	2.22e-04	0	43	0	322961408	20	4599
2026-01-01 08:53:45.69	90.28	21.45	-29.9	-31.4	13.0	4.80e-05	0	43	0	328204288	20	4312
2026-01-01 08:53:48.70	89.67	21.72	-29.7	-31.0	13.3	2.05e-05	0	43	0	334495744	20	4164
2026-01-01 08:53:51.71	89.05	21.99	-30.0	-31.7	12.8	3.12e-05	0	43	0	339738624	20	4398
2026-01-01 08:53:54.71	88.42	22.26	-29.7	-31.0	13.3	3.28e-05	0	43	0	346030080	20	4158
2026-01-01 08:53:57.71	87.78	22.52	-29.7	-31.0	13.3	2.97e-05	0	43	0	351272960	20	4171
2026-01-01 08:54:00.71	87.13	22.79	-29.7	-30.8	13.4	5.30e-06	0	43	0	356515840	20	4115
2026-01-01 08:54:03.73	86.46	23.05	-28.8	-29.1	14.9	7.00e-07	0	43	0	362807296	19	3709
2026-01-01 08:54:06.74	85.79	23.32	-28.7	-29.4	15.0	0.00e+00	0	43	0	368050176	18	3876
2026-01-01 08:54:09.75	85.10	23.58	-29.2	-30.7	14.2	1.50e-06	0	43	0	373293056	18	4272
2026-01-01 08:54:12.76	84.40	23.84	-29.1	-30.4	14.4	1.50e-06	0	43	0	379584512	18	4156
2026-01-01 08:54:15.77	83.69	24.10	-29.1	-30.3	14.5	1.50e-06	0	43	0	384827392	18	4131
2026-01-01 08:54:18.78	82.97	24.35	-29.0	-30.0	14.7	7.00e-07	0	43	0	391118848	18	4051
2026-01-01 08:54:21.80	82.23	24.60	-29.1	-30.3	14.5	7.00e-07	0	43	0	396361728	18	4119
2026-01-01 08:54:24.80	81.49	24.85	-29.3	-30.9	14.1	4.50e-06	0	43	0	401604608	18	4316
2026-01-01 08:54:27.81	80.73	25.10	-29.1	-30.3	14.5	0.00e+00	0	43	0	407896064	18	4127
2026-01-01 08:54:30.82	79.96	25.34	-29.2	-30.4	14.4	1.50e-06	0	43	0	413138944	18	4168
2026-01-01 08:54:33.84	79.18	25.58	-29.0	-30.0	14.7	7.00e-07	0	43	0	418381824	18	4047
2026-01-01 08:54:36.85	78.38	25.82	-29.0	-30.0	14.7	0.00e+00	0	43	0	424673280	18	4027
2026-01-01 08:54:39.85	77.58	26.05	-29.3	-30.8	14.3	1.50e-06	0	43	0	429916160	18	4254
2026-01-01 08:54:42.86	76.76	26.28	-29.2	-30.6	14.5	0.00e+00	0	43	0	436207616	18	4195
2026-01-01 08:54:45.88	75.93	26.50	-29.1	-30.2	14.6	7.00e-07	0	43	0	441450496	18	4087
2026-01-01 08:54:48.89	75.09	26.72	-29.7	-31.3	13.7	3.80e-06	0	43	0	446693376	19	4327
2026-01-01 08:54:51.90	74.24	26.93	-29.7	-31.3	13.6	4.50e-06	0	43	0	452984832	19	4346
2026-01-01 08:54:54.90	73.38	27.14	-29.5	-30.8	13.9	3.80e-06	0	43	0	458227712	19	4188
2026-01-01 08:54:57.91	72.50	27.34	-29.5	-30.9	13.9	7.00e-07	0	43	0	464519168	19	4195
2026-01-01 08:55:00.92	71.62	27.54	-29.7	-31.3	13.7	3.80e-06	0	43	0	469762048	19	4328
2026-01-01 08:55:03.94	70.72	27.73	-29.4	-30.4	14.2	2.20e-06	0	43	0	475004928	19	4052
2026-01-01 08:55:06.95	69.81	27.91	-29.5	-30.9	13.9	3.00e-06	0	43	0	481296384	19	4193
2026-01-01 08:55:09.97	68.89	28.09	-29.6	-30.9	14.0	3.80e-06	0	43	0	486539264	19	4204
2026-01-01 08:55:12.99	67.96	28.25	-29.8	-31.6	13.5	9.10e-06	0	43	0	491782144	19	4430
2026-01-01 08:55:16.00	67.02	28.42	-29.6	-30.7	13.6	1.83e-05	0	43	0	498073600	20	4066
2026-01-01 08:55:19.02	66.07	28.57	-29.4	-30.4	14.3	1.50e-06	0	43	0	503316480	19	4049
2026-01-01 08:55:22.03	65.12	28.71	-29.2	-29.9	14.6	0.00e+00	0	43	0	509607936	19	3895
2026-01-01 08:55:25.03	64.16	28.85	-29.9	-31.8	13.4	6.80e-06	0	43	0	514850816	19	4466
2026-01-01 08:55:28.05	63.18	28.98	-30.8	-33.4	11.5	4.88e-04	0	43	0	520093696	21	4876
2026-01-01 08:55:31.07	62.20	29.10	-30.8	-32.8	11.6	8.92e-04	0	43	0	526385152	22	4582
2026-01-01 08:55:34.07	61.22	29.21	-30.8	-33.0	11.4	4.18e-04	0	43	0	531628032	22	4667
2026-01-01 08:55:37.07	60.23	29.31	-30.8	-32.9	11.5	8.10e-04	0	43	0	537919488	22	4611
2026-01-01 08:55:40.07	59.23	29.40	-30.8	-32.8	11.7	4.66e-04	0	43	0	543162368	22	4559
2026-01-01 08:55:43.07	58.23	29.49	-31.1	-33.9	10.8	1.74e-03	0	43	0	548405248	22	5002
2026-01-01 08:55:46.07	57.23	29.56	-31.0	-33.7	11.0	2.05e-03	0	43	0	554696704	22	4904
2026-01-01 08:55:49.09	56.21	29.62	-31.4	-35.1	10.0	4.00e-03	0	43	0	559939584	22	5478
2026-01-01 08:55:52.10	55.20	29.68	-31.0	-33.7	10.9	2.11e-03	0	43	0	565182464	22	4944
2026-01-01 08:55:55.11	54.18	29.72	-30.8	-32.9	11.5	1.38e-03	0	43	0	571473920	22	4598
2026-01-01 08:55:58.12	53.16	29.75	-30.2	-31.6	12.8	7.09e-05	0	43	0	576716800	21	4240
2026-01-01 08:56:01.13	52.13	29.78	-30.8	-33.6	11.5	6.87e-04	0	43	0	583008256	21	4929
2026-01-01 08:56:04.13	51.11	29.79	-31.1	-33.7	11.1	1.39e-03	0	43	0	588251136	22	4901
2026-01-01 08:56:07.14	50.09	29.79	-30.6	-32.4	12.1	3.93e-04	0	43	0	593494016	22	4409
2026-01-01 08:56:10.16	49.06	29.78	-30.3	-31.9	12.7	9.23e-05	0	43	0	599785472	21	4317
2026-01-01 08:56:13.16	48.04	29.77	-30.5	-32.6	12.1	3.99e-04	0	43	0	605028352	21	4566
2026-01-01 08:56:16.17	47.01	29.74	-30.1	-31.5	12.9	1.20e-04	0	43	0	610271232	21	4200
2026-01-01 08:56:19.17	46.00	29.70	-29.7	-30.7	13.7	6.80e-06	0	43	0	616562688	20	4068
2026-01-01 08:56:22.19	44.98	29.65	-30.2	-32.2	12.7	1.53e-04	0	43	0	621805568	20	4544
2026-01-01 08:56:25.18	43.97	29.59	-30.3	-32.5	12.6	1.07e-04	0	43	0	628097024	20	4615
2026-01-01 08:56:28.19	42.96	29.52	-30.0	-31.6	13.1	4.04e-05	0	43	0	633339904	20	4329
2026-01-01 08:56:31.20	41.95	29.45	-30.2	-32.0	12.8	7.32e-05	0	43	0	638582784	20	4474
2026-01-01 08:56:34.22	40.95	29.36	-29.4	-30.1	14.1	7.00e-07	0	43	0	644874240	20	3874
2026-01-01 08:56:37.23	39.96	29.26	-29.9	-31.4	13.2	4.04e-05	0	43	0	650117120	20	4269
2026-01-01 08:56:40.24	38.97	29.16	-29.7	-30.9	13.5	9.90e-06	0	43	0	655360000	20	4114
2026-01-01 08:56:43.24	37.99	29.04	-30.1	-31.9	12.9	5.41e-05	0	43	0	661651456	20	4421
2026-01-01 08:56:46.24	37.02	28.92	-29.4	-30.0	14.2	1.50e-06	0	43	0	666894336	20	3859
2026-01-01 08:56:49.25	36.05	28.78	-29.9	-31.4	13.3	1.60e-05	0	43	0	673185792	20	4265
2026-01-01 08:56:52.27	35.09	28.64	-29.7	-30.9	13.6	9.90e-06	0	43	0	678428672	20	4096
2026-01-01 08:56:55.28	34.14	28.49	-29.9	-31.2	13.3	1.37e-05	0	43	0	683671552	20	4219
2026-01-01 08:56:58.29	33.21	28.34	-30.3	-32.6	12.4	1.03e-04	0	43	0	689963008	20	4648
2026-01-01 08:57:01.29	32.28	28.17	-30.1	-32.0	12.8	5.03e-05	0	43	0	695205888	20	4456
2026-01-01 08:57:04.30	31.36	28.00	-31.2	-34.4	10.4	1.77e-03	0	43	0	700448768	22	5199
2026-01-01 08:57:07.32	30.44	27.82	-31.4	-34.5	9.9	1.09e-02	0	43	0	706740224	23	5148
2026-01-01 08:57:10.33	29.55	27.64	-31.4	-34.5	9.9	7.87e-03	0	43	0	711983104	23	5150
2026-01-01 08:57:13.33	28.66	27.45	-31.5	-34.9	9.5	1.38e-02	0	43	0	718274560	23	5363
2026-01-01 08:57:16.34	27.78	27.25	-30.2	-31.9	12.4	2.19e-04	0	43	0	723517440	21	4381
2026-01-01 08:57:19.34	26.92	27.05	-29.8	-31.0	13.4	2.28e-05	0	43	0	728760320	20	4173
2026-01-01 08:57:22.36	26.06	26.83	-29.4	-30.1	14.0	2.20e-06	0	43	0	735051776	20	3897
2026-01-01 08:57:25.37	25.21	26.62	-29.9	-31.4	13.1	4.27e-05	0	43	0	740294656	20	4282
2026-01-01 08:57:28.37	24.38	26.40	-29.7	-31.3	13.6	7.60e-06	0	43	0	746586112	19	4344
2026-01-01 08:57:31.38	23.56	26.18	-30.3	-32.1	12.3	2.14e-04	0	43	0	751828992	21	4438
2026-01-01 08:57:34.39	22.75	25.95	-30.2	-32.0	12.3	1.02e-04	0	43	0	757071872	21	4428
2026-01-01 08:57:37.40	21.96	25.71	-30.8	-33.7	11.2	9.89e-04	0	43	0	763363328	21	5025
2026-01-01 08:57:40.42	21.17	25.48	-30.3	-32.2	12.2	3.26e-04	0	43	0	768606208	21	4462
2026-01-01 08:57:43.43	20.40	25.24	-29.5	-30.2	13.8	7.60e-06	0	43	0	773849088	20	3933
2026-01-01 08:57:46.43	19.64	24.99	-29.3	-30.3	14.2	1.50e-06	0	43	0	780140544	19	4030
2026-01-01 08:57:49.44	18.89	24.74	-28.8	-29.0	15.0	7.00e-07	0	43	0	785383424	19	3680
2026-01-01 08:57:52.44	18.15	24.50	-28.6	-29.0	15.2	0.00e+00	0	43	0	791674880	18	3779
2026-01-01 08:57:55.45	17.43	24.24	-28.5	-28.8	15.4	0.00e+00	0	43	0	796917760	18	3713
2026-01-01 08:57:58.46	16.71	23.99	-28.1	-28.4	15.9	0.00e+00	0	43	0	802160640	17	3701
2026-01-01 08:58:01.47	16.01	23.73	-28.6	-29.5	15.1	0.00e+00	0	43	0	808452096	17	3993
2026-01-01 08:58:04.49	15.32	23.47	-28.8	-30.2	14.8	0.00e+00	0	43	0	813694976	17	4186
2026-01-01 08:58:07.50	14.64	23.21	-28.9	-30.4	14.7	0.00e+00	0	43	0	818937856	17	4259
2026-01-01 08:58:10.51	13.97	22.94	-29.0	-30.0	14.6	0.00e+00	0	43	0	825229312	18	4041
2026-01-01 08:58:13.52	13.31	22.68	-28.7	-29.2	15.0	0.00e+00	0	43	0	830472192	18	3836
2026-01-01 08:58:16.51	12.67	22.42	-28.0	-28.0	16.0	0.00e+00	0	43	0	836763648	17	3606
2026-01-01 08:58:19.52	12.04	22.15	-28.2	-28.4	15.8	0.00e+00	0	43	0	842006528	17	3716
2026-01-01 08:58:22.52	11.42	21.88	-28.6	-29.6	15.1	0.00e+00	0	43	0	847249408	17	4031
2026-01-01 08:58:25.54	10.80	21.61	-28.6	-29.6	15.1	0.00e+00	0	43	0	853540864	17	4019
2026-01-01 08:58:28.56	10.20	21.34	-28.6	-29.4	15.2	0.00e+00	0	43	0	858783744	17	3983
2026-01-01 08:58:31.58	9.61	21.07	-28.6	-29.7	15.0	0.00e+00	0	43	0	865075200	17	4048
2026-01-01 08:58:34.59	9.03	20.80	-28.7	-29.9	14.9	0.00e+00	0	43	0	870318080	17	4108
2026-01-01 08:58:37.60	8.46	20.53	-28.6	-29.6	15.0	0.00e+00	0	43	0	875560960	17	4038
2026-01-01 08:58:40.60	7.90	20.26	-28.4	-28.9	15.5	0.00e+00	0	43	0	881852416	17	3848
2026-01-01 08:58:43.61	7.35	19.99	-28.4	-29.0	15.4	0.00e+00	0	43	0	887095296	17	3857
2026-01-01 08:58:46.63	6.81	19.72	-29.1	-30.2	14.3	2.20e-06	0	43	0	892338176	18	4105
2026-01-01 08:58:49.63	6.28	19.45	-29.4	-30.5	13.8	3.00e-06	0	43	0	898629632	19	4105
2026-01-01 08:58:52.63	5.76	19.19	-28.9	-29.3	14.6	7.00e-07	0	43	0	903872512	19	3779
2026-01-01 08:58:55.65	5.25	18.92	-28.5	-28.9	15.1	7.00e-07	0	43	0	910163968	18	3749
2026-01-01 08:58:58.67	4.74	18.65	-28.9	-29.8	14.6	0.00e+00	0	43	0	915406848	18	3996
2026-01-01 08:59:01.67	4.25	18.38	-29.5	-31.1	13.4	9.90e-06	0	43	0	920649728	19	4279
2026-01-01 08:59:04.68	3.76	18.11	-30.0	-31.8	12.6	4.73e-05	0	43	0	926941184	20	4450
2026-01-01 08:59:07.69	3.29	17.85	-29.7	-31.0	13.1	5.49e-05	0	43	0	932184064	20	4188
2026-01-01 08:59:10.70	2.82	17.58	-29.3	-30.4	13.8	3.80e-06	0	43	0	937426944	19	4097
2026-01-01 08:59:13.71	2.36	17.32	-29.4	-30.8	13.6	4.50e-06	0	43	0	943718400	19	4214
2026-01-01 08:59:16.71	1.91	17.06	-29.9	-32.0	12.8	7.01e-05	0	43	0	948961280	19	4600
2026-01-01 08:59:19.73	1.46	16.79	-29.6	-30.8	13.1	6.71e-05	0	43	0	955252736	20	4125
2026-01-01 08:59:22.73	1.03	16.53	-28.9	-29.5	14.4	3.80e-06	0	43	0	960495616	19	3829
2026-01-01 08:59:25.74	0.60	16.27	-28.8	-29.7	14.5	7.00e-07	0	43	0	965738496	18	3969
2026-01-01 08:59:28.76	0.18	16.01	-28.9	-30.0	14.3	0.00e+00	0	43	0	972029952	18	4055
2026-01-01 08:59:31.76	359.77	15.76	-29.3	-31.0	13.7	3.80e-06	0	43	0	977272832	18	4383
2026-01-01 08:59:34.76	359.36	15.50	-29.6	-31.2	13.2	1.67e-05	0	43	0	983564288	19	4324
2026-01-01 08:59:37.78	358.96	15.24	-29.5	-31.1	13.3	2.21e-05	0	43	0	988807168	19	4300
2026-01-01 08:59:40.78	358.57	14.99	-29.3	-30.5	13.6	1.75e-05	0	43	0	994050048	19	4141
2026-01-01 08:59:43.80	358.19	14.74	-29.7	-31.5	13.0	3.12e-05	0	43	0	1000341504	19	4438
2026-01-01 08:59:46.79	357.81	14.49	-30.4	-33.2	11.3	3.76e-04	0	43	0	1005584384	20	4967
2026-01-01 08:59:49.79	357.44	14.24	-30.7	-33.6	10.6	3.03e-03	0	43	0	1010827264	21	5065
2026-01-01 08:59:52.79	357.07	13.99	-30.3	-32.3	11.6	6.92e-04	0	43	0	1017118720	21	4553
2026-01-01 08:59:55.80	356.71	13.74	-30.3	-32.3	11.6	4.55e-04	0	43	0	1022361600	21	4538
2026-01-01 08:59:58.81	356.36	13.50	-30.1	-31.9	11.8	4.23e-04	0	43	0	1028653056	21	4421
2026-01-01 09:00:01.81	356.01	13.25	-30.5	-33.2	10.9	1.48e-03	0	43	0	1033895936	21	4882
2026-01-01 09:00:04.82	355.67	13.01	-30.4	-32.7	11.2	1.29e-03	0	43	0	1039138816	21	4713
2026-01-01 09:00:07.84	355.34	12.77	-30.8	-34.2	10.1	6.07e-03	0	43	0	1045430272	21	5302
2026-01-01 09:00:10.85	355.01	12.53	-30.9	-34.5	9.8	9.08e-03	0	43	0	1050673152	21	5473
2026-01-01 09:00:13.87	354.68	12.29	-30.8	-34.0	10.2	5.29e-03	0	43	0	1055916032	21	5226
2026-01-01 09:00:16.87	354.36	12.05	-30.6	-33.3	10.7	4.43e-03	0	43	0	1062207488	21	4951
2026-01-01 09:00:19.88	354.05	11.81	-30.1	-32.0	11.6	8.28e-04	0	43	0	1067450368	21	4476
2026-01-01 09:00:22.88	353.74	11.58	-30.3	-32.4	11.3	9.76e-04	0	43	0	1073741824	21	4618
2026-01-01 09:00:25.89	353.44	11.35	-30.3	-32.7	11.2	1.32e-03	0	43	0	1078984704	21	4710
2026-01-01 09:00:28.91	353.14	11.11	-30.4	-33.0	10.8	2.18e-03	0	43	0	1084227584	21	4827
2026-01-01 09:00:31.91	352.84	10.89	-30.3	-32.6	11.1	1.72e-03	0	43	0	1090519040	21	4686
2026-01-01 09:00:34.92	352.55	10.66	-30.1	-32.0	11.6	6.59e-04	0	43	0	1095761920	21	4477
2026-01-01 09:00:37.93	352.27	10.43	-29.7	-31.3	12.4	3.12e-04	0	43	0	1101004800	20	4310
2026-01-01 09:00:40.94	351.99	10.20	-29.4	-30.5	12.9	3.89e-05	0	43	0	1107296256	20	4084
2026-01-01 09:00:43.95	351.71	9.98	-29.5	-30.9	12.7	7.70e-05	0	43	0	1112539136	20	4184
2026-01-01 09:00:46.95	351.44	9.75	-30.0	-32.1	11.7	3.22e-04	0	43	0	1118830592	20	4608
2026-01-01 09:00:49.97	351.18	9.53	-30.3	-33.2	11.0	1.55e-03	0	43	0	1124073472	20	5003
2026-01-01 09:00:52.98	350.91	9.31	-30.5	-33.5	10.3	5.13e-03	0	43	0	1129316352	21	5058
2026-01-01 09:00:55.98	350.66	9.09	-30.7	-33.9	10.0	8.17e-03	0	43	0	1135607808	21	5235
2026-01-01 09:00:58.99	350.40	8.87	-30.7	-34.2	9.7	9.84e-03	0	43	0	1140850688	21	5373
2026-01-01 09:01:02.00	350.15	8.66	-30.7	-34.2	9.8	1.03e-02	0	43	0	1146093568	21	5374
2026-01-01 09:01:05.01	349.90	8.44	-30.8	-34.6	9.4	1.15e-02	0	43	0	1152385024	21	5541
2026-01-01 09:01:08.02	349.66	8.23	-30.5	-33.4	10.3	6.74e-03	0	43	0	1157627904	21	5042
2026-01-01 09:01:11.03	349.42	8.02	-30.4	-33.2	10.4	4.61e-03	0	43	0	1163919360	21	4964
2026-01-01 09:01:14.03	349.19	7.80	-30.3	-32.9	10.7	3.70e-03	0	43	0	1169162240	21	4820
2026-01-01 09:01:17.04	348.95	7.59	-30.3	-32.9	10.6	2.90e-03	0	43	0	1174405120	21	4838
2026-01-01 09:01:20.05	348.73	7.39	-30.4	-33.3	10.4	3.67e-03	0	43	0	1180696576	21	4987
2026-01-01 09:01:23.06	348.50	7.18	-30.5	-33.6	10.0	7.02e-03	0	43	0	1185939456	21	5144

#Closed at: 2026-01-01 09:01:25
#Recorded file [1189 MB]: D:/data/31010_260101_115050.dat