passes_logs/2026/01/01/R2M6_AANII_01/R2M6_AANII_01__20260101_114146_NOAA_21_JPSS-2_rec.log

#Pass ID: 20260101_114146_NOAA 21 (JPSS-2)
#Satellite: NOAA 21 (JPSS-2)
#Configuration: NOAA 21
#almurnet v.1.7.20240730
#Start time: 2026-01-01 11:43:28

#Version: 2.2.20231116
#Station: R2M6_AANII_01
#Location: 30.233357 lon 59.946436 lat
#TLE: 1 54234U 22150A   25365.42224288  .00000199  00000+0  11529-3 0  9990
#TLE: 2 54234  98.7483 301.4995 0001320 356.2106   3.9060 14.19530300162743

#Time	Az	El	Level	Level2	SNR	BER	BlckErr	Temp	State	Recorded	gain1	gain2
2026-01-01 11:43:28.35	215.49	14.53	-33.4	-44.8	3.8	8.46e-01	0	43	0	0	26	13337
2026-01-01 11:43:31.33	215.89	14.77	-33.9	-45.8	3.8	1.49e+00	0	43	104	0	28	14012
2026-01-01 11:43:34.33	216.30	15.02	-34.0	-45.9	3.8	1.49e+00	0	43	104	0	28	14104
2026-01-01 11:43:37.32	216.72	15.26	-34.0	-45.8	3.8	1.49e+00	0	43	104	0	28	14064
2026-01-01 11:43:40.32	217.14	15.51	-34.0	-45.8	3.8	1.49e+00	0	43	104	0	28	14030
2026-01-01 11:43:43.32	217.57	15.76	-34.0	-45.8	3.8	1.49e+00	0	43	104	0	28	14058
2026-01-01 11:43:46.30	218.01	16.00	-34.0	-45.8	3.8	1.49e+00	0	43	104	0	28	14029
2026-01-01 11:43:49.28	218.45	16.25	-33.9	-45.7	3.8	1.49e+00	0	43	104	0	28	13999
2026-01-01 11:43:52.27	218.90	16.50	-33.8	-45.5	3.8	1.49e+00	0	43	104	0	28	13853
2026-01-01 11:43:55.26	219.36	16.75	-33.7	-45.2	3.8	1.49e+00	0	43	104	0	28	13610
2026-01-01 11:43:58.26	219.83	17.00	-33.6	-45.0	3.8	1.49e+00	0	43	104	0	28	13404
2026-01-01 11:44:01.26	220.31	17.26	-33.4	-44.5	3.8	1.49e+00	0	43	104	0	28	13065
2026-01-01 11:44:04.26	220.79	17.51	-33.2	-44.5	3.8	1.49e+00	0	43	104	0	27	13160
2026-01-01 11:44:07.25	221.28	17.76	-33.3	-44.7	3.8	1.49e+00	0	43	104	0	27	13391
2026-01-01 11:44:10.23	221.78	18.02	-33.2	-43.7	3.8	1.49e+00	0	43	104	0	27	12145
2026-01-01 11:44:13.22	222.28	18.27	-33.3	-44.8	3.8	1.49e+00	0	43	104	0	27	13576
2026-01-01 11:44:16.21	222.80	18.53	-32.2	-38.5	4.2	1.45e+00	0	43	104	0	25	7481
2026-01-01 11:44:19.21	223.32	18.78	-29.3	-31.5	12.3	2.62e-04	0	43	0	4194304	19	4646
2026-01-01 11:44:22.20	223.85	19.04	-29.0	-31.3	12.8	5.64e-05	0	43	0	13631488	18	4682
2026-01-01 11:44:25.20	224.39	19.30	-29.3	-31.6	12.3	1.80e-04	0	43	0	23068672	19	4679
2026-01-01 11:44:28.20	224.95	19.55	-28.8	-30.2	13.1	4.73e-05	0	43	0	32505856	19	4264
2026-01-01 11:44:31.20	225.51	19.81	-28.2	-29.9	13.9	1.14e-05	0	43	0	41943040	17	4369
2026-01-01 11:44:34.19	226.07	20.07	-27.3	-28.4	15.1	0.00e+00	0	43	0	51380224	16	4043
2026-01-01 11:44:37.18	226.65	20.32	-26.8	-28.2	15.6	8.30e-06	0	43	0	60817408	14	4228
2026-01-01 11:44:40.17	227.24	20.58	-26.6	-27.7	15.9	1.06e-05	0	43	0	70254592	14	4077
2026-01-01 11:44:43.16	227.83	20.83	-26.5	-27.5	16.0	0.00e+00	0	43	0	79691776	14	4045
2026-01-01 11:44:46.15	228.44	21.09	-26.7	-27.8	15.8	6.10e-06	0	43	0	89128960	14	4114
2026-01-01 11:44:49.14	229.05	21.34	-26.6	-27.7	15.9	0.00e+00	0	43	0	98566144	14	4097
2026-01-01 11:44:52.11	229.67	21.59	-26.6	-27.6	16.0	0.00e+00	0	43	0	106954752	14	4054
2026-01-01 11:44:55.09	230.30	21.84	-26.6	-27.7	15.9	3.00e-06	0	43	0	116391936	14	4091
2026-01-01 11:44:58.08	230.95	22.09	-26.6	-27.7	16.0	0.00e+00	0	43	0	125829120	14	4070
2026-01-01 11:45:01.07	231.60	22.34	-26.8	-28.1	15.7	0.00e+00	0	43	0	135266304	14	4192
2026-01-01 11:45:04.05	232.27	22.59	-26.2	-27.3	16.4	0.00e+00	0	43	0	144703488	13	4084
2026-01-01 11:45:07.04	232.94	22.84	-26.3	-27.4	16.4	0.00e+00	0	43	0	154140672	13	4113
2026-01-01 11:45:10.04	233.63	23.08	-26.4	-27.7	16.3	0.00e+00	0	43	0	163577856	13	4179
2026-01-01 11:45:13.02	234.33	23.33	-26.3	-27.5	16.4	0.00e+00	0	43	0	173015040	13	4124
2026-01-01 11:45:16.00	235.03	23.57	-26.1	-27.1	16.6	0.00e+00	0	43	0	182452224	13	4029
2026-01-01 11:45:18.99	235.75	23.81	-26.2	-27.1	16.6	0.00e+00	0	43	0	190840832	13	4037
2026-01-01 11:45:21.97	236.47	24.04	-26.4	-27.8	16.2	0.00e+00	0	43	0	200278016	13	4204
2026-01-01 11:45:24.96	237.21	24.27	-26.7	-28.3	15.9	0.00e+00	0	43	0	209715200	13	4360
2026-01-01 11:45:27.94	237.96	24.50	-26.6	-28.2	16.0	0.00e+00	0	43	0	219152384	13	4304
2026-01-01 11:45:30.92	238.72	24.73	-26.7	-28.4	15.9	0.00e+00	0	43	0	228589568	13	4380
2026-01-01 11:45:33.92	239.49	24.96	-27.3	-29.1	15.3	0.00e+00	0	43	0	238026752	14	4471
2026-01-01 11:45:36.91	240.27	25.18	-26.9	-28.4	15.6	0.00e+00	0	43	0	247463936	14	4260
2026-01-01 11:45:39.91	241.07	25.39	-27.3	-29.3	15.2	7.00e-07	0	43	0	256901120	14	4502
2026-01-01 11:45:42.91	241.88	25.61	-27.0	-28.6	15.5	0.00e+00	0	43	0	266338304	14	4310
2026-01-01 11:45:45.91	242.69	25.82	-27.4	-29.4	15.1	0.00e+00	0	43	0	275775488	14	4544
2026-01-01 11:45:48.89	243.51	26.02	-26.9	-28.3	15.7	0.00e+00	0	43	0	285212672	14	4232
2026-01-01 11:45:51.88	244.35	26.22	-27.0	-28.6	15.6	0.00e+00	0	43	0	294649856	14	4307
2026-01-01 11:45:54.89	245.20	26.41	-27.1	-28.7	15.5	0.00e+00	0	43	0	303038464	14	4352
2026-01-01 11:45:57.89	246.06	26.60	-26.9	-28.2	15.8	0.00e+00	0	43	0	312475648	14	4211
2026-01-01 11:46:00.87	246.92	26.79	-26.5	-27.4	16.3	0.00e+00	0	43	0	321912832	14	3986
2026-01-01 11:46:03.87	247.79	26.96	-26.8	-28.0	15.9	0.00e+00	0	43	0	331350016	14	4156
2026-01-01 11:46:06.86	248.68	27.14	-26.6	-27.7	16.1	0.00e+00	0	43	0	340787200	14	4058
2026-01-01 11:46:09.86	249.57	27.30	-26.6	-27.7	16.1	0.00e+00	0	43	0	350224384	14	4060
2026-01-01 11:46:12.86	250.48	27.46	-26.7	-27.9	16.0	0.00e+00	0	43	0	359661568	14	4125
2026-01-01 11:46:15.85	251.39	27.61	-26.5	-27.4	16.3	0.00e+00	0	43	0	369098752	14	4000
2026-01-01 11:46:18.85	252.31	27.76	-27.0	-28.5	15.7	0.00e+00	0	43	0	378535936	14	4277
2026-01-01 11:46:21.83	253.23	27.90	-26.9	-28.2	15.9	0.00e+00	0	43	0	387973120	14	4216
2026-01-01 11:46:24.83	254.17	28.03	-26.9	-28.2	15.9	0.00e+00	0	43	0	397410304	14	4202
2026-01-01 11:46:27.84	255.12	28.15	-27.0	-28.6	15.6	0.00e+00	0	43	0	406847488	14	4319
2026-01-01 11:46:30.83	256.07	28.27	-27.3	-29.1	15.4	0.00e+00	0	43	0	416284672	14	4459
2026-01-01 11:46:33.83	257.02	28.37	-27.0	-28.4	15.8	0.00e+00	0	43	0	425721856	14	4262
2026-01-01 11:46:36.81	257.98	28.47	-26.8	-28.1	15.9	0.00e+00	0	43	0	434110464	14	4181
2026-01-01 11:46:39.80	258.95	28.56	-27.1	-28.8	15.5	0.00e+00	0	43	0	443547648	14	4379
2026-01-01 11:46:42.80	259.92	28.65	-27.1	-28.7	15.6	0.00e+00	0	43	0	452984832	14	4331
2026-01-01 11:46:45.79	260.90	28.72	-27.1	-28.8	15.5	0.00e+00	0	43	0	462422016	14	4357
2026-01-01 11:46:48.78	261.88	28.79	-27.0	-28.4	15.8	0.00e+00	0	43	0	471859200	14	4267
2026-01-01 11:46:51.76	262.86	28.84	-26.9	-28.3	15.8	0.00e+00	0	43	0	481296384	14	4239
2026-01-01 11:46:54.75	263.85	28.89	-27.0	-28.6	15.6	0.00e+00	0	43	0	490733568	14	4307
2026-01-01 11:46:57.75	264.84	28.93	-27.0	-28.4	15.8	0.00e+00	0	43	0	500170752	14	4256
2026-01-01 11:47:00.74	265.83	28.96	-27.1	-28.9	15.5	0.00e+00	0	43	0	509607936	14	4383
2026-01-01 11:47:03.75	266.83	28.98	-27.2	-29.0	15.4	0.00e+00	0	43	0	519045120	14	4422
2026-01-01 11:47:06.73	267.82	28.99	-26.9	-28.3	15.8	0.00e+00	0	43	0	528482304	14	4221
2026-01-01 11:47:09.71	268.81	28.99	-26.9	-28.4	15.8	0.00e+00	0	43	0	537919488	14	4247
2026-01-01 11:47:12.69	269.80	28.98	-27.0	-28.5	15.7	0.00e+00	0	43	0	546308096	14	4290
2026-01-01 11:47:15.68	270.79	28.97	-26.9	-28.4	15.8	0.00e+00	0	43	0	555745280	14	4248
2026-01-01 11:47:18.70	271.79	28.94	-27.1	-28.7	15.6	0.00e+00	0	43	0	565182464	14	4354
2026-01-01 11:47:21.68	272.78	28.91	-27.3	-29.2	15.3	0.00e+00	0	44	0	574619648	14	4486
2026-01-01 11:47:24.66	273.76	28.86	-27.0	-28.5	15.8	0.00e+00	0	43	0	584056832	14	4277
2026-01-01 11:47:27.63	274.74	28.81	-27.0	-28.5	15.7	0.00e+00	0	43	0	593494016	14	4269
2026-01-01 11:47:30.62	275.72	28.75	-26.8	-28.1	15.9	0.00e+00	0	43	0	602931200	14	4170
2026-01-01 11:47:33.62	276.70	28.68	-26.9	-28.4	15.8	0.00e+00	0	43	0	612368384	14	4249
2026-01-01 11:47:36.61	277.67	28.60	-26.8	-28.0	16.0	0.00e+00	0	43	0	621805568	14	4162
2026-01-01 11:47:39.58	278.63	28.51	-26.7	-27.9	16.1	0.00e+00	0	43	0	631242752	14	4112
2026-01-01 11:47:42.57	279.59	28.42	-26.7	-27.9	16.1	0.00e+00	0	43	0	639631360	14	4111
2026-01-01 11:47:45.56	280.55	28.31	-26.7	-27.9	16.0	0.00e+00	0	43	0	649068544	14	4122
2026-01-01 11:47:48.56	281.50	28.20	-26.7	-27.8	16.0	0.00e+00	0	43	0	658505728	14	4098
2026-01-01 11:47:51.55	282.44	28.08	-26.9	-28.2	15.9	0.00e+00	0	43	0	667942912	14	4201
2026-01-01 11:47:54.55	283.38	27.95	-26.8	-28.1	15.9	0.00e+00	0	43	0	677380096	14	4190
2026-01-01 11:47:57.53	284.30	27.82	-26.7	-27.9	16.1	0.00e+00	0	43	0	686817280	14	4115
2026-01-01 11:48:00.52	285.22	27.68	-27.0	-28.5	15.7	0.00e+00	0	43	0	696254464	14	4288
2026-01-01 11:48:03.50	286.13	27.53	-27.0	-28.5	15.7	0.00e+00	0	44	0	705691648	14	4287
2026-01-01 11:48:06.51	287.04	27.37	-27.0	-28.6	15.6	0.00e+00	0	43	0	715128832	14	4323
2026-01-01 11:48:09.50	287.93	27.21	-27.0	-28.5	15.7	0.00e+00	0	43	0	724566016	14	4299
2026-01-01 11:48:12.50	288.82	27.04	-26.9	-28.4	15.7	0.00e+00	0	43	0	734003200	14	4253
2026-01-01 11:48:15.48	289.69	26.87	-27.0	-28.6	15.6	0.00e+00	0	43	0	742391808	14	4321
2026-01-01 11:48:18.47	290.56	26.69	-26.9	-28.3	15.8	0.00e+00	0	43	0	751828992	14	4218
2026-01-01 11:48:21.46	291.41	26.50	-26.8	-28.1	15.9	0.00e+00	0	43	0	761266176	14	4166
2026-01-01 11:48:24.47	292.26	26.31	-27.0	-28.4	15.7	0.00e+00	0	43	0	770703360	14	4249
2026-01-01 11:48:27.46	293.10	26.11	-26.2	-27.2	16.6	0.00e+00	0	43	0	780140544	13	4057
2026-01-01 11:48:30.45	293.92	25.91	-26.3	-27.4	16.5	0.00e+00	0	43	0	789577728	13	4097
2026-01-01 11:48:33.43	294.74	25.71	-26.4	-27.6	16.4	0.00e+00	0	43	0	799014912	13	4144
2026-01-01 11:48:36.42	295.54	25.50	-26.4	-27.6	16.4	0.00e+00	0	43	0	808452096	13	4146
2026-01-01 11:48:39.41	296.34	25.29	-26.2	-27.2	16.6	0.00e+00	0	43	0	817889280	13	4040
2026-01-01 11:48:42.41	297.12	25.07	-26.5	-27.9	16.3	0.00e+00	0	43	0	827326464	13	4227
2026-01-01 11:48:45.40	297.89	24.85	-26.8	-28.5	15.9	0.00e+00	0	43	0	836763648	13	4393
2026-01-01 11:48:48.39	298.66	24.62	-26.8	-28.5	15.9	0.00e+00	0	43	0	846200832	13	4404
2026-01-01 11:48:51.39	299.41	24.39	-26.6	-28.2	16.1	0.00e+00	0	43	0	854589440	13	4303
2026-01-01 11:48:54.39	300.15	24.16	-26.8	-28.5	15.9	0.00e+00	0	43	0	864026624	13	4410
2026-01-01 11:48:57.38	300.88	23.93	-27.1	-28.7	15.5	0.00e+00	0	43	0	873463808	14	4353
2026-01-01 11:49:00.36	301.60	23.69	-26.8	-28.2	15.8	0.00e+00	0	43	0	882900992	14	4204
2026-01-01 11:49:03.39	302.32	23.45	-26.6	-27.6	16.1	0.00e+00	0	43	0	892338176	14	4043
2026-01-01 11:49:06.39	303.02	23.21	-26.6	-27.7	16.0	0.00e+00	0	43	0	901775360	14	4070
2026-01-01 11:49:09.40	303.71	22.97	-26.8	-28.0	15.9	0.00e+00	0	44	0	911212544	14	4159
2026-01-01 11:49:12.41	304.39	22.72	-26.7	-27.8	16.0	0.00e+00	0	43	0	920649728	14	4098
2026-01-01 11:49:15.41	305.06	22.47	-26.7	-27.8	16.0	0.00e+00	0	43	0	930086912	14	4101
2026-01-01 11:49:18.41	305.72	22.23	-26.6	-27.7	16.0	0.00e+00	0	43	0	939524096	14	4074
2026-01-01 11:49:21.42	306.37	21.98	-26.8	-28.0	15.8	0.00e+00	0	43	0	948961280	14	4164
2026-01-01 11:49:24.42	307.01	21.73	-26.8	-28.1	15.8	0.00e+00	0	43	0	958398464	14	4185
2026-01-01 11:49:27.43	307.64	21.47	-26.5	-27.5	16.1	0.00e+00	0	43	0	967835648	14	4027
2026-01-01 11:49:30.44	308.26	21.22	-26.6	-27.6	16.0	0.00e+00	0	43	0	977272832	14	4050
2026-01-01 11:49:33.46	308.87	20.97	-26.3	-27.1	16.3	0.00e+00	0	43	0	986710016	14	3919
2026-01-01 11:49:36.46	309.47	20.71	-26.5	-27.4	16.2	0.00e+00	0	43	0	996147200	14	3997
2026-01-01 11:49:39.48	310.06	20.46	-26.6	-27.6	16.0	0.00e+00	0	43	0	1005584384	14	4055
2026-01-01 11:49:42.49	310.64	20.20	-26.7	-27.8	15.9	0.00e+00	0	43	0	1015021568	14	4107
2026-01-01 11:49:45.49	311.21	19.95	-26.7	-28.0	15.8	0.00e+00	0	43	0	1024458752	14	4145
2026-01-01 11:49:48.50	311.77	19.69	-26.9	-28.3	15.6	0.00e+00	0	43	0	1033895936	14	4224
2026-01-01 11:49:51.51	312.33	19.44	-27.0	-28.6	15.4	0.00e+00	0	43	0	1043333120	14	4323
2026-01-01 11:49:54.52	312.87	19.18	-26.9	-28.3	15.6	0.00e+00	0	43	0	1052770304	14	4228
2026-01-01 11:49:57.52	313.41	18.93	-26.9	-28.5	15.4	0.00e+00	0	44	0	1062207488	14	4290
2026-01-01 11:50:00.54	313.93	18.67	-27.2	-29.2	14.5	0.00e+00	0	43	0	1071644672	14	4528
2026-01-01 11:50:03.55	314.45	18.42	-27.1	-28.9	15.2	0.00e+00	0	43	0	1081081856	14	4410
2026-01-01 11:50:06.56	314.96	18.16	-27.2	-29.1	15.1	0.00e+00	0	43	0	1090519040	14	4453
2026-01-01 11:50:09.57	315.47	17.91	-27.0	-28.5	15.4	0.00e+00	0	43	0	1099956224	14	4302
2026-01-01 11:50:12.59	315.96	17.65	-27.1	-28.8	15.2	0.00e+00	0	43	0	1108344832	14	4392
2026-01-01 11:50:15.60	316.45	17.40	-27.2	-29.1	15.0	0.00e+00	0	43	0	1117782016	14	4482
2026-01-01 11:50:18.60	316.92	17.15	-27.3	-29.4	14.9	0.00e+00	0	43	0	1127219200	14	4553
2026-01-01 11:50:21.61	317.39	16.90	-27.4	-29.6	14.8	0.00e+00	0	43	0	1136656384	14	4624
2026-01-01 11:50:24.63	317.86	16.65	-27.5	-29.2	14.7	0.00e+00	0	43	0	1146093568	15	4404
2026-01-01 11:50:27.62	318.31	16.40	-27.5	-29.4	14.6	7.00e-07	0	43	0	1155530752	15	4437
2026-01-01 11:50:30.62	318.76	16.15	-27.3	-28.9	14.9	7.00e-07	0	43	0	1164967936	15	4301
2026-01-01 11:50:33.63	319.20	15.91	-27.1	-28.3	15.2	0.00e+00	0	43	0	1174405120	15	4139
2026-01-01 11:50:36.64	319.63	15.66	-27.1	-28.3	15.2	0.00e+00	0	43	0	1183842304	15	4139
2026-01-01 11:50:39.65	320.06	15.41	-27.2	-28.4	15.1	0.00e+00	0	43	0	1193279488	15	4174
2026-01-01 11:50:42.66	320.48	15.17	-27.2	-28.6	15.0	0.00e+00	0	43	0	1202716672	15	4231
2026-01-01 11:50:45.66	320.89	14.93	-27.4	-29.1	14.7	7.00e-07	0	43	0	1212153856	15	4372
2026-01-01 11:50:48.67	321.30	14.68	-27.6	-29.5	14.4	0.00e+00	0	43	0	1221591040	15	4486
2026-01-01 11:50:51.68	321.70	14.44	-27.6	-29.4	14.5	2.20e-06	0	43	0	1231028224	15	4463
2026-01-01 11:50:54.69	322.10	14.20	-27.6	-29.5	14.4	0.00e+00	0	43	0	1240465408	15	4486
2026-01-01 11:50:57.70	322.49	13.96	-27.7	-29.7	14.1	1.50e-06	0	43	0	1249902592	15	4559
2026-01-01 11:51:00.71	322.87	13.73	-27.6	-29.7	13.7	9.90e-06	0	43	0	1259339776	15	4583
2026-01-01 11:51:03.71	323.24	13.49	-27.8	-30.2	13.5	3.80e-06	0	43	0	1268776960	15	4731
2026-01-01 11:51:06.73	323.62	13.26	-27.9	-30.3	13.5	9.10e-06	0	43	0	1278214144	15	4765
2026-01-01 11:51:09.73	323.98	13.02	-27.9	-30.4	13.3	1.22e-05	0	43	0	1287651328	15	4801
2026-01-01 11:51:12.74	324.34	12.79	-27.9	-29.7	13.8	1.50e-06	0	43	0	1297088512	16	4431
2026-01-01 11:51:15.74	324.69	12.56	-28.0	-30.0	13.6	8.30e-06	0	43	0	1306525696	16	4539
2026-01-01 11:51:18.74	325.04	12.33	-28.1	-30.3	13.4	1.22e-05	0	43	0	1315962880	16	4626
2026-01-01 11:51:21.75	325.39	12.10	-28.2	-30.4	13.3	1.37e-05	0	43	0	1325400064	16	4661
2026-01-01 11:51:24.76	325.73	11.87	-28.2	-30.4	13.3	1.75e-05	0	43	0	1334837248	16	4650
2026-01-01 11:51:27.78	326.06	11.64	-28.2	-30.5	13.2	2.13e-05	0	43	0	1344274432	16	4688
2026-01-01 11:51:30.80	326.39	11.42	-28.2	-29.9	13.3	2.36e-05	0	43	0	1353711616	17	4403
2026-01-01 11:51:33.81	326.72	11.19	-28.1	-29.9	13.3	1.44e-05	0	43	0	1363148800	17	4401
2026-01-01 11:51:36.81	327.04	10.97	-28.2	-30.0	13.3	1.90e-05	0	43	0	1372585984	17	4434
2026-01-01 11:51:39.82	327.35	10.75	-28.3	-30.3	13.3	2.28e-05	0	43	0	1382023168	17	4505
2026-01-01 11:51:42.82	327.66	10.53	-28.2	-29.9	13.5	1.52e-05	0	43	0	1390411776	17	4400
2026-01-01 11:51:45.84	327.97	10.31	-28.2	-30.0	13.4	1.14e-05	0	43	0	1399848960	17	4423
2026-01-01 11:51:48.84	328.27	10.09	-28.2	-30.1	13.4	1.14e-05	0	44	0	1409286144	17	4442
2026-01-01 11:51:51.84	328.56	9.88	-28.3	-30.2	13.3	2.82e-05	0	44	0	1418723328	17	4492
2026-01-01 11:51:54.85	328.86	9.66	-28.3	-30.3	13.2	2.13e-05	0	44	0	1428160512	17	4514
2026-01-01 11:51:57.85	329.15	9.45	-28.5	-30.7	12.9	5.11e-05	0	43	0	1437597696	17	4653
2026-01-01 11:52:00.87	329.43	9.24	-28.6	-30.9	12.8	5.49e-05	0	43	0	1447034880	17	4724
2026-01-01 11:52:03.87	329.71	9.03	-28.6	-30.9	12.8	5.72e-05	0	43	0	1456472064	17	4727
2026-01-01 11:52:06.87	329.99	8.82	-28.6	-31.0	12.7	8.08e-05	0	43	0	1465909248	17	4740
2026-01-01 11:52:09.87	330.26	8.61	-28.5	-30.9	12.7	6.71e-05	0	43	0	1475346432	17	4703
2026-01-01 11:52:12.88	330.53	8.40	-28.6	-30.9	12.7	6.79e-05	0	43	0	1484783616	17	4729
2026-01-01 11:52:15.89	330.80	8.19	-28.7	-31.2	12.5	1.19e-04	0	43	0	1494220800	17	4827
2026-01-01 11:52:18.90	331.06	7.99	-28.7	-31.2	12.4	1.12e-04	0	43	0	1503657984	17	4839
2026-01-01 11:52:21.91	331.32	7.78	-28.8	-31.5	12.3	1.91e-04	0	43	0	1513095168	17	4924
2026-01-01 11:52:24.92	331.58	7.58	-28.8	-31.6	12.1	2.71e-04	0	43	0	1522532352	17	4980
2026-01-01 11:52:27.92	331.83	7.38	-29.1	-31.9	11.7	5.59e-04	0	43	0	1531969536	18	4951
2026-01-01 11:52:30.93	332.08	7.18	-29.1	-31.8	11.7	5.11e-04	0	43	0	1541406720	18	4933

#Closed at: 2026-01-01 11:52:33
#Recorded file [1545 MB]: D:/data/31010_260101_144417.dat