passes_logs/2026/01/01/R2M6_AANII_01/R2M6_AANII_01__20260101_225902_NOAA_20_JPSS-1_rec.log

#Pass ID: 20260101_225902_NOAA 20 (JPSS-1)
#Satellite: NOAA 20 (JPSS-1)
#Configuration: NOAA 20
#almurnet v.1.7.20240730
#Start time: 2026-01-01 22:59:01

#Version: 2.2.20231116
#Station: R2M6_AANII_01
#Location: 30.233357 lon 59.946436 lat
#TLE: 1 43013U 17073A   26001.30344297  .00000183  00000+0  10758-3 0  9995
#TLE: 2 43013  98.7621 302.3885 0001938  59.1624 300.9742 14.19532032420790

#Time	Az	El	Level	Level2	SNR	BER	BlckErr	Temp	State	Recorded	gain1	gain2
2026-01-01 22:59:01.98	27.40	6.97	-30.9	-36.9	5.2	1.20e+00	0	41	0	0	21	7193
2026-01-01 22:59:04.99	27.64	7.17	-31.6	-39.4	6.0	3.29e-01	0	41	0	1048576	23	8805
2026-01-01 22:59:08.00	27.88	7.38	-31.5	-38.6	6.6	2.25e-01	0	41	0	7340032	23	8165
2026-01-01 22:59:11.01	28.13	7.58	-31.1	-37.2	8.2	7.71e-02	0	41	0	12582912	22	7194
2026-01-01 22:59:14.00	28.38	7.78	-31.0	-36.9	8.8	2.80e-02	0	41	0	17825792	21	7142
2026-01-01 22:59:17.00	28.63	7.99	-30.4	-34.8	10.5	5.58e-03	0	41	0	24117248	21	5955
2026-01-01 22:59:20.01	28.89	8.20	-30.3	-34.8	10.9	2.10e-03	0	41	0	29360128	20	6051
2026-01-01 22:59:23.01	29.15	8.40	-30.0	-34.0	11.5	9.92e-04	0	41	0	35651584	20	5669
2026-01-01 22:59:26.03	29.42	8.61	-30.1	-34.3	11.3	9.63e-04	0	41	0	40894464	20	5804
2026-01-01 22:59:29.03	29.68	8.83	-30.2	-34.3	11.3	1.09e-03	0	41	0	46137344	20	5819
2026-01-01 22:59:32.03	29.95	9.04	-30.1	-34.2	11.4	9.21e-04	0	41	0	52428800	20	5774
2026-01-01 22:59:35.03	30.23	9.25	-30.1	-34.2	11.4	1.43e-03	0	41	0	57671680	20	5761
2026-01-01 22:59:38.04	30.51	9.46	-29.8	-33.6	12.3	2.59e-04	0	42	0	62914560	19	5571
2026-01-01 22:59:41.05	30.79	9.68	-30.0	-34.1	12.0	2.97e-04	0	42	0	69206016	19	5772
2026-01-01 22:59:44.06	31.08	9.90	-29.6	-33.1	12.7	8.39e-05	0	42	0	74448896	19	5349
2026-01-01 22:59:47.06	31.37	10.12	-29.6	-32.9	12.8	6.86e-05	0	42	0	80740352	19	5277
2026-01-01 22:59:50.06	31.66	10.34	-29.7	-33.3	12.5	9.53e-05	0	42	0	85983232	19	5456
2026-01-01 22:59:53.08	31.97	10.56	-29.9	-33.8	12.3	1.58e-04	0	42	0	91226112	19	5627
2026-01-01 22:59:56.09	32.27	10.78	-30.1	-33.9	11.8	3.58e-04	0	42	0	97517568	20	5587
2026-01-01 22:59:59.10	32.58	11.01	-30.1	-34.0	11.7	6.14e-04	0	42	0	102760448	20	5629
2026-01-01 23:00:02.10	32.89	11.23	-29.9	-33.4	12.2	2.10e-04	0	42	0	108003328	20	5365
2026-01-01 23:00:05.11	33.21	11.46	-30.1	-34.1	11.8	3.53e-04	0	42	0	114294784	20	5659
2026-01-01 23:00:08.11	33.53	11.69	-29.8	-33.1	12.4	1.81e-04	0	42	0	119537664	20	5252
2026-01-01 23:00:11.12	33.86	11.92	-29.9	-33.6	12.6	1.13e-04	0	42	0	125829120	19	5553
2026-01-01 23:00:14.13	34.19	12.15	-29.8	-33.2	12.4	2.91e-04	0	42	0	131072000	20	5288
2026-01-01 23:00:17.14	34.53	12.38	-29.8	-33.5	12.5	8.69e-05	0	42	0	136314880	19	5525
2026-01-01 23:00:20.15	34.87	12.61	-29.9	-33.6	12.5	1.31e-04	0	42	0	142606336	19	5563
2026-01-01 23:00:23.15	35.22	12.85	-29.7	-33.2	12.9	5.03e-05	0	42	0	147849216	19	5394
2026-01-01 23:00:26.16	35.57	13.08	-29.6	-32.7	13.2	2.21e-05	0	43	0	153092096	19	5170
2026-01-01 23:00:29.17	35.93	13.32	-29.6	-32.7	13.2	1.90e-05	0	42	0	159383552	19	5179
2026-01-01 23:00:32.17	36.30	13.56	-29.8	-33.3	12.8	4.42e-05	0	42	0	164626432	19	5409
2026-01-01 23:00:35.17	36.66	13.80	-29.8	-33.5	12.8	6.48e-05	0	42	0	170917888	19	5474
2026-01-01 23:00:38.17	37.04	14.04	-29.6	-33.0	13.1	2.89e-05	0	42	0	176160768	19	5266
2026-01-01 23:00:41.18	37.42	14.28	-29.7	-33.1	13.0	5.49e-05	0	43	0	181403648	19	5334
2026-01-01 23:00:44.18	37.81	14.53	-29.7	-32.9	13.3	2.36e-05	0	42	0	187695104	19	5228
2026-01-01 23:00:47.19	38.20	14.77	-29.6	-32.9	13.2	2.59e-05	0	43	0	192937984	19	5231
2026-01-01 23:00:50.20	38.60	15.02	-29.6	-32.8	13.3	1.90e-05	0	43	0	198180864	19	5180
2026-01-01 23:00:53.20	39.01	15.27	-29.6	-32.7	13.4	1.60e-05	0	43	0	204472320	19	5143
2026-01-01 23:00:56.21	39.42	15.52	-29.5	-32.5	13.5	9.10e-06	0	43	0	209715200	19	5087
2026-01-01 23:00:59.22	39.84	15.77	-29.5	-32.6	13.5	6.80e-06	0	42	0	216006656	19	5098
2026-01-01 23:01:02.21	40.27	16.02	-29.6	-32.8	13.4	1.06e-05	0	43	0	221249536	19	5171
2026-01-01 23:01:05.23	40.70	16.27	-29.5	-32.3	13.7	1.44e-05	0	43	0	226492416	19	4992
2026-01-01 23:01:08.25	41.15	16.52	-29.4	-32.0	13.9	1.50e-06	0	43	0	232783872	19	4895
2026-01-01 23:01:11.25	41.60	16.78	-29.3	-31.8	14.1	1.50e-06	0	43	0	238026752	19	4807
2026-01-01 23:01:14.26	42.05	17.03	-29.5	-32.4	13.7	1.50e-06	0	43	0	244318208	19	5034
2026-01-01 23:01:17.27	42.52	17.29	-29.4	-32.2	13.8	5.30e-06	0	43	0	249561088	19	4951
2026-01-01 23:01:20.27	42.99	17.55	-29.4	-32.2	13.8	1.50e-06	0	43	0	254803968	19	4958
2026-01-01 23:01:23.28	43.46	17.81	-29.2	-31.5	14.3	0.00e+00	0	43	0	261095424	19	4714
2026-01-01 23:01:26.28	43.95	18.07	-29.0	-31.1	14.5	7.00e-07	0	43	0	266338304	19	4585
2026-01-01 23:01:29.28	44.44	18.33	-29.1	-31.4	14.4	1.50e-06	0	43	0	271581184	19	4667
2026-01-01 23:01:32.30	44.95	18.59	-29.1	-31.3	14.4	7.00e-07	0	43	0	277872640	19	4647
2026-01-01 23:01:35.31	45.46	18.85	-28.8	-31.0	15.0	0.00e+00	0	43	0	283115520	18	4647
2026-01-01 23:01:38.32	45.98	19.11	-28.8	-31.0	15.0	0.00e+00	0	43	0	289406976	18	4640
2026-01-01 23:01:41.33	46.51	19.37	-28.8	-30.9	15.1	0.00e+00	0	43	0	294649856	18	4611
2026-01-01 23:01:44.34	47.05	19.64	-28.6	-30.6	15.2	3.06e-04	0	43	0	299892736	18	4504
2026-01-01 23:01:47.33	47.60	19.90	-28.5	-30.9	15.4	6.85e-04	0	43	0	306184192	17	4713
2026-01-01 23:01:50.33	48.15	20.16	-28.5	-30.8	15.4	9.35e-04	0	43	0	311427072	17	4676
2026-01-01 23:01:53.33	48.72	20.42	-28.4	-30.6	15.5	4.81e-04	0	43	0	316669952	17	4620
2026-01-01 23:01:56.35	49.30	20.69	-28.4	-31.1	15.5	0.00e+00	0	43	0	322961408	16	4894
2026-01-01 23:01:59.35	49.88	20.95	-28.5	-30.8	15.4	0.00e+00	0	43	0	328204288	17	4696
2026-01-01 23:02:02.37	50.48	21.22	-28.7	-31.3	15.1	0.00e+00	0	43	0	334495744	17	4854
2026-01-01 23:02:05.37	51.08	21.48	-29.1	-31.7	14.6	0.00e+00	0	43	0	339738624	18	4877
2026-01-01 23:02:08.38	51.70	21.74	-28.8	-31.0	15.1	8.62e-05	0	43	0	344981504	18	4636
2026-01-01 23:02:11.40	52.33	22.00	-28.8	-30.9	15.1	8.08e-05	0	43	0	351272960	18	4610
2026-01-01 23:02:14.42	52.97	22.26	-28.8	-31.5	15.0	0.00e+00	0	43	0	356515840	17	4905
2026-01-01 23:02:17.41	53.61	22.52	-28.8	-31.4	15.1	0.00e+00	0	43	0	361758720	17	4882
2026-01-01 23:02:20.43	54.27	22.78	-28.7	-31.1	15.3	0.00e+00	0	43	0	368050176	17	4785
2026-01-01 23:02:23.43	54.93	23.04	-28.6	-31.1	15.4	0.00e+00	0	43	0	373293056	17	4756
2026-01-01 23:02:26.44	55.61	23.30	-28.7	-31.3	15.2	0.00e+00	0	43	0	379584512	17	4842
2026-01-01 23:02:29.46	56.31	23.55	-29.0	-31.5	14.8	7.00e-07	0	43	0	384827392	18	4789
2026-01-01 23:02:32.46	57.01	23.80	-29.1	-31.6	14.8	0.00e+00	0	43	0	390070272	18	4837
2026-01-01 23:02:35.47	57.72	24.06	-29.1	-31.7	14.7	7.00e-07	0	43	0	396361728	18	4867
2026-01-01 23:02:38.47	58.44	24.30	-29.2	-32.1	14.5	0.00e+00	0	43	0	401604608	18	4989
2026-01-01 23:02:41.48	59.18	24.55	-29.3	-32.3	14.4	1.50e-06	0	43	0	406847488	18	5058
2026-01-01 23:02:44.49	59.92	24.79	-29.3	-32.3	14.3	1.50e-06	0	43	0	413138944	18	5070
2026-01-01 23:02:47.49	60.68	25.03	-29.4	-32.3	14.3	1.50e-06	0	43	0	418381824	18	5081
2026-01-01 23:02:50.50	61.45	25.27	-29.8	-33.2	13.5	8.30e-06	0	43	0	424673280	19	5294
2026-01-01 23:02:53.50	62.23	25.51	-29.9	-33.3	13.4	4.20e-04	0	43	0	429916160	19	5311
2026-01-01 23:02:56.49	63.01	25.74	-30.0	-33.2	13.1	3.30e-04	0	43	0	435159040	20	5198
2026-01-01 23:02:59.51	63.82	25.96	-30.3	-34.0	12.6	8.16e-05	0	43	0	441450496	20	5498
2026-01-01 23:03:02.51	64.63	26.19	-30.4	-34.3	12.4	1.54e-04	0	43	0	446693376	20	5621
2026-01-01 23:03:05.52	65.46	26.41	-30.3	-34.0	12.6	1.03e-04	0	43	0	451936256	20	5502
2026-01-01 23:03:08.53	66.29	26.62	-30.6	-34.5	11.9	3.16e-04	0	43	0	458227712	21	5599
2026-01-01 23:03:11.54	67.14	26.83	-30.7	-34.7	11.7	6.06e-04	0	43	0	463470592	21	5695
2026-01-01 23:03:14.55	68.00	27.04	-30.4	-33.9	12.3	1.55e-04	0	43	0	469762048	21	5351
2026-01-01 23:03:17.55	68.87	27.23	-30.3	-33.5	12.6	1.04e-04	0	43	0	475004928	21	5204
2026-01-01 23:03:20.56	69.75	27.43	-30.4	-33.8	12.4	2.19e-04	0	43	0	480247808	21	5328
2026-01-01 23:03:23.57	70.64	27.62	-30.4	-34.3	12.4	1.01e-04	0	43	0	486539264	20	5614
2026-01-01 23:03:26.58	71.54	27.80	-30.3	-33.9	12.7	1.11e-04	0	43	0	491782144	20	5460
2026-01-01 23:03:29.59	72.45	27.97	-30.2	-33.5	12.9	4.73e-05	0	43	0	498073600	20	5300
2026-01-01 23:03:32.60	73.38	28.14	-30.8	-34.9	11.7	3.65e-04	0	43	0	503316480	21	5758
2026-01-01 23:03:35.62	74.31	28.31	-31.3	-36.1	10.5	3.14e-03	0	43	0	508559360	22	6238
2026-01-01 23:03:38.61	75.24	28.46	-31.2	-35.6	10.8	2.40e-03	0	43	0	514850816	22	5972
2026-01-01 23:03:41.62	76.19	28.61	-31.1	-35.2	11.1	2.11e-03	0	43	0	520093696	22	5816
2026-01-01 23:03:44.63	77.15	28.75	-30.8	-34.4	11.7	5.65e-04	0	43	0	525336576	22	5466
2026-01-01 23:03:47.64	78.11	28.88	-30.9	-34.6	11.5	8.34e-04	0	43	0	531628032	22	5550
2026-01-01 23:03:50.66	79.09	29.00	-30.8	-34.5	11.6	6.29e-04	0	43	0	536870912	22	5473
2026-01-01 23:03:53.67	80.07	29.12	-31.0	-35.0	11.2	1.35e-03	0	43	0	543162368	22	5733
2026-01-01 23:03:56.69	81.06	29.22	-31.0	-34.9	11.3	1.18e-03	0	43	0	548405248	22	5686
2026-01-01 23:03:59.69	82.05	29.32	-30.9	-34.7	11.4	9.23e-04	0	43	0	553648128	22	5587
2026-01-01 23:04:02.69	83.05	29.41	-30.7	-34.1	11.9	4.61e-04	0	43	0	559939584	22	5341
2026-01-01 23:04:05.69	84.05	29.49	-30.9	-34.8	11.4	7.62e-04	0	43	0	565182464	22	5636
2026-01-01 23:04:08.71	85.06	29.56	-30.9	-34.8	11.4	1.14e-03	0	43	0	570425344	22	5632
2026-01-01 23:04:11.71	86.07	29.62	-30.8	-34.5	11.6	1.02e-03	0	43	0	576716800	22	5490
2026-01-01 23:04:14.72	87.08	29.67	-30.8	-34.3	11.8	4.06e-04	0	43	0	581959680	22	5398
2026-01-01 23:04:17.73	88.10	29.71	-30.9	-34.9	11.4	4.68e-04	0	43	0	588251136	22	5656
2026-01-01 23:04:20.73	89.12	29.75	-30.6	-33.7	12.2	4.22e-04	0	43	0	593494016	22	5164
2026-01-01 23:04:23.75	90.15	29.77	-30.1	-32.8	13.2	2.51e-05	0	43	0	598736896	21	4909
2026-01-01 23:04:26.75	91.17	29.78	-30.0	-33.0	13.3	9.90e-06	0	43	0	605028352	20	5101
2026-01-01 23:04:29.75	92.19	29.78	-30.1	-33.5	13.0	4.42e-05	0	43	0	610271232	20	5286
2026-01-01 23:04:32.75	93.21	29.78	-30.3	-33.4	12.7	1.21e-04	0	43	0	615514112	21	5153
2026-01-01 23:04:35.76	94.24	29.76	-30.2	-33.2	12.9	4.19e-05	0	43	0	621805568	21	5064
2026-01-01 23:04:38.77	95.26	29.73	-30.6	-34.5	11.9	2.76e-04	0	43	0	627048448	21	5621
2026-01-01 23:04:41.78	96.28	29.70	-31.1	-35.4	10.9	2.21e-03	0	43	0	633339904	22	5952
2026-01-01 23:04:44.78	97.30	29.65	-30.8	-34.5	11.6	6.53e-04	0	43	0	638582784	22	5491
2026-01-01 23:04:47.79	98.31	29.60	-31.0	-35.1	11.2	1.32e-03	0	43	0	643825664	22	5770
2026-01-01 23:04:50.80	99.33	29.53	-31.7	-36.9	9.4	1.36e-02	0	43	0	650117120	23	6617
2026-01-01 23:04:53.81	100.34	29.46	-31.4	-35.8	10.2	1.03e-02	0	43	0	655360000	23	6029
2026-01-01 23:04:56.80	101.33	29.37	-31.0	-34.5	11.2	1.45e-03	0	43	0	660602880	23	5401
2026-01-01 23:04:59.81	102.33	29.28	-30.6	-33.9	12.0	3.78e-04	0	43	0	666894336	22	5241
2026-01-01 23:05:02.82	103.32	29.18	-30.9	-35.1	11.5	5.68e-04	0	43	0	672137216	21	5875
2026-01-01 23:05:05.83	104.31	29.07	-31.2	-35.8	10.6	3.48e-03	0	43	0	678428672	22	6096
2026-01-01 23:05:08.82	105.28	28.95	-30.9	-34.8	11.3	9.63e-04	0	43	0	683671552	22	5650
2026-01-01 23:05:11.83	106.25	28.83	-30.7	-34.1	11.8	8.78e-04	0	43	0	688914432	22	5337
2026-01-01 23:05:14.85	107.22	28.69	-29.9	-32.4	13.3	1.75e-05	0	43	0	695205888	21	4778
2026-01-01 23:05:17.85	108.17	28.55	-30.1	-33.0	13.0	3.96e-05	0	43	0	700448768	21	5006
2026-01-01 23:05:20.86	109.12	28.40	-30.3	-33.4	12.6	7.85e-05	0	43	0	705691648	21	5150
2026-01-01 23:05:23.87	110.06	28.24	-29.9	-32.2	13.4	8.30e-06	0	43	0	711983104	21	4729
2026-01-01 23:05:26.87	110.98	28.07	-29.7	-32.2	13.7	1.29e-05	0	43	0	717225984	20	4820
2026-01-01 23:05:29.88	111.90	27.90	-30.1	-33.4	13.0	4.42e-05	0	43	0	723517440	20	5269
2026-01-01 23:05:32.88	112.81	27.72	-30.7	-34.7	11.6	4.10e-04	0	43	0	728760320	21	5724
2026-01-01 23:05:35.89	113.71	27.54	-30.7	-34.3	11.6	1.00e-03	0	43	0	734003200	22	5426
2026-01-01 23:05:38.89	114.60	27.35	-30.5	-33.6	12.1	2.97e-04	0	43	0	740294656	22	5134
2026-01-01 23:05:41.89	115.47	27.15	-30.2	-33.2	12.7	1.16e-04	0	43	0	745537536	21	5110
2026-01-01 23:05:44.90	116.34	26.95	-30.6	-34.6	11.6	3.27e-04	0	43	0	750780416	21	5697
2026-01-01 23:05:47.90	117.20	26.74	-30.6	-34.5	11.7	7.54e-04	0	43	0	757071872	21	5645
2026-01-01 23:05:50.92	118.05	26.53	-30.5	-34.3	11.9	4.15e-04	0	43	0	762314752	21	5569
2026-01-01 23:05:53.93	118.88	26.31	-30.4	-33.9	12.2	2.68e-04	0	43	0	768606208	21	5376
2026-01-01 23:05:56.93	119.70	26.09	-29.9	-32.9	13.2	2.28e-05	0	43	0	773849088	20	5082
2026-01-01 23:05:59.94	120.52	25.86	-29.7	-32.3	13.6	2.13e-05	0	43	0	779091968	20	4866
2026-01-01 23:06:02.95	121.32	25.63	-29.5	-32.3	13.9	0.00e+00	0	43	0	785383424	19	4969
2026-01-01 23:06:05.97	122.11	25.40	-29.8	-33.2	13.3	1.22e-05	0	43	0	790626304	19	5315
2026-01-01 23:06:08.97	122.89	25.16	-29.6	-32.1	13.7	1.22e-05	0	43	0	795869184	20	4802
2026-01-01 23:06:11.99	123.66	24.92	-29.7	-32.4	13.5	1.22e-05	0	43	0	802160640	20	4892
2026-01-01 23:06:15.00	124.41	24.68	-29.5	-31.7	13.9	4.50e-06	0	43	0	807403520	20	4662
2026-01-01 23:06:18.00	125.16	24.43	-29.5	-32.3	13.9	7.00e-07	0	43	0	813694976	19	4973
2026-01-01 23:06:21.01	125.89	24.18	-30.0	-33.6	13.0	2.97e-05	0	43	0	818937856	19	5494
2026-01-01 23:06:24.03	126.61	23.93	-29.4	-32.0	14.1	4.95e-05	0	43	0	824180736	19	4855
2026-01-01 23:06:27.04	127.32	23.67	-30.1	-33.5	12.7	3.20e-05	0	43	0	830472192	20	5334
2026-01-01 23:06:30.05	128.02	23.42	-30.0	-33.4	12.8	1.34e-04	0	43	0	835715072	20	5276
2026-01-01 23:06:33.05	128.71	23.16	-30.1	-33.5	12.7	3.89e-05	0	43	0	842006528	20	5362
2026-01-01 23:06:36.07	129.39	22.90	-30.3	-34.3	12.1	3.06e-04	0	43	0	847249408	20	5705
2026-01-01 23:06:39.08	130.06	22.64	-29.5	-31.8	13.7	6.10e-06	0	43	0	852492288	20	4720
2026-01-01 23:06:42.09	130.71	22.38	-30.4	-34.4	12.0	2.34e-04	0	43	0	858783744	20	5710
2026-01-01 23:06:45.09	131.35	22.12	-30.6	-34.6	11.5	8.55e-04	0	43	0	864026624	21	5731
2026-01-01 23:06:48.09	131.99	21.86	-30.1	-33.2	12.4	5.10e-04	0	43	0	869269504	21	5136
2026-01-01 23:06:51.09	132.61	21.59	-30.6	-34.5	11.5	8.95e-04	0	43	0	875560960	21	5701
2026-01-01 23:06:54.11	133.22	21.33	-30.8	-35.3	10.8	2.13e-03	0	43	0	880803840	21	6074
2026-01-01 23:06:57.11	133.83	21.06	-30.0	-33.2	12.7	6.56e-05	0	43	0	887095296	20	5257
2026-01-01 23:07:00.12	134.42	20.80	-29.9	-33.1	12.7	2.98e-04	0	43	0	892338176	20	5218
2026-01-01 23:07:03.14	135.01	20.53	-30.2	-34.0	12.1	6.00e-04	0	43	0	897581056	20	5579
2026-01-01 23:07:06.14	135.58	20.27	-29.2	-32.2	14.0	1.03e-03	0	43	0	903872512	18	5074
2026-01-01 23:07:09.15	136.14	20.00	-29.6	-32.8	13.3	1.10e-03	0	43	0	909115392	19	5199
2026-01-01 23:07:12.16	136.70	19.74	-29.4	-32.3	13.6	8.69e-05	0	43	0	914358272	19	5007
2026-01-01 23:07:15.17	137.24	19.47	-29.4	-32.2	13.7	5.30e-06	0	43	0	920649728	19	4962
2026-01-01 23:07:18.16	137.78	19.21	-29.2	-32.2	13.9	3.50e-04	0	43	0	925892608	18	5085
2026-01-01 23:07:21.16	138.30	18.94	-28.8	-31.1	14.7	2.55e-04	0	43	0	932184064	18	4694
2026-01-01 23:07:24.17	138.82	18.68	-28.6	-31.1	14.9	3.95e-04	0	43	0	937426944	17	4837
2026-01-01 23:07:27.18	139.33	18.42	-28.8	-31.8	14.5	5.29e-04	0	43	0	942669824	17	5066
2026-01-01 23:07:30.18	139.83	18.15	-29.1	-32.0	14.0	4.45e-04	0	43	0	948961280	18	5023
2026-01-01 23:07:33.18	140.32	17.89	-29.2	-32.3	13.8	6.10e-06	0	43	0	954204160	18	5134
2026-01-01 23:07:36.17	140.80	17.63	-29.1	-32.2	13.8	3.80e-06	0	43	0	959447040	18	5092
2026-01-01 23:07:39.18	141.28	17.37	-29.0	-31.8	14.0	2.28e-05	0	43	0	965738496	18	4976
2026-01-01 23:07:42.19	141.75	17.11	-29.5	-33.0	13.2	1.59e-03	0	43	0	970981376	18	5420
2026-01-01 23:07:45.21	142.21	16.85	-29.2	-32.3	13.6	1.82e-03	0	43	0	977272832	18	5152
2026-01-01 23:07:48.21	142.67	16.60	-29.4	-32.9	13.2	4.04e-05	0	43	0	982515712	18	5380
2026-01-01 23:07:51.23	143.11	16.34	-29.5	-32.7	12.9	7.32e-05	0	43	0	987758592	19	5210
2026-01-01 23:07:54.23	143.55	16.09	-29.7	-33.3	12.4	1.43e-04	0	43	0	994050048	19	5479
2026-01-01 23:07:57.25	143.99	15.83	-29.8	-33.6	12.2	2.70e-04	0	43	0	999292928	19	5582
2026-01-01 23:08:00.25	144.41	15.58	-29.8	-33.7	12.1	2.61e-04	0	43	0	1004535808	19	5648
2026-01-01 23:08:03.26	144.83	15.33	-29.6	-33.0	12.6	9.91e-05	0	43	0	1010827264	19	5352
2026-01-01 23:08:06.27	145.24	15.08	-29.9	-33.9	12.0	1.80e-04	0	43	0	1016070144	19	5741
2026-01-01 23:08:09.29	145.64	14.82	-29.9	-33.8	11.6	5.33e-04	0	43	0	1022361600	20	5608
2026-01-01 23:08:12.30	146.04	14.58	-30.0	-34.2	11.3	1.25e-03	0	43	0	1027604480	20	5822
2026-01-01 23:08:15.31	146.43	14.33	-30.1	-34.5	11.0	2.15e-03	0	43	0	1032847360	20	6009
2026-01-01 23:08:18.31	146.82	14.08	-29.9	-34.1	11.5	6.56e-04	0	43	0	1039138816	19	5870
2026-01-01 23:08:21.32	147.20	13.84	-29.7	-33.4	11.5	2.43e-04	0	43	0	1044381696	19	5570
2026-01-01 23:08:24.32	147.57	13.60	-29.6	-33.2	12.4	1.46e-04	0	43	0	1049624576	19	5433
2026-01-01 23:08:27.33	147.94	13.36	-29.8	-33.8	12.0	4.18e-04	0	43	0	1055916032	19	5728
2026-01-01 23:08:30.33	148.30	13.12	-29.9	-34.0	11.9	3.07e-03	0	43	0	1061158912	19	5775
2026-01-01 23:08:33.33	148.65	12.88	-30.0	-34.3	11.6	3.43e-03	0	43	0	1067450368	19	5965
2026-01-01 23:08:36.34	149.00	12.64	-29.8	-33.9	11.9	6.51e-04	0	43	0	1072693248	19	5768
2026-01-01 23:08:39.35	149.35	12.40	-29.6	-33.3	12.2	2.71e-04	0	43	0	1077936128	19	5540
2026-01-01 23:08:42.35	149.69	12.17	-29.5	-32.9	12.5	2.17e-04	0	43	0	1084227584	19	5334
2026-01-01 23:08:45.34	150.02	11.94	-29.3	-33.0	12.8	2.27e-03	0	43	0	1089470464	18	5489
2026-01-01 23:08:48.34	150.35	11.71	-29.5	-33.5	12.4	2.77e-03	0	43	0	1095761920	18	5716
2026-01-01 23:08:51.35	150.68	11.48	-29.6	-33.6	11.9	3.04e-03	0	43	0	1101004800	19	5683
2026-01-01 23:08:54.35	150.99	11.25	-29.6	-33.6	11.8	3.08e-03	0	43	0	1106247680	19	5698
2026-01-01 23:08:57.36	151.31	11.02	-29.4	-33.4	12.3	1.79e-04	0	43	0	1112539136	18	5706
2026-01-01 23:09:00.36	151.62	10.79	-29.3	-33.1	12.5	1.22e-04	0	43	0	1117782016	18	5562
2026-01-01 23:09:03.37	151.93	10.57	-29.3	-33.1	12.5	2.62e-03	0	43	0	1123024896	18	5589
2026-01-01 23:09:06.38	152.23	10.34	-29.5	-33.4	11.9	3.44e-03	0	43	0	1129316352	19	5621
2026-01-01 23:09:09.39	152.52	10.12	-29.6	-33.9	11.5	3.65e-03	0	43	0	1134559232	19	5856
2026-01-01 23:09:12.40	152.82	9.90	-29.6	-33.9	11.4	3.90e-03	0	43	0	1140850688	19	5918
2026-01-01 23:09:15.42	153.11	9.68	-29.5	-33.4	11.8	3.32e-03	0	43	0	1146093568	19	5650
2026-01-01 23:09:18.44	153.39	9.46	-29.3	-33.5	12.0	3.09e-03	0	43	0	1151336448	18	5820
2026-01-01 23:09:21.44	153.67	9.24	-29.1	-33.1	12.2	2.59e-04	0	43	0	1157627904	18	5709
2026-01-01 23:09:24.46	153.95	9.03	-29.2	-33.3	12.1	3.17e-03	0	43	0	1162870784	18	5767
2026-01-01 23:09:27.47	154.22	8.81	-29.4	-34.0	11.6	3.46e-03	0	43	0	1168113664	18	6091
2026-01-01 23:09:30.47	154.49	8.60	-29.6	-33.8	11.5	3.29e-03	0	43	0	1174405120	19	5811
2026-01-01 23:09:33.47	154.75	8.39	-29.5	-33.5	11.6	3.46e-03	0	43	0	1179648000	19	5701
2026-01-01 23:09:36.48	155.02	8.18	-29.4	-33.8	11.8	1.61e-03	0	43	0	1185939456	18	5964
2026-01-01 23:09:39.49	155.27	7.97	-29.7	-34.4	10.9	1.55e-03	0	43	0	1191182336	19	6157
2026-01-01 23:09:42.51	155.53	7.76	-29.6	-33.8	11.5	8.77e-04	0	43	0	1196425216	19	5797
2026-01-01 23:09:45.52	155.78	7.55	-29.5	-33.4	11.8	6.46e-04	0	43	0	1202716672	19	5589
2026-01-01 23:09:48.53	156.03	7.34	-29.7	-34.0	11.4	9.88e-04	0	43	0	1207959552	19	5893
2026-01-01 23:09:51.55	156.27	7.14	-29.9	-34.9	10.5	4.45e-03	0	43	0	1214251008	19	6397
2026-01-01 23:09:54.54	156.51	6.94	-32.9	-47.4	3.8	1.49e+00	0	43	104	1215299584	25	19187

#Closed at: 2026-01-01 23:09:54
#Recorded file [1215 MB]: D:/data/31010_260102_015903.dat