passes_logs/2026/01/01/R2M6_AANII_01/R2M6_AANII_01__20260101_045942_FENGYUN_3D_rec.log

#Pass ID: 20260101_045942_FENGYUN 3D
#Satellite: FENGYUN 3D
#Configuration: FENGYUN 3D
#almurnet v.1.7.20240730
#Start time: 2026-01-01 04:59:42

#Version: 2.2.20231116
#Station: R2M6_AANII_01
#Location: 30.233357 lon 59.946436 lat
#TLE: 1 43010U 17072A   25365.48527867  .00000101  00000+0  69745-4 0  9999
#TLE: 2 43010  98.9911 332.0787 0001837 134.4748 225.6578 14.19689788421190

#Time	Az	El	Level	Level2	SNR	BER	BlckErr	Temp	State	Recorded	gain1	gain2
2026-01-01 04:59:42.37	9.17	7.00	-31.1	-37.2	4.4	8.30e-01	0	40	0	0	22	7265
2026-01-01 04:59:45.38	8.82	7.17	-30.1	-34.3	7.8	7.21e-02	0	40	0	5242880	20	5838
2026-01-01 04:59:48.40	8.47	7.33	-30.1	-34.1	8.0	7.01e-02	0	41	0	22020096	20	5730
2026-01-01 04:59:51.40	8.11	7.49	-29.8	-33.4	8.5	4.65e-02	0	41	0	38797312	20	5405
2026-01-01 04:59:54.40	7.76	7.65	-28.6	-31.3	11.0	4.79e-03	0	41	0	55574528	17	4914
2026-01-01 04:59:57.42	7.39	7.82	-27.2	-29.4	13.0	2.15e-03	0	41	0	72351744	14	4632
2026-01-01 05:00:00.42	7.02	7.98	-26.4	-28.0	14.2	1.10e-06	0	41	0	90177536	13	4330
2026-01-01 05:00:03.43	6.65	8.14	-26.2	-28.2	14.3	1.73e-03	0	41	0	106954752	12	4487
2026-01-01 05:00:06.45	6.27	8.30	-26.3	-28.2	14.3	1.77e-03	0	41	0	123731968	12	4502
2026-01-01 05:00:09.46	5.89	8.47	-26.2	-28.1	14.4	0.00e+00	0	41	0	140509184	12	4474
2026-01-01 05:00:12.46	5.51	8.63	-26.2	-27.9	14.5	0.00e+00	0	41	0	157286400	12	4409
2026-01-01 05:00:15.47	5.12	8.79	-26.0	-27.6	14.8	5.70e-06	0	41	0	174063616	12	4327
2026-01-01 05:00:18.49	4.72	8.95	-26.1	-27.8	14.7	0.00e+00	0	41	0	191889408	12	4374
2026-01-01 05:00:21.49	4.33	9.11	-26.3	-28.2	14.4	0.00e+00	0	41	0	208666624	12	4496
2026-01-01 05:00:24.50	3.92	9.27	-26.4	-28.5	14.2	1.10e-06	0	41	0	225443840	12	4584
2026-01-01 05:00:27.50	3.52	9.43	-26.4	-28.5	14.2	0.00e+00	0	42	0	242221056	12	4583
2026-01-01 05:00:30.50	3.11	9.59	-26.3	-28.2	14.5	0.00e+00	0	42	0	258998272	12	4487
2026-01-01 05:00:33.49	2.69	9.75	-26.0	-27.7	14.8	0.00e+00	0	42	0	275775488	12	4343
2026-01-01 05:00:36.52	2.27	9.91	-26.0	-27.6	14.8	0.00e+00	0	42	0	292552704	12	4337
2026-01-01 05:00:39.53	1.84	10.07	-26.0	-27.5	14.9	0.00e+00	0	42	0	310378496	12	4299
2026-01-01 05:00:42.53	1.41	10.23	-25.9	-27.4	15.0	0.00e+00	0	42	0	327155712	12	4262
2026-01-01 05:00:45.54	0.97	10.39	-25.9	-27.3	15.0	0.00e+00	0	42	0	343932928	12	4246
2026-01-01 05:00:48.54	0.53	10.54	-25.9	-27.9	15.1	0.00e+00	0	42	0	360710144	11	4514
2026-01-01 05:00:51.56	0.09	10.70	-25.8	-27.1	15.1	0.00e+00	0	42	0	377487360	12	4177
2026-01-01 05:00:54.58	359.64	10.86	-25.8	-27.7	15.2	0.00e+00	0	42	0	394264576	11	4451
2026-01-01 05:00:57.59	359.18	11.01	-26.1	-27.8	14.8	0.00e+00	0	42	0	411041792	12	4366
2026-01-01 05:01:00.59	358.72	11.16	-26.0	-27.5	15.0	0.00e+00	0	42	0	428867584	12	4286
2026-01-01 05:01:03.60	358.26	11.32	-25.9	-27.2	15.1	0.00e+00	0	42	0	445644800	12	4216
2026-01-01 05:01:06.61	357.78	11.47	-26.0	-27.9	11.7	0.00e+00	0	42	0	462422016	11	4509
2026-01-01 05:01:09.62	357.31	11.62	-25.9	-27.3	15.1	0.00e+00	0	42	0	479199232	12	4243
2026-01-01 05:01:12.63	356.83	11.77	-25.9	-27.8	15.2	1.66e-03	0	42	0	495976448	11	4474
2026-01-01 05:01:15.64	356.34	11.92	-25.7	-27.4	15.4	9.15e-05	0	42	0	512753664	11	4370
2026-01-01 05:01:18.65	355.85	12.07	-25.5	-26.9	15.7	0.00e+00	0	42	0	529530880	11	4236
2026-01-01 05:01:21.66	355.36	12.22	-25.3	-26.9	16.0	1.21e-03	0	42	0	546308096	10	4353
2026-01-01 05:01:24.67	354.86	12.36	-25.2	-26.7	16.1	1.17e-03	0	42	0	564133888	10	4303
2026-01-01 05:01:27.67	354.35	12.51	-25.2	-26.8	16.1	1.11e-03	0	42	0	580911104	10	4315
2026-01-01 05:01:30.68	353.84	12.65	-25.3	-27.0	16.0	1.22e-03	0	42	0	597688320	10	4375
2026-01-01 05:01:33.68	353.33	12.79	-25.4	-27.2	15.9	9.54e-04	0	42	0	614465536	10	4429
2026-01-01 05:01:36.68	352.81	12.93	-25.2	-26.7	16.1	8.57e-04	0	42	0	631242752	10	4285
2026-01-01 05:01:39.69	352.28	13.07	-25.3	-26.9	16.1	8.70e-04	0	42	0	648019968	10	4334
2026-01-01 05:01:42.71	351.75	13.20	-25.5	-27.3	15.8	8.37e-04	0	42	0	664797184	10	4462
2026-01-01 05:01:45.72	351.21	13.34	-25.5	-26.9	15.8	8.19e-04	0	42	0	681574400	11	4234
2026-01-01 05:01:48.73	350.67	13.47	-25.3	-26.9	16.0	0.00e+00	0	42	0	699400192	10	4349
2026-01-01 05:01:51.72	350.13	13.60	-25.0	-26.3	16.4	0.00e+00	0	42	0	716177408	10	4168
2026-01-01 05:01:54.73	349.58	13.73	-25.2	-26.7	16.2	1.15e-03	0	43	0	732954624	10	4294
2026-01-01 05:01:57.73	349.03	13.86	-25.4	-27.1	16.0	1.19e-03	0	43	0	749731840	10	4402
2026-01-01 05:02:00.74	348.47	13.99	-25.4	-27.2	15.9	0.00e+00	0	43	0	766509056	10	4414
2026-01-01 05:02:03.74	347.90	14.11	-25.3	-27.0	16.0	0.00e+00	0	43	0	783286272	10	4379
2026-01-01 05:02:06.74	347.33	14.23	-25.1	-26.5	16.3	0.00e+00	0	42	0	800063488	10	4239
2026-01-01 05:02:09.74	346.76	14.35	-24.8	-25.9	16.7	0.00e+00	0	43	0	816840704	10	4067
2026-01-01 05:02:12.76	346.18	14.47	-24.9	-26.1	16.5	0.00e+00	0	43	0	834666496	10	4120
2026-01-01 05:02:15.76	345.60	14.58	-24.9	-26.5	16.5	0.00e+00	0	43	0	851443712	9	4344
2026-01-01 05:02:18.78	345.01	14.69	-24.6	-26.0	16.8	0.00e+00	0	43	0	868220928	9	4205
2026-01-01 05:02:21.79	344.41	14.80	-24.5	-25.7	17.1	0.00e+00	0	43	0	884998144	9	4124
2026-01-01 05:02:24.80	343.82	14.91	-24.5	-25.8	17.0	0.00e+00	0	43	0	901775360	9	4151
2026-01-01 05:02:27.81	343.22	15.01	-24.7	-26.2	16.8	0.00e+00	0	43	0	918552576	9	4252
2026-01-01 05:02:30.83	342.61	15.11	-24.4	-25.6	17.1	0.00e+00	0	43	0	936378368	9	4106
2026-01-01 05:02:33.83	342.00	15.21	-24.6	-25.8	17.0	0.00e+00	0	42	0	953155584	9	4169
2026-01-01 05:02:36.85	341.38	15.31	-24.4	-25.6	17.1	0.00e+00	0	43	0	969932800	9	4096
2026-01-01 05:02:39.87	340.76	15.40	-24.3	-25.8	17.3	0.00e+00	0	43	0	986710016	8	4271
2026-01-01 05:02:42.87	340.14	15.49	-24.4	-25.4	17.2	0.00e+00	0	43	0	1003487232	9	4066
2026-01-01 05:02:45.89	339.51	15.57	-24.5	-25.7	17.0	0.00e+00	0	43	0	1020264448	9	4145
2026-01-01 05:02:48.90	338.89	15.66	-24.6	-26.0	16.9	0.00e+00	0	43	0	1037041664	9	4209
2026-01-01 05:02:51.91	338.25	15.74	-24.1	-25.3	17.0	0.00e+00	0	43	0	1054867456	9	4165
2026-01-01 05:02:54.92	337.62	15.81	-24.4	-25.9	17.2	0.00e+00	0	43	0	1071644672	8	4296
2026-01-01 05:02:57.93	336.98	15.89	-24.3	-25.7	17.3	0.00e+00	0	43	0	1088421888	8	4249
2026-01-01 05:03:00.93	336.34	15.96	-24.4	-26.0	17.1	0.00e+00	0	43	0	1105199104	8	4333
2026-01-01 05:03:03.93	335.69	16.02	-24.6	-25.9	16.9	6.06e-05	0	43	0	1121976320	9	4181
2026-01-01 05:03:06.95	335.04	16.09	-24.3	-25.3	17.3	0.00e+00	0	43	0	1138753536	9	4024
2026-01-01 05:03:09.96	334.39	16.15	-24.2	-25.6	17.4	0.00e+00	0	43	0	1155530752	8	4217
2026-01-01 05:03:12.97	333.74	16.20	-24.2	-25.6	17.4	0.00e+00	0	43	0	1173356544	8	4223
2026-01-01 05:03:15.98	333.08	16.25	-24.7	-26.2	16.8	0.00e+00	0	43	0	1190133760	9	4259
2026-01-01 05:03:18.99	332.42	16.30	-24.2	-25.7	17.3	0.00e+00	0	43	0	1206910976	8	4233
2026-01-01 05:03:22.00	331.76	16.35	-24.1	-25.3	17.5	0.00e+00	0	43	0	1223688192	8	4147
2026-01-01 05:03:25.01	331.10	16.39	-24.2	-25.5	17.5	0.00e+00	0	43	0	1240465408	8	4181
2026-01-01 05:03:28.01	330.44	16.42	-24.1	-25.3	17.6	0.00e+00	0	43	0	1257242624	8	4134
2026-01-01 05:03:31.02	329.77	16.46	-24.1	-25.4	17.5	0.00e+00	0	43	0	1274019840	8	4176
2026-01-01 05:03:34.03	329.11	16.48	-24.3	-25.7	17.3	1.14e-05	0	43	0	1291845632	8	4242
2026-01-01 05:03:37.04	328.44	16.51	-24.1	-25.3	17.5	6.98e-05	0	43	0	1308622848	8	4134
2026-01-01 05:03:40.06	327.77	16.53	-24.1	-25.4	17.5	0.00e+00	0	43	0	1325400064	8	4170
2026-01-01 05:03:43.06	327.10	16.55	-23.9	-24.8	17.8	0.00e+00	0	43	0	1342177280	8	4026
2026-01-01 05:03:46.07	326.43	16.56	-23.9	-25.5	17.7	4.57e-05	0	43	0	1358954496	7	4299
2026-01-01 05:03:49.08	325.75	16.57	-23.9	-25.3	17.7	0.00e+00	0	43	0	1375731712	7	4268
2026-01-01 05:03:52.09	325.08	16.57	-23.7	-25.0	17.9	0.00e+00	0	43	0	1393557504	7	4178
2026-01-01 05:03:55.11	324.41	16.58	-23.9	-25.4	17.6	0.00e+00	0	43	0	1410334720	7	4287
2026-01-01 05:03:58.13	323.73	16.57	-24.0	-25.5	17.6	0.00e+00	0	43	0	1427111936	7	4315
2026-01-01 05:04:01.14	323.06	16.57	-24.0	-25.2	17.6	0.00e+00	0	43	0	1443889152	8	4126
2026-01-01 05:04:04.15	322.39	16.56	-24.1	-25.3	17.5	0.00e+00	0	43	0	1460666368	8	4142
2026-01-01 05:04:07.16	321.72	16.54	-24.2	-25.6	17.4	0.00e+00	0	43	0	1477443584	8	4215
2026-01-01 05:04:10.17	321.05	16.52	-24.3	-25.8	17.2	0.00e+00	0	43	0	1495269376	8	4278
2026-01-01 05:04:13.19	320.38	16.50	-24.3	-25.7	17.3	0.00e+00	0	43	0	1512046592	8	4238
2026-01-01 05:04:16.20	319.71	16.47	-24.0	-25.2	17.6	0.00e+00	0	43	0	1528823808	8	4111
2026-01-01 05:04:19.20	319.04	16.44	-23.8	-25.3	17.8	0.00e+00	0	43	0	1545601024	7	4254
2026-01-01 05:04:22.21	318.38	16.41	-24.1	-25.4	17.4	0.00e+00	0	43	0	1562378240	8	4177
2026-01-01 05:04:25.22	317.71	16.37	-23.9	-25.0	17.7	0.00e+00	0	43	0	1579155456	8	4059
2026-01-01 05:04:28.23	317.05	16.33	-24.0	-25.1	17.6	0.00e+00	0	43	0	1595932672	8	4084
2026-01-01 05:04:31.25	316.39	16.28	-24.0	-25.1	17.6	0.00e+00	0	43	0	1613758464	8	4095
2026-01-01 05:04:34.25	315.73	16.23	-24.1	-25.3	17.5	0.00e+00	0	43	0	1630535680	8	4152
2026-01-01 05:04:37.25	315.08	16.18	-23.6	-24.7	14.5	0.00e+00	0	43	0	1647312896	8	4086
2026-01-01 05:04:40.25	314.43	16.12	-24.0	-25.1	17.5	0.00e+00	0	43	0	1664090112	8	4088
2026-01-01 05:04:43.27	313.78	16.06	-23.8	-25.2	17.8	8.34e-04	0	43	0	1680867328	7	4236
2026-01-01 05:04:46.28	313.13	15.99	-24.0	-25.3	17.4	0.00e+00	0	43	0	1697644544	8	4165
2026-01-01 05:04:49.28	312.48	15.93	-24.2	-25.5	17.3	0.00e+00	0	43	0	1714421760	8	4191
2026-01-01 05:04:52.28	311.84	15.85	-24.3	-25.9	17.2	7.79e-04	0	43	0	1731198976	8	4296
2026-01-01 05:04:55.29	311.21	15.78	-24.1	-25.5	17.4	1.07e-03	0	43	0	1749024768	8	4192
2026-01-01 05:04:58.30	310.57	15.70	-24.2	-25.7	17.2	0.00e+00	0	43	0	1765801984	8	4241
2026-01-01 05:05:01.31	309.94	15.62	-24.7	-26.1	16.8	1.12e-03	0	43	0	1782579200	9	4230
2026-01-01 05:05:04.31	309.31	15.54	-24.2	-25.6	17.3	1.13e-03	0	43	0	1799356416	8	4229
2026-01-01 05:05:07.32	308.68	15.45	-24.2	-25.6	17.3	1.29e-03	0	43	0	1816133632	8	4219
2026-01-01 05:05:10.34	308.06	15.36	-24.3	-25.7	17.2	1.17e-03	0	43	0	1832910848	8	4255
2026-01-01 05:05:13.34	307.44	15.26	-24.2	-25.7	17.2	1.16e-03	0	43	0	1849688064	8	4237
2026-01-01 05:05:16.34	306.83	15.17	-24.5	-25.8	16.9	1.36e-03	0	43	0	1866465280	9	4164
2026-01-01 05:05:19.36	306.22	15.07	-24.3	-25.4	17.1	0.00e+00	0	43	0	1884291072	9	4050
2026-01-01 05:05:22.37	305.62	14.96	-24.5	-25.7	16.9	1.34e-03	0	43	0	1901068288	9	4136
2026-01-01 05:05:25.39	305.01	14.86	-24.6	-25.9	16.8	1.60e-03	0	43	0	1917845504	9	4201
2026-01-01 05:05:28.39	304.42	14.75	-24.3	-25.8	17.1	0.00e+00	0	43	0	1934622720	8	4273
2026-01-01 05:05:31.39	303.83	14.64	-24.6	-26.0	16.7	0.00e+00	0	43	0	1951399936	9	4213
2026-01-01 05:05:34.39	303.24	14.53	-24.5	-25.7	16.9	0.00e+00	0	43	0	1968177152	9	4132
2026-01-01 05:05:37.40	302.66	14.41	-24.7	-26.1	16.7	0.00e+00	0	43	0	1984954368	9	4243
2026-01-01 05:05:40.42	302.07	14.29	-24.7	-26.0	16.7	0.00e+00	0	43	0	2002780160	9	4229
2026-01-01 05:05:43.43	301.50	14.17	-24.7	-26.1	16.7	0.00e+00	0	43	0	2019557376	9	4240
2026-01-01 05:05:46.44	300.93	14.05	-24.6	-25.9	16.8	0.00e+00	0	43	0	2036334592	9	4190
2026-01-01 05:05:49.45	300.37	13.93	-24.6	-26.1	16.7	0.00e+00	0	43	0	2053111808	9	4233
2026-01-01 05:05:52.46	299.81	13.80	-24.9	-26.5	16.4	0.00e+00	0	43	0	2069889024	9	4364
2026-01-01 05:05:55.48	299.25	13.67	-24.8	-26.5	16.4	0.00e+00	0	43	0	2086666240	9	4337
2026-01-01 05:05:58.49	298.70	13.54	-24.8	-25.9	16.5	0.00e+00	0	43	0	2104492032	10	4091
2026-01-01 05:06:01.50	298.15	13.41	-24.6	-26.0	16.7	0.00e+00	0	43	0	2121269248	9	4231
2026-01-01 05:06:04.50	297.61	13.27	-24.6	-26.0	16.7	0.00e+00	0	43	0	2138046464	9	4220
2026-01-01 05:06:07.51	297.08	13.14	-24.7	-26.3	16.5	0.00e+00	0	43	0	2154823680	9	4289
2026-01-01 05:06:10.52	296.55	13.00	-24.8	-26.3	16.5	0.00e+00	0	43	0	2171600896	9	4289
2026-01-01 05:06:13.54	296.02	12.86	-25.1	-26.6	16.0	0.00e+00	0	43	0	2188378112	10	4277
2026-01-01 05:06:16.54	295.50	12.72	-25.2	-26.7	16.0	0.00e+00	0	43	0	2205155328	10	4293
2026-01-01 05:06:19.55	294.99	12.58	-25.1	-26.6	16.1	0.00e+00	0	43	0	2222981120	10	4254
2026-01-01 05:06:22.56	294.47	12.43	-25.2	-26.7	16.0	0.00e+00	0	43	0	2239758336	10	4297
2026-01-01 05:06:25.57	293.97	12.29	-25.1	-26.5	13.4	0.00e+00	0	43	0	2256535552	10	4243
2026-01-01 05:06:28.58	293.47	12.14	-25.2	-26.8	15.9	0.00e+00	0	43	0	2273312768	10	4321
2026-01-01 05:06:31.59	292.97	11.99	-25.2	-26.8	15.9	7.28e-04	0	43	0	2290089984	10	4333
2026-01-01 05:06:34.58	292.49	11.84	-25.2	-26.8	15.9	0.00e+00	0	43	0	2306867200	10	4309
2026-01-01 05:06:37.58	292.00	11.69	-25.3	-27.1	15.7	0.00e+00	0	43	0	2323644416	10	4394
2026-01-01 05:06:40.59	291.52	11.54	-25.4	-27.3	15.6	7.95e-04	0	43	0	2340421632	10	4461
2026-01-01 05:06:43.60	291.05	11.39	-25.3	-26.6	15.7	1.15e-03	0	43	0	2358247424	11	4149
2026-01-01 05:06:46.61	290.58	11.24	-25.2	-26.7	15.9	1.22e-03	0	43	0	2375024640	10	4294
2026-01-01 05:06:49.62	290.11	11.08	-25.2	-26.9	15.8	0.00e+00	0	43	0	2391801856	10	4349
2026-01-01 05:06:52.62	289.65	10.93	-25.2	-26.8	15.8	1.52e-03	0	43	0	2408579072	10	4321
2026-01-01 05:06:55.62	289.20	10.77	-25.3	-27.0	15.6	1.28e-03	0	43	0	2425356288	10	4375
2026-01-01 05:06:58.64	288.75	10.62	-25.7	-27.3	15.2	0.00e+00	0	43	0	2442133504	11	4370
2026-01-01 05:07:01.65	288.30	10.46	-25.8	-27.6	15.0	1.07e-03	0	43	0	2458910720	11	4428
2026-01-01 05:07:04.66	287.86	10.30	-25.8	-27.6	15.0	1.04e-03	0	43	0	2475687936	11	4437
2026-01-01 05:07:07.66	287.42	10.14	-25.9	-27.8	14.9	6.73e-04	0	43	0	2493513728	11	4507
2026-01-01 05:07:10.66	286.99	9.99	-25.8	-27.7	14.9	0.00e+00	0	43	0	2510290944	11	4469
2026-01-01 05:07:13.68	286.57	9.83	-25.9	-27.8	14.8	1.58e-03	0	43	0	2527068160	11	4508
2026-01-01 05:07:16.68	286.15	9.67	-25.9	-27.9	14.7	1.63e-03	0	43	0	2543845376	11	4543
2026-01-01 05:07:19.68	285.73	9.51	-25.9	-27.9	14.7	0.00e+00	0	43	0	2560622592	11	4528
2026-01-01 05:07:22.69	285.32	9.35	-25.7	-27.4	15.0	0.00e+00	0	43	0	2577399808	11	4375
2026-01-01 05:07:25.69	284.91	9.19	-25.9	-27.8	14.7	8.33e-04	0	43	0	2594177024	11	4514
2026-01-01 05:07:28.70	284.51	9.02	-25.9	-27.4	14.6	0.00e+00	0	43	0	2610954240	12	4294
2026-01-01 05:07:31.71	284.11	8.86	-25.9	-27.9	14.7	0.00e+00	0	43	0	2628780032	11	4535
2026-01-01 05:07:34.72	283.71	8.70	-26.0	-27.7	14.3	0.00e+00	0	43	0	2645557248	12	4377
2026-01-01 05:07:37.73	283.32	8.54	-26.2	-28.2	14.1	0.00e+00	0	43	0	2662334464	12	4523
2026-01-01 05:07:40.74	282.94	8.38	-26.1	-28.0	14.2	0.00e+00	0	43	0	2679111680	12	4457
2026-01-01 05:07:43.75	282.56	8.21	-26.1	-28.0	14.2	1.10e-06	0	43	0	2695888896	12	4460
2026-01-01 05:07:46.76	282.18	8.05	-26.1	-28.0	14.2	2.20e-06	0	43	0	2712666112	12	4455
2026-01-01 05:07:49.78	281.81	7.89	-26.2	-28.2	14.0	0.00e+00	0	43	0	2730491904	12	4515
2026-01-01 05:07:52.79	281.44	7.72	-26.3	-28.3	13.9	1.10e-06	0	43	0	2747269120	12	4558
2026-01-01 05:07:55.81	281.07	7.56	-26.3	-28.3	13.9	2.20e-06	0	43	0	2764046336	12	4539
2026-01-01 05:07:58.82	280.71	7.40	-26.7	-28.8	13.3	5.70e-06	0	43	0	2780823552	13	4602
2026-01-01 05:08:01.83	280.36	7.23	-26.9	-28.8	13.0	2.86e-05	0	43	0	2797600768	14	4480
2026-01-01 05:08:04.84	280.00	7.07	-26.7	-28.8	13.2	1.37e-05	0	43	0	2814377984	13	4602

#Closed at: 2026-01-01 05:08:07
#Recorded file [2818 MB]: D:/data/31010_260101_075944.dat