passes_logs/2026/01/01/R2M6_AANII_01/R2M6_AANII_01__20260101_113141_FENGYUN_3D_rec.log

#Pass ID: 20260101_113141_FENGYUN 3D
#Satellite: FENGYUN 3D
#Configuration: FENGYUN 3D
#almurnet v.1.7.20240730
#Start time: 2026-01-01 11:31:41

#Version: 2.2.20231116
#Station: R2M6_AANII_01
#Location: 30.233357 lon 59.946436 lat
#TLE: 1 43010U 17072A   25365.48527867  .00000101  00000+0  69745-4 0  9999
#TLE: 2 43010  98.9911 332.0787 0001837 134.4748 225.6578 14.19689788421190

#Time	Az	El	Level	Level2	SNR	BER	BlckErr	Temp	State	Recorded	gain1	gain2
2026-01-01 11:31:41.09	135.19	6.96	-29.5	-32.3	5.3	7.90e-01	0	41	0	0	20	4965
2026-01-01 11:31:44.11	135.07	7.19	-29.5	-32.4	9.4	1.45e-02	0	41	0	5242880	20	4989
2026-01-01 11:31:47.11	134.95	7.42	-29.2	-32.0	10.2	6.34e-03	0	41	0	22020096	19	4925
2026-01-01 11:31:50.12	134.83	7.65	-28.9	-31.0	10.8	2.09e-03	0	41	0	38797312	19	4619
2026-01-01 11:31:53.13	134.71	7.89	-28.8	-31.5	10.9	1.41e-03	0	41	0	55574528	18	4876
2026-01-01 11:31:56.14	134.59	8.12	-27.7	-29.6	12.7	5.95e-05	0	41	0	73400320	16	4466
2026-01-01 11:31:59.16	134.47	8.36	-27.7	-29.4	12.9	3.20e-05	0	42	0	90177536	16	4416
2026-01-01 11:32:02.18	134.34	8.60	-27.7	-29.6	12.7	5.37e-05	0	41	0	106954752	16	4474
2026-01-01 11:32:05.19	134.21	8.84	-27.5	-29.1	13.1	1.60e-05	0	41	0	123731968	16	4309
2026-01-01 11:32:08.20	134.08	9.08	-27.5	-28.9	13.3	1.02e-05	0	42	0	140509184	16	4251
2026-01-01 11:32:11.20	133.94	9.33	-26.7	-28.3	14.1	1.10e-06	0	42	0	158334976	14	4299
2026-01-01 11:32:14.21	133.81	9.58	-26.8	-28.3	14.1	1.10e-06	0	42	0	175112192	14	4317
2026-01-01 11:32:17.22	133.67	9.83	-26.7	-28.1	14.3	2.20e-06	0	42	0	191889408	14	4247
2026-01-01 11:32:20.24	133.53	10.08	-26.7	-28.1	14.3	5.70e-06	0	42	0	208666624	14	4247
2026-01-01 11:32:23.23	133.38	10.34	-26.5	-27.7	14.5	0.00e+00	0	42	0	225443840	14	4143
2026-01-01 11:32:26.25	133.23	10.60	-26.6	-27.9	14.4	0.00e+00	0	42	0	242221056	14	4190
2026-01-01 11:32:29.26	133.08	10.86	-26.6	-27.9	14.5	0.00e+00	0	42	0	258998272	14	4185
2026-01-01 11:32:32.28	132.93	11.12	-26.7	-28.1	14.4	0.00e+00	0	42	0	275775488	14	4252
2026-01-01 11:32:35.29	132.78	11.39	-26.7	-28.2	14.3	0.00e+00	0	42	0	293601280	14	4278
2026-01-01 11:32:38.31	132.62	11.66	-26.5	-27.8	14.6	0.00e+00	0	42	0	310378496	14	4159
2026-01-01 11:32:41.31	132.46	11.93	-26.5	-27.8	14.6	0.00e+00	0	43	0	327155712	14	4159
2026-01-01 11:32:44.31	132.29	12.20	-26.2	-27.6	15.0	0.00e+00	0	43	0	343932928	13	4203
2026-01-01 11:32:47.32	132.12	12.48	-26.1	-27.4	15.1	0.00e+00	0	43	0	360710144	13	4153
2026-01-01 11:32:50.33	131.95	12.76	-26.2	-27.5	15.0	0.00e+00	0	42	0	377487360	13	4195
2026-01-01 11:32:53.33	131.78	13.04	-26.1	-27.3	15.2	0.00e+00	0	42	0	394264576	13	4119
2026-01-01 11:32:56.33	131.60	13.32	-26.1	-27.4	15.2	0.00e+00	0	42	0	411041792	13	4139
2026-01-01 11:32:59.33	131.42	13.61	-26.0	-27.0	15.4	0.00e+00	0	43	0	428867584	13	4037
2026-01-01 11:33:02.34	131.23	13.90	-26.1	-27.2	15.3	0.00e+00	0	43	0	445644800	13	4112
2026-01-01 11:33:05.35	131.04	14.20	-25.7	-26.8	15.8	0.00e+00	0	43	0	462422016	12	4109
2026-01-01 11:33:08.37	130.85	14.50	-25.6	-26.6	15.9	0.00e+00	0	43	0	479199232	12	4061
2026-01-01 11:33:11.38	130.65	14.80	-25.5	-26.4	16.1	0.00e+00	0	43	0	495976448	12	3997
2026-01-01 11:33:14.38	130.45	15.10	-25.4	-26.2	16.2	0.00e+00	0	43	0	512753664	12	3952
2026-01-01 11:33:17.38	130.24	15.41	-25.4	-26.2	16.3	0.00e+00	0	43	0	529530880	12	3934
2026-01-01 11:33:20.39	130.03	15.72	-25.3	-26.5	16.4	0.00e+00	0	43	0	546308096	11	4132
2026-01-01 11:33:23.40	129.82	16.04	-25.3	-26.5	16.5	0.00e+00	0	43	0	564133888	11	4109
2026-01-01 11:33:26.40	129.60	16.36	-25.3	-26.5	16.5	0.00e+00	0	43	0	580911104	11	4126
2026-01-01 11:33:29.40	129.37	16.68	-25.2	-26.3	16.6	0.00e+00	0	43	0	597688320	11	4069
2026-01-01 11:33:32.42	129.14	17.01	-25.2	-26.2	16.7	0.00e+00	0	43	0	614465536	11	4047
2026-01-01 11:33:35.44	128.91	17.34	-25.1	-25.9	16.8	0.00e+00	0	43	0	631242752	11	3969
2026-01-01 11:33:38.45	128.67	17.68	-25.0	-25.8	16.9	0.00e+00	0	43	0	649068544	11	3941
2026-01-01 11:33:41.46	128.42	18.02	-25.1	-26.0	16.8	0.00e+00	0	43	0	665845760	11	4001
2026-01-01 11:33:44.46	128.17	18.36	-25.0	-25.9	16.9	0.00e+00	0	43	0	682622976	11	3961
2026-01-01 11:33:47.47	127.91	18.71	-25.1	-26.1	16.8	0.00e+00	0	43	0	699400192	11	4012
2026-01-01 11:33:50.48	127.64	19.06	-24.9	-25.6	17.1	0.00e+00	0	43	0	716177408	11	3883
2026-01-01 11:33:53.49	127.37	19.42	-24.8	-25.3	17.2	0.00e+00	0	43	0	732954624	11	3829
2026-01-01 11:33:56.50	127.10	19.78	-24.5	-25.2	17.6	0.00e+00	0	43	0	749731840	10	3908
2026-01-01 11:33:59.51	126.81	20.14	-24.3	-24.8	17.8	0.00e+00	0	43	0	766509056	10	3802
2026-01-01 11:34:02.52	126.52	20.51	-24.2	-25.0	18.0	0.00e+00	0	43	0	784334848	9	3965
2026-01-01 11:34:05.52	126.22	20.89	-24.2	-25.0	18.0	0.00e+00	0	43	0	801112064	9	3969
2026-01-01 11:34:08.52	125.92	21.27	-24.3	-25.2	17.9	0.00e+00	0	43	0	817889280	9	4002
2026-01-01 11:34:11.53	125.60	21.65	-24.3	-25.2	17.9	0.00e+00	0	43	0	834666496	9	4015
2026-01-01 11:34:14.55	125.28	22.04	-24.4	-25.5	17.8	0.00e+00	0	43	0	851443712	9	4074
2026-01-01 11:34:17.55	124.95	22.44	-24.2	-25.1	18.0	0.00e+00	0	43	0	868220928	9	3984
2026-01-01 11:34:20.56	124.61	22.84	-24.2	-25.0	18.1	0.00e+00	0	43	0	884998144	9	3955
2026-01-01 11:34:23.57	124.26	23.24	-23.9	-24.5	18.4	0.00e+00	0	43	0	902823936	9	3829
2026-01-01 11:34:26.58	123.90	23.65	-23.8	-24.2	18.5	0.00e+00	0	43	0	919601152	9	3767
2026-01-01 11:34:29.59	123.54	24.07	-23.8	-24.2	18.5	2.20e-06	0	43	0	936378368	9	3772
2026-01-01 11:34:32.60	123.16	24.49	-23.7	-24.6	18.5	0.00e+00	0	43	0	953155584	8	3970
2026-01-01 11:34:35.60	122.77	24.91	-23.7	-24.6	18.5	1.10e-06	0	43	0	969932800	8	3962
2026-01-01 11:34:38.61	122.37	25.34	-23.7	-24.5	18.6	3.40e-06	0	43	0	986710016	8	3957
2026-01-01 11:34:41.62	121.96	25.78	-23.7	-24.6	18.6	0.00e+00	0	43	0	1003487232	8	3961
2026-01-01 11:34:44.63	121.54	26.22	-23.5	-24.1	18.8	0.00e+00	0	43	0	1020264448	8	3842
2026-01-01 11:34:47.64	121.10	26.67	-23.3	-23.6	19.1	0.00e+00	0	43	0	1038090240	8	3734
2026-01-01 11:34:50.64	120.66	27.12	-23.1	-23.8	19.2	0.00e+00	0	43	0	1054867456	7	3900
2026-01-01 11:34:53.64	120.20	27.58	-23.4	-24.4	18.9	0.00e+00	0	43	0	1071644672	7	4032
2026-01-01 11:34:56.64	119.73	28.05	-23.2	-24.0	19.1	0.00e+00	0	43	0	1088421888	7	3933
2026-01-01 11:34:59.65	119.24	28.52	-23.2	-23.9	19.2	0.00e+00	0	43	0	1105199104	7	3914
2026-01-01 11:35:02.65	118.74	28.99	-23.1	-23.8	19.2	0.00e+00	0	43	0	1121976320	7	3883
2026-01-01 11:35:05.66	118.22	29.47	-23.4	-24.3	19.0	0.00e+00	0	43	0	1138753536	7	3999
2026-01-01 11:35:08.66	117.69	29.96	-23.2	-24.0	19.1	0.00e+00	0	43	0	1155530752	7	3923
2026-01-01 11:35:11.67	117.13	30.45	-23.0	-23.4	19.4	0.00e+00	0	43	0	1173356544	7	3801
2026-01-01 11:35:14.66	116.57	30.95	-23.2	-23.9	19.2	0.00e+00	0	43	0	1190133760	7	3905
2026-01-01 11:35:17.68	115.98	31.45	-23.0	-23.6	19.4	0.00e+00	0	43	0	1206910976	7	3836
2026-01-01 11:35:20.69	115.38	31.96	-22.8	-23.1	19.6	0.00e+00	0	43	0	1223688192	7	3726
2026-01-01 11:35:23.71	114.75	32.48	-22.8	-23.6	19.6	0.00e+00	0	43	0	1240465408	6	3957
2026-01-01 11:35:26.72	114.10	32.99	-23.2	-24.4	19.2	0.00e+00	0	43	0	1257242624	6	4152
2026-01-01 11:35:29.73	113.44	33.52	-23.0	-24.1	19.4	0.00e+00	0	43	0	1274019840	6	4055
2026-01-01 11:35:32.74	112.75	34.04	-23.3	-24.7	19.1	0.00e+00	0	43	0	1290797056	6	4206
2026-01-01 11:35:35.75	112.04	34.58	-23.5	-24.5	18.9	0.00e+00	0	43	0	1308622848	7	4063
2026-01-01 11:35:38.76	111.30	35.11	-23.0	-23.5	19.5	0.00e+00	0	43	0	1325400064	7	3804
2026-01-01 11:35:41.76	110.54	35.65	-22.6	-23.2	19.8	0.00e+00	0	43	0	1342177280	6	3857
2026-01-01 11:35:44.76	109.76	36.19	-22.6	-23.3	19.8	0.00e+00	0	43	0	1358954496	6	3864
2026-01-01 11:35:47.78	108.94	36.74	-22.9	-23.9	19.5	0.00e+00	0	43	0	1375731712	6	4012
2026-01-01 11:35:50.78	108.10	37.28	-23.0	-24.1	19.5	0.00e+00	0	43	0	1392508928	6	4061
2026-01-01 11:35:53.78	107.24	37.83	-23.0	-24.0	19.5	0.00e+00	0	43	0	1409286144	6	4029
2026-01-01 11:35:56.80	106.33	38.38	-22.9	-23.7	19.7	0.00e+00	0	43	0	1427111936	6	3955
2026-01-01 11:35:59.81	105.40	38.93	-22.8	-23.6	19.7	0.00e+00	0	43	0	1443889152	6	3954
2026-01-01 11:36:02.83	104.44	39.49	-23.2	-24.3	19.4	0.00e+00	0	43	0	1460666368	6	4118
2026-01-01 11:36:05.83	103.44	40.03	-22.9	-23.7	19.7	0.00e+00	0	43	0	1477443584	6	3970
2026-01-01 11:36:08.83	102.42	40.58	-23.2	-24.5	19.3	0.00e+00	0	43	0	1494220800	6	4152
2026-01-01 11:36:11.84	101.35	41.13	-23.4	-24.8	19.2	0.00e+00	0	43	0	1510998016	6	4249
2026-01-01 11:36:14.84	100.25	41.67	-23.2	-23.9	19.4	0.00e+00	0	43	0	1527775232	7	3905
2026-01-01 11:36:17.85	99.11	42.20	-22.9	-23.7	19.7	0.00e+00	0	43	0	1545601024	6	3970
2026-01-01 11:36:20.86	97.93	42.74	-22.9	-23.9	19.6	0.00e+00	0	43	0	1562378240	6	4013
2026-01-01 11:36:23.87	96.71	43.26	-22.7	-23.4	19.9	0.00e+00	0	43	0	1579155456	6	3897
2026-01-01 11:36:26.88	95.45	43.78	-22.9	-23.7	19.7	0.00e+00	0	43	0	1595932672	6	3975
2026-01-01 11:36:29.90	94.15	44.29	-22.7	-23.3	19.9	0.00e+00	0	43	0	1612709888	6	3874
2026-01-01 11:36:32.91	92.80	44.78	-22.8	-23.6	19.8	0.00e+00	0	43	0	1629487104	6	3935
2026-01-01 11:36:35.92	91.42	45.27	-22.9	-23.7	19.8	0.00e+00	0	43	0	1647312896	6	3958
2026-01-01 11:36:38.92	89.99	45.74	-22.8	-23.6	19.9	0.00e+00	0	43	0	1664090112	6	3928
2026-01-01 11:36:41.92	88.53	46.19	-23.3	-24.6	19.3	0.00e+00	0	43	0	1680867328	6	4183
2026-01-01 11:36:44.94	87.01	46.64	-23.3	-24.1	19.3	0.00e+00	0	43	0	1697644544	7	3951
2026-01-01 11:36:47.96	85.45	47.06	-23.5	-24.5	19.2	0.00e+00	0	43	0	1714421760	7	4046
2026-01-01 11:36:50.97	83.85	47.46	-23.6	-24.7	19.1	0.00e+00	0	43	0	1731198976	7	4099
2026-01-01 11:36:53.98	82.22	47.84	-23.5	-24.5	19.1	0.00e+00	0	43	0	1747976192	7	4052
2026-01-01 11:36:56.98	80.54	48.20	-23.4	-24.4	19.3	0.00e+00	0	43	0	1764753408	7	4008
2026-01-01 11:36:59.99	78.83	48.53	-23.6	-24.7	19.1	0.00e+00	0	43	0	1782579200	7	4090
2026-01-01 11:37:03.00	77.08	48.84	-23.9	-25.3	18.8	0.00e+00	0	43	0	1799356416	7	4242
2026-01-01 11:37:06.01	75.29	49.12	-23.3	-24.0	19.4	0.00e+00	0	43	0	1816133632	7	3927
2026-01-01 11:37:09.03	73.47	49.37	-23.2	-23.9	19.5	0.00e+00	0	43	0	1832910848	7	3884
2026-01-01 11:37:12.04	71.63	49.59	-23.2	-23.9	19.5	0.00e+00	0	43	0	1849688064	7	3900
2026-01-01 11:37:15.05	69.76	49.78	-23.4	-24.3	19.3	0.00e+00	0	43	0	1867513856	7	3996
2026-01-01 11:37:18.06	67.87	49.94	-23.4	-24.2	19.3	0.00e+00	0	43	0	1884291072	7	3960
2026-01-01 11:37:21.08	65.95	50.06	-23.7	-24.8	19.2	0.00e+00	0	43	0	1901068288	7	4107
2026-01-01 11:37:24.08	64.04	50.15	-23.2	-23.9	19.6	0.00e+00	0	43	0	1917845504	7	3885
2026-01-01 11:37:27.09	62.11	50.21	-23.2	-23.9	19.6	0.00e+00	0	43	0	1934622720	7	3883
2026-01-01 11:37:30.10	60.17	50.23	-23.7	-24.9	19.1	0.00e+00	0	43	0	1951399936	7	4140
2026-01-01 11:37:33.09	58.25	50.22	-23.4	-24.2	19.5	0.00e+00	0	43	0	1968177152	7	3962
2026-01-01 11:37:36.11	56.31	50.17	-23.3	-24.0	19.6	0.00e+00	0	43	0	1984954368	7	3905
2026-01-01 11:37:39.11	54.39	50.09	-23.4	-24.2	19.5	0.00e+00	0	43	0	2002780160	7	3956
2026-01-01 11:37:42.11	52.49	49.97	-23.4	-24.2	19.5	0.00e+00	0	43	0	2019557376	7	3965
2026-01-01 11:37:45.11	50.60	49.82	-23.4	-24.3	19.4	0.00e+00	0	43	0	2036334592	7	3969
2026-01-01 11:37:48.13	48.72	49.64	-23.2	-23.9	19.6	0.00e+00	0	43	0	2053111808	7	3882
2026-01-01 11:37:51.13	46.88	49.43	-23.4	-24.3	19.4	0.00e+00	0	43	0	2069889024	7	3972
2026-01-01 11:37:54.14	45.06	49.18	-23.6	-24.7	19.2	0.00e+00	0	43	0	2086666240	7	4096
2026-01-01 11:37:57.16	43.26	48.91	-23.3	-24.0	19.6	0.00e+00	0	43	0	2103443456	7	3911
2026-01-01 11:38:00.16	41.51	48.61	-23.2	-23.8	19.7	0.00e+00	0	43	0	2120220672	7	3863
2026-01-01 11:38:03.17	39.79	48.28	-23.7	-24.9	19.1	0.00e+00	0	43	0	2138046464	7	4123
2026-01-01 11:38:06.18	38.11	47.93	-23.6	-24.6	19.2	0.00e+00	0	43	0	2154823680	7	4047
2026-01-01 11:38:09.19	36.46	47.56	-23.9	-24.8	18.9	0.00e+00	0	43	0	2171600896	8	3996
2026-01-01 11:38:12.20	34.86	47.16	-22.8	-23.0	20.0	0.00e+00	0	43	0	2188378112	7	3682
2026-01-01 11:38:15.21	33.29	46.74	-22.6	-23.2	20.2	0.00e+00	0	43	0	2205155328	6	3820
2026-01-01 11:38:18.22	31.77	46.31	-22.3	-22.5	20.5	0.00e+00	0	44	0	2221932544	6	3673
2026-01-01 11:38:21.23	30.30	45.86	-22.5	-23.3	20.3	0.00e+00	0	43	0	2238709760	5	3977
2026-01-01 11:38:24.25	28.86	45.39	-22.8	-23.9	20.0	0.00e+00	0	43	0	2256535552	5	4118
2026-01-01 11:38:27.26	27.46	44.91	-22.9	-24.3	19.8	0.00e+00	0	43	0	2273312768	5	4203
2026-01-01 11:38:30.26	26.12	44.42	-22.9	-23.3	19.8	0.00e+00	0	43	0	2290089984	7	3755
2026-01-01 11:38:33.28	24.81	43.91	-22.2	-22.7	20.6	0.00e+00	0	43	0	2306867200	5	3814
2026-01-01 11:38:36.29	23.54	43.40	-22.3	-22.9	20.5	0.00e+00	0	43	0	2323644416	5	3880
2026-01-01 11:38:39.31	22.31	42.87	-22.6	-23.7	20.1	0.00e+00	0	44	0	2340421632	5	4056
2026-01-01 11:38:42.32	21.12	42.35	-22.6	-23.7	20.1	0.00e+00	0	43	0	2358247424	5	4053
2026-01-01 11:38:45.33	19.98	41.81	-22.4	-23.2	20.3	0.00e+00	0	43	0	2375024640	5	3938
2026-01-01 11:38:48.34	18.87	41.27	-22.6	-23.7	20.1	0.00e+00	0	43	0	2391801856	5	4058
2026-01-01 11:38:51.34	17.80	40.73	-22.7	-23.7	20.0	0.00e+00	0	43	0	2408579072	5	4072
2026-01-01 11:38:54.35	16.76	40.19	-22.7	-23.7	20.0	0.00e+00	0	43	0	2425356288	5	4069
2026-01-01 11:38:57.36	15.76	39.64	-22.4	-23.2	20.3	0.00e+00	0	43	0	2442133504	5	3942
2026-01-01 11:39:00.36	14.79	39.09	-22.5	-23.3	20.2	0.00e+00	0	43	0	2458910720	5	3975
2026-01-01 11:39:03.37	13.86	38.54	-22.4	-23.2	20.3	0.00e+00	0	43	0	2475687936	5	3944
2026-01-01 11:39:06.39	12.95	37.99	-22.5	-23.4	20.2	0.00e+00	0	43	0	2493513728	5	3998
2026-01-01 11:39:09.40	12.08	37.44	-22.6	-23.6	20.0	0.00e+00	0	43	0	2510290944	5	4040
2026-01-01 11:39:12.41	11.23	36.90	-22.4	-23.1	20.3	0.00e+00	0	43	0	2527068160	5	3917
2026-01-01 11:39:15.43	10.41	36.35	-22.3	-22.9	20.4	0.00e+00	0	43	0	2543845376	5	3875
2026-01-01 11:39:18.46	9.62	35.81	-22.3	-23.0	20.3	0.00e+00	0	43	0	2560622592	5	3909
2026-01-01 11:39:21.47	8.85	35.27	-22.3	-23.0	20.3	0.00e+00	0	43	0	2578448384	5	3900
2026-01-01 11:39:24.48	8.11	34.74	-22.1	-22.5	20.6	0.00e+00	0	43	0	2595225600	5	3774
2026-01-01 11:39:27.49	7.40	34.20	-22.2	-22.8	20.4	0.00e+00	0	43	0	2612002816	5	3850
2026-01-01 11:39:30.50	6.71	33.68	-22.6	-23.6	20.0	0.00e+00	0	43	0	2628780032	5	4035
2026-01-01 11:39:33.51	6.04	33.16	-22.7	-23.8	19.9	0.00e+00	0	43	0	2645557248	5	4091
2026-01-01 11:39:36.52	5.39	32.64	-22.3	-23.0	20.3	0.00e+00	0	43	0	2662334464	5	3895
2026-01-01 11:39:39.54	4.76	32.12	-22.8	-23.9	19.8	0.00e+00	0	43	0	2679111680	5	4128
2026-01-01 11:39:42.54	4.16	31.62	-22.9	-24.2	19.6	0.00e+00	0	43	0	2696937472	5	4198
2026-01-01 11:39:45.55	3.57	31.11	-22.9	-23.8	19.6	0.00e+00	0	43	0	2713714688	6	3970
2026-01-01 11:39:48.57	3.00	30.61	-23.0	-23.9	19.6	0.00e+00	0	43	0	2730491904	6	4005
2026-01-01 11:39:51.57	2.44	30.12	-22.9	-23.8	19.6	0.00e+00	0	44	0	2747269120	6	3978
2026-01-01 11:39:54.58	1.91	29.64	-23.1	-24.0	19.5	0.00e+00	0	43	0	2764046336	6	4034
2026-01-01 11:39:57.60	1.39	29.15	-23.2	-24.3	19.3	0.00e+00	0	44	0	2780823552	6	4102
2026-01-01 11:40:00.60	0.88	28.68	-23.3	-24.6	19.2	0.00e+00	0	43	0	2798649344	6	4181
2026-01-01 11:40:03.60	0.40	28.21	-23.1	-24.1	19.4	0.00e+00	0	43	0	2815426560	6	4049
2026-01-01 11:40:06.61	359.92	27.75	-23.0	-24.0	19.5	0.00e+00	0	43	0	2832203776	6	4023
2026-01-01 11:40:09.62	359.46	27.29	-23.1	-24.2	19.4	0.00e+00	0	43	0	2848980992	6	4080
2026-01-01 11:40:12.63	359.01	26.83	-23.2	-24.3	19.3	0.00e+00	0	43	0	2865758208	6	4096
2026-01-01 11:40:15.64	358.58	26.39	-23.2	-24.4	19.3	0.00e+00	0	43	0	2882535424	6	4113
2026-01-01 11:40:18.65	358.15	25.94	-23.2	-24.3	19.3	0.00e+00	0	43	0	2899312640	6	4103
2026-01-01 11:40:21.67	357.74	25.51	-23.2	-24.3	19.3	0.00e+00	0	43	0	2917138432	6	4107
2026-01-01 11:40:24.68	357.34	25.07	-23.3	-24.6	19.1	0.00e+00	0	43	0	2933915648	6	4163
2026-01-01 11:40:27.67	356.96	24.65	-23.2	-24.0	19.1	0.00e+00	0	43	0	2950692864	7	3911
2026-01-01 11:40:30.69	356.58	24.23	-23.3	-24.1	19.1	0.00e+00	0	43	0	2967470080	7	3940
2026-01-01 11:40:33.69	356.21	23.82	-23.3	-24.1	19.1	0.00e+00	0	43	0	2984247296	7	3935
2026-01-01 11:40:36.69	355.85	23.41	-23.4	-24.2	19.0	0.00e+00	0	43	0	3001024512	7	3962
2026-01-01 11:40:39.69	355.51	23.00	-23.4	-24.3	19.0	0.00e+00	0	43	0	3017801728	7	3983
2026-01-01 11:40:42.71	355.17	22.60	-23.6	-24.6	18.8	0.00e+00	0	43	0	3034578944	7	4067
2026-01-01 11:40:45.72	354.84	22.21	-23.7	-24.9	18.6	0.00e+00	0	44	0	3052404736	7	4145
2026-01-01 11:40:48.73	354.51	21.82	-23.7	-25.0	18.6	0.00e+00	0	44	0	3069181952	7	4153
2026-01-01 11:40:51.72	354.20	21.44	-23.9	-25.3	18.4	0.00e+00	0	43	0	3085959168	7	4234
2026-01-01 11:40:54.73	353.90	21.06	-23.9	-25.3	18.4	0.00e+00	0	43	0	3102736384	7	4253
2026-01-01 11:40:57.73	353.60	20.68	-23.8	-24.7	18.4	0.00e+00	0	44	0	3119513600	8	3990
2026-01-01 11:41:00.75	353.31	20.31	-23.9	-24.9	18.3	0.00e+00	0	43	0	3136290816	8	4024
2026-01-01 11:41:03.74	353.02	19.95	-24.0	-25.1	18.2	0.00e+00	0	43	0	3153068032	8	4080
2026-01-01 11:41:06.74	352.75	19.59	-24.1	-25.2	18.2	0.00e+00	0	43	0	3169845248	8	4095
2026-01-01 11:41:09.75	352.48	19.23	-24.2	-25.5	18.0	0.00e+00	0	43	0	3187671040	8	4176
2026-01-01 11:41:12.78	352.21	18.88	-24.3	-25.8	17.8	0.00e+00	0	43	0	3204448256	8	4257
2026-01-01 11:41:15.78	351.96	18.53	-24.6	-25.8	17.6	0.00e+00	0	43	0	3221225472	9	4134
2026-01-01 11:41:18.78	351.70	18.19	-24.6	-25.8	17.6	0.00e+00	0	43	0	3238002688	9	4139
2026-01-01 11:41:21.79	351.46	17.85	-24.7	-26.0	17.4	0.00e+00	0	43	0	3254779904	9	4210
2026-01-01 11:41:24.79	351.22	17.52	-24.5	-25.6	17.7	0.00e+00	0	43	0	3271557120	9	4080
2026-01-01 11:41:27.81	350.98	17.18	-24.7	-26.0	17.4	0.00e+00	0	44	0	3288334336	9	4206
2026-01-01 11:41:30.82	350.75	16.86	-24.9	-26.4	17.2	0.00e+00	0	43	0	3305111552	9	4308
2026-01-01 11:41:33.83	350.53	16.53	-25.0	-26.7	17.0	0.00e+00	0	43	0	3322937344	9	4367
2026-01-01 11:41:36.85	350.31	16.21	-25.0	-26.6	17.1	0.00e+00	0	43	0	3339714560	9	4361
2026-01-01 11:41:39.85	350.10	15.90	-25.2	-26.6	16.8	0.00e+00	0	43	0	3356491776	10	4235
2026-01-01 11:41:42.86	349.89	15.58	-25.2	-26.5	16.8	0.00e+00	0	43	0	3373268992	10	4221
2026-01-01 11:41:45.88	349.68	15.27	-25.2	-26.7	16.7	0.00e+00	0	43	0	3390046208	10	4257
2026-01-01 11:41:48.87	349.48	14.97	-25.3	-26.8	16.7	0.00e+00	0	43	0	3406823424	10	4284
2026-01-01 11:41:51.87	349.29	14.67	-25.3	-26.9	16.6	0.00e+00	0	44	0	3423600640	10	4312
2026-01-01 11:41:54.87	349.09	14.37	-25.4	-27.1	16.4	0.00e+00	0	43	0	3440377856	10	4388
2026-01-01 11:41:57.87	348.91	14.08	-25.4	-27.0	16.5	0.00e+00	0	43	0	3458203648	10	4364
2026-01-01 11:42:00.88	348.72	13.79	-25.5	-27.3	16.3	0.00e+00	0	43	0	3474980864	10	4442
2026-01-01 11:42:03.89	348.54	13.50	-25.4	-26.5	16.5	0.00e+00	0	43	0	3491758080	11	4110
2026-01-01 11:42:06.91	348.36	13.21	-25.5	-26.7	16.3	0.00e+00	0	44	0	3508535296	11	4165
2026-01-01 11:42:09.92	348.19	12.93	-25.6	-27.1	16.1	0.00e+00	0	43	0	3525312512	11	4256
2026-01-01 11:42:12.91	348.02	12.65	-25.8	-27.5	15.9	0.00e+00	0	44	0	3542089728	11	4364
2026-01-01 11:42:15.92	347.86	12.37	-25.7	-27.3	16.0	0.00e+00	0	44	0	3558866944	11	4309
2026-01-01 11:42:18.93	347.69	12.10	-25.9	-27.7	15.7	0.00e+00	0	43	0	3575644160	11	4416
2026-01-01 11:42:21.93	347.53	11.83	-25.8	-27.6	15.8	0.00e+00	0	43	0	3593469952	11	4393
2026-01-01 11:42:24.95	347.38	11.56	-26.0	-27.4	15.5	0.00e+00	0	43	0	3610247168	12	4236
2026-01-01 11:42:27.96	347.22	11.29	-26.2	-27.9	15.3	0.00e+00	0	43	0	3627024384	12	4365
2026-01-01 11:42:30.97	347.07	11.03	-26.2	-28.0	15.2	0.00e+00	0	43	0	3643801600	12	4404
2026-01-01 11:42:33.99	346.92	10.77	-26.1	-27.7	15.3	0.00e+00	0	43	0	3660578816	12	4330
2026-01-01 11:42:37.00	346.78	10.51	-26.2	-28.0	15.1	0.00e+00	0	43	0	3678404608	12	4417
2026-01-01 11:42:40.01	346.64	10.26	-26.3	-28.2	15.0	0.00e+00	0	44	0	3695181824	12	4456
2026-01-01 11:42:43.01	346.50	10.00	-26.3	-28.1	15.0	0.00e+00	0	43	0	3711959040	12	4444
2026-01-01 11:42:46.01	346.36	9.75	-26.4	-28.3	14.9	0.00e+00	0	44	0	3728736256	12	4509
2026-01-01 11:42:49.02	346.23	9.51	-26.4	-28.3	14.9	0.00e+00	0	44	0	3745513472	12	4506
2026-01-01 11:42:52.03	346.09	9.26	-26.5	-28.6	14.7	0.00e+00	0	43	0	3762290688	12	4576
2026-01-01 11:42:55.04	345.96	9.02	-26.5	-28.1	14.6	1.10e-06	0	43	0	3779067904	13	4342
2026-01-01 11:42:58.05	345.84	8.77	-26.7	-28.5	14.4	1.10e-06	0	43	0	3795845120	13	4439
2026-01-01 11:43:01.05	345.71	8.53	-26.6	-28.4	14.5	1.10e-06	0	43	0	3813670912	13	4420
2026-01-01 11:43:04.06	345.59	8.30	-26.7	-28.6	14.3	0.00e+00	0	43	0	3830448128	13	4486
2026-01-01 11:43:07.08	345.47	8.06	-26.6	-28.5	14.3	0.00e+00	0	43	0	3847225344	13	4441
2026-01-01 11:43:10.08	345.35	7.83	-26.8	-28.9	14.1	1.10e-06	0	43	0	3864002560	13	4554
2026-01-01 11:43:13.09	345.23	7.60	-26.8	-28.9	14.0	0.00e+00	0	44	0	3880779776	13	4566
2026-01-01 11:43:16.09	345.12	7.37	-27.0	-29.2	13.8	3.40e-06	0	44	0	3897556992	13	4673
2026-01-01 11:43:19.10	345.01	7.14	-27.0	-29.3	13.8	0.00e+00	0	43	0	3914334208	13	4678

#Closed at: 2026-01-01 11:43:21
#Recorded file [3917 MB]: D:/data/31010_260101_143142.dat