passes_logs/2026/01/01/R2M6_AANII_01/R2M6_AANII_01__20260101_111413_AQUA_rec.log

#Pass ID: 20260101_111413_AQUA
#Satellite: AQUA
#Configuration: AQUA
#almurnet v.1.7.20240730
#Start time: 2026-01-01 11:14:13

#Version: 2.2.20231116
#Station: R2M6_AANII_01
#Location: 30.233357 lon 59.946436 lat
#TLE: 1 27424U 02022A   25364.96158943  .00001951  00000+0  40088-3 0  9998
#TLE: 2 27424  98.4061 326.1389 0001917  95.3187 305.7939 14.61780362258696

#Time	Az	El	Level	Level2	SNR	BER	BlckErr	Temp	State	Recorded	gain1	gain2
2026-01-01 11:14:13.29	134.28	6.96	-31.2	-37.2	5.1	7.11e-01	0	41	0	0	24	7212
2026-01-01 11:14:16.30	134.13	7.20	-30.8	-35.8	15.1	6.06e-01	0	40	0	1572864	23	6353
2026-01-01 11:14:19.31	133.97	7.44	-30.7	-35.3	15.5	6.08e-01	0	41	0	7340032	23	6080
2026-01-01 11:14:22.31	133.82	7.68	-30.4	-34.0	16.4	6.07e-01	0	41	0	13107200	23	5473
2026-01-01 11:14:25.31	133.66	7.93	-30.0	-33.3	17.4	6.03e-01	0	41	0	18350080	22	5253
2026-01-01 11:14:28.32	133.49	8.18	-30.1	-33.3	17.4	6.07e-01	0	41	0	24117248	22	5229
2026-01-01 11:14:31.34	133.33	8.43	-30.0	-33.2	17.5	6.08e-01	0	41	0	29884416	22	5170
2026-01-01 11:14:34.34	133.16	8.68	-30.1	-33.3	17.5	6.06e-01	0	41	0	35651584	22	5202
2026-01-01 11:14:37.35	132.99	8.94	-29.9	-32.8	17.9	6.06e-01	0	41	0	41418752	22	4998
2026-01-01 11:14:40.35	132.81	9.19	-29.9	-32.7	18.0	6.05e-01	0	41	0	46661632	22	4973
2026-01-01 11:14:43.36	132.63	9.45	-29.9	-33.0	18.1	6.08e-01	0	42	0	52428800	21	5200
2026-01-01 11:14:46.37	132.45	9.72	-29.9	-33.2	18.0	6.07e-01	0	41	0	58195968	21	5256
2026-01-01 11:14:49.37	132.26	9.98	-29.9	-33.2	18.0	6.04e-01	0	42	0	63438848	21	5252
2026-01-01 11:14:52.38	132.07	10.25	-29.9	-33.0	18.2	6.06e-01	0	42	0	69206016	21	5178
2026-01-01 11:14:55.38	131.87	10.53	-29.8	-32.9	18.3	6.06e-01	0	42	0	74973184	21	5132
2026-01-01 11:14:58.38	131.67	10.80	-29.8	-32.8	18.4	6.06e-01	0	42	0	80740352	21	5075
2026-01-01 11:15:01.39	131.47	11.08	-29.8	-32.8	18.4	6.07e-01	0	42	0	86507520	21	5077
2026-01-01 11:15:04.41	131.26	11.36	-29.9	-33.0	18.2	6.06e-01	0	42	0	91750400	21	5190
2026-01-01 11:15:07.42	131.05	11.65	-29.9	-33.2	18.1	6.08e-01	0	42	0	97517568	21	5270
2026-01-01 11:15:10.43	130.83	11.94	-29.9	-33.1	18.2	6.07e-01	0	42	0	103284736	21	5220
2026-01-01 11:15:13.43	130.61	12.23	-29.9	-33.2	18.2	6.08e-01	0	42	0	108527616	21	5255
2026-01-01 11:15:16.43	130.38	12.52	-29.6	-32.2	18.8	6.05e-01	0	42	0	114294784	21	4894
2026-01-01 11:15:19.45	130.15	12.82	-29.5	-32.1	19.0	6.07e-01	0	42	0	120061952	21	4823
2026-01-01 11:15:22.46	129.91	13.13	-29.5	-31.9	19.2	6.08e-01	0	42	0	125829120	21	4745
2026-01-01 11:15:25.47	129.67	13.43	-29.4	-31.8	19.2	6.08e-01	0	42	0	131596288	21	4711
2026-01-01 11:15:28.48	129.42	13.75	-29.5	-31.9	19.2	6.07e-01	0	42	0	136839168	21	4770
2026-01-01 11:15:31.49	129.16	14.06	-29.4	-31.9	19.2	6.07e-01	0	42	0	142606336	21	4757
2026-01-01 11:15:34.49	128.90	14.38	-29.6	-32.2	19.0	6.05e-01	0	42	0	148373504	21	4883
2026-01-01 11:15:37.51	128.64	14.70	-29.4	-32.0	19.2	6.06e-01	0	42	0	154140672	21	4802
2026-01-01 11:15:40.51	128.36	15.03	-29.5	-32.2	19.1	6.06e-01	0	42	0	159383552	21	4865
2026-01-01 11:15:43.52	128.08	15.36	-29.3	-32.1	19.5	6.10e-01	0	42	0	165150720	20	4925
2026-01-01 11:15:46.53	127.80	15.69	-29.3	-31.9	19.6	6.09e-01	0	43	0	170917888	20	4863
2026-01-01 11:15:49.52	127.50	16.03	-29.3	-31.8	19.7	6.06e-01	0	42	0	176685056	20	4814
2026-01-01 11:15:52.53	127.20	16.38	-29.3	-31.8	19.7	6.05e-01	0	42	0	181927936	20	4804
2026-01-01 11:15:55.54	126.89	16.73	-29.3	-31.9	19.7	6.07e-01	0	42	0	187695104	20	4842
2026-01-01 11:15:58.55	126.57	17.08	-29.3	-32.0	19.6	6.05e-01	0	43	0	193462272	20	4874
2026-01-01 11:16:01.56	126.25	17.44	-29.5	-32.4	19.5	6.05e-01	0	42	0	199229440	20	5011
2026-01-01 11:16:04.57	125.91	17.80	-29.5	-32.5	19.4	6.07e-01	0	43	0	204472320	20	5047
2026-01-01 11:16:07.58	125.57	18.17	-29.8	-33.1	19.1	6.08e-01	0	42	0	210239488	20	5250
2026-01-01 11:16:10.60	125.22	18.55	-29.6	-32.4	19.5	6.08e-01	0	42	0	216006656	20	4990
2026-01-01 11:16:13.61	124.86	18.92	-29.6	-32.5	19.5	6.06e-01	0	43	0	221773824	20	5020
2026-01-01 11:16:16.61	124.49	19.31	-29.8	-32.9	19.3	6.07e-01	0	43	0	227016704	20	5181
2026-01-01 11:16:19.62	124.10	19.70	-29.5	-32.2	19.7	6.07e-01	0	43	0	232783872	20	4898
2026-01-01 11:16:22.63	123.71	20.09	-29.5	-32.2	19.8	6.05e-01	0	43	0	238551040	20	4902
2026-01-01 11:16:25.63	123.31	20.49	-29.5	-32.1	19.8	6.06e-01	0	43	0	244318208	20	4870
2026-01-01 11:16:28.64	122.89	20.90	-29.5	-32.1	19.9	6.07e-01	0	43	0	250085376	20	4862
2026-01-01 11:16:31.66	122.46	21.31	-29.6	-32.3	19.7	6.06e-01	0	43	0	255328256	20	4940
2026-01-01 11:16:34.66	122.03	21.72	-29.7	-32.7	19.6	6.05e-01	0	43	0	261095424	20	5051
2026-01-01 11:16:37.68	121.57	22.15	-29.9	-33.0	19.4	6.06e-01	0	43	0	266862592	20	5164
2026-01-01 11:16:40.69	121.11	22.58	-30.0	-33.4	19.2	6.07e-01	0	43	0	272629760	20	5311
2026-01-01 11:16:43.70	120.63	23.01	-29.9	-33.2	19.3	6.06e-01	0	43	0	277872640	20	5255
2026-01-01 11:16:46.71	120.13	23.45	-29.9	-33.0	19.5	6.07e-01	0	43	0	283639808	20	5145
2026-01-01 11:16:49.71	119.62	23.90	-29.8	-32.9	19.5	6.07e-01	0	43	0	289406976	20	5138
2026-01-01 11:16:52.72	119.10	24.35	-30.0	-33.3	19.2	6.07e-01	0	43	0	295174144	20	5293
2026-01-01 11:16:55.73	118.56	24.81	-29.9	-33.2	19.3	6.08e-01	0	43	0	300417024	20	5227
2026-01-01 11:16:58.74	118.00	25.27	-30.0	-33.2	19.3	6.07e-01	0	43	0	306184192	20	5248
2026-01-01 11:17:01.76	117.42	25.75	-29.8	-32.8	19.6	6.07e-01	0	43	0	311951360	20	5108
2026-01-01 11:17:04.78	116.83	26.22	-29.6	-32.3	19.9	6.06e-01	0	43	0	317718528	20	4927
2026-01-01 11:17:07.79	116.21	26.71	-29.7	-32.5	19.8	6.06e-01	0	43	0	323485696	20	4978
2026-01-01 11:17:10.80	115.58	27.19	-29.8	-32.8	19.6	6.05e-01	0	43	0	328728576	20	5075
2026-01-01 11:17:13.81	114.92	27.69	-29.7	-32.7	19.7	6.06e-01	0	43	0	334495744	20	5047
2026-01-01 11:17:16.82	114.25	28.19	-29.3	-31.5	20.4	6.05e-01	0	43	0	340262912	20	4641
2026-01-01 11:17:19.83	113.55	28.69	-29.1	-31.1	20.6	6.08e-01	0	43	0	346030080	20	4530
2026-01-01 11:17:22.84	112.83	29.20	-29.4	-31.8	20.3	6.06e-01	0	43	0	351272960	20	4732
2026-01-01 11:17:25.85	112.08	29.71	-29.2	-31.3	20.5	6.05e-01	0	43	0	357040128	20	4574
2026-01-01 11:17:28.87	111.31	30.23	-29.2	-31.3	20.6	6.07e-01	0	43	0	362807296	20	4569
2026-01-01 11:17:31.88	110.51	30.76	-29.4	-31.6	20.4	6.06e-01	0	43	0	368574464	20	4680
2026-01-01 11:17:34.88	109.69	31.28	-29.2	-31.2	20.6	6.05e-01	0	43	0	373817344	20	4539
2026-01-01 11:17:37.89	108.83	31.81	-29.3	-31.5	20.5	6.08e-01	0	43	0	379584512	20	4640
2026-01-01 11:17:40.90	107.95	32.34	-29.3	-31.6	20.4	6.09e-01	0	43	0	385351680	20	4670
2026-01-01 11:17:43.91	107.04	32.88	-29.2	-31.2	20.7	6.06e-01	0	43	0	391118848	20	4551
2026-01-01 11:17:46.92	106.09	33.41	-29.4	-31.8	20.4	6.09e-01	0	43	0	396361728	20	4725
2026-01-01 11:17:49.93	105.12	33.95	-29.7	-32.5	20.0	6.06e-01	0	43	0	402128896	20	4953
2026-01-01 11:17:52.95	104.10	34.49	-29.6	-32.3	20.1	6.07e-01	0	43	0	407896064	20	4879
2026-01-01 11:17:55.96	103.05	35.03	-30.0	-33.1	19.6	6.05e-01	0	43	0	413663232	20	5171
2026-01-01 11:17:58.97	101.97	35.57	-30.0	-33.1	19.7	6.07e-01	0	43	0	419430400	20	5162
2026-01-01 11:18:01.97	100.85	36.10	-30.3	-33.4	19.2	6.07e-01	0	43	0	424673280	21	5165
2026-01-01 11:18:04.97	99.70	36.63	-30.3	-33.5	19.1	6.09e-01	0	43	0	430440448	21	5213
2026-01-01 11:18:07.98	98.50	37.15	-30.4	-33.9	18.9	6.07e-01	0	43	0	436207616	21	5332
2026-01-01 11:18:10.99	97.27	37.67	-30.6	-34.3	18.7	6.09e-01	0	43	0	441450496	21	5498
2026-01-01 11:18:14.00	95.99	38.19	-30.5	-33.4	18.9	6.06e-01	0	43	0	447217664	22	5043
2026-01-01 11:18:17.00	94.67	38.69	-30.6	-33.8	18.7	6.08e-01	0	43	0	452984832	22	5192
2026-01-01 11:18:20.02	93.31	39.19	-30.7	-33.9	18.6	6.06e-01	0	43	0	458752000	22	5237
2026-01-01 11:18:23.03	91.90	39.67	-30.5	-33.6	18.8	6.05e-01	0	43	0	464519168	22	5108
2026-01-01 11:18:26.04	90.45	40.14	-30.6	-33.7	18.8	6.07e-01	0	43	0	469762048	22	5161
2026-01-01 11:18:29.04	88.97	40.60	-30.4	-33.1	19.1	6.06e-01	0	43	0	475529216	22	4939
2026-01-01 11:18:32.05	87.44	41.04	-30.4	-33.2	19.1	6.06e-01	0	43	0	481296384	22	4966
2026-01-01 11:18:35.06	85.86	41.46	-30.5	-33.3	19.0	6.08e-01	0	43	0	487063552	22	5022
2026-01-01 11:18:38.07	84.25	41.86	-30.6	-33.6	18.9	6.08e-01	0	43	0	492306432	22	5110
2026-01-01 11:18:41.09	82.58	42.24	-30.5	-33.5	18.9	6.04e-01	0	43	0	498073600	22	5089
2026-01-01 11:18:44.10	80.89	42.60	-30.2	-32.7	19.3	6.04e-01	0	43	0	503840768	22	4801
2026-01-01 11:18:47.12	79.15	42.93	-30.4	-33.1	19.1	6.05e-01	0	43	0	509607936	22	4938
2026-01-01 11:18:50.12	77.39	43.23	-30.1	-32.4	19.6	6.05e-01	0	43	0	514850816	22	4680
2026-01-01 11:18:53.11	75.60	43.51	-30.2	-32.6	19.4	6.06e-01	0	43	0	520617984	22	4771
2026-01-01 11:18:56.13	73.76	43.76	-30.5	-33.3	19.0	6.07e-01	0	43	0	526385152	22	5009
2026-01-01 11:18:59.14	71.90	43.97	-30.2	-32.8	19.3	6.08e-01	0	43	0	532152320	22	4814
2026-01-01 11:19:02.15	70.02	44.15	-30.3	-32.8	19.3	6.06e-01	0	43	0	537919488	22	4820
2026-01-01 11:19:05.15	68.13	44.30	-30.3	-32.9	19.2	6.06e-01	0	43	0	543162368	22	4870
2026-01-01 11:19:08.16	66.21	44.42	-29.9	-32.3	19.9	6.07e-01	0	43	0	548929536	21	4779
2026-01-01 11:19:11.16	64.29	44.49	-29.7	-32.0	20.1	6.06e-01	0	43	0	554696704	21	4654
2026-01-01 11:19:14.18	62.35	44.54	-29.7	-32.0	20.1	6.07e-01	0	43	0	559939584	21	4664
2026-01-01 11:19:17.19	60.41	44.55	-29.9	-32.4	19.8	6.05e-01	0	43	0	565706752	21	4816
2026-01-01 11:19:20.19	58.48	44.52	-29.8	-32.1	20.0	6.06e-01	0	43	0	571473920	21	4706
2026-01-01 11:19:23.21	56.54	44.45	-29.7	-32.0	20.1	6.07e-01	0	43	0	577241088	21	4655
2026-01-01 11:19:26.22	54.62	44.35	-29.8	-32.2	19.9	6.07e-01	0	43	0	583008256	21	4749
2026-01-01 11:19:29.23	52.71	44.22	-29.8	-32.1	20.0	6.07e-01	0	43	0	588251136	21	4711
2026-01-01 11:19:32.24	50.82	44.05	-29.8	-32.2	19.9	6.06e-01	0	43	0	594018304	21	4749
2026-01-01 11:19:35.25	48.96	43.85	-29.5	-31.5	20.3	6.06e-01	0	43	0	599785472	21	4511
2026-01-01 11:19:38.25	47.12	43.61	-29.6	-31.7	20.2	6.06e-01	0	43	0	605552640	21	4585
2026-01-01 11:19:41.26	45.31	43.35	-29.5	-31.3	20.4	6.05e-01	0	43	0	610795520	21	4455
2026-01-01 11:19:44.28	43.53	43.05	-29.6	-31.7	20.2	6.06e-01	0	43	0	616562688	21	4580
2026-01-01 11:19:47.29	41.78	42.73	-29.6	-32.2	20.2	6.06e-01	0	43	0	622329856	20	4858
2026-01-01 11:19:50.31	40.07	42.39	-29.5	-32.0	20.3	6.06e-01	0	43	0	628097024	20	4773
2026-01-01 11:19:53.31	38.41	42.02	-29.8	-32.2	19.8	6.06e-01	0	43	0	633339904	21	4749
2026-01-01 11:19:56.33	36.77	41.62	-29.6	-31.7	20.1	6.07e-01	0	43	0	639107072	21	4582
2026-01-01 11:19:59.34	35.18	41.21	-29.6	-31.6	20.3	6.06e-01	0	43	0	644874240	21	4542
2026-01-01 11:20:02.36	33.63	40.78	-29.9	-32.3	19.8	6.02e-01	0	43	0	650641408	21	4782
2026-01-01 11:20:05.36	32.14	40.33	-30.1	-32.8	19.5	6.03e-01	0	43	0	656408576	21	4956
2026-01-01 11:20:08.37	30.68	39.87	-30.1	-32.5	19.4	6.02e-01	0	43	0	661651456	22	4723
2026-01-01 11:20:11.38	29.26	39.39	-30.5	-33.5	18.8	6.00e-01	0	43	0	667418624	22	5104
2026-01-01 11:20:14.39	27.88	38.90	-30.5	-33.5	18.7	6.01e-01	0	43	0	673185792	22	5085
2026-01-01 11:20:17.40	26.55	38.40	-30.8	-34.4	18.2	6.00e-01	0	43	0	678952960	22	5437
2026-01-01 11:20:20.42	25.26	37.89	-30.6	-33.7	18.6	6.01e-01	0	43	0	684195840	22	5168
2026-01-01 11:20:23.44	24.00	37.37	-30.7	-34.1	18.4	6.02e-01	0	43	0	689963008	22	5317
2026-01-01 11:20:26.45	22.79	36.85	-30.0	-32.1	19.6	6.05e-01	0	43	0	695730176	22	4603
2026-01-01 11:20:29.46	21.62	36.33	-30.1	-32.5	19.3	6.02e-01	0	43	0	701497344	22	4741
2026-01-01 11:20:32.47	20.49	35.80	-30.4	-33.2	18.9	6.03e-01	0	43	0	706740224	22	5004
2026-01-01 11:20:35.47	19.40	35.26	-29.7	-32.0	19.9	6.02e-01	0	43	0	712507392	21	4693
2026-01-01 11:20:38.48	18.35	34.73	-29.9	-32.6	19.5	6.03e-01	0	43	0	718274560	21	4899
2026-01-01 11:20:41.49	17.32	34.19	-29.9	-32.6	19.6	6.03e-01	0	43	0	724041728	21	4895
2026-01-01 11:20:44.49	16.34	33.66	-29.8	-32.3	19.7	6.01e-01	0	43	0	729284608	21	4799
2026-01-01 11:20:47.50	15.38	33.12	-30.2	-33.2	19.1	6.01e-01	0	43	0	735051776	21	5103
2026-01-01 11:20:50.51	14.46	32.59	-29.6	-31.8	20.0	6.02e-01	0	43	0	740818944	21	4635
2026-01-01 11:20:53.50	13.58	32.06	-29.7	-32.6	19.7	6.01e-01	0	43	0	746586112	20	5002
2026-01-01 11:20:56.51	12.71	31.53	-29.6	-32.3	19.9	6.00e-01	0	43	0	751828992	20	4891
2026-01-01 11:20:59.52	11.88	31.01	-29.3	-31.5	20.4	6.01e-01	0	43	0	757596160	20	4643
2026-01-01 11:21:02.53	11.08	30.49	-29.9	-33.0	19.5	6.01e-01	0	43	0	763363328	20	5142
2026-01-01 11:21:05.54	10.30	29.97	-29.5	-32.0	20.1	6.01e-01	0	43	0	769130496	20	4816
2026-01-01 11:21:08.54	9.55	29.46	-29.5	-32.1	20.0	6.04e-01	0	43	0	774373376	20	4850
2026-01-01 11:21:11.55	8.82	28.95	-29.5	-32.0	20.0	6.00e-01	0	43	0	780140544	20	4809
2026-01-01 11:21:14.56	8.11	28.44	-29.6	-32.2	19.9	6.00e-01	0	43	0	785907712	20	4876
2026-01-01 11:21:17.56	7.43	27.95	-29.6	-32.2	19.9	6.01e-01	0	43	0	791674880	20	4889
2026-01-01 11:21:20.57	6.77	27.45	-29.4	-31.8	20.1	6.02e-01	0	43	0	796917760	20	4762
2026-01-01 11:21:23.59	6.13	26.96	-29.7	-32.5	19.7	6.03e-01	0	43	0	802684928	20	4982
2026-01-01 11:21:26.59	5.51	26.48	-29.6	-32.3	19.7	6.00e-01	0	43	0	808452096	20	4916
2026-01-01 11:21:29.61	4.91	26.01	-29.3	-31.6	20.1	6.03e-01	0	43	0	814219264	20	4693
2026-01-01 11:21:32.61	4.33	25.54	-29.8	-32.8	19.5	6.02e-01	0	43	0	819986432	20	5103
2026-01-01 11:21:35.61	3.77	25.07	-29.8	-32.9	19.4	6.00e-01	0	43	0	825229312	20	5119
2026-01-01 11:21:38.62	3.23	24.61	-29.5	-32.1	19.8	6.01e-01	0	43	0	830996480	20	4866
2026-01-01 11:21:41.63	2.70	24.16	-29.8	-32.8	19.3	6.02e-01	0	43	0	836763648	20	5126
2026-01-01 11:21:44.64	2.18	23.71	-29.6	-32.3	19.7	6.02e-01	0	43	0	842530816	20	4937
2026-01-01 11:21:47.66	1.68	23.27	-29.8	-32.9	19.3	6.02e-01	0	43	0	847773696	20	5135
2026-01-01 11:21:50.67	1.20	22.84	-29.7	-32.8	19.4	6.00e-01	0	43	0	853540864	20	5092
2026-01-01 11:21:53.66	0.73	22.41	-29.9	-33.2	19.1	6.00e-01	0	43	0	859308032	20	5258
2026-01-01 11:21:56.67	0.28	21.99	-29.5	-32.2	19.7	6.02e-01	0	43	0	865075200	20	4899
2026-01-01 11:21:59.68	359.84	21.57	-29.8	-32.8	19.3	6.01e-01	0	43	0	870318080	20	5135
2026-01-01 11:22:02.67	359.41	21.16	-29.6	-32.4	19.5	6.03e-01	0	43	0	876085248	20	4963
2026-01-01 11:22:05.68	358.99	20.75	-29.6	-32.5	19.4	6.02e-01	0	43	0	881852416	20	5032
2026-01-01 11:22:08.69	358.58	20.35	-29.6	-32.4	19.5	6.02e-01	0	43	0	887619584	20	4987
2026-01-01 11:22:11.70	358.19	19.95	-29.5	-32.1	19.7	5.99e-01	0	43	0	892862464	20	4879
2026-01-01 11:22:14.71	357.80	19.56	-29.5	-32.1	19.6	6.01e-01	0	43	0	898629632	20	4884
2026-01-01 11:22:17.73	357.43	19.18	-29.7	-32.7	19.3	6.01e-01	0	43	0	904396800	20	5076
2026-01-01 11:22:20.73	357.07	18.80	-29.8	-33.0	19.0	5.99e-01	0	43	0	910163968	20	5211
2026-01-01 11:22:23.75	356.71	18.42	-29.7	-32.8	19.1	6.00e-01	0	43	0	915931136	20	5122
2026-01-01 11:22:26.77	356.37	18.05	-29.6	-32.5	19.4	6.02e-01	0	43	0	921174016	20	5005
2026-01-01 11:22:29.78	356.03	17.69	-29.6	-32.5	19.3	6.02e-01	0	43	0	926941184	20	5032
2026-01-01 11:22:32.77	355.70	17.33	-29.7	-32.8	19.1	6.00e-01	0	43	0	932708352	20	5146
2026-01-01 11:22:35.78	355.39	16.98	-29.7	-32.8	19.1	6.02e-01	0	43	0	937951232	20	5158
2026-01-01 11:22:38.78	355.08	16.63	-29.9	-33.2	18.8	6.01e-01	0	43	0	943718400	20	5306
2026-01-01 11:22:41.79	354.77	16.28	-30.0	-33.1	18.6	6.01e-01	0	43	0	949485568	21	5144
2026-01-01 11:22:44.80	354.48	15.94	-29.8	-32.4	19.0	6.00e-01	0	43	0	955252736	21	4905
2026-01-01 11:22:47.81	354.19	15.61	-29.8	-32.5	18.9	6.02e-01	0	43	0	961019904	21	4945
2026-01-01 11:22:50.82	353.91	15.27	-29.5	-31.8	19.4	6.00e-01	0	43	0	966262784	21	4671
2026-01-01 11:22:53.83	353.63	14.95	-29.5	-31.8	19.3	6.00e-01	0	43	0	972029952	21	4683
2026-01-01 11:22:56.84	353.37	14.62	-29.6	-32.0	19.1	6.01e-01	0	43	0	977797120	21	4772
2026-01-01 11:22:59.84	353.11	14.31	-29.8	-32.5	18.9	6.00e-01	0	43	0	983564288	21	4938
2026-01-01 11:23:02.84	352.85	13.99	-29.6	-32.0	19.1	6.00e-01	0	43	0	988807168	21	4774
2026-01-01 11:23:05.85	352.60	13.68	-29.7	-32.3	18.9	6.01e-01	0	43	0	994574336	21	4860
2026-01-01 11:23:08.86	352.36	13.37	-29.7	-32.3	18.9	6.02e-01	0	43	0	1000341504	21	4871
2026-01-01 11:23:11.88	352.12	13.07	-29.8	-32.7	18.7	6.01e-01	0	43	0	1006108672	21	5003
2026-01-01 11:23:14.87	351.89	12.77	-29.6	-32.1	19.0	6.02e-01	0	43	0	1011351552	21	4817
2026-01-01 11:23:17.87	351.66	12.47	-29.7	-32.4	18.8	6.02e-01	0	43	0	1017118720	21	4898
2026-01-01 11:23:20.87	351.44	12.18	-29.8	-32.5	18.7	6.00e-01	0	43	0	1022885888	21	4962
2026-01-01 11:23:23.89	351.22	11.89	-29.8	-32.7	18.6	6.02e-01	0	43	0	1028653056	21	5031
2026-01-01 11:23:26.90	351.01	11.60	-29.7	-32.5	18.7	6.04e-01	0	43	0	1033895936	21	4932
2026-01-01 11:23:29.92	350.80	11.32	-29.8	-32.7	18.5	6.03e-01	0	43	0	1039663104	21	5040
2026-01-01 11:23:32.92	350.60	11.04	-29.8	-32.6	18.6	6.00e-01	0	43	0	1045430272	21	4986
2026-01-01 11:23:35.92	350.40	10.77	-29.9	-33.0	18.3	6.01e-01	0	43	0	1051197440	21	5130
2026-01-01 11:23:38.94	350.21	10.49	-30.1	-33.5	18.0	5.98e-01	0	43	0	1056440320	21	5341
2026-01-01 11:23:41.95	350.02	10.22	-29.9	-33.0	18.3	6.01e-01	0	43	0	1062207488	21	5155
2026-01-01 11:23:44.96	349.83	9.95	-29.9	-33.0	18.2	6.02e-01	0	43	0	1067974656	21	5144
2026-01-01 11:23:47.97	349.65	9.69	-29.8	-32.9	18.3	6.01e-01	0	43	0	1073741824	21	5104
2026-01-01 11:23:50.98	349.47	9.43	-29.9	-33.1	18.1	5.99e-01	0	43	0	1078984704	21	5206
2026-01-01 11:23:53.98	349.29	9.17	-30.0	-33.3	18.0	6.03e-01	0	43	0	1084751872	21	5283
2026-01-01 11:23:56.99	349.12	8.91	-30.2	-33.9	17.5	6.01e-01	0	43	0	1090519040	21	5544
2026-01-01 11:24:00.01	348.95	8.66	-30.4	-34.6	17.0	6.02e-01	0	43	0	1096286208	21	5863
2026-01-01 11:24:03.01	348.79	8.41	-30.0	-33.6	17.7	6.02e-01	0	43	0	1101529088	21	5394
2026-01-01 11:24:06.01	348.63	8.16	-30.2	-34.1	17.3	6.02e-01	0	43	0	1107296256	21	5638
2026-01-01 11:24:09.02	348.47	7.92	-30.1	-33.6	17.7	6.01e-01	0	43	0	1113063424	21	5427
2026-01-01 11:24:12.03	348.31	7.67	-30.3	-34.3	17.2	6.02e-01	0	43	0	1118830592	21	5710
2026-01-01 11:24:15.04	348.16	7.43	-30.3	-34.5	17.0	6.01e-01	0	43	0	1124597760	21	5820
2026-01-01 11:24:18.04	348.01	7.19	-30.3	-34.3	17.1	6.03e-01	0	43	0	1129840640	21	5748

#Closed at: 2026-01-01 11:24:20
#Recorded file [1132 MB]: D:/data/31010_260101_141415.dat