passes_logs/2026/01/01/R2M6_AANII_01/R2M6_AANII_01__20260101_003709_SUOMI_NPP_rec.log

#Pass ID: 20260101_003709_SUOMI NPP
#Satellite: SUOMI NPP
#Configuration: NPP
#almurnet v.1.7.20240730
#Start time: 2026-01-01 00:37:09

#Version: 2.2.20231116
#Station: R2M6_AANII_01
#Location: 30.233357 lon 59.946436 lat
#TLE: 1 37849U 11061A   25364.87906317  .00000195  00000+0  11345-3 0  9992
#TLE: 2 37849  98.7794 302.0592 0002571  89.2401 270.9069 14.19520347734561

#Time	Az	El	Level	Level2	SNR	BER	BlckErr	Temp	State	Recorded	gain1	gain2
2026-01-01 00:37:09.53	17.13	7.03	-31.5	-38.4	4.3	1.42e+00	0	40	0	0	23	7987
2026-01-01 00:37:12.53	17.11	7.27	-31.7	-39.6	4.8	7.72e-01	0	41	0	1048576	23	8886
2026-01-01 00:37:15.54	17.08	7.50	-31.5	-37.9	5.6	4.75e-01	0	41	0	7340032	23	7479
2026-01-01 00:37:18.56	17.06	7.74	-31.5	-37.6	5.9	3.58e-01	0	41	0	12582912	23	7234
2026-01-01 00:37:21.57	17.04	7.98	-31.4	-37.5	6.4	2.22e-01	0	41	0	17825792	22	7245
2026-01-01 00:37:24.59	17.01	8.22	-31.5	-37.6	6.0	2.80e-01	0	41	0	24117248	23	7230
2026-01-01 00:37:27.61	16.99	8.46	-31.3	-36.6	7.1	1.72e-01	0	41	0	29360128	22	6617
2026-01-01 00:37:30.62	16.96	8.71	-31.1	-35.8	7.7	7.85e-02	0	41	0	35651584	22	6182
2026-01-01 00:37:33.62	16.94	8.96	-31.2	-36.1	7.5	1.25e-01	0	41	0	40894464	22	6340
2026-01-01 00:37:36.62	16.91	9.21	-31.3	-36.7	7.1	1.59e-01	0	41	0	46137344	22	6653
2026-01-01 00:37:39.63	16.88	9.46	-30.9	-35.2	8.6	4.62e-02	0	42	0	52428800	21	5925
2026-01-01 00:37:42.65	16.85	9.72	-30.8	-34.6	9.1	2.48e-02	0	41	0	57671680	21	5624
2026-01-01 00:37:45.65	16.82	9.97	-30.6	-34.2	9.5	1.57e-02	0	42	0	63963136	21	5421
2026-01-01 00:37:48.65	16.79	10.23	-30.6	-34.2	9.5	1.17e-02	0	42	0	69206016	21	5431
2026-01-01 00:37:51.64	16.76	10.50	-30.6	-34.1	9.6	1.51e-02	0	42	0	74448896	21	5359
2026-01-01 00:37:54.64	16.73	10.76	-30.8	-34.6	9.2	2.18e-02	0	42	0	80740352	21	5592
2026-01-01 00:37:57.65	16.70	11.03	-30.8	-34.8	9.1	3.03e-02	0	42	0	85983232	21	5659
2026-01-01 00:38:00.65	16.67	11.30	-30.7	-34.3	9.5	1.90e-02	0	42	0	91226112	21	5457
2026-01-01 00:38:03.65	16.63	11.58	-30.8	-34.7	9.3	1.93e-02	0	42	0	97517568	21	5604
2026-01-01 00:38:06.66	16.60	11.86	-30.5	-33.5	10.2	1.02e-02	0	42	0	102760448	21	5083
2026-01-01 00:38:09.67	16.56	12.14	-29.9	-32.1	11.6	3.88e-03	0	42	0	108003328	20	4625
2026-01-01 00:38:12.68	16.53	12.42	-29.8	-32.2	11.5	3.29e-03	0	42	0	114294784	19	4749
2026-01-01 00:38:15.69	16.49	12.71	-30.1	-32.8	11.1	3.85e-03	0	42	0	119537664	20	4862
2026-01-01 00:38:18.69	16.45	13.00	-29.9	-32.6	11.7	3.07e-03	0	42	0	125829120	19	4866
2026-01-01 00:38:21.70	16.41	13.30	-29.9	-32.5	11.8	3.58e-03	0	42	0	131072000	19	4835
2026-01-01 00:38:24.70	16.37	13.60	-30.0	-32.1	11.6	3.44e-03	0	42	0	136314880	20	4621
2026-01-01 00:38:27.71	16.33	13.90	-29.8	-32.1	12.1	1.37e-03	0	42	0	142606336	19	4686
2026-01-01 00:38:30.72	16.29	14.21	-29.6	-31.6	12.5	3.30e-03	0	42	0	147849216	19	4502
2026-01-01 00:38:33.73	16.24	14.52	-29.8	-32.0	12.2	3.15e-03	0	42	0	154140672	19	4667
2026-01-01 00:38:36.74	16.20	14.83	-29.4	-31.4	12.9	2.73e-03	0	42	0	159383552	18	4546
2026-01-01 00:38:39.75	16.15	15.15	-29.4	-31.5	13.0	2.96e-03	0	43	0	164626432	18	4563
2026-01-01 00:38:42.76	16.10	15.48	-29.4	-31.3	13.0	2.91e-03	0	42	0	170917888	18	4524
2026-01-01 00:38:45.76	16.05	15.80	-29.1	-30.6	13.5	8.88e-04	0	42	0	176160768	18	4297
2026-01-01 00:38:48.77	16.00	16.14	-29.1	-30.5	13.6	9.86e-04	0	42	0	181403648	18	4266
2026-01-01 00:38:51.77	15.95	16.47	-29.0	-30.4	13.7	8.91e-04	0	43	0	187695104	18	4213
2026-01-01 00:38:54.78	15.90	16.81	-29.2	-30.8	13.5	1.04e-03	0	43	0	192937984	18	4351
2026-01-01 00:38:57.79	15.84	17.16	-29.3	-31.0	13.3	1.10e-03	0	43	0	199229440	18	4416
2026-01-01 00:39:00.79	15.79	17.51	-29.6	-31.4	12.9	3.82e-03	0	43	0	204472320	19	4426
2026-01-01 00:39:03.81	15.73	17.87	-29.4	-31.3	13.2	9.79e-04	0	43	0	209715200	18	4494
2026-01-01 00:39:06.82	15.67	18.23	-29.9	-31.9	12.0	9.75e-04	0	42	0	216006656	20	4525
2026-01-01 00:39:09.82	15.61	18.59	-29.9	-31.7	12.3	9.73e-04	0	43	0	221249536	20	4448
2026-01-01 00:39:12.82	15.54	18.96	-30.2	-32.6	11.7	1.11e-03	0	43	0	226492416	20	4751
2026-01-01 00:39:15.83	15.48	19.34	-29.7	-31.6	12.7	6.51e-04	0	43	0	232783872	19	4509
2026-01-01 00:39:18.84	15.41	19.72	-29.5	-31.2	13.0	3.96e-05	0	42	0	238026752	19	4354
2026-01-01 00:39:21.84	15.34	20.11	-29.5	-31.0	13.1	4.11e-05	0	43	0	244318208	19	4299
2026-01-01 00:39:24.84	15.27	20.51	-29.4	-30.8	13.2	5.54e-04	0	43	0	249561088	19	4247
2026-01-01 00:39:27.86	15.20	20.91	-29.3	-31.2	13.3	4.84e-04	0	43	0	254803968	18	4467
2026-01-01 00:39:30.85	15.12	21.32	-29.1	-31.1	13.7	4.69e-04	0	43	0	261095424	17	4539
2026-01-01 00:39:33.86	15.05	21.73	-29.2	-30.7	12.8	7.60e-06	0	43	0	266338304	18	4299
2026-01-01 00:39:36.87	14.97	22.15	-29.2	-30.9	13.6	6.10e-06	0	43	0	271581184	18	4356
2026-01-01 00:39:39.89	14.88	22.58	-29.3	-31.0	13.5	6.80e-06	0	43	0	277872640	18	4398
2026-01-01 00:39:42.90	14.80	23.02	-29.3	-31.0	13.5	2.46e-03	0	43	0	283115520	18	4395
2026-01-01 00:39:45.90	14.71	23.46	-29.2	-30.7	13.8	2.26e-03	0	43	0	289406976	18	4292
2026-01-01 00:39:48.90	14.62	23.91	-29.5	-31.1	13.3	6.80e-06	0	43	0	294649856	19	4296
2026-01-01 00:39:51.91	14.52	24.37	-29.2	-30.7	13.8	7.00e-07	0	43	0	299892736	18	4265
2026-01-01 00:39:54.92	14.42	24.84	-29.6	-31.3	13.1	1.75e-05	0	43	0	306184192	19	4373
2026-01-01 00:39:57.93	14.32	25.31	-28.9	-30.3	13.3	1.75e-05	0	43	0	311427072	19	4249
2026-01-01 00:40:00.93	14.22	25.80	-29.2	-30.6	13.9	2.41e-03	0	43	0	316669952	18	4246
2026-01-01 00:40:03.94	14.11	26.29	-29.0	-30.2	14.2	2.08e-03	0	43	0	322961408	18	4110
2026-01-01 00:40:06.95	14.00	26.79	-29.1	-30.5	14.1	2.34e-03	0	43	0	328204288	18	4196
2026-01-01 00:40:09.96	13.88	27.30	-29.5	-30.9	13.5	3.13e-03	0	43	0	334495744	19	4233
2026-01-01 00:40:12.97	13.76	27.83	-29.6	-31.3	13.3	2.95e-03	0	43	0	339738624	19	4357
2026-01-01 00:40:15.97	13.64	28.36	-29.6	-31.3	13.3	6.80e-06	0	43	0	344981504	19	4364
2026-01-01 00:40:18.99	13.51	28.90	-29.6	-31.3	13.2	2.18e-03	0	43	0	351272960	19	4365
2026-01-01 00:40:22.01	13.38	29.45	-30.0	-31.7	12.6	2.07e-03	0	43	0	356515840	20	4418
2026-01-01 00:40:25.02	13.24	30.02	-30.4	-33.0	11.8	2.44e-03	0	43	0	362807296	20	4854
2026-01-01 00:40:28.03	13.09	30.59	-30.4	-32.5	11.8	3.31e-03	0	43	0	368050176	21	4569
2026-01-01 00:40:31.02	12.94	31.17	-30.5	-32.7	11.7	3.38e-03	0	43	0	373293056	21	4656
2026-01-01 00:40:34.04	12.79	31.77	-31.1	-34.3	10.2	7.28e-03	0	43	0	379584512	22	5167
2026-01-01 00:40:37.04	12.63	32.38	-31.5	-35.2	9.1	1.87e-02	0	43	0	384827392	23	5493
2026-01-01 00:40:40.04	12.46	33.00	-31.3	-34.8	9.8	1.06e-02	0	43	0	390070272	22	5419
2026-01-01 00:40:43.05	12.28	33.63	-31.2	-34.6	9.9	8.81e-03	0	43	0	396361728	22	5291
2026-01-01 00:40:46.05	12.10	34.28	-30.8	-33.1	11.0	5.56e-03	0	43	0	401604608	22	4723
2026-01-01 00:40:49.06	11.91	34.94	-30.0	-31.8	12.6	1.70e-03	0	43	0	407896064	20	4450
2026-01-01 00:40:52.06	11.71	35.61	-29.9	-31.9	13.0	1.63e-03	0	43	0	413138944	19	4552
2026-01-01 00:40:55.06	11.50	36.30	-30.1	-32.0	12.6	4.37e-04	0	43	0	418381824	20	4461
2026-01-01 00:40:58.06	11.28	37.00	-29.9	-31.4	13.0	3.71e-04	0	43	0	424673280	20	4277
2026-01-01 00:41:01.07	11.05	37.71	-29.5	-30.8	13.8	2.79e-04	0	43	0	429916160	19	4181
2026-01-01 00:41:04.08	10.81	38.45	-29.6	-31.0	13.6	1.52e-05	0	43	0	435159040	19	4247
2026-01-01 00:41:07.09	10.56	39.20	-30.6	-33.0	11.5	4.14e-04	0	43	0	441450496	21	4764
2026-01-01 00:41:10.10	10.30	39.96	-31.1	-34.1	10.4	2.09e-03	0	43	0	446693376	22	5103
2026-01-01 00:41:13.11	10.02	40.74	-31.3	-34.9	9.8	1.19e-02	0	43	0	452984832	22	5460
2026-01-01 00:41:16.12	9.73	41.54	-31.1	-34.2	10.4	9.13e-03	0	43	0	458227712	22	5135
2026-01-01 00:41:19.13	9.42	42.35	-30.5	-32.9	11.5	9.99e-04	0	43	0	463470592	21	4740
2026-01-01 00:41:22.14	9.10	43.19	-30.8	-33.8	10.9	1.62e-03	0	43	0	469762048	21	5103
2026-01-01 00:41:25.15	8.75	44.04	-31.1	-34.2	10.4	4.05e-03	0	43	0	475004928	22	5185
2026-01-01 00:41:28.16	8.39	44.90	-31.0	-34.1	10.3	4.65e-03	0	43	0	480247808	22	5129
2026-01-01 00:41:31.17	8.01	45.79	-30.8	-33.4	10.8	3.37e-03	0	43	0	486539264	22	4823
2026-01-01 00:41:34.18	7.60	46.69	-30.5	-33.0	11.4	5.93e-04	0	43	0	491782144	21	4764
2026-01-01 00:41:37.17	7.17	47.61	-30.2	-32.3	12.4	4.55e-04	0	43	0	498073600	20	4602
2026-01-01 00:41:40.19	6.72	48.55	-29.6	-31.0	13.7	6.80e-06	0	43	0	503316480	19	4227
2026-01-01 00:41:43.20	6.23	49.51	-28.8	-29.5	14.9	3.00e-06	0	43	0	508559360	18	3903
2026-01-01 00:41:46.20	5.71	50.48	-28.8	-30.1	14.6	0.00e+00	0	43	0	514850816	17	4202
2026-01-01 00:41:49.21	5.15	51.48	-28.9	-30.5	14.5	7.00e-07	0	43	0	520093696	17	4289
2026-01-01 00:41:52.21	4.56	52.49	-29.0	-30.1	14.4	7.00e-07	0	43	0	525336576	18	4098
2026-01-01 00:41:55.22	3.92	53.52	-29.0	-30.1	14.6	0.00e+00	0	43	0	531628032	18	4091
2026-01-01 00:41:58.23	3.23	54.57	-28.5	-29.4	15.2	0.00e+00	0	43	0	536870912	17	3991
2026-01-01 00:42:01.22	2.50	55.63	-29.2	-30.5	14.2	7.00e-07	0	43	0	543162368	18	4212
2026-01-01 00:42:04.23	1.70	56.71	-29.1	-30.4	14.3	7.00e-07	0	43	0	548405248	18	4185
2026-01-01 00:42:07.23	0.83	57.80	-29.9	-31.9	13.1	1.22e-05	0	43	0	553648128	19	4555
2026-01-01 00:42:10.24	359.89	58.92	-29.4	-30.4	14.2	1.50e-06	0	43	0	559939584	19	4062
2026-01-01 00:42:13.24	358.87	60.04	-28.3	-28.8	15.7	0.00e+00	0	43	0	565182464	17	3805
2026-01-01 00:42:16.23	357.75	61.16	-29.4	-31.0	14.1	1.50e-06	0	43	0	570425344	18	4342
2026-01-01 00:42:19.23	356.53	62.31	-29.1	-30.3	14.5	8.30e-06	0	43	0	576716800	18	4139
2026-01-01 00:42:22.23	355.18	63.45	-29.4	-30.6	13.9	7.60e-06	0	43	0	581959680	19	4134
2026-01-01 00:42:25.23	353.69	64.61	-28.4	-29.1	15.4	0.00e+00	0	43	0	588251136	17	3887
2026-01-01 00:42:28.24	352.04	65.76	-28.7	-29.7	15.0	0.00e+00	0	43	0	593494016	17	4047
2026-01-01 00:42:31.24	350.21	66.91	-29.5	-30.9	13.8	2.20e-06	0	43	0	598736896	19	4203
2026-01-01 00:42:34.24	348.17	68.05	-29.9	-31.5	13.0	5.34e-05	0	43	0	605028352	20	4302
2026-01-01 00:42:37.24	345.88	69.18	-30.4	-32.3	12.2	2.31e-04	0	43	0	610271232	21	4470
2026-01-01 00:42:40.25	343.30	70.29	-29.5	-30.4	13.8	2.89e-05	0	43	0	615514112	20	3962
2026-01-01 00:42:43.25	340.41	71.36	-28.5	-28.7	15.5	0.00e+00	0	43	0	621805568	18	3687
2026-01-01 00:42:46.26	337.14	72.40	-30.2	-32.3	12.6	1.37e-05	0	43	0	627048448	20	4573
2026-01-01 00:42:49.28	333.42	73.39	-30.0	-31.2	13.0	3.78e-04	0	43	0	632291328	21	4130
2026-01-01 00:42:52.28	329.26	74.30	-29.9	-31.8	13.3	5.30e-06	0	43	0	638582784	19	4494
2026-01-01 00:42:55.31	324.54	75.14	-30.3	-32.0	12.5	1.67e-04	0	43	0	643825664	21	4367
2026-01-01 00:42:58.32	319.30	75.87	-29.7	-30.9	13.5	7.60e-06	0	43	0	650117120	20	4119
2026-01-01 00:43:01.32	313.54	76.48	-29.7	-31.2	13.7	1.50e-06	0	43	0	655360000	19	4282
2026-01-01 00:43:04.33	307.28	76.94	-30.5	-32.5	12.3	1.20e-04	0	43	0	660602880	21	4507
2026-01-01 00:43:07.34	300.61	77.25	-31.4	-34.1	10.4	8.10e-03	0	43	0	666894336	23	4957
2026-01-01 00:43:10.34	293.74	77.37	-30.6	-32.8	12.1	9.38e-05	0	43	0	672137216	21	4620
2026-01-01 00:43:13.36	286.78	77.32	-31.8	-35.8	8.9	3.68e-03	0	43	0	678428672	23	5712
2026-01-01 00:43:16.36	280.02	77.09	-30.1	-31.5	12.8	2.97e-05	0	43	0	683671552	21	4231
2026-01-01 00:43:19.36	273.59	76.69	-31.0	-33.9	11.3	1.87e-04	0	43	0	688914432	21	5038
2026-01-01 00:43:22.36	267.62	76.15	-30.0	-30.9	13.4	5.03e-05	0	43	0	695205888	21	4008
2026-01-01 00:43:25.38	262.13	75.46	-31.2	-34.0	10.8	7.19e-04	0	43	0	700448768	22	4996
2026-01-01 00:43:28.39	257.20	74.67	-32.3	-37.2	7.7	4.22e-02	0	43	0	705691648	24	6355
2026-01-01 00:43:31.40	252.81	73.78	-30.8	-32.7	11.7	3.88e-04	0	43	0	711983104	22	4507
2026-01-01 00:43:34.41	248.92	72.82	-31.7	-35.2	9.5	2.23e-02	0	43	0	717225984	23	5418
2026-01-01 00:43:37.42	245.47	71.80	-31.4	-34.8	10.2	4.34e-03	0	43	0	723517440	22	5349
2026-01-01 00:43:40.43	242.41	70.74	-31.3	-33.9	10.5	1.01e-02	0	43	0	728760320	23	4847
2026-01-01 00:43:43.44	239.70	69.64	-31.3	-34.0	10.2	1.68e-02	0	43	0	734003200	23	4897
2026-01-01 00:43:46.45	237.29	68.51	-30.5	-32.7	11.9	3.81e-04	0	43	0	740294656	21	4602
2026-01-01 00:43:49.46	235.14	67.37	-30.9	-33.8	11.2	9.11e-04	0	43	0	745537536	21	5012
2026-01-01 00:43:52.46	233.22	66.22	-31.0	-33.6	10.8	1.89e-03	0	43	0	750780416	22	4888
2026-01-01 00:43:55.48	231.49	65.06	-30.7	-32.5	11.7	8.80e-04	0	43	0	757071872	22	4465
2026-01-01 00:43:58.48	229.94	63.91	-28.0	-28.6	14.5	0.00e+00	0	43	0	762314752	16	3837
2026-01-01 00:44:01.48	228.53	62.75	-29.7	-31.4	13.5	3.00e-06	0	43	0	768606208	19	4350
2026-01-01 00:44:04.48	227.26	61.61	-30.1	-32.0	12.7	2.30e-03	0	43	0	773849088	20	4454
2026-01-01 00:44:07.49	226.09	60.46	-31.0	-33.6	10.8	2.59e-03	0	43	0	779091968	22	4846
2026-01-01 00:44:10.50	225.03	59.33	-32.1	-36.7	7.8	2.42e-02	0	43	0	785383424	24	6126
2026-01-01 00:44:13.51	224.05	58.21	-29.9	-31.3	13.2	1.04e-04	0	43	0	790626304	20	4251
2026-01-01 00:44:16.52	223.16	57.11	-29.6	-31.1	13.6	1.50e-06	0	43	0	795869184	19	4282
2026-01-01 00:44:19.53	222.33	56.01	-29.0	-30.2	14.3	6.10e-06	0	43	0	802160640	18	4124
2026-01-01 00:44:22.54	221.56	54.94	-29.0	-30.0	14.6	1.57e-03	0	43	0	807403520	18	4047
2026-01-01 00:44:25.55	220.86	53.88	-29.2	-30.6	14.2	1.40e-03	0	43	0	813694976	18	4227
2026-01-01 00:44:28.56	220.20	52.84	-29.6	-31.1	13.6	1.88e-03	0	43	0	818937856	19	4293
2026-01-01 00:44:31.57	219.58	51.82	-29.7	-31.5	13.4	4.19e-05	0	43	0	824180736	19	4414
2026-01-01 00:44:34.58	219.01	50.81	-31.0	-33.9	10.5	3.76e-03	0	43	0	830472192	22	5025
2026-01-01 00:44:37.58	218.48	49.83	-30.5	-32.7	11.7	3.12e-03	0	43	0	835715072	21	4656
2026-01-01 00:44:40.59	217.98	48.86	-30.3	-32.6	12.2	2.72e-03	0	43	0	842006528	20	4711
2026-01-01 00:44:43.60	217.51	47.91	-30.3	-32.7	12.1	2.32e-03	0	43	0	847249408	20	4747
2026-01-01 00:44:46.61	217.07	46.97	-30.3	-32.6	12.1	2.83e-03	0	43	0	852492288	20	4722
2026-01-01 00:44:49.60	216.65	46.07	-30.6	-33.1	11.5	2.68e-03	0	43	0	858783744	21	4789
2026-01-01 00:44:52.61	216.26	45.17	-30.0	-31.6	13.0	2.10e-03	0	43	0	864026624	20	4317
2026-01-01 00:44:55.62	215.89	44.30	-29.8	-31.2	13.2	2.25e-03	0	43	0	869269504	20	4190
2026-01-01 00:44:58.62	215.54	43.44	-30.8	-32.8	11.5	4.46e-03	0	43	0	875560960	22	4546
2026-01-01 00:45:01.64	215.21	42.60	-30.6	-32.4	11.8	3.27e-03	0	43	0	880803840	22	4416
2026-01-01 00:45:04.64	214.89	41.77	-30.1	-31.9	12.8	1.78e-03	0	43	0	887095296	20	4444
2026-01-01 00:45:07.63	214.60	40.97	-32.2	-37.1	7.4	6.06e-02	0	43	0	892338176	24	6371
2026-01-01 00:45:10.64	214.31	40.18	-30.7	-32.6	11.6	4.07e-03	0	43	0	897581056	22	4492
2026-01-01 00:45:13.64	214.04	39.41	-30.2	-32.1	12.6	1.31e-04	0	43	0	903872512	20	4507
2026-01-01 00:45:16.65	213.79	38.65	-30.3	-32.4	12.4	9.07e-05	0	43	0	909115392	20	4598
2026-01-01 00:45:19.66	213.54	37.91	-30.1	-31.9	12.7	1.01e-04	0	43	0	914358272	20	4431
2026-01-01 00:45:22.66	213.31	37.19	-31.2	-34.3	10.2	4.83e-03	0	43	0	920649728	22	5173
2026-01-01 00:45:25.67	213.08	36.48	-30.7	-33.1	11.6	3.12e-03	0	43	0	925892608	21	4758
2026-01-01 00:45:28.68	212.87	35.78	-31.0	-33.5	10.8	4.63e-03	0	43	0	932184064	22	4846
2026-01-01 00:45:31.69	212.66	35.10	-31.4	-34.6	9.7	1.29e-02	0	43	0	937426944	23	5208
2026-01-01 00:45:34.70	212.47	34.43	-31.2	-34.3	10.2	7.52e-03	0	43	0	942669824	22	5180
2026-01-01 00:45:37.71	212.28	33.78	-30.2	-31.7	12.4	2.73e-04	0	43	0	948961280	21	4290
2026-01-01 00:45:40.72	212.10	33.13	-29.9	-31.8	13.1	3.20e-05	0	43	0	954204160	19	4503
2026-01-01 00:45:43.73	211.93	32.51	-30.3	-32.2	12.1	3.31e-04	0	43	0	959447040	21	4440
2026-01-01 00:45:46.75	211.76	31.89	-31.3	-34.8	9.8	4.17e-03	0	43	0	965738496	22	5371
2026-01-01 00:45:49.76	211.60	31.28	-31.6	-35.3	9.0	2.25e-02	0	43	0	970981376	23	5539
2026-01-01 00:45:52.76	211.45	30.70	-30.8	-33.1	11.0	4.17e-03	0	43	0	977272832	22	4698
2026-01-01 00:45:55.78	211.30	30.11	-30.4	-32.5	11.8	5.36e-04	0	43	0	982515712	21	4569
2026-01-01 00:45:58.79	211.16	29.54	-30.7	-33.3	10.8	2.35e-03	0	43	0	987758592	21	4883
2026-01-01 00:46:01.80	211.02	28.99	-30.7	-33.5	11.0	1.79e-03	0	43	0	994050048	21	4970
2026-01-01 00:46:04.81	210.89	28.44	-30.6	-33.1	11.3	1.15e-03	0	43	0	999292928	21	4805
2026-01-01 00:46:07.82	210.76	27.90	-29.9	-31.8	12.9	1.63e-03	0	43	0	1004535808	19	4515
2026-01-01 00:46:10.82	210.64	27.38	-30.2	-32.4	12.2	4.24e-03	0	43	0	1010827264	20	4630
2026-01-01 00:46:13.83	210.52	26.86	-31.0	-34.4	10.4	5.48e-03	0	43	0	1016070144	21	5316
2026-01-01 00:46:16.84	210.40	26.35	-30.7	-33.5	11.0	3.21e-03	0	43	0	1022361600	21	4960
2026-01-01 00:46:19.85	210.29	25.86	-30.0	-31.8	12.5	1.74e-04	0	43	0	1027604480	20	4414
2026-01-01 00:46:22.85	210.18	25.37	-29.7	-31.4	13.2	4.88e-05	0	43	0	1032847360	19	4365
2026-01-01 00:46:25.85	210.08	24.89	-29.6	-31.2	13.1	2.42e-03	0	43	0	1039138816	19	4323
2026-01-01 00:46:28.85	209.98	24.42	-30.0	-32.2	12.9	1.63e-03	0	43	0	1044381696	19	4637
2026-01-01 00:46:31.85	209.88	23.96	-29.5	-31.0	13.4	1.01e-03	0	43	0	1049624576	19	4247
2026-01-01 00:46:34.87	209.79	23.50	-29.5	-30.9	13.5	1.34e-03	0	43	0	1055916032	19	4227
2026-01-01 00:46:37.88	209.70	23.05	-29.7	-31.4	13.1	1.59e-03	0	43	0	1061158912	19	4374
2026-01-01 00:46:40.90	209.61	22.61	-29.5	-31.3	13.5	6.10e-06	0	43	0	1067450368	18	4436
2026-01-01 00:46:43.90	209.52	22.18	-29.7	-31.5	13.0	2.09e-03	0	43	0	1072693248	19	4418
2026-01-01 00:46:46.92	209.44	21.75	-29.8	-31.7	12.8	2.32e-03	0	43	0	1077936128	19	4507
2026-01-01 00:46:49.92	209.36	21.34	-30.1	-32.2	12.0	2.51e-03	0	43	0	1084227584	20	4600
2026-01-01 00:46:52.92	209.28	20.92	-30.3	-32.8	11.6	2.79e-03	0	43	0	1089470464	20	4820
2026-01-01 00:46:55.93	209.21	20.52	-30.5	-33.0	11.1	3.52e-03	0	43	0	1095761920	21	4791
2026-01-01 00:46:58.94	209.13	20.12	-30.7	-33.5	10.7	4.83e-03	0	43	0	1101004800	21	4989
2026-01-01 00:47:01.95	209.06	19.73	-30.6	-33.2	10.9	2.81e-03	0	43	0	1106247680	21	4875
2026-01-01 00:47:04.96	208.99	19.34	-30.6	-33.3	10.9	2.05e-03	0	43	0	1112539136	21	4898
2026-01-01 00:47:07.98	208.92	18.96	-30.5	-33.0	11.1	3.94e-03	0	43	0	1117782016	21	4787
2026-01-01 00:47:10.98	208.86	18.58	-30.6	-33.3	10.8	3.94e-03	0	43	0	1123024896	21	4931
2026-01-01 00:47:13.99	208.79	18.21	-30.2	-32.6	11.7	2.92e-03	0	43	0	1129316352	20	4734
2026-01-01 00:47:16.98	208.73	17.85	-30.1	-32.2	12.0	2.39e-03	0	43	0	1134559232	20	4603
2026-01-01 00:47:19.99	208.67	17.49	-30.0	-32.1	12.0	2.46e-03	0	43	0	1140850688	20	4580
2026-01-01 00:47:23.00	208.61	17.14	-30.0	-32.0	12.1	2.44e-04	0	43	0	1146093568	20	4532
2026-01-01 00:47:26.01	208.55	16.79	-30.0	-32.1	12.0	4.29e-04	0	43	0	1151336448	20	4569
2026-01-01 00:47:29.02	208.50	16.45	-30.1	-32.5	11.7	5.96e-04	0	43	0	1157627904	20	4705
2026-01-01 00:47:32.02	208.44	16.11	-30.3	-32.9	11.4	2.84e-03	0	43	0	1162870784	20	4867
2026-01-01 00:47:35.03	208.39	15.78	-30.4	-33.2	11.1	3.50e-03	0	43	0	1168113664	20	4980
2026-01-01 00:47:38.04	208.34	15.45	-30.4	-32.7	11.1	4.48e-03	0	43	0	1174405120	21	4721
2026-01-01 00:47:41.06	208.29	15.12	-30.6	-33.4	10.6	3.15e-03	0	43	0	1179648000	21	4982
2026-01-01 00:47:44.08	208.24	14.80	-30.4	-32.9	10.9	2.26e-03	0	43	0	1185939456	21	4796
2026-01-01 00:47:47.08	208.19	14.48	-30.3	-32.9	11.3	1.22e-03	0	43	0	1191182336	20	4877
2026-01-01 00:47:50.07	208.14	14.17	-30.1	-32.3	11.6	6.93e-04	0	43	0	1196425216	20	4669
2026-01-01 00:47:53.06	208.10	13.86	-30.0	-32.1	11.8	4.27e-04	0	43	0	1202716672	20	4612
2026-01-01 00:47:56.06	208.05	13.56	-30.0	-32.1	11.8	2.12e-03	0	43	0	1207959552	20	4600
2026-01-01 00:47:59.08	208.01	13.26	-29.9	-32.0	11.8	5.86e-04	0	43	0	1213202432	20	4560
2026-01-01 00:48:02.08	207.97	12.96	-30.1	-32.4	11.6	8.54e-04	0	43	0	1219493888	20	4699
2026-01-01 00:48:05.10	207.93	12.66	-30.1	-32.4	11.5	7.66e-04	0	43	0	1224736768	20	4710
2026-01-01 00:48:08.11	207.89	12.37	-30.1	-32.5	11.4	9.44e-04	0	43	0	1231028224	20	4766
2026-01-01 00:48:11.12	207.85	12.09	-30.3	-33.1	10.9	1.48e-03	0	43	0	1236271104	20	5000
2026-01-01 00:48:14.14	207.81	11.80	-30.2	-33.0	11.0	1.96e-03	0	43	0	1241513984	20	4939
2026-01-01 00:48:17.15	207.77	11.52	-30.4	-33.6	10.5	3.27e-03	0	43	0	1247805440	20	5188
2026-01-01 00:48:20.15	207.73	11.24	-30.5	-33.6	10.1	6.06e-03	0	43	0	1253048320	21	5112
2026-01-01 00:48:23.17	207.70	10.97	-30.5	-33.6	10.1	5.97e-03	0	43	0	1258291200	21	5111
2026-01-01 00:48:26.18	207.66	10.70	-30.6	-34.0	9.8	9.92e-03	0	43	0	1264582656	21	5276
2026-01-01 00:48:29.19	207.63	10.43	-30.7	-34.2	9.6	1.22e-02	0	43	0	1269825536	21	5383
2026-01-01 00:48:32.21	207.59	10.16	-30.8	-34.7	9.2	1.75e-02	0	43	0	1276116992	21	5616
2026-01-01 00:48:35.21	207.56	9.90	-30.8	-34.5	9.3	1.48e-02	0	43	0	1281359872	21	5526
2026-01-01 00:48:38.22	207.53	9.64	-30.7	-34.3	9.4	2.24e-02	0	43	0	1286602752	21	5428
2026-01-01 00:48:41.23	207.50	9.38	-30.8	-34.7	9.1	2.28e-02	0	43	0	1292894208	21	5649
2026-01-01 00:48:44.24	207.47	9.13	-31.0	-35.1	8.4	4.34e-02	0	43	0	1298137088	22	5738
2026-01-01 00:48:47.24	207.44	8.88	-30.8	-34.8	8.9	2.92e-02	0	43	0	1304428544	21	5726
2026-01-01 00:48:50.24	207.41	8.63	-31.0	-35.5	8.3	3.98e-02	0	43	0	1309671424	21	6088
2026-01-01 00:48:53.25	207.38	8.38	-30.8	-34.9	8.8	3.46e-02	0	43	0	1314914304	21	5787
2026-01-01 00:48:56.27	207.35	8.13	-31.0	-35.7	8.1	4.50e-02	0	43	0	1321205760	21	6186
2026-01-01 00:48:59.28	207.32	7.89	-30.8	-35.1	8.6	4.53e-02	0	43	0	1326448640	21	5865
2026-01-01 00:49:02.29	207.30	7.65	-30.9	-35.3	8.4	5.00e-02	0	43	0	1332740096	21	6002
2026-01-01 00:49:05.30	207.27	7.41	-31.0	-35.9	7.9	7.13e-02	0	43	0	1337982976	21	6315
2026-01-01 00:49:08.31	207.25	7.18	-30.9	-35.5	8.1	5.99e-02	0	44	0	1343225856	21	6135

#Closed at: 2026-01-01 00:49:11
#Recorded file [1345 MB]: D:/data/31010_260101_033711.dat