passes_logs/2026/01/01/R2M6_AANII_01/R2M6_AANII_01__20260101_082158_NOAA_21_JPSS-2_rec.log

#Pass ID: 20260101_082158_NOAA 21 (JPSS-2)
#Satellite: NOAA 21 (JPSS-2)
#Configuration: NOAA 21
#almurnet v.1.7.20240730
#Start time: 2026-01-01 08:21:59

#Version: 2.2.20231116
#Station: R2M6_AANII_01
#Location: 30.233357 lon 59.946436 lat
#TLE: 1 54234U 22150A   25365.42224288  .00000199  00000+0  11529-3 0  9990
#TLE: 2 54234  98.7483 301.4995 0001320 356.2106   3.9060 14.19530300162743

#Time	Az	El	Level	Level2	SNR	BER	BlckErr	Temp	State	Recorded	gain1	gain2
2026-01-01 08:21:59.92	99.58	7.12	-31.1	-42.5	3.8	1.49e+00	0	40	0	0	23	13321
2026-01-01 08:22:02.92	99.30	7.31	-30.9	-42.0	3.8	1.49e+00	0	41	104	0	23	12901
2026-01-01 08:22:05.93	99.01	7.50	-30.6	-41.5	3.8	1.49e+00	0	40	104	0	22	12623
2026-01-01 08:22:08.95	98.72	7.70	-30.2	-38.8	3.9	1.45e+00	0	41	104	0	21	9759
2026-01-01 08:22:11.96	98.42	7.89	-30.3	-38.7	4.2	1.45e+00	0	41	104	0	21	9473
2026-01-01 08:22:14.98	98.12	8.09	-30.5	-40.5	3.9	1.49e+00	0	41	104	0	21	11491
2026-01-01 08:22:17.99	97.82	8.28	-30.6	-41.5	3.8	1.49e+00	0	41	104	0	21	12708
2026-01-01 08:22:20.99	97.51	8.48	-30.6	-42.5	3.8	1.49e+00	0	41	104	0	21	14190
2026-01-01 08:22:24.00	97.20	8.68	-30.6	-42.3	3.8	1.49e+00	0	41	104	0	21	13996
2026-01-01 08:22:27.02	96.89	8.87	-30.5	-42.3	3.8	1.49e+00	0	41	104	0	21	13976
2026-01-01 08:22:30.02	96.57	9.07	-30.6	-42.4	3.8	1.49e+00	0	41	104	0	21	14116
2026-01-01 08:22:33.04	96.24	9.27	-30.5	-42.0	3.8	1.49e+00	0	41	104	0	21	13648
2026-01-01 08:22:36.06	95.91	9.47	-30.4	-41.6	3.8	1.49e+00	0	42	104	0	21	13103
2026-01-01 08:22:39.06	95.58	9.67	-30.5	-41.6	3.8	1.49e+00	0	42	104	0	21	12953
2026-01-01 08:22:42.07	95.24	9.87	-30.7	-40.5	3.9	1.49e+00	0	42	104	0	21	11037
2026-01-01 08:22:45.09	94.89	10.08	-30.5	-36.4	6.0	5.27e-01	0	42	104	0	21	7115
2026-01-01 08:22:48.10	94.55	10.28	-30.0	-33.5	8.8	3.17e-02	0	42	0	7340032	21	5369
2026-01-01 08:22:51.11	94.19	10.48	-30.8	-36.2	7.1	1.41e-01	0	42	0	16777216	21	6688
2026-01-01 08:22:54.12	93.83	10.69	-30.9	-35.9	7.6	8.32e-02	0	42	0	26214400	21	6439
2026-01-01 08:22:57.13	93.47	10.89	-30.9	-35.9	7.7	9.58e-02	0	42	0	35651584	21	6427
2026-01-01 08:23:00.13	93.10	11.10	-29.9	-32.6	10.1	8.78e-03	0	42	0	45088768	21	4926
2026-01-01 08:23:03.14	92.73	11.30	-28.9	-30.7	12.2	2.62e-04	0	42	0	54525952	19	4465
2026-01-01 08:23:06.15	92.35	11.51	-28.1	-29.8	13.4	2.59e-05	0	42	0	63963136	17	4369
2026-01-01 08:23:09.15	91.97	11.72	-27.8	-29.1	13.9	3.00e-06	0	42	0	73400320	17	4179
2026-01-01 08:23:12.16	91.58	11.92	-27.5	-28.7	14.4	0.00e+00	0	42	0	81788928	16	4174
2026-01-01 08:23:15.17	91.18	12.13	-27.7	-29.2	14.2	7.00e-07	0	42	0	91226112	16	4310
2026-01-01 08:23:18.16	90.78	12.34	-27.6	-29.1	14.3	0.00e+00	0	42	0	100663296	16	4276
2026-01-01 08:23:21.18	90.37	12.55	-27.5	-28.8	14.4	0.00e+00	0	42	0	110100480	16	4188
2026-01-01 08:23:24.19	89.96	12.76	-27.3	-28.4	14.7	0.00e+00	0	42	0	119537664	16	4080
2026-01-01 08:23:27.20	89.54	12.96	-27.4	-28.6	14.6	1.50e-06	0	42	0	128974848	16	4137
2026-01-01 08:23:30.20	89.11	13.17	-27.5	-28.9	14.5	7.00e-07	0	42	0	138412032	16	4212
2026-01-01 08:23:33.22	88.68	13.38	-27.3	-28.3	14.8	0.00e+00	0	42	0	147849216	16	4055
2026-01-01 08:23:36.22	88.24	13.59	-27.0	-28.2	15.0	0.00e+00	0	42	0	157286400	15	4120
2026-01-01 08:23:39.24	87.80	13.80	-27.2	-28.6	14.8	0.00e+00	0	42	0	166723584	15	4248
2026-01-01 08:23:42.24	87.35	14.01	-27.5	-29.3	14.4	7.00e-07	0	42	0	176160768	15	4444
2026-01-01 08:23:45.25	86.89	14.22	-27.5	-29.4	14.4	7.00e-07	0	43	0	185597952	15	4480
2026-01-01 08:23:48.27	86.43	14.43	-27.4	-29.1	14.6	1.50e-06	0	42	0	195035136	15	4370
2026-01-01 08:23:51.30	85.95	14.64	-27.4	-29.2	14.6	7.00e-07	0	42	0	204472320	15	4401
2026-01-01 08:23:54.30	85.48	14.85	-27.6	-29.6	14.3	3.80e-06	0	42	0	213909504	15	4525
2026-01-01 08:23:57.30	84.99	15.06	-27.6	-29.4	14.4	0.00e+00	0	42	0	223346688	15	4475
2026-01-01 08:24:00.30	84.51	15.27	-27.3	-28.9	14.8	3.80e-06	0	42	0	232783872	15	4312
2026-01-01 08:24:03.31	84.01	15.48	-27.3	-28.9	14.8	1.50e-06	0	42	0	242221056	15	4306
2026-01-01 08:24:06.32	83.50	15.69	-27.3	-28.8	14.8	0.00e+00	0	42	0	251658240	15	4286
2026-01-01 08:24:09.33	82.99	15.89	-27.0	-28.2	15.2	1.50e-06	0	42	0	261095424	15	4107
2026-01-01 08:24:12.34	82.47	16.10	-27.2	-28.6	14.9	0.00e+00	0	43	0	270532608	15	4229
2026-01-01 08:24:15.34	81.95	16.31	-27.3	-28.9	14.8	0.00e+00	0	43	0	279969792	15	4300
2026-01-01 08:24:18.35	81.41	16.51	-27.3	-28.9	14.8	0.00e+00	0	42	0	289406976	15	4307
2026-01-01 08:24:21.35	80.87	16.72	-27.5	-29.2	14.7	0.00e+00	0	43	0	298844160	15	4402
2026-01-01 08:24:24.35	80.33	16.92	-27.5	-29.2	14.6	5.30e-06	0	43	0	308281344	15	4400
2026-01-01 08:24:27.36	79.77	17.12	-27.6	-29.4	14.5	7.00e-07	0	43	0	317718528	15	4459
2026-01-01 08:24:30.37	79.21	17.32	-27.5	-29.3	14.6	0.00e+00	0	43	0	327155712	15	4418
2026-01-01 08:24:33.36	78.64	17.52	-27.5	-29.2	14.7	0.00e+00	0	43	0	336592896	15	4382
2026-01-01 08:24:36.36	78.06	17.72	-27.4	-29.0	14.8	7.00e-07	0	43	0	346030080	15	4341
2026-01-01 08:24:39.37	77.47	17.92	-27.3	-28.7	15.0	0.00e+00	0	43	0	355467264	15	4250
2026-01-01 08:24:42.39	76.88	18.12	-27.4	-28.9	14.9	0.00e+00	0	43	0	363855872	15	4316
2026-01-01 08:24:45.39	76.28	18.31	-27.3	-28.8	15.0	0.00e+00	0	43	0	373293056	15	4265
2026-01-01 08:24:48.39	75.67	18.50	-27.2	-28.4	15.1	7.00e-07	0	43	0	382730240	15	4179
2026-01-01 08:24:51.41	75.05	18.69	-27.2	-28.4	15.2	0.00e+00	0	43	0	392167424	15	4174
2026-01-01 08:24:54.43	74.42	18.88	-27.1	-28.3	15.2	0.00e+00	0	43	0	401604608	15	4133
2026-01-01 08:24:57.44	73.79	19.07	-27.2	-28.5	15.1	0.00e+00	0	43	0	411041792	15	4192
2026-01-01 08:25:00.44	73.15	19.25	-27.2	-28.6	15.1	0.00e+00	0	43	0	420478976	15	4211
2026-01-01 08:25:03.44	72.50	19.43	-27.0	-28.0	15.4	0.00e+00	0	43	0	429916160	15	4050
2026-01-01 08:25:06.45	71.84	19.61	-26.9	-27.9	15.5	7.00e-07	0	43	0	439353344	15	4042
2026-01-01 08:25:09.46	71.18	19.79	-26.9	-27.8	15.5	0.00e+00	0	43	0	448790528	15	4012
2026-01-01 08:25:12.47	70.51	19.96	-26.9	-27.8	15.5	0.00e+00	0	43	0	458227712	15	4010
2026-01-01 08:25:15.48	69.83	20.13	-27.0	-28.0	15.5	7.00e-07	0	43	0	467664896	15	4050
2026-01-01 08:25:18.50	69.14	20.30	-26.8	-27.7	15.6	0.00e+00	0	43	0	477102080	15	3995
2026-01-01 08:25:21.52	68.44	20.46	-26.8	-28.1	15.7	0.00e+00	0	43	0	486539264	14	4191
2026-01-01 08:25:24.53	67.74	20.62	-26.7	-28.0	15.8	0.00e+00	0	43	0	495976448	14	4159
2026-01-01 08:25:27.54	67.03	20.78	-26.7	-28.0	15.7	0.00e+00	0	43	0	505413632	14	4151
2026-01-01 08:25:30.55	66.31	20.93	-26.7	-27.9	15.8	0.00e+00	0	43	0	514850816	14	4121
2026-01-01 08:25:33.56	65.59	21.08	-26.5	-27.4	16.1	0.00e+00	0	43	0	524288000	14	3993
2026-01-01 08:25:36.56	64.86	21.23	-26.4	-27.2	16.2	0.00e+00	0	43	0	533725184	14	3956
2026-01-01 08:25:39.56	64.13	21.37	-26.4	-27.2	16.2	0.00e+00	0	43	0	543162368	14	3964
2026-01-01 08:25:42.58	63.38	21.51	-26.7	-27.9	15.9	0.00e+00	0	43	0	552599552	14	4133
2026-01-01 08:25:45.59	62.63	21.64	-26.5	-27.5	16.0	0.00e+00	0	43	0	562036736	14	4037
2026-01-01 08:25:48.60	61.87	21.77	-26.6	-27.7	16.0	0.00e+00	0	43	0	571473920	14	4079
2026-01-01 08:25:51.60	61.11	21.89	-26.7	-27.8	15.9	0.00e+00	0	43	0	580911104	14	4095
2026-01-01 08:25:54.61	60.34	22.01	-26.8	-28.2	15.5	9.23e-05	0	43	0	590348288	14	4206
2026-01-01 08:25:57.62	59.57	22.12	-26.6	-27.8	15.8	1.22e-05	0	43	0	599785472	14	4113
2026-01-01 08:26:00.63	58.79	22.23	-26.6	-27.8	15.8	1.29e-05	0	43	0	609222656	14	4098
2026-01-01 08:26:03.64	58.00	22.33	-26.9	-28.3	15.6	0.00e+00	0	43	0	618659840	14	4248
2026-01-01 08:26:06.65	57.21	22.43	-26.7	-27.9	15.8	3.00e-06	0	43	0	628097024	14	4144
2026-01-01 08:26:09.66	56.42	22.52	-26.7	-27.9	15.8	0.00e+00	0	43	0	637534208	14	4141
2026-01-01 08:26:12.67	55.62	22.60	-26.6	-27.8	15.8	6.10e-06	0	43	0	646971392	14	4100
2026-01-01 08:26:15.68	54.81	22.68	-26.7	-27.8	15.9	3.00e-06	0	43	0	656408576	14	4103
2026-01-01 08:26:18.70	54.00	22.76	-26.8	-28.0	15.7	1.29e-05	0	43	0	664797184	14	4169
2026-01-01 08:26:21.71	53.19	22.83	-26.9	-28.3	15.7	0.00e+00	0	43	0	675282944	14	4230
2026-01-01 08:26:24.72	52.37	22.89	-26.8	-28.1	15.8	0.00e+00	0	43	0	683671552	14	4196
2026-01-01 08:26:27.74	51.55	22.95	-26.7	-27.9	15.9	0.00e+00	0	43	0	693108736	14	4119
2026-01-01 08:26:30.74	50.73	23.00	-26.8	-28.1	15.8	0.00e+00	0	43	0	702545920	14	4183
2026-01-01 08:26:33.74	49.91	23.04	-26.6	-27.6	16.1	0.00e+00	0	43	0	711983104	14	4049
2026-01-01 08:26:36.75	49.09	23.08	-26.6	-27.7	16.0	0.00e+00	0	43	0	721420288	14	4076
2026-01-01 08:26:39.76	48.26	23.11	-26.9	-28.4	15.5	3.80e-06	0	43	0	730857472	14	4255
2026-01-01 08:26:42.77	47.43	23.13	-26.7	-28.0	15.8	7.00e-07	0	43	0	740294656	14	4152
2026-01-01 08:26:45.77	46.60	23.15	-26.7	-27.9	15.9	0.00e+00	0	43	0	749731840	14	4124
2026-01-01 08:26:48.78	45.77	23.16	-26.7	-28.0	15.8	0.00e+00	0	43	0	759169024	14	4155
2026-01-01 08:26:51.80	44.94	23.17	-26.8	-28.1	15.7	3.80e-06	0	43	0	768606208	14	4184
2026-01-01 08:26:54.81	44.11	23.17	-26.4	-27.2	16.3	0.00e+00	0	43	0	778043392	14	3953
2026-01-01 08:26:57.83	43.27	23.16	-26.5	-27.4	16.1	0.00e+00	0	43	0	787480576	14	3995
2026-01-01 08:27:00.83	42.45	23.14	-26.6	-27.6	16.1	0.00e+00	0	43	0	796917760	14	4042
2026-01-01 08:27:03.84	41.62	23.12	-26.7	-27.8	15.9	0.00e+00	0	43	0	806354944	14	4105
2026-01-01 08:27:06.85	40.79	23.10	-26.5	-27.5	16.1	0.00e+00	0	43	0	815792128	14	4033
2026-01-01 08:27:09.86	39.96	23.06	-26.6	-27.6	16.0	0.00e+00	0	43	0	825229312	14	4047
2026-01-01 08:27:12.88	39.14	23.02	-26.4	-27.2	16.3	0.00e+00	0	43	0	834666496	14	3950
2026-01-01 08:27:15.88	38.32	22.98	-26.2	-27.3	16.5	0.00e+00	0	43	0	844103680	13	4085
2026-01-01 08:27:18.89	37.50	22.93	-26.4	-27.7	16.3	0.00e+00	0	43	0	853540864	13	4181
2026-01-01 08:27:21.88	36.69	22.87	-26.6	-28.2	16.0	0.00e+00	0	43	0	862978048	13	4326
2026-01-01 08:27:24.89	35.87	22.80	-26.5	-27.9	16.2	0.00e+00	0	43	0	872415232	13	4238
2026-01-01 08:27:27.91	35.06	22.73	-26.6	-28.1	16.0	0.00e+00	0	43	0	881852416	13	4303
2026-01-01 08:27:30.91	34.26	22.66	-26.6	-28.1	16.0	0.00e+00	0	43	0	891289600	13	4281
2026-01-01 08:27:33.92	33.46	22.57	-26.3	-27.6	16.3	0.00e+00	0	43	0	900726784	13	4148
2026-01-01 08:27:36.93	32.66	22.49	-26.6	-28.2	16.0	0.00e+00	0	43	0	910163968	13	4314
2026-01-01 08:27:39.94	31.87	22.39	-27.0	-29.0	15.5	0.00e+00	0	43	0	919601152	13	4542
2026-01-01 08:27:42.96	31.08	22.29	-26.8	-28.2	15.7	0.00e+00	0	43	0	929038336	14	4208
2026-01-01 08:27:45.97	30.29	22.19	-26.9	-28.5	15.6	0.00e+00	0	43	0	938475520	14	4284
2026-01-01 08:27:48.97	29.52	22.08	-26.6	-27.7	15.9	0.00e+00	0	43	0	947912704	14	4079
2026-01-01 08:27:51.98	28.75	21.96	-26.8	-28.2	15.7	0.00e+00	0	43	0	957349888	14	4214
2026-01-01 08:27:54.99	27.98	21.85	-26.8	-28.2	15.7	0.00e+00	0	43	0	965738496	14	4207
2026-01-01 08:27:58.00	27.23	21.72	-27.0	-28.5	15.5	0.00e+00	0	43	0	976224256	14	4289
2026-01-01 08:28:01.01	26.47	21.59	-26.9	-28.3	15.6	0.00e+00	0	43	0	984612864	14	4231
2026-01-01 08:28:04.03	25.72	21.46	-27.2	-29.0	15.2	0.00e+00	0	43	0	994050048	14	4453
2026-01-01 08:28:07.04	24.98	21.32	-27.2	-29.0	15.2	0.00e+00	0	43	0	1003487232	14	4442
2026-01-01 08:28:10.04	24.25	21.18	-27.1	-28.8	15.3	0.00e+00	0	43	0	1012924416	14	4392
2026-01-01 08:28:13.05	23.53	21.03	-26.7	-27.9	15.8	0.00e+00	0	43	0	1022361600	14	4136
2026-01-01 08:28:16.05	22.81	20.88	-27.0	-28.7	15.3	0.00e+00	0	43	0	1031798784	14	4359
2026-01-01 08:28:19.06	22.10	20.73	-26.9	-28.4	15.5	0.00e+00	0	43	0	1041235968	14	4271
2026-01-01 08:28:22.06	21.40	20.57	-26.8	-28.2	15.6	0.00e+00	0	43	0	1050673152	14	4211
2026-01-01 08:28:25.06	20.70	20.41	-26.8	-28.2	15.6	0.00e+00	0	43	0	1060110336	14	4208
2026-01-01 08:28:28.08	20.01	20.24	-26.9	-28.4	15.5	0.00e+00	0	43	0	1069547520	14	4282
2026-01-01 08:28:31.09	19.33	20.08	-26.9	-28.3	15.5	0.00e+00	0	43	0	1078984704	14	4254
2026-01-01 08:28:34.09	18.66	19.91	-26.8	-28.0	15.7	0.00e+00	0	43	0	1088421888	14	4160
2026-01-01 08:28:37.12	17.99	19.73	-27.0	-28.6	15.4	0.00e+00	0	43	0	1097859072	14	4336
2026-01-01 08:28:40.13	17.33	19.55	-26.9	-28.3	15.5	0.00e+00	0	43	0	1107296256	14	4247
2026-01-01 08:28:43.14	16.68	19.38	-26.9	-28.3	15.5	0.00e+00	0	43	0	1116733440	14	4238
2026-01-01 08:28:46.16	16.03	19.19	-26.8	-28.2	15.5	0.00e+00	0	43	0	1126170624	14	4223
2026-01-01 08:28:49.17	15.39	19.01	-27.4	-29.5	14.8	7.00e-07	0	43	0	1135607808	14	4596
2026-01-01 08:28:52.17	14.77	18.82	-26.9	-28.3	15.5	0.00e+00	0	43	0	1145044992	14	4240
2026-01-01 08:28:55.18	14.15	18.63	-26.9	-28.4	15.4	0.00e+00	0	43	0	1154482176	14	4261
2026-01-01 08:28:58.19	13.54	18.44	-26.7	-27.9	15.7	0.00e+00	0	43	0	1163919360	14	4132
2026-01-01 08:29:01.20	12.93	18.25	-26.7	-27.9	15.7	0.00e+00	0	43	0	1173356544	14	4133
2026-01-01 08:29:04.22	12.33	18.06	-26.6	-27.8	15.8	0.00e+00	0	43	0	1182793728	14	4103
2026-01-01 08:29:07.24	11.74	17.86	-27.1	-28.8	15.1	0.00e+00	0	43	0	1192230912	14	4401
2026-01-01 08:29:10.25	11.16	17.66	-27.3	-29.3	14.9	1.50e-06	0	43	0	1201668096	14	4525
2026-01-01 08:29:13.27	10.59	17.46	-27.2	-29.1	15.0	0.00e+00	0	43	0	1211105280	14	4468
2026-01-01 08:29:16.26	10.02	17.26	-27.0	-28.7	15.2	0.00e+00	0	43	0	1220542464	14	4353
2026-01-01 08:29:19.28	9.46	17.06	-26.9	-28.4	15.4	0.00e+00	0	43	0	1229979648	14	4266
2026-01-01 08:29:22.30	8.91	16.86	-26.7	-28.0	15.6	0.00e+00	0	43	0	1239416832	14	4158
2026-01-01 08:29:25.31	8.37	16.66	-26.6	-27.6	15.8	0.00e+00	0	43	0	1248854016	14	4056
2026-01-01 08:29:28.32	7.83	16.45	-26.7	-28.0	15.5	0.00e+00	0	43	0	1258291200	14	4170
2026-01-01 08:29:31.34	7.30	16.25	-27.0	-28.7	15.2	0.00e+00	0	43	0	1267728384	14	4369
2026-01-01 08:29:34.35	6.78	16.04	-27.3	-29.2	14.9	0.00e+00	0	43	0	1277165568	14	4511
2026-01-01 08:29:37.36	6.27	15.83	-27.1	-28.8	15.1	0.00e+00	0	43	0	1286602752	14	4386
2026-01-01 08:29:40.38	5.76	15.63	-27.2	-29.0	15.0	0.00e+00	0	43	0	1296039936	14	4438
2026-01-01 08:29:43.38	5.26	15.42	-27.2	-29.0	15.0	0.00e+00	0	43	0	1304428544	14	4451
2026-01-01 08:29:46.39	4.77	15.21	-27.3	-29.4	14.7	0.00e+00	0	43	0	1313865728	14	4574
2026-01-01 08:29:49.40	4.28	15.00	-27.3	-29.3	14.7	0.00e+00	0	43	0	1324351488	14	4537
2026-01-01 08:29:52.41	3.81	14.79	-27.3	-29.2	14.8	0.00e+00	0	43	0	1332740096	14	4523
2026-01-01 08:29:55.42	3.33	14.58	-27.3	-29.2	14.8	0.00e+00	0	43	0	1342177280	14	4520
2026-01-01 08:29:58.43	2.87	14.38	-27.3	-29.4	14.6	0.00e+00	0	43	0	1351614464	14	4573
2026-01-01 08:30:01.43	2.41	14.17	-27.1	-29.0	14.9	0.00e+00	0	43	0	1361051648	14	4440
2026-01-01 08:30:04.44	1.96	13.96	-27.3	-29.4	14.6	0.00e+00	0	43	0	1370488832	14	4584
2026-01-01 08:30:07.44	1.52	13.75	-27.5	-29.4	14.3	0.00e+00	0	43	0	1379926016	15	4458
2026-01-01 08:30:10.47	1.07	13.54	-27.7	-29.8	14.0	7.00e-07	0	43	0	1389363200	15	4596
2026-01-01 08:30:13.48	0.64	13.33	-27.7	-29.7	14.1	2.20e-06	0	43	0	1398800384	15	4567
2026-01-01 08:30:16.49	0.21	13.12	-27.6	-29.6	14.2	1.50e-06	0	43	0	1408237568	15	4518
2026-01-01 08:30:19.50	359.79	12.91	-27.5	-29.4	14.3	7.00e-07	0	43	0	1417674752	15	4458
2026-01-01 08:30:22.51	359.38	12.71	-27.9	-30.2	13.8	4.50e-06	0	43	0	1427111936	15	4729
2026-01-01 08:30:25.51	358.97	12.50	-28.2	-30.4	13.6	6.10e-06	0	43	0	1436549120	16	4648
2026-01-01 08:30:28.53	358.57	12.29	-28.0	-30.0	13.8	4.50e-06	0	43	0	1445986304	16	4542
2026-01-01 08:30:31.53	358.17	12.08	-27.9	-29.8	13.9	2.20e-06	0	43	0	1455423488	16	4482
2026-01-01 08:30:34.55	357.78	11.88	-27.8	-29.5	14.1	5.30e-06	0	43	0	1464860672	16	4382
2026-01-01 08:30:37.55	357.40	11.67	-27.9	-29.8	13.9	5.30e-06	0	43	0	1474297856	16	4462
2026-01-01 08:30:40.55	357.02	11.47	-28.1	-30.2	13.6	5.30e-06	0	43	0	1483735040	16	4602
2026-01-01 08:30:43.56	356.64	11.26	-28.0	-30.1	13.7	6.80e-06	0	43	0	1493172224	16	4564
2026-01-01 08:30:46.57	356.28	11.06	-27.9	-29.7	13.9	3.00e-06	0	43	0	1502609408	16	4434
2026-01-01 08:30:49.58	355.91	10.85	-27.8	-29.5	14.0	2.20e-06	0	43	0	1512046592	16	4384
2026-01-01 08:30:52.58	355.55	10.65	-28.0	-30.0	13.7	1.50e-06	0	43	0	1521483776	16	4547
2026-01-01 08:30:55.59	355.20	10.45	-28.3	-30.8	13.2	1.90e-05	0	43	0	1530920960	16	4787
2026-01-01 08:30:58.59	354.85	10.24	-28.4	-30.9	13.1	3.66e-05	0	43	0	1540358144	16	4835
2026-01-01 08:31:01.60	354.51	10.04	-28.3	-30.7	13.2	1.98e-05	0	43	0	1549795328	16	4776
2026-01-01 08:31:04.62	354.17	9.84	-28.1	-30.4	13.3	1.14e-05	0	43	0	1559232512	16	4670
2026-01-01 08:31:07.63	353.83	9.64	-27.8	-29.6	13.8	3.80e-06	0	43	0	1568669696	16	4406
2026-01-01 08:31:10.63	353.51	9.44	-27.9	-29.9	13.7	5.30e-06	0	43	0	1578106880	16	4498
2026-01-01 08:31:13.64	353.18	9.24	-28.1	-30.4	13.3	1.29e-05	0	43	0	1586495488	16	4656
2026-01-01 08:31:16.64	352.86	9.04	-28.5	-30.8	12.7	6.25e-05	0	43	0	1595932672	17	4687
2026-01-01 08:31:19.64	352.55	8.85	-28.8	-31.5	12.3	1.75e-04	0	43	0	1605369856	17	4945
2026-01-01 08:31:22.65	352.24	8.65	-28.6	-31.0	12.6	1.01e-04	0	43	0	1614807040	17	4761
2026-01-01 08:31:25.66	351.93	8.45	-28.4	-30.7	12.8	5.18e-05	0	43	0	1624244224	17	4662
2026-01-01 08:31:28.67	351.63	8.26	-28.4	-30.5	12.8	5.49e-05	0	43	0	1633681408	17	4590
2026-01-01 08:31:31.67	351.33	8.06	-28.1	-29.8	13.3	1.98e-05	0	43	0	1643118592	17	4378
2026-01-01 08:31:34.69	351.03	7.87	-28.2	-30.1	13.1	3.35e-05	0	43	0	1652555776	17	4474
2026-01-01 08:31:37.71	350.74	7.67	-28.5	-30.8	12.6	8.08e-05	0	43	0	1661992960	17	4698
2026-01-01 08:31:40.72	350.46	7.48	-28.8	-31.5	12.2	2.11e-04	0	43	0	1671430144	17	4936
2026-01-01 08:31:43.73	350.17	7.29	-28.8	-31.7	12.0	3.28e-04	0	43	0	1680867328	17	5021
2026-01-01 08:31:46.75	349.89	7.10	-28.9	-32.0	11.8	4.59e-04	0	43	0	1690304512	17	5112

#Closed at: 2026-01-01 08:31:49
#Recorded file [1692 MB]: D:/data/31010_260101_112245.dat