passes_logs/2026/01/01/R2M6_AANII_01/R2M6_AANII_01__20260101_000736_NOAA_21_JPSS-2_rec.log

#Pass ID: 20260101_000736_NOAA 21 (JPSS-2)
#Satellite: NOAA 21 (JPSS-2)
#Configuration: NOAA 21
#almurnet v.1.7.20240730
#Start time: 2026-01-01 00:07:36

#Version: 2.2.20231116
#Station: R2M6_AANII_01
#Location: 30.233357 lon 59.946436 lat
#TLE: 1 54234U 22150A   25365.42224288  .00000199  00000+0  11529-3 0  9990
#TLE: 2 54234  98.7483 301.4995 0001320 356.2106   3.9060 14.19530300162743

#Time	Az	El	Level	Level2	SNR	BER	BlckErr	Temp	State	Recorded	gain1	gain2
2026-01-01 00:07:36.78	19.24	7.05	-29.8	-34.8	4.6	1.40e+00	0	40	0	0	19	6393
2026-01-01 00:07:39.78	19.28	7.28	-29.7	-33.5	9.3	1.77e-02	0	40	0	3145728	19	5597
2026-01-01 00:07:42.80	19.33	7.51	-29.6	-33.4	9.4	2.43e-02	0	41	0	12582912	19	5573
2026-01-01 00:07:45.81	19.38	7.75	-29.7	-33.5	9.4	1.64e-02	0	40	0	22020096	19	5583
2026-01-01 00:07:48.81	19.43	7.99	-29.4	-32.7	10.0	9.85e-03	0	41	0	30408704	19	5240
2026-01-01 00:07:51.82	19.48	8.23	-28.2	-30.7	11.8	4.87e-04	0	41	0	39845888	17	4774
2026-01-01 00:07:54.82	19.53	8.47	-28.0	-30.8	12.0	1.23e-04	0	41	0	49283072	15	5021
2026-01-01 00:07:57.83	19.58	8.71	-27.8	-30.6	12.5	1.04e-04	0	41	0	58720256	15	4915
2026-01-01 00:08:00.84	19.63	8.96	-27.6	-30.0	12.9	4.80e-05	0	41	0	68157440	15	4730
2026-01-01 00:08:03.86	19.68	9.21	-27.5	-29.8	13.1	1.72e-03	0	41	0	77594624	15	4648
2026-01-01 00:08:06.87	19.73	9.46	-27.3	-29.7	13.5	9.90e-06	0	41	0	87031808	14	4725
2026-01-01 00:08:09.88	19.79	9.72	-27.5	-29.7	13.1	1.21e-03	0	41	0	96468992	15	4639
2026-01-01 00:08:12.89	19.84	9.97	-27.4	-29.4	13.4	1.28e-03	0	41	0	105906176	15	4522
2026-01-01 00:08:15.90	19.89	10.23	-27.4	-29.9	13.4	1.29e-03	0	41	0	115343360	14	4786
2026-01-01 00:08:18.90	19.95	10.50	-27.4	-29.8	13.5	1.48e-03	0	41	0	124780544	14	4762
2026-01-01 00:08:21.92	20.00	10.76	-27.4	-30.0	13.4	1.38e-03	0	41	0	134217728	14	4816
2026-01-01 00:08:24.94	20.06	11.03	-27.3	-29.5	13.7	1.42e-03	0	42	0	143654912	14	4663
2026-01-01 00:08:27.94	20.12	11.30	-27.3	-29.6	13.7	3.58e-03	0	42	0	153092096	14	4699
2026-01-01 00:08:30.96	20.18	11.58	-26.8	-29.0	14.3	1.60e-03	0	42	0	162529280	13	4617
2026-01-01 00:08:33.98	20.24	11.86	-27.1	-29.1	14.1	3.80e-03	0	42	0	171966464	14	4520
2026-01-01 00:08:36.99	20.30	12.14	-27.0	-29.3	14.2	0.00e+00	0	42	0	181403648	13	4698
2026-01-01 00:08:40.00	20.36	12.42	-27.1	-29.1	14.0	3.94e-03	0	42	0	190840832	14	4548
2026-01-01 00:08:43.00	20.42	12.71	-27.0	-29.0	14.1	3.78e-03	0	42	0	200278016	14	4494
2026-01-01 00:08:46.00	20.48	13.00	-26.9	-29.2	14.3	3.52e-03	0	42	0	209715200	13	4671
2026-01-01 00:08:49.00	20.54	13.29	-26.7	-28.7	14.5	3.93e-03	0	42	0	219152384	13	4537
2026-01-01 00:08:52.00	20.61	13.59	-26.6	-28.3	14.8	3.87e-03	0	42	0	228589568	13	4417
2026-01-01 00:08:55.01	20.68	13.89	-26.8	-28.9	14.5	3.51e-03	0	42	0	238026752	13	4580
2026-01-01 00:08:58.02	20.74	14.19	-26.7	-28.6	14.7	3.92e-03	0	42	0	247463936	13	4496
2026-01-01 00:09:01.03	20.81	14.50	-26.7	-28.7	14.6	3.78e-03	0	42	0	256901120	13	4511
2026-01-01 00:09:04.04	20.88	14.82	-26.5	-28.3	14.9	3.48e-03	0	42	0	266338304	13	4397
2026-01-01 00:09:07.04	20.95	15.13	-26.5	-28.1	15.0	0.00e+00	0	42	0	275775488	13	4349
2026-01-01 00:09:10.05	21.02	15.45	-26.5	-28.2	15.0	3.85e-03	0	42	0	285212672	13	4365
2026-01-01 00:09:13.06	21.09	15.78	-26.3	-28.2	15.3	0.00e+00	0	42	0	294649856	12	4483
2026-01-01 00:09:16.07	21.17	16.11	-26.3	-28.1	15.3	3.90e-03	0	42	0	303038464	12	4464
2026-01-01 00:09:19.07	21.24	16.44	-26.2	-28.0	15.5	0.00e+00	0	42	0	312475648	12	4407
2026-01-01 00:09:22.08	21.32	16.78	-26.1	-27.8	15.6	0.00e+00	0	42	0	321912832	12	4369
2026-01-01 00:09:25.10	21.40	17.13	-26.3	-28.1	15.4	0.00e+00	0	42	0	331350016	12	4464
2026-01-01 00:09:28.11	21.48	17.48	-26.7	-28.6	14.9	0.00e+00	0	42	0	340787200	13	4470
2026-01-01 00:09:31.11	21.56	17.83	-26.6	-28.4	15.0	7.00e-07	0	42	0	350224384	13	4414
2026-01-01 00:09:34.11	21.64	18.19	-26.7	-28.6	14.9	0.00e+00	0	42	0	359661568	13	4484
2026-01-01 00:09:37.10	21.73	18.55	-26.8	-28.8	14.7	7.00e-07	0	42	0	369098752	13	4550
2026-01-01 00:09:40.11	21.82	18.92	-26.7	-28.5	14.9	0.00e+00	0	42	0	378535936	13	4463
2026-01-01 00:09:43.13	21.91	19.29	-26.6	-28.4	15.0	0.00e+00	0	42	0	387973120	13	4412
2026-01-01 00:09:46.14	22.00	19.68	-26.3	-28.3	15.4	0.00e+00	0	43	0	397410304	12	4494
2026-01-01 00:09:49.15	22.09	20.06	-26.4	-28.4	15.3	0.00e+00	0	43	0	406847488	12	4529
2026-01-01 00:09:52.15	22.18	20.45	-26.2	-28.0	15.5	0.00e+00	0	43	0	416284672	12	4424
2026-01-01 00:09:55.16	22.28	20.85	-26.0	-27.6	15.8	0.00e+00	0	42	0	425721856	12	4291
2026-01-01 00:09:58.17	22.38	21.26	-25.9	-27.2	16.0	0.00e+00	0	43	0	435159040	12	4190
2026-01-01 00:10:01.18	22.48	21.67	-25.7	-27.4	16.3	0.00e+00	0	43	0	444596224	11	4341
2026-01-01 00:10:04.19	22.58	22.09	-25.6	-27.1	16.4	0.00e+00	0	42	0	454033408	11	4282
2026-01-01 00:10:07.20	22.69	22.51	-25.5	-26.9	16.6	0.00e+00	0	43	0	463470592	11	4212
2026-01-01 00:10:10.22	22.80	22.95	-25.4	-26.6	16.7	0.00e+00	0	42	0	472907776	11	4153
2026-01-01 00:10:13.23	22.91	23.39	-25.4	-27.2	16.7	0.00e+00	0	42	0	482344960	10	4423
2026-01-01 00:10:16.23	23.02	23.84	-25.5	-26.9	16.6	0.00e+00	0	42	0	491782144	11	4228
2026-01-01 00:10:19.23	23.14	24.29	-25.8	-27.1	16.2	0.00e+00	0	43	0	501219328	12	4153
2026-01-01 00:10:22.25	23.26	24.75	-25.6	-27.1	16.5	0.00e+00	0	42	0	510656512	11	4272
2026-01-01 00:10:25.26	23.39	25.23	-25.9	-27.7	16.2	0.00e+00	0	42	0	520093696	11	4439
2026-01-01 00:10:28.27	23.51	25.71	-25.7	-27.2	16.5	0.00e+00	0	42	0	529530880	11	4286
2026-01-01 00:10:31.28	23.64	26.20	-26.2	-28.0	15.7	0.00e+00	0	43	0	538968064	12	4419
2026-01-01 00:10:34.28	23.78	26.69	-25.5	-27.4	15.4	0.00e+00	0	42	0	548405248	12	4473
2026-01-01 00:10:37.29	23.92	27.20	-26.9	-28.9	14.9	0.00e+00	0	43	0	557842432	13	4562
2026-01-01 00:10:40.31	24.06	27.72	-26.8	-28.8	15.0	3.48e-03	0	43	0	567279616	13	4521
2026-01-01 00:10:43.31	24.20	28.24	-26.8	-28.8	15.0	0.00e+00	0	43	0	576716800	13	4515
2026-01-01 00:10:46.32	24.36	28.78	-26.6	-28.3	15.3	0.00e+00	0	43	0	585105408	13	4369
2026-01-01 00:10:49.33	24.51	29.32	-26.4	-28.3	15.6	3.13e-03	0	43	0	594542592	12	4487
2026-01-01 00:10:52.34	24.67	29.88	-26.1	-27.6	16.0	3.13e-03	0	42	0	603979776	12	4297
2026-01-01 00:10:55.35	24.84	30.45	-26.1	-27.7	16.0	2.53e-03	0	43	0	613416960	12	4313
2026-01-01 00:10:58.35	25.01	31.03	-26.3	-28.1	15.7	0.00e+00	0	43	0	622854144	12	4435
2026-01-01 00:11:01.37	25.19	31.62	-26.5	-28.5	15.5	3.07e-03	0	43	0	632291328	12	4557
2026-01-01 00:11:04.39	25.37	32.22	-26.7	-28.5	15.2	3.11e-03	0	43	0	641728512	13	4448
2026-01-01 00:11:07.39	25.56	32.84	-26.9	-29.0	15.0	2.72e-03	0	43	0	651165696	13	4580
2026-01-01 00:11:10.40	25.76	33.46	-26.8	-28.7	15.2	2.28e-03	0	43	0	660602880	13	4493
2026-01-01 00:11:13.40	25.96	34.10	-27.1	-28.9	14.8	1.69e-03	0	42	0	670040064	14	4430
2026-01-01 00:11:16.40	26.18	34.75	-27.6	-29.5	14.2	1.10e-03	0	43	0	679477248	15	4495
2026-01-01 00:11:19.40	26.40	35.42	-27.4	-29.7	14.4	3.00e-06	0	43	0	688914432	14	4670
2026-01-01 00:11:22.41	26.63	36.10	-28.0	-30.5	13.6	3.59e-04	0	43	0	698351616	15	4813
2026-01-01 00:11:25.42	26.86	36.79	-28.8	-31.4	12.7	7.93e-05	0	43	0	707788800	17	4860
2026-01-01 00:11:28.43	27.11	37.50	-29.1	-31.7	12.2	2.10e-04	0	43	0	717225984	18	4862
2026-01-01 00:11:31.44	27.37	38.23	-28.7	-30.6	12.8	5.34e-05	0	43	0	726663168	18	4509
2026-01-01 00:11:34.45	27.64	38.97	-28.4	-30.5	13.3	1.75e-05	0	43	0	736100352	17	4563
2026-01-01 00:11:37.47	27.93	39.73	-28.5	-30.8	13.1	3.66e-05	0	43	0	745537536	17	4661
2026-01-01 00:11:40.48	28.22	40.50	-28.3	-30.2	13.4	2.28e-05	0	43	0	754974720	17	4484
2026-01-01 00:11:43.49	28.53	41.29	-28.4	-30.4	13.4	1.29e-05	0	43	0	764411904	17	4523
2026-01-01 00:11:46.49	28.86	42.09	-28.5	-30.6	13.2	2.74e-05	0	43	0	773849088	17	4600
2026-01-01 00:11:49.48	29.20	42.90	-28.2	-30.5	13.6	1.29e-05	0	43	0	783286272	16	4667
2026-01-01 00:11:52.49	29.56	43.74	-28.3	-30.7	13.6	1.44e-05	0	43	0	792723456	16	4723
2026-01-01 00:11:55.50	29.93	44.60	-28.4	-31.0	13.3	1.29e-05	0	43	0	802160640	16	4849
2026-01-01 00:11:58.51	30.33	45.47	-28.3	-30.5	13.6	8.30e-06	0	43	0	811597824	16	4672
2026-01-01 00:12:01.52	30.75	46.36	-27.8	-29.9	14.1	3.00e-06	0	43	0	821035008	15	4600
2026-01-01 00:12:04.53	31.20	47.27	-28.1	-30.2	13.8	3.00e-06	0	43	0	830472192	16	4557
2026-01-01 00:12:07.53	31.66	48.20	-27.7	-29.8	14.2	2.21e-05	0	43	0	838860800	15	4576
2026-01-01 00:12:10.55	32.16	49.15	-27.6	-29.4	14.4	1.60e-04	0	43	0	849346560	15	4471
2026-01-01 00:12:13.56	32.70	50.11	-27.7	-29.7	14.3	1.93e-04	0	43	0	857735168	15	4542
2026-01-01 00:12:16.56	33.26	51.09	-28.6	-30.8	13.2	2.51e-05	0	43	0	867172352	17	4671
2026-01-01 00:12:19.56	33.86	52.09	-28.4	-30.4	13.5	1.14e-04	0	43	0	876609536	17	4533
2026-01-01 00:12:22.57	34.50	53.10	-27.9	-29.6	14.2	7.00e-07	0	43	0	886046720	16	4406
2026-01-01 00:12:25.58	35.19	54.14	-27.0	-28.6	15.1	0.00e+00	0	43	0	895483904	14	4347
2026-01-01 00:12:28.59	35.93	55.19	-26.6	-28.1	15.7	0.00e+00	0	43	0	904921088	13	4318
2026-01-01 00:12:31.61	36.73	56.26	-26.6	-28.2	15.7	0.00e+00	0	43	0	914358272	13	4343
2026-01-01 00:12:34.61	37.59	57.34	-26.3	-28.0	16.0	0.00e+00	0	43	0	923795456	12	4397
2026-01-01 00:12:37.61	38.52	58.44	-25.9	-27.2	16.5	0.00e+00	0	43	0	933232640	12	4176
2026-01-01 00:12:40.62	39.53	59.55	-26.1	-27.6	16.3	0.00e+00	0	43	0	942669824	12	4285
2026-01-01 00:12:43.63	40.64	60.67	-25.9	-27.1	16.6	0.00e+00	0	43	0	952107008	12	4154
2026-01-01 00:12:46.62	41.83	61.80	-25.5	-26.7	17.2	0.00e+00	0	43	0	961544192	11	4143
2026-01-01 00:12:49.61	43.14	62.93	-24.9	-26.0	17.8	1.50e-06	0	43	0	970981376	10	4065
2026-01-01 00:12:52.61	44.58	64.07	-25.0	-26.7	17.8	4.50e-06	0	43	0	980418560	9	4359
2026-01-01 00:12:55.62	46.18	65.22	-25.3	-26.7	17.4	8.30e-06	0	43	0	989855744	10	4265
2026-01-01 00:12:58.63	47.95	66.37	-25.1	-26.3	17.7	5.30e-06	0	43	0	999292928	10	4151
2026-01-01 00:13:01.65	49.93	67.51	-25.3	-26.8	17.5	0.00e+00	0	43	0	1008730112	10	4270
2026-01-01 00:13:04.66	52.12	68.64	-24.7	-25.5	18.1	0.00e+00	0	43	0	1018167296	10	3949
2026-01-01 00:13:07.67	54.58	69.75	-25.2	-26.5	17.6	1.36e-04	0	43	0	1027604480	10	4206
2026-01-01 00:13:10.66	57.32	70.83	-24.9	-25.9	17.9	0.00e+00	0	43	0	1037041664	10	4050
2026-01-01 00:13:13.67	60.42	71.88	-24.5	-25.6	18.3	5.00e-04	0	43	0	1046478848	9	4079
2026-01-01 00:13:16.68	63.92	72.88	-25.0	-26.6	17.8	0.00e+00	0	43	0	1055916032	9	4339
2026-01-01 00:13:19.68	67.85	73.82	-25.2	-26.6	17.6	1.50e-06	0	43	0	1064304640	10	4236
2026-01-01 00:13:22.69	72.28	74.69	-25.1	-26.3	17.7	0.00e+00	0	43	0	1074790400	10	4153
2026-01-01 00:13:25.70	77.22	75.46	-25.1	-26.3	17.8	0.00e+00	0	43	0	1084227584	10	4144
2026-01-01 00:13:28.70	82.69	76.12	-25.7	-27.2	17.0	2.13e-05	0	43	0	1092616192	11	4267
2026-01-01 00:13:31.72	88.70	76.66	-26.5	-28.5	16.1	0.00e+00	0	43	0	1102053376	12	4530
2026-01-01 00:13:34.72	95.11	77.04	-26.4	-27.7	16.2	0.00e+00	0	43	0	1111490560	13	4200
2026-01-01 00:13:37.72	101.83	77.25	-26.6	-28.1	16.0	0.00e+00	0	43	0	1120927744	13	4289
2026-01-01 00:13:40.73	108.71	77.29	-26.0	-27.4	16.6	0.00e+00	0	43	0	1130364928	12	4225
2026-01-01 00:13:43.72	115.49	77.16	-25.1	-25.9	17.7	0.00e+00	0	43	0	1139802112	11	3940
2026-01-01 00:13:46.72	122.07	76.86	-25.0	-25.6	17.8	0.00e+00	0	43	0	1149239296	11	3863
2026-01-01 00:13:49.74	128.30	76.39	-25.5	-26.7	17.3	0.00e+00	0	43	0	1158676480	11	4139
2026-01-01 00:13:52.75	134.03	75.78	-26.0	-27.3	16.6	0.00e+00	0	43	0	1168113664	12	4208
2026-01-01 00:13:55.76	139.22	75.06	-25.5	-26.7	17.3	0.00e+00	0	43	0	1177550848	11	4139
2026-01-01 00:13:58.77	143.89	74.23	-26.2	-27.8	16.3	3.28e-05	0	43	0	1186988032	12	4335
2026-01-01 00:14:01.79	148.07	73.31	-27.0	-28.7	15.4	0.00e+00	0	43	0	1196425216	14	4348
2026-01-01 00:14:04.79	151.75	72.34	-26.0	-26.8	16.6	4.50e-06	0	43	0	1205862400	13	3961
2026-01-01 00:14:07.82	155.05	71.30	-25.3	-26.3	17.4	1.22e-05	0	43	0	1215299584	11	4044
2026-01-01 00:14:10.83	157.97	70.23	-25.6	-26.5	17.0	5.42e-04	0	43	0	1224736768	12	4003
2026-01-01 00:14:13.84	160.55	69.13	-25.2	-26.6	17.5	5.23e-04	0	43	0	1234173952	10	4221
2026-01-01 00:14:16.85	162.86	68.00	-25.9	-27.5	16.9	0.00e+00	0	43	0	1243611136	11	4352
2026-01-01 00:14:19.86	164.93	66.87	-25.3	-26.4	17.4	0.00e+00	0	43	0	1253048320	11	4073
2026-01-01 00:14:22.88	166.79	65.72	-25.5	-26.8	17.1	0.00e+00	0	43	0	1262485504	11	4175
2026-01-01 00:14:25.89	168.47	64.56	-25.2	-26.1	17.6	0.00e+00	0	43	0	1271922688	11	3981
2026-01-01 00:14:28.91	169.98	63.41	-25.0	-25.7	17.8	0.00e+00	0	43	0	1281359872	11	3888
2026-01-01 00:14:31.91	171.35	62.27	-25.7	-27.2	16.9	0.00e+00	0	43	0	1290797056	11	4267
2026-01-01 00:14:34.92	172.60	61.13	-25.4	-26.6	17.3	0.00e+00	0	43	0	1300234240	11	4117
2026-01-01 00:14:37.93	173.75	60.00	-25.8	-27.4	16.8	0.00e+00	0	43	0	1309671424	11	4336
2026-01-01 00:14:40.94	174.80	58.88	-25.7	-26.8	16.7	0.00e+00	0	43	0	1319108608	12	4048
2026-01-01 00:14:43.95	175.76	57.77	-25.4	-26.5	17.2	0.00e+00	0	43	0	1328545792	11	4086
2026-01-01 00:14:46.95	176.65	56.68	-27.6	-29.4	14.6	0.00e+00	0	43	0	1337982976	15	4461
2026-01-01 00:14:49.94	177.47	55.61	-27.5	-29.3	14.4	0.00e+00	0	43	0	1347420160	15	4427
2026-01-01 00:14:52.95	178.23	54.54	-25.9	-26.5	16.6	0.00e+00	0	43	0	1356857344	13	3897
2026-01-01 00:14:55.96	178.95	53.50	-27.3	-29.3	14.6	0.00e+00	0	43	0	1365245952	14	4539
2026-01-01 00:14:58.98	179.61	52.47	-27.9	-30.3	14.0	7.00e-07	0	43	0	1374683136	15	4732
2026-01-01 00:15:01.98	180.23	51.46	-28.2	-30.4	13.8	3.80e-06	0	43	0	1384120320	16	4632
2026-01-01 00:15:04.99	180.81	50.46	-27.8	-30.0	14.1	7.00e-07	0	43	0	1393557504	15	4630
2026-01-01 00:15:08.00	181.35	49.49	-28.8	-31.4	12.9	4.11e-05	0	43	0	1402994688	17	4832
2026-01-01 00:15:11.01	181.86	48.53	-28.8	-31.2	13.0	3.66e-05	0	43	0	1412431872	17	4768
2026-01-01 00:15:14.03	182.35	47.59	-28.9	-31.6	12.8	2.62e-03	0	43	0	1421869056	17	4904
2026-01-01 00:15:17.04	182.80	46.67	-28.0	-29.9	14.1	7.00e-07	0	43	0	1431306240	16	4495
2026-01-01 00:15:20.05	183.23	45.77	-28.5	-30.7	13.3	2.36e-03	0	43	0	1440743424	17	4625
2026-01-01 00:15:23.05	183.64	44.89	-29.6	-32.3	11.6	5.30e-04	0	43	0	1450180608	19	4943
2026-01-01 00:15:26.06	184.02	44.02	-29.6	-32.5	11.5	3.49e-03	0	43	0	1459617792	19	5001
2026-01-01 00:15:29.07	184.39	43.17	-28.8	-31.2	12.9	2.41e-03	0	43	0	1469054976	17	4792
2026-01-01 00:15:32.08	184.74	42.34	-29.1	-31.7	12.4	1.04e-04	0	43	0	1478492160	18	4825
2026-01-01 00:15:35.09	185.07	41.53	-28.5	-30.6	13.2	2.29e-03	0	43	0	1487929344	17	4588
2026-01-01 00:15:38.10	185.38	40.73	-28.5	-30.7	13.2	2.44e-03	0	43	0	1497366528	17	4630
2026-01-01 00:15:41.10	185.68	39.95	-28.9	-31.7	12.6	2.67e-03	0	43	0	1506803712	17	4954
2026-01-01 00:15:44.11	185.97	39.18	-28.7	-31.0	12.9	2.47e-03	0	43	0	1516240896	17	4736
2026-01-01 00:15:47.11	186.24	38.44	-28.3	-30.7	13.5	2.11e-03	0	43	0	1525678080	16	4730
2026-01-01 00:15:50.11	186.51	37.71	-27.6	-29.5	14.4	2.60e-03	0	43	0	1535115264	15	4478
2026-01-01 00:15:53.11	186.76	36.99	-28.3	-30.7	13.5	2.30e-03	0	43	0	1544552448	16	4732
2026-01-01 00:15:56.12	187.00	36.29	-27.1	-28.9	14.9	1.83e-03	0	43	0	1553989632	14	4436
2026-01-01 00:15:59.12	187.23	35.60	-27.4	-29.5	14.5	0.00e+00	0	43	0	1563426816	14	4623
2026-01-01 00:16:02.14	187.46	34.92	-27.4	-29.6	14.5	8.35e-04	0	43	0	1572864000	14	4635
2026-01-01 00:16:05.15	187.67	34.26	-27.6	-29.7	14.1	1.50e-06	0	43	0	1582301184	15	4557
2026-01-01 00:16:08.15	187.88	33.62	-27.4	-29.7	14.5	1.59e-03	0	43	0	1591738368	14	4660
2026-01-01 00:16:11.16	188.08	32.98	-27.1	-28.9	14.9	0.00e+00	0	43	0	1601175552	14	4428
2026-01-01 00:16:14.16	188.27	32.36	-26.3	-27.6	15.8	0.00e+00	0	43	0	1610612736	13	4186
2026-01-01 00:16:17.17	188.45	31.75	-25.9	-27.6	16.5	0.00e+00	0	43	0	1619001344	11	4382
2026-01-01 00:16:20.19	188.63	31.15	-26.0	-27.8	16.3	0.00e+00	0	43	0	1629487104	11	4460
2026-01-01 00:16:23.19	188.81	30.57	-26.1	-27.6	16.1	0.00e+00	0	43	0	1637875712	12	4288
2026-01-01 00:16:26.20	188.97	29.99	-26.3	-28.1	15.9	0.00e+00	0	43	0	1647312896	12	4420
2026-01-01 00:16:29.22	189.14	29.43	-26.5	-28.2	15.5	0.00e+00	0	43	0	1656750080	13	4336
2026-01-01 00:16:32.22	189.29	28.88	-26.7	-28.4	15.4	0.00e+00	0	43	0	1666187264	13	4409
2026-01-01 00:16:35.23	189.44	28.33	-26.9	-29.0	15.1	0.00e+00	0	43	0	1675624448	13	4570
2026-01-01 00:16:38.24	189.59	27.80	-27.1	-28.9	14.8	0.00e+00	0	43	0	1685061632	14	4426
2026-01-01 00:16:41.26	189.73	27.28	-27.1	-28.9	14.8	0.00e+00	0	43	0	1694498816	14	4433
2026-01-01 00:16:44.27	189.87	26.76	-27.0	-28.7	14.9	0.00e+00	0	43	0	1703936000	14	4385
2026-01-01 00:16:47.30	190.01	26.26	-26.6	-28.3	15.4	6.80e-06	0	43	0	1713373184	13	4368
2026-01-01 00:16:50.31	190.14	25.76	-26.7	-28.6	15.2	6.80e-06	0	43	0	1722810368	13	4463
2026-01-01 00:16:53.33	190.27	25.28	-26.8	-28.7	15.1	0.00e+00	0	43	0	1732247552	13	4488
2026-01-01 00:16:56.33	190.39	24.80	-26.5	-28.2	15.4	9.90e-06	0	43	0	1741684736	13	4336
2026-01-01 00:16:59.34	190.51	24.33	-25.8	-27.1	16.3	0.00e+00	0	43	0	1751121920	12	4150
2026-01-01 00:17:02.36	190.63	23.87	-25.9	-27.2	16.2	2.20e-06	0	43	0	1760559104	12	4181
2026-01-01 00:17:05.37	190.74	23.42	-26.2	-27.8	15.9	3.00e-06	0	43	0	1769996288	12	4346
2026-01-01 00:17:08.39	190.85	22.97	-26.3	-28.2	15.7	7.00e-07	0	43	0	1779433472	12	4451
2026-01-01 00:17:11.39	190.96	22.54	-26.4	-28.4	15.5	1.50e-06	0	43	0	1788870656	12	4517
2026-01-01 00:17:14.40	191.06	22.11	-26.2	-27.8	15.9	0.00e+00	0	43	0	1798307840	12	4354
2026-01-01 00:17:17.40	191.17	21.69	-26.3	-28.0	15.7	0.00e+00	0	43	0	1807745024	12	4423
2026-01-01 00:17:20.41	191.27	21.27	-26.3	-28.2	15.1	1.86e-03	0	43	0	1817182208	12	4462
2026-01-01 00:17:23.41	191.37	20.86	-26.6	-28.3	15.3	0.00e+00	0	43	0	1826619392	13	4374
2026-01-01 00:17:26.43	191.46	20.46	-26.9	-28.6	14.9	8.58e-04	0	43	0	1836056576	14	4353
2026-01-01 00:17:29.44	191.55	20.06	-26.8	-28.8	15.0	7.35e-04	0	43	0	1845493760	13	4542
2026-01-01 00:17:32.44	191.65	19.67	-26.8	-28.7	15.0	8.65e-04	0	43	0	1854930944	13	4492
2026-01-01 00:17:35.43	191.73	19.29	-26.9	-29.1	14.8	5.08e-04	0	43	0	1864368128	13	4609
2026-01-01 00:17:38.44	191.82	18.91	-26.7	-28.5	15.1	1.11e-03	0	43	0	1873805312	13	4430
2026-01-01 00:17:41.45	191.91	18.54	-26.8	-28.8	14.9	1.15e-03	0	43	0	1883242496	13	4532
2026-01-01 00:17:44.46	191.99	18.17	-26.7	-28.5	15.1	4.19e-04	0	43	0	1892679680	13	4453
2026-01-01 00:17:47.46	192.07	17.81	-26.6	-28.4	15.2	2.72e-03	0	43	0	1902116864	13	4402
2026-01-01 00:17:50.47	192.15	17.45	-26.5	-28.2	15.3	3.01e-03	0	43	0	1911554048	13	4346
2026-01-01 00:17:53.47	192.23	17.10	-26.6	-28.4	15.1	3.20e-04	0	43	0	1919942656	13	4429
2026-01-01 00:17:56.48	192.31	16.76	-26.7	-28.5	15.0	3.55e-03	0	43	0	1929379840	13	4455
2026-01-01 00:17:59.50	192.39	16.41	-26.7	-28.6	15.0	0.00e+00	0	43	0	1938817024	13	4475
2026-01-01 00:18:02.51	192.46	16.08	-27.0	-29.2	14.6	3.57e-03	0	43	0	1948254208	13	4667
2026-01-01 00:18:05.52	192.53	15.74	-27.1	-29.1	14.4	1.50e-06	0	43	0	1957691392	14	4512
2026-01-01 00:18:08.53	192.60	15.42	-27.4	-29.8	14.0	3.10e-04	0	43	0	1967128576	14	4716
2026-01-01 00:18:11.54	192.67	15.09	-27.3	-29.4	14.2	7.00e-07	0	43	0	1976565760	14	4618
2026-01-01 00:18:14.55	192.74	14.77	-27.1	-29.0	14.4	7.00e-07	0	43	0	1986002944	14	4477
2026-01-01 00:18:17.55	192.81	14.46	-27.1	-28.9	14.4	7.00e-07	0	43	0	1995440128	14	4469
2026-01-01 00:18:20.57	192.88	14.14	-27.2	-29.3	14.2	1.50e-06	0	43	0	2004877312	14	4568
2026-01-01 00:18:23.58	192.94	13.84	-27.1	-28.9	14.4	1.50e-06	0	43	0	2014314496	14	4473
2026-01-01 00:18:26.58	193.00	13.53	-27.1	-29.0	14.3	1.50e-06	0	43	0	2023751680	14	4499
2026-01-01 00:18:29.60	193.07	13.23	-27.2	-29.2	14.2	7.00e-07	0	43	0	2033188864	14	4541
2026-01-01 00:18:32.61	193.13	12.94	-27.1	-29.2	14.2	2.20e-06	0	43	0	2042626048	14	4538
2026-01-01 00:18:35.61	193.19	12.64	-27.1	-29.1	14.3	1.50e-06	0	43	0	2052063232	14	4516
2026-01-01 00:18:38.63	193.25	12.35	-27.2	-29.3	14.1	1.50e-06	0	43	0	2061500416	14	4578
2026-01-01 00:18:41.64	193.31	12.07	-27.4	-29.8	13.8	6.10e-06	0	43	0	2070937600	14	4733
2026-01-01 00:18:44.65	193.37	11.78	-27.3	-29.6	13.9	3.80e-06	0	43	0	2080374784	14	4676
2026-01-01 00:18:47.65	193.42	11.51	-27.6	-29.9	13.4	1.44e-05	0	43	0	2089811968	15	4647
2026-01-01 00:18:50.65	193.48	11.23	-27.4	-29.8	13.8	2.20e-06	0	43	0	2099249152	14	4741
2026-01-01 00:18:53.66	193.53	10.96	-27.3	-29.7	13.8	3.80e-06	0	43	0	2108686336	14	4711
2026-01-01 00:18:56.66	193.59	10.69	-27.2	-29.3	14.0	7.00e-07	0	43	0	2118123520	14	4590
2026-01-01 00:18:59.66	193.64	10.42	-27.2	-29.3	14.0	0.00e+00	0	43	0	2127560704	14	4585
2026-01-01 00:19:02.67	193.69	10.16	-27.4	-29.9	13.6	4.50e-06	0	43	0	2136997888	14	4788
2026-01-01 00:19:05.67	193.75	9.90	-27.5	-29.6	13.5	1.37e-05	0	43	0	2146435072	15	4570
2026-01-01 00:19:08.68	193.80	9.64	-27.7	-30.0	13.2	1.37e-05	0	43	0	2155872256	15	4691
2026-01-01 00:19:11.68	193.85	9.38	-27.8	-30.4	12.9	5.79e-05	0	43	0	2165309440	15	4844
2026-01-01 00:19:14.69	193.90	9.13	-27.6	-29.9	13.2	2.13e-05	0	43	0	2174746624	15	4686
2026-01-01 00:19:17.69	193.95	8.88	-27.8	-30.3	13.0	3.43e-05	0	43	0	2184183808	15	4802
2026-01-01 00:19:20.70	193.99	8.63	-28.0	-30.4	12.8	1.02e-03	0	43	0	2192572416	16	4706
2026-01-01 00:19:23.71	194.04	8.38	-27.7	-30.2	12.9	5.03e-05	0	43	0	2202009600	15	4791
2026-01-01 00:19:26.73	194.09	8.14	-27.7	-30.1	13.0	9.86e-04	0	43	0	2212495360	15	4754
2026-01-01 00:19:29.74	194.14	7.89	-27.9	-30.5	12.7	5.69e-04	0	43	0	2220883968	15	4897
2026-01-01 00:19:32.76	194.18	7.65	-28.0	-30.8	12.5	1.15e-03	0	43	0	2230321152	15	4985
2026-01-01 00:19:35.78	194.23	7.42	-28.3	-31.0	12.2	1.26e-03	0	43	0	2239758336	16	4946
2026-01-01 00:19:38.79	194.27	7.18	-28.3	-31.0	12.2	1.19e-03	0	43	0	2249195520	16	4930

#Closed at: 2026-01-01 00:19:41
#Recorded file [2254 MB]: D:/data/31010_260101_030738.dat