passes_logs/2026/01/01/R2M6_AANII_01/R2M6_AANII_01__20260101_031903_FENGYUN_3D_rec.log

#Pass ID: 20260101_031903_FENGYUN 3D
#Satellite: FENGYUN 3D
#Configuration: FENGYUN 3D
#almurnet v.1.7.20240730
#Start time: 2026-01-01 03:25:19

#Version: 2.2.20231116
#Station: R2M6_AANII_01
#Location: 30.233357 lon 59.946436 lat
#TLE: 1 43010U 17072A   25365.48527867  .00000101  00000+0  69745-4 0  9999
#TLE: 2 43010  98.9911 332.0787 0001837 134.4748 225.6578 14.19689788421190

#Time	Az	El	Level	Level2	SNR	BER	BlckErr	Temp	State	Recorded	gain1	gain2
2026-01-01 03:25:19.86	285.68	43.86	-33.0	-52.6	3.8	7.44e-01	0	43	0	0	26	34192
2026-01-01 03:25:21.86	284.68	43.69	-33.5	-45.0	3.8	8.46e-01	0	43	104	0	26	13566
2026-01-01 03:25:23.86	283.69	43.51	-33.5	-44.6	3.8	8.46e-01	0	43	104	0	27	12893
2026-01-01 03:25:25.86	282.70	43.32	-33.5	-44.6	3.8	8.46e-01	0	43	104	0	27	12931
2026-01-01 03:25:27.87	281.73	43.13	-33.6	-44.7	3.8	8.46e-01	0	43	104	0	27	12930
2026-01-01 03:25:29.88	280.77	42.92	-33.5	-44.6	3.8	8.46e-01	0	43	104	0	27	12877
2026-01-01 03:25:31.88	279.82	42.71	-33.5	-44.5	3.8	8.46e-01	0	43	104	0	27	12768
2026-01-01 03:25:33.88	278.89	42.49	-33.5	-44.6	3.8	8.47e-01	0	43	104	0	27	12855
2026-01-01 03:25:35.88	277.97	42.27	-33.5	-44.5	3.8	8.47e-01	0	43	104	0	27	12786
2026-01-01 03:25:37.89	277.06	42.03	-33.5	-44.6	3.8	8.46e-01	0	43	104	0	27	12922
2026-01-01 03:25:39.90	276.16	41.79	-33.5	-44.6	3.8	8.46e-01	0	43	104	0	27	12884
2026-01-01 03:25:41.90	275.28	41.55	-33.5	-44.9	3.8	8.46e-01	0	43	104	0	26	13500
2026-01-01 03:25:43.90	274.41	41.30	-33.3	-44.5	3.8	8.47e-01	0	43	104	0	26	13183
2026-01-01 03:25:45.90	273.56	41.04	-33.2	-43.6	3.8	8.46e-01	0	43	104	0	26	11924
2026-01-01 03:25:47.91	272.72	40.78	-33.3	-44.5	3.8	8.46e-01	0	43	104	0	26	13183
2026-01-01 03:25:49.91	271.89	40.51	-33.2	-44.4	3.8	8.45e-01	0	43	104	0	26	13035
2026-01-01 03:25:51.91	271.08	40.24	-33.2	-43.9	3.8	8.48e-01	0	43	104	0	26	12417
2026-01-01 03:25:53.93	270.27	39.96	-33.2	-43.8	3.8	8.46e-01	0	43	104	0	26	12216
2026-01-01 03:25:55.94	269.49	39.68	-33.2	-44.4	3.8	8.46e-01	0	43	104	0	26	13004
2026-01-01 03:25:57.95	268.71	39.39	-33.2	-44.4	3.8	8.46e-01	0	43	104	0	26	12986
2026-01-01 03:25:59.96	267.95	39.10	-33.1	-42.8	3.8	8.45e-01	0	43	104	0	26	11013
2026-01-01 03:26:01.96	267.21	38.81	-33.1	-43.1	3.8	8.46e-01	0	43	104	0	26	11448
2026-01-01 03:26:03.96	266.47	38.52	-33.1	-42.9	3.8	8.45e-01	0	43	104	0	26	11230
2026-01-01 03:26:05.97	265.75	38.22	-32.7	-40.8	3.9	8.43e-01	0	43	104	0	25	9155
2026-01-01 03:26:07.97	265.05	37.92	-31.5	-36.3	6.8	3.09e-01	0	43	0	3145728	23	6217
2026-01-01 03:26:09.97	264.36	37.62	-30.0	-33.1	10.0	1.07e-02	0	43	0	13631488	20	5110
2026-01-01 03:26:11.99	263.67	37.32	-29.1	-31.1	11.6	1.03e-03	0	43	0	25165824	19	4539
2026-01-01 03:26:14.00	263.00	37.01	-24.6	-25.4	17.3	0.00e+00	0	43	0	36700160	10	3945
2026-01-01 03:26:16.00	262.35	36.70	-24.8	-26.3	17.2	0.00e+00	0	43	0	48234496	9	4279
2026-01-01 03:26:18.00	261.71	36.40	-24.1	-24.8	17.9	0.00e+00	0	43	0	58720256	9	3897
2026-01-01 03:26:20.01	261.07	36.09	-24.2	-25.5	17.8	1.11e-03	0	43	0	70254592	8	4190
2026-01-01 03:26:22.02	260.45	35.78	-24.2	-24.9	17.8	5.42e-04	0	43	0	81788928	9	3929
2026-01-01 03:26:24.02	259.85	35.47	-22.8	-23.1	19.3	0.00e+00	0	43	0	93323264	7	3708
2026-01-01 03:26:26.02	259.25	35.16	-22.2	-22.8	19.9	2.63e-05	0	43	0	104857600	5	3849
2026-01-01 03:26:28.04	258.66	34.84	-22.1	-22.5	20.0	3.03e-04	0	43	0	115343360	5	3799
2026-01-01 03:26:30.04	258.09	34.53	-21.7	-22.3	20.3	0.00e+00	0	43	0	126877696	4	3863
2026-01-01 03:26:32.05	257.53	34.22	-21.6	-22.5	20.5	1.03e-03	0	43	0	138412032	3	4012
2026-01-01 03:26:34.05	256.98	33.91	-21.7	-22.7	20.4	1.15e-03	0	43	0	149946368	3	4061
2026-01-01 03:26:36.06	256.44	33.59	-21.9	-23.2	20.2	0.00e+00	0	43	0	161480704	3	4183
2026-01-01 03:26:38.07	255.90	33.28	-22.0	-22.9	20.0	1.03e-03	0	43	0	171966464	4	3995
2026-01-01 03:26:40.08	255.38	32.97	-21.8	-22.5	20.2	5.56e-04	0	43	0	183500800	4	3906
2026-01-01 03:26:42.09	254.87	32.66	-21.7	-22.3	20.3	0.00e+00	0	43	0	195035136	4	3854
2026-01-01 03:26:44.10	254.37	32.35	-22.0	-22.9	20.0	2.20e-06	0	43	0	205520896	4	3994
2026-01-01 03:26:46.11	253.88	32.04	-21.8	-22.4	20.3	0.00e+00	0	43	0	217055232	4	3879
2026-01-01 03:26:48.12	253.39	31.73	-21.8	-22.5	20.2	0.00e+00	0	43	0	228589568	4	3899
2026-01-01 03:26:50.13	252.92	31.42	-21.8	-22.5	20.2	0.00e+00	0	43	0	240123904	4	3893
2026-01-01 03:26:52.13	252.46	31.11	-22.1	-23.1	19.9	1.18e-03	0	43	0	251658240	4	4050
2026-01-01 03:26:54.14	252.00	30.81	-22.2	-23.4	19.7	0.00e+00	0	43	0	262144000	4	4120
2026-01-01 03:26:56.15	251.55	30.50	-22.2	-23.4	19.8	5.70e-06	0	43	0	273678336	4	4113
2026-01-01 03:26:58.16	251.11	30.20	-22.3	-23.6	19.6	0.00e+00	0	43	0	285212672	4	4172
2026-01-01 03:27:00.15	250.69	29.90	-22.2	-23.4	19.7	0.00e+00	0	43	0	296747008	4	4102
2026-01-01 03:27:02.16	250.26	29.60	-22.2	-23.2	19.8	0.00e+00	0	43	0	308281344	4	4065
2026-01-01 03:27:04.16	249.85	29.30	-22.2	-23.3	19.8	0.00e+00	0	43	0	318767104	4	4087
2026-01-01 03:27:06.16	249.44	29.00	-22.4	-23.8	19.5	0.00e+00	0	43	0	330301440	4	4220
2026-01-01 03:27:08.17	249.04	28.71	-22.2	-23.4	19.7	0.00e+00	0	43	0	341835776	4	4104
2026-01-01 03:27:10.17	248.65	28.41	-22.3	-23.6	19.6	0.00e+00	0	43	0	352321536	4	4168
2026-01-01 03:27:12.18	248.27	28.12	-22.4	-23.8	19.5	0.00e+00	0	43	0	363855872	4	4205
2026-01-01 03:27:14.18	247.89	27.83	-22.4	-23.1	19.6	0.00e+00	0	43	0	375390208	5	3939
2026-01-01 03:27:16.18	247.52	27.54	-22.4	-23.8	19.4	0.00e+00	0	43	0	386924544	4	4205
2026-01-01 03:27:18.18	247.16	27.26	-22.6	-23.7	19.2	0.00e+00	0	43	0	397410304	5	4087
2026-01-01 03:27:20.19	246.80	26.97	-22.7	-23.8	19.2	0.00e+00	0	43	0	408944640	5	4099
2026-01-01 03:27:22.21	246.45	26.68	-22.7	-23.9	19.2	0.00e+00	0	43	0	420478976	5	4114
2026-01-01 03:27:24.20	246.11	26.40	-22.7	-23.8	19.2	0.00e+00	0	43	0	432013312	5	4110
2026-01-01 03:27:26.20	245.77	26.12	-22.7	-23.8	19.2	0.00e+00	0	43	0	442499072	5	4100
2026-01-01 03:27:28.20	245.44	25.84	-22.6	-23.7	19.2	0.00e+00	0	43	0	454033408	5	4081
2026-01-01 03:27:30.20	245.11	25.57	-22.7	-23.8	19.2	0.00e+00	0	43	0	465567744	5	4103
2026-01-01 03:27:32.20	244.79	25.29	-22.6	-23.6	19.3	0.00e+00	0	43	0	476053504	5	4061
2026-01-01 03:27:34.22	244.47	25.02	-22.6	-23.7	19.2	0.00e+00	0	43	0	487587840	5	4081
2026-01-01 03:27:36.22	244.16	24.75	-22.6	-23.7	19.2	0.00e+00	0	43	0	499122176	5	4067
2026-01-01 03:27:38.23	243.86	24.48	-22.7	-23.9	19.1	0.00e+00	0	43	0	510656512	5	4126
2026-01-01 03:27:40.23	243.56	24.21	-22.3	-23.1	19.5	0.00e+00	0	43	0	522190848	5	3928
2026-01-01 03:27:42.24	243.26	23.95	-22.5	-23.9	19.3	0.00e+00	0	43	0	532676608	4	4233
2026-01-01 03:27:44.25	242.97	23.68	-22.4	-23.8	19.4	0.00e+00	0	43	0	544210944	4	4206
2026-01-01 03:27:46.26	242.69	23.42	-22.5	-23.5	19.3	0.00e+00	0	43	0	555745280	5	4023
2026-01-01 03:27:48.27	242.41	23.16	-22.6	-23.8	19.2	0.00e+00	0	43	0	567279616	5	4095
2026-01-01 03:27:50.28	242.13	22.90	-22.7	-24.0	19.0	0.00e+00	0	43	0	578813952	5	4140
2026-01-01 03:27:52.29	241.86	22.64	-22.9	-24.2	18.9	2.20e-06	0	43	0	589299712	5	4207
2026-01-01 03:27:54.29	241.60	22.39	-22.9	-24.3	18.8	1.08e-03	0	43	0	600834048	5	4236
2026-01-01 03:27:56.31	241.33	22.13	-23.2	-24.5	18.5	2.83e-04	0	43	0	612368384	6	4155
2026-01-01 03:27:58.32	241.08	21.88	-23.2	-24.4	18.6	1.34e-03	0	43	0	623902720	6	4131
2026-01-01 03:28:00.33	240.82	21.63	-23.2	-24.5	18.5	1.37e-03	0	43	0	634388480	6	4163
2026-01-01 03:28:02.33	240.57	21.39	-23.3	-24.6	18.5	0.00e+00	0	43	0	645922816	6	4185
2026-01-01 03:28:04.34	240.33	21.14	-23.0	-24.1	18.7	2.20e-06	0	43	0	657457152	6	4065
2026-01-01 03:28:06.35	240.09	20.90	-23.0	-24.0	18.7	1.47e-03	0	43	0	668991488	6	4049
2026-01-01 03:28:08.35	239.85	20.66	-23.0	-24.0	18.7	2.64e-04	0	43	0	679477248	6	4051
2026-01-01 03:28:10.36	239.62	20.42	-23.2	-24.4	18.5	1.23e-03	0	43	0	691011584	6	4134
2026-01-01 03:28:12.37	239.39	20.18	-23.3	-24.7	18.4	1.15e-03	0	43	0	702545920	6	4214
2026-01-01 03:28:14.38	239.16	19.94	-23.5	-24.6	18.2	3.77e-05	0	43	0	714080256	7	4076
2026-01-01 03:28:16.38	238.94	19.71	-23.8	-25.3	17.8	0.00e+00	0	43	0	725614592	7	4265
2026-01-01 03:28:18.37	238.72	19.47	-23.7	-25.1	17.9	0.00e+00	0	43	0	736100352	7	4206
2026-01-01 03:28:20.37	238.51	19.24	-23.8	-25.1	17.8	5.03e-05	0	43	0	747634688	7	4209
2026-01-01 03:28:22.38	238.29	19.01	-23.8	-25.2	17.8	1.91e-03	0	43	0	759169024	7	4238
2026-01-01 03:28:24.39	238.08	18.79	-23.9	-25.4	17.7	1.79e-03	0	43	0	769654784	7	4287
2026-01-01 03:28:26.40	237.88	18.56	-23.9	-25.4	17.7	6.08e-04	0	43	0	781189120	7	4272
2026-01-01 03:28:28.40	237.67	18.34	-24.0	-25.1	17.6	0.00e+00	0	43	0	792723456	8	4097
2026-01-01 03:28:30.40	237.47	18.11	-24.1	-25.4	17.4	0.00e+00	0	43	0	804257792	8	4162
2026-01-01 03:28:32.40	237.28	17.89	-24.0	-25.2	17.5	0.00e+00	0	43	0	814743552	8	4122
2026-01-01 03:28:34.40	237.08	17.67	-24.1	-25.4	17.4	1.65e-03	0	43	0	826277888	8	4162
2026-01-01 03:28:36.39	236.90	17.46	-24.2	-25.6	17.3	1.57e-03	0	43	0	837812224	8	4218
2026-01-01 03:28:38.40	236.71	17.24	-24.3	-25.8	17.2	0.00e+00	0	43	0	849346560	8	4271
2026-01-01 03:28:40.41	236.52	17.03	-24.4	-26.0	17.0	0.00e+00	0	43	0	860880896	8	4328
2026-01-01 03:28:42.41	236.34	16.81	-24.5	-26.1	17.0	0.00e+00	0	43	0	871366656	8	4358
2026-01-01 03:28:44.42	236.16	16.60	-24.3	-25.2	17.2	0.00e+00	0	43	0	882900992	9	4010
2026-01-01 03:28:46.43	235.98	16.39	-24.2	-25.7	17.2	0.00e+00	0	43	0	894435328	8	4239
2026-01-01 03:28:48.43	235.80	16.18	-24.3	-25.8	17.1	0.00e+00	0	43	0	904921088	8	4284
2026-01-01 03:28:50.43	235.63	15.98	-24.3	-25.8	17.1	0.00e+00	0	43	0	916455424	8	4277
2026-01-01 03:28:52.43	235.46	15.77	-24.4	-26.0	17.0	0.00e+00	0	43	0	927989760	8	4333
2026-01-01 03:28:54.43	235.29	15.57	-24.4	-26.0	17.0	0.00e+00	0	43	0	939524096	8	4325
2026-01-01 03:28:56.44	235.13	15.36	-24.4	-26.1	16.9	0.00e+00	0	43	0	950009856	8	4349
2026-01-01 03:28:58.45	234.96	15.16	-24.5	-25.7	16.8	0.00e+00	0	43	0	961544192	9	4147
2026-01-01 03:29:00.46	234.80	14.96	-24.7	-26.1	16.6	0.00e+00	0	43	0	973078528	9	4248
2026-01-01 03:29:02.47	234.64	14.76	-24.6	-26.0	16.7	0.00e+00	0	43	0	984612864	9	4207
2026-01-01 03:29:04.47	234.49	14.57	-24.7	-26.2	16.5	0.00e+00	0	43	0	996147200	9	4270
2026-01-01 03:29:06.48	234.33	14.37	-24.7	-26.3	16.5	6.80e-06	0	43	0	1006632960	9	4297
2026-01-01 03:29:08.48	234.18	14.18	-24.8	-26.4	16.4	0.00e+00	0	43	0	1018167296	9	4334
2026-01-01 03:29:10.49	234.03	13.98	-24.8	-26.5	16.3	0.00e+00	0	43	0	1029701632	9	4361
2026-01-01 03:29:12.50	233.88	13.79	-24.8	-26.5	16.3	8.00e-06	0	43	0	1040187392	9	4357
2026-01-01 03:29:14.52	233.73	13.60	-24.8	-26.3	16.4	0.00e+00	0	43	0	1051721728	9	4298
2026-01-01 03:29:16.52	233.59	13.41	-24.8	-26.4	16.3	0.00e+00	0	43	0	1063256064	9	4332
2026-01-01 03:29:18.52	233.45	13.22	-24.8	-26.4	16.3	3.40e-06	0	43	0	1074790400	9	4327
2026-01-01 03:29:20.54	233.30	13.04	-24.8	-26.4	16.4	0.00e+00	0	43	0	1086324736	9	4312
2026-01-01 03:29:22.54	233.17	12.85	-24.9	-26.6	16.2	0.00e+00	0	43	0	1096810496	9	4374
2026-01-01 03:29:24.55	233.03	12.67	-25.0	-26.3	16.1	0.00e+00	0	43	0	1108344832	10	4199
2026-01-01 03:29:26.56	232.89	12.48	-25.1	-26.5	15.6	0.00e+00	0	43	0	1119879168	10	4257
2026-01-01 03:29:28.56	232.76	12.30	-25.1	-26.5	16.0	0.00e+00	0	43	0	1131413504	10	4254
2026-01-01 03:29:30.57	232.63	12.12	-25.2	-26.8	15.8	0.00e+00	0	43	0	1142947840	10	4321
2026-01-01 03:29:32.58	232.50	11.94	-25.1	-26.6	15.9	0.00e+00	0	43	0	1153433600	10	4281
2026-01-01 03:29:34.58	232.37	11.77	-25.2	-26.7	15.8	0.00e+00	0	43	0	1164967936	10	4300
2026-01-01 03:29:36.59	232.24	11.59	-25.2	-26.7	15.8	0.00e+00	0	43	0	1176502272	10	4296
2026-01-01 03:29:38.59	232.12	11.41	-25.3	-26.9	15.7	0.00e+00	0	43	0	1186988032	10	4359
2026-01-01 03:29:40.60	231.99	11.24	-25.3	-26.9	15.7	1.71e-05	0	43	0	1198522368	10	4363
2026-01-01 03:29:42.60	231.87	11.06	-25.4	-27.2	15.5	4.30e-04	0	43	0	1210056704	10	4441
2026-01-01 03:29:44.60	231.75	10.89	-25.6	-27.1	15.3	0.00e+00	0	43	0	1221591040	11	4305
2026-01-01 03:29:46.60	231.63	10.72	-25.8	-27.6	14.9	0.00e+00	0	43	0	1232076800	11	4452
2026-01-01 03:29:48.61	231.51	10.55	-25.5	-26.9	15.4	0.00e+00	0	43	0	1243611136	11	4242
2026-01-01 03:29:50.62	231.39	10.38	-25.5	-27.0	15.3	0.00e+00	0	43	0	1255145472	11	4265
2026-01-01 03:29:52.62	231.28	10.21	-25.4	-27.4	15.4	2.35e-04	0	43	0	1266679808	10	4493
2026-01-01 03:29:54.63	231.17	10.05	-25.6	-27.1	15.2	1.05e-03	0	43	0	1278214144	11	4313
2026-01-01 03:29:56.63	231.05	9.88	-25.5	-27.0	15.3	1.19e-03	0	43	0	1288699904	11	4293
2026-01-01 03:29:58.63	230.94	9.71	-25.6	-27.2	15.1	3.32e-04	0	43	0	1300234240	11	4343
2026-01-01 03:30:00.62	230.83	9.55	-25.6	-27.3	15.0	1.32e-03	0	43	0	1311768576	11	4364
2026-01-01 03:30:02.63	230.73	9.39	-25.6	-27.3	15.0	1.39e-03	0	43	0	1322254336	11	4363
2026-01-01 03:30:04.64	230.62	9.23	-25.6	-27.2	15.1	3.11e-04	0	43	0	1333788672	11	4334
2026-01-01 03:30:06.65	230.51	9.06	-25.7	-27.5	14.9	1.37e-03	0	43	0	1345323008	11	4425
2026-01-01 03:30:08.66	230.41	8.90	-25.7	-27.4	15.0	1.32e-03	0	43	0	1356857344	11	4390
2026-01-01 03:30:10.67	230.30	8.74	-25.8	-27.6	14.8	3.75e-04	0	43	0	1368391680	11	4433
2026-01-01 03:30:12.68	230.20	8.58	-25.8	-27.7	14.8	1.53e-03	0	43	0	1378877440	11	4467
2026-01-01 03:30:14.67	230.10	8.43	-25.8	-27.7	14.7	3.40e-06	0	43	0	1390411776	11	4466
2026-01-01 03:30:16.67	230.00	8.27	-26.0	-27.7	14.3	0.00e+00	0	43	0	1401946112	12	4374
2026-01-01 03:30:18.68	229.90	8.12	-26.3	-28.3	14.0	1.10e-06	0	43	0	1413480448	12	4545
2026-01-01 03:30:20.69	229.80	7.96	-25.9	-27.5	14.5	1.60e-03	0	43	0	1423966208	12	4309
2026-01-01 03:30:22.70	229.71	7.81	-26.0	-27.8	14.3	2.67e-04	0	43	0	1435500544	12	4393
2026-01-01 03:30:24.71	229.61	7.65	-26.1	-28.0	14.1	2.20e-06	0	43	0	1447034880	12	4461
2026-01-01 03:30:26.71	229.51	7.50	-26.0	-28.1	14.4	1.10e-06	0	43	0	1458569216	11	4597
2026-01-01 03:30:28.73	229.42	7.35	-26.0	-27.8	14.3	2.20e-06	0	43	0	1470103552	12	4390
2026-01-01 03:30:30.73	229.33	7.20	-26.2	-28.1	14.0	2.20e-06	0	43	0	1480589312	12	4501
2026-01-01 03:30:32.74	229.24	7.05	-32.2	-42.9	3.8	7.16e-01	0	43	104	1490026496	24	12419
2026-01-01 03:30:34.74	229.15	6.90	-32.8	-44.1	3.8	8.46e-01	0	43	104	1490026496	25	13282

#Closed at: 2026-01-01 03:30:36
#Recorded file [1490 MB]: D:/data/31010_260101_062607.dat