passes_logs/2026/01/01/R2M6_AANII_01/R2M6_AANII_01__20260101_023841_NOAA_20_JPSS-1_rec.log

#Pass ID: 20260101_023841_NOAA 20 (JPSS-1)
#Satellite: NOAA 20 (JPSS-1)
#Configuration: NOAA 20
#almurnet v.1.7.20240730
#Start time: 2026-01-01 02:38:41

#Version: 2.2.20231116
#Station: R2M6_AANII_01
#Location: 30.233357 lon 59.946436 lat
#TLE: 1 43013U 17073A   25365.45761817  .00000173  00000+0  10307-3 0  9993
#TLE: 2 43013  98.7620 301.5517 0001951  60.3814 299.7557 14.19531661420675

#Time	Az	El	Level	Level2	SNR	BER	BlckErr	Temp	State	Recorded	gain1	gain2
2026-01-01 02:38:41.24	9.21	6.99	-31.7	-41.9	4.0	1.46e+00	0	40	0	0	23	11671
2026-01-01 02:38:44.25	8.89	7.17	-31.6	-40.6	4.3	1.40e+00	0	40	104	0	23	10141
2026-01-01 02:38:47.25	8.57	7.34	-31.6	-40.8	5.0	7.03e-01	0	40	0	3145728	23	10339
2026-01-01 02:38:50.25	8.25	7.52	-31.6	-40.4	5.2	7.09e-01	0	41	0	9437184	23	9843
2026-01-01 02:38:53.24	7.92	7.70	-31.2	-37.9	7.2	1.92e-01	0	41	0	14680064	22	7837
2026-01-01 02:38:56.25	7.58	7.87	-30.7	-36.1	9.1	2.86e-02	0	41	0	19922944	21	6713
2026-01-01 02:38:59.26	7.24	8.05	-30.4	-35.5	10.0	8.37e-03	0	41	0	26214400	20	6460
2026-01-01 02:39:02.27	6.90	8.23	-30.4	-35.7	9.8	9.77e-03	0	41	0	31457280	20	6571
2026-01-01 02:39:05.26	6.56	8.40	-30.4	-35.6	9.9	9.09e-03	0	41	0	37748736	20	6558
2026-01-01 02:39:08.27	6.21	8.58	-30.5	-35.3	9.8	1.03e-02	0	41	0	42991616	21	6267
2026-01-01 02:39:11.28	5.85	8.76	-30.6	-35.6	9.6	1.16e-02	0	41	0	48234496	21	6408
2026-01-01 02:39:14.29	5.49	8.94	-30.5	-35.3	9.9	9.65e-03	0	41	0	54525952	21	6236
2026-01-01 02:39:17.30	5.12	9.12	-30.3	-35.2	9.9	5.40e-03	0	41	0	59768832	20	6308
2026-01-01 02:39:20.32	4.75	9.30	-30.2	-34.7	10.0	2.82e-03	0	41	0	65011712	20	6057
2026-01-01 02:39:23.31	4.38	9.47	-30.1	-34.2	11.0	1.62e-03	0	42	0	71303168	20	5822
2026-01-01 02:39:26.32	4.00	9.65	-30.2	-34.6	10.9	1.91e-03	0	42	0	76546048	20	5972
2026-01-01 02:39:29.33	3.62	9.83	-30.0	-34.1	11.2	1.38e-03	0	41	0	82837504	20	5761
2026-01-01 02:39:32.34	3.23	10.01	-30.2	-34.7	10.8	5.96e-03	0	42	0	88080384	20	6017
2026-01-01 02:39:35.35	2.83	10.19	-30.0	-33.9	11.4	3.84e-03	0	42	0	93323264	20	5653
2026-01-01 02:39:38.36	2.44	10.37	-30.1	-34.1	11.3	1.29e-03	0	42	0	99614720	20	5754
2026-01-01 02:39:41.37	2.03	10.55	-30.0	-34.3	11.6	6.98e-04	0	42	0	104857600	19	5908
2026-01-01 02:39:44.38	1.62	10.73	-30.0	-34.3	11.7	5.80e-04	0	42	0	110100480	19	5892
2026-01-01 02:39:47.38	1.21	10.90	-30.0	-34.0	11.4	1.04e-03	0	42	0	116391936	20	5670
2026-01-01 02:39:50.38	0.79	11.08	-30.3	-34.7	10.9	5.11e-03	0	42	0	121634816	20	6034
2026-01-01 02:39:53.39	0.37	11.26	-30.2	-34.6	11.0	4.88e-03	0	42	0	127926272	20	5949
2026-01-01 02:39:56.40	359.94	11.44	-30.3	-34.8	10.9	5.18e-03	0	42	0	133169152	20	6062
2026-01-01 02:39:59.41	359.50	11.61	-30.0	-33.9	11.5	3.85e-03	0	42	0	138412032	20	5641
2026-01-01 02:40:02.42	359.06	11.79	-30.0	-34.1	11.9	3.10e-03	0	42	0	144703488	19	5817
2026-01-01 02:40:05.42	358.62	11.97	-29.9	-33.6	11.8	4.78e-04	0	42	0	149946368	20	5488
2026-01-01 02:40:08.43	358.17	12.14	-30.0	-33.8	11.6	3.43e-03	0	42	0	155189248	20	5588
2026-01-01 02:40:11.44	357.71	12.32	-30.1	-34.2	11.4	3.76e-03	0	42	0	161480704	20	5778
2026-01-01 02:40:14.45	357.25	12.50	-30.1	-34.1	11.5	3.85e-03	0	42	0	166723584	20	5686
2026-01-01 02:40:17.45	356.78	12.67	-30.2	-34.3	11.3	3.81e-03	0	42	0	173015040	20	5808
2026-01-01 02:40:20.45	356.31	12.84	-30.3	-34.8	11.0	4.28e-03	0	42	0	178257920	20	6012
2026-01-01 02:40:23.46	355.83	13.02	-30.3	-34.8	11.0	4.55e-03	0	42	0	183500800	20	6032
2026-01-01 02:40:26.47	355.34	13.19	-30.2	-34.3	11.3	1.06e-03	0	42	0	189792256	20	5804
2026-01-01 02:40:29.48	354.85	13.36	-30.2	-34.4	11.3	3.37e-03	0	42	0	195035136	20	5815
2026-01-01 02:40:32.48	354.36	13.53	-30.3	-34.8	11.0	4.15e-03	0	42	0	200278016	20	6021
2026-01-01 02:40:35.50	353.85	13.70	-30.3	-34.7	11.1	3.83e-03	0	42	0	206569472	20	5975
2026-01-01 02:40:38.50	353.34	13.87	-30.2	-34.2	11.5	2.95e-03	0	42	0	211812352	20	5722
2026-01-01 02:40:41.51	352.83	14.04	-30.3	-34.5	11.2	1.63e-03	0	43	0	218103808	20	5892
2026-01-01 02:40:44.52	352.31	14.20	-30.0	-34.0	12.1	2.69e-04	0	43	0	223346688	19	5724
2026-01-01 02:40:47.53	351.78	14.37	-29.8	-33.6	12.4	1.33e-04	0	42	0	228589568	19	5570
2026-01-01 02:40:50.53	351.25	14.53	-30.0	-33.6	12.0	3.58e-04	0	42	0	234881024	20	5466
2026-01-01 02:40:53.54	350.71	14.69	-29.9	-34.0	12.2	2.32e-04	0	42	0	240123904	19	5714
2026-01-01 02:40:56.56	350.17	14.85	-30.1	-33.9	11.7	3.06e-03	0	42	0	246415360	20	5604
2026-01-01 02:40:59.58	349.61	15.01	-29.9	-33.7	12.4	2.21e-04	0	43	0	251658240	19	5583
2026-01-01 02:41:02.59	349.06	15.17	-29.7	-33.2	12.7	6.86e-05	0	43	0	256901120	19	5374
2026-01-01 02:41:05.61	348.49	15.33	-29.6	-32.9	12.9	5.72e-05	0	43	0	263192576	19	5273
2026-01-01 02:41:08.61	347.93	15.48	-29.4	-32.3	13.3	2.82e-05	0	43	0	268435456	19	5038
2026-01-01 02:41:11.62	347.35	15.63	-28.9	-31.6	14.2	7.00e-07	0	43	0	273678336	18	4878
2026-01-01 02:41:14.63	346.77	15.78	-29.0	-32.1	14.1	0.00e+00	0	43	0	279969792	17	5198
2026-01-01 02:41:17.64	346.19	15.93	-29.1	-32.1	13.8	3.80e-06	0	42	0	285212672	18	5054
2026-01-01 02:41:20.65	345.59	16.08	-28.9	-32.0	14.1	1.50e-06	0	43	0	291504128	17	5143
2026-01-01 02:41:23.66	345.00	16.22	-28.9	-32.1	14.1	0.00e+00	0	43	0	296747008	17	5174
2026-01-01 02:41:26.67	344.39	16.36	-29.2	-32.2	13.7	6.10e-06	0	42	0	301989888	18	5104
2026-01-01 02:41:29.68	343.78	16.50	-29.1	-32.1	13.8	4.50e-06	0	43	0	308281344	18	5088
2026-01-01 02:41:32.69	343.17	16.63	-29.2	-32.3	13.7	6.10e-06	0	43	0	313524224	18	5153
2026-01-01 02:41:35.71	342.55	16.77	-29.4	-32.7	13.4	1.83e-05	0	43	0	319815680	18	5295
2026-01-01 02:41:38.71	341.92	16.90	-29.3	-32.5	13.6	2.56e-03	0	43	0	325058560	18	5213
2026-01-01 02:41:41.72	341.29	17.03	-29.2	-32.4	13.7	2.80e-03	0	43	0	330301440	18	5163
2026-01-01 02:41:44.72	340.65	17.15	-29.1	-32.0	13.9	2.67e-03	0	43	0	336592896	18	5027
2026-01-01 02:41:47.74	340.01	17.27	-29.0	-31.6	14.2	2.50e-03	0	43	0	341835776	18	4885
2026-01-01 02:41:50.74	339.36	17.39	-28.7	-31.4	14.6	2.74e-03	0	43	0	347078656	17	4928
2026-01-01 02:41:53.75	338.71	17.50	-28.8	-31.8	14.4	0.00e+00	0	43	0	353370112	17	5062
2026-01-01 02:41:56.76	338.05	17.62	-28.7	-31.5	14.6	2.46e-03	0	43	0	358612992	17	4964
2026-01-01 02:41:59.77	337.39	17.73	-28.6	-31.3	14.7	2.79e-03	0	43	0	364904448	17	4878
2026-01-01 02:42:02.78	336.72	17.83	-28.8	-31.7	14.4	2.52e-03	0	43	0	370147328	17	5034
2026-01-01 02:42:05.77	336.06	17.93	-28.6	-31.2	14.8	2.30e-03	0	43	0	375390208	17	4864
2026-01-01 02:42:08.78	335.38	18.03	-28.6	-31.3	14.7	2.67e-03	0	43	0	381681664	17	4882
2026-01-01 02:42:11.79	334.70	18.12	-28.8	-31.6	14.5	8.43e-04	0	43	0	386924544	17	5008
2026-01-01 02:42:14.80	334.01	18.21	-28.5	-31.0	14.9	0.00e+00	0	43	0	392167424	17	4783
2026-01-01 02:42:17.81	333.32	18.30	-28.4	-31.1	15.2	2.49e-03	0	43	0	398458880	16	4931
2026-01-01 02:42:20.82	332.63	18.38	-28.6	-31.1	14.9	2.39e-03	0	43	0	403701760	17	4800
2026-01-01 02:42:23.84	331.93	18.46	-28.7	-31.5	14.6	2.29e-03	0	43	0	409993216	17	4940
2026-01-01 02:42:26.86	331.23	18.53	-28.7	-31.5	14.6	2.48e-03	0	43	0	415236096	17	4937
2026-01-01 02:42:29.86	330.53	18.60	-28.9	-32.0	14.3	0.00e+00	0	43	0	420478976	17	5133
2026-01-01 02:42:32.87	329.82	18.67	-29.3	-32.5	13.7	9.10e-06	0	43	0	426770432	18	5199
2026-01-01 02:42:35.87	329.11	18.73	-29.4	-32.8	13.5	9.90e-06	0	43	0	432013312	18	5297
2026-01-01 02:42:38.87	328.40	18.79	-29.4	-32.7	13.5	7.60e-06	0	43	0	437256192	18	5289
2026-01-01 02:42:41.87	327.69	18.84	-29.5	-32.6	13.3	2.35e-03	0	43	0	443547648	19	5144
2026-01-01 02:42:44.88	326.97	18.88	-29.4	-32.3	13.5	2.56e-03	0	43	0	448790528	19	5008
2026-01-01 02:42:47.89	326.25	18.93	-29.4	-32.8	13.6	9.90e-06	0	43	0	455081984	18	5298
2026-01-01 02:42:50.89	325.53	18.97	-29.8	-33.3	12.9	2.74e-05	0	43	0	460324864	19	5391
2026-01-01 02:42:53.90	324.81	19.00	-29.7	-33.1	13.0	3.89e-05	0	43	0	465567744	19	5306
2026-01-01 02:42:56.91	324.08	19.03	-29.6	-32.8	13.1	2.97e-05	0	43	0	471859200	19	5222
2026-01-01 02:42:59.92	323.36	19.05	-29.6	-32.7	13.3	1.75e-05	0	43	0	477102080	19	5160
2026-01-01 02:43:02.93	322.63	19.07	-29.8	-33.4	12.8	5.11e-05	0	43	0	482344960	19	5448
2026-01-01 02:43:05.93	321.90	19.09	-29.9	-33.7	12.6	1.13e-04	0	43	0	488636416	19	5560
2026-01-01 02:43:08.94	321.17	19.10	-29.7	-33.2	12.9	6.63e-05	0	43	0	493879296	19	5350
2026-01-01 02:43:11.95	320.44	19.10	-29.7	-32.9	13.1	1.83e-05	0	43	0	500170752	19	5249
2026-01-01 02:43:14.95	319.72	19.10	-29.5	-32.5	13.4	2.13e-05	0	43	0	505413632	19	5073
2026-01-01 02:43:17.94	318.99	19.10	-29.5	-32.6	13.3	2.05e-05	0	43	0	510656512	19	5125
2026-01-01 02:43:20.95	318.26	19.09	-29.8	-33.5	12.7	5.03e-05	0	43	0	516947968	19	5486
2026-01-01 02:43:23.96	317.53	19.07	-29.6	-32.8	13.2	3.20e-05	0	43	0	522190848	19	5198
2026-01-01 02:43:26.97	316.81	19.05	-29.3	-32.5	13.7	8.21e-04	0	43	0	527433728	18	5196
2026-01-01 02:43:29.98	316.08	19.03	-29.6	-32.9	13.2	8.75e-04	0	43	0	533725184	19	5229
2026-01-01 02:43:33.00	315.35	19.00	-29.8	-33.3	12.9	1.22e-03	0	43	0	538968064	19	5380
2026-01-01 02:43:36.01	314.63	18.97	-29.3	-32.5	13.7	1.50e-06	0	43	0	545259520	18	5195
2026-01-01 02:43:39.02	313.91	18.93	-29.4	-32.7	13.6	6.80e-06	0	43	0	550502400	18	5280
2026-01-01 02:43:42.01	313.19	18.88	-28.9	-31.5	14.4	6.17e-05	0	43	0	555745280	18	4836
2026-01-01 02:43:45.03	312.47	18.84	-28.8	-31.8	14.4	4.78e-04	0	43	0	562036736	17	5049
2026-01-01 02:43:48.05	311.75	18.78	-29.0	-31.7	14.2	2.99e-04	0	43	0	567279616	18	4908
2026-01-01 02:43:51.06	311.04	18.73	-28.9	-31.5	14.4	2.51e-04	0	43	0	573571072	18	4829
2026-01-01 02:43:54.06	310.33	18.67	-29.0	-32.1	14.2	1.33e-04	0	43	0	578813952	17	5169
2026-01-01 02:43:57.06	309.62	18.60	-28.3	-30.4	15.3	1.06e-05	0	43	0	584056832	17	4593
2026-01-01 02:44:00.07	308.92	18.53	-28.5	-31.4	15.0	0.00e+00	0	43	0	590348288	16	5023
2026-01-01 02:44:03.09	308.21	18.46	-28.7	-31.5	14.6	7.00e-07	0	43	0	595591168	17	4940
2026-01-01 02:44:06.10	307.52	18.38	-28.5	-30.9	15.0	7.00e-07	0	43	0	601882624	17	4737
2026-01-01 02:44:09.11	306.82	18.30	-28.4	-31.2	15.1	7.40e-05	0	43	0	607125504	16	4944
2026-01-01 02:44:12.11	306.14	18.21	-28.8	-31.7	14.5	7.00e-07	0	43	0	612368384	17	5031
2026-01-01 02:44:15.12	305.45	18.12	-29.0	-32.1	14.2	7.00e-07	0	43	0	618659840	17	5184
2026-01-01 02:44:18.11	304.77	18.03	-29.0	-31.8	14.1	0.00e+00	0	43	0	623902720	18	4960
2026-01-01 02:44:21.13	304.09	17.93	-29.0	-31.8	14.1	3.80e-06	0	43	0	629145600	18	4932
2026-01-01 02:44:24.14	303.42	17.83	-29.0	-31.8	14.1	3.00e-06	0	43	0	635437056	18	4945
2026-01-01 02:44:27.14	302.75	17.72	-29.1	-32.0	13.9	1.01e-04	0	43	0	640679936	18	5023
2026-01-01 02:44:30.16	302.09	17.61	-29.3	-32.6	13.6	2.14e-04	0	43	0	646971392	18	5241
2026-01-01 02:44:33.16	301.43	17.50	-29.2	-32.3	13.7	1.91e-04	0	43	0	652214272	18	5139
2026-01-01 02:44:36.16	300.78	17.39	-29.3	-32.6	13.5	1.44e-05	0	43	0	657457152	18	5261
2026-01-01 02:44:39.16	300.13	17.27	-29.0	-31.9	14.0	4.50e-06	0	43	0	663748608	18	4980
2026-01-01 02:44:42.16	299.49	17.15	-29.2	-32.3	13.7	9.90e-06	0	43	0	668991488	18	5134
2026-01-01 02:44:45.17	298.85	17.02	-29.1	-32.0	13.9	5.30e-06	0	43	0	674234368	18	5037
2026-01-01 02:44:48.17	298.22	16.89	-29.1	-32.0	13.9	4.50e-06	0	43	0	680525824	18	5021
2026-01-01 02:44:51.18	297.59	16.76	-29.2	-32.3	13.7	8.05e-04	0	43	0	685768704	18	5146
2026-01-01 02:44:54.19	296.97	16.63	-29.3	-32.6	13.5	8.30e-06	0	43	0	692060160	18	5262
2026-01-01 02:44:57.20	296.35	16.49	-29.1	-31.9	14.0	5.30e-06	0	43	0	697303040	18	4998
2026-01-01 02:45:00.21	295.74	16.35	-29.2	-32.2	13.7	1.50e-06	0	43	0	702545920	18	5107
2026-01-01 02:45:03.21	295.14	16.21	-29.4	-32.8	13.3	1.67e-05	0	43	0	708837376	18	5338
2026-01-01 02:45:06.23	294.53	16.07	-29.6	-33.0	12.8	6.63e-05	0	43	0	714080256	19	5324
2026-01-01 02:45:09.25	293.94	15.92	-30.0	-33.7	12.5	3.96e-05	0	43	0	719323136	19	5482
2026-01-01 02:45:12.26	293.35	15.78	-29.5	-33.1	12.3	2.82e-05	0	43	0	725614592	18	5469
2026-01-01 02:45:15.27	292.77	15.62	-29.6	-33.1	12.4	2.62e-03	0	43	0	730857472	19	5348
2026-01-01 02:45:18.28	292.19	15.47	-29.5	-32.7	13.0	3.05e-05	0	43	0	737148928	19	5192
2026-01-01 02:45:21.29	291.62	15.32	-29.5	-32.8	12.9	3.12e-05	0	43	0	742391808	19	5223
2026-01-01 02:45:24.29	291.06	15.16	-29.6	-32.9	12.8	4.27e-05	0	43	0	747634688	19	5292
2026-01-01 02:45:27.31	290.50	15.00	-29.6	-33.0	12.8	5.87e-05	0	43	0	753926144	19	5319
2026-01-01 02:45:30.31	289.95	14.85	-29.8	-33.7	12.3	1.46e-04	0	43	0	759169024	19	5602
2026-01-01 02:45:33.32	289.40	14.68	-29.9	-33.9	12.1	2.80e-04	0	43	0	764411904	19	5718
2026-01-01 02:45:36.33	288.86	14.52	-29.9	-33.9	12.1	3.47e-03	0	43	0	770703360	19	5694
2026-01-01 02:45:39.34	288.33	14.36	-29.8	-33.5	12.3	2.89e-03	0	43	0	775946240	19	5547
2026-01-01 02:45:42.36	287.80	14.19	-30.0	-33.6	11.8	2.66e-03	0	43	0	782237696	20	5485
2026-01-01 02:45:45.37	287.27	14.03	-30.1	-34.3	11.4	8.51e-04	0	43	0	787480576	20	5779
2026-01-01 02:45:48.38	286.76	13.86	-30.2	-34.5	11.1	1.58e-03	0	43	0	792723456	20	5916
2026-01-01 02:45:51.38	286.25	13.69	-30.1	-34.0	11.5	2.43e-03	0	43	0	799014912	20	5674
2026-01-01 02:45:54.40	285.74	13.52	-30.3	-34.7	11.0	5.17e-03	0	43	0	804257792	20	5988
2026-01-01 02:45:57.41	285.24	13.35	-30.1	-34.3	11.3	4.54e-03	0	43	0	810549248	20	5808
2026-01-01 02:46:00.41	284.75	13.18	-30.0	-33.9	11.5	3.79e-03	0	43	0	815792128	20	5633
2026-01-01 02:46:03.42	284.26	13.00	-29.9	-34.0	11.9	3.67e-03	0	43	0	821035008	19	5767
2026-01-01 02:46:06.42	283.78	12.83	-30.2	-34.4	11.2	3.99e-03	0	43	0	827326464	20	5847
2026-01-01 02:46:09.44	283.31	12.66	-30.3	-34.8	10.8	2.39e-03	0	43	0	832569344	20	6070
2026-01-01 02:46:12.43	282.84	12.48	-30.3	-35.0	10.7	6.31e-03	0	43	0	837812224	20	6145
2026-01-01 02:46:15.45	282.37	12.30	-29.9	-33.7	11.7	4.06e-03	0	43	0	844103680	20	5523
2026-01-01 02:46:18.46	281.91	12.13	-29.8	-33.7	12.1	2.94e-03	0	43	0	849346560	19	5619
2026-01-01 02:46:21.46	281.46	11.95	-29.9	-34.1	11.8	3.46e-03	0	43	0	855638016	19	5832
2026-01-01 02:46:24.47	281.01	11.78	-29.7	-33.5	12.1	3.30e-03	0	43	0	860880896	19	5560
2026-01-01 02:46:27.48	280.57	11.60	-29.8	-33.7	12.0	3.81e-04	0	43	0	866123776	19	5641
2026-01-01 02:46:30.50	280.13	11.42	-29.6	-33.1	12.4	1.33e-04	0	43	0	872415232	19	5406
2026-01-01 02:46:33.50	279.70	11.24	-29.7	-33.4	12.2	2.88e-04	0	43	0	877658112	19	5543
2026-01-01 02:46:36.52	279.27	11.06	-29.5	-33.3	12.6	1.03e-04	0	43	0	882900992	18	5592
2026-01-01 02:46:39.53	278.85	10.88	-29.5	-33.3	12.6	2.97e-03	0	43	0	889192448	18	5588
2026-01-01 02:46:42.53	278.44	10.71	-29.5	-33.4	12.5	2.93e-03	0	43	0	894435328	18	5637
2026-01-01 02:46:45.54	278.03	10.53	-29.4	-32.7	12.6	1.50e-04	0	43	0	900726784	19	5243
2026-01-01 02:46:48.54	277.62	10.35	-29.3	-33.0	12.8	8.01e-05	0	43	0	905969664	18	5464
2026-01-01 02:46:51.55	277.22	10.17	-29.3	-32.8	12.9	6.02e-05	0	43	0	911212544	18	5382
2026-01-01 02:46:54.56	276.83	9.99	-29.3	-32.7	12.9	4.19e-05	0	43	0	917504000	18	5379
2026-01-01 02:46:57.56	276.44	9.81	-29.0	-32.1	13.3	2.21e-05	0	43	0	922746880	18	5142
2026-01-01 02:47:00.56	276.05	9.63	-29.1	-32.3	13.2	2.67e-05	0	43	0	927989760	18	5195
2026-01-01 02:47:03.56	275.67	9.45	-29.2	-32.7	12.8	2.74e-05	0	43	0	934281216	18	5374
2026-01-01 02:47:06.57	275.29	9.27	-29.3	-32.9	12.7	9.38e-05	0	43	0	939524096	18	5444
2026-01-01 02:47:09.57	274.92	9.10	-29.3	-33.0	12.6	5.79e-05	0	43	0	945815552	18	5496
2026-01-01 02:47:12.56	274.56	8.92	-29.3	-32.9	12.6	8.01e-05	0	43	0	951058432	18	5471
2026-01-01 02:47:15.56	274.20	8.74	-29.4	-33.3	12.3	1.74e-04	0	43	0	956301312	18	5636
2026-01-01 02:47:18.58	273.84	8.56	-29.5	-33.0	12.2	2.53e-04	0	43	0	962592768	19	5379
2026-01-01 02:47:21.60	273.48	8.38	-29.7	-33.7	10.4	4.58e-04	0	43	0	967835648	19	5695
2026-01-01 02:47:24.60	273.13	8.20	-29.5	-33.1	11.8	5.05e-04	0	43	0	973078528	19	5474
2026-01-01 02:47:27.61	272.79	8.03	-29.4	-33.5	12.1	1.84e-04	0	43	0	979369984	18	5727
2026-01-01 02:47:30.62	272.45	7.85	-29.7	-33.7	11.5	5.70e-04	0	43	0	984612864	19	5734
2026-01-01 02:47:33.63	272.11	7.67	-29.5	-33.6	11.9	4.24e-04	0	43	0	990904320	18	5797
2026-01-01 02:47:36.64	271.78	7.49	-29.8	-34.2	11.1	1.40e-03	0	43	0	996147200	19	5965
2026-01-01 02:47:39.66	271.45	7.32	-29.7	-33.7	11.5	1.25e-03	0	43	0	1001390080	19	5724
2026-01-01 02:47:42.67	271.12	7.14	-29.8	-34.1	11.2	1.80e-03	0	43	0	1007681536	19	5923

#Closed at: 2026-01-01 02:47:45
#Recorded file [1010 MB]: D:/data/31010_260101_053845.dat