passes_logs/2025/01/23/LEX_Murmansk/LEX_Murmansk__20250123_154142_NOAA_19_rec.log

#Pass ID: 20250123_154142_NOAA 19
#Satellite: NOAA 19
#Configuration: NOAA 19
#Start time: 2025-01-23 15:41:37.457767

#LorettStation: 1.0.0 05.05.2024
#Station: LEX_Murmansk
#Location: 33.156738 lon 68.926811 lat
#TLE: 1 33591U 09005A   25023.14581638  .00000359  00000+0  21554-3 0  9999
#TLE: 2 33591  99.0183  86.9707 0014184  35.5055 324.7058 14.13266334822690

#Time	Az	El	Level	SNR
2025-01-23 15:41:49.742076	92.6	16.2	-89.8	7.3
2025-01-23 15:41:50.903918	92.5	16.3	-89.7	4.2
2025-01-23 15:41:52.062649	92.4	16.4	-89.5	5.2
2025-01-23 15:41:53.233317	92.2	16.5	-89.5	4.8
2025-01-23 15:41:54.402264	92.1	16.6	-89.9	5.9
2025-01-23 15:41:55.562191	91.9	16.7	-90.2	3.6
2025-01-23 15:41:56.722372	91.8	16.8	-90.0	10.4
2025-01-23 15:41:57.880801	91.7	16.9	-89.9	5.7
2025-01-23 15:41:59.039655	91.5	17.1	-89.9	4.7
2025-01-23 15:42:00.197305	91.4	17.2	-90.0	1.0
2025-01-23 15:42:01.365313	91.3	17.3	-90.3	1.5
2025-01-23 15:42:02.525713	91.1	17.4	-90.3	1.6
2025-01-23 15:42:03.688681	91.0	17.5	-90.1	3.4
2025-01-23 15:42:04.850059	90.8	17.6	-90.0	5.8
2025-01-23 15:42:06.011878	90.7	17.7	-89.9	6.1
2025-01-23 15:42:07.180144	90.5	17.9	-89.6	6.1
2025-01-23 15:42:08.336867	90.4	18.0	-89.7	5.1
2025-01-23 15:42:09.496467	90.3	18.1	-89.7	6.2
2025-01-23 15:42:10.655236	90.1	18.2	-89.9	2.9
2025-01-23 15:42:11.816322	90.0	18.3	-89.5	3.9
2025-01-23 15:42:12.974069	89.8	18.4	-89.7	5.9
2025-01-23 15:42:14.134488	89.6	18.6	-89.7	6.6
2025-01-23 15:42:15.295418	89.5	18.7	-89.9	4.0
2025-01-23 15:42:16.458460	89.3	18.8	-89.8	6.7
2025-01-23 15:42:17.618596	89.2	18.9	-89.8	5.0
2025-01-23 15:42:18.785710	89.0	19.0	-89.9	0.7
2025-01-23 15:42:19.945187	88.9	19.2	-90.4	3.2
2025-01-23 15:42:21.106149	88.7	19.3	-90.0	3.0
2025-01-23 15:42:22.275104	88.5	19.4	-89.9	3.9
2025-01-23 15:42:23.435923	88.4	19.5	-90.3	5.8
2025-01-23 15:42:24.598333	88.2	19.6	-90.1	10.9
2025-01-23 15:42:25.756802	88.1	19.8	-90.2	10.9
2025-01-23 15:42:26.918226	87.9	19.9	-90.0	10.0
2025-01-23 15:42:28.090882	87.7	20.0	-90.1	3.5
2025-01-23 15:42:29.255430	87.6	20.1	-89.4	5.4
2025-01-23 15:42:30.417104	87.4	20.2	-89.8	6.7
2025-01-23 15:42:31.581271	87.2	20.4	-89.1	6.0
2025-01-23 15:42:32.735057	87.0	20.5	-89.2	6.1
2025-01-23 15:42:33.898982	86.9	20.6	-89.8	8.2
2025-01-23 15:42:35.070136	86.7	20.7	-89.5	5.2
2025-01-23 15:42:36.223716	86.5	20.9	-89.1	2.2
2025-01-23 15:42:37.393023	86.3	21.0	-89.1	1.5
2025-01-23 15:42:38.553405	86.1	21.1	-90.5	1.9
2025-01-23 15:42:39.712597	86.0	21.2	-90.1	2.2
2025-01-23 15:42:40.867624	85.8	21.4	-90.1	5.1
2025-01-23 15:42:42.032283	85.6	21.5	-89.9	7.3
2025-01-23 15:42:43.193706	85.4	21.6	-89.4	9.5
2025-01-23 15:42:44.350923	85.2	21.7	-90.0	12.7
2025-01-23 15:42:45.513034	85.0	21.9	-89.8	8.3
2025-01-23 15:42:46.679915	84.8	22.0	-90.2	7.0
2025-01-23 15:42:47.842374	84.7	22.1	-90.1	2.7
2025-01-23 15:42:49.006575	84.5	22.2	-90.3	9.3
2025-01-23 15:42:50.164316	84.3	22.4	-90.0	2.4
2025-01-23 15:42:51.325000	84.1	22.5	-89.8	4.9
2025-01-23 15:42:52.497913	83.9	22.6	-90.5	8.2
2025-01-23 15:42:53.662249	83.7	22.8	-90.2	4.2
2025-01-23 15:42:54.833553	83.5	22.9	-90.2	3.6
2025-01-23 15:42:55.998717	83.3	23.0	-90.0	3.0
2025-01-23 15:42:57.160884	83.0	23.1	-90.2	1.0
2025-01-23 15:42:58.323447	82.8	23.3	-90.7	2.7
2025-01-23 15:42:59.477668	82.6	23.4	-90.3	3.2
2025-01-23 15:43:00.634227	82.4	23.5	-89.9	1.8
2025-01-23 15:43:01.791290	82.2	23.7	-90.2	4.0
2025-01-23 15:43:02.953310	82.0	23.8	-90.0	4.6
2025-01-23 15:43:04.112202	81.8	23.9	-90.2	6.6
2025-01-23 15:43:05.272240	81.6	24.1	-90.1	4.8
2025-01-23 15:43:06.438991	81.3	24.2	-90.4	4.8
2025-01-23 15:43:07.604325	81.1	24.3	-90.1	3.2
2025-01-23 15:43:08.762955	80.9	24.5	-90.2	3.9
2025-01-23 15:43:09.926076	80.7	24.6	-90.0	5.5
2025-01-23 15:43:11.089799	80.4	24.7	-89.8	6.5
2025-01-23 15:43:12.257815	80.2	24.8	-89.8	9.9
2025-01-23 15:43:13.421200	80.0	25.0	-89.7	6.2
2025-01-23 15:43:14.581695	79.7	25.1	-90.6	5.0
2025-01-23 15:43:15.750418	79.5	25.2	-90.6	2.5
2025-01-23 15:43:16.906084	79.3	25.4	-90.6	1.0
2025-01-23 15:43:18.072633	79.0	25.5	-90.3	1.8
2025-01-23 15:43:19.233038	78.8	25.6	-90.1	3.0
2025-01-23 15:43:20.392301	78.6	25.8	-90.1	2.8
2025-01-23 15:43:21.547219	78.3	25.9	-90.2	1.9
2025-01-23 15:43:22.722328	78.1	26.0	-90.3	3.4
2025-01-23 15:43:23.987254	77.8	26.2	-90.3	4.3
2025-01-23 15:43:25.157115	77.5	26.3	-90.2	4.0
2025-01-23 15:43:26.318053	77.3	26.4	-90.3	2.4
2025-01-23 15:43:27.489001	77.0	26.6	-90.5	1.7
2025-01-23 15:43:28.643507	76.8	26.7	-90.3	0.6
2025-01-23 15:43:29.800101	76.5	26.8	-90.4	2.8
2025-01-23 15:43:30.968178	76.2	27.0	-90.5	3.5
2025-01-23 15:43:32.123822	76.0	27.1	-90.0	3.8
2025-01-23 15:43:33.291656	75.7	27.2	-90.7	2.8
2025-01-23 15:43:34.457899	75.4	27.4	-90.7	4.0
2025-01-23 15:43:35.620596	75.2	27.5	-90.7	1.1
2025-01-23 15:43:36.787219	74.9	27.6	-90.7	3.7
2025-01-23 15:43:37.947938	74.6	27.8	-90.3	2.8
2025-01-23 15:43:39.113919	74.3	27.9	-89.7	4.0
2025-01-23 15:43:40.273533	74.1	28.0	-90.1	2.7
2025-01-23 15:43:41.435006	73.8	28.2	-90.2	2.8
2025-01-23 15:43:42.600887	73.5	28.3	-90.7	3.2
2025-01-23 15:43:43.760570	73.2	28.4	-90.5	2.6
2025-01-23 15:43:44.921439	72.9	28.6	-90.1	4.3
2025-01-23 15:43:46.081749	72.6	28.7	-90.4	6.1
2025-01-23 15:43:47.239618	72.3	28.8	-90.1	7.2
2025-01-23 15:43:48.415547	72.0	29.0	-90.3	4.4
2025-01-23 15:43:49.584469	71.7	29.1	-90.3	4.3
2025-01-23 15:43:50.747076	71.4	29.2	-90.4	4.0
2025-01-23 15:43:51.905066	71.1	29.3	-90.3	5.2
2025-01-23 15:43:53.063758	70.8	29.5	-90.1	4.9
2025-01-23 15:43:54.230261	70.5	29.6	-90.2	5.8
2025-01-23 15:43:55.390572	70.2	29.7	-89.8	8.0
2025-01-23 15:43:56.555636	69.9	29.9	-89.2	9.0
2025-01-23 15:43:57.716271	69.5	30.0	-89.3	12.1
2025-01-23 15:43:58.871388	69.2	30.1	-89.4	10.6
2025-01-23 15:44:00.030810	68.9	30.2	-89.4	7.9
2025-01-23 15:44:01.181856	68.6	30.4	-88.4	2.0
2025-01-23 15:44:02.348035	68.3	30.5	-89.6	1.0
2025-01-23 15:44:03.519839	67.9	30.6	-88.7	3.3
2025-01-23 15:44:04.678697	67.6	30.7	-89.5	3.4
2025-01-23 15:44:05.845268	67.3	30.9	-90.4	2.2
2025-01-23 15:44:07.015453	66.9	31.0	-89.5	4.3
2025-01-23 15:44:08.178660	66.6	31.1	-89.2	8.1
2025-01-23 15:44:09.344715	66.2	31.2	-89.6	8.3
2025-01-23 15:44:10.503559	65.9	31.4	-90.3	13.8
2025-01-23 15:44:11.677817	65.5	31.5	-90.0	15.6
2025-01-23 15:44:12.854794	65.2	31.6	-90.0	14.1
2025-01-23 15:44:14.018805	64.8	31.7	-89.9	12.8
2025-01-23 15:44:15.181279	64.5	31.8	-90.0	8.4
2025-01-23 15:44:16.347436	64.1	32.0	-89.8	5.5
2025-01-23 15:44:17.508476	63.7	32.1	-89.8	9.5
2025-01-23 15:44:18.676313	63.4	32.2	-89.8	5.7
2025-01-23 15:44:19.834423	63.0	32.3	-89.8	6.7
2025-01-23 15:44:20.994751	62.7	32.4	-90.3	13.3
2025-01-23 15:44:22.157171	62.3	32.5	-90.3	11.1
2025-01-23 15:44:23.323701	61.9	32.7	-90.5	15.1
2025-01-23 15:44:24.484495	61.5	32.8	-90.7	17.2
2025-01-23 15:44:25.650241	61.1	32.9	-89.9	19.2
2025-01-23 15:44:26.807932	60.8	33.0	-90.3	10.1
2025-01-23 15:44:27.970901	60.4	33.1	-90.5	11.0
2025-01-23 15:44:29.135583	60.0	33.2	-90.5	12.5
2025-01-23 15:44:30.292668	59.6	33.3	-90.5	6.1
2025-01-23 15:44:31.453163	59.2	33.4	-90.5	4.5
2025-01-23 15:44:32.616099	58.8	33.5	-90.3	9.1
2025-01-23 15:44:33.778640	58.4	33.6	-90.5	2.2
2025-01-23 15:44:34.938135	58.0	33.7	-90.8	5.8
2025-01-23 15:44:36.099212	57.6	33.8	-90.6	8.4
2025-01-23 15:44:37.256790	57.2	33.9	-90.5	7.7
2025-01-23 15:44:38.421713	56.8	34.0	-90.0	9.0
2025-01-23 15:44:39.581829	56.4	34.1	-90.6	12.9
2025-01-23 15:44:40.744188	56.0	34.2	-90.1	11.1
2025-01-23 15:44:41.907389	55.6	34.3	-90.2	9.1
2025-01-23 15:44:43.070608	55.2	34.4	-90.4	15.4
2025-01-23 15:44:44.233801	54.7	34.5	-90.5	12.8
2025-01-23 15:44:45.395261	54.3	34.6	-90.4	14.4
2025-01-23 15:44:46.561233	53.9	34.7	-90.1	14.8
2025-01-23 15:44:47.722566	53.5	34.7	-90.4	7.7
2025-01-23 15:44:48.884815	53.0	34.8	-90.0	9.4
2025-01-23 15:44:50.035383	52.6	34.9	-90.4	10.6
2025-01-23 15:44:51.203245	52.2	35.0	-90.5	5.9
2025-01-23 15:44:52.365950	51.7	35.1	-90.2	8.0
2025-01-23 15:44:53.530309	51.3	35.1	-90.5	10.9
2025-01-23 15:44:54.691494	50.9	35.2	-90.2	10.6
2025-01-23 15:44:55.857441	50.4	35.3	-89.9	9.5
2025-01-23 15:44:57.037159	50.0	35.4	-89.6	14.4
2025-01-23 15:44:58.198958	49.5	35.4	-89.8	14.9
2025-01-23 15:44:59.365488	49.1	35.5	-90.0	14.1
2025-01-23 15:45:00.521962	48.6	35.6	-90.2	11.7
2025-01-23 15:45:01.671909	48.2	35.6	-90.4	13.0
2025-01-23 15:45:02.834225	47.7	35.7	-90.4	11.6
2025-01-23 15:45:03.999514	47.3	35.8	-90.0	13.1
2025-01-23 15:45:05.158125	46.8	35.8	-90.0	9.1
2025-01-23 15:45:06.318369	46.4	35.9	-90.0	7.1
2025-01-23 15:45:07.485767	45.9	35.9	-90.3	5.2
2025-01-23 15:45:08.645970	45.5	36.0	-90.5	5.4
2025-01-23 15:45:09.805314	45.0	36.0	-90.4	3.4
2025-01-23 15:45:10.965362	44.5	36.1	-90.4	5.1
2025-01-23 15:45:12.132418	44.1	36.1	-90.7	4.6
2025-01-23 15:45:13.283897	43.6	36.2	-90.1	2.6
2025-01-23 15:45:14.453019	43.1	36.2	-90.1	6.5
2025-01-23 15:45:15.614143	42.7	36.3	-90.3	6.6
2025-01-23 15:45:16.779537	42.2	36.3	-90.6	5.4
2025-01-23 15:45:17.938973	41.7	36.3	-90.4	7.3
2025-01-23 15:45:19.109950	41.2	36.4	-90.4	8.8
2025-01-23 15:45:20.270914	40.8	36.4	-90.2	8.8
2025-01-23 15:45:21.437260	40.3	36.4	-90.5	12.6
2025-01-23 15:45:22.605771	39.8	36.5	-90.5	13.8
2025-01-23 15:45:23.770078	39.4	36.5	-90.7	14.6
2025-01-23 15:45:24.938249	38.9	36.5	-90.6	11.6
2025-01-23 15:45:26.101632	38.4	36.5	-90.1	9.0
2025-01-23 15:45:27.268910	37.9	36.5	-90.4	12.2
2025-01-23 15:45:28.430521	37.4	36.6	-89.9	13.7
2025-01-23 15:45:29.594590	37.0	36.6	-90.3	15.1
2025-01-23 15:45:30.758300	36.5	36.6	-90.0	11.0
2025-01-23 15:45:31.915535	36.0	36.6	-90.3	9.7
2025-01-23 15:45:33.075504	35.5	36.6	-90.5	9.9
2025-01-23 15:45:34.239612	35.1	36.6	-90.5	8.4
2025-01-23 15:45:35.399861	34.6	36.6	-90.4	9.3
2025-01-23 15:45:36.561896	34.1	36.6	-90.7	7.1
2025-01-23 15:45:37.721534	33.6	36.6	-90.6	5.3
2025-01-23 15:45:38.881970	33.1	36.6	-90.8	7.5
2025-01-23 15:45:40.042396	32.7	36.6	-90.3	6.4
2025-01-23 15:45:41.200483	32.2	36.6	-90.4	4.5
2025-01-23 15:45:42.367728	31.7	36.6	-90.5	7.4
2025-01-23 15:45:43.529527	31.2	36.6	-90.5	7.8
2025-01-23 15:45:44.690803	30.8	36.6	-90.4	4.3
2025-01-23 15:45:45.855936	30.3	36.5	-90.0	4.7
2025-01-23 15:45:47.018445	29.8	36.5	-90.0	7.7
2025-01-23 15:45:48.185766	29.3	36.5	-90.1	4.9
2025-01-23 15:45:49.351571	28.8	36.5	-90.5	4.3
2025-01-23 15:45:50.509863	28.4	36.4	-90.2	5.4
2025-01-23 15:45:51.671336	27.9	36.4	-90.2	5.1
2025-01-23 15:45:52.829315	27.4	36.4	-90.5	6.4
2025-01-23 15:45:53.994781	27.0	36.3	-90.4	7.6
2025-01-23 15:45:55.155530	26.5	36.3	-90.3	9.4
2025-01-23 15:45:56.317610	26.0	36.3	-90.0	6.5
2025-01-23 15:45:57.481703	25.6	36.2	-90.6	9.2
2025-01-23 15:45:58.639705	25.1	36.2	-90.3	7.7
2025-01-23 15:45:59.807101	24.6	36.1	-90.5	5.2
2025-01-23 15:46:00.964855	24.2	36.1	-90.2	9.5
2025-01-23 15:46:02.127302	23.7	36.1	-90.1	9.6
2025-01-23 15:46:03.289218	23.2	36.0	-90.2	5.6
2025-01-23 15:46:04.450133	22.8	35.9	-90.6	7.6
2025-01-23 15:46:05.611907	22.3	35.9	-90.8	9.5
2025-01-23 15:46:06.774655	21.9	35.8	-90.6	9.9
2025-01-23 15:46:07.939154	21.4	35.8	-90.3	7.2
2025-01-23 15:46:09.105994	21.0	35.7	-89.6	11.3
2025-01-23 15:46:10.265888	20.5	35.7	-90.2	8.7
2025-01-23 15:46:11.431003	20.1	35.6	-90.6	9.6
2025-01-23 15:46:12.589677	19.6	35.5	-90.4	11.6
2025-01-23 15:46:13.748428	19.2	35.5	-90.7	9.7
2025-01-23 15:46:14.909398	18.7	35.4	-90.8	9.3
2025-01-23 15:46:16.074621	18.3	35.3	-90.3	10.8
2025-01-23 15:46:17.237263	17.8	35.2	-90.3	7.3
2025-01-23 15:46:18.401796	17.4	35.2	-90.3	9.2
2025-01-23 15:46:19.566807	17.0	35.1	-90.3	12.2
2025-01-23 15:46:20.729743	16.5	35.0	-90.8	13.3
2025-01-23 15:46:21.850821	16.1	34.9	-90.7	12.9
2025-01-23 15:46:22.972039	15.7	34.9	-90.8	11.3
2025-01-23 15:46:24.092748	15.3	34.8	-90.2	11.8
2025-01-23 15:46:25.213565	14.9	34.7	-90.4	9.7
2025-01-23 15:46:26.332772	14.5	34.6	-90.3	12.0
2025-01-23 15:46:27.454655	14.1	34.5	-90.6	11.7
2025-01-23 15:46:28.574731	13.6	34.4	-90.8	13.3
2025-01-23 15:46:29.700615	13.2	34.4	-90.2	9.4
2025-01-23 15:46:30.842597	12.8	34.3	-90.7	9.7
2025-01-23 15:46:32.003866	12.4	34.2	-90.4	12.5
2025-01-23 15:46:33.166284	12.0	34.1	-90.8	11.9
2025-01-23 15:46:34.330085	11.6	34.0	-90.5	7.0
2025-01-23 15:46:35.499423	11.2	33.9	-90.5	10.7
2025-01-23 15:46:36.660478	10.8	33.8	-90.3	9.0
2025-01-23 15:46:37.826236	10.4	33.7	-90.8	9.8
2025-01-23 15:46:38.985636	10.0	33.6	-90.3	9.8
2025-01-23 15:46:40.142961	9.6	33.5	-90.4	8.7
2025-01-23 15:46:41.311235	9.2	33.4	-90.4	7.7
2025-01-23 15:46:42.473675	8.8	33.3	-90.6	8.3
2025-01-23 15:46:43.635599	8.4	33.2	-89.7	7.5
2025-01-23 15:46:44.797441	8.1	33.1	-90.1	5.3
2025-01-23 15:46:45.962350	7.7	32.9	-90.8	6.9
2025-01-23 15:46:47.125581	7.3	32.8	-90.4	9.2
2025-01-23 15:46:48.285464	6.9	32.7	-90.4	3.9
2025-01-23 15:46:49.449955	6.5	32.6	-90.4	6.0
2025-01-23 15:46:50.610164	6.2	32.5	-90.6	7.3
2025-01-23 15:46:51.769384	5.8	32.4	-90.3	1.8
2025-01-23 15:46:52.937138	5.4	32.3	-90.5	3.2
2025-01-23 15:46:54.094861	5.1	32.2	-90.6	5.4
2025-01-23 15:46:55.255816	4.7	32.0	-89.9	2.3
2025-01-23 15:46:56.419004	4.3	31.9	-90.3	2.5
2025-01-23 15:46:57.578393	4.0	31.8	-90.3	4.6
2025-01-23 15:46:58.738844	3.6	31.7	-89.8	2.8
2025-01-23 15:46:59.904460	3.3	31.6	-90.1	3.9
2025-01-23 15:47:01.060400	2.9	31.4	-89.7	6.1
2025-01-23 15:47:02.224642	2.6	31.3	-90.0	2.8
2025-01-23 15:47:03.381463	2.3	31.2	-90.4	4.7
2025-01-23 15:47:04.541740	1.9	31.1	-90.0	3.9
2025-01-23 15:47:05.700165	1.6	31.0	-89.9	3.6
2025-01-23 15:47:06.860256	1.2	30.8	-90.4	5.1
2025-01-23 15:47:08.027948	0.9	30.7	-90.5	6.8
2025-01-23 15:47:09.187899	0.6	30.6	-90.6	4.9
2025-01-23 15:47:10.360381	0.2	30.5	-90.6	7.1
2025-01-23 15:47:11.536905	359.9	30.3	-90.5	7.4
2025-01-23 15:47:12.698977	359.6	30.2	-90.4	5.2
2025-01-23 15:47:13.865011	359.3	30.1	-90.6	5.9
2025-01-23 15:47:15.030790	359.0	30.0	-90.5	4.2
2025-01-23 15:47:16.201982	358.6	29.8	-90.4	3.9
2025-01-23 15:47:17.359680	358.3	29.7	-90.6	6.4
2025-01-23 15:47:18.523316	358.0	29.6	-90.2	4.9
2025-01-23 15:47:19.690075	357.7	29.4	-90.9	7.5
2025-01-23 15:47:20.847227	357.4	29.3	-90.6	6.6
2025-01-23 15:47:22.018138	357.1	29.2	-90.7	9.4
2025-01-23 15:47:23.188023	356.8	29.1	-90.5	4.2
2025-01-23 15:47:24.347621	356.5	28.9	-90.8	5.5
2025-01-23 15:47:25.512025	356.2	28.8	-90.3	7.2
2025-01-23 15:47:26.670510	355.9	28.7	-90.5	3.7
2025-01-23 15:47:27.841219	355.6	28.5	-90.7	2.1
2025-01-23 15:47:29.003313	355.3	28.4	-90.5	6.1
2025-01-23 15:47:30.164511	355.0	28.3	-90.1	4.1
2025-01-23 15:47:31.327427	354.8	28.1	-90.5	4.2
2025-01-23 15:47:32.487937	354.5	28.0	-90.6	3.7
2025-01-23 15:47:33.655463	354.2	27.9	-89.9	4.6
2025-01-23 15:47:34.821938	353.9	27.7	-89.9	3.9
2025-01-23 15:47:35.986699	353.7	27.6	-89.9	4.3
2025-01-23 15:47:37.143725	353.4	27.5	-90.2	5.7
2025-01-23 15:47:38.300195	353.1	27.4	-90.3	5.9
2025-01-23 15:47:39.461497	352.8	27.2	-90.5	4.8
2025-01-23 15:47:40.623773	352.6	27.1	-90.6	7.1
2025-01-23 15:47:41.787836	352.3	27.0	-90.6	6.1
2025-01-23 15:47:42.946794	352.1	26.8	-90.5	5.6
2025-01-23 15:47:44.112043	351.8	26.7	-90.2	9.7
2025-01-23 15:47:45.275804	351.5	26.6	-90.3	6.4
2025-01-23 15:47:46.444762	351.3	26.4	-90.5	8.4
2025-01-23 15:47:47.609658	351.0	26.3	-90.5	9.9
2025-01-23 15:47:48.767983	350.8	26.2	-90.2	10.0
2025-01-23 15:47:49.932939	350.5	26.0	-90.1	9.9
2025-01-23 15:47:51.101815	350.3	25.9	-88.9	9.2
2025-01-23 15:47:52.269000	350.0	25.8	-90.1	6.3
2025-01-23 15:47:53.432760	349.8	25.6	-89.9	6.8
2025-01-23 15:47:54.604332	349.6	25.5	-90.6	6.9
2025-01-23 15:47:55.763341	349.3	25.4	-90.7	3.7
2025-01-23 15:47:56.923157	349.1	25.2	-90.7	5.0
2025-01-23 15:47:58.084121	348.9	25.1	-90.5	5.4
2025-01-23 15:47:59.247442	348.6	25.0	-90.4	3.8
2025-01-23 15:48:00.402912	348.4	24.8	-90.4	3.5
2025-01-23 15:48:01.559091	348.2	24.7	-90.8	5.8
2025-01-23 15:48:02.720340	347.9	24.6	-90.7	1.4
2025-01-23 15:48:03.876316	347.7	24.5	-90.3	5.0
2025-01-23 15:48:05.036500	347.5	24.3	-90.6	7.2
2025-01-23 15:48:06.199497	347.3	24.2	-89.9	6.9
2025-01-23 15:48:07.356885	347.1	24.1	-90.3	8.1
2025-01-23 15:48:08.523158	346.8	23.9	-90.1	11.4
2025-01-23 15:48:09.699995	346.6	23.8	-90.6	5.4
2025-01-23 15:48:10.867060	346.4	23.7	-90.6	8.6
2025-01-23 15:48:12.032794	346.2	23.5	-90.2	7.6
2025-01-23 15:48:13.196277	346.0	23.4	-90.4	8.1
2025-01-23 15:48:14.361118	345.8	23.3	-90.6	6.3
2025-01-23 15:48:15.527995	345.6	23.2	-90.3	6.2
2025-01-23 15:48:16.693446	345.4	23.0	-90.8	5.0
2025-01-23 15:48:17.858871	345.2	22.9	-90.8	2.7
2025-01-23 15:48:19.023495	345.0	22.8	-90.4	4.7
2025-01-23 15:48:20.183901	344.8	22.6	-90.3	3.3
2025-01-23 15:48:21.339858	344.6	22.5	-90.3	3.8
2025-01-23 15:48:22.503676	344.4	22.4	-90.5	4.6
2025-01-23 15:48:23.668691	344.2	22.3	-90.6	4.6
2025-01-23 15:48:24.831568	344.0	22.1	-90.3	5.8
2025-01-23 15:48:25.997876	343.8	22.0	-90.1	5.9
2025-01-23 15:48:27.165091	343.6	21.9	-90.6	8.2
2025-01-23 15:48:28.332305	343.4	21.8	-90.3	10.1
2025-01-23 15:48:29.495244	343.2	21.6	-90.5	7.1
2025-01-23 15:48:30.649633	343.0	21.5	-90.7	13.2
2025-01-23 15:48:31.816456	342.9	21.4	-89.7	7.2
2025-01-23 15:48:32.978082	342.7	21.3	-89.5	7.8
2025-01-23 15:48:34.145973	342.5	21.1	-89.7	3.4
2025-01-23 15:48:35.310693	342.3	21.0	-89.1	1.7
2025-01-23 15:48:36.478434	342.1	20.9	-89.5	2.5
2025-01-23 15:48:37.636557	342.0	20.8	-89.1	4.6
2025-01-23 15:48:38.798744	341.8	20.6	-90.7	2.6
2025-01-23 15:48:39.970282	341.6	20.5	-89.6	2.6
2025-01-23 15:48:41.122567	341.4	20.4	-90.1	3.8
2025-01-23 15:48:42.284926	341.3	20.3	-89.8	1.9
2025-01-23 15:48:43.456695	341.1	20.1	-89.6	1.5
2025-01-23 15:48:44.621327	340.9	20.0	-90.0	1.9
2025-01-23 15:48:45.784370	340.8	19.9	-90.3	3.6
2025-01-23 15:48:46.954474	340.6	19.8	-89.7	2.4
2025-01-23 15:48:48.115562	340.4	19.7	-89.5	3.8
2025-01-23 15:48:49.283136	340.3	19.5	-89.3	3.1
2025-01-23 15:48:50.443763	340.1	19.4	-89.2	1.8
2025-01-23 15:48:51.610025	340.0	19.3	-89.2	2.2
2025-01-23 15:48:52.780117	339.8	19.2	-89.3	2.2
2025-01-23 15:48:53.941711	339.6	19.1	-89.8	1.3
2025-01-23 15:48:55.104238	339.5	18.9	-89.3	2.4
2025-01-23 15:48:56.266974	339.3	18.8	-89.9	3.0
2025-01-23 15:48:57.434434	339.2	18.7	-89.5	1.3
2025-01-23 15:48:58.598331	339.0	18.6	-89.5	3.5
2025-01-23 15:48:59.760802	338.9	18.5	-89.3	3.0
2025-01-23 15:49:00.918872	338.7	18.4	-89.4	3.8
2025-01-23 15:49:02.079867	338.6	18.2	-89.5	6.2
2025-01-23 15:49:03.244148	338.4	18.1	-89.4	3.0
2025-01-23 15:49:04.406771	338.3	18.0	-89.2	3.2
2025-01-23 15:49:05.587074	338.1	17.9	-89.7	2.9
2025-01-23 15:49:06.745619	338.0	17.8	-89.5	3.3
2025-01-23 15:49:07.912511	337.8	17.7	-89.6	3.3
2025-01-23 15:49:09.082251	337.7	17.5	-89.9	2.1
2025-01-23 15:49:10.238289	337.6	17.4	-89.3	2.0
2025-01-23 15:49:11.397305	337.4	17.3	-89.5	2.3
2025-01-23 15:49:12.557613	337.3	17.2	-89.4	2.8
2025-01-23 15:49:13.725540	337.1	17.1	-89.4	1.6
2025-01-23 15:49:14.884257	337.0	17.0	-91.2	2.6
2025-01-23 15:49:16.047304	336.9	16.9	-91.0	1.6
2025-01-23 15:49:17.211094	336.7	16.8	-90.9	0.8
2025-01-23 15:49:18.370355	336.6	16.6	-90.7	0.8
2025-01-23 15:49:19.536477	336.5	16.5	-90.3	2.7
2025-01-23 15:49:20.694392	336.3	16.4	-90.1	3.5
2025-01-23 15:49:21.865534	336.2	16.3	-90.1	2.8
2025-01-23 15:49:23.028111	336.1	16.2	-90.2	4.4
2025-01-23 15:49:24.191355	336.0	16.1	-90.6	4.0
2025-01-23 15:49:25.348420	335.8	16.0	-90.4	2.1
2025-01-23 15:49:26.512233	335.7	15.9	-90.4	2.0
2025-01-23 15:49:27.677239	335.6	15.8	-90.6	3.0
2025-01-23 15:49:28.844404	335.5	15.7	-90.8	2.8
2025-01-23 15:49:30.007169	335.3	15.5	-90.5	3.1
2025-01-23 15:49:31.161202	335.2	15.4	-89.9	1.7
2025-01-23 15:49:32.322038	335.1	15.3	-90.1	1.3
2025-01-23 15:49:33.485559	335.0	15.2	-90.7	3.8
2025-01-23 15:49:34.643717	334.8	15.1	-90.4	4.3
2025-01-23 15:49:35.811540	334.7	15.0	-90.3	2.7
2025-01-23 15:49:36.971010	334.6	14.9	-90.9	3.6
2025-01-23 15:49:38.132985	334.5	14.8	-90.4	4.2
2025-01-23 15:49:39.292381	334.4	14.7	-90.4	3.7
2025-01-23 15:49:40.452423	334.3	14.6	-90.7	4.6
#Closed at: 2025-01-23 15:41:42.529780