passes_logs/2025/01/23/LEX_Murmansk/LEX_Murmansk__20250123_104250_NOAA_19_rec.log

#Pass ID: 20250123_104250_NOAA 19
#Satellite: NOAA 19
#Configuration: NOAA 19
#Start time: 2025-01-23 10:42:45.774291

#LorettStation: 1.0.0 05.05.2024
#Station: LEX_Murmansk
#Location: 33.156738 lon 68.926811 lat
#TLE: 1 33591U 09005A   25022.22545190  .00000382  00000+0  22773-3 0  9990
#TLE: 2 33591  99.0184  86.0433 0014227  38.0135 322.2038 14.13265658822568

#Time	Az	El	Level	SNR
2025-01-23 10:42:57.901457	23.6	16.2	-90.8	3.9
2025-01-23 10:42:59.045539	23.5	16.3	-90.6	3.4
2025-01-23 10:43:00.186648	23.4	16.4	-90.7	1.4
2025-01-23 10:43:01.329417	23.3	16.5	-90.9	1.6
2025-01-23 10:43:02.475000	23.2	16.6	-90.7	2.2
2025-01-23 10:43:03.621817	23.1	16.7	-90.6	3.6
2025-01-23 10:43:04.771516	22.9	16.9	-91.0	4.8
2025-01-23 10:43:05.920946	22.8	17.0	-90.5	6.2
2025-01-23 10:43:07.067029	22.7	17.1	-90.2	5.5
2025-01-23 10:43:08.215156	22.6	17.2	-90.5	5.6
2025-01-23 10:43:09.360547	22.5	17.3	-90.3	3.7
2025-01-23 10:43:10.512362	22.3	17.4	-90.6	5.4
2025-01-23 10:43:11.655960	22.2	17.6	-90.5	4.8
2025-01-23 10:43:12.798131	22.1	17.7	-90.3	4.6
2025-01-23 10:43:13.953845	22.0	17.8	-90.6	7.9
2025-01-23 10:43:15.097884	21.8	17.9	-90.6	4.2
2025-01-23 10:43:16.243129	21.7	18.0	-90.4	1.1
2025-01-23 10:43:17.386037	21.6	18.2	-90.4	3.1
2025-01-23 10:43:18.536394	21.5	18.3	-90.9	1.8
2025-01-23 10:43:19.683116	21.3	18.4	-90.7	4.4
2025-01-23 10:43:20.827604	21.2	18.5	-90.6	3.1
2025-01-23 10:43:21.972105	21.1	18.6	-90.9	5.3
2025-01-23 10:43:23.122245	20.9	18.8	-90.5	8.1
2025-01-23 10:43:24.264755	20.8	18.9	-90.4	5.3
2025-01-23 10:43:25.412328	20.7	19.0	-90.7	5.3
2025-01-23 10:43:26.558904	20.5	19.1	-90.4	6.2
2025-01-23 10:43:27.710278	20.4	19.3	-89.8	4.0
2025-01-23 10:43:28.851147	20.2	19.4	-90.1	5.8
2025-01-23 10:43:29.992589	20.1	19.5	-89.8	7.2
2025-01-23 10:43:31.137519	20.0	19.6	-90.0	9.0
2025-01-23 10:43:32.282329	19.8	19.7	-90.0	5.1
2025-01-23 10:43:33.433092	19.7	19.9	-90.6	3.6
2025-01-23 10:43:34.576329	19.5	20.0	-90.9	3.7
2025-01-23 10:43:35.719140	19.4	20.1	-91.1	3.0
2025-01-23 10:43:36.864651	19.2	20.3	-90.7	3.3
2025-01-23 10:43:38.010243	19.1	20.4	-90.7	3.2
2025-01-23 10:43:39.157758	18.9	20.5	-90.9	5.4
2025-01-23 10:43:40.306139	18.8	20.6	-90.4	5.6
2025-01-23 10:43:41.448175	18.6	20.8	-90.0	4.3
2025-01-23 10:43:42.596658	18.5	20.9	-90.2	5.2
2025-01-23 10:43:43.741319	18.3	21.0	-89.5	5.0
2025-01-23 10:43:44.885710	18.2	21.2	-90.4	4.2
2025-01-23 10:43:46.031980	18.0	21.3	-89.7	5.7
2025-01-23 10:43:47.180522	17.8	21.4	-89.7	4.0
2025-01-23 10:43:48.324580	17.7	21.5	-90.9	9.0
2025-01-23 10:43:49.474267	17.5	21.7	-90.5	8.7
2025-01-23 10:43:50.623291	17.4	21.8	-90.9	4.8
2025-01-23 10:43:51.771443	17.2	21.9	-90.9	2.9
2025-01-23 10:43:52.917056	17.0	22.1	-91.1	3.2
2025-01-23 10:43:54.061770	16.8	22.2	-90.7	3.5
2025-01-23 10:43:55.205363	16.7	22.3	-90.7	2.4
2025-01-23 10:43:56.352901	16.5	22.5	-90.5	3.5
2025-01-23 10:43:57.501183	16.3	22.6	-91.0	6.6
2025-01-23 10:43:58.647566	16.2	22.7	-90.9	5.9
2025-01-23 10:43:59.793873	16.0	22.9	-90.6	12.0
2025-01-23 10:44:00.940636	15.8	23.0	-90.4	7.1
2025-01-23 10:44:02.085040	15.6	23.2	-90.8	6.8
2025-01-23 10:44:03.236099	15.4	23.3	-90.5	2.8
2025-01-23 10:44:04.382368	15.3	23.4	-90.7	3.6
2025-01-23 10:44:05.526523	15.1	23.6	-91.0	6.6
2025-01-23 10:44:06.673504	14.9	23.7	-90.9	7.9
2025-01-23 10:44:07.819918	14.7	23.8	-90.3	10.3
2025-01-23 10:44:08.967176	14.5	24.0	-90.8	5.7
2025-01-23 10:44:10.111529	14.3	24.1	-90.8	4.4
2025-01-23 10:44:11.254093	14.1	24.3	-90.2	3.5
2025-01-23 10:44:12.400137	13.9	24.4	-90.5	2.4
2025-01-23 10:44:13.545808	13.7	24.5	-90.8	3.3
2025-01-23 10:44:14.691241	13.6	24.7	-90.3	1.2
2025-01-23 10:44:15.839991	13.4	24.8	-90.9	5.4
2025-01-23 10:44:16.989200	13.2	25.0	-90.9	7.3
2025-01-23 10:44:18.135270	12.9	25.1	-90.1	6.5
2025-01-23 10:44:19.276708	12.7	25.2	-90.3	5.9
2025-01-23 10:44:20.420993	12.5	25.4	-90.6	4.2
2025-01-23 10:44:21.570092	12.3	25.5	-90.4	5.6
2025-01-23 10:44:22.712859	12.1	25.7	-90.6	5.0
2025-01-23 10:44:23.856495	11.9	25.8	-90.4	4.3
2025-01-23 10:44:25.009126	11.7	26.0	-91.1	6.3
2025-01-23 10:44:26.159578	11.5	26.1	-90.9	8.6
2025-01-23 10:44:27.309031	11.3	26.2	-90.7	4.3
2025-01-23 10:44:28.457607	11.0	26.4	-90.6	3.6
2025-01-23 10:44:29.600503	10.8	26.5	-91.0	4.8
2025-01-23 10:44:30.747380	10.6	26.7	-91.3	2.7
2025-01-23 10:44:31.893966	10.4	26.8	-90.9	3.0
2025-01-23 10:44:33.042836	10.1	27.0	-90.6	3.8
2025-01-23 10:44:34.189072	9.9	27.1	-90.8	4.6
2025-01-23 10:44:35.329532	9.7	27.3	-90.5	4.4
2025-01-23 10:44:36.473932	9.4	27.4	-91.1	7.6
2025-01-23 10:44:37.620649	9.2	27.6	-91.0	10.1
2025-01-23 10:44:38.769630	9.0	27.7	-90.9	11.8
2025-01-23 10:44:39.915048	8.7	27.9	-90.8	5.9
2025-01-23 10:44:41.059911	8.5	28.0	-90.5	8.4
2025-01-23 10:44:42.207209	8.2	28.1	-90.7	3.9
2025-01-23 10:44:43.358407	8.0	28.3	-90.8	3.5
2025-01-23 10:44:44.505867	7.7	28.4	-90.8	5.5
2025-01-23 10:44:45.651435	7.5	28.6	-90.6	4.7
2025-01-23 10:44:46.798472	7.2	28.7	-90.5	1.6
2025-01-23 10:44:47.944520	7.0	28.9	-91.2	7.5
2025-01-23 10:44:49.090275	6.7	29.0	-90.5	4.0
2025-01-23 10:44:50.240596	6.4	29.2	-90.4	3.3
2025-01-23 10:44:51.390412	6.2	29.3	-90.9	1.1
2025-01-23 10:44:52.536330	5.9	29.5	-90.6	2.6
2025-01-23 10:44:53.687071	5.6	29.6	-90.9	1.1
2025-01-23 10:44:54.832036	5.4	29.8	-89.8	2.0
2025-01-23 10:44:55.982082	5.1	29.9	-89.9	3.7
2025-01-23 10:44:57.127533	4.8	30.1	-89.8	4.8
2025-01-23 10:44:58.274591	4.5	30.2	-89.4	6.1
2025-01-23 10:44:59.426941	4.2	30.4	-89.7	7.0
2025-01-23 10:45:00.569299	4.0	30.5	-89.2	3.4
2025-01-23 10:45:01.710920	3.7	30.7	-90.9	4.1
2025-01-23 10:45:02.853663	3.4	30.8	-90.7	1.3
2025-01-23 10:45:03.993880	3.1	31.0	-91.0	2.0
2025-01-23 10:45:05.134392	2.8	31.1	-90.7	4.6
2025-01-23 10:45:06.280104	2.5	31.3	-90.5	4.3
2025-01-23 10:45:07.426298	2.2	31.4	-90.4	3.2
2025-01-23 10:45:08.574657	1.9	31.6	-90.9	10.0
2025-01-23 10:45:09.723032	1.6	31.7	-91.1	7.4
2025-01-23 10:45:10.868508	1.3	31.9	-90.9	9.1
2025-01-23 10:45:12.012051	1.0	32.0	-91.0	6.3
2025-01-23 10:45:13.156569	0.6	32.1	-90.5	5.2
2025-01-23 10:45:14.306539	0.3	32.3	-90.7	1.7
2025-01-23 10:45:15.450414	360.0	32.4	-90.8	4.1
2025-01-23 10:45:16.592534	359.7	32.6	-91.1	2.7
2025-01-23 10:45:17.739797	359.3	32.7	-91.1	3.2
2025-01-23 10:45:18.881775	359.0	32.9	-90.8	3.3
2025-01-23 10:45:20.031891	358.7	33.0	-91.1	4.6
2025-01-23 10:45:21.175902	358.3	33.2	-90.2	5.8
2025-01-23 10:45:22.321415	358.0	33.3	-90.6	6.5
2025-01-23 10:45:23.468161	357.7	33.5	-90.7	6.1
2025-01-23 10:45:24.614245	357.3	33.6	-90.8	9.1
2025-01-23 10:45:25.755036	357.0	33.7	-91.0	5.9
2025-01-23 10:45:26.901059	356.6	33.9	-91.1	5.5
2025-01-23 10:45:28.042744	356.3	34.0	-90.9	7.1
2025-01-23 10:45:29.192026	355.9	34.2	-90.6	6.0
2025-01-23 10:45:30.333145	355.5	34.3	-90.4	4.7
2025-01-23 10:45:31.480190	355.2	34.4	-90.4	9.2
2025-01-23 10:45:32.629724	354.8	34.6	-90.9	10.8
2025-01-23 10:45:33.773002	354.4	34.7	-90.5	11.8
2025-01-23 10:45:34.917921	354.1	34.9	-90.6	11.3
2025-01-23 10:45:36.064857	353.7	35.0	-90.5	9.4
2025-01-23 10:45:37.211222	353.3	35.1	-90.6	8.1
2025-01-23 10:45:38.356271	352.9	35.3	-90.4	6.3
2025-01-23 10:45:39.502142	352.5	35.4	-90.8	6.2
2025-01-23 10:45:40.648519	352.2	35.5	-91.1	3.7
2025-01-23 10:45:41.792114	351.8	35.7	-90.8	1.3
2025-01-23 10:45:42.937038	351.4	35.8	-91.0	0.9
2025-01-23 10:45:44.081802	351.0	35.9	-90.1	3.0
2025-01-23 10:45:45.225650	350.6	36.0	-91.0	1.5
2025-01-23 10:45:46.372379	350.2	36.2	-90.7	4.7
2025-01-23 10:45:47.517463	349.8	36.3	-90.8	7.0
2025-01-23 10:45:48.662367	349.3	36.4	-90.9	10.1
2025-01-23 10:45:49.808703	348.9	36.5	-90.6	10.2
2025-01-23 10:45:50.955633	348.5	36.7	-90.5	12.1
2025-01-23 10:45:52.100016	348.1	36.8	-90.6	11.2
2025-01-23 10:45:53.244693	347.7	36.9	-91.1	10.2
2025-01-23 10:45:54.387177	347.2	37.0	-90.5	12.9
2025-01-23 10:45:55.530701	346.8	37.1	-91.1	10.2
2025-01-23 10:45:56.684020	346.4	37.3	-91.1	7.6
2025-01-23 10:45:57.826178	345.9	37.4	-90.8	3.6
2025-01-23 10:45:58.971849	345.5	37.5	-90.7	5.7
2025-01-23 10:46:00.116269	345.1	37.6	-90.5	8.4
2025-01-23 10:46:01.261183	344.6	37.7	-90.8	7.1
2025-01-23 10:46:02.401889	344.2	37.8	-90.5	7.5
2025-01-23 10:46:03.542307	343.7	37.9	-90.7	11.4
2025-01-23 10:46:04.688109	343.3	38.0	-90.8	10.6
2025-01-23 10:46:05.828048	342.8	38.1	-90.8	10.4
2025-01-23 10:46:06.973460	342.4	38.2	-91.2	13.1
2025-01-23 10:46:08.119896	341.9	38.3	-90.9	14.0
2025-01-23 10:46:09.267489	341.4	38.4	-90.6	10.6
2025-01-23 10:46:10.413576	341.0	38.5	-90.8	10.6
2025-01-23 10:46:11.560359	340.5	38.6	-90.9	8.8
2025-01-23 10:46:12.707922	340.0	38.7	-90.6	3.4
2025-01-23 10:46:13.852926	339.5	38.8	-90.8	3.9
2025-01-23 10:46:15.000760	339.1	38.9	-90.6	6.6
2025-01-23 10:46:16.141690	338.6	38.9	-90.5	8.7
2025-01-23 10:46:17.281604	338.1	39.0	-90.8	3.9
2025-01-23 10:46:18.426791	337.6	39.1	-90.2	5.8
2025-01-23 10:46:19.577580	337.1	39.2	-90.9	4.2
2025-01-23 10:46:20.721670	336.6	39.3	-90.8	5.3
2025-01-23 10:46:21.843330	336.2	39.3	-91.0	7.8
2025-01-23 10:46:22.963631	335.7	39.4	-90.9	8.9
2025-01-23 10:46:24.083655	335.2	39.5	-90.6	11.1
2025-01-23 10:46:25.203991	334.7	39.5	-90.3	12.5
2025-01-23 10:46:26.324824	334.2	39.6	-90.1	13.7
2025-01-23 10:46:27.444379	333.7	39.7	-90.2	12.4
2025-01-23 10:46:28.564439	333.2	39.7	-89.9	16.1
2025-01-23 10:46:29.689100	332.7	39.8	-90.4	13.8
2025-01-23 10:46:30.819800	332.2	39.8	-90.2	10.7
2025-01-23 10:46:31.969905	331.7	39.9	-90.0	9.5
2025-01-23 10:46:33.117738	331.2	39.9	-89.5	11.0
2025-01-23 10:46:34.265163	330.7	40.0	-90.3	8.1
2025-01-23 10:46:35.412773	330.2	40.0	-90.4	8.6
2025-01-23 10:46:36.559611	329.6	40.1	-90.4	7.1
2025-01-23 10:46:37.702610	329.1	40.1	-90.3	4.7
2025-01-23 10:46:38.850289	328.6	40.2	-90.3	4.8
2025-01-23 10:46:40.000057	328.1	40.2	-90.1	7.3
2025-01-23 10:46:41.144978	327.6	40.2	-90.0	6.7
2025-01-23 10:46:42.289577	327.0	40.2	-90.2	3.6
2025-01-23 10:46:43.429453	326.5	40.3	-90.4	7.6
2025-01-23 10:46:44.577737	326.0	40.3	-90.9	7.4
2025-01-23 10:46:45.723864	325.5	40.3	-90.7	6.3
2025-01-23 10:46:46.867515	324.9	40.3	-90.8	7.7
2025-01-23 10:46:48.011335	324.4	40.4	-90.8	9.9
2025-01-23 10:46:49.155720	323.9	40.4	-90.5	10.0
2025-01-23 10:46:50.302562	323.4	40.4	-90.8	10.9
2025-01-23 10:46:51.446704	322.8	40.4	-91.1	11.1
2025-01-23 10:46:52.590339	322.3	40.4	-91.0	11.7
2025-01-23 10:46:53.740336	321.8	40.4	-91.1	12.6
2025-01-23 10:46:54.886478	321.3	40.4	-91.0	12.0
2025-01-23 10:46:56.026679	320.7	40.4	-90.9	12.4
2025-01-23 10:46:57.176848	320.2	40.4	-90.7	13.4
2025-01-23 10:46:58.321450	319.7	40.4	-90.6	14.2
2025-01-23 10:46:59.462705	319.2	40.4	-90.8	15.8
2025-01-23 10:47:00.604385	318.6	40.3	-91.0	13.2
2025-01-23 10:47:01.748468	318.1	40.3	-90.5	13.3
2025-01-23 10:47:02.896252	317.6	40.3	-90.6	12.7
2025-01-23 10:47:04.038594	317.1	40.3	-90.9	12.2
2025-01-23 10:47:05.183326	316.5	40.3	-90.4	12.0
2025-01-23 10:47:06.329785	316.0	40.2	-90.6	8.5
2025-01-23 10:47:07.471589	315.5	40.2	-90.5	11.6
2025-01-23 10:47:08.615270	315.0	40.2	-90.6	9.3
2025-01-23 10:47:09.759530	314.5	40.1	-90.7	9.4
2025-01-23 10:47:10.901796	313.9	40.1	-90.9	8.7
2025-01-23 10:47:12.050291	313.4	40.0	-90.6	9.0
2025-01-23 10:47:13.196745	312.9	40.0	-90.7	6.3
2025-01-23 10:47:14.342388	312.4	40.0	-90.7	6.7
2025-01-23 10:47:15.499325	311.9	39.9	-90.6	9.1
2025-01-23 10:47:16.637319	311.4	39.9	-90.1	7.1
2025-01-23 10:47:17.780445	310.9	39.8	-90.2	4.7
2025-01-23 10:47:18.927444	310.4	39.7	-90.1	6.3
2025-01-23 10:47:20.069207	309.9	39.7	-89.9	4.4
2025-01-23 10:47:21.221138	309.3	39.6	-89.8	3.8
2025-01-23 10:47:22.368120	308.8	39.6	-89.9	2.8
2025-01-23 10:47:23.511995	308.3	39.5	-90.7	6.6
2025-01-23 10:47:24.657927	307.8	39.4	-90.2	5.3
2025-01-23 10:47:25.801652	307.4	39.4	-91.0	4.6
2025-01-23 10:47:26.949100	306.9	39.3	-91.0	4.6
2025-01-23 10:47:28.091935	306.4	39.2	-90.5	4.8
2025-01-23 10:47:29.237316	305.9	39.1	-90.9	3.9
2025-01-23 10:47:30.383284	305.4	39.0	-90.8	4.5
2025-01-23 10:47:31.530329	304.9	39.0	-90.8	6.3
2025-01-23 10:47:32.677114	304.4	38.9	-91.1	3.5
2025-01-23 10:47:33.824733	304.0	38.8	-90.9	3.5
2025-01-23 10:47:34.973499	303.5	38.7	-90.7	8.8
2025-01-23 10:47:36.112738	303.0	38.6	-90.6	6.4
2025-01-23 10:47:37.260984	302.5	38.5	-90.2	3.2
2025-01-23 10:47:38.412060	302.1	38.4	-90.3	3.6
2025-01-23 10:47:39.558610	301.6	38.3	-90.7	5.5
2025-01-23 10:47:40.705771	301.1	38.2	-90.7	3.8
2025-01-23 10:47:41.849082	300.7	38.1	-90.9	4.2
2025-01-23 10:47:42.994195	300.2	38.0	-90.6	4.9
2025-01-23 10:47:44.146465	299.8	37.9	-90.5	5.0
2025-01-23 10:47:45.293968	299.3	37.8	-90.3	3.1
2025-01-23 10:47:46.441739	298.9	37.7	-90.7	6.2
2025-01-23 10:47:47.590164	298.4	37.6	-90.8	5.7
2025-01-23 10:47:48.739765	298.0	37.5	-90.3	2.8
2025-01-23 10:47:49.884580	297.5	37.4	-90.5	3.5
2025-01-23 10:47:51.028752	297.1	37.3	-90.5	6.7
2025-01-23 10:47:52.174520	296.7	37.2	-90.8	6.8
2025-01-23 10:47:53.316834	296.2	37.0	-90.7	6.4
2025-01-23 10:47:54.459192	295.8	36.9	-90.5	8.5
2025-01-23 10:47:55.606836	295.4	36.8	-90.7	8.9
2025-01-23 10:47:56.748706	295.0	36.7	-90.9	5.7
2025-01-23 10:47:57.900448	294.5	36.6	-90.7	6.0
2025-01-23 10:47:59.043397	294.1	36.4	-90.7	7.1
2025-01-23 10:48:00.185950	293.7	36.3	-90.9	7.1
2025-01-23 10:48:01.331945	293.3	36.2	-90.8	7.6
2025-01-23 10:48:02.476026	292.9	36.1	-90.8	8.8
2025-01-23 10:48:03.621925	292.5	35.9	-90.7	10.7
2025-01-23 10:48:04.768677	292.1	35.8	-90.2	7.6
2025-01-23 10:48:05.916473	291.7	35.7	-91.0	8.8
2025-01-23 10:48:07.070608	291.3	35.5	-90.7	9.0
2025-01-23 10:48:08.215616	290.9	35.4	-90.8	9.8
2025-01-23 10:48:09.362947	290.5	35.3	-90.5	7.7
2025-01-23 10:48:10.506092	290.2	35.1	-90.8	6.9
2025-01-23 10:48:11.652165	289.8	35.0	-90.8	10.0
2025-01-23 10:48:12.801912	289.4	34.9	-90.3	8.0
2025-01-23 10:48:13.946726	289.0	34.7	-90.9	5.9
2025-01-23 10:48:15.092899	288.7	34.6	-90.4	7.9
2025-01-23 10:48:16.237279	288.3	34.5	-90.9	5.6
2025-01-23 10:48:17.381906	287.9	34.3	-90.9	8.6
2025-01-23 10:48:18.532004	287.6	34.2	-90.3	6.7
2025-01-23 10:48:19.679170	287.2	34.0	-90.8	3.4
2025-01-23 10:48:20.827479	286.9	33.9	-91.1	5.6
2025-01-23 10:48:21.977089	286.5	33.8	-91.1	5.3
2025-01-23 10:48:23.123565	286.2	33.6	-90.4	4.7
2025-01-23 10:48:24.270417	285.8	33.5	-90.6	7.0
2025-01-23 10:48:25.417582	285.5	33.3	-90.6	3.2
2025-01-23 10:48:26.565711	285.1	33.2	-90.6	5.2
2025-01-23 10:48:27.710795	284.8	33.0	-90.9	7.6
2025-01-23 10:48:28.854997	284.5	32.9	-88.8	4.3
2025-01-23 10:48:29.996297	284.1	32.8	-90.6	2.9
2025-01-23 10:48:31.136916	283.8	32.6	-91.0	5.6
2025-01-23 10:48:32.280724	283.5	32.5	-90.7	4.1
2025-01-23 10:48:33.424794	283.2	32.3	-90.7	3.9
2025-01-23 10:48:34.570199	282.8	32.2	-90.1	2.8
2025-01-23 10:48:35.728583	282.5	32.0	-91.1	2.2
2025-01-23 10:48:36.875976	282.2	31.9	-90.2	2.7
2025-01-23 10:48:38.017409	281.9	31.7	-90.5	4.5
2025-01-23 10:48:39.158115	281.6	31.6	-90.7	1.9
2025-01-23 10:48:40.303406	281.3	31.4	-90.5	3.4
2025-01-23 10:48:41.449647	281.0	31.3	-91.0	2.4
2025-01-23 10:48:42.598569	280.7	31.1	-90.8	3.0
2025-01-23 10:48:43.736459	280.4	31.0	-90.9	5.3
2025-01-23 10:48:44.886827	280.1	30.8	-90.9	7.2
2025-01-23 10:48:46.025607	279.8	30.7	-90.7	5.8
2025-01-23 10:48:47.175035	279.5	30.5	-90.7	7.8
2025-01-23 10:48:48.318316	279.2	30.4	-90.3	7.0
2025-01-23 10:48:49.464893	278.9	30.3	-90.8	8.4
2025-01-23 10:48:50.611285	278.7	30.1	-90.4	4.5
2025-01-23 10:48:51.758517	278.4	30.0	-90.9	7.7
2025-01-23 10:48:52.906597	278.1	29.8	-90.8	6.5
2025-01-23 10:48:54.054680	277.8	29.7	-90.8	6.2
2025-01-23 10:48:55.199938	277.6	29.5	-90.5	8.7
2025-01-23 10:48:56.343307	277.3	29.4	-90.7	7.0
2025-01-23 10:48:57.493500	277.0	29.2	-91.1	6.2
2025-01-23 10:48:58.638917	276.8	29.1	-90.9	6.5
2025-01-23 10:48:59.784915	276.5	28.9	-90.9	8.1
2025-01-23 10:49:00.929700	276.3	28.8	-90.9	5.1
2025-01-23 10:49:02.073218	276.0	28.6	-90.5	3.8
2025-01-23 10:49:03.217539	275.7	28.5	-90.8	7.9
2025-01-23 10:49:04.368198	275.5	28.3	-91.0	8.3
2025-01-23 10:49:05.510871	275.2	28.2	-90.8	3.5
2025-01-23 10:49:06.656504	275.0	28.0	-90.7	6.4
2025-01-23 10:49:07.808220	274.8	27.9	-90.8	9.9
2025-01-23 10:49:08.954789	274.5	27.7	-90.0	5.6
2025-01-23 10:49:10.098095	274.3	27.6	-90.8	10.1
2025-01-23 10:49:11.242678	274.0	27.4	-90.2	11.7
2025-01-23 10:49:12.391462	273.8	27.3	-90.1	11.7
2025-01-23 10:49:13.542493	273.6	27.2	-90.4	13.0
2025-01-23 10:49:14.688513	273.3	27.0	-89.8	13.0
2025-01-23 10:49:15.836577	273.1	26.9	-90.0	12.1
2025-01-23 10:49:16.977010	272.9	26.7	-90.5	9.5
2025-01-23 10:49:18.124910	272.7	26.6	-90.7	10.8
2025-01-23 10:49:19.269054	272.4	26.4	-90.3	12.0
2025-01-23 10:49:20.414822	272.2	26.3	-90.9	6.0
2025-01-23 10:49:21.560361	272.0	26.1	-90.1	6.4
2025-01-23 10:49:22.704582	271.8	26.0	-90.8	12.0
2025-01-23 10:49:23.852213	271.6	25.9	-90.5	11.3
2025-01-23 10:49:24.994257	271.4	25.7	-90.9	6.7
2025-01-23 10:49:26.138212	271.1	25.6	-90.2	9.2
2025-01-23 10:49:27.286220	270.9	25.4	-90.9	13.1
2025-01-23 10:49:28.429347	270.7	25.3	-90.4	8.7
2025-01-23 10:49:29.575087	270.5	25.1	-90.8	9.4
2025-01-23 10:49:30.727014	270.3	25.0	-90.9	11.0
2025-01-23 10:49:31.868147	270.1	24.9	-90.9	12.0
2025-01-23 10:49:33.014777	269.9	24.7	-90.8	11.9
2025-01-23 10:49:34.161055	269.7	24.6	-90.4	11.6
2025-01-23 10:49:35.305555	269.5	24.4	-90.2	13.0
2025-01-23 10:49:36.452974	269.3	24.3	-90.9	11.5
2025-01-23 10:49:37.598711	269.1	24.2	-90.9	8.8
2025-01-23 10:49:38.741484	269.0	24.0	-90.7	10.8
2025-01-23 10:49:39.886821	268.8	23.9	-90.7	7.9
2025-01-23 10:49:41.027728	268.6	23.7	-90.9	7.8
2025-01-23 10:49:42.172322	268.4	23.6	-90.8	9.8
2025-01-23 10:49:43.312229	268.2	23.5	-90.6	10.4
2025-01-23 10:49:44.458463	268.0	23.3	-91.0	8.1
2025-01-23 10:49:45.607322	267.8	23.2	-91.2	7.2
2025-01-23 10:49:46.746686	267.7	23.1	-90.9	10.5
2025-01-23 10:49:47.890769	267.5	22.9	-91.3	9.1
2025-01-23 10:49:49.034954	267.3	22.8	-90.6	10.7
2025-01-23 10:49:50.177479	267.1	22.7	-90.9	7.3
2025-01-23 10:49:51.325914	267.0	22.5	-90.6	8.3
2025-01-23 10:49:52.465795	266.8	22.4	-90.8	9.6
2025-01-23 10:49:53.610447	266.6	22.3	-91.2	8.6
2025-01-23 10:49:54.755997	266.5	22.1	-90.7	8.0
2025-01-23 10:49:55.903319	266.3	22.0	-90.8	8.5
2025-01-23 10:49:57.047073	266.1	21.9	-91.0	6.2
2025-01-23 10:49:58.191997	266.0	21.7	-90.6	8.9
2025-01-23 10:49:59.349771	265.8	21.6	-90.6	7.7
2025-01-23 10:50:00.494177	265.6	21.5	-90.6	5.3
2025-01-23 10:50:01.635634	265.5	21.3	-90.6	5.5
2025-01-23 10:50:02.772835	265.3	21.2	-90.5	10.1
2025-01-23 10:50:03.922837	265.2	21.1	-90.5	4.0
2025-01-23 10:50:05.068183	265.0	20.9	-90.3	5.4
2025-01-23 10:50:06.213420	264.8	20.8	-90.3	8.7
2025-01-23 10:50:07.354836	264.7	20.7	-90.4	8.1
2025-01-23 10:50:08.497123	264.5	20.6	-90.7	8.5
2025-01-23 10:50:09.641875	264.4	20.4	-90.7	9.6
2025-01-23 10:50:10.788044	264.2	20.3	-90.4	11.0
2025-01-23 10:50:11.935299	264.1	20.2	-90.8	7.3
2025-01-23 10:50:13.091682	263.9	20.0	-90.6	6.8
2025-01-23 10:50:14.230589	263.8	19.9	-90.8	8.3
2025-01-23 10:50:15.350988	263.7	19.8	-90.3	4.8
2025-01-23 10:50:16.472273	263.5	19.7	-89.7	4.8
2025-01-23 10:50:17.593593	263.4	19.6	-89.4	1.8
2025-01-23 10:50:18.713972	263.2	19.4	-89.7	5.2
2025-01-23 10:50:19.834919	263.1	19.3	-90.1	4.5
2025-01-23 10:50:20.955495	263.0	19.2	-89.6	2.4
2025-01-23 10:50:22.076177	262.8	19.1	-91.2	1.7
2025-01-23 10:50:23.196978	262.7	19.0	-90.5	1.8
2025-01-23 10:50:24.326955	262.6	18.8	-90.7	2.2
2025-01-23 10:50:25.459323	262.4	18.7	-90.5	3.0
2025-01-23 10:50:26.594288	262.3	18.6	-90.9	2.5
2025-01-23 10:50:27.740880	262.2	18.5	-90.7	2.1
2025-01-23 10:50:28.884994	262.0	18.4	-90.8	5.3
2025-01-23 10:50:30.031537	261.9	18.2	-90.6	3.2
2025-01-23 10:50:31.173160	261.8	18.1	-90.8	3.0
2025-01-23 10:50:32.317288	261.7	18.0	-90.8	3.2
2025-01-23 10:50:33.467081	261.5	17.9	-90.5	3.5
2025-01-23 10:50:34.610222	261.4	17.8	-90.8	1.3
2025-01-23 10:50:35.764528	261.3	17.6	-91.3	4.9
2025-01-23 10:50:36.904238	261.1	17.5	-90.6	1.7
2025-01-23 10:50:38.051360	261.0	17.4	-90.2	3.4
2025-01-23 10:50:39.199146	260.9	17.3	-90.6	5.7
2025-01-23 10:50:40.343636	260.8	17.2	-90.1	3.4
2025-01-23 10:50:41.493279	260.7	17.1	-90.4	6.1
2025-01-23 10:50:42.635021	260.5	16.9	-91.0	5.8
2025-01-23 10:50:43.784163	260.4	16.8	-90.9	5.8
2025-01-23 10:50:44.931066	260.3	16.7	-90.7	7.7
2025-01-23 10:50:46.074959	260.2	16.6	-90.5	5.1
2025-01-23 10:50:47.223360	260.1	16.5	-90.4	5.9
2025-01-23 10:50:48.374469	260.0	16.4	-90.7	3.5
2025-01-23 10:50:49.520582	259.8	16.3	-91.2	3.2
2025-01-23 10:50:50.663751	259.7	16.1	-89.8	4.3
2025-01-23 10:50:51.814146	259.6	16.0	-90.5	4.2
2025-01-23 10:50:52.962104	259.5	15.9	-91.2	2.4
2025-01-23 10:50:54.105815	259.4	15.8	-90.8	3.5
2025-01-23 10:50:55.250972	259.3	15.7	-90.7	6.9
2025-01-23 10:50:56.396152	259.2	15.6	-90.7	6.6
2025-01-23 10:50:57.538095	259.1	15.5	-90.9	6.4
2025-01-23 10:50:58.682190	259.0	15.4	-90.8	7.2
2025-01-23 10:50:59.827059	258.9	15.3	-90.7	6.3
2025-01-23 10:51:00.966731	258.8	15.1	-90.7	4.8
2025-01-23 10:51:02.112960	258.6	15.0	-90.4	4.0
2025-01-23 10:51:03.255339	258.5	14.9	-90.8	6.8
2025-01-23 10:51:04.400898	258.4	14.8	-91.1	5.2
2025-01-23 10:51:05.548152	258.3	14.7	-90.6	3.2
2025-01-23 10:51:06.675366	258.2	14.6	-91.0	7.7
#Closed at: 2025-01-23 10:42:50.703994