passes_logs/2025/01/23/LEX_Murmansk/LEX_Murmansk__20250123_072121_NOAA_19_rec.log

#Pass ID: 20250123_072121_NOAA 19
#Satellite: NOAA 19
#Configuration: NOAA 19
#Start time: 2025-01-23 07:21:16.906877

#LorettStation: 1.0.0 05.05.2024
#Station: LEX_Murmansk
#Location: 33.156738 lon 68.926811 lat
#TLE: 1 33591U 09005A   25022.22545190  .00000382  00000+0  22773-3 0  9990
#TLE: 2 33591  99.0184  86.0433 0014227  38.0135 322.2038 14.13265658822568

#Time	Az	El	Level	SNR
2025-01-23 07:21:29.082825	34.6	16.1	-90.0	3.0
2025-01-23 07:21:30.238489	34.7	16.2	-90.1	1.8
2025-01-23 07:21:31.392506	34.9	16.3	-90.2	2.7
2025-01-23 07:21:32.549130	35.0	16.4	-90.2	3.4
2025-01-23 07:21:33.706146	35.1	16.5	-90.2	2.0
2025-01-23 07:21:34.864801	35.3	16.7	-90.1	1.8
2025-01-23 07:21:36.012754	35.4	16.8	-90.6	2.6
2025-01-23 07:21:37.163963	35.6	16.9	-89.7	3.8
2025-01-23 07:21:38.319478	35.7	17.0	-90.3	2.1
2025-01-23 07:21:39.470943	35.8	17.1	-90.0	2.9
2025-01-23 07:21:40.627338	36.0	17.2	-90.0	6.3
2025-01-23 07:21:41.778697	36.1	17.3	-90.2	2.8
2025-01-23 07:21:42.934977	36.3	17.4	-90.4	3.3
2025-01-23 07:21:44.085367	36.4	17.5	-89.7	0.1
2025-01-23 07:21:45.230946	36.6	17.6	-90.1	1.4
2025-01-23 07:21:46.384370	36.7	17.8	-89.6	2.9
2025-01-23 07:21:47.521527	36.9	17.9	-90.1	1.9
2025-01-23 07:21:48.679976	37.0	18.0	-90.3	3.2
2025-01-23 07:21:49.835126	37.2	18.1	-90.4	2.3
2025-01-23 07:21:50.990843	37.3	18.2	-90.0	2.9
2025-01-23 07:21:52.148543	37.5	18.3	-90.2	5.8
2025-01-23 07:21:53.299815	37.6	18.4	-90.1	1.6
2025-01-23 07:21:54.450447	37.8	18.6	-90.5	6.0
2025-01-23 07:21:55.600549	37.9	18.7	-90.7	7.1
2025-01-23 07:21:56.753001	38.1	18.8	-90.4	3.7
2025-01-23 07:21:57.912099	38.2	18.9	-89.5	5.3
2025-01-23 07:21:59.072765	38.4	19.0	-89.5	4.2
2025-01-23 07:22:00.223766	38.6	19.1	-89.3	5.5
2025-01-23 07:22:01.379253	38.7	19.2	-89.4	4.3
2025-01-23 07:22:02.531722	38.9	19.4	-89.8	0.4
2025-01-23 07:22:03.683559	39.1	19.5	-90.1	2.3
2025-01-23 07:22:04.834445	39.2	19.6	-90.0	2.5
2025-01-23 07:22:05.993846	39.4	19.7	-89.8	1.0
2025-01-23 07:22:07.145351	39.6	19.8	-89.0	4.9
2025-01-23 07:22:08.300237	39.7	20.0	-89.3	3.8
2025-01-23 07:22:09.450886	39.9	20.1	-90.4	7.7
2025-01-23 07:22:10.617026	40.1	20.2	-90.1	8.6
2025-01-23 07:22:11.773841	40.3	20.3	-90.5	7.9
2025-01-23 07:22:12.930212	40.4	20.4	-90.6	6.9
2025-01-23 07:22:14.088221	40.6	20.5	-90.0	7.5
2025-01-23 07:22:15.245082	40.8	20.7	-90.3	7.3
2025-01-23 07:22:16.401452	41.0	20.8	-90.1	4.0
2025-01-23 07:22:17.556666	41.1	20.9	-90.2	6.1
2025-01-23 07:22:18.714592	41.3	21.0	-90.7	12.6
2025-01-23 07:22:19.879310	41.5	21.2	-90.5	4.0
2025-01-23 07:22:21.035306	41.7	21.3	-90.4	8.1
2025-01-23 07:22:22.188991	41.9	21.4	-90.5	5.3
2025-01-23 07:22:23.345236	42.1	21.5	-90.4	1.9
2025-01-23 07:22:24.492404	42.3	21.6	-90.5	5.0
2025-01-23 07:22:25.636506	42.4	21.8	-90.3	3.8
2025-01-23 07:22:26.794860	42.6	21.9	-90.6	4.8
2025-01-23 07:22:27.955311	42.8	22.0	-90.7	6.6
2025-01-23 07:22:29.106811	43.0	22.1	-90.6	10.5
2025-01-23 07:22:30.266215	43.2	22.3	-90.3	8.8
2025-01-23 07:22:31.421528	43.4	22.4	-90.3	12.0
2025-01-23 07:22:32.575601	43.6	22.5	-90.0	8.5
2025-01-23 07:22:33.735794	43.8	22.6	-89.9	8.2
2025-01-23 07:22:34.883649	44.0	22.8	-89.5	7.9
2025-01-23 07:22:36.032828	44.2	22.9	-90.1	6.0
2025-01-23 07:22:37.184690	44.4	23.0	-89.7	7.3
2025-01-23 07:22:38.343793	44.6	23.1	-89.9	12.0
2025-01-23 07:22:39.493802	44.8	23.3	-89.7	10.4
2025-01-23 07:22:40.649886	45.0	23.4	-90.1	7.7
2025-01-23 07:22:41.804306	45.3	23.5	-89.8	3.1
2025-01-23 07:22:42.959798	45.5	23.6	-89.7	4.2
2025-01-23 07:22:44.119274	45.7	23.8	-89.2	3.2
2025-01-23 07:22:45.272392	45.9	23.9	-86.2	3.5
2025-01-23 07:22:46.430268	46.1	24.0	-86.4	3.1
2025-01-23 07:22:47.577087	46.3	24.1	-86.3	4.8
2025-01-23 07:22:48.728432	46.6	24.3	-86.9	4.7
2025-01-23 07:22:49.884200	46.8	24.4	-87.4	6.7
2025-01-23 07:22:51.035670	47.0	24.5	-87.2	8.0
2025-01-23 07:22:52.193238	47.2	24.7	-87.6	6.0
2025-01-23 07:22:53.344489	47.5	24.8	-87.1	4.3
2025-01-23 07:22:54.498362	47.7	24.9	-87.6	6.6
2025-01-23 07:22:55.653780	47.9	25.0	-87.8	3.2
2025-01-23 07:22:56.805794	48.2	25.2	-87.8	3.0
2025-01-23 07:22:57.964276	48.4	25.3	-88.0	5.3
2025-01-23 07:22:59.123162	48.6	25.4	-87.8	5.3
2025-01-23 07:23:00.270024	48.9	25.6	-87.8	6.5
2025-01-23 07:23:01.427938	49.1	25.7	-87.8	4.7
2025-01-23 07:23:02.580535	49.4	25.8	-87.5	2.8
2025-01-23 07:23:03.735777	49.6	25.9	-87.3	2.4
2025-01-23 07:23:04.891863	49.9	26.1	-87.4	2.8
2025-01-23 07:23:06.046168	50.1	26.2	-87.4	3.1
2025-01-23 07:23:07.198746	50.4	26.3	-87.2	2.8
2025-01-23 07:23:08.348361	50.6	26.5	-87.1	4.1
2025-01-23 07:23:09.508983	50.9	26.6	-87.2	3.3
2025-01-23 07:23:10.668792	51.1	26.7	-87.1	2.4
2025-01-23 07:23:11.820920	51.4	26.8	-87.4	3.0
2025-01-23 07:23:12.974872	51.7	27.0	-87.6	4.1
2025-01-23 07:23:14.131203	51.9	27.1	-87.4	5.6
2025-01-23 07:23:15.283777	52.2	27.2	-87.8	3.7
2025-01-23 07:23:16.440422	52.4	27.4	-87.9	3.0
2025-01-23 07:23:17.595469	52.7	27.5	-87.6	1.6
2025-01-23 07:23:18.745883	53.0	27.6	-87.4	2.0
2025-01-23 07:23:19.899388	53.3	27.8	-87.8	3.2
2025-01-23 07:23:21.058290	53.5	27.9	-87.4	3.0
2025-01-23 07:23:22.207885	53.8	28.0	-87.9	3.9
2025-01-23 07:23:23.368803	54.1	28.1	-87.8	2.1
2025-01-23 07:23:24.525964	54.4	28.3	-87.2	3.3
2025-01-23 07:23:25.683956	54.7	28.4	-87.4	1.8
2025-01-23 07:23:26.837360	55.0	28.5	-87.1	3.1
2025-01-23 07:23:27.992600	55.3	28.7	-87.0	0.1
2025-01-23 07:23:29.147215	55.5	28.8	-86.7	3.9
2025-01-23 07:23:30.304358	55.8	28.9	-86.7	3.9
2025-01-23 07:23:31.461358	56.1	29.0	-86.9	1.9
2025-01-23 07:23:32.624303	56.4	29.2	-86.9	4.8
2025-01-23 07:23:33.779539	56.7	29.3	-87.5	5.1
2025-01-23 07:23:34.946159	57.0	29.4	-87.7	8.5
2025-01-23 07:23:36.100234	57.4	29.5	-87.7	7.4
2025-01-23 07:23:37.263757	57.7	29.7	-87.4	10.0
2025-01-23 07:23:38.417063	58.0	29.8	-87.4	4.4
2025-01-23 07:23:39.576869	58.3	29.9	-87.8	5.2
2025-01-23 07:23:40.732411	58.6	30.0	-87.3	5.9
2025-01-23 07:23:41.884679	58.9	30.2	-87.2	5.3
2025-01-23 07:23:43.058335	59.2	30.3	-87.1	7.1
2025-01-23 07:23:44.221933	59.6	30.4	-87.2	5.9
2025-01-23 07:23:45.374791	59.9	30.5	-87.0	8.6
2025-01-23 07:23:46.534887	60.2	30.7	-87.7	8.9
2025-01-23 07:23:47.698479	60.6	30.8	-87.6	7.6
2025-01-23 07:23:48.853611	60.9	30.9	-87.7	5.0
2025-01-23 07:23:50.006947	61.2	31.0	-87.6	4.4
2025-01-23 07:23:51.157598	61.6	31.2	-86.6	3.7
2025-01-23 07:23:52.315129	61.9	31.3	-86.6	3.4
2025-01-23 07:23:53.470872	62.2	31.4	-86.1	6.0
2025-01-23 07:23:54.629231	62.6	31.5	-86.9	4.9
2025-01-23 07:23:55.789391	62.9	31.6	-86.9	4.4
2025-01-23 07:23:56.936584	63.3	31.8	-87.1	4.7
2025-01-23 07:23:58.088732	63.6	31.9	-87.0	5.8
2025-01-23 07:23:59.243012	64.0	32.0	-85.8	6.3
2025-01-23 07:24:00.398971	64.4	32.1	-86.5	8.2
2025-01-23 07:24:01.561728	64.7	32.2	-86.8	13.3
2025-01-23 07:24:02.719398	65.1	32.3	-86.9	7.3
2025-01-23 07:24:03.874671	65.4	32.4	-87.1	7.2
2025-01-23 07:24:05.034045	65.8	32.6	-86.9	8.6
2025-01-23 07:24:06.183689	66.2	32.7	-87.2	6.3
2025-01-23 07:24:07.335618	66.6	32.8	-87.3	5.2
2025-01-23 07:24:08.491631	66.9	32.9	-87.1	9.1
2025-01-23 07:24:09.645498	67.3	33.0	-86.9	8.4
2025-01-23 07:24:10.808426	67.7	33.1	-87.6	4.9
2025-01-23 07:24:11.969203	68.1	33.2	-87.9	9.8
2025-01-23 07:24:13.124061	68.5	33.3	-88.1	14.8
2025-01-23 07:24:14.275932	68.8	33.4	-87.0	15.1
2025-01-23 07:24:15.421118	69.2	33.5	-87.4	15.0
2025-01-23 07:24:16.578107	69.6	33.6	-87.6	11.8
2025-01-23 07:24:17.726897	70.0	33.7	-87.4	9.1
2025-01-23 07:24:18.874356	70.4	33.8	-87.1	7.8
2025-01-23 07:24:20.032585	70.8	33.9	-87.5	6.2
2025-01-23 07:24:21.186203	71.2	34.0	-87.2	5.1
2025-01-23 07:24:22.337117	71.6	34.1	-87.4	5.2
2025-01-23 07:24:23.489693	72.0	34.2	-87.2	2.9
2025-01-23 07:24:24.648323	72.4	34.3	-87.8	5.3
2025-01-23 07:24:25.798541	72.8	34.4	-88.1	4.5
2025-01-23 07:24:26.964307	73.2	34.5	-88.1	6.4
2025-01-23 07:24:28.108387	73.7	34.6	-87.9	6.3
2025-01-23 07:24:29.270241	74.1	34.7	-87.3	4.0
2025-01-23 07:24:30.424152	74.5	34.8	-87.7	8.5
2025-01-23 07:24:31.570645	74.9	34.8	-88.2	9.1
2025-01-23 07:24:32.718031	75.3	34.9	-88.4	13.5
2025-01-23 07:24:33.866410	75.8	35.0	-88.4	15.4
2025-01-23 07:24:35.021412	76.2	35.1	-88.1	16.4
2025-01-23 07:24:36.169407	76.6	35.2	-87.4	11.4
2025-01-23 07:24:37.333154	77.1	35.2	-87.7	11.7
2025-01-23 07:24:38.485531	77.5	35.3	-87.6	7.4
2025-01-23 07:24:39.644581	77.9	35.4	-87.5	12.2
2025-01-23 07:24:40.797672	78.4	35.5	-87.8	12.9
2025-01-23 07:24:41.950087	78.8	35.5	-87.8	10.7
2025-01-23 07:24:43.106455	79.2	35.6	-88.0	6.2
2025-01-23 07:24:44.259045	79.7	35.7	-87.9	11.4
2025-01-23 07:24:45.414049	80.1	35.7	-87.8	7.5
2025-01-23 07:24:46.567597	80.6	35.8	-87.7	9.2
2025-01-23 07:24:47.716442	81.0	35.9	-88.0	5.3
2025-01-23 07:24:48.868145	81.5	35.9	-88.0	11.5
2025-01-23 07:24:50.022652	81.9	36.0	-88.0	11.3
2025-01-23 07:24:51.176579	82.4	36.0	-88.1	12.0
2025-01-23 07:24:52.334454	82.8	36.1	-87.4	6.6
2025-01-23 07:24:53.484370	83.3	36.1	-87.5	9.5
2025-01-23 07:24:54.637202	83.7	36.2	-87.9	9.5
2025-01-23 07:24:55.792500	84.2	36.2	-87.9	8.9
2025-01-23 07:24:56.954829	84.7	36.3	-87.9	6.5
2025-01-23 07:24:58.105173	85.1	36.3	-87.5	6.9
2025-01-23 07:24:59.259877	85.6	36.4	-87.6	11.9
2025-01-23 07:25:00.408965	86.1	36.4	-85.1	7.5
2025-01-23 07:25:01.565527	86.5	36.5	-86.9	3.3
2025-01-23 07:25:02.720586	87.0	36.5	-86.8	6.9
2025-01-23 07:25:03.884035	87.5	36.5	-87.0	8.2
2025-01-23 07:25:05.037930	87.9	36.6	-87.0	2.5
2025-01-23 07:25:06.196068	88.4	36.6	-86.9	8.3
2025-01-23 07:25:07.351016	88.9	36.6	-87.2	5.9
2025-01-23 07:25:08.508132	89.3	36.7	-87.8	5.5
2025-01-23 07:25:09.663264	89.8	36.7	-88.1	6.0
2025-01-23 07:25:10.817734	90.3	36.7	-87.6	8.1
2025-01-23 07:25:11.971392	90.8	36.7	-87.8	7.4
2025-01-23 07:25:13.124039	91.2	36.7	-85.5	6.7
2025-01-23 07:25:14.276843	91.7	36.8	-86.6	12.3
2025-01-23 07:25:15.429192	92.2	36.8	-87.3	8.9
2025-01-23 07:25:16.588108	92.7	36.8	-87.4	9.9
2025-01-23 07:25:17.740955	93.1	36.8	-87.8	12.0
2025-01-23 07:25:18.896431	93.6	36.8	-88.3	9.1
2025-01-23 07:25:20.056441	94.1	36.8	-87.9	9.1
2025-01-23 07:25:21.207860	94.6	36.8	-87.7	10.1
2025-01-23 07:25:22.360043	95.0	36.8	-87.5	8.4
2025-01-23 07:25:23.507414	95.5	36.8	-86.9	8.0
2025-01-23 07:25:24.666627	96.0	36.8	-87.4	10.6
2025-01-23 07:25:25.827329	96.5	36.8	-87.0	10.8
2025-01-23 07:25:26.982447	96.9	36.8	-87.2	11.3
2025-01-23 07:25:28.145687	97.4	36.8	-87.9	11.7
2025-01-23 07:25:29.305908	97.9	36.8	-88.3	12.3
2025-01-23 07:25:30.461667	98.4	36.8	-88.4	10.5
2025-01-23 07:25:31.612826	98.9	36.7	-88.3	10.2
2025-01-23 07:25:32.767643	99.3	36.7	-88.0	13.1
2025-01-23 07:25:33.922473	99.8	36.7	-87.7	9.9
2025-01-23 07:25:35.072577	100.3	36.7	-85.3	8.5
2025-01-23 07:25:36.224944	100.7	36.6	-87.7	10.2
2025-01-23 07:25:37.380238	101.2	36.6	-87.2	7.5
2025-01-23 07:25:38.541325	101.7	36.6	-87.5	8.0
2025-01-23 07:25:39.697568	102.2	36.6	-87.9	10.9
2025-01-23 07:25:40.848693	102.6	36.5	-88.0	8.5
2025-01-23 07:25:42.000228	103.1	36.5	-87.6	5.5
2025-01-23 07:25:43.154776	103.6	36.5	-87.7	6.9
2025-01-23 07:25:44.304322	104.0	36.4	-87.7	8.8
2025-01-23 07:25:45.458521	104.5	36.4	-88.0	5.1
2025-01-23 07:25:46.609117	104.9	36.3	-87.7	6.2
2025-01-23 07:25:47.766363	105.4	36.3	-86.6	10.2
2025-01-23 07:25:48.915813	105.9	36.2	-86.4	7.6
2025-01-23 07:25:50.078551	106.3	36.2	-86.8	5.1
2025-01-23 07:25:51.223244	106.8	36.1	-87.6	10.6
2025-01-23 07:25:52.373646	107.2	36.1	-87.2	9.8
2025-01-23 07:25:53.520002	107.7	36.0	-87.1	5.9
2025-01-23 07:25:54.671819	108.1	36.0	-87.5	10.4
2025-01-23 07:25:55.825163	108.6	35.9	-87.3	9.3
2025-01-23 07:25:57.000397	109.0	35.8	-88.1	7.2
2025-01-23 07:25:58.152291	109.5	35.8	-88.5	10.3
2025-01-23 07:25:59.298179	109.9	35.7	-88.0	11.6
2025-01-23 07:26:00.445132	110.4	35.7	-85.9	6.9
2025-01-23 07:26:01.596141	110.8	35.6	-85.1	5.6
2025-01-23 07:26:02.749662	111.3	35.5	-87.6	9.1
2025-01-23 07:26:03.907775	111.7	35.4	-87.7	7.0
2025-01-23 07:26:05.062368	112.1	35.4	-87.4	5.7
2025-01-23 07:26:06.213541	112.6	35.3	-87.2	9.3
2025-01-23 07:26:07.371872	113.0	35.2	-87.0	5.7
2025-01-23 07:26:08.521045	113.4	35.1	-87.3	4.2
2025-01-23 07:26:09.677368	113.9	35.1	-88.0	10.3
2025-01-23 07:26:10.830624	114.3	35.0	-88.3	11.1
2025-01-23 07:26:11.979813	114.7	34.9	-88.0	6.2
2025-01-23 07:26:13.133191	115.1	34.8	-88.4	6.6
2025-01-23 07:26:14.282445	115.6	34.7	-87.9	10.5
2025-01-23 07:26:15.442796	116.0	34.6	-86.9	4.5
2025-01-23 07:26:16.593835	116.4	34.6	-86.7	3.6
2025-01-23 07:26:17.753304	116.8	34.5	-85.3	6.9
2025-01-23 07:26:18.898412	117.2	34.4	-84.7	6.4
2025-01-23 07:26:20.055875	117.6	34.3	-87.1	4.4
2025-01-23 07:26:21.210607	118.0	34.2	-87.0	8.7
2025-01-23 07:26:22.369103	118.5	34.1	-87.5	7.4
2025-01-23 07:26:23.517623	118.9	34.0	-87.5	3.8
2025-01-23 07:26:24.676140	119.3	33.9	-87.6	5.8
2025-01-23 07:26:25.827160	119.7	33.8	-87.5	9.0
2025-01-23 07:26:26.976327	120.0	33.7	-87.9	4.7
2025-01-23 07:26:28.124810	120.4	33.6	-86.3	5.6
2025-01-23 07:26:29.281770	120.8	33.5	-87.2	9.8
2025-01-23 07:26:30.446911	121.2	33.4	-87.7	6.5
2025-01-23 07:26:31.604247	121.6	33.3	-87.4	6.1
2025-01-23 07:26:32.758277	122.0	33.2	-87.7	11.2
2025-01-23 07:26:33.906955	122.4	33.1	-87.6	9.2
2025-01-23 07:26:35.062131	122.7	33.0	-87.2	7.5
2025-01-23 07:26:36.212506	123.1	32.9	-86.1	9.2
2025-01-23 07:26:37.370414	123.5	32.7	-87.6	10.7
2025-01-23 07:26:38.523463	123.9	32.6	-86.8	7.8
2025-01-23 07:26:39.686471	124.2	32.5	-87.5	10.8
2025-01-23 07:26:40.832551	124.6	32.4	-87.5	9.9
2025-01-23 07:26:41.986127	125.0	32.3	-87.5	8.7
2025-01-23 07:26:43.137633	125.3	32.2	-82.5	8.2
2025-01-23 07:26:44.293622	125.7	32.1	-87.6	11.9
2025-01-23 07:26:45.443102	126.0	32.0	-87.4	9.3
2025-01-23 07:26:46.588052	126.4	31.8	-87.3	9.8
2025-01-23 07:26:47.746941	126.7	31.7	-87.9	9.9
2025-01-23 07:26:48.899726	127.1	31.6	-87.3	8.1
2025-01-23 07:26:50.050579	127.4	31.5	-84.1	8.5
2025-01-23 07:26:51.202490	127.8	31.4	-87.4	7.1
2025-01-23 07:26:52.358520	128.1	31.2	-88.0	6.8
2025-01-23 07:26:53.510738	128.5	31.1	-88.2	5.6
2025-01-23 07:26:54.664863	128.8	31.0	-88.3	5.3
2025-01-23 07:26:55.818634	129.1	30.9	-88.5	5.4
2025-01-23 07:26:56.974252	129.5	30.8	-88.3	5.4
2025-01-23 07:26:58.129188	129.8	30.6	-88.1	6.3
2025-01-23 07:26:59.284788	130.1	30.5	-87.8	5.1
2025-01-23 07:27:00.434727	130.5	30.4	-84.8	3.6
2025-01-23 07:27:01.586099	130.8	30.3	-87.3	2.2
2025-01-23 07:27:02.741748	131.1	30.1	-87.7	2.2
2025-01-23 07:27:03.891769	131.4	30.0	-87.8	3.4
2025-01-23 07:27:05.044621	131.7	29.9	-87.8	1.0
2025-01-23 07:27:06.193131	132.0	29.8	-87.5	4.4
2025-01-23 07:27:07.349374	132.3	29.6	-88.2	5.1
2025-01-23 07:27:08.497992	132.6	29.5	-87.9	2.4
2025-01-23 07:27:09.646254	133.0	29.4	-87.2	5.0
2025-01-23 07:27:10.796142	133.3	29.3	-87.0	7.1
2025-01-23 07:27:11.952223	133.6	29.1	-87.1	5.2
2025-01-23 07:27:13.101395	133.9	29.0	-87.0	4.5
2025-01-23 07:27:14.251715	134.1	28.9	-86.5	6.0
2025-01-23 07:27:15.412090	134.4	28.8	-86.7	4.5
2025-01-23 07:27:16.560016	134.7	28.6	-87.4	3.1
2025-01-23 07:27:17.720160	135.0	28.5	-87.1	2.1
2025-01-23 07:27:18.877618	135.3	28.4	-87.6	4.8
2025-01-23 07:27:20.032207	135.6	28.2	-87.5	4.6
2025-01-23 07:27:21.183269	135.9	28.1	-86.8	5.0
2025-01-23 07:27:22.335899	136.2	28.0	-87.5	4.8
2025-01-23 07:27:23.489207	136.4	27.9	-87.3	3.9
2025-01-23 07:27:24.646175	136.7	27.7	-87.4	4.1
2025-01-23 07:27:25.802895	137.0	27.6	-87.9	6.0
2025-01-23 07:27:26.950191	137.3	27.5	-87.8	5.7
2025-01-23 07:27:28.101590	137.5	27.3	-87.9	5.9
2025-01-23 07:27:29.257795	137.8	27.2	-87.8	7.3
2025-01-23 07:27:30.414607	138.1	27.1	-88.1	4.8
2025-01-23 07:27:31.576675	138.3	27.0	-88.1	6.8
2025-01-23 07:27:32.740127	138.6	26.8	-87.7	5.7
2025-01-23 07:27:33.893873	138.9	26.7	-87.3	3.1
2025-01-23 07:27:35.055381	139.1	26.6	-86.7	3.3
2025-01-23 07:27:36.204213	139.4	26.4	-86.6	6.8
2025-01-23 07:27:37.359707	139.6	26.3	-86.4	4.5
2025-01-23 07:27:38.508006	139.9	26.2	-86.3	3.2
2025-01-23 07:27:39.656458	140.1	26.0	-87.4	5.8
2025-01-23 07:27:40.809005	140.4	25.9	-87.2	4.3
2025-01-23 07:27:41.968222	140.6	25.8	-87.0	3.4
2025-01-23 07:27:43.126838	140.9	25.7	-87.5	5.4
2025-01-23 07:27:44.282307	141.1	25.5	-87.6	8.6
2025-01-23 07:27:45.439224	141.3	25.4	-87.3	5.4
2025-01-23 07:27:46.593808	141.6	25.3	-88.1	6.3
2025-01-23 07:27:47.748563	141.8	25.1	-87.5	4.8
2025-01-23 07:27:48.901568	142.0	25.0	-87.2	7.8
2025-01-23 07:27:50.052485	142.3	24.9	-86.4	7.6
2025-01-23 07:27:51.202983	142.5	24.8	-85.9	7.1
2025-01-23 07:27:52.362471	142.7	24.6	-85.9	6.7
2025-01-23 07:27:53.512257	143.0	24.5	-86.7	8.1
2025-01-23 07:27:54.668290	143.2	24.4	-86.7	5.2
2025-01-23 07:27:55.828715	143.4	24.2	-86.5	6.4
2025-01-23 07:27:56.987861	143.6	24.1	-85.9	5.8
2025-01-23 07:27:58.141431	143.8	24.0	-86.3	4.4
2025-01-23 07:27:59.300218	144.1	23.9	-85.9	6.6
2025-01-23 07:28:00.453594	144.3	23.7	-85.9	4.6
2025-01-23 07:28:01.605438	144.5	23.6	-86.7	3.9
2025-01-23 07:28:02.758021	144.7	23.5	-87.1	7.5
2025-01-23 07:28:03.916015	144.9	23.4	-87.2	4.8
2025-01-23 07:28:05.069690	145.1	23.2	-87.0	3.3
2025-01-23 07:28:06.223316	145.3	23.1	-86.6	5.6
2025-01-23 07:28:07.378096	145.5	23.0	-86.4	5.5
2025-01-23 07:28:08.530905	145.7	22.9	-87.0	3.5
2025-01-23 07:28:09.683706	145.9	22.7	-87.0	7.7
2025-01-23 07:28:10.843016	146.2	22.6	-87.7	8.4
2025-01-23 07:28:11.995132	146.4	22.5	-88.0	7.0
2025-01-23 07:28:13.145816	146.5	22.4	-87.6	4.7
2025-01-23 07:28:14.304590	146.7	22.2	-87.5	5.2
2025-01-23 07:28:15.454872	146.9	22.1	-88.2	6.2
2025-01-23 07:28:16.603594	147.1	22.0	-88.1	5.9
2025-01-23 07:28:17.753382	147.3	21.9	-87.6	6.9
2025-01-23 07:28:18.923617	147.5	21.7	-88.9	5.2
2025-01-23 07:28:20.070638	147.7	21.6	-87.3	4.8
2025-01-23 07:28:21.219100	147.9	21.5	-86.5	4.6
2025-01-23 07:28:22.367916	148.1	21.4	-86.6	4.0
2025-01-23 07:28:23.523589	148.3	21.3	-87.2	5.2
2025-01-23 07:28:24.692490	148.5	21.1	-87.1	3.0
2025-01-23 07:28:25.846727	148.6	21.0	-87.5	4.4
2025-01-23 07:28:26.995851	148.8	20.9	-87.9	4.6
2025-01-23 07:28:28.153923	149.0	20.8	-88.3	4.7
2025-01-23 07:28:29.299217	149.2	20.6	-88.3	3.5
2025-01-23 07:28:30.452537	149.3	20.5	-88.5	3.3
2025-01-23 07:28:31.619267	149.5	20.4	-88.3	4.6
2025-01-23 07:28:32.780118	149.7	20.3	-88.4	4.0
2025-01-23 07:28:33.933186	149.9	20.2	-88.3	6.5
2025-01-23 07:28:35.082751	150.0	20.0	-87.9	6.2
2025-01-23 07:28:36.248016	150.2	19.9	-87.0	4.3
2025-01-23 07:28:37.389903	150.4	19.8	-87.2	5.9
2025-01-23 07:28:38.543661	150.6	19.7	-86.8	4.6
2025-01-23 07:28:39.697942	150.7	19.6	-87.3	3.1
2025-01-23 07:28:40.853799	150.9	19.5	-87.6	3.4
2025-01-23 07:28:42.008376	151.0	19.3	-87.6	1.7
2025-01-23 07:28:43.168118	151.2	19.2	-86.9	4.7
2025-01-23 07:28:44.321145	151.4	19.1	-86.5	3.6
2025-01-23 07:28:45.474854	151.5	19.0	-87.0	3.1
2025-01-23 07:28:46.625997	151.7	18.9	-87.1	2.2
2025-01-23 07:28:47.784755	151.9	18.8	-87.5	4.8
2025-01-23 07:28:48.941879	152.0	18.6	-87.5	4.4
2025-01-23 07:28:50.098812	152.2	18.5	-87.5	2.1
2025-01-23 07:28:51.248056	152.3	18.4	-87.8	3.0
2025-01-23 07:28:52.407179	152.5	18.3	-86.8	2.5
2025-01-23 07:28:53.555304	152.6	18.2	-87.6	4.6
2025-01-23 07:28:54.707139	152.8	18.1	-87.9	5.6
2025-01-23 07:28:55.854763	152.9	18.0	-87.8	0.2
2025-01-23 07:28:57.009944	153.1	17.8	-87.5	5.0
2025-01-23 07:28:58.162398	153.2	17.7	-87.9	3.3
2025-01-23 07:28:59.320699	153.4	17.6	-87.8	3.6
2025-01-23 07:29:00.473864	153.5	17.5	-87.8	2.8
2025-01-23 07:29:01.631073	153.7	17.4	-87.8	2.1
2025-01-23 07:29:02.786933	153.8	17.3	-87.7	2.5
2025-01-23 07:29:03.936769	154.0	17.2	-88.0	0.7
2025-01-23 07:29:05.088868	154.1	17.1	-87.9	2.2
2025-01-23 07:29:06.240383	154.2	17.0	-87.5	1.8
2025-01-23 07:29:07.387342	154.4	16.8	-87.9	5.1
2025-01-23 07:29:08.556710	154.5	16.7	-87.3	1.4
2025-01-23 07:29:09.707548	154.7	16.6	-87.4	3.5
2025-01-23 07:29:10.859038	154.8	16.5	-87.8	3.7
2025-01-23 07:29:12.013520	154.9	16.4	-87.6	4.4
2025-01-23 07:29:13.177462	155.1	16.3	-87.1	5.0
2025-01-23 07:29:14.331449	155.2	16.2	-86.7	4.3
2025-01-23 07:29:15.497120	155.3	16.1	-87.1	3.7
2025-01-23 07:29:16.652892	155.5	16.0	-87.6	4.9
2025-01-23 07:29:17.810795	155.6	15.9	-87.5	5.1
2025-01-23 07:29:18.965468	155.7	15.8	-87.7	3.8
2025-01-23 07:29:20.116069	155.9	15.7	-87.2	3.8
2025-01-23 07:29:21.266146	156.0	15.6	-86.9	2.7
2025-01-23 07:29:22.424864	156.1	15.4	-87.6	2.4
2025-01-23 07:29:23.582138	156.2	15.3	-87.3	3.3
2025-01-23 07:29:24.735207	156.4	15.2	-87.7	5.7
2025-01-23 07:29:25.887285	156.5	15.1	-86.8	6.0
2025-01-23 07:29:27.037047	156.6	15.0	-87.5	4.9
2025-01-23 07:29:28.184890	156.7	14.9	-86.7	3.0
2025-01-23 07:29:29.344597	156.9	14.8	-87.1	3.5
2025-01-23 07:29:30.499967	157.0	14.7	-87.0	3.9
2025-01-23 07:29:31.663770	157.1	14.6	-87.4	2.1
2025-01-23 07:29:32.849701	157.2	14.5	-86.9	3.2
#Closed at: 2025-01-23 07:21:21.885709