passes_logs/2025/01/23/LEX_Murmansk/LEX_Murmansk__20250123_074505_NOAA_18_rec.log

#Pass ID: 20250123_074505_NOAA 18
#Satellite: NOAA 18
#Configuration: NOAA 18
#Start time: 2025-01-23 07:45:00.533487

#LorettStation: 1.0.0 05.05.2024
#Station: LEX_Murmansk
#Location: 33.156738 lon 68.926811 lat
#TLE: 1 28654U 05018A   25022.24143052  .00000458  00000+0  26647-3 0  9995
#TLE: 2 28654  98.8556 103.2235 0014680 159.1096 201.0679 14.13493787 14203

#Time	Az	El	Level	SNR
2025-01-23 07:45:12.668205	42.2	15.8	-88.9	5.9
2025-01-23 07:45:13.815627	42.4	15.9	-89.2	4.7
2025-01-23 07:45:14.965567	42.6	16.0	-89.1	3.3
2025-01-23 07:45:16.112181	42.8	16.1	-88.7	3.4
2025-01-23 07:45:17.261411	43.0	16.2	-89.0	4.4
2025-01-23 07:45:18.408844	43.2	16.2	-88.9	5.4
2025-01-23 07:45:19.557349	43.4	16.3	-89.4	4.4
2025-01-23 07:45:20.707563	43.6	16.4	-89.3	5.4
2025-01-23 07:45:21.856689	43.8	16.5	-89.0	5.4
2025-01-23 07:45:23.006622	44.0	16.5	-88.9	6.4
2025-01-23 07:45:24.151851	44.2	16.6	-89.2	7.1
2025-01-23 07:45:25.297901	44.4	16.7	-88.9	5.9
2025-01-23 07:45:26.448373	44.6	16.8	-88.6	3.8
2025-01-23 07:45:27.614480	44.8	16.9	-89.2	4.6
2025-01-23 07:45:28.761252	45.0	16.9	-89.4	4.6
2025-01-23 07:45:29.909060	45.2	17.0	-89.2	5.3
2025-01-23 07:45:31.055719	45.4	17.1	-88.7	5.1
2025-01-23 07:45:32.202580	45.6	17.2	-89.2	4.9
2025-01-23 07:45:33.352708	45.8	17.3	-88.7	6.5
2025-01-23 07:45:34.495347	46.0	17.3	-88.7	5.3
2025-01-23 07:45:35.642105	46.2	17.4	-88.9	4.8
2025-01-23 07:45:36.791091	46.4	17.5	-88.8	7.2
2025-01-23 07:45:37.935827	46.7	17.6	-88.2	5.7
2025-01-23 07:45:39.087031	46.9	17.6	-88.1	5.0
2025-01-23 07:45:40.248287	47.1	17.7	-88.1	4.6
2025-01-23 07:45:41.400445	47.3	17.8	-88.2	6.3
2025-01-23 07:45:42.547538	47.5	17.9	-88.1	3.8
2025-01-23 07:45:43.694746	47.7	17.9	-88.3	7.2
2025-01-23 07:45:44.840187	48.0	18.0	-88.9	14.7
2025-01-23 07:45:45.990184	48.2	18.1	-88.8	6.6
2025-01-23 07:45:47.136391	48.4	18.2	-88.9	7.5
2025-01-23 07:45:48.286421	48.6	18.3	-88.9	6.9
2025-01-23 07:45:49.435046	48.8	18.3	-89.0	6.8
2025-01-23 07:45:50.580187	49.1	18.4	-89.0	5.0
2025-01-23 07:45:51.730567	49.3	18.5	-89.4	6.6
2025-01-23 07:45:52.879244	49.5	18.6	-89.1	6.9
2025-01-23 07:45:54.033768	49.7	18.6	-89.5	5.4
2025-01-23 07:45:55.187280	50.0	18.7	-89.1	4.8
2025-01-23 07:45:56.336814	50.2	18.8	-88.7	9.6
2025-01-23 07:45:57.493727	50.4	18.9	-88.5	8.5
2025-01-23 07:45:58.644197	50.7	18.9	-88.8	10.2
2025-01-23 07:45:59.795039	50.9	19.0	-88.9	7.3
2025-01-23 07:46:00.942093	51.1	19.1	-88.9	6.9
2025-01-23 07:46:02.084711	51.4	19.2	-88.3	5.4
2025-01-23 07:46:03.234208	51.6	19.2	-88.6	9.1
2025-01-23 07:46:04.379718	51.8	19.3	-88.4	9.0
2025-01-23 07:46:05.529171	52.1	19.4	-89.0	10.1
2025-01-23 07:46:06.671412	52.3	19.4	-89.2	6.6
2025-01-23 07:46:07.821103	52.6	19.5	-89.1	11.6
2025-01-23 07:46:08.971492	52.8	19.6	-89.1	13.5
2025-01-23 07:46:10.117495	53.0	19.7	-89.2	14.5
2025-01-23 07:46:11.270447	53.3	19.7	-89.2	9.4
2025-01-23 07:46:12.415389	53.5	19.8	-89.6	9.4
2025-01-23 07:46:13.561767	53.8	19.9	-89.2	9.3
2025-01-23 07:46:14.712163	54.0	19.9	-89.4	7.1
2025-01-23 07:46:15.860464	54.3	20.0	-89.4	7.5
2025-01-23 07:46:17.010628	54.5	20.1	-89.4	4.7
2025-01-23 07:46:18.161744	54.8	20.2	-89.1	11.0
2025-01-23 07:46:19.310195	55.0	20.2	-89.3	7.4
2025-01-23 07:46:20.457341	55.3	20.3	-88.8	4.0
2025-01-23 07:46:21.587909	55.5	20.4	-89.1	8.9
2025-01-23 07:46:22.708680	55.8	20.4	-88.6	9.2
2025-01-23 07:46:23.830184	56.0	20.5	-89.1	12.0
2025-01-23 07:46:24.951088	56.3	20.6	-89.1	6.8
2025-01-23 07:46:26.071799	56.5	20.6	-89.3	10.8
2025-01-23 07:46:27.192997	56.8	20.7	-89.0	15.7
2025-01-23 07:46:28.313591	57.0	20.7	-89.4	12.8
2025-01-23 07:46:29.433665	57.3	20.8	-88.7	7.5
2025-01-23 07:46:30.567781	57.5	20.9	-88.7	10.4
2025-01-23 07:46:31.714407	57.8	20.9	-88.9	10.9
2025-01-23 07:46:32.867217	58.1	21.0	-88.9	10.6
2025-01-23 07:46:34.018645	58.3	21.1	-89.6	7.9
2025-01-23 07:46:35.175440	58.6	21.1	-89.4	14.6
2025-01-23 07:46:36.326464	58.9	21.2	-88.7	13.7
2025-01-23 07:46:37.472009	59.1	21.3	-89.6	6.7
2025-01-23 07:46:38.632789	59.4	21.3	-89.6	11.1
2025-01-23 07:46:39.783541	59.7	21.4	-89.6	15.1
2025-01-23 07:46:40.931197	60.0	21.4	-89.5	10.1
2025-01-23 07:46:42.082485	60.2	21.5	-88.7	9.7
2025-01-23 07:46:43.230875	60.5	21.6	-89.0	8.0
2025-01-23 07:46:44.380465	60.8	21.6	-88.3	10.4
2025-01-23 07:46:45.530766	61.1	21.7	-88.5	8.4
2025-01-23 07:46:46.686201	61.3	21.7	-88.6	13.0
2025-01-23 07:46:47.837222	61.6	21.8	-89.5	9.5
2025-01-23 07:46:48.982299	61.9	21.9	-88.8	7.6
2025-01-23 07:46:50.129632	62.2	21.9	-89.3	7.8
2025-01-23 07:46:51.274917	62.5	22.0	-88.9	12.8
2025-01-23 07:46:52.425373	62.7	22.0	-89.5	8.0
2025-01-23 07:46:53.575558	63.0	22.1	-89.8	10.4
2025-01-23 07:46:54.724498	63.3	22.1	-89.4	18.0
2025-01-23 07:46:55.868494	63.6	22.2	-89.7	12.8
2025-01-23 07:46:57.021326	63.9	22.2	-89.6	18.6
2025-01-23 07:46:58.169362	64.2	22.3	-89.6	14.9
2025-01-23 07:46:59.316595	64.4	22.4	-89.3	13.8
2025-01-23 07:47:00.466890	64.7	22.4	-89.1	14.1
2025-01-23 07:47:01.611083	65.0	22.5	-89.9	8.8
2025-01-23 07:47:02.760304	65.3	22.5	-89.5	9.7
2025-01-23 07:47:03.909015	65.6	22.6	-89.5	9.9
2025-01-23 07:47:05.057286	65.9	22.6	-89.5	8.7
2025-01-23 07:47:06.209099	66.2	22.6	-89.4	11.5
2025-01-23 07:47:07.354701	66.5	22.7	-89.0	11.5
2025-01-23 07:47:08.502092	66.8	22.7	-89.2	8.8
2025-01-23 07:47:09.656673	67.1	22.8	-89.6	11.6
2025-01-23 07:47:10.809214	67.4	22.8	-89.9	10.1
2025-01-23 07:47:11.952916	67.7	22.9	-89.5	15.7
2025-01-23 07:47:13.102040	68.0	22.9	-89.1	13.4
2025-01-23 07:47:14.250196	68.3	23.0	-89.1	13.0
2025-01-23 07:47:15.395442	68.6	23.0	-89.2	12.0
2025-01-23 07:47:16.541238	68.9	23.1	-88.7	5.1
2025-01-23 07:47:17.690992	69.2	23.1	-88.9	12.1
2025-01-23 07:47:18.836233	69.5	23.1	-89.0	10.5
2025-01-23 07:47:19.985295	69.8	23.2	-88.8	9.0
2025-01-23 07:47:21.144032	70.1	23.2	-88.8	11.6
2025-01-23 07:47:22.298552	70.4	23.3	-88.5	12.4
2025-01-23 07:47:23.447027	70.7	23.3	-89.3	7.8
2025-01-23 07:47:24.596888	71.0	23.3	-89.4	7.5
2025-01-23 07:47:25.744933	71.3	23.4	-89.7	14.0
2025-01-23 07:47:26.887737	71.6	23.4	-89.9	6.6
2025-01-23 07:47:28.033644	71.9	23.4	-89.2	6.3
2025-01-23 07:47:29.181307	72.2	23.5	-88.9	13.0
2025-01-23 07:47:30.339685	72.5	23.5	-89.2	8.8
2025-01-23 07:47:31.488923	72.9	23.5	-89.3	8.8
2025-01-23 07:47:32.643552	73.2	23.6	-89.6	10.3
2025-01-23 07:47:33.792983	73.5	23.6	-89.9	11.8
2025-01-23 07:47:34.940560	73.8	23.6	-89.0	14.6
2025-01-23 07:47:36.093519	74.1	23.6	-89.7	8.0
2025-01-23 07:47:37.245288	74.4	23.7	-89.4	11.9
2025-01-23 07:47:38.400613	74.7	23.7	-89.5	11.0
2025-01-23 07:47:39.546462	75.1	23.7	-89.9	7.9
2025-01-23 07:47:40.698781	75.4	23.8	-89.3	5.8
2025-01-23 07:47:41.846599	75.7	23.8	-89.3	14.6
2025-01-23 07:47:42.995678	76.0	23.8	-89.5	10.3
2025-01-23 07:47:44.145522	76.3	23.8	-89.1	13.4
2025-01-23 07:47:45.295467	76.6	23.8	-88.7	12.0
2025-01-23 07:47:46.451510	77.0	23.9	-89.0	6.6
2025-01-23 07:47:47.602218	77.3	23.9	-89.6	8.6
2025-01-23 07:47:48.750286	77.6	23.9	-89.3	7.5
2025-01-23 07:47:49.899298	77.9	23.9	-89.5	7.8
2025-01-23 07:47:51.048504	78.2	23.9	-89.5	6.8
2025-01-23 07:47:52.196314	78.5	24.0	-89.2	8.0
2025-01-23 07:47:53.341592	78.9	24.0	-89.3	7.6
2025-01-23 07:47:54.497038	79.2	24.0	-89.6	8.8
2025-01-23 07:47:55.644631	79.5	24.0	-89.6	11.6
2025-01-23 07:47:56.786807	79.8	24.0	-89.6	10.9
2025-01-23 07:47:57.946360	80.1	24.0	-89.9	7.3
2025-01-23 07:47:59.099936	80.5	24.0	-89.2	6.7
2025-01-23 07:48:00.251267	80.8	24.0	-89.4	9.0
2025-01-23 07:48:01.397077	81.1	24.1	-89.7	8.4
2025-01-23 07:48:02.547261	81.4	24.1	-89.5	10.0
2025-01-23 07:48:03.700188	81.8	24.1	-89.8	14.8
2025-01-23 07:48:04.848930	82.1	24.1	-89.3	5.7
2025-01-23 07:48:05.998117	82.4	24.1	-89.4	6.6
2025-01-23 07:48:07.147779	82.7	24.1	-89.3	4.9
2025-01-23 07:48:08.294563	83.0	24.1	-89.3	4.9
2025-01-23 07:48:09.442234	83.4	24.1	-88.6	3.6
2025-01-23 07:48:10.592930	83.7	24.1	-89.0	4.7
2025-01-23 07:48:11.743316	84.0	24.1	-89.0	4.6
2025-01-23 07:48:12.892093	84.3	24.1	-88.6	3.1
2025-01-23 07:48:14.048568	84.7	24.1	-88.8	4.3
2025-01-23 07:48:15.199810	85.0	24.1	-88.6	4.9
2025-01-23 07:48:16.348760	85.3	24.1	-88.4	5.7
2025-01-23 07:48:17.496282	85.6	24.1	-88.9	5.0
2025-01-23 07:48:18.650004	85.9	24.1	-88.9	6.9
2025-01-23 07:48:19.794182	86.3	24.1	-89.4	4.1
2025-01-23 07:48:20.950750	86.6	24.1	-89.7	3.9
2025-01-23 07:48:22.102226	86.9	24.1	-89.5	4.7
2025-01-23 07:48:23.250505	87.2	24.0	-89.4	3.3
2025-01-23 07:48:24.398039	87.6	24.0	-89.6	2.5
2025-01-23 07:48:25.543843	87.9	24.0	-89.4	4.5
2025-01-23 07:48:26.692296	88.2	24.0	-89.4	4.8
2025-01-23 07:48:27.842247	88.5	24.0	-89.5	4.6
2025-01-23 07:48:28.996620	88.8	24.0	-89.8	5.1
2025-01-23 07:48:30.135446	89.2	24.0	-89.8	4.1
2025-01-23 07:48:31.283284	89.5	24.0	-89.4	1.6
2025-01-23 07:48:32.431119	89.8	23.9	-89.5	6.7
2025-01-23 07:48:33.582519	90.1	23.9	-90.0	4.2
2025-01-23 07:48:34.731688	90.4	23.9	-90.1	7.1
2025-01-23 07:48:35.886348	90.8	23.9	-89.8	7.5
2025-01-23 07:48:37.036390	91.1	23.9	-88.6	4.6
2025-01-23 07:48:38.183603	91.4	23.8	-88.6	6.8
2025-01-23 07:48:39.333805	91.7	23.8	-88.9	7.4
2025-01-23 07:48:40.482683	92.0	23.8	-88.5	5.0
2025-01-23 07:48:41.627159	92.3	23.8	-89.0	6.1
2025-01-23 07:48:42.771699	92.7	23.8	-88.7	7.3
2025-01-23 07:48:43.918540	93.0	23.7	-88.9	4.4
2025-01-23 07:48:45.071677	93.3	23.7	-88.1	6.6
2025-01-23 07:48:46.213094	93.6	23.7	-88.5	5.7
2025-01-23 07:48:47.370689	93.9	23.7	-88.1	5.0
2025-01-23 07:48:48.522750	94.2	23.6	-88.7	4.9
2025-01-23 07:48:49.669184	94.6	23.6	-88.3	4.6
2025-01-23 07:48:50.822243	94.9	23.6	-88.4	5.2
2025-01-23 07:48:51.968618	95.2	23.5	-88.4	4.4
2025-01-23 07:48:53.115388	95.5	23.5	-88.3	5.0
2025-01-23 07:48:54.263874	95.8	23.5	-89.2	5.2
2025-01-23 07:48:55.414752	96.1	23.4	-89.5	8.0
2025-01-23 07:48:56.562269	96.4	23.4	-89.1	7.2
2025-01-23 07:48:57.709953	96.7	23.4	-89.4	7.3
2025-01-23 07:48:58.857990	97.0	23.3	-89.9	8.1
2025-01-23 07:49:00.003974	97.3	23.3	-89.1	7.7
2025-01-23 07:49:01.151071	97.6	23.3	-89.3	8.1
2025-01-23 07:49:02.294770	98.0	23.2	-89.2	7.4
2025-01-23 07:49:03.439920	98.3	23.2	-89.1	7.7
2025-01-23 07:49:04.589036	98.6	23.1	-89.4	9.6
2025-01-23 07:49:05.733537	98.9	23.1	-89.9	11.4
2025-01-23 07:49:06.880876	99.2	23.1	-89.8	10.4
2025-01-23 07:49:08.029289	99.5	23.0	-89.6	11.1
2025-01-23 07:49:09.179731	99.8	23.0	-89.2	10.7
2025-01-23 07:49:10.330004	100.1	22.9	-89.3	11.8
2025-01-23 07:49:11.477330	100.4	22.9	-89.3	9.5
2025-01-23 07:49:12.623586	100.7	22.8	-89.7	8.1
2025-01-23 07:49:13.779338	101.0	22.8	-89.8	8.9
2025-01-23 07:49:14.925625	101.3	22.7	-89.1	7.3
2025-01-23 07:49:16.074700	101.6	22.7	-89.3	6.1
2025-01-23 07:49:17.221488	101.9	22.7	-89.6	8.5
2025-01-23 07:49:18.366594	102.2	22.6	-89.8	8.8
2025-01-23 07:49:19.512170	102.4	22.6	-89.5	6.9
2025-01-23 07:49:20.659433	102.7	22.5	-89.1	8.4
2025-01-23 07:49:21.808519	103.0	22.5	-89.4	8.9
2025-01-23 07:49:22.966272	103.3	22.4	-89.3	6.5
2025-01-23 07:49:24.113699	103.6	22.4	-88.8	7.0
2025-01-23 07:49:25.262451	103.9	22.3	-89.1	9.1
2025-01-23 07:49:26.416590	104.2	22.2	-89.3	6.6
2025-01-23 07:49:27.560070	104.5	22.2	-90.0	8.0
2025-01-23 07:49:28.706509	104.8	22.1	-89.5	7.1
2025-01-23 07:49:29.855782	105.1	22.1	-89.2	8.5
2025-01-23 07:49:31.002488	105.3	22.0	-89.7	9.6
2025-01-23 07:49:32.152409	105.6	22.0	-89.3	5.2
2025-01-23 07:49:33.298670	105.9	21.9	-89.2	5.6
2025-01-23 07:49:34.447955	106.2	21.9	-89.7	5.3
2025-01-23 07:49:35.594468	106.5	21.8	-89.7	5.9
2025-01-23 07:49:36.758496	106.7	21.7	-89.5	5.8
2025-01-23 07:49:37.906084	107.0	21.7	-89.9	8.5
2025-01-23 07:49:39.056052	107.3	21.6	-89.7	8.2
2025-01-23 07:49:40.208509	107.6	21.6	-89.4	6.1
2025-01-23 07:49:41.354905	107.9	21.5	-89.9	4.2
2025-01-23 07:49:42.507948	108.1	21.4	-89.4	7.4
2025-01-23 07:49:43.658479	108.4	21.4	-89.0	8.7
2025-01-23 07:49:44.810316	108.7	21.3	-89.6	6.3
2025-01-23 07:49:45.958506	109.0	21.3	-89.9	6.9
2025-01-23 07:49:47.107586	109.2	21.2	-89.2	8.6
2025-01-23 07:49:48.257260	109.5	21.1	-89.5	6.6
2025-01-23 07:49:49.398998	109.8	21.1	-89.4	7.6
2025-01-23 07:49:50.539167	110.0	21.0	-89.6	7.4
2025-01-23 07:49:51.686184	110.3	20.9	-89.5	7.2
2025-01-23 07:49:52.833912	110.6	20.9	-89.4	7.4
2025-01-23 07:49:53.982742	110.8	20.8	-89.7	6.8
2025-01-23 07:49:55.122590	111.1	20.7	-89.4	9.1
2025-01-23 07:49:56.273490	111.3	20.7	-89.7	9.6
2025-01-23 07:49:57.419205	111.6	20.6	-89.2	7.8
2025-01-23 07:49:58.561279	111.9	20.5	-89.9	9.0
2025-01-23 07:49:59.711616	112.1	20.5	-89.8	12.5
2025-01-23 07:50:00.860863	112.4	20.4	-90.0	6.0
2025-01-23 07:50:02.007689	112.6	20.3	-89.7	6.9
2025-01-23 07:50:03.158387	112.9	20.3	-88.9	9.1
2025-01-23 07:50:04.309040	113.1	20.2	-89.7	11.2
2025-01-23 07:50:05.457279	113.4	20.1	-90.2	7.2
2025-01-23 07:50:06.614359	113.6	20.1	-89.2	9.4
2025-01-23 07:50:07.757443	113.9	20.0	-89.8	13.2
2025-01-23 07:50:08.904916	114.1	19.9	-89.7	9.3
2025-01-23 07:50:10.053766	114.4	19.8	-89.0	7.7
2025-01-23 07:50:11.197057	114.6	19.8	-88.8	10.8
2025-01-23 07:50:12.342152	114.9	19.7	-89.0	11.5
2025-01-23 07:50:13.488503	115.1	19.6	-88.8	9.2
2025-01-23 07:50:14.635635	115.4	19.6	-89.1	11.6
2025-01-23 07:50:15.781237	115.6	19.5	-88.9	12.2
2025-01-23 07:50:16.928983	115.9	19.4	-88.7	7.9
2025-01-23 07:50:18.080977	116.1	19.3	-89.1	9.8
2025-01-23 07:50:19.235797	116.3	19.3	-88.7	9.9
2025-01-23 07:50:20.383351	116.6	19.2	-88.6	10.1
2025-01-23 07:50:21.530323	116.8	19.1	-88.9	7.6
2025-01-23 07:50:22.674525	117.0	19.0	-89.2	9.3
2025-01-23 07:50:23.830490	117.3	19.0	-89.1	9.5
2025-01-23 07:50:24.982425	117.5	18.9	-89.0	7.2
2025-01-23 07:50:26.129429	117.8	18.8	-88.5	5.8
2025-01-23 07:50:27.278904	118.0	18.7	-88.7	10.0
2025-01-23 07:50:28.433597	118.2	18.7	-88.4	8.0
2025-01-23 07:50:29.577661	118.4	18.6	-89.0	10.8
2025-01-23 07:50:30.718504	118.7	18.5	-88.9	10.1
2025-01-23 07:50:31.867026	118.9	18.4	-89.6	11.3
2025-01-23 07:50:33.021337	119.1	18.4	-89.3	10.7
2025-01-23 07:50:34.170231	119.4	18.3	-89.4	12.6
2025-01-23 07:50:35.319847	119.6	18.2	-89.5	10.8
2025-01-23 07:50:36.473431	119.8	18.1	-89.6	8.7
2025-01-23 07:50:37.620320	120.0	18.1	-89.9	7.7
2025-01-23 07:50:38.767328	120.2	18.0	-89.5	9.2
2025-01-23 07:50:39.915968	120.5	17.9	-89.3	5.6
2025-01-23 07:50:41.071725	120.7	17.8	-88.4	7.1
2025-01-23 07:50:42.225811	120.9	17.7	-88.3	10.2
2025-01-23 07:50:43.377022	121.1	17.7	-88.2	7.7
2025-01-23 07:50:44.521224	121.3	17.6	-88.6	5.4
2025-01-23 07:50:45.667999	121.5	17.5	-88.4	7.7
2025-01-23 07:50:46.813410	121.8	17.4	-88.2	6.6
2025-01-23 07:50:47.962781	122.0	17.4	-89.4	5.6
2025-01-23 07:50:49.111611	122.2	17.3	-89.5	6.8
2025-01-23 07:50:50.259533	122.4	17.2	-89.7	7.3
2025-01-23 07:50:51.408864	122.6	17.1	-88.9	4.5
2025-01-23 07:50:52.561035	122.8	17.0	-89.3	6.8
2025-01-23 07:50:53.716526	123.0	17.0	-89.2	8.5
2025-01-23 07:50:54.860143	123.2	16.9	-89.4	7.2
2025-01-23 07:50:56.006401	123.4	16.8	-89.7	8.0
2025-01-23 07:50:57.152035	123.6	16.7	-89.3	10.1
2025-01-23 07:50:58.300842	123.8	16.6	-89.6	8.0
2025-01-23 07:50:59.455956	124.0	16.6	-89.9	8.6
2025-01-23 07:51:00.600215	124.2	16.5	-89.7	9.8
2025-01-23 07:51:01.746647	124.4	16.4	-89.8	6.7
2025-01-23 07:51:02.897337	124.6	16.3	-89.9	6.8
2025-01-23 07:51:04.048929	124.8	16.2	-90.1	7.8
2025-01-23 07:51:05.200573	125.0	16.2	-89.5	8.0
2025-01-23 07:51:06.347840	125.2	16.1	-89.1	6.7
2025-01-23 07:51:07.499319	125.4	16.0	-90.0	6.7
2025-01-23 07:51:08.647970	125.6	15.9	-90.1	8.2
2025-01-23 07:51:09.794555	125.8	15.8	-89.2	9.6
2025-01-23 07:51:10.942873	126.0	15.8	-89.7	6.5
2025-01-23 07:51:12.093203	126.2	15.7	-89.6	7.5
2025-01-23 07:51:13.256512	126.4	15.6	-89.3	6.5
2025-01-23 07:51:14.403078	126.6	15.5	-89.2	4.9
2025-01-23 07:51:15.544693	126.8	15.4	-88.9	5.2
2025-01-23 07:51:16.693989	126.9	15.4	-89.8	5.2
2025-01-23 07:51:17.836490	127.1	15.3	-90.1	5.5
2025-01-23 07:51:18.981308	127.3	15.2	-89.7	7.0
2025-01-23 07:51:20.123536	127.5	15.1	-89.3	4.6
2025-01-23 07:51:21.273369	127.7	15.0	-89.3	7.0
2025-01-23 07:51:22.421450	127.9	15.0	-89.0	4.5
2025-01-23 07:51:23.572273	128.0	14.9	-89.3	7.4
2025-01-23 07:51:24.720397	128.2	14.8	-88.6	6.4
2025-01-23 07:51:25.865664	128.4	14.7	-88.9	6.0
2025-01-23 07:51:27.013185	128.6	14.6	-88.7	5.8
#Closed at: 2025-01-23 07:45:05.471824