passes_logs/2025/01/23/LEX_Murmansk/LEX_Murmansk__20250123_122319_NOAA_19_rec.log

#Pass ID: 20250123_122319_NOAA 19
#Satellite: NOAA 19
#Configuration: NOAA 19
#Start time: 2025-01-23 12:23:14.384424

#LorettStation: 1.0.0 05.05.2024
#Station: LEX_Murmansk
#Location: 33.156738 lon 68.926811 lat
#TLE: 1 33591U 09005A   25022.22545190  .00000382  00000+0  22773-3 0  9990
#TLE: 2 33591  99.0184  86.0433 0014227  38.0135 322.2038 14.13265658822568

#Time	Az	El	Level	SNR
2025-01-23 12:23:26.551049	30.3	15.9	-90.6	2.0
2025-01-23 12:23:27.719188	30.1	16.0	-90.6	2.0
2025-01-23 12:23:28.876130	29.9	16.1	-90.8	3.3
2025-01-23 12:23:30.033001	29.7	16.2	-90.8	2.2
2025-01-23 12:23:31.197852	29.6	16.3	-90.4	2.8
2025-01-23 12:23:32.358398	29.4	16.4	-90.9	1.4
2025-01-23 12:23:33.518561	29.2	16.5	-90.8	1.3
2025-01-23 12:23:34.691659	29.0	16.6	-91.0	2.4
2025-01-23 12:23:35.852784	28.8	16.7	-91.0	2.7
2025-01-23 12:23:37.013477	28.6	16.8	-90.9	2.7
2025-01-23 12:23:38.178536	28.4	16.8	-90.7	1.7
2025-01-23 12:23:39.353514	28.3	16.9	-90.8	1.2
2025-01-23 12:23:40.523647	28.1	17.0	-90.9	0.8
2025-01-23 12:23:41.687288	27.9	17.1	-91.2	3.1
2025-01-23 12:23:42.848906	27.7	17.2	-91.1	3.3
2025-01-23 12:23:44.012725	27.5	17.3	-90.9	3.9
2025-01-23 12:23:45.173930	27.3	17.4	-90.8	3.9
2025-01-23 12:23:46.334812	27.1	17.5	-90.9	5.8
2025-01-23 12:23:47.495283	26.9	17.6	-90.9	4.3
2025-01-23 12:23:48.660954	26.7	17.7	-91.0	2.5
2025-01-23 12:23:49.824503	26.5	17.7	-90.6	3.9
2025-01-23 12:23:50.989702	26.3	17.8	-91.1	3.4
2025-01-23 12:23:52.149110	26.1	17.9	-90.6	4.9
2025-01-23 12:23:53.316466	25.9	18.0	-90.7	5.7
2025-01-23 12:23:54.477469	25.7	18.1	-90.9	9.5
2025-01-23 12:23:55.635599	25.5	18.2	-91.0	12.0
2025-01-23 12:23:56.797414	25.3	18.3	-91.2	7.6
2025-01-23 12:23:57.959264	25.1	18.4	-90.9	4.5
2025-01-23 12:23:59.123552	24.9	18.5	-90.4	4.3
2025-01-23 12:24:00.278350	24.7	18.6	-91.0	1.4
2025-01-23 12:24:01.441323	24.4	18.6	-91.1	2.6
2025-01-23 12:24:02.598649	24.2	18.7	-91.2	2.2
2025-01-23 12:24:03.765024	24.0	18.8	-90.9	3.1
2025-01-23 12:24:04.924243	23.8	18.9	-90.9	3.5
2025-01-23 12:24:06.088973	23.6	19.0	-90.9	3.0
2025-01-23 12:24:07.245006	23.4	19.1	-90.6	3.3
2025-01-23 12:24:08.404764	23.2	19.2	-91.0	5.9
2025-01-23 12:24:09.567547	22.9	19.3	-90.9	8.2
2025-01-23 12:24:10.732653	22.7	19.4	-90.9	6.5
2025-01-23 12:24:11.892874	22.5	19.4	-91.0	7.5
2025-01-23 12:24:13.062618	22.3	19.5	-90.9	7.3
2025-01-23 12:24:14.228382	22.0	19.6	-91.1	6.2
2025-01-23 12:24:15.390978	21.8	19.7	-91.3	7.8
2025-01-23 12:24:16.551207	21.6	19.8	-91.2	9.6
2025-01-23 12:24:17.717535	21.4	19.9	-90.9	8.9
2025-01-23 12:24:18.890808	21.1	20.0	-90.9	8.6
2025-01-23 12:24:20.053163	20.9	20.1	-90.8	5.3
2025-01-23 12:24:21.219437	20.7	20.2	-91.0	3.2
2025-01-23 12:24:22.382504	20.4	20.2	-91.1	2.9
2025-01-23 12:24:23.554196	20.2	20.3	-91.1	2.4
2025-01-23 12:24:24.711943	19.9	20.4	-90.8	1.9
2025-01-23 12:24:25.875577	19.7	20.5	-90.5	2.5
2025-01-23 12:24:27.035958	19.5	20.6	-90.8	3.7
2025-01-23 12:24:28.200101	19.2	20.7	-90.9	5.1
2025-01-23 12:24:29.360027	19.0	20.8	-90.8	4.5
2025-01-23 12:24:30.519109	18.7	20.8	-90.9	8.6
2025-01-23 12:24:31.682764	18.5	20.9	-91.0	10.2
2025-01-23 12:24:32.840443	18.2	21.0	-91.2	6.8
2025-01-23 12:24:34.004001	18.0	21.1	-91.3	8.8
2025-01-23 12:24:35.168388	17.7	21.2	-90.6	7.0
2025-01-23 12:24:36.325465	17.5	21.3	-90.7	2.6
2025-01-23 12:24:37.488632	17.2	21.3	-91.0	6.5
2025-01-23 12:24:38.652058	17.0	21.4	-91.0	7.2
2025-01-23 12:24:39.810571	16.7	21.5	-91.3	6.5
2025-01-23 12:24:40.970973	16.5	21.6	-91.0	5.7
2025-01-23 12:24:42.139481	16.2	21.7	-90.2	7.6
2025-01-23 12:24:43.302255	16.0	21.8	-90.7	5.7
2025-01-23 12:24:44.465061	15.7	21.8	-90.8	5.7
2025-01-23 12:24:45.626157	15.4	21.9	-90.9	4.5
2025-01-23 12:24:46.794440	15.2	22.0	-91.1	1.7
2025-01-23 12:24:47.956795	14.9	22.1	-91.1	4.1
2025-01-23 12:24:49.119826	14.6	22.2	-90.9	2.5
2025-01-23 12:24:50.283829	14.4	22.2	-90.6	1.2
2025-01-23 12:24:51.443405	14.1	22.3	-91.2	3.1
2025-01-23 12:24:52.607259	13.8	22.4	-90.7	4.4
2025-01-23 12:24:53.769726	13.6	22.5	-90.9	3.3
2025-01-23 12:24:54.935299	13.3	22.6	-90.9	8.4
2025-01-23 12:24:56.099320	13.0	22.6	-90.7	8.5
2025-01-23 12:24:57.263524	12.7	22.7	-90.8	6.5
2025-01-23 12:24:58.427385	12.5	22.8	-91.1	10.8
2025-01-23 12:24:59.591301	12.2	22.9	-90.8	9.1
2025-01-23 12:25:00.750674	11.9	22.9	-91.2	6.8
2025-01-23 12:25:01.911478	11.6	23.0	-90.9	7.8
2025-01-23 12:25:03.086603	11.3	23.1	-90.5	8.2
2025-01-23 12:25:04.248852	11.1	23.2	-90.0	5.8
2025-01-23 12:25:05.409107	10.8	23.2	-90.2	6.7
2025-01-23 12:25:06.574182	10.5	23.3	-91.0	10.5
2025-01-23 12:25:07.746377	10.2	23.4	-91.2	9.0
2025-01-23 12:25:08.910481	9.9	23.4	-90.7	10.6
2025-01-23 12:25:10.063453	9.6	23.5	-90.9	12.3
2025-01-23 12:25:11.230870	9.3	23.6	-90.8	9.8
2025-01-23 12:25:12.390575	9.0	23.7	-90.9	9.1
2025-01-23 12:25:13.558833	8.7	23.7	-91.1	9.1
2025-01-23 12:25:14.722281	8.4	23.8	-90.8	5.1
2025-01-23 12:25:15.889201	8.1	23.9	-90.7	5.3
2025-01-23 12:25:17.051857	7.8	23.9	-90.8	5.7
2025-01-23 12:25:18.215491	7.5	24.0	-90.9	1.8
2025-01-23 12:25:19.385135	7.2	24.1	-91.0	4.1
2025-01-23 12:25:20.539417	6.9	24.1	-91.5	4.7
2025-01-23 12:25:21.702882	6.6	24.2	-91.1	4.7
2025-01-23 12:25:22.867084	6.3	24.3	-91.1	7.3
2025-01-23 12:25:24.025999	6.0	24.3	-91.0	6.5
2025-01-23 12:25:25.184166	5.7	24.4	-90.9	7.4
2025-01-23 12:25:26.356428	5.4	24.4	-90.7	9.8
2025-01-23 12:25:27.516936	5.1	24.5	-90.8	10.7
2025-01-23 12:25:28.689447	4.8	24.6	-91.0	9.6
2025-01-23 12:25:29.855149	4.5	24.6	-91.2	10.6
2025-01-23 12:25:31.022248	4.2	24.7	-91.1	10.3
2025-01-23 12:25:32.183303	3.8	24.7	-90.8	7.3
2025-01-23 12:25:33.345878	3.5	24.8	-91.0	5.7
2025-01-23 12:25:34.509422	3.2	24.8	-91.1	8.4
2025-01-23 12:25:35.673407	2.9	24.9	-91.2	4.8
2025-01-23 12:25:36.834941	2.6	24.9	-91.2	5.6
2025-01-23 12:25:37.996152	2.3	25.0	-91.2	6.9
2025-01-23 12:25:39.162492	1.9	25.1	-91.0	8.2
2025-01-23 12:25:40.324876	1.6	25.1	-91.2	8.2
2025-01-23 12:25:41.488038	1.3	25.2	-90.8	10.4
2025-01-23 12:25:42.656921	1.0	25.2	-91.0	11.1
2025-01-23 12:25:43.821706	0.6	25.3	-90.8	12.3
2025-01-23 12:25:44.990666	0.3	25.3	-91.0	13.6
2025-01-23 12:25:46.150708	360.0	25.3	-90.6	9.6
2025-01-23 12:25:47.315460	359.7	25.4	-91.1	9.8
2025-01-23 12:25:48.483290	359.3	25.4	-91.0	9.8
2025-01-23 12:25:49.650664	359.0	25.5	-90.9	8.1
2025-01-23 12:25:50.809830	358.7	25.5	-90.9	5.4
2025-01-23 12:25:51.971631	358.3	25.6	-90.9	5.4
2025-01-23 12:25:53.136963	358.0	25.6	-90.9	4.2
2025-01-23 12:25:54.297471	357.7	25.6	-91.2	2.8
2025-01-23 12:25:55.457084	357.3	25.7	-90.7	2.7
2025-01-23 12:25:56.622440	357.0	25.7	-91.2	5.7
2025-01-23 12:25:57.792292	356.7	25.8	-90.8	2.5
2025-01-23 12:25:58.952983	356.3	25.8	-90.6	6.0
2025-01-23 12:26:00.116274	356.0	25.8	-90.6	6.8
2025-01-23 12:26:01.274032	355.7	25.9	-90.6	5.4
2025-01-23 12:26:02.438215	355.3	25.9	-90.3	6.3
2025-01-23 12:26:03.600380	355.0	25.9	-90.6	9.1
2025-01-23 12:26:04.764477	354.6	25.9	-90.7	9.9
2025-01-23 12:26:05.930508	354.3	26.0	-90.9	10.9
2025-01-23 12:26:07.090550	354.0	26.0	-89.6	8.8
2025-01-23 12:26:08.255179	353.6	26.0	-90.2	10.7
2025-01-23 12:26:09.419205	353.3	26.1	-90.1	10.7
2025-01-23 12:26:10.574895	352.9	26.1	-89.7	10.4
2025-01-23 12:26:11.741110	352.6	26.1	-89.1	9.4
2025-01-23 12:26:12.903477	352.2	26.1	-90.3	7.7
2025-01-23 12:26:14.065478	351.9	26.1	-90.0	7.4
2025-01-23 12:26:15.227034	351.6	26.2	-89.9	3.7
2025-01-23 12:26:16.388457	351.2	26.2	-91.3	5.2
2025-01-23 12:26:17.543948	350.9	26.2	-90.6	6.4
2025-01-23 12:26:18.707450	350.5	26.2	-91.0	3.4
2025-01-23 12:26:19.869485	350.2	26.2	-91.1	5.7
2025-01-23 12:26:21.033077	349.8	26.3	-90.8	6.3
2025-01-23 12:26:22.196421	349.5	26.3	-89.8	5.0
2025-01-23 12:26:23.359453	349.1	26.3	-90.2	4.4
2025-01-23 12:26:24.521182	348.8	26.3	-90.2	8.3
2025-01-23 12:26:25.683989	348.4	26.3	-90.9	7.3
2025-01-23 12:26:26.847013	348.1	26.3	-91.2	6.3
2025-01-23 12:26:28.010248	347.8	26.3	-90.5	8.5
2025-01-23 12:26:29.175823	347.4	26.3	-90.6	6.0
2025-01-23 12:26:30.333704	347.1	26.3	-90.7	8.6
2025-01-23 12:26:31.494935	346.7	26.3	-90.8	12.0
2025-01-23 12:26:32.658294	346.4	26.3	-91.0	11.3
2025-01-23 12:26:33.826684	346.0	26.3	-90.8	11.8
2025-01-23 12:26:34.991940	345.7	26.3	-91.0	13.1
2025-01-23 12:26:36.159666	345.3	26.3	-90.9	12.4
2025-01-23 12:26:37.320820	345.0	26.3	-91.2	9.3
2025-01-23 12:26:38.483392	344.6	26.3	-91.2	13.8
2025-01-23 12:26:39.642060	344.3	26.3	-91.3	10.9
2025-01-23 12:26:40.798928	343.9	26.3	-90.9	7.3
2025-01-23 12:26:41.963037	343.6	26.3	-91.1	5.6
2025-01-23 12:26:43.123845	343.2	26.3	-91.1	6.6
2025-01-23 12:26:44.288722	342.9	26.3	-90.9	7.8
2025-01-23 12:26:45.452750	342.5	26.3	-90.7	9.2
2025-01-23 12:26:46.608619	342.2	26.3	-91.1	9.0
2025-01-23 12:26:47.761818	341.8	26.3	-91.0	8.0
2025-01-23 12:26:48.896163	341.5	26.2	-90.8	7.1
2025-01-23 12:26:50.025295	341.2	26.2	-91.3	8.5
2025-01-23 12:26:51.182370	340.8	26.2	-90.9	5.3
2025-01-23 12:26:52.343487	340.5	26.2	-90.8	5.8
2025-01-23 12:26:53.505763	340.1	26.2	-91.1	3.8
2025-01-23 12:26:54.671023	339.8	26.2	-90.7	3.5
2025-01-23 12:26:55.831526	339.5	26.1	-91.1	3.3
2025-01-23 12:26:56.998616	339.1	26.1	-90.7	6.3
2025-01-23 12:26:58.164993	338.8	26.1	-90.7	2.7
2025-01-23 12:26:59.322554	338.4	26.1	-90.5	4.2
2025-01-23 12:27:00.478336	338.1	26.0	-91.1	3.0
2025-01-23 12:27:01.646341	337.7	26.0	-90.5	5.5
2025-01-23 12:27:02.812396	337.4	26.0	-90.8	4.0
2025-01-23 12:27:03.977040	337.1	26.0	-90.7	2.5
2025-01-23 12:27:05.143020	336.7	25.9	-90.9	3.5
2025-01-23 12:27:06.303948	336.4	25.9	-90.9	2.0
2025-01-23 12:27:07.469938	336.0	25.9	-90.6	3.1
2025-01-23 12:27:08.628491	335.7	25.8	-91.0	9.2
2025-01-23 12:27:09.788652	335.4	25.8	-91.3	4.0
2025-01-23 12:27:10.949074	335.0	25.8	-91.1	3.8
2025-01-23 12:27:12.109953	334.7	25.7	-90.9	4.8
2025-01-23 12:27:13.279283	334.4	25.7	-90.3	2.2
2025-01-23 12:27:14.435768	334.0	25.7	-90.9	3.7
2025-01-23 12:27:15.600381	333.7	25.6	-90.9	3.1
2025-01-23 12:27:16.762934	333.4	25.6	-91.3	5.1
2025-01-23 12:27:17.929962	333.0	25.5	-90.9	5.5
2025-01-23 12:27:19.092348	332.7	25.5	-90.7	4.3
2025-01-23 12:27:20.260905	332.4	25.5	-90.6	2.0
2025-01-23 12:27:21.415754	332.0	25.4	-91.2	0.7
2025-01-23 12:27:22.582685	331.7	25.4	-91.2	5.1
2025-01-23 12:27:23.743179	331.4	25.3	-90.9	2.1
2025-01-23 12:27:24.906417	331.1	25.3	-90.8	3.5
2025-01-23 12:27:26.068606	330.7	25.2	-90.9	4.0
2025-01-23 12:27:27.232149	330.4	25.2	-90.6	3.6
2025-01-23 12:27:28.400256	330.1	25.1	-90.9	3.4
2025-01-23 12:27:29.563773	329.8	25.1	-90.7	4.7
2025-01-23 12:27:30.724288	329.4	25.0	-91.1	3.1
2025-01-23 12:27:31.888789	329.1	25.0	-91.1	5.0
2025-01-23 12:27:33.051895	328.8	24.9	-90.9	5.1
2025-01-23 12:27:34.221295	328.5	24.9	-90.9	3.1
2025-01-23 12:27:35.382634	328.2	24.8	-90.7	3.7
2025-01-23 12:27:36.549662	327.9	24.8	-91.3	4.8
2025-01-23 12:27:37.712771	327.5	24.7	-91.2	2.9
2025-01-23 12:27:38.875203	327.2	24.7	-91.2	5.3
2025-01-23 12:27:40.039023	326.9	24.6	-90.9	6.2
2025-01-23 12:27:41.196540	326.6	24.5	-90.9	3.3
2025-01-23 12:27:42.362562	326.3	24.5	-91.0	1.0
2025-01-23 12:27:43.527985	326.0	24.4	-91.1	3.8
2025-01-23 12:27:44.693082	325.7	24.4	-91.0	1.6
2025-01-23 12:27:45.853092	325.4	24.3	-91.2	1.3
2025-01-23 12:27:47.012579	325.1	24.2	-90.9	5.6
2025-01-23 12:27:48.183999	324.8	24.2	-91.1	2.8
2025-01-23 12:27:49.355283	324.5	24.1	-90.8	0.5
2025-01-23 12:27:50.516478	324.2	24.0	-91.1	6.3
2025-01-23 12:27:51.682976	323.9	24.0	-91.0	3.4
2025-01-23 12:27:52.835768	323.6	23.9	-91.0	2.9
2025-01-23 12:27:53.999456	323.3	23.8	-90.9	4.4
2025-01-23 12:27:55.164658	323.0	23.8	-91.1	3.2
2025-01-23 12:27:56.322243	322.7	23.7	-90.9	1.4
2025-01-23 12:27:57.488531	322.4	23.6	-91.2	2.5
2025-01-23 12:27:58.649521	322.1	23.6	-90.8	1.7
2025-01-23 12:27:59.812670	321.8	23.5	-91.1	3.4
2025-01-23 12:28:00.970009	321.5	23.4	-91.1	4.2
2025-01-23 12:28:02.128983	321.2	23.4	-90.8	5.0
2025-01-23 12:28:03.287797	320.9	23.3	-90.7	4.2
2025-01-23 12:28:04.447492	320.6	23.2	-90.8	4.0
2025-01-23 12:28:05.611058	320.4	23.1	-91.1	5.0
2025-01-23 12:28:06.775591	320.1	23.1	-90.9	4.5
2025-01-23 12:28:07.940133	319.8	23.0	-90.7	5.6
2025-01-23 12:28:09.107084	319.5	22.9	-90.4	2.9
2025-01-23 12:28:10.265316	319.2	22.8	-90.7	3.1
2025-01-23 12:28:11.421931	319.0	22.8	-91.1	4.7
2025-01-23 12:28:12.583668	318.7	22.7	-90.7	6.8
2025-01-23 12:28:13.745024	318.4	22.6	-90.4	4.3
2025-01-23 12:28:14.913913	318.1	22.5	-90.4	6.6
2025-01-23 12:28:16.073552	317.9	22.5	-91.0	4.5
2025-01-23 12:28:17.236584	317.6	22.4	-90.9	4.0
2025-01-23 12:28:18.398807	317.3	22.3	-90.9	3.2
2025-01-23 12:28:19.560006	317.1	22.2	-90.8	4.1
2025-01-23 12:28:20.719629	316.8	22.1	-91.0	9.0
2025-01-23 12:28:21.880017	316.5	22.1	-91.2	6.7
2025-01-23 12:28:23.041955	316.3	22.0	-91.0	7.5
2025-01-23 12:28:24.219517	316.0	21.9	-90.8	9.6
2025-01-23 12:28:25.386471	315.7	21.8	-90.9	9.5
2025-01-23 12:28:26.550550	315.5	21.7	-91.0	6.4
2025-01-23 12:28:27.717787	315.2	21.7	-90.8	4.6
2025-01-23 12:28:28.882557	315.0	21.6	-91.1	4.2
2025-01-23 12:28:30.049627	314.7	21.5	-90.6	3.7
2025-01-23 12:28:31.207221	314.4	21.4	-90.3	0.9
2025-01-23 12:28:32.378623	314.2	21.3	-90.8	2.2
2025-01-23 12:28:33.537867	313.9	21.3	-91.0	2.9
2025-01-23 12:28:34.701535	313.7	21.2	-90.7	3.5
2025-01-23 12:28:35.882273	313.4	21.1	-91.0	5.0
2025-01-23 12:28:37.047591	313.2	21.0	-90.9	2.2
2025-01-23 12:28:38.209607	312.9	20.9	-90.7	1.0
2025-01-23 12:28:39.371384	312.7	20.8	-90.7	3.0
2025-01-23 12:28:40.529006	312.5	20.7	-90.9	2.4
2025-01-23 12:28:41.691468	312.2	20.7	-91.0	1.0
2025-01-23 12:28:42.852430	312.0	20.6	-91.1	2.5
2025-01-23 12:28:44.019943	311.7	20.5	-90.8	3.3
2025-01-23 12:28:45.183184	311.5	20.4	-90.9	1.5
2025-01-23 12:28:46.350659	311.3	20.3	-90.8	2.0
2025-01-23 12:28:47.511696	311.0	20.2	-90.9	2.4
2025-01-23 12:28:48.675303	310.8	20.1	-90.7	3.3
2025-01-23 12:28:49.839646	310.6	20.1	-90.7	2.7
2025-01-23 12:28:50.993513	310.3	20.0	-91.0	2.4
2025-01-23 12:28:52.151916	310.1	19.9	-90.8	3.0
2025-01-23 12:28:53.316664	309.9	19.8	-90.8	3.7
2025-01-23 12:28:54.482076	309.6	19.7	-90.7	0.8
2025-01-23 12:28:55.640585	309.4	19.6	-90.8	4.7
2025-01-23 12:28:56.812103	309.2	19.5	-91.1	4.0
2025-01-23 12:28:57.978357	309.0	19.4	-91.1	3.4
2025-01-23 12:28:59.143699	308.7	19.3	-90.6	3.5
2025-01-23 12:29:00.306375	308.5	19.3	-90.3	2.6
2025-01-23 12:29:01.468062	308.3	19.2	-91.0	4.2
2025-01-23 12:29:02.639881	308.1	19.1	-91.1	3.9
2025-01-23 12:29:03.803666	307.9	19.0	-91.0	5.3
2025-01-23 12:29:04.967778	307.6	18.9	-91.0	2.4
2025-01-23 12:29:06.130111	307.4	18.8	-91.0	3.0
2025-01-23 12:29:07.294027	307.2	18.7	-90.8	3.0
2025-01-23 12:29:08.461404	307.0	18.6	-90.7	1.2
2025-01-23 12:29:09.626199	306.8	18.5	-91.2	4.0
2025-01-23 12:29:10.786965	306.6	18.5	-90.8	2.7
2025-01-23 12:29:11.944311	306.4	18.4	-90.8	2.6
2025-01-23 12:29:13.110655	306.2	18.3	-90.7	5.3
2025-01-23 12:29:14.273780	306.0	18.2	-90.7	3.4
2025-01-23 12:29:15.441500	305.8	18.1	-91.2	5.3
2025-01-23 12:29:16.603500	305.6	18.0	-91.2	3.0
2025-01-23 12:29:17.764926	305.4	17.9	-91.2	6.0
2025-01-23 12:29:18.931039	305.2	17.8	-91.0	9.4
2025-01-23 12:29:20.094113	305.0	17.7	-90.5	4.1
2025-01-23 12:29:21.252265	304.8	17.6	-90.4	4.1
2025-01-23 12:29:22.415819	304.6	17.6	-90.4	2.3
2025-01-23 12:29:23.581222	304.4	17.5	-90.6	1.9
2025-01-23 12:29:24.745075	304.2	17.4	-90.9	4.0
2025-01-23 12:29:25.904987	304.0	17.3	-91.1	2.9
2025-01-23 12:29:27.070343	303.8	17.2	-90.7	3.7
2025-01-23 12:29:28.235513	303.6	17.1	-90.8	1.3
2025-01-23 12:29:29.397782	303.4	17.0	-90.9	2.5
2025-01-23 12:29:30.569787	303.2	16.9	-90.8	3.5
2025-01-23 12:29:31.730595	303.0	16.8	-90.7	1.3
2025-01-23 12:29:32.893090	302.8	16.7	-90.8	4.1
2025-01-23 12:29:34.062125	302.6	16.7	-91.2	3.3
2025-01-23 12:29:35.226211	302.5	16.6	-90.6	3.6
2025-01-23 12:29:36.388212	302.3	16.5	-91.0	3.5
2025-01-23 12:29:37.560076	302.1	16.4	-90.9	1.9
2025-01-23 12:29:38.725245	301.9	16.3	-90.2	2.8
2025-01-23 12:29:39.903255	301.7	16.2	-90.8	3.7
2025-01-23 12:29:41.063055	301.6	16.1	-90.8	9.8
2025-01-23 12:29:42.221759	301.4	16.0	-90.6	7.2
2025-01-23 12:29:43.386481	301.2	15.9	-90.3	5.4
2025-01-23 12:29:44.565278	301.0	15.8	-91.0	4.6
2025-01-23 12:29:45.727962	300.8	15.8	-91.2	4.2
2025-01-23 12:29:46.890492	300.7	15.7	-91.1	2.3
2025-01-23 12:29:48.050723	300.5	15.6	-91.0	6.2
2025-01-23 12:29:49.216183	300.3	15.5	-90.4	2.0
2025-01-23 12:29:50.380297	300.2	15.4	-91.1	5.1
2025-01-23 12:29:51.540291	300.0	15.3	-90.8	7.1
2025-01-23 12:29:52.709140	299.8	15.2	-90.6	3.7
2025-01-23 12:29:53.873417	299.7	15.1	-90.9	3.1
2025-01-23 12:29:55.031961	299.5	15.0	-90.8	3.2
2025-01-23 12:29:56.201589	299.3	15.0	-90.8	3.8
2025-01-23 12:29:57.365174	299.2	14.9	-91.1	3.5
2025-01-23 12:29:58.534967	299.0	14.8	-90.9	3.8
2025-01-23 12:29:59.693697	298.8	14.7	-91.2	5.1
2025-01-23 12:30:00.852954	298.7	14.6	-90.8	10.1
#Closed at: 2025-01-23 12:23:19.354712