passes_logs/2025/01/23/LEX_Murmansk/LEX_Murmansk__20250123_124654_NOAA_18_rec.log

#Pass ID: 20250123_124654_NOAA 18
#Satellite: NOAA 18
#Configuration: NOAA 18
#Start time: 2025-01-23 12:46:49.015833

#LorettStation: 1.0.0 05.05.2024
#Station: LEX_Murmansk
#Location: 33.156738 lon 68.926811 lat
#TLE: 1 28654U 05018A   25022.24143052  .00000458  00000+0  26647-3 0  9995
#TLE: 2 28654  98.8556 103.2235 0014680 159.1096 201.0679 14.13493787 14203

#Time	Az	El	Level	SNR
2025-01-23 12:47:01.294185	25.1	16.0	-90.1	3.5
2025-01-23 12:47:02.449220	25.0	16.1	-90.6	6.0
2025-01-23 12:47:03.607576	24.8	16.2	-90.7	5.8
2025-01-23 12:47:04.759815	24.7	16.3	-90.4	4.8
2025-01-23 12:47:05.919102	24.5	16.4	-90.6	5.5
2025-01-23 12:47:07.071558	24.3	16.5	-90.6	4.8
2025-01-23 12:47:08.742172	24.1	16.7	-90.6	5.8
2025-01-23 12:47:09.900826	23.9	16.8	-90.5	6.4
2025-01-23 12:47:11.054821	23.8	16.9	-90.4	7.6
2025-01-23 12:47:12.206510	23.6	17.0	-90.5	8.7
2025-01-23 12:47:13.355889	23.4	17.1	-90.1	7.5
2025-01-23 12:47:14.518929	23.3	17.2	-90.6	5.6
2025-01-23 12:47:15.672067	23.1	17.3	-90.6	6.2
2025-01-23 12:47:16.832605	22.9	17.4	-90.7	8.3
2025-01-23 12:47:17.983008	22.8	17.5	-90.6	8.5
2025-01-23 12:47:19.146920	22.6	17.6	-90.2	7.2
2025-01-23 12:47:20.299217	22.4	17.7	-90.5	5.6
2025-01-23 12:47:21.461203	22.2	17.8	-90.4	2.8
2025-01-23 12:47:22.621008	22.1	17.9	-90.3	4.8
2025-01-23 12:47:23.780868	21.9	18.0	-90.6	8.3
2025-01-23 12:47:24.939799	21.7	18.1	-91.0	7.0
2025-01-23 12:47:26.095945	21.5	18.2	-90.8	7.0
2025-01-23 12:47:27.258434	21.3	18.3	-90.2	7.6
2025-01-23 12:47:28.422807	21.1	18.4	-90.2	9.8
2025-01-23 12:47:29.576731	21.0	18.5	-90.3	9.9
2025-01-23 12:47:30.734634	20.8	18.6	-89.8	12.4
2025-01-23 12:47:31.894622	20.6	18.7	-90.3	6.3
2025-01-23 12:47:33.053990	20.4	18.8	-90.1	8.7
2025-01-23 12:47:34.210537	20.2	18.9	-89.4	12.8
2025-01-23 12:47:35.372413	20.0	19.0	-89.3	7.7
2025-01-23 12:47:36.528402	19.8	19.1	-89.2	9.4
2025-01-23 12:47:37.689511	19.6	19.2	-89.7	9.2
2025-01-23 12:47:38.852561	19.4	19.3	-89.4	7.4
2025-01-23 12:47:40.006344	19.2	19.4	-90.0	5.8
2025-01-23 12:47:41.157137	19.0	19.5	-89.5	9.2
2025-01-23 12:47:42.321619	18.8	19.6	-89.4	10.5
2025-01-23 12:47:43.485555	18.6	19.7	-90.6	4.6
2025-01-23 12:47:44.642523	18.4	19.8	-91.0	10.9
2025-01-23 12:47:45.799271	18.2	19.9	-90.6	10.1
2025-01-23 12:47:46.954646	18.0	20.0	-90.9	8.1
2025-01-23 12:47:48.110017	17.8	20.1	-90.6	9.5
2025-01-23 12:47:49.266305	17.6	20.2	-90.5	10.6
2025-01-23 12:47:50.424846	17.4	20.3	-90.8	7.4
2025-01-23 12:47:51.576320	17.2	20.4	-90.5	6.9
2025-01-23 12:47:52.736922	17.0	20.5	-90.9	7.5
2025-01-23 12:47:53.889718	16.8	20.6	-90.7	6.7
2025-01-23 12:47:55.044932	16.6	20.7	-90.8	8.6
2025-01-23 12:47:56.196467	16.3	20.8	-90.7	10.0
2025-01-23 12:47:57.358883	16.1	20.9	-90.5	10.0
2025-01-23 12:47:58.517656	15.9	21.0	-90.9	8.2
2025-01-23 12:47:59.670410	15.7	21.1	-91.0	8.4
2025-01-23 12:48:00.827917	15.5	21.2	-90.9	6.8
2025-01-23 12:48:01.983904	15.2	21.3	-91.2	1.9
2025-01-23 12:48:03.141711	15.0	21.4	-91.0	6.2
2025-01-23 12:48:04.300811	14.8	21.5	-90.8	8.7
2025-01-23 12:48:05.458886	14.6	21.6	-91.2	5.8
2025-01-23 12:48:06.619648	14.3	21.8	-91.3	8.6
2025-01-23 12:48:07.775067	14.1	21.9	-91.1	9.4
2025-01-23 12:48:08.930242	13.9	22.0	-90.5	8.2
2025-01-23 12:48:10.091562	13.6	22.1	-90.4	10.2
2025-01-23 12:48:11.239306	13.4	22.2	-90.1	11.1
2025-01-23 12:48:12.407509	13.2	22.3	-90.8	10.0
2025-01-23 12:48:13.561564	12.9	22.4	-90.4	9.3
2025-01-23 12:48:14.716336	12.7	22.5	-90.7	13.3
2025-01-23 12:48:15.871573	12.4	22.6	-90.7	10.4
2025-01-23 12:48:17.041202	12.2	22.7	-90.5	11.2
2025-01-23 12:48:18.200245	12.0	22.8	-90.6	13.0
2025-01-23 12:48:19.350826	11.7	22.9	-90.6	13.2
2025-01-23 12:48:20.510881	11.5	23.0	-90.5	11.8
2025-01-23 12:48:21.666414	11.2	23.1	-90.4	11.3
2025-01-23 12:48:22.823956	11.0	23.2	-90.9	12.8
2025-01-23 12:48:23.979971	10.7	23.3	-90.7	6.3
2025-01-23 12:48:25.142698	10.4	23.4	-90.3	10.2
2025-01-23 12:48:26.290420	10.2	23.5	-90.4	11.4
2025-01-23 12:48:27.436346	9.9	23.6	-89.7	6.7
2025-01-23 12:48:28.599922	9.7	23.7	-90.2	9.4
2025-01-23 12:48:29.754968	9.4	23.8	-90.1	10.9
2025-01-23 12:48:30.911107	9.2	23.9	-89.7	10.3
2025-01-23 12:48:32.071675	8.9	24.0	-89.8	8.1
2025-01-23 12:48:33.233220	8.6	24.1	-89.9	9.4
2025-01-23 12:48:34.393546	8.4	24.2	-89.9	9.5
2025-01-23 12:48:35.557326	8.1	24.2	-89.8	9.2
2025-01-23 12:48:36.712530	7.8	24.3	-89.7	10.9
2025-01-23 12:48:37.870553	7.5	24.4	-90.3	7.7
2025-01-23 12:48:39.032665	7.3	24.5	-90.2	7.8
2025-01-23 12:48:40.186440	7.0	24.6	-88.7	10.8
2025-01-23 12:48:41.341205	6.7	24.7	-89.8	10.6
2025-01-23 12:48:42.503781	6.4	24.8	-90.1	9.2
2025-01-23 12:48:43.665150	6.1	24.9	-90.1	7.3
2025-01-23 12:48:44.819743	5.9	25.0	-90.5	11.3
2025-01-23 12:48:45.976059	5.6	25.1	-91.1	8.9
2025-01-23 12:48:47.134446	5.3	25.2	-90.5	8.9
2025-01-23 12:48:48.296314	5.0	25.3	-90.7	8.8
2025-01-23 12:48:49.452511	4.7	25.4	-90.7	5.7
2025-01-23 12:48:50.618264	4.4	25.5	-90.8	9.6
2025-01-23 12:48:51.772301	4.1	25.6	-90.6	11.0
2025-01-23 12:48:52.927187	3.8	25.7	-90.8	7.3
2025-01-23 12:48:54.077007	3.5	25.7	-90.9	6.5
2025-01-23 12:48:55.242374	3.2	25.8	-90.8	12.1
2025-01-23 12:48:56.395405	2.9	25.9	-91.2	10.2
2025-01-23 12:48:57.554818	2.6	26.0	-91.1	11.4
2025-01-23 12:48:58.711924	2.3	26.1	-91.1	10.6
2025-01-23 12:48:59.864436	2.0	26.2	-91.3	10.8
2025-01-23 12:49:01.015286	1.7	26.3	-91.0	10.0
2025-01-23 12:49:02.160566	1.4	26.4	-90.3	9.9
2025-01-23 12:49:03.319671	1.1	26.4	-90.7	9.6
2025-01-23 12:49:04.478645	0.8	26.5	-91.1	6.9
2025-01-23 12:49:05.642052	0.5	26.6	-90.8	8.0
2025-01-23 12:49:06.799310	0.2	26.7	-90.7	11.8
2025-01-23 12:49:07.957483	359.8	26.8	-90.6	7.0
2025-01-23 12:49:09.118427	359.5	26.9	-90.4	10.7
2025-01-23 12:49:10.276997	359.2	26.9	-90.4	10.6
2025-01-23 12:49:11.427694	358.9	27.0	-90.7	13.3
2025-01-23 12:49:12.587920	358.5	27.1	-90.7	11.8
2025-01-23 12:49:13.740799	358.2	27.2	-90.6	12.3
2025-01-23 12:49:14.895161	357.9	27.3	-90.8	6.1
2025-01-23 12:49:16.055290	357.6	27.3	-90.8	6.3
2025-01-23 12:49:17.215621	357.2	27.4	-91.1	8.8
2025-01-23 12:49:18.368321	356.9	27.5	-90.5	6.2
2025-01-23 12:49:19.525880	356.6	27.6	-90.8	4.3
2025-01-23 12:49:20.680752	356.2	27.6	-91.1	10.7
2025-01-23 12:49:21.837978	355.9	27.7	-90.8	9.5
2025-01-23 12:49:22.994043	355.6	27.8	-91.0	7.0
2025-01-23 12:49:24.146987	355.2	27.8	-90.7	9.5
2025-01-23 12:49:25.298224	354.9	27.9	-90.8	10.1
2025-01-23 12:49:26.452113	354.5	28.0	-91.0	9.4
2025-01-23 12:49:27.603486	354.2	28.0	-91.2	9.1
2025-01-23 12:49:28.757149	353.9	28.1	-90.2	11.3
2025-01-23 12:49:29.915598	353.5	28.2	-89.7	9.5
2025-01-23 12:49:31.072073	353.2	28.2	-89.7	7.5
2025-01-23 12:49:32.223115	352.8	28.3	-89.8	8.2
2025-01-23 12:49:33.373017	352.5	28.4	-89.9	7.5
2025-01-23 12:49:34.530085	352.1	28.4	-89.9	7.4
2025-01-23 12:49:35.679798	351.8	28.5	-90.2	11.6
2025-01-23 12:49:36.830992	351.4	28.5	-90.0	12.2
2025-01-23 12:49:37.987140	351.1	28.6	-90.0	8.5
2025-01-23 12:49:39.136859	350.7	28.7	-89.5	6.5
2025-01-23 12:49:40.292305	350.3	28.7	-89.6	8.7
2025-01-23 12:49:41.449708	350.0	28.8	-90.2	8.3
2025-01-23 12:49:42.609130	349.6	28.8	-90.9	8.5
2025-01-23 12:49:43.766701	349.3	28.9	-91.0	11.7
2025-01-23 12:49:44.919413	348.9	28.9	-90.9	8.6
2025-01-23 12:49:46.079360	348.5	29.0	-91.0	12.9
2025-01-23 12:49:47.235092	348.2	29.0	-90.2	11.3
2025-01-23 12:49:48.394178	347.8	29.1	-90.5	6.2
2025-01-23 12:49:49.548680	347.4	29.1	-91.3	13.0
2025-01-23 12:49:50.711414	347.1	29.2	-91.0	11.2
2025-01-23 12:49:51.865687	346.7	29.2	-90.9	9.4
2025-01-23 12:49:53.035263	346.3	29.3	-91.0	9.3
2025-01-23 12:49:54.190475	345.9	29.3	-90.9	9.0
2025-01-23 12:49:55.355760	345.6	29.3	-90.7	12.3
2025-01-23 12:49:56.512284	345.2	29.4	-90.7	5.8
2025-01-23 12:49:57.676997	344.8	29.4	-90.7	11.1
2025-01-23 12:49:58.832239	344.4	29.4	-90.9	14.0
2025-01-23 12:49:59.987926	344.1	29.5	-91.2	8.1
2025-01-23 12:50:01.143157	343.7	29.5	-90.5	11.7
2025-01-23 12:50:02.295542	343.3	29.5	-90.6	11.6
2025-01-23 12:50:03.451058	342.9	29.6	-90.8	9.4
2025-01-23 12:50:04.614625	342.5	29.6	-91.0	11.4
2025-01-23 12:50:05.772198	342.2	29.6	-90.8	12.5
2025-01-23 12:50:06.927518	341.8	29.7	-91.0	10.0
2025-01-23 12:50:08.080573	341.4	29.7	-90.4	12.2
2025-01-23 12:50:09.235606	341.0	29.7	-90.8	9.4
2025-01-23 12:50:10.388695	340.6	29.7	-90.4	10.1
2025-01-23 12:50:11.547175	340.3	29.7	-91.1	10.3
2025-01-23 12:50:12.702636	339.9	29.8	-90.9	8.3
2025-01-23 12:50:13.859103	339.5	29.8	-90.9	12.0
2025-01-23 12:50:15.014644	339.1	29.8	-91.2	12.1
2025-01-23 12:50:16.170211	338.7	29.8	-91.0	11.8
2025-01-23 12:50:17.319886	338.3	29.8	-89.9	11.2
2025-01-23 12:50:18.471299	337.9	29.8	-90.3	6.9
2025-01-23 12:50:19.629626	337.6	29.9	-90.8	11.3
2025-01-23 12:50:20.785877	337.2	29.9	-91.0	11.8
2025-01-23 12:50:21.941029	336.8	29.9	-91.0	6.5
2025-01-23 12:50:23.088701	336.4	29.9	-90.8	7.7
2025-01-23 12:50:24.251785	336.0	29.9	-90.8	12.4
2025-01-23 12:50:25.402080	335.6	29.9	-90.3	8.6
2025-01-23 12:50:26.559861	335.2	29.9	-90.5	6.8
2025-01-23 12:50:27.715744	334.9	29.9	-90.6	13.2
2025-01-23 12:50:28.876585	334.5	29.9	-90.6	10.2
2025-01-23 12:50:30.032150	334.1	29.9	-90.6	8.3
2025-01-23 12:50:31.189797	333.7	29.9	-90.7	14.0
2025-01-23 12:50:32.344238	333.3	29.9	-90.4	14.1
2025-01-23 12:50:33.502569	332.9	29.9	-91.3	10.4
2025-01-23 12:50:34.660624	332.5	29.9	-91.3	13.4
2025-01-23 12:50:35.819537	332.1	29.8	-91.0	14.5
2025-01-23 12:50:36.974292	331.8	29.8	-91.3	10.7
2025-01-23 12:50:38.138324	331.4	29.8	-91.0	13.8
2025-01-23 12:50:39.302644	331.0	29.8	-90.9	12.6
2025-01-23 12:50:40.455918	330.6	29.8	-91.2	13.0
2025-01-23 12:50:41.621327	330.2	29.8	-90.9	11.2
2025-01-23 12:50:42.776892	329.8	29.8	-91.1	13.7
2025-01-23 12:50:43.930751	329.4	29.7	-91.5	10.1
2025-01-23 12:50:45.087057	329.1	29.7	-91.3	8.6
2025-01-23 12:50:46.234140	328.7	29.7	-90.5	10.5
2025-01-23 12:50:47.381740	328.3	29.7	-91.1	8.8
2025-01-23 12:50:48.532953	327.9	29.6	-91.2	9.0
2025-01-23 12:50:49.693106	327.5	29.6	-91.2	11.0
2025-01-23 12:50:50.847420	327.2	29.6	-91.3	7.5
2025-01-23 12:50:52.000449	326.8	29.5	-91.2	6.8
2025-01-23 12:50:53.159863	326.4	29.5	-91.3	8.7
2025-01-23 12:50:54.310745	326.0	29.5	-90.9	6.9
2025-01-23 12:50:55.465083	325.6	29.4	-90.9	6.7
2025-01-23 12:50:56.620840	325.3	29.4	-91.1	3.4
2025-01-23 12:50:57.782189	324.9	29.4	-91.4	8.0
2025-01-23 12:50:58.939264	324.5	29.3	-91.2	9.1
2025-01-23 12:51:00.097079	324.1	29.3	-91.0	9.1
2025-01-23 12:51:01.246768	323.8	29.3	-91.1	9.7
2025-01-23 12:51:02.405077	323.4	29.2	-91.3	9.5
2025-01-23 12:51:03.562114	323.0	29.2	-91.1	9.9
2025-01-23 12:51:04.718970	322.7	29.1	-91.2	11.2
2025-01-23 12:51:05.884164	322.3	29.1	-90.6	9.4
2025-01-23 12:51:07.038209	321.9	29.0	-91.4	8.9
2025-01-23 12:51:08.199175	321.6	29.0	-91.3	13.2
2025-01-23 12:51:09.355870	321.2	28.9	-91.1	13.1
2025-01-23 12:51:10.509572	320.8	28.9	-91.3	11.1
2025-01-23 12:51:11.667958	320.5	28.8	-91.5	11.3
2025-01-23 12:51:12.826397	320.1	28.8	-90.9	12.0
2025-01-23 12:51:13.981619	319.7	28.7	-91.5	10.4
2025-01-23 12:51:15.133290	319.4	28.7	-91.2	9.4
2025-01-23 12:51:16.290456	319.0	28.6	-90.9	11.1
2025-01-23 12:51:17.447058	318.7	28.6	-91.1	9.1
2025-01-23 12:51:18.604794	318.3	28.5	-91.3	11.9
2025-01-23 12:51:19.754757	318.0	28.4	-91.1	13.2
2025-01-23 12:51:20.918030	317.6	28.4	-91.3	10.7
2025-01-23 12:51:22.073552	317.2	28.3	-91.3	10.3
2025-01-23 12:51:23.227115	316.9	28.2	-91.0	10.3
2025-01-23 12:51:24.375769	316.5	28.2	-90.9	8.7
2025-01-23 12:51:25.529022	316.2	28.1	-91.0	11.8
2025-01-23 12:51:26.676562	315.9	28.0	-91.2	11.5
2025-01-23 12:51:27.829276	315.5	28.0	-91.5	8.7
2025-01-23 12:51:28.989032	315.2	27.9	-91.1	7.7
2025-01-23 12:51:30.148093	314.8	27.8	-91.0	13.2
2025-01-23 12:51:31.297148	314.5	27.8	-91.4	14.8
2025-01-23 12:51:32.452573	314.1	27.7	-90.9	10.8
2025-01-23 12:51:33.622004	313.8	27.6	-91.3	14.6
2025-01-23 12:51:34.778995	313.5	27.6	-91.3	14.6
2025-01-23 12:51:35.938805	313.1	27.5	-91.4	13.2
2025-01-23 12:51:37.096105	312.8	27.4	-90.9	16.1
2025-01-23 12:51:38.254248	312.5	27.3	-90.9	15.3
2025-01-23 12:51:39.412068	312.1	27.3	-91.3	11.7
2025-01-23 12:51:40.562229	311.8	27.2	-90.8	10.3
2025-01-23 12:51:41.719716	311.5	27.1	-91.1	13.1
2025-01-23 12:51:42.875085	311.2	27.0	-91.1	10.8
2025-01-23 12:51:44.037662	310.8	26.9	-91.2	13.6
2025-01-23 12:51:45.196064	310.5	26.9	-90.6	11.5
2025-01-23 12:51:46.350560	310.2	26.8	-90.8	10.9
2025-01-23 12:51:47.504125	309.9	26.7	-90.9	10.0
2025-01-23 12:51:48.664093	309.6	26.6	-90.8	10.9
2025-01-23 12:51:49.824272	309.2	26.5	-91.1	12.0
2025-01-23 12:51:50.979175	308.9	26.4	-91.0	8.7
2025-01-23 12:51:52.142890	308.6	26.4	-90.9	10.2
2025-01-23 12:51:53.293885	308.3	26.3	-91.1	11.0
2025-01-23 12:51:54.431613	308.0	26.2	-91.1	11.7
2025-01-23 12:51:55.589317	307.7	26.1	-91.0	9.9
2025-01-23 12:51:56.742067	307.4	26.0	-91.0	10.7
2025-01-23 12:51:57.904375	307.1	25.9	-91.0	12.4
2025-01-23 12:51:59.059512	306.8	25.8	-90.8	9.7
2025-01-23 12:52:00.210307	306.5	25.7	-91.1	11.8
2025-01-23 12:52:01.364029	306.2	25.6	-91.2	9.2
2025-01-23 12:52:02.512332	305.9	25.6	-90.7	8.0
2025-01-23 12:52:03.672458	305.6	25.5	-91.4	7.3
2025-01-23 12:52:04.831363	305.3	25.4	-91.5	13.6
2025-01-23 12:52:05.984387	305.0	25.3	-91.1	6.0
2025-01-23 12:52:07.138001	304.7	25.2	-91.1	7.6
2025-01-23 12:52:08.292959	304.4	25.1	-91.1	9.8
2025-01-23 12:52:09.448761	304.2	25.0	-91.5	8.3
2025-01-23 12:52:10.607475	303.9	24.9	-91.1	10.4
2025-01-23 12:52:11.763893	303.6	24.8	-91.4	9.8
2025-01-23 12:52:12.927915	303.3	24.7	-91.3	4.9
2025-01-23 12:52:14.088954	303.0	24.6	-90.7	6.5
2025-01-23 12:52:15.250008	302.7	24.5	-90.9	8.5
2025-01-23 12:52:16.394808	302.5	24.4	-91.0	6.1
2025-01-23 12:52:17.555561	302.2	24.3	-91.3	6.0
2025-01-23 12:52:18.713026	301.9	24.2	-91.1	5.5
2025-01-23 12:52:19.864300	301.7	24.1	-91.2	6.3
2025-01-23 12:52:21.023503	301.4	24.0	-91.2	7.3
2025-01-23 12:52:22.171508	301.1	23.9	-91.1	9.5
2025-01-23 12:52:23.319846	300.9	23.8	-91.3	12.6
2025-01-23 12:52:24.474984	300.6	23.7	-91.3	9.5
2025-01-23 12:52:25.632049	300.3	23.7	-91.6	10.3
2025-01-23 12:52:26.790236	300.1	23.6	-91.6	14.2
2025-01-23 12:52:27.944085	299.8	23.5	-91.4	9.9
2025-01-23 12:52:29.102455	299.5	23.4	-91.3	9.9
2025-01-23 12:52:30.255579	299.3	23.3	-90.8	9.3
2025-01-23 12:52:31.413977	299.0	23.2	-90.4	6.4
2025-01-23 12:52:32.572269	298.8	23.1	-90.2	8.3
2025-01-23 12:52:33.726170	298.5	23.0	-90.5	11.5
2025-01-23 12:52:34.881210	298.3	22.9	-90.4	9.1
2025-01-23 12:52:36.029784	298.0	22.8	-90.5	6.9
2025-01-23 12:52:37.177609	297.8	22.6	-90.4	9.3
2025-01-23 12:52:38.334506	297.5	22.5	-90.8	9.2
2025-01-23 12:52:39.486962	297.3	22.4	-91.1	8.3
2025-01-23 12:52:40.638750	297.1	22.3	-91.5	4.0
2025-01-23 12:52:41.789168	296.8	22.2	-91.6	5.9
2025-01-23 12:52:42.939350	296.6	22.1	-91.0	5.8
2025-01-23 12:52:44.094368	296.3	22.0	-91.3	8.0
2025-01-23 12:52:45.250210	296.1	21.9	-91.3	8.2
2025-01-23 12:52:46.411876	295.9	21.8	-91.0	5.9
2025-01-23 12:52:47.573221	295.6	21.7	-91.0	4.2
2025-01-23 12:52:48.727227	295.4	21.6	-91.4	7.8
2025-01-23 12:52:49.893781	295.2	21.5	-91.4	5.4
2025-01-23 12:52:51.047827	295.0	21.4	-91.0	9.6
2025-01-23 12:52:52.205497	294.7	21.3	-90.8	8.0
2025-01-23 12:52:53.352802	294.5	21.2	-91.2	9.3
2025-01-23 12:52:54.511885	294.3	21.1	-91.3	7.8
2025-01-23 12:52:55.670107	294.1	21.0	-91.4	11.6
2025-01-23 12:52:56.829342	293.8	20.9	-91.3	16.2
2025-01-23 12:52:57.987464	293.6	20.8	-91.2	10.3
2025-01-23 12:52:59.139563	293.4	20.7	-91.2	13.8
2025-01-23 12:53:00.284452	293.2	20.6	-90.8	10.1
2025-01-23 12:53:01.435635	293.0	20.5	-90.9	7.0
2025-01-23 12:53:02.584531	292.8	20.4	-91.1	11.7
2025-01-23 12:53:03.738899	292.6	20.3	-91.2	12.3
2025-01-23 12:53:04.891390	292.3	20.2	-91.2	7.5
2025-01-23 12:53:06.048667	292.1	20.1	-91.2	6.1
2025-01-23 12:53:07.202548	291.9	20.0	-90.6	11.3
2025-01-23 12:53:08.348184	291.7	19.9	-90.8	11.1
2025-01-23 12:53:09.505087	291.5	19.8	-91.0	7.0
2025-01-23 12:53:10.655585	291.3	19.7	-91.3	9.2
2025-01-23 12:53:11.805352	291.1	19.6	-91.1	12.2
2025-01-23 12:53:12.961476	290.9	19.5	-91.4	5.3
2025-01-23 12:53:14.123531	290.7	19.4	-90.9	5.5
2025-01-23 12:53:15.283266	290.5	19.3	-90.6	9.9
2025-01-23 12:53:16.432726	290.3	19.2	-91.1	6.7
2025-01-23 12:53:17.583765	290.1	19.1	-90.9	10.5
2025-01-23 12:53:18.743528	289.9	19.0	-90.9	9.4
2025-01-23 12:53:19.903047	289.7	18.9	-90.9	9.0
2025-01-23 12:53:21.057385	289.6	18.8	-90.7	6.8
2025-01-23 12:53:22.209906	289.4	18.7	-90.9	5.8
2025-01-23 12:53:23.365903	289.2	18.5	-90.8	4.2
2025-01-23 12:53:24.517394	289.0	18.4	-90.9	10.8
2025-01-23 12:53:25.678546	288.8	18.3	-91.0	5.6
2025-01-23 12:53:26.830506	288.6	18.2	-91.0	5.5
2025-01-23 12:53:27.981955	288.4	18.1	-90.9	5.2
2025-01-23 12:53:29.140379	288.3	18.0	-90.6	8.1
2025-01-23 12:53:30.297500	288.1	17.9	-90.7	5.3
2025-01-23 12:53:31.456596	287.9	17.8	-90.9	3.7
2025-01-23 12:53:32.612788	287.7	17.7	-91.0	4.7
2025-01-23 12:53:33.769815	287.5	17.6	-91.0	6.4
2025-01-23 12:53:34.927947	287.4	17.5	-90.7	5.3
2025-01-23 12:53:36.083465	287.2	17.4	-90.8	3.8
2025-01-23 12:53:37.244948	287.0	17.3	-90.9	8.2
2025-01-23 12:53:38.400384	286.8	17.2	-90.9	4.0
2025-01-23 12:53:39.560167	286.7	17.1	-91.3	7.6
2025-01-23 12:53:40.716613	286.5	17.0	-91.1	11.5
2025-01-23 12:53:41.875588	286.3	16.9	-90.9	6.8
2025-01-23 12:53:43.032048	286.2	16.8	-91.0	7.7
2025-01-23 12:53:44.193931	286.0	16.7	-90.7	6.9
2025-01-23 12:53:45.345872	285.8	16.6	-89.9	8.9
2025-01-23 12:53:46.499596	285.7	16.5	-91.1	4.6
2025-01-23 12:53:47.648353	285.5	16.4	-91.0	6.1
2025-01-23 12:53:48.809613	285.3	16.3	-90.6	4.6
2025-01-23 12:53:49.970131	285.2	16.2	-90.3	6.8
2025-01-23 12:53:51.129788	285.0	16.1	-90.2	4.3
2025-01-23 12:53:52.284700	284.9	16.0	-90.1	5.7
2025-01-23 12:53:53.439757	284.7	15.9	-90.2	4.8
2025-01-23 12:53:54.595286	284.5	15.8	-90.5	5.9
2025-01-23 12:53:55.754334	284.4	15.7	-90.6	7.3
2025-01-23 12:53:56.915718	284.2	15.6	-91.0	5.5
2025-01-23 12:53:58.066502	284.1	15.5	-90.9	6.7
2025-01-23 12:53:59.226097	283.9	15.4	-90.5	7.2
2025-01-23 12:54:00.373701	283.8	15.3	-91.0	5.3
2025-01-23 12:54:01.527964	283.6	15.2	-90.9	7.1
2025-01-23 12:54:02.690957	283.5	15.1	-90.7	6.9
2025-01-23 12:54:03.845376	283.3	15.1	-91.0	8.4
2025-01-23 12:54:04.999668	283.2	15.0	-90.7	10.1
2025-01-23 12:54:06.160202	283.0	14.9	-90.7	5.1
2025-01-23 12:54:07.304359	282.9	14.8	-91.1	7.9
2025-01-23 12:54:08.468527	282.7	14.7	-88.4	8.3
2025-01-23 12:54:09.617926	282.6	14.6	-90.4	7.4
#Closed at: 2025-01-23 12:46:54.090472