passes_logs/2025/01/23/LEX_Murmansk/LEX_Murmansk__20250123_092522_NOAA_18_rec.log

#Pass ID: 20250123_092522_NOAA 18
#Satellite: NOAA 18
#Configuration: NOAA 18
#Start time: 2025-01-23 09:25:17.027898

#LorettStation: 1.0.0 05.05.2024
#Station: LEX_Murmansk
#Location: 33.156738 lon 68.926811 lat
#TLE: 1 28654U 05018A   25022.24143052  .00000458  00000+0  26647-3 0  9995
#TLE: 2 28654  98.8556 103.2235 0014680 159.1096 201.0679 14.13493787 14203

#Time	Az	El	Level	SNR
2025-01-23 09:25:29.281805	28.0	16.3	-90.1	3.6
2025-01-23 09:25:31.579337	28.2	16.5	-90.9	5.4
2025-01-23 09:25:33.872974	28.3	16.8	-90.4	5.1
2025-01-23 09:25:36.178299	28.4	17.0	-90.2	6.2
2025-01-23 09:25:38.485045	28.5	17.3	-89.8	4.4
2025-01-23 09:25:40.783027	28.6	17.6	-90.9	7.9
2025-01-23 09:25:43.084597	28.7	17.8	-90.1	7.1
2025-01-23 09:25:45.386777	28.9	18.1	-90.2	6.1
2025-01-23 09:25:47.693603	29.0	18.4	-89.2	9.6
2025-01-23 09:25:49.993124	29.1	18.6	-88.7	6.9
2025-01-23 09:25:52.292842	29.2	18.9	-89.3	10.6
2025-01-23 09:25:54.587439	29.4	19.2	-90.8	8.5
2025-01-23 09:25:56.882860	29.5	19.5	-90.5	11.8
2025-01-23 09:25:59.185391	29.6	19.7	-90.1	8.5
2025-01-23 09:26:01.484935	29.8	20.0	-90.8	5.5
2025-01-23 09:26:03.787858	29.9	20.3	-90.6	10.2
2025-01-23 09:26:06.077186	30.1	20.6	-90.1	12.5
2025-01-23 09:26:08.376184	30.2	20.9	-90.2	9.7
2025-01-23 09:26:10.677485	30.4	21.2	-90.6	10.4
2025-01-23 09:26:12.971834	30.5	21.5	-90.8	7.1
2025-01-23 09:26:15.261302	30.7	21.8	-90.5	10.7
2025-01-23 09:26:17.557534	30.8	22.1	-90.7	4.2
2025-01-23 09:26:19.856290	31.0	22.4	-90.9	9.7
2025-01-23 09:26:22.156516	31.1	22.7	-90.9	10.5
2025-01-23 09:26:24.452852	31.3	23.1	-90.8	10.0
2025-01-23 09:26:26.747938	31.5	23.4	-90.6	10.9
2025-01-23 09:26:29.041803	31.6	23.7	-91.0	11.3
2025-01-23 09:26:31.341574	31.8	24.0	-90.6	9.3
2025-01-23 09:26:33.640657	32.0	24.4	-90.7	11.0
2025-01-23 09:26:35.936351	32.2	24.7	-90.6	7.1
2025-01-23 09:26:38.243476	32.4	25.1	-90.6	6.1
2025-01-23 09:26:40.543836	32.5	25.4	-90.7	12.1
2025-01-23 09:26:42.845708	32.7	25.8	-90.7	9.3
2025-01-23 09:26:45.140587	32.9	26.1	-90.4	12.0
2025-01-23 09:26:47.438849	33.1	26.5	-90.0	4.8
2025-01-23 09:26:49.732466	33.3	26.8	-89.2	7.7
2025-01-23 09:26:52.034296	33.5	27.2	-90.5	3.3
2025-01-23 09:26:54.325624	33.8	27.6	-90.6	9.3
2025-01-23 09:26:56.623795	34.0	28.0	-90.7	11.0
2025-01-23 09:26:58.925666	34.2	28.3	-91.0	5.0
2025-01-23 09:27:01.220243	34.4	28.7	-90.7	11.0
2025-01-23 09:27:03.523776	34.7	29.1	-90.7	14.5
2025-01-23 09:27:05.817245	34.9	29.5	-90.8	10.4
2025-01-23 09:27:08.119446	35.2	29.9	-90.8	7.7
2025-01-23 09:27:10.427578	35.4	30.3	-90.5	7.6
2025-01-23 09:27:12.734463	35.7	30.7	-91.2	14.1
2025-01-23 09:27:15.029980	35.9	31.2	-91.0	14.1
2025-01-23 09:27:17.329780	36.2	31.6	-90.4	17.0
2025-01-23 09:27:19.632107	36.5	32.0	-90.6	13.7
2025-01-23 09:27:21.931339	36.8	32.5	-89.8	15.5
2025-01-23 09:27:24.228235	37.1	32.9	-90.1	13.1
2025-01-23 09:27:26.512604	37.4	33.3	-90.0	5.6
2025-01-23 09:27:28.805821	37.7	33.8	-90.9	12.3
2025-01-23 09:27:31.110038	38.0	34.3	-90.8	13.8
2025-01-23 09:27:33.412781	38.3	34.7	-90.6	15.5
2025-01-23 09:27:35.711969	38.7	35.2	-90.9	15.5
2025-01-23 09:27:38.006489	39.0	35.7	-90.8	13.9
2025-01-23 09:27:40.303978	39.4	36.2	-90.9	11.7
2025-01-23 09:27:42.600265	39.7	36.6	-91.3	11.4
2025-01-23 09:27:44.891457	40.1	37.1	-91.1	8.4
2025-01-23 09:27:47.188087	40.5	37.6	-91.0	15.1
2025-01-23 09:27:49.479816	40.9	38.1	-91.0	12.8
2025-01-23 09:27:51.773832	41.3	38.7	-91.0	17.1
2025-01-23 09:27:54.068210	41.7	39.2	-90.9	12.1
2025-01-23 09:27:56.364252	42.2	39.7	-90.1	14.4
2025-01-23 09:27:58.664713	42.6	40.2	-90.2	16.0
2025-01-23 09:28:00.960653	43.1	40.8	-90.1	16.5
2025-01-23 09:28:03.218344	43.6	41.3	-90.7	14.6
2025-01-23 09:28:05.460886	44.1	41.8	-91.0	8.3
2025-01-23 09:28:07.704132	44.6	42.4	-91.2	18.1
2025-01-23 09:28:09.944598	45.1	42.9	-90.9	17.9
2025-01-23 09:28:12.192242	45.6	43.5	-90.7	19.8
2025-01-23 09:28:14.485843	46.2	44.1	-91.4	15.2
2025-01-23 09:28:16.774271	46.8	44.6	-90.2	18.5
2025-01-23 09:28:19.071782	47.4	45.2	-89.9	12.7
2025-01-23 09:28:21.366671	48.1	45.8	-90.4	14.0
2025-01-23 09:28:23.656658	48.7	46.4	-91.1	12.3
2025-01-23 09:28:25.958820	49.4	47.0	-90.9	7.2
2025-01-23 09:28:28.259626	50.1	47.6	-90.7	11.0
2025-01-23 09:28:30.560872	50.9	48.2	-91.3	3.5
2025-01-23 09:28:32.854022	51.6	48.8	-90.7	9.4
2025-01-23 09:28:35.151636	52.4	49.4	-90.5	3.9
2025-01-23 09:28:37.447406	53.3	50.0	-91.2	4.4
2025-01-23 09:28:39.755542	54.1	50.6	-91.0	9.7
2025-01-23 09:28:42.042338	55.0	51.3	-91.3	10.2
2025-01-23 09:28:44.330805	56.0	51.9	-90.8	12.2
2025-01-23 09:28:46.620889	56.9	52.5	-91.0	8.9
2025-01-23 09:28:48.916614	58.0	53.1	-90.9	8.2
2025-01-23 09:28:51.219713	59.0	53.7	-90.3	13.9
2025-01-23 09:28:53.515872	60.1	54.3	-90.9	8.3
2025-01-23 09:28:55.816198	61.3	54.9	-90.9	16.2
2025-01-23 09:28:58.111492	62.5	55.5	-90.8	14.5
2025-01-23 09:29:00.405103	63.8	56.1	-90.7	16.4
2025-01-23 09:29:02.701403	65.1	56.7	-90.9	20.1
2025-01-23 09:29:04.998105	66.4	57.3	-91.0	12.1
2025-01-23 09:29:07.299759	67.9	57.9	-90.4	16.2
2025-01-23 09:29:09.593568	69.4	58.4	-91.0	14.2
2025-01-23 09:29:11.889194	70.9	59.0	-91.1	18.3
2025-01-23 09:29:14.180536	72.5	59.5	-90.4	19.6
2025-01-23 09:29:16.468678	74.2	60.0	-91.1	17.3
2025-01-23 09:29:18.768479	76.0	60.5	-91.0	14.7
2025-01-23 09:29:21.060340	77.8	61.0	-90.7	7.1
2025-01-23 09:29:23.365024	79.7	61.4	-90.4	9.8
2025-01-23 09:29:25.672548	81.6	61.9	-91.1	18.7
2025-01-23 09:29:27.960510	83.6	62.3	-91.1	13.6
2025-01-23 09:29:30.255386	85.7	62.6	-90.6	16.1
2025-01-23 09:29:32.553152	87.9	63.0	-91.4	13.0
2025-01-23 09:29:34.845783	90.1	63.3	-91.2	14.8
2025-01-23 09:29:37.138185	92.3	63.5	-90.9	13.6
2025-01-23 09:29:39.439400	94.6	63.8	-91.0	16.9
2025-01-23 09:29:41.733746	97.0	64.0	-90.9	19.8
2025-01-23 09:29:44.028007	99.4	64.1	-91.2	13.5
2025-01-23 09:29:46.324090	101.8	64.3	-90.9	19.6
2025-01-23 09:29:48.619175	104.2	64.3	-90.4	15.5
2025-01-23 09:29:50.918822	106.7	64.4	-90.5	11.5
2025-01-23 09:29:53.210020	109.1	64.4	-90.1	18.6
2025-01-23 09:29:55.503748	111.6	64.3	-90.3	15.4
2025-01-23 09:29:57.802802	114.0	64.3	-90.3	20.0
2025-01-23 09:30:00.102543	116.4	64.1	-90.1	16.5
2025-01-23 09:30:02.386658	118.8	64.0	-90.7	17.4
2025-01-23 09:30:04.678919	121.1	63.8	-90.9	22.3
2025-01-23 09:30:06.979892	123.5	63.5	-91.4	19.2
2025-01-23 09:30:09.277930	125.7	63.2	-90.7	20.5
2025-01-23 09:30:11.569169	127.9	62.9	-90.9	20.0
2025-01-23 09:30:13.864585	130.0	62.6	-90.5	19.6
2025-01-23 09:30:16.156718	132.1	62.2	-90.4	16.2
2025-01-23 09:30:18.451067	134.1	61.8	-91.2	19.5
2025-01-23 09:30:20.750829	136.1	61.4	-90.7	18.7
2025-01-23 09:30:23.048777	138.0	60.9	-90.7	17.3
2025-01-23 09:30:25.344773	139.8	60.4	-91.2	16.0
2025-01-23 09:30:27.637653	141.5	59.9	-91.2	15.1
2025-01-23 09:30:29.942420	143.2	59.4	-91.1	16.6
2025-01-23 09:30:32.236045	144.8	58.9	-90.5	13.9
2025-01-23 09:30:34.529298	146.4	58.3	-91.4	18.8
2025-01-23 09:30:36.829650	147.8	57.8	-90.9	18.8
2025-01-23 09:30:39.134562	149.3	57.2	-90.7	18.1
2025-01-23 09:30:41.438981	150.6	56.6	-91.1	15.9
2025-01-23 09:30:43.731066	151.9	56.0	-91.2	17.6
2025-01-23 09:30:46.028870	153.2	55.4	-90.7	15.2
2025-01-23 09:30:48.328892	154.4	54.8	-90.6	11.5
2025-01-23 09:30:50.621333	155.6	54.2	-91.1	14.0
2025-01-23 09:30:52.926246	156.7	53.6	-91.2	11.4
2025-01-23 09:30:55.230623	157.7	53.0	-91.1	15.1
2025-01-23 09:30:57.536203	158.8	52.4	-91.4	10.4
2025-01-23 09:30:59.851089	159.7	51.7	-91.1	11.8
2025-01-23 09:31:02.144272	160.7	51.1	-90.7	14.2
2025-01-23 09:31:04.445956	161.6	50.5	-91.4	7.7
2025-01-23 09:31:06.745437	162.4	49.9	-91.2	10.6
2025-01-23 09:31:09.039013	163.3	49.3	-91.5	8.7
2025-01-23 09:31:11.335962	164.1	48.6	-91.2	7.0
2025-01-23 09:31:13.634812	164.8	48.0	-91.4	11.4
2025-01-23 09:31:15.930971	165.6	47.4	-90.3	12.5
2025-01-23 09:31:18.226847	166.3	46.8	-90.3	15.5
2025-01-23 09:31:20.526899	167.0	46.2	-90.3	13.9
2025-01-23 09:31:22.826583	167.6	45.6	-91.4	16.5
2025-01-23 09:31:25.125735	168.3	45.0	-91.1	14.1
2025-01-23 09:31:27.430060	168.9	44.5	-91.5	10.9
2025-01-23 09:31:29.734638	169.5	43.9	-90.9	17.2
2025-01-23 09:31:32.011145	170.0	43.3	-90.9	10.1
2025-01-23 09:31:34.256845	170.6	42.7	-91.0	16.9
2025-01-23 09:31:36.497589	171.1	42.2	-91.3	15.5
2025-01-23 09:31:38.739764	171.6	41.6	-91.0	14.4
2025-01-23 09:31:40.998283	172.1	41.1	-91.6	16.6
2025-01-23 09:31:43.292684	172.6	40.6	-91.2	11.4
2025-01-23 09:31:45.596259	173.0	40.0	-91.3	14.3
2025-01-23 09:31:47.897740	173.5	39.5	-91.3	9.4
2025-01-23 09:31:50.196477	173.9	39.0	-91.4	12.7
2025-01-23 09:31:52.497483	174.3	38.4	-91.1	7.3
2025-01-23 09:31:54.804261	174.8	37.9	-91.4	10.6
2025-01-23 09:31:57.097806	175.2	37.4	-91.1	6.5
2025-01-23 09:31:59.399087	175.5	36.9	-91.0	9.5
2025-01-23 09:32:01.695086	175.9	36.4	-90.8	10.1
2025-01-23 09:32:03.989365	176.3	35.9	-91.3	8.3
2025-01-23 09:32:06.296982	176.6	35.4	-90.8	13.7
2025-01-23 09:32:08.591156	177.0	35.0	-91.3	10.8
2025-01-23 09:32:10.898056	177.3	34.5	-91.4	11.2
2025-01-23 09:32:13.194926	177.6	34.0	-91.3	16.9
2025-01-23 09:32:15.501866	178.0	33.6	-91.3	9.8
2025-01-23 09:32:17.794112	178.3	33.1	-91.5	9.2
2025-01-23 09:32:20.090421	178.6	32.6	-91.1	13.0
2025-01-23 09:32:22.391779	178.9	32.2	-91.0	12.6
2025-01-23 09:32:24.682518	179.1	31.8	-91.2	11.5
2025-01-23 09:32:26.988326	179.4	31.3	-91.6	6.1
2025-01-23 09:32:29.284415	179.7	30.9	-91.1	10.6
2025-01-23 09:32:31.577678	180.0	30.5	-91.3	7.0
2025-01-23 09:32:33.871045	180.2	30.1	-91.3	7.3
2025-01-23 09:32:36.166992	180.5	29.7	-90.8	12.2
2025-01-23 09:32:38.459350	180.7	29.3	-91.4	12.4
2025-01-23 09:32:40.765013	181.0	28.9	-91.2	5.8
2025-01-23 09:32:43.060194	181.2	28.5	-90.9	6.8
2025-01-23 09:32:45.354513	181.4	28.1	-91.1	7.8
2025-01-23 09:32:47.651738	181.6	27.7	-91.3	10.1
2025-01-23 09:32:49.952635	181.9	27.3	-91.2	8.0
2025-01-23 09:32:52.244096	182.1	26.9	-90.6	10.3
2025-01-23 09:32:54.542657	182.3	26.6	-90.4	9.3
2025-01-23 09:32:56.832699	182.5	26.2	-90.3	7.5
2025-01-23 09:32:59.122871	182.7	25.8	-90.0	7.4
2025-01-23 09:33:01.417817	182.9	25.5	-91.1	5.2
2025-01-23 09:33:03.720464	183.1	25.1	-91.1	9.6
2025-01-23 09:33:06.022105	183.3	24.8	-91.4	9.9
2025-01-23 09:33:08.328991	183.4	24.4	-91.1	9.4
2025-01-23 09:33:10.622422	183.6	24.1	-91.2	10.7
2025-01-23 09:33:12.920710	183.8	23.8	-91.3	8.6
2025-01-23 09:33:15.215992	184.0	23.4	-91.1	6.5
2025-01-23 09:33:17.508012	184.1	23.1	-91.2	4.6
2025-01-23 09:33:19.806166	184.3	22.8	-91.2	10.1
2025-01-23 09:33:22.096441	184.5	22.5	-90.7	7.6
2025-01-23 09:33:24.397526	184.6	22.1	-91.2	7.7
2025-01-23 09:33:26.699457	184.8	21.8	-91.2	7.3
2025-01-23 09:33:28.999852	184.9	21.5	-91.3	6.0
2025-01-23 09:33:31.303202	185.1	21.2	-91.0	5.6
2025-01-23 09:33:33.597053	185.2	20.9	-91.4	4.6
2025-01-23 09:33:35.896615	185.4	20.6	-91.2	5.2
2025-01-23 09:33:38.194254	185.5	20.3	-90.6	8.9
2025-01-23 09:33:40.484116	185.7	20.0	-91.1	7.9
2025-01-23 09:33:42.777866	185.8	19.7	-91.1	10.0
2025-01-23 09:33:45.075700	185.9	19.5	-91.1	7.3
2025-01-23 09:33:47.374806	186.1	19.2	-90.9	7.9
2025-01-23 09:33:49.672450	186.2	18.9	-91.2	6.9
2025-01-23 09:33:51.977768	186.3	18.6	-90.9	6.7
2025-01-23 09:33:54.277982	186.5	18.3	-90.9	4.0
2025-01-23 09:33:56.585155	186.6	18.1	-91.5	4.9
2025-01-23 09:33:58.877196	186.7	17.8	-91.4	5.6
2025-01-23 09:34:01.174365	186.8	17.5	-90.7	7.0
2025-01-23 09:34:03.482560	187.0	17.3	-89.6	3.7
2025-01-23 09:34:05.780208	187.1	17.0	-89.5	5.6
2025-01-23 09:34:08.074830	187.2	16.8	-89.4	6.0
2025-01-23 09:34:10.377677	187.3	16.5	-90.6	6.0
2025-01-23 09:34:12.680368	187.4	16.2	-90.9	5.6
2025-01-23 09:34:14.981042	187.5	16.0	-90.2	3.4
2025-01-23 09:34:17.275911	187.6	15.8	-91.1	5.1
2025-01-23 09:34:19.571205	187.7	15.5	-91.2	5.9
2025-01-23 09:34:21.871351	187.8	15.3	-91.1	5.9
2025-01-23 09:34:24.173247	187.9	15.0	-90.7	3.8
2025-01-23 09:34:26.462503	188.0	14.8	-91.0	5.2
2025-01-23 09:34:28.758822	188.1	14.5	-90.7	4.5
#Closed at: 2025-01-23 09:25:22.113955