passes_logs/2025/01/23/LEX_Murmansk/LEX_Murmansk__20250123_140250_NOAA_19_rec.log

#Pass ID: 20250123_140250_NOAA 19
#Satellite: NOAA 19
#Configuration: NOAA 19
#Start time: 2025-01-23 14:02:45.092456

#LorettStation: 1.0.0 05.05.2024
#Station: LEX_Murmansk
#Location: 33.156738 lon 68.926811 lat
#TLE: 1 33591U 09005A   25023.14581638  .00000359  00000+0  21554-3 0  9999
#TLE: 2 33591  99.0183  86.9707 0014184  35.5055 324.7058 14.13266334822690

#Time	Az	El	Level	SNR
2025-01-23 14:02:59.231709	52.7	16.1	-90.2	4.5
2025-01-23 14:03:00.351898	52.6	16.1	-90.2	3.4
2025-01-23 14:03:01.472081	52.4	16.2	-90.7	3.5
2025-01-23 14:03:02.592673	52.2	16.3	-90.6	3.2
2025-01-23 14:03:03.713132	52.0	16.4	-90.3	3.3
2025-01-23 14:03:04.833887	51.8	16.5	-90.7	6.5
2025-01-23 14:03:05.957034	51.7	16.6	-90.5	6.1
2025-01-23 14:03:07.088025	51.5	16.7	-89.9	5.5
2025-01-23 14:03:08.237825	51.3	16.7	-90.3	4.6
2025-01-23 14:03:09.391677	51.1	16.8	-90.5	6.1
2025-01-23 14:03:10.548777	50.9	16.9	-90.8	3.5
2025-01-23 14:03:11.691763	50.7	17.0	-90.9	2.0
2025-01-23 14:03:12.853370	50.5	17.1	-90.5	1.6
2025-01-23 14:03:14.016665	50.3	17.2	-90.6	2.3
2025-01-23 14:03:15.161258	50.1	17.3	-90.5	4.6
2025-01-23 14:03:16.315563	49.9	17.3	-90.2	5.2
2025-01-23 14:03:17.477393	49.7	17.4	-90.6	6.1
2025-01-23 14:03:18.634229	49.5	17.5	-90.4	7.2
2025-01-23 14:03:19.778097	49.3	17.6	-90.4	7.2
2025-01-23 14:03:20.939063	49.1	17.7	-90.7	6.4
2025-01-23 14:03:22.088294	48.9	17.8	-90.3	6.9
2025-01-23 14:03:23.248896	48.7	17.9	-90.5	2.6
2025-01-23 14:03:24.408919	48.5	18.0	-90.5	5.0
2025-01-23 14:03:25.564541	48.3	18.0	-90.4	6.8
2025-01-23 14:03:26.725891	48.1	18.1	-90.6	8.1
2025-01-23 14:03:27.878948	47.9	18.2	-90.6	8.3
2025-01-23 14:03:29.038432	47.7	18.3	-90.9	6.4
2025-01-23 14:03:30.194796	47.4	18.4	-90.4	6.4
2025-01-23 14:03:31.347604	47.2	18.5	-90.7	2.7
2025-01-23 14:03:32.502861	47.0	18.6	-90.8	4.5
2025-01-23 14:03:33.659590	46.8	18.6	-90.8	3.3
2025-01-23 14:03:34.812579	46.6	18.7	-90.8	1.8
2025-01-23 14:03:35.954665	46.4	18.8	-90.6	2.5
2025-01-23 14:03:37.106357	46.1	18.9	-90.2	2.1
2025-01-23 14:03:38.256301	45.9	19.0	-90.6	5.9
2025-01-23 14:03:39.409406	45.7	19.1	-90.7	5.7
2025-01-23 14:03:40.564616	45.5	19.1	-90.8	7.5
2025-01-23 14:03:41.720720	45.2	19.2	-90.5	7.4
2025-01-23 14:03:42.875875	45.0	19.3	-90.9	7.1
2025-01-23 14:03:44.034040	44.8	19.4	-90.8	4.9
2025-01-23 14:03:45.192299	44.6	19.5	-90.3	4.4
2025-01-23 14:03:46.347775	44.3	19.6	-90.3	5.2
2025-01-23 14:03:47.508444	44.1	19.6	-90.9	6.2
2025-01-23 14:03:48.671491	43.9	19.7	-90.6	6.8
2025-01-23 14:03:49.830328	43.6	19.8	-90.2	8.6
2025-01-23 14:03:50.993276	43.4	19.9	-90.2	7.8
2025-01-23 14:03:52.156989	43.2	20.0	-90.0	7.3
2025-01-23 14:03:53.315738	42.9	20.1	-90.8	6.4
2025-01-23 14:03:54.471168	42.7	20.1	-90.8	6.3
2025-01-23 14:03:55.626139	42.4	20.2	-90.0	4.6
2025-01-23 14:03:56.784842	42.2	20.3	-90.7	3.1
2025-01-23 14:03:57.937631	42.0	20.4	-90.6	0.4
2025-01-23 14:03:59.095056	41.7	20.5	-90.4	4.6
2025-01-23 14:04:00.249587	41.5	20.5	-90.5	2.7
2025-01-23 14:04:01.402038	41.2	20.6	-90.4	4.3
2025-01-23 14:04:02.559034	41.0	20.7	-90.6	7.0
2025-01-23 14:04:03.723958	40.7	20.8	-90.9	9.6
2025-01-23 14:04:04.875593	40.5	20.9	-90.9	13.4
2025-01-23 14:04:06.030796	40.2	20.9	-91.1	13.4
2025-01-23 14:04:07.186493	40.0	21.0	-89.8	7.4
2025-01-23 14:04:08.343388	39.7	21.1	-89.6	5.1
2025-01-23 14:04:09.495263	39.4	21.2	-89.7	6.1
2025-01-23 14:04:10.654710	39.2	21.3	-89.5	5.0
2025-01-23 14:04:11.808704	38.9	21.3	-90.0	2.5
2025-01-23 14:04:12.963493	38.7	21.4	-89.7	6.3
2025-01-23 14:04:14.115696	38.4	21.5	-89.7	6.7
2025-01-23 14:04:15.270614	38.1	21.6	-90.8	8.6
2025-01-23 14:04:16.424718	37.9	21.6	-91.0	8.4
2025-01-23 14:04:17.576557	37.6	21.7	-91.0	4.9
2025-01-23 14:04:18.726895	37.4	21.8	-90.7	10.2
2025-01-23 14:04:19.878396	37.1	21.9	-91.0	7.7
2025-01-23 14:04:21.034537	36.8	21.9	-90.6	5.6
2025-01-23 14:04:22.192676	36.6	22.0	-90.5	3.0
2025-01-23 14:04:23.351154	36.3	22.1	-90.3	2.3
2025-01-23 14:04:24.511133	36.0	22.1	-90.3	3.3
2025-01-23 14:04:25.662315	35.7	22.2	-90.5	2.9
2025-01-23 14:04:26.817623	35.5	22.3	-90.8	1.8
2025-01-23 14:04:27.975103	35.2	22.4	-90.7	5.6
2025-01-23 14:04:29.132134	34.9	22.4	-90.2	5.3
2025-01-23 14:04:30.281858	34.6	22.5	-90.6	6.8
2025-01-23 14:04:31.440645	34.3	22.6	-90.5	5.8
2025-01-23 14:04:32.604255	34.1	22.6	-90.6	11.3
2025-01-23 14:04:33.757516	33.8	22.7	-90.8	10.6
2025-01-23 14:04:34.908042	33.5	22.8	-90.8	11.5
2025-01-23 14:04:36.049820	33.2	22.8	-90.4	8.3
2025-01-23 14:04:37.223083	32.9	22.9	-90.5	6.5
2025-01-23 14:04:38.379046	32.6	23.0	-90.2	6.3
2025-01-23 14:04:39.531978	32.3	23.0	-90.8	8.3
2025-01-23 14:04:40.682380	32.1	23.1	-90.6	4.3
2025-01-23 14:04:41.833958	31.8	23.1	-91.0	6.6
2025-01-23 14:04:42.987366	31.5	23.2	-90.7	6.9
2025-01-23 14:04:44.138677	31.2	23.3	-90.8	10.9
2025-01-23 14:04:45.294391	30.9	23.3	-90.4	7.5
2025-01-23 14:04:46.447098	30.6	23.4	-90.5	13.5
2025-01-23 14:04:47.605342	30.3	23.5	-91.0	12.8
2025-01-23 14:04:48.761510	30.0	23.5	-90.4	9.7
2025-01-23 14:04:49.932142	29.7	23.6	-90.7	10.3
2025-01-23 14:04:51.084697	29.4	23.6	-90.8	9.7
2025-01-23 14:04:52.241518	29.1	23.7	-90.9	5.2
2025-01-23 14:04:53.384950	28.8	23.7	-90.9	5.0
2025-01-23 14:04:54.535296	28.5	23.8	-90.7	5.5
2025-01-23 14:04:55.687942	28.2	23.9	-91.0	3.0
2025-01-23 14:04:56.847220	27.9	23.9	-91.1	2.2
2025-01-23 14:04:57.999964	27.6	24.0	-90.6	4.4
2025-01-23 14:04:59.154581	27.3	24.0	-90.9	4.8
2025-01-23 14:05:00.301557	27.0	24.1	-90.0	5.1
2025-01-23 14:05:01.453593	26.7	24.1	-90.7	6.9
2025-01-23 14:05:02.609668	26.4	24.2	-91.0	9.5
2025-01-23 14:05:03.770257	26.0	24.2	-91.3	7.4
2025-01-23 14:05:04.927005	25.7	24.3	-90.6	9.3
2025-01-23 14:05:06.078015	25.4	24.3	-90.9	11.0
2025-01-23 14:05:07.233638	25.1	24.4	-90.8	9.7
2025-01-23 14:05:08.389564	24.8	24.4	-90.0	9.6
2025-01-23 14:05:09.539249	24.5	24.4	-90.9	9.2
2025-01-23 14:05:10.691267	24.2	24.5	-90.8	9.6
2025-01-23 14:05:11.852025	23.8	24.5	-90.4	6.9
2025-01-23 14:05:13.005990	23.5	24.6	-90.7	7.7
2025-01-23 14:05:14.157341	23.2	24.6	-90.9	4.6
2025-01-23 14:05:15.308474	22.9	24.7	-89.8	4.1
2025-01-23 14:05:16.466320	22.6	24.7	-89.8	5.3
2025-01-23 14:05:17.630392	22.2	24.7	-90.0	5.8
2025-01-23 14:05:18.782338	21.9	24.8	-89.6	5.5
2025-01-23 14:05:19.936178	21.6	24.8	-89.9	9.5
2025-01-23 14:05:21.088128	21.3	24.8	-90.3	9.2
2025-01-23 14:05:22.237140	20.9	24.9	-90.6	9.3
2025-01-23 14:05:23.399938	20.6	24.9	-90.8	12.8
2025-01-23 14:05:24.559359	20.3	24.9	-91.0	10.4
2025-01-23 14:05:25.715265	20.0	25.0	-90.5	11.0
2025-01-23 14:05:26.872323	19.6	25.0	-90.6	9.6
2025-01-23 14:05:28.023346	19.3	25.0	-90.6	7.0
2025-01-23 14:05:29.181126	19.0	25.1	-89.5	7.4
2025-01-23 14:05:30.338848	18.6	25.1	-90.5	4.7
2025-01-23 14:05:31.503894	18.3	25.1	-90.9	4.8
2025-01-23 14:05:32.657645	18.0	25.1	-90.4	3.7
2025-01-23 14:05:33.816036	17.7	25.2	-90.5	1.2
2025-01-23 14:05:34.976270	17.3	25.2	-89.6	4.5
2025-01-23 14:05:36.118331	17.0	25.2	-89.6	3.5
2025-01-23 14:05:37.268135	16.7	25.2	-89.5	1.5
2025-01-23 14:05:38.420320	16.3	25.3	-89.6	2.6
2025-01-23 14:05:39.570398	16.0	25.3	-89.9	4.2
2025-01-23 14:05:40.723039	15.7	25.3	-89.6	2.3
2025-01-23 14:05:41.885404	15.3	25.3	-90.1	4.2
2025-01-23 14:05:43.049423	15.0	25.3	-90.7	5.5
2025-01-23 14:05:44.206258	14.7	25.3	-90.3	2.7
2025-01-23 14:05:45.360794	14.3	25.4	-90.2	3.9
2025-01-23 14:05:46.511258	14.0	25.4	-90.5	5.6
2025-01-23 14:05:47.662926	13.7	25.4	-90.7	4.3
2025-01-23 14:05:48.820327	13.3	25.4	-90.5	5.9
2025-01-23 14:05:49.979573	13.0	25.4	-90.8	7.2
2025-01-23 14:05:51.137978	12.6	25.4	-90.5	5.0
2025-01-23 14:05:52.298869	12.3	25.4	-91.0	6.4
2025-01-23 14:05:53.457821	12.0	25.4	-90.7	6.5
2025-01-23 14:05:54.611183	11.6	25.4	-90.7	4.1
2025-01-23 14:05:55.759319	11.3	25.4	-90.7	8.7
2025-01-23 14:05:56.915832	11.0	25.4	-90.6	8.2
2025-01-23 14:05:58.080129	10.6	25.4	-90.7	10.5
2025-01-23 14:05:59.240803	10.3	25.4	-90.4	9.3
2025-01-23 14:06:00.390236	9.9	25.4	-90.5	5.6
2025-01-23 14:06:01.549772	9.6	25.4	-90.7	6.7
2025-01-23 14:06:02.703987	9.3	25.4	-90.9	7.4
2025-01-23 14:06:03.856272	8.9	25.4	-90.9	6.9
2025-01-23 14:06:05.011721	8.6	25.4	-91.1	5.6
2025-01-23 14:06:06.166913	8.3	25.4	-89.9	4.8
2025-01-23 14:06:07.319320	7.9	25.4	-89.5	1.3
2025-01-23 14:06:08.477223	7.6	25.4	-89.9	4.5
2025-01-23 14:06:09.639626	7.3	25.4	-90.3	4.1
2025-01-23 14:06:10.799898	6.9	25.4	-90.0	3.1
2025-01-23 14:06:11.949840	6.6	25.4	-90.1	3.3
2025-01-23 14:06:13.110606	6.2	25.4	-89.9	3.4
2025-01-23 14:06:14.374414	5.9	25.4	-89.7	1.1
2025-01-23 14:06:15.531351	5.5	25.3	-89.8	5.4
2025-01-23 14:06:16.687414	5.2	25.3	-89.9	4.2
2025-01-23 14:06:17.841992	4.9	25.3	-90.6	3.7
2025-01-23 14:06:19.003877	4.5	25.3	-90.4	7.0
2025-01-23 14:06:20.160148	4.2	25.3	-90.7	3.0
2025-01-23 14:06:21.315290	3.9	25.3	-90.5	2.7
2025-01-23 14:06:22.474652	3.5	25.2	-91.0	5.4
2025-01-23 14:06:23.629305	3.2	25.2	-89.7	5.5
2025-01-23 14:06:24.792674	2.9	25.2	-90.6	3.2
2025-01-23 14:06:25.939514	2.5	25.2	-90.9	6.1
2025-01-23 14:06:27.092877	2.2	25.1	-90.7	7.5
2025-01-23 14:06:28.248829	1.9	25.1	-90.8	4.0
2025-01-23 14:06:29.406096	1.6	25.1	-91.0	5.9
2025-01-23 14:06:30.564326	1.2	25.1	-91.1	9.0
2025-01-23 14:06:31.719025	0.9	25.0	-91.2	6.8
2025-01-23 14:06:32.869780	0.6	25.0	-90.9	5.7
2025-01-23 14:06:34.026439	0.2	25.0	-90.8	5.4
2025-01-23 14:06:35.190306	359.9	24.9	-90.7	8.2
2025-01-23 14:06:36.343216	359.6	24.9	-89.6	6.0
2025-01-23 14:06:37.498527	359.3	24.9	-90.7	9.1
2025-01-23 14:06:38.650330	358.9	24.8	-90.9	9.7
2025-01-23 14:06:39.806163	358.6	24.8	-90.8	4.7
2025-01-23 14:06:40.957965	358.3	24.8	-91.0	9.8
2025-01-23 14:06:42.119448	358.0	24.7	-90.7	7.8
2025-01-23 14:06:43.270360	357.7	24.7	-91.1	11.1
2025-01-23 14:06:44.419199	357.3	24.6	-90.7	11.6
2025-01-23 14:06:45.573552	357.0	24.6	-91.2	14.8
2025-01-23 14:06:46.727766	356.7	24.6	-90.8	9.5
2025-01-23 14:06:47.872891	356.4	24.5	-90.9	13.7
2025-01-23 14:06:49.028508	356.1	24.5	-90.9	14.0
2025-01-23 14:06:50.186359	355.7	24.4	-90.8	13.0
2025-01-23 14:06:51.338867	355.4	24.4	-90.8	9.8
2025-01-23 14:06:52.498937	355.1	24.3	-90.6	11.7
2025-01-23 14:06:53.656967	354.8	24.3	-91.3	9.3
2025-01-23 14:06:54.810541	354.5	24.3	-91.2	9.8
2025-01-23 14:06:55.957865	354.2	24.2	-90.9	10.9
2025-01-23 14:06:57.110852	353.9	24.2	-90.9	11.4
2025-01-23 14:06:58.271717	353.6	24.1	-90.4	11.8
2025-01-23 14:06:59.419943	353.3	24.1	-90.9	13.0
2025-01-23 14:07:00.568493	353.0	24.0	-90.4	12.7
2025-01-23 14:07:01.740353	352.6	24.0	-90.8	11.5
2025-01-23 14:07:02.904205	352.3	23.9	-90.6	9.8
2025-01-23 14:07:04.050938	352.0	23.8	-90.9	7.9
2025-01-23 14:07:05.206965	351.7	23.8	-90.9	9.2
2025-01-23 14:07:06.356986	351.4	23.7	-90.4	6.5
2025-01-23 14:07:07.507306	351.1	23.7	-90.9	7.8
2025-01-23 14:07:08.654788	350.8	23.6	-91.1	9.0
2025-01-23 14:07:09.808009	350.5	23.6	-91.4	7.8
2025-01-23 14:07:10.972124	350.2	23.5	-90.7	7.6
2025-01-23 14:07:12.126992	349.9	23.4	-90.6	9.4
2025-01-23 14:07:13.284378	349.6	23.4	-90.4	7.6
2025-01-23 14:07:14.438814	349.3	23.3	-91.1	7.8
2025-01-23 14:07:15.596285	349.0	23.3	-91.1	9.8
2025-01-23 14:07:16.754508	348.8	23.2	-91.1	5.1
2025-01-23 14:07:17.912630	348.5	23.1	-91.1	5.4
2025-01-23 14:07:19.063023	348.2	23.1	-91.2	7.6
2025-01-23 14:07:20.217282	347.9	23.0	-91.0	5.0
2025-01-23 14:07:21.371776	347.6	23.0	-91.0	5.1
2025-01-23 14:07:22.533418	347.3	22.9	-91.5	5.9
2025-01-23 14:07:23.690080	347.0	22.8	-91.5	4.2
2025-01-23 14:07:24.847165	346.7	22.8	-91.1	3.6
2025-01-23 14:07:26.002865	346.5	22.7	-91.3	6.3
2025-01-23 14:07:27.161488	346.2	22.6	-91.0	3.0
2025-01-23 14:07:28.316615	345.9	22.6	-90.9	3.8
2025-01-23 14:07:29.478922	345.6	22.5	-91.2	4.5
2025-01-23 14:07:30.645163	345.3	22.4	-91.2	7.7
2025-01-23 14:07:31.801607	345.1	22.3	-91.2	2.9
2025-01-23 14:07:32.957034	344.8	22.3	-91.0	2.9
2025-01-23 14:07:34.109227	344.5	22.2	-90.7	6.5
2025-01-23 14:07:35.269436	344.2	22.1	-90.6	2.7
2025-01-23 14:07:36.420529	344.0	22.1	-91.0	4.0
2025-01-23 14:07:37.572964	343.7	22.0	-91.2	8.3
2025-01-23 14:07:38.732490	343.4	21.9	-91.3	3.6
2025-01-23 14:07:39.897495	343.2	21.8	-90.9	3.3
2025-01-23 14:07:41.057104	342.9	21.8	-91.1	4.0
2025-01-23 14:07:42.212438	342.6	21.7	-90.8	5.7
2025-01-23 14:07:43.378125	342.4	21.6	-90.8	4.1
2025-01-23 14:07:44.531351	342.1	21.5	-91.1	4.8
2025-01-23 14:07:45.679298	341.8	21.5	-91.3	3.9
2025-01-23 14:07:46.829285	341.6	21.4	-91.3	5.0
2025-01-23 14:07:47.979826	341.3	21.3	-91.2	4.2
2025-01-23 14:07:49.134138	341.1	21.2	-90.5	5.9
2025-01-23 14:07:50.287223	340.8	21.2	-90.7	5.7
2025-01-23 14:07:51.437553	340.6	21.1	-91.0	4.4
2025-01-23 14:07:52.593884	340.3	21.0	-91.3	6.1
2025-01-23 14:07:53.744616	340.1	20.9	-91.3	7.7
2025-01-23 14:07:54.893952	339.8	20.9	-91.1	9.7
2025-01-23 14:07:56.052511	339.6	20.8	-91.2	6.1
2025-01-23 14:07:57.206963	339.3	20.7	-91.0	5.9
2025-01-23 14:07:58.363616	339.1	20.6	-90.8	3.8
2025-01-23 14:07:59.520466	338.8	20.5	-90.7	2.0
2025-01-23 14:08:00.668477	338.6	20.5	-91.4	3.8
2025-01-23 14:08:01.825253	338.3	20.4	-91.5	4.7
2025-01-23 14:08:02.990952	338.1	20.3	-91.4	4.9
2025-01-23 14:08:04.142408	337.8	20.2	-91.0	5.2
2025-01-23 14:08:05.296318	337.6	20.1	-91.2	3.5
2025-01-23 14:08:06.450317	337.4	20.1	-90.9	2.0
2025-01-23 14:08:07.609836	337.1	20.0	-90.6	4.1
2025-01-23 14:08:08.765713	336.9	19.9	-91.2	2.6
2025-01-23 14:08:09.920227	336.7	19.8	-90.9	0.4
2025-01-23 14:08:11.075123	336.4	19.7	-91.2	1.7
2025-01-23 14:08:12.236107	336.2	19.7	-91.0	2.2
2025-01-23 14:08:13.390595	336.0	19.6	-91.0	2.6
2025-01-23 14:08:14.552287	335.7	19.5	-91.3	4.5
2025-01-23 14:08:15.699452	335.5	19.4	-91.5	1.2
2025-01-23 14:08:16.849001	335.3	19.3	-91.4	1.7
2025-01-23 14:08:18.006085	335.1	19.2	-91.1	0.9
2025-01-23 14:08:19.167864	334.8	19.2	-90.8	2.8
2025-01-23 14:08:20.327048	334.6	19.1	-90.7	1.6
2025-01-23 14:08:21.481802	334.4	19.0	-91.2	1.9
2025-01-23 14:08:22.641449	334.2	18.9	-91.2	1.7
2025-01-23 14:08:23.795690	333.9	18.8	-91.1	1.1
2025-01-23 14:08:24.948690	333.7	18.7	-91.1	1.8
2025-01-23 14:08:26.101677	333.5	18.6	-91.4	4.0
2025-01-23 14:08:27.255312	333.3	18.6	-91.0	2.2
2025-01-23 14:08:28.405134	333.1	18.5	-91.2	2.6
2025-01-23 14:08:29.566142	332.9	18.4	-91.2	3.3
2025-01-23 14:08:30.722908	332.6	18.3	-91.1	2.8
2025-01-23 14:08:31.876536	332.4	18.2	-91.1	2.4
2025-01-23 14:08:33.034761	332.2	18.1	-91.0	1.6
2025-01-23 14:08:34.190836	332.0	18.1	-89.9	1.2
2025-01-23 14:08:35.347631	331.8	18.0	-89.8	0.6
2025-01-23 14:08:36.611865	331.6	17.9	-90.4	1.9
2025-01-23 14:08:37.765169	331.4	17.8	-90.3	1.2
2025-01-23 14:08:38.920636	331.2	17.7	-90.1	1.8
2025-01-23 14:08:40.081884	331.0	17.6	-90.0	1.1
2025-01-23 14:08:41.250161	330.8	17.5	-90.0	1.5
2025-01-23 14:08:42.400314	330.6	17.4	-91.4	2.1
2025-01-23 14:08:43.550914	330.4	17.4	-91.3	2.1
2025-01-23 14:08:44.697125	330.2	17.3	-91.4	0.3
2025-01-23 14:08:45.865796	330.0	17.2	-91.3	2.5
2025-01-23 14:08:47.013974	329.8	17.1	-91.2	3.7
2025-01-23 14:08:48.172915	329.6	17.0	-90.7	1.6
2025-01-23 14:08:49.329332	329.4	16.9	-91.4	0.5
2025-01-23 14:08:50.590593	329.2	16.8	-91.5	2.8
2025-01-23 14:08:51.749995	329.0	16.7	-91.4	2.2
2025-01-23 14:08:52.912395	328.8	16.7	-91.1	2.9
2025-01-23 14:08:54.070903	328.6	16.6	-90.8	3.4
2025-01-23 14:08:55.232136	328.4	16.5	-91.3	5.6
2025-01-23 14:08:56.380064	328.2	16.4	-90.9	4.6
2025-01-23 14:08:57.543866	328.1	16.3	-91.2	8.0
2025-01-23 14:08:58.699714	327.9	16.2	-91.0	4.4
2025-01-23 14:08:59.857259	327.7	16.1	-91.1	4.7
2025-01-23 14:09:01.006550	327.5	16.0	-90.8	4.5
2025-01-23 14:09:02.166495	327.3	16.0	-90.8	2.7
2025-01-23 14:09:03.322693	327.1	15.9	-90.8	3.2
2025-01-23 14:09:04.471628	327.0	15.8	-91.1	2.3
2025-01-23 14:09:05.624821	326.8	15.7	-91.1	2.8
2025-01-23 14:09:06.781590	326.6	15.6	-91.3	0.4
2025-01-23 14:09:07.940478	326.4	15.5	-91.4	4.0
2025-01-23 14:09:09.096181	326.3	15.4	-91.0	3.4
2025-01-23 14:09:10.254445	326.1	15.4	-91.0	4.3
2025-01-23 14:09:11.416267	325.9	15.3	-91.3	4.8
2025-01-23 14:09:12.570001	325.7	15.2	-91.5	4.9
2025-01-23 14:09:13.724772	325.6	15.1	-91.3	7.4
2025-01-23 14:09:14.883510	325.4	15.0	-91.2	4.8
2025-01-23 14:09:16.034604	325.2	14.9	-91.3	7.0
2025-01-23 14:09:17.181056	325.1	14.8	-91.1	1.9
2025-01-23 14:09:18.332414	324.9	14.8	-90.9	5.7
2025-01-23 14:09:19.481620	324.7	14.7	-91.1	5.7
#Closed at: 2025-01-23 14:02:50.066296