passes_logs/2025/01/23/LEX_Murmansk/LEX_Murmansk__20250123_110611_NOAA_18_rec.log

#Pass ID: 20250123_110611_NOAA 18
#Satellite: NOAA 18
#Configuration: NOAA 18
#Start time: 2025-01-23 11:06:06.458784

#LorettStation: 1.0.0 05.05.2024
#Station: LEX_Murmansk
#Location: 33.156738 lon 68.926811 lat
#TLE: 1 28654U 05018A   25022.24143052  .00000458  00000+0  26647-3 0  9995
#TLE: 2 28654  98.8556 103.2235 0014680 159.1096 201.0679 14.13493787 14203

#Time	Az	El	Level	SNR
2025-01-23 11:06:18.619887	23.1	16.3	-90.9	5.6
2025-01-23 11:06:20.918031	23.0	16.5	-90.6	3.1
2025-01-23 11:06:23.214074	22.8	16.7	-91.1	4.4
2025-01-23 11:06:25.525647	22.7	17.0	-90.8	4.3
2025-01-23 11:06:27.837063	22.5	17.3	-90.6	5.8
2025-01-23 11:06:30.145089	22.4	17.5	-90.5	5.5
2025-01-23 11:06:32.454991	22.2	17.8	-91.0	8.9
2025-01-23 11:06:34.753239	22.1	18.0	-91.0	9.4
2025-01-23 11:06:37.056244	21.9	18.3	-91.0	8.2
2025-01-23 11:06:39.353500	21.7	18.5	-90.7	7.5
2025-01-23 11:06:41.658363	21.6	18.8	-90.5	5.8
2025-01-23 11:06:43.982822	21.4	19.1	-90.2	8.6
2025-01-23 11:06:46.298024	21.2	19.4	-91.1	8.5
2025-01-23 11:06:48.621621	21.1	19.6	-90.8	4.5
2025-01-23 11:06:50.936246	20.9	19.9	-90.8	9.1
2025-01-23 11:06:53.225468	20.7	20.2	-90.6	6.7
2025-01-23 11:06:55.540331	20.5	20.5	-90.8	2.7
2025-01-23 11:06:57.836195	20.3	20.8	-91.2	7.9
2025-01-23 11:07:00.140486	20.1	21.1	-90.4	8.8
2025-01-23 11:07:02.440282	19.9	21.3	-90.7	6.8
2025-01-23 11:07:04.746819	19.7	21.6	-90.8	9.9
2025-01-23 11:07:07.074175	19.5	21.9	-90.9	8.3
2025-01-23 11:07:09.383086	19.3	22.2	-90.9	13.3
2025-01-23 11:07:11.684415	19.1	22.6	-91.0	12.4
2025-01-23 11:07:13.988752	18.8	22.9	-90.6	4.8
2025-01-23 11:07:16.305379	18.6	23.2	-90.5	10.7
2025-01-23 11:07:18.603472	18.4	23.5	-90.4	14.0
2025-01-23 11:07:20.918745	18.2	23.8	-90.7	10.0
2025-01-23 11:07:23.226792	17.9	24.1	-91.1	11.6
2025-01-23 11:07:25.530967	17.7	24.4	-91.0	12.4
2025-01-23 11:07:27.839008	17.4	24.8	-91.1	11.3
2025-01-23 11:07:30.165761	17.2	25.1	-91.0	9.3
2025-01-23 11:07:32.489456	16.9	25.4	-91.1	5.5
2025-01-23 11:07:34.795709	16.6	25.8	-90.8	10.8
2025-01-23 11:07:37.106142	16.4	26.1	-90.3	10.0
2025-01-23 11:07:39.405212	16.1	26.5	-89.6	8.1
2025-01-23 11:07:41.713978	15.8	26.8	-90.2	8.4
2025-01-23 11:07:44.026421	15.5	27.2	-90.3	8.8
2025-01-23 11:07:46.342093	15.2	27.5	-90.2	4.8
2025-01-23 11:07:48.656741	14.9	27.9	-90.8	5.9
2025-01-23 11:07:50.963671	14.6	28.3	-91.2	5.9
2025-01-23 11:07:53.270409	14.3	28.6	-90.7	5.9
2025-01-23 11:07:55.574330	13.9	29.0	-91.2	9.4
2025-01-23 11:07:57.889016	13.6	29.4	-91.5	8.2
2025-01-23 11:08:00.203066	13.2	29.8	-91.0	11.5
2025-01-23 11:08:02.495123	12.9	30.1	-90.9	10.2
2025-01-23 11:08:04.808938	12.5	30.5	-91.1	8.8
2025-01-23 11:08:07.114914	12.2	30.9	-91.2	8.0
2025-01-23 11:08:09.433523	11.8	31.3	-91.0	8.2
2025-01-23 11:08:11.737751	11.4	31.7	-91.0	11.8
2025-01-23 11:08:14.057530	11.0	32.1	-91.1	11.3
2025-01-23 11:08:16.373979	10.6	32.5	-90.8	9.9
2025-01-23 11:08:18.683822	10.2	32.9	-90.9	11.5
2025-01-23 11:08:20.998711	9.7	33.4	-91.3	15.4
2025-01-23 11:08:23.313147	9.3	33.8	-91.0	15.1
2025-01-23 11:08:25.624057	8.8	34.2	-91.3	6.9
2025-01-23 11:08:27.931583	8.3	34.6	-91.2	8.2
2025-01-23 11:08:30.249442	7.9	35.1	-90.8	14.3
2025-01-23 11:08:32.560453	7.4	35.5	-90.9	15.7
2025-01-23 11:08:34.871978	6.9	35.9	-91.3	13.0
2025-01-23 11:08:37.176498	6.3	36.4	-90.8	13.3
2025-01-23 11:08:39.484775	5.8	36.8	-91.1	14.0
2025-01-23 11:08:41.798640	5.3	37.2	-90.9	13.7
2025-01-23 11:08:44.108926	4.7	37.7	-90.5	10.1
2025-01-23 11:08:46.412817	4.1	38.1	-90.7	6.9
2025-01-23 11:08:48.728085	3.5	38.6	-90.1	14.7
2025-01-23 11:08:51.027436	2.9	39.1	-90.9	16.3
2025-01-23 11:08:53.333275	2.3	39.5	-90.5	18.0
2025-01-23 11:08:55.635466	1.6	40.0	-90.9	16.9
2025-01-23 11:08:57.952981	0.9	40.4	-91.0	13.3
2025-01-23 11:09:00.257397	0.3	40.9	-90.7	18.7
2025-01-23 11:09:02.573915	359.5	41.4	-89.8	16.6
2025-01-23 11:09:04.884268	358.8	41.8	-89.8	14.3
2025-01-23 11:09:07.198130	358.0	42.3	-90.4	17.0
2025-01-23 11:09:09.508808	357.3	42.8	-90.7	9.0
2025-01-23 11:09:11.830799	356.5	43.2	-91.1	16.4
2025-01-23 11:09:14.135574	355.6	43.7	-91.0	18.3
2025-01-23 11:09:16.447609	354.8	44.2	-90.9	20.3
2025-01-23 11:09:18.767920	353.9	44.6	-91.4	20.4
2025-01-23 11:09:21.076254	353.0	45.1	-91.2	13.0
2025-01-23 11:09:23.381673	352.1	45.5	-90.5	14.3
2025-01-23 11:09:25.702400	351.1	46.0	-90.8	19.8
2025-01-23 11:09:28.014034	350.2	46.4	-91.0	18.4
2025-01-23 11:09:30.311570	349.2	46.9	-91.0	15.4
2025-01-23 11:09:32.621017	348.1	47.3	-91.2	9.4
2025-01-23 11:09:34.936397	347.0	47.8	-91.1	7.2
2025-01-23 11:09:37.244439	346.0	48.2	-90.6	14.7
2025-01-23 11:09:39.540592	344.8	48.6	-91.0	12.0
2025-01-23 11:09:41.843499	343.7	49.0	-91.1	10.1
2025-01-23 11:09:44.151935	342.5	49.4	-91.4	10.9
2025-01-23 11:09:46.470900	341.3	49.8	-91.2	12.4
2025-01-23 11:09:48.784000	340.0	50.2	-91.5	18.0
2025-01-23 11:09:51.102997	338.7	50.5	-91.3	14.4
2025-01-23 11:09:53.415054	337.4	50.9	-91.0	9.3
2025-01-23 11:09:55.717327	336.1	51.2	-91.0	8.6
2025-01-23 11:09:58.025536	334.7	51.6	-91.4	13.2
2025-01-23 11:10:00.325003	333.3	51.9	-90.9	10.6
2025-01-23 11:10:02.630860	331.8	52.2	-91.3	12.6
2025-01-23 11:10:04.946458	330.4	52.4	-91.5	8.9
2025-01-23 11:10:07.260815	328.9	52.7	-89.0	5.0
2025-01-23 11:10:09.566330	327.4	52.9	-89.4	8.1
2025-01-23 11:10:11.873927	325.8	53.1	-89.7	10.7
2025-01-23 11:10:14.176831	324.3	53.3	-89.3	15.1
2025-01-23 11:10:16.492819	322.7	53.5	-91.2	11.2
2025-01-23 11:10:18.796008	321.1	53.7	-91.2	9.2
2025-01-23 11:10:21.103829	319.5	53.8	-90.1	12.8
2025-01-23 11:10:23.412840	317.8	53.9	-91.2	17.8
2025-01-23 11:10:25.717252	316.2	54.0	-90.6	18.9
2025-01-23 11:10:28.023554	314.5	54.1	-90.7	15.1
2025-01-23 11:10:30.324984	312.9	54.1	-90.9	15.9
2025-01-23 11:10:32.628361	311.2	54.1	-91.1	15.3
2025-01-23 11:10:34.930462	309.6	54.1	-91.2	12.0
2025-01-23 11:10:37.241040	307.9	54.1	-90.8	15.8
2025-01-23 11:10:39.552138	306.3	54.0	-91.4	10.5
2025-01-23 11:10:41.845977	304.6	53.9	-89.7	14.1
2025-01-23 11:10:44.160333	303.0	53.8	-90.1	16.8
2025-01-23 11:10:46.475980	301.4	53.7	-90.3	12.0
2025-01-23 11:10:48.782066	299.8	53.5	-91.0	17.6
2025-01-23 11:10:51.092548	298.2	53.4	-91.0	11.6
2025-01-23 11:10:53.397047	296.6	53.2	-91.1	12.6
2025-01-23 11:10:55.714154	295.1	52.9	-91.5	17.6
2025-01-23 11:10:58.024341	293.5	52.7	-91.1	14.9
2025-01-23 11:11:00.333673	292.1	52.4	-90.6	17.7
2025-01-23 11:11:02.633497	290.6	52.2	-91.3	16.8
2025-01-23 11:11:04.948191	289.1	51.9	-91.4	16.7
2025-01-23 11:11:07.264589	287.7	51.6	-91.0	18.2
2025-01-23 11:11:09.571834	286.3	51.2	-89.8	14.8
2025-01-23 11:11:11.881444	285.0	50.9	-90.9	18.4
2025-01-23 11:11:14.185370	283.7	50.6	-91.1	18.7
2025-01-23 11:11:16.505936	282.4	50.2	-91.2	15.3
2025-01-23 11:11:18.814058	281.1	49.8	-90.9	17.4
2025-01-23 11:11:21.118758	279.9	49.4	-90.9	11.8
2025-01-23 11:11:23.435354	278.7	49.0	-91.0	11.8
2025-01-23 11:11:25.755566	277.5	48.6	-90.9	17.2
2025-01-23 11:11:28.061851	276.4	48.2	-91.1	9.8
2025-01-23 11:11:30.381269	275.3	47.8	-91.1	10.9
2025-01-23 11:11:32.678372	274.2	47.3	-90.8	14.8
2025-01-23 11:11:34.985995	273.2	46.9	-91.0	10.2
2025-01-23 11:11:37.291042	272.2	46.4	-90.3	17.5
2025-01-23 11:11:39.604568	271.2	46.0	-91.2	12.3
2025-01-23 11:11:41.915542	270.2	45.5	-90.7	12.2
2025-01-23 11:11:44.234350	269.3	45.1	-90.5	20.5
2025-01-23 11:11:46.544417	268.4	44.6	-91.0	14.4
2025-01-23 11:11:48.851577	267.5	44.1	-91.2	19.5
2025-01-23 11:11:51.151990	266.7	43.7	-90.7	15.6
2025-01-23 11:11:53.463958	265.8	43.2	-91.0	14.4
2025-01-23 11:11:55.787152	265.0	42.7	-90.9	15.8
2025-01-23 11:11:58.082024	264.3	42.3	-91.0	12.5
2025-01-23 11:12:00.326712	263.5	41.8	-90.5	10.9
2025-01-23 11:12:02.568503	262.8	41.4	-91.1	11.5
2025-01-23 11:12:04.809336	262.1	40.9	-91.2	11.4
2025-01-23 11:12:07.084082	261.4	40.5	-91.1	5.4
2025-01-23 11:12:09.335104	260.8	40.0	-91.2	4.4
2025-01-23 11:12:11.576640	260.1	39.6	-91.4	6.2
2025-01-23 11:12:13.819604	259.5	39.1	-91.4	12.5
2025-01-23 11:12:16.100445	258.9	38.7	-91.2	7.3
2025-01-23 11:12:18.399689	258.3	38.2	-91.2	7.8
2025-01-23 11:12:20.713798	257.7	37.7	-91.0	10.6
2025-01-23 11:12:23.026604	257.1	37.3	-91.4	9.0
2025-01-23 11:12:25.327908	256.6	36.8	-91.3	11.3
2025-01-23 11:12:27.634195	256.0	36.4	-90.9	8.7
2025-01-23 11:12:29.949269	255.5	36.0	-91.0	6.7
2025-01-23 11:12:32.264458	255.0	35.5	-91.1	6.0
2025-01-23 11:12:34.570479	254.5	35.1	-91.4	5.8
2025-01-23 11:12:36.881151	254.0	34.6	-91.4	8.9
2025-01-23 11:12:39.190129	253.5	34.2	-90.8	14.3
2025-01-23 11:12:41.495274	253.1	33.8	-91.4	12.7
2025-01-23 11:12:43.799381	252.6	33.4	-91.5	18.4
2025-01-23 11:12:46.120337	252.2	32.9	-90.9	19.6
2025-01-23 11:12:48.425101	251.8	32.5	-90.8	18.2
2025-01-23 11:12:50.739066	251.3	32.1	-91.2	19.3
2025-01-23 11:12:53.053488	250.9	31.7	-91.0	13.0
2025-01-23 11:12:55.366687	250.5	31.3	-91.1	16.9
2025-01-23 11:12:57.681572	250.2	30.9	-91.1	20.0
2025-01-23 11:12:59.995395	249.8	30.5	-91.5	19.4
2025-01-23 11:13:02.296796	249.4	30.1	-90.8	20.0
2025-01-23 11:13:04.608612	249.1	29.7	-91.3	20.5
2025-01-23 11:13:06.905480	248.7	29.4	-91.3	17.6
2025-01-23 11:13:09.225418	248.4	29.0	-90.9	17.2
2025-01-23 11:13:11.525002	248.0	28.6	-90.9	10.4
2025-01-23 11:13:13.823372	247.7	28.2	-91.4	16.2
2025-01-23 11:13:16.128863	247.4	27.9	-90.9	13.8
2025-01-23 11:13:18.440016	247.1	27.5	-91.0	14.7
2025-01-23 11:13:20.750948	246.8	27.1	-91.5	15.7
2025-01-23 11:13:23.061044	246.5	26.8	-91.4	15.7
2025-01-23 11:13:25.380101	246.2	26.4	-91.2	12.5
2025-01-23 11:13:27.691190	245.9	26.1	-91.6	10.8
2025-01-23 11:13:29.998533	245.6	25.7	-91.1	8.4
2025-01-23 11:13:32.310295	245.4	25.4	-90.9	10.4
2025-01-23 11:13:34.619811	245.1	25.1	-91.2	10.8
2025-01-23 11:13:36.913967	244.8	24.7	-91.0	11.3
2025-01-23 11:13:39.231556	244.6	24.4	-90.7	9.1
2025-01-23 11:13:41.534863	244.3	24.1	-91.3	5.6
2025-01-23 11:13:43.832446	244.1	23.7	-89.5	6.2
2025-01-23 11:13:46.147716	243.9	23.4	-89.8	3.7
2025-01-23 11:13:48.456689	243.6	23.1	-89.7	4.7
2025-01-23 11:13:50.757284	243.4	22.8	-91.4	6.5
2025-01-23 11:13:53.060021	243.2	22.5	-91.1	2.0
2025-01-23 11:13:55.372364	243.0	22.2	-91.5	5.9
2025-01-23 11:13:57.683860	242.7	21.9	-91.3	10.9
2025-01-23 11:13:59.998008	242.5	21.6	-91.3	6.9
2025-01-23 11:14:02.309669	242.3	21.3	-91.3	9.8
2025-01-23 11:14:04.620428	242.1	21.0	-90.8	10.6
2025-01-23 11:14:06.934606	241.9	20.7	-90.9	7.0
2025-01-23 11:14:09.241054	241.7	20.4	-89.7	10.4
2025-01-23 11:14:11.549797	241.5	20.1	-90.2	7.7
2025-01-23 11:14:13.846176	241.3	19.8	-89.8	5.3
2025-01-23 11:14:16.144703	241.2	19.5	-90.6	8.3
2025-01-23 11:14:18.457490	241.0	19.3	-90.5	6.7
2025-01-23 11:14:20.779550	240.8	19.0	-91.2	9.8
2025-01-23 11:14:23.091796	240.6	18.7	-90.6	9.4
2025-01-23 11:14:25.396508	240.5	18.4	-91.1	10.9
2025-01-23 11:14:27.706456	240.3	18.2	-91.1	10.1
2025-01-23 11:14:30.013119	240.1	17.9	-90.9	6.2
2025-01-23 11:14:32.327759	240.0	17.7	-90.5	9.2
2025-01-23 11:14:34.640220	239.8	17.4	-90.8	9.3
2025-01-23 11:14:36.953556	239.7	17.1	-91.3	7.3
2025-01-23 11:14:39.268297	239.5	16.9	-91.0	7.8
2025-01-23 11:14:41.575378	239.3	16.6	-91.4	6.3
2025-01-23 11:14:43.882234	239.2	16.4	-90.9	6.9
2025-01-23 11:14:46.198844	239.1	16.1	-90.6	10.5
2025-01-23 11:14:48.509592	238.9	15.9	-91.3	7.3
2025-01-23 11:14:50.814983	238.8	15.6	-91.3	11.7
2025-01-23 11:14:53.116678	238.6	15.4	-90.8	10.0
2025-01-23 11:14:55.420592	238.5	15.2	-91.3	9.4
2025-01-23 11:14:57.750569	238.4	14.9	-91.2	8.4
2025-01-23 11:15:00.065048	238.2	14.7	-91.0	5.1
2025-01-23 11:15:02.370563	238.1	14.5	-90.9	8.9
#Closed at: 2025-01-23 11:06:11.409873