passes_logs/2025/01/23/LEX_Murmansk/LEX_Murmansk__20250123_160551_NOAA_18_rec.log

#Pass ID: 20250123_160551_NOAA 18
#Satellite: NOAA 18
#Configuration: NOAA 18
#Start time: 2025-01-23 16:05:46.158027

#LorettStation: 1.0.0 05.05.2024
#Station: LEX_Murmansk
#Location: 33.156738 lon 68.926811 lat
#TLE: 1 28654U 05018A   25023.16165176  .00000420  00000+0  24625-3 0  9991
#TLE: 2 28654  98.8554 104.1346 0014722 156.5601 203.6245 14.13494494 14331

#Time	Az	El	Level	SNR
2025-01-23 16:05:58.280682	72.9	16.0	-89.9	12.7
2025-01-23 16:05:59.440607	72.8	16.1	-90.5	7.3
2025-01-23 16:06:00.588475	72.6	16.2	-89.9	10.6
2025-01-23 16:06:01.739840	72.4	16.3	-89.2	16.1
2025-01-23 16:06:02.903359	72.3	16.4	-88.2	6.8
2025-01-23 16:06:04.060662	72.1	16.5	-88.4	10.8
2025-01-23 16:06:05.214912	71.9	16.6	-88.2	7.9
2025-01-23 16:06:06.373013	71.8	16.7	-88.3	9.4
2025-01-23 16:06:07.533713	71.6	16.8	-88.2	8.6
2025-01-23 16:06:08.695565	71.4	16.9	-90.1	19.0
2025-01-23 16:06:09.859805	71.3	17.0	-90.1	3.6
2025-01-23 16:06:11.022905	71.1	17.1	-89.7	15.1
2025-01-23 16:06:12.178149	70.9	17.2	-90.1	17.9
2025-01-23 16:06:13.339665	70.7	17.3	-90.2	15.2
2025-01-23 16:06:14.497293	70.6	17.4	-90.0	13.2
2025-01-23 16:06:15.656079	70.4	17.5	-89.8	19.2
2025-01-23 16:06:16.820391	70.2	17.6	-89.8	14.4
2025-01-23 16:06:17.984738	70.0	17.7	-90.1	4.4
2025-01-23 16:06:19.141409	69.8	17.8	-89.5	11.5
2025-01-23 16:06:20.300539	69.7	17.9	-89.6	13.6
2025-01-23 16:06:21.466760	69.5	18.0	-89.9	11.3
2025-01-23 16:06:22.636664	69.3	18.1	-90.0	10.7
2025-01-23 16:06:23.794064	69.1	18.2	-90.8	14.3
2025-01-23 16:06:24.958320	68.9	18.3	-90.4	9.6
2025-01-23 16:06:26.114630	68.7	18.4	-89.9	8.5
2025-01-23 16:06:27.276266	68.6	18.5	-89.7	13.5
2025-01-23 16:06:28.444621	68.4	18.6	-90.0	4.6
2025-01-23 16:06:29.602166	68.2	18.7	-90.0	8.6
2025-01-23 16:06:30.758668	68.0	18.8	-90.1	13.9
2025-01-23 16:06:31.918298	67.8	18.9	-90.4	7.0
2025-01-23 16:06:33.081913	67.6	19.0	-89.9	8.4
2025-01-23 16:06:34.243434	67.4	19.1	-90.1	7.5
2025-01-23 16:06:35.410457	67.2	19.2	-90.3	10.7
2025-01-23 16:06:36.569192	67.0	19.3	-89.8	13.6
2025-01-23 16:06:37.738776	66.8	19.4	-90.1	10.5
2025-01-23 16:06:38.899296	66.6	19.5	-90.6	11.7
2025-01-23 16:06:40.070484	66.4	19.6	-90.2	8.8
2025-01-23 16:06:41.228808	66.2	19.7	-89.8	12.4
2025-01-23 16:06:42.385369	66.0	19.8	-90.4	7.4
2025-01-23 16:06:43.549535	65.8	19.9	-90.7	10.0
2025-01-23 16:06:44.703873	65.6	20.0	-90.4	17.3
2025-01-23 16:06:45.861650	65.3	20.1	-90.7	12.3
2025-01-23 16:06:47.023134	65.1	20.2	-90.6	7.0
2025-01-23 16:06:48.188901	64.9	20.3	-90.0	10.2
2025-01-23 16:06:49.342861	64.7	20.4	-90.3	9.7
2025-01-23 16:06:50.504674	64.5	20.5	-90.5	4.9
2025-01-23 16:06:51.663189	64.3	20.6	-90.4	11.5
2025-01-23 16:06:52.818544	64.1	20.7	-90.6	7.3
2025-01-23 16:06:53.978632	63.8	20.8	-90.3	8.3
2025-01-23 16:06:55.141536	63.6	20.9	-90.2	14.2
2025-01-23 16:06:56.293012	63.4	21.0	-90.2	12.3
2025-01-23 16:06:57.451812	63.2	21.1	-90.6	14.4
2025-01-23 16:06:58.610172	62.9	21.2	-90.9	8.9
2025-01-23 16:06:59.766314	62.7	21.3	-89.2	13.3
2025-01-23 16:07:00.907015	62.5	21.4	-89.1	7.0
2025-01-23 16:07:02.062449	62.3	21.5	-89.2	7.3
2025-01-23 16:07:03.217020	62.0	21.6	-89.2	8.1
2025-01-23 16:07:04.383847	61.8	21.7	-88.4	13.2
2025-01-23 16:07:05.541890	61.6	21.8	-90.8	15.9
2025-01-23 16:07:06.706412	61.3	21.9	-90.0	12.7
2025-01-23 16:07:07.866336	61.1	22.0	-90.7	13.9
2025-01-23 16:07:09.025834	60.9	22.1	-90.4	8.3
2025-01-23 16:07:10.180769	60.6	22.2	-90.4	14.0
2025-01-23 16:07:11.337375	60.4	22.3	-90.3	11.2
2025-01-23 16:07:12.493829	60.1	22.4	-90.7	6.4
2025-01-23 16:07:13.652986	59.9	22.5	-90.3	6.9
2025-01-23 16:07:14.815482	59.6	22.6	-90.5	8.6
2025-01-23 16:07:15.976284	59.4	22.7	-90.5	6.0
2025-01-23 16:07:17.134830	59.1	22.7	-90.2	13.8
2025-01-23 16:07:18.299925	58.9	22.8	-90.2	12.7
2025-01-23 16:07:19.460869	58.6	22.9	-89.8	7.8
2025-01-23 16:07:20.621217	58.4	23.0	-90.3	10.7
2025-01-23 16:07:21.779597	58.1	23.1	-90.6	13.0
2025-01-23 16:07:22.940570	57.9	23.2	-90.5	12.2
2025-01-23 16:07:24.102373	57.6	23.3	-88.8	8.4
2025-01-23 16:07:25.264353	57.3	23.4	-90.3	9.4
2025-01-23 16:07:26.413476	57.1	23.5	-90.7	6.4
2025-01-23 16:07:27.578887	56.8	23.6	-90.3	5.5
2025-01-23 16:07:28.739830	56.5	23.7	-90.0	10.5
2025-01-23 16:07:29.894483	56.3	23.8	-90.1	8.7
2025-01-23 16:07:31.050748	56.0	23.9	-90.4	10.1
2025-01-23 16:07:32.208336	55.7	24.0	-90.1	12.7
2025-01-23 16:07:33.367430	55.5	24.1	-90.3	4.3
2025-01-23 16:07:34.541357	55.2	24.2	-90.2	6.1
2025-01-23 16:07:35.698120	54.9	24.3	-90.8	8.8
2025-01-23 16:07:36.858371	54.6	24.4	-90.7	9.9
2025-01-23 16:07:38.017266	54.4	24.4	-90.5	4.7
2025-01-23 16:07:39.173319	54.1	24.5	-90.4	9.1
2025-01-23 16:07:40.330915	53.8	24.6	-90.5	15.0
2025-01-23 16:07:41.484237	53.5	24.7	-90.5	10.4
2025-01-23 16:07:42.643346	53.2	24.8	-90.6	11.7
2025-01-23 16:07:43.808666	52.9	24.9	-90.8	7.8
2025-01-23 16:07:44.972069	52.6	25.0	-90.9	12.8
2025-01-23 16:07:46.132978	52.4	25.1	-90.6	10.1
2025-01-23 16:07:47.298855	52.1	25.2	-90.6	7.5
2025-01-23 16:07:48.451879	51.8	25.3	-90.3	7.3
2025-01-23 16:07:49.615288	51.5	25.3	-90.8	4.2
2025-01-23 16:07:50.777547	51.2	25.4	-91.2	6.9
2025-01-23 16:07:51.929120	50.9	25.5	-90.7	9.0
2025-01-23 16:07:53.088099	50.6	25.6	-90.4	7.6
2025-01-23 16:07:54.250366	50.3	25.7	-90.4	9.6
2025-01-23 16:07:55.405911	50.0	25.8	-90.9	8.0
2025-01-23 16:07:56.566119	49.7	25.8	-90.5	11.1
2025-01-23 16:07:57.728049	49.4	25.9	-91.0	8.8
2025-01-23 16:07:58.887028	49.1	26.0	-90.9	8.2
2025-01-23 16:08:00.048781	48.7	26.1	-90.3	4.5
2025-01-23 16:08:01.196336	48.4	26.2	-90.0	4.1
2025-01-23 16:08:02.350289	48.1	26.2	-90.3	5.2
2025-01-23 16:08:03.511132	47.8	26.3	-90.7	5.6
2025-01-23 16:08:04.670912	47.5	26.4	-90.7	8.7
2025-01-23 16:08:05.832412	47.2	26.5	-90.3	8.7
2025-01-23 16:08:06.990689	46.9	26.6	-90.5	4.9
2025-01-23 16:08:08.149906	46.5	26.6	-90.5	5.7
2025-01-23 16:08:09.310255	46.2	26.7	-90.5	8.5
2025-01-23 16:08:10.467629	45.9	26.8	-90.4	5.9
2025-01-23 16:08:11.626958	45.6	26.9	-90.3	9.8
2025-01-23 16:08:12.797146	45.2	26.9	-90.9	7.8
2025-01-23 16:08:13.960216	44.9	27.0	-90.9	8.8
2025-01-23 16:08:15.126763	44.6	27.1	-90.5	9.1
2025-01-23 16:08:16.289382	44.2	27.1	-90.4	7.1
2025-01-23 16:08:17.446118	43.9	27.2	-90.3	8.9
2025-01-23 16:08:18.609554	43.6	27.3	-90.2	9.6
2025-01-23 16:08:19.770743	43.2	27.3	-90.4	15.1
2025-01-23 16:08:20.934990	42.9	27.4	-90.1	9.8
2025-01-23 16:08:22.097721	42.6	27.5	-90.1	9.9
2025-01-23 16:08:23.256912	42.2	27.5	-90.0	8.9
2025-01-23 16:08:24.419085	41.9	27.6	-90.2	7.7
2025-01-23 16:08:25.576935	41.5	27.7	-90.2	6.2
2025-01-23 16:08:26.727790	41.2	27.7	-90.1	6.8
2025-01-23 16:08:27.884619	40.8	27.8	-90.4	9.3
2025-01-23 16:08:29.049594	40.5	27.8	-90.3	12.6
2025-01-23 16:08:30.203948	40.2	27.9	-90.4	9.0
2025-01-23 16:08:31.364243	39.8	28.0	-90.6	8.5
2025-01-23 16:08:32.521804	39.5	28.0	-90.3	8.2
2025-01-23 16:08:33.682817	39.1	28.1	-90.1	10.6
2025-01-23 16:08:34.842456	38.8	28.1	-90.2	9.8
2025-01-23 16:08:36.004791	38.4	28.2	-89.9	6.8
2025-01-23 16:08:37.157426	38.0	28.2	-90.2	8.4
2025-01-23 16:08:38.328920	37.7	28.3	-89.9	8.4
2025-01-23 16:08:39.487407	37.3	28.3	-90.5	4.4
2025-01-23 16:08:40.646698	37.0	28.4	-90.6	7.1
2025-01-23 16:08:41.803245	36.6	28.4	-90.4	10.5
2025-01-23 16:08:42.966782	36.2	28.5	-89.9	6.1
2025-01-23 16:08:44.126246	35.9	28.5	-89.1	8.2
2025-01-23 16:08:45.286100	35.5	28.6	-90.1	12.1
2025-01-23 16:08:46.447821	35.2	28.6	-90.1	5.9
2025-01-23 16:08:47.612585	34.8	28.6	-84.8	4.9
2025-01-23 16:08:48.772330	34.4	28.7	-90.8	8.7
2025-01-23 16:08:49.930145	34.1	28.7	-90.7	11.0
2025-01-23 16:08:51.087527	33.7	28.8	-90.1	6.3
2025-01-23 16:08:52.243708	33.3	28.8	-89.4	10.5
2025-01-23 16:08:53.407348	33.0	28.8	-89.3	9.4
2025-01-23 16:08:54.565281	32.6	28.9	-89.4	7.6
2025-01-23 16:08:55.723407	32.2	28.9	-89.3	10.0
2025-01-23 16:08:56.875874	31.8	28.9	-90.5	11.2
2025-01-23 16:08:58.035919	31.5	29.0	-90.5	7.2
2025-01-23 16:08:59.196794	31.1	29.0	-85.3	7.8
2025-01-23 16:09:00.349688	30.7	29.0	-85.0	3.4
2025-01-23 16:09:01.499091	30.4	29.0	-86.3	6.2
2025-01-23 16:09:02.653552	30.0	29.1	-85.6	4.1
2025-01-23 16:09:03.809987	29.6	29.1	-85.6	4.3
2025-01-23 16:09:04.966677	29.2	29.1	-86.0	5.3
2025-01-23 16:09:06.120738	28.9	29.1	-86.1	6.2
2025-01-23 16:09:07.282143	28.5	29.1	-90.0	7.5
2025-01-23 16:09:08.438820	28.1	29.2	-89.7	5.8
2025-01-23 16:09:09.604433	27.7	29.2	-90.0	6.4
2025-01-23 16:09:10.757298	27.4	29.2	-90.7	8.7
2025-01-23 16:09:11.919792	27.0	29.2	-90.4	6.0
2025-01-23 16:09:13.084271	26.6	29.2	-90.2	6.1
2025-01-23 16:09:14.243393	26.2	29.2	-90.4	7.3
2025-01-23 16:09:15.399677	25.8	29.2	-91.0	11.5
2025-01-23 16:09:16.558655	25.5	29.2	-90.7	9.3
2025-01-23 16:09:17.717371	25.1	29.2	-90.7	8.3
2025-01-23 16:09:18.875760	24.7	29.2	-90.6	8.0
2025-01-23 16:09:20.035684	24.3	29.3	-90.5	7.8
2025-01-23 16:09:21.192564	24.0	29.3	-90.3	11.4
2025-01-23 16:09:22.351031	23.6	29.3	-90.5	10.9
2025-01-23 16:09:23.502913	23.2	29.3	-90.5	11.2
2025-01-23 16:09:24.659544	22.8	29.2	-90.5	10.6
2025-01-23 16:09:25.813896	22.4	29.2	-90.5	14.9
2025-01-23 16:09:26.962801	22.1	29.2	-90.6	11.1
2025-01-23 16:09:28.122468	21.7	29.2	-90.6	11.2
2025-01-23 16:09:29.280808	21.3	29.2	-90.6	7.3
2025-01-23 16:09:30.448510	20.9	29.2	-90.7	5.5
2025-01-23 16:09:31.600841	20.5	29.2	-90.6	7.2
2025-01-23 16:09:32.753828	20.2	29.2	-90.6	8.7
2025-01-23 16:09:33.910464	19.8	29.2	-90.6	6.8
2025-01-23 16:09:35.072237	19.4	29.2	-90.3	5.1
2025-01-23 16:09:36.222908	19.0	29.1	-90.4	9.9
2025-01-23 16:09:37.386493	18.7	29.1	-90.7	7.2
2025-01-23 16:09:38.533797	18.3	29.1	-89.9	8.4
2025-01-23 16:09:39.675245	17.9	29.1	-90.2	6.8
2025-01-23 16:09:40.835570	17.5	29.1	-90.2	4.1
2025-01-23 16:09:41.996089	17.2	29.0	-90.4	6.0
2025-01-23 16:09:43.156108	16.8	29.0	-90.3	6.0
2025-01-23 16:09:44.311164	16.4	29.0	-90.2	5.1
2025-01-23 16:09:45.473406	16.1	29.0	-90.4	3.8
2025-01-23 16:09:46.629836	15.7	28.9	-90.4	5.8
2025-01-23 16:09:47.791483	15.3	28.9	-90.4	5.1
2025-01-23 16:09:48.942314	14.9	28.9	-90.8	5.1
2025-01-23 16:09:50.100029	14.6	28.8	-90.3	5.9
2025-01-23 16:09:51.255462	14.2	28.8	-89.0	7.3
2025-01-23 16:09:52.415277	13.8	28.8	-88.8	5.6
2025-01-23 16:09:53.573412	13.5	28.7	-88.9	7.3
2025-01-23 16:09:54.729915	13.1	28.7	-89.3	8.2
2025-01-23 16:09:55.882321	12.7	28.7	-88.8	7.5
2025-01-23 16:09:57.041535	12.4	28.6	-88.6	5.4
2025-01-23 16:09:58.192862	12.0	28.6	-88.2	7.9
2025-01-23 16:09:59.352037	11.6	28.5	-90.1	7.4
2025-01-23 16:10:00.498516	11.3	28.5	-89.4	4.5
2025-01-23 16:10:01.652707	10.9	28.4	-89.5	6.4
2025-01-23 16:10:02.805250	10.6	28.4	-90.9	6.9
2025-01-23 16:10:03.960921	10.2	28.4	-90.3	6.6
2025-01-23 16:10:05.115492	9.9	28.3	-90.6	7.3
2025-01-23 16:10:06.269547	9.5	28.3	-90.3	8.1
2025-01-23 16:10:07.421901	9.1	28.2	-90.8	3.5
2025-01-23 16:10:08.574366	8.8	28.2	-90.8	6.1
2025-01-23 16:10:09.734334	8.4	28.1	-90.7	7.8
2025-01-23 16:10:10.890062	8.1	28.0	-90.5	7.8
2025-01-23 16:10:12.051070	7.7	28.0	-90.7	5.2
2025-01-23 16:10:13.210405	7.4	27.9	-90.2	8.7
2025-01-23 16:10:14.372472	7.0	27.9	-90.9	5.8
2025-01-23 16:10:15.535118	6.7	27.8	-91.1	7.2
2025-01-23 16:10:16.698361	6.3	27.8	-91.0	6.0
2025-01-23 16:10:17.851179	6.0	27.7	-90.9	6.9
2025-01-23 16:10:19.010577	5.7	27.6	-90.2	8.6
2025-01-23 16:10:20.176001	5.3	27.6	-90.2	9.7
2025-01-23 16:10:21.326134	5.0	27.5	-90.5	13.6
2025-01-23 16:10:22.486852	4.6	27.4	-90.4	7.2
2025-01-23 16:10:23.643221	4.3	27.4	-90.3	8.6
2025-01-23 16:10:24.799718	4.0	27.3	-90.3	11.4
2025-01-23 16:10:25.957401	3.6	27.2	-90.6	8.6
2025-01-23 16:10:27.115988	3.3	27.2	-90.2	9.3
2025-01-23 16:10:28.270485	3.0	27.1	-90.3	8.2
2025-01-23 16:10:29.431124	2.6	27.0	-90.8	8.0
2025-01-23 16:10:30.593767	2.3	27.0	-90.4	8.9
2025-01-23 16:10:31.740788	2.0	26.9	-90.3	12.1
2025-01-23 16:10:32.900306	1.6	26.8	-90.2	8.5
2025-01-23 16:10:34.061354	1.3	26.7	-90.3	9.0
2025-01-23 16:10:35.219718	1.0	26.7	-90.3	10.2
2025-01-23 16:10:36.378878	0.7	26.6	-90.5	6.7
2025-01-23 16:10:37.538391	0.4	26.5	-90.7	5.3
2025-01-23 16:10:38.691536	0.0	26.4	-90.3	12.8
2025-01-23 16:10:39.857658	359.7	26.4	-90.6	10.5
2025-01-23 16:10:41.024635	359.4	26.3	-90.6	8.3
2025-01-23 16:10:42.180822	359.1	26.2	-90.7	13.2
2025-01-23 16:10:43.341478	358.8	26.1	-90.6	13.4
2025-01-23 16:10:44.503296	358.5	26.0	-90.6	7.1
2025-01-23 16:10:45.666159	358.1	26.0	-90.7	11.7
2025-01-23 16:10:46.824830	357.8	25.9	-90.6	14.7
2025-01-23 16:10:47.999105	357.5	25.8	-90.6	8.1
2025-01-23 16:10:49.168043	357.2	25.7	-90.0	11.9
2025-01-23 16:10:50.327637	356.9	25.6	-90.4	12.6
2025-01-23 16:10:51.492979	356.6	25.5	-90.5	9.6
2025-01-23 16:10:52.657815	356.3	25.5	-90.6	15.4
2025-01-23 16:10:53.817890	356.0	25.4	-91.0	15.6
2025-01-23 16:10:54.981154	355.7	25.3	-90.8	10.1
2025-01-23 16:10:56.133384	355.4	25.2	-90.6	14.3
2025-01-23 16:10:57.287439	355.1	25.1	-90.6	14.9
2025-01-23 16:10:58.441277	354.8	25.0	-90.7	8.5
2025-01-23 16:10:59.602332	354.6	24.9	-90.6	13.3
2025-01-23 16:11:00.756004	354.3	24.8	-90.7	13.5
2025-01-23 16:11:01.910266	354.0	24.8	-90.9	9.5
2025-01-23 16:11:03.070478	353.7	24.7	-90.7	9.5
2025-01-23 16:11:04.232372	353.4	24.6	-90.5	15.4
2025-01-23 16:11:05.393564	353.1	24.5	-90.5	8.5
2025-01-23 16:11:06.542458	352.8	24.4	-90.6	14.3
2025-01-23 16:11:07.701194	352.6	24.3	-90.8	13.5
2025-01-23 16:11:08.857489	352.3	24.2	-90.4	14.6
2025-01-23 16:11:10.018089	352.0	24.1	-90.8	10.8
2025-01-23 16:11:11.174765	351.7	24.0	-90.6	12.6
2025-01-23 16:11:12.338269	351.5	23.9	-91.0	11.7
2025-01-23 16:11:13.496564	351.2	23.8	-90.4	10.0
2025-01-23 16:11:14.656069	350.9	23.7	-91.1	8.6
2025-01-23 16:11:15.827306	350.7	23.6	-90.7	10.1
2025-01-23 16:11:16.975250	350.4	23.6	-90.8	7.4
2025-01-23 16:11:18.132043	350.1	23.5	-90.8	11.2
2025-01-23 16:11:19.292156	349.9	23.4	-90.4	10.5
2025-01-23 16:11:20.456383	349.6	23.3	-90.5	8.4
2025-01-23 16:11:21.616051	349.4	23.2	-90.9	9.2
2025-01-23 16:11:22.771327	349.1	23.1	-90.9	12.7
2025-01-23 16:11:23.943539	348.8	23.0	-91.0	7.4
2025-01-23 16:11:25.101094	348.6	22.9	-90.4	8.0
2025-01-23 16:11:26.261975	348.3	22.8	-90.6	13.8
2025-01-23 16:11:27.420411	348.1	22.7	-90.6	7.2
2025-01-23 16:11:28.578667	347.8	22.6	-90.1	7.5
2025-01-23 16:11:29.737787	347.6	22.5	-90.7	10.2
2025-01-23 16:11:30.894964	347.3	22.4	-90.6	3.6
2025-01-23 16:11:32.060070	347.1	22.3	-90.5	6.9
2025-01-23 16:11:33.213764	346.8	22.2	-90.6	7.6
2025-01-23 16:11:34.381214	346.6	22.1	-90.4	5.9
2025-01-23 16:11:35.536450	346.4	22.0	-90.7	5.7
2025-01-23 16:11:36.709204	346.1	21.9	-91.1	8.9
2025-01-23 16:11:37.869875	345.9	21.8	-91.0	8.5
2025-01-23 16:11:39.025314	345.6	21.7	-90.6	7.4
2025-01-23 16:11:40.182827	345.4	21.6	-90.6	10.2
2025-01-23 16:11:41.336786	345.2	21.5	-90.6	9.4
2025-01-23 16:11:42.508093	344.9	21.4	-91.2	10.3
2025-01-23 16:11:43.664850	344.7	21.3	-90.7	13.2
2025-01-23 16:11:44.823975	344.5	21.2	-90.9	9.2
2025-01-23 16:11:45.987688	344.3	21.1	-91.0	9.0
2025-01-23 16:11:47.144969	344.0	21.0	-90.7	9.4
2025-01-23 16:11:48.305569	343.8	20.9	-90.5	9.0
2025-01-23 16:11:49.464142	343.6	20.8	-90.7	7.2
2025-01-23 16:11:50.617261	343.4	20.7	-91.2	9.8
2025-01-23 16:11:51.778890	343.2	20.6	-90.7	8.4
2025-01-23 16:11:52.935529	342.9	20.5	-90.5	7.4
2025-01-23 16:11:54.096833	342.7	20.4	-90.6	5.1
2025-01-23 16:11:55.258921	342.5	20.3	-90.5	5.8
2025-01-23 16:11:56.412205	342.3	20.2	-90.8	4.3
2025-01-23 16:11:57.570330	342.1	20.1	-90.6	3.9
2025-01-23 16:11:58.728078	341.9	20.0	-90.9	6.3
2025-01-23 16:11:59.885829	341.7	19.9	-90.7	4.0
2025-01-23 16:12:01.040222	341.4	19.8	-90.6	4.1
2025-01-23 16:12:02.192572	341.2	19.7	-90.6	7.3
2025-01-23 16:12:03.349705	341.0	19.6	-90.5	3.7
2025-01-23 16:12:04.504863	340.8	19.5	-91.1	3.9
2025-01-23 16:12:05.668150	340.6	19.4	-91.1	6.5
2025-01-23 16:12:06.818871	340.4	19.3	-90.8	5.8
2025-01-23 16:12:07.979127	340.2	19.2	-91.0	5.3
2025-01-23 16:12:09.128188	340.0	19.1	-90.7	5.6
2025-01-23 16:12:10.287554	339.8	19.0	-90.3	6.0
2025-01-23 16:12:11.440418	339.6	18.9	-90.8	3.7
2025-01-23 16:12:12.600980	339.4	18.8	-90.6	5.8
2025-01-23 16:12:13.754356	339.3	18.7	-90.2	3.9
2025-01-23 16:12:14.915073	339.1	18.6	-90.4	3.6
2025-01-23 16:12:16.069976	338.9	18.5	-90.5	4.0
2025-01-23 16:12:17.224810	338.7	18.4	-90.3	5.6
2025-01-23 16:12:18.387220	338.5	18.3	-90.2	5.0
2025-01-23 16:12:19.548768	338.3	18.2	-90.7	3.4
2025-01-23 16:12:20.700083	338.1	18.1	-90.8	7.6
2025-01-23 16:12:21.864016	337.9	18.0	-90.7	4.2
2025-01-23 16:12:23.020752	337.7	17.9	-90.9	3.2
2025-01-23 16:12:24.180137	337.6	17.8	-89.0	5.6
2025-01-23 16:12:25.337771	337.4	17.7	-89.5	4.2
2025-01-23 16:12:26.498481	337.2	17.6	-89.6	5.5
2025-01-23 16:12:27.659142	337.0	17.5	-89.5	4.7
2025-01-23 16:12:28.816949	336.8	17.4	-89.0	5.5
2025-01-23 16:12:29.976809	336.7	17.3	-89.1	2.9
2025-01-23 16:12:31.134045	336.5	17.2	-89.0	6.6
2025-01-23 16:12:32.288833	336.3	17.1	-89.5	5.8
2025-01-23 16:12:33.449750	336.2	17.0	-90.7	3.7
2025-01-23 16:12:34.608604	336.0	16.9	-90.8	6.2
2025-01-23 16:12:35.775064	335.8	16.8	-89.8	6.6
2025-01-23 16:12:36.931914	335.6	16.7	-89.4	4.6
2025-01-23 16:12:38.101876	335.5	16.6	-88.8	5.3
2025-01-23 16:12:39.263409	335.3	16.5	-89.4	4.9
2025-01-23 16:12:40.426969	335.1	16.4	-89.9	5.7
2025-01-23 16:12:41.583930	335.0	16.3	-89.5	6.4
2025-01-23 16:12:42.743341	334.8	16.2	-90.3	3.5
2025-01-23 16:12:43.907461	334.6	16.1	-90.5	2.3
2025-01-23 16:12:45.069929	334.5	16.0	-90.6	4.3
2025-01-23 16:12:46.232303	334.3	15.9	-90.8	3.1
2025-01-23 16:12:47.387004	334.2	15.8	-91.0	4.4
2025-01-23 16:12:48.545906	334.0	15.7	-90.7	6.1
2025-01-23 16:12:49.708545	333.8	15.6	-90.7	4.5
2025-01-23 16:12:50.880239	333.7	15.5	-90.7	4.2
2025-01-23 16:12:52.038951	333.5	15.4	-90.6	6.9
2025-01-23 16:12:53.200314	333.4	15.3	-90.7	6.5
2025-01-23 16:12:54.356741	333.2	15.2	-90.7	4.3
2025-01-23 16:12:55.523165	333.1	15.1	-91.0	6.1
2025-01-23 16:12:56.683554	332.9	15.1	-90.6	6.1
2025-01-23 16:12:57.840551	332.8	15.0	-90.3	6.1
2025-01-23 16:12:58.997305	332.6	14.9	-91.1	3.5
2025-01-23 16:13:00.153185	332.5	14.8	-90.5	6.5
2025-01-23 16:13:01.311352	332.3	14.7	-90.5	4.0
2025-01-23 16:13:02.460285	332.2	14.6	-90.5	5.8
#Closed at: 2025-01-23 16:05:51.101462