passes_logs/2025/01/23/LEX_Murmansk/LEX_Murmansk__20250123_190241_NOAA_19_rec.log

#Pass ID: 20250123_190241_NOAA 19
#Satellite: NOAA 19
#Configuration: NOAA 19
#Start time: 2025-01-23 19:02:36.371351

#LorettStation: 1.0.0 05.05.2024
#Station: LEX_Murmansk
#Location: 33.156738 lon 68.926811 lat
#TLE: 1 33591U 09005A   25023.14581638  .00000359  00000+0  21554-3 0  9999
#TLE: 2 33591  99.0183  86.9707 0014184  35.5055 324.7058 14.13266334822690

#Time	Az	El	Level	SNR
2025-01-23 19:02:48.897564	195.2	16.2	-91.8	4.4
2025-01-23 19:02:50.062046	195.3	16.3	-91.8	3.9
2025-01-23 19:02:51.228797	195.5	16.5	-91.6	2.7
2025-01-23 19:02:52.389044	195.6	16.6	-91.4	2.0
2025-01-23 19:02:53.545777	195.7	16.7	-92.1	0.9
2025-01-23 19:02:54.711674	195.8	16.8	-91.4	2.8
2025-01-23 19:02:55.871000	195.9	16.9	-91.4	1.3
2025-01-23 19:02:57.035934	196.1	17.1	-91.5	2.6
2025-01-23 19:02:58.198418	196.2	17.2	-91.4	1.8
2025-01-23 19:02:59.361277	196.3	17.3	-91.6	2.4
2025-01-23 19:03:00.519238	196.4	17.4	-91.9	4.1
2025-01-23 19:03:01.683096	196.5	17.5	-91.5	1.7
2025-01-23 19:03:02.846954	196.7	17.7	-91.8	2.7
2025-01-23 19:03:04.009925	196.8	17.8	-91.6	2.5
2025-01-23 19:03:05.177787	196.9	17.9	-91.9	3.5
2025-01-23 19:03:06.342050	197.0	18.0	-92.0	4.6
2025-01-23 19:03:07.503831	197.2	18.1	-92.0	2.7
2025-01-23 19:03:08.667949	197.3	18.3	-91.7	4.7
2025-01-23 19:03:09.830474	197.4	18.4	-91.6	1.4
2025-01-23 19:03:10.994409	197.6	18.5	-91.7	3.3
2025-01-23 19:03:12.166886	197.7	18.6	-91.3	3.4
2025-01-23 19:03:13.332028	197.8	18.8	-91.0	4.0
2025-01-23 19:03:14.496313	198.0	18.9	-91.8	9.3
2025-01-23 19:03:15.669194	198.1	19.0	-91.5	8.9
2025-01-23 19:03:16.831281	198.2	19.2	-91.8	4.5
2025-01-23 19:03:17.991473	198.4	19.3	-91.7	6.0
2025-01-23 19:03:19.151591	198.5	19.4	-91.6	5.5
2025-01-23 19:03:20.303122	198.7	19.5	-91.7	6.6
2025-01-23 19:03:21.466876	198.8	19.7	-91.9	11.4
2025-01-23 19:03:22.622652	198.9	19.8	-91.7	9.2
2025-01-23 19:03:23.789597	199.1	19.9	-91.9	6.7
2025-01-23 19:03:24.952892	199.2	20.1	-91.7	5.2
2025-01-23 19:03:26.115821	199.4	20.2	-91.8	2.6
2025-01-23 19:03:27.279452	199.5	20.3	-91.8	1.3
2025-01-23 19:03:28.432048	199.7	20.5	-91.8	3.7
2025-01-23 19:03:29.585335	199.8	20.6	-91.7	3.3
2025-01-23 19:03:30.706717	200.0	20.7	-91.9	6.2
2025-01-23 19:03:31.828171	200.1	20.8	-92.5	7.0
2025-01-23 19:03:32.948873	200.3	21.0	-92.0	6.1
2025-01-23 19:03:34.069589	200.4	21.1	-92.1	7.9
2025-01-23 19:03:35.190395	200.5	21.2	-91.2	2.2
2025-01-23 19:03:36.311096	200.7	21.4	-91.9	4.7
2025-01-23 19:03:37.431544	200.9	21.5	-92.1	6.1
2025-01-23 19:03:38.554323	201.0	21.6	-91.7	8.5
2025-01-23 19:03:39.704821	201.2	21.8	-91.8	5.4
2025-01-23 19:03:40.869225	201.3	21.9	-92.0	8.9
2025-01-23 19:03:42.032541	201.5	22.0	-92.3	7.0
2025-01-23 19:03:43.199918	201.7	22.2	-91.8	5.8
2025-01-23 19:03:44.364132	201.8	22.3	-91.8	3.0
2025-01-23 19:03:45.532626	202.0	22.5	-91.8	3.3
2025-01-23 19:03:46.696085	202.2	22.6	-91.7	4.0
2025-01-23 19:03:47.858954	202.3	22.7	-91.9	2.9
2025-01-23 19:03:49.026250	202.5	22.9	-91.7	5.1
2025-01-23 19:03:50.185763	202.7	23.0	-91.1	6.2
2025-01-23 19:03:51.357283	202.9	23.2	-91.0	6.9
2025-01-23 19:03:52.521384	203.0	23.3	-92.0	6.4
2025-01-23 19:03:53.689755	203.2	23.5	-91.6	5.9
2025-01-23 19:03:54.852781	203.4	23.6	-91.5	5.0
2025-01-23 19:03:56.014650	203.6	23.7	-91.5	4.5
2025-01-23 19:03:57.179931	203.8	23.9	-91.4	5.4
2025-01-23 19:03:58.344332	203.9	24.0	-91.8	6.7
2025-01-23 19:03:59.512033	204.1	24.2	-92.3	8.7
2025-01-23 19:04:00.663300	204.3	24.3	-91.8	6.0
2025-01-23 19:04:01.827025	204.5	24.5	-91.9	3.5
2025-01-23 19:04:02.991250	204.7	24.6	-91.8	2.2
2025-01-23 19:04:04.154429	204.9	24.8	-91.6	3.7
2025-01-23 19:04:05.318858	205.1	24.9	-91.4	2.1
2025-01-23 19:04:06.484278	205.3	25.1	-91.5	2.9
2025-01-23 19:04:07.648851	205.5	25.2	-91.9	6.1
2025-01-23 19:04:08.805797	205.7	25.4	-92.2	8.9
2025-01-23 19:04:09.965319	205.9	25.5	-91.5	11.2
2025-01-23 19:04:11.129937	206.1	25.7	-90.8	6.5
2025-01-23 19:04:12.294284	206.3	25.8	-90.7	4.5
2025-01-23 19:04:13.458499	206.5	26.0	-90.5	3.5
2025-01-23 19:04:14.625243	206.7	26.1	-90.6	8.3
2025-01-23 19:04:15.789186	206.9	26.3	-91.0	2.5
2025-01-23 19:04:16.953793	207.1	26.4	-90.7	11.4
2025-01-23 19:04:18.120216	207.4	26.6	-90.4	8.0
2025-01-23 19:04:19.285065	207.6	26.7	-90.3	8.2
2025-01-23 19:04:20.447724	207.8	26.9	-92.0	4.4
2025-01-23 19:04:21.613059	208.0	27.1	-91.8	2.6
2025-01-23 19:04:22.780355	208.2	27.2	-91.8	3.2
2025-01-23 19:04:23.945200	208.5	27.4	-91.8	2.4
2025-01-23 19:04:25.109822	208.7	27.5	-91.5	4.9
2025-01-23 19:04:26.274826	208.9	27.7	-91.8	2.9
2025-01-23 19:04:27.440528	209.2	27.8	-92.1	8.0
2025-01-23 19:04:28.603483	209.4	28.0	-92.4	9.4
2025-01-23 19:04:29.767600	209.6	28.2	-92.0	9.8
2025-01-23 19:04:30.923060	209.9	28.3	-91.9	11.6
2025-01-23 19:04:32.073190	210.1	28.5	-91.9	5.1
2025-01-23 19:04:33.197486	210.4	28.6	-91.5	5.0
2025-01-23 19:04:34.319749	210.6	28.8	-91.5	6.6
2025-01-23 19:04:35.440694	210.8	28.9	-91.9	7.2
2025-01-23 19:04:36.562258	211.1	29.1	-92.3	8.0
2025-01-23 19:04:37.683185	211.3	29.2	-92.4	10.1
2025-01-23 19:04:38.803195	211.6	29.4	-91.9	10.6
2025-01-23 19:04:39.925162	211.8	29.6	-92.3	5.2
2025-01-23 19:04:41.044369	212.1	29.7	-92.3	4.8
2025-01-23 19:04:42.170404	212.3	29.9	-92.0	2.2
2025-01-23 19:04:43.322884	212.6	30.0	-91.7	1.9
2025-01-23 19:04:44.483076	212.9	30.2	-91.9	3.3
2025-01-23 19:04:45.630551	213.1	30.3	-92.0	3.4
2025-01-23 19:04:46.792892	213.4	30.5	-92.2	3.8
2025-01-23 19:04:47.947249	213.7	30.7	-91.6	3.6
2025-01-23 19:04:49.108794	214.0	30.8	-91.8	5.4
2025-01-23 19:04:50.269030	214.2	31.0	-91.7	4.0
2025-01-23 19:04:51.434405	214.5	31.2	-92.1	4.7
2025-01-23 19:04:52.594800	214.8	31.3	-91.5	5.9
2025-01-23 19:04:53.757385	215.1	31.5	-92.5	5.0
2025-01-23 19:04:54.924308	215.4	31.6	-92.3	3.4
2025-01-23 19:04:56.083083	215.7	31.8	-92.3	4.3
2025-01-23 19:04:57.246518	216.0	32.0	-92.3	5.3
2025-01-23 19:04:58.410499	216.3	32.1	-92.2	8.1
2025-01-23 19:04:59.578619	216.6	32.3	-91.5	12.5
2025-01-23 19:05:00.738029	216.9	32.5	-91.9	8.1
2025-01-23 19:05:01.899483	217.2	32.6	-91.5	9.0
2025-01-23 19:05:03.068510	217.5	32.8	-91.5	6.5
2025-01-23 19:05:04.226787	217.8	33.0	-91.3	3.3
2025-01-23 19:05:05.392813	218.2	33.1	-91.8	3.9
2025-01-23 19:05:06.553234	218.5	33.3	-92.2	4.6
2025-01-23 19:05:07.716763	218.8	33.4	-92.1	3.9
2025-01-23 19:05:08.876598	219.1	33.6	-92.1	6.3
2025-01-23 19:05:10.039900	219.5	33.8	-91.9	7.5
2025-01-23 19:05:11.201823	219.8	33.9	-91.8	9.6
2025-01-23 19:05:12.359725	220.2	34.1	-91.7	13.1
2025-01-23 19:05:13.525595	220.5	34.3	-91.9	16.4
2025-01-23 19:05:14.688572	220.8	34.4	-91.9	15.4
2025-01-23 19:05:15.854378	221.2	34.6	-91.7	13.8
2025-01-23 19:05:17.016310	221.5	34.7	-92.3	11.4
2025-01-23 19:05:18.178909	221.9	34.9	-91.5	9.6
2025-01-23 19:05:19.334958	222.3	35.1	-91.4	6.9
2025-01-23 19:05:20.494945	222.6	35.2	-91.9	12.2
2025-01-23 19:05:21.655698	223.0	35.4	-92.0	15.2
2025-01-23 19:05:22.818665	223.4	35.5	-92.2	15.8
2025-01-23 19:05:23.982499	223.7	35.7	-92.1	18.8
2025-01-23 19:05:25.146558	224.1	35.9	-92.0	17.3
2025-01-23 19:05:26.300350	224.5	36.0	-91.6	13.9
2025-01-23 19:05:27.463997	224.9	36.2	-92.2	14.7
2025-01-23 19:05:28.628257	225.3	36.3	-91.8	10.5
2025-01-23 19:05:29.789102	225.7	36.5	-91.9	5.3
2025-01-23 19:05:30.948346	226.1	36.6	-91.5	6.0
2025-01-23 19:05:32.110032	226.5	36.8	-91.5	8.0
2025-01-23 19:05:33.274620	226.9	36.9	-91.4	4.7
2025-01-23 19:05:34.440950	227.3	37.1	-91.6	10.0
2025-01-23 19:05:35.622009	227.7	37.3	-91.6	12.0
2025-01-23 19:05:36.786026	228.1	37.4	-91.6	11.9
2025-01-23 19:05:37.943302	228.5	37.6	-91.8	11.5
2025-01-23 19:05:39.109536	228.9	37.7	-91.5	18.4
2025-01-23 19:05:40.266639	229.4	37.8	-91.2	16.1
2025-01-23 19:05:41.428912	229.8	38.0	-91.6	16.3
2025-01-23 19:05:42.586675	230.2	38.1	-92.0	14.7
2025-01-23 19:05:43.748322	230.7	38.3	-92.3	6.2
2025-01-23 19:05:44.912210	231.1	38.4	-92.6	9.4
2025-01-23 19:05:46.076849	231.5	38.6	-92.0	9.7
2025-01-23 19:05:47.235334	232.0	38.7	-91.7	6.2
2025-01-23 19:05:48.402445	232.4	38.8	-91.5	7.7
2025-01-23 19:05:49.564019	232.9	39.0	-92.3	15.5
2025-01-23 19:05:50.718168	233.4	39.1	-92.3	14.0
2025-01-23 19:05:51.883186	233.8	39.2	-92.0	19.9
2025-01-23 19:05:53.046864	234.3	39.4	-91.9	19.3
2025-01-23 19:05:54.211734	234.8	39.5	-91.7	19.1
2025-01-23 19:05:55.383252	235.2	39.6	-92.0	16.0
2025-01-23 19:05:56.550064	235.7	39.8	-92.4	15.0
2025-01-23 19:05:57.710430	236.2	39.9	-92.3	1.4
2025-01-23 19:05:58.872156	236.7	40.0	-92.2	6.1
2025-01-23 19:06:00.032914	237.2	40.1	-91.7	6.5
2025-01-23 19:06:01.191647	237.7	40.3	-91.8	4.7
2025-01-23 19:06:02.348842	238.2	40.4	-91.8	3.9
2025-01-23 19:06:03.510444	238.7	40.5	-91.7	5.9
2025-01-23 19:06:04.671998	239.2	40.6	-92.1	3.6
2025-01-23 19:06:05.836830	239.7	40.7	-91.9	8.6
2025-01-23 19:06:07.003894	240.2	40.8	-91.9	11.4
2025-01-23 19:06:08.167723	240.7	40.9	-91.5	19.5
2025-01-23 19:06:09.333893	241.2	41.0	-91.5	14.8
2025-01-23 19:06:10.489589	241.7	41.1	-92.0	20.8
2025-01-23 19:06:11.648559	242.3	41.2	-91.6	21.6
2025-01-23 19:06:12.809003	242.8	41.3	-91.9	16.4
2025-01-23 19:06:13.972794	243.3	41.4	-92.0	13.6
2025-01-23 19:06:15.131361	243.8	41.5	-91.7	16.7
2025-01-23 19:06:16.295656	244.4	41.6	-91.8	9.3
2025-01-23 19:06:17.456915	244.9	41.7	-92.4	15.4
2025-01-23 19:06:18.619836	245.5	41.8	-92.3	9.7
2025-01-23 19:06:19.787024	246.0	41.9	-92.0	9.1
2025-01-23 19:06:20.938631	246.5	42.0	-92.2	11.3
2025-01-23 19:06:22.107133	247.1	42.0	-92.1	6.3
2025-01-23 19:06:23.262494	247.6	42.1	-91.9	6.6
2025-01-23 19:06:24.429506	248.2	42.2	-92.1	15.6
2025-01-23 19:06:25.592707	248.8	42.3	-92.1	12.4
2025-01-23 19:06:26.757613	249.3	42.3	-92.1	16.1
2025-01-23 19:06:27.920451	249.9	42.4	-92.1	20.2
2025-01-23 19:06:29.091661	250.4	42.4	-92.1	23.5
2025-01-23 19:06:30.251594	251.0	42.5	-91.7	22.7
2025-01-23 19:06:31.407945	251.6	42.6	-91.6	19.2
2025-01-23 19:06:32.573400	252.1	42.6	-92.4	21.2
2025-01-23 19:06:33.733874	252.7	42.7	-92.0	23.1
2025-01-23 19:06:34.902469	253.3	42.7	-91.9	20.3
2025-01-23 19:06:36.066849	253.9	42.7	-91.6	21.2
2025-01-23 19:06:37.235028	254.4	42.8	-91.8	15.0
2025-01-23 19:06:38.400098	255.0	42.8	-91.9	17.1
2025-01-23 19:06:39.581107	255.6	42.9	-92.0	19.5
2025-01-23 19:06:40.742408	256.2	42.9	-91.6	9.6
2025-01-23 19:06:41.903208	256.8	42.9	-91.8	7.8
2025-01-23 19:06:43.067585	257.4	42.9	-91.7	10.5
2025-01-23 19:06:44.231971	257.9	43.0	-91.8	7.8
2025-01-23 19:06:45.402074	258.5	43.0	-91.9	5.9
2025-01-23 19:06:46.564512	259.1	43.0	-92.0	10.5
2025-01-23 19:06:47.732257	259.7	43.0	-91.9	3.3
2025-01-23 19:06:48.891363	260.3	43.0	-92.1	5.3
2025-01-23 19:06:50.057461	260.9	43.0	-92.0	5.4
2025-01-23 19:06:51.220557	261.4	43.0	-91.7	7.0
2025-01-23 19:06:52.386002	262.0	43.0	-92.3	4.9
2025-01-23 19:06:53.562230	262.6	43.0	-92.1	9.2
2025-01-23 19:06:54.722659	263.2	43.0	-92.3	5.1
2025-01-23 19:06:55.885402	263.8	43.0	-91.9	5.5
2025-01-23 19:06:57.051129	264.4	43.0	-92.0	6.7
2025-01-23 19:06:58.212940	264.9	42.9	-91.9	9.4
2025-01-23 19:06:59.369988	265.5	42.9	-92.0	11.3
2025-01-23 19:07:00.517560	266.1	42.9	-92.0	11.2
2025-01-23 19:07:01.648650	266.7	42.9	-92.1	10.1
2025-01-23 19:07:02.792167	267.2	42.8	-92.2	8.4
2025-01-23 19:07:03.949037	267.8	42.8	-92.1	6.2
2025-01-23 19:07:05.092766	268.4	42.8	-91.4	7.0
2025-01-23 19:07:06.249131	268.9	42.7	-91.9	5.4
2025-01-23 19:07:07.408536	269.5	42.7	-91.8	11.6
2025-01-23 19:07:08.568651	270.1	42.6	-91.5	7.8
2025-01-23 19:07:09.736286	270.7	42.6	-91.4	15.7
2025-01-23 19:07:10.892731	271.2	42.5	-91.3	5.1
2025-01-23 19:07:12.049930	271.8	42.5	-91.2	10.1
2025-01-23 19:07:13.216961	272.4	42.4	-91.1	13.3
2025-01-23 19:07:14.378031	272.9	42.4	-91.3	10.1
2025-01-23 19:07:15.545423	273.5	42.3	-91.4	13.3
2025-01-23 19:07:16.702727	274.0	42.2	-91.6	16.3
2025-01-23 19:07:17.867606	274.6	42.2	-91.1	10.4
2025-01-23 19:07:19.030427	275.1	42.1	-92.1	15.4
2025-01-23 19:07:20.204507	275.7	42.0	-91.7	12.8
2025-01-23 19:07:21.365894	276.2	41.9	-91.7	8.1
2025-01-23 19:07:22.532568	276.8	41.9	-92.2	14.3
2025-01-23 19:07:23.699460	277.3	41.8	-92.4	12.2
2025-01-23 19:07:24.862741	277.9	41.7	-91.7	12.9
2025-01-23 19:07:26.022051	278.4	41.6	-91.4	18.4
2025-01-23 19:07:27.193475	278.9	41.5	-91.4	18.5
2025-01-23 19:07:28.359350	279.5	41.4	-91.7	15.8
2025-01-23 19:07:29.523362	280.0	41.3	-91.7	17.8
2025-01-23 19:07:30.685960	280.5	41.2	-91.6	20.3
2025-01-23 19:07:31.846103	281.0	41.1	-91.7	15.2
2025-01-23 19:07:33.005828	281.6	41.0	-92.0	14.3
2025-01-23 19:07:34.171769	282.1	40.9	-91.3	17.9
2025-01-23 19:07:35.327018	282.6	40.8	-89.8	11.6
2025-01-23 19:07:36.492415	283.1	40.7	-91.9	14.0
2025-01-23 19:07:37.655279	283.6	40.6	-92.0	15.5
2025-01-23 19:07:38.823139	284.1	40.5	-91.1	11.7
2025-01-23 19:07:39.986391	284.6	40.3	-91.5	15.1
2025-01-23 19:07:41.148707	285.1	40.2	-91.4	21.9
2025-01-23 19:07:42.304700	285.6	40.1	-91.8	11.6
2025-01-23 19:07:43.469674	286.1	40.0	-92.2	20.7
2025-01-23 19:07:44.631192	286.6	39.9	-92.4	6.8
2025-01-23 19:07:45.794943	287.0	39.7	-92.1	19.0
2025-01-23 19:07:46.957363	287.5	39.6	-92.4	21.3
2025-01-23 19:07:48.127235	288.0	39.5	-92.0	9.6
2025-01-23 19:07:49.289079	288.4	39.3	-91.8	14.0
2025-01-23 19:07:50.453637	288.9	39.2	-92.3	15.6
2025-01-23 19:07:51.615978	289.4	39.1	-92.2	15.1
2025-01-23 19:07:52.777370	289.8	38.9	-92.4	15.9
2025-01-23 19:07:53.933761	290.3	38.8	-91.9	10.5
2025-01-23 19:07:55.097452	290.7	38.7	-91.7	13.3
2025-01-23 19:07:56.261461	291.2	38.5	-89.9	7.1
2025-01-23 19:07:57.423429	291.6	38.4	-92.2	16.5
2025-01-23 19:07:58.585490	292.1	38.2	-92.5	15.9
2025-01-23 19:07:59.753576	292.5	38.1	-91.5	11.3
2025-01-23 19:08:00.907850	292.9	38.0	-92.1	17.4
2025-01-23 19:08:02.074044	293.3	37.8	-92.0	5.3
2025-01-23 19:08:03.237424	293.8	37.7	-91.8	6.7
2025-01-23 19:08:04.395743	294.2	37.5	-91.9	7.5
2025-01-23 19:08:05.563370	294.6	37.4	-92.2	9.6
2025-01-23 19:08:06.728644	295.0	37.2	-91.7	6.0
2025-01-23 19:08:07.890317	295.4	37.1	-91.6	10.6
2025-01-23 19:08:09.052323	295.8	36.9	-92.4	7.9
2025-01-23 19:08:10.215291	296.2	36.8	-91.8	5.4
2025-01-23 19:08:11.378196	296.6	36.6	-90.8	9.1
2025-01-23 19:08:12.544131	297.0	36.5	-90.9	11.7
2025-01-23 19:08:13.714035	297.4	36.3	-90.9	1.3
2025-01-23 19:08:14.877209	297.8	36.2	-91.6	3.7
2025-01-23 19:08:16.040410	298.2	36.0	-91.5	5.2
2025-01-23 19:08:17.204237	298.6	35.8	-91.0	2.0
2025-01-23 19:08:18.370298	298.9	35.7	-90.6	3.2
2025-01-23 19:08:19.525089	299.3	35.5	-91.3	3.7
2025-01-23 19:08:20.706777	299.7	35.4	-91.3	1.5
2025-01-23 19:08:21.868150	300.0	35.2	-91.5	2.1
2025-01-23 19:08:23.033253	300.4	35.0	-91.5	4.0
2025-01-23 19:08:24.197700	300.8	34.9	-90.5	2.7
2025-01-23 19:08:25.360460	301.1	34.7	-91.6	1.8
2025-01-23 19:08:26.524933	301.5	34.6	-92.0	3.4
2025-01-23 19:08:27.689040	301.8	34.4	-92.1	4.5
2025-01-23 19:08:28.849957	302.2	34.2	-92.0	4.0
2025-01-23 19:08:30.013850	302.5	34.1	-91.8	9.5
2025-01-23 19:08:31.170817	302.8	33.9	-92.1	6.1
2025-01-23 19:08:32.338357	303.2	33.8	-91.6	2.7
2025-01-23 19:08:33.500742	303.5	33.6	-92.1	9.5
2025-01-23 19:08:34.664813	303.8	33.4	-91.8	4.7
2025-01-23 19:08:35.829856	304.2	33.3	-91.6	7.6
2025-01-23 19:08:36.993433	304.5	33.1	-91.7	10.5
2025-01-23 19:08:38.160597	304.8	32.9	-92.0	7.5
2025-01-23 19:08:39.325427	305.1	32.8	-91.9	5.8
2025-01-23 19:08:40.488918	305.4	32.6	-92.2	7.1
2025-01-23 19:08:41.647591	305.7	32.5	-91.6	4.0
2025-01-23 19:08:42.815400	306.0	32.3	-91.8	4.1
2025-01-23 19:08:43.977197	306.3	32.1	-91.8	2.4
2025-01-23 19:08:45.140283	306.6	32.0	-92.0	2.2
2025-01-23 19:08:46.303826	306.9	31.8	-92.0	3.1
2025-01-23 19:08:47.463118	307.2	31.6	-91.8	4.8
2025-01-23 19:08:48.623413	307.5	31.5	-92.2	3.7
2025-01-23 19:08:49.788884	307.8	31.3	-91.5	2.6
2025-01-23 19:08:50.950822	308.1	31.2	-91.9	7.5
2025-01-23 19:08:52.110758	308.4	31.0	-91.9	7.8
2025-01-23 19:08:53.279063	308.7	30.8	-91.8	7.4
2025-01-23 19:08:54.438986	308.9	30.7	-91.9	10.8
2025-01-23 19:08:55.603187	309.2	30.5	-92.0	10.8
2025-01-23 19:08:56.761330	309.5	30.4	-91.9	13.2
2025-01-23 19:08:57.925207	309.8	30.2	-91.8	9.6
2025-01-23 19:08:59.088988	310.0	30.0	-91.9	12.4
2025-01-23 19:09:00.250125	310.3	29.9	-92.1	13.7
2025-01-23 19:09:01.404119	310.5	29.7	-91.9	11.2
2025-01-23 19:09:02.571906	310.8	29.6	-92.3	13.1
2025-01-23 19:09:03.721009	311.1	29.4	-91.4	9.3
2025-01-23 19:09:04.881945	311.3	29.2	-92.4	8.9
2025-01-23 19:09:06.046012	311.6	29.1	-91.8	12.0
2025-01-23 19:09:07.217023	311.8	28.9	-92.1	3.8
2025-01-23 19:09:08.382078	312.1	28.8	-91.8	5.1
2025-01-23 19:09:09.554517	312.3	28.6	-92.0	7.8
2025-01-23 19:09:10.717584	312.5	28.4	-92.0	4.9
2025-01-23 19:09:11.870795	312.8	28.3	-91.8	2.0
2025-01-23 19:09:13.038614	313.0	28.1	-92.0	6.7
2025-01-23 19:09:14.202431	313.3	28.0	-91.8	4.7
2025-01-23 19:09:15.368439	313.5	27.8	-91.7	6.0
2025-01-23 19:09:16.533134	313.7	27.7	-92.1	6.2
2025-01-23 19:09:17.689972	314.0	27.5	-92.1	7.9
2025-01-23 19:09:18.850508	314.2	27.4	-92.0	11.7
2025-01-23 19:09:20.012658	314.4	27.2	-92.1	4.5
2025-01-23 19:09:21.174677	314.6	27.0	-91.7	14.2
2025-01-23 19:09:22.338717	314.8	26.9	-90.9	9.0
2025-01-23 19:09:23.504746	315.1	26.7	-91.9	6.9
2025-01-23 19:09:24.668590	315.3	26.6	-92.1	5.5
2025-01-23 19:09:25.831129	315.5	26.4	-91.9	8.9
2025-01-23 19:09:26.992813	315.7	26.3	-92.2	4.2
2025-01-23 19:09:28.155961	315.9	26.1	-91.2	5.0
2025-01-23 19:09:29.324197	316.1	26.0	-91.9	2.6
2025-01-23 19:09:30.485773	316.3	25.8	-92.1	4.3
2025-01-23 19:09:31.645140	316.5	25.7	-91.9	5.1
2025-01-23 19:09:32.808604	316.7	25.5	-91.8	1.1
2025-01-23 19:09:33.970870	316.9	25.4	-91.9	4.2
2025-01-23 19:09:35.127637	317.1	25.2	-91.5	3.7
2025-01-23 19:09:36.296067	317.3	25.1	-91.9	3.8
2025-01-23 19:09:37.459989	317.5	24.9	-92.0	5.6
2025-01-23 19:09:38.619746	317.7	24.8	-92.0	3.6
2025-01-23 19:09:39.781525	317.9	24.6	-92.1	11.0
2025-01-23 19:09:40.940560	318.1	24.5	-92.3	10.5
2025-01-23 19:09:42.094862	318.3	24.3	-91.7	8.3
2025-01-23 19:09:43.254900	318.5	24.2	-91.7	6.1
2025-01-23 19:09:44.416977	318.7	24.1	-92.0	3.9
2025-01-23 19:09:45.582118	318.8	23.9	-92.0	7.9
2025-01-23 19:09:46.747019	319.0	23.8	-92.4	3.1
2025-01-23 19:09:47.916231	319.2	23.6	-92.1	3.6
2025-01-23 19:09:49.082850	319.4	23.5	-92.0	3.7
2025-01-23 19:09:50.243068	319.6	23.3	-91.6	0.5
2025-01-23 19:09:51.402212	319.7	23.2	-91.7	2.0
2025-01-23 19:09:52.566910	319.9	23.1	-91.9	3.5
2025-01-23 19:09:53.737498	320.1	22.9	-92.1	3.0
2025-01-23 19:09:54.897742	320.3	22.8	-92.5	2.9
2025-01-23 19:09:56.059189	320.4	22.6	-92.1	1.9
2025-01-23 19:09:57.219189	320.6	22.5	-92.1	2.5
2025-01-23 19:09:58.379306	320.8	22.4	-92.1	2.2
2025-01-23 19:09:59.545022	320.9	22.2	-92.1	3.8
2025-01-23 19:10:00.701723	321.1	22.1	-92.2	2.7
2025-01-23 19:10:01.865786	321.3	21.9	-92.0	4.0
2025-01-23 19:10:03.025896	321.4	21.8	-92.0	2.4
2025-01-23 19:10:04.187829	321.6	21.7	-91.9	3.6
2025-01-23 19:10:05.345816	321.7	21.5	-91.9	1.4
2025-01-23 19:10:06.508021	321.9	21.4	-92.1	2.3
2025-01-23 19:10:07.667885	322.0	21.3	-91.9	1.4
2025-01-23 19:10:08.830164	322.2	21.1	-92.1	1.9
2025-01-23 19:10:09.993307	322.4	21.0	-92.4	3.1
2025-01-23 19:10:11.161234	322.5	20.9	-92.1	0.6
2025-01-23 19:10:12.321479	322.7	20.7	-92.2	2.7
2025-01-23 19:10:13.483211	322.8	20.6	-91.9	2.6
2025-01-23 19:10:14.646901	323.0	20.5	-92.2	4.2
2025-01-23 19:10:15.804571	323.1	20.3	-92.5	3.8
2025-01-23 19:10:16.971722	323.2	20.2	-92.1	1.7
2025-01-23 19:10:18.130174	323.4	20.1	-91.9	1.9
2025-01-23 19:10:19.287469	323.5	20.0	-92.0	1.3
2025-01-23 19:10:20.452105	323.7	19.8	-92.3	1.9
2025-01-23 19:10:21.613993	323.8	19.7	-92.0	1.5
2025-01-23 19:10:22.772785	324.0	19.6	-92.2	1.2
2025-01-23 19:10:23.951057	324.1	19.4	-92.3	0.6
2025-01-23 19:10:25.114996	324.2	19.3	-92.0	2.4
2025-01-23 19:10:26.272345	324.4	19.2	-92.0	4.1
2025-01-23 19:10:27.430502	324.5	19.1	-92.4	1.5
2025-01-23 19:10:28.591025	324.6	18.9	-92.3	1.2
2025-01-23 19:10:29.757490	324.8	18.8	-92.2	2.7
2025-01-23 19:10:30.916123	324.9	18.7	-91.8	3.8
2025-01-23 19:10:32.073974	325.0	18.6	-92.3	3.5
2025-01-23 19:10:33.231505	325.2	18.4	-92.1	5.5
2025-01-23 19:10:34.372762	325.3	18.3	-92.0	3.6
2025-01-23 19:10:35.529786	325.4	18.2	-92.0	2.3
2025-01-23 19:10:36.697236	325.5	18.1	-92.1	1.4
2025-01-23 19:10:37.856311	325.7	18.0	-92.0	3.5
2025-01-23 19:10:39.011147	325.8	17.8	-92.2	0.9
2025-01-23 19:10:40.164784	325.9	17.7	-91.7	2.7
2025-01-23 19:10:41.326943	326.0	17.6	-91.5	2.0
2025-01-23 19:10:42.482417	326.2	17.5	-92.1	1.1
2025-01-23 19:10:43.642323	326.3	17.4	-92.2	3.0
2025-01-23 19:10:44.803489	326.4	17.2	-91.8	2.7
2025-01-23 19:10:46.077643	326.5	17.1	-91.7	4.1
2025-01-23 19:10:47.241723	326.7	17.0	-91.8	1.2
2025-01-23 19:10:48.407057	326.8	16.9	-91.6	3.6
2025-01-23 19:10:49.569246	326.9	16.8	-92.3	5.2
2025-01-23 19:10:50.728078	327.0	16.6	-91.9	5.1
2025-01-23 19:10:51.887022	327.1	16.5	-91.7	3.5
2025-01-23 19:10:53.045274	327.2	16.4	-91.6	4.6
2025-01-23 19:10:54.214247	327.4	16.3	-92.0	2.3
2025-01-23 19:10:55.375346	327.5	16.2	-92.0	6.8
2025-01-23 19:10:56.535796	327.6	16.1	-92.3	4.0
2025-01-23 19:10:57.701329	327.7	15.9	-92.1	2.8
2025-01-23 19:10:58.860379	327.8	15.8	-92.2	4.0
2025-01-23 19:11:00.023873	327.9	15.7	-92.0	5.3
2025-01-23 19:11:01.182143	328.0	15.6	-91.7	3.0
2025-01-23 19:11:02.340300	328.1	15.5	-92.0	3.3
2025-01-23 19:11:03.501940	328.2	15.4	-92.0	5.6
2025-01-23 19:11:04.659091	328.3	15.3	-92.0	6.2
2025-01-23 19:11:05.817849	328.4	15.2	-92.0	4.4
2025-01-23 19:11:06.983011	328.6	15.1	-91.9	2.2
2025-01-23 19:11:08.141253	328.7	14.9	-91.9	3.3
2025-01-23 19:11:09.291950	328.8	14.8	-92.1	2.0
2025-01-23 19:11:10.452620	328.9	14.7	-92.2	3.2
2025-01-23 19:11:11.609478	329.0	14.6	-91.9	3.5
2025-01-23 19:11:12.773206	329.1	14.5	-91.6	2.4
#Closed at: 2025-01-23 19:02:41.434681