passes_logs/2025/01/23/LEX_Murmansk/LEX_Murmansk__20250123_174454_NOAA_18_rec.log

#Pass ID: 20250123_174454_NOAA 18
#Satellite: NOAA 18
#Configuration: NOAA 18
#Start time: 2025-01-23 17:44:49.749519

#LorettStation: 1.0.0 05.05.2024
#Station: LEX_Murmansk
#Location: 33.156738 lon 68.926811 lat
#TLE: 1 28654U 05018A   25023.16165176  .00000420  00000+0  24625-3 0  9991
#TLE: 2 28654  98.8554 104.1346 0014722 156.5601 203.6245 14.13494494 14331

#Time	Az	El	Level	SNR
2025-01-23 17:45:01.876287	118.0	16.2	-90.9	8.0
2025-01-23 17:45:04.203119	117.9	16.5	-89.7	8.6
2025-01-23 17:45:06.531998	117.7	16.7	-90.4	6.2
2025-01-23 17:45:08.864348	117.6	17.0	-89.7	9.1
2025-01-23 17:45:11.188616	117.4	17.2	-89.7	9.6
2025-01-23 17:45:13.516521	117.2	17.5	-90.2	11.5
2025-01-23 17:45:15.851826	117.0	17.8	-89.8	12.2
2025-01-23 17:45:18.190602	116.9	18.0	-89.6	10.5
2025-01-23 17:45:20.512598	116.7	18.3	-90.5	6.7
2025-01-23 17:45:22.833201	116.5	18.5	-90.2	11.9
2025-01-23 17:45:25.162117	116.3	18.8	-89.7	10.2
2025-01-23 17:45:27.496723	116.1	19.1	-90.4	13.1
2025-01-23 17:45:29.822017	115.9	19.4	-90.5	11.6
2025-01-23 17:45:32.155487	115.7	19.6	-89.7	12.0
2025-01-23 17:45:34.481757	115.5	19.9	-89.7	13.9
2025-01-23 17:45:36.811873	115.3	20.2	-90.5	15.3
2025-01-23 17:45:39.144289	115.1	20.5	-90.2	10.0
2025-01-23 17:45:41.473952	114.9	20.8	-89.7	8.1
2025-01-23 17:45:43.806117	114.7	21.0	-90.6	12.8
2025-01-23 17:45:46.134707	114.5	21.3	-90.2	9.6
2025-01-23 17:45:48.470830	114.3	21.6	-90.0	10.4
2025-01-23 17:45:50.790023	114.0	21.9	-90.6	7.3
2025-01-23 17:45:53.119533	113.8	22.2	-90.7	6.3
2025-01-23 17:45:55.448077	113.6	22.5	-89.5	5.9
2025-01-23 17:45:57.779663	113.3	22.8	-90.5	9.2
2025-01-23 17:46:00.104877	113.1	23.1	-90.9	8.2
2025-01-23 17:46:02.430586	112.8	23.5	-90.0	6.8
2025-01-23 17:46:04.767973	112.6	23.8	-90.1	3.6
2025-01-23 17:46:07.098161	112.3	24.1	-90.4	4.7
2025-01-23 17:46:09.426868	112.0	24.4	-90.6	7.4
2025-01-23 17:46:11.752151	111.8	24.7	-90.8	4.6
2025-01-23 17:46:14.073077	111.5	25.1	-89.0	4.9
2025-01-23 17:46:16.397785	111.2	25.4	-90.2	3.6
2025-01-23 17:46:18.727923	110.9	25.7	-90.1	4.8
2025-01-23 17:46:21.046677	110.6	26.1	-90.7	5.9
2025-01-23 17:46:23.289477	110.3	26.4	-90.0	5.5
2025-01-23 17:46:25.530670	110.0	26.7	-91.2	5.0
2025-01-23 17:46:27.772299	109.7	27.1	-90.7	8.2
2025-01-23 17:46:30.014289	109.4	27.4	-90.8	4.1
2025-01-23 17:46:32.320561	109.1	27.8	-90.2	11.3
2025-01-23 17:46:34.652116	108.7	28.1	-90.7	10.4
2025-01-23 17:46:36.967785	108.4	28.5	-91.0	6.8
2025-01-23 17:46:39.289123	108.0	28.8	-90.2	11.4
2025-01-23 17:46:41.616060	107.7	29.2	-91.0	10.0
2025-01-23 17:46:43.949710	107.3	29.6	-90.7	12.0
2025-01-23 17:46:46.272696	106.9	30.0	-90.6	13.3
2025-01-23 17:46:48.607982	106.5	30.3	-90.6	5.7
2025-01-23 17:46:50.929341	106.1	30.7	-90.9	10.0
2025-01-23 17:46:53.255412	105.7	31.1	-90.4	11.2
2025-01-23 17:46:55.586729	105.3	31.5	-90.0	10.3
2025-01-23 17:46:57.912732	104.8	31.9	-90.1	6.4
2025-01-23 17:47:00.234097	104.4	32.3	-90.4	12.2
2025-01-23 17:47:02.552874	103.9	32.7	-91.0	10.1
2025-01-23 17:47:04.881443	103.5	33.1	-90.9	15.6
2025-01-23 17:47:07.214512	103.0	33.5	-89.8	12.3
2025-01-23 17:47:09.534988	102.5	33.9	-90.8	6.6
2025-01-23 17:47:11.854272	102.0	34.3	-90.2	13.9
2025-01-23 17:47:14.182750	101.5	34.7	-90.9	12.3
2025-01-23 17:47:16.516946	101.0	35.1	-90.4	13.4
2025-01-23 17:47:18.844815	100.4	35.6	-89.8	15.5
2025-01-23 17:47:21.171985	99.9	36.0	-90.4	17.7
2025-01-23 17:47:23.496299	99.3	36.4	-90.8	9.7
2025-01-23 17:47:25.822731	98.7	36.8	-90.8	12.8
2025-01-23 17:47:28.152234	98.1	37.3	-90.1	7.2
2025-01-23 17:47:30.421475	97.5	37.7	-89.9	6.3
2025-01-23 17:47:32.663068	96.9	38.1	-90.3	10.6
2025-01-23 17:47:34.903352	96.3	38.5	-90.1	12.0
2025-01-23 17:47:37.147962	95.7	38.9	-89.8	15.5
2025-01-23 17:47:39.391966	95.0	39.3	-90.7	11.3
2025-01-23 17:47:41.708595	94.3	39.8	-89.8	13.9
2025-01-23 17:47:44.028012	93.6	40.2	-90.7	14.3
2025-01-23 17:47:46.356369	92.8	40.6	-90.5	13.8
2025-01-23 17:47:48.684429	92.1	41.1	-91.0	11.4
2025-01-23 17:47:51.015174	91.3	41.5	-91.2	7.9
2025-01-23 17:47:53.343151	90.5	42.0	-90.5	6.0
2025-01-23 17:47:55.653598	89.7	42.4	-91.0	8.5
2025-01-23 17:47:57.983688	88.8	42.8	-90.8	14.8
2025-01-23 17:48:00.307461	87.9	43.2	-90.0	16.2
2025-01-23 17:48:02.625939	87.1	43.7	-90.6	16.0
2025-01-23 17:48:04.953954	86.1	44.1	-90.4	9.7
2025-01-23 17:48:07.286229	85.2	44.5	-90.9	13.2
2025-01-23 17:48:09.610121	84.2	44.9	-90.6	10.8
2025-01-23 17:48:11.941154	83.2	45.3	-90.5	10.3
2025-01-23 17:48:14.263081	82.2	45.7	-90.1	5.2
2025-01-23 17:48:16.600583	81.2	46.1	-90.4	8.5
2025-01-23 17:48:18.936456	80.1	46.5	-90.7	7.0
2025-01-23 17:48:21.266575	79.0	46.9	-90.4	13.5
2025-01-23 17:48:23.593971	77.9	47.3	-90.2	11.1
2025-01-23 17:48:25.878290	76.7	47.6	-91.0	8.9
2025-01-23 17:48:28.120091	75.6	48.0	-90.6	4.8
2025-01-23 17:48:30.362116	74.4	48.3	-90.1	10.0
2025-01-23 17:48:32.603124	73.2	48.6	-90.8	8.8
2025-01-23 17:48:34.849469	72.0	48.9	-90.4	6.3
2025-01-23 17:48:37.158190	70.8	49.2	-90.7	5.1
2025-01-23 17:48:39.464456	69.5	49.5	-90.7	3.8
2025-01-23 17:48:41.786473	68.1	49.8	-91.2	12.2
2025-01-23 17:48:44.102683	66.8	50.1	-90.3	8.8
2025-01-23 17:48:46.435770	65.4	50.3	-90.3	9.5
2025-01-23 17:48:48.761020	64.0	50.5	-90.3	6.0
2025-01-23 17:48:51.093292	62.6	50.7	-90.9	5.9
2025-01-23 17:48:53.417878	61.1	50.9	-90.1	4.7
2025-01-23 17:48:55.741559	59.7	51.1	-90.4	10.4
2025-01-23 17:48:58.059710	58.2	51.3	-90.8	5.2
2025-01-23 17:49:00.380666	56.7	51.4	-90.5	10.2
2025-01-23 17:49:02.704666	55.2	51.5	-90.7	12.6
2025-01-23 17:49:05.033270	53.7	51.6	-90.9	6.6
2025-01-23 17:49:07.356085	52.2	51.7	-90.9	11.9
2025-01-23 17:49:09.684182	50.7	51.8	-91.1	16.4
2025-01-23 17:49:12.015739	49.1	51.8	-90.9	4.9
2025-01-23 17:49:14.342103	47.6	51.8	-90.6	13.5
2025-01-23 17:49:16.679767	46.1	51.8	-90.4	11.8
2025-01-23 17:49:19.002645	44.5	51.8	-90.6	11.6
2025-01-23 17:49:21.340944	43.0	51.7	-90.4	14.0
2025-01-23 17:49:23.671288	41.5	51.6	-89.8	11.9
2025-01-23 17:49:25.992624	39.9	51.5	-90.8	11.6
2025-01-23 17:49:28.312839	38.4	51.4	-90.4	16.8
2025-01-23 17:49:30.644437	37.0	51.3	-91.1	15.0
2025-01-23 17:49:32.989939	35.5	51.1	-87.9	8.3
2025-01-23 17:49:35.317416	34.0	51.0	-90.2	16.8
2025-01-23 17:49:37.643291	32.6	50.8	-90.7	13.6
2025-01-23 17:49:39.974145	31.1	50.6	-90.9	8.6
2025-01-23 17:49:42.299490	29.7	50.3	-88.4	13.5
2025-01-23 17:49:44.625230	28.4	50.1	-90.8	11.7
2025-01-23 17:49:46.956147	27.0	49.8	-90.9	10.1
2025-01-23 17:49:49.287951	25.7	49.5	-90.8	17.9
2025-01-23 17:49:51.607638	24.3	49.3	-90.5	9.0
2025-01-23 17:49:53.933434	23.1	48.9	-91.0	6.0
2025-01-23 17:49:56.260843	21.8	48.6	-90.3	14.4
2025-01-23 17:49:58.583078	20.6	48.3	-90.1	10.5
2025-01-23 17:50:00.907337	19.4	48.0	-90.9	10.2
2025-01-23 17:50:03.226697	18.2	47.6	-90.1	16.4
2025-01-23 17:50:05.542077	17.0	47.2	-89.8	9.9
2025-01-23 17:50:07.868526	15.9	46.9	-90.4	14.9
2025-01-23 17:50:10.199986	14.8	46.5	-90.3	20.5
2025-01-23 17:50:12.521719	13.8	46.1	-90.0	14.2
2025-01-23 17:50:14.851693	12.7	45.7	-90.4	20.7
2025-01-23 17:50:17.188256	11.7	45.3	-89.6	16.0
2025-01-23 17:50:19.522808	10.7	44.9	-90.2	12.6
2025-01-23 17:50:21.857670	9.7	44.5	-90.4	19.9
2025-01-23 17:50:24.185951	8.8	44.1	-90.4	17.9
2025-01-23 17:50:26.517366	7.9	43.6	-90.9	17.3
2025-01-23 17:50:28.855428	7.0	43.2	-90.6	16.9
2025-01-23 17:50:31.184043	6.1	42.8	-90.6	19.8
2025-01-23 17:50:33.521678	5.2	42.3	-90.4	16.9
2025-01-23 17:50:35.824051	4.4	41.9	-90.7	13.5
2025-01-23 17:50:38.150886	3.6	41.5	-90.5	16.3
2025-01-23 17:50:40.480223	2.8	41.1	-90.3	17.3
2025-01-23 17:50:42.801106	2.1	40.6	-90.4	18.4
2025-01-23 17:50:45.132079	1.3	40.2	-90.2	14.4
2025-01-23 17:50:47.465265	0.6	39.7	-89.8	11.3
2025-01-23 17:50:49.790311	359.9	39.3	-90.4	16.0
2025-01-23 17:50:52.112435	359.2	38.9	-90.1	14.1
2025-01-23 17:50:54.433213	358.6	38.4	-90.4	11.3
2025-01-23 17:50:56.774354	357.9	38.0	-90.9	11.1
2025-01-23 17:50:59.103300	357.3	37.6	-90.5	13.0
2025-01-23 17:51:01.420577	356.7	37.1	-90.0	16.9
2025-01-23 17:51:03.747231	356.1	36.7	-90.9	13.5
2025-01-23 17:51:06.066928	355.5	36.3	-90.5	8.0
2025-01-23 17:51:08.396832	354.9	35.9	-90.7	12.4
2025-01-23 17:51:10.726284	354.4	35.4	-90.2	16.2
2025-01-23 17:51:13.051441	353.8	35.0	-89.7	5.9
2025-01-23 17:51:15.372557	353.3	34.6	-90.5	7.6
2025-01-23 17:51:17.701432	352.8	34.2	-90.9	7.7
2025-01-23 17:51:20.039139	352.3	33.8	-90.4	9.4
2025-01-23 17:51:22.371042	351.8	33.4	-90.3	6.5
2025-01-23 17:51:24.706016	351.4	33.0	-90.8	11.3
2025-01-23 17:51:27.027157	350.9	32.6	-91.1	9.3
2025-01-23 17:51:29.363612	350.4	32.2	-90.2	10.3
2025-01-23 17:51:31.674346	350.0	31.8	-90.1	5.1
2025-01-23 17:51:33.999576	349.6	31.4	-90.7	8.4
2025-01-23 17:51:36.330000	349.2	31.0	-90.6	9.8
2025-01-23 17:51:38.654666	348.8	30.6	-90.6	8.4
2025-01-23 17:51:40.971777	348.4	30.2	-90.2	11.2
2025-01-23 17:51:43.298938	348.0	29.8	-90.2	12.6
2025-01-23 17:51:45.626585	347.6	29.5	-90.7	16.9
2025-01-23 17:51:47.956400	347.2	29.1	-90.9	9.9
2025-01-23 17:51:50.280053	346.9	28.7	-90.8	11.1
2025-01-23 17:51:52.605722	346.5	28.4	-90.6	8.9
2025-01-23 17:51:54.934423	346.2	28.0	-89.2	5.5
2025-01-23 17:51:57.261827	345.8	27.6	-89.7	10.5
2025-01-23 17:51:59.592880	345.5	27.3	-90.0	11.8
2025-01-23 17:52:01.912793	345.2	26.9	-88.2	11.8
2025-01-23 17:52:04.214816	344.9	26.6	-90.0	17.5
2025-01-23 17:52:06.487793	344.5	26.3	-86.7	9.1
2025-01-23 17:52:08.730109	344.3	25.9	-89.2	9.9
2025-01-23 17:52:10.971509	344.0	25.6	-90.3	8.2
2025-01-23 17:52:13.212785	343.7	25.3	-90.4	10.1
2025-01-23 17:52:15.489238	343.4	25.0	-90.9	13.1
2025-01-23 17:52:17.800200	343.1	24.6	-90.7	14.0
2025-01-23 17:52:20.127602	342.9	24.3	-90.2	13.3
2025-01-23 17:52:22.445198	342.6	24.0	-87.6	7.2
2025-01-23 17:52:24.770890	342.3	23.7	-89.8	11.6
2025-01-23 17:52:27.097993	342.1	23.4	-90.3	6.9
2025-01-23 17:52:29.424086	341.8	23.0	-88.0	3.8
2025-01-23 17:52:31.753683	341.6	22.7	-90.4	6.0
2025-01-23 17:52:34.079849	341.3	22.4	-89.4	9.1
2025-01-23 17:52:36.411838	341.1	22.1	-86.8	9.8
2025-01-23 17:52:38.744817	340.9	21.8	-89.1	10.9
2025-01-23 17:52:41.065921	340.6	21.5	-89.6	10.3
2025-01-23 17:52:43.390826	340.4	21.2	-88.1	8.9
2025-01-23 17:52:45.715542	340.2	20.9	-89.7	7.9
2025-01-23 17:52:48.039246	340.0	20.7	-90.4	6.5
2025-01-23 17:52:50.370217	339.8	20.4	-88.0	7.8
2025-01-23 17:52:52.694034	339.6	20.1	-90.1	5.8
2025-01-23 17:52:55.021957	339.4	19.8	-89.7	4.8
2025-01-23 17:52:57.339087	339.2	19.5	-89.4	4.7
2025-01-23 17:52:59.666101	339.0	19.3	-85.7	6.4
2025-01-23 17:53:01.988190	338.8	19.0	-89.4	4.7
2025-01-23 17:53:04.320846	338.6	18.7	-88.2	6.5
2025-01-23 17:53:06.650002	338.4	18.4	-87.5	6.8
2025-01-23 17:53:08.975201	338.2	18.2	-90.0	4.6
2025-01-23 17:53:11.304590	338.1	17.9	-80.5	5.7
2025-01-23 17:53:13.622347	337.9	17.7	-87.1	3.9
2025-01-23 17:53:15.942594	337.7	17.4	-88.0	5.2
2025-01-23 17:53:18.269380	337.6	17.2	-85.1	5.2
2025-01-23 17:53:20.596083	337.4	16.9	-86.3	3.4
2025-01-23 17:53:22.922811	337.2	16.7	-88.0	5.9
2025-01-23 17:53:25.250332	337.1	16.4	-89.5	6.0
2025-01-23 17:53:27.578934	336.9	16.2	-87.9	6.7
2025-01-23 17:53:29.889054	336.8	15.9	-89.6	5.0
2025-01-23 17:53:32.216600	336.6	15.7	-88.2	5.9
2025-01-23 17:53:34.539969	336.5	15.4	-89.9	6.6
2025-01-23 17:53:36.868484	336.3	15.2	-90.0	7.3
2025-01-23 17:53:39.193785	336.2	15.0	-90.1	5.0
2025-01-23 17:53:41.522690	336.0	14.7	-90.5	4.7
2025-01-23 17:53:43.850804	335.9	14.5	-90.5	6.2
#Closed at: 2025-01-23 17:44:54.662736