passes_logs/2025/01/23/LEX_Murmansk/LEX_Murmansk__20250123_210809_NOAA_18_rec.log

#Pass ID: 20250123_210809_NOAA 18
#Satellite: NOAA 18
#Configuration: NOAA 18
#Start time: 2025-01-23 21:08:04.704098

#LorettStation: 1.0.0 05.05.2024
#Station: LEX_Murmansk
#Location: 33.156738 lon 68.926811 lat
#TLE: 1 28654U 05018A   25023.16165176  .00000420  00000+0  24625-3 0  9991
#TLE: 2 28654  98.8554 104.1346 0014722 156.5601 203.6245 14.13494494 14331

#Time	Az	El	Level	SNR
2025-01-23 21:08:20.915360	229.9	16.2	-92.0	6.6
2025-01-23 21:08:22.068880	230.1	16.3	-91.1	10.0
2025-01-23 21:08:23.214000	230.3	16.4	-91.4	5.5
2025-01-23 21:08:24.364055	230.5	16.4	-91.5	5.6
2025-01-23 21:08:25.511204	230.7	16.5	-91.7	6.6
2025-01-23 21:08:26.660726	230.9	16.6	-91.5	8.8
2025-01-23 21:08:27.815067	231.0	16.7	-91.9	7.5
2025-01-23 21:08:28.965880	231.2	16.8	-91.5	4.5
2025-01-23 21:08:30.127392	231.4	16.9	-91.5	7.8
2025-01-23 21:08:31.274306	231.6	17.0	-91.8	8.2
2025-01-23 21:08:32.428438	231.8	17.0	-91.5	6.9
2025-01-23 21:08:33.581551	232.0	17.1	-91.9	9.0
2025-01-23 21:08:34.739635	232.2	17.2	-91.5	10.3
2025-01-23 21:08:35.893641	232.4	17.3	-91.5	9.1
2025-01-23 21:08:37.053053	232.6	17.4	-91.9	6.7
2025-01-23 21:08:38.207393	232.8	17.5	-91.4	10.2
2025-01-23 21:08:39.363946	233.0	17.6	-91.5	8.4
2025-01-23 21:08:40.516425	233.2	17.6	-91.5	7.5
2025-01-23 21:08:41.664381	233.4	17.7	-91.9	10.0
2025-01-23 21:08:42.812251	233.6	17.8	-91.5	10.5
2025-01-23 21:08:43.968093	233.8	17.9	-91.6	10.0
2025-01-23 21:08:45.117559	234.0	18.0	-90.9	11.8
2025-01-23 21:08:46.267676	234.3	18.1	-91.5	5.1
2025-01-23 21:08:47.418883	234.5	18.1	-91.3	4.4
2025-01-23 21:08:48.570566	234.7	18.2	-91.7	8.6
2025-01-23 21:08:49.717666	234.9	18.3	-91.9	15.1
2025-01-23 21:08:50.869159	235.1	18.4	-92.2	9.7
2025-01-23 21:08:52.022160	235.3	18.5	-92.0	5.3
2025-01-23 21:08:53.176760	235.5	18.6	-91.9	10.3
2025-01-23 21:08:54.324146	235.7	18.6	-92.0	10.3
2025-01-23 21:08:55.469125	236.0	18.7	-91.9	9.2
2025-01-23 21:08:56.622312	236.2	18.8	-91.9	11.7
2025-01-23 21:08:57.775422	236.4	18.9	-92.0	9.8
2025-01-23 21:08:58.933633	236.6	19.0	-91.6	10.3
2025-01-23 21:09:00.083723	236.8	19.1	-91.7	9.8
2025-01-23 21:09:01.221173	237.1	19.1	-92.2	12.2
2025-01-23 21:09:02.366041	237.3	19.2	-91.8	10.5
2025-01-23 21:09:03.500330	237.5	19.3	-92.5	9.9
2025-01-23 21:09:04.646961	237.7	19.4	-92.1	16.2
2025-01-23 21:09:05.801776	238.0	19.5	-92.1	12.4
2025-01-23 21:09:06.954461	238.2	19.6	-92.0	12.7
2025-01-23 21:09:08.105593	238.4	19.6	-92.1	10.8
2025-01-23 21:09:09.260044	238.6	19.7	-92.0	8.2
2025-01-23 21:09:10.403085	238.9	19.8	-91.6	9.8
2025-01-23 21:09:11.551452	239.1	19.9	-92.0	9.9
2025-01-23 21:09:12.705675	239.3	20.0	-92.0	13.9
2025-01-23 21:09:13.855476	239.6	20.0	-92.6	9.0
2025-01-23 21:09:15.011540	239.8	20.1	-91.9	5.7
2025-01-23 21:09:16.164948	240.1	20.2	-91.8	5.2
2025-01-23 21:09:17.326797	240.3	20.3	-92.2	10.1
2025-01-23 21:09:18.480031	240.5	20.4	-91.7	8.2
2025-01-23 21:09:19.636725	240.8	20.4	-91.9	6.6
2025-01-23 21:09:20.786779	241.0	20.5	-91.9	10.9
2025-01-23 21:09:21.939293	241.3	20.6	-92.0	6.5
2025-01-23 21:09:23.095520	241.5	20.7	-92.0	6.3
2025-01-23 21:09:24.258320	241.8	20.8	-91.8	7.2
2025-01-23 21:09:25.413607	242.0	20.8	-92.1	7.7
2025-01-23 21:09:26.569631	242.3	20.9	-91.9	8.3
2025-01-23 21:09:27.721850	242.5	21.0	-92.0	4.8
2025-01-23 21:09:28.881410	242.8	21.1	-92.2	7.8
2025-01-23 21:09:30.045138	243.0	21.2	-92.1	7.8
2025-01-23 21:09:31.196961	243.3	21.2	-91.7	5.1
2025-01-23 21:09:32.342789	243.5	21.3	-91.9	5.3
2025-01-23 21:09:33.502039	243.8	21.4	-92.1	3.0
2025-01-23 21:09:34.649713	244.1	21.5	-92.5	6.7
2025-01-23 21:09:35.809214	244.3	21.5	-92.4	7.3
2025-01-23 21:09:36.966693	244.6	21.6	-92.1	5.0
2025-01-23 21:09:38.121963	244.8	21.7	-92.2	7.3
2025-01-23 21:09:39.266668	245.1	21.8	-92.1	9.0
2025-01-23 21:09:40.417577	245.4	21.8	-92.0	5.9
2025-01-23 21:09:41.566710	245.6	21.9	-92.5	4.1
2025-01-23 21:09:42.722975	245.9	22.0	-92.5	5.2
2025-01-23 21:09:43.875569	246.2	22.0	-92.2	5.2
2025-01-23 21:09:45.023754	246.4	22.1	-92.2	4.6
2025-01-23 21:09:46.170356	246.7	22.2	-91.8	3.9
2025-01-23 21:09:47.319439	247.0	22.3	-92.0	3.5
2025-01-23 21:09:48.470260	247.2	22.3	-92.2	4.7
2025-01-23 21:09:49.628497	247.5	22.4	-92.2	3.4
2025-01-23 21:09:50.775468	247.8	22.5	-92.3	3.8
2025-01-23 21:09:51.928605	248.1	22.5	-92.3	6.2
2025-01-23 21:09:53.077227	248.4	22.6	-92.4	4.9
2025-01-23 21:09:54.237601	248.6	22.7	-92.0	5.8
2025-01-23 21:09:55.387471	248.9	22.7	-92.5	4.9
2025-01-23 21:09:56.541304	249.2	22.8	-92.2	4.9
2025-01-23 21:09:57.694835	249.5	22.9	-92.3	5.5
2025-01-23 21:09:58.848163	249.8	22.9	-92.2	5.4
2025-01-23 21:10:00.001538	250.0	23.0	-92.3	5.0
2025-01-23 21:10:01.154579	250.3	23.1	-92.1	7.6
2025-01-23 21:10:02.301469	250.6	23.1	-92.0	8.4
2025-01-23 21:10:03.460451	250.9	23.2	-92.3	11.1
2025-01-23 21:10:04.618589	251.2	23.3	-92.0	11.7
2025-01-23 21:10:05.772391	251.5	23.3	-90.8	7.6
2025-01-23 21:10:06.928236	251.8	23.4	-92.3	6.7
2025-01-23 21:10:08.082119	252.1	23.5	-92.3	4.8
2025-01-23 21:10:09.232338	252.4	23.5	-92.0	6.4
2025-01-23 21:10:10.378718	252.7	23.6	-92.0	6.5
2025-01-23 21:10:11.551563	253.0	23.6	-92.4	5.3
2025-01-23 21:10:12.707369	253.3	23.7	-92.3	10.4
2025-01-23 21:10:13.860013	253.6	23.8	-92.1	9.3
2025-01-23 21:10:15.015229	253.9	23.8	-91.8	8.6
2025-01-23 21:10:16.163941	254.2	23.9	-91.9	11.5
2025-01-23 21:10:17.321037	254.5	23.9	-92.2	12.3
2025-01-23 21:10:18.464930	254.8	24.0	-92.1	5.8
2025-01-23 21:10:19.614272	255.1	24.0	-92.1	13.7
2025-01-23 21:10:20.764214	255.4	24.1	-92.0	13.1
2025-01-23 21:10:21.911147	255.7	24.1	-92.5	12.0
2025-01-23 21:10:23.062829	256.0	24.2	-92.4	10.4
2025-01-23 21:10:24.222072	256.3	24.2	-92.0	8.2
2025-01-23 21:10:25.380353	256.6	24.3	-92.0	5.3
2025-01-23 21:10:26.527920	256.9	24.4	-91.7	9.5
2025-01-23 21:10:27.682032	257.2	24.4	-91.9	10.0
2025-01-23 21:10:28.840792	257.5	24.4	-92.2	10.5
2025-01-23 21:10:29.998356	257.8	24.5	-92.1	5.8
2025-01-23 21:10:31.147775	258.2	24.5	-92.2	15.9
2025-01-23 21:10:32.304110	258.5	24.6	-92.2	12.7
2025-01-23 21:10:33.456475	258.8	24.6	-92.2	13.3
2025-01-23 21:10:34.606494	259.1	24.7	-92.2	12.5
2025-01-23 21:10:35.757969	259.4	24.7	-92.0	10.7
2025-01-23 21:10:36.915332	259.7	24.8	-92.4	10.1
2025-01-23 21:10:38.065627	260.1	24.8	-92.6	11.8
2025-01-23 21:10:39.219178	260.4	24.9	-92.2	14.8
2025-01-23 21:10:40.371709	260.7	24.9	-91.7	7.9
2025-01-23 21:10:41.516571	261.0	24.9	-92.4	6.5
2025-01-23 21:10:42.669033	261.3	25.0	-92.6	11.0
2025-01-23 21:10:43.809347	261.7	25.0	-91.1	9.5
2025-01-23 21:10:44.967084	262.0	25.0	-92.3	6.3
2025-01-23 21:10:46.122228	262.3	25.1	-91.8	10.8
2025-01-23 21:10:47.272836	262.6	25.1	-91.9	13.1
2025-01-23 21:10:48.427351	263.0	25.2	-91.8	6.9
2025-01-23 21:10:49.574498	263.3	25.2	-92.7	5.6
2025-01-23 21:10:50.732659	263.6	25.2	-92.5	12.2
2025-01-23 21:10:51.880845	263.9	25.3	-92.4	5.3
2025-01-23 21:10:53.035823	264.3	25.3	-92.0	16.3
2025-01-23 21:10:54.180823	264.6	25.3	-92.2	13.8
2025-01-23 21:10:55.335978	264.9	25.3	-91.9	10.7
2025-01-23 21:10:56.493656	265.3	25.4	-92.6	5.8
2025-01-23 21:10:57.647742	265.6	25.4	-91.9	12.6
2025-01-23 21:10:58.799212	265.9	25.4	-92.2	10.3
2025-01-23 21:10:59.953726	266.2	25.4	-92.4	16.5
2025-01-23 21:11:01.106741	266.6	25.5	-91.9	13.6
2025-01-23 21:11:02.261286	266.9	25.5	-92.0	13.4
2025-01-23 21:11:03.418018	267.2	25.5	-92.0	12.6
2025-01-23 21:11:04.567926	267.6	25.5	-91.0	14.5
2025-01-23 21:11:05.719203	267.9	25.6	-92.0	21.0
2025-01-23 21:11:06.867829	268.2	25.6	-92.3	13.5
2025-01-23 21:11:08.025740	268.6	25.6	-91.9	19.5
2025-01-23 21:11:09.169387	268.9	25.6	-92.1	22.9
2025-01-23 21:11:10.325317	269.2	25.6	-92.1	10.1
2025-01-23 21:11:11.479021	269.6	25.6	-92.3	11.9
2025-01-23 21:11:12.625626	269.9	25.7	-91.9	12.6
2025-01-23 21:11:13.773090	270.3	25.7	-91.9	10.9
2025-01-23 21:11:14.925575	270.6	25.7	-92.5	12.0
2025-01-23 21:11:16.083671	270.9	25.7	-92.1	7.9
2025-01-23 21:11:17.230581	271.3	25.7	-91.9	16.8
2025-01-23 21:11:18.377616	271.6	25.7	-91.7	13.8
2025-01-23 21:11:19.530784	271.9	25.7	-92.4	16.0
2025-01-23 21:11:20.677017	272.3	25.7	-91.9	18.3
2025-01-23 21:11:21.828764	272.6	25.7	-92.1	19.5
2025-01-23 21:11:22.982891	272.9	25.7	-92.0	16.3
2025-01-23 21:11:24.138608	273.3	25.7	-92.0	11.0
2025-01-23 21:11:25.286216	273.6	25.7	-92.1	10.7
2025-01-23 21:11:26.437741	274.0	25.7	-92.5	19.2
2025-01-23 21:11:27.593080	274.3	25.7	-91.7	14.9
2025-01-23 21:11:28.743192	274.6	25.7	-92.4	9.7
2025-01-23 21:11:29.888874	275.0	25.7	-92.0	13.7
2025-01-23 21:11:31.036941	275.3	25.7	-92.4	16.3
2025-01-23 21:11:32.188245	275.6	25.7	-92.2	11.2
2025-01-23 21:11:33.333763	276.0	25.7	-92.1	16.3
2025-01-23 21:11:34.487030	276.3	25.7	-92.5	10.9
2025-01-23 21:11:35.639852	276.7	25.7	-92.5	10.1
2025-01-23 21:11:36.791250	277.0	25.7	-92.7	9.7
2025-01-23 21:11:37.945840	277.3	25.7	-92.3	11.6
2025-01-23 21:11:39.103269	277.7	25.7	-91.1	8.8
2025-01-23 21:11:40.244555	278.0	25.7	-92.2	9.6
2025-01-23 21:11:41.391312	278.3	25.7	-91.7	12.4
2025-01-23 21:11:42.552777	278.7	25.7	-92.4	8.1
2025-01-23 21:11:43.704027	279.0	25.6	-92.5	9.7
2025-01-23 21:11:44.853807	279.3	25.6	-92.1	9.8
2025-01-23 21:11:46.003821	279.7	25.6	-92.5	10.3
2025-01-23 21:11:47.160752	280.0	25.6	-92.2	11.1
2025-01-23 21:11:48.315503	280.4	25.6	-92.2	10.4
2025-01-23 21:11:49.469463	280.7	25.6	-92.6	10.7
2025-01-23 21:11:50.620861	281.0	25.5	-92.2	11.7
2025-01-23 21:11:51.765686	281.4	25.5	-92.5	9.7
2025-01-23 21:11:52.915546	281.7	25.5	-92.8	3.5
2025-01-23 21:11:54.069385	282.0	25.5	-92.6	6.0
2025-01-23 21:11:55.219192	282.4	25.4	-92.0	8.3
2025-01-23 21:11:56.365782	282.7	25.4	-91.6	10.1
2025-01-23 21:11:57.524287	283.0	25.4	-92.0	5.9
2025-01-23 21:11:58.675008	283.3	25.4	-92.3	9.0
2025-01-23 21:11:59.820470	283.7	25.3	-92.8	8.9
2025-01-23 21:12:00.965337	284.0	25.3	-92.3	4.5
2025-01-23 21:12:02.113158	284.3	25.3	-92.2	6.0
2025-01-23 21:12:03.270907	284.7	25.3	-92.1	5.2
2025-01-23 21:12:04.418149	285.0	25.2	-92.3	4.8
2025-01-23 21:12:05.574659	285.3	25.2	-92.6	4.7
2025-01-23 21:12:06.727415	285.6	25.2	-92.1	8.8
2025-01-23 21:12:07.879570	286.0	25.1	-92.5	7.0
2025-01-23 21:12:09.041512	286.3	25.1	-92.4	7.7
2025-01-23 21:12:10.188177	286.6	25.0	-92.7	7.2
2025-01-23 21:12:11.341407	286.9	25.0	-92.4	6.8
2025-01-23 21:12:12.493297	287.3	25.0	-92.0	3.7
2025-01-23 21:12:13.649309	287.6	24.9	-92.6	4.3
2025-01-23 21:12:14.801380	287.9	24.9	-91.8	6.9
2025-01-23 21:12:15.956727	288.2	24.9	-92.0	4.2
2025-01-23 21:12:17.104493	288.5	24.8	-92.2	5.1
2025-01-23 21:12:18.256973	288.9	24.8	-92.4	9.2
2025-01-23 21:12:19.407081	289.2	24.7	-92.2	6.6
2025-01-23 21:12:20.563087	289.5	24.7	-92.7	4.6
2025-01-23 21:12:21.707501	289.8	24.6	-92.7	7.9
2025-01-23 21:12:22.856431	290.1	24.6	-92.3	9.9
2025-01-23 21:12:24.006664	290.4	24.5	-92.6	9.1
2025-01-23 21:12:25.152602	290.7	24.5	-92.0	5.6
2025-01-23 21:12:26.307536	291.1	24.4	-92.4	7.5
2025-01-23 21:12:27.463806	291.4	24.4	-92.3	7.3
2025-01-23 21:12:28.619135	291.7	24.4	-92.5	12.4
2025-01-23 21:12:29.769576	292.0	24.3	-92.4	15.1
2025-01-23 21:12:30.918007	292.3	24.2	-92.4	11.3
2025-01-23 21:12:32.075673	292.6	24.2	-92.4	5.9
2025-01-23 21:12:33.228807	292.9	24.1	-91.5	11.9
2025-01-23 21:12:34.384063	293.2	24.1	-92.1	7.7
2025-01-23 21:12:35.532441	293.5	24.0	-92.5	4.4
2025-01-23 21:12:36.689296	293.8	24.0	-92.7	5.2
2025-01-23 21:12:37.839730	294.1	23.9	-92.6	4.3
2025-01-23 21:12:39.000037	294.4	23.9	-92.1	5.4
2025-01-23 21:12:40.147284	294.7	23.8	-92.0	4.6
2025-01-23 21:12:41.291934	295.0	23.8	-92.2	6.0
2025-01-23 21:12:42.447348	295.3	23.7	-92.3	7.5
2025-01-23 21:12:43.607255	295.6	23.6	-92.6	6.9
2025-01-23 21:12:44.759085	295.9	23.6	-92.2	7.9
2025-01-23 21:12:45.913099	296.2	23.5	-92.5	7.6
2025-01-23 21:12:47.068156	296.5	23.5	-92.3	8.0
2025-01-23 21:12:48.226322	296.8	23.4	-92.1	7.3
2025-01-23 21:12:49.378151	297.1	23.3	-92.2	9.5
2025-01-23 21:12:50.534147	297.4	23.3	-92.5	8.0
2025-01-23 21:12:51.687077	297.7	23.2	-92.7	14.2
2025-01-23 21:12:52.842287	298.0	23.1	-92.4	6.8
2025-01-23 21:12:53.996506	298.3	23.1	-92.5	9.3
2025-01-23 21:12:55.151921	298.5	23.0	-92.2	8.9
2025-01-23 21:12:56.303258	298.8	22.9	-91.9	10.2
2025-01-23 21:12:57.446171	299.1	22.9	-92.4	5.4
2025-01-23 21:12:58.604099	299.4	22.8	-93.0	8.7
2025-01-23 21:12:59.749366	299.7	22.7	-92.1	12.8
2025-01-23 21:13:00.896263	300.0	22.7	-92.3	11.5
2025-01-23 21:13:02.049738	300.2	22.6	-92.4	7.2
2025-01-23 21:13:03.198572	300.5	22.5	-92.4	7.5
2025-01-23 21:13:04.358731	300.8	22.5	-92.3	6.4
2025-01-23 21:13:05.502556	301.1	22.4	-92.2	4.4
2025-01-23 21:13:06.657855	301.3	22.3	-92.2	5.3
2025-01-23 21:13:07.806393	301.6	22.3	-92.4	6.3
2025-01-23 21:13:08.956712	301.9	22.2	-92.1	8.1
2025-01-23 21:13:10.114014	302.2	22.1	-92.5	6.2
2025-01-23 21:13:11.245832	302.4	22.0	-91.9	7.0
2025-01-23 21:13:12.365778	302.7	22.0	-92.7	5.2
2025-01-23 21:13:13.488134	302.9	21.9	-92.3	7.2
2025-01-23 21:13:14.609050	303.2	21.8	-92.4	8.3
2025-01-23 21:13:15.729766	303.5	21.8	-92.3	8.6
2025-01-23 21:13:16.850330	303.7	21.7	-92.5	11.1
2025-01-23 21:13:17.970921	304.0	21.6	-92.4	13.7
2025-01-23 21:13:19.092080	304.2	21.5	-92.2	15.1
2025-01-23 21:13:20.213741	304.5	21.5	-92.3	11.6
2025-01-23 21:13:21.336705	304.7	21.4	-92.2	4.5
2025-01-23 21:13:22.487076	305.0	21.3	-92.4	12.3
2025-01-23 21:13:23.638518	305.2	21.2	-92.8	8.6
2025-01-23 21:13:24.789870	305.5	21.2	-92.5	8.1
2025-01-23 21:13:25.936908	305.7	21.1	-91.9	9.1
2025-01-23 21:13:27.091447	306.0	21.0	-92.2	5.4
2025-01-23 21:13:28.245925	306.3	20.9	-92.2	4.4
2025-01-23 21:13:29.391772	306.5	20.9	-91.9	6.0
2025-01-23 21:13:30.546292	306.8	20.8	-92.4	6.2
2025-01-23 21:13:31.698349	307.0	20.7	-92.3	6.7
2025-01-23 21:13:32.845855	307.2	20.6	-92.3	8.0
2025-01-23 21:13:34.006638	307.5	20.5	-92.7	3.1
2025-01-23 21:13:35.160611	307.7	20.5	-92.1	7.3
2025-01-23 21:13:36.317610	308.0	20.4	-92.1	5.0
2025-01-23 21:13:37.473509	308.2	20.3	-92.5	5.9
2025-01-23 21:13:38.628974	308.5	20.2	-92.3	5.8
2025-01-23 21:13:39.776231	308.7	20.2	-91.9	4.4
2025-01-23 21:13:40.928748	308.9	20.1	-92.1	3.8
2025-01-23 21:13:42.088529	309.2	20.0	-91.8	6.1
2025-01-23 21:13:43.238099	309.4	19.9	-92.0	8.8
2025-01-23 21:13:44.391639	309.6	19.8	-92.3	6.7
2025-01-23 21:13:45.539838	309.9	19.7	-92.3	5.4
2025-01-23 21:13:46.688578	310.1	19.7	-92.4	5.5
2025-01-23 21:13:47.840878	310.3	19.6	-92.5	5.1
2025-01-23 21:13:48.993213	310.6	19.5	-92.6	5.4
2025-01-23 21:13:50.141644	310.8	19.4	-92.5	5.2
2025-01-23 21:13:51.291710	311.0	19.3	-91.5	6.6
2025-01-23 21:13:52.451834	311.3	19.3	-92.3	6.6
2025-01-23 21:13:53.607065	311.5	19.2	-92.6	4.2
2025-01-23 21:13:54.759021	311.7	19.1	-92.3	8.1
2025-01-23 21:13:55.909289	311.9	19.0	-92.4	5.0
2025-01-23 21:13:57.068085	312.1	18.9	-91.9	5.6
2025-01-23 21:13:58.214938	312.4	18.8	-92.3	6.1
2025-01-23 21:13:59.363273	312.6	18.8	-91.7	3.5
2025-01-23 21:14:00.515237	312.8	18.7	-92.3	7.1
2025-01-23 21:14:01.665539	313.0	18.6	-92.4	8.5
2025-01-23 21:14:02.815260	313.2	18.5	-92.0	6.8
2025-01-23 21:14:03.966301	313.4	18.4	-92.1	6.3
2025-01-23 21:14:05.112849	313.7	18.3	-92.1	4.6
2025-01-23 21:14:06.264001	313.9	18.3	-92.1	4.0
2025-01-23 21:14:07.417610	314.1	18.2	-92.5	6.4
2025-01-23 21:14:08.577028	314.3	18.1	-92.6	5.0
2025-01-23 21:14:09.730169	314.5	18.0	-92.4	5.7
2025-01-23 21:14:10.879332	314.7	17.9	-92.4	6.8
2025-01-23 21:14:12.034111	314.9	17.8	-92.2	8.1
2025-01-23 21:14:13.195004	315.1	17.7	-92.0	7.0
2025-01-23 21:14:14.349051	315.3	17.7	-92.3	5.9
2025-01-23 21:14:15.498848	315.5	17.6	-92.6	4.7
2025-01-23 21:14:16.645067	315.7	17.5	-92.8	7.4
2025-01-23 21:14:17.794623	315.9	17.4	-92.3	5.9
2025-01-23 21:14:18.940632	316.1	17.3	-92.2	5.1
2025-01-23 21:14:20.091819	316.3	17.2	-92.4	5.5
2025-01-23 21:14:21.249355	316.5	17.2	-92.3	6.0
2025-01-23 21:14:22.398934	316.7	17.1	-92.4	4.7
2025-01-23 21:14:23.552805	316.9	17.0	-92.6	6.4
2025-01-23 21:14:24.711271	317.1	16.9	-92.2	6.3
2025-01-23 21:14:25.866516	317.3	16.8	-92.4	5.2
2025-01-23 21:14:27.021709	317.5	16.7	-92.4	4.8
2025-01-23 21:14:28.172910	317.7	16.6	-92.3	5.5
2025-01-23 21:14:29.329035	317.9	16.6	-92.4	8.3
2025-01-23 21:14:30.477221	318.1	16.5	-92.7	11.2
2025-01-23 21:14:31.631725	318.3	16.4	-92.7	7.7
2025-01-23 21:14:32.788208	318.5	16.3	-92.3	9.2
2025-01-23 21:14:33.945625	318.6	16.2	-92.9	5.1
2025-01-23 21:14:35.103971	318.8	16.1	-92.4	2.3
2025-01-23 21:14:36.263980	319.0	16.0	-92.2	7.0
2025-01-23 21:14:37.412407	319.2	16.0	-92.2	8.0
2025-01-23 21:14:38.563519	319.4	15.9	-92.2	6.7
2025-01-23 21:14:39.721516	319.6	15.8	-92.7	9.9
2025-01-23 21:14:40.878874	319.7	15.7	-92.5	5.2
2025-01-23 21:14:42.029376	319.9	15.6	-92.3	6.6
2025-01-23 21:14:43.188242	320.1	15.5	-92.2	5.8
2025-01-23 21:14:44.350795	320.3	15.5	-92.1	7.4
2025-01-23 21:14:45.499701	320.5	15.4	-92.3	8.0
2025-01-23 21:14:46.654993	320.6	15.3	-92.5	5.2
2025-01-23 21:14:47.806487	320.8	15.2	-92.5	7.0
2025-01-23 21:14:48.957974	321.0	15.1	-92.7	4.9
2025-01-23 21:14:50.113832	321.2	15.0	-92.0	9.7
2025-01-23 21:14:51.265847	321.3	14.9	-92.3	5.9
2025-01-23 21:14:52.416845	321.5	14.9	-92.4	6.7
2025-01-23 21:14:53.568830	321.7	14.8	-92.3	11.7
2025-01-23 21:14:54.730758	321.8	14.7	-92.2	7.7
#Closed at: 2025-01-23 21:08:09.707596