passes_logs/2025/01/23/LEX_Murmansk/LEX_Murmansk__20250123_090200_NOAA_19_rec.log

#Pass ID: 20250123_090200_NOAA 19
#Satellite: NOAA 19
#Configuration: NOAA 19
#Start time: 2025-01-23 09:01:55.783616

#LorettStation: 1.0.0 05.05.2024
#Station: LEX_Murmansk
#Location: 33.156738 lon 68.926811 lat
#TLE: 1 33591U 09005A   25022.22545190  .00000382  00000+0  22773-3 0  9990
#TLE: 2 33591  99.0184  86.0433 0014227  38.0135 322.2038 14.13265658822568

#Time	Az	El	Level	SNR
2025-01-23 09:02:08.009530	25.7	16.3	-90.4	3.8
2025-01-23 09:02:10.323310	25.7	16.6	-89.9	2.3
2025-01-23 09:02:12.643811	25.7	16.8	-90.5	2.3
2025-01-23 09:02:14.953708	25.6	17.1	-90.2	4.9
2025-01-23 09:02:17.264427	25.6	17.4	-90.2	3.0
2025-01-23 09:02:19.570937	25.6	17.6	-90.4	3.7
2025-01-23 09:02:21.887965	25.6	17.9	-90.4	7.6
2025-01-23 09:02:24.198385	25.6	18.2	-90.3	5.0
2025-01-23 09:02:26.519905	25.6	18.5	-90.8	3.3
2025-01-23 09:02:28.832040	25.6	18.8	-90.1	2.6
2025-01-23 09:02:31.133951	25.6	19.0	-90.2	8.1
2025-01-23 09:02:33.447508	25.6	19.3	-89.8	7.9
2025-01-23 09:02:35.751364	25.6	19.6	-89.6	4.7
2025-01-23 09:02:38.057341	25.6	19.9	-89.6	4.7
2025-01-23 09:02:40.365847	25.6	20.2	-90.0	4.8
2025-01-23 09:02:42.678052	25.6	20.5	-89.7	2.3
2025-01-23 09:02:44.982470	25.6	20.8	-89.9	4.4
2025-01-23 09:02:47.292436	25.5	21.1	-89.3	5.1
2025-01-23 09:02:49.599938	25.5	21.4	-90.5	6.9
2025-01-23 09:02:51.917269	25.5	21.8	-90.7	6.3
2025-01-23 09:02:54.233002	25.5	22.1	-90.5	8.0
2025-01-23 09:02:56.549715	25.5	22.4	-90.5	6.3
2025-01-23 09:02:58.872214	25.5	22.7	-90.6	2.5
2025-01-23 09:03:01.168134	25.5	23.1	-90.1	2.7
2025-01-23 09:03:03.474783	25.5	23.4	-90.8	8.8
2025-01-23 09:03:05.790195	25.4	23.8	-90.6	8.4
2025-01-23 09:03:08.095727	25.4	24.1	-90.1	7.3
2025-01-23 09:03:10.399897	25.4	24.5	-90.2	11.5
2025-01-23 09:03:12.719410	25.4	24.8	-90.5	5.0
2025-01-23 09:03:15.034501	25.4	25.2	-90.5	4.7
2025-01-23 09:03:17.352922	25.4	25.5	-90.5	1.0
2025-01-23 09:03:19.668984	25.4	25.9	-90.5	8.4
2025-01-23 09:03:21.965636	25.3	26.3	-90.7	8.5
2025-01-23 09:03:24.275654	25.3	26.7	-90.2	4.3
2025-01-23 09:03:26.570105	25.3	27.1	-91.1	7.0
2025-01-23 09:03:28.881463	25.3	27.4	-90.6	5.4
2025-01-23 09:03:31.194896	25.3	27.8	-90.4	2.2
2025-01-23 09:03:33.501060	25.2	28.2	-90.1	5.4
2025-01-23 09:03:35.813950	25.2	28.7	-90.0	9.0
2025-01-23 09:03:38.128947	25.2	29.1	-89.7	7.1
2025-01-23 09:03:40.435100	25.2	29.5	-89.8	6.8
2025-01-23 09:03:42.749572	25.2	29.9	-90.3	6.8
2025-01-23 09:03:45.065081	25.1	30.4	-90.2	4.0
2025-01-23 09:03:47.385748	25.1	30.8	-90.3	2.6
2025-01-23 09:03:49.702052	25.1	31.3	-90.5	1.5
2025-01-23 09:03:52.013028	25.1	31.7	-90.7	6.0
2025-01-23 09:03:54.319083	25.0	32.2	-90.4	5.9
2025-01-23 09:03:56.624871	25.0	32.6	-90.8	3.0
2025-01-23 09:03:58.932609	25.0	33.1	-90.2	3.3
2025-01-23 09:04:01.233491	24.9	33.6	-90.7	5.3
2025-01-23 09:04:03.547721	24.9	34.1	-90.7	4.5
2025-01-23 09:04:05.865548	24.9	34.6	-90.5	2.6
2025-01-23 09:04:08.184254	24.8	35.1	-90.3	3.4
2025-01-23 09:04:10.509959	24.8	35.6	-90.8	6.6
2025-01-23 09:04:12.833541	24.8	36.2	-90.9	5.2
2025-01-23 09:04:15.147499	24.7	36.7	-90.5	4.4
2025-01-23 09:04:17.463811	24.7	37.2	-90.7	10.9
2025-01-23 09:04:19.756510	24.6	37.8	-90.7	12.4
2025-01-23 09:04:22.062134	24.6	38.3	-90.3	5.3
2025-01-23 09:04:24.368331	24.5	38.9	-90.5	5.6
2025-01-23 09:04:26.679312	24.5	39.5	-90.0	5.7
2025-01-23 09:04:28.985824	24.4	40.1	-90.5	16.3
2025-01-23 09:04:31.296264	24.4	40.7	-90.0	9.7
2025-01-23 09:04:33.613392	24.3	41.3	-89.3	10.3
2025-01-23 09:04:35.930866	24.3	41.9	-89.8	15.3
2025-01-23 09:04:38.243423	24.2	42.5	-88.6	12.0
2025-01-23 09:04:40.543920	24.1	43.2	-88.1	6.8
2025-01-23 09:04:42.868024	24.1	43.8	-89.7	6.6
2025-01-23 09:04:45.178180	24.0	44.5	-89.0	5.8
2025-01-23 09:04:47.493674	23.9	45.2	-87.8	11.0
2025-01-23 09:04:49.813654	23.8	45.9	-88.5	11.4
2025-01-23 09:04:52.124002	23.8	46.6	-87.5	8.8
2025-01-23 09:04:54.439306	23.7	47.3	-88.4	10.4
2025-01-23 09:04:56.746799	23.6	48.0	-90.8	10.8
2025-01-23 09:04:59.053895	23.5	48.7	-89.6	9.5
2025-01-23 09:05:01.364859	23.4	49.5	-90.5	5.7
2025-01-23 09:05:03.674235	23.3	50.2	-90.6	4.3
2025-01-23 09:05:05.991902	23.2	51.0	-89.2	5.0
2025-01-23 09:05:08.312611	23.1	51.8	-89.4	10.1
2025-01-23 09:05:10.632652	22.9	52.6	-89.2	11.3
2025-01-23 09:05:12.943498	22.8	53.4	-89.4	4.8
2025-01-23 09:05:15.247985	22.7	54.2	-89.4	3.5
2025-01-23 09:05:17.570525	22.5	55.1	-88.4	7.4
2025-01-23 09:05:19.871916	22.3	55.9	-86.5	6.8
2025-01-23 09:05:22.164164	22.2	56.7	-86.3	4.8
2025-01-23 09:05:24.478365	22.0	57.6	-86.5	3.8
2025-01-23 09:05:26.795395	21.8	58.5	-86.5	2.0
2025-01-23 09:05:29.104029	21.6	59.4	-85.6	5.0
2025-01-23 09:05:31.415980	21.4	60.3	-88.7	13.7
2025-01-23 09:05:33.719876	21.1	61.2	-88.9	14.5
2025-01-23 09:05:36.028441	20.9	62.2	-83.4	10.5
2025-01-23 09:05:38.334649	20.6	63.1	-83.2	5.1
2025-01-23 09:05:40.646775	20.3	64.1	-86.9	4.3
2025-01-23 09:05:42.952594	19.9	65.1	-87.8	12.0
2025-01-23 09:05:45.251286	19.6	66.0	-85.2	12.0
2025-01-23 09:05:47.570586	19.2	67.1	-88.4	12.7
2025-01-23 09:05:49.884928	18.7	68.1	-88.6	6.9
2025-01-23 09:05:52.196117	18.2	69.1	-89.8	2.6
2025-01-23 09:05:54.513007	17.7	70.1	-89.7	4.7
2025-01-23 09:05:56.822996	17.1	71.1	-90.1	6.0
2025-01-23 09:05:59.130619	16.4	72.2	-90.4	12.6
2025-01-23 09:06:01.431138	15.6	73.2	-88.6	14.7
2025-01-23 09:06:03.743890	14.7	74.3	-90.2	13.3
2025-01-23 09:06:06.049847	13.7	75.4	-90.7	8.7
2025-01-23 09:06:08.372637	12.5	76.4	-89.8	7.4
2025-01-23 09:06:10.682810	11.1	77.5	-90.2	8.7
2025-01-23 09:06:13.007161	9.4	78.6	-90.6	11.5
2025-01-23 09:06:15.317331	7.4	79.6	-90.0	8.8
2025-01-23 09:06:17.626102	4.8	80.7	-90.0	14.9
2025-01-23 09:06:19.943266	1.7	81.7	-89.9	15.6
2025-01-23 09:06:22.256909	357.6	82.7	-90.6	17.1
2025-01-23 09:06:24.575187	352.2	83.7	-90.5	20.7
2025-01-23 09:06:26.889349	345.0	84.6	-90.2	18.4
2025-01-23 09:06:29.204171	335.2	85.3	-90.5	14.5
2025-01-23 09:06:31.514203	322.0	85.9	-90.8	12.6
2025-01-23 09:06:33.821592	305.6	86.2	-90.4	8.3
2025-01-23 09:06:36.129817	287.9	86.2	-90.3	9.9
2025-01-23 09:06:38.448420	271.9	85.8	-90.3	9.9
2025-01-23 09:06:40.756043	259.4	85.2	-90.7	6.2
2025-01-23 09:06:43.072205	250.1	84.4	-90.5	8.9
2025-01-23 09:06:45.377782	243.3	83.5	-90.1	12.3
2025-01-23 09:06:47.704713	238.2	82.5	-90.6	6.4
2025-01-23 09:06:50.010703	234.3	81.5	-90.8	10.7
2025-01-23 09:06:52.311625	231.3	80.5	-90.4	6.8
2025-01-23 09:06:54.633411	228.8	79.4	-90.7	11.8
2025-01-23 09:06:56.947180	226.9	78.4	-90.8	10.2
2025-01-23 09:06:59.251119	225.2	77.3	-90.2	9.0
2025-01-23 09:07:01.554121	223.9	76.3	-90.9	11.8
2025-01-23 09:07:03.871321	222.7	75.2	-90.8	16.7
2025-01-23 09:07:06.182058	221.7	74.1	-90.5	17.5
2025-01-23 09:07:08.492520	220.8	73.1	-90.5	10.8
2025-01-23 09:07:10.800548	220.0	72.0	-90.5	15.7
2025-01-23 09:07:13.119729	219.4	71.0	-90.5	10.2
2025-01-23 09:07:15.425561	218.8	69.9	-90.6	11.3
2025-01-23 09:07:17.740143	218.2	68.9	-90.8	18.1
2025-01-23 09:07:20.048143	217.8	67.9	-90.7	7.2
2025-01-23 09:07:22.360606	217.3	66.9	-90.2	15.1
2025-01-23 09:07:24.679197	216.9	65.9	-90.8	16.5
2025-01-23 09:07:27.006115	216.6	64.9	-90.3	7.8
2025-01-23 09:07:29.318247	216.2	63.9	-90.3	15.4
2025-01-23 09:07:31.632668	215.9	63.0	-90.3	10.1
2025-01-23 09:07:33.944679	215.6	62.0	-90.4	11.5
2025-01-23 09:07:36.260551	215.4	61.1	-89.9	15.8
2025-01-23 09:07:38.569196	215.1	60.2	-90.2	12.8
2025-01-23 09:07:40.870697	214.9	59.2	-90.6	16.9
2025-01-23 09:07:43.180698	214.7	58.4	-90.2	15.8
2025-01-23 09:07:45.497476	214.5	57.5	-90.5	18.3
2025-01-23 09:07:47.808548	214.4	56.6	-90.5	16.9
2025-01-23 09:07:50.109160	214.2	55.7	-90.4	13.6
2025-01-23 09:07:52.402400	214.0	54.9	-90.4	13.5
2025-01-23 09:07:54.718019	213.9	54.1	-90.9	16.0
2025-01-23 09:07:57.031829	213.7	53.2	-90.9	7.5
2025-01-23 09:07:59.341163	213.6	52.4	-90.1	13.0
2025-01-23 09:08:01.656012	213.5	51.6	-90.5	14.0
2025-01-23 09:08:03.964516	213.4	50.9	-89.2	6.1
2025-01-23 09:08:06.270055	213.3	50.1	-90.4	9.5
2025-01-23 09:08:08.578219	213.2	49.3	-90.7	10.6
2025-01-23 09:08:10.888835	213.1	48.6	-90.3	10.3
2025-01-23 09:08:13.209889	213.0	47.9	-90.2	6.3
2025-01-23 09:08:15.519616	212.9	47.2	-90.5	8.7
2025-01-23 09:08:17.835540	212.8	46.4	-90.8	11.7
2025-01-23 09:08:20.144097	212.7	45.7	-90.4	9.8
2025-01-23 09:08:22.456689	212.6	45.1	-90.7	6.1
2025-01-23 09:08:24.770652	212.5	44.4	-90.6	8.3
2025-01-23 09:08:27.074722	212.5	43.7	-90.4	8.1
2025-01-23 09:08:29.379742	212.4	43.1	-90.4	9.1
2025-01-23 09:08:31.680859	212.3	42.4	-90.5	11.6
2025-01-23 09:08:33.995018	212.3	41.8	-90.6	11.7
2025-01-23 09:08:36.308997	212.2	41.2	-90.2	10.3
2025-01-23 09:08:38.615633	212.2	40.6	-90.7	4.7
2025-01-23 09:08:40.931723	212.1	40.0	-89.7	4.0
2025-01-23 09:08:43.242323	212.1	39.4	-89.6	7.3
2025-01-23 09:08:45.550902	212.0	38.8	-89.8	4.3
2025-01-23 09:08:47.871301	212.0	38.3	-90.8	4.5
2025-01-23 09:08:50.183198	211.9	37.7	-90.6	5.3
2025-01-23 09:08:52.487964	211.9	37.2	-91.1	6.5
2025-01-23 09:08:54.801184	211.8	36.6	-90.9	9.8
2025-01-23 09:08:57.119862	211.8	36.1	-90.7	5.8
2025-01-23 09:08:59.439976	211.7	35.5	-90.8	5.4
2025-01-23 09:09:01.738625	211.7	35.0	-90.4	9.9
2025-01-23 09:09:04.036397	211.7	34.5	-90.8	7.3
2025-01-23 09:09:06.353684	211.6	34.0	-90.5	8.6
2025-01-23 09:09:08.667570	211.6	33.5	-90.9	3.5
2025-01-23 09:09:10.967715	211.6	33.1	-90.7	4.3
2025-01-23 09:09:13.284437	211.5	32.6	-90.6	3.2
2025-01-23 09:09:15.592714	211.5	32.1	-90.8	3.6
2025-01-23 09:09:17.894234	211.5	31.7	-90.8	0.8
2025-01-23 09:09:20.194946	211.5	31.2	-90.8	1.9
2025-01-23 09:09:22.503838	211.4	30.8	-91.0	3.0
2025-01-23 09:09:24.808783	211.4	30.3	-90.7	6.1
2025-01-23 09:09:27.110892	211.4	29.9	-90.5	7.4
2025-01-23 09:09:29.422169	211.4	29.5	-90.7	5.5
2025-01-23 09:09:31.734684	211.3	29.0	-90.9	8.0
2025-01-23 09:09:34.050174	211.3	28.6	-90.6	6.5
2025-01-23 09:09:36.358389	211.3	28.2	-90.4	7.0
2025-01-23 09:09:38.653495	211.3	27.8	-91.0	7.6
2025-01-23 09:09:40.961460	211.2	27.4	-90.8	5.2
2025-01-23 09:09:43.267454	211.2	27.0	-90.6	9.4
2025-01-23 09:09:45.586063	211.2	26.6	-91.0	4.0
2025-01-23 09:09:47.894952	211.2	26.2	-90.6	2.5
2025-01-23 09:09:50.207894	211.2	25.9	-90.6	7.7
2025-01-23 09:09:52.522093	211.2	25.5	-89.9	5.5
2025-01-23 09:09:54.829724	211.1	25.1	-90.0	8.3
2025-01-23 09:09:57.148320	211.1	24.8	-89.5	7.7
2025-01-23 09:09:59.453555	211.1	24.4	-90.7	3.3
2025-01-23 09:10:01.760411	211.1	24.1	-90.6	8.9
2025-01-23 09:10:04.070339	211.1	23.7	-89.5	6.2
2025-01-23 09:10:06.377014	211.1	23.4	-90.0	7.2
2025-01-23 09:10:08.684486	211.0	23.0	-90.2	8.7
2025-01-23 09:10:10.998632	211.0	22.7	-90.2	4.1
2025-01-23 09:10:13.310336	211.0	22.4	-89.4	6.8
2025-01-23 09:10:15.613806	211.0	22.1	-90.5	4.2
2025-01-23 09:10:17.920972	211.0	21.7	-90.4	7.8
2025-01-23 09:10:20.233023	211.0	21.4	-90.4	6.7
2025-01-23 09:10:22.539219	211.0	21.1	-90.4	6.0
2025-01-23 09:10:24.842021	211.0	20.8	-90.6	6.5
2025-01-23 09:10:27.150200	211.0	20.5	-90.6	6.3
2025-01-23 09:10:29.443001	210.9	20.2	-90.7	4.8
2025-01-23 09:10:31.742573	210.9	19.9	-90.5	3.4
2025-01-23 09:10:34.055231	210.9	19.6	-90.4	5.5
2025-01-23 09:10:36.375630	210.9	19.3	-90.3	3.6
2025-01-23 09:10:38.696584	210.9	19.0	-91.0	4.0
2025-01-23 09:10:41.004115	210.9	18.7	-90.8	0.9
2025-01-23 09:10:43.315059	210.9	18.5	-90.8	3.7
2025-01-23 09:10:45.628093	210.9	18.2	-90.7	4.3
2025-01-23 09:10:47.938051	210.9	17.9	-91.0	4.3
2025-01-23 09:10:50.254252	210.9	17.6	-90.4	4.9
2025-01-23 09:10:52.580186	210.9	17.4	-91.0	3.8
2025-01-23 09:10:54.890549	210.9	17.1	-91.0	4.8
2025-01-23 09:10:57.208581	210.9	16.8	-90.5	5.5
2025-01-23 09:10:59.519332	210.8	16.6	-90.8	4.5
2025-01-23 09:11:01.827759	210.8	16.3	-90.9	5.3
2025-01-23 09:11:04.131708	210.8	16.1	-91.0	4.7
2025-01-23 09:11:06.444395	210.8	15.8	-90.7	1.5
2025-01-23 09:11:08.749286	210.8	15.6	-90.6	3.3
2025-01-23 09:11:11.048421	210.8	15.3	-91.1	2.9
2025-01-23 09:11:13.361152	210.8	15.1	-90.4	2.8
2025-01-23 09:11:15.672638	210.8	14.8	-90.9	4.7
2025-01-23 09:11:17.988893	210.8	14.6	-90.7	4.2
#Closed at: 2025-01-23 09:02:00.697874