passes_logs/2025/01/23/LEX_Murmansk/LEX_Murmansk__20250123_142653_NOAA_18_rec.log

#Pass ID: 20250123_142653_NOAA 18
#Satellite: NOAA 18
#Configuration: NOAA 18
#Start time: 2025-01-23 14:26:48.114243

#LorettStation: 1.0.0 05.05.2024
#Station: LEX_Murmansk
#Location: 33.156738 lon 68.926811 lat
#TLE: 1 28654U 05018A   25023.16165176  .00000420  00000+0  24625-3 0  9991
#TLE: 2 28654  98.8554 104.1346 0014722 156.5601 203.6245 14.13494494 14331

#Time	Az	El	Level	SNR
2025-01-23 14:27:00.357983	39.8	15.9	-86.6	4.5
2025-01-23 14:27:01.513292	39.6	16.0	-83.7	5.7
2025-01-23 14:27:02.676896	39.4	16.0	-85.9	5.0
2025-01-23 14:27:03.838857	39.2	16.1	-84.8	4.8
2025-01-23 14:27:04.999010	39.0	16.2	-86.3	4.8
2025-01-23 14:27:06.163262	38.8	16.3	-84.0	4.1
2025-01-23 14:27:07.332303	38.6	16.4	-84.6	5.4
2025-01-23 14:27:08.489888	38.4	16.4	-86.7	6.3
2025-01-23 14:27:09.653986	38.2	16.5	-87.8	3.7
2025-01-23 14:27:10.811810	38.0	16.6	-87.9	5.3
2025-01-23 14:27:11.977017	37.8	16.7	-88.0	6.2
2025-01-23 14:27:13.145954	37.6	16.8	-88.3	5.3
2025-01-23 14:27:14.310412	37.4	16.9	-88.2	6.6
2025-01-23 14:27:15.475703	37.2	16.9	-88.6	4.8
2025-01-23 14:27:16.635421	37.0	17.0	-88.4	5.8
2025-01-23 14:27:17.806885	36.8	17.1	-88.4	9.8
2025-01-23 14:27:18.970660	36.6	17.2	-88.2	5.0
2025-01-23 14:27:20.137021	36.4	17.3	-88.2	5.2
2025-01-23 14:27:21.307556	36.2	17.3	-88.7	4.2
2025-01-23 14:27:22.475901	36.0	17.4	-88.4	5.8
2025-01-23 14:27:23.639883	35.8	17.5	-88.1	4.4
2025-01-23 14:27:24.807449	35.6	17.6	-87.7	4.0
2025-01-23 14:27:25.973460	35.3	17.7	-88.3	4.5
2025-01-23 14:27:27.141237	35.1	17.8	-88.7	5.1
2025-01-23 14:27:28.306978	34.9	17.8	-88.8	7.8
2025-01-23 14:27:29.472723	34.7	17.9	-87.5	4.6
2025-01-23 14:27:30.634524	34.5	18.0	-88.0	8.5
2025-01-23 14:27:31.806809	34.3	18.1	-88.9	5.9
2025-01-23 14:27:32.965190	34.0	18.2	-88.0	5.3
2025-01-23 14:27:34.129873	33.8	18.2	-88.0	6.3
2025-01-23 14:27:35.302601	33.6	18.3	-88.1	9.3
2025-01-23 14:27:36.463990	33.4	18.4	-88.3	5.3
2025-01-23 14:27:37.620509	33.2	18.5	-88.3	7.3
2025-01-23 14:27:38.789287	32.9	18.6	-87.7	5.2
2025-01-23 14:27:39.954720	32.7	18.6	-87.9	7.0
2025-01-23 14:27:41.115726	32.5	18.7	-87.0	8.6
2025-01-23 14:27:42.276656	32.3	18.8	-87.3	6.4
2025-01-23 14:27:43.440791	32.0	18.9	-87.2	6.5
2025-01-23 14:27:44.609390	31.8	18.9	-86.9	6.2
2025-01-23 14:27:45.772317	31.6	19.0	-87.5	7.2
2025-01-23 14:27:46.938904	31.3	19.1	-88.1	4.5
2025-01-23 14:27:48.098207	31.1	19.2	-87.4	5.4
2025-01-23 14:27:49.264063	30.9	19.3	-87.4	7.3
2025-01-23 14:27:50.428197	30.6	19.3	-87.3	6.9
2025-01-23 14:27:51.585853	30.4	19.4	-87.6	4.8
2025-01-23 14:27:52.751714	30.1	19.5	-88.2	9.6
2025-01-23 14:27:53.914389	29.9	19.6	-88.4	9.2
2025-01-23 14:27:55.044793	29.7	19.6	-88.2	12.7
2025-01-23 14:27:56.176582	29.4	19.7	-88.2	11.8
2025-01-23 14:27:57.328262	29.2	19.8	-87.9	13.0
2025-01-23 14:27:58.448091	29.0	19.8	-87.9	8.8
2025-01-23 14:27:59.568658	28.7	19.9	-88.1	6.1
2025-01-23 14:28:00.690093	28.5	20.0	-88.6	9.9
2025-01-23 14:28:01.811574	28.2	20.1	-88.1	8.7
2025-01-23 14:28:02.931566	28.0	20.1	-88.4	8.0
2025-01-23 14:28:04.052839	27.8	20.2	-88.2	8.0
2025-01-23 14:28:05.173147	27.5	20.3	-88.7	8.7
2025-01-23 14:28:06.294560	27.3	20.3	-88.3	9.1
2025-01-23 14:28:07.459563	27.0	20.4	-88.0	10.8
2025-01-23 14:28:08.620441	26.8	20.5	-88.7	7.4
2025-01-23 14:28:09.784822	26.5	20.5	-88.1	12.2
2025-01-23 14:28:10.942352	26.3	20.6	-88.4	8.5
2025-01-23 14:28:12.101742	26.0	20.7	-88.3	8.3
2025-01-23 14:28:13.266580	25.7	20.8	-88.3	11.3
2025-01-23 14:28:14.430287	25.5	20.8	-88.3	4.7
2025-01-23 14:28:15.591091	25.2	20.9	-88.8	4.6
2025-01-23 14:28:16.751596	24.9	21.0	-88.5	7.1
2025-01-23 14:28:17.914027	24.7	21.0	-88.7	8.9
2025-01-23 14:28:19.073458	24.4	21.1	-88.6	7.3
2025-01-23 14:28:20.242049	24.1	21.2	-88.8	6.7
2025-01-23 14:28:21.400175	23.9	21.2	-88.7	10.9
2025-01-23 14:28:22.568376	23.6	21.3	-88.7	7.5
2025-01-23 14:28:23.722307	23.3	21.4	-88.6	11.4
2025-01-23 14:28:24.879424	23.1	21.4	-88.6	7.0
2025-01-23 14:28:26.048986	22.8	21.5	-88.5	6.9
2025-01-23 14:28:27.212457	22.5	21.5	-88.2	9.3
2025-01-23 14:28:28.378790	22.2	21.6	-88.2	7.8
2025-01-23 14:28:29.539776	22.0	21.7	-88.2	7.9
2025-01-23 14:28:30.702621	21.7	21.7	-88.4	7.5
2025-01-23 14:28:31.865781	21.4	21.8	-88.5	11.9
2025-01-23 14:28:33.028634	21.1	21.9	-88.8	11.0
2025-01-23 14:28:34.196015	20.9	21.9	-88.7	8.7
2025-01-23 14:28:35.358217	20.6	22.0	-88.1	5.6
2025-01-23 14:28:36.513078	20.3	22.0	-88.5	9.6
2025-01-23 14:28:37.674010	20.0	22.1	-88.5	7.6
2025-01-23 14:28:38.836803	19.7	22.2	-87.3	6.8
2025-01-23 14:28:39.997628	19.4	22.2	-87.8	5.9
2025-01-23 14:28:41.162715	19.2	22.3	-87.5	11.3
2025-01-23 14:28:42.326111	18.9	22.3	-87.5	11.8
2025-01-23 14:28:43.493984	18.6	22.4	-87.8	6.9
2025-01-23 14:28:44.656278	18.3	22.4	-87.7	8.1
2025-01-23 14:28:45.812082	18.0	22.5	-87.3	7.2
2025-01-23 14:28:46.980986	17.7	22.5	-87.7	6.0
2025-01-23 14:28:48.137455	17.4	22.6	-87.6	6.7
2025-01-23 14:28:49.306199	17.1	22.6	-87.7	10.0
2025-01-23 14:28:50.470340	16.8	22.7	-87.3	7.1
2025-01-23 14:28:51.629891	16.5	22.7	-87.8	10.3
2025-01-23 14:28:52.789172	16.2	22.8	-88.1	9.2
2025-01-23 14:28:53.945757	15.9	22.8	-87.1	7.0
2025-01-23 14:28:55.106461	15.6	22.9	-88.2	10.0
2025-01-23 14:28:56.269877	15.3	22.9	-88.6	7.2
2025-01-23 14:28:57.428345	15.0	23.0	-88.9	8.4
2025-01-23 14:28:58.594005	14.7	23.0	-88.7	7.0
2025-01-23 14:28:59.756482	14.4	23.1	-88.9	8.5
2025-01-23 14:29:00.916671	14.1	23.1	-88.9	5.7
2025-01-23 14:29:02.079589	13.8	23.2	-88.3	6.3
2025-01-23 14:29:03.237415	13.5	23.2	-88.9	10.4
2025-01-23 14:29:04.403973	13.2	23.2	-88.7	8.6
2025-01-23 14:29:05.563979	12.9	23.3	-89.1	9.5
2025-01-23 14:29:06.725562	12.6	23.3	-88.9	10.2
2025-01-23 14:29:07.890373	12.3	23.4	-88.8	7.0
2025-01-23 14:29:09.054953	12.0	23.4	-88.8	8.1
2025-01-23 14:29:10.223028	11.7	23.4	-89.0	6.5
2025-01-23 14:29:11.378468	11.4	23.5	-89.0	9.5
2025-01-23 14:29:12.540186	11.1	23.5	-88.8	9.1
2025-01-23 14:29:13.718264	10.7	23.5	-89.1	8.0
2025-01-23 14:29:14.878070	10.4	23.6	-88.8	8.8
2025-01-23 14:29:16.035438	10.1	23.6	-89.2	11.6
2025-01-23 14:29:17.198971	9.8	23.6	-89.0	12.2
2025-01-23 14:29:18.363840	9.5	23.7	-88.9	10.8
2025-01-23 14:29:19.532656	9.2	23.7	-88.7	8.3
2025-01-23 14:29:20.703073	8.8	23.7	-89.0	7.0
2025-01-23 14:29:21.875676	8.5	23.8	-88.8	7.9
2025-01-23 14:29:23.037087	8.2	23.8	-88.8	8.1
2025-01-23 14:29:24.200589	7.9	23.8	-88.5	9.5
2025-01-23 14:29:25.362166	7.6	23.8	-88.3	9.3
2025-01-23 14:29:26.526351	7.3	23.9	-88.2	6.3
2025-01-23 14:29:27.694139	6.9	23.9	-88.7	7.8
2025-01-23 14:29:28.864227	6.6	23.9	-88.3	11.6
2025-01-23 14:29:30.024351	6.3	23.9	-88.2	7.6
2025-01-23 14:29:31.185446	6.0	23.9	-87.9	9.7
2025-01-23 14:29:32.340493	5.7	24.0	-88.6	12.9
2025-01-23 14:29:33.503398	5.3	24.0	-89.6	9.5
2025-01-23 14:29:34.664819	5.0	24.0	-88.7	11.7
2025-01-23 14:29:35.831934	4.7	24.0	-88.2	10.3
2025-01-23 14:29:36.990667	4.4	24.0	-89.1	10.0
2025-01-23 14:29:38.152702	4.0	24.1	-88.7	9.3
2025-01-23 14:29:39.317993	3.7	24.1	-88.2	12.3
2025-01-23 14:29:40.487591	3.4	24.1	-88.9	11.3
2025-01-23 14:29:41.646881	3.1	24.1	-88.9	11.5
2025-01-23 14:29:42.826933	2.8	24.1	-88.7	11.2
2025-01-23 14:29:43.993783	2.4	24.1	-88.2	7.3
2025-01-23 14:29:45.156212	2.1	24.1	-89.0	13.2
2025-01-23 14:29:46.321163	1.8	24.1	-89.2	10.1
2025-01-23 14:29:47.486138	1.5	24.1	-89.4	8.6
2025-01-23 14:29:48.649855	1.1	24.1	-89.1	12.0
2025-01-23 14:29:49.816083	0.8	24.1	-89.1	11.6
2025-01-23 14:29:50.979156	0.5	24.2	-89.0	6.5
2025-01-23 14:29:52.137807	0.2	24.2	-88.9	11.9
2025-01-23 14:29:53.299675	359.8	24.2	-88.7	10.1
2025-01-23 14:29:54.469057	359.5	24.2	-88.9	5.7
2025-01-23 14:29:55.633997	359.2	24.2	-89.6	9.5
2025-01-23 14:29:56.795857	358.8	24.2	-87.3	8.7
2025-01-23 14:29:57.951954	358.5	24.2	-88.6	8.5
2025-01-23 14:29:59.077457	358.2	24.2	-88.6	7.6
2025-01-23 14:30:00.197373	357.9	24.1	-87.2	13.6
2025-01-23 14:30:01.318670	357.6	24.1	-85.3	6.8
2025-01-23 14:30:02.439122	357.3	24.1	-84.4	4.9
2025-01-23 14:30:03.559323	357.0	24.1	-87.4	7.7
2025-01-23 14:30:04.679649	356.6	24.1	-85.6	8.2
2025-01-23 14:30:05.800416	356.3	24.1	-85.4	10.6
2025-01-23 14:30:06.925967	356.0	24.1	-84.9	5.6
2025-01-23 14:30:08.049629	355.7	24.1	-84.2	6.7
2025-01-23 14:30:09.169286	355.4	24.1	-84.6	8.7
2025-01-23 14:30:10.314801	355.1	24.1	-84.5	8.4
2025-01-23 14:30:11.455958	354.8	24.1	-88.7	10.9
2025-01-23 14:30:12.609885	354.4	24.0	-86.4	10.7
2025-01-23 14:30:13.761626	354.1	24.0	-85.1	10.7
2025-01-23 14:30:14.906899	353.8	24.0	-85.6	13.2
2025-01-23 14:30:16.066812	353.5	24.0	-88.7	6.2
2025-01-23 14:30:17.235639	353.2	24.0	-86.5	14.1
2025-01-23 14:30:18.401700	352.8	24.0	-88.1	13.9
2025-01-23 14:30:19.558111	352.5	23.9	-88.7	13.8
2025-01-23 14:30:20.720824	352.2	23.9	-85.0	9.7
2025-01-23 14:30:21.865542	351.9	23.9	-87.8	12.7
2025-01-23 14:30:23.006955	351.6	23.9	-86.9	11.9
2025-01-23 14:30:24.166644	351.2	23.8	-86.8	9.0
2025-01-23 14:30:25.312196	350.9	23.8	-87.1	7.9
2025-01-23 14:30:26.459715	350.6	23.8	-87.6	8.2
2025-01-23 14:30:27.606505	350.3	23.8	-89.2	6.4
2025-01-23 14:30:28.766582	350.0	23.7	-88.7	7.9
2025-01-23 14:30:29.924751	349.7	23.7	-87.5	9.6
2025-01-23 14:30:31.088274	349.4	23.7	-87.9	7.3
2025-01-23 14:30:32.252341	349.0	23.6	-88.2	12.0
2025-01-23 14:30:33.418144	348.7	23.6	-88.5	12.4
2025-01-23 14:30:34.574363	348.4	23.6	-88.5	9.3
2025-01-23 14:30:35.732064	348.1	23.6	-89.1	14.0
2025-01-23 14:30:36.885983	347.8	23.5	-89.4	6.2
2025-01-23 14:30:38.041618	347.5	23.5	-88.9	9.1
2025-01-23 14:30:39.202247	347.2	23.4	-88.4	10.2
2025-01-23 14:30:40.361558	346.9	23.4	-89.1	9.8
2025-01-23 14:30:41.520350	346.6	23.4	-89.0	6.5
2025-01-23 14:30:42.680316	346.2	23.3	-88.6	7.6
2025-01-23 14:30:43.850187	345.9	23.3	-87.5	6.5
2025-01-23 14:30:45.004114	345.6	23.3	-89.4	6.6
2025-01-23 14:30:46.166703	345.3	23.2	-88.7	6.9
2025-01-23 14:30:47.329220	345.0	23.2	-89.2	10.5
2025-01-23 14:30:48.494957	344.7	23.1	-88.8	10.0
2025-01-23 14:30:49.653764	344.4	23.1	-88.9	7.5
2025-01-23 14:30:50.831950	344.1	23.0	-89.3	7.4
2025-01-23 14:30:51.995013	343.8	23.0	-88.9	6.8
2025-01-23 14:30:53.154905	343.5	22.9	-88.7	7.2
2025-01-23 14:30:54.316328	343.2	22.9	-88.7	10.8
2025-01-23 14:30:55.478011	342.9	22.9	-88.5	6.2
2025-01-23 14:30:56.643943	342.6	22.8	-88.9	10.2
2025-01-23 14:30:57.805248	342.3	22.8	-88.4	9.4
2025-01-23 14:30:58.968642	342.0	22.7	-88.0	7.2
2025-01-23 14:31:00.128820	341.7	22.7	-88.4	9.6
2025-01-23 14:31:01.282267	341.4	22.6	-88.2	10.2
2025-01-23 14:31:02.442139	341.1	22.6	-89.3	6.2
2025-01-23 14:31:03.605710	340.8	22.5	-89.1	8.8
2025-01-23 14:31:04.766334	340.5	22.4	-89.0	8.7
2025-01-23 14:31:05.927545	340.2	22.4	-89.0	6.5
2025-01-23 14:31:07.088040	340.0	22.3	-88.8	10.1
2025-01-23 14:31:08.258760	339.7	22.3	-88.6	10.1
2025-01-23 14:31:09.425651	339.4	22.2	-88.8	5.4
2025-01-23 14:31:10.590494	339.1	22.2	-88.9	9.3
2025-01-23 14:31:11.749951	338.8	22.1	-89.1	8.7
2025-01-23 14:31:12.911453	338.5	22.1	-89.2	6.6
2025-01-23 14:31:14.075534	338.2	22.0	-89.2	7.6
2025-01-23 14:31:15.236271	338.0	21.9	-89.0	12.6
2025-01-23 14:31:16.401849	337.7	21.9	-88.7	12.6
2025-01-23 14:31:17.569552	337.4	21.8	-88.8	4.1
2025-01-23 14:31:18.734743	337.1	21.8	-89.0	9.9
2025-01-23 14:31:19.896070	336.8	21.7	-88.8	9.8
2025-01-23 14:31:21.059832	336.6	21.6	-88.6	7.7
2025-01-23 14:31:22.215715	336.3	21.6	-88.4	8.2
2025-01-23 14:31:23.379886	336.0	21.5	-88.9	7.5
2025-01-23 14:31:24.544304	335.7	21.4	-88.9	9.8
2025-01-23 14:31:25.706011	335.5	21.4	-88.9	5.9
2025-01-23 14:31:26.868602	335.2	21.3	-89.0	8.7
2025-01-23 14:31:28.033041	334.9	21.2	-89.3	8.0
2025-01-23 14:31:29.197132	334.6	21.2	-89.0	9.7
2025-01-23 14:31:30.360077	334.4	21.1	-88.4	7.3
2025-01-23 14:31:31.524590	334.1	21.0	-89.2	4.7
2025-01-23 14:31:32.683589	333.8	21.0	-88.3	7.2
2025-01-23 14:31:33.847182	333.6	20.9	-89.1	5.1
2025-01-23 14:31:35.007014	333.3	20.8	-88.9	7.6
2025-01-23 14:31:36.170216	333.1	20.8	-88.7	8.3
2025-01-23 14:31:37.334236	332.8	20.7	-88.3	7.3
2025-01-23 14:31:38.497007	332.5	20.6	-88.0	6.0
2025-01-23 14:31:39.661202	332.3	20.6	-88.0	6.2
2025-01-23 14:31:40.825101	332.0	20.5	-88.5	6.9
2025-01-23 14:31:41.985401	331.8	20.4	-89.2	6.0
2025-01-23 14:31:43.147968	331.5	20.4	-88.7	4.0
2025-01-23 14:31:44.309944	331.2	20.3	-88.5	4.6
2025-01-23 14:31:45.474475	331.0	20.2	-89.1	5.5
2025-01-23 14:31:46.638163	330.7	20.1	-89.2	5.7
2025-01-23 14:31:47.805264	330.5	20.1	-89.3	4.7
2025-01-23 14:31:48.968122	330.2	20.0	-89.2	4.3
2025-01-23 14:31:50.131158	330.0	19.9	-88.4	4.6
2025-01-23 14:31:51.298669	329.7	19.8	-89.2	4.3
2025-01-23 14:31:52.458993	329.5	19.8	-89.4	5.4
2025-01-23 14:31:53.621310	329.3	19.7	-88.9	6.4
2025-01-23 14:31:54.784945	329.0	19.6	-88.9	5.9
2025-01-23 14:31:55.951216	328.8	19.5	-88.7	5.1
2025-01-23 14:31:57.115008	328.5	19.5	-88.9	5.4
2025-01-23 14:31:58.272551	328.3	19.4	-88.6	4.3
2025-01-23 14:31:59.435988	328.1	19.3	-89.0	5.2
2025-01-23 14:32:00.591417	327.8	19.2	-89.0	5.4
2025-01-23 14:32:01.754056	327.6	19.2	-88.9	6.2
2025-01-23 14:32:02.916309	327.3	19.1	-89.0	6.1
2025-01-23 14:32:04.083197	327.1	19.0	-88.3	8.2
2025-01-23 14:32:05.241555	326.9	18.9	-88.7	5.8
2025-01-23 14:32:06.407741	326.6	18.9	-89.0	7.1
2025-01-23 14:32:07.567186	326.4	18.8	-88.8	7.0
2025-01-23 14:32:08.721827	326.2	18.7	-88.3	6.8
2025-01-23 14:32:09.875662	326.0	18.6	-89.0	6.3
2025-01-23 14:32:11.039226	325.7	18.5	-88.5	7.0
2025-01-23 14:32:12.203169	325.5	18.5	-88.9	6.5
2025-01-23 14:32:13.381073	325.3	18.4	-88.9	9.4
2025-01-23 14:32:14.542093	325.1	18.3	-88.7	7.2
2025-01-23 14:32:15.707440	324.8	18.2	-89.4	9.2
2025-01-23 14:32:16.871518	324.6	18.1	-88.6	5.9
2025-01-23 14:32:18.034001	324.4	18.1	-88.8	5.6
2025-01-23 14:32:19.199912	324.2	18.0	-88.2	7.0
2025-01-23 14:32:20.362834	324.0	17.9	-88.2	6.6
2025-01-23 14:32:21.528799	323.7	17.8	-88.0	5.4
2025-01-23 14:32:22.682638	323.5	17.7	-88.4	5.3
2025-01-23 14:32:23.841925	323.3	17.7	-88.2	5.8
2025-01-23 14:32:24.982531	323.1	17.6	-88.7	6.7
2025-01-23 14:32:26.104673	322.9	17.5	-88.0	5.0
2025-01-23 14:32:27.225007	322.7	17.4	-88.8	5.4
2025-01-23 14:32:28.346594	322.5	17.3	-88.9	6.2
2025-01-23 14:32:29.466763	322.3	17.3	-88.7	5.3
2025-01-23 14:32:30.587675	322.1	17.2	-88.8	6.5
2025-01-23 14:32:31.708144	321.9	17.1	-88.4	4.5
2025-01-23 14:32:32.828218	321.7	17.0	-88.8	4.4
2025-01-23 14:32:33.953324	321.5	16.9	-89.0	4.0
2025-01-23 14:32:35.095080	321.3	16.9	-88.1	6.7
2025-01-23 14:32:36.244373	321.1	16.8	-89.2	6.6
2025-01-23 14:32:37.405987	320.9	16.7	-88.8	6.4
2025-01-23 14:32:38.556396	320.7	16.6	-88.8	4.9
2025-01-23 14:32:39.720932	320.5	16.5	-88.7	6.3
2025-01-23 14:32:40.872671	320.3	16.5	-88.9	8.0
2025-01-23 14:32:42.039587	320.1	16.4	-88.8	7.7
2025-01-23 14:32:43.198603	319.9	16.3	-89.0	8.2
2025-01-23 14:32:44.362212	319.7	16.2	-88.1	8.1
2025-01-23 14:32:45.533392	319.5	16.1	-88.4	7.2
2025-01-23 14:32:46.690783	319.3	16.0	-88.4	9.4
2025-01-23 14:32:47.858486	319.1	16.0	-89.0	7.8
2025-01-23 14:32:49.022936	319.0	15.9	-89.1	4.6
2025-01-23 14:32:50.190719	318.8	15.8	-88.1	8.7
2025-01-23 14:32:51.353846	318.6	15.7	-88.6	8.7
2025-01-23 14:32:52.518432	318.4	15.6	-89.3	5.2
2025-01-23 14:32:53.682570	318.2	15.5	-89.1	7.5
2025-01-23 14:32:54.838762	318.0	15.5	-88.6	7.0
2025-01-23 14:32:56.005297	317.8	15.4	-88.9	5.4
2025-01-23 14:32:57.169274	317.7	15.3	-89.2	8.2
2025-01-23 14:32:58.332300	317.5	15.2	-89.0	9.3
2025-01-23 14:32:59.491078	317.3	15.1	-89.3	4.7
2025-01-23 14:33:00.652666	317.1	15.0	-88.6	6.3
2025-01-23 14:33:01.817707	316.9	15.0	-89.3	7.0
2025-01-23 14:33:02.974142	316.8	14.9	-89.0	8.3
2025-01-23 14:33:04.119522	316.6	14.8	-88.1	9.0
2025-01-23 14:33:05.243955	316.4	14.7	-88.6	8.7
2025-01-23 14:33:06.392250	316.2	14.6	-88.7	10.7
#Closed at: 2025-01-23 14:26:53.148758