passes_logs/2026/01/19/R2.0S_Moscow/R2.0S_Moscow__20260119_122848_FENGYUN_3D_rec.log

#Pass ID: 20260119_122848_FENGYUN 3D
#Satellite: FENGYUN 3D
#Configuration: FENGYUN 3D
#almurnet v.1.7.20251203
#Start time: 2026-01-19 12:28:50

#Version: 2.2.20231116
#Station: R2.0S_Moscow
#Location: 37.707566 lon 55.798166 lat
#TLE: 1 43010U 17072A   26017.96359538  .00000271  00000+0  15011-3 0  9999
#TLE: 2 43010  98.9936 349.8252 0002386 103.8840 256.2601 14.19697057423673

#Time	Az	El	Level	Level2	SNR	BER	BlckErr	Temp	State	Recorded	gain1	gain2
2026-01-19 12:28:50.47	175.33	2.12	-43.3	-54.9	3.8	8.46e-01	0	53	0	0	58	13558
2026-01-19 12:28:54.52	175.44	2.38	-43.3	-54.9	3.8	8.47e-01	0	53	104	0	58	13530
2026-01-19 12:28:58.56	175.55	2.64	-43.3	-54.9	3.8	8.47e-01	0	54	104	0	58	13521
2026-01-19 12:29:02.60	175.65	2.90	-43.3	-54.9	3.8	8.46e-01	0	54	104	0	58	13551
2026-01-19 12:29:06.64	175.76	3.17	-43.3	-54.9	3.8	8.48e-01	0	54	104	0	58	13535
2026-01-19 12:29:10.69	175.88	3.44	-43.3	-54.9	3.8	8.46e-01	0	55	104	0	58	13513
2026-01-19 12:29:14.72	175.99	3.71	-43.3	-54.9	3.8	8.45e-01	0	55	104	0	58	13421
2026-01-19 12:29:18.77	176.11	3.98	-43.3	-54.9	3.8	8.46e-01	0	55	104	0	58	13478
2026-01-19 12:29:22.81	176.22	4.25	-43.3	-54.9	3.8	8.47e-01	0	55	104	0	58	13484
2026-01-19 12:29:26.85	176.34	4.53	-43.3	-54.9	3.8	8.47e-01	0	56	104	0	58	13455
2026-01-19 12:29:30.89	176.47	4.81	-43.3	-54.7	3.8	8.46e-01	0	56	104	0	58	13233
2026-01-19 12:29:34.93	176.59	5.10	-43.3	-54.2	3.8	8.46e-01	0	56	104	0	58	12396
2026-01-19 12:29:38.98	176.72	5.38	-43.1	-53.0	3.9	8.46e-01	0	56	104	0	58	10836
2026-01-19 12:29:43.02	176.85	5.67	-43.0	-52.2	4.0	8.43e-01	0	57	104	0	58	9832
2026-01-19 12:29:47.06	176.98	5.97	-42.7	-50.3	4.5	8.20e-01	0	57	0	0	57	8453
2026-01-19 12:29:51.10	177.11	6.26	-42.5	-49.6	4.9	7.84e-01	0	57	0	0	57	7760
2026-01-19 12:29:55.15	177.25	6.56	-42.5	-49.4	4.9	7.71e-01	0	57	0	0	56	8048
2026-01-19 12:29:59.19	177.39	6.87	-42.0	-47.9	6.0	4.02e-01	0	57	0	8388608	56	6726
2026-01-19 12:30:03.23	177.53	7.17	-40.8	-45.1	8.3	7.47e-02	0	57	0	30408704	53	5794
2026-01-19 12:30:07.27	177.67	7.48	-39.7	-42.8	10.7	4.47e-03	0	57	0	53477376	51	5015
2026-01-19 12:30:11.32	177.82	7.80	-39.2	-42.1	11.5	1.17e-03	0	58	0	75497472	50	4910
2026-01-19 12:30:15.36	177.97	8.11	-40.3	-43.5	10.5	5.63e-03	0	58	0	98566144	51	5446
2026-01-19 12:30:19.40	178.12	8.44	-40.4	-43.8	10.0	2.92e-02	0	58	0	116391936	52	5294
2026-01-19 12:30:23.43	178.28	8.76	-39.2	-41.8	12.3	3.09e-04	0	58	0	139460608	50	4721
2026-01-19 12:30:27.47	178.44	9.09	-39.0	-41.5	12.8	1.11e-04	0	58	0	161480704	50	4551
2026-01-19 12:30:31.50	178.60	9.42	-39.1	-41.6	12.8	1.32e-04	0	58	0	184549376	50	4610
2026-01-19 12:30:35.55	178.77	9.76	-39.1	-41.4	13.0	6.17e-05	0	59	0	206569472	50	4544
2026-01-19 12:30:39.59	178.94	10.11	-39.0	-41.4	13.2	4.23e-05	0	59	0	229638144	50	4500
2026-01-19 12:30:43.63	179.11	10.45	-39.0	-41.3	13.3	3.31e-05	0	59	0	252706816	50	4472
2026-01-19 12:30:47.67	179.29	10.80	-38.9	-41.2	13.4	1.14e-05	0	59	0	274726912	49	4668
2026-01-19 12:30:51.71	179.47	11.16	-38.9	-41.2	13.5	1.60e-05	0	59	0	297795584	49	4656
2026-01-19 12:30:55.74	179.66	11.52	-39.0	-41.3	13.4	2.40e-05	0	59	0	320864256	49	4733
2026-01-19 12:30:59.78	179.85	11.89	-38.9	-41.2	13.5	1.94e-05	0	59	0	343932928	49	4677
2026-01-19 12:31:03.82	180.04	12.26	-38.9	-41.1	13.6	1.25e-05	0	59	0	365953024	49	4638
2026-01-19 12:31:07.86	180.24	12.64	-38.8	-41.1	13.7	1.25e-05	0	60	0	389021696	49	4603
2026-01-19 12:31:11.90	180.45	13.02	-38.8	-41.0	13.8	1.02e-05	0	60	0	411041792	49	4558
2026-01-19 12:31:15.93	180.66	13.41	-38.6	-40.8	14.0	3.40e-06	0	60	0	434110464	49	4451
2026-01-19 12:31:19.98	180.87	13.81	-38.5	-40.5	14.3	3.40e-06	0	60	0	457179136	48	4588
2026-01-19 12:31:24.02	181.09	14.21	-38.3	-40.3	14.5	2.20e-06	0	60	0	479199232	48	4474
2026-01-19 12:31:28.05	181.32	14.62	-38.2	-40.1	14.7	0.00e+00	0	60	0	502267904	48	4380
2026-01-19 12:31:32.09	181.55	15.03	-38.1	-40.1	14.8	0.00e+00	0	60	0	525336576	48	4367
2026-01-19 12:31:36.13	181.79	15.46	-38.1	-40.1	14.9	1.10e-06	0	60	0	548405248	48	4353
2026-01-19 12:31:40.17	182.04	15.88	-38.1	-40.0	14.9	0.00e+00	0	60	0	570425344	48	4316
2026-01-19 12:31:44.21	182.29	16.32	-37.9	-39.8	15.0	0.00e+00	0	60	0	593494016	47	4473
2026-01-19 12:31:48.25	182.55	16.76	-37.7	-39.6	15.3	0.00e+00	0	60	0	615514112	47	4357
2026-01-19 12:31:52.29	182.81	17.21	-37.4	-39.2	15.6	0.00e+00	0	60	0	638582784	46	4427
2026-01-19 12:31:56.33	183.09	17.67	-37.6	-39.5	15.4	0.00e+00	0	60	0	661651456	46	4549
2026-01-19 12:32:00.36	183.37	18.14	-37.5	-39.4	15.5	0.00e+00	0	60	0	683671552	46	4500
2026-01-19 12:32:04.40	183.66	18.61	-37.4	-39.2	15.7	0.00e+00	0	60	0	706740224	46	4437
2026-01-19 12:32:08.44	183.96	19.10	-37.1	-38.8	16.2	0.00e+00	0	60	0	729808896	46	4200
2026-01-19 12:32:12.48	184.27	19.59	-37.1	-38.8	16.1	0.00e+00	0	60	0	752877568	46	4232
2026-01-19 12:32:16.52	184.59	20.09	-37.2	-38.9	16.0	0.00e+00	0	60	0	774897664	46	4278
2026-01-19 12:32:20.56	184.92	20.60	-37.2	-39.0	16.0	0.00e+00	0	60	0	797966336	46	4304
2026-01-19 12:32:24.60	185.25	21.13	-37.0	-38.8	16.2	0.00e+00	0	61	0	819986432	46	4194
2026-01-19 12:32:28.64	185.61	21.66	-37.2	-38.9	16.0	0.00e+00	0	61	0	843055104	46	4279
2026-01-19 12:32:32.68	185.97	22.20	-36.8	-38.5	16.5	0.00e+00	0	61	0	866123776	45	4308
2026-01-19 12:32:36.71	186.34	22.75	-36.6	-38.3	16.7	0.00e+00	0	61	0	888143872	45	4198
2026-01-19 12:32:40.75	186.73	23.31	-36.3	-37.9	17.1	0.00e+00	0	61	0	911212544	44	4262
2026-01-19 12:32:44.79	187.13	23.89	-36.6	-38.2	16.8	0.00e+00	0	61	0	934281216	44	4399
2026-01-19 12:32:48.83	187.55	24.47	-36.5	-38.1	16.9	0.00e+00	0	61	0	957349888	44	4362
2026-01-19 12:32:52.87	187.98	25.07	-36.3	-37.9	17.2	0.00e+00	0	61	0	979369984	44	4244
2026-01-19 12:32:56.91	188.43	25.68	-36.4	-38.0	17.0	0.00e+00	0	61	0	1002438656	44	4338
2026-01-19 12:33:00.95	188.90	26.30	-36.6	-38.2	16.8	0.00e+00	0	61	0	1024458752	44	4416
2026-01-19 12:33:04.99	189.38	26.93	-36.4	-38.0	17.0	0.00e+00	0	61	0	1047527424	44	4304
2026-01-19 12:33:09.02	189.88	27.58	-36.4	-38.0	17.1	0.00e+00	0	61	0	1070596096	44	4304
2026-01-19 12:33:13.06	190.40	28.24	-36.3	-37.8	17.2	0.00e+00	0	61	0	1092616192	44	4237
2026-01-19 12:33:17.10	190.95	28.92	-36.3	-37.9	17.1	0.00e+00	0	61	0	1115684864	44	4267
2026-01-19 12:33:21.14	191.52	29.60	-36.3	-37.8	17.3	0.00e+00	0	61	0	1138753536	44	4225
2026-01-19 12:33:25.18	192.11	30.31	-36.3	-37.9	17.2	0.00e+00	0	61	0	1161822208	44	4256
2026-01-19 12:33:29.22	192.73	31.02	-36.2	-37.8	17.3	0.00e+00	0	61	0	1183842304	44	4215
2026-01-19 12:33:33.26	193.37	31.75	-36.2	-37.7	17.4	0.00e+00	0	61	0	1206910976	44	4182
2026-01-19 12:33:37.30	194.05	32.50	-36.3	-37.9	17.2	0.00e+00	0	61	0	1228931072	44	4244
2026-01-19 12:33:41.34	194.75	33.26	-36.2	-37.8	17.3	0.00e+00	0	61	0	1251999744	44	4204
2026-01-19 12:33:45.37	195.49	34.03	-36.2	-37.7	17.4	0.00e+00	0	61	0	1275068416	44	4180
2026-01-19 12:33:49.42	196.27	34.82	-35.8	-37.3	17.7	0.00e+00	0	61	0	1297088512	43	4202
2026-01-19 12:33:53.46	197.08	35.62	-35.8	-37.4	17.6	0.00e+00	0	61	0	1320157184	43	4250
2026-01-19 12:33:57.49	197.93	36.43	-35.6	-37.1	17.9	0.00e+00	0	61	0	1343225856	43	4110
2026-01-19 12:34:01.53	198.83	37.26	-35.7	-37.2	17.8	0.00e+00	0	61	0	1366294528	43	4167
2026-01-19 12:34:05.57	199.77	38.10	-35.5	-37.0	18.0	0.00e+00	0	61	0	1388314624	43	4060
2026-01-19 12:34:09.61	200.76	38.96	-35.8	-37.2	17.8	0.00e+00	0	62	0	1411383296	42	4425
2026-01-19 12:34:13.64	201.80	39.82	-35.9	-37.4	17.7	0.00e+00	0	62	0	1433403392	42	4517
2026-01-19 12:34:17.68	202.90	40.70	-35.8	-37.3	17.7	0.00e+00	0	61	0	1456472064	42	4474
2026-01-19 12:34:21.72	204.07	41.59	-36.0	-37.5	17.6	0.00e+00	0	62	0	1479540736	42	4559
2026-01-19 12:34:25.77	205.30	42.49	-35.9	-37.4	17.6	0.00e+00	0	62	0	1501560832	42	4543
2026-01-19 12:34:29.80	206.59	43.39	-36.1	-37.6	17.5	0.00e+00	0	62	0	1524629504	42	4642
2026-01-19 12:34:33.84	207.96	44.29	-36.2	-37.7	17.3	0.00e+00	0	62	0	1547698176	43	4440
2026-01-19 12:34:37.88	209.41	45.20	-36.6	-38.2	16.9	0.00e+00	0	62	0	1570766848	43	4663
2026-01-19 12:34:41.92	210.94	46.11	-36.3	-37.9	17.2	0.00e+00	0	62	0	1592786944	43	4501
2026-01-19 12:34:45.96	212.57	47.01	-36.4	-38.0	17.1	0.00e+00	0	62	0	1615855616	43	4552
2026-01-19 12:34:50.00	214.29	47.91	-36.3	-37.8	17.3	0.00e+00	0	62	0	1637875712	43	4482
2026-01-19 12:34:54.04	216.11	48.80	-36.6	-38.1	17.0	0.00e+00	0	62	0	1660944384	43	4645
2026-01-19 12:34:58.08	218.03	49.67	-36.5	-38.1	17.0	0.00e+00	0	62	0	1684013056	43	4620
2026-01-19 12:35:02.12	220.07	50.53	-36.5	-38.1	17.0	0.00e+00	0	62	0	1706033152	43	4621
2026-01-19 12:35:06.15	222.22	51.35	-36.3	-37.9	17.3	0.00e+00	0	62	0	1729101824	43	4500
2026-01-19 12:35:10.19	224.49	52.15	-36.9	-38.6	16.7	0.00e+00	0	62	0	1752170496	44	4600
2026-01-19 12:35:14.23	226.88	52.92	-36.7	-38.3	17.0	0.00e+00	0	62	0	1775239168	44	4454
2026-01-19 12:35:18.26	229.39	53.64	-36.8	-38.4	16.8	0.00e+00	0	62	0	1797259264	44	4523
2026-01-19 12:35:22.31	232.04	54.31	-37.0	-38.7	16.5	0.00e+00	0	62	0	1820327936	45	4402
2026-01-19 12:35:26.34	234.79	54.93	-37.1	-38.8	16.5	0.00e+00	0	62	0	1842348032	45	4451
2026-01-19 12:35:30.38	237.67	55.49	-36.6	-38.2	17.1	0.00e+00	0	62	0	1865416704	45	4157
2026-01-19 12:35:34.42	240.66	55.98	-37.0	-38.7	16.6	0.00e+00	0	62	0	1888485376	45	4392
2026-01-19 12:35:38.45	243.73	56.40	-36.9	-38.5	16.8	0.00e+00	0	62	0	1910505472	45	4309
2026-01-19 12:35:42.49	246.90	56.74	-37.0	-38.6	16.7	0.00e+00	0	62	0	1933574144	45	4359
2026-01-19 12:35:46.54	250.14	56.99	-36.9	-38.5	16.7	0.00e+00	0	62	0	1956642816	45	4314
2026-01-19 12:35:50.58	253.43	57.16	-36.9	-38.6	16.7	0.00e+00	0	62	0	1979711488	45	4348
2026-01-19 12:35:54.61	256.74	57.24	-36.9	-38.5	16.7	0.00e+00	0	62	0	2001731584	45	4329
2026-01-19 12:35:58.65	260.06	57.23	-36.9	-38.6	16.7	0.00e+00	0	62	0	2024800256	45	4344
2026-01-19 12:36:02.69	263.37	57.13	-36.8	-38.5	16.8	0.00e+00	0	62	0	2046820352	45	4294
2026-01-19 12:36:06.73	266.64	56.93	-36.7	-38.3	16.9	0.00e+00	0	62	0	2069889024	45	4223
2026-01-19 12:36:10.78	269.86	56.66	-36.8	-38.4	16.9	0.00e+00	0	62	0	2092957696	45	4247
2026-01-19 12:36:14.82	273.01	56.30	-36.9	-38.5	16.8	0.00e+00	0	62	0	2114977792	45	4300
2026-01-19 12:36:18.85	276.06	55.86	-36.8	-38.4	16.8	0.00e+00	0	62	0	2138046464	45	4249
2026-01-19 12:36:22.89	279.01	55.36	-37.2	-38.9	16.3	0.00e+00	0	62	0	2161115136	45	4532
2026-01-19 12:36:26.93	281.86	54.78	-37.1	-38.8	16.4	0.00e+00	0	62	0	2184183808	45	4465
2026-01-19 12:36:30.97	284.58	54.15	-36.7	-38.2	17.0	0.00e+00	0	62	0	2206203904	45	4191
2026-01-19 12:36:35.01	287.19	53.47	-36.8	-38.4	16.8	0.00e+00	0	62	0	2229272576	45	4252
2026-01-19 12:36:39.05	289.67	52.73	-36.7	-38.3	16.8	0.00e+00	0	62	0	2251292672	45	4232
2026-01-19 12:36:43.09	292.03	51.96	-36.4	-37.9	17.3	0.00e+00	0	62	0	2274361344	44	4287
2026-01-19 12:36:47.12	294.26	51.16	-36.4	-37.9	17.3	0.00e+00	0	62	0	2297430016	44	4283
2026-01-19 12:36:51.16	296.38	50.33	-36.7	-38.2	17.2	0.00e+00	0	62	0	2319450112	44	4411
2026-01-19 12:36:55.20	298.38	49.47	-36.5	-37.9	17.5	0.00e+00	0	62	0	2342518784	44	4261
2026-01-19 12:36:59.23	300.27	48.60	-36.4	-37.8	17.6	0.00e+00	0	62	0	2365587456	44	4225
2026-01-19 12:37:03.27	302.06	47.71	-36.3	-37.7	17.7	0.00e+00	0	62	0	2387607552	44	4179
2026-01-19 12:37:07.31	303.76	46.82	-36.4	-37.8	17.5	0.00e+00	0	62	0	2410676224	44	4241
2026-01-19 12:37:11.35	305.35	45.91	-36.3	-37.7	17.8	0.00e+00	0	62	0	2433744896	44	4158
2026-01-19 12:37:15.39	306.86	45.01	-36.2	-37.5	17.9	0.00e+00	0	62	0	2455764992	44	4097
2026-01-19 12:37:19.43	308.29	44.11	-36.3	-37.7	17.7	0.00e+00	0	62	0	2478833664	44	4182
2026-01-19 12:37:23.47	309.64	43.20	-36.1	-37.4	18.0	0.00e+00	0	62	0	2501902336	44	4037
2026-01-19 12:37:27.51	310.92	42.31	-35.8	-37.1	18.2	0.00e+00	0	62	0	2523922432	43	4110
2026-01-19 12:37:31.56	312.13	41.42	-35.9	-37.3	18.0	0.00e+00	0	62	0	2546991104	43	4202
2026-01-19 12:37:35.60	313.27	40.54	-35.8	-37.2	18.1	0.00e+00	0	62	0	2570059776	43	4154
2026-01-19 12:37:39.64	314.36	39.67	-35.8	-37.2	18.1	0.00e+00	0	62	0	2593128448	43	4146
2026-01-19 12:37:43.68	315.39	38.81	-35.8	-37.2	18.1	0.00e+00	0	62	0	2615148544	43	4154
2026-01-19 12:37:47.72	316.37	37.96	-35.8	-37.2	18.1	0.00e+00	0	62	0	2638217216	43	4150
2026-01-19 12:37:51.76	317.30	37.12	-35.6	-36.9	18.3	0.00e+00	0	62	0	2660237312	43	4042
2026-01-19 12:37:55.80	318.18	36.30	-35.6	-36.9	18.3	0.00e+00	0	62	0	2683305984	43	4042
2026-01-19 12:37:59.84	319.02	35.49	-35.6	-36.9	18.3	0.00e+00	0	62	0	2706374656	42	4252
2026-01-19 12:38:03.87	319.82	34.70	-35.7	-37.0	18.2	0.00e+00	0	62	0	2729443328	42	4333
2026-01-19 12:38:07.92	320.59	33.92	-35.6	-36.9	18.2	0.00e+00	0	62	0	2751463424	42	4284
2026-01-19 12:38:11.96	321.32	33.15	-35.6	-36.9	18.3	0.00e+00	0	62	0	2774532096	42	4266
2026-01-19 12:38:15.99	322.02	32.40	-35.8	-37.2	18.0	0.00e+00	0	62	0	2797600768	42	4392
2026-01-19 12:38:20.03	322.69	31.67	-36.1	-37.5	17.6	0.00e+00	0	62	0	2819620864	42	4575
2026-01-19 12:38:24.07	323.32	30.94	-36.0	-37.4	17.7	0.00e+00	0	62	0	2842689536	42	4531
2026-01-19 12:38:28.10	323.94	30.24	-35.8	-37.2	18.0	0.00e+00	0	62	0	2864709632	42	4403
2026-01-19 12:38:32.15	324.52	29.54	-36.1	-37.5	17.7	0.00e+00	0	62	0	2887778304	42	4561
2026-01-19 12:38:36.18	325.09	28.86	-36.0	-37.4	17.7	0.00e+00	0	62	0	2910846976	42	4543
2026-01-19 12:38:40.22	325.63	28.19	-35.9	-37.3	17.8	0.00e+00	0	62	0	2932867072	42	4475
2026-01-19 12:38:44.25	326.14	27.54	-35.9	-37.3	17.8	0.00e+00	0	62	0	2955935744	42	4453
2026-01-19 12:38:48.29	326.64	26.90	-35.9	-37.3	17.8	0.00e+00	0	62	0	2979004416	42	4468
2026-01-19 12:38:52.33	327.12	26.27	-36.1	-37.5	17.6	0.00e+00	0	62	0	3002073088	42	4556
2026-01-19 12:38:56.37	327.59	25.65	-36.0	-37.4	17.6	0.00e+00	0	62	0	3024093184	42	4532
2026-01-19 12:39:00.41	328.03	25.05	-36.3	-37.7	17.3	0.00e+00	0	62	0	3047161856	43	4437
2026-01-19 12:39:04.45	328.46	24.46	-36.5	-37.9	17.1	0.00e+00	0	62	0	3069181952	43	4538
2026-01-19 12:39:08.49	328.88	23.88	-36.5	-38.0	17.0	0.00e+00	0	62	0	3092250624	43	4591
2026-01-19 12:39:12.52	329.28	23.31	-36.4	-37.9	17.1	0.00e+00	0	62	0	3115319296	43	4531
2026-01-19 12:39:16.56	329.66	22.75	-36.5	-38.0	16.9	0.00e+00	0	62	0	3137339392	43	4586
2026-01-19 12:39:20.60	330.04	22.21	-36.6	-38.1	16.8	0.00e+00	0	62	0	3160408064	43	4648
2026-01-19 12:39:24.64	330.40	21.67	-36.7	-38.2	16.7	0.00e+00	0	62	0	3183476736	43	4683
2026-01-19 12:39:28.68	330.75	21.14	-36.9	-38.5	16.6	0.00e+00	0	62	0	3206545408	44	4555
2026-01-19 12:39:32.72	331.09	20.63	-37.0	-38.6	16.4	0.00e+00	0	62	0	3228565504	44	4625
2026-01-19 12:39:36.76	331.42	20.12	-37.2	-38.8	16.3	0.00e+00	0	62	0	3251634176	44	4713
2026-01-19 12:39:40.80	331.74	19.62	-37.3	-38.9	16.1	0.00e+00	0	62	0	3273654272	45	4516
2026-01-19 12:39:44.83	332.04	19.14	-37.4	-39.1	15.8	0.00e+00	0	62	0	3296722944	45	4629
2026-01-19 12:39:48.87	332.34	18.66	-37.5	-39.2	15.7	0.00e+00	0	62	0	3319791616	45	4669
2026-01-19 12:39:52.91	332.64	18.18	-37.3	-39.0	15.9	0.00e+00	0	62	0	3341811712	45	4565
2026-01-19 12:39:56.95	332.92	17.72	-37.5	-39.2	15.7	0.00e+00	0	62	0	3364880384	45	4671
2026-01-19 12:40:00.99	333.19	17.27	-37.7	-39.4	15.4	0.00e+00	0	62	0	3387949056	45	4811
2026-01-19 12:40:05.03	333.46	16.82	-38.0	-39.9	14.9	0.00e+00	0	62	0	3411017728	46	4768
2026-01-19 12:40:09.07	333.72	16.38	-38.2	-40.2	14.6	0.00e+00	0	62	0	3433037824	47	4660
2026-01-19 12:40:13.11	333.97	15.95	-38.3	-40.2	14.5	0.00e+00	0	62	0	3456106496	47	4698
2026-01-19 12:40:17.15	334.22	15.52	-38.4	-40.4	14.2	3.40e-06	0	62	0	3478126592	47	4810
2026-01-19 12:40:21.18	334.46	15.10	-38.4	-40.5	14.1	2.20e-06	0	62	0	3501195264	47	4820
2026-01-19 12:40:25.22	334.69	14.69	-38.4	-40.5	14.0	2.20e-06	0	62	0	3524263936	47	4852
2026-01-19 12:40:29.26	334.92	14.29	-38.4	-40.5	14.0	2.20e-06	0	62	0	3546284032	47	4818
2026-01-19 12:40:33.30	335.15	13.89	-38.5	-40.6	13.9	3.40e-06	0	62	0	3569352704	47	4895
2026-01-19 12:40:37.34	335.36	13.50	-38.6	-40.8	13.6	1.25e-05	0	62	0	3592421376	47	5015
2026-01-19 12:40:41.38	335.57	13.11	-38.4	-40.5	13.9	6.80e-06	0	62	0	3615490048	47	4817
2026-01-19 12:40:45.42	335.78	12.73	-38.7	-40.9	13.3	2.40e-05	0	62	0	3637510144	47	5060
2026-01-19 12:40:49.46	335.98	12.35	-38.5	-40.7	13.4	1.94e-05	0	62	0	3660578816	47	4971
2026-01-19 12:40:53.50	336.18	11.98	-38.6	-40.8	13.3	3.77e-05	0	62	0	3682598912	47	4992
2026-01-19 12:40:57.53	336.37	11.62	-38.7	-40.9	13.1	3.89e-05	0	62	0	3705667584	47	5081
2026-01-19 12:41:01.57	336.56	11.26	-38.5	-40.8	13.3	4.92e-05	0	62	0	3728736256	47	4984
2026-01-19 12:41:05.61	336.75	10.91	-38.7	-41.0	13.0	5.72e-05	0	62	0	3750756352	47	5114
2026-01-19 12:41:09.64	336.93	10.56	-38.9	-41.3	12.6	1.10e-04	0	62	0	3773825024	48	5008
2026-01-19 12:41:13.68	337.10	10.21	-38.8	-41.1	12.7	1.30e-04	0	62	0	3796893696	48	4904
2026-01-19 12:41:17.72	337.28	9.87	-38.6	-41.0	12.7	1.11e-04	0	62	0	3819962368	48	4842
2026-01-19 12:41:21.76	337.45	9.54	-39.1	-41.7	11.9	5.73e-04	0	62	0	3841982464	48	5242
2026-01-19 12:41:25.79	337.61	9.21	-39.3	-42.2	11.2	1.56e-03	0	62	0	3865051136	49	5251
2026-01-19 12:41:29.83	337.78	8.88	-39.1	-42.0	11.3	1.45e-03	0	62	0	3887071232	49	5111
2026-01-19 12:41:33.86	337.94	8.56	-38.8	-41.4	11.7	7.82e-04	0	62	0	3910139904	49	4793
2026-01-19 12:41:37.90	338.09	8.24	-38.7	-41.4	11.7	7.97e-04	0	62	0	3933208576	49	4774
2026-01-19 12:41:41.95	338.25	7.92	-44.4	-55.9	3.8	8.46e-01	0	62	104	3947888640	59	14320
2026-01-19 12:41:45.99	338.40	7.61	-45.2	-56.9	3.8	8.47e-01	0	62	104	3947888640	61	14285
2026-01-19 12:41:50.03	338.55	7.30	-45.4	-57.1	3.8	8.46e-01	0	62	104	3947888640	61	14589
2026-01-19 12:41:54.08	338.69	7.00	-45.3	-57.0	3.8	8.45e-01	0	62	104	3947888640	61	14391
2026-01-19 12:41:58.12	338.83	6.69	-45.3	-57.0	3.8	8.46e-01	0	62	104	3947888640	61	14396
2026-01-19 12:42:02.16	338.97	6.40	-45.3	-56.9	3.8	8.46e-01	0	62	104	3947888640	61	14334
2026-01-19 12:42:06.20	339.11	6.10	-45.2	-56.9	3.8	8.47e-01	0	62	104	3947888640	61	14307
2026-01-19 12:42:10.24	339.25	5.81	-45.2	-56.9	3.8	8.46e-01	0	62	104	3947888640	61	14300
2026-01-19 12:42:14.28	339.38	5.52	-45.2	-56.9	3.8	8.45e-01	0	62	104	3947888640	61	14275
2026-01-19 12:42:18.32	339.51	5.24	-45.2	-56.9	3.8	8.46e-01	0	62	104	3947888640	61	14285
2026-01-19 12:42:22.37	339.64	4.96	-45.2	-56.9	3.8	8.46e-01	0	62	104	3947888640	61	14307
2026-01-19 12:42:26.41	339.77	4.68	-45.2	-56.9	3.8	8.45e-01	0	62	104	3947888640	61	14251
2026-01-19 12:42:30.45	339.89	4.40	-45.1	-56.9	3.8	8.46e-01	0	62	104	3947888640	61	14214
2026-01-19 12:42:34.49	340.01	4.13	-45.2	-56.9	3.8	8.45e-01	0	62	104	3947888640	61	14289
2026-01-19 12:42:38.53	340.13	3.86	-45.2	-56.8	3.8	8.47e-01	0	62	104	3947888640	61	14181
2026-01-19 12:42:42.57	340.25	3.59	-45.2	-56.9	3.8	8.46e-01	0	62	104	3947888640	60	15101
2026-01-19 12:42:46.61	340.37	3.32	-45.2	-56.8	3.8	8.47e-01	0	62	104	3947888640	60	15029
2026-01-19 12:42:50.65	340.48	3.06	-45.2	-56.9	3.8	8.44e-01	0	62	104	3947888640	60	15085
2026-01-19 12:42:54.70	340.60	2.80	-45.2	-56.9	3.8	8.46e-01	0	62	104	3947888640	60	15095
2026-01-19 12:42:58.74	340.71	2.54	-45.2	-56.8	3.8	8.47e-01	0	62	104	3947888640	60	15011
2026-01-19 12:43:02.78	340.82	2.28	-45.2	-56.9	3.8	8.46e-01	0	62	104	3947888640	60	15064
2026-01-19 12:43:06.82	340.93	2.03	-45.2	-56.8	3.8	8.47e-01	0	62	104	3947888640	60	15031

#Closed at: 2026-01-19 12:43:08
#Recorded file [3947 MB]: D:/lorett/data/31039_260119_152850.dat