passes_logs/2026/01/19/R2.0S_Moscow/R2.0S_Moscow__20260119_014008_SUOMI_NPP_rec.log

#Pass ID: 20260119_014008_SUOMI NPP
#Satellite: SUOMI NPP
#Configuration: NPP
#almurnet v.1.7.20251203
#Start time: 2026-01-19 01:40:07

#Version: 2.2.20231116
#Station: R2.0S_Moscow
#Location: 37.707566 lon 55.798166 lat
#TLE: 1 37849U 11061A   26017.92342359  .00000077  00000+0  57567-4 0  9990
#TLE: 2 37849  98.7814 319.9468 0002389  58.5705 301.5704 14.19525998737125

#Time	Az	El	Level	Level2	SNR	BER	BlckErr	Temp	State	Recorded	gain1	gain2
2026-01-19 01:40:07.88	9.60	1.99	-39.7	-54.8	3.8	1.49e+00	0	52	0	0	51	19844
2026-01-19 01:40:10.90	9.38	2.15	-39.7	-54.7	3.8	1.49e+00	0	52	104	0	50	20977
2026-01-19 01:40:13.93	9.16	2.32	-39.7	-54.8	3.8	1.49e+00	0	53	104	0	50	21025
2026-01-19 01:40:16.97	8.93	2.48	-39.7	-54.7	3.8	1.49e+00	0	53	104	0	50	20996
2026-01-19 01:40:20.00	8.70	2.65	-39.7	-54.8	3.8	1.49e+00	0	53	104	0	50	21019
2026-01-19 01:40:23.03	8.47	2.81	-39.7	-54.7	3.8	1.49e+00	0	53	104	0	50	20949
2026-01-19 01:40:26.06	8.23	2.98	-39.7	-54.7	3.8	1.49e+00	0	53	104	0	50	20912
2026-01-19 01:40:29.09	7.99	3.14	-39.7	-54.7	3.8	1.49e+00	0	54	104	0	50	20965
2026-01-19 01:40:32.12	7.75	3.31	-39.7	-54.7	3.8	1.49e+00	0	54	104	0	50	20954
2026-01-19 01:40:35.15	7.51	3.48	-39.7	-54.7	3.8	1.49e+00	0	54	104	0	50	20967
2026-01-19 01:40:38.18	7.26	3.65	-39.7	-54.7	3.8	1.49e+00	0	54	104	0	50	20945
2026-01-19 01:40:41.22	7.01	3.82	-39.7	-54.7	3.8	1.49e+00	0	54	104	0	50	20974
2026-01-19 01:40:44.25	6.76	3.99	-39.7	-54.7	3.8	1.49e+00	0	55	104	0	50	20970
2026-01-19 01:40:47.28	6.50	4.16	-39.7	-54.7	3.8	1.49e+00	0	55	104	0	50	20920
2026-01-19 01:40:50.31	6.24	4.33	-39.7	-54.7	3.8	1.49e+00	0	55	104	0	50	20953
2026-01-19 01:40:53.34	5.98	4.50	-39.7	-54.7	3.8	1.49e+00	0	55	104	0	50	20893
2026-01-19 01:40:56.36	5.71	4.67	-39.7	-54.7	3.8	1.49e+00	0	55	104	0	50	20921
2026-01-19 01:40:59.39	5.44	4.84	-39.7	-54.7	3.8	1.49e+00	0	55	104	0	50	20958
2026-01-19 01:41:02.43	5.17	5.01	-39.7	-54.7	3.8	1.49e+00	0	56	104	0	50	20894
2026-01-19 01:41:05.46	4.90	5.19	-39.7	-54.7	3.8	1.49e+00	0	56	104	0	50	20932
2026-01-19 01:41:08.49	4.62	5.36	-39.7	-54.7	3.8	1.49e+00	0	56	104	0	50	20935
2026-01-19 01:41:11.52	4.33	5.53	-39.7	-54.7	3.8	1.49e+00	0	56	104	0	50	20959
2026-01-19 01:41:14.55	4.05	5.71	-39.7	-54.7	3.8	1.49e+00	0	56	104	0	50	20918
2026-01-19 01:41:17.58	3.76	5.88	-39.7	-54.7	3.8	1.49e+00	0	56	104	0	50	20946
2026-01-19 01:41:20.61	3.46	6.06	-39.7	-54.7	3.8	1.49e+00	0	56	104	0	50	20962
2026-01-19 01:41:23.64	3.17	6.23	-39.7	-54.7	3.8	1.49e+00	0	57	104	0	50	20969
2026-01-19 01:41:26.68	2.87	6.41	-39.7	-54.7	3.8	1.49e+00	0	57	104	0	50	20909
2026-01-19 01:41:29.71	2.56	6.59	-39.7	-54.7	3.8	1.49e+00	0	57	104	0	50	20941
2026-01-19 01:41:32.74	2.25	6.76	-39.7	-54.7	3.8	1.49e+00	0	57	104	0	50	20948
2026-01-19 01:41:35.77	1.94	6.94	-39.7	-54.7	3.8	1.49e+00	0	57	104	0	50	20938
2026-01-19 01:41:38.80	1.62	7.12	-39.7	-54.7	3.8	1.49e+00	0	57	104	0	50	20970
2026-01-19 01:41:41.83	1.30	7.30	-39.7	-54.7	3.8	1.49e+00	0	57	104	0	50	20922
2026-01-19 01:41:44.86	0.98	7.48	-39.7	-54.7	3.8	1.49e+00	0	57	104	0	50	20959
2026-01-19 01:41:47.89	0.65	7.65	-39.7	-54.7	3.8	1.49e+00	0	58	104	0	50	20945
2026-01-19 01:41:50.92	0.32	7.83	-39.7	-54.7	3.8	1.49e+00	0	58	104	0	50	20952
2026-01-19 01:41:53.95	359.98	8.01	-39.7	-54.7	3.8	1.49e+00	0	58	104	0	50	20957
2026-01-19 01:41:56.98	359.64	8.19	-39.6	-54.8	3.8	1.49e+00	0	58	104	0	50	21129
2026-01-19 01:42:00.01	359.29	8.37	-39.7	-54.9	3.8	1.49e+00	0	58	104	0	50	21375
2026-01-19 01:42:03.04	358.94	8.55	-39.6	-54.9	3.8	1.49e+00	0	58	104	0	50	21271
2026-01-19 01:42:06.07	358.59	8.73	-39.7	-54.8	3.8	1.49e+00	0	58	104	0	50	21165
2026-01-19 01:42:09.10	358.23	8.92	-39.6	-54.7	3.8	1.49e+00	0	58	104	0	50	20866
2026-01-19 01:42:12.13	357.86	9.10	-39.8	-54.8	3.8	1.49e+00	0	58	104	0	50	21245
2026-01-19 01:42:15.16	357.50	9.28	-39.8	-54.8	3.8	1.49e+00	0	58	104	0	50	21025
2026-01-19 01:42:18.19	357.12	9.46	-39.6	-54.8	3.8	1.49e+00	0	58	104	0	50	21136
2026-01-19 01:42:21.21	356.75	9.64	-39.6	-54.7	3.8	1.49e+00	0	59	104	0	50	20918
2026-01-19 01:42:24.24	356.36	9.82	-40.0	-55.0	3.8	1.49e+00	0	59	104	0	50	21614
2026-01-19 01:42:27.27	355.97	10.00	-39.6	-54.8	3.8	1.49e+00	0	59	104	0	50	21140
2026-01-19 01:42:30.30	355.58	10.19	-40.3	-55.1	3.8	1.49e+00	0	59	104	0	51	20611
2026-01-19 01:42:33.33	355.18	10.37	-40.2	-54.9	3.8	1.49e+00	0	59	104	0	51	20204
2026-01-19 01:42:36.36	354.78	10.55	-40.3	-55.2	3.8	1.49e+00	0	59	104	0	51	20801
2026-01-19 01:42:39.38	354.37	10.73	-40.3	-55.1	3.8	1.49e+00	0	59	104	0	51	20706
2026-01-19 01:42:42.41	353.96	10.91	-40.3	-55.1	3.8	1.49e+00	0	59	104	0	51	20635
2026-01-19 01:42:45.44	353.54	11.10	-40.4	-55.1	3.8	1.49e+00	0	59	104	0	51	20544
2026-01-19 01:42:48.47	353.12	11.28	-40.2	-55.2	3.8	1.49e+00	0	59	104	0	51	20787
2026-01-19 01:42:51.50	352.69	11.46	-40.2	-55.1	3.8	1.49e+00	0	59	104	0	52	19578
2026-01-19 01:42:54.53	352.25	11.64	-40.8	-55.4	3.8	1.49e+00	0	59	104	0	52	20297
2026-01-19 01:42:57.55	351.81	11.82	-40.7	-55.4	3.8	1.49e+00	0	59	104	0	52	20082
2026-01-19 01:43:00.58	351.37	12.00	-40.6	-55.3	3.8	1.49e+00	0	59	104	0	52	19947
2026-01-19 01:43:03.61	350.91	12.18	-40.6	-55.4	3.8	1.49e+00	0	59	104	0	52	20079
2026-01-19 01:43:06.64	350.46	12.36	-40.8	-55.4	3.8	1.49e+00	0	59	104	0	52	20235
2026-01-19 01:43:09.66	350.00	12.54	-40.8	-55.4	3.8	1.49e+00	0	59	104	0	52	20096
2026-01-19 01:43:12.70	349.52	12.72	-40.8	-55.5	3.8	1.49e+00	0	59	104	0	52	20513
2026-01-19 01:43:15.73	349.05	12.89	-40.9	-55.7	3.8	1.49e+00	0	59	104	0	52	20944
2026-01-19 01:43:18.76	348.57	13.07	-41.0	-55.8	3.8	1.49e+00	0	59	104	0	53	19953
2026-01-19 01:43:21.78	348.08	13.25	-41.2	-55.9	3.8	1.49e+00	0	60	104	0	53	20230
2026-01-19 01:43:24.81	347.59	13.42	-41.2	-55.9	3.8	1.49e+00	0	60	104	0	53	20076
2026-01-19 01:43:27.84	347.09	13.60	-41.4	-56.1	3.8	1.49e+00	0	60	104	0	53	20573
2026-01-19 01:43:30.87	346.59	13.77	-41.2	-55.9	3.8	1.49e+00	0	60	104	0	53	20237
2026-01-19 01:43:33.90	346.08	13.94	-40.8	-55.5	3.8	1.49e+00	0	60	104	0	53	19222
2026-01-19 01:43:36.93	345.56	14.11	-40.9	-55.6	3.8	1.49e+00	0	60	104	0	53	19410
2026-01-19 01:43:39.96	345.04	14.28	-41.0	-55.7	3.8	1.49e+00	0	60	104	0	53	19817
2026-01-19 01:43:42.99	344.51	14.45	-40.8	-55.5	3.8	1.49e+00	0	60	104	0	53	19202
2026-01-19 01:43:46.02	343.98	14.62	-40.7	-55.4	3.8	1.49e+00	0	60	104	0	53	19073
2026-01-19 01:43:49.05	343.43	14.79	-40.7	-55.4	3.8	1.49e+00	0	60	104	0	53	19041
2026-01-19 01:43:52.07	342.89	14.95	-40.8	-55.4	3.8	1.49e+00	0	60	104	0	53	19090
2026-01-19 01:43:55.10	342.34	15.12	-40.8	-55.4	3.8	1.49e+00	0	60	104	0	53	19159
2026-01-19 01:43:58.13	341.78	15.28	-40.6	-55.5	3.8	1.49e+00	0	60	104	0	53	19375
2026-01-19 01:44:01.16	341.21	15.44	-40.7	-55.4	3.8	1.49e+00	0	60	104	0	53	19131
2026-01-19 01:44:04.19	340.64	15.60	-40.6	-55.6	3.8	1.49e+00	0	60	104	0	53	19408
2026-01-19 01:44:07.22	340.06	15.75	-40.6	-55.6	3.8	1.49e+00	0	60	104	0	53	19580
2026-01-19 01:44:10.24	339.48	15.91	-42.4	-53.1	4.3	1.44e+00	0	60	0	0	55	13092
2026-01-19 01:44:13.27	338.89	16.06	-41.5	-48.0	7.8	1.20e-01	0	60	0	2097152	54	7650
2026-01-19 01:44:16.30	338.29	16.21	-41.1	-46.3	10.0	9.66e-03	0	60	0	7340032	54	6293
2026-01-19 01:44:19.33	337.69	16.36	-41.6	-46.6	10.1	5.08e-03	0	60	0	13631488	54	6526
2026-01-19 01:44:22.36	337.08	16.50	-41.2	-45.4	11.6	6.55e-04	0	60	0	18874368	54	5715
2026-01-19 01:44:25.39	336.46	16.65	-41.6	-46.1	11.0	1.62e-03	0	60	0	24117248	54	6197
2026-01-19 01:44:28.42	335.84	16.79	-41.7	-46.3	11.0	2.31e-03	0	61	0	30408704	54	6287
2026-01-19 01:44:31.45	335.22	16.92	-41.5	-45.6	11.8	4.99e-04	0	60	0	35651584	54	5791
2026-01-19 01:44:34.48	334.59	17.06	-41.6	-45.7	11.8	3.87e-04	0	60	0	41943040	54	5861
2026-01-19 01:44:37.50	333.95	17.19	-41.5	-45.5	12.0	2.70e-04	0	60	0	47185920	54	5763
2026-01-19 01:44:40.53	333.31	17.32	-41.1	-44.6	13.0	4.11e-05	0	60	0	52428800	54	5189
2026-01-19 01:44:43.56	332.66	17.45	-41.2	-44.7	12.9	4.19e-05	0	60	0	58720256	54	5258
2026-01-19 01:44:46.59	332.00	17.57	-41.5	-45.4	12.3	1.53e-04	0	60	0	63963136	54	5688
2026-01-19 01:44:49.62	331.34	17.69	-41.4	-45.2	12.5	1.74e-04	0	60	0	70254592	54	5544
2026-01-19 01:44:52.64	330.68	17.80	-41.7	-45.6	12.1	2.42e-04	0	60	0	75497472	54	5829
2026-01-19 01:44:55.67	330.01	17.92	-41.9	-46.1	11.6	1.04e-03	0	60	0	80740352	54	6152
2026-01-19 01:44:58.70	329.33	18.03	-41.4	-45.1	12.8	1.34e-04	0	61	0	87031808	54	5468
2026-01-19 01:45:01.73	328.65	18.13	-41.2	-44.6	13.2	2.82e-05	0	60	0	92274688	54	5186
2026-01-19 01:45:04.76	327.97	18.23	-41.1	-44.5	13.3	1.52e-05	0	60	0	98566144	54	5130
2026-01-19 01:45:07.79	327.28	18.33	-41.1	-44.5	13.3	1.60e-05	0	61	0	103809024	54	5110
2026-01-19 01:45:10.81	326.59	18.43	-41.1	-44.4	13.4	1.14e-05	0	61	0	110100480	53	5379
2026-01-19 01:45:13.84	325.89	18.52	-41.3	-44.9	12.9	2.21e-05	0	61	0	115343360	53	5665
2026-01-19 01:45:16.87	325.19	18.60	-41.5	-45.1	12.7	9.38e-05	0	61	0	120586240	53	5823
2026-01-19 01:45:19.90	324.48	18.68	-41.5	-45.3	12.5	1.17e-04	0	61	0	126877696	53	5932
2026-01-19 01:45:22.92	323.77	18.76	-41.6	-45.3	12.5	1.24e-04	0	61	0	132120576	53	5938
2026-01-19 01:45:25.95	323.06	18.83	-42.0	-46.2	11.6	4.28e-04	0	61	0	138412032	54	6239
2026-01-19 01:45:28.98	322.34	18.90	-42.0	-46.2	11.6	6.18e-04	0	61	0	143654912	54	6204
2026-01-19 01:45:32.01	321.62	18.97	-41.8	-45.8	12.0	3.85e-04	0	61	0	148897792	54	5965
2026-01-19 01:45:35.04	320.90	19.03	-41.8	-45.7	12.1	2.58e-04	0	61	0	155189248	54	5893
2026-01-19 01:45:38.07	320.17	19.08	-42.0	-46.1	11.7	5.10e-04	0	61	0	160432128	54	6191
2026-01-19 01:45:41.10	319.44	19.13	-41.8	-45.9	11.9	7.09e-04	0	61	0	166723584	54	5999
2026-01-19 01:45:44.13	318.71	19.18	-41.9	-46.0	11.8	4.07e-04	0	61	0	171966464	54	6118
2026-01-19 01:45:47.15	317.98	19.22	-42.3	-46.9	10.9	2.47e-03	0	61	0	178257920	55	6371
2026-01-19 01:45:50.18	317.25	19.25	-42.5	-47.6	10.2	5.17e-03	0	61	0	183500800	55	6897
2026-01-19 01:45:53.21	316.51	19.28	-42.1	-46.7	11.1	1.76e-03	0	61	0	188743680	55	6204
2026-01-19 01:45:56.24	315.77	19.31	-42.0	-46.3	11.5	8.94e-04	0	61	0	195035136	55	5958
2026-01-19 01:45:59.27	315.03	19.33	-42.2	-46.9	10.8	2.07e-03	0	61	0	200278016	55	6376
2026-01-19 01:46:02.30	314.29	19.35	-42.2	-46.8	11.0	1.70e-03	0	61	0	206569472	55	6319
2026-01-19 01:46:05.33	313.55	19.36	-41.8	-45.9	11.8	8.62e-04	0	61	0	211812352	55	5713
2026-01-19 01:46:08.36	312.81	19.37	-41.9	-46.0	11.8	2.98e-04	0	61	0	217055232	55	5771
2026-01-19 01:46:11.39	312.07	19.37	-41.9	-46.2	11.5	6.48e-04	0	61	0	223346688	55	5888
2026-01-19 01:46:14.42	311.33	19.36	-41.9	-46.1	11.6	8.00e-04	0	61	0	228589568	55	5845
2026-01-19 01:46:17.44	310.59	19.35	-41.8	-45.9	11.9	4.86e-04	0	61	0	234881024	55	5674
2026-01-19 01:46:20.47	309.85	19.34	-41.7	-45.7	12.0	2.95e-04	0	61	0	240123904	55	5559
2026-01-19 01:46:23.50	309.11	19.32	-42.0	-46.3	11.4	8.32e-04	0	61	0	246415360	55	5955
2026-01-19 01:46:26.53	308.37	19.30	-42.3	-47.1	10.7	3.33e-03	0	61	0	251658240	55	6509
2026-01-19 01:46:29.56	307.63	19.27	-42.5	-47.7	10.0	8.57e-03	0	61	0	256901120	55	6990
2026-01-19 01:46:32.59	306.89	19.24	-42.2	-46.8	10.9	2.83e-03	0	61	0	263192576	55	6283
2026-01-19 01:46:35.61	306.16	19.20	-41.4	-45.1	12.7	1.08e-04	0	61	0	268435456	54	5470
2026-01-19 01:46:38.64	305.43	19.15	-41.3	-44.8	13.0	2.74e-05	0	61	0	274726912	54	5288
2026-01-19 01:46:41.67	304.70	19.11	-41.4	-45.1	12.7	9.76e-05	0	61	0	279969792	54	5517
2026-01-19 01:46:44.70	303.97	19.05	-41.4	-45.0	12.8	7.32e-05	0	61	0	285212672	54	5425
2026-01-19 01:46:47.73	303.24	19.00	-41.6	-45.4	12.4	8.01e-05	0	61	0	291504128	54	5666
2026-01-19 01:46:50.76	302.52	18.93	-41.2	-44.7	13.1	4.65e-05	0	61	0	296747008	54	5249
2026-01-19 01:46:53.79	301.80	18.87	-41.0	-44.2	13.5	8.30e-06	0	61	0	303038464	53	5270
2026-01-19 01:46:56.81	301.09	18.80	-40.9	-44.1	13.7	5.30e-06	0	61	0	308281344	53	5166
2026-01-19 01:46:59.84	300.37	18.72	-41.2	-44.7	13.2	1.37e-05	0	61	0	314572800	53	5530
2026-01-19 01:47:02.87	299.67	18.64	-41.3	-44.9	12.9	4.88e-05	0	61	0	319815680	53	5688
2026-01-19 01:47:05.90	298.96	18.56	-41.6	-45.5	12.3	1.68e-04	0	61	0	325058560	53	6062
2026-01-19 01:47:08.93	298.26	18.47	-41.5	-45.3	12.4	1.94e-04	0	61	0	331350016	53	5953
2026-01-19 01:47:11.96	297.56	18.38	-41.7	-45.7	12.0	2.53e-04	0	61	0	336592896	53	6231
2026-01-19 01:47:14.98	296.87	18.28	-42.2	-46.8	10.9	1.52e-03	0	61	0	342884352	54	6674
2026-01-19 01:47:18.01	296.18	18.18	-42.4	-47.3	10.4	4.41e-03	0	61	0	348127232	55	6677
2026-01-19 01:47:21.04	295.50	18.08	-42.2	-46.8	10.9	2.29e-03	0	61	0	353370112	55	6302
2026-01-19 01:47:24.07	294.82	17.97	-42.1	-46.6	11.0	1.68e-03	0	61	0	359661568	55	6194
2026-01-19 01:47:27.10	294.14	17.86	-42.0	-46.3	11.4	7.90e-04	0	61	0	364904448	55	5957
2026-01-19 01:47:30.13	293.47	17.75	-42.0	-46.4	11.3	9.57e-04	0	61	0	371195904	55	6014
2026-01-19 01:47:33.16	292.81	17.63	-42.2	-46.7	11.0	1.68e-03	0	61	0	376438784	55	6222
2026-01-19 01:47:36.18	292.15	17.51	-41.9	-46.1	11.6	7.51e-04	0	61	0	382730240	55	5797
2026-01-19 01:47:39.21	291.50	17.38	-41.9	-46.1	11.6	8.12e-04	0	61	0	387973120	55	5830
2026-01-19 01:47:42.24	290.85	17.25	-41.8	-46.0	11.6	5.21e-04	0	61	0	393216000	55	5761
2026-01-19 01:47:45.27	290.21	17.12	-41.8	-45.9	11.7	5.19e-04	0	61	0	399507456	55	5713
2026-01-19 01:47:48.30	289.57	16.99	-41.6	-45.5	12.1	2.75e-04	0	61	0	404750336	55	5429
2026-01-19 01:47:51.32	288.94	16.85	-41.3	-44.9	12.7	8.01e-05	0	61	0	411041792	54	5393
2026-01-19 01:47:54.35	288.32	16.71	-41.2	-44.8	12.8	8.92e-05	0	61	0	416284672	54	5323
2026-01-19 01:47:57.38	287.70	16.57	-41.4	-45.2	12.4	1.53e-04	0	61	0	421527552	54	5541
2026-01-19 01:48:00.41	287.08	16.43	-42.0	-46.4	11.2	1.18e-03	0	61	0	427819008	54	6415
2026-01-19 01:48:03.44	286.47	16.28	-42.3	-47.4	10.1	6.37e-03	0	61	0	433061888	55	6751
2026-01-19 01:48:06.46	285.87	16.13	-42.1	-46.9	10.5	3.79e-03	0	61	0	439353344	55	6380
2026-01-19 01:48:09.49	285.28	15.98	-42.1	-46.8	10.7	3.16e-03	0	61	0	444596224	55	6295
2026-01-19 01:48:12.53	284.69	15.82	-42.3	-47.4	10.1	5.42e-03	0	61	0	450887680	55	6731
2026-01-19 01:48:15.56	284.10	15.67	-42.2	-47.1	10.5	6.59e-03	0	61	0	456130560	55	6525
2026-01-19 01:48:18.58	283.53	15.51	-41.9	-46.4	11.1	2.90e-03	0	62	0	461373440	55	6010
2026-01-19 01:48:21.61	282.96	15.35	-41.8	-46.3	11.0	1.88e-03	0	61	0	467664896	55	5975
2026-01-19 01:48:24.64	282.39	15.19	-41.7	-46.1	11.3	1.39e-03	0	61	0	472907776	55	5801
2026-01-19 01:48:27.67	281.83	15.03	-41.8	-46.3	11.1	1.38e-03	0	61	0	479199232	55	5954
2026-01-19 01:48:30.70	281.28	14.86	-42.1	-47.1	10.2	5.35e-03	0	61	0	484442112	55	6538
2026-01-19 01:48:33.73	280.73	14.70	-42.0	-46.7	10.7	3.32e-03	0	61	0	489684992	55	6227
2026-01-19 01:48:36.76	280.19	14.53	-41.8	-46.1	11.2	1.32e-03	0	61	0	495976448	55	5850
2026-01-19 01:48:39.79	279.66	14.36	-41.9	-46.6	10.7	2.12e-03	0	61	0	501219328	55	6161
2026-01-19 01:48:42.82	279.13	14.19	-42.2	-47.3	9.9	7.33e-03	0	61	0	507510784	55	6718
2026-01-19 01:48:45.84	278.61	14.02	-42.6	-48.7	8.6	3.52e-02	0	61	0	512753664	55	7833
2026-01-19 01:48:48.87	278.09	13.85	-42.8	-49.0	8.4	4.55e-02	0	61	0	519045120	56	7658
2026-01-19 01:48:51.90	277.58	13.67	-42.7	-48.6	8.8	3.36e-02	0	61	0	524288000	56	7347
2026-01-19 01:48:54.93	277.08	13.50	-42.6	-48.3	9.0	2.56e-02	0	62	0	529530880	56	7110
2026-01-19 01:48:57.95	276.58	13.32	-42.5	-48.0	9.3	1.86e-02	0	61	0	535822336	56	6861
2026-01-19 01:49:00.98	276.09	13.15	-42.3	-47.4	10.0	7.64e-03	0	62	0	541065216	56	6364
2026-01-19 01:49:04.01	275.60	12.97	-42.6	-48.4	8.9	2.04e-02	0	62	0	547356672	56	7133
2026-01-19 01:49:07.04	275.12	12.79	-42.5	-48.0	9.3	2.14e-02	0	62	0	552599552	56	6861
2026-01-19 01:49:10.07	274.65	12.61	-42.2	-47.1	10.1	8.46e-03	0	61	0	557842432	56	6187
2026-01-19 01:49:13.10	274.18	12.43	-41.8	-46.4	10.6	3.90e-03	0	62	0	564133888	55	6057
2026-01-19 01:49:16.12	273.72	12.25	-41.8	-46.5	10.5	3.68e-03	0	62	0	569376768	55	6114
2026-01-19 01:49:19.15	273.26	12.07	-41.9	-47.0	10.0	7.01e-03	0	61	0	575668224	55	6446
2026-01-19 01:49:22.18	272.81	11.89	-42.1	-47.5	9.5	1.20e-02	0	62	0	580911104	55	6813
2026-01-19 01:49:25.21	272.36	11.71	-42.0	-47.3	9.6	1.32e-02	0	62	0	586153984	55	6651
2026-01-19 01:49:28.24	271.92	11.53	-41.9	-47.0	9.8	9.13e-03	0	61	0	592445440	55	6454
2026-01-19 01:49:31.27	271.49	11.35	-41.7	-46.6	10.2	6.24e-03	0	62	0	597688320	55	6174
2026-01-19 01:49:34.30	271.06	11.17	-41.4	-46.1	10.6	3.38e-03	0	62	0	603979776	54	6157
2026-01-19 01:49:37.33	270.64	10.99	-41.2	-45.5	11.3	1.28e-03	0	62	0	609222656	54	5729
2026-01-19 01:49:40.36	270.22	10.80	-40.9	-45.0	11.7	4.55e-04	0	62	0	615514112	53	5728
2026-01-19 01:49:43.39	269.80	10.62	-41.1	-45.3	11.4	9.87e-04	0	62	0	620756992	53	5934
2026-01-19 01:49:46.41	269.40	10.44	-41.3	-45.9	10.6	2.92e-03	0	61	0	625999872	53	6400
2026-01-19 01:49:49.44	268.99	10.26	-41.2	-45.7	10.8	3.18e-03	0	62	0	632291328	53	6265
2026-01-19 01:49:52.47	268.59	10.07	-41.2	-45.8	10.7	2.95e-03	0	61	0	637534208	53	6315
2026-01-19 01:49:55.50	268.20	9.89	-41.2	-45.9	10.4	4.07e-03	0	62	0	643825664	53	6393
2026-01-19 01:49:58.52	267.81	9.71	-41.3	-46.2	10.0	7.46e-03	0	62	0	649068544	53	6629
2026-01-19 01:50:01.55	267.43	9.53	-41.4	-46.8	9.3	1.54e-02	0	61	0	654311424	53	7099
2026-01-19 01:50:04.58	267.05	9.35	-41.4	-47.1	8.8	2.66e-02	0	62	0	660602880	53	7324
2026-01-19 01:50:07.61	266.68	9.16	-41.5	-47.4	8.5	4.38e-02	0	62	0	665845760	53	7557
2026-01-19 01:50:10.64	266.31	8.98	-41.5	-47.7	8.1	5.95e-02	0	62	0	672137216	53	7881
2026-01-19 01:50:13.66	265.95	8.80	-41.6	-48.4	7.4	1.02e-01	0	62	0	677380096	53	8465
2026-01-19 01:50:16.69	265.59	8.62	-41.7	-48.8	7.0	1.51e-01	0	62	0	683671552	54	8408
2026-01-19 01:50:19.72	265.23	8.44	-41.3	-52.7	4.2	5.50e-01	0	61	0	688914432	54	13242
2026-01-19 01:50:22.75	264.88	8.26	-41.8	-48.7	7.2	1.96e-01	0	62	0	691011584	55	7883
2026-01-19 01:50:25.78	264.53	8.08	-41.9	-49.3	6.6	2.20e-01	0	62	0	696254464	55	8427
2026-01-19 01:50:28.81	264.19	7.90	-44.7	-59.0	3.8	1.49e+00	0	62	104	699400192	59	20453
2026-01-19 01:50:31.84	263.85	7.72	-45.1	-59.7	3.8	1.49e+00	0	61	104	699400192	60	20905
2026-01-19 01:50:34.87	263.52	7.54	-45.3	-59.9	3.8	1.49e+00	0	62	104	699400192	61	20101
2026-01-19 01:50:37.91	263.19	7.36	-45.2	-59.8	3.8	1.49e+00	0	62	104	699400192	61	19856
2026-01-19 01:50:40.94	262.86	7.18	-45.2	-59.8	3.8	1.49e+00	0	62	104	699400192	61	19924
2026-01-19 01:50:43.97	262.54	7.00	-45.3	-59.8	3.8	1.49e+00	0	62	104	699400192	61	20013
2026-01-19 01:50:47.00	262.22	6.82	-45.2	-59.8	3.8	1.49e+00	0	62	104	699400192	61	19890
2026-01-19 01:50:50.03	261.91	6.65	-45.3	-59.8	3.8	1.49e+00	0	62	104	699400192	61	19954
2026-01-19 01:50:53.07	261.60	6.47	-45.2	-59.7	3.8	1.49e+00	0	62	104	699400192	61	19759
2026-01-19 01:50:56.10	261.29	6.29	-45.2	-59.7	3.8	1.49e+00	0	62	104	699400192	61	19784
2026-01-19 01:50:59.13	260.99	6.11	-45.2	-59.7	3.8	1.49e+00	0	62	104	699400192	61	19810
2026-01-19 01:51:02.16	260.69	5.94	-45.2	-59.7	3.8	1.49e+00	0	62	104	699400192	61	19761
2026-01-19 01:51:05.19	260.40	5.76	-45.2	-59.7	3.8	1.49e+00	0	62	104	699400192	61	19748
2026-01-19 01:51:08.22	260.11	5.59	-45.2	-59.7	3.8	1.49e+00	0	62	104	699400192	61	19692
2026-01-19 01:51:11.25	259.82	5.41	-45.2	-59.7	3.8	1.49e+00	0	62	104	699400192	61	19619
2026-01-19 01:51:14.29	259.54	5.24	-45.2	-59.7	3.8	1.49e+00	0	62	104	699400192	61	19678
2026-01-19 01:51:17.32	259.26	5.07	-45.2	-59.7	3.8	1.49e+00	0	62	104	699400192	61	19660
2026-01-19 01:51:20.35	258.98	4.89	-45.2	-59.7	3.8	1.49e+00	0	62	104	699400192	61	19640
2026-01-19 01:51:23.38	258.71	4.72	-45.2	-59.7	3.8	1.49e+00	0	62	104	699400192	61	19705
2026-01-19 01:51:26.41	258.44	4.55	-45.1	-59.7	3.8	1.49e+00	0	62	104	699400192	61	19700
2026-01-19 01:51:29.45	258.17	4.38	-45.1	-59.7	3.8	1.49e+00	0	62	104	699400192	61	19674
2026-01-19 01:51:32.48	257.90	4.21	-45.2	-59.7	3.8	1.49e+00	0	62	104	699400192	61	19685
2026-01-19 01:51:35.51	257.64	4.04	-45.1	-59.7	3.8	1.49e+00	0	62	104	699400192	61	19667
2026-01-19 01:51:38.54	257.38	3.87	-45.1	-59.7	3.8	1.49e+00	0	62	104	699400192	61	19629
2026-01-19 01:51:41.57	257.13	3.70	-45.1	-59.7	3.8	1.49e+00	0	62	104	699400192	61	19616
2026-01-19 01:51:44.61	256.88	3.53	-45.1	-59.7	3.8	1.49e+00	0	62	104	699400192	61	19652
2026-01-19 01:51:47.64	256.63	3.36	-45.1	-59.7	3.8	1.49e+00	0	62	104	699400192	61	19646
2026-01-19 01:51:50.67	256.38	3.19	-45.1	-59.7	3.8	1.49e+00	0	62	104	699400192	61	19615
2026-01-19 01:51:53.70	256.14	3.02	-45.1	-59.7	3.8	1.49e+00	0	62	104	699400192	61	19676
2026-01-19 01:51:56.73	255.90	2.86	-45.1	-59.7	3.8	1.49e+00	0	62	104	699400192	61	19639
2026-01-19 01:51:59.77	255.66	2.69	-45.1	-59.7	3.8	1.49e+00	0	62	104	699400192	61	19725
2026-01-19 01:52:02.80	255.43	2.52	-45.1	-59.6	3.8	1.49e+00	0	62	104	699400192	61	19593
2026-01-19 01:52:05.83	255.19	2.36	-45.1	-59.7	3.8	1.49e+00	0	61	104	699400192	61	19686
2026-01-19 01:52:08.86	254.96	2.19	-45.1	-59.7	3.8	1.49e+00	0	62	104	699400192	61	19615
2026-01-19 01:52:11.89	254.74	2.03	-45.1	-59.7	3.8	1.49e+00	0	62	104	699400192	61	19637

#Closed at: 2026-01-19 01:52:13
#Recorded file [699 MB]: D:/lorett/data/31039_260119_044007.dat