passes_logs/2026/01/19/R2.0S_Moscow/R2.0S_Moscow__20260119_231102_NOAA_21_JPSS-2_rec.log

#Pass ID: 20260119_231102_NOAA 21 (JPSS-2)
#Satellite: NOAA 21 (JPSS-2)
#Configuration: NOAA-21
#almurnet v.1.7.20251203
#Start time: 2026-01-19 23:11:01

#Version: 2.2.20231116
#Station: R2.0S_Moscow
#Location: 37.707566 lon 55.798166 lat
#TLE: 1 54234U 22150A   26019.31231101  .00000073  00000+0  55355-4 0  9994
#TLE: 2 54234  98.7504 320.1599 0000604 258.3686 101.7423 14.19535697165426

#Time	Az	El	Level	Level2	SNR	BER	BlckErr	Temp	State	Recorded	gain1	gain2
2026-01-19 23:11:01.83	18.47	1.99	-41.8	-54.5	3.8	1.49e+00	0	53	0	0	55	15239
2026-01-19 23:11:05.88	18.58	2.24	-41.8	-54.5	3.8	1.49e+00	0	53	104	0	54	16194
2026-01-19 23:11:09.92	18.68	2.50	-41.8	-54.4	3.8	1.49e+00	0	54	104	0	54	16123
2026-01-19 23:11:13.96	18.79	2.76	-41.8	-54.5	3.8	1.49e+00	0	54	104	0	54	16148
2026-01-19 23:11:18.00	18.90	3.02	-41.8	-54.5	3.8	1.49e+00	0	54	104	0	54	16196
2026-01-19 23:11:22.04	19.01	3.28	-41.8	-54.5	3.8	1.49e+00	0	54	104	0	54	16189
2026-01-19 23:11:26.08	19.12	3.55	-41.7	-54.5	3.8	1.49e+00	0	55	104	0	54	16172
2026-01-19 23:11:30.12	19.23	3.82	-41.7	-54.5	3.8	1.49e+00	0	55	104	0	54	16159
2026-01-19 23:11:34.16	19.35	4.09	-41.7	-54.5	3.8	1.49e+00	0	55	104	0	54	16174
2026-01-19 23:11:38.21	19.46	4.36	-41.7	-54.5	3.8	1.49e+00	0	55	104	0	54	16131
2026-01-19 23:11:42.25	19.58	4.64	-41.7	-54.5	3.8	1.49e+00	0	56	104	0	54	16143
2026-01-19 23:11:46.29	19.70	4.92	-41.8	-54.5	3.8	1.49e+00	0	56	104	0	54	16181
2026-01-19 23:11:50.33	19.82	5.20	-41.7	-54.5	3.8	1.49e+00	0	56	104	0	54	16159
2026-01-19 23:11:54.38	19.95	5.48	-41.8	-54.5	3.8	1.49e+00	0	56	104	0	54	16129
2026-01-19 23:11:58.42	20.08	5.77	-41.7	-54.5	3.8	1.49e+00	0	56	104	0	54	16162
2026-01-19 23:12:02.46	20.20	6.06	-41.8	-54.5	3.8	1.49e+00	0	57	104	0	54	16165
2026-01-19 23:12:06.50	20.33	6.36	-41.8	-54.5	3.8	1.49e+00	0	57	104	0	54	16137
2026-01-19 23:12:10.54	20.47	6.65	-41.8	-54.5	3.8	1.49e+00	0	57	104	0	54	16159
2026-01-19 23:12:14.58	20.60	6.96	-41.7	-54.4	3.8	1.49e+00	0	57	104	0	54	16068
2026-01-19 23:12:18.63	20.74	7.26	-41.7	-54.3	3.8	1.49e+00	0	57	104	0	54	15786
2026-01-19 23:12:22.67	20.88	7.57	-41.6	-53.2	3.8	1.49e+00	0	57	104	0	54	13927
2026-01-19 23:12:26.71	21.03	7.88	-41.0	-48.5	5.2	6.71e-01	0	57	0	1048576	54	8117
2026-01-19 23:12:30.75	21.17	8.19	-41.6	-53.6	3.8	1.01e+00	0	58	104	12582912	53	15530
2026-01-19 23:12:34.79	21.32	8.51	-40.7	-45.4	8.4	2.52e-01	0	58	0	18874368	52	6392
2026-01-19 23:12:38.82	21.47	8.84	-40.2	-43.6	10.6	3.62e-03	0	58	0	31457280	52	5211
2026-01-19 23:12:42.86	21.63	9.16	-40.2	-43.6	10.8	2.73e-03	0	58	0	44040192	52	5183
2026-01-19 23:12:46.90	21.78	9.49	-40.3	-43.8	10.8	1.95e-03	0	58	0	56623104	52	5286
2026-01-19 23:12:50.94	21.94	9.83	-40.3	-43.6	11.1	1.41e-03	0	59	0	69206016	52	5193
2026-01-19 23:12:54.98	22.11	10.17	-40.4	-43.6	11.2	1.34e-03	0	59	0	81788928	52	5177
2026-01-19 23:12:59.03	22.28	10.52	-40.3	-43.4	11.5	7.34e-04	0	59	0	94371840	52	5043
2026-01-19 23:13:03.07	22.45	10.86	-40.3	-43.3	11.7	5.61e-04	0	59	0	106954752	52	5006
2026-01-19 23:13:07.10	22.62	11.22	-40.3	-43.3	11.8	5.15e-04	0	59	0	119537664	52	4995
2026-01-19 23:13:11.14	22.80	11.58	-40.4	-43.3	11.8	4.50e-04	0	59	0	133169152	52	5028
2026-01-19 23:13:15.19	22.99	11.94	-40.3	-43.2	12.0	3.40e-04	0	59	0	145752064	52	4963
2026-01-19 23:13:19.22	23.17	12.31	-40.2	-43.0	12.2	2.53e-04	0	59	0	158334976	52	4852
2026-01-19 23:13:23.26	23.36	12.69	-40.2	-42.9	12.4	1.44e-04	0	59	0	170917888	52	4800
2026-01-19 23:13:27.29	23.56	13.07	-40.2	-43.0	12.4	1.34e-04	0	60	0	183500800	52	4834
2026-01-19 23:13:31.33	23.76	13.45	-40.2	-42.9	12.6	1.07e-04	0	59	0	196083712	52	4774
2026-01-19 23:13:35.37	23.97	13.85	-40.2	-42.9	12.6	8.46e-05	0	60	0	208666624	52	4774
2026-01-19 23:13:39.41	24.18	14.24	-40.2	-42.8	12.7	7.09e-05	0	60	0	221249536	52	4745
2026-01-19 23:13:43.44	24.39	14.65	-40.2	-42.9	12.7	8.69e-05	0	60	0	233832448	52	4763
2026-01-19 23:13:47.49	24.61	15.06	-40.2	-42.8	12.7	7.78e-05	0	60	0	246415360	52	4759
2026-01-19 23:13:51.53	24.84	15.48	-40.3	-42.9	12.7	8.62e-05	0	60	0	258998272	52	4789
2026-01-19 23:13:55.57	25.07	15.90	-40.2	-42.8	12.8	7.09e-05	0	60	0	271581184	52	4749
2026-01-19 23:13:59.60	25.31	16.34	-40.1	-42.7	12.9	4.50e-05	0	60	0	284164096	52	4678
2026-01-19 23:14:03.65	25.56	16.78	-40.3	-42.9	12.8	6.48e-05	0	60	0	296747008	52	4773
2026-01-19 23:14:07.69	25.81	17.22	-40.3	-42.9	12.8	5.26e-05	0	60	0	309329920	52	4796
2026-01-19 23:14:11.73	26.07	17.68	-40.4	-43.0	12.7	7.09e-05	0	60	0	321912832	52	4867
2026-01-19 23:14:15.77	26.34	18.14	-40.4	-43.0	12.7	6.33e-05	0	60	0	334495744	52	4864
2026-01-19 23:14:19.81	26.62	18.61	-40.5	-43.1	12.6	9.68e-05	0	60	0	347078656	52	4924
2026-01-19 23:14:23.84	26.90	19.09	-40.6	-43.3	12.5	1.04e-04	0	61	0	359661568	52	4991
2026-01-19 23:14:27.88	27.19	19.58	-40.5	-43.1	12.7	8.77e-05	0	60	0	372244480	52	4884
2026-01-19 23:14:31.93	27.49	20.08	-40.4	-43.0	12.9	4.73e-05	0	60	0	384827392	52	4831
2026-01-19 23:14:35.97	27.80	20.59	-40.2	-42.6	13.2	1.83e-05	0	60	0	397410304	52	4650
2026-01-19 23:14:40.00	28.12	21.11	-40.0	-42.3	13.6	4.50e-06	0	60	0	409993216	51	4749
2026-01-19 23:14:44.04	28.45	21.63	-39.8	-42.1	13.9	4.50e-06	0	60	0	422576128	51	4606
2026-01-19 23:14:48.07	28.79	22.17	-39.5	-41.6	14.4	7.00e-07	0	60	0	435159040	51	4372
2026-01-19 23:14:52.11	29.15	22.72	-39.4	-41.4	14.6	0.00e+00	0	61	0	447741952	50	4524
2026-01-19 23:14:56.15	29.51	23.28	-39.4	-41.4	14.7	7.00e-07	0	61	0	460324864	50	4522
2026-01-19 23:15:00.19	29.89	23.85	-39.4	-41.4	14.7	0.00e+00	0	61	0	473956352	50	4530
2026-01-19 23:15:04.23	30.28	24.43	-39.5	-41.6	14.5	0.00e+00	0	61	0	485490688	50	4609
2026-01-19 23:15:08.27	30.69	25.02	-39.6	-41.8	14.4	1.50e-06	0	61	0	499122176	50	4723
2026-01-19 23:15:12.31	31.11	25.63	-39.8	-42.0	14.2	7.00e-07	0	61	0	511705088	50	4822
2026-01-19 23:15:16.35	31.55	26.25	-39.9	-42.1	14.0	3.00e-06	0	61	0	524288000	50	4924
2026-01-19 23:15:20.38	32.00	26.88	-40.3	-42.6	13.6	9.90e-06	0	61	0	536870912	51	4906
2026-01-19 23:15:24.42	32.48	27.52	-40.3	-42.7	13.5	1.06e-05	0	61	0	549453824	51	4936
2026-01-19 23:15:28.46	32.97	28.18	-40.4	-42.8	13.4	1.90e-05	0	61	0	562036736	51	4985
2026-01-19 23:15:32.50	33.48	28.86	-40.4	-42.7	13.4	1.22e-05	0	61	0	574619648	51	4973
2026-01-19 23:15:36.54	34.01	29.54	-40.3	-42.7	13.5	1.22e-05	0	61	0	587202560	51	4954
2026-01-19 23:15:40.57	34.56	30.24	-40.4	-42.8	13.4	1.06e-05	0	61	0	599785472	51	5003
2026-01-19 23:15:44.61	35.14	30.96	-40.2	-42.5	13.7	9.10e-06	0	61	0	612368384	51	4861
2026-01-19 23:15:48.64	35.75	31.68	-40.1	-42.4	13.8	7.00e-07	0	62	0	624951296	51	4788
2026-01-19 23:15:52.68	36.38	32.43	-40.2	-42.5	13.7	3.80e-06	0	61	0	637534208	51	4858
2026-01-19 23:15:56.72	37.04	33.19	-40.3	-42.6	13.6	9.10e-06	0	61	0	650117120	51	4907
2026-01-19 23:16:00.76	37.73	33.96	-40.8	-43.3	12.9	5.49e-05	0	61	0	662700032	52	5030
2026-01-19 23:16:04.80	38.46	34.76	-41.4	-44.4	11.7	5.00e-04	0	61	0	675282944	53	5359
2026-01-19 23:16:08.84	39.22	35.56	-41.6	-44.7	11.4	9.57e-04	0	61	0	687865856	53	5576
2026-01-19 23:16:12.88	40.02	36.38	-41.4	-44.3	11.9	4.45e-04	0	61	0	700448768	53	5309
2026-01-19 23:16:16.92	40.86	37.22	-41.3	-44.2	12.0	3.38e-04	0	61	0	713031680	53	5254
2026-01-19 23:16:20.95	41.74	38.07	-41.2	-43.9	12.3	1.73e-04	0	62	0	725614592	53	5073
2026-01-19 23:16:24.99	42.68	38.93	-41.3	-44.1	12.1	2.26e-04	0	61	0	738197504	53	5177
2026-01-19 23:16:29.03	43.66	39.81	-41.6	-44.6	11.5	7.29e-04	0	61	0	750780416	53	5526
2026-01-19 23:16:33.07	44.69	40.70	-41.7	-44.8	11.4	1.02e-03	0	61	0	763363328	54	5308
2026-01-19 23:16:37.11	45.79	41.60	-41.9	-45.2	11.0	1.84e-03	0	61	0	775946240	54	5569
2026-01-19 23:16:41.15	46.94	42.52	-41.9	-45.1	11.2	1.61e-03	0	61	0	788529152	54	5469
2026-01-19 23:16:45.19	48.17	43.44	-42.2	-45.7	10.5	4.13e-03	0	62	0	801112064	55	5572
2026-01-19 23:16:49.23	49.46	44.37	-42.1	-45.4	10.8	2.41e-03	0	61	0	814743552	55	5399
2026-01-19 23:16:53.27	50.84	45.31	-41.7	-44.8	11.5	8.78e-04	0	62	0	826277888	55	5016
2026-01-19 23:16:57.31	52.29	46.25	-41.5	-44.4	11.9	5.05e-04	0	62	0	839909376	55	4786
2026-01-19 23:17:01.34	53.83	47.19	-41.9	-45.0	11.2	1.47e-03	0	62	0	852492288	54	5459
2026-01-19 23:17:05.38	55.47	48.13	-41.5	-44.4	11.9	5.40e-04	0	61	0	865075200	54	5057
2026-01-19 23:17:09.42	57.21	49.06	-41.2	-43.9	12.5	1.47e-04	0	61	0	877658112	54	4780
2026-01-19 23:17:13.45	59.05	49.98	-41.2	-43.9	12.4	1.19e-04	0	62	0	890241024	54	4793
2026-01-19 23:17:17.50	61.02	50.89	-41.3	-44.1	12.2	1.76e-04	0	62	0	902823936	54	4877
2026-01-19 23:17:21.54	63.10	51.78	-41.5	-44.4	12.0	3.84e-04	0	61	0	915406848	54	5081
2026-01-19 23:17:25.57	65.30	52.64	-41.1	-43.7	12.6	1.03e-04	0	62	0	927989760	54	4702
2026-01-19 23:17:29.61	67.64	53.47	-40.7	-43.2	13.1	2.67e-05	0	61	0	940572672	53	4660
2026-01-19 23:17:33.65	70.11	54.27	-41.1	-43.7	12.5	1.24e-04	0	61	0	953155584	53	4972
2026-01-19 23:17:37.69	72.72	55.02	-40.9	-43.4	13.0	3.66e-05	0	62	0	965738496	53	4774
2026-01-19 23:17:41.73	75.47	55.73	-40.3	-42.5	13.9	6.80e-06	0	61	0	978321408	52	4577
2026-01-19 23:17:45.76	78.34	56.37	-40.8	-43.3	13.1	3.73e-05	0	62	0	990904320	52	5005
2026-01-19 23:17:49.80	81.35	56.95	-39.9	-42.0	14.5	0.00e+00	0	62	0	1003487232	51	4590
2026-01-19 23:17:53.84	84.48	57.45	-39.7	-41.7	14.8	0.00e+00	0	62	0	1016070144	51	4411
2026-01-19 23:17:57.87	87.71	57.88	-40.3	-42.6	13.9	2.20e-06	0	62	0	1028653056	51	4899
2026-01-19 23:18:01.91	91.04	58.22	-39.9	-42.0	14.5	1.50e-06	0	62	0	1041235968	51	4587
2026-01-19 23:18:05.94	94.44	58.47	-39.8	-41.9	14.6	0.00e+00	0	61	0	1053818880	51	4494
2026-01-19 23:18:09.98	97.90	58.63	-39.8	-41.9	14.6	7.00e-07	0	62	0	1066401792	51	4508
2026-01-19 23:18:14.02	101.40	58.70	-40.0	-42.1	14.3	7.00e-07	0	62	0	1078984704	51	4616
2026-01-19 23:18:18.06	104.89	58.66	-39.6	-41.6	14.7	7.00e-07	0	62	0	1091567616	51	4359
2026-01-19 23:18:22.10	108.36	58.53	-40.0	-42.1	14.2	1.50e-06	0	62	0	1104150528	51	4629
2026-01-19 23:18:26.14	111.79	58.30	-40.1	-42.3	14.1	1.50e-06	0	62	0	1116733440	51	4722
2026-01-19 23:18:30.18	115.15	57.99	-39.8	-41.9	14.5	7.00e-07	0	62	0	1129316352	51	4498
2026-01-19 23:18:34.22	118.42	57.58	-40.1	-42.3	14.1	1.50e-06	0	62	0	1141899264	51	4726
2026-01-19 23:18:38.26	121.59	57.10	-40.3	-42.5	13.9	2.20e-06	0	62	0	1154482176	51	4850
2026-01-19 23:18:42.29	124.63	56.54	-40.4	-42.8	13.5	1.37e-05	0	62	0	1167065088	52	4736
2026-01-19 23:18:46.34	127.56	55.91	-40.9	-43.4	12.9	2.51e-05	0	62	0	1180696576	52	5079
2026-01-19 23:18:50.38	130.35	55.22	-40.5	-42.8	13.4	9.10e-06	0	62	0	1192230912	52	4754
2026-01-19 23:18:54.41	132.99	54.48	-41.0	-43.7	12.6	8.39e-05	0	62	0	1205862400	53	4930
2026-01-19 23:18:58.45	135.51	53.69	-40.7	-43.1	13.2	2.44e-05	0	62	0	1218445312	53	4609
2026-01-19 23:19:02.49	137.89	52.86	-41.3	-44.1	12.2	1.93e-04	0	62	0	1231028224	53	5163
2026-01-19 23:19:06.53	140.14	52.00	-41.1	-43.8	12.3	1.82e-04	0	62	0	1243611136	53	5037
2026-01-19 23:19:10.57	142.26	51.12	-41.3	-44.1	12.2	2.19e-04	0	62	0	1256194048	53	5170
2026-01-19 23:19:14.61	144.25	50.21	-41.5	-44.4	11.8	4.43e-04	0	62	0	1268776960	53	5349
2026-01-19 23:19:18.65	146.14	49.29	-41.5	-44.5	11.8	4.20e-04	0	62	0	1281359872	53	5406
2026-01-19 23:19:22.70	147.91	48.35	-42.5	-46.2	9.8	1.03e-02	0	62	0	1293942784	55	5919
2026-01-19 23:19:26.74	149.58	47.41	-41.7	-44.8	11.3	1.14e-03	0	62	0	1306525696	55	5037
2026-01-19 23:19:30.78	151.16	46.46	-42.2	-45.6	10.6	3.49e-03	0	62	0	1319108608	55	5487
2026-01-19 23:19:34.81	152.63	45.52	-41.4	-44.3	11.9	4.80e-04	0	62	0	1331691520	54	4999
2026-01-19 23:19:38.85	154.03	44.58	-41.9	-45.2	10.9	2.16e-03	0	62	0	1344274432	54	5535
2026-01-19 23:19:42.89	155.35	43.64	-42.2	-45.7	10.4	5.76e-03	0	62	0	1356857344	55	5557
2026-01-19 23:19:46.93	156.59	42.71	-41.6	-44.7	11.4	9.81e-04	0	62	0	1369440256	55	4935
2026-01-19 23:19:50.97	157.77	41.79	-41.9	-45.2	10.9	1.92e-03	0	62	0	1382023168	54	5531
2026-01-19 23:19:55.01	158.88	40.88	-41.5	-44.4	11.6	9.80e-04	0	62	0	1394606080	55	4792
2026-01-19 23:19:59.04	159.93	39.98	-41.7	-44.8	11.3	1.11e-03	0	62	0	1407188992	54	5280
2026-01-19 23:20:03.07	160.93	39.10	-41.9	-45.1	10.8	2.38e-03	0	62	0	1419771904	54	5515
2026-01-19 23:20:07.11	161.87	38.22	-41.6	-44.7	11.4	1.11e-03	0	62	0	1432354816	54	5223
2026-01-19 23:20:11.15	162.77	37.36	-41.1	-43.8	12.2	2.35e-04	0	62	0	1444937728	54	4747
2026-01-19 23:20:15.19	163.62	36.52	-41.2	-44.0	11.9	2.35e-04	0	62	0	1457520640	53	5129
2026-01-19 23:20:19.22	164.43	35.69	-41.2	-44.1	11.9	4.51e-04	0	62	0	1470103552	53	5184
2026-01-19 23:20:23.27	165.20	34.87	-40.6	-43.1	12.9	6.10e-05	0	62	0	1482686464	53	4644
2026-01-19 23:20:27.31	165.94	34.08	-41.2	-44.0	12.0	3.04e-04	0	62	0	1495269376	53	5139
2026-01-19 23:20:31.35	166.64	33.29	-41.0	-43.8	12.1	2.62e-04	0	62	0	1507852288	53	5014
2026-01-19 23:20:35.38	167.31	32.52	-40.7	-43.3	12.7	8.16e-05	0	62	0	1521483776	53	4731
2026-01-19 23:20:39.43	167.95	31.77	-40.0	-42.3	13.7	7.60e-06	0	62	0	1533018112	52	4458
2026-01-19 23:20:43.47	168.56	31.03	-40.2	-42.5	13.5	9.90e-06	0	62	0	1546649600	51	4816
2026-01-19 23:20:47.51	169.15	30.31	-40.2	-42.5	13.4	1.14e-05	0	62	0	1559232512	51	4859
2026-01-19 23:20:51.55	169.71	29.60	-40.4	-42.8	13.1	3.05e-05	0	62	0	1571815424	51	5007
2026-01-19 23:20:55.59	170.25	28.91	-40.5	-43.0	12.9	4.50e-05	0	62	0	1584398336	51	5118
2026-01-19 23:20:59.62	170.76	28.23	-40.1	-42.4	13.5	1.60e-05	0	62	0	1596981248	51	4792
2026-01-19 23:21:03.66	171.26	27.56	-39.9	-42.1	13.8	5.30e-06	0	62	0	1609564160	51	4618
2026-01-19 23:21:07.70	171.73	26.91	-39.9	-42.1	13.8	3.80e-06	0	62	0	1622147072	51	4616
2026-01-19 23:21:11.74	172.19	26.27	-39.6	-41.7	14.2	4.50e-06	0	62	0	1634729984	51	4439
2026-01-19 23:21:15.78	172.63	25.65	-39.6	-41.7	14.2	2.20e-06	0	62	0	1647312896	51	4412
2026-01-19 23:21:19.82	173.05	25.04	-39.9	-42.1	13.8	5.30e-06	0	62	0	1659895808	51	4629
2026-01-19 23:21:23.85	173.46	24.44	-40.0	-42.3	13.5	7.60e-06	0	62	0	1672478720	51	4750
2026-01-19 23:21:27.90	173.86	23.85	-40.3	-42.7	13.1	2.13e-05	0	62	0	1685061632	51	4951
2026-01-19 23:21:31.94	174.24	23.27	-40.2	-42.6	13.2	3.66e-05	0	62	0	1697644544	51	4873
2026-01-19 23:21:35.98	174.60	22.71	-40.1	-42.5	13.3	2.05e-05	0	62	0	1710227456	51	4842
2026-01-19 23:21:40.01	174.96	22.15	-40.0	-42.3	13.5	1.29e-05	0	62	0	1722810368	51	4727
2026-01-19 23:21:44.06	175.30	21.61	-39.7	-41.8	14.0	3.80e-06	0	62	0	1735393280	51	4482
2026-01-19 23:21:48.10	175.63	21.08	-39.6	-41.8	13.9	2.20e-06	0	62	0	1747976192	51	4470
2026-01-19 23:21:52.14	175.95	20.55	-39.9	-42.2	13.5	9.90e-06	0	62	0	1760559104	51	4674
2026-01-19 23:21:56.18	176.26	20.04	-40.1	-42.5	13.2	2.51e-05	0	62	0	1773142016	51	4846
2026-01-19 23:22:00.22	176.56	19.54	-40.1	-42.5	13.3	1.52e-05	0	62	0	1785724928	51	4823
2026-01-19 23:22:04.24	176.86	19.05	-39.9	-42.2	13.5	9.90e-06	0	62	0	1798307840	51	4704
2026-01-19 23:22:08.28	177.14	18.56	-40.0	-42.4	13.3	2.13e-05	0	62	0	1810890752	51	4799
2026-01-19 23:22:12.33	177.41	18.08	-40.2	-42.6	13.0	4.19e-05	0	62	0	1823473664	51	4919
2026-01-19 23:22:16.37	177.68	17.62	-40.3	-42.9	12.8	5.95e-05	0	62	0	1836056576	51	5044
2026-01-19 23:22:20.40	177.94	17.16	-40.4	-43.0	12.7	8.01e-05	0	62	0	1848639488	51	5106
2026-01-19 23:22:24.44	178.19	16.71	-40.4	-43.0	12.6	8.85e-05	0	62	0	1862270976	51	5130
2026-01-19 23:22:28.48	178.44	16.26	-40.5	-43.2	12.4	1.47e-04	0	62	0	1874853888	51	5240
2026-01-19 23:22:32.52	178.67	15.83	-40.5	-43.2	12.4	1.54e-04	0	62	0	1887436800	51	5262
2026-01-19 23:22:36.56	178.91	15.40	-40.5	-43.2	12.3	1.64e-04	0	62	0	1900019712	51	5258
2026-01-19 23:22:40.60	179.13	14.98	-40.5	-43.2	12.3	1.75e-04	0	62	0	1912602624	51	5255
2026-01-19 23:22:44.63	179.35	14.56	-40.5	-43.3	12.2	1.83e-04	0	62	0	1925185536	51	5281
2026-01-19 23:22:48.67	179.57	14.15	-40.7	-43.5	12.0	3.48e-04	0	62	0	1937768448	51	5424
2026-01-19 23:22:52.72	179.77	13.75	-40.5	-43.3	12.1	2.82e-04	0	62	0	1950351360	52	5012
2026-01-19 23:22:56.76	179.98	13.35	-40.5	-43.3	12.1	2.94e-04	0	62	0	1962934272	52	5010
2026-01-19 23:23:00.79	180.18	12.97	-40.5	-43.2	12.1	2.52e-04	0	62	0	1975517184	52	4980
2026-01-19 23:23:04.83	180.37	12.58	-40.4	-43.2	12.1	2.61e-04	0	62	0	1988100096	52	4968
2026-01-19 23:23:08.87	180.56	12.20	-40.5	-43.3	12.0	3.20e-04	0	62	0	2000683008	52	5021
2026-01-19 23:23:12.91	180.74	11.83	-40.4	-43.2	12.1	2.65e-04	0	62	0	2013265920	52	4961
2026-01-19 23:23:16.96	180.92	11.46	-40.4	-43.2	12.1	2.96e-04	0	62	0	2025848832	52	4973
2026-01-19 23:23:20.99	181.10	11.10	-40.5	-43.3	12.0	3.39e-04	0	62	0	2038431744	52	5016
2026-01-19 23:23:25.03	181.27	10.75	-40.5	-43.3	11.9	3.32e-04	0	62	0	2051014656	52	5039
2026-01-19 23:23:29.07	181.44	10.39	-40.6	-43.5	11.7	5.61e-04	0	62	0	2063597568	52	5150
2026-01-19 23:23:33.12	181.61	10.04	-40.7	-43.7	11.5	8.60e-04	0	62	0	2076180480	52	5269
2026-01-19 23:23:37.16	181.77	9.70	-40.8	-44.0	11.2	1.44e-03	0	62	0	2088763392	52	5440
2026-01-19 23:23:41.19	181.93	9.36	-40.9	-44.2	10.9	2.07e-03	0	62	0	2101346304	52	5583
2026-01-19 23:23:45.23	182.08	9.03	-41.1	-44.5	10.5	3.57e-03	0	62	0	2113929216	52	5773
2026-01-19 23:23:49.27	182.23	8.70	-41.2	-44.6	10.4	4.66e-03	0	62	0	2126512128	52	5855
2026-01-19 23:23:53.31	182.38	8.38	-41.2	-44.8	10.2	5.60e-03	0	62	0	2139095040	52	5926
2026-01-19 23:23:57.35	182.52	8.06	-41.1	-44.6	10.3	5.56e-03	0	62	0	2151677952	52	5845
2026-01-19 23:24:01.40	182.67	7.74	-44.9	-57.4	3.8	1.49e+00	0	62	104	2156920832	60	15955
2026-01-19 23:24:05.44	182.81	7.42	-45.3	-57.7	3.8	1.49e+00	0	62	104	2156920832	61	15679
2026-01-19 23:24:09.48	182.94	7.11	-45.3	-57.7	3.8	1.49e+00	0	62	104	2156920832	61	15647
2026-01-19 23:24:13.52	183.08	6.81	-45.3	-57.7	3.8	1.49e+00	0	62	104	2156920832	61	15586
2026-01-19 23:24:17.56	183.21	6.50	-45.2	-57.5	3.8	1.49e+00	0	62	104	2156920832	61	15393
2026-01-19 23:24:21.60	183.34	6.20	-45.2	-57.5	3.8	1.49e+00	0	62	104	2156920832	61	15316
2026-01-19 23:24:25.65	183.46	5.91	-45.2	-57.5	3.8	1.49e+00	0	62	104	2156920832	61	15242
2026-01-19 23:24:29.69	183.59	5.62	-45.1	-57.5	3.8	1.49e+00	0	62	104	2156920832	61	15262
2026-01-19 23:24:33.73	183.71	5.33	-45.1	-57.5	3.8	1.49e+00	0	62	104	2156920832	61	15226
2026-01-19 23:24:37.76	183.83	5.04	-45.1	-57.4	3.8	1.49e+00	0	62	104	2156920832	61	15119
2026-01-19 23:24:41.80	183.95	4.76	-45.1	-57.4	3.8	1.49e+00	0	62	104	2156920832	61	15210
2026-01-19 23:24:45.85	184.06	4.47	-45.1	-57.4	3.8	1.49e+00	0	62	104	2156920832	61	15149
2026-01-19 23:24:49.89	184.18	4.20	-45.1	-57.4	3.8	1.49e+00	0	62	104	2156920832	61	15098
2026-01-19 23:24:53.93	184.29	3.92	-45.1	-57.4	3.8	1.49e+00	0	62	104	2156920832	61	15107
2026-01-19 23:24:57.97	184.40	3.65	-45.1	-57.4	3.8	1.49e+00	0	62	104	2156920832	61	15144
2026-01-19 23:25:02.01	184.51	3.38	-45.1	-57.4	3.8	1.49e+00	0	62	104	2156920832	61	15217
2026-01-19 23:25:06.05	184.61	3.11	-45.1	-57.4	3.8	1.49e+00	0	62	104	2156920832	61	15198
2026-01-19 23:25:10.10	184.72	2.85	-45.1	-57.4	3.8	1.49e+00	0	62	104	2156920832	61	15199
2026-01-19 23:25:14.14	184.82	2.58	-45.1	-57.4	3.8	1.49e+00	0	62	104	2156920832	61	15173
2026-01-19 23:25:18.18	184.92	2.32	-45.1	-57.4	3.8	1.49e+00	0	62	104	2156920832	61	15083
2026-01-19 23:25:22.22	185.02	2.07	-45.1	-57.4	3.8	1.49e+00	0	62	104	2156920832	61	15167

#Closed at: 2026-01-19 23:25:25
#Recorded file [2156 MB]: D:/lorett/data/31039_260120_021101.dat