passes_logs/2026/01/19/R2.0S_Moscow/R2.0S_Moscow__20260119_060259_FENGYUN_3E_rec.log

#Pass ID: 20260119_060259_FENGYUN 3E
#Satellite: FENGYUN 3E
#Configuration: FENGYUN 3E
#almurnet v.1.7.20251203
#Start time: 2026-01-19 06:03:01

#Version: 2.2.20231116
#Station: R2.0S_Moscow
#Location: 37.707566 lon 55.798166 lat
#TLE: 1 49008U 21062A   26017.96535346 -.00000182  00000+0 -64922-4 0  9998
#TLE: 2 49008  98.7483  23.0589 0002171 131.9722 228.1640 14.19885139235265

#Time	Az	El	Level	Level2	SNR	BER	BlckErr	Temp	State	Recorded	gain1	gain2
2026-01-19 06:03:01.36	8.83	2.11	-39.9	-51.3	3.8	8.46e-01	0	51	0	0	50	13270
2026-01-19 06:03:04.38	8.59	2.27	-39.8	-51.2	3.8	8.46e-01	0	51	104	0	49	14026
2026-01-19 06:03:07.41	8.34	2.43	-39.9	-51.2	3.8	8.47e-01	0	51	104	0	49	13999
2026-01-19 06:03:10.44	8.10	2.59	-39.9	-51.2	3.8	8.46e-01	0	52	104	0	49	14041
2026-01-19 06:03:13.47	7.84	2.75	-39.9	-51.2	3.8	8.46e-01	0	52	104	0	49	13985
2026-01-19 06:03:16.50	7.59	2.91	-39.9	-51.2	3.8	8.46e-01	0	52	104	0	49	14002
2026-01-19 06:03:19.54	7.33	3.07	-39.9	-51.2	3.8	8.46e-01	0	52	104	0	49	13975
2026-01-19 06:03:22.57	7.07	3.23	-39.9	-51.2	3.8	8.46e-01	0	53	104	0	49	13977
2026-01-19 06:03:25.60	6.81	3.39	-39.8	-51.2	3.8	8.47e-01	0	53	104	0	49	13964
2026-01-19 06:03:28.63	6.54	3.55	-39.8	-51.2	3.8	8.46e-01	0	53	104	0	49	13975
2026-01-19 06:03:31.66	6.27	3.71	-39.8	-51.2	3.8	8.46e-01	0	53	104	0	49	13959
2026-01-19 06:03:34.69	6.00	3.87	-39.9	-51.2	3.8	8.45e-01	0	53	104	0	49	13974
2026-01-19 06:03:37.72	5.72	4.03	-39.8	-51.2	3.8	8.47e-01	0	54	104	0	49	13937
2026-01-19 06:03:40.75	5.45	4.20	-39.9	-51.2	3.8	8.45e-01	0	54	104	0	49	13983
2026-01-19 06:03:43.78	5.16	4.36	-39.8	-51.2	3.8	8.45e-01	0	54	104	0	49	13984
2026-01-19 06:03:46.81	4.88	4.52	-39.8	-51.2	3.8	8.46e-01	0	54	104	0	49	13974
2026-01-19 06:03:49.85	4.59	4.68	-39.8	-51.2	3.8	8.45e-01	0	54	104	0	49	13923
2026-01-19 06:03:52.88	4.30	4.85	-39.8	-51.2	3.8	8.46e-01	0	54	104	0	49	13999
2026-01-19 06:03:55.91	4.00	5.01	-39.9	-51.2	3.8	8.44e-01	0	55	104	0	49	13958
2026-01-19 06:03:58.94	3.70	5.18	-39.8	-51.2	3.8	8.46e-01	0	55	104	0	49	13949
2026-01-19 06:04:01.97	3.40	5.34	-39.8	-51.2	3.8	8.46e-01	0	55	104	0	49	14012
2026-01-19 06:04:05.00	3.09	5.51	-39.8	-51.2	3.8	8.46e-01	0	55	104	0	49	13951
2026-01-19 06:04:08.03	2.78	5.67	-39.8	-51.2	3.8	8.46e-01	0	55	104	0	49	13975
2026-01-19 06:04:11.06	2.47	5.84	-39.8	-51.2	3.8	8.45e-01	0	55	104	0	49	13914
2026-01-19 06:04:14.09	2.15	6.00	-39.8	-51.2	3.8	8.46e-01	0	56	104	0	49	13985
2026-01-19 06:04:17.12	1.83	6.17	-39.8	-51.2	3.8	8.46e-01	0	55	104	0	49	13960
2026-01-19 06:04:20.15	1.51	6.33	-39.8	-51.2	3.8	8.46e-01	0	56	104	0	49	13955
2026-01-19 06:04:23.18	1.18	6.50	-39.9	-51.2	3.8	8.45e-01	0	56	104	0	49	13950
2026-01-19 06:04:26.21	0.85	6.66	-39.8	-51.2	3.8	8.47e-01	0	56	104	0	49	13959
2026-01-19 06:04:29.25	0.51	6.83	-39.9	-51.2	3.8	8.46e-01	0	56	104	0	49	13943
2026-01-19 06:04:32.28	0.17	7.00	-39.8	-51.2	3.8	8.45e-01	0	56	104	0	49	13970
2026-01-19 06:04:35.31	359.83	7.16	-39.8	-51.2	3.8	8.47e-01	0	56	104	0	49	13943
2026-01-19 06:04:38.34	359.48	7.33	-39.8	-51.2	3.8	8.46e-01	0	56	104	0	49	13982
2026-01-19 06:04:41.37	359.13	7.50	-39.9	-51.2	3.8	8.46e-01	0	57	104	0	49	13948
2026-01-19 06:04:44.40	358.77	7.66	-39.9	-51.2	3.8	8.44e-01	0	57	104	0	49	13956
2026-01-19 06:04:47.43	358.41	7.83	-39.8	-51.2	3.8	8.46e-01	0	57	104	0	49	13948
2026-01-19 06:04:50.47	358.04	8.00	-39.8	-51.2	3.8	8.47e-01	0	57	104	0	49	13962
2026-01-19 06:04:53.49	357.67	8.16	-39.9	-51.3	3.8	8.46e-01	0	57	104	0	49	14204
2026-01-19 06:04:56.53	357.30	8.33	-39.8	-51.3	3.8	8.45e-01	0	57	104	0	49	14163
2026-01-19 06:04:59.56	356.92	8.50	-40.0	-51.3	3.8	8.46e-01	0	57	104	0	49	14187
2026-01-19 06:05:02.58	356.54	8.66	-40.0	-51.3	3.8	8.46e-01	0	57	104	0	49	14190
2026-01-19 06:05:05.61	356.15	8.83	-40.0	-51.3	3.8	8.47e-01	0	57	104	0	49	14192
2026-01-19 06:05:08.64	355.76	8.99	-40.3	-51.4	3.8	8.47e-01	0	57	104	0	50	13557
2026-01-19 06:05:11.67	355.36	9.16	-40.2	-51.4	3.8	8.47e-01	0	57	104	0	50	13519
2026-01-19 06:05:14.70	354.96	9.33	-40.6	-51.5	3.8	8.46e-01	0	57	104	0	50	13674
2026-01-19 06:05:17.73	354.56	9.49	-40.5	-51.5	3.8	8.46e-01	0	58	104	0	50	13616
2026-01-19 06:05:20.76	354.14	9.66	-40.7	-51.6	3.8	8.47e-01	0	57	104	0	51	13076
2026-01-19 06:05:23.79	353.73	9.82	-40.7	-51.6	3.8	8.47e-01	0	57	104	0	51	12979
2026-01-19 06:05:26.81	353.31	9.99	-40.7	-51.6	3.8	8.46e-01	0	58	104	0	51	13060
2026-01-19 06:05:29.84	352.89	10.15	-40.8	-51.7	3.8	8.45e-01	0	58	104	0	51	13149
2026-01-19 06:05:32.87	352.46	10.31	-40.7	-51.8	3.8	8.47e-01	0	58	104	0	51	13381
2026-01-19 06:05:35.90	352.02	10.48	-40.7	-51.9	3.8	8.45e-01	0	58	104	0	51	13497
2026-01-19 06:05:38.93	351.58	10.64	-41.2	-52.1	3.8	8.46e-01	0	58	104	0	51	13768
2026-01-19 06:05:41.96	351.14	10.80	-40.7	-51.8	3.8	8.46e-01	0	58	104	0	52	12559
2026-01-19 06:05:44.99	350.69	10.96	-41.2	-52.1	3.8	8.46e-01	0	58	104	0	52	13067
2026-01-19 06:05:48.02	350.23	11.12	-41.0	-51.9	3.8	8.46e-01	0	58	104	0	52	12671
2026-01-19 06:05:51.05	349.77	11.28	-41.0	-52.0	3.8	8.46e-01	0	58	104	0	52	12827
2026-01-19 06:05:54.07	349.31	11.44	-41.2	-52.1	3.8	8.46e-01	0	58	104	0	52	13062
2026-01-19 06:05:57.10	348.84	11.60	-41.2	-52.3	3.8	8.47e-01	0	58	104	0	52	13387
2026-01-19 06:06:00.13	348.36	11.76	-41.2	-52.3	3.8	8.45e-01	0	58	104	0	52	13373
2026-01-19 06:06:03.16	347.88	11.91	-41.5	-52.5	3.8	8.45e-01	0	58	104	0	52	13689
2026-01-19 06:06:06.19	347.39	12.07	-41.2	-52.3	3.8	8.46e-01	0	59	104	0	52	13414
2026-01-19 06:06:09.21	346.90	12.22	-41.4	-52.3	3.8	8.46e-01	0	59	104	0	52	13357
2026-01-19 06:06:12.24	346.41	12.37	-41.3	-52.3	3.8	8.46e-01	0	59	104	0	52	13410
2026-01-19 06:06:15.27	345.90	12.53	-41.4	-52.3	3.8	8.45e-01	0	59	104	0	52	13390
2026-01-19 06:06:18.30	345.40	12.68	-41.3	-52.2	3.8	8.46e-01	0	59	104	0	52	13213
2026-01-19 06:06:21.33	344.88	12.83	-41.1	-52.3	3.8	8.46e-01	0	59	104	0	52	13263
2026-01-19 06:06:24.36	344.36	12.97	-40.9	-52.0	3.8	8.47e-01	0	59	104	0	52	12814
2026-01-19 06:06:27.38	343.84	13.12	-41.2	-52.1	3.8	8.46e-01	0	59	104	0	52	13109
2026-01-19 06:06:30.41	343.31	13.26	-41.2	-52.2	3.8	8.47e-01	0	59	104	0	52	13154
2026-01-19 06:06:33.44	342.78	13.41	-41.1	-52.1	3.8	8.46e-01	0	59	104	0	52	13031
2026-01-19 06:06:36.47	342.24	13.55	-40.7	-51.8	3.8	8.47e-01	0	59	104	0	52	12553
2026-01-19 06:06:39.50	341.70	13.69	-41.0	-51.9	3.8	8.45e-01	0	59	104	0	52	12775
2026-01-19 06:06:42.53	341.15	13.83	-41.0	-51.9	3.8	8.45e-01	0	59	104	0	52	12773
2026-01-19 06:06:45.56	340.59	13.96	-41.3	-52.2	3.8	8.45e-01	0	59	104	0	52	13205
2026-01-19 06:06:48.59	340.03	14.10	-41.7	-50.9	3.9	8.46e-01	0	59	104	0	53	10777
2026-01-19 06:06:51.62	339.47	14.23	-41.2	-46.2	6.3	7.81e-01	0	59	104	0	53	6269
2026-01-19 06:06:54.65	338.90	14.36	-39.9	-43.0	9.9	1.24e-02	0	59	0	14680064	50	5127
2026-01-19 06:06:57.68	338.32	14.49	-38.1	-40.1	13.0	4.23e-05	0	59	0	36700160	47	4386
2026-01-19 06:07:00.71	337.74	14.62	-38.1	-40.1	13.5	6.80e-06	0	59	0	58720256	46	4608
2026-01-19 06:07:03.74	337.15	14.74	-37.7	-39.5	14.3	1.10e-06	0	60	0	79691776	46	4321
2026-01-19 06:07:06.77	336.56	14.86	-37.7	-39.4	14.8	0.00e+00	0	59	0	101711872	46	4251
2026-01-19 06:07:09.79	335.97	14.98	-37.7	-39.4	14.8	0.00e+00	0	59	0	123731968	46	4274
2026-01-19 06:07:12.82	335.37	15.10	-37.8	-39.4	14.9	0.00e+00	0	59	0	145752064	46	4275
2026-01-19 06:07:15.85	334.77	15.21	-37.7	-39.4	15.1	0.00e+00	0	59	0	167772160	46	4243
2026-01-19 06:07:18.87	334.16	15.32	-37.5	-39.0	15.5	0.00e+00	0	60	0	189792256	45	4328
2026-01-19 06:07:21.91	333.54	15.43	-37.4	-38.9	15.6	0.00e+00	0	59	0	210763776	45	4269
2026-01-19 06:07:24.94	332.92	15.53	-37.4	-38.9	15.7	0.00e+00	0	59	0	232783872	45	4287
2026-01-19 06:07:27.97	332.30	15.64	-37.5	-39.0	15.6	0.00e+00	0	60	0	254803968	45	4334
2026-01-19 06:07:31.00	331.67	15.73	-37.5	-39.1	15.6	0.00e+00	0	59	0	276824064	45	4360
2026-01-19 06:07:34.03	331.04	15.83	-37.6	-39.1	15.5	0.00e+00	0	60	0	298844160	45	4385
2026-01-19 06:07:37.05	330.41	15.92	-37.6	-39.1	15.6	0.00e+00	0	59	0	319815680	45	4365
2026-01-19 06:07:40.08	329.77	16.01	-37.7	-39.2	15.5	0.00e+00	0	59	0	341835776	45	4426
2026-01-19 06:07:43.11	329.13	16.10	-37.6	-39.1	15.6	0.00e+00	0	59	0	363855872	45	4367
2026-01-19 06:07:46.14	328.48	16.18	-37.5	-39.0	15.8	0.00e+00	0	60	0	385875968	45	4296
2026-01-19 06:07:49.17	327.83	16.26	-37.3	-38.8	15.9	0.00e+00	0	59	0	407896064	45	4225
2026-01-19 06:07:52.20	327.17	16.34	-37.2	-38.7	16.0	0.00e+00	0	60	0	429916160	45	4167
2026-01-19 06:07:55.23	326.52	16.41	-37.3	-38.8	16.0	0.00e+00	0	60	0	451936256	45	4194
2026-01-19 06:07:58.26	325.86	16.48	-37.3	-38.8	16.0	0.00e+00	0	60	0	473956352	45	4204
2026-01-19 06:08:01.29	325.19	16.54	-37.2	-38.7	16.0	0.00e+00	0	60	0	494927872	45	4157
2026-01-19 06:08:04.32	324.53	16.61	-37.1	-38.6	16.2	0.00e+00	0	59	0	516947968	45	4112
2026-01-19 06:08:07.35	323.86	16.66	-37.1	-38.5	16.3	0.00e+00	0	60	0	538968064	45	4062
2026-01-19 06:08:10.39	323.18	16.72	-36.9	-38.3	16.5	0.00e+00	0	60	0	560988160	44	4211
2026-01-19 06:08:13.41	322.51	16.77	-36.9	-38.3	16.6	0.00e+00	0	59	0	583008256	44	4199
2026-01-19 06:08:16.44	321.83	16.81	-36.9	-38.2	16.6	0.00e+00	0	60	0	605028352	44	4187
2026-01-19 06:08:19.47	321.16	16.85	-37.1	-38.5	16.3	0.00e+00	0	59	0	627048448	44	4319
2026-01-19 06:08:22.50	320.48	16.89	-37.2	-38.6	16.2	0.00e+00	0	60	0	648019968	44	4375
2026-01-19 06:08:25.53	319.79	16.92	-37.0	-38.4	16.4	0.00e+00	0	60	0	670040064	44	4266
2026-01-19 06:08:28.56	319.11	16.95	-36.9	-38.3	16.6	0.00e+00	0	60	0	692060160	44	4207
2026-01-19 06:08:31.58	318.43	16.98	-36.9	-38.3	16.5	0.00e+00	0	60	0	714080256	44	4231
2026-01-19 06:08:34.61	317.74	17.00	-36.9	-38.3	16.6	0.00e+00	0	60	0	736100352	44	4196
2026-01-19 06:08:37.64	317.05	17.02	-36.7	-38.1	16.8	0.00e+00	0	60	0	758120448	44	4110
2026-01-19 06:08:40.66	316.37	17.03	-36.7	-38.1	16.8	0.00e+00	0	60	0	780140544	44	4106
2026-01-19 06:08:43.70	315.68	17.04	-36.9	-38.2	16.6	0.00e+00	0	60	0	801112064	44	4186
2026-01-19 06:08:46.73	314.99	17.04	-37.0	-38.4	16.4	0.00e+00	0	60	0	823132160	44	4273
2026-01-19 06:08:49.76	314.30	17.04	-37.1	-38.5	16.4	0.00e+00	0	60	0	845152256	44	4308
2026-01-19 06:08:52.79	313.61	17.04	-37.2	-38.6	16.2	0.00e+00	0	60	0	867172352	44	4384
2026-01-19 06:08:55.81	312.93	17.03	-37.2	-38.7	16.2	0.00e+00	0	60	0	889192448	44	4403
2026-01-19 06:08:58.84	312.24	17.02	-37.2	-38.7	16.2	0.00e+00	0	60	0	911212544	44	4404
2026-01-19 06:09:01.87	311.55	17.00	-36.9	-38.3	16.5	0.00e+00	0	60	0	933232640	44	4236
2026-01-19 06:09:04.90	310.87	16.98	-36.9	-38.3	16.5	0.00e+00	0	60	0	954204160	44	4226
2026-01-19 06:09:07.93	310.18	16.96	-37.0	-38.4	16.5	0.00e+00	0	60	0	976224256	44	4271
2026-01-19 06:09:10.96	309.50	16.93	-37.1	-38.5	16.4	0.00e+00	0	60	0	998244352	44	4297
2026-01-19 06:09:13.99	308.81	16.90	-37.0	-38.3	16.5	0.00e+00	0	60	0	1020264448	44	4236
2026-01-19 06:09:17.02	308.13	16.86	-36.8	-38.1	16.7	0.00e+00	0	60	0	1042284544	44	4123
2026-01-19 06:09:20.05	307.45	16.82	-36.8	-38.1	16.7	0.00e+00	0	60	0	1064304640	44	4138
2026-01-19 06:09:23.07	306.78	16.77	-37.0	-38.4	16.4	0.00e+00	0	60	0	1086324736	44	4246
2026-01-19 06:09:26.10	306.10	16.72	-37.1	-38.5	16.3	0.00e+00	0	60	0	1107296256	44	4323
2026-01-19 06:09:29.13	305.43	16.67	-37.1	-38.5	16.3	0.00e+00	0	60	0	1129316352	44	4334
2026-01-19 06:09:32.16	304.76	16.61	-37.0	-38.4	16.3	0.00e+00	0	60	0	1151336448	44	4291
2026-01-19 06:09:35.20	304.09	16.55	-37.1	-38.5	16.3	0.00e+00	0	60	0	1173356544	44	4340
2026-01-19 06:09:38.22	303.43	16.49	-37.0	-38.5	16.3	0.00e+00	0	60	0	1195376640	44	4293
2026-01-19 06:09:41.25	302.76	16.42	-37.1	-38.6	16.2	0.00e+00	0	60	0	1216348160	44	4345
2026-01-19 06:09:44.28	302.10	16.35	-37.2	-38.6	16.2	0.00e+00	0	60	0	1238368256	44	4374
2026-01-19 06:09:47.31	301.45	16.27	-37.3	-38.7	16.1	0.00e+00	0	60	0	1260388352	44	4409
2026-01-19 06:09:50.34	300.80	16.19	-37.3	-38.7	16.1	0.00e+00	0	60	0	1282408448	44	4420
2026-01-19 06:09:53.37	300.15	16.11	-37.1	-38.6	16.2	0.00e+00	0	60	0	1304428544	44	4351
2026-01-19 06:09:56.40	299.50	16.02	-37.3	-38.7	16.0	0.00e+00	0	60	0	1326448640	44	4432
2026-01-19 06:09:59.43	298.86	15.93	-37.2	-38.7	16.1	0.00e+00	0	60	0	1348468736	44	4398
2026-01-19 06:10:02.45	298.22	15.84	-37.2	-38.7	16.1	0.00e+00	0	60	0	1369440256	44	4398
2026-01-19 06:10:05.49	297.59	15.75	-37.2	-38.7	16.0	0.00e+00	0	60	0	1391460352	44	4413
2026-01-19 06:10:08.52	296.96	15.65	-37.4	-38.9	15.8	0.00e+00	0	60	0	1413480448	44	4504
2026-01-19 06:10:11.55	296.33	15.54	-37.4	-38.9	15.7	0.00e+00	0	60	0	1435500544	44	4517
2026-01-19 06:10:14.58	295.71	15.44	-37.2	-38.6	16.0	0.00e+00	0	60	0	1457520640	44	4387
2026-01-19 06:10:17.60	295.10	15.33	-37.3	-38.8	15.7	0.00e+00	0	60	0	1479540736	44	4491
2026-01-19 06:10:20.63	294.48	15.22	-37.5	-39.0	15.5	0.00e+00	0	60	0	1501560832	44	4597
2026-01-19 06:10:23.66	293.88	15.11	-37.6	-39.1	15.4	0.00e+00	0	60	0	1523580928	44	4635
2026-01-19 06:10:26.69	293.27	14.99	-37.6	-39.1	15.3	0.00e+00	0	60	0	1544552448	44	4650
2026-01-19 06:10:29.72	292.67	14.87	-37.4	-39.0	15.5	0.00e+00	0	60	0	1566572544	44	4550
2026-01-19 06:10:32.75	292.08	14.75	-37.4	-39.0	15.5	0.00e+00	0	60	0	1588592640	44	4548
2026-01-19 06:10:35.78	291.49	14.63	-37.6	-39.3	15.1	0.00e+00	0	60	0	1610612736	44	4719
2026-01-19 06:10:38.82	290.91	14.50	-37.7	-39.4	15.0	0.00e+00	0	60	0	1632632832	44	4762
2026-01-19 06:10:41.84	290.33	14.37	-37.7	-39.3	14.9	0.00e+00	0	60	0	1654652928	45	4492
2026-01-19 06:10:44.87	289.76	14.24	-37.8	-39.5	14.8	0.00e+00	0	60	0	1676673024	45	4552
2026-01-19 06:10:47.90	289.19	14.11	-37.8	-39.4	14.8	0.00e+00	0	60	0	1697644544	45	4529
2026-01-19 06:10:50.93	288.63	13.98	-37.5	-39.1	15.0	0.00e+00	0	60	0	1719664640	45	4385
2026-01-19 06:10:53.96	288.07	13.84	-37.6	-39.3	14.8	0.00e+00	0	60	0	1741684736	45	4464
2026-01-19 06:10:56.98	287.52	13.70	-37.7	-39.4	14.7	0.00e+00	0	60	0	1763704832	45	4511
2026-01-19 06:11:00.01	286.97	13.56	-37.8	-39.5	14.5	0.00e+00	0	60	0	1785724928	45	4576
2026-01-19 06:11:03.05	286.42	13.42	-37.7	-39.5	14.4	1.10e-06	0	60	0	1807745024	45	4569
2026-01-19 06:11:06.08	285.89	13.28	-37.8	-39.6	14.2	1.10e-06	0	60	0	1829765120	45	4635
2026-01-19 06:11:09.11	285.36	13.13	-37.8	-39.7	14.0	4.50e-06	0	60	0	1851785216	45	4675
2026-01-19 06:11:12.14	284.83	12.98	-37.7	-39.5	14.2	2.20e-06	0	60	0	1872756736	45	4573
2026-01-19 06:11:15.17	284.31	12.84	-37.7	-39.4	14.2	1.10e-06	0	60	0	1894776832	45	4540
2026-01-19 06:11:18.20	283.79	12.69	-37.7	-39.5	14.1	0.00e+00	0	60	0	1916796928	45	4580
2026-01-19 06:11:21.23	283.28	12.53	-38.0	-39.8	13.9	3.40e-06	0	60	0	1938817024	45	4744
2026-01-19 06:11:24.25	282.78	12.38	-38.0	-39.8	13.9	4.50e-06	0	60	0	1960837120	45	4738
2026-01-19 06:11:27.28	282.28	12.23	-37.9	-39.6	14.2	0.00e+00	0	60	0	1982857216	45	4645
2026-01-19 06:11:30.31	281.78	12.07	-38.1	-40.0	14.0	2.20e-06	0	60	0	2004877312	45	4824
2026-01-19 06:11:33.35	281.29	11.92	-38.2	-40.1	13.9	3.40e-06	0	60	0	2025848832	46	4616
2026-01-19 06:11:36.38	280.81	11.76	-38.1	-40.0	13.9	1.10e-06	0	60	0	2047868928	46	4558
2026-01-19 06:11:39.40	280.33	11.60	-38.0	-39.9	14.0	3.40e-06	0	60	0	2069889024	46	4508
2026-01-19 06:11:42.43	279.85	11.45	-38.0	-39.8	14.0	1.10e-06	0	60	0	2091909120	46	4482
2026-01-19 06:11:45.46	279.38	11.29	-38.1	-39.9	13.9	2.20e-06	0	60	0	2113929216	46	4533
2026-01-19 06:11:48.49	278.92	11.13	-38.2	-40.1	13.7	8.00e-06	0	60	0	2134900736	46	4612
2026-01-19 06:11:51.53	278.46	10.96	-38.2	-40.1	13.6	2.20e-06	0	60	0	2156920832	46	4637
2026-01-19 06:11:54.56	278.01	10.80	-38.3	-40.3	13.2	1.48e-05	0	60	0	2178940928	46	4758
2026-01-19 06:11:57.59	277.56	10.64	-38.4	-40.6	12.9	3.89e-05	0	60	0	2200961024	46	4876
2026-01-19 06:12:00.62	277.11	10.48	-38.6	-40.9	12.3	1.15e-04	0	60	0	2222981120	46	5070
2026-01-19 06:12:03.65	276.68	10.31	-38.8	-41.1	11.9	3.28e-04	0	60	0	2245001216	47	4916
2026-01-19 06:12:06.68	276.24	10.15	-39.0	-41.6	11.4	8.57e-04	0	60	0	2267021312	47	5181
2026-01-19 06:12:09.71	275.81	9.99	-39.4	-42.3	10.7	2.46e-03	0	60	0	2289041408	48	5299
2026-01-19 06:12:12.74	275.39	9.82	-39.9	-43.1	9.5	1.16e-02	0	60	0	2310012928	49	5517
2026-01-19 06:12:15.77	274.97	9.66	-40.3	-44.2	8.2	4.17e-02	0	60	0	2332033024	50	5861
2026-01-19 06:12:18.80	274.56	9.49	-40.6	-45.1	7.1	1.31e-01	0	60	0	2354053120	50	6559
2026-01-19 06:12:21.83	274.15	9.32	-40.9	-46.1	6.1	2.81e-01	0	60	0	2376073216	51	6894
2026-01-19 06:12:24.85	273.74	9.16	-40.6	-49.7	3.8	8.21e-01	0	61	104	2383413248	52	9919
2026-01-19 06:12:27.89	273.34	8.99	-41.4	-48.5	4.5	8.21e-01	0	60	0	2383413248	52	8638
2026-01-19 06:12:30.92	272.95	8.83	-41.4	-49.3	4.2	8.35e-01	0	60	0	2383413248	52	9409
2026-01-19 06:12:33.95	272.56	8.66	-41.3	-49.3	4.2	8.35e-01	0	60	0	2383413248	52	9439
2026-01-19 06:12:36.98	272.17	8.49	-41.7	-51.6	3.8	8.46e-01	0	60	104	2383413248	52	12295
2026-01-19 06:12:40.00	271.79	8.33	-41.5	-49.1	4.3	8.35e-01	0	60	0	2383413248	53	8758
2026-01-19 06:12:43.03	271.41	8.16	-41.4	-49.1	4.3	8.34e-01	0	61	0	2383413248	53	8696
2026-01-19 06:12:46.06	271.04	7.99	-44.7	-55.7	3.8	8.47e-01	0	60	104	2383413248	58	13983
2026-01-19 06:12:49.09	270.67	7.82	-45.4	-56.8	3.8	8.47e-01	0	61	104	2383413248	60	14154
2026-01-19 06:12:52.12	270.31	7.66	-45.6	-57.0	3.8	8.47e-01	0	60	104	2383413248	60	14494
2026-01-19 06:12:55.15	269.94	7.49	-45.7	-57.0	3.8	8.46e-01	0	60	104	2383413248	60	14540
2026-01-19 06:12:58.18	269.59	7.32	-45.6	-57.0	3.8	8.45e-01	0	61	104	2383413248	60	14402
2026-01-19 06:13:01.21	269.24	7.15	-45.6	-57.0	3.8	8.46e-01	0	61	104	2383413248	60	14424
2026-01-19 06:13:04.24	268.89	6.99	-45.6	-57.0	3.8	8.45e-01	0	61	104	2383413248	60	14374
2026-01-19 06:13:07.27	268.55	6.82	-45.6	-56.9	3.8	8.46e-01	0	61	104	2383413248	60	14289
2026-01-19 06:13:10.30	268.21	6.65	-45.6	-56.9	3.8	8.47e-01	0	61	104	2383413248	60	14256
2026-01-19 06:13:13.33	267.87	6.49	-45.5	-56.9	3.8	8.46e-01	0	60	104	2383413248	60	14305
2026-01-19 06:13:16.36	267.54	6.32	-45.6	-56.9	3.8	8.46e-01	0	61	104	2383413248	60	14218
2026-01-19 06:13:19.40	267.21	6.15	-45.5	-56.9	3.8	8.46e-01	0	60	104	2383413248	60	14253
2026-01-19 06:13:22.42	266.89	5.99	-45.5	-56.9	3.8	8.45e-01	0	61	104	2383413248	60	14302
2026-01-19 06:13:25.45	266.56	5.82	-45.5	-56.9	3.8	8.46e-01	0	61	104	2383413248	60	14217
2026-01-19 06:13:28.48	266.25	5.66	-45.5	-56.9	3.8	8.47e-01	0	61	104	2383413248	60	14211
2026-01-19 06:13:31.51	265.93	5.49	-45.5	-56.9	3.8	8.47e-01	0	61	104	2383413248	60	14255
2026-01-19 06:13:34.55	265.62	5.33	-45.4	-56.9	3.8	8.47e-01	0	61	104	2383413248	60	14215
2026-01-19 06:13:37.58	265.32	5.16	-45.5	-56.9	3.8	8.47e-01	0	61	104	2383413248	60	14266
2026-01-19 06:13:40.61	265.02	5.00	-45.5	-56.9	3.8	8.47e-01	0	61	104	2383413248	60	14215
2026-01-19 06:13:43.64	264.72	4.83	-45.5	-56.8	3.8	8.47e-01	0	61	104	2383413248	60	14187
2026-01-19 06:13:46.67	264.42	4.67	-45.5	-56.8	3.8	8.46e-01	0	60	104	2383413248	60	14200
2026-01-19 06:13:49.70	264.13	4.51	-45.5	-56.8	3.8	8.46e-01	0	61	104	2383413248	60	14209
2026-01-19 06:13:52.73	263.84	4.34	-45.5	-56.8	3.8	8.46e-01	0	60	104	2383413248	60	14205
2026-01-19 06:13:55.75	263.55	4.18	-45.5	-56.8	3.8	8.47e-01	0	61	104	2383413248	60	14172
2026-01-19 06:13:58.78	263.27	4.02	-45.5	-56.8	3.8	8.47e-01	0	60	104	2383413248	60	14164
2026-01-19 06:14:01.81	262.99	3.85	-45.5	-56.8	3.8	8.47e-01	0	61	104	2383413248	60	14192
2026-01-19 06:14:04.85	262.72	3.69	-45.5	-56.9	3.8	8.46e-01	0	61	104	2383413248	60	14212
2026-01-19 06:14:07.87	262.44	3.53	-45.5	-56.8	3.8	8.47e-01	0	61	104	2383413248	60	14206
2026-01-19 06:14:10.90	262.17	3.37	-45.5	-56.8	3.8	8.47e-01	0	61	104	2383413248	60	14152
2026-01-19 06:14:13.93	261.91	3.21	-45.5	-56.8	3.8	8.47e-01	0	61	104	2383413248	60	14162
2026-01-19 06:14:16.96	261.64	3.05	-45.5	-56.8	3.8	8.47e-01	0	61	104	2383413248	60	14185
2026-01-19 06:14:19.99	261.38	2.89	-45.3	-56.8	3.8	8.46e-01	0	61	104	2383413248	60	14162
2026-01-19 06:14:23.02	261.12	2.73	-45.5	-56.8	3.8	8.45e-01	0	61	104	2383413248	60	14190
2026-01-19 06:14:26.05	260.87	2.57	-45.4	-56.8	3.8	8.46e-01	0	61	104	2383413248	60	14048
2026-01-19 06:14:29.08	260.62	2.41	-45.5	-56.8	3.8	8.45e-01	0	61	104	2383413248	60	14150
2026-01-19 06:14:32.11	260.37	2.25	-45.5	-56.8	3.8	8.47e-01	0	61	104	2383413248	60	14181
2026-01-19 06:14:35.14	260.12	2.09	-45.5	-56.8	3.8	8.47e-01	0	61	104	2383413248	60	14191
2026-01-19 06:14:38.17	259.88	1.93	-45.5	-56.8	3.8	8.47e-01	0	61	104	2383413248	60	14207

#Closed at: 2026-01-19 06:14:39
#Recorded file [2383 MB]: D:/lorett/data/31039_260119_090301.dat