passes_logs/2026/01/19/R2.0S_Moscow/R2.0S_Moscow__20260119_113143_SUOMI_NPP_rec.log

#Pass ID: 20260119_113143_SUOMI NPP
#Satellite: SUOMI NPP
#Configuration: NPP
#almurnet v.1.7.20251203
#Start time: 2026-01-19 11:31:43

#Version: 2.2.20231116
#Station: R2.0S_Moscow
#Location: 37.707566 lon 55.798166 lat
#TLE: 1 37849U 11061A   26017.92342359  .00000077  00000+0  57567-4 0  9990
#TLE: 2 37849  98.7814 319.9468 0002389  58.5705 301.5704 14.19525998737125

#Time	Az	El	Level	Level2	SNR	BER	BlckErr	Temp	State	Recorded	gain1	gain2
2026-01-19 11:31:43.20	207.07	1.97	-43.9	-58.4	3.8	1.49e+00	0	54	0	0	59	19063
2026-01-19 11:31:47.25	207.36	2.19	-44.0	-58.4	3.8	1.49e+00	0	55	104	0	59	19080
2026-01-19 11:31:51.29	207.65	2.42	-44.0	-58.4	3.8	1.49e+00	0	55	104	0	59	18960
2026-01-19 11:31:55.33	207.95	2.64	-44.0	-58.4	3.8	1.49e+00	0	55	104	0	59	18952
2026-01-19 11:31:59.37	208.25	2.87	-44.0	-58.4	3.8	1.49e+00	0	56	104	0	59	19032
2026-01-19 11:32:03.41	208.56	3.10	-43.9	-58.4	3.8	1.49e+00	0	56	104	0	59	19053
2026-01-19 11:32:07.45	208.87	3.33	-43.9	-58.4	3.8	1.49e+00	0	56	104	0	59	19003
2026-01-19 11:32:11.49	209.19	3.56	-43.9	-58.3	3.8	1.49e+00	0	56	104	0	59	18939
2026-01-19 11:32:15.53	209.51	3.79	-43.9	-58.3	3.8	1.49e+00	0	56	104	0	59	18946
2026-01-19 11:32:19.58	209.83	4.02	-43.9	-58.3	3.8	1.49e+00	0	57	104	0	59	18928
2026-01-19 11:32:23.62	210.16	4.26	-43.9	-58.3	3.8	1.49e+00	0	57	104	0	59	18923
2026-01-19 11:32:27.66	210.50	4.49	-43.9	-58.3	3.8	1.49e+00	0	57	104	0	59	18925
2026-01-19 11:32:31.71	210.84	4.73	-43.9	-58.3	3.8	1.49e+00	0	57	104	0	59	18922
2026-01-19 11:32:35.75	211.19	4.97	-43.9	-58.4	3.8	1.49e+00	0	58	104	0	59	18953
2026-01-19 11:32:39.79	211.54	5.21	-43.9	-58.2	3.8	1.49e+00	0	58	104	0	59	18719
2026-01-19 11:32:43.83	211.90	5.45	-43.9	-58.2	3.8	1.49e+00	0	58	104	0	59	18528
2026-01-19 11:32:47.87	212.26	5.69	-43.9	-58.0	3.8	1.49e+00	0	58	104	0	59	18243
2026-01-19 11:32:51.92	212.63	5.93	-43.9	-57.6	3.8	1.49e+00	0	58	104	0	59	17424
2026-01-19 11:32:55.96	213.01	6.18	-43.8	-57.0	3.8	1.49e+00	0	58	104	0	59	16227
2026-01-19 11:33:00.00	213.39	6.42	-43.7	-55.4	3.9	1.48e+00	0	59	104	0	59	13498
2026-01-19 11:33:04.04	213.78	6.67	-43.6	-53.6	4.6	1.01e+00	0	59	0	3145728	58	11561
2026-01-19 11:33:08.08	214.17	6.92	-43.4	-52.7	5.0	7.19e-01	0	59	0	10485760	58	10463
2026-01-19 11:33:12.12	214.58	7.17	-43.5	-53.4	4.7	9.68e-01	0	59	0	18874368	58	11365
2026-01-19 11:33:16.17	214.98	7.42	-43.4	-52.5	5.2	7.06e-01	0	59	0	26214400	58	10241
2026-01-19 11:33:20.21	215.40	7.67	-42.8	-49.4	7.5	1.46e-01	0	59	0	33554432	57	7599
2026-01-19 11:33:24.25	215.82	7.92	-42.5	-48.3	8.7	3.27e-02	0	59	0	40894464	56	7049
2026-01-19 11:33:28.29	216.25	8.18	-42.7	-48.7	8.4	1.11e-01	0	59	0	45088768	57	7009
2026-01-19 11:33:32.33	216.68	8.43	-42.3	-47.4	9.9	1.18e-02	0	60	0	50331648	56	6355
2026-01-19 11:33:36.37	217.13	8.69	-42.2	-47.2	10.2	6.76e-03	0	60	0	58720256	56	6207
2026-01-19 11:33:40.41	217.58	8.95	-42.2	-47.1	10.3	5.26e-03	0	60	0	66060288	56	6142
2026-01-19 11:33:44.45	218.04	9.21	-42.4	-47.4	10.1	7.14e-03	0	60	0	73400320	56	6375
2026-01-19 11:33:48.49	218.50	9.47	-42.5	-47.5	10.0	7.89e-03	0	60	0	80740352	56	6465
2026-01-19 11:33:52.52	218.98	9.73	-42.5	-47.5	10.1	7.40e-03	0	60	0	89128960	56	6483
2026-01-19 11:33:56.56	219.46	9.99	-42.6	-47.6	9.9	6.72e-03	0	60	0	96468992	56	6565
2026-01-19 11:34:00.60	219.95	10.25	-42.6	-47.6	10.0	7.89e-03	0	60	0	103809024	56	6533
2026-01-19 11:34:04.63	220.45	10.52	-42.7	-47.7	9.9	8.51e-03	0	60	0	111149056	56	6637
2026-01-19 11:34:08.67	220.96	10.78	-42.6	-47.4	10.2	6.02e-03	0	60	0	118489088	56	6400
2026-01-19 11:34:12.70	221.48	11.05	-42.4	-46.9	10.8	2.58e-03	0	60	0	126877696	56	6041
2026-01-19 11:34:16.74	222.01	11.31	-42.2	-46.5	11.2	1.37e-03	0	60	0	134217728	56	5767
2026-01-19 11:34:20.78	222.54	11.58	-42.1	-46.3	11.5	1.03e-03	0	60	0	141557760	56	5639
2026-01-19 11:34:24.82	223.09	11.85	-42.0	-46.1	11.8	5.68e-04	0	61	0	148897792	56	5482
2026-01-19 11:34:28.86	223.64	12.12	-41.9	-45.9	11.8	6.26e-04	0	61	0	157286400	55	5701
2026-01-19 11:34:32.90	224.21	12.39	-42.1	-46.3	11.4	7.51e-04	0	61	0	164626432	55	5947
2026-01-19 11:34:36.94	224.79	12.66	-42.2	-46.5	11.1	1.37e-03	0	61	0	171966464	55	6088
2026-01-19 11:34:40.97	225.37	12.93	-42.3	-46.7	11.0	1.86e-03	0	61	0	179306496	55	6245
2026-01-19 11:34:45.01	225.97	13.20	-42.2	-46.5	11.2	1.27e-03	0	61	0	186646528	55	6113
2026-01-19 11:34:49.05	226.57	13.47	-41.9	-45.9	11.9	5.75e-04	0	61	0	195035136	55	5720
2026-01-19 11:34:53.08	227.19	13.74	-41.6	-45.4	12.3	1.99e-04	0	61	0	202375168	55	5397
2026-01-19 11:34:57.12	227.82	14.01	-41.8	-45.6	12.2	1.92e-04	0	61	0	209715200	55	5490
2026-01-19 11:35:01.16	228.46	14.28	-41.8	-45.7	12.2	2.22e-04	0	61	0	217055232	55	5532
2026-01-19 11:35:05.20	229.11	14.55	-41.8	-45.7	12.1	2.23e-04	0	61	0	224395264	54	5885
2026-01-19 11:35:09.23	229.78	14.82	-42.0	-46.0	11.8	3.36e-04	0	61	0	232783872	54	6110
2026-01-19 11:35:13.27	230.45	15.08	-41.9	-45.8	12.1	4.94e-04	0	61	0	240123904	54	5961
2026-01-19 11:35:17.31	231.14	15.35	-41.9	-45.7	12.2	3.17e-04	0	61	0	247463936	54	5908
2026-01-19 11:35:21.35	231.84	15.62	-41.8	-45.5	12.4	1.81e-04	0	61	0	254803968	54	5753
2026-01-19 11:35:25.38	232.55	15.88	-41.7	-45.3	12.6	1.16e-04	0	61	0	263192576	54	5632
2026-01-19 11:35:29.42	233.27	16.15	-41.6	-45.2	12.6	5.64e-05	0	61	0	270532608	54	5582
2026-01-19 11:35:33.46	234.01	16.41	-41.7	-45.3	12.6	5.79e-05	0	61	0	277872640	54	5642
2026-01-19 11:35:37.49	234.75	16.67	-41.9	-45.7	12.2	2.43e-04	0	62	0	285212672	54	5905
2026-01-19 11:35:41.53	235.52	16.93	-41.8	-45.6	12.4	1.45e-04	0	61	0	292552704	54	5801
2026-01-19 11:35:45.57	236.29	17.19	-41.9	-45.6	12.3	2.09e-04	0	61	0	300941312	54	5853
2026-01-19 11:35:49.61	237.08	17.44	-42.0	-46.0	12.0	4.68e-04	0	62	0	308281344	54	6081
2026-01-19 11:35:53.64	237.88	17.69	-41.9	-45.6	12.3	2.17e-04	0	62	0	315621376	54	5847
2026-01-19 11:35:57.68	238.69	17.94	-41.9	-45.7	12.3	1.98e-04	0	62	0	322961408	54	5879
2026-01-19 11:36:01.72	239.51	18.19	-41.9	-45.7	12.2	1.78e-04	0	62	0	331350016	54	5907
2026-01-19 11:36:05.76	240.35	18.43	-42.1	-46.0	11.9	2.52e-04	0	62	0	338690048	54	6120
2026-01-19 11:36:09.79	241.20	18.67	-42.0	-45.8	12.2	3.75e-04	0	62	0	346030080	54	5973
2026-01-19 11:36:13.83	242.07	18.90	-42.0	-45.9	12.1	2.37e-04	0	62	0	353370112	54	6031
2026-01-19 11:36:17.86	242.94	19.13	-42.2	-46.2	11.7	8.37e-04	0	62	0	360710144	55	5898
2026-01-19 11:36:21.90	243.84	19.36	-42.2	-46.3	11.6	6.34e-04	0	62	0	369098752	55	5979
2026-01-19 11:36:25.94	244.74	19.58	-42.6	-47.2	10.8	2.48e-03	0	62	0	376438784	55	6578
2026-01-19 11:36:29.98	245.65	19.79	-42.4	-46.7	11.3	1.11e-03	0	62	0	383778816	55	6217
2026-01-19 11:36:34.01	246.58	20.00	-42.6	-47.2	10.7	2.74e-03	0	62	0	391118848	55	6598
2026-01-19 11:36:38.05	247.52	20.21	-42.7	-47.3	10.5	2.66e-03	0	62	0	399507456	55	6701
2026-01-19 11:36:42.09	248.48	20.41	-42.9	-47.6	10.4	4.94e-03	0	62	0	406847488	56	6564
2026-01-19 11:36:46.13	249.44	20.60	-42.5	-46.8	11.4	9.22e-04	0	62	0	414187520	56	5924
2026-01-19 11:36:50.17	250.42	20.78	-42.4	-46.5	11.5	7.63e-04	0	62	0	421527552	56	5787
2026-01-19 11:36:54.20	251.40	20.96	-42.9	-47.6	10.5	4.47e-03	0	62	0	428867584	56	6528
2026-01-19 11:36:58.24	252.40	21.13	-42.4	-46.4	11.8	9.25e-04	0	62	0	437256192	56	5689
2026-01-19 11:37:02.28	253.41	21.29	-42.5	-46.8	11.4	9.00e-04	0	62	0	444596224	56	5930
2026-01-19 11:37:06.31	254.43	21.45	-42.4	-46.5	11.6	6.87e-04	0	62	0	451936256	56	5787
2026-01-19 11:37:10.35	255.46	21.59	-42.7	-47.1	11.0	1.81e-03	0	62	0	459276288	56	6151
2026-01-19 11:37:14.39	256.49	21.73	-41.9	-45.5	12.5	1.29e-04	0	62	0	466616320	55	5456
2026-01-19 11:37:18.43	257.54	21.86	-42.1	-45.9	12.0	3.30e-04	0	62	0	475004928	55	5712
2026-01-19 11:37:22.47	258.59	21.98	-42.0	-45.7	12.2	1.98e-04	0	62	0	482344960	55	5580
2026-01-19 11:37:26.51	259.66	22.09	-41.8	-45.5	12.5	1.23e-04	0	62	0	489684992	55	5408
2026-01-19 11:37:30.55	260.73	22.19	-42.0	-45.9	12.1	2.64e-04	0	62	0	497025024	55	5707
2026-01-19 11:37:34.59	261.80	22.28	-42.2	-46.2	11.8	3.54e-04	0	62	0	505413632	55	5887
2026-01-19 11:37:38.63	262.88	22.37	-42.2	-46.3	11.6	8.49e-04	0	62	0	512753664	55	5931
2026-01-19 11:37:42.67	263.97	22.44	-42.4	-46.6	11.4	8.83e-04	0	62	0	520093696	55	6156
2026-01-19 11:37:46.71	265.06	22.50	-41.8	-45.4	12.6	1.46e-04	0	62	0	527433728	55	5398
2026-01-19 11:37:50.74	266.16	22.55	-42.4	-46.7	11.2	8.11e-04	0	62	0	534773760	55	6222
2026-01-19 11:37:54.78	267.25	22.59	-42.0	-45.8	12.2	2.13e-04	0	62	0	543162368	55	5601
2026-01-19 11:37:58.82	268.35	22.62	-42.1	-46.0	12.0	5.31e-04	0	62	0	550502400	55	5729
2026-01-19 11:38:02.85	269.45	22.64	-42.1	-46.1	12.0	3.11e-04	0	62	0	557842432	55	5804
2026-01-19 11:38:06.89	270.56	22.64	-42.0	-45.8	12.2	2.94e-04	0	62	0	565182464	55	5630
2026-01-19 11:38:10.93	271.66	22.64	-42.5	-46.9	11.1	1.42e-03	0	62	0	573571072	55	6351
2026-01-19 11:38:14.97	272.76	22.63	-42.4	-46.6	11.3	1.34e-03	0	62	0	580911104	55	6200
2026-01-19 11:38:19.00	273.86	22.60	-42.0	-45.9	12.1	3.33e-04	0	62	0	588251136	55	5676
2026-01-19 11:38:23.04	274.96	22.57	-42.1	-46.1	11.9	5.48e-04	0	62	0	595591168	55	5819
2026-01-19 11:38:27.08	276.05	22.52	-42.1	-45.9	12.0	2.74e-04	0	62	0	602931200	55	5720
2026-01-19 11:38:31.12	277.14	22.47	-41.7	-45.3	12.7	9.07e-05	0	62	0	611319808	55	5317
2026-01-19 11:38:35.16	278.23	22.40	-41.8	-45.4	12.6	8.16e-05	0	62	0	618659840	55	5371
2026-01-19 11:38:39.20	279.31	22.32	-42.0	-45.7	12.2	2.02e-04	0	62	0	625999872	55	5586
2026-01-19 11:38:43.24	280.39	22.24	-41.7	-45.3	12.6	6.94e-05	0	62	0	633339904	55	5335
2026-01-19 11:38:47.27	281.46	22.14	-42.0	-45.9	12.0	3.08e-04	0	62	0	641728512	55	5679
2026-01-19 11:38:51.31	282.52	22.03	-42.0	-45.8	12.2	1.96e-04	0	62	0	649068544	55	5610
2026-01-19 11:38:55.35	283.58	21.92	-42.2	-46.3	11.6	8.49e-04	0	62	0	656408576	55	5946
2026-01-19 11:38:59.39	284.63	21.79	-41.7	-45.2	12.7	7.24e-05	0	62	0	663748608	55	5269
2026-01-19 11:39:03.42	285.66	21.66	-41.8	-45.4	12.6	1.60e-04	0	62	0	671088640	55	5362
2026-01-19 11:39:07.46	286.69	21.52	-41.5	-44.9	13.1	3.35e-05	0	62	0	679477248	55	5077
2026-01-19 11:39:11.50	287.71	21.37	-41.8	-45.5	12.5	9.99e-05	0	62	0	686817280	55	5408
2026-01-19 11:39:15.54	288.72	21.21	-41.7	-45.2	12.7	6.86e-05	0	62	0	694157312	55	5262
2026-01-19 11:39:19.58	289.72	21.04	-41.9	-45.6	12.2	1.85e-04	0	62	0	701497344	55	5527
2026-01-19 11:39:23.62	290.71	20.87	-41.8	-45.6	12.3	1.66e-04	0	62	0	709885952	55	5493
2026-01-19 11:39:27.66	291.69	20.69	-41.6	-45.1	12.9	6.48e-05	0	62	0	717225984	55	5178
2026-01-19 11:39:31.69	292.65	20.50	-41.5	-44.9	13.1	3.73e-05	0	62	0	724566016	54	5357
2026-01-19 11:39:35.73	293.61	20.31	-41.7	-45.2	12.7	8.31e-05	0	62	0	731906048	54	5585
2026-01-19 11:39:39.77	294.55	20.11	-41.7	-45.3	12.6	7.01e-05	0	62	0	739246080	54	5645
2026-01-19 11:39:43.81	295.48	19.90	-42.1	-46.1	11.7	3.75e-04	0	62	0	747634688	54	6167
2026-01-19 11:39:47.84	296.40	19.69	-41.8	-45.6	12.2	1.92e-04	0	62	0	754974720	54	5846
2026-01-19 11:39:51.88	297.30	19.47	-41.6	-45.2	12.6	6.79e-05	0	62	0	762314752	54	5577
2026-01-19 11:39:55.92	298.20	19.25	-42.1	-46.2	11.6	4.62e-04	0	62	0	769654784	54	6241
2026-01-19 11:39:59.96	299.08	19.03	-42.9	-47.9	10.0	7.95e-03	0	62	0	778043392	56	6797
2026-01-19 11:40:04.00	299.94	18.80	-42.6	-47.2	10.8	3.21e-03	0	62	0	785383424	56	6211
2026-01-19 11:40:08.03	300.80	18.56	-42.7	-47.4	10.5	4.42e-03	0	62	0	792723456	56	6398
2026-01-19 11:40:12.07	301.64	18.32	-42.5	-46.8	11.1	1.35e-03	0	62	0	800063488	56	5964
2026-01-19 11:40:16.11	302.47	18.08	-42.4	-46.7	11.3	1.34e-03	0	62	0	807403520	56	5864
2026-01-19 11:40:20.14	303.28	17.84	-42.8	-47.7	10.2	4.74e-03	0	62	0	815792128	56	6607
2026-01-19 11:40:24.18	304.08	17.59	-43.1	-48.4	9.4	1.42e-02	0	62	0	823132160	56	7177
2026-01-19 11:40:28.22	304.87	17.34	-42.9	-47.9	10.0	8.40e-03	0	62	0	830472192	56	6757
2026-01-19 11:40:32.26	305.65	17.08	-42.8	-47.7	10.2	5.14e-03	0	62	0	837812224	56	6590
2026-01-19 11:40:36.30	306.41	16.83	-42.8	-47.7	10.1	7.04e-03	0	62	0	846200832	56	6601
2026-01-19 11:40:40.34	307.16	16.57	-42.4	-46.9	11.0	2.09e-03	0	62	0	853540864	56	5999
2026-01-19 11:40:44.37	307.90	16.31	-42.4	-46.8	11.1	1.73e-03	0	62	0	860880896	56	5956
2026-01-19 11:40:48.41	308.63	16.05	-42.4	-46.8	11.1	1.65e-03	0	62	0	868220928	56	5942
2026-01-19 11:40:52.45	309.34	15.79	-42.6	-47.4	10.4	4.22e-03	0	62	0	875560960	56	6373
2026-01-19 11:40:56.48	310.04	15.53	-42.6	-47.4	10.4	4.04e-03	0	62	0	883949568	56	6374
2026-01-19 11:41:00.52	310.73	15.26	-42.3	-46.6	11.3	1.36e-03	0	62	0	891289600	56	5806
2026-01-19 11:41:04.56	311.41	15.00	-42.5	-47.1	10.7	3.08e-03	0	62	0	898629632	56	6178
2026-01-19 11:41:08.59	312.08	14.73	-42.4	-46.9	10.9	2.37e-03	0	62	0	905969664	56	6010
2026-01-19 11:41:12.63	312.73	14.46	-42.3	-46.7	11.2	1.36e-03	0	62	0	914358272	56	5870
2026-01-19 11:41:16.67	313.37	14.20	-42.7	-47.7	10.0	6.92e-03	0	62	0	921698304	56	6635
2026-01-19 11:41:20.71	314.01	13.93	-42.5	-47.1	10.7	3.41e-03	0	62	0	929038336	56	6156
2026-01-19 11:41:24.74	314.63	13.66	-41.8	-45.7	12.0	4.23e-04	0	62	0	936378368	55	5537
2026-01-19 11:41:28.78	315.24	13.39	-41.9	-45.8	11.8	4.54e-04	0	62	0	943718400	55	5649
2026-01-19 11:41:32.82	315.84	13.13	-41.6	-45.4	12.2	1.96e-04	0	62	0	952107008	55	5353
2026-01-19 11:41:36.86	316.43	12.86	-41.9	-46.0	11.6	6.35e-04	0	62	0	959447040	55	5774
2026-01-19 11:41:40.90	317.01	12.59	-42.4	-47.2	10.3	3.54e-03	0	62	0	966787072	55	6580
2026-01-19 11:41:44.93	317.57	12.33	-42.3	-46.9	10.6	3.79e-03	0	62	0	974127104	55	6396
2026-01-19 11:41:48.97	318.13	12.06	-42.4	-47.2	10.3	3.79e-03	0	62	0	982515712	55	6574
2026-01-19 11:41:53.01	318.68	11.79	-42.3	-47.0	10.4	6.89e-03	0	62	0	989855744	55	6485
2026-01-19 11:41:57.04	319.22	11.53	-42.1	-46.6	10.9	3.34e-03	0	62	0	997195776	55	6133
2026-01-19 11:42:01.09	319.75	11.26	-41.8	-45.9	11.6	7.46e-04	0	62	0	1004535808	55	5705
2026-01-19 11:42:05.13	320.28	11.00	-42.0	-46.4	11.1	1.36e-03	0	62	0	1011875840	55	6011
2026-01-19 11:42:09.17	320.79	10.74	-41.7	-46.5	10.9	2.19e-03	0	62	0	1020264448	55	6121
2026-01-19 11:42:13.20	321.29	10.48	-42.0	-46.7	10.7	3.62e-03	0	62	0	1027604480	55	6254
2026-01-19 11:42:17.24	321.79	10.22	-42.3	-47.4	9.9	6.86e-03	0	62	0	1034944512	55	6767
2026-01-19 11:42:21.28	322.27	9.96	-42.3	-47.7	9.6	1.47e-02	0	62	0	1042284544	55	7008
2026-01-19 11:42:25.32	322.75	9.70	-42.1	-46.9	10.3	5.18e-03	0	62	0	1050673152	55	6409
2026-01-19 11:42:29.35	323.22	9.44	-41.9	-46.2	11.1	1.42e-03	0	62	0	1058013184	55	5913
2026-01-19 11:42:33.39	323.68	9.18	-42.0	-46.6	10.7	2.21e-03	0	62	0	1065353216	55	6157
2026-01-19 11:42:37.43	324.14	8.93	-42.3	-47.4	9.8	9.52e-03	0	62	0	1072693248	55	6794
2026-01-19 11:42:41.46	324.58	8.67	-42.5	-48.0	9.2	1.86e-02	0	62	0	1080033280	55	7210
2026-01-19 11:42:45.50	325.02	8.42	-42.6	-48.3	8.8	2.60e-02	0	62	0	1088421888	55	7511
2026-01-19 11:42:49.55	325.46	8.17	-42.9	-49.1	8.1	6.90e-02	0	62	0	1095761920	56	7773
2026-01-19 11:42:53.59	325.88	7.92	-44.6	-58.9	3.8	1.49e+00	0	62	104	1101004800	59	20214
2026-01-19 11:42:57.63	326.30	7.67	-45.2	-59.8	3.8	1.49e+00	0	62	104	1101004800	60	21049
2026-01-19 11:43:01.67	326.71	7.42	-45.3	-59.9	3.8	1.49e+00	0	62	104	1101004800	61	20164
2026-01-19 11:43:05.72	327.12	7.17	-45.3	-59.8	3.8	1.49e+00	0	62	104	1101004800	61	19992
2026-01-19 11:43:09.76	327.52	6.92	-45.2	-59.8	3.8	1.49e+00	0	62	104	1101004800	61	19929
2026-01-19 11:43:13.80	327.91	6.68	-45.2	-59.8	3.8	1.49e+00	0	62	104	1101004800	61	19848
2026-01-19 11:43:17.84	328.30	6.43	-45.2	-59.7	3.8	1.49e+00	0	62	104	1101004800	61	19828
2026-01-19 11:43:21.88	328.68	6.19	-45.1	-59.7	3.8	1.49e+00	0	62	104	1101004800	60	20934
2026-01-19 11:43:25.93	329.05	5.95	-44.2	-59.8	3.8	1.49e+00	0	62	104	1101004800	60	21051
2026-01-19 11:43:29.97	329.42	5.71	-40.9	-59.4	3.8	1.49e+00	0	62	104	1101004800	53	30194
2026-01-19 11:43:34.01	329.78	5.47	-44.0	-59.6	3.8	1.49e+00	0	62	104	1101004800	59	21905
2026-01-19 11:43:38.05	330.14	5.23	-44.8	-59.7	3.8	1.49e+00	0	62	104	1101004800	60	20972
2026-01-19 11:43:42.10	330.49	5.00	-45.1	-59.7	3.8	1.49e+00	0	62	104	1101004800	60	20911
2026-01-19 11:43:46.14	330.84	4.76	-45.2	-59.7	3.8	1.49e+00	0	62	104	1101004800	60	20964
2026-01-19 11:43:50.18	331.18	4.53	-45.2	-59.7	3.8	1.49e+00	0	62	104	1101004800	60	20914
2026-01-19 11:43:54.22	331.52	4.30	-45.0	-59.7	3.8	1.49e+00	0	62	104	1101004800	60	20917
2026-01-19 11:43:58.26	331.85	4.07	-44.5	-59.8	3.8	1.49e+00	0	62	104	1101004800	60	21020
2026-01-19 11:44:02.31	332.17	3.84	-45.2	-59.7	3.8	1.49e+00	0	62	104	1101004800	60	20883
2026-01-19 11:44:06.35	332.50	3.61	-45.0	-59.7	3.8	1.49e+00	0	62	104	1101004800	60	20895
2026-01-19 11:44:10.39	332.81	3.38	-45.0	-59.7	3.8	1.49e+00	0	62	104	1101004800	60	20847
2026-01-19 11:44:14.43	333.12	3.15	-45.1	-59.7	3.8	1.49e+00	0	62	104	1101004800	60	20882
2026-01-19 11:44:18.48	333.43	2.93	-45.2	-59.7	3.8	1.49e+00	0	62	104	1101004800	60	20895
2026-01-19 11:44:22.52	333.74	2.70	-45.0	-59.7	3.8	1.49e+00	0	62	104	1101004800	60	20865
2026-01-19 11:44:26.56	334.03	2.48	-45.1	-59.7	3.8	1.49e+00	0	62	104	1101004800	60	20858
2026-01-19 11:44:30.60	334.33	2.26	-45.2	-59.7	3.8	1.49e+00	0	62	104	1101004800	60	20943
2026-01-19 11:44:34.64	334.62	2.04	-45.2	-59.7	3.8	1.49e+00	0	62	104	1101004800	60	20851

#Closed at: 2026-01-19 11:44:36
#Recorded file [1101 MB]: D:/lorett/data/31039_260119_143143.dat