passes_logs/2026/01/19/R2.0S_Moscow/R2.0S_Moscow__20260119_193908_FENGYUN_3G_rec.log

#Pass ID: 20260119_193908_FENGYUN 3G
#Satellite: FENGYUN 3G
#Configuration: FENGYUN 3G
#almurnet v.1.7.20251203
#Start time: 2026-01-19 19:39:08

#Version: 2.2.20231116
#Station: R2.0S_Moscow
#Location: 37.707566 lon 55.798166 lat
#TLE: 1 56232U 23055A   26018.90814638  .00029420  00000+0  45610-3 0  9994
#TLE: 2 56232  49.9939  35.7665 0004119  46.9747 313.1565 15.53706339156803

#Time	Az	El	Level	Level2	SNR	BER	BlckErr	Temp	State	Recorded	gain1	gain2
2026-01-19 19:39:08.14	219.13	1.99	-44.0	-62.0	3.8	8.46e-01	0	52	0	0	59	28788
2026-01-19 19:39:11.16	218.84	2.17	-44.0	-62.0	3.8	8.47e-01	0	53	104	0	59	28829
2026-01-19 19:39:14.19	218.55	2.36	-44.0	-62.0	3.8	8.47e-01	0	53	104	0	59	28864
2026-01-19 19:39:17.23	218.25	2.54	-44.0	-62.0	3.8	8.45e-01	0	53	104	0	59	28764
2026-01-19 19:39:20.26	217.94	2.73	-44.0	-62.0	3.8	8.46e-01	0	53	104	0	59	28835
2026-01-19 19:39:23.29	217.63	2.92	-44.0	-62.0	3.8	8.46e-01	0	53	104	0	59	28789
2026-01-19 19:39:26.32	217.31	3.11	-44.0	-62.0	3.8	8.46e-01	0	53	104	0	59	28765
2026-01-19 19:39:29.35	216.98	3.30	-44.0	-62.0	3.8	8.46e-01	0	54	104	0	59	28745
2026-01-19 19:39:32.38	216.65	3.50	-44.0	-62.0	3.8	8.46e-01	0	54	104	0	59	28789
2026-01-19 19:39:35.41	216.32	3.69	-44.0	-62.0	3.8	8.45e-01	0	54	104	0	59	28714
2026-01-19 19:39:38.44	215.97	3.89	-44.0	-61.9	3.8	8.46e-01	0	54	104	0	59	28671
2026-01-19 19:39:41.47	215.62	4.09	-44.0	-62.0	3.8	8.46e-01	0	54	104	0	59	28725
2026-01-19 19:39:44.50	215.26	4.29	-44.0	-62.0	3.8	8.47e-01	0	54	104	0	59	28768
2026-01-19 19:39:47.53	214.90	4.49	-44.0	-62.0	3.8	8.46e-01	0	55	104	0	59	28706
2026-01-19 19:39:50.56	214.53	4.69	-44.0	-61.9	3.8	8.47e-01	0	55	104	0	59	28650
2026-01-19 19:39:53.59	214.15	4.90	-44.0	-61.9	3.8	8.47e-01	0	55	104	0	59	28635
2026-01-19 19:39:56.62	213.76	5.10	-44.0	-62.0	3.8	8.45e-01	0	55	104	0	59	28759
2026-01-19 19:39:59.65	213.37	5.31	-44.0	-62.0	3.8	8.46e-01	0	55	104	0	59	28691
2026-01-19 19:40:02.69	212.96	5.52	-44.0	-61.5	3.8	8.46e-01	0	55	104	0	59	27377
2026-01-19 19:40:05.72	212.55	5.73	-43.9	-60.6	3.8	8.46e-01	0	56	104	0	59	24514
2026-01-19 19:40:08.75	212.13	5.94	-44.0	-61.2	3.8	8.46e-01	0	56	104	0	59	26263
2026-01-19 19:40:11.78	211.70	6.15	-43.9	-61.2	3.8	8.46e-01	0	56	104	0	59	26217
2026-01-19 19:40:14.81	211.26	6.37	-43.9	-59.9	3.8	8.45e-01	0	56	104	0	59	22651
2026-01-19 19:40:17.84	210.81	6.59	-43.9	-58.1	4.3	8.43e-01	0	56	0	0	59	18477
2026-01-19 19:40:20.87	210.36	6.80	-43.8	-57.6	4.4	8.35e-01	0	56	0	0	59	17410
2026-01-19 19:40:23.90	209.89	7.02	-43.5	-53.8	6.8	7.97e-01	0	56	0	524288	59	11252
2026-01-19 19:40:26.93	209.41	7.24	-43.1	-51.3	9.4	2.83e-02	0	56	0	4194304	58	8913
2026-01-19 19:40:29.96	208.93	7.47	-43.6	-54.3	6.6	6.84e-02	0	57	0	7340032	58	12604
2026-01-19 19:40:32.99	208.43	7.69	-43.7	-55.2	5.6	8.42e-01	0	57	0	7864320	58	13936
2026-01-19 19:40:36.02	207.92	7.91	-41.6	-46.5	14.2	7.91e-04	0	57	0	11010048	55	6075
2026-01-19 19:40:39.05	207.40	8.14	-42.3	-48.4	12.2	0.00e+00	0	57	0	14155776	55	7606
2026-01-19 19:40:42.08	206.87	8.37	-42.4	-48.1	13.1	8.34e-03	0	57	0	17825792	55	7321
2026-01-19 19:40:45.11	206.33	8.60	-41.2	-45.6	15.3	3.77e-01	0	57	0	19398656	54	5792
2026-01-19 19:40:48.14	205.78	8.83	-41.2	-45.4	15.5	0.00e+00	0	57	0	23068672	54	5722
2026-01-19 19:40:51.17	205.21	9.06	-41.1	-45.2	15.8	0.00e+00	0	57	0	26214400	54	5546
2026-01-19 19:40:54.19	204.63	9.29	-40.9	-44.7	16.3	0.00e+00	0	58	0	29884416	53	5572
2026-01-19 19:40:57.22	204.04	9.53	-40.6	-44.1	17.0	0.00e+00	0	58	0	33030144	53	5194
2026-01-19 19:41:00.25	203.44	9.76	-40.5	-44.0	17.1	0.00e+00	0	58	0	36700160	53	5135
2026-01-19 19:41:03.28	202.82	10.00	-40.6	-44.1	17.0	0.00e+00	0	58	0	39845888	53	5216
2026-01-19 19:41:06.31	202.19	10.23	-40.8	-44.4	16.8	0.00e+00	0	58	0	43515904	53	5356
2026-01-19 19:41:09.34	201.54	10.47	-40.3	-43.6	17.6	0.00e+00	0	58	0	46661632	52	5189
2026-01-19 19:41:12.38	200.88	10.71	-40.6	-44.1	17.2	0.00e+00	0	58	0	50331648	52	5515
2026-01-19 19:41:15.40	200.21	10.95	-40.6	-44.0	17.2	0.00e+00	0	58	0	53477376	52	5454
2026-01-19 19:41:18.43	199.52	11.19	-40.6	-44.1	17.3	0.00e+00	0	58	0	57147392	52	5479
2026-01-19 19:41:21.46	198.82	11.43	-40.3	-43.5	17.8	0.00e+00	0	58	0	60293120	52	5138
2026-01-19 19:41:24.49	198.10	11.67	-40.2	-43.3	18.1	0.00e+00	0	58	0	63963136	52	4999
2026-01-19 19:41:27.52	197.36	11.90	-40.4	-43.6	17.8	0.00e+00	0	58	0	67108864	52	5164
2026-01-19 19:41:30.55	196.61	12.14	-40.4	-43.6	17.8	0.00e+00	0	59	0	70778880	52	5199
2026-01-19 19:41:33.58	195.84	12.38	-40.1	-43.1	18.4	0.00e+00	0	58	0	73924608	52	4880
2026-01-19 19:41:36.61	195.06	12.62	-40.1	-43.0	18.5	0.00e+00	0	58	0	77594624	51	5149
2026-01-19 19:41:39.64	194.26	12.86	-40.3	-43.3	18.2	0.00e+00	0	59	0	80740352	51	5305
2026-01-19 19:41:42.67	193.44	13.09	-40.2	-43.2	18.3	0.00e+00	0	58	0	84410368	51	5239
2026-01-19 19:41:45.70	192.60	13.33	-39.8	-42.6	18.9	0.00e+00	0	59	0	87556096	51	4925
2026-01-19 19:41:48.73	191.75	13.56	-39.8	-42.6	19.0	0.00e+00	0	59	0	91226112	51	4919
2026-01-19 19:41:51.76	190.88	13.79	-39.7	-42.4	19.1	0.00e+00	0	59	0	94371840	51	4804
2026-01-19 19:41:54.79	189.99	14.02	-40.0	-42.9	18.7	0.00e+00	0	59	0	98041856	51	5071
2026-01-19 19:41:57.81	189.09	14.25	-40.2	-43.2	18.4	0.00e+00	0	59	0	101187584	51	5238
2026-01-19 19:42:00.84	188.17	14.47	-40.1	-43.0	18.6	0.00e+00	0	59	0	104857600	51	5152
2026-01-19 19:42:03.87	187.23	14.69	-39.8	-42.5	19.1	0.00e+00	0	59	0	108003328	51	4853
2026-01-19 19:42:06.90	186.27	14.91	-39.3	-41.9	19.7	0.00e+00	0	59	0	111673344	50	4784
2026-01-19 19:42:09.92	185.29	15.12	-39.2	-41.7	20.0	0.00e+00	0	59	0	114819072	50	4652
2026-01-19 19:42:12.95	184.30	15.33	-39.6	-42.3	19.3	0.00e+00	0	59	0	118489088	50	5023
2026-01-19 19:42:15.98	183.29	15.54	-39.4	-42.0	19.6	0.00e+00	0	59	0	121634816	50	4846
2026-01-19 19:42:19.01	182.26	15.74	-39.1	-41.6	20.0	0.00e+00	0	59	0	125304832	50	4627
2026-01-19 19:42:22.04	181.21	15.93	-38.8	-41.1	20.4	0.00e+00	0	59	0	128450560	49	4637
2026-01-19 19:42:25.06	180.15	16.12	-38.9	-41.3	20.3	0.00e+00	0	60	0	132120576	49	4707
2026-01-19 19:42:28.09	179.07	16.30	-38.7	-41.0	20.6	0.00e+00	0	59	0	135266304	49	4585
2026-01-19 19:42:31.12	177.98	16.47	-38.7	-41.0	20.5	0.00e+00	0	59	0	138936320	49	4591
2026-01-19 19:42:34.15	176.87	16.64	-38.7	-41.1	20.5	0.00e+00	0	59	0	142082048	49	4606
2026-01-19 19:42:37.18	175.74	16.80	-38.7	-41.0	20.7	0.00e+00	0	59	0	145752064	49	4546
2026-01-19 19:42:40.20	174.60	16.95	-39.0	-41.3	20.3	0.00e+00	0	60	0	148897792	49	4756
2026-01-19 19:42:43.24	173.44	17.10	-39.0	-41.4	20.4	0.00e+00	0	59	0	152567808	49	4795
2026-01-19 19:42:46.26	172.28	17.23	-38.8	-41.1	20.6	0.00e+00	0	60	0	155713536	49	4641
2026-01-19 19:42:49.29	171.09	17.36	-39.1	-41.5	20.2	0.00e+00	0	60	0	159383552	49	4828
2026-01-19 19:42:52.32	169.90	17.48	-38.9	-41.2	20.6	0.00e+00	0	60	0	162529280	49	4673
2026-01-19 19:42:55.35	168.70	17.58	-38.5	-40.7	21.2	0.00e+00	0	60	0	166199296	49	4399
2026-01-19 19:42:58.38	167.48	17.68	-38.4	-40.5	21.4	0.00e+00	0	60	0	169345024	48	4565
2026-01-19 19:43:01.41	166.26	17.76	-38.3	-40.4	21.5	0.00e+00	0	60	0	173015040	48	4514
2026-01-19 19:43:04.44	165.03	17.84	-38.5	-40.7	21.2	0.00e+00	0	60	0	176160768	48	4671
2026-01-19 19:43:07.46	163.79	17.90	-38.5	-40.7	21.2	0.00e+00	0	60	0	179830784	48	4686
2026-01-19 19:43:10.50	162.55	17.95	-38.8	-41.1	20.9	0.00e+00	0	60	0	182976512	48	4873
2026-01-19 19:43:13.53	161.30	17.99	-38.9	-41.2	20.8	0.00e+00	0	60	0	186646528	48	4937
2026-01-19 19:43:16.55	160.05	18.02	-38.7	-41.0	21.0	0.00e+00	0	60	0	189792256	48	4829
2026-01-19 19:43:19.58	158.80	18.04	-38.9	-41.2	20.8	0.00e+00	0	60	0	193462272	48	4974
2026-01-19 19:43:22.61	157.54	18.05	-38.6	-40.8	21.2	0.00e+00	0	60	0	196608000	48	4735
2026-01-19 19:43:25.64	156.29	18.04	-38.7	-40.9	21.1	0.00e+00	0	60	0	200278016	48	4810
2026-01-19 19:43:28.67	155.03	18.02	-39.2	-41.6	20.5	0.00e+00	0	60	0	203423744	48	5189
2026-01-19 19:43:31.69	153.78	17.99	-39.1	-41.4	20.6	0.00e+00	0	60	0	207093760	48	5089
2026-01-19 19:43:34.73	152.53	17.95	-38.5	-40.7	21.3	0.00e+00	0	60	0	210239488	48	4671
2026-01-19 19:43:37.76	151.29	17.90	-38.5	-40.7	21.4	0.00e+00	0	60	0	213909504	48	4677
2026-01-19 19:43:40.78	150.06	17.84	-38.8	-41.1	21.0	0.00e+00	0	60	0	217055232	48	4893
2026-01-19 19:43:43.81	148.83	17.76	-38.6	-40.9	21.1	0.00e+00	0	60	0	220725248	48	4770
2026-01-19 19:43:46.84	147.61	17.68	-38.5	-40.7	21.3	0.00e+00	0	60	0	223870976	48	4665
2026-01-19 19:43:49.87	146.39	17.58	-38.7	-40.9	21.1	0.00e+00	0	60	0	227540992	48	4811
2026-01-19 19:43:52.89	145.19	17.48	-39.0	-41.4	20.6	0.00e+00	0	60	0	230686720	48	5100
2026-01-19 19:43:55.92	144.00	17.36	-39.0	-41.3	20.7	0.00e+00	0	60	0	234356736	48	5036
2026-01-19 19:43:58.95	142.82	17.23	-37.4	-41.1	19.7	1.10e-06	0	60	0	237502464	46	5499
2026-01-19 19:44:01.98	141.66	17.10	-38.6	-41.3	20.5	1.10e-06	0	60	0	241172480	48	5005
2026-01-19 19:44:05.01	140.50	16.96	-38.9	-41.8	20.1	1.10e-06	0	60	0	244318208	49	4986
2026-01-19 19:44:08.03	139.37	16.80	-38.9	-41.3	20.6	0.00e+00	0	60	0	247988224	49	4741
2026-01-19 19:44:11.06	138.24	16.64	-39.2	-41.7	20.2	0.00e+00	0	60	0	251133952	49	4959
2026-01-19 19:44:14.09	137.13	16.48	-38.9	-41.3	20.2	0.00e+00	0	60	0	254803968	48	4995
2026-01-19 19:44:17.12	136.04	16.30	-33.2	-41.7	17.2	3.42e-04	0	60	0	257949696	44	6629
2026-01-19 19:44:20.15	134.96	16.12	-39.4	-42.3	16.8	1.40e-01	0	60	0	261619712	48	5615
2026-01-19 19:44:23.18	133.90	15.93	-36.2	-41.6	11.1	8.52e-02	0	60	0	264765440	32	13039
2026-01-19 19:44:26.20	132.86	15.74	-32.6	-42.6	16.5	1.41e-01	0	60	0	267911168	47	6154
2026-01-19 19:44:29.23	131.84	15.54	-38.5	-42.2	10.7	2.34e-02	0	60	0	271581184	35	11804
2026-01-19 19:44:32.26	130.83	15.34	-35.3	-41.5	12.9	3.85e-02	0	60	0	274726912	39	8562
2026-01-19 19:44:35.28	129.84	15.13	-29.9	-41.0	11.6	1.82e-02	0	60	0	278396928	30	13701
2026-01-19 19:44:38.31	128.87	14.92	-39.0	-42.5	15.4	1.05e-02	0	61	0	281542656	49	5421
2026-01-19 19:44:41.34	127.91	14.70	-33.7	-42.3	16.2	8.82e-02	0	60	0	284688384	47	5951
2026-01-19 19:44:44.37	126.98	14.48	-37.1	-42.7	14.1	8.72e-02	0	61	0	287834112	47	6232
2026-01-19 19:44:47.40	126.06	14.26	-37.9	-43.1	13.3	1.34e-01	0	60	0	291504128	44	7720
2026-01-19 19:44:50.43	125.15	14.03	-35.2	-43.0	14.7	7.19e-02	0	60	0	294649856	45	7227
2026-01-19 19:44:53.46	124.27	13.81	-37.3	-42.6	16.6	2.97e-02	0	61	0	297795584	46	6550
2026-01-19 19:44:56.48	123.41	13.58	-37.4	-42.9	15.5	7.01e-02	0	61	0	301465600	47	6396
2026-01-19 19:44:59.51	122.56	13.34	-34.2	-42.5	11.2	8.35e-02	0	60	0	304611328	38	10205
2026-01-19 19:45:02.54	121.73	13.11	-30.5	-42.3	11.5	3.81e-02	0	61	0	307757056	38	10042
2026-01-19 19:45:05.56	120.91	12.87	-32.1	-42.5	9.9	6.07e-02	0	61	0	310902784	35	12170
2026-01-19 19:45:08.60	120.11	12.64	-35.0	-42.7	10.0	2.47e-01	0	60	0	314048512	37	11044
2026-01-19 19:45:11.63	119.33	12.40	-36.0	-43.0	10.8	1.29e-01	0	61	0	317194240	39	10244
2026-01-19 19:45:14.65	118.57	12.16	-35.8	-43.2	12.3	7.89e-02	0	61	0	320339968	42	8805
2026-01-19 19:45:17.68	117.82	11.93	-30.7	-43.2	10.6	7.84e-02	0	61	0	323485696	39	10514
2026-01-19 19:45:20.71	117.09	11.69	-36.5	-43.9	10.3	1.31e-01	0	61	0	326631424	41	10155
2026-01-19 19:45:23.74	116.37	11.45	-33.8	-43.2	7.5	1.61e-01	0	61	0	329777152	30	17586
2026-01-19 19:45:26.77	115.67	11.21	-33.8	-44.2	8.7	2.56e-01	0	61	0	332922880	37	13162
2026-01-19 19:45:29.79	114.99	10.97	-26.2	-41.7	5.1	4.31e-01	0	61	0	334495744	22	23486
2026-01-19 19:45:32.82	114.32	10.74	-30.1	-40.8	8.2	3.85e-01	0	61	0	336592896	27	15923
2026-01-19 19:45:35.84	113.66	10.50	-23.2	-41.3	5.4	3.53e-01	0	61	0	339214336	21	23827
2026-01-19 19:45:38.87	113.02	10.26	-27.8	-42.5	6.8	4.88e-01	0	61	0	340262912	27	19254
2026-01-19 19:45:41.90	112.39	10.03	-26.0	-44.4	5.6	5.02e-01	0	61	0	341835776	26	25362
2026-01-19 19:45:44.93	111.78	9.79	-32.3	-45.1	8.3	4.66e-01	0	61	0	343932928	34	17413
2026-01-19 19:45:47.96	111.17	9.56	-31.7	-46.4	5.5	3.79e-01	0	61	0	346030080	34	20272
2026-01-19 19:45:50.98	110.59	9.33	-34.7	-45.4	10.5	3.19e-01	0	61	0	348651520	41	12013
2026-01-19 19:45:54.01	110.01	9.09	-35.1	-45.0	8.9	1.40e-01	0	61	0	351797248	39	12829
2026-01-19 19:45:57.04	109.45	8.86	-34.7	-44.4	10.4	9.10e-02	0	61	0	355467264	39	12021
2026-01-19 19:46:00.07	108.90	8.63	-35.0	-45.6	6.1	8.49e-02	0	61	0	358612992	33	19435
2026-01-19 19:46:03.10	108.36	8.41	-37.3	-46.2	10.8	8.20e-02	0	61	0	361758720	46	9899
2026-01-19 19:46:06.13	107.83	8.18	-38.0	-45.7	10.8	3.25e-02	0	61	0	365428736	43	11073
2026-01-19 19:46:09.16	107.31	7.95	-30.2	-53.0	3.9	2.47e-01	0	61	104	368574464	37	36183
2026-01-19 19:46:12.19	106.81	7.73	-45.1	-63.3	3.8	8.46e-01	0	61	104	368574464	60	31767
2026-01-19 19:46:15.22	106.31	7.51	-45.6	-63.8	3.8	8.47e-01	0	61	104	368574464	61	31495
2026-01-19 19:46:18.25	105.83	7.28	-45.8	-64.0	3.8	8.48e-01	0	61	104	368574464	62	30498
2026-01-19 19:46:21.28	105.35	7.06	-45.5	-63.7	3.8	8.47e-01	0	61	104	368574464	62	29613
2026-01-19 19:46:24.31	104.89	6.85	-45.4	-63.5	3.8	8.46e-01	0	61	104	368574464	62	29003
2026-01-19 19:46:27.34	104.43	6.63	-45.3	-63.4	3.8	8.47e-01	0	61	104	368574464	62	28629
2026-01-19 19:46:30.37	103.99	6.41	-45.3	-63.4	3.8	8.46e-01	0	61	104	368574464	62	28601
2026-01-19 19:46:33.40	103.55	6.20	-45.3	-63.4	3.8	8.48e-01	0	61	104	368574464	62	28571
2026-01-19 19:46:36.43	103.13	5.99	-45.3	-63.4	3.8	8.46e-01	0	61	104	368574464	61	30185
2026-01-19 19:46:39.46	102.71	5.78	-45.3	-63.4	3.8	8.46e-01	0	61	104	368574464	61	30137
2026-01-19 19:46:42.50	102.30	5.57	-45.3	-63.4	3.8	8.46e-01	0	61	104	368574464	61	30144
2026-01-19 19:46:45.53	101.90	5.36	-45.3	-63.3	3.8	8.47e-01	0	61	104	368574464	61	30016
2026-01-19 19:46:48.56	101.50	5.15	-45.2	-63.4	3.8	8.46e-01	0	61	104	368574464	61	30039
2026-01-19 19:46:51.59	101.12	4.95	-45.2	-63.3	3.8	8.45e-01	0	61	104	368574464	61	29963
2026-01-19 19:46:54.62	100.74	4.74	-45.2	-63.3	3.8	8.45e-01	0	61	104	368574464	61	30020
2026-01-19 19:46:57.65	100.37	4.54	-45.2	-63.3	3.8	8.45e-01	0	61	104	368574464	61	29984
2026-01-19 19:47:00.68	100.01	4.34	-45.2	-63.3	3.8	8.46e-01	0	61	104	368574464	61	29959
2026-01-19 19:47:03.71	99.65	4.14	-45.2	-63.3	3.8	8.45e-01	0	61	104	368574464	61	29932
2026-01-19 19:47:06.75	99.30	3.94	-45.2	-63.3	3.8	8.47e-01	0	61	104	368574464	61	30004
2026-01-19 19:47:09.78	98.96	3.75	-45.2	-63.3	3.8	8.46e-01	0	61	104	368574464	61	29988
2026-01-19 19:47:12.81	98.62	3.55	-44.9	-63.3	3.8	8.46e-01	0	61	104	368574464	61	29878
2026-01-19 19:47:15.84	98.30	3.36	-45.2	-63.3	3.8	8.45e-01	0	61	104	368574464	61	29914
2026-01-19 19:47:18.87	97.97	3.17	-45.2	-63.3	3.8	8.46e-01	0	61	104	368574464	61	29842
2026-01-19 19:47:21.90	97.66	2.98	-45.2	-63.3	3.8	8.45e-01	0	61	104	368574464	61	29905
2026-01-19 19:47:24.93	97.35	2.79	-45.2	-63.3	3.8	8.46e-01	0	61	104	368574464	61	29863
2026-01-19 19:47:27.97	97.04	2.60	-45.2	-63.3	3.8	8.46e-01	0	61	104	368574464	61	29794
2026-01-19 19:47:31.00	96.74	2.41	-45.2	-63.3	3.8	8.46e-01	0	61	104	368574464	61	29862
2026-01-19 19:47:34.03	96.45	2.23	-45.2	-63.3	3.8	8.46e-01	0	61	104	368574464	61	29914
2026-01-19 19:47:37.06	96.16	2.04	-45.2	-63.3	3.8	8.46e-01	0	61	104	368574464	61	29919

#Closed at: 2026-01-19 19:47:39
#Recorded file [368 MB]: D:/lorett/data/31039_260119_223907.dat