passes_logs/2026/01/19/R2.0S_Moscow/R2.0S_Moscow__20260119_042222_FENGYUN_3E_rec.log

#Pass ID: 20260119_042222_FENGYUN 3E
#Satellite: FENGYUN 3E
#Configuration: FENGYUN 3E
#almurnet v.1.7.20251203
#Start time: 2026-01-19 04:22:22

#Version: 2.2.20231116
#Station: R2.0S_Moscow
#Location: 37.707566 lon 55.798166 lat
#TLE: 1 49008U 21062A   26017.96535346 -.00000182  00000+0 -64922-4 0  9998
#TLE: 2 49008  98.7483  23.0589 0002171 131.9722 228.1640 14.19885139235265

#Time	Az	El	Level	Level2	SNR	BER	BlckErr	Temp	State	Recorded	gain1	gain2
2026-01-19 04:22:22.04	14.37	1.99	-43.1	-54.0	3.8	8.47e-01	0	52	0	0	57	12227
2026-01-19 04:22:26.08	14.31	2.25	-43.0	-54.0	3.8	8.47e-01	0	53	104	0	57	12227
2026-01-19 04:22:30.12	14.25	2.51	-43.1	-54.1	3.8	8.46e-01	0	53	104	0	57	12269
2026-01-19 04:22:34.16	14.19	2.77	-43.1	-54.0	3.8	8.45e-01	0	53	104	0	57	12230
2026-01-19 04:22:38.20	14.13	3.03	-43.1	-54.1	3.8	8.46e-01	0	53	104	0	57	12238
2026-01-19 04:22:42.25	14.06	3.30	-43.0	-54.0	3.8	8.47e-01	0	54	104	0	57	12162
2026-01-19 04:22:46.29	14.00	3.57	-43.0	-53.8	3.8	8.47e-01	0	54	104	0	57	11925
2026-01-19 04:22:50.33	13.93	3.84	-43.0	-53.4	3.8	8.46e-01	0	54	104	0	56	11981
2026-01-19 04:22:54.37	13.86	4.12	-42.9	-52.6	3.8	8.45e-01	0	55	104	0	56	11026
2026-01-19 04:22:58.41	13.79	4.39	-42.8	-52.4	3.8	8.46e-01	0	55	104	0	56	10709
2026-01-19 04:23:02.45	13.71	4.67	-42.8	-52.2	3.9	8.46e-01	0	55	104	0	56	10435
2026-01-19 04:23:06.49	13.64	4.96	-42.8	-52.3	3.8	8.46e-01	0	56	104	0	56	10643
2026-01-19 04:23:10.53	13.56	5.24	-42.8	-51.8	3.8	8.45e-01	0	56	104	0	56	10058
2026-01-19 04:23:14.58	13.48	5.53	-42.6	-50.9	4.1	8.40e-01	0	56	0	0	56	8970
2026-01-19 04:23:18.62	13.40	5.83	-42.4	-50.2	4.2	8.33e-01	0	56	0	0	55	8797
2026-01-19 04:23:22.66	13.32	6.12	-42.6	-51.6	3.8	8.45e-01	0	56	104	0	55	10392
2026-01-19 04:23:26.70	13.24	6.42	-42.8	-53.3	3.8	8.46e-01	0	56	104	0	55	12540
2026-01-19 04:23:30.75	13.15	6.72	-41.7	-47.3	5.6	7.40e-01	0	57	0	0	54	6699
2026-01-19 04:23:34.79	13.06	7.03	-40.0	-43.3	9.4	2.24e-02	0	57	0	27262976	51	5012
2026-01-19 04:23:38.83	12.97	7.34	-39.0	-41.6	11.1	1.94e-03	0	57	0	56623104	49	4632
2026-01-19 04:23:42.87	12.88	7.65	-38.9	-41.5	11.3	1.14e-03	0	57	0	85983232	48	4833
2026-01-19 04:23:46.92	12.78	7.97	-39.8	-42.9	9.7	1.07e-02	0	58	0	115343360	49	5398
2026-01-19 04:23:50.96	12.68	8.29	-42.7	-52.2	3.8	4.66e-01	0	57	104	142606336	54	11793
2026-01-19 04:23:54.99	12.58	8.62	-38.8	-41.3	11.4	1.05e-03	0	58	0	166723584	48	4717
2026-01-19 04:23:59.03	12.48	8.95	-38.3	-40.6	12.1	3.33e-04	0	58	0	196083712	47	4603
2026-01-19 04:24:03.07	12.37	9.28	-38.3	-40.5	12.2	2.49e-04	0	58	0	225443840	47	4589
2026-01-19 04:24:07.11	12.27	9.62	-38.2	-40.5	12.3	1.96e-04	0	58	0	254803968	47	4572
2026-01-19 04:24:11.15	12.15	9.96	-37.9	-40.1	12.7	9.38e-05	0	58	0	284164096	46	4602
2026-01-19 04:24:15.19	12.04	10.31	-37.9	-40.0	12.9	3.66e-05	0	59	0	312475648	46	4568
2026-01-19 04:24:19.23	11.92	10.66	-38.0	-40.2	12.7	7.89e-05	0	59	0	341835776	46	4670
2026-01-19 04:24:23.27	11.80	11.02	-38.0	-40.0	13.0	6.06e-05	0	59	0	371195904	46	4584
2026-01-19 04:24:27.31	11.67	11.38	-37.8	-39.8	13.4	1.83e-05	0	59	0	400556032	46	4456
2026-01-19 04:24:31.35	11.55	11.75	-37.8	-39.8	13.5	1.25e-05	0	59	0	429916160	46	4458
2026-01-19 04:24:35.39	11.41	12.12	-37.8	-39.6	13.8	3.40e-06	0	59	0	458227712	46	4382
2026-01-19 04:24:39.43	11.28	12.50	-37.9	-39.8	13.8	5.70e-06	0	59	0	487587840	46	4464
2026-01-19 04:24:43.46	11.14	12.88	-37.7	-39.5	14.2	1.10e-06	0	59	0	516947968	46	4330
2026-01-19 04:24:47.51	10.99	13.27	-38.0	-39.8	14.1	1.10e-06	0	59	0	546308096	46	4464
2026-01-19 04:24:51.54	10.84	13.67	-37.6	-39.2	14.8	0.00e+00	0	59	0	575668224	46	4178
2026-01-19 04:24:55.59	10.69	14.07	-37.8	-39.5	14.7	0.00e+00	0	60	0	603979776	46	4311
2026-01-19 04:24:59.62	10.53	14.48	-37.7	-39.4	14.8	2.20e-06	0	59	0	633339904	46	4260
2026-01-19 04:25:03.66	10.37	14.90	-37.6	-39.2	15.1	1.10e-06	0	59	0	662700032	46	4182
2026-01-19 04:25:07.70	10.20	15.32	-37.8	-39.4	15.0	0.00e+00	0	60	0	692060160	46	4284
2026-01-19 04:25:11.74	10.03	15.75	-37.6	-39.2	15.3	0.00e+00	0	60	0	721420288	46	4159
2026-01-19 04:25:15.78	9.85	16.19	-37.6	-39.1	15.4	0.00e+00	0	60	0	749731840	45	4380
2026-01-19 04:25:19.82	9.67	16.63	-37.3	-38.8	15.9	0.00e+00	0	60	0	779091968	45	4195
2026-01-19 04:25:23.86	9.48	17.09	-37.1	-38.6	16.1	0.00e+00	0	60	0	808452096	45	4110
2026-01-19 04:25:27.90	9.28	17.55	-36.9	-38.3	16.4	0.00e+00	0	60	0	837812224	44	4232
2026-01-19 04:25:31.94	9.08	18.02	-36.8	-38.1	16.6	0.00e+00	0	60	0	867172352	44	4143
2026-01-19 04:25:35.98	8.87	18.50	-36.7	-38.1	16.7	0.00e+00	0	60	0	896532480	44	4108
2026-01-19 04:25:40.02	8.65	18.99	-36.6	-37.9	16.9	0.00e+00	0	60	0	924844032	44	4040
2026-01-19 04:25:44.06	8.42	19.48	-36.7	-38.0	16.8	0.00e+00	0	60	0	954204160	44	4082
2026-01-19 04:25:48.10	8.19	19.99	-36.6	-38.0	16.9	0.00e+00	0	60	0	983564288	44	4054
2026-01-19 04:25:52.13	7.95	20.51	-36.3	-37.6	17.1	0.00e+00	0	61	0	1012924416	43	4136
2026-01-19 04:25:56.17	7.70	21.03	-36.2	-37.5	17.3	0.00e+00	0	60	0	1042284544	43	4057
2026-01-19 04:26:00.21	7.44	21.57	-36.2	-37.4	17.4	0.00e+00	0	60	0	1070596096	43	4041
2026-01-19 04:26:04.24	7.17	22.12	-35.9	-37.1	17.7	0.00e+00	0	61	0	1099956224	42	4140
2026-01-19 04:26:08.28	6.89	22.68	-35.8	-37.0	17.8	0.00e+00	0	60	0	1129316352	42	4083
2026-01-19 04:26:12.32	6.60	23.25	-36.0	-37.3	17.6	0.00e+00	0	61	0	1158676480	42	4197
2026-01-19 04:26:16.36	6.30	23.84	-35.9	-37.1	17.8	0.00e+00	0	60	0	1188036608	42	4132
2026-01-19 04:26:20.40	5.98	24.44	-35.8	-37.0	17.9	0.00e+00	0	61	0	1217396736	42	4065
2026-01-19 04:26:24.43	5.65	25.04	-36.0	-37.2	17.6	0.00e+00	0	61	0	1245708288	42	4190
2026-01-19 04:26:28.47	5.31	25.67	-36.3	-37.5	17.4	0.00e+00	0	61	0	1275068416	42	4332
2026-01-19 04:26:32.51	4.96	26.30	-36.1	-37.4	17.5	0.00e+00	0	61	0	1304428544	42	4266
2026-01-19 04:26:36.55	4.58	26.96	-36.1	-37.4	17.5	0.00e+00	0	61	0	1333788672	42	4249
2026-01-19 04:26:40.59	4.20	27.62	-35.9	-37.1	17.9	0.00e+00	0	61	0	1362100224	42	4108
2026-01-19 04:26:44.63	3.79	28.30	-35.5	-36.7	18.3	0.00e+00	0	61	0	1391460352	41	4148
2026-01-19 04:26:48.67	3.37	29.00	-35.3	-36.4	18.5	0.00e+00	0	61	0	1420820480	41	4029
2026-01-19 04:26:52.71	2.93	29.71	-35.3	-36.4	18.6	0.00e+00	0	61	0	1450180608	41	4022
2026-01-19 04:26:56.75	2.46	30.44	-35.2	-36.3	18.7	0.00e+00	0	61	0	1479540736	41	3980
2026-01-19 04:27:00.79	1.98	31.18	-35.2	-36.3	18.6	0.00e+00	0	61	0	1507852288	41	3997
2026-01-19 04:27:04.82	1.47	31.94	-35.3	-36.5	18.5	0.00e+00	0	61	0	1537212416	41	4058
2026-01-19 04:27:08.86	0.93	32.72	-35.6	-36.7	18.3	0.00e+00	0	61	0	1566572544	41	4180
2026-01-19 04:27:12.90	0.37	33.52	-35.6	-36.8	18.3	0.00e+00	0	61	0	1595932672	41	4211
2026-01-19 04:27:16.94	359.78	34.34	-35.5	-36.7	18.4	0.00e+00	0	61	0	1625292800	41	4147
2026-01-19 04:27:20.98	359.15	35.17	-35.3	-36.4	18.7	0.00e+00	0	61	0	1653604352	41	4013
2026-01-19 04:27:25.01	358.50	36.02	-35.5	-36.6	18.4	0.00e+00	0	61	0	1682964480	41	4137
2026-01-19 04:27:29.05	357.81	36.89	-35.3	-36.4	18.6	0.00e+00	0	61	0	1712324608	41	4044
2026-01-19 04:27:33.09	357.07	37.78	-35.4	-36.6	18.5	0.00e+00	0	61	0	1741684736	41	4116
2026-01-19 04:27:37.13	356.30	38.68	-35.7	-36.8	18.3	0.00e+00	0	61	0	1771044864	41	4238
2026-01-19 04:27:41.17	355.48	39.61	-35.9	-37.1	18.0	0.00e+00	0	61	0	1799356416	41	4359
2026-01-19 04:27:45.21	354.61	40.55	-35.9	-37.0	18.1	0.00e+00	0	61	0	1828716544	41	4334
2026-01-19 04:27:49.25	353.68	41.51	-35.7	-36.8	18.3	0.00e+00	0	61	0	1858076672	41	4238
2026-01-19 04:27:53.29	352.70	42.49	-35.7	-36.8	18.3	1.10e-06	0	61	0	1887436800	41	4234
2026-01-19 04:27:57.33	351.66	43.48	-35.8	-37.0	18.2	0.00e+00	0	61	0	1916796928	42	4066
2026-01-19 04:28:01.37	350.54	44.49	-35.8	-36.9	18.2	0.00e+00	0	61	0	1946157056	42	4029
2026-01-19 04:28:05.41	349.36	45.51	-35.9	-37.1	18.0	0.00e+00	0	62	0	1974468608	42	4143
2026-01-19 04:28:09.45	348.09	46.55	-35.9	-37.0	18.1	0.00e+00	0	61	0	2003828736	41	4338
2026-01-19 04:28:13.49	346.73	47.59	-36.5	-37.8	17.4	0.00e+00	0	61	0	2033188864	42	4470
2026-01-19 04:28:17.53	345.28	48.64	-37.1	-38.5	16.9	0.00e+00	0	62	0	2062548992	44	4297
2026-01-19 04:28:21.57	343.73	49.69	-36.7	-37.9	17.4	0.00e+00	0	62	0	2091909120	44	4028
2026-01-19 04:28:25.61	342.06	50.75	-36.5	-37.7	17.4	0.00e+00	0	61	0	2120220672	43	4193
2026-01-19 04:28:29.65	340.27	51.80	-37.0	-38.3	16.9	0.00e+00	0	62	0	2149580800	43	4469
2026-01-19 04:28:33.69	338.35	52.84	-37.1	-38.4	17.0	0.00e+00	0	61	0	2178940928	45	4027
2026-01-19 04:28:37.73	336.29	53.87	-36.5	-37.7	17.5	0.00e+00	0	61	0	2208301056	42	4431
2026-01-19 04:28:41.77	334.07	54.87	-37.1	-38.5	16.7	0.00e+00	0	62	0	2237661184	43	4570
2026-01-19 04:28:45.81	331.70	55.86	-36.6	-37.9	17.4	0.00e+00	0	62	0	2267021312	44	4005
2026-01-19 04:28:49.84	329.16	56.80	-37.2	-38.5	16.8	0.00e+00	0	62	0	2295332864	44	4322
2026-01-19 04:28:53.88	326.43	57.70	-36.3	-37.5	17.7	0.00e+00	0	62	0	2324692992	42	4300
2026-01-19 04:28:57.92	323.53	58.55	-37.1	-38.5	16.7	0.00e+00	0	62	0	2354053120	43	4552
2026-01-19 04:29:01.96	320.43	59.34	-37.3	-38.7	16.7	0.00e+00	0	62	0	2383413248	44	4412
2026-01-19 04:29:06.00	317.15	60.06	-36.6	-37.9	16.5	0.00e+00	0	62	0	2412773376	44	4015
2026-01-19 04:29:10.03	313.71	60.69	-36.2	-37.4	17.8	0.00e+00	0	62	0	2441084928	43	4019
2026-01-19 04:29:14.07	310.08	61.24	-36.9	-38.2	14.2	0.00e+00	0	62	0	2470445056	43	4410
2026-01-19 04:29:18.11	306.31	61.68	-35.9	-37.1	17.4	0.00e+00	0	62	0	2499805184	42	4129
2026-01-19 04:29:22.15	302.42	62.01	-36.3	-37.5	14.2	0.00e+00	0	62	0	2529165312	42	4339
2026-01-19 04:29:26.19	298.44	62.23	-36.2	-37.4	16.0	0.00e+00	0	62	0	2557476864	42	4262
2026-01-19 04:29:30.23	294.41	62.33	-36.6	-37.9	16.9	0.00e+00	0	62	0	2586836992	43	4282
2026-01-19 04:29:34.27	290.36	62.31	-36.0	-37.2	17.6	0.00e+00	0	62	0	2616197120	42	4187
2026-01-19 04:29:38.31	286.34	62.17	-35.7	-36.9	18.3	0.00e+00	0	62	0	2645557248	42	4016
2026-01-19 04:29:42.35	282.39	61.91	-36.4	-37.6	17.5	0.00e+00	0	62	0	2674917376	42	4388
2026-01-19 04:29:46.39	278.53	61.53	-36.2	-37.4	17.8	0.00e+00	0	62	0	2703228928	42	4256
2026-01-19 04:29:50.42	274.82	61.05	-36.8	-38.1	17.1	0.00e+00	0	62	0	2732589056	43	4376
2026-01-19 04:29:54.46	271.25	60.48	-36.7	-38.0	17.2	0.00e+00	0	62	0	2761949184	43	4300
2026-01-19 04:29:58.51	267.84	59.81	-36.8	-38.1	17.1	0.00e+00	0	62	0	2791309312	43	4369
2026-01-19 04:30:02.55	264.62	59.06	-36.2	-37.4	17.8	0.00e+00	0	62	0	2820669440	43	4035
2026-01-19 04:30:06.59	261.59	58.25	-36.2	-37.5	17.7	0.00e+00	0	62	0	2848980992	43	4053
2026-01-19 04:30:10.62	258.75	57.38	-36.7	-37.9	17.3	0.00e+00	0	62	0	2878341120	43	4281
2026-01-19 04:30:14.66	256.09	56.45	-36.6	-37.9	17.3	0.00e+00	0	62	0	2907701248	43	4252
2026-01-19 04:30:18.70	253.60	55.49	-36.6	-37.9	17.3	0.00e+00	0	62	0	2937061376	43	4254
2026-01-19 04:30:22.75	251.27	54.50	-36.8	-38.1	17.1	0.00e+00	0	62	0	2966421504	43	4381
2026-01-19 04:30:26.79	249.11	53.48	-36.9	-38.2	17.0	0.00e+00	0	62	0	2994733056	43	4435
2026-01-19 04:30:30.82	247.10	52.44	-36.7	-38.0	17.2	0.00e+00	0	62	0	3024093184	43	4307
2026-01-19 04:30:34.86	245.23	51.39	-36.4	-37.7	17.5	0.00e+00	0	62	0	3053453312	43	4156
2026-01-19 04:30:38.90	243.48	50.34	-36.6	-37.9	17.3	0.00e+00	0	62	0	3082813440	43	4283
2026-01-19 04:30:42.94	241.85	49.28	-36.6	-37.9	17.3	0.00e+00	0	62	0	3112173568	43	4266
2026-01-19 04:30:46.98	240.33	48.22	-36.3	-37.5	17.6	0.00e+00	0	62	0	3141533696	43	4077
2026-01-19 04:30:51.02	238.91	47.17	-35.7	-36.9	18.3	0.00e+00	0	62	0	3169845248	42	4011
2026-01-19 04:30:55.06	237.58	46.13	-35.9	-37.1	18.1	0.00e+00	0	62	0	3199205376	42	4102
2026-01-19 04:30:59.09	236.35	45.10	-35.9	-37.1	18.0	0.00e+00	0	62	0	3228565504	42	4136
2026-01-19 04:31:03.13	235.18	44.07	-35.6	-36.8	18.4	0.00e+00	0	62	0	3257925632	42	3975
2026-01-19 04:31:07.17	234.09	43.07	-35.4	-36.6	18.5	0.00e+00	0	62	0	3287285760	41	4118
2026-01-19 04:31:11.21	233.07	42.07	-35.4	-36.5	18.6	0.00e+00	0	62	0	3315597312	41	4098
2026-01-19 04:31:15.25	232.10	41.10	-35.4	-36.6	18.5	0.00e+00	0	62	0	3344957440	41	4118
2026-01-19 04:31:19.29	231.20	40.14	-35.4	-36.6	18.6	0.00e+00	0	62	0	3374317568	41	4103
2026-01-19 04:31:23.33	230.34	39.20	-35.6	-36.8	18.3	0.00e+00	0	62	0	3403677696	41	4220
2026-01-19 04:31:27.37	229.54	38.28	-35.4	-36.6	18.5	0.00e+00	0	62	0	3433037824	41	4119
2026-01-19 04:31:31.41	228.77	37.37	-35.3	-36.5	18.7	0.00e+00	0	62	0	3462397952	41	4055
2026-01-19 04:31:35.44	228.06	36.49	-35.3	-36.5	18.5	0.00e+00	0	62	0	3490709504	41	4060
2026-01-19 04:31:39.48	227.37	35.62	-35.6	-36.8	18.3	0.00e+00	0	62	0	3520069632	41	4215
2026-01-19 04:31:43.52	226.72	34.77	-35.4	-36.6	18.5	0.00e+00	0	62	0	3549429760	41	4121
2026-01-19 04:31:47.55	226.11	33.95	-35.1	-36.2	18.9	0.00e+00	0	62	0	3578789888	41	3930
2026-01-19 04:31:51.59	225.53	33.13	-35.1	-36.3	18.8	0.00e+00	0	62	0	3608150016	41	3959
2026-01-19 04:31:55.63	224.97	32.34	-35.3	-36.4	18.6	0.00e+00	0	62	0	3636461568	41	4025
2026-01-19 04:31:59.67	224.44	31.56	-35.4	-36.6	18.4	0.00e+00	0	62	0	3665821696	41	4119
2026-01-19 04:32:03.71	223.94	30.81	-35.4	-36.5	18.5	0.00e+00	0	62	0	3695181824	41	4086
2026-01-19 04:32:07.74	223.46	30.07	-35.4	-36.5	18.5	0.00e+00	0	62	0	3723493376	41	4095
2026-01-19 04:32:11.78	223.00	29.34	-35.6	-36.8	18.2	0.00e+00	0	62	0	3752853504	41	4212
2026-01-19 04:32:15.82	222.56	28.63	-35.7	-36.9	18.2	0.00e+00	0	62	0	3782213632	41	4252
2026-01-19 04:32:19.85	222.15	27.94	-35.7	-36.9	18.1	0.00e+00	0	62	0	3811573760	41	4254
2026-01-19 04:32:23.89	221.75	27.26	-35.5	-36.7	18.3	0.00e+00	0	62	0	3840933888	41	4170
2026-01-19 04:32:27.93	221.36	26.60	-35.6	-36.8	18.1	0.00e+00	0	62	0	3869245440	41	4202
2026-01-19 04:32:31.97	220.99	25.95	-35.8	-37.0	17.9	0.00e+00	0	62	0	3898605568	41	4338
2026-01-19 04:32:36.00	220.64	25.32	-35.9	-37.1	17.8	0.00e+00	0	62	0	3927965696	41	4362
2026-01-19 04:32:40.04	220.30	24.70	-35.8	-37.0	17.9	0.00e+00	0	62	0	3957325824	41	4311
2026-01-19 04:32:44.08	219.98	24.09	-35.6	-36.8	18.1	0.00e+00	0	62	0	3986685952	41	4231
2026-01-19 04:32:48.12	219.66	23.49	-35.6	-36.8	18.1	0.00e+00	0	62	0	4016046080	41	4203
2026-01-19 04:32:52.16	219.36	22.91	-35.7	-36.9	18.0	0.00e+00	0	62	0	4044357632	41	4247
2026-01-19 04:32:56.20	219.07	22.34	-35.7	-36.9	18.0	0.00e+00	0	62	0	4073717760	41	4269
2026-01-19 04:33:00.24	218.79	21.78	-35.7	-36.9	17.9	0.00e+00	0	62	0	4103077888	41	4267
2026-01-19 04:33:04.28	218.52	21.24	-35.9	-37.1	17.8	0.00e+00	0	62	0	4132438016	41	4359
2026-01-19 04:33:08.32	218.26	20.70	-36.2	-37.4	17.4	0.00e+00	0	62	0	4161798144	42	4286
2026-01-19 04:33:12.36	218.01	20.17	-36.3	-37.6	17.3	0.00e+00	0	62	0	4190109696	42	4349
2026-01-19 04:33:16.40	217.77	19.66	-36.5	-37.8	17.1	0.00e+00	0	62	0	4219469824	42	4456
2026-01-19 04:33:20.44	217.54	19.15	-36.4	-37.7	17.1	0.00e+00	0	62	0	4248829952	42	4427
2026-01-19 04:33:24.48	217.31	18.66	-36.5	-37.8	17.0	0.00e+00	0	62	0	4278190080	42	4493
2026-01-19 04:33:28.52	217.09	18.17	-36.6	-37.9	16.9	0.00e+00	0	62	0	4307550208	42	4527
2026-01-19 04:33:32.56	216.88	17.69	-36.7	-38.1	16.7	0.00e+00	0	62	0	4336910336	43	4352
2026-01-19 04:33:36.60	216.68	17.22	-36.8	-38.2	16.6	0.00e+00	0	62	0	4365221888	43	4423
2026-01-19 04:33:40.63	216.48	16.77	-37.1	-38.5	16.2	0.00e+00	0	62	0	4394582016	43	4572
2026-01-19 04:33:44.67	216.29	16.31	-37.0	-38.5	16.2	0.00e+00	0	62	0	4423942144	43	4560
2026-01-19 04:33:48.71	216.11	15.87	-37.1	-38.5	16.2	0.00e+00	0	62	0	4453302272	43	4583
2026-01-19 04:33:52.75	215.93	15.43	-37.1	-38.5	16.1	1.10e-06	0	62	0	4482662400	43	4595
2026-01-19 04:33:56.79	215.75	15.00	-37.4	-38.9	15.9	0.00e+00	0	62	0	4510973952	44	4519
2026-01-19 04:34:00.83	215.58	14.58	-37.5	-39.0	15.8	0.00e+00	0	62	0	4540334080	44	4577
2026-01-19 04:34:04.87	215.42	14.17	-37.6	-39.1	15.7	0.00e+00	0	62	0	4569694208	44	4611
2026-01-19 04:34:08.91	215.26	13.76	-37.7	-39.2	15.5	0.00e+00	0	62	0	4599054336	44	4674
2026-01-19 04:34:12.95	215.10	13.36	-37.8	-39.4	15.3	1.10e-06	0	62	0	4628414464	45	4504
2026-01-19 04:34:16.99	214.95	12.96	-37.9	-39.6	15.1	1.10e-06	0	62	0	4656726016	45	4604
2026-01-19 04:34:21.03	214.81	12.57	-38.0	-39.7	14.9	0.00e+00	0	62	0	4686086144	45	4662
2026-01-19 04:34:25.06	214.66	12.19	-38.1	-39.8	14.8	0.00e+00	0	62	0	4715446272	45	4727
2026-01-19 04:34:29.10	214.53	11.81	-38.2	-39.9	14.7	0.00e+00	0	62	0	4744806400	46	4529
2026-01-19 04:34:33.14	214.39	11.44	-38.4	-40.2	14.4	1.10e-06	0	62	0	4773117952	46	4667
2026-01-19 04:34:37.18	214.26	11.07	-38.4	-40.2	14.3	0.00e+00	0	62	0	4802478080	46	4688
2026-01-19 04:34:41.22	214.13	10.71	-38.4	-40.2	14.3	1.10e-06	0	62	0	4831838208	46	4654
2026-01-19 04:34:45.26	214.01	10.36	-38.3	-40.1	14.4	2.20e-06	0	62	0	4861198336	46	4605
2026-01-19 04:34:49.29	213.89	10.01	-38.4	-40.2	14.1	3.40e-06	0	62	0	4890558464	46	4699
2026-01-19 04:34:53.33	213.77	9.66	-38.4	-40.2	14.1	4.50e-06	0	62	0	4918870016	46	4684
2026-01-19 04:34:57.36	213.66	9.32	-38.5	-40.3	14.0	3.40e-06	0	62	0	4948230144	46	4720
2026-01-19 04:35:01.40	213.54	8.98	-38.7	-40.6	13.6	4.50e-06	0	62	0	4977590272	47	4637
2026-01-19 04:35:05.44	213.43	8.65	-38.6	-40.6	13.6	9.10e-06	0	62	0	5006950400	47	4607
2026-01-19 04:35:09.47	213.33	8.32	-38.6	-40.5	13.6	3.40e-06	0	62	0	5036310528	47	4592
2026-01-19 04:35:13.51	213.22	8.00	-41.3	-44.6	9.8	6.20e-04	0	62	0	5065670656	52	5471
2026-01-19 04:35:17.56	213.12	7.68	-45.5	-56.8	3.8	8.46e-01	0	62	104	5067767808	60	14121
2026-01-19 04:35:21.60	213.02	7.36	-45.7	-57.1	3.8	8.47e-01	0	62	104	5067767808	60	14587
2026-01-19 04:35:25.64	212.93	7.05	-45.6	-56.9	3.8	8.47e-01	0	62	104	5067767808	60	14344
2026-01-19 04:35:29.68	212.83	6.74	-45.6	-56.9	3.8	8.45e-01	0	62	104	5067767808	60	14325
2026-01-19 04:35:33.73	212.74	6.43	-45.6	-56.9	3.8	8.46e-01	0	62	104	5067767808	60	14231
2026-01-19 04:35:37.77	212.65	6.13	-45.5	-56.8	3.8	8.46e-01	0	62	104	5067767808	60	14131
2026-01-19 04:35:41.81	212.56	5.83	-45.5	-56.8	3.8	8.45e-01	0	62	104	5067767808	60	14185
2026-01-19 04:35:45.85	212.47	5.54	-45.5	-56.8	3.8	8.45e-01	0	62	104	5067767808	60	14154
2026-01-19 04:35:49.89	212.39	5.24	-45.5	-56.9	3.8	8.46e-01	0	62	104	5067767808	60	14211
2026-01-19 04:35:53.94	212.31	4.95	-45.5	-56.8	3.8	8.46e-01	0	62	104	5067767808	60	14152
2026-01-19 04:35:57.98	212.23	4.67	-45.5	-56.8	3.8	8.47e-01	0	62	104	5067767808	60	14130
2026-01-19 04:36:02.02	212.15	4.39	-45.5	-56.8	3.8	8.46e-01	0	62	104	5067767808	60	14119
2026-01-19 04:36:06.06	212.07	4.11	-45.5	-56.8	3.8	8.46e-01	0	62	104	5067767808	60	14173
2026-01-19 04:36:10.10	212.00	3.83	-45.5	-56.8	3.8	8.46e-01	0	62	104	5067767808	60	14103
2026-01-19 04:36:14.15	211.92	3.55	-45.5	-56.7	3.8	8.45e-01	0	62	104	5067767808	60	14039
2026-01-19 04:36:18.19	211.85	3.28	-45.5	-56.8	3.8	8.47e-01	0	62	104	5067767808	60	14175
2026-01-19 04:36:22.23	211.78	3.01	-45.5	-56.8	3.8	8.46e-01	0	62	104	5067767808	60	14139
2026-01-19 04:36:26.27	211.71	2.75	-45.5	-56.8	3.8	8.45e-01	0	62	104	5067767808	60	14097
2026-01-19 04:36:30.31	211.64	2.48	-45.5	-56.8	3.8	8.46e-01	0	62	104	5067767808	60	14139
2026-01-19 04:36:34.35	211.57	2.22	-45.5	-56.8	3.8	8.46e-01	0	62	104	5067767808	60	14153
2026-01-19 04:36:38.40	211.51	1.96	-45.5	-56.8	3.8	8.46e-01	0	62	104	5067767808	60	14149

#Closed at: 2026-01-19 04:36:39
#Recorded file [5067 MB]: D:/lorett/data/31039_260119_072221.dat