passes_logs/2026/01/19/R2.0S_Moscow/R2.0S_Moscow__20260119_141245_FENGYUN_3E_rec.log

#Pass ID: 20260119_141245_FENGYUN 3E
#Satellite: FENGYUN 3E
#Configuration: FENGYUN 3E
#almurnet v.1.7.20251203
#Start time: 2026-01-19 14:12:46

#Version: 2.2.20231116
#Station: R2.0S_Moscow
#Location: 37.707566 lon 55.798166 lat
#TLE: 1 49008U 21062A   26018.95190407 -.00000301  00000+0 -12097-3 0  9991
#TLE: 2 49008  98.7482  24.0337 0002210 129.7386 230.3985 14.19884646235406

#Time	Az	El	Level	Level2	SNR	BER	BlckErr	Temp	State	Recorded	gain1	gain2
2026-01-19 14:12:46.68	160.91	2.06	-44.6	-55.5	3.8	8.45e-01	0	53	0	0	59	12871
2026-01-19 14:12:50.73	160.92	2.32	-44.5	-55.5	3.8	8.45e-01	0	53	104	0	59	12859
2026-01-19 14:12:54.77	160.94	2.59	-44.5	-55.5	3.8	8.46e-01	0	54	104	0	59	12862
2026-01-19 14:12:58.81	160.95	2.85	-44.5	-55.5	3.8	8.45e-01	0	54	104	0	59	12829
2026-01-19 14:13:02.85	160.96	3.12	-44.5	-55.4	3.8	8.46e-01	0	55	104	0	59	12799
2026-01-19 14:13:06.89	160.97	3.39	-44.5	-55.4	3.8	8.47e-01	0	55	104	0	59	12755
2026-01-19 14:13:10.93	160.98	3.67	-44.5	-55.4	3.8	8.46e-01	0	55	104	0	59	12751
2026-01-19 14:13:14.97	160.99	3.95	-44.5	-55.4	3.8	8.46e-01	0	55	104	0	59	12798
2026-01-19 14:13:19.02	161.01	4.23	-44.5	-55.4	3.8	8.46e-01	0	55	104	0	59	12795
2026-01-19 14:13:23.06	161.02	4.51	-44.5	-55.4	3.8	8.47e-01	0	56	104	0	59	12772
2026-01-19 14:13:27.10	161.03	4.80	-44.4	-55.3	3.8	8.46e-01	0	56	104	0	59	12540
2026-01-19 14:13:31.14	161.04	5.09	-44.4	-54.7	3.8	8.46e-01	0	56	104	0	59	11773
2026-01-19 14:13:35.18	161.05	5.38	-44.3	-54.0	3.8	8.47e-01	0	56	104	0	59	10807
2026-01-19 14:13:39.22	161.07	5.67	-44.0	-52.5	3.9	8.42e-01	0	57	104	0	59	9113
2026-01-19 14:13:43.26	161.08	5.97	-43.7	-51.0	4.5	8.26e-01	0	57	0	0	58	8137
2026-01-19 14:13:47.30	161.09	6.28	-43.6	-50.8	4.6	8.13e-01	0	57	0	0	58	7907
2026-01-19 14:13:51.35	161.10	6.58	-43.9	-52.1	4.1	8.39e-01	0	57	0	0	58	9221
2026-01-19 14:13:55.39	161.11	6.89	-44.2	-54.1	3.8	8.46e-01	0	57	104	0	58	11679
2026-01-19 14:13:59.43	161.13	7.21	-43.2	-49.3	5.3	7.66e-01	0	57	0	0	57	7058
2026-01-19 14:14:03.48	161.14	7.53	-41.1	-44.8	9.1	2.98e-02	0	58	0	23068672	53	5313
2026-01-19 14:14:07.52	161.15	7.85	-39.4	-42.2	11.9	6.09e-04	0	58	0	52428800	49	4937
2026-01-19 14:14:11.57	161.16	8.17	-42.1	-46.5	7.8	3.65e-03	0	58	0	81788928	53	6434
2026-01-19 14:14:15.60	161.18	8.50	-39.2	-41.9	12.2	3.26e-04	0	58	0	103809024	48	5068
2026-01-19 14:14:19.64	161.19	8.84	-39.0	-41.7	12.4	1.23e-04	0	58	0	133169152	48	4937
2026-01-19 14:14:23.68	161.20	9.18	-38.7	-41.1	13.1	2.28e-05	0	59	0	162529280	48	4633
2026-01-19 14:14:27.73	161.21	9.52	-38.5	-41.0	13.1	4.11e-05	0	59	0	190840832	47	4816
2026-01-19 14:14:31.77	161.23	9.87	-38.3	-40.7	13.4	1.02e-05	0	59	0	220200960	47	4680
2026-01-19 14:14:35.81	161.24	10.23	-38.0	-40.3	13.9	3.40e-06	0	59	0	249561088	47	4471
2026-01-19 14:14:39.84	161.25	10.58	-38.0	-40.3	13.9	2.20e-06	0	59	0	278921216	46	4758
2026-01-19 14:14:43.88	161.26	10.95	-38.0	-40.3	14.0	4.50e-06	0	59	0	308281344	46	4716
2026-01-19 14:14:47.92	161.28	11.32	-38.1	-40.5	13.9	4.50e-06	0	59	0	336592896	46	4815
2026-01-19 14:14:51.96	161.29	11.69	-38.3	-40.6	13.7	8.00e-06	0	59	0	365953024	46	4904
2026-01-19 14:14:56.00	161.30	12.07	-38.0	-40.2	14.1	5.70e-06	0	59	0	395313152	46	4688
2026-01-19 14:15:00.03	161.31	12.46	-38.0	-40.2	14.2	0.00e+00	0	59	0	424673280	46	4681
2026-01-19 14:15:04.07	161.33	12.85	-38.0	-40.2	14.2	0.00e+00	0	60	0	452984832	46	4659
2026-01-19 14:15:08.10	161.34	13.25	-37.6	-39.7	14.7	0.00e+00	0	60	0	482344960	46	4433
2026-01-19 14:15:12.15	161.35	13.66	-37.2	-39.2	15.2	0.00e+00	0	60	0	511705088	45	4426
2026-01-19 14:15:16.18	161.37	14.07	-37.0	-38.9	15.5	0.00e+00	0	60	0	541065216	45	4277
2026-01-19 14:15:20.22	161.38	14.50	-36.9	-38.9	15.6	0.00e+00	0	60	0	570425344	44	4500
2026-01-19 14:15:24.26	161.39	14.92	-36.7	-38.5	15.9	0.00e+00	0	60	0	598736896	44	4338
2026-01-19 14:15:28.30	161.41	15.36	-36.7	-38.6	16.0	0.00e+00	0	60	0	628097024	44	4355
2026-01-19 14:15:32.34	161.42	15.80	-36.8	-38.7	15.9	0.00e+00	0	60	0	657457152	44	4411
2026-01-19 14:15:36.38	161.43	16.26	-36.5	-38.3	16.3	0.00e+00	0	60	0	686817280	44	4202
2026-01-19 14:15:40.42	161.45	16.72	-36.3	-38.0	16.4	0.00e+00	0	60	0	716177408	43	4335
2026-01-19 14:15:44.46	161.46	17.19	-36.2	-38.0	16.4	0.00e+00	0	60	0	745537536	43	4303
2026-01-19 14:15:48.50	161.47	17.67	-36.2	-38.0	16.5	0.00e+00	0	60	0	773849088	43	4314
2026-01-19 14:15:52.54	161.49	18.16	-36.1	-37.8	16.6	0.00e+00	0	60	0	803209216	42	4478
2026-01-19 14:15:56.58	161.50	18.65	-36.0	-37.8	16.7	0.00e+00	0	61	0	832569344	42	4446
2026-01-19 14:16:00.62	161.51	19.16	-36.1	-37.8	16.6	0.00e+00	0	60	0	861929472	42	4480
2026-01-19 14:16:04.65	161.53	19.68	-36.1	-37.9	16.5	0.00e+00	0	61	0	891289600	42	4530
2026-01-19 14:16:08.69	161.54	20.21	-35.9	-37.7	16.8	0.00e+00	0	61	0	919601152	42	4427
2026-01-19 14:16:12.73	161.55	20.75	-35.9	-37.7	16.8	0.00e+00	0	61	0	948961280	42	4429
2026-01-19 14:16:16.77	161.57	21.31	-35.9	-37.6	16.8	0.00e+00	0	61	0	978321408	42	4389
2026-01-19 14:16:20.81	161.58	21.88	-35.5	-37.3	17.2	0.00e+00	0	61	0	1007681536	42	4209
2026-01-19 14:16:24.85	161.60	22.45	-35.4	-37.1	17.3	0.00e+00	0	61	0	1037041664	41	4383
2026-01-19 14:16:28.88	161.61	23.05	-35.2	-36.9	17.6	0.00e+00	0	61	0	1066401792	41	4253
2026-01-19 14:16:32.92	161.62	23.65	-35.2	-36.8	17.6	0.00e+00	0	61	0	1094713344	41	4236
2026-01-19 14:16:36.96	161.64	24.28	-34.9	-36.5	17.9	0.00e+00	0	61	0	1124073472	40	4320
2026-01-19 14:16:41.00	161.65	24.91	-35.2	-36.9	17.5	0.00e+00	0	61	0	1153433600	40	4521
2026-01-19 14:16:45.03	161.67	25.56	-35.3	-37.1	17.3	0.00e+00	0	61	0	1182793728	40	4642
2026-01-19 14:16:49.07	161.68	26.23	-35.2	-37.0	17.4	0.00e+00	0	61	0	1211105280	40	4564
2026-01-19 14:16:53.11	161.70	26.92	-35.2	-37.0	17.4	0.00e+00	0	61	0	1240465408	40	4578
2026-01-19 14:16:57.16	161.71	27.62	-35.2	-37.0	17.5	0.00e+00	0	61	0	1269825536	40	4560
2026-01-19 14:17:01.19	161.73	28.34	-35.0	-36.7	17.8	0.00e+00	0	61	0	1299185664	40	4399
2026-01-19 14:17:05.23	161.74	29.09	-34.7	-36.3	18.2	0.00e+00	0	61	0	1327497216	40	4209
2026-01-19 14:17:09.27	161.76	29.85	-35.0	-36.6	17.9	0.00e+00	0	61	0	1356857344	40	4370
2026-01-19 14:17:13.31	161.77	30.63	-35.0	-36.6	17.9	0.00e+00	0	61	0	1386217472	40	4362
2026-01-19 14:17:17.34	161.79	31.43	-35.0	-36.7	17.9	0.00e+00	0	62	0	1415577600	40	4402
2026-01-19 14:17:21.38	161.80	32.26	-35.0	-36.6	18.0	0.00e+00	0	61	0	1444937728	40	4365
2026-01-19 14:17:25.42	161.82	33.11	-34.9	-36.6	18.0	0.00e+00	0	61	0	1473249280	40	4360
2026-01-19 14:17:29.45	161.83	33.98	-35.1	-36.8	17.8	0.00e+00	0	61	0	1502609408	40	4468
2026-01-19 14:17:33.49	161.85	34.88	-35.0	-36.7	17.9	0.00e+00	0	62	0	1531969536	40	4418
2026-01-19 14:17:37.53	161.87	35.81	-35.0	-36.8	17.8	0.00e+00	0	62	0	1561329664	40	4447
2026-01-19 14:17:41.57	161.88	36.77	-34.7	-36.4	18.2	0.00e+00	0	61	0	1590689792	40	4258
2026-01-19 14:17:45.60	161.90	37.75	-35.0	-36.7	18.0	0.00e+00	0	61	0	1620049920	40	4421
2026-01-19 14:17:49.64	161.92	38.76	-35.3	-37.0	17.7	0.00e+00	0	61	0	1648361472	40	4554
2026-01-19 14:17:53.68	161.94	39.81	-35.4	-37.2	17.5	0.00e+00	0	62	0	1677721600	40	4667
2026-01-19 14:17:57.72	161.95	40.88	-35.4	-37.1	17.5	0.00e+00	0	62	0	1707081728	40	4640
2026-01-19 14:18:01.76	161.97	41.99	-35.2	-36.9	17.8	0.00e+00	0	62	0	1736441856	40	4500
2026-01-19 14:18:05.80	161.99	43.14	-35.1	-36.6	18.1	0.00e+00	0	62	0	1765801984	40	4382
2026-01-19 14:18:09.84	162.01	44.32	-35.8	-36.9	18.2	0.00e+00	0	62	0	1795162112	41	4271
2026-01-19 14:18:13.87	162.03	45.53	-36.1	-37.4	17.8	0.00e+00	0	62	0	1823473664	42	4245
2026-01-19 14:18:17.91	162.05	46.78	-36.5	-37.8	17.4	0.00e+00	0	62	0	1852833792	43	4201
2026-01-19 14:18:21.96	162.07	48.08	-36.9	-38.2	17.1	0.00e+00	0	62	0	1882193920	43	4401
2026-01-19 14:18:26.00	162.09	49.41	-36.7	-38.0	17.2	0.00e+00	0	62	0	1911554048	43	4329
2026-01-19 14:18:30.03	162.11	50.78	-37.4	-38.8	16.6	0.00e+00	0	62	0	1939865600	44	4462
2026-01-19 14:18:34.07	162.13	52.20	-36.9	-38.2	17.2	0.00e+00	0	62	0	1969225728	44	4176
2026-01-19 14:18:38.11	162.16	53.66	-37.3	-38.6	16.7	0.00e+00	0	62	0	1998585856	44	4375
2026-01-19 14:18:42.15	162.18	55.16	-37.1	-38.5	16.9	0.00e+00	0	62	0	2027945984	44	4301
2026-01-19 14:18:46.19	162.21	56.70	-37.1	-38.4	17.0	0.00e+00	0	62	0	2057306112	44	4252
2026-01-19 14:18:50.23	162.23	58.29	-37.6	-39.1	16.3	0.00e+00	0	62	0	2085617664	45	4346
2026-01-19 14:18:54.26	162.26	59.92	-37.0	-38.3	17.1	0.00e+00	0	62	0	2114977792	44	4202
2026-01-19 14:18:58.30	162.30	61.59	-36.9	-38.2	17.1	0.00e+00	0	62	0	2144337920	43	4411
2026-01-19 14:19:02.34	162.33	63.31	-35.9	-37.0	18.2	0.00e+00	0	62	0	2173698048	42	4088
2026-01-19 14:19:06.38	162.37	65.07	-35.7	-36.9	18.3	0.00e+00	0	62	0	2202009600	42	4015
2026-01-19 14:19:10.41	162.41	66.86	-35.5	-36.6	18.5	0.00e+00	0	62	0	2231369728	40	4390
2026-01-19 14:19:14.45	162.46	68.71	-35.7	-36.8	18.4	0.00e+00	0	62	0	2260729856	40	4486
2026-01-19 14:19:18.49	162.51	70.58	-35.5	-36.7	18.5	0.00e+00	0	62	0	2290089984	41	4162
2026-01-19 14:19:22.53	162.57	72.50	-35.9	-37.1	18.1	0.00e+00	0	62	0	2319450112	42	4134
2026-01-19 14:19:26.57	162.65	74.45	-35.4	-36.5	18.6	0.00e+00	0	62	0	2348810240	41	4077
2026-01-19 14:19:30.61	162.74	76.43	-34.5	-35.5	19.6	0.00e+00	0	62	0	2377121792	40	3842
2026-01-19 14:19:34.65	162.87	78.43	-34.5	-35.6	19.6	0.00e+00	0	62	0	2406481920	39	4106
2026-01-19 14:19:38.69	163.04	80.46	-34.1	-35.1	20.1	0.00e+00	0	62	0	2435842048	38	4102
2026-01-19 14:19:42.73	163.30	82.51	-34.2	-35.2	20.0	0.00e+00	0	62	0	2465202176	38	4162
2026-01-19 14:19:46.77	163.75	84.58	-34.7	-35.8	19.4	0.00e+00	0	62	0	2494562304	39	4232
2026-01-19 14:19:50.80	164.74	86.65	-34.9	-36.0	19.2	0.00e+00	0	62	0	2522873856	39	4318
2026-01-19 14:19:54.84	168.94	88.73	-34.9	-36.0	19.2	0.00e+00	0	62	0	2552233984	39	4294
2026-01-19 14:19:58.88	332.01	89.16	-34.6	-35.7	19.5	0.00e+00	0	62	0	2581594112	39	4173
2026-01-19 14:20:02.90	339.30	87.09	-34.6	-35.7	19.4	0.00e+00	0	62	0	2610954240	40	3931
2026-01-19 14:20:06.94	340.54	85.02	-35.0	-36.1	19.1	0.00e+00	0	62	0	2640314368	39	4381
2026-01-19 14:20:10.98	341.06	82.95	-34.0	-35.0	20.3	0.00e+00	0	62	0	2668625920	38	4052
2026-01-19 14:20:15.01	341.35	80.90	-34.3	-35.3	20.0	0.00e+00	0	62	0	2697986048	38	4214
2026-01-19 14:20:19.05	341.53	78.87	-34.4	-35.5	19.8	0.00e+00	0	62	0	2727346176	38	4295
2026-01-19 14:20:23.09	341.67	76.86	-34.8	-35.9	19.4	0.00e+00	0	62	0	2756706304	39	4271
2026-01-19 14:20:27.13	341.77	74.88	-35.9	-37.1	18.1	0.00e+00	0	62	0	2785017856	41	4372
2026-01-19 14:20:31.17	341.85	72.93	-36.7	-37.5	17.7	0.00e+00	0	62	0	2814377984	42	4328
2026-01-19 14:20:35.21	341.91	71.01	-36.2	-37.4	17.8	6.80e-06	0	62	0	2843738112	42	4268
2026-01-19 14:20:39.25	341.97	69.12	-35.8	-37.0	18.2	0.00e+00	0	62	0	2873098240	41	4302
2026-01-19 14:20:43.29	342.02	67.28	-35.5	-36.7	18.5	9.72e-05	0	62	0	2902458368	40	4416
2026-01-19 14:20:47.32	342.06	65.48	-36.0	-37.2	18.1	0.00e+00	0	62	0	2930769920	41	4415
2026-01-19 14:20:51.36	342.10	63.71	-36.2	-37.5	17.8	0.00e+00	0	62	0	2960130048	41	4552
2026-01-19 14:20:55.40	342.14	61.99	-36.3	-37.5	17.8	0.00e+00	0	62	0	2989490176	42	4300
2026-01-19 14:20:59.44	342.17	60.31	-37.5	-38.9	16.6	3.31e-05	0	62	0	3018850304	44	4512
2026-01-19 14:21:03.48	342.20	58.68	-37.6	-39.0	16.5	0.00e+00	0	62	0	3048210432	45	4313
2026-01-19 14:21:07.52	342.23	57.08	-37.4	-38.7	16.7	6.80e-06	0	62	0	3076521984	45	4186
2026-01-19 14:21:11.55	342.25	55.54	-37.7	-39.1	16.4	0.00e+00	0	62	0	3105882112	45	4353
2026-01-19 14:21:15.59	342.28	54.03	-37.1	-38.4	17.0	0.00e+00	0	62	0	3135242240	44	4257
2026-01-19 14:21:19.63	342.31	52.57	-37.3	-38.7	16.8	0.00e+00	0	62	0	3164602368	44	4411
2026-01-19 14:21:23.66	342.33	51.15	-37.1	-38.4	17.0	0.00e+00	0	62	0	3193962496	44	4245
2026-01-19 14:21:27.70	342.35	49.78	-37.1	-38.4	17.1	0.00e+00	0	62	0	3223322624	44	4262
2026-01-19 14:21:31.74	342.37	48.44	-36.8	-38.0	17.4	0.00e+00	0	62	0	3251634176	44	4089
2026-01-19 14:21:35.79	342.40	47.14	-36.1	-37.3	17.9	0.00e+00	0	62	0	3280994304	43	3991
2026-01-19 14:21:39.82	342.42	45.88	-36.4	-37.6	17.7	0.00e+00	0	62	0	3310354432	42	4358
2026-01-19 14:21:43.87	342.44	44.66	-36.0	-37.2	18.0	0.00e+00	0	62	0	3339714560	42	4187
2026-01-19 14:21:47.91	342.46	43.48	-35.5	-36.7	18.5	0.00e+00	0	62	0	3369074688	41	4153
2026-01-19 14:21:51.95	342.48	42.33	-35.8	-37.0	18.2	0.00e+00	0	62	0	3397386240	41	4330
2026-01-19 14:21:55.99	342.50	41.21	-35.7	-36.9	18.3	0.00e+00	0	62	0	3426746368	41	4261
2026-01-19 14:22:00.03	342.52	40.13	-35.8	-36.9	18.2	0.00e+00	0	62	0	3456106496	41	4283
2026-01-19 14:22:04.06	342.54	39.09	-35.9	-37.1	18.1	0.00e+00	0	62	0	3485466624	41	4342
2026-01-19 14:22:08.10	342.55	38.07	-35.6	-36.8	18.4	0.00e+00	0	62	0	3514826752	41	4194
2026-01-19 14:22:12.14	342.57	37.09	-35.5	-36.6	18.5	0.00e+00	0	62	0	3544186880	41	4128
2026-01-19 14:22:16.18	342.59	36.13	-35.5	-36.6	18.5	0.00e+00	0	62	0	3572498432	41	4115
2026-01-19 14:22:20.22	342.61	35.20	-35.4	-36.5	18.5	0.00e+00	0	62	0	3601858560	41	4082
2026-01-19 14:22:24.26	342.63	34.29	-35.0	-36.1	18.9	0.00e+00	0	62	0	3631218688	41	3908
2026-01-19 14:22:28.30	342.65	33.42	-35.0	-36.1	18.9	0.00e+00	0	62	0	3660578816	40	4112
2026-01-19 14:22:32.34	342.66	32.56	-35.2	-36.3	18.7	0.00e+00	0	62	0	3689938944	40	4230
2026-01-19 14:22:36.38	342.68	31.73	-35.3	-36.4	18.6	0.00e+00	0	62	0	3718250496	40	4268
2026-01-19 14:22:40.42	342.70	30.93	-35.3	-36.4	18.5	0.00e+00	0	62	0	3747610624	40	4272
2026-01-19 14:22:44.45	342.72	30.14	-35.4	-36.5	18.4	0.00e+00	0	62	0	3776970752	40	4323
2026-01-19 14:22:48.49	342.73	29.38	-35.4	-36.6	18.3	0.00e+00	0	62	0	3806330880	40	4357
2026-01-19 14:22:52.53	342.75	28.64	-35.6	-36.8	18.1	0.00e+00	0	62	0	3835691008	40	4456
2026-01-19 14:22:56.57	342.77	27.91	-35.9	-37.1	17.8	0.00e+00	0	62	0	3864002560	41	4348
2026-01-19 14:23:00.61	342.79	27.21	-36.0	-37.3	17.5	0.00e+00	0	62	0	3893362688	41	4447
2026-01-19 14:23:04.65	342.80	26.52	-36.0	-37.3	17.5	0.00e+00	0	62	0	3922722816	41	4459
2026-01-19 14:23:08.69	342.82	25.85	-35.9	-37.2	17.4	0.00e+00	0	62	0	3952082944	41	4422
2026-01-19 14:23:12.73	342.84	25.19	-35.9	-37.2	17.3	0.00e+00	0	62	0	3980394496	41	4395
2026-01-19 14:23:16.76	342.85	24.56	-36.0	-37.3	17.1	0.00e+00	0	62	0	4009754624	41	4485
2026-01-19 14:23:20.80	342.87	23.93	-35.8	-37.1	17.2	0.00e+00	0	62	0	4039114752	41	4348
2026-01-19 14:23:24.84	342.89	23.32	-35.9	-37.3	16.8	0.00e+00	0	62	0	4068474880	41	4453
2026-01-19 14:23:28.88	342.90	22.73	-36.0	-37.4	16.3	0.00e+00	0	62	0	4097835008	41	4527
2026-01-19 14:23:32.92	342.92	22.15	-35.3	-36.7	16.5	0.00e+00	0	62	0	4126146560	41	4162
2026-01-19 14:23:36.96	342.94	21.58	-35.7	-37.2	15.5	0.00e+00	0	62	0	4155506688	41	4432
2026-01-19 14:23:41.00	342.95	21.03	-39.5	-42.7	9.3	8.00e-03	0	62	0	4184866816	48	5588
2026-01-19 14:23:45.04	342.97	20.48	-41.4	-49.8	4.0	8.38e-01	0	62	0	4200595456	52	9956
2026-01-19 14:23:49.08	342.99	19.95	-41.7	-52.5	3.8	8.46e-01	0	62	104	4200595456	53	12956
2026-01-19 14:23:53.12	343.00	19.43	-41.7	-52.1	3.8	8.45e-01	0	62	104	4200595456	53	12291
2026-01-19 14:23:57.16	343.02	18.92	-41.7	-52.5	3.8	8.46e-01	0	62	104	4200595456	53	12912
2026-01-19 14:24:01.20	343.04	18.42	-40.8	-52.2	3.8	8.47e-01	0	62	104	4200595456	52	13191
2026-01-19 14:24:05.23	343.05	17.93	-40.7	-52.2	3.8	8.46e-01	0	62	104	4200595456	52	13131
2026-01-19 14:24:09.27	343.07	17.45	-40.8	-52.1	3.8	8.47e-01	0	62	104	4200595456	52	13079
2026-01-19 14:24:13.31	343.09	16.98	-40.9	-52.1	3.8	8.46e-01	0	62	104	4200595456	52	13000
2026-01-19 14:24:17.35	343.10	16.52	-41.1	-52.1	3.8	8.47e-01	0	62	104	4200595456	52	13091
2026-01-19 14:24:21.38	343.12	16.07	-41.2	-52.2	3.8	8.46e-01	0	62	104	4200595456	52	13169
2026-01-19 14:24:25.42	343.14	15.62	-41.2	-52.1	3.8	8.46e-01	0	62	104	4200595456	52	13068
2026-01-19 14:24:29.45	343.15	15.19	-41.1	-52.1	3.8	8.46e-01	0	62	104	4200595456	52	12977
2026-01-19 14:24:33.50	343.17	14.76	-41.0	-52.0	3.8	8.47e-01	0	62	104	4200595456	52	12935
2026-01-19 14:24:37.54	343.19	14.34	-40.9	-52.0	3.8	8.45e-01	0	62	104	4200595456	52	12899
2026-01-19 14:24:41.58	343.20	13.92	-41.1	-52.1	3.8	8.46e-01	0	62	104	4200595456	52	12985
2026-01-19 14:24:45.61	343.22	13.52	-41.2	-52.1	3.8	8.46e-01	0	62	104	4200595456	52	12979
2026-01-19 14:24:49.65	343.24	13.11	-41.2	-52.1	3.8	8.46e-01	0	62	104	4200595456	52	13041
2026-01-19 14:24:53.69	343.25	12.72	-41.1	-52.0	3.8	8.46e-01	0	62	104	4200595456	52	12906
2026-01-19 14:24:57.73	343.27	12.33	-41.0	-51.9	3.8	8.47e-01	0	62	104	4200595456	52	12759
2026-01-19 14:25:01.77	343.29	11.95	-40.9	-51.9	3.8	8.46e-01	0	62	104	4200595456	52	12720
2026-01-19 14:25:05.81	343.30	11.57	-40.9	-51.9	3.8	8.45e-01	0	62	104	4200595456	52	12685
2026-01-19 14:25:09.84	343.32	11.21	-41.0	-51.9	3.8	8.46e-01	0	62	104	4200595456	52	12719
2026-01-19 14:25:13.88	343.34	10.84	-41.0	-51.9	3.8	8.46e-01	0	62	104	4200595456	52	12799
2026-01-19 14:25:17.92	343.35	10.48	-41.1	-51.9	3.8	8.46e-01	0	62	104	4200595456	52	12804
2026-01-19 14:25:21.95	343.37	10.13	-41.0	-51.8	3.8	8.45e-01	0	62	104	4200595456	52	12655
2026-01-19 14:25:25.99	343.39	9.78	-40.9	-51.7	3.8	8.47e-01	0	62	104	4200595456	52	12456
2026-01-19 14:25:30.03	343.40	9.43	-40.8	-51.6	3.8	8.46e-01	0	62	104	4200595456	52	12354
2026-01-19 14:25:34.07	343.42	9.10	-40.8	-51.7	3.8	8.44e-01	0	62	104	4200595456	52	12422
2026-01-19 14:25:38.11	343.44	8.76	-40.9	-51.8	3.8	8.45e-01	0	62	104	4200595456	52	12525
2026-01-19 14:25:42.15	343.45	8.43	-40.9	-51.8	3.8	8.45e-01	0	62	104	4200595456	52	12591
2026-01-19 14:25:46.19	343.47	8.10	-40.9	-51.8	3.8	8.46e-01	0	63	104	4200595456	52	12572
2026-01-19 14:25:50.23	343.49	7.78	-44.4	-55.3	3.8	8.47e-01	0	62	104	4200595456	58	13399
2026-01-19 14:25:54.27	343.50	7.46	-45.6	-56.9	3.8	8.46e-01	0	63	104	4200595456	60	14366
2026-01-19 14:25:58.31	343.52	7.15	-45.7	-57.0	3.8	8.47e-01	0	62	104	4200595456	60	14453
2026-01-19 14:26:02.36	343.54	6.84	-45.6	-56.9	3.8	8.47e-01	0	62	104	4200595456	60	14370
2026-01-19 14:26:06.40	343.55	6.53	-45.5	-56.9	3.8	8.46e-01	0	62	104	4200595456	60	14238
2026-01-19 14:26:10.44	343.57	6.23	-45.5	-56.9	3.8	8.45e-01	0	62	104	4200595456	60	14243
2026-01-19 14:26:14.48	343.59	5.93	-45.5	-56.9	3.8	8.46e-01	0	62	104	4200595456	60	14272
2026-01-19 14:26:18.52	343.60	5.63	-45.5	-56.8	3.8	8.47e-01	0	62	104	4200595456	60	14169
2026-01-19 14:26:22.56	343.62	5.34	-45.5	-56.9	3.8	8.44e-01	0	62	104	4200595456	60	14252
2026-01-19 14:26:26.60	343.64	5.05	-45.4	-56.8	3.8	8.47e-01	0	62	104	4200595456	60	14123
2026-01-19 14:26:30.64	343.65	4.77	-45.5	-56.9	3.8	8.46e-01	0	62	104	4200595456	60	14240
2026-01-19 14:26:34.68	343.67	4.48	-45.5	-56.8	3.8	8.47e-01	0	62	104	4200595456	60	14173
2026-01-19 14:26:38.73	343.69	4.20	-45.5	-56.8	3.8	8.46e-01	0	62	104	4200595456	60	14119
2026-01-19 14:26:42.77	343.70	3.92	-45.5	-56.8	3.8	8.47e-01	0	62	104	4200595456	60	14155
2026-01-19 14:26:46.81	343.72	3.65	-45.5	-56.8	3.8	8.45e-01	0	62	104	4200595456	60	14189
2026-01-19 14:26:50.85	343.74	3.38	-45.5	-56.8	3.8	8.46e-01	0	63	104	4200595456	60	14150
2026-01-19 14:26:54.89	343.76	3.11	-45.5	-56.8	3.8	8.45e-01	0	62	104	4200595456	60	14121
2026-01-19 14:26:58.94	343.77	2.84	-45.5	-56.8	3.8	8.45e-01	0	62	104	4200595456	60	14157
2026-01-19 14:27:02.98	343.79	2.58	-45.5	-56.8	3.8	8.46e-01	0	62	104	4200595456	60	14123
2026-01-19 14:27:07.02	343.81	2.31	-45.4	-56.8	3.8	8.47e-01	0	62	104	4200595456	60	14204
2026-01-19 14:27:11.06	343.82	2.06	-45.5	-56.9	3.8	8.46e-01	0	62	104	4200595456	60	14247

#Closed at: 2026-01-19 14:27:13
#Recorded file [4200 MB]: D:/lorett/data/31039_260119_171246.dat