passes_logs/2026/01/19/R2.0S_Moscow/R2.0S_Moscow__20260119_005756_FENGYUN_3D_rec.log

#Pass ID: 20260119_005756_FENGYUN 3D
#Satellite: FENGYUN 3D
#Configuration: FENGYUN 3D
#almurnet v.1.7.20251203
#Start time: 2026-01-19 00:57:59

#Version: 2.2.20231116
#Station: R2.0S_Moscow
#Location: 37.707566 lon 55.798166 lat
#TLE: 1 43010U 17072A   26017.96359538  .00000271  00000+0  15011-3 0  9999
#TLE: 2 43010  98.9936 349.8252 0002386 103.8840 256.2601 14.19697057423673

#Time	Az	El	Level	Level2	SNR	BER	BlckErr	Temp	State	Recorded	gain1	gain2
2026-01-19 00:57:59.07	20.76	2.13	-42.2	-54.1	3.8	8.46e-01	0	52	0	0	56	13736
2026-01-19 00:58:03.11	20.92	2.38	-42.0	-53.9	3.8	8.46e-01	0	53	104	0	55	14259
2026-01-19 00:58:07.15	21.09	2.63	-42.0	-53.9	3.8	8.47e-01	0	53	104	0	55	14316
2026-01-19 00:58:11.19	21.25	2.89	-42.0	-53.9	3.8	8.47e-01	0	53	104	0	55	14297
2026-01-19 00:58:15.24	21.42	3.14	-42.0	-53.9	3.8	8.46e-01	0	54	104	0	55	14308
2026-01-19 00:58:19.28	21.60	3.40	-42.0	-53.9	3.8	8.46e-01	0	54	104	0	55	14262
2026-01-19 00:58:23.32	21.77	3.66	-42.0	-53.9	3.8	8.47e-01	0	54	104	0	55	14253
2026-01-19 00:58:27.36	21.95	3.92	-42.0	-53.9	3.8	8.46e-01	0	54	104	0	55	14315
2026-01-19 00:58:31.40	22.13	4.19	-42.0	-53.9	3.8	8.46e-01	0	55	104	0	55	14294
2026-01-19 00:58:35.44	22.31	4.45	-42.0	-53.9	3.8	8.47e-01	0	55	104	0	55	14303
2026-01-19 00:58:39.48	22.50	4.72	-42.0	-53.9	3.8	8.45e-01	0	55	104	0	55	14290
2026-01-19 00:58:43.52	22.69	4.99	-42.0	-53.9	3.8	8.47e-01	0	56	104	0	55	14298
2026-01-19 00:58:47.56	22.88	5.27	-42.0	-53.9	3.8	8.47e-01	0	55	104	0	55	14252
2026-01-19 00:58:51.60	23.08	5.54	-42.0	-53.9	3.8	8.47e-01	0	56	104	0	55	14275
2026-01-19 00:58:55.64	23.28	5.82	-42.0	-53.9	3.8	8.46e-01	0	56	104	0	55	14279
2026-01-19 00:58:59.68	23.48	6.10	-42.0	-53.9	3.8	8.46e-01	0	56	104	0	55	14276
2026-01-19 00:59:03.72	23.69	6.39	-42.0	-53.9	3.8	8.45e-01	0	56	104	0	55	14309
2026-01-19 00:59:07.76	23.90	6.68	-42.0	-53.9	3.8	8.46e-01	0	57	104	0	55	14235
2026-01-19 00:59:11.80	24.11	6.97	-42.0	-53.8	3.8	8.47e-01	0	57	104	0	55	14209
2026-01-19 00:59:15.85	24.33	7.26	-41.9	-53.2	3.8	8.47e-01	0	57	104	0	55	13216
2026-01-19 00:59:19.89	24.56	7.56	-41.6	-50.3	4.2	8.38e-01	0	57	0	0	55	9427
2026-01-19 00:59:23.93	24.78	7.86	-40.4	-45.6	7.0	2.02e-01	0	57	0	6291456	52	6518
2026-01-19 00:59:27.97	25.01	8.16	-41.4	-46.5	6.9	7.10e-02	0	57	0	29360128	53	6874
2026-01-19 00:59:32.01	25.25	8.47	-39.4	-42.5	10.9	3.61e-03	0	57	0	44040192	50	5130
2026-01-19 00:59:36.05	25.49	8.78	-39.3	-42.3	11.3	1.66e-03	0	58	0	66060288	50	4984
2026-01-19 00:59:40.08	25.74	9.09	-39.4	-42.2	11.5	1.27e-03	0	58	0	89128960	50	4981
2026-01-19 00:59:44.12	25.99	9.41	-39.3	-42.0	11.8	6.18e-04	0	58	0	112197632	50	4850
2026-01-19 00:59:48.16	26.24	9.73	-39.4	-42.1	11.9	7.71e-04	0	58	0	134217728	50	4910
2026-01-19 00:59:52.21	26.50	10.06	-39.3	-41.8	12.5	1.90e-04	0	58	0	157286400	50	4718
2026-01-19 00:59:56.24	26.77	10.39	-39.3	-41.8	12.6	1.85e-04	0	58	0	180355072	50	4708
2026-01-19 01:00:00.28	27.04	10.72	-39.4	-42.0	12.5	2.13e-04	0	58	0	203423744	50	4823
2026-01-19 01:00:04.32	27.32	11.06	-39.3	-41.7	12.8	1.06e-04	0	58	0	225443840	50	4659
2026-01-19 01:00:08.36	27.60	11.40	-39.1	-41.4	13.2	5.14e-05	0	59	0	248512512	50	4517
2026-01-19 01:00:12.40	27.89	11.74	-39.0	-41.3	13.4	2.86e-05	0	59	0	270532608	49	4733
2026-01-19 01:00:16.44	28.19	12.09	-38.9	-41.1	13.6	1.25e-05	0	59	0	293601280	49	4613
2026-01-19 01:00:20.48	28.49	12.44	-38.9	-41.0	13.8	1.37e-05	0	59	0	316669952	49	4586
2026-01-19 01:00:24.51	28.80	12.80	-38.7	-40.9	13.9	8.00e-06	0	59	0	338690048	49	4498
2026-01-19 01:00:28.55	29.12	13.17	-38.5	-40.5	14.4	4.50e-06	0	59	0	361758720	49	4317
2026-01-19 01:00:32.59	29.44	13.53	-38.6	-40.6	14.3	1.10e-06	0	59	0	384827392	48	4640
2026-01-19 01:00:36.63	29.78	13.91	-38.6	-40.6	14.3	3.40e-06	0	59	0	407896064	48	4614
2026-01-19 01:00:40.67	30.12	14.28	-38.6	-40.6	14.5	0.00e+00	0	59	0	429916160	48	4603
2026-01-19 01:00:44.70	30.47	14.66	-38.5	-40.5	14.5	1.10e-06	0	59	0	452984832	48	4585
2026-01-19 01:00:48.74	30.83	15.05	-38.4	-40.4	14.7	0.00e+00	0	59	0	475004928	48	4514
2026-01-19 01:00:52.78	31.19	15.45	-38.3	-40.2	14.8	0.00e+00	0	59	0	498073600	48	4440
2026-01-19 01:00:56.82	31.57	15.84	-38.5	-40.4	14.7	1.10e-06	0	60	0	521142272	48	4522
2026-01-19 01:01:00.86	31.96	16.25	-38.2	-40.1	15.0	0.00e+00	0	60	0	543162368	48	4369
2026-01-19 01:01:04.90	32.35	16.66	-38.3	-40.1	15.0	0.00e+00	0	60	0	566231040	48	4391
2026-01-19 01:01:08.94	32.76	17.07	-38.1	-39.9	15.3	0.00e+00	0	60	0	589299712	48	4257
2026-01-19 01:01:12.98	33.18	17.49	-37.6	-39.4	15.7	0.00e+00	0	60	0	612368384	47	4268
2026-01-19 01:01:17.02	33.61	17.92	-37.4	-39.3	15.8	0.00e+00	0	60	0	634388480	46	4464
2026-01-19 01:01:21.05	34.05	18.35	-37.2	-39.3	15.7	0.00e+00	0	60	0	657457152	46	4480
2026-01-19 01:01:25.09	34.50	18.79	-37.1	-39.4	15.6	0.00e+00	0	60	0	679477248	46	4531
2026-01-19 01:01:29.13	34.97	19.24	-37.4	-39.6	15.5	0.00e+00	0	60	0	702545920	46	4602
2026-01-19 01:01:33.17	35.44	19.69	-37.5	-39.3	15.9	0.00e+00	0	60	0	725614592	46	4469
2026-01-19 01:01:37.20	35.94	20.15	-37.1	-38.8	16.4	0.00e+00	0	60	0	747634688	46	4218
2026-01-19 01:01:41.24	36.45	20.61	-37.0	-38.6	16.6	0.00e+00	0	60	0	770703360	46	4131
2026-01-19 01:01:45.28	36.97	21.08	-37.0	-38.6	16.7	0.00e+00	0	60	0	793772032	46	4118
2026-01-19 01:01:49.32	37.51	21.56	-37.3	-39.0	16.3	0.00e+00	0	60	0	815792128	46	4298
2026-01-19 01:01:53.36	38.06	22.04	-37.5	-39.1	16.2	0.00e+00	0	60	0	838860800	46	4376
2026-01-19 01:01:57.39	38.63	22.53	-37.1	-38.7	16.6	0.00e+00	0	60	0	861929472	46	4187
2026-01-19 01:02:01.43	39.23	23.03	-36.9	-38.4	16.9	0.00e+00	0	60	0	883949568	45	4277
2026-01-19 01:02:05.47	39.83	23.54	-36.9	-38.5	16.8	0.00e+00	0	60	0	907018240	45	4311
2026-01-19 01:02:09.51	40.46	24.05	-36.7	-38.2	17.2	0.00e+00	0	60	0	930086912	45	4152
2026-01-19 01:02:13.56	41.11	24.57	-36.7	-38.2	17.1	0.00e+00	0	60	0	952107008	45	4191
2026-01-19 01:02:17.60	41.78	25.09	-36.8	-38.4	17.0	0.00e+00	0	60	0	975175680	45	4249
2026-01-19 01:02:21.64	42.48	25.62	-36.7	-38.1	17.2	0.00e+00	0	60	0	998244352	45	4144
2026-01-19 01:02:25.68	43.19	26.16	-36.4	-37.8	17.6	0.00e+00	0	61	0	1021313024	44	4223
2026-01-19 01:02:29.72	43.93	26.70	-36.4	-37.9	17.5	0.00e+00	0	61	0	1043333120	44	4251
2026-01-19 01:02:33.76	44.70	27.25	-36.4	-37.9	17.6	0.00e+00	0	60	0	1066401792	44	4246
2026-01-19 01:02:37.79	45.49	27.81	-36.2	-37.6	17.8	0.00e+00	0	61	0	1088421888	44	4130
2026-01-19 01:02:41.83	46.31	28.37	-36.3	-37.7	17.7	0.00e+00	0	61	0	1111490560	44	4191
2026-01-19 01:02:45.87	47.16	28.94	-36.3	-37.7	17.8	0.00e+00	0	61	0	1134559232	44	4163
2026-01-19 01:02:49.92	48.04	29.51	-35.8	-37.3	17.7	0.00e+00	0	61	0	1156579328	43	4213
2026-01-19 01:02:53.96	48.95	30.08	-35.8	-37.3	17.7	0.00e+00	0	61	0	1179648000	43	4207
2026-01-19 01:02:57.99	49.89	30.66	-35.8	-37.3	17.7	0.00e+00	0	61	0	1202716672	43	4232
2026-01-19 01:03:02.03	50.86	31.24	-35.9	-37.4	17.6	0.00e+00	0	61	0	1225785344	43	4261
2026-01-19 01:03:06.07	51.87	31.83	-35.7	-37.2	17.8	0.00e+00	0	61	0	1247805440	43	4160
2026-01-19 01:03:10.11	52.92	32.41	-35.7	-37.2	17.9	0.00e+00	0	61	0	1270874112	43	4147
2026-01-19 01:03:14.15	54.01	33.00	-35.7	-37.2	17.9	0.00e+00	0	61	0	1292894208	43	4154
2026-01-19 01:03:18.19	55.13	33.59	-35.7	-37.2	17.8	0.00e+00	0	61	0	1315962880	43	4167
2026-01-19 01:03:22.23	56.30	34.17	-35.7	-37.2	17.8	0.00e+00	0	61	0	1339031552	43	4183
2026-01-19 01:03:26.27	57.50	34.76	-35.7	-37.2	17.8	0.00e+00	0	61	0	1361051648	43	4188
2026-01-19 01:03:30.31	58.75	35.34	-35.6	-37.1	17.9	0.00e+00	0	61	0	1384120320	43	4131
2026-01-19 01:03:34.35	60.05	35.91	-35.6	-37.0	18.1	0.00e+00	0	61	0	1407188992	43	4086
2026-01-19 01:03:38.39	61.39	36.48	-35.6	-37.1	18.0	0.00e+00	0	61	0	1430257664	43	4108
2026-01-19 01:03:42.43	62.78	37.04	-35.5	-37.0	18.1	0.00e+00	0	61	0	1452277760	43	4077
2026-01-19 01:03:46.46	64.21	37.59	-35.5	-36.9	18.2	0.00e+00	0	61	0	1475346432	42	4282
2026-01-19 01:03:50.50	65.69	38.13	-35.9	-37.4	17.7	0.00e+00	0	61	0	1497366528	42	4518
2026-01-19 01:03:54.54	67.23	38.66	-35.7	-37.1	18.0	0.00e+00	0	61	0	1520435200	42	4381
2026-01-19 01:03:58.58	68.81	39.17	-35.8	-37.3	17.9	0.00e+00	0	61	0	1543503872	42	4461
2026-01-19 01:04:02.62	70.44	39.67	-35.7	-37.1	18.0	0.00e+00	0	61	0	1565523968	42	4391
2026-01-19 01:04:06.65	72.12	40.14	-35.9	-37.4	17.8	0.00e+00	0	61	0	1588592640	42	4504
2026-01-19 01:04:10.69	73.85	40.59	-35.7	-37.2	18.0	0.00e+00	0	61	0	1611661312	42	4409
2026-01-19 01:04:14.73	75.62	41.02	-35.9	-37.4	17.8	0.00e+00	0	61	0	1634729984	42	4510
2026-01-19 01:04:18.77	77.44	41.43	-35.9	-37.4	17.7	0.00e+00	0	61	0	1656750080	42	4536
2026-01-19 01:04:22.80	79.31	41.80	-35.7	-37.2	18.0	0.00e+00	0	61	0	1679818752	42	4406
2026-01-19 01:04:26.84	81.21	42.15	-35.7	-37.1	18.0	0.00e+00	0	61	0	1701838848	42	4391
2026-01-19 01:04:30.88	83.16	42.46	-35.7	-37.2	18.0	0.00e+00	0	61	0	1724907520	42	4411
2026-01-19 01:04:34.92	85.14	42.73	-36.3	-37.9	17.3	0.00e+00	0	61	0	1747976192	43	4507
2026-01-19 01:04:38.96	87.16	42.98	-36.1	-37.6	17.6	0.00e+00	0	61	0	1769996288	43	4361
2026-01-19 01:04:43.00	89.20	43.18	-36.0	-37.4	17.8	0.00e+00	0	61	0	1793064960	43	4284
2026-01-19 01:04:47.04	91.27	43.34	-35.8	-37.3	17.9	0.00e+00	0	61	0	1816133632	43	4218
2026-01-19 01:04:51.08	93.36	43.47	-36.0	-37.5	17.7	0.00e+00	0	61	0	1839202304	43	4327
2026-01-19 01:04:55.12	95.45	43.55	-35.8	-37.3	17.9	0.00e+00	0	61	0	1861222400	43	4197
2026-01-19 01:04:59.16	97.56	43.59	-36.0	-37.6	17.7	0.00e+00	0	61	0	1884291072	43	4345
2026-01-19 01:05:03.20	99.67	43.58	-35.9	-37.4	17.8	0.00e+00	0	61	0	1906311168	43	4277
2026-01-19 01:05:07.24	101.78	43.54	-36.1	-37.6	17.6	0.00e+00	0	61	0	1929379840	43	4372
2026-01-19 01:05:11.27	103.87	43.45	-36.1	-37.7	17.5	0.00e+00	0	61	0	1952448512	43	4413
2026-01-19 01:05:15.31	105.96	43.32	-36.1	-37.7	17.5	0.00e+00	0	61	0	1974468608	43	4420
2026-01-19 01:05:19.35	108.02	43.16	-36.0	-37.5	17.7	0.00e+00	0	61	0	1997537280	43	4335
2026-01-19 01:05:23.38	110.06	42.95	-36.2	-37.7	17.5	0.00e+00	0	62	0	2020605952	43	4434
2026-01-19 01:05:27.42	112.08	42.70	-35.9	-37.4	17.8	0.00e+00	0	62	0	2043674624	43	4271
2026-01-19 01:05:31.46	114.06	42.42	-36.0	-37.5	17.7	0.00e+00	0	61	0	2065694720	43	4330
2026-01-19 01:05:35.50	116.00	42.10	-35.8	-37.3	17.9	0.00e+00	0	62	0	2088763392	43	4201
2026-01-19 01:05:39.54	117.91	41.75	-36.1	-37.7	17.5	0.00e+00	0	61	0	2110783488	43	4407
2026-01-19 01:05:43.58	119.78	41.37	-36.1	-37.7	17.5	0.00e+00	0	61	0	2133852160	43	4399
2026-01-19 01:05:47.61	121.59	40.97	-35.9	-37.4	17.8	0.00e+00	0	62	0	2156920832	43	4286
2026-01-19 01:05:51.65	123.37	40.53	-35.8	-37.3	17.9	0.00e+00	0	61	0	2178940928	43	4206
2026-01-19 01:05:55.69	125.09	40.08	-35.7	-37.2	18.0	0.00e+00	0	61	0	2202009600	43	4178
2026-01-19 01:05:59.73	126.77	39.60	-35.6	-37.0	18.2	0.00e+00	0	62	0	2225078272	43	4081
2026-01-19 01:06:03.77	128.40	39.10	-35.8	-37.3	17.9	0.00e+00	0	61	0	2247098368	43	4209
2026-01-19 01:06:07.81	129.98	38.58	-35.7	-37.1	18.1	0.00e+00	0	62	0	2270167040	43	4144
2026-01-19 01:06:11.85	131.51	38.05	-35.6	-37.1	18.1	0.00e+00	0	62	0	2293235712	43	4132
2026-01-19 01:06:15.89	133.00	37.50	-35.7	-37.2	18.0	0.00e+00	0	62	0	2315255808	43	4189
2026-01-19 01:06:19.93	134.43	36.95	-35.7	-37.2	18.0	0.00e+00	0	62	0	2338324480	43	4176
2026-01-19 01:06:23.97	135.82	36.38	-35.7	-37.2	18.0	0.00e+00	0	61	0	2361393152	43	4184
2026-01-19 01:06:28.01	137.15	35.81	-35.9	-37.4	17.8	0.00e+00	0	62	0	2383413248	43	4257
2026-01-19 01:06:32.05	138.45	35.23	-36.1	-37.6	17.5	0.00e+00	0	62	0	2406481920	43	4389
2026-01-19 01:06:36.08	139.69	34.65	-35.7	-37.2	17.9	0.00e+00	0	61	0	2429550592	43	4173
2026-01-19 01:06:40.12	140.90	34.06	-35.7	-37.2	17.9	0.00e+00	0	61	0	2451570688	43	4166
2026-01-19 01:06:44.16	142.06	33.47	-35.8	-37.3	17.8	0.00e+00	0	62	0	2474639360	43	4206
2026-01-19 01:06:48.20	143.18	32.88	-36.0	-37.5	17.6	0.00e+00	0	61	0	2497708032	43	4323
2026-01-19 01:06:52.23	144.26	32.29	-35.7	-37.2	17.9	0.00e+00	0	62	0	2519728128	43	4148
2026-01-19 01:06:56.27	145.31	31.70	-36.0	-37.6	17.5	0.00e+00	0	61	0	2542796800	43	4365
2026-01-19 01:07:00.31	146.32	31.11	-35.9	-37.4	17.6	0.00e+00	0	62	0	2565865472	43	4262
2026-01-19 01:07:04.35	147.29	30.53	-36.2	-37.8	17.3	0.00e+00	0	62	0	2587885568	43	4447
2026-01-19 01:07:08.39	148.23	29.94	-36.2	-37.8	17.3	0.00e+00	0	62	0	2610954240	43	4447
2026-01-19 01:07:12.42	149.14	29.37	-36.0	-37.5	17.5	0.00e+00	0	62	0	2632974336	43	4320
2026-01-19 01:07:16.46	150.01	28.79	-36.0	-37.5	17.5	0.00e+00	0	62	0	2656043008	43	4321
2026-01-19 01:07:20.50	150.86	28.22	-36.0	-37.5	17.5	0.00e+00	0	61	0	2679111680	43	4325
2026-01-19 01:07:24.54	151.68	27.66	-36.2	-37.8	17.3	0.00e+00	0	61	0	2702180352	43	4456
2026-01-19 01:07:28.58	152.47	27.10	-36.3	-37.9	17.1	0.00e+00	0	62	0	2724200448	43	4531
2026-01-19 01:07:32.62	153.23	26.55	-36.4	-38.0	17.0	0.00e+00	0	62	0	2747269120	43	4563
2026-01-19 01:07:36.66	153.97	26.00	-36.2	-37.8	17.2	0.00e+00	0	62	0	2770337792	43	4449
2026-01-19 01:07:40.70	154.68	25.46	-36.4	-38.0	17.0	0.00e+00	0	62	0	2792357888	43	4568
2026-01-19 01:07:44.74	155.37	24.93	-36.5	-38.2	16.9	0.00e+00	0	62	0	2815426560	43	4653
2026-01-19 01:07:48.78	156.04	24.40	-36.4	-38.0	17.0	0.00e+00	0	62	0	2838495232	43	4571
2026-01-19 01:07:52.81	156.68	23.88	-36.5	-38.1	16.9	0.00e+00	0	62	0	2860515328	43	4620
2026-01-19 01:07:56.85	157.31	23.37	-36.6	-38.3	16.6	0.00e+00	0	62	0	2883584000	43	4725
2026-01-19 01:08:00.89	157.92	22.86	-36.6	-38.3	16.7	0.00e+00	0	61	0	2906652672	43	4709
2026-01-19 01:08:04.93	158.51	22.36	-37.0	-38.8	16.3	0.00e+00	0	62	0	2928672768	44	4707
2026-01-19 01:08:08.97	159.08	21.87	-37.2	-39.0	16.0	0.00e+00	0	62	0	2951741440	45	4586
2026-01-19 01:08:13.01	159.63	21.38	-37.1	-38.9	16.2	0.00e+00	0	62	0	2974810112	45	4512
2026-01-19 01:08:17.04	160.16	20.90	-37.1	-38.8	16.3	0.00e+00	0	62	0	2996830208	45	4449
2026-01-19 01:08:21.08	160.68	20.43	-37.1	-38.9	16.1	0.00e+00	0	62	0	3019898880	45	4508
2026-01-19 01:08:25.12	161.19	19.96	-37.3	-39.1	15.9	0.00e+00	0	62	0	3041918976	45	4602
2026-01-19 01:08:29.15	161.68	19.50	-37.2	-38.9	16.0	0.00e+00	0	62	0	3064987648	45	4536
2026-01-19 01:08:33.20	162.16	19.05	-37.3	-39.1	15.8	0.00e+00	0	62	0	3088056320	45	4631
2026-01-19 01:08:37.23	162.62	18.60	-37.6	-39.4	15.5	0.00e+00	0	62	0	3111124992	45	4811
2026-01-19 01:08:41.27	163.07	18.16	-37.8	-39.8	15.2	0.00e+00	0	62	0	3133145088	46	4718
2026-01-19 01:08:45.31	163.51	17.73	-37.8	-39.7	15.2	0.00e+00	0	62	0	3156213760	46	4675
2026-01-19 01:08:49.35	163.93	17.30	-37.7	-39.5	15.3	0.00e+00	0	62	0	3179282432	46	4596
2026-01-19 01:08:53.38	164.35	16.87	-37.9	-39.8	15.1	0.00e+00	0	62	0	3201302528	46	4741
2026-01-19 01:08:57.42	164.75	16.46	-37.9	-39.9	15.0	0.00e+00	0	62	0	3224371200	46	4772
2026-01-19 01:09:01.45	165.14	16.05	-38.1	-40.1	14.7	0.00e+00	0	62	0	3246391296	46	4912
2026-01-19 01:09:05.49	165.53	15.64	-38.2	-40.2	14.6	0.00e+00	0	62	0	3269459968	47	4683
2026-01-19 01:09:09.53	165.90	15.24	-38.2	-40.3	14.5	2.20e-06	0	62	0	3292528640	47	4706
2026-01-19 01:09:13.57	166.26	14.85	-38.4	-40.5	14.3	1.10e-06	0	62	0	3314548736	47	4816
2026-01-19 01:09:17.61	166.62	14.46	-38.4	-40.5	14.2	0.00e+00	0	62	0	3337617408	47	4822
2026-01-19 01:09:21.64	166.96	14.07	-38.5	-40.6	14.1	4.50e-06	0	62	0	3360686080	47	4902
2026-01-19 01:09:25.68	167.30	13.70	-38.6	-40.7	13.9	1.02e-05	0	62	0	3383754752	47	4981
2026-01-19 01:09:29.72	167.63	13.32	-38.5	-40.7	13.9	2.20e-06	0	62	0	3405774848	47	4962
2026-01-19 01:09:33.76	167.95	12.95	-38.6	-40.8	13.8	5.70e-06	0	62	0	3428843520	47	5005
2026-01-19 01:09:37.80	168.26	12.59	-38.8	-41.1	13.6	1.25e-05	0	62	0	3450863616	48	4894
2026-01-19 01:09:41.84	168.57	12.23	-38.9	-41.1	13.5	2.40e-05	0	62	0	3473932288	48	4913
2026-01-19 01:09:45.88	168.87	11.87	-39.0	-41.3	13.3	1.60e-05	0	62	0	3497000960	48	5022
2026-01-19 01:09:49.92	169.16	11.52	-39.1	-41.5	13.2	4.23e-05	0	62	0	3519021056	48	5113
2026-01-19 01:09:53.96	169.45	11.18	-39.1	-41.4	13.2	3.20e-05	0	62	0	3542089728	48	5090
2026-01-19 01:09:57.99	169.73	10.83	-39.0	-41.4	13.1	3.43e-05	0	62	0	3565158400	48	5072
2026-01-19 01:10:02.03	170.00	10.50	-39.1	-41.6	12.9	5.14e-05	0	62	0	3588227072	49	4877
2026-01-19 01:10:06.07	170.27	10.16	-39.2	-41.7	12.8	8.58e-05	0	62	0	3610247168	49	4934
2026-01-19 01:10:10.10	170.53	9.83	-39.1	-41.6	12.8	8.58e-05	0	62	0	3633315840	49	4880
2026-01-19 01:10:14.14	170.79	9.51	-39.1	-41.5	12.8	1.10e-04	0	62	0	3655335936	49	4857
2026-01-19 01:10:18.18	171.04	9.18	-39.1	-41.5	12.8	1.10e-04	0	62	0	3678404608	49	4843
2026-01-19 01:10:22.22	171.29	8.87	-39.2	-41.7	12.5	1.96e-04	0	62	0	3701473280	49	4932
2026-01-19 01:10:26.25	171.53	8.55	-39.1	-41.6	12.5	1.76e-04	0	62	0	3723493376	49	4891
2026-01-19 01:10:30.29	171.76	8.24	-39.1	-41.6	12.4	1.98e-04	0	62	0	3746562048	49	4914
2026-01-19 01:10:34.34	171.99	7.93	-44.4	-55.1	3.8	5.79e-01	0	62	104	3767533568	59	13082
2026-01-19 01:10:38.38	172.22	7.63	-45.1	-56.9	3.8	8.46e-01	0	62	104	3767533568	60	15151
2026-01-19 01:10:42.42	172.44	7.33	-45.3	-57.0	3.8	8.46e-01	0	62	104	3767533568	61	14389
2026-01-19 01:10:46.46	172.66	7.03	-45.3	-56.9	3.8	8.47e-01	0	62	104	3767533568	61	14298
2026-01-19 01:10:50.50	172.88	6.73	-45.2	-56.9	3.8	8.47e-01	0	62	104	3767533568	61	14326
2026-01-19 01:10:54.54	173.09	6.44	-45.2	-56.9	3.8	8.47e-01	0	62	104	3767533568	61	14360
2026-01-19 01:10:58.58	173.29	6.15	-45.2	-56.9	3.8	8.46e-01	0	62	104	3767533568	61	14251
2026-01-19 01:11:02.62	173.49	5.86	-45.2	-56.8	3.8	8.47e-01	0	62	104	3767533568	61	14163
2026-01-19 01:11:06.66	173.69	5.58	-45.2	-56.9	3.8	8.47e-01	0	62	104	3767533568	61	14257
2026-01-19 01:11:10.70	173.89	5.30	-45.2	-56.9	3.8	8.47e-01	0	62	104	3767533568	61	14223
2026-01-19 01:11:14.75	174.08	5.02	-45.2	-56.8	3.8	8.46e-01	0	62	104	3767533568	61	14177
2026-01-19 01:11:18.79	174.27	4.75	-45.2	-56.8	3.8	8.47e-01	0	62	104	3767533568	61	14187
2026-01-19 01:11:22.83	174.45	4.47	-45.2	-56.9	3.8	8.45e-01	0	62	104	3767533568	61	14215
2026-01-19 01:11:26.87	174.63	4.20	-45.2	-56.8	3.8	8.47e-01	0	62	104	3767533568	61	14112
2026-01-19 01:11:30.91	174.81	3.94	-45.2	-56.8	3.8	8.46e-01	0	62	104	3767533568	61	14208
2026-01-19 01:11:34.96	174.99	3.67	-45.2	-56.8	3.8	8.46e-01	0	62	104	3767533568	61	14108
2026-01-19 01:11:39.00	175.16	3.41	-45.2	-56.8	3.8	8.46e-01	0	62	104	3767533568	61	14156
2026-01-19 01:11:43.04	175.33	3.15	-45.1	-56.9	3.8	8.45e-01	0	62	104	3767533568	61	14213
2026-01-19 01:11:47.09	175.50	2.89	-45.2	-56.8	3.8	8.47e-01	0	62	104	3767533568	61	14199
2026-01-19 01:11:51.13	175.66	2.63	-45.2	-56.8	3.8	8.46e-01	0	62	104	3767533568	61	14167
2026-01-19 01:11:55.17	175.82	2.38	-45.2	-56.8	3.8	8.47e-01	0	62	104	3767533568	61	14148
2026-01-19 01:11:59.21	175.98	2.13	-45.2	-56.8	3.8	8.48e-01	0	62	104	3767533568	61	14137

#Closed at: 2026-01-19 01:12:01
#Recorded file [3767 MB]: D:/lorett/data/31039_260119_035758.dat