passes_logs/2026/01/19/R2.0S_Moscow/R2.0S_Moscow__20260119_123403_FENGYUN_3E_rec.log

#Pass ID: 20260119_123403_FENGYUN 3E
#Satellite: FENGYUN 3E
#Configuration: FENGYUN 3E
#almurnet v.1.7.20251203
#Start time: 2026-01-19 12:43:15

#Version: 2.2.20231116
#Station: R2.0S_Moscow
#Location: 37.707566 lon 55.798166 lat
#TLE: 1 49008U 21062A   26017.96535346 -.00000182  00000+0 -64922-4 0  9998
#TLE: 2 49008  98.7483  23.0589 0002171 131.9722 228.1640 14.19885139235265

#Time	Az	El	Level	Level2	SNR	BER	BlckErr	Temp	State	Recorded	gain1	gain2
2026-01-19 12:43:15.17	11.09	15.07	-45.1	-56.9	3.8	8.47e-01	0	62	0	0	60	15089
2026-01-19 12:43:16.17	10.93	15.00	-46.0	-57.2	3.8	8.46e-01	0	62	104	0	62	13243
2026-01-19 12:43:17.18	10.76	14.93	-45.9	-57.2	3.8	8.46e-01	0	62	104	0	62	13177
2026-01-19 12:43:18.19	10.60	14.86	-45.9	-57.2	3.8	8.46e-01	0	62	104	0	62	13150
2026-01-19 12:43:19.20	10.44	14.79	-45.8	-57.1	3.8	8.45e-01	0	62	104	0	62	12976
2026-01-19 12:43:20.21	10.28	14.72	-45.7	-57.0	3.8	8.47e-01	0	62	104	0	62	12912
2026-01-19 12:43:21.22	10.12	14.65	-45.6	-56.8	3.8	8.45e-01	0	62	104	0	62	12639
2026-01-19 12:43:22.23	9.96	14.59	-45.4	-56.4	3.8	8.46e-01	0	62	104	0	61	12742
2026-01-19 12:43:23.24	9.80	14.52	-44.9	-53.9	3.8	8.46e-01	0	63	104	0	60	10079
2026-01-19 12:43:24.25	9.65	14.45	-42.3	-46.1	8.3	4.97e-01	0	62	104	0	55	5482
2026-01-19 12:43:25.26	9.49	14.38	-42.7	-53.6	3.8	8.46e-01	0	62	104	1048576	56	12312
2026-01-19 12:43:26.27	9.34	14.31	-41.1	-51.9	3.8	8.47e-01	0	62	104	1048576	53	12082
2026-01-19 12:43:27.29	9.18	14.23	-41.1	-51.9	3.8	8.47e-01	0	62	104	1048576	53	12071
2026-01-19 12:43:28.30	9.03	14.17	-41.1	-51.8	3.8	8.46e-01	0	62	104	1048576	53	11949
2026-01-19 12:43:29.31	8.87	14.10	-41.1	-51.7	3.8	8.46e-01	0	62	104	1048576	53	11809
2026-01-19 12:43:30.32	8.72	14.03	-41.1	-51.7	3.8	8.46e-01	0	62	104	1048576	53	11745
2026-01-19 12:43:31.33	8.57	13.96	-41.0	-51.6	3.8	8.47e-01	0	62	104	1048576	53	11615
2026-01-19 12:43:32.34	8.42	13.89	-41.0	-51.7	3.8	8.46e-01	0	62	104	1048576	53	11686
2026-01-19 12:43:33.35	8.27	13.82	-41.1	-51.8	3.8	8.45e-01	0	62	104	1048576	53	11950
2026-01-19 12:43:34.36	8.12	13.75	-41.1	-51.8	3.8	8.46e-01	0	62	104	1048576	53	11913
2026-01-19 12:43:35.37	7.97	13.68	-41.1	-51.8	3.8	8.46e-01	0	62	104	1048576	53	11923
2026-01-19 12:43:36.38	7.82	13.61	-41.1	-51.8	3.8	8.46e-01	0	62	104	1048576	53	11908
2026-01-19 12:43:37.39	7.67	13.54	-41.1	-51.8	3.8	8.46e-01	0	62	104	1048576	53	11950
2026-01-19 12:43:38.41	7.52	13.47	-41.0	-51.6	3.8	8.45e-01	0	62	104	1048576	53	11682
2026-01-19 12:43:39.42	7.38	13.40	-41.0	-51.6	3.8	8.47e-01	0	63	104	1048576	53	11674
2026-01-19 12:43:40.43	7.23	13.33	-41.0	-51.3	3.8	8.45e-01	0	62	104	1048576	53	11174
2026-01-19 12:43:41.44	7.09	13.26	-41.0	-51.1	3.8	8.47e-01	0	62	104	1048576	52	11610
2026-01-19 12:43:42.45	6.94	13.19	-40.9	-50.4	3.8	8.45e-01	0	62	104	1048576	52	10765
2026-01-19 12:43:43.46	6.80	13.12	-40.9	-50.7	3.8	8.46e-01	0	62	104	1048576	52	11109
2026-01-19 12:43:44.47	6.66	13.05	-40.8	-50.2	3.8	8.47e-01	0	63	104	1048576	52	10485
2026-01-19 12:43:45.48	6.51	12.98	-40.9	-50.9	3.8	8.45e-01	0	63	104	1048576	52	11300
2026-01-19 12:43:46.49	6.37	12.91	-40.8	-50.1	3.8	8.46e-01	0	63	104	1048576	52	10327
2026-01-19 12:43:47.50	6.23	12.84	-40.8	-49.8	3.9	8.44e-01	0	62	104	1048576	52	10034
2026-01-19 12:43:48.51	6.09	12.77	-40.8	-49.6	3.9	8.45e-01	0	62	104	1048576	52	9790
2026-01-19 12:43:49.52	5.95	12.70	-40.5	-47.6	4.5	8.30e-01	0	63	0	1048576	51	8186
2026-01-19 12:43:50.53	5.82	12.63	-40.3	-47.1	4.7	8.04e-01	0	63	0	1048576	51	7746
2026-01-19 12:43:51.54	5.68	12.56	-40.5	-47.6	4.5	8.21e-01	0	63	0	1048576	51	8208
2026-01-19 12:43:52.55	5.54	12.49	-40.4	-47.1	4.7	8.19e-01	0	62	0	1048576	51	7778
2026-01-19 12:43:53.56	5.40	12.42	-40.1	-46.2	5.1	7.61e-01	0	63	0	1048576	51	6995
2026-01-19 12:43:54.57	5.27	12.35	-40.0	-45.8	5.4	7.21e-01	0	63	0	1048576	51	6703
2026-01-19 12:43:55.59	5.13	12.28	-40.2	-46.5	5.0	7.70e-01	0	62	0	1048576	51	7280
2026-01-19 12:43:56.60	5.00	12.21	-40.5	-47.6	4.5	8.17e-01	0	63	0	1048576	51	8246
2026-01-19 12:43:57.61	4.86	12.14	-40.8	-49.2	4.0	8.40e-01	0	63	0	1048576	51	9932
2026-01-19 12:43:58.62	4.73	12.07	-40.9	-50.5	3.8	8.46e-01	0	63	104	1048576	51	11524
2026-01-19 12:43:59.63	4.60	12.00	-41.0	-51.2	3.8	8.48e-01	0	63	104	1048576	51	12463
2026-01-19 12:44:00.64	4.46	11.93	-41.1	-51.7	3.8	8.46e-01	0	63	104	1048576	51	13189
2026-01-19 12:44:01.65	4.33	11.86	-41.1	-51.9	3.8	8.46e-01	0	63	104	1048576	51	13468
2026-01-19 12:44:02.66	4.20	11.79	-41.1	-51.9	3.8	8.46e-01	0	63	104	1048576	51	13514
2026-01-19 12:44:03.67	4.07	11.73	-41.1	-51.9	3.8	8.46e-01	0	63	104	1048576	51	13534
2026-01-19 12:44:04.68	3.94	11.66	-41.1	-52.0	3.8	8.46e-01	0	63	104	1048576	51	13597
2026-01-19 12:44:05.69	3.81	11.59	-41.1	-51.9	3.8	8.47e-01	0	63	104	1048576	51	13565
2026-01-19 12:44:06.70	3.69	11.52	-41.1	-52.0	3.8	8.46e-01	0	63	104	1048576	51	13598
2026-01-19 12:44:07.71	3.56	11.45	-41.1	-52.0	3.8	8.47e-01	0	63	104	1048576	51	13625
2026-01-19 12:44:08.72	3.43	11.38	-41.1	-52.0	3.8	8.46e-01	0	63	104	1048576	51	13685
2026-01-19 12:44:09.73	3.30	11.31	-41.1	-52.1	3.8	8.47e-01	0	63	104	1048576	51	13873
2026-01-19 12:44:10.74	3.18	11.24	-40.9	-51.8	3.8	8.46e-01	0	63	104	1048576	51	13263
2026-01-19 12:44:11.75	3.05	11.18	-41.2	-52.0	3.8	8.46e-01	0	63	104	1048576	51	13726
2026-01-19 12:44:12.76	2.93	11.11	-41.1	-52.2	3.8	8.45e-01	0	63	104	1048576	52	13153
2026-01-19 12:44:13.77	2.81	11.04	-40.8	-51.6	3.8	8.46e-01	0	63	104	1048576	52	12343
2026-01-19 12:44:14.78	2.68	10.97	-40.6	-51.5	3.8	8.46e-01	0	63	104	1048576	52	12173
2026-01-19 12:44:15.79	2.56	10.90	-40.5	-51.5	3.8	8.46e-01	0	63	104	1048576	52	12148
2026-01-19 12:44:16.80	2.44	10.83	-40.5	-51.4	3.8	8.45e-01	0	63	104	1048576	52	12048
2026-01-19 12:44:17.81	2.32	10.76	-40.5	-51.4	3.8	8.46e-01	0	62	104	1048576	51	12810
2026-01-19 12:44:18.82	2.19	10.70	-40.6	-51.5	3.8	8.46e-01	0	62	104	1048576	51	12868
2026-01-19 12:44:19.83	2.07	10.63	-41.0	-51.9	3.8	8.46e-01	0	63	104	1048576	51	13465
2026-01-19 12:44:20.84	1.95	10.56	-40.6	-51.6	3.8	8.47e-01	0	63	104	1048576	51	12960
2026-01-19 12:44:21.85	1.83	10.49	-40.8	-51.7	3.8	8.46e-01	0	63	104	1048576	51	13131
2026-01-19 12:44:22.86	1.72	10.42	-40.9	-51.8	3.8	8.47e-01	0	63	104	1048576	51	13314
2026-01-19 12:44:23.87	1.60	10.36	-40.6	-51.6	3.8	8.49e-01	0	63	104	1048576	51	13013
2026-01-19 12:44:24.88	1.48	10.29	-40.5	-51.5	3.8	8.46e-01	0	63	104	1048576	51	12906
2026-01-19 12:44:25.89	1.36	10.22	-40.7	-51.6	3.8	8.45e-01	0	63	104	1048576	51	13008
2026-01-19 12:44:26.90	1.25	10.15	-40.8	-51.7	3.8	8.46e-01	0	63	104	1048576	51	13155
2026-01-19 12:44:27.91	1.13	10.09	-40.5	-51.5	3.8	8.46e-01	0	63	104	1048576	51	12881
2026-01-19 12:44:28.92	1.02	10.02	-40.4	-51.5	3.8	8.47e-01	0	63	104	1048576	51	12891
2026-01-19 12:44:29.93	0.90	9.95	-40.6	-51.5	3.8	8.45e-01	0	63	104	1048576	51	12943
2026-01-19 12:44:30.94	0.79	9.88	-40.7	-51.6	3.8	8.46e-01	0	63	104	1048576	51	13109
2026-01-19 12:44:31.95	0.67	9.82	-40.4	-51.5	3.8	8.46e-01	0	63	104	1048576	51	12825
2026-01-19 12:44:32.96	0.56	9.75	-40.2	-51.5	3.8	8.47e-01	0	63	104	1048576	51	12823
2026-01-19 12:44:33.96	0.45	9.68	-40.5	-51.4	3.8	8.46e-01	0	63	104	1048576	51	12784
2026-01-19 12:44:34.97	0.34	9.61	-40.6	-51.6	3.8	8.48e-01	0	63	104	1048576	51	13006
2026-01-19 12:44:35.98	0.22	9.55	-40.3	-51.5	3.8	8.47e-01	0	63	104	1048576	51	12818
2026-01-19 12:44:37.00	0.11	9.48	-40.1	-51.5	3.8	8.46e-01	0	63	104	1048576	51	12845
2026-01-19 12:44:38.01	0.00	9.41	-40.4	-51.4	3.8	8.46e-01	0	63	104	1048576	51	12795
2026-01-19 12:44:39.01	359.89	9.35	-40.3	-51.5	3.8	8.46e-01	0	63	104	1048576	51	12815
2026-01-19 12:44:40.02	359.78	9.28	-40.3	-51.5	3.8	8.46e-01	0	63	104	1048576	51	12870
2026-01-19 12:44:41.03	359.67	9.21	-40.0	-51.4	3.8	8.46e-01	0	63	104	1048576	50	13532
2026-01-19 12:44:42.04	359.57	9.15	-40.3	-51.4	3.8	8.47e-01	0	63	104	1048576	50	13563
2026-01-19 12:44:43.05	359.46	9.08	-40.0	-51.5	3.8	8.44e-01	0	63	104	1048576	50	13585
2026-01-19 12:44:44.06	359.35	9.01	-40.1	-51.5	3.8	8.47e-01	0	63	104	1048576	50	13637
2026-01-19 12:44:45.07	359.24	8.95	-40.2	-51.4	3.8	8.47e-01	0	63	104	1048576	50	13459
2026-01-19 12:44:46.08	359.14	8.88	-40.1	-51.4	3.8	8.46e-01	0	63	104	1048576	50	13560
2026-01-19 12:44:47.09	359.03	8.81	-40.1	-51.4	3.8	8.46e-01	0	63	104	1048576	50	13534
2026-01-19 12:44:48.10	358.93	8.75	-40.0	-51.4	3.8	8.47e-01	0	63	104	1048576	50	13492
2026-01-19 12:44:49.11	358.82	8.68	-40.2	-51.3	3.8	8.45e-01	0	63	104	1048576	50	13371
2026-01-19 12:44:50.12	358.72	8.62	-40.0	-51.4	3.8	8.46e-01	0	63	104	1048576	50	13529
2026-01-19 12:44:51.13	358.61	8.55	-40.2	-51.4	3.8	8.45e-01	0	63	104	1048576	50	13463
2026-01-19 12:44:52.14	358.51	8.49	-40.1	-51.3	3.8	8.46e-01	0	63	104	1048576	50	13405
2026-01-19 12:44:53.15	358.41	8.42	-39.9	-51.3	3.8	8.45e-01	0	63	104	1048576	50	13338
2026-01-19 12:44:54.16	358.30	8.35	-40.0	-51.4	3.8	8.45e-01	0	63	104	1048576	50	13444
2026-01-19 12:44:55.17	358.20	8.29	-40.1	-51.3	3.8	8.45e-01	0	63	104	1048576	50	13400
2026-01-19 12:44:56.18	358.10	8.22	-40.0	-51.3	3.8	8.46e-01	0	63	104	1048576	50	13328
2026-01-19 12:44:57.19	358.00	8.16	-39.9	-51.3	3.8	8.47e-01	0	63	104	1048576	50	13341
2026-01-19 12:44:58.20	357.90	8.09	-40.2	-51.3	3.8	8.45e-01	0	63	104	1048576	50	13316
2026-01-19 12:44:59.21	357.80	8.03	-39.9	-51.4	3.8	8.46e-01	0	63	104	1048576	50	13478
2026-01-19 12:45:00.22	357.70	7.96	-41.2	-52.1	3.8	8.46e-01	0	63	104	1048576	51	13806
2026-01-19 12:45:01.23	357.60	7.90	-44.8	-55.9	3.8	8.45e-01	0	63	104	1048576	59	13441
2026-01-19 12:45:02.24	357.50	7.83	-45.3	-56.6	3.8	8.46e-01	0	63	104	1048576	60	13858
2026-01-19 12:45:03.25	357.40	7.77	-45.6	-56.9	3.8	8.46e-01	0	63	104	1048576	60	14265
2026-01-19 12:45:04.26	357.30	7.70	-45.7	-57.0	3.8	8.46e-01	0	63	104	1048576	60	14430
2026-01-19 12:45:05.27	357.21	7.64	-45.7	-57.1	3.8	8.46e-01	0	63	104	1048576	61	13748
2026-01-19 12:45:06.28	357.11	7.57	-45.6	-57.0	3.8	8.46e-01	0	63	104	1048576	61	13647
2026-01-19 12:45:07.29	357.01	7.51	-45.8	-57.2	3.8	8.45e-01	0	63	104	1048576	61	13891
2026-01-19 12:45:08.30	356.92	7.44	-45.8	-57.1	3.8	8.46e-01	0	63	104	1048576	61	13825
2026-01-19 12:45:09.31	356.82	7.38	-45.5	-56.8	3.8	8.45e-01	0	63	104	1048576	61	13396
2026-01-19 12:45:10.32	356.73	7.32	-45.7	-57.0	3.8	8.45e-01	0	63	104	1048576	61	13722
2026-01-19 12:45:11.34	356.63	7.25	-45.8	-57.1	3.8	8.47e-01	0	63	104	1048576	61	13858
2026-01-19 12:45:12.35	356.54	7.19	-45.5	-57.0	3.8	8.45e-01	0	63	104	1048576	61	13717
2026-01-19 12:45:13.36	356.44	7.12	-45.7	-57.0	3.8	8.47e-01	0	63	104	1048576	61	13726
2026-01-19 12:45:14.37	356.35	7.06	-45.8	-57.1	3.8	8.46e-01	0	63	104	1048576	61	13772
2026-01-19 12:45:15.38	356.25	6.99	-45.7	-57.0	3.8	8.45e-01	0	63	104	1048576	61	13664
2026-01-19 12:45:16.39	356.16	6.93	-45.7	-57.0	3.8	8.47e-01	0	63	104	1048576	61	13680
2026-01-19 12:45:17.40	356.07	6.87	-45.7	-57.1	3.8	8.46e-01	0	63	104	1048576	60	14571
2026-01-19 12:45:18.41	355.98	6.80	-45.5	-57.0	3.8	8.46e-01	0	63	104	1048576	60	14405
2026-01-19 12:45:19.42	355.89	6.74	-45.7	-57.1	3.8	8.46e-01	0	63	104	1048576	60	14577
2026-01-19 12:45:20.43	355.80	6.68	-45.6	-57.0	3.8	8.46e-01	0	63	104	1048576	61	13656
2026-01-19 12:45:21.44	355.71	6.61	-45.7	-57.0	3.8	8.46e-01	0	63	104	1048576	60	14534
2026-01-19 12:45:22.45	355.62	6.55	-45.7	-57.0	3.8	8.46e-01	0	63	104	1048576	60	14527
2026-01-19 12:45:23.46	355.53	6.49	-45.7	-57.0	3.8	8.47e-01	0	63	104	1048576	60	14497
2026-01-19 12:45:24.47	355.44	6.42	-45.7	-57.0	3.8	8.45e-01	0	63	104	1048576	60	14423
2026-01-19 12:45:25.48	355.35	6.36	-45.7	-57.0	3.8	8.46e-01	0	63	104	1048576	60	14416
2026-01-19 12:45:26.49	355.26	6.30	-45.7	-57.0	3.8	8.47e-01	0	63	104	1048576	60	14388
2026-01-19 12:45:27.50	355.17	6.24	-45.7	-57.0	3.8	8.47e-01	0	63	104	1048576	60	14436
2026-01-19 12:45:28.51	355.08	6.17	-45.7	-57.0	3.8	8.46e-01	0	63	104	1048576	60	14480
2026-01-19 12:45:29.53	354.99	6.11	-45.7	-57.0	3.8	8.45e-01	0	63	104	1048576	60	14444
2026-01-19 12:45:30.54	354.91	6.05	-45.7	-57.0	3.8	8.45e-01	0	63	104	1048576	60	14465
2026-01-19 12:45:31.55	354.82	5.98	-45.7	-57.0	3.8	8.45e-01	0	63	104	1048576	60	14477
2026-01-19 12:45:32.56	354.73	5.92	-45.4	-57.0	3.8	8.47e-01	0	63	104	1048576	60	14439
2026-01-19 12:45:33.57	354.65	5.86	-45.7	-57.0	3.8	8.46e-01	0	63	104	1048576	60	14428
2026-01-19 12:45:34.58	354.56	5.80	-45.7	-57.0	3.8	8.46e-01	0	63	104	1048576	60	14477
2026-01-19 12:45:35.59	354.48	5.74	-45.7	-57.0	3.8	8.47e-01	0	63	104	1048576	60	14411
2026-01-19 12:45:36.60	354.39	5.67	-45.7	-57.0	3.8	8.47e-01	0	63	104	1048576	60	14411
2026-01-19 12:45:37.62	354.31	5.61	-45.7	-57.0	3.8	8.45e-01	0	63	104	1048576	60	14459
2026-01-19 12:45:38.63	354.23	5.55	-45.7	-57.0	3.8	8.47e-01	0	63	104	1048576	60	14437
2026-01-19 12:45:39.64	354.14	5.49	-45.1	-57.0	3.8	8.46e-01	0	63	104	1048576	60	14457
2026-01-19 12:45:40.65	354.06	5.43	-45.7	-57.0	3.8	8.45e-01	0	63	104	1048576	60	14421
2026-01-19 12:45:41.66	353.98	5.36	-45.6	-57.0	3.8	8.45e-01	0	63	104	1048576	60	14455
2026-01-19 12:45:42.67	353.89	5.30	-45.6	-57.0	3.8	8.46e-01	0	63	104	1048576	60	14388
2026-01-19 12:45:43.68	353.81	5.24	-45.6	-57.0	3.8	8.47e-01	0	63	104	1048576	60	14411
2026-01-19 12:45:44.69	353.73	5.18	-45.6	-57.0	3.8	8.48e-01	0	63	104	1048576	60	14382
2026-01-19 12:45:45.70	353.65	5.12	-45.7	-57.0	3.8	8.47e-01	0	63	104	1048576	60	14409
2026-01-19 12:45:46.71	353.57	5.06	-45.6	-57.0	3.8	8.47e-01	0	63	104	1048576	60	14415
2026-01-19 12:45:47.72	353.49	5.00	-45.6	-56.9	3.8	8.47e-01	0	63	104	1048576	60	14371
2026-01-19 12:45:48.73	353.41	4.93	-45.6	-57.0	3.8	8.47e-01	0	63	104	1048576	60	14454
2026-01-19 12:45:49.74	353.33	4.87	-45.6	-57.0	3.8	8.46e-01	0	63	104	1048576	60	14408
2026-01-19 12:45:50.75	353.25	4.81	-45.7	-57.0	3.8	8.46e-01	0	63	104	1048576	60	14459
2026-01-19 12:45:51.77	353.17	4.75	-45.7	-57.0	3.8	8.47e-01	0	63	104	1048576	60	14402
2026-01-19 12:45:52.78	353.09	4.69	-45.6	-57.0	3.8	8.47e-01	0	63	104	1048576	60	14417
2026-01-19 12:45:53.79	353.01	4.63	-45.6	-57.0	3.8	8.45e-01	0	63	104	1048576	60	14388
2026-01-19 12:45:54.80	352.93	4.57	-45.7	-57.0	3.8	8.46e-01	0	63	104	1048576	60	14397
2026-01-19 12:45:55.81	352.85	4.51	-45.6	-57.0	3.8	8.46e-01	0	63	104	1048576	60	14392
2026-01-19 12:45:56.82	352.78	4.45	-45.6	-57.0	3.8	8.47e-01	0	63	104	1048576	60	14461
2026-01-19 12:45:57.83	352.70	4.39	-45.7	-57.0	3.8	8.46e-01	0	63	104	1048576	60	14425
2026-01-19 12:45:58.84	352.62	4.33	-45.6	-57.0	3.8	8.46e-01	0	63	104	1048576	60	14482
2026-01-19 12:45:59.85	352.55	4.27	-45.6	-57.0	3.8	8.45e-01	0	63	104	1048576	60	14390
2026-01-19 12:46:00.87	352.47	4.21	-45.6	-57.0	3.8	8.46e-01	0	63	104	1048576	60	14467
2026-01-19 12:46:01.88	352.39	4.15	-45.6	-57.0	3.8	8.46e-01	0	63	104	1048576	60	14396
2026-01-19 12:46:02.89	352.32	4.09	-45.6	-57.0	3.8	8.46e-01	0	63	104	1048576	60	14406
2026-01-19 12:46:03.90	352.24	4.03	-45.6	-57.0	3.8	8.46e-01	0	63	104	1048576	60	14451
2026-01-19 12:46:04.91	352.17	3.97	-45.6	-56.9	3.8	8.47e-01	0	63	104	1048576	60	14372
2026-01-19 12:46:05.92	352.09	3.91	-45.6	-57.0	3.8	8.47e-01	0	63	104	1048576	60	14390
2026-01-19 12:46:06.93	352.02	3.85	-45.6	-57.0	3.8	8.47e-01	0	63	104	1048576	60	14383
2026-01-19 12:46:07.94	351.94	3.79	-45.6	-56.9	3.8	8.47e-01	0	63	104	1048576	60	14358
2026-01-19 12:46:08.95	351.87	3.73	-45.6	-56.9	3.8	8.46e-01	0	63	104	1048576	60	14355
2026-01-19 12:46:09.96	351.80	3.67	-45.6	-57.0	3.8	8.46e-01	0	63	104	1048576	60	14447
2026-01-19 12:46:10.98	351.72	3.61	-45.6	-57.0	3.8	8.46e-01	0	63	104	1048576	60	14413
2026-01-19 12:46:11.99	351.65	3.55	-45.5	-56.9	3.8	8.46e-01	0	63	104	1048576	60	14372
2026-01-19 12:46:13.00	351.58	3.49	-45.5	-56.9	3.8	8.45e-01	0	63	104	1048576	60	14306
2026-01-19 12:46:14.01	351.51	3.44	-45.6	-56.7	3.8	8.46e-01	0	63	104	1048576	59	14809
2026-01-19 12:46:15.02	351.43	3.38	-45.6	-56.9	3.8	8.46e-01	0	63	104	1048576	60	14353
2026-01-19 12:46:16.03	351.36	3.32	-45.6	-56.9	3.8	8.46e-01	0	64	104	1048576	60	14369
2026-01-19 12:46:17.04	351.29	3.26	-45.6	-57.0	3.8	8.46e-01	0	63	104	1048576	60	14429
2026-01-19 12:46:18.05	351.22	3.20	-45.6	-56.9	3.8	8.47e-01	0	63	104	1048576	60	14346
2026-01-19 12:46:19.06	351.15	3.14	-45.6	-56.9	3.8	8.46e-01	0	63	104	1048576	60	14357
2026-01-19 12:46:20.07	351.08	3.08	-45.6	-57.0	3.8	8.45e-01	0	63	104	1048576	60	14392
2026-01-19 12:46:21.08	351.01	3.03	-45.6	-57.0	3.8	8.47e-01	0	63	104	1048576	60	14386
2026-01-19 12:46:22.09	350.94	2.97	-45.6	-56.9	3.8	8.46e-01	0	63	104	1048576	60	14323
2026-01-19 12:46:23.11	350.87	2.91	-45.5	-56.9	3.8	8.47e-01	0	63	104	1048576	60	14330
2026-01-19 12:46:24.12	350.80	2.85	-45.3	-56.9	3.8	8.45e-01	0	63	104	1048576	60	14307
2026-01-19 12:46:25.13	350.73	2.79	-45.6	-56.9	3.8	8.47e-01	0	63	104	1048576	60	14346
2026-01-19 12:46:26.14	350.66	2.74	-45.4	-56.9	3.8	8.46e-01	0	63	104	1048576	60	14358
2026-01-19 12:46:27.15	350.60	2.68	-45.4	-57.0	3.8	8.45e-01	0	63	104	1048576	60	14387
2026-01-19 12:46:28.16	350.53	2.62	-45.6	-57.0	3.8	8.47e-01	0	63	104	1048576	60	14410
2026-01-19 12:46:29.17	350.46	2.56	-45.6	-57.0	3.8	8.46e-01	0	63	104	1048576	60	14382
2026-01-19 12:46:30.18	350.39	2.50	-45.6	-56.9	3.8	8.47e-01	0	63	104	1048576	60	14365
2026-01-19 12:46:31.19	350.33	2.45	-45.6	-56.9	3.8	8.46e-01	0	63	104	1048576	60	14309
2026-01-19 12:46:32.21	350.26	2.39	-45.6	-57.0	3.8	8.46e-01	0	63	104	1048576	60	14382
2026-01-19 12:46:33.22	350.19	2.33	-45.5	-56.9	3.8	8.46e-01	0	63	104	1048576	60	14265
2026-01-19 12:46:34.23	350.13	2.27	-45.6	-57.0	3.8	8.46e-01	0	63	104	1048576	60	14379
2026-01-19 12:46:35.24	350.06	2.22	-45.6	-56.9	3.8	8.47e-01	0	63	104	1048576	60	14322
2026-01-19 12:46:36.25	349.99	2.16	-45.6	-56.9	3.8	8.46e-01	0	63	104	1048576	60	14325
2026-01-19 12:46:37.26	349.93	2.10	-45.6	-56.9	3.8	8.47e-01	0	63	104	1048576	60	14286
2026-01-19 12:46:38.27	349.86	2.05	-45.6	-56.9	3.8	8.46e-01	0	63	104	1048576	60	14281
2026-01-19 12:46:39.28	349.80	1.99	-45.6	-56.9	3.8	8.47e-01	0	63	104	1048576	60	14306
2026-01-19 12:46:40.29	349.73	1.93	-45.6	-56.9	3.8	8.46e-01	0	63	104	1048576	60	14341

#Closed at: 2026-01-19 12:46:40
#Recorded file [1 MB]: D:/lorett/data/31039_260119_154314.dat