passes_logs/2026/01/19/R2.0S_Moscow/R2.0S_Moscow__20260119_225105_FENGYUN_3G_rec.log

#Pass ID: 20260119_225105_FENGYUN 3G
#Satellite: FENGYUN 3G
#Configuration: FENGYUN 3G
#almurnet v.1.7.20251203
#Start time: 2026-01-19 22:51:06

#Version: 2.2.20231116
#Station: R2.0S_Moscow
#Location: 37.707566 lon 55.798166 lat
#TLE: 1 56232U 23055A   26019.29402138  .00031930  00000+0  49376-3 0  9997
#TLE: 2 56232  49.9940  33.7754 0004164  48.8313 311.3013 15.53733440156869

#Time	Az	El	Level	Level2	SNR	BER	BlckErr	Temp	State	Recorded	gain1	gain2
2026-01-19 22:51:06.92	262.49	2.11	-44.1	-62.2	3.8	8.45e-01	0	52	0	0	60	27905
2026-01-19 22:51:09.94	262.25	2.30	-44.1	-62.2	3.8	8.45e-01	0	53	104	0	60	27733
2026-01-19 22:51:12.98	262.00	2.50	-44.1	-62.1	3.8	8.45e-01	0	53	104	0	60	27587
2026-01-19 22:51:16.01	261.75	2.70	-44.1	-62.0	3.8	8.46e-01	0	53	104	0	60	27267
2026-01-19 22:51:19.04	261.50	2.89	-44.1	-62.1	3.8	8.46e-01	0	53	104	0	60	27405
2026-01-19 22:51:22.07	261.23	3.09	-44.1	-62.2	3.8	8.46e-01	0	53	104	0	60	27800
2026-01-19 22:51:25.10	260.97	3.30	-44.1	-62.2	3.8	8.45e-01	0	54	104	0	60	27834
2026-01-19 22:51:28.13	260.69	3.50	-44.1	-62.1	3.8	8.47e-01	0	54	104	0	60	27558
2026-01-19 22:51:31.16	260.41	3.70	-44.1	-61.6	3.8	8.46e-01	0	54	104	0	60	26142
2026-01-19 22:51:34.19	260.13	3.91	-44.1	-61.7	3.8	8.47e-01	0	54	104	0	60	26331
2026-01-19 22:51:37.22	259.84	4.12	-44.1	-62.1	3.8	8.46e-01	0	54	104	0	60	27446
2026-01-19 22:51:40.26	259.54	4.33	-44.1	-62.2	3.8	8.47e-01	0	54	104	0	60	27726
2026-01-19 22:51:43.29	259.24	4.54	-44.1	-62.0	3.8	8.46e-01	0	55	104	0	60	27360
2026-01-19 22:51:46.32	258.93	4.76	-44.1	-62.0	3.8	8.46e-01	0	55	104	0	60	27155
2026-01-19 22:51:49.35	258.62	4.98	-44.1	-61.0	3.8	8.47e-01	0	55	104	0	60	24208
2026-01-19 22:51:52.39	258.29	5.19	-44.1	-60.4	3.8	8.45e-01	0	55	104	0	60	22686
2026-01-19 22:51:55.42	257.96	5.42	-44.1	-61.4	3.8	8.46e-01	0	55	104	0	60	25356
2026-01-19 22:51:58.45	257.62	5.64	-44.1	-61.9	3.8	8.47e-01	0	56	104	0	60	26911
2026-01-19 22:52:01.48	257.28	5.86	-44.1	-60.7	3.8	8.47e-01	0	56	104	0	60	23507
2026-01-19 22:52:04.51	256.93	6.09	-44.0	-59.7	3.9	8.44e-01	0	56	104	0	60	20830
2026-01-19 22:52:07.54	256.57	6.32	-44.0	-58.7	4.2	8.41e-01	0	56	0	0	60	18688
2026-01-19 22:52:10.57	256.20	6.55	-44.0	-56.8	4.9	8.29e-01	0	56	0	0	59	15863
2026-01-19 22:52:13.60	255.82	6.79	-43.6	-53.3	7.5	5.36e-01	0	56	0	2097152	59	10646
2026-01-19 22:52:16.63	255.44	7.02	-43.4	-51.9	9.0	4.82e-02	0	56	0	5242880	58	9572
2026-01-19 22:52:19.67	255.04	7.26	-43.8	-54.9	6.3	3.09e-02	0	56	0	8388608	58	13510
2026-01-19 22:52:22.70	254.63	7.51	-44.0	-57.9	4.4	7.65e-01	0	56	0	8912896	58	19076
2026-01-19 22:52:25.73	254.22	7.75	-42.5	-48.2	12.8	5.23e-03	0	57	0	11534336	57	6635
2026-01-19 22:52:28.76	253.80	8.00	-41.6	-46.2	14.7	0.00e+00	0	57	0	14680064	55	5895
2026-01-19 22:52:31.79	253.36	8.25	-43.8	-55.0	7.8	1.26e-04	0	57	0	18350080	58	13587
2026-01-19 22:52:34.83	252.92	8.50	-41.4	-45.7	15.3	9.48e-03	0	57	0	20971520	54	5881
2026-01-19 22:52:37.85	252.46	8.75	-41.1	-45.0	16.1	0.00e+00	0	57	0	24641536	54	5439
2026-01-19 22:52:40.88	252.00	9.01	-40.9	-44.8	16.4	0.00e+00	0	57	0	27787264	53	5602
2026-01-19 22:52:43.91	251.52	9.27	-41.0	-44.8	16.3	0.00e+00	0	57	0	31457280	53	5653
2026-01-19 22:52:46.94	251.03	9.53	-40.9	-44.6	16.6	0.00e+00	0	57	0	34603008	53	5513
2026-01-19 22:52:49.97	250.53	9.79	-41.0	-44.8	16.4	0.00e+00	0	57	0	38273024	53	5596
2026-01-19 22:52:52.99	250.01	10.06	-40.9	-44.7	16.6	0.00e+00	0	57	0	41418752	53	5531
2026-01-19 22:52:56.02	249.49	10.33	-40.8	-44.4	16.9	0.00e+00	0	58	0	45088768	53	5367
2026-01-19 22:52:59.05	248.95	10.60	-40.7	-44.3	17.0	0.00e+00	0	58	0	48234496	53	5289
2026-01-19 22:53:02.08	248.39	10.88	-40.7	-44.1	17.1	0.00e+00	0	58	0	51904512	53	5206
2026-01-19 22:53:05.11	247.82	11.15	-40.5	-43.7	17.6	0.00e+00	0	58	0	55050240	52	5278
2026-01-19 22:53:08.14	247.24	11.43	-40.3	-43.5	17.9	0.00e+00	0	58	0	58720256	52	5125
2026-01-19 22:53:11.16	246.64	11.72	-40.3	-43.4	17.9	0.00e+00	0	58	0	61865984	52	5093
2026-01-19 22:53:14.19	246.03	12.00	-40.4	-43.6	17.8	0.00e+00	0	58	0	65536000	52	5166
2026-01-19 22:53:17.22	245.40	12.29	-40.3	-43.4	18.1	0.00e+00	0	58	0	68681728	52	5043
2026-01-19 22:53:20.25	244.75	12.58	-39.9	-42.8	18.7	0.00e+00	0	58	0	72351744	51	4998
2026-01-19 22:53:23.28	244.08	12.87	-40.1	-43.0	18.5	0.00e+00	0	58	0	75497472	51	5142
2026-01-19 22:53:26.30	243.40	13.16	-40.2	-43.2	18.3	0.00e+00	0	58	0	79167488	51	5265
2026-01-19 22:53:29.34	242.70	13.46	-40.2	-43.2	18.4	0.00e+00	0	58	0	82313216	51	5239
2026-01-19 22:53:32.36	241.99	13.75	-40.0	-42.8	18.8	0.00e+00	0	58	0	85983232	51	5009
2026-01-19 22:53:35.39	241.25	14.05	-39.9	-42.8	18.8	0.00e+00	0	58	0	89128960	51	4992
2026-01-19 22:53:38.42	240.49	14.35	-39.8	-42.5	19.1	0.00e+00	0	58	0	92798976	51	4830
2026-01-19 22:53:41.45	239.72	14.66	-39.8	-42.6	19.1	0.00e+00	0	58	0	95944704	51	4878
2026-01-19 22:53:44.48	238.92	14.96	-39.4	-41.9	19.8	0.00e+00	0	59	0	99614720	50	4789
2026-01-19 22:53:47.51	238.10	15.26	-39.4	-42.0	19.7	0.00e+00	0	59	0	102760448	50	4852
2026-01-19 22:53:50.53	237.26	15.56	-39.5	-42.1	19.5	0.00e+00	0	59	0	106430464	50	4920
2026-01-19 22:53:53.56	236.40	15.87	-39.3	-41.8	19.9	0.00e+00	0	59	0	109576192	50	4729
2026-01-19 22:53:56.59	235.51	16.17	-38.9	-41.3	20.4	0.00e+00	0	59	0	113246208	49	4735
2026-01-19 22:53:59.62	234.61	16.48	-39.2	-41.7	20.1	0.00e+00	0	59	0	116391936	49	4935
2026-01-19 22:54:02.65	233.68	16.78	-39.3	-41.8	20.0	0.00e+00	0	59	0	120061952	49	5005
2026-01-19 22:54:05.68	232.72	17.08	-39.2	-41.7	20.0	0.00e+00	0	59	0	123207680	49	4947
2026-01-19 22:54:08.71	231.74	17.38	-38.7	-40.9	20.8	0.00e+00	0	59	0	126877696	49	4543
2026-01-19 22:54:11.73	230.74	17.68	-38.7	-40.9	20.9	0.00e+00	0	59	0	130023424	49	4544
2026-01-19 22:54:14.76	229.71	17.98	-39.0	-41.4	20.4	0.00e+00	0	59	0	133693440	49	4766
2026-01-19 22:54:17.79	228.66	18.27	-39.3	-41.8	20.0	0.00e+00	0	59	0	136839168	49	5018
2026-01-19 22:54:20.82	227.58	18.56	-38.7	-41.0	20.8	0.00e+00	0	59	0	140509184	49	4574
2026-01-19 22:54:23.85	226.48	18.84	-38.6	-40.8	21.0	0.00e+00	0	59	0	143654912	48	4755
2026-01-19 22:54:26.87	225.35	19.12	-38.9	-41.2	20.6	0.00e+00	0	59	0	147324928	48	4948
2026-01-19 22:54:29.90	224.20	19.40	-38.9	-41.2	20.7	0.00e+00	0	59	0	150470656	48	4939
2026-01-19 22:54:32.93	223.02	19.66	-38.9	-41.2	20.7	0.00e+00	0	59	0	154140672	48	4941
2026-01-19 22:54:35.96	221.81	19.92	-38.7	-40.9	21.0	0.00e+00	0	59	0	157286400	48	4774
2026-01-19 22:54:38.99	220.58	20.18	-38.0	-40.1	21.7	0.00e+00	0	60	0	160956416	48	4368
2026-01-19 22:54:42.01	219.33	20.42	-37.9	-39.9	21.9	0.00e+00	0	60	0	164102144	47	4531
2026-01-19 22:54:45.04	218.06	20.65	-38.2	-40.3	21.5	0.00e+00	0	60	0	167772160	47	4746
2026-01-19 22:54:48.07	216.76	20.88	-38.3	-40.4	21.5	0.00e+00	0	59	0	170917888	47	4775
2026-01-19 22:54:51.10	215.43	21.09	-38.4	-40.5	21.4	0.00e+00	0	60	0	174587904	47	4846
2026-01-19 22:54:54.13	214.09	21.29	-38.2	-40.3	21.6	0.00e+00	0	60	0	177733632	47	4719
2026-01-19 22:54:57.16	212.72	21.48	-38.4	-40.5	21.4	0.00e+00	0	59	0	181403648	47	4858
2026-01-19 22:55:00.18	211.34	21.66	-38.3	-40.5	21.4	0.00e+00	0	60	0	184549376	47	4832
2026-01-19 22:55:03.22	209.94	21.82	-38.1	-40.2	21.6	0.00e+00	0	60	0	188219392	47	4689
2026-01-19 22:55:06.25	208.52	21.97	-38.0	-40.0	21.9	0.00e+00	0	60	0	191365120	47	4578
2026-01-19 22:55:09.28	207.08	22.10	-38.0	-40.1	21.8	0.00e+00	0	60	0	195035136	47	4606
2026-01-19 22:55:12.31	205.63	22.22	-37.8	-39.8	22.1	0.00e+00	0	60	0	198180864	47	4472
2026-01-19 22:55:15.33	204.17	22.32	-37.9	-39.9	22.0	0.00e+00	0	60	0	201850880	47	4512
2026-01-19 22:55:18.36	202.70	22.41	-37.6	-39.6	22.3	0.00e+00	0	60	0	204996608	47	4365
2026-01-19 22:55:21.39	201.22	22.47	-37.5	-39.4	22.5	0.00e+00	0	60	0	208666624	46	4518
2026-01-19 22:55:24.42	199.74	22.52	-37.6	-39.6	22.3	0.00e+00	0	60	0	211812352	46	4599
2026-01-19 22:55:27.44	198.25	22.55	-38.3	-40.4	21.5	0.00e+00	0	60	0	215482368	47	4810
2026-01-19 22:55:30.47	196.76	22.57	-38.0	-40.1	21.8	0.00e+00	0	60	0	218628096	47	4610
2026-01-19 22:55:33.50	195.26	22.56	-37.6	-39.6	22.2	0.00e+00	0	60	0	222298112	47	4370
2026-01-19 22:55:36.53	193.77	22.54	-37.5	-39.5	22.4	0.00e+00	0	60	0	225443840	46	4562
2026-01-19 22:55:39.57	192.27	22.50	-38.1	-40.2	21.7	0.00e+00	0	60	0	229113856	46	4931
2026-01-19 22:55:42.59	190.80	22.44	-38.3	-40.5	21.3	0.00e+00	0	60	0	232259584	47	4841
2026-01-19 22:55:45.62	189.32	22.37	-38.0	-40.0	21.8	0.00e+00	0	60	0	235929600	47	4582
2026-01-19 22:55:48.65	187.85	22.28	-37.6	-39.6	22.2	0.00e+00	0	60	0	239075328	47	4358
2026-01-19 22:55:51.68	186.40	22.17	-37.4	-39.4	22.4	0.00e+00	0	60	0	242745344	46	4510
2026-01-19 22:55:54.71	184.95	22.04	-37.8	-39.8	21.9	0.00e+00	0	60	0	245891072	46	4752
2026-01-19 22:55:57.74	183.52	21.90	-37.3	-39.3	22.5	0.00e+00	0	60	0	249561088	46	4446
2026-01-19 22:56:00.77	182.11	21.75	-38.4	-40.6	21.2	0.00e+00	0	60	0	252706816	47	4880
2026-01-19 22:56:03.80	180.72	21.58	-38.7	-40.9	20.9	0.00e+00	0	60	0	256376832	48	4812
2026-01-19 22:56:06.83	179.34	21.39	-38.1	-40.2	21.5	0.00e+00	0	60	0	259522560	48	4412
2026-01-19 22:56:09.86	177.98	21.20	-38.5	-40.7	21.1	0.00e+00	0	60	0	263192576	48	4699
2026-01-19 22:56:12.89	176.65	20.99	-38.5	-40.7	21.1	0.00e+00	0	60	0	266338304	48	4678
2026-01-19 22:56:15.91	175.34	20.77	-38.3	-40.4	21.4	0.00e+00	0	60	0	270008320	48	4540
2026-01-19 22:56:18.94	174.05	20.54	-38.5	-40.7	21.2	0.00e+00	0	60	0	273154048	48	4666
2026-01-19 22:56:21.98	172.78	20.30	-38.3	-40.5	21.4	0.00e+00	0	60	0	276824064	48	4552
2026-01-19 22:56:25.01	171.54	20.05	-38.3	-40.5	21.4	0.00e+00	0	60	0	279969792	48	4566
2026-01-19 22:56:28.03	170.32	19.80	-38.8	-41.1	20.7	0.00e+00	0	61	0	283639808	48	4900
2026-01-19 22:56:31.06	169.13	19.53	-39.0	-41.3	20.6	0.00e+00	0	60	0	286785536	48	5022
2026-01-19 22:56:34.09	167.96	19.26	-38.4	-40.6	21.4	0.00e+00	0	60	0	290455552	48	4616
2026-01-19 22:56:37.12	166.82	18.99	-38.8	-41.1	20.9	0.00e+00	0	60	0	293601280	48	4882
2026-01-19 22:56:40.15	165.70	18.70	-39.2	-41.6	20.3	0.00e+00	0	60	0	297271296	49	4903
2026-01-19 22:56:43.18	164.61	18.42	-38.8	-41.1	20.8	0.00e+00	0	60	0	300417024	49	4631
2026-01-19 22:56:46.21	163.54	18.13	-38.6	-40.7	21.2	0.00e+00	0	60	0	304087040	49	4440
2026-01-19 22:56:49.23	162.50	17.83	-38.9	-41.3	20.7	0.00e+00	0	60	0	307232768	49	4713
2026-01-19 22:56:52.26	161.48	17.54	-38.9	-41.3	20.7	0.00e+00	0	61	0	310902784	49	4708
2026-01-19 22:56:55.29	160.49	17.24	-38.9	-41.2	20.7	0.00e+00	0	61	0	314048512	49	4687
2026-01-19 22:56:58.32	159.52	16.93	-39.1	-41.4	20.6	0.00e+00	0	61	0	317718528	49	4810
2026-01-19 22:57:01.35	158.58	16.63	-39.0	-41.4	20.6	0.00e+00	0	60	0	320864256	49	4800
2026-01-19 22:57:04.37	157.66	16.33	-39.4	-41.9	20.1	0.00e+00	0	61	0	324534272	49	5078
2026-01-19 22:57:07.40	156.76	16.02	-39.2	-41.7	20.3	0.00e+00	0	61	0	327680000	49	4945
2026-01-19 22:57:10.43	155.89	15.72	-39.4	-41.9	20.1	0.00e+00	0	61	0	331350016	49	5055
2026-01-19 22:57:13.46	155.04	15.41	-39.5	-42.0	20.0	0.00e+00	0	60	0	334495744	49	5133
2026-01-19 22:57:16.49	154.21	15.11	-39.7	-42.4	19.6	0.00e+00	0	61	0	338165760	50	5062
2026-01-19 22:57:19.52	153.40	14.81	-39.8	-42.4	19.5	0.00e+00	0	61	0	341311488	50	5097
2026-01-19 22:57:22.55	152.61	14.50	-39.8	-42.5	19.4	0.00e+00	0	60	0	344981504	50	5138
2026-01-19 22:57:25.58	151.84	14.20	-39.9	-42.7	19.2	0.00e+00	0	61	0	348127232	50	5223
2026-01-19 22:57:28.61	151.09	13.90	-39.9	-42.7	19.2	0.00e+00	0	61	0	351797248	50	5222
2026-01-19 22:57:31.64	150.36	13.60	-40.1	-43.0	18.8	0.00e+00	0	61	0	354942976	50	5444
2026-01-19 22:57:34.67	149.65	13.31	-40.0	-42.8	18.9	0.00e+00	0	61	0	358612992	50	5328
2026-01-19 22:57:37.70	148.96	13.01	-39.9	-42.8	19.0	0.00e+00	0	61	0	361758720	50	5323
2026-01-19 22:57:40.73	148.29	12.72	-40.1	-43.1	18.6	0.00e+00	0	61	0	365428736	50	5515
2026-01-19 22:57:43.75	147.63	12.43	-40.3	-43.4	18.2	0.00e+00	0	61	0	368574464	51	5382
2026-01-19 22:57:46.78	146.99	12.14	-40.4	-43.6	18.0	0.00e+00	0	61	0	372244480	51	5508
2026-01-19 22:57:49.81	146.37	11.85	-40.5	-43.7	18.0	0.00e+00	0	61	0	375390208	51	5549
2026-01-19 22:57:52.84	145.76	11.57	-40.4	-43.6	18.0	0.00e+00	0	61	0	379060224	51	5497
2026-01-19 22:57:55.86	145.17	11.29	-40.5	-43.8	17.8	0.00e+00	0	61	0	382205952	51	5597
2026-01-19 22:57:58.89	144.59	11.01	-40.6	-44.0	17.5	0.00e+00	0	61	0	385875968	51	5724
2026-01-19 22:58:01.92	144.03	10.74	-40.4	-43.8	17.6	0.00e+00	0	61	0	389021696	51	5599
2026-01-19 22:58:04.95	143.48	10.46	-40.6	-44.0	17.3	0.00e+00	0	61	0	392691712	51	5780
2026-01-19 22:58:07.98	142.94	10.19	-40.7	-44.4	16.9	0.00e+00	0	61	0	395837440	51	6005
2026-01-19 22:58:11.01	142.42	9.92	-40.6	-44.3	16.7	0.00e+00	0	61	0	399507456	52	5652
2026-01-19 22:58:14.03	141.92	9.66	-40.8	-44.7	16.3	0.00e+00	0	61	0	402653184	52	5872
2026-01-19 22:58:17.06	141.42	9.39	-40.7	-44.6	16.3	0.00e+00	0	61	0	406323200	52	5853
2026-01-19 22:58:20.09	140.93	9.13	-40.6	-44.7	16.0	0.00e+00	0	61	0	409468928	52	5881
2026-01-19 22:58:23.12	140.46	8.87	-40.8	-45.1	15.5	0.00e+00	0	61	0	413138944	52	6186
2026-01-19 22:58:26.15	140.00	8.62	-40.5	-44.8	15.6	0.00e+00	0	61	0	416284672	52	5963
2026-01-19 22:58:29.18	139.55	8.37	-40.4	-44.6	15.7	4.50e-06	0	61	0	419954688	51	6189
2026-01-19 22:58:32.20	139.11	8.12	-42.3	-52.5	7.0	2.34e-03	0	61	0	423100416	55	12136
2026-01-19 22:58:35.23	138.68	7.87	-44.0	-62.7	3.8	7.42e-01	0	61	104	424148992	59	31176
2026-01-19 22:58:38.26	138.26	7.62	-45.4	-63.7	3.8	8.46e-01	0	61	104	424148992	61	31371
2026-01-19 22:58:41.29	137.85	7.38	-45.7	-63.9	3.8	8.45e-01	0	61	104	424148992	61	32093
2026-01-19 22:58:44.33	137.45	7.14	-45.7	-63.8	3.8	8.46e-01	0	61	104	424148992	62	30030
2026-01-19 22:58:47.36	137.06	6.90	-45.5	-63.6	3.8	8.47e-01	0	61	104	424148992	62	29205
2026-01-19 22:58:50.39	136.67	6.66	-45.4	-63.5	3.8	8.47e-01	0	61	104	424148992	62	28794
2026-01-19 22:58:53.42	136.30	6.43	-45.4	-63.5	3.8	8.47e-01	0	61	104	424148992	62	28768
2026-01-19 22:58:56.45	135.93	6.20	-45.4	-63.5	3.8	8.45e-01	0	61	104	424148992	62	28697
2026-01-19 22:58:59.48	135.58	5.97	-45.3	-63.4	3.8	8.47e-01	0	61	104	424148992	62	28679
2026-01-19 22:59:02.51	135.23	5.74	-45.3	-63.4	3.8	8.46e-01	0	61	104	424148992	62	28669
2026-01-19 22:59:05.54	134.89	5.52	-45.3	-63.4	3.8	8.46e-01	0	61	104	424148992	62	28599
2026-01-19 22:59:08.57	134.55	5.30	-45.3	-63.4	3.8	8.46e-01	0	61	104	424148992	62	28576
2026-01-19 22:59:11.60	134.22	5.08	-45.3	-63.4	3.8	8.45e-01	0	61	104	424148992	62	28587
2026-01-19 22:59:14.63	133.90	4.86	-45.3	-63.4	3.8	8.46e-01	0	61	104	424148992	62	28498
2026-01-19 22:59:17.67	133.59	4.64	-45.3	-63.4	3.8	8.47e-01	0	61	104	424148992	62	28569
2026-01-19 22:59:20.70	133.28	4.43	-45.3	-63.4	3.8	8.46e-01	0	61	104	424148992	62	28448
2026-01-19 22:59:23.73	132.98	4.22	-45.3	-63.4	3.8	8.48e-01	0	61	104	424148992	62	28511
2026-01-19 22:59:26.76	132.69	4.01	-45.3	-63.4	3.8	8.46e-01	0	61	104	424148992	62	28597
2026-01-19 22:59:29.79	132.40	3.80	-45.3	-63.4	3.8	8.46e-01	0	61	104	424148992	62	28529
2026-01-19 22:59:32.82	132.12	3.59	-45.3	-63.4	3.8	8.46e-01	0	61	104	424148992	62	28556
2026-01-19 22:59:35.86	131.84	3.39	-45.3	-63.4	3.8	8.45e-01	0	61	104	424148992	62	28484
2026-01-19 22:59:38.89	131.57	3.19	-45.3	-63.4	3.8	8.45e-01	0	61	104	424148992	62	28565
2026-01-19 22:59:41.92	131.30	2.99	-45.3	-63.4	3.8	8.47e-01	0	61	104	424148992	62	28525
2026-01-19 22:59:44.95	131.04	2.79	-45.3	-63.4	3.8	8.46e-01	0	61	104	424148992	62	28437
2026-01-19 22:59:47.98	130.79	2.59	-45.3	-63.4	3.8	8.46e-01	0	61	104	424148992	62	28357
2026-01-19 22:59:51.01	130.54	2.39	-45.3	-63.4	3.8	8.46e-01	0	61	104	424148992	62	28456
2026-01-19 22:59:54.04	130.29	2.20	-45.3	-63.4	3.8	8.47e-01	0	61	104	424148992	62	28463
2026-01-19 22:59:57.07	130.05	2.01	-45.3	-63.4	3.8	8.46e-01	0	61	104	424148992	62	28448

#Closed at: 2026-01-19 22:59:59
#Recorded file [424 MB]: D:/lorett/data/31039_260120_015106.dat