passes_logs/2026/01/19/R2.0S_Moscow/R2.0S_Moscow__20260119_081141_SUOMI_NPP_rec.log

#Pass ID: 20260119_081141_SUOMI NPP
#Satellite: SUOMI NPP
#Configuration: NPP
#almurnet v.1.7.20251203
#Start time: 2026-01-19 08:11:42

#Version: 2.2.20231116
#Station: R2.0S_Moscow
#Location: 37.707566 lon 55.798166 lat
#TLE: 1 37849U 11061A   26017.92342359  .00000077  00000+0  57567-4 0  9990
#TLE: 2 37849  98.7814 319.9468 0002389  58.5705 301.5704 14.19525998737125

#Time	Az	El	Level	Level2	SNR	BER	BlckErr	Temp	State	Recorded	gain1	gain2
2026-01-19 08:11:42.44	107.52	2.07	-22.8	-41.3	3.8	1.50e+00	0	52	0	0	13	37413
2026-01-19 08:11:45.46	107.30	2.24	-28.3	-45.9	4.2	1.50e+00	0	53	104	0	35	17961
2026-01-19 08:11:48.49	107.08	2.41	-29.4	-47.1	3.9	1.51e+00	0	53	104	0	26	34667
2026-01-19 08:11:51.52	106.86	2.57	-26.8	-48.2	4.2	1.50e+00	0	53	104	0	37	21001
2026-01-19 08:11:54.55	106.63	2.74	-25.7	-46.8	3.9	1.50e+00	0	53	104	0	33	22385
2026-01-19 08:11:57.58	106.40	2.91	-32.3	-45.8	3.8	1.50e+00	0	53	104	0	25	31608
2026-01-19 08:12:00.61	106.17	3.08	-18.8	-39.2	4.2	1.50e+00	0	54	104	0	14	27984
2026-01-19 08:12:03.64	105.93	3.25	-20.3	-43.8	3.7	1.50e+00	0	54	104	0	13	50113
2026-01-19 08:12:06.67	105.69	3.42	-18.7	-38.4	3.8	1.50e+00	0	54	104	0	5	42696
2026-01-19 08:12:09.71	105.45	3.60	-18.8	-38.9	3.6	1.50e+00	0	54	104	0	19	20225
2026-01-19 08:12:12.74	105.21	3.77	-27.0	-47.0	4.3	1.50e+00	0	54	104	0	32	24176
2026-01-19 08:12:15.77	104.96	3.94	-30.6	-45.9	4.3	1.50e+00	0	54	104	0	30	23981
2026-01-19 08:12:18.80	104.71	4.11	-32.2	-47.5	3.9	1.50e+00	0	55	104	0	31	27237
2026-01-19 08:12:21.83	104.46	4.29	-28.2	-42.1	4.3	1.50e+00	0	54	104	0	26	19602
2026-01-19 08:12:24.86	104.20	4.46	-24.8	-41.1	3.7	1.50e+00	0	55	104	0	28	15495
2026-01-19 08:12:27.89	103.94	4.64	-26.2	-45.2	4.2	1.50e+00	0	55	104	0	32	19811
2026-01-19 08:12:30.92	103.68	4.81	-31.9	-45.6	3.7	1.50e+00	0	55	104	0	21	38961
2026-01-19 08:12:33.95	103.41	4.99	-27.7	-40.8	3.8	1.50e+00	0	55	104	0	25	17711
2026-01-19 08:12:36.99	103.14	5.17	-26.2	-43.5	3.9	1.51e+00	0	55	104	0	23	27229
2026-01-19 08:12:40.02	102.87	5.34	-23.1	-42.3	3.8	1.50e+00	0	55	104	0	20	28043
2026-01-19 08:12:43.05	102.59	5.52	-19.9	-40.1	3.7	1.50e+00	0	56	104	0	17	26120
2026-01-19 08:12:46.08	102.31	5.70	-30.5	-42.7	3.9	1.50e+00	0	56	0	0	27	19709
2026-01-19 08:12:49.11	102.03	5.88	-29.7	-44.6	3.7	1.50e+00	0	56	104	0	22	32611
2026-01-19 08:12:52.14	101.74	6.06	-23.6	-43.0	4.1	1.50e+00	0	56	104	0	23	25787
2026-01-19 08:12:55.17	101.45	6.24	-22.0	-41.8	3.9	1.50e+00	0	56	104	0	21	25091
2026-01-19 08:12:58.21	101.16	6.42	-24.3	-46.2	3.9	1.50e+00	0	56	104	0	31	23557
2026-01-19 08:13:01.24	100.86	6.60	-24.3	-42.3	3.9	1.51e+00	0	57	104	0	18	31482
2026-01-19 08:13:04.27	100.56	6.79	-21.7	-38.6	4.0	1.50e+00	0	57	104	0	10	32859
2026-01-19 08:13:07.30	100.25	6.97	-17.4	-40.3	3.9	1.50e+00	0	57	104	0	13	33477
2026-01-19 08:13:10.33	99.94	7.15	-20.5	-39.5	4.1	1.50e+00	0	57	104	0	15	27211
2026-01-19 08:13:13.36	99.63	7.34	-19.5	-38.9	3.9	1.50e+00	0	57	104	0	10	33873
2026-01-19 08:13:16.39	99.31	7.52	-20.7	-39.0	3.6	1.50e+00	0	57	104	0	12	30728
2026-01-19 08:13:19.42	98.99	7.70	-19.8	-37.4	3.5	1.50e+00	0	57	104	0	13	24084
2026-01-19 08:13:22.45	98.66	7.89	-23.5	-40.8	3.9	1.50e+00	0	57	104	0	17	28044
2026-01-19 08:13:25.48	98.33	8.08	-22.1	-40.4	3.7	1.50e+00	0	57	104	0	20	22719
2026-01-19 08:13:28.51	98.00	8.26	-23.9	-44.4	3.7	1.50e+00	0	58	104	0	20	35974
2026-01-19 08:13:31.54	97.66	8.45	-23.8	-42.2	3.9	1.50e+00	0	58	104	0	20	27973
2026-01-19 08:13:34.57	97.32	8.63	-28.1	-44.4	4.0	1.50e+00	0	58	104	0	26	25458
2026-01-19 08:13:37.60	96.97	8.82	-25.4	-43.0	4.1	1.50e+00	0	58	104	0	21	28943
2026-01-19 08:13:40.62	96.62	9.01	-24.3	-44.2	4.1	1.50e+00	0	58	104	0	23	29583
2026-01-19 08:13:43.65	96.26	9.20	-29.7	-47.1	3.7	1.50e+00	0	58	104	0	30	27499
2026-01-19 08:13:46.68	95.90	9.39	-34.6	-50.3	4.0	1.50e+00	0	58	104	0	35	29784
2026-01-19 08:13:49.71	95.53	9.57	-35.6	-52.0	3.9	1.50e+00	0	58	104	0	43	22844
2026-01-19 08:13:52.74	95.16	9.76	-39.0	-54.6	3.9	1.49e+00	0	58	104	0	46	26094
2026-01-19 08:13:55.77	94.78	9.95	-39.2	-54.3	4.0	1.49e+00	0	58	104	0	47	23681
2026-01-19 08:13:58.79	94.40	10.14	-39.2	-55.0	3.8	1.49e+00	0	58	104	0	49	23012
2026-01-19 08:14:01.82	94.02	10.33	-40.1	-53.8	3.9	1.48e+00	0	58	104	0	51	17806
2026-01-19 08:14:04.85	93.63	10.52	-40.6	-50.2	5.1	9.15e-01	0	58	0	2097152	51	11786
2026-01-19 08:14:07.88	93.23	10.71	-40.4	-51.2	4.7	1.05e+00	0	59	0	7340032	53	11797
2026-01-19 08:14:10.91	92.83	10.90	-42.3	-52.4	4.7	4.27e-01	0	59	0	11534336	55	12024
2026-01-19 08:14:13.94	92.42	11.09	-41.2	-50.2	5.5	8.48e-01	0	59	0	14680064	53	10497
2026-01-19 08:14:16.97	92.01	11.28	-41.1	-50.1	5.7	4.48e-01	0	59	0	19922944	53	10315
2026-01-19 08:14:20.00	91.59	11.47	-41.7	-49.9	6.0	2.50e-01	0	59	0	26214400	53	10107
2026-01-19 08:14:23.03	91.16	11.66	-42.5	-55.7	3.8	1.09e+00	0	59	104	30408704	55	17583
2026-01-19 08:14:26.05	90.74	11.85	-40.8	-50.4	5.3	3.97e-01	0	59	0	34603008	52	11338
2026-01-19 08:14:29.08	90.30	12.04	-40.6	-54.3	3.8	1.49e+00	0	59	104	36700160	52	17871
2026-01-19 08:14:32.11	89.86	12.23	-41.4	-56.2	3.8	1.49e+00	0	59	104	36700160	53	20956
2026-01-19 08:14:35.14	89.41	12.42	-40.7	-55.7	3.8	1.49e+00	0	59	104	36700160	52	20855
2026-01-19 08:14:38.17	88.96	12.61	-41.1	-55.5	3.8	1.49e+00	0	59	104	36700160	51	21588
2026-01-19 08:14:41.20	88.50	12.80	-42.0	-56.4	3.8	1.49e+00	0	59	104	36700160	54	20134
2026-01-19 08:14:44.23	88.04	12.99	-41.0	-55.7	3.8	1.49e+00	0	59	104	36700160	52	20965
2026-01-19 08:14:47.26	87.57	13.18	-40.8	-55.7	3.8	1.49e+00	0	59	104	36700160	52	20779
2026-01-19 08:14:50.29	87.09	13.37	-40.9	-55.6	3.8	1.49e+00	0	59	104	36700160	53	19550
2026-01-19 08:14:53.31	86.61	13.56	-40.8	-55.6	3.8	1.49e+00	0	59	104	36700160	52	20764
2026-01-19 08:14:56.34	86.12	13.74	-40.8	-55.6	3.8	1.49e+00	0	59	104	36700160	52	20619
2026-01-19 08:14:59.37	85.63	13.93	-41.6	-55.2	3.8	1.49e+00	0	59	104	36700160	54	17595
2026-01-19 08:15:02.40	85.12	14.11	-41.3	-53.0	4.1	1.48e+00	0	60	104	36700160	54	13648
2026-01-19 08:15:05.42	84.62	14.30	-41.1	-51.5	4.6	9.90e-01	0	60	0	38797312	54	11429
2026-01-19 08:15:08.45	84.10	14.48	-40.9	-49.0	4.6	1.46e+00	0	60	104	42991616	53	9110
2026-01-19 08:15:11.48	83.58	14.66	-41.1	-52.2	4.0	1.49e+00	0	59	104	45088768	53	13185
2026-01-19 08:15:14.51	83.06	14.85	-41.0	-49.4	5.8	4.05e-01	0	60	0	49283072	53	9519
2026-01-19 08:15:17.54	82.52	15.03	-41.3	-49.7	5.9	2.87e-01	0	59	0	55574528	53	9841
2026-01-19 08:15:20.56	81.98	15.21	-41.7	-51.2	4.9	1.30e+00	0	60	104	59768832	53	11785
2026-01-19 08:15:23.59	81.44	15.38	-41.2	-48.6	6.8	1.81e-01	0	60	0	60817408	54	8228
2026-01-19 08:15:26.63	80.88	15.56	-41.3	-49.0	6.5	2.29e-01	0	60	0	66060288	54	8586
2026-01-19 08:15:29.66	80.32	15.74	-41.7	-53.4	4.1	1.48e+00	0	60	104	70254592	54	14360
2026-01-19 08:15:32.69	79.76	15.91	-41.5	-49.8	6.1	1.46e+00	0	60	104	72351744	54	9393
2026-01-19 08:15:35.71	79.18	16.08	-41.4	-48.6	7.0	1.62e-01	0	60	0	76546048	54	8233
2026-01-19 08:15:38.74	78.61	16.25	-41.2	-48.7	6.7	1.83e-01	0	60	0	82837504	54	8352
2026-01-19 08:15:41.77	78.02	16.42	-41.6	-50.2	5.8	3.71e-01	0	60	0	88080384	54	9888
2026-01-19 08:15:44.80	77.43	16.59	-41.0	-48.7	6.4	1.32e+00	0	60	104	90177536	54	8334
2026-01-19 08:15:47.83	76.83	16.75	-41.0	-48.9	6.4	2.38e-01	0	60	0	95420416	53	8970
2026-01-19 08:15:50.85	76.22	16.92	-41.6	-53.3	4.1	5.36e-01	0	60	0	100663296	53	15026
2026-01-19 08:15:53.88	75.61	17.08	-42.0	-54.4	3.8	8.35e-01	0	60	104	103809024	54	16039
2026-01-19 08:15:56.91	74.99	17.23	-41.0	-49.0	6.3	2.68e-01	0	60	0	105906176	53	9094
2026-01-19 08:15:59.94	74.36	17.39	-41.0	-49.0	6.2	2.92e-01	0	60	0	111149056	53	9145
2026-01-19 08:16:02.97	73.73	17.54	-41.5	-51.6	4.6	8.39e-01	0	60	0	117440512	53	12360
2026-01-19 08:16:06.00	73.09	17.69	-41.7	-55.7	3.8	2.92e-01	0	61	104	119537664	53	19730
2026-01-19 08:16:09.03	72.45	17.84	-40.9	-47.8	7.5	1.10e-01	0	60	0	122683392	53	7930
2026-01-19 08:16:12.06	71.80	17.99	-41.1	-48.1	7.4	1.01e-01	0	60	0	128974848	53	8207
2026-01-19 08:16:15.08	71.14	18.13	-41.2	-47.8	7.8	8.61e-02	0	60	0	134217728	53	7989
2026-01-19 08:16:18.11	70.48	18.27	-41.3	-47.5	8.5	5.25e-02	0	60	0	140509184	53	7718
2026-01-19 08:16:21.14	69.81	18.40	-41.3	-46.7	9.7	1.34e-02	0	60	0	145752064	53	7009
2026-01-19 08:16:24.17	69.13	18.53	-41.2	-45.8	10.9	2.58e-03	0	60	0	152043520	53	6322
2026-01-19 08:16:27.20	68.45	18.66	-40.8	-44.7	12.4	2.22e-04	0	60	0	157286400	53	5571
2026-01-19 08:16:30.23	67.76	18.79	-40.9	-44.6	12.7	9.61e-05	0	60	0	162529280	53	5505
2026-01-19 08:16:33.25	67.07	18.91	-41.0	-44.6	12.8	5.03e-05	0	60	0	168820736	53	5512
2026-01-19 08:16:36.28	66.37	19.02	-41.0	-44.6	12.9	4.27e-05	0	60	0	174063616	53	5515
2026-01-19 08:16:39.31	65.67	19.14	-41.1	-44.7	13.0	4.50e-05	0	61	0	180355072	53	5533
2026-01-19 08:16:42.34	64.96	19.25	-41.5	-45.4	12.4	1.14e-04	0	60	0	185597952	53	5997
2026-01-19 08:16:45.36	64.25	19.35	-41.4	-45.3	12.5	1.70e-04	0	61	0	190840832	53	5938
2026-01-19 08:16:48.39	63.53	19.45	-41.6	-45.5	12.2	2.10e-04	0	60	0	197132288	53	6130
2026-01-19 08:16:51.42	62.81	19.55	-41.9	-46.2	11.6	5.36e-04	0	60	0	202375168	54	6244
2026-01-19 08:16:54.45	62.08	19.64	-41.9	-46.3	11.6	1.00e-03	0	61	0	208666624	54	6277
2026-01-19 08:16:57.48	61.35	19.73	-41.9	-46.1	11.8	5.63e-04	0	60	0	213909504	54	6147
2026-01-19 08:17:00.51	60.61	19.81	-41.6	-45.5	12.4	1.45e-04	0	61	0	220200960	54	5766
2026-01-19 08:17:03.54	59.87	19.89	-42.1	-46.7	11.0	1.20e-03	0	60	0	225443840	54	6644
2026-01-19 08:17:06.57	59.13	19.96	-42.2	-46.9	10.9	2.49e-03	0	61	0	230686720	55	6352
2026-01-19 08:17:09.60	58.38	20.03	-42.0	-46.4	11.4	9.97e-04	0	61	0	236978176	55	6009
2026-01-19 08:17:12.63	57.63	20.10	-42.4	-47.4	10.5	4.70e-03	0	61	0	242221056	55	6728
2026-01-19 08:17:15.65	56.88	20.16	-42.2	-46.9	10.9	1.94e-03	0	60	0	248512512	55	6404
2026-01-19 08:17:18.69	56.12	20.21	-41.9	-46.3	11.6	6.76e-04	0	60	0	253755392	55	5956
2026-01-19 08:17:21.71	55.37	20.26	-42.0	-46.6	11.3	9.74e-04	0	61	0	258998272	55	6146
2026-01-19 08:17:24.74	54.61	20.30	-42.2	-47.1	10.8	2.18e-03	0	61	0	265289728	55	6530
2026-01-19 08:17:27.77	53.84	20.34	-42.1	-46.8	11.0	1.71e-03	0	61	0	270532608	55	6318
2026-01-19 08:17:30.80	53.08	20.37	-41.9	-46.4	11.4	8.95e-04	0	61	0	276824064	55	6060
2026-01-19 08:17:33.83	52.31	20.40	-41.9	-46.3	11.6	7.64e-04	0	61	0	282066944	55	5935
2026-01-19 08:17:36.86	51.55	20.42	-41.8	-45.9	11.9	3.54e-04	0	61	0	288358400	55	5698
2026-01-19 08:17:39.89	50.78	20.44	-41.8	-45.9	12.0	2.24e-04	0	61	0	293601280	55	5681
2026-01-19 08:17:42.91	50.01	20.45	-41.7	-45.7	12.2	1.89e-04	0	61	0	298844160	55	5561
2026-01-19 08:17:45.94	49.24	20.46	-41.9	-46.3	11.6	4.74e-04	0	61	0	305135616	55	5947
2026-01-19 08:17:48.97	48.47	20.46	-42.2	-46.8	11.0	1.83e-03	0	61	0	310378496	55	6327
2026-01-19 08:17:52.00	47.71	20.45	-42.2	-47.0	10.9	2.45e-03	0	61	0	316669952	55	6459
2026-01-19 08:17:55.03	46.94	20.44	-41.8	-46.0	11.9	6.68e-04	0	61	0	321912832	55	5749
2026-01-19 08:17:58.05	46.17	20.43	-41.2	-44.7	13.2	2.89e-05	0	61	0	327155712	54	5277
2026-01-19 08:18:01.08	45.40	20.40	-41.2	-44.7	13.3	1.44e-05	0	61	0	333447168	54	5262
2026-01-19 08:18:04.11	44.64	20.38	-41.2	-44.7	13.3	1.29e-05	0	61	0	338690048	54	5221
2026-01-19 08:18:07.14	43.87	20.35	-41.2	-44.6	13.4	6.10e-06	0	61	0	344981504	54	5208
2026-01-19 08:18:10.17	43.11	20.31	-41.3	-44.9	13.1	2.51e-05	0	61	0	350224384	54	5360
2026-01-19 08:18:13.19	42.35	20.27	-41.2	-44.6	13.4	1.75e-05	0	61	0	356515840	54	5197
2026-01-19 08:18:16.22	41.60	20.22	-41.1	-44.4	13.6	1.22e-05	0	61	0	361758720	54	5095
2026-01-19 08:18:19.25	40.84	20.17	-41.2	-44.6	13.5	9.90e-06	0	61	0	367001600	54	5165
2026-01-19 08:18:22.28	40.09	20.11	-41.4	-44.9	13.1	2.82e-05	0	61	0	373293056	54	5381
2026-01-19 08:18:25.31	39.34	20.05	-41.3	-44.8	13.2	2.74e-05	0	61	0	378535936	54	5309
2026-01-19 08:18:28.33	38.59	19.98	-41.3	-44.9	13.1	4.19e-05	0	61	0	384827392	54	5366
2026-01-19 08:18:31.36	37.85	19.91	-41.5	-45.1	12.9	4.95e-05	0	61	0	390070272	54	5508
2026-01-19 08:18:34.39	37.11	19.83	-42.2	-46.7	11.2	4.67e-04	0	61	0	395313152	54	6639
2026-01-19 08:18:37.42	36.38	19.75	-42.3	-47.0	10.9	3.05e-03	0	61	0	401604608	55	6448
2026-01-19 08:18:40.44	35.65	19.66	-42.3	-46.9	11.1	1.47e-03	0	61	0	406847488	55	6351
2026-01-19 08:18:43.47	34.92	19.57	-42.3	-47.0	11.0	1.60e-03	0	61	0	413138944	55	6476
2026-01-19 08:18:46.50	34.20	19.47	-42.2	-46.7	11.2	1.37e-03	0	61	0	418381824	55	6263
2026-01-19 08:18:49.53	33.48	19.37	-42.4	-47.2	10.8	2.79e-03	0	61	0	423624704	55	6598
2026-01-19 08:18:52.55	32.77	19.27	-42.3	-47.0	10.9	2.39e-03	0	61	0	429916160	55	6462
2026-01-19 08:18:55.58	32.06	19.16	-42.1	-46.4	11.6	4.39e-04	0	61	0	435159040	55	6006
2026-01-19 08:18:58.61	31.36	19.05	-42.0	-46.3	11.6	5.69e-04	0	61	0	441450496	55	5989
2026-01-19 08:19:01.61	30.67	18.93	-42.2	-46.6	11.4	9.18e-04	0	61	0	446693376	55	6166
2026-01-19 08:19:04.64	29.98	18.81	-41.9	-46.0	12.0	4.55e-04	0	61	0	452984832	55	5743
2026-01-19 08:19:07.67	29.29	18.69	-41.6	-45.4	12.6	8.46e-05	0	61	0	458227712	54	5708
2026-01-19 08:19:10.70	28.61	18.56	-41.5	-45.2	12.8	5.18e-05	0	61	0	463470592	54	5554
2026-01-19 08:19:13.73	27.94	18.43	-41.5	-45.3	12.6	1.20e-04	0	61	0	469762048	54	5648
2026-01-19 08:19:16.75	27.27	18.30	-42.0	-46.2	11.7	3.76e-04	0	61	0	475004928	54	6273
2026-01-19 08:19:19.78	26.61	18.16	-42.5	-47.5	10.3	6.90e-03	0	61	0	481296384	55	6865
2026-01-19 08:19:22.81	25.95	18.02	-42.6	-47.8	10.0	7.57e-03	0	61	0	486539264	55	7042
2026-01-19 08:19:25.83	25.30	17.88	-42.8	-48.2	9.7	1.25e-02	0	61	0	491782144	56	7034
2026-01-19 08:19:28.86	24.66	17.73	-43.0	-48.9	9.0	2.68e-02	0	61	0	498073600	56	7589
2026-01-19 08:19:31.89	24.02	17.58	-42.8	-48.2	9.7	1.40e-02	0	61	0	503316480	56	7031
2026-01-19 08:19:34.92	23.39	17.43	-42.1	-46.4	11.6	9.29e-04	0	61	0	509607936	56	5696
2026-01-19 08:19:37.95	22.77	17.27	-41.6	-45.6	12.3	1.67e-04	0	61	0	514850816	55	5487
2026-01-19 08:19:40.97	22.15	17.12	-41.6	-45.6	12.3	2.18e-04	0	61	0	520093696	55	5480
2026-01-19 08:19:44.00	21.54	16.96	-42.1	-46.7	11.1	1.05e-03	0	61	0	526385152	55	6213
2026-01-19 08:19:47.03	20.93	16.80	-42.1	-46.7	11.0	1.96e-03	0	61	0	531628032	55	6273
2026-01-19 08:19:50.05	20.34	16.63	-41.6	-45.6	12.2	4.39e-04	0	61	0	537919488	55	5514
2026-01-19 08:19:53.08	19.75	16.47	-41.9	-46.4	11.4	7.06e-04	0	61	0	543162368	54	6382
2026-01-19 08:19:56.11	19.16	16.30	-42.5	-48.0	9.7	8.76e-03	0	61	0	549453824	55	7218
2026-01-19 08:19:59.13	18.58	16.13	-42.6	-48.3	9.4	1.72e-02	0	61	0	554696704	55	7479
2026-01-19 08:20:02.16	18.01	15.96	-42.4	-47.7	10.0	8.24e-03	0	61	0	559939584	55	6972
2026-01-19 08:20:05.19	17.45	15.79	-42.1	-46.8	10.8	2.82e-03	0	61	0	566231040	55	6339
2026-01-19 08:20:08.21	16.89	15.61	-42.1	-46.8	10.9	2.11e-03	0	61	0	571473920	55	6296
2026-01-19 08:20:11.25	16.34	15.44	-42.0	-46.7	11.0	1.87e-03	0	61	0	577765376	55	6223
2026-01-19 08:20:14.27	15.79	15.26	-42.2	-47.1	10.5	4.17e-03	0	61	0	583008256	55	6556
2026-01-19 08:20:17.30	15.25	15.08	-42.4	-47.7	9.8	1.07e-02	0	61	0	588251136	55	7031
2026-01-19 08:20:20.33	14.72	14.90	-42.1	-47.0	10.6	5.62e-03	0	61	0	594542592	55	6437
2026-01-19 08:20:23.36	14.20	14.72	-41.9	-46.7	10.9	1.88e-03	0	61	0	599785472	55	6209
2026-01-19 08:20:26.39	13.68	14.54	-42.0	-46.9	10.6	3.38e-03	0	61	0	606076928	55	6369
2026-01-19 08:20:29.41	13.17	14.36	-42.1	-47.3	10.1	7.55e-03	0	61	0	611319808	55	6689
2026-01-19 08:20:32.44	12.66	14.17	-42.0	-47.2	10.2	6.64e-03	0	61	0	616562688	55	6575
2026-01-19 08:20:35.47	12.16	13.99	-41.7	-46.3	11.0	2.47e-03	0	61	0	622854144	55	5964
2026-01-19 08:20:38.49	11.67	13.80	-41.6	-46.1	11.1	1.48e-03	0	61	0	628097024	55	5822
2026-01-19 08:20:41.52	11.18	13.62	-41.4	-45.7	11.4	1.06e-03	0	61	0	634388480	54	5902
2026-01-19 08:20:44.55	10.70	13.43	-41.2	-45.2	11.9	4.82e-04	0	61	0	639631360	54	5572
2026-01-19 08:20:47.57	10.23	13.24	-40.8	-44.6	12.4	1.14e-04	0	61	0	645922816	53	5487
2026-01-19 08:20:50.60	9.76	13.06	-40.9	-45.1	11.6	5.19e-04	0	62	0	651165696	53	5844
2026-01-19 08:20:53.63	9.30	12.87	-41.3	-46.1	10.4	4.00e-03	0	61	0	656408576	53	6524
2026-01-19 08:20:56.66	8.84	12.68	-41.1	-46.0	10.3	4.76e-03	0	61	0	662700032	53	6467
2026-01-19 08:20:59.68	8.39	12.49	-40.8	-45.7	10.4	4.09e-03	0	61	0	667942912	53	6213
2026-01-19 08:21:02.70	7.95	12.30	-40.3	-44.6	11.3	1.28e-03	0	61	0	674234368	52	5843
2026-01-19 08:21:05.73	7.51	12.11	-40.2	-44.7	11.0	1.29e-03	0	61	0	679477248	52	5916
2026-01-19 08:21:08.76	7.07	11.92	-41.0	-47.8	7.6	3.86e-02	0	61	0	684720128	52	8381
2026-01-19 08:21:11.79	6.65	11.74	-41.3	-50.5	5.2	4.88e-01	0	61	0	691011584	53	10791
2026-01-19 08:21:14.82	6.23	11.55	-41.8	-53.5	4.1	1.47e+00	0	61	0	693108736	54	14457
2026-01-19 08:21:17.85	5.81	11.36	-42.0	-55.8	3.8	1.49e+00	0	61	104	693108736	54	18903
2026-01-19 08:21:20.87	5.40	11.17	-41.4	-55.1	3.8	1.49e+00	0	61	104	693108736	54	17290
2026-01-19 08:21:23.90	4.99	10.98	-40.4	-55.0	3.8	1.49e+00	0	61	104	693108736	52	19184
2026-01-19 08:21:26.93	4.59	10.79	-41.0	-55.5	3.8	1.49e+00	0	61	104	693108736	52	20473
2026-01-19 08:21:29.96	4.20	10.60	-40.2	-54.9	3.8	1.49e+00	0	61	104	693108736	52	19152
2026-01-19 08:21:32.99	3.81	10.41	-40.1	-54.8	3.8	1.49e+00	0	61	104	693108736	52	18774
2026-01-19 08:21:36.01	3.43	10.22	-40.6	-55.4	3.8	1.49e+00	0	61	104	693108736	51	21286
2026-01-19 08:21:39.04	3.05	10.03	-40.0	-54.8	3.8	1.49e+00	0	61	104	693108736	51	19947
2026-01-19 08:21:42.07	2.67	9.84	-40.0	-54.7	3.8	1.49e+00	0	61	104	693108736	51	19813
2026-01-19 08:21:45.10	2.30	9.65	-40.1	-54.9	3.8	1.49e+00	0	61	104	693108736	51	20128
2026-01-19 08:21:48.12	1.94	9.47	-40.1	-54.8	3.8	1.49e+00	0	61	104	693108736	51	19987
2026-01-19 08:21:51.15	1.58	9.28	-40.1	-54.9	3.8	1.49e+00	0	61	104	693108736	51	20185
2026-01-19 08:21:54.18	1.22	9.09	-40.1	-54.9	3.8	1.49e+00	0	61	104	693108736	51	20088
2026-01-19 08:21:57.20	0.87	8.90	-39.8	-54.7	3.8	1.49e+00	0	61	104	693108736	51	19816
2026-01-19 08:22:00.23	0.53	8.72	-39.9	-54.7	3.8	1.49e+00	0	62	104	693108736	51	19684
2026-01-19 08:22:03.26	0.19	8.53	-39.8	-54.8	3.8	1.49e+00	0	61	104	693108736	51	19969
2026-01-19 08:22:06.28	359.85	8.35	-39.8	-54.7	3.8	1.49e+00	0	61	104	693108736	51	19744
2026-01-19 08:22:09.32	359.52	8.16	-39.6	-54.7	3.8	1.49e+00	0	61	104	693108736	51	19727
2026-01-19 08:22:12.34	359.19	7.98	-41.2	-55.9	3.8	1.49e+00	0	61	104	693108736	52	21395
2026-01-19 08:22:15.37	358.87	7.79	-45.2	-59.9	3.8	1.49e+00	0	61	104	693108736	60	21416
2026-01-19 08:22:18.41	358.55	7.61	-45.4	-60.1	3.8	1.49e+00	0	62	104	693108736	61	20770
2026-01-19 08:22:21.44	358.23	7.42	-45.5	-60.2	3.8	1.49e+00	0	61	104	693108736	61	20846
2026-01-19 08:22:24.47	357.92	7.24	-45.4	-60.0	3.8	1.49e+00	0	61	104	693108736	61	20366
2026-01-19 08:22:27.50	357.61	7.06	-45.3	-59.8	3.8	1.49e+00	0	61	104	693108736	61	20069
2026-01-19 08:22:30.53	357.31	6.87	-45.2	-59.6	3.8	1.49e+00	0	62	104	693108736	60	20606
2026-01-19 08:22:33.56	357.01	6.69	-45.3	-59.9	3.8	1.49e+00	0	61	104	693108736	61	20073
2026-01-19 08:22:36.59	356.71	6.51	-45.3	-59.8	3.8	1.49e+00	0	62	104	693108736	61	20018
2026-01-19 08:22:39.62	356.42	6.33	-45.3	-59.8	3.8	1.49e+00	0	61	104	693108736	61	20043
2026-01-19 08:22:42.65	356.13	6.15	-45.3	-59.8	3.8	1.49e+00	0	62	104	693108736	61	19990
2026-01-19 08:22:45.69	355.85	5.97	-45.3	-59.8	3.8	1.49e+00	0	62	104	693108736	61	19974
2026-01-19 08:22:48.72	355.57	5.79	-45.3	-59.8	3.8	1.49e+00	0	61	104	693108736	61	20029
2026-01-19 08:22:51.75	355.29	5.61	-45.3	-59.8	3.8	1.49e+00	0	61	104	693108736	61	19894
2026-01-19 08:22:54.78	355.02	5.44	-45.2	-59.8	3.8	1.49e+00	0	61	104	693108736	61	20034
2026-01-19 08:22:57.80	354.75	5.26	-45.2	-59.8	3.8	1.49e+00	0	61	104	693108736	61	19914
2026-01-19 08:23:00.83	354.48	5.08	-45.3	-59.8	3.8	1.49e+00	0	61	104	693108736	61	19998
2026-01-19 08:23:03.86	354.22	4.91	-45.2	-59.8	3.8	1.49e+00	0	61	104	693108736	61	19926
2026-01-19 08:23:06.89	353.96	4.73	-45.2	-59.8	3.8	1.49e+00	0	61	104	693108736	61	19896
2026-01-19 08:23:09.92	353.70	4.56	-45.2	-59.8	3.8	1.49e+00	0	62	104	693108736	61	19847
2026-01-19 08:23:12.96	353.45	4.38	-45.2	-59.7	3.8	1.49e+00	0	61	104	693108736	61	19722
2026-01-19 08:23:15.99	353.20	4.21	-45.1	-59.7	3.8	1.49e+00	0	61	104	693108736	61	19808
2026-01-19 08:23:19.02	352.95	4.04	-45.2	-59.7	3.8	1.49e+00	0	62	104	693108736	60	20985
2026-01-19 08:23:22.05	352.70	3.86	-45.2	-59.8	3.8	1.49e+00	0	62	104	693108736	60	21054
2026-01-19 08:23:25.08	352.46	3.69	-45.2	-59.7	3.8	1.49e+00	0	61	104	693108736	61	19766
2026-01-19 08:23:28.11	352.22	3.52	-45.2	-59.7	3.8	1.49e+00	0	62	104	693108736	61	19797
2026-01-19 08:23:31.14	351.99	3.35	-45.2	-59.8	3.8	1.49e+00	0	61	104	693108736	60	21029
2026-01-19 08:23:34.17	351.76	3.18	-45.2	-59.7	3.8	1.49e+00	0	62	104	693108736	61	19743
2026-01-19 08:23:37.20	351.53	3.01	-45.1	-59.7	3.8	1.49e+00	0	61	104	693108736	61	19803
2026-01-19 08:23:40.23	351.30	2.84	-45.2	-59.7	3.8	1.49e+00	0	61	104	693108736	61	19773
2026-01-19 08:23:43.26	351.07	2.67	-45.1	-59.7	3.8	1.49e+00	0	62	104	693108736	60	20965
2026-01-19 08:23:46.30	350.85	2.50	-45.0	-59.8	3.8	1.49e+00	0	61	104	693108736	60	21024
2026-01-19 08:23:49.33	350.63	2.34	-45.1	-59.7	3.8	1.49e+00	0	61	104	693108736	60	20934
2026-01-19 08:23:52.36	350.42	2.17	-44.9	-59.7	3.8	1.49e+00	0	62	104	693108736	60	20993
2026-01-19 08:23:55.39	350.20	2.00	-45.2	-59.7	3.8	1.49e+00	0	61	104	693108736	60	21009

#Closed at: 2026-01-19 08:23:57
#Recorded file [693 MB]: D:/lorett/data/31039_260119_111142.dat