passes_logs/2026/01/19/R2.0S_Moscow/R2.0S_Moscow__20260119_115320_NOAA_20_JPSS-1_rec.log

#Pass ID: 20260119_115320_NOAA 20 (JPSS-1)
#Satellite: NOAA 20 (JPSS-1)
#Configuration: NOAA 20
#almurnet v.1.7.20251203
#Start time: 2026-01-19 11:53:20

#Version: 2.2.20231116
#Station: R2.0S_Moscow
#Location: 37.707566 lon 55.798166 lat
#TLE: 1 43013U 17073A   26017.93796159  .00000077  00000+0  57252-4 0  9992
#TLE: 2 43013  98.7639 318.8464 0001390  34.9771 325.1496 14.19536703423157

#Time	Az	El	Level	Level2	SNR	BER	BlckErr	Temp	State	Recorded	gain1	gain2
2026-01-19 11:53:20.81	221.84	2.04	-44.1	-58.8	3.8	1.49e+00	0	54	0	0	60	18824
2026-01-19 11:53:23.83	222.11	2.19	-44.1	-58.8	3.8	1.49e+00	0	54	104	0	60	18740
2026-01-19 11:53:26.86	222.38	2.33	-44.1	-58.8	3.8	1.49e+00	0	54	104	0	60	18816
2026-01-19 11:53:29.90	222.66	2.48	-44.1	-58.8	3.8	1.49e+00	0	54	104	0	60	18798
2026-01-19 11:53:32.93	222.95	2.63	-44.1	-58.8	3.8	1.49e+00	0	55	104	0	60	18820
2026-01-19 11:53:35.96	223.23	2.78	-44.1	-58.7	3.8	1.49e+00	0	55	104	0	60	18695
2026-01-19 11:53:38.99	223.52	2.93	-44.1	-58.8	3.8	1.49e+00	0	55	104	0	60	18841
2026-01-19 11:53:42.02	223.81	3.08	-44.1	-58.8	3.8	1.49e+00	0	55	104	0	60	18782
2026-01-19 11:53:45.05	224.10	3.23	-44.1	-58.7	3.8	1.49e+00	0	56	104	0	60	18724
2026-01-19 11:53:48.08	224.40	3.38	-44.1	-58.8	3.8	1.49e+00	0	56	104	0	60	18827
2026-01-19 11:53:51.12	224.70	3.53	-44.1	-58.8	3.8	1.49e+00	0	56	104	0	60	18746
2026-01-19 11:53:54.15	225.00	3.68	-44.1	-58.7	3.8	1.49e+00	0	56	104	0	60	18713
2026-01-19 11:53:57.18	225.30	3.83	-44.1	-58.8	3.8	1.49e+00	0	56	104	0	60	18758
2026-01-19 11:54:00.21	225.61	3.98	-44.1	-58.8	3.8	1.49e+00	0	56	104	0	60	18783
2026-01-19 11:54:03.24	225.92	4.13	-44.1	-58.8	3.8	1.49e+00	0	57	104	0	60	18743
2026-01-19 11:54:06.28	226.24	4.28	-44.1	-58.7	3.8	1.49e+00	0	57	104	0	60	18710
2026-01-19 11:54:09.31	226.56	4.43	-44.1	-58.7	3.8	1.49e+00	0	57	104	0	60	18729
2026-01-19 11:54:12.34	226.88	4.59	-44.1	-58.7	3.8	1.49e+00	0	57	104	0	60	18684
2026-01-19 11:54:15.37	227.20	4.74	-44.1	-58.7	3.8	1.49e+00	0	57	104	0	60	18654
2026-01-19 11:54:18.40	227.53	4.89	-44.1	-58.7	3.8	1.49e+00	0	57	104	0	60	18698
2026-01-19 11:54:21.43	227.86	5.04	-44.1	-58.7	3.8	1.49e+00	0	57	104	0	60	18726
2026-01-19 11:54:24.46	228.19	5.19	-44.1	-58.8	3.8	1.49e+00	0	57	104	0	60	18734
2026-01-19 11:54:27.49	228.53	5.34	-44.1	-58.7	3.8	1.49e+00	0	58	104	0	60	18716
2026-01-19 11:54:30.53	228.87	5.50	-44.1	-58.7	3.8	1.49e+00	0	58	104	0	60	18650
2026-01-19 11:54:33.56	229.21	5.65	-44.1	-58.6	3.8	1.49e+00	0	58	104	0	60	18494
2026-01-19 11:54:36.59	229.56	5.80	-44.1	-58.6	3.8	1.49e+00	0	58	104	0	60	18488
2026-01-19 11:54:39.62	229.91	5.95	-44.1	-58.6	3.8	1.49e+00	0	58	104	0	60	18435
2026-01-19 11:54:42.64	230.26	6.10	-44.1	-58.5	3.8	1.49e+00	0	58	104	0	60	18205
2026-01-19 11:54:45.67	230.62	6.25	-44.1	-58.3	3.8	1.49e+00	0	58	104	0	60	17866
2026-01-19 11:54:48.70	230.98	6.41	-44.1	-58.1	3.8	1.49e+00	0	58	104	0	60	17312
2026-01-19 11:54:51.73	231.35	6.56	-44.1	-57.6	3.8	1.49e+00	0	58	104	0	60	16483
2026-01-19 11:54:54.77	231.72	6.71	-44.0	-56.9	3.8	1.49e+00	0	59	104	0	60	15207
2026-01-19 11:54:57.80	232.09	6.86	-44.0	-55.7	4.0	1.48e+00	0	59	0	0	59	13989
2026-01-19 11:55:00.83	232.46	7.01	-43.9	-54.4	4.4	1.27e+00	74	59	0	1048576	59	11979
2026-01-19 11:55:03.86	232.84	7.16	-43.8	-53.4	4.8	7.95e-01	0	59	0	6291456	59	10704
2026-01-19 11:55:06.89	233.23	7.31	-43.8	-53.4	4.8	7.76e-01	0	59	0	12582912	59	10754
2026-01-19 11:55:09.92	233.62	7.46	-43.9	-54.1	4.5	1.00e+00	6	59	0	17825792	59	11678
2026-01-19 11:55:12.95	234.01	7.62	-43.7	-52.7	5.2	6.61e-01	0	59	0	24117248	59	9858
2026-01-19 11:55:15.99	234.40	7.77	-43.1	-49.8	7.5	1.30e-01	0	59	0	29360128	58	7538
2026-01-19 11:55:19.02	234.80	7.92	-42.6	-48.1	9.3	2.13e-02	0	59	0	34603008	57	6508
2026-01-19 11:55:22.04	235.21	8.06	-42.8	-48.3	9.1	1.47e-02	0	59	0	40894464	57	6710
2026-01-19 11:55:25.07	235.61	8.21	-43.1	-49.4	8.0	5.37e-02	0	60	0	44040192	57	7548
2026-01-19 11:55:28.10	236.02	8.36	-42.5	-47.7	9.8	1.22e-02	0	59	0	49283072	57	6206
2026-01-19 11:55:31.13	236.44	8.51	-42.5	-47.6	9.8	1.06e-02	0	60	0	55574528	57	6201
2026-01-19 11:55:34.16	236.86	8.66	-42.5	-47.5	10.0	8.98e-03	0	60	0	60817408	56	6481
2026-01-19 11:55:37.19	237.28	8.81	-42.5	-47.4	10.1	7.98e-03	0	60	0	67108864	56	6397
2026-01-19 11:55:40.22	237.71	8.95	-42.4	-47.2	10.3	6.23e-03	0	60	0	72351744	56	6273
2026-01-19 11:55:43.25	238.14	9.10	-42.4	-47.2	10.4	4.23e-03	0	60	0	77594624	56	6226
2026-01-19 11:55:46.27	238.58	9.25	-42.2	-46.8	10.8	2.81e-03	0	60	0	83886080	56	5950
2026-01-19 11:55:49.31	239.02	9.39	-42.3	-46.9	10.8	2.52e-03	0	60	0	89128960	56	6007
2026-01-19 11:55:52.33	239.46	9.54	-42.2	-46.6	11.0	2.01e-03	0	60	0	95420416	56	5836
2026-01-19 11:55:55.36	239.91	9.68	-42.1	-46.4	11.2	1.48e-03	0	60	0	100663296	56	5706
2026-01-19 11:55:58.39	240.36	9.82	-42.0	-46.3	11.4	1.13e-03	0	60	0	105906176	56	5615
2026-01-19 11:56:01.42	240.82	9.97	-41.8	-46.0	11.4	9.15e-04	0	60	0	112197632	55	5774
2026-01-19 11:56:04.45	241.28	10.11	-41.9	-46.2	11.3	1.05e-03	0	60	0	117440512	55	5871
2026-01-19 11:56:07.47	241.75	10.25	-41.9	-46.2	11.4	1.13e-03	0	60	0	123731968	55	5860
2026-01-19 11:56:10.50	242.22	10.39	-42.0	-46.4	11.2	1.37e-03	0	60	0	128974848	55	6006
2026-01-19 11:56:13.53	242.69	10.53	-42.0	-46.2	11.3	1.10e-03	0	61	0	135266304	55	5908
2026-01-19 11:56:16.56	243.17	10.67	-42.0	-46.2	11.3	1.00e-03	0	60	0	140509184	55	5899
2026-01-19 11:56:19.59	243.66	10.80	-42.0	-46.2	11.4	1.08e-03	0	61	0	145752064	55	5887
2026-01-19 11:56:22.62	244.15	10.94	-42.0	-46.2	11.3	1.12e-03	0	61	0	152043520	55	5922
2026-01-19 11:56:25.65	244.64	11.07	-42.0	-46.3	11.3	1.10e-03	0	61	0	157286400	55	5948
2026-01-19 11:56:28.67	245.13	11.21	-41.9	-46.1	11.4	7.70e-04	0	61	0	163577856	55	5853
2026-01-19 11:56:31.70	245.64	11.34	-42.0	-46.3	11.2	1.08e-03	0	61	0	168820736	55	5982
2026-01-19 11:56:34.73	246.14	11.47	-42.0	-46.3	11.2	1.33e-03	0	61	0	174063616	55	5986
2026-01-19 11:56:37.76	246.65	11.60	-42.1	-46.4	11.2	1.42e-03	0	61	0	180355072	55	6032
2026-01-19 11:56:40.79	247.17	11.73	-42.1	-46.4	11.2	1.46e-03	0	61	0	185597952	55	6047
2026-01-19 11:56:43.81	247.68	11.86	-42.2	-46.7	10.9	2.07e-03	0	61	0	191889408	55	6244
2026-01-19 11:56:46.84	248.21	11.98	-42.3	-46.9	10.8	2.98e-03	0	61	0	197132288	55	6357
2026-01-19 11:56:49.87	248.73	12.11	-42.3	-46.9	10.7	3.06e-03	0	61	0	203423744	55	6406
2026-01-19 11:56:52.90	249.26	12.23	-42.3	-46.9	10.7	3.23e-03	0	61	0	208666624	55	6405
2026-01-19 11:56:55.93	249.80	12.35	-42.5	-47.3	10.2	5.53e-03	0	61	0	213909504	55	6720
2026-01-19 11:56:58.95	250.34	12.47	-42.5	-47.5	10.1	6.61e-03	0	61	0	220200960	55	6809
2026-01-19 11:57:01.98	250.88	12.59	-42.5	-47.5	10.1	7.94e-03	0	61	0	225443840	55	6827
2026-01-19 11:57:05.01	251.43	12.70	-42.5	-47.4	10.2	6.42e-03	0	61	0	231735296	55	6795
2026-01-19 11:57:08.04	251.98	12.82	-42.6	-47.7	9.8	9.39e-03	0	61	0	236978176	55	7033
2026-01-19 11:57:11.07	252.54	12.93	-42.9	-48.2	9.6	1.20e-02	0	61	0	242221056	56	6966
2026-01-19 11:57:14.10	253.10	13.04	-42.9	-48.1	9.6	1.25e-02	0	61	0	248512512	56	6936
2026-01-19 11:57:17.13	253.67	13.15	-42.9	-48.1	9.7	1.23e-02	0	61	0	253755392	56	6909
2026-01-19 11:57:20.15	254.23	13.25	-42.8	-47.9	9.9	8.67e-03	0	61	0	260046848	56	6759
2026-01-19 11:57:23.18	254.81	13.36	-42.9	-48.2	9.5	1.33e-02	0	61	0	265289728	56	7037
2026-01-19 11:57:26.21	255.38	13.46	-43.0	-48.5	9.2	1.90e-02	0	61	0	270532608	56	7278
2026-01-19 11:57:29.23	255.96	13.56	-43.0	-48.5	9.2	1.91e-02	0	61	0	276824064	56	7241
2026-01-19 11:57:32.26	256.55	13.65	-42.9	-48.1	9.6	1.44e-02	0	62	0	282066944	56	6949
2026-01-19 11:57:35.29	257.13	13.75	-42.8	-47.9	9.8	9.60e-03	0	62	0	288358400	56	6762
2026-01-19 11:57:38.32	257.73	13.84	-42.8	-47.9	9.9	9.86e-03	0	61	0	293601280	56	6780
2026-01-19 11:57:41.35	258.32	13.93	-42.9	-48.0	9.7	1.08e-02	0	61	0	299892736	56	6869
2026-01-19 11:57:44.38	258.92	14.02	-42.9	-48.2	9.6	1.30e-02	0	62	0	305135616	56	7024
2026-01-19 11:57:47.40	259.52	14.10	-42.6	-47.2	10.6	4.37e-03	0	61	0	310378496	56	6254
2026-01-19 11:57:50.43	260.12	14.18	-42.3	-46.7	11.1	1.90e-03	0	61	0	316669952	56	5876
2026-01-19 11:57:53.46	260.73	14.26	-42.4	-46.7	11.1	1.42e-03	0	61	0	321912832	56	5905
2026-01-19 11:57:56.49	261.34	14.34	-42.3	-46.7	11.1	1.88e-03	0	62	0	328204288	56	5912
2026-01-19 11:57:59.52	261.96	14.41	-42.3	-46.6	11.2	1.54e-03	0	62	0	333447168	56	5853
2026-01-19 11:58:02.55	262.57	14.48	-42.3	-46.6	11.3	1.18e-03	0	61	0	338690048	56	5796
2026-01-19 11:58:05.57	263.19	14.55	-42.2	-46.4	11.5	8.48e-04	0	62	0	344981504	56	5716
2026-01-19 11:58:08.60	263.81	14.62	-42.3	-46.6	11.3	1.19e-03	0	62	0	350224384	56	5812
2026-01-19 11:58:11.63	264.44	14.68	-42.4	-46.9	10.9	2.11e-03	0	62	0	356515840	56	6049
2026-01-19 11:58:14.65	265.06	14.74	-42.6	-47.2	10.6	3.58e-03	0	62	0	361758720	56	6268
2026-01-19 11:58:17.68	265.69	14.79	-42.6	-47.4	10.4	4.33e-03	0	62	0	368050176	56	6381
2026-01-19 11:58:20.71	266.33	14.85	-42.6	-47.4	10.4	4.41e-03	0	62	0	373293056	56	6395
2026-01-19 11:58:23.73	266.96	14.90	-42.6	-47.5	10.4	4.49e-03	0	62	0	378535936	56	6423
2026-01-19 11:58:26.76	267.59	14.94	-42.7	-47.5	10.2	5.48e-03	0	62	0	384827392	56	6484
2026-01-19 11:58:29.79	268.23	14.99	-42.6	-47.4	10.4	5.30e-03	0	62	0	390070272	56	6413
2026-01-19 11:58:32.82	268.87	15.03	-42.6	-47.3	10.4	4.54e-03	0	62	0	396361728	56	6347
2026-01-19 11:58:35.85	269.51	15.06	-42.6	-47.4	10.4	4.80e-03	0	62	0	401604608	56	6414
2026-01-19 11:58:38.88	270.15	15.10	-42.5	-47.2	10.6	4.37e-03	0	62	0	406847488	56	6267
2026-01-19 11:58:41.91	270.80	15.13	-42.5	-47.2	10.6	3.44e-03	0	62	0	413138944	56	6267
2026-01-19 11:58:44.94	271.44	15.15	-42.5	-47.2	10.6	3.55e-03	0	62	0	418381824	56	6219
2026-01-19 11:58:47.97	272.09	15.18	-42.5	-47.2	10.5	3.59e-03	0	62	0	424673280	56	6263
2026-01-19 11:58:51.00	272.74	15.20	-42.5	-47.1	10.7	2.92e-03	0	62	0	429916160	56	6188
2026-01-19 11:58:54.03	273.38	15.21	-42.4	-47.0	10.8	2.75e-03	0	62	0	436207616	56	6103
2026-01-19 11:58:57.06	274.03	15.22	-42.4	-46.8	10.9	2.23e-03	0	62	0	441450496	56	5992
2026-01-19 11:59:00.08	274.68	15.23	-42.4	-47.0	10.8	2.50e-03	0	62	0	446693376	56	6096
2026-01-19 11:59:03.11	275.33	15.24	-42.4	-46.9	10.9	2.12e-03	0	62	0	452984832	56	6012
2026-01-19 11:59:06.14	275.98	15.24	-42.3	-46.8	11.0	2.08e-03	0	62	0	458227712	56	5966
2026-01-19 11:59:09.17	276.62	15.24	-42.2	-46.6	11.2	1.36e-03	0	62	0	464519168	56	5810
2026-01-19 11:59:12.20	277.27	15.24	-42.2	-46.7	11.1	1.49e-03	0	62	0	469762048	56	5858
2026-01-19 11:59:15.22	277.92	15.23	-42.3	-46.7	11.1	1.84e-03	0	62	0	475004928	56	5875
2026-01-19 11:59:18.25	278.57	15.22	-42.2	-46.6	11.2	1.40e-03	0	62	0	481296384	56	5836
2026-01-19 11:59:21.28	279.22	15.21	-42.1	-46.2	11.6	8.64e-04	0	62	0	486539264	56	5557
2026-01-19 11:59:24.31	279.86	15.19	-42.0	-46.2	11.4	9.18e-04	0	62	0	492830720	55	5890
2026-01-19 11:59:27.34	280.51	15.17	-42.0	-46.3	11.3	1.11e-03	0	62	0	498073600	55	5968
2026-01-19 11:59:30.37	281.15	15.14	-41.8	-46.0	11.6	8.48e-04	0	62	0	504365056	55	5764
2026-01-19 11:59:33.40	281.80	15.11	-41.8	-45.9	11.7	6.01e-04	0	62	0	509607936	55	5699
2026-01-19 11:59:36.43	282.44	15.08	-41.8	-45.9	11.7	5.89e-04	0	62	0	514850816	55	5662
2026-01-19 11:59:39.46	283.08	15.05	-41.8	-46.0	11.6	6.48e-04	0	62	0	521142272	55	5738
2026-01-19 11:59:42.49	283.72	15.01	-41.8	-45.9	11.7	5.28e-04	0	62	0	526385152	55	5677
2026-01-19 11:59:45.52	284.36	14.97	-41.9	-46.2	11.3	1.15e-03	0	62	0	532676608	55	5916
2026-01-19 11:59:48.55	284.99	14.93	-41.9	-46.2	11.2	1.24e-03	0	62	0	537919488	55	5918
2026-01-19 11:59:51.58	285.63	14.88	-41.9	-46.2	11.3	1.05e-03	0	62	0	543162368	55	5884
2026-01-19 11:59:54.61	286.26	14.83	-41.8	-46.1	11.3	9.91e-04	0	62	0	549453824	55	5831
2026-01-19 11:59:57.63	286.89	14.77	-41.9	-46.3	11.1	1.40e-03	0	62	0	554696704	55	5937
2026-01-19 12:00:00.66	287.51	14.72	-41.7	-45.9	11.5	1.25e-03	0	62	0	560988160	55	5697
2026-01-19 12:00:03.69	288.14	14.66	-41.7	-46.0	11.4	9.93e-04	0	62	0	566231040	55	5727
2026-01-19 12:00:06.72	288.76	14.59	-41.8	-46.1	11.2	1.23e-03	0	62	0	572522496	55	5850
2026-01-19 12:00:09.75	289.38	14.53	-41.9	-46.3	11.0	1.92e-03	0	62	0	577765376	55	5944
2026-01-19 12:00:12.78	290.00	14.46	-41.7	-45.9	11.3	1.07e-03	0	62	0	583008256	55	5721
2026-01-19 12:00:15.81	290.61	14.39	-41.5	-45.6	11.8	5.96e-04	0	62	0	589299712	55	5473
2026-01-19 12:00:18.84	291.22	14.31	-41.4	-45.4	11.9	5.28e-04	0	62	0	594542592	54	5664
2026-01-19 12:00:21.86	291.83	14.24	-41.3	-45.1	12.2	2.67e-04	0	62	0	600834048	54	5472
2026-01-19 12:00:24.90	292.43	14.16	-41.5	-45.5	11.8	4.14e-04	0	62	0	606076928	54	5727
2026-01-19 12:00:27.93	293.04	14.08	-41.5	-45.7	11.4	7.91e-04	0	62	0	611319808	54	5902
2026-01-19 12:00:30.96	293.63	13.99	-41.4	-45.5	11.7	6.08e-04	0	62	0	617611264	54	5735
2026-01-19 12:00:33.98	294.23	13.90	-41.3	-45.1	12.2	2.51e-04	0	62	0	622854144	54	5469
2026-01-19 12:00:37.02	294.82	13.81	-41.2	-45.0	12.2	1.83e-04	0	62	0	629145600	54	5449
2026-01-19 12:00:40.04	295.41	13.72	-41.3	-45.1	12.2	2.55e-04	0	62	0	634388480	54	5495
2026-01-19 12:00:43.07	295.99	13.63	-41.4	-45.4	11.9	3.52e-04	0	62	0	640679936	54	5670
2026-01-19 12:00:46.10	296.57	13.53	-41.5	-45.6	11.7	5.51e-04	0	62	0	645922816	54	5811
2026-01-19 12:00:49.13	297.15	13.43	-41.6	-45.6	11.7	4.84e-04	0	62	0	651165696	54	5852
2026-01-19 12:00:52.16	297.72	13.33	-41.5	-45.4	12.0	3.38e-04	0	62	0	657457152	54	5674
2026-01-19 12:00:55.19	298.29	13.22	-41.5	-45.4	12.0	3.19e-04	0	62	0	662700032	54	5679
2026-01-19 12:00:58.22	298.85	13.12	-41.5	-45.4	12.1	3.04e-04	0	62	0	668991488	54	5690
2026-01-19 12:01:01.25	299.41	13.01	-41.6	-45.6	11.9	3.86e-04	0	62	0	674234368	54	5853
2026-01-19 12:01:04.27	299.97	12.90	-41.8	-46.1	11.5	8.13e-04	0	62	0	679477248	54	6132
2026-01-19 12:01:07.30	300.52	12.79	-41.9	-46.3	11.2	1.53e-03	0	62	0	685768704	54	6295
2026-01-19 12:01:10.33	301.07	12.68	-42.0	-46.4	11.0	1.60e-03	0	62	0	691011584	54	6417
2026-01-19 12:01:13.36	301.62	12.56	-42.1	-46.6	10.8	2.82e-03	0	62	0	697303040	54	6564
2026-01-19 12:01:16.39	302.16	12.44	-42.2	-46.9	10.5	3.66e-03	0	62	0	702545920	54	6788
2026-01-19 12:01:19.42	302.69	12.32	-42.1	-46.7	10.7	3.21e-03	0	62	0	708837376	54	6634
2026-01-19 12:01:22.44	303.22	12.20	-42.1	-46.8	10.7	3.23e-03	0	62	0	714080256	54	6652
2026-01-19 12:01:25.47	303.75	12.08	-42.3	-47.2	10.2	5.63e-03	0	62	0	719323136	55	6620
2026-01-19 12:01:28.49	304.27	11.96	-42.6	-48.0	9.3	1.47e-02	0	62	0	725614592	55	7272
2026-01-19 12:01:31.53	304.79	11.83	-42.9	-48.6	9.0	2.46e-02	0	62	0	730857472	56	7291
2026-01-19 12:01:34.55	305.30	11.71	-43.1	-49.3	8.2	4.74e-02	0	62	0	737148928	56	7919
2026-01-19 12:01:37.59	305.82	11.58	-43.2	-49.6	7.9	7.56e-02	0	62	0	742391808	56	8245
2026-01-19 12:01:40.61	306.32	11.45	-43.1	-49.2	8.3	5.52e-02	0	62	0	747634688	56	7831
2026-01-19 12:01:43.64	306.82	11.32	-42.9	-48.6	8.9	2.89e-02	0	62	0	753926144	56	7304
2026-01-19 12:01:46.67	307.32	11.19	-42.8	-48.4	9.0	2.48e-02	0	62	0	759169024	56	7197
2026-01-19 12:01:49.70	307.81	11.05	-42.8	-48.5	8.9	2.64e-02	0	62	0	765460480	56	7279
2026-01-19 12:01:52.72	308.30	10.92	-43.0	-49.0	8.4	4.19e-02	0	62	0	770703360	56	7672
2026-01-19 12:01:55.75	308.78	10.79	-43.1	-49.4	8.0	6.86e-02	0	62	0	775946240	56	8046
2026-01-19 12:01:58.78	309.26	10.65	-43.1	-49.5	7.9	7.26e-02	0	62	0	782237696	56	8114
2026-01-19 12:02:01.81	309.74	10.51	-43.0	-49.2	8.2	5.61e-02	0	62	0	787480576	56	7831
2026-01-19 12:02:04.83	310.21	10.38	-42.9	-48.7	8.6	3.66e-02	0	62	0	793772032	56	7457
2026-01-19 12:02:07.86	310.67	10.24	-42.9	-48.8	8.5	4.09e-02	0	62	0	799014912	56	7492
2026-01-19 12:02:10.89	311.14	10.10	-42.8	-48.6	8.8	3.37e-02	0	62	0	805306368	56	7312
2026-01-19 12:02:13.92	311.60	9.96	-42.5	-47.7	9.6	1.24e-02	0	62	0	810549248	56	6614
2026-01-19 12:02:16.95	312.05	9.82	-42.5	-47.8	9.5	1.37e-02	0	62	0	815792128	56	6655
2026-01-19 12:02:19.98	312.50	9.67	-42.5	-48.0	9.3	1.66e-02	0	62	0	822083584	56	6804
2026-01-19 12:02:23.00	312.94	9.53	-42.6	-48.0	9.3	1.95e-02	0	62	0	827326464	56	6849
2026-01-19 12:02:26.03	313.38	9.39	-42.6	-48.1	9.1	1.94e-02	0	62	0	833617920	56	6944
2026-01-19 12:02:29.06	313.82	9.24	-42.6	-48.2	9.0	2.31e-02	0	62	0	838860800	56	7005
2026-01-19 12:02:32.09	314.25	9.10	-42.6	-48.2	9.0	2.59e-02	0	62	0	844103680	56	7015
2026-01-19 12:02:35.12	314.68	8.95	-42.4	-47.6	9.7	1.21e-02	0	62	0	850395136	56	6503
2026-01-19 12:02:38.15	315.11	8.81	-42.2	-47.3	10.0	8.25e-03	0	62	0	855638016	56	6284
2026-01-19 12:02:41.18	315.53	8.66	-42.2	-47.0	10.2	6.04e-03	0	62	0	861929472	56	6120
2026-01-19 12:02:44.21	315.94	8.52	-42.4	-47.5	9.8	9.33e-03	0	62	0	867172352	56	6456
2026-01-19 12:02:47.24	316.36	8.37	-42.4	-47.5	9.7	1.11e-02	0	62	0	873463808	56	6473
2026-01-19 12:02:50.26	316.76	8.22	-42.3	-47.4	9.8	1.01e-02	0	62	0	878706688	56	6409
2026-01-19 12:02:53.29	317.17	8.07	-42.3	-47.4	9.8	8.70e-03	0	62	0	883949568	56	6388
2026-01-19 12:02:56.32	317.57	7.93	-44.7	-59.3	3.8	1.49e+00	0	62	104	887095296	60	19935
2026-01-19 12:02:59.35	317.97	7.78	-45.2	-59.7	3.8	1.49e+00	0	62	104	887095296	60	20980
2026-01-19 12:03:02.38	318.36	7.63	-45.3	-59.9	3.8	1.49e+00	0	62	104	887095296	61	20166
2026-01-19 12:03:05.42	318.75	7.48	-45.3	-59.8	3.8	1.49e+00	0	62	104	887095296	61	19930
2026-01-19 12:03:08.45	319.13	7.33	-45.1	-59.8	3.8	1.49e+00	0	62	104	887095296	61	19948
2026-01-19 12:03:11.48	319.51	7.18	-45.1	-59.8	3.8	1.49e+00	0	62	104	887095296	61	19872
2026-01-19 12:03:14.51	319.89	7.03	-45.2	-59.8	3.8	1.49e+00	0	62	104	887095296	61	19856
2026-01-19 12:03:17.54	320.27	6.88	-45.2	-59.8	3.8	1.49e+00	0	62	104	887095296	60	21064
2026-01-19 12:03:20.57	320.64	6.73	-45.0	-59.7	3.8	1.49e+00	0	62	104	887095296	60	20936
2026-01-19 12:03:23.60	321.00	6.58	-44.8	-59.7	3.8	1.49e+00	0	62	104	887095296	60	20940
2026-01-19 12:03:26.64	321.37	6.43	-45.1	-59.7	3.8	1.49e+00	0	62	104	887095296	60	20928
2026-01-19 12:03:29.67	321.73	6.28	-45.2	-59.7	3.8	1.49e+00	0	62	104	887095296	60	20926
2026-01-19 12:03:32.70	322.08	6.14	-45.2	-59.7	3.8	1.49e+00	0	62	104	887095296	60	20975
2026-01-19 12:03:35.73	322.43	5.99	-45.2	-59.7	3.8	1.49e+00	0	62	104	887095296	60	20958
2026-01-19 12:03:38.76	322.78	5.84	-45.0	-59.7	3.8	1.49e+00	0	62	104	887095296	60	20804
2026-01-19 12:03:41.79	323.13	5.69	-44.9	-59.7	3.8	1.49e+00	0	62	104	887095296	60	20795
2026-01-19 12:03:44.82	323.47	5.54	-45.1	-59.7	3.8	1.49e+00	0	62	104	887095296	60	20892
2026-01-19 12:03:47.86	323.81	5.39	-45.1	-59.7	3.8	1.49e+00	0	62	104	887095296	60	20810
2026-01-19 12:03:50.89	324.15	5.24	-45.1	-59.7	3.8	1.49e+00	0	62	104	887095296	60	20888
2026-01-19 12:03:53.92	324.48	5.09	-45.1	-59.7	3.8	1.49e+00	0	62	104	887095296	60	20810
2026-01-19 12:03:56.95	324.81	4.94	-45.1	-59.7	3.8	1.49e+00	0	62	104	887095296	60	20800
2026-01-19 12:03:59.98	325.13	4.79	-45.1	-59.7	3.8	1.49e+00	0	62	104	887095296	60	20847
2026-01-19 12:04:03.02	325.45	4.64	-44.1	-59.7	3.8	1.49e+00	0	62	104	887095296	60	20869
2026-01-19 12:04:06.05	325.77	4.49	-45.1	-59.7	3.8	1.49e+00	0	62	104	887095296	60	20816
2026-01-19 12:04:09.08	326.09	4.34	-44.9	-59.6	3.8	1.49e+00	0	62	104	887095296	60	20744
2026-01-19 12:04:12.11	326.40	4.19	-45.1	-59.6	3.8	1.49e+00	0	62	104	887095296	60	20677
2026-01-19 12:04:15.14	326.71	4.04	-45.1	-59.6	3.8	1.49e+00	0	62	104	887095296	60	20775
2026-01-19 12:04:18.18	327.02	3.89	-45.0	-59.6	3.8	1.49e+00	0	63	104	887095296	60	20746
2026-01-19 12:04:21.21	327.33	3.74	-45.0	-59.6	3.8	1.49e+00	0	62	104	887095296	60	20769
2026-01-19 12:04:24.24	327.63	3.59	-45.1	-59.6	3.8	1.49e+00	0	63	104	887095296	60	20694
2026-01-19 12:04:27.27	327.93	3.45	-45.1	-59.6	3.8	1.49e+00	0	63	104	887095296	60	20756
2026-01-19 12:04:30.30	328.22	3.30	-45.1	-59.6	3.8	1.49e+00	0	62	104	887095296	60	20728
2026-01-19 12:04:33.33	328.51	3.15	-45.1	-59.6	3.8	1.49e+00	0	62	104	887095296	60	20734
2026-01-19 12:04:36.36	328.80	3.00	-45.1	-59.6	3.8	1.49e+00	0	62	104	887095296	60	20708
2026-01-19 12:04:39.39	329.09	2.86	-45.1	-59.6	3.8	1.49e+00	0	62	104	887095296	60	20716
2026-01-19 12:04:42.42	329.37	2.71	-45.1	-59.6	3.8	1.49e+00	0	62	104	887095296	60	20761
2026-01-19 12:04:45.45	329.66	2.56	-45.0	-59.6	3.8	1.49e+00	0	62	104	887095296	60	20712
2026-01-19 12:04:48.49	329.94	2.41	-45.1	-59.6	3.8	1.49e+00	0	62	104	887095296	60	20758
2026-01-19 12:04:51.52	330.21	2.27	-45.1	-59.6	3.8	1.49e+00	0	62	104	887095296	60	20669
2026-01-19 12:04:54.55	330.49	2.12	-45.1	-59.6	3.8	1.49e+00	0	62	104	887095296	60	20682
2026-01-19 12:04:57.58	330.76	1.98	-45.0	-59.6	3.8	1.49e+00	0	62	104	887095296	60	20642

#Closed at: 2026-01-19 12:04:59
#Recorded file [887 MB]: D:/lorett/data/31039_260119_145320.dat