passes_logs/2026/01/19/R2.0S_Moscow/R2.0S_Moscow__20260119_092037_NOAA_21_JPSS-2_rec.log

#Pass ID: 20260119_092037_NOAA 21 (JPSS-2)
#Satellite: NOAA 21 (JPSS-2)
#Configuration: NOAA-21
#almurnet v.1.7.20251203
#Start time: 2026-01-19 09:20:38

#Version: 2.2.20231116
#Station: R2.0S_Moscow
#Location: 37.707566 lon 55.798166 lat
#TLE: 1 54234U 22150A   26017.90260625  .00000050  00000+0  44518-4 0  9994
#TLE: 2 54234  98.7502 318.7672 0000612 269.1755  90.9351 14.19535344165221

#Time	Az	El	Level	Level2	SNR	BER	BlckErr	Temp	State	Recorded	gain1	gain2
2026-01-19 09:20:38.95	143.82	2.08	-43.7	-56.1	3.8	1.49e+00	0	53	0	0	58	15477
2026-01-19 09:20:42.98	143.73	2.34	-43.8	-56.2	3.8	1.49e+00	0	53	104	0	58	15584
2026-01-19 09:20:47.02	143.63	2.60	-43.8	-56.2	3.8	1.49e+00	0	54	104	0	58	15632
2026-01-19 09:20:51.06	143.54	2.86	-43.8	-56.2	3.8	1.49e+00	0	54	104	0	58	15595
2026-01-19 09:20:55.10	143.44	3.13	-43.6	-56.1	3.8	1.49e+00	0	54	104	0	58	15520
2026-01-19 09:20:59.15	143.33	3.40	-43.7	-56.1	3.8	1.49e+00	0	54	104	0	58	15523
2026-01-19 09:21:03.18	143.23	3.67	-43.7	-56.1	3.8	1.49e+00	0	54	104	0	58	15528
2026-01-19 09:21:07.22	143.13	3.94	-43.8	-56.1	3.8	1.49e+00	0	55	104	0	58	15552
2026-01-19 09:21:11.26	143.02	4.21	-43.8	-56.1	3.8	1.49e+00	0	55	104	0	58	15494
2026-01-19 09:21:15.30	142.91	4.49	-43.8	-56.1	3.8	1.49e+00	0	55	104	0	58	15491
2026-01-19 09:21:19.34	142.80	4.77	-43.5	-56.1	3.8	1.49e+00	0	56	104	0	58	15441
2026-01-19 09:21:23.38	142.68	5.06	-43.5	-55.9	3.8	1.49e+00	0	56	104	0	57	16098
2026-01-19 09:21:27.42	142.56	5.34	-43.7	-55.7	3.8	1.49e+00	0	56	104	0	58	14765
2026-01-19 09:21:31.47	142.44	5.64	-43.6	-55.4	3.8	1.49e+00	0	56	104	0	58	14324
2026-01-19 09:21:35.51	142.32	5.93	-43.3	-53.9	3.9	1.49e+00	0	56	104	0	57	12727
2026-01-19 09:21:39.55	142.20	6.22	-43.2	-52.9	4.1	1.47e+00	0	56	104	0	57	11321
2026-01-19 09:21:43.59	142.07	6.52	-43.0	-52.4	4.2	1.46e+00	0	57	104	0	57	10747
2026-01-19 09:21:47.63	141.94	6.83	-43.5	-54.4	3.8	1.49e+00	0	57	104	0	57	13504
2026-01-19 09:21:51.67	141.80	7.13	-43.6	-55.0	3.8	1.49e+00	0	57	104	0	57	14479
2026-01-19 09:21:55.71	141.67	7.44	-42.6	-49.9	5.4	5.79e-01	0	58	0	1048576	56	8485
2026-01-19 09:21:59.75	141.53	7.76	-41.4	-46.1	8.4	4.58e-02	0	57	0	13631488	54	6200
2026-01-19 09:22:03.79	141.38	8.07	-43.8	-53.9	3.9	1.20e+00	0	58	104	25165824	58	12014
2026-01-19 09:22:07.83	141.24	8.40	-42.4	-48.8	6.1	1.68e-02	0	58	0	30408704	55	7931
2026-01-19 09:22:11.87	141.09	8.72	-40.6	-44.5	10.0	8.07e-03	0	58	0	40894464	52	5762
2026-01-19 09:22:15.91	140.93	9.05	-40.6	-44.4	10.1	1.03e-02	0	58	0	54525952	52	5687
2026-01-19 09:22:19.94	140.78	9.38	-40.3	-44.1	10.3	1.81e-02	0	58	0	66060288	52	5514
2026-01-19 09:22:23.98	140.61	9.72	-40.4	-44.0	10.7	5.58e-03	0	58	0	79691776	51	5763
2026-01-19 09:22:28.02	140.45	10.06	-40.4	-44.0	10.3	7.42e-03	0	59	0	92274688	52	5463
2026-01-19 09:22:32.06	140.28	10.41	-40.4	-43.7	10.3	8.26e-03	0	59	0	104857600	51	5548
2026-01-19 09:22:36.10	140.10	10.76	-38.8	-43.6	9.8	3.21e-02	0	59	0	117440512	49	6133
2026-01-19 09:22:40.14	139.93	11.12	-39.6	-43.6	10.5	3.33e-02	0	59	0	130023424	50	5826
2026-01-19 09:22:44.18	139.74	11.48	-40.1	-43.2	10.9	1.32e-01	0	59	0	142606336	50	5553
2026-01-19 09:22:48.23	139.56	11.84	-39.6	-43.0	11.4	2.92e-01	0	59	0	155189248	49	5763
2026-01-19 09:22:52.27	139.36	12.22	-36.2	-42.5	8.8	4.03e-02	0	59	0	167772160	46	6428
2026-01-19 09:22:56.31	139.16	12.59	-37.3	-42.4	9.8	1.41e-02	0	59	0	180355072	45	6789
2026-01-19 09:23:00.35	138.96	12.97	-36.5	-42.5	11.8	1.18e-01	0	59	0	192937984	49	5439
2026-01-19 09:23:04.39	138.75	13.36	-39.3	-42.6	10.2	1.59e-01	0	59	0	205520896	45	6930
2026-01-19 09:23:08.43	138.54	13.76	-39.7	-42.5	11.5	6.37e-01	40	59	0	218103808	36	11446
2026-01-19 09:23:12.47	138.31	14.16	-39.5	-42.8	12.3	4.26e-01	0	59	0	230686720	50	5291
2026-01-19 09:23:16.51	138.09	14.56	-40.0	-42.8	11.6	3.14e-01	0	60	0	243269632	49	5607
2026-01-19 09:23:20.55	137.85	14.98	-37.0	-42.6	8.6	3.26e-01	13	60	0	254803968	49	5492
2026-01-19 09:23:24.59	137.61	15.39	-33.5	-42.1	7.7	4.20e-01	25	60	0	267386880	40	8664
2026-01-19 09:23:28.63	137.36	15.82	-35.0	-42.4	9.1	1.57e-01	0	60	0	279969792	45	6754
2026-01-19 09:23:32.68	137.11	16.25	-40.4	-43.0	12.6	1.05e-01	0	60	0	293601280	51	5128
2026-01-19 09:23:36.72	136.84	16.69	-37.7	-42.7	10.3	8.53e-02	0	60	0	306184192	47	6238
2026-01-19 09:23:40.76	136.57	17.14	-40.2	-43.0	12.9	2.32e-04	0	60	0	318767104	51	5102
2026-01-19 09:23:44.80	136.29	17.60	-40.6	-43.3	11.8	1.26e-02	0	60	0	331350016	51	5336
2026-01-19 09:23:48.85	136.00	18.06	-39.9	-43.1	11.8	1.29e-02	0	60	0	343932928	50	5522
2026-01-19 09:23:52.88	135.70	18.53	-40.2	-43.5	12.4	2.97e-03	0	60	0	356515840	51	5404
2026-01-19 09:23:56.92	135.40	19.01	-40.7	-43.4	12.6	1.30e-04	0	60	0	369098752	51	5375
2026-01-19 09:24:00.96	135.08	19.50	-40.6	-43.1	12.9	5.87e-05	0	60	0	381681664	51	5216
2026-01-19 09:24:05.01	134.75	20.00	-40.4	-43.0	13.1	2.89e-05	0	60	0	394264576	51	5122
2026-01-19 09:24:09.05	134.41	20.50	-40.3	-42.8	13.3	1.75e-05	0	60	0	406847488	51	5000
2026-01-19 09:24:13.09	134.05	21.02	-40.1	-42.4	13.7	8.30e-06	0	60	0	419430400	51	4791
2026-01-19 09:24:17.13	133.69	21.54	-40.0	-42.2	13.9	6.10e-06	0	60	0	432013312	51	4696
2026-01-19 09:24:21.17	133.31	22.08	-39.7	-41.9	14.3	7.00e-07	0	60	0	444596224	50	4770
2026-01-19 09:24:25.21	132.92	22.62	-39.5	-41.5	14.6	0.00e+00	0	60	0	457179136	50	4587
2026-01-19 09:24:29.24	132.51	23.17	-39.6	-41.6	14.5	0.00e+00	0	60	0	469762048	50	4651
2026-01-19 09:24:33.28	132.09	23.74	-39.6	-41.7	14.4	0.00e+00	0	61	0	482344960	50	4703
2026-01-19 09:24:37.32	131.66	24.31	-39.9	-42.1	14.1	2.20e-06	0	60	0	494927872	50	4924
2026-01-19 09:24:41.36	131.20	24.90	-39.9	-42.1	14.1	1.06e-05	0	61	0	507510784	50	4906
2026-01-19 09:24:45.40	130.73	25.50	-39.9	-42.1	14.2	1.50e-06	0	61	0	520093696	50	4897
2026-01-19 09:24:49.43	130.24	26.11	-40.0	-42.3	14.0	5.30e-06	0	61	0	532676608	50	5003
2026-01-19 09:24:53.47	129.73	26.73	-40.3	-42.7	13.6	8.30e-06	0	61	0	545259520	51	4941
2026-01-19 09:24:57.52	129.20	27.36	-40.5	-43.0	13.3	1.98e-05	0	61	0	557842432	51	5109
2026-01-19 09:25:01.55	128.65	28.00	-40.5	-43.0	13.2	2.97e-05	0	61	0	570425344	51	5156
2026-01-19 09:25:05.59	128.07	28.66	-40.4	-42.8	13.4	1.67e-05	0	61	0	583008256	51	5003
2026-01-19 09:25:09.63	127.47	29.33	-40.6	-43.0	13.2	2.36e-05	0	61	0	595591168	51	5159
2026-01-19 09:25:13.67	126.85	30.01	-40.4	-42.8	13.5	1.67e-05	0	61	0	609222656	51	5004
2026-01-19 09:25:17.71	126.19	30.71	-40.2	-42.5	13.9	3.80e-06	0	61	0	621805568	51	4815
2026-01-19 09:25:21.75	125.51	31.41	-40.1	-42.3	14.0	2.20e-06	0	61	0	634388480	51	4728
2026-01-19 09:25:25.79	124.80	32.13	-40.5	-42.9	13.4	1.29e-05	0	61	0	646971392	51	5052
2026-01-19 09:25:29.83	124.05	32.86	-40.5	-43.0	13.4	2.13e-05	0	61	0	659554304	51	5109
2026-01-19 09:25:33.87	123.26	33.60	-40.5	-42.9	13.4	1.06e-05	0	61	0	672137216	51	5075
2026-01-19 09:25:37.91	122.45	34.36	-41.0	-43.8	12.5	1.10e-04	0	61	0	684720128	52	5291
2026-01-19 09:25:41.95	121.59	35.13	-41.2	-44.0	12.3	1.46e-04	0	61	0	697303040	53	5111
2026-01-19 09:25:45.98	120.69	35.90	-41.0	-43.7	12.6	9.53e-05	0	61	0	709885952	53	4956
2026-01-19 09:25:50.02	119.74	36.69	-41.4	-44.4	11.9	3.07e-04	0	61	0	722468864	53	5355
2026-01-19 09:25:54.05	118.75	37.48	-41.7	-44.8	11.5	7.26e-04	0	61	0	735051776	54	5336
2026-01-19 09:25:58.09	117.71	38.29	-41.7	-44.8	11.5	9.24e-04	0	61	0	747634688	54	5297
2026-01-19 09:26:02.14	116.61	39.11	-41.7	-44.8	11.5	8.48e-04	0	61	0	760217600	54	5326
2026-01-19 09:26:06.18	115.45	39.93	-41.9	-45.2	11.1	1.67e-03	0	61	0	772800512	54	5531
2026-01-19 09:26:10.21	114.24	40.75	-41.6	-44.6	11.7	6.28e-04	0	62	0	785383424	54	5205
2026-01-19 09:26:14.25	112.96	41.58	-41.9	-45.1	11.3	1.39e-03	0	61	0	797966336	54	5498
2026-01-19 09:26:18.29	111.61	42.42	-41.7	-44.7	11.6	7.69e-04	0	62	0	810549248	54	5257
2026-01-19 09:26:22.33	110.19	43.25	-42.3	-45.9	10.4	4.59e-03	0	61	0	823132160	55	5657
2026-01-19 09:26:26.36	108.70	44.07	-42.0	-45.3	11.1	1.90e-03	0	61	0	835715072	55	5300
2026-01-19 09:26:30.40	107.13	44.90	-42.0	-45.3	11.0	1.94e-03	0	61	0	848297984	55	5315
2026-01-19 09:26:34.44	105.47	45.71	-41.7	-44.7	11.7	6.41e-04	0	61	0	860880896	55	4944
2026-01-19 09:26:38.48	103.73	46.51	-41.5	-44.4	11.9	4.37e-04	0	61	0	873463808	55	4811
2026-01-19 09:26:42.52	101.89	47.30	-41.5	-44.4	12.0	3.67e-04	0	62	0	886046720	54	5077
2026-01-19 09:26:46.56	99.96	48.07	-41.7	-44.8	11.6	5.92e-04	0	62	0	898629632	54	5296
2026-01-19 09:26:50.60	97.93	48.81	-41.9	-45.0	11.4	8.77e-04	0	62	0	911212544	54	5448
2026-01-19 09:26:54.64	95.81	49.52	-41.5	-44.4	12.0	4.08e-04	0	62	0	923795456	54	5095
2026-01-19 09:26:58.68	93.58	50.21	-41.8	-44.9	11.5	5.81e-04	0	62	0	936378368	54	5396
2026-01-19 09:27:02.72	91.26	50.85	-41.6	-44.6	12.0	4.17e-04	0	62	0	950009856	54	5166
2026-01-19 09:27:06.76	88.84	51.45	-41.1	-43.7	12.9	5.41e-05	0	62	0	962592768	54	4652
2026-01-19 09:27:10.80	86.32	52.00	-41.2	-43.8	12.7	6.56e-05	0	62	0	975175680	54	4742
2026-01-19 09:27:14.84	83.71	52.49	-41.3	-44.1	12.5	1.28e-04	0	62	0	987758592	54	4875
2026-01-19 09:27:18.87	81.02	52.93	-41.0	-43.5	13.0	4.42e-05	0	62	0	1000341504	54	4588
2026-01-19 09:27:22.91	78.26	53.30	-41.0	-43.6	12.9	4.19e-05	0	62	0	1012924416	53	4898
2026-01-19 09:27:26.95	75.42	53.61	-40.8	-43.2	13.3	1.75e-05	0	62	0	1025507328	53	4667
2026-01-19 09:27:30.99	72.54	53.84	-40.7	-43.1	13.4	1.44e-05	0	62	0	1038090240	53	4616
2026-01-19 09:27:35.03	69.61	54.00	-40.9	-43.4	13.1	2.67e-05	0	62	0	1050673152	53	4767
2026-01-19 09:27:39.07	66.66	54.09	-41.2	-43.9	12.6	1.14e-04	0	62	0	1063256064	53	5068
2026-01-19 09:27:43.11	63.70	54.10	-41.0	-43.6	12.9	4.88e-05	0	62	0	1075838976	53	4885
2026-01-19 09:27:47.16	60.74	54.03	-41.2	-43.8	12.7	7.62e-05	0	62	0	1088421888	53	5012
2026-01-19 09:27:51.20	57.81	53.88	-41.6	-44.6	11.9	3.72e-04	0	62	0	1101004800	53	5468
2026-01-19 09:27:55.24	54.92	53.66	-41.1	-43.8	12.7	5.18e-05	0	62	0	1113587712	53	5000
2026-01-19 09:27:59.28	52.08	53.37	-41.1	-43.7	12.6	9.38e-05	0	62	0	1126170624	53	4958
2026-01-19 09:28:03.32	49.30	53.01	-41.0	-43.6	12.8	8.54e-05	0	62	0	1138753536	53	4899
2026-01-19 09:28:07.36	46.60	52.59	-40.8	-43.3	13.1	2.82e-05	0	62	0	1151336448	53	4710
2026-01-19 09:28:11.40	43.97	52.10	-40.5	-42.8	13.5	1.22e-05	0	62	0	1163919360	53	4487
2026-01-19 09:28:15.44	41.44	51.57	-41.3	-44.0	12.3	1.79e-04	0	62	0	1176502272	53	5144
2026-01-19 09:28:19.48	39.01	50.98	-41.0	-43.6	12.8	6.17e-05	0	62	0	1189085184	53	4872
2026-01-19 09:28:23.52	36.67	50.35	-41.6	-44.6	11.6	8.45e-04	0	62	0	1201668096	54	5204
2026-01-19 09:28:27.56	34.42	49.67	-41.7	-44.8	11.6	6.83e-04	0	62	0	1214251008	54	5283
2026-01-19 09:28:31.60	32.28	48.97	-41.3	-44.0	12.3	1.67e-04	0	62	0	1226833920	54	4859
2026-01-19 09:28:35.63	30.25	48.23	-42.4	-46.0	10.2	5.89e-03	0	62	0	1239416832	55	5768
2026-01-19 09:28:39.67	28.30	47.47	-41.1	-43.7	12.7	9.84e-05	0	62	0	1251999744	54	4680
2026-01-19 09:28:43.71	26.45	46.69	-42.6	-46.3	9.9	7.59e-03	0	62	0	1265631232	55	5964
2026-01-19 09:28:47.75	24.69	45.90	-41.4	-44.3	12.0	4.87e-04	0	62	0	1278214144	54	4984
2026-01-19 09:28:51.79	23.02	45.09	-42.9	-47.0	9.4	1.21e-02	0	62	0	1290797056	56	6116
2026-01-19 09:28:55.83	21.44	44.27	-42.5	-46.1	10.2	6.99e-03	0	62	0	1303379968	56	5515
2026-01-19 09:28:59.87	19.93	43.45	-42.0	-45.1	11.1	1.02e-03	0	62	0	1315962880	54	5522
2026-01-19 09:29:03.91	18.50	42.62	-41.5	-44.5	11.6	8.53e-04	0	62	0	1328545792	55	4820
2026-01-19 09:29:07.95	17.14	41.79	-41.9	-45.1	11.0	1.22e-03	0	62	0	1341128704	54	5524
2026-01-19 09:29:11.99	15.85	40.96	-42.6	-46.6	9.6	9.82e-03	0	62	0	1353711616	55	6162
2026-01-19 09:29:16.03	14.63	40.14	-41.5	-44.4	11.8	5.79e-04	0	62	0	1366294528	54	5084
2026-01-19 09:29:20.07	13.47	39.32	-41.9	-45.2	11.1	1.36e-03	0	62	0	1378877440	54	5534
2026-01-19 09:29:24.11	12.36	38.51	-41.6	-44.6	11.4	8.23e-04	0	62	0	1391460352	54	5185
2026-01-19 09:29:28.15	11.31	37.70	-41.8	-45.0	11.1	1.68e-03	0	62	0	1404043264	54	5433
2026-01-19 09:29:32.19	10.31	36.91	-41.7	-44.8	11.3	9.04e-04	0	62	0	1416626176	54	5336
2026-01-19 09:29:36.23	9.36	36.12	-40.9	-43.6	12.5	1.56e-04	0	62	0	1429209088	53	4882
2026-01-19 09:29:40.26	8.45	35.35	-41.0	-43.7	12.5	9.53e-05	0	62	0	1441792000	53	4957
2026-01-19 09:29:44.30	7.59	34.58	-41.3	-44.2	11.9	4.07e-04	0	62	0	1454374912	53	5266
2026-01-19 09:29:48.35	6.76	33.83	-41.1	-43.9	12.3	1.73e-04	0	62	0	1466957824	53	5070
2026-01-19 09:29:52.39	5.98	33.08	-41.0	-43.7	12.4	1.52e-04	0	62	0	1479540736	53	4977
2026-01-19 09:29:56.42	5.23	32.36	-40.8	-43.5	12.7	6.94e-05	0	62	0	1492123648	53	4821
2026-01-19 09:30:00.46	4.51	31.64	-40.6	-43.0	13.0	4.80e-05	0	62	0	1504706560	53	4594
2026-01-19 09:30:04.50	3.82	30.93	-40.0	-42.2	13.9	4.50e-06	0	62	0	1517289472	51	4682
2026-01-19 09:30:08.54	3.17	30.24	-40.2	-42.4	13.7	6.10e-06	0	62	0	1529872384	51	4807
2026-01-19 09:30:12.58	2.54	29.56	-40.6	-43.2	12.8	5.41e-05	0	62	0	1542455296	52	4951
2026-01-19 09:30:16.62	1.93	28.89	-40.7	-43.3	12.8	6.79e-05	0	62	0	1555038208	52	4988
2026-01-19 09:30:20.66	1.36	28.23	-40.1	-42.5	13.5	1.29e-05	0	62	0	1567621120	52	4556
2026-01-19 09:30:24.70	0.80	27.59	-39.7	-41.9	14.2	3.00e-06	0	62	0	1580204032	51	4505
2026-01-19 09:30:28.73	0.27	26.96	-39.8	-42.0	14.1	0.00e+00	0	62	0	1592786944	51	4578
2026-01-19 09:30:32.77	359.76	26.34	-39.8	-42.0	14.1	1.50e-06	0	62	0	1606418432	51	4549
2026-01-19 09:30:36.81	359.27	25.73	-39.9	-42.2	13.8	6.10e-06	0	62	0	1619001344	51	4680
2026-01-19 09:30:40.85	358.80	25.13	-40.1	-42.5	13.5	1.37e-05	0	62	0	1631584256	51	4817
2026-01-19 09:30:44.89	358.34	24.54	-40.2	-42.6	13.2	2.44e-05	0	62	0	1644167168	51	4915
2026-01-19 09:30:48.93	357.91	23.97	-40.1	-42.5	13.2	2.82e-05	0	62	0	1656750080	51	4868
2026-01-19 09:30:52.97	357.49	23.40	-39.8	-42.2	13.5	1.37e-05	0	62	0	1669332992	51	4661
2026-01-19 09:30:57.01	357.08	22.85	-39.8	-42.1	13.5	9.90e-06	0	62	0	1681915904	51	4626
2026-01-19 09:31:01.04	356.69	22.31	-39.9	-42.3	13.1	2.67e-05	0	62	0	1694498816	51	4758
2026-01-19 09:31:05.08	356.31	21.77	-40.0	-42.7	12.5	1.21e-04	0	62	0	1707081728	51	4928
2026-01-19 09:31:09.12	355.95	21.25	-39.7	-42.4	12.4	9.61e-05	0	62	0	1719664640	51	4796
2026-01-19 09:31:13.16	355.60	20.73	-40.0	-43.1	11.4	8.70e-04	0	62	0	1732247552	51	5206
2026-01-19 09:31:17.20	355.26	20.23	-41.3	-46.5	7.3	9.99e-02	0	62	0	1744830464	53	6877
2026-01-19 09:31:21.24	354.93	19.73	-41.7	-50.8	4.2	1.40e+00	0	62	104	1753219072	53	11235
2026-01-19 09:31:25.28	354.61	19.24	-41.4	-53.9	3.8	1.49e+00	0	62	104	1753219072	54	15180
2026-01-19 09:31:29.32	354.30	18.76	-41.7	-53.6	3.8	1.49e+00	0	62	104	1753219072	55	13770
2026-01-19 09:31:33.36	354.00	18.29	-40.8	-53.2	3.8	1.49e+00	0	62	104	1753219072	53	14869
2026-01-19 09:31:37.40	353.72	17.83	-40.7	-53.2	3.8	1.49e+00	0	62	104	1753219072	53	14789
2026-01-19 09:31:41.44	353.44	17.37	-40.8	-53.3	3.8	1.49e+00	0	62	104	1753219072	53	14951
2026-01-19 09:31:45.48	353.17	16.93	-40.7	-53.3	3.8	1.49e+00	0	62	104	1753219072	52	15783
2026-01-19 09:31:49.51	352.91	16.49	-40.5	-53.2	3.8	1.49e+00	0	62	104	1753219072	52	15749
2026-01-19 09:31:53.55	352.65	16.05	-40.4	-53.3	3.8	1.49e+00	0	62	104	1753219072	52	15861
2026-01-19 09:31:57.59	352.41	15.63	-40.7	-53.4	3.8	1.49e+00	0	62	104	1753219072	52	16000
2026-01-19 09:32:01.62	352.17	15.21	-40.8	-53.3	3.8	1.49e+00	0	62	104	1753219072	52	15844
2026-01-19 09:32:05.66	351.94	14.80	-40.8	-53.3	3.8	1.49e+00	0	62	104	1753219072	52	15860
2026-01-19 09:32:09.70	351.71	14.39	-40.8	-53.3	3.8	1.49e+00	0	62	104	1753219072	52	15879
2026-01-19 09:32:13.74	351.49	13.99	-40.8	-53.3	3.8	1.49e+00	0	62	104	1753219072	52	15824
2026-01-19 09:32:17.77	351.28	13.60	-40.6	-53.2	3.8	1.49e+00	0	62	104	1753219072	52	15720
2026-01-19 09:32:21.81	351.07	13.21	-40.6	-53.1	3.8	1.49e+00	0	62	104	1753219072	52	15571
2026-01-19 09:32:25.85	350.87	12.83	-40.6	-53.1	3.8	1.49e+00	0	62	104	1753219072	52	15489
2026-01-19 09:32:29.88	350.68	12.45	-40.7	-53.2	3.8	1.49e+00	0	62	104	1753219072	52	15583
2026-01-19 09:32:33.92	350.48	12.08	-40.8	-53.2	3.8	1.49e+00	0	62	104	1753219072	52	15752
2026-01-19 09:32:37.96	350.30	11.71	-40.8	-53.3	3.8	1.49e+00	0	62	104	1753219072	52	15844
2026-01-19 09:32:42.00	350.12	11.35	-40.7	-53.2	3.8	1.49e+00	0	62	104	1753219072	52	15623
2026-01-19 09:32:46.03	349.94	11.00	-40.6	-53.1	3.8	1.49e+00	0	62	104	1753219072	52	15534
2026-01-19 09:32:50.07	349.77	10.64	-40.7	-53.2	3.8	1.49e+00	0	62	104	1753219072	52	15609
2026-01-19 09:32:54.11	349.61	10.30	-40.8	-53.2	3.8	1.49e+00	0	62	104	1753219072	52	15734
2026-01-19 09:32:58.15	349.44	9.96	-40.8	-53.2	3.8	1.49e+00	0	62	104	1753219072	52	15670
2026-01-19 09:33:02.19	349.29	9.62	-40.7	-53.1	3.8	1.49e+00	0	62	104	1753219072	52	15538
2026-01-19 09:33:06.23	349.13	9.28	-40.6	-53.1	3.8	1.49e+00	0	62	104	1753219072	52	15431
2026-01-19 09:33:10.27	348.98	8.96	-40.7	-53.1	3.8	1.49e+00	0	62	104	1753219072	52	15517
2026-01-19 09:33:14.30	348.83	8.63	-40.8	-53.2	3.8	1.49e+00	0	62	104	1753219072	52	15626
2026-01-19 09:33:18.34	348.69	8.31	-40.8	-53.3	3.8	1.49e+00	0	62	104	1753219072	52	15766
2026-01-19 09:33:22.38	348.55	7.99	-40.8	-53.2	3.8	1.49e+00	0	62	104	1753219072	52	15698
2026-01-19 09:33:26.42	348.42	7.68	-44.8	-57.2	3.8	1.49e+00	0	62	104	1753219072	60	15673
2026-01-19 09:33:30.46	348.28	7.37	-45.2	-57.7	3.8	1.49e+00	0	62	104	1753219072	61	15614
2026-01-19 09:33:34.50	348.15	7.06	-45.0	-57.7	3.8	1.49e+00	0	62	104	1753219072	61	15650
2026-01-19 09:33:38.54	348.03	6.76	-45.3	-57.6	3.8	1.49e+00	0	62	104	1753219072	61	15471
2026-01-19 09:33:42.58	347.90	6.46	-45.2	-57.5	3.8	1.49e+00	0	62	104	1753219072	60	16272
2026-01-19 09:33:46.62	347.78	6.16	-45.1	-57.5	3.8	1.49e+00	0	62	104	1753219072	61	15370
2026-01-19 09:33:50.66	347.66	5.87	-45.2	-57.5	3.8	1.49e+00	0	62	104	1753219072	60	16234
2026-01-19 09:33:54.70	347.55	5.58	-45.2	-57.5	3.8	1.49e+00	0	63	104	1753219072	60	16219
2026-01-19 09:33:58.74	347.43	5.29	-45.2	-57.5	3.8	1.49e+00	0	62	104	1753219072	60	16259
2026-01-19 09:34:02.77	347.32	5.01	-45.2	-57.5	3.8	1.49e+00	0	62	104	1753219072	60	16160
2026-01-19 09:34:06.81	347.21	4.73	-45.2	-57.5	3.8	1.49e+00	0	62	104	1753219072	60	16157
2026-01-19 09:34:10.85	347.11	4.45	-45.2	-57.5	3.8	1.49e+00	0	62	104	1753219072	60	16171
2026-01-19 09:34:14.89	347.00	4.18	-45.2	-57.5	3.8	1.49e+00	0	62	104	1753219072	60	16177
2026-01-19 09:34:18.93	346.90	3.90	-45.2	-57.5	3.8	1.49e+00	0	62	104	1753219072	60	16201
2026-01-19 09:34:22.97	346.80	3.63	-45.1	-57.5	3.8	1.49e+00	0	62	104	1753219072	60	16146
2026-01-19 09:34:27.00	346.71	3.37	-45.1	-57.5	3.8	1.49e+00	0	62	104	1753219072	60	16144
2026-01-19 09:34:31.04	346.61	3.10	-45.1	-57.4	3.8	1.49e+00	0	62	104	1753219072	60	16112
2026-01-19 09:34:35.09	346.52	2.84	-45.2	-57.5	3.8	1.49e+00	0	62	104	1753219072	60	16151
2026-01-19 09:34:39.13	346.43	2.58	-45.0	-57.4	3.8	1.49e+00	0	62	104	1753219072	60	16126
2026-01-19 09:34:43.17	346.34	2.32	-45.1	-57.5	3.8	1.49e+00	0	62	104	1753219072	60	16158
2026-01-19 09:34:47.21	346.25	2.06	-45.1	-57.5	3.8	1.49e+00	0	62	104	1753219072	60	16169

#Closed at: 2026-01-19 09:34:50
#Recorded file [1753 MB]: D:/lorett/data/31039_260119_122038.dat