passes_logs/2026/01/19/R2.0S_Moscow/R2.0S_Moscow__20260119_101044_NOAA_20_JPSS-1_rec.log

#Pass ID: 20260119_101044_NOAA 20 (JPSS-1)
#Satellite: NOAA 20 (JPSS-1)
#Configuration: NOAA 20
#almurnet v.1.7.20251203
#Start time: 2026-01-19 10:10:45

#Version: 2.2.20231116
#Station: R2.0S_Moscow
#Location: 37.707566 lon 55.798166 lat
#TLE: 1 43013U 17073A   26017.93796159  .00000077  00000+0  57252-4 0  9992
#TLE: 2 43013  98.7639 318.8464 0001390  34.9771 325.1496 14.19536703423157

#Time	Az	El	Level	Level2	SNR	BER	BlckErr	Temp	State	Recorded	gain1	gain2
2026-01-19 10:10:45.75	168.12	2.11	-43.9	-58.3	3.8	1.49e+00	0	54	0	0	59	18916
2026-01-19 10:10:49.78	168.17	2.37	-43.9	-58.4	3.8	1.49e+00	0	54	104	0	59	18965
2026-01-19 10:10:53.81	168.23	2.63	-43.9	-58.3	3.8	1.49e+00	0	55	104	0	59	18925
2026-01-19 10:10:57.85	168.29	2.89	-43.9	-58.3	3.8	1.49e+00	0	55	104	0	59	18896
2026-01-19 10:11:01.89	168.35	3.16	-43.9	-58.3	3.8	1.49e+00	0	55	104	0	59	18889
2026-01-19 10:11:05.93	168.41	3.43	-43.9	-58.3	3.8	1.49e+00	0	55	104	0	59	18845
2026-01-19 10:11:09.98	168.47	3.71	-43.9	-58.3	3.8	1.49e+00	0	56	104	0	59	18901
2026-01-19 10:11:14.02	168.54	3.99	-43.9	-58.3	3.8	1.49e+00	0	56	104	0	59	18921
2026-01-19 10:11:18.06	168.60	4.26	-43.9	-58.2	3.8	1.49e+00	0	56	104	0	59	18570
2026-01-19 10:11:22.10	168.66	4.55	-43.9	-57.8	3.8	1.49e+00	0	56	104	0	59	17797
2026-01-19 10:11:26.15	168.73	4.83	-43.8	-57.1	3.8	1.49e+00	0	57	104	0	59	16344
2026-01-19 10:11:30.19	168.80	5.12	-43.8	-56.5	3.8	1.49e+00	0	57	104	0	58	16314
2026-01-19 10:11:34.23	168.86	5.41	-43.7	-55.9	3.9	1.48e+00	0	57	104	0	58	15121
2026-01-19 10:11:38.27	168.93	5.71	-43.7	-55.7	3.9	1.47e+00	0	57	104	0	58	14742
2026-01-19 10:11:42.31	169.00	6.01	-43.7	-55.5	4.0	1.48e+00	0	57	104	0	58	14421
2026-01-19 10:11:46.36	169.08	6.31	-43.7	-55.8	3.9	1.48e+00	0	58	104	0	58	14925
2026-01-19 10:11:50.40	169.15	6.61	-43.8	-56.3	3.8	1.48e+00	0	58	104	0	58	15935
2026-01-19 10:11:54.44	169.22	6.92	-43.7	-55.6	4.0	1.47e+00	0	58	104	0	58	14570
2026-01-19 10:11:58.48	169.30	7.23	-43.5	-53.2	4.8	8.99e-01	0	58	0	2097152	58	11049
2026-01-19 10:12:02.52	169.37	7.55	-43.0	-50.2	6.8	2.02e-01	0	58	0	10485760	58	7860
2026-01-19 10:12:06.56	169.45	7.87	-42.6	-48.9	8.1	5.83e-02	0	59	0	17825792	57	7126
2026-01-19 10:12:10.61	169.53	8.20	-44.0	-55.3	4.1	1.49e+00	0	59	104	23068672	58	14200
2026-01-19 10:12:14.65	169.61	8.52	-42.7	-48.5	8.8	6.26e-02	0	59	0	26214400	57	6834
2026-01-19 10:12:18.69	169.70	8.86	-42.5	-47.9	9.4	1.85e-02	0	59	0	34603008	57	6395
2026-01-19 10:12:22.72	169.78	9.19	-42.5	-47.7	9.5	1.28e-02	0	59	0	41943040	56	6644
2026-01-19 10:12:26.76	169.87	9.53	-42.5	-47.6	9.8	1.10e-02	0	59	0	49283072	56	6561
2026-01-19 10:12:30.79	169.96	9.88	-42.4	-47.3	10.1	6.94e-03	0	59	0	56623104	56	6329
2026-01-19 10:12:34.83	170.05	10.23	-42.4	-47.3	10.1	6.77e-03	0	59	0	63963136	56	6337
2026-01-19 10:12:38.87	170.14	10.59	-42.3	-47.1	10.4	4.69e-03	0	60	0	72351744	56	6140
2026-01-19 10:12:42.91	170.23	10.95	-42.3	-47.0	10.6	3.74e-03	0	60	0	79691776	56	6104
2026-01-19 10:12:46.95	170.33	11.32	-42.3	-46.9	10.7	3.18e-03	0	59	0	87031808	56	6002
2026-01-19 10:12:50.98	170.43	11.69	-42.3	-46.9	10.7	2.59e-03	0	60	0	94371840	56	6032
2026-01-19 10:12:55.02	170.53	12.07	-42.3	-46.9	10.8	2.41e-03	0	60	0	102760448	56	5996
2026-01-19 10:12:59.06	170.63	12.45	-42.2	-46.7	11.0	1.65e-03	0	60	0	110100480	56	5877
2026-01-19 10:13:03.09	170.73	12.84	-42.2	-46.6	11.1	1.42e-03	0	60	0	117440512	56	5819
2026-01-19 10:13:07.13	170.84	13.24	-42.2	-46.6	11.2	1.47e-03	0	60	0	124780544	56	5822
2026-01-19 10:13:11.17	170.95	13.64	-42.2	-46.4	11.4	9.92e-04	0	60	0	132120576	56	5687
2026-01-19 10:13:15.21	171.07	14.05	-42.2	-46.4	11.5	9.10e-04	0	60	0	140509184	56	5667
2026-01-19 10:13:19.24	171.18	14.47	-42.1	-46.2	11.6	6.44e-04	0	60	0	147849216	56	5586
2026-01-19 10:13:23.28	171.30	14.89	-42.1	-46.3	11.6	5.45e-04	0	60	0	155189248	56	5598
2026-01-19 10:13:27.32	171.42	15.32	-42.1	-46.1	11.8	4.45e-04	0	60	0	162529280	56	5483
2026-01-19 10:13:31.36	171.55	15.76	-42.1	-46.1	11.9	3.88e-04	0	60	0	170917888	56	5495
2026-01-19 10:13:35.39	171.68	16.21	-42.1	-46.1	11.9	4.26e-04	0	60	0	178257920	56	5492
2026-01-19 10:13:39.43	171.81	16.66	-42.1	-46.2	11.8	3.78e-04	0	60	0	185597952	56	5539
2026-01-19 10:13:43.47	171.94	17.13	-42.2	-46.3	11.7	5.57e-04	0	61	0	192937984	56	5607
2026-01-19 10:13:47.51	172.08	17.60	-42.2	-46.2	11.8	4.88e-04	0	61	0	200278016	56	5551
2026-01-19 10:13:51.55	172.23	18.08	-42.3	-46.4	11.6	6.96e-04	0	61	0	208666624	56	5678
2026-01-19 10:13:55.59	172.38	18.57	-42.3	-46.5	11.5	6.77e-04	0	61	0	216006656	56	5765
2026-01-19 10:13:59.63	172.53	19.07	-42.4	-46.7	11.3	1.14e-03	0	61	0	223346688	56	5906
2026-01-19 10:14:03.66	172.69	19.58	-42.4	-46.7	11.3	1.10e-03	0	61	0	230686720	56	5906
2026-01-19 10:14:07.70	172.85	20.11	-42.5	-46.9	11.1	1.51e-03	0	61	0	239075328	56	6053
2026-01-19 10:14:11.74	173.02	20.64	-42.6	-47.1	10.9	2.20e-03	0	61	0	246415360	56	6200
2026-01-19 10:14:15.78	173.19	21.18	-42.7	-47.3	10.7	3.00e-03	0	61	0	253755392	56	6345
2026-01-19 10:14:19.81	173.37	21.74	-42.8	-47.5	10.6	3.78e-03	0	61	0	261095424	56	6446
2026-01-19 10:14:23.85	173.55	22.30	-42.8	-47.5	10.5	4.30e-03	0	61	0	268435456	56	6488
2026-01-19 10:14:27.89	173.74	22.89	-42.8	-47.4	10.7	2.98e-03	0	61	0	276824064	56	6411
2026-01-19 10:14:31.93	173.94	23.48	-42.7	-47.3	10.8	2.46e-03	0	61	0	284164096	56	6299
2026-01-19 10:14:35.97	174.15	24.09	-42.7	-47.2	10.9	2.19e-03	0	61	0	291504128	56	6257
2026-01-19 10:14:40.01	174.36	24.71	-42.5	-46.7	11.5	9.01e-04	0	61	0	298844160	56	5869
2026-01-19 10:14:44.05	174.58	25.35	-42.4	-46.5	11.7	5.61e-04	0	61	0	307232768	56	5760
2026-01-19 10:14:48.08	174.81	26.00	-42.4	-46.5	11.8	5.19e-04	0	61	0	314572800	56	5727
2026-01-19 10:14:52.12	175.05	26.66	-42.5	-46.6	11.6	7.26e-04	0	62	0	321912832	56	5850
2026-01-19 10:14:56.16	175.30	27.35	-42.6	-46.9	11.3	1.01e-03	0	61	0	329252864	56	6040
2026-01-19 10:15:00.20	175.56	28.05	-42.9	-47.6	10.6	3.13e-03	0	62	0	336592896	56	6517
2026-01-19 10:15:04.23	175.83	28.76	-43.0	-47.8	10.4	4.88e-03	0	61	0	344981504	56	6679
2026-01-19 10:15:08.27	176.11	29.50	-43.2	-48.3	9.9	8.55e-03	0	61	0	352321536	56	7083
2026-01-19 10:15:12.31	176.41	30.25	-43.3	-48.6	9.6	1.20e-02	0	61	0	359661568	57	6885
2026-01-19 10:15:16.34	176.71	31.03	-43.4	-48.7	9.5	1.31e-02	0	62	0	367001600	57	6980
2026-01-19 10:15:20.38	177.04	31.82	-43.3	-48.6	9.5	1.39e-02	0	61	0	374341632	57	6927
2026-01-19 10:15:24.42	177.38	32.64	-43.2	-48.4	9.9	9.59e-03	0	61	0	382730240	57	6727
2026-01-19 10:15:28.45	177.73	33.47	-43.0	-47.8	10.4	5.37e-03	0	61	0	390070272	57	6319
2026-01-19 10:15:32.50	178.11	34.34	-42.7	-47.0	11.3	1.14e-03	0	62	0	397410304	57	5740
2026-01-19 10:15:36.53	178.50	35.22	-42.6	-46.8	11.5	7.90e-04	0	62	0	404750336	57	5633
2026-01-19 10:15:40.57	178.92	36.12	-42.6	-46.8	11.5	8.67e-04	0	62	0	413138944	57	5617
2026-01-19 10:15:44.61	179.35	37.06	-42.6	-46.7	11.7	4.49e-04	0	61	0	420478976	56	5868
2026-01-19 10:15:48.64	179.82	38.01	-42.8	-47.1	11.2	1.28e-03	0	62	0	427819008	56	6162
2026-01-19 10:15:52.69	180.31	38.99	-42.7	-47.0	11.3	1.25e-03	0	62	0	435159040	56	6110
2026-01-19 10:15:56.72	180.83	40.00	-43.0	-47.6	10.7	2.42e-03	0	62	0	442499072	56	6497
2026-01-19 10:16:00.76	181.38	41.04	-43.2	-48.2	10.1	7.45e-03	0	62	0	450887680	57	6622
2026-01-19 10:16:04.80	181.97	42.10	-43.0	-47.6	10.8	2.42e-03	0	62	0	458227712	57	6163
2026-01-19 10:16:08.84	182.60	43.19	-43.3	-48.3	9.9	9.09e-03	0	62	0	465567744	57	6707
2026-01-19 10:16:12.87	183.28	44.31	-43.2	-48.2	10.0	6.72e-03	0	62	0	472907776	57	6613
2026-01-19 10:16:16.91	184.00	45.45	-43.6	-49.1	9.1	1.97e-02	0	62	0	481296384	57	7359
2026-01-19 10:16:20.95	184.77	46.63	-43.6	-49.2	9.0	2.21e-02	0	62	0	488636416	57	7419
2026-01-19 10:16:24.99	185.61	47.83	-43.7	-49.3	8.9	3.17e-02	0	62	0	495976448	58	7107
2026-01-19 10:16:29.03	186.51	49.06	-43.1	-47.9	10.5	3.81e-03	0	62	0	503316480	58	6011
2026-01-19 10:16:33.06	187.49	50.32	-42.8	-47.1	11.2	1.69e-03	0	62	0	510656512	57	5829
2026-01-19 10:16:37.10	188.55	51.60	-41.7	-45.1	13.2	4.42e-05	0	62	0	519045120	55	5193
2026-01-19 10:16:41.14	189.71	52.91	-41.2	-44.2	14.1	2.20e-06	0	62	0	526385152	54	4975
2026-01-19 10:16:45.18	190.97	54.24	-40.8	-43.7	14.7	0.00e+00	0	62	0	533725184	53	4937
2026-01-19 10:16:49.21	192.36	55.59	-41.1	-44.1	14.3	0.00e+00	0	62	0	541065216	53	5174
2026-01-19 10:16:53.25	193.88	56.95	-41.6	-44.9	13.4	7.60e-06	0	62	0	549453824	53	5693
2026-01-19 10:16:57.28	195.56	58.33	-41.5	-44.6	13.6	6.10e-06	0	62	0	556793856	53	5527
2026-01-19 10:17:01.32	197.43	59.71	-41.1	-43.9	14.4	0.00e+00	0	62	0	564133888	53	5084
2026-01-19 10:17:05.36	199.51	61.10	-40.6	-43.1	15.4	0.00e+00	0	62	0	571473920	51	5181
2026-01-19 10:17:09.40	201.82	62.48	-40.5	-43.0	15.5	0.00e+00	0	62	0	578813952	51	5127
2026-01-19 10:17:13.44	204.41	63.84	-40.7	-43.3	15.1	0.00e+00	0	62	0	587202560	51	5338
2026-01-19 10:17:17.48	207.32	65.18	-42.0	-45.6	12.6	7.78e-05	0	62	0	594542592	54	5834
2026-01-19 10:17:21.52	210.59	66.47	-42.7	-47.0	11.2	8.54e-04	0	62	0	601882624	55	6463
2026-01-19 10:17:25.56	214.27	67.70	-42.7	-46.9	11.4	1.39e-03	0	62	0	609222656	56	6034
2026-01-19 10:17:29.60	218.40	68.86	-43.0	-47.8	10.6	3.02e-03	0	62	0	617611264	56	6668
2026-01-19 10:17:33.64	223.02	69.92	-43.1	-47.7	10.6	3.78e-03	0	62	0	624951296	57	6269
2026-01-19 10:17:37.68	228.16	70.85	-43.2	-48.2	10.1	5.65e-03	0	62	0	632291328	57	6608
2026-01-19 10:17:41.71	233.79	71.63	-43.0	-47.5	10.9	3.60e-03	0	62	0	639631360	57	6070
2026-01-19 10:17:45.75	239.90	72.23	-43.0	-47.6	10.7	3.29e-03	0	62	0	646971392	56	6557
2026-01-19 10:17:49.79	246.39	72.63	-42.4	-46.5	11.7	5.27e-04	0	62	0	655360000	55	6112
2026-01-19 10:17:53.83	253.11	72.82	-41.8	-45.3	13.0	5.26e-05	0	62	0	662700032	54	5609
2026-01-19 10:17:57.86	259.87	72.78	-41.7	-45.0	13.3	5.30e-06	0	62	0	670040064	53	5772
2026-01-19 10:18:01.90	266.52	72.51	-41.5	-45.4	12.8	4.42e-05	0	62	0	677380096	54	5720
2026-01-19 10:18:05.94	272.88	72.03	-42.8	-47.0	11.3	1.59e-03	0	62	0	685768704	56	6100
2026-01-19 10:18:09.98	278.82	71.36	-42.5	-46.7	11.5	7.87e-04	0	62	0	693108736	55	6256
2026-01-19 10:18:14.02	284.27	70.52	-42.7	-46.7	11.6	2.07e-03	0	62	0	700448768	56	5919
2026-01-19 10:18:18.05	289.20	69.54	-43.1	-47.8	10.5	5.61e-03	0	62	0	707788800	57	6313
2026-01-19 10:18:22.09	293.63	68.45	-43.4	-48.5	9.8	5.54e-03	0	62	0	715128832	57	6848
2026-01-19 10:18:26.13	297.58	67.26	-43.6	-49.4	8.8	3.85e-02	0	62	0	723517440	58	7187
2026-01-19 10:18:30.17	301.10	66.01	-43.7	-49.2	9.0	5.61e-02	0	62	0	730857472	58	7028
2026-01-19 10:18:34.20	304.22	64.70	-42.7	-46.8	11.6	1.58e-03	0	62	0	738197504	57	5599
2026-01-19 10:18:38.25	307.01	63.36	-40.9	-43.7	14.6	0.00e+00	0	62	0	745537536	53	4963
2026-01-19 10:18:42.28	309.49	62.00	-39.3	-41.3	17.1	0.00e+00	0	62	0	752877568	50	4468
2026-01-19 10:18:46.32	311.71	60.62	-40.4	-42.9	15.5	0.00e+00	0	62	0	761266176	51	5095
2026-01-19 10:18:50.35	313.70	59.24	-42.2	-46.0	12.3	3.43e-05	0	62	0	768606208	54	6063
2026-01-19 10:18:54.39	315.49	57.86	-42.1	-45.9	12.3	7.62e-05	0	62	0	775946240	55	5661
2026-01-19 10:18:58.43	317.11	56.49	-40.6	-43.3	14.9	3.00e-06	0	62	0	783286272	53	4735
2026-01-19 10:19:02.46	318.58	55.14	-41.8	-45.2	13.1	1.37e-05	0	62	0	791674880	54	5556
2026-01-19 10:19:06.50	319.92	53.80	-39.5	-41.6	16.8	0.00e+00	0	62	0	799014912	51	4369
2026-01-19 10:19:10.54	321.15	52.49	-41.1	-44.0	14.4	2.20e-06	0	62	0	806354944	53	5118
2026-01-19 10:19:14.58	322.27	51.19	-41.0	-43.8	14.6	0.00e+00	0	62	0	813694976	52	5326
2026-01-19 10:19:18.61	323.29	49.93	-43.2	-47.9	10.5	4.60e-03	0	62	0	821035008	56	6737
2026-01-19 10:19:22.65	324.24	48.68	-43.0	-47.5	10.9	7.63e-04	0	62	0	829423616	56	6467
2026-01-19 10:19:26.69	325.12	47.47	-43.5	-48.8	9.4	2.26e-02	0	62	0	836763648	58	6703
2026-01-19 10:19:30.73	325.94	46.28	-42.6	-46.4	11.9	5.32e-04	0	62	0	844103680	57	5397
2026-01-19 10:19:34.76	326.69	45.12	-43.4	-48.6	9.6	7.60e-03	0	62	0	851443712	57	6952
2026-01-19 10:19:38.80	327.40	43.99	-41.7	-45.0	13.3	3.96e-05	0	62	0	859832320	55	5128
2026-01-19 10:19:42.84	328.05	42.89	-42.0	-45.5	12.8	3.50e-05	0	62	0	867172352	54	5739
2026-01-19 10:19:46.88	328.67	41.81	-42.9	-47.3	11.1	2.45e-03	0	62	0	874512384	57	5924
2026-01-19 10:19:50.92	329.25	40.76	-41.6	-44.8	13.5	6.80e-06	0	62	0	881852416	55	5007
2026-01-19 10:19:54.95	329.79	39.74	-42.9	-47.4	11.0	1.27e-03	0	62	0	889192448	56	6349
2026-01-19 10:19:58.99	330.30	38.75	-42.7	-46.8	11.5	1.10e-03	0	62	0	897581056	57	5617
2026-01-19 10:20:03.03	330.78	37.78	-41.7	-45.1	13.2	2.13e-05	0	62	0	904921088	55	5168
2026-01-19 10:20:07.07	331.24	36.84	-42.4	-46.4	11.8	3.09e-04	0	62	0	912261120	55	6001
2026-01-19 10:20:11.11	331.67	35.92	-42.9	-47.4	11.0	2.55e-03	0	62	0	919601152	56	6358
2026-01-19 10:20:15.14	332.08	35.03	-42.7	-46.9	11.5	8.53e-04	0	62	0	927989760	56	6002
2026-01-19 10:20:19.18	332.47	34.15	-42.3	-46.1	12.2	1.59e-04	0	62	0	935329792	56	5501
2026-01-19 10:20:23.22	332.83	33.31	-42.8	-47.2	11.0	1.38e-03	0	62	0	942669824	56	6258
2026-01-19 10:20:27.25	333.19	32.48	-43.4	-48.8	9.4	1.40e-02	0	62	0	950009856	57	7073
2026-01-19 10:20:31.29	333.52	31.68	-43.4	-48.8	9.4	1.50e-02	0	62	0	957349888	57	7066
2026-01-19 10:20:35.33	333.84	30.89	-43.0	-47.8	10.4	5.73e-03	0	62	0	965738496	57	6278
2026-01-19 10:20:39.37	334.15	30.13	-42.8	-47.3	10.9	2.28e-03	0	62	0	973078528	57	5951
2026-01-19 10:20:43.41	334.44	29.38	-42.6	-46.8	11.4	8.84e-04	0	62	0	980418560	57	5620
2026-01-19 10:20:47.44	334.72	28.66	-42.6	-46.9	11.3	8.32e-04	0	62	0	987758592	57	5679
2026-01-19 10:20:51.48	334.99	27.95	-42.6	-46.8	11.3	1.17e-03	0	62	0	996147200	57	5648
2026-01-19 10:20:55.52	335.24	27.26	-42.2	-46.0	12.2	2.51e-04	0	62	0	1003487232	56	5447
2026-01-19 10:20:59.55	335.49	26.58	-41.4	-44.7	13.3	2.21e-05	0	62	0	1010827264	54	5276
2026-01-19 10:21:03.59	335.73	25.92	-41.2	-44.4	13.6	8.30e-06	0	62	0	1018167296	54	5094
2026-01-19 10:21:07.63	335.96	25.28	-41.4	-44.7	13.3	1.44e-05	0	62	0	1025507328	54	5237
2026-01-19 10:21:11.67	336.18	24.65	-41.6	-45.1	12.8	6.17e-05	0	62	0	1033895936	54	5499
2026-01-19 10:21:15.71	336.39	24.04	-41.6	-45.3	12.6	8.39e-05	0	62	0	1041235968	54	5599
2026-01-19 10:21:19.75	336.60	23.44	-41.5	-45.1	12.7	6.56e-05	0	62	0	1048576000	54	5480
2026-01-19 10:21:23.79	336.79	22.85	-41.3	-44.7	13.0	4.04e-05	0	62	0	1055916032	54	5256
2026-01-19 10:21:27.82	336.99	22.28	-41.2	-44.6	13.1	3.35e-05	0	62	0	1064304640	54	5185
2026-01-19 10:21:31.86	337.17	21.72	-41.2	-44.6	12.9	5.41e-05	0	62	0	1071644672	54	5199
2026-01-19 10:21:35.90	337.35	21.17	-41.2	-44.9	12.5	9.23e-05	0	62	0	1078984704	54	5364
2026-01-19 10:21:39.94	337.52	20.63	-41.2	-45.0	12.2	2.27e-04	0	62	0	1086324736	54	5429
2026-01-19 10:21:43.97	337.69	20.10	-41.1	-45.0	11.9	3.84e-04	0	62	0	1093664768	54	5462
2026-01-19 10:21:48.01	337.86	19.59	-40.7	-44.3	12.5	1.17e-04	0	62	0	1102053376	53	5337
2026-01-19 10:21:52.05	338.01	19.08	-40.5	-44.0	12.8	7.24e-05	0	62	0	1109393408	52	5441
2026-01-19 10:21:56.08	338.17	18.59	-40.4	-44.0	12.6	7.01e-05	0	62	0	1116733440	52	5424
2026-01-19 10:22:00.12	338.32	18.10	-40.5	-44.3	12.2	1.87e-04	0	62	0	1124073472	52	5600
2026-01-19 10:22:04.16	338.46	17.62	-40.6	-44.7	11.6	6.62e-04	0	62	0	1132462080	52	5899
2026-01-19 10:22:08.20	338.60	17.16	-40.8	-45.4	10.7	2.30e-03	0	62	0	1139802112	52	6417
2026-01-19 10:22:12.24	338.74	16.70	-41.1	-46.4	9.5	1.38e-02	0	62	0	1147142144	52	7178
2026-01-19 10:22:16.28	338.88	16.25	-41.3	-47.5	8.3	4.98e-02	0	62	0	1154482176	53	7636
2026-01-19 10:22:20.32	339.01	15.80	-41.6	-48.7	7.0	1.44e-01	0	62	0	1161822208	53	8825
2026-01-19 10:22:24.35	339.13	15.37	-41.9	-50.1	5.8	7.88e-01	0	62	0	1170210816	55	9269
2026-01-19 10:22:28.39	339.26	14.94	-41.7	-51.1	5.0	6.80e-01	0	62	0	1170210816	55	10374
2026-01-19 10:22:32.43	339.38	14.52	-41.6	-51.4	4.8	8.11e-01	0	62	0	1178599424	55	10758
2026-01-19 10:22:36.47	339.50	14.11	-41.3	-55.1	3.8	1.49e+00	0	62	104	1180696576	54	17439
2026-01-19 10:22:40.51	339.61	13.70	-41.6	-54.1	3.8	1.48e+00	0	62	104	1180696576	54	15485
2026-01-19 10:22:44.55	339.73	13.30	-41.4	-55.0	3.8	1.49e+00	0	62	104	1180696576	54	17213
2026-01-19 10:22:48.58	339.84	12.91	-41.3	-54.5	3.8	1.49e+00	0	62	104	1180696576	54	16219
2026-01-19 10:22:52.62	339.95	12.52	-41.0	-55.5	3.8	1.49e+00	0	62	104	1180696576	53	19361
2026-01-19 10:22:56.66	340.05	12.14	-41.3	-55.0	3.8	1.49e+00	0	62	104	1180696576	53	18290
2026-01-19 10:23:00.69	340.15	11.77	-41.3	-55.4	3.8	1.49e+00	0	62	104	1180696576	53	19159
2026-01-19 10:23:04.73	340.26	11.40	-41.3	-55.2	3.8	1.49e+00	0	62	104	1180696576	53	18553
2026-01-19 10:23:08.76	340.35	11.04	-41.2	-55.4	3.8	1.49e+00	0	62	104	1180696576	53	18969
2026-01-19 10:23:12.80	340.45	10.68	-41.1	-55.4	3.8	1.49e+00	0	62	104	1180696576	52	20251
2026-01-19 10:23:16.84	340.55	10.32	-41.0	-55.5	3.8	1.49e+00	0	62	104	1180696576	52	20322
2026-01-19 10:23:20.87	340.64	9.98	-40.9	-55.5	3.8	1.49e+00	0	62	104	1180696576	52	20348
2026-01-19 10:23:24.91	340.73	9.63	-40.8	-55.4	3.8	1.49e+00	0	62	104	1180696576	52	20255
2026-01-19 10:23:28.95	340.82	9.29	-40.8	-55.5	3.8	1.49e+00	0	62	104	1180696576	52	20318
2026-01-19 10:23:32.98	340.91	8.96	-40.8	-55.4	3.8	1.49e+00	0	62	104	1180696576	52	20299
2026-01-19 10:23:37.02	341.00	8.63	-40.9	-55.5	3.8	1.49e+00	0	62	104	1180696576	52	20394
2026-01-19 10:23:41.06	341.08	8.30	-40.9	-55.5	3.8	1.49e+00	0	62	104	1180696576	52	20394
2026-01-19 10:23:45.09	341.17	7.98	-41.9	-56.4	3.8	1.49e+00	0	62	104	1180696576	54	20245
2026-01-19 10:23:49.13	341.25	7.66	-45.1	-59.7	3.8	1.49e+00	0	62	104	1180696576	60	20882
2026-01-19 10:23:53.18	341.33	7.35	-45.3	-59.9	3.8	1.49e+00	0	62	104	1180696576	61	20267
2026-01-19 10:23:57.21	341.41	7.04	-45.2	-59.8	3.8	1.49e+00	0	62	104	1180696576	61	19970
2026-01-19 10:24:01.26	341.49	6.73	-45.1	-59.7	3.8	1.49e+00	0	62	104	1180696576	61	19750
2026-01-19 10:24:05.30	341.56	6.43	-45.2	-59.7	3.8	1.49e+00	0	62	104	1180696576	60	20968
2026-01-19 10:24:09.34	341.64	6.13	-45.2	-59.7	3.8	1.49e+00	0	62	104	1180696576	60	20941
2026-01-19 10:24:13.38	341.71	5.83	-45.2	-59.7	3.8	1.49e+00	0	62	104	1180696576	60	20922
2026-01-19 10:24:17.42	341.79	5.54	-45.2	-59.7	3.8	1.49e+00	0	62	104	1180696576	60	20954
2026-01-19 10:24:21.46	341.86	5.25	-45.1	-59.7	3.8	1.49e+00	0	62	104	1180696576	60	20809
2026-01-19 10:24:25.51	341.93	4.97	-45.2	-59.7	3.8	1.49e+00	0	62	104	1180696576	60	20901
2026-01-19 10:24:29.55	342.00	4.68	-45.2	-59.7	3.8	1.49e+00	0	62	104	1180696576	60	20828
2026-01-19 10:24:33.59	342.07	4.40	-45.1	-59.7	3.8	1.49e+00	0	62	104	1180696576	60	20802
2026-01-19 10:24:37.63	342.14	4.12	-45.1	-59.7	3.8	1.49e+00	0	62	104	1180696576	60	20787
2026-01-19 10:24:41.67	342.21	3.85	-45.1	-59.7	3.8	1.49e+00	0	62	104	1180696576	60	20831
2026-01-19 10:24:45.72	342.27	3.58	-45.1	-59.7	3.8	1.49e+00	0	62	104	1180696576	60	20818
2026-01-19 10:24:49.76	342.34	3.31	-45.1	-59.7	3.8	1.49e+00	0	62	104	1180696576	60	20854
2026-01-19 10:24:53.80	342.40	3.04	-45.0	-59.7	3.8	1.49e+00	0	62	104	1180696576	60	20797
2026-01-19 10:24:57.84	342.47	2.78	-45.1	-59.7	3.8	1.49e+00	0	62	104	1180696576	60	20816
2026-01-19 10:25:01.88	342.53	2.52	-45.1	-59.7	3.8	1.49e+00	0	62	104	1180696576	60	20823
2026-01-19 10:25:05.92	342.59	2.26	-45.1	-59.6	3.8	1.49e+00	0	62	104	1180696576	60	20752
2026-01-19 10:25:09.96	342.66	2.00	-45.1	-59.6	3.8	1.49e+00	0	62	104	1180696576	60	20766

#Closed at: 2026-01-19 10:25:13
#Recorded file [1180 MB]: D:/lorett/data/31039_260119_131045.dat