passes_logs/2026/01/19/R2.0S_Moscow/R2.0S_Moscow__20260119_083134_NOAA_20_JPSS-1_rec.log

#Pass ID: 20260119_083134_NOAA 20 (JPSS-1)
#Satellite: NOAA 20 (JPSS-1)
#Configuration: NOAA 20
#almurnet v.1.7.20251203
#Start time: 2026-01-19 08:31:35

#Version: 2.2.20231116
#Station: R2.0S_Moscow
#Location: 37.707566 lon 55.798166 lat
#TLE: 1 43013U 17073A   26017.93796159  .00000077  00000+0  57252-4 0  9992
#TLE: 2 43013  98.7639 318.8464 0001390  34.9771 325.1496 14.19536703423157

#Time	Az	El	Level	Level2	SNR	BER	BlckErr	Temp	State	Recorded	gain1	gain2
2026-01-19 08:31:35.68	119.72	2.05	-20.9	-36.4	3.9	1.50e+00	0	53	0	0	14	20147
2026-01-19 08:31:39.71	119.49	2.29	-22.9	-38.2	3.9	1.50e+00	0	53	104	0	14	24720
2026-01-19 08:31:43.75	119.26	2.53	-17.1	-35.5	3.6	1.50e+00	0	53	104	0	9	24269
2026-01-19 08:31:47.80	119.02	2.77	-23.2	-40.9	3.9	1.50e+00	0	54	104	0	18	26820
2026-01-19 08:31:51.84	118.77	3.01	-20.1	-35.5	3.9	1.50e+00	0	54	104	0	11	21625
2026-01-19 08:31:55.88	118.53	3.26	-23.2	-39.1	4.0	1.50e+00	0	54	104	0	14	27562
2026-01-19 08:31:59.92	118.27	3.50	-23.5	-39.7	3.8	1.49e+00	0	54	104	0	16	26345
2026-01-19 08:32:03.96	118.02	3.75	-18.4	-35.2	3.8	1.50e+00	0	55	104	0	9	23499
2026-01-19 08:32:08.00	117.76	4.00	-23.4	-37.3	3.8	1.50e+00	0	55	104	0	11	26550
2026-01-19 08:32:12.04	117.49	4.25	-17.8	-36.2	3.9	1.50e+00	0	55	104	0	11	23579
2026-01-19 08:32:16.08	117.22	4.51	-16.4	-31.6	3.8	1.50e+00	0	55	104	0	3	21798
2026-01-19 08:32:20.12	116.95	4.76	-18.7	-34.2	3.8	1.50e+00	0	55	104	0	6	24745
2026-01-19 08:32:24.15	116.67	5.02	-19.0	-34.6	3.8	1.50e+00	0	56	104	0	14	16416
2026-01-19 08:32:28.19	116.38	5.28	-19.2	-35.0	3.9	1.50e+00	0	56	104	0	10	21613
2026-01-19 08:32:32.23	116.09	5.54	-18.5	-35.1	3.6	1.50e+00	0	56	104	0	9	23103
2026-01-19 08:32:36.27	115.80	5.80	-18.5	-35.2	3.9	1.50e+00	0	56	104	0	12	19791
2026-01-19 08:32:40.31	115.49	6.06	-18.0	-35.1	3.9	1.50e+00	0	57	104	0	13	18362
2026-01-19 08:32:44.35	115.19	6.33	-20.5	-35.9	3.7	1.50e+00	0	57	104	0	11	22695
2026-01-19 08:32:48.39	114.87	6.60	-16.2	-33.0	4.2	1.50e+00	0	57	104	0	7	20398
2026-01-19 08:32:52.43	114.56	6.87	-15.4	-32.8	3.9	1.50e+00	0	57	104	0	11	15831
2026-01-19 08:32:56.47	114.23	7.14	-23.2	-37.2	3.9	1.50e+00	0	57	104	0	14	22074
2026-01-19 08:33:00.51	113.90	7.41	-24.0	-40.1	4.1	1.50e+00	0	57	104	0	14	30753
2026-01-19 08:33:04.55	113.56	7.69	-20.1	-36.5	4.1	1.50e+00	0	57	104	0	9	27359
2026-01-19 08:33:08.59	113.22	7.97	-20.0	-37.6	3.6	1.50e+00	0	58	104	0	9	30832
2026-01-19 08:33:12.63	112.87	8.25	-18.4	-34.7	3.8	1.50e+00	0	58	104	0	8	23555
2026-01-19 08:33:16.67	112.51	8.53	-21.0	-36.2	3.8	1.50e+00	0	58	104	0	11	23383
2026-01-19 08:33:20.71	112.14	8.81	-27.7	-40.0	3.9	1.50e+00	0	58	104	0	20	21718
2026-01-19 08:33:24.75	111.77	9.10	-21.0	-35.4	3.8	1.50e+00	0	58	104	0	12	20200
2026-01-19 08:33:28.79	111.39	9.39	-27.2	-44.8	4.0	1.50e+00	0	58	104	0	30	21178
2026-01-19 08:33:32.83	111.00	9.68	-27.0	-45.3	3.7	1.50e+00	0	58	104	0	25	29738
2026-01-19 08:33:36.87	110.60	9.97	-24.7	-47.5	3.6	1.47e+00	0	58	104	0	27	34464
2026-01-19 08:33:40.91	110.20	10.27	-29.0	-46.4	4.1	1.50e+00	0	59	104	0	26	32117
2026-01-19 08:33:44.95	109.78	10.56	-31.3	-48.2	4.5	1.43e+00	0	59	104	0	33	26289
2026-01-19 08:33:48.98	109.36	10.86	-25.6	-44.6	3.6	1.50e+00	0	59	104	0	19	39125
2026-01-19 08:33:53.02	108.93	11.16	-35.4	-52.3	4.5	1.10e+00	31	59	0	0	49	16759
2026-01-19 08:33:57.06	108.49	11.47	-36.7	-47.7	5.6	4.52e-01	27	59	0	1048576	42	14732
2026-01-19 08:34:01.10	108.04	11.77	-33.8	-47.0	5.6	6.30e-01	19	59	0	8388608	43	12892
2026-01-19 08:34:05.14	107.58	12.08	-39.6	-51.9	3.9	1.49e+00	0	59	104	11534336	39	28651
2026-01-19 08:34:09.17	107.12	12.39	-40.8	-51.1	5.2	1.26e+00	25	59	0	13631488	52	12302
2026-01-19 08:34:13.21	106.64	12.70	-38.0	-48.9	6.2	6.99e-01	5	59	0	19922944	47	12772
2026-01-19 08:34:17.25	106.15	13.02	-29.5	-48.2	3.9	1.23e+00	0	60	104	20971520	35	23451
2026-01-19 08:34:21.29	105.65	13.33	-36.1	-47.7	6.0	4.12e-01	9	59	0	26214400	45	12481
2026-01-19 08:34:25.33	105.14	13.65	-37.3	-47.5	6.5	1.78e-01	2	60	0	33554432	43	13701
2026-01-19 08:34:29.36	104.62	13.97	-37.8	-48.0	7.5	1.15e-01	0	60	0	40894464	47	11481
2026-01-19 08:34:33.40	104.08	14.29	-42.1	-47.4	9.7	9.95e-02	0	60	0	49283072	55	6785
2026-01-19 08:34:37.44	103.54	14.61	-42.5	-47.9	8.2	8.05e-02	0	60	0	56623104	49	10124
2026-01-19 08:34:41.47	102.98	14.94	-42.5	-47.7	9.5	5.06e-02	0	60	0	63963136	54	7411
2026-01-19 08:34:45.51	102.41	15.26	-41.7	-47.6	9.8	1.74e-02	0	60	0	71303168	55	6894
2026-01-19 08:34:49.55	101.83	15.59	-42.2	-47.2	10.1	2.50e-02	0	60	0	79691776	54	6985
2026-01-19 08:34:53.59	101.23	15.92	-42.2	-47.1	10.5	5.68e-03	0	60	0	87031808	54	6914
2026-01-19 08:34:57.62	100.62	16.25	-42.1	-46.6	11.1	5.15e-03	0	60	0	94371840	54	6537
2026-01-19 08:35:01.66	100.00	16.58	-41.2	-46.6	10.5	1.17e-02	0	60	0	101711872	52	7360
2026-01-19 08:35:05.70	99.36	16.91	-41.6	-47.3	10.2	3.78e-02	0	60	0	109051904	54	7070
2026-01-19 08:35:09.74	98.71	17.24	-41.9	-47.2	10.2	1.47e-02	0	60	0	117440512	53	7401
2026-01-19 08:35:13.78	98.04	17.58	-41.5	-47.0	10.2	1.54e-02	0	60	0	124780544	53	7273
2026-01-19 08:35:17.81	97.36	17.91	-42.2	-47.4	10.3	6.22e-03	0	60	0	132120576	55	6755
2026-01-19 08:35:21.85	96.66	18.25	-42.5	-47.2	10.6	2.95e-03	0	60	0	139460608	55	6640
2026-01-19 08:35:25.89	95.95	18.58	-42.3	-47.2	10.7	2.89e-03	0	60	0	147849216	55	6591
2026-01-19 08:35:29.92	95.22	18.91	-42.5	-47.3	10.5	4.65e-03	0	60	0	155189248	55	6702
2026-01-19 08:35:33.96	94.48	19.25	-42.4	-47.2	10.6	3.36e-03	0	60	0	162529280	55	6622
2026-01-19 08:35:38.00	93.72	19.58	-42.3	-47.0	10.9	2.09e-03	0	60	0	169869312	55	6423
2026-01-19 08:35:42.04	92.94	19.91	-42.3	-46.9	10.9	2.23e-03	0	60	0	177209344	55	6377
2026-01-19 08:35:46.07	92.15	20.24	-42.1	-46.6	11.1	1.79e-03	0	60	0	185597952	55	6194
2026-01-19 08:35:50.11	91.33	20.57	-41.9	-46.4	11.2	1.27e-03	0	60	0	192937984	55	5998
2026-01-19 08:35:54.15	90.50	20.90	-41.8	-46.2	11.3	1.12e-03	0	60	0	200278016	55	5907
2026-01-19 08:35:58.19	89.65	21.22	-41.7	-46.2	11.2	1.18e-03	0	61	0	207618048	55	5884
2026-01-19 08:36:02.23	88.79	21.55	-41.5	-45.6	11.9	4.33e-04	0	60	0	216006656	55	5494
2026-01-19 08:36:06.27	87.90	21.87	-41.7	-45.9	11.6	4.94e-04	0	60	0	223346688	55	5716
2026-01-19 08:36:10.30	87.00	22.18	-41.6	-45.8	11.7	5.65e-04	0	61	0	230686720	55	5624
2026-01-19 08:36:14.34	86.08	22.49	-41.5	-45.5	12.2	2.44e-04	0	61	0	238026752	55	5433
2026-01-19 08:36:18.38	85.14	22.80	-41.5	-45.4	12.3	1.63e-04	0	61	0	245366784	55	5370
2026-01-19 08:36:22.42	84.18	23.10	-41.4	-45.2	12.7	9.84e-05	0	60	0	253755392	54	5531
2026-01-19 08:36:26.46	83.20	23.40	-41.4	-45.0	13.0	5.11e-05	0	61	0	261095424	54	5412
2026-01-19 08:36:30.50	82.21	23.69	-41.6	-45.3	12.7	6.63e-05	0	61	0	268435456	54	5616
2026-01-19 08:36:34.54	81.19	23.98	-41.7	-45.6	12.5	1.35e-04	0	61	0	275775488	54	5790
2026-01-19 08:36:38.58	80.16	24.25	-41.7	-45.4	12.6	1.19e-04	0	61	0	284164096	54	5689
2026-01-19 08:36:42.62	79.11	24.53	-41.6	-45.1	12.8	4.11e-05	0	61	0	291504128	54	5520
2026-01-19 08:36:46.66	78.04	24.79	-41.6	-45.3	12.8	5.41e-05	0	61	0	298844160	54	5603
2026-01-19 08:36:50.69	76.95	25.04	-41.7	-45.4	12.8	5.64e-05	0	61	0	306184192	54	5660
2026-01-19 08:36:54.73	75.85	25.29	-41.7	-45.3	12.8	4.27e-05	0	61	0	313524224	54	5612
2026-01-19 08:36:58.77	74.73	25.52	-41.6	-45.1	13.0	3.50e-05	0	61	0	321912832	54	5509
2026-01-19 08:37:02.81	73.59	25.75	-41.7	-45.4	12.8	5.41e-05	0	61	0	329252864	54	5681
2026-01-19 08:37:06.85	72.44	25.96	-41.9	-45.7	12.5	1.13e-04	0	61	0	336592896	54	5866
2026-01-19 08:37:10.88	71.27	26.17	-42.0	-46.0	12.2	2.52e-04	0	61	0	343932928	54	6118
2026-01-19 08:37:14.92	70.09	26.36	-42.2	-46.3	11.9	3.61e-04	0	61	0	352321536	54	6312
2026-01-19 08:37:18.96	68.89	26.54	-42.2	-46.3	11.9	3.95e-04	0	61	0	359661568	55	5949
2026-01-19 08:37:23.00	67.68	26.71	-42.5	-46.9	11.3	8.32e-04	0	61	0	367001600	55	6378
2026-01-19 08:37:27.03	66.46	26.86	-42.6	-47.0	11.2	1.35e-03	0	61	0	374341632	55	6440
2026-01-19 08:37:31.07	65.22	27.00	-42.5	-46.8	11.5	9.01e-04	0	61	0	381681664	55	6284
2026-01-19 08:37:35.11	63.98	27.12	-42.6	-47.1	11.2	1.24e-03	0	61	0	390070272	55	6510
2026-01-19 08:37:39.15	62.73	27.23	-42.9	-47.5	11.0	2.35e-03	0	61	0	397410304	56	6446
2026-01-19 08:37:43.19	61.46	27.33	-42.9	-47.5	10.9	2.04e-03	0	61	0	404750336	56	6437
2026-01-19 08:37:47.23	60.20	27.41	-42.9	-47.6	10.9	1.81e-03	0	61	0	412090368	56	6503
2026-01-19 08:37:51.27	58.92	27.48	-42.9	-47.6	10.8	2.66e-03	0	61	0	420478976	56	6501
2026-01-19 08:37:55.31	57.64	27.53	-42.7	-47.1	11.4	1.07e-03	0	61	0	427819008	56	6137
2026-01-19 08:37:59.35	56.36	27.56	-42.7	-47.1	11.5	1.01e-03	0	61	0	435159040	56	6132
2026-01-19 08:38:03.39	55.08	27.58	-42.6	-46.8	11.7	5.13e-04	0	61	0	442499072	56	5957
2026-01-19 08:38:07.42	53.79	27.58	-42.5	-46.6	11.9	3.59e-04	0	61	0	449839104	56	5823
2026-01-19 08:38:11.46	52.51	27.57	-42.5	-46.5	12.0	4.81e-04	0	61	0	458227712	56	5784
2026-01-19 08:38:15.50	51.23	27.54	-42.3	-46.2	12.3	1.75e-04	0	61	0	465567744	56	5558
2026-01-19 08:38:19.54	49.95	27.49	-42.2	-45.8	12.8	8.85e-05	0	61	0	472907776	56	5330
2026-01-19 08:38:23.57	48.68	27.43	-41.8	-45.3	13.1	3.20e-05	0	61	0	480247808	55	5313
2026-01-19 08:38:27.61	47.41	27.35	-41.8	-45.2	13.2	2.51e-05	0	61	0	488636416	55	5257
2026-01-19 08:38:31.64	46.15	27.26	-41.8	-45.3	13.1	2.74e-05	0	61	0	495976448	55	5284
2026-01-19 08:38:35.68	44.89	27.16	-41.9	-45.5	13.0	6.25e-05	0	61	0	503316480	55	5423
2026-01-19 08:38:39.72	43.65	27.04	-41.9	-45.4	13.0	4.57e-05	0	61	0	510656512	55	5376
2026-01-19 08:38:43.76	42.41	26.90	-42.1	-45.8	12.6	1.08e-04	0	61	0	517996544	55	5624
2026-01-19 08:38:47.80	41.19	26.75	-42.3	-46.2	12.3	1.89e-04	0	61	0	526385152	55	5860
2026-01-19 08:38:51.83	39.98	26.59	-42.4	-46.5	11.8	4.34e-04	0	61	0	533725184	55	6129
2026-01-19 08:38:55.87	38.78	26.41	-42.5	-46.7	11.6	5.57e-04	0	61	0	541065216	55	6268
2026-01-19 08:38:59.91	37.60	26.23	-42.9	-47.4	11.1	1.83e-03	0	61	0	548405248	56	6355
2026-01-19 08:39:03.95	36.43	26.03	-42.9	-47.4	11.2	1.25e-03	0	61	0	556793856	56	6363
2026-01-19 08:39:07.98	35.27	25.82	-43.1	-47.8	10.7	2.71e-03	0	61	0	564133888	56	6679
2026-01-19 08:39:12.02	34.13	25.59	-43.0	-47.6	10.9	2.01e-03	0	61	0	571473920	56	6533
2026-01-19 08:39:16.06	33.01	25.36	-43.1	-47.8	10.7	2.64e-03	0	61	0	578813952	56	6666
2026-01-19 08:39:20.09	31.91	25.12	-42.9	-47.4	11.1	1.41e-03	0	61	0	586153984	56	6370
2026-01-19 08:39:24.13	30.82	24.87	-42.8	-47.1	11.4	9.18e-04	0	61	0	594542592	56	6152
2026-01-19 08:39:28.17	29.75	24.61	-42.9	-47.3	11.1	1.55e-03	0	61	0	601882624	56	6331
2026-01-19 08:39:32.21	28.70	24.34	-42.5	-46.7	11.7	6.22e-04	0	61	0	609222656	56	5893
2026-01-19 08:39:36.24	27.66	24.07	-42.4	-46.5	12.0	3.75e-04	0	61	0	616562688	56	5724
2026-01-19 08:39:40.28	26.65	23.79	-42.3	-46.1	12.4	1.97e-04	0	62	0	624951296	56	5472
2026-01-19 08:39:44.32	25.65	23.50	-42.3	-46.1	12.4	1.56e-04	0	61	0	632291328	56	5479
2026-01-19 08:39:48.35	24.67	23.20	-42.1	-45.8	12.7	7.93e-05	0	61	0	639631360	56	5306
2026-01-19 08:39:52.40	23.71	22.90	-42.0	-45.7	12.8	4.50e-05	0	61	0	646971392	56	5230
2026-01-19 08:39:56.43	22.77	22.60	-42.0	-45.7	12.6	8.39e-05	0	62	0	654311424	55	5578
2026-01-19 08:40:00.47	21.85	22.29	-41.7	-45.3	13.0	4.04e-05	0	62	0	662700032	55	5312
2026-01-19 08:40:04.51	20.95	21.98	-41.7	-45.1	13.2	2.28e-05	0	61	0	670040064	55	5183
2026-01-19 08:40:08.55	20.06	21.66	-41.5	-44.8	13.5	7.60e-06	0	61	0	677380096	54	5301
2026-01-19 08:40:12.58	19.19	21.34	-41.5	-44.8	13.5	9.90e-06	0	61	0	684720128	54	5307
2026-01-19 08:40:16.63	18.34	21.02	-41.4	-44.7	13.6	9.10e-06	0	61	0	692060160	54	5225
2026-01-19 08:40:20.66	17.51	20.69	-41.1	-44.1	14.2	0.00e+00	0	61	0	700448768	54	4906
2026-01-19 08:40:24.70	16.70	20.37	-41.2	-44.3	14.0	3.80e-06	0	61	0	707788800	54	5015
2026-01-19 08:40:28.74	15.90	20.04	-41.2	-44.5	13.8	4.50e-06	0	62	0	715128832	54	5116
2026-01-19 08:40:32.78	15.12	19.71	-41.2	-44.3	13.9	3.80e-06	0	62	0	722468864	54	5031
2026-01-19 08:40:36.82	14.36	19.38	-41.2	-44.4	13.8	5.30e-06	0	61	0	730857472	54	5063
2026-01-19 08:40:40.86	13.62	19.04	-41.3	-44.5	13.7	3.00e-06	0	62	0	738197504	54	5132
2026-01-19 08:40:44.90	12.89	18.71	-41.4	-44.7	13.5	1.22e-05	0	61	0	745537536	54	5231
2026-01-19 08:40:48.94	12.18	18.38	-41.4	-44.7	13.5	9.90e-06	0	61	0	752877568	54	5231
2026-01-19 08:40:52.98	11.48	18.05	-41.6	-45.1	13.0	3.66e-05	0	61	0	761266176	54	5489
2026-01-19 08:40:57.01	10.80	17.71	-41.8	-45.5	12.4	1.01e-04	0	61	0	768606208	54	5768
2026-01-19 08:41:01.04	10.13	17.38	-41.8	-45.7	12.2	2.23e-04	0	62	0	775946240	54	5923
2026-01-19 08:41:05.08	9.48	17.05	-41.8	-45.7	12.2	2.27e-04	0	61	0	783286272	54	5893
2026-01-19 08:41:09.12	8.84	16.72	-41.7	-45.6	12.2	1.85e-04	0	61	0	790626304	54	5828
2026-01-19 08:41:13.16	8.22	16.39	-41.8	-46.0	11.7	4.81e-04	0	61	0	799014912	54	6088
2026-01-19 08:41:17.19	7.61	16.06	-41.8	-46.1	11.5	8.11e-04	0	62	0	806354944	54	6161
2026-01-19 08:41:21.23	7.02	15.73	-41.8	-46.1	11.4	9.02e-04	0	61	0	813694976	54	6171
2026-01-19 08:41:25.27	6.43	15.41	-41.8	-46.2	11.1	1.69e-03	0	62	0	821035008	54	6254
2026-01-19 08:41:29.31	5.86	15.08	-41.8	-46.4	10.7	2.68e-03	0	61	0	828375040	54	6386
2026-01-19 08:41:33.34	5.31	14.76	-41.7	-46.5	10.5	3.84e-03	0	61	0	836763648	54	6433
2026-01-19 08:41:37.38	4.76	14.44	-41.5	-46.3	10.4	3.87e-03	0	61	0	844103680	54	6327
2026-01-19 08:41:41.42	4.23	14.12	-41.5	-46.8	9.5	1.67e-02	0	61	0	851443712	54	6713
2026-01-19 08:41:45.45	3.71	13.80	-41.0	-46.1	10.0	7.50e-03	0	62	0	858783744	53	6516
2026-01-19 08:41:49.49	3.20	13.48	-41.2	-47.9	7.8	5.31e-02	0	61	0	867172352	53	8013
2026-01-19 08:41:53.53	2.70	13.17	-41.5	-51.5	4.8	6.56e-01	0	61	0	874512384	53	12199
2026-01-19 08:41:57.57	2.21	12.85	-41.1	-55.6	3.8	1.49e+00	0	61	104	876609536	53	19426
2026-01-19 08:42:01.60	1.73	12.54	-41.4	-55.6	3.8	1.49e+00	0	61	104	876609536	54	18435
2026-01-19 08:42:05.64	1.27	12.24	-40.2	-55.0	3.8	1.49e+00	0	61	104	876609536	52	19231
2026-01-19 08:42:09.68	0.81	11.93	-40.2	-55.0	3.8	1.49e+00	0	62	104	876609536	52	19258
2026-01-19 08:42:13.72	0.36	11.62	-40.2	-55.0	3.8	1.49e+00	0	62	104	876609536	52	19346
2026-01-19 08:42:17.76	359.92	11.32	-40.1	-54.9	3.8	1.49e+00	0	61	104	876609536	52	19058
2026-01-19 08:42:21.80	359.49	11.02	-39.6	-54.9	3.8	1.49e+00	0	62	104	876609536	51	20208
2026-01-19 08:42:25.83	359.08	10.72	-39.6	-54.9	3.8	1.49e+00	0	62	104	876609536	51	20120
2026-01-19 08:42:29.87	358.66	10.43	-39.8	-54.9	3.8	1.49e+00	0	62	104	876609536	51	20158
2026-01-19 08:42:33.91	358.26	10.13	-39.4	-54.9	3.8	1.49e+00	0	62	104	876609536	50	21262
2026-01-19 08:42:37.95	357.87	9.84	-39.4	-54.8	3.8	1.49e+00	0	62	104	876609536	50	21141
2026-01-19 08:42:41.98	357.48	9.55	-39.6	-54.8	3.8	1.49e+00	0	61	104	876609536	50	21080
2026-01-19 08:42:46.02	357.10	9.26	-39.7	-54.8	3.8	1.49e+00	0	62	104	876609536	50	21051
2026-01-19 08:42:50.06	356.73	8.97	-39.6	-54.8	3.8	1.49e+00	0	61	104	876609536	50	21062
2026-01-19 08:42:54.09	356.37	8.69	-39.7	-54.8	3.8	1.49e+00	0	62	104	876609536	50	21126
2026-01-19 08:42:58.13	356.01	8.41	-39.8	-54.8	3.8	1.49e+00	0	62	104	876609536	50	21149
2026-01-19 08:43:02.17	355.66	8.13	-40.0	-54.8	3.8	1.49e+00	0	62	104	876609536	50	21199
2026-01-19 08:43:06.21	355.32	7.85	-43.8	-58.3	3.8	1.49e+00	0	62	104	876609536	58	19956
2026-01-19 08:43:10.25	354.99	7.58	-45.4	-60.1	3.8	1.49e+00	0	62	104	876609536	61	20627
2026-01-19 08:43:14.29	354.66	7.30	-45.4	-60.1	3.8	1.49e+00	0	62	104	876609536	61	20648
2026-01-19 08:43:18.32	354.33	7.03	-45.4	-60.0	3.8	1.49e+00	0	62	104	876609536	61	20306
2026-01-19 08:43:22.36	354.02	6.76	-45.2	-59.8	3.8	1.49e+00	0	62	104	876609536	61	20070
2026-01-19 08:43:26.40	353.71	6.49	-45.2	-59.8	3.8	1.49e+00	0	62	104	876609536	61	20009
2026-01-19 08:43:30.44	353.40	6.23	-45.3	-59.8	3.8	1.49e+00	0	62	104	876609536	61	19965
2026-01-19 08:43:34.48	353.11	5.96	-45.3	-59.8	3.8	1.49e+00	0	62	104	876609536	61	19958
2026-01-19 08:43:38.52	352.81	5.70	-45.3	-59.9	3.8	1.49e+00	0	62	104	876609536	61	20078
2026-01-19 08:43:42.56	352.52	5.44	-45.2	-59.8	3.8	1.49e+00	0	62	104	876609536	61	20008
2026-01-19 08:43:46.60	352.24	5.18	-45.2	-59.8	3.8	1.49e+00	0	62	104	876609536	61	19989
2026-01-19 08:43:50.64	351.97	4.93	-45.3	-59.8	3.8	1.49e+00	0	62	104	876609536	61	19957
2026-01-19 08:43:54.68	351.69	4.67	-45.2	-59.8	3.8	1.49e+00	0	62	104	876609536	61	19948
2026-01-19 08:43:58.72	351.43	4.42	-45.2	-59.8	3.8	1.49e+00	0	62	104	876609536	61	19925
2026-01-19 08:44:02.76	351.16	4.17	-45.2	-59.8	3.8	1.49e+00	0	62	104	876609536	61	19846
2026-01-19 08:44:06.80	350.91	3.92	-45.2	-59.8	3.8	1.49e+00	0	62	104	876609536	61	19848
2026-01-19 08:44:10.84	350.65	3.67	-45.2	-59.7	3.8	1.49e+00	0	62	104	876609536	61	19785
2026-01-19 08:44:14.89	350.41	3.43	-45.2	-59.7	3.8	1.49e+00	0	62	104	876609536	61	19829
2026-01-19 08:44:18.92	350.16	3.18	-45.2	-59.7	3.8	1.49e+00	0	62	104	876609536	61	19818
2026-01-19 08:44:22.97	349.92	2.94	-45.2	-59.7	3.8	1.49e+00	0	62	104	876609536	61	19836
2026-01-19 08:44:27.01	349.69	2.70	-45.2	-59.7	3.8	1.49e+00	0	62	104	876609536	61	19826
2026-01-19 08:44:31.05	349.46	2.46	-45.1	-59.7	3.8	1.49e+00	0	62	104	876609536	60	20955
2026-01-19 08:44:35.09	349.23	2.22	-45.2	-59.7	3.8	1.49e+00	0	62	104	876609536	60	20989
2026-01-19 08:44:39.12	349.01	1.98	-45.2	-59.7	3.8	1.49e+00	0	62	104	876609536	60	20884

#Closed at: 2026-01-19 08:44:41
#Recorded file [876 MB]: D:/lorett/data/31039_260119_113135.dat