passes_logs/2026/01/19/R2.0S_Moscow/R2.0S_Moscow__20260119_110121_NOAA_21_JPSS-2_rec.log

#Pass ID: 20260119_110121_NOAA 21 (JPSS-2)
#Satellite: NOAA 21 (JPSS-2)
#Configuration: NOAA-21
#almurnet v.1.7.20251203
#Start time: 2026-01-19 11:02:51

#Version: 2.2.20231116
#Station: R2.0S_Moscow
#Location: 37.707566 lon 55.798166 lat
#TLE: 1 54234U 22150A   26017.90260625  .00000050  00000+0  44518-4 0  9994
#TLE: 2 54234  98.7502 318.7672 0000612 269.1755  90.9351 14.19535344165221

#Time	Az	El	Level	Level2	SNR	BER	BlckErr	Temp	State	Recorded	gain1	gain2
2026-01-19 11:02:51.59	199.16	7.91	-45.0	-56.7	3.8	8.45e-01	0	62	0	0	60	14874
2026-01-19 11:02:54.61	199.40	8.13	-45.3	-57.7	3.8	1.49e+00	0	62	104	0	62	14850
2026-01-19 11:02:57.65	199.63	8.34	-45.1	-57.5	3.8	1.49e+00	0	62	104	0	62	14396
2026-01-19 11:03:00.68	199.87	8.57	-43.4	-55.6	3.8	1.49e+00	0	62	104	0	58	14685
2026-01-19 11:03:03.71	200.12	8.79	-44.2	-56.3	3.8	1.49e+00	0	62	104	0	59	14965
2026-01-19 11:03:06.74	200.36	9.01	-44.1	-56.1	3.8	1.49e+00	0	62	104	0	59	14617
2026-01-19 11:03:09.77	200.62	9.24	-44.1	-55.8	3.8	1.49e+00	0	62	104	0	59	14205
2026-01-19 11:03:12.80	200.87	9.46	-44.0	-55.4	3.8	1.49e+00	0	62	104	0	59	13479
2026-01-19 11:03:15.83	201.13	9.69	-43.9	-54.3	3.9	1.49e+00	0	62	104	0	59	11896
2026-01-19 11:03:18.86	201.39	9.92	-43.7	-52.9	4.2	1.46e+00	0	62	104	0	59	10096
2026-01-19 11:03:21.89	201.66	10.15	-43.4	-51.1	4.9	9.61e-01	0	62	104	0	58	8689
2026-01-19 11:03:24.92	201.93	10.39	-43.1	-49.6	5.7	4.27e-01	0	62	0	9437184	58	7332
2026-01-19 11:03:27.95	202.20	10.62	-43.0	-49.3	6.0	3.41e-01	0	62	0	18874368	58	7062
2026-01-19 11:03:30.98	202.48	10.86	-43.1	-49.9	5.6	4.46e-01	0	62	0	28311552	58	7574
2026-01-19 11:03:34.01	202.76	11.10	-43.1	-49.9	5.5	4.94e-01	0	62	0	37748736	58	7562
2026-01-19 11:03:37.04	203.05	11.34	-42.3	-47.3	7.6	1.10e-01	0	62	0	47185920	56	6339
2026-01-19 11:03:40.07	203.34	11.58	-41.0	-44.6	10.2	7.90e-03	0	62	0	56623104	54	5190
2026-01-19 11:03:43.10	203.64	11.82	-40.4	-43.4	11.4	9.98e-04	0	62	0	66060288	52	5093
2026-01-19 11:03:46.13	203.94	12.07	-43.7	-53.3	4.1	1.48e+00	0	62	104	73400320	58	11202
2026-01-19 11:03:49.16	204.25	12.32	-41.5	-45.1	10.1	1.44e-02	0	62	0	78643200	54	5525
2026-01-19 11:03:52.19	204.56	12.56	-40.3	-43.3	11.9	3.96e-04	0	62	0	88080384	52	4988
2026-01-19 11:03:55.22	204.88	12.82	-40.4	-43.1	12.2	1.85e-04	0	62	0	97517568	52	4894
2026-01-19 11:03:58.26	205.20	13.07	-40.5	-43.2	12.2	1.93e-04	0	62	0	108003328	52	4957
2026-01-19 11:04:01.29	205.53	13.32	-40.4	-43.1	12.3	1.70e-04	0	62	0	116391936	52	4898
2026-01-19 11:04:04.32	205.86	13.58	-40.4	-43.1	12.4	1.56e-04	0	62	0	126877696	52	4887
2026-01-19 11:04:07.35	206.20	13.84	-40.4	-43.0	12.5	1.19e-04	0	62	0	136314880	52	4843
2026-01-19 11:04:10.37	206.55	14.10	-40.4	-43.0	12.5	1.15e-04	0	62	0	145752064	52	4828
2026-01-19 11:04:13.40	206.90	14.36	-40.5	-43.1	12.4	1.27e-04	0	62	0	155189248	52	4917
2026-01-19 11:04:16.43	207.25	14.62	-40.4	-43.1	12.5	1.12e-04	0	62	0	164626432	52	4900
2026-01-19 11:04:19.46	207.61	14.89	-40.5	-43.2	12.5	1.05e-04	0	62	0	174063616	52	4930
2026-01-19 11:04:22.49	207.98	15.15	-40.5	-43.1	12.5	1.20e-04	0	62	0	183500800	52	4913
2026-01-19 11:04:25.51	208.36	15.42	-40.5	-43.2	12.5	1.38e-04	0	62	0	192937984	52	4948
2026-01-19 11:04:28.54	208.74	15.69	-40.5	-43.2	12.5	1.40e-04	0	62	0	202375168	52	4955
2026-01-19 11:04:31.57	209.13	15.97	-40.6	-43.2	12.5	1.23e-04	0	62	0	211812352	52	4967
2026-01-19 11:04:34.59	209.52	16.24	-40.6	-43.3	12.5	1.35e-04	0	62	0	221249536	52	4993
2026-01-19 11:04:37.62	209.93	16.52	-40.6	-43.3	12.4	1.42e-04	0	62	0	230686720	52	5013
2026-01-19 11:04:40.65	210.34	16.79	-40.5	-43.2	12.5	1.46e-04	0	62	0	240123904	52	4947
2026-01-19 11:04:43.68	210.75	17.07	-40.5	-43.2	12.6	1.07e-04	0	62	0	249561088	52	4939
2026-01-19 11:04:46.71	211.18	17.36	-40.5	-43.1	12.7	7.70e-05	0	62	0	258998272	52	4903
2026-01-19 11:04:49.74	211.61	17.64	-40.5	-43.1	12.7	7.93e-05	0	62	0	268435456	52	4907
2026-01-19 11:04:52.77	212.05	17.92	-40.4	-42.9	12.8	5.26e-05	0	62	0	277872640	52	4813
2026-01-19 11:04:55.80	212.50	18.21	-40.4	-42.9	12.9	4.27e-05	0	62	0	287309824	52	4793
2026-01-19 11:04:58.82	212.96	18.50	-40.4	-42.8	13.0	3.50e-05	0	62	0	296747008	52	4754
2026-01-19 11:05:01.85	213.42	18.79	-40.2	-42.6	13.2	2.51e-05	0	62	0	306184192	52	4644
2026-01-19 11:05:04.88	213.90	19.08	-40.3	-42.7	13.2	2.36e-05	0	62	0	315621376	52	4672
2026-01-19 11:05:07.91	214.38	19.37	-40.4	-42.9	12.9	4.34e-05	0	62	0	325058560	52	4803
2026-01-19 11:05:10.94	214.87	19.67	-40.3	-42.7	13.1	3.28e-05	0	62	0	334495744	52	4681
2026-01-19 11:05:13.97	215.37	19.96	-40.1	-42.4	13.5	6.80e-06	0	62	0	343932928	51	4776
2026-01-19 11:05:17.00	215.89	20.26	-40.0	-42.3	13.7	1.06e-05	0	62	0	353370112	51	4730
2026-01-19 11:05:20.03	216.41	20.56	-40.0	-42.3	13.7	5.30e-06	0	62	0	362807296	51	4708
2026-01-19 11:05:23.06	216.94	20.86	-39.9	-42.1	13.8	5.30e-06	0	62	0	372244480	51	4633
2026-01-19 11:05:26.08	217.48	21.16	-39.9	-42.1	13.8	3.80e-06	0	62	0	381681664	51	4632
2026-01-19 11:05:29.12	218.03	21.46	-39.8	-42.0	13.9	4.50e-06	0	62	0	391118848	51	4576
2026-01-19 11:05:32.15	218.59	21.77	-39.6	-41.7	14.3	0.00e+00	0	62	0	400556032	51	4414
2026-01-19 11:05:35.18	219.17	22.07	-39.5	-41.6	14.4	0.00e+00	0	62	0	409993216	51	4356
2026-01-19 11:05:38.21	219.75	22.37	-39.5	-41.6	14.4	0.00e+00	0	62	0	419430400	50	4634
2026-01-19 11:05:41.23	220.34	22.68	-39.4	-41.5	14.5	0.00e+00	0	62	0	428867584	50	4558
2026-01-19 11:05:44.26	220.95	22.98	-39.4	-41.5	14.5	2.20e-06	0	62	0	438304768	50	4553
2026-01-19 11:05:47.29	221.57	23.29	-39.5	-41.6	14.4	0.00e+00	0	62	0	447741952	50	4599
2026-01-19 11:05:50.32	222.20	23.59	-39.6	-41.7	14.3	1.50e-06	0	62	0	457179136	50	4669
2026-01-19 11:05:53.35	222.84	23.90	-39.6	-41.7	14.2	1.50e-06	0	62	0	467664896	50	4683
2026-01-19 11:05:56.38	223.50	24.21	-39.6	-41.7	14.2	7.00e-07	0	62	0	476053504	50	4698
2026-01-19 11:05:59.41	224.16	24.51	-39.7	-41.8	14.2	7.00e-07	0	62	0	486539264	50	4750
2026-01-19 11:06:02.44	224.84	24.82	-39.7	-41.8	14.2	3.00e-06	0	62	0	495976448	50	4759
2026-01-19 11:06:05.46	225.54	25.12	-39.8	-41.9	14.1	2.20e-06	0	62	0	505413632	50	4787
2026-01-19 11:06:08.50	226.24	25.42	-39.9	-42.1	13.9	9.90e-06	0	62	0	514850816	50	4887
2026-01-19 11:06:11.52	226.96	25.72	-40.1	-42.3	13.6	7.60e-06	0	62	0	524288000	50	5037
2026-01-19 11:06:14.55	227.69	26.02	-40.1	-42.4	13.6	8.30e-06	0	62	0	533725184	50	5089
2026-01-19 11:06:17.59	228.44	26.32	-40.0	-42.3	13.8	6.10e-06	0	62	0	543162368	50	4986
2026-01-19 11:06:20.62	229.20	26.62	-40.0	-42.2	13.9	6.80e-06	0	62	0	552599552	50	4940
2026-01-19 11:06:23.64	229.98	26.91	-40.1	-42.3	13.8	3.80e-06	0	62	0	562036736	50	5030
2026-01-19 11:06:26.67	230.76	27.21	-40.2	-42.6	13.5	8.30e-06	0	62	0	571473920	51	4889
2026-01-19 11:06:29.70	231.57	27.50	-40.4	-42.8	13.2	2.89e-05	0	62	0	580911104	51	5026
2026-01-19 11:06:32.73	232.38	27.78	-40.1	-42.4	13.7	9.10e-06	0	62	0	590348288	51	4762
2026-01-19 11:06:35.76	233.22	28.07	-40.1	-42.4	13.6	1.14e-05	0	62	0	599785472	51	4801
2026-01-19 11:06:38.78	234.06	28.34	-40.3	-42.7	13.3	1.22e-05	0	62	0	609222656	51	4941
2026-01-19 11:06:41.81	234.92	28.62	-40.5	-42.9	13.1	3.05e-05	0	62	0	618659840	51	5078
2026-01-19 11:06:44.84	235.79	28.89	-40.5	-42.9	13.1	3.35e-05	0	62	0	628097024	51	5083
2026-01-19 11:06:47.87	236.68	29.16	-40.2	-42.5	13.6	8.30e-06	0	62	0	637534208	51	4818
2026-01-19 11:06:50.90	237.59	29.42	-40.2	-42.5	13.5	5.30e-06	0	62	0	646971392	51	4860
2026-01-19 11:06:53.93	238.50	29.68	-40.2	-42.4	13.6	6.80e-06	0	62	0	656408576	51	4812
2026-01-19 11:06:56.96	239.44	29.93	-39.9	-42.1	13.9	4.50e-06	0	62	0	665845760	51	4629
2026-01-19 11:06:59.99	240.38	30.17	-39.9	-42.1	13.9	2.20e-06	0	62	0	675282944	51	4643
2026-01-19 11:07:03.02	241.34	30.41	-40.0	-42.3	13.8	2.20e-06	0	62	0	684720128	51	4709
2026-01-19 11:07:06.04	242.31	30.64	-40.0	-42.2	13.8	4.50e-06	0	62	0	694157312	51	4700
2026-01-19 11:07:09.07	243.30	30.86	-40.3	-42.7	13.3	1.44e-05	0	62	0	703594496	51	4944
2026-01-19 11:07:12.10	244.30	31.08	-40.0	-42.3	13.8	3.00e-06	0	62	0	713031680	51	4717
2026-01-19 11:07:15.13	245.32	31.29	-40.4	-42.8	13.3	1.67e-05	0	62	0	722468864	51	4984
2026-01-19 11:07:18.16	246.34	31.49	-40.6	-43.1	13.0	4.50e-05	0	62	0	731906048	51	5167
2026-01-19 11:07:21.18	247.38	31.68	-40.5	-42.9	13.1	2.97e-05	0	62	0	741343232	51	5098
2026-01-19 11:07:24.22	248.43	31.86	-40.6	-43.1	13.0	2.74e-05	0	62	0	750780416	51	5193
2026-01-19 11:07:27.25	249.49	32.03	-40.5	-43.0	13.0	3.28e-05	0	62	0	760217600	51	5131
2026-01-19 11:07:30.27	250.56	32.19	-40.7	-43.3	12.6	7.47e-05	0	62	0	769654784	52	5020
2026-01-19 11:07:33.30	251.64	32.34	-40.4	-42.8	13.2	2.28e-05	0	62	0	779091968	52	4726
2026-01-19 11:07:36.33	252.73	32.48	-40.3	-42.7	13.2	1.60e-05	0	62	0	788529152	52	4686
2026-01-19 11:07:39.36	253.83	32.62	-40.3	-42.7	13.3	2.13e-05	0	62	0	797966336	52	4652
2026-01-19 11:07:42.39	254.94	32.73	-40.2	-42.5	13.5	6.10e-06	0	62	0	807403520	52	4560
2026-01-19 11:07:45.42	256.06	32.84	-40.4	-42.8	13.1	2.97e-05	0	62	0	816840704	52	4755
2026-01-19 11:07:48.44	257.18	32.94	-40.6	-43.1	12.8	5.72e-05	0	62	0	826277888	52	4899
2026-01-19 11:07:51.47	258.31	33.02	-40.8	-43.4	12.6	8.39e-05	0	62	0	836763648	52	5059
2026-01-19 11:07:54.50	259.44	33.10	-40.5	-42.9	13.0	2.89e-05	0	62	0	846200832	52	4792
2026-01-19 11:07:57.53	260.58	33.16	-40.5	-43.0	13.0	3.66e-05	0	62	0	855638016	52	4817
2026-01-19 11:08:00.56	261.73	33.21	-40.3	-42.7	13.3	1.60e-05	0	62	0	865075200	52	4669
2026-01-19 11:08:03.59	262.87	33.24	-40.6	-43.2	12.8	5.41e-05	0	62	0	874512384	52	4949
2026-01-19 11:08:06.62	264.02	33.27	-40.9	-43.5	12.4	1.40e-04	0	62	0	883949568	52	5148
2026-01-19 11:08:09.65	265.17	33.28	-40.6	-43.1	12.8	6.17e-05	0	62	0	893386752	52	4899
2026-01-19 11:08:12.67	266.31	33.27	-40.5	-42.9	13.0	4.27e-05	0	62	0	902823936	52	4801
2026-01-19 11:08:15.71	267.47	33.26	-40.6	-43.2	12.7	7.17e-05	0	62	0	912261120	52	4952
2026-01-19 11:08:18.73	268.61	33.23	-40.9	-43.6	12.4	1.86e-04	0	62	0	921698304	52	5192
2026-01-19 11:08:21.76	269.75	33.19	-40.8	-43.5	12.4	1.63e-04	0	62	0	931135488	52	5118
2026-01-19 11:08:24.79	270.89	33.14	-40.5	-42.9	13.0	3.66e-05	0	62	0	940572672	52	4800
2026-01-19 11:08:27.82	272.03	33.08	-40.4	-42.8	13.1	2.74e-05	0	62	0	950009856	52	4738
2026-01-19 11:08:30.85	273.16	33.00	-40.2	-42.6	13.4	1.44e-05	0	62	0	959447040	52	4602
2026-01-19 11:08:33.88	274.29	32.92	-40.4	-42.8	13.2	1.67e-05	0	62	0	968884224	52	4734
2026-01-19 11:08:36.91	275.41	32.82	-40.6	-43.1	12.9	5.49e-05	0	62	0	978321408	52	4885
2026-01-19 11:08:39.94	276.52	32.70	-40.6	-43.1	12.9	5.79e-05	0	62	0	987758592	52	4898
2026-01-19 11:08:42.97	277.63	32.58	-40.4	-42.9	13.1	2.13e-05	0	62	0	997195776	52	4768
2026-01-19 11:08:46.00	278.72	32.45	-40.5	-43.0	13.0	4.80e-05	0	62	0	1006632960	52	4829
2026-01-19 11:08:49.03	279.81	32.31	-40.5	-42.9	13.0	2.82e-05	0	62	0	1016070144	52	4793
2026-01-19 11:08:52.06	280.89	32.15	-40.5	-43.0	12.9	2.51e-05	0	62	0	1025507328	52	4831
2026-01-19 11:08:55.08	281.95	31.99	-40.5	-43.1	12.8	5.49e-05	0	62	0	1034944512	52	4882
2026-01-19 11:08:58.11	283.01	31.81	-40.5	-42.9	13.0	4.27e-05	0	62	0	1044381696	52	4803
2026-01-19 11:09:01.14	284.05	31.63	-40.5	-43.0	12.9	4.34e-05	0	62	0	1053818880	52	4823
2026-01-19 11:09:04.17	285.08	31.44	-40.3	-42.7	13.2	2.74e-05	0	62	0	1063256064	52	4699
2026-01-19 11:09:07.20	286.10	31.24	-40.4	-42.8	13.1	2.89e-05	0	62	0	1072693248	52	4739
2026-01-19 11:09:10.23	287.11	31.03	-40.4	-42.8	13.2	2.21e-05	0	62	0	1082130432	52	4732
2026-01-19 11:09:13.25	288.10	30.81	-40.3	-42.6	13.3	2.21e-05	0	62	0	1091567616	52	4649
2026-01-19 11:09:16.28	289.08	30.59	-40.1	-42.4	13.5	9.90e-06	0	62	0	1101004800	52	4532
2026-01-19 11:09:19.31	290.05	30.36	-40.2	-42.5	13.4	4.50e-06	0	62	0	1110441984	52	4579
2026-01-19 11:09:22.34	291.00	30.12	-40.3	-42.7	13.2	2.51e-05	0	62	0	1119879168	52	4693
2026-01-19 11:09:25.38	291.94	29.87	-40.1	-42.4	13.5	1.44e-05	0	62	0	1129316352	52	4539
2026-01-19 11:09:28.40	292.87	29.62	-40.1	-42.4	13.5	1.29e-05	0	62	0	1138753536	52	4541
2026-01-19 11:09:31.43	293.78	29.37	-40.1	-42.4	13.5	6.80e-06	0	62	0	1148190720	52	4535
2026-01-19 11:09:34.46	294.67	29.11	-40.2	-42.6	13.4	1.52e-05	0	62	0	1157627904	52	4600
2026-01-19 11:09:37.49	295.55	28.84	-39.9	-42.2	13.8	6.80e-06	0	62	0	1167065088	51	4654
2026-01-19 11:09:40.52	296.42	28.57	-40.0	-42.3	13.6	1.06e-05	0	62	0	1177550848	51	4739
2026-01-19 11:09:43.56	297.28	28.29	-40.0	-42.3	13.7	8.30e-06	0	62	0	1186988032	51	4715
2026-01-19 11:09:46.59	298.12	28.01	-40.0	-42.2	13.7	8.30e-06	0	62	0	1196425216	51	4666
2026-01-19 11:09:49.61	298.94	27.73	-39.6	-41.7	14.1	7.00e-07	0	62	0	1205862400	51	4428
2026-01-19 11:09:52.65	299.75	27.45	-39.7	-41.8	14.1	2.20e-06	0	62	0	1215299584	51	4468
2026-01-19 11:09:55.68	300.55	27.16	-39.6	-41.6	14.2	7.00e-07	0	62	0	1224736768	51	4384
2026-01-19 11:09:58.70	301.33	26.87	-39.6	-41.7	14.2	3.00e-06	0	62	0	1234173952	50	4654
2026-01-19 11:10:01.73	302.09	26.58	-39.8	-42.0	13.9	3.00e-06	0	62	0	1243611136	50	4841
2026-01-19 11:10:04.76	302.85	26.28	-39.7	-41.9	14.0	1.50e-06	0	62	0	1253048320	50	4767
2026-01-19 11:10:07.79	303.59	25.98	-39.7	-41.8	14.0	2.20e-06	0	62	0	1262485504	50	4755
2026-01-19 11:10:10.82	304.32	25.68	-39.8	-42.0	13.9	5.30e-06	0	62	0	1271922688	50	4828
2026-01-19 11:10:13.84	305.03	25.39	-39.8	-42.0	13.8	2.20e-06	0	62	0	1281359872	50	4863
2026-01-19 11:10:16.87	305.73	25.09	-39.6	-41.8	14.1	3.80e-06	0	62	0	1290797056	50	4708
2026-01-19 11:10:19.90	306.41	24.78	-39.6	-41.8	14.1	7.00e-07	0	62	0	1300234240	50	4707
2026-01-19 11:10:22.93	307.09	24.48	-39.7	-41.8	14.1	3.00e-06	0	62	0	1309671424	50	4729
2026-01-19 11:10:25.96	307.75	24.18	-39.6	-41.8	14.1	1.50e-06	0	62	0	1319108608	50	4711
2026-01-19 11:10:28.99	308.40	23.87	-39.7	-41.9	14.0	1.50e-06	0	62	0	1328545792	50	4776
2026-01-19 11:10:32.02	309.04	23.57	-39.9	-42.1	13.7	6.80e-06	0	62	0	1337982976	50	4915
2026-01-19 11:10:35.04	309.66	23.27	-39.9	-42.1	13.7	6.80e-06	0	63	0	1347420160	50	4915
2026-01-19 11:10:38.07	310.27	22.97	-39.8	-42.0	13.8	4.50e-06	0	62	0	1356857344	50	4848
2026-01-19 11:10:41.10	310.88	22.66	-39.8	-42.1	13.6	7.60e-06	0	62	0	1366294528	50	4891
2026-01-19 11:10:44.13	311.47	22.36	-39.7	-41.9	13.8	6.10e-06	0	62	0	1375731712	50	4800
2026-01-19 11:10:47.15	312.04	22.06	-39.7	-41.9	13.8	5.30e-06	0	62	0	1385168896	50	4782
2026-01-19 11:10:50.18	312.61	21.76	-39.8	-42.0	13.7	6.10e-06	0	63	0	1394606080	50	4868
2026-01-19 11:10:53.20	313.17	21.46	-39.7	-41.9	13.9	2.20e-06	0	62	0	1404043264	50	4793
2026-01-19 11:10:56.23	313.72	21.16	-39.7	-41.8	13.9	1.50e-06	0	62	0	1413480448	50	4752
2026-01-19 11:10:59.26	314.25	20.86	-39.8	-42.0	13.8	1.50e-06	0	63	0	1422917632	50	4836
2026-01-19 11:11:02.29	314.78	20.57	-39.9	-42.2	13.5	1.06e-05	0	62	0	1432354816	50	4975
2026-01-19 11:11:05.32	315.30	20.27	-40.0	-42.3	13.4	1.22e-05	0	62	0	1441792000	50	5014
2026-01-19 11:11:08.34	315.81	19.98	-40.0	-42.3	13.4	1.83e-05	0	62	0	1451229184	50	5038
2026-01-19 11:11:11.37	316.30	19.68	-39.9	-42.2	13.5	9.90e-06	0	62	0	1460666368	50	4964
2026-01-19 11:11:14.41	316.80	19.39	-39.8	-42.0	13.7	7.60e-06	0	62	0	1470103552	50	4856
2026-01-19 11:11:17.43	317.27	19.10	-39.8	-42.0	13.7	6.80e-06	0	63	0	1479540736	50	4841
2026-01-19 11:11:20.46	317.75	18.81	-39.8	-42.1	13.6	6.80e-06	0	62	0	1488977920	50	4895
2026-01-19 11:11:23.49	318.21	18.53	-39.8	-42.1	13.5	1.14e-05	0	63	0	1498415104	50	4903
2026-01-19 11:11:26.52	318.66	18.24	-39.8	-42.0	13.6	9.10e-06	0	62	0	1507852288	50	4862
2026-01-19 11:11:29.56	319.11	17.96	-39.8	-42.1	13.5	9.90e-06	0	62	0	1517289472	50	4918
2026-01-19 11:11:32.58	319.55	17.67	-39.9	-42.3	13.4	1.44e-05	0	62	0	1527775232	50	5018
2026-01-19 11:11:35.61	319.98	17.39	-39.9	-42.2	13.5	9.90e-06	0	62	0	1537212416	50	4943
2026-01-19 11:11:38.64	320.40	17.11	-39.9	-42.2	13.4	1.44e-05	0	62	0	1546649600	50	4978
2026-01-19 11:11:41.67	320.82	16.84	-39.9	-42.2	13.4	1.22e-05	0	62	0	1556086784	50	4978
2026-01-19 11:11:44.70	321.23	16.56	-40.0	-42.4	13.3	2.36e-05	0	63	0	1565523968	50	5060
2026-01-19 11:11:47.73	321.63	16.29	-40.1	-42.6	13.0	2.89e-05	0	62	0	1574961152	50	5161
2026-01-19 11:11:50.76	322.02	16.02	-40.2	-42.8	12.8	5.26e-05	0	62	0	1584398336	51	4988
2026-01-19 11:11:53.79	322.41	15.75	-40.3	-42.8	12.8	5.72e-05	0	63	0	1593835520	51	5003
2026-01-19 11:11:56.82	322.79	15.48	-40.4	-43.1	12.5	1.13e-04	0	62	0	1603272704	51	5167
2026-01-19 11:11:59.84	323.16	15.21	-40.5	-43.2	12.4	1.50e-04	0	62	0	1612709888	51	5252
2026-01-19 11:12:02.87	323.53	14.95	-40.5	-43.2	12.4	1.50e-04	0	63	0	1622147072	51	5239
2026-01-19 11:12:05.90	323.89	14.69	-40.5	-43.2	12.4	1.38e-04	0	62	0	1631584256	51	5231
2026-01-19 11:12:08.93	324.25	14.42	-40.5	-43.2	12.3	1.95e-04	0	62	0	1641021440	51	5235
2026-01-19 11:12:11.97	324.60	14.16	-40.7	-43.5	11.9	3.10e-04	0	62	0	1650458624	51	5447
2026-01-19 11:12:14.99	324.94	13.91	-40.6	-43.4	11.9	3.89e-04	0	62	0	1659895808	52	5100
2026-01-19 11:12:18.02	325.28	13.65	-40.6	-43.4	12.0	3.56e-04	0	62	0	1669332992	52	5071
2026-01-19 11:12:21.06	325.61	13.40	-40.6	-43.3	12.0	2.96e-04	0	63	0	1678770176	52	5039
2026-01-19 11:12:24.09	325.94	13.15	-40.5	-43.3	12.1	3.09e-04	0	62	0	1688207360	52	5013
2026-01-19 11:12:27.12	326.26	12.90	-40.6	-43.5	11.8	5.03e-04	0	62	0	1697644544	52	5126
2026-01-19 11:12:30.14	326.58	12.65	-40.6	-43.5	11.7	5.36e-04	0	62	0	1707081728	52	5145
2026-01-19 11:12:33.18	326.89	12.40	-40.8	-43.8	11.5	8.67e-04	0	62	0	1716518912	52	5286
2026-01-19 11:12:36.20	327.19	12.16	-40.7	-43.6	11.7	6.39e-04	0	63	0	1725956096	52	5162
2026-01-19 11:12:39.23	327.50	11.91	-40.6	-43.5	11.7	5.06e-04	0	62	0	1735393280	52	5136
2026-01-19 11:12:42.26	327.79	11.67	-40.7	-43.7	11.6	6.75e-04	0	63	0	1744830464	52	5226
2026-01-19 11:12:45.29	328.09	11.43	-40.6	-43.6	11.6	6.48e-04	0	62	0	1754267648	52	5176
2026-01-19 11:12:48.32	328.37	11.20	-40.6	-43.6	11.6	7.66e-04	0	62	0	1763704832	52	5180
2026-01-19 11:12:51.35	328.66	10.96	-40.7	-43.6	11.5	8.26e-04	0	62	0	1773142016	52	5217
2026-01-19 11:12:54.38	328.94	10.73	-40.7	-43.8	11.3	9.90e-04	0	62	0	1782579200	52	5293
2026-01-19 11:12:57.41	329.21	10.49	-40.7	-43.8	11.3	1.11e-03	0	62	0	1792016384	52	5290
2026-01-19 11:13:00.44	329.48	10.26	-40.7	-43.9	11.2	1.46e-03	0	62	0	1801453568	52	5343
2026-01-19 11:13:03.47	329.75	10.03	-40.8	-44.0	11.0	1.88e-03	0	63	0	1810890752	52	5410
2026-01-19 11:13:06.49	330.01	9.80	-40.9	-44.2	10.8	2.51e-03	0	62	0	1820327936	52	5544
2026-01-19 11:13:09.53	330.27	9.58	-40.8	-44.1	10.9	2.03e-03	0	62	0	1829765120	52	5490
2026-01-19 11:13:12.56	330.53	9.35	-40.7	-44.0	10.9	2.00e-03	0	63	0	1839202304	52	5408
2026-01-19 11:13:15.59	330.78	9.13	-40.7	-43.9	10.9	2.07e-03	0	62	0	1849688064	52	5375
2026-01-19 11:13:18.61	331.03	8.91	-40.7	-44.0	10.9	2.04e-03	0	63	0	1858076672	52	5411
2026-01-19 11:13:21.64	331.27	8.69	-40.6	-43.9	10.9	2.26e-03	0	62	0	1868562432	52	5363
2026-01-19 11:13:24.68	331.51	8.47	-40.6	-43.9	10.8	2.40e-03	0	62	0	1877999616	52	5376
2026-01-19 11:13:27.71	331.75	8.25	-40.7	-44.1	10.6	3.39e-03	0	63	0	1887436800	52	5494
2026-01-19 11:13:30.74	331.99	8.04	-40.7	-44.1	10.5	3.92e-03	0	63	0	1896873984	52	5503
2026-01-19 11:13:33.77	332.22	7.82	-44.8	-57.1	3.8	1.49e+00	0	62	104	1898971136	60	15550
2026-01-19 11:13:36.80	332.45	7.61	-45.2	-57.5	3.8	1.49e+00	0	62	104	1898971136	60	16264
2026-01-19 11:13:39.83	332.67	7.40	-45.3	-57.7	3.8	1.49e+00	0	63	104	1898971136	61	15582
2026-01-19 11:13:42.86	332.89	7.19	-43.9	-57.1	3.8	1.49e+00	0	62	104	1898971136	60	15409
2026-01-19 11:13:45.89	333.11	6.98	-45.3	-57.6	3.8	1.49e+00	0	62	104	1898971136	61	15424
2026-01-19 11:13:48.92	333.33	6.77	-45.2	-57.6	3.8	1.49e+00	0	62	104	1898971136	61	15473
2026-01-19 11:13:51.95	333.54	6.57	-45.0	-57.5	3.8	1.49e+00	0	62	104	1898971136	61	15350
2026-01-19 11:13:54.98	333.75	6.36	-45.2	-57.6	3.8	1.49e+00	0	63	104	1898971136	61	15451
2026-01-19 11:13:58.01	333.96	6.16	-45.2	-57.5	3.8	1.49e+00	0	63	104	1898971136	61	15295
2026-01-19 11:14:01.04	334.17	5.96	-45.2	-57.5	3.8	1.49e+00	0	63	104	1898971136	61	15374
2026-01-19 11:14:04.07	334.37	5.76	-45.2	-57.5	3.8	1.49e+00	0	62	104	1898971136	61	15357
2026-01-19 11:14:07.10	334.57	5.56	-45.2	-57.5	3.8	1.49e+00	0	63	104	1898971136	61	15308
2026-01-19 11:14:10.14	334.77	5.36	-45.2	-57.5	3.8	1.49e+00	0	63	104	1898971136	61	15397
2026-01-19 11:14:13.17	334.96	5.16	-45.2	-57.5	3.8	1.49e+00	0	63	104	1898971136	60	16265
2026-01-19 11:14:16.20	335.15	4.97	-45.2	-57.6	3.8	1.49e+00	0	62	104	1898971136	60	16364
2026-01-19 11:14:19.22	335.34	4.77	-45.2	-57.5	3.8	1.49e+00	0	63	104	1898971136	60	16243
2026-01-19 11:14:22.26	335.53	4.58	-45.2	-57.5	3.8	1.49e+00	0	62	104	1898971136	60	16241
2026-01-19 11:14:25.28	335.72	4.39	-44.5	-57.5	3.8	1.49e+00	0	63	104	1898971136	60	16161
2026-01-19 11:14:28.31	335.90	4.20	-45.1	-57.5	3.8	1.49e+00	0	62	104	1898971136	60	16203
2026-01-19 11:14:31.34	336.08	4.01	-45.1	-57.5	3.8	1.49e+00	0	63	104	1898971136	60	16142
2026-01-19 11:14:34.37	336.26	3.82	-45.2	-57.5	3.8	1.49e+00	0	63	104	1898971136	60	16246
2026-01-19 11:14:37.41	336.44	3.63	-45.2	-57.5	3.8	1.49e+00	0	63	104	1898971136	60	16216
2026-01-19 11:14:40.43	336.61	3.44	-45.2	-57.5	3.8	1.49e+00	0	63	104	1898971136	60	16211
2026-01-19 11:14:43.47	336.79	3.26	-45.2	-57.5	3.8	1.49e+00	0	62	104	1898971136	60	16186
2026-01-19 11:14:46.50	336.96	3.07	-45.2	-57.5	3.8	1.49e+00	0	63	104	1898971136	60	16128
2026-01-19 11:14:49.53	337.13	2.89	-45.1	-57.4	3.8	1.49e+00	0	63	104	1898971136	60	16117
2026-01-19 11:14:52.56	337.29	2.71	-45.2	-57.5	3.8	1.49e+00	0	63	104	1898971136	60	16220
2026-01-19 11:14:55.59	337.46	2.52	-45.0	-57.5	3.8	1.49e+00	0	63	104	1898971136	60	16155
2026-01-19 11:14:58.62	337.62	2.34	-45.1	-57.5	3.8	1.49e+00	0	63	104	1898971136	60	16183
2026-01-19 11:15:01.65	337.78	2.16	-44.6	-57.4	3.8	1.49e+00	0	63	104	1898971136	60	16126
2026-01-19 11:15:04.69	337.94	1.99	-45.2	-57.4	3.8	1.49e+00	0	62	104	1898971136	60	16092

#Closed at: 2026-01-19 11:15:06
#Recorded file [1898 MB]: D:/lorett/data/31039_260119_140251.dat