passes_logs/2026/01/19/R2.0S_Moscow/R2.0S_Moscow__20260119_220047_SUOMI_NPP_rec.log

#Pass ID: 20260119_220047_SUOMI NPP
#Satellite: SUOMI NPP
#Configuration: NPP
#almurnet v.1.7.20251203
#Start time: 2026-01-19 22:00:48

#Version: 2.2.20231116
#Station: R2.0S_Moscow
#Location: 37.707566 lon 55.798166 lat
#TLE: 1 37849U 11061A   26019.26265094  .00000081  00000+0  59609-4 0  9993
#TLE: 2 37849  98.7817 321.2746 0002356  56.2510 303.8890 14.19526363737315

#Time	Az	El	Level	Level2	SNR	BER	BlckErr	Temp	State	Recorded	gain1	gain2
2026-01-19 22:00:48.46	27.49	2.04	-42.3	-57.4	3.8	1.49e+00	0	52	0	0	56	20089
2026-01-19 22:00:51.49	27.74	2.19	-42.2	-57.2	3.8	1.49e+00	0	53	104	0	55	20838
2026-01-19 22:00:54.52	27.99	2.35	-42.2	-57.2	3.8	1.49e+00	0	53	104	0	55	20856
2026-01-19 22:00:57.55	28.24	2.50	-42.2	-57.2	3.8	1.49e+00	0	53	104	0	55	20876
2026-01-19 22:01:00.58	28.50	2.66	-42.2	-57.2	3.8	1.49e+00	0	53	104	0	55	20938
2026-01-19 22:01:03.62	28.76	2.82	-42.1	-57.2	3.8	1.49e+00	0	54	104	0	55	20869
2026-01-19 22:01:06.65	29.02	2.97	-42.2	-57.2	3.8	1.49e+00	0	54	104	0	55	20811
2026-01-19 22:01:09.68	29.28	3.13	-42.1	-57.2	3.8	1.49e+00	0	54	104	0	55	20856
2026-01-19 22:01:12.71	29.55	3.29	-42.1	-57.2	3.8	1.49e+00	0	54	104	0	55	20838
2026-01-19 22:01:15.74	29.82	3.45	-42.1	-57.2	3.8	1.49e+00	0	54	104	0	55	20878
2026-01-19 22:01:18.77	30.09	3.61	-42.2	-57.2	3.8	1.49e+00	0	55	104	0	55	20858
2026-01-19 22:01:21.80	30.37	3.77	-42.1	-57.2	3.8	1.49e+00	0	55	104	0	55	20876
2026-01-19 22:01:24.83	30.64	3.93	-42.1	-57.2	3.8	1.49e+00	0	55	104	0	55	20821
2026-01-19 22:01:27.86	30.92	4.09	-42.2	-57.2	3.8	1.49e+00	0	55	104	0	55	20846
2026-01-19 22:01:30.89	31.21	4.25	-42.2	-57.2	3.8	1.49e+00	0	55	104	0	55	20840
2026-01-19 22:01:33.92	31.49	4.41	-42.2	-57.2	3.8	1.49e+00	0	55	104	0	55	20852
2026-01-19 22:01:36.95	31.78	4.57	-42.1	-57.2	3.8	1.49e+00	0	56	104	0	55	20902
2026-01-19 22:01:39.98	32.08	4.73	-42.2	-57.2	3.8	1.49e+00	0	56	104	0	55	20837
2026-01-19 22:01:43.02	32.37	4.90	-42.1	-57.2	3.8	1.49e+00	0	56	104	0	55	20817
2026-01-19 22:01:46.04	32.67	5.06	-42.1	-57.2	3.8	1.49e+00	0	56	104	0	55	20839
2026-01-19 22:01:49.07	32.97	5.22	-42.1	-57.2	3.8	1.49e+00	0	56	104	0	55	20786
2026-01-19 22:01:52.10	33.28	5.38	-42.1	-57.2	3.8	1.49e+00	0	56	104	0	55	20841
2026-01-19 22:01:55.13	33.59	5.55	-42.2	-57.2	3.8	1.49e+00	0	56	104	0	55	20785
2026-01-19 22:01:58.16	33.90	5.71	-42.2	-57.2	3.8	1.49e+00	0	56	104	0	55	20856
2026-01-19 22:02:01.20	34.22	5.88	-42.2	-57.1	3.8	1.49e+00	0	57	104	0	55	20757
2026-01-19 22:02:04.23	34.53	6.04	-42.2	-57.2	3.8	1.49e+00	0	57	104	0	55	20912
2026-01-19 22:02:07.26	34.86	6.21	-42.2	-57.2	3.8	1.49e+00	0	57	104	0	55	20851
2026-01-19 22:02:10.29	35.18	6.37	-42.1	-57.2	3.8	1.49e+00	0	57	104	0	55	20817
2026-01-19 22:02:13.32	35.51	6.54	-42.1	-57.2	3.8	1.49e+00	0	57	104	0	55	20798
2026-01-19 22:02:16.35	35.85	6.71	-42.2	-57.2	3.8	1.49e+00	0	57	104	0	55	20827
2026-01-19 22:02:19.38	36.18	6.87	-42.2	-57.0	3.8	1.49e+00	0	58	104	0	55	20529
2026-01-19 22:02:22.42	36.52	7.04	-42.1	-57.2	3.8	1.49e+00	0	58	104	0	55	20839
2026-01-19 22:02:25.45	36.87	7.21	-42.1	-57.1	3.8	1.49e+00	0	57	104	0	55	20699
2026-01-19 22:02:28.48	37.22	7.37	-42.2	-57.0	3.8	1.49e+00	0	57	104	0	55	20389
2026-01-19 22:02:31.51	37.57	7.54	-42.1	-57.2	3.8	1.49e+00	0	58	104	0	55	20781
2026-01-19 22:02:34.54	37.92	7.71	-41.9	-53.8	4.1	1.47e+00	0	58	0	0	55	14048
2026-01-19 22:02:37.57	38.28	7.88	-41.1	-48.2	7.7	1.37e-01	0	58	0	4194304	54	7815
2026-01-19 22:02:40.60	38.65	8.04	-41.3	-48.4	7.6	7.36e-02	0	58	0	9437184	53	8517
2026-01-19 22:02:43.63	39.01	8.21	-42.3	-49.6	7.1	1.69e-01	0	58	0	12582912	55	8711
2026-01-19 22:02:46.66	39.38	8.38	-41.7	-47.7	8.7	3.40e-02	0	58	0	17825792	54	7444
2026-01-19 22:02:49.69	39.76	8.55	-41.7	-47.7	8.8	2.90e-02	0	58	0	23068672	54	7419
2026-01-19 22:02:52.72	40.14	8.72	-41.8	-47.5	9.1	2.33e-02	0	58	0	29360128	54	7232
2026-01-19 22:02:55.75	40.53	8.88	-41.9	-47.6	9.2	1.96e-02	0	58	0	34603008	54	7306
2026-01-19 22:02:58.78	40.91	9.05	-42.1	-47.8	9.1	2.28e-02	0	59	0	40894464	54	7543
2026-01-19 22:03:01.81	41.31	9.22	-42.1	-47.9	8.9	2.77e-02	0	59	0	46137344	55	7200
2026-01-19 22:03:04.83	41.70	9.39	-42.3	-48.4	8.6	3.56e-02	0	59	0	52428800	55	7546
2026-01-19 22:03:07.86	42.10	9.56	-42.3	-48.4	8.5	3.95e-02	0	59	0	57671680	55	7580
2026-01-19 22:03:10.89	42.51	9.73	-42.3	-48.1	9.0	2.62e-02	0	59	0	62914560	55	7324
2026-01-19 22:03:13.92	42.92	9.89	-42.3	-47.9	9.2	2.47e-02	0	59	0	69206016	55	7167
2026-01-19 22:03:16.95	43.34	10.06	-42.2	-47.6	9.5	1.44e-02	0	59	0	74448896	55	6924
2026-01-19 22:03:19.98	43.76	10.23	-42.0	-47.0	10.1	7.27e-03	0	59	0	80740352	55	6491
2026-01-19 22:03:23.01	44.18	10.40	-41.8	-46.5	10.7	3.14e-03	0	59	0	85983232	55	6130
2026-01-19 22:03:26.04	44.61	10.57	-41.9	-46.7	10.6	2.55e-03	0	59	0	91226112	55	6236
2026-01-19 22:03:29.06	45.04	10.73	-41.8	-46.3	11.2	1.75e-03	0	59	0	97517568	55	5934
2026-01-19 22:03:32.09	45.48	10.90	-41.5	-45.7	11.7	7.86e-04	0	59	0	102760448	55	5562
2026-01-19 22:03:35.12	45.93	11.07	-41.4	-45.4	12.1	2.74e-04	0	59	0	109051904	54	5670
2026-01-19 22:03:38.15	46.38	11.23	-41.5	-45.6	11.9	4.39e-04	0	59	0	114294784	54	5826
2026-01-19 22:03:41.18	46.83	11.40	-41.8	-46.1	11.4	9.09e-04	0	60	0	120586240	54	6152
2026-01-19 22:03:44.20	47.29	11.56	-41.8	-46.1	11.4	1.02e-03	0	59	0	125829120	54	6153
2026-01-19 22:03:47.23	47.75	11.73	-41.6	-45.8	11.7	6.03e-04	0	60	0	131072000	54	5953
2026-01-19 22:03:50.26	48.22	11.89	-41.6	-45.8	11.7	5.45e-04	0	60	0	137363456	54	5968
2026-01-19 22:03:53.29	48.70	12.05	-41.6	-45.8	11.8	4.74e-04	0	60	0	142606336	54	5931
2026-01-19 22:03:56.32	49.17	12.22	-41.6	-45.7	11.8	5.29e-04	0	60	0	148897792	54	5919
2026-01-19 22:03:59.35	49.66	12.38	-41.7	-45.9	11.7	5.67e-04	0	60	0	154140672	54	6049
2026-01-19 22:04:02.38	50.15	12.54	-41.8	-46.1	11.5	7.40e-04	0	60	0	159383552	54	6159
2026-01-19 22:04:05.41	50.64	12.70	-41.9	-46.2	11.3	9.22e-04	0	60	0	165675008	54	6267
2026-01-19 22:04:08.44	51.14	12.86	-41.8	-46.0	11.6	1.02e-03	0	60	0	170917888	54	6127
2026-01-19 22:04:11.46	51.65	13.02	-41.8	-45.9	11.7	6.52e-04	0	60	0	177209344	54	6049
2026-01-19 22:04:14.49	52.16	13.18	-42.0	-46.4	11.2	1.13e-03	0	60	0	182452224	54	6383
2026-01-19 22:04:17.52	52.67	13.33	-42.1	-46.5	11.1	1.85e-03	0	60	0	188743680	54	6468
2026-01-19 22:04:20.55	53.20	13.49	-42.0	-46.4	11.3	1.25e-03	0	60	0	193986560	54	6358
2026-01-19 22:04:23.58	53.72	13.64	-42.1	-46.6	11.0	2.01e-03	0	60	0	199229440	54	6514
2026-01-19 22:04:26.61	54.25	13.80	-42.3	-47.1	10.5	3.37e-03	0	60	0	205520896	55	6563
2026-01-19 22:04:29.64	54.79	13.95	-42.2	-46.9	10.6	2.87e-03	0	60	0	210763776	55	6402
2026-01-19 22:04:32.67	55.34	14.10	-42.1	-46.7	10.9	2.32e-03	0	60	0	217055232	55	6237
2026-01-19 22:04:35.69	55.88	14.25	-42.1	-46.7	11.0	1.98e-03	0	60	0	222298112	55	6220
2026-01-19 22:04:38.72	56.44	14.40	-42.1	-46.7	11.0	1.54e-03	0	60	0	227540992	55	6205
2026-01-19 22:04:41.75	56.99	14.54	-42.3	-47.0	10.7	2.69e-03	0	60	0	233832448	55	6443
2026-01-19 22:04:44.78	57.56	14.69	-42.4	-47.3	10.2	5.48e-03	0	60	0	239075328	55	6715
2026-01-19 22:04:47.81	58.13	14.83	-42.3	-47.1	10.5	4.39e-03	0	60	0	245366784	55	6495
2026-01-19 22:04:50.84	58.70	14.97	-42.3	-47.0	10.5	3.15e-03	0	60	0	250609664	55	6481
2026-01-19 22:04:53.86	59.28	15.11	-42.4	-47.3	10.3	5.81e-03	0	61	0	255852544	55	6654
2026-01-19 22:04:56.89	59.87	15.25	-42.4	-47.3	10.3	7.46e-03	0	61	0	262144000	55	6650
2026-01-19 22:04:59.92	60.46	15.38	-42.4	-47.5	10.0	9.82e-03	0	61	0	267386880	55	6812
2026-01-19 22:05:02.95	61.05	15.51	-42.6	-47.8	9.7	1.16e-02	0	61	0	273678336	55	7092
2026-01-19 22:05:05.98	61.66	15.64	-42.3	-47.2	10.3	5.05e-03	0	60	0	278921216	55	6606
2026-01-19 22:05:09.01	62.26	15.77	-42.2	-46.8	10.6	3.15e-03	0	60	0	285212672	55	6336
2026-01-19 22:05:12.03	62.87	15.90	-42.3	-47.2	10.2	6.49e-03	0	60	0	290455552	55	6611
2026-01-19 22:05:15.06	63.49	16.02	-42.3	-47.2	10.4	4.80e-03	0	61	0	295698432	55	6582
2026-01-19 22:05:18.09	64.11	16.14	-42.1	-46.7	10.7	2.14e-03	0	61	0	301989888	55	6251
2026-01-19 22:05:21.12	64.74	16.26	-42.0	-46.5	11.0	2.09e-03	0	61	0	307232768	55	6100
2026-01-19 22:05:24.15	65.37	16.38	-41.9	-46.4	11.0	2.21e-03	0	61	0	313524224	55	6009
2026-01-19 22:05:27.18	66.00	16.49	-41.8	-46.4	10.8	2.35e-03	0	61	0	318767104	55	6052
2026-01-19 22:05:30.21	66.64	16.60	-41.8	-46.5	10.6	3.56e-03	0	61	0	324009984	55	6074
2026-01-19 22:05:33.24	67.29	16.71	-41.7	-46.4	10.5	4.14e-03	0	61	0	330301440	55	6040
2026-01-19 22:05:36.27	67.94	16.81	-41.7	-46.8	9.9	8.91e-03	0	61	0	335544320	55	6340
2026-01-19 22:05:39.29	68.59	16.91	-41.9	-47.7	8.8	3.21e-02	0	61	0	341835776	55	7022
2026-01-19 22:05:42.32	69.25	17.01	-41.8	-48.1	8.1	5.69e-02	0	61	0	347078656	55	7331
2026-01-19 22:05:45.35	69.91	17.10	-41.6	-48.2	7.7	8.48e-02	0	61	0	353370112	55	7419
2026-01-19 22:05:48.38	70.58	17.19	-41.2	-48.0	7.7	8.86e-02	0	61	0	358612992	54	7690
2026-01-19 22:05:51.41	71.25	17.28	-41.1	-48.2	7.3	1.26e-01	0	61	0	363855872	54	7855
2026-01-19 22:05:54.43	71.92	17.37	-41.4	-49.7	6.0	2.89e-01	0	61	0	370147328	54	9310
2026-01-19 22:05:57.46	72.60	17.45	-41.7	-54.6	3.8	1.41e+00	0	61	104	372244480	54	16408
2026-01-19 22:06:00.49	73.28	17.52	-41.2	-49.6	5.9	3.73e-01	0	61	0	375390208	54	9200
2026-01-19 22:06:03.51	73.96	17.60	-41.3	-50.2	5.5	4.79e-01	0	61	0	381681664	54	9838
2026-01-19 22:06:06.54	74.65	17.67	-41.8	-50.9	5.4	5.57e-01	0	61	0	386924544	54	10712
2026-01-19 22:06:09.57	75.34	17.73	-41.4	-49.1	6.5	1.22e+00	0	61	0	386924544	54	8715
2026-01-19 22:06:12.60	76.03	17.80	-41.3	-48.7	6.8	2.01e-01	0	61	0	393216000	54	8284
2026-01-19 22:06:15.62	76.73	17.85	-41.3	-48.7	6.8	1.48e-01	0	61	0	398458880	54	8291
2026-01-19 22:06:18.65	77.43	17.91	-41.6	-49.9	6.0	7.96e-01	0	61	0	403701760	54	9584
2026-01-19 22:06:21.68	78.13	17.96	-42.2	-51.2	5.2	1.38e+00	0	61	0	404750336	56	9913
2026-01-19 22:06:24.71	78.83	18.01	-41.8	-50.6	5.5	4.57e-01	0	61	0	409993216	55	9725
2026-01-19 22:06:27.73	79.54	18.05	-42.3	-53.6	4.2	7.38e-01	0	61	0	415236096	55	13807
2026-01-19 22:06:30.76	80.25	18.09	-42.4	-51.9	4.8	1.28e+00	0	61	104	415236096	55	11406
2026-01-19 22:06:33.79	80.96	18.12	-41.6	-48.1	8.1	6.28e-02	0	61	0	420478976	55	7298
2026-01-19 22:06:36.82	81.67	18.15	-41.7	-47.8	8.5	4.03e-02	0	61	0	425721856	55	7058
2026-01-19 22:06:39.85	82.38	18.17	-41.8	-47.7	8.6	3.62e-02	0	61	0	432013312	55	7027
2026-01-19 22:06:42.88	83.09	18.20	-41.9	-47.9	8.6	3.86e-02	0	61	0	437256192	55	7122
2026-01-19 22:06:45.91	83.81	18.21	-41.9	-48.1	8.3	4.69e-02	0	61	0	442499072	55	7335
2026-01-19 22:06:48.93	84.52	18.23	-41.8	-48.6	7.6	9.81e-02	0	61	0	448790528	55	7729
2026-01-19 22:06:51.96	85.24	18.23	-41.7	-48.1	8.0	7.92e-02	0	61	0	454033408	55	7340
2026-01-19 22:06:54.99	85.95	18.24	-41.7	-48.1	8.2	5.18e-02	0	61	0	460324864	55	7315
2026-01-19 22:06:58.02	86.67	18.24	-41.7	-48.1	8.1	5.47e-02	0	61	0	465567744	55	7334
2026-01-19 22:07:01.05	87.38	18.23	-41.9	-48.6	7.6	8.89e-02	0	61	0	471859200	55	7770
2026-01-19 22:07:04.08	88.10	18.22	-42.1	-48.5	8.0	7.30e-02	0	61	0	477102080	55	7708
2026-01-19 22:07:07.10	88.81	18.21	-42.2	-48.2	8.5	4.86e-02	0	62	0	482344960	55	7433
2026-01-19 22:07:10.13	89.53	18.19	-42.1	-47.9	8.7	3.50e-02	0	62	0	488636416	55	7191
2026-01-19 22:07:13.16	90.24	18.17	-42.2	-47.8	9.1	2.52e-02	0	61	0	493879296	55	7088
2026-01-19 22:07:16.19	90.95	18.14	-42.1	-47.0	10.2	6.66e-03	0	62	0	500170752	55	6486
2026-01-19 22:07:19.22	91.67	18.11	-41.6	-45.8	11.6	8.88e-04	0	61	0	505413632	55	5600
2026-01-19 22:07:22.25	92.38	18.08	-41.6	-45.6	11.9	3.50e-04	0	61	0	510656512	54	5842
2026-01-19 22:07:25.27	93.08	18.04	-42.0	-46.3	11.3	9.57e-04	0	61	0	516947968	54	6345
2026-01-19 22:07:28.30	93.79	18.00	-42.3	-47.1	10.5	2.95e-03	0	61	0	522190848	55	6545
2026-01-19 22:07:31.33	94.49	17.95	-42.3	-47.1	10.5	3.51e-03	0	62	0	528482304	55	6547
2026-01-19 22:07:34.37	95.20	17.90	-42.3	-47.0	10.8	3.01e-03	0	62	0	533725184	55	6427
2026-01-19 22:07:37.40	95.90	17.84	-42.0	-46.3	11.5	9.19e-04	0	61	0	540016640	55	5948
2026-01-19 22:07:40.42	96.59	17.78	-42.1	-46.4	11.4	9.56e-04	0	62	0	545259520	55	6004
2026-01-19 22:07:43.45	97.29	17.72	-42.3	-46.9	10.9	2.20e-03	0	61	0	550502400	55	6351
2026-01-19 22:07:46.48	97.98	17.65	-42.0	-46.2	11.5	1.19e-03	0	62	0	556793856	55	5913
2026-01-19 22:07:49.51	98.67	17.58	-41.9	-46.0	11.7	5.62e-04	0	62	0	562036736	55	5768
2026-01-19 22:07:52.54	99.36	17.51	-42.0	-46.2	11.6	7.07e-04	0	62	0	568328192	55	5868
2026-01-19 22:07:55.57	100.04	17.43	-41.8	-45.8	11.9	3.10e-04	0	61	0	573571072	55	5649
2026-01-19 22:07:58.60	100.72	17.35	-41.6	-45.4	12.4	1.40e-04	0	62	0	578813952	54	5713
2026-01-19 22:08:01.63	101.39	17.26	-41.7	-45.6	12.2	2.05e-04	0	62	0	585105408	54	5846
2026-01-19 22:08:04.66	102.06	17.17	-41.8	-45.8	12.0	2.62e-04	0	62	0	590348288	54	5969
2026-01-19 22:08:07.69	102.73	17.08	-41.8	-45.8	12.0	2.65e-04	0	62	0	596639744	54	5953
2026-01-19 22:08:10.72	103.39	16.98	-41.7	-45.7	12.1	2.39e-04	0	61	0	601882624	54	5879
2026-01-19 22:08:13.75	104.05	16.89	-41.8	-45.8	12.0	2.61e-04	0	62	0	608174080	54	5970
2026-01-19 22:08:16.78	104.71	16.78	-41.8	-45.9	11.9	2.97e-04	0	62	0	613416960	54	6022
2026-01-19 22:08:19.81	105.36	16.68	-41.9	-46.0	11.8	4.78e-04	0	62	0	618659840	54	6101
2026-01-19 22:08:22.83	106.00	16.57	-41.7	-45.5	12.3	2.23e-04	0	61	0	624951296	54	5782
2026-01-19 22:08:25.86	106.65	16.46	-41.9	-46.0	11.8	3.84e-04	0	62	0	630194176	54	6070
2026-01-19 22:08:28.89	107.28	16.34	-41.8	-45.9	12.0	3.90e-04	0	61	0	636485632	54	6002
2026-01-19 22:08:31.92	107.92	16.23	-41.8	-46.1	11.7	3.40e-04	0	62	0	641728512	54	6145
2026-01-19 22:08:34.95	108.54	16.11	-42.3	-47.0	10.8	2.55e-03	0	62	0	646971392	55	6438
2026-01-19 22:08:37.98	109.17	15.99	-42.4	-47.2	10.5	4.54e-03	0	62	0	653262848	55	6645
2026-01-19 22:08:41.00	109.78	15.86	-42.1	-46.4	11.4	1.37e-03	0	62	0	658505728	55	6038
2026-01-19 22:08:44.03	110.39	15.73	-41.8	-45.8	11.9	4.03e-04	0	62	0	664797184	55	5655
2026-01-19 22:08:47.06	111.00	15.60	-41.8	-45.9	11.9	3.57e-04	0	62	0	670040064	55	5695
2026-01-19 22:08:50.09	111.60	15.47	-42.0	-46.3	11.4	7.67e-04	0	62	0	676331520	55	5988
2026-01-19 22:08:53.12	112.20	15.34	-42.4	-47.3	10.4	4.70e-03	0	62	0	681574400	55	6676
2026-01-19 22:08:56.14	112.79	15.20	-43.0	-48.7	9.1	1.89e-02	0	62	0	686817280	56	7412
2026-01-19 22:08:59.17	113.38	15.06	-42.7	-47.8	10.0	1.19e-02	0	62	0	693108736	56	6710
2026-01-19 22:09:02.20	113.96	14.92	-42.4	-47.1	10.7	3.82e-03	0	62	0	698351616	56	6181
2026-01-19 22:09:05.23	114.54	14.78	-42.3	-46.7	11.1	1.26e-03	0	62	0	704643072	56	5905
2026-01-19 22:09:08.26	115.11	14.64	-42.0	-46.3	11.3	1.24e-03	0	62	0	709885952	55	5961
2026-01-19 22:09:11.28	115.67	14.49	-42.3	-47.2	10.4	5.22e-03	0	62	0	715128832	55	6625
2026-01-19 22:09:14.31	116.23	14.34	-42.4	-47.4	10.2	1.34e-02	0	62	0	721420288	55	6724
2026-01-19 22:09:17.34	116.79	14.19	-42.2	-47.1	10.3	5.11e-03	0	62	0	726663168	54	6899
2026-01-19 22:09:20.37	117.34	14.04	-42.1	-46.9	10.4	6.67e-03	0	62	0	732954624	55	6389
2026-01-19 22:09:23.40	117.88	13.89	-42.1	-46.7	10.8	5.28e-03	0	62	0	738197504	54	6572
2026-01-19 22:09:26.43	118.42	13.74	-40.0	-46.3	10.2	5.78e-02	0	62	0	744488960	53	6713
2026-01-19 22:09:29.45	118.95	13.58	-42.4	-47.7	9.3	1.12e-01	0	62	0	749731840	53	7857
2026-01-19 22:09:32.48	119.48	13.43	-42.0	-47.5	8.9	4.52e-02	0	62	0	754974720	53	7715
2026-01-19 22:09:35.51	120.00	13.27	-40.8	-46.6	8.6	5.91e-02	0	62	0	761266176	50	8182
2026-01-19 22:09:38.54	120.52	13.11	-41.0	-46.2	9.5	8.17e-02	0	62	0	766509056	51	7386
2026-01-19 22:09:41.57	121.03	12.95	-40.5	-47.0	8.3	1.29e-01	0	62	0	772800512	51	8098
2026-01-19 22:09:44.60	121.53	12.79	-41.5	-46.8	9.2	1.34e-01	0	62	0	778043392	52	7480
2026-01-19 22:09:47.63	122.03	12.63	-40.4	-46.6	8.4	1.49e-01	0	62	0	783286272	52	7319
2026-01-19 22:09:50.65	122.53	12.47	-38.8	-46.8	8.4	2.31e-01	0	62	0	789577728	49	8873
2026-01-19 22:09:53.68	123.02	12.31	-37.3	-46.0	6.6	3.27e-01	0	62	0	794820608	42	12154
2026-01-19 22:09:56.71	123.50	12.14	-38.8	-45.5	9.0	2.20e-01	0	62	0	800063488	47	8622
2026-01-19 22:09:59.74	123.98	11.98	-39.8	-45.8	9.5	2.17e-01	0	62	0	805306368	49	7935
2026-01-19 22:10:02.77	124.46	11.81	-39.8	-46.4	6.0	3.07e-01	0	62	0	810549248	50	8024
2026-01-19 22:10:05.80	124.93	11.65	-33.4	-45.5	5.0	5.17e-01	0	62	104	815792128	38	14534
2026-01-19 22:10:08.82	125.39	11.48	-33.2	-46.0	7.5	3.98e-01	0	62	0	819986432	39	14394
2026-01-19 22:10:11.85	125.85	11.31	-19.5	-35.8	4.0	1.36e+00	0	62	104	819986432	18	14926
2026-01-19 22:10:14.88	126.30	11.15	-21.7	-36.0	3.8	1.47e+00	0	62	104	819986432	15	18185
2026-01-19 22:10:17.90	126.75	10.98	-24.3	-37.0	3.7	1.50e+00	0	62	104	819986432	16	19249
2026-01-19 22:10:20.93	127.20	10.81	-20.7	-36.5	3.3	1.49e+00	0	62	104	819986432	12	22876
2026-01-19 22:10:23.96	127.64	10.64	-24.2	-36.8	3.1	1.46e+00	0	62	104	819986432	13	22294
2026-01-19 22:10:26.99	128.07	10.47	-20.2	-36.4	3.4	1.49e+00	0	62	104	819986432	14	20180
2026-01-19 22:10:30.02	128.50	10.30	-16.7	-29.9	3.4	1.49e+00	0	62	104	819986432	8	13463
2026-01-19 22:10:33.04	128.92	10.13	-20.7	-35.7	3.4	1.48e+00	0	62	0	819986432	14	18553
2026-01-19 22:10:36.07	129.34	9.96	-22.2	-39.3	3.4	1.47e+00	0	62	0	819986432	17	23694
2026-01-19 22:10:39.10	129.76	9.79	-22.8	-37.3	3.4	1.48e+00	0	62	0	819986432	17	18945
2026-01-19 22:10:42.13	130.17	9.62	-25.3	-38.8	3.4	1.48e+00	0	62	104	819986432	16	23588
2026-01-19 22:10:45.16	130.58	9.45	-24.5	-35.2	3.2	1.48e+00	0	62	104	819986432	12	19755
2026-01-19 22:10:48.19	130.98	9.28	-20.4	-35.9	3.3	1.48e+00	0	62	104	819986432	13	20131
2026-01-19 22:10:51.21	131.37	9.11	-22.1	-35.5	3.3	1.50e+00	0	62	104	819986432	11	21695
2026-01-19 22:10:54.23	131.76	8.94	-20.6	-37.4	3.3	1.48e+00	0	62	104	819986432	10	28416
2026-01-19 22:10:57.26	132.15	8.77	-17.0	-36.6	3.2	1.49e+00	0	62	104	819986432	10	26076
2026-01-19 22:11:00.29	132.54	8.60	-18.2	-34.6	3.6	1.50e+00	0	62	104	819986432	4	29077
2026-01-19 22:11:03.32	132.92	8.43	-25.6	-38.9	3.3	1.50e+00	0	62	104	819986432	4	48129
2026-01-19 22:11:06.35	133.29	8.26	-17.7	-38.7	3.5	1.50e+00	0	62	104	819986432	14	26264
2026-01-19 22:11:09.37	133.66	8.09	-17.0	-34.5	3.7	1.51e+00	0	62	104	819986432	4	28838
2026-01-19 22:11:12.40	134.03	7.92	-24.8	-39.3	3.4	1.50e+00	0	62	104	819986432	11	33358
2026-01-19 22:11:15.44	134.39	7.75	-45.2	-60.0	3.8	1.49e+00	0	62	104	819986432	60	21600
2026-01-19 22:11:18.46	134.75	7.59	-45.5	-60.3	3.8	1.49e+00	0	62	104	819986432	61	21136
2026-01-19 22:11:21.50	135.11	7.42	-45.6	-60.3	3.8	1.49e+00	0	62	104	819986432	61	21245
2026-01-19 22:11:24.53	135.46	7.25	-45.4	-60.0	3.8	1.49e+00	0	62	104	819986432	61	20535
2026-01-19 22:11:27.56	135.80	7.08	-45.2	-59.8	3.8	1.49e+00	0	62	104	819986432	61	19889
2026-01-19 22:11:30.59	136.15	6.91	-45.2	-59.8	3.8	1.49e+00	0	62	104	819986432	61	19857
2026-01-19 22:11:33.62	136.49	6.74	-45.2	-59.7	3.8	1.49e+00	0	62	104	819986432	61	19824
2026-01-19 22:11:36.65	136.82	6.57	-45.2	-59.8	3.8	1.49e+00	0	62	104	819986432	61	19899
2026-01-19 22:11:39.68	137.15	6.40	-45.2	-59.7	3.8	1.49e+00	0	62	104	819986432	61	19807
2026-01-19 22:11:42.71	137.48	6.24	-45.2	-59.8	3.8	1.49e+00	0	62	104	819986432	61	19846
2026-01-19 22:11:45.74	137.81	6.07	-45.2	-59.7	3.8	1.49e+00	0	62	104	819986432	61	19803
2026-01-19 22:11:48.77	138.13	5.90	-45.1	-59.7	3.8	1.49e+00	0	62	104	819986432	61	19682
2026-01-19 22:11:51.80	138.44	5.74	-45.2	-59.7	3.8	1.49e+00	0	62	104	819986432	61	19756
2026-01-19 22:11:54.83	138.76	5.57	-45.2	-59.7	3.8	1.49e+00	0	62	104	819986432	61	19737
2026-01-19 22:11:57.86	139.07	5.40	-45.1	-59.7	3.8	1.49e+00	0	62	104	819986432	61	19699
2026-01-19 22:12:00.90	139.38	5.24	-45.1	-59.7	3.8	1.49e+00	0	62	104	819986432	61	19693
2026-01-19 22:12:03.93	139.68	5.07	-45.1	-59.7	3.8	1.49e+00	0	62	104	819986432	61	19728
2026-01-19 22:12:06.96	139.98	4.91	-45.1	-59.7	3.8	1.49e+00	0	62	104	819986432	61	19697
2026-01-19 22:12:09.99	140.28	4.74	-45.1	-59.7	3.8	1.49e+00	0	62	104	819986432	61	19662
2026-01-19 22:12:13.02	140.57	4.58	-45.1	-59.7	3.8	1.49e+00	0	62	104	819986432	61	19666
2026-01-19 22:12:16.05	140.86	4.42	-45.1	-59.7	3.8	1.49e+00	0	62	104	819986432	61	19709
2026-01-19 22:12:19.09	141.15	4.25	-45.1	-59.7	3.8	1.49e+00	0	62	104	819986432	61	19637
2026-01-19 22:12:22.12	141.44	4.09	-45.1	-59.7	3.8	1.49e+00	0	62	104	819986432	61	19654
2026-01-19 22:12:25.15	141.72	3.93	-45.1	-59.7	3.8	1.49e+00	0	62	104	819986432	61	19684
2026-01-19 22:12:28.18	142.00	3.77	-45.1	-59.7	3.8	1.49e+00	0	62	104	819986432	61	19655
2026-01-19 22:12:31.21	142.27	3.60	-45.1	-59.6	3.8	1.49e+00	0	62	104	819986432	61	19610
2026-01-19 22:12:34.24	142.55	3.44	-45.1	-59.6	3.8	1.49e+00	0	62	104	819986432	61	19587
2026-01-19 22:12:37.27	142.82	3.28	-45.1	-59.7	3.8	1.49e+00	0	62	104	819986432	61	19640
2026-01-19 22:12:40.31	143.08	3.12	-45.1	-59.6	3.8	1.49e+00	0	62	104	819986432	61	19594
2026-01-19 22:12:43.34	143.35	2.96	-45.1	-59.7	3.8	1.49e+00	0	62	104	819986432	61	19639
2026-01-19 22:12:46.37	143.61	2.80	-45.1	-59.7	3.8	1.49e+00	0	62	104	819986432	61	19649
2026-01-19 22:12:49.40	143.87	2.64	-45.1	-59.7	3.8	1.49e+00	0	62	104	819986432	61	19659
2026-01-19 22:12:52.43	144.13	2.48	-45.1	-59.7	3.8	1.49e+00	0	62	104	819986432	61	19643
2026-01-19 22:12:55.46	144.38	2.33	-45.1	-59.7	3.8	1.49e+00	0	62	104	819986432	61	19661
2026-01-19 22:12:58.49	144.63	2.17	-45.1	-59.7	3.8	1.49e+00	0	62	104	819986432	61	19658
2026-01-19 22:13:01.52	144.88	2.01	-45.1	-59.6	3.8	1.49e+00	0	62	104	819986432	61	19590

#Closed at: 2026-01-19 22:13:02
#Recorded file [819 MB]: D:/lorett/data/31039_260120_010048.dat