passes_logs/2026/01/19/R2.0S_Moscow/R2.0S_Moscow__20260119_104913_FENGYUN_3D_rec.log

#Pass ID: 20260119_104913_FENGYUN 3D
#Satellite: FENGYUN 3D
#Configuration: FENGYUN 3D
#almurnet v.1.7.20251203
#Start time: 2026-01-19 10:49:14

#Version: 2.2.20231116
#Station: R2.0S_Moscow
#Location: 37.707566 lon 55.798166 lat
#TLE: 1 43010U 17072A   26017.96359538  .00000271  00000+0  15011-3 0  9999
#TLE: 2 43010  98.9936 349.8252 0002386 103.8840 256.2601 14.19697057423673

#Time	Az	El	Level	Level2	SNR	BER	BlckErr	Temp	State	Recorded	gain1	gain2
2026-01-19 10:49:14.66	126.81	2.06	-27.0	-38.4	3.6	8.38e-01	0	53	0	0	24	14317
2026-01-19 10:49:18.70	126.62	2.31	-25.4	-38.3	3.7	8.36e-01	0	53	104	0	24	14171
2026-01-19 10:49:22.74	126.43	2.55	-26.4	-40.5	3.8	8.36e-01	0	53	104	0	26	16186
2026-01-19 10:49:26.78	126.23	2.80	-24.1	-39.1	3.8	8.40e-01	0	54	104	0	25	14546
2026-01-19 10:49:30.82	126.03	3.06	-23.2	-38.4	3.7	8.37e-01	0	54	104	0	21	16917
2026-01-19 10:49:34.86	125.83	3.31	-26.4	-40.4	3.9	8.37e-01	0	54	104	0	30	12670
2026-01-19 10:49:38.90	125.62	3.56	-30.4	-46.8	4.1	8.30e-01	0	55	0	0	34	21043
2026-01-19 10:49:42.93	125.41	3.82	-26.7	-39.5	3.7	8.35e-01	0	55	104	0	24	16313
2026-01-19 10:49:46.97	125.19	4.08	-23.5	-38.2	3.6	8.42e-01	0	55	104	0	20	17631
2026-01-19 10:49:51.02	124.97	4.34	-29.2	-42.2	3.8	8.36e-01	0	55	104	0	28	17667
2026-01-19 10:49:55.06	124.75	4.61	-26.6	-38.3	3.7	8.33e-01	0	55	104	0	24	14141
2026-01-19 10:49:59.10	124.52	4.87	-26.7	-41.6	3.7	8.35e-01	0	56	104	0	25	19460
2026-01-19 10:50:03.14	124.29	5.14	-28.6	-41.9	3.8	8.36e-01	0	56	104	0	28	17070
2026-01-19 10:50:07.18	124.05	5.41	-25.6	-44.1	4.0	8.34e-01	0	56	104	0	26	24672
2026-01-19 10:50:11.22	123.81	5.69	-28.9	-45.1	3.9	8.35e-01	0	56	104	0	33	18347
2026-01-19 10:50:15.26	123.56	5.96	-29.9	-42.6	3.5	8.39e-01	0	57	104	0	14	41405
2026-01-19 10:50:19.30	123.31	6.24	-35.3	-51.9	4.2	8.37e-01	0	57	104	0	41	25471
2026-01-19 10:50:23.34	123.05	6.52	-29.8	-46.8	3.8	8.34e-01	0	57	104	0	33	22460
2026-01-19 10:50:27.37	122.79	6.80	-32.3	-49.4	4.2	8.36e-01	0	57	104	0	37	23991
2026-01-19 10:50:31.41	122.53	7.09	-30.8	-47.3	4.2	8.36e-01	0	57	104	0	41	14924
2026-01-19 10:50:35.45	122.25	7.38	-24.7	-40.2	4.0	8.39e-01	0	57	104	0	26	15632
2026-01-19 10:50:39.49	121.98	7.67	-34.3	-45.4	4.7	8.30e-01	0	58	104	0	38	14363
2026-01-19 10:50:43.53	121.69	7.96	-30.4	-40.4	5.0	8.23e-01	0	58	104	1048576	32	11381
2026-01-19 10:50:47.57	121.40	8.26	-25.8	-38.4	4.0	8.31e-01	0	58	104	2097152	24	14315
2026-01-19 10:50:51.61	121.11	8.56	-23.0	-39.7	4.0	8.32e-01	0	58	104	2097152	15	27907
2026-01-19 10:50:55.65	120.80	8.86	-30.0	-42.6	4.7	8.30e-01	0	58	104	2097152	29	17420
2026-01-19 10:50:59.68	120.50	9.16	-18.1	-36.1	3.7	8.25e-01	0	58	104	2097152	11	23230
2026-01-19 10:51:03.72	120.18	9.47	-29.2	-43.3	4.0	8.27e-01	0	58	104	2097152	28	19846
2026-01-19 10:51:07.76	119.86	9.78	-21.6	-36.8	4.1	8.32e-01	0	58	104	2097152	14	21082
2026-01-19 10:51:11.79	119.53	10.09	-28.2	-42.2	4.2	8.32e-01	0	59	104	2097152	28	17530
2026-01-19 10:51:15.83	119.19	10.41	-18.7	-33.4	3.8	8.10e-01	0	59	104	2097152	14	14313
2026-01-19 10:51:19.87	118.85	10.73	-32.9	-46.2	4.3	8.32e-01	0	59	104	2097152	37	16549
2026-01-19 10:51:23.91	118.49	11.05	-21.9	-35.4	3.9	8.38e-01	0	59	104	2097152	15	17054
2026-01-19 10:51:27.95	118.13	11.38	-33.5	-45.3	4.4	8.33e-01	0	59	104	2097152	34	17730
2026-01-19 10:51:31.98	117.76	11.71	-23.9	-36.4	4.6	8.32e-01	0	59	104	2097152	28	9021
2026-01-19 10:51:36.02	117.39	12.04	-35.3	-48.8	4.6	7.58e-01	0	59	104	2097152	39	19860
2026-01-19 10:51:40.06	117.00	12.37	-29.1	-44.7	4.0	8.36e-01	0	59	104	2097152	27	24900
2026-01-19 10:51:44.10	116.60	12.71	-34.5	-47.5	5.5	4.37e-01	0	59	0	2097152	40	16243
2026-01-19 10:51:48.14	116.20	13.06	-31.6	-41.4	7.9	3.73e-01	0	59	0	7340032	36	10082
2026-01-19 10:51:52.17	115.78	13.40	-32.5	-42.6	9.5	2.52e-01	0	60	0	23068672	38	10302
2026-01-19 10:51:56.21	115.36	13.75	-36.8	-42.5	10.8	1.70e-01	0	60	0	41943040	44	7274
2026-01-19 10:52:00.24	114.92	14.10	-35.1	-42.1	11.0	9.88e-02	0	60	0	62914560	44	6914
2026-01-19 10:52:04.28	114.48	14.46	-38.7	-41.7	12.2	4.07e-03	0	60	0	83886080	48	5265
2026-01-19 10:52:08.32	114.02	14.82	-38.5	-40.8	13.7	4.26e-03	0	60	0	106954752	47	5031
2026-01-19 10:52:12.36	113.55	15.18	-37.9	-40.4	13.7	4.85e-04	0	60	0	130023424	46	5091
2026-01-19 10:52:16.40	113.07	15.55	-37.9	-40.5	13.7	3.33e-03	0	60	0	152043520	46	5101
2026-01-19 10:52:20.43	112.58	15.92	-38.2	-40.4	13.9	1.50e-04	0	60	0	175112192	47	4795
2026-01-19 10:52:24.47	112.07	16.29	-38.0	-40.0	14.7	4.57e-05	0	60	0	197132288	46	4866
2026-01-19 10:52:28.51	111.55	16.67	-38.1	-40.2	14.6	3.40e-06	0	60	0	220200960	46	4975
2026-01-19 10:52:32.55	111.02	17.05	-38.0	-40.1	14.7	0.00e+00	0	60	0	243269632	46	4893
2026-01-19 10:52:36.59	110.48	17.44	-37.9	-40.0	14.8	0.00e+00	0	60	0	265289728	46	4841
2026-01-19 10:52:40.63	109.92	17.82	-37.7	-39.6	15.3	0.00e+00	0	60	0	288358400	46	4645
2026-01-19 10:52:44.67	109.34	18.21	-37.6	-39.5	15.4	0.00e+00	0	60	0	311427072	46	4598
2026-01-19 10:52:48.71	108.75	18.61	-37.9	-39.9	15.0	1.10e-06	0	60	0	334495744	46	4760
2026-01-19 10:52:52.75	108.14	19.01	-37.6	-39.6	15.3	0.00e+00	0	60	0	356515840	46	4611
2026-01-19 10:52:56.79	107.52	19.41	-37.5	-39.3	15.6	0.00e+00	0	61	0	379584512	46	4474
2026-01-19 10:53:00.82	106.88	19.81	-37.3	-39.2	15.8	0.00e+00	0	61	0	401604608	46	4397
2026-01-19 10:53:04.86	106.23	20.21	-37.5	-39.4	15.5	0.00e+00	0	61	0	424673280	46	4501
2026-01-19 10:53:08.90	105.55	20.62	-37.5	-39.4	15.5	0.00e+00	0	61	0	447741952	46	4536
2026-01-19 10:53:12.94	104.86	21.03	-37.3	-39.1	15.8	0.00e+00	0	61	0	469762048	46	4381
2026-01-19 10:53:16.98	104.15	21.44	-37.1	-38.9	16.1	0.00e+00	0	61	0	492830720	46	4248
2026-01-19 10:53:21.02	103.42	21.86	-37.1	-38.9	16.0	0.00e+00	0	61	0	515899392	46	4284
2026-01-19 10:53:25.06	102.67	22.27	-37.2	-39.0	15.9	0.00e+00	0	61	0	538968064	46	4322
2026-01-19 10:53:29.10	101.90	22.69	-37.0	-38.7	16.2	0.00e+00	0	61	0	560988160	45	4435
2026-01-19 10:53:33.14	101.10	23.11	-37.0	-38.7	16.2	0.00e+00	0	61	0	584056832	45	4430
2026-01-19 10:53:37.18	100.29	23.53	-37.1	-38.9	16.1	0.00e+00	0	61	0	606076928	45	4513
2026-01-19 10:53:41.22	99.45	23.95	-36.9	-38.7	16.3	0.00e+00	0	61	0	629145600	45	4430
2026-01-19 10:53:45.26	98.59	24.37	-36.7	-38.4	16.6	0.00e+00	0	61	0	652214272	45	4265
2026-01-19 10:53:49.30	97.71	24.79	-36.6	-38.3	16.8	0.00e+00	0	61	0	675282944	45	4200
2026-01-19 10:53:53.35	96.80	25.21	-36.6	-38.2	16.8	0.00e+00	0	61	0	697303040	45	4176
2026-01-19 10:53:57.38	95.87	25.62	-36.5	-38.2	16.9	0.00e+00	0	61	0	720371712	44	4397
2026-01-19 10:54:01.42	94.92	26.04	-36.4	-38.0	17.1	0.00e+00	0	61	0	743440384	44	4319
2026-01-19 10:54:05.46	93.93	26.45	-36.5	-38.1	16.9	0.00e+00	0	61	0	765460480	44	4378
2026-01-19 10:54:09.51	92.92	26.86	-36.5	-38.1	17.0	0.00e+00	0	61	0	788529152	44	4370
2026-01-19 10:54:13.55	91.89	27.26	-36.4	-38.0	17.1	0.00e+00	0	61	0	810549248	44	4311
2026-01-19 10:54:17.59	90.83	27.66	-36.4	-38.0	17.1	0.00e+00	0	61	0	833617920	44	4311
2026-01-19 10:54:21.63	89.74	28.05	-36.4	-38.1	17.0	0.00e+00	0	61	0	856686592	44	4359
2026-01-19 10:54:25.67	88.63	28.44	-36.1	-37.6	17.5	0.00e+00	0	61	0	879755264	44	4117
2026-01-19 10:54:29.71	87.49	28.82	-35.9	-37.5	17.5	0.00e+00	0	61	0	901775360	43	4304
2026-01-19 10:54:33.74	86.32	29.20	-36.1	-37.6	17.3	0.00e+00	0	61	0	924844032	43	4387
2026-01-19 10:54:37.78	85.13	29.56	-36.0	-37.6	17.4	0.00e+00	0	61	0	947912704	43	4374
2026-01-19 10:54:41.82	83.90	29.92	-35.8	-37.4	17.6	0.00e+00	0	61	0	969932800	43	4267
2026-01-19 10:54:45.85	82.66	30.26	-36.0	-37.6	17.4	0.00e+00	0	61	0	993001472	43	4364
2026-01-19 10:54:49.90	81.38	30.59	-35.8	-37.3	17.6	0.00e+00	0	62	0	1015021568	43	4238
2026-01-19 10:54:53.94	80.08	30.91	-35.5	-37.0	18.0	0.00e+00	0	62	0	1038090240	43	4071
2026-01-19 10:54:57.98	78.75	31.22	-35.7	-37.2	17.8	0.00e+00	0	61	0	1061158912	42	4427
2026-01-19 10:55:02.01	77.40	31.51	-35.4	-36.8	18.2	0.00e+00	0	61	0	1084227584	42	4241
2026-01-19 10:55:06.05	76.03	31.78	-35.7	-37.2	17.9	0.00e+00	0	62	0	1106247680	42	4396
2026-01-19 10:55:10.09	74.63	32.04	-35.7	-37.1	17.9	0.00e+00	0	62	0	1129316352	42	4391
2026-01-19 10:55:14.13	73.21	32.28	-35.2	-36.7	18.4	0.00e+00	0	62	0	1152385024	42	4153
2026-01-19 10:55:18.17	71.77	32.51	-35.5	-36.9	18.1	0.00e+00	0	62	0	1174405120	42	4291
2026-01-19 10:55:22.21	70.31	32.71	-35.5	-37.0	18.1	0.00e+00	0	62	0	1197473792	42	4320
2026-01-19 10:55:26.25	68.83	32.90	-35.4	-36.9	18.2	0.00e+00	0	61	0	1219493888	42	4254
2026-01-19 10:55:30.29	67.33	33.06	-35.5	-36.9	18.1	0.00e+00	0	62	0	1242562560	42	4290
2026-01-19 10:55:34.33	65.83	33.20	-35.5	-37.0	18.1	0.00e+00	0	62	0	1265631232	42	4316
2026-01-19 10:55:38.37	64.31	33.32	-35.5	-37.0	18.1	0.00e+00	0	62	0	1288699904	42	4309
2026-01-19 10:55:42.41	62.78	33.42	-35.5	-37.0	18.1	0.00e+00	0	61	0	1310720000	42	4317
2026-01-19 10:55:46.45	61.24	33.49	-35.4	-36.9	18.2	0.00e+00	0	62	0	1333788672	42	4279
2026-01-19 10:55:50.49	59.70	33.54	-35.2	-36.7	18.4	0.00e+00	0	62	0	1356857344	42	4153
2026-01-19 10:55:54.52	58.15	33.57	-35.1	-36.4	18.6	0.00e+00	0	62	0	1378877440	42	4045
2026-01-19 10:55:58.56	56.60	33.57	-35.3	-36.7	18.4	0.00e+00	0	62	0	1401946112	42	4171
2026-01-19 10:56:02.60	55.06	33.55	-35.6	-37.1	18.0	0.00e+00	0	62	0	1423966208	42	4385
2026-01-19 10:56:06.63	53.52	33.51	-35.5	-37.0	18.2	0.00e+00	0	62	0	1447034880	42	4295
2026-01-19 10:56:10.67	51.98	33.44	-35.5	-36.9	18.2	0.00e+00	0	61	0	1470103552	42	4271
2026-01-19 10:56:14.71	50.45	33.35	-35.4	-36.9	18.2	0.00e+00	0	62	0	1493172224	42	4271
2026-01-19 10:56:18.75	48.93	33.24	-35.6	-37.1	18.1	0.00e+00	0	62	0	1515192320	42	4358
2026-01-19 10:56:22.79	47.42	33.10	-35.6	-37.0	18.1	0.00e+00	0	62	0	1538260992	42	4330
2026-01-19 10:56:26.83	45.92	32.94	-35.6	-37.1	18.1	0.00e+00	0	62	0	1561329664	42	4348
2026-01-19 10:56:30.87	44.44	32.77	-35.7	-37.2	18.0	0.00e+00	0	62	0	1583349760	42	4393
2026-01-19 10:56:34.91	42.98	32.57	-35.5	-37.0	18.2	0.00e+00	0	62	0	1606418432	42	4317
2026-01-19 10:56:38.96	41.53	32.35	-35.7	-37.2	18.0	0.00e+00	0	62	0	1629487104	42	4410
2026-01-19 10:56:42.99	40.11	32.11	-36.0	-37.4	18.1	0.00e+00	0	62	0	1651507200	42	4502
2026-01-19 10:56:47.03	38.71	31.86	-35.8	-37.2	18.3	0.00e+00	0	62	0	1674575872	42	4408
2026-01-19 10:56:51.07	37.33	31.59	-35.8	-37.1	18.3	0.00e+00	0	62	0	1697644544	42	4383
2026-01-19 10:56:55.11	35.97	31.30	-36.0	-37.4	18.0	0.00e+00	0	62	0	1719664640	42	4513
2026-01-19 10:56:59.16	34.64	31.00	-36.3	-37.7	17.7	0.00e+00	0	62	0	1742733312	43	4424
2026-01-19 10:57:03.19	33.34	30.69	-35.9	-37.2	18.2	0.00e+00	0	62	0	1765801984	43	4176
2026-01-19 10:57:07.23	32.06	30.36	-35.9	-37.2	18.2	0.00e+00	0	62	0	1787822080	43	4189
2026-01-19 10:57:11.26	30.81	30.02	-36.0	-37.3	18.0	0.00e+00	0	62	0	1810890752	43	4235
2026-01-19 10:57:15.30	29.58	29.67	-36.1	-37.5	17.8	0.00e+00	0	62	0	1833959424	43	4335
2026-01-19 10:57:19.35	28.38	29.31	-35.9	-37.3	18.1	0.00e+00	0	62	0	1855979520	43	4196
2026-01-19 10:57:23.39	27.21	28.94	-35.9	-37.3	18.0	0.00e+00	0	62	0	1879048192	43	4225
2026-01-19 10:57:27.42	26.06	28.56	-36.0	-37.4	18.0	0.00e+00	0	62	0	1902116864	43	4249
2026-01-19 10:57:31.46	24.95	28.18	-36.3	-37.7	17.7	0.00e+00	0	62	0	1924136960	43	4415
2026-01-19 10:57:35.50	23.86	27.79	-36.3	-37.8	17.6	0.00e+00	0	62	0	1947205632	43	4445
2026-01-19 10:57:39.54	22.79	27.39	-36.2	-37.6	17.7	0.00e+00	0	62	0	1970274304	43	4367
2026-01-19 10:57:43.58	21.76	26.99	-36.4	-37.9	17.5	0.00e+00	0	62	0	1992294400	43	4513
2026-01-19 10:57:47.61	20.75	26.58	-36.6	-38.1	17.3	0.00e+00	0	62	0	2015363072	43	4601
2026-01-19 10:57:51.65	19.76	26.17	-36.6	-38.1	17.2	0.00e+00	0	62	0	2037383168	43	4614
2026-01-19 10:57:55.69	18.80	25.76	-37.0	-38.5	17.0	0.00e+00	0	62	0	2060451840	44	4572
2026-01-19 10:57:59.73	17.87	25.35	-37.1	-38.6	16.9	0.00e+00	0	62	0	2083520512	44	4628
2026-01-19 10:58:03.77	16.96	24.93	-36.7	-38.2	17.3	0.00e+00	0	62	0	2106589184	44	4401
2026-01-19 10:58:07.80	16.08	24.52	-37.0	-38.5	16.9	0.00e+00	0	62	0	2128609280	44	4598
2026-01-19 10:58:11.84	15.21	24.10	-37.1	-38.8	16.7	0.00e+00	0	62	0	2151677952	44	4708
2026-01-19 10:58:15.88	14.37	23.68	-37.3	-38.9	16.5	0.00e+00	0	62	0	2174746624	45	4495
2026-01-19 10:58:19.93	13.56	23.26	-37.3	-38.9	16.5	0.00e+00	0	62	0	2196766720	45	4506
2026-01-19 10:58:23.97	12.76	22.84	-37.1	-38.6	16.7	0.00e+00	0	62	0	2219835392	45	4376
2026-01-19 10:58:28.00	11.99	22.43	-37.1	-38.7	16.7	0.00e+00	0	62	0	2241855488	45	4415
2026-01-19 10:58:32.04	11.24	22.02	-37.0	-38.6	16.8	0.00e+00	0	62	0	2264924160	45	4350
2026-01-19 10:58:36.08	10.50	21.60	-37.1	-38.7	16.6	0.00e+00	0	62	0	2287992832	45	4395
2026-01-19 10:58:40.12	9.79	21.19	-37.2	-38.7	16.5	0.00e+00	0	62	0	2311061504	45	4440
2026-01-19 10:58:44.16	9.10	20.78	-37.2	-38.8	16.5	0.00e+00	0	62	0	2333081600	45	4462
2026-01-19 10:58:48.20	8.42	20.37	-37.2	-38.8	16.4	0.00e+00	0	62	0	2356150272	45	4480
2026-01-19 10:58:52.23	7.77	19.97	-37.3	-39.0	16.2	0.00e+00	0	62	0	2379218944	45	4554
2026-01-19 10:58:56.27	7.12	19.57	-37.3	-38.9	16.1	0.00e+00	0	62	0	2401239040	45	4529
2026-01-19 10:59:00.31	6.50	19.17	-37.5	-39.2	15.9	0.00e+00	0	62	0	2424307712	45	4673
2026-01-19 10:59:04.35	5.89	18.77	-37.5	-39.2	15.9	0.00e+00	0	62	0	2446327808	45	4664
2026-01-19 10:59:08.38	5.31	18.38	-37.5	-39.2	15.8	0.00e+00	0	62	0	2469396480	45	4661
2026-01-19 10:59:12.42	4.73	17.99	-37.7	-39.4	15.5	0.00e+00	0	62	0	2492465152	45	4812
2026-01-19 10:59:16.46	4.17	17.60	-37.9	-39.8	15.1	0.00e+00	0	62	0	2515533824	46	4733
2026-01-19 10:59:20.51	3.62	17.22	-38.0	-39.8	14.9	0.00e+00	0	62	0	2537553920	46	4754
2026-01-19 10:59:24.55	3.09	16.84	-38.1	-40.1	14.5	1.10e-06	0	62	0	2560622592	46	4901
2026-01-19 10:59:28.59	2.57	16.46	-38.1	-40.1	14.4	2.20e-06	0	62	0	2583691264	47	4609
2026-01-19 10:59:32.63	2.06	16.09	-38.2	-40.2	14.3	1.10e-06	0	62	0	2605711360	47	4661
2026-01-19 10:59:36.67	1.57	15.72	-38.2	-40.3	14.1	5.70e-06	0	62	0	2628780032	47	4711
2026-01-19 10:59:40.71	1.09	15.35	-38.4	-40.6	13.4	2.63e-05	0	62	0	2651848704	47	4911
2026-01-19 10:59:44.75	0.62	14.99	-38.6	-41.1	12.4	2.20e-04	0	62	0	2673868800	47	5218
2026-01-19 10:59:48.79	0.17	14.63	-38.2	-40.7	12.8	5.72e-05	0	62	0	2696937472	47	4936
2026-01-19 10:59:52.83	359.72	14.27	-38.1	-40.6	12.6	1.45e-04	0	62	0	2720006144	47	4915
2026-01-19 10:59:56.86	359.29	13.92	-37.9	-40.4	12.7	9.38e-05	0	62	0	2742026240	47	4801
2026-01-19 11:00:00.90	358.86	13.57	-39.1	-42.4	10.3	5.95e-03	0	62	0	2765094912	48	5711
2026-01-19 11:00:04.95	358.45	13.23	-40.0	-44.5	7.8	8.34e-02	0	62	0	2788163584	50	6471
2026-01-19 11:00:08.99	358.04	12.88	-40.2	-45.2	7.1	1.72e-01	0	62	0	2810183680	51	6578
2026-01-19 11:00:13.02	357.65	12.55	-40.3	-52.1	3.8	8.46e-01	0	62	104	2826960896	52	13862
2026-01-19 11:00:17.06	357.26	12.21	-39.9	-46.1	5.9	3.88e-01	0	62	0	2835349504	51	7302
2026-01-19 11:00:21.10	356.89	11.88	-40.2	-49.3	4.2	8.36e-01	0	62	0	2839543808	51	10560
2026-01-19 11:00:25.14	356.52	11.55	-40.3	-52.0	3.8	8.47e-01	0	62	104	2839543808	52	13722
2026-01-19 11:00:29.18	356.16	11.22	-40.3	-51.7	3.8	8.46e-01	0	62	104	2839543808	52	13214
2026-01-19 11:00:33.22	355.81	10.90	-40.3	-52.0	3.8	8.46e-01	0	62	104	2839543808	51	14499
2026-01-19 11:00:37.26	355.47	10.58	-40.3	-52.0	3.8	8.46e-01	0	62	104	2839543808	51	14530
2026-01-19 11:00:41.29	355.13	10.26	-40.3	-52.0	3.8	8.46e-01	0	62	104	2839543808	51	14445
2026-01-19 11:00:45.33	354.80	9.95	-40.2	-52.0	3.8	8.46e-01	0	62	104	2839543808	51	14475
2026-01-19 11:00:49.37	354.48	9.64	-40.2	-51.9	3.8	8.46e-01	0	62	104	2839543808	51	14355
2026-01-19 11:00:53.40	354.17	9.33	-40.2	-52.0	3.8	8.45e-01	0	62	104	2839543808	51	14409
2026-01-19 11:00:57.44	353.86	9.03	-40.3	-52.0	3.8	8.47e-01	0	62	104	2839543808	51	14477
2026-01-19 11:01:01.48	353.56	8.73	-40.3	-52.0	3.8	8.46e-01	0	62	104	2839543808	51	14510
2026-01-19 11:01:05.51	353.27	8.43	-40.4	-52.0	3.8	8.46e-01	0	62	104	2839543808	51	14514
2026-01-19 11:01:09.56	352.98	8.13	-40.4	-52.1	3.8	8.45e-01	0	62	104	2839543808	51	14578
2026-01-19 11:01:13.60	352.70	7.84	-41.3	-53.1	3.8	8.47e-01	0	62	104	2839543808	53	14668
2026-01-19 11:01:17.63	352.43	7.55	-45.2	-57.0	3.8	8.46e-01	0	62	104	2839543808	61	14420
2026-01-19 11:01:21.67	352.16	7.26	-45.3	-57.0	3.8	8.45e-01	0	62	104	2839543808	61	14527
2026-01-19 11:01:25.71	351.89	6.97	-45.3	-56.9	3.8	8.45e-01	0	62	104	2839543808	61	14367
2026-01-19 11:01:29.75	351.63	6.69	-45.2	-56.9	3.8	8.46e-01	0	62	104	2839543808	61	14235
2026-01-19 11:01:33.79	351.38	6.41	-45.2	-56.8	3.8	8.46e-01	0	62	104	2839543808	60	15030
2026-01-19 11:01:37.84	351.13	6.13	-45.2	-56.8	3.8	8.47e-01	0	62	104	2839543808	60	15048
2026-01-19 11:01:41.88	350.89	5.86	-45.2	-56.8	3.8	8.46e-01	0	62	104	2839543808	60	14952
2026-01-19 11:01:45.92	350.65	5.58	-45.2	-56.8	3.8	8.47e-01	0	62	104	2839543808	60	15030
2026-01-19 11:01:49.96	350.41	5.31	-45.0	-56.8	3.8	8.46e-01	0	62	104	2839543808	60	15003
2026-01-19 11:01:54.00	350.18	5.04	-45.2	-56.8	3.8	8.45e-01	0	62	104	2839543808	60	14935
2026-01-19 11:01:58.04	349.96	4.78	-45.1	-56.8	3.8	8.45e-01	0	62	104	2839543808	60	15018
2026-01-19 11:02:02.08	349.74	4.51	-45.1	-56.8	3.8	8.46e-01	0	62	104	2839543808	60	14936
2026-01-19 11:02:06.12	349.52	4.25	-45.1	-56.8	3.8	8.45e-01	0	62	104	2839543808	60	15000
2026-01-19 11:02:10.16	349.31	3.99	-45.1	-56.8	3.8	8.46e-01	0	62	104	2839543808	60	14980
2026-01-19 11:02:14.20	349.10	3.73	-45.1	-56.8	3.8	8.47e-01	0	62	104	2839543808	60	14967
2026-01-19 11:02:18.24	348.90	3.48	-45.1	-56.8	3.8	8.45e-01	0	62	104	2839543808	60	14954
2026-01-19 11:02:22.28	348.70	3.23	-44.9	-56.8	3.8	8.44e-01	0	62	104	2839543808	60	14925
2026-01-19 11:02:26.32	348.50	2.97	-45.1	-56.8	3.8	8.46e-01	0	62	104	2839543808	60	14931
2026-01-19 11:02:30.36	348.31	2.72	-45.1	-56.8	3.8	8.46e-01	0	62	104	2839543808	60	14960
2026-01-19 11:02:34.40	348.12	2.48	-44.9	-56.7	3.8	8.46e-01	0	62	104	2839543808	60	14856
2026-01-19 11:02:38.44	347.93	2.23	-45.1	-56.8	3.8	8.47e-01	0	62	104	2839543808	60	14933
2026-01-19 11:02:42.48	347.75	1.99	-44.9	-56.8	3.8	8.47e-01	0	62	104	2839543808	60	14885

#Closed at: 2026-01-19 11:02:44
#Recorded file [2839 MB]: D:/lorett/data/31039_260119_134914.dat