passes_logs/2026/01/19/R2.0S_Moscow/R2.0S_Moscow__20260119_074252_NOAA_21_JPSS-2_rec.log

#Pass ID: 20260119_074252_NOAA 21 (JPSS-2)
#Satellite: NOAA 21 (JPSS-2)
#Configuration: NOAA-21
#almurnet v.1.7.20251203
#Start time: 2026-01-19 07:42:53

#Version: 2.2.20231116
#Station: R2.0S_Moscow
#Location: 37.707566 lon 55.798166 lat
#TLE: 1 54234U 22150A   26017.90260625  .00000050  00000+0  44518-4 0  9994
#TLE: 2 54234  98.7502 318.7672 0000612 269.1755  90.9351 14.19535344165221

#Time	Az	El	Level	Level2	SNR	BER	BlckErr	Temp	State	Recorded	gain1	gain2
2026-01-19 07:42:53.98	95.21	2.06	-40.3	-52.7	3.8	1.49e+00	0	52	0	0	51	15698
2026-01-19 07:42:57.00	94.95	2.22	-40.2	-52.7	3.8	1.49e+00	0	52	104	0	51	15649
2026-01-19 07:43:00.03	94.69	2.37	-40.3	-52.7	3.8	1.49e+00	0	53	104	0	51	15740
2026-01-19 07:43:03.07	94.42	2.52	-39.9	-52.6	3.8	1.49e+00	0	53	104	0	51	15481
2026-01-19 07:43:06.10	94.15	2.68	-40.3	-52.7	3.8	1.49e+00	0	53	104	0	51	15679
2026-01-19 07:43:09.13	93.88	2.83	-40.3	-52.7	3.8	1.49e+00	0	53	104	0	50	16610
2026-01-19 07:43:12.16	93.60	2.98	-40.3	-52.7	3.8	1.49e+00	0	53	104	0	51	15680
2026-01-19 07:43:15.20	93.33	3.14	-40.1	-52.7	3.8	1.49e+00	0	54	104	0	51	15625
2026-01-19 07:43:18.23	93.04	3.29	-40.3	-52.7	3.8	1.49e+00	0	54	104	0	51	15651
2026-01-19 07:43:21.26	92.76	3.45	-40.0	-52.6	3.8	1.49e+00	0	54	104	0	51	15545
2026-01-19 07:43:24.29	92.47	3.60	-40.2	-52.7	3.8	1.49e+00	0	54	104	0	51	15583
2026-01-19 07:43:27.32	92.18	3.76	-40.3	-52.7	3.8	1.49e+00	0	54	104	0	51	15723
2026-01-19 07:43:30.35	91.89	3.91	-39.9	-52.6	3.8	1.49e+00	0	55	104	0	51	15497
2026-01-19 07:43:33.38	91.59	4.07	-40.0	-52.6	3.8	1.49e+00	0	55	104	0	51	15506
2026-01-19 07:43:36.42	91.29	4.22	-40.3	-52.7	3.8	1.49e+00	0	55	104	0	51	15653
2026-01-19 07:43:39.45	90.99	4.38	-40.2	-52.7	3.8	1.49e+00	0	55	104	0	51	15660
2026-01-19 07:43:42.48	90.68	4.53	-40.0	-52.6	3.8	1.49e+00	0	55	104	0	51	15437
2026-01-19 07:43:45.51	90.37	4.69	-40.0	-52.6	3.8	1.49e+00	0	55	104	0	50	16375
2026-01-19 07:43:48.54	90.06	4.84	-39.0	-52.2	3.8	1.49e+00	0	56	104	0	50	15684
2026-01-19 07:43:51.57	89.74	5.00	-40.2	-52.7	3.8	1.49e+00	0	56	104	0	51	15647
2026-01-19 07:43:54.60	89.42	5.16	-40.1	-52.7	3.8	1.49e+00	0	56	104	0	50	16534
2026-01-19 07:43:57.63	89.10	5.31	-40.1	-52.6	3.8	1.49e+00	0	56	104	0	51	15580
2026-01-19 07:44:00.67	88.77	5.47	-39.9	-52.5	3.8	1.49e+00	0	56	104	0	51	15379
2026-01-19 07:44:03.70	88.44	5.63	-40.1	-52.6	3.8	1.49e+00	0	56	104	0	51	15541
2026-01-19 07:44:06.73	88.10	5.78	-40.2	-52.7	3.8	1.49e+00	0	56	104	0	51	15610
2026-01-19 07:44:09.76	87.76	5.94	-40.2	-52.7	3.8	1.49e+00	0	57	104	0	50	16516
2026-01-19 07:44:12.79	87.42	6.10	-39.8	-52.5	3.8	1.49e+00	0	56	104	0	51	15315
2026-01-19 07:44:15.82	87.08	6.25	-40.2	-52.7	3.8	1.49e+00	0	57	104	0	50	16509
2026-01-19 07:44:18.85	86.73	6.41	-40.0	-52.6	3.8	1.49e+00	0	57	104	0	51	15471
2026-01-19 07:44:21.88	86.37	6.57	-40.2	-52.6	3.8	1.49e+00	0	57	104	0	51	15515
2026-01-19 07:44:24.91	86.02	6.72	-39.9	-52.5	3.8	1.49e+00	0	57	104	0	50	16269
2026-01-19 07:44:27.94	85.65	6.88	-40.3	-52.7	3.8	1.49e+00	0	57	104	0	51	15647
2026-01-19 07:44:30.98	85.29	7.03	-40.2	-52.7	3.8	1.49e+00	0	57	104	0	51	15646
2026-01-19 07:44:34.01	84.92	7.19	-39.7	-52.5	3.9	1.49e+00	0	57	104	0	51	15376
2026-01-19 07:44:37.04	84.55	7.35	-40.2	-52.7	3.8	1.49e+00	0	57	104	0	51	15643
2026-01-19 07:44:40.07	84.17	7.50	-40.2	-52.7	3.8	1.49e+00	0	58	104	0	50	16550
2026-01-19 07:44:43.10	83.79	7.66	-39.9	-52.6	3.8	1.49e+00	0	57	104	0	51	15489
2026-01-19 07:44:46.13	83.40	7.81	-40.0	-52.6	3.8	1.49e+00	0	58	104	0	51	15530
2026-01-19 07:44:49.16	83.01	7.97	-40.3	-52.7	3.8	1.49e+00	0	58	104	0	51	15641
2026-01-19 07:44:52.19	82.62	8.12	-40.0	-52.7	3.8	1.49e+00	0	58	104	0	51	15582
2026-01-19 07:44:55.22	82.22	8.27	-40.3	-52.7	3.8	1.49e+00	0	58	104	0	51	15730
2026-01-19 07:44:58.24	81.82	8.43	-40.1	-52.7	3.8	1.49e+00	0	58	104	0	51	15633
2026-01-19 07:45:01.27	81.41	8.58	-39.9	-52.6	3.8	1.49e+00	0	58	104	0	51	15553
2026-01-19 07:45:04.30	81.00	8.73	-40.3	-52.8	3.8	1.49e+00	0	58	104	0	51	15772
2026-01-19 07:45:07.32	80.59	8.89	-40.2	-52.7	3.8	1.49e+00	0	58	104	0	51	15702
2026-01-19 07:45:10.35	80.17	9.04	-40.4	-52.8	3.8	1.49e+00	0	58	104	0	51	15923
2026-01-19 07:45:13.38	79.74	9.19	-39.9	-52.7	3.8	1.49e+00	0	58	104	0	50	16614
2026-01-19 07:45:16.41	79.31	9.34	-40.3	-52.9	3.8	1.49e+00	0	58	104	0	51	16112
2026-01-19 07:45:19.43	78.88	9.49	-40.3	-52.9	3.8	1.49e+00	0	59	104	0	51	16106
2026-01-19 07:45:22.46	78.44	9.64	-40.7	-53.2	3.8	1.49e+00	0	59	104	0	52	15699
2026-01-19 07:45:25.49	78.00	9.79	-40.9	-53.4	3.8	1.49e+00	0	59	104	0	52	15959
2026-01-19 07:45:28.52	77.55	9.93	-40.8	-53.3	3.8	1.49e+00	0	59	104	0	52	15893
2026-01-19 07:45:31.55	77.10	10.08	-40.9	-53.3	3.8	1.49e+00	0	59	104	0	52	15883
2026-01-19 07:45:34.58	76.65	10.23	-41.0	-53.4	3.8	1.49e+00	0	59	104	0	52	16103
2026-01-19 07:45:37.60	76.19	10.37	-41.1	-53.6	3.8	1.49e+00	0	59	104	0	52	16375
2026-01-19 07:45:40.63	75.72	10.52	-41.1	-53.5	3.8	1.49e+00	0	59	104	0	52	16313
2026-01-19 07:45:43.66	75.25	10.66	-41.0	-53.4	3.8	1.49e+00	0	59	104	0	53	15179
2026-01-19 07:45:46.69	74.78	10.80	-41.0	-53.5	3.8	1.49e+00	0	59	104	0	53	15311
2026-01-19 07:45:49.72	74.30	10.94	-40.9	-53.5	3.8	1.49e+00	0	59	104	0	53	15243
2026-01-19 07:45:52.75	73.81	11.08	-40.9	-53.4	3.8	1.49e+00	0	59	104	0	53	15155
2026-01-19 07:45:55.78	73.33	11.22	-41.0	-53.5	3.8	1.49e+00	0	59	104	0	53	15244
2026-01-19 07:45:58.81	72.83	11.36	-40.9	-53.4	3.8	1.49e+00	0	59	104	0	53	15136
2026-01-19 07:46:01.83	72.34	11.49	-41.2	-53.7	3.8	1.49e+00	0	59	104	0	53	15626
2026-01-19 07:46:04.86	71.83	11.63	-41.2	-53.6	3.8	1.49e+00	0	60	104	0	53	15545
2026-01-19 07:46:07.89	71.33	11.76	-41.2	-53.7	3.8	1.49e+00	0	59	104	0	53	15675
2026-01-19 07:46:10.91	70.82	11.89	-41.2	-53.7	3.8	1.49e+00	0	60	104	0	53	15667
2026-01-19 07:46:13.94	70.30	12.02	-41.1	-53.5	3.8	1.49e+00	0	60	104	0	53	15399
2026-01-19 07:46:16.97	69.78	12.15	-41.3	-53.7	3.8	1.49e+00	0	60	104	0	53	15720
2026-01-19 07:46:20.00	69.25	12.28	-41.4	-53.8	3.8	1.49e+00	0	60	104	0	53	15877
2026-01-19 07:46:23.02	68.72	12.40	-41.1	-53.5	3.8	1.49e+00	0	60	104	0	53	15391
2026-01-19 07:46:26.05	68.19	12.53	-41.4	-53.9	3.8	1.49e+00	0	60	104	0	53	16066
2026-01-19 07:46:29.08	67.65	12.65	-41.3	-53.8	3.8	1.49e+00	0	60	104	0	53	15799
2026-01-19 07:46:32.11	67.11	12.77	-41.6	-54.0	3.8	1.49e+00	0	60	104	0	53	16307
2026-01-19 07:46:35.14	66.56	12.89	-41.4	-53.8	3.8	1.49e+00	0	60	104	0	53	15884
2026-01-19 07:46:38.17	66.01	13.00	-41.7	-54.2	3.8	1.49e+00	0	60	104	0	54	15734
2026-01-19 07:46:41.19	65.45	13.12	-41.5	-54.1	3.8	1.49e+00	0	60	104	0	54	15481
2026-01-19 07:46:44.22	64.89	13.23	-41.7	-54.2	3.8	1.49e+00	0	60	104	0	54	15690
2026-01-19 07:46:47.25	64.33	13.34	-42.0	-54.6	3.8	1.49e+00	0	60	104	0	54	16409
2026-01-19 07:46:50.28	63.76	13.44	-43.1	-53.8	3.8	1.49e+00	0	60	104	0	57	12615
2026-01-19 07:46:53.31	63.18	13.55	-42.4	-49.5	5.4	5.35e-01	0	60	0	3145728	56	8139
2026-01-19 07:46:56.34	62.61	13.65	-41.0	-45.0	9.7	1.54e-02	0	60	0	12582912	54	5407
2026-01-19 07:46:59.37	62.02	13.75	-40.7	-44.2	10.6	3.92e-03	0	60	0	22020096	53	5248
2026-01-19 07:47:02.39	61.44	13.85	-40.3	-43.4	11.6	7.72e-04	0	60	0	31457280	52	5042
2026-01-19 07:47:05.42	60.85	13.94	-40.1	-43.0	12.0	3.49e-04	0	60	0	40894464	52	4852
2026-01-19 07:47:08.45	60.26	14.03	-40.2	-43.1	12.1	2.53e-04	0	60	0	50331648	52	4886
2026-01-19 07:47:11.48	59.66	14.12	-40.3	-43.2	12.0	2.75e-04	0	60	0	59768832	52	4973
2026-01-19 07:47:14.51	59.06	14.21	-40.2	-43.1	12.2	1.94e-04	0	60	0	69206016	52	4888
2026-01-19 07:47:17.54	58.46	14.29	-40.4	-43.3	11.9	3.08e-04	0	60	0	78643200	52	5036
2026-01-19 07:47:20.57	57.85	14.37	-40.4	-43.2	12.0	3.52e-04	0	60	0	88080384	52	4979
2026-01-19 07:47:23.59	57.24	14.45	-40.3	-43.2	12.1	2.89e-04	0	60	0	97517568	52	4945
2026-01-19 07:47:26.62	56.63	14.52	-40.3	-43.2	12.2	2.52e-04	0	60	0	106954752	52	4927
2026-01-19 07:47:29.65	56.01	14.60	-40.3	-43.0	12.3	1.64e-04	0	61	0	116391936	52	4860
2026-01-19 07:47:32.67	55.40	14.66	-40.2	-42.9	12.5	1.32e-04	0	61	0	125829120	52	4808
2026-01-19 07:47:35.70	54.77	14.73	-40.2	-42.9	12.5	1.15e-04	0	60	0	135266304	52	4773
2026-01-19 07:47:38.73	54.15	14.79	-40.3	-43.0	12.4	1.40e-04	0	60	0	144703488	52	4843
2026-01-19 07:47:41.76	53.52	14.85	-40.2	-42.9	12.6	9.84e-05	0	61	0	154140672	52	4761
2026-01-19 07:47:44.79	52.89	14.91	-40.3	-43.0	12.4	1.83e-04	0	61	0	163577856	52	4860
2026-01-19 07:47:47.82	52.26	14.96	-40.1	-42.7	12.7	8.08e-05	0	61	0	173015040	52	4698
2026-01-19 07:47:50.85	51.63	15.01	-40.1	-42.8	12.7	8.85e-05	0	61	0	182452224	52	4724
2026-01-19 07:47:53.88	50.99	15.05	-40.2	-42.8	12.6	9.15e-05	0	61	0	191889408	52	4747
2026-01-19 07:47:56.91	50.35	15.09	-40.3	-43.0	12.5	1.13e-04	0	61	0	201326592	52	4834
2026-01-19 07:47:59.94	49.71	15.13	-40.5	-43.4	12.1	1.85e-04	0	61	0	210763776	52	5088
2026-01-19 07:48:02.97	49.07	15.17	-40.3	-43.1	12.5	1.48e-04	0	61	0	220200960	52	4876
2026-01-19 07:48:06.00	48.43	15.20	-40.3	-43.0	12.5	9.53e-05	0	61	0	229638144	52	4828
2026-01-19 07:48:09.03	47.79	15.22	-40.2	-42.9	12.6	1.07e-04	0	60	0	239075328	52	4811
2026-01-19 07:48:12.06	47.14	15.25	-40.2	-42.9	12.6	9.68e-05	0	61	0	248512512	52	4779
2026-01-19 07:48:15.09	46.50	15.27	-40.3	-43.0	12.5	1.05e-04	0	61	0	257949696	52	4831
2026-01-19 07:48:18.12	45.85	15.29	-40.4	-43.2	12.3	1.88e-04	0	61	0	267386880	52	4933
2026-01-19 07:48:21.15	45.20	15.30	-40.3	-43.1	12.4	1.20e-04	0	61	0	276824064	52	4877
2026-01-19 07:48:24.18	44.55	15.31	-40.4	-43.2	12.4	1.41e-04	0	61	0	286261248	52	4937
2026-01-19 07:48:27.20	43.91	15.31	-40.5	-43.3	12.2	1.67e-04	0	61	0	295698432	52	5006
2026-01-19 07:48:30.23	43.26	15.32	-40.4	-43.2	12.3	1.58e-04	0	61	0	306184192	52	4975
2026-01-19 07:48:33.26	42.61	15.31	-40.3	-43.0	12.6	1.23e-04	0	61	0	314572800	52	4823
2026-01-19 07:48:36.29	41.97	15.31	-40.2	-43.0	12.5	9.30e-05	0	61	0	325058560	52	4823
2026-01-19 07:48:39.31	41.32	15.30	-40.3	-43.0	12.5	1.40e-04	0	61	0	334495744	52	4839
2026-01-19 07:48:42.34	40.67	15.29	-40.2	-42.9	12.6	8.92e-05	0	61	0	343932928	52	4803
2026-01-19 07:48:45.37	40.03	15.27	-40.4	-43.3	12.2	2.01e-04	0	61	0	353370112	52	4990
2026-01-19 07:48:48.40	39.38	15.25	-40.3	-43.2	12.3	1.48e-04	0	61	0	362807296	52	4933
2026-01-19 07:48:51.43	38.74	15.23	-40.3	-43.1	12.4	1.28e-04	0	61	0	372244480	52	4881
2026-01-19 07:48:54.46	38.09	15.20	-40.1	-42.8	12.7	7.85e-05	0	61	0	381681664	52	4725
2026-01-19 07:48:57.49	37.45	15.17	-40.2	-42.9	12.7	7.70e-05	0	61	0	391118848	52	4785
2026-01-19 07:49:00.51	36.81	15.14	-40.3	-43.0	12.6	1.04e-04	0	61	0	400556032	52	4826
2026-01-19 07:49:03.54	36.17	15.10	-40.3	-43.0	12.5	1.33e-04	0	61	0	409993216	52	4823
2026-01-19 07:49:06.57	35.54	15.06	-40.2	-42.8	12.7	6.79e-05	0	61	0	419430400	52	4757
2026-01-19 07:49:09.60	34.90	15.01	-40.2	-42.8	12.7	8.01e-05	0	61	0	428867584	52	4748
2026-01-19 07:49:12.63	34.27	14.96	-40.3	-43.1	12.4	1.25e-04	0	61	0	438304768	52	4894
2026-01-19 07:49:15.66	33.64	14.91	-40.3	-43.0	12.5	8.46e-05	0	61	0	447741952	52	4833
2026-01-19 07:49:18.69	33.01	14.86	-40.1	-42.7	12.8	4.19e-05	0	61	0	457179136	52	4680
2026-01-19 07:49:21.72	32.38	14.80	-40.2	-42.9	12.7	7.09e-05	0	61	0	466616320	52	4768
2026-01-19 07:49:24.75	31.76	14.74	-40.2	-42.9	12.6	8.39e-05	0	61	0	476053504	52	4768
2026-01-19 07:49:27.78	31.14	14.67	-40.2	-42.9	12.6	8.31e-05	0	61	0	485490688	52	4802
2026-01-19 07:49:30.81	30.52	14.60	-40.4	-43.2	12.4	1.76e-04	0	61	0	494927872	52	4944
2026-01-19 07:49:33.84	29.90	14.53	-40.4	-43.3	12.2	2.29e-04	0	61	0	504365056	52	4993
2026-01-19 07:49:36.86	29.29	14.46	-40.2	-42.8	12.6	7.70e-05	0	61	0	513802240	52	4758
2026-01-19 07:49:39.90	28.68	14.38	-40.3	-43.0	12.5	1.32e-04	0	61	0	523239424	52	4833
2026-01-19 07:49:42.92	28.08	14.30	-40.4	-43.2	12.3	1.50e-04	0	61	0	532676608	52	4957
2026-01-19 07:49:45.95	27.48	14.22	-40.4	-43.2	12.3	2.17e-04	0	61	0	542113792	52	4961
2026-01-19 07:49:48.98	26.88	14.13	-40.3	-43.1	12.3	2.09e-04	0	61	0	551550976	52	4913
2026-01-19 07:49:52.01	26.28	14.04	-40.3	-43.1	12.4	1.47e-04	0	61	0	560988160	52	4888
2026-01-19 07:49:55.03	25.69	13.95	-40.2	-43.0	12.4	1.33e-04	0	61	0	570425344	52	4841
2026-01-19 07:49:58.06	25.11	13.86	-40.3	-43.0	12.4	1.54e-04	0	61	0	579862528	52	4869
2026-01-19 07:50:01.09	24.52	13.76	-40.4	-43.2	12.2	2.28e-04	0	61	0	589299712	52	4971
2026-01-19 07:50:04.12	23.94	13.66	-40.5	-43.4	12.0	2.94e-04	0	61	0	598736896	52	5049
2026-01-19 07:50:07.15	23.36	13.56	-40.5	-43.4	12.0	3.08e-04	0	61	0	608174080	52	5044
2026-01-19 07:50:10.18	22.79	13.46	-40.4	-43.3	12.0	2.93e-04	0	61	0	617611264	52	5037
2026-01-19 07:50:13.21	22.22	13.35	-40.5	-43.4	12.0	3.09e-04	0	61	0	627048448	52	5059
2026-01-19 07:50:16.24	21.66	13.24	-40.5	-43.5	11.8	3.65e-04	0	61	0	636485632	52	5124
2026-01-19 07:50:19.27	21.10	13.13	-40.3	-43.2	12.1	2.73e-04	0	61	0	645922816	52	4965
2026-01-19 07:50:22.30	20.55	13.02	-40.3	-43.1	12.2	2.01e-04	0	61	0	655360000	52	4907
2026-01-19 07:50:25.33	20.00	12.90	-40.4	-43.4	11.9	4.00e-04	0	61	0	664797184	52	5061
2026-01-19 07:50:28.36	19.45	12.79	-40.4	-43.3	12.0	2.72e-04	0	61	0	675282944	52	5007
2026-01-19 07:50:31.39	18.91	12.67	-40.3	-43.2	12.0	3.41e-04	0	61	0	684720128	52	4970
2026-01-19 07:50:34.42	18.37	12.55	-40.2	-43.1	12.1	2.60e-04	0	61	0	694157312	52	4876
2026-01-19 07:50:37.45	17.84	12.42	-40.4	-43.3	11.9	4.11e-04	0	61	0	703594496	52	5037
2026-01-19 07:50:40.48	17.31	12.30	-40.5	-43.5	11.6	6.94e-04	0	61	0	713031680	52	5156
2026-01-19 07:50:43.51	16.78	12.17	-40.6	-43.7	11.4	9.15e-04	0	61	0	722468864	52	5259
2026-01-19 07:50:46.54	16.27	12.04	-40.4	-43.5	11.6	7.60e-04	0	61	0	731906048	52	5121
2026-01-19 07:50:49.56	15.75	11.91	-40.5	-43.7	11.3	1.11e-03	0	61	0	741343232	52	5246
2026-01-19 07:50:52.59	15.24	11.78	-40.7	-44.0	11.0	1.99e-03	0	61	0	750780416	52	5403
2026-01-19 07:50:55.62	14.74	11.65	-40.7	-44.1	10.8	2.35e-03	0	61	0	760217600	52	5486
2026-01-19 07:50:58.65	14.24	11.52	-40.6	-44.0	10.8	2.69e-03	0	61	0	769654784	52	5450
2026-01-19 07:51:01.68	13.74	11.38	-40.5	-43.8	11.0	2.08e-03	0	61	0	779091968	52	5293
2026-01-19 07:51:04.70	13.25	11.24	-40.5	-43.9	10.8	2.39e-03	0	61	0	788529152	52	5369
2026-01-19 07:51:07.74	12.76	11.11	-40.5	-44.1	10.5	3.99e-03	0	61	0	797966336	52	5472
2026-01-19 07:51:10.77	12.28	10.97	-40.5	-44.4	9.7	1.10e-02	0	61	0	807403520	52	5694
2026-01-19 07:51:13.80	11.80	10.83	-40.6	-45.0	8.7	3.34e-02	0	61	0	816840704	52	6108
2026-01-19 07:51:16.82	11.33	10.68	-40.6	-45.2	8.4	4.38e-02	0	61	0	826277888	52	6203
2026-01-19 07:51:19.85	10.87	10.54	-41.1	-47.6	5.8	3.41e-01	0	61	0	835715072	52	8257
2026-01-19 07:51:22.88	10.40	10.40	-41.2	-50.7	4.1	1.47e+00	0	61	104	839909376	52	11742
2026-01-19 07:51:25.91	9.94	10.25	-40.9	-53.2	3.8	1.49e+00	0	61	104	839909376	53	14875
2026-01-19 07:51:28.94	9.49	10.11	-40.9	-53.4	3.8	1.49e+00	0	61	104	839909376	53	15069
2026-01-19 07:51:31.96	9.04	9.96	-40.6	-53.1	3.8	1.49e+00	0	61	104	839909376	53	14622
2026-01-19 07:51:34.99	8.60	9.81	-40.3	-52.7	3.8	1.49e+00	0	61	104	839909376	52	14712
2026-01-19 07:51:38.02	8.16	9.67	-40.2	-52.6	3.8	1.49e+00	0	61	104	839909376	52	14572
2026-01-19 07:51:41.04	7.72	9.52	-40.1	-52.5	3.8	1.49e+00	0	61	104	839909376	52	14493
2026-01-19 07:51:44.07	7.29	9.37	-40.1	-52.5	3.8	1.49e+00	0	61	104	839909376	52	14421
2026-01-19 07:51:47.10	6.86	9.22	-40.4	-52.8	3.8	1.49e+00	0	62	104	839909376	52	15010
2026-01-19 07:51:50.13	6.44	9.07	-40.1	-52.5	3.8	1.49e+00	0	61	104	839909376	52	14539
2026-01-19 07:51:53.16	6.02	8.92	-40.0	-52.5	3.8	1.49e+00	0	62	104	839909376	51	15252
2026-01-19 07:51:56.19	5.61	8.76	-40.0	-52.4	3.8	1.49e+00	0	61	104	839909376	51	15173
2026-01-19 07:51:59.22	5.20	8.61	-40.1	-52.6	3.8	1.49e+00	0	61	104	839909376	51	15451
2026-01-19 07:52:02.24	4.80	8.46	-40.1	-52.5	3.8	1.49e+00	0	61	104	839909376	51	15276
2026-01-19 07:52:05.27	4.40	8.31	-40.0	-52.5	3.8	1.49e+00	0	61	104	839909376	51	15245
2026-01-19 07:52:08.30	4.00	8.15	-40.0	-52.4	3.8	1.49e+00	0	62	104	839909376	51	15182
2026-01-19 07:52:11.33	3.61	8.00	-40.0	-52.6	3.8	1.49e+00	0	62	104	839909376	51	15406
2026-01-19 07:52:14.36	3.22	7.85	-45.1	-57.6	3.8	1.49e+00	0	62	104	839909376	60	16354
2026-01-19 07:52:17.39	2.84	7.69	-45.5	-58.0	3.8	1.49e+00	0	61	104	839909376	61	16246
2026-01-19 07:52:20.42	2.46	7.54	-45.5	-58.0	3.8	1.49e+00	0	62	104	839909376	61	16252
2026-01-19 07:52:23.45	2.09	7.38	-45.4	-57.8	3.8	1.49e+00	0	62	104	839909376	61	15774
2026-01-19 07:52:26.48	1.72	7.23	-45.3	-57.7	3.8	1.49e+00	0	62	104	839909376	61	15658
2026-01-19 07:52:29.51	1.35	7.07	-45.3	-57.7	3.8	1.49e+00	0	62	104	839909376	61	15594
2026-01-19 07:52:32.54	0.99	6.92	-45.3	-57.6	3.8	1.49e+00	0	62	104	839909376	61	15532
2026-01-19 07:52:35.57	0.63	6.76	-45.3	-57.6	3.8	1.49e+00	0	62	104	839909376	61	15504
2026-01-19 07:52:38.60	0.27	6.60	-45.1	-57.6	3.8	1.49e+00	0	62	104	839909376	61	15491
2026-01-19 07:52:41.63	359.92	6.45	-45.3	-57.6	3.8	1.49e+00	0	62	104	839909376	61	15515
2026-01-19 07:52:44.66	359.58	6.29	-45.2	-57.6	3.8	1.49e+00	0	62	104	839909376	61	15476
2026-01-19 07:52:47.69	359.23	6.14	-45.3	-57.6	3.8	1.49e+00	0	62	104	839909376	61	15543
2026-01-19 07:52:50.72	358.89	5.98	-45.3	-57.6	3.8	1.49e+00	0	61	104	839909376	61	15458
2026-01-19 07:52:53.75	358.56	5.82	-45.3	-57.6	3.8	1.49e+00	0	62	104	839909376	61	15527
2026-01-19 07:52:56.78	358.22	5.67	-45.3	-57.6	3.8	1.49e+00	0	62	104	839909376	61	15447
2026-01-19 07:52:59.81	357.90	5.51	-45.2	-57.6	3.8	1.49e+00	0	62	104	839909376	61	15450
2026-01-19 07:53:02.84	357.57	5.36	-45.3	-57.6	3.8	1.49e+00	0	61	104	839909376	61	15455
2026-01-19 07:53:05.87	357.25	5.20	-45.3	-57.6	3.8	1.49e+00	0	62	104	839909376	61	15449
2026-01-19 07:53:08.90	356.93	5.04	-45.3	-57.6	3.8	1.49e+00	0	62	104	839909376	61	15450
2026-01-19 07:53:11.93	356.62	4.89	-45.3	-57.6	3.8	1.49e+00	0	62	104	839909376	61	15461
2026-01-19 07:53:14.96	356.31	4.73	-45.2	-57.6	3.8	1.49e+00	0	62	104	839909376	61	15427
2026-01-19 07:53:17.99	356.00	4.58	-45.2	-57.6	3.8	1.49e+00	0	62	104	839909376	61	15459
2026-01-19 07:53:21.02	355.70	4.42	-45.2	-57.5	3.8	1.49e+00	0	62	104	839909376	61	15383
2026-01-19 07:53:24.05	355.40	4.27	-45.2	-57.6	3.8	1.49e+00	0	62	104	839909376	61	15420
2026-01-19 07:53:27.08	355.10	4.11	-45.3	-57.6	3.8	1.49e+00	0	62	104	839909376	61	15474
2026-01-19 07:53:30.11	354.80	3.96	-45.3	-57.5	3.8	1.49e+00	0	62	104	839909376	61	15377
2026-01-19 07:53:33.14	354.51	3.80	-45.2	-57.5	3.8	1.49e+00	0	61	104	839909376	61	15391
2026-01-19 07:53:36.17	354.23	3.65	-45.2	-57.5	3.8	1.49e+00	0	62	104	839909376	61	15391
2026-01-19 07:53:39.20	353.94	3.49	-45.2	-57.6	3.8	1.49e+00	0	62	104	839909376	61	15411
2026-01-19 07:53:42.23	353.66	3.34	-45.2	-57.6	3.8	1.49e+00	0	62	104	839909376	61	15521
2026-01-19 07:53:45.26	353.38	3.18	-45.2	-57.5	3.8	1.49e+00	0	62	104	839909376	61	15385
2026-01-19 07:53:48.30	353.10	3.03	-45.2	-57.6	3.8	1.49e+00	0	62	104	839909376	61	15423
2026-01-19 07:53:51.32	352.83	2.88	-45.2	-57.5	3.8	1.49e+00	0	62	104	839909376	61	15382
2026-01-19 07:53:54.35	352.56	2.72	-45.2	-57.5	3.8	1.49e+00	0	62	104	839909376	61	15382
2026-01-19 07:53:57.38	352.30	2.57	-45.2	-57.6	3.8	1.49e+00	0	62	104	839909376	61	15417
2026-01-19 07:54:00.41	352.03	2.42	-45.2	-57.5	3.8	1.49e+00	0	62	104	839909376	61	15339
2026-01-19 07:54:03.44	351.77	2.27	-45.2	-57.6	3.8	1.49e+00	0	62	104	839909376	61	15448
2026-01-19 07:54:06.47	351.51	2.11	-45.2	-57.5	3.8	1.49e+00	0	62	104	839909376	61	15368
2026-01-19 07:54:09.50	351.26	1.96	-45.2	-57.5	3.8	1.49e+00	0	62	104	839909376	61	15389

#Closed at: 2026-01-19 07:54:11
#Recorded file [839 MB]: D:/lorett/data/31039_260119_104253.dat