passes_logs/2026/01/19/R2.0S_Moscow/R2.0S_Moscow__20260119_011021_NOAA_21_JPSS-2_rec.log

#Pass ID: 20260119_011021_NOAA 21 (JPSS-2)
#Satellite: NOAA 21 (JPSS-2)
#Configuration: NOAA-21
#almurnet v.1.7.20251203
#Start time: 2026-01-19 01:12:08

#Version: 2.2.20231116
#Station: R2.0S_Moscow
#Location: 37.707566 lon 55.798166 lat
#TLE: 1 54234U 22150A   26017.90260625  .00000050  00000+0  44518-4 0  9994
#TLE: 2 54234  98.7502 318.7672 0000612 269.1755  90.9351 14.19535344165221

#Time	Az	El	Level	Level2	SNR	BER	BlckErr	Temp	State	Recorded	gain1	gain2
2026-01-19 01:12:08.93	2.75	8.76	-45.1	-56.8	3.8	8.46e-01	0	62	0	0	61	14095
2026-01-19 01:12:11.95	2.46	8.97	-45.5	-57.9	3.8	1.49e+00	0	62	104	0	62	15151
2026-01-19 01:12:14.98	2.17	9.18	-45.3	-57.7	3.8	1.49e+00	0	62	104	0	62	14790
2026-01-19 01:12:18.01	1.87	9.39	-44.4	-57.0	3.8	1.49e+00	0	62	104	0	60	15262
2026-01-19 01:12:21.05	1.57	9.60	-41.4	-54.0	3.8	1.49e+00	0	62	104	0	54	15251
2026-01-19 01:12:24.08	1.27	9.81	-41.4	-54.0	3.8	1.49e+00	0	62	104	0	54	15267
2026-01-19 01:12:27.11	0.96	10.03	-41.3	-53.9	3.8	1.49e+00	0	62	104	0	54	15192
2026-01-19 01:12:30.14	0.64	10.24	-41.3	-54.0	3.8	1.49e+00	0	62	104	0	54	15248
2026-01-19 01:12:33.17	0.32	10.46	-41.3	-53.9	3.8	1.49e+00	0	62	104	0	54	15219
2026-01-19 01:12:36.20	360.00	10.67	-41.3	-53.9	3.8	1.49e+00	0	62	104	0	54	15204
2026-01-19 01:12:39.23	359.67	10.89	-41.3	-53.9	3.8	1.49e+00	0	62	104	0	54	15182
2026-01-19 01:12:42.27	359.33	11.11	-41.3	-53.8	3.8	1.49e+00	0	62	104	0	54	14975
2026-01-19 01:12:45.30	358.99	11.33	-41.3	-53.9	3.8	1.49e+00	0	62	104	0	54	15091
2026-01-19 01:12:48.33	358.65	11.55	-41.3	-53.7	3.8	1.49e+00	0	62	104	0	54	14730
2026-01-19 01:12:51.36	358.30	11.77	-41.3	-53.7	3.8	1.49e+00	0	62	104	0	54	14767
2026-01-19 01:12:54.39	357.94	12.00	-41.3	-53.3	3.8	1.49e+00	0	62	104	0	54	14168
2026-01-19 01:12:57.42	357.58	12.22	-40.9	-49.9	4.3	1.47e+00	0	62	104	0	53	10117
2026-01-19 01:13:00.45	357.21	12.44	-39.6	-44.6	8.0	8.39e-02	0	62	0	6291456	51	6182
2026-01-19 01:13:03.48	356.84	12.67	-39.1	-43.0	9.7	9.72e-03	0	62	0	15728640	49	5772
2026-01-19 01:13:06.51	356.46	12.89	-40.7	-46.8	6.2	1.33e+00	0	62	0	23068672	52	7482
2026-01-19 01:13:09.54	356.07	13.12	-40.4	-46.3	6.6	1.61e-01	0	62	0	25165824	51	7469
2026-01-19 01:13:12.57	355.68	13.35	-40.9	-50.1	4.2	1.46e+00	0	62	104	30408704	52	10990
2026-01-19 01:13:15.60	355.28	13.58	-41.1	-52.3	3.8	1.49e+00	0	62	104	30408704	52	14148
2026-01-19 01:13:18.63	354.88	13.81	-41.0	-53.2	3.8	1.49e+00	0	62	104	30408704	53	14844
2026-01-19 01:13:21.66	354.47	14.04	-41.0	-53.4	3.8	1.49e+00	0	62	104	30408704	53	15070
2026-01-19 01:13:24.69	354.05	14.27	-40.7	-53.2	3.8	1.49e+00	0	62	104	30408704	53	14798
2026-01-19 01:13:27.72	353.63	14.50	-40.8	-53.3	3.8	1.49e+00	0	62	104	30408704	53	14899
2026-01-19 01:13:30.75	353.20	14.73	-40.8	-53.3	3.8	1.49e+00	0	62	104	30408704	52	15831
2026-01-19 01:13:33.78	352.76	14.96	-40.8	-53.3	3.8	1.49e+00	0	62	104	30408704	52	15763
2026-01-19 01:13:36.81	352.31	15.19	-40.4	-53.3	3.8	1.49e+00	0	62	104	30408704	52	15917
2026-01-19 01:13:39.83	351.86	15.43	-40.8	-53.4	3.8	1.49e+00	0	62	104	30408704	52	15950
2026-01-19 01:13:42.86	351.41	15.66	-40.1	-53.5	3.8	1.49e+00	0	62	104	30408704	52	16216
2026-01-19 01:13:45.89	350.94	15.89	-40.6	-53.6	3.9	1.49e+00	0	62	104	30408704	52	16344
2026-01-19 01:13:48.92	350.46	16.13	-40.2	-53.6	3.8	1.49e+00	0	62	104	30408704	51	17340
2026-01-19 01:13:51.95	349.98	16.36	-40.0	-53.5	3.8	1.49e+00	0	62	104	30408704	51	17235
2026-01-19 01:13:54.98	349.49	16.60	-41.5	-53.8	3.8	1.49e+00	0	62	104	30408704	53	15844
2026-01-19 01:13:58.01	349.00	16.83	-41.2	-53.8	3.8	1.49e+00	0	62	104	30408704	53	15798
2026-01-19 01:14:01.04	348.49	17.07	-40.9	-53.5	3.8	1.49e+00	0	62	104	30408704	53	15278
2026-01-19 01:14:04.06	347.98	17.30	-41.4	-53.8	3.8	1.49e+00	0	62	104	30408704	53	15879
2026-01-19 01:14:07.09	347.46	17.53	-41.1	-53.6	3.8	1.49e+00	0	62	104	30408704	53	15489
2026-01-19 01:14:10.12	346.93	17.77	-41.5	-53.8	3.8	1.49e+00	0	62	104	30408704	53	15920
2026-01-19 01:14:13.14	346.39	18.00	-41.1	-53.6	3.8	1.49e+00	0	62	104	30408704	53	15450
2026-01-19 01:14:16.17	345.85	18.23	-41.1	-53.5	3.8	1.49e+00	0	62	104	30408704	53	15325
2026-01-19 01:14:19.20	345.29	18.47	-40.9	-53.4	3.8	1.49e+00	0	62	104	30408704	53	15151
2026-01-19 01:14:22.22	344.73	18.70	-41.0	-53.4	3.8	1.49e+00	0	62	104	30408704	53	15144
2026-01-19 01:14:25.25	344.16	18.93	-41.2	-53.7	3.8	1.49e+00	0	62	104	30408704	53	15709
2026-01-19 01:14:28.28	343.58	19.16	-40.9	-53.4	3.8	1.49e+00	0	62	104	30408704	53	15121
2026-01-19 01:14:31.31	342.99	19.39	-41.2	-53.8	3.8	1.49e+00	0	62	104	30408704	53	15769
2026-01-19 01:14:34.33	342.39	19.62	-40.7	-53.2	3.8	1.49e+00	0	62	104	30408704	53	14788
2026-01-19 01:14:37.36	341.78	19.84	-40.6	-53.5	3.8	1.49e+00	0	62	104	30408704	53	15235
2026-01-19 01:14:40.39	341.16	20.07	-42.3	-53.2	3.8	1.49e+00	0	62	104	30408704	55	13175
2026-01-19 01:14:43.42	340.53	20.29	-41.2	-47.5	6.2	4.17e-01	0	62	0	31457280	54	7263
2026-01-19 01:14:46.44	339.90	20.51	-40.9	-45.4	8.7	3.87e-02	0	62	0	40894464	53	6001
2026-01-19 01:14:49.47	339.25	20.74	-39.9	-42.9	11.6	1.04e-03	0	62	0	50331648	51	5075
2026-01-19 01:14:52.50	338.60	20.95	-39.2	-41.6	13.2	2.28e-05	0	62	0	59768832	50	4630
2026-01-19 01:14:55.53	337.93	21.17	-39.3	-41.6	13.4	1.52e-05	0	62	0	69206016	50	4610
2026-01-19 01:14:58.56	337.26	21.38	-39.5	-41.7	13.6	6.10e-06	0	62	0	78643200	50	4684
2026-01-19 01:15:01.59	336.58	21.60	-39.5	-41.7	13.8	3.80e-06	0	62	0	88080384	50	4688
2026-01-19 01:15:04.62	335.88	21.80	-39.6	-41.8	13.7	3.80e-06	0	62	0	97517568	50	4734
2026-01-19 01:15:07.65	335.18	22.01	-39.8	-42.1	13.6	6.10e-06	0	62	0	106954752	50	4899
2026-01-19 01:15:10.68	334.47	22.21	-39.9	-42.2	13.6	6.10e-06	0	62	0	116391936	50	4942
2026-01-19 01:15:13.72	333.75	22.41	-39.9	-42.2	13.6	1.14e-05	0	62	0	125829120	50	4929
2026-01-19 01:15:16.75	333.01	22.61	-39.8	-42.1	13.8	3.00e-06	0	62	0	135266304	50	4879
2026-01-19 01:15:19.78	332.27	22.80	-40.0	-42.4	13.5	8.30e-06	0	62	0	144703488	50	5046
2026-01-19 01:15:22.80	331.53	22.99	-39.9	-42.2	13.6	5.30e-06	0	62	0	154140672	50	4968
2026-01-19 01:15:25.83	330.77	23.18	-40.0	-42.3	13.5	1.37e-05	0	62	0	163577856	50	5029
2026-01-19 01:15:28.86	330.00	23.36	-40.1	-42.5	13.4	1.44e-05	0	62	0	173015040	50	5107
2026-01-19 01:15:31.90	329.22	23.54	-40.1	-42.4	13.5	1.06e-05	0	62	0	182452224	50	5064
2026-01-19 01:15:34.92	328.44	23.71	-40.0	-42.2	13.6	3.80e-06	0	62	0	191889408	50	4968
2026-01-19 01:15:37.95	327.64	23.87	-39.9	-42.2	13.7	8.30e-06	0	62	0	201326592	50	4943
2026-01-19 01:15:40.98	326.84	24.04	-39.7	-41.9	14.0	1.50e-06	0	62	0	210763776	50	4771
2026-01-19 01:15:44.01	326.03	24.19	-39.9	-42.2	13.7	9.90e-06	0	62	0	220200960	50	4946
2026-01-19 01:15:47.03	325.21	24.35	-40.2	-42.5	13.4	2.13e-05	0	62	0	230686720	50	5137
2026-01-19 01:15:50.06	324.39	24.49	-39.9	-42.2	13.8	2.20e-06	0	62	0	239075328	50	4927
2026-01-19 01:15:53.09	323.55	24.63	-39.9	-42.0	13.9	1.50e-06	0	62	0	249561088	50	4867
2026-01-19 01:15:56.12	322.71	24.77	-39.7	-41.8	14.1	7.00e-07	0	62	0	257949696	50	4725
2026-01-19 01:15:59.15	321.86	24.89	-39.7	-41.8	14.1	1.50e-06	0	62	0	268435456	50	4730
2026-01-19 01:16:02.18	321.01	25.02	-39.6	-41.8	14.1	7.00e-07	0	62	0	277872640	50	4713
2026-01-19 01:16:05.21	320.14	25.13	-39.7	-41.8	14.0	1.50e-06	0	62	0	287309824	50	4755
2026-01-19 01:16:08.24	319.27	25.24	-39.8	-41.9	14.0	2.20e-06	0	62	0	296747008	50	4809
2026-01-19 01:16:11.27	318.40	25.34	-39.6	-41.7	14.2	7.00e-07	0	62	0	306184192	50	4652
2026-01-19 01:16:14.30	317.52	25.44	-39.4	-41.4	14.5	7.00e-07	0	62	0	315621376	50	4512
2026-01-19 01:16:17.33	316.63	25.53	-39.5	-41.6	14.3	7.00e-07	0	62	0	325058560	50	4600
2026-01-19 01:16:20.36	315.74	25.61	-39.7	-41.8	14.0	4.50e-06	0	62	0	334495744	50	4748
2026-01-19 01:16:23.39	314.85	25.68	-39.8	-42.0	13.9	3.80e-06	0	62	0	343932928	50	4830
2026-01-19 01:16:26.41	313.95	25.75	-39.6	-41.7	14.2	7.00e-07	0	62	0	353370112	50	4685
2026-01-19 01:16:29.44	313.05	25.80	-39.7	-41.8	14.0	1.50e-06	0	62	0	362807296	50	4745
2026-01-19 01:16:32.47	312.14	25.85	-39.5	-41.5	14.4	7.00e-07	0	62	0	372244480	50	4589
2026-01-19 01:16:35.50	311.23	25.90	-39.6	-41.7	14.2	4.50e-06	0	62	0	381681664	50	4670
2026-01-19 01:16:38.53	310.32	25.93	-39.9	-42.1	13.8	5.30e-06	0	62	0	391118848	50	4917
2026-01-19 01:16:41.57	309.41	25.96	-40.0	-42.3	13.6	5.30e-06	0	62	0	400556032	50	5004
2026-01-19 01:16:44.59	308.50	25.98	-39.9	-42.1	13.8	4.50e-06	0	62	0	409993216	50	4902
2026-01-19 01:16:47.62	307.58	25.99	-39.7	-41.8	14.1	7.00e-07	0	62	0	419430400	50	4759
2026-01-19 01:16:50.65	306.67	25.99	-39.8	-42.1	13.8	2.20e-06	0	62	0	428867584	50	4887
2026-01-19 01:16:53.68	305.75	25.99	-39.7	-41.8	14.0	1.50e-06	0	62	0	438304768	50	4758
2026-01-19 01:16:56.71	304.84	25.97	-39.7	-41.9	14.0	3.00e-06	0	62	0	447741952	50	4797
2026-01-19 01:16:59.73	303.93	25.95	-39.9	-42.1	13.9	7.00e-07	0	62	0	457179136	50	4903
2026-01-19 01:17:02.76	303.01	25.92	-39.9	-42.1	13.8	5.30e-06	0	62	0	466616320	50	4919
2026-01-19 01:17:05.79	302.10	25.89	-39.9	-42.1	13.8	3.80e-06	0	62	0	476053504	50	4880
2026-01-19 01:17:08.82	301.19	25.84	-39.7	-41.8	14.1	0.00e+00	0	62	0	485490688	50	4741
2026-01-19 01:17:11.85	300.29	25.79	-39.6	-41.7	14.2	0.00e+00	0	62	0	494927872	50	4654
2026-01-19 01:17:14.88	299.38	25.73	-39.7	-41.8	14.1	1.50e-06	0	62	0	504365056	50	4736
2026-01-19 01:17:17.91	298.49	25.66	-39.8	-42.1	13.8	3.80e-06	0	62	0	513802240	50	4884
2026-01-19 01:17:20.94	297.59	25.58	-39.9	-42.1	13.8	7.60e-06	0	62	0	523239424	50	4925
2026-01-19 01:17:23.97	296.70	25.50	-39.9	-42.1	13.8	3.80e-06	0	62	0	532676608	50	4910
2026-01-19 01:17:27.00	295.81	25.41	-39.8	-42.0	13.9	1.50e-06	0	62	0	542113792	50	4860
2026-01-19 01:17:30.03	294.93	25.32	-39.6	-41.7	14.2	1.50e-06	0	62	0	551550976	50	4694
2026-01-19 01:17:33.06	294.06	25.21	-39.6	-41.7	14.2	1.50e-06	0	62	0	560988160	50	4683
2026-01-19 01:17:36.09	293.19	25.10	-39.7	-41.8	14.1	7.00e-07	0	62	0	571473920	50	4746
2026-01-19 01:17:39.12	292.33	24.98	-39.9	-42.2	13.7	8.30e-06	0	62	0	579862528	50	4930
2026-01-19 01:17:42.15	291.47	24.86	-40.0	-42.3	13.5	1.22e-05	0	62	0	590348288	50	5017
2026-01-19 01:17:45.18	290.62	24.73	-39.8	-42.1	13.8	2.20e-06	0	62	0	599785472	50	4873
2026-01-19 01:17:48.21	289.78	24.59	-39.7	-41.9	13.9	4.50e-06	0	62	0	609222656	50	4803
2026-01-19 01:17:51.24	288.94	24.45	-39.6	-41.7	14.1	1.50e-06	0	62	0	618659840	50	4698
2026-01-19 01:17:54.27	288.12	24.30	-39.6	-41.7	14.2	6.10e-06	0	62	0	628097024	50	4671
2026-01-19 01:17:57.30	287.30	24.15	-39.6	-41.8	14.1	3.00e-06	0	62	0	637534208	50	4712
2026-01-19 01:18:00.31	286.49	23.99	-39.6	-41.8	14.1	7.00e-07	0	62	0	646971392	50	4721
2026-01-19 01:18:03.34	285.69	23.83	-39.6	-41.7	14.2	7.00e-07	0	62	0	656408576	50	4656
2026-01-19 01:18:06.37	284.90	23.66	-39.7	-41.9	14.0	0.00e+00	0	62	0	665845760	50	4774
2026-01-19 01:18:09.39	284.11	23.48	-39.6	-41.7	14.1	0.00e+00	0	62	0	675282944	50	4698
2026-01-19 01:18:12.42	283.33	23.30	-39.6	-41.7	14.1	1.50e-06	0	62	0	684720128	50	4674
2026-01-19 01:18:15.45	282.57	23.12	-39.3	-41.3	14.5	7.00e-07	0	62	0	694157312	50	4482
2026-01-19 01:18:18.48	281.81	22.94	-39.5	-41.6	14.2	7.00e-07	0	62	0	703594496	50	4644
2026-01-19 01:18:21.51	281.06	22.74	-39.4	-41.5	14.3	1.50e-06	0	62	0	713031680	50	4568
2026-01-19 01:18:24.54	280.32	22.55	-39.4	-41.4	14.4	7.00e-07	0	62	0	722468864	50	4542
2026-01-19 01:18:27.57	279.59	22.35	-39.7	-41.9	13.9	2.20e-06	0	62	0	731906048	50	4782
2026-01-19 01:18:30.60	278.86	22.15	-40.0	-42.3	13.5	6.80e-06	0	62	0	741343232	50	5005
2026-01-19 01:18:33.63	278.15	21.95	-40.0	-42.3	13.5	1.29e-05	0	62	0	750780416	50	4991
2026-01-19 01:18:36.66	277.45	21.74	-40.0	-42.3	13.5	7.60e-06	0	62	0	760217600	50	5036
2026-01-19 01:18:39.69	276.76	21.53	-39.9	-42.2	13.6	9.10e-06	0	62	0	769654784	50	4932
2026-01-19 01:18:42.72	276.07	21.31	-39.6	-41.7	14.0	2.20e-06	0	62	0	779091968	50	4676
2026-01-19 01:18:45.75	275.40	21.10	-39.7	-41.9	13.9	3.00e-06	0	62	0	788529152	50	4777
2026-01-19 01:18:48.78	274.73	20.88	-40.3	-42.8	12.9	5.03e-05	0	62	0	797966336	51	4991
2026-01-19 01:18:51.81	274.08	20.66	-40.0	-42.3	13.4	1.44e-05	0	62	0	807403520	51	4718
2026-01-19 01:18:54.84	273.43	20.44	-39.7	-42.0	13.8	6.10e-06	0	62	0	816840704	51	4550
2026-01-19 01:18:57.87	272.79	20.21	-39.7	-41.9	13.9	7.00e-07	0	62	0	826277888	51	4497
2026-01-19 01:19:00.90	272.16	19.99	-39.7	-41.8	13.8	2.20e-06	0	62	0	835715072	51	4491
2026-01-19 01:19:03.93	271.55	19.76	-39.5	-41.6	14.1	2.20e-06	0	62	0	845152256	50	4617
2026-01-19 01:19:06.95	270.94	19.53	-39.7	-42.0	13.7	1.50e-06	0	62	0	854589440	50	4821
2026-01-19 01:19:09.98	270.34	19.30	-40.1	-42.4	13.3	1.44e-05	0	62	0	864026624	50	5094
2026-01-19 01:19:13.01	269.75	19.07	-40.0	-42.3	13.4	1.14e-05	0	62	0	873463808	50	5015
2026-01-19 01:19:16.03	269.17	18.84	-39.9	-42.2	13.5	8.30e-06	0	62	0	882900992	50	4932
2026-01-19 01:19:19.06	268.59	18.61	-39.4	-41.6	14.1	2.20e-06	0	62	0	892338176	50	4600
2026-01-19 01:19:22.09	268.03	18.38	-39.9	-42.1	13.5	1.06e-05	0	62	0	901775360	50	4924
2026-01-19 01:19:25.12	267.47	18.14	-40.1	-42.5	13.2	2.44e-05	0	62	0	911212544	50	5112
2026-01-19 01:19:28.15	266.93	17.91	-40.1	-42.5	13.1	2.67e-05	0	62	0	920649728	50	5151
2026-01-19 01:19:31.18	266.39	17.67	-39.9	-42.2	13.4	1.14e-05	0	62	0	931135488	50	4974
2026-01-19 01:19:34.21	265.86	17.44	-39.8	-42.0	13.7	5.30e-06	0	62	0	939524096	50	4863
2026-01-19 01:19:37.24	265.33	17.20	-39.8	-42.0	13.6	8.30e-06	0	62	0	950009856	50	4864
2026-01-19 01:19:40.27	264.82	16.97	-40.0	-42.3	13.3	2.13e-05	0	62	0	958398464	50	5039
2026-01-19 01:19:43.30	264.31	16.73	-40.4	-43.1	12.6	9.46e-05	0	62	0	968884224	51	5167
2026-01-19 01:19:46.33	263.82	16.50	-40.5	-43.2	12.5	1.36e-04	0	62	0	978321408	51	5224
2026-01-19 01:19:49.35	263.33	16.26	-40.3	-42.8	12.9	4.50e-05	0	62	0	987758592	51	4997
2026-01-19 01:19:52.38	262.84	16.03	-40.2	-42.7	12.9	5.03e-05	0	62	0	997195776	51	4973
2026-01-19 01:19:55.41	262.37	15.79	-40.5	-43.2	12.4	1.68e-04	0	62	0	1006632960	51	5260
2026-01-19 01:19:58.44	261.90	15.56	-40.6	-43.4	12.1	2.77e-04	0	62	0	1016070144	52	5050
2026-01-19 01:20:01.46	261.44	15.32	-40.1	-42.6	12.9	4.34e-05	0	62	0	1025507328	52	4621
2026-01-19 01:20:04.49	260.99	15.09	-39.8	-42.2	13.4	1.06e-05	0	62	0	1034944512	51	4661
2026-01-19 01:20:07.52	260.54	14.85	-40.1	-42.5	13.0	2.28e-05	0	62	0	1044381696	51	4852
2026-01-19 01:20:10.55	260.11	14.62	-40.6	-43.4	12.2	2.10e-04	0	62	0	1053818880	51	5357
2026-01-19 01:20:13.58	259.67	14.39	-40.6	-43.3	12.1	3.21e-04	0	62	0	1063256064	52	5040
2026-01-19 01:20:16.60	259.25	14.16	-40.2	-42.7	12.7	7.78e-05	0	62	0	1072693248	52	4691
2026-01-19 01:20:19.63	258.83	13.93	-40.0	-42.5	12.9	5.95e-05	0	62	0	1082130432	52	4573
2026-01-19 01:20:22.66	258.42	13.70	-40.3	-42.9	12.6	9.61e-05	0	62	0	1091567616	51	5060
2026-01-19 01:20:25.69	258.01	13.47	-40.8	-43.7	11.7	5.71e-04	0	62	0	1101004800	52	5243
2026-01-19 01:20:28.71	257.62	13.24	-40.9	-44.0	11.3	1.21e-03	0	62	0	1110441984	52	5456
2026-01-19 01:20:31.75	257.22	13.01	-40.7	-43.6	11.7	7.46e-04	0	62	0	1119879168	52	5198
2026-01-19 01:20:34.77	256.84	12.78	-40.3	-42.9	12.4	1.37e-04	0	62	0	1129316352	52	4786
2026-01-19 01:20:37.80	256.46	12.56	-40.2	-42.9	12.5	1.23e-04	0	62	0	1138753536	52	4760
2026-01-19 01:20:40.83	256.08	12.33	-40.4	-43.1	12.2	2.04e-04	0	62	0	1148190720	52	4918
2026-01-19 01:20:43.86	255.71	12.10	-40.7	-43.7	11.6	5.37e-04	0	62	0	1157627904	52	5248
2026-01-19 01:20:46.89	255.35	11.88	-40.8	-43.9	11.4	9.35e-04	0	63	0	1167065088	52	5361
2026-01-19 01:20:49.91	254.99	11.66	-40.7	-43.6	11.6	6.45e-04	0	62	0	1176502272	52	5199
2026-01-19 01:20:52.94	254.64	11.44	-40.4	-43.2	12.1	3.03e-04	0	62	0	1185939456	52	4955
2026-01-19 01:20:55.97	254.29	11.22	-40.3	-43.1	12.2	2.35e-04	0	62	0	1195376640	52	4883
2026-01-19 01:20:59.01	253.95	10.99	-40.6	-43.5	11.8	4.52e-04	0	62	0	1204813824	52	5133
2026-01-19 01:21:02.04	253.61	10.78	-40.8	-43.8	11.5	9.31e-04	0	62	0	1214251008	52	5290
2026-01-19 01:21:05.06	253.28	10.56	-40.9	-44.0	11.2	1.28e-03	0	62	0	1223688192	52	5425
2026-01-19 01:21:08.09	252.95	10.34	-40.8	-43.9	11.3	1.14e-03	0	62	0	1233125376	52	5342
2026-01-19 01:21:11.13	252.63	10.12	-40.6	-43.5	11.6	6.16e-04	0	62	0	1242562560	52	5118
2026-01-19 01:21:14.16	252.31	9.91	-40.5	-43.5	11.6	6.29e-04	0	62	0	1251999744	52	5107
2026-01-19 01:21:17.18	252.00	9.69	-40.6	-43.6	11.6	7.45e-04	0	62	0	1261436928	52	5166
2026-01-19 01:21:20.21	251.70	9.48	-40.8	-44.0	11.2	1.29e-03	0	62	0	1270874112	52	5404
2026-01-19 01:21:23.24	251.39	9.27	-41.0	-44.3	10.8	2.39e-03	0	62	0	1280311296	52	5629
2026-01-19 01:21:26.26	251.10	9.06	-41.1	-44.5	10.6	3.42e-03	0	62	0	1289748480	52	5750
2026-01-19 01:21:29.29	250.80	8.85	-41.0	-44.4	10.6	3.59e-03	0	62	0	1299185664	52	5688
2026-01-19 01:21:32.32	250.51	8.64	-40.9	-44.2	10.8	2.98e-03	0	62	0	1308622848	52	5560
2026-01-19 01:21:35.35	250.23	8.43	-40.8	-43.9	11.0	1.91e-03	0	62	0	1319108608	52	5393
2026-01-19 01:21:38.38	249.94	8.23	-40.7	-43.8	11.2	1.47e-03	0	62	0	1327497216	52	5296
2026-01-19 01:21:41.41	249.67	8.02	-41.1	-44.6	10.4	1.65e-03	0	62	0	1337982976	52	5831
2026-01-19 01:21:44.44	249.39	7.81	-45.0	-57.3	3.8	1.49e+00	0	62	104	1337982976	60	15904
2026-01-19 01:21:47.47	249.12	7.61	-45.3	-57.6	3.8	1.49e+00	0	63	104	1337982976	61	15529
2026-01-19 01:21:50.51	248.86	7.41	-45.3	-57.7	3.8	1.49e+00	0	62	104	1337982976	61	15698
2026-01-19 01:21:53.54	248.59	7.21	-45.3	-57.6	3.8	1.49e+00	0	63	104	1337982976	61	15499
2026-01-19 01:21:56.57	248.34	7.00	-45.3	-57.6	3.8	1.49e+00	0	62	104	1337982976	61	15424
2026-01-19 01:21:59.60	248.08	6.80	-45.3	-57.5	3.8	1.49e+00	0	62	104	1337982976	61	15392
2026-01-19 01:22:02.64	247.83	6.61	-45.2	-57.5	3.8	1.49e+00	0	63	104	1337982976	61	15400
2026-01-19 01:22:05.67	247.58	6.41	-45.2	-57.5	3.8	1.49e+00	0	63	104	1337982976	61	15337
2026-01-19 01:22:08.70	247.34	6.21	-45.2	-57.5	3.8	1.49e+00	0	62	104	1337982976	61	15359
2026-01-19 01:22:11.73	247.10	6.02	-45.2	-57.5	3.8	1.49e+00	0	62	104	1337982976	61	15331
2026-01-19 01:22:14.76	246.86	5.82	-45.2	-57.5	3.8	1.49e+00	0	62	104	1337982976	61	15325
2026-01-19 01:22:17.79	246.62	5.63	-45.2	-57.5	3.8	1.49e+00	0	62	104	1337982976	61	15397
2026-01-19 01:22:20.82	246.39	5.43	-45.2	-57.5	3.8	1.49e+00	0	63	104	1337982976	61	15330
2026-01-19 01:22:23.85	246.16	5.24	-45.2	-57.5	3.8	1.49e+00	0	62	104	1337982976	61	15369
2026-01-19 01:22:26.89	245.94	5.05	-45.2	-57.5	3.8	1.49e+00	0	63	104	1337982976	61	15292
2026-01-19 01:22:29.92	245.72	4.86	-45.2	-57.5	3.8	1.49e+00	0	63	104	1337982976	61	15304
2026-01-19 01:22:32.96	245.50	4.67	-45.2	-57.5	3.8	1.49e+00	0	62	104	1337982976	61	15242
2026-01-19 01:22:35.99	245.28	4.48	-45.2	-57.5	3.8	1.49e+00	0	62	104	1337982976	61	15262
2026-01-19 01:22:39.02	245.07	4.30	-45.2	-57.5	3.8	1.49e+00	0	63	104	1337982976	61	15288
2026-01-19 01:22:42.05	244.86	4.11	-45.2	-57.5	3.8	1.49e+00	0	62	104	1337982976	61	15312
2026-01-19 01:22:45.08	244.65	3.93	-45.2	-57.5	3.8	1.49e+00	0	63	104	1337982976	61	15299
2026-01-19 01:22:48.11	244.44	3.74	-45.2	-57.5	3.8	1.49e+00	0	63	104	1337982976	61	15302
2026-01-19 01:22:51.15	244.24	3.56	-45.2	-57.5	3.8	1.49e+00	0	63	104	1337982976	61	15267
2026-01-19 01:22:54.18	244.04	3.37	-45.2	-57.5	3.8	1.49e+00	0	63	104	1337982976	61	15315
2026-01-19 01:22:57.21	243.84	3.19	-45.2	-57.5	3.8	1.49e+00	0	63	104	1337982976	61	15283
2026-01-19 01:23:00.24	243.65	3.01	-45.2	-57.5	3.8	1.49e+00	0	63	104	1337982976	61	15236
2026-01-19 01:23:03.27	243.46	2.83	-45.2	-57.5	3.8	1.49e+00	0	63	104	1337982976	61	15262
2026-01-19 01:23:06.30	243.27	2.65	-45.2	-57.5	3.8	1.49e+00	0	63	104	1337982976	61	15297
2026-01-19 01:23:09.34	243.08	2.47	-45.2	-57.5	3.8	1.49e+00	0	63	104	1337982976	61	15256
2026-01-19 01:23:12.37	242.89	2.30	-45.2	-57.4	3.8	1.49e+00	0	63	104	1337982976	61	15219
2026-01-19 01:23:15.40	242.71	2.12	-45.2	-57.5	3.8	1.49e+00	0	63	104	1337982976	61	15241

#Closed at: 2026-01-19 01:23:17
#Recorded file [1337 MB]: D:/lorett/data/31039_260119_041208.dat