passes_logs/2026/01/19/R2.0S_Moscow/R2.0S_Moscow__20260119_234043_SUOMI_NPP_rec.log

#Pass ID: 20260119_234043_SUOMI NPP
#Satellite: SUOMI NPP
#Configuration: NPP
#almurnet v.1.7.20251203
#Start time: 2026-01-19 23:40:45

#Version: 2.2.20231116
#Station: R2.0S_Moscow
#Location: 37.707566 lon 55.798166 lat
#TLE: 1 37849U 11061A   26019.26265094  .00000081  00000+0  59609-4 0  9993
#TLE: 2 37849  98.7817 321.2746 0002356  56.2510 303.8890 14.19526363737315

#Time	Az	El	Level	Level2	SNR	BER	BlckErr	Temp	State	Recorded	gain1	gain2
2026-01-19 23:40:45.50	16.53	2.15	-42.1	-57.1	3.8	1.49e+00	0	53	0	0	56	19493
2026-01-19 23:40:49.53	16.56	2.41	-41.9	-56.9	3.8	1.49e+00	0	53	104	0	55	20174
2026-01-19 23:40:53.57	16.59	2.67	-41.9	-56.9	3.8	1.49e+00	0	53	104	0	55	20227
2026-01-19 23:40:57.61	16.62	2.93	-41.9	-56.9	3.8	1.49e+00	0	54	104	0	55	20191
2026-01-19 23:41:01.65	16.65	3.20	-41.9	-56.9	3.8	1.49e+00	0	54	104	0	55	20211
2026-01-19 23:41:05.69	16.68	3.47	-41.9	-56.9	3.8	1.49e+00	0	54	104	0	55	20181
2026-01-19 23:41:09.73	16.71	3.74	-41.9	-56.9	3.8	1.49e+00	0	55	104	0	55	20184
2026-01-19 23:41:13.77	16.74	4.02	-41.9	-56.9	3.8	1.49e+00	0	55	104	0	55	20156
2026-01-19 23:41:17.81	16.77	4.30	-41.9	-56.9	3.8	1.49e+00	0	55	104	0	55	20201
2026-01-19 23:41:21.85	16.80	4.58	-41.9	-56.9	3.8	1.49e+00	0	55	104	0	55	20161
2026-01-19 23:41:25.90	16.83	4.86	-41.9	-56.9	3.8	1.49e+00	0	55	104	0	55	20164
2026-01-19 23:41:29.94	16.86	5.15	-41.9	-56.9	3.8	1.49e+00	0	55	104	0	55	20144
2026-01-19 23:41:33.98	16.89	5.44	-41.9	-56.9	3.8	1.49e+00	0	56	104	0	55	20132
2026-01-19 23:41:38.02	16.92	5.73	-41.9	-56.9	3.8	1.49e+00	0	56	104	0	55	20135
2026-01-19 23:41:42.07	16.95	6.03	-41.9	-56.9	3.8	1.49e+00	0	56	104	0	55	20142
2026-01-19 23:41:46.11	16.99	6.33	-41.9	-56.9	3.8	1.49e+00	0	56	104	0	55	20140
2026-01-19 23:41:50.15	17.02	6.63	-41.9	-56.8	3.8	1.49e+00	0	57	104	0	55	19900
2026-01-19 23:41:54.19	17.05	6.94	-41.9	-56.8	3.8	1.49e+00	0	57	104	0	55	19950
2026-01-19 23:41:58.23	17.08	7.25	-41.9	-55.8	3.8	1.49e+00	0	57	104	0	55	17711
2026-01-19 23:42:02.27	17.12	7.57	-41.7	-53.2	4.2	1.42e+00	0	57	0	0	55	13158
2026-01-19 23:42:06.31	17.15	7.89	-41.2	-49.1	6.6	2.71e-01	0	57	0	6291456	54	8703
2026-01-19 23:42:10.35	17.18	8.21	-41.6	-51.7	4.7	1.14e+00	0	57	104	12582912	54	11785
2026-01-19 23:42:14.39	17.22	8.54	-41.9	-48.3	8.1	7.19e-02	0	58	0	15728640	55	7470
2026-01-19 23:42:18.43	17.25	8.87	-41.9	-48.1	8.4	5.09e-02	0	58	0	23068672	55	7352
2026-01-19 23:42:22.47	17.29	9.20	-41.9	-47.8	8.8	3.92e-02	0	58	0	30408704	55	7053
2026-01-19 23:42:26.51	17.32	9.54	-41.9	-47.6	9.2	1.95e-02	0	58	0	38797312	55	6890
2026-01-19 23:42:30.55	17.36	9.89	-41.9	-47.3	9.7	1.29e-02	0	58	0	46137344	55	6660
2026-01-19 23:42:34.59	17.40	10.24	-42.1	-47.4	9.6	1.14e-02	0	58	0	53477376	55	6791
2026-01-19 23:42:38.63	17.43	10.60	-42.0	-47.1	10.0	8.19e-03	0	58	0	60817408	55	6551
2026-01-19 23:42:42.66	17.47	10.96	-42.0	-47.0	10.2	7.52e-03	0	58	0	69206016	55	6460
2026-01-19 23:42:46.70	17.51	11.32	-42.0	-47.0	10.3	6.13e-03	0	59	0	76546048	55	6445
2026-01-19 23:42:50.74	17.55	11.69	-42.0	-46.8	10.6	3.97e-03	0	59	0	83886080	55	6279
2026-01-19 23:42:54.78	17.58	12.07	-41.9	-46.6	10.8	2.78e-03	0	59	0	91226112	55	6147
2026-01-19 23:42:58.81	17.62	12.45	-41.9	-46.5	11.0	1.99e-03	0	59	0	98566144	55	6065
2026-01-19 23:43:02.85	17.66	12.84	-41.8	-46.1	11.3	1.13e-03	0	59	0	106954752	55	5845
2026-01-19 23:43:06.89	17.70	13.24	-41.7	-46.0	11.5	9.45e-04	0	59	0	114294784	55	5760
2026-01-19 23:43:10.93	17.75	13.64	-41.8	-46.0	11.5	8.73e-04	0	59	0	121634816	55	5765
2026-01-19 23:43:14.96	17.79	14.05	-41.7	-45.9	11.8	5.54e-04	0	59	0	128974848	55	5661
2026-01-19 23:43:19.00	17.83	14.46	-41.8	-45.9	11.8	4.62e-04	0	59	0	137363456	55	5661
2026-01-19 23:43:23.04	17.87	14.89	-41.8	-45.8	11.9	3.64e-04	0	60	0	144703488	55	5631
2026-01-19 23:43:27.08	17.92	15.32	-41.8	-45.8	12.0	3.26e-04	0	60	0	152043520	55	5614
2026-01-19 23:43:31.12	17.96	15.75	-41.7	-45.6	12.1	2.25e-04	0	60	0	159383552	55	5503
2026-01-19 23:43:35.16	18.01	16.20	-41.7	-45.6	12.2	2.27e-04	0	60	0	166723584	55	5496
2026-01-19 23:43:39.20	18.05	16.66	-41.7	-45.5	12.3	1.82e-04	0	60	0	175112192	55	5439
2026-01-19 23:43:43.23	18.10	17.12	-41.7	-45.6	12.3	1.98e-04	0	60	0	182452224	55	5504
2026-01-19 23:43:47.27	18.15	17.59	-41.9	-45.8	12.1	2.43e-04	0	60	0	189792256	55	5636
2026-01-19 23:43:51.31	18.20	18.07	-42.1	-46.2	11.7	4.52e-04	0	60	0	197132288	55	5903
2026-01-19 23:43:55.35	18.25	18.56	-42.2	-46.4	11.6	6.08e-04	0	60	0	205520896	55	6000
2026-01-19 23:43:59.39	18.30	19.06	-42.2	-46.3	11.6	5.52e-04	0	60	0	212860928	55	5980
2026-01-19 23:44:03.43	18.36	19.58	-42.3	-46.7	11.3	1.04e-03	0	60	0	220200960	55	6205
2026-01-19 23:44:07.46	18.41	20.10	-42.4	-46.8	11.2	1.33e-03	0	60	0	227540992	55	6275
2026-01-19 23:44:11.50	18.47	20.63	-42.6	-47.4	10.6	3.45e-03	0	60	0	234881024	55	6764
2026-01-19 23:44:15.54	18.52	21.18	-43.0	-48.0	10.3	5.53e-03	0	60	0	243269632	56	6808
2026-01-19 23:44:19.58	18.58	21.73	-43.0	-47.9	10.3	4.94e-03	0	60	0	250609664	56	6787
2026-01-19 23:44:23.61	18.64	22.30	-42.9	-47.8	10.4	4.29e-03	0	60	0	257949696	56	6677
2026-01-19 23:44:27.65	18.70	22.89	-43.0	-47.9	10.3	6.42e-03	0	61	0	265289728	56	6796
2026-01-19 23:44:31.69	18.77	23.48	-43.1	-48.1	10.2	6.11e-03	0	60	0	273678336	56	6887
2026-01-19 23:44:35.73	18.83	24.09	-42.9	-47.5	10.8	2.65e-03	0	60	0	281018368	56	6461
2026-01-19 23:44:39.77	18.90	24.72	-42.9	-47.4	10.9	2.07e-03	0	60	0	288358400	56	6395
2026-01-19 23:44:43.80	18.97	25.36	-42.9	-47.4	10.9	1.77e-03	0	61	0	295698432	56	6410
2026-01-19 23:44:47.84	19.04	26.01	-42.7	-46.9	11.4	1.04e-03	0	61	0	303038464	56	6060
2026-01-19 23:44:51.88	19.11	26.69	-42.4	-46.4	11.9	3.91e-04	0	61	0	311427072	56	5713
2026-01-19 23:44:55.92	19.19	27.38	-42.6	-46.7	11.7	3.78e-04	0	61	0	318767104	56	5877
2026-01-19 23:44:59.96	19.27	28.09	-42.5	-46.6	11.8	5.66e-04	0	61	0	326107136	56	5819
2026-01-19 23:45:04.00	19.35	28.81	-42.3	-46.1	12.4	2.04e-04	0	61	0	333447168	56	5491
2026-01-19 23:45:08.04	19.44	29.56	-42.7	-46.9	11.6	5.48e-04	0	61	0	340787200	56	6002
2026-01-19 23:45:12.08	19.53	30.33	-42.8	-47.1	11.3	1.49e-03	0	61	0	349175808	56	6199
2026-01-19 23:45:16.11	19.62	31.11	-43.1	-47.7	10.6	1.97e-03	0	61	0	356515840	56	6630
2026-01-19 23:45:20.15	19.71	31.92	-43.4	-48.6	9.8	6.57e-03	0	61	0	363855872	57	6894
2026-01-19 23:45:24.19	19.81	32.75	-43.6	-49.1	9.3	2.04e-02	0	61	0	371195904	57	7288
2026-01-19 23:45:28.23	19.92	33.61	-43.6	-49.2	9.1	2.23e-02	0	61	0	379584512	57	7421
2026-01-19 23:45:32.26	20.03	34.49	-43.4	-48.6	9.8	1.08e-02	0	61	0	386924544	58	6554
2026-01-19 23:45:36.30	20.14	35.39	-42.8	-47.2	11.2	2.02e-03	0	61	0	394264576	57	5885
2026-01-19 23:45:40.34	20.26	36.33	-42.5	-46.5	12.0	2.18e-04	0	61	0	401604608	56	5741
2026-01-19 23:45:44.37	20.39	37.28	-41.8	-45.3	13.1	2.97e-05	0	61	0	408944640	55	5319
2026-01-19 23:45:48.41	20.53	38.27	-41.6	-44.7	13.7	3.00e-06	0	61	0	417333248	54	5277
2026-01-19 23:45:52.44	20.67	39.29	-41.5	-44.7	13.8	2.20e-06	0	61	0	424673280	54	5246
2026-01-19 23:45:56.48	20.82	40.34	-42.2	-45.8	12.5	8.92e-05	0	61	0	432013312	55	5653
2026-01-19 23:46:00.52	20.98	41.42	-42.8	-46.9	11.7	9.45e-04	0	61	0	439353344	56	6004
2026-01-19 23:46:04.56	21.14	42.53	-42.8	-46.9	11.6	8.49e-04	0	61	0	447741952	56	6046
2026-01-19 23:46:08.60	21.32	43.68	-42.4	-46.1	12.4	3.12e-04	0	61	0	455081984	56	5506
2026-01-19 23:46:12.64	21.52	44.87	-42.6	-46.7	11.9	1.24e-04	0	61	0	462422016	56	5860
2026-01-19 23:46:16.68	21.72	46.09	-43.2	-47.8	10.7	1.60e-03	0	61	0	469762048	56	6709
2026-01-19 23:46:20.71	21.95	47.34	-43.5	-48.5	10.1	8.74e-03	0	61	0	477102080	57	6845
2026-01-19 23:46:24.75	22.19	48.64	-43.6	-48.8	9.7	1.41e-02	0	61	0	485490688	58	6661
2026-01-19 23:46:28.79	22.45	49.97	-42.7	-46.7	11.9	8.23e-04	0	62	0	492830720	57	5580
2026-01-19 23:46:32.83	22.73	51.35	-41.6	-44.8	13.6	6.80e-06	0	61	0	500170752	55	5020
2026-01-19 23:46:36.86	23.04	52.76	-42.0	-45.5	12.9	2.36e-05	0	61	0	507510784	54	5751
2026-01-19 23:46:40.90	23.38	54.21	-42.0	-45.5	13.0	2.59e-05	0	61	0	515899392	55	5426
2026-01-19 23:46:44.94	23.75	55.71	-41.2	-44.0	14.5	7.00e-07	0	62	0	523239424	54	4860
2026-01-19 23:46:48.98	24.17	57.25	-41.5	-44.6	13.8	4.50e-06	0	62	0	530579456	53	5509
2026-01-19 23:46:53.01	24.63	58.83	-41.1	-43.9	14.6	7.00e-07	0	61	0	537919488	53	5050
2026-01-19 23:46:57.05	25.15	60.45	-40.8	-43.5	15.0	0.00e+00	0	61	0	545259520	53	4826
2026-01-19 23:47:01.09	25.75	62.11	-41.4	-44.5	13.9	6.80e-06	0	62	0	553648128	53	5446
2026-01-19 23:47:05.13	26.42	63.81	-40.4	-42.9	15.6	0.00e+00	0	61	0	560988160	52	4778
2026-01-19 23:47:09.17	27.21	65.54	-42.4	-46.3	12.1	1.27e-04	0	62	0	568328192	55	5983
2026-01-19 23:47:13.20	28.12	67.31	-43.1	-47.7	10.8	1.41e-03	0	61	0	575668224	56	6638
2026-01-19 23:47:17.24	29.21	69.11	-43.7	-49.3	9.1	3.47e-02	0	62	0	584056832	58	7041
2026-01-19 23:47:21.28	30.51	70.95	-43.3	-48.1	10.3	7.18e-03	0	62	0	591396864	58	6174
2026-01-19 23:47:25.32	32.12	72.80	-42.4	-46.1	12.4	2.88e-04	0	62	0	598736896	56	5504
2026-01-19 23:47:29.36	34.13	74.67	-42.3	-46.2	12.0	4.02e-04	0	62	0	606076928	55	5894
2026-01-19 23:47:33.40	36.72	76.54	-42.3	-46.1	12.2	1.88e-04	0	62	0	613416960	55	5823
2026-01-19 23:47:37.43	40.17	78.40	-43.5	-48.7	9.6	1.92e-02	0	62	0	621805568	58	6572
2026-01-19 23:47:41.47	44.96	80.23	-43.3	-48.2	10.0	2.33e-03	0	62	0	629145600	57	6644
2026-01-19 23:47:45.51	51.92	81.97	-42.7	-46.9	11.5	7.69e-04	0	62	0	636485632	57	5674
2026-01-19 23:47:49.55	62.55	83.55	-42.1	-45.7	12.5	7.78e-05	0	62	0	643825664	55	5580
2026-01-19 23:47:53.58	79.03	84.78	-41.5	-44.8	13.4	0.00e+00	0	62	0	651165696	53	5616
2026-01-19 23:47:57.62	102.43	85.37	-41.3	-44.3	13.8	1.98e-05	0	62	0	659554304	54	5041
2026-01-19 23:48:01.66	127.39	85.09	-42.0	-45.6	12.6	7.62e-05	0	62	0	666894336	54	5816
2026-01-19 23:48:05.70	146.49	84.04	-41.8	-45.2	13.0	6.79e-05	0	62	0	674234368	54	5539
2026-01-19 23:48:09.73	158.92	82.56	-42.6	-46.9	11.4	1.07e-03	0	62	0	681574400	55	6372
2026-01-19 23:48:13.77	166.99	80.86	-43.2	-48.0	10.4	8.91e-03	0	62	0	689963008	58	6074
2026-01-19 23:48:17.80	172.42	79.06	-43.3	-48.4	10.0	2.53e-03	0	62	0	697303040	57	6743
2026-01-19 23:48:21.84	176.29	77.21	-43.6	-49.1	9.1	1.39e-02	0	62	0	704643072	57	7305
2026-01-19 23:48:25.88	179.15	75.33	-43.5	-48.7	9.5	1.22e-02	0	62	0	711983104	57	7011
2026-01-19 23:48:29.92	181.35	73.46	-43.5	-48.9	9.3	2.64e-02	0	62	0	719323136	59	6417
2026-01-19 23:48:33.96	183.08	71.59	-44.2	-51.6	6.8	2.20e-01	0	62	0	727711744	60	8246
2026-01-19 23:48:37.99	184.48	69.75	-45.1	-59.2	3.8	1.07e+00	0	62	104	732954624	60	19803
2026-01-19 23:48:42.03	185.64	67.94	-43.4	-48.4	9.8	8.24e-03	0	62	0	738197504	58	6415
2026-01-19 23:48:46.07	186.61	66.15	-43.0	-47.5	10.8	3.70e-03	0	62	0	746586112	57	6065
2026-01-19 23:48:50.11	187.44	64.39	-41.2	-44.1	14.2	0.00e+00	0	62	0	753926144	54	4922
2026-01-19 23:48:54.14	188.15	62.68	-41.4	-44.5	13.7	5.30e-06	0	62	0	761266176	54	5136
2026-01-19 23:48:58.18	188.77	61.00	-43.3	-48.2	10.1	7.59e-04	0	62	0	768606208	57	6609
2026-01-19 23:49:02.22	189.32	59.36	-42.4	-46.3	12.1	2.46e-04	0	62	0	775946240	56	5599
2026-01-19 23:49:06.25	189.80	57.77	-42.7	-46.8	11.6	2.30e-04	0	62	0	784334848	56	5982
2026-01-19 23:49:10.29	190.23	56.21	-41.6	-44.9	13.5	2.20e-06	0	62	0	791674880	53	5687
2026-01-19 23:49:14.33	190.62	54.69	-42.0	-45.4	12.9	1.37e-05	0	62	0	799014912	54	5715
2026-01-19 23:49:18.37	190.97	53.22	-41.6	-44.9	13.3	1.06e-04	0	62	0	806354944	55	5068
2026-01-19 23:49:22.40	191.29	51.79	-43.5	-48.9	9.4	9.54e-03	0	62	0	814743552	57	7179
2026-01-19 23:49:26.44	191.58	50.39	-42.5	-46.5	11.9	7.84e-04	0	62	0	822083584	57	5408
2026-01-19 23:49:30.48	191.84	49.04	-43.4	-48.5	9.9	3.82e-03	0	62	0	829423616	57	6872
2026-01-19 23:49:34.52	192.09	47.73	-42.5	-46.5	11.8	1.25e-02	0	62	0	836763648	57	5416
2026-01-19 23:49:38.55	192.32	46.45	-41.8	-45.1	13.2	1.60e-05	0	62	0	844103680	54	5523
2026-01-19 23:49:42.59	192.53	45.22	-43.3	-48.3	10.0	7.67e-03	0	62	0	852492288	57	6666
2026-01-19 23:49:46.63	192.72	44.02	-40.9	-43.7	14.4	2.20e-06	0	62	0	859832320	53	4953
2026-01-19 23:49:50.67	192.91	42.85	-41.6	-44.9	13.3	5.30e-06	0	62	0	867172352	53	5699
2026-01-19 23:49:54.71	193.08	41.72	-43.7	-49.4	8.7	3.95e-02	0	62	0	874512384	58	7170
2026-01-19 23:49:58.74	193.24	40.63	-41.3	-44.2	14.0	7.00e-07	0	62	0	882900992	54	4968
2026-01-19 23:50:02.78	193.39	39.56	-43.2	-47.9	10.5	1.86e-03	0	62	0	890241024	56	6740
2026-01-19 23:50:06.82	193.53	38.53	-44.7	-55.6	4.4	8.60e-01	0	62	0	897581056	60	13027
2026-01-19 23:50:10.85	193.67	37.53	-44.6	-54.3	4.9	4.32e-01	0	62	0	903872512	60	11197
2026-01-19 23:50:14.89	193.80	36.56	-42.2	-45.9	12.4	5.11e-01	0	62	0	911212544	56	5363
2026-01-19 23:50:18.93	193.92	35.61	-43.7	-49.6	8.6	2.50e-02	0	62	0	918552576	57	7789
2026-01-19 23:50:22.97	194.03	34.69	-44.7	-55.1	4.5	1.10e+00	0	62	0	925892608	60	12332
2026-01-19 23:50:27.00	194.14	33.80	-44.9	-58.4	3.8	7.10e-01	0	62	104	929038336	60	17940
2026-01-19 23:50:31.04	194.25	32.93	-43.8	-50.1	8.1	5.26e-02	0	62	0	931135488	59	7328
2026-01-19 23:50:35.08	194.35	32.09	-43.4	-48.7	9.5	1.45e-02	0	62	0	938475520	58	6587
2026-01-19 23:50:39.12	194.44	31.27	-43.1	-47.8	10.4	4.84e-03	0	62	0	946864128	58	5929
2026-01-19 23:50:43.16	194.53	30.47	-42.9	-47.5	10.6	3.14e-03	0	62	0	954204160	57	6111
2026-01-19 23:50:47.19	194.62	29.70	-43.7	-49.7	8.5	3.03e-02	0	62	0	961544192	57	7829
2026-01-19 23:50:51.23	194.71	28.94	-44.0	-51.1	7.1	1.21e-01	0	62	0	968884224	58	8691
2026-01-19 23:50:55.27	194.79	28.21	-43.2	-48.4	9.8	1.27e-02	0	62	0	977272832	58	6350
2026-01-19 23:50:59.31	194.87	27.49	-42.3	-46.1	12.2	3.35e-04	0	62	0	984612864	56	5485
2026-01-19 23:51:03.35	194.94	26.79	-42.6	-46.8	11.4	4.39e-04	0	62	0	991952896	56	5938
2026-01-19 23:51:07.39	195.01	26.11	-42.6	-46.9	11.3	1.04e-03	0	62	0	999292928	56	5998
2026-01-19 23:51:11.42	195.08	25.45	-42.4	-46.4	11.8	4.97e-04	0	62	0	1006632960	56	5700
2026-01-19 23:51:15.46	195.15	24.80	-42.3	-46.3	11.9	4.13e-04	0	62	0	1015021568	56	5610
2026-01-19 23:51:19.50	195.22	24.17	-41.8	-45.4	12.5	8.69e-05	0	62	0	1022361600	55	5373
2026-01-19 23:51:23.54	195.28	23.55	-41.7	-45.2	12.8	6.71e-05	0	62	0	1029701632	55	5269
2026-01-19 23:51:27.57	195.34	22.95	-41.7	-45.3	12.7	9.84e-05	0	62	0	1037041664	55	5310
2026-01-19 23:51:31.61	195.40	22.36	-41.5	-44.9	13.1	1.22e-05	0	62	0	1045430272	54	5372
2026-01-19 23:51:35.65	195.46	21.78	-41.1	-44.2	13.9	4.50e-06	0	62	0	1052770304	54	4932
2026-01-19 23:51:39.69	195.52	21.22	-41.3	-44.5	13.5	7.60e-06	0	62	0	1060110336	54	5159
2026-01-19 23:51:43.73	195.57	20.67	-41.9	-45.6	12.4	1.20e-04	0	62	0	1067450368	54	5851
2026-01-19 23:51:47.77	195.62	20.13	-42.0	-46.0	11.9	3.39e-04	0	62	0	1074790400	54	6105
2026-01-19 23:51:51.81	195.68	19.60	-42.4	-46.8	11.1	1.15e-03	0	62	0	1083179008	55	6332
2026-01-19 23:51:55.84	195.73	19.08	-42.4	-46.8	11.1	1.79e-03	0	62	0	1090519040	55	6284
2026-01-19 23:51:59.88	195.78	18.58	-42.5	-47.2	10.6	3.03e-03	0	62	0	1097859072	55	6586
2026-01-19 23:52:03.93	195.82	18.08	-42.5	-47.1	10.6	2.22e-03	0	62	0	1105199104	55	6568
2026-01-19 23:52:07.96	195.87	17.60	-42.3	-46.5	11.3	1.10e-03	0	62	0	1113587712	55	6120
2026-01-19 23:52:12.00	195.92	17.12	-42.2	-46.4	11.5	9.41e-04	0	62	0	1120927744	55	6032
2026-01-19 23:52:16.04	195.96	16.65	-42.3	-46.6	11.3	9.28e-04	0	62	0	1128267776	55	6179
2026-01-19 23:52:20.08	196.00	16.19	-42.3	-46.7	11.1	1.53e-03	0	62	0	1135607808	55	6206
2026-01-19 23:52:24.12	196.05	15.74	-42.4	-46.8	11.0	1.67e-03	0	62	0	1142947840	55	6297
2026-01-19 23:52:28.16	196.09	15.30	-42.6	-47.5	10.3	5.25e-03	0	62	0	1151336448	55	6807
2026-01-19 23:52:32.20	196.13	14.86	-42.9	-48.0	9.9	7.77e-03	0	62	0	1158676480	56	6819
2026-01-19 23:52:36.24	196.17	14.44	-42.8	-47.9	9.9	7.98e-03	0	62	0	1166016512	56	6766
2026-01-19 23:52:40.28	196.21	14.02	-42.8	-47.8	10.0	8.52e-03	0	62	0	1173356544	56	6694
2026-01-19 23:52:44.32	196.25	13.61	-42.8	-47.9	9.9	8.19e-03	0	62	0	1181745152	56	6759
2026-01-19 23:52:48.36	196.29	13.20	-42.5	-47.0	10.8	3.19e-03	0	62	0	1189085184	56	6131
2026-01-19 23:52:52.39	196.32	12.80	-42.4	-46.8	11.0	1.93e-03	0	62	0	1196425216	56	5975
2026-01-19 23:52:56.43	196.36	12.41	-42.3	-46.8	11.0	1.69e-03	0	62	0	1203765248	56	5947
2026-01-19 23:53:00.46	196.40	12.03	-42.4	-46.9	10.9	2.00e-03	0	62	0	1211105280	56	6017
2026-01-19 23:53:04.50	196.43	11.65	-42.3	-46.8	11.0	1.95e-03	0	62	0	1219493888	56	5931
2026-01-19 23:53:08.54	196.46	11.27	-42.3	-46.7	11.0	1.89e-03	0	62	0	1226833920	56	5909
2026-01-19 23:53:12.58	196.50	10.90	-42.2	-46.6	11.1	1.52e-03	0	62	0	1234173952	56	5806
2026-01-19 23:53:16.61	196.53	10.54	-42.2	-46.7	11.0	2.27e-03	0	62	0	1241513984	56	5873
2026-01-19 23:53:20.65	196.56	10.18	-42.2	-46.8	10.8	2.24e-03	0	62	0	1249902592	56	5936
2026-01-19 23:53:24.69	196.60	9.83	-42.2	-46.8	10.7	2.21e-03	0	62	0	1257242624	56	5956
2026-01-19 23:53:28.73	196.63	9.48	-42.1	-46.6	10.9	2.48e-03	0	62	0	1264582656	56	5848
2026-01-19 23:53:32.77	196.66	9.14	-42.1	-46.7	10.6	3.09e-03	0	62	0	1271922688	56	5918
2026-01-19 23:53:36.81	196.69	8.80	-42.2	-46.9	10.5	4.79e-03	0	62	0	1279262720	56	6054
2026-01-19 23:53:40.85	196.72	8.47	-42.1	-46.9	10.4	4.85e-03	0	62	0	1287651328	56	6039
2026-01-19 23:53:44.88	196.75	8.14	-42.2	-47.1	10.2	8.32e-03	0	62	0	1294991360	56	6147
2026-01-19 23:53:48.92	196.78	7.81	-44.9	-59.6	3.8	1.49e+00	0	62	104	1298137088	60	20632
2026-01-19 23:53:52.97	196.81	7.49	-45.3	-59.9	3.8	1.49e+00	0	62	104	1298137088	61	20252
2026-01-19 23:53:57.01	196.84	7.17	-45.3	-59.9	3.8	1.49e+00	0	62	104	1298137088	61	20149
2026-01-19 23:54:01.05	196.87	6.86	-45.3	-59.8	3.8	1.49e+00	0	62	104	1298137088	61	20063
2026-01-19 23:54:05.09	196.89	6.55	-45.2	-59.8	3.8	1.49e+00	0	62	104	1298137088	61	19896
2026-01-19 23:54:09.14	196.92	6.25	-45.2	-59.8	3.8	1.49e+00	0	62	104	1298137088	61	19888
2026-01-19 23:54:13.18	196.95	5.94	-45.2	-59.7	3.8	1.49e+00	0	62	104	1298137088	61	19820
2026-01-19 23:54:17.23	196.98	5.64	-45.2	-59.7	3.8	1.49e+00	0	62	104	1298137088	61	19808
2026-01-19 23:54:21.27	197.00	5.35	-45.2	-59.8	3.8	1.49e+00	0	62	104	1298137088	61	19847
2026-01-19 23:54:25.31	197.03	5.06	-45.2	-59.7	3.8	1.49e+00	0	62	104	1298137088	61	19758
2026-01-19 23:54:29.35	197.06	4.77	-45.2	-59.7	3.8	1.49e+00	0	62	104	1298137088	61	19764
2026-01-19 23:54:33.40	197.08	4.48	-45.1	-59.7	3.8	1.49e+00	0	62	104	1298137088	61	19685
2026-01-19 23:54:37.44	197.11	4.20	-45.1	-59.7	3.8	1.49e+00	0	62	104	1298137088	61	19623
2026-01-19 23:54:41.48	197.13	3.92	-45.1	-59.7	3.8	1.49e+00	0	62	104	1298137088	61	19751
2026-01-19 23:54:45.52	197.16	3.64	-45.1	-59.7	3.8	1.49e+00	0	62	104	1298137088	61	19736
2026-01-19 23:54:49.56	197.18	3.37	-45.1	-59.7	3.8	1.49e+00	0	62	104	1298137088	61	19632
2026-01-19 23:54:53.60	197.20	3.10	-45.1	-59.7	3.8	1.49e+00	0	62	104	1298137088	61	19638
2026-01-19 23:54:57.65	197.23	2.83	-45.1	-59.7	3.8	1.49e+00	0	62	104	1298137088	61	19645
2026-01-19 23:55:01.69	197.25	2.56	-45.1	-59.6	3.8	1.49e+00	0	62	104	1298137088	61	19588
2026-01-19 23:55:05.73	197.28	2.30	-45.1	-59.6	3.8	1.49e+00	0	62	104	1298137088	61	19603
2026-01-19 23:55:09.77	197.30	2.04	-45.1	-59.6	3.8	1.49e+00	0	62	104	1298137088	61	19570

#Closed at: 2026-01-19 23:55:12
#Recorded file [1298 MB]: D:/lorett/data/31039_260120_024045.dat