passes_logs/2026/01/19/R2.0S_Moscow/R2.0S_Moscow__20260119_023816_FENGYUN_3D_rec.log

#Pass ID: 20260119_023816_FENGYUN 3D
#Satellite: FENGYUN 3D
#Configuration: FENGYUN 3D
#almurnet v.1.7.20251203
#Start time: 2026-01-19 02:38:17

#Version: 2.2.20231116
#Station: R2.0S_Moscow
#Location: 37.707566 lon 55.798166 lat
#TLE: 1 43010U 17072A   26017.96359538  .00000271  00000+0  15011-3 0  9999
#TLE: 2 43010  98.9936 349.8252 0002386 103.8840 256.2601 14.19697057423673

#Time	Az	El	Level	Level2	SNR	BER	BlckErr	Temp	State	Recorded	gain1	gain2
2026-01-19 02:38:17.46	13.16	2.03	-40.4	-52.1	3.8	8.46e-01	0	52	0	0	52	13881
2026-01-19 02:38:21.49	13.03	2.28	-40.4	-52.2	3.8	8.47e-01	0	52	104	0	52	13940
2026-01-19 02:38:25.53	12.89	2.54	-40.4	-52.2	3.8	8.46e-01	0	53	104	0	52	13939
2026-01-19 02:38:29.57	12.75	2.79	-40.4	-52.2	3.8	8.46e-01	0	53	104	0	52	13923
2026-01-19 02:38:33.61	12.60	3.05	-40.4	-52.1	3.8	8.45e-01	0	53	104	0	52	13875
2026-01-19 02:38:37.66	12.45	3.31	-40.4	-52.2	3.8	8.46e-01	0	53	104	0	52	13889
2026-01-19 02:38:41.70	12.30	3.57	-40.4	-52.1	3.8	8.46e-01	0	54	104	0	52	13882
2026-01-19 02:38:45.74	12.15	3.84	-40.4	-52.1	3.8	8.45e-01	0	54	104	0	52	13872
2026-01-19 02:38:49.79	11.99	4.10	-40.4	-52.0	3.8	8.45e-01	0	54	104	0	52	13721
2026-01-19 02:38:53.83	11.83	4.37	-40.4	-51.8	3.8	8.46e-01	0	55	104	0	52	13341
2026-01-19 02:38:57.87	11.67	4.64	-40.3	-51.6	3.8	8.46e-01	0	55	104	0	52	13044
2026-01-19 02:39:01.91	11.50	4.92	-40.4	-51.9	3.8	8.47e-01	0	55	104	0	52	13461
2026-01-19 02:39:05.96	11.33	5.20	-40.4	-52.1	3.8	8.47e-01	0	55	104	0	52	13763
2026-01-19 02:39:10.00	11.16	5.48	-40.4	-52.0	3.8	8.45e-01	0	56	104	0	52	13650
2026-01-19 02:39:14.04	10.98	5.76	-40.4	-51.8	3.8	8.47e-01	0	56	104	0	52	13368
2026-01-19 02:39:18.08	10.80	6.04	-40.4	-51.8	3.8	8.46e-01	0	56	104	0	52	13398
2026-01-19 02:39:22.12	10.61	6.33	-40.4	-51.9	3.8	8.46e-01	0	56	104	0	52	13461
2026-01-19 02:39:26.16	10.42	6.62	-40.4	-52.0	3.8	8.45e-01	0	56	104	0	52	13637
2026-01-19 02:39:30.20	10.23	6.91	-40.4	-52.1	3.8	8.45e-01	0	57	104	0	52	13804
2026-01-19 02:39:34.25	10.03	7.21	-40.4	-52.1	3.8	8.46e-01	0	57	104	0	52	13787
2026-01-19 02:39:38.29	9.83	7.51	-40.4	-52.2	3.8	8.46e-01	0	57	104	0	52	13900
2026-01-19 02:39:42.33	9.62	7.81	-40.4	-52.1	3.8	8.48e-01	0	57	104	0	52	13807
2026-01-19 02:39:46.37	9.41	8.12	-40.4	-52.1	3.8	8.47e-01	0	57	104	0	52	13798
2026-01-19 02:39:50.41	9.19	8.43	-40.3	-51.9	3.8	8.46e-01	0	58	104	0	52	13510
2026-01-19 02:39:54.45	8.97	8.74	-40.2	-51.9	3.8	8.47e-01	0	58	104	0	52	13421
2026-01-19 02:39:58.48	8.75	9.06	-40.1	-51.8	3.8	8.46e-01	0	58	104	0	52	13298
2026-01-19 02:40:02.52	8.52	9.38	-40.2	-51.9	3.8	8.45e-01	0	58	104	0	52	13512
2026-01-19 02:40:06.56	8.28	9.70	-40.2	-51.8	3.8	8.47e-01	0	58	104	0	52	13333
2026-01-19 02:40:10.60	8.03	10.03	-40.1	-51.8	3.8	8.47e-01	0	58	104	0	52	13284
2026-01-19 02:40:14.63	7.79	10.36	-40.2	-51.8	3.8	8.46e-01	0	58	104	0	52	13315
2026-01-19 02:40:18.67	7.53	10.70	-40.3	-51.9	3.8	8.46e-01	0	59	104	0	52	13460
2026-01-19 02:40:22.71	7.27	11.04	-40.4	-52.0	3.8	8.45e-01	0	59	104	0	52	13603
2026-01-19 02:40:26.75	7.00	11.38	-41.6	-50.9	3.8	8.47e-01	0	59	104	0	54	10704
2026-01-19 02:40:30.79	6.73	11.73	-41.6	-48.3	5.1	7.64e-01	0	59	0	0	54	7940
2026-01-19 02:40:34.82	6.45	12.08	-40.8	-50.6	3.8	5.36e-01	0	59	104	1048576	52	11557
2026-01-19 02:40:38.86	6.16	12.44	-38.1	-40.8	11.9	6.71e-04	0	59	0	10485760	48	4746
2026-01-19 02:40:42.89	5.86	12.80	-38.3	-41.1	11.8	7.60e-04	0	59	0	33554432	48	4894
2026-01-19 02:40:46.93	5.56	13.16	-38.9	-41.7	11.4	1.22e-03	0	59	0	56623104	48	5260
2026-01-19 02:40:50.97	5.24	13.53	-38.7	-41.3	12.2	3.84e-04	0	59	0	78643200	48	5019
2026-01-19 02:40:55.00	4.92	13.91	-39.0	-41.6	12.2	3.84e-04	0	59	0	101711872	48	5161
2026-01-19 02:40:59.04	4.60	14.29	-39.0	-41.5	12.3	1.85e-04	0	59	0	123731968	48	5150
2026-01-19 02:41:03.08	4.26	14.67	-38.5	-40.8	13.0	5.72e-05	0	59	0	146800640	48	4722
2026-01-19 02:41:07.12	3.91	15.06	-38.3	-40.4	13.8	9.10e-06	0	59	0	169869312	48	4510
2026-01-19 02:41:11.16	3.55	15.46	-38.4	-40.5	13.8	8.00e-06	0	59	0	192937984	48	4598
2026-01-19 02:41:15.19	3.19	15.86	-38.6	-40.8	13.6	1.71e-05	0	60	0	214958080	48	4731
2026-01-19 02:41:19.23	2.81	16.26	-38.2	-40.3	14.2	1.10e-06	0	59	0	238026752	48	4448
2026-01-19 02:41:23.27	2.42	16.67	-38.1	-40.1	14.4	2.20e-06	0	60	0	261095424	48	4373
2026-01-19 02:41:27.30	2.02	17.09	-38.2	-40.1	14.6	0.00e+00	0	59	0	283115520	48	4375
2026-01-19 02:41:31.35	1.61	17.51	-38.2	-40.1	14.6	2.20e-06	0	60	0	306184192	48	4375
2026-01-19 02:41:35.38	1.19	17.94	-38.0	-39.9	14.9	1.10e-06	0	60	0	328204288	48	4248
2026-01-19 02:41:39.42	0.75	18.38	-37.8	-39.7	15.0	0.00e+00	0	60	0	351272960	47	4422
2026-01-19 02:41:43.45	0.30	18.82	-37.7	-39.5	15.2	0.00e+00	0	60	0	374341632	47	4338
2026-01-19 02:41:47.49	359.84	19.26	-37.9	-39.7	15.0	0.00e+00	0	60	0	396361728	47	4423
2026-01-19 02:41:51.53	359.36	19.72	-37.6	-39.4	15.3	0.00e+00	0	60	0	419430400	47	4257
2026-01-19 02:41:55.57	358.87	20.18	-37.4	-39.2	15.5	0.00e+00	0	60	0	442499072	46	4398
2026-01-19 02:41:59.60	358.36	20.64	-37.4	-39.2	15.5	0.00e+00	0	60	0	465567744	46	4417
2026-01-19 02:42:03.64	357.84	21.11	-37.4	-39.2	15.4	0.00e+00	0	60	0	487587840	46	4408
2026-01-19 02:42:07.68	357.29	21.59	-37.3	-39.0	15.5	0.00e+00	0	60	0	510656512	46	4337
2026-01-19 02:42:11.72	356.74	22.07	-37.1	-38.8	15.8	0.00e+00	0	60	0	532676608	46	4237
2026-01-19 02:42:15.76	356.16	22.56	-37.4	-39.2	15.5	0.00e+00	0	60	0	555745280	46	4416
2026-01-19 02:42:19.80	355.56	23.06	-37.4	-39.1	15.6	0.00e+00	0	60	0	578813952	46	4387
2026-01-19 02:42:23.84	354.95	23.56	-36.9	-38.5	16.2	0.00e+00	0	60	0	600834048	45	4336
2026-01-19 02:42:27.89	354.31	24.07	-36.8	-38.4	16.4	0.00e+00	0	60	0	623902720	45	4254
2026-01-19 02:42:31.92	353.65	24.59	-36.9	-38.6	16.3	0.00e+00	0	61	0	646971392	45	4342
2026-01-19 02:42:35.96	352.97	25.11	-36.9	-38.5	16.4	0.00e+00	0	60	0	670040064	45	4313
2026-01-19 02:42:40.00	352.27	25.64	-36.8	-38.4	16.5	0.00e+00	0	60	0	692060160	45	4244
2026-01-19 02:42:44.04	351.54	26.17	-36.6	-38.2	16.7	0.00e+00	0	60	0	715128832	45	4176
2026-01-19 02:42:48.07	350.79	26.70	-36.6	-38.1	16.9	0.00e+00	0	61	0	737148928	45	4128
2026-01-19 02:42:52.12	350.01	27.25	-36.5	-38.0	17.1	0.00e+00	0	61	0	760217600	45	4054
2026-01-19 02:42:56.15	349.20	27.80	-36.6	-38.1	17.0	0.00e+00	0	61	0	783286272	45	4109
2026-01-19 02:43:00.19	348.37	28.35	-36.6	-38.1	17.1	0.00e+00	0	61	0	805306368	45	4103
2026-01-19 02:43:04.23	347.50	28.90	-36.6	-38.1	17.1	0.00e+00	0	61	0	828375040	44	4346
2026-01-19 02:43:08.27	346.60	29.46	-36.5	-37.9	17.3	0.00e+00	0	61	0	851443712	44	4280
2026-01-19 02:43:12.31	345.67	30.03	-36.2	-37.7	17.6	0.00e+00	0	61	0	874512384	44	4147
2026-01-19 02:43:16.36	344.71	30.59	-36.5	-38.0	17.3	0.00e+00	0	61	0	896532480	44	4301
2026-01-19 02:43:20.39	343.71	31.16	-36.3	-37.7	17.6	0.00e+00	0	61	0	919601152	44	4170
2026-01-19 02:43:24.43	342.68	31.72	-36.2	-37.6	17.7	0.00e+00	0	61	0	941621248	44	4118
2026-01-19 02:43:28.47	341.61	32.29	-36.1	-37.5	17.8	0.00e+00	0	61	0	964689920	44	4074
2026-01-19 02:43:32.51	340.50	32.86	-36.1	-37.5	17.8	0.00e+00	0	61	0	987758592	44	4068
2026-01-19 02:43:36.55	339.35	33.42	-36.3	-37.7	17.7	0.00e+00	0	61	0	1009778688	44	4155
2026-01-19 02:43:40.59	338.16	33.98	-36.1	-37.5	17.9	0.00e+00	0	61	0	1032847360	44	4059
2026-01-19 02:43:44.63	336.92	34.54	-35.7	-37.0	18.2	0.00e+00	0	61	0	1055916032	43	4090
2026-01-19 02:43:48.67	335.65	35.09	-35.7	-37.1	18.1	0.00e+00	0	61	0	1078984704	43	4109
2026-01-19 02:43:52.71	334.33	35.64	-35.7	-37.0	18.1	0.00e+00	0	61	0	1101004800	43	4095
2026-01-19 02:43:56.75	332.96	36.17	-35.7	-37.0	18.2	0.00e+00	0	61	0	1124073472	43	4092
2026-01-19 02:44:00.79	331.55	36.70	-35.7	-37.0	18.2	0.00e+00	0	61	0	1146093568	43	4086
2026-01-19 02:44:04.84	330.09	37.21	-36.0	-37.4	17.8	0.00e+00	0	61	0	1169162240	43	4272
2026-01-19 02:44:08.88	328.59	37.71	-36.1	-37.5	17.8	0.00e+00	0	61	0	1192230912	43	4304
2026-01-19 02:44:12.92	327.04	38.19	-36.2	-37.6	17.6	0.00e+00	0	61	0	1215299584	43	4378
2026-01-19 02:44:16.96	325.45	38.65	-35.8	-37.2	18.1	0.00e+00	0	61	0	1237319680	43	4161
2026-01-19 02:44:21.00	323.81	39.10	-36.0	-37.4	17.8	0.00e+00	0	61	0	1260388352	43	4275
2026-01-19 02:44:25.03	322.13	39.52	-35.9	-37.2	18.0	0.00e+00	0	61	0	1283457024	43	4193
2026-01-19 02:44:29.07	320.40	39.92	-35.9	-37.3	18.0	0.00e+00	0	61	0	1305477120	43	4194
2026-01-19 02:44:33.11	318.63	40.29	-35.9	-37.2	18.0	0.00e+00	0	61	0	1328545792	43	4169
2026-01-19 02:44:37.15	316.81	40.63	-35.5	-36.8	18.4	0.00e+00	0	61	0	1350565888	43	3999
2026-01-19 02:44:41.18	314.97	40.95	-35.8	-37.1	18.1	0.00e+00	0	61	0	1373634560	43	4129
2026-01-19 02:44:45.22	313.09	41.23	-35.8	-37.2	18.1	0.00e+00	0	61	0	1396703232	43	4156
2026-01-19 02:44:49.26	311.17	41.48	-35.7	-37.0	18.2	0.00e+00	0	61	0	1419771904	43	4063
2026-01-19 02:44:53.29	309.24	41.69	-35.4	-36.7	18.5	0.00e+00	0	61	0	1441792000	42	4168
2026-01-19 02:44:57.33	307.27	41.87	-35.7	-37.1	18.1	0.00e+00	0	61	0	1464860672	42	4360
2026-01-19 02:45:01.37	305.28	42.01	-35.6	-37.0	18.2	0.00e+00	0	61	0	1487929344	42	4305
2026-01-19 02:45:05.41	303.28	42.11	-35.6	-36.9	18.2	0.00e+00	0	61	0	1509949440	42	4280
2026-01-19 02:45:09.45	301.27	42.17	-35.5	-36.8	18.4	0.00e+00	0	61	0	1533018112	42	4223
2026-01-19 02:45:13.49	299.25	42.19	-35.4	-36.7	18.5	0.00e+00	0	61	0	1555038208	42	4166
2026-01-19 02:45:17.53	297.24	42.17	-35.7	-37.0	18.2	0.00e+00	0	61	0	1578106880	42	4317
2026-01-19 02:45:21.57	295.22	42.11	-35.4	-36.6	18.5	0.00e+00	0	61	0	1601175552	42	4141
2026-01-19 02:45:25.61	293.22	42.01	-35.5	-36.9	18.4	0.00e+00	0	61	0	1624244224	42	4249
2026-01-19 02:45:29.65	291.23	41.87	-35.4	-36.7	18.5	0.00e+00	0	61	0	1646264320	42	4160
2026-01-19 02:45:33.69	289.26	41.70	-35.4	-36.7	18.5	0.00e+00	0	61	0	1669332992	42	4164
2026-01-19 02:45:37.73	287.32	41.49	-35.1	-36.4	18.8	0.00e+00	0	61	0	1692401664	42	4022
2026-01-19 02:45:41.77	285.40	41.24	-35.5	-36.9	18.3	0.00e+00	0	61	0	1714421760	42	4244
2026-01-19 02:45:45.81	283.51	40.96	-35.6	-36.9	18.3	0.00e+00	0	61	0	1737490432	42	4283
2026-01-19 02:45:49.84	281.66	40.64	-35.4	-36.7	18.5	0.00e+00	0	61	0	1759510528	42	4187
2026-01-19 02:45:53.88	279.85	40.30	-35.2	-36.4	18.7	0.00e+00	0	61	0	1782579200	42	4046
2026-01-19 02:45:57.92	278.07	39.93	-35.4	-36.7	18.5	0.00e+00	0	61	0	1805647872	42	4180
2026-01-19 02:46:01.97	276.33	39.53	-35.4	-36.7	18.5	0.00e+00	0	61	0	1828716544	42	4185
2026-01-19 02:46:06.00	274.65	39.11	-35.5	-36.8	18.4	0.00e+00	0	61	0	1850736640	42	4213
2026-01-19 02:46:10.04	273.00	38.66	-35.3	-36.6	18.6	0.00e+00	0	61	0	1873805312	42	4109
2026-01-19 02:46:14.08	271.40	38.20	-35.3	-36.6	18.6	0.00e+00	0	61	0	1896873984	42	4120
2026-01-19 02:46:18.12	269.84	37.72	-35.3	-36.6	18.6	0.00e+00	0	61	0	1918894080	42	4133
2026-01-19 02:46:22.16	268.34	37.22	-35.4	-36.7	18.5	0.00e+00	0	61	0	1941962752	42	4150
2026-01-19 02:46:26.20	266.87	36.70	-35.3	-36.6	18.6	0.00e+00	0	61	0	1963982848	42	4124
2026-01-19 02:46:30.23	265.46	36.18	-35.4	-36.6	18.5	0.00e+00	0	61	0	1987051520	42	4143
2026-01-19 02:46:34.27	264.09	35.64	-35.4	-36.7	18.4	0.00e+00	0	61	0	2010120192	42	4187
2026-01-19 02:46:38.31	262.76	35.10	-35.3	-36.6	18.6	0.00e+00	0	61	0	2033188864	42	4104
2026-01-19 02:46:42.35	261.48	34.54	-35.3	-36.6	18.6	0.00e+00	0	61	0	2055208960	42	4113
2026-01-19 02:46:46.39	260.24	33.98	-35.3	-36.5	18.6	0.00e+00	0	61	0	2078277632	42	4096
2026-01-19 02:46:50.43	259.05	33.42	-35.2	-36.5	18.7	0.00e+00	0	61	0	2101346304	42	4060
2026-01-19 02:46:54.47	257.89	32.85	-35.3	-36.6	18.5	0.00e+00	0	61	0	2123366400	42	4141
2026-01-19 02:46:58.51	256.77	32.29	-35.6	-37.0	18.2	0.00e+00	0	61	0	2146435072	42	4300
2026-01-19 02:47:02.54	255.70	31.72	-35.4	-36.7	18.5	0.00e+00	0	62	0	2168455168	42	4160
2026-01-19 02:47:06.58	254.66	31.15	-35.5	-36.8	18.4	0.00e+00	0	62	0	2191523840	42	4202
2026-01-19 02:47:10.62	253.66	30.58	-35.7	-37.1	18.0	0.00e+00	0	62	0	2214592512	42	4366
2026-01-19 02:47:14.65	252.69	30.01	-36.0	-37.4	17.7	0.00e+00	0	61	0	2236612608	42	4542
2026-01-19 02:47:18.69	251.76	29.45	-35.7	-37.1	18.0	0.00e+00	0	61	0	2259681280	42	4369
2026-01-19 02:47:22.73	250.85	28.88	-35.7	-37.0	18.1	0.00e+00	0	62	0	2282749952	42	4340
2026-01-19 02:47:26.77	249.98	28.32	-35.7	-37.1	18.0	0.00e+00	0	62	0	2305818624	42	4366
2026-01-19 02:47:30.80	249.14	27.77	-35.7	-37.1	18.0	0.00e+00	0	62	0	2327838720	42	4360
2026-01-19 02:47:34.85	248.33	27.22	-35.9	-37.3	17.8	0.00e+00	0	62	0	2350907392	42	4477
2026-01-19 02:47:38.88	247.54	26.68	-35.9	-37.3	17.8	0.00e+00	0	62	0	2372927488	42	4468
2026-01-19 02:47:42.92	246.79	26.13	-36.1	-37.5	17.6	0.00e+00	0	62	0	2395996160	42	4555
2026-01-19 02:47:46.96	246.05	25.60	-36.2	-37.6	17.5	0.00e+00	0	62	0	2419064832	42	4619
2026-01-19 02:47:51.00	245.34	25.07	-36.2	-37.7	17.4	0.00e+00	0	61	0	2442133504	43	4410
2026-01-19 02:47:55.04	244.66	24.55	-36.2	-37.6	17.4	0.00e+00	0	61	0	2464153600	43	4365
2026-01-19 02:47:59.08	244.00	24.03	-36.3	-37.7	17.3	0.00e+00	0	62	0	2487222272	43	4427
2026-01-19 02:48:03.12	243.36	23.52	-36.3	-37.7	17.4	0.00e+00	0	61	0	2510290944	43	4404
2026-01-19 02:48:07.16	242.74	23.01	-36.3	-37.7	17.3	0.00e+00	0	62	0	2532311040	43	4441
2026-01-19 02:48:11.19	242.14	22.51	-36.4	-37.8	17.2	0.00e+00	0	62	0	2555379712	43	4469
2026-01-19 02:48:15.23	241.56	22.02	-36.5	-37.9	17.1	0.00e+00	0	62	0	2577399808	43	4540
2026-01-19 02:48:19.27	240.99	21.53	-36.6	-38.1	16.9	0.00e+00	0	62	0	2600468480	43	4619
2026-01-19 02:48:23.31	240.45	21.05	-36.8	-38.3	16.9	0.00e+00	0	62	0	2623537152	44	4468
2026-01-19 02:48:27.35	239.92	20.58	-36.8	-38.4	16.8	0.00e+00	0	62	0	2645557248	44	4500
2026-01-19 02:48:31.39	239.41	20.11	-36.8	-38.4	16.8	0.00e+00	0	62	0	2668625920	44	4503
2026-01-19 02:48:35.43	238.91	19.65	-37.0	-38.5	16.6	0.00e+00	0	62	0	2691694592	44	4595
2026-01-19 02:48:39.46	238.43	19.20	-37.1	-38.7	16.4	0.00e+00	0	62	0	2714763264	44	4697
2026-01-19 02:48:43.50	237.96	18.75	-37.1	-38.7	16.4	0.00e+00	0	62	0	2736783360	44	4682
2026-01-19 02:48:47.55	237.51	18.31	-37.0	-38.5	16.5	0.00e+00	0	62	0	2759852032	44	4593
2026-01-19 02:48:51.59	237.07	17.87	-37.2	-38.7	16.3	0.00e+00	0	62	0	2781872128	44	4703
2026-01-19 02:48:55.62	236.64	17.44	-37.4	-39.0	16.0	0.00e+00	0	62	0	2804940800	45	4579
2026-01-19 02:48:59.66	236.23	17.01	-37.6	-39.3	15.7	0.00e+00	0	62	0	2828009472	45	4743
2026-01-19 02:49:03.71	235.82	16.59	-37.6	-39.3	15.7	0.00e+00	0	62	0	2851078144	45	4754
2026-01-19 02:49:07.75	235.43	16.18	-37.7	-39.4	15.6	0.00e+00	0	62	0	2873098240	46	4529
2026-01-19 02:49:11.79	235.05	15.77	-37.8	-39.5	15.5	0.00e+00	0	62	0	2896166912	46	4558
2026-01-19 02:49:15.82	234.68	15.37	-37.9	-39.6	15.4	0.00e+00	0	62	0	2918187008	46	4637
2026-01-19 02:49:19.86	234.31	14.97	-38.0	-39.8	15.2	0.00e+00	0	62	0	2941255680	46	4713
2026-01-19 02:49:23.90	233.96	14.58	-38.2	-40.1	14.9	0.00e+00	0	62	0	2964324352	46	4887
2026-01-19 02:49:27.94	233.62	14.20	-38.2	-40.1	14.8	0.00e+00	0	62	0	2986344448	47	4635
2026-01-19 02:49:31.98	233.29	13.81	-38.3	-40.2	14.7	0.00e+00	0	62	0	3009413120	47	4665
2026-01-19 02:49:36.02	232.96	13.44	-38.3	-40.2	14.7	0.00e+00	0	62	0	3032481792	47	4688
2026-01-19 02:49:40.06	232.65	13.07	-38.3	-40.2	14.7	0.00e+00	0	62	0	3055550464	47	4680
2026-01-19 02:49:44.09	232.34	12.70	-38.4	-40.3	14.5	1.10e-06	0	62	0	3077570560	47	4747
2026-01-19 02:49:48.14	232.04	12.34	-38.5	-40.4	14.4	1.10e-06	0	62	0	3100639232	47	4796
2026-01-19 02:49:52.18	231.74	11.98	-38.6	-40.6	14.2	4.50e-06	0	62	0	3122659328	47	4877
2026-01-19 02:49:56.21	231.46	11.63	-38.9	-40.9	13.9	3.40e-06	0	62	0	3145728000	48	4809
2026-01-19 02:50:00.25	231.18	11.28	-38.9	-40.9	13.9	9.10e-06	0	62	0	3168796672	48	4809
2026-01-19 02:50:04.29	230.91	10.93	-38.9	-41.0	13.8	6.80e-06	0	62	0	3190816768	48	4833
2026-01-19 02:50:08.33	230.64	10.59	-38.9	-41.0	13.8	1.14e-05	0	62	0	3213885440	48	4857
2026-01-19 02:50:12.36	230.38	10.26	-38.9	-41.0	13.8	9.10e-06	0	62	0	3236954112	48	4826
2026-01-19 02:50:16.40	230.13	9.92	-38.9	-41.1	13.6	1.37e-05	0	62	0	3258974208	48	4908
2026-01-19 02:50:20.44	229.88	9.60	-39.1	-41.3	13.4	2.86e-05	0	62	0	3282042880	48	4997
2026-01-19 02:50:24.48	229.64	9.27	-39.2	-41.6	13.1	4.80e-05	0	62	0	3305111552	49	4873
2026-01-19 02:50:28.52	229.41	8.95	-39.3	-41.6	13.1	4.92e-05	0	62	0	3327131648	49	4887
2026-01-19 02:50:32.56	229.17	8.63	-39.4	-41.8	12.8	8.58e-05	0	62	0	3350200320	49	5000
2026-01-19 02:50:36.60	228.95	8.32	-39.5	-42.0	12.5	1.37e-04	0	62	0	3373268992	49	5116
2026-01-19 02:50:40.64	228.73	8.01	-43.2	-49.4	5.5	2.58e-02	0	62	0	3395289088	56	8038
2026-01-19 02:50:44.68	228.51	7.70	-45.2	-56.9	3.8	8.47e-01	0	62	104	3396337664	60	15111
2026-01-19 02:50:48.73	228.30	7.40	-45.4	-57.1	3.8	8.47e-01	0	62	104	3396337664	61	14576
2026-01-19 02:50:52.77	228.09	7.10	-45.3	-57.0	3.8	8.46e-01	0	62	104	3396337664	61	14414
2026-01-19 02:50:56.81	227.89	6.80	-45.3	-56.9	3.8	8.46e-01	0	62	104	3396337664	61	14288
2026-01-19 02:51:00.85	227.69	6.50	-45.2	-56.9	3.8	8.46e-01	0	62	104	3396337664	61	14254
2026-01-19 02:51:04.89	227.50	6.21	-45.2	-56.9	3.8	8.47e-01	0	62	104	3396337664	61	14257
2026-01-19 02:51:08.94	227.31	5.92	-45.2	-56.9	3.8	8.46e-01	0	62	104	3396337664	61	14226
2026-01-19 02:51:12.98	227.12	5.64	-45.2	-56.9	3.8	8.46e-01	0	62	104	3396337664	61	14222
2026-01-19 02:51:17.02	226.94	5.35	-45.2	-56.9	3.8	8.46e-01	0	62	104	3396337664	61	14212
2026-01-19 02:51:21.06	226.76	5.07	-45.2	-56.8	3.8	8.46e-01	0	62	104	3396337664	61	14189
2026-01-19 02:51:25.11	226.59	4.80	-45.2	-56.8	3.8	8.46e-01	0	62	104	3396337664	61	14132
2026-01-19 02:51:29.15	226.42	4.52	-45.2	-56.8	3.8	8.48e-01	0	62	104	3396337664	61	14148
2026-01-19 02:51:33.19	226.25	4.25	-45.2	-56.8	3.8	8.46e-01	0	62	104	3396337664	61	14144
2026-01-19 02:51:37.23	226.08	3.98	-45.2	-56.8	3.8	8.45e-01	0	62	104	3396337664	61	14167
2026-01-19 02:51:41.27	225.92	3.71	-45.2	-56.8	3.8	8.46e-01	0	62	104	3396337664	61	14176
2026-01-19 02:51:45.32	225.76	3.45	-45.2	-56.8	3.8	8.46e-01	0	62	104	3396337664	61	14131
2026-01-19 02:51:49.36	225.61	3.18	-45.2	-56.8	3.8	8.46e-01	0	62	104	3396337664	61	14148
2026-01-19 02:51:53.40	225.45	2.92	-45.1	-56.8	3.8	8.46e-01	0	62	104	3396337664	61	14128
2026-01-19 02:51:57.44	225.30	2.67	-45.2	-56.8	3.8	8.47e-01	0	62	104	3396337664	61	14127
2026-01-19 02:52:01.48	225.16	2.41	-45.1	-56.8	3.8	8.47e-01	0	62	104	3396337664	61	14146
2026-01-19 02:52:05.52	225.01	2.16	-45.1	-56.8	3.8	8.46e-01	0	62	104	3396337664	61	14119

#Closed at: 2026-01-19 02:52:08
#Recorded file [3396 MB]: D:/lorett/data/31039_260119_053817.dat