passes_logs/2026/01/19/R2.0S_Moscow/R2.0S_Moscow__20260119_095007_SUOMI_NPP_rec.log

#Pass ID: 20260119_095007_SUOMI NPP
#Satellite: SUOMI NPP
#Configuration: NPP
#almurnet v.1.7.20251203
#Start time: 2026-01-19 09:50:09

#Version: 2.2.20231116
#Station: R2.0S_Moscow
#Location: 37.707566 lon 55.798166 lat
#TLE: 1 37849U 11061A   26017.92342359  .00000077  00000+0  57567-4 0  9990
#TLE: 2 37849  98.7814 319.9468 0002389  58.5705 301.5704 14.19525998737125

#Time	Az	El	Level	Level2	SNR	BER	BlckErr	Temp	State	Recorded	gain1	gain2
2026-01-19 09:50:09.60	155.90	2.14	-44.0	-58.5	3.8	1.49e+00	0	53	0	0	59	19356
2026-01-19 09:50:13.64	155.88	2.41	-44.0	-58.6	3.8	1.49e+00	0	53	104	0	59	19416
2026-01-19 09:50:17.68	155.86	2.67	-44.0	-58.6	3.8	1.49e+00	0	54	104	0	59	19457
2026-01-19 09:50:21.72	155.84	2.94	-44.0	-58.6	3.8	1.49e+00	0	54	104	0	59	19415
2026-01-19 09:50:25.76	155.82	3.21	-44.0	-58.6	3.8	1.49e+00	0	54	104	0	59	19438
2026-01-19 09:50:29.80	155.80	3.48	-44.0	-58.5	3.8	1.49e+00	0	54	104	0	59	19373
2026-01-19 09:50:33.85	155.78	3.76	-44.0	-58.5	3.8	1.49e+00	0	55	104	0	59	19354
2026-01-19 09:50:37.89	155.76	4.04	-44.0	-58.6	3.8	1.49e+00	0	55	104	0	59	19405
2026-01-19 09:50:41.93	155.73	4.32	-44.0	-58.5	3.8	1.49e+00	0	55	104	0	59	19338
2026-01-19 09:50:45.97	155.71	4.60	-43.9	-58.5	3.8	1.49e+00	0	56	104	0	59	19307
2026-01-19 09:50:50.01	155.68	4.89	-43.9	-58.4	3.8	1.49e+00	0	56	104	0	59	19164
2026-01-19 09:50:54.05	155.66	5.18	-44.0	-58.5	3.8	1.49e+00	0	56	104	0	59	19191
2026-01-19 09:50:58.09	155.63	5.47	-44.0	-58.4	3.8	1.49e+00	0	56	104	0	58	20153
2026-01-19 09:51:02.14	155.60	5.77	-44.0	-57.8	3.8	1.49e+00	0	56	104	0	58	18929
2026-01-19 09:51:06.18	155.58	6.07	-43.8	-56.1	3.9	1.48e+00	0	57	104	0	58	15426
2026-01-19 09:51:10.22	155.55	6.37	-43.7	-54.7	4.3	1.36e+00	0	57	0	0	58	13222
2026-01-19 09:51:14.26	155.52	6.68	-43.8	-56.4	3.9	1.48e+00	0	57	104	0	58	16096
2026-01-19 09:51:18.30	155.49	6.99	-44.0	-58.3	3.8	1.49e+00	0	57	104	0	58	19958
2026-01-19 09:51:22.34	155.46	7.31	-43.8	-55.7	4.0	1.48e+00	0	57	104	0	58	14832
2026-01-19 09:51:26.39	155.42	7.63	-43.3	-51.2	6.2	3.74e-01	0	57	0	5242880	58	8834
2026-01-19 09:51:30.43	155.39	7.95	-42.2	-48.6	8.5	5.03e-02	0	58	0	12582912	57	6951
2026-01-19 09:51:34.46	155.36	8.28	-42.8	-48.8	8.3	1.44e+00	0	58	0	16777216	57	7118
2026-01-19 09:51:38.51	155.32	8.61	-42.4	-47.9	9.4	1.80e-02	0	58	0	19922944	56	6795
2026-01-19 09:51:42.54	155.29	8.94	-42.3	-47.6	9.7	1.20e-02	0	58	0	27262976	56	6558
2026-01-19 09:51:46.58	155.25	9.29	-42.4	-47.7	9.7	8.92e-03	0	58	0	34603008	56	6611
2026-01-19 09:51:50.62	155.21	9.63	-42.1	-47.0	10.4	5.62e-03	0	58	0	42991616	55	6443
2026-01-19 09:51:54.66	155.17	9.98	-42.1	-46.8	10.6	3.66e-03	0	58	0	50331648	55	6344
2026-01-19 09:51:58.70	155.13	10.34	-41.9	-46.7	10.7	2.22e-03	0	59	0	57671680	55	6219
2026-01-19 09:52:02.73	155.09	10.70	-42.1	-46.9	10.6	2.31e-03	0	59	0	65011712	55	6363
2026-01-19 09:52:06.78	155.05	11.06	-42.1	-46.7	10.9	1.94e-03	0	58	0	73400320	55	6229
2026-01-19 09:52:10.81	155.00	11.43	-42.1	-46.6	11.1	1.79e-03	0	59	0	80740352	55	6181
2026-01-19 09:52:14.85	154.96	11.81	-42.1	-46.6	11.2	1.26e-03	0	59	0	88080384	55	6137
2026-01-19 09:52:18.89	154.91	12.19	-42.1	-46.9	10.8	2.08e-03	0	59	0	95420416	55	6379
2026-01-19 09:52:22.93	154.86	12.58	-42.3	-46.9	10.9	2.48e-03	0	59	0	102760448	55	6410
2026-01-19 09:52:26.97	154.81	12.98	-42.4	-47.1	10.7	3.07e-03	0	59	0	111149056	55	6524
2026-01-19 09:52:31.01	154.76	13.38	-42.2	-47.0	10.9	1.95e-03	0	59	0	118489088	55	6421
2026-01-19 09:52:35.05	154.70	13.79	-42.2	-46.8	11.1	1.86e-03	0	59	0	125829120	55	6296
2026-01-19 09:52:39.09	154.65	14.20	-42.2	-46.6	11.3	9.78e-04	0	60	0	133169152	55	6171
2026-01-19 09:52:43.12	154.59	14.62	-42.2	-46.5	11.5	7.98e-04	0	60	0	141557760	55	6066
2026-01-19 09:52:47.16	154.53	15.05	-42.2	-46.4	11.6	6.94e-04	0	60	0	148897792	55	6047
2026-01-19 09:52:51.20	154.47	15.49	-42.1	-46.3	11.8	5.73e-04	0	60	0	156237824	55	5932
2026-01-19 09:52:55.24	154.40	15.94	-42.2	-46.5	11.7	5.32e-04	0	60	0	163577856	55	6076
2026-01-19 09:52:59.28	154.34	16.39	-42.2	-46.4	11.7	5.70e-04	0	60	0	170917888	55	6035
2026-01-19 09:53:03.31	154.27	16.85	-42.0	-45.8	12.4	1.50e-04	0	60	0	179306496	55	5620
2026-01-19 09:53:07.36	154.20	17.32	-41.7	-45.2	13.0	4.42e-05	0	60	0	186646528	55	5248
2026-01-19 09:53:11.39	154.12	17.80	-41.9	-45.6	12.6	9.68e-05	0	60	0	193986560	55	5521
2026-01-19 09:53:15.43	154.04	18.29	-42.2	-46.3	11.9	3.73e-04	0	60	0	201326592	55	5965
2026-01-19 09:53:19.47	153.97	18.79	-42.0	-45.8	12.5	1.98e-04	0	60	0	209715200	55	5611
2026-01-19 09:53:23.51	153.88	19.30	-41.7	-45.1	13.1	3.58e-05	0	60	0	217055232	55	5213
2026-01-19 09:53:27.55	153.80	19.82	-41.9	-45.5	12.8	6.63e-05	0	60	0	224395264	55	5451
2026-01-19 09:53:31.60	153.71	20.36	-42.2	-46.3	12.0	2.55e-04	0	61	0	231735296	55	5933
2026-01-19 09:53:35.63	153.61	20.90	-41.9	-45.6	12.7	9.91e-05	0	61	0	239075328	55	5514
2026-01-19 09:53:39.67	153.52	21.45	-41.6	-44.9	13.4	1.75e-05	0	61	0	247463936	55	5081
2026-01-19 09:53:43.71	153.42	22.02	-41.7	-45.1	13.2	1.06e-05	0	61	0	254803968	55	5205
2026-01-19 09:53:47.75	153.31	22.60	-41.8	-45.4	13.0	5.34e-05	0	60	0	262144000	55	5375
2026-01-19 09:53:51.78	153.20	23.20	-41.6	-44.9	13.4	1.29e-05	0	61	0	269484032	55	5074
2026-01-19 09:53:55.82	153.09	23.80	-41.4	-44.6	13.8	2.20e-06	0	61	0	277872640	54	5160
2026-01-19 09:53:59.86	152.97	24.43	-41.9	-45.4	13.0	2.28e-05	0	61	0	285212672	54	5707
2026-01-19 09:54:03.90	152.85	25.06	-42.1	-45.9	12.5	8.16e-05	0	61	0	292552704	54	5994
2026-01-19 09:54:07.94	152.72	25.72	-42.2	-46.0	12.4	1.09e-04	0	61	0	299892736	55	5745
2026-01-19 09:54:11.98	152.58	26.39	-42.0	-45.7	12.7	5.64e-05	0	61	0	307232768	55	5558
2026-01-19 09:54:16.01	152.44	27.07	-42.1	-45.8	12.6	7.40e-05	0	61	0	315621376	55	5616
2026-01-19 09:54:20.05	152.29	27.77	-42.2	-45.9	12.5	1.45e-04	0	61	0	322961408	55	5676
2026-01-19 09:54:24.09	152.13	28.49	-42.4	-46.4	12.0	3.11e-04	0	61	0	330301440	55	6010
2026-01-19 09:54:28.13	151.97	29.23	-42.3	-46.2	12.2	3.81e-04	0	61	0	337641472	55	5902
2026-01-19 09:54:32.17	151.79	29.99	-42.9	-47.2	11.4	7.99e-04	0	61	0	346030080	56	6217
2026-01-19 09:54:36.20	151.61	30.77	-43.0	-47.5	11.0	1.68e-03	0	61	0	353370112	56	6455
2026-01-19 09:54:40.24	151.42	31.57	-43.3	-48.1	10.4	2.80e-03	0	61	0	360710144	57	6558
2026-01-19 09:54:44.28	151.22	32.40	-43.8	-49.5	8.9	1.93e-02	0	61	0	368050176	58	7282
2026-01-19 09:54:48.31	151.01	33.24	-43.6	-48.9	9.6	1.02e-02	0	61	0	375390208	58	6787
2026-01-19 09:54:52.35	150.78	34.11	-44.1	-50.7	7.9	5.77e-02	0	61	0	383778816	58	8292
2026-01-19 09:54:56.39	150.54	35.01	-43.8	-49.5	8.9	2.31e-02	0	62	0	391118848	59	6873
2026-01-19 09:55:00.43	150.29	35.93	-43.2	-48.0	10.5	4.08e-03	0	61	0	398458880	58	6130
2026-01-19 09:55:04.47	150.02	36.87	-43.5	-48.8	9.7	5.15e-03	0	61	0	405798912	58	6704
2026-01-19 09:55:08.51	149.74	37.85	-42.8	-46.9	11.7	8.14e-04	0	61	0	414187520	57	5666
2026-01-19 09:55:12.55	149.43	38.85	-43.1	-47.7	10.9	1.29e-03	0	61	0	421527552	57	6203
2026-01-19 09:55:16.59	149.11	39.88	-43.6	-49.1	9.5	1.63e-02	0	61	0	428867584	57	7296
2026-01-19 09:55:20.63	148.76	40.94	-43.5	-48.6	9.9	1.36e-02	0	61	0	436207616	58	6547
2026-01-19 09:55:24.66	148.39	42.03	-43.8	-49.5	9.0	1.59e-02	0	62	0	443547648	58	7225
2026-01-19 09:55:28.70	147.99	43.16	-43.9	-49.7	8.8	3.04e-02	0	62	0	451936256	58	7402
2026-01-19 09:55:32.74	147.57	44.31	-43.6	-48.8	9.7	1.74e-02	0	61	0	459276288	58	6705
2026-01-19 09:55:36.78	147.10	45.50	-42.8	-46.8	11.8	1.34e-03	0	61	0	466616320	57	5643
2026-01-19 09:55:40.82	146.60	46.72	-43.5	-48.6	10.0	3.18e-03	0	62	0	473956352	57	6893
2026-01-19 09:55:44.85	146.06	47.98	-43.5	-48.5	10.0	2.38e-02	0	62	0	482344960	58	6443
2026-01-19 09:55:48.89	145.48	49.27	-43.0	-47.3	11.1	2.17e-03	0	62	0	489684992	58	5628
2026-01-19 09:55:52.93	144.83	50.60	-42.0	-45.4	13.3	2.13e-05	0	61	0	497025024	56	5062
2026-01-19 09:55:56.97	144.13	51.96	-42.3	-46.0	12.6	1.27e-04	0	61	0	504365056	56	5430
2026-01-19 09:56:01.00	143.36	53.35	-43.4	-48.4	10.2	3.87e-03	0	62	0	511705088	57	6740
2026-01-19 09:56:05.04	142.51	54.78	-42.6	-46.5	12.1	1.01e-04	0	62	0	520093696	56	5735
2026-01-19 09:56:09.08	141.56	56.24	-42.2	-45.7	13.0	1.41e-04	0	61	0	527433728	56	5236
2026-01-19 09:56:13.12	140.51	57.73	-42.4	-46.2	12.2	2.01e-04	0	62	0	534773760	55	5884
2026-01-19 09:56:17.16	139.33	59.25	-43.1	-47.6	11.0	2.48e-03	0	62	0	542113792	57	6186
2026-01-19 09:56:21.20	138.01	60.79	-42.6	-46.6	12.0	4.75e-04	0	62	0	550502400	57	5485
2026-01-19 09:56:25.24	136.51	62.36	-42.3	-46.2	12.3	1.23e-04	0	62	0	557842432	55	5870
2026-01-19 09:56:29.27	134.80	63.94	-42.4	-46.3	12.1	1.43e-04	0	62	0	565182464	55	5944
2026-01-19 09:56:33.31	132.84	65.53	-41.8	-45.1	13.3	1.14e-05	0	62	0	572522496	54	5527
2026-01-19 09:56:37.35	130.57	67.13	-42.5	-46.6	11.7	8.18e-04	0	62	0	579862528	55	6174
2026-01-19 09:56:41.39	127.92	68.72	-42.9	-47.2	11.1	1.71e-03	0	62	0	588251136	56	6267
2026-01-19 09:56:45.43	124.81	70.29	-42.8	-47.0	11.4	4.23e-03	0	62	0	595591168	57	5788
2026-01-19 09:56:49.47	121.14	71.81	-42.3	-45.9	12.6	5.64e-05	0	62	0	602931200	56	5368
2026-01-19 09:56:53.51	116.76	73.27	-43.4	-48.6	9.8	1.56e-02	0	62	0	610271232	58	6497
2026-01-19 09:56:57.54	111.54	74.63	-42.5	-46.5	11.8	1.11e-04	0	62	0	618659840	55	6096
2026-01-19 09:57:01.58	105.30	75.86	-43.4	-48.5	9.8	8.76e-03	0	62	0	625999872	57	6848
2026-01-19 09:57:05.62	97.93	76.91	-43.2	-47.9	10.4	1.02e-02	0	62	0	633339904	57	6371
2026-01-19 09:57:09.65	89.42	77.72	-43.9	-49.9	8.6	3.02e-02	0	62	0	640679936	58	7547
2026-01-19 09:57:13.69	79.90	78.23	-43.2	-47.9	10.4	6.41e-03	0	62	0	648019968	58	6043
2026-01-19 09:57:17.73	69.81	78.40	-43.8	-49.7	8.7	1.38e-02	0	62	0	656408576	58	7390
2026-01-19 09:57:21.77	59.73	78.21	-43.3	-48.3	10.0	3.05e-03	0	62	0	663748608	57	6685
2026-01-19 09:57:25.80	50.28	77.69	-43.6	-49.0	9.3	1.34e-02	0	62	0	671088640	58	6830
2026-01-19 09:57:29.84	41.80	76.87	-44.3	-51.4	7.0	1.01e-01	0	62	0	678428672	59	8468
2026-01-19 09:57:33.88	34.49	75.81	-44.0	-51.0	7.3	1.75e-01	0	62	0	686817280	59	8144
2026-01-19 09:57:37.93	28.30	74.57	-43.6	-48.8	9.5	9.89e-02	0	62	0	694157312	59	6336
2026-01-19 09:57:41.96	23.13	73.20	-43.3	-48.0	10.4	3.80e-03	0	62	0	701497344	57	6494
2026-01-19 09:57:46.00	18.80	71.74	-43.2	-47.8	10.6	1.33e-03	0	62	0	708837376	57	6334
2026-01-19 09:57:50.04	15.15	70.22	-42.4	-46.0	12.5	3.60e-04	0	62	0	716177408	56	5444
2026-01-19 09:57:54.08	12.07	68.65	-42.8	-47.0	11.5	4.41e-04	0	62	0	724566016	57	5728
2026-01-19 09:57:58.12	9.45	67.07	-42.9	-47.0	11.4	1.96e-03	0	62	0	731906048	57	5784
2026-01-19 09:58:02.16	7.20	65.48	-43.3	-48.0	10.7	8.94e-04	0	62	0	739246080	57	6457
2026-01-19 09:58:06.19	5.25	63.89	-43.1	-47.4	11.1	2.18e-03	0	62	0	746586112	56	6387
2026-01-19 09:58:10.23	3.56	62.31	-44.0	-50.3	8.0	5.03e-02	0	62	0	754974720	59	7481
2026-01-19 09:58:14.27	2.07	60.75	-41.8	-45.3	13.1	7.17e-05	0	62	0	762314752	55	5281
2026-01-19 09:58:18.30	0.75	59.21	-41.5	-44.6	13.9	3.00e-06	0	62	0	769654784	53	5470
2026-01-19 09:58:22.34	359.58	57.70	-41.7	-44.9	13.5	2.28e-05	0	62	0	776994816	54	5387
2026-01-19 09:58:26.38	358.54	56.22	-42.9	-47.6	10.9	1.15e-03	0	62	0	784334848	56	6524
2026-01-19 09:58:30.42	357.60	54.76	-41.9	-45.3	13.1	5.34e-05	0	62	0	792723456	55	5281
2026-01-19 09:58:34.45	356.76	53.34	-41.4	-44.4	14.0	6.80e-06	0	62	0	800063488	54	5094
2026-01-19 09:58:38.50	355.99	51.95	-41.8	-45.4	13.0	3.96e-05	0	62	0	807403520	54	5665
2026-01-19 09:58:42.54	355.29	50.60	-43.3	-48.1	10.3	7.78e-03	0	62	0	814743552	57	6510
2026-01-19 09:58:46.58	354.65	49.28	-43.2	-47.7	10.7	3.65e-03	0	62	0	823132160	57	6252
2026-01-19 09:58:50.61	354.07	48.00	-43.8	-49.4	9.0	2.68e-02	0	62	0	830472192	58	7192
2026-01-19 09:58:54.65	353.53	46.75	-43.4	-48.2	10.3	5.25e-03	0	62	0	837812224	58	6268
2026-01-19 09:58:58.69	353.03	45.53	-42.8	-46.9	11.5	2.09e-03	0	62	0	845152256	57	5717
2026-01-19 09:59:02.73	352.57	44.35	-44.3	-51.3	7.1	1.03e-01	0	62	0	852492288	59	8426
2026-01-19 09:59:06.77	352.15	43.20	-44.9	-55.8	4.3	1.26e+00	0	62	0	859832320	60	13383
2026-01-19 09:59:10.81	351.75	42.08	-44.1	-50.4	8.1	2.45e-01	0	62	0	864026624	58	8076
2026-01-19 09:59:14.84	351.39	40.99	-43.8	-49.5	8.9	1.87e-02	0	62	0	871366656	58	7208
2026-01-19 09:59:18.88	351.04	39.94	-44.4	-52.0	6.5	3.09e-01	0	62	0	878706688	59	9081
2026-01-19 09:59:22.92	350.72	38.91	-42.0	-45.4	13.1	8.23e-05	0	62	0	886046720	56	5052
2026-01-19 09:59:26.96	350.42	37.91	-43.8	-49.6	8.7	2.46e-02	0	62	0	894435328	58	7312
2026-01-19 09:59:31.00	350.14	36.95	-43.6	-49.0	9.3	1.63e-02	0	62	0	901775360	58	6841
2026-01-19 09:59:35.03	349.87	36.01	-43.8	-49.7	8.7	3.65e-02	0	62	0	909115392	58	7373
2026-01-19 09:59:39.07	349.62	35.09	-43.3	-48.4	9.9	9.59e-03	0	62	0	916455424	58	6365
2026-01-19 09:59:43.11	349.39	34.20	-42.9	-47.3	11.0	1.59e-03	0	62	0	924844032	57	5977
2026-01-19 09:59:47.15	349.16	33.33	-43.9	-50.1	8.2	3.13e-02	0	62	0	932184064	58	7777
2026-01-19 09:59:51.19	348.95	32.49	-44.2	-51.3	6.9	1.82e-01	0	62	0	939524096	59	8438
2026-01-19 09:59:55.23	348.75	31.67	-44.7	-55.6	4.4	1.25e+00	0	62	0	946864128	60	13024
2026-01-19 09:59:59.27	348.56	30.87	-43.3	-48.3	9.9	9.89e-03	0	62	0	954204160	58	6334
2026-01-19 10:00:03.31	348.38	30.10	-43.3	-48.5	9.7	6.70e-03	0	62	0	961544192	58	6435
2026-01-19 10:00:07.34	348.22	29.34	-43.1	-47.9	10.2	6.11e-03	0	62	0	968884224	58	6061
2026-01-19 10:00:11.38	348.05	28.61	-43.5	-49.5	8.6	2.87e-02	0	62	0	976224256	58	7205
2026-01-19 10:00:15.41	347.90	27.89	-43.5	-49.5	8.4	5.72e-02	0	62	0	983564288	58	7285
2026-01-19 10:00:19.45	347.75	27.19	-42.7	-47.3	10.6	4.58e-03	0	62	0	991952896	57	5980
2026-01-19 10:00:23.49	347.61	26.51	-41.8	-45.6	12.2	2.14e-04	0	62	0	999292928	55	5523
2026-01-19 10:00:27.52	347.48	25.84	-42.1	-46.3	11.3	7.58e-04	0	62	0	1006632960	55	5945
2026-01-19 10:00:31.56	347.35	25.19	-43.1	-48.9	8.8	2.95e-02	0	62	0	1013972992	56	7566
2026-01-19 10:00:35.60	347.23	24.56	-43.0	-48.8	8.7	5.47e-02	0	62	0	1021313024	57	7115
2026-01-19 10:00:39.64	347.11	23.94	-42.4	-47.3	10.1	5.66e-03	0	62	0	1029701632	56	6309
2026-01-19 10:00:43.68	347.00	23.33	-41.9	-46.8	10.1	5.08e-03	0	62	0	1037041664	55	6333
2026-01-19 10:00:47.71	346.90	22.74	-41.6	-46.7	9.8	7.77e-03	0	62	0	1044381696	54	6612
2026-01-19 10:00:51.75	346.80	22.16	-41.5	-47.0	9.3	1.92e-02	0	62	0	1051721728	54	6804
2026-01-19 10:00:55.79	346.70	21.60	-41.7	-48.9	7.0	1.25e-01	0	62	0	1060110336	54	8468
2026-01-19 10:00:59.83	346.60	21.04	-41.8	-52.9	4.3	9.67e-01	0	62	0	1067450368	54	13435
2026-01-19 10:01:03.87	346.51	20.50	-41.6	-56.1	3.8	1.49e+00	0	62	104	1067450368	55	18308
2026-01-19 10:01:07.90	346.43	19.97	-41.5	-56.1	3.8	1.49e+00	0	62	104	1067450368	54	19437
2026-01-19 10:01:11.94	346.34	19.45	-41.2	-56.0	3.8	1.49e+00	0	62	104	1067450368	54	19172
2026-01-19 10:01:15.98	346.27	18.95	-40.9	-55.8	3.8	1.49e+00	0	62	104	1067450368	53	19853
2026-01-19 10:01:20.02	346.19	18.45	-40.9	-55.7	3.8	1.49e+00	0	62	104	1067450368	53	19697
2026-01-19 10:01:24.05	346.12	17.96	-41.2	-55.8	3.8	1.49e+00	0	62	104	1067450368	53	20026
2026-01-19 10:01:28.09	346.04	17.48	-41.5	-56.0	3.8	1.49e+00	0	62	104	1067450368	53	20486
2026-01-19 10:01:32.12	345.98	17.01	-41.5	-56.0	3.8	1.49e+00	0	62	104	1067450368	53	20516
2026-01-19 10:01:36.16	345.91	16.55	-41.4	-55.9	3.8	1.49e+00	0	62	104	1067450368	53	20276
2026-01-19 10:01:40.20	345.85	16.10	-41.3	-55.9	3.8	1.49e+00	0	62	104	1067450368	53	20074
2026-01-19 10:01:44.24	345.79	15.66	-41.2	-55.9	3.8	1.49e+00	0	62	104	1067450368	53	20139
2026-01-19 10:01:48.27	345.73	15.22	-41.3	-55.9	3.8	1.49e+00	0	62	104	1067450368	53	20265
2026-01-19 10:01:52.31	345.67	14.79	-41.2	-55.8	3.8	1.49e+00	0	62	104	1067450368	53	19977
2026-01-19 10:01:56.35	345.62	14.37	-41.1	-55.7	3.8	1.49e+00	0	62	104	1067450368	53	19711
2026-01-19 10:02:00.38	345.57	13.96	-41.1	-55.7	3.8	1.49e+00	0	62	104	1067450368	53	19624
2026-01-19 10:02:04.42	345.52	13.55	-41.0	-55.6	3.8	1.49e+00	0	62	104	1067450368	53	19525
2026-01-19 10:02:08.46	345.47	13.15	-40.8	-55.5	3.8	1.49e+00	0	62	104	1067450368	53	19312
2026-01-19 10:02:12.50	345.42	12.76	-40.8	-55.4	3.8	1.49e+00	0	62	104	1067450368	53	19109
2026-01-19 10:02:16.54	345.37	12.37	-40.7	-55.4	3.8	1.49e+00	0	62	104	1067450368	53	19050
2026-01-19 10:02:20.58	345.33	11.99	-40.7	-55.4	3.8	1.49e+00	0	62	104	1067450368	53	19139
2026-01-19 10:02:24.62	345.29	11.61	-40.6	-55.4	3.8	1.49e+00	0	62	104	1067450368	53	18962
2026-01-19 10:02:28.66	345.25	11.24	-40.6	-55.3	3.8	1.49e+00	0	62	104	1067450368	53	18786
2026-01-19 10:02:32.70	345.21	10.88	-40.6	-55.2	3.8	1.49e+00	0	62	104	1067450368	53	18682
2026-01-19 10:02:36.74	345.17	10.52	-40.7	-55.3	3.8	1.49e+00	0	62	104	1067450368	53	18940
2026-01-19 10:02:40.78	345.13	10.16	-40.8	-55.4	3.8	1.49e+00	0	62	104	1067450368	53	19087
2026-01-19 10:02:44.81	345.10	9.82	-40.7	-55.3	3.8	1.49e+00	0	62	104	1067450368	53	18833
2026-01-19 10:02:48.85	345.06	9.47	-40.6	-55.2	3.8	1.49e+00	0	62	104	1067450368	53	18615
2026-01-19 10:02:52.89	345.03	9.13	-40.6	-55.2	3.8	1.49e+00	0	62	104	1067450368	53	18587
2026-01-19 10:02:56.93	345.00	8.80	-40.7	-55.2	3.8	1.49e+00	0	62	104	1067450368	53	18692
2026-01-19 10:03:00.96	344.97	8.47	-40.8	-55.3	3.8	1.49e+00	0	62	104	1067450368	53	18910
2026-01-19 10:03:05.00	344.94	8.14	-40.8	-55.4	3.8	1.49e+00	0	62	104	1067450368	53	18959
2026-01-19 10:03:09.04	344.91	7.82	-43.3	-57.7	3.8	1.49e+00	0	62	104	1067450368	57	19726
2026-01-19 10:03:13.08	344.88	7.50	-45.2	-59.8	3.8	1.49e+00	0	62	104	1067450368	60	21179
2026-01-19 10:03:17.13	344.86	7.19	-45.1	-59.9	3.8	1.49e+00	0	62	104	1067450368	60	21349
2026-01-19 10:03:21.17	344.83	6.88	-45.2	-59.7	3.8	1.49e+00	0	62	104	1067450368	60	21009
2026-01-19 10:03:25.21	344.81	6.57	-45.1	-59.7	3.8	1.49e+00	0	62	104	1067450368	60	20842
2026-01-19 10:03:29.25	344.78	6.27	-45.1	-59.7	3.8	1.49e+00	0	62	104	1067450368	60	20818
2026-01-19 10:03:33.29	344.76	5.97	-45.1	-59.6	3.8	1.49e+00	0	62	104	1067450368	60	20739
2026-01-19 10:03:37.33	344.74	5.67	-45.1	-59.6	3.8	1.49e+00	0	62	104	1067450368	60	20752
2026-01-19 10:03:41.37	344.72	5.38	-45.1	-59.6	3.8	1.49e+00	0	62	104	1067450368	60	20726
2026-01-19 10:03:45.41	344.70	5.09	-45.1	-59.6	3.8	1.49e+00	0	62	104	1067450368	60	20663
2026-01-19 10:03:49.45	344.68	4.80	-45.1	-59.6	3.8	1.49e+00	0	62	104	1067450368	60	20699
2026-01-19 10:03:53.49	344.66	4.52	-45.1	-59.6	3.8	1.49e+00	0	62	104	1067450368	60	20636
2026-01-19 10:03:57.54	344.64	4.24	-45.1	-59.6	3.8	1.49e+00	0	62	104	1067450368	60	20744
2026-01-19 10:04:01.58	344.62	3.96	-45.1	-59.6	3.8	1.49e+00	0	62	104	1067450368	60	20709
2026-01-19 10:04:05.62	344.60	3.68	-45.1	-59.6	3.8	1.49e+00	0	62	104	1067450368	60	20662
2026-01-19 10:04:09.66	344.59	3.41	-45.1	-59.6	3.8	1.49e+00	0	62	104	1067450368	60	20702
2026-01-19 10:04:13.70	344.57	3.14	-45.0	-59.6	3.8	1.49e+00	0	62	104	1067450368	60	20712
2026-01-19 10:04:17.74	344.55	2.88	-45.1	-59.6	3.8	1.49e+00	0	62	104	1067450368	60	20685
2026-01-19 10:04:21.78	344.54	2.61	-45.1	-59.6	3.8	1.49e+00	0	62	104	1067450368	60	20579
2026-01-19 10:04:25.82	344.53	2.35	-45.1	-59.6	3.8	1.49e+00	0	62	104	1067450368	60	20638
2026-01-19 10:04:29.86	344.51	2.09	-45.1	-59.6	3.8	1.49e+00	0	62	104	1067450368	60	20641

#Closed at: 2026-01-19 10:04:31
#Recorded file [1067 MB]: D:/lorett/data/31039_260119_125009.dat