passes_logs/2026/01/19/R2.0S_Moscow/R2.0S_Moscow__20260119_002012_NOAA_20_JPSS-1_rec.log

#Pass ID: 20260119_002012_NOAA 20 (JPSS-1)
#Satellite: NOAA 20 (JPSS-1)
#Configuration: NOAA 20
#almurnet v.1.7.20251203
#Start time: 2026-01-19 00:20:13

#Version: 2.2.20231116
#Station: R2.0S_Moscow
#Location: 37.707566 lon 55.798166 lat
#TLE: 1 43013U 17073A   26017.93796159  .00000077  00000+0  57252-4 0  9992
#TLE: 2 43013  98.7639 318.8464 0001390  34.9771 325.1496 14.19536703423157

#Time	Az	El	Level	Level2	SNR	BER	BlckErr	Temp	State	Recorded	gain1	gain2
2026-01-19 00:20:13.28	13.47	2.07	-41.3	-55.9	3.8	1.49e+00	0	53	0	0	54	19121
2026-01-19 00:20:17.33	13.37	2.33	-41.3	-55.9	3.8	1.49e+00	0	53	104	0	54	19081
2026-01-19 00:20:21.37	13.26	2.59	-41.3	-55.9	3.8	1.49e+00	0	54	104	0	54	19058
2026-01-19 00:20:25.41	13.16	2.84	-41.3	-55.9	3.8	1.49e+00	0	54	104	0	54	19067
2026-01-19 00:20:29.46	13.05	3.11	-41.3	-55.9	3.8	1.49e+00	0	54	104	0	54	19063
2026-01-19 00:20:33.50	12.94	3.37	-41.3	-55.9	3.8	1.49e+00	0	55	104	0	54	19027
2026-01-19 00:20:37.54	12.83	3.64	-41.3	-55.9	3.8	1.49e+00	0	55	104	0	54	19022
2026-01-19 00:20:41.58	12.71	3.91	-41.3	-55.8	3.8	1.49e+00	0	55	104	0	54	18922
2026-01-19 00:20:45.63	12.59	4.18	-41.3	-55.8	3.8	1.49e+00	0	56	104	0	54	18751
2026-01-19 00:20:49.67	12.47	4.45	-41.3	-55.7	3.8	1.49e+00	0	55	104	0	54	18538
2026-01-19 00:20:53.71	12.35	4.73	-41.3	-55.4	3.8	1.49e+00	0	56	104	0	54	18058
2026-01-19 00:20:57.75	12.23	5.01	-41.3	-55.4	3.8	1.49e+00	0	56	104	0	54	17978
2026-01-19 00:21:01.80	12.10	5.29	-41.2	-55.2	3.8	1.49e+00	0	56	104	0	54	17516
2026-01-19 00:21:05.84	11.97	5.58	-41.2	-54.1	3.8	1.49e+00	0	56	104	0	54	15541
2026-01-19 00:21:09.88	11.84	5.87	-41.1	-53.2	4.0	1.48e+00	0	57	104	0	54	13973
2026-01-19 00:21:13.92	11.70	6.16	-41.2	-53.7	3.8	1.49e+00	0	57	104	0	54	14853
2026-01-19 00:21:17.96	11.56	6.45	-41.3	-55.4	3.8	1.49e+00	0	57	104	0	54	18043
2026-01-19 00:21:22.00	11.42	6.75	-41.2	-55.2	3.8	1.49e+00	0	57	104	0	54	17507
2026-01-19 00:21:26.05	11.27	7.05	-41.1	-53.1	4.0	1.49e+00	0	57	104	0	54	13734
2026-01-19 00:21:30.09	11.12	7.36	-41.0	-52.2	4.2	1.38e+00	0	57	0	0	54	12466
2026-01-19 00:21:34.13	10.97	7.67	-41.0	-52.2	4.2	1.34e+00	0	58	0	2097152	54	12476
2026-01-19 00:21:38.17	10.81	7.98	-41.1	-53.4	3.8	1.48e+00	0	58	104	2097152	54	14371
2026-01-19 00:21:42.21	10.65	8.29	-40.7	-55.2	3.8	1.49e+00	0	58	104	2097152	53	18621
2026-01-19 00:21:46.25	10.49	8.61	-41.3	-54.7	3.8	1.49e+00	0	58	104	2097152	54	16586
2026-01-19 00:21:50.29	10.32	8.93	-40.7	-55.2	3.8	1.49e+00	0	58	104	2097152	53	18632
2026-01-19 00:21:54.33	10.15	9.26	-41.2	-55.5	3.8	1.49e+00	0	59	104	2097152	53	19238
2026-01-19 00:21:58.37	9.97	9.59	-40.7	-55.3	3.8	1.49e+00	0	59	104	2097152	53	18848
2026-01-19 00:22:02.40	9.79	9.93	-40.7	-55.4	3.8	1.49e+00	0	59	104	2097152	53	19101
2026-01-19 00:22:06.44	9.60	10.26	-40.6	-55.1	3.8	1.49e+00	0	59	104	2097152	53	18307
2026-01-19 00:22:10.48	9.41	10.61	-40.6	-55.3	3.8	1.49e+00	0	59	104	2097152	53	18922
2026-01-19 00:22:14.52	9.22	10.96	-42.1	-54.2	3.8	1.49e+00	0	59	104	2097152	54	15633
2026-01-19 00:22:18.56	9.02	11.31	-41.8	-51.6	4.9	8.18e-01	0	59	0	4194304	54	11578
2026-01-19 00:22:22.60	8.81	11.67	-41.9	-49.5	6.6	1.74e-01	0	59	0	11534336	54	9171
2026-01-19 00:22:26.63	8.60	12.03	-40.7	-46.6	8.9	8.43e-01	0	59	0	16777216	53	6931
2026-01-19 00:22:30.67	8.38	12.40	-40.7	-46.1	9.6	1.40e-02	0	59	0	24117248	53	6517
2026-01-19 00:22:34.71	8.16	12.77	-41.1	-46.7	9.2	1.84e-02	0	59	0	31457280	53	6980
2026-01-19 00:22:38.74	7.93	13.15	-41.1	-45.9	10.4	7.75e-03	0	59	0	39845888	53	6402
2026-01-19 00:22:42.78	7.70	13.53	-41.2	-45.6	11.1	1.52e-03	0	60	0	47185920	53	6200
2026-01-19 00:22:46.82	7.46	13.92	-41.2	-45.3	11.6	6.74e-04	0	60	0	54525952	53	5987
2026-01-19 00:22:50.86	7.21	14.31	-41.3	-45.4	11.7	5.63e-04	0	60	0	61865984	53	5999
2026-01-19 00:22:54.89	6.95	14.71	-41.3	-45.3	11.8	5.09e-04	0	60	0	70254592	53	5963
2026-01-19 00:22:58.93	6.69	15.12	-41.4	-45.5	11.8	4.29e-04	0	60	0	77594624	53	6075
2026-01-19 00:23:02.97	6.42	15.53	-41.4	-45.5	11.8	4.72e-04	0	60	0	84934656	53	6092
2026-01-19 00:23:07.01	6.14	15.95	-41.4	-45.4	11.9	3.39e-04	0	60	0	92274688	53	6053
2026-01-19 00:23:11.04	5.85	16.38	-41.5	-45.5	12.0	3.69e-04	0	60	0	99614720	53	6087
2026-01-19 00:23:15.09	5.55	16.81	-41.5	-45.5	12.0	3.23e-04	0	60	0	108003328	53	6105
2026-01-19 00:23:19.12	5.25	17.25	-41.6	-45.5	12.1	3.63e-04	0	60	0	115343360	53	6114
2026-01-19 00:23:23.16	4.93	17.69	-41.7	-45.7	12.0	2.93e-04	0	60	0	122683392	53	6228
2026-01-19 00:23:27.20	4.61	18.15	-41.7	-45.6	12.1	2.62e-04	0	60	0	130023424	54	5846
2026-01-19 00:23:31.25	4.27	18.61	-41.7	-45.5	12.2	1.98e-04	0	60	0	138412032	54	5782
2026-01-19 00:23:35.29	3.92	19.08	-41.8	-45.8	11.9	3.07e-04	0	60	0	145752064	54	5977
2026-01-19 00:23:39.32	3.57	19.56	-41.8	-45.8	12.0	3.14e-04	0	60	0	153092096	54	5926
2026-01-19 00:23:43.36	3.20	20.04	-41.9	-45.9	11.9	3.01e-04	0	60	0	160432128	54	6011
2026-01-19 00:23:47.40	2.81	20.53	-41.9	-46.0	11.9	3.58e-04	0	60	0	167772160	54	6071
2026-01-19 00:23:51.43	2.42	21.04	-42.1	-46.2	11.7	6.08e-04	0	60	0	176160768	54	6241
2026-01-19 00:23:55.47	2.01	21.55	-42.2	-46.6	11.3	1.14e-03	0	61	0	183500800	55	6163
2026-01-19 00:23:59.51	1.59	22.07	-42.3	-46.8	11.1	1.62e-03	0	60	0	190840832	55	6287
2026-01-19 00:24:03.55	1.15	22.59	-42.4	-46.9	11.0	1.93e-03	0	61	0	198180864	55	6377
2026-01-19 00:24:07.59	0.70	23.13	-42.5	-47.2	10.7	2.65e-03	0	61	0	206569472	55	6591
2026-01-19 00:24:11.62	0.23	23.68	-42.6	-47.4	10.6	3.80e-03	0	61	0	213909504	55	6732
2026-01-19 00:24:15.66	359.74	24.23	-42.6	-47.3	10.6	3.66e-03	0	61	0	221249536	55	6679
2026-01-19 00:24:19.69	359.23	24.80	-42.6	-47.3	10.6	3.84e-03	0	61	0	228589568	55	6710
2026-01-19 00:24:23.73	358.71	25.37	-42.9	-47.9	10.2	5.42e-03	0	61	0	235929600	56	6749
2026-01-19 00:24:27.77	358.16	25.96	-43.1	-48.3	9.8	9.89e-03	0	61	0	244318208	56	7110
2026-01-19 00:24:31.81	357.60	26.56	-43.1	-48.3	9.8	9.85e-03	0	61	0	251658240	56	7076
2026-01-19 00:24:35.85	357.01	27.16	-43.2	-48.4	9.7	1.28e-02	0	61	0	258998272	57	6780
2026-01-19 00:24:39.89	356.40	27.78	-43.2	-48.3	9.9	8.23e-03	0	61	0	266338304	57	6652
2026-01-19 00:24:43.93	355.76	28.40	-43.1	-47.9	10.3	5.55e-03	0	61	0	274726912	57	6413
2026-01-19 00:24:47.96	355.10	29.04	-43.0	-47.7	10.5	4.18e-03	0	61	0	282066944	57	6259
2026-01-19 00:24:52.00	354.41	29.69	-43.0	-47.8	10.5	3.96e-03	0	61	0	289406976	57	6287
2026-01-19 00:24:56.04	353.68	30.34	-43.2	-48.1	10.2	6.74e-03	0	61	0	296747008	57	6552
2026-01-19 00:25:00.08	352.93	31.01	-43.3	-48.4	9.9	8.92e-03	0	61	0	304087040	57	6767
2026-01-19 00:25:04.12	352.15	31.69	-43.3	-48.6	9.7	1.15e-02	0	61	0	312475648	57	6890
2026-01-19 00:25:08.15	351.34	32.37	-43.5	-48.9	9.3	1.74e-02	0	61	0	319815680	57	7194
2026-01-19 00:25:12.19	350.48	33.06	-43.5	-49.0	9.3	1.76e-02	0	61	0	327155712	57	7220
2026-01-19 00:25:16.23	349.59	33.77	-43.6	-49.4	8.9	2.80e-02	0	61	0	334495744	57	7555
2026-01-19 00:25:20.26	348.66	34.48	-43.6	-49.3	8.9	2.39e-02	0	61	0	342884352	57	7514
2026-01-19 00:25:24.30	347.69	35.20	-43.4	-48.4	9.9	1.28e-02	0	61	0	350224384	57	6792
2026-01-19 00:25:28.33	346.67	35.92	-43.3	-48.2	10.1	6.12e-03	0	61	0	357564416	57	6621
2026-01-19 00:25:32.37	345.61	36.65	-43.3	-48.3	10.1	5.71e-03	0	61	0	364904448	57	6652
2026-01-19 00:25:36.41	344.49	37.38	-43.2	-48.0	10.4	5.40e-03	0	61	0	372244480	57	6441
2026-01-19 00:25:40.45	343.32	38.12	-43.4	-48.4	9.9	7.08e-03	0	61	0	380633088	57	6792
2026-01-19 00:25:44.48	342.11	38.86	-43.5	-48.6	9.8	1.14e-02	0	61	0	387973120	57	6926
2026-01-19 00:25:48.52	340.83	39.60	-43.5	-48.8	9.6	1.48e-02	0	61	0	395313152	57	7048
2026-01-19 00:25:52.56	339.49	40.34	-43.4	-48.4	9.9	8.96e-03	0	61	0	402653184	57	6783
2026-01-19 00:25:56.60	338.08	41.08	-43.5	-48.6	9.9	7.18e-03	0	61	0	411041792	57	6897
2026-01-19 00:26:00.64	336.62	41.81	-43.9	-49.9	8.4	4.82e-02	0	61	0	418381824	58	7573
2026-01-19 00:26:04.67	335.08	42.53	-43.7	-49.2	9.2	2.20e-02	0	61	0	425721856	58	6996
2026-01-19 00:26:08.71	333.47	43.25	-43.8	-49.5	8.9	2.48e-02	0	61	0	433061888	58	7263
2026-01-19 00:26:12.75	331.79	43.95	-43.4	-48.4	10.0	9.42e-03	0	61	0	440401920	58	6420
2026-01-19 00:26:16.79	330.04	44.63	-43.7	-49.2	9.2	2.40e-02	0	61	0	448790528	58	6998
2026-01-19 00:26:20.82	328.21	45.29	-43.1	-47.7	10.9	2.22e-03	0	61	0	456130560	58	5874
2026-01-19 00:26:24.86	326.30	45.93	-43.3	-48.0	10.5	3.16e-03	0	61	0	463470592	58	6088
2026-01-19 00:26:28.90	324.31	46.54	-43.1	-47.6	10.9	2.77e-03	0	61	0	470810624	58	5824
2026-01-19 00:26:32.94	322.25	47.12	-42.9	-47.0	11.5	1.12e-03	0	61	0	479199232	57	5775
2026-01-19 00:26:36.98	320.11	47.67	-43.2	-47.8	10.6	2.09e-03	0	62	0	486539264	57	6292
2026-01-19 00:26:41.01	317.89	48.18	-43.5	-48.6	9.8	9.64e-03	0	62	0	493879296	57	6887
2026-01-19 00:26:45.05	315.61	48.64	-43.9	-49.6	8.7	2.97e-02	0	61	0	501219328	58	7331
2026-01-19 00:26:49.09	313.25	49.06	-44.1	-50.4	7.9	8.20e-02	0	61	0	508559360	58	8048
2026-01-19 00:26:53.13	310.83	49.43	-44.0	-50.1	8.2	5.18e-02	0	61	0	516947968	58	7795
2026-01-19 00:26:57.17	308.36	49.75	-43.6	-49.0	9.4	1.54e-02	0	62	0	524288000	58	6842
2026-01-19 00:27:01.21	305.84	50.01	-43.4	-48.4	9.9	1.01e-02	0	61	0	531628032	58	6388
2026-01-19 00:27:05.24	303.29	50.21	-43.0	-47.3	11.1	2.60e-03	0	61	0	538968064	58	5645
2026-01-19 00:27:09.28	300.70	50.35	-42.8	-47.0	11.4	1.11e-03	0	62	0	546308096	57	5768
2026-01-19 00:27:13.32	298.09	50.43	-42.6	-46.5	11.9	4.59e-04	0	62	0	554696704	57	5451
2026-01-19 00:27:17.35	295.48	50.45	-42.5	-46.2	12.3	3.04e-04	0	61	0	562036736	56	5579
2026-01-19 00:27:21.39	292.87	50.40	-42.3	-45.8	12.6	5.95e-05	0	62	0	569376768	56	5337
2026-01-19 00:27:25.43	290.27	50.29	-42.8	-47.0	11.5	9.73e-04	0	62	0	576716800	56	6082
2026-01-19 00:27:29.47	287.69	50.12	-42.7	-46.8	11.6	6.06e-04	0	62	0	585105408	56	5951
2026-01-19 00:27:33.51	285.15	49.89	-42.9	-47.2	11.2	1.16e-03	0	62	0	592445440	56	6205
2026-01-19 00:27:37.54	282.65	49.60	-42.7	-46.7	11.7	4.90e-04	0	62	0	599785472	56	5877
2026-01-19 00:27:41.58	280.21	49.25	-42.9	-47.2	11.2	1.53e-03	0	61	0	607125504	56	6258
2026-01-19 00:27:45.62	277.82	48.86	-42.9	-47.2	11.2	1.80e-03	0	62	0	614465536	56	6248
2026-01-19 00:27:49.65	275.50	48.41	-43.3	-48.2	10.1	7.14e-03	0	62	0	622854144	57	6604
2026-01-19 00:27:53.69	273.24	47.92	-43.2	-48.0	10.3	5.55e-03	0	62	0	630194176	57	6489
2026-01-19 00:27:57.73	271.06	47.39	-43.3	-48.3	10.0	7.75e-03	0	62	0	637534208	57	6674
2026-01-19 00:28:01.77	268.95	46.83	-43.5	-48.6	9.6	1.16e-02	0	62	0	644874240	57	6958
2026-01-19 00:28:05.80	266.92	46.23	-42.9	-47.2	11.2	1.57e-03	0	62	0	653262848	57	5904
2026-01-19 00:28:09.85	264.97	45.60	-43.1	-47.6	10.8	2.35e-03	0	62	0	660602880	57	6158
2026-01-19 00:28:13.89	263.09	44.95	-42.7	-46.7	11.8	7.48e-04	0	62	0	667942912	57	5548
2026-01-19 00:28:17.93	261.29	44.27	-42.6	-46.6	11.9	3.36e-04	0	62	0	675282944	56	5806
2026-01-19 00:28:21.97	259.57	43.58	-42.5	-46.4	12.0	4.86e-04	0	62	0	682622976	56	5708
2026-01-19 00:28:26.00	257.93	42.87	-42.5	-46.4	12.0	3.41e-04	0	62	0	691011584	56	5706
2026-01-19 00:28:30.04	256.35	42.15	-42.7	-46.9	11.4	1.24e-03	0	62	0	698351616	56	6047
2026-01-19 00:28:34.07	254.85	41.42	-42.2	-45.8	12.6	7.93e-05	0	62	0	705691648	56	5313
2026-01-19 00:28:38.11	253.41	40.68	-42.7	-46.8	11.6	9.43e-04	0	62	0	713031680	56	5965
2026-01-19 00:28:42.16	252.03	39.94	-42.5	-46.4	11.9	2.79e-04	0	62	0	721420288	56	5709
2026-01-19 00:28:46.20	250.72	39.20	-42.9	-47.3	11.0	1.62e-03	0	62	0	728760320	56	6329
2026-01-19 00:28:50.23	249.47	38.45	-43.0	-47.5	10.8	2.03e-03	0	62	0	736100352	56	6454
2026-01-19 00:28:54.27	248.27	37.71	-43.0	-47.6	10.7	2.64e-03	0	62	0	743440384	56	6558
2026-01-19 00:28:58.31	247.13	36.97	-43.4	-48.7	9.6	1.27e-02	0	62	0	750780416	57	7004
2026-01-19 00:29:02.35	246.04	36.23	-43.5	-48.9	9.4	1.54e-02	0	62	0	759169024	57	7148
2026-01-19 00:29:06.39	244.99	35.50	-43.7	-49.4	8.8	2.53e-02	0	62	0	766509056	57	7604
2026-01-19 00:29:10.43	243.99	34.78	-43.5	-48.9	9.3	1.70e-02	0	62	0	773849088	57	7176
2026-01-19 00:29:14.47	243.04	34.06	-43.6	-49.2	9.0	2.24e-02	0	62	0	781189120	57	7415
2026-01-19 00:29:18.51	242.12	33.35	-43.7	-49.6	8.5	3.60e-02	0	62	0	789577728	58	7340
2026-01-19 00:29:22.55	241.25	32.65	-43.7	-49.4	8.7	3.11e-02	0	62	0	796917760	58	7202
2026-01-19 00:29:26.58	240.41	31.96	-43.5	-48.9	9.3	1.54e-02	0	62	0	804257792	58	6751
2026-01-19 00:29:30.62	239.61	31.27	-43.5	-49.0	9.2	2.01e-02	0	62	0	811597824	58	6810
2026-01-19 00:29:34.66	238.84	30.60	-43.5	-48.9	9.3	2.01e-02	0	61	0	818937856	58	6774
2026-01-19 00:29:38.70	238.10	29.94	-43.3	-48.4	9.8	1.20e-02	0	62	0	827326464	58	6392
2026-01-19 00:29:42.73	237.40	29.28	-43.1	-47.9	10.3	5.61e-03	0	62	0	834666496	58	6018
2026-01-19 00:29:46.77	236.72	28.64	-43.2	-48.2	10.0	7.42e-03	0	62	0	842006528	58	6207
2026-01-19 00:29:50.81	236.06	28.00	-43.1	-48.0	10.2	7.83e-03	0	62	0	849346560	58	6118
2026-01-19 00:29:54.85	235.44	27.38	-43.0	-47.6	10.6	3.32e-03	0	62	0	857735168	57	6196
2026-01-19 00:29:58.89	234.83	26.77	-42.9	-47.6	10.6	3.29e-03	0	62	0	865075200	57	6161
2026-01-19 00:30:02.93	234.25	26.16	-42.8	-47.2	10.9	1.86e-03	0	62	0	872415232	57	5915
2026-01-19 00:30:06.96	233.69	25.57	-43.0	-47.8	10.4	4.25e-03	0	62	0	879755264	57	6276
2026-01-19 00:30:11.00	233.16	24.99	-43.0	-47.8	10.4	4.67e-03	0	62	0	887095296	57	6278
2026-01-19 00:30:15.03	232.64	24.42	-42.7	-47.1	11.1	1.72e-03	0	62	0	895483904	57	5817
2026-01-19 00:30:19.07	232.14	23.86	-42.6	-46.9	11.3	1.16e-03	0	62	0	902823936	57	5704
2026-01-19 00:30:23.11	231.66	23.30	-42.7	-47.1	11.1	1.42e-03	0	62	0	910163968	57	5791
2026-01-19 00:30:27.14	231.19	22.76	-42.7	-47.1	11.0	2.00e-03	0	62	0	917504000	57	5836
2026-01-19 00:30:31.18	230.75	22.22	-42.6	-46.9	11.3	1.08e-03	0	62	0	925892608	57	5680
2026-01-19 00:30:35.22	230.31	21.70	-42.7	-47.1	11.1	1.49e-03	0	62	0	933232640	57	5810
2026-01-19 00:30:39.26	229.89	21.18	-42.7	-47.1	11.1	1.64e-03	0	62	0	940572672	57	5806
2026-01-19 00:30:43.30	229.49	20.67	-42.5	-46.8	11.4	1.04e-03	0	62	0	947912704	57	5623
2026-01-19 00:30:47.34	229.10	20.17	-42.6	-47.0	11.1	1.30e-03	0	62	0	955252736	57	5781
2026-01-19 00:30:51.38	228.72	19.68	-42.7	-47.1	11.0	1.98e-03	0	62	0	963641344	57	5844
2026-01-19 00:30:55.42	228.35	19.20	-42.7	-47.3	10.8	2.46e-03	0	62	0	970981376	57	5926
2026-01-19 00:30:59.45	228.00	18.73	-42.5	-46.8	11.3	1.13e-03	0	62	0	978321408	56	5950
2026-01-19 00:31:03.49	227.65	18.26	-42.6	-47.1	11.0	1.60e-03	0	62	0	985661440	56	6169
2026-01-19 00:31:07.53	227.32	17.80	-42.8	-47.5	10.5	3.76e-03	0	62	0	993001472	56	6490
2026-01-19 00:31:11.57	227.00	17.35	-42.9	-47.9	10.1	7.37e-03	0	62	0	1001390080	56	6756
2026-01-19 00:31:15.60	226.68	16.91	-42.8	-47.5	10.5	4.88e-03	0	62	0	1008730112	56	6473
2026-01-19 00:31:19.64	226.38	16.47	-42.8	-47.5	10.4	4.66e-03	0	62	0	1016070144	56	6492
2026-01-19 00:31:23.68	226.08	16.04	-42.7	-47.4	10.5	3.95e-03	0	62	0	1023410176	56	6395
2026-01-19 00:31:27.72	225.80	15.62	-42.8	-47.5	10.4	4.65e-03	0	62	0	1031798784	56	6486
2026-01-19 00:31:31.76	225.52	15.20	-42.7	-47.4	10.5	3.84e-03	0	62	0	1039138816	56	6386
2026-01-19 00:31:35.80	225.25	14.79	-42.7	-47.4	10.5	4.20e-03	0	62	0	1046478848	56	6362
2026-01-19 00:31:39.84	224.98	14.38	-42.7	-47.4	10.5	3.96e-03	0	62	0	1053818880	56	6394
2026-01-19 00:31:43.87	224.73	13.98	-42.8	-47.9	10.0	6.95e-03	0	62	0	1061158912	56	6725
2026-01-19 00:31:47.91	224.48	13.59	-42.9	-48.1	9.7	1.05e-02	0	62	0	1069547520	56	6939
2026-01-19 00:31:51.95	224.24	13.20	-42.9	-48.2	9.5	1.38e-02	0	62	0	1076887552	56	7022
2026-01-19 00:31:55.99	224.00	12.82	-42.9	-48.3	9.4	1.49e-02	0	62	0	1084227584	56	7063
2026-01-19 00:32:00.03	223.77	12.45	-42.9	-48.1	9.6	1.34e-02	0	62	0	1091567616	56	6949
2026-01-19 00:32:04.07	223.55	12.08	-42.8	-48.0	9.7	1.32e-02	0	62	0	1099956224	56	6832
2026-01-19 00:32:08.10	223.33	11.71	-42.8	-48.2	9.5	1.34e-02	0	62	0	1107296256	56	6968
2026-01-19 00:32:12.14	223.12	11.35	-42.9	-48.4	9.2	1.87e-02	0	62	0	1114636288	56	7176
2026-01-19 00:32:16.18	222.91	10.99	-42.9	-48.7	8.9	2.63e-02	0	62	0	1121976320	56	7381
2026-01-19 00:32:20.22	222.71	10.64	-42.9	-48.6	9.0	2.47e-02	0	62	0	1129316352	56	7311
2026-01-19 00:32:24.25	222.51	10.30	-42.8	-48.5	9.0	2.72e-02	0	62	0	1137704960	56	7225
2026-01-19 00:32:28.29	222.32	9.96	-42.8	-48.3	9.2	2.03e-02	0	62	0	1145044992	56	7114
2026-01-19 00:32:32.33	222.13	9.62	-42.7	-48.3	9.2	1.90e-02	0	62	0	1152385024	56	7061
2026-01-19 00:32:36.37	221.95	9.28	-42.7	-48.2	9.3	2.55e-02	0	62	0	1159725056	56	7000
2026-01-19 00:32:40.41	221.77	8.95	-42.8	-48.7	8.6	3.10e-02	0	62	0	1168113664	56	7430
2026-01-19 00:32:44.44	221.60	8.63	-42.8	-48.8	8.5	4.76e-02	0	62	0	1175453696	56	7480
2026-01-19 00:32:48.48	221.43	8.31	-42.9	-49.2	8.0	5.56e-02	0	62	0	1182793728	56	7892
2026-01-19 00:32:52.52	221.26	7.99	-43.4	-51.5	6.4	6.79e-02	0	62	0	1190133760	57	9678
2026-01-19 00:32:56.56	221.10	7.68	-45.1	-59.8	3.8	1.49e+00	0	62	104	1191182336	60	21039
2026-01-19 00:33:00.60	220.94	7.37	-45.3	-59.9	3.8	1.49e+00	0	62	104	1191182336	61	20156
2026-01-19 00:33:04.64	220.79	7.06	-45.3	-59.8	3.8	1.49e+00	0	62	104	1191182336	61	19935
2026-01-19 00:33:08.68	220.63	6.76	-45.3	-59.8	3.8	1.49e+00	0	62	104	1191182336	61	19941
2026-01-19 00:33:12.73	220.48	6.46	-45.2	-59.8	3.8	1.49e+00	0	62	104	1191182336	61	19865
2026-01-19 00:33:16.77	220.34	6.16	-45.2	-59.7	3.8	1.49e+00	0	62	104	1191182336	61	19794
2026-01-19 00:33:20.81	220.20	5.87	-45.2	-59.7	3.8	1.49e+00	0	62	104	1191182336	61	19801
2026-01-19 00:33:24.85	220.06	5.57	-45.2	-59.7	3.8	1.49e+00	0	62	104	1191182336	61	19731
2026-01-19 00:33:28.90	219.92	5.29	-45.2	-59.7	3.8	1.49e+00	0	62	104	1191182336	61	19715
2026-01-19 00:33:32.94	219.79	5.00	-45.2	-59.7	3.8	1.49e+00	0	62	104	1191182336	61	19743
2026-01-19 00:33:36.98	219.66	4.72	-45.2	-59.7	3.8	1.49e+00	0	62	104	1191182336	61	19666
2026-01-19 00:33:41.02	219.53	4.44	-45.2	-59.7	3.8	1.49e+00	0	62	104	1191182336	61	19663
2026-01-19 00:33:45.06	219.40	4.17	-45.1	-59.6	3.8	1.49e+00	0	62	104	1191182336	61	19588
2026-01-19 00:33:49.10	219.28	3.89	-45.1	-59.7	3.8	1.49e+00	0	62	104	1191182336	61	19636
2026-01-19 00:33:53.14	219.16	3.62	-45.1	-59.7	3.8	1.49e+00	0	62	104	1191182336	61	19655
2026-01-19 00:33:57.19	219.04	3.35	-45.1	-59.6	3.8	1.49e+00	0	62	104	1191182336	61	19604
2026-01-19 00:34:01.23	218.92	3.09	-45.1	-59.7	3.8	1.49e+00	0	62	104	1191182336	61	19624
2026-01-19 00:34:05.27	218.81	2.82	-45.1	-59.6	3.8	1.49e+00	0	62	104	1191182336	61	19572
2026-01-19 00:34:09.32	218.70	2.56	-45.1	-59.7	3.8	1.49e+00	0	62	104	1191182336	61	19702
2026-01-19 00:34:13.36	218.59	2.30	-45.1	-59.6	3.8	1.49e+00	0	62	104	1191182336	61	19610
2026-01-19 00:34:17.40	218.48	2.05	-45.1	-59.6	3.8	1.49e+00	0	62	104	1191182336	61	19560

#Closed at: 2026-01-19 00:34:20
#Recorded file [1191 MB]: D:/lorett/data/31039_260119_032013.dat