passes_logs/2026/01/19/R2.0S_Moscow/R2.0S_Moscow__20260119_222111_NOAA_20_JPSS-1_rec.log

#Pass ID: 20260119_222111_NOAA 20 (JPSS-1)
#Satellite: NOAA 20 (JPSS-1)
#Configuration: NOAA 20
#almurnet v.1.7.20251203
#Start time: 2026-01-19 22:21:13

#Version: 2.2.20231116
#Station: R2.0S_Moscow
#Location: 37.707566 lon 55.798166 lat
#TLE: 1 43013U 17073A   26019.27717929  .00000087  00000+0  62288-4 0  9995
#TLE: 2 43013  98.7641 320.1715 0001339  33.1986 326.9274 14.19537047423343

#Time	Az	El	Level	Level2	SNR	BER	BlckErr	Temp	State	Recorded	gain1	gain2
2026-01-19 22:21:13.96	23.91	2.11	-41.7	-57.1	3.8	1.49e+00	0	53	0	0	55	20769
2026-01-19 22:21:17.99	24.16	2.34	-41.7	-57.2	3.8	1.49e+00	0	54	104	0	54	22010
2026-01-19 22:21:22.04	24.43	2.58	-41.8	-57.2	3.8	1.49e+00	0	54	104	0	54	22088
2026-01-19 22:21:26.08	24.69	2.81	-41.8	-57.2	3.8	1.49e+00	0	54	104	0	54	22036
2026-01-19 22:21:30.12	24.96	3.04	-41.7	-57.2	3.8	1.49e+00	0	54	104	0	54	22089
2026-01-19 22:21:34.16	25.24	3.28	-41.8	-57.2	3.8	1.49e+00	0	55	104	0	54	22049
2026-01-19 22:21:38.20	25.51	3.51	-41.8	-57.2	3.8	1.49e+00	0	55	104	0	54	22056
2026-01-19 22:21:42.24	25.79	3.75	-41.7	-57.1	3.8	1.49e+00	0	55	104	0	54	22006
2026-01-19 22:21:46.29	26.08	3.99	-41.7	-57.1	3.8	1.49e+00	0	55	104	0	54	21910
2026-01-19 22:21:50.32	26.37	4.24	-41.7	-57.1	3.8	1.49e+00	0	56	104	0	54	21984
2026-01-19 22:21:54.36	26.67	4.48	-41.7	-57.2	3.8	1.49e+00	0	56	104	0	54	22013
2026-01-19 22:21:58.41	26.97	4.72	-41.7	-57.2	3.8	1.49e+00	0	56	104	0	54	22036
2026-01-19 22:22:02.44	27.27	4.97	-41.7	-57.1	3.8	1.49e+00	0	56	104	0	54	21952
2026-01-19 22:22:06.48	27.58	5.22	-41.7	-57.1	3.8	1.49e+00	0	56	104	0	54	21980
2026-01-19 22:22:10.52	27.89	5.47	-41.7	-57.1	3.8	1.49e+00	0	56	104	0	54	21976
2026-01-19 22:22:14.56	28.21	5.72	-41.7	-57.2	3.8	1.49e+00	0	56	104	0	54	22011
2026-01-19 22:22:18.60	28.54	5.98	-41.7	-57.1	3.8	1.49e+00	0	57	104	0	54	21988
2026-01-19 22:22:22.64	28.87	6.23	-41.7	-57.1	3.8	1.49e+00	0	57	104	0	54	21935
2026-01-19 22:22:26.69	29.21	6.49	-41.7	-57.0	3.8	1.49e+00	0	57	104	0	54	21600
2026-01-19 22:22:30.73	29.55	6.75	-41.7	-57.0	3.8	1.49e+00	0	57	104	0	54	21523
2026-01-19 22:22:34.77	29.89	7.01	-41.6	-55.9	3.8	1.49e+00	0	58	104	0	54	19011
2026-01-19 22:22:38.81	30.25	7.27	-41.7	-56.2	3.8	1.49e+00	0	58	104	0	54	19631
2026-01-19 22:22:42.85	30.61	7.54	-41.5	-52.4	4.6	9.26e-01	0	58	0	3145728	54	12786
2026-01-19 22:22:46.89	30.97	7.80	-41.1	-49.4	6.5	2.71e-01	0	58	0	10485760	54	9030
2026-01-19 22:22:50.93	31.34	8.07	-43.4	-56.8	3.8	1.06e-01	0	58	104	17825792	57	17784
2026-01-19 22:22:54.97	31.72	8.34	-41.7	-50.7	5.8	1.11e-01	0	58	0	22020096	54	10483
2026-01-19 22:22:59.01	32.11	8.61	-41.5	-48.0	8.5	4.27e-02	0	59	0	29360128	54	7653
2026-01-19 22:23:03.05	32.50	8.89	-41.6	-47.7	8.9	2.86e-02	0	58	0	36700160	54	7386
2026-01-19 22:23:07.09	32.90	9.16	-41.6	-47.2	9.5	1.49e-02	0	58	0	44040192	54	7022
2026-01-19 22:23:11.13	33.31	9.44	-41.8	-47.3	9.5	1.40e-02	0	59	0	51380224	54	7118
2026-01-19 22:23:15.17	33.72	9.72	-41.9	-47.2	9.8	8.74e-03	0	59	0	59768832	54	6985
2026-01-19 22:23:19.21	34.14	10.00	-42.0	-47.2	9.8	9.04e-03	0	59	0	67108864	54	7013
2026-01-19 22:23:23.25	34.57	10.28	-42.0	-47.2	9.9	8.97e-03	0	59	0	74448896	54	7022
2026-01-19 22:23:27.29	35.01	10.57	-42.1	-47.3	10.0	7.47e-03	0	59	0	81788928	54	7055
2026-01-19 22:23:31.32	35.45	10.85	-42.1	-47.2	10.1	6.57e-03	0	59	0	90177536	54	6968
2026-01-19 22:23:35.36	35.91	11.14	-42.1	-47.1	10.3	4.82e-03	0	59	0	97517568	54	6911
2026-01-19 22:23:39.40	36.37	11.43	-42.0	-46.8	10.6	3.41e-03	0	59	0	104857600	54	6705
2026-01-19 22:23:43.43	36.84	11.73	-42.0	-46.6	10.9	2.38e-03	0	59	0	112197632	54	6531
2026-01-19 22:23:47.47	37.32	12.02	-42.0	-46.5	11.0	1.73e-03	0	59	0	119537664	54	6456
2026-01-19 22:23:51.51	37.81	12.32	-42.0	-46.5	11.1	1.61e-03	0	59	0	127926272	54	6449
2026-01-19 22:23:55.55	38.31	12.61	-41.9	-46.2	11.4	1.15e-03	0	60	0	135266304	54	6257
2026-01-19 22:23:59.59	38.82	12.91	-41.9	-46.3	11.3	1.06e-03	0	60	0	142606336	54	6341
2026-01-19 22:24:03.63	39.34	13.21	-42.1	-46.5	11.1	1.53e-03	0	60	0	149946368	54	6485
2026-01-19 22:24:07.67	39.87	13.52	-42.1	-46.6	11.0	1.67e-03	0	60	0	158334976	54	6544
2026-01-19 22:24:11.70	40.41	13.82	-42.0	-46.4	11.3	1.13e-03	0	60	0	165675008	54	6395
2026-01-19 22:24:15.74	40.96	14.13	-42.1	-46.4	11.3	1.10e-03	0	60	0	173015040	54	6402
2026-01-19 22:24:19.78	41.53	14.43	-42.0	-46.3	11.5	8.76e-04	0	60	0	180355072	54	6296
2026-01-19 22:24:23.81	42.10	14.74	-42.0	-46.3	11.5	7.12e-04	0	60	0	187695104	54	6305
2026-01-19 22:24:27.85	42.69	15.05	-41.9	-46.1	11.8	6.23e-04	0	60	0	196083712	54	6149
2026-01-19 22:24:31.89	43.29	15.36	-41.9	-46.1	11.7	6.32e-04	0	60	0	203423744	54	6180
2026-01-19 22:24:35.93	43.90	15.68	-41.9	-45.9	11.9	3.13e-04	0	60	0	210763776	54	6054
2026-01-19 22:24:39.97	44.52	15.99	-41.8	-45.7	12.2	2.32e-04	0	60	0	218103808	54	5879
2026-01-19 22:24:44.00	45.15	16.30	-41.7	-45.6	12.3	1.63e-04	0	60	0	225443840	54	5810
2026-01-19 22:24:48.04	45.80	16.62	-41.8	-45.7	12.2	2.00e-04	0	61	0	233832448	54	5868
2026-01-19 22:24:52.08	46.46	16.93	-41.9	-45.8	12.2	2.43e-04	0	61	0	241172480	54	5983
2026-01-19 22:24:56.11	47.14	17.25	-42.0	-46.1	11.9	3.44e-04	0	60	0	248512512	54	6140
2026-01-19 22:25:00.15	47.83	17.57	-42.1	-46.2	11.8	4.42e-04	0	61	0	255852544	54	6250
2026-01-19 22:25:04.19	48.53	17.88	-42.0	-45.9	12.1	3.68e-04	0	61	0	264241152	54	6056
2026-01-19 22:25:08.23	49.25	18.20	-41.8	-45.5	12.5	1.27e-04	0	61	0	271581184	54	5768
2026-01-19 22:25:12.26	49.98	18.51	-41.7	-45.5	12.6	9.84e-05	0	61	0	278921216	54	5728
2026-01-19 22:25:16.30	50.73	18.83	-41.6	-45.1	12.9	3.81e-05	0	61	0	286261248	54	5513
2026-01-19 22:25:20.34	51.49	19.14	-41.4	-44.7	13.4	1.98e-05	0	61	0	293601280	54	5264
2026-01-19 22:25:24.38	52.27	19.46	-41.3	-44.6	13.5	7.60e-06	0	61	0	301989888	54	5183
2026-01-19 22:25:28.42	53.06	19.77	-41.3	-44.6	13.5	1.22e-05	0	61	0	309329920	54	5164
2026-01-19 22:25:32.45	53.87	20.08	-41.2	-44.4	13.7	6.10e-06	0	61	0	316669952	54	5057
2026-01-19 22:25:36.49	54.70	20.39	-41.3	-44.7	13.5	1.14e-05	0	61	0	324009984	54	5232
2026-01-19 22:25:40.52	55.54	20.69	-41.4	-44.8	13.3	1.29e-05	0	61	0	332398592	54	5284
2026-01-19 22:25:44.56	56.40	21.00	-41.3	-44.7	13.4	1.22e-05	0	61	0	339738624	54	5235
2026-01-19 22:25:48.60	57.28	21.30	-41.4	-44.9	13.2	2.67e-05	0	61	0	347078656	54	5346
2026-01-19 22:25:52.64	58.17	21.60	-41.6	-45.1	12.9	3.28e-05	0	61	0	354418688	54	5501
2026-01-19 22:25:56.67	59.08	21.89	-41.7	-45.4	12.7	7.17e-05	0	61	0	361758720	54	5703
2026-01-19 22:26:00.71	60.01	22.18	-41.9	-45.6	12.4	1.49e-04	0	61	0	370147328	54	5846
2026-01-19 22:26:04.76	60.95	22.47	-41.7	-45.3	12.8	6.94e-05	0	61	0	377487360	54	5600
2026-01-19 22:26:08.80	61.91	22.75	-41.8	-45.6	12.5	1.21e-04	0	61	0	384827392	54	5824
2026-01-19 22:26:12.83	62.89	23.03	-41.7	-45.4	12.7	8.69e-05	0	61	0	392167424	54	5671
2026-01-19 22:26:16.87	63.88	23.30	-41.9	-45.6	12.5	9.07e-05	0	61	0	400556032	54	5840
2026-01-19 22:26:20.91	64.90	23.56	-42.2	-46.3	11.9	3.87e-04	0	61	0	407896064	54	6304
2026-01-19 22:26:24.95	65.93	23.82	-42.4	-46.7	11.4	8.80e-04	0	61	0	415236096	55	6235
2026-01-19 22:26:28.99	66.97	24.07	-42.5	-46.9	11.3	1.21e-03	0	61	0	422576128	55	6357
2026-01-19 22:26:33.03	68.03	24.31	-42.7	-47.3	10.7	2.28e-03	0	61	0	429916160	55	6707
2026-01-19 22:26:37.07	69.11	24.55	-42.9	-47.7	10.4	4.33e-03	0	61	0	438304768	56	6637
2026-01-19 22:26:41.10	70.20	24.78	-42.6	-47.0	11.2	1.36e-03	0	61	0	445644800	56	6077
2026-01-19 22:26:45.14	71.31	24.99	-43.1	-48.2	10.0	5.93e-03	0	61	0	452984832	56	6971
2026-01-19 22:26:49.19	72.44	25.20	-43.3	-48.9	9.2	2.45e-02	0	61	0	460324864	57	7177
2026-01-19 22:26:53.22	73.57	25.40	-43.1	-48.3	9.9	7.91e-03	0	62	0	468713472	57	6676
2026-01-19 22:26:57.26	74.73	25.59	-43.2	-48.5	9.7	1.08e-02	0	62	0	476053504	57	6821
2026-01-19 22:27:01.30	75.89	25.76	-43.2	-48.5	9.6	1.24e-02	0	62	0	483393536	57	6841
2026-01-19 22:27:05.34	77.07	25.93	-43.1	-48.2	10.0	7.65e-03	0	61	0	490733568	57	6616
2026-01-19 22:27:09.38	78.26	26.08	-43.1	-48.1	10.1	7.11e-03	0	62	0	498073600	57	6562
2026-01-19 22:27:13.42	79.46	26.22	-42.7	-47.3	10.8	2.95e-03	0	61	0	506462208	57	5966
2026-01-19 22:27:17.46	80.67	26.35	-42.7	-47.2	11.1	1.49e-03	0	62	0	513802240	57	5893
2026-01-19 22:27:21.49	81.89	26.47	-42.9	-47.6	10.7	2.72e-03	0	62	0	521142272	57	6136
2026-01-19 22:27:25.53	83.12	26.57	-43.0	-47.9	10.4	4.90e-03	0	62	0	528482304	57	6402
2026-01-19 22:27:29.57	84.36	26.66	-42.9	-47.5	10.8	3.30e-03	0	62	0	536870912	57	6113
2026-01-19 22:27:33.61	85.60	26.73	-42.7	-47.2	11.1	1.60e-03	0	62	0	544210944	57	5893
2026-01-19 22:27:37.64	86.84	26.79	-42.6	-46.9	11.5	8.20e-04	0	62	0	551550976	57	5695
2026-01-19 22:27:41.68	88.09	26.84	-42.7	-47.2	11.2	1.33e-03	0	62	0	558891008	57	5858
2026-01-19 22:27:45.72	89.35	26.87	-42.5	-46.5	11.9	4.88e-04	0	62	0	566231040	56	5787
2026-01-19 22:27:49.75	90.60	26.89	-42.4	-46.4	12.1	2.19e-04	0	62	0	574619648	56	5671
2026-01-19 22:27:53.79	91.86	26.89	-42.6	-46.8	11.5	8.71e-04	0	62	0	581959680	56	5991
2026-01-19 22:27:57.83	93.12	26.88	-42.5	-46.6	11.8	4.44e-04	0	62	0	589299712	56	5810
2026-01-19 22:28:01.87	94.38	26.86	-43.1	-48.1	10.2	5.20e-03	0	62	0	596639744	56	6944
2026-01-19 22:28:05.91	95.63	26.82	-43.0	-47.9	10.5	4.29e-03	0	62	0	603979776	56	6733
2026-01-19 22:28:09.94	96.88	26.76	-42.6	-46.8	11.6	5.91e-04	0	62	0	612368384	56	5961
2026-01-19 22:28:13.98	98.13	26.69	-42.8	-47.2	11.2	1.25e-03	0	62	0	619708416	56	6248
2026-01-19 22:28:18.02	99.37	26.61	-42.6	-46.7	11.7	6.39e-04	0	62	0	627048448	56	5919
2026-01-19 22:28:22.05	100.60	26.52	-42.7	-46.9	11.5	7.11e-04	0	62	0	634388480	56	6061
2026-01-19 22:28:26.09	101.83	26.41	-42.7	-47.0	11.5	8.96e-04	0	62	0	642777088	56	6100
2026-01-19 22:28:30.13	103.04	26.28	-42.6	-46.7	11.8	5.51e-04	0	62	0	650117120	56	5884
2026-01-19 22:28:34.17	104.25	26.15	-42.5	-46.6	11.9	4.78e-04	0	62	0	657457152	56	5833
2026-01-19 22:28:38.21	105.45	26.00	-42.1	-45.8	12.7	8.23e-05	0	62	0	664797184	56	5336
2026-01-19 22:28:42.25	106.64	25.84	-42.1	-45.8	12.7	5.95e-05	0	62	0	672137216	56	5297
2026-01-19 22:28:46.28	107.81	25.67	-41.8	-45.4	13.0	3.81e-05	0	62	0	680525824	55	5357
2026-01-19 22:28:50.32	108.97	25.48	-41.8	-45.3	13.1	4.19e-05	0	62	0	687865856	55	5317
2026-01-19 22:28:54.36	110.12	25.29	-41.9	-45.4	12.9	4.42e-05	0	62	0	695205888	55	5396
2026-01-19 22:28:58.40	111.25	25.09	-42.0	-45.8	12.6	8.77e-05	0	62	0	702545920	55	5621
2026-01-19 22:29:02.44	112.37	24.87	-41.7	-45.1	13.2	2.59e-05	0	62	0	710934528	55	5186
2026-01-19 22:29:06.48	113.48	24.65	-42.0	-45.7	12.6	6.63e-05	0	62	0	718274560	55	5559
2026-01-19 22:29:10.51	114.56	24.42	-42.3	-46.4	11.9	4.20e-04	0	62	0	725614592	55	6039
2026-01-19 22:29:14.55	115.63	24.17	-42.1	-45.9	12.4	1.94e-04	0	62	0	732954624	55	5676
2026-01-19 22:29:18.59	116.69	23.93	-42.2	-46.1	12.2	1.98e-04	0	62	0	740294656	55	5830
2026-01-19 22:29:22.63	117.73	23.67	-42.3	-46.4	11.9	3.86e-04	0	62	0	748683264	55	6042
2026-01-19 22:29:26.67	118.76	23.41	-42.1	-46.0	12.3	2.33e-04	0	62	0	756023296	55	5745
2026-01-19 22:29:30.70	119.76	23.14	-42.0	-45.7	12.6	7.55e-05	0	62	0	763363328	55	5560
2026-01-19 22:29:34.74	120.75	22.86	-42.1	-46.0	12.3	1.38e-04	0	62	0	770703360	55	5744
2026-01-19 22:29:38.78	121.72	22.58	-42.2	-46.2	12.1	2.80e-04	0	62	0	779091968	55	5903
2026-01-19 22:29:42.82	122.68	22.29	-42.1	-45.9	12.4	1.85e-04	0	62	0	786432000	55	5699
2026-01-19 22:29:46.85	123.62	22.00	-42.1	-45.9	12.3	1.98e-04	0	62	0	793772032	55	5717
2026-01-19 22:29:50.89	124.54	21.71	-42.1	-46.0	12.3	1.39e-04	0	62	0	801112064	55	5755
2026-01-19 22:29:54.94	125.44	21.41	-43.0	-48.0	10.3	4.29e-03	0	62	0	808452096	56	6804
2026-01-19 22:29:58.97	126.33	21.11	-42.9	-47.7	10.6	3.74e-03	0	62	0	816840704	56	6618
2026-01-19 22:30:03.01	127.20	20.80	-43.0	-48.1	10.2	5.49e-03	0	62	0	824180736	56	6884
2026-01-19 22:30:07.05	128.05	20.49	-42.5	-46.7	11.7	7.74e-04	0	62	0	831520768	56	5863
2026-01-19 22:30:11.08	128.89	20.18	-42.7	-47.3	11.1	1.71e-03	0	62	0	838860800	56	6282
2026-01-19 22:30:15.12	129.71	19.87	-42.2	-46.1	12.2	2.79e-04	0	62	0	847249408	56	5503
2026-01-19 22:30:19.16	130.51	19.56	-42.5	-47.0	11.1	1.07e-03	0	62	0	854589440	55	6474
2026-01-19 22:30:23.19	131.30	19.24	-42.3	-46.7	11.4	1.37e-03	0	62	0	861929472	55	6208
2026-01-19 22:30:27.23	132.07	18.93	-42.3	-46.6	11.5	1.03e-03	0	62	0	869269504	55	6133
2026-01-19 22:30:31.26	132.83	18.61	-42.6	-47.3	10.7	4.47e-03	0	62	0	876609536	55	6684
2026-01-19 22:30:35.30	133.57	18.29	-42.1	-46.2	11.7	3.20e-02	0	62	0	884998144	54	6271
2026-01-19 22:30:39.34	134.30	17.97	-42.2	-46.5	11.5	1.44e-03	0	62	0	892338176	55	6098
2026-01-19 22:30:43.38	135.01	17.65	-42.0	-45.9	12.0	8.26e-04	0	62	0	899678208	54	6005
2026-01-19 22:30:47.41	135.71	17.33	-42.1	-46.6	11.4	1.21e-03	0	62	0	907018240	54	6501
2026-01-19 22:30:51.45	136.39	17.01	-41.6	-46.4	10.2	1.67e-03	0	62	0	914358272	54	6380
2026-01-19 22:30:55.49	137.06	16.70	-41.9	-45.8	12.1	4.55e-03	0	62	0	922746880	54	5985
2026-01-19 22:30:59.52	137.72	16.38	-42.0	-46.2	11.8	4.97e-04	0	62	0	930086912	54	6227
2026-01-19 22:31:03.56	138.36	16.06	-41.9	-46.0	12.0	3.94e-04	0	62	0	937426944	54	6083
2026-01-19 22:31:07.60	138.99	15.74	-41.9	-45.9	12.0	3.42e-04	0	62	0	944766976	54	6059
2026-01-19 22:31:11.64	139.61	15.43	-41.9	-46.0	11.9	3.64e-04	0	62	0	953155584	54	6079
2026-01-19 22:31:15.67	140.21	15.11	-42.2	-46.6	11.2	9.63e-04	0	62	0	960495616	54	6541
2026-01-19 22:31:19.71	140.80	14.80	-42.2	-46.7	11.1	1.88e-03	0	62	0	967835648	55	6264
2026-01-19 22:31:23.75	141.38	14.49	-42.1	-46.5	11.2	1.76e-03	0	62	0	975175680	54	6480
2026-01-19 22:31:27.78	141.95	14.18	-42.1	-46.6	11.2	1.58e-03	0	62	0	982515712	54	6497
2026-01-19 22:31:31.82	142.51	13.87	-42.0	-46.3	11.4	1.14e-03	0	62	0	990904320	54	6339
2026-01-19 22:31:35.86	143.05	13.56	-42.2	-46.8	10.9	2.04e-03	0	62	0	998244352	55	6306
2026-01-19 22:31:39.90	143.59	13.25	-42.4	-47.4	10.2	5.31e-03	0	62	0	1005584384	55	6773
2026-01-19 22:31:43.94	144.11	12.95	-42.6	-47.8	9.8	9.79e-03	0	62	0	1012924416	55	7067
2026-01-19 22:31:47.97	144.63	12.65	-42.5	-47.6	10.0	8.04e-03	0	62	0	1021313024	55	6951
2026-01-19 22:31:52.02	145.13	12.35	-42.5	-47.8	9.8	9.13e-03	0	62	0	1028653056	55	7061
2026-01-19 22:31:56.05	145.63	12.05	-42.6	-48.0	9.6	1.28e-02	0	62	0	1035993088	55	7205
2026-01-19 22:32:00.09	146.11	11.75	-42.6	-48.1	9.4	1.77e-02	0	62	0	1043333120	55	7324
2026-01-19 22:32:04.13	146.59	11.45	-42.5	-47.7	9.7	1.13e-02	0	62	0	1050673152	55	7013
2026-01-19 22:32:08.16	147.05	11.16	-42.1	-47.8	9.4	1.21e-02	0	62	0	1059061760	55	7105
2026-01-19 22:32:12.20	147.51	10.87	-42.5	-47.9	9.5	1.55e-02	0	62	0	1066401792	55	7158
2026-01-19 22:32:16.24	147.96	10.58	-42.4	-47.7	9.7	1.31e-02	0	62	0	1073741824	55	6983
2026-01-19 22:32:20.27	148.40	10.29	-42.1	-47.1	10.2	6.00e-03	0	62	0	1081081856	55	6552
2026-01-19 22:32:24.31	148.83	10.00	-42.0	-46.8	10.4	4.26e-03	0	62	0	1089470464	55	6311
2026-01-19 22:32:28.35	149.25	9.72	-42.0	-46.9	10.3	5.18e-03	0	62	0	1096810496	55	6397
2026-01-19 22:32:32.39	149.67	9.43	-42.1	-47.3	9.8	1.02e-02	0	62	0	1104150528	55	6723
2026-01-19 22:32:36.43	150.08	9.15	-42.2	-47.6	9.5	1.33e-02	0	62	0	1111490560	55	6921
2026-01-19 22:32:40.47	150.48	8.87	-42.1	-47.5	9.6	1.35e-02	0	62	0	1118830592	55	6808
2026-01-19 22:32:44.50	150.87	8.60	-42.1	-47.5	9.5	1.30e-02	0	62	0	1127219200	55	6809
2026-01-19 22:32:48.54	151.26	8.32	-42.0	-47.5	9.4	1.62e-02	0	62	0	1134559232	55	6832
2026-01-19 22:32:52.58	151.64	8.05	-42.1	-47.8	9.0	2.18e-02	0	62	0	1141899264	55	7097
2026-01-19 22:32:56.62	152.01	7.78	-45.1	-59.9	3.8	1.49e+00	0	62	104	1143996416	60	21261
2026-01-19 22:33:00.66	152.38	7.51	-45.5	-60.3	3.8	1.49e+00	0	62	104	1143996416	61	21041
2026-01-19 22:33:04.70	152.74	7.24	-45.4	-60.0	3.8	1.49e+00	0	62	104	1143996416	61	20388
2026-01-19 22:33:08.74	153.09	6.98	-45.2	-59.8	3.8	1.49e+00	0	62	104	1143996416	61	19973
2026-01-19 22:33:12.78	153.44	6.71	-45.2	-59.8	3.8	1.49e+00	0	62	104	1143996416	61	19896
2026-01-19 22:33:16.83	153.78	6.45	-45.2	-59.8	3.8	1.49e+00	0	62	104	1143996416	61	19880
2026-01-19 22:33:20.87	154.12	6.19	-45.2	-59.7	3.8	1.49e+00	0	62	104	1143996416	61	19776
2026-01-19 22:33:24.91	154.45	5.93	-45.2	-59.7	3.8	1.49e+00	0	62	104	1143996416	61	19778
2026-01-19 22:33:28.95	154.77	5.67	-45.2	-59.7	3.8	1.49e+00	0	62	104	1143996416	61	19783
2026-01-19 22:33:32.99	155.09	5.42	-45.2	-59.7	3.8	1.49e+00	0	62	104	1143996416	61	19740
2026-01-19 22:33:37.03	155.40	5.17	-45.2	-59.7	3.8	1.49e+00	0	62	104	1143996416	61	19814
2026-01-19 22:33:41.07	155.71	4.92	-45.2	-59.7	3.8	1.49e+00	0	62	104	1143996416	61	19767
2026-01-19 22:33:45.11	156.01	4.67	-45.1	-59.7	3.8	1.49e+00	0	62	104	1143996416	61	19693
2026-01-19 22:33:49.15	156.31	4.42	-45.1	-59.7	3.8	1.49e+00	0	62	104	1143996416	61	19669
2026-01-19 22:33:53.19	156.61	4.17	-45.1	-59.7	3.8	1.49e+00	0	62	104	1143996416	61	19645
2026-01-19 22:33:57.23	156.90	3.93	-45.1	-59.7	3.8	1.49e+00	0	62	104	1143996416	61	19629
2026-01-19 22:34:01.27	157.18	3.68	-45.1	-59.7	3.8	1.49e+00	0	62	104	1143996416	61	19617
2026-01-19 22:34:05.31	157.46	3.44	-45.1	-59.6	3.8	1.49e+00	0	62	104	1143996416	61	19604
2026-01-19 22:34:09.35	157.74	3.20	-45.1	-59.6	3.8	1.49e+00	0	62	104	1143996416	61	19567
2026-01-19 22:34:13.39	158.01	2.96	-45.1	-59.6	3.8	1.49e+00	0	62	104	1143996416	61	19542
2026-01-19 22:34:17.44	158.28	2.73	-45.1	-59.6	3.8	1.49e+00	0	62	104	1143996416	61	19575
2026-01-19 22:34:21.48	158.54	2.49	-45.1	-59.6	3.8	1.49e+00	0	62	104	1143996416	61	19502
2026-01-19 22:34:25.52	158.80	2.26	-45.1	-59.6	3.8	1.49e+00	0	62	104	1143996416	61	19577
2026-01-19 22:34:29.56	159.06	2.03	-45.1	-59.6	3.8	1.49e+00	0	62	104	1143996416	61	19584

#Closed at: 2026-01-19 22:34:31
#Recorded file [1143 MB]: D:/lorett/data/31039_260120_012113.dat