passes_logs/2026/01/19/R2.0S_Moscow/R2.0S_Moscow__20260119_111422_AQUA_rec.log

#Pass ID: 20260119_111422_AQUA
#Satellite: AQUA
#Configuration: AQUA
#almurnet v.1.7.20251203
#Start time: 2026-01-19 11:15:13

#Version: 2.2.20231116
#Station: R2.0S_Moscow
#Location: 37.707566 lon 55.798166 lat
#TLE: 1 27424U 02022A   26017.96925465  .00000866  00000+0  18326-3 0  9999
#TLE: 2 27424  98.4087 344.4465 0002004  74.6027 356.0068 14.61826972261327

#Time	Az	El	Level	Level2	SNR	BER	BlckErr	Temp	State	Recorded	gain1	gain2
2026-01-19 11:15:13.86	146.54	5.61	-43.6	-57.4	3.8	1.49e+00	0	62	0	0	60	16077
2026-01-19 11:15:16.88	146.45	5.84	-46.7	-65.2	3.8	7.41e-01	0	62	104	0	63	33293
2026-01-19 11:15:19.91	146.36	6.08	-46.3	-64.9	3.8	7.46e-01	0	62	104	0	64	30216
2026-01-19 11:15:22.95	146.27	6.32	-45.4	-63.8	3.8	7.46e-01	0	62	104	0	61	31769
2026-01-19 11:15:25.98	146.18	6.55	-44.8	-61.3	3.9	7.47e-01	0	62	104	0	60	25070
2026-01-19 11:15:29.01	146.09	6.80	-44.9	-62.2	3.7	7.41e-01	0	62	104	0	60	28000
2026-01-19 11:15:32.04	145.99	7.04	-45.2	-63.0	3.8	7.48e-01	0	62	104	0	60	30472
2026-01-19 11:15:35.07	145.89	7.29	-45.3	-62.9	3.9	7.45e-01	0	62	104	0	59	31905
2026-01-19 11:15:38.10	145.79	7.54	-43.9	-62.6	3.9	7.49e-01	0	62	104	0	60	29182
2026-01-19 11:15:41.13	145.69	7.79	-45.0	-62.4	3.8	7.47e-01	0	62	104	0	60	28425
2026-01-19 11:15:44.16	145.58	8.04	-45.0	-59.7	4.3	7.46e-01	0	62	104	0	60	20957
2026-01-19 11:15:47.19	145.47	8.30	-44.5	-56.4	5.8	6.85e-01	51	62	104	0	60	14242
2026-01-19 11:15:50.22	145.37	8.56	-44.7	-55.5	6.3	6.73e-01	92	62	104	2621440	60	12959
2026-01-19 11:15:53.26	145.25	8.83	-44.9	-56.2	6.4	6.76e-01	90	62	0	6291456	60	13969
2026-01-19 11:15:56.29	145.14	9.09	-45.0	-59.4	4.0	7.38e-01	0	62	104	7864320	60	20300
2026-01-19 11:15:59.32	145.02	9.36	-44.4	-58.2	4.1	7.39e-01	0	62	104	7864320	60	17619
2026-01-19 11:16:02.35	144.90	9.63	-44.4	-51.8	11.0	6.15e-01	0	62	0	12058624	59	8956
2026-01-19 11:16:05.38	144.78	9.91	-43.0	-48.2	13.8	6.10e-01	1	62	0	17825792	56	6993
2026-01-19 11:16:08.42	144.66	10.19	-42.9	-47.5	15.7	6.06e-01	0	62	0	23592960	56	6430
2026-01-19 11:16:11.45	144.53	10.47	-43.2	-48.3	10.3	6.13e-01	39	62	0	29360128	56	7085
2026-01-19 11:16:14.48	144.40	10.76	-42.4	-46.5	15.5	6.07e-01	0	62	0	33554432	55	6105
2026-01-19 11:16:17.50	144.27	11.05	-40.9	-46.2	15.2	6.11e-01	1	62	0	39321600	54	6208
2026-01-19 11:16:20.53	144.13	11.34	-42.0	-46.0	16.7	6.07e-01	0	62	0	44564480	54	6070
2026-01-19 11:16:23.56	143.99	11.64	-41.8	-46.0	15.9	6.08e-01	3	62	0	50331648	54	6082
2026-01-19 11:16:26.60	143.85	11.94	-41.9	-45.8	14.7	6.13e-01	4	62	0	56098816	54	5950
2026-01-19 11:16:29.63	143.71	12.25	-41.9	-45.7	16.6	6.07e-01	0	62	0	61865984	54	5877
2026-01-19 11:16:32.66	143.56	12.56	-41.9	-45.4	17.2	6.06e-01	0	62	0	67633152	54	5684
2026-01-19 11:16:35.68	143.40	12.87	-42.0	-45.6	14.2	6.17e-01	11	62	0	73400320	54	5797
2026-01-19 11:16:38.71	143.25	13.19	-41.9	-45.3	17.3	6.04e-01	0	62	0	78643200	54	5639
2026-01-19 11:16:41.74	143.09	13.51	-39.8	-45.0	15.3	6.09e-01	1	62	0	84410368	52	6117
2026-01-19 11:16:44.77	142.92	13.84	-40.9	-45.4	15.0	6.06e-01	2	62	0	90177536	51	6725
2026-01-19 11:16:47.80	142.76	14.17	-42.0	-45.5	16.5	6.08e-01	2	62	0	95944704	54	5776
2026-01-19 11:16:50.83	142.58	14.51	-41.5	-45.5	17.2	6.07e-01	0	62	0	101711872	54	5748
2026-01-19 11:16:53.85	142.41	14.85	-41.3	-45.3	16.7	6.10e-01	0	62	0	107479040	54	5636
2026-01-19 11:16:56.88	142.22	15.19	-41.3	-45.2	14.5	6.06e-01	3	62	0	112721920	54	5578
2026-01-19 11:16:59.91	142.04	15.54	-41.6	-45.3	15.0	6.08e-01	4	62	0	118489088	54	5610
2026-01-19 11:17:02.94	141.85	15.90	-41.5	-45.1	14.1	6.12e-01	11	62	0	124256256	54	5468
2026-01-19 11:17:05.97	141.65	16.26	-36.1	-44.9	9.0	6.24e-01	69	62	0	130023424	45	9056
2026-01-19 11:17:09.00	141.45	16.63	-41.9	-45.1	17.7	6.06e-01	0	62	0	135790592	54	5491
2026-01-19 11:17:12.02	141.24	17.01	-40.2	-45.0	14.7	6.13e-01	9	62	0	141033472	54	5460
2026-01-19 11:17:15.05	141.03	17.39	-38.6	-44.8	14.9	6.07e-01	15	62	0	146800640	53	5640
2026-01-19 11:17:18.08	140.81	17.77	-41.6	-45.1	15.7	6.08e-01	5	62	0	152567808	54	5524
2026-01-19 11:17:21.11	140.58	18.17	-42.1	-45.5	17.0	6.08e-01	2	63	0	158334976	54	5742
2026-01-19 11:17:24.14	140.35	18.57	-42.1	-45.2	16.0	6.06e-01	4	62	0	164102144	53	5898
2026-01-19 11:17:27.17	140.11	18.97	-42.2	-45.5	17.6	6.09e-01	0	62	0	169869312	54	5775
2026-01-19 11:17:30.20	139.87	19.39	-42.2	-45.5	18.2	6.07e-01	0	62	0	175112192	54	5752
2026-01-19 11:17:33.23	139.61	19.81	-42.0	-45.2	18.4	6.05e-01	0	62	0	180879360	54	5553
2026-01-19 11:17:36.26	139.35	20.23	-41.9	-45.2	17.5	6.08e-01	0	62	0	186646528	54	5563
2026-01-19 11:17:39.28	139.08	20.67	-42.0	-45.5	17.1	6.07e-01	0	62	0	192413696	55	5431
2026-01-19 11:17:42.31	138.80	21.11	-42.4	-45.7	17.9	6.07e-01	0	62	0	198180864	55	5584
2026-01-19 11:17:45.34	138.52	21.56	-42.3	-45.7	18.0	6.07e-01	0	62	0	203423744	55	5542
2026-01-19 11:17:48.37	138.22	22.02	-42.3	-45.5	18.3	6.06e-01	0	62	0	209190912	55	5449
2026-01-19 11:17:51.40	137.92	22.49	-42.4	-45.7	18.2	6.02e-01	0	62	0	214958080	55	5541
2026-01-19 11:17:54.43	137.60	22.97	-42.4	-45.8	18.1	6.08e-01	0	62	0	220725248	55	5596
2026-01-19 11:17:57.45	137.28	23.45	-42.5	-45.9	17.9	6.07e-01	0	62	0	226492416	55	5713
2026-01-19 11:18:00.48	136.94	23.94	-42.5	-45.9	17.9	6.05e-01	0	62	0	232259584	55	5721
2026-01-19 11:18:03.51	136.59	24.45	-42.5	-45.8	18.0	6.07e-01	0	62	0	238026752	55	5649
2026-01-19 11:18:06.54	136.23	24.96	-42.4	-45.7	18.2	6.06e-01	0	62	0	243269632	55	5558
2026-01-19 11:18:09.57	135.86	25.48	-42.6	-46.0	17.8	6.04e-01	0	62	0	249036800	55	5772
2026-01-19 11:18:12.60	135.47	26.01	-42.5	-45.9	17.5	6.04e-01	0	62	0	254803968	55	5693
2026-01-19 11:18:15.63	135.07	26.55	-42.1	-45.2	18.7	6.08e-01	0	62	0	260571136	55	5246
2026-01-19 11:18:18.65	134.65	27.11	-42.2	-45.4	18.6	6.05e-01	0	62	0	266338304	55	5349
2026-01-19 11:18:21.68	134.22	27.67	-42.3	-45.4	18.1	6.09e-01	0	62	0	271581184	55	5392
2026-01-19 11:18:24.71	133.77	28.24	-42.1	-45.2	17.8	6.08e-01	0	62	0	277348352	55	5275
2026-01-19 11:18:27.74	133.31	28.83	-42.1	-45.1	18.8	6.08e-01	0	62	0	283115520	55	5209
2026-01-19 11:18:30.77	132.82	29.42	-42.0	-45.0	19.0	6.05e-01	0	62	0	288882688	55	5140
2026-01-19 11:18:33.80	132.32	30.03	-42.0	-45.0	19.1	6.07e-01	0	62	0	294649856	55	5113
2026-01-19 11:18:36.82	131.80	30.65	-42.0	-45.0	18.9	6.07e-01	0	62	0	300417024	55	5147
2026-01-19 11:18:39.85	131.25	31.28	-42.0	-45.1	19.0	6.05e-01	0	62	0	306184192	55	5168
2026-01-19 11:18:42.88	130.69	31.92	-41.9	-44.9	19.2	6.05e-01	0	62	0	311427072	55	5059
2026-01-19 11:18:45.91	130.09	32.58	-42.1	-45.0	19.1	6.05e-01	0	62	0	317194240	55	5153
2026-01-19 11:18:48.94	129.48	33.24	-42.3	-45.4	18.7	6.08e-01	0	62	0	322961408	55	5345
2026-01-19 11:18:51.97	128.83	33.92	-42.3	-45.4	18.7	6.03e-01	0	62	0	328728576	55	5380
2026-01-19 11:18:55.00	128.16	34.61	-42.5	-45.7	18.4	6.07e-01	0	62	0	334495744	55	5575
2026-01-19 11:18:58.03	127.46	35.31	-43.0	-46.5	17.7	6.05e-01	0	62	0	339738624	56	5759
2026-01-19 11:19:01.05	126.72	36.02	-42.8	-46.2	18.1	6.08e-01	0	62	0	345505792	56	5531
2026-01-19 11:19:04.08	125.95	36.75	-43.2	-47.0	17.3	6.07e-01	0	62	0	351272960	57	5727
2026-01-19 11:19:07.11	125.14	37.49	-43.2	-46.8	17.4	6.07e-01	0	62	0	357040128	57	5640
2026-01-19 11:19:10.14	124.30	38.23	-43.4	-47.2	17.0	6.07e-01	0	62	0	362807296	57	5856
2026-01-19 11:19:13.17	123.41	38.99	-43.4	-47.3	17.0	6.05e-01	0	62	0	368574464	57	5924
2026-01-19 11:19:16.20	122.48	39.76	-43.3	-47.0	17.2	6.07e-01	0	62	0	373817344	57	5781
2026-01-19 11:19:19.22	121.51	40.53	-43.1	-46.7	17.5	6.07e-01	0	62	0	379584512	57	5588
2026-01-19 11:19:22.25	120.48	41.31	-43.2	-46.9	17.4	6.07e-01	0	62	0	385351680	57	5677
2026-01-19 11:19:25.28	119.41	42.11	-43.1	-46.6	17.7	6.07e-01	0	62	0	391118848	57	5483
2026-01-19 11:19:28.31	118.27	42.90	-43.2	-46.9	17.4	6.07e-01	0	62	0	396886016	57	5664
2026-01-19 11:19:31.33	117.08	43.70	-42.9	-46.4	17.9	6.07e-01	0	62	0	402653184	57	5353
2026-01-19 11:19:34.36	115.83	44.51	-42.9	-46.3	18.0	6.05e-01	0	62	0	407896064	57	5305
2026-01-19 11:19:37.39	114.51	45.31	-43.1	-46.7	17.6	6.07e-01	0	62	0	413663232	57	5563
2026-01-19 11:19:40.42	113.11	46.12	-43.0	-46.4	17.9	6.06e-01	0	62	0	419430400	57	5374
2026-01-19 11:19:43.45	111.65	46.92	-43.0	-46.4	17.8	6.07e-01	0	62	0	425197568	57	5394
2026-01-19 11:19:46.48	110.10	47.72	-43.2	-46.8	17.5	6.05e-01	0	62	0	430964736	57	5641
2026-01-19 11:19:49.50	108.48	48.50	-43.4	-47.1	17.2	6.08e-01	0	62	0	436731904	57	5835
2026-01-19 11:19:52.53	106.77	49.28	-43.4	-47.1	17.2	6.08e-01	0	62	0	441974784	57	5806
2026-01-19 11:19:55.56	104.97	50.04	-42.9	-46.3	18.0	6.06e-01	0	62	0	447741952	57	5329
2026-01-19 11:19:58.59	103.07	50.79	-43.1	-46.6	17.7	6.03e-01	0	62	0	453509120	57	5501
2026-01-19 11:20:01.60	101.09	51.50	-43.2	-46.7	17.7	6.07e-01	0	62	0	459276288	57	5543
2026-01-19 11:20:04.63	99.01	52.20	-43.1	-46.6	17.8	6.08e-01	0	62	0	465043456	57	5470
2026-01-19 11:20:07.66	96.82	52.86	-43.1	-46.6	17.8	6.06e-01	0	62	0	470810624	57	5495
2026-01-19 11:20:10.69	94.53	53.49	-42.9	-46.2	18.3	6.06e-01	0	62	0	476053504	57	5232
2026-01-19 11:20:13.72	92.15	54.08	-42.8	-45.9	18.5	6.05e-01	0	62	0	481820672	57	5094
2026-01-19 11:20:16.75	89.67	54.62	-42.8	-46.0	18.4	6.08e-01	0	62	0	487587840	57	5121
2026-01-19 11:20:19.78	87.10	55.11	-42.9	-46.1	18.3	6.08e-01	0	62	0	493355008	57	5198
2026-01-19 11:20:22.80	84.44	55.55	-43.1	-46.4	18.0	6.07e-01	0	62	0	499122176	57	5401
2026-01-19 11:20:25.83	81.71	55.92	-43.2	-46.7	17.8	6.05e-01	0	62	0	504365056	57	5549
2026-01-19 11:20:28.86	78.90	56.24	-43.0	-46.3	18.2	6.04e-01	0	62	0	510132224	57	5286
2026-01-19 11:20:31.89	76.03	56.49	-43.0	-46.4	18.1	6.05e-01	0	62	0	515899392	57	5345
2026-01-19 11:20:34.92	73.12	56.67	-43.3	-46.8	17.7	6.06e-01	0	62	0	521666560	57	5632
2026-01-19 11:20:37.95	70.18	56.78	-43.3	-46.8	17.6	6.06e-01	0	62	0	527433728	57	5633
2026-01-19 11:20:40.98	67.23	56.81	-43.2	-46.7	17.8	6.07e-01	0	62	0	533200896	57	5529
2026-01-19 11:20:44.01	64.27	56.77	-43.3	-46.9	17.5	6.05e-01	0	62	0	538968064	57	5715
2026-01-19 11:20:47.04	61.33	56.66	-43.4	-47.1	17.3	6.07e-01	0	62	0	544210944	57	5826
2026-01-19 11:20:50.06	58.43	56.48	-43.4	-47.0	17.4	6.06e-01	0	62	0	549978112	57	5775
2026-01-19 11:20:53.09	55.57	56.23	-43.2	-46.6	17.8	6.08e-01	0	62	0	555745280	57	5526
2026-01-19 11:20:56.12	52.77	55.92	-43.0	-46.4	18.0	6.07e-01	0	62	0	561512448	57	5391
2026-01-19 11:20:59.15	50.04	55.54	-42.6	-45.6	18.8	6.07e-01	0	62	0	567279616	56	5211
2026-01-19 11:21:02.18	47.38	55.10	-42.6	-45.7	18.7	6.07e-01	0	62	0	572522496	56	5265
2026-01-19 11:21:05.21	44.82	54.61	-43.0	-46.3	18.0	6.06e-01	0	62	0	578289664	56	5655
2026-01-19 11:21:08.24	42.34	54.06	-42.7	-45.9	18.5	6.08e-01	0	62	0	584056832	56	5362
2026-01-19 11:21:11.27	39.96	53.48	-42.6	-45.7	18.7	6.07e-01	0	62	0	589824000	56	5269
2026-01-19 11:21:14.30	37.68	52.85	-42.1	-44.9	19.5	6.06e-01	0	62	0	595591168	56	4800
2026-01-19 11:21:17.33	35.50	52.19	-42.1	-45.0	19.4	6.08e-01	0	62	0	601358336	56	4817
2026-01-19 11:21:20.35	33.43	51.50	-42.5	-45.5	18.9	6.09e-01	0	62	0	607125504	56	5141
2026-01-19 11:21:23.38	31.45	50.78	-42.6	-45.7	18.7	6.07e-01	0	62	0	612368384	56	5224
2026-01-19 11:21:26.41	29.56	50.04	-42.2	-45.0	19.3	6.04e-01	0	62	0	618135552	56	4870
2026-01-19 11:21:29.44	27.77	49.28	-42.3	-45.3	19.1	6.08e-01	0	62	0	623902720	56	5002
2026-01-19 11:21:32.46	26.07	48.50	-42.6	-45.8	18.5	6.06e-01	0	62	0	629669888	56	5320
2026-01-19 11:21:35.50	24.44	47.71	-42.3	-45.2	19.0	6.05e-01	0	62	0	635437056	56	4966
2026-01-19 11:21:38.53	22.90	46.92	-42.4	-45.5	18.9	6.07e-01	0	62	0	640679936	56	5132
2026-01-19 11:21:41.55	21.45	46.12	-42.2	-45.2	18.9	6.07e-01	0	62	0	646447104	55	5273
2026-01-19 11:21:44.58	20.06	45.32	-42.1	-45.3	18.1	6.06e-01	0	62	0	652214272	55	5323
2026-01-19 11:21:47.61	18.74	44.52	-42.3	-45.5	18.7	6.07e-01	0	62	0	657981440	55	5413
2026-01-19 11:21:50.63	17.50	43.72	-42.5	-45.7	18.4	6.06e-01	0	62	0	663748608	55	5546
2026-01-19 11:21:53.66	16.31	42.92	-43.0	-46.6	17.6	6.05e-01	0	62	0	669515776	56	5836
2026-01-19 11:21:56.69	15.18	42.13	-43.0	-46.5	17.5	6.07e-01	0	62	0	674758656	56	5754
2026-01-19 11:21:59.71	14.11	41.34	-42.9	-46.4	17.9	6.07e-01	0	62	0	680525824	56	5660
2026-01-19 11:22:02.74	13.09	40.56	-43.3	-47.1	17.0	6.08e-01	0	62	0	686292992	57	5826
2026-01-19 11:22:05.77	12.12	39.79	-43.6	-47.7	16.5	6.07e-01	0	62	0	692060160	57	6217
2026-01-19 11:22:08.80	11.19	39.03	-43.8	-48.0	16.1	6.08e-01	0	62	0	697827328	58	6129
2026-01-19 11:22:11.82	10.31	38.28	-43.5	-47.4	16.8	6.06e-01	0	62	0	703594496	58	5676
2026-01-19 11:22:14.85	9.47	37.53	-43.7	-47.9	16.3	6.07e-01	0	62	0	708837376	58	5994
2026-01-19 11:22:17.88	8.67	36.80	-43.3	-47.1	17.1	6.07e-01	0	62	0	714604544	58	5498
2026-01-19 11:22:20.91	7.90	36.08	-43.4	-47.6	16.2	6.06e-01	0	62	0	720371712	57	6200
2026-01-19 11:22:23.94	7.17	35.37	-43.1	-46.8	17.4	6.07e-01	0	62	0	726138880	57	5619
2026-01-19 11:22:26.96	6.47	34.67	-43.1	-46.8	17.4	6.04e-01	0	62	0	731906048	57	5617
2026-01-19 11:22:29.99	5.80	33.98	-42.9	-46.5	17.6	6.08e-01	0	62	0	737148928	57	5461
2026-01-19 11:22:33.02	5.16	33.31	-42.4	-45.6	18.4	6.08e-01	0	62	0	742916096	56	5207
2026-01-19 11:22:36.05	4.54	32.65	-42.4	-45.6	18.5	6.03e-01	0	62	0	748683264	56	5170
2026-01-19 11:22:39.08	3.95	32.00	-42.3	-45.5	18.6	6.07e-01	0	62	0	754450432	56	5120
2026-01-19 11:22:42.11	3.39	31.36	-42.0	-45.0	19.1	6.07e-01	0	62	0	760217600	56	4831
2026-01-19 11:22:45.13	2.85	30.73	-42.2	-45.4	18.7	6.07e-01	0	62	0	765984768	56	5049
2026-01-19 11:22:48.16	2.32	30.11	-42.2	-45.3	18.8	6.06e-01	0	62	0	771751936	56	4994
2026-01-19 11:22:51.19	1.82	29.51	-42.2	-45.3	18.7	6.06e-01	0	62	0	776994816	56	4986
2026-01-19 11:22:54.22	1.34	28.92	-42.1	-45.1	18.9	6.04e-01	0	62	0	782761984	56	4923
2026-01-19 11:22:57.25	0.88	28.33	-42.1	-45.2	18.4	6.06e-01	0	62	0	788529152	55	5248
2026-01-19 11:23:00.28	0.43	27.76	-42.1	-45.2	18.7	6.07e-01	0	62	0	794296320	55	5241
2026-01-19 11:23:03.30	0.01	27.20	-42.3	-45.5	18.3	6.07e-01	0	62	0	800063488	55	5463
2026-01-19 11:23:06.33	359.59	26.65	-42.3	-45.7	18.1	6.06e-01	0	62	0	805306368	55	5551
2026-01-19 11:23:09.36	359.19	26.11	-42.3	-45.7	18.1	6.05e-01	0	62	0	811073536	55	5536
2026-01-19 11:23:12.38	358.81	25.58	-42.4	-45.9	17.9	6.05e-01	0	62	0	816840704	55	5664
2026-01-19 11:23:15.41	358.44	25.06	-42.2	-45.6	18.1	6.07e-01	0	62	0	822607872	55	5510
2026-01-19 11:23:18.44	358.08	24.55	-42.3	-45.7	18.0	6.06e-01	0	62	0	828375040	55	5568
2026-01-19 11:23:21.47	357.73	24.05	-42.3	-45.9	17.6	6.06e-01	0	62	0	834142208	55	5711
2026-01-19 11:23:24.50	357.40	23.56	-42.3	-46.0	17.5	6.08e-01	0	62	0	839385088	55	5756
2026-01-19 11:23:27.52	357.08	23.08	-42.3	-45.9	17.6	6.06e-01	0	62	0	845152256	55	5718
2026-01-19 11:23:30.55	356.76	22.61	-42.1	-45.7	17.7	6.05e-01	0	62	0	850919424	55	5592
2026-01-19 11:23:33.58	356.46	22.14	-42.1	-45.9	17.5	6.07e-01	0	62	0	856686592	55	5665
2026-01-19 11:23:36.61	356.17	21.68	-42.0	-46.0	17.0	6.09e-01	0	62	0	862453760	55	5750
2026-01-19 11:23:39.64	355.88	21.23	-41.7	-45.8	16.8	6.05e-01	0	62	0	868220928	55	5617
2026-01-19 11:23:42.67	355.61	20.79	-41.8	-46.2	16.2	6.08e-01	0	62	0	873463808	55	5885
2026-01-19 11:23:45.70	355.34	20.36	-42.7	-49.6	12.3	6.13e-01	0	62	0	879230976	55	8687
2026-01-19 11:23:48.73	355.08	19.93	-43.0	-54.5	6.7	6.69e-01	92	62	0	884998144	56	14532
2026-01-19 11:23:51.76	354.83	19.51	-42.7	-58.7	4.2	7.35e-01	0	62	104	886571008	56	23316
2026-01-19 11:23:54.78	354.59	19.10	-42.6	-60.0	3.9	7.44e-01	0	62	104	886571008	56	27329
2026-01-19 11:23:57.81	354.35	18.70	-42.4	-61.1	3.8	7.45e-01	0	62	104	886571008	56	30852
2026-01-19 11:24:00.84	354.12	18.30	-41.4	-60.9	3.7	7.46e-01	0	62	104	886571008	54	33771
2026-01-19 11:24:03.87	353.90	17.91	-41.8	-60.9	3.8	7.43e-01	0	62	104	886571008	54	33907
2026-01-19 11:24:06.90	353.68	17.52	-41.4	-61.0	3.8	7.48e-01	0	62	104	886571008	54	34244
2026-01-19 11:24:09.93	353.47	17.14	-41.4	-61.0	3.8	7.45e-01	0	62	104	886571008	54	34421
2026-01-19 11:24:12.96	353.26	16.77	-41.7	-60.9	3.8	7.43e-01	0	62	104	886571008	53	35953
2026-01-19 11:24:15.98	353.06	16.41	-41.0	-61.0	3.8	7.46e-01	0	62	104	886571008	53	36381
2026-01-19 11:24:19.01	352.87	16.04	-40.8	-60.8	3.8	7.46e-01	0	62	104	886571008	52	37606
2026-01-19 11:24:22.03	352.68	15.69	-41.5	-61.0	3.8	7.42e-01	0	62	104	886571008	53	36352
2026-01-19 11:24:25.07	352.50	15.34	-40.5	-60.9	3.8	7.45e-01	0	62	104	886571008	52	37888
2026-01-19 11:24:28.09	352.32	14.99	-41.5	-60.9	3.8	7.47e-01	0	62	104	886571008	54	34060
2026-01-19 11:24:31.12	352.14	14.65	-41.8	-60.9	3.8	7.47e-01	0	62	104	886571008	54	33826
2026-01-19 11:24:34.15	351.97	14.32	-40.7	-61.0	3.8	7.39e-01	0	62	104	886571008	53	36143
2026-01-19 11:24:37.18	351.81	13.99	-41.5	-60.9	3.8	7.46e-01	0	62	104	886571008	54	34029
2026-01-19 11:24:40.20	351.65	13.66	-41.5	-60.9	3.8	7.44e-01	0	62	104	886571008	54	33831
2026-01-19 11:24:43.23	351.49	13.34	-41.7	-60.8	3.8	7.47e-01	0	62	104	886571008	54	33686
2026-01-19 11:24:46.26	351.34	13.02	-42.0	-61.1	3.8	7.45e-01	0	62	104	886571008	54	34756
2026-01-19 11:24:49.28	351.19	12.71	-41.6	-60.9	3.8	7.44e-01	0	62	104	886571008	54	33785
2026-01-19 11:24:52.32	351.04	12.40	-41.8	-60.9	3.8	7.42e-01	0	62	104	886571008	54	34052
2026-01-19 11:24:55.35	350.90	12.10	-41.1	-60.8	3.8	7.47e-01	0	62	104	886571008	54	33522
2026-01-19 11:24:58.38	350.76	11.80	-41.8	-60.9	3.8	7.46e-01	0	62	104	886571008	54	33875
2026-01-19 11:25:01.40	350.62	11.50	-41.7	-60.9	3.8	7.43e-01	0	62	104	886571008	54	33723
2026-01-19 11:25:04.43	350.49	11.21	-41.6	-60.8	3.8	7.46e-01	0	62	104	886571008	54	33676
2026-01-19 11:25:07.46	350.36	10.92	-41.6	-60.8	3.8	7.47e-01	0	63	104	886571008	54	33336
2026-01-19 11:25:10.49	350.23	10.63	-41.6	-60.8	3.8	7.47e-01	0	62	104	886571008	54	33530
2026-01-19 11:25:13.52	350.11	10.35	-41.6	-60.9	3.8	7.46e-01	0	62	104	886571008	54	33779
2026-01-19 11:25:16.55	349.98	10.07	-41.7	-60.8	3.8	7.50e-01	0	62	104	886571008	54	33321
2026-01-19 11:25:19.57	349.87	9.80	-41.6	-60.8	3.8	7.44e-01	0	62	104	886571008	54	33606
2026-01-19 11:25:22.60	349.75	9.53	-41.8	-60.9	3.8	7.42e-01	0	62	104	886571008	54	33797
2026-01-19 11:25:25.63	349.64	9.26	-41.6	-60.8	3.8	7.44e-01	0	62	104	886571008	54	33452
2026-01-19 11:25:28.66	349.53	8.99	-41.7	-60.8	3.8	7.45e-01	0	62	104	886571008	54	33622
2026-01-19 11:25:31.69	349.42	8.73	-41.7	-60.8	3.8	7.45e-01	0	62	104	886571008	54	33640
2026-01-19 11:25:34.72	349.31	8.47	-41.5	-60.7	3.8	7.45e-01	0	62	104	886571008	54	33128
2026-01-19 11:25:37.74	349.21	8.21	-41.9	-61.1	3.8	7.44e-01	0	62	104	886571008	54	34528
2026-01-19 11:25:40.78	349.10	7.96	-41.9	-61.0	3.8	7.48e-01	0	62	104	886571008	54	34429
2026-01-19 11:25:43.81	349.00	7.71	-45.2	-63.9	3.8	7.45e-01	0	62	104	886571008	60	33702
2026-01-19 11:25:46.83	348.91	7.46	-46.2	-64.8	3.8	7.47e-01	0	62	104	886571008	62	33637
2026-01-19 11:25:49.86	348.81	7.21	-46.3	-64.9	3.8	7.43e-01	0	62	104	886571008	63	32036
2026-01-19 11:25:52.89	348.72	6.97	-44.5	-64.2	3.6	7.44e-01	0	62	104	886571008	63	29445
2026-01-19 11:25:55.92	348.63	6.73	-46.3	-64.9	3.8	7.44e-01	0	62	104	886571008	63	32025
2026-01-19 11:25:58.96	348.54	6.49	-46.3	-64.9	3.8	7.45e-01	0	63	104	886571008	63	31971
2026-01-19 11:26:01.99	348.45	6.25	-46.2	-64.8	3.8	7.43e-01	0	62	104	886571008	63	31591
2026-01-19 11:26:05.02	348.36	6.02	-46.2	-64.8	3.8	7.47e-01	0	62	104	886571008	63	31709
2026-01-19 11:26:08.05	348.28	5.79	-45.7	-64.6	3.8	7.45e-01	0	62	104	886571008	62	32882
2026-01-19 11:26:11.08	348.19	5.56	-46.2	-64.8	3.8	7.45e-01	0	62	104	886571008	63	31658
2026-01-19 11:26:14.11	348.11	5.33	-46.2	-64.8	3.8	7.46e-01	0	62	104	886571008	63	31770
2026-01-19 11:26:17.14	348.03	5.10	-46.2	-64.8	3.8	7.47e-01	0	62	104	886571008	63	31700
2026-01-19 11:26:20.17	347.95	4.88	-46.2	-64.8	3.8	7.48e-01	0	63	104	886571008	63	31806
2026-01-19 11:26:23.20	347.88	4.66	-46.2	-64.8	3.8	7.44e-01	0	62	104	886571008	63	31710
2026-01-19 11:26:26.24	347.80	4.44	-46.2	-64.8	3.8	7.48e-01	0	62	104	886571008	63	31678
2026-01-19 11:26:29.27	347.73	4.22	-46.2	-64.8	3.8	7.42e-01	0	62	104	886571008	63	31595
2026-01-19 11:26:32.30	347.65	4.01	-46.2	-64.8	3.8	7.44e-01	0	63	104	886571008	62	33498
2026-01-19 11:26:35.33	347.58	3.79	-46.1	-64.6	3.8	7.45e-01	0	62	104	886571008	62	32622
2026-01-19 11:26:38.36	347.51	3.58	-46.2	-64.8	3.8	7.43e-01	0	62	104	886571008	63	31616
2026-01-19 11:26:41.39	347.44	3.37	-46.2	-64.8	3.8	7.47e-01	0	62	104	886571008	63	31496
2026-01-19 11:26:44.42	347.38	3.16	-45.2	-64.3	3.8	7.45e-01	0	62	104	886571008	61	33469
2026-01-19 11:26:47.45	347.31	2.96	-46.2	-64.8	3.8	7.46e-01	0	63	104	886571008	62	33465
2026-01-19 11:26:50.48	347.25	2.75	-46.2	-64.8	3.8	7.48e-01	0	62	104	886571008	62	33531
2026-01-19 11:26:53.51	347.18	2.55	-46.2	-64.8	3.8	7.46e-01	0	63	104	886571008	62	33489
2026-01-19 11:26:56.54	347.12	2.35	-46.2	-64.8	3.8	7.47e-01	0	62	104	886571008	62	33349
2026-01-19 11:26:59.57	347.06	2.15	-46.2	-64.8	3.8	7.45e-01	0	62	104	886571008	62	33481

#Closed at: 2026-01-19 11:27:01
#Recorded file [886 MB]: D:/lorett/data/31039_260119_141513.dat