passes_logs/2026/01/19/R2.0S_Moscow/R2.0S_Moscow__20260119_211450_FENGYUN_3G_rec.log

#Pass ID: 20260119_211450_FENGYUN 3G
#Satellite: FENGYUN 3G
#Configuration: FENGYUN 3G
#almurnet v.1.7.20251203
#Start time: 2026-01-19 21:14:51

#Version: 2.2.20231116
#Station: R2.0S_Moscow
#Location: 37.707566 lon 55.798166 lat
#TLE: 1 56232U 23055A   26019.29402138  .00031930  00000+0  49376-3 0  9997
#TLE: 2 56232  49.9940  33.7754 0004164  48.8313 311.3013 15.53733440156869

#Time	Az	El	Level	Level2	SNR	BER	BlckErr	Temp	State	Recorded	gain1	gain2
2026-01-19 21:14:51.90	248.07	2.14	-44.2	-62.2	3.8	8.46e-01	0	53	0	0	60	28025
2026-01-19 21:14:54.93	247.88	2.35	-44.2	-62.2	3.8	8.46e-01	0	53	104	0	60	28003
2026-01-19 21:14:57.96	247.69	2.55	-44.2	-62.2	3.8	8.46e-01	0	53	104	0	60	27956
2026-01-19 21:15:00.99	247.49	2.75	-44.2	-62.2	3.8	8.46e-01	0	53	104	0	60	27779
2026-01-19 21:15:04.02	247.29	2.96	-44.2	-62.2	3.8	8.46e-01	0	53	104	0	60	27776
2026-01-19 21:15:07.06	247.08	3.17	-44.1	-62.2	3.8	8.46e-01	0	54	104	0	60	27950
2026-01-19 21:15:10.09	246.87	3.38	-44.2	-62.2	3.8	8.46e-01	0	54	104	0	60	27829
2026-01-19 21:15:13.12	246.65	3.59	-44.1	-62.2	3.8	8.47e-01	0	54	104	0	60	27821
2026-01-19 21:15:16.15	246.43	3.81	-44.2	-62.3	3.8	8.47e-01	0	54	104	0	60	28057
2026-01-19 21:15:19.18	246.21	4.02	-44.2	-62.2	3.8	8.47e-01	0	54	104	0	60	27757
2026-01-19 21:15:22.21	245.98	4.24	-44.1	-61.7	3.8	8.47e-01	0	54	104	0	60	26359
2026-01-19 21:15:25.24	245.74	4.47	-44.1	-61.2	3.8	8.45e-01	0	55	104	0	60	24903
2026-01-19 21:15:28.28	245.50	4.69	-44.1	-61.3	3.8	8.46e-01	0	55	104	0	60	25043
2026-01-19 21:15:31.31	245.25	4.92	-44.1	-61.8	3.8	8.47e-01	0	55	104	0	60	26668
2026-01-19 21:15:34.34	245.00	5.15	-44.1	-61.3	3.8	8.47e-01	0	55	104	0	60	25212
2026-01-19 21:15:37.37	244.74	5.38	-44.1	-59.7	3.8	8.45e-01	0	55	104	0	60	21006
2026-01-19 21:15:40.40	244.48	5.62	-44.0	-58.6	4.2	8.37e-01	0	55	0	0	60	18327
2026-01-19 21:15:43.43	244.21	5.85	-44.0	-58.1	4.4	8.30e-01	0	56	0	0	60	17334
2026-01-19 21:15:46.47	243.93	6.10	-44.0	-57.8	4.5	8.25e-01	0	56	0	0	60	16783
2026-01-19 21:15:49.50	243.65	6.34	-43.9	-55.6	5.7	7.77e-01	0	56	0	0	59	13732
2026-01-19 21:15:52.53	243.36	6.59	-43.5	-52.3	8.6	1.69e-01	0	56	0	3145728	59	9440
2026-01-19 21:15:55.56	243.06	6.84	-43.2	-50.5	10.5	1.52e-02	0	56	0	6815744	58	8152
2026-01-19 21:15:58.59	242.75	7.09	-43.5	-52.3	8.7	7.08e-03	0	56	0	9961472	58	10024
2026-01-19 21:16:01.63	242.44	7.35	-44.2	-59.7	4.0	3.10e-01	0	56	0	12058624	58	23350
2026-01-19 21:16:04.66	242.12	7.61	-43.3	-51.0	10.0	7.31e-01	0	56	0	13631488	58	8566
2026-01-19 21:16:07.69	241.79	7.87	-41.6	-46.2	14.8	1.12e-03	0	57	0	16777216	55	5919
2026-01-19 21:16:10.72	241.45	8.14	-42.7	-49.0	12.8	0.00e+00	0	57	0	20447232	55	8133
2026-01-19 21:16:13.75	241.11	8.41	-42.8	-49.1	12.4	2.29e-01	0	57	0	23592960	57	7306
2026-01-19 21:16:16.78	240.75	8.68	-41.0	-44.9	16.2	1.84e-02	0	57	0	26738688	54	5398
2026-01-19 21:16:19.80	240.39	8.96	-40.8	-44.4	16.7	0.00e+00	0	57	0	30408704	53	5398
2026-01-19 21:16:22.83	240.01	9.24	-40.7	-44.2	17.0	0.00e+00	0	57	0	33554432	53	5237
2026-01-19 21:16:25.86	239.63	9.52	-40.5	-43.9	17.3	0.00e+00	0	57	0	37224448	53	5059
2026-01-19 21:16:28.89	239.23	9.81	-40.6	-44.1	17.2	0.00e+00	0	57	0	40370176	53	5179
2026-01-19 21:16:31.92	238.83	10.11	-40.6	-44.0	17.3	0.00e+00	0	58	0	44040192	53	5112
2026-01-19 21:16:34.95	238.41	10.40	-40.3	-43.6	17.7	0.00e+00	0	58	0	47185920	52	5163
2026-01-19 21:16:37.97	237.98	10.70	-40.3	-43.5	17.8	0.00e+00	0	58	0	50855936	52	5123
2026-01-19 21:16:41.00	237.54	11.01	-40.4	-43.6	17.8	0.00e+00	0	58	0	54001664	52	5196
2026-01-19 21:16:44.03	237.09	11.32	-40.4	-43.6	17.7	0.00e+00	0	58	0	57671680	52	5208
2026-01-19 21:16:47.06	236.62	11.64	-40.2	-43.2	18.1	0.00e+00	0	58	0	60817408	52	4959
2026-01-19 21:16:50.09	236.14	11.96	-39.9	-42.8	18.7	0.00e+00	0	58	0	64487424	51	5034
2026-01-19 21:16:53.12	235.64	12.28	-40.0	-42.9	18.6	0.00e+00	0	58	0	67633152	51	5050
2026-01-19 21:16:56.15	235.13	12.61	-39.9	-42.8	18.7	0.00e+00	0	58	0	71303168	51	5030
2026-01-19 21:16:59.17	234.61	12.94	-40.1	-43.0	18.6	0.00e+00	0	58	0	74448896	51	5120
2026-01-19 21:17:02.20	234.07	13.28	-40.1	-43.0	18.6	0.00e+00	0	58	0	78118912	51	5150
2026-01-19 21:17:05.23	233.51	13.63	-39.7	-42.4	19.2	0.00e+00	0	58	0	81264640	51	4783
2026-01-19 21:17:08.25	232.94	13.98	-39.8	-42.5	19.1	0.00e+00	0	58	0	84934656	51	4830
2026-01-19 21:17:11.28	232.34	14.33	-39.8	-42.5	19.1	0.00e+00	0	58	0	88080384	51	4868
2026-01-19 21:17:14.31	231.73	14.69	-39.7	-42.4	19.2	0.00e+00	0	59	0	91750400	51	4793
2026-01-19 21:17:17.34	231.10	15.05	-39.5	-42.1	19.6	0.00e+00	0	59	0	94896128	50	4871
2026-01-19 21:17:20.37	230.45	15.42	-39.3	-41.7	20.0	0.00e+00	0	59	0	98566144	50	4696
2026-01-19 21:17:23.40	229.77	15.80	-39.3	-41.8	19.9	0.00e+00	0	59	0	101711872	50	4747
2026-01-19 21:17:26.42	229.08	16.17	-39.2	-41.7	20.0	0.00e+00	0	59	0	105381888	50	4672
2026-01-19 21:17:29.45	228.36	16.56	-38.8	-41.1	20.7	0.00e+00	0	59	0	108527616	49	4619
2026-01-19 21:17:32.48	227.62	16.95	-38.9	-41.3	20.4	0.00e+00	0	59	0	112197632	49	4737
2026-01-19 21:17:35.51	226.86	17.34	-39.0	-41.4	20.4	0.00e+00	0	59	0	115343360	49	4781
2026-01-19 21:17:38.54	226.07	17.74	-39.0	-41.4	20.3	0.00e+00	0	59	0	119013376	49	4805
2026-01-19 21:17:41.56	225.25	18.14	-38.8	-41.1	20.6	0.00e+00	0	59	0	122159104	49	4604
2026-01-19 21:17:44.59	224.41	18.55	-38.7	-41.0	20.8	0.00e+00	0	59	0	125829120	49	4569
2026-01-19 21:17:47.62	223.53	18.96	-38.6	-40.8	21.0	0.00e+00	0	59	0	128974848	49	4472
2026-01-19 21:17:50.65	222.63	19.37	-38.5	-40.8	21.1	0.00e+00	0	59	0	132644864	49	4446
2026-01-19 21:17:53.68	221.70	19.79	-38.5	-40.7	21.1	0.00e+00	0	59	0	135790592	49	4430
2026-01-19 21:17:56.70	220.74	20.21	-38.0	-40.1	21.8	0.00e+00	0	59	0	139460608	48	4354
2026-01-19 21:17:59.73	219.74	20.63	-38.3	-40.4	21.5	0.00e+00	0	59	0	142606336	48	4522
2026-01-19 21:18:02.76	218.71	21.05	-38.3	-40.4	21.5	0.00e+00	0	59	0	146276352	48	4513
2026-01-19 21:18:05.79	217.64	21.48	-37.9	-39.9	22.0	0.00e+00	0	59	0	149422080	47	4501
2026-01-19 21:18:08.82	216.54	21.90	-37.7	-39.7	22.2	0.00e+00	0	59	0	153092096	47	4425
2026-01-19 21:18:11.84	215.41	22.33	-38.0	-40.1	21.9	0.00e+00	0	59	0	156237824	47	4611
2026-01-19 21:18:14.87	214.23	22.75	-37.8	-39.8	22.0	0.00e+00	0	60	0	159907840	47	4476
2026-01-19 21:18:17.90	213.02	23.17	-37.4	-39.3	22.5	0.00e+00	0	59	0	163053568	46	4482
2026-01-19 21:18:20.93	211.77	23.59	-37.6	-39.5	22.3	0.00e+00	0	59	0	166723584	46	4595
2026-01-19 21:18:23.96	210.48	24.00	-37.5	-39.5	22.4	0.00e+00	0	60	0	169869312	46	4569
2026-01-19 21:18:26.99	209.14	24.41	-37.6	-39.6	22.3	0.00e+00	0	59	0	173539328	46	4612
2026-01-19 21:18:30.01	207.78	24.81	-37.6	-39.6	22.3	0.00e+00	0	60	0	176685056	46	4620
2026-01-19 21:18:33.04	206.36	25.21	-37.2	-39.1	22.9	0.00e+00	0	60	0	180355072	46	4364
2026-01-19 21:18:36.07	204.91	25.59	-37.5	-39.4	22.5	0.00e+00	0	60	0	183500800	46	4537
2026-01-19 21:18:39.09	203.42	25.96	-37.2	-39.1	22.8	0.00e+00	0	60	0	186646528	46	4344
2026-01-19 21:18:42.12	201.88	26.32	-37.2	-39.1	22.8	0.00e+00	0	60	0	190316544	46	4358
2026-01-19 21:18:45.15	200.31	26.67	-37.1	-38.9	23.0	0.00e+00	0	60	0	193986560	46	4262
2026-01-19 21:18:48.18	198.70	26.99	-36.8	-38.6	23.2	0.00e+00	0	60	0	197132288	45	4388
2026-01-19 21:18:51.21	197.05	27.30	-37.2	-39.0	22.9	0.00e+00	0	60	0	200802304	45	4580
2026-01-19 21:18:54.23	195.37	27.60	-36.8	-38.6	23.3	0.00e+00	0	60	0	203948032	45	4349
2026-01-19 21:18:57.26	193.65	27.87	-37.2	-39.0	22.9	0.00e+00	0	60	0	207618048	45	4591
2026-01-19 21:19:00.29	191.90	28.11	-36.5	-38.3	23.5	0.00e+00	0	60	0	210763776	45	4209
2026-01-19 21:19:03.32	190.12	28.34	-36.7	-38.5	23.3	0.00e+00	0	60	0	214433792	45	4340
2026-01-19 21:19:06.35	188.31	28.53	-37.0	-38.8	23.1	0.00e+00	0	60	0	217579520	45	4469
2026-01-19 21:19:09.38	186.48	28.70	-37.4	-39.3	22.5	0.00e+00	0	60	0	221249536	45	4730
2026-01-19 21:19:12.40	184.63	28.84	-37.4	-39.3	22.6	0.00e+00	0	60	0	224395264	45	4720
2026-01-19 21:19:15.43	182.77	28.95	-37.3	-39.2	22.7	0.00e+00	0	60	0	227540992	45	4655
2026-01-19 21:19:18.46	180.89	29.04	-36.9	-38.7	23.1	0.00e+00	0	60	0	231211008	45	4434
2026-01-19 21:19:21.49	179.00	29.09	-37.4	-39.4	22.6	0.00e+00	0	60	0	234356736	45	4760
2026-01-19 21:19:24.52	177.10	29.11	-37.1	-39.0	22.9	0.00e+00	0	60	0	238026752	45	4553
2026-01-19 21:19:27.55	175.21	29.09	-37.4	-39.3	22.7	0.00e+00	0	60	0	241696768	45	4712
2026-01-19 21:19:30.57	173.33	29.05	-37.3	-39.2	22.7	0.00e+00	0	60	0	244842496	45	4693
2026-01-19 21:19:33.60	171.45	28.98	-37.3	-39.2	22.7	0.00e+00	0	60	0	248512512	45	4670
2026-01-19 21:19:36.63	169.58	28.87	-37.3	-39.3	22.6	0.00e+00	0	60	0	251658240	45	4711
2026-01-19 21:19:39.65	167.73	28.74	-36.9	-38.8	23.2	0.00e+00	0	60	0	255328256	45	4452
2026-01-19 21:19:42.67	165.90	28.58	-37.2	-39.1	22.9	0.00e+00	0	60	0	258473984	45	4607
2026-01-19 21:19:45.70	164.09	28.39	-37.3	-39.2	22.7	0.00e+00	0	60	0	262144000	45	4703
2026-01-19 21:19:48.74	162.29	28.17	-37.0	-38.9	23.1	0.00e+00	0	60	0	265289728	45	4512
2026-01-19 21:19:51.76	160.54	27.93	-37.2	-39.0	22.9	0.00e+00	0	61	0	268435456	45	4583
2026-01-19 21:19:54.79	158.82	27.66	-36.8	-38.7	23.4	0.00e+00	0	60	0	272105472	45	4401
2026-01-19 21:19:57.82	157.12	27.38	-36.7	-38.5	23.5	0.00e+00	0	60	0	275251200	45	4321
2026-01-19 21:20:00.82	155.48	27.07	-37.6	-39.5	22.5	0.00e+00	0	60	0	278921216	45	4868
2026-01-19 21:20:03.85	153.86	26.75	-37.5	-39.5	22.6	0.00e+00	0	60	0	282066944	46	4556
2026-01-19 21:20:06.87	152.28	26.41	-37.1	-38.9	23.2	0.00e+00	0	60	0	285736960	46	4280
2026-01-19 21:20:09.90	150.74	26.06	-37.6	-39.5	22.7	0.00e+00	0	60	0	288882688	46	4583
2026-01-19 21:20:12.93	149.24	25.69	-38.0	-40.0	22.1	0.00e+00	0	60	0	292552704	46	4862
2026-01-19 21:20:15.96	147.77	25.31	-37.5	-39.4	22.7	0.00e+00	0	61	0	295698432	46	4545
2026-01-19 21:20:18.98	146.36	24.92	-37.7	-39.7	22.4	0.00e+00	0	60	0	299368448	46	4691
2026-01-19 21:20:22.01	144.97	24.52	-37.8	-39.8	22.3	0.00e+00	0	60	0	302514176	46	4739
2026-01-19 21:20:25.04	143.63	24.11	-37.6	-39.6	22.6	0.00e+00	0	60	0	306184192	46	4607
2026-01-19 21:20:28.07	142.33	23.70	-38.1	-40.2	22.0	0.00e+00	0	60	0	309329920	46	4954
2026-01-19 21:20:31.09	141.08	23.28	-37.7	-39.7	22.5	0.00e+00	0	60	0	312999936	46	4664
2026-01-19 21:20:34.12	139.86	22.86	-38.0	-40.1	22.1	0.00e+00	0	60	0	316145664	46	4882
2026-01-19 21:20:37.15	138.67	22.44	-38.0	-40.1	22.1	0.00e+00	0	61	0	319815680	46	4893
2026-01-19 21:20:40.18	137.53	22.02	-38.0	-40.1	22.0	0.00e+00	0	61	0	322961408	46	4904
2026-01-19 21:20:43.20	136.42	21.59	-38.0	-40.1	22.0	0.00e+00	0	61	0	326631424	46	4909
2026-01-19 21:20:46.23	135.35	21.17	-38.4	-40.6	21.5	0.00e+00	0	61	0	329777152	47	4886
2026-01-19 21:20:49.26	134.31	20.75	-38.1	-40.3	21.8	0.00e+00	0	61	0	333447168	47	4709
2026-01-19 21:20:52.29	133.31	20.32	-38.3	-40.5	21.6	0.00e+00	0	61	0	336592896	47	4840
2026-01-19 21:20:55.32	132.33	19.90	-38.2	-40.4	21.6	0.00e+00	0	61	0	340262912	47	4760
2026-01-19 21:20:58.34	131.40	19.49	-38.5	-40.8	21.3	0.00e+00	0	61	0	343408640	47	4992
2026-01-19 21:21:01.37	130.49	19.07	-38.5	-40.8	20.8	0.00e+00	0	61	0	347078656	47	5003
2026-01-19 21:21:04.40	129.61	18.66	-38.6	-41.0	21.0	0.00e+00	0	61	0	350224384	47	5108
2026-01-19 21:21:07.43	128.76	18.26	-38.8	-41.1	20.8	1.12e-04	0	61	0	353894400	48	4890
2026-01-19 21:21:10.46	127.93	17.85	-38.9	-41.3	20.6	2.51e-05	0	61	0	357040128	48	5012
2026-01-19 21:21:13.49	127.14	17.46	-38.8	-41.2	20.7	1.10e-06	0	61	0	360710144	48	4961
2026-01-19 21:21:16.52	126.37	17.06	-38.9	-41.4	20.5	0.00e+00	0	60	0	363855872	48	5045
2026-01-19 21:21:19.55	125.62	16.67	-39.1	-41.7	20.1	1.10e-06	0	60	0	367525888	48	5223
2026-01-19 21:21:22.58	124.90	16.29	-38.9	-41.5	20.2	1.10e-06	0	61	0	370671616	48	5144
2026-01-19 21:21:25.61	124.20	15.91	-39.1	-41.7	20.0	0.00e+00	0	61	0	374341632	48	5248
2026-01-19 21:21:28.64	123.52	15.53	-39.4	-42.1	19.6	0.00e+00	0	61	0	377487360	49	5170
2026-01-19 21:21:31.66	122.87	15.16	-39.4	-42.6	18.5	9.49e-05	0	61	0	381157376	49	5521
2026-01-19 21:21:34.69	122.23	14.80	-38.7	-42.6	18.4	3.20e-05	0	61	0	384303104	49	5516
2026-01-19 21:21:37.72	121.61	14.44	-36.2	-42.4	14.3	1.92e-04	0	61	0	387973120	41	8471
2026-01-19 21:21:40.75	121.02	14.08	-38.6	-42.9	17.1	1.14e-03	0	61	0	391118848	48	5999
2026-01-19 21:21:43.78	120.44	13.73	-38.2	-42.7	16.8	6.50e-03	0	61	0	394788864	48	5922
2026-01-19 21:21:46.81	119.88	13.39	-38.0	-42.5	16.5	6.49e-03	0	61	0	397934592	46	6480
2026-01-19 21:21:49.84	119.33	13.05	-36.9	-43.0	12.9	5.67e-03	0	61	0	401604608	42	8624
2026-01-19 21:21:52.86	118.80	12.72	-38.2	-43.4	15.3	1.04e-02	0	61	0	404750336	45	7584
2026-01-19 21:21:55.89	118.29	12.39	-34.0	-43.5	13.6	2.46e-02	0	61	0	408420352	44	8157
2026-01-19 21:21:58.92	117.79	12.06	-30.5	-42.6	8.5	2.82e-02	0	61	0	411566080	35	12312
2026-01-19 21:22:01.94	117.31	11.74	-36.6	-43.7	13.2	4.06e-02	0	61	0	415236096	42	9291
2026-01-19 21:22:04.97	116.84	11.42	-30.4	-43.5	12.6	4.81e-02	0	61	0	418381824	41	9622
2026-01-19 21:22:08.00	116.38	11.11	-34.6	-44.1	11.1	1.70e-01	0	61	0	421527552	40	10939
2026-01-19 21:22:11.02	115.94	10.81	-30.4	-42.8	8.9	1.29e-01	0	61	0	424673280	33	14158
2026-01-19 21:22:14.05	115.51	10.50	-27.2	-43.4	5.7	8.01e-01	0	61	104	425197568	23	26836
2026-01-19 21:22:17.08	115.09	10.21	-27.5	-46.3	4.5	8.35e-01	0	61	104	425197568	25	33639
2026-01-19 21:22:20.11	114.68	9.91	-24.1	-45.9	3.9	8.21e-01	0	61	104	425197568	18	47951
2026-01-19 21:22:23.14	114.28	9.62	-24.9	-44.4	4.2	8.36e-01	0	61	104	425197568	19	37822
2026-01-19 21:22:26.17	113.90	9.34	-31.9	-51.0	3.9	8.35e-01	0	61	104	425197568	31	40717
2026-01-19 21:22:29.19	113.52	9.05	-17.3	-39.7	4.2	8.19e-01	0	61	104	425197568	5	49705
2026-01-19 21:22:32.22	113.15	8.78	-26.2	-45.8	4.4	8.32e-01	0	61	0	425197568	19	44820
2026-01-19 21:22:35.25	112.80	8.50	-28.9	-48.1	5.6	6.69e-01	0	61	0	425197568	29	32868
2026-01-19 21:22:38.28	112.45	8.23	-26.4	-47.8	3.9	8.32e-01	0	61	104	425197568	21	50291
2026-01-19 21:22:41.31	112.11	7.96	-41.2	-62.1	4.0	8.16e-01	0	61	104	425197568	56	34612
2026-01-19 21:22:44.34	111.78	7.70	-45.1	-63.2	3.8	8.46e-01	0	61	104	425197568	60	31373
2026-01-19 21:22:47.37	111.46	7.44	-45.6	-63.7	3.8	8.46e-01	0	61	104	425197568	61	31356
2026-01-19 21:22:50.40	111.14	7.18	-45.8	-64.0	3.8	8.47e-01	0	61	104	425197568	62	30625
2026-01-19 21:22:53.43	110.84	6.93	-45.5	-63.7	3.8	8.46e-01	0	61	104	425197568	62	29614
2026-01-19 21:22:56.47	110.54	6.68	-45.4	-63.5	3.8	8.47e-01	0	61	104	425197568	62	28918
2026-01-19 21:22:59.50	110.24	6.43	-45.3	-63.5	3.7	8.46e-01	0	61	104	425197568	61	30578
2026-01-19 21:23:02.53	109.96	6.19	-45.3	-63.4	3.8	8.47e-01	0	61	104	425197568	61	30087
2026-01-19 21:23:05.57	109.68	5.94	-44.7	-63.4	3.8	8.45e-01	0	61	104	425197568	61	30169
2026-01-19 21:23:08.60	109.41	5.71	-45.3	-63.4	3.8	8.45e-01	0	61	104	425197568	61	30091
2026-01-19 21:23:11.63	109.14	5.47	-45.2	-63.4	3.8	8.46e-01	0	61	104	425197568	61	30066
2026-01-19 21:23:14.66	108.89	5.24	-45.2	-63.3	3.8	8.45e-01	0	61	104	425197568	61	29988
2026-01-19 21:23:17.69	108.63	5.01	-45.2	-63.3	3.8	8.45e-01	0	61	104	425197568	61	29908
2026-01-19 21:23:20.73	108.38	4.78	-45.2	-63.3	3.8	8.46e-01	0	61	104	425197568	61	29920
2026-01-19 21:23:23.76	108.14	4.55	-45.0	-63.3	3.8	8.48e-01	0	61	104	425197568	61	29885
2026-01-19 21:23:26.79	107.91	4.33	-45.1	-63.3	3.8	8.45e-01	0	61	104	425197568	61	29957
2026-01-19 21:23:29.82	107.67	4.11	-45.2	-63.3	3.8	8.44e-01	0	61	104	425197568	61	29857
2026-01-19 21:23:32.85	107.45	3.89	-44.8	-63.3	3.8	8.46e-01	0	61	104	425197568	60	31677
2026-01-19 21:23:35.88	107.23	3.68	-45.2	-63.3	3.8	8.46e-01	0	61	104	425197568	60	31648
2026-01-19 21:23:38.91	107.01	3.46	-45.2	-63.3	3.8	8.46e-01	0	61	104	425197568	60	31661
2026-01-19 21:23:41.95	106.80	3.25	-45.2	-63.3	3.8	8.47e-01	0	61	104	425197568	60	31632
2026-01-19 21:23:44.98	106.59	3.04	-45.2	-63.3	3.8	8.47e-01	0	61	104	425197568	60	31600
2026-01-19 21:23:48.01	106.39	2.84	-45.2	-63.3	3.8	8.46e-01	0	61	104	425197568	60	31638
2026-01-19 21:23:51.04	106.19	2.63	-45.2	-63.3	3.8	8.46e-01	0	61	104	425197568	60	31594
2026-01-19 21:23:54.07	105.99	2.43	-45.2	-63.3	3.8	8.46e-01	0	61	104	425197568	60	31619
2026-01-19 21:23:57.10	105.80	2.23	-45.2	-63.3	3.8	8.45e-01	0	61	104	425197568	60	31604
2026-01-19 21:24:00.13	105.61	2.03	-45.2	-63.3	3.8	8.47e-01	0	61	104	425197568	60	31620

#Closed at: 2026-01-19 21:24:02
#Recorded file [425 MB]: D:/lorett/data/31039_260120_001451.dat