passes_logs/2026/01/19/R2.0S_Moscow/R2.0S_Moscow__20260119_155444_FENGYUN_3E_rec.log

#Pass ID: 20260119_155444_FENGYUN 3E
#Satellite: FENGYUN 3E
#Configuration: FENGYUN 3E
#almurnet v.1.7.20251203
#Start time: 2026-01-19 15:54:43

#Version: 2.2.20231116
#Station: R2.0S_Moscow
#Location: 37.707566 lon 55.798166 lat
#TLE: 1 49008U 21062A   26018.95190407 -.00000301  00000+0 -12097-3 0  9991
#TLE: 2 49008  98.7482  24.0337 0002210 129.7386 230.3985 14.19884646235406

#Time	Az	El	Level	Level2	SNR	BER	BlckErr	Temp	State	Recorded	gain1	gain2
2026-01-19 15:54:43.79	212.94	1.98	-44.5	-55.6	3.8	8.47e-01	0	52	0	0	59	12978
2026-01-19 15:54:46.82	213.18	2.14	-44.5	-55.6	3.8	8.46e-01	0	53	104	0	59	13049
2026-01-19 15:54:49.85	213.42	2.30	-44.4	-55.6	3.8	8.47e-01	0	53	104	0	59	12970
2026-01-19 15:54:52.88	213.67	2.47	-44.5	-55.6	3.8	8.47e-01	0	53	104	0	59	13012
2026-01-19 15:54:55.91	213.91	2.63	-44.5	-55.6	3.8	8.46e-01	0	54	104	0	59	12997
2026-01-19 15:54:58.95	214.16	2.79	-44.4	-55.6	3.8	8.45e-01	0	54	104	0	59	13033
2026-01-19 15:55:01.98	214.42	2.95	-44.5	-55.6	3.8	8.47e-01	0	54	104	0	59	12974
2026-01-19 15:55:05.01	214.67	3.12	-44.4	-55.6	3.8	8.45e-01	0	54	104	0	59	12973
2026-01-19 15:55:08.05	214.93	3.28	-44.4	-55.6	3.8	8.46e-01	0	54	104	0	59	12975
2026-01-19 15:55:11.08	215.19	3.44	-44.5	-55.6	3.8	8.46e-01	0	55	104	0	59	13005
2026-01-19 15:55:14.11	215.46	3.61	-44.5	-55.6	3.8	8.46e-01	0	55	104	0	59	12989
2026-01-19 15:55:17.14	215.72	3.77	-44.5	-55.5	3.8	8.46e-01	0	55	104	0	59	12914
2026-01-19 15:55:20.17	215.99	3.94	-44.5	-55.5	3.8	8.45e-01	0	55	104	0	59	12942
2026-01-19 15:55:23.20	216.27	4.10	-44.4	-55.5	3.8	8.46e-01	0	55	104	0	59	12950
2026-01-19 15:55:26.23	216.54	4.27	-44.4	-55.5	3.8	8.47e-01	0	56	104	0	59	12934
2026-01-19 15:55:29.27	216.82	4.44	-44.4	-55.5	3.8	8.47e-01	0	55	104	0	59	12953
2026-01-19 15:55:32.30	217.10	4.61	-44.4	-55.5	3.8	8.46e-01	0	56	104	0	59	12916
2026-01-19 15:55:35.33	217.39	4.77	-44.4	-55.5	3.8	8.46e-01	0	56	104	0	59	12953
2026-01-19 15:55:38.36	217.68	4.94	-44.4	-55.5	3.8	8.46e-01	0	56	104	0	59	12904
2026-01-19 15:55:41.40	217.97	5.11	-44.4	-55.5	3.8	8.46e-01	0	57	104	0	59	12894
2026-01-19 15:55:44.43	218.26	5.28	-44.4	-55.5	3.8	8.46e-01	0	57	104	0	59	12901
2026-01-19 15:55:47.46	218.56	5.45	-44.4	-55.5	3.8	8.46e-01	0	57	104	0	59	12941
2026-01-19 15:55:50.49	218.86	5.62	-44.4	-55.5	3.8	8.46e-01	0	57	104	0	59	12880
2026-01-19 15:55:53.52	219.17	5.79	-44.4	-55.3	3.8	8.45e-01	0	57	104	0	59	12625
2026-01-19 15:55:56.55	219.47	5.96	-44.4	-55.1	3.8	8.46e-01	0	57	104	0	59	12337
2026-01-19 15:55:59.58	219.79	6.14	-44.3	-54.7	3.8	8.45e-01	0	57	104	0	59	11818
2026-01-19 15:56:02.61	220.10	6.31	-44.2	-53.9	3.8	8.46e-01	0	57	104	0	59	10680
2026-01-19 15:56:05.64	220.42	6.48	-44.1	-52.7	4.0	8.42e-01	0	58	0	0	59	9381
2026-01-19 15:56:08.67	220.74	6.65	-43.8	-51.0	4.5	8.25e-01	0	58	0	0	58	8170
2026-01-19 15:56:11.70	221.07	6.83	-43.2	-48.9	5.7	6.99e-01	0	58	0	0	57	6747
2026-01-19 15:56:14.73	221.40	7.00	-42.9	-48.0	6.4	2.51e-01	0	58	0	19922944	56	6468
2026-01-19 15:56:17.76	221.73	7.18	-43.0	-48.4	6.1	3.22e-01	0	58	0	41943040	56	6740
2026-01-19 15:56:20.79	222.07	7.35	-43.2	-48.8	5.7	4.24e-01	0	58	0	63963136	56	7095
2026-01-19 15:56:23.83	222.41	7.53	-42.1	-46.2	7.8	1.17e-01	0	58	0	84934656	55	5585
2026-01-19 15:56:26.86	222.76	7.70	-40.6	-43.4	10.8	2.99e-03	0	58	0	106954752	52	4776
2026-01-19 15:56:29.89	223.11	7.88	-39.5	-41.7	12.7	1.14e-04	0	58	0	128974848	50	4409
2026-01-19 15:56:32.92	223.46	8.05	-39.4	-41.6	12.8	6.17e-05	0	59	0	150994944	49	4599
2026-01-19 15:56:35.95	223.82	8.23	-41.3	-44.5	9.9	7.37e-04	0	58	0	156237824	52	5404
2026-01-19 15:56:38.99	224.18	8.41	-39.6	-41.8	12.7	2.15e-04	0	59	0	177209344	50	4450
2026-01-19 15:56:42.01	224.55	8.58	-39.1	-41.1	13.4	2.74e-05	0	59	0	199229440	49	4356
2026-01-19 15:56:45.04	224.92	8.76	-39.3	-41.3	13.2	2.51e-05	0	59	0	221249536	49	4490
2026-01-19 15:56:48.07	225.29	8.94	-39.4	-41.5	13.0	4.92e-05	0	59	0	243269632	49	4573
2026-01-19 15:56:51.09	225.67	9.11	-39.1	-41.1	13.5	8.00e-06	0	59	0	265289728	49	4352
2026-01-19 15:56:54.12	226.06	9.29	-39.0	-41.0	13.6	1.14e-05	0	59	0	286261248	48	4561
2026-01-19 15:56:57.15	226.44	9.47	-38.9	-40.8	13.8	9.10e-06	0	59	0	308281344	48	4472
2026-01-19 15:57:00.18	226.84	9.64	-38.9	-40.7	13.9	2.20e-06	0	59	0	330301440	48	4438
2026-01-19 15:57:03.21	227.23	9.82	-38.7	-40.5	14.2	1.10e-06	0	59	0	352321536	48	4306
2026-01-19 15:57:06.24	227.64	10.00	-38.6	-40.4	14.2	1.10e-06	0	59	0	374341632	48	4270
2026-01-19 15:57:09.27	228.04	10.18	-38.9	-40.7	14.0	4.50e-06	0	59	0	396361728	48	4431
2026-01-19 15:57:12.30	228.46	10.36	-38.8	-40.7	14.0	3.40e-06	0	60	0	418381824	48	4403
2026-01-19 15:57:15.33	228.87	10.53	-38.8	-40.7	14.1	1.10e-06	0	60	0	439353344	48	4394
2026-01-19 15:57:18.36	229.30	10.71	-38.6	-40.4	14.3	1.10e-06	0	60	0	461373440	48	4280
2026-01-19 15:57:21.39	229.72	10.89	-38.6	-40.4	14.3	2.20e-06	0	59	0	483393536	48	4278
2026-01-19 15:57:24.42	230.15	11.07	-38.6	-40.3	14.4	1.10e-06	0	60	0	505413632	48	4232
2026-01-19 15:57:27.45	230.59	11.24	-38.5	-40.3	14.3	1.10e-06	0	60	0	527433728	47	4467
2026-01-19 15:57:30.48	231.03	11.42	-38.7	-40.5	14.0	0.00e+00	0	60	0	549453824	47	4572
2026-01-19 15:57:33.51	231.48	11.60	-38.4	-40.1	14.4	0.00e+00	0	60	0	571473920	47	4381
2026-01-19 15:57:36.54	231.93	11.78	-38.2	-40.0	14.6	0.00e+00	0	60	0	593494016	47	4300
2026-01-19 15:57:39.56	232.39	11.95	-38.2	-39.9	14.7	1.10e-06	0	60	0	614465536	47	4264
2026-01-19 15:57:42.59	232.85	12.13	-38.2	-39.9	14.8	0.00e+00	0	60	0	636485632	47	4253
2026-01-19 15:57:45.62	233.32	12.30	-37.9	-39.4	15.2	0.00e+00	0	60	0	658505728	46	4283
2026-01-19 15:57:48.64	233.79	12.48	-37.9	-39.5	15.2	0.00e+00	0	60	0	680525824	46	4294
2026-01-19 15:57:51.67	234.27	12.65	-38.0	-39.7	15.0	0.00e+00	0	60	0	702545920	46	4405
2026-01-19 15:57:54.70	234.76	12.83	-37.9	-39.5	15.1	0.00e+00	0	60	0	724566016	46	4337
2026-01-19 15:57:57.73	235.25	13.00	-37.8	-39.4	15.3	0.00e+00	0	60	0	745537536	46	4268
2026-01-19 15:58:00.76	235.75	13.17	-37.8	-39.3	15.4	0.00e+00	0	61	0	767557632	46	4221
2026-01-19 15:58:03.80	236.25	13.34	-37.7	-39.2	15.5	0.00e+00	0	60	0	789577728	46	4182
2026-01-19 15:58:06.82	236.76	13.51	-37.7	-39.2	15.5	0.00e+00	0	60	0	811597824	46	4183
2026-01-19 15:58:09.85	237.27	13.68	-37.5	-39.0	15.7	0.00e+00	0	61	0	833617920	46	4077
2026-01-19 15:58:12.88	237.79	13.85	-37.5	-39.1	15.7	0.00e+00	0	61	0	854589440	45	4347
2026-01-19 15:58:15.91	238.31	14.02	-37.6	-39.1	15.6	0.00e+00	0	61	0	876609536	45	4363
2026-01-19 15:58:18.95	238.85	14.19	-37.4	-38.9	15.8	0.00e+00	0	61	0	898629632	45	4272
2026-01-19 15:58:21.97	239.38	14.35	-37.6	-39.2	15.6	0.00e+00	0	61	0	920649728	45	4408
2026-01-19 15:58:25.00	239.92	14.52	-37.5	-39.0	15.8	0.00e+00	0	61	0	942669824	45	4309
2026-01-19 15:58:28.03	240.47	14.68	-37.5	-39.0	15.7	0.00e+00	0	61	0	964689920	45	4317
2026-01-19 15:58:31.06	241.02	14.84	-37.7	-39.2	15.6	0.00e+00	0	61	0	986710016	45	4415
2026-01-19 15:58:34.09	241.58	15.00	-37.4	-38.9	15.8	0.00e+00	0	61	0	1008730112	45	4283
2026-01-19 15:58:37.13	242.15	15.16	-37.3	-38.8	16.0	0.00e+00	0	61	0	1029701632	45	4208
2026-01-19 15:58:40.16	242.72	15.32	-37.6	-39.1	15.7	0.00e+00	0	61	0	1051721728	45	4378
2026-01-19 15:58:43.19	243.30	15.48	-37.4	-38.9	15.9	0.00e+00	0	61	0	1073741824	45	4275
2026-01-19 15:58:46.22	243.88	15.63	-37.0	-38.4	16.3	0.00e+00	0	61	0	1095761920	45	4036
2026-01-19 15:58:49.25	244.47	15.78	-37.0	-38.4	16.4	0.00e+00	0	61	0	1117782016	44	4263
2026-01-19 15:58:52.28	245.07	15.93	-37.2	-38.6	16.2	0.00e+00	0	61	0	1139802112	44	4382
2026-01-19 15:58:55.31	245.67	16.08	-37.3	-38.8	16.0	0.00e+00	0	61	0	1161822208	44	4451
2026-01-19 15:58:58.34	246.27	16.23	-37.1	-38.6	16.2	0.00e+00	0	61	0	1183842304	44	4356
2026-01-19 15:59:01.37	246.89	16.37	-37.1	-38.6	16.2	0.00e+00	0	61	0	1204813824	44	4347
2026-01-19 15:59:04.40	247.50	16.51	-37.3	-38.8	16.0	0.00e+00	0	61	0	1226833920	44	4463
2026-01-19 15:59:07.42	248.13	16.65	-37.0	-38.4	16.4	0.00e+00	0	61	0	1248854016	44	4259
2026-01-19 15:59:10.45	248.75	16.79	-37.0	-38.4	16.3	0.00e+00	0	61	0	1270874112	44	4289
2026-01-19 15:59:13.48	249.39	16.92	-37.0	-38.4	16.4	0.00e+00	0	61	0	1292894208	44	4245
2026-01-19 15:59:16.51	250.03	17.05	-37.0	-38.4	16.3	0.00e+00	0	61	0	1314914304	44	4288
2026-01-19 15:59:19.54	250.67	17.18	-37.0	-38.4	16.4	0.00e+00	0	61	0	1336934400	44	4261
2026-01-19 15:59:22.57	251.32	17.31	-37.1	-38.5	16.3	0.00e+00	0	61	0	1357905920	44	4315
2026-01-19 15:59:25.60	251.98	17.43	-37.0	-38.4	16.4	0.00e+00	0	61	0	1379926016	44	4283
2026-01-19 15:59:28.63	252.64	17.55	-36.9	-38.3	16.5	0.00e+00	0	61	0	1401946112	44	4203
2026-01-19 15:59:31.66	253.31	17.66	-37.0	-38.4	16.5	0.00e+00	0	61	0	1423966208	44	4251
2026-01-19 15:59:34.69	253.98	17.78	-37.0	-38.4	16.4	0.00e+00	0	61	0	1445986304	44	4261
2026-01-19 15:59:37.71	254.65	17.89	-36.8	-38.2	16.6	0.00e+00	0	61	0	1468006400	44	4161
2026-01-19 15:59:40.74	255.33	17.99	-36.7	-38.0	16.8	0.00e+00	0	61	0	1490026496	44	4075
2026-01-19 15:59:43.77	256.02	18.10	-36.8	-38.2	16.6	0.00e+00	0	62	0	1510998016	44	4172
2026-01-19 15:59:46.80	256.71	18.20	-36.8	-38.2	16.7	0.00e+00	0	62	0	1533018112	44	4164
2026-01-19 15:59:49.83	257.40	18.29	-36.7	-38.0	16.8	0.00e+00	0	62	0	1555038208	44	4098
2026-01-19 15:59:52.86	258.10	18.39	-36.7	-38.1	16.8	0.00e+00	0	61	0	1577058304	44	4106
2026-01-19 15:59:55.89	258.80	18.47	-36.8	-38.2	16.7	0.00e+00	0	62	0	1599078400	44	4164
2026-01-19 15:59:58.92	259.51	18.56	-36.8	-38.1	16.8	0.00e+00	0	62	0	1621098496	44	4125
2026-01-19 16:00:01.95	260.22	18.64	-36.8	-38.2	16.7	0.00e+00	0	61	0	1643118592	44	4157
2026-01-19 16:00:04.98	260.93	18.72	-36.9	-38.3	16.6	0.00e+00	0	62	0	1665138688	44	4218
2026-01-19 16:00:08.01	261.65	18.79	-37.1	-38.5	16.3	0.00e+00	0	62	0	1686110208	44	4317
2026-01-19 16:00:11.04	262.37	18.86	-37.1	-38.5	16.4	0.00e+00	0	61	0	1708130304	44	4305
2026-01-19 16:00:14.07	263.09	18.92	-37.0	-38.5	16.4	0.00e+00	0	62	0	1730150400	44	4292
2026-01-19 16:00:17.09	263.81	18.98	-36.9	-38.3	16.6	0.00e+00	0	62	0	1752170496	44	4201
2026-01-19 16:00:20.12	264.54	19.03	-36.7	-38.0	16.8	0.00e+00	0	62	0	1773142016	44	4084
2026-01-19 16:00:23.15	265.27	19.09	-36.4	-37.7	17.0	0.00e+00	0	61	0	1795162112	43	4179
2026-01-19 16:00:26.18	266.00	19.13	-36.4	-37.7	17.0	0.00e+00	0	62	0	1817182208	43	4182
2026-01-19 16:00:29.21	266.74	19.17	-36.6	-37.9	16.8	0.00e+00	0	61	0	1839202304	43	4278
2026-01-19 16:00:32.23	267.47	19.21	-36.5	-37.8	16.8	0.00e+00	0	62	0	1861222400	43	4240
2026-01-19 16:00:35.26	268.21	19.24	-36.7	-38.0	16.7	0.00e+00	0	62	0	1883242496	43	4326
2026-01-19 16:00:38.29	268.95	19.27	-36.5	-37.8	16.9	0.00e+00	0	62	0	1905262592	43	4214
2026-01-19 16:00:41.32	269.69	19.29	-36.6	-37.9	16.8	0.00e+00	0	62	0	1926234112	43	4272
2026-01-19 16:00:44.35	270.43	19.31	-36.7	-38.0	16.7	0.00e+00	0	62	0	1948254208	43	4333
2026-01-19 16:00:47.38	271.18	19.33	-36.5	-37.8	16.9	0.00e+00	0	62	0	1970274304	43	4234
2026-01-19 16:00:50.40	271.92	19.34	-36.4	-37.8	16.9	0.00e+00	0	62	0	1992294400	43	4196
2026-01-19 16:00:53.43	272.66	19.34	-36.5	-37.9	16.8	0.00e+00	0	62	0	2014314496	43	4253
2026-01-19 16:00:56.46	273.40	19.34	-36.3	-37.6	17.1	0.00e+00	0	62	0	2036334592	43	4129
2026-01-19 16:00:59.49	274.15	19.34	-36.3	-37.6	17.1	0.00e+00	0	62	0	2058354688	43	4132
2026-01-19 16:01:02.52	274.89	19.33	-36.3	-37.6	17.0	0.00e+00	0	62	0	2079326208	43	4143
2026-01-19 16:01:05.55	275.63	19.31	-36.4	-37.8	16.9	0.00e+00	0	62	0	2101346304	43	4195
2026-01-19 16:01:08.58	276.37	19.29	-36.6	-38.0	16.7	0.00e+00	0	62	0	2123366400	43	4321
2026-01-19 16:01:11.61	277.11	19.27	-36.9	-38.4	16.3	0.00e+00	0	62	0	2145386496	43	4496
2026-01-19 16:01:14.63	277.85	19.24	-36.7	-38.1	16.5	0.00e+00	0	62	0	2167406592	43	4378
2026-01-19 16:01:17.66	278.59	19.21	-36.6	-37.9	16.7	0.00e+00	0	62	0	2189426688	43	4286
2026-01-19 16:01:20.69	279.32	19.17	-36.6	-37.9	16.7	0.00e+00	0	62	0	2211446784	43	4269
2026-01-19 16:01:23.72	280.06	19.13	-36.8	-38.1	16.5	0.00e+00	0	62	0	2232418304	43	4390
2026-01-19 16:01:26.75	280.79	19.08	-36.7	-38.1	16.5	0.00e+00	0	62	0	2254438400	43	4351
2026-01-19 16:01:29.78	281.52	19.03	-36.5	-37.8	16.8	0.00e+00	0	62	0	2276458496	43	4221
2026-01-19 16:01:32.80	282.24	18.98	-36.5	-37.8	16.8	0.00e+00	0	62	0	2298478592	43	4232
2026-01-19 16:01:35.83	282.96	18.92	-36.6	-38.0	16.6	0.00e+00	0	62	0	2320498688	43	4317
2026-01-19 16:01:38.86	283.69	18.85	-36.9	-38.3	16.3	0.00e+00	0	62	0	2342518784	43	4457
2026-01-19 16:01:41.89	284.40	18.78	-36.8	-38.2	16.4	0.00e+00	0	62	0	2364538880	43	4429
2026-01-19 16:01:44.92	285.12	18.71	-36.6	-38.0	16.6	0.00e+00	0	62	0	2385510400	43	4315
2026-01-19 16:01:47.95	285.83	18.64	-36.6	-37.9	16.6	0.00e+00	0	62	0	2407530496	43	4282
2026-01-19 16:01:50.98	286.54	18.55	-36.8	-38.2	16.4	0.00e+00	0	62	0	2429550592	43	4412
2026-01-19 16:01:54.01	287.24	18.47	-36.6	-38.0	16.6	0.00e+00	0	62	0	2451570688	43	4324
2026-01-19 16:01:57.04	287.94	18.38	-36.7	-38.1	16.5	0.00e+00	0	62	0	2473590784	43	4375
2026-01-19 16:02:00.06	288.63	18.29	-36.6	-38.0	16.6	0.00e+00	0	62	0	2495610880	43	4327
2026-01-19 16:02:03.09	289.33	18.19	-36.8	-38.1	16.5	0.00e+00	0	62	0	2517630976	43	4387
2026-01-19 16:02:06.12	290.01	18.10	-36.7	-38.1	16.5	0.00e+00	0	62	0	2538602496	43	4370
2026-01-19 16:02:09.15	290.70	17.99	-37.0	-38.4	16.2	0.00e+00	0	62	0	2560622592	43	4523
2026-01-19 16:02:12.18	291.37	17.89	-36.8	-38.2	16.4	0.00e+00	0	62	0	2582642688	43	4440
2026-01-19 16:02:15.20	292.05	17.78	-36.8	-38.2	16.4	0.00e+00	0	62	0	2604662784	43	4408
2026-01-19 16:02:18.24	292.72	17.66	-36.8	-38.3	16.4	0.00e+00	0	62	0	2626682880	43	4449
2026-01-19 16:02:21.27	293.38	17.55	-36.8	-38.2	16.4	0.00e+00	0	62	0	2648702976	43	4436
2026-01-19 16:02:24.30	294.04	17.43	-37.0	-38.5	16.1	0.00e+00	0	62	0	2669674496	43	4552
2026-01-19 16:02:27.33	294.69	17.31	-37.0	-38.4	16.2	0.00e+00	0	62	0	2691694592	43	4515
2026-01-19 16:02:30.36	295.34	17.18	-36.7	-38.1	16.5	0.00e+00	0	62	0	2713714688	43	4373
2026-01-19 16:02:33.38	295.98	17.05	-36.8	-38.2	16.3	0.00e+00	0	62	0	2735734784	43	4434
2026-01-19 16:02:36.42	296.62	16.92	-37.0	-38.4	16.1	0.00e+00	0	62	0	2757754880	43	4519
2026-01-19 16:02:39.44	297.25	16.79	-37.3	-38.7	16.0	0.00e+00	0	62	0	2779774976	44	4437
2026-01-19 16:02:42.47	297.87	16.65	-37.4	-38.9	15.9	0.00e+00	0	62	0	2800746496	44	4503
2026-01-19 16:02:45.51	298.50	16.52	-37.4	-38.9	15.8	0.00e+00	0	62	0	2822766592	44	4534
2026-01-19 16:02:48.54	299.11	16.37	-37.3	-38.8	16.0	0.00e+00	0	62	0	2844786688	44	4446
2026-01-19 16:02:51.57	299.72	16.23	-37.3	-38.7	15.9	0.00e+00	0	62	0	2866806784	44	4431
2026-01-19 16:02:54.59	300.32	16.09	-37.4	-38.9	15.8	0.00e+00	0	62	0	2888826880	44	4540
2026-01-19 16:02:57.62	300.92	15.94	-37.4	-38.9	15.8	0.00e+00	0	62	0	2910846976	44	4535
2026-01-19 16:03:00.65	301.51	15.79	-37.5	-39.0	15.6	0.00e+00	0	62	0	2932867072	44	4592
2026-01-19 16:03:03.68	302.10	15.64	-37.5	-39.0	15.7	0.00e+00	0	62	0	2953838592	44	4549
2026-01-19 16:03:06.71	302.68	15.49	-37.5	-39.1	15.6	0.00e+00	0	62	0	2975858688	44	4610
2026-01-19 16:03:09.74	303.26	15.33	-37.6	-39.1	15.6	0.00e+00	0	62	0	2997878784	44	4630
2026-01-19 16:03:12.77	303.82	15.18	-37.5	-39.1	15.6	0.00e+00	0	62	0	3019898880	44	4599
2026-01-19 16:03:15.80	304.39	15.02	-37.3	-38.8	15.9	0.00e+00	0	62	0	3041918976	44	4451
2026-01-19 16:03:18.83	304.94	14.86	-37.4	-38.9	15.8	0.00e+00	0	62	0	3063939072	44	4501
2026-01-19 16:03:21.85	305.49	14.70	-37.5	-39.0	15.6	0.00e+00	0	62	0	3085959168	44	4596
2026-01-19 16:03:24.89	306.04	14.54	-37.8	-39.4	15.3	0.00e+00	0	62	0	3107979264	45	4497
2026-01-19 16:03:27.92	306.58	14.37	-37.9	-39.5	15.1	0.00e+00	0	62	0	3128950784	45	4555
2026-01-19 16:03:30.95	307.12	14.21	-37.9	-39.5	15.1	0.00e+00	0	62	0	3150970880	45	4593
2026-01-19 16:03:33.98	307.64	14.04	-38.0	-39.6	15.0	0.00e+00	0	62	0	3172990976	45	4640
2026-01-19 16:03:37.00	308.16	13.88	-37.9	-39.5	15.1	0.00e+00	0	62	0	3195011072	45	4590
2026-01-19 16:03:40.03	308.68	13.71	-37.9	-39.6	15.0	0.00e+00	0	62	0	3217031168	45	4601
2026-01-19 16:03:43.06	309.19	13.54	-38.0	-39.6	15.0	1.10e-06	0	62	0	3239051264	45	4630
2026-01-19 16:03:46.09	309.70	13.37	-38.0	-39.6	15.0	0.00e+00	0	62	0	3261071360	45	4642
2026-01-19 16:03:49.12	310.20	13.20	-38.1	-39.8	14.8	0.00e+00	0	62	0	3282042880	45	4723
2026-01-19 16:03:52.15	310.69	13.03	-38.3	-40.0	14.5	0.00e+00	0	62	0	3304062976	46	4593
2026-01-19 16:03:55.18	311.18	12.86	-38.3	-40.0	14.5	1.10e-06	0	62	0	3326083072	46	4598
2026-01-19 16:03:58.21	311.66	12.69	-38.3	-40.0	14.5	0.00e+00	0	62	0	3348103168	46	4597
2026-01-19 16:04:01.23	312.14	12.52	-38.2	-40.0	14.6	0.00e+00	0	62	0	3370123264	46	4546
2026-01-19 16:04:04.26	312.61	12.34	-38.0	-39.6	14.9	0.00e+00	0	62	0	3392143360	46	4382
2026-01-19 16:04:07.29	313.08	12.17	-37.8	-39.4	15.2	0.00e+00	0	62	0	3414163456	46	4265
2026-01-19 16:04:10.32	313.54	12.00	-38.1	-39.7	14.8	0.00e+00	0	62	0	3435134976	46	4427
2026-01-19 16:04:13.35	314.00	11.82	-38.3	-40.0	14.5	0.00e+00	0	62	0	3457155072	46	4572
2026-01-19 16:04:16.38	314.45	11.65	-38.5	-40.3	14.2	1.10e-06	0	62	0	3479175168	46	4742
2026-01-19 16:04:19.41	314.90	11.47	-38.7	-40.6	13.9	3.40e-06	0	62	0	3501195264	46	4883
2026-01-19 16:04:22.44	315.34	11.30	-38.7	-40.6	13.9	4.50e-06	0	62	0	3523215360	47	4616
2026-01-19 16:04:25.47	315.77	11.12	-38.7	-40.6	13.9	4.50e-06	0	62	0	3545235456	47	4599
2026-01-19 16:04:28.50	316.20	10.94	-38.4	-40.2	14.3	3.40e-06	0	62	0	3567255552	47	4395
2026-01-19 16:04:31.53	316.63	10.77	-38.3	-40.0	14.4	0.00e+00	0	62	0	3588227072	47	4334
2026-01-19 16:04:34.56	317.05	10.59	-38.3	-40.0	14.4	0.00e+00	0	62	0	3610247168	47	4327
2026-01-19 16:04:37.59	317.46	10.42	-38.3	-40.1	14.3	1.10e-06	0	62	0	3632267264	47	4374
2026-01-19 16:04:40.62	317.88	10.24	-38.5	-40.4	14.0	4.50e-06	0	62	0	3654287360	47	4519
2026-01-19 16:04:43.64	318.28	10.06	-38.7	-40.6	13.7	6.80e-06	0	62	0	3676307456	47	4642
2026-01-19 16:04:46.67	318.68	9.89	-38.9	-40.9	13.4	1.60e-05	0	62	0	3697278976	47	4773
2026-01-19 16:04:49.70	319.08	9.71	-39.0	-41.1	13.2	3.54e-05	0	62	0	3719299072	47	4881
2026-01-19 16:04:52.73	319.47	9.54	-39.1	-41.1	13.2	2.86e-05	0	62	0	3741319168	47	4909
2026-01-19 16:04:55.76	319.86	9.36	-39.0	-41.0	13.3	2.86e-05	0	62	0	3763339264	47	4845
2026-01-19 16:04:58.79	320.24	9.19	-38.9	-41.0	13.3	2.28e-05	0	62	0	3785359360	47	4831
2026-01-19 16:05:01.82	320.62	9.01	-38.8	-40.8	13.4	1.14e-05	0	62	0	3807379456	47	4758
2026-01-19 16:05:04.85	321.00	8.83	-39.1	-41.2	13.0	2.86e-05	0	62	0	3829399552	47	4935
2026-01-19 16:05:07.88	321.37	8.66	-39.0	-41.1	13.1	3.08e-05	0	62	0	3850371072	47	4901
2026-01-19 16:05:10.91	321.73	8.48	-39.2	-41.3	12.8	7.43e-05	0	62	0	3872391168	47	5004
2026-01-19 16:05:13.94	322.09	8.31	-39.0	-41.1	13.0	3.08e-05	0	62	0	3894411264	47	4915
2026-01-19 16:05:16.97	322.45	8.14	-39.0	-41.1	13.0	4.23e-05	0	62	0	3916431360	47	4882
2026-01-19 16:05:20.00	322.81	7.96	-44.4	-53.5	3.9	8.11e-01	0	62	104	3935305728	58	10791
2026-01-19 16:05:23.04	323.16	7.79	-45.3	-56.6	3.8	8.46e-01	0	62	104	3935305728	60	13815
2026-01-19 16:05:26.07	323.50	7.61	-45.6	-56.9	3.8	8.46e-01	0	62	104	3935305728	60	14319
2026-01-19 16:05:29.10	323.84	7.44	-45.6	-56.9	3.8	8.46e-01	0	62	104	3935305728	60	14362
2026-01-19 16:05:32.13	324.18	7.27	-45.6	-56.9	3.8	8.46e-01	0	62	104	3935305728	60	14276
2026-01-19 16:05:35.17	324.52	7.10	-45.5	-56.8	3.8	8.46e-01	0	62	104	3935305728	60	14111
2026-01-19 16:05:38.20	324.85	6.92	-45.5	-56.8	3.8	8.47e-01	0	62	104	3935305728	60	14164
2026-01-19 16:05:41.23	325.17	6.75	-45.5	-56.8	3.8	8.47e-01	0	62	104	3935305728	60	14142
2026-01-19 16:05:44.26	325.50	6.58	-45.4	-56.8	3.8	8.45e-01	0	62	104	3935305728	60	14080
2026-01-19 16:05:47.29	325.82	6.41	-45.5	-56.8	3.8	8.47e-01	0	62	104	3935305728	60	14112
2026-01-19 16:05:50.32	326.13	6.24	-45.4	-56.8	3.8	8.45e-01	0	62	104	3935305728	60	14095
2026-01-19 16:05:53.35	326.44	6.07	-45.4	-56.8	3.8	8.45e-01	0	62	104	3935305728	60	14118
2026-01-19 16:05:56.39	326.75	5.90	-45.4	-56.8	3.8	8.46e-01	0	62	104	3935305728	60	14082
2026-01-19 16:05:59.42	327.06	5.73	-45.0	-56.8	3.8	8.45e-01	0	62	104	3935305728	60	14087
2026-01-19 16:06:02.45	327.36	5.56	-45.2	-56.8	3.8	8.46e-01	0	62	104	3935305728	60	14114
2026-01-19 16:06:05.48	327.66	5.39	-45.4	-56.8	3.8	8.45e-01	0	62	104	3935305728	60	14064
2026-01-19 16:06:08.51	327.95	5.23	-45.4	-56.8	3.8	8.47e-01	0	62	104	3935305728	60	14134
2026-01-19 16:06:11.55	328.25	5.06	-45.4	-56.8	3.8	8.46e-01	0	62	104	3935305728	60	14092
2026-01-19 16:06:14.58	328.54	4.89	-45.4	-56.7	3.8	8.45e-01	0	62	104	3935305728	60	14042
2026-01-19 16:06:17.61	328.82	4.73	-45.4	-56.8	3.8	8.46e-01	0	62	104	3935305728	60	14102
2026-01-19 16:06:20.64	329.11	4.56	-45.4	-56.8	3.8	8.46e-01	0	62	104	3935305728	60	14110
2026-01-19 16:06:23.67	329.39	4.39	-45.3	-56.8	3.8	8.46e-01	0	62	104	3935305728	60	14075
2026-01-19 16:06:26.70	329.66	4.23	-45.3	-56.8	3.8	8.46e-01	0	62	104	3935305728	60	14082
2026-01-19 16:06:29.73	329.94	4.06	-45.4	-56.8	3.8	8.47e-01	0	62	104	3935305728	60	14110
2026-01-19 16:06:32.76	330.21	3.90	-45.3	-56.7	3.8	8.46e-01	0	62	104	3935305728	60	13999
2026-01-19 16:06:35.79	330.48	3.74	-45.4	-56.8	3.8	8.46e-01	0	62	104	3935305728	60	14102
2026-01-19 16:06:38.83	330.74	3.57	-45.4	-56.7	3.8	8.46e-01	0	62	104	3935305728	60	14023
2026-01-19 16:06:41.86	331.00	3.41	-45.2	-56.7	3.8	8.46e-01	0	62	104	3935305728	60	14011
2026-01-19 16:06:44.89	331.26	3.25	-45.4	-56.7	3.8	8.46e-01	0	62	104	3935305728	60	14001
2026-01-19 16:06:47.92	331.52	3.09	-45.4	-56.7	3.8	8.46e-01	0	62	104	3935305728	60	13968
2026-01-19 16:06:50.95	331.78	2.93	-45.4	-56.7	3.8	8.46e-01	0	63	104	3935305728	60	13970
2026-01-19 16:06:53.98	332.03	2.77	-45.4	-56.7	3.8	8.45e-01	0	62	104	3935305728	60	14034
2026-01-19 16:06:57.02	332.28	2.61	-45.4	-56.7	3.8	8.46e-01	0	62	104	3935305728	60	13978
2026-01-19 16:07:00.05	332.53	2.45	-45.4	-56.8	3.8	8.46e-01	0	63	104	3935305728	60	14058
2026-01-19 16:07:03.08	332.77	2.29	-45.4	-56.7	3.8	8.46e-01	0	62	104	3935305728	60	14032
2026-01-19 16:07:06.11	333.01	2.13	-45.4	-56.7	3.8	8.45e-01	0	62	104	3935305728	60	13955
2026-01-19 16:07:09.14	333.25	1.97	-45.4	-56.8	3.8	8.46e-01	0	62	104	3935305728	60	14078

#Closed at: 2026-01-19 16:07:10
#Recorded file [3935 MB]: D:/lorett/data/31039_260119_185443.dat