passes_logs/2026/01/19/R2.0S_Moscow/R2.0S_Moscow__20260119_125232_AQUA_rec.log

#Pass ID: 20260119_125232_AQUA
#Satellite: AQUA
#Configuration: AQUA
#almurnet v.1.7.20251203
#Start time: 2026-01-19 12:52:32

#Version: 2.2.20231116
#Station: R2.0S_Moscow
#Location: 37.707566 lon 55.798166 lat
#TLE: 1 27424U 02022A   26018.92652823  .00000914  00000+0  19290-3 0  9996
#TLE: 2 27424  98.4089 345.4199 0001997  73.4625 351.8991 14.61828815261466

#Time	Az	El	Level	Level2	SNR	BER	BlckErr	Temp	State	Recorded	gain1	gain2
2026-01-19 12:52:32.79	199.67	2.04	-44.9	-63.6	3.8	7.48e-01	0	55	0	0	61	30907
2026-01-19 12:52:35.81	199.88	2.22	-45.0	-63.6	3.8	7.47e-01	0	55	104	0	60	32680
2026-01-19 12:52:38.84	200.09	2.40	-45.0	-63.6	3.8	7.43e-01	0	55	104	0	60	32811
2026-01-19 12:52:41.86	200.30	2.59	-45.0	-63.6	3.8	7.45e-01	0	55	104	0	60	32591
2026-01-19 12:52:44.90	200.52	2.77	-44.9	-63.6	3.8	7.46e-01	0	56	104	0	60	32688
2026-01-19 12:52:47.93	200.74	2.96	-44.9	-63.6	3.8	7.41e-01	0	56	104	0	60	32676
2026-01-19 12:52:50.96	200.96	3.15	-44.9	-63.6	3.8	7.45e-01	0	56	104	0	60	32702
2026-01-19 12:52:53.99	201.19	3.33	-44.9	-63.6	3.8	7.45e-01	0	56	104	0	60	32602
2026-01-19 12:52:57.03	201.41	3.53	-44.9	-63.6	3.8	7.46e-01	0	56	104	0	60	32649
2026-01-19 12:53:00.06	201.65	3.72	-44.9	-63.6	3.8	7.46e-01	0	57	104	0	60	32690
2026-01-19 12:53:03.09	201.88	3.91	-44.9	-63.6	3.8	7.45e-01	0	57	104	0	60	32655
2026-01-19 12:53:06.12	202.12	4.10	-44.9	-63.6	3.8	7.45e-01	0	57	104	0	60	32610
2026-01-19 12:53:09.15	202.36	4.29	-44.9	-63.6	3.8	7.44e-01	0	57	104	0	60	32560
2026-01-19 12:53:12.18	202.61	4.49	-44.9	-63.6	3.8	7.43e-01	0	57	104	0	60	32671
2026-01-19 12:53:15.21	202.85	4.69	-44.9	-63.5	3.8	7.42e-01	0	57	104	0	60	32525
2026-01-19 12:53:18.25	203.11	4.89	-44.9	-63.5	3.8	7.44e-01	0	58	104	0	60	32481
2026-01-19 12:53:21.28	203.36	5.08	-44.9	-63.5	3.8	7.49e-01	0	57	104	0	60	32352
2026-01-19 12:53:24.31	203.62	5.28	-44.9	-63.3	3.8	7.49e-01	0	58	104	0	60	31534
2026-01-19 12:53:27.34	203.88	5.49	-44.9	-63.1	3.8	7.45e-01	0	58	104	0	60	30793
2026-01-19 12:53:30.37	204.15	5.69	-44.9	-62.1	3.8	7.43e-01	0	58	104	0	60	27700
2026-01-19 12:53:33.41	204.42	5.89	-44.8	-60.1	4.2	7.33e-01	0	58	104	0	60	21826
2026-01-19 12:53:36.44	204.70	6.10	-44.7	-58.0	5.0	7.11e-01	0	58	0	0	60	17198
2026-01-19 12:53:39.47	204.98	6.31	-44.5	-55.6	6.7	6.71e-01	92	58	0	2097152	60	13036
2026-01-19 12:53:42.50	205.26	6.51	-44.3	-53.4	8.9	6.35e-01	2	58	0	7864320	60	10096
2026-01-19 12:53:45.53	205.55	6.72	-44.0	-52.0	10.3	6.21e-01	0	59	0	13631488	60	8636
2026-01-19 12:53:48.56	205.84	6.93	-44.3	-52.2	10.5	6.21e-01	0	59	0	19398656	59	9346
2026-01-19 12:53:51.60	206.14	7.15	-44.4	-53.1	9.6	6.28e-01	0	59	0	24641536	59	10388
2026-01-19 12:53:54.63	206.44	7.36	-44.3	-52.6	10.1	6.24e-01	0	59	0	30408704	59	9749
2026-01-19 12:53:57.66	206.74	7.57	-43.6	-49.8	13.0	6.11e-01	0	59	0	36175872	59	7079
2026-01-19 12:54:00.69	207.05	7.79	-42.8	-47.5	15.4	6.06e-01	0	59	0	41943040	57	6096
2026-01-19 12:54:03.72	207.37	8.01	-42.7	-47.3	15.6	6.07e-01	0	59	0	47710208	57	5948
2026-01-19 12:54:06.75	207.69	8.23	-43.5	-48.8	14.7	6.06e-01	0	59	0	49283072	57	7042
2026-01-19 12:54:09.78	208.01	8.45	-42.7	-47.0	15.9	6.07e-01	0	59	0	55050240	57	5767
2026-01-19 12:54:12.81	208.34	8.67	-42.5	-46.7	16.5	6.05e-01	0	59	0	60817408	57	5538
2026-01-19 12:54:15.84	208.68	8.89	-42.5	-46.6	16.5	6.07e-01	0	59	0	66584576	57	5522
2026-01-19 12:54:18.87	209.02	9.12	-42.4	-46.4	16.8	6.07e-01	0	60	0	72351744	56	5710
2026-01-19 12:54:21.89	209.37	9.34	-42.4	-46.3	16.9	6.06e-01	0	60	0	78118912	56	5614
2026-01-19 12:54:24.92	209.72	9.57	-42.4	-46.4	16.8	6.06e-01	0	60	0	83361792	56	5715
2026-01-19 12:54:27.95	210.08	9.80	-42.4	-46.4	16.9	6.05e-01	0	60	0	89128960	56	5662
2026-01-19 12:54:30.98	210.44	10.03	-42.4	-46.2	17.1	6.07e-01	0	60	0	94896128	56	5591
2026-01-19 12:54:34.00	210.81	10.26	-42.4	-46.3	17.1	6.07e-01	0	60	0	100663296	56	5603
2026-01-19 12:54:37.03	211.19	10.49	-42.4	-46.2	17.2	6.04e-01	0	60	0	106430464	56	5568
2026-01-19 12:54:40.06	211.57	10.73	-42.3	-46.1	17.3	6.06e-01	0	60	0	111673344	56	5471
2026-01-19 12:54:43.09	211.96	10.96	-42.4	-46.1	17.3	6.05e-01	0	60	0	117440512	56	5508
2026-01-19 12:54:46.12	212.36	11.20	-42.4	-46.0	17.4	6.07e-01	0	60	0	123207680	56	5454
2026-01-19 12:54:49.15	212.76	11.44	-42.3	-45.9	17.5	6.07e-01	0	60	0	128974848	56	5393
2026-01-19 12:54:52.17	213.17	11.68	-42.4	-46.0	17.5	6.08e-01	0	60	0	134742016	56	5435
2026-01-19 12:54:55.20	213.58	11.92	-42.4	-46.0	17.5	6.07e-01	0	61	0	140509184	56	5421
2026-01-19 12:54:58.23	214.01	12.16	-42.4	-46.0	17.5	6.07e-01	0	61	0	145752064	56	5424
2026-01-19 12:55:01.25	214.44	12.41	-42.3	-45.8	17.7	6.07e-01	0	60	0	151519232	56	5319
2026-01-19 12:55:04.28	214.88	12.65	-42.3	-45.8	17.8	6.06e-01	0	61	0	157286400	56	5293
2026-01-19 12:55:07.31	215.32	12.90	-42.2	-45.7	17.8	6.06e-01	0	60	0	163053568	55	5549
2026-01-19 12:55:10.34	215.78	13.15	-42.2	-45.6	17.8	6.04e-01	0	61	0	168820736	55	5516
2026-01-19 12:55:13.37	216.24	13.40	-42.2	-45.6	17.9	6.04e-01	0	61	0	174587904	55	5513
2026-01-19 12:55:16.40	216.71	13.65	-42.2	-45.7	17.8	6.06e-01	0	61	0	179830784	55	5561
2026-01-19 12:55:19.42	217.19	13.90	-42.2	-45.6	17.9	6.04e-01	0	61	0	185597952	55	5506
2026-01-19 12:55:22.45	217.68	14.15	-42.2	-45.6	17.9	6.06e-01	0	61	0	191365120	55	5492
2026-01-19 12:55:25.48	218.18	14.41	-42.1	-45.4	18.1	6.08e-01	0	61	0	197132288	54	5707
2026-01-19 12:55:28.51	218.68	14.66	-41.7	-45.3	18.2	6.07e-01	0	61	0	202899456	54	5631
2026-01-19 12:55:31.54	219.20	14.92	-42.1	-45.4	18.2	6.05e-01	0	61	0	208666624	54	5699
2026-01-19 12:55:34.57	219.72	15.18	-41.9	-45.4	18.1	6.06e-01	0	61	0	213909504	54	5718
2026-01-19 12:55:37.60	220.25	15.43	-42.0	-45.2	18.4	6.05e-01	0	61	0	219676672	54	5581
2026-01-19 12:55:40.63	220.80	15.69	-41.9	-45.1	18.5	6.06e-01	0	61	0	225443840	54	5505
2026-01-19 12:55:43.65	221.35	15.95	-41.9	-45.2	18.5	6.08e-01	0	61	0	231211008	54	5532
2026-01-19 12:55:46.68	221.91	16.21	-42.0	-45.3	18.4	6.06e-01	0	61	0	236978176	54	5601
2026-01-19 12:55:49.71	222.48	16.47	-41.9	-45.3	18.4	6.08e-01	0	61	0	242745344	54	5596
2026-01-19 12:55:52.74	223.07	16.73	-41.9	-45.1	18.5	6.08e-01	0	61	0	247988224	54	5524
2026-01-19 12:55:55.77	223.66	16.99	-41.9	-45.0	18.7	6.05e-01	0	61	0	253755392	54	5434
2026-01-19 12:55:58.80	224.27	17.25	-42.0	-45.2	18.4	6.05e-01	0	61	0	259522560	54	5589
2026-01-19 12:56:01.83	224.88	17.52	-42.0	-45.3	18.4	6.08e-01	0	61	0	265289728	54	5609
2026-01-19 12:56:04.85	225.51	17.78	-42.0	-45.2	18.6	6.07e-01	0	61	0	271056896	54	5543
2026-01-19 12:56:07.88	226.14	18.04	-42.0	-45.2	18.5	6.05e-01	0	62	0	276299776	54	5577
2026-01-19 12:56:10.91	226.79	18.30	-42.0	-45.3	18.5	6.06e-01	0	61	0	282066944	54	5610
2026-01-19 12:56:13.94	227.46	18.56	-42.1	-45.3	18.4	6.03e-01	0	61	0	287834112	54	5620
2026-01-19 12:56:16.97	228.13	18.82	-42.0	-45.1	18.6	6.06e-01	0	61	0	293601280	54	5510
2026-01-19 12:56:20.00	228.81	19.08	-42.0	-45.2	18.6	6.04e-01	0	61	0	299368448	54	5565
2026-01-19 12:56:23.02	229.51	19.34	-42.1	-45.2	18.5	6.09e-01	0	62	0	305135616	54	5589
2026-01-19 12:56:26.05	230.22	19.59	-41.9	-45.1	18.7	6.07e-01	0	62	0	310902784	54	5479
2026-01-19 12:56:29.08	230.94	19.85	-42.0	-45.2	18.5	6.06e-01	0	61	0	316145664	54	5591
2026-01-19 12:56:32.11	231.67	20.10	-42.1	-45.3	18.5	6.05e-01	0	62	0	321912832	54	5628
2026-01-19 12:56:35.14	232.42	20.36	-42.0	-45.2	18.6	6.07e-01	0	62	0	327680000	54	5548
2026-01-19 12:56:38.16	233.18	20.60	-42.2	-45.4	18.4	6.05e-01	0	62	0	333447168	55	5402
2026-01-19 12:56:41.19	233.95	20.85	-42.2	-45.4	18.4	6.06e-01	0	61	0	339214336	55	5372
2026-01-19 12:56:44.22	234.73	21.10	-42.1	-45.3	18.5	6.06e-01	0	62	0	344457216	55	5285
2026-01-19 12:56:47.25	235.53	21.34	-42.2	-45.4	18.4	6.07e-01	0	62	0	350224384	55	5385
2026-01-19 12:56:50.28	236.34	21.58	-42.2	-45.4	18.4	6.06e-01	0	62	0	355991552	55	5398
2026-01-19 12:56:53.31	237.17	21.82	-42.3	-45.5	18.2	6.07e-01	0	62	0	361758720	55	5462
2026-01-19 12:56:56.34	238.00	22.05	-42.3	-45.6	18.2	6.07e-01	0	62	0	367525888	55	5479
2026-01-19 12:56:59.37	238.85	22.28	-42.4	-45.7	18.1	6.06e-01	0	62	0	373293056	55	5567
2026-01-19 12:57:02.39	239.71	22.51	-42.4	-45.8	18.0	6.08e-01	0	62	0	379060224	55	5640
2026-01-19 12:57:05.42	240.59	22.73	-42.3	-45.7	18.2	6.05e-01	0	62	0	384303104	55	5537
2026-01-19 12:57:08.45	241.48	22.95	-42.3	-45.5	18.3	6.05e-01	0	62	0	390070272	55	5450
2026-01-19 12:57:11.48	242.38	23.16	-42.4	-45.8	18.0	6.07e-01	0	62	0	395837440	55	5622
2026-01-19 12:57:14.50	243.29	23.36	-42.4	-45.8	18.0	6.05e-01	0	62	0	401604608	55	5626
2026-01-19 12:57:17.53	244.21	23.56	-42.5	-46.0	17.9	6.06e-01	0	62	0	407371776	55	5755
2026-01-19 12:57:20.56	245.15	23.76	-42.4	-45.8	18.0	6.07e-01	0	62	0	412614656	55	5635
2026-01-19 12:57:23.59	246.10	23.95	-42.4	-45.8	18.0	6.06e-01	0	62	0	418381824	55	5643
2026-01-19 12:57:26.62	247.06	24.13	-42.5	-46.0	17.9	6.04e-01	0	62	0	424148992	55	5750
2026-01-19 12:57:29.65	248.03	24.31	-42.4	-45.8	18.1	6.09e-01	0	62	0	429916160	55	5630
2026-01-19 12:57:32.68	249.01	24.48	-42.4	-45.7	18.2	6.06e-01	0	62	0	435683328	55	5559
2026-01-19 12:57:35.70	250.00	24.64	-42.4	-45.7	18.2	6.07e-01	0	62	0	441450496	55	5573
2026-01-19 12:57:38.73	251.01	24.79	-42.5	-45.9	18.0	6.05e-01	0	62	0	446693376	55	5674
2026-01-19 12:57:41.76	252.02	24.93	-42.3	-45.7	18.2	6.05e-01	0	62	0	452460544	55	5541
2026-01-19 12:57:44.79	253.04	25.07	-42.3	-45.7	18.2	6.06e-01	0	62	0	458227712	55	5547
2026-01-19 12:57:47.81	254.07	25.20	-42.3	-45.6	18.3	6.06e-01	0	62	0	463994880	55	5512
2026-01-19 12:57:50.84	255.11	25.32	-42.5	-45.9	18.0	6.06e-01	0	62	0	469762048	55	5685
2026-01-19 12:57:53.87	256.16	25.43	-42.4	-45.8	18.1	6.06e-01	0	62	0	475529216	55	5601
2026-01-19 12:57:56.90	257.21	25.53	-42.4	-45.8	18.1	6.08e-01	0	62	0	480772096	55	5606
2026-01-19 12:57:59.93	258.27	25.62	-42.3	-45.7	18.2	6.05e-01	0	62	0	486539264	55	5534
2026-01-19 12:58:02.96	259.34	25.71	-42.4	-45.8	18.1	6.06e-01	0	62	0	492306432	55	5626
2026-01-19 12:58:05.98	260.41	25.78	-42.4	-45.7	18.2	6.05e-01	0	62	0	498073600	55	5567
2026-01-19 12:58:09.01	261.48	25.84	-42.4	-45.7	18.1	6.04e-01	0	62	0	503840768	55	5592
2026-01-19 12:58:12.04	262.56	25.89	-42.4	-45.7	18.1	6.05e-01	0	62	0	509607936	55	5587
2026-01-19 12:58:15.07	263.65	25.93	-42.3	-45.6	18.3	6.06e-01	0	62	0	514850816	55	5509
2026-01-19 12:58:18.09	264.73	25.96	-42.3	-45.5	18.4	6.07e-01	0	62	0	520617984	55	5442
2026-01-19 12:58:21.12	265.82	25.99	-42.4	-45.8	18.1	6.06e-01	0	62	0	526385152	55	5596
2026-01-19 12:58:24.15	266.90	26.00	-42.3	-45.6	18.3	6.07e-01	0	62	0	532152320	55	5510
2026-01-19 12:58:27.18	267.99	26.00	-42.3	-45.7	18.2	6.04e-01	0	62	0	537919488	55	5541
2026-01-19 12:58:30.21	269.08	25.99	-42.3	-45.6	18.2	6.05e-01	0	62	0	543686656	55	5523
2026-01-19 12:58:33.23	270.16	25.96	-42.3	-45.6	18.2	6.03e-01	0	62	0	548929536	55	5528
2026-01-19 12:58:36.26	271.25	25.93	-42.3	-45.7	18.2	6.06e-01	0	62	0	554696704	55	5541
2026-01-19 12:58:39.29	272.33	25.89	-42.3	-45.6	18.2	6.07e-01	0	62	0	560463872	55	5524
2026-01-19 12:58:42.32	273.41	25.84	-42.2	-45.4	18.5	6.08e-01	0	62	0	566231040	55	5386
2026-01-19 12:58:45.35	274.49	25.78	-42.3	-45.6	18.3	6.07e-01	0	62	0	571998208	55	5493
2026-01-19 12:58:48.38	275.56	25.70	-42.2	-45.5	18.4	6.04e-01	0	62	0	577241088	55	5415
2026-01-19 12:58:51.40	276.62	25.62	-42.2	-45.5	18.4	6.06e-01	0	62	0	583008256	55	5422
2026-01-19 12:58:54.43	277.68	25.53	-42.3	-45.7	18.2	6.07e-01	0	62	0	588775424	55	5544
2026-01-19 12:58:57.46	278.73	25.43	-42.2	-45.5	18.4	6.05e-01	0	62	0	594542592	55	5431
2026-01-19 12:59:00.48	279.77	25.32	-42.2	-45.5	18.4	6.06e-01	0	62	0	600309760	55	5422
2026-01-19 12:59:03.51	280.81	25.20	-42.3	-45.5	18.3	6.05e-01	0	62	0	606076928	55	5461
2026-01-19 12:59:06.54	281.83	25.07	-42.2	-45.5	18.3	6.04e-01	0	62	0	611844096	55	5443
2026-01-19 12:59:09.57	282.85	24.93	-42.2	-45.4	18.4	6.06e-01	0	62	0	617086976	55	5373
2026-01-19 12:59:12.60	283.86	24.79	-42.3	-45.6	18.2	6.06e-01	0	62	0	622854144	55	5501
2026-01-19 12:59:15.63	284.86	24.64	-42.2	-45.4	18.4	6.05e-01	0	62	0	628621312	55	5385
2026-01-19 12:59:18.65	285.85	24.48	-42.2	-45.5	18.3	6.06e-01	0	62	0	634388480	55	5448
2026-01-19 12:59:21.68	286.83	24.31	-42.3	-45.6	18.3	6.07e-01	0	62	0	640155648	55	5481
2026-01-19 12:59:24.71	287.80	24.13	-42.3	-45.6	18.2	6.07e-01	0	62	0	645398528	55	5514
2026-01-19 12:59:27.74	288.76	23.95	-42.3	-45.6	18.2	6.06e-01	0	62	0	651165696	55	5490
2026-01-19 12:59:30.77	289.70	23.76	-42.2	-45.4	18.4	6.05e-01	0	62	0	656932864	55	5371
2026-01-19 12:59:33.80	290.63	23.57	-42.2	-45.6	18.3	6.06e-01	0	62	0	662700032	55	5467
2026-01-19 12:59:36.82	291.55	23.37	-42.3	-45.6	18.2	6.03e-01	0	62	0	668467200	55	5495
2026-01-19 12:59:39.85	292.46	23.17	-42.2	-45.5	18.3	6.07e-01	0	62	0	674234368	55	5427
2026-01-19 12:59:42.88	293.36	22.96	-42.2	-45.5	18.3	6.05e-01	0	62	0	679477248	55	5419
2026-01-19 12:59:45.90	294.24	22.74	-42.3	-45.6	18.2	6.05e-01	0	62	0	685244416	55	5504
2026-01-19 12:59:48.93	295.11	22.52	-42.2	-45.5	18.2	6.04e-01	0	62	0	691011584	55	5460
2026-01-19 12:59:51.96	295.97	22.30	-42.2	-45.5	18.3	6.04e-01	0	62	0	696778752	55	5423
2026-01-19 12:59:54.99	296.82	22.07	-42.2	-45.6	18.2	6.08e-01	0	62	0	702545920	55	5483
2026-01-19 12:59:58.02	297.65	21.84	-42.1	-45.4	18.4	6.08e-01	0	62	0	708313088	55	5380
2026-01-19 13:00:01.05	298.47	21.60	-42.1	-45.4	18.4	6.06e-01	0	62	0	713555968	55	5358
2026-01-19 13:00:04.08	299.28	21.36	-42.2	-45.5	18.2	6.05e-01	0	62	0	719323136	55	5448
2026-01-19 13:00:07.11	300.07	21.12	-42.0	-45.2	18.5	6.06e-01	0	62	0	725090304	55	5274
2026-01-19 13:00:10.14	300.85	20.88	-42.1	-45.4	18.3	6.06e-01	0	62	0	730857472	55	5361
2026-01-19 13:00:13.16	301.62	20.63	-42.0	-45.3	18.4	6.06e-01	0	62	0	736624640	55	5281
2026-01-19 13:00:16.19	302.37	20.38	-42.0	-45.3	18.4	6.06e-01	0	62	0	742391808	55	5308
2026-01-19 13:00:19.22	303.12	20.13	-42.1	-45.4	18.3	6.05e-01	0	62	0	747634688	55	5370
2026-01-19 13:00:22.25	303.85	19.88	-42.1	-45.3	18.3	6.04e-01	0	62	0	753401856	55	5339
2026-01-19 13:00:25.28	304.57	19.63	-41.9	-45.1	18.6	6.04e-01	0	62	0	759169024	55	5173
2026-01-19 13:00:28.31	305.27	19.37	-42.0	-45.3	18.4	6.07e-01	0	62	0	764936192	55	5282
2026-01-19 13:00:31.34	305.97	19.12	-42.0	-45.2	18.4	6.04e-01	0	62	0	770703360	55	5276
2026-01-19 13:00:34.37	306.65	18.86	-42.0	-45.2	18.5	6.05e-01	0	62	0	776470528	55	5239
2026-01-19 13:00:37.39	307.32	18.60	-42.0	-45.2	18.4	6.06e-01	0	62	0	781713408	55	5258
2026-01-19 13:00:40.42	307.97	18.34	-41.9	-45.1	18.6	6.06e-01	0	62	0	787480576	55	5171
2026-01-19 13:00:43.45	308.62	18.09	-41.9	-45.1	18.5	6.08e-01	0	62	0	793247744	55	5213
2026-01-19 13:00:46.48	309.26	17.83	-41.9	-45.2	18.5	6.07e-01	0	62	0	799014912	55	5224
2026-01-19 13:00:49.51	309.88	17.57	-41.9	-45.1	18.5	6.09e-01	0	62	0	804782080	55	5208
2026-01-19 13:00:52.54	310.49	17.31	-41.9	-45.1	18.5	6.08e-01	0	62	0	810024960	55	5171
2026-01-19 13:00:55.57	311.10	17.05	-41.9	-45.2	18.4	6.05e-01	0	62	0	815792128	55	5254
2026-01-19 13:00:58.60	311.69	16.79	-41.9	-45.2	18.4	6.06e-01	0	62	0	821559296	55	5244
2026-01-19 13:01:01.62	312.27	16.53	-41.9	-45.1	18.4	6.07e-01	0	62	0	827326464	55	5202
2026-01-19 13:01:04.65	312.84	16.28	-41.9	-45.2	18.3	6.06e-01	0	62	0	833093632	55	5269
2026-01-19 13:01:07.68	313.40	16.02	-41.9	-45.2	18.4	6.06e-01	0	62	0	838860800	55	5230
2026-01-19 13:01:10.71	313.95	15.76	-41.8	-45.1	18.5	6.06e-01	0	62	0	844627968	55	5163
2026-01-19 13:01:13.74	314.49	15.50	-41.9	-45.1	18.4	6.03e-01	0	62	0	849870848	55	5215
2026-01-19 13:01:16.77	315.02	15.25	-41.8	-45.1	18.4	6.06e-01	0	62	0	855638016	55	5185
2026-01-19 13:01:19.80	315.54	14.99	-42.0	-45.4	18.1	6.07e-01	0	62	0	861405184	55	5357
2026-01-19 13:01:22.83	316.06	14.74	-42.0	-45.4	18.1	6.05e-01	0	62	0	867172352	55	5353
2026-01-19 13:01:25.86	316.56	14.49	-41.9	-45.2	18.2	6.06e-01	0	62	0	872939520	55	5271
2026-01-19 13:01:28.89	317.06	14.24	-42.0	-45.4	18.1	6.06e-01	0	62	0	878706688	55	5356
2026-01-19 13:01:31.92	317.54	13.98	-41.9	-45.3	18.2	6.06e-01	0	62	0	883949568	55	5319
2026-01-19 13:01:34.95	318.02	13.74	-41.9	-45.3	18.1	6.07e-01	0	62	0	889716736	55	5304
2026-01-19 13:01:37.98	318.49	13.49	-42.0	-45.4	18.0	6.06e-01	0	62	0	895483904	55	5378
2026-01-19 13:01:41.01	318.95	13.24	-42.1	-45.5	17.9	6.06e-01	0	62	0	901251072	55	5448
2026-01-19 13:01:44.03	319.41	12.99	-42.0	-45.5	17.9	6.05e-01	0	62	0	907018240	55	5433
2026-01-19 13:01:47.06	319.85	12.75	-42.0	-45.5	17.9	6.06e-01	0	62	0	912785408	55	5428
2026-01-19 13:01:50.09	320.29	12.51	-42.1	-45.7	17.6	6.07e-01	0	62	0	918028288	55	5573
2026-01-19 13:01:53.12	320.72	12.26	-42.1	-45.7	17.6	6.08e-01	0	62	0	923795456	55	5548
2026-01-19 13:01:56.15	321.14	12.02	-42.1	-45.8	17.6	6.07e-01	0	62	0	929562624	55	5594
2026-01-19 13:01:59.17	321.56	11.78	-42.1	-45.7	17.5	6.07e-01	0	62	0	935329792	55	5591
2026-01-19 13:02:02.20	321.97	11.55	-42.1	-45.7	17.6	6.06e-01	0	62	0	941096960	55	5559
2026-01-19 13:02:05.23	322.37	11.31	-42.1	-45.8	17.5	6.04e-01	0	62	0	946339840	55	5612
2026-01-19 13:02:08.26	322.77	11.07	-42.1	-45.8	17.5	6.06e-01	0	62	0	952107008	55	5605
2026-01-19 13:02:11.29	323.16	10.84	-42.2	-45.9	17.4	6.06e-01	0	62	0	957874176	55	5669
2026-01-19 13:02:14.31	323.54	10.61	-42.2	-46.0	17.3	6.05e-01	0	62	0	963641344	55	5734
2026-01-19 13:02:17.34	323.91	10.38	-42.3	-46.2	17.0	6.05e-01	0	62	0	969408512	55	5892
2026-01-19 13:02:20.37	324.28	10.15	-42.3	-46.2	17.0	6.07e-01	0	62	0	975175680	55	5892
2026-01-19 13:02:23.40	324.65	9.92	-42.3	-46.2	16.9	6.09e-01	0	62	0	980942848	55	5909
2026-01-19 13:02:26.43	325.01	9.69	-42.3	-46.2	16.9	6.04e-01	0	62	0	986185728	55	5893
2026-01-19 13:02:29.45	325.36	9.47	-42.4	-46.4	16.7	6.08e-01	0	62	0	991952896	55	6036
2026-01-19 13:02:32.48	325.71	9.24	-42.3	-46.3	16.7	6.06e-01	0	62	0	997720064	55	5977
2026-01-19 13:02:35.51	326.05	9.02	-42.4	-46.4	16.6	6.04e-01	0	62	0	1003487232	55	6052
2026-01-19 13:02:38.54	326.38	8.80	-42.3	-46.4	16.6	5.98e-01	0	62	0	1009254400	55	6040
2026-01-19 13:02:41.57	326.72	8.58	-42.4	-46.5	16.5	6.00e-01	0	62	0	1014497280	55	6104
2026-01-19 13:02:44.59	327.04	8.36	-42.4	-46.6	16.3	5.99e-01	0	62	0	1020264448	55	6177
2026-01-19 13:02:47.62	327.36	8.15	-42.4	-46.6	16.3	5.99e-01	0	62	0	1026031616	55	6174
2026-01-19 13:02:50.65	327.68	7.93	-45.5	-63.5	3.8	7.47e-01	0	62	104	1029701632	61	30491
2026-01-19 13:02:53.68	327.99	7.72	-46.1	-64.8	3.8	7.49e-01	0	62	104	1029701632	62	33320
2026-01-19 13:02:56.71	328.30	7.50	-46.4	-65.0	3.8	7.43e-01	0	62	104	1029701632	63	32309
2026-01-19 13:02:59.74	328.60	7.29	-46.4	-64.9	3.9	7.46e-01	0	62	104	1029701632	63	31863
2026-01-19 13:03:02.78	328.90	7.08	-46.4	-64.9	3.8	7.48e-01	0	62	104	1029701632	63	32039
2026-01-19 13:03:05.81	329.19	6.87	-46.3	-64.8	3.8	7.44e-01	0	62	104	1029701632	63	31781
2026-01-19 13:03:08.84	329.48	6.66	-45.7	-64.8	3.8	7.45e-01	0	62	104	1029701632	63	31730
2026-01-19 13:03:11.87	329.76	6.46	-46.0	-64.8	3.8	7.45e-01	0	62	104	1029701632	62	33634
2026-01-19 13:03:14.90	330.04	6.25	-46.1	-64.8	3.8	7.44e-01	0	62	104	1029701632	62	33555
2026-01-19 13:03:17.93	330.32	6.05	-46.0	-64.8	3.8	7.46e-01	0	62	104	1029701632	62	33505
2026-01-19 13:03:20.97	330.59	5.85	-44.5	-64.8	3.8	7.43e-01	0	62	104	1029701632	60	37477
2026-01-19 13:03:24.00	330.86	5.64	-46.2	-64.8	3.8	7.45e-01	0	62	104	1029701632	63	31596
2026-01-19 13:03:27.03	331.13	5.44	-46.2	-64.8	3.8	7.44e-01	0	62	104	1029701632	63	31633
2026-01-19 13:03:30.06	331.39	5.25	-46.2	-64.8	3.8	7.44e-01	0	62	104	1029701632	63	31586
2026-01-19 13:03:33.10	331.64	5.05	-46.1	-64.8	3.7	7.46e-01	0	62	104	1029701632	62	33358
2026-01-19 13:03:36.13	331.90	4.85	-46.2	-64.9	3.7	7.42e-01	0	62	104	1029701632	63	31851
2026-01-19 13:03:39.16	332.15	4.66	-46.2	-64.8	3.8	7.49e-01	0	62	104	1029701632	62	33597
2026-01-19 13:03:42.19	332.40	4.46	-46.2	-64.8	3.8	7.43e-01	0	62	104	1029701632	63	31560
2026-01-19 13:03:45.22	332.64	4.27	-46.2	-64.8	3.7	7.43e-01	0	62	104	1029701632	62	33329
2026-01-19 13:03:48.25	332.88	4.08	-45.9	-64.7	3.8	7.44e-01	0	62	104	1029701632	62	33242
2026-01-19 13:03:51.28	333.12	3.89	-46.2	-64.8	3.8	7.49e-01	0	62	104	1029701632	63	31546
2026-01-19 13:03:54.31	333.35	3.70	-46.2	-64.8	3.8	7.45e-01	0	62	104	1029701632	62	33425
2026-01-19 13:03:57.34	333.58	3.51	-46.0	-64.8	3.8	7.46e-01	0	62	104	1029701632	62	33397
2026-01-19 13:04:00.37	333.81	3.32	-46.2	-64.8	3.8	7.47e-01	0	62	104	1029701632	62	33333
2026-01-19 13:04:03.40	334.03	3.14	-46.2	-64.8	3.8	7.45e-01	0	62	104	1029701632	62	33423
2026-01-19 13:04:06.43	334.26	2.95	-46.2	-64.8	3.8	7.43e-01	0	62	104	1029701632	62	33334
2026-01-19 13:04:09.47	334.48	2.77	-46.2	-64.8	3.8	7.44e-01	0	62	104	1029701632	62	33360
2026-01-19 13:04:12.50	334.69	2.59	-46.2	-64.8	3.8	7.42e-01	0	62	104	1029701632	62	33413
2026-01-19 13:04:15.53	334.91	2.40	-46.2	-64.7	3.8	7.44e-01	0	62	104	1029701632	62	33294
2026-01-19 13:04:18.57	335.12	2.22	-46.2	-64.8	3.8	7.45e-01	0	62	104	1029701632	62	33382
2026-01-19 13:04:21.60	335.33	2.04	-46.2	-64.8	3.8	7.42e-01	0	62	104	1029701632	62	33399

#Closed at: 2026-01-19 13:04:23
#Recorded file [1029 MB]: D:/lorett/data/31039_260119_155232.dat