passes_logs/2026/01/19/R2.0S_Moscow/R2.0S_Moscow__20260119_031829_AQUA_rec.log

#Pass ID: 20260119_031829_AQUA
#Satellite: AQUA
#Configuration: AQUA
#almurnet v.1.7.20251203
#Start time: 2026-01-19 03:18:30

#Version: 2.2.20231116
#Station: R2.0S_Moscow
#Location: 37.707566 lon 55.798166 lat
#TLE: 1 27424U 02022A   26017.96925465  .00000866  00000+0  18326-3 0  9999
#TLE: 2 27424  98.4087 344.4465 0002004  74.6027 356.0068 14.61826972261327

#Time	Az	El	Level	Level2	SNR	BER	BlckErr	Temp	State	Recorded	gain1	gain2
2026-01-19 03:18:30.54	4.82	2.05	-41.4	-60.7	3.8	7.41e-01	0	52	0	0	53	35178
2026-01-19 03:18:33.56	4.54	2.21	-41.4	-60.7	3.8	7.42e-01	0	53	104	0	53	35159
2026-01-19 03:18:36.59	4.26	2.37	-41.5	-60.7	3.8	7.44e-01	0	53	104	0	53	35143
2026-01-19 03:18:39.62	3.97	2.53	-41.4	-60.7	3.8	7.44e-01	0	53	104	0	53	35050
2026-01-19 03:18:42.66	3.68	2.70	-41.4	-60.7	3.8	7.42e-01	0	53	104	0	53	35104
2026-01-19 03:18:45.69	3.39	2.86	-41.4	-60.7	3.8	7.45e-01	0	54	104	0	53	34994
2026-01-19 03:18:48.72	3.09	3.02	-41.4	-60.7	3.8	7.43e-01	0	54	104	0	53	35074
2026-01-19 03:18:51.75	2.79	3.18	-41.4	-60.7	3.8	7.46e-01	0	54	104	0	53	35066
2026-01-19 03:18:54.78	2.48	3.35	-41.4	-60.7	3.8	7.45e-01	0	54	104	0	53	35088
2026-01-19 03:18:57.81	2.17	3.51	-41.4	-60.7	3.8	7.44e-01	0	54	104	0	53	35031
2026-01-19 03:19:00.84	1.86	3.67	-41.4	-60.7	3.8	7.44e-01	0	55	104	0	53	34950
2026-01-19 03:19:03.87	1.54	3.84	-41.4	-60.7	3.8	7.43e-01	0	55	104	0	53	35077
2026-01-19 03:19:06.90	1.22	4.00	-41.4	-60.7	3.8	7.45e-01	0	55	104	0	53	35131
2026-01-19 03:19:09.93	0.89	4.17	-41.4	-60.7	3.8	7.46e-01	0	55	104	0	53	35049
2026-01-19 03:19:12.96	0.56	4.33	-41.4	-60.7	3.8	7.46e-01	0	55	104	0	53	35028
2026-01-19 03:19:15.99	0.23	4.50	-41.4	-60.7	3.8	7.44e-01	0	56	104	0	53	34981
2026-01-19 03:19:19.03	359.89	4.67	-41.4	-60.7	3.8	7.42e-01	0	56	104	0	53	34964
2026-01-19 03:19:22.06	359.55	4.83	-41.4	-60.7	3.8	7.45e-01	0	55	104	0	53	35030
2026-01-19 03:19:25.09	359.20	5.00	-41.4	-60.7	3.8	7.48e-01	0	56	104	0	53	35077
2026-01-19 03:19:28.12	358.85	5.16	-41.4	-60.7	3.8	7.44e-01	0	56	104	0	53	35018
2026-01-19 03:19:31.15	358.49	5.33	-41.4	-60.7	3.8	7.42e-01	0	56	104	0	53	35056
2026-01-19 03:19:34.19	358.13	5.50	-41.4	-60.7	3.8	7.42e-01	0	56	104	0	53	35061
2026-01-19 03:19:37.22	357.76	5.66	-41.4	-60.7	3.8	7.46e-01	0	56	104	0	53	35005
2026-01-19 03:19:40.25	357.39	5.83	-41.4	-60.7	3.8	7.45e-01	0	56	104	0	53	35062
2026-01-19 03:19:43.28	357.02	6.00	-41.4	-60.7	3.8	7.45e-01	0	57	104	0	53	34916
2026-01-19 03:19:46.31	356.64	6.17	-41.4	-60.7	3.8	7.49e-01	0	57	104	0	53	35031
2026-01-19 03:19:49.34	356.25	6.33	-41.4	-60.7	3.8	7.46e-01	0	57	104	0	53	34989
2026-01-19 03:19:52.38	355.86	6.50	-41.4	-60.7	3.8	7.46e-01	0	57	104	0	53	34973
2026-01-19 03:19:55.41	355.47	6.67	-41.4	-60.7	3.8	7.44e-01	0	57	104	0	53	34914
2026-01-19 03:19:58.44	355.07	6.84	-41.4	-60.7	3.8	7.43e-01	0	57	104	0	53	34932
2026-01-19 03:20:01.46	354.66	7.00	-41.4	-60.7	3.8	7.47e-01	0	57	104	0	53	34954
2026-01-19 03:20:04.49	354.25	7.17	-41.4	-60.7	3.8	7.46e-01	0	58	104	0	53	34941
2026-01-19 03:20:07.52	353.84	7.34	-41.4	-60.7	3.8	7.45e-01	0	58	104	0	53	34972
2026-01-19 03:20:10.55	353.42	7.50	-41.4	-60.7	3.8	7.47e-01	0	58	104	0	53	34981
2026-01-19 03:20:13.58	352.99	7.67	-41.4	-60.7	3.8	7.44e-01	0	58	104	0	53	34931
2026-01-19 03:20:16.62	352.56	7.84	-41.4	-60.7	3.8	7.45e-01	0	58	104	0	53	34970
2026-01-19 03:20:19.65	352.12	8.01	-41.4	-60.7	3.8	7.48e-01	0	58	104	0	53	34973
2026-01-19 03:20:22.68	351.68	8.17	-41.5	-60.7	3.8	7.44e-01	0	58	104	0	53	35023
2026-01-19 03:20:25.70	351.23	8.34	-41.6	-60.8	3.8	7.44e-01	0	58	104	0	54	33384
2026-01-19 03:20:28.73	350.77	8.50	-41.7	-60.8	3.8	7.45e-01	0	58	104	0	54	33417
2026-01-19 03:20:31.76	350.31	8.67	-41.6	-60.8	3.8	7.45e-01	0	59	104	0	54	33626
2026-01-19 03:20:34.79	349.85	8.83	-41.6	-60.8	3.8	7.44e-01	0	58	104	0	54	33358
2026-01-19 03:20:37.82	349.38	9.00	-41.7	-60.9	3.8	7.45e-01	0	58	104	0	54	33733
2026-01-19 03:20:40.84	348.90	9.16	-41.8	-61.0	3.8	7.45e-01	0	58	104	0	54	34088
2026-01-19 03:20:43.87	348.42	9.32	-42.1	-61.2	3.8	7.47e-01	0	59	104	0	54	35017
2026-01-19 03:20:46.90	347.93	9.48	-42.1	-61.1	3.8	7.48e-01	0	59	104	0	54	34776
2026-01-19 03:20:49.93	347.43	9.64	-42.0	-61.1	3.8	7.46e-01	0	59	104	0	54	34669
2026-01-19 03:20:52.96	346.93	9.81	-42.1	-61.2	3.8	7.43e-01	0	59	104	0	54	35095
2026-01-19 03:20:55.99	346.42	9.97	-41.6	-60.9	3.8	7.46e-01	0	59	104	0	54	33770
2026-01-19 03:20:59.02	345.91	10.12	-41.8	-60.9	3.8	7.44e-01	0	59	104	0	54	33871
2026-01-19 03:21:02.05	345.39	10.28	-41.6	-60.9	3.8	7.45e-01	0	59	104	0	54	34061
2026-01-19 03:21:05.07	344.86	10.44	-41.6	-60.8	3.8	7.45e-01	0	59	104	0	54	33577
2026-01-19 03:21:08.10	344.33	10.59	-41.6	-60.7	3.8	7.45e-01	0	59	104	0	54	33130
2026-01-19 03:21:11.13	343.79	10.75	-41.5	-60.7	3.8	7.43e-01	0	59	104	0	54	33013
2026-01-19 03:21:14.16	343.25	10.90	-41.6	-60.8	3.8	7.44e-01	0	59	104	0	54	33494
2026-01-19 03:21:17.19	342.69	11.05	-41.6	-60.7	3.8	7.44e-01	0	59	104	0	54	33236
2026-01-19 03:21:20.22	342.14	11.20	-41.4	-60.7	3.8	7.45e-01	0	59	104	0	54	33097
2026-01-19 03:21:23.25	341.57	11.35	-41.3	-60.6	3.8	7.46e-01	0	59	104	0	54	32826
2026-01-19 03:21:26.28	341.00	11.50	-41.8	-60.9	3.8	7.45e-01	0	60	104	0	54	33799
2026-01-19 03:21:29.30	340.43	11.64	-41.4	-60.5	3.8	7.46e-01	0	59	104	0	54	32217
2026-01-19 03:21:32.33	339.84	11.79	-41.6	-59.9	3.8	7.44e-01	0	60	104	0	54	30370
2026-01-19 03:21:35.36	339.25	11.93	-43.2	-53.2	8.5	6.40e-01	19	60	0	524288	57	11736
2026-01-19 03:21:38.39	338.66	12.07	-42.8	-49.8	12.1	6.09e-01	0	60	0	2097152	57	7985
2026-01-19 03:21:41.42	338.06	12.21	-41.7	-46.2	16.0	6.04e-01	0	60	0	7340032	55	5862
2026-01-19 03:21:44.45	337.45	12.34	-42.2	-46.8	15.7	6.02e-01	0	60	0	13107200	55	6291
2026-01-19 03:21:47.48	336.84	12.48	-42.1	-46.4	16.2	6.01e-01	0	60	0	18874368	55	6041
2026-01-19 03:21:50.50	336.22	12.61	-41.9	-45.9	16.8	6.02e-01	0	60	0	24641536	55	5670
2026-01-19 03:21:53.53	335.59	12.74	-41.9	-45.8	17.1	6.04e-01	0	60	0	30408704	55	5616
2026-01-19 03:21:56.56	334.96	12.87	-42.0	-45.8	17.2	6.06e-01	0	60	0	36175872	55	5597
2026-01-19 03:21:59.59	334.32	12.99	-42.1	-45.9	17.2	6.04e-01	0	60	0	41418752	55	5665
2026-01-19 03:22:02.61	333.68	13.11	-42.0	-45.8	17.3	6.04e-01	0	60	0	47185920	55	5604
2026-01-19 03:22:05.64	333.03	13.23	-42.1	-45.8	17.4	6.03e-01	0	60	0	52953088	55	5606
2026-01-19 03:22:08.67	332.38	13.35	-42.1	-45.8	17.4	6.02e-01	0	60	0	58720256	55	5617
2026-01-19 03:22:11.69	331.72	13.46	-42.1	-45.8	17.4	6.02e-01	0	60	0	64487424	55	5629
2026-01-19 03:22:14.72	331.05	13.57	-42.1	-45.8	17.5	6.04e-01	0	60	0	69730304	55	5607
2026-01-19 03:22:17.75	330.38	13.68	-42.2	-45.9	17.4	6.05e-01	0	60	0	75497472	55	5706
2026-01-19 03:22:20.78	329.70	13.78	-42.2	-45.9	17.4	6.01e-01	0	60	0	81264640	55	5709
2026-01-19 03:22:23.81	329.02	13.88	-42.3	-46.0	17.3	6.02e-01	0	60	0	87031808	55	5768
2026-01-19 03:22:26.84	328.34	13.98	-42.2	-45.8	17.6	6.05e-01	0	60	0	92798976	55	5608
2026-01-19 03:22:29.87	327.64	14.07	-42.2	-45.9	17.5	6.01e-01	0	60	0	98566144	55	5669
2026-01-19 03:22:32.90	326.95	14.16	-42.3	-45.9	17.5	6.04e-01	0	60	0	104333312	55	5712
2026-01-19 03:22:35.93	326.25	14.25	-42.2	-45.8	17.6	6.03e-01	0	60	0	109576192	55	5655
2026-01-19 03:22:38.96	325.54	14.33	-42.3	-45.9	17.6	6.04e-01	0	60	0	115343360	55	5690
2026-01-19 03:22:41.99	324.83	14.41	-42.2	-45.8	17.6	6.04e-01	0	60	0	121110528	55	5624
2026-01-19 03:22:45.01	324.12	14.48	-42.2	-45.7	17.8	6.04e-01	0	60	0	126877696	55	5558
2026-01-19 03:22:48.04	323.40	14.55	-42.2	-45.9	17.6	6.02e-01	0	60	0	132644864	55	5660
2026-01-19 03:22:51.07	322.68	14.62	-42.3	-45.9	17.5	6.01e-01	0	60	0	137887744	55	5719
2026-01-19 03:22:54.10	321.96	14.68	-42.3	-45.9	17.6	6.03e-01	0	60	0	143654912	55	5679
2026-01-19 03:22:57.13	321.23	14.74	-42.3	-45.9	17.5	6.01e-01	0	60	0	149422080	55	5718
2026-01-19 03:23:00.16	320.50	14.80	-42.3	-46.0	17.5	6.03e-01	0	60	0	155189248	55	5730
2026-01-19 03:23:03.19	319.77	14.85	-42.5	-46.4	17.1	6.05e-01	0	60	0	160956416	55	6024
2026-01-19 03:23:06.22	319.03	14.89	-42.2	-45.8	17.6	6.01e-01	0	60	0	166723584	55	5643
2026-01-19 03:23:09.24	318.30	14.93	-42.3	-46.0	17.5	6.03e-01	0	60	0	172490752	55	5742
2026-01-19 03:23:12.27	317.56	14.97	-42.3	-46.0	17.5	6.04e-01	0	60	0	177733632	55	5745
2026-01-19 03:23:15.30	316.81	15.00	-42.4	-46.0	17.4	6.05e-01	0	60	0	183500800	55	5787
2026-01-19 03:23:18.33	316.07	15.03	-42.3	-46.0	17.5	6.07e-01	0	61	0	189267968	55	5769
2026-01-19 03:23:21.36	315.32	15.05	-42.1	-45.7	17.9	6.03e-01	0	61	0	195035136	55	5529
2026-01-19 03:23:24.39	314.58	15.07	-42.6	-46.6	16.9	6.03e-01	0	60	0	200802304	55	6148
2026-01-19 03:23:27.42	313.83	15.09	-42.1	-45.6	17.9	6.03e-01	0	61	0	206045184	55	5522
2026-01-19 03:23:30.45	313.08	15.09	-42.4	-46.2	17.3	6.03e-01	0	60	0	211812352	55	5879
2026-01-19 03:23:33.48	312.33	15.10	-42.3	-45.9	17.6	6.02e-01	0	61	0	217579520	55	5663
2026-01-19 03:23:36.51	311.59	15.10	-42.5	-46.3	17.2	6.03e-01	0	60	0	223346688	55	5930
2026-01-19 03:23:39.53	310.84	15.09	-42.1	-45.5	18.0	6.03e-01	0	61	0	229113856	55	5422
2026-01-19 03:23:42.56	310.09	15.09	-42.4	-46.2	17.2	6.06e-01	0	61	0	234881024	55	5921
2026-01-19 03:23:45.59	309.34	15.07	-42.2	-45.8	17.7	6.03e-01	0	61	0	240648192	55	5638
2026-01-19 03:23:48.62	308.60	15.05	-42.6	-46.5	17.0	6.04e-01	0	61	0	245891072	55	6098
2026-01-19 03:23:51.65	307.85	15.03	-42.0	-45.4	18.1	6.02e-01	0	61	0	251658240	55	5343
2026-01-19 03:23:54.67	307.11	15.00	-42.4	-46.2	17.2	6.03e-01	0	61	0	257425408	55	5906
2026-01-19 03:23:57.70	306.37	14.97	-42.4	-46.2	17.3	6.02e-01	0	61	0	263192576	55	5861
2026-01-19 03:24:00.73	305.62	14.93	-42.2	-45.8	17.7	6.02e-01	0	61	0	268959744	55	5608
2026-01-19 03:24:03.76	304.89	14.89	-42.2	-45.9	17.6	6.02e-01	0	61	0	274202624	55	5668
2026-01-19 03:24:06.79	304.15	14.85	-42.4	-46.2	17.2	6.03e-01	0	61	0	279969792	55	5857
2026-01-19 03:24:09.81	303.42	14.80	-42.2	-45.8	17.7	6.02e-01	0	61	0	285736960	55	5593
2026-01-19 03:24:12.84	302.68	14.74	-42.1	-45.7	17.6	6.01e-01	0	61	0	291504128	55	5562
2026-01-19 03:24:15.87	301.96	14.68	-42.5	-46.4	17.0	6.04e-01	0	61	0	297271296	55	6036
2026-01-19 03:24:18.90	301.23	14.62	-42.3	-46.0	17.4	6.02e-01	0	61	0	303038464	55	5751
2026-01-19 03:24:21.92	300.51	14.56	-42.5	-46.5	16.6	6.03e-01	0	61	0	308281344	55	6070
2026-01-19 03:24:24.95	299.79	14.48	-42.6	-46.8	16.5	6.04e-01	0	61	0	314048512	55	6278
2026-01-19 03:24:27.98	299.08	14.41	-42.3	-46.0	17.2	6.03e-01	0	61	0	319815680	55	5780
2026-01-19 03:24:31.01	298.37	14.33	-42.6	-46.8	16.4	6.01e-01	0	61	0	325582848	55	6306
2026-01-19 03:24:34.04	297.66	14.25	-42.3	-46.2	16.9	6.04e-01	0	61	0	331350016	55	5877
2026-01-19 03:24:37.06	296.96	14.16	-42.2	-46.1	17.1	6.01e-01	0	61	0	337117184	55	5799
2026-01-19 03:24:40.09	296.26	14.07	-42.4	-46.6	16.4	6.04e-01	0	61	0	342360064	55	6178
2026-01-19 03:24:43.12	295.57	13.98	-42.2	-46.2	16.7	6.03e-01	0	61	0	348127232	55	5879
2026-01-19 03:24:46.15	294.88	13.88	-42.0	-45.7	17.1	6.02e-01	0	61	0	353894400	55	5586
2026-01-19 03:24:49.18	294.19	13.78	-42.0	-46.0	16.8	6.03e-01	0	61	0	359661568	55	5758
2026-01-19 03:24:52.21	293.52	13.68	-42.3	-46.8	15.9	6.04e-01	0	61	0	365428736	55	6278
2026-01-19 03:24:55.23	292.84	13.57	-42.1	-46.3	16.4	6.05e-01	0	61	0	370671616	55	5971
2026-01-19 03:24:58.26	292.18	13.46	-42.0	-46.2	16.3	6.04e-01	0	61	0	376438784	55	5900
2026-01-19 03:25:01.29	291.51	13.35	-41.9	-46.2	16.2	6.03e-01	0	61	0	382205952	55	5906
2026-01-19 03:25:04.31	290.86	13.23	-41.9	-46.1	16.3	6.02e-01	0	61	0	387973120	55	5829
2026-01-19 03:25:07.34	290.21	13.11	-41.9	-46.2	16.1	6.05e-01	0	61	0	393740288	55	5913
2026-01-19 03:25:10.37	289.56	12.99	-41.7	-46.0	16.3	6.02e-01	0	61	0	399507456	55	5775
2026-01-19 03:25:13.40	288.92	12.87	-41.7	-46.1	16.1	6.01e-01	0	61	0	405274624	55	5835
2026-01-19 03:25:16.43	288.28	12.74	-42.0	-46.9	15.2	6.03e-01	0	61	0	410517504	55	6392
2026-01-19 03:25:19.46	287.66	12.61	-41.8	-46.5	15.5	6.02e-01	0	61	0	416284672	55	6126
2026-01-19 03:25:22.48	287.03	12.48	-41.9	-46.7	15.4	6.05e-01	0	61	0	422051840	55	6217
2026-01-19 03:25:25.52	286.42	12.34	-42.2	-47.6	14.4	6.03e-01	0	61	0	427819008	55	6921
2026-01-19 03:25:28.55	285.81	12.21	-42.5	-48.6	13.3	6.02e-01	0	61	0	433586176	55	7762
2026-01-19 03:25:31.58	285.20	12.07	-42.5	-48.4	13.7	6.05e-01	0	61	0	438829056	55	7549
2026-01-19 03:25:34.61	284.60	11.93	-42.1	-47.6	14.4	6.03e-01	0	61	0	444596224	55	6881
2026-01-19 03:25:37.63	284.01	11.79	-42.2	-47.7	14.3	6.04e-01	0	61	0	450363392	55	6969
2026-01-19 03:25:40.66	283.43	11.64	-42.1	-47.1	15.0	6.04e-01	0	61	0	456130560	55	6531
2026-01-19 03:25:43.69	282.85	11.50	-41.7	-46.2	15.8	6.03e-01	0	61	0	461897728	55	5894
2026-01-19 03:25:46.72	282.27	11.35	-41.5	-45.7	16.5	6.01e-01	0	61	0	467664896	55	5568
2026-01-19 03:25:49.74	281.71	11.20	-41.5	-45.5	16.8	6.03e-01	0	61	0	473432064	54	5775
2026-01-19 03:25:52.77	281.15	11.05	-41.6	-45.8	16.6	6.04e-01	0	61	0	478674944	54	5948
2026-01-19 03:25:55.80	280.59	10.90	-41.9	-46.3	16.0	6.00e-01	0	61	0	484442112	54	6343
2026-01-19 03:25:58.83	280.04	10.74	-41.8	-46.2	15.9	6.03e-01	0	61	0	490209280	54	6273
2026-01-19 03:26:01.86	279.50	10.59	-41.9	-46.7	15.4	6.03e-01	0	61	0	495976448	54	6574
2026-01-19 03:26:04.88	278.97	10.43	-41.9	-46.9	15.0	6.03e-01	0	61	0	501743616	54	6751
2026-01-19 03:26:07.92	278.44	10.27	-41.9	-47.1	14.8	6.02e-01	0	61	0	506986496	54	6903
2026-01-19 03:26:10.94	277.92	10.12	-42.0	-47.4	14.4	6.05e-01	0	61	0	512753664	54	7189
2026-01-19 03:26:13.97	277.40	9.96	-42.0	-47.9	13.7	6.06e-01	0	61	0	518520832	54	7619
2026-01-19 03:26:17.00	276.89	9.80	-42.1	-48.7	12.7	6.07e-01	0	61	0	524288000	54	8289
2026-01-19 03:26:20.03	276.38	9.64	-42.1	-49.8	11.3	6.12e-01	0	61	0	530055168	54	9474
2026-01-19 03:26:23.05	275.88	9.47	-42.1	-50.6	10.3	6.16e-01	0	61	0	535822336	54	10299
2026-01-19 03:26:26.08	275.39	9.31	-42.2	-51.8	8.8	6.36e-01	3	61	0	541065216	55	11256
2026-01-19 03:26:29.11	274.90	9.15	-42.2	-53.1	7.4	6.57e-01	92	61	0	546832384	55	13026
2026-01-19 03:26:32.14	274.42	8.98	-42.1	-53.9	6.6	6.73e-01	82	61	0	552599552	55	14274
2026-01-19 03:26:35.17	273.95	8.82	-42.7	-55.4	5.7	6.92e-01	92	62	0	557842432	56	16057
2026-01-19 03:26:38.19	273.48	8.66	-42.2	-59.2	3.8	7.44e-01	0	61	104	558366720	55	26459
2026-01-19 03:26:41.22	273.02	8.49	-41.8	-57.9	4.1	7.37e-01	0	61	104	558366720	55	22739
2026-01-19 03:26:44.25	272.56	8.32	-41.2	-59.7	3.8	7.45e-01	0	61	104	558366720	54	29515
2026-01-19 03:26:47.28	272.11	8.16	-42.2	-58.6	4.0	7.40e-01	0	62	104	558366720	55	24601
2026-01-19 03:26:50.31	271.66	7.99	-42.1	-58.0	3.9	7.40e-01	0	61	104	558366720	55	22977
2026-01-19 03:26:53.34	271.22	7.82	-46.0	-64.6	3.8	7.48e-01	0	62	104	558366720	62	32835
2026-01-19 03:26:56.37	270.78	7.66	-46.3	-64.9	3.8	7.46e-01	0	61	104	558366720	63	32152
2026-01-19 03:26:59.40	270.35	7.49	-46.4	-65.0	3.8	7.45e-01	0	62	104	558366720	63	32419
2026-01-19 03:27:02.43	269.93	7.32	-46.3	-64.9	3.8	7.45e-01	0	62	104	558366720	63	32092
2026-01-19 03:27:05.46	269.51	7.15	-46.3	-64.9	3.8	7.46e-01	0	61	104	558366720	63	32005
2026-01-19 03:27:08.49	269.10	6.99	-46.3	-64.8	3.8	7.42e-01	0	61	104	558366720	63	31784
2026-01-19 03:27:11.52	268.69	6.82	-46.3	-64.9	3.8	7.47e-01	0	61	104	558366720	63	31857
2026-01-19 03:27:14.55	268.29	6.65	-46.2	-64.9	3.8	7.44e-01	0	61	104	558366720	63	31824
2026-01-19 03:27:17.59	267.89	6.48	-46.3	-64.8	3.8	7.43e-01	0	62	104	558366720	63	31786
2026-01-19 03:27:20.62	267.49	6.31	-46.3	-64.8	3.8	7.50e-01	0	62	104	558366720	63	31768
2026-01-19 03:27:23.65	267.10	6.15	-46.3	-64.8	3.8	7.44e-01	0	62	104	558366720	63	31713
2026-01-19 03:27:26.68	266.72	5.98	-46.3	-64.8	3.8	7.44e-01	0	62	104	558366720	63	31744
2026-01-19 03:27:29.71	266.34	5.81	-46.2	-64.8	3.8	7.45e-01	0	62	104	558366720	63	31673
2026-01-19 03:27:32.74	265.97	5.64	-46.2	-64.8	3.8	7.47e-01	0	62	104	558366720	63	31691
2026-01-19 03:27:35.77	265.60	5.47	-46.2	-64.8	3.8	7.45e-01	0	62	104	558366720	63	31657
2026-01-19 03:27:38.80	265.24	5.31	-46.2	-64.8	3.8	7.47e-01	0	62	104	558366720	63	31730
2026-01-19 03:27:41.83	264.88	5.14	-46.2	-64.8	3.8	7.44e-01	0	62	104	558366720	63	31665
2026-01-19 03:27:44.86	264.52	4.97	-46.2	-64.8	3.8	7.44e-01	0	62	104	558366720	63	31680
2026-01-19 03:27:47.89	264.17	4.81	-46.2	-64.8	3.8	7.48e-01	0	62	104	558366720	63	31626
2026-01-19 03:27:50.93	263.82	4.64	-46.2	-64.8	3.8	7.44e-01	0	62	104	558366720	63	31539
2026-01-19 03:27:53.96	263.48	4.47	-46.2	-64.8	3.8	7.46e-01	0	62	104	558366720	63	31553
2026-01-19 03:27:56.99	263.14	4.31	-46.2	-64.8	3.8	7.42e-01	0	62	104	558366720	63	31584
2026-01-19 03:28:00.02	262.81	4.14	-46.2	-64.8	3.8	7.50e-01	0	62	104	558366720	63	31523
2026-01-19 03:28:03.05	262.48	3.98	-46.2	-64.8	3.8	7.47e-01	0	62	104	558366720	63	31574
2026-01-19 03:28:06.08	262.16	3.81	-46.2	-64.8	3.8	7.43e-01	0	62	104	558366720	63	31475
2026-01-19 03:28:09.12	261.84	3.65	-46.2	-64.8	3.8	7.46e-01	0	62	104	558366720	63	31477
2026-01-19 03:28:12.15	261.52	3.48	-46.2	-64.8	3.8	7.47e-01	0	62	104	558366720	63	31498
2026-01-19 03:28:15.18	261.21	3.32	-46.2	-64.8	3.8	7.46e-01	0	62	104	558366720	63	31517
2026-01-19 03:28:18.21	260.90	3.15	-46.2	-64.8	3.8	7.46e-01	0	62	104	558366720	63	31508
2026-01-19 03:28:21.24	260.59	2.99	-46.2	-64.8	3.8	7.46e-01	0	62	104	558366720	63	31504
2026-01-19 03:28:24.27	260.29	2.83	-46.2	-64.7	3.8	7.44e-01	0	62	104	558366720	63	31438
2026-01-19 03:28:27.30	259.99	2.67	-46.2	-64.8	3.8	7.46e-01	0	62	104	558366720	63	31508
2026-01-19 03:28:30.34	259.70	2.50	-46.2	-64.8	3.8	7.45e-01	0	62	104	558366720	63	31476
2026-01-19 03:28:33.37	259.41	2.34	-46.2	-64.7	3.8	7.45e-01	0	62	104	558366720	63	31416
2026-01-19 03:28:36.40	259.12	2.18	-46.2	-64.8	3.8	7.46e-01	0	62	104	558366720	63	31527
2026-01-19 03:28:39.43	258.84	2.02	-46.2	-64.8	3.8	7.47e-01	0	62	104	558366720	63	31471

#Closed at: 2026-01-19 03:28:41
#Recorded file [558 MB]: D:/lorett/data/31039_260119_061830.dat