passes_logs/2026/01/08/R3.2S_Murmansk/R3.2S_Murmansk__20260108_002303_NOAA_20_JPSS-1_rec.log

#Pass ID: 20260108_002303_NOAA 20 (JPSS-1)
#Satellite: NOAA 20 (JPSS-1)
#Configuration: NOAA 20
#almurnet v.1.7.20251203
#Start time: 2026-01-08 00:23:04

#Version: 2.2.20231116
#Station: R3.2S_Murmansk
#Location: 33.079688 lon 68.888172 lat
#TLE: 1 43013U 17073A   26006.30790171  .00000126  00000+0  80695-4 0  9991
#TLE: 2 43013  98.7629 307.3394 0001808  51.8724 308.2615 14.19533762421505

#Time	Az	El	Level	Level2	SNR	BER	BlckErr	Temp	State	Recorded	gain1	gain2
2026-01-08 00:23:04.34	23.44	2.05	-57.6	-73.6	3.8	1.49e+00	0	23	0	0	81	22701
2026-01-08 00:23:08.34	23.48	2.31	-57.6	-73.6	3.8	1.49e+00	0	23	104	0	80	23962
2026-01-08 00:23:12.33	23.53	2.57	-57.6	-73.6	3.8	1.49e+00	0	23	104	0	80	23916
2026-01-08 00:23:16.32	23.58	2.83	-57.6	-73.3	3.8	1.49e+00	0	23	104	0	80	23138
2026-01-08 00:23:20.33	23.63	3.09	-57.5	-72.0	3.8	1.49e+00	0	23	104	0	80	19971
2026-01-08 00:23:24.31	23.68	3.36	-57.5	-71.7	3.8	1.49e+00	0	23	104	0	80	19203
2026-01-08 00:23:28.30	23.73	3.62	-57.5	-72.8	3.8	1.49e+00	0	23	104	0	80	21804
2026-01-08 00:23:32.30	23.78	3.89	-57.5	-70.9	3.9	1.48e+00	0	23	104	0	80	17625
2026-01-08 00:23:36.29	23.83	4.17	-57.1	-66.5	5.8	3.94e-01	0	24	0	5242880	80	10565
2026-01-08 00:23:40.28	23.88	4.44	-56.8	-64.3	7.5	6.17e-02	0	24	0	12582912	80	8228
2026-01-08 00:23:44.30	23.94	4.72	-56.6	-63.9	7.9	4.37e-02	0	24	0	19922944	79	8287
2026-01-08 00:23:48.31	23.99	5.01	-56.9	-64.9	7.0	9.20e-02	0	24	0	28311552	79	9347
2026-01-08 00:23:52.31	24.05	5.29	-57.1	-67.0	5.3	8.01e-01	0	24	0	35651584	79	11863
2026-01-08 00:23:56.31	24.10	5.58	-54.2	-57.5	13.0	0.00e+00	0	24	0	40894464	75	4984
2026-01-08 00:24:00.31	24.16	5.87	-53.6	-56.4	13.5	0.00e+00	0	24	0	48234496	73	4958
2026-01-08 00:24:04.30	24.21	6.16	-53.3	-55.9	13.8	0.00e+00	0	24	0	55574528	73	4685
2026-01-08 00:24:08.28	24.27	6.46	-53.2	-55.7	13.9	0.00e+00	0	24	0	62914560	73	4598
2026-01-08 00:24:12.28	24.33	6.76	-53.2	-55.8	13.8	0.00e+00	0	24	0	70254592	72	4875
2026-01-08 00:24:16.27	24.39	7.07	-53.1	-55.6	13.9	0.00e+00	0	24	0	77594624	72	4769
2026-01-08 00:24:20.26	24.45	7.37	-53.1	-55.5	14.0	0.00e+00	0	24	0	84934656	72	4721
2026-01-08 00:24:24.23	24.51	7.68	-53.0	-55.3	14.1	0.00e+00	0	24	0	93323264	72	4648
2026-01-08 00:24:28.21	24.57	8.00	-52.8	-55.1	14.2	0.00e+00	0	24	0	100663296	72	4534
2026-01-08 00:24:32.19	24.63	8.32	-52.8	-55.1	14.3	0.00e+00	0	24	0	108003328	72	4517
2026-01-08 00:24:36.20	24.70	8.64	-52.6	-54.8	14.3	0.00e+00	0	24	0	115343360	71	4637
2026-01-08 00:24:40.19	24.76	8.97	-52.7	-54.9	14.3	0.00e+00	0	24	0	122683392	71	4670
2026-01-08 00:24:44.19	24.83	9.30	-52.6	-54.8	14.3	0.00e+00	0	25	0	130023424	71	4613
2026-01-08 00:24:48.18	24.89	9.64	-52.4	-54.4	14.5	0.00e+00	0	24	0	137363456	71	4438
2026-01-08 00:24:52.17	24.96	9.98	-52.3	-54.4	14.6	0.00e+00	0	24	0	144703488	71	4405
2026-01-08 00:24:56.16	25.03	10.33	-52.3	-54.3	14.6	0.00e+00	0	25	0	153092096	71	4361
2026-01-08 00:25:00.15	25.10	10.68	-52.1	-54.1	14.6	0.00e+00	0	24	0	160432128	70	4523
2026-01-08 00:25:04.17	25.17	11.04	-52.1	-54.1	14.6	0.00e+00	0	24	0	167772160	70	4494
2026-01-08 00:25:08.17	25.25	11.40	-52.1	-54.0	14.6	0.00e+00	0	24	0	175112192	70	4481
2026-01-08 00:25:12.15	25.32	11.76	-51.9	-53.8	14.7	0.00e+00	0	24	0	182452224	70	4355
2026-01-08 00:25:16.15	25.40	12.14	-51.8	-53.7	14.8	0.00e+00	0	24	0	189792256	70	4317
2026-01-08 00:25:20.13	25.47	12.51	-51.7	-53.5	14.9	0.00e+00	0	25	0	197132288	70	4241
2026-01-08 00:25:24.12	25.55	12.90	-51.8	-53.6	14.8	0.00e+00	0	25	0	205520896	70	4267
2026-01-08 00:25:28.12	25.63	13.29	-51.7	-53.6	14.9	0.00e+00	0	24	0	212860928	70	4244
2026-01-08 00:25:32.12	25.71	13.68	-51.6	-53.4	14.8	0.00e+00	0	25	0	220200960	69	4440
2026-01-08 00:25:36.10	25.80	14.09	-51.6	-53.4	14.8	0.00e+00	0	24	0	227540992	69	4434
2026-01-08 00:25:40.09	25.88	14.50	-51.6	-53.4	14.8	0.00e+00	0	25	0	234881024	69	4420
2026-01-08 00:25:44.10	25.97	14.91	-51.6	-53.3	14.8	0.00e+00	0	25	0	242221056	69	4389
2026-01-08 00:25:48.11	26.06	15.34	-51.6	-53.4	14.8	0.00e+00	0	25	0	249561088	69	4393
2026-01-08 00:25:52.10	26.15	15.77	-51.6	-53.4	14.8	0.00e+00	0	25	0	257949696	69	4399
2026-01-08 00:25:56.08	26.25	16.21	-51.6	-53.4	14.8	0.00e+00	0	25	0	265289728	69	4419
2026-01-08 00:26:00.06	26.34	16.66	-51.7	-53.5	14.8	0.00e+00	0	25	0	272629760	69	4477
2026-01-08 00:26:04.07	26.44	17.11	-51.8	-53.7	14.7	0.00e+00	0	24	0	279969792	69	4557
2026-01-08 00:26:08.06	26.54	17.58	-52.0	-53.9	14.6	0.00e+00	0	25	0	287309824	69	4684
2026-01-08 00:26:12.06	26.65	18.05	-52.1	-54.1	14.5	0.00e+00	0	25	0	294649856	69	4765
2026-01-08 00:26:16.05	26.75	18.53	-52.2	-54.1	14.5	0.00e+00	0	25	0	301989888	69	4788
2026-01-08 00:26:20.02	26.86	19.02	-52.5	-54.5	14.4	0.00e+00	0	25	0	309329920	70	4731
2026-01-08 00:26:24.03	26.98	19.53	-52.5	-54.5	14.4	0.00e+00	0	25	0	317718528	70	4757
2026-01-08 00:26:28.00	27.09	20.03	-52.7	-54.8	14.2	0.00e+00	0	25	0	325058560	70	4916
2026-01-08 00:26:31.97	27.21	20.55	-52.8	-54.9	14.2	0.00e+00	0	25	0	332398592	70	4981
2026-01-08 00:26:35.94	27.33	21.09	-52.9	-55.1	14.2	0.00e+00	0	25	0	339738624	70	5047
2026-01-08 00:26:39.93	27.46	21.63	-52.9	-55.0	14.2	0.00e+00	0	25	0	347078656	70	5005
2026-01-08 00:26:43.92	27.59	22.19	-52.7	-54.8	14.3	0.00e+00	0	25	0	354418688	70	4895
2026-01-08 00:26:47.91	27.72	22.76	-52.6	-54.7	14.4	0.00e+00	0	25	0	361758720	70	4833
2026-01-08 00:26:51.90	27.86	23.34	-52.5	-54.5	14.4	0.00e+00	0	25	0	370147328	70	4742
2026-01-08 00:26:55.89	28.00	23.93	-52.4	-54.3	14.6	0.00e+00	0	25	0	377487360	70	4625
2026-01-08 00:26:59.88	28.15	24.54	-52.1	-54.0	14.7	0.00e+00	0	25	0	384827392	70	4471
2026-01-08 00:27:03.88	28.31	25.17	-51.9	-53.7	14.9	0.00e+00	0	25	0	392167424	70	4300
2026-01-08 00:27:07.89	28.47	25.81	-51.8	-53.6	14.9	0.00e+00	0	24	0	399507456	70	4244
2026-01-08 00:27:11.88	28.63	26.46	-51.9	-53.6	14.9	0.00e+00	0	25	0	406847488	70	4287
2026-01-08 00:27:15.87	28.80	27.13	-52.4	-54.3	14.5	0.00e+00	0	25	0	414187520	70	4631
2026-01-08 00:27:19.87	28.98	27.82	-53.0	-55.1	14.3	0.00e+00	0	25	0	422576128	71	4771
2026-01-08 00:27:23.85	29.17	28.52	-53.4	-55.7	14.1	0.00e+00	0	25	0	429916160	72	4816
2026-01-08 00:27:27.86	29.36	29.24	-53.7	-56.1	13.9	0.00e+00	0	25	0	437256192	72	5055
2026-01-08 00:27:31.84	29.56	29.98	-53.9	-56.3	13.9	0.00e+00	0	25	0	444596224	73	4897
2026-01-08 00:27:35.82	29.77	30.74	-53.9	-56.3	13.9	0.00e+00	0	25	0	451936256	73	4901
2026-01-08 00:27:39.82	29.99	31.52	-53.9	-56.4	13.9	0.00e+00	0	25	0	459276288	73	4939
2026-01-08 00:27:43.79	30.22	32.32	-53.5	-55.8	14.3	0.00e+00	0	25	0	466616320	73	4599
2026-01-08 00:27:47.80	30.46	33.15	-53.6	-55.8	14.2	0.00e+00	0	25	0	473956352	73	4638
2026-01-08 00:27:51.80	30.71	33.99	-53.0	-55.0	14.5	0.00e+00	0	25	0	482344960	72	4486
2026-01-08 00:27:55.80	30.98	34.86	-52.3	-54.2	14.8	0.00e+00	0	25	0	489684992	71	4295
2026-01-08 00:27:59.80	31.26	35.76	-51.6	-53.3	14.9	0.00e+00	0	25	0	497025024	69	4370
2026-01-08 00:28:03.80	31.55	36.68	-51.7	-53.5	14.9	0.00e+00	0	25	0	504365056	69	4443
2026-01-08 00:28:07.77	31.86	37.61	-52.1	-53.8	14.7	0.00e+00	0	25	0	511705088	69	4643
2026-01-08 00:28:11.77	32.19	38.59	-53.4	-55.3	14.3	0.00e+00	0	25	0	519045120	71	4896
2026-01-08 00:28:15.78	32.53	39.59	-53.1	-55.2	14.3	0.00e+00	0	25	0	527433728	71	4846
2026-01-08 00:28:19.77	32.90	40.61	-52.9	-54.9	14.5	0.00e+00	0	25	0	534773760	71	4662
2026-01-08 00:28:23.77	33.29	41.67	-53.5	-55.6	14.2	0.00e+00	0	25	0	542113792	72	4809
2026-01-08 00:28:27.75	33.71	42.75	-53.5	-55.7	14.1	0.00e+00	0	25	0	549453824	72	4848
2026-01-08 00:28:31.72	34.15	43.86	-53.1	-55.1	14.5	0.00e+00	0	25	0	556793856	72	4540
2026-01-08 00:28:35.69	34.63	45.00	-53.2	-55.3	14.4	0.00e+00	0	25	0	564133888	72	4609
2026-01-08 00:28:39.66	35.13	46.17	-53.6	-55.8	14.1	0.00e+00	0	25	0	571473920	72	4916
2026-01-08 00:28:43.65	35.68	47.38	-53.5	-55.6	14.2	0.00e+00	0	25	0	578813952	72	4812
2026-01-08 00:28:47.65	36.28	48.63	-53.2	-55.3	14.4	0.00e+00	0	25	0	587202560	72	4610
2026-01-08 00:28:51.63	36.92	49.90	-51.9	-53.7	14.9	0.00e+00	0	25	0	594542592	70	4303
2026-01-08 00:28:55.62	37.62	51.21	-50.7	-52.2	15.3	0.00e+00	0	25	0	601882624	68	4062
2026-01-08 00:28:59.60	38.38	52.55	-49.4	-50.8	15.4	0.00e+00	0	25	0	609222656	65	4119
2026-01-08 00:29:03.59	39.21	53.92	-49.3	-50.6	15.3	0.00e+00	0	25	0	616562688	64	4290
2026-01-08 00:29:07.58	40.12	55.32	-48.8	-50.0	15.5	0.00e+00	0	25	0	623902720	64	3991
2026-01-08 00:29:11.55	41.13	56.75	-50.0	-51.4	15.1	0.00e+00	0	25	0	631242752	65	4411
2026-01-08 00:29:15.54	42.25	58.21	-50.5	-51.9	15.1	0.00e+00	0	24	0	638582784	66	4440
2026-01-08 00:29:19.52	43.50	59.70	-49.2	-50.5	15.5	0.00e+00	0	25	0	645922816	65	4004
2026-01-08 00:29:23.52	44.90	61.21	-49.2	-50.5	15.4	0.00e+00	0	25	0	654311424	64	4216
2026-01-08 00:29:27.51	46.48	62.75	-48.8	-50.1	15.4	0.00e+00	0	25	0	661651456	63	4247
2026-01-08 00:29:31.49	48.27	64.29	-50.2	-51.7	15.1	0.00e+00	0	24	0	668991488	65	4551
2026-01-08 00:29:35.48	50.32	65.84	-51.0	-52.5	15.0	0.00e+00	0	25	0	676331520	67	4491
2026-01-08 00:29:39.45	52.67	67.38	-52.5	-54.3	14.7	0.00e+00	0	25	0	683671552	70	4627
2026-01-08 00:29:43.43	55.39	68.91	-53.8	-56.0	14.1	0.00e+00	0	25	0	691011584	72	4990
2026-01-08 00:29:47.42	58.59	70.43	-52.0	-53.7	14.9	0.00e+00	0	25	0	698351616	70	4316
2026-01-08 00:29:51.42	62.36	71.90	-54.0	-56.3	14.1	0.00e+00	0	25	0	706740224	73	4884
2026-01-08 00:29:55.41	66.80	73.30	-53.7	-55.8	14.3	0.00e+00	0	25	0	714080256	73	4635
2026-01-08 00:29:59.41	72.08	74.61	-53.3	-55.3	14.6	0.00e+00	0	25	0	721420288	73	4371
2026-01-08 00:30:03.40	78.30	75.78	-52.6	-54.4	14.8	0.00e+00	0	25	0	728760320	71	4417
2026-01-08 00:30:07.38	85.56	76.76	-54.3	-56.7	13.8	0.00e+00	0	25	0	736100352	73	5133
2026-01-08 00:30:11.37	93.90	77.52	-53.8	-56.0	14.3	0.00e+00	0	25	0	743440384	73	4706
2026-01-08 00:30:15.37	103.13	77.99	-53.3	-55.3	14.5	0.00e+00	0	25	0	750780416	72	4627
2026-01-08 00:30:19.35	112.83	78.14	-53.8	-55.9	14.4	0.00e+00	0	25	0	758120448	74	4430
2026-01-08 00:30:23.33	122.49	77.96	-54.3	-56.6	13.9	0.00e+00	0	25	0	766509056	73	5090
2026-01-08 00:30:27.34	131.68	77.45	-55.2	-57.9	13.5	0.00e+00	0	25	0	773849088	76	4957
2026-01-08 00:30:31.33	139.91	76.67	-55.5	-58.5	13.2	0.00e+00	0	25	0	781189120	76	5297
2026-01-08 00:30:35.29	147.03	75.67	-55.7	-58.8	13.0	0.00e+00	0	25	0	788529152	76	5468
2026-01-08 00:30:39.27	153.14	74.49	-54.7	-57.2	13.8	0.00e+00	0	25	0	795869184	75	4851
2026-01-08 00:30:43.26	158.33	73.17	-53.8	-55.9	14.3	0.00e+00	0	25	0	803209216	73	4692
2026-01-08 00:30:47.26	162.71	71.76	-52.7	-54.5	14.8	0.00e+00	0	25	0	810549248	71	4461
2026-01-08 00:30:51.25	166.42	70.28	-52.6	-54.5	14.7	0.00e+00	0	25	0	818937856	71	4452
2026-01-08 00:30:55.24	169.57	68.76	-53.9	-56.1	14.1	0.00e+00	0	25	0	826277888	73	4787
2026-01-08 00:30:59.25	172.28	67.21	-53.5	-55.5	14.5	0.00e+00	0	25	0	833617920	73	4458
2026-01-08 00:31:03.24	174.60	65.66	-51.8	-53.4	15.1	0.00e+00	0	25	0	840957952	70	4176
2026-01-08 00:31:07.23	176.62	64.11	-49.5	-50.8	15.4	0.00e+00	0	25	0	848297984	65	4134
2026-01-08 00:31:11.20	178.38	62.57	-49.4	-50.8	15.3	0.00e+00	0	25	0	855638016	64	4355
2026-01-08 00:31:15.20	179.95	61.03	-50.2	-51.7	15.0	0.00e+00	0	25	0	862978048	65	4552
2026-01-08 00:31:19.19	181.33	59.52	-52.3	-54.0	15.0	0.00e+00	0	25	0	871366656	71	4220
2026-01-08 00:31:23.19	182.57	58.03	-54.1	-56.4	13.9	0.00e+00	0	25	0	878706688	73	4977
2026-01-08 00:31:27.19	183.68	56.56	-51.8	-53.4	15.1	0.00e+00	0	25	0	886046720	70	4164
2026-01-08 00:31:31.17	184.67	55.13	-50.4	-51.9	15.3	0.00e+00	0	25	0	893386752	67	4170
2026-01-08 00:31:35.15	185.58	53.73	-50.7	-52.2	15.0	0.00e+00	0	25	0	900726784	66	4555
2026-01-08 00:31:39.13	186.40	52.36	-52.4	-54.2	14.6	0.00e+00	0	25	0	908066816	69	4853
2026-01-08 00:31:43.10	187.15	51.03	-54.7	-57.3	13.6	0.00e+00	0	25	0	915406848	74	5180
2026-01-08 00:31:47.09	187.84	49.72	-56.0	-59.2	12.7	0.00e+00	0	25	0	922746880	77	5457
2026-01-08 00:31:51.08	188.48	48.44	-55.1	-57.7	13.6	0.00e+00	0	25	0	931135488	76	4864
2026-01-08 00:31:55.08	189.07	47.20	-55.3	-58.2	13.2	0.00e+00	0	25	0	938475520	75	5425
2026-01-08 00:31:59.07	189.61	45.99	-54.1	-56.4	14.2	0.00e+00	0	25	0	945815552	74	4653
2026-01-08 00:32:03.07	190.12	44.81	-52.7	-54.5	14.7	0.00e+00	0	25	0	953155584	71	4492
2026-01-08 00:32:07.07	190.59	43.66	-52.8	-54.7	14.5	0.00e+00	0	25	0	960495616	71	4598
2026-01-08 00:32:11.07	191.03	42.54	-51.8	-53.5	15.0	0.00e+00	0	25	0	967835648	70	4202
2026-01-08 00:32:15.06	191.44	41.46	-51.3	-52.8	15.0	0.00e+00	0	25	0	975175680	68	4385
2026-01-08 00:32:19.05	191.83	40.41	-53.1	-55.1	14.4	0.00e+00	0	25	0	983564288	71	4786
2026-01-08 00:32:23.06	192.20	39.38	-52.3	-54.1	14.9	0.00e+00	0	25	0	990904320	71	4263
2026-01-08 00:32:27.04	192.54	38.39	-52.5	-54.2	14.8	0.00e+00	0	25	0	998244352	71	4340
2026-01-08 00:32:31.04	192.86	37.41	-54.0	-56.4	13.9	0.00e+00	0	25	0	1005584384	73	4978
2026-01-08 00:32:35.00	193.17	36.48	-53.6	-55.8	14.3	0.00e+00	0	25	0	1012924416	73	4624
2026-01-08 00:32:38.98	193.46	35.57	-52.5	-54.3	14.7	0.00e+00	0	25	0	1020264448	71	4389
2026-01-08 00:32:42.95	193.73	34.68	-52.8	-54.7	14.5	0.00e+00	0	25	0	1027604480	71	4580
2026-01-08 00:32:46.93	193.99	33.81	-54.8	-57.6	13.4	0.00e+00	0	25	0	1034944512	74	5351
2026-01-08 00:32:50.93	194.24	32.97	-55.5	-58.7	12.9	0.00e+00	0	25	0	1043333120	76	5406
2026-01-08 00:32:54.92	194.48	32.15	-54.3	-56.8	14.0	0.00e+00	0	25	0	1050673152	75	4607
2026-01-08 00:32:58.91	194.71	31.34	-54.1	-56.5	13.9	0.00e+00	0	25	0	1058013184	74	4754
2026-01-08 00:33:02.90	194.93	30.57	-53.8	-56.1	14.2	0.00e+00	0	25	0	1065353216	74	4520
2026-01-08 00:33:06.89	195.13	29.81	-53.5	-55.7	14.3	0.00e+00	0	25	0	1072693248	73	4584
2026-01-08 00:33:10.88	195.33	29.07	-53.3	-55.5	14.4	0.00e+00	0	25	0	1080033280	73	4447
2026-01-08 00:33:14.89	195.52	28.34	-53.0	-55.0	14.5	0.00e+00	0	25	0	1087373312	72	4475
2026-01-08 00:33:18.88	195.71	27.64	-52.1	-53.9	14.8	0.00e+00	0	25	0	1095761920	70	4400
2026-01-08 00:33:22.88	195.88	26.95	-51.9	-53.6	14.9	0.00e+00	0	25	0	1103101952	70	4279
2026-01-08 00:33:26.87	196.05	26.28	-51.8	-53.6	14.9	0.00e+00	0	25	0	1110441984	70	4247
2026-01-08 00:33:30.86	196.22	25.63	-51.9	-53.7	14.9	0.00e+00	0	25	0	1117782016	70	4293
2026-01-08 00:33:34.86	196.37	24.99	-51.8	-53.5	15.0	0.00e+00	0	25	0	1125122048	70	4207
2026-01-08 00:33:38.86	196.52	24.36	-51.4	-53.1	15.0	0.00e+00	0	25	0	1132462080	69	4259
2026-01-08 00:33:42.83	196.67	23.76	-51.1	-52.7	15.0	0.00e+00	0	25	0	1139802112	68	4300
2026-01-08 00:33:46.81	196.81	23.17	-50.9	-52.5	15.1	0.00e+00	0	25	0	1147142144	68	4223
2026-01-08 00:33:50.80	196.95	22.58	-50.8	-52.4	15.1	0.00e+00	0	25	0	1155530752	68	4167
2026-01-08 00:33:54.79	197.08	22.02	-50.9	-52.4	15.1	0.00e+00	0	25	0	1162870784	68	4182
2026-01-08 00:33:58.80	197.21	21.46	-51.0	-52.6	15.0	0.00e+00	0	25	0	1170210816	68	4290
2026-01-08 00:34:02.80	197.33	20.91	-51.2	-52.9	14.9	0.00e+00	0	25	0	1177550848	68	4400
2026-01-08 00:34:06.79	197.45	20.38	-51.1	-52.7	15.0	0.00e+00	0	25	0	1184890880	68	4326
2026-01-08 00:34:10.77	197.57	19.86	-51.2	-52.8	14.9	0.00e+00	0	25	0	1192230912	68	4388
2026-01-08 00:34:14.78	197.68	19.34	-51.2	-52.8	14.9	0.00e+00	0	25	0	1199570944	68	4367
2026-01-08 00:34:18.79	197.80	18.84	-51.4	-53.1	14.8	0.00e+00	0	25	0	1207959552	68	4500
2026-01-08 00:34:22.79	197.90	18.35	-51.4	-53.1	14.8	0.00e+00	0	25	0	1215299584	68	4506
2026-01-08 00:34:26.79	198.01	17.86	-51.7	-53.4	14.6	0.00e+00	0	25	0	1222639616	68	4699
2026-01-08 00:34:30.78	198.11	17.39	-51.6	-53.4	14.7	0.00e+00	0	25	0	1229979648	68	4670
2026-01-08 00:34:34.76	198.21	16.93	-51.6	-53.4	14.7	0.00e+00	0	25	0	1237319680	68	4687
2026-01-08 00:34:38.74	198.30	16.48	-51.5	-53.3	14.7	0.00e+00	0	25	0	1244659712	68	4615
2026-01-08 00:34:42.73	198.40	16.03	-51.6	-53.3	14.7	0.00e+00	0	25	0	1251999744	68	4639
2026-01-08 00:34:46.72	198.49	15.59	-51.6	-53.3	14.7	0.00e+00	0	25	0	1260388352	68	4638
2026-01-08 00:34:50.70	198.58	15.16	-51.6	-53.3	14.7	0.00e+00	0	25	0	1267728384	68	4638
2026-01-08 00:34:54.68	198.67	14.74	-51.6	-53.4	14.7	0.00e+00	0	25	0	1275068416	68	4656
2026-01-08 00:34:58.68	198.75	14.32	-51.6	-53.4	14.6	0.00e+00	0	25	0	1282408448	68	4677
2026-01-08 00:35:02.68	198.83	13.91	-51.8	-53.6	14.5	0.00e+00	0	25	0	1289748480	68	4807
2026-01-08 00:35:06.66	198.92	13.51	-51.8	-53.7	14.5	0.00e+00	0	25	0	1297088512	68	4852
2026-01-08 00:35:10.65	199.00	13.11	-51.9	-53.8	14.6	0.00e+00	0	25	0	1304428544	69	4622
2026-01-08 00:35:14.63	199.07	12.72	-51.9	-53.8	14.6	0.00e+00	0	25	0	1312817152	69	4650
2026-01-08 00:35:18.63	199.15	12.34	-52.1	-54.0	14.5	0.00e+00	0	25	0	1320157184	69	4747
2026-01-08 00:35:22.62	199.22	11.96	-52.1	-54.1	14.4	0.00e+00	0	25	0	1327497216	69	4780
2026-01-08 00:35:26.63	199.30	11.59	-52.2	-54.2	14.3	0.00e+00	0	25	0	1334837248	69	4870
2026-01-08 00:35:30.62	199.37	11.22	-52.3	-54.4	14.3	0.00e+00	0	25	0	1342177280	69	4934
2026-01-08 00:35:34.61	199.44	10.86	-52.4	-54.5	14.2	0.00e+00	0	25	0	1349517312	69	5017
2026-01-08 00:35:38.59	199.51	10.50	-52.5	-54.7	14.2	0.00e+00	0	25	0	1356857344	70	4819
2026-01-08 00:35:42.57	199.58	10.15	-52.6	-54.8	14.2	0.00e+00	0	25	0	1364197376	70	4910
2026-01-08 00:35:46.56	199.64	9.81	-52.6	-54.8	14.1	0.00e+00	0	25	0	1372585984	70	4896
2026-01-08 00:35:50.54	199.71	9.47	-52.6	-54.8	14.1	0.00e+00	0	25	0	1379926016	70	4897
2026-01-08 00:35:54.54	199.77	9.13	-52.6	-54.8	14.1	0.00e+00	0	25	0	1387266048	70	4900
2026-01-08 00:35:58.54	199.83	8.80	-52.6	-54.8	14.1	0.00e+00	0	25	0	1394606080	70	4872
2026-01-08 00:36:02.53	199.90	8.47	-52.5	-54.7	14.2	0.00e+00	0	25	0	1401946112	70	4826
2026-01-08 00:36:06.54	199.96	8.14	-52.6	-54.8	14.1	0.00e+00	0	25	0	1409286144	70	4893
2026-01-08 00:36:10.53	200.02	7.83	-52.5	-54.7	14.1	0.00e+00	0	25	0	1416626176	70	4850
2026-01-08 00:36:14.54	200.08	7.51	-52.5	-54.7	14.1	0.00e+00	0	25	0	1425014784	70	4845
2026-01-08 00:36:18.53	200.13	7.20	-52.6	-54.8	14.0	0.00e+00	0	25	0	1432354816	70	4925
2026-01-08 00:36:22.52	200.19	6.89	-52.6	-54.8	14.0	0.00e+00	0	25	0	1439694848	70	4922
2026-01-08 00:36:26.53	200.25	6.58	-52.7	-55.0	13.9	0.00e+00	0	25	0	1447034880	70	5010
2026-01-08 00:36:30.53	200.30	6.28	-52.7	-55.1	13.9	0.00e+00	0	25	0	1454374912	70	5064
2026-01-08 00:36:34.51	200.36	5.98	-52.5	-54.9	14.0	0.00e+00	0	25	0	1461714944	70	4931
2026-01-08 00:36:38.49	200.41	5.69	-52.8	-55.2	13.7	0.00e+00	0	25	0	1469054976	70	5158
2026-01-08 00:36:42.48	200.46	5.40	-52.7	-55.2	13.9	0.00e+00	0	25	0	1477443584	71	4824
2026-01-08 00:36:46.46	200.51	5.11	-53.0	-55.6	13.6	0.00e+00	0	25	0	1484783616	71	5071
2026-01-08 00:36:50.46	200.57	4.83	-58.5	-74.6	3.8	1.49e+00	0	25	104	1488977920	82	23949
2026-01-08 00:36:54.45	200.62	4.55	-59.2	-75.3	3.8	1.49e+00	0	25	104	1488977920	83	24430
2026-01-08 00:36:58.42	200.66	4.27	-59.7	-75.8	3.8	1.49e+00	0	25	104	1488977920	84	24444
2026-01-08 00:37:02.42	200.71	3.99	-59.9	-76.0	3.8	1.49e+00	0	25	104	1488977920	84	25011
2026-01-08 00:37:06.43	200.76	3.72	-60.0	-76.1	3.8	1.49e+00	0	25	104	1488977920	85	24032
2026-01-08 00:37:10.43	200.81	3.45	-60.1	-76.2	3.8	1.49e+00	0	25	104	1488977920	85	24378
2026-01-08 00:37:14.43	200.86	3.18	-60.1	-76.2	3.8	1.49e+00	0	25	104	1488977920	85	24208
2026-01-08 00:37:18.43	200.90	2.91	-60.0	-76.1	3.8	1.49e+00	0	25	104	1488977920	85	24076
2026-01-08 00:37:22.44	200.95	2.65	-60.0	-76.1	3.8	1.49e+00	0	25	104	1488977920	85	23961
2026-01-08 00:37:26.44	201.00	2.39	-60.0	-76.1	3.8	1.49e+00	0	25	104	1488977920	85	23984
2026-01-08 00:37:30.44	201.04	2.13	-60.0	-76.1	3.8	1.49e+00	0	25	104	1488977920	85	23908

#Closed at: 2026-01-08 00:37:33
#Recorded file [1488 MB]: D:/lorett/data/31004_260108_032304.dat