passes_logs/2026/01/08/R3.2S_Murmansk/R3.2S_Murmansk__20260108_032241_SUOMI_NPP_rec.log

#Pass ID: 20260108_032241_SUOMI NPP
#Satellite: SUOMI NPP
#Configuration: NPP
#almurnet v.1.7.20251203
#Start time: 2026-01-08 03:22:41

#Version: 2.2.20231116
#Station: R3.2S_Murmansk
#Location: 33.079688 lon 68.888172 lat
#TLE: 1 37849U 11061A   26005.94084933  .00000134  00000+0  84554-4 0  9990
#TLE: 2 37849  98.7803 308.0679 0002567  79.1029 281.0436 14.19522657735426

#Time	Az	El	Level	Level2	SNR	BER	BlckErr	Temp	State	Recorded	gain1	gain2
2026-01-08 03:22:41.79	40.26	2.02	-57.5	-73.5	3.8	1.49e+00	0	22	0	0	81	22271
2026-01-08 03:22:45.79	40.05	2.25	-57.4	-73.4	3.8	1.49e+00	0	23	104	0	79	24893
2026-01-08 03:22:49.79	39.84	2.49	-57.4	-73.4	3.8	1.49e+00	0	23	104	0	79	24918
2026-01-08 03:22:53.79	39.63	2.74	-57.4	-73.4	3.8	1.49e+00	0	23	104	0	79	24974
2026-01-08 03:22:57.78	39.41	2.98	-57.4	-73.4	3.8	1.49e+00	0	23	104	0	79	24918
2026-01-08 03:23:01.77	39.19	3.22	-57.4	-73.3	3.8	1.49e+00	0	23	104	0	79	24670
2026-01-08 03:23:05.76	38.96	3.47	-57.4	-73.4	3.8	1.49e+00	0	23	104	0	79	24821
2026-01-08 03:23:09.76	38.74	3.72	-57.4	-73.4	3.8	1.49e+00	0	23	104	0	79	24876
2026-01-08 03:23:13.78	38.50	3.97	-57.4	-73.4	3.8	1.49e+00	0	23	104	0	79	24828
2026-01-08 03:23:17.77	38.26	4.22	-57.4	-73.2	3.8	1.49e+00	0	23	104	0	79	24245
2026-01-08 03:23:21.78	38.02	4.47	-57.3	-71.8	3.8	1.49e+00	0	23	104	0	79	20741
2026-01-08 03:23:25.78	37.77	4.73	-57.2	-69.4	4.3	1.35e+00	90	24	0	0	79	15621
2026-01-08 03:23:29.78	37.52	4.99	-56.9	-66.4	5.7	4.24e-01	0	24	0	7340032	79	11122
2026-01-08 03:23:33.78	37.27	5.25	-56.7	-65.2	6.7	6.35e-01	0	24	0	12582912	79	9607
2026-01-08 03:23:37.78	37.01	5.51	-54.5	-58.5	12.0	1.90e-05	0	24	0	18874368	75	5636
2026-01-08 03:23:41.78	36.74	5.77	-54.3	-58.2	12.4	3.80e-06	0	24	0	26214400	75	5408
2026-01-08 03:23:45.78	36.47	6.04	-53.5	-56.7	13.2	0.00e+00	0	24	0	33554432	73	5138
2026-01-08 03:23:49.77	36.19	6.30	-53.4	-56.6	13.3	0.00e+00	0	24	0	40894464	73	5073
2026-01-08 03:23:53.77	35.91	6.57	-53.2	-56.2	13.5	0.00e+00	0	24	0	48234496	72	5125
2026-01-08 03:23:57.76	35.63	6.84	-53.0	-55.9	13.6	0.00e+00	0	24	0	55574528	72	4960
2026-01-08 03:24:01.73	35.34	7.12	-53.0	-55.9	13.7	0.00e+00	0	24	0	62914560	72	4963
2026-01-08 03:24:05.70	35.04	7.39	-53.0	-56.0	13.6	0.00e+00	0	24	0	71303168	72	4987
2026-01-08 03:24:09.71	34.73	7.67	-53.0	-55.9	13.6	0.00e+00	0	24	0	78643200	72	4975
2026-01-08 03:24:13.70	34.42	7.95	-53.1	-56.1	13.5	0.00e+00	0	24	0	85983232	72	5067
2026-01-08 03:24:17.70	34.11	8.23	-53.1	-56.0	13.6	0.00e+00	0	24	0	93323264	72	5026
2026-01-08 03:24:21.69	33.78	8.52	-53.0	-55.8	13.8	0.00e+00	0	24	0	100663296	72	4893
2026-01-08 03:24:25.69	33.45	8.80	-52.9	-55.7	13.9	0.00e+00	0	24	0	108003328	72	4838
2026-01-08 03:24:29.68	33.12	9.09	-52.9	-55.6	13.9	0.00e+00	0	24	0	115343360	72	4812
2026-01-08 03:24:33.66	32.77	9.38	-52.8	-55.4	14.0	0.00e+00	0	24	0	122683392	72	4682
2026-01-08 03:24:37.67	32.42	9.68	-52.7	-55.3	13.9	0.00e+00	0	24	0	131072000	71	4916
2026-01-08 03:24:41.66	32.06	9.98	-52.6	-55.3	13.9	0.00e+00	0	24	0	138412032	71	4893
2026-01-08 03:24:45.66	31.70	10.28	-52.7	-55.4	13.9	0.00e+00	0	24	0	145752064	71	4934
2026-01-08 03:24:49.67	31.32	10.58	-52.3	-54.8	14.3	0.00e+00	0	24	0	153092096	71	4628
2026-01-08 03:24:53.66	30.94	10.88	-52.5	-54.9	14.1	0.00e+00	0	24	0	160432128	71	4699
2026-01-08 03:24:57.64	30.55	11.19	-52.4	-54.8	14.2	0.00e+00	0	24	0	167772160	71	4620
2026-01-08 03:25:01.62	30.15	11.50	-52.3	-54.7	14.3	0.00e+00	0	24	0	175112192	71	4564
2026-01-08 03:25:05.61	29.74	11.81	-52.5	-54.8	14.2	0.00e+00	0	24	0	183500800	71	4645
2026-01-08 03:25:09.62	29.33	12.12	-52.4	-54.8	14.3	0.00e+00	0	24	0	190840832	71	4612
2026-01-08 03:25:13.61	28.90	12.44	-52.4	-54.8	14.3	0.00e+00	0	24	0	198180864	71	4606
2026-01-08 03:25:17.60	28.46	12.76	-52.4	-54.8	14.2	0.00e+00	0	24	0	205520896	71	4644
2026-01-08 03:25:21.59	28.02	13.08	-52.7	-55.2	14.0	0.00e+00	0	24	0	212860928	71	4832
2026-01-08 03:25:25.60	27.56	13.40	-52.4	-54.8	14.3	0.00e+00	0	25	0	220200960	71	4626
2026-01-08 03:25:29.59	27.09	13.73	-52.7	-55.3	14.0	0.00e+00	0	24	0	228589568	71	4880
2026-01-08 03:25:33.59	26.62	14.06	-52.6	-55.1	14.1	0.00e+00	0	24	0	235929600	71	4785
2026-01-08 03:25:37.57	26.13	14.39	-52.6	-54.9	14.2	0.00e+00	0	24	0	243269632	71	4693
2026-01-08 03:25:41.56	25.63	14.72	-52.0	-54.1	14.5	0.00e+00	0	24	0	250609664	70	4540
2026-01-08 03:25:45.56	25.12	15.06	-52.1	-54.3	14.3	0.00e+00	0	25	0	257949696	69	4882
2026-01-08 03:25:49.55	24.59	15.40	-52.1	-54.4	14.2	0.00e+00	0	25	0	265289728	69	4942
2026-01-08 03:25:53.54	24.06	15.74	-52.8	-55.3	13.9	0.00e+00	0	24	0	272629760	70	5201
2026-01-08 03:25:57.55	23.51	16.08	-52.8	-55.3	14.0	0.00e+00	0	25	0	281018368	71	4886
2026-01-08 03:26:01.54	22.95	16.43	-52.7	-55.2	14.1	0.00e+00	0	25	0	288358400	71	4859
2026-01-08 03:26:05.54	22.37	16.77	-52.2	-54.5	14.3	0.00e+00	0	24	0	295698432	70	4714
2026-01-08 03:26:09.51	21.79	17.12	-52.0	-54.2	14.5	0.00e+00	0	24	0	303038464	70	4579
2026-01-08 03:26:13.50	21.19	17.47	-51.7	-53.9	14.5	0.00e+00	0	25	0	310378496	69	4662
2026-01-08 03:26:17.49	20.57	17.82	-51.9	-54.0	14.5	0.00e+00	0	24	0	317718528	69	4718
2026-01-08 03:26:21.49	19.94	18.17	-51.6	-53.7	14.6	0.00e+00	0	24	0	325058560	69	4548
2026-01-08 03:26:25.49	19.29	18.53	-52.1	-54.2	14.4	0.00e+00	0	25	0	333447168	69	4860
2026-01-08 03:26:29.49	18.62	18.89	-51.9	-54.1	14.4	0.00e+00	0	25	0	340787200	69	4761
2026-01-08 03:26:33.48	17.95	19.24	-52.2	-54.5	14.2	0.00e+00	0	24	0	348127232	69	5007
2026-01-08 03:26:37.48	17.25	19.60	-51.5	-53.5	14.7	0.00e+00	0	24	0	355467264	69	4482
2026-01-08 03:26:41.48	16.54	19.96	-51.1	-53.0	14.8	0.00e+00	0	25	0	362807296	68	4475
2026-01-08 03:26:45.46	15.81	20.32	-51.5	-53.6	14.5	0.00e+00	0	25	0	370147328	68	4804
2026-01-08 03:26:49.47	15.06	20.68	-52.3	-54.7	14.1	0.00e+00	0	25	0	377487360	69	5115
2026-01-08 03:26:53.44	14.30	21.03	-52.3	-54.5	14.4	0.00e+00	0	25	0	384827392	70	4715
2026-01-08 03:26:57.43	13.52	21.39	-51.9	-54.0	14.7	0.00e+00	0	25	0	393216000	70	4449
2026-01-08 03:27:01.42	12.72	21.75	-52.0	-54.1	14.6	0.00e+00	0	24	0	400556032	70	4542
2026-01-08 03:27:05.39	11.90	22.10	-52.0	-54.1	14.5	0.00e+00	0	24	0	407896064	70	4533
2026-01-08 03:27:09.39	11.06	22.46	-52.1	-54.2	14.5	0.00e+00	0	24	0	415236096	70	4562
2026-01-08 03:27:13.37	10.21	22.81	-52.2	-54.4	14.5	0.00e+00	0	24	0	422576128	70	4659
2026-01-08 03:27:17.35	9.33	23.16	-52.2	-54.2	14.5	0.00e+00	0	24	0	429916160	70	4579
2026-01-08 03:27:21.33	8.44	23.51	-51.5	-53.5	14.7	0.00e+00	0	24	0	437256192	69	4453
2026-01-08 03:27:25.31	7.52	23.85	-51.0	-52.7	14.9	0.00e+00	0	24	0	444596224	68	4336
2026-01-08 03:27:29.30	6.58	24.19	-50.6	-52.4	14.8	0.00e+00	0	25	0	452984832	66	4652
2026-01-08 03:27:33.29	5.62	24.53	-50.8	-52.7	14.8	0.00e+00	0	25	0	460324864	67	4586
2026-01-08 03:27:37.28	4.64	24.86	-51.1	-53.1	14.7	0.00e+00	0	24	0	467664896	67	4786
2026-01-08 03:27:41.28	3.64	25.18	-50.5	-52.3	15.0	0.00e+00	0	24	0	475004928	67	4362
2026-01-08 03:27:45.28	2.62	25.51	-51.2	-53.1	14.6	0.00e+00	0	25	0	482344960	67	4799
2026-01-08 03:27:49.27	1.57	25.82	-50.8	-52.7	14.8	0.00e+00	0	24	0	489684992	67	4573
2026-01-08 03:27:53.27	0.51	26.13	-51.2	-53.1	14.8	0.00e+00	0	25	0	497025024	68	4545
2026-01-08 03:27:57.25	359.42	26.43	-50.6	-52.4	15.0	0.00e+00	0	24	0	505413632	67	4392
2026-01-08 03:28:01.23	358.32	26.72	-52.0	-54.1	14.5	0.00e+00	0	24	0	512753664	69	4780
2026-01-08 03:28:05.21	357.20	27.00	-51.9	-54.0	14.5	0.00e+00	0	25	0	520093696	69	4748
2026-01-08 03:28:09.19	356.06	27.27	-52.0	-54.1	14.5	0.00e+00	0	25	0	527433728	69	4805
2026-01-08 03:28:13.16	354.90	27.53	-52.0	-54.2	14.4	0.00e+00	0	25	0	534773760	69	4855
2026-01-08 03:28:17.16	353.71	27.78	-51.1	-53.0	14.8	0.00e+00	0	25	0	542113792	68	4457
2026-01-08 03:28:21.16	352.51	28.02	-51.8	-54.0	14.5	0.00e+00	0	25	0	549453824	69	4735
2026-01-08 03:28:25.15	351.29	28.25	-51.4	-53.3	14.9	0.00e+00	0	24	0	556793856	69	4362
2026-01-08 03:28:29.13	350.05	28.46	-51.7	-53.7	14.7	0.00e+00	0	25	0	565182464	69	4589
2026-01-08 03:28:33.12	348.80	28.66	-51.9	-54.1	14.5	0.00e+00	0	24	0	572522496	69	4761
2026-01-08 03:28:37.12	347.53	28.85	-51.4	-53.4	14.8	0.00e+00	0	25	0	579862528	69	4423
2026-01-08 03:28:41.12	346.24	29.02	-51.4	-53.3	14.7	0.00e+00	0	24	0	587202560	68	4651
2026-01-08 03:28:45.11	344.95	29.18	-51.7	-53.7	14.5	0.00e+00	0	25	0	594542592	68	4822
2026-01-08 03:28:49.10	343.64	29.32	-53.2	-56.0	13.8	0.00e+00	0	25	0	601882624	71	5325
2026-01-08 03:28:53.10	342.31	29.44	-52.7	-55.3	14.2	0.00e+00	0	25	0	609222656	71	4875
2026-01-08 03:28:57.10	340.98	29.55	-53.1	-55.7	14.1	0.00e+00	0	25	0	617611264	72	4821
2026-01-08 03:29:01.10	339.64	29.64	-52.4	-54.7	14.3	0.00e+00	0	25	0	624951296	70	4863
2026-01-08 03:29:05.08	338.30	29.71	-53.1	-55.9	13.8	0.00e+00	0	25	0	632291328	71	5244
2026-01-08 03:29:09.07	336.95	29.77	-52.7	-55.4	14.1	0.00e+00	0	25	0	639631360	71	4942
2026-01-08 03:29:13.06	335.60	29.81	-53.2	-56.2	13.8	0.00e+00	0	25	0	646971392	72	5102
2026-01-08 03:29:17.06	334.24	29.83	-51.4	-53.4	14.8	0.00e+00	0	24	0	654311424	69	4428
2026-01-08 03:29:21.04	332.88	29.83	-52.8	-55.4	14.0	0.00e+00	0	25	0	661651456	70	5239
2026-01-08 03:29:25.04	331.52	29.81	-52.7	-55.1	14.1	0.00e+00	0	25	0	670040064	70	5057
2026-01-08 03:29:29.03	330.17	29.78	-52.4	-54.5	14.6	0.00e+00	0	24	0	677380096	71	4473
2026-01-08 03:29:33.03	328.82	29.72	-52.1	-54.2	14.6	0.00e+00	0	25	0	684720128	70	4556
2026-01-08 03:29:37.02	327.47	29.65	-52.4	-54.5	14.5	0.00e+00	0	25	0	692060160	70	4742
2026-01-08 03:29:41.02	326.13	29.57	-52.7	-55.1	14.2	0.00e+00	0	25	0	699400192	70	5052
2026-01-08 03:29:45.00	324.80	29.46	-52.2	-54.3	14.5	0.00e+00	0	24	0	706740224	70	4647
2026-01-08 03:29:48.99	323.48	29.34	-52.4	-54.8	14.2	0.00e+00	0	25	0	714080256	70	4880
2026-01-08 03:29:52.98	322.17	29.20	-51.1	-53.0	14.8	0.00e+00	0	25	0	721420288	68	4467
2026-01-08 03:29:56.97	320.87	29.05	-52.0	-54.3	14.4	0.00e+00	0	25	0	729808896	69	4886
2026-01-08 03:30:00.96	319.58	28.88	-52.7	-55.1	14.2	0.00e+00	0	25	0	737148928	70	5046
2026-01-08 03:30:04.94	318.31	28.69	-51.7	-53.6	14.9	0.00e+00	0	24	0	744488960	70	4284
2026-01-08 03:30:08.92	317.06	28.50	-52.3	-54.4	14.4	0.00e+00	0	24	0	751828992	69	4928
2026-01-08 03:30:12.91	315.82	28.29	-52.1	-54.1	14.7	0.00e+00	0	24	0	759169024	70	4507
2026-01-08 03:30:16.89	314.60	28.06	-52.4	-54.5	14.5	0.00e+00	0	25	0	766509056	70	4726
2026-01-08 03:30:20.88	313.39	27.82	-52.2	-54.2	14.6	0.00e+00	0	25	0	773849088	70	4592
2026-01-08 03:30:24.86	312.21	27.57	-53.7	-56.5	13.6	0.00e+00	0	25	0	781189120	72	5335
2026-01-08 03:30:28.85	311.04	27.31	-54.2	-57.4	13.2	0.00e+00	0	25	0	789577728	73	5557
2026-01-08 03:30:32.85	309.88	27.04	-53.5	-56.4	13.9	0.00e+00	0	25	0	796917760	73	4936
2026-01-08 03:30:36.84	308.75	26.76	-52.2	-54.5	14.4	0.00e+00	0	25	0	804257792	70	4736
2026-01-08 03:30:40.82	307.65	26.47	-51.3	-53.2	14.9	0.00e+00	0	25	0	811597824	69	4320
2026-01-08 03:30:44.82	306.56	26.17	-51.6	-53.7	14.5	0.00e+00	0	25	0	818937856	68	4854
2026-01-08 03:30:48.82	305.48	25.87	-51.6	-53.7	14.5	0.00e+00	0	25	0	826277888	68	4841
2026-01-08 03:30:52.81	304.44	25.55	-52.4	-54.8	14.2	0.00e+00	0	25	0	833617920	70	4906
2026-01-08 03:30:56.82	303.40	25.23	-52.9	-55.6	13.9	0.00e+00	0	25	0	842006528	70	5382
2026-01-08 03:31:00.81	302.40	24.91	-52.7	-55.1	14.3	0.00e+00	0	25	0	849346560	71	4802
2026-01-08 03:31:04.80	301.41	24.58	-51.8	-53.8	14.7	0.00e+00	0	25	0	856686592	69	4599
2026-01-08 03:31:08.79	300.45	24.24	-51.3	-53.2	14.9	0.00e+00	0	25	0	864026624	69	4339
2026-01-08 03:31:12.77	299.51	23.90	-51.0	-52.9	14.9	0.00e+00	0	25	0	871366656	68	4394
2026-01-08 03:31:16.76	298.59	23.56	-50.1	-51.8	15.0	0.00e+00	0	24	0	878706688	66	4382
2026-01-08 03:31:20.74	297.69	23.21	-49.6	-51.1	15.2	0.00e+00	0	25	0	886046720	65	4273
2026-01-08 03:31:24.73	296.80	22.86	-50.5	-52.3	14.9	0.00e+00	0	24	0	894435328	66	4622
2026-01-08 03:31:28.70	295.95	22.51	-51.2	-53.2	14.6	0.00e+00	0	25	0	901775360	67	4854
2026-01-08 03:31:32.71	295.10	22.15	-51.0	-52.9	14.7	0.00e+00	0	25	0	909115392	67	4676
2026-01-08 03:31:36.72	294.27	21.79	-50.8	-52.7	14.8	0.00e+00	0	25	0	916455424	67	4576
2026-01-08 03:31:40.73	293.46	21.44	-49.5	-51.1	15.2	0.00e+00	0	24	0	923795456	65	4257
2026-01-08 03:31:44.71	292.68	21.08	-50.0	-51.7	15.0	0.00e+00	0	24	0	931135488	65	4556
2026-01-08 03:31:48.69	291.91	20.72	-50.3	-52.0	14.8	0.00e+00	0	25	0	938475520	65	4750
2026-01-08 03:31:52.68	291.16	20.36	-50.3	-52.0	14.8	0.00e+00	0	25	0	945815552	65	4718
2026-01-08 03:31:56.68	290.43	20.00	-50.2	-51.8	14.9	0.00e+00	0	25	0	954204160	65	4630
2026-01-08 03:32:00.67	289.71	19.64	-50.6	-52.3	14.8	0.00e+00	0	25	0	961544192	66	4638
2026-01-08 03:32:04.66	289.02	19.28	-50.3	-52.0	15.0	0.00e+00	0	24	0	968884224	66	4457
2026-01-08 03:32:08.65	288.33	18.93	-50.2	-51.8	15.0	0.00e+00	0	25	0	976224256	66	4362
2026-01-08 03:32:12.63	287.67	18.57	-51.3	-53.2	14.6	0.00e+00	0	25	0	983564288	67	4831
2026-01-08 03:32:16.61	287.02	18.22	-51.4	-53.3	14.7	0.00e+00	0	24	0	990904320	68	4617
2026-01-08 03:32:20.60	286.39	17.86	-50.6	-52.3	15.0	0.00e+00	0	25	0	998244352	67	4362
2026-01-08 03:32:24.59	285.76	17.51	-50.9	-52.7	14.8	0.00e+00	0	25	0	1006632960	67	4570
2026-01-08 03:32:28.58	285.16	17.16	-51.8	-53.8	14.4	0.00e+00	0	24	0	1013972992	68	4907
2026-01-08 03:32:32.57	284.57	16.81	-52.0	-54.1	14.5	0.00e+00	0	25	0	1021313024	69	4786
2026-01-08 03:32:36.57	283.99	16.46	-51.5	-53.4	14.8	0.00e+00	0	25	0	1028653056	69	4393
2026-01-08 03:32:40.56	283.42	16.12	-51.8	-53.8	14.6	0.00e+00	0	25	0	1035993088	69	4633
2026-01-08 03:32:44.55	282.87	15.78	-52.3	-54.4	14.4	0.00e+00	0	24	0	1043333120	70	4693
2026-01-08 03:32:48.55	282.33	15.43	-51.7	-53.7	14.6	0.00e+00	0	25	0	1050673152	69	4562
2026-01-08 03:32:52.56	281.80	15.09	-51.1	-53.0	14.8	0.00e+00	0	24	0	1059061760	68	4451
2026-01-08 03:32:56.58	281.29	14.75	-51.1	-53.0	14.8	0.00e+00	0	25	0	1066401792	68	4446
2026-01-08 03:33:00.58	280.78	14.42	-51.6	-53.5	14.5	0.00e+00	0	25	0	1073741824	68	4757
2026-01-08 03:33:04.58	280.29	14.09	-52.1	-54.3	14.3	0.00e+00	0	24	0	1081081856	69	4881
2026-01-08 03:33:08.55	279.81	13.76	-51.8	-53.9	14.5	0.00e+00	0	25	0	1088421888	69	4666
2026-01-08 03:33:12.54	279.34	13.43	-52.0	-54.0	14.4	0.00e+00	0	25	0	1095761920	69	4758
2026-01-08 03:33:16.52	278.89	13.11	-52.9	-55.4	13.9	0.00e+00	0	24	0	1103101952	70	5226
2026-01-08 03:33:20.51	278.44	12.79	-53.0	-55.5	14.0	0.00e+00	0	25	0	1111490560	71	5015
2026-01-08 03:33:24.49	278.00	12.47	-52.0	-54.0	14.6	0.00e+00	0	25	0	1118830592	70	4491
2026-01-08 03:33:28.48	277.57	12.15	-51.4	-53.3	14.8	0.00e+00	0	25	0	1126170624	69	4382
2026-01-08 03:33:32.49	277.15	11.83	-52.1	-54.2	14.3	0.00e+00	0	25	0	1133510656	69	4851
2026-01-08 03:33:36.48	276.74	11.52	-53.2	-55.9	13.7	0.00e+00	0	25	0	1140850688	71	5261
2026-01-08 03:33:40.47	276.34	11.21	-53.7	-56.7	13.3	0.00e+00	0	25	0	1148190720	72	5433
2026-01-08 03:33:44.48	275.94	10.90	-53.8	-56.8	13.4	0.00e+00	0	25	0	1155530752	73	5192
2026-01-08 03:33:48.46	275.56	10.60	-53.7	-56.3	13.7	0.00e+00	0	25	0	1163919360	73	4879
2026-01-08 03:33:52.47	275.18	10.30	-53.5	-56.0	13.9	0.00e+00	0	25	0	1171259392	73	4732
2026-01-08 03:33:56.46	274.81	10.00	-53.8	-56.3	13.7	0.00e+00	0	25	0	1178599424	73	4922
2026-01-08 03:34:00.45	274.45	9.70	-54.0	-56.8	13.4	0.00e+00	0	25	0	1185939456	73	5182
2026-01-08 03:34:04.44	274.10	9.41	-53.9	-56.6	13.5	0.00e+00	0	25	0	1193279488	73	5078
2026-01-08 03:34:08.42	273.75	9.11	-53.4	-55.9	13.9	0.00e+00	0	25	0	1200619520	73	4665
2026-01-08 03:34:12.39	273.41	8.82	-52.7	-54.8	14.4	0.00e+00	0	25	0	1207959552	72	4369
2026-01-08 03:34:16.38	273.08	8.54	-52.5	-54.6	14.3	0.00e+00	0	25	0	1215299584	71	4512
2026-01-08 03:34:20.37	272.76	8.25	-52.5	-54.6	14.3	0.00e+00	0	25	0	1223688192	71	4533
2026-01-08 03:34:24.36	272.44	7.97	-53.0	-55.4	13.9	0.00e+00	0	25	0	1231028224	71	4929
2026-01-08 03:34:28.34	272.13	7.69	-53.7	-56.4	13.4	0.00e+00	0	25	0	1238368256	72	5277
2026-01-08 03:34:32.31	271.82	7.41	-54.2	-57.2	13.0	0.00e+00	0	25	0	1245708288	73	5408
2026-01-08 03:34:36.31	271.52	7.14	-54.3	-57.5	12.8	0.00e+00	0	25	0	1253048320	73	5615
2026-01-08 03:34:40.30	271.23	6.86	-54.3	-57.5	12.8	0.00e+00	0	25	0	1260388352	74	5309
2026-01-08 03:34:44.30	270.94	6.59	-54.2	-57.4	12.9	0.00e+00	0	25	0	1267728384	74	5239
2026-01-08 03:34:48.29	270.65	6.32	-54.0	-57.1	13.1	0.00e+00	0	25	0	1276116992	74	5059
2026-01-08 03:34:52.27	270.38	6.05	-54.3	-57.7	12.6	0.00e+00	0	25	0	1283457024	74	5432
2026-01-08 03:34:56.27	270.10	5.79	-54.4	-57.9	12.4	1.50e-06	0	25	0	1290797056	74	5569
2026-01-08 03:35:00.26	269.83	5.52	-55.2	-59.6	11.2	5.72e-05	0	25	0	1298137088	75	6382
2026-01-08 03:35:04.27	269.57	5.26	-55.7	-60.9	10.2	7.48e-04	0	25	0	1305477120	76	6994
2026-01-08 03:35:08.28	269.31	5.00	-55.8	-61.5	9.7	2.40e-03	0	25	0	1312817152	76	7502
2026-01-08 03:35:12.27	269.06	4.74	-59.0	-75.1	3.8	1.49e+00	0	25	104	1313865728	83	23869
2026-01-08 03:35:16.27	268.81	4.49	-59.7	-75.8	3.8	1.49e+00	0	25	104	1313865728	84	24449
2026-01-08 03:35:20.25	268.57	4.23	-60.1	-76.2	3.8	1.49e+00	0	25	104	1313865728	85	24246
2026-01-08 03:35:24.23	268.33	3.98	-60.3	-76.4	3.8	1.49e+00	0	25	104	1313865728	85	24970
2026-01-08 03:35:28.22	268.09	3.73	-60.5	-76.6	3.8	1.49e+00	0	25	104	1313865728	86	24095
2026-01-08 03:35:32.22	267.86	3.48	-60.5	-76.6	3.8	1.49e+00	0	25	104	1313865728	86	23945
2026-01-08 03:35:36.21	267.63	3.24	-60.3	-76.4	3.8	1.49e+00	0	25	104	1313865728	86	23523
2026-01-08 03:35:40.21	267.41	2.99	-60.3	-76.4	3.8	1.49e+00	0	25	104	1313865728	86	23318
2026-01-08 03:35:44.21	267.19	2.75	-60.2	-76.3	3.8	1.49e+00	0	25	104	1313865728	86	23275
2026-01-08 03:35:48.22	266.98	2.51	-60.2	-76.3	3.8	1.49e+00	0	25	104	1313865728	86	23093
2026-01-08 03:35:52.21	266.76	2.27	-60.1	-76.2	3.8	1.49e+00	0	25	104	1313865728	86	23002
2026-01-08 03:35:56.22	266.56	2.03	-60.1	-76.2	3.8	1.49e+00	0	25	104	1313865728	86	22978

#Closed at: 2026-01-08 03:35:59
#Recorded file [1313 MB]: D:/lorett/data/31004_260108_062241.dat