passes_logs/2026/01/08/R3.2S_Murmansk/R3.2S_Murmansk__20260108_024256_FENGYUN_3D_rec.log

#Pass ID: 20260108_024256_FENGYUN 3D
#Satellite: FENGYUN 3D
#Configuration: FENGYUN 3D
#almurnet v.1.7.20251203
#Start time: 2026-01-08 02:42:57

#Version: 2.2.20231116
#Station: R3.2S_Murmansk
#Location: 33.079688 lon 68.888172 lat
#TLE: 1 43010U 17072A   26006.26440730  .00000376  00000+0  19957-3 0  9994
#TLE: 2 43010  98.9925 337.9455 0002045 123.9195 236.2175 14.19693586422016

#Time	Az	El	Level	Level2	SNR	BER	BlckErr	Temp	State	Recorded	gain1	gain2
2026-01-08 02:42:57.16	24.97	2.02	-57.5	-70.5	3.8	8.45e-01	0	23	0	0	81	15831
2026-01-08 02:43:01.15	24.99	2.28	-57.4	-70.4	3.8	8.45e-01	0	23	104	0	79	17614
2026-01-08 02:43:05.14	25.01	2.53	-57.4	-70.4	3.8	8.47e-01	0	23	104	0	79	17620
2026-01-08 02:43:09.13	25.03	2.79	-57.4	-70.5	3.8	8.45e-01	0	23	104	0	80	16713
2026-01-08 02:43:13.14	25.05	3.06	-57.4	-69.5	3.8	8.45e-01	0	23	104	0	80	15037
2026-01-08 02:43:17.14	25.08	3.32	-57.3	-68.5	3.8	8.45e-01	0	23	104	0	80	13304
2026-01-08 02:43:21.15	25.10	3.59	-57.4	-70.0	3.8	8.46e-01	0	23	104	0	80	15887
2026-01-08 02:43:25.16	25.12	3.87	-57.4	-69.4	3.8	8.45e-01	0	23	104	0	80	14805
2026-01-08 02:43:29.16	25.14	4.14	-56.5	-63.3	5.9	6.45e-01	0	23	0	1048576	79	7795
2026-01-08 02:43:33.17	25.16	4.42	-55.5	-60.2	8.3	3.97e-02	0	23	0	24117248	77	6122
2026-01-08 02:43:37.17	25.18	4.70	-54.8	-58.7	9.7	4.74e-03	0	24	0	46137344	76	5420
2026-01-08 02:43:41.17	25.21	4.98	-55.1	-59.2	9.3	1.03e-02	0	24	0	69206016	76	5754
2026-01-08 02:43:45.16	25.23	5.27	-56.3	-62.9	6.0	2.32e-01	0	24	0	91226112	78	7830
2026-01-08 02:43:49.15	25.25	5.55	-50.9	-52.7	13.7	0.00e+00	0	24	0	112197632	68	4327
2026-01-08 02:43:53.14	25.27	5.84	-49.5	-51.1	14.3	0.00e+00	0	24	0	134217728	65	4248
2026-01-08 02:43:57.13	25.30	6.14	-48.8	-50.2	14.7	0.00e+00	0	24	0	156237824	64	4065
2026-01-08 02:44:01.13	25.32	6.44	-48.6	-50.0	14.7	0.00e+00	0	24	0	179306496	63	4227
2026-01-08 02:44:05.12	25.34	6.74	-48.5	-49.9	14.7	0.00e+00	0	24	0	201326592	63	4172
2026-01-08 02:44:09.10	25.36	7.04	-48.5	-49.8	14.8	0.00e+00	0	24	0	224395264	63	4129
2026-01-08 02:44:13.09	25.39	7.35	-48.4	-49.8	14.8	0.00e+00	0	24	0	246415360	63	4103
2026-01-08 02:44:17.09	25.41	7.67	-48.1	-49.4	14.9	0.00e+00	0	24	0	268435456	62	4181
2026-01-08 02:44:21.09	25.43	7.98	-48.1	-49.4	14.9	0.00e+00	0	24	0	291504128	62	4156
2026-01-08 02:44:25.09	25.46	8.31	-48.0	-49.3	14.9	0.00e+00	0	24	0	313524224	62	4116
2026-01-08 02:44:29.08	25.48	8.63	-48.1	-49.5	14.9	0.00e+00	0	24	0	336592896	62	4196
2026-01-08 02:44:33.08	25.50	8.96	-47.9	-49.2	15.0	0.00e+00	0	24	0	358612992	62	4083
2026-01-08 02:44:37.07	25.53	9.29	-47.9	-49.2	15.0	0.00e+00	0	24	0	381681664	62	4055
2026-01-08 02:44:41.06	25.55	9.63	-47.8	-49.1	15.1	0.00e+00	0	24	0	403701760	62	4012
2026-01-08 02:44:45.06	25.57	9.97	-47.9	-49.2	15.0	0.00e+00	0	24	0	426770432	62	4064
2026-01-08 02:44:49.07	25.60	10.32	-47.5	-48.7	15.1	0.00e+00	0	24	0	448790528	61	4089
2026-01-08 02:44:53.05	25.62	10.68	-47.6	-48.8	15.0	0.00e+00	0	24	0	470810624	61	4140
2026-01-08 02:44:57.04	25.64	11.03	-47.5	-48.8	15.1	0.00e+00	0	24	0	493879296	61	4101
2026-01-08 02:45:01.02	25.67	11.39	-47.5	-48.8	15.0	0.00e+00	0	24	0	515899392	61	4117
2026-01-08 02:45:05.01	25.69	11.76	-47.4	-48.7	15.1	0.00e+00	0	24	0	538968064	61	4059
2026-01-08 02:45:09.00	25.72	12.14	-47.5	-48.7	15.1	0.00e+00	0	24	0	560988160	61	4076
2026-01-08 02:45:12.99	25.74	12.52	-47.3	-48.5	15.2	0.00e+00	0	24	0	583008256	61	3970
2026-01-08 02:45:16.99	25.77	12.90	-47.2	-48.4	15.1	0.00e+00	0	24	0	606076928	60	4169
2026-01-08 02:45:20.98	25.79	13.30	-47.0	-48.2	15.2	0.00e+00	0	24	0	628097024	60	4056
2026-01-08 02:45:24.99	25.82	13.70	-46.9	-48.0	15.3	0.00e+00	0	24	0	651165696	60	3995
2026-01-08 02:45:28.98	25.85	14.10	-46.7	-47.9	15.3	0.00e+00	0	25	0	673185792	60	3921
2026-01-08 02:45:32.98	25.87	14.51	-47.1	-48.3	15.1	0.00e+00	0	25	0	696254464	59	4356
2026-01-08 02:45:36.96	25.90	14.93	-47.0	-48.2	15.1	0.00e+00	0	24	0	718274560	59	4315
2026-01-08 02:45:40.94	25.92	15.36	-46.8	-48.0	15.2	0.00e+00	0	24	0	740294656	59	4236
2026-01-08 02:45:44.92	25.95	15.79	-46.7	-47.9	15.2	0.00e+00	0	24	0	763363328	59	4174
2026-01-08 02:45:48.93	25.98	16.23	-46.6	-47.8	15.2	0.00e+00	0	24	0	785383424	59	4131
2026-01-08 02:45:52.92	26.01	16.68	-46.5	-47.7	15.3	0.00e+00	0	25	0	808452096	59	4078
2026-01-08 02:45:56.90	26.03	17.14	-46.4	-47.5	15.4	0.00e+00	0	24	0	830472192	59	3999
2026-01-08 02:46:00.89	26.06	17.61	-46.3	-47.4	15.4	0.00e+00	0	24	0	852492288	59	3942
2026-01-08 02:46:04.89	26.09	18.09	-46.1	-47.2	15.3	0.00e+00	0	24	0	875560960	58	4079
2026-01-08 02:46:08.87	26.12	18.57	-45.9	-47.0	15.4	0.00e+00	0	24	0	897581056	58	3990
2026-01-08 02:46:12.86	26.15	19.07	-45.7	-46.8	15.5	0.00e+00	0	25	0	920649728	58	3899
2026-01-08 02:46:16.87	26.18	19.58	-45.4	-46.5	15.5	0.00e+00	0	24	0	942669824	57	3961
2026-01-08 02:46:20.85	26.21	20.09	-45.4	-46.5	15.5	0.00e+00	0	24	0	964689920	57	3972
2026-01-08 02:46:24.85	26.24	20.62	-45.3	-46.4	15.5	0.00e+00	0	25	0	987758592	57	3917
2026-01-08 02:46:28.85	26.27	21.16	-45.3	-46.4	15.5	0.00e+00	0	25	0	1009778688	57	3920
2026-01-08 02:46:32.83	26.30	21.71	-45.3	-46.4	15.5	0.00e+00	0	24	0	1032847360	57	3919
2026-01-08 02:46:36.81	26.33	22.27	-45.2	-46.3	15.5	0.00e+00	0	24	0	1054867456	57	3889
2026-01-08 02:46:40.83	26.36	22.85	-45.2	-46.2	15.4	0.00e+00	0	25	0	1077936128	56	4090
2026-01-08 02:46:44.82	26.40	23.44	-45.0	-46.0	15.5	0.00e+00	0	24	0	1099956224	56	3996
2026-01-08 02:46:48.82	26.43	24.04	-45.0	-46.0	15.5	0.00e+00	0	25	0	1123024896	56	3994
2026-01-08 02:46:52.81	26.47	24.66	-44.8	-45.8	15.6	0.00e+00	0	25	0	1145044992	56	3901
2026-01-08 02:46:56.80	26.50	25.29	-44.5	-45.5	15.5	0.00e+00	0	24	0	1167065088	55	3994
2026-01-08 02:47:00.80	26.54	25.94	-44.5	-45.5	15.5	0.00e+00	0	25	0	1190133760	55	3998
2026-01-08 02:47:04.80	26.57	26.61	-44.4	-45.4	15.6	0.00e+00	0	24	0	1212153856	55	3933
2026-01-08 02:47:08.80	26.61	27.29	-44.3	-45.3	15.6	0.00e+00	0	24	0	1235222528	55	3897
2026-01-08 02:47:12.80	26.65	27.99	-44.1	-45.2	15.5	0.00e+00	0	25	0	1257242624	54	4058
2026-01-08 02:47:16.78	26.69	28.70	-44.4	-45.4	15.4	0.00e+00	0	25	0	1279262720	54	4190
2026-01-08 02:47:20.77	26.73	29.44	-44.5	-45.6	15.4	0.00e+00	0	25	0	1302331392	54	4266
2026-01-08 02:47:24.78	26.77	30.20	-44.4	-45.5	15.4	0.00e+00	0	25	0	1324351488	54	4215
2026-01-08 02:47:28.79	26.82	30.98	-44.6	-45.7	15.4	0.00e+00	0	25	0	1347420160	54	4299
2026-01-08 02:47:32.78	26.86	31.77	-44.5	-45.5	15.4	0.00e+00	0	25	0	1369440256	54	4229
2026-01-08 02:47:36.77	26.91	32.59	-44.1	-45.1	15.5	0.00e+00	0	25	0	1392508928	54	4019
2026-01-08 02:47:40.78	26.95	33.44	-44.1	-45.1	15.5	0.00e+00	0	25	0	1414529024	54	4049
2026-01-08 02:47:44.79	27.00	34.31	-44.1	-45.1	15.5	0.00e+00	0	25	0	1437597696	54	4037
2026-01-08 02:47:48.77	27.05	35.20	-44.1	-45.1	15.5	0.00e+00	0	25	0	1459617792	54	4043
2026-01-08 02:47:52.77	27.11	36.12	-44.1	-45.2	15.5	0.00e+00	0	25	0	1482686464	54	4059
2026-01-08 02:47:56.76	27.16	37.06	-43.9	-45.0	15.6	0.00e+00	0	25	0	1504706560	54	3962
2026-01-08 02:48:00.73	27.22	38.03	-44.1	-45.1	15.5	0.00e+00	0	25	0	1526726656	54	4030
2026-01-08 02:48:04.71	27.28	39.02	-44.0	-45.0	15.5	0.00e+00	0	25	0	1549795328	54	3976
2026-01-08 02:48:08.68	27.34	40.05	-44.1	-45.2	15.5	0.00e+00	0	25	0	1571815424	54	4059
2026-01-08 02:48:12.68	27.40	41.11	-44.1	-45.2	15.5	0.00e+00	0	25	0	1593835520	54	4061
2026-01-08 02:48:16.67	27.47	42.21	-44.2	-45.3	15.5	0.00e+00	0	25	0	1616904192	54	4115
2026-01-08 02:48:20.66	27.55	43.33	-44.6	-45.7	15.4	0.00e+00	0	25	0	1638924288	54	4315
2026-01-08 02:48:24.66	27.62	44.50	-44.5	-45.6	15.4	0.00e+00	0	25	0	1661992960	54	4258
2026-01-08 02:48:28.65	27.70	45.69	-44.8	-45.9	15.4	0.00e+00	0	25	0	1684013056	55	4175
2026-01-08 02:48:32.66	27.79	46.93	-44.3	-45.3	15.6	0.00e+00	0	25	0	1707081728	55	3899
2026-01-08 02:48:36.65	27.88	48.20	-44.3	-45.4	15.6	0.00e+00	0	25	0	1729101824	55	3919
2026-01-08 02:48:40.63	27.98	49.51	-44.8	-45.9	15.4	0.00e+00	0	25	0	1751121920	55	4146
2026-01-08 02:48:44.62	28.09	50.86	-45.0	-46.0	15.4	0.00e+00	0	25	0	1774190592	55	4240
2026-01-08 02:48:48.61	28.21	52.25	-45.2	-46.3	15.4	0.00e+00	0	25	0	1796210688	55	4350
2026-01-08 02:48:52.62	28.33	53.68	-45.6	-46.8	15.3	0.00e+00	0	25	0	1819279360	56	4341
2026-01-08 02:48:56.61	28.47	55.16	-45.8	-46.9	15.3	0.00e+00	0	25	0	1841299456	56	4420
2026-01-08 02:49:00.60	28.62	56.67	-46.1	-47.2	15.3	0.00e+00	0	25	0	1863319552	57	4335
2026-01-08 02:49:04.58	28.78	58.22	-45.6	-46.6	15.4	0.00e+00	0	25	0	1886388224	57	4037
2026-01-08 02:49:08.56	28.97	59.81	-44.9	-45.9	15.5	0.00e+00	0	25	0	1908408320	56	3945
2026-01-08 02:49:12.55	29.18	61.45	-44.1	-45.2	15.5	0.00e+00	0	25	0	1930428416	54	4061
2026-01-08 02:49:16.53	29.41	63.13	-44.7	-45.8	15.4	0.00e+00	0	25	0	1953497088	54	4348
2026-01-08 02:49:20.52	29.68	64.85	-44.2	-45.2	15.5	0.00e+00	0	25	0	1975517184	54	4080
2026-01-08 02:49:24.52	29.99	66.61	-44.0	-45.0	15.5	0.00e+00	0	25	0	1998585856	53	4225
2026-01-08 02:49:28.51	30.36	68.41	-44.1	-45.1	15.5	0.00e+00	0	25	0	2020605952	53	4270
2026-01-08 02:49:32.51	30.79	70.25	-43.6	-44.6	15.5	0.00e+00	0	25	0	2042626048	53	4032
2026-01-08 02:49:36.50	31.32	72.12	-43.5	-44.5	15.6	0.00e+00	0	25	0	2065694720	53	3998
2026-01-08 02:49:40.77	32.03	74.16	-43.2	-44.2	15.5	0.00e+00	0	25	0	2088763392	52	4095
2026-01-08 02:49:44.75	32.89	76.08	-42.9	-43.9	15.6	0.00e+00	0	25	0	2110783488	52	3944
2026-01-08 02:49:48.74	34.02	78.03	-42.5	-43.5	15.6	0.00e+00	0	25	0	2132803584	51	3974
2026-01-08 02:49:52.74	35.62	80.01	-42.4	-43.4	15.6	0.00e+00	0	25	0	2155872256	51	3945
2026-01-08 02:49:56.72	38.00	81.98	-42.1	-43.1	15.6	0.00e+00	0	25	0	2177892352	50	4028
2026-01-08 02:50:00.72	41.98	83.96	-42.0	-42.9	15.6	0.00e+00	0	25	0	2200961024	50	3958
2026-01-08 02:50:04.70	49.71	85.88	-42.2	-43.1	15.6	0.00e+00	0	25	0	2222981120	50	4047
2026-01-08 02:50:08.69	69.78	87.62	-42.3	-43.2	15.6	0.00e+00	0	25	0	2245001216	50	4092
2026-01-08 02:50:12.68	127.70	88.33	-42.2	-43.1	15.5	0.00e+00	0	25	0	2268069888	50	4049
2026-01-08 02:50:16.66	171.86	87.12	-42.6	-43.6	15.5	0.00e+00	0	25	0	2290089984	50	4268
2026-01-08 02:50:20.65	186.15	85.28	-42.6	-43.6	15.6	0.00e+00	0	24	0	2312110080	51	4037
2026-01-08 02:50:24.64	192.26	83.33	-42.3	-43.3	15.6	0.00e+00	0	25	0	2335178752	51	3890
2026-01-08 02:50:28.63	195.59	81.35	-42.4	-43.4	15.6	0.00e+00	0	25	0	2357198848	50	4153
2026-01-08 02:50:32.63	197.67	79.37	-42.1	-43.1	15.6	0.00e+00	0	25	0	2380267520	50	4033
2026-01-08 02:50:36.62	199.10	77.40	-42.4	-43.4	15.6	0.00e+00	0	25	0	2402287616	50	4160
2026-01-08 02:50:40.62	200.13	75.45	-42.5	-43.5	15.6	0.00e+00	0	25	0	2425356288	51	3985
2026-01-08 02:50:44.61	200.92	73.52	-42.8	-43.7	15.5	0.00e+00	0	25	0	2447376384	51	4086
2026-01-08 02:50:48.60	201.54	71.63	-43.7	-44.7	15.5	0.00e+00	0	25	0	2469396480	52	4322
2026-01-08 02:50:52.60	202.04	69.76	-44.1	-45.1	15.5	0.00e+00	0	25	0	2492465152	54	4039
2026-01-08 02:50:56.59	202.46	67.93	-44.1	-45.2	15.5	0.00e+00	0	25	0	2514485248	54	4072
2026-01-08 02:51:00.60	202.81	66.13	-44.2	-45.3	15.4	0.00e+00	0	24	0	2537553920	53	4368
2026-01-08 02:51:04.57	203.11	64.39	-44.0	-45.1	15.5	0.00e+00	0	25	0	2559574016	53	4249
2026-01-08 02:51:08.57	203.37	62.67	-43.8	-44.8	15.5	0.00e+00	0	25	0	2582642688	53	4120
2026-01-08 02:51:12.56	203.59	60.99	-44.3	-45.4	15.4	0.00e+00	0	25	0	2604662784	53	4399
2026-01-08 02:51:16.55	203.79	59.36	-44.8	-45.9	15.4	0.00e+00	0	25	0	2626682880	54	4419
2026-01-08 02:51:20.55	203.97	57.77	-45.2	-46.2	15.4	0.00e+00	0	25	0	2649751552	55	4335
2026-01-08 02:51:24.53	204.14	56.22	-45.6	-46.7	15.3	0.00e+00	0	25	0	2671771648	56	4317
2026-01-08 02:51:28.52	204.28	54.72	-45.9	-47.0	15.3	0.00e+00	0	25	0	2694840320	57	4219
2026-01-08 02:51:32.52	204.42	53.25	-45.8	-46.9	15.4	0.00e+00	0	25	0	2716860416	57	4164
2026-01-08 02:51:36.52	204.54	51.83	-45.4	-46.5	15.5	0.00e+00	0	25	0	2739929088	57	3970
2026-01-08 02:51:40.51	204.65	50.44	-45.0	-46.1	15.5	0.00e+00	0	25	0	2761949184	56	4005
2026-01-08 02:51:44.50	204.75	49.10	-44.4	-45.4	15.6	0.00e+00	0	25	0	2783969280	55	3937
2026-01-08 02:51:48.48	204.85	47.80	-44.7	-45.8	15.5	0.00e+00	0	25	0	2807037952	55	4104
2026-01-08 02:51:52.48	204.94	46.53	-44.4	-45.4	15.5	0.00e+00	0	25	0	2829058048	55	3949
2026-01-08 02:51:56.47	205.03	45.31	-44.4	-45.4	15.6	0.00e+00	0	25	0	2852126720	55	3955
2026-01-08 02:52:00.47	205.11	44.11	-44.2	-45.2	15.6	0.00e+00	0	25	0	2874146816	55	3846
2026-01-08 02:52:04.46	205.18	42.96	-44.6	-45.6	15.4	0.00e+00	0	25	0	2896166912	54	4279
2026-01-08 02:52:08.44	205.25	41.84	-44.5	-45.5	15.4	0.00e+00	0	25	0	2919235584	54	4226
2026-01-08 02:52:12.43	205.32	40.75	-44.1	-45.2	15.5	0.00e+00	0	25	0	2941255680	54	4059
2026-01-08 02:52:16.42	205.38	39.70	-43.9	-44.9	15.6	0.00e+00	0	25	0	2964324352	54	3933
2026-01-08 02:52:20.38	205.44	38.68	-43.5	-44.5	15.5	0.00e+00	0	25	0	2986344448	53	4000
2026-01-08 02:52:24.37	205.50	37.68	-43.5	-44.5	15.5	0.00e+00	0	24	0	3008364544	53	3973
2026-01-08 02:52:28.38	205.56	36.71	-44.0	-45.1	15.4	0.00e+00	0	25	0	3031433216	53	4252
2026-01-08 02:52:32.36	205.61	35.78	-44.2	-45.2	15.4	0.00e+00	0	25	0	3053453312	53	4334
2026-01-08 02:52:36.36	205.66	34.86	-44.0	-45.0	15.4	0.00e+00	0	25	0	3075473408	53	4232
2026-01-08 02:52:40.36	205.71	33.97	-44.2	-45.2	15.4	0.00e+00	0	25	0	3098542080	53	4308
2026-01-08 02:52:44.36	205.76	33.11	-44.5	-45.5	15.4	0.00e+00	0	25	0	3120562176	54	4220
2026-01-08 02:52:48.35	205.80	32.27	-44.6	-45.7	15.4	0.00e+00	0	25	0	3143630848	54	4329
2026-01-08 02:52:52.34	205.85	31.46	-44.5	-45.6	15.4	0.00e+00	0	25	0	3165650944	54	4271
2026-01-08 02:52:56.35	205.89	30.66	-44.2	-45.2	15.5	0.00e+00	0	25	0	3188719616	54	4074
2026-01-08 02:53:00.35	205.93	29.89	-44.2	-45.2	15.5	0.00e+00	0	25	0	3210739712	54	4072
2026-01-08 02:53:04.34	205.97	29.14	-44.3	-45.3	15.4	0.00e+00	0	25	0	3233808384	54	4120
2026-01-08 02:53:08.32	206.01	28.41	-44.4	-45.5	15.4	0.00e+00	0	25	0	3255828480	54	4207
2026-01-08 02:53:12.30	206.05	27.70	-44.4	-45.4	15.4	0.00e+00	0	25	0	3277848576	54	4172
2026-01-08 02:53:16.27	206.08	27.00	-44.1	-45.1	15.5	0.00e+00	0	25	0	3300917248	54	4047
2026-01-08 02:53:20.26	206.12	26.33	-44.2	-45.2	15.5	0.00e+00	0	25	0	3322937344	54	4087
2026-01-08 02:53:24.26	206.16	25.66	-44.6	-45.6	15.4	0.00e+00	0	25	0	3344957440	54	4280
2026-01-08 02:53:28.24	206.19	25.02	-44.7	-45.8	15.4	0.00e+00	0	25	0	3368026112	54	4360
2026-01-08 02:53:32.25	206.22	24.39	-44.7	-45.8	15.4	0.00e+00	0	25	0	3390046208	54	4344
2026-01-08 02:53:36.24	206.26	23.77	-44.9	-46.0	15.3	0.00e+00	0	25	0	3413114880	54	4453
2026-01-08 02:53:40.25	206.29	23.17	-44.9	-46.0	15.3	0.00e+00	0	25	0	3435134976	54	4464
2026-01-08 02:53:44.23	206.32	22.58	-45.0	-46.1	15.4	0.00e+00	0	25	0	3458203648	55	4255
2026-01-08 02:53:48.23	206.35	22.01	-45.1	-46.2	15.3	0.00e+00	0	25	0	3480223744	55	4331
2026-01-08 02:53:52.23	206.38	21.45	-45.2	-46.3	15.3	0.00e+00	0	25	0	3502243840	55	4372
2026-01-08 02:53:56.22	206.41	20.90	-45.6	-46.7	15.3	0.00e+00	0	25	0	3525312512	56	4316
2026-01-08 02:54:00.23	206.44	20.36	-45.6	-46.7	15.3	0.00e+00	0	25	0	3547332608	56	4316
2026-01-08 02:54:04.24	206.47	19.83	-45.6	-46.7	15.3	0.00e+00	0	25	0	3570401280	56	4329
2026-01-08 02:54:08.23	206.50	19.31	-45.8	-46.9	15.2	0.00e+00	0	25	0	3592421376	56	4415
2026-01-08 02:54:12.22	206.52	18.81	-45.9	-47.0	15.3	0.00e+00	0	25	0	3615490048	57	4236
2026-01-08 02:54:16.21	206.55	18.31	-46.0	-47.1	15.2	0.00e+00	0	25	0	3637510144	57	4284
2026-01-08 02:54:20.20	206.58	17.83	-46.2	-47.3	15.2	0.00e+00	0	25	0	3659530240	57	4371
2026-01-08 02:54:24.19	206.61	17.36	-46.3	-47.5	15.2	0.00e+00	0	25	0	3682598912	57	4445
2026-01-08 02:54:28.17	206.63	16.89	-46.5	-47.6	15.2	0.00e+00	0	25	0	3704619008	58	4281
2026-01-08 02:54:32.17	206.66	16.43	-46.6	-47.8	15.1	0.00e+00	0	25	0	3727687680	58	4347
2026-01-08 02:54:36.17	206.68	15.98	-46.7	-47.9	15.1	0.00e+00	0	25	0	3749707776	58	4412
2026-01-08 02:54:40.15	206.71	15.54	-46.7	-47.9	15.1	0.00e+00	0	25	0	3771727872	58	4429
2026-01-08 02:54:44.15	206.73	15.11	-46.8	-48.0	15.2	0.00e+00	0	25	0	3794796544	59	4223
2026-01-08 02:54:48.15	206.76	14.68	-46.9	-48.1	15.1	0.00e+00	0	25	0	3816816640	59	4285
2026-01-08 02:54:52.14	206.78	14.26	-47.0	-48.1	15.1	0.00e+00	0	25	0	3839885312	59	4289
2026-01-08 02:54:56.12	206.80	13.85	-47.0	-48.2	15.1	0.00e+00	0	25	0	3861905408	59	4327
2026-01-08 02:55:00.10	206.83	13.45	-47.1	-48.3	15.0	0.00e+00	0	25	0	3883925504	59	4370
2026-01-08 02:55:04.10	206.85	13.05	-47.3	-48.5	15.0	0.00e+00	0	25	0	3906994176	59	4452
2026-01-08 02:55:08.09	206.87	12.66	-47.2	-48.4	15.0	0.00e+00	0	25	0	3929014272	59	4441
2026-01-08 02:55:12.08	206.90	12.28	-47.4	-48.7	14.9	0.00e+00	0	25	0	3952082944	59	4547
2026-01-08 02:55:16.07	206.92	11.90	-47.0	-48.2	15.2	0.00e+00	0	25	0	3974103040	60	4062
2026-01-08 02:55:20.06	206.94	11.52	-47.1	-48.3	15.1	0.00e+00	0	25	0	3996123136	60	4114
2026-01-08 02:55:24.04	206.96	11.16	-47.2	-48.4	15.0	0.00e+00	0	25	0	4019191808	60	4184
2026-01-08 02:55:28.03	206.99	10.79	-47.4	-48.6	15.0	0.00e+00	0	25	0	4041211904	60	4259
2026-01-08 02:55:32.02	207.01	10.44	-47.5	-48.7	14.9	0.00e+00	0	25	0	4064280576	60	4310
2026-01-08 02:55:36.03	207.03	10.08	-47.6	-48.9	14.9	0.00e+00	0	25	0	4086300672	60	4407
2026-01-08 02:55:40.01	207.05	9.74	-47.5	-48.8	14.9	0.00e+00	0	25	0	4109369344	60	4352
2026-01-08 02:55:44.02	207.07	9.39	-47.7	-49.0	14.8	0.00e+00	0	25	0	4131389440	60	4452
2026-01-08 02:55:48.03	207.09	9.06	-47.8	-49.0	14.8	0.00e+00	0	25	0	4154458112	60	4478
2026-01-08 02:55:52.02	207.11	8.72	-47.9	-49.2	14.8	0.00e+00	0	24	0	4176478208	61	4319
2026-01-08 02:55:56.02	207.14	8.39	-47.9	-49.2	14.8	0.00e+00	0	25	0	4199546880	61	4302
2026-01-08 02:56:00.02	207.16	8.07	-48.0	-49.3	14.7	0.00e+00	0	25	0	4221566976	61	4386
2026-01-08 02:56:04.02	207.18	7.75	-48.1	-49.4	14.7	0.00e+00	0	25	0	4244635648	61	4421
2026-01-08 02:56:08.02	207.20	7.43	-48.2	-49.6	14.6	0.00e+00	0	25	0	4266655744	61	4507
2026-01-08 02:56:12.01	207.22	7.12	-48.4	-49.8	14.6	0.00e+00	0	25	0	4288675840	62	4362
2026-01-08 02:56:15.99	207.24	6.81	-48.4	-49.8	14.6	0.00e+00	0	25	0	4311744512	62	4345
2026-01-08 02:56:19.99	207.26	6.51	-48.7	-50.0	14.5	0.00e+00	0	25	0	4333764608	62	4490
2026-01-08 02:56:23.96	207.28	6.21	-48.7	-50.1	14.4	0.00e+00	0	25	0	4356833280	62	4534
2026-01-08 02:56:27.96	207.30	5.91	-49.0	-50.4	14.4	0.00e+00	0	25	0	4378853376	63	4418
2026-01-08 02:56:31.96	207.32	5.61	-48.9	-50.3	14.5	0.00e+00	0	25	0	4400873472	63	4361
2026-01-08 02:56:35.95	207.33	5.32	-49.1	-50.5	14.3	0.00e+00	0	25	0	4423942144	63	4482
2026-01-08 02:56:39.95	207.35	5.03	-49.0	-50.5	14.3	0.00e+00	0	25	0	4445962240	63	4472
2026-01-08 02:56:43.95	207.37	4.75	-58.9	-72.0	3.8	8.45e-01	0	25	104	4451205120	82	17806
2026-01-08 02:56:47.94	207.39	4.47	-59.3	-72.4	3.8	8.45e-01	0	25	104	4451205120	83	17642
2026-01-08 02:56:51.95	207.41	4.19	-59.8	-72.8	3.8	8.46e-01	0	25	104	4451205120	84	17466
2026-01-08 02:56:55.95	207.43	3.91	-59.9	-73.0	3.8	8.45e-01	0	25	104	4451205120	84	17859
2026-01-08 02:56:59.94	207.45	3.64	-60.1	-73.2	3.8	8.47e-01	0	25	104	4451205120	85	17173
2026-01-08 02:57:03.95	207.47	3.36	-60.2	-73.3	3.8	8.46e-01	0	25	104	4451205120	85	17352
2026-01-08 02:57:07.94	207.49	3.10	-60.1	-73.2	3.8	8.45e-01	0	25	104	4451205120	85	17231
2026-01-08 02:57:11.93	207.50	2.83	-60.1	-73.2	3.8	8.47e-01	0	25	104	4451205120	85	17184
2026-01-08 02:57:15.92	207.52	2.57	-60.0	-73.1	3.8	8.46e-01	0	25	104	4451205120	85	17023
2026-01-08 02:57:19.89	207.54	2.31	-60.0	-73.1	3.8	8.45e-01	0	25	104	4451205120	85	17038
2026-01-08 02:57:23.87	207.56	2.05	-60.0	-73.1	3.8	8.46e-01	0	25	104	4451205120	85	17050

#Closed at: 2026-01-08 02:57:26
#Recorded file [4451 MB]: D:/lorett/data/31004_260108_054256.dat