passes_logs/2026/01/08/R3.2S_Murmansk/R3.2S_Murmansk__20260108_234326_SUOMI_NPP_rec.log

#Pass ID: 20260108_234326_SUOMI NPP
#Satellite: SUOMI NPP
#Configuration: NPP
#almurnet v.1.7.20251203
#Start time: 2026-01-08 23:43:27

#Version: 2.2.20231116
#Station: R3.2S_Murmansk
#Location: 33.079688 lon 68.888172 lat
#TLE: 1 37849U 11061A   26008.05542337  .00000108  00000+0  71976-4 0  9997
#TLE: 2 37849  98.7805 310.1641 0002540  75.6410 284.5048 14.19523335735721

#Time	Az	El	Level	Level2	SNR	BER	BlckErr	Temp	State	Recorded	gain1	gain2
2026-01-08 23:43:27.76	21.32	2.06	-57.5	-72.8	3.8	1.49e+00	0	22	0	0	81	20627
2026-01-08 23:43:31.79	21.45	2.32	-57.4	-72.3	3.8	1.49e+00	0	22	104	0	79	21974
2026-01-08 23:43:35.80	21.59	2.57	-57.4	-72.2	3.8	1.49e+00	0	22	104	0	79	21611
2026-01-08 23:43:39.80	21.72	2.82	-57.3	-71.0	3.8	1.48e+00	0	22	104	0	79	18737
2026-01-08 23:43:43.80	21.86	3.08	-57.2	-69.1	4.4	1.28e+00	73	22	0	1048576	79	15165
2026-01-08 23:43:47.79	22.00	3.34	-57.1	-68.4	4.7	9.93e-01	0	22	0	8388608	79	14005
2026-01-08 23:43:51.79	22.14	3.60	-56.7	-64.9	6.9	1.89e-01	0	23	0	15728640	79	9303
2026-01-08 23:43:55.79	22.29	3.86	-55.5	-60.7	10.5	5.14e-03	0	23	0	24117248	77	6446
2026-01-08 23:43:59.78	22.43	4.12	-54.8	-59.2	11.7	3.43e-05	0	23	0	31457280	76	5750
2026-01-08 23:44:03.77	22.58	4.39	-54.8	-59.3	11.4	5.56e-05	0	23	0	38797312	75	6161
2026-01-08 23:44:07.77	22.73	4.66	-55.9	-62.2	9.1	6.39e-03	0	23	0	46137344	76	8088
2026-01-08 23:44:11.77	22.88	4.93	-56.6	-65.1	6.7	1.23e-01	0	23	0	53477376	78	10073
2026-01-08 23:44:15.76	23.04	5.21	-57.1	-67.2	5.5	3.89e-01	0	23	0	60817408	79	12098
2026-01-08 23:44:19.75	23.20	5.49	-55.0	-59.4	11.6	3.33e-04	0	23	0	67108864	76	5896
2026-01-08 23:44:23.75	23.36	5.77	-53.9	-57.5	12.9	0.00e+00	0	23	0	74448896	74	5283
2026-01-08 23:44:27.75	23.52	6.05	-53.5	-56.8	13.3	0.00e+00	0	23	0	81788928	73	5167
2026-01-08 23:44:31.75	23.69	6.34	-53.3	-56.4	13.4	0.00e+00	0	23	0	89128960	72	5238
2026-01-08 23:44:35.75	23.86	6.63	-53.0	-55.9	13.7	0.00e+00	0	23	0	96468992	72	4936
2026-01-08 23:44:39.74	24.03	6.92	-52.9	-55.7	13.8	0.00e+00	0	23	0	103809024	72	4828
2026-01-08 23:44:43.73	24.21	7.22	-53.0	-55.7	13.8	0.00e+00	0	23	0	112197632	72	4858
2026-01-08 23:44:47.72	24.39	7.52	-52.8	-55.4	14.0	0.00e+00	0	23	0	119537664	72	4679
2026-01-08 23:44:51.70	24.57	7.82	-52.9	-55.6	13.9	0.00e+00	0	23	0	126877696	72	4772
2026-01-08 23:44:55.68	24.75	8.12	-52.9	-55.6	13.9	0.00e+00	0	23	0	134217728	72	4767
2026-01-08 23:44:59.68	24.94	8.44	-53.1	-55.8	13.8	0.00e+00	0	23	0	141557760	72	4894
2026-01-08 23:45:03.69	25.14	8.75	-53.0	-55.7	13.9	0.00e+00	0	23	0	148897792	72	4847
2026-01-08 23:45:07.70	25.33	9.07	-53.0	-55.6	13.9	0.00e+00	0	23	0	156237824	72	4796
2026-01-08 23:45:11.69	25.53	9.39	-53.0	-55.7	13.9	0.00e+00	0	24	0	164626432	72	4821
2026-01-08 23:45:15.68	25.74	9.71	-52.9	-55.5	14.0	0.00e+00	0	24	0	171966464	72	4743
2026-01-08 23:45:19.68	25.95	10.04	-52.7	-55.2	14.2	0.00e+00	0	23	0	179306496	72	4556
2026-01-08 23:45:23.68	26.16	10.38	-52.6	-55.1	14.1	0.00e+00	0	24	0	186646528	71	4769
2026-01-08 23:45:27.69	26.38	10.71	-52.4	-54.8	14.3	0.00e+00	0	23	0	193986560	71	4607
2026-01-08 23:45:31.69	26.60	11.06	-52.4	-54.7	14.4	0.00e+00	0	24	0	201326592	71	4589
2026-01-08 23:45:35.69	26.83	11.40	-52.2	-54.5	14.5	0.00e+00	0	24	0	208666624	71	4488
2026-01-08 23:45:39.68	27.06	11.75	-52.0	-54.2	14.5	0.00e+00	0	24	0	217055232	70	4561
2026-01-08 23:45:43.68	27.30	12.11	-51.8	-53.9	14.7	0.00e+00	0	24	0	224395264	70	4406
2026-01-08 23:45:47.67	27.54	12.47	-51.6	-53.6	14.7	0.00e+00	0	24	0	231735296	69	4539
2026-01-08 23:45:51.66	27.79	12.83	-51.3	-53.3	14.9	0.00e+00	0	24	0	239075328	69	4374
2026-01-08 23:45:55.65	28.05	13.20	-51.3	-53.2	14.9	0.00e+00	0	24	0	246415360	69	4324
2026-01-08 23:45:59.67	28.31	13.58	-51.1	-53.0	14.9	0.00e+00	0	24	0	253755392	68	4461
2026-01-08 23:46:03.66	28.57	13.96	-51.2	-53.2	14.8	0.00e+00	0	24	0	261095424	68	4569
2026-01-08 23:46:07.65	28.85	14.35	-51.1	-53.1	14.9	0.00e+00	0	24	0	269484032	68	4500
2026-01-08 23:46:11.65	29.13	14.74	-51.1	-53.0	14.9	0.00e+00	0	24	0	276824064	68	4454
2026-01-08 23:46:15.64	29.41	15.14	-51.0	-52.8	15.0	0.00e+00	0	24	0	284164096	68	4379
2026-01-08 23:46:19.64	29.71	15.55	-50.9	-52.7	15.0	0.00e+00	0	24	0	291504128	68	4318
2026-01-08 23:46:23.65	30.01	15.96	-51.0	-52.9	14.9	0.00e+00	0	24	0	298844160	68	4421
2026-01-08 23:46:27.65	30.32	16.37	-50.9	-52.7	15.0	0.00e+00	0	24	0	306184192	68	4334
2026-01-08 23:46:31.63	30.64	16.80	-50.8	-52.7	15.0	0.00e+00	0	24	0	313524224	68	4306
2026-01-08 23:46:35.63	30.97	17.23	-50.7	-52.6	14.9	0.00e+00	0	24	0	321912832	67	4512
2026-01-08 23:46:39.63	31.30	17.66	-50.6	-52.4	15.0	0.00e+00	0	24	0	329252864	67	4425
2026-01-08 23:46:43.62	31.65	18.11	-50.6	-52.5	15.0	0.00e+00	0	24	0	336592896	67	4448
2026-01-08 23:46:47.61	32.00	18.56	-50.4	-52.2	15.1	0.00e+00	0	24	0	343932928	67	4320
2026-01-08 23:46:51.58	32.36	19.01	-50.4	-52.2	15.1	0.00e+00	0	24	0	351272960	67	4311
2026-01-08 23:46:55.57	32.74	19.48	-50.4	-52.2	15.0	0.00e+00	0	24	0	358612992	67	4334
2026-01-08 23:46:59.58	33.13	19.95	-50.8	-52.8	14.8	0.00e+00	0	24	0	365953024	67	4624
2026-01-08 23:47:03.58	33.53	20.44	-50.9	-52.9	14.8	0.00e+00	0	24	0	374341632	67	4688
2026-01-08 23:47:07.58	33.94	20.93	-50.5	-52.4	15.0	0.00e+00	0	24	0	381681664	67	4412
2026-01-08 23:47:11.57	34.36	21.42	-50.7	-52.6	14.9	0.00e+00	0	24	0	389021696	67	4527
2026-01-08 23:47:15.57	34.80	21.93	-50.5	-52.4	15.0	0.00e+00	0	24	0	396361728	67	4417
2026-01-08 23:47:19.58	35.25	22.45	-50.5	-52.4	15.0	0.00e+00	0	24	0	403701760	67	4424
2026-01-08 23:47:23.59	35.72	22.97	-50.8	-52.8	14.8	0.00e+00	0	24	0	411041792	67	4635
2026-01-08 23:47:27.59	36.20	23.51	-50.8	-52.8	14.8	0.00e+00	0	24	0	419430400	67	4601
2026-01-08 23:47:31.59	36.70	24.05	-50.6	-52.6	14.9	0.00e+00	0	24	0	426770432	67	4504
2026-01-08 23:47:35.60	37.21	24.60	-50.7	-52.7	14.9	0.00e+00	0	24	0	434110464	67	4559
2026-01-08 23:47:39.60	37.75	25.17	-50.8	-52.8	14.8	0.00e+00	0	24	0	441450496	67	4641
2026-01-08 23:47:43.60	38.30	25.74	-50.8	-52.8	14.8	0.00e+00	0	24	0	448790528	67	4638
2026-01-08 23:47:47.60	38.87	26.32	-50.8	-52.8	14.8	0.00e+00	0	24	0	456130560	67	4630
2026-01-08 23:47:51.59	39.46	26.91	-51.1	-53.1	14.7	0.00e+00	0	24	0	463470592	67	4791
2026-01-08 23:47:55.57	40.07	27.50	-51.6	-53.7	14.5	0.00e+00	0	24	0	471859200	68	4865
2026-01-08 23:47:59.56	40.71	28.11	-52.0	-54.2	14.4	0.00e+00	0	24	0	479199232	69	4861
2026-01-08 23:48:03.57	41.37	28.74	-52.5	-54.9	14.2	0.00e+00	0	24	0	486539264	70	4970
2026-01-08 23:48:07.57	42.06	29.37	-52.6	-55.1	14.1	0.00e+00	0	24	0	493879296	70	5070
2026-01-08 23:48:11.57	42.77	30.01	-53.1	-55.8	13.9	0.00e+00	0	24	0	501219328	71	5171
2026-01-08 23:48:15.57	43.51	30.66	-52.8	-55.1	14.4	0.00e+00	0	24	0	508559360	72	4527
2026-01-08 23:48:19.56	44.28	31.31	-53.4	-56.2	13.8	0.00e+00	0	24	0	515899392	72	5121
2026-01-08 23:48:23.58	45.09	31.99	-52.8	-55.2	14.4	0.00e+00	0	24	0	524288000	72	4568
2026-01-08 23:48:27.58	45.92	32.66	-52.2	-54.4	14.5	0.00e+00	0	24	0	531628032	70	4666
2026-01-08 23:48:31.59	46.80	33.35	-52.6	-55.1	14.2	0.00e+00	0	24	0	538968064	70	5060
2026-01-08 23:48:35.60	47.71	34.05	-52.2	-54.4	14.5	0.00e+00	0	24	0	546308096	70	4691
2026-01-08 23:48:39.60	48.65	34.75	-51.4	-53.5	14.9	0.00e+00	0	24	0	553648128	69	4456
2026-01-08 23:48:43.59	49.64	35.46	-52.4	-55.0	14.2	0.00e+00	0	24	0	560988160	70	4988
2026-01-08 23:48:47.58	50.67	36.18	-51.9	-54.3	14.6	0.00e+00	0	24	0	569376768	70	4617
2026-01-08 23:48:51.57	51.75	36.90	-51.7	-54.1	14.5	0.00e+00	0	24	0	576716800	69	4786
2026-01-08 23:48:55.57	52.87	37.62	-50.9	-53.2	14.8	0.00e+00	0	24	0	584056832	68	4562
2026-01-08 23:48:59.54	54.04	38.35	-50.6	-52.6	14.9	0.00e+00	0	24	0	591396864	67	4534
2026-01-08 23:49:03.54	55.27	39.08	-50.3	-52.4	14.8	0.00e+00	0	24	0	598736896	66	4685
2026-01-08 23:49:07.54	56.55	39.81	-50.6	-52.8	14.7	0.00e+00	0	24	0	606076928	66	4879
2026-01-08 23:49:11.53	57.89	40.54	-51.1	-53.4	14.5	0.00e+00	0	24	0	613416960	67	4941
2026-01-08 23:49:15.53	59.30	41.27	-51.0	-53.3	14.6	0.00e+00	0	24	0	621805568	67	4874
2026-01-08 23:49:19.54	60.77	42.00	-50.4	-52.4	15.0	0.00e+00	0	24	0	629145600	67	4401
2026-01-08 23:49:23.54	62.30	42.71	-50.7	-52.8	14.7	0.00e+00	0	24	0	636485632	66	4874
2026-01-08 23:49:27.52	63.90	43.42	-50.0	-51.8	15.0	0.00e+00	0	24	0	643825664	65	4619
2026-01-08 23:49:31.52	65.57	44.11	-51.6	-53.8	14.6	0.00e+00	0	24	0	651165696	68	4892
2026-01-08 23:49:35.51	67.31	44.79	-51.1	-53.2	14.9	0.00e+00	0	24	0	658505728	68	4564
2026-01-08 23:49:39.53	69.14	45.45	-52.1	-54.4	14.4	0.00e+00	0	24	0	665845760	69	4964
2026-01-08 23:49:43.52	71.03	46.09	-51.6	-53.8	14.8	0.00e+00	0	24	0	674234368	69	4616
2026-01-08 23:49:47.52	73.01	46.70	-52.7	-55.5	14.0	0.00e+00	0	24	0	681574400	70	5322
2026-01-08 23:49:51.50	75.04	47.28	-52.3	-54.7	14.4	0.00e+00	0	24	0	688914432	70	4839
2026-01-08 23:49:55.50	77.17	47.83	-52.1	-54.3	14.6	0.00e+00	0	24	0	696254464	70	4644
2026-01-08 23:49:59.49	79.36	48.35	-51.2	-53.1	15.0	0.00e+00	0	24	0	703594496	69	4265
2026-01-08 23:50:03.47	81.62	48.82	-51.9	-54.2	14.5	0.00e+00	0	24	0	710934528	69	4828
2026-01-08 23:50:07.46	83.95	49.25	-50.9	-52.9	14.9	0.00e+00	0	24	0	718274560	68	4441
2026-01-08 23:50:11.46	86.34	49.63	-50.5	-52.3	15.1	0.00e+00	0	24	0	726663168	67	4388
2026-01-08 23:50:15.46	88.80	49.97	-48.8	-50.4	15.4	0.00e+00	0	24	0	734003200	64	4166
2026-01-08 23:50:19.46	91.30	50.25	-50.0	-51.9	14.9	0.00e+00	0	24	0	741343232	65	4662
2026-01-08 23:50:23.46	93.85	50.47	-50.4	-52.3	14.9	0.00e+00	0	24	0	748683264	66	4635
2026-01-08 23:50:27.43	96.41	50.63	-51.0	-53.3	14.8	0.00e+00	0	24	0	756023296	68	4607
2026-01-08 23:50:31.43	99.01	50.74	-49.6	-51.3	15.2	0.00e+00	0	24	0	763363328	65	4373
2026-01-08 23:50:35.43	101.62	50.78	-50.7	-52.7	15.1	0.00e+00	0	24	0	770703360	68	4333
2026-01-08 23:50:39.42	104.23	50.76	-49.5	-51.2	15.3	0.00e+00	0	24	0	779091968	65	4315
2026-01-08 23:50:43.41	106.84	50.68	-50.0	-51.8	15.0	0.00e+00	0	24	0	786432000	65	4607
2026-01-08 23:50:47.41	109.43	50.54	-50.7	-52.7	15.0	0.00e+00	0	24	0	793772032	67	4556
2026-01-08 23:50:51.42	111.99	50.34	-50.0	-51.8	15.2	0.00e+00	0	24	0	801112064	66	4358
2026-01-08 23:50:55.42	114.52	50.09	-50.2	-52.1	15.1	0.00e+00	0	24	0	808452096	66	4536
2026-01-08 23:50:59.40	116.98	49.78	-52.4	-55.1	14.2	0.00e+00	0	24	0	815792128	71	4799
2026-01-08 23:51:03.39	119.40	49.41	-53.1	-56.1	13.8	0.00e+00	0	24	0	823132160	71	5399
2026-01-08 23:51:07.39	121.77	49.00	-54.4	-58.6	12.4	0.00e+00	0	24	0	831520768	74	6005
2026-01-08 23:51:11.40	124.07	48.54	-52.4	-55.0	14.4	0.00e+00	0	24	0	838860800	71	4708
2026-01-08 23:51:15.40	126.30	48.04	-51.6	-53.8	14.8	0.00e+00	0	24	0	846200832	69	4599
2026-01-08 23:51:19.40	128.46	47.50	-52.9	-55.8	14.0	0.00e+00	0	24	0	853540864	72	4902
2026-01-08 23:51:23.38	130.53	46.93	-54.6	-59.4	11.8	2.36e-05	0	24	0	860880896	74	6631
2026-01-08 23:51:27.38	132.53	46.33	-54.6	-59.1	12.0	0.00e+00	0	24	0	868220928	74	6402
2026-01-08 23:51:31.38	134.46	45.70	-54.8	-60.3	11.2	7.60e-06	0	24	0	875560960	74	7304
2026-01-08 23:51:35.38	136.32	45.04	-53.0	-56.4	13.5	0.00e+00	0	24	0	883949568	72	5257
2026-01-08 23:51:39.36	138.09	44.37	-52.8	-55.9	13.8	0.00e+00	0	24	0	891289600	72	4982
2026-01-08 23:51:43.36	139.79	43.68	-51.5	-53.8	14.7	0.00e+00	0	24	0	898629632	69	4600
2026-01-08 23:51:47.35	141.42	42.98	-51.3	-53.5	14.6	0.00e+00	0	24	0	905969664	68	4756
2026-01-08 23:51:51.35	142.99	42.26	-50.1	-52.1	15.0	0.00e+00	0	24	0	913309696	66	4506
2026-01-08 23:51:55.34	144.48	41.54	-50.4	-52.4	14.9	0.00e+00	0	24	0	920649728	67	4427
2026-01-08 23:51:59.33	145.91	40.82	-52.3	-55.2	13.8	0.00e+00	0	24	0	927989760	69	5462
2026-01-08 23:52:03.31	147.27	40.09	-51.8	-54.2	14.6	0.00e+00	0	24	0	936378368	70	4584
2026-01-08 23:52:07.31	148.58	39.35	-52.1	-54.8	14.2	0.00e+00	0	24	0	943718400	70	4926
2026-01-08 23:52:11.31	149.83	38.62	-53.1	-56.5	13.3	0.00e+00	0	24	0	951058432	71	5650
2026-01-08 23:52:15.28	151.02	37.89	-51.6	-53.9	14.6	0.00e+00	0	24	0	958398464	69	4702
2026-01-08 23:52:19.29	152.17	37.15	-54.0	-58.1	12.6	0.00e+00	0	24	0	965738496	73	6051
2026-01-08 23:52:23.29	153.27	36.43	-51.8	-54.0	14.5	0.00e+00	0	24	0	973078528	69	4753
2026-01-08 23:52:27.28	154.32	35.71	-54.5	-58.3	12.6	7.00e-07	0	24	0	980418560	74	5845
2026-01-08 23:52:31.27	155.33	34.99	-50.9	-52.7	14.9	0.00e+00	0	24	0	988807168	67	4557
2026-01-08 23:52:35.27	156.29	34.28	-54.8	-58.9	12.3	0.00e+00	0	24	0	996147200	74	6211
2026-01-08 23:52:39.27	157.22	33.58	-52.6	-55.1	14.3	0.00e+00	0	24	0	1003487232	71	4766
2026-01-08 23:52:43.27	158.10	32.89	-53.3	-56.2	13.6	0.00e+00	0	24	0	1010827264	71	5439
2026-01-08 23:52:47.26	158.95	32.21	-53.6	-56.8	13.5	0.00e+00	0	24	0	1018167296	73	5211
2026-01-08 23:52:51.26	159.77	31.53	-52.3	-54.5	14.4	0.00e+00	0	24	0	1025507328	70	4742
2026-01-08 23:52:55.25	160.55	30.87	-53.1	-55.9	13.7	0.00e+00	0	24	0	1032847360	71	5257
2026-01-08 23:52:59.22	161.30	30.22	-54.2	-58.0	12.7	0.00e+00	0	24	0	1041235968	73	5955
2026-01-08 23:53:03.21	162.02	29.57	-53.1	-55.8	14.0	0.00e+00	0	24	0	1048576000	72	4917
2026-01-08 23:53:07.21	162.72	28.93	-53.7	-57.0	13.2	0.00e+00	0	24	0	1055916032	72	5651
2026-01-08 23:53:11.21	163.39	28.31	-53.6	-56.8	13.5	0.00e+00	0	24	0	1063256064	73	5181
2026-01-08 23:53:15.21	164.04	27.69	-51.9	-54.0	14.7	0.00e+00	0	24	0	1070596096	70	4470
2026-01-08 23:53:19.20	164.66	27.08	-51.2	-53.1	14.8	0.00e+00	0	24	0	1077936128	68	4518
2026-01-08 23:53:23.20	165.26	26.49	-52.0	-54.4	14.3	0.00e+00	0	24	0	1085276160	69	4938
2026-01-08 23:53:27.20	165.84	25.90	-53.0	-55.7	13.9	0.00e+00	0	24	0	1093664768	71	5150
2026-01-08 23:53:31.20	166.40	25.32	-51.8	-53.9	14.7	0.00e+00	0	24	0	1101004800	70	4414
2026-01-08 23:53:35.18	166.94	24.76	-51.2	-53.1	14.8	0.00e+00	0	24	0	1108344832	68	4529
2026-01-08 23:53:39.17	167.46	24.20	-52.2	-54.6	14.1	0.00e+00	0	24	0	1115684864	69	5072
2026-01-08 23:53:43.19	167.96	23.65	-52.3	-54.7	14.3	0.00e+00	0	24	0	1123024896	70	4850
2026-01-08 23:53:47.19	168.45	23.11	-51.8	-54.1	14.6	0.00e+00	0	24	0	1130364928	70	4533
2026-01-08 23:53:51.18	168.92	22.58	-51.0	-53.0	14.9	0.00e+00	0	24	0	1137704960	68	4465
2026-01-08 23:53:55.17	169.38	22.06	-51.1	-53.2	14.8	0.00e+00	0	24	0	1146093568	68	4579
2026-01-08 23:53:59.18	169.82	21.55	-51.7	-53.9	14.5	0.00e+00	0	24	0	1153433600	68	4960
2026-01-08 23:54:03.15	170.25	21.04	-52.5	-55.1	14.1	0.00e+00	0	24	0	1160773632	70	5045
2026-01-08 23:54:07.14	170.66	20.55	-52.4	-54.8	14.2	0.00e+00	0	24	0	1168113664	70	4913
2026-01-08 23:54:11.14	171.07	20.06	-52.0	-54.2	14.5	0.00e+00	0	24	0	1175453696	70	4597
2026-01-08 23:54:15.06	171.45	19.59	-51.0	-52.9	14.9	0.00e+00	0	24	0	1182793728	68	4436
2026-01-08 23:54:19.06	171.83	19.12	-51.1	-53.1	14.8	0.00e+00	0	24	0	1190133760	68	4530
2026-01-08 23:54:23.05	172.20	18.66	-51.6	-53.7	14.5	0.00e+00	0	24	0	1197473792	68	4850
2026-01-08 23:54:27.05	172.56	18.20	-51.6	-53.7	14.5	0.00e+00	0	24	0	1205862400	68	4848
2026-01-08 23:54:31.04	172.90	17.75	-51.0	-52.9	14.9	0.00e+00	0	24	0	1213202432	68	4420
2026-01-08 23:54:35.03	173.24	17.31	-50.4	-52.1	15.1	0.00e+00	0	24	0	1220542464	67	4282
2026-01-08 23:54:39.02	173.57	16.88	-50.5	-52.1	14.9	0.00e+00	0	24	0	1227882496	66	4514
2026-01-08 23:54:43.04	173.89	16.45	-50.6	-52.3	14.9	0.00e+00	0	24	0	1235222528	66	4630
2026-01-08 23:54:47.04	174.21	16.03	-51.4	-53.2	14.6	0.00e+00	0	24	0	1242562560	67	4850
2026-01-08 23:54:51.03	174.51	15.61	-52.2	-54.3	14.3	0.00e+00	0	24	0	1250951168	69	4902
2026-01-08 23:54:55.02	174.80	15.21	-52.6	-54.8	14.2	0.00e+00	0	24	0	1258291200	70	4918
2026-01-08 23:54:59.01	175.09	14.80	-52.7	-55.0	14.1	0.00e+00	0	24	0	1265631232	70	5028
2026-01-08 23:55:02.99	175.37	14.41	-52.4	-54.5	14.4	0.00e+00	0	24	0	1272971264	70	4731
2026-01-08 23:55:06.99	175.65	14.02	-51.8	-53.6	14.8	0.00e+00	0	24	0	1280311296	70	4287
2026-01-08 23:55:10.97	175.91	13.63	-51.3	-53.1	14.9	0.00e+00	0	24	0	1287651328	69	4256
2026-01-08 23:55:14.95	176.18	13.26	-51.0	-52.7	15.0	0.00e+00	0	24	0	1294991360	68	4323
2026-01-08 23:55:18.94	176.43	12.88	-51.2	-53.0	14.8	0.00e+00	0	24	0	1302331392	68	4461
2026-01-08 23:55:22.93	176.68	12.51	-51.8	-53.8	14.4	0.00e+00	0	24	0	1310720000	68	4885
2026-01-08 23:55:26.92	176.92	12.15	-52.2	-54.3	14.3	0.00e+00	0	24	0	1318060032	69	4871
2026-01-08 23:55:30.91	177.16	11.79	-52.5	-54.7	14.2	0.00e+00	0	24	0	1325400064	70	4863
2026-01-08 23:55:34.90	177.39	11.44	-52.1	-54.2	14.5	0.00e+00	0	24	0	1332740096	70	4572
2026-01-08 23:55:38.91	177.62	11.09	-52.3	-54.4	14.4	0.00e+00	0	24	0	1340080128	70	4694
2026-01-08 23:55:42.92	177.84	10.74	-52.0	-54.0	14.6	0.00e+00	0	24	0	1347420160	70	4466
2026-01-08 23:55:46.91	178.06	10.40	-52.0	-54.0	14.6	0.00e+00	0	24	0	1355808768	70	4490
2026-01-08 23:55:50.90	178.27	10.07	-51.9	-53.9	14.7	0.00e+00	0	24	0	1363148800	70	4392
2026-01-08 23:55:54.88	178.48	9.73	-51.8	-53.8	14.7	0.00e+00	0	24	0	1370488832	70	4362
2026-01-08 23:55:58.88	178.69	9.41	-52.0	-54.0	14.6	0.00e+00	0	24	0	1377828864	70	4475
2026-01-08 23:56:02.87	178.89	9.08	-52.0	-54.1	14.5	0.00e+00	0	24	0	1385168896	70	4497
2026-01-08 23:56:06.85	179.08	8.76	-52.3	-54.4	14.3	0.00e+00	0	24	0	1392508928	70	4676
2026-01-08 23:56:10.85	179.28	8.45	-52.4	-54.7	14.2	0.00e+00	0	24	0	1399848960	70	4815
2026-01-08 23:56:14.83	179.46	8.14	-52.6	-54.9	14.0	0.00e+00	0	24	0	1407188992	70	4950
2026-01-08 23:56:18.83	179.65	7.83	-52.9	-55.3	13.8	0.00e+00	0	24	0	1415577600	70	5217
2026-01-08 23:56:22.83	179.83	7.52	-53.1	-55.7	13.7	0.00e+00	0	24	0	1422917632	71	5128
2026-01-08 23:56:26.83	180.01	7.22	-53.4	-56.2	13.5	0.00e+00	0	24	0	1430257664	72	5103
2026-01-08 23:56:30.83	180.18	6.92	-53.7	-56.6	13.2	0.00e+00	0	24	0	1437597696	72	5380
2026-01-08 23:56:34.82	180.35	6.63	-54.0	-57.1	13.0	0.00e+00	0	24	0	1444937728	73	5358
2026-01-08 23:56:38.81	180.52	6.33	-54.0	-57.3	12.8	0.00e+00	0	24	0	1452277760	73	5471
2026-01-08 23:56:42.80	180.69	6.04	-54.2	-57.5	12.6	0.00e+00	0	24	0	1459617792	73	5642
2026-01-08 23:56:46.79	180.85	5.76	-54.4	-57.9	12.3	0.00e+00	0	24	0	1468006400	73	5905
2026-01-08 23:56:50.79	181.01	5.48	-54.2	-57.6	12.5	0.00e+00	0	24	0	1475346432	73	5701
2026-01-08 23:56:54.78	181.16	5.20	-54.2	-57.7	12.4	0.00e+00	0	24	0	1482686464	73	5746
2026-01-08 23:56:58.78	181.32	4.92	-58.2	-74.2	3.8	1.49e+00	0	24	104	1487929344	81	24189
2026-01-08 23:57:02.78	181.47	4.64	-58.9	-75.0	3.8	1.49e+00	0	24	104	1487929344	82	25026
2026-01-08 23:57:06.76	181.62	4.37	-59.2	-75.3	3.8	1.49e+00	0	24	104	1487929344	83	24662
2026-01-08 23:57:10.75	181.76	4.10	-59.6	-75.7	3.8	1.49e+00	0	24	104	1487929344	84	24200
2026-01-08 23:57:14.75	181.91	3.83	-59.8	-75.8	3.8	1.49e+00	0	24	104	1487929344	84	24583
2026-01-08 23:57:18.75	182.05	3.57	-59.8	-75.9	3.8	1.49e+00	0	24	104	1487929344	84	24731
2026-01-08 23:57:22.76	182.19	3.31	-59.8	-75.8	3.8	1.49e+00	0	24	104	1487929344	84	24617
2026-01-08 23:57:26.76	182.33	3.05	-59.7	-75.8	3.8	1.49e+00	0	24	104	1487929344	84	24459
2026-01-08 23:57:30.76	182.46	2.79	-59.7	-75.7	3.8	1.49e+00	0	24	104	1487929344	84	24363
2026-01-08 23:57:34.75	182.59	2.53	-59.7	-75.7	3.8	1.49e+00	0	24	104	1487929344	84	24317
2026-01-08 23:57:38.75	182.72	2.28	-59.6	-75.7	3.8	1.49e+00	0	24	104	1487929344	84	24240
2026-01-08 23:57:42.75	182.85	2.03	-59.6	-75.7	3.8	1.49e+00	0	24	104	1487929344	84	24265

#Closed at: 2026-01-08 23:57:46
#Recorded file [1487 MB]: D:/lorett/data/31004_260109_024327.dat