passes_logs/2026/01/08/R3.2S_Murmansk/R3.2S_Murmansk__20260108_052227_NOAA_20_JPSS-1_rec.log

#Pass ID: 20260108_052227_NOAA 20 (JPSS-1)
#Satellite: NOAA 20 (JPSS-1)
#Configuration: NOAA 20
#almurnet v.1.7.20251203
#Start time: 2026-01-08 05:22:28

#Version: 2.2.20231116
#Station: R3.2S_Murmansk
#Location: 33.079688 lon 68.888172 lat
#TLE: 1 43013U 17073A   26006.30790171  .00000126  00000+0  80695-4 0  9991
#TLE: 2 43013  98.7629 307.3394 0001808  51.8724 308.2615 14.19533762421505

#Time	Az	El	Level	Level2	SNR	BER	BlckErr	Temp	State	Recorded	gain1	gain2
2026-01-08 05:22:28.30	65.35	2.04	-57.4	-73.4	3.8	1.49e+00	0	23	0	0	81	22138
2026-01-08 05:22:32.30	65.09	2.27	-57.4	-73.4	3.8	1.49e+00	0	23	104	0	79	24795
2026-01-08 05:22:36.29	64.83	2.49	-57.4	-73.4	3.8	1.49e+00	0	23	104	0	79	24773
2026-01-08 05:22:40.30	64.56	2.73	-57.3	-73.3	3.8	1.49e+00	0	23	104	0	79	24666
2026-01-08 05:22:44.30	64.29	2.96	-57.4	-73.4	3.8	1.49e+00	0	23	104	0	79	24700
2026-01-08 05:22:48.32	64.02	3.19	-57.4	-73.4	3.8	1.49e+00	0	23	104	0	79	24779
2026-01-08 05:22:52.32	63.74	3.42	-57.4	-73.3	3.8	1.49e+00	0	23	104	0	79	24686
2026-01-08 05:22:56.31	63.45	3.66	-57.3	-73.4	3.8	1.49e+00	0	23	104	0	79	24737
2026-01-08 05:23:00.31	63.17	3.90	-57.3	-73.3	3.8	1.49e+00	0	23	104	0	79	24635
2026-01-08 05:23:04.29	62.87	4.13	-57.3	-73.3	3.8	1.49e+00	0	23	104	0	79	24627
2026-01-08 05:23:08.29	62.57	4.37	-57.3	-73.1	3.8	1.49e+00	0	24	104	0	79	23936
2026-01-08 05:23:12.27	62.27	4.61	-57.2	-70.8	3.9	1.48e+00	0	24	104	0	79	18316
2026-01-08 05:23:16.27	61.96	4.85	-57.0	-67.1	5.3	6.48e-01	0	24	0	4194304	79	12028
2026-01-08 05:23:20.27	61.65	5.10	-56.8	-65.5	6.4	1.85e-01	0	24	0	11534336	79	10022
2026-01-08 05:23:24.26	61.33	5.34	-57.1	-69.3	3.9	8.70e-01	0	24	104	17825792	79	15569
2026-01-08 05:23:28.26	61.00	5.59	-54.7	-58.4	12.4	2.20e-06	0	24	0	24117248	76	5226
2026-01-08 05:23:32.24	60.67	5.83	-54.1	-57.3	12.9	7.00e-07	0	24	0	31457280	74	5185
2026-01-08 05:23:36.24	60.34	6.08	-53.9	-56.9	13.2	7.00e-07	0	24	0	38797312	74	4975
2026-01-08 05:23:40.24	59.99	6.33	-53.8	-56.7	13.3	0.00e+00	0	24	0	47185920	74	4864
2026-01-08 05:23:44.22	59.64	6.58	-54.0	-57.1	13.2	0.00e+00	0	24	0	54525952	74	5052
2026-01-08 05:23:48.20	59.29	6.84	-54.1	-57.2	13.1	0.00e+00	0	24	0	61865984	74	5123
2026-01-08 05:23:52.19	58.93	7.09	-53.9	-56.8	13.4	0.00e+00	0	24	0	69206016	74	4922
2026-01-08 05:23:56.18	58.56	7.34	-53.9	-56.8	13.3	0.00e+00	0	24	0	76546048	74	4899
2026-01-08 05:24:00.15	58.19	7.60	-53.8	-56.7	13.4	0.00e+00	0	24	0	83886080	74	4865
2026-01-08 05:24:04.14	57.81	7.86	-53.8	-56.6	13.5	0.00e+00	0	24	0	91226112	74	4810
2026-01-08 05:24:08.12	57.42	8.12	-53.5	-56.2	13.7	0.00e+00	0	24	0	98566144	73	4819
2026-01-08 05:24:12.10	57.02	8.38	-53.4	-56.0	13.8	0.00e+00	0	24	0	106954752	73	4706
2026-01-08 05:24:16.09	56.62	8.64	-53.5	-56.1	13.7	0.00e+00	0	24	0	114294784	73	4788
2026-01-08 05:24:20.08	56.21	8.90	-53.4	-56.1	13.7	0.00e+00	0	24	0	121634816	73	4766
2026-01-08 05:24:24.07	55.79	9.17	-53.4	-55.9	13.8	0.00e+00	0	24	0	128974848	73	4701
2026-01-08 05:24:28.07	55.36	9.44	-53.6	-56.2	13.7	0.00e+00	0	24	0	136314880	73	4862
2026-01-08 05:24:32.06	54.93	9.70	-53.5	-56.1	13.7	0.00e+00	0	24	0	143654912	73	4811
2026-01-08 05:24:36.05	54.48	9.97	-53.6	-56.2	13.7	0.00e+00	0	24	0	150994944	73	4867
2026-01-08 05:24:40.05	54.03	10.24	-53.6	-56.3	13.7	0.00e+00	0	24	0	158334976	73	4906
2026-01-08 05:24:44.05	53.57	10.52	-53.5	-56.1	13.8	0.00e+00	0	24	0	166723584	73	4769
2026-01-08 05:24:48.05	53.10	10.79	-53.5	-56.1	13.7	0.00e+00	0	24	0	174063616	73	4813
2026-01-08 05:24:52.04	52.62	11.06	-53.2	-55.7	13.9	0.00e+00	0	24	0	181403648	72	4839
2026-01-08 05:24:56.03	52.13	11.34	-53.0	-55.4	14.1	0.00e+00	0	24	0	188743680	72	4687
2026-01-08 05:25:00.03	51.64	11.61	-52.8	-55.1	14.3	0.00e+00	0	24	0	196083712	72	4496
2026-01-08 05:25:04.01	51.13	11.89	-53.0	-55.3	14.2	0.00e+00	0	24	0	203423744	72	4618
2026-01-08 05:25:07.99	50.62	12.16	-53.0	-55.3	14.2	0.00e+00	0	24	0	210763776	72	4606
2026-01-08 05:25:11.99	50.09	12.44	-52.9	-55.2	14.2	0.00e+00	0	24	0	219152384	72	4561
2026-01-08 05:25:15.98	49.55	12.72	-52.6	-54.8	14.3	0.00e+00	0	24	0	226492416	71	4619
2026-01-08 05:25:19.98	49.00	13.00	-52.5	-54.6	14.4	0.00e+00	0	24	0	233832448	71	4516
2026-01-08 05:25:23.99	48.44	13.28	-52.4	-54.5	14.5	0.00e+00	0	24	0	241172480	71	4449
2026-01-08 05:25:27.98	47.87	13.56	-52.4	-54.5	14.5	0.00e+00	0	24	0	248512512	71	4468
2026-01-08 05:25:31.98	47.29	13.85	-52.5	-54.6	14.5	0.00e+00	0	24	0	255852544	71	4524
2026-01-08 05:25:35.97	46.70	14.13	-52.5	-54.7	14.4	0.00e+00	0	24	0	264241152	71	4548
2026-01-08 05:25:39.95	46.10	14.41	-52.7	-54.9	14.3	0.00e+00	0	24	0	271581184	71	4659
2026-01-08 05:25:43.94	45.48	14.69	-52.7	-54.9	14.3	0.00e+00	0	24	0	278921216	71	4687
2026-01-08 05:25:47.93	44.86	14.97	-52.8	-55.1	14.2	0.00e+00	0	24	0	286261248	71	4761
2026-01-08 05:25:51.93	44.22	15.25	-53.1	-55.5	14.0	0.00e+00	0	24	0	293601280	71	4993
2026-01-08 05:25:55.92	43.57	15.53	-52.9	-55.1	14.2	0.00e+00	0	24	0	300941312	71	4779
2026-01-08 05:25:59.91	42.90	15.81	-52.9	-55.2	14.1	0.00e+00	0	24	0	308281344	71	4825
2026-01-08 05:26:03.90	42.23	16.09	-53.0	-55.3	14.1	0.00e+00	0	24	0	316669952	71	4890
2026-01-08 05:26:07.90	41.54	16.37	-53.1	-55.3	14.1	0.00e+00	0	25	0	324009984	71	4916
2026-01-08 05:26:11.90	40.83	16.64	-53.1	-55.4	14.0	0.00e+00	0	24	0	331350016	71	4943
2026-01-08 05:26:15.89	40.12	16.92	-53.0	-55.2	14.1	0.00e+00	0	24	0	338690048	71	4865
2026-01-08 05:26:19.89	39.39	17.19	-53.0	-55.3	14.1	0.00e+00	0	24	0	346030080	71	4889
2026-01-08 05:26:23.88	38.65	17.47	-52.9	-55.0	14.3	0.00e+00	0	24	0	353370112	71	4746
2026-01-08 05:26:27.88	37.89	17.74	-52.4	-54.5	14.6	0.00e+00	0	24	0	360710144	71	4449
2026-01-08 05:26:31.89	37.11	18.00	-52.1	-54.0	14.6	0.00e+00	0	24	0	368050176	70	4493
2026-01-08 05:26:35.89	36.33	18.27	-51.6	-53.4	14.8	0.00e+00	0	24	0	376438784	69	4408
2026-01-08 05:26:39.90	35.53	18.53	-51.4	-53.1	15.0	0.00e+00	0	24	0	383778816	69	4275
2026-01-08 05:26:43.89	34.72	18.79	-51.2	-52.8	14.9	0.00e+00	0	24	0	391118848	68	4384
2026-01-08 05:26:47.89	33.89	19.05	-51.0	-52.6	15.0	0.00e+00	0	25	0	398458880	68	4286
2026-01-08 05:26:51.88	33.05	19.30	-51.0	-52.7	15.0	0.00e+00	0	25	0	405798912	68	4316
2026-01-08 05:26:55.88	32.20	19.55	-50.8	-52.4	15.1	0.00e+00	0	25	0	413138944	68	4180
2026-01-08 05:26:59.89	31.32	19.79	-50.7	-52.3	15.2	0.00e+00	0	25	0	421527552	68	4103
2026-01-08 05:27:03.89	30.44	20.03	-50.6	-52.2	15.1	0.00e+00	0	25	0	428867584	67	4312
2026-01-08 05:27:07.88	29.55	20.26	-50.6	-52.2	15.0	0.00e+00	0	25	0	436207616	67	4337
2026-01-08 05:27:11.87	28.64	20.49	-50.7	-52.4	15.0	0.00e+00	0	25	0	443547648	67	4393
2026-01-08 05:27:15.85	27.72	20.71	-50.8	-52.4	15.0	0.00e+00	0	25	0	450887680	67	4409
2026-01-08 05:27:19.84	26.78	20.93	-50.7	-52.3	15.0	0.00e+00	0	25	0	458227712	67	4368
2026-01-08 05:27:23.82	25.84	21.14	-50.4	-52.0	15.1	0.00e+00	0	25	0	465567744	67	4217
2026-01-08 05:27:27.81	24.88	21.34	-50.1	-51.6	15.2	0.00e+00	0	25	0	473956352	66	4284
2026-01-08 05:27:31.80	23.90	21.53	-50.2	-51.7	15.1	0.00e+00	0	25	0	481296384	66	4314
2026-01-08 05:27:35.78	22.92	21.72	-50.1	-51.6	15.1	0.00e+00	0	25	0	488636416	66	4258
2026-01-08 05:27:39.78	21.92	21.90	-50.1	-51.6	15.2	0.00e+00	0	25	0	495976448	66	4254
2026-01-08 05:27:43.77	20.91	22.07	-50.2	-51.7	15.1	0.00e+00	0	25	0	503316480	66	4298
2026-01-08 05:27:47.76	19.89	22.24	-50.5	-52.1	14.9	0.00e+00	0	25	0	510656512	66	4499
2026-01-08 05:27:51.76	18.85	22.39	-50.3	-51.8	15.1	0.00e+00	0	24	0	517996544	66	4365
2026-01-08 05:27:55.76	17.81	22.54	-50.3	-51.8	15.1	0.00e+00	0	25	0	526385152	66	4359
2026-01-08 05:27:59.75	16.76	22.67	-51.0	-52.6	14.8	0.00e+00	0	25	0	533725184	67	4536
2026-01-08 05:28:03.74	15.70	22.80	-51.2	-52.9	14.7	0.00e+00	0	25	0	541065216	67	4680
2026-01-08 05:28:07.72	14.64	22.92	-51.7	-53.5	14.6	0.00e+00	0	25	0	548405248	68	4750
2026-01-08 05:28:11.71	13.56	23.02	-51.8	-53.6	14.6	0.00e+00	0	25	0	555745280	68	4793
2026-01-08 05:28:15.69	12.48	23.12	-52.1	-54.1	14.5	0.00e+00	0	25	0	563085312	69	4763
2026-01-08 05:28:19.67	11.39	23.20	-52.5	-54.5	14.4	0.00e+00	0	25	0	570425344	70	4741
2026-01-08 05:28:23.68	10.29	23.28	-52.3	-54.2	14.6	0.00e+00	0	25	0	577765376	70	4593
2026-01-08 05:28:27.66	9.20	23.34	-52.1	-54.0	14.7	0.00e+00	0	25	0	586153984	70	4479
2026-01-08 05:28:31.66	8.09	23.39	-52.3	-54.1	14.6	0.00e+00	0	25	0	593494016	70	4545
2026-01-08 05:28:35.65	6.98	23.43	-52.2	-54.1	14.6	0.00e+00	0	25	0	600834048	70	4520
2026-01-08 05:28:39.64	5.88	23.46	-52.3	-54.2	14.6	0.00e+00	0	25	0	608174080	70	4562
2026-01-08 05:28:43.64	4.76	23.47	-51.9	-53.6	14.9	0.00e+00	0	25	0	615514112	70	4286
2026-01-08 05:28:47.63	3.65	23.48	-52.0	-53.8	14.8	0.00e+00	0	25	0	622854144	70	4374
2026-01-08 05:28:51.62	2.54	23.47	-51.5	-53.2	14.9	0.00e+00	0	25	0	630194176	69	4327
2026-01-08 05:28:55.62	1.43	23.45	-51.4	-53.1	15.0	0.00e+00	0	25	0	638582784	69	4275
2026-01-08 05:28:59.61	0.32	23.42	-51.1	-52.7	15.0	0.00e+00	0	25	0	645922816	68	4310
2026-01-08 05:29:03.59	359.22	23.38	-50.8	-52.4	15.1	0.00e+00	0	25	0	653262848	68	4182
2026-01-08 05:29:07.58	358.11	23.33	-50.2	-51.6	15.3	0.00e+00	0	25	0	660602880	67	4047
2026-01-08 05:29:11.57	357.02	23.26	-49.9	-51.3	15.3	0.00e+00	0	25	0	667942912	66	4132
2026-01-08 05:29:15.56	355.92	23.19	-49.9	-51.3	15.3	0.00e+00	0	25	0	675282944	66	4134
2026-01-08 05:29:19.53	354.84	23.10	-49.6	-51.0	15.3	0.00e+00	0	25	0	682622976	65	4214
2026-01-08 05:29:23.52	353.76	23.01	-49.9	-51.3	15.1	0.00e+00	0	25	0	689963008	65	4383
2026-01-08 05:29:27.49	352.69	22.90	-49.9	-51.4	15.1	0.00e+00	0	25	0	697303040	65	4430
2026-01-08 05:29:31.49	351.62	22.78	-49.8	-51.3	15.1	0.00e+00	0	25	0	705691648	65	4377
2026-01-08 05:29:35.48	350.56	22.65	-50.4	-51.9	14.9	0.00e+00	0	25	0	713031680	65	4682
2026-01-08 05:29:39.48	349.51	22.51	-50.5	-52.1	15.0	0.00e+00	0	25	0	720371712	66	4514
2026-01-08 05:29:43.48	348.47	22.37	-50.8	-52.5	14.8	0.00e+00	0	25	0	727711744	66	4722
2026-01-08 05:29:47.49	347.44	22.21	-51.0	-52.7	14.8	0.00e+00	0	25	0	735051776	67	4552
2026-01-08 05:29:51.48	346.42	22.04	-51.6	-53.3	14.7	0.00e+00	0	25	0	742391808	68	4651
2026-01-08 05:29:55.49	345.41	21.87	-51.7	-53.5	14.6	0.00e+00	0	25	0	750780416	68	4746
2026-01-08 05:29:59.49	344.41	21.69	-51.7	-53.5	14.6	0.00e+00	0	25	0	758120448	68	4716
2026-01-08 05:30:03.49	343.42	21.50	-52.0	-53.8	14.7	0.00e+00	0	25	0	765460480	69	4621
2026-01-08 05:30:07.48	342.45	21.30	-52.1	-54.0	14.6	0.00e+00	0	25	0	772800512	69	4739
2026-01-08 05:30:11.48	341.49	21.10	-51.8	-53.5	14.8	0.00e+00	0	24	0	780140544	69	4483
2026-01-08 05:30:15.47	340.54	20.89	-52.2	-54.2	14.5	0.00e+00	0	25	0	787480576	69	4816
2026-01-08 05:30:19.45	339.62	20.67	-51.9	-53.8	14.6	0.00e+00	0	24	0	794820608	69	4600
2026-01-08 05:30:23.46	338.69	20.45	-51.9	-53.7	14.7	0.00e+00	0	25	0	803209216	69	4590
2026-01-08 05:30:27.44	337.79	20.22	-52.0	-53.8	14.7	0.00e+00	0	25	0	810549248	69	4622
2026-01-08 05:30:31.45	336.89	19.98	-51.6	-53.3	14.9	0.00e+00	0	25	0	817889280	69	4358
2026-01-08 05:30:35.45	336.01	19.74	-51.6	-53.4	14.9	0.00e+00	0	25	0	825229312	69	4401
2026-01-08 05:30:39.44	335.15	19.50	-51.6	-53.3	14.9	0.00e+00	0	25	0	832569344	69	4374
2026-01-08 05:30:43.43	334.30	19.25	-51.7	-53.5	14.8	0.00e+00	0	25	0	839909376	69	4459
2026-01-08 05:30:47.43	333.46	19.00	-51.6	-53.4	14.8	0.00e+00	0	25	0	847249408	69	4410
2026-01-08 05:30:51.41	332.64	18.74	-51.6	-53.3	14.8	0.00e+00	0	25	0	855638016	69	4383
2026-01-08 05:30:55.41	331.83	18.48	-51.7	-53.5	14.8	0.00e+00	0	25	0	862978048	69	4490
2026-01-08 05:30:59.42	331.03	18.22	-51.8	-53.6	14.7	0.00e+00	0	25	0	870318080	69	4504
2026-01-08 05:31:03.41	330.25	17.96	-51.8	-53.6	14.7	0.00e+00	0	25	0	877658112	69	4537
2026-01-08 05:31:07.39	329.49	17.69	-51.7	-53.5	14.8	0.00e+00	0	25	0	884998144	69	4445
2026-01-08 05:31:11.37	328.74	17.42	-51.7	-53.5	14.8	0.00e+00	0	25	0	892338176	69	4485
2026-01-08 05:31:15.36	328.00	17.15	-51.7	-53.5	14.8	0.00e+00	0	25	0	899678208	69	4461
2026-01-08 05:31:19.34	327.28	16.88	-51.7	-53.5	14.8	0.00e+00	0	25	0	908066816	69	4458
2026-01-08 05:31:23.31	326.57	16.60	-51.5	-53.2	14.9	0.00e+00	0	25	0	915406848	69	4325
2026-01-08 05:31:27.32	325.86	16.32	-51.1	-52.8	14.9	0.00e+00	0	25	0	922746880	68	4363
2026-01-08 05:31:31.32	325.18	16.05	-51.2	-52.9	14.9	0.00e+00	0	25	0	930086912	68	4404
2026-01-08 05:31:35.31	324.50	15.77	-51.2	-52.9	14.9	0.00e+00	0	25	0	937426944	68	4401
2026-01-08 05:31:39.29	323.84	15.49	-50.8	-52.4	15.1	0.00e+00	0	25	0	944766976	68	4184
2026-01-08 05:31:43.29	323.19	15.21	-50.9	-52.5	15.1	0.00e+00	0	25	0	952107008	68	4229
2026-01-08 05:31:47.29	322.56	14.93	-50.9	-52.5	15.0	0.00e+00	0	25	0	959447040	68	4240
2026-01-08 05:31:51.28	321.93	14.65	-50.9	-52.5	15.1	0.00e+00	0	24	0	967835648	68	4233
2026-01-08 05:31:55.29	321.32	14.36	-50.9	-52.5	15.0	0.00e+00	0	25	0	975175680	68	4229
2026-01-08 05:31:59.29	320.72	14.08	-51.0	-52.6	15.0	0.00e+00	0	25	0	982515712	68	4290
2026-01-08 05:32:03.29	320.12	13.80	-51.1	-52.8	14.9	0.00e+00	0	25	0	989855744	68	4372
2026-01-08 05:32:07.29	319.55	13.52	-51.3	-53.1	14.8	0.00e+00	0	25	0	997195776	68	4497
2026-01-08 05:32:11.27	318.98	13.24	-51.5	-53.3	14.6	0.00e+00	0	25	0	1004535808	68	4647
2026-01-08 05:32:15.25	318.43	12.96	-51.5	-53.3	14.7	0.00e+00	0	25	0	1012924416	68	4625
2026-01-08 05:32:19.23	317.88	12.68	-51.4	-53.2	14.7	0.00e+00	0	25	0	1020264448	68	4583
2026-01-08 05:32:23.21	317.35	12.40	-51.5	-53.4	14.6	0.00e+00	0	25	0	1027604480	68	4676
2026-01-08 05:32:27.19	316.83	12.13	-51.7	-53.7	14.5	0.00e+00	0	25	0	1034944512	68	4815
2026-01-08 05:32:31.18	316.31	11.85	-51.9	-53.8	14.4	0.00e+00	0	25	0	1042284544	68	4914
2026-01-08 05:32:35.18	315.81	11.57	-52.0	-54.0	14.4	0.00e+00	0	25	0	1049624576	69	4729
2026-01-08 05:32:39.19	315.31	11.30	-51.9	-53.9	14.5	0.00e+00	0	24	0	1056964608	69	4658
2026-01-08 05:32:43.18	314.82	11.02	-52.0	-54.0	14.4	0.00e+00	0	25	0	1064304640	69	4734
2026-01-08 05:32:47.17	314.35	10.75	-52.2	-54.3	14.3	0.00e+00	0	25	0	1072693248	69	4884
2026-01-08 05:32:51.16	313.88	10.48	-52.4	-54.5	14.2	0.00e+00	0	25	0	1080033280	69	5017
2026-01-08 05:32:55.15	313.42	10.21	-52.4	-54.6	14.2	0.00e+00	0	25	0	1087373312	70	4768
2026-01-08 05:32:59.15	312.97	9.94	-52.3	-54.4	14.3	0.00e+00	0	25	0	1094713344	70	4684
2026-01-08 05:33:03.15	312.53	9.67	-52.4	-54.5	14.3	0.00e+00	0	24	0	1102053376	70	4747
2026-01-08 05:33:07.15	312.09	9.40	-52.5	-54.7	14.2	0.00e+00	0	24	0	1109393408	70	4816
2026-01-08 05:33:11.14	311.67	9.13	-52.8	-55.1	13.9	0.00e+00	0	25	0	1116733440	70	5069
2026-01-08 05:33:15.12	311.25	8.87	-52.8	-55.1	13.9	0.00e+00	0	24	0	1125122048	70	5091
2026-01-08 05:33:19.09	310.85	8.61	-52.9	-55.3	13.8	0.00e+00	0	25	0	1132462080	70	5197
2026-01-08 05:33:23.05	310.45	8.35	-53.2	-55.7	13.7	0.00e+00	0	24	0	1139802112	71	5128
2026-01-08 05:33:27.05	310.05	8.09	-53.3	-55.9	13.6	0.00e+00	0	25	0	1147142144	71	5229
2026-01-08 05:33:31.03	309.67	7.83	-53.2	-55.8	13.6	0.00e+00	0	25	0	1154482176	71	5171
2026-01-08 05:33:35.02	309.29	7.57	-53.2	-55.7	13.6	0.00e+00	0	25	0	1161822208	71	5139
2026-01-08 05:33:39.02	308.91	7.31	-53.2	-55.8	13.6	0.00e+00	0	25	0	1169162240	71	5177
2026-01-08 05:33:43.02	308.54	7.06	-53.3	-56.0	13.4	0.00e+00	0	24	0	1176502272	71	5316
2026-01-08 05:33:47.02	308.18	6.80	-53.5	-56.2	13.4	0.00e+00	0	25	0	1184890880	72	5133
2026-01-08 05:33:51.01	307.83	6.55	-53.6	-56.4	13.3	0.00e+00	0	24	0	1192230912	72	5278
2026-01-08 05:33:55.00	307.48	6.30	-53.6	-56.5	13.1	0.00e+00	0	24	0	1199570944	72	5291
2026-01-08 05:33:59.00	307.14	6.05	-53.7	-56.6	13.1	0.00e+00	0	25	0	1206910976	72	5388
2026-01-08 05:34:03.00	306.80	5.80	-53.8	-56.8	13.0	0.00e+00	0	25	0	1214251008	72	5485
2026-01-08 05:34:06.99	306.47	5.55	-54.0	-57.2	12.8	0.00e+00	0	25	0	1221591040	73	5425
2026-01-08 05:34:10.98	306.15	5.31	-54.0	-57.3	12.7	0.00e+00	0	25	0	1228931072	73	5474
2026-01-08 05:34:14.96	305.83	5.07	-54.0	-57.3	12.7	0.00e+00	0	25	0	1237319680	73	5525
2026-01-08 05:34:18.94	305.52	4.82	-58.5	-74.5	3.8	1.49e+00	0	24	104	1240465408	82	23848
2026-01-08 05:34:22.93	305.22	4.58	-59.4	-75.4	3.8	1.49e+00	0	25	104	1240465408	83	24853
2026-01-08 05:34:26.91	304.91	4.34	-60.1	-76.2	3.8	1.49e+00	0	25	104	1240465408	85	24166
2026-01-08 05:34:30.91	304.62	4.11	-60.4	-76.5	3.8	1.49e+00	0	25	104	1240465408	85	24995
2026-01-08 05:34:34.91	304.32	3.87	-60.5	-76.6	3.8	1.49e+00	0	25	104	1240465408	86	23928
2026-01-08 05:34:38.91	304.04	3.63	-60.5	-76.6	3.8	1.49e+00	0	25	104	1240465408	86	23950
2026-01-08 05:34:42.91	303.75	3.40	-60.4	-76.5	3.8	1.49e+00	0	25	104	1240465408	86	23641
2026-01-08 05:34:46.91	303.48	3.16	-60.3	-76.4	3.8	1.49e+00	0	25	104	1240465408	86	23471
2026-01-08 05:34:50.92	303.20	2.93	-60.3	-76.3	3.8	1.49e+00	0	25	104	1240465408	86	23292
2026-01-08 05:34:54.92	302.93	2.70	-60.2	-76.3	3.8	1.49e+00	0	25	104	1240465408	86	23177
2026-01-08 05:34:58.92	302.67	2.47	-60.2	-76.3	3.8	1.49e+00	0	25	104	1240465408	86	23106
2026-01-08 05:35:02.92	302.41	2.24	-60.2	-76.2	3.8	1.49e+00	0	25	104	1240465408	86	22960
2026-01-08 05:35:06.92	302.15	2.01	-60.1	-76.2	3.8	1.49e+00	0	25	104	1240465408	86	22952

#Closed at: 2026-01-08 05:35:09
#Recorded file [1240 MB]: D:/lorett/data/31004_260108_082228.dat