passes_logs/2026/01/08/R3.2S_Murmansk/R3.2S_Murmansk__20260108_104902_AQUA_rec.log

#Pass ID: 20260108_104902_AQUA
#Satellite: AQUA
#Configuration: AQUA
#almurnet v.1.7.20251203
#Start time: 2026-01-08 10:49:04

#Version: 2.2.20231116
#Station: R3.2S_Murmansk
#Location: 33.079688 lon 68.888172 lat
#TLE: 1 27424U 02022A   26004.96787593  .00001598  00000+0  32997-3 0  9996
#TLE: 2 27424  98.4069 331.2279 0002002  90.2377   0.6092 14.61798176259425

#Time	Az	El	Level	Level2	SNR	BER	BlckErr	Temp	State	Recorded	gain1	gain2
2026-01-08 10:49:04.77	141.07	2.13	-57.1	-76.4	3.8	7.47e-01	0	23	0	0	83	32387
2026-01-08 10:49:08.80	141.02	2.40	-57.0	-76.2	3.8	7.46e-01	0	24	104	0	81	35564
2026-01-08 10:49:12.84	140.97	2.67	-57.0	-76.3	3.8	7.45e-01	0	24	104	0	81	36093
2026-01-08 10:49:16.87	140.91	2.95	-57.0	-75.7	3.8	7.45e-01	0	24	104	0	81	33574
2026-01-08 10:49:20.91	140.86	3.23	-57.0	-75.4	3.8	7.46e-01	0	24	104	0	81	32502
2026-01-08 10:49:24.94	140.80	3.51	-56.9	-71.7	4.6	7.22e-01	0	24	104	0	81	21072
2026-01-08 10:49:28.97	140.74	3.80	-56.4	-65.3	9.0	6.30e-01	0	24	0	4718592	81	10102
2026-01-08 10:49:33.01	140.68	4.09	-55.2	-60.7	12.5	6.07e-01	0	24	0	12582912	79	6647
2026-01-08 10:49:37.04	140.62	4.38	-53.4	-56.8	14.5	6.08e-01	0	24	0	19922944	76	5072
2026-01-08 10:49:41.07	140.56	4.67	-52.2	-55.0	14.9	6.06e-01	0	25	0	27262976	73	4892
2026-01-08 10:49:45.10	140.49	4.97	-52.8	-55.9	14.5	6.05e-01	0	25	0	35127296	73	5464
2026-01-08 10:49:49.12	140.43	5.27	-56.7	-71.2	4.0	7.37e-01	0	25	104	41943040	81	19951
2026-01-08 10:49:53.16	140.36	5.58	-50.8	-53.0	15.3	6.06e-01	0	25	0	48234496	70	4601
2026-01-08 10:49:57.19	140.29	5.89	-51.0	-53.2	15.2	6.04e-01	0	25	0	55574528	70	4741
2026-01-08 10:50:01.19	140.22	6.21	-50.3	-52.3	15.6	6.06e-01	0	25	0	63438848	69	4527
2026-01-08 10:50:05.22	140.14	6.53	-50.5	-52.6	15.3	6.07e-01	0	25	0	70778880	69	4669
2026-01-08 10:50:09.26	140.07	6.85	-50.3	-52.3	15.5	6.06e-01	0	25	0	78643200	69	4505
2026-01-08 10:50:13.27	139.99	7.18	-50.1	-52.0	15.6	6.07e-01	0	25	0	85983232	69	4388
2026-01-08 10:50:17.30	139.91	7.51	-50.1	-52.0	15.6	6.06e-01	0	25	0	93323264	69	4373
2026-01-08 10:50:21.33	139.82	7.85	-49.8	-51.7	15.5	6.05e-01	0	25	0	101187584	68	4456
2026-01-08 10:50:25.35	139.74	8.19	-49.8	-51.6	15.6	6.07e-01	0	25	0	108527616	68	4428
2026-01-08 10:50:29.37	139.65	8.54	-49.6	-51.4	15.7	6.06e-01	0	24	0	116391936	68	4309
2026-01-08 10:50:33.39	139.56	8.89	-49.5	-51.3	15.7	6.05e-01	0	25	0	123731968	68	4284
2026-01-08 10:50:37.43	139.46	9.25	-49.3	-51.0	15.6	6.04e-01	0	25	0	131072000	67	4389
2026-01-08 10:50:41.45	139.37	9.61	-49.2	-50.9	15.7	6.04e-01	0	25	0	138936320	67	4339
2026-01-08 10:50:45.47	139.27	9.98	-49.1	-50.9	15.7	6.06e-01	0	25	0	146276352	67	4312
2026-01-08 10:50:49.49	139.17	10.36	-49.1	-50.9	15.7	6.07e-01	0	25	0	154140672	67	4299
2026-01-08 10:50:53.52	139.06	10.74	-49.3	-51.0	15.6	6.09e-01	0	24	0	161480704	67	4383
2026-01-08 10:50:57.55	138.95	11.13	-49.4	-51.2	15.6	6.06e-01	0	25	0	168820736	67	4445
2026-01-08 10:51:01.58	138.84	11.53	-49.3	-51.1	15.6	6.05e-01	0	24	0	176685056	67	4420
2026-01-08 10:51:05.60	138.72	11.93	-49.2	-50.9	15.7	6.07e-01	0	25	0	184025088	67	4338
2026-01-08 10:51:09.63	138.60	12.34	-49.2	-51.0	15.6	6.05e-01	0	24	0	191889408	67	4353
2026-01-08 10:51:13.66	138.47	12.76	-49.3	-51.0	15.6	6.06e-01	0	24	0	199229440	67	4381
2026-01-08 10:51:17.69	138.35	13.19	-49.2	-50.9	15.7	6.06e-01	0	24	0	206569472	67	4318
2026-01-08 10:51:21.71	138.21	13.62	-48.9	-50.5	15.8	6.06e-01	0	25	0	214433792	67	4145
2026-01-08 10:51:25.71	138.07	14.07	-48.8	-50.5	15.7	6.06e-01	0	24	0	221773824	66	4353
2026-01-08 10:51:29.74	137.93	14.52	-48.7	-50.4	15.7	6.07e-01	0	24	0	229638144	66	4301
2026-01-08 10:51:33.76	137.78	14.98	-48.7	-50.4	15.7	6.07e-01	0	24	0	236978176	66	4294
2026-01-08 10:51:37.78	137.63	15.45	-48.5	-50.1	15.8	6.05e-01	0	25	0	244318208	66	4193
2026-01-08 10:51:41.81	137.47	15.93	-48.6	-50.2	15.7	6.07e-01	0	24	0	252182528	66	4234
2026-01-08 10:51:45.83	137.30	16.42	-48.7	-50.4	15.7	6.05e-01	0	25	0	259522560	66	4297
2026-01-08 10:51:49.86	137.13	16.93	-48.8	-50.5	15.7	6.05e-01	0	24	0	267386880	66	4354
2026-01-08 10:51:53.88	136.95	17.44	-48.9	-50.6	15.7	6.04e-01	0	25	0	274726912	66	4404
2026-01-08 10:51:57.91	136.76	17.97	-48.9	-50.5	15.7	6.07e-01	0	24	0	282066944	66	4379
2026-01-08 10:52:01.93	136.57	18.51	-48.5	-50.1	15.8	6.06e-01	0	24	0	289931264	66	4178
2026-01-08 10:52:05.96	136.37	19.06	-48.3	-49.9	15.7	6.06e-01	0	25	0	297271296	65	4294
2026-01-08 10:52:09.99	136.16	19.62	-48.5	-50.1	15.6	6.07e-01	0	24	0	305135616	65	4438
2026-01-08 10:52:14.02	135.94	20.20	-48.8	-50.4	15.6	6.08e-01	0	24	0	312475648	65	4574
2026-01-08 10:52:18.04	135.71	20.80	-48.9	-50.6	15.5	6.07e-01	0	24	0	319815680	65	4688
2026-01-08 10:52:22.07	135.47	21.40	-48.9	-50.6	15.5	6.07e-01	0	25	0	327680000	65	4658
2026-01-08 10:52:26.10	135.22	22.03	-48.8	-50.4	15.6	6.05e-01	0	24	0	335020032	65	4575
2026-01-08 10:52:30.13	134.96	22.67	-48.7	-50.3	15.6	6.06e-01	0	25	0	342884352	65	4506
2026-01-08 10:52:34.17	134.68	23.33	-48.8	-50.5	15.5	6.06e-01	0	25	0	350224384	65	4621
2026-01-08 10:52:38.20	134.40	24.01	-49.1	-50.8	15.6	6.06e-01	0	24	0	357564416	66	4526
2026-01-08 10:52:42.22	134.10	24.70	-48.9	-50.6	15.6	6.08e-01	0	25	0	365428736	66	4412
2026-01-08 10:52:46.26	133.78	25.42	-49.2	-60.6	3.8	7.49e-01	0	25	104	367001600	66	13922
2026-01-08 10:52:50.29	133.45	26.15	-51.1	-62.8	3.8	7.50e-01	0	24	104	367001600	71	13481
2026-01-08 10:52:54.32	133.10	26.91	-49.7	-60.9	3.7	7.55e-01	0	24	104	367001600	68	12835
2026-01-08 10:52:58.35	132.73	27.69	-49.8	-61.0	4.0	7.37e-01	0	25	104	367001600	68	13057
2026-01-08 10:53:02.38	132.34	28.49	-49.1	-60.4	3.8	7.46e-01	0	25	104	367001600	66	13610
2026-01-08 10:53:06.40	131.93	29.31	-49.8	-60.8	3.8	7.47e-01	0	24	104	367001600	68	12806
2026-01-08 10:53:10.43	131.50	30.16	-49.9	-61.3	3.8	7.49e-01	0	24	104	367001600	69	12767
2026-01-08 10:53:14.46	131.04	31.04	-49.6	-60.9	3.9	7.43e-01	0	24	104	367001600	68	12935
2026-01-08 10:53:18.49	130.56	31.94	-48.9	-60.1	3.8	7.45e-01	0	25	104	367001600	66	13258
2026-01-08 10:53:22.51	130.04	32.87	-49.7	-61.0	3.8	7.47e-01	0	25	104	367001600	68	13000
2026-01-08 10:53:26.55	129.49	33.83	-50.4	-61.9	3.8	7.46e-01	0	24	104	367001600	69	13576
2026-01-08 10:53:30.57	128.91	34.82	-49.9	-61.3	3.8	7.47e-01	0	25	104	367001600	69	12717
2026-01-08 10:53:34.61	128.29	35.84	-50.8	-62.3	3.8	7.44e-01	0	24	104	367001600	70	13487
2026-01-08 10:53:38.64	127.62	36.89	-50.2	-61.6	3.8	7.42e-01	0	24	104	367001600	69	13178
2026-01-08 10:53:42.67	126.91	37.97	-51.4	-63.0	3.8	7.43e-01	0	24	104	367001600	71	13832
2026-01-08 10:53:46.69	126.15	39.09	-50.8	-62.4	3.8	7.44e-01	0	25	104	367001600	70	13651
2026-01-08 10:53:50.72	125.33	40.23	-51.6	-63.2	3.8	7.47e-01	0	25	104	367001600	72	13353
2026-01-08 10:53:54.76	124.44	41.42	-50.5	-62.0	3.8	7.49e-01	0	25	104	367001600	70	13033
2026-01-08 10:53:58.79	123.49	42.63	-52.9	-64.8	3.8	7.50e-01	0	25	104	367001600	73	15111
2026-01-08 10:54:02.82	122.46	43.88	-49.6	-60.8	3.8	7.44e-01	0	25	104	367001600	68	12715
2026-01-08 10:54:06.85	121.34	45.16	-50.3	-61.7	3.8	7.48e-01	0	25	104	367001600	68	14143
2026-01-08 10:54:10.88	120.12	46.47	-50.0	-61.5	3.8	7.44e-01	0	25	104	367001600	69	13019
2026-01-08 10:54:14.91	118.80	47.80	-53.3	-65.4	3.8	7.44e-01	0	25	104	367001600	74	15271
2026-01-08 10:54:18.94	117.35	49.17	-50.1	-61.6	3.9	7.45e-01	0	25	104	367001600	69	13219
2026-01-08 10:54:22.97	115.76	50.56	-50.0	-61.4	3.8	7.46e-01	0	25	104	367001600	68	13639
2026-01-08 10:54:27.00	114.02	51.96	-49.2	-60.5	3.8	7.44e-01	0	25	104	367001600	67	13028
2026-01-08 10:54:31.02	112.10	53.38	-49.4	-60.7	3.8	7.48e-01	0	24	104	367001600	67	13383
2026-01-08 10:54:35.05	109.98	54.80	-48.7	-59.8	3.9	7.45e-01	0	25	104	367001600	66	12782
2026-01-08 10:54:39.08	107.63	56.22	-49.7	-61.0	3.8	7.44e-01	0	25	104	367001600	68	12997
2026-01-08 10:54:43.12	105.02	57.63	-49.8	-61.1	3.8	7.47e-01	0	25	104	367001600	68	13224
2026-01-08 10:54:47.13	102.15	59.00	-50.2	-61.7	3.9	7.47e-01	0	25	104	367001600	69	13277
2026-01-08 10:54:51.16	98.95	60.33	-50.2	-61.5	3.9	7.45e-01	0	25	104	367001600	69	13064
2026-01-08 10:54:55.19	95.40	61.61	-50.9	-62.4	3.8	7.44e-01	0	25	104	367001600	70	13701
2026-01-08 10:54:59.22	91.47	62.80	-51.5	-63.3	3.9	7.43e-01	0	25	104	367001600	71	14227
2026-01-08 10:55:03.26	87.14	63.89	-51.7	-63.1	3.9	7.44e-01	0	25	104	367001600	72	13221
2026-01-08 10:55:07.29	82.42	64.84	-52.1	-63.6	3.9	7.44e-01	0	25	104	367001600	73	13181
2026-01-08 10:55:11.31	77.32	65.64	-53.5	-65.5	3.8	7.43e-01	0	25	104	367001600	74	15484
2026-01-08 10:55:15.35	71.87	66.26	-53.1	-65.3	3.9	7.44e-01	0	25	104	367001600	75	14235
2026-01-08 10:55:19.37	66.16	66.68	-54.4	-66.8	3.8	7.47e-01	0	25	104	367001600	76	16110
2026-01-08 10:55:23.41	60.26	66.88	-53.7	-65.7	3.9	7.46e-01	0	25	104	367001600	76	14053
2026-01-08 10:55:27.43	54.35	66.86	-56.8	-71.1	3.8	7.47e-01	0	25	104	367001600	81	19654
2026-01-08 10:55:31.46	48.49	66.61	-53.6	-65.5	3.8	7.45e-01	0	25	104	367001600	76	13738
2026-01-08 10:55:35.49	42.83	66.14	-57.5	-72.4	3.8	7.45e-01	0	25	104	367001600	82	21717
2026-01-08 10:55:39.52	37.46	65.48	-53.8	-66.1	3.8	7.48e-01	0	25	104	367001600	76	14723
2026-01-08 10:55:43.55	32.44	64.65	-57.6	-72.4	3.8	7.49e-01	0	25	104	367001600	82	21744
2026-01-08 10:55:47.58	27.81	63.66	-53.1	-65.0	3.8	7.44e-01	0	25	104	367001600	75	13809
2026-01-08 10:55:51.60	23.59	62.55	-57.8	-73.1	3.8	7.46e-01	0	25	104	367001600	83	22083
2026-01-08 10:55:55.63	19.75	61.34	-52.0	-63.6	3.8	7.45e-01	0	25	104	367001600	73	13183
2026-01-08 10:55:59.67	16.27	60.05	-57.8	-73.1	3.8	7.48e-01	0	25	104	367001600	83	22214
2026-01-08 10:56:03.69	13.15	58.71	-50.9	-62.4	3.9	7.48e-01	0	25	104	367001600	71	12954
2026-01-08 10:56:07.71	10.34	57.33	-57.7	-72.9	3.8	7.46e-01	0	25	104	367001600	83	21709
2026-01-08 10:56:11.74	7.80	55.93	-50.2	-61.3	3.8	7.48e-01	0	25	104	367001600	69	12739
2026-01-08 10:56:15.77	5.51	54.51	-57.6	-72.4	3.8	7.47e-01	0	25	104	367001600	82	21525
2026-01-08 10:56:19.80	3.43	53.09	-49.0	-59.9	3.9	7.42e-01	0	25	104	367001600	67	12213
2026-01-08 10:56:23.83	1.56	51.68	-57.9	-73.1	3.9	7.45e-01	0	25	104	367001600	83	22092
2026-01-08 10:56:27.86	359.85	50.28	-49.4	-60.8	3.9	7.45e-01	0	25	104	367001600	68	12726
2026-01-08 10:56:31.89	358.29	48.90	-58.0	-73.8	3.8	7.43e-01	0	25	104	367001600	83	23958
2026-01-08 10:56:35.92	356.88	47.55	-49.6	-61.0	3.8	7.44e-01	0	25	104	367001600	68	12996
2026-01-08 10:56:39.94	355.58	46.22	-58.0	-74.1	3.8	7.44e-01	0	25	104	367001600	83	24721
2026-01-08 10:56:43.97	354.39	44.92	-49.4	-60.5	3.8	7.43e-01	0	25	104	367001600	68	12282
2026-01-08 10:56:47.99	353.29	43.66	-58.2	-74.2	3.8	7.47e-01	0	25	104	367001600	84	23670
2026-01-08 10:56:52.02	352.28	42.42	-50.3	-61.5	3.8	7.47e-01	0	25	104	367001600	69	13039
2026-01-08 10:56:56.06	351.34	41.21	-58.2	-74.0	3.9	7.45e-01	0	25	104	367001600	84	23184
2026-01-08 10:57:00.09	350.47	40.04	-51.1	-62.4	3.8	7.51e-01	0	25	104	367001600	71	12823
2026-01-08 10:57:04.12	349.67	38.91	-58.2	-74.0	3.9	7.43e-01	0	25	104	367001600	84	23174
2026-01-08 10:57:08.15	348.92	37.80	-51.3	-63.0	3.8	7.44e-01	0	25	104	367001600	71	13871
2026-01-08 10:57:12.17	348.22	36.73	-58.0	-73.5	3.9	7.42e-01	0	25	104	367001600	84	21885
2026-01-08 10:57:16.20	347.56	35.69	-50.7	-62.1	3.8	7.49e-01	0	25	104	367001600	70	13197
2026-01-08 10:57:20.23	346.95	34.68	-57.3	-72.0	3.9	7.42e-01	0	25	104	367001600	83	19607
2026-01-08 10:57:24.26	346.38	33.70	-49.7	-61.0	3.8	7.45e-01	0	25	104	367001600	68	12988
2026-01-08 10:57:28.29	345.84	32.75	-56.9	-71.2	3.8	7.41e-01	0	25	104	367001600	83	17734
2026-01-08 10:57:32.32	345.33	31.83	-49.3	-60.8	3.8	7.47e-01	0	25	104	367001600	67	13516
2026-01-08 10:57:36.35	344.85	30.93	-56.7	-70.6	3.9	7.44e-01	0	25	104	367001600	82	17528
2026-01-08 10:57:40.39	344.40	30.06	-49.1	-60.2	3.8	7.45e-01	0	25	104	367001600	67	12604
2026-01-08 10:57:44.41	343.97	29.22	-57.0	-71.2	3.8	7.47e-01	0	25	104	367001600	82	18885
2026-01-08 10:57:48.44	343.57	28.40	-49.8	-61.2	3.9	7.45e-01	0	25	104	367001600	68	13316
2026-01-08 10:57:52.47	343.19	27.61	-57.3	-72.1	3.8	7.49e-01	0	25	104	367001600	83	19707
2026-01-08 10:57:56.50	342.83	26.84	-49.5	-60.8	3.9	7.43e-01	0	25	104	367001600	68	12751
2026-01-08 10:58:00.53	342.48	26.09	-57.7	-73.3	3.8	7.46e-01	0	25	104	367001600	83	22555
2026-01-08 10:58:04.55	342.15	25.36	-49.8	-61.0	3.8	7.43e-01	0	25	104	367001600	68	12972
2026-01-08 10:58:08.59	341.84	24.65	-57.8	-74.0	3.8	7.48e-01	0	25	104	367001600	83	24419
2026-01-08 10:58:12.62	341.55	23.96	-49.8	-60.9	3.8	7.46e-01	0	25	104	367001600	68	12952
2026-01-08 10:58:16.66	341.26	23.29	-58.0	-74.7	3.8	7.47e-01	0	25	104	367001600	83	26676
2026-01-08 10:58:20.69	340.99	22.63	-50.6	-62.1	3.8	7.49e-01	0	25	104	367001600	70	13236
2026-01-08 10:58:24.72	340.73	22.00	-57.6	-73.7	3.8	7.48e-01	0	25	104	367001600	83	23843
2026-01-08 10:58:28.75	340.49	21.38	-50.7	-62.1	3.8	7.41e-01	0	25	104	367001600	70	13240
2026-01-08 10:58:32.78	340.25	20.77	-58.1	-75.7	3.8	7.47e-01	0	25	104	367001600	83	29827
2026-01-08 10:58:36.81	340.03	20.18	-49.3	-51.0	15.6	6.00e-01	0	25	0	373293056	67	4365
2026-01-08 10:58:40.84	339.81	19.61	-49.3	-51.0	15.6	6.02e-01	0	25	0	380633088	67	4352
2026-01-08 10:58:44.87	339.60	19.04	-49.4	-51.1	15.6	6.01e-01	0	25	0	388497408	67	4411
2026-01-08 10:58:48.90	339.41	18.50	-49.4	-51.1	15.6	5.99e-01	0	25	0	395837440	67	4433
2026-01-08 10:58:52.92	339.21	17.96	-49.4	-51.2	15.6	5.98e-01	0	25	0	403177472	67	4443
2026-01-08 10:58:56.96	339.03	17.44	-49.3	-51.0	15.7	6.02e-01	0	25	0	411041792	67	4349
2026-01-08 10:59:00.98	338.86	16.93	-49.1	-50.8	15.7	6.01e-01	0	25	0	418381824	67	4247
2026-01-08 10:59:05.02	338.69	16.43	-48.9	-50.6	15.8	6.03e-01	0	25	0	426246144	67	4154
2026-01-08 10:59:09.05	338.52	15.94	-49.1	-50.8	15.7	6.01e-01	0	25	0	433586176	67	4256
2026-01-08 10:59:13.07	338.37	15.46	-49.2	-50.8	15.7	6.02e-01	0	25	0	440926208	67	4289
2026-01-08 10:59:17.10	338.21	14.99	-49.1	-50.8	15.7	6.01e-01	0	25	0	448790528	67	4248
2026-01-08 10:59:21.13	338.07	14.53	-49.1	-50.7	15.7	6.01e-01	0	25	0	456130560	67	4236
2026-01-08 10:59:25.16	337.93	14.08	-49.1	-50.7	15.7	6.01e-01	0	25	0	463994880	67	4233
2026-01-08 10:59:29.19	337.79	13.64	-49.1	-50.8	15.7	6.00e-01	0	25	0	471334912	67	4256
2026-01-08 10:59:33.21	337.66	13.21	-49.0	-50.7	15.8	6.02e-01	0	25	0	479199232	67	4195
2026-01-08 10:59:37.24	337.53	12.78	-49.1	-50.8	15.7	6.01e-01	0	25	0	486539264	67	4282
2026-01-08 10:59:41.28	337.41	12.37	-49.3	-51.0	15.7	6.00e-01	0	25	0	493879296	67	4373
2026-01-08 10:59:45.31	337.29	11.96	-49.3	-51.0	15.6	5.98e-01	0	25	0	501743616	67	4371
2026-01-08 10:59:49.33	337.18	11.56	-49.3	-51.1	15.6	6.00e-01	0	25	0	509083648	67	4393
2026-01-08 10:59:53.36	337.07	11.16	-49.3	-51.0	15.6	6.01e-01	0	25	0	516947968	67	4383
2026-01-08 10:59:57.40	336.96	10.77	-49.4	-51.2	15.6	6.02e-01	0	25	0	524288000	67	4468
2026-01-08 11:00:01.42	336.86	10.39	-49.4	-51.2	15.6	6.01e-01	0	25	0	531628032	67	4480
2026-01-08 11:00:05.46	336.76	10.02	-49.6	-51.4	15.5	6.01e-01	0	25	0	539492352	67	4578
2026-01-08 11:00:09.49	336.66	9.65	-49.8	-51.6	15.4	6.06e-01	0	25	0	546832384	67	4695
2026-01-08 11:00:13.51	336.57	9.29	-49.6	-51.4	15.5	6.00e-01	0	25	0	554696704	67	4568
2026-01-08 11:00:17.54	336.48	8.93	-49.8	-51.7	15.4	6.01e-01	0	25	0	562036736	67	4735
2026-01-08 11:00:21.57	336.39	8.58	-49.9	-51.8	15.4	6.01e-01	0	25	0	569376768	67	4794
2026-01-08 11:00:25.61	336.31	8.23	-49.9	-51.9	15.3	6.00e-01	0	25	0	577241088	67	4819
2026-01-08 11:00:29.62	336.22	7.89	-50.0	-52.0	15.3	6.01e-01	0	25	0	584581120	67	4882
2026-01-08 11:00:33.63	336.14	7.56	-50.0	-52.0	15.5	6.02e-01	0	25	0	592445440	68	4609
2026-01-08 11:00:37.66	336.06	7.22	-50.3	-52.3	15.3	6.01e-01	0	25	0	599785472	68	4794
2026-01-08 11:00:41.69	335.99	6.90	-50.4	-52.4	15.3	6.01e-01	0	25	0	607125504	68	4851
2026-01-08 11:00:45.72	335.92	6.58	-50.4	-52.5	15.3	6.03e-01	0	25	0	614989824	68	4903
2026-01-08 11:00:49.75	335.84	6.26	-50.4	-52.5	15.3	6.00e-01	0	25	0	622329856	68	4907
2026-01-08 11:00:53.78	335.78	5.94	-50.1	-52.1	15.4	6.01e-01	0	25	0	630194176	68	4686
2026-01-08 11:00:57.81	335.71	5.64	-50.5	-52.6	15.2	6.01e-01	0	25	0	637534208	68	4942
2026-01-08 11:01:01.84	335.64	5.33	-50.5	-52.7	15.2	6.05e-01	0	25	0	645398528	68	5003
2026-01-08 11:01:05.87	335.58	5.03	-50.5	-52.6	15.4	6.03e-01	0	25	0	652738560	69	4701
2026-01-08 11:01:09.90	335.52	4.73	-58.7	-78.0	3.8	7.49e-01	0	25	104	654835712	85	34848
2026-01-08 11:01:13.94	335.46	4.43	-59.4	-78.7	3.8	7.47e-01	0	25	104	654835712	86	35516
2026-01-08 11:01:17.97	335.40	4.14	-59.6	-79.0	3.8	7.47e-01	0	25	104	654835712	87	34681
2026-01-08 11:01:21.99	335.34	3.86	-59.7	-79.1	3.8	7.50e-01	0	25	104	654835712	87	35099
2026-01-08 11:01:26.03	335.29	3.57	-59.8	-79.2	3.8	7.47e-01	0	25	104	654835712	87	35389
2026-01-08 11:01:30.07	335.23	3.29	-59.7	-79.1	3.8	7.44e-01	0	25	104	654835712	87	35156
2026-01-08 11:01:34.10	335.18	3.01	-59.7	-79.1	3.8	7.51e-01	0	25	104	654835712	87	35014
2026-01-08 11:01:38.14	335.13	2.74	-59.7	-79.1	3.8	7.43e-01	0	25	104	654835712	87	34897
2026-01-08 11:01:42.17	335.08	2.47	-59.6	-79.0	3.8	7.47e-01	0	25	104	654835712	87	34730
2026-01-08 11:01:46.21	335.03	2.20	-59.6	-79.0	3.8	7.44e-01	0	25	104	654835712	87	34523
2026-01-08 11:01:50.24	334.99	1.93	-59.6	-79.0	3.8	7.42e-01	0	25	104	654835712	87	34532

#Closed at: 2026-01-08 11:01:52
#Recorded file [654 MB]: D:/lorett/data/31004_260108_134904.dat