passes_logs/2026/01/08/R3.2S_Murmansk/R3.2S_Murmansk__20260108_093107_TY-42_rec.log

#Pass ID: 20260108_093107_TY-42
#Satellite: TY-42
#Configuration: TY-42_900M
#almurnet v.1.7.20251203
#Start time: 2026-01-08 09:31:07

#Version: 2.2.20231116
#Station: R3.2S_Murmansk
#Location: 33.079688 lon 68.888172 lat
#TLE: 1 64048U 25103A   26008.20953704  .00008011  00000-0  38191-3 0 09994
#TLE: 2 64048 097.4112 083.7544 0001714 091.7459 055.1126 15.19173368 35784

#Time	Az	El	Level	Level2	SNR	BER	BlckErr	Temp	State	Recorded	gain1	gain2
2026-01-08 09:31:07.70	20.88	2.01	-60.1	-73.2	3.8	8.45e-01	0	24	0	0	85	17271
2026-01-08 09:31:10.72	20.88	2.22	-57.2	-60.4	6.2	0.00e+00	0	27	104	0	81	20540
2026-01-08 09:31:13.74	20.88	2.43	-57.3	-60.5	6.2	0.00e+00	0	28	104	0	81	20732
2026-01-08 09:31:16.75	20.87	2.65	-57.3	-60.5	6.1	0.00e+00	0	28	104	0	81	20825
2026-01-08 09:31:19.78	20.87	2.87	-57.4	-60.6	6.2	0.00e+00	0	29	104	0	81	20917
2026-01-08 09:31:22.80	20.87	3.08	-57.4	-60.6	6.2	0.00e+00	0	29	104	0	81	21099
2026-01-08 09:31:25.82	20.86	3.31	-57.4	-60.7	6.1	0.00e+00	0	30	104	0	81	21225
2026-01-08 09:31:28.83	20.86	3.53	-57.5	-60.8	6.1	0.00e+00	0	30	104	0	81	21363
2026-01-08 09:31:31.85	20.85	3.76	-57.5	-60.8	6.1	0.00e+00	0	31	104	0	81	21362
2026-01-08 09:31:34.87	20.85	3.99	-57.5	-60.8	6.2	0.00e+00	0	31	104	0	81	21399
2026-01-08 09:31:37.88	20.84	4.22	-57.6	-60.8	6.1	0.00e+00	0	31	104	0	81	21517
2026-01-08 09:31:40.91	20.84	4.45	-57.6	-60.9	6.2	0.00e+00	0	31	104	0	81	21612
2026-01-08 09:31:43.92	20.83	4.69	-57.6	-60.9	6.1	0.00e+00	0	32	104	0	81	21621
2026-01-08 09:31:46.93	20.83	4.93	-57.6	-60.9	6.2	0.00e+00	0	32	104	0	81	21702
2026-01-08 09:31:49.94	20.82	5.17	-57.9	-61.2	6.1	0.00e+00	0	32	104	0	82	21232
2026-01-08 09:31:52.96	20.81	5.41	-57.7	-61.0	6.1	0.00e+00	0	33	104	0	82	20734
2026-01-08 09:31:55.97	20.80	5.66	-58.0	-61.2	6.2	0.00e+00	0	33	104	0	82	21287
2026-01-08 09:31:58.98	20.80	5.91	-57.9	-61.1	6.1	0.00e+00	0	33	104	0	82	21021
2026-01-08 09:32:01.99	20.79	6.17	-57.9	-61.1	6.2	0.00e+00	0	33	104	0	82	21091
2026-01-08 09:32:05.00	20.78	6.42	-57.9	-61.1	6.2	0.00e+00	0	34	104	0	82	21053
2026-01-08 09:32:08.03	20.77	6.69	-58.1	-61.4	6.1	0.00e+00	0	34	104	0	82	21729
2026-01-08 09:32:11.04	20.76	6.95	-58.0	-61.3	6.2	0.00e+00	0	34	104	0	82	21436
2026-01-08 09:32:14.06	20.75	7.22	-58.1	-61.3	6.1	0.00e+00	0	34	104	0	82	21514
2026-01-08 09:32:17.08	20.74	7.49	-58.1	-61.3	6.2	0.00e+00	0	34	104	0	82	21497
2026-01-08 09:32:20.10	20.72	7.77	-58.3	-61.5	6.2	0.00e+00	0	35	104	0	82	22005
2026-01-08 09:32:23.11	20.71	8.05	-54.7	-56.1	7.0	0.00e+00	0	35	104	0	75	17636
2026-01-08 09:32:26.11	20.70	8.33	-51.5	-52.3	8.4	0.00e+00	0	35	104	0	70	15258
2026-01-08 09:32:29.12	20.69	8.62	-50.8	-51.5	8.7	0.00e+00	0	35	104	0	68	15525
2026-01-08 09:32:32.12	20.67	8.91	-48.4	-48.9	10.1	9.73e-02	5405	37	0	58720256	64	14598
2026-01-08 09:32:35.14	20.66	9.21	-45.9	-46.5	11.0	1.88e-01	0	37	0	402653184	59	14696
2026-01-08 09:32:38.15	20.64	9.52	-44.2	-44.5	11.8	7.26e-02	0	37	0	746586112	55	14744
2026-01-08 09:32:41.16	20.62	9.82	-43.2	-43.5	12.0	3.18e-02	0	37	0	1082130432	53	14755
2026-01-08 09:32:44.18	20.61	10.14	-42.4	-42.7	12.3	2.07e-02	0	37	0	1417674752	52	14258
2026-01-08 09:32:47.18	20.59	10.45	-42.1	-42.4	12.4	1.21e-02	0	38	0	1753219072	51	14567
2026-01-08 09:32:50.20	20.57	10.78	-41.9	-42.2	12.5	9.54e-03	0	38	0	2097152000	51	14133
2026-01-08 09:32:53.21	20.55	11.11	-41.9	-42.3	12.4	9.54e-03	0	38	0	2432696320	50	15127
2026-01-08 09:32:56.21	20.53	11.44	-41.6	-41.9	12.5	8.45e-03	0	39	0	2776629248	50	14575
2026-01-08 09:32:59.22	20.51	11.78	-41.6	-41.9	12.5	6.85e-03	0	38	0	3112173568	50	14587
2026-01-08 09:33:02.23	20.49	12.13	-41.3	-41.6	12.5	6.87e-03	0	39	0	3447717888	49	14819
2026-01-08 09:33:05.25	20.46	12.48	-41.2	-41.5	12.6	5.49e-03	0	39	0	3791650816	49	14638
2026-01-08 09:33:08.26	20.44	12.84	-41.0	-41.3	12.7	4.74e-03	0	39	0	4127195136	49	14403
2026-01-08 09:33:11.27	20.41	13.21	-41.0	-41.3	12.7	4.24e-03	0	39	0	4462739456	49	14406
2026-01-08 09:33:14.29	20.39	13.59	-40.8	-41.1	12.7	3.84e-03	0	40	0	4806672384	48	14834
2026-01-08 09:33:17.31	20.36	13.97	-40.6	-40.9	12.8	3.50e-03	0	39	0	5150605312	48	14563
2026-01-08 09:33:20.32	20.33	14.36	-40.5	-40.8	12.8	2.77e-03	0	40	0	5486149632	48	14359
2026-01-08 09:33:23.33	20.30	14.76	-39.7	-40.0	12.7	2.52e-03	0	40	0	5821693952	46	14609
2026-01-08 09:33:26.35	20.26	15.17	-39.4	-39.7	12.8	3.06e-03	0	40	0	6165626880	46	14193
2026-01-08 09:33:29.35	20.23	15.59	-39.3	-39.5	12.8	3.16e-03	0	40	0	6501171200	45	14763
2026-01-08 09:33:32.36	20.20	16.01	-39.1	-39.4	12.8	2.55e-03	0	40	0	6836715520	45	14532
2026-01-08 09:33:35.38	20.16	16.45	-38.9	-39.2	12.9	2.34e-03	0	40	0	7180648448	45	14243
2026-01-08 09:33:38.39	20.12	16.90	-38.9	-39.1	12.9	2.13e-03	0	41	0	7524581376	44	14943
2026-01-08 09:33:41.40	20.08	17.35	-38.6	-38.9	13.0	1.70e-03	0	41	0	7860125696	44	14464
2026-01-08 09:33:44.42	20.04	17.82	-38.4	-38.6	13.0	1.40e-03	0	41	0	8195670016	44	14099
2026-01-08 09:33:47.44	19.99	18.31	-38.1	-38.4	13.1	1.10e-03	0	41	0	8531214336	43	14531
2026-01-08 09:33:50.45	19.95	18.80	-38.1	-38.4	13.1	7.30e-04	0	41	0	8875147264	43	14570
2026-01-08 09:33:53.45	19.90	19.30	-37.8	-38.1	13.1	6.77e-04	0	41	0	9210691584	42	14888
2026-01-08 09:33:56.46	19.85	19.82	-37.7	-37.9	13.1	4.62e-04	0	41	0	9554624512	42	14583
2026-01-08 09:33:59.48	19.80	20.35	-37.6	-37.8	13.2	4.62e-04	0	41	0	9890168832	42	14418
2026-01-08 09:34:02.50	19.74	20.90	-37.5	-37.8	13.2	3.62e-04	0	41	0	10234101760	42	14276
2026-01-08 09:34:05.50	19.68	21.46	-37.2	-37.5	13.2	3.15e-04	0	41	0	10569646080	41	14617
2026-01-08 09:34:08.52	19.62	22.04	-36.8	-37.1	13.2	2.14e-04	0	42	0	10905190400	40	14890
2026-01-08 09:34:11.54	19.55	22.63	-36.7	-37.0	13.2	1.43e-04	0	41	0	11240734720	40	14670
2026-01-08 09:34:14.56	19.48	23.25	-36.6	-36.9	13.2	2.10e-04	0	42	0	11584667648	40	14518
2026-01-08 09:34:17.58	19.41	23.88	-36.1	-36.4	13.3	1.33e-04	0	42	0	11928600576	39	14570
2026-01-08 09:34:20.59	19.34	24.53	-35.9	-36.2	13.3	1.33e-04	0	39	0	0	39	14228
2026-01-08 09:34:23.61	19.25	25.20	-35.9	-36.2	13.3	1.33e-04	0	38	0	0	39	14228
2026-01-08 09:34:26.63	19.17	25.89	-35.9	-36.2	13.3	1.33e-04	0	37	0	0	39	14228
2026-01-08 09:34:29.64	19.08	26.60	-35.9	-36.2	13.3	1.33e-04	0	36	0	0	39	14228
2026-01-08 09:34:32.66	18.98	27.34	-35.9	-36.2	13.3	1.33e-04	0	36	0	0	39	14228
2026-01-08 09:34:35.67	18.88	28.10	-35.9	-36.2	13.3	1.33e-04	0	35	0	0	39	14228
2026-01-08 09:34:38.68	18.78	28.89	-35.9	-36.2	13.3	1.33e-04	0	34	0	0	39	14228
2026-01-08 09:34:41.69	18.66	29.70	-35.9	-36.2	13.3	1.33e-04	0	34	0	0	39	14228
2026-01-08 09:34:44.70	18.54	30.54	-35.9	-36.2	13.3	1.33e-04	0	33	0	0	39	14228
2026-01-08 09:34:47.72	18.41	31.42	-35.9	-36.2	13.3	1.33e-04	0	33	0	0	39	14228
2026-01-08 09:34:50.74	18.28	32.32	-35.9	-36.2	13.3	1.33e-04	0	32	0	0	39	14228
2026-01-08 09:34:53.76	18.13	33.26	-35.9	-36.2	13.3	1.33e-04	0	32	0	0	39	14228
2026-01-08 09:34:56.77	17.97	34.23	-35.9	-36.2	13.3	1.33e-04	0	31	0	0	39	14228
2026-01-08 09:34:59.78	17.81	35.24	-35.9	-36.2	13.3	1.33e-04	0	31	0	0	39	14228
2026-01-08 09:35:02.80	17.62	36.29	-35.9	-36.2	13.3	1.33e-04	0	31	0	0	39	14228
2026-01-08 09:35:05.81	17.43	37.37	-35.9	-36.2	13.3	1.33e-04	0	30	0	0	39	14228
2026-01-08 09:35:08.82	17.22	38.50	-35.9	-36.2	13.3	1.33e-04	0	30	0	0	39	14228
2026-01-08 09:35:11.82	17.00	39.67	-35.9	-36.2	13.3	1.33e-04	0	30	0	0	39	14228
2026-01-08 09:35:14.83	16.75	40.88	-35.9	-36.2	13.3	1.33e-04	0	29	0	0	39	14228
2026-01-08 09:35:17.85	16.48	42.15	-35.9	-36.2	13.3	1.33e-04	0	29	0	0	39	14228
2026-01-08 09:35:20.87	16.19	43.47	-35.9	-36.2	13.3	1.33e-04	0	29	0	0	39	14228
2026-01-08 09:35:23.88	15.87	44.84	-35.9	-36.2	13.3	1.33e-04	0	28	0	0	39	14228
2026-01-08 09:35:26.89	15.52	46.26	-35.9	-36.2	13.3	1.33e-04	0	28	0	0	39	14228
2026-01-08 09:35:29.91	15.14	47.74	-35.9	-36.2	13.3	1.33e-04	0	28	0	0	39	14228
2026-01-08 09:35:32.91	14.71	49.27	-35.9	-36.2	13.3	1.33e-04	0	27	0	0	39	14228
2026-01-08 09:35:35.92	14.23	50.86	-35.9	-36.2	13.3	1.33e-04	0	27	0	0	39	14228
2026-01-08 09:35:38.94	13.70	52.52	-35.9	-36.2	13.3	1.33e-04	0	27	0	0	39	14228
2026-01-08 09:35:41.96	13.10	54.23	-35.9	-36.2	13.3	1.33e-04	0	27	0	0	39	14228
2026-01-08 09:35:44.97	12.42	56.01	-35.9	-36.2	13.3	1.33e-04	0	26	0	0	39	14228
2026-01-08 09:35:47.99	11.63	57.85	-35.9	-36.2	13.3	1.33e-04	0	26	0	0	39	14228
2026-01-08 09:35:51.01	10.73	59.75	-35.9	-36.2	13.3	1.33e-04	0	26	0	0	39	14228
2026-01-08 09:35:54.03	9.68	61.71	-35.9	-36.2	13.3	1.33e-04	0	26	0	0	39	14228
2026-01-08 09:35:57.06	8.43	63.73	-35.9	-36.2	13.3	1.33e-04	0	26	0	0	39	14228
2026-01-08 09:36:00.08	6.95	65.79	-35.9	-36.2	13.3	1.33e-04	0	26	0	0	39	14228
2026-01-08 09:36:03.08	5.16	67.88	-35.9	-36.2	13.3	1.33e-04	0	25	0	0	39	14228
2026-01-08 09:36:06.10	2.94	70.01	-35.9	-36.2	13.3	1.33e-04	0	25	0	0	39	14228
2026-01-08 09:36:09.12	0.14	72.16	-35.9	-36.2	13.3	1.33e-04	0	25	0	0	39	14228
2026-01-08 09:36:12.14	356.51	74.31	-35.9	-36.2	13.3	1.33e-04	0	25	0	0	39	14228
2026-01-08 09:36:15.16	351.69	76.41	-35.9	-36.2	13.3	1.33e-04	0	25	0	0	39	14228
2026-01-08 09:36:18.18	345.08	78.41	-35.9	-36.2	13.3	1.33e-04	0	24	0	0	39	14228
2026-01-08 09:36:21.20	335.78	80.23	-35.9	-36.2	13.3	1.33e-04	0	24	0	0	39	14228
2026-01-08 09:36:24.22	322.66	81.69	-35.9	-36.2	13.3	1.33e-04	0	24	0	0	39	14228
2026-01-08 09:36:27.24	305.22	82.58	-35.9	-36.2	13.3	1.33e-04	0	24	0	0	39	14228
2026-01-08 09:36:30.26	285.38	82.65	-35.9	-36.2	13.3	1.33e-04	0	24	0	0	39	14228
2026-01-08 09:36:33.28	267.30	81.89	-35.9	-36.2	13.3	1.33e-04	0	24	0	0	39	14228
2026-01-08 09:36:36.29	253.49	80.51	-35.9	-36.2	13.3	1.33e-04	0	24	0	0	39	14228
2026-01-08 09:36:39.31	243.62	78.74	-35.9	-36.2	13.3	1.33e-04	0	24	0	0	39	14228
2026-01-08 09:36:42.32	236.64	76.76	-35.9	-36.2	13.3	1.33e-04	0	24	0	0	39	14228
2026-01-08 09:36:45.34	231.55	74.67	-35.9	-36.2	13.3	1.33e-04	0	23	0	0	39	14228
2026-01-08 09:36:48.36	227.75	72.53	-35.9	-36.2	13.3	1.33e-04	0	23	0	0	39	14228
2026-01-08 09:36:51.37	224.83	70.38	-35.9	-36.2	13.3	1.33e-04	0	23	0	0	39	14228
2026-01-08 09:36:54.39	222.52	68.24	-35.9	-36.2	13.3	1.33e-04	0	23	0	0	39	14228
2026-01-08 09:36:57.41	220.65	66.13	-35.9	-36.2	13.3	1.33e-04	0	23	0	0	39	14228
2026-01-08 09:37:00.42	219.12	64.06	-35.9	-36.2	13.3	1.33e-04	0	23	0	0	39	14228
2026-01-08 09:37:03.43	217.85	62.04	-35.9	-36.2	13.3	1.33e-04	0	23	0	0	39	14228
2026-01-08 09:37:06.46	216.76	60.06	-35.9	-36.2	13.3	1.33e-04	0	23	0	0	39	14228
2026-01-08 09:37:09.47	215.84	58.15	-35.9	-36.2	13.3	1.33e-04	0	23	0	0	39	14228
2026-01-08 09:37:12.49	215.04	56.30	-35.9	-36.2	13.3	1.33e-04	0	23	0	0	39	14228
2026-01-08 09:37:15.50	214.34	54.51	-35.9	-36.2	13.3	1.33e-04	0	23	0	0	39	14228
2026-01-08 09:37:18.52	213.72	52.77	-35.9	-36.2	13.3	1.33e-04	0	23	0	0	39	14228
2026-01-08 09:37:21.53	213.18	51.11	-35.9	-36.2	13.3	1.33e-04	0	23	0	0	39	14228
2026-01-08 09:37:24.54	212.69	49.50	-35.9	-36.2	13.3	1.33e-04	0	22	0	0	39	14228
2026-01-08 09:37:27.57	212.25	47.94	-35.9	-36.2	13.3	1.33e-04	0	22	0	0	39	14228
2026-01-08 09:37:30.59	211.86	46.45	-35.9	-36.2	13.3	1.33e-04	0	22	0	0	39	14228
2026-01-08 09:37:33.60	211.50	45.01	-35.9	-36.2	13.3	1.33e-04	0	22	0	0	39	14228
2026-01-08 09:37:36.62	211.18	43.63	-35.9	-36.2	13.3	1.33e-04	0	22	0	0	39	14228
2026-01-08 09:37:39.64	210.88	42.30	-35.9	-36.2	13.3	1.33e-04	0	22	0	0	39	14228
2026-01-08 09:37:42.67	210.61	41.01	-35.9	-36.2	13.3	1.33e-04	0	22	0	0	39	14228
2026-01-08 09:37:45.68	210.36	39.79	-35.9	-36.2	13.3	1.33e-04	0	22	0	0	39	14228
2026-01-08 09:37:48.69	210.13	38.60	-35.9	-36.2	13.3	1.33e-04	0	22	0	0	39	14228
2026-01-08 09:37:51.69	209.92	37.47	-35.9	-36.2	13.3	1.33e-04	0	22	0	0	39	14228
2026-01-08 09:37:54.71	209.72	36.37	-35.9	-36.2	13.3	1.33e-04	0	22	0	0	39	14228
2026-01-08 09:37:57.73	209.53	35.32	-35.9	-36.2	13.3	1.33e-04	0	22	0	0	39	14228
2026-01-08 09:38:00.74	209.36	34.30	-35.9	-36.2	13.3	1.33e-04	0	22	0	0	39	14228
2026-01-08 09:38:03.75	209.21	33.32	-35.9	-36.2	13.3	1.33e-04	0	22	0	0	39	14228
2026-01-08 09:38:06.76	209.06	32.38	-35.9	-36.2	13.3	1.33e-04	0	22	0	0	39	14228
2026-01-08 09:38:09.78	208.92	31.47	-35.9	-36.2	13.3	1.33e-04	0	22	0	0	39	14228
2026-01-08 09:38:12.79	208.79	30.59	-35.9	-36.2	13.3	1.33e-04	0	22	0	0	39	14228
2026-01-08 09:38:15.80	208.66	29.74	-35.9	-36.2	13.3	1.33e-04	0	22	0	0	39	14228
2026-01-08 09:38:18.81	208.55	28.92	-35.9	-36.2	13.3	1.33e-04	0	22	0	0	39	14228
2026-01-08 09:38:21.82	208.44	28.13	-35.9	-36.2	13.3	1.33e-04	0	22	0	0	39	14228
2026-01-08 09:38:24.84	208.34	27.36	-35.9	-36.2	13.3	1.33e-04	0	22	0	0	39	14228
2026-01-08 09:38:27.85	208.24	26.62	-35.9	-36.2	13.3	1.33e-04	0	22	0	0	39	14228
2026-01-08 09:38:30.87	208.15	25.90	-35.9	-36.2	13.3	1.33e-04	0	22	0	0	39	14228
2026-01-08 09:38:33.89	208.06	25.20	-35.9	-36.2	13.3	1.33e-04	0	22	0	0	39	14228
2026-01-08 09:38:36.90	207.98	24.52	-35.9	-36.2	13.3	1.33e-04	0	22	0	0	39	14228
2026-01-08 09:38:39.92	207.90	23.87	-35.9	-36.2	13.3	1.33e-04	0	21	0	0	39	14228
2026-01-08 09:38:42.93	207.83	23.23	-35.9	-36.2	13.3	1.33e-04	0	21	0	0	39	14228
2026-01-08 09:38:45.95	207.76	22.62	-35.9	-36.2	13.3	1.33e-04	0	22	0	0	39	14228
2026-01-08 09:38:48.97	207.69	22.02	-35.9	-36.2	13.3	1.33e-04	0	21	0	0	39	14228
2026-01-08 09:38:52.00	207.63	21.43	-35.9	-36.2	13.3	1.33e-04	0	21	0	0	39	14228
2026-01-08 09:38:55.02	207.57	20.87	-35.9	-36.2	13.3	1.33e-04	0	22	0	0	39	14228
2026-01-08 09:38:58.04	207.51	20.31	-35.9	-36.2	13.3	1.33e-04	0	21	0	0	39	14228
2026-01-08 09:39:01.06	207.46	19.78	-35.9	-36.2	13.3	1.33e-04	0	21	0	0	39	14228
2026-01-08 09:39:04.08	207.40	19.26	-35.9	-36.2	13.3	1.33e-04	0	21	0	0	39	14228
2026-01-08 09:39:07.10	207.35	18.75	-35.9	-36.2	13.3	1.33e-04	0	21	0	0	39	14228
2026-01-08 09:39:10.10	207.31	18.25	-35.9	-36.2	13.3	1.33e-04	0	21	0	0	39	14228
2026-01-08 09:39:13.12	207.26	17.77	-35.9	-36.2	13.3	1.33e-04	0	21	0	0	39	14228
2026-01-08 09:39:16.13	207.22	17.30	-35.9	-36.2	13.3	1.33e-04	0	21	0	0	39	14228
2026-01-08 09:39:19.14	207.17	16.84	-35.9	-36.2	13.3	1.33e-04	0	21	0	0	39	14228
2026-01-08 09:39:22.15	207.14	16.39	-35.9	-36.2	13.3	1.33e-04	0	21	0	0	39	14228
2026-01-08 09:39:25.17	207.10	15.95	-35.9	-36.2	13.3	1.33e-04	0	21	0	0	39	14228
2026-01-08 09:39:28.18	207.06	15.52	-35.9	-36.2	13.3	1.33e-04	0	21	0	0	39	14228
2026-01-08 09:39:31.19	207.03	15.10	-35.9	-36.2	13.3	1.33e-04	0	21	0	0	39	14228
2026-01-08 09:39:34.21	206.99	14.69	-35.9	-36.2	13.3	1.33e-04	0	21	0	0	39	14228
2026-01-08 09:39:37.22	206.96	14.29	-35.9	-36.2	13.3	1.33e-04	0	21	0	0	39	14228
2026-01-08 09:39:40.23	206.93	13.90	-35.9	-36.2	13.3	1.33e-04	0	21	0	0	39	14228
2026-01-08 09:39:43.25	206.90	13.51	-35.9	-36.2	13.3	1.33e-04	0	21	0	0	39	14228
2026-01-08 09:39:46.26	206.87	13.13	-35.9	-36.2	13.3	1.33e-04	0	21	0	0	39	14228
2026-01-08 09:39:49.27	206.84	12.77	-35.9	-36.2	13.3	1.33e-04	0	21	0	0	39	14228
2026-01-08 09:39:52.29	206.82	12.40	-35.9	-36.2	13.3	1.33e-04	0	21	0	0	39	14228
2026-01-08 09:39:55.32	206.79	12.04	-35.9	-36.2	13.3	1.33e-04	0	21	0	0	39	14228
2026-01-08 09:39:58.32	206.77	11.70	-35.9	-36.2	13.3	1.33e-04	0	21	0	0	39	14228
2026-01-08 09:40:01.34	206.75	11.35	-35.9	-36.2	13.3	1.33e-04	0	21	0	0	39	14228
2026-01-08 09:40:04.35	206.72	11.02	-35.9	-36.2	13.3	1.33e-04	0	21	0	0	39	14228
2026-01-08 09:40:07.37	206.70	10.69	-35.9	-36.2	13.3	1.33e-04	0	21	0	0	39	14228
2026-01-08 09:40:10.38	206.68	10.36	-35.9	-36.2	13.3	1.33e-04	0	21	0	0	39	14228
2026-01-08 09:40:13.41	206.66	10.04	-35.9	-36.2	13.3	1.33e-04	0	21	0	0	39	14228
2026-01-08 09:40:16.43	206.64	9.73	-35.9	-36.2	13.3	1.33e-04	0	21	0	0	39	14228
2026-01-08 09:40:19.45	206.63	9.42	-35.9	-36.2	13.3	1.33e-04	0	21	0	0	39	14228
2026-01-08 09:40:22.46	206.61	9.11	-35.9	-36.2	13.3	1.33e-04	0	21	0	0	39	14228
2026-01-08 09:40:25.47	206.59	8.81	-35.9	-36.2	13.3	1.33e-04	0	21	0	0	39	14228
2026-01-08 09:40:28.49	206.58	8.52	-35.9	-36.2	13.3	1.33e-04	0	21	0	0	39	14228
2026-01-08 09:40:31.49	206.56	8.23	-35.9	-36.2	13.3	1.33e-04	0	21	0	0	39	14228
2026-01-08 09:40:34.52	206.55	7.94	-35.9	-36.2	13.3	1.33e-04	0	21	0	0	39	14228
2026-01-08 09:40:37.54	206.53	7.66	-35.9	-36.2	13.3	1.33e-04	0	21	0	0	39	14228
2026-01-08 09:40:40.55	206.52	7.38	-35.9	-36.2	13.3	1.33e-04	0	21	0	0	39	14228
2026-01-08 09:40:43.57	206.51	7.11	-35.9	-36.2	13.3	1.33e-04	0	21	0	0	39	14228
2026-01-08 09:40:46.58	206.49	6.84	-35.9	-36.2	13.3	1.33e-04	0	21	0	0	39	14228
2026-01-08 09:40:49.59	206.48	6.58	-35.9	-36.2	13.3	1.33e-04	0	21	0	0	39	14228
2026-01-08 09:40:52.60	206.47	6.31	-35.9	-36.2	13.3	1.33e-04	0	21	0	0	39	14228
2026-01-08 09:40:55.63	206.46	6.05	-35.9	-36.2	13.3	1.33e-04	0	21	0	0	39	14228
2026-01-08 09:40:58.65	206.45	5.80	-35.9	-36.2	13.3	1.33e-04	0	21	0	0	39	14228
2026-01-08 09:41:01.67	206.44	5.55	-35.9	-36.2	13.3	1.33e-04	0	21	0	0	39	14228
2026-01-08 09:41:04.68	206.43	5.30	-35.9	-36.2	13.3	1.33e-04	0	21	0	0	39	14228
2026-01-08 09:41:07.70	206.42	5.05	-35.9	-36.2	13.3	1.33e-04	0	21	0	0	39	14228
2026-01-08 09:41:10.71	206.41	4.81	-35.9	-36.2	13.3	1.33e-04	0	21	0	0	39	14228
2026-01-08 09:41:13.72	206.40	4.57	-35.9	-36.2	13.3	1.33e-04	0	21	0	0	39	14228
2026-01-08 09:41:16.75	206.40	4.33	-35.9	-36.2	13.3	1.33e-04	0	21	0	0	39	14228
2026-01-08 09:41:19.77	206.39	4.10	-35.9	-36.2	13.3	1.33e-04	0	21	0	0	39	14228
2026-01-08 09:41:22.80	206.38	3.86	-35.9	-36.2	13.3	1.33e-04	0	21	0	0	39	14228
2026-01-08 09:41:25.82	206.37	3.63	-35.9	-36.2	13.3	1.33e-04	0	21	0	0	39	14228
2026-01-08 09:41:28.84	206.37	3.41	-35.9	-36.2	13.3	1.33e-04	0	21	0	0	39	14228
2026-01-08 09:41:31.87	206.36	3.18	-35.9	-36.2	13.3	1.33e-04	0	21	0	0	39	14228
2026-01-08 09:41:34.89	206.36	2.96	-35.9	-36.2	13.3	1.33e-04	0	21	0	0	39	14228
2026-01-08 09:41:37.92	206.35	2.74	-35.9	-36.2	13.3	1.33e-04	0	21	0	0	39	14228
2026-01-08 09:41:40.93	206.35	2.52	-35.9	-36.2	13.3	1.33e-04	0	21	0	0	39	14228
2026-01-08 09:41:43.95	206.34	2.31	-35.9	-36.2	13.3	1.33e-04	0	21	0	0	39	14228
2026-01-08 09:41:46.98	206.34	2.09	-35.9	-36.2	13.3	1.33e-04	0	21	0	0	39	14228

#Closed at: 2026-01-08 09:41:48
#Recorded file [0 MB]: D:/lorett/data/31004_260108_123107.dat