passes_logs/2026/01/08/R3.2S_Murmansk/R3.2S_Murmansk__20260108_102037_NOAA_20_JPSS-1_rec.log

#Pass ID: 20260108_102037_NOAA 20 (JPSS-1)
#Satellite: NOAA 20 (JPSS-1)
#Configuration: NOAA 20
#almurnet v.1.7.20251203
#Start time: 2026-01-08 10:20:38

#Version: 2.2.20231116
#Station: R3.2S_Murmansk
#Location: 33.079688 lon 68.888172 lat
#TLE: 1 43013U 17073A   26007.92906311  .00000097  00000+0  67117-4 0  9996
#TLE: 2 43013  98.7630 308.9434 0001752  49.5597 310.5732 14.19534161421734

#Time	Az	El	Level	Level2	SNR	BER	BlckErr	Temp	State	Recorded	gain1	gain2
2026-01-08 10:20:38.65	171.72	2.08	-58.1	-74.0	3.8	1.49e+00	0	24	0	0	82	22499
2026-01-08 10:20:42.67	171.82	2.33	-58.0	-73.8	3.8	1.49e+00	0	24	104	0	81	23290
2026-01-08 10:20:46.71	171.93	2.59	-58.0	-73.9	3.8	1.49e+00	0	25	104	0	81	23432
2026-01-08 10:20:50.74	172.03	2.85	-58.1	-74.0	3.8	1.49e+00	0	25	104	0	81	23660
2026-01-08 10:20:54.78	172.14	3.11	-58.0	-73.9	3.8	1.49e+00	0	25	104	0	81	23387
2026-01-08 10:20:58.81	172.26	3.38	-58.0	-74.0	3.8	1.49e+00	0	25	104	0	81	23786
2026-01-08 10:21:02.85	172.37	3.65	-57.9	-71.3	4.0	1.48e+00	0	25	104	0	81	17397
2026-01-08 10:21:06.88	172.48	3.92	-57.7	-67.9	5.2	5.80e-01	0	25	0	4194304	81	11767
2026-01-08 10:21:10.91	172.60	4.19	-57.5	-66.1	6.4	2.49e-01	0	25	0	11534336	81	9529
2026-01-08 10:21:14.93	172.72	4.47	-57.2	-64.7	7.5	7.08e-02	0	25	0	18874368	81	8106
2026-01-08 10:21:18.96	172.84	4.75	-56.8	-62.8	9.2	8.22e-03	0	26	0	27262976	80	6906
2026-01-08 10:21:23.04	172.96	5.03	-56.8	-62.9	9.1	7.30e-03	0	25	0	34603008	79	7406
2026-01-08 10:21:27.06	173.09	5.32	-58.0	-73.7	3.8	1.48e+00	0	26	104	40894464	81	22822
2026-01-08 10:21:31.10	173.22	5.61	-53.8	-56.4	13.5	0.00e+00	0	26	0	46137344	74	4705
2026-01-08 10:21:35.13	173.35	5.90	-53.5	-56.0	13.7	0.00e+00	0	25	0	53477376	73	4708
2026-01-08 10:21:39.15	173.48	6.19	-53.4	-55.9	13.8	0.00e+00	0	26	0	60817408	73	4675
2026-01-08 10:21:43.18	173.61	6.49	-53.3	-55.6	13.9	0.00e+00	0	26	0	69206016	73	4533
2026-01-08 10:21:47.21	173.75	6.79	-53.3	-55.7	13.9	0.00e+00	0	26	0	76546048	73	4566
2026-01-08 10:21:51.22	173.89	7.09	-53.3	-55.7	13.9	0.00e+00	0	26	0	83886080	73	4554
2026-01-08 10:21:55.25	174.03	7.40	-53.2	-55.5	13.9	0.00e+00	0	26	0	91226112	72	4725
2026-01-08 10:21:59.28	174.17	7.71	-53.2	-55.4	14.0	0.00e+00	0	26	0	98566144	72	4695
2026-01-08 10:22:03.31	174.32	8.03	-53.2	-55.5	13.9	0.00e+00	0	26	0	106954752	72	4735
2026-01-08 10:22:07.34	174.47	8.34	-53.0	-55.2	14.1	0.00e+00	0	26	0	114294784	72	4582
2026-01-08 10:22:11.37	174.62	8.67	-52.9	-55.1	14.2	0.00e+00	0	26	0	121634816	72	4505
2026-01-08 10:22:15.40	174.78	8.99	-52.9	-55.0	14.2	0.00e+00	0	26	0	128974848	72	4477
2026-01-08 10:22:19.43	174.94	9.33	-52.8	-54.9	14.3	0.00e+00	0	26	0	136314880	72	4409
2026-01-08 10:22:23.46	175.10	9.66	-52.8	-54.8	14.3	0.00e+00	0	26	0	144703488	72	4382
2026-01-08 10:22:27.49	175.27	10.00	-52.8	-54.8	14.3	0.00e+00	0	26	0	152043520	72	4387
2026-01-08 10:22:31.52	175.44	10.34	-52.7	-54.7	14.2	0.00e+00	0	26	0	159383552	71	4595
2026-01-08 10:22:35.55	175.61	10.69	-52.6	-54.6	14.3	0.00e+00	0	26	0	166723584	71	4538
2026-01-08 10:22:39.58	175.79	11.05	-52.6	-54.6	14.3	0.00e+00	0	26	0	175112192	71	4538
2026-01-08 10:22:43.61	175.97	11.41	-52.6	-54.5	14.4	0.00e+00	0	27	0	182452224	71	4482
2026-01-08 10:22:47.65	176.16	11.77	-52.6	-54.6	14.3	0.00e+00	0	26	0	189792256	71	4533
2026-01-08 10:22:51.69	176.35	12.14	-52.4	-54.3	14.5	0.00e+00	0	27	0	197132288	71	4384
2026-01-08 10:22:55.73	176.55	12.52	-52.4	-54.3	14.5	0.00e+00	0	26	0	204472320	71	4371
2026-01-08 10:22:59.75	176.74	12.90	-52.4	-54.3	14.5	0.00e+00	0	26	0	212860928	71	4345
2026-01-08 10:23:03.79	176.95	13.28	-52.4	-54.3	14.5	0.00e+00	0	27	0	220200960	71	4353
2026-01-08 10:23:07.82	177.16	13.67	-52.3	-54.2	14.6	0.00e+00	0	27	0	227540992	71	4305
2026-01-08 10:23:11.84	177.37	14.07	-52.3	-54.2	14.6	0.00e+00	0	27	0	234881024	71	4309
2026-01-08 10:23:15.87	177.59	14.48	-52.3	-54.2	14.6	0.00e+00	0	27	0	242221056	71	4316
2026-01-08 10:23:19.90	177.82	14.89	-52.4	-54.3	14.5	0.00e+00	0	27	0	250609664	71	4357
2026-01-08 10:23:23.93	178.05	15.30	-52.4	-54.3	14.5	0.00e+00	0	27	0	257949696	71	4358
2026-01-08 10:23:27.96	178.29	15.73	-52.3	-54.2	14.6	0.00e+00	0	27	0	265289728	71	4299
2026-01-08 10:23:31.99	178.53	16.16	-52.3	-54.2	14.6	0.00e+00	0	27	0	272629760	71	4293
2026-01-08 10:23:36.01	178.78	16.60	-52.4	-54.2	14.6	0.00e+00	0	27	0	279969792	71	4325
2026-01-08 10:23:40.05	179.04	17.04	-52.4	-54.3	14.5	0.00e+00	0	27	0	288358400	71	4344
2026-01-08 10:23:44.08	179.30	17.50	-52.4	-54.2	14.6	0.00e+00	0	27	0	295698432	71	4337
2026-01-08 10:23:48.10	179.58	17.96	-52.4	-54.2	14.6	0.00e+00	0	27	0	303038464	71	4333
2026-01-08 10:23:52.13	179.86	18.43	-52.4	-54.3	14.6	0.00e+00	0	27	0	310378496	71	4342
2026-01-08 10:23:56.17	180.15	18.91	-52.4	-54.2	14.6	0.00e+00	0	27	0	317718528	71	4323
2026-01-08 10:24:00.19	180.44	19.39	-52.4	-54.3	14.6	0.00e+00	0	27	0	326107136	71	4343
2026-01-08 10:24:04.23	180.75	19.89	-52.3	-54.2	14.6	0.00e+00	0	27	0	333447168	71	4293
2026-01-08 10:24:08.26	181.07	20.40	-52.2	-54.0	14.7	0.00e+00	0	27	0	340787200	71	4216
2026-01-08 10:24:12.28	181.39	20.91	-52.1	-53.9	14.6	0.00e+00	0	27	0	348127232	70	4409
2026-01-08 10:24:16.30	181.73	21.43	-51.6	-53.2	14.8	0.00e+00	0	27	0	355467264	69	4335
2026-01-08 10:24:20.33	182.08	21.97	-51.4	-53.0	14.9	0.00e+00	0	27	0	363855872	69	4204
2026-01-08 10:24:24.36	182.44	22.51	-51.1	-52.7	14.8	0.00e+00	0	27	0	371195904	68	4313
2026-01-08 10:24:28.38	182.81	23.07	-51.0	-52.5	14.9	0.00e+00	0	27	0	378535936	68	4224
2026-01-08 10:24:32.41	183.20	23.64	-50.9	-52.5	14.9	0.00e+00	0	27	0	385875968	68	4200
2026-01-08 10:24:36.45	183.60	24.22	-50.9	-52.4	15.0	0.00e+00	0	27	0	393216000	68	4156
2026-01-08 10:24:40.49	184.01	24.81	-50.8	-52.3	15.0	0.00e+00	0	27	0	401604608	68	4117
2026-01-08 10:24:44.52	184.44	25.41	-50.6	-52.1	14.9	0.00e+00	0	27	0	408944640	67	4262
2026-01-08 10:24:48.55	184.88	26.02	-50.8	-52.3	14.8	0.00e+00	0	27	0	416284672	67	4371
2026-01-08 10:24:52.58	185.35	26.65	-50.9	-52.5	14.8	0.00e+00	0	27	0	423624704	67	4452
2026-01-08 10:24:56.61	185.83	27.29	-51.1	-52.7	14.7	0.00e+00	0	27	0	430964736	67	4573
2026-01-08 10:25:00.64	186.33	27.95	-51.3	-52.9	14.6	0.00e+00	0	27	0	439353344	67	4704
2026-01-08 10:25:04.67	186.85	28.61	-52.2	-53.9	14.5	0.00e+00	0	27	0	446693376	69	4703
2026-01-08 10:25:08.69	187.39	29.29	-52.9	-54.8	14.2	0.00e+00	0	27	0	454033408	70	4902
2026-01-08 10:25:12.72	187.95	29.98	-53.4	-55.5	14.1	0.00e+00	0	27	0	461373440	72	4720
2026-01-08 10:25:16.74	188.54	30.69	-54.3	-56.7	13.7	0.00e+00	0	27	0	469762048	73	5114
2026-01-08 10:25:20.78	189.15	31.42	-54.8	-57.5	13.4	0.00e+00	0	27	0	477102080	74	5281
2026-01-08 10:25:24.81	189.79	32.15	-54.7	-57.2	13.6	0.00e+00	0	27	0	484442112	75	4835
2026-01-08 10:25:28.84	190.46	32.90	-54.3	-56.6	14.0	0.00e+00	0	27	0	491782144	75	4516
2026-01-08 10:25:32.87	191.17	33.67	-53.7	-55.8	14.2	0.00e+00	0	27	0	499122176	74	4389
2026-01-08 10:25:36.90	191.90	34.45	-54.0	-56.1	14.1	0.00e+00	0	27	0	507510784	74	4535
2026-01-08 10:25:40.93	192.67	35.25	-53.9	-56.1	14.1	0.00e+00	0	27	0	514850816	74	4508
2026-01-08 10:25:44.94	193.48	36.05	-53.5	-55.5	14.3	0.00e+00	0	27	0	522190848	73	4476
2026-01-08 10:25:48.97	194.32	36.88	-53.1	-55.0	14.4	0.00e+00	0	27	0	529530880	72	4474
2026-01-08 10:25:53.00	195.22	37.72	-53.1	-55.0	14.4	0.00e+00	0	27	0	536870912	72	4490
2026-01-08 10:25:57.03	196.16	38.57	-53.4	-55.4	14.2	0.00e+00	0	27	0	545259520	72	4681
2026-01-08 10:26:01.04	197.14	39.43	-52.8	-54.6	14.6	0.00e+00	0	27	0	552599552	72	4280
2026-01-08 10:26:05.06	198.18	40.30	-52.0	-53.6	14.8	0.00e+00	0	27	0	559939584	70	4290
2026-01-08 10:26:09.09	199.28	41.19	-52.3	-54.1	14.6	0.00e+00	0	27	0	567279616	70	4507
2026-01-08 10:26:13.12	200.44	42.09	-52.3	-54.0	14.6	0.00e+00	0	27	0	574619648	70	4448
2026-01-08 10:26:17.13	201.65	42.99	-52.8	-54.6	14.4	0.00e+00	0	27	0	583008256	70	4790
2026-01-08 10:26:21.16	202.95	43.90	-52.9	-54.7	14.5	0.00e+00	0	27	0	590348288	71	4547
2026-01-08 10:26:25.20	204.32	44.82	-53.9	-56.0	14.0	0.00e+00	0	27	0	597688320	72	5018
2026-01-08 10:26:29.23	205.77	45.74	-54.2	-56.4	13.9	0.00e+00	0	27	0	605028352	73	4933
2026-01-08 10:26:33.26	207.31	46.67	-54.9	-57.4	13.6	0.00e+00	0	27	0	612368384	75	4968
2026-01-08 10:26:37.29	208.94	47.58	-56.3	-59.6	12.5	0.00e+00	0	27	0	620756992	77	5712
2026-01-08 10:26:41.32	210.67	48.49	-56.7	-60.4	12.1	0.00e+00	0	27	0	628097024	78	5864
2026-01-08 10:26:45.36	212.50	49.40	-56.3	-59.6	12.7	0.00e+00	0	27	0	635437056	79	5082
2026-01-08 10:26:49.40	214.44	50.29	-55.4	-58.0	13.5	0.00e+00	0	27	0	642777088	77	4747
2026-01-08 10:26:53.43	216.49	51.15	-53.7	-55.7	14.4	0.00e+00	0	27	0	650117120	74	4310
2026-01-08 10:26:57.45	218.66	51.99	-52.8	-54.6	14.7	0.00e+00	0	27	0	658505728	72	4258
2026-01-08 10:27:01.47	220.95	52.80	-52.3	-54.0	14.8	0.00e+00	0	27	0	665845760	71	4203
2026-01-08 10:27:05.51	223.37	53.58	-52.5	-54.2	14.7	0.00e+00	0	27	0	673185792	71	4322
2026-01-08 10:27:09.54	225.92	54.32	-52.1	-53.7	14.7	0.00e+00	0	27	0	680525824	70	4339
2026-01-08 10:27:13.56	228.59	55.00	-52.1	-53.7	14.8	0.00e+00	0	27	0	687865856	70	4315
2026-01-08 10:27:17.58	231.39	55.63	-52.7	-54.5	14.4	0.00e+00	0	27	0	696254464	70	4710
2026-01-08 10:27:21.61	234.31	56.20	-52.2	-53.8	14.8	0.00e+00	0	27	0	703594496	70	4389
2026-01-08 10:27:25.63	237.34	56.69	-52.6	-54.4	14.5	0.00e+00	0	27	0	710934528	70	4672
2026-01-08 10:27:29.67	240.49	57.12	-52.8	-54.5	14.4	0.00e+00	0	27	0	718274560	70	4753
2026-01-08 10:27:33.70	243.72	57.46	-53.9	-56.0	14.2	0.00e+00	0	27	0	725614592	73	4717
2026-01-08 10:27:37.72	247.01	57.72	-55.6	-58.3	13.3	0.00e+00	0	27	0	734003200	76	5165
2026-01-08 10:27:41.75	250.36	57.88	-55.0	-57.4	13.7	0.00e+00	0	27	0	741343232	75	4936
2026-01-08 10:27:45.79	253.75	57.96	-54.9	-57.4	13.6	0.00e+00	0	27	0	748683264	75	4941
2026-01-08 10:27:49.82	257.13	57.95	-55.6	-58.3	13.3	0.00e+00	0	27	0	756023296	76	5184
2026-01-08 10:27:53.85	260.51	57.84	-53.5	-55.5	14.4	0.00e+00	0	27	0	763363328	73	4450
2026-01-08 10:27:57.88	263.84	57.64	-54.2	-56.3	14.0	0.00e+00	0	27	0	771751936	73	4900
2026-01-08 10:28:01.90	267.11	57.35	-55.3	-58.0	13.3	0.00e+00	0	27	0	779091968	75	5289
2026-01-08 10:28:05.93	270.30	56.98	-56.2	-59.3	12.9	0.00e+00	0	27	0	786432000	78	5197
2026-01-08 10:28:09.96	273.40	56.53	-54.8	-57.0	14.0	0.00e+00	0	27	0	793772032	76	4482
2026-01-08 10:28:13.99	276.40	56.01	-54.4	-56.5	14.1	0.00e+00	0	27	0	801112064	75	4470
2026-01-08 10:28:18.01	279.27	55.42	-52.7	-54.5	14.7	0.00e+00	0	27	0	809500672	72	4200
2026-01-08 10:28:22.04	282.03	54.77	-50.8	-52.2	15.1	0.00e+00	0	27	0	816840704	68	4077
2026-01-08 10:28:26.07	284.66	54.07	-49.5	-50.8	15.1	0.00e+00	0	27	0	824180736	65	4125
2026-01-08 10:28:30.10	287.16	53.32	-49.6	-50.9	15.1	0.00e+00	0	27	0	831520768	65	4155
2026-01-08 10:28:34.13	289.53	52.54	-50.9	-52.3	14.8	0.00e+00	0	27	0	839909376	66	4626
2026-01-08 10:28:38.16	291.78	51.72	-52.1	-53.7	14.7	0.00e+00	0	27	0	847249408	69	4548
2026-01-08 10:28:42.19	293.90	50.87	-53.6	-55.5	14.4	0.00e+00	0	27	0	854589440	73	4468
2026-01-08 10:28:46.22	295.91	49.99	-56.8	-60.3	12.2	3.00e-06	0	27	0	861929472	79	5525
2026-01-08 10:28:50.25	297.81	49.11	-55.6	-58.3	13.3	0.00e+00	0	27	0	869269504	76	5198
2026-01-08 10:28:54.28	299.60	48.20	-55.0	-57.4	13.8	0.00e+00	0	27	0	877658112	76	4653
2026-01-08 10:28:58.31	301.29	47.29	-56.9	-60.5	12.2	2.20e-06	0	28	0	884998144	79	5653
2026-01-08 10:29:02.34	302.88	46.38	-54.5	-56.8	14.0	0.00e+00	0	27	0	892338176	75	4614
2026-01-08 10:29:06.37	304.38	45.46	-54.9	-57.2	13.9	0.00e+00	0	27	0	899678208	76	4594
2026-01-08 10:29:10.40	305.81	44.54	-55.0	-57.5	13.7	0.00e+00	0	27	0	907018240	75	4984
2026-01-08 10:29:14.42	307.14	43.63	-54.6	-56.9	13.9	0.00e+00	0	27	0	915406848	75	4699
2026-01-08 10:29:18.45	308.41	42.73	-54.4	-56.6	14.1	0.00e+00	0	27	0	922746880	75	4516
2026-01-08 10:29:22.49	309.62	41.82	-55.5	-58.1	13.5	0.00e+00	0	27	0	930086912	77	4808
2026-01-08 10:29:26.51	310.75	40.94	-54.6	-56.8	13.8	0.00e+00	0	27	0	937426944	74	4914
2026-01-08 10:29:30.54	311.83	40.06	-55.6	-58.4	13.2	0.00e+00	0	27	0	944766976	76	5247
2026-01-08 10:29:34.57	312.85	39.19	-53.9	-55.8	14.4	0.00e+00	0	27	0	953155584	74	4388
2026-01-08 10:29:38.61	313.82	38.33	-55.9	-58.8	13.1	0.00e+00	0	27	0	960495616	78	4915
2026-01-08 10:29:42.64	314.74	37.48	-53.7	-55.7	14.4	0.00e+00	0	27	0	967835648	74	4303
2026-01-08 10:29:46.66	315.62	36.66	-55.6	-58.3	13.4	0.00e+00	0	27	0	975175680	77	4900
2026-01-08 10:29:50.69	316.45	35.84	-52.6	-54.2	14.6	0.00e+00	0	27	0	982515712	71	4331
2026-01-08 10:29:54.72	317.25	35.04	-53.3	-55.1	14.3	0.00e+00	0	27	0	990904320	71	4811
2026-01-08 10:29:58.74	318.00	34.25	-54.5	-56.8	13.9	0.00e+00	0	27	0	998244352	74	4884
2026-01-08 10:30:02.77	318.72	33.48	-53.7	-55.7	14.4	0.00e+00	0	27	0	1005584384	74	4310
2026-01-08 10:30:06.79	319.41	32.72	-54.6	-57.0	13.7	0.00e+00	0	27	0	1012924416	74	5009
2026-01-08 10:30:10.82	320.07	31.98	-54.8	-57.2	13.6	0.00e+00	0	27	0	1020264448	74	5133
2026-01-08 10:30:14.85	320.71	31.25	-54.5	-56.8	13.8	0.00e+00	0	27	0	1028653056	74	4893
2026-01-08 10:30:18.87	321.31	30.54	-53.7	-55.8	14.3	0.00e+00	0	27	0	1035993088	74	4346
2026-01-08 10:30:22.91	321.89	29.83	-54.0	-56.2	14.0	0.00e+00	0	27	0	1043333120	73	4841
2026-01-08 10:30:26.94	322.45	29.15	-54.1	-56.3	13.9	0.00e+00	0	27	0	1050673152	73	4907
2026-01-08 10:30:30.97	322.98	28.47	-53.5	-55.5	14.3	0.00e+00	0	27	0	1058013184	73	4447
2026-01-08 10:30:35.00	323.49	27.82	-53.4	-55.4	14.4	0.00e+00	0	27	0	1066401792	73	4414
2026-01-08 10:30:39.03	323.99	27.17	-54.1	-56.4	13.9	0.00e+00	0	27	0	1073741824	73	4944
2026-01-08 10:30:43.06	324.46	26.54	-54.4	-56.8	13.7	0.00e+00	0	27	0	1081081856	74	4884
2026-01-08 10:30:47.10	324.92	25.91	-54.2	-56.4	13.9	0.00e+00	0	27	0	1088421888	74	4701
2026-01-08 10:30:51.12	325.36	25.31	-53.7	-55.8	14.3	0.00e+00	0	27	0	1095761920	74	4352
2026-01-08 10:30:55.16	325.78	24.71	-53.0	-54.8	14.5	0.00e+00	0	27	0	1104150528	72	4389
2026-01-08 10:30:59.19	326.19	24.13	-52.7	-54.5	14.6	0.00e+00	0	27	0	1111490560	72	4226
2026-01-08 10:31:03.21	326.59	23.56	-53.4	-55.4	14.2	0.00e+00	0	27	0	1118830592	72	4662
2026-01-08 10:31:07.24	326.97	22.99	-53.5	-55.6	14.1	0.00e+00	0	27	0	1126170624	72	4795
2026-01-08 10:31:11.28	327.34	22.44	-52.9	-54.7	14.5	0.00e+00	0	27	0	1134559232	72	4335
2026-01-08 10:31:15.30	327.70	21.90	-52.5	-54.3	14.6	0.00e+00	0	27	0	1141899264	71	4358
2026-01-08 10:31:19.32	328.04	21.38	-52.6	-54.4	14.5	0.00e+00	0	27	0	1149239296	71	4432
2026-01-08 10:31:23.34	328.38	20.86	-52.8	-54.6	14.4	0.00e+00	0	27	0	1156579328	71	4539
2026-01-08 10:31:27.36	328.70	20.35	-52.7	-54.5	14.5	0.00e+00	0	27	0	1163919360	71	4477
2026-01-08 10:31:31.40	329.02	19.85	-52.4	-54.2	14.6	0.00e+00	0	27	0	1171259392	71	4323
2026-01-08 10:31:35.41	329.32	19.36	-52.1	-53.8	14.6	0.00e+00	0	27	0	1179648000	70	4358
2026-01-08 10:31:39.44	329.62	18.88	-51.8	-53.4	14.8	0.00e+00	0	27	0	1186988032	70	4188
2026-01-08 10:31:43.46	329.90	18.40	-51.7	-53.4	14.7	0.00e+00	0	27	0	1194328064	69	4411
2026-01-08 10:31:47.49	330.18	17.94	-51.8	-53.4	14.7	0.00e+00	0	27	0	1201668096	69	4427
2026-01-08 10:31:51.51	330.45	17.48	-51.8	-53.5	14.6	0.00e+00	0	27	0	1209008128	69	4487
2026-01-08 10:31:55.54	330.72	17.03	-52.2	-54.0	14.4	0.00e+00	0	27	0	1217396736	69	4748
2026-01-08 10:31:59.57	330.97	16.59	-52.7	-54.6	14.3	0.00e+00	0	27	0	1224736768	70	4792
2026-01-08 10:32:03.59	331.22	16.16	-52.4	-54.3	14.4	0.00e+00	0	27	0	1232076800	70	4632
2026-01-08 10:32:07.63	331.47	15.73	-52.3	-54.1	14.5	0.00e+00	0	27	0	1239416832	70	4498
2026-01-08 10:32:11.66	331.71	15.31	-52.1	-53.8	14.6	0.00e+00	0	27	0	1246756864	70	4366
2026-01-08 10:32:15.69	331.94	14.89	-52.0	-53.8	14.6	0.00e+00	0	27	0	1255145472	70	4346
2026-01-08 10:32:19.72	332.16	14.49	-52.1	-53.8	14.6	0.00e+00	0	27	0	1262485504	70	4366
2026-01-08 10:32:23.75	332.38	14.08	-52.2	-54.0	14.5	0.00e+00	0	27	0	1269825536	70	4467
2026-01-08 10:32:27.78	332.60	13.69	-52.5	-54.4	14.3	0.00e+00	0	27	0	1277165568	70	4654
2026-01-08 10:32:31.81	332.81	13.30	-52.6	-54.6	14.2	0.00e+00	0	27	0	1284505600	70	4791
2026-01-08 10:32:35.84	333.01	12.92	-52.8	-54.8	14.1	0.00e+00	0	27	0	1292894208	70	4883
2026-01-08 10:32:39.87	333.21	12.54	-52.9	-54.9	14.1	0.00e+00	0	27	0	1300234240	70	4960
2026-01-08 10:32:43.90	333.41	12.17	-52.9	-54.9	14.1	0.00e+00	0	27	0	1307574272	71	4696
2026-01-08 10:32:47.93	333.60	11.80	-52.9	-55.0	14.1	0.00e+00	0	27	0	1314914304	71	4731
2026-01-08 10:32:51.95	333.78	11.44	-52.8	-54.8	14.2	0.00e+00	0	27	0	1322254336	71	4620
2026-01-08 10:32:55.98	333.97	11.09	-52.8	-54.8	14.2	0.00e+00	0	27	0	1330642944	71	4610
2026-01-08 10:33:00.02	334.15	10.74	-52.8	-54.8	14.2	0.00e+00	0	27	0	1337982976	71	4624
2026-01-08 10:33:04.06	334.32	10.39	-52.9	-55.0	14.1	0.00e+00	0	27	0	1345323008	71	4723
2026-01-08 10:33:08.09	334.49	10.05	-52.9	-55.0	14.1	0.00e+00	0	27	0	1352663040	71	4706
2026-01-08 10:33:12.11	334.66	9.71	-53.0	-55.1	14.0	0.00e+00	0	27	0	1361051648	71	4786
2026-01-08 10:33:16.14	334.82	9.38	-53.0	-55.1	14.0	0.00e+00	0	27	0	1368391680	71	4787
2026-01-08 10:33:20.16	334.99	9.05	-53.1	-55.3	13.9	0.00e+00	0	27	0	1375731712	71	4925
2026-01-08 10:33:24.20	335.14	8.72	-53.3	-55.5	13.8	0.00e+00	0	27	0	1383071744	71	5034
2026-01-08 10:33:28.23	335.30	8.40	-53.4	-55.8	13.8	0.00e+00	0	27	0	1390411776	72	4902
2026-01-08 10:33:32.26	335.45	8.09	-53.5	-55.9	13.7	0.00e+00	0	27	0	1398800384	72	4968
2026-01-08 10:33:36.28	335.60	7.77	-53.6	-56.1	13.6	0.00e+00	0	27	0	1406140416	72	5062
2026-01-08 10:33:40.32	335.75	7.46	-53.9	-56.5	13.3	0.00e+00	0	27	0	1413480448	72	5302
2026-01-08 10:33:44.35	335.89	7.16	-53.9	-56.5	13.4	0.00e+00	0	27	0	1420820480	73	5003
2026-01-08 10:33:48.39	336.03	6.86	-53.9	-56.6	13.3	0.00e+00	0	27	0	1428160512	73	5093
2026-01-08 10:33:52.42	336.17	6.56	-53.9	-56.6	13.3	0.00e+00	0	27	0	1436549120	73	5066
2026-01-08 10:33:56.44	336.31	6.26	-53.9	-56.5	13.3	0.00e+00	0	27	0	1443889152	73	5027
2026-01-08 10:34:00.47	336.44	5.97	-53.9	-56.7	13.2	0.00e+00	0	27	0	1451229184	73	5121
2026-01-08 10:34:04.50	336.57	5.68	-53.7	-56.4	13.4	0.00e+00	0	27	0	1458569216	73	4948
2026-01-08 10:34:08.52	336.70	5.40	-53.9	-56.7	13.2	0.00e+00	0	27	0	1465909248	73	5149
2026-01-08 10:34:12.55	336.83	5.11	-53.9	-56.7	13.2	0.00e+00	0	27	0	1474297856	73	5105
2026-01-08 10:34:16.58	336.95	4.83	-59.3	-75.3	3.8	1.49e+00	0	27	104	1478492160	83	24590
2026-01-08 10:34:20.61	337.08	4.56	-60.4	-76.5	3.8	1.49e+00	0	27	104	1478492160	85	25025
2026-01-08 10:34:24.65	337.20	4.28	-60.8	-76.8	3.8	1.49e+00	0	27	104	1478492160	86	24674
2026-01-08 10:34:28.69	337.32	4.01	-60.9	-77.0	3.8	1.49e+00	0	27	104	1478492160	86	25090
2026-01-08 10:34:32.73	337.44	3.74	-61.0	-77.1	3.8	1.49e+00	0	27	104	1478492160	87	23871
2026-01-08 10:34:36.76	337.55	3.47	-61.0	-77.1	3.8	1.49e+00	0	27	104	1478492160	87	23922
2026-01-08 10:34:40.79	337.67	3.21	-60.9	-77.0	3.8	1.49e+00	0	27	104	1478492160	87	23659
2026-01-08 10:34:44.83	337.78	2.95	-60.8	-76.9	3.8	1.49e+00	0	27	104	1478492160	87	23472
2026-01-08 10:34:48.87	337.89	2.69	-60.8	-76.9	3.8	1.49e+00	0	27	104	1478492160	87	23378
2026-01-08 10:34:52.90	338.00	2.43	-60.7	-76.8	3.8	1.49e+00	0	28	104	1478492160	87	23235
2026-01-08 10:34:56.93	338.11	2.17	-60.7	-76.8	3.8	1.49e+00	0	27	104	1478492160	87	23175
2026-01-08 10:35:00.96	338.21	1.92	-60.7	-76.8	3.8	1.49e+00	0	27	104	1478492160	87	23150

#Closed at: 2026-01-08 10:35:02
#Recorded file [1478 MB]: D:/lorett/data/31004_260108_132038.dat