passes_logs/2026/01/08/R3.2S_Murmansk/R3.2S_Murmansk__20260108_042311_FENGYUN_3D_rec.log

#Pass ID: 20260108_042311_FENGYUN 3D
#Satellite: FENGYUN 3D
#Configuration: FENGYUN 3D
#almurnet v.1.7.20251203
#Start time: 2026-01-08 04:23:11

#Version: 2.2.20231116
#Station: R3.2S_Murmansk
#Location: 33.079688 lon 68.888172 lat
#TLE: 1 43010U 17072A   26006.26440730  .00000376  00000+0  19957-3 0  9994
#TLE: 2 43010  98.9925 337.9455 0002045 123.9195 236.2175 14.19693586422016

#Time	Az	El	Level	Level2	SNR	BER	BlckErr	Temp	State	Recorded	gain1	gain2
2026-01-08 04:23:11.26	33.39	1.98	-56.9	-68.6	3.8	8.44e-01	0	23	0	0	79	14344
2026-01-08 04:23:15.24	33.25	2.23	-57.1	-69.8	3.8	8.45e-01	0	23	104	0	79	16328
2026-01-08 04:23:19.24	33.11	2.48	-57.2	-70.0	3.8	8.46e-01	0	23	104	0	79	16783
2026-01-08 04:23:23.23	32.97	2.73	-57.2	-69.9	3.8	8.46e-01	0	23	104	0	79	16652
2026-01-08 04:23:27.21	32.83	2.99	-57.2	-69.7	3.8	8.45e-01	0	23	104	0	79	16314
2026-01-08 04:23:31.20	32.68	3.24	-57.2	-70.0	3.8	8.45e-01	0	23	104	0	79	16733
2026-01-08 04:23:35.18	32.53	3.50	-57.2	-70.0	3.8	8.45e-01	0	23	104	0	79	16815
2026-01-08 04:23:39.16	32.38	3.76	-57.2	-69.7	3.8	8.45e-01	0	23	104	0	79	16152
2026-01-08 04:23:43.15	32.22	4.02	-57.1	-68.3	3.9	8.45e-01	0	23	104	0	79	13744
2026-01-08 04:23:47.14	32.07	4.29	-57.0	-67.6	3.9	8.41e-01	0	24	104	0	79	12774
2026-01-08 04:23:51.13	31.90	4.55	-56.7	-65.2	4.7	8.18e-01	0	24	0	0	79	9612
2026-01-08 04:23:55.12	31.74	4.82	-55.7	-61.0	7.5	1.03e-01	0	24	0	15728640	78	6309
2026-01-08 04:23:59.13	31.57	5.10	-57.2	-66.6	4.3	8.34e-01	0	24	0	35651584	79	11386
2026-01-08 04:24:03.13	31.40	5.37	-52.3	-54.8	12.2	0.00e+00	0	24	0	54525952	69	5163
2026-01-08 04:24:07.12	31.22	5.65	-49.5	-51.2	14.2	0.00e+00	0	24	0	77594624	65	4293
2026-01-08 04:24:11.12	31.04	5.93	-48.8	-50.2	14.6	0.00e+00	0	24	0	99614720	64	4078
2026-01-08 04:24:15.10	30.86	6.21	-48.8	-50.2	14.5	0.00e+00	0	24	0	122683392	63	4333
2026-01-08 04:24:19.09	30.67	6.50	-48.6	-50.0	14.6	0.00e+00	0	24	0	144703488	63	4227
2026-01-08 04:24:23.09	30.48	6.79	-48.5	-49.9	14.7	0.00e+00	0	24	0	166723584	63	4165
2026-01-08 04:24:27.08	30.28	7.08	-48.6	-50.0	14.7	0.00e+00	0	24	0	189792256	63	4214
2026-01-08 04:24:31.07	30.08	7.37	-48.6	-50.0	14.6	0.00e+00	0	24	0	211812352	63	4236
2026-01-08 04:24:35.05	29.88	7.67	-48.6	-50.0	14.7	0.00e+00	0	24	0	234881024	63	4223
2026-01-08 04:24:39.05	29.67	7.97	-48.6	-50.0	14.7	0.00e+00	0	24	0	256901120	63	4220
2026-01-08 04:24:43.04	29.46	8.28	-48.4	-49.7	14.8	0.00e+00	0	24	0	278921216	63	4090
2026-01-08 04:24:47.04	29.24	8.58	-48.3	-49.7	14.9	0.00e+00	0	24	0	301989888	63	4075
2026-01-08 04:24:51.03	29.01	8.89	-48.4	-49.8	14.8	0.00e+00	0	24	0	324009984	63	4119
2026-01-08 04:24:55.02	28.78	9.21	-48.2	-49.5	15.0	0.00e+00	0	24	0	347078656	63	4000
2026-01-08 04:24:59.00	28.55	9.52	-48.2	-49.6	14.8	0.00e+00	0	24	0	369098752	62	4247
2026-01-08 04:25:02.99	28.31	9.85	-48.1	-49.4	14.9	0.00e+00	0	24	0	391118848	62	4152
2026-01-08 04:25:06.98	28.07	10.17	-47.8	-49.1	15.1	0.00e+00	0	24	0	414187520	62	4009
2026-01-08 04:25:10.99	27.81	10.50	-47.8	-49.1	15.0	0.00e+00	0	25	0	436207616	62	4036
2026-01-08 04:25:14.98	27.56	10.83	-47.9	-49.1	15.0	0.00e+00	0	24	0	459276288	62	4035
2026-01-08 04:25:18.98	27.29	11.17	-47.9	-49.1	15.0	0.00e+00	0	24	0	481296384	62	4038
2026-01-08 04:25:22.96	27.02	11.51	-47.9	-49.2	15.0	0.00e+00	0	25	0	504365056	62	4076
2026-01-08 04:25:26.96	26.75	11.86	-47.7	-49.0	14.9	0.00e+00	0	25	0	526385152	61	4209
2026-01-08 04:25:30.95	26.46	12.20	-47.7	-49.0	15.0	0.00e+00	0	24	0	548405248	61	4202
2026-01-08 04:25:34.93	26.17	12.56	-47.1	-48.3	15.1	0.00e+00	0	24	0	571473920	60	4138
2026-01-08 04:25:38.92	25.87	12.91	-47.1	-48.3	15.1	0.00e+00	0	24	0	593494016	60	4113
2026-01-08 04:25:42.92	25.57	13.28	-47.1	-48.2	15.1	0.00e+00	0	25	0	616562688	60	4091
2026-01-08 04:25:46.91	25.25	13.64	-46.9	-48.1	15.2	0.00e+00	0	24	0	638582784	60	4025
2026-01-08 04:25:50.90	24.93	14.01	-46.9	-48.1	15.2	0.00e+00	0	25	0	660602880	60	4009
2026-01-08 04:25:54.90	24.60	14.39	-46.8	-47.9	15.3	0.00e+00	0	25	0	683671552	60	3945
2026-01-08 04:25:58.91	24.26	14.77	-46.8	-47.9	15.3	0.00e+00	0	25	0	706740224	60	3943
2026-01-08 04:26:02.89	23.91	15.16	-47.0	-48.2	15.1	0.00e+00	0	25	0	728760320	59	4293
2026-01-08 04:26:06.89	23.55	15.55	-46.7	-47.9	15.2	0.00e+00	0	25	0	750780416	59	4179
2026-01-08 04:26:10.90	23.18	15.95	-46.8	-48.0	15.2	0.00e+00	0	25	0	773849088	59	4212
2026-01-08 04:26:14.89	22.80	16.35	-46.5	-47.6	15.3	0.00e+00	0	25	0	795869184	59	4049
2026-01-08 04:26:18.87	22.41	16.75	-46.4	-47.5	15.3	0.00e+00	0	25	0	818937856	59	4004
2026-01-08 04:26:22.87	22.01	17.17	-46.4	-47.5	15.4	0.00e+00	0	25	0	840957952	59	3997
2026-01-08 04:26:26.87	21.60	17.58	-46.5	-47.6	15.3	0.00e+00	0	25	0	864026624	59	4044
2026-01-08 04:26:30.85	21.17	18.01	-46.4	-47.6	15.3	0.00e+00	0	25	0	886046720	59	4015
2026-01-08 04:26:34.84	20.74	18.44	-46.1	-47.2	15.3	0.00e+00	0	25	0	908066816	58	4067
2026-01-08 04:26:38.81	20.29	18.87	-46.0	-47.1	15.4	0.00e+00	0	25	0	931135488	58	4009
2026-01-08 04:26:42.81	19.82	19.31	-46.0	-47.1	15.4	0.00e+00	0	25	0	953155584	58	4023
2026-01-08 04:26:46.79	19.35	19.75	-45.8	-46.9	15.4	0.00e+00	0	25	0	975175680	58	3933
2026-01-08 04:26:50.78	18.85	20.21	-45.7	-46.8	15.5	0.00e+00	0	25	0	998244352	58	3891
2026-01-08 04:26:54.78	18.35	20.66	-45.7	-46.8	15.5	0.00e+00	0	25	0	1020264448	58	3912
2026-01-08 04:26:58.77	17.82	21.13	-45.5	-46.5	15.4	0.00e+00	0	25	0	1043333120	57	4004
2026-01-08 04:27:02.78	17.28	21.60	-45.5	-46.6	15.4	0.00e+00	0	25	0	1065353216	57	4025
2026-01-08 04:27:06.78	16.72	22.08	-45.5	-46.6	15.4	0.00e+00	0	25	0	1088421888	57	4024
2026-01-08 04:27:10.77	16.15	22.56	-45.4	-46.5	15.5	0.00e+00	0	25	0	1110441984	57	3969
2026-01-08 04:27:14.76	15.55	23.05	-45.2	-46.2	15.4	0.00e+00	0	25	0	1133510656	56	4095
2026-01-08 04:27:18.75	14.94	23.54	-45.1	-46.1	15.4	0.00e+00	0	25	0	1155530752	56	4050
2026-01-08 04:27:22.75	14.30	24.04	-45.1	-46.2	15.4	0.00e+00	0	25	0	1177550848	56	4077
2026-01-08 04:27:26.74	13.65	24.54	-45.2	-46.2	15.4	0.00e+00	0	25	0	1200619520	56	4094
2026-01-08 04:27:30.74	12.97	25.06	-45.1	-46.2	15.4	0.00e+00	0	25	0	1222639616	56	4055
2026-01-08 04:27:34.73	12.27	25.57	-45.0	-46.1	15.5	0.00e+00	0	25	0	1245708288	56	4008
2026-01-08 04:27:38.72	11.55	26.09	-44.8	-45.8	15.5	0.00e+00	0	25	0	1267728384	56	3913
2026-01-08 04:27:42.72	10.80	26.62	-44.9	-46.0	15.5	0.00e+00	0	25	0	1289748480	56	3964
2026-01-08 04:27:46.68	10.03	27.15	-45.1	-46.2	15.4	0.00e+00	0	25	0	1312817152	56	4057
2026-01-08 04:27:50.68	9.23	27.68	-44.8	-45.9	15.5	0.00e+00	0	25	0	1334837248	56	3932
2026-01-08 04:27:54.67	8.41	28.22	-44.5	-45.5	15.5	0.00e+00	0	25	0	1357905920	55	4004
2026-01-08 04:27:58.66	7.55	28.76	-44.4	-45.5	15.5	0.00e+00	0	25	0	1379926016	55	3974
2026-01-08 04:28:02.65	6.66	29.31	-44.3	-45.4	15.5	0.00e+00	0	25	0	1401946112	55	3926
2026-01-08 04:28:06.65	5.74	29.86	-44.6	-45.6	15.4	0.00e+00	0	25	0	1425014784	55	4037
2026-01-08 04:28:10.64	4.79	30.41	-44.3	-45.4	15.5	0.00e+00	0	25	0	1447034880	55	3924
2026-01-08 04:28:14.62	3.81	30.96	-44.4	-45.5	15.5	0.00e+00	0	25	0	1470103552	55	3971
2026-01-08 04:28:18.62	2.79	31.51	-44.3	-45.4	15.6	0.00e+00	0	25	0	1492123648	55	3915
2026-01-08 04:28:22.62	1.74	32.07	-44.2	-45.2	15.5	0.00e+00	0	25	0	1515192320	54	4093
2026-01-08 04:28:26.61	0.65	32.62	-44.3	-45.4	15.4	0.00e+00	0	25	0	1537212416	54	4172
2026-01-08 04:28:30.61	359.52	33.17	-44.4	-45.5	15.4	0.00e+00	0	25	0	1559232512	54	4212
2026-01-08 04:28:34.58	358.35	33.71	-44.3	-45.4	15.4	0.00e+00	0	25	0	1582301184	54	4153
2026-01-08 04:28:38.56	357.15	34.25	-44.1	-45.1	15.5	0.00e+00	0	25	0	1604321280	54	4022
2026-01-08 04:28:42.54	355.90	34.78	-44.3	-45.3	15.4	0.00e+00	0	25	0	1626341376	54	4115
2026-01-08 04:28:46.52	354.62	35.31	-44.0	-45.1	15.5	0.00e+00	0	25	0	1649410048	54	4012
2026-01-08 04:28:50.50	353.29	35.83	-44.3	-45.3	15.5	0.00e+00	0	25	0	1671430144	54	4131
2026-01-08 04:28:54.49	351.91	36.34	-44.5	-45.6	15.4	0.00e+00	0	25	0	1693450240	54	4259
2026-01-08 04:28:58.48	350.50	36.84	-44.9	-46.0	15.4	0.00e+00	0	25	0	1716518912	54	4460
2026-01-08 04:29:02.46	349.04	37.32	-44.3	-45.4	15.6	0.00e+00	0	25	0	1738539008	55	3917
2026-01-08 04:29:06.46	347.53	37.79	-44.3	-45.4	15.6	0.00e+00	0	25	0	1761607680	55	3928
2026-01-08 04:29:10.46	345.97	38.24	-44.5	-45.6	15.5	0.00e+00	0	25	0	1783627776	55	4011
2026-01-08 04:29:14.45	344.38	38.68	-44.4	-45.4	15.5	0.00e+00	0	25	0	1805647872	55	3951
2026-01-08 04:29:18.46	342.73	39.09	-44.4	-45.4	15.5	0.00e+00	0	25	0	1828716544	55	3946
2026-01-08 04:29:22.45	341.06	39.48	-44.5	-45.6	15.5	0.00e+00	0	25	0	1850736640	55	4010
2026-01-08 04:29:26.45	339.34	39.85	-44.2	-45.2	15.6	0.00e+00	0	25	0	1873805312	55	3862
2026-01-08 04:29:30.44	337.58	40.19	-44.1	-45.2	15.5	0.00e+00	0	25	0	1895825408	54	4057
2026-01-08 04:29:34.42	335.79	40.50	-44.5	-45.6	15.4	0.00e+00	0	25	0	1918894080	54	4259
2026-01-08 04:29:38.38	333.98	40.78	-44.3	-45.3	15.4	0.00e+00	0	25	0	1940914176	54	4143
2026-01-08 04:29:42.37	332.13	41.03	-44.1	-45.1	15.5	0.00e+00	0	25	0	1962934272	54	4040
2026-01-08 04:29:46.35	330.25	41.24	-44.0	-45.0	15.5	0.00e+00	0	25	0	1986002944	54	3971
2026-01-08 04:29:50.34	328.35	41.43	-44.3	-45.3	15.5	0.00e+00	0	25	0	2008023040	54	4136
2026-01-08 04:29:54.32	326.43	41.57	-44.2	-45.2	15.5	0.00e+00	0	25	0	2030043136	54	4067
2026-01-08 04:29:58.31	324.49	41.68	-44.3	-45.4	15.5	0.00e+00	0	25	0	2053111808	54	4150
2026-01-08 04:30:02.29	322.54	41.76	-44.3	-45.3	15.5	0.00e+00	0	25	0	2075131904	54	4141
2026-01-08 04:30:06.30	320.57	41.79	-44.3	-45.4	15.4	0.00e+00	0	25	0	2098200576	54	4156
2026-01-08 04:30:10.29	318.61	41.79	-44.2	-45.2	15.4	0.00e+00	0	25	0	2120220672	54	4092
2026-01-08 04:30:14.25	316.67	41.75	-44.0	-45.0	15.5	0.00e+00	0	25	0	2142240768	54	3970
2026-01-08 04:30:18.25	314.71	41.67	-44.3	-45.3	15.5	0.00e+00	0	25	0	2165309440	54	4141
2026-01-08 04:30:22.24	312.77	41.56	-44.5	-45.5	15.4	0.00e+00	0	25	0	2187329536	54	4232
2026-01-08 04:30:26.25	310.84	41.40	-44.4	-45.4	15.4	0.00e+00	0	25	0	2210398208	54	4165
2026-01-08 04:30:30.22	308.94	41.22	-44.0	-45.0	15.5	0.00e+00	0	25	0	2232418304	54	3998
2026-01-08 04:30:34.20	307.07	41.00	-44.1	-45.2	15.5	0.00e+00	0	25	0	2254438400	54	4057
2026-01-08 04:30:38.18	305.22	40.74	-44.4	-45.5	15.5	0.00e+00	0	25	0	2277507072	54	4203
2026-01-08 04:30:42.16	303.40	40.46	-44.2	-45.2	15.5	0.00e+00	0	25	0	2299527168	54	4080
2026-01-08 04:30:46.14	301.62	40.15	-44.0	-45.0	15.5	0.00e+00	0	25	0	2321547264	54	3989
2026-01-08 04:30:50.13	299.86	39.80	-44.4	-45.4	15.4	0.00e+00	0	25	0	2344615936	54	4172
2026-01-08 04:30:54.10	298.16	39.43	-44.2	-45.2	15.5	0.00e+00	0	25	0	2366636032	54	4080
2026-01-08 04:30:58.08	296.49	39.04	-44.4	-45.4	15.5	0.00e+00	0	25	0	2388656128	54	4165
2026-01-08 04:31:02.09	294.85	38.62	-44.1	-45.2	15.5	0.00e+00	0	25	0	2411724800	54	4058
2026-01-08 04:31:06.08	293.26	38.19	-44.1	-45.2	15.5	0.00e+00	0	25	0	2433744896	54	4057
2026-01-08 04:31:10.09	291.70	37.73	-44.0	-45.0	15.5	0.00e+00	0	25	0	2456813568	54	3976
2026-01-08 04:31:14.09	290.19	37.26	-44.1	-45.1	15.5	0.00e+00	0	25	0	2478833664	54	4045
2026-01-08 04:31:18.08	288.73	36.77	-44.2	-45.2	15.5	0.00e+00	0	25	0	2501902336	54	4097
2026-01-08 04:31:22.07	287.32	36.27	-44.3	-45.3	15.5	0.00e+00	0	25	0	2523922432	54	4114
2026-01-08 04:31:26.07	285.94	35.75	-44.5	-45.5	15.4	0.00e+00	0	25	0	2546991104	54	4242
2026-01-08 04:31:30.07	284.61	35.23	-44.2	-45.2	15.5	0.00e+00	0	25	0	2569011200	54	4077
2026-01-08 04:31:34.05	283.32	34.70	-44.1	-45.2	15.5	0.00e+00	0	25	0	2591031296	54	4057
2026-01-08 04:31:38.02	282.08	34.17	-43.8	-44.8	15.6	0.00e+00	0	25	0	2614099968	54	3895
2026-01-08 04:31:42.00	280.88	33.63	-44.1	-45.1	15.5	0.00e+00	0	25	0	2636120064	54	4025
2026-01-08 04:31:46.00	279.71	33.08	-44.1	-45.1	15.5	0.00e+00	0	25	0	2658140160	54	4020
2026-01-08 04:31:49.98	278.59	32.53	-44.4	-45.5	15.4	0.00e+00	0	25	0	2681208832	54	4208
2026-01-08 04:31:53.95	277.51	31.98	-44.2	-45.2	15.4	0.00e+00	0	25	0	2703228928	54	4079
2026-01-08 04:31:57.94	276.46	31.43	-44.4	-45.4	15.4	0.00e+00	0	25	0	2725249024	54	4175
2026-01-08 04:32:01.95	275.44	30.87	-44.6	-45.7	15.4	0.00e+00	0	25	0	2748317696	54	4302
2026-01-08 04:32:05.95	274.45	30.31	-45.0	-46.0	15.4	0.00e+00	0	25	0	2770337792	55	4240
2026-01-08 04:32:09.95	273.50	29.76	-44.8	-45.9	15.4	0.00e+00	0	25	0	2793406464	55	4172
2026-01-08 04:32:13.94	272.59	29.21	-44.7	-45.7	15.4	0.00e+00	0	25	0	2815426560	55	4097
2026-01-08 04:32:17.92	271.71	28.67	-44.6	-45.7	15.4	0.00e+00	0	25	0	2838495232	55	4054
2026-01-08 04:32:21.90	270.85	28.12	-44.5	-45.6	15.5	0.00e+00	0	25	0	2860515328	55	4018
2026-01-08 04:32:25.88	270.03	27.59	-44.8	-45.9	15.4	0.00e+00	0	25	0	2882535424	55	4158
2026-01-08 04:32:29.87	269.23	27.05	-44.7	-45.8	15.4	0.00e+00	0	25	0	2905604096	55	4111
2026-01-08 04:32:33.87	268.46	26.52	-44.9	-45.9	15.4	0.00e+00	0	25	0	2927624192	55	4179
2026-01-08 04:32:37.86	267.71	25.99	-45.0	-46.0	15.3	0.00e+00	0	25	0	2950692864	55	4242
2026-01-08 04:32:41.84	266.99	25.47	-45.0	-46.1	15.4	0.00e+00	0	25	0	2972712960	55	4243
2026-01-08 04:32:45.82	266.29	24.95	-44.9	-46.0	15.3	0.00e+00	0	25	0	2994733056	55	4209
2026-01-08 04:32:49.79	265.62	24.45	-45.1	-46.2	15.3	0.00e+00	0	25	0	3017801728	55	4304
2026-01-08 04:32:53.78	264.97	23.94	-44.9	-46.0	15.3	0.00e+00	0	25	0	3039821824	55	4202
2026-01-08 04:32:57.78	264.33	23.44	-44.9	-46.0	15.3	0.00e+00	0	25	0	3062890496	55	4217
2026-01-08 04:33:01.77	263.72	22.94	-44.9	-46.0	15.4	0.00e+00	0	25	0	3084910592	55	4197
2026-01-08 04:33:05.78	263.12	22.45	-45.1	-46.2	15.3	0.00e+00	0	25	0	3106930688	55	4316
2026-01-08 04:33:09.77	262.55	21.97	-45.5	-46.6	15.3	0.00e+00	0	25	0	3129999360	56	4253
2026-01-08 04:33:13.76	261.99	21.50	-45.4	-46.5	15.3	0.00e+00	0	25	0	3152019456	56	4204
2026-01-08 04:33:17.75	261.45	21.03	-45.5	-46.6	15.3	0.00e+00	0	25	0	3175088128	56	4252
2026-01-08 04:33:21.75	260.93	20.56	-45.7	-46.8	15.2	0.00e+00	0	25	0	3197108224	56	4367
2026-01-08 04:33:25.74	260.42	20.10	-45.7	-46.8	15.2	0.00e+00	0	25	0	3219128320	56	4379
2026-01-08 04:33:29.75	259.93	19.65	-46.0	-47.1	15.3	0.00e+00	0	25	0	3242196992	57	4266
2026-01-08 04:33:33.74	259.45	19.20	-45.8	-47.0	15.3	0.00e+00	0	25	0	3264217088	57	4198
2026-01-08 04:33:37.74	258.98	18.76	-45.8	-46.9	15.3	0.00e+00	0	25	0	3287285760	57	4168
2026-01-08 04:33:41.73	258.53	18.32	-46.0	-47.1	15.2	0.00e+00	0	25	0	3309305856	57	4286
2026-01-08 04:33:45.70	258.10	17.90	-46.2	-47.4	15.2	0.00e+00	0	25	0	3331325952	57	4408
2026-01-08 04:33:49.68	257.67	17.48	-46.6	-47.7	15.1	0.00e+00	0	25	0	3354394624	58	4323
2026-01-08 04:33:53.66	257.26	17.06	-46.4	-47.6	15.2	0.00e+00	0	25	0	3376414720	58	4253
2026-01-08 04:33:57.65	256.86	16.65	-46.5	-47.6	15.2	0.00e+00	0	25	0	3399483392	58	4275
2026-01-08 04:34:01.64	256.47	16.24	-46.6	-47.7	15.1	0.00e+00	0	25	0	3421503488	58	4317
2026-01-08 04:34:05.64	256.09	15.84	-46.7	-47.9	15.1	0.00e+00	0	25	0	3443523584	58	4413
2026-01-08 04:34:09.64	255.72	15.44	-46.9	-48.0	15.1	0.00e+00	0	25	0	3466592256	58	4487
2026-01-08 04:34:13.65	255.36	15.05	-46.9	-48.1	15.1	0.00e+00	0	25	0	3488612352	59	4282
2026-01-08 04:34:17.64	255.01	14.66	-47.0	-48.2	15.1	0.00e+00	0	25	0	3511681024	59	4320
2026-01-08 04:34:21.63	254.67	14.28	-47.1	-48.3	15.0	0.00e+00	0	25	0	3533701120	59	4389
2026-01-08 04:34:25.62	254.34	13.90	-47.1	-48.3	15.0	0.00e+00	0	25	0	3556769792	59	4372
2026-01-08 04:34:29.62	254.01	13.53	-47.1	-48.3	15.0	0.00e+00	0	25	0	3578789888	59	4374
2026-01-08 04:34:33.61	253.70	13.17	-47.3	-48.4	15.0	0.00e+00	0	25	0	3601858560	59	4440
2026-01-08 04:34:37.61	253.39	12.80	-47.0	-48.2	15.2	0.00e+00	0	25	0	3623878656	60	4077
2026-01-08 04:34:41.59	253.09	12.45	-47.2	-48.3	15.1	0.00e+00	0	25	0	3645898752	60	4144
2026-01-08 04:34:45.58	252.80	12.09	-47.2	-48.4	15.1	0.00e+00	0	25	0	3668967424	60	4164
2026-01-08 04:34:49.57	252.51	11.74	-47.2	-48.3	15.1	0.00e+00	0	25	0	3690987520	60	4143
2026-01-08 04:34:53.55	252.24	11.40	-47.3	-48.5	15.0	0.00e+00	0	25	0	3713007616	60	4204
2026-01-08 04:34:57.53	251.97	11.06	-47.4	-48.6	15.0	0.00e+00	0	25	0	3736076288	60	4268
2026-01-08 04:35:01.53	251.70	10.72	-47.6	-48.8	14.9	0.00e+00	0	25	0	3758096384	60	4373
2026-01-08 04:35:05.53	251.44	10.39	-47.5	-48.7	14.9	0.00e+00	0	25	0	3781165056	60	4308
2026-01-08 04:35:09.53	251.19	10.06	-47.6	-48.9	14.9	0.00e+00	0	25	0	3803185152	60	4393
2026-01-08 04:35:13.52	250.94	9.74	-47.7	-48.9	14.8	0.00e+00	0	25	0	3826253824	60	4439
2026-01-08 04:35:17.52	250.70	9.41	-47.8	-49.0	14.8	0.00e+00	0	25	0	3848273920	60	4476
2026-01-08 04:35:21.50	250.47	9.10	-47.9	-49.2	14.7	0.00e+00	0	25	0	3870294016	60	4552
2026-01-08 04:35:25.50	250.24	8.78	-47.9	-49.2	14.8	0.00e+00	0	25	0	3893362688	61	4311
2026-01-08 04:35:29.49	250.01	8.47	-48.0	-49.3	14.8	0.00e+00	0	25	0	3915382784	61	4377
2026-01-08 04:35:33.48	249.79	8.16	-48.1	-49.4	14.7	0.00e+00	0	25	0	3938451456	61	4392
2026-01-08 04:35:37.47	249.58	7.86	-48.0	-49.3	14.8	0.00e+00	0	25	0	3960471552	61	4343
2026-01-08 04:35:41.46	249.37	7.56	-48.2	-49.5	14.6	0.00e+00	0	25	0	3983540224	61	4467
2026-01-08 04:35:45.46	249.16	7.26	-48.2	-49.5	14.6	0.00e+00	0	25	0	4005560320	61	4492
2026-01-08 04:35:49.44	248.96	6.97	-48.2	-49.5	14.6	0.00e+00	0	25	0	4027580416	61	4486
2026-01-08 04:35:53.43	248.76	6.67	-48.5	-49.9	14.6	0.00e+00	0	25	0	4050649088	62	4397
2026-01-08 04:35:57.41	248.57	6.39	-48.6	-50.0	14.5	0.00e+00	0	25	0	4072669184	62	4465
2026-01-08 04:36:01.40	248.38	6.10	-48.6	-50.0	14.5	0.00e+00	0	25	0	4095737856	62	4458
2026-01-08 04:36:05.41	248.19	5.82	-48.6	-50.0	14.5	0.00e+00	0	25	0	4117757952	62	4485
2026-01-08 04:36:09.40	248.01	5.54	-48.7	-50.1	14.4	0.00e+00	0	25	0	4139778048	62	4531
2026-01-08 04:36:13.41	247.83	5.26	-48.9	-50.3	14.4	0.00e+00	0	25	0	4162846720	63	4382
2026-01-08 04:36:17.40	247.66	4.98	-50.0	-51.2	14.1	0.00e+00	0	25	0	4184866816	64	4576
2026-01-08 04:36:21.39	247.49	4.71	-59.1	-72.2	3.8	8.45e-01	0	25	104	4186963968	83	17265
2026-01-08 04:36:25.38	247.32	4.44	-59.8	-72.9	3.8	8.46e-01	0	25	104	4186963968	84	17503
2026-01-08 04:36:29.38	247.16	4.17	-60.1	-73.1	3.8	8.46e-01	0	25	104	4186963968	85	17061
2026-01-08 04:36:33.38	247.00	3.91	-60.2	-73.3	3.8	8.44e-01	0	25	104	4186963968	85	17336
2026-01-08 04:36:37.39	246.84	3.64	-60.2	-73.3	3.8	8.47e-01	0	25	104	4186963968	85	17430
2026-01-08 04:36:41.39	246.68	3.38	-60.2	-73.3	3.8	8.45e-01	0	25	104	4186963968	85	17428
2026-01-08 04:36:45.38	246.53	3.12	-60.1	-73.3	3.8	8.46e-01	0	25	104	4186963968	85	17295
2026-01-08 04:36:49.36	246.38	2.87	-60.1	-73.2	3.8	8.46e-01	0	25	104	4186963968	85	17120
2026-01-08 04:36:53.35	246.24	2.61	-60.1	-73.2	3.8	8.45e-01	0	25	104	4186963968	85	17125
2026-01-08 04:36:57.34	246.09	2.36	-60.0	-73.1	3.8	8.46e-01	0	25	104	4186963968	85	16992
2026-01-08 04:37:01.34	245.95	2.11	-60.0	-73.1	3.8	8.46e-01	0	25	104	4186963968	85	16920

#Closed at: 2026-01-08 04:37:04
#Recorded file [4186 MB]: D:/lorett/data/31004_260108_072311.dat