passes_logs/2026/01/08/R3.2S_Murmansk/R3.2S_Murmansk__20260108_231346_NOAA_21_JPSS-2_rec.log

#Pass ID: 20260108_231346_NOAA 21 (JPSS-2)
#Satellite: NOAA 21 (JPSS-2)
#Configuration: NOAA-21
#almurnet v.1.7.20251203
#Start time: 2026-01-08 23:13:47

#Version: 2.2.20231116
#Station: R3.2S_Murmansk
#Location: 33.079688 lon 68.888172 lat
#TLE: 1 54234U 22150A   26008.59854928  .00000127  00000+0  81204-4 0  9992
#TLE: 2 54234  98.7494 309.5759 0000887 327.7487  32.3634 14.19533414163905

#Time	Az	El	Level	Level2	SNR	BER	BlckErr	Temp	State	Recorded	gain1	gain2
2026-01-08 23:13:47.82	20.26	2.06	-57.7	-70.9	3.8	1.49e+00	0	24	0	0	82	15711
2026-01-08 23:13:51.81	20.44	2.30	-57.5	-69.8	3.8	1.49e+00	0	24	104	0	80	15446
2026-01-08 23:13:55.80	20.62	2.55	-57.5	-70.0	3.8	1.49e+00	0	24	104	0	80	15806
2026-01-08 23:13:59.78	20.80	2.79	-57.5	-69.6	3.8	1.49e+00	0	24	104	0	80	15187
2026-01-08 23:14:03.79	20.99	3.04	-57.2	-67.3	4.0	1.42e+00	0	24	104	0	80	11660
2026-01-08 23:14:07.76	21.18	3.29	-56.9	-64.6	5.6	4.43e-01	0	24	0	7340032	80	8504
2026-01-08 23:14:11.77	21.37	3.54	-56.7	-63.6	6.3	2.17e-01	0	24	0	19922944	80	7576
2026-01-08 23:14:15.76	21.56	3.80	-55.3	-59.3	9.9	4.12e-03	0	24	0	32505856	77	5520
2026-01-08 23:14:19.76	21.76	4.05	-53.0	-55.5	12.6	7.00e-07	0	24	0	45088768	72	4714
2026-01-08 23:14:23.76	21.97	4.31	-51.8	-53.8	13.6	0.00e+00	0	24	0	57671680	70	4366
2026-01-08 23:14:27.76	22.17	4.57	-52.6	-54.9	12.7	0.00e+00	0	24	0	70254592	70	4977
2026-01-08 23:14:31.77	22.38	4.84	-54.8	-58.7	10.2	1.20e-03	0	24	0	82837504	74	6101
2026-01-08 23:14:35.77	22.59	5.10	-54.0	-57.0	11.6	8.91e-03	0	24	0	95420416	74	5008
2026-01-08 23:14:39.77	22.81	5.37	-57.1	-65.7	5.0	3.20e-01	0	24	0	108003328	79	10190
2026-01-08 23:14:43.77	23.03	5.64	-52.1	-54.1	13.4	0.00e+00	0	24	0	117440512	70	4532
2026-01-08 23:14:47.76	23.25	5.91	-51.3	-53.1	14.0	0.00e+00	0	24	0	130023424	69	4259
2026-01-08 23:14:51.77	23.48	6.19	-51.0	-52.7	14.1	0.00e+00	0	24	0	142606336	68	4303
2026-01-08 23:14:55.76	23.71	6.47	-50.8	-52.4	14.2	0.00e+00	0	24	0	155189248	68	4186
2026-01-08 23:14:59.75	23.94	6.75	-51.0	-52.7	14.1	0.00e+00	0	24	0	167772160	68	4314
2026-01-08 23:15:03.73	24.18	7.03	-50.5	-52.1	14.3	0.00e+00	0	24	0	180355072	67	4264
2026-01-08 23:15:07.72	24.42	7.32	-50.4	-52.0	14.3	0.00e+00	0	24	0	192937984	67	4230
2026-01-08 23:15:11.71	24.67	7.61	-50.4	-52.0	14.4	0.00e+00	0	24	0	205520896	67	4221
2026-01-08 23:15:15.70	24.92	7.90	-50.0	-51.6	14.5	0.00e+00	0	24	0	218103808	66	4244
2026-01-08 23:15:19.68	25.18	8.19	-50.1	-51.6	14.4	0.00e+00	0	24	0	229638144	66	4284
2026-01-08 23:15:23.67	25.44	8.49	-50.1	-51.6	14.4	0.00e+00	0	24	0	242221056	66	4274
2026-01-08 23:15:27.68	25.71	8.79	-50.1	-51.6	14.4	0.00e+00	0	24	0	254803968	66	4254
2026-01-08 23:15:31.68	25.98	9.09	-49.9	-51.4	14.6	0.00e+00	0	24	0	267386880	66	4174
2026-01-08 23:15:35.67	26.26	9.40	-49.8	-51.2	14.7	0.00e+00	0	24	0	279969792	66	4090
2026-01-08 23:15:39.66	26.54	9.71	-49.8	-51.3	14.5	0.00e+00	0	24	0	292552704	65	4344
2026-01-08 23:15:43.67	26.83	10.03	-49.6	-51.0	14.6	0.00e+00	0	24	0	305135616	65	4229
2026-01-08 23:15:47.66	27.12	10.34	-49.6	-51.0	14.6	0.00e+00	0	24	0	317718528	65	4221
2026-01-08 23:15:51.67	27.43	10.66	-49.3	-50.7	14.8	0.00e+00	0	24	0	330301440	65	4063
2026-01-08 23:15:55.66	27.73	10.99	-49.3	-50.7	14.8	0.00e+00	0	24	0	342884352	65	4058
2026-01-08 23:15:59.65	28.05	11.32	-49.2	-50.6	14.9	0.00e+00	0	24	0	355467264	65	4030
2026-01-08 23:16:03.64	28.36	11.65	-49.3	-50.7	14.8	0.00e+00	0	24	0	367001600	65	4054
2026-01-08 23:16:07.63	28.69	11.98	-49.0	-50.3	14.9	0.00e+00	0	24	0	379584512	64	4137
2026-01-08 23:16:11.63	29.03	12.32	-49.0	-50.3	14.9	0.00e+00	0	24	0	392167424	64	4124
2026-01-08 23:16:15.61	29.37	12.66	-48.9	-50.2	14.9	0.00e+00	0	24	0	404750336	64	4061
2026-01-08 23:16:19.62	29.72	13.01	-49.0	-50.3	14.9	0.00e+00	0	24	0	417333248	64	4108
2026-01-08 23:16:23.61	30.07	13.36	-48.9	-50.2	14.9	0.00e+00	0	24	0	429916160	64	4066
2026-01-08 23:16:27.60	30.44	13.72	-48.8	-50.0	15.0	0.00e+00	0	24	0	442499072	64	4004
2026-01-08 23:16:31.60	30.81	14.08	-48.8	-50.1	15.0	0.00e+00	0	24	0	455081984	64	4022
2026-01-08 23:16:35.60	31.19	14.44	-48.7	-50.0	14.9	0.00e+00	0	24	0	467664896	63	4201
2026-01-08 23:16:39.60	31.59	14.81	-48.6	-49.9	14.9	0.00e+00	0	24	0	480247808	63	4173
2026-01-08 23:16:43.60	31.99	15.19	-48.7	-50.0	14.9	0.00e+00	0	24	0	491782144	63	4235
2026-01-08 23:16:47.59	32.40	15.56	-48.7	-50.0	14.9	0.00e+00	0	24	0	504365056	63	4221
2026-01-08 23:16:51.58	32.82	15.94	-48.7	-50.0	14.9	0.00e+00	0	24	0	516947968	63	4200
2026-01-08 23:16:55.57	33.25	16.33	-48.6	-49.9	15.0	0.00e+00	0	24	0	529530880	63	4158
2026-01-08 23:16:59.56	33.69	16.72	-48.7	-50.0	14.9	0.00e+00	0	24	0	542113792	63	4232
2026-01-08 23:17:03.54	34.14	17.12	-49.0	-50.3	14.8	0.00e+00	0	24	0	554696704	63	4366
2026-01-08 23:17:07.53	34.60	17.52	-49.0	-50.3	14.8	0.00e+00	0	24	0	567279616	63	4355
2026-01-08 23:17:11.52	35.08	17.92	-49.0	-50.3	14.8	0.00e+00	0	24	0	579862528	63	4389
2026-01-08 23:17:15.52	35.57	18.33	-49.1	-50.4	14.7	0.00e+00	0	24	0	592445440	63	4426
2026-01-08 23:17:19.51	36.07	18.75	-49.2	-50.5	14.7	0.00e+00	0	24	0	603979776	63	4473
2026-01-08 23:17:23.50	36.59	19.17	-49.0	-50.3	14.8	0.00e+00	0	24	0	616562688	63	4369
2026-01-08 23:17:27.52	37.12	19.60	-48.8	-50.0	14.9	0.00e+00	0	24	0	629145600	63	4235
2026-01-08 23:17:31.52	37.66	20.03	-48.8	-50.1	14.9	0.00e+00	0	24	0	641728512	63	4258
2026-01-08 23:17:35.50	38.22	20.46	-48.7	-50.0	14.9	0.00e+00	0	24	0	654311424	63	4201
2026-01-08 23:17:39.49	38.79	20.90	-48.5	-49.8	15.0	0.00e+00	0	24	0	666894336	63	4125
2026-01-08 23:17:43.50	39.39	21.35	-48.4	-49.6	15.1	0.00e+00	0	24	0	679477248	63	4051
2026-01-08 23:17:47.50	39.99	21.80	-48.4	-49.7	15.1	0.00e+00	0	24	0	692060160	63	4061
2026-01-08 23:17:51.51	40.62	22.26	-47.8	-49.0	15.2	0.00e+00	0	24	0	704643072	62	3982
2026-01-08 23:17:55.51	41.26	22.72	-47.9	-49.1	15.2	0.00e+00	0	24	0	717225984	62	4019
2026-01-08 23:17:59.49	41.92	23.18	-47.9	-49.1	15.2	0.00e+00	0	24	0	729808896	62	4030
2026-01-08 23:18:03.49	42.61	23.65	-47.6	-48.8	15.2	0.00e+00	0	24	0	742391808	61	4102
2026-01-08 23:18:07.48	43.31	24.13	-47.8	-49.0	15.1	0.00e+00	0	24	0	754974720	61	4230
2026-01-08 23:18:11.47	44.03	24.60	-48.2	-49.4	15.0	0.00e+00	0	24	0	766509056	61	4406
2026-01-08 23:18:15.45	44.77	25.08	-47.8	-49.0	15.1	0.00e+00	0	24	0	779091968	61	4207
2026-01-08 23:18:19.45	45.54	25.57	-48.3	-49.6	14.9	0.00e+00	0	24	0	791674880	61	4505
2026-01-08 23:18:23.44	46.33	26.06	-48.5	-49.8	14.9	0.00e+00	0	24	0	804257792	62	4352
2026-01-08 23:18:27.45	47.14	26.55	-47.9	-49.1	15.2	0.00e+00	0	24	0	816840704	62	4020
2026-01-08 23:18:31.45	47.98	27.05	-48.6	-49.8	14.9	0.00e+00	0	24	0	829423616	62	4381
2026-01-08 23:18:35.46	48.85	27.55	-48.5	-49.7	14.9	0.00e+00	0	24	0	842006528	62	4322
2026-01-08 23:18:39.45	49.74	28.05	-48.4	-49.6	15.0	0.00e+00	0	24	0	854589440	62	4287
2026-01-08 23:18:43.45	50.66	28.55	-48.8	-50.0	14.8	0.00e+00	0	24	0	867172352	62	4479
2026-01-08 23:18:47.45	51.61	29.06	-48.2	-49.4	15.1	0.00e+00	0	24	0	879755264	62	4149
2026-01-08 23:18:51.46	52.60	29.56	-48.5	-49.8	15.0	0.00e+00	0	24	0	892338176	62	4358
2026-01-08 23:18:55.46	53.61	30.07	-48.0	-49.2	15.2	0.00e+00	0	24	0	903872512	62	4071
2026-01-08 23:18:59.47	54.65	30.57	-48.5	-49.8	14.9	0.00e+00	0	24	0	917504000	62	4355
2026-01-08 23:19:03.45	55.72	31.07	-48.5	-49.7	15.0	0.00e+00	0	24	0	929038336	62	4339
2026-01-08 23:19:07.45	56.83	31.57	-48.6	-49.8	14.9	0.00e+00	0	24	0	941621248	62	4381
2026-01-08 23:19:11.43	57.96	32.06	-48.9	-50.2	14.8	0.00e+00	0	24	0	954204160	63	4328
2026-01-08 23:19:15.41	59.13	32.55	-48.8	-50.1	14.9	0.00e+00	0	24	0	966787072	63	4263
2026-01-08 23:19:19.40	60.34	33.03	-49.2	-50.5	14.7	0.00e+00	0	24	0	979369984	63	4491
2026-01-08 23:19:23.38	61.58	33.51	-49.4	-50.7	14.8	0.00e+00	0	24	0	991952896	64	4326
2026-01-08 23:19:27.37	62.86	33.98	-50.0	-51.4	14.6	0.00e+00	0	24	0	1004535808	65	4428
2026-01-08 23:19:31.37	64.17	34.44	-49.8	-51.1	14.7	0.00e+00	0	24	0	1017118720	65	4287
2026-01-08 23:19:35.35	65.52	34.89	-49.9	-51.3	14.6	0.00e+00	0	24	0	1028653056	65	4379
2026-01-08 23:19:39.36	66.92	35.34	-50.0	-51.5	14.6	0.00e+00	0	24	0	1041235968	65	4450
2026-01-08 23:19:43.35	68.35	35.76	-49.7	-51.0	14.8	0.00e+00	0	24	0	1053818880	65	4211
2026-01-08 23:19:47.36	69.82	36.18	-49.8	-51.2	14.7	0.00e+00	0	24	0	1066401792	65	4324
2026-01-08 23:19:51.36	71.32	36.57	-49.8	-51.1	14.7	0.00e+00	0	24	0	1078984704	65	4269
2026-01-08 23:19:55.35	72.86	36.95	-49.7	-51.1	14.8	0.00e+00	0	24	0	1091567616	65	4267
2026-01-08 23:19:59.35	74.43	37.31	-49.6	-51.0	14.8	0.00e+00	0	24	0	1104150528	65	4209
2026-01-08 23:20:03.35	76.04	37.65	-49.9	-51.3	14.7	0.00e+00	0	24	0	1116733440	65	4369
2026-01-08 23:20:07.34	77.68	37.97	-50.4	-51.9	14.5	0.00e+00	0	24	0	1129316352	66	4422
2026-01-08 23:20:11.33	79.34	38.27	-50.6	-52.1	14.4	0.00e+00	0	24	0	1141899264	66	4507
2026-01-08 23:20:15.32	81.04	38.54	-50.8	-52.3	14.4	0.00e+00	0	24	0	1154482176	67	4377
2026-01-08 23:20:19.32	82.77	38.78	-50.6	-52.1	14.5	0.00e+00	0	24	0	1166016512	67	4260
2026-01-08 23:20:23.33	84.52	39.00	-50.4	-51.8	14.6	0.00e+00	0	24	0	1178599424	66	4368
2026-01-08 23:20:27.33	86.30	39.18	-50.6	-52.1	14.4	0.00e+00	0	24	0	1191182336	66	4528
2026-01-08 23:20:31.33	88.09	39.34	-50.5	-51.9	14.6	0.00e+00	0	24	0	1203765248	67	4182
2026-01-08 23:20:35.32	89.89	39.47	-50.4	-51.8	14.7	0.00e+00	0	24	0	1216348160	67	4131
2026-01-08 23:20:39.33	91.72	39.57	-50.8	-52.3	14.3	0.00e+00	0	24	0	1228931072	66	4628
2026-01-08 23:20:43.33	93.55	39.63	-51.0	-52.6	14.3	0.00e+00	0	24	0	1241513984	67	4508
2026-01-08 23:20:47.34	95.39	39.66	-51.2	-52.7	14.4	0.00e+00	0	24	0	1254096896	68	4319
2026-01-08 23:20:51.34	97.23	39.66	-51.3	-52.8	14.4	0.00e+00	0	24	0	1266679808	68	4378
2026-01-08 23:20:55.33	99.06	39.63	-51.1	-52.6	14.5	0.00e+00	0	24	0	1279262720	68	4259
2026-01-08 23:20:59.33	100.89	39.57	-51.2	-52.7	14.4	0.00e+00	0	24	0	1291845632	68	4304
2026-01-08 23:21:03.34	102.71	39.47	-51.0	-52.6	14.5	0.00e+00	0	24	0	1304428544	68	4251
2026-01-08 23:21:07.31	104.51	39.34	-51.4	-53.0	14.2	0.00e+00	0	24	0	1315962880	68	4493
2026-01-08 23:21:11.30	106.30	39.18	-50.4	-51.8	14.7	0.00e+00	0	24	0	1328545792	67	4138
2026-01-08 23:21:15.28	108.07	39.00	-50.5	-52.0	14.6	0.00e+00	0	24	0	1341128704	67	4195
2026-01-08 23:21:19.27	109.82	38.78	-50.0	-51.3	14.8	0.00e+00	0	24	0	1353711616	66	4130
2026-01-08 23:21:23.26	111.54	38.54	-50.3	-51.8	14.5	0.00e+00	0	24	0	1366294528	66	4357
2026-01-08 23:21:27.25	113.24	38.27	-49.5	-50.9	14.9	0.00e+00	0	24	0	1378877440	65	4149
2026-01-08 23:21:31.26	114.92	37.97	-50.7	-52.2	14.4	0.00e+00	0	24	0	1391460352	66	4564
2026-01-08 23:21:35.26	116.56	37.65	-50.2	-51.6	14.6	0.00e+00	0	24	0	1404043264	66	4273
2026-01-08 23:21:39.26	118.17	37.31	-50.0	-51.4	14.8	0.00e+00	0	24	0	1416626176	66	4164
2026-01-08 23:21:43.24	119.74	36.95	-49.9	-51.3	14.8	0.00e+00	0	24	0	1429209088	66	4106
2026-01-08 23:21:47.22	121.28	36.57	-50.1	-51.5	14.5	0.00e+00	0	24	0	1440743424	65	4490
2026-01-08 23:21:51.22	122.79	36.17	-49.8	-51.2	14.7	0.00e+00	0	24	0	1453326336	65	4323
2026-01-08 23:21:55.23	124.26	35.76	-49.7	-51.0	14.7	0.00e+00	0	24	0	1465909248	65	4233
2026-01-08 23:21:59.22	125.69	35.33	-49.6	-50.9	14.8	0.00e+00	0	24	0	1478492160	65	4169
2026-01-08 23:22:03.21	127.08	34.89	-49.5	-50.8	14.9	0.00e+00	0	24	0	1491075072	65	4145
2026-01-08 23:22:07.19	128.44	34.44	-49.7	-51.1	14.7	0.00e+00	0	24	0	1503657984	65	4250
2026-01-08 23:22:11.17	129.75	33.97	-49.3	-50.6	15.0	0.00e+00	0	24	0	1516240896	65	4022
2026-01-08 23:22:15.16	131.04	33.50	-49.5	-50.8	14.7	0.00e+00	0	24	0	1528823808	64	4382
2026-01-08 23:22:19.13	132.28	33.02	-49.5	-50.9	14.7	0.00e+00	0	24	0	1541406720	64	4396
2026-01-08 23:22:23.12	133.49	32.54	-49.1	-50.4	14.9	0.00e+00	0	24	0	1552941056	64	4162
2026-01-08 23:22:27.11	134.66	32.05	-48.9	-50.2	15.0	0.00e+00	0	24	0	1565523968	64	4074
2026-01-08 23:22:31.13	135.81	31.54	-49.1	-50.4	14.9	0.00e+00	0	24	0	1578106880	64	4146
2026-01-08 23:22:35.12	136.92	31.04	-48.9	-50.2	15.0	0.00e+00	0	24	0	1590689792	64	4064
2026-01-08 23:22:39.10	137.99	30.54	-49.2	-50.5	14.9	0.00e+00	0	24	0	1603272704	64	4226
2026-01-08 23:22:43.11	139.04	30.04	-49.2	-50.5	14.9	0.00e+00	0	24	0	1615855616	64	4215
2026-01-08 23:22:47.10	140.05	29.53	-48.9	-50.1	15.0	0.00e+00	0	24	0	1628438528	64	4039
2026-01-08 23:22:51.10	141.03	29.02	-48.7	-49.9	15.0	0.00e+00	0	24	0	1641021440	63	4177
2026-01-08 23:22:55.09	141.98	28.52	-48.5	-49.7	15.0	0.00e+00	0	24	0	1653604352	63	4090
2026-01-08 23:22:59.08	142.90	28.02	-48.4	-49.7	15.1	0.00e+00	0	24	0	1666187264	63	4065
2026-01-08 23:23:03.08	143.80	27.51	-48.0	-49.2	15.1	0.00e+00	0	24	0	1677721600	62	4078
2026-01-08 23:23:07.08	144.67	27.01	-48.0	-49.2	15.2	0.00e+00	0	24	0	1690304512	62	4058
2026-01-08 23:23:11.08	145.51	26.51	-48.0	-49.1	15.2	0.00e+00	0	24	0	1702887424	62	4039
2026-01-08 23:23:15.06	146.32	26.02	-47.7	-48.8	15.1	0.00e+00	0	24	0	1715470336	61	4140
2026-01-08 23:23:19.04	147.11	25.53	-47.8	-48.9	15.1	0.00e+00	0	24	0	1728053248	61	4188
2026-01-08 23:23:23.04	147.88	25.04	-47.6	-48.8	15.2	0.00e+00	0	24	0	1740636160	61	4124
2026-01-08 23:23:27.04	148.63	24.55	-47.7	-48.9	15.1	0.00e+00	0	24	0	1753219072	61	4171
2026-01-08 23:23:31.03	149.35	24.07	-48.0	-49.3	15.0	0.00e+00	0	24	0	1765801984	61	4344
2026-01-08 23:23:35.03	150.05	23.60	-48.4	-49.7	14.8	0.00e+00	0	24	0	1778384896	61	4548
2026-01-08 23:23:39.02	150.73	23.12	-48.7	-50.0	14.8	0.00e+00	0	24	0	1790967808	62	4449
2026-01-08 23:23:43.02	151.40	22.66	-48.5	-49.7	14.9	0.00e+00	0	24	0	1803550720	62	4319
2026-01-08 23:23:47.03	152.04	22.19	-48.6	-49.9	14.8	0.00e+00	0	24	0	1815085056	62	4422
2026-01-08 23:23:51.03	152.67	21.73	-48.4	-49.6	15.0	0.00e+00	0	24	0	1827667968	62	4278
2026-01-08 23:23:55.03	153.28	21.28	-48.3	-49.6	15.0	0.00e+00	0	24	0	1840250880	62	4254
2026-01-08 23:23:59.01	153.87	20.83	-48.3	-49.5	15.0	0.00e+00	0	24	0	1852833792	62	4239
2026-01-08 23:24:03.01	154.44	20.39	-48.4	-49.7	14.9	0.00e+00	0	24	0	1865416704	62	4302
2026-01-08 23:24:07.01	155.00	19.95	-48.5	-49.8	14.9	0.00e+00	0	24	0	1877999616	62	4352
2026-01-08 23:24:11.00	155.55	19.52	-48.2	-49.4	15.0	0.00e+00	0	24	0	1890582528	62	4181
2026-01-08 23:24:14.93	156.07	19.10	-48.3	-49.5	15.0	0.00e+00	0	24	0	1903165440	62	4242
2026-01-08 23:24:18.91	156.58	18.68	-48.5	-49.8	14.9	0.00e+00	0	24	0	1915748352	62	4371
2026-01-08 23:24:22.89	157.08	18.26	-48.2	-49.5	15.0	0.00e+00	0	24	0	1927282688	62	4218
2026-01-08 23:24:26.88	157.57	17.85	-48.3	-49.6	15.0	0.00e+00	0	24	0	1939865600	62	4244
2026-01-08 23:24:30.88	158.05	17.44	-48.4	-49.7	14.9	0.00e+00	0	24	0	1952448512	62	4310
2026-01-08 23:24:34.88	158.51	17.03	-48.7	-50.0	14.8	0.00e+00	0	24	0	1965031424	62	4460
2026-01-08 23:24:38.90	158.97	16.63	-49.0	-50.3	14.7	0.00e+00	0	24	0	1977614336	63	4379
2026-01-08 23:24:42.89	159.41	16.24	-49.1	-50.4	14.7	0.00e+00	0	24	0	1990197248	63	4426
2026-01-08 23:24:46.90	159.84	15.85	-49.3	-50.7	14.6	0.00e+00	0	24	0	2002780160	63	4567
2026-01-08 23:24:50.89	160.26	15.47	-49.2	-50.6	14.6	0.00e+00	0	24	0	2015363072	63	4515
2026-01-08 23:24:54.88	160.67	15.09	-49.2	-50.5	14.6	0.00e+00	0	24	0	2027945984	63	4485
2026-01-08 23:24:58.89	161.07	14.71	-49.1	-50.5	14.6	0.00e+00	0	24	0	2040528896	63	4465
2026-01-08 23:25:02.90	161.46	14.34	-49.1	-50.5	14.7	0.00e+00	0	24	0	2053111808	63	4454
2026-01-08 23:25:06.92	161.85	13.97	-49.2	-50.6	14.6	0.00e+00	0	24	0	2065694720	63	4494
2026-01-08 23:25:10.92	162.22	13.61	-49.4	-50.8	14.5	0.00e+00	0	24	0	2078277632	63	4602
2026-01-08 23:25:14.91	162.58	13.25	-49.4	-50.8	14.6	0.00e+00	0	24	0	2089811968	64	4373
2026-01-08 23:25:18.89	162.94	12.90	-49.7	-51.2	14.4	0.00e+00	0	24	0	2102394880	64	4570
2026-01-08 23:25:22.86	163.28	12.55	-49.7	-51.3	14.4	0.00e+00	0	24	0	2114977792	64	4602
2026-01-08 23:25:26.86	163.62	12.21	-49.7	-51.3	14.4	0.00e+00	0	24	0	2127560704	64	4610
2026-01-08 23:25:30.84	163.95	11.87	-49.9	-51.4	14.4	0.00e+00	0	24	0	2140143616	65	4411
2026-01-08 23:25:34.84	164.28	11.53	-49.8	-51.2	14.5	0.00e+00	0	24	0	2152726528	65	4323
2026-01-08 23:25:38.84	164.60	11.20	-49.7	-51.2	14.5	0.00e+00	0	24	0	2165309440	65	4321
2026-01-08 23:25:42.83	164.91	10.87	-49.7	-51.2	14.5	0.00e+00	0	24	0	2177892352	65	4321
2026-01-08 23:25:46.85	165.22	10.54	-49.8	-51.3	14.4	0.00e+00	0	24	0	2190475264	65	4383
2026-01-08 23:25:50.83	165.51	10.22	-49.8	-51.3	14.4	0.00e+00	0	24	0	2203058176	65	4383
2026-01-08 23:25:54.82	165.81	9.90	-49.8	-51.3	14.4	0.00e+00	0	24	0	2214592512	65	4381
2026-01-08 23:25:58.80	166.09	9.59	-50.1	-51.7	14.2	0.00e+00	0	24	0	2227175424	65	4581
2026-01-08 23:26:02.81	166.38	9.27	-50.1	-51.7	14.2	0.00e+00	0	24	0	2239758336	65	4575
2026-01-08 23:26:06.83	166.65	8.96	-50.2	-51.8	14.2	0.00e+00	0	24	0	2252341248	65	4608
2026-01-08 23:26:10.83	166.92	8.66	-50.3	-51.9	14.1	0.00e+00	0	24	0	2264924160	65	4655
2026-01-08 23:26:14.83	167.19	8.35	-50.3	-51.9	14.1	0.00e+00	0	24	0	2277507072	65	4657
2026-01-08 23:26:18.81	167.45	8.06	-50.4	-52.0	14.0	0.00e+00	0	24	0	2290089984	65	4733
2026-01-08 23:26:22.81	167.70	7.76	-50.6	-52.3	14.0	0.00e+00	0	24	0	2302672896	66	4617
2026-01-08 23:26:26.80	167.95	7.47	-50.6	-52.3	14.0	0.00e+00	0	24	0	2315255808	66	4601
2026-01-08 23:26:30.79	168.20	7.18	-50.6	-52.4	14.0	0.00e+00	0	24	0	2327838720	66	4652
2026-01-08 23:26:34.78	168.44	6.89	-50.7	-52.4	13.9	0.00e+00	0	24	0	2340421632	66	4664
2026-01-08 23:26:38.75	168.67	6.61	-50.7	-52.5	13.9	0.00e+00	0	24	0	2351955968	66	4709
2026-01-08 23:26:42.76	168.91	6.33	-50.8	-52.5	13.8	0.00e+00	0	24	0	2364538880	66	4753
2026-01-08 23:26:46.76	169.13	6.05	-50.9	-52.6	13.9	0.00e+00	0	24	0	2377121792	67	4536
2026-01-08 23:26:50.76	169.36	5.77	-50.9	-52.7	13.8	0.00e+00	0	24	0	2389704704	67	4585
2026-01-08 23:26:54.75	169.58	5.50	-51.0	-52.9	13.7	0.00e+00	0	24	0	2402287616	67	4660
2026-01-08 23:26:58.76	169.80	5.22	-51.3	-53.2	13.5	0.00e+00	0	24	0	2414870528	67	4845
2026-01-08 23:27:02.75	170.01	4.95	-57.0	-65.1	5.6	8.48e-03	0	24	0	2427453440	79	9563
2026-01-08 23:27:06.75	170.22	4.69	-58.8	-72.6	3.8	1.49e+00	0	24	104	2427453440	82	19098
2026-01-08 23:27:10.75	170.42	4.42	-59.2	-73.1	3.8	1.49e+00	0	24	104	2427453440	83	19036
2026-01-08 23:27:14.73	170.63	4.16	-59.7	-73.5	3.8	1.49e+00	0	24	104	2427453440	84	18925
2026-01-08 23:27:18.72	170.82	3.90	-59.8	-73.7	3.8	1.49e+00	0	25	104	2427453440	84	19226
2026-01-08 23:27:22.71	171.02	3.65	-59.9	-73.7	3.8	1.49e+00	0	24	104	2427453440	84	19338
2026-01-08 23:27:26.70	171.21	3.39	-59.9	-73.8	3.8	1.49e+00	0	24	104	2427453440	85	18325
2026-01-08 23:27:30.70	171.40	3.14	-59.8	-73.7	3.8	1.49e+00	0	24	104	2427453440	85	18179
2026-01-08 23:27:34.69	171.59	2.89	-59.8	-73.7	3.8	1.49e+00	0	24	104	2427453440	85	18116
2026-01-08 23:27:38.68	171.77	2.64	-59.8	-73.6	3.8	1.49e+00	0	24	104	2427453440	85	18095
2026-01-08 23:27:42.68	171.95	2.39	-59.8	-73.6	3.8	1.49e+00	0	25	104	2427453440	85	18076
2026-01-08 23:27:46.67	172.13	2.14	-59.7	-73.6	3.8	1.49e+00	0	24	104	2427453440	85	17983

#Closed at: 2026-01-08 23:27:50
#Recorded file [2427 MB]: D:/lorett/data/31004_260109_021347.dat