passes_logs/2026/01/08/R3.2S_Murmansk/R3.2S_Murmansk__20260108_114122_SUOMI_NPP_rec.log

#Pass ID: 20260108_114122_SUOMI NPP
#Satellite: SUOMI NPP
#Configuration: NPP
#almurnet v.1.7.20251203
#Start time: 2026-01-08 11:41:23

#Version: 2.2.20231116
#Station: R3.2S_Murmansk
#Location: 33.079688 lon 68.888172 lat
#TLE: 1 37849U 11061A   26005.94084933  .00000134  00000+0  84554-4 0  9990
#TLE: 2 37849  98.7803 308.0679 0002567  79.1029 281.0436 14.19522657735426

#Time	Az	El	Level	Level2	SNR	BER	BlckErr	Temp	State	Recorded	gain1	gain2
2026-01-08 11:41:23.66	204.35	2.09	-57.8	-73.7	3.8	1.49e+00	0	22	0	0	82	21736
2026-01-08 11:41:27.54	204.59	2.31	-57.7	-73.7	3.8	1.49e+00	0	23	104	0	80	24138
2026-01-08 11:41:31.41	204.84	2.54	-57.7	-73.6	3.8	1.49e+00	0	23	104	0	80	24061
2026-01-08 11:41:35.28	205.09	2.76	-57.7	-73.7	3.8	1.49e+00	0	23	104	0	80	24165
2026-01-08 11:41:39.14	205.35	2.99	-57.7	-73.7	3.8	1.49e+00	0	23	104	0	80	24176
2026-01-08 11:41:43.01	205.60	3.22	-57.7	-73.6	3.8	1.49e+00	0	23	104	0	80	24088
2026-01-08 11:41:46.89	205.87	3.45	-57.7	-73.5	3.8	1.49e+00	0	23	104	0	80	23664
2026-01-08 11:41:50.77	206.13	3.68	-57.7	-73.4	3.8	1.49e+00	0	23	104	0	80	23526
2026-01-08 11:41:54.64	206.40	3.91	-57.7	-73.3	3.8	1.49e+00	0	23	104	0	80	23092
2026-01-08 11:41:58.51	206.68	4.15	-57.7	-73.6	3.8	1.49e+00	0	23	104	0	80	24075
2026-01-08 11:42:02.38	206.95	4.38	-57.6	-71.8	3.8	1.49e+00	0	24	104	0	80	19568
2026-01-08 11:42:06.25	207.24	4.62	-57.6	-70.6	4.1	1.44e+00	0	24	0	0	80	16942
2026-01-08 11:42:10.12	207.52	4.86	-57.4	-68.1	4.9	1.02e+00	0	24	0	2097152	80	12748
2026-01-08 11:42:13.99	207.82	5.10	-57.7	-70.6	4.1	4.43e-01	0	24	0	8388608	80	17052
2026-01-08 11:42:17.86	208.11	5.34	-54.0	-57.0	12.9	1.44e+00	0	24	104	11534336	74	4984
2026-01-08 11:42:21.73	208.41	5.59	-53.6	-56.3	13.5	0.00e+00	0	24	0	17825792	73	4917
2026-01-08 11:42:25.60	208.72	5.83	-53.4	-56.1	13.7	0.00e+00	0	24	0	25165824	73	4801
2026-01-08 11:42:29.47	209.03	6.08	-53.3	-55.9	13.8	0.00e+00	0	24	0	32505856	73	4683
2026-01-08 11:42:33.34	209.34	6.33	-53.2	-55.7	13.8	0.00e+00	0	24	0	39845888	72	4840
2026-01-08 11:42:37.20	209.66	6.58	-53.0	-55.3	14.0	0.00e+00	0	24	0	47185920	72	4651
2026-01-08 11:42:41.08	209.99	6.83	-52.9	-55.3	14.0	0.00e+00	0	24	0	54525952	72	4629
2026-01-08 11:42:44.94	210.32	7.09	-52.7	-55.0	14.1	0.00e+00	0	24	0	61865984	71	4718
2026-01-08 11:42:48.81	210.66	7.34	-52.6	-54.7	14.2	0.00e+00	0	24	0	69206016	71	4589
2026-01-08 11:42:52.68	211.00	7.60	-52.6	-54.8	14.2	0.00e+00	0	24	0	76546048	71	4625
2026-01-08 11:42:56.55	211.35	7.86	-52.6	-54.8	14.2	0.00e+00	0	24	0	83886080	71	4625
2026-01-08 11:43:00.42	211.70	8.12	-52.8	-55.1	14.1	0.00e+00	0	24	0	91226112	71	4788
2026-01-08 11:43:04.29	212.06	8.38	-52.8	-55.1	14.1	0.00e+00	0	24	0	97517568	71	4769
2026-01-08 11:43:08.16	212.43	8.65	-52.6	-54.9	14.2	0.00e+00	0	24	0	104857600	71	4660
2026-01-08 11:43:12.02	212.80	8.91	-52.4	-54.5	14.4	0.00e+00	0	24	0	112197632	71	4461
2026-01-08 11:43:15.89	213.18	9.18	-52.3	-54.3	14.4	0.00e+00	0	24	0	119537664	70	4645
2026-01-08 11:43:19.76	213.57	9.45	-52.1	-54.1	14.5	0.00e+00	0	24	0	126877696	70	4530
2026-01-08 11:43:23.63	213.96	9.72	-52.4	-54.5	14.3	0.00e+00	0	24	0	134217728	70	4708
2026-01-08 11:43:27.50	214.36	10.00	-52.4	-54.6	14.3	0.00e+00	0	24	0	141557760	70	4760
2026-01-08 11:43:31.36	214.77	10.27	-52.4	-54.5	14.3	0.00e+00	0	24	0	148897792	70	4744
2026-01-08 11:43:35.23	215.19	10.55	-52.3	-54.3	14.4	0.00e+00	0	24	0	156237824	70	4651
2026-01-08 11:43:39.10	215.61	10.83	-51.9	-53.8	14.7	0.00e+00	0	24	0	163577856	70	4374
2026-01-08 11:43:42.96	216.04	11.11	-51.9	-53.7	14.7	0.00e+00	0	24	0	170917888	70	4325
2026-01-08 11:43:46.83	216.48	11.39	-52.3	-54.3	14.4	0.00e+00	0	24	0	178257920	70	4637
2026-01-08 11:43:50.70	216.92	11.68	-52.4	-54.4	14.3	0.00e+00	0	24	0	185597952	70	4690
2026-01-08 11:43:54.58	217.38	11.97	-52.6	-54.7	14.2	0.00e+00	0	24	0	191889408	70	4817
2026-01-08 11:43:58.45	217.85	12.25	-52.4	-54.4	14.3	0.00e+00	0	24	0	199229440	70	4687
2026-01-08 11:44:02.32	218.32	12.54	-52.4	-54.4	14.4	0.00e+00	0	24	0	206569472	70	4675
2026-01-08 11:44:06.19	218.80	12.84	-52.3	-54.2	14.5	0.00e+00	0	24	0	213909504	70	4593
2026-01-08 11:44:10.07	219.29	13.13	-52.2	-54.1	14.5	0.00e+00	0	24	0	221249536	70	4536
2026-01-08 11:44:13.94	219.79	13.43	-52.2	-54.1	14.5	0.00e+00	0	24	0	228589568	70	4540
2026-01-08 11:44:17.81	220.31	13.72	-52.1	-54.0	14.6	0.00e+00	0	25	0	235929600	70	4468
2026-01-08 11:44:21.68	220.83	14.02	-51.7	-53.5	14.7	0.00e+00	0	24	0	243269632	69	4470
2026-01-08 11:44:25.54	221.36	14.32	-51.7	-53.5	14.7	0.00e+00	0	24	0	250609664	69	4490
2026-01-08 11:44:29.41	221.90	14.62	-52.2	-54.2	14.3	0.00e+00	0	24	0	257949696	69	4845
2026-01-08 11:44:33.27	222.45	14.92	-52.3	-54.3	14.3	0.00e+00	0	25	0	265289728	69	4873
2026-01-08 11:44:37.14	223.01	15.23	-52.0	-53.9	14.5	0.00e+00	0	24	0	271581184	69	4697
2026-01-08 11:44:41.01	223.59	15.53	-52.0	-54.0	14.5	0.00e+00	0	24	0	278921216	69	4719
2026-01-08 11:44:44.88	224.17	15.84	-51.8	-53.7	14.6	0.00e+00	0	24	0	286261248	69	4562
2026-01-08 11:44:48.74	224.77	16.14	-51.5	-53.3	14.8	0.00e+00	0	25	0	293601280	69	4368
2026-01-08 11:44:52.61	225.38	16.45	-51.3	-53.0	15.0	0.00e+00	0	24	0	300941312	69	4196
2026-01-08 11:44:56.48	226.00	16.76	-51.0	-52.7	14.9	0.00e+00	0	25	0	308281344	68	4313
2026-01-08 11:45:00.35	226.63	17.07	-51.1	-52.8	14.9	0.00e+00	0	24	0	315621376	68	4343
2026-01-08 11:45:04.21	227.28	17.38	-51.4	-53.1	14.8	0.00e+00	0	25	0	322961408	68	4515
2026-01-08 11:45:08.08	227.94	17.69	-51.5	-53.3	14.7	0.00e+00	0	25	0	330301440	68	4617
2026-01-08 11:45:11.95	228.61	18.00	-51.2	-52.9	14.8	0.00e+00	0	24	0	337641472	68	4436
2026-01-08 11:45:15.82	229.30	18.31	-50.9	-52.5	15.0	0.00e+00	0	25	0	344981504	68	4236
2026-01-08 11:45:19.69	230.00	18.63	-50.8	-52.3	15.1	0.00e+00	0	25	0	352321536	68	4145
2026-01-08 11:45:23.56	230.71	18.94	-50.3	-51.9	15.1	0.00e+00	0	24	0	359661568	67	4165
2026-01-08 11:45:27.43	231.44	19.25	-50.8	-52.4	14.9	0.00e+00	0	25	0	365953024	67	4407
2026-01-08 11:45:31.30	232.18	19.56	-50.7	-52.3	14.9	0.00e+00	0	25	0	373293056	67	4378
2026-01-08 11:45:35.17	232.94	19.86	-50.7	-52.4	14.9	0.00e+00	0	25	0	380633088	67	4402
2026-01-08 11:45:39.04	233.71	20.17	-50.8	-52.4	14.9	0.00e+00	0	25	0	387973120	67	4436
2026-01-08 11:45:42.92	234.50	20.48	-50.8	-52.4	14.9	0.00e+00	0	25	0	395313152	67	4420
2026-01-08 11:45:46.80	235.31	20.78	-50.9	-52.5	14.8	0.00e+00	0	25	0	402653184	67	4489
2026-01-08 11:45:50.68	236.13	21.08	-50.4	-52.0	15.1	0.00e+00	0	25	0	409993216	67	4211
2026-01-08 11:45:54.54	236.96	21.38	-50.7	-52.3	14.9	0.00e+00	0	25	0	417333248	67	4370
2026-01-08 11:45:58.41	237.81	21.68	-50.3	-51.8	15.2	0.00e+00	0	25	0	424673280	67	4123
2026-01-08 11:46:02.27	238.68	21.97	-50.6	-52.2	15.0	0.00e+00	0	25	0	432013312	67	4300
2026-01-08 11:46:06.14	239.56	22.27	-50.6	-52.1	15.0	0.00e+00	0	25	0	439353344	67	4282
2026-01-08 11:46:10.01	240.46	22.55	-50.4	-51.9	15.1	0.00e+00	0	25	0	446693376	67	4165
2026-01-08 11:46:13.88	241.37	22.84	-50.1	-51.6	15.1	0.00e+00	0	25	0	452984832	66	4282
2026-01-08 11:46:17.74	242.30	23.11	-50.7	-52.3	14.8	0.00e+00	0	25	0	460324864	66	4600
2026-01-08 11:46:21.61	243.25	23.39	-50.8	-52.4	14.9	0.00e+00	0	25	0	467664896	67	4428
2026-01-08 11:46:25.47	244.21	23.65	-50.7	-52.3	15.0	0.00e+00	0	25	0	475004928	67	4383
2026-01-08 11:46:29.34	245.19	23.92	-50.2	-51.7	15.1	0.00e+00	0	25	0	482344960	66	4330
2026-01-08 11:46:33.22	246.19	24.17	-51.2	-52.9	14.7	0.00e+00	0	25	0	489684992	67	4667
2026-01-08 11:46:37.08	247.20	24.42	-50.1	-51.6	15.1	0.00e+00	0	25	0	497025024	66	4267
2026-01-08 11:46:40.95	248.22	24.67	-51.4	-53.4	14.5	0.00e+00	0	25	0	504365056	67	4937
2026-01-08 11:46:44.82	249.26	24.90	-52.1	-54.2	14.4	0.00e+00	0	25	0	511705088	69	4848
2026-01-08 11:46:48.69	250.32	25.13	-51.9	-54.0	14.5	0.00e+00	0	25	0	519045120	69	4724
2026-01-08 11:46:52.55	251.39	25.35	-51.9	-54.0	14.5	0.00e+00	0	25	0	526385152	69	4742
2026-01-08 11:46:56.42	252.47	25.56	-53.1	-55.6	14.0	0.00e+00	0	25	0	533725184	71	5081
2026-01-08 11:47:00.29	253.57	25.76	-53.0	-55.4	14.1	0.00e+00	0	25	0	540016640	71	4954
2026-01-08 11:47:04.15	254.68	25.95	-53.2	-55.7	13.9	0.00e+00	0	25	0	547356672	71	5151
2026-01-08 11:47:08.02	255.81	26.14	-53.3	-55.9	13.9	0.00e+00	0	25	0	554696704	72	4975
2026-01-08 11:47:11.88	256.95	26.31	-52.4	-54.7	14.3	0.00e+00	0	24	0	562036736	70	4867
2026-01-08 11:47:15.75	258.10	26.47	-52.6	-55.0	14.3	0.00e+00	0	25	0	569376768	71	4759
2026-01-08 11:47:19.62	259.26	26.62	-53.6	-56.6	13.6	0.00e+00	0	25	0	576716800	72	5379
2026-01-08 11:47:23.48	260.42	26.75	-53.3	-56.1	14.0	0.00e+00	0	25	0	584056832	72	5045
2026-01-08 11:47:27.35	261.60	26.88	-54.0	-57.1	13.4	0.00e+00	0	25	0	591396864	73	5400
2026-01-08 11:47:31.21	262.79	26.99	-52.9	-55.5	14.2	0.00e+00	0	25	0	598736896	72	4726
2026-01-08 11:47:35.07	263.98	27.09	-53.4	-56.4	13.8	0.00e+00	0	25	0	606076928	72	5222
2026-01-08 11:47:38.94	265.19	27.18	-54.1	-57.2	13.3	0.00e+00	0	24	0	613416960	73	5442
2026-01-08 11:47:42.80	266.39	27.25	-53.6	-56.3	13.9	0.00e+00	0	25	0	620756992	73	4913
2026-01-08 11:47:46.67	267.61	27.31	-53.8	-56.6	13.7	0.00e+00	0	25	0	627048448	73	5086
2026-01-08 11:47:50.55	268.83	27.36	-53.6	-56.4	13.9	0.00e+00	0	25	0	634388480	73	4930
2026-01-08 11:47:54.41	270.05	27.40	-52.9	-55.4	14.3	0.00e+00	0	25	0	641728512	72	4659
2026-01-08 11:47:58.28	271.27	27.42	-52.7	-55.0	14.5	0.00e+00	0	25	0	649068544	72	4471
2026-01-08 11:48:02.15	272.49	27.42	-53.8	-56.7	13.5	0.00e+00	0	25	0	656408576	72	5440
2026-01-08 11:48:06.02	273.72	27.42	-54.0	-56.9	13.5	0.00e+00	0	25	0	663748608	73	5279
2026-01-08 11:48:09.89	274.94	27.39	-53.7	-56.4	13.8	0.00e+00	0	25	0	671088640	73	4932
2026-01-08 11:48:13.75	276.16	27.36	-52.7	-54.9	14.4	0.00e+00	0	25	0	678428672	71	4675
2026-01-08 11:48:17.62	277.38	27.31	-52.2	-54.3	14.6	0.00e+00	0	25	0	685768704	70	4622
2026-01-08 11:48:21.49	278.59	27.25	-53.3	-56.0	13.8	0.00e+00	0	25	0	693108736	71	5340
2026-01-08 11:48:25.35	279.79	27.17	-53.0	-55.5	14.2	0.00e+00	0	25	0	700448768	72	4739
2026-01-08 11:48:29.22	281.00	27.09	-53.0	-55.5	14.2	0.00e+00	0	25	0	707788800	72	4736
2026-01-08 11:48:33.09	282.19	26.99	-52.7	-55.0	14.3	0.00e+00	0	25	0	714080256	71	4719
2026-01-08 11:48:36.96	283.38	26.87	-52.8	-55.1	14.3	0.00e+00	0	25	0	721420288	71	4784
2026-01-08 11:48:40.84	284.56	26.75	-52.1	-54.2	14.6	0.00e+00	0	25	0	728760320	70	4566
2026-01-08 11:48:44.71	285.73	26.61	-52.1	-54.4	14.4	0.00e+00	0	25	0	736100352	69	4934
2026-01-08 11:48:48.58	286.89	26.46	-52.9	-55.5	14.0	0.00e+00	0	25	0	743440384	71	5038
2026-01-08 11:48:52.45	288.03	26.30	-51.5	-53.5	14.8	0.00e+00	0	25	0	750780416	69	4479
2026-01-08 11:48:56.32	289.17	26.13	-50.3	-51.9	15.2	0.00e+00	0	25	0	758120448	67	4188
2026-01-08 11:49:00.18	290.29	25.95	-51.1	-52.9	14.8	0.00e+00	0	25	0	765460480	67	4689
2026-01-08 11:49:04.06	291.40	25.75	-51.0	-52.8	15.0	0.00e+00	0	25	0	772800512	68	4366
2026-01-08 11:49:07.93	292.50	25.55	-50.3	-51.9	15.2	0.00e+00	0	25	0	780140544	67	4186
2026-01-08 11:49:11.79	293.58	25.34	-49.8	-51.3	15.3	0.00e+00	0	25	0	787480576	66	4110
2026-01-08 11:49:15.67	294.65	25.12	-49.7	-51.2	15.1	0.00e+00	0	25	0	794820608	65	4331
2026-01-08 11:49:19.53	295.70	24.90	-50.6	-52.3	14.8	0.00e+00	0	25	0	801112064	66	4631
2026-01-08 11:49:23.40	296.73	24.66	-49.7	-51.2	15.1	0.00e+00	0	25	0	808452096	65	4335
2026-01-08 11:49:27.27	297.76	24.42	-49.7	-51.3	15.1	0.00e+00	0	25	0	815792128	65	4387
2026-01-08 11:49:31.14	298.76	24.17	-50.0	-51.6	15.0	0.00e+00	0	25	0	823132160	65	4534
2026-01-08 11:49:35.00	299.75	23.91	-50.0	-51.7	14.9	0.00e+00	0	25	0	830472192	65	4581
2026-01-08 11:49:38.86	300.73	23.65	-50.3	-52.1	14.9	0.00e+00	0	25	0	837812224	66	4508
2026-01-08 11:49:42.73	301.69	23.39	-49.8	-51.4	15.2	0.00e+00	0	25	0	845152256	66	4191
2026-01-08 11:49:46.59	302.63	23.11	-51.0	-53.0	14.7	0.00e+00	0	25	0	852492288	67	4709
2026-01-08 11:49:50.46	303.55	22.84	-50.8	-52.7	14.8	0.00e+00	0	25	0	859832320	67	4557
2026-01-08 11:49:54.33	304.46	22.56	-50.3	-52.1	15.0	0.00e+00	0	25	0	867172352	67	4287
2026-01-08 11:49:58.20	305.36	22.27	-50.1	-51.8	15.0	0.00e+00	0	25	0	874512384	66	4386
2026-01-08 11:50:02.06	306.24	21.98	-50.3	-52.1	14.9	0.00e+00	0	25	0	881852416	66	4515
2026-01-08 11:50:05.93	307.10	21.69	-50.9	-52.8	14.6	0.00e+00	0	25	0	888143872	66	4917
2026-01-08 11:50:09.79	307.94	21.39	-51.0	-52.9	14.7	0.00e+00	0	25	0	895483904	67	4703
2026-01-08 11:50:13.65	308.77	21.10	-50.8	-52.7	14.7	0.00e+00	0	25	0	902823936	67	4586
2026-01-08 11:50:17.52	309.59	20.80	-50.9	-52.9	14.7	0.00e+00	0	25	0	910163968	67	4680
2026-01-08 11:50:21.39	310.39	20.49	-51.7	-53.9	14.5	0.00e+00	0	25	0	917504000	69	4666
2026-01-08 11:50:25.26	311.17	20.19	-50.0	-51.7	15.1	0.00e+00	0	25	0	924844032	66	4305
2026-01-08 11:50:29.13	311.94	19.88	-50.7	-52.5	14.8	0.00e+00	0	25	0	932184064	66	4741
2026-01-08 11:50:33.00	312.70	19.58	-51.5	-53.5	14.6	0.00e+00	0	25	0	939524096	68	4730
2026-01-08 11:50:36.87	313.44	19.27	-51.3	-53.3	14.6	0.00e+00	0	25	0	946864128	68	4647
2026-01-08 11:50:40.75	314.17	18.96	-50.9	-52.8	14.9	0.00e+00	0	25	0	954204160	68	4349
2026-01-08 11:50:44.62	314.88	18.65	-50.2	-52.0	14.9	0.00e+00	0	25	0	961544192	66	4453
2026-01-08 11:50:48.49	315.58	18.34	-51.0	-53.0	14.6	0.00e+00	0	25	0	967835648	67	4758
2026-01-08 11:50:52.38	316.26	18.03	-50.7	-52.5	14.9	0.00e+00	0	25	0	975175680	67	4481
2026-01-08 11:50:56.29	316.94	17.72	-50.6	-52.4	14.9	0.00e+00	0	25	0	982515712	67	4422
2026-01-08 11:51:00.22	317.61	17.41	-51.0	-53.0	14.6	0.00e+00	0	25	0	990904320	67	4711
2026-01-08 11:51:04.15	318.26	17.10	-50.3	-52.0	15.1	0.00e+00	0	25	0	997195776	67	4241
2026-01-08 11:51:08.10	318.91	16.78	-50.8	-52.8	14.7	0.00e+00	0	25	0	1005584384	67	4601
2026-01-08 11:51:12.09	319.55	16.47	-50.7	-52.6	14.8	0.00e+00	0	25	0	1012924416	67	4513
2026-01-08 11:51:16.07	320.17	16.15	-50.7	-52.5	14.8	0.00e+00	0	25	0	1020264448	67	4477
2026-01-08 11:51:20.05	320.78	15.84	-51.9	-54.1	14.3	0.00e+00	0	24	0	1027604480	68	5047
2026-01-08 11:51:24.02	321.38	15.53	-51.9	-54.1	14.4	0.00e+00	0	25	0	1034944512	69	4767
2026-01-08 11:51:27.98	321.96	15.22	-51.7	-53.8	14.5	0.00e+00	0	25	0	1042284544	69	4623
2026-01-08 11:51:31.99	322.54	14.90	-51.0	-52.9	14.8	0.00e+00	0	25	0	1049624576	68	4431
2026-01-08 11:51:36.09	323.12	14.58	-50.2	-51.9	14.9	0.00e+00	0	25	0	1058013184	66	4419
2026-01-08 11:51:40.13	323.68	14.27	-50.4	-52.2	14.8	0.00e+00	0	25	0	1065353216	66	4575
2026-01-08 11:51:44.16	324.23	13.96	-51.6	-53.7	14.4	0.00e+00	0	25	0	1072693248	68	4854
2026-01-08 11:51:48.19	324.77	13.66	-52.3	-54.6	14.1	0.00e+00	0	25	0	1080033280	69	5084
2026-01-08 11:51:52.22	325.29	13.35	-51.8	-53.9	14.5	0.00e+00	0	25	0	1087373312	69	4667
2026-01-08 11:51:56.26	325.81	13.04	-51.4	-53.4	14.7	0.00e+00	0	25	0	1095761920	69	4411
2026-01-08 11:52:00.29	326.32	12.74	-51.2	-53.1	14.8	0.00e+00	0	25	0	1103101952	69	4284
2026-01-08 11:52:04.32	326.81	12.44	-51.5	-53.5	14.6	0.00e+00	0	25	0	1110441984	69	4484
2026-01-08 11:52:08.36	327.30	12.14	-51.5	-53.5	14.6	0.00e+00	0	25	0	1117782016	69	4466
2026-01-08 11:52:12.39	327.78	11.84	-51.9	-54.0	14.4	0.00e+00	0	25	0	1125122048	69	4737
2026-01-08 11:52:16.41	328.24	11.55	-52.1	-54.3	14.2	0.00e+00	0	25	0	1133510656	69	4926
2026-01-08 11:52:20.45	328.70	11.26	-52.7	-55.2	13.8	0.00e+00	0	25	0	1140850688	70	5159
2026-01-08 11:52:24.48	329.15	10.96	-52.4	-54.7	14.1	0.00e+00	0	25	0	1148190720	70	4852
2026-01-08 11:52:28.50	329.59	10.68	-52.3	-54.6	14.2	0.00e+00	0	25	0	1155530752	70	4802
2026-01-08 11:52:32.53	330.03	10.39	-52.3	-54.6	14.2	0.00e+00	0	25	0	1162870784	70	4767
2026-01-08 11:52:36.56	330.45	10.10	-52.2	-54.5	14.2	0.00e+00	0	25	0	1171259392	70	4745
2026-01-08 11:52:40.59	330.87	9.82	-51.7	-53.8	14.6	0.00e+00	0	25	0	1178599424	70	4368
2026-01-08 11:52:44.63	331.28	9.54	-51.7	-53.8	14.5	0.00e+00	0	25	0	1185939456	69	4607
2026-01-08 11:52:48.65	331.69	9.26	-51.8	-53.9	14.4	0.00e+00	0	25	0	1193279488	69	4676
2026-01-08 11:52:52.68	332.08	8.98	-52.5	-55.0	13.9	0.00e+00	0	25	0	1200619520	70	5012
2026-01-08 11:52:56.70	332.47	8.71	-52.8	-55.4	13.8	0.00e+00	0	25	0	1209008128	71	4983
2026-01-08 11:53:00.73	332.85	8.43	-53.0	-55.7	13.6	0.00e+00	0	25	0	1216348160	71	5107
2026-01-08 11:53:04.76	333.23	8.16	-52.5	-54.9	14.1	0.00e+00	0	25	0	1223688192	71	4669
2026-01-08 11:53:08.80	333.59	7.89	-52.5	-54.9	14.1	0.00e+00	0	25	0	1231028224	71	4660
2026-01-08 11:53:12.83	333.96	7.62	-52.7	-55.2	13.9	0.00e+00	0	25	0	1238368256	71	4863
2026-01-08 11:53:16.86	334.31	7.36	-53.5	-56.5	13.2	0.00e+00	0	25	0	1246756864	72	5285
2026-01-08 11:53:20.90	334.66	7.09	-53.5	-56.5	13.2	0.00e+00	0	25	0	1254096896	72	5307
2026-01-08 11:53:24.93	335.01	6.83	-53.3	-56.2	13.4	0.00e+00	0	25	0	1261436928	72	5149
2026-01-08 11:53:28.97	335.35	6.57	-52.8	-55.4	13.9	0.00e+00	0	25	0	1268776960	72	4701
2026-01-08 11:53:32.99	335.68	6.31	-52.8	-55.3	13.9	0.00e+00	0	25	0	1277165568	72	4645
2026-01-08 11:53:37.02	336.00	6.05	-52.7	-55.3	13.8	6.80e-06	0	25	0	1284505600	71	4885
2026-01-08 11:53:41.05	336.33	5.80	-52.7	-55.3	13.8	0.00e+00	0	25	0	1291845632	71	4890
2026-01-08 11:53:45.08	336.64	5.55	-52.8	-55.5	13.6	0.00e+00	0	25	0	1299185664	71	5035
2026-01-08 11:53:49.12	336.96	5.30	-52.9	-55.7	13.4	0.00e+00	0	25	0	1306525696	71	5150
2026-01-08 11:53:53.15	337.26	5.05	-52.9	-55.6	13.5	0.00e+00	0	25	0	1314914304	71	5090
2026-01-08 11:53:57.18	337.56	4.80	-59.2	-75.3	3.8	1.49e+00	0	25	104	1315962880	83	24502
2026-01-08 11:54:01.21	337.86	4.55	-60.0	-76.1	3.8	1.49e+00	0	25	104	1315962880	85	24008
2026-01-08 11:54:05.25	338.15	4.31	-60.3	-76.3	3.8	1.49e+00	0	25	104	1315962880	85	24564
2026-01-08 11:54:09.28	338.44	4.06	-60.3	-76.4	3.8	1.49e+00	0	25	104	1315962880	85	24917
2026-01-08 11:54:13.32	338.72	3.82	-60.4	-76.4	3.8	1.49e+00	0	25	104	1315962880	85	24929
2026-01-08 11:54:17.35	339.00	3.58	-60.3	-76.4	3.8	1.49e+00	0	25	104	1315962880	85	24829
2026-01-08 11:54:21.39	339.28	3.34	-60.2	-76.3	3.8	1.49e+00	0	25	104	1315962880	85	24615
2026-01-08 11:54:25.42	339.55	3.11	-60.2	-76.2	3.8	1.49e+00	0	25	104	1315962880	85	24410
2026-01-08 11:54:29.46	339.82	2.87	-60.1	-76.2	3.8	1.49e+00	0	25	104	1315962880	85	24337
2026-01-08 11:54:33.49	340.08	2.64	-60.1	-76.2	3.8	1.49e+00	0	25	104	1315962880	85	24170
2026-01-08 11:54:37.53	340.34	2.41	-60.1	-76.2	3.8	1.49e+00	0	25	104	1315962880	85	24165
2026-01-08 11:54:41.56	340.60	2.18	-60.1	-76.1	3.8	1.49e+00	0	25	104	1315962880	85	24091
2026-01-08 11:54:45.60	340.85	1.95	-60.0	-76.1	3.8	1.49e+00	0	25	104	1315962880	85	23932

#Closed at: 2026-01-08 11:54:47
#Recorded file [1315 MB]: D:/lorett/data/31004_260108_144123.dat