passes_logs/2026/01/08/R3.2S_Murmansk/R3.2S_Murmansk__20260108_081948_SUOMI_NPP_rec.log

#Pass ID: 20260108_081948_SUOMI NPP
#Satellite: SUOMI NPP
#Configuration: NPP
#almurnet v.1.7.20251203
#Start time: 2026-01-08 08:19:50

#Version: 2.2.20231116
#Station: R3.2S_Murmansk
#Location: 33.079688 lon 68.888172 lat
#TLE: 1 37849U 11061A   26005.94084933  .00000134  00000+0  84554-4 0  9990
#TLE: 2 37849  98.7803 308.0679 0002567  79.1029 281.0436 14.19522657735426

#Time	Az	El	Level	Level2	SNR	BER	BlckErr	Temp	State	Recorded	gain1	gain2
2026-01-08 08:19:50.58	122.09	2.15	-57.3	-73.3	3.8	1.49e+00	0	23	0	0	81	21866
2026-01-08 08:19:54.55	121.98	2.40	-57.2	-73.3	3.8	1.49e+00	0	23	104	0	79	24482
2026-01-08 08:19:58.55	121.86	2.66	-57.2	-73.2	3.8	1.49e+00	0	23	104	0	79	24407
2026-01-08 08:20:02.55	121.74	2.92	-57.3	-73.3	3.8	1.49e+00	0	23	104	0	79	24471
2026-01-08 08:20:06.53	121.62	3.17	-57.3	-73.2	3.8	1.49e+00	0	23	104	0	79	24199
2026-01-08 08:20:10.53	121.50	3.44	-57.2	-72.8	3.8	1.49e+00	0	23	104	0	79	23238
2026-01-08 08:20:14.52	121.37	3.70	-57.2	-71.6	3.8	1.49e+00	0	23	104	0	79	20102
2026-01-08 08:20:18.51	121.25	3.97	-57.0	-68.5	4.6	1.23e+00	0	23	0	1048576	79	14116
2026-01-08 08:20:22.49	121.12	4.24	-56.5	-64.1	7.4	1.40e-01	0	24	0	8388608	79	8530
2026-01-08 08:20:26.48	120.98	4.51	-55.2	-59.8	11.0	5.32e-04	0	24	0	15728640	77	5852
2026-01-08 08:20:30.46	120.85	4.78	-53.7	-56.9	13.0	0.00e+00	0	23	0	23068672	74	4933
2026-01-08 08:20:34.45	120.71	5.06	-53.0	-55.7	13.6	0.00e+00	0	24	0	30408704	72	4852
2026-01-08 08:20:38.46	120.56	5.34	-52.8	-55.4	13.8	0.00e+00	0	24	0	37748736	72	4684
2026-01-08 08:20:42.46	120.42	5.62	-52.8	-55.5	13.6	0.00e+00	0	24	0	45088768	71	4999
2026-01-08 08:20:46.46	120.27	5.91	-52.7	-55.2	13.8	0.00e+00	0	24	0	53477376	71	4836
2026-01-08 08:20:50.45	120.12	6.20	-52.6	-55.1	13.9	0.00e+00	0	24	0	60817408	71	4788
2026-01-08 08:20:54.43	119.97	6.49	-52.6	-55.0	14.0	0.00e+00	0	24	0	68157440	71	4739
2026-01-08 08:20:58.17	119.82	6.77	-52.5	-54.8	14.1	0.00e+00	0	24	0	75497472	71	4646
2026-01-08 08:21:02.16	119.66	7.06	-52.4	-54.7	14.2	0.00e+00	0	24	0	82837504	71	4552
2026-01-08 08:21:06.17	119.49	7.37	-52.4	-54.7	14.2	0.00e+00	0	24	0	90177536	71	4568
2026-01-08 08:21:10.20	119.32	7.67	-52.5	-54.8	14.2	0.00e+00	0	24	0	98566144	71	4623
2026-01-08 08:21:14.25	119.15	7.99	-52.5	-54.8	14.2	0.00e+00	0	24	0	105906176	71	4617
2026-01-08 08:21:18.25	118.97	8.30	-52.2	-54.4	14.4	0.00e+00	0	24	0	113246208	71	4421
2026-01-08 08:21:22.29	118.79	8.62	-52.4	-54.6	14.2	0.00e+00	0	24	0	120586240	70	4769
2026-01-08 08:21:26.36	118.60	8.94	-52.3	-54.4	14.2	0.00e+00	0	24	0	127926272	70	4697
2026-01-08 08:21:30.38	118.41	9.27	-52.2	-54.4	14.3	0.00e+00	0	24	0	136314880	70	4652
2026-01-08 08:21:34.39	118.21	9.60	-51.9	-54.0	14.5	0.00e+00	0	24	0	143654912	70	4454
2026-01-08 08:21:38.47	118.01	9.93	-52.1	-54.2	14.4	0.00e+00	0	24	0	150994944	70	4597
2026-01-08 08:21:42.47	117.80	10.27	-52.0	-54.1	14.5	0.00e+00	0	24	0	158334976	70	4531
2026-01-08 08:21:46.49	117.59	10.61	-51.9	-53.9	14.6	0.00e+00	0	24	0	165675008	70	4426
2026-01-08 08:21:50.50	117.38	10.96	-51.9	-53.9	14.6	0.00e+00	0	24	0	174063616	70	4409
2026-01-08 08:21:54.55	117.16	11.31	-51.7	-53.9	14.5	0.00e+00	0	24	0	181403648	69	4675
2026-01-08 08:21:58.58	116.93	11.67	-51.5	-53.6	14.7	0.00e+00	0	24	0	188743680	69	4519
2026-01-08 08:22:02.61	116.69	12.03	-51.4	-53.5	14.8	0.00e+00	0	24	0	196083712	69	4445
2026-01-08 08:22:06.65	116.45	12.39	-51.4	-53.6	14.7	0.00e+00	0	24	0	203423744	69	4498
2026-01-08 08:22:10.65	116.21	12.76	-51.5	-53.7	14.6	0.00e+00	0	24	0	211812352	69	4573
2026-01-08 08:22:14.69	115.96	13.14	-51.5	-53.6	14.7	0.00e+00	0	24	0	219152384	69	4534
2026-01-08 08:22:18.73	115.70	13.52	-51.6	-53.8	14.6	0.00e+00	0	24	0	226492416	69	4647
2026-01-08 08:22:22.75	115.43	13.91	-51.7	-54.0	14.5	0.00e+00	0	24	0	233832448	69	4730
2026-01-08 08:22:26.84	115.15	14.30	-51.5	-53.7	14.6	0.00e+00	0	24	0	242221056	69	4566
2026-01-08 08:22:30.90	114.87	14.70	-51.2	-53.3	14.9	0.00e+00	0	24	0	249561088	69	4386
2026-01-08 08:22:34.92	114.58	15.11	-51.3	-53.4	14.6	0.00e+00	0	24	0	256901120	68	4705
2026-01-08 08:22:38.91	114.29	15.51	-51.3	-53.4	14.6	0.00e+00	0	24	0	264241152	68	4702
2026-01-08 08:22:42.94	113.98	15.93	-51.4	-53.4	14.6	0.00e+00	0	24	0	271581184	68	4705
2026-01-08 08:22:46.99	113.66	16.35	-51.4	-53.4	14.7	0.00e+00	0	24	0	279969792	68	4683
2026-01-08 08:22:50.99	113.34	16.78	-51.1	-53.1	14.8	0.00e+00	0	24	0	287309824	68	4507
2026-01-08 08:22:55.02	113.00	17.21	-51.2	-53.2	14.7	0.00e+00	0	24	0	294649856	68	4598
2026-01-08 08:22:59.01	112.66	17.65	-51.1	-53.2	14.8	0.00e+00	0	24	0	301989888	68	4555
2026-01-08 08:23:03.09	112.30	18.11	-51.1	-53.1	14.9	0.00e+00	0	24	0	309329920	68	4520
2026-01-08 08:23:07.16	111.93	18.57	-51.3	-53.4	14.7	0.00e+00	0	24	0	317718528	68	4659
2026-01-08 08:23:11.16	111.55	19.03	-51.3	-53.3	14.7	0.00e+00	0	24	0	325058560	68	4647
2026-01-08 08:23:15.19	111.16	19.50	-51.7	-53.9	14.4	0.00e+00	0	24	0	332398592	68	4973
2026-01-08 08:23:19.25	110.76	19.98	-52.0	-54.3	14.4	0.00e+00	0	25	0	339738624	69	4903
2026-01-08 08:23:23.28	110.34	20.47	-52.3	-54.6	14.2	0.00e+00	0	24	0	348127232	69	5079
2026-01-08 08:23:27.27	109.91	20.95	-52.2	-54.4	14.5	0.00e+00	0	25	0	355467264	70	4664
2026-01-08 08:23:31.30	109.47	21.46	-51.7	-53.7	14.8	0.00e+00	0	24	0	362807296	70	4322
2026-01-08 08:23:35.29	109.01	21.96	-51.9	-54.0	14.5	0.00e+00	0	25	0	370147328	69	4730
2026-01-08 08:23:39.32	108.54	22.48	-51.8	-53.9	14.5	0.00e+00	0	24	0	377487360	69	4697
2026-01-08 08:23:43.35	108.04	23.01	-52.0	-54.3	14.4	0.00e+00	0	25	0	384827392	69	4872
2026-01-08 08:23:47.40	107.53	23.54	-52.2	-54.7	14.4	0.00e+00	0	24	0	393216000	70	4821
2026-01-08 08:23:51.42	107.00	24.09	-51.7	-53.9	14.8	0.00e+00	0	24	0	400556032	70	4432
2026-01-08 08:23:55.44	106.46	24.64	-52.3	-54.8	14.2	0.00e+00	0	24	0	407896064	69	5169
2026-01-08 08:23:59.46	105.89	25.20	-52.1	-54.4	14.5	0.00e+00	0	24	0	415236096	70	4659
2026-01-08 08:24:03.49	105.30	25.77	-52.5	-54.9	14.2	0.00e+00	0	25	0	422576128	70	4971
2026-01-08 08:24:07.51	104.69	26.35	-51.3	-53.4	14.8	0.00e+00	0	24	0	430964736	69	4441
2026-01-08 08:24:11.52	104.06	26.93	-52.0	-54.6	14.3	0.00e+00	0	24	0	438304768	69	5063
2026-01-08 08:24:15.55	103.40	27.53	-51.9	-54.4	14.4	0.00e+00	0	25	0	445644800	69	4964
2026-01-08 08:24:19.57	102.72	28.13	-52.0	-54.4	14.3	0.00e+00	0	25	0	452984832	69	4952
2026-01-08 08:24:23.61	102.01	28.75	-52.6	-55.1	14.2	0.00e+00	0	25	0	460324864	70	5060
2026-01-08 08:24:27.64	101.27	29.37	-52.3	-54.6	14.4	0.00e+00	0	24	0	468713472	70	4801
2026-01-08 08:24:31.65	100.50	29.99	-52.5	-55.1	14.2	0.00e+00	0	25	0	476053504	70	5065
2026-01-08 08:24:35.67	99.70	30.63	-52.6	-55.4	14.0	0.00e+00	0	25	0	483393536	70	5229
2026-01-08 08:24:39.67	98.88	31.27	-53.3	-56.4	13.6	0.00e+00	0	25	0	490733568	71	5574
2026-01-08 08:24:43.73	98.00	31.93	-53.0	-55.8	13.9	0.00e+00	0	25	0	498073600	71	5178
2026-01-08 08:24:47.75	97.10	32.59	-52.7	-55.2	14.2	0.00e+00	0	25	0	506462208	71	4825
2026-01-08 08:24:51.77	96.16	33.25	-53.2	-55.7	14.0	0.00e+00	0	25	0	513802240	71	5159
2026-01-08 08:24:55.84	95.17	33.93	-52.8	-55.2	14.2	0.00e+00	0	25	0	521142272	71	4847
2026-01-08 08:24:59.85	94.15	34.60	-52.9	-55.7	13.9	0.00e+00	0	25	0	528482304	71	5136
2026-01-08 08:25:03.89	93.08	35.28	-54.3	-58.1	12.8	0.00e+00	0	25	0	535822336	73	6022
2026-01-08 08:25:07.92	91.97	35.97	-53.8	-56.9	13.6	0.00e+00	0	25	0	544210944	74	4964
2026-01-08 08:25:11.96	90.80	36.65	-52.4	-54.7	14.5	0.00e+00	0	25	0	551550976	71	4577
2026-01-08 08:25:15.95	89.61	37.33	-52.4	-54.9	14.4	0.00e+00	0	25	0	558891008	71	4664
2026-01-08 08:25:20.05	88.32	38.02	-53.0	-55.9	13.9	0.00e+00	0	25	0	566231040	71	5251
2026-01-08 08:25:24.03	87.02	38.70	-53.5	-56.7	13.4	0.00e+00	0	25	0	573571072	72	5447
2026-01-08 08:25:28.14	85.61	39.38	-53.4	-56.4	13.7	0.00e+00	0	25	0	581959680	73	4961
2026-01-08 08:25:32.16	84.18	40.05	-52.5	-55.1	14.1	0.00e+00	0	25	0	589299712	70	5046
2026-01-08 08:25:36.18	82.69	40.71	-53.3	-56.3	13.7	0.00e+00	0	25	0	596639744	73	4915
2026-01-08 08:25:40.20	81.14	41.35	-52.5	-54.9	14.3	0.00e+00	0	25	0	603979776	71	4679
2026-01-08 08:25:44.21	79.53	41.99	-52.6	-55.2	14.2	0.00e+00	0	25	0	611319808	71	4827
2026-01-08 08:25:48.23	77.85	42.60	-51.8	-54.0	14.7	0.00e+00	0	25	0	619708416	70	4488
2026-01-08 08:25:52.23	76.12	43.20	-50.7	-52.6	14.7	0.00e+00	0	25	0	627048448	66	4810
2026-01-08 08:25:56.23	74.32	43.77	-52.3	-55.0	14.1	0.00e+00	0	25	0	634388480	70	5029
2026-01-08 08:26:00.28	72.43	44.33	-51.2	-53.3	14.6	0.00e+00	0	25	0	641728512	68	4607
2026-01-08 08:26:04.32	70.48	44.85	-50.0	-51.8	15.1	0.00e+00	0	25	0	649068544	66	4350
2026-01-08 08:26:08.38	68.46	45.35	-51.4	-53.6	14.4	0.00e+00	0	25	0	657457152	67	5065
2026-01-08 08:26:12.41	66.39	45.80	-53.7	-57.5	12.9	0.00e+00	0	25	0	664797184	72	5932
2026-01-08 08:26:16.49	64.24	46.23	-53.5	-57.0	13.2	0.00e+00	0	24	0	672137216	73	5298
2026-01-08 08:26:20.49	62.07	46.60	-52.2	-54.9	14.3	0.00e+00	0	25	0	679477248	71	4696
2026-01-08 08:26:24.55	59.82	46.94	-51.7	-54.0	14.5	0.00e+00	0	25	0	687865856	69	4745
2026-01-08 08:26:28.58	57.54	47.23	-52.3	-54.9	14.3	0.00e+00	0	25	0	695205888	71	4698
2026-01-08 08:26:32.60	55.23	47.47	-52.4	-55.2	14.0	0.00e+00	0	25	0	702545920	70	5151
2026-01-08 08:26:36.64	52.88	47.65	-52.3	-55.1	14.2	0.00e+00	0	25	0	709885952	71	4806
2026-01-08 08:26:40.63	50.53	47.79	-50.7	-52.8	15.0	0.00e+00	0	25	0	717225984	68	4354
2026-01-08 08:26:44.65	48.14	47.87	-52.1	-54.9	14.0	0.00e+00	0	24	0	725614592	69	5237
2026-01-08 08:26:48.66	45.76	47.90	-51.6	-54.5	14.2	0.00e+00	0	25	0	732954624	69	4989
2026-01-08 08:26:52.68	43.36	47.87	-50.9	-53.3	14.6	0.00e+00	0	25	0	740294656	68	4644
2026-01-08 08:26:56.69	40.99	47.79	-50.4	-52.5	14.9	0.00e+00	0	25	0	747634688	67	4469
2026-01-08 08:27:00.73	38.61	47.66	-52.3	-55.5	13.7	0.00e+00	0	25	0	754974720	69	5593
2026-01-08 08:27:04.77	36.25	47.47	-52.9	-56.3	13.4	0.00e+00	0	24	0	762314752	70	5824
2026-01-08 08:27:08.85	33.91	47.23	-52.6	-55.7	13.8	0.00e+00	0	25	0	770703360	70	5423
2026-01-08 08:27:12.86	31.65	46.94	-51.9	-54.3	14.3	0.00e+00	0	25	0	778043392	69	4887
2026-01-08 08:27:16.90	29.41	46.61	-52.0	-54.4	14.4	0.00e+00	0	25	0	785383424	70	4704
2026-01-08 08:27:20.96	27.21	46.23	-52.9	-55.9	13.7	0.00e+00	0	25	0	792723456	71	5270
2026-01-08 08:27:25.01	25.07	45.81	-51.4	-53.7	14.6	0.00e+00	0	25	0	801112064	69	4568
2026-01-08 08:27:29.04	23.01	45.35	-52.4	-55.2	14.0	0.00e+00	0	25	0	808452096	70	5130
2026-01-08 08:27:33.10	20.99	44.86	-52.4	-54.9	14.2	0.00e+00	0	25	0	815792128	70	4976
2026-01-08 08:27:37.12	19.05	44.34	-51.2	-53.4	14.8	0.00e+00	0	25	0	823132160	69	4425
2026-01-08 08:27:41.15	17.17	43.79	-50.5	-52.5	15.0	0.00e+00	0	25	0	831520768	67	4446
2026-01-08 08:27:45.17	15.37	43.21	-50.7	-52.6	14.7	0.00e+00	0	25	0	838860800	66	4804
2026-01-08 08:27:49.24	13.60	42.61	-50.6	-52.6	14.7	0.00e+00	0	25	0	846200832	66	4766
2026-01-08 08:27:53.32	11.90	41.98	-51.8	-54.0	14.4	0.00e+00	0	25	0	853540864	68	5032
2026-01-08 08:27:57.38	10.28	41.34	-49.8	-51.4	15.3	0.00e+00	0	25	0	861929472	66	4173
2026-01-08 08:28:01.36	8.75	40.71	-50.9	-52.9	14.7	0.00e+00	0	25	0	869269504	67	4702
2026-01-08 08:28:05.34	7.27	40.06	-51.2	-53.3	14.6	0.00e+00	0	25	0	876609536	67	4878
2026-01-08 08:28:09.32	5.86	39.40	-52.9	-55.6	14.0	0.00e+00	0	25	0	883949568	71	5084
2026-01-08 08:28:13.30	4.50	38.73	-52.8	-55.3	14.2	0.00e+00	0	24	0	891289600	71	4902
2026-01-08 08:28:17.28	3.20	38.06	-53.1	-55.7	14.0	0.00e+00	0	25	0	898629632	71	5123
2026-01-08 08:28:21.24	1.96	37.39	-53.9	-57.1	13.4	0.00e+00	0	25	0	905969664	73	5391
2026-01-08 08:28:25.21	0.77	36.72	-54.2	-57.4	13.1	0.00e+00	0	25	0	913309696	73	5589
2026-01-08 08:28:29.18	359.62	36.05	-53.9	-56.9	13.7	0.00e+00	0	25	0	920649728	74	4939
2026-01-08 08:28:33.16	358.52	35.38	-56.3	-61.8	10.5	2.60e-03	0	25	0	929038336	78	6891
2026-01-08 08:28:37.13	357.46	34.71	-53.5	-56.1	14.0	0.00e+00	0	25	0	936378368	73	4796
2026-01-08 08:28:41.11	356.45	34.04	-53.7	-56.3	13.9	0.00e+00	0	25	0	943718400	73	4919
2026-01-08 08:28:45.06	355.49	33.39	-52.0	-54.0	14.6	0.00e+00	0	25	0	951058432	70	4480
2026-01-08 08:28:49.02	354.56	32.73	-54.1	-57.1	13.3	0.00e+00	0	25	0	958398464	73	5389
2026-01-08 08:28:53.02	353.65	32.08	-54.3	-57.4	13.3	0.00e+00	0	25	0	965738496	74	5264
2026-01-08 08:28:57.03	352.79	31.43	-53.9	-56.5	13.9	0.00e+00	0	25	0	973078528	74	4753
2026-01-08 08:29:01.04	351.95	30.79	-54.5	-57.9	13.1	0.00e+00	0	25	0	980418560	74	5538
2026-01-08 08:29:05.05	351.15	30.15	-54.8	-58.3	13.0	0.00e+00	0	25	0	988807168	76	5176
2026-01-08 08:29:09.08	350.38	29.52	-51.9	-53.8	14.8	0.00e+00	0	25	0	996147200	70	4389
2026-01-08 08:29:13.07	349.65	28.91	-53.2	-55.7	13.9	0.00e+00	0	25	0	1003487232	71	5156
2026-01-08 08:29:17.09	348.93	28.30	-53.8	-56.5	13.8	0.00e+00	0	25	0	1010827264	74	4738
2026-01-08 08:29:21.11	348.25	27.69	-52.2	-54.3	14.6	0.00e+00	0	25	0	1018167296	71	4384
2026-01-08 08:29:25.14	347.59	27.10	-52.5	-54.7	14.3	0.00e+00	0	25	0	1026555904	70	4865
2026-01-08 08:29:29.17	346.95	26.51	-52.2	-54.4	14.5	0.00e+00	0	25	0	1033895936	70	4652
2026-01-08 08:29:33.18	346.34	25.93	-52.4	-54.6	14.3	0.00e+00	0	25	0	1041235968	70	4796
2026-01-08 08:29:37.19	345.75	25.36	-53.9	-56.8	13.5	0.00e+00	0	25	0	1048576000	73	5173
2026-01-08 08:29:41.21	345.18	24.80	-53.0	-55.3	14.3	0.00e+00	0	25	0	1055916032	72	4635
2026-01-08 08:29:45.22	344.63	24.25	-52.3	-54.4	14.6	0.00e+00	0	25	0	1063256064	71	4417
2026-01-08 08:29:49.24	344.11	23.71	-51.4	-53.3	14.9	0.00e+00	0	25	0	1071644672	69	4350
2026-01-08 08:29:53.25	343.60	23.18	-52.1	-54.2	14.4	0.00e+00	0	25	0	1078984704	69	4867
2026-01-08 08:29:57.27	343.10	22.65	-52.1	-54.2	14.3	0.00e+00	0	25	0	1086324736	69	4854
2026-01-08 08:30:01.29	342.63	22.14	-51.9	-54.0	14.5	0.00e+00	0	25	0	1093664768	69	4719
2026-01-08 08:30:05.30	342.17	21.63	-52.5	-54.8	14.2	0.00e+00	0	25	0	1101004800	70	4892
2026-01-08 08:30:09.31	341.72	21.13	-52.3	-54.5	14.4	0.00e+00	0	25	0	1108344832	70	4708
2026-01-08 08:30:13.32	341.29	20.64	-52.3	-54.5	14.4	0.00e+00	0	25	0	1116733440	70	4731
2026-01-08 08:30:17.33	340.88	20.15	-52.2	-54.3	14.5	0.00e+00	0	25	0	1124073472	70	4638
2026-01-08 08:30:21.34	340.47	19.67	-52.2	-54.2	14.5	0.00e+00	0	25	0	1131413504	70	4573
2026-01-08 08:30:25.36	340.08	19.20	-52.2	-54.2	14.5	0.00e+00	0	25	0	1138753536	70	4598
2026-01-08 08:30:29.36	339.70	18.74	-52.5	-54.7	14.2	0.00e+00	0	25	0	1146093568	70	4820
2026-01-08 08:30:33.37	339.34	18.29	-52.5	-54.7	14.2	0.00e+00	0	25	0	1153433600	70	4868
2026-01-08 08:30:37.39	338.98	17.84	-52.8	-55.2	14.1	0.00e+00	0	25	0	1161822208	71	4837
2026-01-08 08:30:41.40	338.64	17.40	-52.7	-55.0	14.2	0.00e+00	0	25	0	1169162240	71	4753
2026-01-08 08:30:45.40	338.30	16.97	-51.9	-53.9	14.6	0.00e+00	0	25	0	1176502272	70	4422
2026-01-08 08:30:49.41	337.98	16.54	-51.3	-53.2	14.8	0.00e+00	0	25	0	1183842304	69	4320
2026-01-08 08:30:53.42	337.67	16.12	-51.8	-53.9	14.5	0.00e+00	0	25	0	1191182336	69	4654
2026-01-08 08:30:57.43	337.36	15.70	-52.7	-55.0	14.1	0.00e+00	0	25	0	1199570944	70	4997
2026-01-08 08:31:01.45	337.06	15.30	-53.5	-56.3	13.6	0.00e+00	0	25	0	1206910976	72	5166
2026-01-08 08:31:05.45	336.77	14.89	-53.7	-56.6	13.4	0.00e+00	0	25	0	1214251008	72	5356
2026-01-08 08:31:09.46	336.49	14.50	-53.3	-55.8	13.8	0.00e+00	0	25	0	1221591040	72	4923
2026-01-08 08:31:13.48	336.22	14.10	-53.0	-55.5	14.0	0.00e+00	0	25	0	1228931072	72	4711
2026-01-08 08:31:17.49	335.95	13.72	-53.0	-55.5	14.0	0.00e+00	0	25	0	1236271104	72	4730
2026-01-08 08:31:21.48	335.70	13.34	-53.0	-55.4	14.1	0.00e+00	0	25	0	1244659712	72	4670
2026-01-08 08:31:25.49	335.45	12.97	-53.2	-55.8	13.8	0.00e+00	0	25	0	1251999744	72	4914
2026-01-08 08:31:29.50	335.20	12.60	-53.3	-55.9	13.7	0.00e+00	0	25	0	1259339776	72	4981
2026-01-08 08:31:33.51	334.96	12.23	-53.0	-55.5	14.0	0.00e+00	0	25	0	1266679808	72	4716
2026-01-08 08:31:37.53	334.73	11.87	-52.9	-55.3	14.1	0.00e+00	0	25	0	1274019840	72	4641
2026-01-08 08:31:41.54	334.50	11.52	-52.7	-55.1	14.1	0.00e+00	0	25	0	1281359872	71	4785
2026-01-08 08:31:45.54	334.28	11.17	-52.8	-55.2	14.0	0.00e+00	0	25	0	1289748480	71	4857
2026-01-08 08:31:49.56	334.07	10.82	-53.2	-55.8	13.7	0.00e+00	0	25	0	1297088512	71	5209
2026-01-08 08:31:53.57	333.86	10.48	-53.5	-56.3	13.5	0.00e+00	0	25	0	1304428544	72	5180
2026-01-08 08:31:57.58	333.65	10.14	-53.9	-57.0	13.0	0.00e+00	0	25	0	1311768576	72	5613
2026-01-08 08:32:01.57	333.45	9.81	-54.0	-57.1	13.1	0.00e+00	0	25	0	1319108608	73	5379
2026-01-08 08:32:05.57	333.26	9.48	-53.7	-56.6	13.3	0.00e+00	0	25	0	1326448640	73	5096
2026-01-08 08:32:09.57	333.07	9.16	-53.6	-56.4	13.5	0.00e+00	0	25	0	1334837248	73	4974
2026-01-08 08:32:13.58	332.89	8.83	-53.3	-56.1	13.7	0.00e+00	0	25	0	1342177280	73	4760
2026-01-08 08:32:17.58	332.70	8.52	-53.4	-56.2	13.6	0.00e+00	0	25	0	1349517312	73	4821
2026-01-08 08:32:21.58	332.53	8.20	-53.3	-56.0	13.7	0.00e+00	0	25	0	1356857344	73	4736
2026-01-08 08:32:25.59	332.36	7.89	-53.5	-56.4	13.4	0.00e+00	0	25	0	1364197376	73	4945
2026-01-08 08:32:29.59	332.19	7.59	-53.5	-56.4	13.4	0.00e+00	0	25	0	1371537408	73	4975
2026-01-08 08:32:33.60	332.02	7.28	-53.4	-56.3	13.5	0.00e+00	0	25	0	1379926016	73	4885
2026-01-08 08:32:37.60	331.86	6.99	-53.5	-56.5	13.3	0.00e+00	0	25	0	1387266048	73	5004
2026-01-08 08:32:41.59	331.70	6.69	-53.3	-56.2	13.5	0.00e+00	0	25	0	1394606080	73	4845
2026-01-08 08:32:45.60	331.55	6.40	-53.5	-56.4	13.3	0.00e+00	0	25	0	1401946112	73	4969
2026-01-08 08:32:49.61	331.40	6.11	-53.6	-56.8	13.1	0.00e+00	0	25	0	1409286144	73	5168
2026-01-08 08:32:53.62	331.25	5.82	-53.7	-56.8	13.0	0.00e+00	0	25	0	1416626176	73	5202
2026-01-08 08:32:57.62	331.11	5.53	-53.9	-57.2	12.7	0.00e+00	0	25	0	1423966208	73	5457
2026-01-08 08:33:01.62	330.97	5.25	-54.0	-57.5	12.5	0.00e+00	0	25	0	1432354816	73	5602
2026-01-08 08:33:05.63	330.83	4.97	-57.6	-70.3	4.3	4.38e-01	47	25	0	1439694848	80	16494
2026-01-08 08:33:09.65	330.69	4.70	-59.2	-75.3	3.8	1.49e+00	0	25	104	1439694848	83	24430
2026-01-08 08:33:13.64	330.56	4.42	-59.9	-76.0	3.8	1.49e+00	0	25	104	1439694848	84	25139
2026-01-08 08:33:17.64	330.43	4.15	-60.2	-76.2	3.8	1.49e+00	0	25	104	1439694848	85	24336
2026-01-08 08:33:21.66	330.30	3.88	-60.2	-76.3	3.8	1.49e+00	0	25	104	1439694848	85	24542
2026-01-08 08:33:25.66	330.18	3.62	-60.3	-76.4	3.8	1.49e+00	0	25	104	1439694848	85	24771
2026-01-08 08:33:29.67	330.06	3.36	-60.2	-76.3	3.8	1.49e+00	0	25	104	1439694848	85	24527
2026-01-08 08:33:33.67	329.94	3.09	-60.2	-76.3	3.8	1.49e+00	0	25	104	1439694848	85	24440
2026-01-08 08:33:37.67	329.82	2.84	-60.1	-76.2	3.8	1.49e+00	0	25	104	1439694848	85	24275
2026-01-08 08:33:41.66	329.71	2.58	-60.1	-76.2	3.8	1.49e+00	0	25	104	1439694848	85	24195
2026-01-08 08:33:45.67	329.59	2.33	-60.1	-76.2	3.8	1.49e+00	0	25	104	1439694848	85	24135
2026-01-08 08:33:49.68	329.48	2.07	-60.0	-76.1	3.8	1.49e+00	0	25	104	1439694848	85	24023

#Closed at: 2026-01-08 08:33:53
#Recorded file [1439 MB]: D:/lorett/data/31004_260108_111950.dat