passes_logs/2026/01/08/R3.2S_Murmansk/R3.2S_Murmansk__20260108_222340_NOAA_20_JPSS-1_rec.log

#Pass ID: 20260108_222340_NOAA 20 (JPSS-1)
#Satellite: NOAA 20 (JPSS-1)
#Configuration: NOAA 20
#almurnet v.1.7.20251203
#Start time: 2026-01-08 22:23:41

#Version: 2.2.20231116
#Station: R3.2S_Murmansk
#Location: 33.079688 lon 68.888172 lat
#TLE: 1 43013U 17073A   26008.56343035  .00000133  00000+0  84205-4 0  9993
#TLE: 2 43013  98.7630 309.5710 0001731  48.5146 311.6178 14.19534569421822

#Time	Az	El	Level	Level2	SNR	BER	BlckErr	Temp	State	Recorded	gain1	gain2
2026-01-08 22:23:41.18	18.91	2.03	-57.5	-73.4	3.8	1.49e+00	0	22	0	0	81	22109
2026-01-08 22:23:45.20	19.18	2.25	-57.5	-73.4	3.8	1.49e+00	0	22	104	0	80	23452
2026-01-08 22:23:49.20	19.46	2.47	-57.5	-73.5	3.8	1.49e+00	0	22	104	0	80	23598
2026-01-08 22:23:53.19	19.74	2.70	-57.5	-73.4	3.8	1.49e+00	0	22	104	0	80	23492
2026-01-08 22:23:57.20	20.03	2.92	-57.5	-73.0	3.8	1.49e+00	0	22	104	0	80	22495
2026-01-08 22:24:01.20	20.32	3.15	-57.5	-72.2	3.8	1.49e+00	0	22	104	0	80	20312
2026-01-08 22:24:05.17	20.62	3.38	-57.4	-72.2	3.8	1.49e+00	0	22	104	0	80	20356
2026-01-08 22:24:09.18	20.92	3.61	-57.3	-69.5	4.3	1.39e+00	0	23	0	0	80	14896
2026-01-08 22:24:13.18	21.22	3.84	-57.1	-67.4	5.2	6.25e-01	0	23	0	7340032	80	11785
2026-01-08 22:24:17.18	21.53	4.07	-56.7	-64.2	7.5	1.10e-01	0	23	0	14680064	80	8165
2026-01-08 22:24:21.18	21.84	4.30	-54.8	-58.6	12.2	1.75e-05	0	23	0	22020096	76	5344
2026-01-08 22:24:25.18	22.16	4.54	-53.6	-56.6	13.3	0.00e+00	0	23	0	29360128	73	5049
2026-01-08 22:24:29.18	22.48	4.77	-54.8	-58.8	11.8	4.50e-06	0	23	0	36700160	74	6164
2026-01-08 22:24:33.18	22.81	5.01	-56.6	-63.9	7.8	3.15e-02	0	23	0	44040192	78	8790
2026-01-08 22:24:37.17	23.14	5.25	-57.2	-66.7	5.7	1.17e-01	0	23	0	52428800	79	11496
2026-01-08 22:24:41.14	23.48	5.49	-55.1	-59.1	11.9	2.74e-05	0	23	0	59768832	76	5706
2026-01-08 22:24:45.13	23.82	5.73	-53.7	-56.5	13.6	0.00e+00	0	23	0	67108864	74	4753
2026-01-08 22:24:49.11	24.17	5.97	-53.4	-56.1	13.7	0.00e+00	0	23	0	74448896	73	4767
2026-01-08 22:24:53.11	24.52	6.21	-53.3	-56.0	13.7	0.00e+00	0	23	0	81788928	72	5021
2026-01-08 22:24:57.08	24.88	6.46	-53.2	-55.8	13.8	0.00e+00	0	23	0	89128960	72	4925
2026-01-08 22:25:01.08	25.24	6.71	-53.3	-55.9	13.8	0.00e+00	0	23	0	96468992	72	4945
2026-01-08 22:25:05.07	25.61	6.95	-53.1	-55.6	14.0	0.00e+00	0	23	0	103809024	72	4764
2026-01-08 22:25:09.07	25.99	7.20	-52.9	-55.4	14.1	0.00e+00	0	23	0	112197632	72	4654
2026-01-08 22:25:13.08	26.37	7.46	-52.9	-55.3	14.2	0.00e+00	0	24	0	119537664	72	4629
2026-01-08 22:25:17.07	26.76	7.71	-53.0	-55.4	14.1	0.00e+00	0	23	0	126877696	72	4656
2026-01-08 22:25:21.06	27.16	7.96	-53.1	-55.6	14.0	0.00e+00	0	24	0	134217728	72	4770
2026-01-08 22:25:25.04	27.56	8.22	-53.0	-55.4	14.1	0.00e+00	0	24	0	141557760	72	4693
2026-01-08 22:25:29.04	27.97	8.47	-52.9	-55.3	14.2	0.00e+00	0	23	0	148897792	72	4605
2026-01-08 22:25:33.04	28.39	8.73	-53.1	-55.5	14.1	0.00e+00	0	23	0	156237824	72	4724
2026-01-08 22:25:37.05	28.81	8.99	-53.1	-55.5	14.1	0.00e+00	0	24	0	164626432	72	4706
2026-01-08 22:25:41.04	29.24	9.26	-52.9	-55.3	14.2	0.00e+00	0	24	0	171966464	72	4612
2026-01-08 22:25:45.03	29.68	9.52	-52.9	-55.2	14.3	0.00e+00	0	24	0	179306496	72	4559
2026-01-08 22:25:49.01	30.12	9.78	-52.7	-54.9	14.3	0.00e+00	0	24	0	186646528	71	4656
2026-01-08 22:25:52.98	30.57	10.04	-52.4	-54.6	14.5	0.00e+00	0	24	0	193986560	71	4504
2026-01-08 22:25:56.97	31.03	10.31	-52.5	-54.6	14.5	0.00e+00	0	24	0	201326592	71	4541
2026-01-08 22:26:00.97	31.50	10.58	-52.6	-54.7	14.4	0.00e+00	0	24	0	208666624	71	4578
2026-01-08 22:26:04.96	31.98	10.85	-52.2	-54.2	14.7	0.00e+00	0	24	0	216006656	71	4330
2026-01-08 22:26:08.96	32.47	11.12	-52.3	-54.4	14.6	0.00e+00	0	24	0	224395264	71	4419
2026-01-08 22:26:12.96	32.96	11.39	-52.3	-54.4	14.7	0.00e+00	0	24	0	231735296	71	4403
2026-01-08 22:26:16.95	33.47	11.66	-52.3	-54.4	14.7	0.00e+00	0	24	0	239075328	71	4412
2026-01-08 22:26:20.95	33.98	11.94	-52.3	-54.3	14.7	0.00e+00	0	24	0	246415360	71	4369
2026-01-08 22:26:24.93	34.50	12.21	-52.4	-54.5	14.6	0.00e+00	0	24	0	253755392	71	4455
2026-01-08 22:26:28.91	35.03	12.49	-52.3	-54.3	14.6	0.00e+00	0	24	0	261095424	70	4613
2026-01-08 22:26:32.92	35.57	12.76	-52.1	-54.1	14.7	0.00e+00	0	24	0	268435456	70	4494
2026-01-08 22:26:36.92	36.13	13.04	-52.1	-54.1	14.6	0.00e+00	0	24	0	276824064	70	4527
2026-01-08 22:26:40.91	36.69	13.32	-52.0	-53.9	14.8	0.00e+00	0	24	0	284164096	70	4422
2026-01-08 22:26:44.92	37.26	13.60	-51.9	-53.8	14.8	0.00e+00	0	24	0	291504128	70	4370
2026-01-08 22:26:48.90	37.84	13.88	-51.9	-53.8	14.8	0.00e+00	0	24	0	298844160	70	4368
2026-01-08 22:26:52.87	38.43	14.16	-51.8	-53.7	14.9	0.00e+00	0	24	0	306184192	70	4333
2026-01-08 22:26:56.85	39.03	14.44	-51.7	-53.6	15.0	0.00e+00	0	24	0	313524224	70	4259
2026-01-08 22:27:00.84	39.64	14.72	-51.9	-53.8	14.8	0.00e+00	0	24	0	320864256	70	4370
2026-01-08 22:27:04.84	40.27	15.00	-52.0	-54.0	14.7	0.00e+00	0	24	0	329252864	70	4443
2026-01-08 22:27:08.84	40.91	15.28	-51.9	-53.8	14.8	0.00e+00	0	24	0	336592896	70	4353
2026-01-08 22:27:12.81	41.56	15.56	-51.9	-53.8	14.9	0.00e+00	0	24	0	343932928	70	4346
2026-01-08 22:27:16.82	42.22	15.84	-51.9	-53.8	14.9	0.00e+00	0	24	0	351272960	70	4351
2026-01-08 22:27:20.81	42.89	16.12	-52.0	-53.9	14.8	0.00e+00	0	24	0	358612992	70	4419
2026-01-08 22:27:24.80	43.58	16.40	-51.8	-53.7	14.9	0.00e+00	0	24	0	365953024	70	4312
2026-01-08 22:27:28.81	44.28	16.69	-51.6	-53.4	14.9	0.00e+00	0	24	0	373293056	69	4423
2026-01-08 22:27:32.81	44.99	16.96	-51.7	-53.5	14.9	0.00e+00	0	24	0	380633088	69	4457
2026-01-08 22:27:36.80	45.71	17.24	-51.6	-53.4	14.9	0.00e+00	0	24	0	389021696	69	4406
2026-01-08 22:27:40.80	46.45	17.52	-51.7	-53.5	14.9	0.00e+00	0	24	0	396361728	69	4458
2026-01-08 22:27:44.79	47.20	17.79	-51.3	-53.1	15.1	0.00e+00	0	24	0	403701760	69	4244
2026-01-08 22:27:48.78	47.96	18.07	-51.0	-52.7	15.0	0.00e+00	0	24	0	411041792	68	4316
2026-01-08 22:27:52.77	48.74	18.34	-51.0	-52.7	15.1	0.00e+00	0	24	0	418381824	68	4317
2026-01-08 22:27:56.76	49.53	18.61	-51.2	-52.9	15.0	0.00e+00	0	24	0	425721856	68	4433
2026-01-08 22:28:00.73	50.33	18.87	-51.3	-53.0	14.9	0.00e+00	0	24	0	433061888	68	4486
2026-01-08 22:28:04.73	51.15	19.14	-51.2	-52.9	15.0	0.00e+00	0	24	0	441450496	68	4414
2026-01-08 22:28:08.71	51.98	19.40	-51.8	-53.6	14.6	0.00e+00	0	24	0	448790528	68	4795
2026-01-08 22:28:12.71	52.82	19.65	-52.0	-53.8	14.7	0.00e+00	0	24	0	456130560	69	4641
2026-01-08 22:28:16.71	53.68	19.91	-52.0	-53.8	14.7	0.00e+00	0	24	0	463470592	69	4642
2026-01-08 22:28:20.71	54.56	20.16	-52.7	-54.9	14.3	0.00e+00	0	24	0	470810624	70	4931
2026-01-08 22:28:24.68	55.44	20.40	-53.0	-55.2	14.3	0.00e+00	0	24	0	478150656	71	4852
2026-01-08 22:28:28.67	56.34	20.65	-53.1	-55.4	14.2	0.00e+00	0	24	0	485490688	71	4932
2026-01-08 22:28:32.66	57.26	20.88	-52.8	-55.0	14.4	0.00e+00	0	24	0	493879296	71	4712
2026-01-08 22:28:36.65	58.18	21.11	-52.6	-54.7	14.6	0.00e+00	0	24	0	501219328	71	4550
2026-01-08 22:28:40.65	59.13	21.34	-52.4	-54.4	14.7	0.00e+00	0	24	0	508559360	71	4399
2026-01-08 22:28:44.65	60.09	21.56	-52.0	-53.9	14.8	0.00e+00	0	24	0	515899392	70	4409
2026-01-08 22:28:48.66	61.06	21.78	-51.7	-53.4	14.9	0.00e+00	0	24	0	523239424	69	4426
2026-01-08 22:28:52.64	62.04	21.99	-52.7	-54.8	14.4	0.00e+00	0	24	0	530579456	70	4900
2026-01-08 22:28:56.64	63.03	22.19	-52.4	-54.4	14.6	0.00e+00	0	24	0	537919488	70	4662
2026-01-08 22:29:00.64	64.04	22.38	-52.2	-54.2	14.7	0.00e+00	0	24	0	546308096	70	4559
2026-01-08 22:29:04.63	65.06	22.57	-52.4	-54.4	14.5	0.00e+00	0	24	0	553648128	70	4700
2026-01-08 22:29:08.63	66.10	22.75	-52.0	-53.8	14.9	0.00e+00	0	24	0	560988160	70	4373
2026-01-08 22:29:12.63	67.14	22.92	-52.0	-53.9	14.8	0.00e+00	0	24	0	568328192	70	4414
2026-01-08 22:29:16.64	68.20	23.08	-52.1	-54.0	14.8	0.00e+00	0	24	0	575668224	70	4479
2026-01-08 22:29:20.64	69.27	23.23	-52.2	-54.0	14.7	0.00e+00	0	24	0	583008256	70	4489
2026-01-08 22:29:24.65	70.34	23.37	-52.6	-54.6	14.5	0.00e+00	0	24	0	590348288	70	4783
2026-01-08 22:29:28.63	71.42	23.51	-52.7	-54.8	14.4	0.00e+00	0	24	0	598736896	70	4906
2026-01-08 22:29:32.62	72.52	23.63	-52.8	-54.9	14.3	0.00e+00	0	24	0	606076928	70	4944
2026-01-08 22:29:36.63	73.62	23.74	-52.4	-54.4	14.6	0.00e+00	0	24	0	613416960	70	4685
2026-01-08 22:29:40.63	74.73	23.85	-51.8	-53.6	15.0	0.00e+00	0	24	0	620756992	70	4281
2026-01-08 22:29:44.62	75.85	23.94	-52.0	-53.9	14.8	0.00e+00	0	24	0	628097024	70	4397
2026-01-08 22:29:48.62	76.97	24.02	-51.7	-53.5	15.0	0.00e+00	0	24	0	635437056	70	4221
2026-01-08 22:29:52.61	78.09	24.09	-52.1	-53.9	14.8	0.00e+00	0	24	0	643825664	70	4433
2026-01-08 22:29:56.58	79.22	24.15	-52.1	-54.0	14.7	0.00e+00	0	24	0	651165696	70	4493
2026-01-08 22:30:00.57	80.35	24.20	-52.1	-54.0	14.8	0.00e+00	0	24	0	658505728	70	4457
2026-01-08 22:30:04.56	81.49	24.23	-52.1	-53.9	14.8	0.00e+00	0	24	0	665845760	70	4433
2026-01-08 22:30:08.54	82.63	24.26	-51.9	-53.7	14.9	0.00e+00	0	24	0	673185792	70	4319
2026-01-08 22:30:12.54	83.77	24.27	-52.0	-53.9	14.9	0.00e+00	0	24	0	680525824	70	4398
2026-01-08 22:30:16.53	84.91	24.27	-52.4	-54.4	14.6	0.00e+00	0	24	0	687865856	70	4693
2026-01-08 22:30:20.53	86.06	24.26	-52.0	-53.8	14.9	0.00e+00	0	24	0	695205888	70	4364
2026-01-08 22:30:24.53	87.20	24.24	-51.5	-53.3	15.0	0.00e+00	0	24	0	703594496	69	4350
2026-01-08 22:30:28.54	88.34	24.20	-52.4	-54.4	14.4	0.00e+00	0	24	0	710934528	69	4957
2026-01-08 22:30:32.53	89.48	24.16	-52.5	-54.6	14.5	0.00e+00	0	24	0	718274560	70	4773
2026-01-08 22:30:36.53	90.61	24.10	-52.2	-54.1	14.7	0.00e+00	0	24	0	725614592	70	4511
2026-01-08 22:30:40.54	91.75	24.03	-52.1	-54.0	14.7	0.00e+00	0	24	0	732954624	70	4462
2026-01-08 22:30:44.53	92.87	23.95	-52.4	-54.4	14.6	0.00e+00	0	24	0	740294656	70	4666
2026-01-08 22:30:48.53	93.99	23.86	-52.1	-54.0	14.8	0.00e+00	0	24	0	748683264	70	4461
2026-01-08 22:30:52.51	95.10	23.76	-52.1	-54.0	14.8	0.00e+00	0	24	0	756023296	70	4465
2026-01-08 22:30:56.51	96.20	23.65	-51.4	-53.1	15.1	0.00e+00	0	24	0	763363328	69	4283
2026-01-08 22:31:00.48	97.29	23.53	-51.4	-53.2	15.0	0.00e+00	0	24	0	770703360	69	4298
2026-01-08 22:31:04.47	98.38	23.40	-51.4	-53.2	15.0	0.00e+00	0	24	0	778043392	69	4300
2026-01-08 22:31:08.45	99.45	23.26	-51.2	-52.9	15.2	0.00e+00	0	24	0	785383424	69	4177
2026-01-08 22:31:12.45	100.52	23.10	-51.1	-52.7	15.1	0.00e+00	0	24	0	792723456	68	4328
2026-01-08 22:31:16.44	101.58	22.94	-50.0	-51.4	15.3	0.00e+00	0	24	0	800063488	66	4189
2026-01-08 22:31:20.46	102.63	22.77	-50.0	-51.4	15.3	0.00e+00	0	24	0	808452096	66	4183
2026-01-08 22:31:24.46	103.67	22.60	-49.9	-51.4	15.4	0.00e+00	0	24	0	815792128	66	4149
2026-01-08 22:31:28.46	104.70	22.41	-50.6	-52.2	15.0	0.00e+00	0	24	0	823132160	66	4569
2026-01-08 22:31:32.45	105.71	22.22	-50.8	-52.4	15.0	0.00e+00	0	24	0	830472192	67	4424
2026-01-08 22:31:36.44	106.71	22.02	-50.5	-52.1	15.2	0.00e+00	0	24	0	837812224	67	4270
2026-01-08 22:31:40.44	107.70	21.81	-50.7	-52.3	15.1	0.00e+00	0	24	0	845152256	67	4387
2026-01-08 22:31:44.44	108.67	21.60	-51.7	-53.5	14.7	0.00e+00	0	24	0	852492288	68	4733
2026-01-08 22:31:48.44	109.64	21.37	-52.1	-54.0	14.6	0.00e+00	0	24	0	860880896	69	4727
2026-01-08 22:31:52.43	110.58	21.15	-51.8	-53.7	14.8	0.00e+00	0	24	0	868220928	69	4556
2026-01-08 22:31:56.41	111.51	20.92	-51.2	-52.9	15.2	0.00e+00	0	24	0	875560960	69	4177
2026-01-08 22:32:00.41	112.43	20.68	-51.4	-53.1	14.9	0.00e+00	0	24	0	882900992	68	4545
2026-01-08 22:32:04.40	113.34	20.44	-51.6	-53.4	14.8	0.00e+00	0	24	0	890241024	68	4681
2026-01-08 22:32:08.39	114.23	20.19	-51.7	-53.6	14.7	0.00e+00	0	24	0	897581056	68	4762
2026-01-08 22:32:12.38	115.11	19.94	-51.5	-53.2	14.8	0.00e+00	0	24	0	904921088	68	4598
2026-01-08 22:32:16.38	115.98	19.68	-51.5	-53.3	14.8	0.00e+00	0	24	0	913309696	68	4621
2026-01-08 22:32:20.37	116.83	19.43	-51.4	-53.2	14.8	0.00e+00	0	24	0	920649728	68	4561
2026-01-08 22:32:24.37	117.66	19.16	-51.6	-53.4	14.7	0.00e+00	0	24	0	927989760	68	4692
2026-01-08 22:32:28.37	118.49	18.90	-51.7	-53.6	14.6	0.00e+00	0	24	0	935329792	68	4774
2026-01-08 22:32:32.36	119.30	18.63	-52.6	-54.7	14.3	0.00e+00	0	24	0	942669824	70	4826
2026-01-08 22:32:36.35	120.09	18.36	-52.0	-53.9	14.8	0.00e+00	0	24	0	950009856	70	4395
2026-01-08 22:32:40.36	120.87	18.09	-52.1	-54.0	14.7	0.00e+00	0	24	0	958398464	70	4470
2026-01-08 22:32:44.35	121.64	17.81	-52.5	-54.5	14.4	0.00e+00	0	24	0	965738496	70	4755
2026-01-08 22:32:48.37	122.40	17.53	-52.0	-53.9	14.8	0.00e+00	0	24	0	973078528	70	4422
2026-01-08 22:32:52.37	123.14	17.26	-52.3	-54.3	14.5	0.00e+00	0	24	0	980418560	70	4638
2026-01-08 22:32:56.36	123.87	16.98	-51.8	-53.7	14.9	0.00e+00	0	24	0	987758592	70	4297
2026-01-08 22:33:00.35	124.58	16.70	-52.3	-54.3	14.6	0.00e+00	0	24	0	995098624	70	4616
2026-01-08 22:33:04.32	125.28	16.42	-51.9	-53.8	14.8	0.00e+00	0	24	0	1002438656	70	4386
2026-01-08 22:33:08.31	125.97	16.14	-51.6	-53.5	14.8	0.00e+00	0	24	0	1010827264	69	4455
2026-01-08 22:33:12.31	126.65	15.85	-52.8	-55.0	14.1	0.00e+00	0	24	0	1018167296	70	5036
2026-01-08 22:33:16.29	127.31	15.57	-52.3	-54.4	14.5	0.00e+00	0	24	0	1025507328	70	4655
2026-01-08 22:33:20.28	127.96	15.29	-52.2	-54.2	14.6	0.00e+00	0	24	0	1032847360	70	4595
2026-01-08 22:33:24.28	128.61	15.01	-52.5	-54.6	14.4	0.00e+00	0	24	0	1040187392	70	4797
2026-01-08 22:33:28.27	129.23	14.72	-52.2	-54.3	14.5	0.00e+00	0	24	0	1047527424	70	4606
2026-01-08 22:33:32.26	129.85	14.44	-52.5	-54.6	14.3	0.00e+00	0	24	0	1054867456	70	4814
2026-01-08 22:33:36.25	130.46	14.16	-52.6	-54.7	14.2	0.00e+00	0	24	0	1062207488	70	4869
2026-01-08 22:33:40.24	131.05	13.88	-52.2	-54.2	14.5	0.00e+00	0	24	0	1070596096	70	4589
2026-01-08 22:33:44.24	131.64	13.59	-52.4	-54.5	14.4	0.00e+00	0	24	0	1077936128	70	4754
2026-01-08 22:33:48.24	132.21	13.31	-52.4	-54.6	14.3	0.00e+00	0	24	0	1085276160	70	4783
2026-01-08 22:33:52.24	132.78	13.03	-52.1	-54.2	14.5	0.00e+00	0	24	0	1092616192	70	4566
2026-01-08 22:33:56.23	133.33	12.75	-52.2	-54.2	14.5	0.00e+00	0	24	0	1099956224	70	4588
2026-01-08 22:34:00.23	133.88	12.47	-52.3	-54.4	14.4	0.00e+00	0	24	0	1107296256	70	4689
2026-01-08 22:34:04.22	134.41	12.19	-52.4	-54.5	14.3	0.00e+00	0	24	0	1114636288	70	4758
2026-01-08 22:34:08.21	134.93	11.92	-52.6	-54.8	14.2	0.00e+00	0	24	0	1123024896	70	4905
2026-01-08 22:34:12.22	135.45	11.64	-52.8	-55.1	14.0	0.00e+00	0	24	0	1130364928	70	5050
2026-01-08 22:34:16.21	135.95	11.37	-52.7	-54.9	14.1	0.00e+00	0	24	0	1137704960	70	4965
2026-01-08 22:34:20.20	136.45	11.09	-52.6	-54.8	14.2	0.00e+00	0	24	0	1145044992	70	4881
2026-01-08 22:34:24.19	136.94	10.82	-52.6	-54.9	14.1	0.00e+00	0	24	0	1152385024	70	4965
2026-01-08 22:34:28.18	137.42	10.55	-53.1	-55.5	13.9	0.00e+00	0	24	0	1159725056	71	5022
2026-01-08 22:34:32.18	137.89	10.28	-53.5	-56.2	13.6	0.00e+00	0	24	0	1167065088	72	5117
2026-01-08 22:34:36.17	138.35	10.01	-53.7	-56.6	13.3	0.00e+00	0	24	0	1175453696	72	5353
2026-01-08 22:34:40.16	138.80	9.74	-53.7	-56.5	13.4	0.00e+00	0	24	0	1182793728	72	5323
2026-01-08 22:34:44.16	139.25	9.48	-53.8	-56.7	13.3	0.00e+00	0	24	0	1190133760	72	5403
2026-01-08 22:34:48.14	139.69	9.21	-53.6	-56.4	13.4	0.00e+00	0	24	0	1197473792	72	5243
2026-01-08 22:34:52.14	140.12	8.95	-53.6	-56.3	13.5	0.00e+00	0	24	0	1204813824	72	5191
2026-01-08 22:34:56.10	140.54	8.69	-53.3	-55.8	13.8	0.00e+00	0	24	0	1212153856	72	4924
2026-01-08 22:35:00.08	140.95	8.43	-53.3	-56.0	13.7	0.00e+00	0	24	0	1219493888	72	4985
2026-01-08 22:35:04.08	141.36	8.17	-53.5	-56.3	13.4	0.00e+00	0	24	0	1226833920	72	5187
2026-01-08 22:35:08.07	141.77	7.92	-53.6	-56.4	13.4	0.00e+00	0	24	0	1235222528	72	5238
2026-01-08 22:35:12.06	142.16	7.66	-53.4	-56.1	13.5	0.00e+00	0	24	0	1242562560	72	5085
2026-01-08 22:35:16.05	142.55	7.40	-53.1	-55.7	13.8	0.00e+00	0	24	0	1249902592	72	4824
2026-01-08 22:35:20.04	142.93	7.15	-52.8	-55.3	14.1	0.00e+00	0	24	0	1257242624	72	4611
2026-01-08 22:35:24.05	143.31	6.90	-53.0	-55.5	13.9	0.00e+00	0	24	0	1264582656	72	4756
2026-01-08 22:35:28.05	143.68	6.65	-53.2	-56.0	13.6	0.00e+00	0	24	0	1271922688	72	4986
2026-01-08 22:35:32.03	144.05	6.40	-53.5	-56.3	13.3	0.00e+00	0	24	0	1279262720	72	5202
2026-01-08 22:35:36.03	144.41	6.15	-53.3	-56.1	13.4	0.00e+00	0	24	0	1287651328	72	5097
2026-01-08 22:35:40.02	144.76	5.91	-53.3	-56.0	13.5	0.00e+00	0	24	0	1294991360	72	5023
2026-01-08 22:35:44.02	145.11	5.66	-53.2	-56.0	13.5	0.00e+00	0	24	0	1302331392	72	5002
2026-01-08 22:35:48.02	145.45	5.42	-53.3	-56.2	13.3	0.00e+00	0	24	0	1309671424	72	5155
2026-01-08 22:35:52.03	145.79	5.18	-53.2	-56.0	13.4	0.00e+00	0	24	0	1317011456	72	5022
2026-01-08 22:35:56.01	146.12	4.94	-58.1	-74.1	3.8	1.49e+00	0	24	104	1322254336	81	23934
2026-01-08 22:36:00.00	146.44	4.70	-58.8	-74.9	3.8	1.49e+00	0	24	104	1322254336	82	24857
2026-01-08 22:36:04.00	146.77	4.46	-59.2	-75.3	3.8	1.49e+00	0	24	104	1322254336	83	24576
2026-01-08 22:36:08.01	147.08	4.22	-59.7	-75.7	3.8	1.49e+00	0	24	104	1322254336	84	24303
2026-01-08 22:36:12.00	147.40	3.99	-59.9	-75.9	3.8	1.49e+00	0	24	104	1322254336	84	24925
2026-01-08 22:36:16.00	147.70	3.76	-60.0	-76.1	3.8	1.49e+00	0	24	104	1322254336	85	23899
2026-01-08 22:36:20.00	148.01	3.52	-59.9	-76.0	3.8	1.49e+00	0	24	104	1322254336	85	23668
2026-01-08 22:36:24.01	148.30	3.29	-59.9	-75.9	3.8	1.49e+00	0	24	104	1322254336	85	23564
2026-01-08 22:36:28.01	148.60	3.06	-59.9	-75.9	3.8	1.49e+00	0	24	104	1322254336	85	23498
2026-01-08 22:36:32.00	148.89	2.83	-59.8	-75.9	3.8	1.49e+00	0	24	104	1322254336	85	23521
2026-01-08 22:36:36.00	149.17	2.61	-59.8	-75.9	3.8	1.49e+00	0	24	104	1322254336	85	23397
2026-01-08 22:36:40.00	149.45	2.38	-59.8	-75.9	3.8	1.49e+00	0	24	104	1322254336	85	23322
2026-01-08 22:36:44.00	149.73	2.16	-59.8	-75.8	3.8	1.49e+00	0	24	104	1322254336	85	23263
2026-01-08 22:36:47.99	150.00	1.94	-59.8	-75.8	3.8	1.49e+00	0	24	104	1322254336	85	23246

#Closed at: 2026-01-08 22:36:49
#Recorded file [1322 MB]: D:/lorett/data/31004_260109_012340.dat