passes_logs/2026/01/08/R3.2S_Murmansk/R3.2S_Murmansk__20260108_132518_SUOMI_NPP_rec.log

#Pass ID: 20260108_132518_SUOMI NPP
#Satellite: SUOMI NPP
#Configuration: NPP
#almurnet v.1.7.20251203
#Start time: 2026-01-08 13:25:19

#Version: 2.2.20231116
#Station: R3.2S_Murmansk
#Location: 33.079688 lon 68.888172 lat
#TLE: 1 37849U 11061A   26005.94084933  .00000134  00000+0  84554-4 0  9990
#TLE: 2 37849  98.7803 308.0679 0002567  79.1029 281.0436 14.19522657735426

#Time	Az	El	Level	Level2	SNR	BER	BlckErr	Temp	State	Recorded	gain1	gain2
2026-01-08 13:25:19.30	253.35	2.02	-57.9	-73.9	3.8	1.49e+00	0	22	0	0	82	22039
2026-01-08 13:25:22.34	253.68	2.14	-57.8	-73.8	3.8	1.49e+00	0	22	104	0	80	24494
2026-01-08 13:25:25.36	254.00	2.26	-57.8	-73.8	3.8	1.49e+00	0	22	104	0	80	24538
2026-01-08 13:25:28.39	254.34	2.38	-57.8	-73.8	3.8	1.49e+00	0	22	104	0	80	24532
2026-01-08 13:25:31.41	254.67	2.50	-57.8	-73.8	3.8	1.49e+00	0	23	104	0	80	24527
2026-01-08 13:25:34.44	255.00	2.62	-57.8	-73.8	3.8	1.49e+00	0	22	104	0	80	24463
2026-01-08 13:25:37.47	255.34	2.74	-57.8	-73.8	3.8	1.49e+00	0	23	104	0	80	24501
2026-01-08 13:25:40.49	255.68	2.86	-57.8	-73.8	3.8	1.49e+00	0	23	104	0	80	24525
2026-01-08 13:25:43.50	256.03	2.98	-57.8	-73.8	3.8	1.49e+00	0	23	104	0	80	24563
2026-01-08 13:25:46.53	256.37	3.10	-57.8	-73.7	3.8	1.49e+00	0	23	104	0	80	24403
2026-01-08 13:25:49.55	256.72	3.21	-57.8	-73.8	3.8	1.49e+00	0	23	104	0	80	24438
2026-01-08 13:25:52.57	257.07	3.33	-57.8	-73.8	3.8	1.49e+00	0	23	104	0	80	24502
2026-01-08 13:25:55.60	257.43	3.45	-57.8	-73.8	3.8	1.49e+00	0	23	104	0	80	24507
2026-01-08 13:25:58.63	257.78	3.57	-57.8	-73.7	3.8	1.49e+00	0	23	104	0	80	24237
2026-01-08 13:26:01.66	258.15	3.69	-57.8	-73.7	3.8	1.49e+00	0	23	104	0	80	24233
2026-01-08 13:26:04.68	258.51	3.80	-57.8	-73.7	3.8	1.49e+00	0	23	104	0	80	24358
2026-01-08 13:26:07.71	258.87	3.92	-57.8	-73.8	3.8	1.49e+00	0	23	104	0	80	24449
2026-01-08 13:26:10.73	259.24	4.03	-57.8	-73.6	3.8	1.49e+00	0	23	104	0	80	23896
2026-01-08 13:26:13.76	259.61	4.15	-57.8	-73.6	3.8	1.49e+00	0	23	104	0	80	24110
2026-01-08 13:26:16.79	259.99	4.26	-57.8	-73.8	3.8	1.49e+00	0	23	104	0	80	24530
2026-01-08 13:26:19.82	260.36	4.38	-57.8	-73.5	3.8	1.49e+00	0	23	104	0	80	23739
2026-01-08 13:26:22.84	260.74	4.49	-57.8	-73.3	3.8	1.49e+00	0	23	104	0	80	23058
2026-01-08 13:26:25.86	261.12	4.61	-57.8	-73.0	3.8	1.49e+00	0	23	104	0	80	22519
2026-01-08 13:26:28.89	261.51	4.72	-57.8	-73.7	3.8	1.49e+00	0	24	104	0	80	24377
2026-01-08 13:26:31.92	261.90	4.83	-57.6	-70.1	4.2	1.47e+00	0	24	0	0	80	15947
2026-01-08 13:26:34.94	262.29	4.94	-57.4	-67.6	5.3	6.08e-01	0	23	0	4194304	80	11996
2026-01-08 13:26:37.96	262.68	5.05	-56.6	-62.9	8.9	7.18e-03	0	24	0	10485760	79	7409
2026-01-08 13:26:40.98	263.08	5.16	-57.4	-66.3	6.2	5.19e-02	0	24	0	13631488	79	10971
2026-01-08 13:26:44.01	263.48	5.27	-53.3	-55.9	13.8	0.00e+00	0	23	0	18874368	73	4698
2026-01-08 13:26:47.02	263.88	5.38	-53.4	-56.1	13.4	0.00e+00	0	24	0	25165824	72	5061
2026-01-08 13:26:50.04	264.28	5.49	-53.3	-55.9	13.6	0.00e+00	0	24	0	30408704	72	4963
2026-01-08 13:26:53.05	264.69	5.60	-53.2	-55.8	13.6	0.00e+00	0	24	0	35651584	72	4924
2026-01-08 13:26:56.07	265.10	5.70	-53.5	-56.3	13.4	0.00e+00	0	24	0	41943040	72	5190
2026-01-08 13:26:59.09	265.51	5.81	-53.5	-56.2	13.4	0.00e+00	0	24	0	47185920	72	5153
2026-01-08 13:27:02.12	265.93	5.91	-53.4	-56.2	13.5	0.00e+00	0	24	0	53477376	72	5108
2026-01-08 13:27:05.13	266.35	6.02	-53.3	-56.0	13.6	0.00e+00	0	24	0	58720256	72	5013
2026-01-08 13:27:08.15	266.77	6.12	-53.4	-56.1	13.5	0.00e+00	0	24	0	63963136	72	5056
2026-01-08 13:27:11.17	267.19	6.22	-53.3	-56.1	13.5	0.00e+00	0	24	0	70254592	72	5044
2026-01-08 13:27:14.20	267.62	6.32	-53.8	-56.9	12.9	0.00e+00	0	24	0	75497472	72	5561
2026-01-08 13:27:17.23	268.05	6.42	-54.6	-58.4	12.0	1.50e-06	0	24	0	81788928	74	5919
2026-01-08 13:27:20.25	268.48	6.52	-54.9	-59.0	11.6	4.04e-05	0	24	0	87031808	75	5966
2026-01-08 13:27:23.28	268.92	6.62	-55.1	-59.6	11.1	1.05e-04	0	24	0	92274688	75	6366
2026-01-08 13:27:26.29	269.36	6.72	-55.3	-60.2	10.7	2.96e-04	0	24	0	98566144	75	6806
2026-01-08 13:27:29.32	269.80	6.82	-55.2	-59.8	11.0	2.27e-04	0	24	0	103809024	75	6515
2026-01-08 13:27:32.34	270.25	6.91	-54.3	-57.7	12.7	1.50e-06	0	24	0	110100480	75	5148
2026-01-08 13:27:35.36	270.69	7.00	-53.9	-56.9	13.2	0.00e+00	0	24	0	115343360	74	4963
2026-01-08 13:27:38.39	271.14	7.10	-54.1	-57.2	13.1	0.00e+00	0	24	0	120586240	74	5124
2026-01-08 13:27:41.42	271.60	7.19	-54.1	-57.2	13.1	0.00e+00	0	24	0	126877696	74	5140
2026-01-08 13:27:44.44	272.05	7.28	-54.0	-57.0	13.3	0.00e+00	0	24	0	132120576	74	4989
2026-01-08 13:27:47.47	272.51	7.37	-54.0	-56.9	13.4	0.00e+00	0	24	0	138412032	74	4933
2026-01-08 13:27:50.49	272.97	7.46	-53.5	-56.1	13.7	0.00e+00	0	24	0	143654912	73	4800
2026-01-08 13:27:53.52	273.44	7.55	-53.6	-56.2	13.7	0.00e+00	0	24	0	148897792	73	4846
2026-01-08 13:27:56.53	273.90	7.63	-53.7	-56.4	13.6	0.00e+00	0	24	0	155189248	73	4935
2026-01-08 13:27:59.56	274.37	7.72	-53.7	-56.5	13.5	0.00e+00	0	24	0	160432128	73	4998
2026-01-08 13:28:02.59	274.85	7.80	-53.7	-56.5	13.5	0.00e+00	0	24	0	166723584	73	4986
2026-01-08 13:28:05.61	275.32	7.88	-53.4	-56.0	13.8	0.00e+00	0	24	0	171966464	73	4710
2026-01-08 13:28:08.63	275.80	7.96	-53.3	-55.8	13.8	0.00e+00	0	24	0	177209344	72	4875
2026-01-08 13:28:11.65	276.27	8.04	-53.5	-56.2	13.5	0.00e+00	0	24	0	183500800	72	5117
2026-01-08 13:28:14.67	276.76	8.12	-53.5	-56.6	13.3	0.00e+00	0	24	0	188743680	72	5392
2026-01-08 13:28:17.70	277.24	8.19	-53.5	-56.7	13.2	0.00e+00	0	24	0	195035136	72	5446
2026-01-08 13:28:20.73	277.73	8.27	-53.5	-56.6	13.3	0.00e+00	0	24	0	200278016	72	5349
2026-01-08 13:28:23.75	278.22	8.34	-53.6	-56.8	13.2	0.00e+00	0	24	0	205520896	72	5469
2026-01-08 13:28:26.77	278.71	8.41	-53.2	-56.1	13.7	0.00e+00	0	24	0	211812352	72	5078
2026-01-08 13:28:29.80	279.20	8.48	-53.1	-55.8	13.8	0.00e+00	0	24	0	217055232	72	4899
2026-01-08 13:28:32.83	279.70	8.55	-53.4	-56.3	13.6	0.00e+00	0	24	0	223346688	72	5161
2026-01-08 13:28:35.85	280.20	8.61	-54.1	-57.4	13.0	0.00e+00	0	24	0	228589568	73	5554
2026-01-08 13:28:38.87	280.70	8.68	-54.4	-58.0	12.7	0.00e+00	0	24	0	234881024	74	5620
2026-01-08 13:28:41.89	281.20	8.74	-54.2	-57.5	13.0	0.00e+00	0	24	0	240123904	74	5305
2026-01-08 13:28:44.92	281.70	8.80	-54.1	-57.2	13.2	0.00e+00	0	24	0	245366784	74	5147
2026-01-08 13:28:47.94	282.21	8.86	-53.8	-56.7	13.6	0.00e+00	0	24	0	251658240	74	4855
2026-01-08 13:28:50.96	282.72	8.92	-53.8	-56.8	13.6	0.00e+00	0	24	0	256901120	74	4872
2026-01-08 13:28:53.99	283.23	8.97	-53.5	-56.2	13.8	0.00e+00	0	24	0	263192576	73	4842
2026-01-08 13:28:57.01	283.74	9.03	-53.5	-56.3	13.7	0.00e+00	0	24	0	268435456	73	4876
2026-01-08 13:29:00.03	284.25	9.08	-54.0	-57.0	13.3	0.00e+00	0	24	0	273678336	73	5285
2026-01-08 13:29:03.06	284.77	9.13	-54.0	-57.1	13.2	0.00e+00	0	24	0	279969792	73	5364
2026-01-08 13:29:06.09	285.29	9.18	-53.6	-56.3	13.8	0.00e+00	0	24	0	285212672	73	4884
2026-01-08 13:29:09.11	285.80	9.22	-53.6	-56.3	13.7	0.00e+00	0	24	0	291504128	73	4921
2026-01-08 13:29:12.13	286.32	9.27	-53.9	-56.9	13.4	0.00e+00	0	24	0	296747008	73	5272
2026-01-08 13:29:15.16	286.85	9.31	-53.5	-56.2	13.9	0.00e+00	0	24	0	301989888	73	4829
2026-01-08 13:29:18.19	287.37	9.35	-53.4	-56.0	14.0	0.00e+00	0	24	0	308281344	73	4749
2026-01-08 13:29:21.20	287.89	9.39	-53.8	-56.7	13.5	0.00e+00	0	24	0	313524224	73	5132
2026-01-08 13:29:24.23	288.42	9.42	-53.9	-56.9	13.4	0.00e+00	0	24	0	319815680	73	5270
2026-01-08 13:29:27.25	288.94	9.46	-53.9	-56.9	13.4	0.00e+00	0	24	0	325058560	73	5269
2026-01-08 13:29:30.28	289.47	9.49	-54.8	-58.6	12.4	0.00e+00	0	24	0	330301440	74	6002
2026-01-08 13:29:33.30	290.00	9.52	-55.2	-59.5	11.8	9.10e-06	0	24	0	336592896	75	6284
2026-01-08 13:29:36.32	290.53	9.55	-54.7	-58.4	12.7	1.50e-06	0	24	0	341835776	75	5561
2026-01-08 13:29:39.34	291.06	9.57	-54.8	-58.4	12.6	0.00e+00	0	24	0	348127232	75	5583
2026-01-08 13:29:42.36	291.59	9.60	-54.7	-58.4	12.6	1.50e-06	0	24	0	353370112	75	5581
2026-01-08 13:29:45.38	292.12	9.62	-54.7	-58.3	12.7	0.00e+00	0	24	0	358612992	75	5526
2026-01-08 13:29:48.41	292.66	9.64	-54.4	-57.9	13.0	0.00e+00	0	24	0	364904448	75	5224
2026-01-08 13:29:51.43	293.19	9.65	-54.4	-57.9	13.0	0.00e+00	0	24	0	370147328	75	5244
2026-01-08 13:29:54.46	293.73	9.67	-54.2	-57.5	13.2	0.00e+00	0	24	0	376438784	75	5039
2026-01-08 13:29:57.48	294.26	9.68	-53.9	-57.0	13.4	0.00e+00	0	24	0	381681664	74	5026
2026-01-08 13:30:00.50	294.80	9.69	-53.7	-56.6	13.5	0.00e+00	0	24	0	387973120	73	5085
2026-01-08 13:30:03.53	295.33	9.70	-53.7	-56.6	13.5	0.00e+00	0	24	0	393216000	73	5080
2026-01-08 13:30:06.55	295.87	9.71	-53.7	-56.6	13.5	0.00e+00	0	24	0	398458880	73	5087
2026-01-08 13:30:09.58	296.41	9.71	-53.5	-56.4	13.6	0.00e+00	0	24	0	404750336	73	4966
2026-01-08 13:30:12.61	296.94	9.72	-53.7	-56.7	13.5	0.00e+00	0	24	0	409993216	73	5111
2026-01-08 13:30:15.63	297.48	9.71	-53.5	-56.4	13.6	0.00e+00	0	24	0	416284672	73	4948
2026-01-08 13:30:18.65	298.01	9.71	-53.1	-55.7	13.9	0.00e+00	0	24	0	421527552	72	4857
2026-01-08 13:30:21.67	298.55	9.71	-53.0	-55.6	14.0	0.00e+00	0	24	0	426770432	72	4770
2026-01-08 13:30:24.70	299.09	9.70	-52.8	-55.4	14.1	0.00e+00	0	24	0	433061888	72	4655
2026-01-08 13:30:27.72	299.62	9.69	-52.5	-54.9	14.3	0.00e+00	0	24	0	438304768	71	4658
2026-01-08 13:30:30.74	300.16	9.68	-52.7	-55.1	14.1	0.00e+00	0	24	0	444596224	71	4786
2026-01-08 13:30:33.77	300.69	9.67	-53.0	-55.7	13.8	0.00e+00	0	24	0	449839104	71	5118
2026-01-08 13:30:36.78	301.22	9.65	-52.9	-55.4	14.0	0.00e+00	0	24	0	455081984	71	4966
2026-01-08 13:30:39.81	301.76	9.64	-52.8	-55.3	14.1	0.00e+00	0	24	0	461373440	71	4872
2026-01-08 13:30:42.83	302.29	9.62	-53.1	-55.8	13.7	0.00e+00	0	24	0	466616320	71	5207
2026-01-08 13:30:45.85	302.82	9.59	-53.1	-55.9	13.7	0.00e+00	0	24	0	472907776	71	5232
2026-01-08 13:30:48.87	303.35	9.57	-52.7	-55.2	14.1	0.00e+00	0	24	0	478150656	71	4820
2026-01-08 13:30:51.90	303.88	9.54	-52.6	-55.0	14.1	0.00e+00	0	24	0	483393536	71	4747
2026-01-08 13:30:54.93	304.41	9.52	-52.6	-55.0	14.1	0.00e+00	0	24	0	489684992	71	4749
2026-01-08 13:30:57.96	304.94	9.49	-52.6	-55.0	14.1	0.00e+00	0	24	0	494927872	71	4735
2026-01-08 13:31:00.98	305.47	9.45	-51.9	-54.1	14.5	0.00e+00	0	24	0	501219328	70	4531
2026-01-08 13:31:04.01	306.00	9.42	-51.7	-53.8	14.7	0.00e+00	0	24	0	506462208	70	4389
2026-01-08 13:31:07.03	306.52	9.38	-52.0	-54.2	14.5	0.00e+00	0	24	0	511705088	70	4565
2026-01-08 13:31:10.05	307.04	9.35	-52.3	-54.6	14.1	0.00e+00	0	24	0	517996544	70	4811
2026-01-08 13:31:13.08	307.57	9.31	-52.2	-54.4	14.3	0.00e+00	0	24	0	523239424	70	4698
2026-01-08 13:31:16.10	308.09	9.26	-52.1	-54.4	14.3	0.00e+00	0	24	0	529530880	70	4672
2026-01-08 13:31:19.12	308.60	9.22	-52.2	-54.6	14.2	0.00e+00	0	24	0	534773760	70	4785
2026-01-08 13:31:22.14	309.12	9.17	-52.1	-54.4	14.3	0.00e+00	0	24	0	540016640	70	4697
2026-01-08 13:31:25.17	309.64	9.12	-52.3	-54.7	14.2	0.00e+00	0	24	0	546308096	70	4854
2026-01-08 13:31:28.19	310.15	9.07	-52.4	-54.8	14.1	0.00e+00	0	24	0	551550976	70	4885
2026-01-08 13:31:31.21	310.66	9.02	-52.6	-55.1	13.9	0.00e+00	0	24	0	557842432	70	5095
2026-01-08 13:31:34.24	311.17	8.97	-53.0	-55.7	13.6	0.00e+00	0	24	0	563085312	71	5138
2026-01-08 13:31:37.25	311.68	8.91	-53.0	-55.7	13.7	0.00e+00	0	24	0	569376768	71	5137
2026-01-08 13:31:40.28	312.19	8.86	-52.5	-55.0	14.1	0.00e+00	0	24	0	574619648	71	4724
2026-01-08 13:31:43.29	312.69	8.80	-52.2	-54.5	14.4	0.00e+00	0	24	0	579862528	71	4482
2026-01-08 13:31:46.31	313.19	8.74	-51.7	-53.8	14.6	0.00e+00	0	24	0	586153984	70	4375
2026-01-08 13:31:49.34	313.70	8.67	-51.2	-53.1	14.9	0.00e+00	0	24	0	591396864	69	4261
2026-01-08 13:31:52.36	314.19	8.61	-51.1	-53.1	14.7	0.00e+00	0	24	0	597688320	68	4512
2026-01-08 13:31:55.38	314.69	8.54	-51.7	-53.8	14.3	0.00e+00	0	24	0	602931200	68	4887
2026-01-08 13:31:58.41	315.18	8.48	-51.6	-53.7	14.3	0.00e+00	0	24	0	608174080	68	4869
2026-01-08 13:32:01.44	315.68	8.41	-51.7	-53.8	14.3	0.00e+00	0	24	0	614465536	68	4892
2026-01-08 13:32:04.46	316.17	8.34	-51.7	-53.9	14.3	0.00e+00	0	24	0	619708416	68	4935
2026-01-08 13:32:07.48	316.65	8.26	-51.7	-53.8	14.3	0.00e+00	0	24	0	625999872	68	4896
2026-01-08 13:32:10.50	317.14	8.19	-52.0	-54.3	14.2	0.00e+00	0	24	0	631242752	69	4892
2026-01-08 13:32:13.53	317.62	8.11	-51.8	-54.0	14.3	0.00e+00	0	24	0	636485632	69	4741
2026-01-08 13:32:16.56	318.10	8.04	-51.1	-53.1	14.7	0.00e+00	0	24	0	642777088	68	4501
2026-01-08 13:32:19.58	318.58	7.96	-51.1	-53.0	14.7	0.00e+00	0	24	0	648019968	68	4489
2026-01-08 13:32:22.61	319.06	7.88	-51.6	-53.7	14.3	0.00e+00	0	24	0	654311424	68	4849
2026-01-08 13:32:25.64	319.53	7.80	-52.0	-54.3	14.2	0.00e+00	0	24	0	659554304	69	4879
2026-01-08 13:32:28.66	320.00	7.71	-52.0	-54.2	14.2	0.00e+00	0	24	0	664797184	69	4858
2026-01-08 13:32:31.68	320.47	7.63	-51.8	-54.1	14.3	0.00e+00	0	24	0	671088640	69	4781
2026-01-08 13:32:34.71	320.93	7.55	-52.0	-54.3	14.2	0.00e+00	0	24	0	676331520	69	4889
2026-01-08 13:32:37.72	321.39	7.46	-52.6	-55.1	13.8	0.00e+00	0	24	0	682622976	70	5086
2026-01-08 13:32:40.75	321.85	7.37	-52.8	-55.6	13.7	0.00e+00	0	24	0	687865856	71	5059
2026-01-08 13:32:43.78	322.31	7.28	-53.0	-55.9	13.5	0.00e+00	0	24	0	693108736	71	5235
2026-01-08 13:32:46.80	322.76	7.19	-52.9	-55.7	13.6	0.00e+00	0	24	0	699400192	71	5136
2026-01-08 13:32:49.82	323.21	7.10	-53.1	-56.1	13.4	0.00e+00	0	24	0	704643072	71	5347
2026-01-08 13:32:52.84	323.66	7.01	-53.4	-56.4	13.2	0.00e+00	0	24	0	710934528	71	5566
2026-01-08 13:32:55.87	324.11	6.91	-52.9	-55.7	13.6	0.00e+00	0	24	0	716177408	71	5159
2026-01-08 13:32:58.90	324.55	6.82	-52.9	-55.7	13.6	0.00e+00	0	24	0	721420288	71	5140
2026-01-08 13:33:01.92	324.99	6.72	-53.3	-56.4	13.1	0.00e+00	0	24	0	727711744	71	5573
2026-01-08 13:33:04.95	325.43	6.63	-53.6	-56.9	12.9	0.00e+00	0	24	0	732954624	72	5569
2026-01-08 13:33:07.98	325.87	6.53	-53.6	-56.9	12.9	0.00e+00	0	24	0	739246080	72	5573
2026-01-08 13:33:11.01	326.30	6.43	-54.0	-57.7	12.5	7.00e-07	0	24	0	744488960	73	5733
2026-01-08 13:33:14.02	326.73	6.33	-54.4	-58.5	11.8	6.80e-06	0	24	0	750780416	73	6322
2026-01-08 13:33:17.04	327.15	6.23	-54.5	-58.9	11.7	2.59e-05	0	24	0	756023296	74	6222
2026-01-08 13:33:20.07	327.58	6.13	-54.5	-58.6	11.9	6.80e-06	0	24	0	761266176	74	6039
2026-01-08 13:33:23.09	328.00	6.03	-54.1	-57.8	12.4	0.00e+00	0	24	0	767557632	74	5508
2026-01-08 13:33:26.12	328.41	5.92	-53.8	-57.3	12.7	0.00e+00	0	24	0	772800512	73	5479
2026-01-08 13:33:29.14	328.83	5.82	-53.9	-57.5	12.6	1.50e-06	0	24	0	779091968	74	5330
2026-01-08 13:33:32.17	329.24	5.71	-54.2	-58.0	12.3	7.00e-07	0	24	0	784334848	74	5640
2026-01-08 13:33:35.19	329.65	5.61	-54.3	-58.3	12.0	7.60e-06	0	25	0	789577728	74	5836
2026-01-08 13:33:38.21	330.06	5.50	-54.2	-58.1	12.1	4.50e-06	0	24	0	795869184	74	5677
2026-01-08 13:33:41.24	330.46	5.39	-54.0	-57.7	12.4	1.50e-06	0	24	0	801112064	74	5458
2026-01-08 13:33:44.26	330.86	5.29	-53.8	-57.3	12.7	0.00e+00	0	24	0	807403520	74	5214
2026-01-08 13:33:47.29	331.26	5.18	-53.7	-57.2	12.7	0.00e+00	0	24	0	812646400	73	5404
2026-01-08 13:33:50.32	331.65	5.07	-53.6	-57.1	12.7	0.00e+00	0	24	0	817889280	73	5385
2026-01-08 13:33:53.34	332.04	4.96	-58.0	-73.6	3.8	1.19e+00	0	25	104	823132160	81	22537
2026-01-08 13:33:56.37	332.43	4.85	-59.2	-75.3	3.8	1.49e+00	0	25	104	823132160	83	24494
2026-01-08 13:33:59.39	332.82	4.74	-59.9	-75.9	3.8	1.49e+00	0	24	104	823132160	84	24912
2026-01-08 13:34:02.42	333.20	4.62	-60.2	-76.2	3.8	1.49e+00	0	24	104	823132160	85	24314
2026-01-08 13:34:05.44	333.59	4.51	-60.3	-76.3	3.8	1.49e+00	0	25	104	823132160	85	24656
2026-01-08 13:34:08.47	333.96	4.40	-60.3	-76.4	3.8	1.49e+00	0	24	104	823132160	85	24780
2026-01-08 13:34:11.50	334.34	4.28	-60.3	-76.4	3.8	1.49e+00	0	25	104	823132160	85	24834
2026-01-08 13:34:14.52	334.71	4.17	-60.3	-76.4	3.8	1.49e+00	0	25	104	823132160	85	24850
2026-01-08 13:34:17.55	335.08	4.06	-60.2	-76.3	3.8	1.49e+00	0	25	104	823132160	85	24557
2026-01-08 13:34:20.57	335.45	3.94	-60.2	-76.3	3.8	1.49e+00	0	25	104	823132160	85	24449
2026-01-08 13:34:23.60	335.81	3.83	-60.2	-76.2	3.8	1.49e+00	0	25	104	823132160	85	24368
2026-01-08 13:34:26.63	336.17	3.71	-60.1	-76.2	3.8	1.49e+00	0	25	104	823132160	85	24263
2026-01-08 13:34:29.65	336.53	3.59	-60.1	-76.2	3.8	1.49e+00	0	25	104	823132160	85	24232
2026-01-08 13:34:32.68	336.89	3.48	-60.1	-76.2	3.8	1.49e+00	0	25	104	823132160	85	24226
2026-01-08 13:34:35.71	337.24	3.36	-60.1	-76.1	3.8	1.49e+00	0	25	104	823132160	85	24094
2026-01-08 13:34:38.73	337.59	3.24	-60.0	-76.1	3.8	1.49e+00	0	25	104	823132160	85	24042
2026-01-08 13:34:41.76	337.94	3.13	-60.0	-76.1	3.8	1.49e+00	0	25	104	823132160	85	23952
2026-01-08 13:34:44.78	338.29	3.01	-60.0	-76.1	3.8	1.49e+00	0	25	104	823132160	85	23929
2026-01-08 13:34:47.81	338.63	2.89	-60.0	-76.1	3.8	1.49e+00	0	25	104	823132160	85	23859
2026-01-08 13:34:50.84	338.97	2.77	-60.0	-76.0	3.8	1.49e+00	0	25	104	823132160	85	23831
2026-01-08 13:34:53.87	339.31	2.65	-60.0	-76.0	3.8	1.49e+00	0	25	104	823132160	85	23839
2026-01-08 13:34:56.90	339.64	2.53	-60.0	-76.0	3.8	1.49e+00	0	25	104	823132160	85	23777
2026-01-08 13:34:59.92	339.98	2.41	-59.9	-76.0	3.8	1.49e+00	0	25	104	823132160	85	23765
2026-01-08 13:35:02.95	340.31	2.29	-59.9	-76.0	3.8	1.49e+00	0	25	104	823132160	85	23710
2026-01-08 13:35:05.98	340.63	2.17	-59.9	-76.0	3.8	1.49e+00	0	25	104	823132160	85	23740
2026-01-08 13:35:09.01	340.96	2.05	-59.9	-76.0	3.8	1.49e+00	0	25	104	823132160	85	23692
2026-01-08 13:35:12.03	341.28	1.93	-59.9	-76.0	3.8	1.49e+00	0	25	104	823132160	85	23654

#Closed at: 2026-01-08 13:35:12
#Recorded file [823 MB]: D:/lorett/data/31004_260108_162519.dat