passes_logs/2026/01/08/R3.2S_Murmansk/R3.2S_Murmansk__20260108_034315_NOAA_20_JPSS-1_rec.log

#Pass ID: 20260108_034315_NOAA 20 (JPSS-1)
#Satellite: NOAA 20 (JPSS-1)
#Configuration: NOAA 20
#almurnet v.1.7.20251203
#Start time: 2026-01-08 03:43:17

#Version: 2.2.20231116
#Station: R3.2S_Murmansk
#Location: 33.079688 lon 68.888172 lat
#TLE: 1 43013U 17073A   26006.30790171  .00000126  00000+0  80695-4 0  9991
#TLE: 2 43013  98.7629 307.3394 0001808  51.8724 308.2615 14.19533762421505

#Time	Az	El	Level	Level2	SNR	BER	BlckErr	Temp	State	Recorded	gain1	gain2
2026-01-08 03:43:17.53	44.08	2.10	-57.4	-73.4	3.8	1.49e+00	0	23	0	0	81	22206
2026-01-08 03:43:21.52	43.85	2.34	-57.4	-73.4	3.8	1.49e+00	0	23	104	0	79	24799
2026-01-08 03:43:25.50	43.62	2.57	-57.3	-73.4	3.8	1.49e+00	0	23	104	0	79	24773
2026-01-08 03:43:29.49	43.39	2.81	-57.3	-73.4	3.8	1.49e+00	0	23	104	0	79	24796
2026-01-08 03:43:33.47	43.15	3.05	-57.3	-73.4	3.8	1.49e+00	0	23	104	0	79	24800
2026-01-08 03:43:37.45	42.91	3.29	-57.3	-73.3	3.8	1.49e+00	0	23	104	0	79	24628
2026-01-08 03:43:41.44	42.66	3.53	-57.3	-73.3	3.8	1.49e+00	0	23	104	0	79	24594
2026-01-08 03:43:45.42	42.41	3.77	-57.3	-73.4	3.8	1.49e+00	0	24	104	0	79	24805
2026-01-08 03:43:49.44	42.15	4.02	-57.3	-73.4	3.8	1.49e+00	0	24	104	0	79	24702
2026-01-08 03:43:53.42	41.89	4.26	-57.3	-73.2	3.8	1.49e+00	0	23	104	0	79	24213
2026-01-08 03:43:57.42	41.62	4.51	-57.3	-71.7	3.8	1.49e+00	0	24	104	0	79	20333
2026-01-08 03:44:01.42	41.35	4.76	-57.1	-69.1	4.4	1.25e+00	39	24	0	0	79	15052
2026-01-08 03:44:05.41	41.07	5.01	-56.8	-65.7	6.2	2.69e-01	0	24	0	7340032	79	10284
2026-01-08 03:44:09.40	40.79	5.26	-56.4	-63.3	8.0	1.95e-01	0	24	0	13631488	79	7795
2026-01-08 03:44:13.39	40.51	5.52	-54.1	-57.4	12.8	0.00e+00	0	24	0	18874368	74	5261
2026-01-08 03:44:17.38	40.22	5.78	-54.1	-57.3	13.0	7.00e-07	0	24	0	26214400	74	5205
2026-01-08 03:44:21.39	39.92	6.04	-54.0	-57.1	13.1	0.00e+00	0	24	0	33554432	74	5075
2026-01-08 03:44:25.38	39.62	6.30	-53.8	-56.8	13.3	0.00e+00	0	24	0	40894464	74	4873
2026-01-08 03:44:29.35	39.31	6.56	-53.8	-56.7	13.4	0.00e+00	0	24	0	48234496	74	4821
2026-01-08 03:44:33.31	39.00	6.82	-53.6	-56.4	13.5	0.00e+00	0	24	0	55574528	73	4967
2026-01-08 03:44:37.29	38.68	7.08	-53.5	-56.3	13.5	0.00e+00	0	24	0	63963136	73	4886
2026-01-08 03:44:41.26	38.35	7.35	-53.5	-56.2	13.6	0.00e+00	0	24	0	71303168	73	4862
2026-01-08 03:44:45.25	38.02	7.62	-53.4	-56.1	13.7	0.00e+00	0	24	0	78643200	73	4782
2026-01-08 03:44:49.24	37.68	7.89	-53.4	-56.0	13.8	0.00e+00	0	24	0	85983232	73	4726
2026-01-08 03:44:53.25	37.34	8.17	-53.3	-55.9	13.9	0.00e+00	0	24	0	93323264	73	4689
2026-01-08 03:44:57.24	36.98	8.44	-53.3	-55.9	13.9	0.00e+00	0	24	0	100663296	73	4669
2026-01-08 03:45:01.23	36.62	8.72	-53.3	-55.9	13.9	0.00e+00	0	24	0	108003328	73	4679
2026-01-08 03:45:05.24	36.26	9.00	-53.5	-56.1	13.8	0.00e+00	0	24	0	116391936	73	4761
2026-01-08 03:45:09.24	35.88	9.28	-53.4	-56.0	13.8	0.00e+00	0	24	0	123731968	73	4741
2026-01-08 03:45:13.22	35.50	9.56	-53.3	-55.7	14.0	0.00e+00	0	24	0	131072000	73	4598
2026-01-08 03:45:17.22	35.11	9.85	-53.4	-55.9	13.9	0.00e+00	0	24	0	138412032	73	4685
2026-01-08 03:45:21.22	34.71	10.14	-53.3	-55.8	14.0	0.00e+00	0	24	0	145752064	73	4633
2026-01-08 03:45:25.21	34.31	10.43	-53.3	-55.8	14.0	0.00e+00	0	24	0	153092096	73	4615
2026-01-08 03:45:29.20	33.89	10.72	-53.3	-55.8	14.0	0.00e+00	0	24	0	160432128	73	4640
2026-01-08 03:45:33.20	33.47	11.01	-53.4	-55.9	13.9	0.00e+00	0	24	0	167772160	73	4654
2026-01-08 03:45:37.19	33.04	11.31	-53.3	-55.7	14.1	0.00e+00	0	24	0	176160768	73	4556
2026-01-08 03:45:41.18	32.60	11.60	-53.2	-55.6	14.1	0.00e+00	0	24	0	183500800	73	4528
2026-01-08 03:45:45.17	32.15	11.90	-53.0	-55.3	14.2	0.00e+00	0	24	0	190840832	72	4615
2026-01-08 03:45:49.17	31.69	12.20	-52.9	-55.1	14.3	0.00e+00	0	24	0	198180864	72	4512
2026-01-08 03:45:53.16	31.22	12.51	-52.9	-55.1	14.3	0.00e+00	0	24	0	205520896	72	4505
2026-01-08 03:45:57.16	30.74	12.81	-52.9	-55.1	14.3	0.00e+00	0	24	0	212860928	72	4510
2026-01-08 03:46:01.17	30.25	13.12	-53.0	-55.2	14.3	0.00e+00	0	24	0	220200960	72	4570
2026-01-08 03:46:05.16	29.75	13.43	-53.0	-55.2	14.3	0.00e+00	0	24	0	228589568	72	4562
2026-01-08 03:46:09.14	29.24	13.73	-52.9	-55.1	14.3	0.00e+00	0	24	0	235929600	72	4500
2026-01-08 03:46:13.14	28.72	14.05	-52.7	-54.8	14.4	0.00e+00	0	24	0	243269632	71	4612
2026-01-08 03:46:17.13	28.18	14.36	-52.7	-54.9	14.3	0.00e+00	0	25	0	250609664	71	4664
2026-01-08 03:46:21.13	27.64	14.67	-52.6	-54.8	14.4	0.00e+00	0	24	0	257949696	71	4603
2026-01-08 03:46:25.14	27.08	14.99	-52.4	-54.4	14.6	0.00e+00	0	25	0	265289728	71	4425
2026-01-08 03:46:29.12	26.51	15.31	-52.3	-54.2	14.7	0.00e+00	0	24	0	272629760	71	4333
2026-01-08 03:46:33.10	25.93	15.62	-52.3	-54.2	14.5	0.00e+00	0	25	0	281018368	70	4589
2026-01-08 03:46:37.06	25.34	15.94	-52.3	-54.3	14.5	0.00e+00	0	25	0	288358400	70	4618
2026-01-08 03:46:41.02	24.74	16.26	-52.2	-54.2	14.5	0.00e+00	0	25	0	295698432	70	4555
2026-01-08 03:46:45.01	24.12	16.58	-52.2	-54.2	14.6	0.00e+00	0	25	0	303038464	70	4549
2026-01-08 03:46:49.00	23.48	16.90	-52.1	-54.0	14.7	0.00e+00	0	25	0	310378496	70	4481
2026-01-08 03:46:52.98	22.84	17.22	-52.2	-54.2	14.6	0.00e+00	0	24	0	317718528	70	4556
2026-01-08 03:46:56.96	22.18	17.54	-52.3	-54.2	14.6	0.00e+00	0	25	0	325058560	70	4596
2026-01-08 03:47:00.96	21.50	17.86	-52.5	-54.6	14.4	0.00e+00	0	25	0	332398592	70	4774
2026-01-08 03:47:04.96	20.80	18.19	-52.6	-54.7	14.3	0.00e+00	0	25	0	340787200	70	4818
2026-01-08 03:47:08.96	20.10	18.51	-52.5	-54.6	14.4	0.00e+00	0	25	0	348127232	70	4768
2026-01-08 03:47:12.95	19.37	18.83	-52.4	-54.3	14.5	0.00e+00	0	25	0	355467264	70	4648
2026-01-08 03:47:16.96	18.63	19.15	-52.5	-54.5	14.4	0.00e+00	0	25	0	362807296	70	4711
2026-01-08 03:47:20.93	17.88	19.47	-52.6	-54.6	14.4	0.00e+00	0	25	0	370147328	70	4804
2026-01-08 03:47:24.92	17.11	19.79	-52.5	-54.5	14.4	0.00e+00	0	24	0	377487360	70	4743
2026-01-08 03:47:28.91	16.33	20.11	-52.2	-54.1	14.7	0.00e+00	0	25	0	384827392	70	4502
2026-01-08 03:47:32.89	15.53	20.42	-52.1	-54.0	14.7	0.00e+00	0	25	0	393216000	70	4476
2026-01-08 03:47:36.89	14.71	20.73	-51.9	-53.8	14.8	0.00e+00	0	24	0	400556032	70	4352
2026-01-08 03:47:40.87	13.87	21.04	-51.7	-53.5	14.9	0.00e+00	0	25	0	407896064	70	4199
2026-01-08 03:47:44.85	13.02	21.35	-51.6	-53.4	14.9	0.00e+00	0	25	0	415236096	69	4392
2026-01-08 03:47:48.84	12.15	21.65	-51.5	-53.3	14.9	0.00e+00	0	25	0	422576128	69	4350
2026-01-08 03:47:52.83	11.26	21.95	-50.9	-52.5	15.1	0.00e+00	0	25	0	429916160	68	4240
2026-01-08 03:47:56.83	10.35	22.25	-50.9	-52.6	15.1	0.00e+00	0	25	0	437256192	68	4247
2026-01-08 03:48:00.80	9.44	22.54	-50.8	-52.4	15.2	0.00e+00	0	25	0	444596224	68	4189
2026-01-08 03:48:04.79	8.50	22.83	-51.0	-52.6	15.1	0.00e+00	0	25	0	452984832	68	4281
2026-01-08 03:48:08.79	7.54	23.11	-50.9	-52.5	15.1	0.00e+00	0	25	0	460324864	68	4240
2026-01-08 03:48:12.77	6.56	23.39	-50.8	-52.4	15.2	0.00e+00	0	25	0	467664896	68	4148
2026-01-08 03:48:16.76	5.57	23.66	-50.8	-52.4	15.2	0.00e+00	0	24	0	475004928	68	4176
2026-01-08 03:48:20.75	4.56	23.92	-51.0	-52.6	15.1	0.00e+00	0	25	0	482344960	68	4289
2026-01-08 03:48:24.74	3.53	24.18	-51.1	-52.8	15.0	0.00e+00	0	25	0	489684992	68	4355
2026-01-08 03:48:28.74	2.49	24.43	-51.0	-52.6	15.1	0.00e+00	0	24	0	497025024	68	4244
2026-01-08 03:48:32.74	1.42	24.67	-50.9	-52.4	15.2	0.00e+00	0	25	0	505413632	68	4190
2026-01-08 03:48:36.72	0.35	24.90	-50.7	-52.3	15.3	0.00e+00	0	24	0	512753664	68	4107
2026-01-08 03:48:40.71	359.26	25.12	-50.9	-52.4	15.2	0.00e+00	0	25	0	520093696	68	4178
2026-01-08 03:48:44.70	358.15	25.33	-50.5	-52.0	15.2	0.00e+00	0	25	0	527433728	67	4217
2026-01-08 03:48:48.68	357.03	25.53	-50.6	-52.1	15.1	0.00e+00	0	25	0	534773760	67	4283
2026-01-08 03:48:52.67	355.89	25.72	-50.9	-52.6	14.9	0.00e+00	0	25	0	542113792	67	4498
2026-01-08 03:48:56.67	354.74	25.90	-51.2	-52.8	14.8	0.00e+00	0	25	0	549453824	67	4647
2026-01-08 03:49:00.65	353.58	26.07	-51.4	-53.1	14.8	0.00e+00	0	25	0	556793856	68	4524
2026-01-08 03:49:04.64	352.41	26.23	-52.0	-53.8	14.7	0.00e+00	0	25	0	565182464	69	4610
2026-01-08 03:49:08.64	351.22	26.37	-51.9	-53.7	14.7	0.00e+00	0	25	0	572522496	69	4584
2026-01-08 03:49:12.63	350.02	26.50	-52.3	-54.2	14.5	0.00e+00	0	25	0	579862528	69	4826
2026-01-08 03:49:16.62	348.81	26.62	-52.4	-54.4	14.6	0.00e+00	0	25	0	587202560	70	4653
2026-01-08 03:49:20.63	347.59	26.72	-52.6	-54.5	14.5	0.00e+00	0	25	0	594542592	70	4750
2026-01-08 03:49:24.64	346.37	26.81	-52.4	-54.3	14.6	0.00e+00	0	25	0	601882624	70	4630
2026-01-08 03:49:28.64	345.13	26.88	-52.7	-54.7	14.4	0.00e+00	0	25	0	610271232	70	4851
2026-01-08 03:49:32.64	343.90	26.94	-52.7	-54.7	14.4	0.00e+00	0	25	0	617611264	70	4856
2026-01-08 03:49:36.63	342.66	26.99	-53.0	-55.1	14.3	0.00e+00	0	25	0	624951296	71	4784
2026-01-08 03:49:40.62	341.42	27.02	-52.9	-54.9	14.5	0.00e+00	0	25	0	632291328	71	4664
2026-01-08 03:49:44.61	340.18	27.04	-52.5	-54.4	14.7	0.00e+00	0	25	0	639631360	71	4397
2026-01-08 03:49:48.60	338.93	27.04	-52.4	-54.2	14.8	0.00e+00	0	25	0	646971392	71	4310
2026-01-08 03:49:52.59	337.69	27.02	-52.2	-54.0	14.9	0.00e+00	0	25	0	654311424	71	4230
2026-01-08 03:49:56.58	336.45	27.00	-51.7	-53.4	15.1	0.00e+00	0	25	0	661651456	70	4146
2026-01-08 03:50:00.59	335.21	26.95	-51.9	-53.6	15.0	0.00e+00	0	25	0	670040064	70	4268
2026-01-08 03:50:04.59	333.97	26.89	-51.5	-53.2	15.0	0.00e+00	0	25	0	677380096	69	4307
2026-01-08 03:50:08.58	332.74	26.82	-51.1	-52.7	15.1	0.00e+00	0	25	0	684720128	68	4300
2026-01-08 03:50:12.57	331.52	26.73	-51.1	-52.6	15.1	0.00e+00	0	24	0	692060160	68	4272
2026-01-08 03:50:16.57	330.30	26.63	-50.9	-52.4	15.2	0.00e+00	0	25	0	699400192	68	4163
2026-01-08 03:50:20.57	329.09	26.52	-50.9	-52.5	15.2	0.00e+00	0	25	0	706740224	68	4207
2026-01-08 03:50:24.58	327.88	26.39	-51.1	-52.7	15.1	0.00e+00	0	25	0	714080256	68	4327
2026-01-08 03:50:28.57	326.70	26.25	-51.0	-52.6	15.1	0.00e+00	0	25	0	722468864	68	4254
2026-01-08 03:50:32.56	325.52	26.09	-51.5	-53.2	14.9	0.00e+00	0	25	0	729808896	68	4559
2026-01-08 03:50:36.55	324.35	25.93	-51.4	-53.1	14.9	0.00e+00	0	25	0	737148928	68	4515
2026-01-08 03:50:40.54	323.20	25.75	-51.6	-53.2	14.8	0.00e+00	0	25	0	744488960	68	4592
2026-01-08 03:50:44.53	322.06	25.56	-52.2	-54.0	14.6	0.00e+00	0	25	0	751828992	69	4756
2026-01-08 03:50:48.51	320.94	25.36	-52.3	-54.2	14.5	0.00e+00	0	25	0	759169024	69	4818
2026-01-08 03:50:52.51	319.83	25.15	-52.2	-54.1	14.6	0.00e+00	0	25	0	766509056	69	4790
2026-01-08 03:50:56.50	318.73	24.93	-52.5	-54.4	14.5	0.00e+00	0	25	0	774897664	70	4690
2026-01-08 03:51:00.50	317.65	24.70	-52.6	-54.6	14.5	0.00e+00	0	24	0	782237696	70	4767
2026-01-08 03:51:04.50	316.58	24.46	-52.4	-54.3	14.6	0.00e+00	0	25	0	789577728	70	4629
2026-01-08 03:51:08.50	315.53	24.21	-52.6	-54.5	14.5	0.00e+00	0	24	0	796917760	70	4715
2026-01-08 03:51:12.48	314.51	23.95	-52.6	-54.6	14.5	0.00e+00	0	25	0	804257792	70	4767
2026-01-08 03:51:16.49	313.49	23.69	-52.4	-54.2	14.6	0.00e+00	0	25	0	811597824	70	4584
2026-01-08 03:51:20.50	312.49	23.42	-52.6	-54.5	14.5	0.00e+00	0	25	0	819986432	70	4754
2026-01-08 03:51:24.51	311.50	23.14	-52.1	-53.9	14.8	0.00e+00	0	25	0	827326464	70	4434
2026-01-08 03:51:28.50	310.54	22.86	-51.8	-53.5	15.0	0.00e+00	0	25	0	834666496	70	4220
2026-01-08 03:51:32.50	309.60	22.57	-51.6	-53.2	15.0	0.00e+00	0	25	0	842006528	69	4333
2026-01-08 03:51:36.50	308.67	22.28	-51.3	-52.9	15.1	0.00e+00	0	25	0	849346560	69	4186
2026-01-08 03:51:40.47	307.76	21.99	-51.4	-53.0	15.1	0.00e+00	0	25	0	856686592	69	4220
2026-01-08 03:51:44.45	306.88	21.69	-51.4	-53.0	15.1	0.00e+00	0	25	0	864026624	69	4222
2026-01-08 03:51:48.45	306.00	21.38	-51.4	-53.0	15.1	0.00e+00	0	25	0	871366656	69	4234
2026-01-08 03:51:52.44	305.14	21.07	-51.4	-53.1	15.1	0.00e+00	0	25	0	879755264	69	4251
2026-01-08 03:51:56.43	304.30	20.76	-51.3	-52.9	15.1	0.00e+00	0	25	0	887095296	69	4152
2026-01-08 03:52:00.41	303.48	20.45	-50.9	-52.5	15.2	0.00e+00	0	25	0	894435328	68	4207
2026-01-08 03:52:04.41	302.68	20.14	-50.7	-52.3	15.3	0.00e+00	0	25	0	901775360	68	4105
2026-01-08 03:52:08.42	301.88	19.82	-50.5	-52.0	15.2	0.00e+00	0	25	0	909115392	67	4233
2026-01-08 03:52:12.41	301.11	19.50	-50.5	-52.0	15.2	0.00e+00	0	25	0	916455424	67	4208
2026-01-08 03:52:16.39	300.36	19.18	-50.4	-51.8	15.3	0.00e+00	0	24	0	923795456	67	4144
2026-01-08 03:52:20.38	299.62	18.86	-50.3	-51.7	15.3	0.00e+00	0	24	0	932184064	67	4098
2026-01-08 03:52:24.39	298.89	18.54	-50.1	-51.6	15.2	0.00e+00	0	25	0	939524096	66	4264
2026-01-08 03:52:28.37	298.18	18.21	-50.2	-51.7	15.2	0.00e+00	0	25	0	946864128	66	4299
2026-01-08 03:52:32.37	297.49	17.89	-50.3	-51.7	15.1	0.00e+00	0	25	0	954204160	66	4340
2026-01-08 03:52:36.36	296.81	17.57	-50.3	-51.8	15.0	0.00e+00	0	25	0	961544192	66	4377
2026-01-08 03:52:40.32	296.15	17.25	-50.4	-52.0	15.0	0.00e+00	0	25	0	968884224	66	4452
2026-01-08 03:52:44.30	295.50	16.93	-50.5	-52.1	15.0	0.00e+00	0	25	0	976224256	66	4495
2026-01-08 03:52:48.29	294.86	16.61	-50.8	-52.4	14.8	0.00e+00	0	25	0	984612864	66	4685
2026-01-08 03:52:52.27	294.24	16.29	-51.2	-52.9	14.7	0.00e+00	0	25	0	991952896	67	4673
2026-01-08 03:52:56.24	293.63	15.97	-51.3	-52.9	14.7	0.00e+00	0	25	0	999292928	67	4700
2026-01-08 03:53:00.23	293.04	15.65	-51.7	-53.4	14.7	0.00e+00	0	25	0	1006632960	68	4692
2026-01-08 03:53:04.22	292.45	15.33	-51.5	-53.2	14.7	0.00e+00	0	25	0	1013972992	68	4590
2026-01-08 03:53:08.22	291.88	15.01	-51.5	-53.2	14.7	0.00e+00	0	25	0	1021313024	68	4589
2026-01-08 03:53:12.23	291.32	14.69	-51.6	-53.4	14.7	0.00e+00	0	25	0	1028653056	68	4671
2026-01-08 03:53:16.22	290.77	14.38	-52.0	-53.8	14.6	0.00e+00	0	25	0	1035993088	69	4644
2026-01-08 03:53:20.22	290.24	14.07	-51.9	-53.8	14.6	0.00e+00	0	25	0	1044381696	69	4611
2026-01-08 03:53:24.22	289.71	13.75	-52.1	-54.0	14.5	0.00e+00	0	25	0	1051721728	69	4720
2026-01-08 03:53:28.24	289.19	13.44	-52.4	-54.4	14.3	0.00e+00	0	25	0	1059061760	69	4950
2026-01-08 03:53:32.24	288.69	13.13	-52.4	-54.3	14.5	0.00e+00	0	25	0	1066401792	70	4651
2026-01-08 03:53:36.21	288.20	12.83	-52.3	-54.2	14.5	0.00e+00	0	25	0	1073741824	70	4554
2026-01-08 03:53:40.20	287.72	12.52	-52.4	-54.4	14.4	0.00e+00	0	25	0	1081081856	70	4653
2026-01-08 03:53:44.17	287.25	12.22	-52.6	-54.6	14.3	0.00e+00	0	25	0	1088421888	70	4783
2026-01-08 03:53:48.15	286.79	11.92	-52.7	-54.8	14.2	0.00e+00	0	25	0	1096810496	70	4884
2026-01-08 03:53:52.13	286.34	11.62	-53.0	-55.2	14.2	0.00e+00	0	25	0	1104150528	71	4817
2026-01-08 03:53:56.11	285.90	11.33	-53.3	-55.7	13.9	0.00e+00	0	25	0	1111490560	71	5103
2026-01-08 03:54:00.10	285.47	11.03	-53.3	-55.7	13.8	0.00e+00	0	25	0	1118830592	71	5137
2026-01-08 03:54:04.09	285.04	10.74	-53.3	-55.6	13.9	0.00e+00	0	25	0	1126170624	71	5061
2026-01-08 03:54:08.08	284.63	10.45	-53.3	-55.6	13.9	0.00e+00	0	25	0	1133510656	71	5062
2026-01-08 03:54:12.08	284.22	10.16	-53.4	-55.8	13.9	0.00e+00	0	25	0	1140850688	72	4876
2026-01-08 03:54:16.07	283.82	9.87	-53.4	-55.8	13.9	0.00e+00	0	25	0	1148190720	72	4916
2026-01-08 03:54:20.05	283.43	9.58	-53.3	-55.6	14.0	0.00e+00	0	25	0	1156579328	72	4804
2026-01-08 03:54:24.06	283.04	9.30	-53.4	-55.8	13.9	0.00e+00	0	25	0	1163919360	72	4897
2026-01-08 03:54:28.07	282.67	9.02	-53.6	-56.1	13.6	0.00e+00	0	25	0	1171259392	72	5048
2026-01-08 03:54:32.07	282.30	8.74	-53.8	-56.3	13.5	0.00e+00	0	25	0	1178599424	72	5215
2026-01-08 03:54:36.07	281.93	8.46	-53.7	-56.3	13.5	0.00e+00	0	25	0	1185939456	72	5207
2026-01-08 03:54:40.06	281.58	8.18	-54.0	-56.8	13.4	0.00e+00	0	25	0	1193279488	73	5165
2026-01-08 03:54:44.04	281.23	7.91	-54.2	-57.1	13.2	0.00e+00	0	25	0	1200619520	73	5353
2026-01-08 03:54:48.03	280.89	7.64	-54.3	-57.3	13.0	0.00e+00	0	25	0	1209008128	73	5468
2026-01-08 03:54:52.00	280.56	7.37	-54.2	-57.2	13.1	0.00e+00	0	25	0	1216348160	73	5417
2026-01-08 03:54:56.00	280.23	7.10	-54.0	-56.8	13.3	0.00e+00	0	25	0	1223688192	73	5175
2026-01-08 03:54:59.98	279.91	6.83	-54.0	-56.9	13.2	0.00e+00	0	25	0	1231028224	73	5255
2026-01-08 03:55:03.97	279.60	6.57	-54.0	-56.9	13.2	0.00e+00	0	25	0	1238368256	73	5263
2026-01-08 03:55:07.97	279.28	6.31	-54.2	-57.2	13.0	0.00e+00	0	25	0	1245708288	73	5440
2026-01-08 03:55:11.96	278.98	6.05	-54.2	-57.3	12.9	0.00e+00	0	25	0	1253048320	73	5527
2026-01-08 03:55:15.96	278.68	5.79	-54.2	-57.3	12.9	0.00e+00	0	25	0	1261436928	73	5474
2026-01-08 03:55:19.95	278.39	5.53	-54.5	-57.9	12.6	0.00e+00	0	25	0	1268776960	74	5553
2026-01-08 03:55:23.94	278.10	5.27	-54.6	-58.2	12.4	0.00e+00	0	25	0	1276116992	74	5733
2026-01-08 03:55:27.93	277.82	5.02	-54.6	-58.1	12.4	7.00e-07	0	25	0	1283457024	74	5669
2026-01-08 03:55:31.93	277.54	4.77	-58.9	-74.9	3.8	1.49e+00	0	25	104	1285554176	82	24931
2026-01-08 03:55:35.93	277.27	4.52	-59.6	-75.7	3.8	1.49e+00	0	25	104	1285554176	84	24265
2026-01-08 03:55:39.92	277.00	4.27	-60.1	-76.2	3.8	1.49e+00	0	25	104	1285554176	85	24161
2026-01-08 03:55:43.92	276.74	4.02	-60.3	-76.4	3.8	1.49e+00	0	25	104	1285554176	85	24933
2026-01-08 03:55:47.91	276.48	3.78	-60.5	-76.6	3.8	1.49e+00	0	25	104	1285554176	86	24061
2026-01-08 03:55:51.89	276.22	3.53	-60.5	-76.6	3.8	1.49e+00	0	25	104	1285554176	86	23873
2026-01-08 03:55:55.90	275.97	3.29	-60.4	-76.5	3.8	1.49e+00	0	25	104	1285554176	86	23633
2026-01-08 03:55:59.89	275.73	3.05	-60.3	-76.4	3.8	1.49e+00	0	25	104	1285554176	86	23454
2026-01-08 03:56:03.88	275.49	2.81	-60.2	-76.3	3.8	1.49e+00	0	25	104	1285554176	86	23257
2026-01-08 03:56:07.89	275.25	2.57	-60.2	-76.3	3.8	1.49e+00	0	25	104	1285554176	86	23118
2026-01-08 03:56:11.90	275.02	2.34	-60.2	-76.3	3.8	1.49e+00	0	25	104	1285554176	86	23072
2026-01-08 03:56:15.87	274.79	2.10	-60.1	-76.2	3.8	1.49e+00	0	25	104	1285554176	86	23033

#Closed at: 2026-01-08 03:56:19
#Recorded file [1285 MB]: D:/lorett/data/31004_260108_064317.dat