passes_logs/2026/01/08/R3.2S_Murmansk/R3.2S_Murmansk__20260108_213315_NOAA_21_JPSS-2_rec.log

#Pass ID: 20260108_213315_NOAA 21 (JPSS-2)
#Satellite: NOAA 21 (JPSS-2)
#Configuration: NOAA-21
#almurnet v.1.7.20251203
#Start time: 2026-01-08 21:33:16

#Version: 2.2.20231116
#Station: R3.2S_Murmansk
#Location: 33.079688 lon 68.888172 lat
#TLE: 1 54234U 22150A   26008.59854928  .00000127  00000+0  81204-4 0  9992
#TLE: 2 54234  98.7494 309.5759 0000887 327.7487  32.3634 14.19533414163905

#Time	Az	El	Level	Level2	SNR	BER	BlckErr	Temp	State	Recorded	gain1	gain2
2026-01-08 21:33:16.78	18.43	2.08	-57.5	-71.2	3.8	1.49e+00	0	22	0	0	81	17208
2026-01-08 21:33:19.77	18.71	2.22	-57.5	-71.1	3.8	1.49e+00	0	22	104	0	80	18007
2026-01-08 21:33:22.77	18.98	2.37	-57.5	-71.0	3.8	1.49e+00	0	22	104	0	80	17738
2026-01-08 21:33:25.77	19.26	2.51	-57.4	-71.0	3.8	1.49e+00	0	23	104	0	80	17844
2026-01-08 21:33:28.76	19.55	2.65	-57.5	-71.2	3.8	1.49e+00	0	22	104	0	80	18183
2026-01-08 21:33:31.76	19.83	2.80	-57.5	-71.2	3.8	1.49e+00	0	22	104	0	80	18189
2026-01-08 21:33:34.75	20.12	2.94	-57.5	-71.1	3.8	1.49e+00	0	23	104	0	80	18019
2026-01-08 21:33:37.75	20.41	3.08	-57.5	-71.0	3.8	1.49e+00	0	23	104	0	80	17867
2026-01-08 21:33:40.74	20.70	3.23	-57.5	-71.2	3.8	1.49e+00	0	23	104	0	80	18270
2026-01-08 21:33:43.74	20.99	3.37	-57.5	-71.1	3.8	1.49e+00	0	23	104	0	80	18060
2026-01-08 21:33:46.74	21.29	3.52	-57.5	-71.2	3.8	1.49e+00	0	23	104	0	80	18302
2026-01-08 21:33:49.74	21.59	3.66	-57.4	-70.8	3.8	1.49e+00	0	23	104	0	80	17348
2026-01-08 21:33:52.74	21.90	3.80	-57.4	-70.1	3.8	1.49e+00	0	23	104	0	80	16088
2026-01-08 21:33:55.74	22.21	3.95	-57.4	-70.3	3.8	1.49e+00	0	23	104	0	80	16321
2026-01-08 21:33:58.74	22.52	4.09	-57.2	-68.1	3.9	1.47e+00	0	23	104	0	80	12732
2026-01-08 21:34:01.74	22.83	4.24	-57.0	-65.6	5.0	6.83e-01	0	23	0	1048576	80	9544
2026-01-08 21:34:04.74	23.14	4.38	-56.4	-62.7	6.9	2.23e-01	0	23	0	10485760	79	7274
2026-01-08 21:34:07.74	23.46	4.53	-53.8	-56.8	11.7	7.62e-05	0	23	0	19922944	74	4914
2026-01-08 21:34:10.73	23.78	4.67	-51.4	-53.3	13.8	0.00e+00	0	23	0	29360128	69	4378
2026-01-08 21:34:13.74	24.11	4.82	-52.2	-54.4	13.0	0.00e+00	0	23	0	38797312	69	4942
2026-01-08 21:34:16.74	24.44	4.97	-54.6	-58.2	10.6	3.05e-04	0	23	0	48234496	74	5771
2026-01-08 21:34:19.73	24.77	5.11	-52.6	-54.9	12.9	0.00e+00	0	23	0	56623104	71	4671
2026-01-08 21:34:22.73	25.10	5.26	-53.4	-56.1	12.2	2.20e-06	0	23	0	66060288	71	5346
2026-01-08 21:34:25.74	25.44	5.40	-52.0	-54.1	13.4	0.00e+00	0	24	0	75497472	70	4500
2026-01-08 21:34:28.73	25.78	5.55	-51.7	-53.7	13.5	0.00e+00	0	23	0	84934656	69	4550
2026-01-08 21:34:31.73	26.12	5.69	-51.4	-53.3	13.8	0.00e+00	0	23	0	94371840	69	4381
2026-01-08 21:34:34.73	26.47	5.84	-51.0	-52.7	14.1	0.00e+00	0	23	0	103809024	68	4319
2026-01-08 21:34:37.73	26.82	5.98	-50.4	-52.1	14.3	0.00e+00	0	23	0	113246208	67	4250
2026-01-08 21:34:40.73	27.17	6.13	-50.6	-52.3	14.1	0.00e+00	0	24	0	122683392	67	4377
2026-01-08 21:34:43.71	27.53	6.27	-50.9	-52.6	13.9	0.00e+00	0	23	0	132120576	67	4533
2026-01-08 21:34:46.71	27.89	6.42	-50.8	-52.6	14.0	0.00e+00	0	24	0	141557760	67	4516
2026-01-08 21:34:49.72	28.25	6.56	-50.5	-52.1	14.2	0.00e+00	0	23	0	150994944	67	4280
2026-01-08 21:34:52.72	28.62	6.71	-50.4	-52.0	14.3	0.00e+00	0	23	0	160432128	67	4227
2026-01-08 21:34:55.72	28.99	6.85	-50.5	-52.2	14.2	0.00e+00	0	24	0	169869312	67	4320
2026-01-08 21:34:58.72	29.37	7.00	-50.5	-52.2	14.3	0.00e+00	0	24	0	179306496	67	4292
2026-01-08 21:35:01.72	29.74	7.14	-50.6	-52.3	14.1	0.00e+00	0	23	0	187695104	67	4369
2026-01-08 21:35:04.71	30.12	7.28	-50.6	-52.2	14.2	0.00e+00	0	24	0	197132288	67	4333
2026-01-08 21:35:07.71	30.51	7.43	-50.5	-52.1	14.3	0.00e+00	0	23	0	206569472	67	4277
2026-01-08 21:35:10.70	30.90	7.57	-50.3	-51.9	14.4	0.00e+00	0	24	0	216006656	67	4146
2026-01-08 21:35:13.69	31.29	7.71	-50.0	-51.5	14.5	0.00e+00	0	23	0	225443840	66	4238
2026-01-08 21:35:16.68	31.68	7.86	-50.0	-51.5	14.5	0.00e+00	0	24	0	234881024	66	4218
2026-01-08 21:35:19.68	32.08	8.00	-50.1	-51.7	14.4	0.00e+00	0	24	0	244318208	66	4300
2026-01-08 21:35:22.68	32.49	8.14	-50.2	-51.8	14.3	0.00e+00	0	24	0	253755392	66	4374
2026-01-08 21:35:25.67	32.89	8.28	-50.1	-51.7	14.4	0.00e+00	0	24	0	263192576	66	4317
2026-01-08 21:35:28.66	33.30	8.42	-50.0	-51.6	14.5	0.00e+00	0	24	0	272629760	66	4246
2026-01-08 21:35:31.65	33.72	8.56	-50.0	-51.5	14.5	0.00e+00	0	24	0	282066944	66	4209
2026-01-08 21:35:34.64	34.14	8.70	-49.8	-51.3	14.6	0.00e+00	0	24	0	291504128	66	4143
2026-01-08 21:35:37.63	34.56	8.84	-49.7	-51.2	14.5	0.00e+00	0	24	0	300941312	65	4327
2026-01-08 21:35:40.62	34.98	8.98	-49.7	-51.2	14.5	0.00e+00	0	24	0	309329920	65	4335
2026-01-08 21:35:43.61	35.41	9.12	-49.7	-51.2	14.5	0.00e+00	0	24	0	318767104	65	4300
2026-01-08 21:35:46.60	35.84	9.26	-49.7	-51.1	14.5	0.00e+00	0	24	0	328204288	65	4281
2026-01-08 21:35:49.60	36.28	9.39	-49.6	-51.1	14.6	0.00e+00	0	24	0	337641472	65	4247
2026-01-08 21:35:52.58	36.72	9.53	-49.5	-51.0	14.6	0.00e+00	0	24	0	347078656	65	4195
2026-01-08 21:35:55.57	37.17	9.67	-49.7	-51.1	14.6	0.00e+00	0	24	0	356515840	65	4274
2026-01-08 21:35:58.56	37.62	9.80	-49.6	-51.1	14.6	0.00e+00	0	24	0	365953024	65	4263
2026-01-08 21:36:01.56	38.07	9.93	-49.5	-51.0	14.7	0.00e+00	0	24	0	375390208	65	4197
2026-01-08 21:36:04.56	38.53	10.07	-49.4	-50.8	14.7	0.00e+00	0	24	0	384827392	65	4130
2026-01-08 21:36:07.56	38.99	10.20	-49.6	-51.0	14.6	0.00e+00	0	24	0	394264576	65	4228
2026-01-08 21:36:10.56	39.46	10.33	-49.6	-51.0	14.6	0.00e+00	0	24	0	403701760	65	4240
2026-01-08 21:36:13.56	39.93	10.46	-49.6	-51.1	14.6	0.00e+00	0	24	0	413138944	65	4253
2026-01-08 21:36:16.56	40.41	10.59	-49.5	-51.0	14.6	0.00e+00	0	24	0	422576128	65	4207
2026-01-08 21:36:19.57	40.89	10.72	-49.6	-51.1	14.6	0.00e+00	0	24	0	430964736	65	4249
2026-01-08 21:36:22.58	41.37	10.85	-49.6	-51.0	14.6	0.00e+00	0	24	0	441450496	65	4223
2026-01-08 21:36:25.58	41.86	10.98	-49.4	-50.8	14.7	0.00e+00	0	24	0	450887680	65	4117
2026-01-08 21:36:28.56	42.35	11.10	-49.3	-50.7	14.8	0.00e+00	0	24	0	459276288	65	4086
2026-01-08 21:36:31.56	42.84	11.23	-49.4	-50.8	14.8	0.00e+00	0	24	0	468713472	65	4102
2026-01-08 21:36:34.55	43.34	11.35	-49.5	-51.0	14.7	0.00e+00	0	24	0	478150656	65	4208
2026-01-08 21:36:37.54	43.84	11.47	-49.5	-51.0	14.6	0.00e+00	0	24	0	487587840	65	4200
2026-01-08 21:36:40.52	44.35	11.59	-49.6	-51.0	14.6	0.00e+00	0	24	0	497025024	65	4230
2026-01-08 21:36:43.51	44.86	11.71	-49.6	-51.1	14.6	0.00e+00	0	24	0	506462208	65	4253
2026-01-08 21:36:46.51	45.37	11.82	-49.4	-50.8	14.7	0.00e+00	0	24	0	515899392	65	4129
2026-01-08 21:36:49.52	45.89	11.94	-49.6	-51.0	14.6	0.00e+00	0	24	0	525336576	65	4207
2026-01-08 21:36:52.52	46.42	12.05	-49.5	-50.9	14.7	0.00e+00	0	24	0	534773760	65	4173
2026-01-08 21:36:55.52	46.94	12.17	-49.4	-50.8	14.8	0.00e+00	0	24	0	544210944	65	4110
2026-01-08 21:36:58.51	47.47	12.28	-49.3	-50.7	14.8	0.00e+00	0	24	0	553648128	65	4058
2026-01-08 21:37:01.51	48.01	12.39	-49.1	-50.4	14.8	0.00e+00	0	24	0	563085312	64	4187
2026-01-08 21:37:04.50	48.55	12.49	-49.3	-50.7	14.7	0.00e+00	0	24	0	571473920	64	4326
2026-01-08 21:37:07.49	49.09	12.60	-49.4	-50.9	14.6	0.00e+00	0	24	0	580911104	64	4396
2026-01-08 21:37:10.49	49.63	12.70	-49.3	-50.7	14.6	0.00e+00	0	24	0	590348288	64	4324
2026-01-08 21:37:13.49	50.18	12.80	-49.2	-50.5	14.7	0.00e+00	0	24	0	599785472	64	4242
2026-01-08 21:37:16.49	50.74	12.90	-49.2	-50.5	14.7	0.00e+00	0	24	0	609222656	64	4238
2026-01-08 21:37:19.48	51.29	13.00	-49.3	-50.6	14.7	0.00e+00	0	24	0	618659840	64	4286
2026-01-08 21:37:22.48	51.85	13.10	-49.4	-50.8	14.6	0.00e+00	0	24	0	628097024	64	4358
2026-01-08 21:37:25.48	52.42	13.19	-49.4	-50.8	14.6	0.00e+00	0	24	0	637534208	64	4389
2026-01-08 21:37:28.48	52.99	13.28	-49.3	-50.6	14.7	0.00e+00	0	24	0	646971392	64	4286
2026-01-08 21:37:31.47	53.56	13.37	-49.0	-50.4	14.8	0.00e+00	0	24	0	656408576	64	4164
2026-01-08 21:37:34.46	54.13	13.46	-49.0	-50.3	14.8	0.00e+00	0	24	0	665845760	64	4118
2026-01-08 21:37:37.45	54.71	13.54	-49.1	-50.4	14.8	0.00e+00	0	24	0	675282944	64	4179
2026-01-08 21:37:40.44	55.29	13.62	-49.3	-50.7	14.7	0.00e+00	0	24	0	684720128	64	4299
2026-01-08 21:37:43.44	55.87	13.70	-49.2	-50.5	14.7	0.00e+00	0	24	0	694157312	64	4237
2026-01-08 21:37:46.43	56.45	13.78	-49.0	-50.3	14.8	0.00e+00	0	24	0	702545920	64	4136
2026-01-08 21:37:49.43	57.05	13.85	-48.9	-50.2	14.9	0.00e+00	0	24	0	711983104	64	4067
2026-01-08 21:37:52.42	57.64	13.92	-48.8	-50.1	14.9	0.00e+00	0	24	0	721420288	64	4046
2026-01-08 21:37:55.43	58.23	13.99	-48.9	-50.2	14.9	0.00e+00	0	24	0	730857472	64	4072
2026-01-08 21:37:58.43	58.83	14.06	-48.8	-50.2	14.9	0.00e+00	0	24	0	740294656	64	4057
2026-01-08 21:38:01.43	59.43	14.13	-49.0	-50.3	14.8	0.00e+00	0	24	0	749731840	64	4130
2026-01-08 21:38:04.43	60.04	14.19	-48.9	-50.3	14.9	0.00e+00	0	24	0	759169024	64	4102
2026-01-08 21:38:07.42	60.64	14.24	-48.8	-50.1	15.0	0.00e+00	0	24	0	768606208	64	4012
2026-01-08 21:38:10.41	61.25	14.30	-48.8	-50.1	15.0	0.00e+00	0	24	0	778043392	64	4022
2026-01-08 21:38:13.40	61.86	14.35	-48.8	-50.1	14.9	0.00e+00	0	24	0	787480576	64	4029
2026-01-08 21:38:16.38	62.47	14.40	-48.8	-50.0	15.0	0.00e+00	0	24	0	796917760	64	4003
2026-01-08 21:38:19.38	63.08	14.45	-48.7	-50.0	14.8	0.00e+00	0	24	0	806354944	63	4237
2026-01-08 21:38:22.36	63.69	14.49	-48.8	-50.1	14.8	0.00e+00	0	24	0	814743552	63	4287
2026-01-08 21:38:25.36	64.31	14.54	-48.9	-50.3	14.7	0.00e+00	0	24	0	824180736	63	4347
2026-01-08 21:38:28.36	64.93	14.57	-49.1	-50.5	14.7	0.00e+00	0	24	0	833617920	63	4443
2026-01-08 21:38:31.36	65.55	14.61	-49.3	-50.7	14.5	0.00e+00	0	24	0	843055104	63	4565
2026-01-08 21:38:34.37	66.18	14.64	-49.1	-50.4	14.8	0.00e+00	0	24	0	852492288	64	4189
2026-01-08 21:38:37.36	66.80	14.67	-48.9	-50.2	14.9	0.00e+00	0	24	0	861929472	64	4076
2026-01-08 21:38:40.36	67.42	14.70	-49.0	-50.3	14.8	0.00e+00	0	24	0	871366656	64	4134
2026-01-08 21:38:43.34	68.05	14.72	-49.1	-50.5	14.8	0.00e+00	0	24	0	880803840	64	4202
2026-01-08 21:38:46.33	68.67	14.74	-49.0	-50.4	14.9	0.00e+00	0	24	0	890241024	64	4156
2026-01-08 21:38:49.33	69.30	14.75	-49.0	-50.3	14.9	0.00e+00	0	24	0	899678208	64	4132
2026-01-08 21:38:52.32	69.93	14.77	-49.1	-50.4	14.8	0.00e+00	0	24	0	909115392	64	4178
2026-01-08 21:38:55.33	70.56	14.78	-49.1	-50.5	14.8	0.00e+00	0	24	0	918552576	64	4220
2026-01-08 21:38:58.32	71.18	14.78	-49.2	-50.6	14.7	0.00e+00	0	24	0	927989760	64	4278
2026-01-08 21:39:01.31	71.81	14.79	-49.0	-50.3	14.8	0.00e+00	0	24	0	937426944	64	4130
2026-01-08 21:39:04.29	72.44	14.79	-49.1	-50.5	14.8	0.00e+00	0	24	0	945815552	64	4218
2026-01-08 21:39:07.29	73.07	14.78	-48.7	-50.0	15.0	0.00e+00	0	24	0	955252736	64	3987
2026-01-08 21:39:10.28	73.70	14.78	-48.9	-50.2	14.8	0.00e+00	0	24	0	964689920	63	4301
2026-01-08 21:39:13.27	74.32	14.77	-48.8	-50.1	14.8	0.00e+00	0	24	0	974127104	63	4260
2026-01-08 21:39:16.27	74.95	14.76	-48.8	-50.1	14.8	0.00e+00	0	24	0	983564288	63	4280
2026-01-08 21:39:19.28	75.58	14.74	-48.8	-50.1	14.8	0.00e+00	0	24	0	993001472	63	4269
2026-01-08 21:39:22.28	76.21	14.72	-48.9	-50.3	14.7	0.00e+00	0	24	0	1002438656	63	4346
2026-01-08 21:39:25.28	76.84	14.70	-49.0	-50.4	14.7	0.00e+00	0	24	0	1011875840	63	4401
2026-01-08 21:39:28.28	77.46	14.68	-48.9	-50.3	14.7	0.00e+00	0	24	0	1021313024	63	4365
2026-01-08 21:39:31.27	78.09	14.65	-49.0	-50.3	14.7	0.00e+00	0	24	0	1030750208	63	4381
2026-01-08 21:39:34.27	78.71	14.62	-49.1	-50.5	14.6	0.00e+00	0	24	0	1040187392	63	4470
2026-01-08 21:39:37.27	79.33	14.58	-48.9	-50.2	14.8	0.00e+00	0	24	0	1049624576	63	4328
2026-01-08 21:39:40.27	79.95	14.54	-48.9	-50.2	14.8	0.00e+00	0	24	0	1059061760	63	4328
2026-01-08 21:39:43.27	80.57	14.50	-49.0	-50.3	14.7	0.00e+00	0	24	0	1068498944	63	4384
2026-01-08 21:39:46.26	81.19	14.46	-48.9	-50.3	14.8	0.00e+00	0	24	0	1077936128	63	4348
2026-01-08 21:39:49.24	81.80	14.41	-49.1	-50.5	14.6	0.00e+00	0	24	0	1086324736	63	4465
2026-01-08 21:39:52.22	82.41	14.37	-49.2	-50.6	14.6	0.00e+00	0	24	0	1095761920	63	4510
2026-01-08 21:39:55.20	83.02	14.31	-48.9	-50.3	14.8	0.00e+00	0	24	0	1105199104	63	4341
2026-01-08 21:39:58.19	83.63	14.26	-49.0	-50.3	14.7	0.00e+00	0	24	0	1114636288	63	4385
2026-01-08 21:40:01.18	84.23	14.20	-48.8	-50.1	14.8	0.00e+00	0	24	0	1124073472	63	4285
2026-01-08 21:40:04.20	84.84	14.14	-49.0	-50.4	14.7	0.00e+00	0	24	0	1133510656	63	4400
2026-01-08 21:40:07.19	85.44	14.08	-49.0	-50.4	14.7	0.00e+00	0	24	0	1142947840	63	4400
2026-01-08 21:40:10.18	86.04	14.01	-48.8	-50.1	14.8	0.00e+00	0	24	0	1152385024	63	4291
2026-01-08 21:40:13.18	86.64	13.94	-48.9	-50.3	14.7	0.00e+00	0	24	0	1161822208	63	4367
2026-01-08 21:40:16.17	87.23	13.87	-48.9	-50.2	14.8	0.00e+00	0	24	0	1171259392	63	4328
2026-01-08 21:40:19.17	87.82	13.79	-48.9	-50.3	14.7	0.00e+00	0	24	0	1180696576	63	4355
2026-01-08 21:40:22.17	88.41	13.72	-49.0	-50.3	14.7	0.00e+00	0	24	0	1189085184	63	4378
2026-01-08 21:40:25.17	89.00	13.64	-49.0	-50.3	14.7	0.00e+00	0	24	0	1198522368	63	4365
2026-01-08 21:40:28.17	89.58	13.56	-49.1	-50.5	14.6	0.00e+00	0	24	0	1207959552	63	4455
2026-01-08 21:40:31.17	90.16	13.47	-49.3	-50.7	14.5	0.00e+00	0	24	0	1217396736	63	4563
2026-01-08 21:40:34.17	90.74	13.39	-49.0	-50.4	14.7	0.00e+00	0	24	0	1226833920	63	4417
2026-01-08 21:40:37.16	91.31	13.30	-49.1	-50.5	14.6	0.00e+00	0	24	0	1236271104	63	4454
2026-01-08 21:40:40.15	91.88	13.21	-49.1	-50.4	14.6	0.00e+00	0	24	0	1245708288	63	4432
2026-01-08 21:40:43.13	92.45	13.11	-49.0	-50.4	14.7	0.00e+00	0	24	0	1255145472	63	4410
2026-01-08 21:40:46.13	93.01	13.02	-49.0	-50.4	14.6	0.00e+00	0	24	0	1264582656	63	4404
2026-01-08 21:40:49.12	93.57	12.92	-48.8	-50.2	14.7	0.00e+00	0	24	0	1274019840	63	4295
2026-01-08 21:40:52.11	94.12	12.82	-48.8	-50.1	14.8	0.00e+00	0	24	0	1283457024	63	4280
2026-01-08 21:40:55.10	94.67	12.72	-48.8	-50.2	14.8	0.00e+00	0	24	0	1292894208	63	4311
2026-01-08 21:40:58.10	95.22	12.62	-48.9	-50.2	14.7	0.00e+00	0	24	0	1302331392	63	4333
2026-01-08 21:41:01.10	95.77	12.51	-49.2	-50.6	14.6	0.00e+00	0	24	0	1311768576	63	4499
2026-01-08 21:41:04.10	96.31	12.40	-49.0	-50.4	14.7	0.00e+00	0	24	0	1321205760	63	4405
2026-01-08 21:41:07.10	96.85	12.29	-49.0	-50.4	14.6	0.00e+00	0	24	0	1329594368	63	4426
2026-01-08 21:41:10.09	97.38	12.18	-48.9	-50.3	14.7	0.00e+00	0	24	0	1339031552	63	4355
2026-01-08 21:41:13.08	97.91	12.07	-49.1	-50.5	14.6	0.00e+00	0	24	0	1348468736	63	4479
2026-01-08 21:41:16.09	98.43	11.96	-49.3	-50.7	14.5	0.00e+00	0	24	0	1357905920	63	4559
2026-01-08 21:41:19.08	98.96	11.84	-49.5	-50.9	14.5	0.00e+00	0	24	0	1367343104	64	4413
2026-01-08 21:41:22.08	99.47	11.72	-49.4	-50.8	14.6	0.00e+00	0	24	0	1376780288	64	4358
2026-01-08 21:41:25.07	99.99	11.60	-49.3	-50.7	14.6	0.00e+00	0	24	0	1386217472	64	4334
2026-01-08 21:41:28.06	100.49	11.48	-49.4	-50.9	14.5	0.00e+00	0	24	0	1395654656	64	4399
2026-01-08 21:41:31.06	101.00	11.36	-49.4	-50.8	14.6	0.00e+00	0	24	0	1405091840	64	4367
2026-01-08 21:41:34.06	101.50	11.24	-49.5	-51.0	14.4	0.00e+00	0	24	0	1414529024	64	4475
2026-01-08 21:41:37.05	102.00	11.11	-49.6	-51.1	14.4	0.00e+00	0	24	0	1423966208	64	4534
2026-01-08 21:41:40.05	102.49	10.99	-49.6	-51.1	14.4	0.00e+00	0	24	0	1433403392	64	4521
2026-01-08 21:41:43.04	102.98	10.86	-49.8	-51.3	14.3	0.00e+00	0	24	0	1442840576	64	4618
2026-01-08 21:41:46.03	103.47	10.73	-49.7	-51.2	14.3	0.00e+00	0	24	0	1452277760	64	4576
2026-01-08 21:41:49.03	103.95	10.61	-49.8	-51.3	14.3	0.00e+00	0	24	0	1460666368	64	4615
2026-01-08 21:41:52.03	104.42	10.48	-49.8	-51.4	14.3	0.00e+00	0	24	0	1470103552	64	4654
2026-01-08 21:41:55.02	104.90	10.34	-49.9	-51.5	14.3	0.00e+00	0	24	0	1479540736	65	4451
2026-01-08 21:41:58.02	105.37	10.21	-50.0	-51.5	14.3	0.00e+00	0	24	0	1488977920	65	4483
2026-01-08 21:42:01.01	105.83	10.08	-49.9	-51.4	14.4	0.00e+00	0	24	0	1498415104	65	4408
2026-01-08 21:42:04.01	106.29	9.94	-49.9	-51.4	14.4	0.00e+00	0	24	0	1507852288	65	4424
2026-01-08 21:42:07.00	106.75	9.81	-50.0	-51.6	14.3	0.00e+00	0	24	0	1517289472	65	4494
2026-01-08 21:42:09.99	107.20	9.67	-50.0	-51.5	14.3	0.00e+00	0	24	0	1526726656	65	4466
2026-01-08 21:42:12.98	107.65	9.54	-50.1	-51.7	14.2	0.00e+00	0	24	0	1536163840	65	4552
2026-01-08 21:42:15.98	108.09	9.40	-50.3	-51.9	14.1	0.00e+00	0	24	0	1545601024	65	4672
2026-01-08 21:42:18.99	108.53	9.26	-50.3	-51.9	14.1	0.00e+00	0	24	0	1555038208	65	4694
2026-01-08 21:42:21.98	108.97	9.12	-50.2	-51.8	14.2	0.00e+00	0	24	0	1564475392	65	4630
2026-01-08 21:42:24.98	109.40	8.98	-50.2	-51.8	14.2	0.00e+00	0	24	0	1573912576	65	4602
2026-01-08 21:42:27.98	109.83	8.84	-50.2	-51.8	14.2	0.00e+00	0	24	0	1583349760	65	4612
2026-01-08 21:42:30.98	110.26	8.70	-50.3	-51.9	14.1	0.00e+00	0	24	0	1591738368	65	4694
2026-01-08 21:42:33.97	110.68	8.56	-50.2	-51.8	14.1	0.00e+00	0	24	0	1601175552	65	4612
2026-01-08 21:42:36.98	111.10	8.42	-50.3	-52.0	14.1	0.00e+00	0	24	0	1610612736	65	4706
2026-01-08 21:42:39.96	111.51	8.28	-50.3	-51.9	14.1	0.00e+00	0	24	0	1620049920	65	4679
2026-01-08 21:42:42.95	111.91	8.14	-50.1	-51.7	14.2	0.00e+00	0	24	0	1629487104	65	4567
2026-01-08 21:42:45.95	112.32	7.99	-50.2	-51.8	14.1	0.00e+00	0	24	0	1638924288	65	4636
2026-01-08 21:42:48.95	112.72	7.85	-50.4	-52.0	14.2	0.00e+00	0	24	0	1648361472	66	4474
2026-01-08 21:42:51.95	113.12	7.71	-50.3	-51.9	14.2	0.00e+00	0	24	0	1657798656	66	4435
2026-01-08 21:42:54.94	113.51	7.56	-50.5	-52.1	14.0	0.00e+00	0	24	0	1667235840	66	4543
2026-01-08 21:42:57.93	113.90	7.42	-50.4	-52.1	14.1	0.00e+00	0	24	0	1676673024	66	4513
2026-01-08 21:43:00.92	114.29	7.27	-50.5	-52.2	14.0	0.00e+00	0	24	0	1686110208	66	4555
2026-01-08 21:43:03.92	114.67	7.13	-50.6	-52.2	13.9	0.00e+00	0	24	0	1695547392	66	4596
2026-01-08 21:43:06.92	115.05	6.98	-50.6	-52.3	13.9	0.00e+00	0	24	0	1703936000	66	4651
2026-01-08 21:43:09.92	115.43	6.84	-50.6	-52.4	13.9	0.00e+00	0	24	0	1713373184	66	4667
2026-01-08 21:43:12.92	115.80	6.69	-50.9	-52.7	13.8	0.00e+00	0	24	0	1722810368	67	4558
2026-01-08 21:43:15.91	116.17	6.55	-50.9	-52.8	13.7	0.00e+00	0	24	0	1732247552	67	4616
2026-01-08 21:43:18.90	116.53	6.40	-50.8	-52.7	13.8	0.00e+00	0	24	0	1741684736	67	4546
2026-01-08 21:43:21.89	116.89	6.25	-50.9	-52.7	13.7	0.00e+00	0	24	0	1751121920	67	4573
2026-01-08 21:43:24.90	117.25	6.11	-51.0	-52.8	13.6	0.00e+00	0	24	0	1760559104	67	4646
2026-01-08 21:43:27.88	117.60	5.96	-50.8	-52.6	13.7	0.00e+00	0	24	0	1769996288	67	4539
2026-01-08 21:43:30.87	117.96	5.82	-51.0	-53.0	13.5	0.00e+00	0	24	0	1779433472	67	4711
2026-01-08 21:43:33.88	118.30	5.67	-51.6	-53.6	13.3	0.00e+00	0	24	0	1788870656	68	4799
2026-01-08 21:43:36.87	118.65	5.52	-51.0	-52.9	13.7	0.00e+00	0	24	0	1798307840	68	4407
2026-01-08 21:43:39.88	118.99	5.38	-51.1	-53.0	13.6	0.00e+00	0	24	0	1807745024	68	4473
2026-01-08 21:43:42.86	119.33	5.23	-51.1	-53.0	13.7	0.00e+00	0	24	0	1817182208	68	4447
2026-01-08 21:43:45.85	119.66	5.08	-51.2	-53.2	13.5	0.00e+00	0	24	0	1826619392	68	4572
2026-01-08 21:43:48.85	119.99	4.94	-57.8	-71.4	3.8	1.49e+00	0	25	104	1832910848	80	18589
2026-01-08 21:43:51.82	120.32	4.79	-58.5	-72.3	3.8	1.49e+00	0	24	104	1832910848	82	18381
2026-01-08 21:43:54.81	120.64	4.65	-59.0	-72.7	3.8	1.49e+00	0	24	104	1832910848	83	18287
2026-01-08 21:43:57.81	120.97	4.50	-59.2	-73.0	3.8	1.49e+00	0	24	104	1832910848	83	18891
2026-01-08 21:44:00.80	121.28	4.35	-59.4	-73.2	3.8	1.49e+00	0	24	104	1832910848	83	19335
2026-01-08 21:44:03.80	121.60	4.21	-59.7	-73.6	3.8	1.49e+00	0	24	104	1832910848	84	19037
2026-01-08 21:44:06.80	121.91	4.06	-59.8	-73.7	3.8	1.49e+00	0	25	104	1832910848	84	19245
2026-01-08 21:44:09.80	122.23	3.91	-59.9	-73.7	3.8	1.49e+00	0	25	104	1832910848	84	19341
2026-01-08 21:44:12.80	122.53	3.77	-60.0	-73.8	3.8	1.49e+00	0	25	104	1832910848	85	18383
2026-01-08 21:44:15.79	122.84	3.62	-60.1	-73.9	3.8	1.49e+00	0	25	104	1832910848	85	18682
2026-01-08 21:44:18.80	123.14	3.48	-59.9	-73.8	3.8	1.49e+00	0	25	104	1832910848	85	18415
2026-01-08 21:44:21.80	123.44	3.33	-59.9	-73.8	3.8	1.49e+00	0	25	104	1832910848	85	18409
2026-01-08 21:44:24.79	123.73	3.19	-59.9	-73.8	3.8	1.49e+00	0	25	104	1832910848	85	18336
2026-01-08 21:44:27.79	124.03	3.04	-59.9	-73.7	3.8	1.49e+00	0	25	104	1832910848	85	18224
2026-01-08 21:44:30.79	124.32	2.90	-59.9	-73.7	3.8	1.49e+00	0	25	104	1832910848	85	18242
2026-01-08 21:44:33.78	124.61	2.75	-59.8	-73.7	3.8	1.49e+00	0	25	104	1832910848	85	18133
2026-01-08 21:44:36.78	124.89	2.61	-59.9	-73.7	3.8	1.49e+00	0	25	104	1832910848	85	18218
2026-01-08 21:44:39.78	125.17	2.46	-59.8	-73.7	3.8	1.49e+00	0	25	104	1832910848	85	18112
2026-01-08 21:44:42.78	125.45	2.32	-59.8	-73.7	3.8	1.49e+00	0	25	104	1832910848	85	18109
2026-01-08 21:44:45.77	125.73	2.17	-59.8	-73.7	3.8	1.49e+00	0	25	104	1832910848	85	18137
2026-01-08 21:44:48.76	126.00	2.03	-59.8	-73.6	3.8	1.49e+00	0	25	104	1832910848	85	18065
2026-01-08 21:44:51.77	126.28	1.89	-59.8	-73.6	3.8	1.49e+00	0	25	104	1832910848	85	18034

#Closed at: 2026-01-08 21:44:51
#Recorded file [1832 MB]: D:/lorett/data/31004_260109_003316.dat