passes_logs/2026/01/08/R3.2S_Murmansk/R3.2S_Murmansk__20260108_070112_NOAA_20_JPSS-1_rec.log

#Pass ID: 20260108_070112_NOAA 20 (JPSS-1)
#Satellite: NOAA 20 (JPSS-1)
#Configuration: NOAA 20
#almurnet v.1.7.20251203
#Start time: 2026-01-08 07:01:12

#Version: 2.2.20231116
#Station: R3.2S_Murmansk
#Location: 33.079688 lon 68.888172 lat
#TLE: 1 43013U 17073A   26007.92906311  .00000097  00000+0  67117-4 0  9996
#TLE: 2 43013  98.7630 308.9434 0001752  49.5597 310.5732 14.19534161421734

#Time	Az	El	Level	Level2	SNR	BER	BlckErr	Temp	State	Recorded	gain1	gain2
2026-01-08 07:01:12.43	95.42	1.97	-57.4	-73.4	3.8	1.49e+00	0	23	0	0	81	22241
2026-01-08 07:01:16.44	95.21	2.21	-57.4	-73.4	3.8	1.49e+00	0	23	104	0	79	24762
2026-01-08 07:01:20.44	95.01	2.45	-57.4	-73.4	3.8	1.49e+00	0	23	104	0	79	24825
2026-01-08 07:01:24.45	94.80	2.69	-57.4	-73.4	3.8	1.49e+00	0	23	104	0	79	24764
2026-01-08 07:01:28.46	94.58	2.94	-57.4	-73.4	3.8	1.49e+00	0	23	104	0	79	24951
2026-01-08 07:01:32.45	94.37	3.18	-57.4	-73.4	3.8	1.49e+00	0	23	104	0	79	24729
2026-01-08 07:01:36.42	94.15	3.43	-57.4	-73.4	3.8	1.49e+00	0	23	104	0	79	24772
2026-01-08 07:01:40.41	93.92	3.68	-57.4	-73.3	3.8	1.49e+00	0	23	104	0	79	24596
2026-01-08 07:01:44.40	93.69	3.93	-57.4	-73.3	3.8	1.49e+00	0	23	104	0	79	24479
2026-01-08 07:01:48.40	93.46	4.18	-57.4	-73.3	3.8	1.49e+00	0	24	104	0	79	24511
2026-01-08 07:01:52.40	93.22	4.44	-57.3	-71.2	3.8	1.49e+00	0	24	104	0	79	19249
2026-01-08 07:01:56.39	92.98	4.69	-57.1	-68.0	4.8	8.07e-01	0	24	0	3145728	79	13392
2026-01-08 07:02:00.38	92.74	4.95	-56.8	-65.6	6.2	2.61e-01	0	24	0	10485760	79	10161
2026-01-08 07:02:04.37	92.49	5.21	-56.9	-65.9	6.1	6.03e-01	0	24	0	17825792	79	10484
2026-01-08 07:02:08.37	92.23	5.48	-55.4	-59.7	11.5	1.26e-03	0	24	0	23068672	77	5780
2026-01-08 07:02:12.38	91.97	5.74	-54.5	-58.1	12.6	0.00e+00	0	24	0	30408704	75	5343
2026-01-08 07:02:16.38	91.70	6.01	-54.0	-57.2	13.0	0.00e+00	0	24	0	37748736	74	5124
2026-01-08 07:02:20.37	91.43	6.28	-54.0	-57.1	13.1	0.00e+00	0	24	0	45088768	74	5074
2026-01-08 07:02:24.36	91.16	6.55	-53.9	-57.0	13.2	0.00e+00	0	24	0	53477376	74	4999
2026-01-08 07:02:28.36	90.87	6.82	-53.7	-56.6	13.5	0.00e+00	0	24	0	60817408	74	4792
2026-01-08 07:02:32.34	90.59	7.10	-53.8	-56.6	13.5	0.00e+00	0	24	0	68157440	74	4805
2026-01-08 07:02:36.32	90.30	7.37	-53.6	-56.4	13.5	0.00e+00	0	24	0	75497472	73	4936
2026-01-08 07:02:40.31	90.00	7.65	-53.5	-56.2	13.6	0.00e+00	0	24	0	82837504	73	4863
2026-01-08 07:02:44.30	89.69	7.94	-53.4	-56.1	13.7	0.00e+00	0	24	0	90177536	73	4774
2026-01-08 07:02:48.28	89.38	8.22	-53.3	-55.9	13.9	0.00e+00	0	24	0	97517568	73	4662
2026-01-08 07:02:52.27	89.06	8.51	-53.2	-55.7	13.8	0.00e+00	0	24	0	105906176	72	4857
2026-01-08 07:02:56.28	88.74	8.80	-53.2	-55.8	13.8	0.00e+00	0	24	0	113246208	72	4873
2026-01-08 07:03:00.28	88.41	9.09	-53.2	-55.7	13.8	0.00e+00	0	24	0	120586240	72	4857
2026-01-08 07:03:04.28	88.07	9.39	-53.0	-55.5	14.0	0.00e+00	0	24	0	127926272	72	4737
2026-01-08 07:03:08.27	87.73	9.68	-52.9	-55.2	14.2	0.00e+00	0	24	0	135266304	72	4577
2026-01-08 07:03:12.27	87.37	9.98	-52.9	-55.3	14.2	0.00e+00	0	24	0	142606336	72	4599
2026-01-08 07:03:16.26	87.01	10.29	-52.8	-55.0	14.3	0.00e+00	0	24	0	149946368	72	4493
2026-01-08 07:03:20.26	86.64	10.59	-52.8	-55.1	14.2	0.00e+00	0	24	0	158334976	72	4544
2026-01-08 07:03:24.24	86.27	10.90	-52.8	-55.1	14.2	0.00e+00	0	24	0	165675008	72	4528
2026-01-08 07:03:28.23	85.89	11.21	-52.8	-55.1	14.2	0.00e+00	0	24	0	173015040	72	4535
2026-01-08 07:03:32.22	85.49	11.52	-52.8	-55.1	14.2	0.00e+00	0	24	0	180355072	72	4536
2026-01-08 07:03:36.21	85.09	11.84	-52.8	-55.1	14.3	0.00e+00	0	24	0	187695104	72	4511
2026-01-08 07:03:40.19	84.68	12.15	-52.8	-55.1	14.3	0.00e+00	0	24	0	195035136	72	4502
2026-01-08 07:03:44.17	84.27	12.47	-52.8	-55.1	14.3	0.00e+00	0	24	0	202375168	72	4502
2026-01-08 07:03:48.18	83.84	12.80	-52.8	-55.0	14.3	0.00e+00	0	24	0	209715200	72	4477
2026-01-08 07:03:52.16	83.40	13.12	-52.8	-55.1	14.3	0.00e+00	0	24	0	218103808	72	4523
2026-01-08 07:03:56.16	82.95	13.45	-52.9	-55.1	14.3	0.00e+00	0	24	0	225443840	72	4534
2026-01-08 07:04:00.17	82.49	13.79	-52.8	-55.1	14.3	0.00e+00	0	24	0	232783872	72	4514
2026-01-08 07:04:04.17	82.02	14.12	-52.7	-54.9	14.3	0.00e+00	0	25	0	240123904	71	4686
2026-01-08 07:04:08.17	81.53	14.46	-52.6	-54.8	14.3	0.00e+00	0	25	0	247463936	71	4606
2026-01-08 07:04:12.18	81.04	14.80	-52.5	-54.6	14.4	0.00e+00	0	25	0	254803968	71	4536
2026-01-08 07:04:16.17	80.54	15.14	-52.6	-54.7	14.4	0.00e+00	0	24	0	263192576	71	4582
2026-01-08 07:04:20.16	80.02	15.48	-52.6	-54.8	14.3	0.00e+00	0	25	0	270532608	71	4605
2026-01-08 07:04:24.16	79.49	15.83	-52.6	-54.7	14.4	0.00e+00	0	24	0	277872640	71	4585
2026-01-08 07:04:28.16	78.95	16.18	-52.4	-54.5	14.5	0.00e+00	0	24	0	285212672	71	4483
2026-01-08 07:04:32.15	78.40	16.53	-52.1	-54.1	14.6	0.00e+00	0	24	0	292552704	70	4544
2026-01-08 07:04:36.13	77.83	16.88	-52.1	-54.0	14.6	0.00e+00	0	24	0	299892736	70	4481
2026-01-08 07:04:40.11	77.25	17.24	-52.1	-54.0	14.6	0.00e+00	0	24	0	307232768	70	4488
2026-01-08 07:04:44.09	76.66	17.60	-51.9	-53.8	14.7	0.00e+00	0	25	0	315621376	70	4388
2026-01-08 07:04:48.09	76.05	17.96	-51.9	-53.9	14.7	0.00e+00	0	24	0	322961408	70	4394
2026-01-08 07:04:52.09	75.42	18.32	-51.9	-53.9	14.7	0.00e+00	0	24	0	330301440	70	4395
2026-01-08 07:04:56.10	74.78	18.68	-51.8	-53.6	14.9	0.00e+00	0	24	0	337641472	70	4278
2026-01-08 07:05:00.11	74.12	19.05	-51.7	-53.6	14.9	0.00e+00	0	24	0	344981504	70	4260
2026-01-08 07:05:04.11	73.45	19.42	-52.0	-54.0	14.7	0.00e+00	0	24	0	352321536	70	4461
2026-01-08 07:05:08.10	72.76	19.78	-52.1	-54.1	14.6	0.00e+00	0	25	0	359661568	70	4507
2026-01-08 07:05:12.10	72.05	20.15	-52.3	-54.3	14.5	0.00e+00	0	24	0	368050176	70	4645
2026-01-08 07:05:16.11	71.33	20.52	-52.3	-54.2	14.5	0.00e+00	0	25	0	375390208	70	4593
2026-01-08 07:05:20.11	70.58	20.89	-52.4	-54.4	14.4	0.00e+00	0	24	0	382730240	70	4684
2026-01-08 07:05:24.10	69.83	21.26	-52.3	-54.3	14.5	0.00e+00	0	24	0	390070272	70	4638
2026-01-08 07:05:28.10	69.05	21.63	-51.9	-53.8	14.8	0.00e+00	0	24	0	397410304	70	4379
2026-01-08 07:05:32.09	68.25	22.00	-51.8	-53.6	14.9	0.00e+00	0	25	0	404750336	70	4268
2026-01-08 07:05:36.07	67.44	22.37	-51.8	-53.6	14.9	0.00e+00	0	24	0	412090368	70	4287
2026-01-08 07:05:40.06	66.60	22.73	-51.5	-53.3	14.9	0.00e+00	0	24	0	420478976	69	4342
2026-01-08 07:05:44.05	65.75	23.10	-51.4	-53.2	15.0	0.00e+00	0	24	0	427819008	69	4297
2026-01-08 07:05:48.04	64.87	23.46	-51.4	-53.1	15.0	0.00e+00	0	24	0	435159040	69	4276
2026-01-08 07:05:52.03	63.98	23.82	-51.1	-52.7	15.0	0.00e+00	0	25	0	442499072	68	4331
2026-01-08 07:05:56.01	63.06	24.18	-51.0	-52.7	15.0	0.00e+00	0	24	0	449839104	68	4315
2026-01-08 07:06:00.00	62.12	24.54	-51.0	-52.7	15.0	0.00e+00	0	24	0	457179136	68	4305
2026-01-08 07:06:04.01	61.16	24.89	-51.0	-52.6	15.1	0.00e+00	0	24	0	464519168	68	4289
2026-01-08 07:06:08.00	60.18	25.24	-51.3	-53.0	14.9	0.00e+00	0	25	0	472907776	68	4461
2026-01-08 07:06:12.01	59.17	25.58	-51.5	-53.3	14.8	0.00e+00	0	24	0	480247808	68	4629
2026-01-08 07:06:16.00	58.14	25.91	-51.5	-53.2	14.8	0.00e+00	0	25	0	487587840	68	4593
2026-01-08 07:06:19.99	57.10	26.24	-51.7	-53.5	14.6	0.00e+00	0	24	0	494927872	68	4743
2026-01-08 07:06:23.96	56.03	26.57	-51.7	-53.6	14.6	0.00e+00	0	24	0	502267904	68	4772
2026-01-08 07:06:27.94	54.94	26.88	-52.1	-54.0	14.6	0.00e+00	0	24	0	509607936	69	4723
2026-01-08 07:06:31.95	53.83	27.19	-52.1	-54.0	14.5	0.00e+00	0	25	0	516947968	69	4748
2026-01-08 07:06:35.94	52.69	27.49	-52.0	-53.8	14.6	0.00e+00	0	25	0	525336576	69	4628
2026-01-08 07:06:39.91	51.54	27.77	-52.0	-53.8	14.6	0.00e+00	0	25	0	532676608	69	4638
2026-01-08 07:06:43.89	50.37	28.05	-51.9	-53.8	14.7	0.00e+00	0	25	0	540016640	69	4605
2026-01-08 07:06:47.86	49.18	28.32	-52.0	-53.9	14.6	0.00e+00	0	25	0	547356672	69	4690
2026-01-08 07:06:51.85	47.97	28.57	-52.2	-54.2	14.5	0.00e+00	0	25	0	554696704	69	4821
2026-01-08 07:06:55.85	46.73	28.82	-52.3	-54.3	14.5	0.00e+00	0	25	0	562036736	69	4873
2026-01-08 07:06:59.84	45.47	29.05	-52.2	-54.1	14.5	0.00e+00	0	25	0	569376768	69	4794
2026-01-08 07:07:03.84	44.20	29.26	-52.7	-54.7	14.3	0.00e+00	0	24	0	576716800	70	4839
2026-01-08 07:07:07.83	42.91	29.47	-52.8	-54.8	14.4	0.00e+00	0	25	0	585105408	71	4647
2026-01-08 07:07:11.82	41.61	29.65	-53.0	-55.1	14.3	0.00e+00	0	25	0	592445440	71	4784
2026-01-08 07:07:15.81	40.29	29.82	-52.9	-55.0	14.4	0.00e+00	0	25	0	599785472	71	4714
2026-01-08 07:07:19.80	38.96	29.98	-52.7	-54.7	14.5	0.00e+00	0	24	0	607125504	71	4558
2026-01-08 07:07:23.78	37.62	30.12	-52.8	-54.8	14.4	0.00e+00	0	25	0	614465536	71	4634
2026-01-08 07:07:27.79	36.26	30.24	-53.1	-55.2	14.2	0.00e+00	0	25	0	621805568	71	4857
2026-01-08 07:07:31.79	34.89	30.34	-53.2	-55.4	14.1	0.00e+00	0	25	0	629145600	71	4958
2026-01-08 07:07:35.80	33.51	30.43	-53.4	-55.7	14.0	0.00e+00	0	25	0	637534208	71	5103
2026-01-08 07:07:39.77	32.14	30.49	-53.5	-55.8	14.0	0.00e+00	0	25	0	644874240	72	4921
2026-01-08 07:07:43.77	30.76	30.54	-53.8	-56.2	13.8	0.00e+00	0	25	0	652214272	72	5133
2026-01-08 07:07:47.76	29.37	30.57	-53.7	-56.1	13.9	0.00e+00	0	25	0	659554304	72	5088
2026-01-08 07:07:51.74	27.99	30.58	-53.6	-56.0	14.0	0.00e+00	0	25	0	666894336	72	4992
2026-01-08 07:07:55.73	26.60	30.57	-53.4	-55.6	14.2	0.00e+00	0	25	0	674234368	72	4784
2026-01-08 07:07:59.73	25.21	30.54	-52.9	-55.0	14.6	0.00e+00	0	25	0	681574400	72	4446
2026-01-08 07:08:03.71	23.83	30.50	-53.0	-55.0	14.5	0.00e+00	0	25	0	688914432	72	4483
2026-01-08 07:08:07.69	22.45	30.43	-52.8	-54.9	14.4	0.00e+00	0	25	0	697303040	71	4667
2026-01-08 07:08:11.69	21.08	30.35	-53.2	-55.4	14.2	0.00e+00	0	25	0	704643072	71	4962
2026-01-08 07:08:15.69	19.71	30.25	-52.7	-54.7	14.5	0.00e+00	0	25	0	711983104	71	4584
2026-01-08 07:08:19.69	18.36	30.13	-52.8	-54.9	14.4	0.00e+00	0	25	0	719323136	71	4653
2026-01-08 07:08:23.69	17.01	29.99	-52.9	-54.9	14.4	0.00e+00	0	25	0	726663168	71	4686
2026-01-08 07:08:27.70	15.67	29.83	-52.6	-54.6	14.6	0.00e+00	0	25	0	734003200	71	4516
2026-01-08 07:08:31.69	14.35	29.66	-53.0	-55.1	14.4	0.00e+00	0	25	0	741343232	71	4775
2026-01-08 07:08:35.69	13.05	29.48	-53.1	-55.3	14.2	0.00e+00	0	25	0	749731840	71	4891
2026-01-08 07:08:39.69	11.76	29.28	-53.4	-55.6	14.0	0.00e+00	0	25	0	757071872	71	5096
2026-01-08 07:08:43.67	10.49	29.06	-53.4	-55.7	14.1	0.00e+00	0	25	0	764411904	72	4834
2026-01-08 07:08:47.67	9.23	28.83	-53.4	-55.7	14.1	0.00e+00	0	25	0	771751936	72	4841
2026-01-08 07:08:51.66	8.00	28.59	-53.9	-56.3	13.7	0.00e+00	0	25	0	779091968	72	5216
2026-01-08 07:08:55.63	6.79	28.34	-53.7	-56.0	14.1	0.00e+00	0	25	0	786432000	73	4729
2026-01-08 07:08:59.61	5.60	28.07	-53.3	-55.5	14.4	0.00e+00	0	25	0	793772032	73	4454
2026-01-08 07:09:03.61	4.42	27.79	-53.2	-55.3	14.3	0.00e+00	0	25	0	802160640	72	4649
2026-01-08 07:09:07.61	3.26	27.50	-53.2	-55.3	14.4	0.00e+00	0	25	0	809500672	72	4624
2026-01-08 07:09:11.61	2.13	27.21	-52.8	-54.8	14.6	0.00e+00	0	25	0	816840704	72	4379
2026-01-08 07:09:15.60	1.02	26.90	-52.8	-54.8	14.6	0.00e+00	0	25	0	824180736	72	4385
2026-01-08 07:09:19.60	359.92	26.58	-52.5	-54.5	14.6	0.00e+00	0	25	0	831520768	71	4453
2026-01-08 07:09:23.58	358.86	26.26	-52.4	-54.3	14.7	0.00e+00	0	25	0	838860800	71	4390
2026-01-08 07:09:27.58	357.81	25.93	-52.4	-54.3	14.8	0.00e+00	0	25	0	846200832	71	4351
2026-01-08 07:09:31.57	356.78	25.60	-52.1	-54.0	14.7	0.00e+00	0	25	0	854589440	70	4457
2026-01-08 07:09:35.57	355.78	25.26	-51.8	-53.6	14.9	0.00e+00	0	25	0	861929472	70	4263
2026-01-08 07:09:39.57	354.80	24.91	-51.5	-53.2	15.0	0.00e+00	0	25	0	869269504	69	4304
2026-01-08 07:09:43.55	353.84	24.56	-51.0	-52.6	15.1	0.00e+00	0	25	0	876609536	68	4291
2026-01-08 07:09:47.52	352.91	24.21	-50.8	-52.3	15.2	0.00e+00	0	24	0	883949568	68	4115
2026-01-08 07:09:51.50	351.99	23.85	-50.5	-52.0	15.2	0.00e+00	0	25	0	891289600	67	4237
2026-01-08 07:09:55.49	351.10	23.49	-50.2	-51.7	15.3	0.00e+00	0	25	0	898629632	67	4079
2026-01-08 07:09:59.48	350.22	23.13	-49.6	-51.0	15.3	0.00e+00	0	25	0	905969664	65	4237
2026-01-08 07:10:03.47	349.37	22.77	-49.6	-51.0	15.3	0.00e+00	0	25	0	914358272	65	4224
2026-01-08 07:10:07.48	348.53	22.40	-49.5	-51.0	15.3	0.00e+00	0	25	0	921698304	65	4196
2026-01-08 07:10:11.47	347.72	22.03	-49.4	-50.8	15.4	0.00e+00	0	25	0	929038336	65	4140
2026-01-08 07:10:15.46	346.92	21.66	-49.8	-51.2	15.2	0.00e+00	0	25	0	936378368	65	4337
2026-01-08 07:10:19.46	346.14	21.30	-49.9	-51.4	15.1	0.00e+00	0	25	0	943718400	65	4398
2026-01-08 07:10:23.45	345.39	20.93	-50.1	-51.6	15.1	0.00e+00	0	25	0	951058432	65	4501
2026-01-08 07:10:27.44	344.65	20.56	-50.1	-51.6	15.1	0.00e+00	0	24	0	958398464	65	4499
2026-01-08 07:10:31.45	343.92	20.19	-50.2	-51.8	15.0	0.00e+00	0	25	0	966787072	65	4615
2026-01-08 07:10:35.45	343.22	19.82	-50.8	-52.5	14.8	0.00e+00	0	24	0	974127104	66	4715
2026-01-08 07:10:39.45	342.53	19.45	-50.8	-52.4	14.8	0.00e+00	0	25	0	981467136	66	4673
2026-01-08 07:10:43.45	341.86	19.09	-51.1	-52.8	14.8	0.00e+00	0	24	0	988807168	67	4627
2026-01-08 07:10:47.44	341.20	18.72	-51.2	-52.9	14.7	0.00e+00	0	24	0	996147200	67	4691
2026-01-08 07:10:51.42	340.57	18.36	-51.1	-52.8	14.8	0.00e+00	0	25	0	1003487232	67	4622
2026-01-08 07:10:55.40	339.94	18.00	-51.3	-53.0	14.7	0.00e+00	0	25	0	1010827264	67	4756
2026-01-08 07:10:59.39	339.34	17.64	-51.6	-53.5	14.7	0.00e+00	0	25	0	1019215872	68	4712
2026-01-08 07:11:03.38	338.74	17.29	-51.6	-53.3	14.7	0.00e+00	0	25	0	1026555904	68	4643
2026-01-08 07:11:07.37	338.16	16.93	-51.7	-53.5	14.6	0.00e+00	0	25	0	1033895936	68	4746
2026-01-08 07:11:11.36	337.60	16.58	-52.0	-53.9	14.6	0.00e+00	0	25	0	1041235968	69	4678
2026-01-08 07:11:15.34	337.04	16.23	-52.0	-53.9	14.6	0.00e+00	0	25	0	1048576000	69	4656
2026-01-08 07:11:19.33	336.50	15.88	-52.1	-54.0	14.5	0.00e+00	0	25	0	1055916032	69	4722
2026-01-08 07:11:23.33	335.98	15.54	-52.2	-54.1	14.5	0.00e+00	0	25	0	1063256064	69	4795
2026-01-08 07:11:27.32	335.46	15.19	-52.1	-54.1	14.5	0.00e+00	0	25	0	1070596096	69	4778
2026-01-08 07:11:31.32	334.96	14.85	-52.3	-54.2	14.4	0.00e+00	0	25	0	1078984704	69	4870
2026-01-08 07:11:35.32	334.47	14.51	-52.4	-54.4	14.3	0.00e+00	0	25	0	1086324736	69	4982
2026-01-08 07:11:39.31	333.99	14.18	-52.5	-54.5	14.4	0.00e+00	0	25	0	1093664768	70	4740
2026-01-08 07:11:43.30	333.52	13.84	-52.3	-54.3	14.5	0.00e+00	0	25	0	1101004800	70	4626
2026-01-08 07:11:47.29	333.06	13.51	-52.4	-54.4	14.4	0.00e+00	0	25	0	1108344832	70	4684
2026-01-08 07:11:51.26	332.61	13.18	-52.5	-54.7	14.3	0.00e+00	0	25	0	1115684864	70	4824
2026-01-08 07:11:55.25	332.18	12.86	-52.7	-54.9	14.1	0.00e+00	0	25	0	1123024896	70	4956
2026-01-08 07:11:59.25	331.75	12.54	-52.7	-54.9	14.1	0.00e+00	0	25	0	1131413504	70	4941
2026-01-08 07:12:03.24	331.33	12.22	-52.7	-54.9	14.1	0.00e+00	0	25	0	1138753536	70	4937
2026-01-08 07:12:07.24	330.92	11.90	-52.9	-55.1	14.2	0.00e+00	0	25	0	1146093568	71	4786
2026-01-08 07:12:11.24	330.52	11.58	-53.1	-55.5	13.9	0.00e+00	0	25	0	1153433600	71	4989
2026-01-08 07:12:15.23	330.13	11.27	-53.1	-55.5	13.9	0.00e+00	0	25	0	1160773632	71	5011
2026-01-08 07:12:19.23	329.74	10.96	-53.0	-55.3	14.0	0.00e+00	0	24	0	1168113664	71	4910
2026-01-08 07:12:23.22	329.37	10.65	-52.9	-55.2	14.1	0.00e+00	0	25	0	1175453696	71	4830
2026-01-08 07:12:27.21	329.00	10.35	-52.9	-55.2	14.1	0.00e+00	0	25	0	1183842304	71	4820
2026-01-08 07:12:31.20	328.65	10.05	-53.1	-55.4	13.9	0.00e+00	0	25	0	1191182336	71	4964
2026-01-08 07:12:35.19	328.29	9.75	-53.2	-55.6	13.8	0.00e+00	0	25	0	1198522368	71	5063
2026-01-08 07:12:39.19	327.95	9.45	-53.3	-55.7	13.7	0.00e+00	0	25	0	1205862400	71	5157
2026-01-08 07:12:43.17	327.61	9.16	-53.4	-55.9	13.6	0.00e+00	0	25	0	1213202432	71	5272
2026-01-08 07:12:47.16	327.29	8.87	-53.5	-56.1	13.6	0.00e+00	0	25	0	1220542464	72	5042
2026-01-08 07:12:51.12	326.97	8.58	-53.6	-56.2	13.5	0.00e+00	0	24	0	1227882496	72	5154
2026-01-08 07:12:55.10	326.65	8.29	-53.6	-56.4	13.4	0.00e+00	0	25	0	1235222528	72	5219
2026-01-08 07:12:59.07	326.34	8.01	-53.7	-56.4	13.4	0.00e+00	0	25	0	1243611136	72	5259
2026-01-08 07:13:03.06	326.04	7.73	-53.7	-56.5	13.3	0.00e+00	0	25	0	1250951168	72	5290
2026-01-08 07:13:07.05	325.74	7.45	-53.7	-56.6	13.3	0.00e+00	0	25	0	1258291200	72	5354
2026-01-08 07:13:11.04	325.45	7.17	-53.8	-56.7	13.1	0.00e+00	0	25	0	1265631232	72	5440
2026-01-08 07:13:15.06	325.16	6.89	-53.9	-56.9	13.1	0.00e+00	0	25	0	1272971264	73	5231
2026-01-08 07:13:19.05	324.88	6.62	-54.1	-57.2	12.9	0.00e+00	0	25	0	1280311296	73	5417
2026-01-08 07:13:23.05	324.61	6.35	-54.2	-57.5	12.7	0.00e+00	0	25	0	1287651328	73	5593
2026-01-08 07:13:27.04	324.34	6.08	-54.2	-57.5	12.7	0.00e+00	0	25	0	1296039936	73	5596
2026-01-08 07:13:31.04	324.07	5.81	-54.3	-57.8	12.5	0.00e+00	0	25	0	1303379968	73	5813
2026-01-08 07:13:35.04	323.81	5.55	-54.5	-58.0	12.4	7.00e-07	0	25	0	1310720000	74	5631
2026-01-08 07:13:39.03	323.56	5.28	-54.5	-58.2	12.2	2.20e-06	0	25	0	1318060032	74	5755
2026-01-08 07:13:43.02	323.31	5.02	-54.5	-58.1	12.3	3.00e-06	0	25	0	1325400064	74	5661
2026-01-08 07:13:47.01	323.06	4.77	-59.1	-75.1	3.8	1.49e+00	0	25	104	1327497216	83	24042
2026-01-08 07:13:51.00	322.82	4.51	-60.0	-76.0	3.8	1.49e+00	0	25	104	1327497216	85	23828
2026-01-08 07:13:55.00	322.59	4.25	-60.3	-76.4	3.8	1.49e+00	0	25	104	1327497216	85	24699
2026-01-08 07:13:59.00	322.36	4.00	-60.4	-76.5	3.8	1.49e+00	0	25	104	1327497216	85	25101
2026-01-08 07:14:02.99	322.13	3.75	-60.5	-76.6	3.8	1.49e+00	0	25	104	1327497216	86	24052
2026-01-08 07:14:06.99	321.91	3.50	-60.4	-76.5	3.8	1.49e+00	0	25	104	1327497216	86	23752
2026-01-08 07:14:10.99	321.69	3.25	-60.4	-76.5	3.8	1.49e+00	0	25	104	1327497216	86	23654
2026-01-08 07:14:14.98	321.47	3.01	-60.3	-76.4	3.8	1.49e+00	0	25	104	1327497216	86	23520
2026-01-08 07:14:18.98	321.26	2.76	-60.3	-76.4	3.8	1.49e+00	0	25	104	1327497216	86	23369
2026-01-08 07:14:22.96	321.05	2.52	-60.3	-76.3	3.8	1.49e+00	0	25	104	1327497216	86	23297
2026-01-08 07:14:26.96	320.85	2.28	-60.2	-76.3	3.8	1.49e+00	0	25	104	1327497216	86	23217
2026-01-08 07:14:30.97	320.64	2.04	-60.2	-76.3	3.8	1.49e+00	0	25	104	1327497216	86	23186

#Closed at: 2026-01-08 07:14:32
#Recorded file [1327 MB]: D:/lorett/data/31004_260108_100112.dat