passes_logs/2026/01/08/R3.2S_Murmansk/R3.2S_Murmansk__20260108_020323_NOAA_20_JPSS-1_rec.log

#Pass ID: 20260108_020323_NOAA 20 (JPSS-1)
#Satellite: NOAA 20 (JPSS-1)
#Configuration: NOAA 20
#almurnet v.1.7.20251203
#Start time: 2026-01-08 02:03:24

#Version: 2.2.20231116
#Station: R3.2S_Murmansk
#Location: 33.079688 lon 68.888172 lat
#TLE: 1 43013U 17073A   26006.30790171  .00000126  00000+0  80695-4 0  9991
#TLE: 2 43013  98.7629 307.3394 0001808  51.8724 308.2615 14.19533762421505

#Time	Az	El	Level	Level2	SNR	BER	BlckErr	Temp	State	Recorded	gain1	gain2
2026-01-08 02:03:24.20	31.07	2.04	-57.4	-73.4	3.8	1.49e+00	0	23	0	0	81	22136
2026-01-08 02:03:28.20	30.95	2.29	-57.4	-73.4	3.8	1.49e+00	0	23	104	0	79	24829
2026-01-08 02:03:32.20	30.83	2.54	-57.4	-73.4	3.8	1.49e+00	0	23	104	0	79	24755
2026-01-08 02:03:36.21	30.70	2.80	-57.4	-73.3	3.8	1.49e+00	0	23	104	0	79	24630
2026-01-08 02:03:40.21	30.58	3.05	-57.4	-73.4	3.8	1.49e+00	0	23	104	0	79	24787
2026-01-08 02:03:44.21	30.45	3.31	-57.4	-73.3	3.8	1.49e+00	0	23	104	0	79	24643
2026-01-08 02:03:48.21	30.32	3.57	-57.4	-73.2	3.8	1.49e+00	0	23	104	0	79	24281
2026-01-08 02:03:52.20	30.19	3.84	-57.3	-72.2	3.8	1.49e+00	0	23	104	0	79	21580
2026-01-08 02:03:56.19	30.05	4.10	-57.3	-71.5	3.8	1.49e+00	0	23	104	0	79	19842
2026-01-08 02:04:00.17	29.91	4.37	-57.3	-70.8	3.8	1.47e+00	0	23	104	0	79	18373
2026-01-08 02:04:04.16	29.77	4.64	-57.1	-67.8	4.9	7.90e-01	0	24	0	3145728	79	12968
2026-01-08 02:04:08.15	29.63	4.91	-56.6	-64.4	7.3	1.12e-01	0	24	0	10485760	79	8806
2026-01-08 02:04:12.15	29.48	5.19	-57.3	-67.9	4.9	9.73e-01	0	24	0	17825792	79	13209
2026-01-08 02:04:16.15	29.33	5.47	-54.3	-57.8	12.6	1.53e-02	0	24	0	25165824	75	5166
2026-01-08 02:04:20.15	29.17	5.75	-52.8	-55.2	14.0	0.00e+00	0	24	0	32505856	72	4588
2026-01-08 02:04:24.14	29.02	6.04	-52.8	-55.2	13.9	0.00e+00	0	24	0	39845888	71	4838
2026-01-08 02:04:28.13	28.86	6.32	-52.6	-54.9	14.1	0.00e+00	0	24	0	47185920	71	4669
2026-01-08 02:04:32.12	28.69	6.61	-52.6	-54.9	14.1	0.00e+00	0	24	0	55574528	71	4676
2026-01-08 02:04:36.11	28.52	6.91	-52.7	-55.0	14.1	0.00e+00	0	24	0	62914560	71	4715
2026-01-08 02:04:40.11	28.35	7.20	-52.6	-54.9	14.2	0.00e+00	0	24	0	70254592	71	4657
2026-01-08 02:04:44.10	28.18	7.50	-52.5	-54.7	14.3	0.00e+00	0	24	0	77594624	71	4587
2026-01-08 02:04:48.09	28.00	7.81	-52.5	-54.7	14.3	0.00e+00	0	24	0	84934656	71	4591
2026-01-08 02:04:52.08	27.81	8.11	-52.5	-54.6	14.4	0.00e+00	0	24	0	92274688	71	4530
2026-01-08 02:04:56.08	27.63	8.42	-52.4	-54.6	14.4	0.00e+00	0	24	0	99614720	71	4522
2026-01-08 02:05:00.06	27.43	8.74	-52.4	-54.5	14.4	0.00e+00	0	24	0	108003328	71	4478
2026-01-08 02:05:04.06	27.24	9.05	-52.6	-54.8	14.3	0.00e+00	0	24	0	115343360	71	4614
2026-01-08 02:05:08.05	27.03	9.37	-52.4	-54.6	14.4	0.00e+00	0	24	0	122683392	71	4508
2026-01-08 02:05:12.05	26.83	9.70	-52.3	-54.4	14.5	0.00e+00	0	24	0	130023424	71	4407
2026-01-08 02:05:16.06	26.62	10.03	-52.2	-54.3	14.6	0.00e+00	0	24	0	137363456	71	4361
2026-01-08 02:05:20.06	26.40	10.36	-52.2	-54.2	14.7	0.00e+00	0	24	0	144703488	71	4323
2026-01-08 02:05:24.06	26.18	10.70	-52.0	-54.0	14.6	0.00e+00	0	24	0	153092096	70	4453
2026-01-08 02:05:28.07	25.95	11.04	-52.0	-53.9	14.7	0.00e+00	0	24	0	160432128	70	4424
2026-01-08 02:05:32.07	25.71	11.39	-51.9	-53.7	14.8	0.00e+00	0	24	0	167772160	70	4338
2026-01-08 02:05:36.06	25.47	11.73	-51.9	-53.8	14.7	0.00e+00	0	24	0	175112192	70	4367
2026-01-08 02:05:40.05	25.23	12.09	-51.9	-53.7	14.8	0.00e+00	0	24	0	182452224	70	4340
2026-01-08 02:05:44.04	24.98	12.45	-51.9	-53.7	14.8	0.00e+00	0	24	0	189792256	70	4339
2026-01-08 02:05:48.03	24.72	12.81	-51.6	-53.5	14.7	0.00e+00	0	25	0	197132288	69	4458
2026-01-08 02:05:52.02	24.45	13.18	-51.6	-53.5	14.8	0.00e+00	0	24	0	205520896	69	4459
2026-01-08 02:05:56.01	24.18	13.55	-51.7	-53.5	14.7	0.00e+00	0	24	0	212860928	69	4465
2026-01-08 02:06:00.00	23.90	13.93	-51.6	-53.4	14.8	0.00e+00	0	24	0	220200960	69	4430
2026-01-08 02:06:03.98	23.61	14.31	-51.6	-53.4	14.8	0.00e+00	0	24	0	227540992	69	4393
2026-01-08 02:06:07.97	23.32	14.70	-51.5	-53.2	14.9	0.00e+00	0	24	0	234881024	69	4325
2026-01-08 02:06:11.97	23.02	15.09	-51.5	-53.3	14.8	0.00e+00	0	24	0	242221056	69	4382
2026-01-08 02:06:15.97	22.70	15.49	-51.7	-53.5	14.8	0.00e+00	0	24	0	249561088	69	4451
2026-01-08 02:06:19.96	22.38	15.90	-51.6	-53.4	14.8	0.00e+00	0	24	0	256901120	69	4434
2026-01-08 02:06:23.96	22.05	16.31	-51.6	-53.4	14.8	0.00e+00	0	24	0	265289728	69	4405
2026-01-08 02:06:27.96	21.71	16.73	-51.5	-53.3	14.9	0.00e+00	0	25	0	272629760	69	4365
2026-01-08 02:06:31.94	21.36	17.15	-51.6	-53.4	14.8	0.00e+00	0	24	0	279969792	69	4406
2026-01-08 02:06:35.93	21.00	17.58	-51.5	-53.3	14.9	0.00e+00	0	25	0	287309824	69	4355
2026-01-08 02:06:39.92	20.63	18.01	-51.6	-53.4	14.8	0.00e+00	0	24	0	294649856	69	4409
2026-01-08 02:06:43.91	20.25	18.46	-51.7	-53.5	14.8	0.00e+00	0	24	0	301989888	69	4471
2026-01-08 02:06:47.90	19.85	18.90	-51.8	-53.6	14.7	0.00e+00	0	25	0	309329920	69	4501
2026-01-08 02:06:51.89	19.44	19.36	-51.9	-53.7	14.7	0.00e+00	0	24	0	317718528	69	4571
2026-01-08 02:06:55.89	19.02	19.82	-52.0	-53.8	14.6	0.00e+00	0	24	0	325058560	69	4651
2026-01-08 02:06:59.87	18.59	20.29	-52.2	-54.1	14.5	0.00e+00	0	25	0	332398592	69	4808
2026-01-08 02:07:03.83	18.15	20.76	-52.2	-54.1	14.5	0.00e+00	0	25	0	339738624	69	4796
2026-01-08 02:07:07.81	17.69	21.25	-52.4	-54.3	14.5	0.00e+00	0	25	0	347078656	70	4627
2026-01-08 02:07:11.80	17.21	21.74	-52.5	-54.5	14.4	0.00e+00	0	25	0	354418688	70	4722
2026-01-08 02:07:15.80	16.72	22.24	-52.5	-54.5	14.5	0.00e+00	0	25	0	361758720	70	4718
2026-01-08 02:07:19.80	16.21	22.74	-52.5	-54.5	14.4	0.00e+00	0	24	0	370147328	70	4739
2026-01-08 02:07:23.79	15.68	23.26	-52.6	-54.6	14.4	0.00e+00	0	25	0	377487360	70	4769
2026-01-08 02:07:27.78	15.13	23.78	-52.6	-54.6	14.4	0.00e+00	0	25	0	384827392	70	4770
2026-01-08 02:07:31.79	14.57	24.31	-52.3	-54.3	14.6	0.00e+00	0	25	0	392167424	70	4602
2026-01-08 02:07:35.80	13.98	24.85	-52.2	-54.1	14.7	0.00e+00	0	25	0	399507456	70	4500
2026-01-08 02:07:39.79	13.38	25.39	-52.3	-54.2	14.6	0.00e+00	0	25	0	406847488	70	4560
2026-01-08 02:07:43.78	12.75	25.94	-52.4	-54.3	14.6	0.00e+00	0	25	0	414187520	70	4616
2026-01-08 02:07:47.78	12.10	26.50	-52.3	-54.2	14.6	0.00e+00	0	25	0	421527552	70	4581
2026-01-08 02:07:51.77	11.43	27.07	-52.3	-54.2	14.6	0.00e+00	0	25	0	429916160	70	4552
2026-01-08 02:07:55.76	10.73	27.64	-52.5	-54.4	14.5	0.00e+00	0	25	0	437256192	70	4701
2026-01-08 02:07:59.75	10.00	28.22	-52.5	-54.4	14.5	0.00e+00	0	25	0	444596224	70	4704
2026-01-08 02:08:03.73	9.25	28.81	-52.4	-54.2	14.6	0.00e+00	0	25	0	451936256	70	4578
2026-01-08 02:08:07.70	8.48	29.40	-52.7	-54.6	14.4	0.00e+00	0	25	0	459276288	70	4803
2026-01-08 02:08:11.69	7.67	30.00	-53.5	-55.7	14.1	0.00e+00	0	24	0	466616320	72	4835
2026-01-08 02:08:15.67	6.83	30.61	-53.9	-56.3	13.9	0.00e+00	0	25	0	473956352	73	4901
2026-01-08 02:08:19.67	5.95	31.22	-54.3	-56.8	13.7	0.00e+00	0	25	0	482344960	73	5200
2026-01-08 02:08:23.66	5.04	31.84	-54.6	-57.2	13.5	0.00e+00	0	24	0	489684992	74	5137
2026-01-08 02:08:27.65	4.10	32.46	-54.7	-57.4	13.4	0.00e+00	0	25	0	497025024	74	5231
2026-01-08 02:08:31.65	3.11	33.09	-54.7	-57.4	13.5	0.00e+00	0	25	0	504365056	74	5249
2026-01-08 02:08:35.63	2.09	33.71	-54.9	-57.8	13.4	0.00e+00	0	25	0	511705088	75	5174
2026-01-08 02:08:39.64	1.02	34.35	-54.7	-57.4	13.6	0.00e+00	0	25	0	519045120	75	4940
2026-01-08 02:08:43.64	359.92	34.98	-54.7	-57.4	13.6	0.00e+00	0	25	0	526385152	75	4950
2026-01-08 02:08:47.64	358.76	35.61	-54.2	-56.5	14.0	0.00e+00	0	24	0	534773760	74	4753
2026-01-08 02:08:51.64	357.57	36.24	-53.8	-56.0	14.3	0.00e+00	0	25	0	542113792	74	4478
2026-01-08 02:08:55.64	356.32	36.87	-53.4	-55.6	14.4	0.00e+00	0	25	0	549453824	73	4499
2026-01-08 02:08:59.62	355.03	37.50	-53.6	-55.8	14.3	0.00e+00	0	25	0	556793856	73	4619
2026-01-08 02:09:03.60	353.69	38.11	-53.5	-55.7	14.3	0.00e+00	0	25	0	564133888	73	4547
2026-01-08 02:09:07.59	352.30	38.72	-53.9	-56.1	14.1	0.00e+00	0	25	0	571473920	73	4801
2026-01-08 02:09:11.57	350.86	39.32	-54.1	-56.4	14.0	0.00e+00	0	25	0	578813952	73	4954
2026-01-08 02:09:15.56	349.35	39.91	-54.4	-57.0	13.8	0.00e+00	0	25	0	586153984	74	4989
2026-01-08 02:09:19.57	347.79	40.49	-54.1	-56.4	14.1	0.00e+00	0	25	0	594542592	74	4676
2026-01-08 02:09:23.56	346.18	41.05	-53.4	-55.5	14.5	0.00e+00	0	25	0	601882624	73	4468
2026-01-08 02:09:27.57	344.50	41.59	-52.3	-54.0	15.0	0.00e+00	0	25	0	609222656	71	4217
2026-01-08 02:09:31.56	342.77	42.11	-51.6	-53.2	15.0	0.00e+00	0	25	0	616562688	69	4330
2026-01-08 02:09:35.55	340.99	42.61	-51.7	-53.3	15.0	0.00e+00	0	25	0	623902720	69	4373
2026-01-08 02:09:39.54	339.15	43.08	-51.5	-53.0	15.1	0.00e+00	0	25	0	631242752	69	4241
2026-01-08 02:09:43.53	337.26	43.52	-52.6	-54.4	14.7	0.00e+00	0	24	0	638582784	70	4665
2026-01-08 02:09:47.53	335.31	43.93	-53.2	-55.2	14.4	0.00e+00	0	25	0	646971392	71	4828
2026-01-08 02:09:51.51	333.33	44.31	-53.0	-54.9	14.5	0.00e+00	0	25	0	654311424	71	4682
2026-01-08 02:09:55.51	331.29	44.65	-52.9	-54.8	14.6	0.00e+00	0	25	0	661651456	71	4611
2026-01-08 02:09:59.50	329.21	44.95	-52.8	-54.6	14.7	0.00e+00	0	25	0	668991488	71	4542
2026-01-08 02:10:03.48	327.10	45.21	-53.8	-56.0	14.1	0.00e+00	0	25	0	676331520	72	5033
2026-01-08 02:10:07.46	324.96	45.43	-54.1	-56.3	14.1	0.00e+00	0	25	0	683671552	73	4915
2026-01-08 02:10:11.46	322.77	45.61	-53.1	-55.1	14.6	0.00e+00	0	25	0	691011584	72	4497
2026-01-08 02:10:15.46	320.57	45.74	-54.8	-57.4	13.6	0.00e+00	0	25	0	699400192	74	5276
2026-01-08 02:10:19.45	318.36	45.82	-54.5	-56.9	14.0	0.00e+00	0	25	0	706740224	75	4703
2026-01-08 02:10:23.45	316.13	45.85	-54.0	-56.2	14.3	0.00e+00	0	25	0	714080256	74	4571
2026-01-08 02:10:27.46	313.90	45.84	-54.0	-56.3	14.1	0.00e+00	0	25	0	721420288	73	4888
2026-01-08 02:10:31.45	311.69	45.78	-54.7	-57.2	13.7	0.00e+00	0	25	0	728760320	74	5150
2026-01-08 02:10:35.43	309.49	45.67	-54.0	-56.2	14.3	0.00e+00	0	25	0	736100352	74	4559
2026-01-08 02:10:39.42	307.30	45.52	-54.7	-57.1	13.8	0.00e+00	0	25	0	743440384	74	5085
2026-01-08 02:10:43.40	305.14	45.32	-55.3	-58.1	13.5	0.00e+00	0	25	0	751828992	76	5045
2026-01-08 02:10:47.39	303.01	45.07	-54.5	-56.9	13.9	0.00e+00	0	25	0	759169024	74	4933
2026-01-08 02:10:51.39	300.91	44.79	-55.1	-57.7	13.7	0.00e+00	0	25	0	766509056	76	4840
2026-01-08 02:10:55.38	298.85	44.46	-53.9	-56.1	14.4	0.00e+00	0	25	0	773849088	74	4506
2026-01-08 02:10:59.37	296.84	44.10	-53.7	-55.7	14.5	0.00e+00	0	25	0	781189120	74	4340
2026-01-08 02:11:03.36	294.87	43.71	-53.1	-55.0	14.7	0.00e+00	0	25	0	788529152	72	4475
2026-01-08 02:11:07.36	292.95	43.28	-52.4	-54.1	14.9	0.00e+00	0	25	0	795869184	71	4272
2026-01-08 02:11:11.34	291.10	42.82	-51.7	-53.3	15.2	0.00e+00	0	25	0	803209216	70	4107
2026-01-08 02:11:15.32	289.29	42.33	-51.2	-52.8	15.2	0.00e+00	0	25	0	811597824	69	4100
2026-01-08 02:11:19.30	287.54	41.82	-50.2	-51.6	15.2	0.00e+00	0	25	0	818937856	66	4253
2026-01-08 02:11:23.31	285.84	41.29	-50.4	-51.8	15.1	0.00e+00	0	25	0	826277888	66	4351
2026-01-08 02:11:27.30	284.20	40.73	-50.4	-51.9	15.1	0.00e+00	0	25	0	833617920	66	4405
2026-01-08 02:11:31.29	282.61	40.16	-50.5	-52.0	15.1	0.00e+00	0	25	0	840957952	66	4470
2026-01-08 02:11:35.28	281.08	39.58	-50.7	-52.2	15.0	0.00e+00	0	25	0	848297984	66	4553
2026-01-08 02:11:39.27	279.61	38.98	-50.9	-52.4	15.0	0.00e+00	0	25	0	855638016	67	4411
2026-01-08 02:11:43.27	278.18	38.37	-51.0	-52.5	15.0	0.00e+00	0	25	0	864026624	67	4456
2026-01-08 02:11:47.26	276.82	37.76	-51.8	-53.5	14.7	0.00e+00	0	25	0	871366656	68	4733
2026-01-08 02:11:51.24	275.50	37.14	-52.0	-53.7	14.8	0.00e+00	0	25	0	878706688	69	4591
2026-01-08 02:11:55.24	274.23	36.51	-52.1	-53.8	14.7	0.00e+00	0	25	0	886046720	69	4633
2026-01-08 02:11:59.24	273.01	35.88	-52.7	-54.6	14.5	0.00e+00	0	25	0	893386752	70	4799
2026-01-08 02:12:03.23	271.84	35.24	-53.3	-55.3	14.3	0.00e+00	0	25	0	900726784	71	4887
2026-01-08 02:12:07.21	270.72	34.61	-53.8	-56.0	14.1	0.00e+00	0	25	0	908066816	72	4986
2026-01-08 02:12:11.18	269.64	33.98	-54.3	-56.7	13.9	0.00e+00	0	25	0	915406848	74	4831
2026-01-08 02:12:15.18	268.60	33.35	-54.7	-57.3	13.6	0.00e+00	0	25	0	923795456	74	5177
2026-01-08 02:12:19.17	267.59	32.72	-55.0	-57.7	13.4	0.00e+00	0	25	0	931135488	75	5153
2026-01-08 02:12:23.14	266.63	32.10	-54.7	-57.3	13.7	0.00e+00	0	25	0	938475520	75	4892
2026-01-08 02:12:27.14	265.70	31.48	-54.6	-57.2	13.8	0.00e+00	0	25	0	945815552	75	4822
2026-01-08 02:12:31.13	264.81	30.86	-54.7	-57.3	13.7	0.00e+00	0	25	0	953155584	75	4879
2026-01-08 02:12:35.11	263.96	30.25	-54.3	-56.7	14.0	0.00e+00	0	25	0	960495616	75	4578
2026-01-08 02:12:39.10	263.13	29.65	-54.1	-56.5	14.0	0.00e+00	0	25	0	967835648	74	4724
2026-01-08 02:12:43.10	262.33	29.05	-53.6	-55.7	14.3	0.00e+00	0	25	0	976224256	73	4569
2026-01-08 02:12:47.08	261.57	28.46	-53.8	-56.0	14.2	0.00e+00	0	25	0	983564288	73	4741
2026-01-08 02:12:51.08	260.83	27.87	-53.9	-56.2	14.1	0.00e+00	0	25	0	990904320	73	4853
2026-01-08 02:12:55.09	260.11	27.29	-53.3	-55.4	14.5	0.00e+00	0	25	0	998244352	73	4398
2026-01-08 02:12:59.10	259.42	26.72	-53.4	-55.5	14.3	0.00e+00	0	25	0	1005584384	72	4727
2026-01-08 02:13:03.10	258.76	26.15	-53.6	-55.7	14.2	0.00e+00	0	25	0	1012924416	72	4865
2026-01-08 02:13:07.07	258.12	25.60	-53.3	-55.4	14.3	0.00e+00	0	25	0	1020264448	72	4682
2026-01-08 02:13:11.06	257.51	25.05	-52.8	-54.7	14.7	0.00e+00	0	25	0	1028653056	72	4337
2026-01-08 02:13:15.05	256.91	24.51	-52.9	-54.9	14.6	0.00e+00	0	25	0	1035993088	72	4393
2026-01-08 02:13:19.04	256.34	23.98	-52.8	-54.8	14.5	0.00e+00	0	25	0	1043333120	71	4601
2026-01-08 02:13:23.03	255.78	23.45	-53.2	-55.3	14.2	0.00e+00	0	25	0	1050673152	71	4889
2026-01-08 02:13:27.03	255.24	22.93	-53.1	-55.2	14.3	0.00e+00	0	25	0	1058013184	71	4833
2026-01-08 02:13:31.02	254.73	22.42	-53.0	-55.0	14.4	0.00e+00	0	25	0	1065353216	71	4722
2026-01-08 02:13:35.01	254.22	21.92	-52.8	-54.8	14.5	0.00e+00	0	25	0	1072693248	71	4631
2026-01-08 02:13:39.02	253.74	21.42	-52.7	-54.6	14.5	0.00e+00	0	25	0	1081081856	71	4533
2026-01-08 02:13:43.02	253.26	20.93	-52.7	-54.6	14.5	0.00e+00	0	25	0	1088421888	71	4541
2026-01-08 02:13:47.01	252.81	20.45	-52.7	-54.7	14.5	0.00e+00	0	25	0	1095761920	71	4559
2026-01-08 02:13:51.00	252.37	19.98	-52.9	-54.9	14.4	0.00e+00	0	25	0	1103101952	71	4679
2026-01-08 02:13:55.01	251.94	19.51	-52.7	-54.7	14.5	0.00e+00	0	25	0	1110441984	71	4556
2026-01-08 02:13:59.00	251.53	19.05	-52.8	-54.8	14.5	0.00e+00	0	25	0	1117782016	71	4622
2026-01-08 02:14:02.99	251.12	18.60	-53.1	-55.2	14.2	0.00e+00	0	25	0	1125122048	71	4858
2026-01-08 02:14:06.97	250.74	18.15	-53.0	-55.1	14.3	0.00e+00	0	25	0	1133510656	71	4774
2026-01-08 02:14:10.96	250.36	17.71	-53.0	-55.0	14.3	0.00e+00	0	25	0	1140850688	71	4752
2026-01-08 02:14:14.94	249.99	17.28	-52.8	-54.8	14.4	0.00e+00	0	25	0	1148190720	71	4625
2026-01-08 02:14:18.92	249.64	16.86	-52.9	-55.0	14.3	0.00e+00	0	25	0	1155530752	71	4750
2026-01-08 02:14:22.91	249.29	16.44	-53.1	-55.3	14.2	0.00e+00	0	25	0	1162870784	71	4900
2026-01-08 02:14:26.90	248.95	16.02	-53.2	-55.3	14.1	0.00e+00	0	25	0	1170210816	71	4922
2026-01-08 02:14:30.91	248.62	15.61	-53.1	-55.2	14.2	0.00e+00	0	25	0	1177550848	71	4843
2026-01-08 02:14:34.93	248.30	15.21	-53.2	-55.4	14.1	0.00e+00	0	25	0	1185939456	71	4978
2026-01-08 02:14:38.92	248.00	14.81	-53.2	-55.4	14.1	0.00e+00	0	25	0	1193279488	71	4981
2026-01-08 02:14:42.92	247.69	14.42	-53.1	-55.3	14.1	0.00e+00	0	25	0	1200619520	71	4923
2026-01-08 02:14:46.90	247.40	14.03	-53.4	-55.7	13.9	0.00e+00	0	25	0	1207959552	71	5102
2026-01-08 02:14:50.90	247.12	13.65	-53.2	-55.5	14.0	0.00e+00	0	25	0	1215299584	71	5010
2026-01-08 02:14:54.88	246.84	13.28	-53.5	-55.8	14.0	0.00e+00	0	25	0	1222639616	72	4926
2026-01-08 02:14:58.88	246.57	12.91	-53.3	-55.6	14.0	0.00e+00	0	25	0	1229979648	72	4803
2026-01-08 02:15:02.87	246.31	12.54	-53.3	-55.6	14.1	0.00e+00	0	25	0	1238368256	72	4775
2026-01-08 02:15:06.86	246.05	12.18	-53.4	-55.8	14.0	0.00e+00	0	25	0	1245708288	72	4892
2026-01-08 02:15:10.84	245.80	11.82	-53.7	-56.2	13.7	0.00e+00	0	25	0	1253048320	72	5103
2026-01-08 02:15:14.84	245.56	11.47	-54.0	-56.6	13.6	0.00e+00	0	25	0	1260388352	73	5098
2026-01-08 02:15:18.83	245.32	11.12	-54.0	-56.7	13.5	0.00e+00	0	25	0	1267728384	73	5141
2026-01-08 02:15:22.81	245.09	10.78	-54.0	-56.6	13.6	0.00e+00	0	25	0	1275068416	73	5073
2026-01-08 02:15:26.80	244.86	10.44	-53.8	-56.3	13.7	0.00e+00	0	25	0	1282408448	73	4917
2026-01-08 02:15:30.79	244.64	10.11	-53.6	-56.1	13.8	0.00e+00	0	25	0	1289748480	73	4807
2026-01-08 02:15:34.78	244.42	9.78	-53.8	-56.3	13.7	0.00e+00	0	25	0	1298137088	73	4922
2026-01-08 02:15:38.77	244.21	9.45	-54.0	-56.7	13.5	0.00e+00	0	25	0	1305477120	73	5146
2026-01-08 02:15:42.76	244.01	9.13	-54.2	-57.0	13.2	0.00e+00	0	25	0	1312817152	73	5317
2026-01-08 02:15:46.75	243.81	8.81	-54.1	-57.0	13.2	0.00e+00	0	25	0	1320157184	73	5303
2026-01-08 02:15:50.73	243.61	8.50	-54.1	-56.9	13.3	0.00e+00	0	25	0	1327497216	73	5260
2026-01-08 02:15:54.73	243.42	8.18	-54.1	-56.9	13.3	0.00e+00	0	25	0	1334837248	73	5246
2026-01-08 02:15:58.74	243.23	7.88	-54.0	-56.8	13.3	0.00e+00	0	25	0	1342177280	73	5209
2026-01-08 02:16:02.73	243.05	7.57	-54.1	-57.0	13.2	0.00e+00	0	25	0	1350565888	73	5307
2026-01-08 02:16:06.71	242.87	7.27	-53.8	-57.2	12.9	6.16e-03	0	25	0	1357905920	73	5409
2026-01-08 02:16:10.71	242.69	6.97	-53.7	-57.1	13.0	7.52e-03	0	25	0	1365245952	73	5393
2026-01-08 02:16:14.69	242.52	6.68	-54.4	-57.5	12.8	0.00e+00	0	25	0	1372585984	73	5648
2026-01-08 02:16:18.68	242.35	6.39	-54.3	-57.5	12.8	0.00e+00	0	25	0	1379926016	73	5630
2026-01-08 02:16:22.68	242.19	6.10	-54.4	-57.6	12.8	0.00e+00	0	25	0	1387266048	74	5401
2026-01-08 02:16:26.67	242.03	5.81	-54.4	-57.6	12.8	0.00e+00	0	25	0	1394606080	74	5385
2026-01-08 02:16:30.67	241.87	5.53	-54.4	-57.7	12.8	0.00e+00	0	25	0	1402994688	74	5420
2026-01-08 02:16:34.65	241.71	5.25	-54.5	-57.9	12.5	0.00e+00	0	25	0	1410334720	74	5565
2026-01-08 02:16:38.65	241.56	4.97	-57.7	-69.5	5.0	1.85e-02	0	25	0	1417674752	80	14922
2026-01-08 02:16:42.65	241.41	4.69	-59.2	-75.3	3.8	1.49e+00	0	25	104	1417674752	83	24626
2026-01-08 02:16:46.66	241.27	4.42	-59.9	-76.0	3.8	1.49e+00	0	25	104	1417674752	84	25132
2026-01-08 02:16:50.65	241.13	4.15	-60.2	-76.3	3.8	1.49e+00	0	25	104	1417674752	85	24513
2026-01-08 02:16:54.65	240.99	3.88	-60.2	-76.4	3.8	1.49e+00	0	25	104	1417674752	85	24706
2026-01-08 02:16:58.66	240.85	3.62	-60.3	-76.5	3.8	1.49e+00	0	25	104	1417674752	85	24998
2026-01-08 02:17:02.67	240.71	3.35	-60.3	-76.5	3.8	1.49e+00	0	25	104	1417674752	86	23652
2026-01-08 02:17:06.68	240.58	3.09	-60.2	-76.3	3.8	1.49e+00	0	25	104	1417674752	86	23300
2026-01-08 02:17:10.66	240.45	2.83	-60.2	-76.3	3.8	1.49e+00	0	25	104	1417674752	86	23232
2026-01-08 02:17:14.64	240.33	2.58	-60.1	-76.2	3.8	1.49e+00	0	25	104	1417674752	86	23032
2026-01-08 02:17:18.64	240.20	2.32	-60.1	-76.2	3.8	1.49e+00	0	25	104	1417674752	86	22934
2026-01-08 02:17:22.62	240.08	2.07	-60.1	-76.2	3.8	1.49e+00	0	25	104	1417674752	86	22851

#Closed at: 2026-01-08 02:17:26
#Recorded file [1417 MB]: D:/lorett/data/31004_260108_050324.dat