passes_logs/2026/01/08/R3.2S_Murmansk/R3.2S_Murmansk__20260108_011305_NOAA_21_JPSS-2_rec.log

#Pass ID: 20260108_011305_NOAA 21 (JPSS-2)
#Satellite: NOAA 21 (JPSS-2)
#Configuration: NOAA-21
#almurnet v.1.7.20251203
#Start time: 2026-01-08 01:13:05

#Version: 2.2.20231116
#Station: R3.2S_Murmansk
#Location: 33.079688 lon 68.888172 lat
#TLE: 1 54234U 22150A   26005.56767909  .00000152  00000+0  92756-4 0  9990
#TLE: 2 54234  98.7490 306.5820 0001036 340.2747  19.8389 14.19532370163472

#Time	Az	El	Level	Level2	SNR	BER	BlckErr	Temp	State	Recorded	gain1	gain2
2026-01-08 01:13:05.65	26.69	2.02	-57.5	-71.2	3.8	1.49e+00	0	23	0	0	81	17233
2026-01-08 01:13:09.66	26.65	2.28	-57.4	-71.2	3.8	1.49e+00	0	23	104	0	79	19281
2026-01-08 01:13:13.66	26.61	2.53	-57.4	-71.2	3.8	1.49e+00	0	23	104	0	79	19245
2026-01-08 01:13:17.66	26.57	2.79	-57.4	-71.2	3.8	1.49e+00	0	23	104	0	79	19298
2026-01-08 01:13:21.67	26.52	3.06	-57.4	-71.1	3.8	1.49e+00	0	23	104	0	79	19125
2026-01-08 01:13:25.67	26.48	3.32	-57.3	-70.4	3.8	1.49e+00	0	23	104	0	79	17593
2026-01-08 01:13:29.67	26.43	3.59	-57.3	-69.5	3.8	1.49e+00	0	23	104	0	79	15794
2026-01-08 01:13:33.67	26.39	3.86	-57.3	-69.5	3.8	1.49e+00	0	23	104	0	79	15869
2026-01-08 01:13:37.65	26.34	4.13	-57.3	-70.5	3.8	1.49e+00	0	24	104	0	79	17753
2026-01-08 01:13:41.63	26.29	4.41	-57.1	-68.2	3.9	1.48e+00	0	24	104	0	79	13716
2026-01-08 01:13:45.63	26.24	4.69	-56.5	-63.3	6.4	2.02e-01	0	24	0	7340032	79	7755
2026-01-08 01:13:49.62	26.18	4.97	-56.0	-61.4	8.0	4.75e-02	0	24	0	19922944	78	6615
2026-01-08 01:13:53.60	26.13	5.25	-56.1	-61.9	7.6	2.09e-01	0	24	0	27262976	78	6979
2026-01-08 01:13:57.60	26.08	5.54	-53.3	-56.0	12.3	1.60e-05	0	24	0	37748736	73	4712
2026-01-08 01:14:01.59	26.02	5.83	-51.5	-53.4	13.7	0.00e+00	0	24	0	50331648	69	4438
2026-01-08 01:14:05.58	25.96	6.12	-51.2	-53.0	13.8	0.00e+00	0	24	0	61865984	68	4455
2026-01-08 01:14:09.57	25.90	6.42	-50.8	-52.4	14.2	0.00e+00	0	24	0	74448896	68	4190
2026-01-08 01:14:13.56	25.84	6.72	-50.8	-52.4	14.2	0.00e+00	0	24	0	87031808	68	4185
2026-01-08 01:14:17.57	25.78	7.02	-50.5	-52.2	14.2	0.00e+00	0	24	0	99614720	67	4305
2026-01-08 01:14:21.57	25.71	7.33	-50.3	-51.9	14.3	0.00e+00	0	24	0	112197632	67	4185
2026-01-08 01:14:25.57	25.65	7.64	-50.4	-51.9	14.3	0.00e+00	0	24	0	124780544	67	4189
2026-01-08 01:14:29.58	25.58	7.96	-50.5	-52.2	14.2	0.00e+00	0	24	0	137363456	67	4293
2026-01-08 01:14:33.57	25.51	8.28	-50.4	-52.0	14.3	0.00e+00	0	24	0	149946368	67	4210
2026-01-08 01:14:37.56	25.44	8.60	-50.2	-51.7	14.3	0.00e+00	0	24	0	162529280	66	4331
2026-01-08 01:14:41.54	25.36	8.92	-50.0	-51.5	14.5	0.00e+00	0	24	0	175112192	66	4222
2026-01-08 01:14:45.53	25.29	9.25	-50.2	-51.7	14.3	0.00e+00	0	24	0	187695104	66	4335
2026-01-08 01:14:49.53	25.21	9.59	-49.9	-51.4	14.5	0.00e+00	0	24	0	199229440	66	4177
2026-01-08 01:14:53.52	25.13	9.93	-49.7	-51.1	14.7	0.00e+00	0	25	0	211812352	66	4042
2026-01-08 01:14:57.51	25.05	10.27	-49.5	-51.0	14.6	0.00e+00	0	24	0	224395264	65	4196
2026-01-08 01:15:01.51	24.96	10.62	-49.4	-50.8	14.7	0.00e+00	0	24	0	236978176	65	4135
2026-01-08 01:15:05.50	24.87	10.98	-49.3	-50.6	14.8	0.00e+00	0	25	0	249561088	65	4048
2026-01-08 01:15:09.49	24.78	11.34	-49.2	-50.6	14.8	0.00e+00	0	24	0	262144000	65	4021
2026-01-08 01:15:13.49	24.69	11.70	-49.0	-50.3	14.8	0.00e+00	0	24	0	274726912	64	4144
2026-01-08 01:15:17.48	24.59	12.07	-49.0	-50.3	14.8	0.00e+00	0	24	0	287309824	64	4116
2026-01-08 01:15:21.48	24.50	12.45	-48.8	-50.1	14.9	0.00e+00	0	24	0	299892736	64	4019
2026-01-08 01:15:25.46	24.40	12.83	-48.8	-50.1	14.9	0.00e+00	0	25	0	312475648	64	4019
2026-01-08 01:15:29.45	24.29	13.22	-48.7	-50.0	15.0	0.00e+00	0	24	0	324009984	64	3972
2026-01-08 01:15:33.44	24.18	13.61	-48.8	-50.1	14.9	0.00e+00	0	24	0	336592896	64	4034
2026-01-08 01:15:37.43	24.07	14.01	-48.7	-50.0	15.0	0.00e+00	0	25	0	349175808	64	3988
2026-01-08 01:15:41.43	23.96	14.42	-48.8	-50.1	15.0	0.00e+00	0	24	0	361758720	64	4019
2026-01-08 01:15:45.42	23.84	14.83	-48.8	-50.1	14.9	0.00e+00	0	25	0	374341632	64	4046
2026-01-08 01:15:49.41	23.72	15.25	-48.9	-50.2	14.9	0.00e+00	0	25	0	386924544	64	4068
2026-01-08 01:15:53.39	23.59	15.67	-49.0	-50.3	14.9	0.00e+00	0	24	0	399507456	64	4100
2026-01-08 01:15:57.39	23.46	16.11	-48.9	-50.2	14.9	0.00e+00	0	25	0	412090368	64	4069
2026-01-08 01:16:01.38	23.33	16.55	-48.8	-50.1	15.0	0.00e+00	0	24	0	424673280	64	4007
2026-01-08 01:16:05.38	23.19	17.00	-48.8	-50.1	15.0	0.00e+00	0	25	0	436207616	64	4009
2026-01-08 01:16:09.38	23.05	17.46	-48.8	-50.1	15.0	0.00e+00	0	25	0	448790528	64	4007
2026-01-08 01:16:13.38	22.90	17.93	-49.0	-50.2	14.9	0.00e+00	0	25	0	461373440	64	4096
2026-01-08 01:16:17.38	22.74	18.41	-48.8	-50.1	14.9	0.00e+00	0	25	0	473956352	64	4032
2026-01-08 01:16:21.37	22.58	18.89	-48.8	-50.1	15.0	0.00e+00	0	25	0	486539264	64	4015
2026-01-08 01:16:25.37	22.42	19.39	-48.7	-49.9	15.0	0.00e+00	0	25	0	499122176	64	3954
2026-01-08 01:16:29.37	22.25	19.89	-48.7	-50.0	14.8	0.00e+00	0	25	0	511705088	63	4201
2026-01-08 01:16:33.37	22.07	20.41	-48.6	-49.8	14.9	0.00e+00	0	25	0	524288000	63	4136
2026-01-08 01:16:37.35	21.89	20.93	-48.4	-49.7	15.0	0.00e+00	0	25	0	536870912	63	4053
2026-01-08 01:16:41.34	21.69	21.47	-48.1	-49.3	15.0	0.00e+00	0	25	0	549453824	62	4130
2026-01-08 01:16:45.35	21.50	22.02	-48.0	-49.2	15.0	0.00e+00	0	25	0	562036736	62	4094
2026-01-08 01:16:49.33	21.29	22.57	-47.7	-48.9	15.2	0.00e+00	0	24	0	573571072	62	3915
2026-01-08 01:16:53.32	21.08	23.14	-47.4	-48.5	15.2	0.00e+00	0	25	0	586153984	61	3999
2026-01-08 01:16:57.33	20.85	23.73	-47.3	-48.4	15.2	0.00e+00	0	25	0	598736896	61	3944
2026-01-08 01:17:01.32	20.62	24.33	-47.3	-48.4	15.1	0.00e+00	0	25	0	611319808	60	4178
2026-01-08 01:17:05.33	20.38	24.94	-47.5	-48.6	15.0	0.00e+00	0	25	0	623902720	60	4279
2026-01-08 01:17:09.33	20.13	25.56	-47.8	-49.0	14.9	0.00e+00	0	25	0	636485632	60	4480
2026-01-08 01:17:13.32	19.86	26.20	-48.2	-49.4	14.9	0.00e+00	0	25	0	649068544	61	4422
2026-01-08 01:17:17.33	19.59	26.85	-48.5	-49.7	14.8	0.00e+00	0	25	0	661651456	62	4340
2026-01-08 01:17:21.31	19.30	27.52	-48.7	-50.0	14.8	0.00e+00	0	25	0	674234368	62	4451
2026-01-08 01:17:25.29	19.00	28.20	-48.6	-49.9	14.9	0.00e+00	0	25	0	686817280	63	4153
2026-01-08 01:17:29.31	18.69	28.90	-48.7	-50.0	14.9	0.00e+00	0	25	0	699400192	63	4198
2026-01-08 01:17:33.30	18.36	29.62	-48.9	-50.2	14.8	0.00e+00	0	25	0	710934528	63	4311
2026-01-08 01:17:37.30	18.01	30.35	-48.7	-49.9	14.9	0.00e+00	0	25	0	723517440	63	4180
2026-01-08 01:17:41.30	17.65	31.11	-48.6	-49.9	14.9	0.00e+00	0	24	0	736100352	63	4160
2026-01-08 01:17:45.29	17.27	31.87	-48.8	-50.0	14.9	0.00e+00	0	25	0	748683264	63	4225
2026-01-08 01:17:49.28	16.88	32.66	-49.0	-50.3	14.8	0.00e+00	0	25	0	761266176	63	4352
2026-01-08 01:17:53.25	16.46	33.47	-49.2	-50.5	14.7	0.00e+00	0	25	0	773849088	63	4480
2026-01-08 01:17:57.26	16.02	34.30	-49.4	-50.7	14.7	0.00e+00	0	25	0	786432000	64	4333
2026-01-08 01:18:01.25	15.55	35.15	-49.8	-51.2	14.5	0.00e+00	0	25	0	799014912	64	4555
2026-01-08 01:18:05.22	15.06	36.01	-50.3	-51.7	14.4	0.00e+00	0	25	0	811597824	65	4588
2026-01-08 01:18:09.22	14.54	36.90	-50.5	-52.0	14.4	0.00e+00	0	25	0	824180736	66	4451
2026-01-08 01:18:13.21	13.99	37.82	-50.5	-51.9	14.4	0.00e+00	0	25	0	836763648	66	4437
2026-01-08 01:18:17.21	13.41	38.75	-50.4	-51.8	14.5	0.00e+00	0	25	0	848297984	66	4368
2026-01-08 01:18:21.21	12.79	39.71	-50.4	-51.8	14.5	0.00e+00	0	25	0	860880896	66	4383
2026-01-08 01:18:25.21	12.13	40.69	-50.3	-51.7	14.6	0.00e+00	0	25	0	873463808	66	4311
2026-01-08 01:18:29.20	11.43	41.70	-49.6	-50.9	14.8	0.00e+00	0	25	0	886046720	65	4177
2026-01-08 01:18:33.19	10.68	42.72	-50.1	-51.5	14.5	0.00e+00	0	25	0	898629632	65	4455
2026-01-08 01:18:37.17	9.89	43.77	-51.0	-52.5	14.3	0.00e+00	0	25	0	911212544	67	4457
2026-01-08 01:18:41.16	9.03	44.84	-51.3	-52.8	14.2	0.00e+00	0	25	0	923795456	67	4618
2026-01-08 01:18:45.14	8.12	45.93	-51.2	-52.7	14.2	0.00e+00	0	25	0	936378368	67	4591
2026-01-08 01:18:49.12	7.14	47.04	-51.0	-52.5	14.3	0.00e+00	0	25	0	948961280	67	4445
2026-01-08 01:18:53.10	6.09	48.17	-50.5	-51.9	14.6	0.00e+00	0	25	0	960495616	67	4190
2026-01-08 01:18:57.09	4.96	49.32	-50.2	-51.5	14.6	0.00e+00	0	25	0	973078528	66	4231
2026-01-08 01:19:01.09	3.73	50.49	-50.4	-51.8	14.5	0.00e+00	0	25	0	985661440	66	4347
2026-01-08 01:19:05.09	2.39	51.68	-50.1	-51.5	14.7	0.00e+00	0	25	0	998244352	66	4218
2026-01-08 01:19:09.07	0.96	52.87	-50.3	-51.8	14.5	0.00e+00	0	25	0	1010827264	66	4344
2026-01-08 01:19:13.07	359.39	54.08	-49.8	-51.1	14.8	0.00e+00	0	25	0	1023410176	66	4036
2026-01-08 01:19:17.06	357.69	55.29	-49.3	-50.5	15.0	0.00e+00	0	25	0	1035993088	65	3998
2026-01-08 01:19:21.06	355.83	56.50	-49.3	-50.5	14.9	0.00e+00	0	25	0	1048576000	64	4232
2026-01-08 01:19:25.06	353.79	57.71	-48.5	-49.7	15.0	0.00e+00	0	25	0	1061158912	63	4067
2026-01-08 01:19:29.06	351.57	58.90	-48.0	-49.2	15.0	0.00e+00	0	25	0	1073741824	62	4054
2026-01-08 01:19:33.05	349.14	60.07	-47.7	-48.8	15.1	0.00e+00	0	25	0	1085276160	61	4125
2026-01-08 01:19:37.04	346.49	61.21	-47.9	-49.0	15.1	0.00e+00	0	25	0	1097859072	61	4209
2026-01-08 01:19:40.95	343.64	62.29	-47.8	-48.9	15.1	0.00e+00	0	25	0	1110441984	61	4171
2026-01-08 01:19:44.95	340.46	63.34	-48.0	-49.2	15.0	0.00e+00	0	25	0	1123024896	61	4297
2026-01-08 01:19:48.91	337.03	64.32	-47.9	-49.1	15.0	0.00e+00	0	25	0	1134559232	61	4263
2026-01-08 01:19:52.90	333.27	65.23	-47.8	-48.9	15.0	0.00e+00	0	25	0	1147142144	61	4174
2026-01-08 01:19:56.87	329.23	66.03	-47.8	-48.9	15.1	0.00e+00	0	25	0	1159725056	61	4162
2026-01-08 01:20:00.85	324.90	66.73	-48.0	-49.1	15.0	0.00e+00	0	25	0	1172307968	61	4288
2026-01-08 01:20:04.85	320.26	67.31	-47.8	-49.0	15.1	0.00e+00	0	25	0	1184890880	61	4207
2026-01-08 01:20:08.85	315.40	67.74	-47.4	-48.5	15.1	0.00e+00	0	25	0	1197473792	60	4213
2026-01-08 01:20:12.85	310.36	68.03	-47.1	-48.1	15.2	0.00e+00	0	25	0	1210056704	60	4039
2026-01-08 01:20:16.84	305.23	68.15	-47.8	-48.9	15.1	0.00e+00	0	25	0	1222639616	61	4193
2026-01-08 01:20:20.83	300.09	68.11	-48.2	-49.4	15.0	0.00e+00	0	25	0	1235222528	61	4403
2026-01-08 01:20:24.82	295.00	67.91	-47.6	-48.7	15.2	0.00e+00	0	25	0	1246756864	61	4068
2026-01-08 01:20:28.84	290.01	67.54	-48.0	-49.2	15.0	0.00e+00	0	25	0	1259339776	61	4309
2026-01-08 01:20:32.84	285.26	67.04	-48.2	-49.4	15.0	0.00e+00	0	25	0	1271922688	61	4422
2026-01-08 01:20:36.82	280.78	66.40	-47.7	-48.8	15.2	0.00e+00	0	25	0	1284505600	62	3880
2026-01-08 01:20:40.83	276.55	65.63	-47.6	-48.7	15.2	0.00e+00	0	25	0	1297088512	61	4064
2026-01-08 01:20:44.81	272.65	64.77	-48.3	-49.5	15.0	0.00e+00	0	25	0	1309671424	62	4198
2026-01-08 01:20:48.79	269.05	63.83	-48.7	-49.9	15.1	0.00e+00	0	25	0	1322254336	64	3947
2026-01-08 01:20:52.77	265.74	62.81	-48.3	-49.5	15.0	0.00e+00	0	25	0	1334837248	62	4219
2026-01-08 01:20:56.75	262.71	61.73	-48.7	-49.9	15.0	0.00e+00	0	25	0	1347420160	63	4192
2026-01-08 01:21:00.74	259.94	60.61	-49.4	-50.6	14.8	0.00e+00	0	25	0	1360003072	64	4274
2026-01-08 01:21:04.73	257.40	59.45	-47.3	-48.4	15.1	0.00e+00	0	25	0	1371537408	60	4187
2026-01-08 01:21:08.72	255.09	58.27	-49.5	-50.8	14.7	0.00e+00	0	25	0	1384120320	64	4356
2026-01-08 01:21:12.71	252.97	57.07	-48.7	-49.9	15.0	0.00e+00	0	25	0	1396703232	63	4176
2026-01-08 01:21:16.72	251.02	55.85	-49.3	-50.5	14.7	0.00e+00	0	25	0	1409286144	63	4481
2026-01-08 01:21:20.73	249.24	54.63	-48.3	-49.4	15.1	0.00e+00	0	25	0	1421869056	62	4169
2026-01-08 01:21:24.72	247.61	53.42	-50.5	-51.9	14.5	0.00e+00	0	25	0	1434451968	66	4410
2026-01-08 01:21:28.71	246.11	52.22	-49.5	-50.8	14.8	0.00e+00	0	25	0	1447034880	65	4114
2026-01-08 01:21:32.72	244.72	51.02	-50.5	-51.9	14.2	0.00e+00	0	25	0	1459617792	66	4403
2026-01-08 01:21:36.72	243.44	49.84	-49.9	-51.2	14.7	0.00e+00	0	25	0	1472200704	66	4064
2026-01-08 01:21:40.72	242.26	48.67	-49.8	-51.1	14.6	0.00e+00	0	25	0	1484783616	65	4248
2026-01-08 01:21:44.71	241.17	47.53	-52.2	-54.0	13.8	0.00e+00	0	25	0	1497366528	69	4731
2026-01-08 01:21:48.70	240.15	46.40	-51.5	-53.0	14.4	0.00e+00	0	25	0	1508900864	69	4194
2026-01-08 01:21:52.69	239.21	45.30	-51.0	-52.4	14.5	0.00e+00	0	25	0	1521483776	68	4177
2026-01-08 01:21:56.66	238.33	44.22	-50.7	-52.1	14.5	0.00e+00	0	25	0	1534066688	67	4269
2026-01-08 01:22:00.65	237.51	43.16	-50.9	-52.4	14.3	0.00e+00	0	25	0	1546649600	67	4397
2026-01-08 01:22:04.64	236.73	42.12	-51.2	-52.7	14.1	0.00e+00	0	25	0	1559232512	67	4586
2026-01-08 01:22:08.63	236.01	41.10	-51.1	-52.6	14.3	0.00e+00	0	25	0	1571815424	67	4502
2026-01-08 01:22:12.63	235.33	40.11	-50.7	-52.1	14.5	0.00e+00	0	25	0	1584398336	67	4279
2026-01-08 01:22:16.63	234.69	39.14	-50.8	-52.3	14.4	0.00e+00	0	25	0	1596981248	67	4365
2026-01-08 01:22:20.61	234.10	38.19	-50.5	-51.8	14.6	0.00e+00	0	25	0	1609564160	67	4142
2026-01-08 01:22:24.62	233.53	37.26	-51.6	-53.2	14.2	0.00e+00	0	25	0	1621098496	68	4586
2026-01-08 01:22:28.61	232.99	36.36	-50.3	-51.7	14.7	0.00e+00	0	25	0	1633681408	67	4076
2026-01-08 01:22:32.61	232.49	35.48	-49.8	-51.0	14.9	0.00e+00	0	25	0	1646264320	66	4004
2026-01-08 01:22:36.60	232.01	34.62	-50.1	-51.5	14.7	0.00e+00	0	25	0	1658847232	66	4202
2026-01-08 01:22:40.59	231.55	33.78	-50.0	-51.4	14.7	0.00e+00	0	25	0	1671430144	66	4177
2026-01-08 01:22:44.58	231.12	32.96	-50.0	-51.4	14.7	0.00e+00	0	25	0	1684013056	66	4161
2026-01-08 01:22:48.58	230.71	32.16	-49.7	-51.0	14.9	0.00e+00	0	25	0	1696595968	66	4002
2026-01-08 01:22:52.56	230.33	31.38	-48.5	-49.7	15.0	0.00e+00	0	25	0	1709178880	63	4079
2026-01-08 01:22:56.54	229.96	30.62	-48.3	-49.5	15.1	0.00e+00	0	25	0	1721761792	63	3972
2026-01-08 01:23:00.52	229.61	29.88	-48.6	-49.8	14.9	0.00e+00	0	25	0	1733296128	63	4128
2026-01-08 01:23:04.52	229.27	29.15	-48.7	-49.9	14.9	0.00e+00	0	25	0	1745879040	63	4166
2026-01-08 01:23:08.49	228.95	28.45	-49.0	-50.3	14.8	0.00e+00	0	25	0	1758461952	63	4370
2026-01-08 01:23:12.48	228.64	27.76	-49.1	-50.4	14.7	0.00e+00	0	25	0	1771044864	63	4421
2026-01-08 01:23:16.48	228.35	27.08	-48.8	-50.1	14.9	0.00e+00	0	25	0	1783627776	63	4254
2026-01-08 01:23:20.47	228.07	26.42	-48.5	-49.7	15.0	0.00e+00	0	25	0	1796210688	63	4076
2026-01-08 01:23:24.46	227.80	25.77	-48.1	-49.2	15.0	0.00e+00	0	25	0	1808793600	62	4098
2026-01-08 01:23:28.45	227.54	25.14	-47.9	-49.0	15.1	0.00e+00	0	25	0	1821376512	62	3990
2026-01-08 01:23:32.44	227.29	24.53	-48.0	-49.2	15.1	0.00e+00	0	25	0	1833959424	62	4080
2026-01-08 01:23:36.43	227.05	23.92	-48.3	-49.5	14.9	0.00e+00	0	25	0	1846542336	62	4235
2026-01-08 01:23:40.43	226.82	23.33	-48.5	-49.7	14.9	0.00e+00	0	25	0	1858076672	62	4313
2026-01-08 01:23:44.42	226.60	22.76	-48.4	-49.6	14.9	0.00e+00	0	25	0	1870659584	62	4252
2026-01-08 01:23:48.40	226.39	22.19	-48.4	-49.6	14.9	0.00e+00	0	25	0	1883242496	62	4273
2026-01-08 01:23:52.39	226.19	21.64	-48.5	-49.8	14.8	0.00e+00	0	25	0	1895825408	62	4355
2026-01-08 01:23:56.36	225.99	21.10	-48.6	-49.8	14.8	0.00e+00	0	25	0	1908408320	62	4384
2026-01-08 01:24:00.35	225.81	20.57	-48.6	-49.8	14.8	0.00e+00	0	25	0	1920991232	62	4375
2026-01-08 01:24:04.34	225.62	20.05	-48.5	-49.7	14.8	0.00e+00	0	25	0	1933574144	62	4333
2026-01-08 01:24:08.33	225.45	19.54	-48.6	-49.9	14.8	0.00e+00	0	25	0	1946157056	62	4403
2026-01-08 01:24:12.33	225.28	19.04	-48.6	-49.9	14.8	0.00e+00	0	25	0	1958739968	62	4398
2026-01-08 01:24:16.33	225.11	18.55	-48.6	-49.9	14.8	0.00e+00	0	25	0	1970274304	62	4402
2026-01-08 01:24:20.34	224.95	18.06	-48.6	-49.9	14.8	0.00e+00	0	25	0	1982857216	62	4408
2026-01-08 01:24:24.33	224.80	17.59	-48.7	-50.0	14.7	0.00e+00	0	25	0	1995440128	62	4450
2026-01-08 01:24:28.32	224.65	17.13	-48.9	-50.1	14.8	0.00e+00	0	25	0	2008023040	63	4287
2026-01-08 01:24:32.31	224.51	16.67	-49.0	-50.3	14.7	0.00e+00	0	25	0	2020605952	63	4360
2026-01-08 01:24:36.33	224.37	16.22	-49.1	-50.4	14.7	0.00e+00	0	25	0	2033188864	63	4415
2026-01-08 01:24:40.32	224.24	15.78	-49.2	-50.5	14.6	0.00e+00	0	25	0	2045771776	63	4484
2026-01-08 01:24:44.31	224.11	15.35	-49.3	-50.7	14.7	0.00e+00	0	25	0	2058354688	64	4295
2026-01-08 01:24:48.31	223.98	14.93	-49.3	-50.6	14.7	0.00e+00	0	25	0	2070937600	64	4284
2026-01-08 01:24:52.30	223.86	14.51	-49.3	-50.6	14.7	0.00e+00	0	25	0	2083520512	64	4273
2026-01-08 01:24:56.30	223.74	14.10	-49.2	-50.5	14.7	0.00e+00	0	25	0	2096103424	64	4225
2026-01-08 01:25:00.29	223.63	13.69	-49.1	-50.4	14.7	0.00e+00	0	25	0	2107637760	64	4189
2026-01-08 01:25:04.27	223.52	13.30	-49.2	-50.5	14.7	0.00e+00	0	25	0	2120220672	64	4234
2026-01-08 01:25:08.26	223.41	12.91	-49.5	-50.9	14.5	0.00e+00	0	25	0	2132803584	64	4394
2026-01-08 01:25:12.27	223.30	12.52	-49.5	-50.9	14.5	0.00e+00	0	25	0	2145386496	64	4413
2026-01-08 01:25:16.27	223.20	12.14	-49.5	-50.9	14.5	0.00e+00	0	25	0	2157969408	64	4431
2026-01-08 01:25:20.27	223.10	11.77	-49.5	-50.8	14.5	0.00e+00	0	25	0	2170552320	64	4384
2026-01-08 01:25:24.26	223.01	11.40	-49.7	-51.1	14.4	0.00e+00	0	25	0	2183135232	64	4523
2026-01-08 01:25:28.25	222.91	11.04	-49.7	-51.1	14.4	0.00e+00	0	25	0	2195718144	64	4534
2026-01-08 01:25:32.25	222.82	10.68	-50.0	-51.4	14.4	0.00e+00	0	25	0	2208301056	65	4432
2026-01-08 01:25:36.26	222.73	10.33	-49.9	-51.3	14.4	0.00e+00	0	25	0	2220883968	65	4368
2026-01-08 01:25:40.25	222.65	9.98	-49.9	-51.4	14.4	0.00e+00	0	25	0	2233466880	65	4398
2026-01-08 01:25:44.25	222.56	9.64	-49.8	-51.2	14.4	0.00e+00	0	25	0	2245001216	65	4336
2026-01-08 01:25:48.25	222.48	9.30	-49.8	-51.3	14.4	0.00e+00	0	25	0	2257584128	65	4353
2026-01-08 01:25:52.25	222.40	8.96	-49.8	-51.2	14.4	0.00e+00	0	25	0	2270167040	65	4331
2026-01-08 01:25:56.22	222.33	8.64	-49.8	-51.3	14.4	0.00e+00	0	25	0	2282749952	65	4355
2026-01-08 01:26:00.20	222.25	8.31	-49.8	-51.3	14.3	0.00e+00	0	25	0	2295332864	65	4372
2026-01-08 01:26:04.19	222.18	7.99	-49.9	-51.4	14.3	0.00e+00	0	25	0	2307915776	65	4399
2026-01-08 01:26:08.19	222.11	7.67	-50.1	-51.6	14.2	0.00e+00	0	25	0	2320498688	65	4521
2026-01-08 01:26:12.20	222.04	7.36	-50.0	-51.6	14.2	0.00e+00	0	25	0	2333081600	65	4498
2026-01-08 01:26:16.19	221.97	7.05	-50.0	-51.5	14.2	0.00e+00	0	25	0	2345664512	65	4492
2026-01-08 01:26:20.18	221.90	6.74	-50.2	-51.7	14.1	0.00e+00	0	25	0	2358247424	65	4586
2026-01-08 01:26:24.17	221.84	6.44	-50.3	-51.8	14.0	0.00e+00	0	25	0	2369781760	65	4642
2026-01-08 01:26:28.16	221.78	6.14	-50.4	-52.1	14.0	0.00e+00	0	25	0	2382364672	66	4505
2026-01-08 01:26:32.15	221.71	5.85	-50.5	-52.1	14.0	0.00e+00	0	25	0	2394947584	66	4543
2026-01-08 01:26:36.14	221.65	5.56	-50.6	-52.3	13.9	0.00e+00	0	25	0	2407530496	66	4637
2026-01-08 01:26:40.14	221.60	5.27	-50.9	-52.7	13.8	0.00e+00	0	25	0	2420113408	67	4573
2026-01-08 01:26:44.12	221.54	4.98	-58.1	-71.9	3.8	1.14e+00	0	25	104	2431647744	81	18597
2026-01-08 01:26:48.12	221.48	4.70	-59.2	-73.0	3.8	1.49e+00	0	25	104	2431647744	83	18940
2026-01-08 01:26:52.14	221.43	4.42	-59.7	-73.6	3.8	1.49e+00	0	25	104	2431647744	84	18977
2026-01-08 01:26:56.13	221.37	4.14	-59.9	-73.7	3.8	1.49e+00	0	25	104	2431647744	84	19364
2026-01-08 01:27:00.12	221.32	3.87	-60.0	-73.9	3.8	1.49e+00	0	25	104	2431647744	85	18602
2026-01-08 01:27:04.09	221.27	3.60	-60.2	-74.0	3.8	1.49e+00	0	25	104	2431647744	85	18908
2026-01-08 01:27:08.08	221.22	3.33	-60.1	-74.0	3.8	1.49e+00	0	25	104	2431647744	85	18787
2026-01-08 01:27:12.09	221.17	3.06	-60.1	-73.9	3.8	1.49e+00	0	25	104	2431647744	85	18681
2026-01-08 01:27:16.09	221.13	2.80	-60.0	-73.9	3.8	1.49e+00	0	25	104	2431647744	85	18616
2026-01-08 01:27:20.10	221.08	2.53	-60.0	-73.8	3.8	1.49e+00	0	25	104	2431647744	85	18510
2026-01-08 01:27:24.10	221.03	2.27	-60.0	-73.8	3.8	1.49e+00	0	25	104	2431647744	85	18436
2026-01-08 01:27:28.09	220.99	2.02	-59.9	-73.8	3.8	1.49e+00	0	25	104	2431647744	85	18457

#Closed at: 2026-01-08 01:27:28
#Recorded file [2431 MB]: D:/lorett/data/31004_260108_041305.dat