passes_logs/2026/01/08/R3.2S_Murmansk/R3.2S_Murmansk__20260108_064052_SUOMI_NPP_rec.log

#Pass ID: 20260108_064052_SUOMI NPP
#Satellite: SUOMI NPP
#Configuration: NPP
#almurnet v.1.7.20251203
#Start time: 2026-01-08 06:40:51

#Version: 2.2.20231116
#Station: R3.2S_Murmansk
#Location: 33.079688 lon 68.888172 lat
#TLE: 1 37849U 11061A   26005.94084933  .00000134  00000+0  84554-4 0  9990
#TLE: 2 37849  98.7803 308.0679 0002567  79.1029 281.0436 14.19522657735426

#Time	Az	El	Level	Level2	SNR	BER	BlckErr	Temp	State	Recorded	gain1	gain2
2026-01-08 06:40:51.61	87.22	1.97	-57.4	-73.4	3.8	1.49e+00	0	22	0	0	81	22177
2026-01-08 06:40:55.61	87.00	2.20	-57.3	-73.3	3.8	1.49e+00	0	23	104	0	79	24641
2026-01-08 06:40:59.62	86.77	2.44	-57.3	-73.3	3.8	1.49e+00	0	23	104	0	79	24631
2026-01-08 06:41:03.61	86.54	2.67	-57.3	-73.3	3.8	1.49e+00	0	23	104	0	79	24647
2026-01-08 06:41:07.61	86.31	2.91	-57.4	-73.4	3.8	1.49e+00	0	23	104	0	79	24733
2026-01-08 06:41:11.63	86.07	3.16	-57.3	-73.3	3.8	1.49e+00	0	23	104	0	79	24667
2026-01-08 06:41:15.63	85.83	3.40	-57.3	-73.3	3.8	1.49e+00	0	23	104	0	79	24611
2026-01-08 06:41:19.64	85.58	3.64	-57.4	-73.4	3.8	1.49e+00	0	23	104	0	79	24742
2026-01-08 06:41:23.63	85.33	3.89	-57.3	-73.2	3.8	1.49e+00	0	23	104	0	79	24315
2026-01-08 06:41:27.63	85.07	4.14	-57.4	-73.3	3.8	1.49e+00	0	23	104	0	79	24683
2026-01-08 06:41:31.62	84.81	4.39	-57.3	-72.0	3.8	1.49e+00	0	23	104	0	79	21090
2026-01-08 06:41:35.61	84.54	4.64	-57.1	-69.3	4.4	1.32e+00	73	24	0	0	79	15437
2026-01-08 06:41:39.62	84.27	4.89	-56.9	-66.2	5.8	3.85e-01	0	23	0	7340032	79	10858
2026-01-08 06:41:43.61	84.00	5.14	-56.5	-63.0	8.6	1.60e-01	0	24	0	14680064	79	7502
2026-01-08 06:41:47.61	83.72	5.40	-55.1	-59.4	11.5	1.14e-04	0	24	0	19922944	76	5868
2026-01-08 06:41:51.60	83.43	5.66	-54.4	-58.0	12.4	3.00e-06	0	24	0	27262976	75	5294
2026-01-08 06:41:55.58	83.14	5.92	-54.0	-57.2	13.0	0.00e+00	0	24	0	34603008	74	5108
2026-01-08 06:41:59.56	82.85	6.18	-54.0	-57.2	12.9	0.00e+00	0	24	0	41943040	74	5153
2026-01-08 06:42:03.53	82.55	6.44	-53.3	-56.4	13.3	0.00e+00	0	24	0	49283072	73	4980
2026-01-08 06:42:07.51	82.24	6.71	-53.1	-56.2	13.4	0.00e+00	0	24	0	56623104	72	5112
2026-01-08 06:42:11.50	81.93	6.97	-53.1	-56.0	13.6	0.00e+00	0	24	0	65011712	72	5032
2026-01-08 06:42:15.49	81.61	7.24	-52.9	-55.8	13.7	0.00e+00	0	24	0	72351744	72	4893
2026-01-08 06:42:19.47	81.28	7.51	-52.8	-55.6	13.8	0.00e+00	0	24	0	79691776	72	4778
2026-01-08 06:42:23.47	80.95	7.79	-53.0	-55.9	13.6	0.00e+00	0	24	0	87031808	72	4981
2026-01-08 06:42:27.47	80.61	8.06	-52.9	-55.8	13.7	0.00e+00	0	24	0	94371840	72	4905
2026-01-08 06:42:31.46	80.27	8.34	-53.0	-55.9	13.7	0.00e+00	0	24	0	101711872	72	4948
2026-01-08 06:42:35.46	79.91	8.62	-52.9	-55.7	13.8	0.00e+00	0	24	0	109051904	72	4842
2026-01-08 06:42:39.45	79.56	8.90	-53.1	-55.9	13.7	0.00e+00	0	24	0	116391936	72	4951
2026-01-08 06:42:43.44	79.19	9.18	-53.2	-56.1	13.6	0.00e+00	0	24	0	124780544	72	5066
2026-01-08 06:42:47.43	78.82	9.47	-52.9	-55.6	13.8	0.00e+00	0	24	0	132120576	72	4814
2026-01-08 06:42:51.43	78.43	9.76	-52.9	-55.7	13.7	0.00e+00	0	24	0	139460608	71	5157
2026-01-08 06:42:55.43	78.04	10.05	-53.0	-56.0	13.6	0.00e+00	0	24	0	146800640	71	5305
2026-01-08 06:42:59.43	77.64	10.34	-52.7	-55.5	13.9	0.00e+00	0	24	0	154140672	71	4997
2026-01-08 06:43:03.45	77.24	10.64	-52.6	-55.3	13.9	0.00e+00	0	24	0	161480704	71	4925
2026-01-08 06:43:07.45	76.82	10.93	-52.7	-55.6	13.8	0.00e+00	0	24	0	168820736	71	5085
2026-01-08 06:43:11.46	76.40	11.23	-52.5	-55.2	14.0	0.00e+00	0	24	0	177209344	71	4866
2026-01-08 06:43:15.48	75.96	11.53	-52.8	-55.7	13.7	0.00e+00	0	24	0	184549376	71	5140
2026-01-08 06:43:19.48	75.52	11.84	-52.6	-55.3	14.0	0.00e+00	0	24	0	191889408	71	4876
2026-01-08 06:43:23.49	75.07	12.14	-52.5	-55.1	14.1	0.00e+00	0	24	0	199229440	71	4768
2026-01-08 06:43:27.49	74.60	12.45	-52.4	-54.9	14.2	0.00e+00	0	24	0	206569472	71	4672
2026-01-08 06:43:31.51	74.13	12.76	-52.5	-55.1	14.1	0.00e+00	0	24	0	214958080	71	4808
2026-01-08 06:43:35.51	73.65	13.07	-52.7	-55.4	13.9	0.00e+00	0	24	0	222298112	71	4953
2026-01-08 06:43:39.52	73.16	13.38	-53.0	-55.8	13.7	0.00e+00	0	24	0	229638144	71	5201
2026-01-08 06:43:43.52	72.65	13.70	-52.7	-55.4	13.9	0.00e+00	0	24	0	236978176	71	4953
2026-01-08 06:43:47.53	72.14	14.01	-52.5	-55.1	14.1	0.00e+00	0	24	0	244318208	71	4803
2026-01-08 06:43:51.54	71.61	14.33	-52.0	-54.3	14.4	0.00e+00	0	24	0	251658240	70	4617
2026-01-08 06:43:55.53	71.07	14.65	-51.6	-53.8	14.5	0.00e+00	0	24	0	260046848	69	4610
2026-01-08 06:43:59.54	70.52	14.97	-51.7	-54.0	14.5	0.00e+00	0	24	0	267386880	69	4717
2026-01-08 06:44:03.55	69.96	15.30	-51.7	-54.0	14.4	0.00e+00	0	24	0	274726912	69	4719
2026-01-08 06:44:07.54	69.39	15.62	-51.8	-54.1	14.4	0.00e+00	0	24	0	282066944	69	4781
2026-01-08 06:44:11.51	68.81	15.94	-51.8	-54.1	14.4	0.00e+00	0	24	0	289406976	69	4766
2026-01-08 06:44:15.49	68.21	16.27	-51.7	-53.9	14.5	0.00e+00	0	25	0	296747008	69	4670
2026-01-08 06:44:19.49	67.60	16.60	-51.6	-53.8	14.5	0.00e+00	0	24	0	304087040	69	4644
2026-01-08 06:44:23.47	66.97	16.92	-51.7	-54.1	14.4	0.00e+00	0	24	0	311427072	69	4808
2026-01-08 06:44:27.46	66.33	17.25	-51.7	-54.2	14.4	0.00e+00	0	24	0	319815680	69	4830
2026-01-08 06:44:31.46	65.68	17.58	-51.9	-54.3	14.3	0.00e+00	0	24	0	327155712	69	4907
2026-01-08 06:44:35.45	65.01	17.91	-52.3	-55.0	14.0	0.00e+00	0	24	0	334495744	69	5320
2026-01-08 06:44:39.44	64.33	18.24	-52.1	-54.5	14.2	0.00e+00	0	24	0	341835776	69	5020
2026-01-08 06:44:43.44	63.63	18.57	-52.1	-54.6	14.2	0.00e+00	0	24	0	349175808	69	5058
2026-01-08 06:44:47.43	62.91	18.90	-51.8	-54.2	14.4	0.00e+00	0	24	0	356515840	69	4849
2026-01-08 06:44:51.43	62.18	19.23	-51.7	-54.1	14.4	0.00e+00	0	25	0	363855872	69	4780
2026-01-08 06:44:55.43	61.43	19.56	-52.2	-54.7	14.1	0.00e+00	0	24	0	372244480	69	5135
2026-01-08 06:44:59.43	60.67	19.89	-52.0	-54.4	14.3	0.00e+00	0	24	0	379584512	69	4945
2026-01-08 06:45:03.42	59.89	20.22	-51.6	-53.8	14.6	0.00e+00	0	25	0	386924544	69	4631
2026-01-08 06:45:07.41	59.09	20.55	-51.5	-53.6	14.7	0.00e+00	0	24	0	394264576	69	4533
2026-01-08 06:45:11.41	58.28	20.87	-52.0	-54.4	14.3	0.00e+00	0	25	0	401604608	69	4934
2026-01-08 06:45:15.39	57.45	21.19	-51.8	-54.2	14.4	0.00e+00	0	25	0	408944640	69	4823
2026-01-08 06:45:19.38	56.60	21.51	-50.7	-52.6	15.0	0.00e+00	0	24	0	416284672	68	4264
2026-01-08 06:45:23.37	55.73	21.83	-50.7	-52.7	14.7	0.00e+00	0	24	0	424673280	67	4588
2026-01-08 06:45:27.37	54.85	22.14	-50.8	-52.9	14.7	0.00e+00	0	24	0	432013312	67	4686
2026-01-08 06:45:31.38	53.94	22.45	-50.4	-52.4	14.9	0.00e+00	0	25	0	439353344	67	4398
2026-01-08 06:45:35.39	53.01	22.76	-50.1	-51.9	15.0	0.00e+00	0	24	0	446693376	66	4398
2026-01-08 06:45:39.38	52.07	23.06	-50.6	-52.5	14.7	0.00e+00	0	24	0	454033408	66	4756
2026-01-08 06:45:43.37	51.12	23.35	-50.0	-51.8	15.0	0.00e+00	0	24	0	461373440	66	4343
2026-01-08 06:45:47.37	50.14	23.64	-49.9	-51.7	14.9	0.00e+00	0	25	0	469762048	65	4552
2026-01-08 06:45:51.37	49.14	23.93	-49.9	-51.6	14.9	0.00e+00	0	24	0	477102080	65	4543
2026-01-08 06:45:55.39	48.13	24.21	-50.2	-52.0	14.8	0.00e+00	0	24	0	484442112	65	4713
2026-01-08 06:45:59.38	47.10	24.48	-51.0	-52.9	14.5	0.00e+00	0	25	0	491782144	67	4702
2026-01-08 06:46:03.37	46.05	24.74	-50.6	-52.5	14.9	0.00e+00	0	24	0	499122176	67	4461
2026-01-08 06:46:07.37	44.98	24.99	-50.6	-52.5	14.8	0.00e+00	0	24	0	506462208	67	4471
2026-01-08 06:46:11.35	43.90	25.24	-50.6	-52.5	14.9	0.00e+00	0	24	0	513802240	67	4466
2026-01-08 06:46:15.32	42.81	25.47	-49.8	-51.5	15.2	0.00e+00	0	24	0	521142272	66	4240
2026-01-08 06:46:19.32	41.69	25.70	-49.5	-51.1	15.2	0.00e+00	0	25	0	529530880	65	4291
2026-01-08 06:46:23.31	40.56	25.92	-50.1	-51.8	14.9	0.00e+00	0	24	0	536870912	65	4635
2026-01-08 06:46:27.30	39.41	26.12	-50.3	-52.2	14.7	0.00e+00	0	24	0	544210944	65	4838
2026-01-08 06:46:31.30	38.25	26.32	-50.6	-52.4	14.7	0.00e+00	0	25	0	551550976	66	4696
2026-01-08 06:46:35.31	37.07	26.50	-51.1	-53.2	14.5	0.00e+00	0	24	0	558891008	67	4841
2026-01-08 06:46:39.29	35.89	26.67	-51.9	-54.0	14.3	0.00e+00	0	24	0	566231040	68	5031
2026-01-08 06:46:43.28	34.69	26.83	-51.4	-53.3	14.7	0.00e+00	0	25	0	573571072	69	4389
2026-01-08 06:46:47.28	33.47	26.97	-51.8	-53.9	14.6	0.00e+00	0	25	0	581959680	69	4680
2026-01-08 06:46:51.28	32.25	27.11	-52.5	-54.9	14.2	0.00e+00	0	25	0	589299712	70	4940
2026-01-08 06:46:55.26	31.02	27.22	-52.1	-54.4	14.3	0.00e+00	0	24	0	596639744	70	4704
2026-01-08 06:46:59.24	29.78	27.32	-51.8	-54.1	14.6	0.00e+00	0	24	0	603979776	70	4526
2026-01-08 06:47:03.24	28.53	27.41	-51.6	-53.9	14.5	0.00e+00	0	25	0	611319808	69	4672
2026-01-08 06:47:07.21	27.28	27.49	-51.6	-53.9	14.5	0.00e+00	0	25	0	618659840	69	4659
2026-01-08 06:47:11.20	26.02	27.54	-52.5	-55.2	13.9	0.00e+00	0	25	0	625999872	70	5133
2026-01-08 06:47:15.18	24.76	27.59	-52.6	-55.1	14.1	0.00e+00	0	24	0	634388480	70	5084
2026-01-08 06:47:19.17	23.50	27.61	-51.2	-53.1	14.7	0.00e+00	0	25	0	641728512	68	4540
2026-01-08 06:47:23.16	22.23	27.62	-51.8	-54.0	14.4	0.00e+00	0	25	0	649068544	69	4759
2026-01-08 06:47:27.15	20.96	27.62	-52.1	-54.4	14.3	0.00e+00	0	24	0	656408576	69	4948
2026-01-08 06:47:31.15	19.69	27.60	-51.3	-53.3	14.8	0.00e+00	0	25	0	663748608	69	4352
2026-01-08 06:47:35.15	18.42	27.56	-51.9	-54.0	14.5	0.00e+00	0	24	0	671088640	69	4744
2026-01-08 06:47:39.14	17.16	27.51	-51.6	-53.6	14.7	0.00e+00	0	25	0	678428672	69	4543
2026-01-08 06:47:43.15	15.90	27.45	-50.5	-52.2	15.0	0.00e+00	0	25	0	685768704	67	4322
2026-01-08 06:47:47.14	14.65	27.37	-50.5	-52.3	14.9	0.00e+00	0	25	0	694157312	67	4367
2026-01-08 06:47:51.13	13.41	27.27	-50.4	-52.2	15.0	0.00e+00	0	24	0	701497344	67	4295
2026-01-08 06:47:55.13	12.17	27.16	-51.1	-53.0	14.6	0.00e+00	0	24	0	708837376	67	4752
2026-01-08 06:47:59.12	10.94	27.04	-51.4	-53.3	14.7	0.00e+00	0	24	0	716177408	68	4610
2026-01-08 06:48:03.11	9.73	26.90	-51.7	-53.7	14.5	0.00e+00	0	25	0	723517440	68	4869
2026-01-08 06:48:07.09	8.53	26.75	-51.9	-53.9	14.6	0.00e+00	0	25	0	730857472	69	4658
2026-01-08 06:48:11.09	7.33	26.58	-50.9	-52.7	14.9	0.00e+00	0	25	0	738197504	68	4311
2026-01-08 06:48:15.05	6.16	26.41	-51.1	-53.0	14.8	0.00e+00	0	25	0	746586112	68	4444
2026-01-08 06:48:19.03	5.00	26.22	-51.6	-53.6	14.6	0.00e+00	0	25	0	753926144	68	4804
2026-01-08 06:48:23.02	3.84	26.02	-52.1	-54.3	14.4	0.00e+00	0	25	0	761266176	69	4880
2026-01-08 06:48:27.01	2.71	25.81	-52.7	-55.1	14.1	0.00e+00	0	25	0	768606208	70	5079
2026-01-08 06:48:31.00	1.59	25.59	-52.7	-55.1	14.1	0.00e+00	0	24	0	775946240	70	5065
2026-01-08 06:48:35.00	0.48	25.35	-51.9	-54.1	14.6	0.00e+00	0	25	0	783286272	70	4501
2026-01-08 06:48:38.99	359.39	25.11	-51.8	-53.9	14.7	0.00e+00	0	25	0	790626304	70	4413
2026-01-08 06:48:42.97	358.32	24.86	-51.8	-54.1	14.4	0.00e+00	0	25	0	799014912	69	4795
2026-01-08 06:48:46.96	357.27	24.60	-50.4	-52.3	14.9	0.00e+00	0	24	0	806354944	67	4376
2026-01-08 06:48:50.96	356.23	24.34	-52.1	-54.6	14.2	0.00e+00	0	25	0	813694976	69	5060
2026-01-08 06:48:54.95	355.21	24.06	-52.4	-55.1	14.0	0.00e+00	0	24	0	821035008	70	5052
2026-01-08 06:48:58.96	354.20	23.78	-51.8	-54.1	14.6	0.00e+00	0	25	0	828375040	70	4535
2026-01-08 06:49:02.94	353.22	23.50	-51.6	-53.8	14.6	0.00e+00	0	25	0	835715072	69	4628
2026-01-08 06:49:06.94	352.26	23.20	-51.7	-54.0	14.5	0.00e+00	0	25	0	843055104	69	4728
2026-01-08 06:49:10.94	351.31	22.90	-50.9	-52.9	14.9	0.00e+00	0	25	0	850395136	68	4412
2026-01-08 06:49:14.94	350.38	22.60	-50.7	-52.6	14.8	0.00e+00	0	24	0	858783744	67	4503
2026-01-08 06:49:18.92	349.47	22.30	-50.3	-52.0	15.1	0.00e+00	0	25	0	866123776	67	4238
2026-01-08 06:49:22.91	348.58	21.99	-49.8	-51.5	15.2	0.00e+00	0	25	0	873463808	66	4225
2026-01-08 06:49:26.90	347.71	21.67	-50.0	-51.8	14.9	0.00e+00	0	24	0	880803840	65	4649
2026-01-08 06:49:30.89	346.85	21.35	-50.9	-52.9	14.5	0.00e+00	0	24	0	888143872	66	4972
2026-01-08 06:49:34.89	346.01	21.03	-51.6	-53.8	14.4	0.00e+00	0	24	0	895483904	68	4910
2026-01-08 06:49:38.90	345.19	20.71	-50.6	-52.6	14.7	0.00e+00	0	24	0	902823936	67	4523
2026-01-08 06:49:42.90	344.38	20.39	-50.6	-52.5	14.8	0.00e+00	0	25	0	911212544	67	4468
2026-01-08 06:49:46.89	343.59	20.06	-49.2	-50.7	15.2	0.00e+00	0	25	0	918552576	64	4340
2026-01-08 06:49:50.88	342.83	19.73	-49.5	-51.1	15.0	0.00e+00	0	24	0	925892608	64	4501
2026-01-08 06:49:54.88	342.07	19.40	-49.9	-51.6	14.9	0.00e+00	0	25	0	933232640	65	4517
2026-01-08 06:49:58.89	341.33	19.07	-49.9	-51.6	14.9	0.00e+00	0	25	0	940572672	65	4499
2026-01-08 06:50:02.90	340.61	18.74	-50.1	-51.9	14.8	0.00e+00	0	24	0	947912704	65	4679
2026-01-08 06:50:06.88	339.90	18.41	-50.6	-52.5	14.8	0.00e+00	0	25	0	956301312	66	4706
2026-01-08 06:50:10.87	339.22	18.08	-50.2	-51.9	15.0	0.00e+00	0	25	0	963641344	66	4428
2026-01-08 06:50:14.86	338.54	17.76	-49.8	-51.4	15.0	0.00e+00	0	25	0	970981376	65	4409
2026-01-08 06:50:18.86	337.88	17.43	-50.5	-52.4	14.7	0.00e+00	0	25	0	978321408	66	4672
2026-01-08 06:50:22.86	337.23	17.10	-51.0	-53.0	14.6	0.00e+00	0	25	0	985661440	67	4717
2026-01-08 06:50:26.81	336.61	16.77	-50.4	-52.1	15.0	0.00e+00	0	25	0	993001472	67	4284
2026-01-08 06:50:30.81	335.99	16.44	-50.5	-52.3	14.9	0.00e+00	0	24	0	1000341504	67	4378
2026-01-08 06:50:34.79	335.39	16.12	-51.2	-53.1	14.5	0.00e+00	0	25	0	1008730112	67	4794
2026-01-08 06:50:38.78	334.80	15.79	-51.8	-53.9	14.4	0.00e+00	0	25	0	1016070144	69	4689
2026-01-08 06:50:42.78	334.22	15.47	-50.9	-52.8	14.9	0.00e+00	0	25	0	1023410176	68	4354
2026-01-08 06:50:46.77	333.66	15.15	-51.1	-53.0	14.8	0.00e+00	0	25	0	1030750208	68	4469
2026-01-08 06:50:50.76	333.10	14.83	-51.7	-53.7	14.4	0.00e+00	0	25	0	1038090240	68	4853
2026-01-08 06:50:54.75	332.56	14.51	-51.1	-53.0	14.7	0.00e+00	0	25	0	1045430272	68	4487
2026-01-08 06:50:58.75	332.03	14.19	-50.5	-52.3	14.9	0.00e+00	0	24	0	1052770304	67	4370
2026-01-08 06:51:02.75	331.52	13.87	-50.8	-52.7	14.7	0.00e+00	0	25	0	1060110336	67	4547
2026-01-08 06:51:06.73	331.01	13.56	-51.1	-53.0	14.5	0.00e+00	0	25	0	1068498944	67	4749
2026-01-08 06:51:10.70	330.52	13.25	-51.6	-53.6	14.4	0.00e+00	0	25	0	1075838976	68	4799
2026-01-08 06:51:14.68	330.04	12.94	-51.6	-53.7	14.4	0.00e+00	0	25	0	1083179008	68	4829
2026-01-08 06:51:18.65	329.56	12.63	-51.6	-53.7	14.4	0.00e+00	0	25	0	1090519040	68	4829
2026-01-08 06:51:22.63	329.10	12.33	-52.1	-54.4	14.2	0.00e+00	0	25	0	1097859072	69	4937
2026-01-08 06:51:26.61	328.65	12.02	-52.8	-55.4	13.8	0.00e+00	0	25	0	1105199104	70	5227
2026-01-08 06:51:30.60	328.20	11.72	-52.5	-54.9	14.2	0.00e+00	0	25	0	1112539136	71	4677
2026-01-08 06:51:34.60	327.77	11.42	-51.8	-54.0	14.5	0.00e+00	0	25	0	1119879168	70	4449
2026-01-08 06:51:38.59	327.34	11.12	-51.5	-53.6	14.5	0.00e+00	0	25	0	1128267776	69	4530
2026-01-08 06:51:42.57	326.92	10.82	-52.3	-54.7	14.0	0.00e+00	0	25	0	1135607808	69	5129
2026-01-08 06:51:46.56	326.51	10.53	-53.1	-55.9	13.6	0.00e+00	0	25	0	1142947840	71	5231
2026-01-08 06:51:50.55	326.11	10.24	-53.1	-55.9	13.5	0.00e+00	0	25	0	1150287872	71	5261
2026-01-08 06:51:54.54	325.72	9.95	-53.0	-55.7	13.7	0.00e+00	0	25	0	1157627904	71	5145
2026-01-08 06:51:58.54	325.34	9.66	-52.9	-55.6	13.7	0.00e+00	0	25	0	1164967936	71	5045
2026-01-08 06:52:02.55	324.96	9.37	-53.2	-55.9	13.5	0.00e+00	0	25	0	1172307968	71	5264
2026-01-08 06:52:06.54	324.59	9.09	-53.5	-56.5	13.3	0.00e+00	0	25	0	1180696576	72	5302
2026-01-08 06:52:10.52	324.23	8.81	-53.8	-57.0	12.9	0.00e+00	0	25	0	1188036608	72	5656
2026-01-08 06:52:14.52	323.87	8.53	-53.5	-56.5	13.2	0.00e+00	0	25	0	1195376640	72	5295
2026-01-08 06:52:18.51	323.52	8.25	-52.8	-55.4	13.9	0.00e+00	0	25	0	1202716672	72	4685
2026-01-08 06:52:22.50	323.18	7.97	-52.3	-54.6	14.2	0.00e+00	0	25	0	1210056704	71	4530
2026-01-08 06:52:26.50	322.85	7.70	-51.9	-54.1	14.3	0.00e+00	0	25	0	1217396736	70	4523
2026-01-08 06:52:30.48	322.52	7.43	-52.2	-54.5	14.1	0.00e+00	0	25	0	1224736768	70	4719
2026-01-08 06:52:34.48	322.20	7.16	-52.7	-55.4	13.6	0.00e+00	0	25	0	1233125376	70	5232
2026-01-08 06:52:38.47	321.88	6.89	-53.3	-56.3	13.2	0.00e+00	0	25	0	1240465408	71	5483
2026-01-08 06:52:42.45	321.58	6.62	-53.5	-56.6	13.0	0.00e+00	0	25	0	1247805440	72	5400
2026-01-08 06:52:46.44	321.27	6.36	-53.6	-56.7	13.0	0.00e+00	0	25	0	1255145472	72	5440
2026-01-08 06:52:50.43	320.98	6.10	-53.6	-56.8	12.9	0.00e+00	0	25	0	1262485504	72	5520
2026-01-08 06:52:54.42	320.68	5.84	-53.5	-56.7	13.0	7.00e-07	0	25	0	1269825536	72	5446
2026-01-08 06:52:58.43	320.39	5.58	-53.4	-56.5	13.1	0.00e+00	0	25	0	1277165568	72	5310
2026-01-08 06:53:02.43	320.11	5.32	-53.5	-56.7	12.9	0.00e+00	0	25	0	1285554176	72	5431
2026-01-08 06:53:06.42	319.84	5.06	-53.4	-56.6	12.9	0.00e+00	0	25	0	1292894208	72	5391
2026-01-08 06:53:10.42	319.56	4.81	-58.8	-74.9	3.8	1.49e+00	0	25	104	1294991360	82	24774
2026-01-08 06:53:14.42	319.30	4.56	-59.9	-75.9	3.8	1.49e+00	0	25	104	1294991360	84	24935
2026-01-08 06:53:18.40	319.04	4.31	-60.2	-76.3	3.8	1.49e+00	0	25	104	1294991360	85	24593
2026-01-08 06:53:22.40	318.78	4.06	-60.4	-76.5	3.8	1.49e+00	0	25	104	1294991360	85	25200
2026-01-08 06:53:26.40	318.53	3.81	-60.5	-76.6	3.8	1.49e+00	0	25	104	1294991360	86	24032
2026-01-08 06:53:30.39	318.28	3.57	-60.4	-76.5	3.8	1.49e+00	0	25	104	1294991360	86	23724
2026-01-08 06:53:34.38	318.04	3.33	-60.4	-76.5	3.8	1.49e+00	0	25	104	1294991360	86	23647
2026-01-08 06:53:38.35	317.80	3.09	-60.3	-76.4	3.8	1.49e+00	0	25	104	1294991360	86	23467
2026-01-08 06:53:42.34	317.56	2.85	-60.3	-76.4	3.8	1.49e+00	0	25	104	1294991360	86	23386
2026-01-08 06:53:46.33	317.33	2.61	-60.3	-76.4	3.8	1.49e+00	0	25	104	1294991360	86	23337
2026-01-08 06:53:50.33	317.10	2.37	-60.2	-76.3	3.8	1.49e+00	0	25	104	1294991360	86	23221
2026-01-08 06:53:54.33	316.88	2.14	-60.2	-76.3	3.8	1.49e+00	0	25	104	1294991360	86	23212

#Closed at: 2026-01-08 06:53:57
#Recorded file [1294 MB]: D:/lorett/data/31004_260108_094051.dat