passes_logs/2026/01/08/R3.2S_Murmansk/R3.2S_Murmansk__20260108_000216_SUOMI_NPP_rec.log

#Pass ID: 20260108_000216_SUOMI NPP
#Satellite: SUOMI NPP
#Configuration: NPP
#almurnet v.1.7.20251203
#Start time: 2026-01-08 00:02:16

#Version: 2.2.20231116
#Station: R3.2S_Murmansk
#Location: 33.079688 lon 68.888172 lat
#TLE: 1 37849U 11061A   26005.94084933  .00000134  00000+0  84554-4 0  9990
#TLE: 2 37849  98.7803 308.0679 0002567  79.1029 281.0436 14.19522657735426

#Time	Az	El	Level	Level2	SNR	BER	BlckErr	Temp	State	Recorded	gain1	gain2
2026-01-08 00:02:16.86	22.16	2.04	-57.5	-73.2	3.8	1.49e+00	0	23	0	0	81	21700
2026-01-08 00:02:20.87	22.26	2.29	-57.5	-72.7	3.8	1.49e+00	0	23	104	0	80	21570
2026-01-08 00:02:24.87	22.35	2.55	-57.6	-72.9	3.8	1.49e+00	0	23	104	0	80	22148
2026-01-08 00:02:28.85	22.45	2.80	-57.6	-72.5	3.8	1.49e+00	0	23	104	0	80	21163
2026-01-08 00:02:32.84	22.55	3.06	-57.5	-71.1	3.9	1.49e+00	0	23	104	0	80	17967
2026-01-08 00:02:36.83	22.65	3.32	-57.5	-70.3	4.1	1.42e+00	0	23	0	0	80	16471
2026-01-08 00:02:40.83	22.75	3.59	-57.4	-69.9	4.2	1.34e+00	0	24	0	0	80	15707
2026-01-08 00:02:44.83	22.86	3.85	-57.1	-66.2	6.0	4.02e-01	0	23	0	6291456	80	10278
2026-01-08 00:02:48.82	22.96	4.12	-56.3	-62.5	9.2	1.07e-02	0	24	0	13631488	79	7046
2026-01-08 00:02:52.80	23.07	4.39	-56.0	-61.6	9.9	3.33e-03	0	24	0	20971520	78	6749
2026-01-08 00:02:56.80	23.18	4.67	-56.2	-62.0	9.5	4.18e-03	0	24	0	28311552	78	7074
2026-01-08 00:03:00.78	23.29	4.95	-56.7	-64.3	7.5	5.99e-02	0	24	0	35651584	78	9200
2026-01-08 00:03:04.78	23.40	5.23	-57.2	-67.8	5.1	6.60e-02	0	24	0	42991616	79	13033
2026-01-08 00:03:08.77	23.51	5.51	-54.1	-57.3	12.9	0.00e+00	0	24	0	49283072	74	5160
2026-01-08 00:03:12.77	23.63	5.80	-53.9	-57.0	13.1	0.00e+00	0	24	0	56623104	74	5000
2026-01-08 00:03:16.78	23.75	6.09	-53.7	-56.6	13.3	0.00e+00	0	24	0	63963136	73	5071
2026-01-08 00:03:20.78	23.86	6.38	-53.5	-56.2	13.5	0.00e+00	0	24	0	71303168	73	4839
2026-01-08 00:03:24.77	23.99	6.67	-53.4	-56.0	13.7	0.00e+00	0	24	0	78643200	73	4753
2026-01-08 00:03:28.77	24.11	6.97	-53.3	-55.9	13.6	0.00e+00	0	24	0	87031808	72	4947
2026-01-08 00:03:32.77	24.24	7.28	-53.1	-55.6	13.8	0.00e+00	0	24	0	94371840	72	4767
2026-01-08 00:03:36.77	24.36	7.58	-52.7	-55.0	14.2	0.00e+00	0	24	0	101711872	72	4467
2026-01-08 00:03:40.76	24.50	7.89	-52.7	-54.9	14.1	0.00e+00	0	24	0	109051904	71	4699
2026-01-08 00:03:44.75	24.63	8.21	-52.6	-54.9	14.1	0.00e+00	0	24	0	116391936	71	4685
2026-01-08 00:03:48.74	24.76	8.52	-52.5	-54.8	14.2	0.00e+00	0	24	0	123731968	71	4599
2026-01-08 00:03:52.71	24.90	8.84	-52.5	-54.6	14.3	0.00e+00	0	24	0	131072000	71	4532
2026-01-08 00:03:56.70	25.04	9.17	-52.2	-54.3	14.3	0.00e+00	0	24	0	138412032	70	4643
2026-01-08 00:04:00.69	25.18	9.50	-52.4	-54.6	14.2	0.00e+00	0	24	0	146800640	70	4785
2026-01-08 00:04:04.68	25.33	9.83	-52.1	-54.1	14.5	0.00e+00	0	25	0	154140672	70	4516
2026-01-08 00:04:08.66	25.48	10.17	-52.0	-54.0	14.5	0.00e+00	0	24	0	161480704	70	4475
2026-01-08 00:04:12.63	25.63	10.51	-52.0	-54.0	14.5	0.00e+00	0	25	0	168820736	70	4467
2026-01-08 00:04:16.63	25.79	10.85	-51.9	-53.8	14.6	0.00e+00	0	25	0	176160768	70	4377
2026-01-08 00:04:20.63	25.95	11.21	-51.8	-53.7	14.7	0.00e+00	0	24	0	183500800	70	4309
2026-01-08 00:04:24.62	26.11	11.56	-51.5	-53.3	14.7	0.00e+00	0	25	0	190840832	69	4383
2026-01-08 00:04:28.61	26.27	11.93	-51.5	-53.3	14.7	0.00e+00	0	25	0	199229440	69	4365
2026-01-08 00:04:32.60	26.44	12.29	-51.5	-53.4	14.7	0.00e+00	0	25	0	206569472	69	4397
2026-01-08 00:04:36.60	26.62	12.67	-51.6	-53.4	14.7	0.00e+00	0	25	0	213909504	69	4422
2026-01-08 00:04:40.58	26.79	13.04	-51.6	-53.4	14.7	0.00e+00	0	25	0	221249536	69	4435
2026-01-08 00:04:44.59	26.98	13.43	-51.4	-53.2	14.8	0.00e+00	0	25	0	228589568	69	4312
2026-01-08 00:04:48.59	27.16	13.82	-51.3	-53.0	14.9	0.00e+00	0	25	0	235929600	69	4224
2026-01-08 00:04:52.58	27.35	14.22	-51.3	-53.0	14.9	0.00e+00	0	25	0	243269632	69	4229
2026-01-08 00:04:56.57	27.55	14.62	-51.4	-53.2	14.8	0.00e+00	0	24	0	251658240	69	4321
2026-01-08 00:05:00.55	27.75	15.03	-51.5	-53.3	14.8	0.00e+00	0	25	0	258998272	69	4371
2026-01-08 00:05:04.54	27.95	15.44	-51.7	-53.5	14.7	0.00e+00	0	25	0	266338304	69	4463
2026-01-08 00:05:08.52	28.16	15.86	-51.8	-53.6	14.6	0.00e+00	0	25	0	273678336	69	4531
2026-01-08 00:05:12.51	28.38	16.29	-51.4	-53.4	14.7	0.00e+00	0	25	0	281018368	69	4439
2026-01-08 00:05:16.49	28.60	16.73	-51.5	-53.6	14.7	0.00e+00	0	25	0	288358400	69	4538
2026-01-08 00:05:20.48	28.83	17.17	-51.6	-53.7	14.6	0.00e+00	0	25	0	295698432	69	4548
2026-01-08 00:05:24.49	29.06	17.63	-51.8	-54.0	14.5	0.00e+00	0	24	0	303038464	69	4745
2026-01-08 00:05:28.47	29.30	18.09	-51.7	-53.9	14.5	0.00e+00	0	25	0	311427072	69	4663
2026-01-08 00:05:32.44	29.55	18.56	-51.7	-53.8	14.5	0.00e+00	0	25	0	318767104	69	4650
2026-01-08 00:05:36.43	29.80	19.03	-51.7	-53.9	14.6	0.00e+00	0	25	0	326107136	69	4654
2026-01-08 00:05:40.44	30.07	19.52	-51.6	-53.7	14.6	0.00e+00	0	25	0	333447168	69	4585
2026-01-08 00:05:44.44	30.34	20.02	-51.4	-53.6	14.7	0.00e+00	0	25	0	340787200	69	4497
2026-01-08 00:05:48.43	30.62	20.52	-51.1	-53.1	14.8	0.00e+00	0	25	0	348127232	68	4540
2026-01-08 00:05:52.42	30.90	21.04	-50.4	-52.2	15.0	0.00e+00	0	25	0	355467264	67	4300
2026-01-08 00:05:56.42	31.20	21.56	-50.1	-51.8	15.0	0.00e+00	0	25	0	363855872	66	4373
2026-01-08 00:06:00.40	31.51	22.10	-49.9	-51.5	15.2	0.00e+00	0	25	0	371195904	66	4233
2026-01-08 00:06:04.38	31.82	22.64	-49.7	-51.3	15.3	0.00e+00	0	25	0	378535936	66	4129
2026-01-08 00:06:08.37	32.15	23.20	-49.5	-51.1	15.2	0.00e+00	0	25	0	385875968	65	4258
2026-01-08 00:06:12.36	32.49	23.77	-49.8	-51.5	15.0	0.00e+00	0	25	0	393216000	65	4447
2026-01-08 00:06:16.36	32.84	24.35	-49.9	-51.7	15.0	0.00e+00	0	25	0	400556032	65	4553
2026-01-08 00:06:20.34	33.20	24.94	-49.9	-51.5	15.0	0.00e+00	0	25	0	407896064	65	4478
2026-01-08 00:06:24.33	33.58	25.55	-50.0	-51.6	15.0	0.00e+00	0	25	0	415236096	65	4541
2026-01-08 00:06:28.33	33.97	26.17	-49.8	-51.4	15.1	0.00e+00	0	25	0	423624704	65	4422
2026-01-08 00:06:32.33	34.38	26.80	-49.4	-51.0	15.3	0.00e+00	0	25	0	430964736	65	4242
2026-01-08 00:06:36.32	34.80	27.44	-49.6	-51.2	15.2	0.00e+00	0	25	0	438304768	65	4320
2026-01-08 00:06:40.32	35.24	28.10	-49.8	-51.6	15.0	0.00e+00	0	25	0	445644800	65	4494
2026-01-08 00:06:44.33	35.70	28.78	-50.3	-52.0	14.8	0.00e+00	0	25	0	452984832	65	4756
2026-01-08 00:06:48.31	36.17	29.46	-51.0	-52.9	14.7	0.00e+00	0	25	0	460324864	67	4695
2026-01-08 00:06:52.30	36.67	30.17	-52.1	-54.5	14.3	0.00e+00	0	25	0	467664896	69	4991
2026-01-08 00:06:56.29	37.19	30.89	-53.0	-55.7	14.0	0.00e+00	0	25	0	476053504	71	5106
2026-01-08 00:07:00.29	37.73	31.62	-53.2	-55.9	14.0	0.00e+00	0	25	0	483393536	72	4931
2026-01-08 00:07:04.29	38.29	32.37	-53.1	-55.9	14.0	0.00e+00	0	25	0	490733568	72	4932
2026-01-08 00:07:08.29	38.89	33.14	-52.9	-55.7	14.1	0.00e+00	0	25	0	498073600	72	4825
2026-01-08 00:07:12.29	39.51	33.92	-53.0	-55.6	14.0	0.00e+00	0	25	0	505413632	71	5079
2026-01-08 00:07:16.29	40.16	34.72	-53.3	-56.3	13.5	0.00e+00	0	25	0	512753664	71	5522
2026-01-08 00:07:20.28	40.84	35.54	-53.3	-56.4	13.6	0.00e+00	0	25	0	521142272	72	5265
2026-01-08 00:07:24.29	41.56	36.38	-53.0	-55.7	14.1	0.00e+00	0	25	0	528482304	72	4841
2026-01-08 00:07:28.26	42.30	37.22	-52.0	-54.3	14.6	0.00e+00	0	25	0	535822336	70	4629
2026-01-08 00:07:32.24	43.09	38.09	-52.4	-55.0	14.2	0.00e+00	0	25	0	543162368	70	4997
2026-01-08 00:07:36.24	43.93	38.97	-53.0	-56.0	13.8	0.00e+00	0	25	0	550502400	71	5320
2026-01-08 00:07:40.22	44.81	39.87	-51.8	-54.2	14.6	0.00e+00	0	25	0	557842432	70	4561
2026-01-08 00:07:44.22	45.74	40.79	-51.6	-53.8	14.6	0.00e+00	0	25	0	565182464	69	4624
2026-01-08 00:07:48.22	46.72	41.72	-51.9	-54.4	14.2	0.00e+00	0	25	0	573571072	69	4943
2026-01-08 00:07:52.19	47.76	42.66	-51.5	-53.7	14.6	0.00e+00	0	25	0	580911104	69	4569
2026-01-08 00:07:56.18	48.86	43.62	-52.1	-54.9	14.0	0.00e+00	0	25	0	588251136	69	5251
2026-01-08 00:08:00.17	50.03	44.59	-52.5	-55.1	14.1	0.00e+00	0	25	0	595591168	70	5076
2026-01-08 00:08:04.15	51.27	45.56	-52.7	-55.4	13.9	0.00e+00	0	25	0	602931200	70	5254
2026-01-08 00:08:08.15	52.60	46.56	-52.1	-54.7	14.3	0.00e+00	0	25	0	610271232	70	4838
2026-01-08 00:08:12.12	54.00	47.55	-51.9	-54.2	14.5	0.00e+00	0	25	0	617611264	70	4565
2026-01-08 00:08:16.12	55.50	48.55	-51.5	-53.9	14.5	0.00e+00	0	25	0	624951296	69	4685
2026-01-08 00:08:20.12	57.11	49.55	-52.6	-56.0	13.6	0.00e+00	0	25	0	633339904	71	5315
2026-01-08 00:08:24.10	58.81	50.55	-52.4	-55.5	13.8	0.00e+00	0	25	0	640679936	70	5339
2026-01-08 00:08:28.11	60.64	51.55	-52.5	-55.6	13.9	0.00e+00	0	25	0	648019968	70	5345
2026-01-08 00:08:32.10	62.58	52.53	-51.9	-54.7	14.2	0.00e+00	0	25	0	655360000	70	4818
2026-01-08 00:08:36.10	64.67	53.50	-51.8	-54.7	14.1	0.00e+00	0	25	0	662700032	69	5146
2026-01-08 00:08:40.10	66.89	54.44	-51.3	-53.6	14.6	0.00e+00	0	25	0	670040064	69	4535
2026-01-08 00:08:44.09	69.26	55.36	-51.1	-53.3	14.8	0.00e+00	0	25	0	677380096	68	4621
2026-01-08 00:08:48.08	71.78	56.24	-51.4	-53.5	14.6	0.00e+00	0	25	0	685768704	68	4722
2026-01-08 00:08:52.05	74.44	57.07	-51.6	-53.5	14.8	0.00e+00	0	25	0	693108736	69	4481
2026-01-08 00:08:56.04	77.28	57.86	-50.5	-52.3	15.0	0.00e+00	0	25	0	700448768	67	4383
2026-01-08 00:09:00.02	80.28	58.58	-51.3	-53.3	14.6	0.00e+00	0	25	0	707788800	67	4882
2026-01-08 00:09:04.01	83.45	59.24	-51.2	-53.1	15.0	0.00e+00	0	25	0	715128832	69	4274
2026-01-08 00:09:08.00	86.77	59.83	-50.9	-52.8	14.8	0.00e+00	0	25	0	722468864	67	4613
2026-01-08 00:09:11.98	90.22	60.33	-52.5	-55.0	14.1	0.00e+00	0	25	0	729808896	70	5014
2026-01-08 00:09:15.96	93.80	60.73	-52.3	-54.7	14.4	0.00e+00	0	25	0	737148928	70	4825
2026-01-08 00:09:19.97	97.50	61.04	-51.9	-54.0	14.7	0.00e+00	0	25	0	745537536	70	4489
2026-01-08 00:09:23.95	101.26	61.24	-52.9	-55.4	14.1	0.00e+00	0	25	0	752877568	71	4971
2026-01-08 00:09:27.95	105.08	61.34	-50.9	-52.6	15.0	0.00e+00	0	25	0	760217600	68	4246
2026-01-08 00:09:31.94	108.90	61.33	-51.8	-53.8	14.5	0.00e+00	0	25	0	767557632	68	4921
2026-01-08 00:09:35.91	112.68	61.21	-51.5	-53.4	14.7	0.00e+00	0	25	0	774897664	68	4665
2026-01-08 00:09:39.89	116.43	60.98	-50.9	-52.6	15.0	0.00e+00	0	25	0	782237696	68	4268
2026-01-08 00:09:43.89	120.10	60.65	-52.7	-55.2	14.1	0.00e+00	0	25	0	789577728	70	5118
2026-01-08 00:09:47.88	123.66	60.22	-53.1	-55.8	14.1	0.00e+00	0	25	0	796917760	72	4901
2026-01-08 00:09:51.87	127.09	59.69	-53.6	-56.8	13.4	0.00e+00	0	25	0	805306368	72	5481
2026-01-08 00:09:55.85	130.37	59.09	-52.4	-54.8	14.2	0.00e+00	0	25	0	812646400	70	4900
2026-01-08 00:09:59.84	133.50	58.42	-53.5	-56.5	13.6	0.00e+00	0	25	0	819986432	72	5287
2026-01-08 00:10:03.83	136.47	57.67	-51.6	-53.6	14.7	0.00e+00	0	25	0	827326464	69	4527
2026-01-08 00:10:07.82	139.28	56.87	-51.1	-53.1	14.8	0.00e+00	0	25	0	834666496	68	4532
2026-01-08 00:10:11.80	141.92	56.02	-51.3	-53.3	14.7	0.00e+00	0	25	0	842006528	68	4613
2026-01-08 00:10:15.80	144.41	55.13	-48.6	-50.1	15.3	0.00e+00	0	25	0	849346560	63	4263
2026-01-08 00:10:19.79	146.74	54.20	-48.9	-50.5	15.1	0.00e+00	0	25	0	856686592	63	4470
2026-01-08 00:10:23.78	148.93	53.25	-49.7	-51.6	15.0	0.00e+00	0	25	0	865075200	65	4503
2026-01-08 00:10:27.79	150.98	52.27	-49.0	-50.7	15.1	0.00e+00	0	25	0	872415232	63	4556
2026-01-08 00:10:31.78	152.90	51.29	-50.2	-52.2	14.7	0.00e+00	0	25	0	879755264	65	4848
2026-01-08 00:10:35.77	154.70	50.29	-48.3	-49.9	15.4	0.00e+00	0	25	0	887095296	63	4170
2026-01-08 00:10:39.78	156.38	49.28	-51.9	-54.8	14.1	0.00e+00	0	25	0	894435328	69	5165
2026-01-08 00:10:43.77	157.96	48.28	-54.2	-58.5	12.3	0.00e+00	0	25	0	901775360	73	6310
2026-01-08 00:10:47.76	159.44	47.27	-53.7	-57.3	13.2	0.00e+00	0	25	0	910163968	73	5512
2026-01-08 00:10:51.76	160.83	46.27	-55.1	-60.6	10.9	2.89e-05	0	25	0	917504000	75	7140
2026-01-08 00:10:55.75	162.13	45.28	-52.5	-55.2	14.2	0.00e+00	0	25	0	924844032	71	4815
2026-01-08 00:10:59.73	163.35	44.30	-52.3	-54.8	14.3	0.00e+00	0	25	0	932184064	71	4651
2026-01-08 00:11:03.72	164.51	43.33	-52.3	-54.7	14.1	0.00e+00	0	25	0	939524096	69	5147
2026-01-08 00:11:07.69	165.59	42.38	-51.9	-54.1	14.6	0.00e+00	0	25	0	946864128	70	4519
2026-01-08 00:11:11.68	166.62	41.44	-53.8	-56.9	13.4	0.00e+00	0	25	0	954204160	72	5536
2026-01-08 00:11:15.67	167.59	40.51	-50.8	-52.7	14.9	0.00e+00	0	25	0	961544192	68	4334
2026-01-08 00:11:19.67	168.51	39.59	-52.1	-54.5	14.3	0.00e+00	0	25	0	969932800	69	5007
2026-01-08 00:11:23.66	169.38	38.69	-50.7	-52.5	15.1	0.00e+00	0	25	0	977272832	68	4214
2026-01-08 00:11:27.66	170.20	37.81	-50.5	-52.2	14.9	0.00e+00	0	25	0	984612864	66	4573
2026-01-08 00:11:31.65	170.98	36.95	-53.1	-55.7	13.9	0.00e+00	0	25	0	991952896	71	5124
2026-01-08 00:11:35.64	171.72	36.10	-52.1	-54.3	14.5	0.00e+00	0	25	0	999292928	70	4604
2026-01-08 00:11:39.64	172.43	35.26	-52.4	-54.7	14.3	0.00e+00	0	25	0	1006632960	70	4854
2026-01-08 00:11:43.61	173.10	34.45	-52.4	-54.7	14.2	0.00e+00	0	25	0	1013972992	70	4865
2026-01-08 00:11:47.61	173.74	33.65	-51.9	-54.0	14.7	0.00e+00	0	25	0	1022361600	70	4455
2026-01-08 00:11:51.60	174.35	32.87	-52.0	-54.1	14.5	0.00e+00	0	25	0	1029701632	69	4766
2026-01-08 00:11:55.61	174.94	32.11	-51.4	-53.3	14.8	0.00e+00	0	25	0	1037041664	69	4358
2026-01-08 00:11:59.61	175.50	31.36	-52.3	-54.5	14.2	0.00e+00	0	25	0	1044381696	69	4987
2026-01-08 00:12:03.60	176.03	30.62	-53.3	-56.0	13.7	0.00e+00	0	25	0	1051721728	71	5321
2026-01-08 00:12:07.58	176.54	29.91	-53.0	-55.5	14.1	0.00e+00	0	25	0	1059061760	72	4757
2026-01-08 00:12:11.57	177.03	29.21	-52.1	-54.2	14.5	0.00e+00	0	25	0	1066401792	70	4554
2026-01-08 00:12:15.56	177.50	28.52	-52.6	-54.9	14.2	0.00e+00	0	25	0	1073741824	70	4962
2026-01-08 00:12:19.55	177.95	27.85	-52.3	-54.5	14.3	0.00e+00	0	25	0	1082130432	70	4728
2026-01-08 00:12:23.55	178.39	27.19	-51.8	-53.8	14.7	0.00e+00	0	25	0	1089470464	70	4367
2026-01-08 00:12:27.55	178.80	26.55	-51.4	-53.2	14.8	0.00e+00	0	25	0	1096810496	69	4339
2026-01-08 00:12:31.54	179.21	25.92	-51.3	-53.2	14.9	0.00e+00	0	25	0	1104150528	69	4311
2026-01-08 00:12:35.55	179.59	25.30	-51.8	-53.9	14.5	0.00e+00	0	25	0	1111490560	69	4659
2026-01-08 00:12:39.54	179.97	24.70	-51.6	-53.6	14.6	0.00e+00	0	25	0	1118830592	69	4517
2026-01-08 00:12:43.54	180.33	24.10	-51.9	-53.9	14.5	0.00e+00	0	25	0	1127219200	69	4704
2026-01-08 00:12:47.52	180.67	23.53	-50.8	-52.6	14.9	0.00e+00	0	25	0	1134559232	68	4265
2026-01-08 00:12:51.51	181.01	22.96	-49.4	-50.8	15.2	0.00e+00	0	25	0	1141899264	65	4144
2026-01-08 00:12:55.52	181.33	22.40	-48.9	-50.3	15.3	0.00e+00	0	25	0	1149239296	64	4134
2026-01-08 00:12:59.51	181.64	21.85	-49.6	-51.2	15.0	0.00e+00	0	25	0	1156579328	64	4573
2026-01-08 00:13:03.50	181.95	21.32	-50.0	-51.6	14.9	0.00e+00	0	25	0	1163919360	65	4536
2026-01-08 00:13:07.48	182.24	20.80	-49.8	-51.4	15.0	0.00e+00	0	25	0	1171259392	65	4432
2026-01-08 00:13:11.47	182.52	20.28	-49.4	-50.9	15.2	0.00e+00	0	25	0	1179648000	65	4175
2026-01-08 00:13:15.46	182.80	19.78	-49.6	-51.2	15.1	0.00e+00	0	25	0	1186988032	65	4308
2026-01-08 00:13:19.46	183.06	19.28	-49.7	-51.3	15.1	0.00e+00	0	25	0	1194328064	65	4350
2026-01-08 00:13:23.46	183.32	18.80	-49.8	-51.4	15.0	0.00e+00	0	25	0	1201668096	65	4422
2026-01-08 00:13:27.44	183.57	18.32	-50.4	-52.1	14.7	0.00e+00	0	25	0	1209008128	65	4798
2026-01-08 00:13:31.44	183.82	17.85	-51.0	-52.9	14.6	0.00e+00	0	25	0	1216348160	67	4691
2026-01-08 00:13:35.43	184.06	17.39	-50.9	-52.8	14.7	0.00e+00	0	25	0	1223688192	67	4641
2026-01-08 00:13:39.42	184.29	16.94	-50.6	-52.4	14.9	0.00e+00	0	25	0	1231028224	67	4405
2026-01-08 00:13:43.41	184.51	16.50	-50.6	-52.2	14.9	0.00e+00	0	25	0	1239416832	67	4327
2026-01-08 00:13:47.42	184.73	16.06	-50.3	-51.9	15.1	0.00e+00	0	25	0	1246756864	67	4156
2026-01-08 00:13:51.42	184.94	15.63	-50.5	-52.1	15.0	0.00e+00	0	25	0	1254096896	67	4272
2026-01-08 00:13:55.39	185.15	15.21	-50.7	-52.4	14.8	0.00e+00	0	25	0	1261436928	67	4415
2026-01-08 00:13:59.38	185.35	14.79	-51.0	-52.7	14.7	0.00e+00	0	25	0	1268776960	67	4569
2026-01-08 00:14:03.37	185.55	14.39	-51.0	-52.7	14.7	0.00e+00	0	25	0	1276116992	67	4570
2026-01-08 00:14:07.36	185.74	13.98	-51.1	-52.9	14.6	0.00e+00	0	25	0	1283457024	67	4667
2026-01-08 00:14:11.34	185.93	13.59	-51.5	-53.3	14.6	0.00e+00	0	25	0	1291845632	68	4636
2026-01-08 00:14:15.32	186.11	13.20	-51.7	-53.5	14.5	0.00e+00	0	25	0	1299185664	68	4730
2026-01-08 00:14:19.32	186.29	12.82	-51.6	-53.5	14.5	0.00e+00	0	25	0	1306525696	68	4708
2026-01-08 00:14:23.32	186.46	12.44	-51.9	-53.8	14.4	0.00e+00	0	25	0	1313865728	69	4635
2026-01-08 00:14:27.32	186.63	12.07	-51.9	-53.9	14.4	0.00e+00	0	25	0	1321205760	69	4655
2026-01-08 00:14:31.32	186.80	11.70	-52.1	-54.1	14.3	0.00e+00	0	25	0	1328545792	69	4789
2026-01-08 00:14:35.31	186.96	11.34	-52.1	-54.1	14.3	0.00e+00	0	25	0	1335885824	69	4774
2026-01-08 00:14:39.30	187.12	10.98	-52.0	-54.0	14.4	0.00e+00	0	25	0	1344274432	69	4709
2026-01-08 00:14:43.28	187.27	10.63	-52.0	-54.0	14.4	0.00e+00	0	25	0	1351614464	69	4718
2026-01-08 00:14:47.25	187.43	10.29	-51.9	-53.8	14.4	0.00e+00	0	25	0	1358954496	69	4643
2026-01-08 00:14:51.25	187.58	9.94	-51.9	-53.9	14.4	0.00e+00	0	25	0	1366294528	69	4653
2026-01-08 00:14:55.25	187.72	9.60	-52.1	-54.1	14.3	0.00e+00	0	25	0	1373634560	69	4791
2026-01-08 00:14:59.24	187.86	9.27	-52.0	-54.0	14.3	0.00e+00	0	25	0	1380974592	69	4734
2026-01-08 00:15:03.23	188.00	8.94	-52.1	-54.1	14.2	0.00e+00	0	25	0	1388314624	69	4806
2026-01-08 00:15:07.22	188.14	8.62	-52.1	-54.2	14.2	0.00e+00	0	25	0	1395654656	69	4842
2026-01-08 00:15:11.21	188.28	8.30	-52.2	-54.3	14.1	0.00e+00	0	25	0	1404043264	69	4909
2026-01-08 00:15:15.19	188.41	7.98	-52.2	-54.3	14.1	0.00e+00	0	25	0	1411383296	69	4921
2026-01-08 00:15:19.18	188.54	7.67	-52.2	-54.4	14.1	0.00e+00	0	25	0	1418723328	69	4944
2026-01-08 00:15:23.18	188.67	7.36	-52.3	-54.5	14.2	0.00e+00	0	25	0	1426063360	70	4708
2026-01-08 00:15:27.18	188.79	7.05	-52.4	-54.6	14.1	0.00e+00	0	25	0	1433403392	70	4814
2026-01-08 00:15:31.18	188.91	6.75	-52.4	-54.6	14.1	0.00e+00	0	25	0	1440743424	70	4786
2026-01-08 00:15:35.17	189.03	6.45	-52.6	-54.9	13.9	0.00e+00	0	25	0	1448083456	70	4961
2026-01-08 00:15:39.17	189.15	6.15	-52.5	-54.8	13.9	0.00e+00	0	25	0	1456472064	70	4923
2026-01-08 00:15:43.16	189.27	5.86	-52.4	-54.7	14.0	0.00e+00	0	25	0	1463812096	70	4863
2026-01-08 00:15:47.15	189.38	5.57	-52.3	-54.6	14.0	0.00e+00	0	25	0	1471152128	70	4777
2026-01-08 00:15:51.14	189.49	5.29	-52.5	-54.8	13.9	0.00e+00	0	25	0	1478492160	70	4917
2026-01-08 00:15:55.13	189.60	5.01	-52.4	-54.8	13.9	0.00e+00	0	25	0	1485832192	70	4903
2026-01-08 00:15:59.14	189.71	4.72	-58.9	-75.0	3.8	1.49e+00	0	25	104	1486880768	82	25004
2026-01-08 00:16:03.13	189.82	4.45	-59.4	-75.5	3.8	1.49e+00	0	25	104	1486880768	83	25044
2026-01-08 00:16:07.15	189.92	4.17	-59.8	-75.9	3.8	1.49e+00	0	25	104	1486880768	84	24838
2026-01-08 00:16:11.15	190.03	3.90	-60.0	-76.1	3.8	1.49e+00	0	25	104	1486880768	85	24075
2026-01-08 00:16:15.13	190.13	3.63	-60.2	-76.3	3.8	1.49e+00	0	25	104	1486880768	85	24440
2026-01-08 00:16:19.12	190.23	3.36	-60.2	-76.3	3.8	1.49e+00	0	25	104	1486880768	85	24526
2026-01-08 00:16:23.11	190.33	3.10	-60.1	-76.2	3.8	1.49e+00	0	25	104	1486880768	85	24353
2026-01-08 00:16:27.11	190.42	2.84	-60.1	-76.2	3.8	1.49e+00	0	25	104	1486880768	85	24188
2026-01-08 00:16:31.12	190.52	2.58	-60.0	-76.1	3.8	1.49e+00	0	25	104	1486880768	85	24076
2026-01-08 00:16:35.12	190.61	2.32	-60.0	-76.1	3.8	1.49e+00	0	25	104	1486880768	85	24065
2026-01-08 00:16:39.10	190.71	2.07	-60.0	-76.1	3.8	1.49e+00	0	25	104	1486880768	85	23978

#Closed at: 2026-01-08 00:16:40
#Recorded file [1486 MB]: D:/lorett/data/31004_260108_030216.dat