passes_logs/2026/01/08/R3.2S_Murmansk/R3.2S_Murmansk__20260108_140637_AQUA_rec.log

#Pass ID: 20260108_140637_AQUA
#Satellite: AQUA
#Configuration: AQUA
#almurnet v.1.7.20251203
#Start time: 2026-01-08 14:06:38

#Version: 2.2.20231116
#Station: R3.2S_Murmansk
#Location: 33.079688 lon 68.888172 lat
#TLE: 1 27424U 02022A   26004.96787593  .00001598  00000+0  32997-3 0  9996
#TLE: 2 27424  98.4069 331.2279 0002002  90.2377   0.6092 14.61798176259425

#Time	Az	El	Level	Level2	SNR	BER	BlckErr	Temp	State	Recorded	gain1	gain2
2026-01-08 14:06:38.77	229.40	2.08	-57.6	-76.9	3.8	7.44e-01	0	22	0	0	84	32246
2026-01-08 14:06:41.79	229.70	2.24	-57.3	-76.6	3.8	7.43e-01	0	22	104	0	82	34987
2026-01-08 14:06:44.81	230.01	2.39	-57.3	-76.5	3.8	7.47e-01	0	22	104	0	82	34847
2026-01-08 14:06:47.83	230.32	2.54	-57.3	-76.7	3.8	7.46e-01	0	22	104	0	82	35367
2026-01-08 14:06:50.85	230.63	2.70	-57.3	-76.6	3.8	7.43e-01	0	22	104	0	82	35085
2026-01-08 14:06:53.88	230.95	2.86	-57.3	-76.7	3.8	7.47e-01	0	23	104	0	82	35349
2026-01-08 14:06:56.90	231.27	3.01	-57.3	-76.3	3.8	7.43e-01	0	23	104	0	82	33922
2026-01-08 14:06:59.93	231.59	3.17	-57.3	-76.2	3.8	7.48e-01	0	23	104	0	82	33477
2026-01-08 14:07:02.95	231.92	3.32	-57.3	-76.3	3.8	7.48e-01	0	23	104	0	82	33972
2026-01-08 14:07:05.98	232.25	3.48	-57.3	-76.6	3.8	7.46e-01	0	23	104	0	82	35095
2026-01-08 14:07:09.00	232.58	3.64	-57.3	-75.8	3.8	7.46e-01	0	23	104	0	82	31965
2026-01-08 14:07:12.02	232.92	3.79	-57.3	-75.9	3.8	7.45e-01	0	23	104	0	82	32194
2026-01-08 14:07:15.05	233.26	3.95	-57.3	-76.7	3.8	7.45e-01	0	23	104	0	82	35305
2026-01-08 14:07:18.07	233.61	4.11	-57.3	-76.3	3.8	7.48e-01	0	23	104	0	82	33730
2026-01-08 14:07:21.10	233.96	4.27	-57.3	-75.5	3.8	7.43e-01	0	23	104	0	82	31017
2026-01-08 14:07:24.12	234.31	4.42	-57.3	-73.1	4.2	7.34e-01	0	23	104	0	82	23424
2026-01-08 14:07:27.15	234.67	4.58	-57.3	-76.4	3.8	7.46e-01	0	23	104	0	82	34356
2026-01-08 14:07:30.17	235.03	4.74	-57.1	-69.4	5.9	6.82e-01	93	23	0	524288	82	15275
2026-01-08 14:07:33.19	235.40	4.90	-56.8	-66.0	8.7	6.32e-01	0	23	0	5767168	82	10362
2026-01-08 14:07:36.22	235.77	5.06	-55.4	-60.6	12.9	6.06e-01	0	23	0	11534336	80	6263
2026-01-08 14:07:39.25	236.15	5.22	-54.6	-58.6	14.1	6.06e-01	0	24	0	15728640	77	5871
2026-01-08 14:07:42.27	236.53	5.38	-51.3	-53.5	15.4	6.06e-01	0	23	0	21495808	71	4648
2026-01-08 14:07:45.30	236.91	5.53	-51.1	-53.3	15.6	6.05e-01	0	23	0	26738688	71	4527
2026-01-08 14:07:48.32	237.30	5.69	-51.2	-53.4	15.5	6.06e-01	0	24	0	32505856	71	4598
2026-01-08 14:07:51.34	237.69	5.85	-51.0	-53.1	15.6	6.05e-01	0	23	0	38273024	71	4435
2026-01-08 14:07:54.37	238.09	6.01	-51.0	-53.2	15.6	6.06e-01	0	24	0	44040192	71	4460
2026-01-08 14:07:57.40	238.49	6.17	-51.0	-53.2	15.6	6.05e-01	0	23	0	49807360	71	4459
2026-01-08 14:08:00.42	238.89	6.33	-50.8	-52.8	15.6	6.07e-01	0	23	0	55050240	70	4539
2026-01-08 14:08:03.44	239.30	6.49	-51.0	-53.2	15.5	6.06e-01	0	24	0	60817408	70	4710
2026-01-08 14:08:06.47	239.72	6.65	-50.6	-52.7	15.7	6.06e-01	0	24	0	66584576	70	4445
2026-01-08 14:08:09.49	240.14	6.81	-50.6	-52.6	15.7	6.08e-01	0	23	0	72351744	70	4395
2026-01-08 14:08:12.51	240.56	6.96	-50.9	-53.0	15.5	6.06e-01	0	24	0	78118912	70	4610
2026-01-08 14:08:15.53	240.99	7.12	-50.7	-52.7	15.7	6.06e-01	0	24	0	83886080	70	4460
2026-01-08 14:08:18.55	241.43	7.28	-50.7	-52.7	15.6	6.06e-01	0	24	0	89128960	70	4471
2026-01-08 14:08:21.57	241.87	7.44	-50.6	-52.5	15.7	6.07e-01	0	23	0	94896128	70	4391
2026-01-08 14:08:24.59	242.31	7.60	-50.5	-52.4	15.7	6.06e-01	0	24	0	100663296	70	4331
2026-01-08 14:08:27.61	242.76	7.75	-50.4	-52.3	15.8	6.05e-01	0	24	0	106430464	70	4280
2026-01-08 14:08:30.63	243.21	7.91	-50.4	-52.3	15.6	6.07e-01	0	24	0	112197632	69	4540
2026-01-08 14:08:33.65	243.67	8.07	-50.4	-52.4	15.6	6.05e-01	0	24	0	117440512	69	4568
2026-01-08 14:08:36.67	244.14	8.22	-50.3	-52.3	15.6	6.07e-01	0	24	0	123207680	69	4502
2026-01-08 14:08:39.70	244.61	8.38	-50.4	-52.3	15.6	6.06e-01	0	24	0	128974848	69	4532
2026-01-08 14:08:42.72	245.09	8.53	-50.1	-52.0	15.7	6.06e-01	0	24	0	134742016	69	4358
2026-01-08 14:08:45.74	245.57	8.69	-50.2	-52.2	15.7	6.06e-01	0	24	0	140509184	69	4447
2026-01-08 14:08:48.76	246.05	8.84	-50.2	-52.1	15.7	6.06e-01	0	24	0	145752064	69	4398
2026-01-08 14:08:51.79	246.54	9.00	-50.0	-51.9	15.8	6.04e-01	0	24	0	151519232	69	4307
2026-01-08 14:08:54.82	247.04	9.15	-49.9	-51.8	15.8	6.06e-01	0	24	0	157286400	69	4252
2026-01-08 14:08:57.84	247.54	9.30	-50.0	-51.8	15.8	6.07e-01	0	24	0	163053568	69	4275
2026-01-08 14:09:00.86	248.05	9.45	-50.0	-51.8	15.8	6.06e-01	0	24	0	168820736	69	4282
2026-01-08 14:09:03.88	248.57	9.60	-49.9	-51.7	15.7	6.07e-01	0	24	0	174063616	68	4481
2026-01-08 14:09:06.90	249.08	9.75	-49.9	-51.8	15.7	6.05e-01	0	24	0	179830784	68	4506
2026-01-08 14:09:09.92	249.61	9.90	-49.9	-51.8	15.6	6.06e-01	0	24	0	185597952	68	4507
2026-01-08 14:09:12.94	250.14	10.05	-49.8	-51.6	15.7	6.05e-01	0	24	0	191365120	68	4438
2026-01-08 14:09:15.97	250.68	10.19	-49.8	-51.6	15.7	6.07e-01	0	24	0	197132288	68	4399
2026-01-08 14:09:18.99	251.22	10.34	-49.7	-51.5	15.8	6.06e-01	0	24	0	202375168	68	4351
2026-01-08 14:09:22.01	251.76	10.48	-49.8	-51.6	15.7	6.07e-01	0	24	0	208142336	68	4404
2026-01-08 14:09:25.04	252.32	10.62	-49.7	-51.5	15.7	6.08e-01	0	24	0	213909504	68	4388
2026-01-08 14:09:28.06	252.87	10.77	-49.7	-51.4	15.8	6.07e-01	0	24	0	219676672	68	4334
2026-01-08 14:09:31.09	253.44	10.91	-49.7	-51.5	15.8	6.07e-01	0	24	0	225443840	68	4367
2026-01-08 14:09:34.10	254.01	11.04	-49.6	-51.4	15.8	6.06e-01	0	24	0	230686720	68	4300
2026-01-08 14:09:37.12	254.58	11.18	-49.6	-51.4	15.8	6.05e-01	0	24	0	236453888	68	4295
2026-01-08 14:09:40.15	255.16	11.32	-49.4	-51.1	15.7	6.08e-01	0	24	0	242221056	67	4414
2026-01-08 14:09:43.17	255.75	11.45	-49.4	-51.1	15.7	6.06e-01	0	24	0	247988224	67	4427
2026-01-08 14:09:46.20	256.34	11.58	-49.4	-51.2	15.7	6.06e-01	0	24	0	253755392	67	4444
2026-01-08 14:09:49.21	256.94	11.71	-49.4	-51.2	15.7	6.06e-01	0	24	0	258998272	67	4450
2026-01-08 14:09:52.23	257.54	11.84	-49.4	-51.1	15.7	6.07e-01	0	24	0	264765440	67	4428
2026-01-08 14:09:55.25	258.15	11.97	-49.3	-51.0	15.8	6.05e-01	0	24	0	270532608	67	4372
2026-01-08 14:09:58.28	258.76	12.09	-49.3	-51.0	15.8	6.08e-01	0	24	0	276299776	67	4351
2026-01-08 14:10:01.30	259.38	12.21	-49.4	-51.2	15.7	6.05e-01	0	24	0	282066944	67	4468
2026-01-08 14:10:04.32	260.01	12.33	-49.1	-50.8	15.8	6.09e-01	0	24	0	287834112	67	4257
2026-01-08 14:10:07.35	260.64	12.45	-49.3	-51.0	15.8	6.08e-01	0	24	0	293076992	67	4389
2026-01-08 14:10:10.37	261.27	12.56	-49.2	-50.9	15.8	6.05e-01	0	24	0	298844160	67	4335
2026-01-08 14:10:13.40	261.91	12.68	-49.2	-50.9	15.8	6.06e-01	0	24	0	304611328	67	4298
2026-01-08 14:10:16.42	262.56	12.79	-49.3	-51.0	15.7	6.05e-01	0	24	0	310378496	67	4356
2026-01-08 14:10:19.44	263.21	12.89	-49.2	-50.9	15.8	6.07e-01	0	24	0	316145664	67	4328
2026-01-08 14:10:22.46	263.86	13.00	-49.2	-50.9	15.8	6.06e-01	0	24	0	321388544	67	4292
2026-01-08 14:10:25.49	264.52	13.10	-49.1	-50.8	15.8	6.07e-01	0	24	0	327155712	67	4277
2026-01-08 14:10:28.51	265.18	13.20	-49.1	-50.8	15.8	6.06e-01	0	24	0	332922880	67	4268
2026-01-08 14:10:31.53	265.85	13.29	-49.0	-50.7	15.9	6.07e-01	0	24	0	338690048	67	4206
2026-01-08 14:10:34.55	266.52	13.39	-49.2	-50.9	15.8	6.08e-01	0	24	0	344457216	67	4328
2026-01-08 14:10:37.57	267.20	13.48	-49.1	-50.8	15.8	6.06e-01	0	24	0	349700096	67	4261
2026-01-08 14:10:40.59	267.88	13.56	-49.1	-50.7	15.8	6.07e-01	0	24	0	355467264	67	4238
2026-01-08 14:10:43.61	268.57	13.65	-49.2	-50.9	15.8	6.08e-01	0	24	0	361234432	67	4308
2026-01-08 14:10:46.64	269.26	13.73	-49.0	-50.6	15.9	6.06e-01	0	24	0	367001600	67	4165
2026-01-08 14:10:49.67	269.95	13.80	-49.0	-50.7	15.9	6.07e-01	0	24	0	372768768	67	4199
2026-01-08 14:10:52.69	270.65	13.88	-49.1	-50.7	15.8	6.06e-01	0	24	0	378535936	67	4233
2026-01-08 14:10:55.72	271.35	13.95	-49.1	-50.7	15.9	6.06e-01	0	24	0	383778816	67	4234
2026-01-08 14:10:58.75	272.06	14.01	-49.1	-50.7	15.9	6.07e-01	0	24	0	389545984	67	4235
2026-01-08 14:11:01.77	272.77	14.08	-49.1	-50.7	15.9	6.07e-01	0	24	0	395313152	67	4224
2026-01-08 14:11:04.80	273.48	14.13	-49.3	-51.0	15.8	6.08e-01	0	24	0	401080320	67	4353
2026-01-08 14:11:07.82	274.19	14.19	-49.3	-51.0	15.8	6.05e-01	0	24	0	406847488	67	4368
2026-01-08 14:11:10.85	274.91	14.24	-49.2	-50.9	15.8	6.08e-01	0	24	0	412090368	67	4299
2026-01-08 14:11:13.88	275.63	14.29	-49.2	-50.9	15.8	6.05e-01	0	24	0	417857536	67	4319
2026-01-08 14:11:16.90	276.35	14.33	-49.1	-50.8	15.8	6.06e-01	0	24	0	423624704	67	4263
2026-01-08 14:11:19.92	277.07	14.37	-49.2	-50.9	15.8	6.02e-01	0	24	0	429391872	67	4324
2026-01-08 14:11:22.95	277.79	14.41	-49.2	-50.8	15.8	6.03e-01	0	24	0	435159040	67	4283
2026-01-08 14:11:25.98	278.52	14.44	-49.2	-50.8	15.8	6.03e-01	0	24	0	440926208	67	4278
2026-01-08 14:11:28.99	279.24	14.47	-49.2	-50.8	15.8	6.04e-01	0	24	0	446169088	67	4282
2026-01-08 14:11:32.02	279.97	14.49	-49.2	-50.9	15.8	6.02e-01	0	24	0	451936256	67	4302
2026-01-08 14:11:35.04	280.70	14.51	-49.1	-50.7	15.8	6.02e-01	0	24	0	457703424	67	4234
2026-01-08 14:11:38.07	281.44	14.53	-49.3	-51.0	15.8	6.05e-01	0	24	0	463470592	67	4341
2026-01-08 14:11:41.09	282.17	14.54	-49.2	-50.8	15.8	6.02e-01	0	24	0	469237760	67	4280
2026-01-08 14:11:44.12	282.90	14.54	-49.3	-51.0	15.7	6.04e-01	0	24	0	474480640	67	4367
2026-01-08 14:11:47.14	283.63	14.55	-49.4	-51.1	15.7	6.04e-01	0	24	0	480247808	67	4410
2026-01-08 14:11:50.16	284.36	14.55	-49.4	-51.1	15.7	6.04e-01	0	24	0	486014976	67	4437
2026-01-08 14:11:53.19	285.09	14.54	-49.5	-51.2	15.7	6.03e-01	0	24	0	491782144	67	4492
2026-01-08 14:11:56.22	285.83	14.53	-49.4	-51.1	15.7	6.05e-01	0	24	0	497549312	67	4395
2026-01-08 14:11:59.25	286.56	14.52	-49.3	-51.0	15.7	6.05e-01	0	24	0	503316480	67	4357
2026-01-08 14:12:02.27	287.29	14.50	-49.4	-51.1	15.7	6.02e-01	0	24	0	508559360	67	4406
2026-01-08 14:12:05.29	288.02	14.48	-49.4	-51.1	15.7	6.04e-01	0	24	0	514326528	67	4402
2026-01-08 14:12:08.32	288.75	14.45	-49.4	-51.1	15.7	6.03e-01	0	24	0	520093696	67	4404
2026-01-08 14:12:11.34	289.47	14.42	-49.5	-51.2	15.7	6.05e-01	0	24	0	525860864	67	4482
2026-01-08 14:12:14.37	290.20	14.39	-49.4	-51.1	15.7	6.04e-01	0	24	0	531628032	67	4407
2026-01-08 14:12:17.39	290.92	14.35	-49.4	-51.1	15.7	6.03e-01	0	24	0	536870912	67	4407
2026-01-08 14:12:20.42	291.64	14.31	-49.4	-51.1	15.7	6.04e-01	0	24	0	542638080	67	4395
2026-01-08 14:12:23.45	292.36	14.26	-49.2	-50.9	15.8	6.02e-01	0	24	0	548405248	67	4319
2026-01-08 14:12:26.47	293.07	14.21	-49.6	-51.3	15.7	6.04e-01	0	24	0	554172416	67	4520
2026-01-08 14:12:29.49	293.79	14.16	-49.2	-50.9	15.8	6.03e-01	0	24	0	559939584	67	4316
2026-01-08 14:12:32.51	294.50	14.10	-49.4	-51.1	15.7	6.01e-01	0	24	0	565182464	67	4411
2026-01-08 14:12:35.52	295.20	14.04	-49.3	-50.9	15.8	6.02e-01	0	24	0	570949632	67	4338
2026-01-08 14:12:38.55	295.91	13.98	-49.5	-51.2	15.7	6.02e-01	0	24	0	576716800	67	4457
2026-01-08 14:12:41.57	296.61	13.91	-49.4	-51.2	15.7	6.06e-01	0	24	0	582483968	67	4449
2026-01-08 14:12:44.59	297.30	13.84	-49.3	-50.9	15.8	6.02e-01	0	24	0	588251136	67	4334
2026-01-08 14:12:47.61	298.00	13.77	-49.3	-51.0	15.7	6.06e-01	0	24	0	593494016	67	4373
2026-01-08 14:12:50.61	298.68	13.69	-49.5	-51.2	15.7	6.03e-01	0	24	0	599261184	67	4469
2026-01-08 14:12:53.63	299.37	13.61	-49.2	-50.8	15.8	6.02e-01	0	24	0	605028352	67	4284
2026-01-08 14:12:56.66	300.05	13.52	-49.3	-51.0	15.7	6.04e-01	0	24	0	610795520	67	4371
2026-01-08 14:12:59.68	300.73	13.43	-49.3	-50.9	15.7	6.05e-01	0	24	0	616562688	67	4337
2026-01-08 14:13:02.70	301.40	13.34	-49.3	-51.0	15.7	6.04e-01	0	24	0	621805568	67	4367
2026-01-08 14:13:05.72	302.07	13.25	-49.2	-50.8	15.8	6.05e-01	0	24	0	627572736	67	4286
2026-01-08 14:13:08.74	302.73	13.15	-49.3	-51.0	15.7	6.05e-01	0	24	0	633339904	67	4370
2026-01-08 14:13:11.76	303.39	13.05	-49.2	-50.9	15.8	6.03e-01	0	24	0	639107072	67	4331
2026-01-08 14:13:14.79	304.05	12.95	-49.2	-50.9	15.7	6.03e-01	0	24	0	644874240	67	4321
2026-01-08 14:13:17.81	304.70	12.84	-49.2	-50.9	15.7	6.03e-01	0	24	0	650117120	67	4320
2026-01-08 14:13:20.84	305.34	12.74	-49.4	-51.1	15.7	6.03e-01	0	24	0	655884288	67	4431
2026-01-08 14:13:23.86	305.98	12.62	-49.4	-51.1	15.7	6.05e-01	0	24	0	661651456	67	4412
2026-01-08 14:13:26.89	306.62	12.51	-49.3	-51.0	15.7	6.04e-01	0	24	0	667418624	67	4374
2026-01-08 14:13:29.91	307.25	12.40	-49.3	-51.0	15.7	6.05e-01	0	24	0	673185792	67	4384
2026-01-08 14:13:32.93	307.87	12.28	-49.3	-51.0	15.7	6.03e-01	0	24	0	678952960	67	4365
2026-01-08 14:13:35.95	308.49	12.16	-49.3	-51.0	15.7	6.03e-01	0	24	0	684195840	67	4385
2026-01-08 14:13:38.97	309.11	12.04	-49.3	-51.1	15.7	6.04e-01	0	24	0	689963008	67	4401
2026-01-08 14:13:41.99	309.71	11.91	-49.4	-51.1	15.7	6.03e-01	0	24	0	695730176	67	4408
2026-01-08 14:13:45.02	310.32	11.79	-49.4	-51.1	15.7	6.01e-01	0	24	0	701497344	67	4409
2026-01-08 14:13:48.03	310.91	11.66	-49.3	-51.0	15.7	6.02e-01	0	24	0	707264512	67	4379
2026-01-08 14:13:51.05	311.51	11.53	-49.3	-51.0	15.7	6.03e-01	0	24	0	712507392	67	4370
2026-01-08 14:13:54.07	312.09	11.40	-49.2	-50.9	15.8	6.04e-01	0	24	0	718274560	67	4330
2026-01-08 14:13:57.09	312.67	11.26	-49.4	-51.2	15.7	6.03e-01	0	24	0	724041728	67	4453
2026-01-08 14:14:00.10	313.25	11.13	-49.3	-51.1	15.7	6.04e-01	0	24	0	729808896	67	4397
2026-01-08 14:14:03.13	313.82	10.99	-49.4	-51.1	15.7	6.02e-01	0	24	0	735576064	67	4427
2026-01-08 14:14:06.16	314.38	10.85	-49.4	-51.1	15.7	6.04e-01	0	24	0	740818944	67	4434
2026-01-08 14:14:09.18	314.94	10.71	-49.4	-51.2	15.7	6.03e-01	0	24	0	746586112	67	4470
2026-01-08 14:14:12.19	315.49	10.57	-49.4	-51.2	15.7	6.04e-01	0	24	0	752353280	67	4457
2026-01-08 14:14:15.22	316.04	10.43	-49.3	-51.1	15.7	6.03e-01	0	24	0	758120448	67	4412
2026-01-08 14:14:18.24	316.58	10.29	-49.5	-51.3	15.6	6.04e-01	0	24	0	763887616	67	4532
2026-01-08 14:14:21.27	317.12	10.14	-49.6	-51.4	15.6	6.01e-01	0	24	0	769130496	67	4576
2026-01-08 14:14:24.29	317.65	10.00	-49.5	-51.3	15.6	6.05e-01	0	24	0	774897664	67	4509
2026-01-08 14:14:27.32	318.18	9.85	-49.5	-51.2	15.6	6.00e-01	0	24	0	780664832	67	4489
2026-01-08 14:14:30.34	318.70	9.70	-49.4	-51.1	15.6	6.01e-01	0	24	0	786432000	67	4438
2026-01-08 14:14:33.36	319.21	9.55	-49.6	-51.4	15.6	6.02e-01	0	24	0	792199168	67	4593
2026-01-08 14:14:36.37	319.72	9.40	-49.6	-51.4	15.6	6.04e-01	0	24	0	797966336	67	4577
2026-01-08 14:14:39.39	320.22	9.25	-49.5	-51.3	15.6	6.02e-01	0	24	0	803209216	67	4519
2026-01-08 14:14:42.42	320.72	9.10	-49.6	-51.4	15.6	6.03e-01	0	24	0	808976384	67	4569
2026-01-08 14:14:45.44	321.21	8.95	-49.7	-51.5	15.5	6.03e-01	0	24	0	814743552	67	4646
2026-01-08 14:14:48.47	321.70	8.80	-49.6	-51.5	15.5	6.03e-01	0	24	0	820510720	67	4625
2026-01-08 14:14:51.48	322.18	8.64	-49.6	-51.4	15.6	6.03e-01	0	24	0	826277888	67	4565
2026-01-08 14:14:54.50	322.66	8.49	-49.7	-51.5	15.5	6.02e-01	0	24	0	831520768	67	4645
2026-01-08 14:14:57.52	323.13	8.34	-49.8	-51.7	15.5	6.05e-01	0	24	0	837287936	67	4729
2026-01-08 14:15:00.55	323.59	8.18	-49.6	-51.4	15.6	6.03e-01	0	24	0	843055104	67	4560
2026-01-08 14:15:03.57	324.05	8.03	-49.8	-51.7	15.5	6.03e-01	0	24	0	848822272	67	4707
2026-01-08 14:15:06.59	324.51	7.87	-50.0	-51.9	15.4	6.02e-01	0	24	0	854589440	67	4866
2026-01-08 14:15:09.62	324.96	7.72	-49.9	-51.9	15.4	6.02e-01	0	24	0	859832320	67	4822
2026-01-08 14:15:12.64	325.41	7.56	-49.8	-51.8	15.4	6.05e-01	0	24	0	865599488	67	4773
2026-01-08 14:15:15.66	325.85	7.40	-50.0	-52.0	15.4	6.03e-01	0	24	0	871366656	67	4875
2026-01-08 14:15:18.69	326.28	7.25	-50.1	-52.1	15.5	6.02e-01	0	24	0	877133824	68	4692
2026-01-08 14:15:21.71	326.71	7.09	-50.1	-52.1	15.5	6.01e-01	0	24	0	882900992	68	4654
2026-01-08 14:15:24.73	327.14	6.93	-50.1	-52.1	15.5	6.04e-01	0	24	0	888143872	68	4653
2026-01-08 14:15:27.76	327.56	6.77	-50.1	-52.1	15.5	6.02e-01	0	24	0	893911040	68	4656
2026-01-08 14:15:30.79	327.98	6.62	-50.1	-52.1	15.5	6.05e-01	0	24	0	899678208	68	4674
2026-01-08 14:15:33.81	328.39	6.46	-50.2	-52.2	15.4	6.03e-01	0	24	0	905445376	68	4758
2026-01-08 14:15:36.84	328.80	6.30	-50.2	-52.2	15.4	6.02e-01	0	24	0	911212544	68	4733
2026-01-08 14:15:39.87	329.20	6.14	-50.2	-52.2	15.4	6.06e-01	0	24	0	916455424	68	4756
2026-01-08 14:15:42.89	329.60	5.99	-50.4	-52.5	15.5	6.03e-01	0	24	0	922222592	69	4634
2026-01-08 14:15:45.92	329.99	5.83	-50.7	-52.9	15.3	6.03e-01	0	24	0	927989760	69	4849
2026-01-08 14:15:48.94	330.38	5.67	-50.9	-53.1	15.2	6.05e-01	0	24	0	933756928	69	4961
2026-01-08 14:15:51.97	330.77	5.51	-50.3	-52.4	15.5	6.05e-01	0	24	0	939524096	69	4566
2026-01-08 14:15:54.99	331.15	5.35	-50.6	-52.7	15.4	6.03e-01	0	24	0	945291264	69	4748
2026-01-08 14:15:58.02	331.52	5.20	-50.5	-52.7	15.4	6.04e-01	0	24	0	950534144	69	4724
2026-01-08 14:16:01.04	331.89	5.04	-50.6	-52.9	15.4	6.03e-01	0	24	0	956301312	69	4815
2026-01-08 14:16:04.07	332.26	4.88	-58.5	-77.8	3.8	7.45e-01	0	24	104	958398464	84	36021
2026-01-08 14:16:07.09	332.63	4.73	-59.2	-78.6	3.8	7.46e-01	0	24	104	958398464	86	34971
2026-01-08 14:16:10.11	332.99	4.57	-59.6	-78.9	3.8	7.45e-01	0	24	104	958398464	86	36378
2026-01-08 14:16:13.13	333.34	4.41	-59.7	-79.1	3.8	7.46e-01	0	24	104	958398464	87	34974
2026-01-08 14:16:16.16	333.69	4.25	-59.8	-79.1	3.8	7.48e-01	0	24	104	958398464	87	35196
2026-01-08 14:16:19.18	334.04	4.10	-59.8	-79.2	3.8	7.47e-01	0	24	104	958398464	87	35362
2026-01-08 14:16:22.21	334.38	3.94	-59.8	-79.2	3.8	7.47e-01	0	24	104	958398464	87	35490
2026-01-08 14:16:25.24	334.72	3.79	-59.7	-79.1	3.8	7.45e-01	0	24	104	958398464	87	35102
2026-01-08 14:16:28.27	335.06	3.63	-59.7	-79.1	3.8	7.47e-01	0	24	104	958398464	87	34968
2026-01-08 14:16:31.29	335.39	3.48	-59.6	-79.0	3.8	7.47e-01	0	24	104	958398464	87	34700
2026-01-08 14:16:34.32	335.72	3.32	-59.6	-79.0	3.8	7.45e-01	0	24	104	958398464	87	34566
2026-01-08 14:16:37.34	336.05	3.16	-59.6	-79.0	3.8	7.50e-01	0	24	104	958398464	87	34552
2026-01-08 14:16:40.36	336.37	3.01	-59.6	-78.9	3.8	7.48e-01	0	24	104	958398464	87	34418
2026-01-08 14:16:43.38	336.69	2.86	-59.5	-78.9	3.8	7.46e-01	0	24	104	958398464	87	34341
2026-01-08 14:16:46.41	337.00	2.70	-59.5	-78.9	3.8	7.47e-01	0	24	104	958398464	87	34198
2026-01-08 14:16:49.43	337.31	2.55	-59.5	-78.9	3.8	7.49e-01	0	24	104	958398464	87	34117
2026-01-08 14:16:52.46	337.62	2.40	-59.5	-78.9	3.8	7.49e-01	0	25	104	958398464	87	34148
2026-01-08 14:16:55.48	337.93	2.24	-59.5	-78.9	3.8	7.48e-01	0	25	104	958398464	87	34129
2026-01-08 14:16:58.51	338.23	2.09	-59.5	-78.8	3.8	7.44e-01	0	24	104	958398464	87	33986
2026-01-08 14:17:01.53	338.53	1.94	-59.5	-78.8	3.8	7.47e-01	0	24	104	958398464	87	34035

#Closed at: 2026-01-08 14:17:01
#Recorded file [958 MB]: D:/lorett/data/31004_260108_170638.dat