passes_logs/2026/01/08/R3.2S_Murmansk/R3.2S_Murmansk__20260108_230304_FENGYUN_3D_rec.log

#Pass ID: 20260108_230304_FENGYUN 3D
#Satellite: FENGYUN 3D
#Configuration: FENGYUN 3D
#almurnet v.1.7.20251203
#Start time: 2026-01-08 23:03:05

#Version: 2.2.20231116
#Station: R3.2S_Murmansk
#Location: 33.079688 lon 68.888172 lat
#TLE: 1 43010U 17072A   26008.59015185 -.00000067  00000+0 -98204-5 0  9997
#TLE: 2 43010  98.9935 340.3069 0002117 119.1923 240.9464 14.19693468422340

#Time	Az	El	Level	Level2	SNR	BER	BlckErr	Temp	State	Recorded	gain1	gain2
2026-01-08 23:03:05.00	19.61	2.01	-57.1	-70.1	3.8	8.46e-01	0	22	0	0	80	16029
2026-01-08 23:03:08.01	19.93	2.13	-57.1	-69.9	3.8	8.46e-01	0	22	104	0	79	16559
2026-01-08 23:03:11.02	20.26	2.25	-57.1	-69.9	3.8	8.45e-01	0	22	104	0	79	16597
2026-01-08 23:03:14.01	20.58	2.37	-57.1	-69.9	3.8	8.46e-01	0	22	104	0	79	16577
2026-01-08 23:03:17.02	20.91	2.49	-57.1	-69.9	3.8	8.46e-01	0	22	104	0	79	16647
2026-01-08 23:03:20.01	21.24	2.61	-57.1	-69.8	3.8	8.46e-01	0	22	104	0	79	16351
2026-01-08 23:03:23.02	21.57	2.73	-57.1	-69.8	3.8	8.47e-01	0	22	104	0	79	16390
2026-01-08 23:03:26.02	21.90	2.85	-57.1	-69.9	3.8	8.45e-01	0	22	104	0	79	16675
2026-01-08 23:03:29.03	22.24	2.97	-57.1	-70.0	3.8	8.45e-01	0	22	104	0	79	16708
2026-01-08 23:03:32.02	22.58	3.09	-57.1	-69.9	3.8	8.46e-01	0	22	104	0	79	16526
2026-01-08 23:03:35.02	22.92	3.21	-57.1	-70.0	3.8	8.46e-01	0	23	104	0	79	16811
2026-01-08 23:03:38.02	23.27	3.32	-57.1	-70.1	3.8	8.45e-01	0	23	104	0	79	16952
2026-01-08 23:03:41.01	23.62	3.44	-57.1	-70.1	3.8	8.46e-01	0	23	104	0	79	17002
2026-01-08 23:03:44.00	23.96	3.56	-57.1	-69.9	3.8	8.46e-01	0	23	104	0	79	16656
2026-01-08 23:03:46.99	24.32	3.67	-57.1	-70.0	3.8	8.45e-01	0	23	104	0	79	16745
2026-01-08 23:03:50.00	24.67	3.79	-57.2	-70.1	3.8	8.46e-01	0	23	104	0	79	17081
2026-01-08 23:03:52.99	25.03	3.90	-57.1	-69.8	3.8	8.45e-01	0	23	104	0	79	16417
2026-01-08 23:03:56.00	25.39	4.02	-57.1	-70.0	3.8	8.45e-01	0	23	104	0	79	16884
2026-01-08 23:03:58.99	25.76	4.13	-57.1	-69.7	3.8	8.46e-01	0	23	104	0	79	16241
2026-01-08 23:04:01.98	26.12	4.25	-57.1	-70.1	3.8	8.46e-01	0	23	104	0	79	17075
2026-01-08 23:04:04.99	26.49	4.36	-57.1	-69.0	3.8	8.45e-01	0	23	104	0	79	14965
2026-01-08 23:04:07.98	26.86	4.48	-57.0	-67.9	3.8	8.43e-01	0	23	104	0	79	13241
2026-01-08 23:04:10.99	27.24	4.59	-55.9	-61.7	6.9	2.48e-01	0	23	0	3145728	78	6845
2026-01-08 23:04:13.99	27.62	4.70	-52.6	-55.1	12.2	2.97e-05	0	23	0	19922944	71	4779
2026-01-08 23:04:16.99	28.00	4.81	-51.8	-54.0	12.8	0.00e+00	0	23	0	36700160	69	4751
2026-01-08 23:04:20.00	28.38	4.93	-53.5	-56.6	11.0	2.06e-04	0	23	0	53477376	72	5344
2026-01-08 23:04:23.00	28.77	5.04	-50.9	-52.7	13.7	1.10e-06	0	23	0	70254592	68	4325
2026-01-08 23:04:26.00	29.16	5.15	-50.8	-52.6	13.8	6.80e-06	0	23	0	85983232	68	4256
2026-01-08 23:04:29.00	29.55	5.26	-50.1	-51.7	14.0	0.00e+00	0	23	0	101711872	66	4337
2026-01-08 23:04:32.00	29.94	5.37	-48.7	-50.1	14.6	0.00e+00	0	23	0	118489088	63	4281
2026-01-08 23:04:35.00	30.34	5.47	-48.6	-50.0	14.6	0.00e+00	0	23	0	135266304	63	4239
2026-01-08 23:04:38.00	30.74	5.58	-48.7	-50.1	14.6	0.00e+00	0	23	0	152043520	63	4271
2026-01-08 23:04:40.98	31.14	5.69	-48.8	-50.2	14.6	0.00e+00	0	23	0	169869312	63	4335
2026-01-08 23:04:43.97	31.55	5.79	-48.8	-50.2	14.6	0.00e+00	0	24	0	186646528	63	4323
2026-01-08 23:04:46.95	31.95	5.90	-48.9	-50.3	14.5	0.00e+00	0	23	0	202375168	63	4388
2026-01-08 23:04:49.96	32.36	6.00	-48.7	-50.2	14.6	0.00e+00	0	24	0	220200960	63	4301
2026-01-08 23:04:52.94	32.78	6.11	-48.5	-50.0	14.7	0.00e+00	0	24	0	236978176	63	4195
2026-01-08 23:04:55.93	33.19	6.21	-48.6	-50.0	14.7	0.00e+00	0	24	0	253755392	63	4219
2026-01-08 23:04:58.92	33.61	6.31	-48.6	-50.0	14.7	0.00e+00	0	24	0	270532608	63	4235
2026-01-08 23:05:01.90	34.03	6.41	-48.7	-50.2	14.6	0.00e+00	0	24	0	287309824	63	4303
2026-01-08 23:05:04.91	34.46	6.51	-48.8	-50.3	14.5	0.00e+00	0	24	0	304087040	63	4368
2026-01-08 23:05:07.90	34.89	6.61	-48.7	-50.2	14.6	0.00e+00	0	24	0	320864256	63	4307
2026-01-08 23:05:10.91	35.32	6.71	-48.4	-49.8	14.9	0.00e+00	0	24	0	337641472	63	4114
2026-01-08 23:05:13.91	35.75	6.81	-48.5	-49.9	14.8	0.00e+00	0	24	0	354418688	63	4167
2026-01-08 23:05:16.90	36.19	6.91	-48.5	-49.9	14.8	0.00e+00	0	24	0	371195904	63	4150
2026-01-08 23:05:19.90	36.63	7.00	-48.3	-49.7	14.9	0.00e+00	0	23	0	387973120	63	4052
2026-01-08 23:05:22.89	37.07	7.10	-48.2	-49.5	15.0	0.00e+00	0	24	0	404750336	63	3996
2026-01-08 23:05:25.89	37.52	7.19	-48.0	-49.3	14.9	0.00e+00	0	24	0	421527552	62	4104
2026-01-08 23:05:28.89	37.96	7.28	-48.0	-49.3	14.9	0.00e+00	0	24	0	439353344	62	4123
2026-01-08 23:05:31.89	38.41	7.37	-48.1	-49.5	14.8	0.00e+00	0	24	0	456130560	62	4202
2026-01-08 23:05:34.89	38.87	7.46	-48.1	-49.4	14.9	0.00e+00	0	24	0	472907776	62	4193
2026-01-08 23:05:37.88	39.32	7.55	-48.1	-49.4	14.9	0.00e+00	0	24	0	489684992	62	4186
2026-01-08 23:05:40.88	39.78	7.64	-48.1	-49.4	14.9	0.00e+00	0	24	0	506462208	62	4182
2026-01-08 23:05:43.87	40.24	7.72	-47.9	-49.2	15.0	0.00e+00	0	24	0	523239424	62	4067
2026-01-08 23:05:46.87	40.71	7.81	-48.1	-49.4	14.9	0.00e+00	0	24	0	540016640	62	4191
2026-01-08 23:05:49.85	41.17	7.89	-48.2	-49.5	14.9	0.00e+00	0	24	0	556793856	62	4222
2026-01-08 23:05:52.83	41.64	7.97	-48.0	-49.4	14.9	0.00e+00	0	24	0	573571072	62	4147
2026-01-08 23:05:55.82	42.11	8.05	-48.0	-49.3	15.0	0.00e+00	0	24	0	590348288	62	4119
2026-01-08 23:05:58.81	42.58	8.13	-48.1	-49.4	14.9	0.00e+00	0	24	0	607125504	62	4175
2026-01-08 23:06:01.81	43.06	8.21	-48.1	-49.4	15.0	0.00e+00	0	24	0	623902720	62	4169
2026-01-08 23:06:04.80	43.54	8.29	-48.0	-49.3	15.0	0.00e+00	0	24	0	640679936	62	4132
2026-01-08 23:06:07.79	44.02	8.36	-47.8	-49.1	15.1	0.00e+00	0	24	0	657457152	62	4030
2026-01-08 23:06:10.78	44.50	8.44	-48.0	-49.3	15.0	0.00e+00	0	24	0	674234368	62	4117
2026-01-08 23:06:13.78	44.99	8.51	-48.0	-49.3	15.0	0.00e+00	0	24	0	691011584	62	4143
2026-01-08 23:06:16.79	45.48	8.58	-48.0	-49.4	14.9	0.00e+00	0	24	0	707788800	62	4160
2026-01-08 23:06:19.78	45.97	8.65	-48.0	-49.3	15.0	0.00e+00	0	24	0	725614592	62	4123
2026-01-08 23:06:22.78	46.46	8.72	-48.0	-49.3	15.0	0.00e+00	0	24	0	742391808	62	4123
2026-01-08 23:06:25.79	46.96	8.78	-47.5	-48.8	15.1	0.00e+00	0	24	0	759169024	61	4111
2026-01-08 23:06:28.79	47.45	8.85	-47.7	-48.9	15.0	0.00e+00	0	24	0	775946240	61	4188
2026-01-08 23:06:31.77	47.95	8.91	-47.5	-48.8	15.1	0.00e+00	0	24	0	792723456	61	4124
2026-01-08 23:06:34.78	48.46	8.97	-47.7	-49.0	15.0	0.00e+00	0	24	0	809500672	61	4194
2026-01-08 23:06:37.77	48.96	9.03	-47.6	-48.9	15.0	0.00e+00	0	24	0	826277888	61	4171
2026-01-08 23:06:40.77	49.46	9.08	-47.4	-48.7	15.2	0.00e+00	0	24	0	843055104	61	4054
2026-01-08 23:06:43.76	49.97	9.14	-47.4	-48.6	15.2	0.00e+00	0	24	0	859832320	61	4032
2026-01-08 23:06:46.75	50.48	9.19	-47.7	-49.0	15.0	0.00e+00	0	24	0	876609536	61	4204
2026-01-08 23:06:49.74	50.99	9.24	-47.7	-49.0	14.9	0.00e+00	0	24	0	893386752	61	4241
2026-01-08 23:06:52.72	51.50	9.29	-47.5	-48.8	15.1	0.00e+00	0	24	0	910163968	61	4117
2026-01-08 23:06:55.72	52.01	9.34	-47.6	-48.8	15.0	0.00e+00	0	24	0	926941184	61	4133
2026-01-08 23:06:58.71	52.53	9.39	-47.5	-48.8	15.1	0.00e+00	0	24	0	944766976	61	4104
2026-01-08 23:07:01.69	53.04	9.43	-47.4	-48.7	15.1	0.00e+00	0	24	0	960495616	61	4058
2026-01-08 23:07:04.68	53.56	9.47	-47.7	-48.9	15.0	0.00e+00	0	24	0	977272832	61	4189
2026-01-08 23:07:07.68	54.08	9.51	-47.5	-48.8	15.1	0.00e+00	0	24	0	995098624	61	4107
2026-01-08 23:07:10.69	54.61	9.55	-47.5	-48.7	15.1	0.00e+00	0	24	0	1011875840	61	4092
2026-01-08 23:07:13.68	55.13	9.59	-47.6	-48.8	15.1	0.00e+00	0	24	0	1028653056	61	4131
2026-01-08 23:07:16.67	55.65	9.62	-47.6	-48.9	15.0	0.00e+00	0	24	0	1045430272	61	4170
2026-01-08 23:07:19.65	56.18	9.65	-47.6	-48.8	15.1	0.00e+00	0	24	0	1062207488	61	4144
2026-01-08 23:07:22.65	56.70	9.68	-47.4	-48.6	15.2	0.00e+00	0	24	0	1078984704	61	4031
2026-01-08 23:07:25.65	57.23	9.71	-47.3	-48.5	15.2	0.00e+00	0	24	0	1095761920	61	4000
2026-01-08 23:07:28.64	57.76	9.74	-47.5	-48.8	15.1	0.00e+00	0	24	0	1112539136	61	4100
2026-01-08 23:07:31.64	58.29	9.76	-47.8	-49.0	14.9	0.00e+00	0	24	0	1129316352	61	4239
2026-01-08 23:07:34.64	58.82	9.78	-47.8	-49.0	14.9	0.00e+00	0	24	0	1146093568	61	4239
2026-01-08 23:07:37.65	59.35	9.80	-47.5	-48.8	15.1	0.00e+00	0	24	0	1162870784	61	4121
2026-01-08 23:07:40.65	59.89	9.82	-47.4	-48.6	15.1	0.00e+00	0	24	0	1179648000	61	4051
2026-01-08 23:07:43.64	60.42	9.83	-47.4	-48.6	15.1	0.00e+00	0	24	0	1196425216	61	4036
2026-01-08 23:07:46.64	60.95	9.85	-47.5	-48.7	15.1	0.00e+00	0	24	0	1213202432	61	4097
2026-01-08 23:07:49.61	61.48	9.86	-47.6	-48.9	15.1	0.00e+00	0	24	0	1231028224	61	4147
2026-01-08 23:07:52.60	62.01	9.87	-47.4	-48.6	15.1	0.00e+00	0	24	0	1246756864	61	4038
2026-01-08 23:07:55.61	62.55	9.87	-47.4	-48.7	15.1	0.00e+00	0	24	0	1264582656	61	4055
2026-01-08 23:07:58.60	63.08	9.88	-47.5	-48.8	15.1	0.00e+00	0	24	0	1281359872	61	4111
2026-01-08 23:08:01.59	63.62	9.88	-47.7	-49.0	15.0	0.00e+00	0	24	0	1298137088	61	4196
2026-01-08 23:08:04.59	64.15	9.88	-47.5	-48.8	15.1	0.00e+00	0	24	0	1314914304	61	4108
2026-01-08 23:08:07.58	64.68	9.88	-47.6	-48.9	15.1	0.00e+00	0	24	0	1331691520	61	4156
2026-01-08 23:08:10.58	65.22	9.87	-47.5	-48.7	15.1	0.00e+00	0	24	0	1348468736	61	4094
2026-01-08 23:08:13.58	65.75	9.87	-47.6	-48.9	15.0	0.00e+00	0	24	0	1365245952	61	4149
2026-01-08 23:08:16.56	66.29	9.86	-47.5	-48.8	15.1	0.00e+00	0	24	0	1382023168	61	4112
2026-01-08 23:08:19.56	66.82	9.85	-47.5	-48.7	15.1	0.00e+00	0	24	0	1398800384	61	4075
2026-01-08 23:08:22.55	67.35	9.84	-47.5	-48.8	15.1	0.00e+00	0	24	0	1415577600	61	4131
2026-01-08 23:08:25.54	67.88	9.82	-47.7	-49.0	15.0	0.00e+00	0	24	0	1432354816	61	4212
2026-01-08 23:08:28.54	68.42	9.80	-47.8	-49.1	14.9	0.00e+00	0	24	0	1449132032	61	4264
2026-01-08 23:08:31.54	68.95	9.78	-47.6	-48.9	15.0	0.00e+00	0	24	0	1465909248	61	4156
2026-01-08 23:08:34.55	69.48	9.76	-47.7	-49.0	15.0	0.00e+00	0	24	0	1482686464	61	4199
2026-01-08 23:08:37.53	70.01	9.74	-47.6	-48.9	15.0	0.00e+00	0	24	0	1500512256	61	4183
2026-01-08 23:08:40.53	70.54	9.71	-47.3	-48.6	15.1	0.00e+00	0	24	0	1517289472	61	4022
2026-01-08 23:08:43.53	71.07	9.68	-47.4	-48.6	15.1	0.00e+00	0	24	0	1534066688	61	4046
2026-01-08 23:08:46.53	71.60	9.65	-47.5	-48.8	15.1	0.00e+00	0	24	0	1550843904	61	4104
2026-01-08 23:08:49.52	72.12	9.62	-47.7	-48.9	15.0	0.00e+00	0	24	0	1567621120	61	4193
2026-01-08 23:08:52.50	72.64	9.59	-47.6	-48.9	15.0	0.00e+00	0	24	0	1584398336	61	4154
2026-01-08 23:08:55.51	73.17	9.55	-47.5	-48.7	15.1	0.00e+00	0	24	0	1601175552	61	4077
2026-01-08 23:08:58.50	73.69	9.51	-47.6	-48.9	15.0	0.00e+00	0	24	0	1617952768	61	4163
2026-01-08 23:09:01.49	74.21	9.47	-47.7	-49.0	14.9	0.00e+00	0	24	0	1634729984	61	4221
2026-01-08 23:09:04.48	74.73	9.43	-47.7	-49.0	15.0	0.00e+00	0	24	0	1651507200	61	4202
2026-01-08 23:09:07.48	75.25	9.39	-47.7	-49.1	14.9	0.00e+00	0	24	0	1668284416	61	4280
2026-01-08 23:09:10.47	75.77	9.34	-47.6	-49.0	14.9	0.00e+00	0	24	0	1685061632	61	4224
2026-01-08 23:09:13.47	76.28	9.29	-47.7	-49.2	14.8	0.00e+00	0	24	0	1701838848	61	4302
2026-01-08 23:09:16.46	76.80	9.24	-47.7	-49.2	14.8	0.00e+00	0	24	0	1718616064	61	4313
2026-01-08 23:09:19.47	77.31	9.19	-47.7	-49.2	14.8	0.00e+00	0	24	0	1736441856	61	4294
2026-01-08 23:09:22.47	77.82	9.14	-47.7	-49.2	14.8	0.00e+00	0	24	0	1753219072	61	4305
2026-01-08 23:09:25.45	78.33	9.08	-47.7	-49.1	14.9	0.00e+00	0	24	0	1768947712	61	4283
2026-01-08 23:09:28.45	78.84	9.03	-47.7	-49.1	14.9	0.00e+00	0	24	0	1786773504	61	4264
2026-01-08 23:09:31.45	79.34	8.97	-47.7	-49.1	14.8	0.00e+00	0	24	0	1803550720	61	4285
2026-01-08 23:09:34.44	79.84	8.91	-47.9	-49.4	14.7	0.00e+00	0	24	0	1820327936	61	4392
2026-01-08 23:09:37.43	80.34	8.84	-47.9	-49.4	14.7	0.00e+00	0	24	0	1837105152	61	4398
2026-01-08 23:09:40.44	80.84	8.78	-47.9	-49.4	14.7	0.00e+00	0	24	0	1853882368	61	4402
2026-01-08 23:09:43.46	81.34	8.71	-48.0	-49.5	14.7	0.00e+00	0	24	0	1870659584	61	4458
2026-01-08 23:09:46.45	81.84	8.65	-48.1	-49.6	14.6	0.00e+00	0	24	0	1887436800	61	4498
2026-01-08 23:09:49.45	82.33	8.58	-48.0	-49.5	14.7	0.00e+00	0	24	0	1904214016	61	4462
2026-01-08 23:09:52.44	82.82	8.51	-48.0	-49.6	14.6	0.00e+00	0	24	0	1920991232	61	4498
2026-01-08 23:09:55.44	83.31	8.43	-48.0	-49.5	14.7	0.00e+00	0	24	0	1937768448	61	4459
2026-01-08 23:09:58.43	83.79	8.36	-47.9	-49.4	14.7	0.00e+00	0	24	0	1954545664	61	4409
2026-01-08 23:10:01.43	84.27	8.28	-47.8	-49.3	14.8	0.00e+00	0	24	0	1972371456	61	4352
2026-01-08 23:10:04.42	84.75	8.21	-48.0	-49.5	14.6	0.00e+00	0	24	0	1989148672	61	4477
2026-01-08 23:10:07.41	85.23	8.13	-48.0	-49.5	14.6	0.00e+00	0	24	0	2005925888	61	4481
2026-01-08 23:10:10.41	85.71	8.05	-48.0	-49.4	14.7	0.00e+00	0	24	0	2022703104	61	4438
2026-01-08 23:10:13.41	86.18	7.97	-48.1	-49.6	14.6	0.00e+00	0	24	0	2039480320	61	4519
2026-01-08 23:10:16.40	86.65	7.89	-48.2	-49.8	14.5	0.00e+00	0	24	0	2056257536	61	4622
2026-01-08 23:10:19.40	87.12	7.80	-48.1	-49.6	14.6	0.00e+00	0	24	0	2073034752	61	4544
2026-01-08 23:10:22.39	87.58	7.72	-48.1	-49.6	14.6	0.00e+00	0	24	0	2089811968	61	4538
2026-01-08 23:10:25.40	88.05	7.63	-48.0	-49.4	14.7	0.00e+00	0	24	0	2106589184	61	4425
2026-01-08 23:10:28.39	88.51	7.54	-48.1	-49.6	14.6	0.00e+00	0	24	0	2123366400	61	4524
2026-01-08 23:10:31.39	88.96	7.45	-48.2	-49.7	14.5	0.00e+00	0	24	0	2140143616	61	4580
2026-01-08 23:10:34.38	89.42	7.36	-48.3	-49.8	14.4	0.00e+00	0	24	0	2156920832	61	4650
2026-01-08 23:10:37.38	89.87	7.27	-48.3	-49.9	14.4	0.00e+00	0	24	0	2173698048	61	4679
2026-01-08 23:10:40.37	90.32	7.18	-48.3	-49.8	14.6	0.00e+00	0	24	0	2191523840	62	4389
2026-01-08 23:10:43.38	90.77	7.08	-48.5	-50.0	14.5	0.00e+00	0	24	0	2208301056	62	4492
2026-01-08 23:10:46.37	91.21	6.99	-48.3	-49.8	14.6	0.00e+00	0	24	0	2225078272	62	4376
2026-01-08 23:10:49.37	91.65	6.89	-48.3	-49.8	14.6	0.00e+00	0	24	0	2241855488	62	4371
2026-01-08 23:10:52.36	92.09	6.79	-48.3	-49.8	14.6	0.00e+00	0	24	0	2258632704	62	4374
2026-01-08 23:10:55.35	92.52	6.70	-48.2	-49.7	14.7	0.00e+00	0	24	0	2275409920	62	4313
2026-01-08 23:10:58.34	92.96	6.60	-48.5	-50.0	14.5	0.00e+00	0	24	0	2292187136	62	4465
2026-01-08 23:11:01.32	93.38	6.50	-48.7	-50.3	14.3	0.00e+00	0	24	0	2308964352	62	4628
2026-01-08 23:11:04.32	93.81	6.40	-48.7	-50.3	14.3	0.00e+00	0	24	0	2325741568	62	4628
2026-01-08 23:11:07.31	94.23	6.30	-48.7	-50.3	14.3	0.00e+00	0	24	0	2342518784	62	4614
2026-01-08 23:11:10.31	94.65	6.19	-48.8	-50.4	14.2	0.00e+00	0	24	0	2359296000	62	4689
2026-01-08 23:11:13.31	95.07	6.09	-48.5	-50.1	14.4	0.00e+00	0	24	0	2376073216	62	4538
2026-01-08 23:11:16.30	95.49	5.98	-48.7	-50.2	14.3	0.00e+00	0	24	0	2392850432	62	4596
2026-01-08 23:11:19.28	95.90	5.88	-48.7	-50.3	14.3	0.00e+00	0	24	0	2409627648	62	4605
2026-01-08 23:11:22.28	96.31	5.77	-48.7	-50.3	14.4	0.00e+00	0	24	0	2426404864	63	4388
2026-01-08 23:11:25.26	96.71	5.67	-49.0	-50.6	14.2	0.00e+00	0	24	0	2443182080	63	4531
2026-01-08 23:11:28.25	97.12	5.56	-48.9	-50.5	14.3	0.00e+00	0	24	0	2459959296	63	4476
2026-01-08 23:11:31.24	97.52	5.45	-48.7	-50.3	14.4	0.00e+00	0	24	0	2476736512	63	4357
2026-01-08 23:11:34.26	97.92	5.34	-48.7	-50.3	14.4	0.00e+00	0	24	0	2494562304	63	4367
2026-01-08 23:11:37.25	98.31	5.23	-48.9	-50.5	14.2	0.00e+00	0	24	0	2510290944	63	4486
2026-01-08 23:11:40.23	98.70	5.12	-48.7	-50.3	14.4	0.00e+00	0	24	0	2528116736	63	4352
2026-01-08 23:11:43.22	99.09	5.01	-49.0	-50.6	14.2	0.00e+00	0	24	0	2544893952	63	4537
2026-01-08 23:11:46.22	99.48	4.90	-58.2	-71.2	3.8	8.47e-01	0	24	104	2548039680	81	17278
2026-01-08 23:11:49.21	99.86	4.79	-58.7	-71.8	3.8	8.45e-01	0	24	104	2548039680	82	17365
2026-01-08 23:11:52.20	100.24	4.67	-59.1	-72.1	3.8	8.44e-01	0	24	104	2548039680	83	17074
2026-01-08 23:11:55.21	100.62	4.56	-59.3	-72.4	3.8	8.47e-01	0	24	104	2548039680	83	17514
2026-01-08 23:11:58.20	101.00	4.45	-59.4	-72.5	3.8	8.46e-01	0	24	104	2548039680	83	17740
2026-01-08 23:12:01.20	101.37	4.33	-59.7	-72.8	3.8	8.45e-01	0	24	104	2548039680	84	17384
2026-01-08 23:12:04.19	101.74	4.22	-59.8	-72.9	3.8	8.46e-01	0	24	104	2548039680	84	17523
2026-01-08 23:12:07.18	102.11	4.10	-59.9	-72.9	3.8	8.44e-01	0	24	104	2548039680	84	17655
2026-01-08 23:12:10.17	102.47	3.99	-60.0	-73.1	3.8	8.45e-01	0	24	104	2548039680	85	16899
2026-01-08 23:12:13.17	102.83	3.87	-59.9	-73.0	3.8	8.46e-01	0	24	104	2548039680	85	16746
2026-01-08 23:12:16.18	103.19	3.75	-59.9	-72.9	3.8	8.46e-01	0	24	104	2548039680	85	16667
2026-01-08 23:12:19.19	103.55	3.64	-59.8	-72.9	3.8	8.45e-01	0	24	104	2548039680	85	16639
2026-01-08 23:12:22.19	103.91	3.52	-59.8	-72.9	3.8	8.46e-01	0	24	104	2548039680	85	16622
2026-01-08 23:12:25.19	104.26	3.40	-59.8	-72.9	3.8	8.46e-01	0	24	104	2548039680	85	16546
2026-01-08 23:12:28.20	104.61	3.28	-59.8	-72.9	3.8	8.45e-01	0	24	104	2548039680	85	16529
2026-01-08 23:12:31.20	104.95	3.16	-59.8	-72.9	3.8	8.46e-01	0	24	104	2548039680	85	16568
2026-01-08 23:12:34.20	105.30	3.04	-59.8	-72.9	3.8	8.46e-01	0	24	104	2548039680	85	16505
2026-01-08 23:12:37.20	105.64	2.92	-59.7	-72.8	3.8	8.46e-01	0	24	104	2548039680	85	16480
2026-01-08 23:12:40.20	105.98	2.80	-59.8	-72.8	3.8	8.46e-01	0	24	104	2548039680	85	16484
2026-01-08 23:12:43.20	106.31	2.68	-59.7	-72.8	3.8	8.45e-01	0	24	104	2548039680	85	16452
2026-01-08 23:12:46.20	106.64	2.56	-59.7	-72.8	3.8	8.45e-01	0	24	104	2548039680	85	16455
2026-01-08 23:12:49.21	106.97	2.44	-59.7	-72.8	3.8	8.46e-01	0	24	104	2548039680	85	16451
2026-01-08 23:12:52.20	107.30	2.32	-59.7	-72.8	3.8	8.46e-01	0	24	104	2548039680	85	16410
2026-01-08 23:12:55.19	107.63	2.20	-59.7	-72.8	3.8	8.45e-01	0	24	104	2548039680	85	16430
2026-01-08 23:12:58.19	107.95	2.08	-59.7	-72.8	3.8	8.46e-01	0	24	104	2548039680	85	16363

#Closed at: 2026-01-08 23:13:00
#Recorded file [2548 MB]: D:/lorett/data/31004_260109_020304.dat