passes_logs/2026/01/08/R3.2S_Murmansk/R3.2S_Murmansk__20260108_124035_FENGYUN_3D_rec.log

#Pass ID: 20260108_124035_FENGYUN 3D
#Satellite: FENGYUN 3D
#Configuration: FENGYUN 3D
#almurnet v.1.7.20251203
#Start time: 2026-01-08 12:40:35

#Version: 2.2.20231116
#Station: R3.2S_Murmansk
#Location: 33.079688 lon 68.888172 lat
#TLE: 1 43010U 17072A   26007.95585757  .00000190  00000+0  11182-3 0  9996
#TLE: 2 43010  98.9933 339.6629 0002109 121.4202 238.7180 14.19694196422257

#Time	Az	El	Level	Level2	SNR	BER	BlckErr	Temp	State	Recorded	gain1	gain2
2026-01-08 12:40:35.13	179.17	1.99	-57.9	-70.9	3.8	8.45e-01	0	25	0	0	82	15615
2026-01-08 12:40:39.07	179.31	2.24	-57.9	-70.8	3.8	8.46e-01	0	25	104	0	80	17418
2026-01-08 12:40:43.04	179.46	2.49	-57.8	-70.7	3.8	8.45e-01	0	24	104	0	80	17093
2026-01-08 12:40:47.01	179.60	2.74	-57.8	-70.5	3.8	8.46e-01	0	25	104	0	80	16858
2026-01-08 12:40:50.99	179.75	3.00	-57.8	-70.7	3.8	8.46e-01	0	25	104	0	80	17175
2026-01-08 12:40:54.96	179.89	3.25	-57.8	-70.4	3.8	8.45e-01	0	25	104	0	80	16532
2026-01-08 12:40:58.96	180.05	3.51	-57.8	-70.9	3.8	8.46e-01	0	25	104	0	80	17482
2026-01-08 12:41:02.92	180.20	3.77	-57.7	-68.7	3.9	8.44e-01	0	25	104	0	80	13587
2026-01-08 12:41:06.89	180.36	4.04	-57.1	-64.6	5.3	7.43e-01	0	25	0	0	80	8520
2026-01-08 12:41:10.87	180.51	4.30	-56.8	-63.3	6.1	2.88e-01	0	25	0	17825792	80	7343
2026-01-08 12:41:14.83	180.68	4.57	-56.4	-62.0	7.2	1.09e-01	0	25	0	40894464	79	6679
2026-01-08 12:41:18.79	180.84	4.84	-55.6	-59.9	9.0	1.61e-02	0	25	0	62914560	77	5901
2026-01-08 12:41:22.75	181.01	5.11	-55.3	-59.3	9.5	7.72e-03	0	25	0	84934656	77	5492
2026-01-08 12:41:26.72	181.18	5.39	-50.5	-52.3	13.8	0.00e+00	0	25	0	97517568	66	4616
2026-01-08 12:41:30.68	181.35	5.67	-49.2	-50.7	14.4	0.00e+00	0	25	0	119537664	64	4337
2026-01-08 12:41:34.62	181.52	5.95	-49.0	-50.5	14.5	0.00e+00	0	25	0	141557760	64	4234
2026-01-08 12:41:38.55	181.70	6.23	-48.9	-50.5	14.5	0.00e+00	0	25	0	163577856	64	4204
2026-01-08 12:41:42.49	181.88	6.51	-48.6	-50.0	14.7	0.00e+00	0	25	0	186646528	63	4239
2026-01-08 12:41:46.43	182.06	6.80	-48.5	-50.0	14.7	0.00e+00	0	25	0	208666624	63	4196
2026-01-08 12:41:50.37	182.25	7.09	-48.5	-50.0	14.7	0.00e+00	0	25	0	230686720	63	4197
2026-01-08 12:41:54.30	182.44	7.38	-48.4	-49.9	14.8	0.00e+00	0	25	0	252706816	63	4154
2026-01-08 12:41:58.29	182.64	7.69	-48.4	-49.8	14.8	0.00e+00	0	25	0	274726912	63	4114
2026-01-08 12:42:02.32	182.84	7.99	-48.3	-49.7	14.9	0.00e+00	0	25	0	297795584	63	4083
2026-01-08 12:42:06.35	183.05	8.30	-48.2	-49.6	14.9	0.00e+00	0	25	0	320864256	63	4033
2026-01-08 12:42:10.39	183.26	8.62	-48.1	-49.5	14.8	0.00e+00	0	25	0	342884352	62	4239
2026-01-08 12:42:14.42	183.48	8.94	-48.0	-49.4	14.9	0.00e+00	0	25	0	365953024	62	4173
2026-01-08 12:42:18.46	183.70	9.26	-48.1	-49.5	14.9	0.00e+00	0	25	0	387973120	62	4194
2026-01-08 12:42:22.48	183.92	9.59	-47.8	-49.1	15.0	0.00e+00	0	25	0	411041792	62	4037
2026-01-08 12:42:26.51	184.15	9.92	-47.6	-49.0	14.9	0.00e+00	0	25	0	434110464	61	4211
2026-01-08 12:42:30.54	184.38	10.25	-47.5	-48.8	15.0	0.00e+00	0	25	0	456130560	61	4135
2026-01-08 12:42:34.58	184.62	10.59	-47.5	-48.9	15.0	0.00e+00	0	25	0	479199232	61	4156
2026-01-08 12:42:38.62	184.87	10.93	-47.6	-48.9	15.0	0.00e+00	0	25	0	502267904	61	4191
2026-01-08 12:42:42.65	185.12	11.28	-47.6	-49.0	15.0	0.00e+00	0	25	0	524288000	61	4205
2026-01-08 12:42:46.67	185.37	11.63	-47.5	-48.8	15.0	0.00e+00	0	25	0	547356672	61	4129
2026-01-08 12:42:50.71	185.63	11.99	-47.5	-48.8	15.0	0.00e+00	0	25	0	569376768	61	4142
2026-01-08 12:42:54.74	185.90	12.35	-47.3	-48.6	15.2	0.00e+00	0	25	0	592445440	61	4018
2026-01-08 12:42:58.78	186.18	12.71	-47.4	-48.7	15.1	0.00e+00	0	25	0	615514112	61	4069
2026-01-08 12:43:02.81	186.46	13.08	-47.2	-48.6	15.0	0.00e+00	0	25	0	637534208	60	4253
2026-01-08 12:43:06.84	186.74	13.46	-47.2	-48.5	15.0	0.00e+00	0	25	0	660602880	60	4223
2026-01-08 12:43:10.87	187.04	13.84	-47.0	-48.3	15.2	0.00e+00	0	25	0	683671552	60	4103
2026-01-08 12:43:14.91	187.34	14.23	-46.9	-48.2	15.2	0.00e+00	0	25	0	705691648	60	4058
2026-01-08 12:43:18.95	187.65	14.62	-46.8	-48.1	15.2	0.00e+00	0	25	0	728760320	60	4024
2026-01-08 12:43:22.99	187.97	15.02	-46.7	-48.0	15.3	0.00e+00	0	25	0	751828992	60	3986
2026-01-08 12:43:27.02	188.29	15.42	-46.8	-48.1	15.1	0.00e+00	0	25	0	773849088	59	4244
2026-01-08 12:43:31.06	188.62	15.83	-46.4	-47.6	15.3	0.00e+00	0	25	0	796917760	59	4033
2026-01-08 12:43:35.09	188.97	16.25	-46.3	-47.5	15.4	0.00e+00	0	25	0	819986432	59	3992
2026-01-08 12:43:39.12	189.32	16.67	-46.3	-47.6	15.4	0.00e+00	0	25	0	842006528	59	4015
2026-01-08 12:43:43.16	189.68	17.10	-46.3	-47.5	15.4	0.00e+00	0	25	0	865075200	59	3987
2026-01-08 12:43:47.19	190.05	17.53	-46.1	-47.4	15.3	0.00e+00	0	25	0	888143872	58	4154
2026-01-08 12:43:51.22	190.43	17.98	-46.2	-47.5	15.3	0.00e+00	0	25	0	910163968	58	4198
2026-01-08 12:43:55.27	190.83	18.43	-46.1	-47.3	15.3	0.00e+00	0	25	0	933232640	58	4135
2026-01-08 12:43:59.30	191.23	18.88	-46.0	-47.2	15.3	0.00e+00	0	25	0	955252736	58	4086
2026-01-08 12:44:03.32	191.64	19.34	-45.8	-47.0	15.5	0.00e+00	0	25	0	978321408	58	3995
2026-01-08 12:44:07.36	192.07	19.81	-45.9	-47.2	15.4	0.00e+00	0	25	0	1001390080	58	4061
2026-01-08 12:44:11.39	192.51	20.29	-45.7	-46.9	15.5	0.00e+00	0	25	0	1023410176	58	3945
2026-01-08 12:44:15.42	192.97	20.78	-45.4	-46.6	15.4	0.00e+00	0	25	0	1046478848	57	4033
2026-01-08 12:44:19.45	193.44	21.27	-45.4	-46.6	15.5	0.00e+00	0	25	0	1069547520	57	4038
2026-01-08 12:44:23.48	193.92	21.77	-45.4	-46.6	15.5	0.00e+00	0	25	0	1091567616	57	4036
2026-01-08 12:44:27.51	194.42	22.28	-45.3	-46.4	15.5	0.00e+00	0	25	0	1114636288	57	3957
2026-01-08 12:44:31.55	194.93	22.80	-45.0	-46.2	15.5	0.00e+00	0	25	0	1136656384	56	4064
2026-01-08 12:44:35.58	195.46	23.32	-45.2	-46.3	15.4	0.00e+00	0	25	0	1159725056	56	4128
2026-01-08 12:44:39.61	196.01	23.85	-45.2	-46.3	15.4	0.00e+00	0	25	0	1182793728	56	4126
2026-01-08 12:44:43.65	196.58	24.40	-45.3	-46.3	15.4	0.00e+00	0	25	0	1204813824	56	4138
2026-01-08 12:44:47.69	197.17	24.95	-44.8	-45.9	15.6	0.00e+00	0	25	0	1227882496	56	3922
2026-01-08 12:44:51.73	197.78	25.51	-44.9	-45.9	15.6	0.00e+00	0	25	0	1250951168	56	3947
2026-01-08 12:44:55.75	198.41	26.07	-45.1	-46.2	15.5	0.00e+00	0	25	0	1272971264	56	4052
2026-01-08 12:44:59.79	199.06	26.65	-44.9	-45.9	15.5	0.00e+00	0	25	0	1296039936	56	3944
2026-01-08 12:45:03.82	199.73	27.23	-44.8	-45.8	15.6	0.00e+00	0	25	0	1318060032	56	3889
2026-01-08 12:45:07.85	200.43	27.83	-44.6	-45.6	15.5	0.00e+00	0	25	0	1341128704	55	4039
2026-01-08 12:45:11.89	201.16	28.43	-58.8	-70.6	3.8	8.45e-01	0	25	104	1348468736	83	14312
2026-01-08 12:45:15.92	201.91	29.04	-58.6	-68.8	4.1	8.37e-01	0	25	0	1348468736	83	11587
2026-01-08 12:45:19.95	202.69	29.65	-58.6	-68.4	4.2	8.37e-01	0	25	0	1348468736	83	11136
2026-01-08 12:45:23.98	203.50	30.28	-58.6	-68.4	4.2	8.36e-01	0	25	0	1348468736	83	11133
2026-01-08 12:45:28.01	204.34	30.91	-58.6	-68.6	4.2	8.38e-01	0	25	0	1348468736	83	11296
2026-01-08 12:45:32.04	205.21	31.55	-58.6	-68.2	4.3	8.32e-01	0	25	0	1348468736	83	10804
2026-01-08 12:45:36.07	206.12	32.20	-58.9	-70.8	3.8	8.46e-01	0	25	104	1348468736	83	14663
2026-01-08 12:45:40.11	207.07	32.85	-58.6	-68.5	4.2	8.36e-01	0	25	0	1348468736	83	11224
2026-01-08 12:45:44.14	208.05	33.51	-58.6	-68.4	4.2	8.35e-01	0	25	0	1348468736	83	11130
2026-01-08 12:45:48.18	209.08	34.17	-58.6	-68.3	4.2	8.36e-01	0	25	0	1348468736	83	11008
2026-01-08 12:45:52.21	210.14	34.84	-58.6	-68.4	4.2	8.36e-01	0	25	0	1348468736	83	11131
2026-01-08 12:45:56.23	211.25	35.50	-58.7	-68.7	4.1	8.35e-01	0	25	0	1348468736	83	11532
2026-01-08 12:46:00.27	212.41	36.18	-59.0	-71.5	3.8	8.45e-01	0	25	104	1348468736	83	15789
2026-01-08 12:46:04.30	213.61	36.85	-58.7	-68.3	4.2	8.34e-01	0	25	0	1348468736	83	10962
2026-01-08 12:46:08.33	214.86	37.52	-58.9	-70.3	3.8	8.34e-01	0	25	104	1348468736	83	13859
2026-01-08 12:46:12.37	216.16	38.19	-58.7	-68.2	4.3	8.32e-01	0	25	0	1348468736	83	10865
2026-01-08 12:46:16.39	217.52	38.85	-58.7	-68.0	4.4	8.27e-01	0	25	0	1348468736	83	10597
2026-01-08 12:46:20.42	218.93	39.51	-59.1	-71.9	3.8	8.46e-01	0	25	104	1348468736	83	16579
2026-01-08 12:46:24.43	220.39	40.16	-58.7	-68.2	4.3	8.31e-01	0	25	0	1348468736	83	10815
2026-01-08 12:46:28.46	221.92	40.80	-58.8	-68.3	4.3	8.34e-01	0	25	0	1348468736	83	11014
2026-01-08 12:46:32.49	223.51	41.43	-59.1	-71.4	3.8	8.44e-01	0	25	104	1348468736	83	15667
2026-01-08 12:46:36.52	225.15	42.05	-58.6	-66.8	4.9	7.77e-01	0	25	0	1348468736	83	9187
2026-01-08 12:46:40.54	226.86	42.65	-58.6	-67.1	4.7	7.84e-01	0	25	0	1348468736	83	9582
2026-01-08 12:46:44.57	228.64	43.23	-58.8	-68.4	4.2	8.33e-01	0	25	0	1348468736	83	11122
2026-01-08 12:46:48.60	230.47	43.78	-58.9	-68.8	4.2	8.38e-01	0	25	0	1348468736	83	11626
2026-01-08 12:46:52.63	232.37	44.32	-59.2	-71.5	3.8	8.47e-01	0	25	104	1348468736	83	15921
2026-01-08 12:46:56.67	234.34	44.82	-58.8	-67.8	4.5	8.19e-01	0	25	0	1348468736	83	10371
2026-01-08 12:47:00.70	236.37	45.29	-58.8	-67.4	4.7	7.96e-01	0	25	0	1348468736	83	9860
2026-01-08 12:47:04.74	238.45	45.73	-58.9	-68.2	4.0	8.46e-01	0	25	104	1348468736	83	10806
2026-01-08 12:47:08.77	240.59	46.13	-58.7	-67.1	4.8	7.88e-01	0	25	0	1348468736	83	9568
2026-01-08 12:47:12.80	242.78	46.49	-58.7	-66.7	5.0	7.86e-01	0	25	0	1348468736	83	9137
2026-01-08 12:47:16.84	245.02	46.80	-58.9	-68.7	4.2	7.85e-01	0	25	0	1348468736	83	11519
2026-01-08 12:47:20.87	247.29	47.08	-58.5	-65.9	5.5	6.53e-01	0	25	0	1349517312	83	8295
2026-01-08 12:47:24.89	249.60	47.30	-58.7	-66.7	5.0	7.82e-01	0	25	0	1361051648	83	9129
2026-01-08 12:47:28.92	251.94	47.47	-58.6	-66.6	5.0	7.59e-01	0	25	0	1362100224	83	9015
2026-01-08 12:47:32.95	254.30	47.59	-58.4	-65.1	6.0	3.29e-01	0	25	0	1375731712	83	7586
2026-01-08 12:47:36.98	256.68	47.66	-59.2	-71.0	3.8	8.45e-01	0	25	104	1390411776	83	14992
2026-01-08 12:47:41.01	259.07	47.68	-58.6	-66.1	5.3	7.40e-01	0	25	0	1390411776	83	8534
2026-01-08 12:47:45.04	261.45	47.65	-58.2	-64.2	6.7	1.89e-01	0	25	0	1411383296	83	6871
2026-01-08 12:47:49.08	263.83	47.56	-58.9	-67.5	4.7	8.21e-01	0	25	0	1418723328	83	10026
2026-01-08 12:47:53.12	266.19	47.42	-58.5	-65.5	5.7	4.72e-01	0	25	0	1420820480	83	7947
2026-01-08 12:47:57.15	268.52	47.23	-58.4	-64.9	6.2	1.92e-01	0	25	0	1443889152	83	7414
2026-01-08 12:48:01.18	270.82	47.00	-58.7	-66.5	5.1	7.68e-01	0	25	0	1445986304	83	8910
2026-01-08 12:48:05.21	273.08	46.71	-58.3	-64.4	6.5	2.09e-01	0	25	0	1463812096	83	7008
2026-01-08 12:48:09.25	275.31	46.38	-59.2	-69.5	4.1	8.45e-01	0	25	104	1476395008	83	12558
2026-01-08 12:48:13.28	277.48	46.01	-58.7	-66.5	5.1	7.59e-01	0	25	0	1476395008	83	8937
2026-01-08 12:48:17.31	279.59	45.60	-56.0	-59.1	11.0	7.76e-04	0	25	0	1495269376	78	5079
2026-01-08 12:48:21.34	281.65	45.15	-54.5	-56.8	12.5	1.10e-06	0	25	0	1518338048	75	4641
2026-01-08 12:48:25.38	283.66	44.67	-54.4	-56.7	12.6	0.00e+00	0	25	0	1541406720	75	4569
2026-01-08 12:48:29.42	285.61	44.16	-50.3	-51.8	14.7	0.00e+00	0	25	0	1563426816	67	4101
2026-01-08 12:48:33.45	287.48	43.62	-46.6	-47.8	15.3	0.00e+00	0	25	0	1586495488	59	4099
2026-01-08 12:48:37.48	289.30	43.06	-45.4	-46.4	15.5	0.00e+00	0	25	0	1609564160	57	3946
2026-01-08 12:48:41.51	291.05	42.47	-45.6	-46.7	15.5	0.00e+00	0	25	0	1631584256	57	4060
2026-01-08 12:48:45.55	292.74	41.87	-45.5	-46.5	15.5	0.00e+00	0	25	0	1654652928	57	3990
2026-01-08 12:48:49.58	294.37	41.25	-45.3	-46.4	15.6	0.00e+00	0	25	0	1677721600	57	3930
2026-01-08 12:48:53.61	295.94	40.62	-45.2	-46.3	15.4	0.00e+00	0	25	0	1699741696	56	4118
2026-01-08 12:48:57.65	297.45	39.97	-45.5	-46.6	15.4	0.00e+00	0	25	0	1722810368	56	4273
2026-01-08 12:49:01.69	298.90	39.32	-45.3	-46.4	15.4	0.00e+00	0	25	0	1745879040	56	4171
2026-01-08 12:49:05.72	300.29	38.66	-45.4	-46.5	15.4	0.00e+00	0	25	0	1767899136	56	4203
2026-01-08 12:49:09.75	301.62	37.99	-45.3	-46.4	15.4	0.00e+00	0	25	0	1790967808	56	4174
2026-01-08 12:49:13.79	302.91	37.32	-45.6	-46.7	15.4	0.00e+00	0	25	0	1814036480	56	4324
2026-01-08 12:49:17.82	304.14	36.66	-45.7	-46.8	15.3	0.00e+00	0	25	0	1836056576	56	4361
2026-01-08 12:49:21.85	305.33	35.99	-45.8	-46.9	15.4	0.00e+00	0	25	0	1859125248	57	4184
2026-01-08 12:49:25.88	306.46	35.32	-46.1	-47.2	15.3	0.00e+00	0	25	0	1881145344	57	4326
2026-01-08 12:49:29.92	307.56	34.65	-45.8	-46.9	15.4	0.00e+00	0	25	0	1904214016	57	4171
2026-01-08 12:49:33.95	308.61	33.99	-46.3	-47.4	15.2	0.00e+00	0	25	0	1927282688	57	4428
2026-01-08 12:49:37.99	309.62	33.33	-46.3	-47.4	15.3	0.00e+00	0	25	0	1949302784	58	4170
2026-01-08 12:49:42.02	310.59	32.68	-46.4	-47.5	15.3	0.00e+00	0	25	0	1972371456	58	4235
2026-01-08 12:49:46.05	311.52	32.03	-46.7	-47.8	15.3	0.00e+00	0	25	0	1995440128	59	4122
2026-01-08 12:49:50.09	312.42	31.39	-47.0	-48.1	15.2	0.00e+00	0	25	0	2017460224	59	4291
2026-01-08 12:49:54.12	313.28	30.76	-46.9	-48.0	15.2	0.00e+00	0	25	0	2040528896	59	4232
2026-01-08 12:49:58.16	314.11	30.13	-46.9	-48.1	15.3	0.00e+00	0	25	0	2062548992	60	4018
2026-01-08 12:50:02.19	314.91	29.51	-47.0	-48.1	15.3	0.00e+00	0	25	0	2085617664	60	4018
2026-01-08 12:50:06.22	315.68	28.90	-47.5	-48.6	15.1	0.00e+00	0	25	0	2108686336	60	4286
2026-01-08 12:50:10.26	316.42	28.29	-47.3	-48.5	15.2	0.00e+00	0	25	0	2130706432	60	4221
2026-01-08 12:50:14.29	317.14	27.70	-47.6	-48.8	15.0	0.00e+00	0	25	0	2153775104	60	4377
2026-01-08 12:50:18.32	317.83	27.11	-47.5	-48.7	15.1	0.00e+00	0	25	0	2176843776	60	4292
2026-01-08 12:50:22.37	318.50	26.53	-47.9	-49.1	15.0	0.00e+00	0	25	0	2198863872	61	4285
2026-01-08 12:50:26.40	319.14	25.96	-48.6	-49.9	14.8	0.00e+00	0	25	0	2221932544	62	4430
2026-01-08 12:50:30.43	319.76	25.39	-48.6	-49.9	14.9	0.00e+00	0	25	0	2245001216	62	4401
2026-01-08 12:50:34.46	320.37	24.84	-48.3	-49.5	15.1	0.00e+00	0	25	0	2267021312	63	3997
2026-01-08 12:50:38.50	320.95	24.29	-48.6	-49.9	15.0	0.00e+00	0	25	0	2290089984	63	4148
2026-01-08 12:50:42.53	321.51	23.76	-49.1	-50.4	14.6	0.00e+00	0	25	0	2313158656	63	4438
2026-01-08 12:50:46.56	322.05	23.23	-49.4	-50.7	14.4	0.00e+00	0	25	0	2335178752	64	4331
2026-01-08 12:50:50.60	322.58	22.71	-50.6	-52.1	14.3	0.00e+00	0	25	0	2358247424	66	4507
2026-01-08 12:50:54.64	323.09	22.20	-50.3	-51.8	14.4	0.00e+00	0	25	0	2381316096	66	4375
2026-01-08 12:50:58.67	323.58	21.69	-49.8	-51.2	14.6	0.00e+00	0	25	0	2403336192	65	4322
2026-01-08 12:51:02.67	324.06	21.20	-50.1	-51.5	14.3	0.00e+00	0	25	0	2426404864	65	4492
2026-01-08 12:51:06.70	324.52	20.71	-49.7	-51.1	14.6	0.00e+00	0	25	0	2448424960	65	4264
2026-01-08 12:51:10.74	324.97	20.23	-50.3	-51.7	14.2	0.00e+00	0	25	0	2471493632	65	4597
2026-01-08 12:51:14.77	325.41	19.76	-50.5	-51.9	14.3	0.00e+00	0	25	0	2493513728	66	4427
2026-01-08 12:51:18.80	325.84	19.29	-50.2	-51.6	14.6	0.00e+00	0	25	0	2516582400	67	4045
2026-01-08 12:51:22.84	326.25	18.83	-50.7	-52.3	14.2	0.00e+00	0	25	0	2539651072	67	4356
2026-01-08 12:51:26.88	326.65	18.38	-51.2	-52.9	13.9	0.00e+00	0	25	0	2562719744	67	4681
2026-01-08 12:51:30.91	327.04	17.94	-51.7	-53.5	13.7	0.00e+00	0	25	0	2584739840	68	4713
2026-01-08 12:51:34.95	327.42	17.50	-51.8	-53.6	13.8	0.00e+00	0	25	0	2607808512	69	4508
2026-01-08 12:51:38.98	327.79	17.07	-51.8	-53.5	13.8	0.00e+00	0	25	0	2629828608	69	4467
2026-01-08 12:51:43.01	328.15	16.64	-52.2	-54.0	13.6	0.00e+00	0	25	0	2652897280	70	4466
2026-01-08 12:51:47.04	328.50	16.22	-52.0	-53.8	13.6	0.00e+00	0	25	0	2675965952	69	4623
2026-01-08 12:51:51.06	328.84	15.81	-52.4	-54.3	13.3	0.00e+00	0	25	0	2697986048	70	4646
2026-01-08 12:51:55.10	329.17	15.40	-52.9	-55.0	13.1	0.00e+00	0	25	0	2721054720	71	4717
2026-01-08 12:51:59.32	329.51	14.99	-52.1	-53.9	13.6	0.00e+00	0	25	0	2744123392	70	4406
2026-01-08 12:52:03.36	329.83	14.59	-52.2	-54.0	13.5	0.00e+00	0	25	0	2766143488	70	4470
2026-01-08 12:52:07.39	330.14	14.20	-52.6	-54.6	13.1	0.00e+00	0	25	0	2789212160	70	4801
2026-01-08 12:52:11.43	330.44	13.82	-52.9	-54.9	13.0	0.00e+00	0	25	0	2811232256	71	4690
2026-01-08 12:52:15.46	330.73	13.44	-53.4	-55.6	12.6	0.00e+00	0	25	0	2834300928	72	4791
2026-01-08 12:52:19.50	331.02	13.07	-53.1	-55.2	12.9	0.00e+00	0	25	0	2857369600	72	4591
2026-01-08 12:52:23.53	331.30	12.70	-52.9	-55.0	13.0	0.00e+00	0	25	0	2879389696	72	4466
2026-01-08 12:52:27.56	331.57	12.34	-53.2	-55.4	12.6	0.00e+00	0	25	0	2902458368	71	4933
2026-01-08 12:52:31.60	331.84	11.98	-53.0	-55.2	12.7	0.00e+00	0	25	0	2925527040	71	4839
2026-01-08 12:52:35.61	332.10	11.63	-53.0	-55.1	12.8	1.10e-06	0	25	0	2947547136	71	4802
2026-01-08 12:52:39.66	332.35	11.28	-53.0	-55.2	12.7	0.00e+00	0	25	0	2970615808	71	4867
2026-01-08 12:52:43.69	332.60	10.93	-53.2	-55.5	12.5	0.00e+00	0	25	0	2992635904	71	4995
2026-01-08 12:52:47.73	332.85	10.59	-53.4	-55.8	12.4	2.20e-06	0	25	0	3015704576	72	4912
2026-01-08 12:52:51.76	333.09	10.26	-53.1	-55.4	12.7	1.10e-06	0	25	0	3038773248	72	4660
2026-01-08 12:52:55.79	333.32	9.92	-53.5	-55.9	12.3	0.00e+00	0	25	0	3060793344	72	4939
2026-01-08 12:52:59.83	333.55	9.60	-53.0	-55.1	12.8	0.00e+00	0	25	0	3083862016	72	4541
2026-01-08 12:53:03.86	333.78	9.27	-53.4	-55.8	12.3	0.00e+00	0	25	0	3106930688	72	4882
2026-01-08 12:53:07.89	334.00	8.95	-53.3	-55.7	12.3	0.00e+00	0	25	0	3128950784	72	4868
2026-01-08 12:53:11.92	334.22	8.64	-52.9	-55.1	12.8	0.00e+00	0	25	0	3152019456	72	4534
2026-01-08 12:53:15.96	334.43	8.32	-52.9	-55.0	12.8	0.00e+00	0	25	0	3174039552	72	4490
2026-01-08 12:53:19.99	334.64	8.02	-53.0	-55.2	12.6	2.20e-06	0	25	0	3197108224	72	4592
2026-01-08 12:53:24.02	334.84	7.71	-52.7	-54.9	12.9	0.00e+00	0	25	0	3220176896	72	4395
2026-01-08 12:53:28.05	335.04	7.41	-53.0	-55.3	12.6	0.00e+00	0	25	0	3242196992	72	4599
2026-01-08 12:53:32.09	335.24	7.11	-53.0	-55.3	12.5	0.00e+00	0	25	0	3265265664	72	4610
2026-01-08 12:53:36.13	335.43	6.81	-53.8	-56.5	11.6	5.70e-06	0	25	0	3288334336	72	5328
2026-01-08 12:53:40.17	335.62	6.52	-53.7	-56.4	11.7	1.71e-05	0	25	0	3311403008	72	5243
2026-01-08 12:53:44.20	335.81	6.23	-53.3	-55.8	12.2	5.70e-06	0	25	0	3333423104	73	4631
2026-01-08 12:53:48.24	335.99	5.94	-53.1	-55.6	12.3	1.02e-05	0	25	0	3356491776	72	4765
2026-01-08 12:53:52.27	336.17	5.66	-53.2	-55.8	12.1	4.50e-06	0	25	0	3378511872	72	4881
2026-01-08 12:53:56.31	336.35	5.38	-53.2	-55.7	12.1	9.10e-06	0	25	0	3401580544	72	4848
2026-01-08 12:54:00.35	336.52	5.10	-53.6	-56.4	11.6	8.00e-06	0	25	0	3424649216	72	5224
2026-01-08 12:54:04.39	336.69	4.83	-59.0	-72.1	3.8	8.45e-01	0	25	104	3434086400	83	16992
2026-01-08 12:54:08.43	336.86	4.55	-60.0	-73.1	3.8	8.46e-01	0	25	104	3434086400	85	16923
2026-01-08 12:54:12.46	337.03	4.28	-60.2	-73.3	3.8	8.46e-01	0	25	104	3434086400	85	17466
2026-01-08 12:54:16.50	337.19	4.02	-60.3	-73.5	3.8	8.46e-01	0	25	104	3434086400	85	17691
2026-01-08 12:54:20.53	337.35	3.75	-60.4	-73.5	3.8	8.44e-01	0	25	104	3434086400	85	17758
2026-01-08 12:54:24.56	337.51	3.49	-60.4	-73.5	3.8	8.45e-01	0	25	104	3434086400	85	17807
2026-01-08 12:54:28.59	337.66	3.23	-60.3	-73.4	3.8	8.46e-01	0	25	104	3434086400	85	17548
2026-01-08 12:54:32.62	337.81	2.97	-60.2	-73.3	3.8	8.44e-01	0	25	104	3434086400	85	17474
2026-01-08 12:54:36.66	337.96	2.72	-60.1	-73.3	3.8	8.45e-01	0	25	104	3434086400	85	17302
2026-01-08 12:54:40.70	338.11	2.46	-60.1	-73.2	3.8	8.46e-01	0	25	104	3434086400	85	17203
2026-01-08 12:54:44.73	338.26	2.21	-60.1	-73.2	3.8	8.44e-01	0	25	104	3434086400	85	17124
2026-01-08 12:54:48.77	338.40	1.96	-60.0	-73.2	3.8	8.45e-01	0	25	104	3434086400	85	17090

#Closed at: 2026-01-08 12:54:50
#Recorded file [3434 MB]: D:/lorett/data/31004_260108_154034.dat