passes_logs/2026/01/08/R3.2S_Murmansk/R3.2S_Murmansk__20260108_120245_NOAA_20_JPSS-1_rec.log

#Pass ID: 20260108_120245_NOAA 20 (JPSS-1)
#Satellite: NOAA 20 (JPSS-1)
#Configuration: NOAA 20
#almurnet v.1.7.20251203
#Start time: 2026-01-08 12:02:47

#Version: 2.2.20231116
#Station: R3.2S_Murmansk
#Location: 33.079688 lon 68.888172 lat
#TLE: 1 43013U 17073A   26007.92906311  .00000097  00000+0  67117-4 0  9996
#TLE: 2 43013  98.7630 308.9434 0001752  49.5597 310.5732 14.19534161421734

#Time	Az	El	Level	Level2	SNR	BER	BlckErr	Temp	State	Recorded	gain1	gain2
2026-01-08 12:02:47.94	215.89	2.11	-57.9	-73.9	3.8	1.49e+00	0	22	0	0	82	22018
2026-01-08 12:02:51.98	216.19	2.33	-57.8	-73.8	3.8	1.49e+00	0	23	104	0	80	24525
2026-01-08 12:02:56.02	216.50	2.55	-57.8	-73.7	3.8	1.49e+00	0	23	104	0	80	24347
2026-01-08 12:03:00.05	216.81	2.77	-57.8	-73.8	3.8	1.49e+00	0	23	104	0	80	24597
2026-01-08 12:03:04.09	217.13	2.99	-57.8	-73.7	3.8	1.49e+00	0	23	104	0	80	24321
2026-01-08 12:03:08.12	217.45	3.22	-57.8	-73.8	3.8	1.49e+00	0	23	104	0	80	24485
2026-01-08 12:03:12.15	217.77	3.44	-57.8	-73.8	3.8	1.49e+00	0	23	104	0	80	24469
2026-01-08 12:03:16.19	218.10	3.67	-57.8	-73.6	3.8	1.49e+00	0	23	104	0	80	23907
2026-01-08 12:03:20.22	218.44	3.90	-57.8	-73.4	3.8	1.49e+00	0	23	104	0	80	23313
2026-01-08 12:03:24.25	218.78	4.12	-57.8	-73.2	3.8	1.49e+00	0	23	104	0	80	22818
2026-01-08 12:03:28.28	219.12	4.35	-57.8	-73.5	3.8	1.49e+00	0	23	104	0	80	23663
2026-01-08 12:03:32.32	219.47	4.58	-57.7	-70.7	4.1	1.45e+00	0	24	0	0	80	17233
2026-01-08 12:03:36.35	219.83	4.81	-57.6	-68.9	4.6	1.27e+00	0	24	0	0	80	13950
2026-01-08 12:03:40.37	220.19	5.05	-56.9	-64.0	8.0	5.91e-02	0	24	0	7340032	80	7933
2026-01-08 12:03:44.41	220.55	5.28	-55.9	-60.5	10.9	3.59e-02	0	24	0	11534336	78	5982
2026-01-08 12:03:48.44	220.93	5.52	-53.8	-56.6	13.4	0.00e+00	0	24	0	18874368	73	5060
2026-01-08 12:03:52.47	221.30	5.75	-53.9	-56.7	13.3	0.00e+00	0	24	0	26214400	73	5151
2026-01-08 12:03:56.50	221.69	5.99	-53.5	-56.2	13.7	0.00e+00	0	24	0	34603008	73	4828
2026-01-08 12:04:00.53	222.07	6.23	-53.5	-56.2	13.7	0.00e+00	0	24	0	41943040	73	4822
2026-01-08 12:04:04.55	222.47	6.47	-53.5	-56.0	13.9	0.00e+00	0	24	0	49283072	73	4747
2026-01-08 12:04:08.58	222.87	6.71	-53.4	-55.9	13.9	0.00e+00	0	24	0	56623104	73	4702
2026-01-08 12:04:12.60	223.28	6.95	-53.3	-55.8	14.0	0.00e+00	0	24	0	65011712	73	4639
2026-01-08 12:04:16.63	223.69	7.19	-53.4	-55.9	14.0	0.00e+00	0	24	0	72351744	73	4700
2026-01-08 12:04:20.66	224.11	7.43	-53.6	-56.1	13.8	0.00e+00	0	24	0	79691776	73	4807
2026-01-08 12:04:24.69	224.54	7.68	-53.4	-55.9	13.9	0.00e+00	0	24	0	87031808	73	4702
2026-01-08 12:04:28.71	224.98	7.92	-53.5	-56.0	14.0	0.00e+00	0	24	0	94371840	73	4720
2026-01-08 12:04:32.75	225.42	8.17	-53.4	-55.8	14.1	0.00e+00	0	24	0	102760448	73	4617
2026-01-08 12:04:36.77	225.87	8.42	-53.3	-55.7	14.2	0.00e+00	0	24	0	110100480	73	4547
2026-01-08 12:04:40.81	226.32	8.66	-53.1	-55.4	14.2	0.00e+00	0	24	0	117440512	72	4685
2026-01-08 12:04:44.84	226.79	8.91	-53.1	-55.5	14.1	0.00e+00	0	24	0	124780544	72	4725
2026-01-08 12:04:48.88	227.26	9.16	-53.0	-55.2	14.3	0.00e+00	0	24	0	132120576	72	4591
2026-01-08 12:04:52.91	227.74	9.42	-52.8	-55.0	14.4	0.00e+00	0	24	0	140509184	72	4450
2026-01-08 12:04:56.94	228.23	9.67	-52.7	-54.8	14.5	0.00e+00	0	24	0	147849216	72	4391
2026-01-08 12:05:00.98	228.73	9.92	-52.7	-54.8	14.4	0.00e+00	0	24	0	155189248	71	4651
2026-01-08 12:05:05.01	229.23	10.17	-52.7	-54.9	14.3	0.00e+00	0	24	0	162529280	71	4671
2026-01-08 12:05:09.04	229.74	10.43	-52.7	-54.9	14.4	0.00e+00	0	24	0	169869312	71	4653
2026-01-08 12:05:13.08	230.26	10.68	-52.6	-54.7	14.5	0.00e+00	0	24	0	178257920	71	4566
2026-01-08 12:05:17.12	230.80	10.94	-52.6	-54.7	14.5	0.00e+00	0	24	0	185597952	71	4581
2026-01-08 12:05:21.13	231.33	11.19	-52.6	-54.7	14.5	0.00e+00	0	24	0	192937984	71	4556
2026-01-08 12:05:25.17	231.88	11.45	-52.4	-54.4	14.6	0.00e+00	0	24	0	200278016	71	4416
2026-01-08 12:05:29.20	232.44	11.71	-52.3	-54.3	14.7	0.00e+00	0	24	0	207618048	71	4372
2026-01-08 12:05:33.23	233.01	11.96	-52.3	-54.3	14.7	0.00e+00	0	24	0	216006656	71	4368
2026-01-08 12:05:37.27	233.58	12.22	-52.2	-54.2	14.8	0.00e+00	0	24	0	223346688	71	4310
2026-01-08 12:05:41.29	234.17	12.48	-52.3	-54.3	14.7	0.00e+00	0	24	0	230686720	71	4349
2026-01-08 12:05:45.33	234.77	12.73	-52.3	-54.3	14.7	0.00e+00	0	24	0	238026752	71	4355
2026-01-08 12:05:49.37	235.37	12.99	-52.3	-54.2	14.7	0.00e+00	0	24	0	246415360	71	4332
2026-01-08 12:05:53.40	235.99	13.25	-52.3	-54.3	14.6	0.00e+00	0	24	0	253755392	70	4601
2026-01-08 12:05:57.43	236.62	13.50	-52.2	-54.2	14.6	0.00e+00	0	24	0	261095424	70	4564
2026-01-08 12:06:01.47	237.26	13.76	-52.2	-54.1	14.6	0.00e+00	0	24	0	268435456	70	4531
2026-01-08 12:06:05.50	237.91	14.01	-52.0	-53.9	14.7	0.00e+00	0	24	0	275775488	70	4431
2026-01-08 12:06:09.52	238.56	14.27	-52.2	-54.1	14.6	0.00e+00	0	24	0	284164096	70	4519
2026-01-08 12:06:13.55	239.23	14.52	-52.3	-54.2	14.6	0.00e+00	0	24	0	291504128	70	4587
2026-01-08 12:06:17.58	239.91	14.77	-52.3	-54.2	14.6	0.00e+00	0	24	0	298844160	70	4578
2026-01-08 12:06:21.61	240.61	15.02	-52.3	-54.2	14.6	0.00e+00	0	24	0	306184192	70	4587
2026-01-08 12:06:25.64	241.31	15.27	-52.1	-54.0	14.7	0.00e+00	0	25	0	313524224	70	4470
2026-01-08 12:06:29.67	242.03	15.52	-52.1	-54.0	14.7	0.00e+00	0	24	0	321912832	70	4473
2026-01-08 12:06:33.71	242.75	15.77	-51.9	-53.7	14.9	0.00e+00	0	24	0	329252864	70	4304
2026-01-08 12:06:37.73	243.49	16.01	-51.6	-53.3	14.8	0.00e+00	0	24	0	336592896	69	4387
2026-01-08 12:06:41.76	244.24	16.25	-51.3	-53.0	15.0	0.00e+00	0	24	0	343932928	69	4228
2026-01-08 12:06:45.78	245.00	16.49	-51.3	-52.9	15.1	0.00e+00	0	25	0	351272960	69	4178
2026-01-08 12:06:49.81	245.77	16.73	-51.1	-52.8	15.0	0.00e+00	0	24	0	359661568	68	4354
2026-01-08 12:06:53.85	246.56	16.97	-51.2	-52.9	15.0	0.00e+00	0	24	0	367001600	68	4395
2026-01-08 12:06:57.89	247.36	17.20	-51.1	-52.8	15.0	0.00e+00	0	25	0	374341632	68	4341
2026-01-08 12:07:01.92	248.17	17.43	-51.3	-53.0	14.9	0.00e+00	0	25	0	381681664	68	4467
2026-01-08 12:07:05.95	248.99	17.65	-51.7	-53.5	14.7	0.00e+00	0	24	0	389021696	68	4711
2026-01-08 12:07:09.99	249.83	17.88	-51.8	-53.5	14.7	0.00e+00	0	24	0	397410304	68	4755
2026-01-08 12:07:14.01	250.67	18.09	-51.8	-53.6	14.6	0.00e+00	0	24	0	404750336	68	4774
2026-01-08 12:07:18.04	251.53	18.31	-52.1	-53.9	14.6	0.00e+00	0	25	0	412090368	69	4701
2026-01-08 12:07:22.08	252.40	18.52	-52.4	-54.4	14.5	0.00e+00	0	25	0	419430400	70	4655
2026-01-08 12:07:26.11	253.28	18.72	-52.8	-54.8	14.3	0.00e+00	0	24	0	427819008	70	4910
2026-01-08 12:07:30.14	254.17	18.92	-53.0	-55.2	14.2	0.00e+00	0	25	0	435159040	71	4821
2026-01-08 12:07:34.18	255.07	19.11	-53.2	-55.3	14.2	0.00e+00	0	24	0	442499072	71	4925
2026-01-08 12:07:38.20	255.98	19.30	-53.3	-55.6	14.1	0.00e+00	0	25	0	449839104	71	5044
2026-01-08 12:07:42.23	256.91	19.48	-53.2	-55.4	14.2	0.00e+00	0	25	0	457179136	71	4946
2026-01-08 12:07:46.27	257.84	19.66	-52.8	-54.8	14.5	0.00e+00	0	25	0	465567744	71	4627
2026-01-08 12:07:50.31	258.79	19.83	-52.9	-55.0	14.4	0.00e+00	0	25	0	472907776	71	4716
2026-01-08 12:07:54.34	259.75	20.00	-52.8	-54.8	14.4	0.00e+00	0	25	0	480247808	71	4642
2026-01-08 12:07:58.37	260.71	20.15	-52.6	-54.6	14.6	0.00e+00	0	24	0	487587840	71	4543
2026-01-08 12:08:02.40	261.69	20.30	-52.7	-54.7	14.6	0.00e+00	0	24	0	494927872	71	4551
2026-01-08 12:08:06.42	262.67	20.44	-52.8	-54.9	14.4	0.00e+00	0	25	0	503316480	71	4670
2026-01-08 12:08:10.45	263.66	20.58	-52.4	-54.3	14.7	0.00e+00	0	25	0	510656512	71	4380
2026-01-08 12:08:14.48	264.66	20.71	-52.1	-53.9	14.8	0.00e+00	0	25	0	517996544	70	4412
2026-01-08 12:08:18.52	265.67	20.82	-52.3	-54.2	14.6	0.00e+00	0	24	0	525336576	70	4569
2026-01-08 12:08:22.56	266.69	20.93	-52.0	-53.8	14.8	0.00e+00	0	24	0	532676608	70	4387
2026-01-08 12:08:26.57	267.70	21.04	-52.0	-53.8	14.9	0.00e+00	0	25	0	541065216	70	4343
2026-01-08 12:08:30.58	268.73	21.13	-52.1	-53.9	14.8	0.00e+00	0	24	0	548405248	70	4403
2026-01-08 12:08:34.61	269.76	21.21	-52.1	-54.0	14.8	0.00e+00	0	25	0	555745280	70	4460
2026-01-08 12:08:38.65	270.80	21.29	-52.5	-54.4	14.6	0.00e+00	0	24	0	563085312	70	4683
2026-01-08 12:08:42.68	271.85	21.35	-52.8	-54.9	14.3	0.00e+00	0	25	0	570425344	70	4949
2026-01-08 12:08:46.71	272.89	21.41	-52.6	-54.6	14.5	0.00e+00	0	25	0	578813952	70	4772
2026-01-08 12:08:50.74	273.94	21.46	-52.2	-54.1	14.7	0.00e+00	0	24	0	586153984	70	4505
2026-01-08 12:08:54.76	275.00	21.49	-52.8	-54.9	14.3	0.00e+00	0	25	0	593494016	70	4941
2026-01-08 12:08:58.79	276.05	21.52	-52.9	-54.9	14.5	0.00e+00	0	25	0	600834048	71	4670
2026-01-08 12:09:02.83	277.11	21.54	-52.7	-54.7	14.6	0.00e+00	0	25	0	608174080	71	4579
2026-01-08 12:09:06.86	278.17	21.55	-52.9	-55.0	14.4	0.00e+00	0	25	0	616562688	71	4730
2026-01-08 12:09:10.90	279.23	21.54	-52.8	-54.8	14.5	0.00e+00	0	25	0	623902720	71	4638
2026-01-08 12:09:14.94	280.29	21.53	-52.1	-53.9	14.8	0.00e+00	0	25	0	631242752	70	4419
2026-01-08 12:09:18.97	281.34	21.51	-52.3	-54.2	14.7	0.00e+00	0	25	0	638582784	70	4572
2026-01-08 12:09:22.99	282.40	21.48	-52.7	-54.7	14.4	0.00e+00	0	25	0	646971392	70	4846
2026-01-08 12:09:27.02	283.45	21.44	-52.9	-54.9	14.4	0.00e+00	0	25	0	654311424	71	4701
2026-01-08 12:09:31.05	284.50	21.39	-52.9	-55.0	14.4	0.00e+00	0	25	0	661651456	71	4714
2026-01-08 12:09:35.08	285.54	21.33	-52.8	-54.8	14.5	0.00e+00	0	24	0	668991488	71	4616
2026-01-08 12:09:39.11	286.58	21.26	-52.9	-55.0	14.4	0.00e+00	0	25	0	676331520	71	4713
2026-01-08 12:09:43.14	287.62	21.18	-52.6	-54.5	14.7	0.00e+00	0	25	0	684720128	71	4442
2026-01-08 12:09:47.17	288.65	21.09	-52.6	-54.4	14.7	0.00e+00	0	25	0	692060160	71	4440
2026-01-08 12:09:51.20	289.67	21.00	-52.3	-54.2	14.9	0.00e+00	0	25	0	699400192	71	4307
2026-01-08 12:09:55.24	290.69	20.89	-52.1	-53.9	14.8	0.00e+00	0	25	0	706740224	70	4431
2026-01-08 12:09:59.27	291.70	20.78	-51.9	-53.6	15.0	0.00e+00	0	25	0	714080256	70	4273
2026-01-08 12:10:03.31	292.71	20.66	-52.2	-54.1	14.8	0.00e+00	0	25	0	722468864	70	4496
2026-01-08 12:10:07.34	293.70	20.53	-52.0	-53.8	14.9	0.00e+00	0	25	0	729808896	70	4364
2026-01-08 12:10:11.38	294.69	20.39	-51.6	-53.3	15.0	0.00e+00	0	25	0	737148928	69	4342
2026-01-08 12:10:15.41	295.67	20.25	-50.8	-52.4	15.3	0.00e+00	0	24	0	744488960	68	4149
2026-01-08 12:10:19.44	296.64	20.10	-51.2	-52.8	15.0	0.00e+00	0	25	0	751828992	68	4389
2026-01-08 12:10:23.48	297.60	19.94	-51.4	-53.0	14.9	0.00e+00	0	25	0	760217600	68	4469
2026-01-08 12:10:27.50	298.54	19.77	-51.2	-52.9	15.0	0.00e+00	0	25	0	767557632	68	4395
2026-01-08 12:10:31.53	299.48	19.60	-50.9	-52.4	15.2	0.00e+00	0	25	0	774897664	68	4184
2026-01-08 12:10:35.57	300.41	19.42	-50.2	-51.7	15.4	0.00e+00	0	25	0	782237696	67	4055
2026-01-08 12:10:39.60	301.33	19.24	-50.5	-52.0	15.2	0.00e+00	0	25	0	790626304	67	4213
2026-01-08 12:10:43.62	302.23	19.05	-50.9	-52.4	15.0	0.00e+00	0	25	0	797966336	67	4441
2026-01-08 12:10:47.66	303.13	18.85	-51.0	-52.6	14.9	0.00e+00	0	25	0	805306368	67	4535
2026-01-08 12:10:51.69	304.01	18.65	-51.1	-52.8	14.9	0.00e+00	0	25	0	812646400	67	4631
2026-01-08 12:10:55.72	304.89	18.45	-51.2	-52.8	14.8	0.00e+00	0	25	0	819986432	67	4638
2026-01-08 12:10:59.75	305.75	18.24	-51.8	-53.6	14.7	0.00e+00	0	25	0	828375040	68	4776
2026-01-08 12:11:03.78	306.60	18.02	-52.2	-54.1	14.6	0.00e+00	0	25	0	835715072	69	4767
2026-01-08 12:11:07.81	307.43	17.81	-52.4	-54.3	14.5	0.00e+00	0	25	0	843055104	69	4897
2026-01-08 12:11:11.84	308.26	17.58	-52.5	-54.5	14.5	0.00e+00	0	25	0	850395136	70	4706
2026-01-08 12:11:15.87	309.07	17.36	-52.4	-54.4	14.5	0.00e+00	0	25	0	857735168	70	4663
2026-01-08 12:11:19.89	309.87	17.13	-52.3	-54.2	14.6	0.00e+00	0	25	0	866123776	70	4566
2026-01-08 12:11:23.92	310.66	16.90	-52.5	-54.4	14.5	0.00e+00	0	25	0	873463808	70	4685
2026-01-08 12:11:27.95	311.44	16.67	-52.5	-54.5	14.5	0.00e+00	0	25	0	880803840	70	4709
2026-01-08 12:11:31.98	312.21	16.43	-52.0	-53.9	14.8	0.00e+00	0	25	0	888143872	70	4401
2026-01-08 12:11:36.01	312.96	16.19	-51.9	-53.7	14.8	0.00e+00	0	25	0	895483904	70	4336
2026-01-08 12:11:40.04	313.71	15.95	-52.0	-53.8	14.8	0.00e+00	0	25	0	903872512	70	4357
2026-01-08 12:11:44.06	314.44	15.70	-52.5	-54.5	14.5	0.00e+00	0	24	0	911212544	70	4726
2026-01-08 12:11:48.08	315.15	15.46	-52.7	-54.8	14.5	0.00e+00	0	25	0	918552576	71	4614
2026-01-08 12:11:52.11	315.86	15.21	-52.0	-53.8	14.8	0.00e+00	0	25	0	925892608	70	4368
2026-01-08 12:11:56.15	316.56	14.96	-52.1	-54.0	14.7	0.00e+00	0	25	0	933232640	70	4462
2026-01-08 12:12:00.18	317.25	14.71	-52.1	-54.0	14.7	0.00e+00	0	25	0	941621248	70	4449
2026-01-08 12:12:04.21	317.92	14.46	-51.9	-53.8	14.8	0.00e+00	0	25	0	948961280	70	4348
2026-01-08 12:12:08.23	318.58	14.21	-52.1	-54.0	14.7	0.00e+00	0	25	0	956301312	70	4492
2026-01-08 12:12:12.27	319.24	13.96	-51.7	-53.5	15.0	0.00e+00	0	25	0	963641344	70	4213
2026-01-08 12:12:16.30	319.88	13.71	-51.9	-53.8	14.6	0.00e+00	0	25	0	970981376	69	4631
2026-01-08 12:12:20.33	320.51	13.45	-52.1	-54.0	14.5	0.00e+00	0	25	0	979369984	69	4759
2026-01-08 12:12:24.36	321.13	13.20	-51.6	-53.3	14.8	0.00e+00	0	25	0	986710016	69	4386
2026-01-08 12:12:28.39	321.74	12.94	-52.0	-53.9	14.6	0.00e+00	0	25	0	994050048	69	4671
2026-01-08 12:12:32.42	322.35	12.69	-52.3	-54.3	14.5	0.00e+00	0	25	0	1001390080	70	4633
2026-01-08 12:12:36.45	322.94	12.43	-52.1	-54.0	14.7	0.00e+00	0	25	0	1008730112	70	4456
2026-01-08 12:12:40.48	323.52	12.18	-52.4	-54.4	14.4	0.00e+00	0	25	0	1017118720	70	4672
2026-01-08 12:12:44.52	324.09	11.92	-52.5	-54.5	14.4	0.00e+00	0	25	0	1024458752	70	4752
2026-01-08 12:12:48.55	324.65	11.67	-52.2	-54.1	14.6	0.00e+00	0	25	0	1031798784	70	4526
2026-01-08 12:12:52.58	325.21	11.42	-52.2	-54.2	14.5	0.00e+00	0	25	0	1039138816	70	4578
2026-01-08 12:12:56.61	325.75	11.16	-52.7	-54.8	14.2	0.00e+00	0	25	0	1046478848	70	4901
2026-01-08 12:13:00.64	326.28	10.91	-52.7	-54.8	14.2	0.00e+00	0	25	0	1054867456	70	4919
2026-01-08 12:13:04.67	326.81	10.66	-52.5	-54.6	14.3	0.00e+00	0	25	0	1062207488	70	4763
2026-01-08 12:13:08.68	327.32	10.41	-52.7	-54.9	14.1	0.00e+00	0	25	0	1069547520	70	4960
2026-01-08 12:13:12.72	327.83	10.15	-52.8	-55.0	14.1	0.00e+00	0	25	0	1076887552	70	4992
2026-01-08 12:13:16.75	328.33	9.90	-52.8	-55.1	14.0	0.00e+00	0	25	0	1085276160	70	5051
2026-01-08 12:13:20.77	328.83	9.65	-53.1	-55.4	14.0	0.00e+00	0	25	0	1092616192	71	4956
2026-01-08 12:13:24.81	329.31	9.40	-53.4	-56.0	13.8	0.00e+00	0	25	0	1099956224	72	4990
2026-01-08 12:13:28.84	329.79	9.15	-53.3	-55.8	13.9	0.00e+00	0	25	0	1107296256	72	4873
2026-01-08 12:13:32.87	330.26	8.91	-52.8	-55.1	14.3	0.00e+00	0	25	0	1114636288	72	4504
2026-01-08 12:13:36.90	330.72	8.66	-53.0	-55.3	14.2	0.00e+00	0	24	0	1123024896	72	4599
2026-01-08 12:13:40.94	331.17	8.41	-53.0	-55.4	14.1	0.00e+00	0	25	0	1130364928	72	4662
2026-01-08 12:13:44.97	331.62	8.17	-53.3	-55.7	13.8	0.00e+00	0	25	0	1137704960	72	4851
2026-01-08 12:13:49.01	332.06	7.92	-53.4	-55.9	13.7	0.00e+00	0	25	0	1145044992	72	4944
2026-01-08 12:13:53.04	332.49	7.68	-53.7	-56.4	13.4	0.00e+00	0	25	0	1152385024	72	5248
2026-01-08 12:13:57.07	332.92	7.44	-53.8	-56.6	13.3	0.00e+00	0	25	0	1160773632	72	5364
2026-01-08 12:14:01.11	333.34	7.19	-53.5	-56.1	13.5	0.00e+00	0	25	0	1168113664	72	5092
2026-01-08 12:14:05.13	333.75	6.95	-53.5	-56.2	13.6	0.00e+00	0	25	0	1175453696	72	5111
2026-01-08 12:14:09.16	334.15	6.72	-53.8	-56.6	13.2	0.00e+00	0	25	0	1182793728	72	5400
2026-01-08 12:14:13.18	334.55	6.48	-53.9	-56.9	13.1	0.00e+00	0	25	0	1190133760	73	5248
2026-01-08 12:14:17.21	334.95	6.24	-54.1	-57.2	12.9	0.00e+00	0	25	0	1198522368	73	5438
2026-01-08 12:14:21.24	335.33	6.01	-54.2	-57.4	12.8	0.00e+00	0	24	0	1205862400	73	5550
2026-01-08 12:14:25.28	335.72	5.77	-54.5	-58.0	12.5	0.00e+00	0	25	0	1213202432	74	5596
2026-01-08 12:14:29.31	336.09	5.54	-54.3	-57.6	12.7	0.00e+00	0	25	0	1220542464	74	5379
2026-01-08 12:14:33.34	336.46	5.30	-54.5	-58.1	12.4	7.00e-07	0	25	0	1227882496	74	5696
2026-01-08 12:14:37.38	336.83	5.07	-54.4	-57.8	12.6	0.00e+00	0	25	0	1236271104	74	5521
2026-01-08 12:14:41.41	337.19	4.84	-59.0	-75.1	3.8	1.49e+00	0	25	104	1239416832	83	23964
2026-01-08 12:14:45.45	337.54	4.61	-59.9	-76.1	3.8	1.49e+00	0	25	104	1239416832	85	24107
2026-01-08 12:14:49.48	337.89	4.38	-60.2	-76.3	3.8	1.49e+00	0	25	104	1239416832	85	24548
2026-01-08 12:14:53.52	338.24	4.16	-60.3	-76.4	3.8	1.49e+00	0	25	104	1239416832	85	24875
2026-01-08 12:14:57.55	338.57	3.93	-60.4	-76.5	3.8	1.49e+00	0	25	104	1239416832	85	25035
2026-01-08 12:15:01.58	338.91	3.71	-60.3	-76.4	3.8	1.49e+00	0	25	104	1239416832	85	24933
2026-01-08 12:15:05.61	339.24	3.48	-60.2	-76.4	3.8	1.49e+00	0	25	104	1239416832	85	24700
2026-01-08 12:15:09.64	339.56	3.26	-60.2	-76.3	3.8	1.49e+00	0	25	104	1239416832	85	24594
2026-01-08 12:15:13.68	339.88	3.04	-60.2	-76.3	3.8	1.49e+00	0	25	104	1239416832	85	24460
2026-01-08 12:15:17.72	340.20	2.82	-60.1	-76.2	3.8	1.49e+00	0	25	104	1239416832	85	24380
2026-01-08 12:15:21.75	340.51	2.60	-60.1	-76.2	3.8	1.49e+00	0	25	104	1239416832	85	24277
2026-01-08 12:15:25.79	340.82	2.38	-60.1	-76.2	3.8	1.49e+00	0	25	104	1239416832	85	24202
2026-01-08 12:15:29.83	341.12	2.16	-60.1	-76.2	3.8	1.49e+00	0	25	104	1239416832	85	24163
2026-01-08 12:15:33.86	341.42	1.94	-60.0	-76.1	3.8	1.49e+00	0	25	104	1239416832	85	24065

#Closed at: 2026-01-08 12:15:35
#Recorded file [1239 MB]: D:/lorett/data/31004_260108_150247.dat