passes_logs/2026/01/08/R3.2S_Murmansk/R3.2S_Murmansk__20260108_050203_SUOMI_NPP_rec.log

#Pass ID: 20260108_050203_SUOMI NPP
#Satellite: SUOMI NPP
#Configuration: NPP
#almurnet v.1.7.20251203
#Start time: 2026-01-08 05:02:04

#Version: 2.2.20231116
#Station: R3.2S_Murmansk
#Location: 33.079688 lon 68.888172 lat
#TLE: 1 37849U 11061A   26005.94084933  .00000134  00000+0  84554-4 0  9990
#TLE: 2 37849  98.7803 308.0679 0002567  79.1029 281.0436 14.19522657735426

#Time	Az	El	Level	Level2	SNR	BER	BlckErr	Temp	State	Recorded	gain1	gain2
2026-01-08 05:02:04.32	59.20	2.04	-57.4	-73.4	3.8	1.49e+00	0	23	0	0	81	22093
2026-01-08 05:02:08.33	58.95	2.26	-57.3	-73.4	3.8	1.49e+00	0	23	104	0	79	24702
2026-01-08 05:02:12.32	58.68	2.49	-57.3	-73.3	3.8	1.49e+00	0	23	104	0	79	24635
2026-01-08 05:02:16.32	58.42	2.72	-57.3	-73.3	3.8	1.49e+00	0	23	104	0	79	24643
2026-01-08 05:02:20.33	58.15	2.95	-57.4	-73.3	3.8	1.49e+00	0	23	104	0	79	24638
2026-01-08 05:02:24.33	57.87	3.19	-57.3	-73.3	3.8	1.49e+00	0	23	104	0	79	24631
2026-01-08 05:02:28.33	57.59	3.42	-57.3	-73.3	3.8	1.49e+00	0	23	104	0	79	24656
2026-01-08 05:02:32.31	57.31	3.65	-57.3	-73.3	3.8	1.49e+00	0	23	104	0	79	24554
2026-01-08 05:02:36.31	57.02	3.89	-57.4	-73.3	3.8	1.49e+00	0	23	104	0	79	24679
2026-01-08 05:02:40.29	56.73	4.13	-57.3	-73.3	3.8	1.49e+00	0	23	104	0	79	24480
2026-01-08 05:02:44.29	56.43	4.37	-57.3	-73.0	3.8	1.49e+00	0	23	104	0	79	23758
2026-01-08 05:02:48.29	56.13	4.61	-57.2	-70.6	4.0	1.48e+00	0	24	0	0	79	18074
2026-01-08 05:02:52.30	55.82	4.85	-57.0	-67.3	5.2	6.43e-01	0	24	0	4194304	79	12366
2026-01-08 05:02:56.29	55.50	5.09	-56.6	-64.8	6.9	2.01e-01	0	24	0	11534336	79	9188
2026-01-08 05:03:00.27	55.18	5.33	-54.4	-58.4	12.0	1.09e-04	0	24	0	16777216	75	5583
2026-01-08 05:03:04.28	54.86	5.58	-54.0	-57.7	12.4	3.43e-05	0	24	0	24117248	74	5428
2026-01-08 05:03:08.28	54.53	5.83	-53.2	-56.3	13.2	3.89e-05	0	24	0	31457280	72	5173
2026-01-08 05:03:12.28	54.19	6.08	-53.3	-56.5	13.1	2.68e-04	0	24	0	38797312	72	5303
2026-01-08 05:03:16.29	53.84	6.33	-53.5	-56.7	12.9	0.00e+00	0	24	0	46137344	72	5455
2026-01-08 05:03:20.29	53.49	6.58	-52.1	-57.0	12.4	1.12e-02	0	24	0	54525952	70	6314
2026-01-08 05:03:24.29	53.14	6.83	-52.1	-57.1	12.4	1.12e-02	0	24	0	61865984	70	6376
2026-01-08 05:03:28.29	52.77	7.09	-52.1	-56.9	12.4	1.15e-02	0	24	0	69206016	70	6238
2026-01-08 05:03:32.28	52.41	7.34	-53.5	-56.9	12.9	0.00e+00	0	24	0	76546048	72	5579
2026-01-08 05:03:36.26	52.03	7.60	-53.0	-56.2	13.2	3.34e-03	0	24	0	83886080	72	5145
2026-01-08 05:03:40.25	51.65	7.86	-53.0	-56.1	13.4	5.48e-04	0	24	0	91226112	72	5097
2026-01-08 05:03:44.24	51.26	8.12	-53.0	-56.2	13.4	2.75e-04	0	24	0	98566144	72	5101
2026-01-08 05:03:48.25	50.86	8.38	-52.9	-55.8	13.7	0.00e+00	0	24	0	106954752	72	4899
2026-01-08 05:03:52.23	50.46	8.64	-52.7	-55.5	13.8	0.00e+00	0	24	0	114294784	72	4731
2026-01-08 05:03:56.23	50.05	8.90	-52.7	-55.4	13.9	0.00e+00	0	24	0	121634816	71	4952
2026-01-08 05:04:00.23	49.63	9.17	-53.0	-55.9	13.5	0.00e+00	0	24	0	128974848	71	5260
2026-01-08 05:04:04.23	49.20	9.44	-53.0	-55.8	13.6	0.00e+00	0	24	0	136314880	71	5198
2026-01-08 05:04:08.23	48.76	9.70	-53.2	-56.1	13.4	0.00e+00	0	24	0	143654912	71	5389
2026-01-08 05:04:12.21	48.32	9.97	-53.6	-56.7	13.2	0.00e+00	0	24	0	150994944	72	5409
2026-01-08 05:04:16.21	47.86	10.24	-53.4	-56.3	13.4	0.00e+00	0	24	0	159383552	72	5214
2026-01-08 05:04:20.21	47.40	10.51	-52.9	-55.6	13.8	0.00e+00	0	24	0	166723584	72	4814
2026-01-08 05:04:24.20	46.93	10.79	-52.9	-55.6	13.9	0.00e+00	0	24	0	174063616	72	4802
2026-01-08 05:04:28.17	46.46	11.06	-52.8	-55.4	14.0	0.00e+00	0	24	0	181403648	72	4686
2026-01-08 05:04:32.15	45.97	11.33	-52.5	-55.0	14.1	0.00e+00	0	24	0	188743680	71	4734
2026-01-08 05:04:36.13	45.47	11.61	-52.5	-55.1	14.1	0.00e+00	0	24	0	196083712	71	4784
2026-01-08 05:04:40.12	44.97	11.88	-52.5	-55.0	14.1	0.00e+00	0	24	0	203423744	71	4746
2026-01-08 05:04:44.11	44.45	12.16	-52.1	-54.4	14.3	0.00e+00	0	24	0	210763776	70	4697
2026-01-08 05:04:48.11	43.92	12.44	-52.0	-54.4	14.4	0.00e+00	0	24	0	219152384	70	4666
2026-01-08 05:04:52.11	43.38	12.72	-52.0	-54.4	14.4	0.00e+00	0	25	0	226492416	70	4668
2026-01-08 05:04:56.09	42.83	13.00	-52.0	-54.3	14.4	0.00e+00	0	24	0	233832448	70	4637
2026-01-08 05:05:00.08	42.28	13.27	-52.0	-54.4	14.3	0.00e+00	0	24	0	241172480	70	4695
2026-01-08 05:05:04.09	41.70	13.56	-52.2	-54.7	14.2	0.00e+00	0	24	0	248512512	70	4866
2026-01-08 05:05:08.09	41.12	13.84	-52.3	-55.0	14.1	0.00e+00	0	24	0	255852544	70	4985
2026-01-08 05:05:12.08	40.53	14.12	-52.3	-55.0	14.1	0.00e+00	0	24	0	264241152	70	5015
2026-01-08 05:05:16.06	39.93	14.40	-52.3	-54.9	14.0	0.00e+00	0	24	0	271581184	70	4942
2026-01-08 05:05:20.07	39.31	14.68	-52.0	-54.4	14.3	0.00e+00	0	24	0	278921216	70	4700
2026-01-08 05:05:24.07	38.68	14.96	-52.2	-54.8	14.1	0.00e+00	0	24	0	286261248	70	4881
2026-01-08 05:05:28.07	38.04	15.24	-52.5	-55.2	13.8	0.00e+00	0	24	0	293601280	70	5146
2026-01-08 05:05:32.05	37.39	15.52	-52.3	-54.9	14.0	0.00e+00	0	24	0	300941312	70	4940
2026-01-08 05:05:36.04	36.73	15.80	-52.4	-55.0	14.0	0.00e+00	0	24	0	308281344	70	4990
2026-01-08 05:05:40.02	36.05	16.08	-52.5	-55.1	13.9	0.00e+00	0	24	0	315621376	70	5079
2026-01-08 05:05:44.01	35.36	16.35	-52.4	-55.0	14.0	0.00e+00	0	25	0	324009984	70	4993
2026-01-08 05:05:48.00	34.66	16.63	-52.2	-54.7	14.2	0.00e+00	0	24	0	331350016	70	4827
2026-01-08 05:05:51.99	33.94	16.90	-52.9	-55.8	13.6	0.00e+00	0	24	0	338690048	70	5467
2026-01-08 05:05:55.99	33.21	17.18	-52.3	-54.9	14.0	0.00e+00	0	24	0	346030080	70	4957
2026-01-08 05:05:59.99	32.47	17.45	-52.3	-54.8	14.2	0.00e+00	0	24	0	353370112	70	4878
2026-01-08 05:06:03.98	31.71	17.72	-51.7	-54.0	14.4	0.00e+00	0	25	0	360710144	69	4707
2026-01-08 05:06:07.98	30.94	17.99	-51.7	-54.1	14.4	0.00e+00	0	24	0	368050176	69	4782
2026-01-08 05:06:11.97	30.15	18.25	-51.3	-53.6	14.6	0.00e+00	0	24	0	376438784	69	4525
2026-01-08 05:06:15.96	29.36	18.51	-50.8	-52.9	14.9	0.00e+00	0	25	0	383778816	68	4398
2026-01-08 05:06:19.96	28.54	18.77	-51.0	-53.1	14.7	0.00e+00	0	24	0	391118848	68	4525
2026-01-08 05:06:23.96	27.72	19.02	-50.8	-52.8	14.9	0.00e+00	0	25	0	398458880	68	4389
2026-01-08 05:06:27.95	26.88	19.27	-50.5	-52.5	14.8	0.00e+00	0	24	0	405798912	67	4479
2026-01-08 05:06:31.95	26.02	19.52	-50.5	-52.5	14.8	0.00e+00	0	24	0	413138944	67	4469
2026-01-08 05:06:35.93	25.16	19.76	-50.8	-52.9	14.6	0.00e+00	0	24	0	420478976	67	4693
2026-01-08 05:06:39.91	24.28	20.00	-50.3	-52.3	15.0	0.00e+00	0	25	0	428867584	67	4352
2026-01-08 05:06:43.91	23.38	20.23	-50.2	-52.0	14.9	0.00e+00	0	24	0	436207616	66	4483
2026-01-08 05:06:47.88	22.47	20.46	-50.2	-52.1	14.9	0.00e+00	0	25	0	443547648	66	4531
2026-01-08 05:06:51.88	21.55	20.68	-50.1	-52.0	14.9	0.00e+00	0	25	0	450887680	66	4458
2026-01-08 05:06:55.89	20.61	20.90	-50.1	-51.9	14.9	0.00e+00	0	24	0	458227712	66	4420
2026-01-08 05:06:59.90	19.66	21.11	-50.0	-51.7	15.1	0.00e+00	0	24	0	465567744	66	4330
2026-01-08 05:07:03.90	18.69	21.31	-49.8	-51.5	15.2	0.00e+00	0	25	0	472907776	66	4224
2026-01-08 05:07:07.89	17.72	21.50	-49.9	-51.6	15.1	0.00e+00	0	24	0	481296384	66	4268
2026-01-08 05:07:11.90	16.73	21.69	-50.1	-51.8	15.0	0.00e+00	0	24	0	488636416	66	4382
2026-01-08 05:07:15.90	15.73	21.87	-50.1	-51.9	15.0	0.00e+00	0	24	0	495976448	66	4415
2026-01-08 05:07:19.90	14.71	22.04	-50.1	-51.9	15.0	0.00e+00	0	24	0	503316480	66	4407
2026-01-08 05:07:23.89	13.69	22.21	-49.8	-51.5	15.2	0.00e+00	0	24	0	510656512	66	4206
2026-01-08 05:07:27.89	12.66	22.36	-50.0	-51.6	15.1	0.00e+00	0	25	0	517996544	66	4286
2026-01-08 05:07:31.87	11.62	22.50	-50.7	-52.4	14.7	0.00e+00	0	24	0	525336576	66	4702
2026-01-08 05:07:35.85	10.57	22.64	-51.8	-53.9	14.4	0.00e+00	0	25	0	533725184	68	4967
2026-01-08 05:07:39.82	9.52	22.76	-52.1	-54.5	14.2	0.00e+00	0	24	0	541065216	69	5003
2026-01-08 05:07:43.81	8.45	22.88	-51.2	-53.2	14.9	0.00e+00	0	24	0	548405248	69	4320
2026-01-08 05:07:47.79	7.38	22.98	-51.3	-53.4	14.6	0.00e+00	0	25	0	555745280	68	4681
2026-01-08 05:07:51.78	6.30	23.08	-51.4	-53.5	14.6	0.00e+00	0	25	0	563085312	68	4738
2026-01-08 05:07:55.77	5.21	23.16	-51.3	-53.4	14.6	0.00e+00	0	25	0	570425344	68	4687
2026-01-08 05:07:59.76	4.11	23.23	-52.1	-54.5	14.2	0.00e+00	0	25	0	577765376	69	5016
2026-01-08 05:08:03.76	3.01	23.29	-51.7	-54.0	14.5	0.00e+00	0	25	0	585105408	69	4706
2026-01-08 05:08:07.76	1.91	23.34	-52.5	-55.1	14.0	0.00e+00	0	24	0	593494016	70	5050
2026-01-08 05:08:11.74	0.80	23.38	-52.6	-55.3	13.9	0.00e+00	0	25	0	600834048	70	5200
2026-01-08 05:08:15.74	359.69	23.41	-52.6	-55.3	13.9	0.00e+00	0	25	0	608174080	70	5169
2026-01-08 05:08:19.75	358.58	23.43	-50.9	-52.9	14.8	0.00e+00	0	25	0	615514112	68	4421
2026-01-08 05:08:23.74	357.47	23.43	-51.7	-54.1	14.2	0.00e+00	0	25	0	622854144	68	5068
2026-01-08 05:08:27.74	356.35	23.42	-51.1	-53.2	14.7	0.00e+00	0	25	0	630194176	68	4571
2026-01-08 05:08:31.74	355.24	23.40	-51.4	-53.6	14.5	0.00e+00	0	25	0	638582784	68	4763
2026-01-08 05:08:35.73	354.13	23.37	-50.8	-52.8	14.9	0.00e+00	0	25	0	645922816	68	4377
2026-01-08 05:08:39.71	353.03	23.33	-50.6	-52.5	14.9	0.00e+00	0	24	0	653262848	67	4453
2026-01-08 05:08:43.69	351.93	23.27	-50.8	-52.8	14.7	0.00e+00	0	25	0	660602880	67	4605
2026-01-08 05:08:47.69	350.83	23.21	-50.3	-52.0	14.9	0.00e+00	0	25	0	667942912	66	4491
2026-01-08 05:08:51.68	349.74	23.13	-50.3	-52.0	14.9	0.00e+00	0	25	0	675282944	66	4489
2026-01-08 05:08:55.66	348.66	23.05	-49.5	-51.1	15.1	0.00e+00	0	25	0	682622976	65	4271
2026-01-08 05:08:59.65	347.58	22.95	-49.9	-51.5	15.0	0.00e+00	0	25	0	689963008	65	4491
2026-01-08 05:09:03.65	346.50	22.84	-50.4	-52.1	14.9	0.00e+00	0	24	0	698351616	66	4527
2026-01-08 05:09:07.64	345.44	22.72	-50.1	-51.8	15.1	0.00e+00	0	25	0	705691648	66	4341
2026-01-08 05:09:11.63	344.38	22.59	-50.7	-52.5	14.7	0.00e+00	0	25	0	713031680	66	4742
2026-01-08 05:09:15.60	343.34	22.46	-50.8	-52.6	14.8	0.00e+00	0	25	0	720371712	67	4535
2026-01-08 05:09:19.60	342.30	22.31	-50.6	-52.3	14.9	0.00e+00	0	25	0	727711744	67	4382
2026-01-08 05:09:23.60	341.27	22.15	-50.9	-52.8	14.8	0.00e+00	0	25	0	735051776	67	4611
2026-01-08 05:09:27.59	340.25	21.98	-51.5	-53.5	14.6	0.00e+00	0	24	0	742391808	68	4738
2026-01-08 05:09:31.58	339.24	21.81	-52.1	-54.4	14.3	0.00e+00	0	25	0	750780416	69	4946
2026-01-08 05:09:35.56	338.25	21.63	-51.6	-53.8	14.5	0.00e+00	0	25	0	758120448	69	4623
2026-01-08 05:09:39.55	337.27	21.44	-51.5	-53.6	14.6	0.00e+00	0	25	0	765460480	69	4535
2026-01-08 05:09:43.52	336.31	21.24	-51.0	-53.0	14.8	0.00e+00	0	25	0	772800512	68	4471
2026-01-08 05:09:47.50	335.35	21.04	-51.0	-52.9	14.9	0.00e+00	0	25	0	780140544	68	4421
2026-01-08 05:09:51.49	334.41	20.83	-51.5	-53.7	14.5	0.00e+00	0	25	0	787480576	68	4849
2026-01-08 05:09:55.48	333.48	20.61	-52.2	-54.6	14.1	0.00e+00	0	24	0	794820608	69	5057
2026-01-08 05:09:59.49	332.55	20.39	-51.8	-54.2	14.4	0.00e+00	0	24	0	802160640	69	4824
2026-01-08 05:10:03.48	331.65	20.16	-53.2	-56.3	13.5	0.00e+00	0	25	0	810549248	71	5507
2026-01-08 05:10:07.48	330.76	19.92	-52.3	-54.8	14.3	0.00e+00	0	25	0	817889280	71	4634
2026-01-08 05:10:11.48	329.88	19.69	-51.4	-53.5	14.7	0.00e+00	0	25	0	825229312	69	4470
2026-01-08 05:10:15.47	329.01	19.44	-51.0	-53.1	14.7	0.00e+00	0	25	0	832569344	68	4535
2026-01-08 05:10:19.47	328.16	19.19	-50.6	-52.5	14.9	0.00e+00	0	25	0	839909376	67	4454
2026-01-08 05:10:23.46	327.33	18.94	-49.9	-51.6	15.1	0.00e+00	0	25	0	847249408	66	4289
2026-01-08 05:10:27.46	326.51	18.69	-50.5	-52.5	14.7	0.00e+00	0	25	0	854589440	66	4738
2026-01-08 05:10:31.45	325.70	18.43	-52.1	-54.7	14.1	0.00e+00	0	25	0	862978048	69	5127
2026-01-08 05:10:35.43	324.91	18.17	-52.0	-54.5	14.3	0.00e+00	0	25	0	870318080	70	4733
2026-01-08 05:10:39.41	324.13	17.90	-51.4	-53.6	14.7	0.00e+00	0	25	0	877658112	69	4502
2026-01-08 05:10:43.40	323.36	17.63	-50.8	-52.8	14.9	0.00e+00	0	25	0	884998144	68	4371
2026-01-08 05:10:47.38	322.61	17.36	-51.1	-53.2	14.7	0.00e+00	0	25	0	892338176	68	4583
2026-01-08 05:10:51.37	321.88	17.09	-51.7	-54.0	14.3	0.00e+00	0	25	0	899678208	68	5006
2026-01-08 05:10:55.36	321.15	16.82	-51.6	-53.8	14.4	0.00e+00	0	25	0	907018240	68	4899
2026-01-08 05:10:59.35	320.44	16.55	-51.8	-54.1	14.2	0.00e+00	0	25	0	914358272	68	5096
2026-01-08 05:11:03.35	319.74	16.27	-51.5	-53.7	14.4	0.00e+00	0	25	0	922746880	68	4857
2026-01-08 05:11:07.33	319.05	15.99	-51.2	-53.3	14.6	0.00e+00	0	25	0	930086912	68	4608
2026-01-08 05:11:11.31	318.38	15.71	-51.0	-53.0	14.8	0.00e+00	0	25	0	937426944	68	4472
2026-01-08 05:11:15.31	317.72	15.43	-50.8	-52.6	15.0	0.00e+00	0	25	0	944766976	68	4268
2026-01-08 05:11:19.30	317.07	15.15	-49.6	-51.2	15.1	0.00e+00	0	25	0	952107008	65	4325
2026-01-08 05:11:23.28	316.44	14.87	-50.1	-51.8	14.8	0.00e+00	0	25	0	959447040	65	4606
2026-01-08 05:11:27.28	315.81	14.59	-50.6	-52.4	14.7	0.00e+00	0	25	0	966787072	66	4657
2026-01-08 05:11:31.27	315.20	14.31	-50.5	-52.3	14.7	0.00e+00	0	25	0	975175680	66	4618
2026-01-08 05:11:35.27	314.60	14.03	-50.1	-51.8	15.0	0.00e+00	0	25	0	982515712	66	4346
2026-01-08 05:11:39.25	314.01	13.75	-50.6	-52.4	14.7	0.00e+00	0	25	0	989855744	66	4655
2026-01-08 05:11:43.24	313.44	13.47	-51.1	-53.0	14.5	0.00e+00	0	24	0	997195776	67	4757
2026-01-08 05:11:47.22	312.87	13.19	-51.0	-53.0	14.5	0.00e+00	0	25	0	1004535808	67	4727
2026-01-08 05:11:51.21	312.32	12.91	-50.7	-52.6	14.7	0.00e+00	0	25	0	1011875840	67	4521
2026-01-08 05:11:55.20	311.77	12.63	-50.1	-51.8	14.9	0.00e+00	0	25	0	1019215872	66	4370
2026-01-08 05:11:59.18	311.24	12.36	-50.6	-52.4	14.7	0.00e+00	0	25	0	1026555904	66	4661
2026-01-08 05:12:03.16	310.72	12.08	-51.8	-54.0	14.3	0.00e+00	0	25	0	1034944512	68	4987
2026-01-08 05:12:07.15	310.20	11.80	-51.5	-53.5	14.5	0.00e+00	0	24	0	1042284544	68	4733
2026-01-08 05:12:11.13	309.70	11.53	-51.0	-52.9	14.8	0.00e+00	0	25	0	1049624576	68	4416
2026-01-08 05:12:15.12	309.20	11.25	-51.3	-53.3	14.5	0.00e+00	0	25	0	1056964608	68	4646
2026-01-08 05:12:19.11	308.72	10.98	-51.4	-53.4	14.5	0.00e+00	0	25	0	1064304640	68	4669
2026-01-08 05:12:23.09	308.24	10.71	-51.4	-53.5	14.4	0.00e+00	0	25	0	1071644672	68	4730
2026-01-08 05:12:27.08	307.78	10.44	-51.9	-54.1	14.3	0.00e+00	0	25	0	1078984704	69	4792
2026-01-08 05:12:31.09	307.32	10.16	-51.9	-54.2	14.2	0.00e+00	0	25	0	1086324736	69	4865
2026-01-08 05:12:35.08	306.87	9.89	-52.2	-54.6	14.0	0.00e+00	0	25	0	1094713344	69	5073
2026-01-08 05:12:39.07	306.43	9.63	-52.7	-55.4	13.7	0.00e+00	0	25	0	1102053376	70	5252
2026-01-08 05:12:43.06	305.99	9.36	-52.9	-55.6	13.7	0.00e+00	0	25	0	1109393408	71	5063
2026-01-08 05:12:47.04	305.57	9.09	-52.3	-54.6	14.3	0.00e+00	0	25	0	1116733440	71	4537
2026-01-08 05:12:51.03	305.15	8.83	-51.8	-54.0	14.5	0.00e+00	0	25	0	1124073472	70	4463
2026-01-08 05:12:55.01	304.74	8.57	-52.1	-54.4	14.2	0.00e+00	0	25	0	1131413504	70	4699
2026-01-08 05:12:59.00	304.34	8.31	-52.3	-54.8	14.0	0.00e+00	0	25	0	1138753536	70	4883
2026-01-08 05:13:03.00	303.95	8.04	-52.3	-54.6	14.0	0.00e+00	0	25	0	1147142144	70	4809
2026-01-08 05:13:07.00	303.56	7.79	-52.0	-54.2	14.3	0.00e+00	0	25	0	1154482176	70	4588
2026-01-08 05:13:11.00	303.18	7.53	-52.0	-54.3	14.2	0.00e+00	0	25	0	1161822208	70	4627
2026-01-08 05:13:15.01	302.80	7.27	-52.2	-54.6	14.0	0.00e+00	0	24	0	1169162240	70	4807
2026-01-08 05:13:18.99	302.44	7.02	-52.6	-55.2	13.7	0.00e+00	0	25	0	1176502272	70	5108
2026-01-08 05:13:23.00	302.07	6.76	-53.0	-55.9	13.4	0.00e+00	0	25	0	1183842304	71	5225
2026-01-08 05:13:27.00	301.72	6.51	-53.3	-56.3	13.1	0.00e+00	0	25	0	1191182336	71	5499
2026-01-08 05:13:31.01	301.37	6.26	-53.4	-56.6	13.0	0.00e+00	0	25	0	1199570944	72	5368
2026-01-08 05:13:35.01	301.03	6.01	-53.6	-56.9	12.8	0.00e+00	0	25	0	1206910976	72	5545
2026-01-08 05:13:38.98	300.69	5.76	-53.6	-56.9	12.7	0.00e+00	0	25	0	1214251008	72	5582
2026-01-08 05:13:42.96	300.37	5.51	-53.5	-56.7	12.9	0.00e+00	0	25	0	1221591040	72	5417
2026-01-08 05:13:46.95	300.04	5.27	-53.8	-57.3	12.5	0.00e+00	0	25	0	1228931072	72	5837
2026-01-08 05:13:50.93	299.72	5.03	-54.0	-57.8	12.2	7.00e-07	0	25	0	1236271104	73	5812
2026-01-08 05:13:54.92	299.41	4.78	-58.7	-74.7	3.8	1.49e+00	0	25	104	1238368256	82	24163
2026-01-08 05:13:58.91	299.11	4.54	-59.7	-75.7	3.8	1.49e+00	0	25	104	1238368256	84	24319
2026-01-08 05:14:02.89	298.80	4.30	-60.2	-76.2	3.8	1.49e+00	0	25	104	1238368256	85	24293
2026-01-08 05:14:06.90	298.51	4.06	-60.4	-76.4	3.8	1.49e+00	0	25	104	1238368256	85	24897
2026-01-08 05:14:10.89	298.21	3.83	-60.6	-76.6	3.8	1.49e+00	0	25	104	1238368256	86	24105
2026-01-08 05:14:14.90	297.93	3.59	-60.5	-76.6	3.8	1.49e+00	0	25	104	1238368256	86	24043
2026-01-08 05:14:18.90	297.64	3.36	-60.5	-76.5	3.8	1.49e+00	0	25	104	1238368256	86	23852
2026-01-08 05:14:22.90	297.36	3.12	-60.3	-76.4	3.8	1.49e+00	0	25	104	1238368256	86	23448
2026-01-08 05:14:26.90	297.09	2.89	-60.3	-76.3	3.8	1.49e+00	0	25	104	1238368256	86	23309
2026-01-08 05:14:30.90	296.82	2.66	-60.2	-76.3	3.8	1.49e+00	0	25	104	1238368256	86	23205
2026-01-08 05:14:34.88	296.56	2.43	-60.2	-76.3	3.8	1.49e+00	0	25	104	1238368256	86	23187
2026-01-08 05:14:38.88	296.30	2.20	-60.2	-76.3	3.8	1.49e+00	0	25	104	1238368256	86	23119
2026-01-08 05:14:42.87	296.04	1.98	-60.2	-76.3	3.8	1.49e+00	0	25	104	1238368256	86	23076

#Closed at: 2026-01-08 05:14:45
#Recorded file [1238 MB]: D:/lorett/data/31004_260108_080204.dat