passes_logs/2026/01/08/R3.2S_Murmansk/R3.2S_Murmansk__20260108_084019_NOAA_20_JPSS-1_rec.log

#Pass ID: 20260108_084019_NOAA 20 (JPSS-1)
#Satellite: NOAA 20 (JPSS-1)
#Configuration: NOAA 20
#almurnet v.1.7.20251203
#Start time: 2026-01-08 08:40:20

#Version: 2.2.20231116
#Station: R3.2S_Murmansk
#Location: 33.079688 lon 68.888172 lat
#TLE: 1 43013U 17073A   26007.92906311  .00000097  00000+0  67117-4 0  9996
#TLE: 2 43013  98.7630 308.9434 0001752  49.5597 310.5732 14.19534161421734

#Time	Az	El	Level	Level2	SNR	BER	BlckErr	Temp	State	Recorded	gain1	gain2
2026-01-08 08:40:20.04	131.61	2.05	-57.4	-73.4	3.8	1.49e+00	0	23	0	0	81	22172
2026-01-08 08:40:24.03	131.53	2.30	-57.4	-73.4	3.8	1.49e+00	0	23	104	0	79	24748
2026-01-08 08:40:28.00	131.46	2.56	-57.3	-73.3	3.8	1.49e+00	0	23	104	0	79	24674
2026-01-08 08:40:31.98	131.38	2.82	-57.4	-73.2	3.8	1.49e+00	0	23	104	0	79	24383
2026-01-08 08:40:35.95	131.30	3.08	-57.4	-73.1	3.8	1.49e+00	0	23	104	0	79	24118
2026-01-08 08:40:39.94	131.22	3.34	-57.4	-73.0	3.8	1.49e+00	0	23	104	0	79	23824
2026-01-08 08:40:43.92	131.13	3.61	-57.3	-71.1	3.9	1.49e+00	0	23	104	0	79	19098
2026-01-08 08:40:47.90	131.05	3.88	-56.9	-66.7	5.6	4.43e-01	0	24	0	4194304	79	11430
2026-01-08 08:40:51.89	130.96	4.15	-56.5	-63.6	8.0	5.76e-02	0	24	0	11534336	79	8028
2026-01-08 08:40:55.86	130.87	4.42	-55.1	-59.4	11.4	1.49e-04	0	24	0	18874368	76	5866
2026-01-08 08:40:59.84	130.78	4.70	-53.8	-56.9	13.1	0.00e+00	0	24	0	26214400	74	4948
2026-01-08 08:41:03.82	130.69	4.98	-53.6	-56.7	13.1	0.00e+00	0	24	0	34603008	73	5128
2026-01-08 08:41:07.80	130.59	5.26	-53.3	-56.2	13.5	3.32e-02	0	24	0	41943040	73	4820
2026-01-08 08:41:11.79	130.50	5.55	-52.4	-54.8	14.1	0.00e+00	0	24	0	49283072	71	4637
2026-01-08 08:41:15.78	130.40	5.84	-52.3	-54.6	14.3	0.00e+00	0	24	0	56623104	71	4506
2026-01-08 08:41:19.77	130.29	6.13	-52.2	-54.4	14.4	0.00e+00	0	24	0	63963136	71	4410
2026-01-08 08:41:23.75	130.19	6.43	-52.3	-54.5	14.2	0.00e+00	0	24	0	71303168	70	4758
2026-01-08 08:41:27.73	130.08	6.73	-52.2	-54.5	14.3	0.00e+00	0	24	0	78643200	70	4709
2026-01-08 08:41:31.69	129.98	7.03	-52.1	-54.3	14.4	0.00e+00	0	24	0	85983232	70	4610
2026-01-08 08:41:35.67	129.87	7.33	-52.0	-54.1	14.5	0.00e+00	0	24	0	94371840	70	4512
2026-01-08 08:41:39.65	129.75	7.64	-51.9	-54.0	14.5	0.00e+00	0	24	0	101711872	70	4454
2026-01-08 08:41:43.63	129.64	7.95	-51.9	-54.0	14.5	0.00e+00	0	24	0	109051904	70	4454
2026-01-08 08:41:47.61	129.52	8.27	-51.8	-53.8	14.6	0.00e+00	0	24	0	116391936	70	4389
2026-01-08 08:41:51.57	129.39	8.59	-51.9	-53.9	14.6	0.00e+00	0	24	0	123731968	70	4399
2026-01-08 08:41:55.54	129.27	8.91	-51.7	-53.7	14.7	0.00e+00	0	24	0	131072000	70	4295
2026-01-08 08:41:59.51	129.14	9.24	-51.6	-53.5	14.7	0.00e+00	0	24	0	138412032	69	4474
2026-01-08 08:42:03.48	129.01	9.57	-51.5	-53.4	14.7	0.00e+00	0	24	0	145752064	69	4440
2026-01-08 08:42:07.46	128.88	9.91	-51.6	-53.5	14.7	0.00e+00	0	24	0	153092096	69	4489
2026-01-08 08:42:11.43	128.74	10.25	-51.6	-53.5	14.7	0.00e+00	0	24	0	161480704	69	4443
2026-01-08 08:42:15.40	128.60	10.60	-51.4	-53.3	14.8	0.00e+00	0	24	0	168820736	69	4372
2026-01-08 08:42:19.37	128.45	10.95	-51.4	-53.2	14.9	0.00e+00	0	24	0	176160768	69	4324
2026-01-08 08:42:23.37	128.30	11.30	-51.4	-53.3	14.8	0.00e+00	0	24	0	183500800	69	4354
2026-01-08 08:42:27.33	128.15	11.66	-51.3	-53.1	14.9	0.00e+00	0	25	0	190840832	69	4288
2026-01-08 08:42:31.31	127.99	12.03	-51.4	-53.3	14.8	0.00e+00	0	25	0	198180864	69	4347
2026-01-08 08:42:35.28	127.83	12.40	-51.2	-53.0	15.0	0.00e+00	0	24	0	205520896	69	4219
2026-01-08 08:42:39.24	127.66	12.77	-51.2	-53.0	15.0	0.00e+00	0	24	0	212860928	69	4218
2026-01-08 08:42:43.22	127.49	13.15	-51.1	-52.9	14.9	0.00e+00	0	25	0	220200960	68	4420
2026-01-08 08:42:47.20	127.31	13.54	-51.2	-52.9	14.9	0.00e+00	0	25	0	228589568	68	4417
2026-01-08 08:42:51.17	127.13	13.94	-51.0	-52.7	15.0	0.00e+00	0	24	0	235929600	68	4311
2026-01-08 08:42:55.15	126.95	14.34	-51.0	-52.7	15.0	0.00e+00	0	24	0	243269632	68	4331
2026-01-08 08:42:59.13	126.76	14.74	-51.1	-52.8	14.9	0.00e+00	0	25	0	250609664	68	4369
2026-01-08 08:43:03.10	126.56	15.15	-51.0	-52.7	15.0	0.00e+00	0	24	0	257949696	68	4319
2026-01-08 08:43:07.07	126.36	15.57	-50.9	-52.6	15.0	0.00e+00	0	24	0	265289728	68	4276
2026-01-08 08:43:11.05	126.15	16.00	-51.0	-52.7	15.0	0.00e+00	0	24	0	272629760	68	4298
2026-01-08 08:43:15.04	125.93	16.43	-51.0	-52.7	15.0	0.00e+00	0	25	0	279969792	68	4316
2026-01-08 08:43:19.01	125.71	16.87	-51.1	-52.8	15.0	0.00e+00	0	24	0	287309824	68	4349
2026-01-08 08:43:23.00	125.48	17.32	-51.1	-52.8	15.0	0.00e+00	0	24	0	295698432	68	4355
2026-01-08 08:43:26.97	125.24	17.78	-51.1	-52.8	15.0	0.00e+00	0	24	0	303038464	68	4371
2026-01-08 08:43:30.93	125.00	18.24	-51.0	-52.7	15.0	0.00e+00	0	25	0	310378496	68	4328
2026-01-08 08:43:34.91	124.74	18.71	-51.0	-52.7	15.1	0.00e+00	0	25	0	317718528	68	4293
2026-01-08 08:43:38.89	124.48	19.20	-50.9	-52.5	15.1	0.00e+00	0	25	0	325058560	68	4210
2026-01-08 08:43:42.87	124.21	19.69	-50.8	-52.5	15.2	0.00e+00	0	24	0	332398592	68	4196
2026-01-08 08:43:46.85	123.93	20.19	-51.1	-52.8	15.0	0.00e+00	0	25	0	339738624	68	4380
2026-01-08 08:43:50.82	123.64	20.69	-51.0	-52.6	15.1	0.00e+00	0	24	0	347078656	68	4281
2026-01-08 08:43:54.80	123.34	21.21	-51.0	-52.6	15.1	0.00e+00	0	24	0	354418688	68	4271
2026-01-08 08:43:58.79	123.03	21.74	-50.9	-52.5	15.1	0.00e+00	0	25	0	361758720	68	4225
2026-01-08 08:44:02.75	122.71	22.28	-51.1	-52.7	15.0	0.00e+00	0	25	0	370147328	68	4324
2026-01-08 08:44:06.74	122.38	22.83	-51.2	-52.8	15.0	0.00e+00	0	24	0	377487360	68	4365
2026-01-08 08:44:10.72	122.03	23.39	-51.3	-53.0	14.9	0.00e+00	0	25	0	384827392	68	4458
2026-01-08 08:44:14.69	121.67	23.96	-51.6	-53.3	14.7	0.00e+00	0	25	0	392167424	68	4641
2026-01-08 08:44:18.68	121.30	24.54	-52.0	-53.8	14.5	0.00e+00	0	25	0	399507456	69	4620
2026-01-08 08:44:22.66	120.91	25.14	-52.1	-54.0	14.6	0.00e+00	0	25	0	406847488	69	4715
2026-01-08 08:44:26.63	120.51	25.74	-52.4	-54.4	14.4	0.00e+00	0	25	0	414187520	69	4932
2026-01-08 08:44:30.63	120.09	26.36	-53.0	-55.1	14.3	0.00e+00	0	25	0	421527552	71	4795
2026-01-08 08:44:34.62	119.65	27.00	-53.2	-55.4	14.1	0.00e+00	0	25	0	429916160	71	4979
2026-01-08 08:44:38.61	119.19	27.64	-53.6	-55.9	14.0	0.00e+00	0	25	0	437256192	72	4940
2026-01-08 08:44:42.60	118.72	28.30	-53.8	-56.2	13.8	0.00e+00	0	25	0	444596224	72	5114
2026-01-08 08:44:46.57	118.22	28.97	-53.8	-56.2	13.8	0.00e+00	0	25	0	451936256	72	5111
2026-01-08 08:44:50.54	117.71	29.66	-53.7	-56.1	13.9	0.00e+00	0	25	0	459276288	72	5081
2026-01-08 08:44:54.54	117.17	30.36	-53.5	-55.8	14.1	0.00e+00	0	25	0	466616320	72	4880
2026-01-08 08:44:58.50	116.60	31.07	-53.5	-55.8	14.1	0.00e+00	0	25	0	473956352	72	4898
2026-01-08 08:45:02.48	116.01	31.80	-53.4	-55.7	14.2	0.00e+00	0	25	0	481296384	72	4820
2026-01-08 08:45:06.47	115.39	32.54	-53.6	-55.8	14.1	0.00e+00	0	25	0	489684992	72	4914
2026-01-08 08:45:10.45	114.74	33.30	-53.3	-55.5	14.3	0.00e+00	0	25	0	497025024	72	4723
2026-01-08 08:45:14.45	114.06	34.07	-53.5	-55.7	14.1	0.00e+00	0	25	0	504365056	72	4869
2026-01-08 08:45:18.44	113.34	34.86	-54.0	-56.5	13.8	0.00e+00	0	25	0	511705088	73	5030
2026-01-08 08:45:22.43	112.59	35.66	-54.5	-57.2	13.5	0.00e+00	0	25	0	519045120	74	5142
2026-01-08 08:45:26.42	111.80	36.48	-54.5	-57.2	13.5	0.00e+00	0	25	0	526385152	74	5142
2026-01-08 08:45:30.40	110.96	37.31	-54.8	-57.7	13.3	0.00e+00	0	25	0	533725184	74	5421
2026-01-08 08:45:34.37	110.09	38.15	-54.3	-56.9	13.7	0.00e+00	0	25	0	541065216	74	4972
2026-01-08 08:45:38.34	109.17	39.01	-54.6	-57.4	13.4	0.00e+00	0	25	0	548405248	74	5247
2026-01-08 08:45:42.30	108.20	39.87	-54.8	-57.7	13.2	0.00e+00	0	25	0	556793856	74	5410
2026-01-08 08:45:46.29	107.17	40.75	-55.1	-58.2	13.0	0.00e+00	0	25	0	564133888	75	5445
2026-01-08 08:45:50.27	106.08	41.65	-54.4	-57.0	13.8	0.00e+00	0	25	0	571473920	75	4713
2026-01-08 08:45:54.27	104.93	42.55	-53.5	-55.7	14.3	0.00e+00	0	25	0	578813952	73	4547
2026-01-08 08:45:58.23	103.72	43.46	-53.2	-55.3	14.4	0.00e+00	0	25	0	586153984	72	4605
2026-01-08 08:46:02.20	102.43	44.37	-53.0	-55.1	14.5	0.00e+00	0	25	0	593494016	72	4501
2026-01-08 08:46:06.15	101.08	45.28	-53.8	-56.1	13.9	0.00e+00	0	25	0	600834048	72	5072
2026-01-08 08:46:10.14	99.63	46.20	-54.0	-56.4	13.9	0.00e+00	0	25	0	608174080	73	4930
2026-01-08 08:46:14.11	98.10	47.12	-53.8	-56.2	14.0	0.00e+00	0	25	0	616562688	73	4836
2026-01-08 08:46:18.08	96.48	48.03	-54.4	-57.0	13.6	0.00e+00	0	25	0	623902720	73	5318
2026-01-08 08:46:22.06	94.75	48.94	-54.4	-56.9	13.7	0.00e+00	0	25	0	631242752	74	4980
2026-01-08 08:46:26.04	92.92	49.84	-53.2	-55.3	14.6	0.00e+00	0	25	0	638582784	73	4347
2026-01-08 08:46:30.02	90.97	50.72	-52.1	-53.9	14.8	0.00e+00	0	25	0	645922816	70	4423
2026-01-08 08:46:33.99	88.92	51.58	-51.6	-53.3	14.9	0.00e+00	0	25	0	653262848	69	4374
2026-01-08 08:46:37.97	86.74	52.41	-50.3	-51.7	15.3	0.00e+00	0	25	0	660602880	67	4087
2026-01-08 08:46:41.94	84.44	53.21	-50.3	-51.8	15.2	0.00e+00	0	25	0	667942912	66	4370
2026-01-08 08:46:45.91	82.02	53.98	-50.3	-51.8	15.2	0.00e+00	0	25	0	675282944	66	4365
2026-01-08 08:46:49.89	79.46	54.70	-51.0	-52.6	15.0	0.00e+00	0	24	0	682622976	67	4505
2026-01-08 08:46:53.87	76.77	55.36	-51.9	-53.7	14.8	0.00e+00	0	25	0	691011584	69	4569
2026-01-08 08:46:57.86	73.95	55.98	-52.4	-54.3	14.6	0.00e+00	0	25	0	698351616	70	4619
2026-01-08 08:47:01.84	71.01	56.52	-52.3	-54.2	14.7	0.00e+00	0	25	0	705691648	70	4552
2026-01-08 08:47:05.81	67.98	57.00	-52.5	-54.3	14.8	0.00e+00	0	25	0	713031680	71	4373
2026-01-08 08:47:09.80	64.83	57.40	-52.1	-53.8	14.9	0.00e+00	0	25	0	720371712	70	4359
2026-01-08 08:47:13.77	61.61	57.71	-52.0	-53.7	15.0	0.00e+00	0	25	0	727711744	70	4306
2026-01-08 08:47:17.74	58.33	57.94	-52.0	-53.7	15.0	0.00e+00	0	25	0	735051776	70	4331
2026-01-08 08:47:21.71	55.00	58.08	-51.0	-52.6	15.2	0.00e+00	0	25	0	742391808	68	4243
2026-01-08 08:47:25.68	51.65	58.13	-51.4	-53.0	15.0	0.00e+00	0	25	0	749731840	68	4468
2026-01-08 08:47:29.65	48.29	58.08	-50.7	-52.2	15.2	0.00e+00	0	25	0	758120448	67	4296
2026-01-08 08:47:33.63	44.96	57.95	-50.3	-51.7	15.4	0.00e+00	0	25	0	765460480	67	4068
2026-01-08 08:47:37.59	41.68	57.72	-49.6	-51.0	15.3	0.00e+00	0	25	0	772800512	65	4213
2026-01-08 08:47:41.57	38.45	57.41	-49.9	-51.3	15.2	0.00e+00	0	25	0	780140544	65	4353
2026-01-08 08:47:45.54	35.32	57.01	-50.3	-51.8	15.1	0.00e+00	0	25	0	787480576	65	4623
2026-01-08 08:47:49.52	32.27	56.54	-50.7	-52.2	15.0	0.00e+00	0	25	0	794820608	66	4579
2026-01-08 08:47:53.47	29.36	56.00	-51.1	-52.7	15.0	0.00e+00	0	25	0	802160640	67	4550
2026-01-08 08:47:57.46	26.54	55.39	-51.1	-52.7	15.0	0.00e+00	0	25	0	809500672	67	4590
2026-01-08 08:48:01.45	23.84	54.73	-50.1	-51.5	15.4	0.00e+00	0	25	0	816840704	66	4230
2026-01-08 08:48:05.42	21.28	54.01	-50.2	-51.7	15.2	0.00e+00	0	25	0	825229312	66	4319
2026-01-08 08:48:09.39	18.86	53.25	-49.9	-51.3	15.3	0.00e+00	0	25	0	832569344	66	4127
2026-01-08 08:48:13.36	16.56	52.46	-51.5	-53.1	14.9	0.00e+00	0	25	0	839909376	68	4515
2026-01-08 08:48:17.36	14.36	51.62	-52.8	-54.8	14.4	0.00e+00	0	25	0	847249408	70	4889
2026-01-08 08:48:21.33	12.31	50.76	-52.7	-54.5	14.7	0.00e+00	0	25	0	854589440	71	4493
2026-01-08 08:48:25.30	10.37	49.89	-54.7	-57.3	13.6	0.00e+00	0	25	0	861929472	74	5202
2026-01-08 08:48:29.29	8.53	48.99	-54.1	-56.5	14.1	0.00e+00	0	25	0	869269504	74	4712
2026-01-08 08:48:33.27	6.81	48.09	-54.6	-57.1	13.8	0.00e+00	0	25	0	876609536	74	5063
2026-01-08 08:48:37.24	5.18	47.18	-54.6	-57.2	13.7	0.00e+00	0	25	0	883949568	74	5121
2026-01-08 08:48:41.21	3.65	46.26	-54.4	-56.9	13.9	0.00e+00	0	25	0	892338176	74	4967
2026-01-08 08:48:45.19	2.20	45.34	-53.6	-55.8	14.3	0.00e+00	0	25	0	899678208	73	4632
2026-01-08 08:48:49.16	0.84	44.43	-53.9	-56.2	14.1	0.00e+00	0	25	0	907018240	73	4836
2026-01-08 08:48:53.13	359.55	43.52	-53.7	-55.9	14.3	0.00e+00	0	25	0	914358272	73	4702
2026-01-08 08:48:57.10	358.34	42.61	-53.5	-55.6	14.5	0.00e+00	0	25	0	921698304	73	4521
2026-01-08 08:49:01.06	357.20	41.72	-53.5	-55.7	14.4	0.00e+00	0	25	0	929038336	73	4551
2026-01-08 08:49:05.02	356.12	40.84	-54.1	-56.5	13.9	0.00e+00	0	25	0	936378368	73	4991
2026-01-08 08:49:08.99	355.09	39.96	-54.4	-56.9	13.7	0.00e+00	0	25	0	943718400	73	5240
2026-01-08 08:49:12.96	354.12	39.09	-54.9	-57.6	13.5	0.00e+00	0	25	0	951058432	75	5094
2026-01-08 08:49:16.94	353.19	38.24	-54.6	-57.2	13.8	0.00e+00	0	25	0	958398464	75	4845
2026-01-08 08:49:20.90	352.32	37.40	-53.9	-56.1	14.3	0.00e+00	0	25	0	966787072	74	4516
2026-01-08 08:49:24.85	351.50	36.58	-54.5	-57.1	13.7	0.00e+00	0	25	0	974127104	74	5072
2026-01-08 08:49:28.83	350.71	35.77	-54.5	-57.0	13.8	0.00e+00	0	25	0	981467136	74	5001
2026-01-08 08:49:32.81	349.95	34.97	-54.1	-56.5	14.0	0.00e+00	0	25	0	988807168	74	4742
2026-01-08 08:49:36.79	349.24	34.18	-54.2	-56.6	14.0	0.00e+00	0	25	0	996147200	74	4788
2026-01-08 08:49:40.76	348.56	33.41	-54.8	-57.6	13.4	0.00e+00	0	25	0	1003487232	74	5369
2026-01-08 08:49:44.74	347.91	32.66	-54.6	-57.2	13.5	0.00e+00	0	25	0	1010827264	74	5157
2026-01-08 08:49:48.72	347.29	31.92	-54.0	-56.4	14.1	0.00e+00	0	25	0	1018167296	74	4654
2026-01-08 08:49:52.69	346.70	31.19	-54.0	-56.4	14.1	0.00e+00	0	25	0	1025507328	74	4662
2026-01-08 08:49:56.65	346.14	30.48	-54.2	-56.7	13.9	0.00e+00	0	25	0	1032847360	74	4824
2026-01-08 08:50:00.62	345.60	29.79	-54.6	-57.3	13.5	0.00e+00	0	25	0	1041235968	74	5200
2026-01-08 08:50:04.61	345.08	29.10	-54.2	-56.6	13.9	0.00e+00	0	25	0	1048576000	74	4798
2026-01-08 08:50:08.57	344.59	28.43	-53.7	-55.9	14.2	0.00e+00	0	25	0	1055916032	73	4686
2026-01-08 08:50:12.56	344.11	27.77	-53.4	-55.6	14.4	0.00e+00	0	25	0	1063256064	73	4527
2026-01-08 08:50:16.52	343.66	27.13	-53.2	-55.2	14.4	0.00e+00	0	25	0	1070596096	72	4595
2026-01-08 08:50:20.49	343.22	26.50	-53.1	-55.1	14.5	0.00e+00	0	25	0	1077936128	72	4524
2026-01-08 08:50:24.48	342.80	25.88	-53.0	-55.0	14.5	0.00e+00	0	25	0	1085276160	72	4468
2026-01-08 08:50:28.46	342.40	25.28	-52.8	-54.8	14.7	0.00e+00	0	25	0	1092616192	72	4368
2026-01-08 08:50:32.42	342.01	24.69	-52.8	-54.8	14.6	0.00e+00	0	25	0	1099956224	72	4370
2026-01-08 08:50:36.40	341.64	24.10	-53.0	-55.0	14.5	0.00e+00	0	25	0	1108344832	72	4492
2026-01-08 08:50:40.40	341.28	23.53	-53.2	-55.3	14.3	0.00e+00	0	25	0	1115684864	72	4632
2026-01-08 08:50:44.37	340.93	22.97	-53.1	-55.3	14.4	0.00e+00	0	25	0	1123024896	72	4613
2026-01-08 08:50:48.35	340.60	22.42	-52.6	-54.6	14.6	0.00e+00	0	25	0	1130364928	71	4498
2026-01-08 08:50:52.32	340.28	21.89	-52.5	-54.4	14.7	0.00e+00	0	24	0	1137704960	71	4416
2026-01-08 08:50:56.29	339.97	21.36	-52.6	-54.6	14.6	0.00e+00	0	25	0	1145044992	71	4534
2026-01-08 08:51:00.54	339.65	20.81	-52.6	-54.5	14.6	0.00e+00	0	25	0	1152385024	71	4471
2026-01-08 08:51:04.59	339.36	20.29	-52.4	-54.3	14.7	0.00e+00	0	25	0	1159725056	71	4374
2026-01-08 08:51:08.62	339.08	19.78	-52.3	-54.2	14.8	0.00e+00	0	25	0	1168113664	71	4337
2026-01-08 08:51:12.69	338.80	19.28	-52.3	-54.2	14.8	0.00e+00	0	25	0	1175453696	71	4298
2026-01-08 08:51:16.71	338.54	18.80	-52.1	-54.0	14.7	0.00e+00	0	25	0	1182793728	70	4463
2026-01-08 08:51:20.72	338.29	18.32	-52.0	-53.9	14.7	0.00e+00	0	25	0	1190133760	70	4398
2026-01-08 08:51:24.73	338.04	17.86	-52.0	-53.8	14.8	0.00e+00	0	25	0	1197473792	70	4373
2026-01-08 08:51:28.74	337.80	17.40	-52.1	-53.9	14.8	0.00e+00	0	25	0	1205862400	70	4422
2026-01-08 08:51:32.79	337.57	16.94	-52.3	-54.2	14.6	0.00e+00	0	25	0	1213202432	70	4566
2026-01-08 08:51:36.86	337.35	16.49	-52.4	-54.4	14.4	0.00e+00	0	25	0	1220542464	70	4690
2026-01-08 08:51:40.90	337.13	16.06	-52.6	-54.7	14.3	0.00e+00	0	25	0	1227882496	70	4818
2026-01-08 08:51:44.92	336.92	15.63	-52.7	-54.8	14.3	0.00e+00	0	25	0	1236271104	70	4876
2026-01-08 08:51:48.94	336.72	15.20	-52.6	-54.7	14.3	0.00e+00	0	25	0	1243611136	70	4846
2026-01-08 08:51:53.01	336.52	14.78	-52.5	-54.6	14.4	0.00e+00	0	25	0	1250951168	70	4769
2026-01-08 08:51:56.98	336.33	14.38	-52.4	-54.5	14.4	0.00e+00	0	25	0	1258291200	70	4706
2026-01-08 08:52:00.96	336.15	13.98	-52.5	-54.5	14.4	0.00e+00	0	25	0	1265631232	70	4726
2026-01-08 08:52:04.92	335.97	13.59	-52.6	-54.7	14.3	0.00e+00	0	25	0	1272971264	70	4818
2026-01-08 08:52:08.89	335.80	13.21	-52.7	-54.8	14.2	0.00e+00	0	25	0	1280311296	70	4917
2026-01-08 08:52:12.84	335.63	12.83	-52.8	-55.0	14.1	0.00e+00	0	25	0	1287651328	70	5038
2026-01-08 08:52:16.80	335.47	12.45	-53.0	-55.2	14.1	0.00e+00	0	25	0	1296039936	71	4864
2026-01-08 08:52:20.78	335.31	12.09	-53.1	-55.4	14.1	0.00e+00	0	25	0	1303379968	71	4935
2026-01-08 08:52:24.75	335.15	11.72	-53.2	-55.6	13.9	0.00e+00	0	25	0	1310720000	71	5074
2026-01-08 08:52:28.73	335.00	11.36	-53.4	-55.9	13.8	0.00e+00	0	25	0	1318060032	72	4957
2026-01-08 08:52:32.71	334.86	11.01	-53.5	-56.0	13.7	0.00e+00	0	25	0	1325400064	72	5026
2026-01-08 08:52:36.68	334.71	10.66	-53.6	-56.1	13.7	0.00e+00	0	25	0	1332740096	72	5084
2026-01-08 08:52:40.66	334.57	10.32	-53.6	-56.2	13.6	0.00e+00	0	25	0	1340080128	72	5109
2026-01-08 08:52:44.63	334.44	9.98	-53.8	-56.5	13.4	0.00e+00	0	25	0	1347420160	72	5293
2026-01-08 08:52:48.61	334.31	9.64	-53.8	-56.4	13.5	0.00e+00	0	25	0	1354760192	72	5279
2026-01-08 08:52:52.59	334.18	9.31	-53.7	-56.4	13.4	0.00e+00	0	25	0	1363148800	72	5274
2026-01-08 08:52:56.57	334.05	8.98	-53.8	-56.5	13.4	0.00e+00	0	25	0	1370488832	72	5292
2026-01-08 08:53:00.54	333.93	8.66	-53.7	-56.4	13.4	0.00e+00	0	25	0	1377828864	72	5251
2026-01-08 08:53:04.51	333.81	8.34	-53.7	-56.4	13.4	0.00e+00	0	25	0	1385168896	72	5246
2026-01-08 08:53:08.49	333.69	8.03	-53.6	-56.4	13.4	0.00e+00	0	25	0	1392508928	72	5221
2026-01-08 08:53:12.46	333.58	7.71	-53.6	-56.3	13.5	0.00e+00	0	25	0	1399848960	72	5182
2026-01-08 08:53:16.44	333.47	7.41	-53.6	-56.4	13.4	0.00e+00	0	25	0	1407188992	72	5240
2026-01-08 08:53:20.43	333.36	7.10	-53.7	-56.6	13.3	0.00e+00	0	25	0	1414529024	72	5350
2026-01-08 08:53:24.38	333.25	6.80	-53.8	-56.7	13.1	0.00e+00	0	25	0	1421869056	72	5445
2026-01-08 08:53:28.36	333.15	6.50	-53.9	-56.9	13.0	0.00e+00	0	25	0	1429209088	72	5547
2026-01-08 08:53:32.32	333.05	6.21	-53.9	-57.0	13.0	0.00e+00	0	25	0	1437597696	73	5289
2026-01-08 08:53:36.30	332.95	5.92	-54.1	-57.3	12.8	0.00e+00	0	25	0	1444937728	73	5471
2026-01-08 08:53:40.28	332.86	5.63	-54.2	-57.5	12.7	0.00e+00	0	25	0	1452277760	73	5609
2026-01-08 08:53:44.28	332.76	5.35	-54.2	-57.5	12.6	0.00e+00	0	25	0	1459617792	73	5644
2026-01-08 08:53:48.26	332.67	5.06	-54.2	-57.7	12.5	0.00e+00	0	25	0	1466957824	73	5732
2026-01-08 08:53:52.27	332.58	4.78	-58.8	-74.8	3.8	1.49e+00	0	25	104	1471152128	82	24633
2026-01-08 08:53:56.29	332.49	4.50	-59.8	-75.9	3.8	1.49e+00	0	25	104	1471152128	84	24758
2026-01-08 08:54:00.31	332.40	4.23	-60.2	-76.3	3.8	1.49e+00	0	25	104	1471152128	85	24421
2026-01-08 08:54:04.33	332.32	3.95	-60.3	-76.4	3.8	1.49e+00	0	25	104	1471152128	85	24790
2026-01-08 08:54:08.34	332.24	3.68	-60.4	-76.5	3.8	1.49e+00	0	25	104	1471152128	85	25018
2026-01-08 08:54:12.35	332.16	3.42	-60.4	-76.4	3.8	1.49e+00	0	25	104	1471152128	85	24969
2026-01-08 08:54:16.33	332.08	3.15	-60.3	-76.4	3.8	1.49e+00	0	25	104	1471152128	85	24799
2026-01-08 08:54:20.30	332.00	2.89	-60.2	-76.3	3.8	1.49e+00	0	25	104	1471152128	85	24581
2026-01-08 08:54:24.27	331.92	2.64	-60.2	-76.3	3.8	1.49e+00	0	25	104	1471152128	85	24544
2026-01-08 08:54:28.24	331.85	2.38	-60.2	-76.3	3.8	1.49e+00	0	25	104	1471152128	85	24443
2026-01-08 08:54:32.21	331.78	2.13	-60.1	-76.2	3.8	1.49e+00	0	25	104	1471152128	85	24387

#Closed at: 2026-01-08 08:54:34
#Recorded file [1471 MB]: D:/lorett/data/31004_260108_114019.dat