passes_logs/2026/01/08/R3.2S_Murmansk/R3.2S_Murmansk__20260108_122652_AQUA_rec.log

#Pass ID: 20260108_122652_AQUA
#Satellite: AQUA
#Configuration: AQUA
#almurnet v.1.7.20251203
#Start time: 2026-01-08 12:26:54

#Version: 2.2.20231116
#Station: R3.2S_Murmansk
#Location: 33.079688 lon 68.888172 lat
#TLE: 1 27424U 02022A   26004.96787593  .00001598  00000+0  32997-3 0  9996
#TLE: 2 27424  98.4069 331.2279 0002002  90.2377   0.6092 14.61798176259425

#Time	Az	El	Level	Level2	SNR	BER	BlckErr	Temp	State	Recorded	gain1	gain2
2026-01-08 12:26:54.64	182.84	2.15	-57.2	-76.3	3.8	7.41e-01	0	22	0	0	83	31924
2026-01-08 12:26:57.67	182.97	2.35	-57.1	-76.0	3.8	7.45e-01	0	22	104	0	81	34647
2026-01-08 12:27:00.70	183.10	2.54	-57.1	-76.1	3.8	7.46e-01	0	23	104	0	81	35268
2026-01-08 12:27:03.73	183.24	2.74	-57.1	-75.8	3.8	7.46e-01	0	23	104	0	81	33793
2026-01-08 12:27:06.75	183.37	2.94	-57.1	-75.5	3.9	7.45e-01	0	23	104	0	81	32890
2026-01-08 12:27:09.78	183.51	3.14	-57.1	-75.5	3.8	7.46e-01	0	23	104	0	81	32773
2026-01-08 12:27:12.81	183.65	3.35	-57.1	-75.1	3.8	7.47e-01	0	23	104	0	81	31111
2026-01-08 12:27:15.82	183.79	3.55	-57.1	-75.4	3.8	7.46e-01	0	23	104	0	81	32551
2026-01-08 12:27:18.85	183.93	3.76	-57.1	-76.2	3.8	7.43e-01	0	23	104	0	81	35482
2026-01-08 12:27:21.87	184.08	3.96	-56.9	-70.2	5.2	7.06e-01	0	23	0	0	81	17888
2026-01-08 12:27:24.90	184.23	4.17	-56.5	-65.9	8.6	6.31e-01	0	23	0	4718592	81	10868
2026-01-08 12:27:27.92	184.38	4.38	-56.3	-64.7	9.7	6.20e-01	0	23	0	10485760	81	9393
2026-01-08 12:27:30.95	184.53	4.60	-56.3	-64.5	9.8	6.22e-01	0	23	0	16252928	81	9199
2026-01-08 12:27:33.97	184.68	4.81	-55.8	-62.3	11.6	6.13e-01	0	23	0	21495808	80	7617
2026-01-08 12:27:36.99	184.84	5.03	-55.5	-61.3	12.4	6.10e-01	0	23	0	27262976	80	6767
2026-01-08 12:27:40.02	185.00	5.24	-56.5	-66.1	8.5	6.36e-01	0	23	0	33030144	80	11798
2026-01-08 12:27:43.04	185.16	5.46	-51.5	-53.8	15.5	6.07e-01	0	23	0	36700160	72	4525
2026-01-08 12:27:46.06	185.32	5.68	-51.5	-53.8	15.3	6.06e-01	0	24	0	42467328	71	4811
2026-01-08 12:27:49.09	185.49	5.91	-51.0	-53.2	15.6	6.07e-01	0	23	0	48234496	71	4475
2026-01-08 12:27:52.12	185.66	6.13	-50.8	-52.9	15.6	6.07e-01	0	24	0	54001664	70	4556
2026-01-08 12:27:55.14	185.83	6.36	-50.7	-52.8	15.6	6.05e-01	0	23	0	59244544	70	4541
2026-01-08 12:27:58.16	186.01	6.59	-50.5	-52.6	15.7	6.05e-01	0	24	0	65011712	70	4401
2026-01-08 12:28:01.18	186.18	6.82	-50.6	-52.7	15.7	6.08e-01	0	24	0	70778880	70	4474
2026-01-08 12:28:04.20	186.36	7.06	-50.7	-52.7	15.6	6.06e-01	0	24	0	76546048	70	4471
2026-01-08 12:28:07.22	186.55	7.29	-50.8	-52.9	15.6	6.06e-01	0	24	0	82313216	70	4547
2026-01-08 12:28:10.25	186.73	7.53	-50.5	-52.5	15.8	6.07e-01	0	24	0	87556096	70	4351
2026-01-08 12:28:13.27	186.92	7.77	-50.5	-52.5	15.7	6.04e-01	0	24	0	93323264	70	4355
2026-01-08 12:28:16.30	187.12	8.01	-50.2	-52.2	15.7	6.06e-01	0	24	0	99090432	69	4453
2026-01-08 12:28:19.32	187.31	8.26	-50.1	-52.0	15.7	6.06e-01	0	24	0	104857600	69	4390
2026-01-08 12:28:22.34	187.51	8.51	-50.2	-52.2	15.7	6.07e-01	0	24	0	110624768	69	4452
2026-01-08 12:28:25.35	187.71	8.76	-50.1	-52.1	15.7	6.05e-01	0	24	0	115867648	69	4394
2026-01-08 12:28:28.38	187.92	9.01	-50.2	-52.1	15.7	6.06e-01	0	24	0	121634816	69	4398
2026-01-08 12:28:31.40	188.13	9.26	-50.1	-52.0	15.7	6.08e-01	0	24	0	127401984	69	4384
2026-01-08 12:28:34.42	188.34	9.52	-49.9	-51.8	15.9	6.08e-01	0	24	0	133169152	69	4244
2026-01-08 12:28:37.43	188.56	9.78	-49.9	-51.8	15.8	6.05e-01	0	24	0	138936320	69	4262
2026-01-08 12:28:40.46	188.78	10.04	-50.0	-51.8	15.8	6.06e-01	0	24	0	144179200	69	4272
2026-01-08 12:28:43.48	189.01	10.31	-50.0	-51.9	15.8	6.08e-01	0	24	0	149946368	69	4292
2026-01-08 12:28:46.50	189.24	10.58	-49.9	-51.7	15.9	6.06e-01	0	24	0	155713536	69	4242
2026-01-08 12:28:49.54	189.47	10.85	-50.0	-51.8	15.6	6.07e-01	0	24	0	161480704	68	4532
2026-01-08 12:28:52.55	189.71	11.13	-49.6	-51.4	15.8	6.08e-01	0	24	0	167247872	68	4314
2026-01-08 12:28:55.58	189.96	11.40	-49.6	-51.4	15.8	6.05e-01	0	24	0	172490752	68	4327
2026-01-08 12:28:58.60	190.21	11.69	-49.5	-51.3	15.9	6.07e-01	0	24	0	178257920	68	4243
2026-01-08 12:29:01.63	190.46	11.97	-49.6	-51.4	15.8	6.07e-01	0	24	0	184025088	68	4294
2026-01-08 12:29:04.65	190.72	12.26	-49.6	-51.3	15.8	6.06e-01	0	24	0	189792256	68	4275
2026-01-08 12:29:07.68	190.98	12.55	-49.5	-51.2	15.9	6.06e-01	0	24	0	195559424	68	4235
2026-01-08 12:29:10.71	191.25	12.84	-49.5	-51.2	15.9	6.05e-01	0	24	0	201326592	68	4210
2026-01-08 12:29:13.73	191.53	13.14	-49.4	-51.1	15.9	6.05e-01	0	24	0	206569472	68	4190
2026-01-08 12:29:16.75	191.81	13.44	-49.3	-51.0	15.7	6.09e-01	0	24	0	212336640	67	4375
2026-01-08 12:29:19.77	192.09	13.75	-49.2	-50.9	15.8	6.08e-01	0	24	0	218103808	67	4332
2026-01-08 12:29:22.78	192.39	14.05	-49.3	-51.1	15.8	6.06e-01	0	24	0	223870976	67	4398
2026-01-08 12:29:25.81	192.69	14.37	-49.2	-50.9	15.8	6.07e-01	0	24	0	229638144	67	4337
2026-01-08 12:29:28.83	192.99	14.68	-49.1	-50.8	15.9	6.07e-01	0	24	0	234881024	67	4254
2026-01-08 12:29:31.86	193.30	15.00	-49.1	-50.7	15.9	6.03e-01	0	24	0	240648192	67	4228
2026-01-08 12:29:34.88	193.62	15.33	-49.1	-50.8	15.9	6.08e-01	0	24	0	246415360	67	4244
2026-01-08 12:29:37.90	193.95	15.65	-49.0	-50.7	15.9	6.07e-01	0	24	0	252182528	67	4204
2026-01-08 12:29:40.92	194.28	15.99	-49.0	-50.7	15.9	6.06e-01	0	24	0	257949696	67	4203
2026-01-08 12:29:43.95	194.63	16.32	-49.0	-50.7	15.9	6.08e-01	0	24	0	263716864	67	4201
2026-01-08 12:29:46.97	194.98	16.66	-49.1	-50.7	15.9	6.09e-01	0	24	0	268959744	67	4242
2026-01-08 12:29:50.00	195.33	17.01	-48.9	-50.5	15.7	6.08e-01	0	24	0	274726912	66	4390
2026-01-08 12:29:53.02	195.70	17.36	-48.9	-50.5	15.8	6.09e-01	0	24	0	280494080	66	4388
2026-01-08 12:29:56.05	196.08	17.71	-48.8	-50.5	15.8	6.07e-01	0	24	0	286261248	66	4355
2026-01-08 12:29:59.07	196.46	18.07	-48.9	-50.6	15.7	6.07e-01	0	24	0	292028416	66	4405
2026-01-08 12:30:02.09	196.86	18.43	-49.0	-50.6	15.7	6.06e-01	0	24	0	297271296	66	4416
2026-01-08 12:30:05.11	197.26	18.80	-49.0	-50.7	15.7	6.08e-01	0	24	0	303038464	66	4451
2026-01-08 12:30:08.13	197.67	19.17	-49.1	-50.7	15.7	6.05e-01	0	24	0	308805632	66	4482
2026-01-08 12:30:11.15	198.10	19.55	-49.0	-50.7	15.7	6.06e-01	0	24	0	314572800	66	4462
2026-01-08 12:30:14.18	198.53	19.93	-48.9	-50.5	15.8	6.06e-01	0	24	0	320339968	66	4360
2026-01-08 12:30:17.20	198.98	20.32	-49.1	-50.8	15.7	6.03e-01	0	24	0	325582848	66	4518
2026-01-08 12:30:20.22	199.44	20.71	-49.0	-50.7	15.7	6.08e-01	0	24	0	331350016	66	4465
2026-01-08 12:30:23.23	199.90	21.11	-49.2	-50.9	15.6	6.06e-01	0	24	0	337117184	66	4562
2026-01-08 12:30:26.26	200.39	21.51	-49.2	-50.9	15.6	6.06e-01	0	24	0	342884352	66	4581
2026-01-08 12:30:29.28	200.88	21.91	-49.2	-50.9	15.7	6.04e-01	0	24	0	348651520	66	4568
2026-01-08 12:30:32.30	201.39	22.33	-49.1	-50.7	15.7	6.07e-01	0	24	0	353894400	66	4478
2026-01-08 12:30:35.32	201.92	22.74	-49.2	-50.8	15.7	6.05e-01	0	24	0	359661568	66	4542
2026-01-08 12:30:38.34	202.45	23.16	-49.1	-50.8	15.7	6.05e-01	0	24	0	365428736	66	4509
2026-01-08 12:30:41.36	203.01	23.59	-49.1	-50.8	15.7	6.04e-01	0	24	0	371195904	66	4510
2026-01-08 12:30:44.39	203.58	24.02	-49.1	-50.8	15.7	6.05e-01	0	24	0	376963072	66	4519
2026-01-08 12:30:47.41	204.16	24.46	-49.2	-50.9	15.7	6.06e-01	0	24	0	382205952	66	4549
2026-01-08 12:30:50.43	204.76	24.90	-49.1	-50.8	15.6	6.06e-01	0	24	0	387973120	66	4523
2026-01-08 12:30:53.45	205.38	25.35	-49.1	-50.7	15.7	6.05e-01	0	24	0	393740288	66	4493
2026-01-08 12:30:56.48	206.02	25.80	-49.2	-50.8	15.7	6.08e-01	0	24	0	399507456	66	4542
2026-01-08 12:30:59.51	206.68	26.26	-49.3	-50.9	15.6	6.06e-01	0	24	0	405274624	66	4579
2026-01-08 12:31:02.53	207.35	26.72	-49.2	-50.9	15.7	6.05e-01	0	24	0	410517504	66	4550
2026-01-08 12:31:05.55	208.05	27.19	-49.2	-50.9	15.6	6.03e-01	0	24	0	416284672	66	4558
2026-01-08 12:31:08.56	208.76	27.65	-49.2	-50.8	15.6	6.04e-01	0	24	0	422051840	66	4544
2026-01-08 12:31:11.59	209.50	28.13	-49.3	-51.0	15.6	6.05e-01	0	24	0	427819008	66	4626
2026-01-08 12:31:14.61	210.26	28.61	-49.1	-50.8	15.7	6.07e-01	0	24	0	433586176	66	4502
2026-01-08 12:31:17.63	211.05	29.09	-49.1	-50.7	15.7	6.05e-01	0	24	0	438829056	66	4488
2026-01-08 12:31:20.66	211.86	29.57	-49.1	-50.7	15.7	6.05e-01	0	24	0	444596224	66	4483
2026-01-08 12:31:23.68	212.69	30.06	-49.2	-50.8	15.7	6.08e-01	0	24	0	450363392	66	4543
2026-01-08 12:31:26.71	213.55	30.55	-49.2	-50.8	15.7	6.04e-01	0	24	0	456130560	66	4529
2026-01-08 12:31:29.74	214.44	31.04	-49.1	-50.8	15.7	6.08e-01	0	24	0	461897728	66	4501
2026-01-08 12:31:32.76	215.36	31.53	-49.2	-50.9	15.7	6.06e-01	0	24	0	467664896	66	4546
2026-01-08 12:31:35.78	216.30	32.03	-49.3	-50.9	15.7	6.07e-01	0	24	0	472907776	66	4570
2026-01-08 12:31:38.79	217.27	32.52	-49.2	-50.8	15.7	6.04e-01	0	24	0	478674944	66	4534
2026-01-08 12:31:41.81	218.27	33.01	-49.3	-51.0	15.6	6.06e-01	0	24	0	484442112	66	4602
2026-01-08 12:31:44.84	219.30	33.50	-49.4	-51.1	15.6	6.07e-01	0	24	0	490209280	66	4689
2026-01-08 12:31:47.86	220.37	33.99	-49.5	-51.2	15.6	6.07e-01	0	24	0	495976448	66	4713
2026-01-08 12:31:50.89	221.47	34.48	-49.7	-51.4	15.6	6.06e-01	0	24	0	501219328	67	4565
2026-01-08 12:31:53.91	222.60	34.97	-49.7	-51.4	15.6	6.05e-01	0	24	0	506986496	67	4587
2026-01-08 12:31:56.93	223.77	35.44	-49.8	-51.5	15.6	6.07e-01	0	24	0	512753664	67	4647
2026-01-08 12:31:59.95	224.97	35.92	-49.6	-51.2	15.7	6.06e-01	0	24	0	518520832	67	4489
2026-01-08 12:32:02.98	226.21	36.39	-49.6	-51.3	15.7	6.07e-01	0	24	0	524288000	67	4513
2026-01-08 12:32:06.00	227.48	36.85	-49.6	-51.3	15.6	6.06e-01	0	24	0	530055168	67	4525
2026-01-08 12:32:09.02	228.79	37.30	-49.4	-51.0	15.7	6.06e-01	0	24	0	535298048	67	4376
2026-01-08 12:32:12.05	230.14	37.74	-49.5	-51.2	15.7	6.04e-01	0	24	0	541065216	67	4459
2026-01-08 12:32:15.06	231.51	38.16	-49.4	-51.1	15.7	6.06e-01	0	24	0	546832384	67	4403
2026-01-08 12:32:18.09	232.94	38.58	-49.4	-51.0	15.8	6.07e-01	0	24	0	552599552	67	4385
2026-01-08 12:32:21.11	234.39	38.98	-49.3	-50.9	15.8	6.05e-01	0	24	0	558366720	67	4321
2026-01-08 12:32:24.13	235.88	39.36	-49.3	-50.9	15.8	6.06e-01	0	24	0	563609600	67	4319
2026-01-08 12:32:27.15	237.40	39.73	-49.5	-51.2	15.7	6.05e-01	0	24	0	569376768	67	4464
2026-01-08 12:32:30.18	238.97	40.08	-49.1	-50.7	15.9	6.05e-01	0	24	0	575143936	67	4199
2026-01-08 12:32:33.20	240.56	40.41	-49.0	-50.6	15.7	6.07e-01	0	24	0	580911104	66	4435
2026-01-08 12:32:36.22	242.18	40.72	-49.2	-50.8	15.6	6.08e-01	0	24	0	586678272	66	4541
2026-01-08 12:32:39.24	243.84	41.00	-49.0	-50.6	15.7	6.04e-01	0	24	0	591921152	66	4425
2026-01-08 12:32:42.27	245.52	41.26	-48.9	-50.4	15.8	6.07e-01	0	24	0	597688320	66	4332
2026-01-08 12:32:45.29	247.23	41.50	-48.7	-50.2	15.8	6.01e-01	0	24	0	603455488	66	4216
2026-01-08 12:32:48.32	248.97	41.71	-48.7	-50.2	15.8	6.01e-01	0	24	0	609222656	66	4232
2026-01-08 12:32:51.34	250.72	41.89	-48.8	-50.4	15.8	6.02e-01	0	24	0	614989824	66	4301
2026-01-08 12:32:54.37	252.50	42.04	-48.6	-50.1	15.9	6.00e-01	0	24	0	620232704	66	4170
2026-01-08 12:32:57.39	254.28	42.16	-48.8	-50.3	15.8	6.00e-01	0	24	0	625999872	66	4281
2026-01-08 12:33:00.42	256.09	42.25	-48.8	-50.4	15.8	5.98e-01	0	24	0	631767040	66	4307
2026-01-08 12:33:03.45	257.90	42.31	-48.9	-50.5	15.8	6.01e-01	0	24	0	637534208	66	4353
2026-01-08 12:33:06.48	259.72	42.35	-48.9	-50.5	15.8	6.01e-01	0	24	0	643301376	66	4358
2026-01-08 12:33:09.50	261.53	42.35	-49.1	-50.6	15.7	6.01e-01	0	24	0	649068544	66	4435
2026-01-08 12:33:12.52	263.34	42.31	-49.0	-50.6	15.7	6.00e-01	0	24	0	654311424	66	4408
2026-01-08 12:33:15.55	265.15	42.25	-49.2	-50.8	15.7	6.00e-01	0	24	0	660078592	66	4523
2026-01-08 12:33:18.57	266.95	42.16	-49.2	-50.8	15.7	6.00e-01	0	24	0	665845760	66	4522
2026-01-08 12:33:21.59	268.73	42.04	-49.4	-51.1	15.6	6.01e-01	0	24	0	671612928	66	4658
2026-01-08 12:33:24.61	270.50	41.88	-49.2	-50.9	15.7	6.01e-01	0	24	0	677380096	66	4551
2026-01-08 12:33:27.63	272.25	41.70	-49.4	-51.1	15.6	6.01e-01	0	24	0	682622976	66	4676
2026-01-08 12:33:30.65	273.98	41.49	-49.6	-51.2	15.6	6.01e-01	0	24	0	688390144	67	4488
2026-01-08 12:33:33.68	275.69	41.26	-49.4	-51.0	15.8	6.01e-01	0	24	0	694157312	67	4370
2026-01-08 12:33:36.69	277.37	41.00	-49.4	-51.0	15.7	6.01e-01	0	24	0	699924480	67	4365
2026-01-08 12:33:39.72	279.02	40.72	-49.6	-51.3	15.7	6.00e-01	0	24	0	705691648	67	4513
2026-01-08 12:33:42.74	280.64	40.41	-49.7	-51.4	15.6	6.01e-01	0	24	0	711458816	67	4558
2026-01-08 12:33:45.76	282.23	40.08	-49.7	-51.3	15.6	6.02e-01	0	24	0	716701696	67	4526
2026-01-08 12:33:48.79	283.79	39.73	-49.6	-51.2	15.7	6.02e-01	0	24	0	722468864	67	4490
2026-01-08 12:33:51.81	285.31	39.36	-49.8	-51.4	15.6	6.01e-01	0	24	0	728236032	67	4598
2026-01-08 12:33:54.82	286.79	38.98	-49.6	-51.2	15.7	6.02e-01	0	24	0	734003200	67	4453
2026-01-08 12:33:57.85	288.25	38.58	-49.5	-51.2	15.7	6.01e-01	0	24	0	739770368	67	4451
2026-01-08 12:34:00.88	289.67	38.17	-49.5	-51.1	15.7	5.99e-01	0	24	0	745013248	67	4436
2026-01-08 12:34:03.89	291.04	37.74	-49.4	-51.0	15.7	5.98e-01	0	24	0	750780416	67	4385
2026-01-08 12:34:06.91	292.38	37.30	-49.3	-50.9	15.8	6.00e-01	0	24	0	756547584	67	4297
2026-01-08 12:34:09.93	293.69	36.86	-49.2	-50.8	15.8	5.99e-01	0	24	0	762314752	67	4289
2026-01-08 12:34:12.95	294.95	36.40	-49.1	-50.7	15.8	6.02e-01	0	24	0	768081920	67	4221
2026-01-08 12:34:15.97	296.19	35.93	-49.0	-50.6	15.9	6.00e-01	0	24	0	773324800	67	4158
2026-01-08 12:34:18.99	297.38	35.46	-49.1	-50.7	15.8	6.02e-01	0	24	0	779091968	67	4222
2026-01-08 12:34:22.02	298.55	34.98	-48.7	-50.2	15.8	6.03e-01	0	24	0	784859136	66	4210
2026-01-08 12:34:25.04	299.68	34.50	-48.5	-50.0	15.9	6.00e-01	0	24	0	790626304	66	4132
2026-01-08 12:34:28.06	300.77	34.02	-48.5	-50.0	15.9	5.99e-01	0	24	0	796393472	66	4139
2026-01-08 12:34:31.08	301.84	33.53	-48.2	-49.6	15.9	6.04e-01	0	24	0	801636352	65	4192
2026-01-08 12:34:34.10	302.87	33.04	-47.9	-49.4	15.9	6.01e-01	0	24	0	807403520	65	4065
2026-01-08 12:34:37.12	303.87	32.55	-48.0	-49.5	15.7	6.01e-01	0	24	0	813170688	64	4375
2026-01-08 12:34:40.14	304.83	32.06	-48.1	-49.6	15.7	6.02e-01	0	24	0	818937856	64	4438
2026-01-08 12:34:43.16	305.77	31.57	-47.8	-49.2	15.8	6.03e-01	0	24	0	824705024	64	4229
2026-01-08 12:34:46.19	306.69	31.08	-48.0	-49.5	15.8	6.00e-01	0	24	0	829947904	64	4363
2026-01-08 12:34:49.21	307.57	30.59	-48.0	-49.4	15.8	5.99e-01	0	24	0	835715072	64	4340
2026-01-08 12:34:52.24	308.43	30.10	-48.0	-49.5	15.7	6.02e-01	0	24	0	841482240	64	4374
2026-01-08 12:34:55.25	309.26	29.62	-48.1	-49.6	15.7	6.01e-01	0	24	0	847249408	64	4394
2026-01-08 12:34:58.28	310.07	29.14	-48.1	-49.5	15.7	6.01e-01	0	24	0	853016576	64	4391
2026-01-08 12:35:01.30	310.85	28.66	-48.3	-49.8	15.7	6.00e-01	0	24	0	858259456	64	4513
2026-01-08 12:35:04.33	311.61	28.18	-48.3	-49.8	15.7	5.98e-01	0	24	0	864026624	64	4530
2026-01-08 12:35:07.35	312.35	27.71	-48.5	-50.0	15.6	6.04e-01	0	24	0	869793792	64	4649
2026-01-08 12:35:10.38	313.07	27.24	-48.6	-50.2	15.6	6.01e-01	0	24	0	875560960	64	4722
2026-01-08 12:35:13.40	313.76	26.78	-48.4	-49.9	15.8	5.98e-01	0	24	0	881328128	65	4326
2026-01-08 12:35:16.42	314.44	26.32	-48.8	-50.4	15.7	6.02e-01	0	24	0	886571008	65	4566
2026-01-08 12:35:19.44	315.09	25.87	-48.8	-50.4	15.6	6.00e-01	0	24	0	892338176	65	4555
2026-01-08 12:35:22.47	315.73	25.42	-48.7	-50.2	15.7	6.03e-01	0	24	0	898105344	65	4483
2026-01-08 12:35:25.49	316.35	24.97	-48.6	-50.2	15.7	6.01e-01	0	24	0	903872512	65	4467
2026-01-08 12:35:28.51	316.95	24.53	-48.9	-50.5	15.6	6.01e-01	0	24	0	909639680	65	4601
2026-01-08 12:35:31.54	317.53	24.10	-48.8	-50.3	15.6	6.01e-01	0	24	0	915406848	65	4545
2026-01-08 12:35:34.56	318.10	23.67	-48.9	-50.5	15.6	5.99e-01	0	24	0	920649728	65	4633
2026-01-08 12:35:37.59	318.65	23.24	-48.9	-50.5	15.6	6.02e-01	0	24	0	926416896	65	4617
2026-01-08 12:35:40.61	319.19	22.82	-48.8	-50.4	15.6	6.02e-01	0	24	0	932184064	65	4572
2026-01-08 12:35:43.62	319.71	22.41	-48.7	-50.3	15.7	5.99e-01	0	24	0	937951232	65	4501
2026-01-08 12:35:46.66	320.22	21.99	-48.8	-50.4	15.7	6.00e-01	0	24	0	943718400	65	4549
2026-01-08 12:35:49.68	320.72	21.59	-48.7	-50.4	15.6	6.01e-01	0	24	0	948961280	65	4547
2026-01-08 12:35:52.71	321.20	21.19	-48.7	-50.3	15.7	6.01e-01	0	24	0	954728448	65	4524
2026-01-08 12:35:55.74	321.67	20.79	-48.6	-50.2	15.6	6.02e-01	0	24	0	960495616	65	4478
2026-01-08 12:35:58.76	322.13	20.40	-48.7	-50.3	15.7	5.98e-01	0	24	0	966262784	65	4501
2026-01-08 12:36:01.78	322.58	20.02	-48.6	-50.2	15.7	6.00e-01	0	24	0	972029952	65	4485
2026-01-08 12:36:04.80	323.01	19.64	-48.5	-50.1	15.7	6.01e-01	0	24	0	977797120	65	4410
2026-01-08 12:36:07.83	323.44	19.26	-48.4	-50.0	15.7	6.00e-01	0	24	0	983040000	65	4362
2026-01-08 12:36:10.85	323.85	18.89	-48.4	-50.0	15.7	6.02e-01	0	24	0	988807168	65	4359
2026-01-08 12:36:13.87	324.25	18.53	-48.5	-50.1	15.7	6.02e-01	0	24	0	994574336	65	4415
2026-01-08 12:36:16.90	324.65	18.17	-48.6	-50.2	15.7	5.98e-01	0	24	0	1000341504	65	4447
2026-01-08 12:36:19.92	325.03	17.81	-48.6	-50.2	15.7	6.00e-01	0	24	0	1006108672	65	4452
2026-01-08 12:36:22.94	325.41	17.46	-48.6	-50.2	15.7	6.02e-01	0	24	0	1011351552	65	4444
2026-01-08 12:36:25.97	325.78	17.11	-48.5	-50.1	15.7	6.00e-01	0	24	0	1017118720	65	4433
2026-01-08 12:36:29.00	326.13	16.76	-48.5	-50.1	15.7	6.02e-01	0	24	0	1022885888	65	4397
2026-01-08 12:36:32.02	326.48	16.43	-48.5	-50.1	15.7	6.01e-01	0	24	0	1028653056	65	4414
2026-01-08 12:36:35.05	326.83	16.09	-48.4	-50.0	15.7	5.99e-01	0	24	0	1034420224	65	4367
2026-01-08 12:36:38.07	327.16	15.76	-48.4	-49.9	15.7	6.03e-01	0	24	0	1039663104	65	4329
2026-01-08 12:36:41.08	327.49	15.44	-48.5	-50.1	15.7	6.01e-01	0	24	0	1045430272	65	4433
2026-01-08 12:36:44.11	327.81	15.11	-48.5	-50.1	15.8	6.00e-01	0	24	0	1051197440	65	4392
2026-01-08 12:36:47.14	328.12	14.79	-48.6	-50.2	15.7	6.01e-01	0	24	0	1056964608	65	4462
2026-01-08 12:36:50.16	328.43	14.48	-48.6	-50.2	15.7	6.00e-01	0	24	0	1062731776	65	4466
2026-01-08 12:36:53.18	328.73	14.17	-48.6	-50.3	15.7	6.01e-01	0	24	0	1067974656	65	4502
2026-01-08 12:36:56.21	329.02	13.86	-48.6	-50.3	15.7	6.02e-01	0	24	0	1073741824	65	4501
2026-01-08 12:36:59.23	329.31	13.56	-48.7	-50.3	15.7	6.00e-01	0	24	0	1079508992	65	4528
2026-01-08 12:37:02.26	329.59	13.26	-48.8	-50.4	15.6	6.00e-01	0	24	0	1085276160	65	4585
2026-01-08 12:37:05.28	329.87	12.96	-48.7	-50.3	15.6	6.01e-01	0	24	0	1091043328	65	4535
2026-01-08 12:37:08.31	330.14	12.67	-48.7	-50.3	15.7	6.01e-01	0	24	0	1096810496	65	4528
2026-01-08 12:37:11.33	330.40	12.38	-48.6	-50.2	15.7	5.99e-01	0	24	0	1102053376	65	4482
2026-01-08 12:37:14.35	330.66	12.09	-48.7	-50.4	15.6	6.03e-01	0	24	0	1107820544	65	4557
2026-01-08 12:37:17.37	330.92	11.81	-48.8	-50.5	15.6	6.02e-01	0	24	0	1113587712	65	4638
2026-01-08 12:37:20.40	331.17	11.53	-48.8	-50.5	15.6	6.02e-01	0	24	0	1119354880	65	4635
2026-01-08 12:37:23.42	331.41	11.25	-48.9	-50.6	15.6	6.00e-01	0	25	0	1125122048	65	4662
2026-01-08 12:37:26.43	331.65	10.98	-49.1	-50.7	15.7	6.02e-01	0	24	0	1130364928	66	4493
2026-01-08 12:37:29.46	331.89	10.71	-49.1	-50.9	15.6	6.01e-01	0	24	0	1136132096	66	4547
2026-01-08 12:37:32.47	332.12	10.44	-49.1	-50.9	15.6	6.02e-01	0	24	0	1141899264	66	4565
2026-01-08 12:37:35.50	332.35	10.17	-49.3	-51.0	15.6	6.01e-01	0	24	0	1147666432	66	4639
2026-01-08 12:37:38.51	332.57	9.91	-49.3	-51.1	15.5	6.01e-01	0	24	0	1153433600	66	4673
2026-01-08 12:37:41.53	332.79	9.65	-49.4	-51.2	15.5	5.99e-01	0	24	0	1158676480	66	4734
2026-01-08 12:37:44.55	333.00	9.40	-49.5	-51.3	15.5	6.02e-01	0	24	0	1164443648	66	4783
2026-01-08 12:37:47.58	333.21	9.14	-49.4	-51.2	15.7	6.00e-01	0	24	0	1170210816	67	4461
2026-01-08 12:37:50.61	333.42	8.89	-49.5	-51.3	15.6	5.99e-01	0	24	0	1175977984	67	4495
2026-01-08 12:37:53.63	333.63	8.64	-49.5	-51.4	15.6	6.01e-01	0	24	0	1181745152	67	4555
2026-01-08 12:37:56.65	333.83	8.40	-49.6	-51.5	15.6	6.01e-01	0	24	0	1187512320	67	4610
2026-01-08 12:37:59.68	334.03	8.15	-49.7	-51.5	15.5	6.00e-01	0	24	0	1192755200	67	4640
2026-01-08 12:38:02.70	334.22	7.91	-49.9	-51.8	15.5	6.02e-01	0	24	0	1198522368	67	4793
2026-01-08 12:38:05.73	334.41	7.67	-49.9	-51.9	15.4	6.02e-01	0	24	0	1204289536	67	4817
2026-01-08 12:38:08.75	334.60	7.43	-50.0	-51.9	15.4	6.02e-01	0	24	0	1210056704	67	4859
2026-01-08 12:38:11.78	334.78	7.20	-50.2	-52.1	15.5	6.02e-01	0	24	0	1215823872	68	4694
2026-01-08 12:38:14.80	334.97	6.96	-50.2	-52.2	15.4	6.02e-01	0	24	0	1221066752	68	4750
2026-01-08 12:38:17.82	335.14	6.73	-50.5	-52.6	15.3	6.02e-01	0	24	0	1226833920	68	4940
2026-01-08 12:38:20.85	335.32	6.50	-50.2	-52.2	15.4	6.00e-01	0	24	0	1232601088	68	4712
2026-01-08 12:38:23.87	335.49	6.28	-50.4	-52.5	15.3	6.02e-01	0	24	0	1238368256	68	4872
2026-01-08 12:38:26.90	335.67	6.05	-50.3	-52.4	15.4	6.00e-01	0	24	0	1244135424	68	4817
2026-01-08 12:38:29.92	335.83	5.83	-50.4	-52.5	15.3	6.02e-01	0	24	0	1249378304	68	4909
2026-01-08 12:38:32.94	336.00	5.61	-50.6	-52.7	15.2	5.99e-01	0	24	0	1255145472	68	5016
2026-01-08 12:38:35.97	336.16	5.39	-50.8	-53.0	15.3	6.00e-01	0	24	0	1260912640	69	4871
2026-01-08 12:38:39.00	336.32	5.17	-51.0	-53.2	15.3	6.01e-01	0	24	0	1266679808	70	4739
2026-01-08 12:38:42.02	336.48	4.96	-57.2	-70.2	7.0	6.81e-01	90	24	0	1272446976	82	16763
2026-01-08 12:38:45.05	336.64	4.74	-58.8	-78.2	3.8	7.50e-01	0	24	104	1272446976	85	35326
2026-01-08 12:38:48.07	336.79	4.53	-59.3	-78.7	3.8	7.48e-01	0	24	104	1272446976	86	35324
2026-01-08 12:38:51.10	336.94	4.32	-59.6	-78.9	3.8	7.43e-01	0	24	104	1272446976	86	36354
2026-01-08 12:38:54.13	337.09	4.11	-59.7	-79.0	3.8	7.45e-01	0	24	104	1272446976	87	34834
2026-01-08 12:38:57.15	337.24	3.91	-59.7	-79.1	3.8	7.45e-01	0	25	104	1272446976	87	34939
2026-01-08 12:39:00.17	337.39	3.70	-59.7	-79.1	3.8	7.48e-01	0	25	104	1272446976	87	35141
2026-01-08 12:39:03.20	337.53	3.50	-59.8	-79.1	3.8	7.43e-01	0	24	104	1272446976	87	35128
2026-01-08 12:39:06.23	337.67	3.30	-59.7	-79.0	3.8	7.49e-01	0	25	104	1272446976	87	34869
2026-01-08 12:39:09.25	337.81	3.10	-59.6	-79.0	3.8	7.45e-01	0	25	104	1272446976	87	34658
2026-01-08 12:39:12.28	337.95	2.90	-59.6	-79.0	3.8	7.46e-01	0	25	104	1272446976	87	34522
2026-01-08 12:39:15.30	338.09	2.70	-59.6	-79.0	3.8	7.44e-01	0	24	104	1272446976	87	34505
2026-01-08 12:39:18.33	338.22	2.50	-59.6	-78.9	3.8	7.48e-01	0	25	104	1272446976	87	34398
2026-01-08 12:39:21.36	338.35	2.31	-59.5	-78.9	3.8	7.46e-01	0	25	104	1272446976	87	34166
2026-01-08 12:39:24.38	338.48	2.11	-59.5	-78.9	3.8	7.44e-01	0	25	104	1272446976	87	34190

#Closed at: 2026-01-08 12:39:26
#Recorded file [1272 MB]: D:/lorett/data/31004_260108_152654.dat