passes_logs/2026/01/08/R3.2S_Murmansk/R3.2S_Murmansk__20260108_014240_SUOMI_NPP_rec.log

#Pass ID: 20260108_014240_SUOMI NPP
#Satellite: SUOMI NPP
#Configuration: NPP
#almurnet v.1.7.20251203
#Start time: 2026-01-08 01:42:42

#Version: 2.2.20231116
#Station: R3.2S_Murmansk
#Location: 33.079688 lon 68.888172 lat
#TLE: 1 37849U 11061A   26005.94084933  .00000134  00000+0  84554-4 0  9990
#TLE: 2 37849  98.7803 308.0679 0002567  79.1029 281.0436 14.19522657735426

#Time	Az	El	Level	Level2	SNR	BER	BlckErr	Temp	State	Recorded	gain1	gain2
2026-01-08 01:42:42.64	28.75	2.11	-57.3	-73.3	3.8	1.49e+00	0	23	0	0	80	23121
2026-01-08 01:42:46.63	28.67	2.37	-57.2	-73.3	3.8	1.49e+00	0	23	104	0	79	24494
2026-01-08 01:42:50.63	28.59	2.63	-57.2	-73.2	3.8	1.49e+00	0	23	104	0	79	24279
2026-01-08 01:42:54.62	28.51	2.88	-57.3	-73.3	3.8	1.49e+00	0	23	104	0	79	24485
2026-01-08 01:42:58.61	28.42	3.15	-57.3	-73.2	3.8	1.49e+00	0	23	104	0	79	24336
2026-01-08 01:43:02.59	28.33	3.41	-57.2	-72.9	3.8	1.49e+00	0	23	104	0	79	23356
2026-01-08 01:43:06.58	28.24	3.67	-57.2	-71.9	3.8	1.49e+00	0	23	104	0	79	20980
2026-01-08 01:43:10.59	28.15	3.94	-57.2	-71.4	3.8	1.49e+00	0	23	104	0	79	19777
2026-01-08 01:43:14.58	28.05	4.21	-57.2	-71.6	3.8	1.49e+00	0	23	104	0	79	20162
2026-01-08 01:43:18.58	27.96	4.49	-57.0	-68.2	4.7	1.16e+00	0	24	0	1048576	79	13581
2026-01-08 01:43:22.57	27.86	4.76	-56.5	-64.5	7.0	1.32e-01	0	24	0	8388608	79	8964
2026-01-08 01:43:26.54	27.76	5.04	-56.9	-66.3	6.0	9.67e-02	0	24	0	15728640	79	10931
2026-01-08 01:43:30.51	27.66	5.32	-56.3	-63.5	8.3	5.10e-04	0	24	0	23068672	77	8890
2026-01-08 01:43:34.50	27.55	5.61	-54.3	-57.9	12.5	0.00e+00	0	24	0	30408704	75	5229
2026-01-08 01:43:38.48	27.44	5.89	-52.9	-55.6	13.8	0.00e+00	0	24	0	37748736	72	4786
2026-01-08 01:43:42.45	27.33	6.18	-52.5	-55.1	14.0	0.00e+00	0	24	0	46137344	71	4763
2026-01-08 01:43:46.45	27.22	6.48	-52.5	-55.0	14.0	0.00e+00	0	24	0	53477376	71	4752
2026-01-08 01:43:50.44	27.10	6.78	-52.2	-54.6	14.1	0.00e+00	0	24	0	60817408	70	4812
2026-01-08 01:43:54.44	26.99	7.08	-51.9	-54.2	14.4	0.00e+00	0	24	0	68157440	70	4546
2026-01-08 01:43:58.41	26.87	7.38	-52.0	-54.2	14.4	0.00e+00	0	24	0	75497472	70	4598
2026-01-08 01:44:02.41	26.74	7.69	-52.0	-54.3	14.4	0.00e+00	0	24	0	82837504	70	4605
2026-01-08 01:44:06.40	26.61	8.00	-51.6	-53.7	14.5	0.00e+00	0	24	0	90177536	69	4592
2026-01-08 01:44:10.40	26.48	8.32	-51.5	-53.6	14.6	0.00e+00	0	24	0	98566144	69	4515
2026-01-08 01:44:14.40	26.35	8.64	-51.5	-53.6	14.5	0.00e+00	0	24	0	105906176	69	4529
2026-01-08 01:44:18.39	26.21	8.96	-51.3	-53.4	14.7	0.00e+00	0	24	0	113246208	69	4395
2026-01-08 01:44:22.39	26.07	9.29	-51.2	-53.1	14.8	0.00e+00	0	24	0	120586240	69	4284
2026-01-08 01:44:26.39	25.93	9.62	-51.0	-53.0	14.7	0.00e+00	0	24	0	127926272	68	4449
2026-01-08 01:44:30.36	25.78	9.95	-51.1	-53.0	14.7	0.00e+00	0	24	0	135266304	68	4467
2026-01-08 01:44:34.34	25.63	10.29	-51.0	-52.9	14.8	0.00e+00	0	24	0	142606336	68	4426
2026-01-08 01:44:38.33	25.48	10.63	-51.0	-52.9	14.8	0.00e+00	0	24	0	150994944	68	4401
2026-01-08 01:44:42.34	25.32	10.98	-51.0	-52.9	14.8	0.00e+00	0	25	0	158334976	68	4407
2026-01-08 01:44:46.34	25.15	11.34	-50.9	-52.8	14.8	0.00e+00	0	24	0	165675008	68	4347
2026-01-08 01:44:50.32	24.99	11.70	-50.9	-52.7	14.9	0.00e+00	0	25	0	173015040	68	4330
2026-01-08 01:44:54.31	24.81	12.06	-50.8	-52.6	14.9	0.00e+00	0	25	0	180355072	68	4270
2026-01-08 01:44:58.30	24.64	12.43	-50.8	-52.6	14.9	0.00e+00	0	24	0	187695104	68	4275
2026-01-08 01:45:02.29	24.45	12.80	-50.8	-52.6	14.9	0.00e+00	0	25	0	195035136	68	4276
2026-01-08 01:45:06.28	24.27	13.18	-50.7	-52.6	14.7	0.00e+00	0	25	0	202375168	67	4539
2026-01-08 01:45:10.28	24.07	13.57	-50.6	-52.5	14.8	0.00e+00	0	25	0	210763776	67	4482
2026-01-08 01:45:14.30	23.87	13.96	-50.6	-52.4	14.8	0.00e+00	0	24	0	218103808	67	4425
2026-01-08 01:45:18.30	23.67	14.36	-50.5	-52.3	14.9	0.00e+00	0	25	0	225443840	67	4387
2026-01-08 01:45:22.29	23.46	14.76	-50.4	-52.2	15.0	0.00e+00	0	25	0	232783872	67	4333
2026-01-08 01:45:26.28	23.24	15.17	-50.4	-52.3	14.9	0.00e+00	0	25	0	240123904	67	4353
2026-01-08 01:45:30.27	23.02	15.59	-50.4	-52.3	15.0	0.00e+00	0	25	0	247463936	67	4343
2026-01-08 01:45:34.25	22.79	16.01	-50.4	-52.2	14.9	0.00e+00	0	25	0	255852544	67	4327
2026-01-08 01:45:38.24	22.56	16.44	-50.3	-52.1	15.0	0.00e+00	0	24	0	263192576	67	4281
2026-01-08 01:45:42.22	22.31	16.87	-50.2	-52.0	14.9	0.00e+00	0	25	0	270532608	66	4454
2026-01-08 01:45:46.22	22.06	17.32	-50.2	-51.8	14.9	0.00e+00	0	25	0	277872640	66	4389
2026-01-08 01:45:50.22	21.80	17.77	-50.1	-51.8	15.0	0.00e+00	0	25	0	285212672	66	4364
2026-01-08 01:45:54.21	21.53	18.23	-50.2	-51.9	14.9	0.00e+00	0	25	0	292552704	66	4415
2026-01-08 01:45:58.19	21.26	18.70	-50.3	-52.0	14.9	0.00e+00	0	25	0	299892736	66	4448
2026-01-08 01:46:02.17	20.97	19.17	-50.4	-52.2	14.9	0.00e+00	0	25	0	307232768	66	4552
2026-01-08 01:46:06.16	20.68	19.66	-50.2	-52.0	14.9	0.00e+00	0	25	0	315621376	66	4454
2026-01-08 01:46:10.15	20.37	20.15	-50.4	-52.1	14.9	0.00e+00	0	25	0	322961408	66	4543
2026-01-08 01:46:14.14	20.05	20.65	-50.7	-52.5	14.7	0.00e+00	0	25	0	330301440	66	4750
2026-01-08 01:46:18.12	19.73	21.16	-51.1	-53.1	14.6	0.00e+00	0	25	0	337641472	67	4790
2026-01-08 01:46:22.12	19.39	21.68	-50.7	-52.6	14.8	0.00e+00	0	25	0	344981504	67	4498
2026-01-08 01:46:26.11	19.04	22.21	-50.6	-52.4	14.8	0.00e+00	0	25	0	352321536	67	4441
2026-01-08 01:46:30.09	18.67	22.75	-50.6	-52.4	14.9	0.00e+00	0	25	0	359661568	67	4413
2026-01-08 01:46:34.08	18.30	23.30	-51.0	-52.9	14.7	0.00e+00	0	25	0	367001600	67	4673
2026-01-08 01:46:38.06	17.91	23.86	-51.3	-53.3	14.5	0.00e+00	0	25	0	375390208	67	4892
2026-01-08 01:46:42.05	17.50	24.43	-51.7	-53.7	14.5	0.00e+00	0	24	0	382730240	68	4859
2026-01-08 01:46:46.05	17.08	25.02	-52.0	-54.2	14.4	0.00e+00	0	25	0	390070272	69	4838
2026-01-08 01:46:50.03	16.64	25.61	-52.2	-54.5	14.2	0.00e+00	0	25	0	397410304	69	5022
2026-01-08 01:46:54.03	16.18	26.22	-52.3	-54.5	14.2	0.00e+00	0	25	0	404750336	69	5033
2026-01-08 01:46:58.01	15.71	26.84	-52.7	-55.0	14.1	0.00e+00	0	25	0	412090368	70	5004
2026-01-08 01:47:01.99	15.21	27.46	-52.5	-54.7	14.3	0.00e+00	0	25	0	419430400	70	4848
2026-01-08 01:47:05.97	14.70	28.10	-52.3	-54.4	14.4	0.00e+00	0	25	0	427819008	70	4703
2026-01-08 01:47:09.96	14.16	28.76	-52.8	-55.2	14.1	0.00e+00	0	25	0	435159040	70	5115
2026-01-08 01:47:13.96	13.60	29.43	-52.8	-55.1	14.1	0.00e+00	0	25	0	442499072	71	4798
2026-01-08 01:47:17.96	13.02	30.11	-52.4	-54.6	14.4	0.00e+00	0	25	0	449839104	70	4776
2026-01-08 01:47:21.96	12.40	30.80	-52.7	-54.9	14.2	0.00e+00	0	25	0	457179136	70	4972
2026-01-08 01:47:25.95	11.77	31.51	-52.6	-54.8	14.2	0.00e+00	0	25	0	464519168	70	4893
2026-01-08 01:47:29.93	11.10	32.22	-52.6	-54.9	14.2	0.00e+00	0	25	0	471859200	70	4943
2026-01-08 01:47:33.91	10.40	32.95	-53.4	-56.0	13.8	0.00e+00	0	25	0	479199232	72	5019
2026-01-08 01:47:37.90	9.67	33.70	-53.0	-55.6	14.1	0.00e+00	0	25	0	487587840	72	4780
2026-01-08 01:47:41.88	8.91	34.45	-53.4	-56.4	13.6	0.00e+00	0	25	0	494927872	72	5270
2026-01-08 01:47:45.89	8.10	35.23	-54.1	-57.4	13.2	0.00e+00	0	25	0	502267904	73	5529
2026-01-08 01:47:49.89	7.25	36.01	-54.9	-58.8	12.5	0.00e+00	0	25	0	509607936	74	6158
2026-01-08 01:47:53.89	6.37	36.80	-54.6	-58.3	12.9	1.50e-06	0	25	0	516947968	75	5467
2026-01-08 01:47:57.87	5.44	37.61	-52.6	-55.1	14.2	0.00e+00	0	25	0	524288000	71	4772
2026-01-08 01:48:01.83	4.46	38.42	-52.3	-54.6	14.4	0.00e+00	0	25	0	531628032	70	4814
2026-01-08 01:48:05.83	3.43	39.24	-53.9	-57.2	13.2	0.00e+00	0	25	0	540016640	72	5761
2026-01-08 01:48:09.84	2.34	40.08	-53.8	-57.0	13.4	0.00e+00	0	25	0	547356672	73	5316
2026-01-08 01:48:13.83	1.20	40.92	-55.3	-60.1	11.6	5.30e-06	0	25	0	554696704	75	6755
2026-01-08 01:48:17.81	359.99	41.77	-54.9	-59.2	12.2	0.00e+00	0	25	0	562036736	76	5764
2026-01-08 01:48:21.81	358.72	42.62	-53.5	-56.5	13.7	0.00e+00	0	25	0	569376768	73	5028
2026-01-08 01:48:25.80	357.38	43.47	-52.8	-55.3	14.3	0.00e+00	0	25	0	576716800	72	4645
2026-01-08 01:48:29.79	355.96	44.33	-53.0	-55.6	14.1	0.00e+00	0	25	0	584056832	72	4782
2026-01-08 01:48:33.77	354.47	45.18	-54.0	-57.0	13.5	0.00e+00	0	25	0	592445440	73	5283
2026-01-08 01:48:37.74	352.90	46.02	-52.9	-55.5	14.2	0.00e+00	0	25	0	599785472	72	4709
2026-01-08 01:48:41.73	351.23	46.86	-53.2	-56.3	13.6	0.00e+00	0	25	0	607125504	71	5502
2026-01-08 01:48:45.73	349.47	47.69	-52.1	-54.3	14.6	0.00e+00	0	25	0	614465536	70	4641
2026-01-08 01:48:49.72	347.62	48.50	-52.9	-55.7	13.9	0.00e+00	0	25	0	621805568	71	5153
2026-01-08 01:48:53.71	345.67	49.29	-52.8	-55.5	14.0	0.00e+00	0	25	0	629145600	71	5024
2026-01-08 01:48:57.71	343.61	50.06	-51.0	-52.9	14.9	0.00e+00	0	25	0	636485632	68	4406
2026-01-08 01:49:01.70	341.45	50.80	-51.1	-52.9	14.9	0.00e+00	0	25	0	643825664	68	4441
2026-01-08 01:49:05.70	339.17	51.51	-51.1	-53.2	14.6	0.00e+00	0	25	0	652214272	67	4866
2026-01-08 01:49:09.67	336.81	52.17	-51.6	-53.9	14.6	0.00e+00	0	25	0	659554304	69	4660
2026-01-08 01:49:13.67	334.32	52.80	-52.3	-55.0	14.1	0.00e+00	0	25	0	666894336	69	5284
2026-01-08 01:49:17.68	331.72	53.37	-50.1	-51.9	15.0	0.00e+00	0	25	0	674234368	66	4409
2026-01-08 01:49:21.67	329.04	53.88	-51.0	-53.2	14.5	0.00e+00	0	25	0	681574400	67	4830
2026-01-08 01:49:25.67	326.25	54.34	-51.2	-53.6	14.4	0.00e+00	0	25	0	688914432	67	5090
2026-01-08 01:49:29.66	323.39	54.72	-50.5	-52.7	14.8	0.00e+00	0	25	0	696254464	67	4585
2026-01-08 01:49:33.62	320.48	55.04	-50.1	-52.1	15.0	0.00e+00	0	25	0	704643072	66	4498
2026-01-08 01:49:37.60	317.50	55.28	-48.9	-50.7	15.1	0.00e+00	0	25	0	711983104	63	4575
2026-01-08 01:49:41.52	314.52	55.44	-49.3	-51.2	15.0	0.00e+00	0	25	0	719323136	64	4564
2026-01-08 01:49:45.50	311.47	55.52	-49.2	-50.9	15.0	0.00e+00	0	25	0	726663168	63	4702
2026-01-08 01:49:49.50	308.39	55.53	-48.7	-50.4	15.4	0.00e+00	0	25	0	734003200	64	4148
2026-01-08 01:49:53.49	305.33	55.45	-49.4	-51.2	15.1	0.00e+00	0	25	0	741343232	64	4563
2026-01-08 01:49:57.48	302.29	55.29	-49.2	-51.0	15.2	0.00e+00	0	25	0	748683264	64	4462
2026-01-08 01:50:01.47	299.30	55.06	-49.0	-50.7	15.2	0.00e+00	0	25	0	756023296	64	4340
2026-01-08 01:50:05.46	296.36	54.75	-48.4	-50.0	15.2	0.00e+00	0	25	0	764411904	62	4479
2026-01-08 01:50:09.44	293.50	54.37	-48.1	-49.6	15.3	0.00e+00	0	25	0	771751936	62	4280
2026-01-08 01:50:13.43	290.71	53.92	-48.6	-50.2	15.1	0.00e+00	0	25	0	779091968	62	4556
2026-01-08 01:50:17.43	288.01	53.41	-49.1	-50.7	15.3	0.00e+00	0	25	0	786432000	64	4329
2026-01-08 01:50:21.43	285.41	52.84	-51.2	-53.3	14.6	0.00e+00	0	25	0	793772032	67	4876
2026-01-08 01:50:25.42	282.92	52.22	-50.8	-52.7	14.9	0.00e+00	0	25	0	801112064	67	4552
2026-01-08 01:50:29.40	280.54	51.56	-52.7	-55.2	14.1	0.00e+00	0	25	0	808452096	70	5113
2026-01-08 01:50:33.39	278.26	50.85	-51.6	-53.7	14.6	0.00e+00	0	25	0	816840704	68	4847
2026-01-08 01:50:37.37	276.09	50.12	-51.8	-54.0	14.5	0.00e+00	0	25	0	824180736	69	4731
2026-01-08 01:50:41.36	274.03	49.35	-51.6	-53.7	14.5	0.00e+00	0	25	0	831520768	68	4851
2026-01-08 01:50:45.35	272.06	48.56	-52.9	-55.4	14.0	0.00e+00	0	25	0	838860800	70	5235
2026-01-08 01:50:49.32	270.21	47.75	-53.0	-55.4	14.2	0.00e+00	0	25	0	846200832	71	4952
2026-01-08 01:50:53.32	268.44	46.92	-56.6	-62.6	10.1	2.14e-04	0	25	0	853540864	78	7613
2026-01-08 01:50:57.31	266.76	46.08	-55.6	-59.5	12.4	9.90e-06	0	25	0	860880896	77	5649
2026-01-08 01:51:01.30	265.18	45.23	-54.2	-57.0	13.6	0.00e+00	0	25	0	868220928	74	5025
2026-01-08 01:51:05.28	263.68	44.38	-52.5	-54.6	14.6	0.00e+00	0	25	0	876609536	71	4527
2026-01-08 01:51:09.26	262.25	43.52	-54.4	-57.5	13.3	0.00e+00	0	25	0	883949568	73	5626
2026-01-08 01:51:13.24	260.91	42.67	-55.1	-59.0	12.5	0.00e+00	0	25	0	891289600	75	5973
2026-01-08 01:51:17.25	259.62	41.81	-54.5	-58.0	13.0	0.00e+00	0	25	0	898629632	74	5596
2026-01-08 01:51:21.26	258.40	40.96	-53.4	-56.2	13.7	0.00e+00	0	25	0	905969664	72	5130
2026-01-08 01:51:25.25	257.25	40.12	-54.6	-58.3	12.8	7.00e-07	0	25	0	913309696	74	5849
2026-01-08 01:51:29.25	256.16	39.28	-53.8	-56.8	13.8	0.00e+00	0	25	0	920649728	74	4898
2026-01-08 01:51:33.22	255.13	38.45	-53.9	-56.8	13.6	0.00e+00	0	25	0	927989760	73	5217
2026-01-08 01:51:37.20	254.14	37.64	-53.9	-56.8	13.5	0.00e+00	0	25	0	936378368	72	5522
2026-01-08 01:51:41.17	253.21	36.84	-54.2	-57.6	13.2	0.00e+00	0	25	0	943718400	74	5374
2026-01-08 01:51:45.16	252.32	36.04	-53.6	-56.5	13.7	0.00e+00	0	25	0	951058432	73	4998
2026-01-08 01:51:49.14	251.47	35.26	-54.2	-57.3	13.3	0.00e+00	0	25	0	958398464	73	5514
2026-01-08 01:51:53.13	250.66	34.48	-53.9	-56.7	13.9	0.00e+00	0	25	0	965738496	74	4831
2026-01-08 01:51:57.13	249.89	33.72	-52.4	-54.4	14.5	0.00e+00	0	25	0	973078528	70	4659
2026-01-08 01:52:01.12	249.15	32.98	-53.3	-55.7	14.0	0.00e+00	0	25	0	980418560	71	5107
2026-01-08 01:52:05.12	248.45	32.24	-53.6	-56.2	13.8	0.00e+00	0	25	0	988807168	72	5149
2026-01-08 01:52:09.11	247.78	31.52	-54.2	-57.3	13.3	0.00e+00	0	25	0	996147200	73	5494
2026-01-08 01:52:13.11	247.13	30.81	-54.1	-57.2	13.5	0.00e+00	0	25	0	1003487232	74	5123
2026-01-08 01:52:17.12	246.52	30.11	-52.4	-54.5	14.6	0.00e+00	0	25	0	1010827264	71	4490
2026-01-08 01:52:21.13	245.92	29.42	-52.7	-54.9	14.4	0.00e+00	0	25	0	1018167296	71	4672
2026-01-08 01:52:25.14	245.36	28.75	-53.4	-55.9	13.9	0.00e+00	0	25	0	1025507328	71	5275
2026-01-08 01:52:29.13	244.82	28.10	-52.8	-55.0	14.5	0.00e+00	0	25	0	1033895936	72	4476
2026-01-08 01:52:33.12	244.30	27.45	-51.6	-53.4	14.8	0.00e+00	0	25	0	1041235968	69	4438
2026-01-08 01:52:37.11	243.80	26.82	-51.8	-53.8	14.6	0.00e+00	0	25	0	1048576000	69	4612
2026-01-08 01:52:41.08	243.33	26.20	-52.3	-54.2	14.4	0.00e+00	0	25	0	1055916032	69	4829
2026-01-08 01:52:45.06	242.87	25.60	-53.0	-55.0	14.3	0.00e+00	0	25	0	1063256064	71	4753
2026-01-08 01:52:49.05	242.43	25.00	-51.8	-53.5	14.9	0.00e+00	0	25	0	1070596096	70	4214
2026-01-08 01:52:53.04	242.00	24.42	-52.0	-53.8	14.6	0.00e+00	0	25	0	1077936128	69	4646
2026-01-08 01:52:57.03	241.60	23.84	-52.3	-54.1	14.5	0.00e+00	0	25	0	1085276160	69	4806
2026-01-08 01:53:01.03	241.20	23.28	-52.3	-54.1	14.5	0.00e+00	0	25	0	1093664768	69	4802
2026-01-08 01:53:05.04	240.82	22.72	-53.5	-55.8	14.1	0.00e+00	0	25	0	1101004800	72	4883
2026-01-08 01:53:09.03	240.45	22.18	-53.3	-55.5	14.1	0.00e+00	0	25	0	1108344832	72	4739
2026-01-08 01:53:13.03	240.10	21.65	-52.9	-54.9	14.5	0.00e+00	0	25	0	1115684864	72	4413
2026-01-08 01:53:17.03	239.76	21.12	-53.4	-55.7	14.1	0.00e+00	0	25	0	1123024896	72	4822
2026-01-08 01:53:21.02	239.43	20.61	-53.2	-55.4	14.2	0.00e+00	0	25	0	1130364928	72	4676
2026-01-08 01:53:25.03	239.11	20.10	-51.9	-53.6	14.8	0.00e+00	0	25	0	1137704960	70	4276
2026-01-08 01:53:29.02	238.80	19.61	-51.2	-52.8	15.0	0.00e+00	0	25	0	1146093568	69	4125
2026-01-08 01:53:32.99	238.50	19.13	-51.7	-53.5	14.8	0.00e+00	0	25	0	1153433600	69	4452
2026-01-08 01:53:36.98	238.21	18.65	-52.5	-54.5	14.4	0.00e+00	0	25	0	1160773632	70	4731
2026-01-08 01:53:40.98	237.93	18.18	-52.8	-54.8	14.3	0.00e+00	0	25	0	1168113664	71	4624
2026-01-08 01:53:44.96	237.67	17.72	-53.2	-55.4	14.0	0.00e+00	0	25	0	1175453696	71	4958
2026-01-08 01:53:48.95	237.40	17.27	-53.3	-55.6	13.9	0.00e+00	0	25	0	1182793728	71	5079
2026-01-08 01:53:52.94	237.15	16.82	-53.1	-55.2	14.3	0.00e+00	0	25	0	1190133760	72	4588
2026-01-08 01:53:56.93	236.90	16.38	-53.2	-55.5	14.1	0.00e+00	0	25	0	1198522368	72	4725
2026-01-08 01:54:00.91	236.67	15.95	-53.2	-55.4	14.2	0.00e+00	0	25	0	1205862400	72	4684
2026-01-08 01:54:04.91	236.43	15.53	-52.9	-55.1	14.3	0.00e+00	0	25	0	1213202432	72	4495
2026-01-08 01:54:08.91	236.21	15.11	-53.1	-55.3	14.2	0.00e+00	0	25	0	1220542464	72	4647
2026-01-08 01:54:12.91	235.99	14.70	-53.1	-55.2	14.3	0.00e+00	0	25	0	1227882496	72	4586
2026-01-08 01:54:16.89	235.78	14.30	-53.2	-55.5	14.1	0.00e+00	0	25	0	1235222528	72	4726
2026-01-08 01:54:20.88	235.57	13.90	-53.2	-55.5	14.1	0.00e+00	0	25	0	1242562560	72	4709
2026-01-08 01:54:24.89	235.37	13.50	-53.2	-55.4	14.1	0.00e+00	0	25	0	1249902592	72	4688
2026-01-08 01:54:28.87	235.18	13.12	-53.5	-55.9	13.8	0.00e+00	0	25	0	1258291200	72	4957
2026-01-08 01:54:32.87	234.99	12.74	-53.9	-56.5	13.6	0.00e+00	0	25	0	1265631232	73	5038
2026-01-08 01:54:36.87	234.80	12.36	-54.2	-56.9	13.4	0.00e+00	0	25	0	1272971264	73	5267
2026-01-08 01:54:40.84	234.62	11.99	-54.3	-57.2	13.3	0.00e+00	0	25	0	1280311296	74	5125
2026-01-08 01:54:44.82	234.45	11.63	-53.8	-56.4	13.7	0.00e+00	0	25	0	1287651328	74	4658
2026-01-08 01:54:48.80	234.28	11.27	-53.4	-55.8	13.9	0.00e+00	0	25	0	1294991360	73	4648
2026-01-08 01:54:52.79	234.11	10.92	-53.0	-55.3	14.2	0.00e+00	0	25	0	1302331392	72	4613
2026-01-08 01:54:56.76	233.95	10.57	-52.8	-55.0	14.3	0.00e+00	0	25	0	1309671424	72	4475
2026-01-08 01:55:00.77	233.79	10.22	-52.8	-55.0	14.3	0.00e+00	0	25	0	1318060032	72	4485
2026-01-08 01:55:04.77	233.64	9.88	-53.0	-55.3	14.1	0.00e+00	0	25	0	1325400064	72	4634
2026-01-08 01:55:08.76	233.49	9.55	-53.0	-55.3	14.1	0.00e+00	0	25	0	1332740096	72	4623
2026-01-08 01:55:12.76	233.34	9.22	-53.3	-55.8	13.8	0.00e+00	0	25	0	1340080128	72	4884
2026-01-08 01:55:16.77	233.20	8.89	-53.3	-55.7	13.8	0.00e+00	0	25	0	1347420160	72	4848
2026-01-08 01:55:20.76	233.06	8.56	-53.5	-56.0	13.6	0.00e+00	0	25	0	1354760192	72	5008
2026-01-08 01:55:24.77	232.93	8.24	-53.4	-55.9	13.7	0.00e+00	0	25	0	1363148800	72	4965
2026-01-08 01:55:28.75	232.79	7.93	-53.4	-55.9	13.7	0.00e+00	0	25	0	1370488832	72	4954
2026-01-08 01:55:32.74	232.66	7.62	-53.5	-56.1	13.6	0.00e+00	0	25	0	1377828864	72	5062
2026-01-08 01:55:36.74	232.54	7.31	-53.7	-56.4	13.3	0.00e+00	0	25	0	1385168896	72	5241
2026-01-08 01:55:40.73	232.41	7.00	-54.0	-57.1	13.1	0.00e+00	0	25	0	1392508928	73	5341
2026-01-08 01:55:44.73	232.29	6.70	-54.2	-57.4	12.8	0.00e+00	0	25	0	1399848960	73	5549
2026-01-08 01:55:48.70	232.17	6.40	-54.3	-57.5	12.7	0.00e+00	0	25	0	1407188992	73	5646
2026-01-08 01:55:52.70	232.06	6.11	-54.6	-58.0	12.5	1.50e-06	0	25	0	1414529024	74	5631
2026-01-08 01:55:56.68	231.95	5.82	-54.6	-58.1	12.4	0.00e+00	0	25	0	1422917632	74	5674
2026-01-08 01:56:00.68	231.84	5.53	-54.6	-58.3	12.2	7.00e-07	0	25	0	1430257664	74	5796
2026-01-08 01:56:04.68	231.73	5.24	-54.5	-58.1	12.3	7.00e-07	0	25	0	1437597696	74	5690
2026-01-08 01:56:08.68	231.62	4.96	-57.8	-72.2	3.8	1.60e-05	0	25	104	1444937728	80	20512
2026-01-08 01:56:12.69	231.52	4.68	-59.2	-75.3	3.8	1.49e+00	0	25	104	1444937728	83	24601
2026-01-08 01:56:16.69	231.42	4.40	-59.8	-75.9	3.8	1.49e+00	0	25	104	1444937728	84	24867
2026-01-08 01:56:20.70	231.32	4.13	-60.0	-76.1	3.8	1.49e+00	0	25	104	1444937728	85	23996
2026-01-08 01:56:24.69	231.22	3.85	-60.1	-76.2	3.8	1.49e+00	0	25	104	1444937728	85	24305
2026-01-08 01:56:28.69	231.12	3.59	-60.2	-76.3	3.8	1.49e+00	0	25	104	1444937728	85	24557
2026-01-08 01:56:32.70	231.03	3.32	-60.2	-76.3	3.8	1.49e+00	0	25	104	1444937728	85	24505
2026-01-08 01:56:36.69	230.94	3.05	-60.1	-76.2	3.8	1.49e+00	0	25	104	1444937728	85	24290
2026-01-08 01:56:40.68	230.85	2.79	-60.1	-76.1	3.8	1.49e+00	0	25	104	1444937728	85	24111
2026-01-08 01:56:44.68	230.76	2.53	-60.0	-76.1	3.8	1.49e+00	0	25	104	1444937728	85	23981
2026-01-08 01:56:48.67	230.68	2.28	-60.0	-76.1	3.8	1.49e+00	0	25	104	1444937728	85	23938
2026-01-08 01:56:52.66	230.59	2.02	-59.9	-76.1	3.8	1.49e+00	0	25	104	1444937728	85	23861

#Closed at: 2026-01-08 01:56:54
#Recorded file [1444 MB]: D:/lorett/data/31004_260108_044242.dat