passes_logs/2026/01/08/R3.2S_Murmansk/R3.2S_Murmansk__20260108_142306_FENGYUN_3D_rec.log

#Pass ID: 20260108_142306_FENGYUN 3D
#Satellite: FENGYUN 3D
#Configuration: FENGYUN 3D
#almurnet v.1.7.20251203
#Start time: 2026-01-08 14:23:08

#Version: 2.2.20231116
#Station: R3.2S_Murmansk
#Location: 33.079688 lon 68.888172 lat
#TLE: 1 43010U 17072A   26007.95585757  .00000190  00000+0  11182-3 0  9996
#TLE: 2 43010  98.9933 339.6629 0002109 121.4202 238.7180 14.19694196422257

#Time	Az	El	Level	Level2	SNR	BER	BlckErr	Temp	State	Recorded	gain1	gain2
2026-01-08 14:23:08.36	224.37	2.09	-57.3	-70.6	3.9	8.42e-01	0	23	0	0	81	16113
2026-01-08 14:23:11.38	224.62	2.25	-57.4	-70.7	3.9	8.42e-01	0	23	104	0	79	18133
2026-01-08 14:23:14.41	224.88	2.40	-57.8	-70.7	3.8	8.47e-01	0	23	104	0	80	17168
2026-01-08 14:23:17.44	225.14	2.56	-57.8	-70.7	3.8	8.45e-01	0	23	104	0	80	17172
2026-01-08 14:23:20.47	225.40	2.71	-57.8	-70.8	3.8	8.45e-01	0	23	104	0	80	17282
2026-01-08 14:23:23.49	225.67	2.87	-57.8	-70.8	3.8	8.46e-01	0	23	104	0	80	17333
2026-01-08 14:23:26.50	225.93	3.03	-57.8	-70.8	3.8	8.46e-01	0	23	104	0	80	17372
2026-01-08 14:23:29.53	226.20	3.19	-57.8	-70.5	3.8	8.46e-01	0	23	104	0	80	16835
2026-01-08 14:23:32.56	226.47	3.34	-57.8	-70.5	3.8	8.46e-01	0	23	104	0	80	16874
2026-01-08 14:23:35.58	226.75	3.50	-57.8	-70.8	3.8	8.45e-01	0	23	104	0	80	17444
2026-01-08 14:23:38.60	227.03	3.66	-57.8	-70.7	3.8	8.46e-01	0	23	104	0	80	17147
2026-01-08 14:23:41.63	227.31	3.82	-57.8	-70.2	3.8	8.45e-01	0	23	104	0	80	16245
2026-01-08 14:23:44.66	227.59	3.98	-57.7	-70.2	3.8	8.46e-01	0	23	104	0	80	16265
2026-01-08 14:23:47.69	227.88	4.14	-57.7	-70.0	3.8	8.47e-01	0	24	104	0	80	15867
2026-01-08 14:23:50.71	228.17	4.30	-57.8	-70.1	3.8	8.46e-01	0	24	104	0	80	16071
2026-01-08 14:23:53.74	228.46	4.46	-57.8	-70.3	3.8	8.45e-01	0	24	104	0	80	16406
2026-01-08 14:23:56.75	228.76	4.62	-57.5	-67.0	4.3	8.36e-01	0	24	0	0	80	11258
2026-01-08 14:23:59.78	229.05	4.78	-57.5	-67.2	4.2	8.35e-01	0	24	0	0	80	11537
2026-01-08 14:24:02.81	229.36	4.94	-56.9	-63.7	5.9	6.65e-01	0	24	0	1048576	80	7679
2026-01-08 14:24:05.83	229.66	5.11	-57.6	-67.3	4.2	8.08e-01	0	24	0	15728640	80	11683
2026-01-08 14:24:08.85	229.97	5.27	-49.5	-50.9	14.5	1.38e-02	0	24	0	25165824	65	4179
2026-01-08 14:24:11.88	230.28	5.43	-49.0	-50.4	14.7	0.00e+00	0	24	0	41943040	64	4181
2026-01-08 14:24:14.90	230.60	5.59	-49.4	-50.9	14.4	0.00e+00	0	24	0	59768832	64	4401
2026-01-08 14:24:17.92	230.92	5.76	-49.4	-50.8	14.4	0.00e+00	0	24	0	76546048	64	4386
2026-01-08 14:24:20.95	231.24	5.92	-49.2	-50.7	14.5	0.00e+00	0	24	0	93323264	64	4293
2026-01-08 14:24:23.98	231.56	6.09	-48.9	-50.3	14.7	0.00e+00	0	24	0	110100480	64	4121
2026-01-08 14:24:27.00	231.89	6.25	-48.7	-50.1	14.9	0.00e+00	0	24	0	126877696	64	4033
2026-01-08 14:24:30.03	232.23	6.41	-49.0	-50.3	14.7	0.00e+00	0	24	0	144703488	64	4141
2026-01-08 14:24:33.05	232.56	6.58	-48.7	-50.1	14.7	0.00e+00	0	24	0	161480704	63	4255
2026-01-08 14:24:36.06	232.90	6.74	-48.6	-49.9	14.8	0.00e+00	0	24	0	178257920	63	4172
2026-01-08 14:24:39.09	233.24	6.91	-48.7	-50.0	14.8	0.00e+00	0	24	0	195035136	63	4213
2026-01-08 14:24:42.12	233.59	7.07	-48.6	-50.0	14.8	0.00e+00	0	24	0	212860928	63	4210
2026-01-08 14:24:45.15	233.94	7.24	-48.7	-50.0	14.8	0.00e+00	0	24	0	229638144	63	4234
2026-01-08 14:24:48.18	234.30	7.41	-48.5	-49.8	14.9	0.00e+00	0	24	0	246415360	63	4115
2026-01-08 14:24:51.21	234.66	7.57	-48.2	-49.5	15.1	0.00e+00	0	24	0	263192576	63	3975
2026-01-08 14:24:54.24	235.02	7.74	-48.1	-49.4	14.9	0.00e+00	0	24	0	279969792	62	4161
2026-01-08 14:24:57.25	235.39	7.90	-48.1	-49.4	14.9	0.00e+00	0	24	0	297795584	62	4190
2026-01-08 14:25:00.28	235.76	8.07	-48.2	-49.5	14.9	0.00e+00	0	24	0	314572800	62	4200
2026-01-08 14:25:03.30	236.13	8.24	-48.4	-49.8	14.8	0.00e+00	0	24	0	331350016	62	4351
2026-01-08 14:25:06.33	236.51	8.40	-48.3	-49.7	14.8	0.00e+00	0	24	0	348127232	62	4296
2026-01-08 14:25:09.36	236.90	8.57	-48.2	-49.5	14.9	0.00e+00	0	24	0	365953024	62	4236
2026-01-08 14:25:12.38	237.28	8.73	-48.2	-49.5	14.9	0.00e+00	0	24	0	382730240	62	4237
2026-01-08 14:25:15.41	237.68	8.90	-48.2	-49.5	14.9	0.00e+00	0	24	0	399507456	62	4200
2026-01-08 14:25:18.43	238.07	9.07	-47.9	-49.2	15.1	0.00e+00	0	24	0	416284672	62	4079
2026-01-08 14:25:21.46	238.47	9.23	-47.9	-49.2	15.1	0.00e+00	0	24	0	434110464	62	4054
2026-01-08 14:25:24.48	238.88	9.40	-48.0	-49.2	15.0	0.00e+00	0	24	0	450887680	62	4089
2026-01-08 14:25:27.50	239.29	9.56	-48.1	-49.3	15.0	0.00e+00	0	24	0	467664896	62	4129
2026-01-08 14:25:30.53	239.70	9.73	-47.8	-49.1	15.1	0.00e+00	0	24	0	484442112	62	4018
2026-01-08 14:25:33.56	240.12	9.90	-47.1	-48.3	15.2	0.00e+00	0	24	0	502267904	60	4117
2026-01-08 14:25:36.58	240.54	10.06	-47.1	-48.3	15.2	0.00e+00	0	24	0	519045120	60	4129
2026-01-08 14:25:39.60	240.97	10.23	-47.3	-48.5	15.1	0.00e+00	0	24	0	535822336	60	4216
2026-01-08 14:25:42.63	241.40	10.39	-47.4	-48.6	15.0	0.00e+00	0	24	0	552599552	60	4279
2026-01-08 14:25:45.65	241.84	10.55	-47.4	-48.6	15.0	0.00e+00	0	24	0	569376768	60	4286
2026-01-08 14:25:48.69	242.28	10.72	-47.5	-48.7	15.0	0.00e+00	0	24	0	587202560	60	4317
2026-01-08 14:25:51.72	242.73	10.88	-47.5	-48.7	15.0	0.00e+00	0	24	0	603979776	60	4329
2026-01-08 14:25:54.74	243.18	11.05	-47.4	-48.7	15.0	0.00e+00	0	24	0	620756992	60	4296
2026-01-08 14:25:57.76	243.63	11.21	-47.4	-48.6	15.1	0.00e+00	0	24	0	637534208	60	4255
2026-01-08 14:26:00.79	244.10	11.37	-47.5	-48.7	15.0	0.00e+00	0	24	0	654311424	60	4321
2026-01-08 14:26:03.81	244.56	11.53	-47.3	-48.5	15.1	0.00e+00	0	24	0	672137216	60	4242
2026-01-08 14:26:06.84	245.03	11.69	-47.1	-48.3	15.2	0.00e+00	0	24	0	688914432	60	4125
2026-01-08 14:26:09.85	245.51	11.85	-47.0	-48.2	15.2	0.00e+00	0	24	0	705691648	60	4074
2026-01-08 14:26:12.87	245.99	12.01	-47.1	-48.3	15.2	0.00e+00	0	24	0	722468864	60	4129
2026-01-08 14:26:15.90	246.47	12.17	-46.9	-48.1	15.3	0.00e+00	0	24	0	739246080	60	4015
2026-01-08 14:26:18.93	246.97	12.33	-47.0	-48.1	15.2	0.00e+00	0	24	0	757071872	60	4048
2026-01-08 14:26:21.95	247.46	12.49	-47.1	-48.3	15.2	0.00e+00	0	24	0	773849088	60	4106
2026-01-08 14:26:24.98	247.96	12.64	-46.8	-48.0	15.4	0.00e+00	0	24	0	790626304	60	3960
2026-01-08 14:26:28.00	248.47	12.80	-46.8	-47.9	15.4	0.00e+00	0	24	0	807403520	60	3931
2026-01-08 14:26:31.03	248.98	12.95	-46.9	-48.0	15.3	0.00e+00	0	24	0	825229312	60	3996
2026-01-08 14:26:34.05	249.50	13.10	-46.9	-48.1	15.3	0.00e+00	0	24	0	842006528	60	4025
2026-01-08 14:26:37.07	250.02	13.25	-47.0	-48.2	15.2	0.00e+00	0	24	0	858783744	59	4313
2026-01-08 14:26:40.10	250.55	13.40	-47.1	-48.3	15.1	0.00e+00	0	24	0	875560960	59	4365
2026-01-08 14:26:43.12	251.08	13.55	-46.9	-48.1	15.2	0.00e+00	0	25	0	893386752	59	4257
2026-01-08 14:26:46.15	251.62	13.70	-46.9	-48.1	15.2	0.00e+00	0	24	0	910163968	59	4272
2026-01-08 14:26:49.17	252.16	13.85	-47.0	-48.2	15.2	0.00e+00	0	24	0	926941184	59	4297
2026-01-08 14:26:52.19	252.71	13.99	-46.9	-48.0	15.2	0.00e+00	0	24	0	943718400	59	4236
2026-01-08 14:26:55.22	253.26	14.14	-46.8	-48.0	15.2	0.00e+00	0	24	0	961544192	59	4227
2026-01-08 14:26:58.24	253.82	14.28	-46.8	-48.0	15.2	0.00e+00	0	24	0	978321408	59	4226
2026-01-08 14:27:01.27	254.38	14.42	-47.0	-48.1	15.2	0.00e+00	0	24	0	995098624	59	4289
2026-01-08 14:27:04.30	254.95	14.55	-46.7	-47.9	15.2	0.00e+00	0	24	0	1011875840	59	4177
2026-01-08 14:27:07.32	255.52	14.69	-46.6	-47.8	15.3	0.00e+00	0	24	0	1028653056	59	4116
2026-01-08 14:27:10.35	256.10	14.83	-46.7	-47.8	15.3	0.00e+00	0	24	0	1046478848	59	4138
2026-01-08 14:27:13.37	256.68	14.96	-46.7	-47.9	15.3	0.00e+00	0	24	0	1063256064	59	4154
2026-01-08 14:27:16.39	257.27	15.09	-46.7	-47.8	15.3	0.00e+00	0	25	0	1080033280	59	4137
2026-01-08 14:27:19.42	257.87	15.22	-46.8	-48.0	15.2	0.00e+00	0	24	0	1096810496	59	4197
2026-01-08 14:27:22.44	258.46	15.34	-46.7	-47.8	15.3	0.00e+00	0	24	0	1113587712	59	4139
2026-01-08 14:27:25.46	259.07	15.46	-46.8	-47.9	15.3	0.00e+00	0	24	0	1131413504	59	4183
2026-01-08 14:27:28.48	259.67	15.59	-46.6	-47.8	15.3	0.00e+00	0	24	0	1148190720	59	4133
2026-01-08 14:27:31.50	260.29	15.70	-46.7	-47.8	15.3	0.00e+00	0	25	0	1164967936	59	4142
2026-01-08 14:27:34.52	260.90	15.82	-46.4	-47.6	15.4	0.00e+00	0	25	0	1181745152	59	4015
2026-01-08 14:27:37.55	261.52	15.93	-46.7	-47.8	15.3	0.00e+00	0	24	0	1198522368	59	4142
2026-01-08 14:27:40.57	262.15	16.04	-46.5	-47.6	15.4	0.00e+00	0	24	0	1216348160	59	4038
2026-01-08 14:27:43.60	262.78	16.15	-46.5	-47.6	15.4	0.00e+00	0	24	0	1233125376	59	4026
2026-01-08 14:27:46.62	263.42	16.26	-46.3	-47.4	15.5	0.00e+00	0	24	0	1249902592	59	3957
2026-01-08 14:27:49.65	264.06	16.36	-46.4	-47.5	15.4	0.00e+00	0	24	0	1266679808	59	3973
2026-01-08 14:27:52.68	264.70	16.46	-46.2	-47.4	15.3	0.00e+00	0	24	0	1284505600	58	4154
2026-01-08 14:27:55.69	265.35	16.56	-46.3	-47.4	15.3	0.00e+00	0	24	0	1301282816	58	4183
2026-01-08 14:27:58.71	266.00	16.65	-46.3	-47.5	15.3	0.00e+00	0	25	0	1318060032	58	4198
2026-01-08 14:28:01.74	266.65	16.74	-46.3	-47.5	15.3	0.00e+00	0	25	0	1334837248	58	4203
2026-01-08 14:28:04.77	267.32	16.83	-46.4	-47.6	15.3	0.00e+00	0	25	0	1352663040	58	4253
2026-01-08 14:28:07.79	267.98	16.91	-46.4	-47.6	15.3	0.00e+00	0	25	0	1369440256	58	4267
2026-01-08 14:28:10.82	268.64	16.99	-46.3	-47.4	15.3	0.00e+00	0	24	0	1386217472	58	4191
2026-01-08 14:28:13.84	269.31	17.07	-46.4	-47.6	15.3	0.00e+00	0	24	0	1402994688	58	4245
2026-01-08 14:28:16.86	269.99	17.14	-46.6	-47.8	15.2	0.00e+00	0	24	0	1420820480	58	4345
2026-01-08 14:28:19.88	270.66	17.21	-46.6	-47.8	15.2	0.00e+00	0	24	0	1437597696	58	4341
2026-01-08 14:28:22.90	271.34	17.27	-46.3	-47.4	15.3	0.00e+00	0	24	0	1454374912	58	4191
2026-01-08 14:28:25.92	272.02	17.34	-46.2	-47.4	15.3	0.00e+00	0	25	0	1471152128	58	4152
2026-01-08 14:28:28.95	272.71	17.40	-46.5	-47.6	15.3	0.00e+00	0	24	0	1487929344	58	4279
2026-01-08 14:28:31.97	273.39	17.45	-46.4	-47.5	15.3	0.00e+00	0	25	0	1505755136	58	4225
2026-01-08 14:28:35.00	274.08	17.50	-46.3	-47.4	15.3	0.00e+00	0	24	0	1522532352	58	4188
2026-01-08 14:28:38.02	274.77	17.55	-46.3	-47.5	15.3	0.00e+00	0	25	0	1539309568	58	4201
2026-01-08 14:28:41.04	275.46	17.59	-46.2	-47.3	15.4	0.00e+00	0	24	0	1556086784	58	4139
2026-01-08 14:28:44.06	276.16	17.63	-46.3	-47.4	15.3	0.00e+00	0	25	0	1572864000	58	4193
2026-01-08 14:28:47.09	276.86	17.66	-46.4	-47.5	15.3	0.00e+00	0	24	0	1590689792	58	4216
2026-01-08 14:28:50.12	277.56	17.70	-46.4	-47.5	15.3	0.00e+00	0	25	0	1607467008	58	4242
2026-01-08 14:28:53.15	278.26	17.72	-46.1	-47.2	15.4	0.00e+00	0	24	0	1624244224	58	4075
2026-01-08 14:28:56.17	278.96	17.75	-46.2	-47.3	15.3	0.00e+00	0	24	0	1641021440	58	4136
2026-01-08 14:28:59.19	279.66	17.76	-46.2	-47.3	15.4	0.00e+00	0	24	0	1657798656	58	4139
2026-01-08 14:29:02.22	280.36	17.78	-46.3	-47.4	15.3	0.00e+00	0	24	0	1675624448	58	4176
2026-01-08 14:29:05.25	281.06	17.79	-46.4	-47.5	15.3	0.00e+00	0	25	0	1692401664	58	4225
2026-01-08 14:29:08.27	281.77	17.80	-46.4	-47.5	15.3	0.00e+00	0	25	0	1709178880	58	4236
2026-01-08 14:29:11.29	282.47	17.80	-46.4	-47.5	15.3	0.00e+00	0	24	0	1725956096	58	4229
2026-01-08 14:29:14.32	283.17	17.80	-46.4	-47.6	15.3	0.00e+00	0	24	0	1743781888	58	4257
2026-01-08 14:29:17.35	283.88	17.79	-46.5	-47.6	15.3	0.00e+00	0	24	0	1760559104	58	4270
2026-01-08 14:29:20.38	284.58	17.78	-46.5	-47.7	15.3	0.00e+00	0	24	0	1777336320	58	4302
2026-01-08 14:29:23.40	285.28	17.77	-46.8	-48.0	15.2	0.00e+00	0	24	0	1794113536	58	4443
2026-01-08 14:29:26.43	285.99	17.75	-46.7	-47.8	15.2	0.00e+00	0	24	0	1811939328	58	4386
2026-01-08 14:29:29.45	286.68	17.73	-46.6	-47.8	15.2	0.00e+00	0	24	0	1828716544	58	4350
2026-01-08 14:29:32.48	287.38	17.70	-46.6	-47.7	15.2	0.00e+00	0	24	0	1845493760	58	4334
2026-01-08 14:29:35.50	288.08	17.67	-46.3	-47.4	15.3	0.00e+00	0	24	0	1862270976	58	4171
2026-01-08 14:29:38.53	288.78	17.63	-46.5	-47.6	15.3	0.00e+00	0	24	0	1880096768	58	4265
2026-01-08 14:29:41.56	289.48	17.59	-46.6	-47.8	15.2	0.00e+00	0	24	0	1896873984	58	4341
2026-01-08 14:29:44.58	290.17	17.55	-46.6	-47.7	15.2	0.00e+00	0	24	0	1913651200	58	4333
2026-01-08 14:29:47.61	290.86	17.51	-46.6	-47.8	15.2	0.00e+00	0	25	0	1930428416	58	4343
2026-01-08 14:29:50.63	291.55	17.46	-46.8	-47.9	15.2	0.00e+00	0	24	0	1947205632	58	4436
2026-01-08 14:29:53.65	292.23	17.40	-46.7	-47.8	15.2	0.00e+00	0	25	0	1965031424	58	4387
2026-01-08 14:29:56.68	292.92	17.34	-46.9	-48.1	15.2	0.00e+00	0	24	0	1981808640	59	4270
2026-01-08 14:29:59.69	293.59	17.28	-47.1	-48.3	15.2	0.00e+00	0	25	0	1998585856	59	4371
2026-01-08 14:30:02.72	294.27	17.22	-47.0	-48.2	15.2	0.00e+00	0	24	0	2015363072	59	4311
2026-01-08 14:30:05.75	294.95	17.15	-46.7	-47.9	15.3	0.00e+00	0	24	0	2032140288	59	4164
2026-01-08 14:30:08.77	295.62	17.07	-46.8	-48.0	15.2	0.00e+00	0	24	0	2049966080	59	4217
2026-01-08 14:30:11.80	296.29	17.00	-46.8	-48.0	15.2	0.00e+00	0	24	0	2066743296	59	4209
2026-01-08 14:30:14.83	296.96	16.92	-46.9	-48.1	15.2	0.00e+00	0	25	0	2083520512	59	4248
2026-01-08 14:30:17.85	297.62	16.84	-47.0	-48.2	15.2	0.00e+00	0	24	0	2100297728	59	4312
2026-01-08 14:30:20.87	298.28	16.75	-47.0	-48.2	15.2	0.00e+00	0	24	0	2118123520	59	4305
2026-01-08 14:30:23.90	298.93	16.66	-47.0	-48.1	15.2	0.00e+00	0	25	0	2134900736	59	4282
2026-01-08 14:30:26.92	299.58	16.57	-46.8	-48.0	15.2	0.00e+00	0	24	0	2151677952	59	4219
2026-01-08 14:30:29.95	300.23	16.47	-46.9	-48.0	15.2	0.00e+00	0	24	0	2168455168	59	4225
2026-01-08 14:30:32.97	300.87	16.37	-46.9	-48.1	15.2	0.00e+00	0	24	0	2186280960	59	4268
2026-01-08 14:30:36.00	301.51	16.27	-46.9	-48.1	15.2	0.00e+00	0	24	0	2203058176	59	4246
2026-01-08 14:30:39.02	302.14	16.17	-46.9	-48.1	15.2	0.00e+00	0	24	0	2219835392	59	4268
2026-01-08 14:30:42.06	302.78	16.06	-46.9	-48.1	15.2	0.00e+00	0	25	0	2236612608	59	4250
2026-01-08 14:30:45.09	303.40	15.95	-47.0	-48.1	15.2	0.00e+00	0	24	0	2254438400	59	4285
2026-01-08 14:30:48.11	304.02	15.84	-47.1	-48.2	15.1	0.00e+00	0	25	0	2271215616	59	4338
2026-01-08 14:30:51.14	304.64	15.72	-47.0	-48.2	15.2	0.00e+00	0	24	0	2287992832	59	4307
2026-01-08 14:30:54.16	305.25	15.60	-47.3	-48.5	15.1	0.00e+00	0	24	0	2304770048	59	4459
2026-01-08 14:30:57.19	305.86	15.48	-47.2	-48.4	15.1	0.00e+00	0	25	0	2321547264	59	4404
2026-01-08 14:31:00.21	306.46	15.36	-47.0	-48.2	15.1	0.00e+00	0	25	0	2339373056	59	4319
2026-01-08 14:31:03.24	307.06	15.23	-47.2	-48.4	15.1	0.00e+00	0	25	0	2356150272	59	4396
2026-01-08 14:31:06.27	307.65	15.11	-47.2	-48.4	15.1	0.00e+00	0	24	0	2372927488	59	4422
2026-01-08 14:31:09.30	308.24	14.98	-47.1	-48.3	15.1	0.00e+00	0	24	0	2389704704	59	4379
2026-01-08 14:31:12.32	308.82	14.85	-47.3	-48.5	15.1	0.00e+00	0	25	0	2407530496	59	4463
2026-01-08 14:31:15.35	309.40	14.71	-47.2	-48.4	15.1	0.00e+00	0	24	0	2424307712	59	4400
2026-01-08 14:31:18.37	309.97	14.58	-47.1	-48.2	15.1	0.00e+00	0	24	0	2441084928	59	4335
2026-01-08 14:31:21.39	310.54	14.44	-47.2	-48.4	15.1	0.00e+00	0	24	0	2457862144	59	4405
2026-01-08 14:31:24.42	311.10	14.30	-47.3	-48.5	15.0	0.00e+00	0	25	0	2475687936	59	4489
2026-01-08 14:31:27.44	311.66	14.16	-47.1	-48.3	15.2	0.00e+00	0	24	0	2492465152	60	4114
2026-01-08 14:31:30.47	312.21	14.02	-46.9	-48.1	15.3	0.00e+00	0	25	0	2509242368	60	4009
2026-01-08 14:31:33.49	312.75	13.87	-47.0	-48.2	15.2	0.00e+00	0	24	0	2526019584	60	4073
2026-01-08 14:31:36.52	313.30	13.73	-47.2	-48.4	15.1	0.00e+00	0	25	0	2543845376	60	4155
2026-01-08 14:31:39.53	313.83	13.58	-47.2	-48.4	15.1	0.00e+00	0	24	0	2560622592	60	4167
2026-01-08 14:31:42.56	314.36	13.43	-47.3	-48.5	15.1	0.00e+00	0	25	0	2577399808	60	4225
2026-01-08 14:31:45.59	314.89	13.29	-47.2	-48.4	15.1	0.00e+00	0	24	0	2594177024	60	4192
2026-01-08 14:31:48.61	315.41	13.14	-47.3	-48.5	15.1	0.00e+00	0	24	0	2610954240	60	4197
2026-01-08 14:31:51.64	315.92	12.98	-47.2	-48.4	15.1	0.00e+00	0	24	0	2628780032	60	4190
2026-01-08 14:31:54.66	316.43	12.83	-47.3	-48.5	15.1	0.00e+00	0	24	0	2645557248	60	4198
2026-01-08 14:31:57.68	316.94	12.68	-47.3	-48.6	15.1	0.00e+00	0	24	0	2662334464	60	4245
2026-01-08 14:32:00.70	317.44	12.52	-47.4	-48.6	15.0	0.00e+00	0	24	0	2679111680	60	4263
2026-01-08 14:32:03.72	317.93	12.37	-47.4	-48.7	15.0	0.00e+00	0	25	0	2695888896	60	4293
2026-01-08 14:32:06.75	318.42	12.21	-47.5	-48.7	15.0	0.00e+00	0	25	0	2713714688	60	4323
2026-01-08 14:32:09.77	318.91	12.05	-47.3	-48.5	15.1	0.00e+00	0	25	0	2730491904	60	4231
2026-01-08 14:32:12.80	319.39	11.89	-47.2	-48.4	15.1	0.00e+00	0	25	0	2747269120	60	4193
2026-01-08 14:32:15.83	319.86	11.73	-47.4	-48.6	15.0	0.00e+00	0	25	0	2764046336	60	4271
2026-01-08 14:32:18.85	320.33	11.58	-47.4	-48.6	15.0	0.00e+00	0	25	0	2781872128	60	4287
2026-01-08 14:32:21.88	320.80	11.42	-47.4	-48.7	14.9	0.00e+00	0	25	0	2798649344	60	4306
2026-01-08 14:32:24.90	321.26	11.25	-47.4	-48.7	15.0	0.00e+00	0	24	0	2815426560	60	4300
2026-01-08 14:32:27.93	321.72	11.09	-47.5	-48.7	14.9	0.00e+00	0	25	0	2832203776	60	4334
2026-01-08 14:32:30.96	322.17	10.93	-47.6	-48.8	14.9	0.00e+00	0	25	0	2850029568	60	4385
2026-01-08 14:32:33.99	322.61	10.77	-47.7	-49.0	14.8	0.00e+00	0	24	0	2866806784	60	4459
2026-01-08 14:32:37.01	323.05	10.61	-47.9	-49.2	14.9	0.00e+00	0	25	0	2883584000	61	4312
2026-01-08 14:32:40.03	323.49	10.44	-48.2	-49.5	14.7	0.00e+00	0	25	0	2900361216	61	4458
2026-01-08 14:32:43.05	323.92	10.28	-47.9	-49.2	14.8	0.00e+00	0	24	0	2918187008	61	4312
2026-01-08 14:32:46.08	324.35	10.12	-47.8	-49.1	14.8	0.00e+00	0	25	0	2934964224	61	4270
2026-01-08 14:32:49.10	324.77	9.95	-47.8	-49.1	14.8	0.00e+00	0	25	0	2951741440	61	4271
2026-01-08 14:32:52.13	325.19	9.79	-47.8	-49.1	14.9	0.00e+00	0	25	0	2968518656	61	4260
2026-01-08 14:32:55.16	325.60	9.62	-47.9	-49.2	14.8	0.00e+00	0	25	0	2985295872	61	4307
2026-01-08 14:32:58.18	326.01	9.46	-47.9	-49.3	14.8	0.00e+00	0	25	0	3003121664	61	4343
2026-01-08 14:33:01.21	326.42	9.29	-47.8	-49.0	14.9	0.00e+00	0	25	0	3019898880	61	4238
2026-01-08 14:33:04.24	326.82	9.13	-48.1	-49.4	14.7	0.00e+00	0	25	0	3036676096	61	4414
2026-01-08 14:33:07.27	327.21	8.96	-47.9	-49.2	14.8	0.00e+00	0	25	0	3053453312	61	4296
2026-01-08 14:33:10.29	327.60	8.80	-48.1	-49.5	14.7	0.00e+00	0	25	0	3070230528	61	4442
2026-01-08 14:33:13.32	327.99	8.63	-48.4	-49.7	14.6	0.00e+00	0	25	0	3088056320	61	4579
2026-01-08 14:33:16.34	328.37	8.47	-48.5	-49.8	14.6	0.00e+00	0	25	0	3104833536	62	4384
2026-01-08 14:33:19.36	328.75	8.30	-48.6	-49.9	14.6	0.00e+00	0	25	0	3121610752	62	4430
2026-01-08 14:33:22.39	329.13	8.14	-48.8	-50.2	14.5	0.00e+00	0	25	0	3138387968	62	4568
2026-01-08 14:33:25.42	329.50	7.97	-48.7	-50.1	14.5	0.00e+00	0	25	0	3156213760	62	4498
2026-01-08 14:33:28.44	329.87	7.81	-48.7	-50.1	14.5	0.00e+00	0	25	0	3172990976	62	4516
2026-01-08 14:33:31.47	330.23	7.64	-48.8	-50.2	14.6	0.00e+00	0	25	0	3189768192	63	4292
2026-01-08 14:33:34.50	330.59	7.48	-48.7	-50.1	14.6	0.00e+00	0	25	0	3206545408	63	4279
2026-01-08 14:33:37.52	330.94	7.31	-48.9	-50.3	14.5	0.00e+00	0	25	0	3224371200	63	4356
2026-01-08 14:33:40.54	331.29	7.15	-48.7	-50.1	14.6	0.00e+00	0	25	0	3241148416	63	4284
2026-01-08 14:33:43.56	331.64	6.99	-48.9	-50.4	14.5	0.00e+00	0	25	0	3257925632	63	4396
2026-01-08 14:33:46.58	331.98	6.82	-48.8	-50.2	14.5	0.00e+00	0	25	0	3274702848	63	4332
2026-01-08 14:33:49.60	332.32	6.66	-49.3	-50.8	14.2	0.00e+00	0	25	0	3292528640	63	4602
2026-01-08 14:33:52.63	332.66	6.50	-48.9	-50.4	14.4	0.00e+00	0	25	0	3309305856	63	4397
2026-01-08 14:33:55.66	332.99	6.33	-49.0	-50.5	14.4	0.00e+00	0	25	0	3326083072	63	4461
2026-01-08 14:33:58.69	333.32	6.17	-49.0	-50.4	14.4	0.00e+00	0	25	0	3342860288	63	4426
2026-01-08 14:34:01.72	333.65	6.01	-49.4	-50.9	14.1	0.00e+00	0	25	0	3359637504	63	4679
2026-01-08 14:34:04.74	333.97	5.84	-49.4	-51.0	14.2	0.00e+00	0	25	0	3377463296	64	4442
2026-01-08 14:34:07.76	334.29	5.68	-49.5	-51.0	14.2	0.00e+00	0	25	0	3394240512	64	4469
2026-01-08 14:34:10.78	334.61	5.52	-49.4	-51.0	14.1	0.00e+00	0	25	0	3411017728	64	4444
2026-01-08 14:34:13.80	334.92	5.36	-49.1	-50.6	14.3	0.00e+00	0	25	0	3427794944	64	4275
2026-01-08 14:34:16.83	335.23	5.20	-49.3	-50.8	14.2	0.00e+00	0	25	0	3444572160	64	4362
2026-01-08 14:34:19.84	335.53	5.04	-49.0	-50.5	14.4	0.00e+00	0	25	0	3462397952	64	4223
2026-01-08 14:34:22.87	335.84	4.88	-58.9	-71.9	3.8	8.44e-01	0	25	104	3468689408	82	17611
2026-01-08 14:34:25.90	336.14	4.72	-59.8	-72.9	3.8	8.45e-01	0	25	104	3468689408	84	17506
2026-01-08 14:34:28.93	336.43	4.56	-60.1	-73.2	3.8	8.45e-01	0	25	104	3468689408	85	17217
2026-01-08 14:34:31.95	336.73	4.40	-60.3	-73.3	3.8	8.45e-01	0	25	104	3468689408	85	17458
2026-01-08 14:34:34.98	337.02	4.24	-60.3	-73.4	3.8	8.46e-01	0	25	104	3468689408	85	17616
2026-01-08 14:34:38.00	337.30	4.08	-60.4	-73.5	3.8	8.46e-01	0	25	104	3468689408	85	17832
2026-01-08 14:34:41.02	337.59	3.92	-60.5	-73.6	3.8	8.45e-01	0	25	104	3468689408	86	16927
2026-01-08 14:34:44.05	337.87	3.76	-60.4	-73.5	3.8	8.45e-01	0	25	104	3468689408	86	16737
2026-01-08 14:34:47.08	338.15	3.60	-60.3	-73.4	3.8	8.46e-01	0	25	104	3468689408	86	16682
2026-01-08 14:34:50.11	338.43	3.45	-60.3	-73.4	3.8	8.44e-01	0	25	104	3468689408	86	16606
2026-01-08 14:34:53.14	338.70	3.29	-60.3	-73.4	3.8	8.45e-01	0	25	104	3468689408	86	16530
2026-01-08 14:34:56.16	338.97	3.13	-60.2	-73.3	3.8	8.45e-01	0	25	104	3468689408	86	16451
2026-01-08 14:34:59.18	339.24	2.98	-60.2	-73.3	3.8	8.46e-01	0	25	104	3468689408	86	16457
2026-01-08 14:35:02.21	339.50	2.82	-60.2	-73.3	3.8	8.44e-01	0	25	104	3468689408	86	16397
2026-01-08 14:35:05.24	339.76	2.67	-60.2	-73.3	3.8	8.45e-01	0	25	104	3468689408	86	16355
2026-01-08 14:35:08.26	340.02	2.51	-60.1	-73.2	3.8	8.46e-01	0	25	104	3468689408	86	16257
2026-01-08 14:35:11.29	340.28	2.36	-60.1	-73.2	3.8	8.46e-01	0	25	104	3468689408	86	16224
2026-01-08 14:35:14.32	340.54	2.20	-60.1	-73.2	3.8	8.46e-01	0	25	104	3468689408	86	16155
2026-01-08 14:35:17.35	340.79	2.05	-60.1	-73.2	3.8	8.45e-01	0	25	104	3468689408	86	16140

#Closed at: 2026-01-08 14:35:20
#Recorded file [3468 MB]: D:/lorett/data/31004_260108_172308.dat