passes_logs/2026/01/08/R3.2S_Murmansk/R3.2S_Murmansk__20260108_060255_FENGYUN_3D_rec.log

#Pass ID: 20260108_060255_FENGYUN 3D
#Satellite: FENGYUN 3D
#Configuration: FENGYUN 3D
#almurnet v.1.7.20251203
#Start time: 2026-01-08 06:02:55

#Version: 2.2.20231116
#Station: R3.2S_Murmansk
#Location: 33.079688 lon 68.888172 lat
#TLE: 1 43010U 17072A   26007.95585757  .00000190  00000+0  11182-3 0  9996
#TLE: 2 43010  98.9933 339.6629 0002109 121.4202 238.7180 14.19694196422257

#Time	Az	El	Level	Level2	SNR	BER	BlckErr	Temp	State	Recorded	gain1	gain2
2026-01-08 06:02:55.67	47.71	1.98	-57.3	-70.3	3.8	8.46e-01	0	23	0	0	81	15418
2026-01-08 06:02:59.68	47.48	2.22	-57.3	-70.2	3.8	8.44e-01	0	23	104	0	79	17115
2026-01-08 06:03:03.67	47.24	2.45	-57.3	-70.2	3.8	8.46e-01	0	23	104	0	79	17206
2026-01-08 06:03:07.66	47.00	2.69	-57.3	-70.3	3.8	8.46e-01	0	23	104	0	79	17336
2026-01-08 06:03:11.65	46.76	2.92	-57.3	-70.3	3.8	8.45e-01	0	23	104	0	79	17331
2026-01-08 06:03:15.63	46.51	3.16	-57.3	-70.3	3.8	8.46e-01	0	23	104	0	79	17413
2026-01-08 06:03:19.64	46.26	3.40	-57.3	-70.0	3.8	8.45e-01	0	23	104	0	79	16780
2026-01-08 06:03:23.65	46.00	3.64	-57.3	-70.2	3.8	8.45e-01	0	23	104	0	79	17126
2026-01-08 06:03:27.64	45.74	3.88	-57.3	-70.2	3.8	8.45e-01	0	23	104	0	79	17122
2026-01-08 06:03:31.64	45.47	4.13	-57.2	-70.3	3.8	8.45e-01	0	24	104	0	79	17303
2026-01-08 06:03:35.65	45.20	4.37	-57.2	-69.1	3.8	8.46e-01	0	24	104	0	79	15122
2026-01-08 06:03:39.64	44.92	4.62	-56.8	-65.4	4.6	8.24e-01	0	24	0	0	79	9923
2026-01-08 06:03:43.64	44.64	4.87	-55.8	-61.1	7.4	1.11e-01	0	24	0	12582912	78	6364
2026-01-08 06:03:47.64	44.36	5.12	-56.8	-64.6	5.1	7.97e-01	0	24	0	29360128	79	9007
2026-01-08 06:03:51.65	44.07	5.38	-52.8	-55.3	12.0	5.37e-01	0	24	0	49283072	72	4616
2026-01-08 06:03:55.66	43.77	5.63	-49.1	-50.6	14.4	0.00e+00	0	24	0	71303168	64	4249
2026-01-08 06:03:59.66	43.47	5.89	-49.0	-50.5	14.5	0.00e+00	0	24	0	94371840	64	4195
2026-01-08 06:04:03.64	43.16	6.14	-48.9	-50.4	14.5	0.00e+00	0	24	0	116391936	64	4171
2026-01-08 06:04:07.63	42.85	6.40	-48.6	-50.0	14.6	0.00e+00	0	24	0	138412032	63	4213
2026-01-08 06:04:11.62	42.53	6.66	-48.8	-50.3	14.5	0.00e+00	0	24	0	161480704	63	4346
2026-01-08 06:04:15.61	42.20	6.93	-48.8	-50.2	14.5	0.00e+00	0	24	0	183500800	63	4329
2026-01-08 06:04:19.59	41.87	7.19	-48.7	-50.2	14.5	0.00e+00	0	24	0	206569472	63	4294
2026-01-08 06:04:23.59	41.54	7.46	-48.5	-49.9	14.7	0.00e+00	0	24	0	228589568	63	4185
2026-01-08 06:04:27.60	41.19	7.73	-48.2	-49.6	14.9	0.00e+00	0	24	0	251658240	63	4016
2026-01-08 06:04:31.58	40.84	7.99	-48.4	-49.7	14.8	0.00e+00	0	24	0	273678336	63	4094
2026-01-08 06:04:35.58	40.48	8.27	-48.3	-49.7	14.7	0.00e+00	0	24	0	295698432	62	4296
2026-01-08 06:04:39.57	40.12	8.54	-48.2	-49.5	14.7	0.00e+00	0	24	0	318767104	62	4241
2026-01-08 06:04:43.56	39.75	8.81	-48.1	-49.4	14.6	0.00e+00	0	24	0	340787200	62	4184
2026-01-08 06:04:47.55	39.37	9.09	-48.0	-49.3	14.3	0.00e+00	0	24	0	363855872	62	4135
2026-01-08 06:04:51.55	38.98	9.37	-47.9	-49.2	14.4	0.00e+00	0	24	0	385875968	62	4066
2026-01-08 06:04:55.55	38.59	9.65	-47.7	-49.0	14.9	0.00e+00	0	24	0	407896064	61	4212
2026-01-08 06:04:59.56	38.18	9.94	-47.7	-49.0	14.7	0.00e+00	0	24	0	430964736	61	4209
2026-01-08 06:05:03.55	37.77	10.22	-47.6	-48.9	14.9	0.00e+00	0	24	0	452984832	61	4176
2026-01-08 06:05:07.54	37.35	10.51	-47.6	-48.8	14.9	0.00e+00	0	24	0	476053504	61	4138
2026-01-08 06:05:11.53	36.93	10.80	-47.5	-48.7	15.0	0.00e+00	0	24	0	498073600	61	4075
2026-01-08 06:05:15.53	36.49	11.09	-47.5	-48.8	15.0	0.00e+00	0	24	0	521142272	61	4100
2026-01-08 06:05:19.52	36.04	11.38	-47.6	-48.9	15.0	0.00e+00	0	24	0	543162368	61	4157
2026-01-08 06:05:23.52	35.59	11.67	-47.6	-48.8	15.0	0.00e+00	0	24	0	566231040	61	4119
2026-01-08 06:05:27.53	35.12	11.97	-47.4	-48.7	15.1	0.00e+00	0	24	0	588251136	61	4053
2026-01-08 06:05:31.53	34.65	12.27	-47.3	-48.5	15.1	0.00e+00	0	24	0	611319808	61	3996
2026-01-08 06:05:35.51	34.16	12.56	-47.3	-48.5	15.2	0.00e+00	0	24	0	633339904	61	4000
2026-01-08 06:05:39.50	33.67	12.86	-47.0	-48.2	15.2	0.00e+00	0	24	0	655360000	60	4069
2026-01-08 06:05:43.50	33.17	13.16	-46.8	-48.0	15.3	0.00e+00	0	24	0	678428672	60	3967
2026-01-08 06:05:47.48	32.65	13.47	-47.0	-48.3	15.0	0.00e+00	0	24	0	700448768	59	4347
2026-01-08 06:05:51.48	32.13	13.77	-47.0	-48.2	15.0	0.00e+00	0	24	0	723517440	59	4330
2026-01-08 06:05:55.49	31.59	14.08	-47.0	-48.2	15.1	0.00e+00	0	24	0	745537536	59	4338
2026-01-08 06:05:59.49	31.04	14.39	-46.9	-48.1	15.1	0.00e+00	0	24	0	768606208	59	4273
2026-01-08 06:06:03.48	30.48	14.69	-46.7	-47.9	15.2	0.00e+00	0	25	0	790626304	59	4188
2026-01-08 06:06:07.47	29.90	15.00	-46.7	-47.9	15.2	0.00e+00	0	24	0	812646400	59	4176
2026-01-08 06:06:11.47	29.32	15.31	-46.7	-47.9	15.2	0.00e+00	0	24	0	835715072	59	4171
2026-01-08 06:06:15.45	28.72	15.62	-46.7	-47.9	15.2	0.00e+00	0	25	0	857735168	59	4171
2026-01-08 06:06:19.44	28.11	15.94	-46.6	-47.8	15.3	0.00e+00	0	24	0	880803840	59	4102
2026-01-08 06:06:23.43	27.49	16.25	-46.5	-47.6	15.3	0.00e+00	0	24	0	902823936	59	4037
2026-01-08 06:06:27.43	26.85	16.56	-46.2	-47.3	15.3	0.00e+00	0	24	0	924844032	58	4121
2026-01-08 06:06:31.43	26.20	16.87	-46.4	-47.5	15.2	0.00e+00	0	25	0	947912704	58	4236
2026-01-08 06:06:35.43	25.54	17.19	-46.1	-47.2	15.3	0.00e+00	0	24	0	969932800	58	4073
2026-01-08 06:06:39.42	24.86	17.50	-46.2	-47.3	15.3	0.00e+00	0	25	0	993001472	58	4132
2026-01-08 06:06:43.41	24.16	17.81	-46.3	-47.4	15.3	0.00e+00	0	25	0	1015021568	58	4172
2026-01-08 06:06:47.41	23.46	18.13	-46.0	-47.2	15.4	0.00e+00	0	25	0	1037041664	58	4060
2026-01-08 06:06:51.39	22.74	18.44	-46.1	-47.2	15.3	0.00e+00	0	25	0	1060110336	58	4076
2026-01-08 06:06:55.39	22.00	18.75	-45.8	-46.9	15.4	0.00e+00	0	25	0	1082130432	58	3949
2026-01-08 06:06:59.39	21.24	19.06	-45.8	-46.9	15.5	0.00e+00	0	25	0	1105199104	58	3932
2026-01-08 06:07:03.39	20.47	19.37	-45.9	-47.0	15.4	0.00e+00	0	24	0	1127219200	58	3984
2026-01-08 06:07:07.37	19.69	19.67	-45.8	-46.9	15.3	0.00e+00	0	25	0	1149239296	57	4163
2026-01-08 06:07:11.35	18.89	19.97	-45.6	-46.7	15.4	0.00e+00	0	25	0	1172307968	57	4093
2026-01-08 06:07:15.32	18.08	20.28	-45.3	-46.4	15.5	0.00e+00	0	25	0	1194328064	57	3938
2026-01-08 06:07:19.32	17.24	20.57	-45.4	-46.5	15.5	0.00e+00	0	25	0	1217396736	57	3963
2026-01-08 06:07:23.32	16.39	20.87	-45.1	-46.2	15.4	0.00e+00	0	25	0	1239416832	56	4075
2026-01-08 06:07:27.32	15.52	21.16	-45.2	-46.3	15.4	0.00e+00	0	25	0	1262485504	56	4100
2026-01-08 06:07:31.32	14.64	21.45	-45.2	-46.3	15.4	0.00e+00	0	25	0	1284505600	56	4106
2026-01-08 06:07:35.32	13.74	21.74	-45.4	-46.5	15.3	0.00e+00	0	25	0	1306525696	56	4236
2026-01-08 06:07:39.32	12.82	22.02	-45.3	-46.4	15.4	0.00e+00	0	25	0	1329594368	56	4171
2026-01-08 06:07:43.30	11.89	22.29	-45.1	-46.2	15.4	0.00e+00	0	25	0	1351614464	56	4077
2026-01-08 06:07:47.30	10.94	22.56	-45.3	-46.4	15.4	0.00e+00	0	25	0	1374683136	56	4179
2026-01-08 06:07:51.31	9.97	22.83	-45.1	-46.2	15.4	0.00e+00	0	25	0	1396703232	56	4064
2026-01-08 06:07:55.31	8.98	23.09	-45.1	-46.1	15.4	0.00e+00	0	25	0	1419771904	56	4050
2026-01-08 06:07:59.30	7.98	23.34	-45.1	-46.1	15.4	0.00e+00	0	25	0	1441792000	56	4044
2026-01-08 06:08:03.29	6.97	23.58	-44.8	-45.9	15.5	0.00e+00	0	25	0	1464860672	56	3935
2026-01-08 06:08:07.29	5.93	23.82	-44.6	-45.7	15.4	0.00e+00	0	25	0	1486880768	55	4056
2026-01-08 06:08:11.27	4.89	24.05	-44.7	-45.8	15.4	0.00e+00	0	25	0	1509949440	55	4113
2026-01-08 06:08:15.26	3.83	24.26	-44.7	-45.8	15.4	0.00e+00	0	25	0	1531969536	55	4124
2026-01-08 06:08:19.27	2.74	24.48	-44.6	-45.6	15.5	0.00e+00	0	25	0	1553989632	55	4029
2026-01-08 06:08:23.25	1.66	24.68	-44.4	-45.4	15.5	0.00e+00	0	25	0	1577058304	55	3956
2026-01-08 06:08:27.24	0.55	24.87	-44.4	-45.5	15.5	0.00e+00	0	25	0	1599078400	55	3977
2026-01-08 06:08:31.23	359.43	25.05	-44.3	-45.3	15.6	0.00e+00	0	25	0	1622147072	55	3895
2026-01-08 06:08:35.23	358.30	25.21	-44.3	-45.4	15.4	0.00e+00	0	25	0	1644167168	54	4149
2026-01-08 06:08:39.21	357.16	25.37	-44.7	-45.7	15.3	0.00e+00	0	25	0	1666187264	54	4333
2026-01-08 06:08:43.22	356.00	25.52	-44.4	-45.5	15.4	0.00e+00	0	25	0	1689255936	54	4208
2026-01-08 06:08:47.21	354.84	25.65	-44.4	-45.4	15.4	0.00e+00	0	25	0	1711276032	54	4177
2026-01-08 06:08:51.22	353.66	25.77	-44.4	-45.5	15.4	0.00e+00	0	25	0	1734344704	54	4195
2026-01-08 06:08:55.22	352.47	25.88	-44.6	-45.7	15.3	0.00e+00	0	25	0	1756364800	54	4319
2026-01-08 06:08:59.21	351.29	25.98	-44.4	-45.5	15.4	0.00e+00	0	25	0	1779433472	54	4210
2026-01-08 06:09:03.21	350.09	26.06	-44.7	-45.8	15.4	0.00e+00	0	25	0	1801453568	54	4351
2026-01-08 06:09:07.20	348.88	26.13	-44.8	-45.8	15.3	0.00e+00	0	25	0	1823473664	54	4384
2026-01-08 06:09:11.20	347.67	26.18	-44.7	-45.7	15.3	0.00e+00	0	25	0	1846542336	54	4339
2026-01-08 06:09:15.17	346.47	26.22	-44.1	-45.1	15.5	0.00e+00	0	25	0	1868562432	54	4043
2026-01-08 06:09:19.16	345.26	26.25	-44.2	-45.2	15.4	0.00e+00	0	25	0	1891631104	54	4094
2026-01-08 06:09:23.15	344.04	26.26	-44.6	-45.6	15.4	0.00e+00	0	25	0	1913651200	54	4291
2026-01-08 06:09:27.13	342.83	26.26	-44.6	-45.7	15.4	0.00e+00	0	25	0	1935671296	54	4306
2026-01-08 06:09:31.13	341.61	26.24	-44.5	-45.6	15.4	0.00e+00	0	25	0	1958739968	54	4248
2026-01-08 06:09:35.13	340.40	26.21	-44.1	-45.1	15.5	0.00e+00	0	25	0	1980760064	54	4047
2026-01-08 06:09:39.12	339.19	26.17	-44.5	-45.6	15.4	0.00e+00	0	25	0	2003828736	54	4248
2026-01-08 06:09:43.11	337.98	26.11	-44.6	-45.7	15.4	0.00e+00	0	25	0	2025848832	54	4318
2026-01-08 06:09:47.10	336.78	26.04	-44.4	-45.4	15.4	0.00e+00	0	25	0	2047868928	54	4172
2026-01-08 06:09:51.10	335.58	25.95	-44.4	-45.4	15.4	0.00e+00	0	25	0	2070937600	54	4184
2026-01-08 06:09:55.10	334.39	25.85	-44.1	-45.2	15.5	0.00e+00	0	25	0	2092957696	54	4054
2026-01-08 06:09:59.10	333.21	25.74	-44.5	-45.6	15.4	0.00e+00	0	25	0	2116026368	54	4257
2026-01-08 06:10:03.09	332.04	25.61	-44.6	-45.7	15.3	0.00e+00	0	25	0	2138046464	54	4312
2026-01-08 06:10:07.06	330.88	25.48	-44.2	-45.3	15.4	0.00e+00	0	25	0	2160066560	54	4118
2026-01-08 06:10:11.04	329.73	25.33	-44.3	-45.4	15.4	0.00e+00	0	25	0	2183135232	54	4165
2026-01-08 06:10:15.03	328.59	25.17	-44.2	-45.3	15.4	0.00e+00	0	25	0	2205155328	54	4114
2026-01-08 06:10:19.01	327.47	25.00	-44.6	-45.7	15.4	0.00e+00	0	25	0	2228224000	54	4295
2026-01-08 06:10:23.01	326.35	24.81	-44.6	-45.6	15.4	0.00e+00	0	25	0	2250244096	54	4281
2026-01-08 06:10:27.00	325.25	24.62	-44.4	-45.4	15.4	0.00e+00	0	25	0	2272264192	54	4189
2026-01-08 06:10:30.99	324.16	24.42	-44.2	-45.3	15.4	0.00e+00	0	25	0	2295332864	54	4110
2026-01-08 06:10:34.99	323.09	24.20	-44.3	-45.4	15.4	0.00e+00	0	25	0	2317352960	54	4148
2026-01-08 06:10:38.99	322.02	23.98	-44.4	-45.5	15.4	0.00e+00	0	25	0	2340421632	54	4211
2026-01-08 06:10:42.99	320.98	23.75	-44.6	-45.7	15.4	0.00e+00	0	25	0	2362441728	54	4320
2026-01-08 06:10:46.99	319.95	23.51	-44.5	-45.6	15.4	0.00e+00	0	25	0	2385510400	54	4267
2026-01-08 06:10:50.98	318.94	23.26	-44.3	-45.4	15.4	0.00e+00	0	25	0	2407530496	54	4149
2026-01-08 06:10:54.97	317.94	23.01	-44.7	-45.7	15.3	0.00e+00	0	25	0	2429550592	54	4325
2026-01-08 06:10:58.96	316.96	22.75	-44.6	-45.7	15.3	0.00e+00	0	25	0	2452619264	54	4297
2026-01-08 06:11:02.96	316.00	22.49	-44.8	-45.9	15.4	0.00e+00	0	25	0	2474639360	55	4163
2026-01-08 06:11:06.96	315.05	22.21	-44.5	-45.5	15.5	0.00e+00	0	25	0	2497708032	55	4000
2026-01-08 06:11:10.95	314.12	21.94	-44.6	-45.7	15.5	0.00e+00	0	25	0	2519728128	55	4055
2026-01-08 06:11:14.94	313.21	21.65	-45.0	-46.1	15.4	0.00e+00	0	25	0	2542796800	55	4252
2026-01-08 06:11:18.91	312.31	21.37	-44.9	-46.0	15.4	0.00e+00	0	25	0	2564816896	55	4203
2026-01-08 06:11:22.88	311.44	21.08	-44.9	-45.9	15.3	0.00e+00	0	25	0	2586836992	55	4178
2026-01-08 06:11:26.88	310.58	20.79	-45.2	-46.3	15.3	0.00e+00	0	25	0	2609905664	55	4377
2026-01-08 06:11:30.87	309.73	20.49	-45.3	-46.3	15.3	0.00e+00	0	25	0	2631925760	55	4387
2026-01-08 06:11:34.88	308.90	20.19	-45.6	-46.7	15.3	0.00e+00	0	25	0	2654994432	56	4319
2026-01-08 06:11:38.88	308.08	19.88	-45.8	-46.9	15.3	0.00e+00	0	25	0	2677014528	56	4412
2026-01-08 06:11:42.88	307.28	19.58	-45.8	-46.9	15.3	0.00e+00	0	25	0	2700083200	57	4177
2026-01-08 06:11:46.87	306.50	19.27	-45.6	-46.7	15.4	0.00e+00	0	25	0	2722103296	57	4070
2026-01-08 06:11:50.87	305.73	18.96	-45.7	-46.8	15.4	0.00e+00	0	25	0	2744123392	57	4115
2026-01-08 06:11:54.87	304.98	18.65	-45.6	-46.7	15.4	0.00e+00	0	25	0	2767192064	57	4078
2026-01-08 06:11:58.87	304.25	18.34	-45.7	-46.8	15.3	0.00e+00	0	25	0	2789212160	57	4114
2026-01-08 06:12:02.87	303.52	18.03	-46.0	-47.1	15.2	0.00e+00	0	25	0	2812280832	57	4273
2026-01-08 06:12:06.88	302.82	17.71	-46.0	-47.2	15.2	0.00e+00	0	25	0	2834300928	57	4296
2026-01-08 06:12:10.87	302.13	17.40	-45.9	-47.0	15.3	0.00e+00	0	25	0	2857369600	57	4235
2026-01-08 06:12:14.85	301.45	17.09	-46.1	-47.2	15.2	0.00e+00	0	25	0	2879389696	57	4309
2026-01-08 06:12:18.82	300.80	16.77	-46.3	-47.4	15.2	0.00e+00	0	25	0	2901409792	57	4430
2026-01-08 06:12:22.82	300.15	16.46	-46.5	-47.6	15.2	0.00e+00	0	25	0	2924478464	58	4274
2026-01-08 06:12:26.83	299.51	16.15	-46.6	-47.8	15.1	0.00e+00	0	25	0	2946498560	58	4356
2026-01-08 06:12:30.84	298.89	15.83	-46.7	-47.8	15.1	0.00e+00	0	25	0	2969567232	58	4377
2026-01-08 06:12:34.84	298.28	15.52	-46.7	-47.8	15.1	0.00e+00	0	25	0	2991587328	58	4387
2026-01-08 06:12:38.84	297.68	15.21	-46.7	-47.8	15.1	0.00e+00	0	25	0	3014656000	58	4387
2026-01-08 06:12:42.85	297.10	14.90	-46.8	-48.0	15.1	0.00e+00	0	25	0	3036676096	58	4483
2026-01-08 06:12:46.85	296.53	14.59	-46.7	-47.8	15.2	0.00e+00	0	25	0	3059744768	59	4143
2026-01-08 06:12:50.85	295.97	14.28	-47.0	-48.2	15.1	0.00e+00	0	25	0	3081764864	59	4299
2026-01-08 06:12:54.85	295.42	13.97	-47.0	-48.2	15.1	0.00e+00	0	25	0	3104833536	59	4308
2026-01-08 06:12:58.86	294.88	13.66	-47.1	-48.3	15.0	0.00e+00	0	25	0	3126853632	59	4353
2026-01-08 06:13:02.86	294.36	13.36	-47.2	-48.4	15.0	0.00e+00	0	25	0	3149922304	59	4423
2026-01-08 06:13:06.85	293.85	13.05	-47.3	-48.5	15.0	0.00e+00	0	25	0	3171942400	59	4472
2026-01-08 06:13:10.85	293.34	12.75	-47.3	-48.5	15.0	0.00e+00	0	25	0	3193962496	60	4222
2026-01-08 06:13:14.85	292.85	12.45	-47.4	-48.6	15.0	0.00e+00	0	25	0	3217031168	60	4280
2026-01-08 06:13:18.83	292.37	12.15	-47.3	-48.5	15.0	0.00e+00	0	25	0	3239051264	60	4231
2026-01-08 06:13:22.82	291.90	11.86	-47.4	-48.6	15.0	0.00e+00	0	25	0	3262119936	60	4255
2026-01-08 06:13:26.81	291.44	11.56	-47.4	-48.6	15.0	0.00e+00	0	25	0	3284140032	60	4253
2026-01-08 06:13:30.79	290.99	11.27	-47.3	-48.5	15.0	0.00e+00	0	25	0	3306160128	60	4230
2026-01-08 06:13:34.79	290.54	10.98	-47.7	-48.9	14.9	0.00e+00	0	25	0	3329228800	60	4417
2026-01-08 06:13:38.79	290.11	10.69	-47.7	-49.0	14.8	0.00e+00	0	25	0	3351248896	60	4445
2026-01-08 06:13:42.80	289.68	10.40	-47.7	-48.9	14.8	0.00e+00	0	25	0	3374317568	60	4435
2026-01-08 06:13:46.80	289.26	10.11	-47.9	-49.2	14.7	0.00e+00	0	25	0	3396337664	60	4547
2026-01-08 06:13:50.79	288.85	9.83	-47.9	-49.1	14.8	0.00e+00	0	25	0	3419406336	61	4276
2026-01-08 06:13:54.80	288.45	9.54	-47.9	-49.2	14.8	0.00e+00	0	25	0	3441426432	61	4293
2026-01-08 06:13:58.80	288.05	9.26	-48.0	-49.3	14.8	0.00e+00	0	25	0	3464495104	61	4359
2026-01-08 06:14:02.81	287.67	8.98	-48.3	-49.7	14.6	0.00e+00	0	25	0	3486515200	61	4552
2026-01-08 06:14:06.82	287.29	8.70	-48.3	-49.7	14.7	0.00e+00	0	25	0	3509583872	62	4305
2026-01-08 06:14:10.81	286.92	8.43	-48.5	-49.9	14.6	0.00e+00	0	25	0	3531603968	62	4418
2026-01-08 06:14:14.80	286.55	8.16	-48.4	-49.7	14.7	0.00e+00	0	25	0	3553624064	62	4333
2026-01-08 06:14:18.80	286.20	7.88	-48.4	-49.8	14.6	0.00e+00	0	25	0	3576692736	62	4348
2026-01-08 06:14:22.78	285.85	7.62	-48.4	-49.8	14.7	0.00e+00	0	25	0	3598712832	62	4344
2026-01-08 06:14:26.76	285.51	7.35	-48.5	-49.8	14.6	0.00e+00	0	25	0	3621781504	62	4388
2026-01-08 06:14:30.74	285.17	7.08	-48.6	-50.0	14.5	0.00e+00	0	25	0	3643801600	62	4448
2026-01-08 06:14:34.74	284.84	6.82	-48.5	-49.9	14.6	0.00e+00	0	25	0	3665821696	62	4416
2026-01-08 06:14:38.74	284.52	6.56	-48.6	-49.9	14.6	0.00e+00	0	25	0	3688890368	62	4426
2026-01-08 06:14:42.74	284.20	6.29	-48.6	-50.0	14.5	0.00e+00	0	25	0	3710910464	62	4465
2026-01-08 06:14:46.73	283.88	6.04	-48.9	-50.3	14.4	0.00e+00	0	25	0	3733979136	62	4620
2026-01-08 06:14:50.72	283.58	5.78	-49.0	-50.4	14.4	0.00e+00	0	25	0	3755999232	63	4431
2026-01-08 06:14:54.73	283.28	5.52	-48.9	-50.3	14.5	0.00e+00	0	25	0	3779067904	63	4359
2026-01-08 06:14:58.73	282.98	5.27	-49.0	-50.4	14.4	0.00e+00	0	25	0	3801088000	63	4421
2026-01-08 06:15:02.72	282.69	5.02	-54.1	-57.2	11.2	2.20e-06	0	25	0	3824156672	73	5444
2026-01-08 06:15:06.71	282.40	4.77	-59.0	-72.1	3.8	8.46e-01	0	25	104	3824156672	83	16914
2026-01-08 06:15:10.70	282.12	4.52	-59.7	-72.8	3.8	8.45e-01	0	25	104	3824156672	84	17317
2026-01-08 06:15:14.71	281.85	4.27	-60.1	-73.2	3.8	8.46e-01	0	25	104	3824156672	85	17115
2026-01-08 06:15:18.70	281.58	4.02	-60.3	-73.4	3.8	8.45e-01	0	25	104	3824156672	85	17637
2026-01-08 06:15:22.70	281.31	3.78	-60.4	-73.5	3.8	8.45e-01	0	25	104	3824156672	85	17687
2026-01-08 06:15:26.68	281.05	3.54	-60.4	-73.5	3.8	8.45e-01	0	25	104	3824156672	85	17705
2026-01-08 06:15:30.65	280.80	3.30	-60.3	-73.4	3.8	8.44e-01	0	25	104	3824156672	85	17556
2026-01-08 06:15:34.63	280.55	3.06	-60.1	-73.2	3.8	8.44e-01	0	25	104	3824156672	85	17236
2026-01-08 06:15:38.60	280.30	2.82	-60.1	-73.2	3.8	8.45e-01	0	25	104	3824156672	85	17108
2026-01-08 06:15:42.60	280.06	2.59	-60.1	-73.1	3.8	8.46e-01	0	25	104	3824156672	85	17021
2026-01-08 06:15:46.56	279.82	2.36	-60.0	-73.1	3.8	8.45e-01	0	25	104	3824156672	85	16997
2026-01-08 06:15:50.52	279.58	2.12	-60.0	-73.1	3.8	8.45e-01	0	25	104	3824156672	85	16907
2026-01-08 06:15:54.52	279.35	1.89	-60.0	-73.0	3.8	8.45e-01	0	25	104	3824156672	85	16850

#Closed at: 2026-01-08 06:15:54
#Recorded file [3824 MB]: D:/lorett/data/31004_260108_090255.dat