passes_logs/2026/01/08/R3.2S_Murmansk/R3.2S_Murmansk__20260108_204318_NOAA_20_JPSS-1_rec.log

#Pass ID: 20260108_204318_NOAA 20 (JPSS-1)
#Satellite: NOAA 20 (JPSS-1)
#Configuration: NOAA 20
#almurnet v.1.7.20251203
#Start time: 2026-01-08 20:43:18

#Version: 2.2.20231116
#Station: R3.2S_Murmansk
#Location: 33.079688 lon 68.888172 lat
#TLE: 1 43013U 17073A   26008.56343035  .00000133  00000+0  84205-4 0  9993
#TLE: 2 43013  98.7630 309.5710 0001731  48.5146 311.6178 14.19534569421822

#Time	Az	El	Level	Level2	SNR	BER	BlckErr	Temp	State	Recorded	gain1	gain2
2026-01-08 20:43:18.18	19.22	2.00	-57.4	-73.3	3.8	1.49e+00	0	22	0	0	81	22000
2026-01-08 20:43:21.09	19.55	2.11	-57.3	-73.3	3.8	1.49e+00	0	22	104	0	79	24568
2026-01-08 20:43:23.99	19.87	2.22	-57.3	-73.3	3.8	1.49e+00	0	23	104	0	79	24587
2026-01-08 20:43:26.88	20.20	2.32	-57.3	-73.3	3.8	1.49e+00	0	23	104	0	79	24610
2026-01-08 20:43:29.78	20.53	2.43	-57.3	-73.3	3.8	1.49e+00	0	23	104	0	79	24463
2026-01-08 20:43:32.69	20.86	2.53	-57.3	-73.3	3.8	1.49e+00	0	23	104	0	79	24474
2026-01-08 20:43:35.58	21.20	2.64	-57.3	-73.3	3.8	1.49e+00	0	23	104	0	79	24448
2026-01-08 20:43:38.48	21.54	2.74	-57.3	-73.2	3.8	1.49e+00	0	23	104	0	79	24142
2026-01-08 20:43:41.39	21.88	2.84	-57.3	-73.2	3.8	1.49e+00	0	23	104	0	79	24392
2026-01-08 20:43:44.29	22.22	2.95	-57.3	-73.2	3.8	1.49e+00	0	23	104	0	79	24354
2026-01-08 20:43:47.19	22.56	3.05	-57.3	-73.1	3.8	1.49e+00	0	23	104	0	79	24098
2026-01-08 20:43:50.08	22.91	3.15	-57.3	-73.2	3.8	1.49e+00	0	23	104	0	79	24197
2026-01-08 20:43:52.99	23.26	3.26	-57.3	-73.2	3.8	1.49e+00	0	23	104	0	79	24410
2026-01-08 20:43:55.89	23.61	3.36	-57.3	-73.3	3.8	1.49e+00	0	23	104	0	79	24622
2026-01-08 20:43:58.79	23.96	3.46	-57.3	-73.2	3.8	1.49e+00	0	23	104	0	79	24402
2026-01-08 20:44:01.70	24.32	3.56	-57.3	-73.3	3.8	1.49e+00	0	24	104	0	79	24605
2026-01-08 20:44:04.60	24.68	3.66	-57.3	-73.3	3.8	1.49e+00	0	24	104	0	79	24613
2026-01-08 20:44:07.50	25.04	3.76	-57.3	-73.3	3.8	1.49e+00	0	24	104	0	79	24525
2026-01-08 20:44:10.40	25.40	3.86	-57.3	-73.2	3.8	1.49e+00	0	24	104	0	79	24346
2026-01-08 20:44:13.30	25.77	3.95	-57.3	-73.1	3.8	1.49e+00	0	24	104	0	79	24029
2026-01-08 20:44:16.20	26.14	4.05	-57.3	-73.3	3.8	1.49e+00	0	24	104	0	79	24661
2026-01-08 20:44:19.09	26.51	4.15	-57.3	-73.2	3.8	1.49e+00	0	24	104	0	79	24394
2026-01-08 20:44:21.99	26.88	4.25	-57.3	-73.3	3.8	1.49e+00	0	24	104	0	79	24565
2026-01-08 20:44:24.90	27.25	4.34	-57.3	-73.3	3.8	1.49e+00	0	24	104	0	79	24483
2026-01-08 20:44:27.80	27.63	4.44	-57.3	-73.3	3.8	1.49e+00	0	24	104	0	79	24479
2026-01-08 20:44:30.69	28.01	4.53	-57.3	-71.9	3.8	1.49e+00	0	24	104	0	79	20796
2026-01-08 20:44:33.59	28.39	4.62	-57.3	-72.1	3.8	1.49e+00	0	24	104	0	79	21386
2026-01-08 20:44:36.49	28.78	4.72	-56.6	-64.4	7.2	3.08e-01	0	24	0	2097152	79	8780
2026-01-08 20:44:39.39	29.16	4.81	-55.4	-60.2	10.8	6.32e-04	0	24	0	7340032	77	6111
2026-01-08 20:44:42.28	29.55	4.90	-55.5	-60.4	10.6	4.58e-04	0	24	0	12582912	76	6629
2026-01-08 20:44:45.18	29.94	4.99	-56.3	-63.4	8.0	1.98e-02	0	24	0	18874368	77	8785
2026-01-08 20:44:48.09	30.34	5.08	-56.8	-69.7	4.1	5.98e-01	0	24	0	23068672	79	16205
2026-01-08 20:44:50.99	30.73	5.17	-57.3	-69.1	4.5	7.21e-01	13	24	0	29360128	79	15178
2026-01-08 20:44:53.89	31.13	5.26	-53.7	-56.7	13.3	0.00e+00	0	24	0	34603008	74	4827
2026-01-08 20:44:56.79	31.53	5.35	-53.7	-56.7	13.2	7.00e-07	0	24	0	39845888	73	5138
2026-01-08 20:44:59.69	31.93	5.44	-53.7	-56.6	13.2	0.00e+00	0	24	0	45088768	73	5070
2026-01-08 20:45:02.59	32.34	5.52	-53.7	-56.7	13.2	0.00e+00	0	24	0	50331648	73	5103
2026-01-08 20:45:05.49	32.75	5.61	-53.8	-56.8	13.2	0.00e+00	0	24	0	56623104	73	5178
2026-01-08 20:45:08.39	33.16	5.69	-53.8	-56.7	13.2	0.00e+00	0	24	0	61865984	73	5128
2026-01-08 20:45:11.28	33.57	5.77	-53.8	-56.7	13.3	0.00e+00	0	24	0	67108864	73	5137
2026-01-08 20:45:14.18	33.98	5.86	-53.9	-57.0	13.0	0.00e+00	0	24	0	72351744	73	5321
2026-01-08 20:45:17.08	34.40	5.94	-53.9	-56.9	13.1	0.00e+00	0	24	0	77594624	73	5230
2026-01-08 20:45:19.97	34.81	6.02	-53.8	-56.8	13.2	0.00e+00	0	24	0	82837504	73	5171
2026-01-08 20:45:22.87	35.24	6.10	-53.9	-56.9	13.1	0.00e+00	0	24	0	89128960	73	5267
2026-01-08 20:45:25.77	35.66	6.17	-53.9	-56.8	13.2	0.00e+00	0	24	0	94371840	73	5200
2026-01-08 20:45:28.68	36.09	6.25	-53.9	-56.9	13.1	0.00e+00	0	24	0	99614720	73	5249
2026-01-08 20:45:31.58	36.51	6.33	-53.9	-56.8	13.2	0.00e+00	0	24	0	104857600	73	5176
2026-01-08 20:45:34.47	36.94	6.40	-53.8	-56.7	13.3	0.00e+00	0	24	0	110100480	73	5157
2026-01-08 20:45:37.37	37.37	6.47	-53.8	-56.8	13.2	0.00e+00	0	24	0	115343360	73	5175
2026-01-08 20:45:40.27	37.81	6.55	-54.0	-57.0	13.1	0.00e+00	0	24	0	121634816	73	5299
2026-01-08 20:45:43.17	38.24	6.62	-54.0	-57.0	13.1	0.00e+00	0	24	0	126877696	73	5296
2026-01-08 20:45:46.07	38.68	6.69	-53.7	-56.6	13.4	0.00e+00	0	24	0	132120576	73	5043
2026-01-08 20:45:48.97	39.12	6.76	-53.6	-56.4	13.5	0.00e+00	0	24	0	137363456	73	4928
2026-01-08 20:45:51.87	39.56	6.83	-53.6	-56.4	13.5	0.00e+00	0	24	0	142606336	73	4936
2026-01-08 20:45:54.76	40.01	6.89	-53.7	-56.4	13.5	0.00e+00	0	24	0	148897792	73	4968
2026-01-08 20:45:57.66	40.45	6.96	-53.9	-56.7	13.3	0.00e+00	0	24	0	154140672	73	5159
2026-01-08 20:46:00.57	40.90	7.02	-54.0	-56.9	13.2	0.00e+00	0	24	0	159383552	73	5270
2026-01-08 20:46:03.47	41.35	7.08	-53.8	-56.7	13.3	0.00e+00	0	24	0	164626432	73	5101
2026-01-08 20:46:06.37	41.80	7.15	-53.8	-56.7	13.3	0.00e+00	0	24	0	169869312	73	5110
2026-01-08 20:46:09.27	42.26	7.21	-53.9	-56.7	13.3	0.00e+00	0	24	0	175112192	73	5150
2026-01-08 20:46:12.17	42.71	7.26	-53.8	-56.6	13.3	0.00e+00	0	24	0	181403648	73	5095
2026-01-08 20:46:15.08	43.17	7.32	-53.9	-56.8	13.2	0.00e+00	0	24	0	186646528	73	5208
2026-01-08 20:46:17.98	43.63	7.38	-54.1	-57.1	13.0	0.00e+00	0	24	0	191889408	73	5371
2026-01-08 20:46:20.87	44.09	7.43	-53.9	-56.7	13.3	0.00e+00	0	24	0	197132288	73	5159
2026-01-08 20:46:23.78	44.55	7.48	-53.8	-56.7	13.3	0.00e+00	0	24	0	202375168	73	5105
2026-01-08 20:46:26.68	45.01	7.54	-53.8	-56.7	13.3	0.00e+00	0	24	0	208666624	73	5105
2026-01-08 20:46:29.58	45.48	7.59	-53.8	-56.6	13.4	0.00e+00	0	24	0	213909504	73	5057
2026-01-08 20:46:32.48	45.95	7.63	-53.9	-56.8	13.3	0.00e+00	0	24	0	219152384	73	5171
2026-01-08 20:46:35.39	46.42	7.68	-53.9	-56.8	13.2	0.00e+00	0	24	0	224395264	73	5187
2026-01-08 20:46:38.29	46.89	7.73	-53.9	-56.7	13.3	0.00e+00	0	24	0	229638144	73	5158
2026-01-08 20:46:41.18	47.36	7.77	-53.6	-56.3	13.6	0.00e+00	0	24	0	235929600	73	4885
2026-01-08 20:46:44.08	47.83	7.81	-53.6	-56.3	13.6	0.00e+00	0	24	0	241172480	73	4877
2026-01-08 20:46:46.98	48.30	7.85	-53.6	-56.4	13.5	0.00e+00	0	24	0	246415360	73	4941
2026-01-08 20:46:49.88	48.78	7.89	-53.8	-56.7	13.3	0.00e+00	0	24	0	251658240	73	5136
2026-01-08 20:46:52.79	49.25	7.93	-53.8	-56.7	13.3	0.00e+00	0	24	0	256901120	73	5131
2026-01-08 20:46:55.69	49.73	7.96	-54.0	-57.0	13.1	0.00e+00	0	24	0	263192576	73	5339
2026-01-08 20:46:58.59	50.21	8.00	-54.2	-57.3	12.9	0.00e+00	0	24	0	268435456	73	5517
2026-01-08 20:47:01.48	50.69	8.03	-54.1	-57.2	13.0	0.00e+00	0	24	0	273678336	73	5443
2026-01-08 20:47:04.38	51.17	8.06	-54.1	-57.2	13.0	0.00e+00	0	24	0	278921216	73	5420
2026-01-08 20:47:07.28	51.65	8.09	-54.0	-57.0	13.1	0.00e+00	0	24	0	284164096	73	5299
2026-01-08 20:47:10.17	52.13	8.12	-54.0	-56.9	13.2	0.00e+00	0	24	0	289406976	73	5277
2026-01-08 20:47:13.07	52.61	8.14	-54.2	-57.3	12.9	0.00e+00	0	24	0	295698432	73	5492
2026-01-08 20:47:15.97	53.10	8.17	-54.3	-57.5	12.8	0.00e+00	0	24	0	300941312	73	5644
2026-01-08 20:47:18.87	53.58	8.19	-54.5	-57.8	12.7	0.00e+00	0	24	0	306184192	74	5514
2026-01-08 20:47:21.77	54.07	8.21	-54.3	-57.3	13.0	0.00e+00	0	24	0	311427072	74	5218
2026-01-08 20:47:24.67	54.56	8.23	-54.2	-57.2	13.1	0.00e+00	0	24	0	316669952	74	5119
2026-01-08 20:47:27.57	55.04	8.25	-54.0	-57.0	13.2	0.00e+00	0	24	0	322961408	74	5005
2026-01-08 20:47:30.47	55.53	8.26	-53.9	-56.8	13.4	0.00e+00	0	24	0	328204288	74	4903
2026-01-08 20:47:33.37	56.02	8.28	-53.9	-56.8	13.4	0.00e+00	0	24	0	333447168	74	4880
2026-01-08 20:47:36.28	56.51	8.29	-53.9	-56.8	13.4	0.00e+00	0	24	0	338690048	74	4914
2026-01-08 20:47:39.18	57.00	8.30	-53.9	-56.7	13.5	0.00e+00	0	24	0	343932928	74	4829
2026-01-08 20:47:42.07	57.48	8.31	-53.8	-56.6	13.5	0.00e+00	0	24	0	349175808	74	4782
2026-01-08 20:47:44.98	57.98	8.31	-53.7	-56.4	13.6	0.00e+00	0	24	0	355467264	74	4697
2026-01-08 20:47:47.88	58.46	8.32	-53.6	-56.3	13.6	0.00e+00	0	24	0	360710144	73	4882
2026-01-08 20:47:50.77	58.95	8.32	-53.6	-56.2	13.6	0.00e+00	0	24	0	365953024	73	4860
2026-01-08 20:47:53.68	59.44	8.32	-53.6	-56.3	13.6	0.00e+00	0	24	0	371195904	73	4880
2026-01-08 20:47:56.57	59.93	8.32	-53.4	-56.0	13.8	0.00e+00	0	24	0	376438784	73	4747
2026-01-08 20:47:59.47	60.42	8.32	-53.1	-55.5	13.9	0.00e+00	0	25	0	382730240	72	4730
2026-01-08 20:48:02.37	60.91	8.31	-52.9	-55.3	14.0	0.00e+00	0	24	0	387973120	72	4632
2026-01-08 20:48:05.26	61.40	8.31	-52.9	-55.2	14.1	0.00e+00	0	24	0	393216000	72	4571
2026-01-08 20:48:08.16	61.89	8.30	-53.1	-55.6	13.9	0.00e+00	0	24	0	398458880	72	4762
2026-01-08 20:48:11.06	62.38	8.29	-53.1	-55.6	13.9	0.00e+00	0	25	0	403701760	72	4797
2026-01-08 20:48:13.95	62.86	8.28	-53.2	-55.7	13.8	0.00e+00	0	25	0	408944640	72	4864
2026-01-08 20:48:16.86	63.35	8.26	-53.0	-55.4	14.0	0.00e+00	0	24	0	415236096	72	4686
2026-01-08 20:48:19.75	63.84	8.25	-52.8	-55.1	14.1	0.00e+00	0	24	0	420478976	72	4545
2026-01-08 20:48:22.66	64.33	8.23	-52.9	-55.3	14.0	0.00e+00	0	25	0	425721856	72	4606
2026-01-08 20:48:25.56	64.82	8.21	-53.0	-55.4	14.0	0.00e+00	0	24	0	430964736	72	4667
2026-01-08 20:48:28.45	65.30	8.19	-52.9	-55.3	14.1	0.00e+00	0	25	0	436207616	72	4600
2026-01-08 20:48:31.35	65.79	8.17	-52.9	-55.3	14.1	0.00e+00	0	24	0	442499072	72	4603
2026-01-08 20:48:34.25	66.27	8.15	-52.9	-55.3	14.0	0.00e+00	0	24	0	447741952	72	4644
2026-01-08 20:48:37.15	66.75	8.12	-53.1	-55.6	13.9	0.00e+00	0	24	0	452984832	72	4771
2026-01-08 20:48:40.05	67.24	8.10	-53.2	-55.7	13.7	0.00e+00	0	24	0	458227712	72	4868
2026-01-08 20:48:42.96	67.72	8.07	-53.2	-55.8	13.8	0.00e+00	0	25	0	463470592	72	4879
2026-01-08 20:48:45.86	68.20	8.04	-53.2	-55.8	13.7	0.00e+00	0	24	0	469762048	72	4886
2026-01-08 20:48:48.75	68.68	8.00	-53.2	-55.7	13.8	0.00e+00	0	24	0	475004928	72	4830
2026-01-08 20:48:51.65	69.16	7.97	-53.0	-55.4	13.9	0.00e+00	0	24	0	480247808	72	4705
2026-01-08 20:48:54.55	69.64	7.93	-52.9	-55.3	14.0	0.00e+00	0	24	0	485490688	72	4606
2026-01-08 20:48:57.44	70.12	7.90	-52.7	-55.1	14.2	0.00e+00	0	24	0	490733568	72	4495
2026-01-08 20:49:00.34	70.59	7.86	-52.8	-55.1	14.1	0.00e+00	0	24	0	495976448	72	4541
2026-01-08 20:49:03.24	71.07	7.82	-53.1	-55.7	13.8	0.00e+00	0	24	0	502267904	72	4816
2026-01-08 20:49:06.14	71.54	7.78	-53.4	-56.0	13.6	0.00e+00	0	24	0	507510784	72	5028
2026-01-08 20:49:09.04	72.01	7.73	-53.4	-56.1	13.5	0.00e+00	0	24	0	512753664	72	5085
2026-01-08 20:49:11.95	72.48	7.69	-53.2	-55.8	13.8	0.00e+00	0	24	0	517996544	72	4883
2026-01-08 20:49:14.85	72.95	7.64	-52.9	-55.3	14.0	0.00e+00	0	24	0	523239424	72	4621
2026-01-08 20:49:17.75	73.42	7.59	-52.8	-55.1	14.1	0.00e+00	0	24	0	529530880	72	4529
2026-01-08 20:49:20.65	73.89	7.54	-52.6	-54.9	14.1	0.00e+00	0	24	0	534773760	71	4672
2026-01-08 20:49:23.54	74.35	7.49	-52.5	-54.8	14.2	0.00e+00	0	24	0	540016640	71	4632
2026-01-08 20:49:26.44	74.81	7.44	-52.5	-54.7	14.2	0.00e+00	0	24	0	545259520	71	4593
2026-01-08 20:49:29.34	75.28	7.38	-52.6	-54.8	14.1	0.00e+00	0	24	0	550502400	71	4647
2026-01-08 20:49:32.23	75.73	7.33	-52.7	-55.0	14.0	0.00e+00	0	24	0	555745280	71	4750
2026-01-08 20:49:35.14	76.19	7.27	-52.6	-54.9	14.1	0.00e+00	0	24	0	562036736	71	4658
2026-01-08 20:49:38.03	76.65	7.21	-52.8	-55.2	13.9	0.00e+00	0	24	0	567279616	71	4859
2026-01-08 20:49:40.94	77.11	7.15	-52.8	-55.2	14.0	0.00e+00	0	24	0	572522496	71	4832
2026-01-08 20:49:43.83	77.56	7.09	-52.7	-55.1	14.0	0.00e+00	0	24	0	577765376	71	4793
2026-01-08 20:49:46.74	78.01	7.03	-52.6	-55.0	14.1	0.00e+00	0	24	0	583008256	71	4715
2026-01-08 20:49:49.64	78.46	6.96	-52.7	-55.2	14.0	0.00e+00	0	24	0	589299712	71	4816
2026-01-08 20:49:52.54	78.91	6.90	-53.0	-55.6	13.7	0.00e+00	0	24	0	594542592	71	5055
2026-01-08 20:49:55.44	79.35	6.83	-53.2	-55.8	13.5	0.00e+00	0	24	0	599785472	71	5196
2026-01-08 20:49:58.34	79.79	6.76	-53.5	-56.3	13.3	0.00e+00	0	24	0	605028352	72	5188
2026-01-08 20:50:01.24	80.24	6.70	-53.3	-55.9	13.6	0.00e+00	0	24	0	610271232	72	4964
2026-01-08 20:50:04.14	80.68	6.63	-53.1	-55.7	13.7	0.00e+00	0	24	0	616562688	72	4842
2026-01-08 20:50:07.04	81.11	6.55	-53.0	-55.6	13.8	0.00e+00	0	24	0	621805568	72	4795
2026-01-08 20:50:09.94	81.55	6.48	-53.3	-55.9	13.6	0.00e+00	0	24	0	627048448	72	4974
2026-01-08 20:50:12.84	81.98	6.41	-53.3	-55.9	13.6	0.00e+00	0	24	0	632291328	72	4977
2026-01-08 20:50:15.74	82.41	6.33	-53.5	-56.3	13.3	0.00e+00	0	24	0	637534208	72	5193
2026-01-08 20:50:18.64	82.84	6.26	-54.0	-57.1	13.0	0.00e+00	0	24	0	642777088	73	5361
2026-01-08 20:50:21.54	83.27	6.18	-54.4	-57.9	12.5	0.00e+00	0	24	0	649068544	74	5592
2026-01-08 20:50:24.43	83.69	6.10	-54.5	-58.1	12.3	0.00e+00	0	24	0	654311424	74	5721
2026-01-08 20:50:27.33	84.11	6.02	-54.4	-57.9	12.4	7.00e-07	0	24	0	659554304	74	5581
2026-01-08 20:50:30.24	84.54	5.94	-54.2	-57.6	12.7	0.00e+00	0	24	0	664797184	74	5345
2026-01-08 20:50:33.13	84.95	5.86	-54.3	-57.6	12.6	0.00e+00	0	24	0	670040064	74	5398
2026-01-08 20:50:36.03	85.37	5.78	-53.9	-57.0	13.0	0.00e+00	0	24	0	675282944	74	5028
2026-01-08 20:50:38.93	85.78	5.69	-54.0	-57.2	12.9	0.00e+00	0	24	0	681574400	74	5134
2026-01-08 20:50:41.82	86.19	5.61	-54.3	-57.9	12.5	0.00e+00	0	24	0	686817280	74	5539
2026-01-08 20:50:44.72	86.60	5.52	-54.7	-58.7	11.8	6.10e-06	0	24	0	692060160	74	6094
2026-01-08 20:50:47.61	87.01	5.44	-55.0	-59.2	11.5	2.21e-05	0	24	0	697303040	75	6121
2026-01-08 20:50:50.52	87.41	5.35	-55.2	-59.7	11.1	1.07e-04	0	24	0	702545920	75	6480
2026-01-08 20:50:53.41	87.81	5.26	-55.1	-59.5	11.2	7.32e-05	0	24	0	708837376	75	6300
2026-01-08 20:50:56.31	88.21	5.17	-55.0	-59.3	11.4	4.42e-05	0	24	0	714080256	75	6151
2026-01-08 20:50:59.21	88.61	5.08	-54.9	-59.1	11.6	3.35e-05	0	25	0	719323136	75	5995
2026-01-08 20:51:02.11	89.00	4.99	-57.7	-73.6	3.8	6.67e-01	0	24	104	724566016	80	23974
2026-01-08 20:51:05.01	89.40	4.90	-58.5	-74.6	3.8	1.49e+00	0	24	104	724566016	82	24009
2026-01-08 20:51:07.92	89.79	4.81	-59.0	-75.0	3.8	1.49e+00	0	24	104	724566016	83	23832
2026-01-08 20:51:10.82	90.18	4.72	-59.3	-75.4	3.8	1.49e+00	0	25	104	724566016	83	24718
2026-01-08 20:51:13.71	90.56	4.62	-59.7	-75.8	3.8	1.49e+00	0	24	104	724566016	84	24463
2026-01-08 20:51:16.61	90.94	4.53	-59.9	-76.0	3.8	1.49e+00	0	24	104	724566016	84	25032
2026-01-08 20:51:19.51	91.32	4.43	-60.0	-76.1	3.8	1.49e+00	0	25	104	724566016	85	24047
2026-01-08 20:51:22.42	91.70	4.34	-60.1	-76.2	3.8	1.49e+00	0	25	104	724566016	85	24301
2026-01-08 20:51:25.32	92.08	4.24	-60.2	-76.4	3.8	1.49e+00	0	24	104	724566016	85	24700
2026-01-08 20:51:28.22	92.45	4.14	-60.2	-76.3	3.8	1.49e+00	0	24	104	724566016	85	24488
2026-01-08 20:51:31.11	92.82	4.05	-60.1	-76.2	3.8	1.49e+00	0	24	104	724566016	85	24295
2026-01-08 20:51:34.02	93.19	3.95	-60.1	-76.2	3.8	1.49e+00	0	25	104	724566016	85	24227
2026-01-08 20:51:36.92	93.56	3.85	-60.1	-76.2	3.8	1.49e+00	0	24	104	724566016	85	24143
2026-01-08 20:51:39.82	93.93	3.75	-60.0	-76.1	3.8	1.49e+00	0	25	104	724566016	85	24115
2026-01-08 20:51:42.72	94.29	3.65	-60.0	-76.1	3.8	1.49e+00	0	25	104	724566016	85	24024
2026-01-08 20:51:45.62	94.65	3.55	-60.0	-76.1	3.8	1.49e+00	0	24	104	724566016	85	23947
2026-01-08 20:51:48.52	95.00	3.45	-60.0	-76.1	3.8	1.49e+00	0	25	104	724566016	85	23915
2026-01-08 20:51:51.42	95.36	3.35	-60.0	-76.1	3.8	1.49e+00	0	24	104	724566016	85	23886
2026-01-08 20:51:54.32	95.71	3.24	-60.0	-76.0	3.8	1.49e+00	0	24	104	724566016	85	23801
2026-01-08 20:51:57.22	96.06	3.14	-60.0	-76.0	3.8	1.49e+00	0	25	104	724566016	85	23840
2026-01-08 20:52:00.12	96.41	3.04	-59.9	-76.0	3.8	1.49e+00	0	25	104	724566016	85	23822
2026-01-08 20:52:03.01	96.75	2.93	-59.9	-76.0	3.8	1.49e+00	0	25	104	724566016	85	23811
2026-01-08 20:52:05.91	97.10	2.83	-59.9	-76.0	3.8	1.49e+00	0	25	104	724566016	85	23786
2026-01-08 20:52:08.81	97.44	2.73	-59.9	-76.0	3.8	1.49e+00	0	25	104	724566016	85	23610
2026-01-08 20:52:11.72	97.78	2.62	-59.9	-76.0	3.8	1.49e+00	0	24	104	724566016	85	23715
2026-01-08 20:52:14.61	98.11	2.52	-59.9	-76.0	3.8	1.49e+00	0	25	104	724566016	85	23647
2026-01-08 20:52:17.52	98.45	2.41	-59.9	-75.9	3.8	1.49e+00	0	25	104	724566016	85	23574
2026-01-08 20:52:20.42	98.78	2.30	-59.9	-76.0	3.8	1.49e+00	0	25	104	724566016	85	23691
2026-01-08 20:52:23.32	99.11	2.20	-59.9	-76.0	3.8	1.49e+00	0	24	104	724566016	85	23588
2026-01-08 20:52:26.22	99.44	2.09	-59.9	-76.0	3.8	1.49e+00	0	25	104	724566016	85	23620

#Closed at: 2026-01-08 20:52:28
#Recorded file [724 MB]: D:/lorett/data/31004_260108_234318.dat