passes_logs/2026/01/08/R3.2S_Murmansk/R3.2S_Murmansk__20260108_202439_TY-42_rec.log

#Pass ID: 20260108_202439_TY-42
#Satellite: TY-42
#Configuration: TY-42_900M
#almurnet v.1.7.20251203
#Start time: 2026-01-08 20:24:40

#Version: 2.2.20231116
#Station: R3.2S_Murmansk
#Location: 33.079688 lon 68.888172 lat
#TLE: 1 64048U 25103A   26008.64993056  .00008011  00000-0  38191-3 0 09996
#TLE: 2 64048 097.4110 084.1864 0001712 091.7426 302.1052 15.19171442 35856

#Time	Az	El	Level	Level2	SNR	BER	BlckErr	Temp	State	Recorded	gain1	gain2
2026-01-08 20:24:40.32	202.83	2.05	-57.2	-60.4	6.2	0.00e+00	0	29	0	0	81	20624
2026-01-08 20:24:43.33	203.08	2.24	-57.3	-60.5	6.2	0.00e+00	0	29	104	0	81	20659
2026-01-08 20:24:46.30	203.32	2.43	-57.3	-60.5	6.2	0.00e+00	0	29	104	0	81	20780
2026-01-08 20:24:49.27	203.57	2.62	-57.3	-60.5	6.2	0.00e+00	0	29	104	0	81	20720
2026-01-08 20:24:52.26	203.83	2.81	-57.3	-60.5	6.2	0.00e+00	0	30	104	0	81	20762
2026-01-08 20:24:55.24	204.09	3.00	-57.3	-60.5	6.2	0.00e+00	0	30	104	0	81	20779
2026-01-08 20:24:58.22	204.35	3.20	-57.3	-60.5	6.2	0.00e+00	0	30	104	0	81	20813
2026-01-08 20:25:01.20	204.62	3.40	-57.3	-60.5	6.2	0.00e+00	0	30	104	0	81	20807
2026-01-08 20:25:04.20	204.90	3.60	-57.3	-60.6	6.2	0.00e+00	0	30	104	0	81	20888
2026-01-08 20:25:07.19	205.17	3.80	-57.3	-60.6	6.2	0.00e+00	0	30	104	0	81	20901
2026-01-08 20:25:10.18	205.46	4.00	-57.3	-60.6	6.2	0.00e+00	0	31	104	0	81	20940
2026-01-08 20:25:13.18	205.74	4.20	-57.3	-60.6	6.2	0.00e+00	0	31	104	0	81	20939
2026-01-08 20:25:16.18	206.04	4.41	-57.3	-60.6	6.2	0.00e+00	0	31	104	0	81	20902
2026-01-08 20:25:19.17	206.33	4.61	-57.4	-60.6	6.1	0.00e+00	0	31	104	0	81	20942
2026-01-08 20:25:22.17	206.64	4.82	-57.4	-60.6	6.2	0.00e+00	0	31	104	0	81	20999
2026-01-08 20:25:25.18	206.95	5.03	-57.4	-60.6	6.1	0.00e+00	0	31	104	0	81	21011
2026-01-08 20:25:28.17	207.26	5.24	-57.4	-60.6	6.2	0.00e+00	0	31	104	0	81	20993
2026-01-08 20:25:31.16	207.58	5.46	-53.6	-54.9	7.2	0.00e+00	0	31	104	0	73	17218
2026-01-08 20:25:34.15	207.90	5.67	-42.2	-42.6	12.0	2.40e-02	0	32	0	50331648	51	14823
2026-01-08 20:25:37.14	208.23	5.89	-42.4	-42.8	11.9	2.40e-02	0	32	0	394264576	51	15133
2026-01-08 20:25:40.14	208.57	6.10	-42.3	-42.7	11.9	3.58e-02	0	33	0	729808896	51	14981
2026-01-08 20:25:43.14	208.91	6.32	-42.4	-42.7	11.9	3.45e-02	0	33	0	1065353216	51	15042
2026-01-08 20:25:46.14	209.26	6.55	-41.4	-41.7	12.3	2.99e-02	0	33	0	1400897536	50	14181
2026-01-08 20:25:49.12	209.61	6.77	-41.8	-42.1	12.1	2.44e-02	0	33	0	1744830464	50	14874
2026-01-08 20:25:52.10	209.97	6.99	-41.6	-41.9	12.3	2.57e-02	0	33	0	2071986176	50	14494
2026-01-08 20:25:55.08	210.34	7.22	-41.6	-41.9	12.3	1.44e-02	0	33	0	2407530496	50	14546
2026-01-08 20:25:58.06	210.71	7.45	-41.7	-42.0	12.3	1.17e-02	0	33	0	2743074816	50	14714
2026-01-08 20:26:01.06	211.10	7.68	-41.4	-41.7	12.4	1.06e-02	0	34	0	3078619136	50	14175
2026-01-08 20:26:04.04	211.49	7.91	-41.2	-41.6	12.4	9.51e-03	0	34	0	3414163456	49	14782
2026-01-08 20:26:07.02	211.88	8.14	-41.2	-41.5	12.4	8.20e-03	0	34	0	3758096384	49	14618
2026-01-08 20:26:10.03	212.29	8.38	-41.1	-41.4	12.4	7.88e-03	0	34	0	4093640704	49	14591
2026-01-08 20:26:13.02	212.70	8.62	-41.3	-41.6	12.3	7.21e-03	0	34	0	4429185024	49	14913
2026-01-08 20:26:16.02	213.12	8.86	-41.0	-41.3	12.5	6.78e-03	0	34	0	4764729344	49	14337
2026-01-08 20:26:19.02	213.55	9.10	-40.9	-41.3	12.4	6.08e-03	0	34	0	5108662272	48	15123
2026-01-08 20:26:22.00	213.99	9.34	-40.9	-41.2	12.4	4.76e-03	0	34	0	5435817984	48	15023
2026-01-08 20:26:24.99	214.44	9.59	-40.9	-41.3	12.4	5.32e-03	0	35	0	5771362304	48	15127
2026-01-08 20:26:27.98	214.89	9.84	-40.8	-41.1	12.5	4.01e-03	0	34	0	6106906624	48	14939
2026-01-08 20:26:30.95	215.35	10.09	-40.6	-40.9	12.6	4.09e-03	0	35	0	6442450944	48	14589
2026-01-08 20:26:33.95	215.83	10.34	-40.6	-40.9	12.6	3.59e-03	0	35	0	6777995264	48	14527
2026-01-08 20:26:36.93	216.31	10.59	-40.6	-40.9	12.5	3.78e-03	0	35	0	7121928192	48	14570
2026-01-08 20:26:39.93	216.81	10.85	-39.3	-39.7	12.5	4.29e-03	0	35	0	7457472512	45	14966
2026-01-08 20:26:42.92	217.31	11.10	-39.2	-39.5	12.6	4.35e-03	0	35	0	7793016832	45	14675
2026-01-08 20:26:45.91	217.83	11.36	-38.9	-39.2	12.7	3.56e-03	0	35	0	8128561152	45	14244
2026-01-08 20:26:48.90	218.35	11.62	-38.9	-39.2	12.6	2.67e-03	0	35	0	8464105472	44	15045
2026-01-08 20:26:51.89	218.89	11.88	-38.8	-39.1	12.6	2.27e-03	0	35	0	8799649792	44	14844
2026-01-08 20:26:54.86	219.43	12.15	-38.7	-39.0	12.7	2.82e-03	0	35	0	9135194112	44	14677
2026-01-08 20:26:57.84	219.99	12.41	-38.5	-38.8	12.7	2.70e-03	0	35	0	9470738432	44	14370
2026-01-08 20:27:00.82	220.56	12.68	-38.4	-38.7	12.7	1.50e-03	0	35	0	9806282752	43	15067
2026-01-08 20:27:03.83	221.15	12.95	-38.2	-38.5	12.8	1.60e-03	0	35	0	10141827072	43	14668
2026-01-08 20:27:06.81	221.74	13.22	-38.2	-38.5	12.8	1.18e-03	0	35	0	10477371392	43	14703
2026-01-08 20:27:09.80	222.35	13.49	-38.0	-38.3	12.8	1.09e-03	0	35	0	10812915712	43	14314
2026-01-08 20:27:12.79	222.97	13.76	-37.8	-38.1	12.8	8.77e-04	0	35	0	11148460032	42	14907
2026-01-08 20:27:15.80	223.61	14.04	-37.9	-38.2	12.8	9.20e-04	0	35	0	11492392960	42	15082
2026-01-08 20:27:18.79	224.26	14.31	-37.6	-37.9	12.9	7.34e-04	0	35	0	11827937280	42	14547
2026-01-08 20:27:21.78	224.93	14.59	-37.5	-37.9	12.9	4.20e-04	0	36	0	12163481600	42	14446
2026-01-08 20:27:24.78	225.61	14.87	-37.7	-38.0	12.9	4.48e-04	0	36	0	12499025920	42	14619
2026-01-08 20:27:27.77	226.30	15.14	-37.3	-37.6	12.9	5.86e-04	0	36	0	12842958848	41	14807
2026-01-08 20:27:30.75	227.01	15.42	-37.3	-37.5	12.9	3.43e-04	0	36	0	13170114560	41	14769
2026-01-08 20:27:33.74	227.73	15.70	-37.0	-37.3	13.0	4.05e-04	0	36	0	13505658880	41	14375
2026-01-08 20:27:36.73	228.47	15.98	-36.9	-37.3	13.0	3.96e-04	0	36	0	13849591808	41	14276
2026-01-08 20:27:39.73	229.22	16.26	-36.8	-37.2	12.9	3.48e-04	0	36	0	14185136128	40	14972
2026-01-08 20:27:42.72	229.99	16.54	-36.8	-37.1	12.9	2.96e-04	0	36	0	14520680448	40	14851
2026-01-08 20:27:45.71	230.78	16.82	-36.8	-37.1	12.9	2.86e-04	0	36	0	14856224768	40	14789
2026-01-08 20:27:48.70	231.59	17.09	-36.7	-37.0	12.9	3.24e-04	0	36	0	15191769088	40	14679
2026-01-08 20:27:51.69	232.41	17.37	-36.5	-36.8	13.0	3.58e-04	0	36	0	15527313408	40	14398
2026-01-08 20:27:54.69	233.25	17.65	-36.5	-36.8	13.0	2.86e-04	0	36	0	15862857728	40	14299
2026-01-08 20:27:57.69	234.11	17.92	-36.4	-36.7	13.0	4.86e-04	0	36	0	16206790656	39	14994
2026-01-08 20:28:00.68	234.98	18.19	-36.4	-36.7	12.9	2.19e-04	0	36	0	16542334976	39	14979
2026-01-08 20:28:03.67	235.87	18.46	-36.2	-36.5	13.0	1.91e-04	0	36	0	16877879296	39	14687
2026-01-08 20:28:06.65	236.78	18.73	-36.2	-36.5	13.0	1.91e-04	0	36	0	17213423616	39	14644
2026-01-08 20:28:09.63	237.70	18.99	-36.2	-36.5	13.0	1.62e-04	0	36	0	17548967936	39	14687
2026-01-08 20:28:12.63	238.65	19.26	-36.0	-36.3	13.0	1.29e-04	0	36	0	17884512256	39	14394
2026-01-08 20:28:15.62	239.61	19.51	-35.8	-36.1	13.0	1.48e-04	0	36	0	18220056576	38	14937
2026-01-08 20:28:18.61	240.59	19.77	-35.8	-36.1	13.0	9.53e-05	0	36	0	18555600896	38	14818
2026-01-08 20:28:21.61	241.59	20.02	-35.6	-35.9	13.0	1.29e-04	0	36	0	18891145216	38	14569
2026-01-08 20:28:24.61	242.62	20.26	-35.7	-36.0	13.0	1.24e-04	0	36	0	19226689536	38	14696
2026-01-08 20:28:27.59	243.65	20.50	-35.6	-35.9	13.1	1.52e-04	0	36	0	19570622464	38	14462
2026-01-08 20:28:30.59	244.71	20.73	-35.5	-35.8	13.1	9.05e-05	0	36	0	19906166784	38	14282
2026-01-08 20:28:33.58	245.78	20.96	-35.2	-35.5	13.1	9.05e-05	0	36	0	20241711104	37	14695
2026-01-08 20:28:36.57	246.87	21.18	-35.0	-35.3	13.1	9.05e-05	0	36	0	20577255424	37	14387
2026-01-08 20:28:39.57	247.97	21.39	-35.1	-35.4	13.1	1.00e-04	0	36	0	20912799744	37	14515
2026-01-08 20:28:42.57	249.10	21.60	-35.0	-35.3	13.1	8.58e-05	0	36	0	21256732672	37	14374
2026-01-08 20:28:45.56	250.24	21.80	-35.0	-35.3	13.1	4.76e-05	0	36	0	21583888384	37	14359
2026-01-08 20:28:48.55	251.39	21.98	-35.0	-35.3	13.1	6.19e-05	0	36	0	21927821312	37	14362
2026-01-08 20:28:51.54	252.56	22.16	-35.0	-35.3	13.1	5.24e-05	0	36	0	22263365632	37	14392
2026-01-08 20:28:54.54	253.75	22.33	-35.2	-35.5	13.1	6.19e-05	0	36	0	22598909952	37	14609
2026-01-08 20:28:57.52	254.94	22.49	-35.0	-35.3	13.1	1.24e-04	0	36	0	22934454272	37	14367
2026-01-08 20:29:00.51	256.16	22.64	-35.0	-35.3	13.1	2.10e-04	0	36	0	23269998592	37	14339
2026-01-08 20:29:03.49	257.37	22.77	-35.0	-35.3	13.1	3.81e-05	0	36	0	23605542912	37	14383
2026-01-08 20:29:06.46	258.60	22.90	-35.0	-35.3	13.1	5.72e-05	0	36	0	23941087232	37	14360
2026-01-08 20:29:09.45	259.84	23.01	-35.1	-35.4	13.0	5.72e-05	0	36	0	24276631552	37	14456
2026-01-08 20:29:12.44	261.10	23.11	-35.0	-35.3	13.1	4.29e-05	0	36	0	24612175872	37	14283
2026-01-08 20:29:15.44	262.36	23.20	-35.0	-35.3	13.1	2.86e-05	0	36	0	24947720192	37	14328
2026-01-08 20:29:18.45	263.64	23.28	-34.9	-35.2	13.0	8.10e-05	0	36	0	25291653120	37	14187
2026-01-08 20:29:21.45	264.92	23.34	-35.0	-35.2	13.0	7.15e-05	0	36	0	25627197440	37	14269
2026-01-08 20:29:24.43	266.20	23.39	-34.9	-35.2	13.0	9.53e-05	0	36	0	25962741760	37	14181
2026-01-08 20:29:27.42	267.48	23.43	-35.0	-35.3	13.0	1.10e-04	0	36	0	26298286080	37	14326
2026-01-08 20:29:30.42	268.77	23.45	-35.0	-35.2	13.0	1.00e-04	0	36	0	26633830400	37	14216
2026-01-08 20:29:33.38	270.05	23.46	-35.1	-35.4	13.0	3.81e-05	0	36	0	26969374720	37	14462
2026-01-08 20:29:36.39	271.35	23.45	-35.1	-35.4	12.9	5.72e-05	0	36	0	27304919040	37	14497
2026-01-08 20:29:39.39	272.64	23.44	-35.2	-35.5	13.0	9.53e-05	0	36	0	27640463360	37	14609
2026-01-08 20:29:42.38	273.92	23.40	-35.2	-35.4	13.0	6.67e-05	0	36	0	27984396288	37	14581
2026-01-08 20:29:45.38	275.21	23.36	-35.2	-35.5	12.9	8.58e-05	0	36	0	28319940608	37	14610
2026-01-08 20:29:48.36	276.48	23.30	-35.4	-35.7	12.9	1.19e-04	0	36	0	28655484928	37	15021
2026-01-08 20:29:51.35	277.75	23.23	-35.3	-35.6	12.9	2.62e-04	0	36	0	28991029248	37	14932
2026-01-08 20:29:54.34	279.01	23.14	-35.4	-35.7	12.9	4.72e-04	0	36	0	29326573568	37	15035
2026-01-08 20:29:57.34	280.27	23.04	-35.5	-35.8	12.9	6.44e-04	0	36	0	29662117888	37	15125
2026-01-08 20:30:00.32	281.51	22.94	-35.4	-35.7	12.9	5.20e-04	0	37	0	29997662208	37	15101
2026-01-08 20:30:03.30	282.74	22.81	-35.5	-35.8	12.9	1.43e-04	0	36	0	30333206528	37	15182
2026-01-08 20:30:06.29	283.96	22.68	-35.4	-35.7	12.9	1.05e-04	0	36	0	30668750848	37	15077
2026-01-08 20:30:09.26	285.17	22.54	-35.6	-35.9	12.9	1.05e-04	0	36	0	31004295168	37	15383
2026-01-08 20:30:12.26	286.37	22.38	-35.6	-35.9	12.9	9.53e-05	0	36	0	31339839488	37	15339
2026-01-08 20:30:15.25	287.56	22.22	-35.6	-35.9	12.9	9.53e-05	0	36	0	31675383808	37	15380
2026-01-08 20:30:18.25	288.73	22.04	-35.7	-35.9	12.9	6.19e-05	0	36	0	32010928128	37	15473
2026-01-08 20:30:21.25	289.89	21.86	-35.7	-35.9	13.0	6.19e-05	0	36	0	32354861056	37	15465
2026-01-08 20:30:24.23	291.03	21.66	-35.8	-36.1	13.0	1.00e-04	0	36	0	32690405376	37	15827
2026-01-08 20:30:27.22	292.15	21.46	-35.8	-36.1	13.0	1.72e-04	0	36	0	33025949696	37	15734
2026-01-08 20:30:30.20	293.25	21.25	-36.0	-36.3	13.0	7.15e-05	0	36	0	33361494016	37	16051
2026-01-08 20:30:33.19	294.34	21.04	-35.9	-36.2	13.0	1.10e-04	0	37	0	33697038336	37	15996
2026-01-08 20:30:36.19	295.42	20.81	-35.9	-36.2	13.0	1.62e-04	0	36	0	34032582656	37	15974
2026-01-08 20:30:39.18	296.47	20.58	-36.0	-36.3	13.0	1.43e-04	0	37	0	34368126976	38	15193
2026-01-08 20:30:42.18	297.52	20.35	-36.1	-36.4	13.0	1.43e-04	0	36	0	34712059904	38	15342
2026-01-08 20:30:45.17	298.54	20.10	-36.2	-36.5	13.0	1.14e-04	0	36	0	35039215616	38	15504
2026-01-08 20:30:48.16	299.54	19.86	-36.2	-36.5	13.0	1.05e-04	0	36	0	35374759936	38	15628
2026-01-08 20:30:51.15	300.52	19.61	-36.2	-36.5	13.1	1.19e-04	0	36	0	35718692864	38	15483
2026-01-08 20:30:54.14	301.48	19.35	-36.3	-36.5	13.0	8.58e-05	0	36	0	36054237184	38	15648
2026-01-08 20:30:57.13	302.43	19.09	-36.3	-36.6	13.0	2.24e-04	0	36	0	36389781504	38	15757
2026-01-08 20:31:00.11	303.36	18.83	-36.5	-36.8	13.0	3.29e-04	0	36	0	36725325824	38	16161
2026-01-08 20:31:03.10	304.27	18.57	-36.6	-36.9	13.0	2.05e-04	0	37	0	37060870144	39	15399
2026-01-08 20:31:06.08	305.16	18.30	-36.8	-37.1	13.0	1.86e-04	0	36	0	37396414464	39	15788
2026-01-08 20:31:09.08	306.04	18.03	-36.9	-37.2	13.0	2.00e-04	0	36	0	37731958784	39	15889
2026-01-08 20:31:12.06	306.89	17.76	-37.0	-37.3	13.0	2.05e-04	0	36	0	38067503104	39	16025
2026-01-08 20:31:15.05	307.73	17.49	-36.9	-37.2	13.0	1.91e-04	0	36	0	38403047424	39	15958
2026-01-08 20:31:18.04	308.55	17.21	-37.0	-37.3	13.0	1.81e-04	0	36	0	38738591744	40	15158
2026-01-08 20:31:21.03	309.36	16.94	-37.0	-37.3	13.0	1.24e-04	0	37	0	39082524672	40	15133
2026-01-08 20:31:24.02	310.15	16.66	-37.0	-37.3	13.0	1.91e-04	0	37	0	39409680384	40	15266
2026-01-08 20:31:27.01	310.92	16.38	-37.1	-37.4	13.0	2.34e-04	0	37	0	39745224704	40	15365
2026-01-08 20:31:29.99	311.67	16.11	-37.0	-37.3	13.0	2.24e-04	0	36	0	40089157632	40	15222
2026-01-08 20:31:32.99	312.42	15.83	-37.0	-37.3	13.0	1.38e-04	0	36	0	40424701952	40	15218
2026-01-08 20:31:35.98	313.14	15.55	-37.2	-37.5	12.9	2.38e-04	0	36	0	40760246272	40	15493
2026-01-08 20:31:38.98	313.86	15.27	-37.3	-37.6	12.9	2.57e-04	0	36	0	41095790592	40	15754
2026-01-08 20:31:41.96	314.55	15.00	-37.4	-37.7	12.9	2.96e-04	0	36	0	41431334912	40	15874
2026-01-08 20:31:44.96	315.23	14.72	-37.7	-38.0	12.8	4.10e-04	0	37	0	41766879232	41	15615
2026-01-08 20:31:47.95	315.90	14.45	-37.7	-38.0	12.8	4.62e-04	0	36	0	42102423552	41	15532
2026-01-08 20:31:50.95	316.55	14.17	-37.7	-38.0	12.8	4.48e-04	0	37	0	42446356480	41	15497
2026-01-08 20:31:53.94	317.19	13.90	-37.8	-38.1	12.8	5.86e-04	0	36	0	42781900800	41	15680
2026-01-08 20:31:56.94	317.81	13.63	-37.9	-38.2	12.7	1.01e-03	0	37	0	43117445120	41	15870
2026-01-08 20:31:59.94	318.43	13.36	-38.1	-38.4	12.7	1.15e-03	0	37	0	43452989440	41	16233
2026-01-08 20:32:02.93	319.02	13.09	-38.1	-38.4	12.7	9.77e-04	0	37	0	43796922368	42	15316
2026-01-08 20:32:05.91	319.61	12.82	-38.2	-38.4	12.7	9.92e-04	0	36	0	44124078080	42	15464
2026-01-08 20:32:08.90	320.18	12.56	-38.5	-38.8	12.6	1.41e-03	0	37	0	44459622400	42	16182
2026-01-08 20:32:11.89	320.74	12.29	-38.5	-38.8	12.6	1.18e-03	0	37	0	44803555328	43	15279
2026-01-08 20:32:14.87	321.29	12.03	-38.4	-38.7	12.7	1.40e-03	0	37	0	45139099648	43	15030
2026-01-08 20:32:17.87	321.83	11.77	-38.7	-39.0	12.6	1.43e-03	0	37	0	45466255360	43	15498
2026-01-08 20:32:20.86	322.36	11.51	-38.7	-39.0	12.5	1.89e-03	0	37	0	45810188288	43	15596
2026-01-08 20:32:23.86	322.88	11.25	-38.9	-39.2	12.5	1.89e-03	0	37	0	46145732608	43	15915
2026-01-08 20:32:26.85	323.38	11.00	-38.8	-39.1	12.5	1.81e-03	0	37	0	46481276928	43	15775
2026-01-08 20:32:29.84	323.88	10.74	-38.8	-39.1	12.6	2.19e-03	0	37	0	46816821248	44	14881
2026-01-08 20:32:32.82	324.36	10.49	-38.8	-39.0	12.6	1.81e-03	0	37	0	47160754176	44	14765
2026-01-08 20:32:35.83	324.84	10.24	-38.8	-39.1	12.6	2.19e-03	0	37	0	47496298496	44	14819
2026-01-08 20:32:38.81	325.31	9.99	-38.8	-39.1	12.6	2.02e-03	0	37	0	47823454208	44	14896
2026-01-08 20:32:41.80	325.77	9.74	-38.8	-39.1	12.5	2.31e-03	0	37	0	48167387136	44	14877
2026-01-08 20:32:44.80	326.22	9.50	-38.8	-39.1	12.2	2.47e-03	0	37	0	48502931456	44	14883
2026-01-08 20:32:47.80	326.66	9.26	-38.8	-39.1	12.5	5.88e-03	0	37	0	48838475776	44	14829
2026-01-08 20:32:50.79	327.09	9.02	-38.9	-39.2	12.5	3.14e-03	0	37	0	49174020096	44	15030
2026-01-08 20:32:53.77	327.51	8.78	-39.0	-39.3	12.4	3.00e-03	0	37	0	49517953024	44	15264
2026-01-08 20:32:56.74	327.92	8.54	-39.0	-39.3	12.5	5.17e-03	0	37	0	49845108736	44	15160
2026-01-08 20:32:59.72	328.32	8.31	-39.0	-39.3	12.4	4.92e-03	0	37	0	50180653056	44	15280
2026-01-08 20:33:02.71	328.72	8.07	-39.4	-39.7	12.3	5.61e-03	0	37	0	50516197376	44	15899
2026-01-08 20:33:05.70	329.12	7.84	-39.2	-39.6	12.4	4.43e-03	0	37	0	50851741696	44	15657
2026-01-08 20:33:08.69	329.50	7.61	-39.5	-39.8	12.4	4.59e-03	0	37	0	51187286016	45	15217
2026-01-08 20:33:11.68	329.88	7.39	-39.6	-39.9	12.2	5.22e-03	0	37	0	51531218944	45	15350
2026-01-08 20:33:14.67	330.25	7.16	-40.0	-40.3	12.1	2.07e-02	0	37	0	51866763264	45	16200
2026-01-08 20:33:17.67	330.61	6.93	-40.0	-40.3	12.1	2.27e-02	0	37	0	52202307584	46	15271
2026-01-08 20:33:20.67	330.97	6.71	-57.8	-61.1	6.2	2.20e-02	0	36	104	52479131648	81	22249
2026-01-08 20:33:23.67	331.32	6.49	-57.9	-61.1	6.2	2.20e-02	0	36	104	52479131648	81	22197
2026-01-08 20:33:26.66	331.66	6.27	-57.8	-61.1	6.1	2.20e-02	0	36	104	52479131648	81	22123
2026-01-08 20:33:29.65	332.00	6.05	-57.7	-60.9	6.2	2.20e-02	0	36	104	52479131648	81	21813
2026-01-08 20:33:32.64	332.33	5.84	-57.7	-61.0	6.2	2.63e-03	0	36	104	52479131648	81	21961
2026-01-08 20:33:35.62	332.66	5.63	-57.5	-60.8	6.1	2.63e-03	0	36	104	52479131648	81	21480
2026-01-08 20:33:38.61	332.98	5.41	-57.6	-60.8	6.2	2.63e-03	0	36	104	52479131648	81	21446
2026-01-08 20:33:41.62	333.30	5.20	-57.5	-60.7	6.2	2.63e-03	0	35	104	52479131648	81	21260
2026-01-08 20:33:44.61	333.60	4.99	-57.4	-60.6	6.2	2.63e-03	0	35	104	52479131648	81	21093
2026-01-08 20:33:47.60	333.91	4.79	-58.9	-62.2	6.2	0.00e+00	0	35	104	52479131648	83	22442
2026-01-08 20:33:50.59	334.21	4.58	-59.7	-63.0	6.1	0.00e+00	0	35	104	52479131648	85	21863
2026-01-08 20:33:53.59	334.50	4.38	-59.9	-63.1	6.2	0.00e+00	0	35	104	52479131648	85	22283
2026-01-08 20:33:56.59	334.79	4.17	-60.1	-63.3	6.1	0.00e+00	0	35	104	52479131648	85	22844
2026-01-08 20:33:59.58	335.08	3.97	-60.2	-63.5	6.2	0.00e+00	0	35	104	52479131648	86	21874
2026-01-08 20:34:02.57	335.36	3.77	-60.2	-63.4	6.1	0.00e+00	0	35	104	52479131648	86	21802
2026-01-08 20:34:05.55	335.63	3.58	-60.2	-63.4	6.1	0.00e+00	0	35	104	52479131648	86	21780
2026-01-08 20:34:08.56	335.90	3.38	-60.1	-63.3	6.2	0.00e+00	0	35	104	52479131648	86	21525
2026-01-08 20:34:11.55	336.17	3.18	-60.0	-63.3	6.1	0.00e+00	0	35	104	52479131648	86	21431
2026-01-08 20:34:14.55	336.43	2.99	-60.0	-63.2	6.2	0.00e+00	0	35	104	52479131648	86	21311
2026-01-08 20:34:17.55	336.69	2.79	-60.0	-63.2	6.2	0.00e+00	0	35	104	52479131648	86	21284
2026-01-08 20:34:20.54	336.95	2.60	-59.9	-63.2	6.2	0.00e+00	0	35	104	52479131648	86	21225
2026-01-08 20:34:23.54	337.20	2.41	-59.9	-63.2	6.1	0.00e+00	0	35	104	52479131648	86	21151
2026-01-08 20:34:26.55	337.45	2.22	-59.9	-63.1	6.2	0.00e+00	0	35	104	52479131648	86	21092
2026-01-08 20:34:29.54	337.69	2.04	-59.9	-63.1	6.2	0.00e+00	0	34	104	52479131648	86	21096

#Closed at: 2026-01-08 20:34:30
#Recorded file [52479 MB]: D:/lorett/data/31004_260108_232440.dat