passes_logs/2026/01/08/R3.2S_Murmansk/R3.2S_Murmansk__20260108_075029_NOAA_21_JPSS-2_rec.log

#Pass ID: 20260108_075029_NOAA 21 (JPSS-2)
#Satellite: NOAA 21 (JPSS-2)
#Configuration: NOAA-21
#almurnet v.1.7.20251203
#Start time: 2026-01-08 07:50:31

#Version: 2.2.20231116
#Station: R3.2S_Murmansk
#Location: 33.079688 lon 68.888172 lat
#TLE: 1 54234U 22150A   26007.89369592  .00000099  00000+0  67922-4 0  9991
#TLE: 2 54234  98.7493 308.8796 0000921 330.6018  29.5106 14.19533030163804

#Time	Az	El	Level	Level2	SNR	BER	BlckErr	Temp	State	Recorded	gain1	gain2
2026-01-08 07:50:31.54	112.81	2.14	-57.5	-71.3	3.8	1.49e+00	0	23	0	0	81	17374
2026-01-08 07:50:35.55	112.66	2.39	-57.5	-71.2	3.8	1.49e+00	0	23	104	0	80	18223
2026-01-08 07:50:39.56	112.51	2.64	-57.5	-71.2	3.8	1.49e+00	0	23	104	0	80	18260
2026-01-08 07:50:43.57	112.35	2.89	-57.5	-71.1	3.8	1.49e+00	0	23	104	0	80	17964
2026-01-08 07:50:47.59	112.20	3.15	-57.5	-71.0	3.8	1.49e+00	0	23	104	0	80	17882
2026-01-08 07:50:51.59	112.04	3.41	-57.5	-71.1	3.8	1.49e+00	0	23	104	0	80	17917
2026-01-08 07:50:55.78	111.86	3.68	-57.5	-71.0	3.8	1.49e+00	0	23	104	0	80	17743
2026-01-08 07:50:59.79	111.70	3.94	-57.5	-71.0	3.8	1.49e+00	0	23	104	0	80	17789
2026-01-08 07:51:03.80	111.53	4.21	-57.1	-66.1	4.7	9.79e-01	0	24	104	0	80	10133
2026-01-08 07:51:07.81	111.35	4.47	-56.3	-62.4	7.2	1.23e-01	0	23	0	9437184	79	7021
2026-01-08 07:51:11.81	111.18	4.74	-55.0	-58.8	10.3	2.18e-03	0	23	0	22020096	76	5494
2026-01-08 07:51:15.82	110.99	5.02	-52.6	-54.9	12.8	0.00e+00	0	24	0	34603008	71	4690
2026-01-08 07:51:19.83	110.81	5.29	-51.8	-53.7	13.5	0.00e+00	0	24	0	47185920	69	4590
2026-01-08 07:51:23.85	110.62	5.57	-51.4	-53.3	13.8	0.00e+00	0	24	0	59768832	69	4354
2026-01-08 07:51:27.86	110.43	5.85	-51.3	-53.1	13.7	0.00e+00	0	24	0	72351744	68	4529
2026-01-08 07:51:31.88	110.23	6.13	-51.2	-53.0	13.8	0.00e+00	0	24	0	84934656	68	4478
2026-01-08 07:51:35.88	110.03	6.42	-51.0	-52.8	14.0	0.00e+00	0	24	0	97517568	68	4359
2026-01-08 07:51:39.88	109.83	6.71	-51.0	-52.7	14.0	0.00e+00	0	24	0	110100480	68	4327
2026-01-08 07:51:43.88	109.62	7.00	-50.9	-52.6	14.1	0.00e+00	0	24	0	122683392	68	4283
2026-01-08 07:51:47.89	109.41	7.29	-50.8	-52.5	14.2	0.00e+00	0	24	0	135266304	68	4203
2026-01-08 07:51:51.90	109.19	7.59	-50.5	-52.2	14.2	0.00e+00	0	24	0	147849216	67	4298
2026-01-08 07:51:55.91	108.97	7.89	-50.3	-51.8	14.4	0.00e+00	0	24	0	160432128	67	4140
2026-01-08 07:51:59.92	108.74	8.19	-50.1	-51.6	14.4	0.00e+00	0	24	0	173015040	66	4274
2026-01-08 07:52:03.94	108.50	8.50	-50.0	-51.5	14.4	0.00e+00	0	24	0	185597952	66	4206
2026-01-08 07:52:07.95	108.27	8.81	-49.8	-51.3	14.5	0.00e+00	0	24	0	198180864	66	4135
2026-01-08 07:52:11.97	108.02	9.13	-49.8	-51.3	14.6	0.00e+00	0	24	0	209715200	66	4101
2026-01-08 07:52:15.98	107.77	9.44	-49.6	-51.1	14.5	0.00e+00	0	24	0	223346688	65	4260
2026-01-08 07:52:19.99	107.52	9.76	-49.5	-50.9	14.6	0.00e+00	0	24	0	234881024	65	4171
2026-01-08 07:52:23.98	107.26	10.09	-49.5	-50.9	14.6	0.00e+00	0	24	0	247463936	65	4167
2026-01-08 07:52:28.01	106.99	10.41	-49.2	-50.6	14.6	0.00e+00	0	24	0	260046848	64	4252
2026-01-08 07:52:32.01	106.72	10.75	-49.0	-50.4	14.7	0.00e+00	0	24	0	272629760	64	4167
2026-01-08 07:52:36.01	106.44	11.08	-48.9	-50.3	14.8	0.00e+00	0	24	0	285212672	64	4107
2026-01-08 07:52:40.01	106.15	11.42	-48.9	-50.3	14.8	0.00e+00	0	24	0	297795584	64	4116
2026-01-08 07:52:44.02	105.86	11.76	-48.8	-50.2	14.9	0.00e+00	0	24	0	310378496	64	4062
2026-01-08 07:52:48.03	105.56	12.11	-48.8	-50.1	14.9	0.00e+00	0	24	0	322961408	64	4050
2026-01-08 07:52:52.03	105.25	12.46	-48.8	-50.1	14.9	0.00e+00	0	24	0	335544320	64	4032
2026-01-08 07:52:56.03	104.93	12.81	-48.6	-49.9	14.9	0.00e+00	0	24	0	348127232	63	4172
2026-01-08 07:53:00.04	104.61	13.17	-48.5	-49.8	14.9	0.00e+00	0	24	0	360710144	63	4133
2026-01-08 07:53:04.03	104.28	13.54	-48.6	-49.9	14.9	0.00e+00	0	24	0	373293056	63	4153
2026-01-08 07:53:08.04	103.94	13.91	-48.6	-49.9	14.9	0.00e+00	0	24	0	385875968	63	4152
2026-01-08 07:53:12.04	103.59	14.28	-48.6	-49.9	14.8	0.00e+00	0	24	0	398458880	63	4172
2026-01-08 07:53:16.01	103.23	14.65	-48.6	-49.9	14.9	0.00e+00	0	24	0	409993216	63	4156
2026-01-08 07:53:19.99	102.87	15.03	-48.6	-49.9	14.9	0.00e+00	0	24	0	422576128	63	4161
2026-01-08 07:53:23.98	102.49	15.42	-48.6	-49.9	14.9	0.00e+00	0	24	0	435159040	63	4162
2026-01-08 07:53:27.95	102.11	15.81	-48.6	-49.9	14.9	0.00e+00	0	24	0	447741952	63	4178
2026-01-08 07:53:31.94	101.71	16.20	-48.6	-49.9	14.9	0.00e+00	0	24	0	460324864	63	4182
2026-01-08 07:53:35.91	101.30	16.60	-48.7	-50.0	14.8	0.00e+00	0	24	0	472907776	63	4230
2026-01-08 07:53:39.89	100.88	17.00	-48.7	-50.0	14.8	0.00e+00	0	24	0	485490688	63	4216
2026-01-08 07:53:43.87	100.45	17.41	-48.8	-50.1	14.8	0.00e+00	0	24	0	497025024	63	4266
2026-01-08 07:53:47.85	100.01	17.83	-48.8	-50.1	14.8	0.00e+00	0	24	0	509607936	63	4276
2026-01-08 07:53:51.83	99.55	18.25	-48.9	-50.3	14.7	0.00e+00	0	24	0	522190848	63	4344
2026-01-08 07:53:55.80	99.09	18.67	-48.9	-50.2	14.8	0.00e+00	0	24	0	534773760	63	4305
2026-01-08 07:53:59.79	98.60	19.10	-48.4	-49.6	15.0	0.00e+00	0	25	0	547356672	63	4024
2026-01-08 07:54:03.77	98.11	19.54	-48.2	-49.4	14.9	0.00e+00	0	25	0	559939584	62	4170
2026-01-08 07:54:07.74	97.60	19.98	-48.2	-49.5	14.9	0.00e+00	0	24	0	572522496	62	4197
2026-01-08 07:54:11.72	97.07	20.43	-48.2	-49.5	14.9	0.00e+00	0	24	0	585105408	62	4214
2026-01-08 07:54:15.69	96.53	20.88	-48.1	-49.3	15.0	0.00e+00	0	24	0	596639744	62	4127
2026-01-08 07:54:19.69	95.97	21.34	-47.8	-49.0	15.1	0.00e+00	0	25	0	609222656	62	3986
2026-01-08 07:54:23.67	95.39	21.80	-47.6	-48.8	15.1	0.00e+00	0	24	0	621805568	61	4113
2026-01-08 07:54:27.67	94.79	22.27	-47.7	-48.9	15.0	0.00e+00	0	25	0	634388480	61	4151
2026-01-08 07:54:31.64	94.18	22.74	-47.3	-48.5	15.2	0.00e+00	0	24	0	646971392	61	3983
2026-01-08 07:54:35.62	93.55	23.22	-47.4	-48.6	15.1	0.00e+00	0	24	0	659554304	61	4030
2026-01-08 07:54:39.60	92.90	23.70	-47.7	-48.9	15.0	0.00e+00	0	24	0	672137216	61	4168
2026-01-08 07:54:43.58	92.23	24.19	-47.6	-48.8	15.1	0.00e+00	0	24	0	683671552	61	4115
2026-01-08 07:54:47.56	91.53	24.68	-47.8	-49.0	15.0	0.00e+00	0	25	0	696254464	61	4222
2026-01-08 07:54:51.55	90.81	25.18	-47.9	-49.1	15.0	0.00e+00	0	24	0	708837376	61	4250
2026-01-08 07:54:55.53	90.07	25.68	-48.2	-49.5	14.8	0.00e+00	0	24	0	721420288	61	4465
2026-01-08 07:54:59.51	89.31	26.19	-48.5	-49.8	14.8	0.00e+00	0	24	0	734003200	62	4364
2026-01-08 07:55:03.48	88.52	26.69	-48.0	-49.2	15.0	0.00e+00	0	24	0	746586112	62	4064
2026-01-08 07:55:07.47	87.70	27.21	-48.2	-49.5	15.0	0.00e+00	0	25	0	759169024	62	4199
2026-01-08 07:55:11.46	86.86	27.72	-48.3	-49.5	14.9	0.00e+00	0	24	0	770703360	62	4241
2026-01-08 07:55:15.43	85.99	28.24	-48.3	-49.5	14.9	0.00e+00	0	24	0	783286272	62	4229
2026-01-08 07:55:19.42	85.09	28.76	-48.6	-49.9	14.8	0.00e+00	0	25	0	795869184	62	4392
2026-01-08 07:55:23.40	84.16	29.28	-48.4	-49.7	14.9	0.00e+00	0	25	0	808452096	62	4302
2026-01-08 07:55:27.37	83.20	29.80	-48.4	-49.6	14.9	0.00e+00	0	25	0	821035008	62	4291
2026-01-08 07:55:31.35	82.21	30.33	-48.4	-49.6	14.9	0.00e+00	0	24	0	833617920	62	4272
2026-01-08 07:55:35.33	81.19	30.85	-48.6	-49.8	14.8	0.00e+00	0	25	0	846200832	62	4391
2026-01-08 07:55:39.32	80.12	31.37	-48.4	-49.6	14.9	0.00e+00	0	25	0	858783744	62	4266
2026-01-08 07:55:43.29	79.03	31.88	-48.6	-49.9	14.8	0.00e+00	0	25	0	870318080	62	4397
2026-01-08 07:55:47.26	77.91	32.40	-48.9	-50.2	14.7	0.00e+00	0	25	0	882900992	62	4570
2026-01-08 07:55:51.25	76.74	32.91	-49.2	-50.5	14.7	0.00e+00	0	24	0	895483904	63	4479
2026-01-08 07:55:55.23	75.54	33.41	-49.0	-50.3	14.8	0.00e+00	0	25	0	908066816	63	4374
2026-01-08 07:55:59.20	74.30	33.91	-49.0	-50.3	14.8	0.00e+00	0	24	0	920649728	63	4351
2026-01-08 07:56:03.17	73.02	34.40	-49.2	-50.6	14.6	0.00e+00	0	25	0	933232640	63	4502
2026-01-08 07:56:07.16	71.70	34.88	-49.6	-51.0	14.6	0.00e+00	0	24	0	944766976	64	4459
2026-01-08 07:56:11.13	70.35	35.35	-49.5	-50.9	14.6	0.00e+00	0	24	0	957349888	64	4401
2026-01-08 07:56:15.10	68.96	35.81	-49.4	-50.8	14.7	0.00e+00	0	25	0	969932800	64	4359
2026-01-08 07:56:19.08	67.52	36.25	-49.5	-50.8	14.7	0.00e+00	0	24	0	982515712	64	4373
2026-01-08 07:56:23.07	66.04	36.68	-49.3	-50.6	14.7	0.00e+00	0	24	0	995098624	64	4283
2026-01-08 07:56:27.04	64.53	37.09	-49.9	-51.3	14.5	0.00e+00	0	25	0	1007681536	64	4646
2026-01-08 07:56:31.02	62.98	37.48	-49.6	-51.0	14.7	0.00e+00	0	25	0	1020264448	65	4199
2026-01-08 07:56:34.99	61.40	37.86	-49.3	-50.5	15.0	0.00e+00	0	24	0	1031798784	65	4000
2026-01-08 07:56:38.98	59.77	38.21	-49.9	-51.3	14.4	0.00e+00	0	25	0	1044381696	64	4642
2026-01-08 07:56:42.97	58.11	38.54	-50.0	-51.5	14.5	0.00e+00	0	24	0	1056964608	65	4445
2026-01-08 07:56:46.95	56.42	38.84	-50.3	-51.8	14.4	0.00e+00	0	25	0	1069547520	65	4605
2026-01-08 07:56:50.93	54.70	39.12	-50.6	-52.1	14.4	0.00e+00	0	25	0	1082130432	66	4526
2026-01-08 07:56:54.91	52.95	39.37	-50.2	-51.7	14.6	0.00e+00	0	24	0	1094713344	66	4305
2026-01-08 07:56:58.88	51.18	39.59	-50.6	-52.1	14.4	0.00e+00	0	25	0	1107296256	66	4501
2026-01-08 07:57:02.87	49.38	39.77	-50.6	-52.1	14.4	0.00e+00	0	24	0	1118830592	66	4499
2026-01-08 07:57:06.85	47.56	39.93	-50.9	-52.5	14.3	0.00e+00	0	25	0	1131413504	67	4442
2026-01-08 07:57:10.83	45.73	40.06	-50.3	-51.7	14.7	0.00e+00	0	25	0	1143996416	67	4076
2026-01-08 07:57:14.83	43.87	40.15	-50.4	-51.8	14.5	0.00e+00	0	25	0	1156579328	66	4385
2026-01-08 07:57:18.81	42.02	40.21	-50.7	-52.2	14.3	0.00e+00	0	24	0	1169162240	66	4569
2026-01-08 07:57:22.78	40.17	40.23	-50.9	-52.5	14.3	0.00e+00	0	25	0	1181745152	67	4469
2026-01-08 07:57:26.76	38.31	40.22	-50.7	-52.3	14.4	0.00e+00	0	25	0	1194328064	67	4341
2026-01-08 07:57:30.76	36.45	40.17	-50.7	-52.2	14.4	0.00e+00	0	25	0	1206910976	67	4315
2026-01-08 07:57:34.74	34.60	40.09	-50.1	-51.4	14.7	0.00e+00	0	25	0	1219493888	66	4190
2026-01-08 07:57:38.72	32.76	39.98	-50.2	-51.7	14.6	0.00e+00	0	25	0	1231028224	66	4298
2026-01-08 07:57:42.72	30.93	39.83	-49.9	-51.3	14.7	0.00e+00	0	25	0	1243611136	66	4115
2026-01-08 07:57:46.68	29.14	39.66	-50.5	-52.0	14.4	0.00e+00	0	25	0	1256194048	66	4460
2026-01-08 07:57:50.64	27.36	39.45	-49.9	-51.3	14.7	0.00e+00	0	25	0	1268776960	66	4116
2026-01-08 07:57:54.62	25.61	39.21	-50.0	-51.3	14.7	0.00e+00	0	25	0	1281359872	66	4123
2026-01-08 07:57:58.59	23.88	38.95	-49.9	-51.2	14.8	0.00e+00	0	24	0	1293942784	66	4073
2026-01-08 07:58:02.56	22.19	38.66	-50.2	-51.6	14.5	0.00e+00	0	25	0	1305477120	65	4498
2026-01-08 07:58:06.56	20.51	38.34	-49.9	-51.2	14.6	0.00e+00	0	25	0	1318060032	65	4340
2026-01-08 07:58:10.54	18.87	37.99	-49.8	-51.2	14.6	0.00e+00	0	25	0	1330642944	65	4292
2026-01-08 07:58:14.52	17.27	37.63	-49.9	-51.3	14.6	0.00e+00	0	25	0	1343225856	65	4379
2026-01-08 07:58:18.50	15.71	37.24	-51.1	-52.8	14.1	0.00e+00	0	25	0	1355808768	67	4601
2026-01-08 07:58:22.48	14.19	36.84	-50.3	-51.7	14.6	0.00e+00	0	25	0	1368391680	67	4082
2026-01-08 07:58:26.46	12.70	36.42	-50.8	-52.3	14.3	0.00e+00	0	25	0	1380974592	66	4604
2026-01-08 07:58:30.43	11.26	35.98	-49.6	-50.9	14.8	0.00e+00	0	25	0	1393557504	65	4156
2026-01-08 07:58:34.41	9.85	35.53	-49.3	-50.6	14.8	0.00e+00	0	25	0	1405091840	64	4257
2026-01-08 07:58:38.40	8.48	35.06	-49.7	-51.0	14.6	0.00e+00	0	24	0	1417674752	64	4476
2026-01-08 07:58:42.39	7.15	34.58	-49.5	-50.8	14.7	0.00e+00	0	25	0	1430257664	64	4363
2026-01-08 07:58:46.38	5.85	34.10	-49.0	-50.3	14.9	0.00e+00	0	25	0	1442840576	64	4103
2026-01-08 07:58:50.37	4.60	33.60	-48.8	-50.1	14.9	0.00e+00	0	25	0	1455423488	63	4249
2026-01-08 07:58:54.33	3.39	33.10	-49.3	-50.6	14.7	0.00e+00	0	25	0	1468006400	63	4512
2026-01-08 07:58:58.31	2.21	32.60	-48.8	-50.0	14.9	0.00e+00	0	25	0	1480589312	63	4237
2026-01-08 07:59:02.28	1.08	32.09	-49.2	-50.6	14.7	0.00e+00	0	25	0	1492123648	63	4501
2026-01-08 07:59:06.24	359.98	31.57	-48.5	-49.7	15.0	0.00e+00	0	25	0	1504706560	63	4092
2026-01-08 07:59:10.22	358.91	31.06	-49.1	-50.4	14.8	0.00e+00	0	25	0	1517289472	63	4410
2026-01-08 07:59:14.20	357.88	30.54	-48.4	-49.6	15.1	0.00e+00	0	25	0	1529872384	63	4043
2026-01-08 07:59:18.18	356.87	30.02	-48.3	-49.5	15.0	0.00e+00	0	25	0	1542455296	62	4232
2026-01-08 07:59:22.15	355.91	29.50	-48.2	-49.4	15.0	0.00e+00	0	25	0	1555038208	62	4183
2026-01-08 07:59:26.13	354.97	28.98	-48.1	-49.3	15.0	0.00e+00	0	25	0	1567621120	62	4127
2026-01-08 07:59:30.10	354.06	28.46	-49.1	-50.4	14.8	0.00e+00	0	25	0	1579155456	63	4428
2026-01-08 07:59:34.08	353.18	27.94	-48.6	-49.8	14.9	0.00e+00	0	25	0	1591738368	63	4145
2026-01-08 07:59:38.05	352.34	27.43	-48.2	-49.4	15.0	0.00e+00	0	25	0	1604321280	62	4149
2026-01-08 07:59:42.01	351.52	26.92	-48.5	-49.7	14.9	0.00e+00	0	25	0	1616904192	62	4336
2026-01-08 07:59:45.98	350.72	26.41	-48.3	-49.5	14.9	0.00e+00	0	25	0	1629487104	62	4232
2026-01-08 07:59:49.97	349.95	25.91	-48.1	-49.3	15.0	0.00e+00	0	25	0	1641021440	62	4131
2026-01-08 07:59:53.95	349.20	25.41	-48.5	-49.7	14.9	0.00e+00	0	25	0	1653604352	62	4311
2026-01-08 07:59:57.92	348.48	24.91	-48.3	-49.6	14.9	0.00e+00	0	25	0	1666187264	62	4250
2026-01-08 08:00:01.90	347.78	24.42	-48.1	-49.3	15.1	0.00e+00	0	25	0	1678770176	62	4099
2026-01-08 08:00:05.88	347.10	23.93	-47.9	-49.1	15.1	0.00e+00	0	25	0	1691353088	62	4024
2026-01-08 08:00:09.85	346.44	23.45	-48.1	-49.3	15.1	0.00e+00	0	25	0	1703936000	62	4116
2026-01-08 08:00:13.82	345.81	22.97	-48.0	-49.2	15.1	0.00e+00	0	25	0	1716518912	62	4090
2026-01-08 08:00:17.78	345.19	22.50	-48.1	-49.3	15.1	0.00e+00	0	25	0	1728053248	62	4106
2026-01-08 08:00:21.77	344.59	22.03	-48.5	-49.7	14.9	0.00e+00	0	25	0	1740636160	62	4321
2026-01-08 08:00:25.76	344.01	21.56	-48.1	-49.3	15.0	0.00e+00	0	25	0	1753219072	62	4144
2026-01-08 08:00:29.72	343.45	21.11	-48.0	-49.2	15.1	0.00e+00	0	24	0	1765801984	62	4072
2026-01-08 08:00:33.69	342.90	20.66	-48.0	-49.2	15.1	0.00e+00	0	25	0	1778384896	62	4068
2026-01-08 08:00:37.67	342.37	20.21	-47.9	-49.0	15.1	0.00e+00	0	25	0	1790967808	62	4003
2026-01-08 08:00:41.64	341.86	19.77	-47.5	-48.7	15.1	0.00e+00	0	25	0	1803550720	61	4052
2026-01-08 08:00:45.61	341.36	19.33	-47.6	-48.8	15.1	0.00e+00	0	25	0	1815085056	61	4100
2026-01-08 08:00:49.60	340.87	18.90	-47.8	-49.0	15.0	0.00e+00	0	25	0	1827667968	61	4213
2026-01-08 08:00:53.57	340.40	18.48	-48.1	-49.3	14.9	0.00e+00	0	25	0	1840250880	61	4390
2026-01-08 08:00:57.52	339.95	18.06	-48.5	-49.8	14.8	0.00e+00	0	25	0	1852833792	62	4360
2026-01-08 08:01:01.49	339.50	17.64	-48.5	-49.7	14.9	0.00e+00	0	25	0	1865416704	62	4340
2026-01-08 08:01:05.46	339.07	17.23	-48.4	-49.6	14.9	0.00e+00	0	24	0	1876951040	62	4283
2026-01-08 08:01:09.45	338.64	16.83	-48.1	-49.3	15.0	0.00e+00	0	24	0	1889533952	62	4128
2026-01-08 08:01:13.42	338.24	16.43	-48.0	-49.2	15.0	0.00e+00	0	25	0	1902116864	62	4086
2026-01-08 08:01:17.41	337.84	16.03	-48.4	-49.7	14.9	0.00e+00	0	25	0	1914699776	62	4298
2026-01-08 08:01:21.39	337.45	15.64	-48.7	-49.9	14.7	0.00e+00	0	25	0	1927282688	62	4438
2026-01-08 08:01:25.36	337.07	15.26	-48.6	-49.9	14.8	0.00e+00	0	25	0	1939865600	62	4400
2026-01-08 08:01:29.34	336.70	14.88	-48.5	-49.7	14.8	0.00e+00	0	25	0	1952448512	62	4324
2026-01-08 08:01:33.31	336.34	14.50	-48.5	-49.7	14.8	0.00e+00	0	25	0	1963982848	62	4340
2026-01-08 08:01:37.32	335.99	14.13	-48.4	-49.7	14.8	0.00e+00	0	25	0	1977614336	62	4309
2026-01-08 08:01:41.31	335.65	13.76	-48.5	-49.7	14.8	0.00e+00	0	25	0	1989148672	62	4331
2026-01-08 08:01:45.28	335.32	13.40	-48.5	-49.8	14.8	0.00e+00	0	25	0	2001731584	62	4370
2026-01-08 08:01:49.25	335.00	13.04	-48.7	-50.0	14.7	0.00e+00	0	25	0	2014314496	62	4461
2026-01-08 08:01:53.21	334.68	12.69	-48.9	-50.2	14.6	0.00e+00	0	25	0	2026897408	62	4579
2026-01-08 08:01:57.20	334.37	12.34	-48.9	-50.3	14.7	0.00e+00	0	25	0	2039480320	63	4344
2026-01-08 08:02:01.19	334.07	11.99	-49.1	-50.4	14.6	0.00e+00	0	25	0	2052063232	63	4428
2026-01-08 08:02:05.16	333.78	11.65	-49.2	-50.6	14.6	0.00e+00	0	25	0	2063597568	63	4506
2026-01-08 08:02:09.13	333.50	11.31	-49.3	-50.7	14.5	0.00e+00	0	25	0	2076180480	63	4569
2026-01-08 08:02:13.11	333.22	10.98	-49.5	-50.9	14.5	0.00e+00	0	25	0	2088763392	64	4400
2026-01-08 08:02:17.07	332.95	10.65	-49.4	-50.9	14.5	0.00e+00	0	25	0	2101346304	64	4401
2026-01-08 08:02:21.06	332.68	10.32	-49.6	-51.0	14.4	0.00e+00	0	25	0	2113929216	64	4485
2026-01-08 08:02:25.03	332.42	10.00	-49.7	-51.1	14.4	0.00e+00	0	25	0	2126512128	64	4530
2026-01-08 08:02:29.00	332.17	9.68	-49.8	-51.3	14.3	0.00e+00	0	25	0	2138046464	64	4615
2026-01-08 08:02:32.97	331.92	9.37	-49.8	-51.3	14.3	0.00e+00	0	25	0	2150629376	64	4599
2026-01-08 08:02:36.95	331.68	9.05	-50.0	-51.5	14.3	0.00e+00	0	25	0	2163212288	65	4486
2026-01-08 08:02:40.92	331.44	8.75	-50.0	-51.6	14.2	0.00e+00	0	25	0	2175795200	65	4508
2026-01-08 08:02:44.90	331.21	8.44	-50.1	-51.7	14.2	0.00e+00	0	25	0	2188378112	65	4556
2026-01-08 08:02:48.88	330.98	8.14	-50.3	-51.9	14.1	0.00e+00	0	25	0	2200961024	65	4662
2026-01-08 08:02:52.85	330.76	7.84	-50.3	-51.9	14.1	0.00e+00	0	25	0	2213543936	65	4663
2026-01-08 08:02:56.83	330.54	7.54	-50.5	-52.1	14.0	0.00e+00	0	25	0	2225078272	66	4538
2026-01-08 08:03:00.81	330.33	7.25	-50.7	-52.4	13.9	0.00e+00	0	25	0	2237661184	66	4665
2026-01-08 08:03:04.78	330.12	6.96	-50.5	-52.2	14.0	0.00e+00	0	25	0	2250244096	66	4575
2026-01-08 08:03:08.77	329.92	6.67	-50.6	-52.3	13.9	0.00e+00	0	25	0	2262827008	66	4604
2026-01-08 08:03:12.75	329.72	6.39	-50.6	-52.3	13.9	0.00e+00	0	25	0	2275409920	66	4627
2026-01-08 08:03:16.72	329.53	6.10	-50.9	-52.7	13.7	0.00e+00	0	25	0	2287992832	66	4831
2026-01-08 08:03:20.70	329.33	5.82	-50.8	-52.6	13.8	0.00e+00	0	25	0	2300575744	67	4495
2026-01-08 08:03:24.67	329.15	5.55	-50.8	-52.6	13.8	0.00e+00	0	25	0	2312110080	67	4526
2026-01-08 08:03:28.66	328.96	5.27	-50.8	-52.6	13.8	0.00e+00	0	25	0	2324692992	67	4536
2026-01-08 08:03:32.64	328.78	5.00	-52.6	-54.9	12.8	0.00e+00	0	25	0	2337275904	70	4938
2026-01-08 08:03:36.65	328.61	4.73	-59.2	-73.0	3.8	1.49e+00	0	25	104	2339373056	83	18826
2026-01-08 08:03:40.66	328.43	4.46	-60.0	-73.8	3.8	1.49e+00	0	25	104	2339373056	85	18413
2026-01-08 08:03:44.68	328.26	4.20	-60.2	-74.1	3.8	1.49e+00	0	25	104	2339373056	85	18950
2026-01-08 08:03:48.70	328.09	3.93	-60.3	-74.2	3.8	1.49e+00	0	25	104	2339373056	85	19192
2026-01-08 08:03:52.71	327.93	3.67	-60.4	-74.2	3.8	1.49e+00	0	25	104	2339373056	85	19367
2026-01-08 08:03:56.70	327.77	3.41	-60.3	-74.1	3.8	1.49e+00	0	25	104	2339373056	85	19124
2026-01-08 08:04:00.68	327.61	3.16	-60.2	-74.1	3.8	1.49e+00	0	25	104	2339373056	85	19082
2026-01-08 08:04:04.64	327.46	2.90	-60.2	-74.1	3.8	1.49e+00	0	25	104	2339373056	85	18992
2026-01-08 08:04:08.62	327.31	2.65	-60.1	-74.0	3.8	1.49e+00	0	25	104	2339373056	85	18904
2026-01-08 08:04:12.61	327.16	2.40	-60.1	-74.0	3.8	1.49e+00	0	25	104	2339373056	85	18798
2026-01-08 08:04:16.60	327.02	2.15	-60.1	-74.0	3.8	1.49e+00	0	25	104	2339373056	85	18736

#Closed at: 2026-01-08 08:04:19
#Recorded file [2339 MB]: D:/lorett/data/31004_260108_105031.dat