passes_logs/2026/01/08/R3.2S_Murmansk/R3.2S_Murmansk__20260108_111216_2024-110A_rec.log

#Pass ID: 20260108_111216_2024-110A
#Satellite: 2024-110A
#Configuration: 01B_900M
#almurnet v.1.7.20251203
#Start time: 2026-01-08 11:12:17

#Version: 2.2.20231116
#Station: R3.2S_Murmansk
#Location: 33.079688 lon 68.888172 lat
#TLE: 1 60012U 24110A   26007.98708826  .00007025  00000+0  42665-3 0  9999
#TLE: 2 60012  97.5753 101.0637 0010585  88.1984 272.0458 15.10762756 87702

#Time	Az	El	Level	Level2	SNR	BER	BlckErr	Temp	State	Recorded	gain1	gain2
2026-01-08 11:12:17.08	21.91	2.07	-57.1	-60.3	6.1	0.00e+00	0	25	0	0	81	20296
2026-01-08 11:12:20.10	21.85	2.28	-57.1	-60.3	6.2	0.00e+00	0	25	104	0	81	20290
2026-01-08 11:12:23.14	21.78	2.49	-57.0	-60.3	6.2	0.00e+00	0	25	104	0	81	20250
2026-01-08 11:12:26.16	21.71	2.70	-57.0	-60.3	6.2	0.00e+00	0	25	104	0	81	20267
2026-01-08 11:12:29.18	21.64	2.92	-57.1	-60.3	6.2	0.00e+00	0	25	104	0	81	20380
2026-01-08 11:12:32.21	21.57	3.14	-57.1	-60.3	6.2	0.00e+00	0	25	104	0	81	20313
2026-01-08 11:12:35.23	21.50	3.36	-57.1	-60.4	6.2	0.00e+00	0	26	104	0	81	20400
2026-01-08 11:12:38.25	21.42	3.58	-57.1	-60.3	6.2	0.00e+00	0	26	104	0	81	20328
2026-01-08 11:12:41.27	21.35	3.80	-57.1	-60.3	6.2	0.00e+00	0	26	104	0	81	20314
2026-01-08 11:12:44.30	21.27	4.03	-57.1	-60.3	6.2	0.00e+00	0	26	104	0	81	20383
2026-01-08 11:12:47.32	21.19	4.26	-57.1	-60.3	6.2	0.00e+00	0	26	104	0	81	20384
2026-01-08 11:12:50.35	21.11	4.49	-57.1	-60.3	6.2	0.00e+00	0	26	104	0	81	20302
2026-01-08 11:12:53.37	21.03	4.72	-57.1	-60.3	6.2	0.00e+00	0	26	104	0	81	20324
2026-01-08 11:12:56.39	20.94	4.96	-57.1	-60.3	6.2	0.00e+00	0	26	104	0	81	20353
2026-01-08 11:12:59.41	20.85	5.20	-57.2	-60.4	6.2	0.00e+00	0	26	104	0	81	20532
2026-01-08 11:13:02.43	20.77	5.44	-57.2	-60.4	6.2	0.00e+00	0	26	104	0	81	20496
2026-01-08 11:13:05.44	20.67	5.68	-57.2	-60.4	6.2	0.00e+00	0	26	104	0	81	20482
2026-01-08 11:13:08.46	20.58	5.93	-57.2	-60.4	6.2	0.00e+00	0	26	104	0	81	20548
2026-01-08 11:13:11.47	20.49	6.18	-57.3	-60.5	6.2	0.00e+00	0	26	104	0	81	20728
2026-01-08 11:13:14.49	20.39	6.43	-57.3	-60.5	6.2	0.00e+00	0	27	104	0	81	20769
2026-01-08 11:13:17.50	20.29	6.69	-57.3	-60.5	6.2	0.00e+00	0	26	104	0	81	20755
2026-01-08 11:13:20.51	20.19	6.94	-57.3	-60.5	6.2	0.00e+00	0	27	104	0	81	20798
2026-01-08 11:13:23.53	20.08	7.21	-57.3	-60.5	6.2	0.00e+00	0	27	104	0	81	20852
2026-01-08 11:13:26.55	19.97	7.47	-57.4	-60.6	6.2	0.00e+00	0	27	104	0	81	21015
2026-01-08 11:13:29.56	19.86	7.74	-57.4	-60.6	6.2	0.00e+00	0	27	104	0	81	20998
2026-01-08 11:13:32.58	19.75	8.02	-57.3	-60.5	6.2	0.00e+00	0	27	104	0	81	20855
2026-01-08 11:13:35.59	19.63	8.29	-57.4	-60.6	6.2	0.00e+00	0	27	104	0	81	21034
2026-01-08 11:13:38.61	19.51	8.58	-57.5	-60.7	6.2	0.00e+00	0	27	104	0	81	21240
2026-01-08 11:13:41.63	19.39	8.86	-57.4	-60.6	6.1	0.00e+00	0	27	104	0	81	20973
2026-01-08 11:13:44.65	19.27	9.15	-57.0	-60.1	6.2	0.00e+00	0	27	104	0	81	19844
2026-01-08 11:13:47.66	19.14	9.44	-56.7	-59.7	6.2	0.00e+00	0	27	104	0	80	20047
2026-01-08 11:13:50.68	19.00	9.74	-56.8	-59.8	6.2	0.00e+00	0	27	104	0	80	20243
2026-01-08 11:13:53.69	18.87	10.04	-57.3	-60.5	6.2	0.00e+00	0	27	104	0	80	21993
2026-01-08 11:13:56.71	18.73	10.35	-57.2	-60.3	6.2	0.00e+00	0	27	104	0	80	21524
2026-01-08 11:13:59.72	18.58	10.66	-57.3	-60.4	6.2	0.00e+00	0	27	104	0	80	21652
2026-01-08 11:14:02.74	18.44	10.98	-57.2	-60.3	6.2	0.00e+00	0	27	104	0	80	21536
2026-01-08 11:14:05.76	18.28	11.30	-57.6	-60.7	6.2	0.00e+00	0	27	104	0	80	22581
2026-01-08 11:14:08.77	18.13	11.63	-57.7	-61.0	6.2	0.00e+00	0	27	104	0	81	21903
2026-01-08 11:14:11.79	17.97	11.96	-57.7	-60.9	6.2	0.00e+00	0	27	104	0	81	21766
2026-01-08 11:14:14.80	17.80	12.30	-57.8	-61.0	6.2	0.00e+00	0	27	104	0	81	21973
2026-01-08 11:14:17.82	17.63	12.65	-57.7	-61.0	6.2	0.00e+00	0	27	104	0	81	21895
2026-01-08 11:14:20.84	17.45	13.00	-57.8	-61.0	6.2	0.00e+00	0	27	104	0	81	22041
2026-01-08 11:14:23.86	17.27	13.35	-57.8	-61.0	6.1	0.00e+00	0	27	104	0	81	22026
2026-01-08 11:14:26.86	17.09	13.72	-55.5	-57.2	6.7	0.00e+00	0	27	104	0	78	16849
2026-01-08 11:14:29.87	16.89	14.09	-55.1	-56.7	6.8	0.00e+00	0	27	104	0	75	18893
2026-01-08 11:14:32.88	16.70	14.46	-57.7	-60.7	6.2	0.00e+00	0	27	104	0	81	21270
2026-01-08 11:14:35.89	16.49	14.85	-42.7	-43.0	10.1	7.61e-03	0	27	104	0	52	14623
2026-01-08 11:14:38.91	16.28	15.24	-41.2	-41.4	13.2	2.28e-05	0	28	0	293601280	49	14512
2026-01-08 11:14:41.93	16.06	15.64	-41.0	-41.2	13.3	1.90e-05	0	28	0	637534208	49	14266
2026-01-08 11:14:44.95	15.83	16.05	-40.5	-40.8	13.4	3.80e-06	0	28	0	973078528	48	14298
2026-01-08 11:14:47.97	15.60	16.47	-40.5	-40.7	13.4	9.50e-06	0	28	0	1308622848	48	14193
2026-01-08 11:14:50.99	15.36	16.89	-39.5	-39.7	13.3	1.14e-05	0	28	0	1652555776	46	14266
2026-01-08 11:14:54.01	15.11	17.33	-39.3	-39.6	13.3	1.14e-05	0	28	0	1988100096	45	14833
2026-01-08 11:14:57.02	14.85	17.77	-39.1	-39.4	13.4	5.70e-06	0	28	0	2332033024	45	14455
2026-01-08 11:15:00.03	14.58	18.22	-38.9	-39.1	13.5	5.70e-06	0	28	0	2675965952	45	14052
2026-01-08 11:15:03.05	14.30	18.68	-38.9	-39.1	13.4	1.90e-06	0	28	0	3011510272	44	14933
2026-01-08 11:15:06.06	14.01	19.16	-38.7	-38.9	13.5	3.80e-06	0	28	0	3347054592	44	14480
2026-01-08 11:15:09.07	13.71	19.64	-38.4	-38.6	13.7	3.80e-06	0	28	0	3682598912	44	14061
2026-01-08 11:15:12.09	13.40	20.13	-38.2	-38.4	13.6	0.00e+00	0	28	0	4026531840	43	14527
2026-01-08 11:15:15.10	13.08	20.64	-38.0	-38.3	13.7	3.80e-06	0	28	0	4362076160	43	14281
2026-01-08 11:15:18.11	12.74	21.16	-37.7	-37.9	13.7	1.90e-06	0	28	0	4706009088	42	14546
2026-01-08 11:15:21.12	12.39	21.69	-37.5	-37.7	13.7	3.80e-06	0	28	0	5041553408	42	14223
2026-01-08 11:15:24.13	12.03	22.23	-37.3	-37.5	13.7	0.00e+00	0	28	0	5385486336	41	14673
2026-01-08 11:15:27.14	11.65	22.78	-37.2	-37.4	13.7	0.00e+00	0	28	0	5721030656	41	14590
2026-01-08 11:15:30.16	11.26	23.35	-36.9	-37.1	13.9	0.00e+00	0	28	0	6056574976	41	14098
2026-01-08 11:15:33.17	10.85	23.94	-36.7	-37.0	13.8	0.00e+00	0	28	0	6392119296	40	14635
2026-01-08 11:15:36.18	10.42	24.54	-36.7	-36.9	13.8	0.00e+00	0	28	0	6736052224	40	14473
2026-01-08 11:15:39.19	9.97	25.15	-36.3	-36.5	13.9	0.00e+00	0	28	0	7079985152	39	14733
2026-01-08 11:15:42.21	9.50	25.78	-36.1	-36.4	13.9	0.00e+00	0	28	0	7415529472	39	14466
2026-01-08 11:15:45.23	9.01	26.43	-35.8	-36.0	13.9	0.00e+00	0	28	0	7751073792	38	14729
2026-01-08 11:15:48.23	8.50	27.08	-35.7	-36.0	13.9	0.00e+00	0	28	0	8095006720	38	14614
2026-01-08 11:15:51.25	7.96	27.76	-35.5	-35.7	14.1	0.00e+00	0	28	0	8430551040	38	14201
2026-01-08 11:15:54.25	7.40	28.46	-35.2	-35.4	14.0	0.00e+00	0	28	0	8766095360	37	14574
2026-01-08 11:15:57.25	6.81	29.17	-35.0	-35.2	14.1	0.00e+00	0	28	0	9110028288	37	14127
2026-01-08 11:16:00.26	6.19	29.90	-34.7	-34.9	14.1	0.00e+00	0	29	0	9445572608	36	14530
2026-01-08 11:16:03.28	5.53	30.65	-34.5	-34.7	14.2	0.00e+00	0	28	0	9781116928	36	14204
2026-01-08 11:16:06.29	4.84	31.42	-31.7	-31.9	14.0	0.00e+00	0	29	0	10125049856	30	14570
2026-01-08 11:16:09.32	4.11	32.22	-31.4	-31.6	14.1	0.00e+00	0	28	0	10460594176	30	14109
2026-01-08 11:16:12.32	3.35	33.02	-31.1	-31.4	14.1	0.00e+00	0	29	0	10804527104	29	14464
2026-01-08 11:16:15.34	2.54	33.85	-31.0	-31.2	14.2	0.00e+00	0	29	0	11140071424	29	14241
2026-01-08 11:16:18.35	1.69	34.70	-30.6	-30.8	14.2	0.00e+00	0	29	0	11484004352	28	14372
2026-01-08 11:16:21.36	0.78	35.57	-30.4	-30.6	14.2	0.00e+00	0	28	0	11819548672	28	14088
2026-01-08 11:16:24.37	359.83	36.46	-30.1	-30.4	14.2	0.00e+00	0	29	0	12155092992	27	14456
2026-01-08 11:16:27.39	358.81	37.37	-30.1	-30.3	14.2	0.00e+00	0	28	0	12499025920	27	14352
2026-01-08 11:16:30.39	357.74	38.29	-29.8	-30.1	14.2	0.00e+00	0	29	0	12834570240	26	14822
2026-01-08 11:16:33.41	356.59	39.23	-29.6	-29.8	14.2	0.00e+00	0	29	0	13170114560	26	14405
2026-01-08 11:16:36.43	355.37	40.19	-29.4	-29.6	14.3	0.00e+00	0	28	0	13514047488	26	14008
2026-01-08 11:16:39.44	354.08	41.16	-29.0	-29.2	14.3	0.00e+00	0	29	0	13857980416	25	14237
2026-01-08 11:16:42.46	352.69	42.15	-29.0	-29.2	14.3	0.00e+00	0	29	0	14193524736	25	14234
2026-01-08 11:16:45.46	351.23	43.14	-28.8	-29.0	14.3	0.00e+00	0	29	0	14529069056	24	14707
2026-01-08 11:16:48.48	349.65	44.15	-28.6	-28.8	14.3	0.00e+00	0	28	0	14873001984	24	14366
2026-01-08 11:16:51.50	347.97	45.16	-28.4	-28.6	14.4	0.00e+00	0	29	0	15208546304	24	14058
2026-01-08 11:16:54.51	346.18	46.17	-28.3	-28.5	14.3	0.00e+00	0	28	0	15544090624	23	14726
2026-01-08 11:16:57.51	344.27	47.16	-28.2	-28.4	14.4	0.00e+00	0	29	0	15888023552	23	14479
2026-01-08 11:17:00.52	342.23	48.16	-28.2	-28.4	14.3	0.00e+00	0	29	0	16223567872	23	14522
2026-01-08 11:17:03.54	340.04	49.13	-28.0	-28.2	14.4	0.00e+00	0	29	0	16567500800	23	14219
2026-01-08 11:17:06.55	337.71	50.08	-27.8	-28.0	14.3	0.00e+00	0	29	0	16903045120	22	14714
2026-01-08 11:17:09.57	335.22	51.01	-27.8	-28.0	14.3	0.00e+00	0	29	0	17238589440	22	14725
2026-01-08 11:17:12.57	332.60	51.88	-27.7	-27.9	14.3	0.00e+00	0	29	0	17582522368	22	14602
2026-01-08 11:17:15.59	329.79	52.71	-27.5	-27.7	14.4	0.00e+00	0	29	0	17918066688	22	14255
2026-01-08 11:17:18.61	326.82	53.49	-27.5	-27.7	14.4	0.00e+00	0	29	0	18261999616	22	14163
2026-01-08 11:17:21.62	323.70	54.19	-27.5	-27.8	14.4	0.00e+00	0	29	0	18597543936	22	14312
2026-01-08 11:17:24.63	320.43	54.81	-27.4	-27.6	14.4	0.00e+00	0	29	0	18941476864	22	14026
2026-01-08 11:17:27.63	317.04	55.34	-27.3	-27.5	14.3	0.00e+00	0	29	0	19277021184	21	14747
2026-01-08 11:17:30.66	313.49	55.78	-27.3	-27.6	14.3	0.00e+00	0	29	0	19612565504	21	14835
2026-01-08 11:17:33.68	309.85	56.12	-27.3	-27.5	14.3	0.00e+00	0	29	0	19956498432	21	14720
2026-01-08 11:17:36.69	306.14	56.33	-27.2	-27.5	14.3	0.00e+00	0	29	0	20292042752	21	14610
2026-01-08 11:17:39.71	302.38	56.44	-27.2	-27.4	14.3	0.00e+00	0	29	0	20635975680	21	14604
2026-01-08 11:17:42.72	298.62	56.42	-27.3	-27.5	14.3	0.00e+00	0	29	0	20971520000	21	14765
2026-01-08 11:17:45.74	294.87	56.29	-27.4	-27.6	14.3	0.00e+00	0	29	0	21315452928	21	14864
2026-01-08 11:17:48.75	291.18	56.05	-27.4	-27.6	14.3	0.00e+00	0	29	0	21650997248	21	14893
2026-01-08 11:17:51.77	287.56	55.69	-27.4	-27.6	14.3	0.00e+00	0	29	0	21986541568	21	14829
2026-01-08 11:17:54.78	284.06	55.23	-27.5	-27.7	14.3	0.00e+00	0	29	0	22330474496	21	15026
2026-01-08 11:17:57.80	280.67	54.67	-27.4	-27.6	14.3	0.00e+00	0	29	0	22666018816	21	14930
2026-01-08 11:18:00.81	277.44	54.03	-27.5	-27.8	14.3	0.00e+00	0	29	0	23009951744	21	15170
2026-01-08 11:18:03.82	274.35	53.31	-27.6	-27.9	14.2	0.00e+00	0	29	0	23345496064	21	15312
2026-01-08 11:18:06.83	271.43	52.52	-27.7	-27.9	14.2	0.00e+00	0	29	0	23689428992	21	15429
2026-01-08 11:18:09.84	268.67	51.68	-27.7	-27.9	14.2	0.00e+00	0	29	0	24024973312	21	15464
2026-01-08 11:18:12.85	266.06	50.79	-27.7	-28.0	14.2	0.00e+00	0	29	0	24360517632	21	15563
2026-01-08 11:18:15.87	263.61	49.85	-27.9	-28.1	14.2	0.00e+00	0	29	0	24696061952	21	15726
2026-01-08 11:18:18.89	261.30	48.89	-28.0	-28.2	14.2	0.00e+00	0	29	0	25039994880	21	15958
2026-01-08 11:18:21.90	259.15	47.91	-28.2	-28.4	14.2	0.00e+00	0	29	0	25383927808	22	15462
2026-01-08 11:18:24.92	257.13	46.91	-28.2	-28.5	14.2	0.00e+00	0	29	0	25719472128	22	15487
2026-01-08 11:18:27.93	255.25	45.91	-28.5	-28.8	14.2	0.00e+00	0	29	0	26063405056	22	16077
2026-01-08 11:18:30.95	253.48	44.90	-28.6	-28.8	14.2	0.00e+00	0	29	0	26398949376	22	16125
2026-01-08 11:18:33.97	251.82	43.88	-58.4	-62.0	6.2	0.00e+00	0	28	104	26642219008	82	23311
2026-01-08 11:18:36.98	250.27	42.88	-58.5	-62.0	6.1	0.00e+00	0	28	104	26642219008	82	23361
2026-01-08 11:18:39.99	248.82	41.89	-58.9	-62.2	6.2	0.00e+00	0	28	104	26642219008	83	22370
2026-01-08 11:18:42.99	247.47	40.91	-58.9	-62.2	6.2	0.00e+00	0	28	104	26642219008	83	22431
2026-01-08 11:18:46.01	246.19	39.93	-58.9	-62.2	6.2	0.00e+00	0	28	104	26642219008	83	22466
2026-01-08 11:18:49.02	244.99	38.98	-58.6	-62.1	6.2	0.00e+00	0	28	104	26642219008	83	22132
2026-01-08 11:18:52.05	243.85	38.03	-58.8	-62.1	6.2	0.00e+00	0	28	104	26642219008	83	22174
2026-01-08 11:18:55.06	242.79	37.11	-58.8	-62.1	6.1	0.00e+00	0	28	104	26642219008	83	22170
2026-01-08 11:18:58.08	241.79	36.20	-58.8	-62.1	6.2	0.00e+00	0	28	104	26642219008	83	22195
2026-01-08 11:19:01.09	240.84	35.32	-58.7	-62.0	6.2	0.00e+00	0	28	104	26642219008	83	21891
2026-01-08 11:19:04.11	239.95	34.45	-58.8	-62.0	6.2	0.00e+00	0	28	104	26642219008	83	21955
2026-01-08 11:19:07.12	239.11	33.60	-58.8	-62.0	6.2	0.00e+00	0	28	104	26642219008	83	21963
2026-01-08 11:19:10.13	238.31	32.78	-58.8	-62.0	6.2	0.00e+00	0	28	104	26642219008	83	21981
2026-01-08 11:19:13.15	237.55	31.97	-58.6	-61.9	6.2	0.00e+00	0	28	104	26642219008	83	21739
2026-01-08 11:19:16.16	236.83	31.19	-58.7	-61.9	6.2	0.00e+00	0	28	104	26642219008	83	21799
2026-01-08 11:19:19.17	236.15	30.42	-58.7	-61.9	6.2	0.00e+00	0	28	104	26642219008	83	21656
2026-01-08 11:19:22.18	235.51	29.67	-58.6	-61.9	6.2	0.00e+00	0	28	104	26642219008	83	21715
2026-01-08 11:19:25.20	234.89	28.94	-58.5	-61.8	6.2	0.00e+00	0	28	104	26642219008	83	21540
2026-01-08 11:19:28.21	234.31	28.23	-58.6	-61.8	6.2	0.00e+00	0	28	104	26642219008	83	21451
2026-01-08 11:19:31.22	233.75	27.54	-58.6	-61.8	6.1	0.00e+00	0	28	104	26642219008	83	21502
2026-01-08 11:19:34.23	233.22	26.86	-58.5	-61.8	6.2	0.00e+00	0	28	104	26642219008	83	21411
2026-01-08 11:19:37.23	232.71	26.21	-58.5	-61.7	6.2	0.00e+00	0	28	104	26642219008	83	21319
2026-01-08 11:19:40.26	232.22	25.56	-58.5	-61.7	6.2	0.00e+00	0	28	104	26642219008	83	21281
2026-01-08 11:19:43.27	231.76	24.94	-58.5	-61.7	6.2	0.00e+00	0	28	104	26642219008	83	21266
2026-01-08 11:19:46.27	231.31	24.33	-58.5	-61.7	6.2	0.00e+00	0	28	104	26642219008	83	21198
2026-01-08 11:19:49.29	230.89	23.73	-58.4	-61.7	6.2	0.00e+00	0	28	104	26642219008	83	21181
2026-01-08 11:19:52.30	230.48	23.15	-58.4	-61.6	6.2	0.00e+00	0	28	104	26642219008	83	21100
2026-01-08 11:19:55.30	230.09	22.58	-58.4	-61.6	6.2	0.00e+00	0	28	104	26642219008	83	21044
2026-01-08 11:19:58.32	229.71	22.03	-58.4	-61.6	6.2	0.00e+00	0	28	104	26642219008	83	20971
2026-01-08 11:20:01.33	229.35	21.49	-58.3	-61.6	6.2	0.00e+00	0	28	104	26642219008	83	20932
2026-01-08 11:20:04.34	229.01	20.96	-58.3	-61.6	6.2	0.00e+00	0	28	104	26642219008	83	20885
2026-01-08 11:20:07.36	228.67	20.44	-58.3	-61.5	6.2	0.00e+00	0	28	104	26642219008	83	20832
2026-01-08 11:20:10.38	228.35	19.94	-58.3	-61.5	6.1	0.00e+00	0	28	104	26642219008	83	20821
2026-01-08 11:20:13.39	228.04	19.45	-58.3	-61.5	6.2	0.00e+00	0	28	104	26642219008	83	20734
2026-01-08 11:20:16.41	227.74	18.97	-58.2	-61.5	6.2	0.00e+00	0	28	104	26642219008	83	20698
2026-01-08 11:20:19.42	227.46	18.49	-58.2	-61.4	6.2	0.00e+00	0	28	104	26642219008	83	20557
2026-01-08 11:20:22.43	227.18	18.03	-58.2	-61.5	6.2	0.00e+00	0	28	104	26642219008	83	20636
2026-01-08 11:20:25.44	226.91	17.58	-58.2	-61.4	6.2	0.00e+00	0	28	104	26642219008	83	20523
2026-01-08 11:20:28.46	226.65	17.14	-58.2	-61.4	6.2	0.00e+00	0	28	104	26642219008	83	20466
2026-01-08 11:20:31.47	226.40	16.71	-58.1	-61.4	6.2	0.00e+00	0	28	104	26642219008	83	20523
2026-01-08 11:20:34.48	226.16	16.29	-58.1	-61.3	6.2	0.00e+00	0	28	104	26642219008	83	20323
2026-01-08 11:20:37.50	225.93	15.87	-58.1	-61.3	6.2	0.00e+00	0	28	104	26642219008	83	20275
2026-01-08 11:20:40.51	225.71	15.47	-58.1	-61.3	6.2	0.00e+00	0	28	104	26642219008	83	20297
2026-01-08 11:20:43.54	225.49	15.07	-58.1	-61.3	6.2	0.00e+00	0	28	104	26642219008	83	20210
2026-01-08 11:20:46.55	225.27	14.68	-58.0	-61.3	6.2	0.00e+00	0	28	104	26642219008	83	20209
2026-01-08 11:20:49.57	225.07	14.29	-58.0	-61.3	6.2	0.00e+00	0	28	104	26642219008	83	20165
2026-01-08 11:20:52.58	224.87	13.92	-58.0	-61.3	6.2	0.00e+00	0	28	104	26642219008	83	20177
2026-01-08 11:20:55.59	224.68	13.55	-58.0	-61.2	6.2	0.00e+00	0	28	104	26642219008	83	20096
2026-01-08 11:20:58.61	224.49	13.19	-57.9	-61.2	6.2	0.00e+00	0	28	104	26642219008	83	19958
2026-01-08 11:21:01.61	224.31	12.83	-57.9	-61.1	6.1	0.00e+00	0	28	104	26642219008	83	19932
2026-01-08 11:21:04.63	224.14	12.48	-57.9	-61.1	6.2	0.00e+00	0	28	104	26642219008	83	19900
2026-01-08 11:21:07.64	223.97	12.14	-57.9	-61.1	6.2	0.00e+00	0	28	104	26642219008	83	19892
2026-01-08 11:21:10.66	223.80	11.80	-57.9	-61.1	6.2	0.00e+00	0	28	104	26642219008	83	19829
2026-01-08 11:21:13.66	223.64	11.47	-57.8	-61.0	6.2	0.00e+00	0	28	104	26642219008	82	20843
2026-01-08 11:21:16.68	223.48	11.14	-57.8	-61.0	6.2	0.00e+00	0	28	104	26642219008	82	20770
2026-01-08 11:21:19.70	223.33	10.82	-57.8	-61.0	6.1	0.00e+00	0	28	104	26642219008	82	20804
2026-01-08 11:21:22.72	223.18	10.50	-57.7	-61.0	6.2	0.00e+00	0	28	104	26642219008	82	20652
2026-01-08 11:21:25.72	223.04	10.19	-57.7	-61.0	6.2	0.00e+00	0	28	104	26642219008	82	20657
2026-01-08 11:21:28.74	222.90	9.89	-57.7	-60.9	6.2	0.00e+00	0	28	104	26642219008	82	20568
2026-01-08 11:21:31.75	222.76	9.59	-57.7	-60.9	6.2	0.00e+00	0	28	104	26642219008	82	20618
2026-01-08 11:21:34.73	222.63	9.29	-57.6	-60.9	6.2	0.00e+00	0	28	104	26642219008	82	20441
2026-01-08 11:21:37.60	222.51	9.01	-57.6	-60.9	6.2	0.00e+00	0	28	104	26642219008	82	20432
2026-01-08 11:21:40.75	222.37	8.71	-57.6	-60.9	6.2	0.00e+00	0	28	104	26642219008	82	20454
2026-01-08 11:21:43.62	222.26	8.44	-57.6	-60.9	6.2	0.00e+00	0	28	104	26642219008	82	20401
2026-01-08 11:21:46.77	222.13	8.15	-57.5	-60.7	6.2	0.00e+00	0	28	104	26642219008	82	20139
2026-01-08 11:21:49.64	222.02	7.89	-57.5	-60.8	6.2	0.00e+00	0	28	104	26642219008	82	20177
2026-01-08 11:21:52.81	221.90	7.60	-57.5	-60.7	6.2	0.00e+00	0	28	104	26642219008	82	20108
2026-01-08 11:21:55.69	221.79	7.34	-57.5	-60.7	6.2	0.00e+00	0	28	104	26642219008	82	20102
2026-01-08 11:21:58.86	221.68	7.06	-57.3	-60.5	6.2	0.00e+00	0	28	104	26642219008	81	20811
2026-01-08 11:22:01.73	221.58	6.81	-57.3	-60.5	6.1	0.00e+00	0	28	104	26642219008	81	20752
2026-01-08 11:22:04.89	221.47	6.54	-57.3	-60.5	6.2	0.00e+00	0	28	104	26642219008	81	20829
2026-01-08 11:22:07.76	221.37	6.30	-57.3	-60.5	6.2	0.00e+00	0	28	104	26642219008	81	20835
2026-01-08 11:22:10.92	221.27	6.03	-57.2	-60.4	6.2	0.00e+00	0	28	104	26642219008	81	20487
2026-01-08 11:22:13.79	221.18	5.80	-57.1	-60.4	6.2	0.00e+00	0	28	104	26642219008	81	20419
2026-01-08 11:22:16.94	221.08	5.54	-57.2	-60.4	6.2	0.00e+00	0	28	104	26642219008	81	20523
2026-01-08 11:22:19.81	220.99	5.31	-57.2	-60.4	6.1	0.00e+00	0	28	104	26642219008	81	20528
2026-01-08 11:22:22.98	220.90	5.05	-57.0	-60.2	6.2	0.00e+00	0	28	104	26642219008	81	20009
2026-01-08 11:22:25.86	220.81	4.83	-58.1	-61.3	6.1	0.00e+00	0	28	104	26642219008	81	22696
2026-01-08 11:22:29.04	220.72	4.58	-58.7	-61.9	6.1	0.00e+00	0	28	104	26642219008	83	21709
2026-01-08 11:22:31.92	220.64	4.36	-59.0	-62.2	6.2	0.00e+00	0	28	104	26642219008	83	22476
2026-01-08 11:22:35.08	220.56	4.12	-59.1	-62.3	6.2	0.00e+00	0	28	104	26642219008	83	22885
2026-01-08 11:22:37.97	220.48	3.90	-59.4	-62.6	6.2	0.00e+00	0	28	104	26642219008	84	22332
2026-01-08 11:22:41.13	220.40	3.66	-59.5	-62.7	6.1	0.00e+00	0	28	104	26642219008	84	22583
2026-01-08 11:22:44.00	220.32	3.45	-59.6	-62.8	6.1	0.00e+00	0	28	104	26642219008	84	22779
2026-01-08 11:22:47.16	220.24	3.22	-59.6	-62.8	6.2	0.00e+00	0	28	104	26642219008	85	21593
2026-01-08 11:22:50.04	220.17	3.01	-59.6	-62.8	6.1	0.00e+00	0	28	104	26642219008	85	21487
2026-01-08 11:22:53.21	220.10	2.78	-59.5	-62.8	6.2	0.00e+00	0	28	104	26642219008	85	21428
2026-01-08 11:22:56.10	220.03	2.58	-59.5	-62.7	6.2	0.00e+00	0	28	104	26642219008	85	21355
2026-01-08 11:22:59.27	219.95	2.35	-59.5	-62.7	6.2	0.00e+00	0	28	104	26642219008	85	21246
2026-01-08 11:23:02.14	219.89	2.15	-59.4	-62.7	6.2	0.00e+00	0	28	104	26642219008	85	21155
2026-01-08 11:23:05.30	219.82	1.93	-59.4	-62.7	6.1	0.00e+00	0	28	104	26642219008	85	21153

#Closed at: 2026-01-08 11:23:06
#Recorded file [26642 MB]: D:/lorett/data/31004_260108_141216.dat