passes_logs/2026/01/08/R3.2S_Murmansk/R3.2S_Murmansk__20260108_220253_SUOMI_NPP_rec.log

#Pass ID: 20260108_220253_SUOMI NPP
#Satellite: SUOMI NPP
#Configuration: NPP
#almurnet v.1.7.20251203
#Start time: 2026-01-08 22:02:53

#Version: 2.2.20231116
#Station: R3.2S_Murmansk
#Location: 33.079688 lon 68.888172 lat
#TLE: 1 37849U 11061A   26008.05542337  .00000108  00000+0  71976-4 0  9997
#TLE: 2 37849  98.7805 310.1641 0002540  75.6410 284.5048 14.19523335735721

#Time	Az	El	Level	Level2	SNR	BER	BlckErr	Temp	State	Recorded	gain1	gain2
2026-01-08 22:02:53.70	18.54	1.99	-57.5	-73.4	3.8	1.49e+00	0	22	0	0	81	22024
2026-01-08 22:02:56.71	18.78	2.15	-57.5	-73.5	3.8	1.49e+00	0	22	104	0	80	23583
2026-01-08 22:02:59.71	19.03	2.30	-57.5	-73.4	3.8	1.49e+00	0	22	104	0	80	23563
2026-01-08 22:03:02.71	19.27	2.46	-57.5	-73.3	3.8	1.49e+00	0	22	104	0	80	23300
2026-01-08 22:03:05.71	19.52	2.61	-57.5	-73.2	3.8	1.49e+00	0	22	104	0	80	22999
2026-01-08 22:03:08.70	19.77	2.77	-57.5	-73.4	3.8	1.49e+00	0	22	104	0	80	23406
2026-01-08 22:03:11.70	20.02	2.93	-57.5	-73.5	3.8	1.49e+00	0	22	104	0	80	23682
2026-01-08 22:03:14.69	20.28	3.09	-57.5	-73.4	3.8	1.49e+00	0	22	104	0	80	23548
2026-01-08 22:03:17.69	20.54	3.24	-57.5	-73.5	3.8	1.49e+00	0	22	104	0	80	23656
2026-01-08 22:03:20.68	20.80	3.40	-57.5	-72.9	3.8	1.49e+00	0	23	104	0	80	22034
2026-01-08 22:03:23.67	21.06	3.56	-57.4	-72.4	3.8	1.49e+00	0	22	104	0	80	20821
2026-01-08 22:03:26.67	21.32	3.72	-57.5	-72.6	3.8	1.49e+00	0	23	104	0	80	21295
2026-01-08 22:03:29.67	21.59	3.88	-57.4	-70.5	4.1	1.46e+00	0	23	0	0	80	16702
2026-01-08 22:03:32.67	21.86	4.04	-57.2	-68.6	4.6	9.09e-01	0	23	0	2097152	80	13517
2026-01-08 22:03:35.66	22.14	4.20	-57.0	-66.6	5.7	5.23e-01	0	23	0	8388608	80	10673
2026-01-08 22:03:38.66	22.42	4.36	-55.9	-61.7	9.6	2.09e-02	0	23	0	13631488	78	6826
2026-01-08 22:03:41.66	22.70	4.53	-54.1	-57.8	12.5	7.00e-07	0	23	0	18874368	74	5497
2026-01-08 22:03:44.66	22.98	4.69	-53.6	-57.0	13.0	0.00e+00	0	23	0	25165824	73	5281
2026-01-08 22:03:47.65	23.27	4.85	-54.6	-58.8	11.7	9.10e-06	0	23	0	30408704	74	6197
2026-01-08 22:03:50.66	23.56	5.01	-56.4	-63.4	8.1	2.72e-02	0	23	0	36700160	77	8843
2026-01-08 22:03:53.66	23.85	5.18	-56.9	-65.6	6.7	2.63e-01	0	23	0	41943040	78	10656
2026-01-08 22:03:56.66	24.14	5.34	-55.5	-60.6	10.4	6.34e-01	0	23	0	47185920	77	6358
2026-01-08 22:03:59.65	24.44	5.51	-54.0	-57.5	12.8	1.50e-06	0	23	0	52428800	74	5293
2026-01-08 22:04:02.65	24.74	5.67	-53.9	-57.4	12.8	0.00e+00	0	23	0	58720256	74	5252
2026-01-08 22:04:05.66	25.05	5.84	-53.9	-57.4	12.8	7.00e-07	0	23	0	63963136	74	5241
2026-01-08 22:04:08.65	25.36	6.00	-53.9	-57.4	12.9	0.00e+00	0	23	0	69206016	74	5220
2026-01-08 22:04:11.64	25.67	6.17	-53.7	-56.9	13.2	7.00e-07	0	23	0	75497472	74	4978
2026-01-08 22:04:14.63	25.98	6.33	-53.5	-56.5	13.3	0.00e+00	0	23	0	80740352	73	5036
2026-01-08 22:04:17.62	26.30	6.50	-53.4	-56.4	13.4	0.00e+00	0	23	0	85983232	73	4955
2026-01-08 22:04:20.61	26.62	6.67	-53.2	-56.0	13.7	0.00e+00	0	23	0	92274688	73	4744
2026-01-08 22:04:23.59	26.94	6.83	-52.7	-55.3	13.9	0.00e+00	0	23	0	97517568	71	4879
2026-01-08 22:04:26.57	27.27	7.00	-52.4	-54.9	14.2	0.00e+00	0	23	0	102760448	71	4652
2026-01-08 22:04:29.56	27.60	7.17	-52.4	-54.9	14.2	0.00e+00	0	23	0	109051904	71	4652
2026-01-08 22:04:32.56	27.94	7.34	-52.4	-54.9	14.2	0.00e+00	0	23	0	114294784	71	4657
2026-01-08 22:04:35.55	28.28	7.51	-52.7	-55.2	14.0	0.00e+00	0	23	0	119537664	71	4853
2026-01-08 22:04:38.54	28.62	7.67	-52.7	-55.3	14.0	0.00e+00	0	23	0	125829120	71	4886
2026-01-08 22:04:41.54	28.97	7.84	-52.6	-55.2	14.0	0.00e+00	0	23	0	131072000	71	4839
2026-01-08 22:04:44.54	29.32	8.01	-52.6	-55.2	14.0	0.00e+00	0	24	0	137363456	71	4817
2026-01-08 22:04:47.52	29.68	8.18	-52.5	-55.0	14.2	0.00e+00	0	23	0	142606336	71	4747
2026-01-08 22:04:50.51	30.03	8.35	-52.5	-54.9	14.2	0.00e+00	0	23	0	147849216	71	4681
2026-01-08 22:04:53.50	30.40	8.52	-52.7	-55.2	14.0	0.00e+00	0	23	0	154140672	71	4837
2026-01-08 22:04:56.50	30.77	8.69	-52.6	-55.1	14.1	0.00e+00	0	23	0	159383552	71	4768
2026-01-08 22:04:59.50	31.14	8.86	-52.4	-54.8	14.3	0.00e+00	0	24	0	164626432	71	4634
2026-01-08 22:05:02.51	31.51	9.03	-52.5	-54.9	14.2	0.00e+00	0	23	0	170917888	71	4688
2026-01-08 22:05:05.52	31.90	9.20	-52.1	-54.4	14.4	0.00e+00	0	23	0	176160768	70	4675
2026-01-08 22:05:08.52	32.28	9.38	-52.0	-54.2	14.5	0.00e+00	0	23	0	181403648	70	4578
2026-01-08 22:05:11.52	32.67	9.55	-52.3	-54.7	14.2	0.00e+00	0	24	0	187695104	70	4818
2026-01-08 22:05:14.53	33.07	9.72	-52.3	-54.6	14.3	0.00e+00	0	24	0	192937984	70	4780
2026-01-08 22:05:17.51	33.46	9.89	-52.2	-54.5	14.3	0.00e+00	0	23	0	199229440	70	4755
2026-01-08 22:05:20.50	33.86	10.06	-52.2	-54.5	14.3	0.00e+00	0	23	0	204472320	70	4752
2026-01-08 22:05:23.47	34.27	10.23	-52.2	-54.5	14.3	0.00e+00	0	24	0	209715200	70	4734
2026-01-08 22:05:26.46	34.68	10.40	-52.3	-54.7	14.2	0.00e+00	0	24	0	216006656	70	4816
2026-01-08 22:05:29.45	35.09	10.57	-52.2	-54.6	14.3	0.00e+00	0	24	0	221249536	70	4774
2026-01-08 22:05:32.45	35.51	10.74	-52.3	-54.6	14.2	0.00e+00	0	24	0	226492416	70	4802
2026-01-08 22:05:35.44	35.94	10.91	-52.3	-54.8	14.2	0.00e+00	0	23	0	232783872	70	4886
2026-01-08 22:05:38.44	36.37	11.08	-52.3	-54.8	14.2	0.00e+00	0	24	0	238026752	70	4884
2026-01-08 22:05:41.44	36.80	11.25	-52.1	-54.4	14.4	0.00e+00	0	24	0	243269632	70	4652
2026-01-08 22:05:44.44	37.24	11.42	-52.1	-54.4	14.4	0.00e+00	0	24	0	249561088	70	4698
2026-01-08 22:05:47.43	37.69	11.59	-51.9	-54.2	14.5	0.00e+00	0	23	0	254803968	70	4573
2026-01-08 22:05:50.42	38.13	11.76	-51.8	-54.1	14.5	0.00e+00	0	24	0	260046848	70	4522
2026-01-08 22:05:53.41	38.59	11.93	-51.7	-53.9	14.7	0.00e+00	0	24	0	266338304	70	4424
2026-01-08 22:05:56.41	39.05	12.09	-51.3	-53.4	14.8	0.00e+00	0	24	0	271581184	69	4405
2026-01-08 22:05:59.40	39.51	12.26	-51.6	-53.8	14.6	0.00e+00	0	24	0	276824064	69	4642
2026-01-08 22:06:02.39	39.98	12.43	-51.7	-54.0	14.4	0.00e+00	0	24	0	283115520	69	4754
2026-01-08 22:06:05.40	40.46	12.60	-51.7	-54.0	14.5	0.00e+00	0	24	0	288358400	69	4711
2026-01-08 22:06:08.39	40.94	12.76	-51.6	-53.8	14.6	0.00e+00	0	24	0	293601280	69	4627
2026-01-08 22:06:11.39	41.42	12.93	-51.4	-53.6	14.7	0.00e+00	0	24	0	299892736	69	4528
2026-01-08 22:06:14.38	41.91	13.09	-51.3	-53.5	14.7	0.00e+00	0	24	0	305135616	69	4481
2026-01-08 22:06:17.37	42.41	13.25	-51.4	-53.6	14.7	0.00e+00	0	24	0	311427072	69	4524
2026-01-08 22:06:20.36	42.91	13.42	-51.3	-53.5	14.7	0.00e+00	0	24	0	316669952	69	4485
2026-01-08 22:06:23.34	43.41	13.58	-51.5	-53.8	14.6	0.00e+00	0	24	0	321912832	69	4635
2026-01-08 22:06:26.34	43.93	13.74	-51.4	-53.6	14.7	0.00e+00	0	24	0	328204288	69	4532
2026-01-08 22:06:29.34	44.45	13.90	-51.3	-53.5	14.8	0.00e+00	0	24	0	333447168	69	4446
2026-01-08 22:06:32.33	44.97	14.06	-51.5	-53.8	14.6	0.00e+00	0	24	0	338690048	69	4604
2026-01-08 22:06:35.32	45.50	14.21	-51.9	-54.4	14.3	0.00e+00	0	24	0	344981504	69	4952
2026-01-08 22:06:38.32	46.03	14.37	-51.9	-54.2	14.2	0.00e+00	0	24	0	350224384	69	4865
2026-01-08 22:06:41.32	46.57	14.53	-51.9	-54.3	14.3	0.00e+00	0	24	0	355467264	69	4908
2026-01-08 22:06:44.31	47.11	14.68	-52.4	-55.1	14.0	0.00e+00	0	24	0	361758720	70	5049
2026-01-08 22:06:47.31	47.67	14.83	-52.4	-55.0	14.0	0.00e+00	0	24	0	367001600	70	5001
2026-01-08 22:06:50.31	48.22	14.98	-52.0	-54.5	14.4	0.00e+00	0	24	0	372244480	70	4732
2026-01-08 22:06:53.31	48.78	15.13	-52.0	-54.4	14.4	0.00e+00	0	24	0	378535936	70	4698
2026-01-08 22:06:56.30	49.35	15.28	-52.0	-54.4	14.5	0.00e+00	0	24	0	383778816	70	4654
2026-01-08 22:06:59.29	49.92	15.43	-52.1	-54.6	14.3	0.00e+00	0	24	0	389021696	70	4805
2026-01-08 22:07:02.29	50.50	15.57	-52.3	-54.9	14.1	0.00e+00	0	24	0	395313152	70	4976
2026-01-08 22:07:05.30	51.09	15.71	-52.2	-54.6	14.3	0.00e+00	0	24	0	400556032	70	4781
2026-01-08 22:07:08.30	51.68	15.85	-52.0	-54.4	14.4	0.00e+00	0	24	0	406847488	70	4694
2026-01-08 22:07:11.31	52.27	15.99	-52.6	-55.3	13.9	0.00e+00	0	24	0	412090368	70	5164
2026-01-08 22:07:14.30	52.87	16.13	-52.4	-55.0	14.0	0.00e+00	0	24	0	417333248	70	4991
2026-01-08 22:07:17.29	53.47	16.26	-52.3	-54.8	14.2	0.00e+00	0	24	0	423624704	70	4888
2026-01-08 22:07:20.29	54.08	16.39	-52.6	-55.1	14.0	0.00e+00	0	24	0	428867584	70	5100
2026-01-08 22:07:23.27	54.70	16.52	-52.2	-54.6	14.3	0.00e+00	0	24	0	434110464	70	4801
2026-01-08 22:07:26.25	55.31	16.65	-52.1	-54.4	14.4	0.00e+00	0	24	0	440401920	70	4684
2026-01-08 22:07:29.24	55.94	16.77	-52.3	-54.7	14.2	0.00e+00	0	24	0	445644800	70	4855
2026-01-08 22:07:32.25	56.57	16.89	-52.1	-54.3	14.5	0.00e+00	0	24	0	450887680	70	4640
2026-01-08 22:07:35.23	57.20	17.01	-51.7	-53.8	14.7	0.00e+00	0	24	0	457179136	70	4371
2026-01-08 22:07:38.23	57.84	17.13	-51.9	-54.1	14.4	0.00e+00	0	24	0	462422016	69	4795
2026-01-08 22:07:41.23	58.49	17.24	-52.0	-54.3	14.4	0.00e+00	0	24	0	467664896	69	4872
2026-01-08 22:07:44.23	59.14	17.35	-52.1	-54.3	14.3	0.00e+00	0	24	0	473956352	69	4917
2026-01-08 22:07:47.23	59.79	17.46	-51.8	-53.9	14.6	0.00e+00	0	24	0	479199232	69	4704
2026-01-08 22:07:50.23	60.45	17.56	-51.3	-53.3	14.8	0.00e+00	0	24	0	485490688	69	4362
2026-01-08 22:07:53.22	61.11	17.66	-51.4	-53.4	14.8	0.00e+00	0	24	0	490733568	69	4395
2026-01-08 22:07:56.24	61.79	17.76	-51.9	-54.1	14.5	0.00e+00	0	24	0	495976448	69	4781
2026-01-08 22:07:59.23	62.46	17.85	-51.7	-53.8	14.6	0.00e+00	0	24	0	502267904	69	4627
2026-01-08 22:08:02.23	63.13	17.94	-51.5	-53.6	14.7	0.00e+00	0	24	0	507510784	69	4510
2026-01-08 22:08:05.23	63.81	18.03	-51.1	-53.0	14.9	0.00e+00	0	24	0	512753664	68	4460
2026-01-08 22:08:08.22	64.50	18.11	-51.0	-52.9	14.9	0.00e+00	0	24	0	519045120	68	4439
2026-01-08 22:08:11.23	65.19	18.19	-51.4	-53.4	14.6	0.00e+00	0	24	0	524288000	68	4682
2026-01-08 22:08:14.23	65.88	18.27	-51.0	-52.8	14.9	0.00e+00	0	24	0	529530880	68	4386
2026-01-08 22:08:17.22	66.57	18.34	-51.4	-53.4	14.6	0.00e+00	0	24	0	535822336	68	4668
2026-01-08 22:08:20.22	67.27	18.41	-51.8	-53.9	14.5	0.00e+00	0	24	0	541065216	69	4695
2026-01-08 22:08:23.22	67.97	18.48	-51.6	-53.6	14.7	0.00e+00	0	24	0	547356672	69	4518
2026-01-08 22:08:26.22	68.67	18.54	-52.0	-54.2	14.3	0.00e+00	0	24	0	552599552	69	4858
2026-01-08 22:08:29.20	69.37	18.59	-51.9	-54.1	14.5	0.00e+00	0	24	0	557842432	69	4763
2026-01-08 22:08:32.20	70.08	18.64	-51.9	-54.1	14.4	0.00e+00	0	24	0	564133888	69	4786
2026-01-08 22:08:35.20	70.79	18.69	-52.5	-54.8	14.2	0.00e+00	0	24	0	569376768	70	4919
2026-01-08 22:08:38.19	71.50	18.74	-52.2	-54.4	14.4	0.00e+00	0	24	0	574619648	70	4700
2026-01-08 22:08:41.19	72.22	18.78	-52.2	-54.4	14.4	0.00e+00	0	24	0	580911104	70	4678
2026-01-08 22:08:44.18	72.93	18.81	-52.1	-54.3	14.5	0.00e+00	0	24	0	586153984	70	4625
2026-01-08 22:08:47.19	73.65	18.84	-52.0	-54.2	14.6	0.00e+00	0	24	0	591396864	70	4555
2026-01-08 22:08:50.19	74.37	18.87	-52.1	-54.3	14.5	0.00e+00	0	24	0	597688320	70	4620
2026-01-08 22:08:53.19	75.10	18.89	-51.9	-54.0	14.7	0.00e+00	0	24	0	602931200	70	4447
2026-01-08 22:08:56.19	75.82	18.91	-52.1	-54.3	14.5	0.00e+00	0	24	0	609222656	70	4641
2026-01-08 22:08:59.18	76.54	18.92	-52.6	-54.9	14.1	0.00e+00	0	24	0	614465536	70	4983
2026-01-08 22:09:02.16	77.26	18.93	-52.6	-55.0	14.1	0.00e+00	0	24	0	619708416	70	4987
2026-01-08 22:09:05.16	77.98	18.94	-52.5	-55.0	14.1	0.00e+00	0	24	0	625999872	70	5030
2026-01-08 22:09:08.16	78.70	18.94	-52.2	-54.5	14.4	0.00e+00	0	24	0	631242752	70	4745
2026-01-08 22:09:11.15	79.42	18.93	-51.8	-54.0	14.6	0.00e+00	0	24	0	636485632	70	4489
2026-01-08 22:09:14.13	80.14	18.92	-52.2	-54.6	14.3	0.00e+00	0	24	0	642777088	70	4814
2026-01-08 22:09:17.11	80.86	18.91	-52.3	-54.7	14.2	0.00e+00	0	24	0	648019968	70	4855
2026-01-08 22:09:20.09	81.58	18.89	-52.4	-54.9	14.1	0.00e+00	0	24	0	653262848	70	4935
2026-01-08 22:09:23.08	82.30	18.87	-52.2	-54.6	14.3	0.00e+00	0	24	0	659554304	70	4792
2026-01-08 22:09:26.07	83.02	18.85	-52.4	-54.9	14.1	0.00e+00	0	24	0	664797184	70	4931
2026-01-08 22:09:29.07	83.74	18.82	-52.3	-54.7	14.3	0.00e+00	0	24	0	670040064	70	4853
2026-01-08 22:09:32.04	84.45	18.78	-51.9	-54.1	14.6	0.00e+00	0	24	0	676331520	70	4500
2026-01-08 22:09:35.04	85.16	18.74	-51.5	-53.6	14.7	0.00e+00	0	24	0	681574400	69	4529
2026-01-08 22:09:38.03	85.87	18.70	-51.8	-54.0	14.4	0.00e+00	0	24	0	686817280	69	4752
2026-01-08 22:09:41.04	86.59	18.65	-52.1	-54.5	14.2	0.00e+00	0	24	0	693108736	69	5008
2026-01-08 22:09:44.03	87.30	18.60	-52.1	-54.4	14.2	0.00e+00	0	24	0	698351616	69	4982
2026-01-08 22:09:47.03	88.00	18.54	-52.1	-54.5	14.2	0.00e+00	0	24	0	703594496	69	5028
2026-01-08 22:09:50.01	88.70	18.49	-51.8	-54.0	14.3	0.00e+00	0	24	0	709885952	69	4743
2026-01-08 22:09:53.02	89.41	18.42	-51.9	-54.1	14.4	0.00e+00	0	24	0	715128832	69	4778
2026-01-08 22:09:56.01	90.11	18.35	-52.5	-55.0	14.1	0.00e+00	0	24	0	721420288	70	5004
2026-01-08 22:09:59.01	90.80	18.28	-52.2	-54.6	14.3	0.00e+00	0	24	0	726663168	70	4762
2026-01-08 22:10:02.00	91.49	18.21	-51.6	-53.6	14.7	0.00e+00	0	24	0	731906048	69	4525
2026-01-08 22:10:05.00	92.18	18.13	-52.0	-54.3	14.3	0.00e+00	0	24	0	738197504	69	4891
2026-01-08 22:10:08.00	92.87	18.04	-51.9	-54.0	14.4	0.00e+00	0	24	0	743440384	69	4759
2026-01-08 22:10:11.00	93.55	17.96	-51.3	-53.3	14.9	0.00e+00	0	24	0	748683264	69	4371
2026-01-08 22:10:13.99	94.23	17.87	-51.5	-53.5	14.6	0.00e+00	0	24	0	754974720	68	4755
2026-01-08 22:10:16.98	94.90	17.77	-51.5	-53.5	14.6	0.00e+00	0	24	0	760217600	68	4742
2026-01-08 22:10:19.98	95.57	17.68	-51.3	-53.2	14.7	0.00e+00	0	24	0	765460480	68	4579
2026-01-08 22:10:22.98	96.24	17.58	-51.2	-53.2	14.7	0.00e+00	0	24	0	771751936	68	4569
2026-01-08 22:10:25.97	96.90	17.47	-51.5	-53.6	14.6	0.00e+00	0	24	0	776994816	68	4768
2026-01-08 22:10:28.96	97.55	17.37	-51.4	-53.5	14.6	0.00e+00	0	24	0	782237696	68	4746
2026-01-08 22:10:31.94	98.20	17.26	-51.7	-54.0	14.3	0.00e+00	0	24	0	788529152	68	5003
2026-01-08 22:10:34.94	98.85	17.14	-51.5	-53.7	14.5	0.00e+00	0	24	0	793772032	68	4838
2026-01-08 22:10:37.94	99.49	17.03	-51.5	-53.7	14.5	0.00e+00	0	24	0	799014912	68	4831
2026-01-08 22:10:40.94	100.13	16.91	-51.7	-53.9	14.4	0.00e+00	0	24	0	805306368	68	4976
2026-01-08 22:10:43.94	100.76	16.79	-51.5	-53.6	14.5	0.00e+00	0	24	0	810549248	68	4798
2026-01-08 22:10:46.94	101.39	16.66	-52.2	-54.7	14.1	0.00e+00	0	24	0	816840704	69	5113
2026-01-08 22:10:49.95	102.02	16.53	-52.4	-54.9	14.1	0.00e+00	0	24	0	822083584	70	4949
2026-01-08 22:10:52.94	102.63	16.41	-51.9	-54.2	14.5	0.00e+00	0	24	0	827326464	70	4574
2026-01-08 22:10:55.93	103.24	16.27	-51.4	-53.7	14.6	0.00e+00	0	24	0	833617920	69	4569
2026-01-08 22:10:58.94	103.85	16.14	-51.3	-53.4	14.8	0.00e+00	0	24	0	838860800	69	4427
2026-01-08 22:11:01.94	104.46	16.00	-51.4	-53.6	14.7	0.00e+00	0	24	0	844103680	69	4539
2026-01-08 22:11:04.94	105.05	15.86	-52.3	-54.8	14.0	0.00e+00	0	24	0	850395136	69	5213
2026-01-08 22:11:07.94	105.65	15.72	-52.8	-55.6	13.7	0.00e+00	0	24	0	855638016	70	5397
2026-01-08 22:11:10.94	106.23	15.58	-52.8	-55.7	13.9	0.00e+00	0	24	0	860880896	71	5104
2026-01-08 22:11:13.95	106.82	15.44	-52.1	-54.6	14.3	0.00e+00	0	24	0	867172352	70	4768
2026-01-08 22:11:16.95	107.39	15.29	-51.7	-54.0	14.6	0.00e+00	0	24	0	872415232	70	4469
2026-01-08 22:11:19.95	107.96	15.14	-51.6	-53.8	14.5	0.00e+00	0	24	0	878706688	69	4640
2026-01-08 22:11:22.94	108.53	14.99	-52.3	-54.9	14.0	0.00e+00	0	24	0	883949568	69	5254
2026-01-08 22:11:25.92	109.08	14.84	-52.8	-55.7	13.7	0.00e+00	0	24	0	889192448	70	5421
2026-01-08 22:11:28.93	109.64	14.69	-52.2	-54.7	14.2	0.00e+00	0	24	0	895483904	70	4858
2026-01-08 22:11:31.92	110.18	14.53	-52.3	-54.8	14.2	0.00e+00	0	24	0	900726784	70	4912
2026-01-08 22:11:34.93	110.73	14.38	-52.4	-54.9	14.1	0.00e+00	0	24	0	905969664	70	4942
2026-01-08 22:11:37.92	111.26	14.22	-52.4	-54.8	14.2	0.00e+00	0	24	0	912261120	70	4918
2026-01-08 22:11:40.92	111.79	14.06	-52.2	-54.7	14.2	0.00e+00	0	24	0	917504000	70	4820
2026-01-08 22:11:43.92	112.32	13.90	-52.5	-55.2	13.9	0.00e+00	0	24	0	922746880	70	5114
2026-01-08 22:11:46.92	112.84	13.74	-52.0	-54.5	14.3	0.00e+00	0	24	0	929038336	70	4711
2026-01-08 22:11:49.91	113.36	13.58	-52.2	-54.6	14.2	0.00e+00	0	24	0	934281216	70	4788
2026-01-08 22:11:52.92	113.87	13.42	-52.1	-54.5	14.3	0.00e+00	0	24	0	940572672	70	4737
2026-01-08 22:11:55.91	114.37	13.25	-52.3	-54.6	14.2	0.00e+00	0	24	0	945815552	70	4811
2026-01-08 22:11:58.92	114.87	13.09	-51.9	-54.2	14.5	0.00e+00	0	24	0	951058432	70	4586
2026-01-08 22:12:01.92	115.36	12.92	-52.1	-54.4	14.4	0.00e+00	0	24	0	957349888	70	4684
2026-01-08 22:12:04.91	115.85	12.75	-52.0	-54.3	14.4	0.00e+00	0	24	0	962592768	70	4640
2026-01-08 22:12:07.92	116.34	12.59	-51.6	-53.7	14.6	0.00e+00	0	24	0	967835648	69	4568
2026-01-08 22:12:10.91	116.81	12.42	-51.2	-53.2	14.7	0.00e+00	0	24	0	974127104	68	4573
2026-01-08 22:12:13.91	117.28	12.25	-51.5	-53.6	14.5	0.00e+00	0	24	0	979369984	68	4804
2026-01-08 22:12:16.91	117.75	12.08	-51.9	-54.3	14.3	0.00e+00	0	24	0	984612864	69	4881
2026-01-08 22:12:19.91	118.21	11.91	-51.8	-54.1	14.4	0.00e+00	0	24	0	990904320	69	4776
2026-01-08 22:12:22.91	118.67	11.74	-51.5	-53.7	14.6	0.00e+00	0	24	0	996147200	69	4562
2026-01-08 22:12:25.89	119.12	11.57	-51.8	-53.7	14.5	0.00e+00	0	24	0	1001390080	69	4591
2026-01-08 22:12:28.88	119.57	11.40	-52.1	-54.2	14.3	0.00e+00	0	24	0	1007681536	69	4833
2026-01-08 22:12:31.87	120.01	11.23	-52.1	-54.1	14.3	0.00e+00	0	24	0	1012924416	69	4809
2026-01-08 22:12:34.86	120.44	11.06	-51.8	-53.8	14.5	0.00e+00	0	24	0	1019215872	69	4643
2026-01-08 22:12:37.84	120.87	10.89	-52.2	-54.4	14.2	0.00e+00	0	24	0	1024458752	69	4938
2026-01-08 22:12:40.83	121.30	10.72	-52.7	-55.1	13.9	0.00e+00	0	24	0	1029701632	70	5044
2026-01-08 22:12:43.84	121.72	10.55	-52.7	-55.1	13.9	0.00e+00	0	24	0	1035993088	70	5043
2026-01-08 22:12:46.85	122.14	10.38	-52.6	-54.8	14.1	0.00e+00	0	24	0	1041235968	70	4915
2026-01-08 22:12:49.84	122.55	10.20	-52.4	-54.7	14.2	0.00e+00	0	24	0	1046478848	70	4816
2026-01-08 22:12:52.83	122.96	10.03	-52.5	-54.8	14.1	0.00e+00	0	24	0	1052770304	70	4913
2026-01-08 22:12:55.84	123.36	9.86	-52.4	-54.6	14.2	0.00e+00	0	24	0	1058013184	70	4778
2026-01-08 22:12:58.83	123.76	9.69	-52.3	-54.5	14.3	0.00e+00	0	24	0	1063256064	70	4707
2026-01-08 22:13:01.82	124.16	9.52	-52.4	-54.6	14.2	0.00e+00	0	24	0	1069547520	70	4794
2026-01-08 22:13:04.82	124.55	9.34	-52.7	-55.0	13.9	0.00e+00	0	24	0	1074790400	70	5040
2026-01-08 22:13:07.82	124.93	9.17	-52.7	-55.1	13.9	0.00e+00	0	24	0	1080033280	70	5047
2026-01-08 22:13:10.82	125.31	9.00	-52.5	-54.8	14.0	0.00e+00	0	24	0	1086324736	70	4914
2026-01-08 22:13:13.82	125.69	8.83	-52.4	-54.7	14.1	0.00e+00	0	24	0	1091567616	70	4838
2026-01-08 22:13:16.82	126.06	8.66	-52.8	-55.2	13.8	0.00e+00	0	24	0	1097859072	70	5158
2026-01-08 22:13:19.83	126.43	8.48	-53.0	-55.6	13.7	0.00e+00	0	24	0	1103101952	71	5051
2026-01-08 22:13:22.83	126.80	8.31	-52.7	-55.1	14.0	0.00e+00	0	24	0	1108344832	71	4774
2026-01-08 22:13:25.82	127.16	8.14	-52.3	-54.5	14.4	0.00e+00	0	24	0	1114636288	71	4451
2026-01-08 22:13:28.81	127.51	7.97	-51.9	-53.9	14.5	0.00e+00	0	24	0	1119879168	70	4441
2026-01-08 22:13:31.80	127.86	7.80	-52.4	-54.7	14.1	0.00e+00	0	24	0	1125122048	70	4819
2026-01-08 22:13:34.79	128.21	7.63	-52.8	-55.3	13.7	0.00e+00	0	24	0	1131413504	70	5204
2026-01-08 22:13:37.77	128.55	7.46	-53.1	-55.8	13.5	0.00e+00	0	24	0	1136656384	71	5167
2026-01-08 22:13:40.77	128.89	7.29	-53.4	-56.2	13.3	0.00e+00	0	24	0	1141899264	71	5415
2026-01-08 22:13:43.78	129.23	7.12	-53.4	-56.2	13.3	0.00e+00	0	24	0	1148190720	72	5145
2026-01-08 22:13:46.78	129.57	6.95	-53.8	-57.0	12.9	0.00e+00	0	24	0	1153433600	72	5599
2026-01-08 22:13:49.79	129.90	6.78	-54.2	-57.7	12.5	7.00e-07	0	24	0	1158676480	73	5738
2026-01-08 22:13:52.79	130.22	6.61	-54.1	-57.4	12.6	0.00e+00	0	24	0	1164967936	73	5587
2026-01-08 22:13:55.80	130.55	6.44	-53.9	-57.1	12.8	0.00e+00	0	24	0	1170210816	73	5361
2026-01-08 22:13:58.79	130.86	6.27	-53.6	-56.7	13.1	0.00e+00	0	24	0	1176502272	73	5106
2026-01-08 22:14:01.79	131.18	6.11	-53.4	-56.3	13.4	0.00e+00	0	24	0	1181745152	73	4878
2026-01-08 22:14:04.78	131.49	5.94	-53.3	-56.1	13.5	0.00e+00	0	24	0	1186988032	73	4813
2026-01-08 22:14:07.78	131.80	5.77	-53.4	-56.4	13.2	0.00e+00	0	24	0	1193279488	73	4962
2026-01-08 22:14:10.78	132.10	5.61	-53.5	-56.5	13.2	0.00e+00	0	24	0	1198522368	73	5039
2026-01-08 22:14:13.77	132.41	5.44	-53.3	-56.2	13.2	0.00e+00	0	24	0	1203765248	72	5134
2026-01-08 22:14:16.77	132.70	5.27	-53.1	-55.9	13.4	0.00e+00	0	24	0	1210056704	72	4937
2026-01-08 22:14:19.77	133.00	5.11	-53.1	-55.9	13.4	0.00e+00	0	24	0	1215299584	72	4935
2026-01-08 22:14:22.76	133.29	4.94	-57.7	-73.7	3.8	1.48e+00	0	24	104	1219493888	80	24329
2026-01-08 22:14:25.76	133.58	4.78	-58.5	-74.6	3.8	1.49e+00	0	24	104	1219493888	82	23947
2026-01-08 22:14:28.75	133.87	4.62	-58.9	-74.9	3.8	1.49e+00	0	24	104	1219493888	82	24966
2026-01-08 22:14:31.74	134.15	4.45	-59.1	-75.2	3.8	1.49e+00	0	24	104	1219493888	83	24233
2026-01-08 22:14:34.72	134.43	4.29	-59.3	-75.4	3.8	1.49e+00	0	24	104	1219493888	83	24850
2026-01-08 22:14:37.71	134.70	4.13	-59.7	-75.7	3.8	1.49e+00	0	24	104	1219493888	84	24370
2026-01-08 22:14:40.69	134.97	3.97	-59.9	-75.9	3.8	1.49e+00	0	24	104	1219493888	84	24918
2026-01-08 22:14:43.70	135.25	3.81	-60.0	-76.0	3.8	1.49e+00	0	24	104	1219493888	85	23852
2026-01-08 22:14:46.70	135.51	3.64	-59.9	-76.0	3.8	1.49e+00	0	24	104	1219493888	85	23658
2026-01-08 22:14:49.70	135.78	3.48	-59.9	-76.0	3.8	1.49e+00	0	24	104	1219493888	85	23584
2026-01-08 22:14:52.70	136.04	3.32	-59.8	-75.9	3.8	1.49e+00	0	24	104	1219493888	85	23405
2026-01-08 22:14:55.70	136.30	3.16	-59.8	-75.9	3.8	1.49e+00	0	24	104	1219493888	85	23480
2026-01-08 22:14:58.70	136.56	3.00	-59.8	-75.9	3.8	1.49e+00	0	24	104	1219493888	85	23429
2026-01-08 22:15:01.72	136.82	2.84	-59.8	-75.9	3.8	1.49e+00	0	24	104	1219493888	85	23355
2026-01-08 22:15:04.71	137.07	2.68	-59.8	-75.8	3.8	1.49e+00	0	24	104	1219493888	85	23292
2026-01-08 22:15:07.73	137.32	2.52	-59.7	-75.8	3.8	1.49e+00	0	24	104	1219493888	85	23191
2026-01-08 22:15:10.73	137.57	2.37	-59.8	-75.8	3.8	1.49e+00	0	24	104	1219493888	85	23215
2026-01-08 22:15:13.73	137.81	2.21	-59.8	-75.8	3.8	1.49e+00	0	24	104	1219493888	85	23247
2026-01-08 22:15:16.73	138.05	2.05	-59.7	-75.8	3.8	1.49e+00	0	24	104	1219493888	85	23212
2026-01-08 22:15:19.74	138.30	1.90	-59.7	-75.8	3.8	1.49e+00	0	24	104	1219493888	85	23197

#Closed at: 2026-01-08 22:15:19
#Recorded file [1219 MB]: D:/lorett/data/31004_260109_010253.dat