passes_logs/2026/01/08/R3.2S_Murmansk/R3.2S_Murmansk__20260108_095944_SUOMI_NPP_rec.log

#Pass ID: 20260108_095944_SUOMI NPP
#Satellite: SUOMI NPP
#Configuration: NPP
#almurnet v.1.7.20251203
#Start time: 2026-01-08 09:59:44

#Version: 2.2.20231116
#Station: R3.2S_Murmansk
#Location: 33.079688 lon 68.888172 lat
#TLE: 1 37849U 11061A   26005.94084933  .00000134  00000+0  84554-4 0  9990
#TLE: 2 37849  98.7803 308.0679 0002567  79.1029 281.0436 14.19522657735426

#Time	Az	El	Level	Level2	SNR	BER	BlckErr	Temp	State	Recorded	gain1	gain2
2026-01-08 09:59:44.66	161.36	2.01	-58.1	-74.1	3.8	1.49e+00	0	25	0	0	82	22634
2026-01-08 09:59:48.68	161.42	2.27	-58.1	-73.9	3.8	1.49e+00	0	25	104	0	81	23527
2026-01-08 09:59:52.71	161.48	2.53	-58.1	-73.9	3.8	1.49e+00	0	25	104	0	81	23568
2026-01-08 09:59:56.75	161.53	2.80	-58.1	-73.8	3.8	1.49e+00	0	25	104	0	81	23223
2026-01-08 10:00:00.78	161.59	3.06	-58.1	-74.1	3.8	1.49e+00	0	25	104	0	81	23859
2026-01-08 10:00:04.82	161.65	3.33	-58.1	-73.6	3.8	1.49e+00	0	25	104	0	81	22625
2026-01-08 10:00:08.85	161.71	3.60	-58.0	-71.0	4.1	1.45e+00	0	25	0	0	81	16740
2026-01-08 10:00:12.89	161.78	3.88	-57.8	-68.6	4.9	8.22e-01	0	26	0	5242880	81	12719
2026-01-08 10:00:16.93	161.84	4.16	-57.5	-66.0	6.4	2.34e-01	0	26	0	12582912	81	9482
2026-01-08 10:00:20.96	161.90	4.44	-57.1	-64.2	7.9	4.97e-02	0	26	0	19922944	80	8163
2026-01-08 10:00:24.99	161.97	4.72	-56.9	-63.2	8.8	1.63e-02	0	26	0	28311552	80	7234
2026-01-08 10:00:29.03	162.03	5.01	-57.1	-64.2	7.9	3.33e-02	0	26	0	35651584	80	8134
2026-01-08 10:00:33.06	162.10	5.30	-56.1	-60.6	10.9	1.06e-05	0	26	0	40894464	77	6364
2026-01-08 10:00:37.09	162.16	5.59	-54.7	-58.0	12.6	7.00e-07	0	26	0	48234496	75	5285
2026-01-08 10:00:41.12	162.23	5.88	-54.5	-57.6	12.8	0.00e+00	0	26	0	55574528	75	5084
2026-01-08 10:00:45.16	162.30	6.18	-54.6	-57.7	12.8	0.00e+00	0	26	0	63963136	75	5151
2026-01-08 10:00:49.18	162.37	6.48	-54.5	-57.5	12.9	0.00e+00	0	27	0	71303168	75	5004
2026-01-08 10:00:53.21	162.44	6.79	-54.5	-57.5	13.0	0.00e+00	0	27	0	78643200	75	5022
2026-01-08 10:00:57.25	162.52	7.10	-54.3	-57.2	13.2	0.00e+00	0	26	0	85983232	75	4850
2026-01-08 10:01:01.27	162.59	7.41	-54.2	-56.9	13.3	0.00e+00	0	27	0	93323264	74	4957
2026-01-08 10:01:05.30	162.67	7.73	-53.9	-56.5	13.5	0.00e+00	0	26	0	101711872	74	4729
2026-01-08 10:01:09.33	162.74	8.05	-53.9	-56.5	13.5	0.00e+00	0	27	0	109051904	74	4747
2026-01-08 10:01:13.37	162.82	8.38	-53.6	-56.1	13.7	0.00e+00	0	27	0	116391936	73	4764
2026-01-08 10:01:17.39	162.90	8.70	-53.5	-55.9	13.8	0.00e+00	0	27	0	123731968	73	4700
2026-01-08 10:01:21.41	162.98	9.04	-53.5	-55.9	13.8	0.00e+00	0	26	0	131072000	73	4657
2026-01-08 10:01:25.45	163.07	9.38	-53.4	-55.7	13.9	0.00e+00	0	27	0	139460608	73	4582
2026-01-08 10:01:29.48	163.15	9.72	-53.2	-55.5	14.0	0.00e+00	0	27	0	146800640	73	4455
2026-01-08 10:01:33.50	163.24	10.06	-53.1	-55.3	14.0	0.00e+00	0	27	0	154140672	72	4600
2026-01-08 10:01:37.53	163.32	10.42	-53.1	-55.3	14.0	0.00e+00	0	27	0	161480704	72	4610
2026-01-08 10:01:41.56	163.41	10.77	-52.8	-54.8	14.2	0.00e+00	0	27	0	168820736	72	4378
2026-01-08 10:01:45.58	163.51	11.14	-52.7	-54.8	14.2	0.00e+00	0	27	0	177209344	71	4625
2026-01-08 10:01:49.60	163.60	11.50	-52.6	-54.7	14.2	0.00e+00	0	27	0	184549376	71	4563
2026-01-08 10:01:53.63	163.70	11.88	-52.3	-54.3	14.4	0.00e+00	0	27	0	191889408	71	4344
2026-01-08 10:01:57.65	163.79	12.26	-52.1	-54.0	14.4	0.00e+00	0	27	0	199229440	70	4468
2026-01-08 10:02:01.68	163.89	12.64	-52.1	-54.0	14.4	0.00e+00	0	27	0	206569472	70	4474
2026-01-08 10:02:05.72	163.99	13.03	-51.9	-53.7	14.5	0.00e+00	0	27	0	214958080	70	4305
2026-01-08 10:02:09.75	164.10	13.43	-51.7	-53.5	14.6	0.00e+00	0	27	0	222298112	70	4210
2026-01-08 10:02:13.78	164.21	13.84	-51.6	-53.3	14.6	0.00e+00	0	27	0	229638144	69	4373
2026-01-08 10:02:17.81	164.32	14.25	-51.6	-53.3	14.6	0.00e+00	0	27	0	236978176	69	4362
2026-01-08 10:02:21.84	164.43	14.67	-51.6	-53.3	14.6	0.00e+00	0	27	0	244318208	69	4351
2026-01-08 10:02:25.87	164.54	15.09	-51.6	-53.3	14.6	0.00e+00	0	27	0	252706816	69	4363
2026-01-08 10:02:29.91	164.66	15.53	-51.5	-53.1	14.7	0.00e+00	0	27	0	260046848	69	4278
2026-01-08 10:02:33.94	164.78	15.97	-51.5	-53.2	14.7	0.00e+00	0	27	0	267386880	69	4294
2026-01-08 10:02:37.97	164.91	16.42	-51.1	-53.0	14.6	0.00e+00	0	27	0	274726912	68	4473
2026-01-08 10:02:42.00	165.03	16.87	-51.2	-53.2	14.6	0.00e+00	0	27	0	282066944	68	4555
2026-01-08 10:02:46.02	165.17	17.34	-51.4	-53.4	14.5	0.00e+00	0	27	0	290455552	68	4660
2026-01-08 10:02:50.06	165.30	17.81	-51.6	-53.7	14.4	0.00e+00	0	27	0	297795584	68	4840
2026-01-08 10:02:54.09	165.44	18.30	-51.7	-53.9	14.3	0.00e+00	0	27	0	305135616	68	4960
2026-01-08 10:02:58.12	165.58	18.79	-51.8	-54.0	14.2	0.00e+00	0	27	0	312475648	68	5011
2026-01-08 10:03:02.15	165.73	19.29	-51.9	-54.2	14.3	0.00e+00	0	27	0	320864256	69	4833
2026-01-08 10:03:06.18	165.88	19.81	-52.4	-54.9	14.1	0.00e+00	0	27	0	328204288	70	4935
2026-01-08 10:03:10.20	166.04	20.33	-52.6	-55.2	14.0	0.00e+00	0	27	0	335544320	70	5129
2026-01-08 10:03:14.23	166.20	20.87	-52.6	-55.1	14.0	0.00e+00	0	27	0	342884352	70	5045
2026-01-08 10:03:18.25	166.36	21.41	-52.7	-55.1	14.0	0.00e+00	0	27	0	350224384	70	5075
2026-01-08 10:03:22.26	166.53	21.97	-52.7	-55.1	14.0	0.00e+00	0	27	0	357564416	70	5052
2026-01-08 10:03:26.29	166.71	22.54	-53.0	-55.5	14.0	0.00e+00	0	27	0	365953024	71	4986
2026-01-08 10:03:30.31	166.89	23.12	-52.6	-54.9	14.2	0.00e+00	0	27	0	373293056	71	4691
2026-01-08 10:03:34.34	167.08	23.72	-52.3	-54.5	14.4	0.00e+00	0	27	0	380633088	71	4486
2026-01-08 10:03:38.36	167.28	24.32	-52.5	-54.9	14.2	0.00e+00	0	27	0	387973120	71	4652
2026-01-08 10:03:42.39	167.48	24.95	-52.2	-54.5	14.3	0.00e+00	0	27	0	395313152	70	4715
2026-01-08 10:03:46.42	167.70	25.59	-52.4	-54.6	14.3	0.00e+00	0	27	0	403701760	70	4773
2026-01-08 10:03:50.45	167.92	26.24	-52.1	-54.2	14.4	0.00e+00	0	27	0	411041792	70	4595
2026-01-08 10:03:54.49	168.15	26.92	-52.3	-54.5	14.3	0.00e+00	0	27	0	418381824	70	4717
2026-01-08 10:03:58.52	168.38	27.60	-52.4	-54.6	14.3	0.00e+00	0	27	0	425721856	70	4791
2026-01-08 10:04:02.55	168.63	28.31	-52.6	-54.8	14.2	0.00e+00	0	27	0	434110464	70	4922
2026-01-08 10:04:06.58	168.89	29.03	-52.8	-55.2	14.1	0.00e+00	0	27	0	441450496	71	4847
2026-01-08 10:04:10.62	169.16	29.77	-53.0	-55.4	14.0	0.00e+00	0	27	0	448790528	71	4982
2026-01-08 10:04:14.65	169.44	30.53	-52.9	-55.3	14.1	0.00e+00	0	27	0	456130560	71	4892
2026-01-08 10:04:18.68	169.74	31.31	-53.4	-56.1	13.8	0.00e+00	0	27	0	463470592	72	5044
2026-01-08 10:04:22.70	170.04	32.11	-53.5	-56.2	13.8	0.00e+00	0	27	0	471859200	72	5112
2026-01-08 10:04:26.73	170.37	32.93	-53.4	-56.3	13.7	0.00e+00	0	27	0	479199232	72	5195
2026-01-08 10:04:30.77	170.71	33.78	-53.3	-56.3	13.7	0.00e+00	0	27	0	486539264	72	5174
2026-01-08 10:04:34.80	171.07	34.65	-53.6	-56.7	13.5	0.00e+00	0	27	0	493879296	72	5429
2026-01-08 10:04:38.83	171.44	35.54	-53.0	-56.0	13.8	0.00e+00	0	27	0	501219328	72	5009
2026-01-08 10:04:42.85	171.84	36.45	-53.3	-56.5	13.6	0.00e+00	0	27	0	509607936	72	5326
2026-01-08 10:04:46.88	172.25	37.39	-52.5	-55.3	14.0	0.00e+00	0	27	0	516947968	71	4912
2026-01-08 10:04:50.92	172.70	38.35	-52.4	-55.3	13.9	0.00e+00	0	27	0	524288000	70	5217
2026-01-08 10:04:54.95	173.17	39.34	-52.9	-56.1	13.7	0.00e+00	0	27	0	531628032	71	5373
2026-01-08 10:04:58.98	173.67	40.36	-53.9	-58.1	12.8	0.00e+00	0	27	0	538968064	73	6035
2026-01-08 10:05:03.00	174.19	41.40	-53.7	-57.5	13.1	0.00e+00	0	27	0	547356672	73	5596
2026-01-08 10:05:07.03	174.76	42.48	-52.5	-55.2	14.1	0.00e+00	0	28	0	554696704	71	4859
2026-01-08 10:05:11.07	175.36	43.58	-52.0	-54.5	14.3	0.00e+00	0	27	0	562036736	70	4720
2026-01-08 10:05:15.09	176.00	44.71	-52.6	-55.3	14.1	0.00e+00	0	27	0	569376768	71	4908
2026-01-08 10:05:19.11	176.69	45.86	-53.3	-56.5	13.5	0.00e+00	0	27	0	576716800	71	5631
2026-01-08 10:05:23.14	177.44	47.05	-53.1	-56.7	13.4	0.00e+00	0	27	0	585105408	71	5780
2026-01-08 10:05:27.18	178.24	48.27	-54.0	-58.1	12.9	0.00e+00	0	27	0	592445440	73	6011
2026-01-08 10:05:31.21	179.11	49.52	-52.1	-55.0	14.1	0.00e+00	0	27	0	599785472	70	4995
2026-01-08 10:05:35.23	180.04	50.79	-51.1	-53.7	14.5	0.00e+00	0	27	0	607125504	68	4827
2026-01-08 10:05:39.27	181.07	52.09	-50.3	-52.3	14.8	0.00e+00	0	27	0	615514112	67	4355
2026-01-08 10:05:43.29	182.18	53.42	-49.8	-51.8	14.8	0.00e+00	0	27	0	622854144	65	4609
2026-01-08 10:05:47.32	183.40	54.77	-49.5	-51.2	14.9	0.00e+00	0	27	0	630194176	65	4294
2026-01-08 10:05:51.36	184.74	56.14	-49.3	-51.0	14.9	0.00e+00	0	27	0	637534208	64	4467
2026-01-08 10:05:55.39	186.22	57.53	-49.2	-50.8	14.9	0.00e+00	0	27	0	644874240	64	4386
2026-01-08 10:05:59.41	187.86	58.93	-50.0	-51.7	14.8	0.00e+00	0	27	0	652214272	65	4589
2026-01-08 10:06:03.43	189.68	60.34	-49.4	-50.9	14.9	0.00e+00	0	27	0	660602880	64	4427
2026-01-08 10:06:07.46	191.71	61.76	-49.9	-51.6	14.8	0.00e+00	0	27	0	667942912	65	4498
2026-01-08 10:06:11.48	193.98	63.17	-50.7	-52.5	14.8	0.00e+00	0	27	0	675282944	68	4240
2026-01-08 10:06:15.51	196.54	64.57	-50.1	-51.8	14.7	0.00e+00	0	27	0	682622976	65	4610
2026-01-08 10:06:19.53	199.42	65.94	-49.9	-51.5	15.0	0.00e+00	0	28	0	689963008	66	4233
2026-01-08 10:06:23.54	202.68	67.26	-52.7	-54.6	14.4	0.00e+00	0	27	0	698351616	71	4543
2026-01-08 10:06:27.56	206.37	68.54	-52.4	-54.3	14.6	0.00e+00	0	27	0	705691648	71	4342
2026-01-08 10:06:31.60	210.57	69.75	-52.9	-54.9	14.3	0.00e+00	0	27	0	713031680	71	4662
2026-01-08 10:06:35.61	215.28	70.84	-52.8	-54.7	14.5	0.00e+00	0	28	0	720371712	72	4339
2026-01-08 10:06:39.65	220.60	71.82	-53.6	-56.1	14.0	0.00e+00	0	28	0	727711744	73	4795
2026-01-08 10:06:43.68	226.50	72.64	-51.8	-53.6	14.6	0.00e+00	0	27	0	736100352	69	4514
2026-01-08 10:06:47.71	232.94	73.28	-51.5	-53.2	14.7	0.00e+00	0	27	0	743440384	69	4328
2026-01-08 10:06:51.74	239.81	73.70	-51.3	-53.0	14.8	0.00e+00	0	27	0	750780416	69	4201
2026-01-08 10:06:55.78	246.98	73.89	-50.6	-52.1	14.9	0.00e+00	0	27	0	758120448	67	4250
2026-01-08 10:06:59.80	254.17	73.84	-53.5	-55.8	14.1	0.00e+00	0	27	0	765460480	72	4880
2026-01-08 10:07:03.83	261.23	73.55	-51.7	-53.4	14.6	0.00e+00	0	27	0	773849088	68	4683
2026-01-08 10:07:07.86	267.93	73.03	-54.0	-56.3	13.9	0.00e+00	0	27	0	781189120	73	4895
2026-01-08 10:07:11.90	274.15	72.31	-53.2	-55.1	14.5	0.00e+00	0	28	0	788529152	73	4275
2026-01-08 10:07:15.92	279.78	71.42	-54.1	-56.4	13.9	0.00e+00	0	27	0	795869184	73	4955
2026-01-08 10:07:19.95	284.84	70.39	-56.1	-59.8	12.5	7.00e-07	0	27	0	803209216	78	5493
2026-01-08 10:07:23.98	289.33	69.24	-53.2	-55.2	14.3	0.00e+00	0	28	0	811597824	72	4573
2026-01-08 10:07:28.01	293.30	68.01	-54.0	-56.4	13.9	0.00e+00	0	28	0	818937856	74	4695
2026-01-08 10:07:32.03	296.80	66.71	-53.4	-56.0	13.9	0.00e+00	0	27	0	826277888	72	5007
2026-01-08 10:07:36.06	299.89	65.36	-50.5	-52.2	14.9	0.00e+00	0	27	0	833617920	67	4333
2026-01-08 10:07:40.09	302.63	63.97	-51.1	-53.1	14.5	0.00e+00	0	27	0	842006528	67	4761
2026-01-08 10:07:44.12	305.06	62.57	-48.9	-50.4	15.0	0.00e+00	0	27	0	849346560	63	4396
2026-01-08 10:07:48.14	307.22	61.16	-49.7	-51.4	14.9	0.00e+00	0	28	0	856686592	65	4424
2026-01-08 10:07:52.17	309.16	59.75	-49.2	-50.7	15.1	0.00e+00	0	27	0	864026624	65	4098
2026-01-08 10:07:56.21	310.90	58.34	-50.7	-52.6	14.6	0.00e+00	0	27	0	871366656	66	4788
2026-01-08 10:08:00.24	312.46	56.94	-49.3	-50.9	14.8	0.00e+00	0	28	0	879755264	63	4683
2026-01-08 10:08:04.27	313.88	55.57	-50.0	-51.8	14.7	0.00e+00	0	27	0	887095296	65	4629
2026-01-08 10:08:08.30	315.16	54.21	-50.9	-53.0	14.4	0.00e+00	0	27	0	894435328	66	5018
2026-01-08 10:08:12.33	316.33	52.87	-50.0	-51.9	14.8	0.00e+00	0	28	0	901775360	66	4425
2026-01-08 10:08:16.36	317.41	51.56	-49.2	-50.9	15.1	0.00e+00	0	27	0	909115392	65	4168
2026-01-08 10:08:20.38	318.39	50.28	-50.8	-52.8	14.7	0.00e+00	0	28	0	917504000	68	4378
2026-01-08 10:08:24.42	319.30	49.01	-53.7	-57.2	13.2	0.00e+00	0	27	0	924844032	72	5743
2026-01-08 10:08:28.44	320.13	47.79	-52.3	-54.7	14.3	0.00e+00	0	27	0	932184064	71	4596
2026-01-08 10:08:32.47	320.91	46.59	-52.4	-54.8	14.3	0.00e+00	0	27	0	939524096	71	4615
2026-01-08 10:08:36.50	321.63	45.41	-52.7	-55.1	14.2	0.00e+00	0	27	0	946864128	71	4779
2026-01-08 10:08:40.53	322.30	44.27	-52.9	-55.7	13.8	0.00e+00	0	28	0	955252736	71	5102
2026-01-08 10:08:44.56	322.92	43.16	-53.9	-57.2	13.3	0.00e+00	0	28	0	962592768	73	5437
2026-01-08 10:08:48.59	323.51	42.07	-51.3	-53.3	14.7	0.00e+00	0	27	0	969932800	69	4350
2026-01-08 10:08:52.62	324.06	41.01	-51.0	-53.0	14.5	0.00e+00	0	27	0	977272832	67	4748
2026-01-08 10:08:56.66	324.58	39.98	-51.4	-53.6	14.5	0.00e+00	0	27	0	984612864	69	4523
2026-01-08 10:09:00.68	325.06	38.98	-50.5	-52.5	14.6	0.00e+00	0	27	0	993001472	66	4732
2026-01-08 10:09:04.70	325.52	38.01	-53.0	-55.9	13.8	0.00e+00	0	27	0	1000341504	71	5244
2026-01-08 10:09:08.73	325.95	37.06	-51.5	-53.7	14.5	0.00e+00	0	28	0	1007681536	69	4559
2026-01-08 10:09:12.75	326.36	36.14	-51.5	-53.6	14.3	0.00e+00	0	27	0	1015021568	68	4796
2026-01-08 10:09:16.78	326.75	35.23	-51.9	-54.1	14.3	0.00e+00	0	28	0	1022361600	69	4787
2026-01-08 10:09:20.80	327.11	34.36	-54.1	-57.3	13.3	0.00e+00	0	27	0	1030750208	73	5519
2026-01-08 10:09:24.83	327.46	33.51	-54.6	-57.9	13.1	0.00e+00	0	27	0	1038090240	75	5219
2026-01-08 10:09:28.86	327.80	32.67	-53.4	-55.9	14.0	0.00e+00	0	27	0	1045430272	73	4690
2026-01-08 10:09:32.90	328.12	31.86	-53.2	-55.6	14.1	0.00e+00	0	27	0	1052770304	72	4773
2026-01-08 10:09:36.93	328.42	31.07	-53.5	-56.1	13.8	0.00e+00	0	27	0	1060110336	72	5055
2026-01-08 10:09:40.96	328.71	30.30	-52.7	-55.0	14.3	0.00e+00	0	27	0	1068498944	72	4451
2026-01-08 10:09:44.99	328.99	29.56	-52.9	-55.1	14.1	0.00e+00	0	27	0	1075838976	71	4795
2026-01-08 10:09:49.01	329.25	28.83	-53.2	-55.6	14.0	0.00e+00	0	27	0	1083179008	72	4769
2026-01-08 10:09:53.04	329.51	28.11	-52.9	-55.2	14.2	0.00e+00	0	27	0	1090519040	72	4560
2026-01-08 10:09:57.08	329.75	27.42	-52.0	-53.9	14.5	0.00e+00	0	27	0	1097859072	70	4410
2026-01-08 10:10:01.11	329.99	26.74	-50.5	-52.1	14.9	0.00e+00	0	27	0	1106247680	67	4264
2026-01-08 10:10:05.14	330.21	26.08	-51.7	-53.6	14.4	0.00e+00	0	27	0	1113587712	68	4809
2026-01-08 10:10:09.17	330.43	25.43	-53.1	-55.5	14.0	0.00e+00	0	28	0	1120927744	71	5002
2026-01-08 10:10:13.20	330.64	24.80	-52.2	-54.3	14.5	0.00e+00	0	28	0	1128267776	71	4341
2026-01-08 10:10:17.23	330.84	24.18	-50.9	-52.6	14.8	0.00e+00	0	27	0	1136656384	68	4259
2026-01-08 10:10:21.25	331.04	23.58	-50.4	-51.9	14.9	0.00e+00	0	28	0	1143996416	67	4186
2026-01-08 10:10:25.28	331.23	22.99	-50.4	-52.0	14.9	0.00e+00	0	27	0	1151336448	67	4204
2026-01-08 10:10:29.31	331.41	22.41	-50.6	-52.2	14.8	0.00e+00	0	27	0	1158676480	67	4316
2026-01-08 10:10:33.35	331.59	21.85	-51.2	-52.9	14.5	3.80e-06	0	27	0	1166016512	67	4704
2026-01-08 10:10:37.38	331.76	21.30	-51.8	-53.8	14.3	0.00e+00	0	27	0	1174405120	68	4881
2026-01-08 10:10:41.41	331.92	20.76	-51.4	-53.3	14.6	0.00e+00	0	27	0	1181745152	69	4361
2026-01-08 10:10:45.44	332.08	20.23	-50.2	-51.8	14.9	0.00e+00	0	28	0	1189085184	67	4144
2026-01-08 10:10:49.47	332.24	19.71	-49.6	-51.2	14.9	0.00e+00	0	27	0	1196425216	65	4296
2026-01-08 10:10:53.50	332.39	19.20	-49.6	-51.1	14.9	0.00e+00	0	27	0	1203765248	65	4283
2026-01-08 10:10:57.53	332.54	18.70	-50.2	-51.8	14.7	0.00e+00	0	28	0	1212153856	65	4623
2026-01-08 10:11:01.56	332.68	18.21	-50.6	-52.3	14.6	0.00e+00	0	27	0	1219493888	66	4605
2026-01-08 10:11:05.60	332.82	17.73	-51.1	-52.9	14.5	0.00e+00	0	27	0	1226833920	67	4691
2026-01-08 10:11:09.62	332.95	17.27	-51.2	-53.0	14.4	0.00e+00	0	27	0	1234173952	67	4738
2026-01-08 10:11:13.65	333.09	16.81	-51.6	-53.5	14.4	0.00e+00	0	27	0	1241513984	68	4733
2026-01-08 10:11:17.69	333.21	16.35	-51.7	-53.6	14.3	0.00e+00	0	27	0	1249902592	68	4807
2026-01-08 10:11:21.72	333.34	15.91	-51.7	-53.7	14.3	0.00e+00	0	27	0	1257242624	68	4817
2026-01-08 10:11:25.75	333.46	15.47	-51.7	-53.7	14.3	3.80e-06	0	27	0	1264582656	68	4837
2026-01-08 10:11:29.78	333.58	15.04	-51.7	-53.7	14.3	0.00e+00	0	28	0	1271922688	68	4862
2026-01-08 10:11:33.81	333.70	14.62	-52.0	-54.1	14.2	0.00e+00	0	27	0	1279262720	69	4785
2026-01-08 10:11:37.84	333.81	14.21	-52.4	-54.6	14.0	4.50e-06	0	27	0	1287651328	69	5083
2026-01-08 10:11:41.86	333.92	13.80	-52.8	-55.2	13.9	0.00e+00	0	27	0	1294991360	70	5137
2026-01-08 10:11:45.88	334.03	13.40	-53.1	-55.7	13.7	0.00e+00	0	27	0	1302331392	71	5139
2026-01-08 10:11:49.90	334.13	13.01	-53.4	-56.1	13.6	0.00e+00	0	27	0	1309671424	72	5083
2026-01-08 10:11:53.92	334.24	12.62	-53.4	-56.1	13.6	0.00e+00	0	27	0	1317011456	72	5057
2026-01-08 10:11:57.95	334.34	12.24	-53.3	-56.0	13.7	0.00e+00	0	27	0	1325400064	72	4997
2026-01-08 10:12:01.97	334.44	11.86	-53.3	-56.0	13.7	0.00e+00	0	27	0	1332740096	72	4989
2026-01-08 10:12:06.00	334.53	11.49	-53.0	-55.5	13.9	3.00e-06	0	28	0	1340080128	72	4720
2026-01-08 10:12:10.02	334.63	11.13	-52.6	-54.9	14.0	0.00e+00	0	28	0	1347420160	71	4694
2026-01-08 10:12:14.05	334.72	10.77	-52.4	-54.7	14.1	4.50e-06	0	28	0	1354760192	71	4548
2026-01-08 10:12:18.08	334.81	10.42	-52.3	-54.4	14.3	0.00e+00	0	28	0	1363148800	71	4416
2026-01-08 10:12:22.11	334.90	10.07	-52.4	-54.5	14.2	0.00e+00	0	28	0	1370488832	71	4487
2026-01-08 10:12:26.14	334.99	9.72	-52.2	-54.4	14.3	0.00e+00	0	28	0	1377828864	71	4411
2026-01-08 10:12:30.17	335.08	9.38	-52.0	-54.1	14.3	0.00e+00	0	27	0	1385168896	70	4509
2026-01-08 10:12:34.21	335.16	9.04	-52.1	-54.2	14.2	0.00e+00	0	27	0	1392508928	70	4546
2026-01-08 10:12:38.24	335.25	8.71	-51.9	-53.9	14.3	0.00e+00	0	27	0	1400897536	70	4434
2026-01-08 10:12:42.27	335.33	8.39	-51.9	-54.0	14.3	0.00e+00	0	27	0	1408237568	70	4455
2026-01-08 10:12:46.29	335.41	8.06	-52.0	-54.1	14.2	6.80e-06	0	27	0	1415577600	70	4520
2026-01-08 10:12:50.32	335.49	7.75	-51.9	-54.0	14.2	0.00e+00	0	27	0	1422917632	70	4477
2026-01-08 10:12:54.36	335.56	7.43	-52.0	-54.1	14.2	3.80e-06	0	27	0	1430257664	70	4525
2026-01-08 10:12:58.39	335.64	7.12	-51.9	-54.0	14.2	0.00e+00	0	27	0	1438646272	70	4452
2026-01-08 10:13:02.42	335.72	6.81	-52.1	-54.2	14.1	0.00e+00	0	27	0	1445986304	70	4580
2026-01-08 10:13:06.44	335.79	6.51	-52.2	-54.5	14.0	0.00e+00	0	27	0	1453326336	70	4724
2026-01-08 10:13:10.47	335.86	6.21	-52.3	-54.6	14.0	7.00e-07	0	28	0	1460666368	70	4761
2026-01-08 10:13:14.50	335.94	5.91	-52.6	-55.0	13.8	0.00e+00	0	27	0	1468006400	70	4984
2026-01-08 10:13:18.53	336.01	5.62	-52.6	-55.0	13.7	0.00e+00	0	28	0	1476395008	70	5010
2026-01-08 10:13:22.56	336.08	5.33	-52.7	-55.1	13.7	0.00e+00	0	28	0	1483735040	71	4810
2026-01-08 10:13:26.59	336.15	5.04	-52.7	-55.2	13.7	0.00e+00	0	27	0	1491075072	71	4830
2026-01-08 10:13:30.62	336.21	4.76	-59.8	-75.9	3.8	1.49e+00	0	27	104	1494220800	84	24763
2026-01-08 10:13:34.66	336.28	4.48	-60.5	-76.6	3.8	1.49e+00	0	28	104	1494220800	86	24069
2026-01-08 10:13:38.68	336.35	4.20	-60.8	-76.9	3.8	1.49e+00	0	28	104	1494220800	86	24963
2026-01-08 10:13:42.71	336.41	3.93	-60.9	-77.1	3.8	1.49e+00	0	28	104	1494220800	87	23858
2026-01-08 10:13:46.74	336.48	3.65	-61.0	-77.1	3.8	1.49e+00	0	28	104	1494220800	87	24024
2026-01-08 10:13:50.77	336.54	3.38	-60.9	-77.1	3.8	1.49e+00	0	28	104	1494220800	87	23855
2026-01-08 10:13:54.81	336.60	3.12	-60.9	-77.0	3.8	1.49e+00	0	28	104	1494220800	87	23709
2026-01-08 10:13:58.84	336.66	2.85	-60.8	-77.0	3.8	1.49e+00	0	28	104	1494220800	87	23585
2026-01-08 10:14:02.88	336.72	2.59	-60.8	-76.9	3.8	1.49e+00	0	28	104	1494220800	87	23402
2026-01-08 10:14:06.92	336.78	2.33	-60.8	-76.9	3.8	1.49e+00	0	27	104	1494220800	87	23343
2026-01-08 10:14:10.96	336.84	2.07	-60.7	-76.8	3.8	1.49e+00	0	28	104	1494220800	87	23247

#Closed at: 2026-01-08 10:14:14
#Recorded file [1494 MB]: D:/lorett/data/31004_260108_125944.dat