passes_logs/2026/01/09/R4.6S_Anadyr/R4.6S_Anadyr__20260109_053752_FENGYUN_3E_rec.log

#Pass ID: 20260109_053752_FENGYUN 3E
#Satellite: FENGYUN 3E
#Configuration: FENGYUN 3E
#almurnet v.1.7.20251203
#Start time: 2026-01-09 05:37:53

#Version: 2.2.20231116
#Station: R4.6S_Anadyr
#Location: 177.4865 lon 64.73178 lat
#TLE: 1 49008U 21062A   26008.31124991 -.00000020  00000+0  11209-4 0  9997
#TLE: 2 49008  98.7482  13.5177 0001702 150.1462 209.9812 14.19884205233892

#Time	Az	El	Level	Level2	SNR	BER	BlckErr	Temp	State	Recorded	gain1	gain2
2026-01-09 05:37:53.80	185.06	0.07	-48.1	-65.8	3.5	3.02e+01	0	28	0	0	60	75308
2026-01-09 05:37:57.83	185.22	0.31	-47.6	-59.0	3.6	8.45e-01	0	29	104	0	60	32330
2026-01-09 05:38:01.87	185.37	0.54	-47.8	-59.0	3.6	8.46e-01	0	29	104	0	60	32296
2026-01-09 05:38:05.90	185.52	0.78	-47.3	-58.6	3.6	8.44e-01	0	29	104	0	60	30837
2026-01-09 05:38:09.95	185.68	1.02	-46.3	-57.3	3.6	8.44e-01	0	29	104	0	60	26563
2026-01-09 05:38:13.98	185.84	1.26	-46.3	-57.5	3.6	8.44e-01	0	29	104	0	60	27070
2026-01-09 05:38:18.03	186.01	1.50	-46.3	-57.5	3.6	8.45e-01	0	30	104	0	60	27029
2026-01-09 05:38:22.06	186.17	1.75	-46.3	-57.2	3.6	8.45e-01	0	29	104	0	60	26166
2026-01-09 05:38:26.10	186.34	1.99	-46.3	-57.2	3.6	8.45e-01	0	30	104	0	60	26211
2026-01-09 05:38:30.14	186.51	2.24	-46.3	-57.1	3.6	8.45e-01	0	30	104	0	60	26030
2026-01-09 05:38:34.18	186.68	2.49	-46.3	-57.4	3.6	8.46e-01	0	30	104	0	60	26784
2026-01-09 05:38:38.22	186.86	2.74	-46.1	-55.6	3.6	8.44e-01	0	30	104	0	60	21698
2026-01-09 05:38:42.26	187.04	3.00	-44.4	-47.9	7.8	2.14e-01	0	30	0	3145728	60	9006
2026-01-09 05:38:46.29	187.22	3.25	-36.3	-37.1	19.3	0.00e+00	0	30	0	32505856	46	5820
2026-01-09 05:38:50.33	187.40	3.51	-34.1	-34.8	21.5	0.00e+00	0	30	0	61865984	42	5572
2026-01-09 05:38:54.36	187.59	3.77	-42.3	-44.5	14.1	8.28e-01	0	30	104	87031808	60	6094
2026-01-09 05:38:58.40	187.78	4.04	-34.0	-34.6	21.8	0.00e+00	0	30	0	110100480	42	5475
2026-01-09 05:39:02.44	187.98	4.30	-33.7	-34.3	22.2	0.00e+00	0	30	0	139460608	40	5915
2026-01-09 05:39:06.47	188.17	4.57	-33.4	-34.0	22.5	0.00e+00	0	30	0	168820736	38	6447
2026-01-09 05:39:10.51	188.37	4.84	-32.9	-33.5	23.1	0.00e+00	0	30	0	198180864	38	6087
2026-01-09 05:39:14.55	188.58	5.11	-32.9	-33.5	23.2	0.00e+00	0	30	0	227540992	38	6047
2026-01-09 05:39:18.59	188.79	5.39	-32.5	-33.1	23.5	0.00e+00	0	30	0	255852544	38	5800
2026-01-09 05:39:22.63	189.00	5.67	-32.5	-33.1	23.6	0.00e+00	0	30	0	285212672	38	5763
2026-01-09 05:39:26.66	189.21	5.95	-32.5	-33.1	23.7	0.00e+00	0	30	0	314572800	38	5773
2026-01-09 05:39:30.70	189.43	6.23	-32.2	-32.8	23.9	0.00e+00	0	30	0	343932928	38	5585
2026-01-09 05:39:34.74	189.66	6.52	-32.3	-32.8	24.0	0.00e+00	0	30	0	373293056	38	5604
2026-01-09 05:39:38.78	189.88	6.81	-32.3	-32.8	23.9	0.00e+00	0	30	0	402653184	38	5601
2026-01-09 05:39:42.81	190.12	7.10	-32.2	-32.8	24.0	0.00e+00	0	30	0	430964736	36	6262
2026-01-09 05:39:46.85	190.35	7.39	-32.2	-32.7	24.0	0.00e+00	0	30	0	460324864	36	6218
2026-01-09 05:39:50.89	190.59	7.69	-31.9	-32.5	24.3	0.00e+00	0	30	0	489684992	36	6056
2026-01-09 05:39:54.93	190.84	7.99	-32.1	-32.6	24.2	0.00e+00	0	30	0	519045120	36	6150
2026-01-09 05:39:58.96	191.09	8.30	-32.0	-32.5	24.3	0.00e+00	0	30	0	548405248	36	6091
2026-01-09 05:40:03.00	191.34	8.60	-32.0	-32.5	24.3	0.00e+00	0	30	0	576716800	36	6085
2026-01-09 05:40:07.04	191.60	8.91	-31.8	-32.3	24.5	0.00e+00	0	30	0	606076928	36	5944
2026-01-09 05:40:11.08	191.87	9.23	-31.8	-32.4	24.5	0.00e+00	0	30	0	635437056	36	5985
2026-01-09 05:40:15.12	192.14	9.55	-31.6	-32.1	24.8	0.00e+00	0	30	0	664797184	36	5823
2026-01-09 05:40:19.16	192.42	9.87	-31.5	-32.0	24.9	0.00e+00	0	30	0	693108736	36	5731
2026-01-09 05:40:23.20	192.70	10.19	-31.7	-32.2	24.8	0.00e+00	0	30	0	722468864	36	5854
2026-01-09 05:40:27.24	192.99	10.52	-31.5	-32.1	24.9	0.00e+00	0	30	0	751828992	36	5768
2026-01-09 05:40:31.28	193.29	10.86	-31.2	-31.7	25.2	0.00e+00	0	30	0	781189120	36	5558
2026-01-09 05:40:35.31	193.59	11.19	-30.9	-31.5	25.5	0.00e+00	0	30	0	810549248	36	5379
2026-01-09 05:40:39.35	193.90	11.53	-30.4	-30.9	25.4	0.00e+00	0	30	0	838860800	34	5682
2026-01-09 05:40:43.39	194.21	11.88	-30.6	-31.1	25.8	0.00e+00	0	30	0	868220928	34	5779
2026-01-09 05:40:47.43	194.53	12.23	-30.5	-31.0	25.9	0.00e+00	0	30	0	897581056	34	5696
2026-01-09 05:40:51.46	194.86	12.58	-30.5	-31.0	25.9	0.00e+00	0	30	0	926941184	34	5702
2026-01-09 05:40:55.50	195.20	12.94	-30.8	-31.3	25.8	0.00e+00	0	30	0	956301312	34	5929
2026-01-09 05:40:59.54	195.55	13.30	-30.5	-31.0	25.9	0.00e+00	0	30	0	984612864	34	5710
2026-01-09 05:41:03.57	195.90	13.67	-30.5	-31.0	25.9	0.00e+00	0	30	0	1013972992	34	5730
2026-01-09 05:41:07.61	196.26	14.04	-30.5	-31.0	26.0	0.00e+00	0	30	0	1043333120	34	5724
2026-01-09 05:41:11.65	196.63	14.41	-30.3	-30.8	26.1	0.00e+00	0	30	0	1072693248	34	5616
2026-01-09 05:41:15.69	197.01	14.79	-29.9	-30.4	26.4	0.00e+00	0	30	0	1102053376	34	5361
2026-01-09 05:41:19.73	197.40	15.18	-29.8	-30.3	26.5	0.00e+00	0	30	0	1131413504	32	5949
2026-01-09 05:41:23.77	197.80	15.57	-29.9	-30.4	26.4	0.00e+00	0	30	0	1159725056	32	5989
2026-01-09 05:41:27.80	198.21	15.96	-30.3	-30.7	26.4	0.00e+00	0	30	0	1189085184	32	6230
2026-01-09 05:41:31.84	198.63	16.36	-29.8	-30.3	26.6	0.00e+00	0	30	0	1218445312	32	5934
2026-01-09 05:41:35.88	199.06	16.77	-29.6	-30.0	26.8	0.00e+00	0	30	0	1247805440	32	5745
2026-01-09 05:41:39.92	199.50	17.18	-29.4	-29.9	26.9	0.00e+00	0	30	0	1277165568	32	5657
2026-01-09 05:41:43.95	199.96	17.60	-29.1	-29.6	27.1	0.00e+00	0	30	0	1305477120	32	5485
2026-01-09 05:41:47.99	200.42	18.02	-29.2	-29.7	27.3	0.00e+00	0	30	0	1334837248	32	5503
2026-01-09 05:41:52.03	200.90	18.45	-28.8	-29.3	27.4	0.00e+00	0	30	0	1364197376	30	5902
2026-01-09 05:41:56.06	201.40	18.88	-28.7	-29.2	27.5	0.00e+00	0	30	0	1393557504	30	5875
2026-01-09 05:42:00.10	201.90	19.32	-28.8	-29.3	27.5	0.00e+00	0	30	0	1421869056	30	5924
2026-01-09 05:42:04.13	202.42	19.76	-28.8	-29.3	27.6	0.00e+00	0	30	0	1451229184	30	5901
2026-01-09 05:42:08.17	202.96	20.21	-28.8	-29.3	27.5	0.00e+00	0	30	0	1480589312	30	5909
2026-01-09 05:42:12.21	203.51	20.67	-28.5	-28.9	27.7	0.00e+00	0	30	0	1509949440	30	5674
2026-01-09 05:42:16.24	204.07	21.13	-28.3	-28.8	27.9	0.00e+00	0	30	0	1538260992	30	5590
2026-01-09 05:42:20.28	204.66	21.60	-28.2	-28.7	27.9	0.00e+00	0	30	0	1567621120	30	5507
2026-01-09 05:42:24.31	205.26	22.07	-28.4	-28.9	27.9	0.00e+00	0	30	0	1596981248	30	5632
2026-01-09 05:42:28.35	205.88	22.55	-28.5	-29.0	27.8	0.00e+00	0	30	0	1626341376	30	5699
2026-01-09 05:42:32.39	206.52	23.03	-28.3	-28.8	27.9	0.00e+00	0	30	0	1655701504	30	5579
2026-01-09 05:42:36.44	207.18	23.52	-28.3	-28.8	27.9	0.00e+00	0	31	0	1685061632	30	5588
2026-01-09 05:42:40.47	207.85	24.02	-28.1	-28.6	28.0	0.00e+00	0	30	0	1713373184	30	5469
2026-01-09 05:42:44.51	208.55	24.52	-28.1	-28.6	28.1	0.00e+00	0	30	0	1742733312	30	5472
2026-01-09 05:42:48.55	209.28	25.02	-28.1	-28.5	28.1	0.00e+00	0	30	0	1772093440	30	5431
2026-01-09 05:42:52.59	210.02	25.53	-27.9	-28.4	28.1	0.00e+00	0	31	0	1801453568	30	5335
2026-01-09 05:42:56.63	210.79	26.05	-27.8	-28.2	28.4	0.00e+00	0	31	0	1830813696	28	5858
2026-01-09 05:43:00.67	211.58	26.57	-27.9	-28.4	28.2	0.00e+00	0	30	0	1859125248	28	5966
2026-01-09 05:43:04.71	212.40	27.09	-27.8	-28.3	28.3	0.00e+00	0	31	0	1888485376	28	5921
2026-01-09 05:43:08.74	213.25	27.62	-27.8	-28.2	28.4	0.00e+00	0	30	0	1917845504	28	5865
2026-01-09 05:43:12.78	214.12	28.15	-27.7	-28.1	28.4	0.00e+00	0	31	0	1947205632	28	5828
2026-01-09 05:43:16.83	215.03	28.69	-27.8	-28.3	28.3	0.00e+00	0	31	0	1976565760	28	5914
2026-01-09 05:43:20.86	215.96	29.22	-28.0	-28.4	28.1	0.00e+00	0	30	0	2005925888	28	6029
2026-01-09 05:43:24.90	216.92	29.76	-28.0	-28.5	28.1	0.00e+00	0	30	0	2034237440	28	6069
2026-01-09 05:43:28.94	217.92	30.30	-28.3	-28.8	27.9	0.00e+00	0	30	0	2063597568	28	6280
2026-01-09 05:43:32.97	218.94	30.84	-28.1	-28.6	28.0	0.00e+00	0	30	0	2092957696	28	6120
2026-01-09 05:43:37.01	220.01	31.38	-27.9	-28.3	28.1	0.00e+00	0	30	0	2122317824	28	5937
2026-01-09 05:43:41.05	221.10	31.92	-28.2	-28.7	27.9	0.00e+00	0	31	0	2150629376	28	6201
2026-01-09 05:43:45.09	222.24	32.46	-27.8	-28.3	28.3	0.00e+00	0	30	0	2179989504	28	5908
2026-01-09 05:43:49.12	223.41	32.99	-27.8	-28.2	28.4	0.00e+00	0	30	0	2209349632	28	5868
2026-01-09 05:43:53.16	224.62	33.52	-27.7	-28.2	28.5	0.00e+00	0	31	0	2238709760	28	5846
2026-01-09 05:43:57.20	225.87	34.05	-27.9	-28.4	28.2	0.00e+00	0	30	0	2267021312	28	5965
2026-01-09 05:44:01.24	227.16	34.57	-27.8	-28.2	28.4	0.00e+00	0	30	0	2296381440	28	5878
2026-01-09 05:44:05.28	228.49	35.08	-27.5	-27.9	28.6	0.00e+00	0	31	0	2325741568	28	5690
2026-01-09 05:44:09.31	229.86	35.58	-27.6	-28.0	28.5	0.00e+00	0	31	0	2355101696	28	5736
2026-01-09 05:44:13.35	231.27	36.07	-27.8	-28.2	28.3	0.00e+00	0	31	0	2384461824	28	5885
2026-01-09 05:44:17.39	232.72	36.55	-27.8	-28.2	28.4	0.00e+00	0	31	0	2413821952	28	5896
2026-01-09 05:44:21.42	234.22	37.01	-27.8	-28.2	28.3	0.00e+00	0	30	0	2442133504	28	5872
2026-01-09 05:44:25.46	235.76	37.46	-27.8	-28.3	28.3	0.00e+00	0	30	0	2471493632	28	5937
2026-01-09 05:44:29.50	237.34	37.89	-27.7	-28.2	28.4	0.00e+00	0	30	0	2500853760	28	5876
2026-01-09 05:44:33.53	238.95	38.30	-27.9	-28.4	28.2	0.00e+00	0	30	0	2530213888	28	5996
2026-01-09 05:44:37.57	240.61	38.69	-27.6	-28.1	28.5	0.00e+00	0	30	0	2559574016	28	5786
2026-01-09 05:44:41.61	242.31	39.06	-27.9	-28.4	28.3	0.00e+00	0	30	0	2587885568	28	5999
2026-01-09 05:44:45.65	244.05	39.40	-27.9	-28.3	28.2	0.00e+00	0	30	0	2617245696	28	5958
2026-01-09 05:44:49.68	245.81	39.72	-27.9	-28.4	28.3	0.00e+00	0	31	0	2646605824	28	5977
2026-01-09 05:44:53.72	247.62	40.01	-27.7	-28.2	28.3	0.00e+00	0	31	0	2675965952	28	5846
2026-01-09 05:44:57.76	249.45	40.27	-27.6	-28.0	28.5	0.00e+00	0	31	0	2704277504	28	5732
2026-01-09 05:45:01.79	251.31	40.50	-27.8	-28.3	28.3	0.00e+00	0	31	0	2733637632	28	5914
2026-01-09 05:45:05.83	253.19	40.69	-27.4	-27.8	28.7	0.00e+00	0	31	0	2762997760	28	5611
2026-01-09 05:45:09.87	255.10	40.85	-27.6	-28.0	28.5	0.00e+00	0	30	0	2792357888	28	5744
2026-01-09 05:45:13.91	257.02	40.98	-27.8	-28.2	28.4	0.00e+00	0	30	0	2820669440	28	5884
2026-01-09 05:45:17.94	258.95	41.07	-28.1	-28.6	28.1	0.00e+00	0	30	0	2850029568	28	6118
2026-01-09 05:45:21.98	260.89	41.13	-28.0	-28.5	28.2	0.00e+00	0	31	0	2879389696	28	6036
2026-01-09 05:45:26.02	262.84	41.15	-27.8	-28.2	28.3	0.00e+00	0	30	0	2908749824	28	5866
2026-01-09 05:45:30.05	264.79	41.13	-27.8	-28.3	28.3	0.00e+00	0	30	0	2938109952	28	5911
2026-01-09 05:45:34.09	266.73	41.08	-27.7	-28.2	28.4	0.00e+00	0	30	0	2967470080	28	5837
2026-01-09 05:45:38.13	268.67	40.99	-28.1	-28.5	27.9	0.00e+00	0	30	0	2995781632	28	6084
2026-01-09 05:45:42.16	270.58	40.87	-28.2	-28.6	27.7	0.00e+00	0	31	0	3025141760	28	6173
2026-01-09 05:45:46.21	272.49	40.71	-27.8	-28.2	28.3	0.00e+00	0	31	0	3054501888	28	5867
2026-01-09 05:45:50.24	274.38	40.52	-27.5	-28.0	28.5	0.00e+00	0	30	0	3083862016	28	5706
2026-01-09 05:45:54.28	276.24	40.30	-27.6	-28.1	28.4	0.00e+00	0	30	0	3113222144	28	5769
2026-01-09 05:45:58.31	278.07	40.04	-27.4	-27.8	28.7	0.00e+00	0	30	0	3141533696	28	5607
2026-01-09 05:46:02.35	279.87	39.76	-28.2	-28.6	28.0	0.00e+00	0	31	0	3170893824	28	6163
2026-01-09 05:46:06.38	281.64	39.45	-27.7	-28.1	28.3	0.00e+00	0	30	0	3200253952	28	5820
2026-01-09 05:46:10.42	283.38	39.11	-28.0	-28.5	28.2	0.00e+00	0	31	0	3229614080	28	6059
2026-01-09 05:46:14.46	285.08	38.74	-27.6	-28.1	28.5	0.00e+00	0	31	0	3257925632	28	5784
2026-01-09 05:46:18.49	286.74	38.36	-28.0	-28.5	28.1	0.00e+00	0	30	0	3287285760	28	6060
2026-01-09 05:46:22.53	288.36	37.95	-28.0	-28.5	28.2	0.00e+00	0	31	0	3316645888	28	6045
2026-01-09 05:46:26.57	289.94	37.52	-27.3	-27.7	28.7	0.00e+00	0	31	0	3346006016	28	5560
2026-01-09 05:46:30.60	291.47	37.08	-27.5	-27.9	28.5	0.00e+00	0	30	0	3375366144	28	5671
2026-01-09 05:46:34.64	292.97	36.62	-27.7	-28.2	28.3	0.00e+00	0	30	0	3403677696	28	5856
2026-01-09 05:46:38.68	294.43	36.14	-27.7	-28.2	28.2	0.00e+00	0	31	0	3433037824	28	5855
2026-01-09 05:46:42.72	295.84	35.65	-27.9	-28.3	28.3	0.00e+00	0	30	0	3462397952	28	5948
2026-01-09 05:46:46.76	297.22	35.16	-27.7	-28.2	28.3	0.00e+00	0	30	0	3491758080	28	5843
2026-01-09 05:46:50.79	298.55	34.65	-27.8	-28.3	28.3	0.00e+00	0	30	0	3521118208	28	5897
2026-01-09 05:46:54.83	299.84	34.13	-27.3	-27.7	28.7	0.00e+00	0	30	0	3549429760	28	5531
2026-01-09 05:46:58.87	301.09	33.61	-27.7	-28.2	28.3	0.00e+00	0	31	0	3578789888	28	5849
2026-01-09 05:47:02.90	302.30	33.09	-28.1	-28.6	28.0	0.00e+00	0	30	0	3608150016	28	6108
2026-01-09 05:47:06.94	303.47	32.55	-28.1	-28.5	28.2	0.00e+00	0	30	0	3637510144	28	6094
2026-01-09 05:47:10.97	304.61	32.02	-27.9	-28.4	28.2	0.00e+00	0	30	0	3666870272	28	5984
2026-01-09 05:47:15.01	305.71	31.48	-27.8	-28.3	28.2	0.00e+00	0	30	0	3696230400	28	5914
2026-01-09 05:47:19.05	306.77	30.95	-28.2	-28.6	28.0	0.00e+00	0	31	0	3724541952	28	6154
2026-01-09 05:47:23.08	307.80	30.41	-28.0	-28.5	27.9	0.00e+00	0	31	0	3753902080	28	6067
2026-01-09 05:47:27.12	308.80	29.87	-28.1	-28.6	28.1	0.00e+00	0	31	0	3783262208	28	6127
2026-01-09 05:47:31.16	309.76	29.34	-28.0	-28.5	28.0	0.00e+00	0	30	0	3812622336	28	6069
2026-01-09 05:47:35.19	310.70	28.80	-28.1	-28.5	28.1	0.00e+00	0	30	0	3840933888	28	6081
2026-01-09 05:47:39.22	311.60	28.27	-28.1	-28.5	28.0	0.00e+00	0	31	0	3870294016	28	6076
2026-01-09 05:47:43.26	312.48	27.74	-28.0	-28.4	28.1	0.00e+00	0	31	0	3899654144	28	6020
2026-01-09 05:47:47.29	313.32	27.22	-28.1	-28.6	27.9	0.00e+00	0	31	0	3929014272	28	6128
2026-01-09 05:47:51.32	314.14	26.70	-28.1	-28.6	28.0	0.00e+00	0	30	0	3957325824	28	6149
2026-01-09 05:47:55.36	314.94	26.18	-28.3	-28.7	27.9	0.00e+00	0	30	0	3986685952	28	6227
2026-01-09 05:47:59.39	315.71	25.67	-28.2	-28.7	27.9	0.00e+00	0	30	0	4016046080	28	6211
2026-01-09 05:48:03.43	316.46	25.16	-28.4	-28.9	27.5	0.00e+00	0	31	0	4045406208	28	6369
2026-01-09 05:48:07.46	317.18	24.66	-28.2	-28.7	27.8	0.00e+00	0	31	0	4074766336	28	6205
2026-01-09 05:48:11.50	317.88	24.16	-28.1	-28.6	27.8	0.00e+00	0	31	0	4103077888	28	6104
2026-01-09 05:48:15.53	318.56	23.67	-28.3	-28.8	27.7	0.00e+00	0	31	0	4132438016	28	6291
2026-01-09 05:48:19.57	319.22	23.18	-28.8	-29.3	27.3	0.00e+00	0	31	0	4161798144	30	5948
2026-01-09 05:48:23.61	319.86	22.70	-28.8	-29.3	27.4	0.00e+00	0	31	0	4190109696	30	5908
2026-01-09 05:48:27.65	320.48	22.22	-28.6	-29.1	27.5	0.00e+00	0	31	0	4219469824	30	5782
2026-01-09 05:48:31.68	321.09	21.75	-28.4	-28.9	27.6	0.00e+00	0	31	0	4248829952	30	5671
2026-01-09 05:48:35.72	321.67	21.28	-28.8	-29.3	27.4	0.00e+00	0	31	0	4278190080	30	5943
2026-01-09 05:48:39.75	322.24	20.82	-29.1	-29.6	27.2	0.00e+00	0	31	0	4307550208	30	6147
2026-01-09 05:48:43.79	322.79	20.37	-29.2	-29.7	27.1	0.00e+00	0	30	0	4335861760	30	6194
2026-01-09 05:48:47.82	323.33	19.92	-29.0	-29.5	27.3	0.00e+00	0	31	0	4365221888	30	6050
2026-01-09 05:48:51.86	323.86	19.48	-28.8	-29.2	27.4	0.00e+00	0	30	0	4394582016	30	5871
2026-01-09 05:48:55.89	324.36	19.04	-29.1	-29.5	27.2	0.00e+00	0	30	0	4423942144	30	6093
2026-01-09 05:48:59.94	324.86	18.61	-29.3	-29.8	27.0	0.00e+00	0	30	0	4453302272	30	6285
2026-01-09 05:49:03.98	325.34	18.19	-29.6	-30.1	26.7	0.00e+00	0	30	0	4482662400	30	6480
2026-01-09 05:49:08.01	325.81	17.77	-29.8	-30.2	26.6	0.00e+00	0	30	0	4510973952	32	5888
2026-01-09 05:49:12.05	326.27	17.35	-29.7	-30.2	26.7	0.00e+00	0	31	0	4540334080	32	5850
2026-01-09 05:49:16.09	326.71	16.94	-29.7	-30.2	26.7	0.00e+00	0	31	0	4569694208	32	5838
2026-01-09 05:49:20.13	327.15	16.54	-29.8	-30.3	26.4	0.00e+00	0	30	0	4599054336	32	5930
2026-01-09 05:49:24.16	327.57	16.14	-30.0	-30.4	26.3	0.00e+00	0	31	0	4628414464	32	6033
2026-01-09 05:49:28.20	327.98	15.74	-30.2	-30.7	26.1	0.00e+00	0	31	0	4656726016	32	6188
2026-01-09 05:49:32.24	328.38	15.35	-30.2	-30.7	26.1	0.00e+00	0	30	0	4686086144	32	6216
2026-01-09 05:49:36.27	328.78	14.97	-30.4	-30.9	26.0	0.00e+00	0	30	0	4715446272	32	6337
2026-01-09 05:49:40.31	329.16	14.59	-30.5	-31.0	25.9	0.00e+00	0	30	0	4744806400	32	6393
2026-01-09 05:49:44.35	329.53	14.22	-30.6	-31.1	25.8	0.00e+00	0	30	0	4773117952	32	6485
2026-01-09 05:49:48.39	329.90	13.85	-30.6	-31.1	25.8	0.00e+00	0	30	0	4802478080	32	6466
2026-01-09 05:49:52.42	330.25	13.48	-30.9	-31.4	25.6	0.00e+00	0	31	0	4831838208	34	5980
2026-01-09 05:49:56.46	330.60	13.12	-30.9	-31.4	25.4	0.00e+00	0	30	0	4861198336	34	6007
2026-01-09 05:50:00.50	330.94	12.76	-31.2	-31.7	25.2	0.00e+00	0	31	0	4889509888	34	6243
2026-01-09 05:50:04.54	331.28	12.41	-31.2	-31.7	25.1	0.00e+00	0	31	0	4918870016	34	6244
2026-01-09 05:50:08.57	331.60	12.06	-31.3	-31.9	25.0	0.00e+00	0	30	0	4948230144	34	6322
2026-01-09 05:50:12.61	331.92	11.72	-31.4	-32.0	24.9	0.00e+00	0	30	0	4977590272	34	6396
2026-01-09 05:50:16.65	332.23	11.38	-31.4	-32.0	24.9	0.00e+00	0	30	0	5006950400	34	6395
2026-01-09 05:50:20.69	332.54	11.04	-31.6	-32.1	24.7	0.00e+00	0	30	0	5036310528	34	6527
2026-01-09 05:50:24.72	332.83	10.71	-31.4	-32.0	24.9	0.00e+00	0	30	0	5064622080	34	6410
2026-01-09 05:50:28.76	333.13	10.38	-31.5	-32.0	24.8	0.00e+00	0	31	0	5093982208	34	6423
2026-01-09 05:50:32.80	333.41	10.06	-31.5	-32.0	24.7	0.00e+00	0	30	0	5123342336	34	6449
2026-01-09 05:50:36.84	333.69	9.74	-31.8	-32.4	24.5	0.00e+00	0	30	0	5152702464	36	5973
2026-01-09 05:50:40.88	333.97	9.42	-31.8	-32.4	24.5	0.00e+00	0	30	0	5182062592	36	5984
2026-01-09 05:50:44.91	334.24	9.11	-32.0	-32.5	24.3	0.00e+00	0	30	0	5210374144	36	6082
2026-01-09 05:50:48.94	334.50	8.80	-32.3	-32.8	24.0	0.00e+00	0	30	0	5239734272	36	6301
2026-01-09 05:50:52.98	334.76	8.49	-32.3	-32.8	23.9	0.00e+00	0	30	0	5269094400	36	6306
2026-01-09 05:50:57.02	335.01	8.19	-32.4	-33.0	23.8	0.00e+00	0	30	0	5298454528	36	6399
2026-01-09 05:51:01.06	335.26	7.89	-32.4	-33.0	23.8	0.00e+00	0	30	0	5326766080	36	6420
2026-01-09 05:51:05.10	335.51	7.59	-32.5	-33.0	23.7	0.00e+00	0	30	0	5356126208	36	6448
2026-01-09 05:51:09.13	335.75	7.30	-32.6	-33.1	23.5	0.00e+00	0	30	0	5385486336	36	6535
2026-01-09 05:51:13.17	335.98	7.01	-32.4	-33.0	23.6	0.00e+00	0	30	0	5414846464	36	6431
2026-01-09 05:51:17.20	336.21	6.72	-32.5	-33.0	23.6	0.00e+00	0	30	0	5443158016	36	6453
2026-01-09 05:51:21.24	336.44	6.43	-32.4	-32.9	23.6	0.00e+00	0	30	0	5472518144	36	6368
2026-01-09 05:51:25.27	336.66	6.15	-32.5	-33.1	23.3	0.00e+00	0	30	0	5501878272	36	6513
2026-01-09 05:51:29.31	336.88	5.87	-33.1	-33.7	22.5	0.00e+00	0	30	0	5531238400	38	6188
2026-01-09 05:51:33.35	337.10	5.59	-33.9	-34.5	21.3	0.00e+00	0	30	0	5560598528	40	6102
2026-01-09 05:51:37.38	337.31	5.32	-35.0	-35.8	19.5	0.00e+00	0	30	0	5589958656	42	6311
2026-01-09 05:51:41.42	337.52	5.05	-36.5	-37.5	17.3	0.00e+00	0	30	0	5618270208	44	6800
2026-01-09 05:51:45.46	337.72	4.78	-37.9	-39.3	15.1	0.00e+00	0	30	0	5647630336	48	6638
2026-01-09 05:51:49.49	337.92	4.51	-39.7	-41.7	11.9	3.01e-04	0	30	0	5676990464	50	7846
2026-01-09 05:51:53.53	338.12	4.25	-41.1	-44.3	8.3	3.99e-02	0	31	0	5706350592	54	8365
2026-01-09 05:51:57.57	338.31	3.98	-42.1	-47.1	5.0	7.12e-01	0	31	0	5732564992	56	10350
2026-01-09 05:52:01.61	338.51	3.72	-42.5	-51.1	3.8	8.39e-01	0	30	104	5732564992	56	16287
2026-01-09 05:52:05.64	338.70	3.47	-42.6	-52.8	3.6	8.44e-01	0	30	104	5732564992	56	19963
2026-01-09 05:52:09.68	338.88	3.21	-42.6	-53.7	3.6	8.46e-01	0	31	104	5732564992	58	19547
2026-01-09 05:52:13.71	339.06	2.96	-42.6	-53.7	3.6	8.45e-01	0	30	104	5732564992	58	19681
2026-01-09 05:52:17.75	339.24	2.71	-47.6	-58.9	3.6	8.45e-01	0	30	104	5732564992	60	31697
2026-01-09 05:52:21.79	339.42	2.46	-47.9	-59.2	3.6	8.46e-01	0	30	104	5732564992	60	32841
2026-01-09 05:52:25.82	339.60	2.21	-47.6	-59.1	3.6	8.45e-01	0	31	104	5732564992	60	32433
2026-01-09 05:52:29.86	339.77	1.96	-47.8	-59.1	3.6	8.45e-01	0	31	104	5732564992	60	32646
2026-01-09 05:52:33.90	339.94	1.72	-47.8	-59.0	3.6	8.45e-01	0	31	104	5732564992	60	32269
2026-01-09 05:52:37.94	340.11	1.48	-47.8	-59.0	3.6	8.44e-01	0	31	104	5732564992	60	32300
2026-01-09 05:52:41.97	340.27	1.24	-47.8	-59.1	3.6	8.45e-01	0	30	104	5732564992	60	32451
2026-01-09 05:52:46.01	340.43	1.00	-47.7	-59.0	3.6	8.45e-01	0	31	104	5732564992	60	32254
2026-01-09 05:52:50.05	340.59	0.77	-47.8	-59.0	3.6	8.45e-01	0	30	104	5732564992	60	32376
2026-01-09 05:52:54.09	340.75	0.53	-47.7	-59.0	3.6	8.45e-01	0	30	104	5732564992	60	32253
2026-01-09 05:52:58.13	340.91	0.30	-47.7	-59.0	3.6	8.46e-01	0	30	104	5732564992	60	32231
2026-01-09 05:53:02.16	341.06	0.07	-47.7	-59.0	3.6	8.44e-01	0	30	104	5732564992	60	32340

#Closed at: 2026-01-09 05:53:05
#Recorded file [5732 MB]: D:/lorett/data/35029_260109_173753.dat