passes_logs/2026/01/09/R4.6S_Anadyr/R4.6S_Anadyr__20260109_004129_NOAA_21_JPSS-2_rec.log

#Pass ID: 20260109_004129_NOAA 21 (JPSS-2)
#Satellite: NOAA 21 (JPSS-2)
#Configuration: NOAA-21
#almurnet v.1.7.20251203
#Start time: 2026-01-09 00:41:30

#Version: 2.2.20231116
#Station: R4.6S_Anadyr
#Location: 177.4865 lon 64.73178 lat
#TLE: 1 54234U 22150A   26008.31660796  .00000118  00000+0  76746-4 0  9995
#TLE: 2 54234  98.7494 309.2974 0000900 328.8845  31.2277 14.19533293163868

#Time	Az	El	Level	Level2	SNR	BER	BlckErr	Temp	State	Recorded	gain1	gain2
2026-01-09 00:41:30.87	168.20	0.10	-48.2	-63.2	3.5	1.51e+00	0	31	0	0	60	51968
2026-01-09 00:41:34.90	168.27	0.34	-48.2	-61.1	3.5	1.52e+00	0	33	104	0	60	39738
2026-01-09 00:41:38.94	168.34	0.58	-48.2	-61.0	3.5	1.52e+00	0	33	104	0	60	39419
2026-01-09 00:41:42.98	168.41	0.83	-47.7	-60.5	3.5	1.52e+00	0	33	104	0	60	37304
2026-01-09 00:41:47.02	168.49	1.08	-46.7	-59.5	3.5	1.52e+00	0	33	104	0	60	33059
2026-01-09 00:41:51.06	168.56	1.33	-46.7	-59.5	3.5	1.52e+00	0	33	104	0	60	32994
2026-01-09 00:41:55.09	168.64	1.58	-46.7	-59.2	3.5	1.52e+00	0	34	104	0	60	32034
2026-01-09 00:41:59.13	168.72	1.83	-46.6	-59.0	3.5	1.52e+00	0	34	104	0	60	31349
2026-01-09 00:42:03.17	168.79	2.09	-46.7	-59.4	3.5	1.51e+00	0	34	104	0	60	32879
2026-01-09 00:42:07.21	168.87	2.35	-46.6	-59.0	3.5	1.52e+00	0	34	104	0	60	31331
2026-01-09 00:42:11.26	168.95	2.61	-46.5	-57.5	3.5	1.51e+00	0	34	104	0	60	26435
2026-01-09 00:42:15.29	169.04	2.87	-46.5	-58.1	3.5	1.51e+00	0	34	104	0	60	28129
2026-01-09 00:42:19.33	169.12	3.14	-43.6	-46.9	11.7	2.39e-03	123	34	0	6291456	60	7724
2026-01-09 00:42:23.37	169.20	3.41	-39.3	-40.8	17.9	0.00e+00	123	34	0	18874368	52	6100
2026-01-09 00:42:27.41	169.29	3.68	-38.4	-39.8	18.8	0.00e+00	124	34	0	31457280	50	6082
2026-01-09 00:42:31.45	169.38	3.96	-39.2	-40.7	17.4	0.00e+00	123	34	0	44040192	52	6042
2026-01-09 00:42:35.48	169.47	4.23	-38.7	-40.0	18.6	0.00e+00	123	34	0	49283072	50	6265
2026-01-09 00:42:39.52	169.56	4.51	-37.0	-38.2	20.4	0.00e+00	123	34	0	61865984	48	5665
2026-01-09 00:42:43.55	169.65	4.79	-36.5	-37.6	21.0	0.00e+00	122	34	0	74448896	46	5984
2026-01-09 00:42:47.59	169.74	5.08	-36.3	-37.4	21.3	0.00e+00	123	34	0	87031808	46	5802
2026-01-09 00:42:51.63	169.84	5.37	-36.1	-37.2	21.4	0.00e+00	123	34	0	99614720	46	5691
2026-01-09 00:42:55.66	169.93	5.66	-36.2	-37.2	21.4	0.00e+00	123	34	0	112197632	46	5715
2026-01-09 00:42:59.70	170.03	5.95	-36.1	-37.1	21.6	0.00e+00	123	34	0	124780544	46	5643
2026-01-09 00:43:03.74	170.13	6.25	-35.9	-36.9	21.7	0.00e+00	122	34	0	137363456	46	5525
2026-01-09 00:43:07.78	170.23	6.56	-35.7	-36.7	22.0	0.00e+00	123	34	0	149946368	44	6023
2026-01-09 00:43:11.82	170.34	6.86	-35.7	-36.8	22.0	0.00e+00	123	34	0	162529280	44	6086
2026-01-09 00:43:15.85	170.44	7.17	-35.5	-36.5	22.2	0.00e+00	123	34	0	175112192	44	5899
2026-01-09 00:43:19.89	170.55	7.48	-35.4	-36.4	22.3	0.00e+00	123	34	0	187695104	44	5854
2026-01-09 00:43:23.92	170.66	7.80	-35.5	-36.5	22.4	0.00e+00	120	34	0	200278016	44	5899
2026-01-09 00:43:27.96	170.77	8.12	-35.4	-36.4	22.4	0.00e+00	121	34	0	212860928	44	5804
2026-01-09 00:43:32.00	170.88	8.44	-35.2	-36.2	22.6	0.00e+00	123	34	0	225443840	44	5669
2026-01-09 00:43:36.04	171.00	8.77	-35.0	-36.0	22.7	0.00e+00	121	34	0	238026752	44	5569
2026-01-09 00:43:40.07	171.12	9.10	-34.9	-35.9	22.9	0.00e+00	120	34	0	250609664	44	5514
2026-01-09 00:43:44.11	171.24	9.44	-34.7	-35.7	23.0	0.00e+00	123	34	0	263192576	42	6002
2026-01-09 00:43:48.15	171.36	9.78	-34.5	-35.4	23.3	0.00e+00	122	34	0	275775488	42	5852
2026-01-09 00:43:52.18	171.49	10.13	-34.5	-35.5	23.4	0.00e+00	123	34	0	289406976	42	5873
2026-01-09 00:43:56.21	171.62	10.48	-34.5	-35.4	23.3	0.00e+00	120	34	0	300941312	42	5841
2026-01-09 00:44:00.25	171.75	10.84	-34.2	-35.1	23.6	0.00e+00	120	34	0	314572800	42	5631
2026-01-09 00:44:04.29	171.88	11.20	-34.2	-35.2	23.6	0.00e+00	123	34	0	327155712	42	5660
2026-01-09 00:44:08.32	172.02	11.56	-34.1	-35.0	23.7	0.00e+00	123	34	0	338690048	42	5568
2026-01-09 00:44:12.35	172.16	11.93	-34.1	-35.0	23.8	0.00e+00	123	34	0	352321536	42	5592
2026-01-09 00:44:16.39	172.31	12.31	-34.0	-35.0	23.8	0.00e+00	120	35	0	364904448	42	5534
2026-01-09 00:44:20.42	172.45	12.70	-33.9	-34.8	23.9	0.00e+00	123	35	0	377487360	42	5424
2026-01-09 00:44:24.46	172.60	13.08	-33.7	-34.6	24.0	0.00e+00	120	34	0	390070272	40	5985
2026-01-09 00:44:28.50	172.76	13.48	-33.8	-34.7	24.0	0.00e+00	116	35	0	402653184	40	6016
2026-01-09 00:44:32.54	172.92	13.88	-33.8	-34.7	24.0	0.00e+00	122	35	0	415236096	40	6033
2026-01-09 00:44:36.57	173.08	14.29	-33.7	-34.6	24.2	0.00e+00	123	34	0	427819008	40	5944
2026-01-09 00:44:40.61	173.25	14.71	-33.7	-34.6	24.1	0.00e+00	122	35	0	440401920	40	5991
2026-01-09 00:44:44.65	173.42	15.13	-33.8	-34.7	24.1	0.00e+00	121	34	0	452984832	40	6004
2026-01-09 00:44:48.69	173.59	15.56	-33.8	-34.7	24.1	0.00e+00	124	35	0	465567744	40	6023
2026-01-09 00:44:52.72	173.77	16.00	-33.8	-34.8	24.1	0.00e+00	123	35	0	478150656	40	6077
2026-01-09 00:44:56.76	173.96	16.44	-33.8	-34.7	24.1	0.00e+00	123	35	0	490733568	40	6011
2026-01-09 00:45:00.79	174.15	16.89	-33.7	-34.6	24.1	0.00e+00	123	35	0	503316480	40	5972
2026-01-09 00:45:04.83	174.34	17.35	-33.7	-34.6	24.1	0.00e+00	123	35	0	515899392	40	5971
2026-01-09 00:45:08.87	174.55	17.82	-33.6	-34.5	24.1	0.00e+00	122	35	0	528482304	40	5913
2026-01-09 00:45:12.91	174.75	18.30	-33.7	-34.6	24.0	0.00e+00	123	35	0	541065216	40	5968
2026-01-09 00:45:16.94	174.97	18.79	-33.6	-34.5	24.1	0.00e+00	123	35	0	553648128	40	5892
2026-01-09 00:45:20.98	175.19	19.29	-33.4	-34.3	24.3	0.00e+00	123	35	0	566231040	40	5787
2026-01-09 00:45:25.02	175.41	19.79	-33.3	-34.3	24.3	0.00e+00	121	35	0	578813952	40	5736
2026-01-09 00:45:29.05	175.65	20.31	-33.0	-33.9	24.6	0.00e+00	120	35	0	591396864	40	5522
2026-01-09 00:45:33.09	175.89	20.84	-32.9	-33.8	24.6	0.00e+00	123	35	0	603979776	40	5434
2026-01-09 00:45:37.12	176.14	21.37	-32.9	-33.8	24.7	0.00e+00	123	35	0	616562688	38	6081
2026-01-09 00:45:41.16	176.39	21.92	-32.7	-33.6	24.9	0.00e+00	123	35	0	629145600	38	5944
2026-01-09 00:45:45.19	176.66	22.48	-32.3	-33.2	25.1	0.00e+00	120	35	0	641728512	38	5669
2026-01-09 00:45:49.23	176.94	23.06	-32.2	-33.1	25.1	0.00e+00	123	35	0	654311424	38	5605
2026-01-09 00:45:53.27	177.22	23.64	-31.8	-32.7	25.5	0.00e+00	123	35	0	666894336	38	5363
2026-01-09 00:45:57.31	177.52	24.24	-31.8	-32.7	25.5	0.00e+00	123	35	0	679477248	36	6003
2026-01-09 00:46:01.35	177.83	24.85	-32.0	-32.8	25.5	0.00e+00	122	35	0	692060160	36	6130
2026-01-09 00:46:05.38	178.14	25.48	-32.4	-33.2	25.3	0.00e+00	123	35	0	704643072	36	6406
2026-01-09 00:46:09.42	178.48	26.12	-32.9	-33.8	24.9	0.00e+00	123	35	0	717225984	38	6077
2026-01-09 00:46:13.46	178.82	26.77	-33.0	-33.9	24.9	0.00e+00	123	35	0	729808896	38	6149
2026-01-09 00:46:17.49	179.18	27.44	-33.1	-34.0	24.7	0.00e+00	123	35	0	743440384	38	6241
2026-01-09 00:46:21.53	179.55	28.12	-33.6	-34.5	24.5	0.00e+00	123	35	0	756023296	38	6581
2026-01-09 00:46:25.57	179.94	28.82	-33.8	-34.8	24.1	0.00e+00	123	35	0	768606208	40	6074
2026-01-09 00:46:29.61	180.34	29.54	-33.7	-34.6	24.2	0.00e+00	122	35	0	781189120	40	5971
2026-01-09 00:46:33.64	180.77	30.27	-33.2	-34.1	24.7	0.00e+00	123	35	0	793772032	40	5611
2026-01-09 00:46:37.68	181.21	31.02	-33.0	-33.9	24.9	0.00e+00	120	35	0	806354944	40	5508
2026-01-09 00:46:41.72	181.67	31.79	-33.0	-33.9	24.9	0.00e+00	123	35	0	818937856	40	5491
2026-01-09 00:46:45.76	182.16	32.58	-33.1	-34.0	24.8	0.00e+00	123	35	0	831520768	40	5566
2026-01-09 00:46:49.80	182.67	33.39	-33.3	-34.2	24.7	0.00e+00	121	35	0	844103680	40	5684
2026-01-09 00:46:53.84	183.20	34.21	-33.5	-34.4	24.6	0.00e+00	122	35	0	856686592	40	5798
2026-01-09 00:46:57.87	183.76	35.06	-34.2	-35.1	24.0	0.00e+00	120	35	0	869269504	40	6296
2026-01-09 00:47:01.91	184.35	35.92	-34.8	-35.7	23.7	0.00e+00	122	35	0	881852416	40	6799
2026-01-09 00:47:05.94	184.97	36.81	-34.9	-35.9	23.5	0.00e+00	123	35	0	894435328	42	6136
2026-01-09 00:47:09.98	185.63	37.71	-35.1	-36.0	23.3	0.00e+00	122	35	0	907018240	42	6250
2026-01-09 00:47:14.02	186.32	38.64	-34.8	-35.7	23.5	0.00e+00	118	35	0	919601152	42	6054
2026-01-09 00:47:18.06	187.05	39.59	-34.9	-35.9	23.2	0.00e+00	123	35	0	932184064	42	6173
2026-01-09 00:47:22.09	187.83	40.56	-35.3	-36.3	22.8	0.00e+00	123	35	0	944766976	42	6450
2026-01-09 00:47:26.13	188.65	41.55	-35.8	-36.8	22.4	0.00e+00	123	35	0	957349888	44	6095
2026-01-09 00:47:30.17	189.52	42.56	-35.3	-36.3	22.6	0.00e+00	123	35	0	969932800	44	5783
2026-01-09 00:47:34.20	190.45	43.59	-36.2	-37.3	22.3	0.00e+00	123	35	0	982515712	44	6451
2026-01-09 00:47:38.24	191.45	44.64	-36.4	-37.5	22.2	0.00e+00	123	35	0	995098624	44	6581
2026-01-09 00:47:42.27	192.50	45.71	-35.9	-36.9	22.5	0.00e+00	123	35	0	1007681536	44	6190
2026-01-09 00:47:46.31	193.64	46.79	-35.7	-36.7	22.7	0.00e+00	122	35	0	1020264448	44	6040
2026-01-09 00:47:50.35	194.85	47.90	-34.5	-35.4	23.7	0.00e+00	123	35	0	1032847360	42	5855
2026-01-09 00:47:54.39	196.15	49.01	-34.1	-35.0	24.0	0.00e+00	123	35	0	1045430272	42	5547
2026-01-09 00:47:58.42	197.55	50.14	-34.9	-35.8	23.6	0.00e+00	123	35	0	1058013184	42	6102
2026-01-09 00:48:02.46	199.05	51.28	-34.6	-35.6	23.7	0.00e+00	123	35	0	1070596096	42	5929
2026-01-09 00:48:06.50	200.68	52.42	-34.1	-35.0	24.1	0.00e+00	123	35	0	1083179008	42	5555
2026-01-09 00:48:10.54	202.43	53.57	-33.4	-34.3	24.6	0.00e+00	123	35	0	1095761920	40	5733
2026-01-09 00:48:14.58	204.33	54.71	-33.4	-34.3	24.7	0.00e+00	120	35	0	1108344832	40	5738
2026-01-09 00:48:18.61	206.38	55.84	-33.2	-34.1	24.7	0.00e+00	120	35	0	1120927744	40	5656
2026-01-09 00:48:22.65	208.60	56.96	-33.0	-33.9	24.7	0.00e+00	122	35	0	1134559232	40	5492
2026-01-09 00:48:26.68	211.00	58.05	-32.8	-33.7	24.7	0.00e+00	123	35	0	1147142144	38	6024
2026-01-09 00:48:30.72	213.61	59.12	-31.9	-32.7	25.7	0.00e+00	122	35	0	1159725056	38	5364
2026-01-09 00:48:34.76	216.43	60.14	-31.6	-32.4	25.9	0.00e+00	123	35	0	1172307968	36	5814
2026-01-09 00:48:38.80	219.48	61.12	-31.4	-32.2	26.1	0.00e+00	123	35	0	1184890880	36	5680
2026-01-09 00:48:42.84	222.76	62.03	-31.4	-32.3	25.9	0.00e+00	123	35	0	1197473792	36	5754
2026-01-09 00:48:46.87	226.28	62.87	-32.0	-32.8	25.7	0.00e+00	123	35	0	1210056704	36	6107
2026-01-09 00:48:50.91	230.05	63.62	-31.7	-32.5	25.7	0.00e+00	122	35	0	1222639616	36	5899
2026-01-09 00:48:54.94	234.04	64.27	-32.0	-32.8	25.7	0.00e+00	122	35	0	1235222528	36	6111
2026-01-09 00:48:58.97	238.24	64.81	-31.7	-32.5	25.9	0.00e+00	122	35	0	1247805440	36	5913
2026-01-09 00:49:03.01	242.63	65.22	-31.3	-32.1	25.9	0.00e+00	123	35	0	1260388352	36	5618
2026-01-09 00:49:07.05	247.16	65.51	-31.9	-32.8	25.6	0.00e+00	120	35	0	1272971264	36	6092
2026-01-09 00:49:11.09	251.78	65.65	-31.5	-32.3	26.0	0.00e+00	122	35	0	1285554176	36	5753
2026-01-09 00:49:15.12	256.42	65.66	-31.5	-32.4	25.4	0.00e+00	122	35	0	1298137088	36	5800
2026-01-09 00:49:19.15	261.02	65.51	-32.9	-33.8	25.0	0.00e+00	123	35	0	1310720000	38	6079
2026-01-09 00:49:23.20	265.57	65.23	-31.5	-32.3	25.9	0.00e+00	120	35	0	1323302912	36	5777
2026-01-09 00:49:27.23	269.95	64.82	-31.9	-32.8	25.4	0.00e+00	120	35	0	1335885824	36	6093
2026-01-09 00:49:31.27	274.16	64.29	-32.6	-33.5	25.1	0.00e+00	120	35	0	1348468736	36	6583
2026-01-09 00:49:35.31	278.16	63.64	-32.1	-32.9	25.4	0.00e+00	123	35	0	1361051648	36	6204
2026-01-09 00:49:39.35	281.93	62.89	-32.3	-33.2	25.4	0.00e+00	122	35	0	1373634560	36	6359
2026-01-09 00:49:43.38	285.45	62.06	-32.5	-33.3	25.2	0.00e+00	122	35	0	1386217472	36	6485
2026-01-09 00:49:47.42	288.74	61.15	-32.0	-32.8	25.7	0.00e+00	123	35	0	1398800384	38	5435
2026-01-09 00:49:51.46	291.79	60.17	-33.1	-34.0	24.7	0.00e+00	121	35	0	1411383296	38	6259
2026-01-09 00:49:55.50	294.61	59.15	-31.7	-32.5	25.4	0.00e+00	120	35	0	1423966208	36	5890
2026-01-09 00:49:59.53	297.21	58.09	-34.4	-35.3	23.9	0.00e+00	122	35	0	1436549120	40	6492
2026-01-09 00:50:03.57	299.62	57.00	-31.5	-32.3	25.6	0.00e+00	120	35	0	1449132032	36	5762
2026-01-09 00:50:07.61	301.85	55.89	-34.2	-35.2	24.0	0.00e+00	123	35	0	1461714944	40	6378
2026-01-09 00:50:11.65	303.90	54.76	-32.8	-33.6	25.0	0.00e+00	122	35	0	1474297856	38	5977
2026-01-09 00:50:15.68	305.79	53.62	-34.9	-35.9	23.2	0.00e+00	123	35	0	1486880768	42	6151
2026-01-09 00:50:19.72	307.55	52.48	-32.9	-33.7	23.9	0.00e+00	123	35	0	1499463680	40	5398
2026-01-09 00:50:23.76	309.17	51.34	-35.1	-36.1	23.0	0.00e+00	122	35	0	1512046592	42	6303
2026-01-09 00:50:27.80	310.68	50.21	-35.7	-36.7	22.8	0.00e+00	122	35	0	1525678080	44	6029
2026-01-09 00:50:31.83	312.08	49.09	-34.9	-35.8	23.4	0.00e+00	123	35	0	1538260992	42	6115
2026-01-09 00:50:35.87	313.38	47.97	-36.3	-37.4	22.3	0.00e+00	120	35	0	1549795328	44	6504
2026-01-09 00:50:39.91	314.59	46.87	-34.7	-35.6	23.6	0.00e+00	122	35	0	1563426816	42	5947
2026-01-09 00:50:43.95	315.73	45.79	-36.4	-37.4	22.1	0.00e+00	123	35	0	1576009728	44	6519
2026-01-09 00:50:47.99	316.79	44.73	-36.5	-37.6	22.0	0.00e+00	120	35	0	1588592640	44	6697
2026-01-09 00:50:52.02	317.78	43.68	-36.1	-37.1	22.5	0.00e+00	122	35	0	1601175552	44	6320
2026-01-09 00:50:56.06	318.71	42.65	-36.0	-37.1	22.5	0.00e+00	123	35	0	1613758464	44	6285
2026-01-09 00:51:00.10	319.59	41.65	-35.5	-36.5	22.9	0.00e+00	122	35	0	1626341376	44	5890
2026-01-09 00:51:04.13	320.41	40.66	-35.6	-36.5	22.9	0.00e+00	122	35	0	1638924288	44	5917
2026-01-09 00:51:08.17	321.19	39.70	-36.6	-37.7	21.4	0.00e+00	122	35	0	1651507200	44	6769
2026-01-09 00:51:12.21	321.92	38.75	-36.5	-37.6	22.0	0.00e+00	123	35	0	1664090112	46	5950
2026-01-09 00:51:16.25	322.62	37.83	-35.0	-35.9	23.3	0.00e+00	123	35	0	1676673024	44	5506
2026-01-09 00:51:20.28	323.27	36.92	-34.4	-35.3	23.8	0.00e+00	123	35	0	1689255936	42	5788
2026-01-09 00:51:24.31	323.89	36.04	-34.8	-35.8	23.5	0.00e+00	123	35	0	1701838848	42	6080
2026-01-09 00:51:28.35	324.48	35.18	-35.2	-36.2	23.1	0.00e+00	121	35	0	1714421760	42	6374
2026-01-09 00:51:32.39	325.05	34.34	-35.0	-36.0	23.4	0.00e+00	120	35	0	1727004672	42	6208
2026-01-09 00:51:36.43	325.58	33.51	-34.2	-35.1	24.1	0.00e+00	122	35	0	1739587584	42	5636
2026-01-09 00:51:40.47	326.09	32.71	-33.3	-34.2	24.6	0.00e+00	122	35	0	1752170496	40	5696
2026-01-09 00:51:44.51	326.58	31.92	-33.0	-33.9	24.8	0.00e+00	123	35	0	1764753408	40	5483
2026-01-09 00:51:48.55	327.04	31.16	-33.4	-34.3	24.6	0.00e+00	123	35	0	1777336320	40	5788
2026-01-09 00:51:52.59	327.49	30.41	-33.4	-34.2	24.5	0.00e+00	120	35	0	1789919232	40	5721
2026-01-09 00:51:56.63	327.91	29.68	-32.7	-33.6	24.8	0.00e+00	122	35	0	1802502144	40	5317
2026-01-09 00:52:00.67	328.32	28.96	-32.9	-33.8	24.7	0.00e+00	122	35	0	1815085056	38	6075
2026-01-09 00:52:04.71	328.71	28.26	-33.1	-34.0	24.8	0.00e+00	120	35	0	1827667968	38	6224
2026-01-09 00:52:08.75	329.08	27.58	-33.1	-33.9	24.9	0.00e+00	120	35	0	1840250880	38	6165
2026-01-09 00:52:12.79	329.44	26.92	-32.8	-33.7	24.9	0.00e+00	122	35	0	1852833792	38	6002
2026-01-09 00:52:16.83	329.79	26.26	-33.1	-34.0	24.7	0.00e+00	122	35	0	1865416704	38	6250
2026-01-09 00:52:20.87	330.12	25.63	-33.1	-34.0	24.7	0.00e+00	122	35	0	1877999616	38	6251
2026-01-09 00:52:24.91	330.44	25.00	-33.1	-34.0	24.5	0.00e+00	123	35	0	1890582528	38	6221
2026-01-09 00:52:28.95	330.75	24.39	-33.3	-34.2	24.3	0.00e+00	120	35	0	1904214016	38	6386
2026-01-09 00:52:32.99	331.05	23.80	-33.1	-34.0	24.4	0.00e+00	123	35	0	1916796928	38	6275
2026-01-09 00:52:37.02	331.34	23.22	-33.0	-33.9	24.6	0.00e+00	122	35	0	1929379840	38	6182
2026-01-09 00:52:41.06	331.62	22.64	-32.8	-33.7	24.9	0.00e+00	122	35	0	1941962752	38	6003
2026-01-09 00:52:45.10	331.88	22.08	-32.7	-33.6	24.9	0.00e+00	123	35	0	1954545664	38	5952
2026-01-09 00:52:49.14	332.14	21.54	-33.0	-33.9	24.7	0.00e+00	120	35	0	1967128576	38	6170
2026-01-09 00:52:53.18	332.40	21.00	-33.3	-34.2	24.4	0.00e+00	123	35	0	1979711488	38	6411
2026-01-09 00:52:57.21	332.64	20.48	-33.4	-34.3	24.4	0.00e+00	127	35	0	1992294400	38	6489
2026-01-09 00:53:01.25	332.88	19.96	-33.5	-34.4	24.4	0.00e+00	123	35	0	2004877312	38	6516
2026-01-09 00:53:05.29	333.10	19.45	-33.2	-34.1	24.5	0.00e+00	122	35	0	2017460224	38	6296
2026-01-09 00:53:09.33	333.33	18.96	-33.3	-34.2	24.5	0.00e+00	122	35	0	2030043136	38	6381
2026-01-09 00:53:13.36	333.54	18.47	-33.4	-34.3	24.3	0.00e+00	123	35	0	2042626048	38	6463
2026-01-09 00:53:17.40	333.75	18.00	-33.7	-34.6	24.1	0.00e+00	123	35	0	2055208960	40	5981
2026-01-09 00:53:21.44	333.96	17.53	-33.8	-34.7	24.0	0.00e+00	123	35	0	2067791872	40	6038
2026-01-09 00:53:25.48	334.15	17.07	-33.8	-34.7	24.1	0.00e+00	122	35	0	2080374784	40	6032
2026-01-09 00:53:29.51	334.35	16.62	-34.0	-34.9	24.0	0.00e+00	122	35	0	2092957696	40	6163
2026-01-09 00:53:33.55	334.53	16.17	-33.9	-34.9	24.0	0.00e+00	123	35	0	2105540608	40	6136
2026-01-09 00:53:37.59	334.72	15.74	-34.0	-34.9	23.9	0.00e+00	118	35	0	2118123520	40	6197
2026-01-09 00:53:41.63	334.89	15.31	-34.1	-35.1	23.8	0.00e+00	118	35	0	2130706432	40	6291
2026-01-09 00:53:45.67	335.07	14.89	-34.3	-35.3	23.6	0.00e+00	123	35	0	2143289344	40	6432
2026-01-09 00:53:49.70	335.24	14.47	-34.1	-35.1	23.7	0.00e+00	123	35	0	2155872256	40	6278
2026-01-09 00:53:53.74	335.40	14.07	-34.2	-35.1	23.7	0.00e+00	123	35	0	2168455168	40	6308
2026-01-09 00:53:57.78	335.56	13.66	-34.2	-35.1	23.6	0.00e+00	122	35	0	2181038080	40	6302
2026-01-09 00:54:01.81	335.72	13.27	-34.3	-35.2	23.6	0.00e+00	123	35	0	2193620992	40	6405
2026-01-09 00:54:05.85	335.87	12.88	-34.2	-35.2	23.6	0.00e+00	123	35	0	2206203904	40	6370
2026-01-09 00:54:09.88	336.02	12.50	-34.3	-35.3	23.5	0.00e+00	124	35	0	2218786816	40	6434
2026-01-09 00:54:13.92	336.17	12.12	-34.4	-35.4	23.4	0.00e+00	120	35	0	2231369728	40	6516
2026-01-09 00:54:17.96	336.31	11.75	-34.4	-35.4	23.4	0.00e+00	120	35	0	2243952640	40	6512
2026-01-09 00:54:22.00	336.45	11.39	-34.4	-35.4	23.3	0.00e+00	123	35	0	2256535552	40	6521
2026-01-09 00:54:26.03	336.59	11.03	-34.5	-35.5	23.3	0.00e+00	123	35	0	2270167040	40	6589
2026-01-09 00:54:30.07	336.73	10.67	-34.5	-35.4	23.3	0.00e+00	124	35	0	2281701376	40	6568
2026-01-09 00:54:34.11	336.86	10.32	-34.5	-35.4	23.3	0.00e+00	123	35	0	2295332864	40	6540
2026-01-09 00:54:38.14	336.99	9.98	-34.5	-35.5	23.3	0.00e+00	120	35	0	2307915776	40	6580
2026-01-09 00:54:42.18	337.11	9.63	-34.7	-35.7	23.1	0.00e+00	123	35	0	2320498688	42	6037
2026-01-09 00:54:46.22	337.24	9.30	-34.7	-35.6	23.1	0.00e+00	122	35	0	2333081600	42	5993
2026-01-09 00:54:50.26	337.36	8.97	-34.7	-35.7	23.0	0.00e+00	120	35	0	2345664512	42	6005
2026-01-09 00:54:54.29	337.48	8.64	-34.9	-35.8	22.9	0.00e+00	122	35	0	2358247424	42	6131
2026-01-09 00:54:58.33	337.60	8.32	-35.1	-36.1	22.6	0.00e+00	123	35	0	2370830336	42	6336
2026-01-09 00:55:02.37	337.71	8.00	-35.4	-36.4	22.4	0.00e+00	120	35	0	2383413248	42	6527
2026-01-09 00:55:06.41	337.82	7.68	-35.5	-36.5	22.3	0.00e+00	120	35	0	2395996160	42	6618
2026-01-09 00:55:10.44	337.94	7.37	-35.7	-36.7	22.0	0.00e+00	122	35	0	2408579072	44	6057
2026-01-09 00:55:14.48	338.04	7.06	-35.8	-36.9	21.8	0.00e+00	123	35	0	2421161984	44	6142
2026-01-09 00:55:18.52	338.15	6.76	-36.1	-37.2	21.5	0.00e+00	120	35	0	2433744896	44	6388
2026-01-09 00:55:22.56	338.26	6.45	-36.2	-37.3	21.3	0.00e+00	122	35	0	2446327808	44	6473
2026-01-09 00:55:26.59	338.36	6.16	-36.3	-37.4	21.2	0.00e+00	122	35	0	2458910720	44	6520
2026-01-09 00:55:30.63	338.46	5.86	-36.2	-37.4	21.0	0.00e+00	123	35	0	2471493632	44	6532
2026-01-09 00:55:34.67	338.56	5.57	-36.7	-37.9	20.3	0.00e+00	122	35	0	2484076544	44	6923
2026-01-09 00:55:38.71	338.66	5.28	-37.7	-39.1	18.9	0.00e+00	122	35	0	2496659456	46	7052
2026-01-09 00:55:42.75	338.76	5.00	-39.0	-40.9	16.5	0.00e+00	123	35	0	2509242368	50	6900
2026-01-09 00:55:46.78	338.85	4.72	-40.5	-43.3	13.2	6.80e-06	123	35	0	2521825280	52	8115
2026-01-09 00:55:50.82	338.95	4.44	-41.9	-46.2	9.4	8.54e-03	122	35	0	2534408192	56	9035
2026-01-09 00:55:54.86	339.04	4.16	-42.5	-50.4	5.5	1.48e+00	111	35	104	2545942528	56	14580
2026-01-09 00:55:58.89	339.13	3.89	-42.7	-53.5	3.8	1.49e+00	0	35	104	2545942528	58	18553
2026-01-09 00:56:02.92	339.22	3.62	-42.9	-55.6	3.5	1.51e+00	0	35	104	2545942528	58	23607
2026-01-09 00:56:06.96	339.31	3.35	-42.8	-55.6	3.5	1.52e+00	0	35	104	2545942528	58	23675
2026-01-09 00:56:11.00	339.40	3.09	-43.0	-55.9	3.5	1.52e+00	0	35	104	2545942528	58	24550
2026-01-09 00:56:15.04	339.48	2.82	-47.7	-60.6	3.5	1.52e+00	0	35	104	2545942528	60	37640
2026-01-09 00:56:19.08	339.57	2.56	-48.2	-61.1	3.5	1.52e+00	0	35	104	2545942528	60	39885
2026-01-09 00:56:23.12	339.65	2.30	-48.3	-61.1	3.5	1.52e+00	0	35	104	2545942528	60	40051
2026-01-09 00:56:27.16	339.74	2.05	-48.2	-61.0	3.5	1.52e+00	0	35	104	2545942528	60	39409
2026-01-09 00:56:31.20	339.82	1.79	-48.2	-61.0	3.5	1.52e+00	0	35	104	2545942528	60	39507
2026-01-09 00:56:35.23	339.90	1.54	-48.2	-61.0	3.5	1.51e+00	0	35	104	2545942528	60	39292
2026-01-09 00:56:39.27	339.98	1.29	-48.1	-61.0	3.5	1.52e+00	0	35	104	2545942528	60	39435
2026-01-09 00:56:43.31	340.06	1.05	-48.2	-61.0	3.5	1.52e+00	0	35	104	2545942528	60	39591
2026-01-09 00:56:47.34	340.13	0.80	-48.2	-61.1	3.5	1.52e+00	0	35	104	2545942528	60	39623
2026-01-09 00:56:51.38	340.21	0.56	-48.1	-61.0	3.5	1.52e+00	0	35	104	2545942528	60	39270
2026-01-09 00:56:55.42	340.29	0.32	-48.1	-61.0	3.5	1.52e+00	0	35	104	2545942528	60	39208
2026-01-09 00:56:59.45	340.36	0.08	-48.1	-61.0	3.5	1.51e+00	0	35	104	2545942528	60	39335

#Closed at: 2026-01-09 00:57:02
#Recorded file [2545 MB]: D:/lorett/data/35029_260109_124130.dat