passes_logs/2026/01/09/R4.6S_Anadyr/R4.6S_Anadyr__20260109_165753_NOAA_20_JPSS-1_rec.log

#Pass ID: 20260109_165753_NOAA 20 (JPSS-1)
#Satellite: NOAA 20 (JPSS-1)
#Configuration: NOAA 20
#almurnet v.1.7.20251203
#Start time: 2026-01-09 16:57:55

#Version: 2.2.20231116
#Station: R4.6S_Anadyr
#Location: 177.4865 lon 64.73178 lat
#TLE: 1 43013U 17073A   26008.91585656  .00000107  00000+0  71497-4 0  9999
#TLE: 2 43013  98.7631 309.9196 0001713  47.9261 312.2060 14.19534561421870

#Time	Az	El	Level	Level2	SNR	BER	BlckErr	Temp	State	Recorded	gain1	gain2
2026-01-09 16:57:55.06	28.83	0.09	-48.2	-65.8	3.5	3.02e+01	0	22	0	0	60	75299
2026-01-09 16:57:59.10	28.63	0.31	-47.9	-63.0	3.6	1.51e+00	0	23	104	0	60	51334
2026-01-09 16:58:03.14	28.42	0.54	-47.8	-63.0	3.6	1.51e+00	0	23	104	0	60	51126
2026-01-09 16:58:07.18	28.21	0.76	-47.4	-62.6	3.6	1.51e+00	0	23	104	0	60	48591
2026-01-09 16:58:11.22	27.99	0.99	-46.3	-61.5	3.6	1.51e+00	0	23	104	0	60	42741
2026-01-09 16:58:15.26	27.77	1.22	-46.3	-61.4	3.6	1.51e+00	0	24	104	0	60	42490
2026-01-09 16:58:19.30	27.55	1.45	-46.3	-61.3	3.6	1.51e+00	0	24	104	0	60	42033
2026-01-09 16:58:23.34	27.32	1.68	-46.2	-61.4	3.6	1.51e+00	0	24	104	0	60	42607
2026-01-09 16:58:27.38	27.09	1.91	-46.2	-61.4	3.6	1.51e+00	0	24	104	0	60	42547
2026-01-09 16:58:31.41	26.86	2.14	-46.2	-61.2	3.6	1.51e+00	0	24	104	0	60	41546
2026-01-09 16:58:35.45	26.62	2.38	-46.2	-61.4	3.6	1.51e+00	0	24	104	0	60	42425
2026-01-09 16:58:39.49	26.38	2.61	-46.2	-61.3	3.6	1.51e+00	0	24	104	0	60	42166
2026-01-09 16:58:43.53	26.14	2.85	-46.2	-60.8	3.6	1.51e+00	0	24	104	0	60	39767
2026-01-09 16:58:47.57	25.88	3.09	-46.2	-59.9	3.6	1.51e+00	0	24	104	0	60	35616
2026-01-09 16:58:51.61	25.63	3.33	-44.8	-50.1	10.0	2.05e-02	2	24	0	4194304	60	11525
2026-01-09 16:58:55.65	25.37	3.58	-45.2	-51.7	5.3	1.51e+00	0	24	104	7340032	60	13830
2026-01-09 16:58:59.69	25.11	3.82	-41.0	-42.9	17.0	0.00e+00	0	24	104	9437184	56	6383
2026-01-09 16:59:03.72	24.84	4.07	-40.1	-41.7	18.8	0.00e+00	92	24	0	15728640	54	6197
2026-01-09 16:59:07.76	24.57	4.31	-40.1	-41.6	19.0	0.00e+00	5	24	0	24117248	54	6172
2026-01-09 16:59:11.79	24.29	4.56	-39.9	-41.4	19.2	0.00e+00	0	24	0	31457280	54	5989
2026-01-09 16:59:15.83	24.01	4.81	-39.9	-41.4	19.2	0.00e+00	51	24	0	38797312	54	6023
2026-01-09 16:59:19.87	23.72	5.07	-39.8	-41.3	19.4	0.00e+00	92	24	0	46137344	54	5947
2026-01-09 16:59:23.90	23.42	5.32	-39.9	-41.4	19.3	0.00e+00	7	24	0	54525952	54	6010
2026-01-09 16:59:27.94	23.12	5.57	-39.7	-41.2	19.6	0.00e+00	6	24	0	61865984	52	6555
2026-01-09 16:59:31.97	22.82	5.83	-39.8	-41.2	19.6	0.00e+00	5	24	0	69206016	52	6575
2026-01-09 16:59:36.01	22.51	6.09	-39.7	-41.1	19.7	0.00e+00	92	24	0	76546048	52	6502
2026-01-09 16:59:40.05	22.19	6.35	-39.6	-41.0	19.9	0.00e+00	23	24	0	83886080	52	6395
2026-01-09 16:59:44.09	21.87	6.62	-39.6	-40.9	20.0	0.00e+00	28	24	0	92274688	52	6375
2026-01-09 16:59:48.12	21.54	6.88	-39.6	-40.9	20.1	0.00e+00	0	24	0	99614720	52	6381
2026-01-09 16:59:52.16	21.21	7.15	-39.3	-40.6	20.4	0.00e+00	90	24	0	106954752	52	6164
2026-01-09 16:59:56.19	20.87	7.41	-39.3	-40.6	20.3	0.00e+00	0	24	0	114294784	52	6145
2026-01-09 17:00:00.23	20.52	7.68	-39.3	-40.5	20.5	0.00e+00	58	24	0	121634816	52	6099
2026-01-09 17:00:04.27	20.17	7.96	-39.1	-40.3	20.7	0.00e+00	33	24	0	130023424	52	5941
2026-01-09 17:00:08.30	19.80	8.23	-39.1	-40.4	20.7	0.00e+00	92	24	0	137363456	52	5971
2026-01-09 17:00:12.34	19.44	8.50	-39.0	-40.3	20.9	0.00e+00	0	24	0	144703488	52	5908
2026-01-09 17:00:16.38	19.06	8.78	-38.9	-40.1	20.9	0.00e+00	0	24	0	152043520	52	5827
2026-01-09 17:00:20.41	18.68	9.06	-38.9	-40.1	21.0	0.00e+00	26	24	0	160432128	52	5780
2026-01-09 17:00:24.44	18.29	9.34	-38.8	-40.0	21.1	0.00e+00	20	24	0	167772160	52	5737
2026-01-09 17:00:28.48	17.89	9.62	-38.7	-39.9	21.2	0.00e+00	22	24	0	175112192	50	6319
2026-01-09 17:00:32.51	17.48	9.91	-38.8	-40.0	21.2	0.00e+00	0	24	0	182452224	50	6395
2026-01-09 17:00:36.55	17.06	10.20	-38.7	-39.9	21.3	0.00e+00	90	24	0	189792256	50	6330
2026-01-09 17:00:40.59	16.64	10.48	-38.8	-40.0	21.2	0.00e+00	0	24	0	198180864	50	6398
2026-01-09 17:00:44.62	16.21	10.77	-38.9	-40.0	21.1	0.00e+00	52	24	0	205520896	50	6454
2026-01-09 17:00:48.65	15.77	11.06	-38.6	-39.8	21.4	0.00e+00	54	24	0	212860928	50	6277
2026-01-09 17:00:52.69	15.31	11.36	-38.6	-39.7	21.4	0.00e+00	92	24	0	220200960	50	6223
2026-01-09 17:00:56.72	14.86	11.65	-38.4	-39.5	21.8	0.00e+00	22	24	0	228589568	50	6036
2026-01-09 17:01:00.76	14.38	11.95	-38.4	-39.5	21.7	0.00e+00	6	24	0	235929600	50	6080
2026-01-09 17:01:04.80	13.90	12.25	-38.3	-39.4	21.7	0.00e+00	0	24	0	243269632	50	6013
2026-01-09 17:01:08.84	13.41	12.55	-38.4	-39.5	21.7	0.00e+00	92	24	0	250609664	50	6078
2026-01-09 17:01:12.88	12.91	12.85	-38.3	-39.4	21.9	0.00e+00	25	24	0	257949696	50	6013
2026-01-09 17:01:16.91	12.40	13.16	-38.2	-39.3	22.0	0.00e+00	6	24	0	266338304	50	5903
2026-01-09 17:01:20.95	11.88	13.46	-38.0	-39.0	22.2	0.00e+00	5	24	0	273678336	50	5735
2026-01-09 17:01:24.99	11.35	13.77	-38.0	-39.0	22.2	0.00e+00	92	24	0	281018368	50	5748
2026-01-09 17:01:29.03	10.80	14.07	-37.9	-39.0	22.2	0.00e+00	0	24	0	288358400	50	5724
2026-01-09 17:01:33.07	10.24	14.38	-37.7	-38.7	22.5	0.00e+00	22	24	0	296747008	48	6236
2026-01-09 17:01:37.10	9.68	14.69	-37.4	-38.4	22.8	0.00e+00	21	24	0	304087040	48	5994
2026-01-09 17:01:41.14	9.10	15.00	-37.4	-38.4	22.9	0.00e+00	92	24	0	311427072	48	5975
2026-01-09 17:01:45.18	8.50	15.32	-37.2	-38.2	23.0	0.00e+00	60	24	0	318767104	48	5848
2026-01-09 17:01:49.22	7.90	15.63	-37.2	-38.2	23.0	0.00e+00	0	24	0	326107136	48	5852
2026-01-09 17:01:53.25	7.28	15.94	-37.4	-38.4	22.8	0.00e+00	38	24	0	334495744	48	5967
2026-01-09 17:01:57.29	6.64	16.26	-37.2	-38.2	23.0	0.00e+00	92	24	0	341835776	48	5843
2026-01-09 17:02:01.31	6.00	16.57	-37.2	-38.2	23.1	0.00e+00	2	24	0	349175808	48	5838
2026-01-09 17:02:05.35	5.34	16.88	-37.5	-38.5	22.8	0.00e+00	0	24	0	356515840	48	6071
2026-01-09 17:02:09.39	4.67	17.20	-37.7	-38.7	22.7	0.00e+00	91	24	0	364904448	48	6174
2026-01-09 17:02:13.42	3.98	17.51	-37.6	-38.6	22.8	0.00e+00	15	24	0	372244480	48	6137
2026-01-09 17:02:17.46	3.27	17.83	-38.0	-39.0	22.4	0.00e+00	56	24	0	379584512	48	6415
2026-01-09 17:02:21.50	2.55	18.14	-37.6	-38.6	22.8	0.00e+00	21	24	0	386924544	48	6107
2026-01-09 17:02:25.53	1.82	18.45	-37.7	-38.7	22.6	0.00e+00	92	24	0	394264576	48	6225
2026-01-09 17:02:29.57	1.07	18.76	-37.9	-38.9	22.5	0.00e+00	2	24	0	402653184	48	6358
2026-01-09 17:02:33.61	0.31	19.07	-37.8	-38.8	22.5	0.00e+00	55	24	0	409993216	48	6317
2026-01-09 17:02:37.64	359.53	19.38	-37.6	-38.5	22.8	0.00e+00	28	25	0	417333248	48	6091
2026-01-09 17:02:41.68	358.73	19.69	-37.3	-38.2	23.1	0.00e+00	92	24	0	424673280	48	5864
2026-01-09 17:02:45.72	357.92	19.99	-37.2	-38.2	23.1	0.00e+00	20	25	0	432013312	48	5844
2026-01-09 17:02:49.76	357.09	20.30	-37.0	-37.9	23.3	0.00e+00	6	24	0	440401920	48	5670
2026-01-09 17:02:53.80	356.24	20.59	-36.7	-37.6	23.7	0.00e+00	0	25	0	447741952	48	5466
2026-01-09 17:02:57.83	355.38	20.89	-36.3	-37.2	24.0	0.00e+00	92	25	0	455081984	46	5872
2026-01-09 17:03:01.87	354.50	21.18	-36.1	-37.0	24.3	0.00e+00	26	24	0	462422016	46	5703
2026-01-09 17:03:05.91	353.60	21.47	-35.5	-36.3	24.8	0.00e+00	0	24	0	470810624	44	5943
2026-01-09 17:03:09.94	352.69	21.75	-35.6	-36.4	24.8	0.00e+00	0	24	0	478150656	44	5990
2026-01-09 17:03:13.99	351.75	22.03	-35.5	-36.4	24.7	0.00e+00	92	25	0	485490688	44	5979
2026-01-09 17:03:18.02	350.81	22.31	-35.4	-36.2	24.7	0.00e+00	0	24	0	492830720	44	5881
2026-01-09 17:03:22.06	349.84	22.57	-35.5	-36.3	24.9	0.00e+00	24	25	0	500170752	44	5927
2026-01-09 17:03:26.10	348.86	22.84	-35.2	-36.0	25.1	0.00e+00	22	25	0	508559360	44	5747
2026-01-09 17:03:30.13	347.86	23.09	-35.5	-36.3	24.8	0.00e+00	63	24	0	515899392	44	5964
2026-01-09 17:03:34.17	346.85	23.34	-35.7	-36.5	24.7	0.00e+00	0	25	0	523239424	44	6084
2026-01-09 17:03:38.21	345.82	23.58	-35.6	-36.4	24.7	0.00e+00	0	25	0	530579456	44	5982
2026-01-09 17:03:42.25	344.77	23.81	-35.3	-36.1	25.0	0.00e+00	0	25	0	538968064	44	5788
2026-01-09 17:03:46.28	343.71	24.04	-35.2	-36.0	25.0	0.00e+00	37	25	0	546308096	44	5728
2026-01-09 17:03:50.32	342.63	24.25	-35.2	-36.0	25.0	0.00e+00	27	25	0	553648128	44	5711
2026-01-09 17:03:54.36	341.54	24.46	-35.1	-35.8	25.3	0.00e+00	0	24	0	560988160	44	5629
2026-01-09 17:03:58.40	340.43	24.65	-35.0	-35.8	25.3	0.00e+00	92	24	0	568328192	44	5585
2026-01-09 17:04:02.43	339.31	24.84	-35.4	-36.3	24.8	0.00e+00	0	24	0	576716800	44	5901
2026-01-09 17:04:06.47	338.18	25.01	-35.8	-36.7	24.5	0.00e+00	18	25	0	584056832	44	6180
2026-01-09 17:04:10.51	337.03	25.17	-35.9	-36.7	24.4	0.00e+00	0	25	0	591396864	44	6235
2026-01-09 17:04:14.55	335.88	25.32	-36.1	-37.0	24.2	0.00e+00	92	25	0	598736896	44	6425
2026-01-09 17:04:18.59	334.71	25.46	-36.4	-37.2	24.1	0.00e+00	0	25	0	607125504	44	6584
2026-01-09 17:04:22.62	333.53	25.59	-36.6	-37.5	23.8	0.00e+00	0	25	0	614465536	44	6795
2026-01-09 17:04:26.66	332.35	25.70	-37.1	-38.0	23.3	0.00e+00	0	24	0	621805568	46	6462
2026-01-09 17:04:30.69	331.15	25.80	-37.0	-37.9	23.4	0.00e+00	90	25	0	629145600	46	6358
2026-01-09 17:04:34.73	329.95	25.89	-37.1	-38.0	23.3	0.00e+00	6	25	0	636485632	46	6463
2026-01-09 17:04:38.78	328.74	25.96	-37.4	-38.4	23.1	0.00e+00	7	24	0	644874240	46	6718
2026-01-09 17:04:42.81	327.53	26.02	-37.3	-38.2	23.2	0.00e+00	59	25	0	652214272	46	6599
2026-01-09 17:04:46.85	326.31	26.07	-37.1	-38.1	23.3	0.00e+00	90	25	0	659554304	46	6480
2026-01-09 17:04:50.89	325.09	26.10	-37.6	-38.6	23.0	0.00e+00	6	25	0	666894336	46	6876
2026-01-09 17:04:54.93	323.86	26.12	-37.4	-38.3	23.1	0.00e+00	0	25	0	675282944	48	5963
2026-01-09 17:04:58.97	322.64	26.12	-36.9	-37.8	23.7	0.00e+00	5	25	0	682622976	48	5596
2026-01-09 17:05:03.01	321.42	26.11	-36.9	-37.8	23.7	0.00e+00	92	25	0	689963008	46	6265
2026-01-09 17:05:07.05	320.20	26.08	-36.3	-37.2	24.0	0.00e+00	20	25	0	697303040	46	5853
2026-01-09 17:05:11.08	318.98	26.04	-35.9	-36.7	24.6	0.00e+00	21	25	0	704643072	46	5531
2026-01-09 17:05:15.12	317.76	25.99	-36.0	-36.8	24.5	0.00e+00	37	25	0	713031680	46	5617
2026-01-09 17:05:19.16	316.55	25.92	-35.2	-36.0	25.1	0.00e+00	92	25	0	720371712	44	5721
2026-01-09 17:05:23.20	315.35	25.84	-34.9	-35.6	25.5	0.00e+00	0	25	0	727711744	42	6159
2026-01-09 17:05:27.24	314.15	25.74	-35.1	-35.9	25.2	0.00e+00	22	25	0	735051776	42	6329
2026-01-09 17:05:31.27	312.96	25.63	-34.9	-35.7	25.4	0.00e+00	60	25	0	742391808	42	6209
2026-01-09 17:05:35.31	311.78	25.51	-35.0	-35.7	25.4	0.00e+00	92	25	0	750780416	42	6241
2026-01-09 17:05:39.35	310.60	25.37	-35.3	-36.1	24.9	0.00e+00	0	25	0	758120448	42	6523
2026-01-09 17:05:43.38	309.44	25.23	-35.5	-36.3	24.9	0.00e+00	0	25	0	765460480	42	6690
2026-01-09 17:05:47.41	308.29	25.07	-35.8	-36.7	24.5	0.00e+00	90	25	0	772800512	44	6191
2026-01-09 17:05:51.45	307.16	24.90	-36.0	-36.9	24.4	0.00e+00	27	25	0	781189120	44	6323
2026-01-09 17:05:55.49	306.03	24.72	-36.0	-36.9	24.4	0.00e+00	0	25	0	788529152	44	6321
2026-01-09 17:05:59.52	304.92	24.52	-36.5	-37.4	23.9	0.00e+00	2	25	0	795869184	44	6747
2026-01-09 17:06:03.56	303.82	24.32	-36.9	-37.8	23.6	0.00e+00	92	25	0	803209216	46	6312
2026-01-09 17:06:07.59	302.74	24.11	-36.9	-37.7	23.7	0.00e+00	60	25	0	810549248	46	6237
2026-01-09 17:06:11.63	301.67	23.89	-37.1	-38.1	23.4	0.00e+00	2	25	0	818937856	46	6505
2026-01-09 17:06:15.67	300.61	23.66	-37.4	-38.4	23.1	0.00e+00	51	25	0	826277888	46	6700
2026-01-09 17:06:19.71	299.57	23.42	-36.9	-37.8	23.6	0.00e+00	90	25	0	833617920	46	6267
2026-01-09 17:06:23.74	298.55	23.18	-37.3	-38.2	23.2	0.00e+00	6	25	0	840957952	46	6586
2026-01-09 17:06:27.78	297.55	22.92	-37.4	-38.3	23.2	0.00e+00	0	25	0	848297984	46	6673
2026-01-09 17:06:31.81	296.56	22.66	-37.1	-38.0	23.4	0.00e+00	0	25	0	856686592	46	6404
2026-01-09 17:06:35.85	295.58	22.40	-37.2	-38.1	23.2	0.00e+00	92	25	0	864026624	46	6507
2026-01-09 17:06:39.89	294.63	22.12	-36.7	-37.6	23.8	0.00e+00	30	25	0	871366656	46	6142
2026-01-09 17:06:43.92	293.69	21.85	-36.6	-37.5	23.8	0.00e+00	7	25	0	878706688	46	6090
2026-01-09 17:06:47.96	292.77	21.57	-36.1	-36.9	24.3	0.00e+00	5	25	0	887095296	46	5675
2026-01-09 17:06:52.00	291.86	21.28	-36.0	-36.8	24.3	0.00e+00	91	25	0	894435328	46	5625
2026-01-09 17:06:56.04	290.97	20.99	-36.2	-37.0	23.9	0.00e+00	24	25	0	901775360	46	5760
2026-01-09 17:07:00.07	290.10	20.69	-36.1	-37.0	24.3	0.00e+00	24	25	0	909115392	46	5702
2026-01-09 17:07:04.11	289.25	20.39	-36.2	-37.0	24.2	0.00e+00	71	25	0	916455424	46	5748
2026-01-09 17:07:08.14	288.41	20.09	-36.1	-37.0	24.3	0.00e+00	66	25	0	924844032	46	5712
2026-01-09 17:07:12.17	287.59	19.79	-36.1	-37.0	24.3	0.00e+00	0	25	0	932184064	46	5696
2026-01-09 17:07:16.20	286.79	19.48	-35.7	-36.5	24.7	0.00e+00	0	25	0	939524096	44	6089
2026-01-09 17:07:20.24	286.00	19.17	-35.7	-36.5	24.7	0.00e+00	54	25	0	946864128	44	6059
2026-01-09 17:07:24.27	285.23	18.86	-35.5	-36.3	24.7	0.00e+00	92	25	0	955252736	44	5946
2026-01-09 17:07:28.31	284.47	18.55	-35.5	-36.3	24.8	0.00e+00	22	25	0	962592768	44	5918
2026-01-09 17:07:32.34	283.73	18.24	-35.1	-35.9	25.2	0.00e+00	0	25	0	969932800	44	5672
2026-01-09 17:07:36.38	283.00	17.93	-35.3	-36.1	24.9	0.00e+00	92	25	0	977272832	44	5822
2026-01-09 17:07:40.42	282.29	17.61	-35.3	-36.1	24.9	0.00e+00	62	25	0	984612864	44	5805
2026-01-09 17:07:44.45	281.59	17.30	-35.2	-36.0	24.9	0.00e+00	28	25	0	993001472	44	5724
2026-01-09 17:07:48.49	280.91	16.98	-35.3	-36.1	24.9	0.00e+00	0	25	0	1000341504	44	5795
2026-01-09 17:07:52.52	280.25	16.67	-35.4	-36.1	24.8	0.00e+00	92	25	0	1007681536	44	5828
2026-01-09 17:07:56.56	279.59	16.35	-35.4	-36.2	24.7	0.00e+00	2	25	0	1015021568	44	5836
2026-01-09 17:08:00.60	278.95	16.04	-35.4	-36.2	24.8	0.00e+00	0	25	0	1022361600	44	5855
2026-01-09 17:08:04.64	278.32	15.72	-35.6	-36.4	24.6	0.00e+00	26	25	0	1030750208	44	5988
2026-01-09 17:08:08.68	277.71	15.41	-35.9	-36.8	24.2	0.00e+00	90	25	0	1038090240	44	6253
2026-01-09 17:08:12.72	277.11	15.09	-36.3	-37.2	23.9	0.00e+00	6	25	0	1045430272	44	6548
2026-01-09 17:08:16.75	276.52	14.78	-36.4	-37.3	23.9	0.00e+00	5	25	0	1052770304	44	6623
2026-01-09 17:08:20.78	275.95	14.47	-36.1	-37.0	24.1	0.00e+00	0	25	0	1061158912	44	6404
2026-01-09 17:08:24.81	275.39	14.16	-36.3	-37.2	23.9	0.00e+00	92	25	0	1068498944	44	6566
2026-01-09 17:08:28.85	274.84	13.85	-36.7	-37.6	23.6	0.00e+00	53	25	0	1075838976	44	6925
2026-01-09 17:08:32.89	274.30	13.55	-36.9	-37.9	23.5	0.00e+00	7	25	0	1083179008	46	6320
2026-01-09 17:08:36.93	273.77	13.24	-36.7	-37.6	23.5	0.00e+00	0	25	0	1090519040	46	6116
2026-01-09 17:08:40.96	273.25	12.94	-36.9	-37.8	23.2	0.00e+00	92	25	0	1098907648	46	6305
2026-01-09 17:08:45.00	272.74	12.63	-37.1	-38.0	23.1	0.00e+00	0	25	0	1106247680	46	6428
2026-01-09 17:08:49.03	272.25	12.33	-37.2	-38.1	23.1	0.00e+00	50	25	0	1113587712	46	6532
2026-01-09 17:08:53.07	271.76	12.03	-37.2	-38.2	22.9	0.00e+00	0	25	0	1120927744	46	6559
2026-01-09 17:08:57.10	271.29	11.73	-37.2	-38.2	22.9	0.00e+00	92	25	0	1129316352	46	6572
2026-01-09 17:09:01.14	270.82	11.44	-37.4	-38.4	22.8	0.00e+00	0	25	0	1136656384	46	6696
2026-01-09 17:09:05.17	270.36	11.14	-37.5	-38.5	22.5	0.00e+00	0	25	0	1143996416	46	6814
2026-01-09 17:09:09.21	269.92	10.85	-37.7	-38.7	22.5	0.00e+00	52	25	0	1151336448	46	6930
2026-01-09 17:09:13.24	269.48	10.56	-37.9	-38.9	22.1	0.00e+00	73	25	0	1158676480	48	6379
2026-01-09 17:09:17.28	269.05	10.27	-38.1	-39.2	22.0	0.00e+00	35	25	0	1167065088	48	6557
2026-01-09 17:09:21.32	268.63	9.98	-38.4	-39.5	21.6	0.00e+00	36	25	0	1174405120	48	6824
2026-01-09 17:09:25.36	268.21	9.69	-38.6	-39.8	21.4	0.00e+00	92	25	0	1181745152	48	7011
2026-01-09 17:09:29.39	267.81	9.41	-38.7	-39.8	21.3	0.00e+00	52	25	0	1189085184	50	6301
2026-01-09 17:09:33.43	267.41	9.13	-38.6	-39.8	21.3	0.00e+00	47	25	0	1197473792	50	6270
2026-01-09 17:09:37.47	267.02	8.85	-38.7	-39.8	21.2	0.00e+00	30	25	0	1204813824	50	6290
2026-01-09 17:09:41.51	266.64	8.57	-38.6	-39.8	21.3	0.00e+00	92	25	0	1212153856	50	6252
2026-01-09 17:09:45.54	266.27	8.29	-38.7	-39.9	21.1	0.00e+00	2	25	0	1219493888	50	6347
2026-01-09 17:09:49.57	265.90	8.02	-39.0	-40.2	20.7	0.00e+00	0	25	0	1226833920	50	6580
2026-01-09 17:09:53.61	265.54	7.75	-39.1	-40.4	20.7	0.00e+00	49	25	0	1235222528	50	6716
2026-01-09 17:09:57.64	265.19	7.48	-39.4	-40.7	20.2	0.00e+00	92	25	0	1242562560	50	7006
2026-01-09 17:10:01.68	264.85	7.21	-39.6	-41.0	20.1	0.00e+00	50	25	0	1249902592	50	7186
2026-01-09 17:10:05.71	264.51	6.94	-39.8	-41.3	19.9	0.00e+00	6	25	0	1257242624	52	6620
2026-01-09 17:10:09.75	264.17	6.67	-40.0	-41.4	19.6	0.00e+00	0	25	0	1264582656	52	6749
2026-01-09 17:10:13.78	263.85	6.41	-39.9	-41.3	19.7	0.00e+00	92	25	0	1272971264	52	6657
2026-01-09 17:10:17.82	263.53	6.15	-39.8	-41.3	19.7	0.00e+00	0	25	0	1280311296	52	6619
2026-01-09 17:10:21.86	263.21	5.89	-39.9	-41.4	19.5	0.00e+00	48	25	0	1287651328	52	6720
2026-01-09 17:10:25.90	262.90	5.63	-39.8	-41.2	19.7	0.00e+00	0	25	0	1294991360	52	6572
2026-01-09 17:10:29.93	262.60	5.37	-39.9	-41.3	19.5	0.00e+00	92	25	0	1303379968	52	6684
2026-01-09 17:10:33.97	262.30	5.12	-39.8	-41.3	19.5	0.00e+00	8	25	0	1310720000	52	6642
2026-01-09 17:10:38.01	262.01	4.86	-40.1	-41.6	19.1	0.00e+00	50	25	0	1318060032	52	6925
2026-01-09 17:10:42.04	261.72	4.61	-40.6	-42.3	18.4	0.00e+00	0	25	0	1325400064	54	6637
2026-01-09 17:10:46.08	261.44	4.36	-40.7	-42.5	18.1	0.00e+00	92	25	0	1332740096	54	6816
2026-01-09 17:10:50.12	261.16	4.11	-40.9	-42.7	17.9	0.00e+00	36	25	0	1341128704	54	6982
2026-01-09 17:10:54.16	260.89	3.87	-40.5	-42.3	18.3	0.00e+00	0	25	0	1348468736	54	6617
2026-01-09 17:10:58.19	260.62	3.62	-40.8	-42.6	17.8	0.00e+00	57	25	0	1355808768	54	6927
2026-01-09 17:11:02.23	260.36	3.38	-41.3	-43.4	16.9	0.00e+00	92	25	0	1363148800	54	7543
2026-01-09 17:11:06.26	260.10	3.14	-41.0	-42.9	17.4	0.00e+00	47	25	0	1370488832	54	7159
2026-01-09 17:11:10.30	259.84	2.90	-47.3	-62.5	3.6	1.51e+00	0	25	104	1375731712	60	48234
2026-01-09 17:11:14.34	259.59	2.66	-47.8	-63.0	3.6	1.51e+00	0	25	104	1375731712	60	51277
2026-01-09 17:11:18.38	259.35	2.42	-47.7	-63.0	3.6	1.51e+00	0	25	104	1375731712	60	51215
2026-01-09 17:11:22.42	259.11	2.18	-47.6	-62.9	3.6	1.51e+00	0	25	104	1375731712	60	50447
2026-01-09 17:11:26.45	258.87	1.95	-47.8	-63.0	3.5	1.51e+00	0	25	104	1375731712	60	50791
2026-01-09 17:11:30.49	258.63	1.72	-47.7	-63.0	3.6	1.51e+00	0	25	104	1375731712	60	50786
2026-01-09 17:11:34.53	258.40	1.49	-47.7	-62.9	3.6	1.51e+00	0	25	104	1375731712	60	50490
2026-01-09 17:11:38.57	258.18	1.25	-47.7	-62.9	3.6	1.51e+00	0	25	104	1375731712	60	50646
2026-01-09 17:11:42.61	257.95	1.03	-47.8	-63.0	3.6	1.51e+00	0	25	104	1375731712	60	50820
2026-01-09 17:11:46.65	257.74	0.80	-47.7	-62.9	3.6	1.51e+00	0	25	104	1375731712	60	50752
2026-01-09 17:11:50.69	257.52	0.57	-47.7	-62.8	3.6	1.51e+00	0	25	104	1375731712	60	50135
2026-01-09 17:11:54.73	257.31	0.35	-47.7	-62.9	3.6	1.51e+00	0	25	104	1375731712	60	50634
2026-01-09 17:11:58.77	257.10	0.12	-47.8	-63.0	3.6	1.51e+00	0	25	104	1375731712	60	50938

#Closed at: 2026-01-09 17:12:01
#Recorded file [1375 MB]: D:/lorett/data/35029_260110_045755.dat