passes_logs/2026/01/09/R4.6S_Anadyr/R4.6S_Anadyr__20260109_155655_FENGYUN_3D_rec.log

#Pass ID: 20260109_155655_FENGYUN 3D
#Satellite: FENGYUN 3D
#Configuration: FENGYUN 3D
#almurnet v.1.7.20251203
#Start time: 2026-01-09 15:56:56

#Version: 2.2.20231116
#Station: R4.6S_Anadyr
#Location: 177.4865 lon 64.73178 lat
#TLE: 1 43010U 17072A   26008.59015185 -.00000067  00000+0 -98204-5 0  9997
#TLE: 2 43010  98.9935 340.3069 0002117 119.1923 240.9464 14.19693468422340

#Time	Az	El	Level	Level2	SNR	BER	BlckErr	Temp	State	Recorded	gain1	gain2
2026-01-09 15:56:56.50	19.74	0.04	-47.6	-62.5	3.6	1.51e+00	0	20	0	0	60	48397
2026-01-09 15:57:00.54	19.86	0.28	-47.7	-59.9	3.6	8.45e-01	0	22	104	0	60	35544
2026-01-09 15:57:04.58	19.98	0.52	-47.7	-59.8	3.6	8.45e-01	0	22	104	0	60	35426
2026-01-09 15:57:08.62	20.10	0.76	-47.2	-59.4	3.6	8.45e-01	0	22	104	0	60	33796
2026-01-09 15:57:12.66	20.23	1.00	-46.3	-58.4	3.6	8.45e-01	0	22	104	0	60	29897
2026-01-09 15:57:16.69	20.35	1.24	-46.2	-58.3	3.6	8.46e-01	0	22	104	0	60	29581
2026-01-09 15:57:20.73	20.48	1.48	-46.1	-58.1	3.6	8.45e-01	0	22	104	0	60	28884
2026-01-09 15:57:24.77	20.62	1.73	-46.2	-58.1	3.6	8.45e-01	0	22	104	0	60	29185
2026-01-09 15:57:28.81	20.75	1.98	-46.2	-58.2	3.6	8.45e-01	0	22	104	0	60	29361
2026-01-09 15:57:32.85	20.88	2.23	-46.1	-57.1	3.6	8.45e-01	0	22	104	0	60	25966
2026-01-09 15:57:36.89	21.02	2.48	-46.0	-56.6	3.6	8.43e-01	0	22	104	0	60	24428
2026-01-09 15:57:40.93	21.16	2.74	-44.0	-47.5	9.6	5.29e-02	0	22	0	4194304	60	8602
2026-01-09 15:57:44.96	21.30	2.99	-37.0	-38.0	19.4	0.00e+00	0	22	0	27262976	48	5735
2026-01-09 15:57:49.01	21.44	3.25	-34.8	-35.6	21.5	0.00e+00	0	22	0	50331648	42	6154
2026-01-09 15:57:53.05	21.59	3.52	-37.7	-38.8	18.3	0.00e+00	0	22	0	72351744	46	7063
2026-01-09 15:57:57.09	21.74	3.78	-43.3	-46.2	11.3	2.20e-06	0	22	0	95420416	58	8308
2026-01-09 15:58:01.13	21.89	4.05	-39.0	-40.2	17.2	0.00e+00	0	22	0	111149056	52	5889
2026-01-09 15:58:05.18	22.04	4.32	-35.3	-36.2	21.2	0.00e+00	0	22	0	133169152	44	5847
2026-01-09 15:58:09.22	22.19	4.59	-35.4	-36.3	21.1	0.00e+00	0	22	0	156237824	44	5928
2026-01-09 15:58:13.25	22.35	4.86	-33.7	-34.5	22.9	0.00e+00	0	22	0	179306496	40	6067
2026-01-09 15:58:17.29	22.51	5.14	-33.6	-34.4	23.1	0.00e+00	0	22	0	201326592	40	6004
2026-01-09 15:58:21.34	22.67	5.42	-33.7	-34.5	23.1	0.00e+00	0	22	0	224395264	40	6059
2026-01-09 15:58:25.38	22.84	5.71	-33.5	-34.3	23.2	0.00e+00	0	22	0	247463936	40	5897
2026-01-09 15:58:29.42	23.01	5.99	-33.4	-34.2	23.3	0.00e+00	0	22	0	269484032	40	5854
2026-01-09 15:58:33.46	23.18	6.28	-33.3	-34.0	23.6	0.00e+00	0	22	0	292552704	40	5724
2026-01-09 15:58:37.50	23.35	6.57	-33.1	-33.8	23.7	0.00e+00	0	22	0	315621376	40	5608
2026-01-09 15:58:41.54	23.53	6.87	-32.9	-33.7	23.9	0.00e+00	0	22	0	337641472	40	5503
2026-01-09 15:58:45.58	23.71	7.17	-32.8	-33.5	24.0	0.00e+00	0	23	0	360710144	40	5412
2026-01-09 15:58:49.62	23.90	7.47	-32.8	-33.5	23.1	0.00e+00	0	22	0	383778816	40	5395
2026-01-09 15:58:53.66	24.08	7.77	-32.8	-33.5	24.2	0.00e+00	0	22	0	405798912	38	6091
2026-01-09 15:58:57.70	24.28	8.08	-32.6	-33.3	24.3	0.00e+00	0	22	0	428867584	38	5951
2026-01-09 15:59:01.74	24.47	8.39	-32.6	-33.3	24.4	0.00e+00	0	22	0	451936256	38	5949
2026-01-09 15:59:05.78	24.67	8.71	-32.6	-33.3	24.5	0.00e+00	0	23	0	473956352	38	5953
2026-01-09 15:59:09.83	24.87	9.03	-32.4	-33.1	24.6	0.00e+00	0	23	0	497025024	38	5822
2026-01-09 15:59:13.87	25.08	9.35	-32.4	-33.1	24.6	0.00e+00	0	23	0	520093696	38	5828
2026-01-09 15:59:17.91	25.29	9.68	-32.1	-32.8	24.9	0.00e+00	0	23	0	542113792	38	5607
2026-01-09 15:59:21.95	25.51	10.01	-32.0	-32.7	25.0	0.00e+00	0	23	0	565182464	38	5549
2026-01-09 15:59:25.99	25.73	10.35	-32.1	-32.7	25.0	0.00e+00	0	23	0	588251136	38	5541
2026-01-09 15:59:30.03	25.95	10.69	-31.7	-32.4	25.3	0.00e+00	0	23	0	611319808	36	5976
2026-01-09 15:59:34.07	26.18	11.03	-31.7	-32.4	25.4	0.00e+00	0	23	0	633339904	36	5999
2026-01-09 15:59:38.11	26.42	11.38	-31.6	-32.2	25.5	0.00e+00	0	23	0	656408576	36	5880
2026-01-09 15:59:42.15	26.66	11.73	-31.6	-32.3	25.4	0.00e+00	0	23	0	678428672	36	5905
2026-01-09 15:59:46.20	26.90	12.09	-31.4	-32.1	25.7	0.00e+00	0	23	0	701497344	36	5762
2026-01-09 15:59:50.23	27.15	12.46	-31.3	-32.0	25.8	0.00e+00	0	23	0	724566016	36	5723
2026-01-09 15:59:54.27	27.41	12.82	-31.2	-31.9	25.8	0.00e+00	0	23	0	747634688	36	5680
2026-01-09 15:59:58.31	27.67	13.20	-31.3	-31.9	25.9	0.00e+00	0	23	0	769654784	36	5675
2026-01-09 16:00:02.35	27.94	13.58	-31.3	-32.0	25.8	0.00e+00	0	23	0	792723456	36	5733
2026-01-09 16:00:06.39	28.22	13.96	-31.2	-31.8	26.0	0.00e+00	0	23	0	815792128	36	5612
2026-01-09 16:00:10.43	28.50	14.35	-31.1	-31.7	26.1	0.00e+00	0	23	0	837812224	36	5562
2026-01-09 16:00:14.47	28.79	14.75	-30.7	-31.3	26.4	0.00e+00	0	23	0	860880896	34	5942
2026-01-09 16:00:18.51	29.09	15.15	-31.0	-31.6	26.1	0.00e+00	0	23	0	882900992	34	6148
2026-01-09 16:00:22.55	29.40	15.56	-30.5	-31.1	26.6	0.00e+00	0	23	0	905969664	34	5815
2026-01-09 16:00:26.59	29.71	15.97	-30.4	-31.0	26.7	0.00e+00	0	23	0	929038336	34	5737
2026-01-09 16:00:30.63	30.03	16.39	-30.2	-30.8	26.9	0.00e+00	0	23	0	952107008	34	5606
2026-01-09 16:00:34.67	30.36	16.82	-30.1	-30.7	26.9	0.00e+00	0	23	0	974127104	34	5552
2026-01-09 16:00:38.71	30.70	17.25	-30.2	-30.9	26.9	0.00e+00	0	23	0	997195776	34	5636
2026-01-09 16:00:42.74	31.05	17.69	-30.0	-30.6	26.9	0.00e+00	0	23	0	1020264448	34	5486
2026-01-09 16:00:46.78	31.40	18.14	-29.7	-30.3	27.2	0.00e+00	0	23	0	1042284544	32	5959
2026-01-09 16:00:50.82	31.77	18.59	-29.8	-30.4	27.2	0.00e+00	0	23	0	1065353216	32	6018
2026-01-09 16:00:54.86	32.15	19.06	-29.9	-30.5	27.2	0.00e+00	0	23	0	1087373312	32	6099
2026-01-09 16:00:58.90	32.54	19.53	-29.6	-30.3	27.3	0.00e+00	0	23	0	1110441984	32	5924
2026-01-09 16:01:02.92	32.94	20.00	-29.5	-30.1	27.5	0.00e+00	0	23	0	1133510656	32	5824
2026-01-09 16:01:06.96	33.36	20.49	-29.5	-30.1	27.5	0.00e+00	0	23	0	1156579328	32	5815
2026-01-09 16:01:11.00	33.78	20.98	-29.5	-30.2	27.4	0.00e+00	0	23	0	1178599424	32	5852
2026-01-09 16:01:15.05	34.23	21.48	-29.4	-30.1	27.5	0.00e+00	0	23	0	1201668096	32	5784
2026-01-09 16:01:19.09	34.68	22.00	-29.0	-29.6	27.9	0.00e+00	0	23	0	1224736768	32	5487
2026-01-09 16:01:23.13	35.15	22.52	-29.2	-29.8	27.8	0.00e+00	0	23	0	1246756864	32	5596
2026-01-09 16:01:27.17	35.63	23.04	-28.9	-29.5	27.9	0.00e+00	0	23	0	1269825536	32	5420
2026-01-09 16:01:31.21	36.13	23.58	-28.9	-29.6	27.9	0.00e+00	0	23	0	1291845632	32	5446
2026-01-09 16:01:35.25	36.65	24.13	-28.9	-29.5	28.0	0.00e+00	0	23	0	1314914304	32	5415
2026-01-09 16:01:39.29	37.19	24.68	-28.5	-29.2	28.3	0.00e+00	0	23	0	1337982976	30	5831
2026-01-09 16:01:43.33	37.74	25.25	-28.7	-29.3	28.1	0.00e+00	0	23	0	1361051648	30	5917
2026-01-09 16:01:47.37	38.32	25.82	-28.7	-29.3	28.3	0.00e+00	0	23	0	1383071744	30	5918
2026-01-09 16:01:51.41	38.91	26.41	-28.4	-29.1	28.4	0.00e+00	0	23	0	1406140416	30	5767
2026-01-09 16:01:55.45	39.53	27.00	-28.4	-29.0	28.3	0.00e+00	0	23	0	1429209088	30	5714
2026-01-09 16:01:59.49	40.17	27.61	-28.2	-28.9	28.6	0.00e+00	0	23	0	1451229184	30	5638
2026-01-09 16:02:03.53	40.83	28.22	-28.4	-29.0	28.4	0.00e+00	0	23	0	1474297856	30	5735
2026-01-09 16:02:07.57	41.52	28.84	-28.3	-28.9	28.5	0.00e+00	0	23	0	1497366528	30	5683
2026-01-09 16:02:11.61	42.24	29.48	-28.4	-29.0	28.5	0.00e+00	0	23	0	1519386624	30	5755
2026-01-09 16:02:15.65	42.98	30.12	-28.6	-29.2	28.3	0.00e+00	0	23	0	1542455296	30	5845
2026-01-09 16:02:19.69	43.76	30.77	-28.5	-29.2	28.4	0.00e+00	0	23	0	1565523968	30	5837
2026-01-09 16:02:23.73	44.56	31.43	-28.3	-28.9	28.6	0.00e+00	0	23	0	1587544064	30	5671
2026-01-09 16:02:27.77	45.40	32.10	-28.1	-28.7	28.7	0.00e+00	0	23	0	1610612736	30	5522
2026-01-09 16:02:31.81	46.27	32.78	-28.3	-28.9	28.5	0.00e+00	0	23	0	1633681408	30	5643
2026-01-09 16:02:35.85	47.18	33.47	-28.1	-28.8	28.6	0.00e+00	0	23	0	1655701504	30	5577
2026-01-09 16:02:39.89	48.13	34.16	-28.1	-28.7	28.6	0.00e+00	0	23	0	1678770176	30	5552
2026-01-09 16:02:43.93	49.12	34.86	-28.3	-29.0	28.5	0.00e+00	0	23	0	1701838848	30	5705
2026-01-09 16:02:47.98	50.15	35.57	-27.9	-28.6	28.8	0.00e+00	0	23	0	1723858944	30	5444
2026-01-09 16:02:52.02	51.23	36.29	-28.0	-28.6	28.7	0.00e+00	0	23	0	1746927616	30	5442
2026-01-09 16:02:56.06	52.36	37.00	-28.0	-28.6	28.8	0.00e+00	0	23	0	1769996288	30	5492
2026-01-09 16:03:00.10	53.53	37.72	-27.6	-28.2	29.1	0.00e+00	0	23	0	1792016384	28	5861
2026-01-09 16:03:04.14	54.76	38.45	-28.2	-28.8	28.5	0.00e+00	0	23	0	1815085056	28	6282
2026-01-09 16:03:08.18	56.04	39.17	-27.7	-28.3	29.0	0.00e+00	0	23	0	1838153728	28	5923
2026-01-09 16:03:12.22	57.38	39.89	-28.2	-28.9	28.6	0.00e+00	0	23	0	1861222400	28	6331
2026-01-09 16:03:16.26	58.78	40.61	-28.0	-28.7	28.8	0.00e+00	0	23	0	1883242496	28	6185
2026-01-09 16:03:20.29	60.24	41.32	-28.3	-28.9	28.5	0.00e+00	0	23	0	1906311168	28	6381
2026-01-09 16:03:24.33	61.76	42.03	-27.9	-28.5	28.7	0.00e+00	0	23	0	1928331264	28	6073
2026-01-09 16:03:28.37	63.36	42.73	-28.1	-28.7	28.6	0.00e+00	0	23	0	1951399936	28	6177
2026-01-09 16:03:32.41	65.02	43.41	-28.0	-28.6	28.8	0.00e+00	0	23	0	1974468608	28	6143
2026-01-09 16:03:36.45	66.76	44.08	-28.2	-28.9	28.6	0.00e+00	0	23	0	1996488704	28	6327
2026-01-09 16:03:40.49	68.56	44.73	-28.3	-28.9	28.6	0.00e+00	0	23	0	2019557376	28	6388
2026-01-09 16:03:44.53	70.44	45.36	-28.9	-29.5	28.1	0.00e+00	0	23	0	2042626048	30	6071
2026-01-09 16:03:48.57	72.40	45.96	-28.5	-29.1	28.4	0.00e+00	0	23	0	2065694720	30	5784
2026-01-09 16:03:52.62	74.43	46.54	-28.0	-28.6	28.8	0.00e+00	0	23	0	2087714816	30	5477
2026-01-09 16:03:56.65	76.53	47.08	-28.4	-29.0	28.5	0.00e+00	0	23	0	2110783488	30	5743
2026-01-09 16:04:00.69	78.70	47.59	-28.1	-28.7	28.7	0.00e+00	0	23	0	2132803584	30	5534
2026-01-09 16:04:04.74	80.95	48.06	-28.3	-28.9	28.6	0.00e+00	0	23	0	2155872256	30	5671
2026-01-09 16:04:08.78	83.26	48.48	-28.7	-29.4	28.3	0.00e+00	0	23	0	2178940928	30	5976
2026-01-09 16:04:12.82	85.63	48.86	-28.3	-29.0	28.5	0.00e+00	0	23	0	2202009600	30	5726
2026-01-09 16:04:16.85	88.05	49.19	-28.1	-28.7	28.7	0.00e+00	0	23	0	2224029696	30	5524
2026-01-09 16:04:20.89	90.52	49.47	-28.4	-29.0	28.5	0.00e+00	0	23	0	2247098368	30	5745
2026-01-09 16:04:24.93	93.03	49.69	-28.6	-29.2	28.3	0.00e+00	0	23	0	2270167040	30	5868
2026-01-09 16:04:28.97	95.57	49.85	-28.7	-29.3	28.2	0.00e+00	0	23	0	2292187136	30	5926
2026-01-09 16:04:33.01	98.14	49.95	-28.4	-29.1	28.5	0.00e+00	0	23	0	2315255808	30	5796
2026-01-09 16:04:37.05	100.72	50.00	-28.3	-28.8	28.6	0.00e+00	0	23	0	2337275904	30	5622
2026-01-09 16:04:41.10	103.31	49.98	-28.5	-29.1	28.4	0.00e+00	0	23	0	2360344576	30	5799
2026-01-09 16:04:45.13	105.87	49.90	-28.6	-29.2	28.0	0.00e+00	0	23	0	2383413248	30	5842
2026-01-09 16:04:49.18	108.44	49.77	-28.2	-28.8	28.6	0.00e+00	0	23	0	2406481920	30	5596
2026-01-09 16:04:53.22	110.96	49.57	-28.5	-29.1	28.5	0.00e+00	0	23	0	2428502016	30	5773
2026-01-09 16:04:57.25	113.45	49.32	-28.1	-28.8	28.7	0.00e+00	0	23	0	2451570688	30	5580
2026-01-09 16:05:01.29	115.90	49.02	-28.1	-28.7	28.6	0.00e+00	0	23	0	2474639360	30	5561
2026-01-09 16:05:05.33	118.30	48.66	-28.6	-29.2	28.3	0.00e+00	0	23	0	2496659456	30	5866
2026-01-09 16:05:09.37	120.64	48.25	-28.6	-29.3	28.3	0.00e+00	0	23	0	2519728128	30	5905
2026-01-09 16:05:13.41	122.91	47.80	-28.2	-28.8	28.5	0.00e+00	0	23	0	2542796800	30	5585
2026-01-09 16:05:17.45	125.12	47.31	-28.5	-29.2	28.5	0.00e+00	0	23	0	2564816896	30	5863
2026-01-09 16:05:21.49	127.26	46.78	-28.2	-28.8	28.7	0.00e+00	0	23	0	2587885568	30	5608
2026-01-09 16:05:25.53	129.33	46.22	-28.6	-29.2	28.4	0.00e+00	0	23	0	2610954240	30	5855
2026-01-09 16:05:29.57	131.32	45.63	-28.6	-29.2	28.4	0.00e+00	0	23	0	2632974336	30	5888
2026-01-09 16:05:33.61	133.24	45.01	-28.1	-28.7	28.7	0.00e+00	0	23	0	2656043008	30	5523
2026-01-09 16:05:37.65	135.08	44.36	-28.6	-29.2	28.4	0.00e+00	0	23	0	2679111680	30	5875
2026-01-09 16:05:41.68	136.85	43.70	-28.6	-29.1	28.3	0.00e+00	0	23	0	2701131776	30	5808
2026-01-09 16:05:45.73	138.55	43.02	-28.4	-28.9	28.5	0.00e+00	0	23	0	2724200448	30	5677
2026-01-09 16:05:49.77	140.18	42.32	-28.8	-29.4	28.3	0.00e+00	0	23	0	2747269120	30	6006
2026-01-09 16:05:53.81	141.74	41.62	-28.0	-28.5	28.9	0.00e+00	0	23	0	2769289216	30	5429
2026-01-09 16:05:57.85	143.23	40.90	-28.3	-28.9	28.5	0.00e+00	0	23	0	2792357888	30	5646
2026-01-09 16:06:01.89	144.66	40.18	-27.6	-28.2	29.0	0.00e+00	0	23	0	2815426560	28	5837
2026-01-09 16:06:05.93	146.03	39.46	-27.9	-28.5	28.9	0.00e+00	0	23	0	2837446656	28	6084
2026-01-09 16:06:09.96	147.34	38.73	-28.0	-28.5	28.6	0.00e+00	0	23	0	2860515328	28	6080
2026-01-09 16:06:14.01	148.60	38.00	-27.8	-28.5	28.6	0.00e+00	0	23	0	2883584000	28	6039
2026-01-09 16:06:18.05	149.80	37.28	-27.6	-28.3	28.6	0.00e+00	0	23	0	2905604096	28	5931
2026-01-09 16:06:22.09	150.95	36.56	-28.0	-28.7	28.7	0.00e+00	0	23	0	2928672768	28	6188
2026-01-09 16:06:26.13	152.05	35.84	-27.7	-28.3	28.8	0.00e+00	0	23	0	2951741440	28	5912
2026-01-09 16:06:30.17	153.10	35.12	-27.7	-28.2	28.9	0.00e+00	0	23	0	2973761536	28	5870
2026-01-09 16:06:34.21	154.11	34.42	-27.9	-28.5	28.8	0.00e+00	0	23	0	2996830208	28	6034
2026-01-09 16:06:38.25	155.08	33.71	-27.9	-28.4	28.8	0.00e+00	0	23	0	3019898880	28	5993
2026-01-09 16:06:42.29	156.01	33.02	-28.1	-28.7	28.6	0.00e+00	0	23	0	3041918976	28	6186
2026-01-09 16:06:46.33	156.90	32.34	-27.8	-28.5	28.8	0.00e+00	0	23	0	3064987648	28	6083
2026-01-09 16:06:50.37	157.75	31.66	-28.1	-28.7	28.5	0.00e+00	0	23	0	3088056320	28	6198
2026-01-09 16:06:54.41	158.57	30.99	-28.6	-29.1	28.3	0.00e+00	0	23	0	3110076416	28	6533
2026-01-09 16:06:58.45	159.36	30.33	-28.4	-29.1	28.4	0.00e+00	0	23	0	3133145088	28	6521
2026-01-09 16:07:02.49	160.12	29.68	-28.3	-29.0	28.3	0.00e+00	0	23	0	3156213760	28	6441
2026-01-09 16:07:06.53	160.85	29.04	-28.4	-29.0	28.4	0.00e+00	0	23	0	3178233856	28	6392
2026-01-09 16:07:10.57	161.55	28.41	-28.4	-29.0	28.4	0.00e+00	0	23	0	3201302528	28	6428
2026-01-09 16:07:14.60	162.22	27.79	-28.3	-29.0	28.4	0.00e+00	0	23	0	3224371200	28	6460
2026-01-09 16:07:18.64	162.87	27.18	-28.2	-28.9	28.5	0.00e+00	0	23	0	3246391296	28	6366
2026-01-09 16:07:22.68	163.50	26.58	-28.3	-28.8	28.4	0.00e+00	0	23	0	3269459968	28	6306
2026-01-09 16:07:26.71	164.10	25.98	-28.2	-28.8	28.4	0.00e+00	0	23	0	3292528640	28	6272
2026-01-09 16:07:30.75	164.68	25.40	-28.2	-28.7	28.4	0.00e+00	0	23	0	3314548736	28	6234
2026-01-09 16:07:34.79	165.25	24.83	-28.6	-29.2	28.2	0.00e+00	0	23	0	3337617408	28	6544
2026-01-09 16:07:38.83	165.79	24.27	-28.8	-29.4	28.0	0.00e+00	0	23	0	3360686080	30	5982
2026-01-09 16:07:42.87	166.31	23.71	-28.8	-29.3	28.1	0.00e+00	0	23	0	3382706176	30	5936
2026-01-09 16:07:46.90	166.82	23.17	-28.7	-29.2	28.1	0.00e+00	0	23	0	3405774848	30	5856
2026-01-09 16:07:50.95	167.31	22.63	-29.1	-29.7	27.8	0.00e+00	0	23	0	3428843520	30	6183
2026-01-09 16:07:54.99	167.79	22.11	-29.4	-30.0	27.5	0.00e+00	0	23	0	3450863616	30	6453
2026-01-09 16:07:59.03	168.25	21.59	-29.3	-30.1	27.6	0.00e+00	0	23	0	3473932288	30	6481
2026-01-09 16:08:03.07	168.69	21.08	-29.2	-29.9	27.7	0.00e+00	0	23	0	3497000960	30	6350
2026-01-09 16:08:07.11	169.13	20.58	-29.2	-29.8	27.7	0.00e+00	0	23	0	3519021056	30	6246
2026-01-09 16:08:11.15	169.55	20.09	-29.4	-30.1	27.5	0.00e+00	0	23	0	3542089728	30	6512
2026-01-09 16:08:15.19	169.95	19.61	-29.6	-30.2	27.4	0.00e+00	0	23	0	3565158400	30	6596
2026-01-09 16:08:19.23	170.35	19.13	-29.6	-30.1	27.4	0.00e+00	0	23	0	3587178496	30	6538
2026-01-09 16:08:23.27	170.73	18.66	-29.9	-30.4	27.1	0.00e+00	0	23	0	3610247168	32	6022
2026-01-09 16:08:27.31	171.10	18.20	-30.0	-30.7	27.0	0.00e+00	0	23	0	3633315840	32	6222
2026-01-09 16:08:31.35	171.46	17.75	-30.2	-31.0	26.8	0.00e+00	0	23	0	3655335936	32	6395
2026-01-09 16:08:35.39	171.81	17.30	-30.3	-30.9	26.8	0.00e+00	0	23	0	3678404608	32	6359
2026-01-09 16:08:39.43	172.15	16.87	-30.3	-30.9	26.8	0.00e+00	0	23	0	3701473280	32	6352
2026-01-09 16:08:43.47	172.49	16.43	-30.5	-31.0	26.6	0.00e+00	0	23	0	3723493376	32	6436
2026-01-09 16:08:47.51	172.81	16.01	-30.7	-31.4	26.4	0.00e+00	0	23	0	3746562048	32	6767
2026-01-09 16:08:51.56	173.12	15.59	-31.0	-31.6	26.1	0.00e+00	0	23	0	3769630720	34	6132
2026-01-09 16:08:55.60	173.43	15.18	-31.3	-31.9	25.9	0.00e+00	0	23	0	3791650816	34	6350
2026-01-09 16:08:59.64	173.73	14.77	-31.6	-32.3	25.6	0.00e+00	0	23	0	3814719488	34	6653
2026-01-09 16:09:03.68	174.02	14.37	-31.2	-31.9	25.9	0.00e+00	0	23	0	3837788160	34	6362
2026-01-09 16:09:07.72	174.30	13.98	-31.5	-32.2	25.6	0.00e+00	0	23	0	3860856832	34	6596
2026-01-09 16:09:11.76	174.58	13.59	-31.3	-31.9	25.7	0.00e+00	0	23	0	3882876928	34	6352
2026-01-09 16:09:15.80	174.85	13.21	-31.4	-32.1	25.7	0.00e+00	0	23	0	3905945600	34	6524
2026-01-09 16:09:19.85	175.12	12.83	-31.5	-32.1	25.6	0.00e+00	0	23	0	3927965696	34	6512
2026-01-09 16:09:23.88	175.37	12.46	-31.5	-32.1	25.6	0.00e+00	0	23	0	3951034368	34	6499
2026-01-09 16:09:27.91	175.62	12.09	-31.7	-32.3	25.5	0.00e+00	0	23	0	3974103040	34	6635
2026-01-09 16:09:31.96	175.87	11.73	-31.6	-32.3	25.5	0.00e+00	0	23	0	3996123136	36	5959
2026-01-09 16:09:36.00	176.11	11.37	-31.8	-32.4	25.4	0.00e+00	0	23	0	4019191808	36	5973
2026-01-09 16:09:40.03	176.34	11.02	-31.7	-32.3	25.4	0.00e+00	0	23	0	4042260480	36	5945
2026-01-09 16:09:44.07	176.57	10.67	-31.8	-32.6	25.3	0.00e+00	0	23	0	4065329152	36	6126
2026-01-09 16:09:48.11	176.80	10.33	-32.0	-32.6	25.1	0.00e+00	0	23	0	4087349248	36	6111
2026-01-09 16:09:52.15	177.02	9.99	-32.4	-33.1	24.8	0.00e+00	0	23	0	4110417920	36	6515
2026-01-09 16:09:56.19	177.23	9.65	-32.3	-32.9	24.8	0.00e+00	0	23	0	4132438016	36	6371
2026-01-09 16:10:00.23	177.44	9.32	-32.3	-33.1	24.7	0.00e+00	0	23	0	4155506688	36	6488
2026-01-09 16:10:04.27	177.65	9.00	-32.6	-33.3	24.4	0.00e+00	0	23	0	4178575360	36	6678
2026-01-09 16:10:08.31	177.85	8.67	-32.5	-33.2	24.6	0.00e+00	0	23	0	4200595456	38	5840
2026-01-09 16:10:12.35	178.05	8.36	-32.7	-33.5	24.4	0.00e+00	0	23	0	4223664128	38	6037
2026-01-09 16:10:16.39	178.24	8.04	-33.3	-34.0	23.6	0.00e+00	0	23	0	4246732800	38	6424
2026-01-09 16:10:20.43	178.43	7.73	-33.0	-33.6	23.9	0.00e+00	0	23	0	4269801472	38	6153
2026-01-09 16:10:24.47	178.62	7.42	-32.9	-33.7	24.1	0.00e+00	0	23	0	4291821568	38	6204
2026-01-09 16:10:28.51	178.80	7.12	-33.0	-33.8	24.0	0.00e+00	0	23	0	4314890240	38	6299
2026-01-09 16:10:32.56	178.98	6.82	-33.2	-34.0	23.7	0.00e+00	0	23	0	4336910336	38	6409
2026-01-09 16:10:36.60	179.16	6.52	-33.3	-34.1	23.6	0.00e+00	0	23	0	4359979008	38	6478
2026-01-09 16:10:40.64	179.33	6.22	-33.2	-33.9	23.6	0.00e+00	0	23	0	4383047680	38	6353
2026-01-09 16:10:44.68	179.50	5.93	-33.5	-34.2	23.3	0.00e+00	0	23	0	4406116352	38	6552
2026-01-09 16:10:48.72	179.66	5.64	-33.3	-34.1	23.5	0.00e+00	0	23	0	4428136448	38	6468
2026-01-09 16:10:52.76	179.83	5.36	-33.7	-34.4	23.0	0.00e+00	0	23	0	4451205120	38	6732
2026-01-09 16:10:56.80	179.99	5.08	-33.6	-34.4	23.0	0.00e+00	0	23	0	4474273792	40	6015
2026-01-09 16:11:00.84	180.14	4.80	-33.6	-34.3	23.1	0.00e+00	0	23	0	4496293888	40	5955
2026-01-09 16:11:04.88	180.30	4.52	-33.9	-34.7	22.9	0.00e+00	0	23	0	4519362560	40	6238
2026-01-09 16:11:08.92	180.45	4.25	-34.2	-35.0	22.5	0.00e+00	0	23	0	4542431232	40	6450
2026-01-09 16:11:12.96	180.60	3.97	-34.2	-34.9	22.3	0.00e+00	0	23	0	4564451328	40	6388
2026-01-09 16:11:17.00	180.75	3.70	-34.2	-34.9	22.3	0.00e+00	0	23	0	4587520000	40	6356
2026-01-09 16:11:21.04	180.89	3.44	-34.4	-35.1	22.0	0.00e+00	0	23	0	4610588672	40	6495
2026-01-09 16:11:25.08	181.04	3.17	-34.8	-35.7	21.6	0.00e+00	0	23	0	4632608768	42	6178
2026-01-09 16:11:29.12	181.18	2.91	-47.2	-59.3	3.6	8.46e-01	0	23	104	4646240256	60	33285
2026-01-09 16:11:33.16	181.31	2.65	-47.7	-59.8	3.6	8.44e-01	0	23	104	4646240256	60	35369
2026-01-09 16:11:37.20	181.45	2.40	-47.7	-59.9	3.6	8.46e-01	0	23	104	4646240256	60	35837
2026-01-09 16:11:41.24	181.58	2.14	-47.8	-59.8	3.6	8.44e-01	0	23	104	4646240256	60	35472
2026-01-09 16:11:45.28	181.72	1.89	-47.7	-59.8	3.6	8.46e-01	0	23	104	4646240256	60	35374
2026-01-09 16:11:49.31	181.84	1.64	-47.7	-59.8	3.6	8.46e-01	0	23	104	4646240256	60	35407
2026-01-09 16:11:53.35	181.97	1.39	-47.7	-59.8	3.6	8.45e-01	0	23	104	4646240256	60	35422
2026-01-09 16:11:57.39	182.10	1.14	-47.8	-59.9	3.6	8.46e-01	0	23	104	4646240256	60	35730
2026-01-09 16:12:01.43	182.22	0.90	-47.7	-59.8	3.6	8.45e-01	0	23	104	4646240256	60	35377
2026-01-09 16:12:05.47	182.34	0.66	-47.7	-59.8	3.6	8.44e-01	0	23	104	4646240256	60	35266
2026-01-09 16:12:09.51	182.46	0.42	-47.8	-59.8	3.6	8.46e-01	0	23	104	4646240256	60	35467
2026-01-09 16:12:13.55	182.58	0.18	-47.7	-59.8	3.6	8.46e-01	0	23	104	4646240256	60	35174
2026-01-09 16:12:17.59	182.70	-0.06	-47.7	-59.8	3.6	8.45e-01	0	23	104	4646240256	60	35358

#Closed at: 2026-01-09 16:12:17
#Recorded file [4646 MB]: D:/lorett/data/35029_260110_035656.dat