passes_logs/2026/01/09/R4.6S_Anadyr/R4.6S_Anadyr__20260109_173718_FENGYUN_3D_rec.log

#Pass ID: 20260109_173718_FENGYUN 3D
#Satellite: FENGYUN 3D
#Configuration: FENGYUN 3D
#almurnet v.1.7.20251203
#Start time: 2026-01-09 17:37:21

#Version: 2.2.20231116
#Station: R4.6S_Anadyr
#Location: 177.4865 lon 64.73178 lat
#TLE: 1 43010U 17072A   26008.59015185 -.00000067  00000+0 -98204-5 0  9997
#TLE: 2 43010  98.9935 340.3069 0002117 119.1923 240.9464 14.19693468422340

#Time	Az	El	Level	Level2	SNR	BER	BlckErr	Temp	State	Recorded	gain1	gain2
2026-01-09 17:37:21.74	23.18	0.17	-47.8	-62.7	3.5	1.51e+00	0	23	0	0	60	49249
2026-01-09 17:37:25.78	23.10	0.41	-47.8	-60.0	3.6	8.45e-01	0	24	104	0	60	35956
2026-01-09 17:37:29.81	23.03	0.65	-47.6	-59.8	3.6	8.45e-01	0	24	104	0	60	35430
2026-01-09 17:37:33.85	22.95	0.90	-47.3	-59.3	3.6	8.45e-01	0	24	104	0	60	33506
2026-01-09 17:37:37.90	22.88	1.14	-46.3	-58.3	3.6	8.46e-01	0	24	104	0	60	29863
2026-01-09 17:37:41.94	22.80	1.39	-46.2	-58.3	3.6	8.45e-01	0	24	104	0	60	29809
2026-01-09 17:37:45.98	22.72	1.64	-46.2	-57.7	3.6	8.45e-01	0	24	104	0	60	27854
2026-01-09 17:37:50.01	22.63	1.89	-46.2	-57.6	3.6	8.46e-01	0	24	104	0	60	27431
2026-01-09 17:37:54.06	22.55	2.15	-46.2	-58.3	3.6	8.47e-01	0	24	104	0	60	29620
2026-01-09 17:37:58.10	22.46	2.41	-46.1	-57.6	3.6	8.45e-01	0	24	104	0	60	27313
2026-01-09 17:38:02.14	22.38	2.67	-46.0	-55.9	3.6	8.44e-01	0	24	104	0	60	22608
2026-01-09 17:38:06.18	22.29	2.93	-46.0	-56.2	3.6	8.43e-01	0	24	104	0	60	23218
2026-01-09 17:38:10.22	22.20	3.19	-43.6	-46.9	9.8	3.05e-02	0	24	0	9437184	60	7958
2026-01-09 17:38:14.26	22.10	3.46	-40.2	-41.8	15.4	1.10e-06	0	24	0	32505856	54	6247
2026-01-09 17:38:18.29	22.01	3.73	-39.3	-40.6	16.6	0.00e+00	0	24	0	54525952	52	6172
2026-01-09 17:38:22.33	21.91	4.00	-46.2	-57.0	3.8	9.00e-01	0	24	104	66060288	60	25682
2026-01-09 17:38:26.37	21.81	4.27	-35.8	-36.7	20.5	0.00e+00	0	24	0	84934656	44	6244
2026-01-09 17:38:30.41	21.71	4.55	-34.3	-35.1	22.3	0.00e+00	0	24	0	108003328	42	5799
2026-01-09 17:38:34.45	21.60	4.83	-34.1	-34.9	22.5	0.00e+00	0	25	0	131072000	42	5649
2026-01-09 17:38:38.48	21.50	5.11	-34.0	-34.8	22.7	0.00e+00	0	25	0	153092096	40	6271
2026-01-09 17:38:42.52	21.39	5.40	-34.0	-34.7	22.8	0.00e+00	0	25	0	176160768	40	6227
2026-01-09 17:38:46.55	21.28	5.69	-34.0	-34.8	22.7	0.00e+00	0	24	0	199229440	40	6275
2026-01-09 17:38:50.60	21.16	5.98	-33.7	-34.4	23.1	0.00e+00	0	25	0	221249536	40	6022
2026-01-09 17:38:54.63	21.05	6.27	-33.7	-34.5	23.2	0.00e+00	0	25	0	244318208	40	6066
2026-01-09 17:38:58.66	20.93	6.57	-33.6	-34.4	23.2	0.00e+00	0	24	0	267386880	40	5975
2026-01-09 17:39:02.70	20.81	6.87	-33.8	-34.6	23.1	0.00e+00	0	24	0	289406976	40	6143
2026-01-09 17:39:06.74	20.68	7.18	-33.4	-34.2	23.4	0.00e+00	0	25	0	312475648	40	5861
2026-01-09 17:39:10.77	20.55	7.48	-33.4	-34.1	23.5	0.00e+00	0	25	0	335544320	40	5808
2026-01-09 17:39:14.81	20.42	7.80	-33.3	-34.0	23.7	0.00e+00	0	25	0	357564416	40	5711
2026-01-09 17:39:18.85	20.29	8.11	-33.2	-34.0	23.8	0.00e+00	0	25	0	380633088	40	5697
2026-01-09 17:39:22.89	20.15	8.43	-33.1	-33.8	23.9	0.00e+00	0	25	0	403701760	40	5621
2026-01-09 17:39:26.93	20.01	8.76	-32.9	-33.6	24.1	0.00e+00	0	24	0	425721856	40	5482
2026-01-09 17:39:30.97	19.86	9.08	-32.8	-33.5	24.2	0.00e+00	0	25	0	448790528	40	5390
2026-01-09 17:39:35.00	19.71	9.41	-32.8	-33.5	24.2	0.00e+00	0	25	0	470810624	38	6099
2026-01-09 17:39:39.04	19.56	9.75	-33.0	-33.7	24.1	0.00e+00	0	25	0	493879296	38	6205
2026-01-09 17:39:43.07	19.41	10.09	-32.5	-33.2	24.4	0.00e+00	0	25	0	516947968	38	5872
2026-01-09 17:39:47.11	19.25	10.43	-32.4	-33.1	24.7	0.00e+00	0	25	0	540016640	38	5766
2026-01-09 17:39:51.14	19.08	10.78	-32.3	-33.0	24.7	0.00e+00	0	25	0	562036736	38	5712
2026-01-09 17:39:55.18	18.91	11.14	-32.3	-33.0	24.7	0.00e+00	0	25	0	585105408	38	5708
2026-01-09 17:39:59.22	18.74	11.50	-32.0	-32.6	25.1	0.00e+00	0	25	0	608174080	38	5498
2026-01-09 17:40:03.26	18.56	11.86	-32.0	-32.7	25.0	0.00e+00	0	25	0	630194176	38	5517
2026-01-09 17:40:07.30	18.38	12.23	-32.0	-32.6	25.2	0.00e+00	0	25	0	653262848	38	5489
2026-01-09 17:40:11.33	18.19	12.60	-32.0	-32.7	25.1	0.00e+00	0	25	0	675282944	38	5536
2026-01-09 17:40:15.37	17.99	12.98	-31.8	-32.5	25.4	0.00e+00	0	25	0	698351616	36	6058
2026-01-09 17:40:19.41	17.80	13.37	-31.7	-32.4	25.5	0.00e+00	0	25	0	721420288	36	6013
2026-01-09 17:40:23.45	17.59	13.76	-31.6	-32.2	25.6	0.00e+00	0	25	0	743440384	36	5895
2026-01-09 17:40:27.48	17.38	14.16	-31.5	-32.2	25.7	0.00e+00	0	25	0	766509056	36	5846
2026-01-09 17:40:31.52	17.16	14.56	-31.1	-31.7	26.0	0.00e+00	0	25	0	789577728	36	5558
2026-01-09 17:40:35.56	16.94	14.97	-31.0	-31.7	26.1	0.00e+00	0	25	0	812646400	36	5508
2026-01-09 17:40:39.59	16.71	15.39	-31.0	-31.7	26.1	0.00e+00	0	25	0	834666496	36	5517
2026-01-09 17:40:43.63	16.47	15.81	-31.0	-31.6	26.2	0.00e+00	0	25	0	857735168	36	5492
2026-01-09 17:40:47.67	16.23	16.24	-30.8	-31.4	26.4	0.00e+00	0	25	0	879755264	34	6003
2026-01-09 17:40:51.70	15.98	16.68	-30.6	-31.2	26.6	0.00e+00	0	25	0	902823936	34	5865
2026-01-09 17:40:55.74	15.72	17.13	-30.2	-30.8	26.8	0.00e+00	0	25	0	925892608	34	5586
2026-01-09 17:40:59.78	15.45	17.58	-30.0	-30.7	26.9	0.00e+00	0	25	0	947912704	34	5519
2026-01-09 17:41:03.82	15.17	18.04	-30.1	-30.7	27.0	0.00e+00	0	25	0	970981376	34	5514
2026-01-09 17:41:07.86	14.88	18.51	-29.8	-30.5	27.2	0.00e+00	0	25	0	994050048	34	5383
2026-01-09 17:41:11.89	14.59	18.98	-29.9	-30.5	27.2	0.00e+00	0	25	0	1016070144	32	6093
2026-01-09 17:41:15.93	14.28	19.47	-29.7	-30.4	27.3	0.00e+00	0	25	0	1039138816	32	5974
2026-01-09 17:41:19.97	13.97	19.96	-29.8	-30.4	27.2	0.00e+00	0	25	0	1062207488	32	5991
2026-01-09 17:41:24.01	13.64	20.47	-29.7	-30.3	27.3	0.00e+00	0	25	0	1084227584	32	5946
2026-01-09 17:41:28.04	13.30	20.98	-29.7	-30.3	27.4	0.00e+00	0	25	0	1107296256	32	5921
2026-01-09 17:41:32.08	12.95	21.50	-29.4	-30.0	27.6	0.00e+00	0	25	0	1130364928	32	5715
2026-01-09 17:41:36.12	12.59	22.03	-29.6	-30.2	27.5	0.00e+00	0	25	0	1152385024	32	5882
2026-01-09 17:41:40.16	12.21	22.57	-29.4	-30.0	27.6	0.00e+00	0	25	0	1175453696	32	5744
2026-01-09 17:41:44.20	11.82	23.12	-29.2	-29.8	27.8	0.00e+00	0	25	0	1198522368	32	5586
2026-01-09 17:41:48.23	11.41	23.68	-28.8	-29.4	28.0	0.00e+00	0	25	0	1220542464	32	5367
2026-01-09 17:41:52.27	10.99	24.26	-28.8	-29.4	28.1	0.00e+00	0	25	0	1243611136	32	5363
2026-01-09 17:41:56.31	10.55	24.84	-29.3	-30.0	27.7	0.00e+00	0	25	0	1266679808	32	5705
2026-01-09 17:42:00.35	10.10	25.43	-29.3	-29.9	27.7	0.00e+00	0	25	0	1288699904	32	5677
2026-01-09 17:42:04.38	9.63	26.04	-29.0	-29.6	27.9	0.00e+00	0	25	0	1311768576	32	5498
2026-01-09 17:42:08.42	9.14	26.66	-28.7	-29.3	28.3	0.00e+00	0	25	0	1334837248	30	5937
2026-01-09 17:42:12.46	8.62	27.29	-28.5	-29.1	28.4	0.00e+00	0	25	0	1356857344	30	5820
2026-01-09 17:42:16.50	8.09	27.93	-28.7	-29.4	28.3	0.00e+00	0	25	0	1379926016	30	5965
2026-01-09 17:42:20.54	7.53	28.59	-28.5	-29.1	28.3	0.00e+00	0	25	0	1402994688	30	5818
2026-01-09 17:42:24.59	6.95	29.25	-28.2	-28.7	28.7	0.00e+00	0	25	0	1425014784	30	5561
2026-01-09 17:42:28.63	6.35	29.93	-28.4	-29.0	28.4	0.00e+00	0	25	0	1448083456	30	5738
2026-01-09 17:42:32.66	5.71	30.63	-28.3	-28.9	28.5	0.00e+00	0	25	0	1471152128	30	5670
2026-01-09 17:42:36.70	5.05	31.33	-27.9	-28.4	28.9	0.00e+00	0	25	0	1493172224	30	5350
2026-01-09 17:42:40.73	4.36	32.05	-28.0	-28.6	28.8	0.00e+00	0	25	0	1516240896	30	5468
2026-01-09 17:42:44.77	3.64	32.78	-28.0	-28.6	28.7	0.00e+00	0	25	0	1539309568	30	5443
2026-01-09 17:42:48.81	2.88	33.52	-28.0	-28.5	28.7	0.00e+00	0	25	0	1561329664	30	5436
2026-01-09 17:42:52.84	2.09	34.27	-27.8	-28.4	28.9	0.00e+00	0	25	0	1584398336	28	5975
2026-01-09 17:42:56.88	1.25	35.04	-28.0	-28.6	28.7	0.00e+00	0	25	0	1607467008	28	6172
2026-01-09 17:43:00.92	0.38	35.82	-28.0	-28.6	28.7	0.00e+00	0	25	0	1629487104	28	6166
2026-01-09 17:43:04.96	359.46	36.61	-27.9	-28.5	28.9	0.00e+00	0	25	0	1652555776	28	6064
2026-01-09 17:43:09.00	358.50	37.41	-28.3	-29.0	28.5	0.00e+00	0	25	0	1674575872	28	6392
2026-01-09 17:43:13.03	357.49	38.22	-28.2	-28.8	28.6	0.00e+00	0	25	0	1697644544	28	6316
2026-01-09 17:43:17.07	356.42	39.04	-28.2	-28.8	28.6	0.00e+00	0	25	0	1720713216	28	6297
2026-01-09 17:43:21.10	355.30	39.86	-27.9	-28.5	28.8	0.00e+00	0	25	0	1742733312	28	6071
2026-01-09 17:43:25.14	354.12	40.70	-28.4	-29.0	28.4	0.00e+00	0	25	0	1765801984	28	6399
2026-01-09 17:43:29.17	352.87	41.53	-28.3	-28.9	28.5	0.00e+00	0	25	0	1788870656	28	6370
2026-01-09 17:43:33.21	351.56	42.38	-28.4	-29.1	28.4	0.00e+00	0	25	0	1811939328	28	6466
2026-01-09 17:43:37.25	350.18	43.22	-28.1	-28.7	28.7	0.00e+00	0	25	0	1833959424	28	6187
2026-01-09 17:43:41.29	348.72	44.06	-28.2	-28.8	28.6	0.00e+00	0	25	0	1857028096	28	6261
2026-01-09 17:43:45.32	347.18	44.89	-28.5	-29.1	28.5	0.00e+00	0	25	0	1879048192	28	6491
2026-01-09 17:43:49.36	345.56	45.73	-28.5	-29.1	28.3	0.00e+00	0	25	0	1902116864	28	6495
2026-01-09 17:43:53.41	343.84	46.55	-28.8	-29.4	28.1	0.00e+00	0	25	0	1925185536	30	5968
2026-01-09 17:43:57.45	342.04	47.36	-29.0	-29.7	28.0	0.00e+00	0	25	0	1947205632	30	6179
2026-01-09 17:44:01.48	340.14	48.14	-29.0	-29.6	28.0	0.00e+00	0	25	0	1970274304	30	6123
2026-01-09 17:44:05.52	338.15	48.91	-29.3	-29.9	27.9	0.00e+00	0	25	0	1993342976	30	6365
2026-01-09 17:44:09.56	336.05	49.65	-29.3	-29.9	27.9	0.00e+00	0	25	0	2016411648	30	6321
2026-01-09 17:44:13.59	333.85	50.36	-29.6	-30.2	27.5	0.00e+00	0	25	0	2038431744	30	6604
2026-01-09 17:44:17.63	331.55	51.03	-29.5	-30.1	27.6	0.00e+00	0	25	0	2061500416	30	6527
2026-01-09 17:44:21.67	329.14	51.66	-29.3	-29.9	27.7	0.00e+00	0	25	0	2083520512	30	6349
2026-01-09 17:44:25.70	326.64	52.24	-29.2	-29.9	27.8	0.00e+00	0	25	0	2106589184	30	6344
2026-01-09 17:44:29.74	324.03	52.77	-29.2	-29.9	27.9	0.00e+00	0	25	0	2129657856	30	6322
2026-01-09 17:44:33.78	321.33	53.24	-28.8	-29.4	28.1	0.00e+00	0	25	0	2151677952	30	5992
2026-01-09 17:44:37.82	318.55	53.65	-28.5	-29.1	28.4	0.00e+00	0	25	0	2174746624	30	5790
2026-01-09 17:44:41.85	315.71	53.99	-29.3	-29.9	27.8	0.00e+00	0	25	0	2197815296	30	6373
2026-01-09 17:44:45.89	312.79	54.26	-29.3	-29.9	27.8	0.00e+00	0	25	0	2219835392	30	6390
2026-01-09 17:44:49.93	309.83	54.46	-29.8	-30.5	27.2	0.00e+00	0	25	0	2242904064	32	6055
2026-01-09 17:44:53.96	306.84	54.58	-29.1	-29.7	28.0	0.00e+00	0	25	0	2265972736	32	5539
2026-01-09 17:44:58.00	303.83	54.61	-29.1	-29.7	27.9	0.00e+00	0	25	0	2287992832	32	5533
2026-01-09 17:45:02.04	300.81	54.57	-29.7	-30.4	27.4	0.00e+00	0	25	0	2311061504	30	6694
2026-01-09 17:45:06.09	297.81	54.45	-29.0	-29.6	27.9	0.00e+00	0	25	0	2334130176	32	5475
2026-01-09 17:45:10.13	294.85	54.26	-29.0	-29.6	27.9	0.00e+00	0	25	0	2356150272	32	5498
2026-01-09 17:45:14.16	291.94	53.98	-29.2	-29.9	27.7	0.00e+00	0	25	0	2379218944	30	6346
2026-01-09 17:45:18.20	289.08	53.64	-28.8	-29.4	28.2	0.00e+00	0	25	0	2402287616	30	5979
2026-01-09 17:45:22.24	286.30	53.23	-28.8	-29.4	28.3	0.00e+00	0	25	0	2424307712	30	6012
2026-01-09 17:45:26.28	283.61	52.76	-28.9	-29.5	28.1	0.00e+00	0	25	0	2447376384	30	6102
2026-01-09 17:45:30.32	281.00	52.22	-28.5	-29.1	28.4	0.00e+00	0	25	0	2470445056	30	5812
2026-01-09 17:45:34.36	278.49	51.64	-28.9	-29.4	28.1	0.00e+00	0	25	0	2492465152	30	5994
2026-01-09 17:45:38.39	276.09	51.01	-28.6	-29.3	28.3	0.00e+00	0	25	0	2515533824	30	5927
2026-01-09 17:45:42.43	273.78	50.33	-28.6	-29.1	28.4	0.00e+00	0	25	0	2538602496	30	5801
2026-01-09 17:45:46.47	271.58	49.62	-28.9	-29.6	28.1	0.00e+00	0	25	0	2560622592	30	6134
2026-01-09 17:45:50.51	269.48	48.87	-28.5	-29.0	28.4	0.00e+00	0	25	0	2583691264	30	5707
2026-01-09 17:45:54.55	267.48	48.10	-28.7	-29.3	28.2	0.00e+00	0	25	0	2606759936	30	5953
2026-01-09 17:45:58.59	265.59	47.31	-28.8	-29.5	28.2	0.00e+00	0	25	0	2628780032	30	6044
2026-01-09 17:46:02.63	263.78	46.50	-28.2	-28.8	28.6	0.00e+00	0	25	0	2651848704	30	5599
2026-01-09 17:46:06.67	262.07	45.68	-28.0	-28.7	28.8	0.00e+00	0	25	0	2674917376	30	5540
2026-01-09 17:46:10.71	260.45	44.85	-28.0	-28.7	28.7	0.00e+00	0	25	0	2696937472	30	5513
2026-01-09 17:46:14.76	258.90	44.00	-27.7	-28.4	28.9	0.00e+00	0	25	0	2720006144	28	5982
2026-01-09 17:46:18.80	257.44	43.16	-27.8	-28.4	28.9	0.00e+00	0	25	0	2743074816	28	6031
2026-01-09 17:46:22.83	256.06	42.32	-28.0	-28.6	28.6	0.00e+00	0	25	0	2765094912	28	6172
2026-01-09 17:46:26.87	254.75	41.47	-27.9	-28.4	28.4	0.00e+00	0	25	0	2788163584	28	6004
2026-01-09 17:46:30.91	253.50	40.63	-27.6	-28.3	28.9	0.00e+00	0	25	0	2811232256	28	5921
2026-01-09 17:46:34.94	252.32	39.80	-28.1	-28.6	28.6	0.00e+00	0	25	0	2833252352	28	6151
2026-01-09 17:46:38.98	251.20	38.97	-27.8	-28.4	28.8	0.00e+00	0	25	0	2856321024	28	5973
2026-01-09 17:46:43.02	250.13	38.14	-27.7	-28.2	28.7	0.00e+00	0	25	0	2879389696	28	5856
2026-01-09 17:46:47.05	249.12	37.33	-28.2	-28.7	28.6	0.00e+00	0	25	0	2901409792	28	6231
2026-01-09 17:46:51.09	248.15	36.53	-28.3	-29.0	28.5	0.00e+00	0	25	0	2924478464	28	6415
2026-01-09 17:46:55.13	247.23	35.74	-27.7	-28.2	28.9	0.00e+00	0	25	0	2947547136	28	5862
2026-01-09 17:46:59.17	246.36	34.96	-27.9	-28.4	28.8	0.00e+00	0	25	0	2969567232	28	5995
2026-01-09 17:47:03.21	245.52	34.19	-27.6	-28.3	28.9	0.00e+00	0	25	0	2992635904	28	5930
2026-01-09 17:47:07.24	244.73	33.43	-27.6	-28.2	28.9	0.00e+00	0	25	0	3015704576	28	5830
2026-01-09 17:47:11.28	243.97	32.69	-27.6	-28.3	28.9	0.00e+00	0	25	0	3037724672	28	5900
2026-01-09 17:47:15.31	243.25	31.96	-27.7	-28.2	28.9	0.00e+00	0	25	0	3060793344	28	5878
2026-01-09 17:47:19.35	242.56	31.24	-27.9	-28.4	28.7	0.00e+00	0	25	0	3082813440	28	5999
2026-01-09 17:47:23.39	241.89	30.53	-28.3	-28.8	28.5	0.00e+00	0	25	0	3105882112	28	6264
2026-01-09 17:47:27.43	241.26	29.83	-28.5	-29.0	28.0	0.00e+00	0	25	0	3128950784	28	6460
2026-01-09 17:47:31.46	240.65	29.15	-28.1	-28.6	28.5	0.00e+00	0	25	0	3152019456	28	6139
2026-01-09 17:47:35.50	240.07	28.48	-28.2	-28.9	28.3	0.00e+00	0	25	0	3174039552	28	6361
2026-01-09 17:47:39.54	239.51	27.83	-28.8	-29.3	27.9	0.00e+00	0	25	0	3197108224	28	6655
2026-01-09 17:47:43.58	238.98	27.18	-28.7	-29.2	28.0	0.00e+00	0	25	0	3220176896	30	5869
2026-01-09 17:47:47.62	238.47	26.55	-28.6	-29.1	28.1	0.00e+00	0	25	0	3242196992	30	5802
2026-01-09 17:47:51.65	237.97	25.93	-28.5	-29.0	28.0	0.00e+00	0	25	0	3265265664	30	5742
2026-01-09 17:47:55.69	237.50	25.33	-28.6	-29.1	28.1	0.00e+00	0	25	0	3287285760	30	5789
2026-01-09 17:47:59.73	237.04	24.73	-28.8	-29.4	27.8	0.00e+00	0	25	0	3310354432	30	5987
2026-01-09 17:48:03.77	236.60	24.14	-28.8	-29.5	27.8	0.00e+00	0	25	0	3333423104	30	6048
2026-01-09 17:48:07.81	236.18	23.57	-28.7	-29.2	28.0	0.00e+00	0	25	0	3356491776	30	5844
2026-01-09 17:48:11.85	235.77	23.01	-28.8	-29.3	27.8	0.00e+00	0	25	0	3378511872	30	5943
2026-01-09 17:48:15.89	235.38	22.45	-29.0	-29.5	27.6	0.00e+00	0	25	0	3401580544	30	6101
2026-01-09 17:48:19.93	235.00	21.91	-29.1	-29.8	27.6	0.00e+00	0	25	0	3423600640	30	6255
2026-01-09 17:48:23.97	234.64	21.38	-29.1	-29.8	27.6	0.00e+00	0	25	0	3446669312	30	6289
2026-01-09 17:48:28.01	234.28	20.86	-29.3	-29.9	27.4	0.00e+00	0	25	0	3469737984	30	6324
2026-01-09 17:48:32.05	233.94	20.34	-29.5	-30.1	27.2	0.00e+00	0	25	0	3491758080	30	6539
2026-01-09 17:48:36.09	233.62	19.84	-29.4	-30.1	27.4	0.00e+00	0	25	0	3514826752	30	6478
2026-01-09 17:48:40.13	233.30	19.34	-29.6	-30.1	27.3	0.00e+00	0	25	0	3537895424	30	6524
2026-01-09 17:48:44.16	232.99	18.86	-29.7	-30.2	27.1	0.00e+00	0	25	0	3560964096	32	5885
2026-01-09 17:48:48.20	232.69	18.38	-29.9	-30.5	27.0	0.00e+00	0	25	0	3582984192	32	6056
2026-01-09 17:48:52.24	232.40	17.91	-30.0	-30.6	26.9	0.00e+00	0	25	0	3606052864	32	6117
2026-01-09 17:48:56.28	232.12	17.45	-30.0	-30.5	26.9	0.00e+00	0	25	0	3628072960	32	6080
2026-01-09 17:49:00.32	231.85	17.00	-30.1	-30.8	26.8	0.00e+00	0	25	0	3651141632	32	6252
2026-01-09 17:49:04.35	231.59	16.55	-30.2	-30.9	26.7	0.00e+00	0	25	0	3674210304	32	6323
2026-01-09 17:49:08.39	231.34	16.11	-30.4	-31.1	26.5	0.00e+00	0	25	0	3696230400	32	6523
2026-01-09 17:49:12.43	231.09	15.68	-30.7	-31.3	26.2	0.00e+00	0	25	0	3719299072	34	5926
2026-01-09 17:49:16.47	230.85	15.26	-30.9	-31.5	26.1	0.00e+00	0	25	0	3742367744	34	6079
2026-01-09 17:49:20.50	230.62	14.84	-31.2	-31.9	25.8	0.00e+00	0	25	0	3764387840	34	6350
2026-01-09 17:49:24.54	230.39	14.43	-31.4	-31.9	25.6	0.00e+00	0	25	0	3787456512	34	6383
2026-01-09 17:49:28.58	230.17	14.02	-31.5	-32.3	25.5	0.00e+00	0	25	0	3810525184	34	6626
2026-01-09 17:49:32.61	229.96	13.63	-31.7	-32.3	25.4	0.00e+00	0	25	0	3832545280	36	5908
2026-01-09 17:49:36.65	229.75	13.23	-31.8	-32.5	25.2	0.00e+00	0	25	0	3855613952	36	6084
2026-01-09 17:49:40.69	229.55	12.85	-32.0	-32.6	25.1	0.00e+00	0	25	0	3878682624	36	6170
2026-01-09 17:49:44.73	229.36	12.47	-32.1	-32.9	24.9	0.00e+00	0	25	0	3900702720	36	6340
2026-01-09 17:49:48.76	229.17	12.09	-32.4	-33.0	24.7	0.00e+00	0	25	0	3923771392	36	6409
2026-01-09 17:49:52.81	228.98	11.72	-32.6	-33.3	24.4	0.00e+00	0	25	0	3946840064	36	6620
2026-01-09 17:49:56.84	228.80	11.36	-32.8	-33.5	24.3	0.00e+00	0	25	0	3968860160	38	6054
2026-01-09 17:50:00.88	228.62	11.00	-33.2	-33.8	23.9	0.00e+00	0	25	0	3991928832	38	6285
2026-01-09 17:50:04.92	228.45	10.64	-33.4	-34.2	23.6	0.00e+00	0	25	0	4014997504	38	6605
2026-01-09 17:50:08.96	228.29	10.29	-33.6	-34.3	23.4	0.00e+00	0	25	0	4037017600	40	5925
2026-01-09 17:50:13.00	228.12	9.95	-34.0	-34.8	23.1	0.00e+00	0	25	0	4060086272	40	6276
2026-01-09 17:50:17.03	227.96	9.61	-34.2	-34.9	22.8	0.00e+00	0	25	0	4083154944	40	6352
2026-01-09 17:50:21.07	227.81	9.27	-34.7	-35.4	22.2	0.00e+00	0	25	0	4105175040	40	6732
2026-01-09 17:50:25.12	227.66	8.94	-34.6	-35.5	22.3	0.00e+00	0	25	0	4128243712	42	6074
2026-01-09 17:50:29.15	227.51	8.61	-35.0	-35.9	21.9	0.00e+00	0	25	0	4151312384	42	6365
2026-01-09 17:50:33.18	227.37	8.29	-35.3	-36.3	21.6	0.00e+00	0	25	0	4173332480	42	6625
2026-01-09 17:50:37.22	227.22	7.97	-35.6	-36.5	21.3	0.00e+00	0	25	0	4196401152	42	6832
2026-01-09 17:50:41.26	227.09	7.65	-35.7	-36.5	21.1	0.00e+00	0	25	0	4219469824	42	6840
2026-01-09 17:50:45.30	226.95	7.34	-36.1	-36.9	20.5	0.00e+00	0	25	0	4241489920	44	6370
2026-01-09 17:50:49.34	226.82	7.03	-36.2	-37.0	20.4	0.00e+00	0	25	0	4264558592	44	6427
2026-01-09 17:50:53.38	226.69	6.72	-36.3	-37.3	20.2	0.00e+00	0	25	0	4287627264	44	6652
2026-01-09 17:50:57.42	226.57	6.42	-36.5	-37.4	19.9	0.00e+00	0	25	0	4309647360	44	6726
2026-01-09 17:51:01.45	226.45	6.12	-36.7	-37.7	19.7	0.00e+00	0	25	0	4332716032	46	6182
2026-01-09 17:51:05.49	226.33	5.83	-36.9	-38.0	19.4	0.00e+00	0	25	0	4355784704	46	6393
2026-01-09 17:51:09.53	226.21	5.54	-37.0	-38.1	19.1	0.00e+00	0	25	0	4377804800	46	6529
2026-01-09 17:51:13.57	226.10	5.25	-37.2	-38.3	18.8	0.00e+00	0	25	0	4400873472	46	6620
2026-01-09 17:51:17.60	225.98	4.96	-37.5	-38.6	18.3	0.00e+00	0	25	0	4422893568	46	6916
2026-01-09 17:51:21.63	225.87	4.68	-37.7	-38.9	17.9	0.00e+00	0	25	0	4445962240	48	6323
2026-01-09 17:51:25.67	225.77	4.40	-37.8	-39.0	17.6	0.00e+00	0	25	0	4469030912	48	6457
2026-01-09 17:51:29.71	225.66	4.12	-37.9	-39.1	17.4	0.00e+00	0	25	0	4492099584	48	6535
2026-01-09 17:51:33.75	225.56	3.85	-38.0	-39.2	17.2	0.00e+00	0	25	0	4514119680	48	6607
2026-01-09 17:51:37.79	225.46	3.58	-38.6	-40.0	16.3	0.00e+00	0	25	0	4537188352	48	7186
2026-01-09 17:51:41.83	225.36	3.31	-38.4	-39.7	16.6	0.00e+00	0	25	0	4560257024	48	7005
2026-01-09 17:51:45.87	225.26	3.04	-38.7	-40.1	16.0	0.00e+00	0	25	0	4582277120	50	6516
2026-01-09 17:51:49.91	225.17	2.77	-47.6	-59.7	3.6	8.46e-01	0	25	104	4585422848	60	34956
2026-01-09 17:51:53.95	225.07	2.51	-47.7	-59.9	3.6	8.44e-01	0	25	104	4585422848	60	35745
2026-01-09 17:51:57.99	224.98	2.25	-47.6	-59.8	3.6	8.46e-01	0	25	104	4585422848	60	35192
2026-01-09 17:52:02.02	224.89	2.00	-47.6	-59.6	3.6	8.46e-01	0	25	104	4585422848	60	34699
2026-01-09 17:52:06.06	224.81	1.74	-47.6	-59.7	3.6	8.46e-01	0	25	104	4585422848	60	35071
2026-01-09 17:52:10.10	224.72	1.49	-47.6	-59.8	3.6	8.46e-01	0	25	104	4585422848	60	35125
2026-01-09 17:52:14.14	224.64	1.24	-47.6	-59.7	3.6	8.45e-01	0	25	104	4585422848	60	34993
2026-01-09 17:52:18.19	224.55	0.99	-47.6	-59.8	3.6	8.45e-01	0	25	104	4585422848	60	35129
2026-01-09 17:52:22.23	224.47	0.74	-47.6	-59.7	3.6	8.45e-01	0	25	104	4585422848	60	35101
2026-01-09 17:52:26.27	224.39	0.50	-47.5	-59.7	3.6	8.45e-01	0	25	104	4585422848	60	34887
2026-01-09 17:52:30.30	224.32	0.25	-47.6	-59.7	3.6	8.45e-01	0	26	104	4585422848	60	34779
2026-01-09 17:52:34.34	224.24	0.01	-47.6	-59.7	3.6	8.44e-01	0	25	104	4585422848	60	34960

#Closed at: 2026-01-09 17:52:35
#Recorded file [4585 MB]: D:/lorett/data/35029_260110_053721.dat