passes_logs/2026/01/09/R4.6S_Anadyr/R4.6S_Anadyr__20260109_133716_NOAA_20_JPSS-1_rec.log

#Pass ID: 20260109_133716_NOAA 20 (JPSS-1)
#Satellite: NOAA 20 (JPSS-1)
#Configuration: NOAA 20
#almurnet v.1.7.20251203
#Start time: 2026-01-09 13:37:19

#Version: 2.2.20231116
#Station: R4.6S_Anadyr
#Location: 177.4865 lon 64.73178 lat
#TLE: 1 43013U 17073A   26008.91585656  .00000107  00000+0  71497-4 0  9999
#TLE: 2 43013  98.7631 309.9196 0001713  47.9261 312.2060 14.19534561421870

#Time	Az	El	Level	Level2	SNR	BER	BlckErr	Temp	State	Recorded	gain1	gain2
2026-01-09 13:37:19.17	19.04	0.15	-47.6	-62.6	3.5	1.51e+00	0	21	0	0	60	48539
2026-01-09 13:37:23.21	19.19	0.38	-47.6	-62.8	3.6	1.51e+00	0	22	104	0	60	49929
2026-01-09 13:37:27.25	19.34	0.62	-47.9	-63.2	3.6	1.51e+00	0	22	104	0	60	52042
2026-01-09 13:37:31.29	19.50	0.85	-47.8	-63.1	3.6	1.51e+00	0	22	104	0	60	51367
2026-01-09 13:37:35.32	19.65	1.09	-47.7	-62.9	3.6	1.51e+00	0	22	104	0	60	50397
2026-01-09 13:37:39.37	19.81	1.33	-47.8	-63.0	3.6	1.51e+00	0	22	104	0	60	50997
2026-01-09 13:37:43.41	19.98	1.57	-47.8	-63.1	3.6	1.51e+00	0	23	104	0	60	51381
2026-01-09 13:37:47.45	20.14	1.81	-47.8	-63.0	3.6	1.51e+00	0	23	104	0	60	51095
2026-01-09 13:37:51.49	20.31	2.06	-47.7	-62.9	3.6	1.51e+00	0	23	104	0	60	50450
2026-01-09 13:37:55.52	20.48	2.30	-47.6	-62.9	3.6	1.51e+00	0	23	104	0	60	50400
2026-01-09 13:37:59.56	20.65	2.55	-47.6	-62.9	3.6	1.51e+00	0	23	104	0	60	50261
2026-01-09 13:38:03.60	20.82	2.80	-47.7	-62.9	3.6	1.51e+00	0	23	104	0	60	50640
2026-01-09 13:38:07.63	21.00	3.06	-47.8	-63.0	3.6	1.51e+00	0	23	104	0	60	51068
2026-01-09 13:38:11.68	21.18	3.31	-47.7	-62.9	3.6	1.51e+00	0	23	104	0	60	50237
2026-01-09 13:38:15.72	21.36	3.57	-47.6	-62.8	3.6	1.51e+00	0	23	104	0	60	49991
2026-01-09 13:38:19.76	21.55	3.83	-47.6	-62.8	3.6	1.51e+00	0	23	104	0	60	49732
2026-01-09 13:38:23.79	21.74	4.09	-47.6	-62.9	3.6	1.51e+00	0	23	104	0	60	50374
2026-01-09 13:38:27.83	21.93	4.35	-47.7	-62.9	3.6	1.51e+00	0	23	104	0	60	50613
2026-01-09 13:38:31.87	22.12	4.62	-47.7	-62.9	3.5	1.51e+00	0	23	104	0	60	50338
2026-01-09 13:38:35.91	22.32	4.89	-47.7	-62.9	3.6	1.51e+00	0	23	104	0	60	50662
2026-01-09 13:38:39.95	22.52	5.16	-47.6	-62.8	3.6	1.51e+00	0	23	104	0	60	50171
2026-01-09 13:38:43.99	22.73	5.43	-47.6	-62.8	3.6	1.51e+00	0	23	104	0	60	50081
2026-01-09 13:38:48.03	22.93	5.71	-47.6	-62.8	3.6	1.51e+00	0	23	104	0	60	50020
2026-01-09 13:38:52.07	23.15	5.99	-47.6	-62.9	3.6	1.51e+00	0	23	104	0	60	50436
2026-01-09 13:38:56.11	23.36	6.27	-47.7	-62.9	3.6	1.51e+00	0	23	104	0	60	50704
2026-01-09 13:39:00.15	23.58	6.56	-47.7	-62.9	3.6	1.51e+00	0	23	104	0	60	50355
2026-01-09 13:39:04.18	23.80	6.84	-47.7	-62.9	3.6	1.51e+00	0	23	104	0	60	50607
2026-01-09 13:39:08.22	24.03	7.13	-47.7	-62.9	3.6	1.51e+00	0	23	104	0	60	50492
2026-01-09 13:39:12.26	24.26	7.43	-47.7	-62.9	3.6	1.51e+00	0	23	104	0	60	50668
2026-01-09 13:39:16.30	24.50	7.72	-47.7	-62.9	3.6	1.51e+00	0	23	104	0	60	50677
2026-01-09 13:39:20.34	24.74	8.02	-47.6	-62.8	3.6	1.51e+00	0	23	104	0	60	49941
2026-01-09 13:39:24.39	24.99	8.33	-47.7	-62.9	3.6	1.51e+00	0	23	104	0	60	50399
2026-01-09 13:39:28.42	25.24	8.63	-47.6	-62.8	3.6	1.51e+00	0	23	104	0	60	50031
2026-01-09 13:39:32.47	25.49	8.94	-47.6	-62.9	3.6	1.51e+00	0	23	104	0	60	50362
2026-01-09 13:39:36.51	25.75	9.26	-47.6	-62.8	3.6	1.51e+00	0	23	104	0	60	49786
2026-01-09 13:39:40.54	26.02	9.57	-47.6	-62.8	3.6	1.51e+00	0	23	104	0	60	49960
2026-01-09 13:39:44.58	26.29	9.89	-47.7	-62.9	3.6	1.51e+00	0	23	104	0	60	50347
2026-01-09 13:39:48.63	26.56	10.22	-47.6	-62.8	3.6	1.51e+00	0	23	104	0	60	49911
2026-01-09 13:39:52.66	26.85	10.54	-47.6	-62.8	3.6	1.51e+00	0	23	104	0	60	50178
2026-01-09 13:39:56.71	27.13	10.87	-47.6	-62.8	3.6	1.51e+00	0	23	104	0	60	49824
2026-01-09 13:40:00.75	27.43	11.21	-47.6	-62.8	3.5	1.51e+00	0	23	104	0	60	49899
2026-01-09 13:40:04.78	27.73	11.55	-47.7	-62.9	3.6	1.51e+00	0	23	104	0	60	50304
2026-01-09 13:40:08.82	28.04	11.89	-47.6	-62.9	3.6	1.51e+00	0	23	104	0	60	50497
2026-01-09 13:40:12.86	28.35	12.24	-47.6	-62.8	3.6	1.51e+00	0	23	104	0	60	50056
2026-01-09 13:40:16.90	28.67	12.59	-47.6	-62.9	3.6	1.51e+00	0	23	104	0	60	50197
2026-01-09 13:40:20.94	29.00	12.95	-47.6	-62.8	3.6	1.51e+00	0	23	104	0	60	49916
2026-01-09 13:40:24.98	29.34	13.31	-47.6	-62.9	3.6	1.51e+00	0	23	104	0	60	50204
2026-01-09 13:40:29.01	29.68	13.67	-47.6	-62.9	3.6	1.51e+00	0	23	104	0	60	50270
2026-01-09 13:40:33.05	30.03	14.04	-47.6	-62.8	3.6	1.51e+00	0	23	104	0	60	49841
2026-01-09 13:40:37.09	30.39	14.42	-47.7	-62.8	3.6	1.51e+00	0	23	104	0	60	50066
2026-01-09 13:40:41.12	30.76	14.79	-47.6	-62.8	3.5	1.51e+00	0	23	104	0	60	49961
2026-01-09 13:40:45.16	31.14	15.18	-47.6	-62.8	3.6	1.51e+00	0	23	104	0	60	49998
2026-01-09 13:40:49.20	31.53	15.57	-47.7	-62.9	3.5	1.51e+00	0	23	104	0	60	50270
2026-01-09 13:40:53.24	31.92	15.96	-47.8	-63.0	3.6	1.51e+00	0	23	104	0	60	50772
2026-01-09 13:40:57.28	32.33	16.36	-47.6	-62.8	3.5	1.51e+00	0	23	104	0	60	49819
2026-01-09 13:41:01.32	32.75	16.77	-47.6	-62.9	3.6	1.51e+00	0	23	104	0	60	50240
2026-01-09 13:41:05.35	33.18	17.18	-47.6	-62.8	3.6	1.51e+00	0	23	104	0	60	50126
2026-01-09 13:41:09.39	33.62	17.59	-47.6	-62.8	3.6	1.51e+00	0	24	104	0	60	50069
2026-01-09 13:41:13.43	34.07	18.01	-47.6	-62.8	3.6	1.51e+00	0	23	104	0	60	50108
2026-01-09 13:41:17.47	34.54	18.44	-47.6	-62.8	3.6	1.51e+00	0	23	104	0	60	49908
2026-01-09 13:41:21.52	35.02	18.88	-47.6	-62.8	3.6	1.51e+00	0	23	104	0	60	49899
2026-01-09 13:41:25.55	35.51	19.31	-47.6	-62.7	3.6	1.51e+00	0	23	104	0	60	49601
2026-01-09 13:41:29.59	36.01	19.76	-47.6	-62.8	3.6	1.51e+00	0	23	104	0	60	49785
2026-01-09 13:41:33.63	36.53	20.21	-47.7	-62.8	3.6	1.51e+00	0	23	104	0	60	49948
2026-01-09 13:41:37.67	37.06	20.66	-47.6	-62.8	3.6	1.51e+00	0	23	104	0	60	49997
2026-01-09 13:41:41.70	37.61	21.13	-47.6	-62.8	3.6	1.51e+00	0	23	104	0	60	50115
2026-01-09 13:41:45.74	38.18	21.59	-47.6	-62.8	3.6	1.51e+00	0	23	104	0	60	49666
2026-01-09 13:41:49.78	38.76	22.07	-47.6	-62.8	3.6	1.51e+00	0	23	104	0	60	49739
2026-01-09 13:41:53.81	39.36	22.55	-47.6	-62.8	3.6	1.51e+00	0	24	104	0	60	49763
2026-01-09 13:41:57.85	39.98	23.03	-47.6	-62.8	3.6	1.51e+00	0	23	104	0	60	49657
2026-01-09 13:42:01.89	40.62	23.53	-47.5	-62.8	3.6	1.51e+00	0	23	104	0	60	49657
2026-01-09 13:42:05.93	41.28	24.02	-47.6	-62.8	3.6	1.51e+00	0	23	104	0	60	49945
2026-01-09 13:42:09.96	41.95	24.53	-47.6	-62.8	3.6	1.51e+00	0	24	104	0	60	49634
2026-01-09 13:42:14.00	42.65	25.04	-47.6	-62.7	3.6	1.51e+00	0	24	104	0	60	49389
2026-01-09 13:42:18.04	43.38	25.55	-47.6	-62.8	3.6	1.51e+00	0	23	104	0	60	49638
2026-01-09 13:42:22.08	44.12	26.07	-47.6	-62.8	3.6	1.51e+00	0	24	104	0	60	49810
2026-01-09 13:42:26.12	44.89	26.60	-47.6	-62.8	3.6	1.51e+00	0	23	104	0	60	49671
2026-01-09 13:42:30.16	45.69	27.13	-47.6	-62.8	3.6	1.51e+00	0	23	104	0	60	49651
2026-01-09 13:42:34.21	46.51	27.66	-47.6	-62.7	3.6	1.51e+00	0	23	104	0	60	49522
2026-01-09 13:42:38.25	47.36	28.20	-47.6	-62.7	3.6	1.51e+00	0	24	104	0	60	49592
2026-01-09 13:42:42.29	48.24	28.74	-47.6	-62.8	3.6	1.51e+00	0	23	104	0	60	50097
2026-01-09 13:42:46.33	49.15	29.29	-47.6	-62.7	3.6	1.51e+00	0	23	104	0	60	49505
2026-01-09 13:42:50.36	50.08	29.84	-47.5	-62.7	3.6	1.51e+00	0	23	104	0	60	49425
2026-01-09 13:42:54.40	51.05	30.39	-47.5	-62.7	3.6	1.51e+00	0	23	104	0	60	49436
2026-01-09 13:42:58.44	52.06	30.94	-47.5	-62.7	3.6	1.51e+00	0	23	104	0	60	49192
2026-01-09 13:43:02.48	53.09	31.49	-47.4	-62.7	3.6	1.51e+00	0	23	104	0	60	49499
2026-01-09 13:43:06.52	54.17	32.05	-47.5	-62.7	3.6	1.51e+00	0	23	104	0	60	49251
2026-01-09 13:43:10.55	55.27	32.60	-47.5	-62.7	3.6	1.51e+00	0	23	104	0	60	49229
2026-01-09 13:43:14.59	56.42	33.15	-47.5	-62.7	3.6	1.51e+00	0	23	104	0	60	49240
2026-01-09 13:43:18.63	57.61	33.70	-47.5	-62.7	3.6	1.51e+00	0	23	104	0	60	49283
2026-01-09 13:43:22.67	58.83	34.24	-47.5	-62.7	3.6	1.51e+00	0	24	104	0	60	49450
2026-01-09 13:43:26.71	60.10	34.78	-47.5	-62.6	3.6	1.51e+00	0	24	104	0	60	49037
2026-01-09 13:43:30.75	61.41	35.31	-47.5	-62.7	3.6	1.51e+00	0	24	104	0	60	49183
2026-01-09 13:43:34.79	62.76	35.84	-47.4	-62.6	3.6	1.51e+00	0	23	104	0	60	48877
2026-01-09 13:43:38.82	64.15	36.35	-47.4	-62.6	3.6	1.51e+00	0	23	104	0	60	48740
2026-01-09 13:43:42.86	65.59	36.85	-47.5	-62.7	3.6	1.51e+00	0	23	104	0	60	49046
2026-01-09 13:43:46.90	67.07	37.34	-47.5	-62.6	3.6	1.51e+00	0	23	104	0	60	49035
2026-01-09 13:43:50.94	68.59	37.82	-47.4	-62.6	3.6	1.51e+00	0	23	104	0	60	48839
2026-01-09 13:43:54.98	70.16	38.28	-47.4	-62.6	3.6	1.51e+00	0	23	104	0	60	48910
2026-01-09 13:43:59.02	71.77	38.72	-47.4	-62.6	3.6	1.51e+00	0	23	104	0	60	48509
2026-01-09 13:44:03.06	73.43	39.14	-47.4	-62.6	3.6	1.51e+00	0	23	104	0	60	48953
2026-01-09 13:44:07.10	75.13	39.54	-47.4	-62.6	3.6	1.51e+00	0	23	104	0	60	48759
2026-01-09 13:44:11.14	76.87	39.92	-47.4	-62.6	3.6	1.51e+00	0	23	104	0	60	48870
2026-01-09 13:44:15.18	78.65	40.27	-47.4	-62.6	3.6	1.51e+00	0	23	104	0	60	48639
2026-01-09 13:44:19.22	80.46	40.59	-47.4	-62.5	3.6	1.51e+00	0	23	104	0	60	48359
2026-01-09 13:44:23.26	82.31	40.88	-47.3	-62.5	3.6	1.51e+00	0	23	104	0	60	48278
2026-01-09 13:44:27.30	84.19	41.14	-47.3	-62.5	3.6	1.51e+00	0	24	104	0	60	48323
2026-01-09 13:44:31.34	86.10	41.37	-47.3	-62.5	3.6	1.51e+00	0	23	104	0	60	48073
2026-01-09 13:44:35.38	88.03	41.57	-47.3	-62.5	3.6	1.51e+00	0	23	104	0	60	48220
2026-01-09 13:44:39.42	89.99	41.73	-47.3	-62.5	3.6	1.51e+00	0	23	104	0	60	48133
2026-01-09 13:44:43.46	91.96	41.85	-47.3	-62.5	3.6	1.51e+00	0	23	104	0	60	48178
2026-01-09 13:44:47.50	93.95	41.94	-47.3	-62.4	3.6	1.51e+00	0	23	104	0	60	47764
2026-01-09 13:44:51.54	95.94	41.98	-47.2	-62.5	3.6	1.51e+00	0	24	104	0	60	48022
2026-01-09 13:44:55.58	97.94	41.99	-47.2	-62.4	3.6	1.51e+00	0	24	104	0	60	47871
2026-01-09 13:44:59.62	99.94	41.96	-47.2	-62.4	3.6	1.51e+00	0	23	104	0	60	47831
2026-01-09 13:45:03.65	101.92	41.90	-47.2	-62.4	3.6	1.51e+00	0	23	104	0	60	47829
2026-01-09 13:45:07.69	103.90	41.79	-47.2	-62.4	3.6	1.51e+00	0	24	104	0	60	47619
2026-01-09 13:45:11.73	105.87	41.65	-47.2	-62.4	3.6	1.51e+00	0	23	104	0	60	47597
2026-01-09 13:45:15.77	107.82	41.48	-47.1	-62.3	3.6	1.51e+00	0	24	104	0	60	47242
2026-01-09 13:45:19.81	109.74	41.27	-47.1	-62.4	3.6	1.51e+00	0	23	104	0	60	47536
2026-01-09 13:45:23.84	111.64	41.02	-47.2	-62.3	3.6	1.51e+00	0	24	104	0	60	47296
2026-01-09 13:45:27.89	113.51	40.74	-47.1	-62.3	3.6	1.51e+00	0	23	104	0	60	47057
2026-01-09 13:45:31.93	115.35	40.44	-47.1	-62.3	3.6	1.51e+00	0	23	104	0	60	46990
2026-01-09 13:45:35.97	117.15	40.10	-47.1	-62.2	3.6	1.51e+00	0	23	104	0	60	46662
2026-01-09 13:45:40.01	118.91	39.74	-47.1	-62.3	3.6	1.51e+00	0	23	104	0	60	46891
2026-01-09 13:45:44.05	120.63	39.35	-47.0	-62.3	3.6	1.51e+00	0	23	104	0	60	46836
2026-01-09 13:45:48.08	122.31	38.94	-47.0	-62.2	3.6	1.51e+00	0	23	104	0	60	46748
2026-01-09 13:45:52.12	123.95	38.50	-47.0	-62.2	3.6	1.51e+00	0	23	104	0	60	46536
2026-01-09 13:45:56.16	125.54	38.05	-46.9	-62.2	3.6	1.51e+00	0	23	104	0	60	46355
2026-01-09 13:46:00.20	127.09	37.58	-46.8	-62.2	3.6	1.51e+00	0	23	104	0	60	46336
2026-01-09 13:46:04.24	128.60	37.09	-46.9	-62.2	3.6	1.51e+00	0	23	104	0	60	46328
2026-01-09 13:46:08.28	130.06	36.60	-46.8	-62.1	3.6	1.51e+00	0	23	104	0	60	46207
2026-01-09 13:46:12.32	131.48	36.08	-46.9	-62.1	3.6	1.51e+00	0	23	104	0	60	46140
2026-01-09 13:46:16.35	132.86	35.56	-46.9	-62.1	3.6	1.51e+00	0	23	104	0	60	46087
2026-01-09 13:46:20.39	134.19	35.03	-46.9	-62.1	3.6	1.51e+00	0	24	104	0	60	46101
2026-01-09 13:46:24.43	135.48	34.49	-46.9	-62.1	3.6	1.51e+00	0	23	104	0	60	45984
2026-01-09 13:46:28.47	136.73	33.95	-46.9	-62.1	3.6	1.51e+00	0	23	104	0	60	45826
2026-01-09 13:46:32.51	137.94	33.40	-46.9	-62.0	3.6	1.51e+00	0	23	104	0	60	45745
2026-01-09 13:46:36.54	139.11	32.85	-46.8	-62.0	3.6	1.51e+00	0	23	104	0	60	45716
2026-01-09 13:46:40.58	140.24	32.30	-46.8	-62.0	3.6	1.51e+00	0	23	104	0	60	45577
2026-01-09 13:46:44.62	141.33	31.74	-46.8	-62.0	3.6	1.51e+00	0	23	104	0	60	45308
2026-01-09 13:46:48.66	142.39	31.18	-46.8	-61.9	3.6	1.51e+00	0	23	104	0	60	45225
2026-01-09 13:46:52.70	143.41	30.63	-46.8	-62.0	3.6	1.51e+00	0	23	104	0	60	45298
2026-01-09 13:46:56.74	144.40	30.07	-46.8	-61.9	3.6	1.51e+00	0	23	104	0	60	45139
2026-01-09 13:47:00.78	145.36	29.52	-46.7	-61.9	3.6	1.51e+00	0	24	104	0	60	45083
2026-01-09 13:47:04.82	146.28	28.97	-46.7	-61.9	3.6	1.51e+00	0	23	104	0	60	45171
2026-01-09 13:47:08.86	147.18	28.42	-46.7	-61.9	3.6	1.51e+00	0	23	104	0	60	44821
2026-01-09 13:47:12.90	148.04	27.88	-46.7	-61.8	3.6	1.51e+00	0	23	104	0	60	44657
2026-01-09 13:47:16.94	148.88	27.34	-46.7	-61.8	3.6	1.51e+00	0	23	104	0	60	44320
2026-01-09 13:47:20.98	149.69	26.80	-46.6	-61.8	3.6	1.51e+00	0	23	104	0	60	44436
2026-01-09 13:47:25.02	150.47	26.27	-46.6	-61.8	3.6	1.51e+00	0	23	104	0	60	44230
2026-01-09 13:47:29.06	151.23	25.75	-46.5	-61.7	3.6	1.51e+00	0	23	104	0	60	44065
2026-01-09 13:47:33.09	151.97	25.23	-46.5	-61.7	3.6	1.51e+00	0	23	104	0	60	44000
2026-01-09 13:47:37.13	152.68	24.71	-46.5	-61.7	3.6	1.51e+00	0	23	104	0	60	43798
2026-01-09 13:47:41.17	153.37	24.20	-46.4	-61.6	3.6	1.51e+00	0	23	104	0	60	43564
2026-01-09 13:47:45.21	154.04	23.70	-46.4	-61.6	3.6	1.51e+00	0	23	104	0	60	43328
2026-01-09 13:47:49.25	154.68	23.20	-46.4	-61.6	3.6	1.51e+00	0	23	104	0	60	43557
2026-01-09 13:47:53.29	155.31	22.71	-46.4	-61.5	3.6	1.51e+00	0	23	104	0	60	43031
2026-01-09 13:47:57.33	155.92	22.22	-46.3	-61.5	3.6	1.51e+00	0	24	104	0	60	42894
2026-01-09 13:48:01.37	156.52	21.74	-46.3	-61.4	3.6	1.51e+00	0	23	104	0	60	42583
2026-01-09 13:48:05.41	157.09	21.27	-46.2	-61.3	3.6	1.51e+00	0	23	104	0	60	42186
2026-01-09 13:48:09.45	157.65	20.80	-46.2	-61.3	3.6	1.51e+00	0	24	104	0	60	42077
2026-01-09 13:48:13.49	158.19	20.34	-46.1	-61.3	3.6	1.51e+00	0	23	104	0	60	41794
2026-01-09 13:48:17.53	158.71	19.89	-46.8	-61.9	3.6	1.51e+00	0	23	104	0	60	45040
2026-01-09 13:48:21.57	159.23	19.44	-47.5	-62.7	3.6	1.51e+00	0	23	104	0	60	49166
2026-01-09 13:48:25.61	159.72	18.99	-47.5	-62.8	3.6	1.51e+00	0	24	104	0	60	49921
2026-01-09 13:48:29.65	160.21	18.55	-47.7	-62.8	3.6	1.51e+00	0	23	104	0	60	50133
2026-01-09 13:48:33.69	160.68	18.12	-47.6	-62.9	3.6	1.51e+00	0	24	104	0	60	50421
2026-01-09 13:48:37.73	161.14	17.69	-47.6	-62.8	3.6	1.51e+00	0	24	104	0	60	50094
2026-01-09 13:48:41.76	161.58	17.28	-47.4	-62.4	3.6	1.51e+00	0	24	104	0	60	47888
2026-01-09 13:48:45.80	162.01	16.86	-42.4	-44.5	15.7	0.00e+00	0	23	0	3145728	56	7618
2026-01-09 13:48:49.84	162.44	16.45	-40.8	-42.3	19.2	3.50e-05	0	23	0	10485760	56	5913
2026-01-09 13:48:53.88	162.85	16.05	-38.0	-39.0	22.2	0.00e+00	0	23	0	17825792	50	5744
2026-01-09 13:48:57.92	163.25	15.65	-36.9	-37.8	23.2	0.00e+00	0	23	0	25165824	46	6289
2026-01-09 13:49:01.95	163.64	15.25	-36.8	-37.8	23.3	0.00e+00	0	23	0	32505856	46	6247
2026-01-09 13:49:05.99	164.02	14.86	-36.9	-37.8	23.2	0.00e+00	0	23	0	40894464	46	6283
2026-01-09 13:49:10.03	164.39	14.48	-36.9	-37.9	23.2	0.00e+00	0	23	0	48234496	46	6336
2026-01-09 13:49:14.06	164.76	14.10	-37.0	-37.9	23.1	0.00e+00	0	23	0	55574528	46	6352
2026-01-09 13:49:18.10	165.11	13.73	-37.1	-38.1	22.8	0.00e+00	0	23	0	62914560	46	6491
2026-01-09 13:49:22.14	165.46	13.36	-37.5	-38.5	22.5	0.00e+00	0	23	0	71303168	46	6823
2026-01-09 13:49:26.18	165.80	13.00	-37.8	-38.8	22.2	0.00e+00	0	23	0	78643200	48	6295
2026-01-09 13:49:30.21	166.13	12.64	-37.9	-38.9	22.0	0.00e+00	0	23	0	85983232	48	6390
2026-01-09 13:49:34.24	166.45	12.28	-37.7	-38.8	22.2	0.00e+00	0	23	0	93323264	48	6268
2026-01-09 13:49:38.28	166.76	11.93	-37.2	-38.2	22.7	0.00e+00	0	23	0	100663296	48	5871
2026-01-09 13:49:42.32	167.07	11.58	-37.0	-37.9	23.0	0.00e+00	0	23	0	109051904	48	5690
2026-01-09 13:49:46.36	167.37	11.24	-37.0	-38.0	22.9	0.00e+00	0	23	0	116391936	48	5722
2026-01-09 13:49:50.39	167.67	10.90	-37.3	-38.3	22.6	0.00e+00	0	23	0	123731968	48	5923
2026-01-09 13:49:54.42	167.96	10.57	-37.7	-38.8	22.1	0.00e+00	0	23	0	131072000	48	6261
2026-01-09 13:49:58.46	168.24	10.24	-38.4	-39.5	21.4	0.00e+00	0	23	0	138412032	48	6819
2026-01-09 13:50:02.50	168.51	9.91	-38.7	-39.9	21.1	0.00e+00	0	23	0	146800640	48	7094
2026-01-09 13:50:06.53	168.79	9.59	-38.7	-39.9	20.9	0.00e+00	0	23	0	154140672	50	6346
2026-01-09 13:50:10.57	169.05	9.27	-38.9	-40.1	20.9	0.00e+00	0	23	0	161480704	50	6503
2026-01-09 13:50:14.61	169.31	8.95	-38.3	-39.4	21.4	0.00e+00	0	23	0	168820736	50	6028
2026-01-09 13:50:18.64	169.56	8.64	-38.2	-39.3	21.5	0.00e+00	0	23	0	177209344	50	5910
2026-01-09 13:50:22.68	169.81	8.33	-38.1	-39.2	21.6	0.00e+00	0	23	0	184549376	50	5843
2026-01-09 13:50:26.71	170.06	8.03	-38.0	-39.1	21.7	0.00e+00	0	23	0	191889408	50	5800
2026-01-09 13:50:30.75	170.30	7.72	-38.3	-39.4	21.4	0.00e+00	0	23	0	199229440	50	5990
2026-01-09 13:50:34.78	170.53	7.42	-38.3	-39.5	21.3	0.00e+00	0	23	0	206569472	50	6048
2026-01-09 13:50:38.82	170.76	7.13	-38.7	-39.9	20.9	0.00e+00	0	23	0	214958080	50	6318
2026-01-09 13:50:42.86	170.99	6.83	-38.9	-40.2	20.6	0.00e+00	0	23	0	222298112	50	6548
2026-01-09 13:50:46.90	171.21	6.54	-39.2	-40.5	20.1	0.00e+00	0	23	0	229638144	50	6837
2026-01-09 13:50:50.93	171.43	6.26	-39.6	-41.1	19.7	0.00e+00	0	23	0	236978176	50	7285
2026-01-09 13:50:54.97	171.65	5.97	-39.4	-40.8	19.8	0.00e+00	0	23	0	245366784	50	7067
2026-01-09 13:50:59.01	171.86	5.69	-39.6	-41.1	19.6	0.00e+00	0	23	0	252706816	50	7269
2026-01-09 13:51:03.05	172.06	5.41	-39.3	-40.7	19.9	0.00e+00	0	23	0	260046848	52	6203
2026-01-09 13:51:07.09	172.27	5.14	-39.4	-40.8	19.7	0.00e+00	0	23	0	267386880	52	6299
2026-01-09 13:51:11.13	172.47	4.86	-39.4	-40.8	19.6	0.00e+00	0	23	0	274726912	52	6279
2026-01-09 13:51:15.16	172.66	4.59	-39.0	-40.3	20.2	0.00e+00	0	23	0	283115520	52	5952
2026-01-09 13:51:19.20	172.86	4.32	-39.2	-40.6	19.8	0.00e+00	0	23	0	290455552	52	6165
2026-01-09 13:51:23.24	173.05	4.06	-39.1	-40.4	19.9	0.00e+00	0	23	0	297795584	52	6022
2026-01-09 13:51:27.27	173.23	3.79	-38.8	-40.2	20.1	0.00e+00	0	23	0	305135616	52	5835
2026-01-09 13:51:31.31	173.41	3.53	-39.3	-40.8	19.5	0.00e+00	0	23	0	313524224	50	7031
2026-01-09 13:51:35.35	173.60	3.27	-38.9	-40.3	19.9	0.00e+00	0	23	0	320864256	50	6622
2026-01-09 13:51:39.38	173.77	3.01	-41.3	-43.6	15.6	0.00e+00	0	23	0	328204288	50	9750
2026-01-09 13:51:43.42	173.95	2.76	-47.5	-62.6	3.6	1.51e+00	0	23	104	328204288	60	48881
2026-01-09 13:51:47.47	174.12	2.50	-47.6	-62.8	3.6	1.51e+00	0	23	104	328204288	60	50052
2026-01-09 13:51:51.50	174.29	2.25	-47.6	-62.8	3.6	1.51e+00	0	23	104	328204288	60	49750
2026-01-09 13:51:55.54	174.45	2.01	-47.6	-62.8	3.6	1.51e+00	0	23	104	328204288	60	49884
2026-01-09 13:51:59.59	174.62	1.76	-47.5	-62.8	3.6	1.51e+00	0	23	104	328204288	60	49985
2026-01-09 13:52:03.62	174.78	1.51	-47.5	-62.8	3.6	1.51e+00	0	23	104	328204288	60	49626
2026-01-09 13:52:07.66	174.94	1.27	-47.5	-62.7	3.6	1.51e+00	0	23	104	328204288	60	49381
2026-01-09 13:52:11.70	175.10	1.03	-47.5	-62.8	3.6	1.51e+00	0	23	104	328204288	60	49630
2026-01-09 13:52:15.74	175.25	0.79	-47.5	-62.7	3.6	1.51e+00	0	23	104	328204288	60	49310
2026-01-09 13:52:19.78	175.40	0.55	-47.5	-62.7	3.6	1.51e+00	0	23	104	328204288	60	49577
2026-01-09 13:52:23.81	175.55	0.32	-47.5	-62.8	3.6	1.51e+00	0	23	104	328204288	60	49635
2026-01-09 13:52:27.85	175.70	0.08	-47.5	-62.7	3.6	1.51e+00	0	23	104	328204288	60	49317

#Closed at: 2026-01-09 13:52:29
#Recorded file [328 MB]: D:/lorett/data/35029_260110_013719.dat