passes_logs/2026/01/09/R4.6S_Anadyr/R4.6S_Anadyr__20260109_124652_NOAA_21_JPSS-2_rec.log

#Pass ID: 20260109_124652_NOAA 21 (JPSS-2)
#Satellite: NOAA 21 (JPSS-2)
#Configuration: NOAA-21
#almurnet v.1.7.20251203
#Start time: 2026-01-09 12:46:54

#Version: 2.2.20231116
#Station: R4.6S_Anadyr
#Location: 177.4865 lon 64.73178 lat
#TLE: 1 54234U 22150A   26008.59854928  .00000127  00000+0  81204-4 0  9992
#TLE: 2 54234  98.7494 309.5759 0000887 327.7487  32.3634 14.19533414163905

#Time	Az	El	Level	Level2	SNR	BER	BlckErr	Temp	State	Recorded	gain1	gain2
2026-01-09 12:46:54.17	18.77	0.07	-47.9	-49.4	5.7	7.61e-01	0	21	0	0	60	36265
2026-01-09 12:46:58.20	19.02	0.29	-47.8	-60.6	3.5	1.52e+00	0	23	104	0	60	37819
2026-01-09 12:47:02.24	19.27	0.50	-47.8	-60.6	3.5	1.52e+00	0	23	104	0	60	37737
2026-01-09 12:47:06.28	19.53	0.71	-47.4	-60.3	3.5	1.52e+00	0	23	104	0	60	36226
2026-01-09 12:47:10.32	19.79	0.93	-46.5	-59.3	3.5	1.52e+00	0	23	104	0	60	32547
2026-01-09 12:47:14.36	20.06	1.14	-46.1	-58.8	3.5	1.52e+00	0	23	104	0	60	30679
2026-01-09 12:47:18.40	20.32	1.36	-46.1	-58.9	3.5	1.52e+00	0	23	104	0	60	30747
2026-01-09 12:47:22.43	20.59	1.58	-46.0	-58.9	3.5	1.51e+00	0	23	104	0	60	31041
2026-01-09 12:47:26.47	20.87	1.80	-46.0	-58.7	3.5	1.52e+00	0	24	104	0	60	30323
2026-01-09 12:47:30.51	21.15	2.02	-46.0	-58.9	3.5	1.52e+00	0	24	104	0	60	30765
2026-01-09 12:47:34.54	21.43	2.24	-46.0	-58.8	3.5	1.52e+00	0	24	104	0	60	30579
2026-01-09 12:47:38.58	21.72	2.46	-45.9	-57.3	3.5	1.51e+00	0	24	104	0	60	25866
2026-01-09 12:47:42.62	22.01	2.69	-44.2	-48.5	9.3	7.15e-02	123	24	0	1048576	60	9344
2026-01-09 12:47:46.66	22.31	2.91	-37.6	-39.0	19.0	0.00e+00	123	24	0	13631488	48	6215
2026-01-09 12:47:50.69	22.61	3.14	-38.5	-40.0	18.0	0.00e+00	123	23	0	26214400	48	7014
2026-01-09 12:47:54.73	22.91	3.37	-44.0	-48.4	4.5	0.00e+00	123	24	0	38797312	54	12987
2026-01-09 12:47:58.76	23.22	3.59	-38.5	-40.0	18.3	0.00e+00	120	24	0	45088768	50	6221
2026-01-09 12:48:02.80	23.53	3.83	-36.7	-37.9	20.2	0.00e+00	120	24	0	57671680	46	6142
2026-01-09 12:48:06.84	23.85	4.06	-36.3	-37.5	20.6	0.00e+00	122	24	0	70254592	46	5863
2026-01-09 12:48:10.88	24.17	4.29	-36.1	-37.2	20.9	0.00e+00	120	24	0	82837504	46	5702
2026-01-09 12:48:14.92	24.50	4.53	-36.3	-37.4	20.8	0.00e+00	122	24	0	95420416	46	5834
2026-01-09 12:48:18.96	24.83	4.76	-36.1	-37.2	20.9	0.00e+00	122	24	0	108003328	46	5701
2026-01-09 12:48:22.99	25.17	5.00	-35.9	-37.0	21.1	0.00e+00	123	24	0	120586240	46	5556
2026-01-09 12:48:27.03	25.51	5.24	-35.9	-37.0	21.1	0.00e+00	122	24	0	133169152	46	5584
2026-01-09 12:48:31.07	25.86	5.48	-36.0	-37.1	21.2	0.00e+00	123	24	0	145752064	46	5620
2026-01-09 12:48:35.11	26.21	5.72	-36.0	-37.0	21.3	0.00e+00	123	24	0	158334976	46	5589
2026-01-09 12:48:39.15	26.57	5.96	-35.8	-36.9	21.4	0.00e+00	123	24	0	170917888	46	5475
2026-01-09 12:48:43.19	26.94	6.20	-35.7	-36.8	21.4	0.00e+00	120	24	0	183500800	44	6099
2026-01-09 12:48:47.22	27.31	6.45	-35.7	-36.7	21.6	0.00e+00	123	24	0	196083712	44	6064
2026-01-09 12:48:51.26	27.68	6.70	-35.7	-36.8	21.6	0.00e+00	122	24	0	208666624	44	6072
2026-01-09 12:48:55.30	28.06	6.94	-35.6	-36.7	21.7	0.00e+00	122	24	0	221249536	44	6029
2026-01-09 12:48:59.33	28.45	7.19	-35.6	-36.7	21.7	0.00e+00	123	24	0	233832448	44	6002
2026-01-09 12:49:03.37	28.85	7.44	-35.4	-36.4	21.9	0.00e+00	123	24	0	246415360	44	5858
2026-01-09 12:49:07.41	29.25	7.70	-35.4	-36.4	22.0	0.00e+00	122	24	0	258998272	44	5824
2026-01-09 12:49:11.45	29.66	7.95	-35.2	-36.2	22.2	0.00e+00	123	24	0	272629760	44	5718
2026-01-09 12:49:15.49	30.07	8.20	-35.3	-36.3	22.1	0.00e+00	123	24	0	285212672	44	5751
2026-01-09 12:49:19.52	30.49	8.46	-35.1	-36.2	22.3	0.00e+00	123	24	0	297795584	44	5673
2026-01-09 12:49:23.56	30.92	8.72	-35.0	-36.0	22.4	0.00e+00	123	24	0	310378496	44	5576
2026-01-09 12:49:27.60	31.36	8.98	-35.0	-36.0	22.5	0.00e+00	122	24	0	322961408	44	5546
2026-01-09 12:49:31.64	31.80	9.24	-34.8	-35.8	22.7	0.00e+00	122	24	0	335544320	42	6071
2026-01-09 12:49:35.68	32.26	9.50	-34.6	-35.6	22.7	0.00e+00	122	24	0	348127232	42	5933
2026-01-09 12:49:39.71	32.71	9.76	-34.5	-35.4	22.9	0.00e+00	123	24	0	360710144	42	5856
2026-01-09 12:49:43.75	33.18	10.02	-34.4	-35.4	22.9	0.00e+00	120	24	0	373293056	42	5810
2026-01-09 12:49:47.79	33.66	10.29	-34.1	-35.1	23.2	0.00e+00	122	24	0	385875968	42	5610
2026-01-09 12:49:51.83	34.14	10.56	-34.2	-35.2	23.1	0.00e+00	122	24	0	398458880	42	5681
2026-01-09 12:49:55.87	34.63	10.82	-34.0	-34.9	23.4	0.00e+00	122	24	0	411041792	42	5504
2026-01-09 12:49:59.91	35.14	11.09	-33.9	-34.8	23.5	0.00e+00	122	24	0	423624704	42	5436
2026-01-09 12:50:03.94	35.64	11.36	-33.6	-34.5	23.8	0.00e+00	122	24	0	436207616	40	5902
2026-01-09 12:50:07.98	36.16	11.63	-33.4	-34.3	23.8	0.00e+00	122	24	0	448790528	40	5735
2026-01-09 12:50:12.01	36.69	11.90	-33.2	-34.1	24.1	0.00e+00	120	24	0	461373440	40	5600
2026-01-09 12:50:16.05	37.23	12.17	-33.3	-34.2	23.9	0.00e+00	123	24	0	473956352	40	5692
2026-01-09 12:50:20.09	37.78	12.45	-33.4	-34.3	23.8	0.00e+00	123	24	0	486539264	40	5755
2026-01-09 12:50:24.13	38.33	12.72	-33.3	-34.2	23.9	0.00e+00	120	24	0	499122176	40	5716
2026-01-09 12:50:28.17	38.90	12.99	-33.4	-34.3	24.0	0.00e+00	123	24	0	511705088	40	5741
2026-01-09 12:50:32.21	39.48	13.27	-33.6	-34.5	23.8	0.00e+00	122	24	0	524288000	40	5913
2026-01-09 12:50:36.25	40.07	13.54	-33.4	-34.4	23.9	0.00e+00	122	24	0	536870912	40	5796
2026-01-09 12:50:40.29	40.67	13.82	-33.3	-34.3	24.0	0.00e+00	120	24	0	549453824	40	5739
2026-01-09 12:50:44.33	41.28	14.10	-33.2	-34.1	24.1	0.00e+00	123	24	0	562036736	40	5656
2026-01-09 12:50:48.36	41.90	14.37	-33.2	-34.1	24.1	0.00e+00	122	24	0	574619648	40	5629
2026-01-09 12:50:52.40	42.53	14.65	-33.1	-34.0	24.1	0.00e+00	122	24	0	587202560	40	5559
2026-01-09 12:50:56.44	43.17	14.92	-33.0	-33.9	24.2	0.00e+00	123	24	0	599785472	40	5506
2026-01-09 12:51:00.48	43.83	15.20	-33.0	-33.9	24.4	0.00e+00	123	24	0	612368384	40	5512
2026-01-09 12:51:04.51	44.49	15.47	-33.0	-33.9	24.4	0.00e+00	123	24	0	624951296	40	5495
2026-01-09 12:51:08.55	45.17	15.75	-32.9	-33.9	24.3	0.00e+00	120	24	0	637534208	38	6139
2026-01-09 12:51:12.59	45.87	16.02	-32.8	-33.7	24.4	0.00e+00	120	24	0	651165696	38	6052
2026-01-09 12:51:16.63	46.57	16.30	-32.7	-33.6	24.4	0.00e+00	120	24	0	663748608	38	5983
2026-01-09 12:51:20.67	47.29	16.57	-32.8	-33.7	24.5	0.00e+00	120	24	0	676331520	38	6043
2026-01-09 12:51:24.71	48.02	16.84	-32.9	-33.8	24.5	0.00e+00	123	24	0	688914432	38	6080
2026-01-09 12:51:28.75	48.76	17.11	-33.0	-33.9	24.3	0.00e+00	122	24	0	701497344	38	6164
2026-01-09 12:51:32.78	49.51	17.38	-33.0	-33.9	24.4	0.00e+00	122	24	0	714080256	38	6201
2026-01-09 12:51:36.82	50.28	17.64	-33.2	-34.1	24.3	0.00e+00	123	24	0	726663168	38	6285
2026-01-09 12:51:40.86	51.06	17.91	-32.8	-33.7	24.6	0.00e+00	122	24	0	739246080	38	5999
2026-01-09 12:51:44.90	51.86	18.17	-32.9	-33.7	24.5	0.00e+00	123	24	0	751828992	38	6059
2026-01-09 12:51:48.94	52.66	18.43	-33.2	-34.1	24.2	0.00e+00	122	24	0	764411904	38	6306
2026-01-09 12:51:52.98	53.49	18.68	-33.3	-34.2	24.2	0.00e+00	123	24	0	776994816	38	6420
2026-01-09 12:51:57.02	54.32	18.94	-33.2	-34.1	24.4	0.00e+00	123	24	0	789577728	38	6280
2026-01-09 12:52:01.06	55.17	19.19	-33.4	-34.3	24.1	0.00e+00	122	24	0	802160640	38	6480
2026-01-09 12:52:05.10	56.03	19.43	-33.4	-34.4	24.0	0.00e+00	122	24	0	814743552	38	6510
2026-01-09 12:52:09.14	56.91	19.67	-33.2	-34.1	24.3	0.00e+00	120	24	0	827326464	38	6325
2026-01-09 12:52:13.18	57.80	19.91	-33.0	-33.9	24.3	0.00e+00	123	24	0	839909376	38	6156
2026-01-09 12:52:17.22	58.70	20.14	-33.0	-33.9	24.5	0.00e+00	122	24	0	852492288	38	6195
2026-01-09 12:52:21.25	59.61	20.37	-32.8	-33.7	24.7	0.00e+00	120	24	0	865075200	38	6036
2026-01-09 12:52:25.28	60.54	20.59	-32.8	-33.7	24.6	0.00e+00	120	24	0	877658112	38	6025
2026-01-09 12:52:29.32	61.48	20.81	-32.6	-33.6	24.8	0.00e+00	123	24	0	890241024	38	5933
2026-01-09 12:52:33.35	62.44	21.02	-32.4	-33.2	24.9	0.00e+00	122	24	0	902823936	38	5715
2026-01-09 12:52:37.39	63.41	21.23	-32.6	-33.5	24.8	0.00e+00	122	24	0	915406848	38	5882
2026-01-09 12:52:41.43	64.39	21.42	-32.4	-33.3	24.9	0.00e+00	123	24	0	927989760	38	5738
2026-01-09 12:52:45.46	65.38	21.61	-32.7	-33.6	24.6	0.00e+00	120	24	0	940572672	38	5947
2026-01-09 12:52:49.49	66.38	21.80	-32.5	-33.3	25.0	0.00e+00	121	24	0	953155584	38	5780
2026-01-09 12:52:53.53	67.40	21.97	-32.5	-33.4	24.8	0.00e+00	122	24	0	965738496	38	5811
2026-01-09 12:52:57.57	68.42	22.14	-32.7	-33.5	24.9	0.00e+00	120	24	0	978321408	38	5905
2026-01-09 12:53:01.60	69.46	22.30	-32.4	-33.2	24.9	0.00e+00	123	24	0	990904320	38	5723
2026-01-09 12:53:05.64	70.51	22.45	-32.4	-33.3	24.7	0.00e+00	123	24	0	1003487232	38	5784
2026-01-09 12:53:09.68	71.57	22.60	-32.2	-33.1	24.8	0.00e+00	123	24	0	1016070144	38	5633
2026-01-09 12:53:13.71	72.63	22.73	-32.3	-33.2	24.7	0.00e+00	122	24	0	1028653056	38	5704
2026-01-09 12:53:17.74	73.71	22.85	-32.3	-33.2	25.0	0.00e+00	123	24	0	1042284544	38	5698
2026-01-09 12:53:21.78	74.79	22.97	-32.5	-33.4	24.9	0.00e+00	123	24	0	1054867456	38	5804
2026-01-09 12:53:25.82	75.88	23.07	-32.3	-33.2	24.9	0.00e+00	122	24	0	1067450368	38	5678
2026-01-09 12:53:29.86	76.98	23.16	-32.4	-33.3	24.9	0.00e+00	123	24	0	1080033280	38	5745
2026-01-09 12:53:33.90	78.09	23.25	-32.3	-33.2	24.9	0.00e+00	123	24	0	1092616192	38	5670
2026-01-09 12:53:37.93	79.20	23.32	-32.1	-33.0	25.0	0.00e+00	122	24	0	1105199104	38	5543
2026-01-09 12:53:41.97	80.31	23.38	-32.3	-33.2	24.9	0.00e+00	120	24	0	1117782016	38	5725
2026-01-09 12:53:46.01	81.43	23.43	-32.4	-33.3	24.9	0.00e+00	122	24	0	1130364928	38	5742
2026-01-09 12:53:50.04	82.55	23.47	-32.3	-33.2	25.0	0.00e+00	120	24	0	1142947840	38	5701
2026-01-09 12:53:54.08	83.68	23.50	-32.1	-33.0	25.1	0.00e+00	122	24	0	1155530752	38	5543
2026-01-09 12:53:58.12	84.81	23.52	-32.4	-33.2	25.1	0.00e+00	123	24	0	1168113664	38	5713
2026-01-09 12:54:02.16	85.93	23.52	-32.4	-33.3	24.8	0.00e+00	123	24	0	1180696576	38	5750
2026-01-09 12:54:06.20	87.06	23.52	-32.2	-33.1	25.1	0.00e+00	122	24	0	1193279488	38	5637
2026-01-09 12:54:10.24	88.19	23.50	-32.3	-33.2	24.9	0.00e+00	123	24	0	1205862400	38	5674
2026-01-09 12:54:14.28	89.32	23.47	-31.9	-32.8	25.1	0.00e+00	122	24	0	1218445312	38	5413
2026-01-09 12:54:18.32	90.44	23.43	-31.9	-32.8	25.3	0.00e+00	122	24	0	1231028224	38	5411
2026-01-09 12:54:22.36	91.56	23.38	-32.0	-32.8	25.1	0.00e+00	122	24	0	1243611136	38	5447
2026-01-09 12:54:26.40	92.68	23.32	-31.6	-32.4	25.4	0.00e+00	123	24	0	1256194048	36	5844
2026-01-09 12:54:30.44	93.79	23.25	-31.8	-32.6	25.3	0.00e+00	120	24	0	1268776960	36	5970
2026-01-09 12:54:34.48	94.90	23.17	-31.9	-32.8	25.2	0.00e+00	122	24	0	1281359872	36	6106
2026-01-09 12:54:38.52	96.00	23.07	-32.0	-32.9	25.2	0.00e+00	123	24	0	1293942784	36	6170
2026-01-09 12:54:42.56	97.09	22.97	-32.1	-33.0	25.1	0.00e+00	123	24	0	1306525696	36	6236
2026-01-09 12:54:46.60	98.18	22.85	-32.4	-33.3	24.9	0.00e+00	120	24	0	1319108608	36	6467
2026-01-09 12:54:50.63	99.26	22.73	-32.3	-33.2	24.9	0.00e+00	123	24	0	1331691520	36	6406
2026-01-09 12:54:54.67	100.33	22.60	-32.1	-32.9	25.1	0.00e+00	121	24	0	1344274432	36	6197
2026-01-09 12:54:58.71	101.39	22.45	-32.4	-33.3	24.9	0.00e+00	122	24	0	1356857344	36	6453
2026-01-09 12:55:02.76	102.44	22.30	-32.2	-33.1	25.0	0.00e+00	123	24	0	1369440256	36	6323
2026-01-09 12:55:06.79	103.48	22.14	-32.3	-33.1	25.0	0.00e+00	122	24	0	1383071744	36	6330
2026-01-09 12:55:10.83	104.51	21.97	-32.5	-33.4	24.8	0.00e+00	123	24	0	1395654656	36	6560
2026-01-09 12:55:14.87	105.53	21.80	-32.5	-33.4	24.8	0.00e+00	122	24	0	1408237568	36	6540
2026-01-09 12:55:18.91	106.54	21.61	-32.6	-33.5	24.7	0.00e+00	122	24	0	1420820480	36	6578
2026-01-09 12:55:22.95	107.54	21.42	-32.5	-33.4	24.8	0.00e+00	120	24	0	1433403392	36	6510
2026-01-09 12:55:26.99	108.52	21.22	-32.5	-33.3	24.7	0.00e+00	120	24	0	1445986304	36	6493
2026-01-09 12:55:31.03	109.49	21.01	-32.6	-33.5	24.7	0.00e+00	123	24	0	1458569216	36	6603
2026-01-09 12:55:35.06	110.45	20.80	-32.6	-33.5	24.8	0.00e+00	122	24	0	1471152128	38	5863
2026-01-09 12:55:39.10	111.40	20.58	-32.3	-33.1	25.0	0.00e+00	122	24	0	1483735040	38	5650
2026-01-09 12:55:43.14	112.33	20.36	-32.6	-33.5	24.8	0.00e+00	122	24	0	1496317952	38	5876
2026-01-09 12:55:47.18	113.25	20.13	-32.6	-33.5	24.8	0.00e+00	123	24	0	1508900864	38	5890
2026-01-09 12:55:51.21	114.15	19.90	-32.6	-33.5	24.8	0.00e+00	123	24	0	1521483776	38	5872
2026-01-09 12:55:55.26	115.05	19.66	-32.8	-33.7	24.6	0.00e+00	123	24	0	1534066688	38	6051
2026-01-09 12:55:59.30	115.93	19.41	-32.7	-33.6	24.6	0.00e+00	123	24	0	1546649600	38	5975
2026-01-09 12:56:03.34	116.79	19.17	-32.6	-33.4	24.5	0.00e+00	120	24	0	1559232512	38	5855
2026-01-09 12:56:07.37	117.64	18.92	-32.3	-33.2	24.9	0.00e+00	120	24	0	1571815424	38	5682
2026-01-09 12:56:11.41	118.48	18.66	-32.5	-33.4	24.6	0.00e+00	120	24	0	1584398336	38	5814
2026-01-09 12:56:15.45	119.31	18.40	-32.7	-33.6	24.4	0.00e+00	123	24	0	1596981248	38	5977
2026-01-09 12:56:19.48	120.11	18.14	-32.6	-33.5	24.7	0.00e+00	123	24	0	1609564160	38	5883
2026-01-09 12:56:23.52	120.91	17.88	-32.5	-33.4	24.8	0.00e+00	123	24	0	1622147072	38	5835
2026-01-09 12:56:27.56	121.70	17.61	-32.8	-33.6	24.5	0.00e+00	122	24	0	1634729984	38	5987
2026-01-09 12:56:31.60	122.47	17.35	-32.7	-33.6	24.6	0.00e+00	124	24	0	1647312896	38	5991
2026-01-09 12:56:35.63	123.22	17.08	-32.7	-33.6	24.6	0.00e+00	122	24	0	1659895808	38	5964
2026-01-09 12:56:39.67	123.97	16.81	-32.9	-33.8	24.4	0.00e+00	123	24	0	1672478720	38	6111
2026-01-09 12:56:43.71	124.70	16.53	-32.9	-33.8	24.5	0.00e+00	122	24	0	1685061632	38	6111
2026-01-09 12:56:47.75	125.42	16.26	-32.9	-33.8	24.5	0.00e+00	123	24	0	1697644544	38	6096
2026-01-09 12:56:51.78	126.12	15.98	-32.8	-33.7	24.6	0.00e+00	123	24	0	1710227456	38	6026
2026-01-09 12:56:55.81	126.82	15.71	-33.1	-34.0	24.1	0.00e+00	123	24	0	1722810368	38	6233
2026-01-09 12:56:59.86	127.50	15.43	-33.3	-34.2	24.0	0.00e+00	122	24	0	1735393280	38	6418
2026-01-09 12:57:03.89	128.17	15.15	-33.7	-34.6	23.7	0.00e+00	123	24	0	1749024768	38	6725
2026-01-09 12:57:07.93	128.83	14.87	-33.6	-34.5	23.8	0.00e+00	123	24	0	1760559104	40	5921
2026-01-09 12:57:11.97	129.47	14.60	-33.7	-34.6	23.6	0.00e+00	123	24	0	1774190592	40	5975
2026-01-09 12:57:16.01	130.11	14.32	-33.5	-34.5	23.9	0.00e+00	123	24	0	1786773504	40	5888
2026-01-09 12:57:20.04	130.73	14.04	-33.3	-34.2	24.0	0.00e+00	123	24	0	1799356416	40	5715
2026-01-09 12:57:24.08	131.34	13.76	-33.7	-34.7	23.6	0.00e+00	122	24	0	1811939328	40	6016
2026-01-09 12:57:28.12	131.94	13.48	-34.0	-35.0	23.4	0.00e+00	121	24	0	1824522240	40	6239
2026-01-09 12:57:32.16	132.53	13.21	-34.1	-35.0	23.4	0.00e+00	123	24	0	1837105152	40	6267
2026-01-09 12:57:36.20	133.11	12.93	-33.9	-34.9	23.5	0.00e+00	122	24	0	1849688064	40	6185
2026-01-09 12:57:40.23	133.68	12.65	-33.7	-34.6	23.6	0.00e+00	123	24	0	1862270976	40	5978
2026-01-09 12:57:44.27	134.24	12.38	-34.1	-35.1	23.3	0.00e+00	123	24	0	1874853888	40	6295
2026-01-09 12:57:48.31	134.78	12.10	-34.4	-35.4	23.2	0.00e+00	122	24	0	1887436800	40	6510
2026-01-09 12:57:52.35	135.32	11.83	-34.2	-35.2	23.3	0.00e+00	123	24	0	1900019712	40	6360
2026-01-09 12:57:56.38	135.85	11.56	-34.2	-35.1	23.2	0.00e+00	122	24	0	1912602624	40	6328
2026-01-09 12:58:00.42	136.37	11.28	-34.1	-35.1	23.2	0.00e+00	123	24	0	1925185536	40	6335
2026-01-09 12:58:04.46	136.88	11.01	-34.2	-35.2	23.1	0.00e+00	123	24	0	1937768448	40	6353
2026-01-09 12:58:08.49	137.38	10.74	-34.3	-35.3	23.1	0.00e+00	123	24	0	1950351360	40	6432
2026-01-09 12:58:12.53	137.88	10.47	-34.2	-35.2	23.1	0.00e+00	123	24	0	1962934272	40	6366
2026-01-09 12:58:16.57	138.36	10.20	-34.4	-35.4	23.1	0.00e+00	122	24	0	1975517184	40	6518
2026-01-09 12:58:20.61	138.84	9.94	-34.4	-35.3	23.1	0.00e+00	123	24	0	1988100096	40	6488
2026-01-09 12:58:24.65	139.30	9.67	-34.6	-35.6	22.7	0.00e+00	123	24	0	2000683008	40	6684
2026-01-09 12:58:28.69	139.76	9.40	-35.2	-36.2	22.0	0.00e+00	122	24	0	2013265920	42	6414
2026-01-09 12:58:32.73	140.21	9.14	-36.0	-37.2	21.1	0.00e+00	120	24	0	2025848832	44	6359
2026-01-09 12:58:36.77	140.66	8.88	-36.9	-38.1	19.9	0.00e+00	122	24	0	2038431744	46	6336
2026-01-09 12:58:40.81	141.10	8.62	-37.5	-38.9	19.2	0.00e+00	123	24	0	2051014656	46	6898
2026-01-09 12:58:44.84	141.52	8.36	-37.6	-38.9	19.1	0.00e+00	120	24	0	2063597568	46	6962
2026-01-09 12:58:48.88	141.94	8.10	-37.4	-38.7	19.4	0.00e+00	122	24	0	2076180480	46	6767
2026-01-09 12:58:52.92	142.36	7.84	-37.3	-38.6	19.6	0.00e+00	123	24	0	2088763392	46	6699
2026-01-09 12:58:56.96	142.77	7.59	-36.9	-38.1	20.0	0.00e+00	120	24	0	2101346304	46	6333
2026-01-09 12:59:00.99	143.17	7.33	-36.7	-37.9	20.2	0.00e+00	120	24	0	2113929216	46	6170
2026-01-09 12:59:05.03	143.56	7.08	-36.9	-38.3	19.9	0.00e+00	123	24	0	2127560704	46	6439
2026-01-09 12:59:09.07	143.95	6.83	-36.8	-38.1	20.0	0.00e+00	120	24	0	2139095040	46	6331
2026-01-09 12:59:13.10	144.33	6.58	-36.8	-38.0	20.1	0.00e+00	122	24	0	2152726528	46	6219
2026-01-09 12:59:17.14	144.71	6.33	-36.9	-38.1	20.0	0.00e+00	123	24	0	2165309440	46	6326
2026-01-09 12:59:21.18	145.07	6.08	-37.0	-38.3	19.8	0.00e+00	123	24	0	2177892352	46	6452
2026-01-09 12:59:25.21	145.44	5.84	-36.7	-37.9	20.2	0.00e+00	123	24	0	2190475264	46	6144
2026-01-09 12:59:29.25	145.79	5.59	-36.8	-38.0	20.1	0.00e+00	123	24	0	2203058176	46	6275
2026-01-09 12:59:33.29	146.15	5.35	-36.8	-38.1	20.1	0.00e+00	123	24	0	2215641088	46	6281
2026-01-09 12:59:37.32	146.49	5.11	-36.8	-38.0	20.2	0.00e+00	121	24	0	2228224000	46	6245
2026-01-09 12:59:41.36	146.83	4.87	-37.2	-38.5	19.7	0.00e+00	120	24	0	2240806912	46	6590
2026-01-09 12:59:45.40	147.17	4.63	-37.4	-38.7	19.4	0.00e+00	122	24	0	2253389824	46	6782
2026-01-09 12:59:49.43	147.50	4.39	-37.6	-38.9	19.1	0.00e+00	122	24	0	2265972736	46	6940
2026-01-09 12:59:53.47	147.82	4.16	-37.1	-38.4	19.6	0.00e+00	122	24	0	2278555648	46	6548
2026-01-09 12:59:57.51	148.14	3.92	-37.2	-38.5	19.3	0.00e+00	120	24	0	2291138560	46	6631
2026-01-09 13:00:01.55	148.46	3.69	-37.3	-38.6	19.2	0.00e+00	123	24	0	2303721472	46	6695
2026-01-09 13:00:05.60	148.77	3.45	-37.4	-38.7	19.0	0.00e+00	123	24	0	2316304384	46	6787
2026-01-09 13:00:09.63	149.08	3.22	-37.4	-38.7	19.0	0.00e+00	120	24	0	2328887296	48	6054
2026-01-09 13:00:13.67	149.38	2.99	-45.6	-58.3	3.5	1.02e+00	0	24	104	2340421632	60	28888
2026-01-09 13:00:17.71	149.68	2.76	-47.4	-60.3	3.5	1.51e+00	0	25	104	2340421632	60	36475
2026-01-09 13:00:21.75	149.97	2.54	-47.8	-60.6	3.5	1.52e+00	0	24	104	2340421632	60	37769
2026-01-09 13:00:25.79	150.26	2.31	-47.8	-60.6	3.5	1.52e+00	0	24	104	2340421632	60	37699
2026-01-09 13:00:29.83	150.54	2.09	-47.7	-60.6	3.5	1.52e+00	0	24	104	2340421632	60	37537
2026-01-09 13:00:33.87	150.82	1.86	-47.6	-60.5	3.5	1.52e+00	0	24	104	2340421632	60	37231
2026-01-09 13:00:37.91	151.10	1.64	-47.7	-60.5	3.5	1.52e+00	0	25	104	2340421632	60	37274
2026-01-09 13:00:41.95	151.37	1.42	-47.7	-60.5	3.5	1.52e+00	0	25	104	2340421632	60	37318
2026-01-09 13:00:45.99	151.64	1.20	-47.6	-60.5	3.5	1.52e+00	0	24	104	2340421632	60	37020
2026-01-09 13:00:50.03	151.91	0.98	-47.7	-60.5	3.5	1.51e+00	0	25	104	2340421632	60	37365
2026-01-09 13:00:54.07	152.17	0.76	-47.7	-60.6	3.5	1.52e+00	0	25	104	2340421632	60	37755
2026-01-09 13:00:58.10	152.43	0.55	-47.7	-60.6	3.5	1.52e+00	0	24	104	2340421632	60	37498
2026-01-09 13:01:02.13	152.68	0.33	-47.7	-60.6	3.5	1.52e+00	0	24	104	2340421632	60	37577
2026-01-09 13:01:06.17	152.93	0.12	-47.8	-60.6	3.5	1.52e+00	0	25	104	2340421632	60	37618
2026-01-09 13:01:10.21	153.18	-0.10	-47.7	-60.5	3.5	1.52e+00	0	24	104	2340421632	60	37382

#Closed at: 2026-01-09 13:01:10
#Recorded file [2340 MB]: D:/lorett/data/35029_260110_004654.dat