passes_logs/2026/01/09/R4.6S_Anadyr/R4.6S_Anadyr__20260109_151743_NOAA_20_JPSS-1_rec.log

#Pass ID: 20260109_151743_NOAA 20 (JPSS-1)
#Satellite: NOAA 20 (JPSS-1)
#Configuration: NOAA 20
#almurnet v.1.7.20251203
#Start time: 2026-01-09 15:17:43

#Version: 2.2.20231116
#Station: R4.6S_Anadyr
#Location: 177.4865 lon 64.73178 lat
#TLE: 1 43013U 17073A   26008.91585656  .00000107  00000+0  71497-4 0  9999
#TLE: 2 43013  98.7631 309.9196 0001713  47.9261 312.2060 14.19534561421870

#Time	Az	El	Level	Level2	SNR	BER	BlckErr	Temp	State	Recorded	gain1	gain2
2026-01-09 15:17:43.89	21.89	0.04	-47.6	-62.5	3.5	1.51e+00	0	20	0	0	60	48438
2026-01-09 15:17:47.93	21.85	0.28	-47.6	-62.8	3.6	1.51e+00	0	22	104	0	60	50066
2026-01-09 15:17:51.97	21.80	0.52	-47.7	-62.9	3.6	1.51e+00	0	22	104	0	60	50607
2026-01-09 15:17:56.01	21.75	0.77	-47.6	-62.8	3.6	1.51e+00	0	22	104	0	60	49801
2026-01-09 15:18:00.04	21.70	1.01	-47.0	-62.2	3.6	1.51e+00	0	22	104	0	60	46811
2026-01-09 15:18:04.09	21.65	1.26	-46.2	-61.3	3.6	1.51e+00	0	22	104	0	60	41840
2026-01-09 15:18:08.12	21.60	1.51	-46.1	-60.8	3.6	1.51e+00	0	22	104	0	60	39820
2026-01-09 15:18:12.16	21.55	1.77	-46.2	-61.1	3.6	1.51e+00	0	22	104	0	60	41211
2026-01-09 15:18:16.20	21.49	2.02	-46.1	-61.3	3.6	1.51e+00	0	22	104	0	60	41790
2026-01-09 15:18:20.24	21.44	2.28	-46.1	-60.7	3.6	1.51e+00	0	22	104	0	60	39391
2026-01-09 15:18:24.28	21.38	2.54	-46.1	-59.4	3.6	1.50e+00	0	22	104	0	60	33861
2026-01-09 15:18:28.32	21.32	2.80	-46.0	-59.1	3.7	1.50e+00	0	22	104	0	60	32433
2026-01-09 15:18:32.36	21.26	3.07	-45.0	-50.7	9.0	4.32e-02	0	22	0	4194304	60	12431
2026-01-09 15:18:36.40	21.20	3.34	-42.4	-45.2	15.1	0.00e+00	0	22	0	11534336	58	7346
2026-01-09 15:18:40.44	21.14	3.61	-42.3	-44.9	15.3	0.00e+00	0	22	0	19922944	58	7112
2026-01-09 15:18:44.48	21.08	3.88	-42.2	-44.8	14.5	4.26e-01	0	22	104	23068672	56	7864
2026-01-09 15:18:48.52	21.01	4.15	-40.5	-42.3	17.2	1.85e-02	0	22	104	23068672	54	6671
2026-01-09 15:18:52.56	20.94	4.43	-39.8	-41.3	19.2	0.00e+00	0	22	0	29360128	52	6639
2026-01-09 15:18:56.60	20.88	4.71	-39.1	-40.4	20.0	0.00e+00	0	22	0	37748736	52	6018
2026-01-09 15:19:00.63	20.81	5.00	-38.8	-40.1	20.4	0.00e+00	0	22	0	45088768	52	5821
2026-01-09 15:19:04.68	20.73	5.28	-38.9	-40.2	20.4	0.00e+00	0	22	0	52428800	50	6590
2026-01-09 15:19:08.71	20.66	5.57	-38.8	-40.0	20.5	0.00e+00	0	22	0	59768832	50	6459
2026-01-09 15:19:12.75	20.59	5.87	-38.7	-39.9	20.7	0.00e+00	0	22	0	67108864	50	6349
2026-01-09 15:19:16.79	20.51	6.16	-38.6	-39.8	20.8	0.00e+00	0	22	0	75497472	50	6300
2026-01-09 15:19:20.83	20.43	6.46	-38.3	-39.5	21.2	0.00e+00	0	22	0	82837504	50	6078
2026-01-09 15:19:24.87	20.35	6.77	-38.4	-39.6	21.2	0.00e+00	0	22	0	90177536	50	6162
2026-01-09 15:19:28.91	20.26	7.07	-38.1	-39.3	21.4	0.00e+00	0	22	0	97517568	50	5916
2026-01-09 15:19:32.95	20.18	7.38	-38.0	-39.1	21.6	0.00e+00	0	22	0	105906176	50	5801
2026-01-09 15:19:36.99	20.09	7.70	-37.8	-38.9	21.8	0.00e+00	0	22	0	113246208	50	5664
2026-01-09 15:19:41.02	20.00	8.02	-37.9	-39.0	21.9	0.00e+00	0	22	0	120586240	48	6430
2026-01-09 15:19:45.06	19.91	8.34	-37.7	-38.8	21.9	0.00e+00	0	22	0	127926272	48	6280
2026-01-09 15:19:49.10	19.81	8.66	-37.6	-38.6	22.2	0.00e+00	0	22	0	135266304	48	6141
2026-01-09 15:19:53.14	19.71	8.99	-37.4	-38.4	22.4	0.00e+00	0	22	0	143654912	48	6018
2026-01-09 15:19:57.18	19.61	9.33	-37.2	-38.2	22.6	0.00e+00	0	22	0	150994944	48	5854
2026-01-09 15:20:01.21	19.51	9.67	-36.9	-37.9	22.9	0.00e+00	0	22	0	158334976	48	5631
2026-01-09 15:20:05.25	19.41	10.01	-36.9	-37.9	22.9	0.00e+00	0	22	0	165675008	48	5653
2026-01-09 15:20:09.29	19.30	10.36	-36.8	-37.8	23.0	0.00e+00	0	22	0	174063616	48	5579
2026-01-09 15:20:13.33	19.19	10.71	-36.7	-37.7	23.2	0.00e+00	0	22	0	181403648	46	6183
2026-01-09 15:20:17.37	19.07	11.07	-36.5	-37.4	23.4	0.00e+00	0	23	0	188743680	46	6005
2026-01-09 15:20:21.41	18.95	11.43	-36.5	-37.4	23.5	0.00e+00	0	22	0	196083712	46	5980
2026-01-09 15:20:25.45	18.83	11.80	-36.3	-37.2	23.7	0.00e+00	0	22	0	203423744	46	5851
2026-01-09 15:20:29.49	18.71	12.18	-36.2	-37.1	23.8	0.00e+00	0	22	0	211812352	46	5819
2026-01-09 15:20:33.53	18.58	12.56	-36.3	-37.2	23.6	0.00e+00	0	22	0	219152384	46	5892
2026-01-09 15:20:37.57	18.45	12.94	-35.9	-36.8	24.1	0.00e+00	0	22	0	226492416	46	5594
2026-01-09 15:20:41.60	18.31	13.33	-35.9	-36.7	24.1	0.00e+00	0	22	0	233832448	46	5566
2026-01-09 15:20:45.64	18.17	13.73	-35.9	-36.8	24.1	0.00e+00	0	22	0	242221056	46	5572
2026-01-09 15:20:49.68	18.02	14.13	-35.8	-36.7	24.1	0.00e+00	0	22	0	249561088	46	5517
2026-01-09 15:20:53.71	17.87	14.54	-35.6	-36.4	24.4	0.00e+00	0	22	0	256901120	44	6013
2026-01-09 15:20:57.75	17.72	14.96	-35.5	-36.3	24.4	0.00e+00	0	23	0	264241152	44	5939
2026-01-09 15:21:01.79	17.56	15.39	-35.4	-36.3	24.5	0.00e+00	0	22	0	271581184	44	5906
2026-01-09 15:21:05.83	17.40	15.82	-35.4	-36.2	24.6	0.00e+00	0	22	0	279969792	44	5890
2026-01-09 15:21:09.87	17.23	16.26	-35.3	-36.1	24.7	0.00e+00	0	22	0	287309824	44	5784
2026-01-09 15:21:13.90	17.05	16.70	-35.2	-36.0	24.8	0.00e+00	0	22	0	294649856	44	5708
2026-01-09 15:21:17.94	16.87	17.16	-35.3	-36.1	24.7	0.00e+00	0	22	0	301989888	44	5777
2026-01-09 15:21:21.99	16.69	17.62	-35.1	-35.9	24.9	0.00e+00	0	22	0	310378496	44	5682
2026-01-09 15:21:26.03	16.49	18.10	-35.1	-36.0	24.9	0.00e+00	0	22	0	317718528	44	5696
2026-01-09 15:21:30.07	16.29	18.58	-35.0	-35.8	25.1	0.00e+00	0	23	0	325058560	44	5573
2026-01-09 15:21:34.10	16.09	19.07	-35.1	-35.9	25.0	0.00e+00	0	22	0	332398592	44	5654
2026-01-09 15:21:38.14	15.87	19.57	-34.9	-35.7	25.1	0.00e+00	0	22	0	339738624	44	5530
2026-01-09 15:21:42.18	15.65	20.08	-34.9	-35.7	25.2	0.00e+00	0	22	0	348127232	44	5508
2026-01-09 15:21:46.22	15.42	20.60	-34.8	-35.6	25.2	0.00e+00	0	22	0	355467264	44	5476
2026-01-09 15:21:50.25	15.18	21.12	-34.8	-35.6	25.2	0.00e+00	0	22	0	362807296	42	6124
2026-01-09 15:21:54.29	14.93	21.67	-34.8	-35.6	25.3	0.00e+00	0	22	0	370147328	42	6154
2026-01-09 15:21:58.33	14.68	22.22	-34.8	-35.6	25.2	0.00e+00	0	23	0	378535936	42	6144
2026-01-09 15:22:02.37	14.41	22.78	-34.9	-35.7	25.2	0.00e+00	0	22	0	385875968	42	6207
2026-01-09 15:22:06.41	14.13	23.36	-35.0	-35.8	25.1	0.00e+00	0	23	0	393216000	42	6275
2026-01-09 15:22:10.45	13.84	23.94	-35.1	-35.9	25.1	0.00e+00	0	22	0	400556032	42	6332
2026-01-09 15:22:14.48	13.54	24.54	-35.4	-36.2	24.8	0.00e+00	0	22	0	407896064	42	6563
2026-01-09 15:22:18.52	13.23	25.16	-35.7	-36.5	24.6	0.00e+00	0	22	0	416284672	42	6799
2026-01-09 15:22:22.56	12.91	25.78	-36.0	-36.8	24.3	0.00e+00	0	22	0	423624704	44	6300
2026-01-09 15:22:26.60	12.57	26.42	-36.4	-37.2	23.9	0.00e+00	0	22	0	430964736	44	6614
2026-01-09 15:22:30.64	12.21	27.08	-37.1	-38.0	23.3	0.00e+00	0	23	0	438304768	46	6441
2026-01-09 15:22:34.68	11.84	27.75	-37.8	-38.9	22.4	0.00e+00	0	22	0	446693376	48	6332
2026-01-09 15:22:38.71	11.46	28.43	-38.3	-39.3	22.1	0.00e+00	0	22	0	454033408	48	6679
2026-01-09 15:22:42.75	11.05	29.14	-38.1	-39.2	22.3	0.00e+00	0	23	0	461373440	48	6549
2026-01-09 15:22:46.79	10.63	29.85	-38.3	-39.3	22.0	0.00e+00	0	22	0	468713472	48	6679
2026-01-09 15:22:50.82	10.19	30.59	-38.7	-39.8	21.7	0.00e+00	0	23	0	476053504	50	6262
2026-01-09 15:22:54.86	9.72	31.34	-39.2	-40.3	21.2	0.00e+00	0	23	0	484442112	50	6688
2026-01-09 15:22:58.90	9.23	32.10	-39.3	-40.4	21.1	0.00e+00	0	23	0	491782144	50	6767
2026-01-09 15:23:02.93	8.72	32.89	-39.5	-40.7	20.9	0.00e+00	0	22	0	499122176	50	6960
2026-01-09 15:23:06.97	8.18	33.69	-39.8	-41.1	20.4	0.00e+00	0	22	0	506462208	52	6510
2026-01-09 15:23:11.01	7.62	34.52	-40.1	-41.4	20.2	0.00e+00	0	22	0	514850816	52	6764
2026-01-09 15:23:15.05	7.02	35.36	-40.2	-41.5	20.2	0.00e+00	0	23	0	522190848	52	6822
2026-01-09 15:23:19.08	6.39	36.21	-40.0	-41.4	20.3	0.00e+00	0	22	0	529530880	52	6717
2026-01-09 15:23:23.12	5.72	37.09	-40.0	-41.3	20.5	0.00e+00	0	23	0	536870912	52	6629
2026-01-09 15:23:27.16	5.02	37.99	-39.3	-40.5	21.1	0.00e+00	0	22	0	544210944	52	6076
2026-01-09 15:23:31.20	4.27	38.91	-39.0	-40.2	21.5	0.00e+00	0	23	0	552599552	52	5853
2026-01-09 15:23:35.24	3.48	39.85	-38.2	-39.2	22.2	0.00e+00	0	23	0	559939584	50	5878
2026-01-09 15:23:39.28	2.65	40.80	-37.9	-38.9	22.6	0.00e+00	0	22	0	567279616	48	6375
2026-01-09 15:23:43.31	1.76	41.78	-37.8	-38.8	22.7	0.00e+00	0	22	0	574619648	48	6282
2026-01-09 15:23:47.35	0.81	42.77	-38.3	-39.3	22.1	0.00e+00	0	22	0	583008256	48	6674
2026-01-09 15:23:51.39	359.80	43.78	-37.6	-38.6	22.8	0.00e+00	0	23	0	590348288	48	6127
2026-01-09 15:23:55.42	358.73	44.80	-37.1	-38.1	23.3	0.00e+00	0	23	0	597688320	48	5774
2026-01-09 15:23:59.46	357.58	45.84	-36.7	-37.6	23.8	0.00e+00	0	23	0	605028352	46	6112
2026-01-09 15:24:03.50	356.35	46.90	-36.9	-37.8	23.5	0.00e+00	0	23	0	612368384	46	6297
2026-01-09 15:24:07.54	355.03	47.96	-37.5	-38.5	23.0	0.00e+00	0	22	0	620756992	46	6800
2026-01-09 15:24:11.58	353.62	49.04	-37.1	-38.0	23.3	0.00e+00	0	23	0	628097024	46	6435
2026-01-09 15:24:15.62	352.11	50.12	-36.1	-37.0	24.3	0.00e+00	0	22	0	635437056	46	5710
2026-01-09 15:24:19.66	350.48	51.20	-36.4	-37.2	24.0	0.00e+00	0	23	0	642777088	46	5881
2026-01-09 15:24:23.69	348.73	52.28	-35.7	-36.5	24.7	0.00e+00	0	23	0	651165696	44	6039
2026-01-09 15:24:27.73	346.84	53.35	-35.7	-36.5	24.6	0.00e+00	0	23	0	658505728	44	6069
2026-01-09 15:24:31.77	344.81	54.42	-36.3	-37.2	24.0	0.00e+00	0	23	0	665845760	44	6584
2026-01-09 15:24:35.81	342.63	55.46	-36.0	-36.9	24.4	0.00e+00	0	23	0	673185792	44	6325
2026-01-09 15:24:39.85	340.27	56.48	-36.4	-37.2	23.9	0.00e+00	0	22	0	680525824	44	6580
2026-01-09 15:24:43.89	337.74	57.47	-38.2	-39.3	22.1	0.00e+00	0	23	0	688914432	48	6652
2026-01-09 15:24:47.93	335.02	58.42	-38.4	-39.5	22.0	0.00e+00	0	23	0	696254464	48	6790
2026-01-09 15:24:51.96	332.11	59.32	-38.0	-39.0	22.5	0.00e+00	0	23	0	703594496	48	6448
2026-01-09 15:24:56.00	328.99	60.15	-37.4	-38.4	23.0	0.00e+00	0	23	0	710934528	48	6012
2026-01-09 15:25:00.04	325.67	60.92	-35.8	-36.6	24.6	0.00e+00	0	23	0	719323136	46	5500
2026-01-09 15:25:04.08	322.15	61.60	-34.8	-35.5	25.4	0.00e+00	0	22	0	726663168	42	6103
2026-01-09 15:25:08.11	318.45	62.19	-34.6	-35.4	25.4	0.00e+00	0	23	0	734003200	42	5996
2026-01-09 15:25:12.15	314.58	62.68	-34.3	-35.0	25.9	0.00e+00	0	23	0	741343232	42	5744
2026-01-09 15:25:16.19	310.56	63.05	-33.9	-34.6	26.2	0.00e+00	0	23	0	748683264	40	6162
2026-01-09 15:25:20.23	306.43	63.31	-33.6	-34.3	26.5	0.00e+00	0	23	0	757071872	40	5931
2026-01-09 15:25:24.27	302.24	63.44	-33.0	-33.7	26.8	0.00e+00	0	23	0	764411904	40	5503
2026-01-09 15:25:28.31	298.02	63.45	-32.2	-32.9	27.3	0.00e+00	0	23	0	771751936	38	5647
2026-01-09 15:25:32.35	293.82	63.32	-32.9	-33.6	26.9	0.00e+00	0	23	0	779091968	38	6142
2026-01-09 15:25:36.38	289.70	63.07	-33.2	-33.9	26.8	0.00e+00	0	23	0	787480576	38	6318
2026-01-09 15:25:40.42	285.68	62.70	-33.9	-34.6	26.1	0.00e+00	0	23	0	794820608	40	6143
2026-01-09 15:25:44.46	281.79	62.22	-33.7	-34.5	26.2	0.00e+00	0	23	0	802160640	40	6043
2026-01-09 15:25:48.50	278.07	61.64	-33.7	-34.4	26.2	0.00e+00	0	23	0	809500672	40	6007
2026-01-09 15:25:52.53	274.55	60.96	-34.6	-35.4	25.5	0.00e+00	0	23	0	816840704	40	6737
2026-01-09 15:25:56.57	271.21	60.20	-35.0	-35.8	25.2	0.00e+00	0	23	0	825229312	42	6279
2026-01-09 15:26:00.61	268.08	59.36	-37.9	-39.0	22.5	0.00e+00	0	23	0	832569344	48	6407
2026-01-09 15:26:04.64	265.15	58.47	-38.1	-39.1	22.4	0.00e+00	0	23	0	839909376	48	6519
2026-01-09 15:26:08.68	262.42	57.52	-38.7	-39.8	21.7	0.00e+00	0	23	0	847249408	50	6295
2026-01-09 15:26:12.73	259.86	56.53	-37.4	-38.3	23.1	0.00e+00	0	23	0	855638016	48	5959
2026-01-09 15:26:16.77	257.50	55.51	-36.3	-37.2	24.3	0.00e+00	0	23	0	862978048	46	5876
2026-01-09 15:26:20.80	255.30	54.46	-35.8	-36.6	24.6	0.00e+00	0	23	0	870318080	44	6167
2026-01-09 15:26:24.84	253.26	53.40	-36.1	-37.0	24.3	0.00e+00	0	23	0	877658112	44	6398
2026-01-09 15:26:28.89	251.36	52.32	-36.9	-37.8	23.5	0.00e+00	0	23	0	884998144	46	6315
2026-01-09 15:26:32.93	249.60	51.23	-37.7	-38.6	22.7	0.00e+00	0	23	0	893386752	48	6163
2026-01-09 15:26:36.97	247.96	50.15	-38.9	-40.1	21.5	0.00e+00	0	23	0	900726784	50	6473
2026-01-09 15:26:41.00	246.44	49.07	-39.3	-40.5	21.1	0.00e+00	0	22	0	908066816	50	6841
2026-01-09 15:26:45.04	245.02	47.99	-38.8	-39.9	21.7	0.00e+00	0	22	0	915406848	50	6348
2026-01-09 15:26:49.08	243.70	46.92	-37.9	-38.9	22.7	0.00e+00	0	23	0	922746880	50	5650
2026-01-09 15:26:53.12	242.46	45.86	-37.4	-38.3	23.2	0.00e+00	0	22	0	931135488	48	5964
2026-01-09 15:26:57.16	241.31	44.82	-37.5	-38.5	23.0	0.00e+00	0	23	0	938475520	48	6051
2026-01-09 15:27:01.20	240.23	43.79	-38.4	-39.5	22.1	0.00e+00	0	23	0	945815552	48	6832
2026-01-09 15:27:05.24	239.21	42.78	-38.0	-39.0	22.5	0.00e+00	0	22	0	953155584	48	6409
2026-01-09 15:27:09.27	238.26	41.78	-39.5	-40.7	20.9	0.00e+00	0	23	0	961544192	50	6972
2026-01-09 15:27:13.31	237.37	40.80	-40.5	-42.0	19.7	0.00e+00	0	23	0	968884224	54	6405
2026-01-09 15:27:17.35	236.53	39.84	-40.9	-42.4	19.3	0.00e+00	0	23	0	976224256	54	6757
2026-01-09 15:27:21.38	235.73	38.90	-40.7	-42.3	19.5	0.00e+00	0	23	0	983564288	54	6618
2026-01-09 15:27:25.43	234.98	37.98	-40.9	-42.5	19.3	0.00e+00	0	23	0	990904320	54	6794
2026-01-09 15:27:29.46	234.28	37.08	-40.3	-41.8	20.1	0.00e+00	0	23	0	999292928	54	6256
2026-01-09 15:27:33.50	233.61	36.20	-38.8	-40.0	21.7	0.00e+00	0	23	0	1006632960	52	5700
2026-01-09 15:27:37.54	232.97	35.33	-39.5	-40.8	21.0	0.00e+00	0	23	0	1013972992	52	6283
2026-01-09 15:27:41.59	232.37	34.49	-38.9	-40.1	21.7	0.00e+00	0	23	0	1021313024	52	5779
2026-01-09 15:27:45.63	231.80	33.66	-38.4	-39.4	22.1	0.00e+00	0	23	0	1029701632	50	6031
2026-01-09 15:27:49.67	231.26	32.85	-38.4	-39.4	22.1	0.00e+00	0	23	0	1037041664	50	6030
2026-01-09 15:27:53.70	230.74	32.07	-38.7	-39.8	21.6	0.00e+00	0	23	0	1044381696	50	6314
2026-01-09 15:27:57.74	230.25	31.30	-39.2	-40.3	21.3	0.00e+00	0	23	0	1051721728	50	6692
2026-01-09 15:28:01.78	229.78	30.54	-38.9	-40.1	21.5	0.00e+00	0	23	0	1059061760	50	6477
2026-01-09 15:28:05.82	229.34	29.80	-38.7	-39.8	21.7	0.00e+00	0	22	0	1067450368	50	6303
2026-01-09 15:28:09.86	228.91	29.08	-38.8	-39.9	21.6	0.00e+00	0	23	0	1074790400	50	6385
2026-01-09 15:28:13.90	228.51	28.38	-38.5	-39.5	22.0	0.00e+00	0	23	0	1082130432	50	6078
2026-01-09 15:28:17.93	228.12	27.69	-38.7	-39.8	21.7	0.00e+00	0	23	0	1089470464	50	6304
2026-01-09 15:28:21.98	227.74	27.02	-38.8	-39.9	21.7	0.00e+00	0	23	0	1097859072	50	6336
2026-01-09 15:28:26.02	227.39	26.36	-38.6	-39.7	21.9	0.00e+00	0	23	0	1105199104	50	6211
2026-01-09 15:28:30.06	227.05	25.72	-38.3	-39.4	22.1	0.00e+00	0	23	0	1112539136	50	6002
2026-01-09 15:28:34.09	226.72	25.09	-38.6	-39.8	21.8	0.00e+00	0	23	0	1119879168	50	6259
2026-01-09 15:28:38.13	226.40	24.48	-38.6	-39.7	21.8	0.00e+00	0	23	0	1127219200	50	6207
2026-01-09 15:28:42.17	226.10	23.87	-38.4	-39.6	21.9	0.00e+00	0	23	0	1135607808	50	6116
2026-01-09 15:28:46.21	225.81	23.28	-38.2	-39.3	22.2	0.00e+00	0	23	0	1142947840	50	5927
2026-01-09 15:28:50.25	225.53	22.71	-38.1	-39.2	22.4	0.00e+00	0	23	0	1150287872	50	5830
2026-01-09 15:28:54.28	225.26	22.14	-38.0	-39.1	22.3	0.00e+00	0	23	0	1157627904	50	5821
2026-01-09 15:28:58.32	225.00	21.59	-38.0	-39.1	22.3	0.00e+00	0	23	0	1166016512	50	5783
2026-01-09 15:29:02.36	224.75	21.05	-38.0	-39.1	22.3	0.00e+00	0	23	0	1173356544	50	5820
2026-01-09 15:29:06.40	224.51	20.51	-37.5	-38.5	22.8	0.00e+00	0	23	0	1180696576	48	6078
2026-01-09 15:29:10.44	224.28	19.99	-37.3	-38.3	23.0	0.00e+00	0	23	0	1188036608	48	5926
2026-01-09 15:29:14.48	224.05	19.48	-37.2	-38.2	22.8	0.00e+00	0	23	0	1195376640	48	5853
2026-01-09 15:29:18.51	223.84	18.98	-37.0	-38.0	23.2	0.00e+00	0	23	0	1203765248	48	5725
2026-01-09 15:29:22.55	223.63	18.49	-36.9	-37.8	23.5	0.00e+00	0	23	0	1211105280	48	5622
2026-01-09 15:29:26.59	223.43	18.01	-36.9	-37.9	23.3	0.00e+00	0	23	0	1218445312	48	5631
2026-01-09 15:29:30.63	223.23	17.53	-37.1	-38.1	23.1	0.00e+00	0	23	0	1225785344	48	5788
2026-01-09 15:29:34.67	223.04	17.07	-37.3	-38.3	22.9	0.00e+00	0	22	0	1234173952	48	5960
2026-01-09 15:29:38.71	222.86	16.61	-37.6	-38.6	22.6	0.00e+00	0	23	0	1241513984	48	6160
2026-01-09 15:29:42.75	222.68	16.16	-37.8	-38.9	22.4	0.00e+00	0	23	0	1248854016	48	6339
2026-01-09 15:29:46.79	222.51	15.72	-37.7	-38.8	22.5	0.00e+00	0	23	0	1256194048	48	6247
2026-01-09 15:29:50.83	222.34	15.29	-37.6	-38.6	22.6	0.00e+00	0	23	0	1263534080	48	6167
2026-01-09 15:29:54.87	222.18	14.86	-37.8	-38.8	22.3	0.00e+00	0	23	0	1271922688	48	6313
2026-01-09 15:29:58.91	222.02	14.44	-37.6	-38.6	22.6	0.00e+00	0	23	0	1279262720	48	6114
2026-01-09 15:30:02.94	221.87	14.03	-37.4	-38.4	22.7	0.00e+00	0	23	0	1286602752	48	6001
2026-01-09 15:30:06.98	221.72	13.63	-37.4	-38.4	22.7	0.00e+00	0	23	0	1293942784	48	6021
2026-01-09 15:30:11.02	221.58	13.23	-37.6	-38.6	22.6	0.00e+00	0	23	0	1302331392	48	6132
2026-01-09 15:30:15.06	221.44	12.84	-37.8	-38.8	22.3	0.00e+00	0	23	0	1309671424	48	6290
2026-01-09 15:30:19.09	221.31	12.45	-38.2	-39.3	21.8	0.00e+00	0	23	0	1317011456	48	6642
2026-01-09 15:30:23.13	221.17	12.07	-38.2	-39.4	21.8	0.00e+00	0	23	0	1324351488	48	6706
2026-01-09 15:30:27.17	221.05	11.70	-38.6	-39.8	21.4	0.00e+00	0	22	0	1331691520	48	7017
2026-01-09 15:30:31.21	220.92	11.33	-38.7	-39.9	21.3	0.00e+00	0	23	0	1340080128	50	6319
2026-01-09 15:30:35.25	220.80	10.96	-38.9	-40.1	21.2	0.00e+00	0	23	0	1347420160	50	6497
2026-01-09 15:30:39.29	220.68	10.60	-38.9	-40.1	21.1	0.00e+00	0	23	0	1354760192	50	6477
2026-01-09 15:30:43.33	220.57	10.25	-39.0	-40.2	20.9	0.00e+00	0	23	0	1362100224	50	6608
2026-01-09 15:30:47.37	220.46	9.90	-39.2	-40.4	20.7	0.00e+00	0	23	0	1370488832	50	6755
2026-01-09 15:30:51.40	220.35	9.56	-39.2	-40.5	20.6	0.00e+00	0	23	0	1377828864	50	6793
2026-01-09 15:30:55.45	220.24	9.22	-39.2	-40.4	20.7	0.00e+00	0	23	0	1385168896	50	6769
2026-01-09 15:30:59.49	220.14	8.88	-39.3	-40.6	20.5	0.00e+00	0	23	0	1392508928	50	6862
2026-01-09 15:31:03.53	220.04	8.55	-39.6	-40.9	20.2	0.00e+00	0	23	0	1399848960	50	7122
2026-01-09 15:31:07.57	219.94	8.22	-39.4	-40.7	20.4	0.00e+00	0	23	0	1408237568	50	6960
2026-01-09 15:31:11.60	219.85	7.90	-39.6	-40.9	20.1	0.00e+00	0	23	0	1415577600	50	7135
2026-01-09 15:31:15.64	219.75	7.58	-39.5	-40.9	20.1	0.00e+00	0	23	0	1422917632	50	7100
2026-01-09 15:31:19.68	219.66	7.27	-39.8	-41.2	19.8	0.00e+00	0	23	0	1430257664	52	6542
2026-01-09 15:31:23.72	219.57	6.96	-39.7	-41.1	19.8	0.00e+00	0	23	0	1438646272	52	6500
2026-01-09 15:31:27.76	219.49	6.65	-39.7	-41.1	19.9	0.00e+00	0	23	0	1445986304	52	6493
2026-01-09 15:31:31.80	219.40	6.34	-40.1	-41.6	19.4	0.00e+00	0	23	0	1453326336	52	6864
2026-01-09 15:31:35.84	219.32	6.04	-39.8	-41.2	19.7	0.00e+00	0	22	0	1460666368	52	6560
2026-01-09 15:31:39.88	219.24	5.75	-39.9	-41.4	19.4	0.00e+00	0	23	0	1468006400	52	6747
2026-01-09 15:31:43.92	219.16	5.45	-40.1	-41.6	19.2	0.00e+00	0	23	0	1476395008	52	6885
2026-01-09 15:31:47.96	219.08	5.16	-40.1	-41.7	19.0	0.00e+00	0	23	0	1483735040	52	6953
2026-01-09 15:31:52.00	219.01	4.88	-40.3	-41.9	18.6	0.00e+00	0	23	0	1491075072	52	7140
2026-01-09 15:31:56.04	218.93	4.59	-40.3	-42.0	18.7	0.00e+00	0	23	0	1498415104	52	7172
2026-01-09 15:32:00.08	218.86	4.31	-40.7	-42.4	18.1	0.00e+00	0	23	0	1506803712	52	7578
2026-01-09 15:32:04.12	218.79	4.03	-40.7	-42.4	18.0	0.00e+00	0	23	0	1514143744	54	6768
2026-01-09 15:32:08.16	218.72	3.75	-40.6	-42.4	18.0	0.00e+00	0	23	0	1521483776	54	6757
2026-01-09 15:32:12.21	218.65	3.48	-40.8	-42.6	17.7	0.00e+00	0	23	0	1528823808	54	6922
2026-01-09 15:32:16.25	218.59	3.21	-40.8	-42.8	17.4	0.00e+00	0	23	0	1536163840	54	7015
2026-01-09 15:32:20.29	218.52	2.94	-46.7	-61.9	3.6	1.51e+00	0	23	104	1542455296	60	44837
2026-01-09 15:32:24.33	218.46	2.68	-47.7	-62.9	3.6	1.51e+00	0	23	104	1542455296	60	50524
2026-01-09 15:32:28.37	218.40	2.41	-47.8	-63.0	3.6	1.51e+00	0	23	104	1542455296	60	50892
2026-01-09 15:32:32.41	218.34	2.15	-47.6	-62.9	3.6	1.51e+00	0	23	104	1542455296	60	50322
2026-01-09 15:32:36.45	218.28	1.90	-47.7	-62.9	3.6	1.51e+00	0	23	104	1542455296	60	50312
2026-01-09 15:32:40.49	218.22	1.64	-47.7	-62.8	3.6	1.51e+00	0	23	104	1542455296	60	49931
2026-01-09 15:32:44.53	218.16	1.39	-47.6	-62.8	3.6	1.51e+00	0	23	104	1542455296	60	49941
2026-01-09 15:32:48.57	218.11	1.13	-47.6	-62.9	3.6	1.51e+00	0	23	104	1542455296	60	50205
2026-01-09 15:32:52.61	218.05	0.88	-47.7	-62.9	3.6	1.51e+00	0	23	104	1542455296	60	50196
2026-01-09 15:32:56.65	218.00	0.64	-47.6	-62.8	3.6	1.51e+00	0	23	104	1542455296	60	49899
2026-01-09 15:33:00.69	217.95	0.39	-47.7	-62.8	3.6	1.51e+00	0	23	104	1542455296	60	50140
2026-01-09 15:33:04.73	217.90	0.15	-47.6	-62.8	3.6	1.51e+00	0	23	104	1542455296	60	49931
2026-01-09 15:33:08.77	217.84	-0.09	-47.6	-62.9	3.6	1.51e+00	0	23	104	1542455296	60	50411

#Closed at: 2026-01-09 15:33:09
#Recorded file [1542 MB]: D:/lorett/data/35029_260110_031743.dat