passes_logs/2026/01/09/R4.6S_Anadyr/R4.6S_Anadyr__20260109_113616_SUOMI_NPP_rec.log

#Pass ID: 20260109_113616_SUOMI NPP
#Satellite: SUOMI NPP
#Configuration: NPP
#almurnet v.1.7.20251203
#Start time: 2026-01-09 11:36:20

#Version: 2.2.20231116
#Station: R4.6S_Anadyr
#Location: 177.4865 lon 64.73178 lat
#TLE: 1 37849U 11061A   26008.05542337  .00000108  00000+0  71976-4 0  9997
#TLE: 2 37849  98.7805 310.1641 0002540  75.6410 284.5048 14.19523335735721

#Time	Az	El	Level	Level2	SNR	BER	BlckErr	Temp	State	Recorded	gain1	gain2
2026-01-09 11:36:20.91	21.26	0.17	-48.1	-49.7	5.7	0.00e+00	0	23	0	0	60	37350
2026-01-09 11:36:23.93	21.56	0.29	-47.9	-63.0	3.6	1.51e+00	0	24	104	0	60	51316
2026-01-09 11:36:26.96	21.86	0.40	-47.9	-63.0	3.6	1.51e+00	0	24	104	0	60	51311
2026-01-09 11:36:29.99	22.16	0.52	-47.7	-62.9	3.6	1.51e+00	0	24	104	0	60	50205
2026-01-09 11:36:33.02	22.46	0.64	-47.3	-62.6	3.6	1.51e+00	0	24	104	0	60	48603
2026-01-09 11:36:36.05	22.76	0.76	-46.3	-61.5	3.6	1.51e+00	0	24	104	0	60	42780
2026-01-09 11:36:39.08	23.07	0.87	-46.1	-61.3	3.6	1.51e+00	0	24	104	0	60	41806
2026-01-09 11:36:42.10	23.38	0.99	-46.1	-61.3	3.6	1.51e+00	0	24	104	0	60	41874
2026-01-09 11:36:45.14	23.69	1.11	-46.1	-61.3	3.6	1.51e+00	0	24	104	0	60	41873
2026-01-09 11:36:48.16	24.01	1.23	-46.1	-61.1	3.6	1.51e+00	0	24	104	0	60	41198
2026-01-09 11:36:51.19	24.32	1.34	-46.1	-61.2	3.6	1.51e+00	0	24	104	0	60	41591
2026-01-09 11:36:54.22	24.64	1.46	-46.1	-61.2	3.6	1.51e+00	0	24	104	0	60	41711
2026-01-09 11:36:57.25	24.96	1.57	-46.1	-61.2	3.6	1.51e+00	0	24	104	0	60	41568
2026-01-09 11:37:00.28	25.29	1.69	-46.1	-61.2	3.6	1.51e+00	0	24	104	0	60	41511
2026-01-09 11:37:03.30	25.61	1.81	-46.1	-61.3	3.6	1.51e+00	0	24	104	0	60	41746
2026-01-09 11:37:06.33	25.94	1.92	-46.1	-61.2	3.6	1.51e+00	0	24	104	0	60	41297
2026-01-09 11:37:09.36	26.27	2.04	-46.1	-61.2	3.6	1.51e+00	0	24	104	0	60	41451
2026-01-09 11:37:12.39	26.61	2.15	-46.1	-61.2	3.6	1.51e+00	0	24	104	0	60	41546
2026-01-09 11:37:15.42	26.94	2.26	-46.1	-61.2	3.6	1.51e+00	0	24	104	0	60	41398
2026-01-09 11:37:18.44	27.28	2.38	-46.0	-61.1	3.6	1.51e+00	0	24	104	0	60	41056
2026-01-09 11:37:21.47	27.62	2.49	-46.0	-61.2	3.6	1.51e+00	0	24	104	0	60	41371
2026-01-09 11:37:24.50	27.96	2.61	-46.0	-60.8	3.6	1.51e+00	0	24	104	0	60	39645
2026-01-09 11:37:27.53	28.31	2.72	-46.0	-60.9	3.6	1.51e+00	0	24	104	0	60	40148
2026-01-09 11:37:30.56	28.66	2.83	-43.8	-47.8	12.2	4.99e-03	0	25	0	0	60	8873
2026-01-09 11:37:33.59	29.01	2.94	-40.9	-42.9	17.2	0.00e+00	0	24	0	6291456	56	6365
2026-01-09 11:37:36.62	29.36	3.06	-39.5	-41.1	18.9	7.00e-07	0	25	0	11534336	54	5795
2026-01-09 11:37:39.65	29.72	3.17	-40.8	-42.7	16.7	0.00e+00	0	24	104	13631488	56	6244
2026-01-09 11:37:42.68	30.08	3.28	-40.1	-41.8	18.4	0.00e+00	0	25	0	17825792	54	6249
2026-01-09 11:37:45.71	30.44	3.39	-38.8	-40.1	19.9	0.00e+00	0	25	0	24117248	52	5819
2026-01-09 11:37:48.73	30.80	3.50	-38.7	-40.1	20.0	0.00e+00	0	25	0	29360128	50	6487
2026-01-09 11:37:51.76	31.17	3.61	-38.7	-40.0	20.2	0.00e+00	0	25	0	35651584	50	6419
2026-01-09 11:37:54.79	31.54	3.72	-39.1	-40.6	19.3	0.00e+00	0	25	0	40894464	50	6854
2026-01-09 11:37:57.81	31.91	3.83	-38.8	-40.2	19.8	0.00e+00	0	25	0	46137344	50	6579
2026-01-09 11:38:00.84	32.29	3.94	-39.0	-40.3	19.8	0.00e+00	0	24	0	52428800	50	6681
2026-01-09 11:38:03.86	32.66	4.04	-39.0	-40.5	19.7	0.00e+00	0	25	0	57671680	50	6771
2026-01-09 11:38:06.89	33.04	4.15	-39.1	-40.5	19.8	0.00e+00	0	25	0	63963136	50	6781
2026-01-09 11:38:09.91	33.42	4.26	-39.0	-40.3	19.9	0.00e+00	0	24	0	69206016	50	6682
2026-01-09 11:38:12.94	33.81	4.36	-39.1	-40.5	19.8	0.00e+00	0	25	0	74448896	50	6779
2026-01-09 11:38:15.97	34.20	4.47	-39.4	-40.9	19.3	0.00e+00	0	25	0	80740352	50	7106
2026-01-09 11:38:18.99	34.59	4.57	-39.2	-40.7	19.6	0.00e+00	0	25	0	85983232	52	6185
2026-01-09 11:38:22.02	34.98	4.68	-39.3	-40.8	19.5	0.00e+00	0	25	0	92274688	52	6265
2026-01-09 11:38:25.05	35.38	4.78	-39.3	-40.7	19.7	0.00e+00	0	25	0	97517568	52	6203
2026-01-09 11:38:28.07	35.77	4.88	-39.2	-40.5	19.8	0.00e+00	0	25	0	103809024	52	6093
2026-01-09 11:38:31.10	36.17	4.98	-39.2	-40.6	19.8	0.00e+00	0	25	0	109051904	52	6108
2026-01-09 11:38:34.13	36.58	5.08	-39.0	-40.3	20.1	0.00e+00	0	25	0	114294784	52	5947
2026-01-09 11:38:37.16	36.99	5.18	-39.1	-40.4	20.0	0.00e+00	0	25	0	120586240	50	6745
2026-01-09 11:38:40.18	37.39	5.28	-39.3	-40.7	19.8	0.00e+00	0	25	0	125829120	50	6972
2026-01-09 11:38:43.21	37.81	5.38	-39.2	-40.5	19.9	0.00e+00	0	25	0	132120576	50	6814
2026-01-09 11:38:46.24	38.22	5.48	-39.1	-40.4	20.0	0.00e+00	0	25	0	137363456	50	6732
2026-01-09 11:38:49.26	38.64	5.58	-39.2	-40.6	19.9	0.00e+00	0	25	0	142606336	50	6851
2026-01-09 11:38:52.28	39.06	5.67	-39.4	-40.8	19.7	0.00e+00	0	25	0	148897792	50	7080
2026-01-09 11:38:55.31	39.48	5.77	-39.4	-40.8	19.6	0.00e+00	0	25	0	154140672	50	7037
2026-01-09 11:38:58.34	39.90	5.86	-39.4	-40.8	19.8	0.00e+00	0	25	0	160432128	50	7025
2026-01-09 11:39:01.37	40.33	5.95	-39.1	-40.5	20.1	0.00e+00	0	25	0	165675008	50	6779
2026-01-09 11:39:04.40	40.76	6.05	-39.3	-40.6	19.9	0.00e+00	0	25	0	170917888	50	6916
2026-01-09 11:39:07.43	41.20	6.14	-39.0	-40.3	20.0	0.00e+00	0	25	0	177209344	50	6676
2026-01-09 11:39:10.46	41.63	6.23	-39.3	-40.7	19.8	0.00e+00	0	25	0	182452224	50	6941
2026-01-09 11:39:13.48	42.07	6.32	-39.7	-41.2	19.5	0.00e+00	0	25	0	188743680	52	6540
2026-01-09 11:39:16.51	42.51	6.40	-39.9	-41.4	19.3	0.00e+00	0	25	0	193986560	52	6717
2026-01-09 11:39:19.54	42.95	6.49	-39.3	-40.6	20.1	0.00e+00	0	25	0	200278016	52	6167
2026-01-09 11:39:22.56	43.40	6.58	-39.0	-40.3	20.3	0.00e+00	0	25	0	205520896	52	5958
2026-01-09 11:39:25.58	43.85	6.66	-39.4	-40.8	19.8	0.00e+00	0	25	0	210763776	52	6305
2026-01-09 11:39:28.61	44.30	6.74	-39.9	-41.4	19.4	0.00e+00	0	25	0	217055232	52	6699
2026-01-09 11:39:31.63	44.75	6.83	-39.7	-41.2	19.5	0.00e+00	0	25	0	222298112	52	6567
2026-01-09 11:39:34.66	45.21	6.91	-39.9	-41.4	19.3	0.00e+00	0	25	0	228589568	52	6713
2026-01-09 11:39:37.68	45.66	6.99	-39.8	-41.3	19.4	0.00e+00	0	25	0	233832448	52	6661
2026-01-09 11:39:40.70	46.12	7.06	-39.6	-41.0	19.7	0.00e+00	0	25	0	239075328	52	6430
2026-01-09 11:39:43.73	46.59	7.14	-39.3	-40.6	20.0	0.00e+00	0	25	0	245366784	52	6143
2026-01-09 11:39:46.75	47.05	7.22	-39.1	-40.4	20.1	0.00e+00	0	25	0	250609664	52	5992
2026-01-09 11:39:49.78	47.52	7.29	-39.7	-41.2	19.4	0.00e+00	0	25	0	256901120	52	6574
2026-01-09 11:39:52.81	47.99	7.36	-40.7	-42.4	18.5	0.00e+00	0	25	0	262144000	52	7532
2026-01-09 11:39:55.83	48.46	7.43	-40.9	-42.7	18.2	0.00e+00	0	25	0	267386880	54	6950
2026-01-09 11:39:58.86	48.94	7.50	-40.2	-41.7	19.1	0.00e+00	0	25	0	273678336	54	6231
2026-01-09 11:40:01.89	49.41	7.57	-40.0	-41.4	19.4	0.00e+00	0	25	0	278921216	52	6766
2026-01-09 11:40:04.92	49.89	7.64	-39.7	-41.1	19.4	0.00e+00	0	25	0	285212672	52	6470
2026-01-09 11:40:07.94	50.37	7.70	-39.6	-41.1	19.7	0.00e+00	0	25	0	290455552	52	6470
2026-01-09 11:40:10.97	50.86	7.77	-39.3	-40.6	20.2	0.00e+00	0	25	0	295698432	52	6145
2026-01-09 11:40:14.00	51.34	7.83	-39.3	-40.6	20.1	0.00e+00	0	25	0	301989888	52	6130
2026-01-09 11:40:17.02	51.83	7.89	-39.8	-41.3	19.4	0.00e+00	0	25	0	307232768	52	6643
2026-01-09 11:40:20.05	52.32	7.95	-40.0	-41.5	19.4	0.00e+00	0	25	0	313524224	52	6787
2026-01-09 11:40:23.08	52.81	8.01	-39.2	-40.5	20.2	0.00e+00	0	25	0	318767104	52	6042
2026-01-09 11:40:26.10	53.30	8.06	-38.8	-40.1	20.7	0.00e+00	0	25	0	325058560	52	5801
2026-01-09 11:40:29.14	53.80	8.12	-39.2	-40.5	20.2	0.00e+00	0	25	0	330301440	50	6818
2026-01-09 11:40:32.16	54.29	8.17	-39.0	-40.3	20.4	0.00e+00	0	25	0	335544320	50	6617
2026-01-09 11:40:35.19	54.79	8.22	-38.7	-39.9	20.8	0.00e+00	0	25	0	341835776	50	6330
2026-01-09 11:40:38.21	55.29	8.27	-38.7	-39.9	20.8	0.00e+00	0	25	0	347078656	50	6356
2026-01-09 11:40:41.24	55.79	8.32	-38.8	-40.1	20.6	0.00e+00	0	25	0	353370112	50	6488
2026-01-09 11:40:44.27	56.30	8.36	-38.5	-39.7	20.9	0.00e+00	0	25	0	358612992	50	6188
2026-01-09 11:40:47.30	56.80	8.40	-39.1	-40.5	20.2	0.00e+00	0	25	0	363855872	50	6793
2026-01-09 11:40:50.32	57.31	8.45	-40.0	-41.5	19.4	0.00e+00	0	25	0	370147328	52	6826
2026-01-09 11:40:53.35	57.82	8.49	-40.3	-41.8	19.3	0.00e+00	0	25	0	375390208	52	7047
2026-01-09 11:40:56.38	58.32	8.52	-40.2	-41.8	19.1	0.00e+00	0	25	0	381681664	52	7015
2026-01-09 11:40:59.41	58.83	8.56	-40.1	-41.6	19.3	0.00e+00	0	25	0	386924544	52	6883
2026-01-09 11:41:02.43	59.35	8.59	-40.2	-41.7	19.3	0.00e+00	0	25	0	393216000	52	6982
2026-01-09 11:41:05.46	59.86	8.63	-40.2	-41.8	19.2	0.00e+00	0	25	0	398458880	52	7021
2026-01-09 11:41:08.49	60.37	8.66	-40.5	-42.1	18.9	0.00e+00	0	25	0	403701760	52	7285
2026-01-09 11:41:11.52	60.89	8.68	-40.7	-42.4	18.6	0.00e+00	0	25	0	409993216	52	7513
2026-01-09 11:41:14.55	61.40	8.71	-40.3	-41.9	19.1	0.00e+00	0	25	0	415236096	52	7097
2026-01-09 11:41:17.58	61.92	8.74	-39.8	-41.2	19.7	0.00e+00	0	25	0	421527552	52	6578
2026-01-09 11:41:20.60	62.44	8.76	-39.8	-41.2	19.8	0.00e+00	0	25	0	426770432	52	6549
2026-01-09 11:41:23.63	62.95	8.78	-39.8	-41.2	19.6	0.00e+00	0	25	0	432013312	52	6580
2026-01-09 11:41:26.66	63.47	8.80	-39.7	-41.1	19.9	0.00e+00	0	25	0	438304768	52	6505
2026-01-09 11:41:29.68	63.99	8.81	-39.5	-40.9	19.9	0.00e+00	0	25	0	443547648	52	6343
2026-01-09 11:41:32.71	64.51	8.83	-39.6	-41.0	19.8	0.00e+00	0	25	0	449839104	52	6449
2026-01-09 11:41:35.74	65.03	8.84	-39.6	-41.0	19.9	0.00e+00	0	25	0	455081984	52	6402
2026-01-09 11:41:38.76	65.55	8.85	-39.4	-40.7	20.1	0.00e+00	0	25	0	460324864	52	6241
2026-01-09 11:41:41.79	66.07	8.86	-38.8	-40.1	20.7	0.00e+00	0	25	0	466616320	52	5784
2026-01-09 11:41:44.82	66.60	8.86	-38.8	-40.0	20.7	0.00e+00	0	25	0	471859200	50	6455
2026-01-09 11:41:47.84	67.12	8.87	-38.5	-39.7	21.2	0.00e+00	0	25	0	478150656	50	6203
2026-01-09 11:41:50.87	67.64	8.87	-38.2	-39.3	21.4	0.00e+00	0	25	0	483393536	50	5921
2026-01-09 11:41:53.90	68.16	8.87	-38.2	-39.4	21.2	0.00e+00	0	25	0	489684992	50	6012
2026-01-09 11:41:56.93	68.68	8.87	-38.7	-39.9	20.8	0.00e+00	0	25	0	494927872	50	6382
2026-01-09 11:41:59.96	69.20	8.86	-38.4	-39.6	21.0	0.00e+00	0	25	0	500170752	50	6105
2026-01-09 11:42:02.98	69.72	8.86	-38.2	-39.4	21.2	0.00e+00	0	25	0	506462208	50	6010
2026-01-09 11:42:06.01	70.25	8.85	-38.4	-39.6	21.0	0.00e+00	0	25	0	511705088	50	6130
2026-01-09 11:42:09.04	70.77	8.84	-38.4	-39.6	21.1	0.00e+00	0	25	0	517996544	50	6111
2026-01-09 11:42:12.07	71.29	8.83	-38.1	-39.3	21.3	0.00e+00	0	25	0	523239424	50	5929
2026-01-09 11:42:15.09	71.81	8.81	-38.0	-39.1	21.4	0.00e+00	0	25	0	528482304	50	5808
2026-01-09 11:42:18.12	72.33	8.80	-38.0	-39.2	21.2	0.00e+00	0	25	0	534773760	50	5867
2026-01-09 11:42:21.15	72.85	8.78	-37.6	-38.7	21.7	0.00e+00	0	25	0	540016640	48	6182
2026-01-09 11:42:24.18	73.37	8.76	-37.0	-38.1	22.3	0.00e+00	0	25	0	546308096	48	5777
2026-01-09 11:42:27.20	73.88	8.74	-36.9	-38.0	22.4	0.00e+00	0	25	0	551550976	46	6396
2026-01-09 11:42:30.24	74.40	8.71	-37.3	-38.3	22.0	0.00e+00	0	25	0	557842432	46	6690
2026-01-09 11:42:33.26	74.92	8.69	-37.4	-38.5	22.0	0.00e+00	0	25	0	563085312	46	6807
2026-01-09 11:42:36.29	75.43	8.66	-37.5	-38.6	21.8	0.00e+00	0	25	0	568328192	46	6858
2026-01-09 11:42:39.32	75.95	8.63	-37.6	-38.8	21.7	0.00e+00	0	25	0	574619648	46	7022
2026-01-09 11:42:42.35	76.46	8.60	-37.7	-38.9	21.6	0.00e+00	0	25	0	579862528	48	6343
2026-01-09 11:42:45.38	76.97	8.56	-37.5	-38.7	21.7	0.00e+00	0	25	0	586153984	48	6232
2026-01-09 11:42:48.40	77.48	8.53	-37.5	-38.7	21.7	0.00e+00	0	25	0	591396864	48	6197
2026-01-09 11:42:51.43	77.99	8.49	-37.6	-38.8	21.7	0.00e+00	0	25	0	596639744	48	6263
2026-01-09 11:42:54.46	78.50	8.45	-38.0	-39.2	21.2	0.00e+00	0	25	0	602931200	48	6584
2026-01-09 11:42:57.49	79.01	8.41	-38.1	-39.3	21.1	0.00e+00	0	25	0	608174080	48	6649
2026-01-09 11:43:00.52	79.52	8.36	-38.3	-39.5	21.1	0.00e+00	0	25	0	614465536	48	6835
2026-01-09 11:43:03.54	80.02	8.32	-37.9	-39.2	21.3	0.00e+00	0	25	0	619708416	48	6584
2026-01-09 11:43:06.57	80.52	8.27	-37.4	-38.6	21.8	0.00e+00	0	25	0	624951296	48	6156
2026-01-09 11:43:09.60	81.02	8.22	-36.8	-37.9	22.4	0.00e+00	0	25	0	631242752	48	5667
2026-01-09 11:43:12.63	81.52	8.17	-36.6	-37.6	22.6	0.00e+00	0	25	0	636485632	46	6140
2026-01-09 11:43:15.66	82.02	8.12	-36.5	-37.6	22.8	0.00e+00	0	25	0	642777088	46	6116
2026-01-09 11:43:18.68	82.52	8.07	-36.8	-37.8	22.4	0.00e+00	0	25	0	648019968	46	6296
2026-01-09 11:43:21.71	83.01	8.01	-36.9	-37.9	22.3	0.00e+00	0	25	0	654311424	46	6379
2026-01-09 11:43:24.74	83.51	7.95	-36.9	-37.9	22.4	0.00e+00	0	25	0	659554304	46	6359
2026-01-09 11:43:27.77	84.00	7.89	-37.2	-38.3	22.1	0.00e+00	0	25	0	664797184	46	6651
2026-01-09 11:43:30.80	84.49	7.83	-37.7	-38.9	21.5	0.00e+00	0	25	0	671088640	46	7101
2026-01-09 11:43:33.82	84.97	7.77	-37.5	-38.6	21.8	0.00e+00	0	25	0	676331520	48	6162
2026-01-09 11:43:36.85	85.46	7.71	-37.2	-38.3	22.1	0.00e+00	0	25	0	682622976	48	5932
2026-01-09 11:43:39.88	85.94	7.64	-36.4	-37.3	22.7	0.00e+00	0	25	0	687865856	46	5959
2026-01-09 11:43:42.90	86.42	7.57	-36.1	-37.1	23.0	0.00e+00	0	25	0	693108736	46	5782
2026-01-09 11:43:45.93	86.90	7.50	-36.6	-37.6	22.6	0.00e+00	0	25	0	699400192	46	6120
2026-01-09 11:43:48.95	87.37	7.43	-37.1	-38.1	22.1	0.00e+00	0	25	0	704643072	46	6523
2026-01-09 11:43:51.98	87.85	7.36	-37.2	-38.3	22.0	0.00e+00	0	25	0	710934528	46	6645
2026-01-09 11:43:55.01	88.32	7.29	-37.1	-38.2	22.1	0.00e+00	0	25	0	716177408	46	6578
2026-01-09 11:43:58.04	88.79	7.21	-37.5	-38.6	21.7	0.00e+00	0	25	0	722468864	46	6898
2026-01-09 11:44:01.07	89.26	7.14	-38.1	-39.3	21.1	0.00e+00	0	25	0	727711744	48	6675
2026-01-09 11:44:04.09	89.72	7.06	-38.7	-40.0	20.5	0.00e+00	0	25	0	732954624	48	7249
2026-01-09 11:44:07.11	90.18	6.98	-38.9	-40.2	20.4	0.00e+00	0	25	0	739246080	50	6570
2026-01-09 11:44:10.14	90.64	6.90	-38.8	-40.1	20.3	0.00e+00	0	25	0	744488960	50	6507
2026-01-09 11:44:13.17	91.10	6.82	-39.1	-40.5	20.0	0.00e+00	0	25	0	750780416	50	6828
2026-01-09 11:44:16.20	91.56	6.74	-39.0	-40.5	20.0	0.00e+00	0	25	0	756023296	50	6808
2026-01-09 11:44:19.23	92.01	6.66	-38.9	-40.3	20.2	0.00e+00	0	25	0	761266176	50	6668
2026-01-09 11:44:22.25	92.46	6.57	-38.7	-40.0	20.3	0.00e+00	0	25	0	767557632	50	6463
2026-01-09 11:44:25.27	92.90	6.49	-39.2	-40.6	20.0	0.00e+00	0	25	0	772800512	50	6852
2026-01-09 11:44:28.30	93.35	6.40	-39.4	-40.9	19.6	0.00e+00	0	25	0	779091968	50	7162
2026-01-09 11:44:31.33	93.79	6.31	-40.0	-41.6	19.0	0.00e+00	0	25	0	784334848	52	6868
2026-01-09 11:44:34.36	94.23	6.22	-40.7	-42.5	18.2	0.00e+00	0	25	0	789577728	52	7607
2026-01-09 11:44:37.38	94.67	6.13	-40.5	-43.0	17.6	0.00e+00	0	25	0	795869184	54	7171
2026-01-09 11:44:40.41	95.10	6.04	-40.6	-43.1	17.4	0.00e+00	0	25	0	801112064	54	7323
2026-01-09 11:44:43.44	95.54	5.94	-40.4	-42.4	18.1	0.00e+00	0	25	0	807403520	54	6735
2026-01-09 11:44:46.47	95.97	5.85	-39.8	-41.5	19.1	0.00e+00	0	25	0	812646400	54	6039
2026-01-09 11:44:49.50	96.39	5.76	-39.9	-41.5	19.0	0.00e+00	0	25	0	818937856	52	6837
2026-01-09 11:44:52.52	96.82	5.66	-40.0	-41.7	18.8	0.00e+00	0	25	0	824180736	52	6977
2026-01-09 11:44:55.55	97.24	5.56	-40.2	-42.0	18.5	0.00e+00	0	25	0	829423616	52	7228
2026-01-09 11:44:58.58	97.66	5.47	-40.0	-42.2	18.4	0.00e+00	0	25	0	835715072	52	7356
2026-01-09 11:45:01.59	98.07	5.37	-40.1	-42.0	18.5	0.00e+00	0	25	0	840957952	52	7198
2026-01-09 11:45:04.62	98.48	5.27	-40.1	-41.7	18.7	0.00e+00	0	25	0	847249408	52	6974
2026-01-09 11:45:07.64	98.89	5.17	-39.7	-41.3	19.2	0.00e+00	0	25	0	852492288	52	6622
2026-01-09 11:45:10.67	99.30	5.07	-39.6	-41.3	19.1	0.00e+00	0	25	0	857735168	52	6660
2026-01-09 11:45:13.70	99.71	4.97	-39.3	-41.5	18.7	0.00e+00	0	25	0	864026624	52	6821
2026-01-09 11:45:16.73	100.11	4.86	-40.2	-42.4	18.0	0.00e+00	0	25	0	869269504	52	7567
2026-01-09 11:45:19.75	100.51	4.76	-40.0	-42.0	18.3	0.00e+00	0	25	0	875560960	52	7248
2026-01-09 11:45:22.78	100.91	4.66	-39.5	-41.0	19.4	0.00e+00	0	25	0	880803840	52	6442
2026-01-09 11:45:25.81	101.30	4.55	-38.9	-40.6	19.7	0.00e+00	0	25	0	886046720	52	6155
2026-01-09 11:45:28.83	101.69	4.45	-38.7	-40.4	19.8	0.00e+00	0	25	0	892338176	50	6747
2026-01-09 11:45:31.86	102.08	4.34	-39.5	-41.1	19.1	0.00e+00	0	25	0	897581056	50	7316
2026-01-09 11:45:34.89	102.47	4.23	-39.6	-41.2	19.1	0.00e+00	0	25	0	903872512	52	6579
2026-01-09 11:45:37.92	102.85	4.13	-39.2	-41.1	19.1	0.00e+00	0	25	0	909115392	52	6514
2026-01-09 11:45:40.94	103.23	4.02	-39.9	-41.9	18.5	0.00e+00	0	25	0	915406848	52	7132
2026-01-09 11:45:43.97	103.61	3.91	-39.7	-41.7	18.4	0.00e+00	0	25	0	920649728	52	6991
2026-01-09 11:45:47.00	103.99	3.80	-38.1	-40.5	19.4	0.00e+00	0	25	0	925892608	50	6842
2026-01-09 11:45:50.03	104.36	3.69	-38.1	-40.2	19.7	0.00e+00	0	25	0	932184064	50	6581
2026-01-09 11:45:53.06	104.73	3.58	-38.1	-40.3	19.5	0.00e+00	0	25	0	937426944	50	6617
2026-01-09 11:45:56.09	105.10	3.47	-38.3	-40.5	19.2	0.00e+00	0	25	0	943718400	50	6827
2026-01-09 11:45:59.11	105.46	3.36	-38.9	-41.0	18.7	0.00e+00	0	25	0	948961280	50	7182
2026-01-09 11:46:02.14	105.82	3.25	-39.3	-41.2	18.4	0.00e+00	0	25	0	954204160	50	7393
2026-01-09 11:46:05.17	106.18	3.13	-38.8	-40.7	18.6	0.00e+00	0	25	0	960495616	50	6961
2026-01-09 11:46:08.20	106.54	3.02	-39.0	-41.3	17.5	0.00e+00	0	25	0	965738496	50	7499
2026-01-09 11:46:11.23	106.90	2.91	-47.4	-62.6	3.6	1.51e+00	0	25	104	966787072	60	49001
2026-01-09 11:46:14.26	107.25	2.80	-47.5	-62.9	3.6	1.51e+00	0	25	104	966787072	60	50349
2026-01-09 11:46:17.29	107.60	2.68	-47.8	-63.0	3.6	1.51e+00	0	25	104	966787072	60	50880
2026-01-09 11:46:20.32	107.95	2.57	-47.6	-62.9	3.6	1.51e+00	0	25	104	966787072	60	50576
2026-01-09 11:46:23.35	108.29	2.45	-47.6	-62.9	3.6	1.51e+00	0	25	104	966787072	60	50357
2026-01-09 11:46:26.37	108.63	2.34	-47.7	-62.9	3.6	1.51e+00	0	25	104	966787072	60	50634
2026-01-09 11:46:29.40	108.97	2.22	-47.7	-62.9	3.6	1.51e+00	0	25	104	966787072	60	50449
2026-01-09 11:46:32.43	109.31	2.11	-47.7	-62.9	3.6	1.51e+00	0	25	104	966787072	60	50491
2026-01-09 11:46:35.46	109.64	1.99	-47.7	-62.9	3.6	1.51e+00	0	25	104	966787072	60	50435
2026-01-09 11:46:38.49	109.97	1.87	-47.7	-62.9	3.6	1.51e+00	0	25	104	966787072	60	50359
2026-01-09 11:46:41.52	110.30	1.76	-47.7	-62.9	3.6	1.51e+00	0	25	104	966787072	60	50393
2026-01-09 11:46:44.55	110.63	1.64	-47.7	-62.9	3.6	1.51e+00	0	25	104	966787072	60	50244
2026-01-09 11:46:47.58	110.95	1.52	-47.7	-62.9	3.6	1.51e+00	0	25	104	966787072	60	50325
2026-01-09 11:46:50.61	111.27	1.41	-47.7	-62.8	3.6	1.51e+00	0	25	104	966787072	60	49997
2026-01-09 11:46:53.63	111.59	1.29	-47.8	-63.0	3.6	1.51e+00	0	25	104	966787072	60	50774
2026-01-09 11:46:56.66	111.91	1.17	-47.7	-62.8	3.6	1.51e+00	0	25	104	966787072	60	50154
2026-01-09 11:46:59.69	112.22	1.05	-47.7	-62.9	3.6	1.51e+00	0	25	104	966787072	60	50424
2026-01-09 11:47:02.72	112.54	0.94	-47.7	-62.9	3.6	1.51e+00	0	25	104	966787072	60	50586
2026-01-09 11:47:05.75	112.85	0.82	-47.7	-62.9	3.6	1.51e+00	0	25	104	966787072	60	50563
2026-01-09 11:47:08.78	113.15	0.70	-47.7	-62.9	3.6	1.51e+00	0	25	104	966787072	60	50244
2026-01-09 11:47:11.81	113.46	0.58	-47.7	-62.9	3.6	1.51e+00	0	25	104	966787072	60	50425
2026-01-09 11:47:14.84	113.76	0.46	-47.8	-63.0	3.6	1.51e+00	0	25	104	966787072	60	50962
2026-01-09 11:47:17.87	114.06	0.34	-47.7	-62.9	3.6	1.51e+00	0	25	104	966787072	60	50726
2026-01-09 11:47:20.89	114.36	0.22	-47.8	-63.0	3.6	1.51e+00	0	25	104	966787072	60	50814
2026-01-09 11:47:23.92	114.66	0.10	-47.8	-62.9	3.6	1.51e+00	0	25	104	966787072	60	50651
2026-01-09 11:47:26.95	114.95	-0.02	-47.8	-63.0	3.6	1.51e+00	0	25	104	966787072	60	50992

#Closed at: 2026-01-09 11:47:27
#Recorded file [966 MB]: D:/lorett/data/35029_260109_233620.dat