passes_logs/2026/01/09/R4.6S_Anadyr/R4.6S_Anadyr__20260109_021107_FENGYUN_3D_rec.log

#Pass ID: 20260109_021107_FENGYUN 3D
#Satellite: FENGYUN 3D
#Configuration: FENGYUN 3D
#almurnet v.1.7.20251203
#Start time: 2026-01-09 02:11:09

#Version: 2.2.20231116
#Station: R4.6S_Anadyr
#Location: 177.4865 lon 64.73178 lat
#TLE: 1 43010U 17072A   26008.23776554  .00000457  00000+0  23766-3 0  9992
#TLE: 2 43010  98.9934 339.9493 0002110 120.0616 240.0769 14.19695192422296

#Time	Az	El	Level	Level2	SNR	BER	BlckErr	Temp	State	Recorded	gain1	gain2
2026-01-09 02:11:09.74	154.58	0.11	-48.3	-66.0	3.5	3.02e+01	0	31	0	0	60	76585
2026-01-09 02:11:13.77	154.59	0.35	-48.2	-60.3	3.6	8.45e-01	0	32	104	0	60	37204
2026-01-09 02:11:17.81	154.60	0.60	-48.2	-60.2	3.6	8.44e-01	0	32	104	0	60	37185
2026-01-09 02:11:21.85	154.61	0.85	-47.7	-59.8	3.6	8.45e-01	0	32	104	0	60	35160
2026-01-09 02:11:25.89	154.62	1.10	-45.5	-57.5	3.6	8.45e-01	0	32	104	0	60	27018
2026-01-09 02:11:29.93	154.63	1.35	-45.5	-57.6	3.6	8.44e-01	0	32	104	0	60	27474
2026-01-09 02:11:33.97	154.64	1.61	-45.5	-57.1	3.6	8.46e-01	0	32	104	0	60	25990
2026-01-09 02:11:38.01	154.65	1.86	-45.5	-57.5	3.6	8.45e-01	0	32	104	0	60	27256
2026-01-09 02:11:42.05	154.66	2.12	-45.4	-57.1	3.6	8.45e-01	0	33	104	0	60	26012
2026-01-09 02:11:46.09	154.67	2.39	-45.4	-56.7	3.6	8.44e-01	0	33	104	0	60	24778
2026-01-09 02:11:50.13	154.67	2.65	-45.3	-56.0	3.6	8.44e-01	0	32	104	0	60	22873
2026-01-09 02:11:54.17	154.68	2.92	-45.5	-57.5	3.6	8.46e-01	0	33	104	0	60	27125
2026-01-09 02:11:58.21	154.69	3.19	-43.8	-48.0	7.7	1.55e-01	0	33	0	6291456	60	9076
2026-01-09 02:12:02.24	154.70	3.46	-41.7	-44.0	12.3	3.66e-04	0	33	0	28311552	56	7247
2026-01-09 02:12:06.28	154.71	3.73	-41.9	-44.5	11.7	4.05e-04	0	33	0	51380224	56	7639
2026-01-09 02:12:10.32	154.72	4.01	-44.9	-51.1	5.1	8.09e-01	0	33	0	61865984	60	12943
2026-01-09 02:12:14.36	154.73	4.29	-40.0	-41.8	14.6	2.20e-06	0	33	0	72351744	54	6289
2026-01-09 02:12:18.39	154.73	4.58	-39.9	-41.7	14.4	0.00e+00	0	33	0	94371840	52	6971
2026-01-09 02:12:22.43	154.74	4.86	-40.2	-42.0	14.5	0.00e+00	0	33	0	117440512	52	7199
2026-01-09 02:12:26.47	154.75	5.15	-40.1	-41.8	14.8	1.10e-06	0	33	0	140509184	52	7043
2026-01-09 02:12:30.51	154.76	5.44	-39.8	-41.4	15.4	0.00e+00	0	33	0	163577856	52	6734
2026-01-09 02:12:34.54	154.77	5.74	-39.5	-41.0	15.8	0.00e+00	0	33	0	185597952	52	6458
2026-01-09 02:12:38.58	154.77	6.04	-39.3	-40.8	16.0	0.00e+00	0	33	0	208666624	52	6262
2026-01-09 02:12:42.62	154.78	6.34	-38.7	-40.0	16.9	0.00e+00	0	33	0	230686720	50	6436
2026-01-09 02:12:46.66	154.79	6.65	-38.1	-39.4	17.7	0.00e+00	0	33	0	253755392	50	5980
2026-01-09 02:12:50.69	154.80	6.96	-37.9	-39.1	17.9	0.00e+00	0	33	0	276824064	50	5809
2026-01-09 02:12:54.73	154.80	7.27	-37.7	-38.8	18.2	0.00e+00	0	33	0	298844160	48	6296
2026-01-09 02:12:58.77	154.81	7.59	-37.7	-38.8	18.2	0.00e+00	0	33	0	321912832	48	6308
2026-01-09 02:13:02.81	154.82	7.91	-37.9	-39.0	18.1	0.00e+00	0	33	0	344981504	48	6431
2026-01-09 02:13:06.85	154.83	8.24	-37.8	-38.9	18.2	0.00e+00	0	33	0	367001600	48	6384
2026-01-09 02:13:10.88	154.83	8.57	-38.0	-39.2	17.8	0.00e+00	0	33	0	390070272	48	6567
2026-01-09 02:13:14.92	154.84	8.91	-38.2	-39.4	17.5	0.00e+00	0	33	0	413138944	48	6753
2026-01-09 02:13:18.96	154.85	9.25	-38.2	-39.4	17.6	0.00e+00	0	33	0	435159040	48	6724
2026-01-09 02:13:23.00	154.85	9.59	-38.0	-39.2	17.9	0.00e+00	0	33	0	458227712	48	6566
2026-01-09 02:13:27.03	154.86	9.94	-37.7	-38.8	18.4	0.00e+00	0	33	0	481296384	48	6301
2026-01-09 02:13:31.07	154.87	10.29	-37.3	-38.4	19.0	0.00e+00	0	33	0	503316480	48	5984
2026-01-09 02:13:35.11	154.87	10.65	-36.9	-37.9	19.6	0.00e+00	0	33	0	526385152	48	5646
2026-01-09 02:13:39.15	154.88	11.02	-36.6	-37.5	20.0	0.00e+00	0	33	0	549453824	46	6092
2026-01-09 02:13:43.19	154.88	11.39	-36.4	-37.4	20.1	0.00e+00	0	33	0	571473920	46	5973
2026-01-09 02:13:47.22	154.89	11.76	-36.6	-37.5	20.0	0.00e+00	0	33	0	594542592	46	6069
2026-01-09 02:13:51.26	154.89	12.14	-36.7	-37.7	19.7	0.00e+00	0	33	0	617611264	46	6204
2026-01-09 02:13:55.29	154.90	12.53	-37.0	-38.0	19.4	0.00e+00	0	33	0	639631360	46	6424
2026-01-09 02:13:59.33	154.90	12.92	-37.0	-38.0	19.2	0.00e+00	0	33	0	662700032	46	6461
2026-01-09 02:14:03.37	154.91	13.33	-37.0	-38.0	19.1	0.00e+00	0	33	0	685768704	46	6459
2026-01-09 02:14:07.40	154.91	13.73	-36.9	-37.9	19.5	0.00e+00	0	33	0	707788800	46	6335
2026-01-09 02:14:11.44	154.92	14.15	-36.7	-37.7	19.9	0.00e+00	0	33	0	730857472	46	6199
2026-01-09 02:14:15.47	154.92	14.57	-36.3	-37.2	20.5	0.00e+00	0	33	0	753926144	46	5856
2026-01-09 02:14:19.51	154.93	15.00	-35.9	-36.8	20.9	0.00e+00	0	33	0	775946240	46	5588
2026-01-09 02:14:23.55	154.93	15.43	-35.7	-36.6	21.0	0.00e+00	0	33	0	799014912	44	6131
2026-01-09 02:14:27.58	154.93	15.88	-35.5	-36.4	21.3	0.00e+00	0	33	0	821035008	44	5968
2026-01-09 02:14:31.62	154.93	16.33	-35.5	-36.3	21.4	0.00e+00	0	33	0	844103680	44	5947
2026-01-09 02:14:35.66	154.94	16.79	-35.5	-36.3	21.2	0.00e+00	0	33	0	867172352	44	5948
2026-01-09 02:14:39.70	154.94	17.26	-35.2	-36.1	21.0	0.00e+00	0	33	0	890241024	44	5795
2026-01-09 02:14:43.74	154.94	17.74	-34.8	-35.6	21.5	0.00e+00	0	33	0	912261120	44	5502
2026-01-09 02:14:47.78	154.94	18.23	-33.8	-34.5	22.9	0.00e+00	0	33	0	935329792	42	5413
2026-01-09 02:14:51.81	154.94	18.73	-32.5	-33.2	24.6	0.00e+00	0	33	0	958398464	38	5896
2026-01-09 02:14:55.85	154.94	19.24	-31.6	-32.3	25.9	0.00e+00	0	33	0	980418560	36	5905
2026-01-09 02:14:59.88	154.94	19.76	-30.5	-31.1	26.9	0.00e+00	0	33	0	1003487232	34	5786
2026-01-09 02:15:03.92	154.94	20.29	-29.9	-30.6	27.4	0.00e+00	0	33	0	1025507328	34	5440
2026-01-09 02:15:07.96	154.94	20.83	-29.7	-30.3	27.7	0.00e+00	0	33	0	1048576000	32	5929
2026-01-09 02:15:12.00	154.94	21.38	-29.5	-30.1	27.8	0.00e+00	0	33	0	1071644672	32	5803
2026-01-09 02:15:16.04	154.94	21.95	-29.4	-30.0	27.9	0.00e+00	0	33	0	1093664768	32	5752
2026-01-09 02:15:20.08	154.94	22.53	-29.4	-30.0	28.0	0.00e+00	0	33	0	1116733440	32	5749
2026-01-09 02:15:24.12	154.93	23.12	-29.2	-29.9	28.1	0.00e+00	0	33	0	1139802112	32	5638
2026-01-09 02:15:28.16	154.93	23.73	-29.2	-29.8	28.1	0.00e+00	0	33	0	1162870784	32	5599
2026-01-09 02:15:32.20	154.93	24.35	-29.0	-29.6	28.2	0.00e+00	0	33	0	1184890880	32	5481
2026-01-09 02:15:36.24	154.92	24.99	-29.1	-29.8	28.1	0.00e+00	0	33	0	1207959552	32	5580
2026-01-09 02:15:40.28	154.91	25.64	-29.3	-29.9	28.0	0.00e+00	0	33	0	1229979648	32	5684
2026-01-09 02:15:44.32	154.91	26.31	-29.1	-29.8	28.1	0.00e+00	0	33	0	1253048320	32	5582
2026-01-09 02:15:48.36	154.90	27.00	-28.9	-29.5	28.4	0.00e+00	0	33	0	1276116992	32	5403
2026-01-09 02:15:52.40	154.89	27.71	-28.8	-29.4	28.4	0.00e+00	0	33	0	1299185664	32	5326
2026-01-09 02:15:56.44	154.88	28.43	-29.1	-29.7	28.3	0.00e+00	0	33	0	1321205760	32	5550
2026-01-09 02:16:00.48	154.87	29.17	-29.0	-29.7	28.3	0.00e+00	0	33	0	1344274432	32	5511
2026-01-09 02:16:04.52	154.86	29.93	-28.8	-29.4	28.5	0.00e+00	0	33	0	1367343104	32	5320
2026-01-09 02:16:08.56	154.84	30.72	-28.7	-29.3	28.5	0.00e+00	0	33	0	1389363200	30	5935
2026-01-09 02:16:12.60	154.83	31.52	-28.6	-29.2	28.6	0.00e+00	0	33	0	1412431872	30	5870
2026-01-09 02:16:16.63	154.81	32.35	-28.3	-28.9	28.9	0.00e+00	0	33	0	1434451968	30	5650
2026-01-09 02:16:20.67	154.80	33.20	-28.4	-29.0	28.8	0.00e+00	0	33	0	1457520640	30	5712
2026-01-09 02:16:24.71	154.78	34.07	-28.4	-29.1	28.9	0.00e+00	0	33	0	1480589312	30	5767
2026-01-09 02:16:28.75	154.76	34.97	-28.1	-28.7	29.0	0.00e+00	0	33	0	1502609408	30	5545
2026-01-09 02:16:32.78	154.73	35.90	-28.5	-29.1	28.7	0.00e+00	0	33	0	1525678080	30	5806
2026-01-09 02:16:36.82	154.71	36.85	-28.0	-28.5	29.2	0.00e+00	0	33	0	1548746752	30	5433
2026-01-09 02:16:40.86	154.68	37.84	-28.2	-28.8	28.9	0.00e+00	0	33	0	1571815424	30	5611
2026-01-09 02:16:44.89	154.65	38.85	-28.7	-29.3	28.6	0.00e+00	0	33	0	1593835520	30	5911
2026-01-09 02:16:48.93	154.61	39.89	-28.7	-29.3	28.6	0.00e+00	0	33	0	1616904192	30	5942
2026-01-09 02:16:52.97	154.58	40.97	-28.7	-29.3	28.6	0.00e+00	0	33	0	1638924288	30	5900
2026-01-09 02:16:57.01	154.54	42.08	-28.5	-29.1	28.8	0.00e+00	0	33	0	1661992960	30	5783
2026-01-09 02:17:01.04	154.49	43.22	-28.9	-29.5	28.5	0.00e+00	0	33	0	1685061632	30	6062
2026-01-09 02:17:05.08	154.44	44.40	-29.1	-29.8	28.2	0.00e+00	0	33	0	1707081728	30	6273
2026-01-09 02:17:09.12	154.39	45.61	-28.5	-29.2	28.7	0.00e+00	0	33	0	1730150400	30	5842
2026-01-09 02:17:13.15	154.33	46.86	-28.8	-29.5	28.5	0.00e+00	0	33	0	1753219072	30	6042
2026-01-09 02:17:17.19	154.26	48.15	-28.6	-29.2	28.7	0.00e+00	0	33	0	1775239168	30	5894
2026-01-09 02:17:21.23	154.19	49.48	-28.5	-29.1	28.8	0.00e+00	0	33	0	1798307840	30	5806
2026-01-09 02:17:25.27	154.11	50.85	-29.3	-30.0	28.1	0.00e+00	0	33	0	1821376512	30	6398
2026-01-09 02:17:29.31	154.02	52.27	-30.0	-30.7	27.6	0.00e+00	0	33	0	1843396608	32	6184
2026-01-09 02:17:33.35	153.92	53.72	-29.8	-30.4	27.7	0.00e+00	0	33	0	1866465280	32	6011
2026-01-09 02:17:37.39	153.81	55.22	-29.9	-30.5	27.7	0.00e+00	0	33	0	1889533952	32	6064
2026-01-09 02:17:41.43	153.68	56.76	-29.6	-30.3	27.9	0.00e+00	0	33	0	1911554048	32	5917
2026-01-09 02:17:45.46	153.54	58.34	-29.2	-29.9	28.2	0.00e+00	0	33	0	1934622720	32	5669
2026-01-09 02:17:49.50	153.37	59.97	-28.8	-29.5	28.5	0.00e+00	0	33	0	1957691392	32	5383
2026-01-09 02:17:53.54	153.18	61.63	-28.9	-29.5	28.4	0.00e+00	0	33	0	1979711488	30	6036
2026-01-09 02:17:57.58	152.96	63.35	-28.3	-28.9	28.8	0.00e+00	0	33	0	2002780160	30	5686
2026-01-09 02:18:01.62	152.71	65.10	-28.4	-29.0	28.7	0.00e+00	0	33	0	2025848832	30	5749
2026-01-09 02:18:05.66	152.41	66.89	-27.7	-28.3	29.3	0.00e+00	0	33	0	2047868928	28	5924
2026-01-09 02:18:09.70	152.04	68.73	-27.6	-28.2	29.2	0.00e+00	0	33	0	2070937600	28	5867
2026-01-09 02:18:13.73	151.60	70.59	-27.0	-27.6	29.7	0.00e+00	0	33	0	2094006272	28	5464
2026-01-09 02:18:17.77	151.06	72.49	-27.0	-27.6	29.7	0.00e+00	0	33	0	2116026368	28	5483
2026-01-09 02:18:21.81	150.37	74.43	-27.1	-27.7	29.7	0.00e+00	0	33	0	2139095040	28	5535
2026-01-09 02:18:25.84	149.47	76.38	-27.0	-27.6	29.7	0.00e+00	0	33	0	2162163712	28	5501
2026-01-09 02:18:29.88	148.24	78.37	-25.9	-26.6	30.4	0.00e+00	0	33	0	2184183808	26	5473
2026-01-09 02:18:33.92	146.50	80.36	-25.9	-26.5	30.3	0.00e+00	0	33	0	2207252480	26	5382
2026-01-09 02:18:37.96	143.80	82.37	-25.7	-26.3	30.4	0.00e+00	0	33	0	2230321152	24	5926
2026-01-09 02:18:42.00	139.16	84.36	-25.6	-26.2	30.5	0.00e+00	0	33	0	2252341248	24	5879
2026-01-09 02:18:46.03	129.58	86.28	-26.3	-27.0	30.0	0.00e+00	0	33	0	2275409920	24	6393
2026-01-09 02:18:50.07	102.76	87.91	-26.9	-27.6	29.8	0.00e+00	0	33	0	2298478592	26	6119
2026-01-09 02:18:54.11	39.95	88.11	-27.3	-27.9	29.4	0.00e+00	0	33	0	2320498688	26	6381
2026-01-09 02:18:58.15	6.56	86.62	-26.5	-27.1	29.7	0.00e+00	0	33	0	2343567360	26	5827
2026-01-09 02:19:02.18	355.26	84.73	-26.0	-26.6	30.3	0.00e+00	0	33	0	2366636032	24	6111
2026-01-09 02:19:06.22	350.03	82.74	-26.3	-26.9	30.1	0.00e+00	0	33	0	2388656128	24	6373
2026-01-09 02:19:10.26	347.08	80.74	-25.8	-26.4	30.4	0.00e+00	0	33	0	2411724800	24	5973
2026-01-09 02:19:14.30	345.20	78.74	-26.1	-26.7	30.1	0.00e+00	0	33	0	2433744896	24	6232
2026-01-09 02:19:18.33	343.90	76.76	-26.6	-27.3	29.9	0.00e+00	0	33	0	2456813568	24	6630
2026-01-09 02:19:22.37	342.95	74.80	-26.8	-27.4	29.7	0.00e+00	0	33	0	2479882240	26	5975
2026-01-09 02:19:26.41	342.22	72.86	-26.5	-27.1	30.0	0.00e+00	0	33	0	2502950912	26	5783
2026-01-09 02:19:30.45	341.65	70.96	-27.2	-27.8	29.5	0.00e+00	0	33	0	2524971008	28	5581
2026-01-09 02:19:34.48	341.20	69.09	-27.3	-27.8	29.4	0.00e+00	0	33	0	2548039680	28	5630
2026-01-09 02:19:38.52	340.82	67.25	-27.8	-28.5	29.1	0.00e+00	0	33	0	2571108352	28	6053
2026-01-09 02:19:42.56	340.51	65.46	-27.7	-28.2	29.1	0.00e+00	0	33	0	2593128448	28	5856
2026-01-09 02:19:46.59	340.25	63.70	-27.7	-28.4	29.2	0.00e+00	0	33	0	2616197120	28	5974
2026-01-09 02:19:50.63	340.02	61.99	-28.1	-28.7	28.8	0.00e+00	0	33	0	2638217216	28	6230
2026-01-09 02:19:54.67	339.83	60.31	-28.0	-28.7	29.0	0.00e+00	0	33	0	2661285888	28	6177
2026-01-09 02:19:58.70	339.66	58.69	-28.7	-29.2	28.5	0.00e+00	0	33	0	2684354560	28	6582
2026-01-09 02:20:02.75	339.51	57.09	-30.1	-30.7	27.4	0.00e+00	0	33	0	2706374656	32	6235
2026-01-09 02:20:06.79	339.38	55.55	-29.6	-30.3	27.4	0.00e+00	0	33	0	2729443328	32	5909
2026-01-09 02:20:10.83	339.27	54.05	-29.6	-30.1	27.8	0.00e+00	0	33	0	2752512000	32	5799
2026-01-09 02:20:14.86	339.17	52.59	-29.2	-29.7	28.1	0.00e+00	0	33	0	2775580672	32	5530
2026-01-09 02:20:18.89	339.08	51.18	-29.1	-29.8	28.2	0.00e+00	0	33	0	2797600768	32	5620
2026-01-09 02:20:22.93	339.00	49.80	-28.3	-28.9	28.7	0.00e+00	0	33	0	2820669440	30	5652
2026-01-09 02:20:26.97	338.92	48.47	-28.4	-29.0	28.7	0.00e+00	0	33	0	2842689536	30	5711
2026-01-09 02:20:31.01	338.86	47.17	-28.3	-29.0	28.8	0.00e+00	0	33	0	2865758208	30	5712
2026-01-09 02:20:35.04	338.80	45.92	-28.7	-29.2	28.5	0.00e+00	0	33	0	2888826880	30	5878
2026-01-09 02:20:39.08	338.74	44.70	-28.1	-28.6	29.0	0.00e+00	0	33	0	2910846976	30	5493
2026-01-09 02:20:43.12	338.69	43.52	-28.4	-28.9	28.7	0.00e+00	0	33	0	2933915648	30	5692
2026-01-09 02:20:47.16	338.65	42.37	-28.5	-29.0	28.6	0.00e+00	0	33	0	2956984320	30	5728
2026-01-09 02:20:51.20	338.61	41.26	-28.3	-29.0	28.8	0.00e+00	0	33	0	2979004416	30	5728
2026-01-09 02:20:55.23	338.57	40.18	-27.9	-28.6	29.1	0.00e+00	0	33	0	3002073088	30	5470
2026-01-09 02:20:59.27	338.54	39.13	-27.7	-28.4	29.1	0.00e+00	0	33	0	3025141760	28	5994
2026-01-09 02:21:03.31	338.51	38.12	-27.3	-27.9	29.4	0.00e+00	0	33	0	3047161856	28	5635
2026-01-09 02:21:07.35	338.48	37.13	-27.9	-28.4	29.0	0.00e+00	0	33	0	3070230528	28	5998
2026-01-09 02:21:11.38	338.46	36.17	-28.1	-28.6	28.8	0.00e+00	0	33	0	3093299200	28	6172
2026-01-09 02:21:15.42	338.44	35.24	-27.8	-28.3	29.0	0.00e+00	0	33	0	3115319296	28	5961
2026-01-09 02:21:19.46	338.42	34.34	-27.9	-28.4	28.9	0.00e+00	0	33	0	3138387968	28	6017
2026-01-09 02:21:23.49	338.40	33.46	-28.4	-29.0	28.6	0.00e+00	0	33	0	3161456640	28	6406
2026-01-09 02:21:27.54	338.38	32.61	-28.8	-29.5	28.4	0.00e+00	0	33	0	3183476736	30	6045
2026-01-09 02:21:31.57	338.36	31.78	-28.6	-29.2	28.5	0.00e+00	0	33	0	3206545408	30	5863
2026-01-09 02:21:35.61	338.35	30.97	-28.4	-29.1	28.7	0.00e+00	0	33	0	3229614080	30	5797
2026-01-09 02:21:39.65	338.34	30.19	-28.3	-28.8	28.7	0.00e+00	0	33	0	3251634176	30	5600
2026-01-09 02:21:43.68	338.33	29.43	-28.5	-29.0	28.5	0.00e+00	0	33	0	3274702848	30	5752
2026-01-09 02:21:47.72	338.32	28.68	-28.5	-29.0	28.5	0.00e+00	0	33	0	3297771520	30	5756
2026-01-09 02:21:51.76	338.31	27.96	-28.3	-28.8	28.7	0.00e+00	0	33	0	3319791616	30	5614
2026-01-09 02:21:55.80	338.30	27.25	-28.3	-28.8	28.7	0.00e+00	0	33	0	3342860288	30	5623
2026-01-09 02:21:59.84	338.30	26.56	-28.4	-28.9	28.6	0.00e+00	0	33	0	3364880384	30	5650
2026-01-09 02:22:03.88	338.29	25.89	-28.7	-29.2	28.4	0.00e+00	0	33	0	3387949056	30	5881
2026-01-09 02:22:07.91	338.29	25.24	-28.8	-29.4	28.3	0.00e+00	0	33	0	3411017728	30	5987
2026-01-09 02:22:11.95	338.28	24.60	-29.0	-29.5	28.2	0.00e+00	0	33	0	3434086400	30	6079
2026-01-09 02:22:15.99	338.28	23.98	-29.0	-29.7	28.1	0.00e+00	0	33	0	3456106496	30	6207
2026-01-09 02:22:20.03	338.28	23.37	-29.1	-29.8	28.0	0.00e+00	0	33	0	3479175168	30	6312
2026-01-09 02:22:24.07	338.28	22.77	-29.3	-30.0	27.9	0.00e+00	0	33	0	3502243840	30	6442
2026-01-09 02:22:28.11	338.28	22.19	-29.5	-30.2	27.7	0.00e+00	0	33	0	3524263936	30	6574
2026-01-09 02:22:32.15	338.28	21.62	-29.7	-30.3	27.4	0.00e+00	0	33	0	3547332608	32	5931
2026-01-09 02:22:36.19	338.28	21.07	-29.7	-30.4	27.5	0.00e+00	0	33	0	3569352704	32	6018
2026-01-09 02:22:40.23	338.28	20.52	-29.7	-30.4	27.6	0.00e+00	0	33	0	3592421376	32	5990
2026-01-09 02:22:44.27	338.28	19.99	-29.9	-30.5	27.4	0.00e+00	0	33	0	3615490048	32	6050
2026-01-09 02:22:48.30	338.28	19.47	-29.9	-30.4	27.4	0.00e+00	0	33	0	3638558720	32	6008
2026-01-09 02:22:52.34	338.29	18.96	-29.9	-30.6	27.3	0.00e+00	0	33	0	3660578816	32	6168
2026-01-09 02:22:56.38	338.29	18.46	-30.0	-30.6	27.2	0.00e+00	0	33	0	3683647488	32	6138
2026-01-09 02:23:00.42	338.29	17.97	-30.4	-31.0	27.0	0.00e+00	0	33	0	3706716160	32	6407
2026-01-09 02:23:04.46	338.30	17.49	-30.5	-31.0	26.9	0.00e+00	0	33	0	3728736256	32	6453
2026-01-09 02:23:08.50	338.30	17.02	-30.5	-31.1	26.8	0.00e+00	0	33	0	3751804928	32	6477
2026-01-09 02:23:12.54	338.31	16.56	-30.9	-31.6	26.5	0.00e+00	0	33	0	3773825024	34	6130
2026-01-09 02:23:16.58	338.31	16.10	-30.8	-31.4	26.6	0.00e+00	0	33	0	3796893696	34	5997
2026-01-09 02:23:20.62	338.32	15.66	-30.9	-31.7	26.4	0.00e+00	0	33	0	3819962368	34	6185
2026-01-09 02:23:24.65	338.32	15.22	-31.1	-31.8	26.3	0.00e+00	0	33	0	3841982464	34	6264
2026-01-09 02:23:28.69	338.33	14.79	-31.1	-31.7	26.2	0.00e+00	0	33	0	3865051136	34	6209
2026-01-09 02:23:32.72	338.33	14.37	-31.3	-32.0	26.1	0.00e+00	0	33	0	3888119808	34	6420
2026-01-09 02:23:36.76	338.34	13.95	-31.4	-32.0	26.0	0.00e+00	0	33	0	3911188480	34	6446
2026-01-09 02:23:40.79	338.35	13.55	-31.5	-32.1	25.9	0.00e+00	0	33	0	3933208576	34	6532
2026-01-09 02:23:44.83	338.36	13.15	-31.9	-32.5	25.5	0.00e+00	0	33	0	3956277248	36	6044
2026-01-09 02:23:48.87	338.36	12.75	-31.8	-32.4	25.6	0.00e+00	0	33	0	3978297344	36	5971
2026-01-09 02:23:52.91	338.37	12.36	-31.9	-32.5	25.5	0.00e+00	0	33	0	4001366016	36	6095
2026-01-09 02:23:56.95	338.38	11.98	-31.9	-32.7	25.5	0.00e+00	0	33	0	4024434688	36	6174
2026-01-09 02:24:00.99	338.39	11.60	-32.1	-32.7	25.2	0.00e+00	0	33	0	4046454784	36	6244
2026-01-09 02:24:05.03	338.40	11.23	-32.3	-33.0	25.1	0.00e+00	0	33	0	4069523456	36	6394
2026-01-09 02:24:09.06	338.40	10.87	-32.2	-32.8	25.2	0.00e+00	0	33	0	4092592128	36	6304
2026-01-09 02:24:13.10	338.41	10.51	-32.3	-33.1	25.0	0.00e+00	0	33	0	4115660800	36	6512
2026-01-09 02:24:17.14	338.42	10.16	-32.4	-33.1	25.0	0.00e+00	0	33	0	4137680896	36	6467
2026-01-09 02:24:21.18	338.43	9.81	-32.4	-33.0	24.9	0.00e+00	0	33	0	4160749568	36	6456
2026-01-09 02:24:25.22	338.44	9.46	-32.8	-33.6	24.5	0.00e+00	0	33	0	4182769664	38	6125
2026-01-09 02:24:29.26	338.45	9.12	-32.7	-33.3	24.6	0.00e+00	0	33	0	4205838336	38	5964
2026-01-09 02:24:33.29	338.46	8.79	-32.9	-33.6	24.5	0.00e+00	0	33	0	4228907008	38	6158
2026-01-09 02:24:37.33	338.47	8.46	-33.0	-33.7	24.2	0.00e+00	0	33	0	4250927104	38	6176
2026-01-09 02:24:41.37	338.48	8.13	-33.0	-33.7	24.3	0.00e+00	0	33	0	4273995776	38	6175
2026-01-09 02:24:45.40	338.49	7.81	-33.1	-33.7	24.2	0.00e+00	0	33	0	4297064448	38	6238
2026-01-09 02:24:49.44	338.50	7.49	-33.1	-33.9	24.1	0.00e+00	0	33	0	4319084544	38	6338
2026-01-09 02:24:53.48	338.51	7.17	-33.1	-33.8	24.0	0.00e+00	0	33	0	4342153216	38	6271
2026-01-09 02:24:57.51	338.52	6.86	-33.4	-34.1	23.7	0.00e+00	0	33	0	4365221888	38	6486
2026-01-09 02:25:01.54	338.54	6.56	-33.5	-34.2	23.6	0.00e+00	0	33	0	4387241984	38	6590
2026-01-09 02:25:05.57	338.55	6.26	-33.5	-34.2	23.6	0.00e+00	0	33	0	4410310656	38	6543
2026-01-09 02:25:09.61	338.56	5.96	-33.4	-34.0	23.6	0.00e+00	0	33	0	4433379328	38	6455
2026-01-09 02:25:13.64	338.57	5.66	-33.6	-34.4	23.2	0.00e+00	0	33	0	4455399424	38	6717
2026-01-09 02:25:17.68	338.58	5.37	-34.5	-35.3	21.7	0.00e+00	0	33	0	4478468096	40	6624
2026-01-09 02:25:21.72	338.59	5.08	-35.9	-36.8	19.6	0.00e+00	0	33	0	4501536768	44	6302
2026-01-09 02:25:25.76	338.60	4.79	-37.9	-39.3	16.4	0.00e+00	0	33	0	4523556864	48	6620
2026-01-09 02:25:29.80	338.62	4.51	-40.0	-42.4	12.5	1.67e-04	0	33	0	4546625536	52	7514
2026-01-09 02:25:33.83	338.63	4.23	-41.7	-45.7	8.0	4.87e-02	0	33	0	4568645632	54	9891
2026-01-09 02:25:37.87	338.64	3.95	-42.6	-48.5	4.7	7.62e-01	0	33	0	4587520000	56	12143
2026-01-09 02:25:41.91	338.65	3.67	-42.9	-52.9	3.7	8.43e-01	0	34	104	4587520000	58	17999
2026-01-09 02:25:45.95	338.67	3.40	-42.9	-54.0	3.6	8.47e-01	0	34	104	4587520000	58	20379
2026-01-09 02:25:49.99	338.68	3.13	-43.0	-54.8	3.6	8.44e-01	0	33	104	4587520000	58	22245
2026-01-09 02:25:54.02	338.69	2.87	-47.7	-59.8	3.6	8.46e-01	0	34	104	4587520000	60	35522
2026-01-09 02:25:58.06	338.70	2.60	-48.2	-60.3	3.6	8.45e-01	0	33	104	4587520000	60	37241
2026-01-09 02:26:02.09	338.72	2.34	-47.2	-60.3	3.6	8.45e-01	0	34	104	4587520000	60	37492
2026-01-09 02:26:06.14	338.73	2.08	-48.2	-60.4	3.5	8.46e-01	0	34	104	4587520000	60	37787
2026-01-09 02:26:10.17	338.74	1.82	-48.1	-60.2	3.6	8.45e-01	0	34	104	4587520000	60	36984
2026-01-09 02:26:14.22	338.75	1.57	-48.1	-60.2	3.6	8.45e-01	0	34	104	4587520000	60	36975
2026-01-09 02:26:18.26	338.77	1.31	-48.1	-60.1	3.6	8.44e-01	0	34	104	4587520000	60	36764
2026-01-09 02:26:22.30	338.78	1.06	-48.1	-60.2	3.6	8.46e-01	0	34	104	4587520000	60	36887
2026-01-09 02:26:26.34	338.79	0.81	-48.1	-60.2	3.6	8.46e-01	0	34	104	4587520000	60	36839
2026-01-09 02:26:30.38	338.81	0.57	-48.1	-60.1	3.6	8.45e-01	0	34	104	4587520000	60	36698
2026-01-09 02:26:34.42	338.82	0.32	-48.1	-60.1	3.6	8.46e-01	0	34	104	4587520000	60	36763
2026-01-09 02:26:38.46	338.84	0.08	-48.1	-60.1	3.6	8.45e-01	0	34	104	4587520000	60	36728

#Closed at: 2026-01-09 02:26:40
#Recorded file [4587 MB]: D:/lorett/data/35029_260109_141109.dat