passes_logs/2026/01/09/R4.6S_Anadyr/R4.6S_Anadyr__20260109_115655_NOAA_20_JPSS-1_rec.log

#Pass ID: 20260109_115655_NOAA 20 (JPSS-1)
#Satellite: NOAA 20 (JPSS-1)
#Configuration: NOAA 20
#almurnet v.1.7.20251203
#Start time: 2026-01-09 11:56:55

#Version: 2.2.20231116
#Station: R4.6S_Anadyr
#Location: 177.4865 lon 64.73178 lat
#TLE: 1 43013U 17073A   26008.91585656  .00000107  00000+0  71497-4 0  9999
#TLE: 2 43013  98.7631 309.9196 0001713  47.9261 312.2060 14.19534561421870

#Time	Az	El	Level	Level2	SNR	BER	BlckErr	Temp	State	Recorded	gain1	gain2
2026-01-09 11:56:55.91	19.72	0.04	-47.8	-62.7	3.5	1.51e+00	0	21	0	0	60	49218
2026-01-09 11:56:58.93	19.98	0.17	-47.8	-63.0	3.6	1.51e+00	0	23	104	0	60	51032
2026-01-09 11:57:01.96	20.24	0.31	-47.9	-63.1	3.6	1.51e+00	0	23	104	0	60	51389
2026-01-09 11:57:04.99	20.51	0.44	-47.7	-63.0	3.6	1.51e+00	0	23	104	0	60	50840
2026-01-09 11:57:08.02	20.77	0.58	-47.4	-62.6	3.6	1.51e+00	0	23	104	0	60	48878
2026-01-09 11:57:11.05	21.04	0.71	-46.8	-61.9	3.6	1.51e+00	0	23	104	0	60	44996
2026-01-09 11:57:14.08	21.31	0.85	-46.1	-61.2	3.6	1.51e+00	0	23	104	0	60	41741
2026-01-09 11:57:17.10	21.59	0.98	-46.1	-61.2	3.6	1.51e+00	0	23	104	0	60	41700
2026-01-09 11:57:20.13	21.86	1.12	-46.0	-61.3	3.6	1.51e+00	0	23	104	0	60	41774
2026-01-09 11:57:23.16	22.14	1.25	-46.1	-61.2	3.5	1.51e+00	0	23	104	0	60	41674
2026-01-09 11:57:26.19	22.42	1.39	-46.1	-61.2	3.6	1.51e+00	0	23	104	0	60	41697
2026-01-09 11:57:29.22	22.70	1.52	-46.1	-61.2	3.6	1.51e+00	0	23	104	0	60	41626
2026-01-09 11:57:32.25	22.99	1.66	-46.0	-61.2	3.6	1.51e+00	0	23	104	0	60	41407
2026-01-09 11:57:35.28	23.28	1.79	-46.0	-61.2	3.6	1.51e+00	0	23	104	0	60	41676
2026-01-09 11:57:38.31	23.57	1.93	-46.0	-61.2	3.6	1.51e+00	0	23	104	0	60	41620
2026-01-09 11:57:41.34	23.86	2.07	-46.0	-61.1	3.6	1.51e+00	0	23	104	0	60	41230
2026-01-09 11:57:44.37	24.15	2.20	-46.0	-61.1	3.6	1.51e+00	0	23	104	0	60	41141
2026-01-09 11:57:47.40	24.45	2.34	-46.0	-61.1	3.6	1.51e+00	0	23	104	0	60	41128
2026-01-09 11:57:50.43	24.75	2.47	-46.0	-60.8	3.6	1.51e+00	0	23	104	0	60	39789
2026-01-09 11:57:53.46	25.06	2.61	-46.0	-60.8	3.6	1.51e+00	0	23	104	0	60	39636
2026-01-09 11:57:56.49	25.36	2.75	-44.3	-48.9	11.1	2.72e-02	0	23	0	1048576	60	10025
2026-01-09 11:57:59.52	25.67	2.88	-40.6	-42.4	17.8	0.00e+00	0	23	0	6291456	54	6764
2026-01-09 11:58:02.55	25.98	3.02	-42.0	-44.5	15.6	0.00e+00	0	23	0	12582912	56	7642
2026-01-09 11:58:05.58	26.30	3.16	-43.3	-46.9	12.9	0.00e+00	0	23	0	17825792	54	11282
2026-01-09 11:58:08.61	26.61	3.29	-41.9	-44.1	16.7	0.00e+00	0	23	0	19922944	58	6529
2026-01-09 11:58:11.64	26.93	3.43	-39.2	-40.6	19.8	0.00e+00	0	23	0	25165824	52	6110
2026-01-09 11:58:14.66	27.25	3.56	-39.2	-40.6	19.7	0.00e+00	0	23	0	31457280	52	6165
2026-01-09 11:58:17.69	27.58	3.70	-39.2	-40.6	19.7	0.00e+00	0	23	0	36700160	52	6160
2026-01-09 11:58:20.72	27.91	3.84	-39.2	-40.5	19.8	0.00e+00	0	24	0	42991616	52	6096
2026-01-09 11:58:23.75	28.24	3.97	-39.2	-40.7	19.8	0.00e+00	0	23	0	48234496	52	6177
2026-01-09 11:58:26.77	28.57	4.11	-39.2	-40.6	20.0	0.00e+00	0	23	0	54525952	52	6114
2026-01-09 11:58:29.79	28.91	4.24	-39.3	-40.7	19.8	0.00e+00	0	23	0	59768832	52	6235
2026-01-09 11:58:32.82	29.25	4.38	-39.3	-40.7	19.9	0.00e+00	0	23	0	65011712	52	6181
2026-01-09 11:58:35.85	29.59	4.52	-39.2	-40.6	20.0	0.00e+00	0	23	0	71303168	52	6134
2026-01-09 11:58:38.88	29.94	4.65	-38.7	-40.0	20.4	0.00e+00	0	23	0	76546048	52	5748
2026-01-09 11:58:41.91	30.29	4.79	-39.0	-40.4	20.2	0.00e+00	0	23	0	82837504	50	6716
2026-01-09 11:58:44.93	30.64	4.92	-39.4	-40.7	19.9	0.00e+00	0	23	0	88080384	50	6998
2026-01-09 11:58:47.96	30.99	5.06	-39.0	-40.3	20.3	0.00e+00	0	23	0	93323264	50	6649
2026-01-09 11:58:50.98	31.35	5.19	-38.4	-39.6	21.1	0.00e+00	0	23	0	99614720	50	6109
2026-01-09 11:58:54.01	31.71	5.33	-38.5	-39.7	21.0	0.00e+00	0	23	0	104857600	50	6193
2026-01-09 11:58:57.04	32.08	5.46	-38.4	-39.5	21.1	0.00e+00	0	23	0	111149056	50	6098
2026-01-09 11:59:00.07	32.44	5.59	-38.3	-39.5	21.2	0.00e+00	0	23	0	116391936	50	6065
2026-01-09 11:59:03.09	32.81	5.73	-38.3	-39.5	21.1	0.00e+00	0	23	0	121634816	50	6073
2026-01-09 11:59:06.12	33.19	5.86	-38.2	-39.3	21.3	0.00e+00	0	24	0	127926272	50	5962
2026-01-09 11:59:09.15	33.57	5.99	-38.3	-39.5	21.3	0.00e+00	0	23	0	133169152	50	6064
2026-01-09 11:59:12.18	33.95	6.13	-38.3	-39.5	21.2	0.00e+00	0	24	0	139460608	50	6049
2026-01-09 11:59:15.20	34.33	6.26	-38.5	-39.6	21.1	0.00e+00	0	24	0	144703488	50	6159
2026-01-09 11:59:18.23	34.72	6.39	-38.2	-39.4	21.4	0.00e+00	0	24	0	150994944	50	5984
2026-01-09 11:59:21.26	35.11	6.52	-38.2	-39.3	21.4	0.00e+00	0	24	0	156237824	50	5932
2026-01-09 11:59:24.29	35.51	6.65	-38.1	-39.2	21.6	0.00e+00	0	24	0	161480704	50	5851
2026-01-09 11:59:27.31	35.90	6.78	-38.0	-39.1	21.6	0.00e+00	0	23	0	167772160	50	5828
2026-01-09 11:59:30.34	36.30	6.91	-38.0	-39.1	21.7	0.00e+00	0	24	0	173015040	50	5780
2026-01-09 11:59:33.37	36.71	7.04	-38.1	-39.2	21.7	0.00e+00	0	24	0	179306496	50	5832
2026-01-09 11:59:36.40	37.12	7.17	-38.0	-39.1	21.7	0.00e+00	0	24	0	184549376	50	5823
2026-01-09 11:59:39.42	37.53	7.30	-38.0	-39.1	21.7	0.00e+00	0	24	0	189792256	50	5816
2026-01-09 11:59:42.45	37.95	7.43	-38.0	-39.1	21.8	0.00e+00	0	24	0	196083712	50	5802
2026-01-09 11:59:45.48	38.36	7.56	-38.1	-39.2	21.7	0.00e+00	0	24	0	201326592	50	5878
2026-01-09 11:59:48.51	38.79	7.68	-38.3	-39.4	21.4	0.00e+00	0	24	0	207618048	50	6015
2026-01-09 11:59:51.53	39.21	7.81	-38.5	-39.6	21.3	0.00e+00	0	24	0	212860928	50	6167
2026-01-09 11:59:54.56	39.64	7.93	-38.3	-39.5	21.5	0.00e+00	0	24	0	218103808	50	6049
2026-01-09 11:59:57.59	40.07	8.06	-38.5	-39.7	21.3	0.00e+00	0	24	0	224395264	50	6174
2026-01-09 12:00:00.62	40.51	8.18	-38.4	-39.5	21.4	0.00e+00	0	23	0	229638144	50	6072
2026-01-09 12:00:03.65	40.95	8.31	-38.4	-39.5	21.5	0.00e+00	0	24	0	235929600	50	6060
2026-01-09 12:00:06.67	41.40	8.43	-38.5	-39.7	21.3	0.00e+00	0	24	0	241172480	50	6195
2026-01-09 12:00:09.70	41.84	8.55	-38.5	-39.6	21.4	0.00e+00	0	24	0	247463936	50	6151
2026-01-09 12:00:12.72	42.29	8.67	-38.3	-39.5	21.5	0.00e+00	0	23	0	252706816	50	6058
2026-01-09 12:00:15.75	42.75	8.79	-38.4	-39.5	21.6	0.00e+00	0	24	0	257949696	50	6075
2026-01-09 12:00:18.78	43.21	8.91	-38.5	-39.6	21.4	0.00e+00	0	24	0	264241152	50	6158
2026-01-09 12:00:21.81	43.67	9.02	-38.6	-39.7	21.3	0.00e+00	0	24	0	269484032	50	6235
2026-01-09 12:00:24.83	44.13	9.14	-38.4	-39.5	21.5	0.00e+00	0	24	0	275775488	50	6083
2026-01-09 12:00:27.86	44.60	9.25	-38.3	-39.5	21.5	0.00e+00	0	24	0	281018368	50	6043
2026-01-09 12:00:30.88	45.07	9.37	-38.6	-39.7	21.3	0.00e+00	0	24	0	286261248	50	6224
2026-01-09 12:00:33.91	45.55	9.48	-38.7	-39.8	21.2	0.00e+00	0	24	0	292552704	50	6311
2026-01-09 12:00:36.94	46.03	9.59	-38.6	-39.8	21.3	0.00e+00	0	24	0	297795584	50	6267
2026-01-09 12:00:39.97	46.51	9.70	-38.4	-39.5	21.6	0.00e+00	0	24	0	304087040	50	6068
2026-01-09 12:00:43.00	47.00	9.81	-38.2	-39.3	21.7	0.00e+00	0	24	0	309329920	50	5956
2026-01-09 12:00:46.02	47.49	9.92	-38.2	-39.3	21.8	0.00e+00	0	24	0	315621376	50	5911
2026-01-09 12:00:49.05	47.98	10.03	-38.3	-39.4	21.7	0.00e+00	0	24	0	320864256	50	6018
2026-01-09 12:00:52.08	48.48	10.13	-38.5	-39.6	21.5	0.00e+00	0	24	0	326107136	50	6129
2026-01-09 12:00:55.11	48.98	10.24	-38.6	-39.7	21.4	0.00e+00	0	24	0	332398592	50	6216
2026-01-09 12:00:58.14	49.49	10.34	-38.5	-39.7	21.4	0.00e+00	0	24	0	337641472	50	6197
2026-01-09 12:01:01.16	49.99	10.44	-38.3	-39.5	21.7	0.00e+00	0	24	0	343932928	50	6036
2026-01-09 12:01:04.19	50.50	10.54	-38.6	-39.7	21.4	0.00e+00	0	24	0	349175808	50	6239
2026-01-09 12:01:07.22	51.02	10.63	-38.5	-39.6	21.5	0.00e+00	0	24	0	354418688	50	6152
2026-01-09 12:01:10.24	51.54	10.73	-38.4	-39.5	21.7	0.00e+00	0	24	0	360710144	50	6070
2026-01-09 12:01:13.27	52.06	10.82	-38.4	-39.6	21.6	0.00e+00	0	24	0	365953024	50	6114
2026-01-09 12:01:16.30	52.58	10.92	-38.6	-39.8	21.5	0.00e+00	0	24	0	372244480	50	6278
2026-01-09 12:01:19.33	53.11	11.01	-38.7	-39.9	21.2	0.00e+00	0	24	0	377487360	50	6318
2026-01-09 12:01:22.36	53.64	11.09	-38.4	-39.5	20.9	0.00e+00	0	24	0	382730240	50	6056
2026-01-09 12:01:25.38	54.17	11.18	-38.2	-39.3	21.8	0.00e+00	0	24	0	389021696	50	5941
2026-01-09 12:01:28.41	54.71	11.27	-38.1	-39.2	22.0	0.00e+00	0	24	0	394264576	50	5868
2026-01-09 12:01:31.44	55.25	11.35	-38.1	-39.2	22.0	0.00e+00	0	24	0	400556032	50	5832
2026-01-09 12:01:34.46	55.79	11.43	-38.0	-39.1	22.1	0.00e+00	0	24	0	405798912	50	5811
2026-01-09 12:01:37.49	56.34	11.51	-38.0	-39.1	22.1	0.00e+00	0	24	0	412090368	50	5777
2026-01-09 12:01:40.52	56.89	11.59	-37.8	-38.9	22.3	0.00e+00	0	24	0	417333248	50	5640
2026-01-09 12:01:43.55	57.44	11.66	-37.6	-38.6	22.5	0.00e+00	0	24	0	422576128	48	6157
2026-01-09 12:01:46.58	57.99	11.73	-37.5	-38.5	22.6	0.00e+00	0	24	0	428867584	48	6093
2026-01-09 12:01:49.61	58.55	11.80	-37.7	-38.7	22.3	0.00e+00	0	24	0	434110464	48	6233
2026-01-09 12:01:52.63	59.11	11.87	-38.2	-39.2	21.9	0.00e+00	0	24	0	440401920	48	6604
2026-01-09 12:01:55.66	59.67	11.94	-38.2	-39.3	21.9	0.00e+00	0	24	0	445644800	48	6633
2026-01-09 12:01:58.68	60.23	12.00	-38.3	-39.4	21.8	0.00e+00	0	24	0	450887680	48	6728
2026-01-09 12:02:01.71	60.80	12.06	-38.4	-39.5	21.8	0.00e+00	0	24	0	457179136	48	6819
2026-01-09 12:02:04.74	61.37	12.12	-38.6	-39.7	21.5	0.00e+00	0	24	0	462422016	48	6989
2026-01-09 12:02:07.77	61.94	12.18	-39.0	-40.2	21.0	0.00e+00	0	24	0	468713472	50	6584
2026-01-09 12:02:10.79	62.51	12.23	-39.0	-40.1	21.2	0.00e+00	0	24	0	473956352	50	6536
2026-01-09 12:02:13.82	63.08	12.28	-38.8	-40.0	21.2	0.00e+00	0	24	0	479199232	50	6414
2026-01-09 12:02:16.85	63.66	12.33	-38.7	-39.8	21.3	0.00e+00	0	24	0	485490688	50	6309
2026-01-09 12:02:19.87	64.24	12.38	-38.7	-39.8	21.4	0.00e+00	0	24	0	490733568	50	6304
2026-01-09 12:02:22.90	64.82	12.42	-38.6	-39.7	21.3	0.00e+00	0	24	0	497025024	50	6229
2026-01-09 12:02:25.92	65.40	12.46	-38.5	-39.7	21.5	0.00e+00	0	24	0	502267904	50	6214
2026-01-09 12:02:28.95	65.98	12.50	-38.5	-39.6	21.5	0.00e+00	0	24	0	508559360	50	6160
2026-01-09 12:02:31.97	66.57	12.54	-38.4	-39.5	21.7	0.00e+00	0	24	0	513802240	50	6094
2026-01-09 12:02:35.00	67.16	12.57	-38.4	-39.4	21.8	0.00e+00	0	24	0	519045120	50	6031
2026-01-09 12:02:38.03	67.74	12.60	-38.2	-39.3	21.9	0.00e+00	0	24	0	525336576	50	5916
2026-01-09 12:02:41.06	68.33	12.63	-37.9	-38.9	22.2	0.00e+00	0	24	0	530579456	50	5680
2026-01-09 12:02:44.08	68.92	12.66	-38.2	-39.3	21.9	0.00e+00	0	24	0	536870912	50	5934
2026-01-09 12:02:47.11	69.51	12.68	-38.3	-39.5	21.7	0.00e+00	0	24	0	542113792	50	6036
2026-01-09 12:02:50.14	70.11	12.70	-37.9	-39.0	22.2	0.00e+00	0	24	0	547356672	50	5718
2026-01-09 12:02:53.17	70.70	12.72	-37.7	-38.8	22.4	0.00e+00	0	24	0	553648128	48	6266
2026-01-09 12:02:56.20	71.29	12.73	-37.6	-38.6	22.5	0.00e+00	0	24	0	558891008	48	6131
2026-01-09 12:02:59.22	71.89	12.74	-37.5	-38.5	22.7	0.00e+00	0	24	0	565182464	48	6073
2026-01-09 12:03:02.25	72.48	12.75	-37.2	-38.3	22.8	0.00e+00	0	24	0	570425344	48	5946
2026-01-09 12:03:05.28	73.08	12.76	-37.1	-38.3	22.9	0.00e+00	0	24	0	576716800	48	5908
2026-01-09 12:03:08.31	73.67	12.76	-36.8	-37.9	23.1	0.00e+00	0	24	0	581959680	46	6355
2026-01-09 12:03:11.34	74.27	12.76	-37.1	-38.1	23.0	0.00e+00	0	24	0	587202560	46	6504
2026-01-09 12:03:14.37	74.86	12.76	-36.9	-37.8	23.2	0.00e+00	0	24	0	593494016	46	6297
2026-01-09 12:03:17.39	75.46	12.76	-36.8	-37.7	23.3	0.00e+00	0	24	0	598736896	46	6243
2026-01-09 12:03:20.42	76.05	12.75	-36.6	-37.6	23.4	0.00e+00	0	24	0	605028352	46	6126
2026-01-09 12:03:23.45	76.65	12.74	-36.6	-37.5	23.4	0.00e+00	0	24	0	610271232	46	6080
2026-01-09 12:03:26.48	77.24	12.72	-36.4	-37.3	23.7	0.00e+00	0	24	0	615514112	46	5920
2026-01-09 12:03:29.51	77.83	12.71	-36.4	-37.3	23.7	0.00e+00	0	24	0	621805568	46	5930
2026-01-09 12:03:32.53	78.42	12.69	-36.6	-37.5	23.4	0.00e+00	0	24	0	627048448	46	6080
2026-01-09 12:03:35.56	79.02	12.67	-36.7	-37.6	23.3	0.00e+00	0	24	0	633339904	46	6164
2026-01-09 12:03:38.59	79.61	12.64	-36.7	-37.7	23.2	0.00e+00	0	24	0	638582784	46	6195
2026-01-09 12:03:41.62	80.20	12.62	-36.9	-37.9	23.1	0.00e+00	0	24	0	644874240	46	6352
2026-01-09 12:03:44.65	80.79	12.59	-37.0	-38.0	23.0	0.00e+00	0	24	0	650117120	46	6429
2026-01-09 12:03:47.68	81.38	12.55	-36.7	-37.6	23.3	0.00e+00	0	24	0	655360000	46	6152
2026-01-09 12:03:50.70	81.96	12.52	-36.7	-37.6	23.3	0.00e+00	0	24	0	661651456	46	6148
2026-01-09 12:03:53.73	82.55	12.48	-37.0	-38.0	22.9	0.00e+00	0	24	0	666894336	46	6427
2026-01-09 12:03:56.76	83.13	12.44	-37.2	-38.2	22.8	0.00e+00	0	24	0	673185792	46	6604
2026-01-09 12:03:59.79	83.71	12.40	-37.1	-38.1	22.9	0.00e+00	0	24	0	678428672	46	6474
2026-01-09 12:04:02.82	84.30	12.35	-36.7	-37.7	23.3	0.00e+00	0	24	0	683671552	46	6215
2026-01-09 12:04:05.85	84.87	12.30	-36.6	-37.6	23.4	0.00e+00	0	24	0	689963008	46	6165
2026-01-09 12:04:08.88	85.45	12.25	-36.5	-37.5	23.5	0.00e+00	0	24	0	695205888	46	6040
2026-01-09 12:04:11.90	86.03	12.20	-36.1	-37.1	23.8	0.00e+00	0	24	0	701497344	46	5812
2026-01-09 12:04:14.93	86.60	12.14	-36.5	-37.4	23.2	0.00e+00	0	24	0	706740224	46	6018
2026-01-09 12:04:17.96	87.17	12.09	-36.4	-37.4	23.5	0.00e+00	0	24	0	711983104	46	6018
2026-01-09 12:04:20.99	87.74	12.03	-36.4	-37.4	23.5	0.00e+00	0	24	0	718274560	46	5973
2026-01-09 12:04:24.01	88.30	11.96	-36.1	-37.1	23.8	0.00e+00	0	24	0	723517440	46	5807
2026-01-09 12:04:27.04	88.87	11.90	-36.0	-37.1	23.7	0.00e+00	0	24	0	729808896	46	5824
2026-01-09 12:04:30.06	89.43	11.83	-36.1	-37.2	23.7	0.00e+00	0	24	0	735051776	46	5843
2026-01-09 12:04:33.10	89.99	11.76	-36.4	-37.3	23.6	0.00e+00	0	24	0	741343232	46	5943
2026-01-09 12:04:36.12	90.54	11.69	-36.4	-37.3	23.6	0.00e+00	0	24	0	746586112	46	5931
2026-01-09 12:04:39.15	91.10	11.61	-36.4	-37.3	23.6	0.00e+00	0	24	0	751828992	46	5961
2026-01-09 12:04:42.18	91.65	11.54	-36.2	-37.1	23.8	0.00e+00	0	24	0	758120448	46	5828
2026-01-09 12:04:45.21	92.20	11.46	-36.1	-37.1	23.8	0.00e+00	0	24	0	763363328	46	5804
2026-01-09 12:04:48.23	92.74	11.38	-36.3	-37.2	23.6	0.00e+00	0	24	0	769654784	46	5889
2026-01-09 12:04:51.26	93.29	11.30	-36.3	-37.3	23.6	0.00e+00	0	24	0	774897664	46	5938
2026-01-09 12:04:54.29	93.83	11.21	-36.4	-37.3	23.5	0.00e+00	0	24	0	780140544	46	5938
2026-01-09 12:04:57.31	94.36	11.13	-36.8	-37.7	23.2	0.00e+00	0	24	0	786432000	46	6211
2026-01-09 12:05:00.34	94.89	11.04	-37.0	-38.0	22.8	0.00e+00	0	24	0	791674880	46	6442
2026-01-09 12:05:03.37	95.43	10.95	-37.4	-38.4	22.6	0.00e+00	0	24	0	797966336	46	6711
2026-01-09 12:05:06.40	95.95	10.85	-37.7	-38.7	22.2	0.00e+00	0	24	0	803209216	46	6980
2026-01-09 12:05:09.42	96.48	10.76	-38.1	-39.2	21.7	0.00e+00	0	24	0	809500672	48	6599
2026-01-09 12:05:12.45	97.00	10.67	-38.2	-39.4	21.7	0.00e+00	0	24	0	814743552	48	6707
2026-01-09 12:05:15.47	97.51	10.57	-37.8	-39.0	22.0	0.00e+00	0	24	0	819986432	48	6407
2026-01-09 12:05:18.50	98.03	10.47	-38.1	-39.3	21.6	0.00e+00	0	24	0	826277888	48	6643
2026-01-09 12:05:21.52	98.54	10.37	-38.6	-39.9	21.0	0.00e+00	0	24	0	831520768	48	7107
2026-01-09 12:05:24.55	99.04	10.27	-38.9	-40.2	20.9	0.00e+00	0	24	0	837812224	50	6578
2026-01-09 12:05:27.57	99.55	10.16	-39.4	-40.9	20.2	0.00e+00	0	24	0	843055104	50	7090
2026-01-09 12:05:30.60	100.05	10.06	-40.1	-41.5	19.6	0.00e+00	0	24	0	848297984	52	6838
2026-01-09 12:05:33.62	100.54	9.95	-40.0	-41.5	19.7	0.00e+00	0	24	0	854589440	52	6771
2026-01-09 12:05:36.64	101.04	9.84	-39.6	-41.0	20.1	0.00e+00	0	24	0	859832320	52	6415
2026-01-09 12:05:39.66	101.52	9.74	-39.4	-40.7	20.3	0.00e+00	0	24	0	866123776	52	6232
2026-01-09 12:05:42.68	102.01	9.62	-39.3	-40.6	20.5	0.00e+00	0	24	0	871366656	52	6160
2026-01-09 12:05:45.71	102.49	9.51	-39.4	-40.9	20.2	0.00e+00	0	24	0	876609536	52	6321
2026-01-09 12:05:48.74	102.97	9.40	-39.6	-41.2	19.8	0.00e+00	0	24	0	882900992	52	6597
2026-01-09 12:05:51.76	103.45	9.29	-39.4	-41.5	19.6	0.00e+00	0	24	0	888143872	52	6799
2026-01-09 12:05:54.80	103.92	9.17	-38.9	-40.7	20.3	0.00e+00	0	24	0	894435328	52	6241
2026-01-09 12:05:57.82	104.39	9.05	-38.9	-40.4	20.6	0.00e+00	0	24	0	899678208	52	5992
2026-01-09 12:06:00.85	104.85	8.93	-39.1	-40.5	20.6	0.00e+00	0	24	0	904921088	52	6079
2026-01-09 12:06:03.87	105.31	8.82	-39.4	-40.8	20.2	0.00e+00	0	24	0	911212544	52	6265
2026-01-09 12:06:06.90	105.77	8.70	-38.9	-40.1	20.9	0.00e+00	0	24	0	916455424	52	5808
2026-01-09 12:06:09.93	106.23	8.58	-38.4	-39.5	21.4	0.00e+00	0	24	0	922746880	50	6070
2026-01-09 12:06:12.96	106.68	8.45	-38.3	-39.4	21.4	0.00e+00	0	24	0	927989760	50	6007
2026-01-09 12:06:15.99	107.12	8.33	-38.6	-39.9	21.0	0.00e+00	0	24	0	934281216	50	6330
2026-01-09 12:06:19.01	107.57	8.21	-38.6	-40.2	20.6	0.00e+00	0	24	0	939524096	50	6542
2026-01-09 12:06:22.04	108.01	8.08	-39.0	-40.3	20.7	0.00e+00	0	24	0	944766976	50	6641
2026-01-09 12:06:25.07	108.44	7.96	-38.6	-39.9	21.0	0.00e+00	0	24	0	951058432	50	6390
2026-01-09 12:06:28.10	108.88	7.83	-38.4	-39.7	21.2	0.00e+00	0	24	0	956301312	50	6202
2026-01-09 12:06:31.13	109.30	7.70	-38.0	-39.1	21.8	0.00e+00	0	24	0	962592768	50	5806
2026-01-09 12:06:34.15	109.73	7.58	-37.7	-38.9	21.9	0.00e+00	0	24	0	967835648	48	6336
2026-01-09 12:06:37.18	110.15	7.45	-37.8	-38.9	21.9	0.00e+00	0	24	0	973078528	48	6347
2026-01-09 12:06:40.21	110.57	7.32	-38.0	-39.1	21.7	0.00e+00	0	24	0	979369984	48	6485
2026-01-09 12:06:43.24	110.98	7.19	-37.8	-39.0	21.8	0.00e+00	0	24	0	984612864	48	6396
2026-01-09 12:06:46.26	111.39	7.06	-37.6	-38.9	21.9	0.00e+00	0	24	0	990904320	48	6365
2026-01-09 12:06:49.29	111.80	6.93	-37.7	-38.9	21.8	0.00e+00	0	24	0	996147200	48	6384
2026-01-09 12:06:52.31	112.20	6.80	-38.0	-39.2	21.6	0.00e+00	0	24	0	1001390080	48	6584
2026-01-09 12:06:55.34	112.60	6.67	-37.9	-39.1	21.6	0.00e+00	0	24	0	1007681536	48	6519
2026-01-09 12:06:58.36	113.00	6.54	-37.6	-38.7	21.9	0.00e+00	0	24	0	1012924416	48	6208
2026-01-09 12:07:01.39	113.39	6.40	-37.6	-38.7	22.0	0.00e+00	0	24	0	1019215872	48	6212
2026-01-09 12:07:04.42	113.79	6.27	-37.8	-38.9	21.7	0.00e+00	0	24	0	1024458752	48	6327
2026-01-09 12:07:07.45	114.17	6.14	-38.0	-39.2	21.4	0.00e+00	0	24	0	1030750208	48	6557
2026-01-09 12:07:10.48	114.56	6.00	-37.9	-39.1	21.5	0.00e+00	0	24	0	1035993088	48	6502
2026-01-09 12:07:13.50	114.93	5.87	-38.1	-39.2	21.6	0.00e+00	0	24	0	1041235968	48	6600
2026-01-09 12:07:16.53	115.31	5.73	-37.9	-39.1	21.5	0.00e+00	0	24	0	1047527424	48	6479
2026-01-09 12:07:19.55	115.68	5.60	-38.2	-39.4	21.2	0.00e+00	0	24	0	1052770304	48	6764
2026-01-09 12:07:22.58	116.05	5.47	-38.0	-39.3	21.2	0.00e+00	0	24	0	1059061760	48	6678
2026-01-09 12:07:25.60	116.42	5.33	-38.5	-39.7	20.8	0.00e+00	0	24	0	1064304640	48	6965
2026-01-09 12:07:28.63	116.78	5.19	-38.4	-39.7	20.8	0.00e+00	0	24	0	1069547520	48	6969
2026-01-09 12:07:31.66	117.14	5.06	-38.4	-39.9	20.7	0.00e+00	0	24	0	1075838976	48	7108
2026-01-09 12:07:34.68	117.50	4.92	-38.7	-40.3	20.2	0.00e+00	0	24	0	1081081856	48	7503
2026-01-09 12:07:37.71	117.86	4.79	-38.7	-40.3	20.2	0.00e+00	0	24	0	1087373312	50	6651
2026-01-09 12:07:40.74	118.21	4.65	-39.3	-40.9	19.6	0.00e+00	0	24	0	1092616192	50	7112
2026-01-09 12:07:43.76	118.55	4.51	-38.6	-39.9	20.6	0.00e+00	0	24	0	1097859072	50	6372
2026-01-09 12:07:46.79	118.90	4.38	-38.9	-40.2	20.2	0.00e+00	0	24	0	1104150528	50	6610
2026-01-09 12:07:49.82	119.24	4.24	-38.9	-40.3	20.1	0.00e+00	0	24	0	1109393408	50	6664
2026-01-09 12:07:52.85	119.58	4.10	-39.4	-41.0	19.4	0.00e+00	0	24	0	1115684864	50	7240
2026-01-09 12:07:55.87	119.91	3.96	-38.8	-40.4	19.9	0.00e+00	0	24	0	1120927744	50	6729
2026-01-09 12:07:58.90	120.25	3.83	-39.2	-40.9	19.4	0.00e+00	0	24	0	1127219200	50	7115
2026-01-09 12:08:01.93	120.57	3.69	-39.4	-41.0	19.2	0.00e+00	0	24	0	1132462080	50	7214
2026-01-09 12:08:04.95	120.90	3.55	-39.8	-41.6	18.8	0.00e+00	0	24	0	1137704960	52	6911
2026-01-09 12:08:07.98	121.22	3.42	-39.9	-41.9	18.4	0.00e+00	0	24	0	1143996416	52	7111
2026-01-09 12:08:11.01	121.55	3.28	-40.8	-43.1	17.2	0.00e+00	0	24	0	1149239296	52	8144
2026-01-09 12:08:14.04	121.86	3.14	-40.9	-43.2	16.7	0.00e+00	0	24	0	1155530752	54	7415
2026-01-09 12:08:17.06	122.18	3.00	-41.0	-43.3	16.6	0.00e+00	0	24	0	1160773632	54	7491
2026-01-09 12:08:20.09	122.49	2.87	-47.4	-62.6	3.6	1.51e+00	0	24	104	1161822208	60	48825
2026-01-09 12:08:23.12	122.80	2.73	-47.5	-63.0	3.6	1.51e+00	0	24	104	1161822208	60	50844
2026-01-09 12:08:26.14	123.11	2.59	-47.7	-63.0	3.6	1.51e+00	0	24	104	1161822208	60	51025
2026-01-09 12:08:29.17	123.41	2.45	-47.7	-62.9	3.6	1.51e+00	0	24	104	1161822208	60	50664
2026-01-09 12:08:32.20	123.71	2.31	-47.5	-63.0	3.6	1.51e+00	0	24	104	1161822208	60	50912
2026-01-09 12:08:35.23	124.01	2.18	-47.7	-62.9	3.6	1.51e+00	0	24	104	1161822208	60	50664
2026-01-09 12:08:38.25	124.30	2.04	-47.7	-63.0	3.6	1.51e+00	0	24	104	1161822208	60	50769
2026-01-09 12:08:41.28	124.60	1.90	-47.7	-62.9	3.6	1.51e+00	0	24	104	1161822208	60	50604
2026-01-09 12:08:44.31	124.89	1.77	-47.7	-62.9	3.6	1.51e+00	0	24	104	1161822208	60	50619
2026-01-09 12:08:47.34	125.18	1.63	-47.7	-62.9	3.6	1.51e+00	0	24	104	1161822208	60	50331
2026-01-09 12:08:50.37	125.46	1.49	-47.7	-63.0	3.6	1.51e+00	0	24	104	1161822208	60	50767
2026-01-09 12:08:53.40	125.75	1.35	-47.7	-62.9	3.6	1.51e+00	0	24	104	1161822208	60	50699
2026-01-09 12:08:56.42	126.03	1.22	-47.7	-62.9	3.6	1.51e+00	0	24	104	1161822208	60	50349
2026-01-09 12:08:59.45	126.31	1.08	-47.7	-63.0	3.6	1.51e+00	0	24	104	1161822208	60	50843
2026-01-09 12:09:02.48	126.58	0.94	-47.7	-62.9	3.6	1.51e+00	0	24	104	1161822208	60	50611
2026-01-09 12:09:05.51	126.85	0.81	-47.7	-63.0	3.6	1.51e+00	0	24	104	1161822208	60	50861
2026-01-09 12:09:08.54	127.13	0.67	-47.8	-63.0	3.6	1.51e+00	0	24	104	1161822208	60	50900
2026-01-09 12:09:11.57	127.40	0.53	-47.7	-62.9	3.6	1.51e+00	0	24	104	1161822208	60	50557
2026-01-09 12:09:14.60	127.66	0.40	-47.7	-62.9	3.6	1.51e+00	0	24	104	1161822208	60	50724
2026-01-09 12:09:17.63	127.93	0.26	-47.7	-62.9	3.6	1.51e+00	0	24	104	1161822208	60	50697
2026-01-09 12:09:20.65	128.19	0.13	-47.7	-62.9	3.5	1.51e+00	0	24	104	1161822208	60	50646
2026-01-09 12:09:23.68	128.45	-0.01	-47.7	-63.0	3.6	1.51e+00	0	24	104	1161822208	60	50973

#Closed at: 2026-01-09 12:09:26
#Recorded file [1161 MB]: D:/lorett/data/35029_260109_235655.dat