passes_logs/2026/01/09/R4.6S_Anadyr/R4.6S_Anadyr__20260109_045250_AQUA_rec.log

#Pass ID: 20260109_045250_AQUA
#Satellite: AQUA
#Configuration: AQUA
#almurnet v.1.7.20251203
#Start time: 2026-01-09 04:52:52

#Version: 2.2.20231116
#Station: R4.6S_Anadyr
#Location: 177.4865 lon 64.73178 lat
#TLE: 1 27424U 02022A   26004.96787593  .00001598  00000+0  32997-3 0  9996
#TLE: 2 27424  98.4069 331.2279 0002002  90.2377   0.6092 14.61798176259425

#Time	Az	El	Level	Level2	SNR	BER	BlckErr	Temp	State	Recorded	gain1	gain2
2026-01-09 04:52:52.37	240.22	0.09	-47.9	-58.6	3.5	8.45e-01	0	29	0	0	60	30806
2026-01-09 04:52:55.40	240.54	0.21	-48.1	-66.1	3.5	3.02e+01	0	30	104	0	60	77823
2026-01-09 04:52:58.43	240.87	0.34	-48.3	-66.1	3.5	3.02e+01	0	31	104	0	60	78059
2026-01-09 04:53:01.46	241.19	0.47	-48.3	-66.2	3.5	3.02e+01	0	31	104	0	60	78476
2026-01-09 04:53:04.49	241.52	0.59	-48.3	-66.1	3.5	3.02e+01	0	31	104	0	60	77796
2026-01-09 04:53:07.52	241.85	0.72	-48.0	-65.8	3.5	3.02e+01	0	31	104	0	60	74723
2026-01-09 04:53:10.55	242.19	0.85	-46.7	-64.5	3.5	3.02e+01	0	31	104	0	60	64408
2026-01-09 04:53:13.58	242.53	0.98	-46.6	-64.4	3.5	3.02e+01	0	31	104	0	60	64038
2026-01-09 04:53:16.61	242.87	1.10	-46.6	-64.4	3.5	3.02e+01	0	31	104	0	60	63846
2026-01-09 04:53:19.63	243.21	1.23	-46.6	-64.4	3.5	3.02e+01	0	31	104	0	60	63708
2026-01-09 04:53:22.66	243.56	1.35	-46.6	-64.2	3.5	3.02e+01	0	31	104	0	60	62690
2026-01-09 04:53:25.69	243.91	1.48	-46.6	-64.2	3.5	3.02e+01	0	31	104	0	60	62324
2026-01-09 04:53:28.72	244.26	1.61	-46.6	-64.4	3.5	3.02e+01	0	31	104	0	60	63865
2026-01-09 04:53:31.75	244.62	1.73	-46.6	-64.4	3.5	3.02e+01	0	31	104	0	60	64087
2026-01-09 04:53:34.78	244.98	1.86	-46.6	-64.4	3.5	3.02e+01	0	31	104	0	60	63570
2026-01-09 04:53:37.80	245.34	1.98	-46.6	-63.9	3.5	3.02e+01	0	31	104	0	60	60304
2026-01-09 04:53:40.83	245.70	2.11	-46.6	-63.7	3.6	3.02e+01	0	31	104	0	60	58766
2026-01-09 04:53:43.86	246.07	2.23	-46.6	-63.9	3.5	3.02e+01	0	31	104	0	60	60607
2026-01-09 04:53:46.89	246.45	2.36	-46.6	-63.7	3.5	3.02e+01	0	31	104	0	60	59059
2026-01-09 04:53:49.92	246.82	2.48	-46.5	-62.6	3.5	3.02e+01	0	31	104	0	60	51883
2026-01-09 04:53:52.95	247.20	2.60	-46.5	-62.3	3.6	3.02e+01	0	31	104	0	60	50381
2026-01-09 04:53:55.98	247.58	2.73	-46.4	-59.5	4.8	3.02e+01	0	31	104	0	60	36459
2026-01-09 04:53:59.01	247.97	2.85	-45.3	-51.8	12.2	3.02e+01	92	31	0	524288	60	14912
2026-01-09 04:54:02.04	248.36	2.97	-42.0	-44.8	19.2	3.02e+01	92	31	0	6291456	60	6678
2026-01-09 04:54:05.07	248.75	3.09	-46.2	-58.4	5.3	3.02e+01	41	31	0	9437184	60	31907
2026-01-09 04:54:08.09	249.15	3.22	-42.8	-46.0	18.2	3.02e+01	92	31	0	14680064	60	7686
2026-01-09 04:54:11.12	249.55	3.34	-38.0	-39.7	24.4	3.02e+01	90	31	0	20447232	52	5866
2026-01-09 04:54:14.15	249.95	3.46	-37.4	-39.0	25.0	3.02e+01	92	31	0	26214400	50	6079
2026-01-09 04:54:17.17	250.36	3.58	-37.6	-39.2	24.9	3.02e+01	90	31	0	31981568	50	6229
2026-01-09 04:54:20.20	250.77	3.70	-37.4	-38.9	25.0	3.02e+01	90	31	0	37748736	50	6055
2026-01-09 04:54:23.23	251.18	3.82	-37.2	-38.7	25.3	3.02e+01	92	31	0	42991616	50	5898
2026-01-09 04:54:26.26	251.60	3.93	-37.3	-38.8	25.3	3.02e+01	92	31	0	48758784	50	5942
2026-01-09 04:54:29.29	252.02	4.05	-37.2	-38.7	25.4	3.02e+01	92	31	0	54525952	50	5905
2026-01-09 04:54:32.32	252.44	4.17	-37.1	-38.6	25.5	3.02e+01	89	31	0	60293120	50	5823
2026-01-09 04:54:35.35	252.87	4.29	-37.2	-38.7	25.5	3.02e+01	91	31	0	66060288	50	5869
2026-01-09 04:54:38.37	253.30	4.40	-37.1	-38.5	25.6	3.02e+01	92	31	0	71303168	50	5786
2026-01-09 04:54:41.40	253.74	4.52	-36.8	-38.2	25.9	3.02e+01	91	31	0	77070336	48	6277
2026-01-09 04:54:44.43	254.18	4.63	-36.8	-38.3	25.9	3.02e+01	92	31	0	82837504	48	6293
2026-01-09 04:54:47.45	254.62	4.74	-36.8	-38.3	25.9	3.02e+01	91	31	0	88604672	48	6284
2026-01-09 04:54:50.48	255.06	4.86	-37.0	-38.4	25.8	3.02e+01	90	31	0	94371840	48	6394
2026-01-09 04:54:53.50	255.51	4.97	-37.0	-38.4	25.7	3.02e+01	92	31	0	100139008	48	6417
2026-01-09 04:54:56.53	255.96	5.08	-36.6	-38.0	26.2	3.02e+01	90	31	0	105381888	48	6106
2026-01-09 04:54:59.56	256.42	5.19	-36.6	-38.0	26.2	3.02e+01	92	31	0	111149056	48	6079
2026-01-09 04:55:02.59	256.88	5.30	-36.6	-38.0	26.2	3.02e+01	89	31	0	116916224	48	6134
2026-01-09 04:55:05.61	257.34	5.41	-36.6	-38.0	26.2	3.02e+01	92	31	0	122683392	48	6120
2026-01-09 04:55:08.64	257.81	5.52	-36.4	-37.8	26.4	3.02e+01	92	31	0	128450560	48	5985
2026-01-09 04:55:11.67	258.28	5.62	-36.4	-37.8	26.5	3.02e+01	92	31	0	134217728	48	5976
2026-01-09 04:55:14.69	258.76	5.73	-36.6	-38.0	26.4	3.02e+01	92	31	0	139460608	48	6109
2026-01-09 04:55:17.72	259.24	5.83	-36.2	-37.6	26.7	3.02e+01	92	31	0	145227776	48	5813
2026-01-09 04:55:20.75	259.72	5.94	-36.5	-37.9	26.4	3.02e+01	93	31	0	150994944	48	6024
2026-01-09 04:55:23.78	260.20	6.04	-36.2	-37.6	26.7	3.02e+01	92	31	0	156762112	48	5817
2026-01-09 04:55:26.81	260.69	6.14	-36.2	-37.5	26.7	3.02e+01	92	31	0	162529280	48	5780
2026-01-09 04:55:29.83	261.18	6.24	-36.3	-37.7	26.7	3.02e+01	92	31	0	167772160	48	5869
2026-01-09 04:55:32.86	261.68	6.34	-36.1	-37.5	26.8	3.02e+01	90	31	0	173539328	48	5751
2026-01-09 04:55:35.89	262.18	6.43	-36.1	-37.4	26.9	3.02e+01	92	31	0	179306496	48	5716
2026-01-09 04:55:38.92	262.68	6.53	-36.1	-37.5	26.8	3.02e+01	91	31	0	185073664	48	5766
2026-01-09 04:55:41.95	263.19	6.62	-35.9	-37.3	27.0	3.02e+01	91	31	0	190840832	48	5622
2026-01-09 04:55:44.97	263.70	6.71	-36.1	-37.5	26.9	3.02e+01	92	31	0	196608000	46	6430
2026-01-09 04:55:48.00	264.21	6.81	-36.0	-37.3	27.1	3.02e+01	91	31	0	202375168	46	6310
2026-01-09 04:55:51.03	264.73	6.90	-36.1	-37.4	26.9	3.02e+01	90	31	0	207618048	46	6413
2026-01-09 04:55:54.06	265.25	6.98	-35.9	-37.2	27.1	3.02e+01	90	31	0	213385216	46	6273
2026-01-09 04:55:57.09	265.78	7.07	-36.3	-37.7	26.9	3.02e+01	92	31	0	219152384	46	6574
2026-01-09 04:56:00.12	266.30	7.16	-35.9	-37.2	27.1	3.02e+01	91	31	0	224919552	46	6256
2026-01-09 04:56:03.14	266.83	7.24	-35.8	-37.1	27.2	3.02e+01	92	31	0	230686720	46	6201
2026-01-09 04:56:06.17	267.36	7.32	-35.6	-36.9	27.4	3.02e+01	90	31	0	235929600	46	6057
2026-01-09 04:56:09.20	267.90	7.40	-35.7	-37.0	27.3	3.02e+01	90	31	0	241696768	46	6123
2026-01-09 04:56:12.23	268.44	7.48	-35.6	-37.0	27.4	3.02e+01	92	31	0	247463936	46	6074
2026-01-09 04:56:15.26	268.98	7.56	-35.8	-37.1	27.3	3.02e+01	90	31	0	253231104	46	6176
2026-01-09 04:56:18.29	269.53	7.63	-35.6	-36.9	27.5	3.02e+01	91	31	0	258998272	46	6045
2026-01-09 04:56:21.31	270.07	7.70	-35.6	-37.0	27.6	3.02e+01	92	31	0	264765440	46	6072
2026-01-09 04:56:24.34	270.63	7.78	-35.7	-37.0	27.4	3.02e+01	92	32	0	270532608	46	6104
2026-01-09 04:56:27.37	271.18	7.84	-35.6	-36.9	27.5	3.02e+01	92	31	0	275775488	46	6040
2026-01-09 04:56:30.40	271.74	7.91	-35.6	-36.9	27.5	3.02e+01	92	32	0	281542656	46	6057
2026-01-09 04:56:33.43	272.29	7.98	-35.7	-37.1	27.5	3.02e+01	93	32	0	287309824	46	6141
2026-01-09 04:56:36.45	272.85	8.04	-35.4	-36.7	27.7	3.02e+01	90	31	0	293076992	46	5913
2026-01-09 04:56:39.48	273.42	8.10	-35.4	-36.7	27.7	3.02e+01	92	31	0	298844160	46	5884
2026-01-09 04:56:42.51	273.99	8.16	-35.4	-36.7	27.6	3.02e+01	92	31	0	304087040	46	5902
2026-01-09 04:56:45.54	274.55	8.22	-35.4	-36.7	27.7	3.02e+01	92	31	0	309854208	46	5908
2026-01-09 04:56:48.57	275.13	8.27	-35.4	-36.7	27.7	3.02e+01	92	31	0	315621376	46	5874
2026-01-09 04:56:51.60	275.70	8.32	-35.4	-36.6	27.7	3.02e+01	90	31	0	321388544	46	5852
2026-01-09 04:56:54.63	276.28	8.37	-35.2	-36.5	27.9	3.02e+01	92	31	0	327155712	46	5757
2026-01-09 04:56:57.66	276.85	8.42	-35.2	-36.5	27.9	3.02e+01	91	31	0	332922880	46	5730
2026-01-09 04:57:00.68	277.43	8.47	-35.2	-36.5	27.8	3.02e+01	92	31	0	338165760	46	5770
2026-01-09 04:57:03.71	278.01	8.51	-35.2	-36.5	28.0	3.02e+01	92	31	0	343932928	46	5728
2026-01-09 04:57:06.74	278.59	8.55	-35.2	-36.5	27.9	3.02e+01	92	31	0	349700096	46	5733
2026-01-09 04:57:09.77	279.18	8.59	-35.3	-36.6	27.9	3.02e+01	92	31	0	355467264	46	5804
2026-01-09 04:57:12.80	279.77	8.62	-35.1	-36.4	28.0	3.02e+01	92	31	0	361234432	46	5705
2026-01-09 04:57:15.82	280.35	8.66	-35.2	-36.5	28.0	3.02e+01	92	31	0	367001600	46	5740
2026-01-09 04:57:18.85	280.94	8.69	-35.2	-36.5	27.8	3.02e+01	89	31	0	372244480	46	5763
2026-01-09 04:57:21.87	281.53	8.72	-35.0	-36.3	28.2	3.02e+01	91	31	0	378011648	46	5601
2026-01-09 04:57:24.90	282.12	8.74	-35.1	-36.4	28.0	3.02e+01	91	31	0	383778816	46	5711
2026-01-09 04:57:27.92	282.71	8.77	-35.0	-36.3	28.1	3.02e+01	92	31	0	389545984	46	5595
2026-01-09 04:57:30.95	283.30	8.79	-35.1	-36.3	28.0	3.02e+01	91	31	0	395313152	46	5652
2026-01-09 04:57:33.97	283.90	8.81	-35.1	-36.4	28.0	3.02e+01	91	31	0	400556032	46	5702
2026-01-09 04:57:37.00	284.49	8.83	-35.2	-36.5	28.0	3.02e+01	91	31	0	406323200	46	5733
2026-01-09 04:57:40.02	285.09	8.84	-34.7	-36.0	28.3	3.02e+01	92	31	0	412090368	44	6087
2026-01-09 04:57:43.05	285.68	8.85	-35.1	-36.3	28.0	3.02e+01	90	31	0	417857536	44	6345
2026-01-09 04:57:46.08	286.28	8.86	-35.0	-36.3	28.0	3.02e+01	91	31	0	423624704	44	6332
2026-01-09 04:57:49.11	286.87	8.87	-35.1	-36.4	28.0	3.02e+01	90	31	0	429391872	44	6357
2026-01-09 04:57:52.14	287.47	8.87	-34.8	-36.1	28.2	3.02e+01	92	31	0	435159040	44	6163
2026-01-09 04:57:55.17	288.07	8.87	-35.1	-36.4	28.0	3.02e+01	91	31	0	440401920	44	6410
2026-01-09 04:57:58.19	288.66	8.87	-35.0	-36.2	28.2	3.02e+01	91	31	0	446169088	44	6268
2026-01-09 04:58:01.21	289.26	8.87	-35.0	-36.3	28.1	3.02e+01	91	31	0	451936256	44	6284
2026-01-09 04:58:04.24	289.86	8.86	-34.9	-36.2	28.2	3.02e+01	92	31	0	457703424	44	6208
2026-01-09 04:58:07.26	290.45	8.85	-35.0	-36.3	28.1	3.02e+01	92	31	0	463470592	44	6323
2026-01-09 04:58:10.29	291.05	8.84	-35.1	-36.4	28.1	3.02e+01	92	31	0	468713472	44	6362
2026-01-09 04:58:13.31	291.64	8.83	-35.1	-36.3	28.0	3.02e+01	91	31	0	474480640	44	6349
2026-01-09 04:58:16.34	292.23	8.81	-35.0	-36.3	28.2	3.02e+01	91	31	0	480247808	44	6337
2026-01-09 04:58:19.37	292.83	8.79	-35.0	-36.3	28.1	3.02e+01	91	31	0	486014976	44	6291
2026-01-09 04:58:22.40	293.42	8.77	-35.1	-36.4	28.0	3.02e+01	90	31	0	491782144	44	6375
2026-01-09 04:58:25.43	294.01	8.74	-34.9	-36.2	28.1	3.02e+01	91	31	0	497025024	44	6259
2026-01-09 04:58:28.45	294.60	8.72	-35.0	-36.2	28.1	3.02e+01	60	31	0	502792192	44	6266
2026-01-09 04:58:31.48	295.19	8.69	-35.3	-36.5	27.9	3.02e+01	58	32	0	508559360	44	6497
2026-01-09 04:58:34.51	295.78	8.66	-35.1	-36.3	28.1	3.02e+01	60	31	0	514326528	44	6332
2026-01-09 04:58:37.53	296.36	8.62	-35.0	-36.3	28.1	3.02e+01	52	31	0	520093696	44	6314
2026-01-09 04:58:40.56	296.95	8.59	-34.9	-36.2	28.2	3.02e+01	58	31	0	525860864	44	6250
2026-01-09 04:58:43.59	297.53	8.55	-35.1	-36.3	28.1	3.02e+01	58	32	0	531103744	44	6350
2026-01-09 04:58:46.62	298.11	8.51	-35.2	-36.5	27.9	3.02e+01	47	31	0	536870912	44	6481
2026-01-09 04:58:49.65	298.69	8.46	-35.1	-36.3	28.0	3.02e+01	61	31	0	542638080	44	6348
2026-01-09 04:58:52.67	299.27	8.42	-35.0	-36.3	28.1	3.02e+01	60	31	0	548405248	44	6292
2026-01-09 04:58:55.70	299.84	8.37	-35.1	-36.4	28.0	3.02e+01	60	31	0	554172416	44	6403
2026-01-09 04:58:58.73	300.42	8.32	-35.1	-36.3	28.0	3.02e+01	56	31	0	559415296	44	6342
2026-01-09 04:59:01.76	300.99	8.27	-35.4	-36.7	27.8	3.02e+01	60	31	0	565182464	44	6575
2026-01-09 04:59:04.79	301.56	8.22	-35.0	-36.3	27.9	3.02e+01	50	31	0	570949632	44	6332
2026-01-09 04:59:07.82	302.13	8.16	-35.1	-36.4	28.0	3.02e+01	57	31	0	576716800	44	6398
2026-01-09 04:59:10.85	302.69	8.10	-35.2	-36.4	27.9	3.02e+01	61	31	0	582483968	44	6417
2026-01-09 04:59:13.88	303.25	8.04	-35.0	-36.3	28.0	3.02e+01	59	31	0	588251136	44	6309
2026-01-09 04:59:16.91	303.81	7.98	-35.2	-36.6	27.9	3.02e+01	60	31	0	594018304	44	6500
2026-01-09 04:59:19.94	304.37	7.91	-35.1	-36.4	28.0	3.02e+01	57	31	0	599261184	44	6405
2026-01-09 04:59:22.96	304.93	7.85	-35.4	-36.7	27.7	3.02e+01	60	31	0	605028352	44	6586
2026-01-09 04:59:25.99	305.48	7.78	-35.2	-36.5	27.8	3.02e+01	60	31	0	610795520	44	6488
2026-01-09 04:59:29.02	306.03	7.71	-35.4	-36.7	27.7	3.02e+01	63	31	0	616562688	44	6604
2026-01-09 04:59:32.04	306.57	7.63	-35.3	-36.6	27.8	3.02e+01	46	31	0	622329856	44	6522
2026-01-09 04:59:35.07	307.11	7.56	-35.3	-36.6	27.8	3.02e+01	60	31	0	627572736	44	6542
2026-01-09 04:59:38.10	307.65	7.48	-35.3	-36.6	27.8	3.02e+01	54	31	0	633339904	44	6519
2026-01-09 04:59:41.13	308.19	7.41	-35.2	-36.5	27.7	3.02e+01	62	31	0	639107072	44	6494
2026-01-09 04:59:44.15	308.72	7.33	-35.3	-36.6	27.7	3.02e+01	60	31	0	644874240	44	6544
2026-01-09 04:59:47.17	309.25	7.24	-35.2	-36.5	27.8	3.02e+01	57	31	0	650641408	44	6497
2026-01-09 04:59:50.20	309.78	7.16	-35.3	-36.6	27.6	3.02e+01	47	31	0	656408576	44	6572
2026-01-09 04:59:53.22	310.30	7.08	-35.5	-36.9	27.5	3.02e+01	44	31	0	661651456	44	6740
2026-01-09 04:59:56.25	310.83	6.99	-35.5	-36.8	27.5	3.02e+01	58	31	0	667418624	44	6694
2026-01-09 04:59:59.28	311.34	6.90	-35.4	-36.8	27.5	3.02e+01	58	31	0	673185792	44	6657
2026-01-09 05:00:02.31	311.86	6.81	-35.6	-36.9	27.4	3.02e+01	57	32	0	678952960	44	6797
2026-01-09 05:00:05.34	312.37	6.72	-35.8	-37.1	27.1	3.02e+01	62	31	0	684720128	44	6957
2026-01-09 05:00:08.37	312.88	6.63	-35.9	-37.3	27.1	3.02e+01	59	31	0	690487296	46	6280
2026-01-09 05:00:11.40	313.38	6.54	-35.9	-37.2	27.3	3.02e+01	60	32	0	695730176	46	6268
2026-01-09 05:00:14.42	313.88	6.44	-35.5	-36.8	27.6	3.02e+01	45	31	0	701497344	46	5956
2026-01-09 05:00:17.45	314.38	6.35	-35.7	-37.0	27.3	3.02e+01	43	31	0	707264512	46	6100
2026-01-09 05:00:20.47	314.87	6.25	-35.8	-37.2	27.2	3.02e+01	60	31	0	713031680	46	6213
2026-01-09 05:00:23.50	315.36	6.15	-35.8	-37.1	27.1	3.02e+01	62	31	0	718798848	46	6177
2026-01-09 05:00:26.53	315.85	6.05	-35.7	-37.1	27.1	3.02e+01	60	31	0	724041728	46	6157
2026-01-09 05:00:29.56	316.33	5.95	-35.8	-37.1	27.1	3.02e+01	61	31	0	729808896	46	6184
2026-01-09 05:00:32.59	316.81	5.85	-35.8	-37.1	27.2	3.02e+01	62	31	0	735576064	46	6172
2026-01-09 05:00:35.62	317.29	5.74	-35.9	-37.2	27.0	3.02e+01	50	31	0	741343232	46	6257
2026-01-09 05:00:38.65	317.76	5.64	-36.0	-37.4	26.9	3.02e+01	40	31	0	747110400	46	6390
2026-01-09 05:00:41.68	318.23	5.53	-36.0	-37.3	26.9	3.02e+01	52	31	0	752877568	46	6328
2026-01-09 05:00:44.70	318.70	5.43	-35.9	-37.2	27.0	3.02e+01	59	31	0	758644736	46	6267
2026-01-09 05:00:47.73	319.16	5.32	-35.7	-37.0	27.2	3.02e+01	62	31	0	763887616	46	6125
2026-01-09 05:00:50.76	319.62	5.21	-36.0	-37.3	26.9	3.02e+01	63	31	0	769654784	46	6327
2026-01-09 05:00:53.78	320.07	5.10	-36.3	-37.7	26.4	3.02e+01	61	31	0	775421952	46	6645
2026-01-09 05:00:56.81	320.52	4.99	-36.2	-37.6	26.5	3.02e+01	63	32	0	781189120	46	6573
2026-01-09 05:00:59.84	320.97	4.88	-36.0	-37.4	26.7	3.02e+01	45	31	0	786956288	46	6379
2026-01-09 05:01:02.87	321.41	4.77	-36.2	-37.5	26.6	3.02e+01	58	31	0	792199168	46	6483
2026-01-09 05:01:05.90	321.85	4.66	-36.4	-37.8	26.4	3.02e+01	60	31	0	797966336	46	6666
2026-01-09 05:01:08.92	322.29	4.54	-36.4	-37.8	26.3	3.02e+01	59	31	0	803733504	46	6664
2026-01-09 05:01:11.95	322.72	4.43	-36.5	-37.9	26.2	3.02e+01	61	31	0	809500672	46	6777
2026-01-09 05:01:14.97	323.15	4.31	-36.6	-38.1	26.1	3.02e+01	60	31	0	815267840	46	6900
2026-01-09 05:01:18.00	323.58	4.20	-36.6	-38.0	26.1	3.02e+01	59	31	0	821035008	46	6858
2026-01-09 05:01:21.03	324.00	4.08	-36.3	-37.8	26.2	3.02e+01	52	31	0	826277888	46	6650
2026-01-09 05:01:24.05	324.42	3.97	-36.5	-37.9	26.1	3.02e+01	44	31	0	832045056	46	6790
2026-01-09 05:01:27.08	324.83	3.85	-36.6	-38.0	26.0	3.02e+01	60	31	0	837812224	46	6863
2026-01-09 05:01:30.11	325.25	3.73	-36.8	-38.3	25.4	3.02e+01	60	31	0	843579392	46	7098
2026-01-09 05:01:33.14	325.65	3.61	-36.6	-38.1	25.8	3.02e+01	60	31	0	849346560	48	6156
2026-01-09 05:01:36.17	326.06	3.49	-36.5	-37.9	25.9	3.02e+01	59	31	0	855113728	48	6039
2026-01-09 05:01:39.20	326.46	3.37	-36.7	-38.2	25.5	3.02e+01	63	32	0	860356608	48	6226
2026-01-09 05:01:42.23	326.86	3.25	-36.7	-38.1	25.6	3.02e+01	46	31	0	866123776	48	6191
2026-01-09 05:01:45.26	327.25	3.13	-36.7	-38.2	25.6	3.02e+01	46	31	0	871890944	48	6244
2026-01-09 05:01:48.29	327.65	3.01	-37.2	-38.7	24.8	3.02e+01	59	31	0	877658112	48	6629
2026-01-09 05:01:51.32	328.03	2.89	-47.9	-65.8	3.5	3.02e+01	0	32	104	878182400	60	74896
2026-01-09 05:01:54.35	328.42	2.77	-48.3	-66.1	3.6	3.02e+01	0	32	104	878182400	60	78090
2026-01-09 05:01:57.38	328.80	2.65	-48.2	-66.2	3.5	3.02e+01	0	32	104	878182400	60	78531
2026-01-09 05:02:00.41	329.18	2.52	-48.3	-66.2	3.5	3.02e+01	0	32	104	878182400	60	78897
2026-01-09 05:02:03.44	329.55	2.40	-48.1	-66.0	3.5	3.02e+01	0	32	104	878182400	60	77074
2026-01-09 05:02:06.47	329.92	2.28	-48.3	-66.1	3.5	3.02e+01	0	32	104	878182400	60	77992
2026-01-09 05:02:09.50	330.29	2.16	-48.2	-66.1	3.5	3.02e+01	0	32	104	878182400	60	77694
2026-01-09 05:02:12.53	330.66	2.03	-48.2	-66.1	3.5	3.02e+01	0	32	104	878182400	60	77454
2026-01-09 05:02:15.56	331.02	1.91	-48.2	-66.0	3.5	3.02e+01	0	32	104	878182400	60	77027
2026-01-09 05:02:18.59	331.38	1.78	-48.2	-66.1	3.5	3.02e+01	0	32	104	878182400	60	77418
2026-01-09 05:02:21.62	331.73	1.66	-48.2	-66.0	3.5	3.02e+01	0	32	104	878182400	60	77079
2026-01-09 05:02:24.65	332.08	1.54	-48.2	-66.1	3.5	3.02e+01	0	32	104	878182400	60	77577
2026-01-09 05:02:27.68	332.43	1.41	-48.2	-66.0	3.5	3.02e+01	0	32	104	878182400	60	76641
2026-01-09 05:02:30.71	332.78	1.29	-48.2	-66.0	3.5	3.02e+01	0	32	104	878182400	60	76978
2026-01-09 05:02:33.74	333.12	1.16	-48.2	-66.0	3.5	3.02e+01	0	31	104	878182400	60	77031
2026-01-09 05:02:36.77	333.46	1.04	-48.2	-66.1	3.5	3.02e+01	0	31	104	878182400	60	77412
2026-01-09 05:02:39.80	333.80	0.91	-48.2	-66.0	3.5	3.02e+01	0	32	104	878182400	60	76698
2026-01-09 05:02:42.83	334.13	0.78	-48.2	-66.0	3.5	3.02e+01	0	32	104	878182400	60	77196
2026-01-09 05:02:45.86	334.47	0.66	-48.2	-66.0	3.5	3.02e+01	0	32	104	878182400	60	76769
2026-01-09 05:02:48.88	334.79	0.53	-48.1	-66.0	3.5	3.02e+01	0	32	104	878182400	60	76711
2026-01-09 05:02:51.91	335.12	0.41	-48.2	-66.0	3.5	3.02e+01	0	32	104	878182400	60	77108
2026-01-09 05:02:54.94	335.44	0.28	-48.2	-66.1	3.5	3.02e+01	0	32	104	878182400	60	77468
2026-01-09 05:02:57.97	335.76	0.16	-48.2	-66.0	3.5	3.02e+01	0	32	104	878182400	60	76902
2026-01-09 05:03:01.00	336.08	0.03	-48.1	-66.0	3.5	3.02e+01	0	32	104	878182400	60	76802

#Closed at: 2026-01-09 05:03:02
#Recorded file [878 MB]: D:/lorett/data/35029_260109_165252.dat