passes_logs/2026/01/09/R4.6S_Anadyr/R4.6S_Anadyr__20260109_131631_SUOMI_NPP_rec.log

#Pass ID: 20260109_131631_SUOMI NPP
#Satellite: SUOMI NPP
#Configuration: NPP
#almurnet v.1.7.20251203
#Start time: 2026-01-09 13:16:33

#Version: 2.2.20231116
#Station: R4.6S_Anadyr
#Location: 177.4865 lon 64.73178 lat
#TLE: 1 37849U 11061A   26008.05542337  .00000108  00000+0  71976-4 0  9997
#TLE: 2 37849  98.7805 310.1641 0002540  75.6410 284.5048 14.19523335735721

#Time	Az	El	Level	Level2	SNR	BER	BlckErr	Temp	State	Recorded	gain1	gain2
2026-01-09 13:16:33.22	18.88	0.12	-47.6	-60.2	3.4	1.52e+00	0	21	0	0	60	35782
2026-01-09 13:16:37.26	19.08	0.35	-47.8	-63.0	3.6	1.51e+00	0	22	104	0	60	50930
2026-01-09 13:16:41.29	19.29	0.57	-47.7	-62.9	3.6	1.51e+00	0	23	104	0	60	50465
2026-01-09 13:16:45.34	19.50	0.80	-47.1	-62.4	3.6	1.51e+00	0	23	104	0	60	47571
2026-01-09 13:16:49.37	19.71	1.02	-46.2	-61.3	3.6	1.51e+00	0	23	104	0	60	41969
2026-01-09 13:16:53.42	19.92	1.25	-46.2	-61.4	3.6	1.51e+00	0	23	104	0	60	42434
2026-01-09 13:16:57.45	20.14	1.48	-46.1	-61.4	3.6	1.51e+00	0	23	104	0	60	42238
2026-01-09 13:17:01.48	20.36	1.71	-46.2	-61.3	3.6	1.51e+00	0	23	104	0	60	41901
2026-01-09 13:17:05.52	20.58	1.95	-46.1	-61.3	3.6	1.51e+00	0	23	104	0	60	41968
2026-01-09 13:17:09.56	20.81	2.18	-46.1	-61.3	3.6	1.51e+00	0	23	104	0	60	41967
2026-01-09 13:17:13.60	21.04	2.42	-46.1	-60.7	3.6	1.51e+00	0	23	104	0	60	39041
2026-01-09 13:17:17.64	21.27	2.66	-46.1	-61.0	3.6	1.51e+00	0	23	104	0	60	40717
2026-01-09 13:17:21.67	21.51	2.90	-44.2	-48.6	11.5	1.50e-02	0	23	0	3145728	60	9710
2026-01-09 13:17:25.71	21.75	3.14	-40.3	-42.1	18.0	0.00e+00	0	23	0	11534336	54	6522
2026-01-09 13:17:29.75	21.99	3.39	-41.8	-44.2	15.8	0.00e+00	0	23	0	18874368	54	8249
2026-01-09 13:17:33.79	22.24	3.63	-44.4	-49.2	10.0	7.39e-01	0	23	104	24117248	58	11755
2026-01-09 13:17:37.83	22.49	3.88	-43.1	-46.1	14.4	4.12e-02	0	23	0	27262976	60	7328
2026-01-09 13:17:41.86	22.75	4.13	-41.9	-44.3	16.0	0.00e+00	0	23	0	34603008	58	6658
2026-01-09 13:17:45.90	23.01	4.38	-41.0	-42.9	17.7	0.00e+00	0	23	0	41943040	56	6360
2026-01-09 13:17:49.93	23.27	4.63	-40.1	-41.7	18.6	0.00e+00	0	23	0	49283072	54	6218
2026-01-09 13:17:53.97	23.54	4.89	-40.0	-41.6	18.7	0.00e+00	0	23	0	57671680	54	6135
2026-01-09 13:17:58.01	23.81	5.14	-39.5	-41.0	19.5	0.00e+00	0	23	0	65011712	52	6409
2026-01-09 13:18:02.05	24.09	5.40	-39.2	-40.6	19.7	0.00e+00	0	23	0	72351744	52	6162
2026-01-09 13:18:06.09	24.37	5.66	-38.9	-40.2	20.1	0.00e+00	0	23	0	79691776	52	5887
2026-01-09 13:18:10.12	24.65	5.93	-39.0	-40.4	20.2	0.00e+00	0	23	0	87031808	52	5967
2026-01-09 13:18:14.16	24.95	6.19	-38.7	-40.0	20.4	0.00e+00	0	23	0	95420416	50	6401
2026-01-09 13:18:18.19	25.24	6.46	-38.3	-39.5	20.7	0.00e+00	0	23	0	102760448	50	6050
2026-01-09 13:18:22.23	25.54	6.73	-38.1	-39.3	21.1	0.00e+00	0	23	0	110100480	50	5915
2026-01-09 13:18:26.27	25.85	7.00	-37.8	-38.9	21.5	0.00e+00	0	23	0	117440512	48	6342
2026-01-09 13:18:30.31	26.16	7.28	-37.5	-38.6	21.7	0.00e+00	0	23	0	125829120	48	6127
2026-01-09 13:18:34.34	26.48	7.55	-37.5	-38.6	21.8	0.00e+00	0	23	0	133169152	48	6110
2026-01-09 13:18:38.38	26.80	7.83	-37.4	-38.5	21.9	0.00e+00	0	23	0	140509184	48	6042
2026-01-09 13:18:42.42	27.13	8.11	-37.3	-38.4	22.2	0.00e+00	0	23	0	147849216	48	5984
2026-01-09 13:18:46.46	27.47	8.40	-37.2	-38.3	22.1	0.00e+00	0	23	0	155189248	48	5922
2026-01-09 13:18:50.49	27.81	8.68	-37.3	-38.3	22.1	0.00e+00	0	23	0	163577856	48	5955
2026-01-09 13:18:54.53	28.16	8.97	-37.2	-38.3	22.1	0.00e+00	0	23	0	170917888	48	5907
2026-01-09 13:18:58.57	28.51	9.26	-37.2	-38.3	22.1	0.00e+00	0	23	0	178257920	48	5922
2026-01-09 13:19:02.61	28.87	9.55	-37.1	-38.1	22.3	0.00e+00	0	23	0	185597952	48	5782
2026-01-09 13:19:06.64	29.24	9.85	-36.9	-37.9	22.5	0.00e+00	0	23	0	193986560	48	5637
2026-01-09 13:19:10.68	29.61	10.15	-36.9	-37.8	22.6	0.00e+00	0	23	0	201326592	46	6312
2026-01-09 13:19:14.71	30.00	10.45	-36.9	-37.9	22.6	0.00e+00	0	23	0	208666624	46	6329
2026-01-09 13:19:18.75	30.39	10.75	-37.0	-38.0	22.4	0.00e+00	0	23	0	216006656	46	6443
2026-01-09 13:19:22.79	30.78	11.06	-37.0	-38.0	22.3	0.00e+00	0	23	0	223346688	46	6425
2026-01-09 13:19:26.82	31.19	11.37	-36.9	-37.9	22.5	0.00e+00	0	23	0	231735296	46	6349
2026-01-09 13:19:30.86	31.60	11.68	-36.5	-37.4	23.0	0.00e+00	0	23	0	239075328	46	6022
2026-01-09 13:19:34.89	32.03	11.99	-36.2	-37.1	23.1	0.00e+00	0	23	0	246415360	46	5790
2026-01-09 13:19:38.93	32.46	12.31	-36.4	-37.4	23.0	0.00e+00	0	23	0	253755392	46	5971
2026-01-09 13:19:42.97	32.90	12.63	-36.7	-37.7	22.7	0.00e+00	0	23	0	262144000	46	6223
2026-01-09 13:19:47.01	33.35	12.95	-37.2	-38.2	22.3	0.00e+00	0	23	0	269484032	46	6584
2026-01-09 13:19:51.04	33.81	13.28	-37.2	-38.2	22.4	0.00e+00	0	23	0	276824064	46	6604
2026-01-09 13:19:55.07	34.28	13.61	-37.1	-38.1	22.5	0.00e+00	0	23	0	284164096	46	6483
2026-01-09 13:19:59.11	34.76	13.94	-37.1	-38.1	22.5	0.00e+00	0	23	0	291504128	46	6507
2026-01-09 13:20:03.15	35.25	14.27	-37.2	-38.2	22.4	0.00e+00	0	23	0	299892736	46	6583
2026-01-09 13:20:07.18	35.74	14.61	-37.2	-38.2	22.4	0.00e+00	0	23	0	307232768	46	6592
2026-01-09 13:20:11.22	36.26	14.95	-37.0	-38.0	22.6	0.00e+00	0	23	0	314572800	46	6446
2026-01-09 13:20:15.25	36.78	15.29	-36.5	-37.5	23.0	0.00e+00	0	23	0	321912832	46	6062
2026-01-09 13:20:19.29	37.31	15.63	-36.4	-37.3	23.1	0.00e+00	0	23	0	330301440	46	5960
2026-01-09 13:20:23.33	37.86	15.98	-36.3	-37.2	23.3	0.00e+00	0	23	0	337641472	46	5850
2026-01-09 13:20:27.36	38.42	16.33	-36.4	-37.3	22.9	0.00e+00	0	23	0	344981504	46	5957
2026-01-09 13:20:31.39	38.99	16.68	-36.6	-37.6	23.0	0.00e+00	0	23	0	352321536	46	6139
2026-01-09 13:20:35.43	39.57	17.03	-36.5	-37.4	23.1	0.00e+00	0	23	0	359661568	46	6000
2026-01-09 13:20:39.47	40.17	17.39	-36.7	-37.6	23.1	0.00e+00	0	23	0	368050176	46	6150
2026-01-09 13:20:43.50	40.78	17.75	-36.2	-37.1	23.4	0.00e+00	0	23	0	375390208	46	5825
2026-01-09 13:20:47.54	41.41	18.11	-35.9	-36.8	23.6	0.00e+00	0	23	0	382730240	46	5627
2026-01-09 13:20:51.58	42.05	18.47	-35.6	-36.5	23.9	0.00e+00	0	23	0	390070272	44	6039
2026-01-09 13:20:55.62	42.71	18.84	-35.5	-36.4	23.9	0.00e+00	0	23	0	397410304	44	5971
2026-01-09 13:20:59.65	43.38	19.20	-35.2	-36.0	24.3	0.00e+00	0	23	0	405798912	44	5728
2026-01-09 13:21:03.69	44.07	19.57	-35.2	-36.1	24.1	0.00e+00	0	23	0	413138944	44	5764
2026-01-09 13:21:07.73	44.77	19.94	-35.2	-36.0	24.2	0.00e+00	0	23	0	420478976	44	5739
2026-01-09 13:21:11.77	45.49	20.32	-34.9	-35.7	24.2	0.00e+00	0	23	0	427819008	44	5540
2026-01-09 13:21:15.80	46.23	20.69	-35.1	-35.9	24.4	0.00e+00	0	23	0	436207616	42	6346
2026-01-09 13:21:19.84	46.99	21.06	-35.1	-35.9	24.2	0.00e+00	0	23	0	443547648	42	6382
2026-01-09 13:21:23.88	47.76	21.43	-35.3	-36.1	24.2	0.00e+00	0	23	0	450887680	42	6536
2026-01-09 13:21:27.92	48.55	21.81	-35.1	-35.9	24.4	0.00e+00	0	23	0	458227712	42	6344
2026-01-09 13:21:31.96	49.36	22.18	-34.8	-35.6	24.6	0.00e+00	0	23	0	465567744	42	6136
2026-01-09 13:21:35.99	50.19	22.55	-34.8	-35.6	24.6	0.00e+00	0	23	0	473956352	42	6137
2026-01-09 13:21:40.03	51.04	22.93	-34.7	-35.5	24.8	0.00e+00	0	23	0	481296384	42	6101
2026-01-09 13:21:44.07	51.91	23.30	-35.0	-35.9	24.3	0.00e+00	0	23	0	488636416	42	6326
2026-01-09 13:21:48.10	52.80	23.67	-34.6	-35.4	24.8	0.00e+00	0	23	0	495976448	42	5979
2026-01-09 13:21:52.14	53.71	24.04	-34.9	-35.7	24.5	0.00e+00	0	23	0	504365056	42	6210
2026-01-09 13:21:56.18	54.65	24.40	-35.2	-36.0	23.9	0.00e+00	0	23	0	511705088	42	6450
2026-01-09 13:22:00.21	55.60	24.77	-35.3	-36.1	24.3	0.00e+00	0	23	0	519045120	42	6527
2026-01-09 13:22:04.25	56.57	25.13	-36.0	-36.9	23.7	0.00e+00	0	23	0	526385152	44	6367
2026-01-09 13:22:08.29	57.57	25.48	-35.6	-36.5	23.9	0.00e+00	0	23	0	533725184	44	6056
2026-01-09 13:22:12.32	58.59	25.83	-34.9	-35.7	24.5	0.00e+00	0	23	0	542113792	44	5553
2026-01-09 13:22:16.36	59.63	26.18	-35.1	-35.9	24.4	0.00e+00	0	23	0	549453824	42	6384
2026-01-09 13:22:20.39	60.69	26.52	-35.9	-36.8	23.6	0.00e+00	0	23	0	556793856	44	6297
2026-01-09 13:22:24.43	61.78	26.85	-35.9	-36.8	23.7	0.00e+00	0	23	0	564133888	44	6292
2026-01-09 13:22:28.47	62.89	27.18	-35.4	-36.2	24.2	0.00e+00	0	23	0	571473920	44	5876
2026-01-09 13:22:32.50	64.02	27.50	-35.4	-36.3	23.9	0.00e+00	0	23	0	579862528	44	5929
2026-01-09 13:22:36.54	65.17	27.81	-37.2	-38.2	22.8	0.00e+00	0	23	0	587202560	46	6548
2026-01-09 13:22:40.58	66.35	28.12	-35.1	-35.9	24.4	0.00e+00	0	24	0	594542592	44	5672
2026-01-09 13:22:44.61	67.55	28.41	-36.2	-37.0	23.5	0.00e+00	0	23	0	601882624	44	6461
2026-01-09 13:22:48.65	68.77	28.69	-36.3	-37.1	23.5	0.00e+00	0	24	0	610271232	44	6539
2026-01-09 13:22:52.69	70.01	28.96	-36.8	-37.7	23.2	0.00e+00	0	23	0	617611264	46	6213
2026-01-09 13:22:56.73	71.27	29.22	-38.1	-39.2	22.0	0.00e+00	0	23	0	624951296	48	6563
2026-01-09 13:23:00.76	72.54	29.47	-37.6	-38.7	22.1	0.00e+00	0	23	0	632291328	48	6174
2026-01-09 13:23:04.80	73.84	29.70	-38.9	-40.1	21.2	0.00e+00	0	23	0	639631360	50	6473
2026-01-09 13:23:08.84	75.16	29.92	-37.6	-38.6	22.3	0.00e+00	0	24	0	648019968	48	6153
2026-01-09 13:23:12.88	76.50	30.13	-38.1	-39.2	21.9	0.00e+00	0	23	0	655360000	48	6573
2026-01-09 13:23:16.91	77.84	30.31	-37.6	-38.6	22.5	0.00e+00	0	24	0	662700032	48	6152
2026-01-09 13:23:20.95	79.21	30.49	-37.0	-38.0	22.8	0.00e+00	0	23	0	670040064	48	5713
2026-01-09 13:23:24.98	80.59	30.64	-37.3	-38.3	22.6	0.00e+00	0	23	0	677380096	46	6655
2026-01-09 13:23:29.02	81.98	30.78	-36.2	-37.1	23.5	0.00e+00	0	23	0	685768704	46	5784
2026-01-09 13:23:33.06	83.38	30.90	-35.1	-36.0	24.4	0.00e+00	0	24	0	693108736	44	5708
2026-01-09 13:23:37.10	84.80	31.00	-35.9	-36.8	23.8	0.00e+00	0	24	0	700448768	44	6255
2026-01-09 13:23:41.14	86.22	31.09	-37.1	-38.1	22.8	0.00e+00	0	23	0	707788800	46	6475
2026-01-09 13:23:45.17	87.64	31.15	-37.4	-38.5	22.5	0.00e+00	0	23	0	716177408	46	6775
2026-01-09 13:23:49.21	89.08	31.20	-36.1	-37.0	23.6	0.00e+00	0	23	0	723517440	46	5718
2026-01-09 13:23:53.25	90.51	31.23	-36.1	-37.0	23.6	0.00e+00	0	23	0	730857472	46	5752
2026-01-09 13:23:57.29	91.95	31.23	-36.3	-37.2	23.5	0.00e+00	0	23	0	738197504	44	6581
2026-01-09 13:24:01.32	93.39	31.22	-37.0	-38.0	22.8	0.00e+00	0	24	0	745537536	46	6419
2026-01-09 13:24:05.36	94.82	31.19	-37.1	-38.1	22.8	0.00e+00	0	24	0	753926144	46	6537
2026-01-09 13:24:09.40	96.26	31.14	-36.5	-37.5	22.8	0.00e+00	0	24	0	761266176	46	6040
2026-01-09 13:24:13.44	97.68	31.07	-36.0	-36.9	23.6	0.00e+00	0	23	0	768606208	46	5664
2026-01-09 13:24:17.48	99.10	30.98	-37.5	-38.5	22.5	0.00e+00	0	24	0	775946240	46	6791
2026-01-09 13:24:21.51	100.51	30.87	-38.0	-39.1	21.9	0.00e+00	0	23	0	784334848	48	6486
2026-01-09 13:24:25.55	101.92	30.74	-37.0	-38.0	22.7	0.00e+00	0	23	0	791674880	48	5735
2026-01-09 13:24:29.59	103.31	30.60	-39.3	-40.6	20.7	0.00e+00	0	23	0	799014912	50	6909
2026-01-09 13:24:33.62	104.68	30.44	-37.4	-38.4	22.5	0.00e+00	0	23	0	806354944	48	5996
2026-01-09 13:24:37.66	106.05	30.26	-36.6	-37.6	23.1	0.00e+00	0	24	0	813694976	46	6128
2026-01-09 13:24:41.70	107.40	30.07	-38.8	-40.0	21.1	0.00e+00	0	23	0	822083584	48	7222
2026-01-09 13:24:45.74	108.73	29.86	-37.2	-38.2	22.6	0.00e+00	0	23	0	829423616	48	5856
2026-01-09 13:24:49.77	110.04	29.64	-36.6	-37.6	23.3	0.00e+00	0	23	0	836763648	46	6123
2026-01-09 13:24:53.81	111.34	29.40	-37.5	-38.5	22.5	0.00e+00	0	23	0	844103680	46	6811
2026-01-09 13:24:57.85	112.62	29.15	-37.5	-38.5	22.5	0.00e+00	0	24	0	852492288	48	6073
2026-01-09 13:25:01.88	113.87	28.88	-37.7	-38.7	22.2	0.00e+00	0	23	0	859832320	48	6244
2026-01-09 13:25:05.92	115.11	28.61	-36.2	-37.1	23.5	0.00e+00	0	24	0	867172352	46	5805
2026-01-09 13:25:09.96	116.33	28.32	-39.9	-41.3	20.1	0.00e+00	0	24	0	874512384	52	6671
2026-01-09 13:25:14.00	117.52	28.02	-38.5	-39.7	21.4	0.00e+00	0	23	0	881852416	50	6207
2026-01-09 13:25:18.04	118.69	27.72	-38.1	-39.2	21.9	0.00e+00	0	24	0	890241024	50	5831
2026-01-09 13:25:22.07	119.84	27.40	-40.1	-41.5	19.8	0.00e+00	0	24	0	897581056	52	6834
2026-01-09 13:25:26.11	120.97	27.08	-38.0	-39.1	21.9	0.00e+00	0	24	0	904921088	50	5791
2026-01-09 13:25:30.15	122.08	26.74	-39.7	-41.0	20.3	0.00e+00	0	24	0	912261120	52	6430
2026-01-09 13:25:34.18	123.16	26.41	-38.8	-40.0	21.1	0.00e+00	0	24	0	920649728	50	6407
2026-01-09 13:25:38.22	124.22	26.06	-39.1	-40.4	20.9	0.00e+00	0	24	0	927989760	52	5971
2026-01-09 13:25:42.26	125.26	25.71	-38.5	-39.8	21.3	0.00e+00	0	24	0	935329792	50	6252
2026-01-09 13:25:46.30	126.28	25.36	-38.7	-39.9	21.3	0.00e+00	0	24	0	942669824	52	5686
2026-01-09 13:25:50.33	127.27	25.00	-39.9	-41.4	19.9	0.00e+00	0	24	0	950009856	52	6699
2026-01-09 13:25:54.37	128.24	24.63	-39.5	-40.9	20.6	0.00e+00	0	24	0	958398464	52	6321
2026-01-09 13:25:58.40	129.19	24.27	-38.4	-39.6	21.6	0.00e+00	0	24	0	965738496	48	6865
2026-01-09 13:26:02.44	130.12	23.90	-37.6	-38.6	22.2	0.00e+00	0	24	0	973078528	48	6173
2026-01-09 13:26:06.48	131.03	23.53	-37.9	-39.0	21.9	0.00e+00	0	24	0	980418560	48	6441
2026-01-09 13:26:10.52	131.91	23.16	-37.3	-38.4	22.5	0.00e+00	0	24	0	988807168	48	5966
2026-01-09 13:26:14.55	132.78	22.78	-38.5	-39.7	21.3	0.00e+00	0	23	0	996147200	48	6961
2026-01-09 13:26:18.59	133.63	22.41	-37.9	-39.0	22.2	0.00e+00	0	23	0	1003487232	50	5725
2026-01-09 13:26:22.63	134.45	22.03	-37.7	-38.8	22.0	0.00e+00	0	24	0	1010827264	48	6277
2026-01-09 13:26:26.67	135.26	21.65	-37.2	-38.2	22.5	0.00e+00	0	24	0	1018167296	48	5868
2026-01-09 13:26:30.70	136.05	21.28	-37.0	-38.0	22.8	0.00e+00	0	23	0	1026555904	46	6400
2026-01-09 13:26:34.74	136.82	20.90	-36.8	-37.8	23.0	0.00e+00	0	24	0	1033895936	46	6271
2026-01-09 13:26:38.78	137.57	20.53	-35.6	-36.4	23.9	0.00e+00	0	24	0	1041235968	44	6032
2026-01-09 13:26:42.81	138.30	20.15	-36.6	-37.6	23.0	0.00e+00	0	24	0	1048576000	44	6881
2026-01-09 13:26:46.85	139.02	19.78	-36.7	-37.7	23.1	0.00e+00	0	24	0	1056964608	46	6193
2026-01-09 13:26:50.89	139.72	19.41	-36.5	-37.4	23.2	0.00e+00	0	24	0	1064304640	46	5988
2026-01-09 13:26:54.93	140.41	19.04	-36.3	-37.2	23.4	0.00e+00	0	24	0	1071644672	46	5851
2026-01-09 13:26:58.97	141.08	18.67	-35.6	-36.4	23.7	0.00e+00	0	24	0	1078984704	44	6023
2026-01-09 13:27:03.00	141.73	18.30	-35.3	-36.2	24.1	0.00e+00	0	24	0	1086324736	44	5840
2026-01-09 13:27:07.04	142.37	17.94	-36.0	-36.9	23.5	0.00e+00	0	23	0	1094713344	44	6334
2026-01-09 13:27:11.07	142.99	17.57	-35.3	-36.2	24.0	0.00e+00	0	23	0	1102053376	44	5849
2026-01-09 13:27:15.11	143.60	17.21	-34.6	-35.4	24.6	0.00e+00	0	24	0	1109393408	42	5970
2026-01-09 13:27:19.15	144.19	16.85	-35.7	-36.6	23.7	0.00e+00	0	24	0	1116733440	42	6916
2026-01-09 13:27:23.19	144.77	16.50	-36.3	-37.2	23.2	0.00e+00	0	24	0	1124073472	44	6607
2026-01-09 13:27:27.22	145.34	16.15	-36.0	-36.9	23.4	0.00e+00	0	24	0	1132462080	44	6363
2026-01-09 13:27:31.26	145.90	15.79	-36.3	-37.2	23.2	0.00e+00	0	24	0	1139802112	44	6607
2026-01-09 13:27:35.30	146.44	15.45	-37.0	-38.0	22.7	0.00e+00	0	24	0	1147142144	46	6393
2026-01-09 13:27:39.33	146.97	15.10	-37.2	-38.3	22.4	0.00e+00	0	23	0	1154482176	46	6624
2026-01-09 13:27:43.36	147.49	14.76	-37.0	-38.0	22.7	0.00e+00	0	24	0	1162870784	46	6420
2026-01-09 13:27:47.40	148.00	14.42	-37.0	-38.0	22.5	0.00e+00	0	24	0	1170210816	46	6464
2026-01-09 13:27:51.44	148.49	14.08	-37.0	-38.0	22.7	0.00e+00	0	24	0	1177550848	46	6426
2026-01-09 13:27:55.47	148.98	13.74	-36.6	-37.6	22.9	0.00e+00	0	23	0	1184890880	46	6123
2026-01-09 13:27:59.51	149.46	13.41	-35.7	-36.6	23.7	0.00e+00	0	24	0	1192230912	46	5462
2026-01-09 13:28:03.55	149.92	13.08	-36.0	-36.9	23.5	0.00e+00	0	24	0	1200619520	44	6379
2026-01-09 13:28:07.58	150.38	12.76	-36.4	-37.3	22.8	0.00e+00	0	24	0	1207959552	44	6687
2026-01-09 13:28:11.62	150.82	12.43	-37.4	-38.4	22.2	0.00e+00	0	24	0	1215299584	46	6735
2026-01-09 13:28:15.66	151.26	12.11	-37.0	-38.0	22.4	0.00e+00	0	24	0	1222639616	46	6463
2026-01-09 13:28:19.69	151.69	11.79	-36.7	-37.7	22.7	0.00e+00	0	24	0	1231028224	46	6216
2026-01-09 13:28:23.73	152.11	11.48	-37.4	-38.5	22.0	0.00e+00	0	23	0	1238368256	46	6785
2026-01-09 13:28:27.77	152.52	11.16	-38.1	-39.3	21.3	0.00e+00	0	24	0	1245708288	48	6624
2026-01-09 13:28:31.81	152.92	10.85	-38.3	-39.6	20.9	0.00e+00	0	24	0	1253048320	48	6859
2026-01-09 13:28:35.84	153.31	10.55	-38.7	-40.0	20.3	0.00e+00	0	24	0	1260388352	48	7248
2026-01-09 13:28:39.88	153.70	10.24	-39.1	-40.6	19.5	0.00e+00	0	24	0	1268776960	50	6860
2026-01-09 13:28:43.92	154.08	9.94	-39.8	-41.4	18.4	0.00e+00	0	24	0	1276116992	52	6768
2026-01-09 13:28:47.95	154.45	9.64	-40.7	-42.8	16.9	0.00e+00	0	23	0	1283457024	52	7885
2026-01-09 13:28:51.99	154.81	9.34	-41.2	-43.7	15.9	0.00e+00	0	23	0	1290797056	54	7801
2026-01-09 13:28:56.02	155.17	9.05	-41.0	-43.4	16.3	0.00e+00	0	24	0	1298137088	54	7509
2026-01-09 13:29:00.06	155.52	8.76	-40.3	-42.1	17.7	0.00e+00	0	24	0	1306525696	54	6514
2026-01-09 13:29:04.10	155.87	8.47	-39.3	-40.8	19.3	0.00e+00	0	24	0	1313865728	52	6266
2026-01-09 13:29:08.14	156.20	8.18	-38.6	-39.9	20.1	0.00e+00	0	24	0	1321205760	50	6375
2026-01-09 13:29:12.18	156.54	7.90	-38.4	-39.6	20.6	0.00e+00	0	24	0	1328545792	50	6168
2026-01-09 13:29:16.22	156.86	7.61	-38.1	-39.3	21.1	0.00e+00	0	23	0	1336934400	50	5908
2026-01-09 13:29:20.25	157.18	7.33	-37.7	-38.8	21.5	0.00e+00	0	23	0	1344274432	48	6281
2026-01-09 13:29:24.29	157.49	7.06	-37.5	-38.6	21.7	0.00e+00	0	24	0	1351614464	48	6161
2026-01-09 13:29:28.33	157.80	6.78	-37.6	-38.7	21.6	0.00e+00	0	23	0	1358954496	48	6196
2026-01-09 13:29:32.36	158.10	6.51	-37.8	-38.9	21.5	0.00e+00	0	23	0	1366294528	48	6324
2026-01-09 13:29:36.40	158.40	6.24	-38.4	-39.6	20.7	0.00e+00	0	23	0	1374683136	48	6869
2026-01-09 13:29:40.44	158.69	5.97	-38.9	-40.2	20.2	0.00e+00	0	23	0	1382023168	50	6613
2026-01-09 13:29:44.48	158.98	5.70	-39.4	-40.8	19.7	0.00e+00	0	23	0	1389363200	50	7034
2026-01-09 13:29:48.52	159.26	5.44	-39.8	-41.3	19.1	0.00e+00	0	23	0	1396703232	50	7483
2026-01-09 13:29:52.56	159.54	5.18	-39.8	-41.4	18.9	0.00e+00	0	24	0	1405091840	52	6719
2026-01-09 13:29:56.59	159.81	4.92	-39.8	-41.3	19.1	0.00e+00	0	23	0	1412431872	52	6663
2026-01-09 13:30:00.62	160.08	4.66	-39.9	-41.5	18.9	0.00e+00	0	23	0	1419771904	52	6775
2026-01-09 13:30:04.66	160.34	4.40	-39.8	-41.4	18.9	0.00e+00	0	24	0	1427111936	52	6706
2026-01-09 13:30:08.70	160.60	4.15	-39.8	-41.3	18.9	0.00e+00	0	24	0	1434451968	52	6686
2026-01-09 13:30:12.73	160.86	3.90	-40.2	-41.9	18.3	0.00e+00	0	24	0	1442840576	52	7147
2026-01-09 13:30:16.77	161.11	3.65	-41.0	-43.0	17.2	0.00e+00	0	24	0	1450180608	54	7176
2026-01-09 13:30:20.81	161.36	3.40	-41.3	-43.4	16.8	0.00e+00	0	24	0	1457520640	54	7583
2026-01-09 13:30:24.84	161.60	3.15	-41.1	-43.2	16.6	0.00e+00	0	23	0	1464860672	54	7381
2026-01-09 13:30:28.88	161.84	2.91	-46.0	-61.1	3.6	1.51e+00	0	24	104	1470103552	60	40980
2026-01-09 13:30:32.91	162.07	2.67	-47.4	-62.8	3.6	1.51e+00	0	24	104	1470103552	60	50038
2026-01-09 13:30:36.95	162.31	2.43	-47.8	-63.0	3.6	1.51e+00	0	24	104	1470103552	60	51028
2026-01-09 13:30:40.99	162.54	2.19	-47.7	-62.9	3.6	1.51e+00	0	24	104	1470103552	60	50673
2026-01-09 13:30:45.02	162.76	1.95	-47.6	-62.9	3.6	1.51e+00	0	24	104	1470103552	60	50323
2026-01-09 13:30:49.06	162.98	1.71	-47.7	-62.9	3.6	1.51e+00	0	24	104	1470103552	60	50513
2026-01-09 13:30:53.10	163.20	1.48	-47.7	-63.0	3.6	1.51e+00	0	24	104	1470103552	60	50770
2026-01-09 13:30:57.14	163.42	1.24	-47.7	-62.9	3.6	1.51e+00	0	24	104	1470103552	60	50202
2026-01-09 13:31:01.19	163.63	1.01	-47.6	-62.9	3.6	1.51e+00	0	24	104	1470103552	60	50327
2026-01-09 13:31:05.23	163.84	0.78	-47.7	-62.9	3.6	1.51e+00	0	24	104	1470103552	60	50500
2026-01-09 13:31:09.26	164.04	0.55	-47.6	-62.9	3.6	1.51e+00	0	24	104	1470103552	60	50222
2026-01-09 13:31:13.30	164.25	0.33	-47.7	-62.9	3.6	1.51e+00	0	24	104	1470103552	60	50702
2026-01-09 13:31:17.34	164.45	0.10	-47.7	-62.9	3.6	1.51e+00	0	24	104	1470103552	60	50456
2026-01-09 13:31:21.38	164.65	-0.12	-47.6	-62.9	3.6	1.51e+00	0	24	104	1470103552	60	50438

#Closed at: 2026-01-09 13:31:21
#Recorded file [1470 MB]: D:/lorett/data/35029_260110_011633.dat