passes_logs/2026/01/09/R4.6S_Anadyr/R4.6S_Anadyr__20260109_233248_NOAA_20_JPSS-1_rec.log

#Pass ID: 20260109_233248_NOAA 20 (JPSS-1)
#Satellite: NOAA 20 (JPSS-1)
#Configuration: NOAA 20
#almurnet v.1.7.20251203
#Start time: 2026-01-09 23:32:51

#Version: 2.2.20231116
#Station: R4.6S_Anadyr
#Location: 177.4865 lon 64.73178 lat
#TLE: 1 43013U 17073A   26008.91585656  .00000107  00000+0  71497-4 0  9999
#TLE: 2 43013  98.7631 309.9196 0001713  47.9261 312.2060 14.19534561421870

#Time	Az	El	Level	Level2	SNR	BER	BlckErr	Temp	State	Recorded	gain1	gain2
2026-01-09 23:32:51.75	139.69	0.21	-48.0	-61.8	3.3	1.54e+00	0	24	0	0	60	44363
2026-01-09 23:32:55.78	139.63	0.45	-48.0	-63.2	3.6	1.51e+00	0	24	104	0	60	52081
2026-01-09 23:32:59.82	139.56	0.70	-47.7	-62.9	3.6	1.51e+00	0	24	104	0	60	50272
2026-01-09 23:33:03.86	139.50	0.95	-47.1	-62.2	3.6	1.51e+00	0	24	104	0	60	46731
2026-01-09 23:33:07.90	139.43	1.20	-46.1	-61.4	3.6	1.51e+00	0	24	104	0	60	42447
2026-01-09 23:33:11.94	139.36	1.45	-46.0	-61.4	3.6	1.51e+00	0	24	104	0	60	42374
2026-01-09 23:33:15.98	139.30	1.70	-46.0	-61.1	3.6	1.51e+00	0	24	104	0	60	40811
2026-01-09 23:33:20.02	139.23	1.96	-46.0	-61.2	3.6	1.51e+00	0	24	104	0	60	41365
2026-01-09 23:33:24.06	139.15	2.22	-46.0	-61.2	3.6	1.51e+00	0	24	104	0	60	41650
2026-01-09 23:33:28.09	139.08	2.48	-46.0	-61.0	3.6	1.51e+00	0	24	104	0	60	40619
2026-01-09 23:33:32.13	139.00	2.74	-46.0	-61.1	3.6	1.51e+00	0	24	104	0	60	41259
2026-01-09 23:33:36.17	138.93	3.01	-45.7	-56.6	4.6	1.46e+00	92	24	104	0	60	24404
2026-01-09 23:33:40.21	138.85	3.27	-43.5	-47.3	12.9	8.69e-05	91	24	0	7340032	60	8418
2026-01-09 23:33:44.24	138.77	3.54	-41.3	-43.5	16.8	0.00e+00	91	24	0	14680064	56	6805
2026-01-09 23:33:48.28	138.69	3.82	-39.2	-40.7	19.6	0.00e+00	92	24	0	18874368	52	6175
2026-01-09 23:33:52.31	138.61	4.09	-40.3	-42.0	18.3	0.00e+00	90	24	0	24117248	54	6459
2026-01-09 23:33:56.35	138.52	4.37	-39.2	-40.5	20.0	0.00e+00	90	24	0	31457280	52	6080
2026-01-09 23:34:00.38	138.43	4.65	-38.5	-39.8	20.7	0.00e+00	92	24	0	38797312	50	6264
2026-01-09 23:34:04.42	138.35	4.94	-38.1	-39.3	20.9	0.00e+00	92	24	0	46137344	50	5912
2026-01-09 23:34:08.46	138.25	5.22	-38.0	-39.1	21.4	0.00e+00	91	24	0	54525952	50	5792
2026-01-09 23:34:12.49	138.16	5.51	-38.0	-39.1	21.5	0.00e+00	91	24	0	61865984	50	5792
2026-01-09 23:34:16.52	138.07	5.81	-37.8	-38.9	21.7	0.00e+00	0	24	0	69206016	50	5641
2026-01-09 23:34:20.56	137.97	6.10	-37.6	-38.6	22.1	0.00e+00	92	24	0	76546048	48	6169
2026-01-09 23:34:24.59	137.87	6.40	-37.2	-38.2	22.5	0.00e+00	90	24	0	83886080	48	5857
2026-01-09 23:34:28.63	137.77	6.70	-37.3	-38.3	22.4	0.00e+00	90	24	0	92274688	48	5948
2026-01-09 23:34:32.66	137.66	7.01	-37.0	-38.0	22.7	0.00e+00	0	24	0	99614720	48	5708
2026-01-09 23:34:36.70	137.56	7.32	-37.1	-38.1	22.7	0.00e+00	92	24	0	106954752	48	5781
2026-01-09 23:34:40.74	137.45	7.64	-36.7	-37.7	23.1	0.00e+00	92	24	0	114294784	46	6195
2026-01-09 23:34:44.77	137.34	7.95	-36.8	-37.8	23.0	0.00e+00	92	24	0	122683392	46	6278
2026-01-09 23:34:48.81	137.22	8.28	-37.0	-38.0	23.0	0.00e+00	77	24	0	130023424	46	6427
2026-01-09 23:34:52.84	137.10	8.60	-36.6	-37.5	23.3	0.00e+00	89	24	0	137363456	46	6092
2026-01-09 23:34:56.88	136.98	8.93	-36.5	-37.4	23.4	0.00e+00	92	24	0	144703488	46	6006
2026-01-09 23:35:00.92	136.86	9.27	-36.5	-37.4	23.5	0.00e+00	92	24	0	152043520	46	5978
2026-01-09 23:35:04.96	136.73	9.61	-36.7	-37.6	23.3	0.00e+00	7	25	0	160432128	46	6131
2026-01-09 23:35:08.99	136.60	9.95	-36.5	-37.4	23.5	0.00e+00	90	25	0	167772160	46	5989
2026-01-09 23:35:13.03	136.47	10.30	-36.2	-37.1	23.8	0.00e+00	92	24	0	175112192	46	5811
2026-01-09 23:35:17.07	136.33	10.65	-36.1	-36.9	24.0	0.00e+00	90	25	0	182452224	46	5694
2026-01-09 23:35:21.10	136.19	11.01	-36.2	-37.1	23.8	0.00e+00	90	24	0	189792256	46	5791
2026-01-09 23:35:25.14	136.05	11.37	-36.3	-37.2	23.8	0.00e+00	91	24	0	198180864	46	5857
2026-01-09 23:35:29.18	135.90	11.74	-36.1	-36.9	24.1	0.00e+00	92	25	0	205520896	46	5692
2026-01-09 23:35:33.22	135.75	12.11	-36.0	-36.9	24.1	0.00e+00	35	24	0	212860928	46	5654
2026-01-09 23:35:37.33	135.59	12.50	-36.2	-37.0	23.9	0.00e+00	49	25	0	220200960	46	5748
2026-01-09 23:35:41.37	135.43	12.88	-36.0	-36.9	24.1	0.00e+00	91	25	0	227540992	46	5655
2026-01-09 23:35:45.41	135.26	13.27	-35.8	-36.7	24.3	0.00e+00	90	25	0	235929600	46	5520
2026-01-09 23:35:49.44	135.09	13.67	-35.8	-36.7	24.4	0.00e+00	92	25	0	243269632	46	5507
2026-01-09 23:35:53.48	134.92	14.07	-35.7	-36.5	24.4	0.00e+00	56	24	0	250609664	44	6099
2026-01-09 23:35:57.52	134.73	14.49	-35.6	-36.5	24.5	0.00e+00	92	25	0	257949696	44	6047
2026-01-09 23:36:01.55	134.55	14.90	-35.7	-36.6	24.4	0.00e+00	92	25	0	265289728	44	6123
2026-01-09 23:36:05.59	134.36	15.32	-35.8	-36.6	24.4	0.00e+00	91	24	0	273678336	44	6141
2026-01-09 23:36:09.63	134.16	15.76	-35.7	-36.5	24.5	0.00e+00	92	25	0	281018368	44	6101
2026-01-09 23:36:13.66	133.96	16.19	-35.7	-36.5	24.5	0.00e+00	92	25	0	288358400	44	6073
2026-01-09 23:36:17.70	133.74	16.64	-35.7	-36.6	24.4	0.00e+00	90	25	0	295698432	44	6107
2026-01-09 23:36:21.73	133.53	17.09	-35.7	-36.6	24.6	0.00e+00	26	25	0	303038464	44	6119
2026-01-09 23:36:25.77	133.30	17.55	-35.8	-36.6	24.4	0.00e+00	92	25	0	311427072	44	6172
2026-01-09 23:36:29.80	133.07	18.02	-35.8	-36.7	24.4	0.00e+00	92	24	0	318767104	44	6224
2026-01-09 23:36:33.84	132.83	18.50	-35.9	-36.7	24.4	0.00e+00	89	25	0	326107136	44	6215
2026-01-09 23:36:37.88	132.59	18.99	-35.8	-36.6	24.5	0.00e+00	11	25	0	333447168	44	6153
2026-01-09 23:36:41.91	132.33	19.48	-35.6	-36.5	24.6	0.00e+00	92	25	0	341835776	44	6036
2026-01-09 23:36:45.95	132.06	19.99	-35.6	-36.4	24.8	0.00e+00	92	25	0	349175808	44	5975
2026-01-09 23:36:49.99	131.79	20.51	-35.7	-36.5	24.6	0.00e+00	90	24	0	356515840	44	6065
2026-01-09 23:36:54.02	131.51	21.03	-35.5	-36.3	24.8	0.00e+00	4	25	0	363855872	44	5912
2026-01-09 23:36:58.06	131.21	21.57	-35.5	-36.4	24.8	0.00e+00	92	25	0	371195904	44	5969
2026-01-09 23:37:02.10	130.91	22.11	-35.6	-36.4	24.6	0.00e+00	92	25	0	379584512	44	6030
2026-01-09 23:37:06.13	130.59	22.67	-35.6	-36.4	24.7	0.00e+00	90	25	0	386924544	44	6011
2026-01-09 23:37:10.17	130.26	23.24	-35.7	-36.5	24.6	0.00e+00	0	25	0	394264576	44	6086
2026-01-09 23:37:14.21	129.92	23.82	-36.0	-36.9	24.4	0.00e+00	90	25	0	401604608	44	6330
2026-01-09 23:37:18.24	129.57	24.41	-36.2	-37.0	24.2	0.00e+00	92	25	0	409993216	44	6419
2026-01-09 23:37:22.27	129.20	25.02	-36.7	-37.6	23.8	0.00e+00	92	24	0	417333248	44	6856
2026-01-09 23:37:26.31	128.81	25.64	-37.2	-38.2	23.3	0.00e+00	0	24	0	424673280	46	6540
2026-01-09 23:37:30.35	128.41	26.27	-37.4	-38.4	23.1	0.00e+00	92	24	0	432013312	46	6738
2026-01-09 23:37:34.38	128.00	26.91	-37.9	-38.9	22.7	0.00e+00	92	25	0	439353344	48	6351
2026-01-09 23:37:38.42	127.56	27.57	-38.1	-39.1	22.5	0.00e+00	92	25	0	447741952	48	6509
2026-01-09 23:37:42.46	127.11	28.24	-38.6	-39.6	22.0	0.00e+00	92	25	0	455081984	48	6913
2026-01-09 23:37:46.49	126.63	28.93	-38.8	-39.9	21.8	0.00e+00	92	25	0	462422016	50	6382
2026-01-09 23:37:50.53	126.14	29.63	-39.1	-40.3	21.6	0.00e+00	92	25	0	469762048	50	6631
2026-01-09 23:37:54.57	125.62	30.35	-38.7	-39.8	21.9	0.00e+00	0	25	0	477102080	50	6294
2026-01-09 23:37:58.61	125.08	31.08	-38.6	-39.7	22.1	0.00e+00	92	25	0	485490688	50	6206
2026-01-09 23:38:02.65	124.51	31.83	-38.2	-39.3	22.5	0.00e+00	92	25	0	492830720	50	5897
2026-01-09 23:38:06.68	123.91	32.59	-38.4	-39.4	22.3	0.00e+00	91	25	0	500170752	50	6005
2026-01-09 23:38:10.71	123.29	33.37	-39.0	-40.1	21.6	0.00e+00	0	25	0	507510784	50	6493
2026-01-09 23:38:14.75	122.63	34.17	-38.3	-39.3	22.4	0.00e+00	91	25	0	515899392	50	5945
2026-01-09 23:38:18.78	121.94	34.98	-38.9	-40.0	21.8	0.00e+00	92	25	0	523239424	50	6414
2026-01-09 23:38:22.82	121.21	35.81	-39.3	-40.4	21.4	0.00e+00	90	25	0	530579456	50	6727
2026-01-09 23:38:26.86	120.45	36.65	-39.7	-40.9	21.0	0.00e+00	12	25	0	537919488	50	7124
2026-01-09 23:38:30.89	119.64	37.51	-39.7	-40.9	20.9	0.00e+00	92	25	0	545259520	52	6349
2026-01-09 23:38:34.93	118.79	38.39	-39.8	-41.0	20.8	0.00e+00	92	25	0	553648128	52	6443
2026-01-09 23:38:38.97	117.89	39.28	-39.8	-41.1	20.7	0.00e+00	92	25	0	560988160	52	6480
2026-01-09 23:38:43.01	116.93	40.19	-40.2	-41.5	20.3	0.00e+00	12	25	0	568328192	52	6830
2026-01-09 23:38:47.04	115.93	41.11	-40.4	-41.8	20.1	0.00e+00	92	25	0	575668224	52	7020
2026-01-09 23:38:51.08	114.86	42.04	-40.0	-41.2	20.6	0.00e+00	90	25	0	584056832	52	6607
2026-01-09 23:38:55.11	113.73	42.98	-38.5	-39.6	22.2	0.00e+00	90	25	0	591396864	50	6127
2026-01-09 23:38:59.15	112.53	43.94	-38.1	-39.1	22.6	0.00e+00	0	25	0	598736896	50	5826
2026-01-09 23:39:03.19	111.25	44.90	-37.6	-38.6	22.9	0.00e+00	92	25	0	606076928	48	6134
2026-01-09 23:39:07.22	109.89	45.87	-38.6	-39.8	22.0	0.00e+00	92	25	0	613416960	50	6275
2026-01-09 23:39:11.26	108.45	46.84	-38.5	-39.6	22.1	0.00e+00	92	25	0	621805568	50	6127
2026-01-09 23:39:15.30	106.91	47.82	-38.2	-39.3	22.4	0.00e+00	83	25	0	629145600	50	5924
2026-01-09 23:39:19.33	105.27	48.79	-38.9	-40.0	21.8	0.00e+00	90	25	0	636485632	50	6420
2026-01-09 23:39:23.37	103.53	49.76	-38.9	-40.1	21.7	0.00e+00	92	25	0	643825664	50	6476
2026-01-09 23:39:27.41	101.67	50.72	-38.0	-39.0	22.8	0.00e+00	41	25	0	652214272	50	5712
2026-01-09 23:39:31.45	99.68	51.66	-36.0	-36.8	24.6	0.00e+00	91	25	0	659554304	46	5617
2026-01-09 23:39:35.48	97.58	52.58	-36.1	-36.9	24.6	0.00e+00	92	25	0	666894336	46	5670
2026-01-09 23:39:39.52	95.33	53.48	-34.9	-35.7	25.6	0.00e+00	92	25	0	674234368	44	5515
2026-01-09 23:39:43.56	92.94	54.35	-35.4	-36.2	25.1	0.00e+00	0	25	0	681574400	42	6567
2026-01-09 23:39:47.59	90.41	55.17	-35.6	-36.4	24.9	0.00e+00	92	25	0	689963008	42	6720
2026-01-09 23:39:51.63	87.73	55.95	-36.9	-37.8	23.7	0.00e+00	92	25	0	697303040	46	6268
2026-01-09 23:39:55.66	84.91	56.67	-37.4	-38.3	23.4	0.00e+00	11	25	0	704643072	46	6666
2026-01-09 23:39:59.70	81.93	57.33	-37.3	-38.2	23.3	0.00e+00	11	25	0	711983104	46	6599
2026-01-09 23:40:03.74	78.82	57.92	-37.8	-38.7	23.0	0.00e+00	90	25	0	719323136	48	6227
2026-01-09 23:40:07.77	75.58	58.43	-38.0	-38.9	22.8	0.00e+00	92	25	0	727711744	48	6380
2026-01-09 23:40:11.81	72.22	58.86	-37.6	-38.6	23.1	0.00e+00	15	25	0	735051776	48	6131
2026-01-09 23:40:15.85	68.75	59.19	-36.8	-37.7	24.0	0.00e+00	4	25	0	742391808	46	6176
2026-01-09 23:40:19.88	65.22	59.43	-36.4	-37.2	24.3	0.00e+00	92	25	0	749731840	46	5862
2026-01-09 23:40:23.92	61.64	59.57	-35.1	-35.9	25.3	0.00e+00	92	25	0	758120448	44	5645
2026-01-09 23:40:27.96	58.02	59.60	-34.6	-35.4	25.8	0.00e+00	81	25	0	765460480	42	5968
2026-01-09 23:40:31.99	54.43	59.53	-34.3	-35.0	26.0	0.00e+00	54	25	0	772800512	42	5759
2026-01-09 23:40:36.03	50.85	59.36	-34.4	-35.1	26.0	0.00e+00	92	25	0	780140544	42	5791
2026-01-09 23:40:40.06	47.35	59.09	-34.5	-35.3	25.8	0.00e+00	92	25	0	787480576	42	5909
2026-01-09 23:40:44.10	43.92	58.72	-35.1	-35.9	25.4	0.00e+00	0	25	0	795869184	42	6336
2026-01-09 23:40:48.14	40.60	58.27	-35.7	-36.5	24.7	0.00e+00	83	25	0	803209216	44	6037
2026-01-09 23:40:52.18	37.40	57.73	-36.7	-37.5	23.9	0.00e+00	91	25	0	810549248	46	6102
2026-01-09 23:40:56.21	34.34	57.11	-36.2	-37.0	24.4	0.00e+00	92	25	0	817889280	46	5755
2026-01-09 23:41:00.24	31.42	56.43	-35.5	-36.3	25.0	0.00e+00	0	25	0	826277888	44	5948
2026-01-09 23:41:04.28	28.65	55.69	-35.4	-36.2	25.1	0.00e+00	91	25	0	833617920	44	5858
2026-01-09 23:41:08.31	26.03	54.90	-34.8	-35.6	25.6	0.00e+00	92	25	0	840957952	44	5464
2026-01-09 23:41:12.35	23.55	54.07	-35.0	-35.7	25.4	0.00e+00	92	25	0	848297984	44	5554
2026-01-09 23:41:16.39	21.21	53.19	-36.2	-37.0	24.3	0.00e+00	82	25	0	855638016	44	6445
2026-01-09 23:41:20.43	19.02	52.29	-36.6	-37.5	24.1	0.00e+00	92	25	0	864026624	46	6058
2026-01-09 23:41:24.46	16.96	51.36	-37.5	-38.4	23.1	0.00e+00	92	25	0	871366656	46	6746
2026-01-09 23:41:28.50	15.02	50.41	-38.4	-39.5	22.2	0.00e+00	0	25	0	878706688	48	6779
2026-01-09 23:41:32.54	13.20	49.46	-38.4	-39.4	22.4	0.00e+00	0	25	0	886046720	50	6017
2026-01-09 23:41:36.57	11.50	48.49	-39.6	-40.9	21.0	0.00e+00	92	25	0	893386752	50	7120
2026-01-09 23:41:40.61	9.90	47.52	-39.6	-40.8	21.1	0.00e+00	92	25	0	901775360	52	6266
2026-01-09 23:41:44.65	8.39	46.55	-38.9	-40.0	21.7	0.00e+00	6	25	0	909115392	50	6416
2026-01-09 23:41:48.68	6.98	45.58	-38.3	-39.4	22.5	0.00e+00	0	25	0	916455424	50	5987
2026-01-09 23:41:52.72	5.66	44.61	-38.3	-39.3	22.4	0.00e+00	92	25	0	923795456	50	5953
2026-01-09 23:41:56.76	4.41	43.65	-37.4	-38.3	23.3	0.00e+00	92	25	0	932184064	48	5930
2026-01-09 23:42:00.79	3.23	42.71	-38.5	-39.5	22.2	0.00e+00	5	25	0	939524096	48	6845
2026-01-09 23:42:04.83	2.13	41.77	-38.7	-39.8	21.9	0.00e+00	81	25	0	946864128	48	7048
2026-01-09 23:42:08.86	1.08	40.84	-40.0	-41.3	20.7	0.00e+00	90	25	0	954204160	52	6636
2026-01-09 23:42:12.90	0.10	39.93	-39.3	-40.4	21.4	0.00e+00	91	25	0	961544192	52	6023
2026-01-09 23:42:16.94	359.16	39.03	-40.0	-41.4	20.5	0.00e+00	80	25	0	969932800	52	6766
2026-01-09 23:42:20.98	358.28	38.15	-40.1	-41.6	20.3	0.00e+00	0	25	0	977272832	52	6865
2026-01-09 23:42:25.01	357.45	37.28	-41.1	-42.7	19.3	0.00e+00	92	25	0	984612864	54	6971
2026-01-09 23:42:29.05	356.66	36.43	-40.0	-41.4	20.5	0.00e+00	80	25	0	991952896	54	5968
2026-01-09 23:42:33.08	355.91	35.60	-39.3	-40.6	21.2	0.00e+00	0	25	0	999292928	52	6117
2026-01-09 23:42:37.13	355.19	34.77	-39.0	-40.2	21.6	0.00e+00	0	25	0	1007681536	52	5864
2026-01-09 23:42:41.16	354.52	33.97	-39.0	-40.1	21.7	0.00e+00	92	25	0	1015021568	52	5809
2026-01-09 23:42:45.20	353.87	33.18	-38.8	-39.8	21.9	0.00e+00	78	25	0	1022361600	52	5620
2026-01-09 23:42:49.24	353.26	32.41	-38.6	-39.7	22.0	0.00e+00	0	25	0	1029701632	50	6195
2026-01-09 23:42:53.27	352.68	31.66	-38.9	-40.1	21.6	0.00e+00	90	25	0	1038090240	50	6473
2026-01-09 23:42:57.31	352.12	30.92	-39.5	-40.7	21.0	0.00e+00	10	25	0	1045430272	50	6987
2026-01-09 23:43:01.35	351.59	30.19	-39.3	-40.5	21.2	0.00e+00	0	25	0	1052770304	52	6074
2026-01-09 23:43:05.38	351.08	29.48	-39.1	-40.2	21.6	0.00e+00	0	25	0	1060110336	52	5865
2026-01-09 23:43:09.43	350.59	28.79	-39.3	-40.5	21.3	0.00e+00	92	25	0	1067450368	52	6041
2026-01-09 23:43:13.46	350.13	28.11	-39.1	-40.3	21.4	0.00e+00	0	25	0	1075838976	52	5938
2026-01-09 23:43:17.50	349.68	27.44	-39.1	-40.3	21.5	0.00e+00	0	25	0	1083179008	52	5914
2026-01-09 23:43:21.53	349.25	26.79	-38.8	-40.0	21.7	0.00e+00	0	25	0	1090519040	52	5704
2026-01-09 23:43:25.56	348.85	26.15	-38.6	-39.7	21.9	0.00e+00	92	25	0	1097859072	50	6231
2026-01-09 23:43:29.60	348.45	25.53	-38.4	-39.5	22.2	0.00e+00	77	25	0	1106247680	50	6062
2026-01-09 23:43:33.64	348.08	24.92	-38.4	-39.5	22.2	0.00e+00	7	25	0	1113587712	50	6055
2026-01-09 23:43:37.68	347.71	24.32	-38.5	-39.6	22.0	0.00e+00	5	25	0	1120927744	50	6168
2026-01-09 23:43:41.71	347.37	23.73	-38.4	-39.5	22.1	0.00e+00	91	25	0	1128267776	50	6040
2026-01-09 23:43:45.75	347.03	23.16	-38.0	-39.0	22.5	0.00e+00	0	25	0	1135607808	50	5719
2026-01-09 23:43:49.79	346.71	22.59	-38.0	-39.0	22.5	0.00e+00	10	25	0	1143996416	50	5719
2026-01-09 23:43:53.82	346.40	22.04	-38.0	-39.0	22.5	0.00e+00	0	25	0	1151336448	50	5714
2026-01-09 23:43:57.86	346.10	21.50	-37.6	-38.6	22.8	0.00e+00	91	25	0	1158676480	48	6146
2026-01-09 23:44:01.90	345.81	20.97	-37.1	-38.1	23.3	0.00e+00	6	25	0	1166016512	48	5770
2026-01-09 23:44:05.93	345.53	20.45	-37.2	-38.1	23.3	0.00e+00	0	25	0	1174405120	48	5787
2026-01-09 23:44:09.97	345.26	19.94	-37.2	-38.2	23.1	0.00e+00	0	25	0	1181745152	48	5830
2026-01-09 23:44:14.00	345.00	19.44	-37.1	-38.1	23.2	0.00e+00	92	25	0	1189085184	48	5788
2026-01-09 23:44:18.04	344.75	18.94	-37.3	-38.2	23.1	0.00e+00	6	25	0	1196425216	48	5867
2026-01-09 23:44:22.07	344.51	18.46	-37.5	-38.5	22.7	0.00e+00	7	25	0	1203765248	48	6088
2026-01-09 23:44:26.11	344.28	17.99	-37.6	-38.6	22.7	0.00e+00	35	25	0	1212153856	48	6151
2026-01-09 23:44:30.14	344.05	17.52	-37.6	-38.6	22.7	0.00e+00	74	25	0	1219493888	48	6126
2026-01-09 23:44:34.18	343.83	17.06	-37.5	-38.5	22.8	0.00e+00	0	25	0	1226833920	48	6074
2026-01-09 23:44:38.21	343.62	16.62	-37.6	-38.6	22.8	0.00e+00	8	25	0	1234173952	48	6111
2026-01-09 23:44:42.24	343.41	16.17	-37.8	-38.8	22.5	0.00e+00	58	25	0	1242562560	48	6296
2026-01-09 23:44:46.28	343.21	15.74	-37.9	-39.0	22.4	0.00e+00	0	25	0	1249902592	48	6426
2026-01-09 23:44:50.31	343.02	15.31	-38.1	-39.2	22.1	0.00e+00	0	25	0	1257242624	48	6590
2026-01-09 23:44:54.35	342.83	14.89	-38.2	-39.3	22.1	0.00e+00	0	25	0	1264582656	48	6662
2026-01-09 23:44:58.39	342.65	14.48	-38.4	-39.5	21.8	0.00e+00	92	25	0	1271922688	48	6816
2026-01-09 23:45:02.42	342.47	14.07	-38.4	-39.5	21.8	0.00e+00	74	25	0	1280311296	48	6846
2026-01-09 23:45:06.46	342.30	13.67	-38.2	-39.3	22.0	0.00e+00	0	25	0	1287651328	48	6645
2026-01-09 23:45:10.49	342.14	13.28	-38.3	-39.4	21.8	0.00e+00	0	25	0	1294991360	48	6722
2026-01-09 23:45:14.53	341.97	12.89	-38.3	-39.4	21.8	0.00e+00	92	25	0	1302331392	48	6767
2026-01-09 23:45:18.57	341.82	12.51	-38.5	-39.6	21.6	0.00e+00	66	25	0	1309671424	48	6908
2026-01-09 23:45:22.60	341.66	12.13	-38.7	-39.8	21.4	0.00e+00	0	25	0	1318060032	48	7086
2026-01-09 23:45:26.64	341.52	11.76	-38.8	-40.1	21.1	0.00e+00	12	25	0	1325400064	50	6467
2026-01-09 23:45:30.68	341.37	11.40	-39.2	-40.5	20.8	0.00e+00	90	25	0	1332740096	50	6804
2026-01-09 23:45:34.72	341.23	11.03	-39.3	-40.6	20.6	0.00e+00	0	25	0	1340080128	50	6918
2026-01-09 23:45:38.76	341.09	10.68	-39.4	-40.8	20.5	0.00e+00	0	25	0	1348468736	50	7028
2026-01-09 23:45:42.79	340.96	10.33	-39.3	-40.7	20.5	0.00e+00	67	25	0	1355808768	50	6962
2026-01-09 23:45:46.82	340.83	9.98	-39.3	-40.7	20.5	0.00e+00	92	25	0	1363148800	50	6967
2026-01-09 23:45:50.85	340.71	9.64	-39.4	-40.8	20.5	0.00e+00	6	25	0	1370488832	50	7031
2026-01-09 23:45:54.89	340.58	9.31	-39.2	-40.6	20.5	0.00e+00	0	25	0	1377828864	50	6907
2026-01-09 23:45:58.93	340.46	8.97	-39.4	-40.8	20.3	0.00e+00	6	25	0	1386217472	50	7023
2026-01-09 23:46:02.96	340.35	8.65	-39.3	-40.7	20.4	0.00e+00	92	25	0	1393557504	50	6970
2026-01-09 23:46:06.99	340.23	8.32	-39.6	-41.0	20.1	0.00e+00	13	25	0	1400897536	50	7244
2026-01-09 23:46:11.03	340.12	8.00	-39.6	-41.0	20.1	0.00e+00	68	25	0	1408237568	50	7225
2026-01-09 23:46:15.06	340.02	7.69	-39.7	-41.2	19.9	0.00e+00	0	25	0	1415577600	52	6569
2026-01-09 23:46:19.09	339.91	7.37	-39.7	-41.2	19.8	0.00e+00	28	25	0	1423966208	52	6561
2026-01-09 23:46:23.13	339.81	7.07	-39.9	-41.5	19.6	0.00e+00	0	25	0	1431306240	52	6779
2026-01-09 23:46:27.17	339.71	6.76	-40.0	-41.5	19.5	0.00e+00	5	25	0	1438646272	52	6827
2026-01-09 23:46:31.20	339.61	6.46	-39.9	-41.5	19.4	0.00e+00	68	25	0	1445986304	52	6818
2026-01-09 23:46:35.24	339.51	6.16	-40.0	-41.6	19.2	0.00e+00	92	25	0	1453326336	52	6901
2026-01-09 23:46:39.28	339.42	5.86	-40.1	-41.8	18.8	0.00e+00	14	25	0	1461714944	52	7079
2026-01-09 23:46:43.31	339.33	5.57	-40.6	-42.7	17.6	0.00e+00	0	25	0	1469054976	52	7818
2026-01-09 23:46:47.35	339.24	5.28	-41.1	-43.6	16.2	0.00e+00	92	25	0	1476395008	54	7716
2026-01-09 23:46:51.38	339.15	5.00	-41.9	-45.4	13.8	3.80e-06	0	25	0	1483735040	56	8521
2026-01-09 23:46:55.42	339.07	4.72	-42.4	-47.7	10.3	2.42e-03	14	25	0	1492123648	56	11013
2026-01-09 23:46:59.46	338.99	4.44	-42.7	-50.1	6.8	1.52e-01	2	25	0	1499463680	56	14623
2026-01-09 23:47:03.49	338.91	4.16	-42.7	-52.8	4.0	9.81e-01	92	25	0	1506803712	56	19970
2026-01-09 23:47:07.53	338.83	3.89	-42.6	-56.5	3.6	1.50e+00	0	25	104	1507852288	56	30574
2026-01-09 23:47:11.55	338.75	3.61	-42.6	-57.4	3.6	1.51e+00	0	25	104	1507852288	56	33869
2026-01-09 23:47:15.59	338.67	3.35	-42.6	-57.9	3.6	1.51e+00	0	25	104	1507852288	58	31741
2026-01-09 23:47:19.62	338.60	3.08	-42.6	-57.9	3.6	1.51e+00	0	25	104	1507852288	58	31761
2026-01-09 23:47:23.66	338.53	2.82	-47.6	-62.9	3.6	1.51e+00	0	25	104	1507852288	60	50437
2026-01-09 23:47:27.70	338.46	2.55	-48.0	-63.3	3.6	1.51e+00	0	25	104	1507852288	60	52619
2026-01-09 23:47:31.74	338.39	2.29	-47.7	-63.1	3.6	1.51e+00	0	25	104	1507852288	60	51629
2026-01-09 23:47:35.78	338.32	2.04	-48.0	-63.2	3.6	1.51e+00	0	25	104	1507852288	60	52107
2026-01-09 23:47:39.82	338.25	1.78	-47.9	-63.1	3.6	1.51e+00	0	25	104	1507852288	60	51761
2026-01-09 23:47:43.85	338.19	1.53	-47.9	-63.0	3.6	1.51e+00	0	25	104	1507852288	60	51305
2026-01-09 23:47:47.89	338.12	1.28	-47.9	-63.1	3.6	1.51e+00	0	25	104	1507852288	60	51566
2026-01-09 23:47:51.92	338.06	1.03	-47.8	-63.0	3.6	1.51e+00	0	25	104	1507852288	60	51266
2026-01-09 23:47:55.96	338.00	0.78	-47.9	-63.1	3.6	1.51e+00	0	25	104	1507852288	60	51534
2026-01-09 23:48:00.00	337.94	0.54	-47.8	-63.1	3.6	1.51e+00	0	25	104	1507852288	60	51672
2026-01-09 23:48:04.04	337.88	0.30	-47.9	-63.1	3.6	1.51e+00	0	25	104	1507852288	60	51386
2026-01-09 23:48:08.08	337.83	0.06	-47.8	-63.1	3.6	1.51e+00	0	25	104	1507852288	60	51408

#Closed at: 2026-01-09 23:48:11
#Recorded file [1507 MB]: D:/lorett/data/35029_260110_113251.dat