passes_logs/2026/01/09/R4.6S_Anadyr/R4.6S_Anadyr__20260109_163405_AQUA_rec.log

#Pass ID: 20260109_163405_AQUA
#Satellite: AQUA
#Configuration: AQUA
#almurnet v.1.7.20251203
#Start time: 2026-01-09 16:34:06

#Version: 2.2.20231116
#Station: R4.6S_Anadyr
#Location: 177.4865 lon 64.73178 lat
#TLE: 1 27424U 02022A   26009.00333547  .00001046  00000+0  21942-3 0  9998
#TLE: 2 27424  98.4075 335.3304 0002026  85.7625 349.1392 14.61808998260012

#Time	Az	El	Level	Level2	SNR	BER	BlckErr	Temp	State	Recorded	gain1	gain2
2026-01-09 16:34:06.46	20.00	0.09	-47.8	-59.4	3.5	8.46e-01	0	21	0	0	60	33603
2026-01-09 16:34:10.50	20.00	0.34	-48.2	-66.1	3.5	3.02e+01	0	23	104	0	60	77333
2026-01-09 16:34:14.53	19.99	0.59	-48.1	-65.9	3.5	3.02e+01	0	23	104	0	60	75925
2026-01-09 16:34:18.57	19.98	0.84	-47.6	-65.5	3.5	3.02e+01	0	23	104	0	60	72696
2026-01-09 16:34:22.61	19.97	1.10	-46.7	-64.3	3.5	3.02e+01	0	23	104	0	60	63063
2026-01-09 16:34:26.65	19.95	1.36	-46.7	-64.4	3.5	3.02e+01	0	23	104	0	60	64084
2026-01-09 16:34:30.69	19.94	1.62	-46.6	-62.9	3.5	3.02e+01	0	23	104	0	60	53561
2026-01-09 16:34:34.72	19.93	1.88	-46.6	-63.5	3.5	3.02e+01	0	23	104	0	60	57658
2026-01-09 16:34:38.76	19.92	2.15	-46.7	-64.3	3.5	3.02e+01	0	23	104	0	60	63257
2026-01-09 16:34:42.80	19.91	2.42	-46.6	-62.8	3.5	3.02e+01	0	23	104	0	60	53328
2026-01-09 16:34:46.84	19.89	2.69	-46.3	-57.3	5.7	3.02e+01	92	23	0	524288	60	28076
2026-01-09 16:34:50.88	19.88	2.97	-46.2	-55.4	7.5	3.02e+01	92	23	0	5242880	60	22747
2026-01-09 16:34:54.91	19.86	3.25	-43.0	-46.4	17.7	3.02e+01	59	23	0	12582912	60	8045
2026-01-09 16:34:58.95	19.85	3.53	-40.2	-42.3	21.7	3.02e+01	59	23	0	20447232	56	6286
2026-01-09 16:35:02.99	19.83	3.81	-41.2	-43.6	20.2	3.02e+01	56	23	0	27787264	56	7309
2026-01-09 16:35:07.03	19.81	4.10	-46.4	-61.4	3.6	3.02e+01	0	23	104	35127296	60	45254
2026-01-09 16:35:11.07	19.79	4.39	-37.5	-39.1	24.7	3.02e+01	60	23	0	38797312	50	6186
2026-01-09 16:35:15.11	19.77	4.69	-38.0	-39.6	24.5	3.02e+01	58	23	0	46137344	50	6540
2026-01-09 16:35:19.14	19.75	4.99	-38.3	-40.0	24.0	3.02e+01	59	23	0	54001664	50	6816
2026-01-09 16:35:23.18	19.73	5.29	-35.8	-37.1	26.9	3.02e+01	60	23	0	61341696	46	6193
2026-01-09 16:35:27.22	19.71	5.60	-35.8	-37.2	26.9	3.02e+01	57	23	0	69206016	46	6236
2026-01-09 16:35:31.26	19.69	5.91	-35.5	-36.8	27.2	3.02e+01	56	23	0	76546048	46	5986
2026-01-09 16:35:35.56	19.67	6.25	-35.5	-36.8	27.3	3.02e+01	62	23	0	84410368	46	5975
2026-01-09 16:35:39.60	19.64	6.57	-35.4	-36.7	27.4	3.02e+01	60	23	0	91750400	46	5876
2026-01-09 16:35:43.63	19.62	6.89	-35.0	-36.3	27.7	3.02e+01	59	23	0	99090432	46	5644
2026-01-09 16:35:47.67	19.59	7.22	-34.9	-36.2	27.9	3.02e+01	59	23	0	106954752	44	6249
2026-01-09 16:35:51.71	19.56	7.55	-34.8	-36.1	28.1	3.02e+01	59	23	0	114294784	44	6150
2026-01-09 16:35:55.76	19.53	7.89	-34.7	-35.9	28.2	3.02e+01	53	23	0	122159104	44	6050
2026-01-09 16:35:59.79	19.50	8.23	-34.7	-36.0	28.1	3.02e+01	59	23	0	129499136	44	6102
2026-01-09 16:36:03.83	19.47	8.58	-34.6	-35.8	28.3	3.02e+01	44	23	0	137363456	44	5982
2026-01-09 16:36:07.87	19.44	8.94	-34.5	-35.7	28.4	3.02e+01	61	23	0	144703488	44	5901
2026-01-09 16:36:11.91	19.41	9.30	-34.3	-35.6	28.6	3.02e+01	51	23	0	152567808	44	5808
2026-01-09 16:36:15.95	19.37	9.66	-34.2	-35.4	28.7	3.02e+01	59	23	0	159907840	44	5710
2026-01-09 16:36:19.99	19.33	10.03	-34.2	-35.4	28.7	3.02e+01	56	23	0	167772160	44	5708
2026-01-09 16:36:24.03	19.30	10.41	-34.1	-35.3	28.8	3.02e+01	59	23	0	175112192	44	5643
2026-01-09 16:36:28.07	19.26	10.80	-33.9	-35.2	29.0	3.02e+01	52	23	0	182452224	44	5540
2026-01-09 16:36:32.11	19.21	11.19	-34.0	-35.2	29.0	3.02e+01	57	23	0	190316544	42	6267
2026-01-09 16:36:36.15	19.17	11.59	-34.0	-35.3	28.9	3.02e+01	48	23	0	197656576	42	6289
2026-01-09 16:36:40.18	19.13	11.99	-34.8	-36.1	28.2	3.02e+01	59	23	0	205520896	44	6170
2026-01-09 16:36:44.22	19.08	12.41	-34.6	-35.9	28.6	3.02e+01	53	23	0	212860928	44	6016
2026-01-09 16:36:48.26	19.03	12.83	-33.6	-34.8	29.4	3.02e+01	59	23	0	220725248	42	5959
2026-01-09 16:36:52.30	18.98	13.26	-33.5	-34.7	29.6	3.02e+01	44	23	0	228065280	42	5876
2026-01-09 16:36:56.34	18.93	13.70	-33.5	-34.7	29.6	3.02e+01	59	23	0	235405312	42	5860
2026-01-09 16:37:00.38	18.87	14.14	-33.3	-34.5	29.7	3.02e+01	45	23	0	243269632	42	5758
2026-01-09 16:37:04.42	18.81	14.60	-33.3	-34.5	29.7	3.02e+01	58	23	0	250609664	42	5749
2026-01-09 16:37:08.46	18.75	15.07	-33.6	-34.8	29.5	3.02e+01	58	23	0	258473984	42	5939
2026-01-09 16:37:12.49	18.69	15.54	-33.4	-34.6	29.7	3.02e+01	58	23	0	265814016	42	5834
2026-01-09 16:37:16.53	18.63	16.03	-33.2	-34.4	29.9	3.02e+01	59	23	0	273678336	42	5676
2026-01-09 16:37:20.58	18.56	16.53	-33.2	-34.3	29.9	3.02e+01	61	24	0	281018368	42	5645
2026-01-09 16:37:24.62	18.49	17.04	-33.3	-34.5	29.9	3.02e+01	57	24	0	288882688	42	5727
2026-01-09 16:37:28.66	18.41	17.56	-33.1	-34.3	30.0	3.02e+01	59	23	0	296222720	42	5610
2026-01-09 16:37:32.70	18.33	18.09	-33.3	-34.5	29.8	3.02e+01	58	23	0	304087040	42	5769
2026-01-09 16:37:36.74	18.25	18.64	-33.4	-34.6	29.7	3.02e+01	60	24	0	311427072	42	5837
2026-01-09 16:37:40.78	18.17	19.20	-33.6	-34.8	29.6	3.02e+01	63	23	0	318767104	42	5936
2026-01-09 16:37:44.82	18.08	19.78	-33.7	-34.9	29.6	3.02e+01	56	23	0	326631424	42	6020
2026-01-09 16:37:48.86	17.98	20.36	-33.6	-34.8	29.7	3.02e+01	59	23	0	333971456	42	5927
2026-01-09 16:37:52.90	17.88	20.97	-33.7	-34.9	29.6	3.02e+01	57	23	0	341835776	42	6033
2026-01-09 16:37:56.94	17.78	21.59	-33.8	-35.0	29.4	3.02e+01	59	23	0	349175808	42	6114
2026-01-09 16:38:00.98	17.67	22.23	-33.8	-35.0	29.5	3.02e+01	59	24	0	357040128	42	6093
2026-01-09 16:38:05.02	17.56	22.88	-33.8	-35.0	29.5	3.02e+01	62	24	0	364380160	42	6114
2026-01-09 16:38:09.05	17.44	23.56	-34.1	-35.3	29.2	3.02e+01	48	24	0	372244480	42	6302
2026-01-09 16:38:13.10	17.31	24.25	-33.7	-34.9	29.5	3.02e+01	59	24	0	379584512	42	6050
2026-01-09 16:38:17.13	17.18	24.97	-33.8	-35.0	29.5	3.02e+01	50	24	0	386924544	42	6106
2026-01-09 16:38:21.17	17.04	25.70	-33.9	-35.1	29.5	3.02e+01	59	24	0	394788864	42	6142
2026-01-09 16:38:25.22	16.89	26.46	-33.8	-35.0	29.6	3.02e+01	52	24	0	402128896	42	6092
2026-01-09 16:38:29.26	16.73	27.24	-33.4	-34.6	29.9	3.02e+01	61	24	0	409993216	42	5800
2026-01-09 16:38:33.30	16.56	28.05	-33.4	-34.6	29.9	3.02e+01	51	24	0	417333248	42	5812
2026-01-09 16:38:37.34	16.39	28.88	-33.6	-34.7	29.7	3.02e+01	60	24	0	425197568	42	5912
2026-01-09 16:38:41.38	16.20	29.74	-33.5	-34.7	29.9	3.02e+01	50	24	0	432537600	42	5889
2026-01-09 16:38:45.42	16.00	30.63	-33.1	-34.3	30.2	3.02e+01	57	24	0	440401920	42	5603
2026-01-09 16:38:49.46	15.79	31.55	-33.0	-34.2	30.3	3.02e+01	46	24	0	447741952	42	5557
2026-01-09 16:38:53.50	15.56	32.49	-33.1	-34.2	30.2	3.02e+01	56	24	0	455606272	42	5580
2026-01-09 16:38:57.54	15.32	33.48	-33.6	-34.8	29.8	3.02e+01	45	24	0	462946304	42	5959
2026-01-09 16:39:01.58	15.07	34.49	-33.7	-34.9	29.8	3.02e+01	60	24	0	470286336	42	5997
2026-01-09 16:39:05.61	14.79	35.54	-34.4	-35.6	29.1	3.02e+01	52	24	0	478150656	42	6532
2026-01-09 16:39:09.65	14.50	36.63	-34.8	-36.0	28.8	3.02e+01	59	24	0	485490688	44	6125
2026-01-09 16:39:13.69	14.18	37.76	-35.2	-36.4	28.4	3.02e+01	56	24	0	493355008	44	6403
2026-01-09 16:39:17.73	13.83	38.93	-35.5	-36.8	28.1	3.02e+01	58	23	0	500695040	44	6683
2026-01-09 16:39:21.77	13.46	40.14	-35.1	-36.4	28.5	3.02e+01	55	24	0	508559360	44	6381
2026-01-09 16:39:25.81	13.06	41.39	-35.0	-36.3	28.5	3.02e+01	59	24	0	515899392	44	6301
2026-01-09 16:39:29.85	12.62	42.69	-34.7	-35.9	28.9	3.02e+01	59	24	0	523763712	44	6030
2026-01-09 16:39:33.89	12.15	44.04	-34.2	-35.4	29.3	3.02e+01	57	24	0	531103744	44	5715
2026-01-09 16:39:37.93	11.63	45.43	-33.7	-34.9	29.7	3.02e+01	59	24	0	538443776	42	6031
2026-01-09 16:39:41.97	11.05	46.88	-33.7	-34.8	29.8	3.02e+01	60	24	0	546308096	42	5994
2026-01-09 16:39:46.01	10.42	48.38	-34.0	-35.2	29.4	3.02e+01	59	24	0	553648128	42	6264
2026-01-09 16:39:50.05	9.72	49.92	-33.7	-34.9	29.7	3.02e+01	61	24	0	561512448	42	6059
2026-01-09 16:39:54.08	8.95	51.52	-33.6	-34.7	29.8	3.02e+01	60	24	0	568852480	42	5926
2026-01-09 16:39:58.12	8.08	53.17	-33.1	-34.2	30.2	3.02e+01	58	24	0	576716800	42	5592
2026-01-09 16:40:02.16	7.10	54.87	-33.1	-34.3	30.2	3.02e+01	60	24	0	584056832	40	6280
2026-01-09 16:40:06.21	5.99	56.63	-33.5	-34.7	29.9	3.02e+01	60	24	0	591921152	40	6581
2026-01-09 16:40:10.25	4.72	58.43	-34.4	-35.6	29.0	3.02e+01	62	24	0	599261184	42	6571
2026-01-09 16:40:14.29	3.27	60.27	-34.8	-36.1	28.6	3.02e+01	59	24	0	606601216	44	6148
2026-01-09 16:40:18.33	1.59	62.15	-35.3	-36.6	28.1	3.02e+01	61	24	0	614465536	44	6537
2026-01-09 16:40:22.37	359.61	64.06	-35.6	-36.9	28.1	3.02e+01	61	24	0	621805568	44	6730
2026-01-09 16:40:26.41	357.28	65.98	-37.1	-38.5	26.5	3.02e+01	58	24	0	629669888	48	6430
2026-01-09 16:40:30.45	354.49	67.92	-37.8	-39.3	23.6	3.02e+01	45	24	0	637009920	48	7077
2026-01-09 16:40:34.48	351.11	69.83	-38.5	-40.0	25.2	3.02e+01	57	24	0	644874240	50	6880
2026-01-09 16:40:38.52	346.97	71.71	-37.3	-38.7	26.3	3.02e+01	45	24	0	652214272	48	6602
2026-01-09 16:40:42.56	341.83	73.51	-38.6	-40.2	24.8	3.02e+01	59	24	0	660078592	50	6973
2026-01-09 16:40:46.60	335.42	75.17	-37.8	-39.3	25.8	3.02e+01	59	24	0	667418624	50	6298
2026-01-09 16:40:50.64	327.44	76.63	-36.4	-37.7	27.2	3.02e+01	61	24	0	675282944	48	5917
2026-01-09 16:40:54.68	317.66	77.79	-36.2	-37.5	27.5	3.02e+01	59	24	0	682622976	48	5765
2026-01-09 16:40:58.71	306.20	78.54	-36.1	-37.4	27.5	3.02e+01	57	24	0	689963008	48	5664
2026-01-09 16:41:02.75	293.65	78.79	-35.1	-36.4	28.4	3.02e+01	39	24	0	697827328	46	5660
2026-01-09 16:41:06.79	281.13	78.51	-36.6	-37.9	27.1	3.02e+01	59	24	0	705167360	46	6770
2026-01-09 16:41:10.83	269.73	77.73	-36.2	-37.5	27.4	3.02e+01	46	24	0	713031680	46	6489
2026-01-09 16:41:14.87	260.06	76.55	-37.4	-38.8	26.1	3.02e+01	60	24	0	720371712	48	6719
2026-01-09 16:41:18.91	252.18	75.07	-39.1	-40.7	24.5	3.02e+01	46	24	0	728236032	52	6606
2026-01-09 16:41:22.95	245.85	73.39	-37.7	-39.1	25.8	3.02e+01	60	24	0	735576064	50	6168
2026-01-09 16:41:26.99	240.78	71.59	-37.0	-38.4	26.3	3.02e+01	46	24	0	742916096	50	5669
2026-01-09 16:41:31.03	236.69	69.70	-38.9	-40.5	24.7	3.02e+01	61	24	0	750780416	52	6429
2026-01-09 16:41:35.06	233.35	67.79	-40.3	-42.2	22.9	3.02e+01	48	24	0	758120448	54	6994
2026-01-09 16:41:39.10	230.59	65.85	-38.7	-40.2	25.0	3.02e+01	58	24	0	765984768	52	6247
2026-01-09 16:41:43.14	228.28	63.92	-36.9	-38.3	26.6	3.02e+01	58	24	0	773324800	48	6312
2026-01-09 16:41:47.18	226.32	62.01	-35.6	-36.9	28.0	3.02e+01	61	24	0	781189120	44	6773
2026-01-09 16:41:51.22	224.65	60.12	-34.9	-36.2	28.6	3.02e+01	56	24	0	788529152	46	5542
2026-01-09 16:41:55.26	223.21	58.28	-35.5	-36.8	28.0	3.02e+01	60	24	0	796393472	44	6659
2026-01-09 16:41:59.30	221.96	56.48	-35.3	-36.6	28.3	3.02e+01	60	24	0	803733504	44	6539
2026-01-09 16:42:03.35	220.85	54.72	-32.2	-33.3	30.8	3.02e+01	60	24	0	811597824	40	5659
2026-01-09 16:42:07.38	219.88	53.02	-33.0	-34.1	30.4	3.02e+01	59	24	0	818937856	40	6201
2026-01-09 16:42:11.43	219.02	51.37	-33.3	-34.5	30.1	3.02e+01	58	24	0	826277888	40	6468
2026-01-09 16:42:15.46	218.24	49.77	-33.3	-34.5	30.1	3.02e+01	59	24	0	834142208	40	6438
2026-01-09 16:42:19.50	217.55	48.22	-34.1	-35.3	29.2	3.02e+01	59	24	0	841482240	42	6319
2026-01-09 16:42:23.54	216.92	46.72	-33.7	-34.8	29.7	3.02e+01	61	24	0	849346560	42	5989
2026-01-09 16:42:27.58	216.35	45.28	-33.6	-34.7	29.9	3.02e+01	62	24	0	856686592	42	5924
2026-01-09 16:42:31.62	215.83	43.88	-33.9	-35.1	29.4	3.02e+01	60	24	0	864550912	42	6187
2026-01-09 16:42:35.66	215.36	42.53	-33.9	-35.1	29.6	3.02e+01	61	24	0	871890944	42	6142
2026-01-09 16:42:39.70	214.92	41.23	-35.2	-36.4	28.3	3.02e+01	58	24	0	879755264	44	6420
2026-01-09 16:42:43.74	214.52	39.98	-35.1	-36.4	28.4	3.02e+01	60	24	0	887095296	44	6359
2026-01-09 16:42:47.77	214.15	38.77	-35.7	-37.0	27.9	3.02e+01	61	24	0	894435328	44	6838
2026-01-09 16:42:51.81	213.81	37.60	-35.6	-36.9	28.0	3.02e+01	51	24	0	902299648	44	6744
2026-01-09 16:42:55.86	213.49	36.47	-35.1	-36.3	28.5	3.02e+01	60	24	0	909639680	44	6349
2026-01-09 16:42:59.90	213.19	35.38	-34.6	-35.8	29.0	3.02e+01	54	24	0	917504000	44	5940
2026-01-09 16:43:03.94	212.92	34.33	-34.6	-35.8	29.0	3.02e+01	54	24	0	924844032	44	5978
2026-01-09 16:43:07.98	212.66	33.31	-33.3	-34.5	30.0	3.02e+01	44	24	0	932708352	42	5733
2026-01-09 16:43:12.02	212.42	32.33	-33.4	-34.6	30.0	3.02e+01	59	24	0	940048384	42	5833
2026-01-09 16:43:16.06	212.19	31.38	-33.6	-34.8	29.9	3.02e+01	51	24	0	947912704	42	5969
2026-01-09 16:43:20.10	211.98	30.46	-33.3	-34.4	30.0	3.02e+01	56	24	0	955252736	42	5719
2026-01-09 16:43:24.13	211.78	29.58	-32.9	-34.0	30.4	3.02e+01	46	24	0	962592768	40	6119
2026-01-09 16:43:28.17	211.60	28.72	-33.1	-34.3	30.2	3.02e+01	58	24	0	970457088	40	6280
2026-01-09 16:43:32.21	211.42	27.88	-33.1	-34.3	30.1	3.02e+01	44	24	0	977797120	40	6283
2026-01-09 16:43:36.25	211.25	27.08	-33.5	-34.7	29.8	3.02e+01	58	24	0	985661440	40	6620
2026-01-09 16:43:40.29	211.09	26.29	-33.8	-34.9	29.5	3.02e+01	47	24	0	993001472	40	6801
2026-01-09 16:43:44.33	210.94	25.53	-34.0	-35.2	29.3	3.02e+01	58	24	0	1000865792	42	6264
2026-01-09 16:43:48.37	210.80	24.80	-33.9	-35.1	29.5	3.02e+01	50	24	0	1008205824	42	6147
2026-01-09 16:43:52.41	210.67	24.08	-34.0	-35.2	29.4	3.02e+01	62	24	0	1015545856	42	6247
2026-01-09 16:43:56.44	210.54	23.39	-34.1	-35.3	29.3	3.02e+01	58	24	0	1023410176	42	6348
2026-01-09 16:44:00.48	210.42	22.72	-34.2	-35.4	29.2	3.02e+01	59	24	0	1030750208	42	6416
2026-01-09 16:44:04.53	210.30	22.06	-34.2	-35.4	29.1	3.02e+01	60	24	0	1038614528	42	6396
2026-01-09 16:44:08.57	210.19	21.42	-34.1	-35.4	29.3	3.02e+01	62	24	0	1045954560	42	6353
2026-01-09 16:44:12.61	210.09	20.80	-34.2	-35.4	29.2	3.02e+01	58	24	0	1053818880	42	6389
2026-01-09 16:44:16.64	209.99	20.20	-34.0	-35.2	29.3	3.02e+01	62	24	0	1061158912	42	6266
2026-01-09 16:44:20.68	209.89	19.61	-33.8	-35.0	29.4	3.02e+01	59	24	0	1069023232	42	6115
2026-01-09 16:44:24.72	209.80	19.03	-33.6	-34.7	29.8	3.02e+01	61	24	0	1076363264	42	5919
2026-01-09 16:44:28.76	209.71	18.47	-33.6	-34.8	29.7	3.02e+01	60	24	0	1083703296	42	5950
2026-01-09 16:44:32.80	209.63	17.92	-33.7	-34.9	29.6	3.02e+01	62	24	0	1091567616	42	6049
2026-01-09 16:44:36.84	209.55	17.39	-33.8	-35.0	29.5	3.02e+01	59	24	0	1098907648	42	6094
2026-01-09 16:44:40.87	209.47	16.87	-33.9	-35.1	29.4	3.02e+01	58	24	0	1106771968	42	6194
2026-01-09 16:44:44.91	209.40	16.36	-33.7	-34.9	29.6	3.02e+01	60	24	0	1114112000	42	6034
2026-01-09 16:44:48.95	209.33	15.86	-33.6	-34.8	29.7	3.02e+01	59	24	0	1121976320	42	5973
2026-01-09 16:44:52.99	209.26	15.37	-33.8	-35.0	29.4	3.02e+01	58	24	0	1129316352	42	6087
2026-01-09 16:44:57.03	209.20	14.90	-33.9	-35.1	29.4	3.02e+01	59	24	0	1137180672	42	6154
2026-01-09 16:45:01.07	209.13	14.43	-34.0	-35.2	29.3	3.02e+01	61	24	0	1144520704	42	6275
2026-01-09 16:45:05.10	209.08	13.97	-33.9	-35.0	29.4	3.02e+01	47	24	0	1151860736	42	6130
2026-01-09 16:45:09.14	209.02	13.53	-33.9	-35.1	29.3	3.02e+01	58	24	0	1159725056	42	6175
2026-01-09 16:45:13.17	208.96	13.09	-33.9	-35.1	29.3	3.02e+01	52	24	0	1167065088	42	6192
2026-01-09 16:45:17.21	208.91	12.66	-33.9	-35.1	29.4	3.02e+01	57	24	0	1174929408	42	6174
2026-01-09 16:45:21.24	208.86	12.24	-34.0	-35.2	29.3	3.02e+01	46	24	0	1182269440	42	6229
2026-01-09 16:45:25.29	208.81	11.82	-34.1	-35.3	29.1	3.02e+01	61	24	0	1190133760	42	6348
2026-01-09 16:45:29.32	208.76	11.42	-34.2	-35.4	29.0	3.02e+01	52	24	0	1197473792	42	6418
2026-01-09 16:45:33.36	208.72	11.02	-34.5	-35.8	28.7	3.02e+01	59	24	0	1205338112	42	6678
2026-01-09 16:45:37.40	208.67	10.63	-34.4	-35.6	28.8	3.02e+01	49	24	0	1212678144	42	6553
2026-01-09 16:45:41.44	208.63	10.24	-34.4	-35.7	28.7	3.02e+01	61	24	0	1220018176	42	6585
2026-01-09 16:45:45.48	208.59	9.86	-34.7	-35.9	28.4	3.02e+01	54	24	0	1227882496	42	6791
2026-01-09 16:45:49.52	208.55	9.49	-34.5	-35.7	28.6	3.02e+01	58	24	0	1235222528	42	6602
2026-01-09 16:45:53.56	208.51	9.12	-34.6	-35.8	28.5	3.02e+01	55	24	0	1243086848	42	6695
2026-01-09 16:45:57.60	208.48	8.76	-34.5	-35.7	28.6	3.02e+01	60	24	0	1250426880	42	6607
2026-01-09 16:46:01.64	208.44	8.41	-34.6	-35.9	28.4	3.02e+01	45	24	0	1258291200	42	6731
2026-01-09 16:46:05.68	208.41	8.06	-34.6	-35.8	28.4	3.02e+01	59	24	0	1265631232	42	6685
2026-01-09 16:46:09.72	208.37	7.72	-34.8	-36.0	28.2	3.02e+01	46	24	0	1273495552	42	6880
2026-01-09 16:46:13.76	208.34	7.38	-34.8	-36.1	28.2	3.02e+01	59	24	0	1280835584	42	6890
2026-01-09 16:46:17.80	208.31	7.04	-34.8	-36.1	28.1	3.02e+01	59	24	0	1288175616	42	6912
2026-01-09 16:46:21.84	208.28	6.71	-34.9	-36.2	28.0	3.02e+01	52	24	0	1296039936	44	6256
2026-01-09 16:46:25.88	208.25	6.39	-35.0	-36.3	27.8	3.02e+01	57	24	0	1303379968	44	6306
2026-01-09 16:46:29.91	208.23	6.07	-35.3	-36.6	27.5	3.02e+01	57	24	0	1311244288	44	6538
2026-01-09 16:46:33.95	208.20	5.75	-35.5	-36.9	27.3	3.02e+01	59	24	0	1318584320	44	6730
2026-01-09 16:46:37.99	208.17	5.44	-35.3	-36.6	27.4	3.02e+01	56	24	0	1326448640	44	6566
2026-01-09 16:46:42.03	208.15	5.14	-35.5	-36.8	27.2	3.02e+01	59	24	0	1333788672	44	6696
2026-01-09 16:46:46.07	208.13	4.83	-35.6	-36.9	27.1	3.02e+01	60	24	0	1341652992	44	6789
2026-01-09 16:46:50.11	208.10	4.53	-35.9	-37.3	26.7	3.02e+01	59	24	0	1348993024	44	7045
2026-01-09 16:46:54.14	208.08	4.24	-36.0	-37.4	26.6	3.02e+01	59	24	0	1356333056	46	6366
2026-01-09 16:46:58.17	208.06	3.95	-36.8	-38.3	25.7	3.02e+01	62	24	0	1364197376	46	7067
2026-01-09 16:47:02.21	208.04	3.66	-36.7	-38.2	25.7	3.02e+01	60	24	0	1371537408	46	6985
2026-01-09 16:47:06.25	208.02	3.37	-36.4	-37.8	26.1	3.02e+01	58	24	0	1379401728	46	6700
2026-01-09 16:47:10.29	208.00	3.09	-36.8	-38.2	25.5	3.02e+01	61	24	0	1386741760	48	6270
2026-01-09 16:47:14.33	207.98	2.81	-47.8	-65.6	3.5	3.02e+01	0	24	104	1389363200	60	73316
2026-01-09 16:47:18.37	207.96	2.53	-48.1	-66.0	3.5	3.02e+01	0	24	104	1389363200	60	76777
2026-01-09 16:47:22.41	207.94	2.26	-48.0	-66.0	3.5	3.02e+01	0	24	104	1389363200	60	76553
2026-01-09 16:47:26.45	207.93	1.99	-48.1	-65.9	3.5	3.02e+01	0	24	104	1389363200	60	75940
2026-01-09 16:47:30.49	207.91	1.72	-48.1	-65.9	3.5	3.02e+01	0	24	104	1389363200	60	76153
2026-01-09 16:47:34.54	207.90	1.46	-48.1	-65.9	3.5	3.02e+01	0	24	104	1389363200	60	75991
2026-01-09 16:47:38.58	207.88	1.19	-48.1	-65.9	3.5	3.02e+01	0	24	104	1389363200	60	75981
2026-01-09 16:47:42.62	207.87	0.93	-48.0	-65.9	3.5	3.02e+01	0	24	104	1389363200	60	75539
2026-01-09 16:47:46.65	207.85	0.68	-48.0	-65.8	3.5	3.02e+01	0	24	104	1389363200	60	75246
2026-01-09 16:47:50.69	207.84	0.42	-48.1	-65.9	3.5	3.02e+01	0	24	104	1389363200	60	75732
2026-01-09 16:47:54.73	207.82	0.17	-48.2	-66.0	3.5	3.02e+01	0	24	104	1389363200	60	76703
2026-01-09 16:47:58.77	207.81	-0.08	-48.2	-66.0	3.5	3.02e+01	0	24	104	1389363200	60	76783

#Closed at: 2026-01-09 16:47:58
#Recorded file [1389 MB]: D:/lorett/data/35029_260110_043406.dat