passes_logs/2026/01/09/R4.6S_Anadyr/R4.6S_Anadyr__20260109_215419_TY-42_rec.log

#Pass ID: 20260109_215419_TY-42
#Satellite: TY-42
#Configuration: TY-42_900M
#almurnet v.1.7.20251203
#Start time: 2026-01-09 21:54:50

#Version: 2.2.20231116
#Station: R4.6S_Anadyr
#Location: 177.4865 lon 64.73178 lat
#TLE: 1 64048U 25103A   26009.19791667  .00008012  00000-0  38191-3 0 09992
#TLE: 2 64048 097.4113 084.7241 0001632 091.2074 057.6856 15.19176442 35937

#Time	Az	El	Level	Level2	SNR	BER	BlckErr	Temp	State	Recorded	gain1	gain2
2026-01-09 21:54:50.73	24.83	1.79	-48.0	-62.9	3.5	1.51e+00	0	22	0	0	60	50237
2026-01-09 21:54:53.76	25.12	1.97	-46.4	-48.9	6.1	0.00e+00	0	24	104	0	60	34144
2026-01-09 21:54:56.79	25.41	2.15	-46.4	-48.9	6.1	0.00e+00	0	24	104	0	60	34188
2026-01-09 21:54:59.82	25.71	2.33	-46.4	-48.9	6.1	0.00e+00	0	24	104	0	60	34141
2026-01-09 21:55:02.84	26.01	2.51	-46.4	-48.9	6.0	0.00e+00	0	24	104	0	60	34162
2026-01-09 21:55:05.87	26.32	2.69	-46.4	-48.9	6.1	0.00e+00	0	24	104	0	60	34283
2026-01-09 21:55:08.90	26.63	2.87	-46.4	-48.9	6.1	0.00e+00	0	24	104	0	60	34164
2026-01-09 21:55:11.93	26.95	3.05	-46.4	-49.0	6.1	0.00e+00	0	24	104	0	60	34379
2026-01-09 21:55:14.95	27.27	3.24	-46.4	-48.9	6.1	0.00e+00	0	24	104	0	60	34117
2026-01-09 21:55:17.98	27.59	3.42	-46.4	-48.9	6.1	0.00e+00	0	24	104	0	60	34188
2026-01-09 21:55:21.01	27.92	3.61	-35.3	-35.7	10.5	0.00e+00	5512	25	104	0	42	20986
2026-01-09 21:55:24.04	28.26	3.80	-27.2	-27.5	13.6	0.00e+00	212	25	104	109051904	30	16240
2026-01-09 21:55:27.06	28.60	3.98	-25.7	-26.1	16.1	2.38e-03	0	25	0	402653184	26	17433
2026-01-09 21:55:30.09	28.95	4.17	-25.4	-25.8	16.3	1.96e-04	0	25	0	746586112	26	16932
2026-01-09 21:55:33.12	29.30	4.36	-25.7	-26.1	16.3	1.25e-04	0	25	0	1090519040	26	17440
2026-01-09 21:55:36.15	29.66	4.56	-25.7	-26.1	16.3	1.91e-04	0	25	0	1426063360	26	17457
2026-01-09 21:55:39.18	30.02	4.75	-25.5	-25.9	16.4	1.69e-04	0	26	0	1769996288	26	17067
2026-01-09 21:55:42.20	30.39	4.94	-25.8	-26.3	16.2	1.42e-04	0	26	0	2113929216	26	17888
2026-01-09 21:55:45.22	30.76	5.14	-25.7	-26.1	16.3	1.52e-04	0	26	0	2449473536	26	17544
2026-01-09 21:55:48.25	31.15	5.33	-26.3	-26.8	16.2	2.23e-04	0	26	0	2793406464	26	18900
2026-01-09 21:55:51.27	31.53	5.53	-26.2	-26.6	16.3	1.91e-04	0	26	0	3128950784	26	18500
2026-01-09 21:55:54.30	31.93	5.73	-26.1	-26.5	16.3	2.78e-04	0	26	0	3472883712	26	18430
2026-01-09 21:55:57.33	32.33	5.93	-26.1	-26.5	16.4	2.29e-04	0	26	0	3808428032	26	18332
2026-01-09 21:56:00.35	32.73	6.12	-26.0	-26.5	16.5	1.52e-04	0	26	0	4152360960	26	18257
2026-01-09 21:56:03.38	33.15	6.33	-26.2	-26.7	16.4	1.80e-04	0	26	0	4487905280	26	18748
2026-01-09 21:56:06.40	33.57	6.53	-25.9	-26.3	16.5	1.09e-04	0	26	0	4831838208	26	17913
2026-01-09 21:56:09.43	34.00	6.73	-25.7	-26.1	16.5	7.08e-05	0	26	0	5167382528	26	17562
2026-01-09 21:56:12.46	34.43	6.93	-25.4	-25.8	16.6	8.71e-05	0	26	0	5511315456	26	16925
2026-01-09 21:56:15.49	34.88	7.14	-25.3	-25.8	16.6	6.53e-05	0	26	0	5855248384	26	16876
2026-01-09 21:56:18.51	35.33	7.34	-25.1	-25.6	16.7	4.35e-05	0	26	0	6190792704	26	16540
2026-01-09 21:56:21.54	35.79	7.55	-25.2	-25.6	16.6	2.72e-05	0	26	0	6534725632	26	16598
2026-01-09 21:56:24.57	36.25	7.76	-25.1	-25.6	16.6	4.35e-05	0	26	0	6878658560	26	16501
2026-01-09 21:56:27.60	36.73	7.97	-24.9	-25.4	16.6	2.17e-05	0	26	0	7214202880	26	16161
2026-01-09 21:56:30.62	37.21	8.18	-25.1	-25.6	16.6	1.63e-05	0	26	0	7558135808	26	16433
2026-01-09 21:56:33.65	37.70	8.39	-24.7	-25.1	16.6	5.99e-05	0	26	0	7902068736	24	17503
2026-01-09 21:56:36.68	38.20	8.60	-24.8	-25.3	16.4	1.03e-04	0	26	0	8237613056	24	17838
2026-01-09 21:56:39.71	38.71	8.81	-24.3	-24.7	16.9	1.14e-04	0	27	0	8581545984	24	16793
2026-01-09 21:56:42.74	39.23	9.02	-24.3	-24.7	16.9	1.63e-05	0	27	0	8917090304	24	16802
2026-01-09 21:56:45.76	39.75	9.23	-24.2	-24.7	17.0	5.40e-06	0	27	0	9261023232	24	16650
2026-01-09 21:56:48.79	40.29	9.45	-24.0	-24.5	17.0	5.40e-06	0	27	0	9596567552	24	16297
2026-01-09 21:56:51.82	40.83	9.66	-23.9	-24.4	17.1	0.00e+00	0	27	0	9940500480	24	16106
2026-01-09 21:56:54.85	41.39	9.88	-23.9	-24.4	17.0	0.00e+00	0	27	0	10284433408	22	18022
2026-01-09 21:56:57.88	41.95	10.09	-23.7	-24.2	17.1	0.00e+00	0	27	0	10619977728	22	17687
2026-01-09 21:57:00.90	42.53	10.31	-23.6	-24.1	17.2	0.00e+00	0	27	0	10963910656	22	17529
2026-01-09 21:57:03.94	43.11	10.52	-23.6	-24.1	17.2	0.00e+00	0	27	0	11299454976	22	17485
2026-01-09 21:57:06.97	43.71	10.74	-23.6	-24.1	17.2	5.40e-06	0	27	0	11643387904	22	17482
2026-01-09 21:57:10.00	44.32	10.96	-23.4	-23.9	17.0	0.00e+00	0	27	0	11987320832	22	17151
2026-01-09 21:57:13.03	44.93	11.17	-23.2	-23.7	16.8	0.00e+00	0	27	0	12322865152	22	16747
2026-01-09 21:57:16.06	45.56	11.39	-23.1	-23.6	17.2	0.00e+00	0	27	0	12666798080	22	16589
2026-01-09 21:57:19.09	46.20	11.60	-23.3	-23.8	17.2	0.00e+00	0	27	0	13002342400	22	16841
2026-01-09 21:57:22.11	46.85	11.82	-23.0	-23.4	17.1	5.40e-06	0	27	0	13346275328	22	16224
2026-01-09 21:57:25.14	47.51	12.03	-23.0	-23.5	17.2	0.00e+00	0	27	0	13690208256	22	16342
2026-01-09 21:57:28.17	48.18	12.25	-22.8	-23.3	17.1	0.00e+00	0	27	0	14034141184	22	15922
2026-01-09 21:57:31.20	48.87	12.46	-22.8	-23.3	16.6	5.40e-06	0	27	0	14369685504	22	15946
2026-01-09 21:57:34.23	49.56	12.67	-22.8	-23.3	17.1	2.72e-05	0	27	0	14713618432	20	17836
2026-01-09 21:57:37.25	50.27	12.88	-22.6	-23.1	17.2	0.00e+00	0	27	0	15057551360	20	17589
2026-01-09 21:57:40.28	50.99	13.10	-22.6	-23.1	17.2	0.00e+00	0	27	0	15393095680	20	17548
2026-01-09 21:57:43.31	51.72	13.31	-22.7	-23.2	17.2	0.00e+00	0	27	0	15737028608	20	17621
2026-01-09 21:57:46.34	52.46	13.51	-22.5	-23.0	17.1	0.00e+00	0	27	0	16072572928	20	17278
2026-01-09 21:57:49.37	53.22	13.72	-22.5	-23.0	17.0	0.00e+00	0	27	0	16416505856	20	17324
2026-01-09 21:57:52.39	53.99	13.92	-22.4	-22.8	17.0	0.00e+00	0	27	0	16752050176	20	16984
2026-01-09 21:57:55.42	54.77	14.13	-22.4	-22.9	17.1	0.00e+00	0	27	0	17095983104	20	17161
2026-01-09 21:57:58.45	55.56	14.33	-22.3	-22.8	17.2	0.00e+00	0	27	0	17439916032	20	16918
2026-01-09 21:58:01.48	56.37	14.52	-22.2	-22.7	17.1	0.00e+00	0	27	0	17775460352	20	16657
2026-01-09 21:58:04.50	57.19	14.72	-22.1	-22.6	17.2	0.00e+00	0	27	0	18119393280	20	16488
2026-01-09 21:58:07.53	58.02	14.91	-22.0	-22.5	16.9	5.40e-06	0	27	0	18454937600	20	16278
2026-01-09 21:58:10.56	58.86	15.10	-21.9	-22.4	17.2	0.00e+00	0	27	0	18798870528	20	16132
2026-01-09 21:58:13.59	59.72	15.29	-21.9	-22.3	16.4	5.40e-06	0	27	0	19134414848	20	16038
2026-01-09 21:58:16.61	60.59	15.47	-21.9	-22.4	17.2	5.40e-06	0	27	0	19478347776	20	16177
2026-01-09 21:58:19.64	61.47	15.65	-21.6	-22.1	16.2	0.00e+00	0	27	0	19822280704	18	17409
2026-01-09 21:58:22.67	62.36	15.82	-21.6	-22.1	17.1	5.40e-06	0	27	0	20157825024	18	17508
2026-01-09 21:58:25.70	63.27	15.99	-21.3	-21.8	17.1	0.00e+00	0	27	0	20501757952	18	16928
2026-01-09 21:58:28.73	64.18	16.16	-21.4	-21.9	17.1	0.00e+00	0	27	0	20845690880	18	17034
2026-01-09 21:58:31.76	65.11	16.32	-21.4	-21.9	17.2	0.00e+00	0	27	0	21181235200	18	17092
2026-01-09 21:58:34.78	66.05	16.47	-21.3	-21.8	17.1	0.00e+00	0	27	0	21525168128	18	16846
2026-01-09 21:58:37.81	67.00	16.62	-21.2	-21.6	16.8	5.40e-06	0	27	0	21869101056	18	16608
2026-01-09 21:58:40.84	67.96	16.77	-21.2	-21.6	17.1	0.00e+00	0	27	0	22204645376	18	16612
2026-01-09 21:58:43.87	68.93	16.90	-21.1	-21.6	17.1	0.00e+00	0	27	0	22548578304	18	16506
2026-01-09 21:58:46.90	69.92	17.04	-21.2	-21.6	17.2	0.00e+00	0	27	0	22892511232	18	16615
2026-01-09 21:58:49.92	70.91	17.16	-21.1	-21.5	16.9	0.00e+00	0	27	0	23228055552	18	16419
2026-01-09 21:58:52.95	71.91	17.28	-21.2	-21.7	16.9	5.40e-06	0	27	0	23571988480	18	16683
2026-01-09 21:58:55.98	72.92	17.39	-21.1	-21.6	17.2	0.00e+00	0	27	0	23907532800	18	16530
2026-01-09 21:58:59.00	73.94	17.50	-21.2	-21.6	17.1	0.00e+00	0	28	0	24251465728	18	16604
2026-01-09 21:59:02.03	74.96	17.60	-21.0	-21.5	17.2	0.00e+00	0	28	0	24587010048	18	16360
2026-01-09 21:59:05.06	76.00	17.69	-21.1	-21.6	17.2	0.00e+00	0	28	0	24930942976	18	16443
2026-01-09 21:59:08.09	77.04	17.77	-21.0	-21.5	17.1	0.00e+00	0	28	0	25266487296	18	16262
2026-01-09 21:59:11.12	78.09	17.84	-20.9	-21.4	16.8	0.00e+00	0	27	0	25610420224	18	16151
2026-01-09 21:59:14.14	79.14	17.91	-21.0	-21.4	17.1	5.40e-06	0	28	0	25954353152	18	16233
2026-01-09 21:59:17.17	80.20	17.97	-21.0	-21.5	17.1	0.00e+00	0	28	0	26289897472	18	16308
2026-01-09 21:59:20.20	81.26	18.02	-20.9	-21.4	16.9	0.00e+00	0	27	0	26633830400	18	16058
2026-01-09 21:59:23.23	82.32	18.06	-20.9	-21.4	16.9	0.00e+00	0	28	0	26969374720	18	16098
2026-01-09 21:59:26.25	83.39	18.09	-20.9	-21.3	16.9	0.00e+00	0	27	0	27313307648	18	16037
2026-01-09 21:59:29.28	84.46	18.12	-21.1	-21.6	16.9	0.00e+00	0	28	0	27657240576	18	16486
2026-01-09 21:59:32.30	85.53	18.13	-20.9	-21.4	16.9	0.00e+00	0	28	0	27992784896	18	16115
2026-01-09 21:59:35.34	86.61	18.14	-21.0	-21.5	17.0	0.00e+00	0	28	0	28336717824	18	16240
2026-01-09 21:59:38.36	87.68	18.14	-20.8	-21.3	17.0	0.00e+00	0	28	0	28680650752	18	15949
2026-01-09 21:59:41.39	88.76	18.12	-21.0	-21.5	16.9	0.00e+00	0	28	0	29016195072	18	16268
2026-01-09 21:59:44.42	89.83	18.10	-21.0	-21.4	16.9	0.00e+00	0	28	0	29360128000	18	16233
2026-01-09 21:59:47.45	90.90	18.08	-21.0	-21.5	17.0	0.00e+00	0	28	0	29704060928	18	16323
2026-01-09 21:59:50.47	91.97	18.04	-21.2	-21.7	17.0	0.00e+00	0	28	0	30039605248	18	16636
2026-01-09 21:59:53.50	93.04	17.99	-21.1	-21.5	17.0	0.00e+00	0	28	0	30383538176	18	16343
2026-01-09 21:59:56.53	94.10	17.94	-21.1	-21.6	16.9	0.00e+00	0	28	0	30719082496	18	16462
2026-01-09 21:59:59.56	95.16	17.88	-21.1	-21.6	16.9	0.00e+00	0	28	0	31063015424	18	16454
2026-01-09 22:00:02.58	96.21	17.81	-21.1	-21.5	16.9	0.00e+00	0	28	0	31398559744	18	16332
2026-01-09 22:00:05.61	97.25	17.73	-21.0	-21.5	16.9	0.00e+00	0	28	0	31742492672	18	16286
2026-01-09 22:00:08.64	98.29	17.64	-21.1	-21.5	17.0	0.00e+00	0	28	0	32086425600	18	16387
2026-01-09 22:00:11.67	99.33	17.55	-21.1	-21.5	16.9	0.00e+00	0	28	0	32421969920	18	16391
2026-01-09 22:00:14.70	100.35	17.44	-21.2	-21.7	16.9	0.00e+00	0	28	0	32765902848	18	16672
2026-01-09 22:00:17.73	101.37	17.33	-21.3	-21.7	17.0	0.00e+00	0	28	0	33101447168	18	16809
2026-01-09 22:00:20.76	102.38	17.22	-21.2	-21.6	17.1	0.00e+00	0	28	0	33445380096	18	16610
2026-01-09 22:00:23.79	103.38	17.10	-21.2	-21.6	17.0	0.00e+00	0	28	0	33780924416	18	16609
2026-01-09 22:00:26.82	104.37	16.97	-21.3	-21.8	17.1	0.00e+00	0	28	0	34124857344	18	16837
2026-01-09 22:00:29.85	105.35	16.83	-21.4	-21.8	17.1	0.00e+00	0	28	0	34468790272	18	16853
2026-01-09 22:00:32.87	106.32	16.69	-21.4	-21.8	17.1	0.00e+00	0	28	0	34812723200	18	16856
2026-01-09 22:00:35.90	107.28	16.54	-21.4	-21.8	17.2	0.00e+00	0	28	0	35148267520	18	16983
2026-01-09 22:00:38.93	108.23	16.39	-21.5	-21.9	17.2	0.00e+00	0	28	0	35492200448	18	17128
2026-01-09 22:00:41.96	109.17	16.23	-21.7	-22.1	17.2	0.00e+00	0	28	0	35836133376	18	17452
2026-01-09 22:00:44.98	110.09	16.06	-21.6	-22.0	17.3	0.00e+00	0	28	0	36171677696	18	17272
2026-01-09 22:00:48.01	111.01	15.89	-21.7	-22.1	17.3	0.00e+00	0	28	0	36515610624	18	17465
2026-01-09 22:00:51.04	111.91	15.72	-21.8	-22.2	17.3	0.00e+00	0	28	0	36851154944	18	17667
2026-01-09 22:00:54.07	112.80	15.54	-21.8	-22.3	17.3	0.00e+00	0	28	0	37195087872	18	17811
2026-01-09 22:00:57.10	113.68	15.36	-21.8	-22.2	17.4	0.00e+00	0	28	0	37539020800	18	17800
2026-01-09 22:01:00.12	114.54	15.18	-21.8	-22.2	17.4	0.00e+00	0	28	0	37874565120	18	17803
2026-01-09 22:01:03.15	115.40	14.99	-21.8	-22.2	17.4	0.00e+00	0	28	0	38218498048	18	17795
2026-01-09 22:01:06.18	116.24	14.80	-22.0	-22.4	17.4	0.00e+00	0	28	0	38554042368	18	18118
2026-01-09 22:01:09.21	117.07	14.60	-22.0	-22.5	17.5	0.00e+00	0	28	0	38897975296	18	18252
2026-01-09 22:01:12.24	117.89	14.40	-22.1	-22.5	17.5	0.00e+00	0	28	0	39233519616	18	18286
2026-01-09 22:01:15.27	118.69	14.20	-22.2	-22.6	17.4	0.00e+00	0	28	0	39577452544	18	18607
2026-01-09 22:01:18.30	119.48	14.00	-22.4	-22.8	17.4	0.00e+00	0	28	0	39921385472	18	18991
2026-01-09 22:01:21.32	120.26	13.79	-22.4	-22.8	17.4	0.00e+00	0	28	0	40256929792	18	19025
2026-01-09 22:01:24.35	121.02	13.59	-22.3	-22.7	17.5	0.00e+00	0	28	0	40600862720	18	18833
2026-01-09 22:01:27.37	121.78	13.38	-22.4	-22.9	17.5	0.00e+00	0	28	0	40936407040	18	19115
2026-01-09 22:01:30.40	122.52	13.17	-22.6	-23.0	17.5	0.00e+00	0	28	0	41280339968	18	19409
2026-01-09 22:01:33.42	123.25	12.96	-22.7	-23.1	17.4	0.00e+00	0	28	0	41615884288	20	17553
2026-01-09 22:01:36.44	123.96	12.75	-22.8	-23.2	17.5	5.40e-06	0	28	0	41959817216	20	17649
2026-01-09 22:01:39.47	124.67	12.53	-22.7	-23.1	17.5	0.00e+00	0	28	0	42303750144	20	17529
2026-01-09 22:01:42.50	125.36	12.32	-47.4	-49.9	6.1	0.00e+00	0	28	104	42496688128	60	38354
2026-01-09 22:01:45.52	126.04	12.10	-47.4	-49.9	6.1	0.00e+00	0	27	104	42496688128	60	38134
2026-01-09 22:01:48.55	126.71	11.88	-47.0	-49.6	6.1	0.00e+00	0	27	104	42496688128	60	36932
2026-01-09 22:01:51.58	127.37	11.67	-47.4	-49.9	6.1	0.00e+00	0	28	104	42496688128	60	38329
2026-01-09 22:01:54.61	128.02	11.45	-47.2	-49.8	6.1	0.00e+00	0	27	104	42496688128	60	37665
2026-01-09 22:01:57.63	128.65	11.23	-47.1	-49.6	6.1	0.00e+00	0	27	104	42496688128	60	37100
2026-01-09 22:02:00.65	129.27	11.02	-47.3	-49.8	6.1	0.00e+00	0	27	104	42496688128	60	37948
2026-01-09 22:02:03.67	129.89	10.80	-47.3	-49.7	6.1	0.00e+00	0	28	104	42496688128	60	37571
2026-01-09 22:02:06.70	130.49	10.58	-47.2	-49.7	6.1	0.00e+00	0	27	104	42496688128	60	37439
2026-01-09 22:02:09.72	131.08	10.36	-47.2	-49.7	6.1	0.00e+00	0	27	104	42496688128	60	37380
2026-01-09 22:02:12.75	131.66	10.15	-46.7	-49.3	6.1	0.00e+00	0	27	104	42496688128	60	35551
2026-01-09 22:02:15.78	132.24	9.93	-47.2	-49.7	6.1	0.00e+00	0	27	104	42496688128	60	37275
2026-01-09 22:02:18.81	132.80	9.71	-47.3	-49.8	6.1	0.00e+00	0	27	104	42496688128	60	37946
2026-01-09 22:02:21.84	133.35	9.50	-47.0	-49.6	6.1	0.00e+00	0	27	104	42496688128	60	36852
2026-01-09 22:02:24.87	133.90	9.28	-47.2	-49.7	6.1	0.00e+00	0	27	104	42496688128	60	37268
2026-01-09 22:02:27.89	134.43	9.07	-47.3	-49.8	6.1	0.00e+00	0	27	104	42496688128	60	37764
2026-01-09 22:02:30.92	134.95	8.85	-47.2	-49.7	6.1	0.00e+00	0	27	104	42496688128	60	37242
2026-01-09 22:02:33.94	135.47	8.64	-47.2	-49.7	6.1	0.00e+00	0	27	104	42496688128	60	37324
2026-01-09 22:02:36.97	135.97	8.42	-46.8	-49.4	6.1	0.00e+00	0	27	104	42496688128	60	35970
2026-01-09 22:02:40.00	136.47	8.21	-47.1	-49.6	6.1	0.00e+00	0	27	104	42496688128	60	36847
2026-01-09 22:02:43.03	136.96	8.00	-47.1	-49.5	6.1	0.00e+00	0	27	104	42496688128	60	36735
2026-01-09 22:02:46.06	137.44	7.79	-47.1	-49.6	6.1	0.00e+00	0	27	104	42496688128	60	36884
2026-01-09 22:02:49.09	137.91	7.58	-46.9	-49.4	6.1	0.00e+00	0	27	104	42496688128	60	36110
2026-01-09 22:02:52.12	138.38	7.37	-46.9	-49.4	6.1	0.00e+00	0	27	104	42496688128	60	36155
2026-01-09 22:02:55.15	138.83	7.16	-46.9	-49.4	6.1	0.00e+00	0	27	104	42496688128	60	36073
2026-01-09 22:02:58.18	139.28	6.95	-46.8	-49.3	6.1	0.00e+00	0	27	104	42496688128	60	35804
2026-01-09 22:03:01.21	139.72	6.75	-46.0	-48.5	6.1	0.00e+00	0	27	104	42496688128	60	32523
2026-01-09 22:03:04.23	140.15	6.54	-45.5	-48.1	6.1	0.00e+00	0	27	104	42496688128	60	30967
2026-01-09 22:03:07.26	140.58	6.34	-45.3	-48.0	6.1	0.00e+00	0	27	104	42496688128	60	30612
2026-01-09 22:03:10.28	141.00	6.14	-45.5	-48.0	6.1	0.00e+00	0	27	104	42496688128	60	30669
2026-01-09 22:03:13.31	141.41	5.94	-45.2	-47.8	6.1	0.00e+00	0	27	104	42496688128	60	29915
2026-01-09 22:03:16.34	141.81	5.73	-45.2	-47.7	6.1	0.00e+00	0	27	104	42496688128	60	29798
2026-01-09 22:03:19.37	142.21	5.53	-45.5	-48.0	6.1	0.00e+00	0	27	104	42496688128	60	30666
2026-01-09 22:03:22.40	142.60	5.33	-45.8	-48.3	6.1	0.00e+00	0	27	104	42496688128	60	31773
2026-01-09 22:03:25.43	142.99	5.14	-46.0	-48.4	6.1	0.00e+00	0	27	104	42496688128	60	32317
2026-01-09 22:03:28.45	143.37	4.94	-46.0	-48.5	6.1	0.00e+00	0	27	104	42496688128	60	32680
2026-01-09 22:03:31.48	143.74	4.74	-45.8	-48.4	6.1	0.00e+00	0	27	104	42496688128	60	32035
2026-01-09 22:03:34.51	144.11	4.55	-46.1	-48.6	6.1	0.00e+00	0	27	104	42496688128	60	33017
2026-01-09 22:03:37.54	144.47	4.36	-46.2	-48.7	6.1	0.00e+00	0	27	104	42496688128	60	33203
2026-01-09 22:03:40.56	144.82	4.16	-46.1	-48.6	6.1	0.00e+00	0	27	104	42496688128	60	32884
2026-01-09 22:03:43.59	145.17	3.97	-45.8	-48.3	6.1	0.00e+00	0	27	104	42496688128	60	31807
2026-01-09 22:03:46.62	145.52	3.78	-45.6	-48.1	6.1	0.00e+00	0	27	104	42496688128	60	30989
2026-01-09 22:03:49.65	145.86	3.59	-46.1	-48.5	6.1	0.00e+00	0	27	104	42496688128	60	32690
2026-01-09 22:03:52.68	146.19	3.40	-45.2	-47.7	6.1	0.00e+00	0	27	104	42496688128	60	29837
2026-01-09 22:03:55.71	146.52	3.22	-45.2	-47.7	6.1	0.00e+00	0	27	104	42496688128	60	29744
2026-01-09 22:03:58.74	146.84	3.03	-45.8	-48.3	6.1	0.00e+00	0	27	104	42496688128	60	31983
2026-01-09 22:04:01.76	147.16	2.85	-47.4	-49.8	6.1	0.00e+00	0	27	104	42496688128	60	38002
2026-01-09 22:04:04.79	147.47	2.66	-47.8	-50.3	6.1	0.00e+00	0	27	104	42496688128	60	40195
2026-01-09 22:04:07.82	147.78	2.48	-47.9	-50.4	6.1	0.00e+00	0	27	104	42496688128	60	40427
2026-01-09 22:04:10.85	148.08	2.30	-48.0	-50.5	6.1	0.00e+00	0	27	104	42496688128	60	40881
2026-01-09 22:04:13.88	148.38	2.11	-48.0	-50.4	6.1	0.00e+00	0	27	104	42496688128	60	40785
2026-01-09 22:04:16.91	148.68	1.93	-48.0	-50.4	6.1	0.00e+00	0	27	104	42496688128	60	40783
2026-01-09 22:04:19.94	148.97	1.75	-47.9	-50.4	6.1	0.00e+00	0	27	104	42496688128	60	40786
2026-01-09 22:04:22.97	149.26	1.58	-48.0	-50.5	6.1	0.00e+00	0	27	104	42496688128	60	40871
2026-01-09 22:04:26.00	149.54	1.40	-48.0	-50.4	6.1	0.00e+00	0	27	104	42496688128	60	40760
2026-01-09 22:04:29.03	149.82	1.22	-48.0	-50.4	6.1	0.00e+00	0	27	104	42496688128	60	40628
2026-01-09 22:04:32.06	150.09	1.05	-47.9	-50.4	6.1	0.00e+00	0	27	104	42496688128	60	40659
2026-01-09 22:04:35.09	150.36	0.87	-48.0	-50.4	6.1	0.00e+00	0	27	104	42496688128	60	40516
2026-01-09 22:04:38.12	150.63	0.70	-48.0	-50.4	6.0	0.00e+00	0	27	104	42496688128	60	40752
2026-01-09 22:04:41.15	150.89	0.53	-48.0	-50.4	6.1	0.00e+00	0	27	104	42496688128	60	40776
2026-01-09 22:04:44.18	151.15	0.35	-48.0	-50.5	6.1	0.00e+00	0	27	104	42496688128	60	40843
2026-01-09 22:04:47.21	151.41	0.18	-48.0	-50.5	6.1	0.00e+00	0	27	104	42496688128	60	40844
2026-01-09 22:04:50.24	151.66	0.01	-48.0	-50.5	6.1	0.00e+00	0	27	104	42496688128	60	40945

#Closed at: 2026-01-09 22:04:51
#Recorded file [42496 MB]: D:/lorett/data/35029_260110_095450.dat