passes_logs/2026/01/09/R4.6S_Anadyr/R4.6S_Anadyr__20260109_085200_TY-39_rec.log

#Pass ID: 20260109_085200_TY-39
#Satellite: TY-39
#Configuration: TY-39
#almurnet v.1.7.20251203
#Start time: 2026-01-09 08:52:06

#Version: 2.2.20231116
#Station: R4.6S_Anadyr
#Location: 177.4865 lon 64.73178 lat
#TLE: 1 51832U 22019J   26008.63717204  .00005041  00000-0  23954-3 0  9995
#TLE: 2 51832  97.3653  75.4820 0010323  71.5647 288.6709 15.19611949213562

#Time	Az	El	Level	Level2	SNR	BER	BlckErr	Temp	State	Recorded	gain1	gain2
2026-01-09 08:52:06.02	160.73	0.34	-47.7	-58.4	3.5	8.44e-01	0	25	0	0	60	30162
2026-01-09 08:52:09.05	160.74	0.53	-48.1	-50.6	3.6	0.00e+00	0	26	104	0	60	41265
2026-01-09 08:52:12.07	160.76	0.73	-47.6	-50.2	3.6	0.00e+00	0	27	104	0	60	39520
2026-01-09 08:52:15.10	160.77	0.93	-47.4	-49.9	3.6	0.00e+00	0	27	104	0	60	38315
2026-01-09 08:52:18.13	160.79	1.14	-46.6	-49.1	3.6	0.00e+00	0	27	104	0	60	34956
2026-01-09 08:52:21.16	160.80	1.34	-46.6	-49.1	3.6	0.00e+00	0	27	104	0	60	34816
2026-01-09 08:52:24.19	160.82	1.55	-46.6	-49.1	3.6	0.00e+00	0	27	104	0	60	34740
2026-01-09 08:52:27.22	160.83	1.76	-46.6	-49.1	3.6	0.00e+00	0	27	104	0	60	34952
2026-01-09 08:52:30.25	160.85	1.97	-46.6	-49.1	3.6	0.00e+00	0	27	104	0	60	34871
2026-01-09 08:52:33.28	160.86	2.18	-46.6	-49.0	3.6	0.00e+00	0	27	104	0	60	34680
2026-01-09 08:52:36.31	160.88	2.40	-46.6	-49.1	3.6	0.00e+00	0	27	104	0	60	34850
2026-01-09 08:52:39.34	160.89	2.62	-46.6	-49.0	3.6	0.00e+00	0	27	104	0	60	34703
2026-01-09 08:52:42.37	160.91	2.84	-46.6	-49.1	3.6	0.00e+00	0	27	104	0	60	34729
2026-01-09 08:52:45.40	160.92	3.06	-46.6	-49.1	3.6	0.00e+00	0	28	104	0	60	34890
2026-01-09 08:52:48.42	160.94	3.28	-46.6	-49.0	3.6	0.00e+00	0	27	104	0	60	34578
2026-01-09 08:52:51.45	160.96	3.51	-46.6	-49.0	3.6	0.00e+00	0	27	104	0	60	34642
2026-01-09 08:52:54.48	160.97	3.74	-46.6	-49.1	3.6	0.00e+00	0	28	104	0	60	34848
2026-01-09 08:52:57.51	160.99	3.97	-46.6	-49.1	3.6	0.00e+00	0	28	104	0	60	34903
2026-01-09 08:53:00.54	161.01	4.21	-46.7	-49.1	3.6	0.00e+00	0	28	104	0	60	35006
2026-01-09 08:53:03.57	161.02	4.45	-46.6	-49.0	3.6	0.00e+00	0	28	104	0	60	34718
2026-01-09 08:53:06.59	161.04	4.69	-35.0	-35.3	9.7	2.10e-03	0	28	104	0	46	15958
2026-01-09 08:53:09.62	161.06	4.93	-30.8	-31.2	14.1	0.00e+00	0	28	0	218103808	38	15843
2026-01-09 08:53:12.65	161.07	5.18	-28.6	-29.1	15.3	0.00e+00	0	28	0	444596224	32	17401
2026-01-09 08:53:15.68	161.09	5.43	-28.1	-28.6	15.5	0.00e+00	0	28	0	671088640	30	18548
2026-01-09 08:53:18.71	161.11	5.68	-27.7	-28.2	15.6	0.00e+00	0	28	0	897581056	30	17677
2026-01-09 08:53:21.73	161.13	5.93	-27.6	-28.1	15.7	0.00e+00	0	28	0	1124073472	30	17450
2026-01-09 08:53:24.75	161.14	6.19	-27.6	-28.0	15.7	0.00e+00	0	28	0	1350565888	30	17357
2026-01-09 08:53:27.79	161.16	6.46	-27.6	-28.0	15.8	0.00e+00	0	28	0	1577058304	30	17381
2026-01-09 08:53:30.81	161.18	6.72	-27.3	-27.8	15.8	0.00e+00	0	28	0	1803550720	30	16870
2026-01-09 08:53:33.84	161.20	6.99	-27.3	-27.7	15.9	0.00e+00	0	28	0	2030043136	30	16745
2026-01-09 08:53:36.86	161.22	7.27	-27.2	-27.6	15.9	0.00e+00	0	29	0	2256535552	30	16604
2026-01-09 08:53:39.89	161.24	7.55	-26.9	-27.4	15.9	0.00e+00	0	29	0	2491416576	30	16186
2026-01-09 08:53:42.91	161.25	7.83	-27.0	-27.4	15.9	0.00e+00	0	29	0	2709520384	30	16234
2026-01-09 08:53:45.95	161.27	8.12	-27.0	-27.4	15.9	0.00e+00	0	29	0	2944401408	30	16196
2026-01-09 08:53:48.97	161.29	8.41	-26.7	-27.1	16.1	0.00e+00	0	29	0	3170893824	28	17543
2026-01-09 08:53:52.00	161.31	8.70	-26.5	-27.0	16.1	0.00e+00	0	29	0	3397386240	28	17287
2026-01-09 08:53:55.03	161.33	9.00	-26.5	-27.0	16.1	0.00e+00	0	29	0	3623878656	28	17237
2026-01-09 08:53:58.05	161.35	9.31	-26.4	-26.9	16.2	0.00e+00	0	29	0	3850371072	28	17042
2026-01-09 08:54:01.08	161.37	9.62	-26.2	-26.7	16.2	0.00e+00	0	29	0	4076863488	28	16677
2026-01-09 08:54:04.11	161.39	9.93	-26.1	-26.5	16.3	0.00e+00	0	29	0	4303355904	28	16417
2026-01-09 08:54:07.13	161.41	10.25	-26.0	-26.5	16.4	0.00e+00	0	29	0	4529848320	28	16289
2026-01-09 08:54:10.16	161.44	10.58	-26.1	-26.6	16.3	0.00e+00	0	29	0	4756340736	28	16431
2026-01-09 08:54:13.19	161.46	10.91	-26.0	-26.5	16.3	0.00e+00	0	29	0	4982833152	28	16246
2026-01-09 08:54:16.21	161.48	11.25	-25.8	-26.2	16.4	0.00e+00	0	29	0	5209325568	26	17799
2026-01-09 08:54:19.24	161.50	11.60	-25.6	-26.1	16.5	0.00e+00	0	29	0	5435817984	26	17447
2026-01-09 08:54:22.27	161.52	11.95	-25.5	-26.0	16.4	0.00e+00	0	29	0	5662310400	26	17207
2026-01-09 08:54:25.30	161.55	12.31	-25.5	-26.0	16.3	0.00e+00	0	29	0	5897191424	26	17334
2026-01-09 08:54:28.33	161.57	12.67	-25.2	-25.7	16.5	0.00e+00	0	29	0	6115295232	26	16668
2026-01-09 08:54:31.35	161.59	13.05	-25.0	-25.5	16.5	0.00e+00	0	29	0	6350176256	26	16365
2026-01-09 08:54:34.38	161.62	13.43	-25.0	-25.5	16.5	0.00e+00	0	29	0	6568280064	26	16247
2026-01-09 08:54:37.41	161.64	13.82	-24.9	-25.4	16.6	0.00e+00	0	29	0	6803161088	26	16133
2026-01-09 08:54:40.44	161.67	14.21	-24.9	-25.3	16.6	0.00e+00	0	29	0	7029653504	26	15999
2026-01-09 08:54:43.47	161.69	14.62	-24.6	-25.1	16.6	0.00e+00	0	29	0	7256145920	24	17455
2026-01-09 08:54:46.50	161.72	15.03	-24.5	-25.0	16.6	0.00e+00	0	29	0	7482638336	24	17319
2026-01-09 08:54:49.53	161.75	15.46	-24.4	-24.8	16.7	0.00e+00	0	29	0	7709130752	24	16944
2026-01-09 08:54:52.56	161.77	15.89	-24.4	-24.9	16.7	0.00e+00	0	29	0	7935623168	24	17054
2026-01-09 08:54:55.58	161.80	16.34	-24.0	-24.5	16.7	0.00e+00	0	29	0	8162115584	24	16312
2026-01-09 08:54:58.61	161.83	16.79	-24.0	-24.4	16.7	0.00e+00	0	29	0	8388608000	24	16198
2026-01-09 08:55:01.63	161.86	17.26	-23.8	-24.3	16.7	0.00e+00	0	29	0	8615100416	24	15935
2026-01-09 08:55:04.65	161.89	17.73	-23.7	-24.2	16.7	0.00e+00	0	30	0	8841592832	22	17753
2026-01-09 08:55:07.68	161.92	18.22	-23.7	-24.2	16.8	0.00e+00	0	29	0	9068085248	22	17733
2026-01-09 08:55:10.70	161.95	18.72	-23.4	-23.9	16.8	0.00e+00	0	29	0	9294577664	22	17065
2026-01-09 08:55:13.73	161.98	19.24	-23.3	-23.7	16.8	0.00e+00	0	30	0	9521070080	22	16742
2026-01-09 08:55:16.76	162.01	19.77	-23.2	-23.7	16.9	0.00e+00	0	29	0	9755951104	22	16646
2026-01-09 08:55:19.78	162.05	20.31	-23.0	-23.5	16.9	0.00e+00	0	29	0	9974054912	22	16283
2026-01-09 08:55:22.81	162.08	20.87	-22.8	-23.3	17.0	0.00e+00	0	30	0	10208935936	22	15928
2026-01-09 08:55:25.84	162.12	21.45	-22.6	-23.1	16.9	0.00e+00	0	30	0	10435428352	20	17565
2026-01-09 08:55:28.86	162.15	22.04	-22.6	-23.0	17.0	0.00e+00	0	30	0	10661920768	20	17386
2026-01-09 08:55:31.89	162.19	22.65	-22.4	-22.9	16.9	0.00e+00	0	30	0	10888413184	20	17132
2026-01-09 08:55:34.91	162.23	23.28	-22.4	-22.9	17.0	0.00e+00	0	30	0	11114905600	20	17069
2026-01-09 08:55:37.94	162.27	23.93	-22.0	-22.5	17.0	0.00e+00	0	30	0	11341398016	20	16334
2026-01-09 08:55:40.97	162.31	24.60	-21.8	-22.3	17.1	0.00e+00	0	30	0	11567890432	20	15986
2026-01-09 08:55:43.99	162.36	25.28	-21.8	-22.3	17.0	0.00e+00	0	30	0	11794382848	20	15876
2026-01-09 08:55:47.02	162.40	26.00	-21.6	-22.0	17.1	0.00e+00	0	30	0	12020875264	18	17374
2026-01-09 08:55:50.05	162.45	26.73	-21.3	-21.8	17.1	0.00e+00	0	30	0	12247367680	18	16873
2026-01-09 08:55:53.07	162.50	27.49	-21.1	-21.6	17.1	0.00e+00	0	30	0	12473860096	18	16478
2026-01-09 08:55:56.10	162.55	28.28	-21.2	-21.7	17.1	0.00e+00	0	30	0	12700352512	18	16691
2026-01-09 08:55:59.13	162.60	29.10	-20.8	-21.2	17.2	0.00e+00	0	30	0	12926844928	18	15853
2026-01-09 08:56:02.16	162.66	29.94	-20.6	-21.0	17.1	0.00e+00	0	30	0	13153337344	16	17373
2026-01-09 08:56:05.18	162.71	30.81	-20.7	-21.1	17.2	0.00e+00	0	30	0	13379829760	16	17597
2026-01-09 08:56:08.21	162.77	31.72	-20.4	-20.8	17.2	0.00e+00	0	30	0	13614710784	16	16994
2026-01-09 08:56:11.23	162.84	32.66	-20.1	-20.6	17.2	0.00e+00	0	30	0	13832814592	16	16564
2026-01-09 08:56:14.26	162.91	33.64	-20.0	-20.5	17.3	0.00e+00	0	30	0	14067695616	16	16314
2026-01-09 08:56:17.29	162.98	34.65	-19.9	-20.3	17.2	0.00e+00	0	30	0	14294188032	16	16034
2026-01-09 08:56:20.32	163.05	35.71	-19.5	-20.0	17.3	0.00e+00	0	30	0	14520680448	14	17244
2026-01-09 08:56:23.34	163.13	36.80	-19.5	-19.9	17.2	0.00e+00	0	30	0	14747172864	14	17178
2026-01-09 08:56:26.37	163.22	37.94	-19.3	-19.7	17.2	0.00e+00	0	30	0	14973665280	14	16778
2026-01-09 08:56:29.40	163.31	39.13	-19.0	-19.5	17.2	0.00e+00	0	30	0	15200157696	14	16263
2026-01-09 08:56:32.43	163.41	40.36	-18.7	-19.2	17.3	0.00e+00	0	30	0	15426650112	12	17722
2026-01-09 08:56:35.45	163.51	41.64	-18.7	-19.1	17.2	0.00e+00	0	30	0	15653142528	12	17581
2026-01-09 08:56:38.48	163.62	42.98	-18.5	-19.0	17.3	0.00e+00	0	30	0	15879634944	12	17209
2026-01-09 08:56:41.51	163.75	44.37	-18.3	-18.7	17.4	0.00e+00	0	30	0	16106127360	12	16799
2026-01-09 08:56:44.54	163.88	45.83	-18.1	-18.6	17.3	0.00e+00	0	30	0	16341008384	12	16533
2026-01-09 08:56:47.56	164.03	47.33	-17.8	-18.3	17.3	0.00e+00	0	30	0	16559112192	12	15884
2026-01-09 08:56:50.59	164.19	48.91	-17.8	-18.3	17.3	0.00e+00	0	30	0	16793993216	12	15920
2026-01-09 08:56:53.61	164.36	50.54	-17.4	-17.9	17.3	0.00e+00	0	30	0	17012097024	10	17067
2026-01-09 08:56:56.64	164.56	52.24	-17.3	-17.8	17.3	0.00e+00	0	30	0	17246978048	10	16876
2026-01-09 08:56:59.67	164.78	54.01	-17.1	-17.6	17.4	0.00e+00	0	30	0	17473470464	10	16452
2026-01-09 08:57:02.70	165.03	55.86	-17.0	-17.4	17.3	0.00e+00	0	30	0	17699962880	10	16238
2026-01-09 08:57:05.73	165.31	57.77	-16.7	-17.2	17.3	0.00e+00	0	30	0	17926455296	8	17696
2026-01-09 08:57:08.76	165.64	59.75	-16.6	-17.1	17.3	0.00e+00	0	30	0	18152947712	8	17486
2026-01-09 08:57:11.78	166.02	61.79	-16.6	-17.1	17.3	0.00e+00	0	30	0	18379440128	8	17451
2026-01-09 08:57:14.81	166.47	63.91	-16.3	-16.8	17.4	0.00e+00	0	30	0	18605932544	8	16911
2026-01-09 08:57:17.84	167.01	66.10	-16.2	-16.7	17.3	0.00e+00	0	30	0	18832424960	8	16729
2026-01-09 08:57:20.86	167.67	68.35	-16.0	-16.5	17.4	0.00e+00	0	30	0	19058917376	8	16341
2026-01-09 08:57:23.89	168.50	70.66	-16.0	-16.5	17.4	0.00e+00	0	30	0	19285409792	8	16276
2026-01-09 08:57:26.92	169.58	73.02	-15.8	-16.3	17.4	0.00e+00	0	30	0	19511902208	8	15926
2026-01-09 08:57:29.95	171.02	75.43	-15.8	-16.3	17.4	0.00e+00	0	30	0	19738394624	8	15941
2026-01-09 08:57:32.97	173.06	77.87	-15.7	-16.2	17.4	0.00e+00	0	30	0	19964887040	6	17739
2026-01-09 08:57:36.00	176.16	80.33	-15.7	-16.2	17.4	0.00e+00	0	30	0	20199768064	6	17631
2026-01-09 08:57:39.02	181.40	82.77	-15.5	-16.0	17.3	0.00e+00	0	30	0	20417871872	6	17261
2026-01-09 08:57:42.05	191.90	85.12	-15.5	-16.0	17.4	0.00e+00	0	30	0	20652752896	6	17217
2026-01-09 08:57:45.08	218.52	87.05	-15.4	-15.9	17.4	0.00e+00	0	30	0	20870856704	6	17117
2026-01-09 08:57:48.11	273.55	87.33	-15.5	-16.0	17.4	0.00e+00	0	30	0	21105737728	6	17331
2026-01-09 08:57:51.13	307.00	85.63	-15.5	-16.0	17.4	0.00e+00	0	30	0	21332230144	6	17287
2026-01-09 08:57:54.16	319.78	83.34	-15.5	-16.0	17.4	0.00e+00	0	30	0	21558722560	6	17325
2026-01-09 08:57:57.19	325.84	80.90	-15.5	-16.0	17.4	0.00e+00	0	30	0	21785214976	6	17334
2026-01-09 08:58:00.21	329.30	78.45	-15.8	-16.2	17.4	0.00e+00	0	30	0	22011707392	6	17796
2026-01-09 08:58:03.23	331.53	76.01	-15.8	-16.3	17.4	0.00e+00	0	30	0	22238199808	6	17861
2026-01-09 08:58:06.26	333.08	73.59	-15.8	-16.3	17.4	0.00e+00	0	30	0	22464692224	6	17931
2026-01-09 08:58:09.29	334.23	71.22	-16.1	-16.6	17.3	0.00e+00	0	30	0	22691184640	6	18496
2026-01-09 08:58:12.32	335.11	68.90	-16.2	-16.6	17.4	0.00e+00	0	30	0	22917677056	6	18605
2026-01-09 08:58:15.35	335.81	66.64	-16.1	-16.6	17.4	0.00e+00	0	30	0	23144169472	6	18570
2026-01-09 08:58:18.37	336.37	64.45	-16.3	-16.7	17.4	0.00e+00	0	30	0	23370661888	6	18847
2026-01-09 08:58:21.40	336.84	62.32	-16.6	-17.0	17.4	0.00e+00	0	30	0	23597154304	6	19522
2026-01-09 08:58:24.43	337.24	60.26	-16.7	-17.2	17.3	0.00e+00	0	30	0	23823646720	6	19759
2026-01-09 08:58:27.46	337.58	58.26	-16.8	-17.2	17.4	0.00e+00	0	30	0	24058527744	8	17774
2026-01-09 08:58:30.48	337.87	56.35	-17.0	-17.4	17.4	0.00e+00	0	30	0	24276631552	8	18159
2026-01-09 08:58:33.51	338.12	54.49	-17.1	-17.6	17.3	0.00e+00	0	30	0	24511512576	8	18514
2026-01-09 08:58:36.53	338.35	52.72	-17.4	-17.9	17.4	0.00e+00	0	30	0	24729616384	8	19112
2026-01-09 08:58:39.56	338.55	51.00	-17.5	-18.0	17.4	0.00e+00	0	30	0	24964497408	8	19425
2026-01-09 08:58:42.58	338.74	49.36	-17.7	-18.2	17.3	0.00e+00	0	30	0	25190989824	8	19770
2026-01-09 08:58:45.61	338.90	47.77	-18.0	-18.5	17.4	0.00e+00	0	30	0	25417482240	10	18345
2026-01-09 08:58:48.63	339.05	46.26	-18.2	-18.6	17.4	0.00e+00	0	30	0	25643974656	10	18600
2026-01-09 08:58:51.66	339.19	44.80	-18.4	-18.8	17.3	0.00e+00	0	30	0	25870467072	10	19070
2026-01-09 08:58:54.68	339.31	43.40	-18.5	-18.9	17.4	0.00e+00	0	30	0	26096959488	10	19288
2026-01-09 08:58:57.71	339.43	42.05	-18.7	-19.1	17.4	0.00e+00	0	30	0	26323451904	12	17595
2026-01-09 08:59:00.73	339.53	40.76	-19.0	-19.4	17.3	0.00e+00	0	30	0	26549944320	12	18213
2026-01-09 08:59:03.75	339.63	39.52	-19.1	-19.6	17.3	0.00e+00	0	30	0	26776436736	12	18484
2026-01-09 08:59:06.78	339.73	38.33	-19.4	-19.8	17.3	0.00e+00	0	30	0	27002929152	12	19078
2026-01-09 08:59:09.81	339.81	37.18	-19.5	-20.0	17.3	0.00e+00	0	30	0	27229421568	12	19449
2026-01-09 08:59:12.84	339.90	36.08	-19.7	-20.1	17.3	0.00e+00	0	30	0	27455913984	12	19723
2026-01-09 08:59:15.87	339.97	35.01	-19.9	-20.4	17.3	0.00e+00	0	30	0	27682406400	14	18117
2026-01-09 08:59:18.90	340.05	33.99	-20.0	-20.5	17.3	0.00e+00	0	30	0	27917287424	14	18324
2026-01-09 08:59:21.93	340.11	33.01	-20.2	-20.7	17.3	0.00e+00	0	30	0	28135391232	14	18719
2026-01-09 08:59:24.96	340.18	32.06	-20.4	-20.8	17.2	0.00e+00	0	30	0	28370272256	14	19054
2026-01-09 08:59:27.98	340.24	31.15	-20.6	-21.1	17.2	0.00e+00	0	30	0	28588376064	14	19592
2026-01-09 08:59:31.01	340.30	30.27	-20.7	-21.2	17.2	0.00e+00	0	30	0	28823257088	16	17641
2026-01-09 08:59:34.04	340.36	29.42	-20.9	-21.3	17.1	0.00e+00	0	30	0	29049749504	16	17947
2026-01-09 08:59:37.06	340.41	28.60	-21.2	-21.7	17.2	0.00e+00	0	30	0	29276241920	16	18647
2026-01-09 08:59:40.08	340.47	27.81	-21.4	-21.9	17.1	0.00e+00	0	30	0	29502734336	16	19152
2026-01-09 08:59:43.11	340.52	27.05	-21.4	-21.9	17.2	0.00e+00	0	30	0	29729226752	16	19098
2026-01-09 08:59:46.14	340.56	26.31	-21.6	-22.1	17.1	0.00e+00	0	30	0	29955719168	16	19592
2026-01-09 08:59:49.17	340.61	25.59	-21.8	-22.2	17.1	0.00e+00	0	30	0	30182211584	16	19942
2026-01-09 08:59:52.20	340.65	24.90	-21.9	-22.3	17.1	0.00e+00	0	30	0	30408704000	18	17991
2026-01-09 08:59:55.22	340.70	24.23	-22.1	-22.5	17.1	0.00e+00	0	30	0	30635196416	18	18375
2026-01-09 08:59:58.24	340.74	23.58	-22.2	-22.7	17.0	0.00e+00	0	30	0	30861688832	18	18648
2026-01-09 09:00:01.27	340.78	22.94	-22.4	-22.8	17.1	0.00e+00	0	30	0	31088181248	18	19046
2026-01-09 09:00:04.30	340.82	22.33	-22.7	-23.2	16.9	0.00e+00	0	30	0	31314673664	20	17656
2026-01-09 09:00:07.33	340.86	21.73	-22.7	-23.2	17.0	0.00e+00	0	30	0	31541166080	20	17647
2026-01-09 09:00:10.35	340.89	21.16	-22.9	-23.4	17.0	0.00e+00	0	30	0	31767658496	20	18058
2026-01-09 09:00:13.38	340.93	20.59	-23.1	-23.5	16.9	0.00e+00	0	30	0	31994150912	20	18390
2026-01-09 09:00:16.41	340.96	20.05	-23.1	-23.6	17.0	0.00e+00	0	30	0	32229031936	20	18538
2026-01-09 09:00:19.44	341.00	19.51	-23.4	-23.8	17.0	0.00e+00	0	30	0	32455524352	20	19052
2026-01-09 09:00:22.46	341.03	19.00	-23.5	-24.0	17.0	0.00e+00	0	30	0	32682016768	20	19359
2026-01-09 09:00:25.49	341.06	18.49	-23.6	-24.1	16.9	0.00e+00	0	30	0	32908509184	20	19607
2026-01-09 09:00:28.52	341.10	18.00	-23.8	-24.2	16.9	0.00e+00	0	30	0	33135001600	22	17774
2026-01-09 09:00:31.54	341.13	17.52	-24.0	-24.5	16.8	0.00e+00	0	30	0	33361494016	22	18222
2026-01-09 09:00:34.57	341.16	17.05	-24.1	-24.5	16.8	0.00e+00	0	30	0	33587986432	22	18399
2026-01-09 09:00:37.60	341.19	16.60	-24.1	-24.6	16.8	0.00e+00	0	30	0	33814478848	22	18540
2026-01-09 09:00:40.62	341.22	16.15	-24.3	-24.8	16.7	0.00e+00	0	30	0	34040971264	22	18914
2026-01-09 09:00:43.65	341.24	15.72	-24.4	-24.9	16.7	0.00e+00	0	30	0	34267463680	22	19184
2026-01-09 09:00:46.67	341.27	15.29	-24.6	-25.1	16.7	0.00e+00	0	30	0	34493956096	22	19675
2026-01-09 09:00:49.69	341.30	14.88	-24.7	-25.2	16.6	0.00e+00	0	30	0	34720448512	24	17711
2026-01-09 09:00:52.72	341.33	14.47	-24.9	-25.3	16.7	0.00e+00	0	30	0	34946940928	24	17961
2026-01-09 09:00:55.75	341.35	14.07	-25.0	-25.5	16.6	0.00e+00	0	30	0	35173433344	24	18248
2026-01-09 09:00:58.78	341.38	13.68	-25.2	-25.7	16.5	0.00e+00	0	30	0	35399925760	24	18745
2026-01-09 09:01:01.80	341.41	13.30	-25.3	-25.8	16.5	0.00e+00	0	30	0	35626418176	24	18862
2026-01-09 09:01:04.83	341.43	12.93	-25.5	-25.9	16.5	0.00e+00	0	30	0	35852910592	24	19263
2026-01-09 09:01:07.85	341.46	12.56	-25.5	-26.0	16.5	0.00e+00	0	30	0	36087791616	24	19303
2026-01-09 09:01:10.88	341.48	12.20	-25.6	-26.1	16.5	0.00e+00	0	30	0	36305895424	24	19548
2026-01-09 09:01:13.90	341.50	11.85	-25.7	-26.2	16.4	0.00e+00	0	30	0	36540776448	26	17630
2026-01-09 09:01:16.92	341.53	11.50	-25.9	-26.4	16.4	0.00e+00	0	30	0	36758880256	26	18094
2026-01-09 09:01:19.95	341.55	11.16	-26.0	-26.5	16.4	0.00e+00	0	30	0	36993761280	26	18341
2026-01-09 09:01:22.97	341.57	10.83	-26.1	-26.5	16.4	0.00e+00	0	30	0	37220253696	26	18416
2026-01-09 09:01:26.00	341.60	10.50	-26.2	-26.6	16.4	0.00e+00	0	30	0	37446746112	26	18633
2026-01-09 09:01:29.03	341.62	10.18	-26.2	-26.7	16.3	0.00e+00	0	30	0	37673238528	26	18767
2026-01-09 09:01:32.06	341.64	9.86	-26.4	-26.8	16.3	0.00e+00	0	30	0	37899730944	26	19075
2026-01-09 09:01:35.09	341.67	9.55	-26.6	-27.0	16.2	0.00e+00	0	30	0	38126223360	26	19503
2026-01-09 09:01:38.12	341.69	9.25	-26.7	-27.1	16.2	0.00e+00	0	30	0	38352715776	26	19723
2026-01-09 09:01:41.14	341.71	8.95	-26.8	-27.2	16.1	0.00e+00	0	30	0	38579208192	28	17772
2026-01-09 09:01:44.16	341.73	8.65	-26.8	-27.2	15.8	0.00e+00	0	30	0	38805700608	28	17781
2026-01-09 09:01:47.19	341.75	8.36	-27.0	-27.5	15.9	0.00e+00	0	30	0	39032193024	28	18364
2026-01-09 09:01:50.21	341.77	8.07	-27.1	-27.6	15.7	0.00e+00	0	30	0	39258685440	28	18480
2026-01-09 09:01:53.24	341.79	7.79	-27.1	-27.6	15.8	0.00e+00	0	30	0	39485177856	28	18508
2026-01-09 09:01:56.27	341.81	7.51	-27.4	-27.9	15.9	0.00e+00	0	30	0	39711670272	28	19109
2026-01-09 09:01:59.30	341.83	7.23	-27.5	-27.9	15.8	0.00e+00	0	30	0	39946551296	28	19200
2026-01-09 09:02:02.33	341.86	6.96	-27.4	-27.9	15.8	0.00e+00	0	30	0	40164655104	28	19179
2026-01-09 09:02:05.35	341.88	6.70	-27.5	-27.9	15.8	0.00e+00	0	30	0	40399536128	28	19251
2026-01-09 09:02:08.38	341.90	6.43	-27.8	-28.3	15.7	0.00e+00	0	30	0	40617639936	30	17879
2026-01-09 09:02:11.41	341.92	6.17	-28.2	-28.6	15.5	0.00e+00	0	30	0	40852520960	30	18599
2026-01-09 09:02:14.43	341.93	5.92	-29.1	-29.5	15.0	0.00e+00	0	30	0	41079013376	32	18318
2026-01-09 09:02:17.46	341.95	5.66	-30.3	-30.7	14.0	0.00e+00	0	30	0	41305505792	34	18811
2026-01-09 09:02:20.49	341.97	5.41	-31.9	-32.3	12.6	2.08e-05	0	30	0	41531998208	38	17912
2026-01-09 09:02:23.52	341.99	5.17	-34.0	-34.3	10.6	1.62e-03	0	30	0	41758490624	42	17877
2026-01-09 09:02:26.54	342.01	4.92	-36.4	-36.5	7.9	3.17e-02	0	30	0	41984983040	46	18341
2026-01-09 09:02:29.56	342.03	4.68	-38.6	-38.6	5.5	2.93e-01	2219	30	0	42211475456	50	18514
2026-01-09 09:02:32.59	342.05	4.44	-40.9	-41.0	3.8	0.00e+00	0	30	0	42354081792	56	17208
2026-01-09 09:02:35.61	342.07	4.21	-42.2	-44.1	3.6	0.00e+00	0	30	104	42354081792	58	22060
2026-01-09 09:02:38.64	342.09	3.98	-42.7	-44.8	3.5	0.00e+00	0	30	104	42354081792	58	24012
2026-01-09 09:02:41.67	342.11	3.75	-43.3	-45.8	3.6	0.00e+00	0	30	104	42354081792	60	23798
2026-01-09 09:02:44.70	342.12	3.52	-43.2	-45.7	3.6	0.00e+00	0	30	104	42354081792	60	23592
2026-01-09 09:02:47.73	342.14	3.29	-43.2	-45.7	3.6	0.00e+00	0	30	104	42354081792	60	23645
2026-01-09 09:02:50.76	342.16	3.07	-43.0	-45.5	3.6	0.00e+00	0	30	104	42354081792	60	23012
2026-01-09 09:02:53.79	342.18	2.85	-47.4	-49.9	3.6	0.00e+00	0	30	104	42354081792	60	38086
2026-01-09 09:02:56.82	342.20	2.63	-47.9	-50.5	3.6	0.00e+00	0	30	104	42354081792	60	40855
2026-01-09 09:02:59.85	342.22	2.42	-48.1	-50.6	3.6	0.00e+00	0	30	104	42354081792	60	41482
2026-01-09 09:03:02.88	342.23	2.20	-47.9	-50.4	3.6	0.00e+00	0	30	104	42354081792	60	40736
2026-01-09 09:03:05.90	342.25	1.99	-48.2	-50.7	3.6	0.00e+00	0	30	104	42354081792	60	41854
2026-01-09 09:03:08.92	342.27	1.78	-48.0	-50.5	3.6	0.00e+00	0	30	104	42354081792	60	41072
2026-01-09 09:03:11.95	342.29	1.58	-48.0	-50.6	3.6	0.00e+00	0	30	104	42354081792	60	41279
2026-01-09 09:03:14.98	342.30	1.37	-48.0	-50.5	3.6	0.00e+00	0	30	104	42354081792	60	41037
2026-01-09 09:03:18.01	342.32	1.17	-48.1	-50.5	3.5	0.00e+00	0	30	104	42354081792	60	41200
2026-01-09 09:03:21.04	342.34	0.97	-48.0	-50.5	3.5	0.00e+00	0	30	104	42354081792	60	41096
2026-01-09 09:03:24.06	342.36	0.77	-48.0	-50.5	3.6	0.00e+00	0	30	104	42354081792	60	41048
2026-01-09 09:03:27.10	342.37	0.57	-48.1	-50.5	3.6	0.00e+00	0	30	104	42354081792	60	40995
2026-01-09 09:03:30.13	342.39	0.37	-48.0	-50.5	3.6	0.00e+00	0	30	104	42354081792	60	41069
2026-01-09 09:03:33.16	342.41	0.18	-48.0	-50.5	3.6	0.00e+00	0	30	104	42354081792	60	41096
2026-01-09 09:03:36.19	342.43	-0.02	-48.0	-50.5	3.6	0.00e+00	0	30	104	42354081792	60	40973

#Closed at: 2026-01-09 09:03:37
#Recorded file [42354 MB]: D:/lorett/data/35029_260109_205206.dat