passes_logs/2026/01/09/R4.6S_Anadyr/R4.6S_Anadyr__20260109_181134_AQUA_rec.log

#Pass ID: 20260109_181134_AQUA
#Satellite: AQUA
#Configuration: AQUA
#almurnet v.1.7.20251203
#Start time: 2026-01-09 18:11:35

#Version: 2.2.20231116
#Station: R4.6S_Anadyr
#Location: 177.4865 lon 64.73178 lat
#TLE: 1 27424U 02022A   26009.00333547  .00001046  00000+0  21942-3 0  9998
#TLE: 2 27424  98.4075 335.3304 0002026  85.7625 349.1392 14.61808998260012

#Time	Az	El	Level	Level2	SNR	BER	BlckErr	Temp	State	Recorded	gain1	gain2
2026-01-09 18:11:35.13	23.74	0.05	-47.6	-59.2	3.5	8.46e-01	0	23	0	0	60	33067
2026-01-09 18:11:38.15	23.58	0.22	-47.9	-65.7	3.5	3.04e+01	0	24	104	0	60	74276
2026-01-09 18:11:41.18	23.42	0.39	-48.0	-65.8	3.5	3.04e+01	0	24	104	0	60	75397
2026-01-09 18:11:44.21	23.26	0.57	-47.8	-65.6	3.5	3.04e+01	0	24	104	0	60	73620
2026-01-09 18:11:47.24	23.10	0.75	-47.6	-65.4	3.5	3.04e+01	0	24	104	0	60	71699
2026-01-09 18:11:50.26	22.93	0.92	-46.9	-64.7	3.5	3.04e+01	0	24	104	0	60	66383
2026-01-09 18:11:53.29	22.76	1.10	-46.3	-64.2	3.5	3.04e+01	0	24	104	0	60	62152
2026-01-09 18:11:56.32	22.59	1.28	-46.3	-64.1	3.5	3.04e+01	0	24	104	0	60	61873
2026-01-09 18:11:59.35	22.42	1.46	-46.3	-64.1	3.5	3.04e+01	0	24	104	0	60	61948
2026-01-09 18:12:02.38	22.24	1.64	-46.3	-64.1	3.5	3.04e+01	0	24	104	0	60	61527
2026-01-09 18:12:05.40	22.07	1.83	-46.3	-64.1	3.5	3.04e+01	0	24	104	0	60	61959
2026-01-09 18:12:08.42	21.89	2.01	-46.3	-64.1	3.5	3.04e+01	0	24	104	0	60	61974
2026-01-09 18:12:11.45	21.70	2.19	-46.3	-64.0	3.5	3.04e+01	0	24	104	0	60	61228
2026-01-09 18:12:14.48	21.52	2.38	-46.2	-63.9	3.5	3.04e+01	0	24	104	0	60	60406
2026-01-09 18:12:17.51	21.33	2.57	-46.3	-64.1	3.5	3.04e+01	0	25	104	0	60	61983
2026-01-09 18:12:20.54	21.14	2.75	-46.3	-64.1	3.5	3.04e+01	0	25	104	0	60	61540
2026-01-09 18:12:23.57	20.94	2.94	-46.2	-63.7	3.5	3.04e+01	0	25	104	0	60	58656
2026-01-09 18:12:26.59	20.74	3.13	-46.2	-64.0	3.5	3.04e+01	0	25	104	0	60	60791
2026-01-09 18:12:29.62	20.54	3.32	-45.2	-59.5	3.5	3.04e+01	0	25	104	0	60	36532
2026-01-09 18:12:32.65	20.34	3.52	-42.7	-54.5	3.5	3.04e+01	0	25	104	0	60	20517
2026-01-09 18:12:35.68	20.13	3.71	-43.4	-55.7	3.5	3.04e+01	0	25	104	0	52	37184
2026-01-09 18:12:38.71	19.92	3.90	-40.4	-51.4	3.5	3.04e+01	0	25	104	0	56	18008
2026-01-09 18:12:41.73	19.71	4.10	-37.8	-48.4	3.5	3.04e+01	0	25	104	0	50	17924
2026-01-09 18:12:44.76	19.49	4.30	-46.3	-63.6	3.5	3.04e+01	0	25	104	0	60	57981
2026-01-09 18:12:47.79	19.27	4.50	-38.6	-49.3	3.5	3.04e+01	0	25	104	0	54	15850
2026-01-09 18:12:50.81	19.05	4.69	-36.7	-47.1	3.5	3.04e+01	0	25	104	0	48	17347
2026-01-09 18:12:53.84	18.82	4.90	-46.5	-64.0	3.5	3.04e+01	0	25	104	0	60	61285
2026-01-09 18:12:56.87	18.59	5.10	-37.9	-48.4	3.4	3.04e+01	0	25	104	0	52	16089
2026-01-09 18:12:59.89	18.36	5.30	-35.8	-46.1	3.6	3.04e+01	0	25	104	0	46	17331
2026-01-09 18:13:02.92	18.12	5.50	-46.5	-63.7	3.5	3.04e+01	0	25	104	0	60	59222
2026-01-09 18:13:05.94	17.88	5.71	-40.9	-51.9	3.5	3.04e+01	0	25	104	0	58	17016
2026-01-09 18:13:08.97	17.64	5.92	-38.9	-49.5	3.5	3.04e+01	0	25	104	0	54	16287
2026-01-09 18:13:12.00	17.39	6.13	-46.4	-62.5	3.5	3.04e+01	0	25	104	0	60	51397
2026-01-09 18:13:15.03	17.13	6.34	-42.2	-53.7	3.5	3.04e+01	0	25	104	0	60	18588
2026-01-09 18:13:18.05	16.87	6.55	-38.5	-49.1	3.5	3.04e+01	0	25	104	0	52	17349
2026-01-09 18:13:21.07	16.61	6.76	-46.5	-63.7	3.5	3.04e+01	0	25	104	0	60	58743
2026-01-09 18:13:24.10	16.35	6.97	-36.5	-46.9	3.5	3.04e+01	0	25	104	0	48	17041
2026-01-09 18:13:27.13	16.07	7.19	-35.4	-45.7	3.5	3.04e+01	0	25	104	0	46	16587
2026-01-09 18:13:30.16	15.80	7.41	-46.8	-64.1	3.5	3.04e+01	0	25	104	0	60	61632
2026-01-09 18:13:33.19	15.52	7.63	-41.3	-52.4	3.6	3.04e+01	0	25	104	0	58	17969
2026-01-09 18:13:36.21	15.23	7.85	-38.5	-49.1	3.5	3.04e+01	0	25	104	0	52	17333
2026-01-09 18:13:39.24	14.94	8.07	-46.6	-63.1	3.5	3.04e+01	0	25	104	0	60	55296
2026-01-09 18:13:42.27	14.65	8.29	-36.8	-47.1	3.5	3.04e+01	0	25	104	0	48	17466
2026-01-09 18:13:45.30	14.35	8.52	-35.6	-45.9	3.5	3.04e+01	0	25	104	0	46	16975
2026-01-09 18:13:48.33	14.04	8.74	-46.4	-61.9	3.5	3.04e+01	0	25	104	0	60	47870
2026-01-09 18:13:51.35	13.73	8.97	-36.0	-46.3	3.5	3.04e+01	0	25	104	0	48	15854
2026-01-09 18:13:54.38	13.41	9.20	-35.4	-45.7	3.5	3.04e+01	0	25	104	0	46	16567
2026-01-09 18:13:57.40	13.09	9.43	-46.7	-63.0	3.6	3.04e+01	0	25	104	0	60	54443
2026-01-09 18:14:00.43	12.76	9.66	-39.8	-50.6	3.5	3.04e+01	0	25	104	0	56	16372
2026-01-09 18:14:03.45	12.43	9.89	-39.6	-50.3	3.5	3.04e+01	0	25	104	0	54	17845
2026-01-09 18:14:06.48	12.09	10.13	-44.5	-57.2	3.6	3.04e+01	0	25	104	0	60	27921
2026-01-09 18:14:09.51	11.74	10.37	-40.9	-51.9	3.5	3.04e+01	0	25	104	0	56	19044
2026-01-09 18:14:12.53	11.39	10.60	-37.9	-48.4	3.5	3.04e+01	0	25	104	0	50	18029
2026-01-09 18:14:15.56	11.03	10.84	-46.5	-61.9	3.5	3.04e+01	0	25	104	0	60	47723
2026-01-09 18:14:18.59	10.67	11.09	-35.2	-45.5	3.5	3.04e+01	0	25	104	0	46	16138
2026-01-09 18:14:21.62	10.29	11.33	-34.1	-44.3	3.5	3.04e+01	0	25	104	0	42	17801
2026-01-09 18:14:24.65	9.91	11.57	-41.3	-52.4	3.5	3.04e+01	0	25	104	0	60	16109
2026-01-09 18:14:27.68	9.53	11.82	-39.4	-50.0	3.5	3.04e+01	0	25	104	0	54	17284
2026-01-09 18:14:30.70	9.14	12.07	-46.7	-62.5	3.5	3.04e+01	0	25	104	0	60	51243
2026-01-09 18:14:33.73	8.73	12.32	-46.8	-62.9	3.5	3.04e+01	0	25	104	0	60	53526
2026-01-09 18:14:36.76	8.33	12.57	-38.3	-48.8	3.5	3.04e+01	0	25	104	0	52	16763
2026-01-09 18:14:39.79	7.91	12.82	-34.1	-44.3	3.5	3.04e+01	0	25	104	0	44	15832
2026-01-09 18:14:42.81	7.49	13.07	-39.7	-50.4	3.6	3.04e+01	0	25	104	0	54	18086
2026-01-09 18:14:45.84	7.05	13.33	-36.7	-47.0	3.5	3.04e+01	0	25	104	0	48	17287
2026-01-09 18:14:48.87	6.61	13.58	-47.1	-64.4	3.5	3.04e+01	0	25	104	0	60	63763
2026-01-09 18:14:51.90	6.16	13.84	-46.6	-61.9	3.5	3.04e+01	0	25	104	0	60	47969
2026-01-09 18:14:54.92	5.71	14.10	-38.6	-49.1	3.5	3.04e+01	0	25	104	0	52	17336
2026-01-09 18:14:57.95	5.24	14.36	-35.2	-45.4	3.5	3.04e+01	0	25	104	0	46	16099
2026-01-09 18:15:00.98	4.76	14.62	-38.8	-49.4	3.5	3.04e+01	0	25	104	0	52	18022
2026-01-09 18:15:04.01	4.28	14.89	-38.3	-48.7	3.5	3.04e+01	0	25	104	0	52	16671
2026-01-09 18:15:07.03	3.79	15.15	-43.8	-55.7	3.5	3.04e+01	0	25	104	0	60	23593
2026-01-09 18:15:10.06	3.28	15.41	-44.6	-57.1	3.5	3.04e+01	0	25	104	0	60	27660
2026-01-09 18:15:13.09	2.77	15.68	-34.4	-44.6	3.5	3.04e+01	0	25	104	0	44	16440
2026-01-09 18:15:16.12	2.24	15.95	-37.2	-47.6	3.5	3.04e+01	0	25	104	0	48	18349
2026-01-09 18:15:19.15	1.71	16.21	-45.0	-57.9	3.5	3.04e+01	0	25	104	0	60	30373
2026-01-09 18:15:22.17	1.17	16.48	-37.6	-47.9	3.5	3.04e+01	0	25	104	0	50	17018
2026-01-09 18:15:25.19	0.61	16.75	-42.5	-53.7	3.5	3.04e+01	0	25	104	0	58	20882
2026-01-09 18:15:28.22	0.05	17.02	-36.3	-46.7	3.4	3.04e+01	0	25	104	0	50	14746
2026-01-09 18:15:31.24	359.47	17.29	-36.8	-47.1	3.5	3.04e+01	0	25	104	0	48	17480
2026-01-09 18:15:34.28	358.88	17.56	-44.5	-57.1	3.5	3.04e+01	0	25	104	0	60	27509
2026-01-09 18:15:37.30	358.28	17.83	-40.5	-51.4	3.5	3.04e+01	0	25	104	0	60	14275
2026-01-09 18:15:40.33	357.67	18.10	-35.2	-45.6	3.5	3.04e+01	0	25	104	0	44	18351
2026-01-09 18:15:43.35	357.05	18.37	-34.6	-44.8	3.5	3.04e+01	0	25	104	0	44	16731
2026-01-09 18:15:46.38	356.41	18.65	-40.9	-51.9	3.6	3.04e+01	0	25	104	0	60	15061
2026-01-09 18:15:49.41	355.76	18.92	-40.0	-50.7	3.5	3.04e+01	0	25	104	0	52	20829
2026-01-09 18:15:52.44	355.10	19.19	-36.3	-46.6	3.5	3.04e+01	0	25	104	0	46	18317
2026-01-09 18:15:55.46	354.43	19.46	-36.8	-47.2	3.5	3.04e+01	0	25	104	0	48	17609
2026-01-09 18:15:58.49	353.75	19.72	-38.6	-49.1	3.5	3.04e+01	0	25	104	0	52	17350
2026-01-09 18:16:01.52	353.05	19.99	-41.2	-52.2	3.5	3.04e+01	0	25	104	0	58	17512
2026-01-09 18:16:04.55	352.33	20.26	-37.4	-47.7	3.5	3.04e+01	0	25	104	0	44	23520
2026-01-09 18:16:07.58	351.61	20.52	-34.0	-44.2	3.5	3.04e+01	0	25	104	0	44	15666
2026-01-09 18:16:10.60	350.87	20.79	-40.8	-51.7	3.5	3.04e+01	0	25	104	0	60	14764
2026-01-09 18:16:13.63	350.12	21.05	-36.1	-46.3	3.5	3.04e+01	0	25	104	0	46	17876
2026-01-09 18:16:16.66	349.36	21.31	-36.8	-47.2	3.5	3.04e+01	0	25	104	0	48	17672
2026-01-09 18:16:19.69	348.58	21.56	-36.5	-46.8	3.5	3.04e+01	0	25	104	0	42	23697
2026-01-09 18:16:22.71	347.78	21.82	-45.4	-58.5	3.7	3.04e+01	0	25	104	0	56	40588
2026-01-09 18:16:25.74	346.98	22.07	-37.8	-48.3	3.5	3.04e+01	0	25	104	0	50	17794
2026-01-09 18:16:28.77	346.16	22.31	-44.0	-56.0	3.5	3.04e+01	0	25	104	0	60	24346
2026-01-09 18:16:31.80	345.32	22.56	-46.4	-60.6	3.5	3.04e+01	0	25	104	0	58	46268
2026-01-09 18:16:34.83	344.47	22.80	-34.6	-44.8	3.5	3.04e+01	0	25	104	0	44	16776
2026-01-09 18:16:37.85	343.61	23.03	-37.9	-48.3	3.5	3.04e+01	0	25	104	0	50	17804
2026-01-09 18:16:40.88	342.74	23.27	-39.2	-49.8	3.5	3.04e+01	0	25	104	0	48	23690
2026-01-09 18:16:43.91	341.85	23.49	-37.3	-47.6	3.5	3.04e+01	0	25	104	0	48	18455
2026-01-09 18:16:46.94	340.94	23.71	-43.7	-55.6	3.5	3.04e+01	0	25	104	0	58	26078
2026-01-09 18:16:49.97	340.03	23.93	-46.9	-62.1	3.5	3.04e+01	0	25	104	0	60	49204
2026-01-09 18:16:53.00	339.10	24.14	-36.9	-47.2	3.6	3.04e+01	0	25	104	0	48	17580
2026-01-09 18:16:56.03	338.15	24.34	-43.8	-55.6	3.5	3.04e+01	0	25	104	0	60	23184
2026-01-09 18:16:59.06	337.20	24.54	-47.5	-64.4	3.5	3.04e+01	0	25	104	0	60	64142
2026-01-09 18:17:02.08	336.23	24.73	-34.6	-44.8	3.5	3.04e+01	0	25	104	0	44	16790
2026-01-09 18:17:05.11	335.25	24.91	-38.4	-48.9	3.5	3.04e+01	0	25	104	0	50	19038
2026-01-09 18:17:08.14	334.26	25.09	-47.3	-64.0	3.5	3.04e+01	0	25	104	0	60	61117
2026-01-09 18:17:11.16	333.26	25.25	-43.9	-55.8	3.5	3.04e+01	0	25	104	0	60	23693
2026-01-09 18:17:14.19	332.24	25.41	-47.2	-63.7	3.5	3.04e+01	0	25	104	0	60	58953
2026-01-09 18:17:17.22	331.22	25.56	-44.7	-57.1	3.5	3.04e+01	0	25	104	0	60	27552
2026-01-09 18:17:20.25	330.18	25.70	-35.0	-45.2	3.5	3.04e+01	0	25	104	0	44	17599
2026-01-09 18:17:23.28	329.13	25.84	-36.4	-46.7	3.5	3.04e+01	0	25	104	0	50	14764
2026-01-09 18:17:26.30	328.08	25.96	-45.1	-57.9	3.5	3.04e+01	0	25	104	0	60	30269
2026-01-09 18:17:29.33	327.02	26.07	-35.0	-45.2	3.5	3.04e+01	0	25	104	0	46	15674
2026-01-09 18:17:32.36	325.95	26.17	-37.2	-47.5	3.6	3.04e+01	0	26	104	0	52	14518
2026-01-09 18:17:35.39	324.88	26.27	-47.5	-64.5	3.5	3.04e+01	0	25	104	0	60	64617
2026-01-09 18:17:38.41	323.80	26.35	-40.1	-50.9	3.5	3.04e+01	0	25	104	0	54	18986
2026-01-09 18:17:41.44	322.71	26.42	-43.4	-55.1	3.5	3.04e+01	0	25	104	0	60	21963
2026-01-09 18:17:44.47	321.61	26.48	-43.2	-46.1	21.1	3.04e+01	0	25	0	0	60	7739
2026-01-09 18:17:47.50	320.52	26.53	-34.4	-35.7	28.8	3.04e+01	0	25	0	5767168	44	5878
2026-01-09 18:17:50.53	319.42	26.57	-33.8	-35.0	29.4	3.04e+01	0	25	0	11534336	42	6133
2026-01-09 18:17:53.55	318.32	26.60	-34.1	-35.3	29.1	3.04e+01	0	25	0	17301504	42	6333
2026-01-09 18:17:56.58	317.21	26.61	-33.7	-34.9	29.5	3.04e+01	0	25	0	22544384	42	6009
2026-01-09 18:17:59.61	316.11	26.62	-33.7	-34.9	29.5	3.04e+01	0	25	0	28311552	42	6045
2026-01-09 18:18:02.63	315.00	26.61	-34.5	-35.8	28.8	3.04e+01	0	25	0	34078720	42	6660
2026-01-09 18:18:05.66	313.90	26.59	-33.9	-35.1	29.3	3.04e+01	0	25	0	39845888	42	6161
2026-01-09 18:18:08.69	312.80	26.56	-33.6	-34.8	29.6	3.04e+01	0	25	0	45613056	42	5941
2026-01-09 18:18:11.71	311.70	26.52	-33.1	-34.3	29.9	3.04e+01	0	25	0	50855936	42	5624
2026-01-09 18:18:14.74	310.60	26.47	-33.4	-34.5	29.8	3.04e+01	0	25	0	56623104	42	5783
2026-01-09 18:18:17.77	309.51	26.40	-33.6	-34.8	29.3	3.04e+01	0	25	0	62390272	42	5949
2026-01-09 18:18:20.79	308.43	26.33	-34.3	-35.6	28.9	3.04e+01	0	25	0	68157440	42	6508
2026-01-09 18:18:23.82	307.34	26.25	-34.7	-36.0	28.4	3.04e+01	0	25	0	73924608	42	6879
2026-01-09 18:18:26.85	306.27	26.15	-34.4	-35.7	28.4	3.04e+01	0	25	0	79167488	42	6618
2026-01-09 18:18:29.87	305.20	26.05	-34.6	-36.0	28.4	3.04e+01	0	25	0	84934656	42	6808
2026-01-09 18:18:32.90	304.14	25.93	-34.1	-35.3	28.8	3.04e+01	0	25	0	90701824	42	6316
2026-01-09 18:18:35.93	303.09	25.80	-34.9	-36.2	28.3	3.04e+01	0	25	0	96468992	42	7009
2026-01-09 18:18:38.95	302.05	25.67	-34.9	-36.2	28.3	3.04e+01	0	25	0	102236160	44	6263
2026-01-09 18:18:41.98	301.01	25.53	-34.2	-35.4	28.7	3.04e+01	0	25	0	108003328	44	5704
2026-01-09 18:18:45.01	299.99	25.37	-33.7	-34.9	29.5	3.04e+01	0	25	0	113770496	42	6032
2026-01-09 18:18:48.04	298.97	25.21	-34.2	-35.5	28.9	3.04e+01	0	25	0	119013376	42	6443
2026-01-09 18:18:51.07	297.97	25.04	-34.8	-36.1	28.4	3.04e+01	0	25	0	124780544	42	6933
2026-01-09 18:18:54.09	296.98	24.87	-34.4	-35.6	28.7	3.04e+01	0	25	0	130547712	42	6554
2026-01-09 18:18:57.11	296.00	24.68	-34.3	-35.5	28.7	3.04e+01	0	25	0	136314880	44	5729
2026-01-09 18:19:00.14	295.04	24.49	-33.9	-35.0	29.3	3.04e+01	0	25	0	142082048	42	6122
2026-01-09 18:19:03.17	294.08	24.29	-35.4	-36.6	27.3	3.04e+01	0	25	0	147324928	46	5857
2026-01-09 18:19:06.19	293.14	24.09	-36.2	-37.6	26.8	3.04e+01	0	25	0	153092096	46	6571
2026-01-09 18:19:09.22	292.21	23.87	-36.9	-38.3	26.3	3.04e+01	0	25	0	158859264	46	7080
2026-01-09 18:19:12.25	291.30	23.66	-37.2	-38.6	26.2	3.04e+01	0	25	0	164626432	48	6521
2026-01-09 18:19:15.28	290.39	23.43	-36.2	-37.7	26.9	3.04e+01	0	25	0	170393600	46	6576
2026-01-09 18:19:18.30	289.51	23.20	-34.4	-35.6	28.8	3.04e+01	0	25	0	176160768	44	5821
2026-01-09 18:19:21.33	288.63	22.97	-34.9	-36.2	28.3	3.04e+01	0	25	0	181403648	44	6230
2026-01-09 18:19:24.36	287.77	22.73	-34.2	-35.4	28.7	3.04e+01	0	25	0	187170816	44	5707
2026-01-09 18:19:27.38	286.92	22.49	-34.6	-35.9	28.5	3.04e+01	0	25	0	192937984	44	6016
2026-01-09 18:19:30.41	286.09	22.25	-34.4	-35.6	28.6	3.04e+01	0	25	0	198705152	42	6541
2026-01-09 18:19:33.43	285.27	22.00	-34.5	-35.7	28.5	3.04e+01	0	25	0	204472320	44	5904
2026-01-09 18:19:36.46	284.47	21.75	-34.4	-35.7	28.7	3.04e+01	0	25	0	209715200	42	6582
2026-01-09 18:19:39.48	283.68	21.49	-34.1	-35.4	29.1	3.04e+01	0	25	0	215482368	42	6353
2026-01-09 18:19:42.50	282.90	21.23	-33.9	-35.0	29.3	3.04e+01	0	25	0	221249536	42	6134
2026-01-09 18:19:45.53	282.13	20.97	-34.0	-35.2	29.3	3.04e+01	0	25	0	227016704	42	6232
2026-01-09 18:19:48.56	281.38	20.71	-34.1	-35.3	29.1	3.04e+01	0	25	0	232783872	42	6342
2026-01-09 18:19:51.58	280.65	20.45	-34.5	-35.8	28.7	3.04e+01	0	25	0	238551040	42	6701
2026-01-09 18:19:54.61	279.92	20.18	-34.1	-35.4	28.9	3.04e+01	0	25	0	243793920	42	6370
2026-01-09 18:19:57.63	279.21	19.91	-34.0	-35.2	29.1	3.04e+01	0	25	0	249561088	42	6267
2026-01-09 18:20:00.66	278.51	19.65	-34.0	-35.2	29.1	3.04e+01	0	25	0	255328256	42	6260
2026-01-09 18:20:03.68	277.83	19.38	-34.2	-35.4	28.9	3.04e+01	0	25	0	261095424	42	6366
2026-01-09 18:20:06.71	277.16	19.11	-33.9	-35.2	29.2	3.04e+01	0	25	0	266862592	42	6213
2026-01-09 18:20:09.74	276.50	18.83	-33.9	-35.1	29.2	3.04e+01	0	25	0	272105472	42	6183
2026-01-09 18:20:12.76	275.85	18.56	-33.9	-35.1	29.1	3.04e+01	0	25	0	277872640	42	6190
2026-01-09 18:20:15.79	275.22	18.29	-33.7	-34.9	29.4	3.04e+01	0	25	0	283639808	42	6017
2026-01-09 18:20:18.81	274.60	18.02	-34.0	-35.2	29.0	3.04e+01	0	25	0	289406976	42	6277
2026-01-09 18:20:21.83	273.99	17.75	-33.6	-34.8	29.5	3.04e+01	0	25	0	295174144	42	5933
2026-01-09 18:20:24.86	273.39	17.48	-34.2	-35.4	28.9	3.04e+01	0	25	0	300941312	42	6404
2026-01-09 18:20:27.89	272.80	17.21	-33.7	-34.9	29.3	3.04e+01	0	25	0	306184192	42	6022
2026-01-09 18:20:30.92	272.22	16.93	-34.1	-35.4	28.9	3.04e+01	0	25	0	311951360	42	6368
2026-01-09 18:20:33.95	271.65	16.66	-33.7	-34.9	29.2	3.04e+01	0	25	0	317718528	42	6048
2026-01-09 18:20:36.97	271.10	16.39	-33.8	-35.0	29.2	3.04e+01	0	25	0	323485696	42	6080
2026-01-09 18:20:40.00	270.56	16.12	-33.9	-35.1	29.1	3.04e+01	0	25	0	329252864	42	6200
2026-01-09 18:20:43.03	270.02	15.86	-33.9	-35.1	29.1	3.04e+01	0	25	0	334495744	42	6189
2026-01-09 18:20:46.06	269.50	15.59	-33.8	-35.0	29.3	3.04e+01	0	25	0	340262912	42	6074
2026-01-09 18:20:49.09	268.98	15.32	-33.9	-35.2	29.0	3.04e+01	0	25	0	346030080	42	6219
2026-01-09 18:20:52.11	268.48	15.06	-33.9	-35.1	29.0	3.04e+01	0	25	0	351797248	42	6203
2026-01-09 18:20:55.13	267.99	14.79	-34.1	-35.3	28.9	3.04e+01	0	25	0	357564416	42	6322
2026-01-09 18:20:58.16	267.50	14.53	-34.0	-35.2	29.0	3.04e+01	0	25	0	363331584	42	6234
2026-01-09 18:21:01.19	267.03	14.27	-34.0	-35.2	29.0	3.04e+01	0	25	0	368574464	42	6218
2026-01-09 18:21:04.21	266.56	14.01	-34.0	-35.3	28.9	3.04e+01	0	25	0	374341632	42	6280
2026-01-09 18:21:07.24	266.10	13.75	-34.1	-35.4	28.8	3.04e+01	0	25	0	380108800	42	6368
2026-01-09 18:21:10.26	265.65	13.49	-34.2	-35.4	28.8	3.04e+01	0	25	0	385875968	42	6377
2026-01-09 18:21:13.29	265.21	13.23	-34.1	-35.4	28.7	3.04e+01	0	25	0	391643136	42	6384
2026-01-09 18:21:16.31	264.78	12.98	-34.2	-35.5	28.7	3.04e+01	0	25	0	397410304	42	6443
2026-01-09 18:21:19.34	264.36	12.72	-34.3	-35.5	28.6	3.04e+01	0	25	0	402653184	42	6459
2026-01-09 18:21:22.37	263.94	12.47	-34.3	-35.5	28.5	3.04e+01	0	25	0	408420352	42	6494
2026-01-09 18:21:25.40	263.53	12.22	-34.1	-35.4	28.7	3.04e+01	0	25	0	414187520	42	6373
2026-01-09 18:21:28.43	263.13	11.97	-34.1	-35.3	28.7	3.04e+01	0	25	0	419954688	42	6350
2026-01-09 18:21:31.46	262.73	11.72	-34.4	-35.6	28.4	3.04e+01	0	25	0	425721856	42	6572
2026-01-09 18:21:34.49	262.35	11.47	-34.4	-35.7	28.5	3.04e+01	0	25	0	430964736	42	6599
2026-01-09 18:21:37.51	261.97	11.23	-34.4	-35.6	28.6	3.04e+01	0	25	0	436731904	42	6536
2026-01-09 18:21:40.54	261.59	10.99	-34.4	-35.7	28.5	3.04e+01	0	25	0	442499072	42	6605
2026-01-09 18:21:43.56	261.23	10.74	-34.7	-35.9	28.4	3.04e+01	0	25	0	448266240	42	6783
2026-01-09 18:21:46.58	260.87	10.50	-34.8	-36.0	28.2	3.04e+01	0	25	0	454033408	42	6881
2026-01-09 18:21:49.61	260.52	10.27	-34.8	-36.0	28.2	3.04e+01	0	25	0	459800576	42	6870
2026-01-09 18:21:52.63	260.17	10.03	-34.6	-35.9	28.3	3.04e+01	0	25	0	465043456	42	6762
2026-01-09 18:21:55.66	259.83	9.79	-34.8	-36.1	28.2	3.04e+01	0	25	0	470810624	42	6884
2026-01-09 18:21:58.68	259.50	9.56	-34.9	-36.2	28.0	3.04e+01	0	25	0	476577792	44	6239
2026-01-09 18:22:01.70	259.17	9.33	-35.0	-36.3	27.8	3.04e+01	0	25	0	482344960	44	6304
2026-01-09 18:22:04.73	258.84	9.10	-35.1	-36.4	27.7	3.04e+01	0	25	0	488112128	44	6419
2026-01-09 18:22:07.76	258.53	8.87	-35.2	-36.5	27.7	3.04e+01	0	25	0	493879296	44	6456
2026-01-09 18:22:10.79	258.21	8.64	-35.1	-36.4	27.6	3.04e+01	0	25	0	499122176	44	6387
2026-01-09 18:22:13.81	257.91	8.41	-35.1	-36.4	27.7	3.04e+01	0	25	0	504889344	44	6352
2026-01-09 18:22:16.84	257.61	8.19	-35.0	-36.3	27.7	3.04e+01	0	25	0	510656512	44	6315
2026-01-09 18:22:19.87	257.31	7.97	-35.4	-36.7	27.3	3.04e+01	0	25	0	516423680	44	6605
2026-01-09 18:22:22.90	257.02	7.74	-35.4	-36.7	27.3	3.04e+01	0	25	0	522190848	44	6629
2026-01-09 18:22:25.92	256.73	7.52	-35.5	-36.8	27.2	3.04e+01	0	25	0	527433728	44	6702
2026-01-09 18:22:28.95	256.45	7.30	-35.4	-36.7	27.3	3.04e+01	0	25	0	533200896	44	6600
2026-01-09 18:22:31.97	256.17	7.09	-35.3	-36.6	27.4	3.04e+01	0	25	0	538968064	44	6519
2026-01-09 18:22:35.00	255.90	6.87	-35.5	-36.8	27.2	3.04e+01	0	25	0	544735232	44	6699
2026-01-09 18:22:38.02	255.63	6.66	-35.8	-37.1	26.9	3.04e+01	0	25	0	550502400	44	6941
2026-01-09 18:22:41.05	255.37	6.44	-35.8	-37.1	26.9	3.04e+01	0	25	0	556269568	46	6180
2026-01-09 18:22:44.07	255.11	6.23	-35.7	-37.1	26.9	3.04e+01	0	25	0	561512448	46	6148
2026-01-09 18:22:47.09	254.86	6.02	-35.9	-37.3	26.7	3.04e+01	0	25	0	567279616	46	6332
2026-01-09 18:22:50.12	254.61	5.81	-36.1	-37.5	26.5	3.04e+01	0	25	0	573046784	46	6424
2026-01-09 18:22:53.15	254.36	5.61	-36.1	-37.5	26.5	3.04e+01	0	25	0	578813952	46	6460
2026-01-09 18:22:56.17	254.12	5.40	-36.1	-37.5	26.4	3.04e+01	0	25	0	584581120	46	6482
2026-01-09 18:22:59.20	253.88	5.20	-36.2	-37.5	26.4	3.04e+01	0	25	0	590348288	46	6489
2026-01-09 18:23:02.22	253.64	4.99	-36.4	-37.8	26.1	3.04e+01	0	25	0	595591168	46	6681
2026-01-09 18:23:05.25	253.41	4.79	-36.1	-37.6	26.2	3.04e+01	0	25	0	601358336	46	6504
2026-01-09 18:23:08.28	253.18	4.59	-36.5	-37.9	25.9	3.04e+01	0	25	0	607125504	46	6786
2026-01-09 18:23:11.30	252.96	4.39	-36.5	-37.9	25.9	3.04e+01	0	25	0	612892672	46	6783
2026-01-09 18:23:14.33	252.74	4.19	-36.5	-38.0	25.8	3.04e+01	0	25	0	618659840	46	6845
2026-01-09 18:23:17.36	252.52	3.99	-36.5	-38.0	25.7	3.04e+01	0	25	0	623902720	46	6847
2026-01-09 18:23:20.38	252.30	3.80	-36.6	-38.1	25.6	3.04e+01	0	25	0	629669888	46	6919
2026-01-09 18:23:23.41	252.09	3.60	-36.8	-38.3	25.2	3.04e+01	0	25	0	635437056	48	6350
2026-01-09 18:23:26.44	251.88	3.41	-36.6	-38.1	25.5	3.04e+01	0	25	0	641204224	48	6165
2026-01-09 18:23:29.46	251.68	3.22	-36.9	-38.4	25.3	3.04e+01	0	25	0	646971392	48	6383
2026-01-09 18:23:32.48	251.48	3.03	-38.1	-39.9	9.6	3.04e+01	0	25	0	652214272	48	7587
2026-01-09 18:23:35.51	251.28	2.84	-47.7	-65.5	3.5	3.04e+01	0	25	104	652738560	60	72665
2026-01-09 18:23:38.54	251.08	2.65	-48.0	-65.8	3.5	3.04e+01	0	26	104	652738560	60	75422
2026-01-09 18:23:41.57	250.89	2.46	-48.0	-65.8	3.5	3.04e+01	0	25	104	652738560	60	75064
2026-01-09 18:23:44.60	250.70	2.27	-47.8	-65.7	3.5	3.04e+01	0	26	104	652738560	60	74038
2026-01-09 18:23:47.62	250.51	2.09	-47.8	-65.6	3.5	3.04e+01	0	25	104	652738560	60	73747
2026-01-09 18:23:50.65	250.33	1.90	-47.9	-65.7	3.5	3.04e+01	0	25	104	652738560	60	74219
2026-01-09 18:23:53.68	250.14	1.72	-47.8	-65.7	3.5	3.04e+01	0	25	104	652738560	60	74136
2026-01-09 18:23:56.71	249.96	1.54	-47.9	-65.7	3.5	3.04e+01	0	25	104	652738560	60	74316
2026-01-09 18:23:59.74	249.79	1.35	-47.9	-65.7	3.5	3.04e+01	0	25	104	652738560	60	74279
2026-01-09 18:24:02.76	249.61	1.17	-47.8	-65.7	3.5	3.04e+01	0	26	104	652738560	60	73888
2026-01-09 18:24:05.79	249.44	0.99	-47.8	-65.6	3.5	3.04e+01	0	26	104	652738560	60	73703
2026-01-09 18:24:08.82	249.27	0.82	-47.8	-65.7	3.5	3.04e+01	0	25	104	652738560	60	74098
2026-01-09 18:24:11.85	249.10	0.64	-47.8	-65.6	3.5	3.04e+01	0	26	104	652738560	60	73652
2026-01-09 18:24:14.89	248.94	0.46	-47.8	-65.7	3.5	3.04e+01	0	25	104	652738560	60	74009
2026-01-09 18:24:17.92	248.77	0.29	-47.8	-65.7	3.5	3.04e+01	0	25	104	652738560	60	73969
2026-01-09 18:24:20.94	248.61	0.11	-47.8	-65.7	3.5	3.04e+01	0	25	104	652738560	60	74065

#Closed at: 2026-01-09 18:24:23
#Recorded file [652 MB]: D:/lorett/data/35029_260110_061135.dat