passes_logs/2026/01/09/R4.6S_Anadyr/R4.6S_Anadyr__20260109_025403_SUOMI_NPP_rec.log

#Pass ID: 20260109_025403_SUOMI NPP
#Satellite: SUOMI NPP
#Configuration: NPP
#almurnet v.1.7.20251203
#Start time: 2026-01-09 02:54:04

#Version: 2.2.20231116
#Station: R4.6S_Anadyr
#Location: 177.4865 lon 64.73178 lat
#TLE: 1 37849U 11061A   26008.05542337  .00000108  00000+0  71976-4 0  9997
#TLE: 2 37849  98.7805 310.1641 0002540  75.6410 284.5048 14.19523335735721

#Time	Az	El	Level	Level2	SNR	BER	BlckErr	Temp	State	Recorded	gain1	gain2
2026-01-09 02:54:04.14	225.46	0.03	-48.0	-59.7	3.4	8.45e-01	0	30	0	0	60	34837
2026-01-09 02:54:08.18	225.79	0.22	-48.1	-63.3	3.6	1.51e+00	0	31	104	0	60	53093
2026-01-09 02:54:12.21	226.12	0.41	-48.2	-63.4	3.6	1.51e+00	0	32	104	0	60	53530
2026-01-09 02:54:16.26	226.45	0.61	-48.0	-63.3	3.6	1.51e+00	0	32	104	0	60	52779
2026-01-09 02:54:20.30	226.79	0.80	-47.3	-62.4	3.6	1.51e+00	0	32	104	0	60	47870
2026-01-09 02:54:24.34	227.13	0.99	-45.4	-60.5	3.6	1.51e+00	0	32	104	0	60	38407
2026-01-09 02:54:28.37	227.48	1.18	-45.4	-60.5	3.6	1.51e+00	0	32	104	0	60	38422
2026-01-09 02:54:32.41	227.83	1.37	-45.4	-60.5	3.6	1.51e+00	0	32	104	0	60	38357
2026-01-09 02:54:36.45	228.18	1.57	-45.3	-60.5	3.6	1.51e+00	0	32	104	0	60	38377
2026-01-09 02:54:40.49	228.54	1.76	-45.4	-60.5	3.6	1.51e+00	0	32	104	0	60	38465
2026-01-09 02:54:44.53	228.91	1.96	-45.3	-60.5	3.6	1.51e+00	0	32	104	0	60	38275
2026-01-09 02:54:48.57	229.27	2.15	-45.3	-60.5	3.6	1.51e+00	0	32	104	0	60	38388
2026-01-09 02:54:52.61	229.65	2.35	-45.3	-60.4	3.6	1.51e+00	0	32	104	0	60	37848
2026-01-09 02:54:56.65	230.02	2.54	-45.3	-60.4	3.6	1.51e+00	0	32	104	0	60	37668
2026-01-09 02:55:00.68	230.41	2.74	-45.3	-59.8	3.6	1.51e+00	0	32	104	0	60	35307
2026-01-09 02:55:04.72	230.79	2.93	-45.2	-57.5	3.7	1.47e+00	0	32	104	0	60	27109
2026-01-09 02:55:08.76	231.19	3.13	-45.2	-59.1	3.6	1.50e+00	0	32	104	0	60	32619
2026-01-09 02:55:12.79	231.58	3.33	-45.5	-57.8	3.7	1.49e+00	0	32	104	0	60	27966
2026-01-09 02:55:16.83	231.99	3.52	-45.5	-57.9	3.9	1.49e+00	0	33	104	0	60	28325
2026-01-09 02:55:20.87	232.39	3.72	-45.7	-58.1	3.9	1.48e+00	0	32	104	0	60	29120
2026-01-09 02:55:24.91	232.81	3.92	-45.9	-58.2	3.8	1.47e+00	0	32	104	0	60	29539
2026-01-09 02:55:28.94	233.22	4.12	-45.9	-58.3	3.9	1.45e+00	0	33	104	0	60	29636
2026-01-09 02:55:32.98	233.65	4.32	-46.0	-57.9	3.8	1.42e+00	0	32	0	0	60	28236
2026-01-09 02:55:37.01	234.08	4.51	-46.1	-56.2	4.0	1.35e+00	86	33	0	1048576	60	23284
2026-01-09 02:55:41.05	234.51	4.71	-46.1	-55.8	4.1	1.08e+00	2	33	0	8388608	60	22188
2026-01-09 02:55:45.08	234.95	4.91	-46.2	-55.7	4.2	9.16e-01	0	33	0	15728640	60	22042
2026-01-09 02:55:49.11	235.40	5.11	-46.2	-55.4	4.4	8.52e-01	0	33	0	23068672	60	21403
2026-01-09 02:55:53.15	235.85	5.31	-46.2	-55.0	4.7	6.95e-01	0	33	0	30408704	60	20425
2026-01-09 02:55:57.18	236.31	5.51	-46.2	-54.6	5.1	5.39e-01	0	33	0	37748736	60	19456
2026-01-09 02:56:01.22	236.77	5.70	-46.2	-53.9	5.9	3.21e-01	0	33	0	46137344	60	17962
2026-01-09 02:56:05.26	237.24	5.90	-46.0	-53.1	6.9	1.76e-01	0	33	0	53477376	60	16280
2026-01-09 02:56:09.29	237.72	6.10	-45.9	-52.4	7.7	1.02e-01	0	33	0	60817408	60	15136
2026-01-09 02:56:13.33	238.20	6.30	-45.6	-51.4	8.9	2.96e-02	0	33	0	68157440	60	13505
2026-01-09 02:56:17.37	238.69	6.50	-45.2	-50.1	10.5	4.33e-03	0	33	0	76546048	60	11550
2026-01-09 02:56:21.41	239.19	6.70	-44.7	-48.9	11.8	3.06e-04	0	33	0	83886080	60	10081
2026-01-09 02:56:25.45	239.69	6.89	-44.2	-47.7	13.3	1.90e-05	0	33	0	91226112	60	8723
2026-01-09 02:56:29.49	240.20	7.09	-43.7	-46.9	14.1	2.20e-06	0	33	0	98566144	60	7958
2026-01-09 02:56:33.52	240.71	7.29	-43.3	-46.0	15.0	0.00e+00	0	33	0	105906176	60	7223
2026-01-09 02:56:37.56	241.23	7.48	-42.5	-44.8	16.3	0.00e+00	0	33	0	114294784	58	7064
2026-01-09 02:56:41.60	241.76	7.68	-42.1	-44.3	16.8	0.00e+00	0	33	0	121634816	58	6630
2026-01-09 02:56:45.63	242.30	7.88	-41.6	-43.5	17.5	0.00e+00	0	33	0	128974848	56	6801
2026-01-09 02:56:49.67	242.84	8.07	-41.0	-42.7	18.4	0.00e+00	0	33	0	136314880	56	6199
2026-01-09 02:56:53.71	243.39	8.26	-40.3	-41.9	19.1	0.00e+00	0	33	0	144703488	54	6325
2026-01-09 02:56:57.75	243.95	8.46	-39.6	-40.9	20.0	0.00e+00	0	33	0	152043520	52	6381
2026-01-09 02:57:01.78	244.51	8.65	-39.0	-40.3	20.7	0.00e+00	0	33	0	159383552	52	5900
2026-01-09 02:57:05.81	245.08	8.84	-38.5	-39.7	21.3	0.00e+00	0	33	0	166723584	50	6207
2026-01-09 02:57:09.84	245.66	9.03	-37.7	-38.7	22.1	0.00e+00	0	33	0	174063616	48	6203
2026-01-09 02:57:13.88	246.24	9.22	-37.1	-38.1	22.6	0.00e+00	0	33	0	182452224	48	5796
2026-01-09 02:57:17.91	246.84	9.41	-37.4	-38.4	22.5	0.00e+00	0	33	0	189792256	48	5996
2026-01-09 02:57:21.94	247.43	9.60	-37.5	-38.5	22.4	0.00e+00	0	33	0	197132288	48	6050
2026-01-09 02:57:25.98	248.04	9.78	-37.0	-38.0	22.8	0.00e+00	0	33	0	204472320	48	5721
2026-01-09 02:57:30.02	248.66	9.96	-37.2	-38.1	22.7	0.00e+00	0	33	0	211812352	48	5808
2026-01-09 02:57:34.06	249.28	10.15	-37.3	-38.3	22.7	0.00e+00	0	33	0	220200960	48	5923
2026-01-09 02:57:38.10	249.91	10.33	-37.2	-38.1	22.7	0.00e+00	0	33	0	227540992	48	5810
2026-01-09 02:57:42.13	250.55	10.51	-37.2	-38.1	22.8	0.00e+00	0	33	0	234881024	48	5799
2026-01-09 02:57:46.17	251.19	10.68	-37.0	-37.9	22.9	0.00e+00	0	33	0	242221056	48	5679
2026-01-09 02:57:50.21	251.85	10.86	-37.1	-38.0	22.9	0.00e+00	0	33	0	250609664	48	5721
2026-01-09 02:57:54.25	252.51	11.03	-37.5	-38.5	22.5	0.00e+00	0	33	0	257949696	48	6057
2026-01-09 02:57:58.29	253.18	11.20	-37.4	-38.4	22.6	0.00e+00	0	33	0	265289728	48	5994
2026-01-09 02:58:02.32	253.85	11.37	-37.4	-38.4	22.5	0.00e+00	0	33	0	272629760	48	5995
2026-01-09 02:58:06.36	254.53	11.54	-37.8	-38.8	22.2	0.00e+00	0	33	0	279969792	48	6304
2026-01-09 02:58:10.39	255.22	11.70	-37.6	-38.6	22.4	0.00e+00	0	33	0	288358400	48	6139
2026-01-09 02:58:14.43	255.92	11.86	-37.8	-38.8	22.3	0.00e+00	0	33	0	295698432	48	6251
2026-01-09 02:58:18.47	256.63	12.02	-38.0	-39.0	22.1	0.00e+00	0	33	0	303038464	48	6424
2026-01-09 02:58:22.51	257.34	12.18	-38.4	-39.5	21.8	0.00e+00	0	33	0	310378496	48	6786
2026-01-09 02:58:26.54	258.06	12.33	-38.4	-39.5	21.7	0.00e+00	0	33	0	318767104	48	6806
2026-01-09 02:58:30.58	258.78	12.48	-38.8	-39.9	21.4	0.00e+00	0	33	0	326107136	50	6341
2026-01-09 02:58:34.62	259.52	12.62	-39.2	-40.4	21.1	0.00e+00	0	33	0	333447168	50	6701
2026-01-09 02:58:38.65	260.26	12.77	-38.9	-40.0	21.3	0.00e+00	0	33	0	340787200	50	6457
2026-01-09 02:58:42.69	261.00	12.90	-39.3	-40.5	21.0	0.00e+00	0	33	0	348127232	50	6783
2026-01-09 02:58:46.72	261.76	13.04	-38.9	-40.1	21.2	0.00e+00	0	33	0	356515840	50	6486
2026-01-09 02:58:50.76	262.52	13.17	-39.1	-40.3	21.0	0.00e+00	0	33	0	363855872	50	6667
2026-01-09 02:58:54.79	263.28	13.30	-39.2	-40.4	21.0	0.00e+00	0	33	0	371195904	50	6720
2026-01-09 02:58:58.83	264.06	13.42	-39.0	-40.1	21.3	0.00e+00	0	33	0	378535936	50	6482
2026-01-09 02:59:02.86	264.84	13.54	-39.0	-40.2	21.1	0.00e+00	0	33	0	386924544	52	5839
2026-01-09 02:59:06.90	265.62	13.65	-38.4	-39.5	21.8	0.00e+00	0	33	0	394264576	50	6068
2026-01-09 02:59:10.94	266.41	13.76	-37.2	-38.1	22.9	0.00e+00	0	33	0	401604608	48	5799
2026-01-09 02:59:14.98	267.21	13.87	-37.2	-38.2	22.7	0.00e+00	0	33	0	408944640	48	5853
2026-01-09 02:59:19.01	268.01	13.97	-37.6	-38.6	22.5	0.00e+00	0	33	0	416284672	48	6134
2026-01-09 02:59:23.05	268.82	14.07	-36.7	-37.6	23.4	0.00e+00	0	33	0	424673280	46	6106
2026-01-09 02:59:27.09	269.63	14.16	-37.5	-38.5	22.5	0.00e+00	0	33	0	432013312	46	6776
2026-01-09 02:59:31.12	270.45	14.24	-37.1	-38.1	23.0	0.00e+00	0	33	0	439353344	46	6470
2026-01-09 02:59:35.16	271.27	14.33	-37.9	-38.9	22.3	0.00e+00	0	33	0	446693376	48	6331
2026-01-09 02:59:39.20	272.10	14.40	-37.9	-38.9	22.4	0.00e+00	0	33	0	454033408	48	6329
2026-01-09 02:59:43.24	272.93	14.47	-38.5	-39.6	21.7	0.00e+00	0	33	0	462422016	48	6855
2026-01-09 02:59:47.27	273.76	14.54	-39.2	-40.3	21.1	0.00e+00	0	33	0	469762048	50	6682
2026-01-09 02:59:51.31	274.60	14.60	-37.5	-38.5	22.7	0.00e+00	0	33	0	477102080	48	6051
2026-01-09 02:59:55.34	275.43	14.65	-38.5	-39.5	21.8	0.00e+00	0	33	0	484442112	48	6848
2026-01-09 02:59:59.37	276.27	14.70	-37.3	-38.2	22.8	0.00e+00	0	33	0	492830720	48	5896
2026-01-09 03:00:03.41	277.12	14.74	-37.5	-38.5	22.7	0.00e+00	0	33	0	500170752	48	6040
2026-01-09 03:00:07.45	277.97	14.78	-36.7	-37.6	23.3	0.00e+00	0	33	0	507510784	46	6147
2026-01-09 03:00:11.48	278.81	14.81	-37.4	-38.4	22.7	0.00e+00	0	33	0	514850816	46	6724
2026-01-09 03:00:15.51	279.66	14.84	-37.2	-38.1	22.9	0.00e+00	0	33	0	522190848	46	6500
2026-01-09 03:00:19.55	280.52	14.86	-37.2	-38.1	22.9	0.00e+00	0	33	0	530579456	46	6503
2026-01-09 03:00:23.59	281.37	14.87	-37.8	-38.8	22.4	0.00e+00	0	33	0	537919488	48	6292
2026-01-09 03:00:27.62	282.22	14.88	-37.7	-38.7	22.5	0.00e+00	0	33	0	545259520	48	6183
2026-01-09 03:00:31.66	283.07	14.88	-37.4	-38.3	22.8	0.00e+00	0	33	0	552599552	48	5951
2026-01-09 03:00:35.70	283.93	14.88	-37.8	-38.8	22.3	0.00e+00	0	33	0	559939584	48	6284
2026-01-09 03:00:39.73	284.78	14.87	-37.6	-38.6	22.5	0.00e+00	0	33	0	568328192	48	6150
2026-01-09 03:00:43.77	285.63	14.85	-37.2	-38.1	22.9	0.00e+00	0	33	0	575668224	46	6520
2026-01-09 03:00:47.81	286.48	14.83	-37.4	-38.3	22.6	0.00e+00	0	33	0	583008256	46	6688
2026-01-09 03:00:51.84	287.33	14.80	-36.9	-37.8	22.9	0.00e+00	0	33	0	590348288	46	6308
2026-01-09 03:00:55.88	288.18	14.77	-37.0	-37.9	23.0	0.00e+00	0	33	0	598736896	46	6367
2026-01-09 03:00:59.92	289.02	14.73	-36.1	-36.9	23.8	0.00e+00	0	33	0	606076928	46	5665
2026-01-09 03:01:03.95	289.87	14.69	-36.4	-37.3	23.6	0.00e+00	0	33	0	613416960	46	5938
2026-01-09 03:01:07.99	290.71	14.64	-36.9	-37.9	23.2	0.00e+00	0	33	0	620756992	46	6340
2026-01-09 03:01:12.02	291.54	14.58	-36.7	-37.6	23.3	0.00e+00	0	33	0	628097024	46	6159
2026-01-09 03:01:16.06	292.38	14.52	-37.0	-37.9	23.1	0.00e+00	0	33	0	636485632	46	6336
2026-01-09 03:01:20.09	293.21	14.46	-37.3	-38.2	22.8	0.00e+00	0	33	0	643825664	46	6595
2026-01-09 03:01:24.13	294.03	14.38	-37.2	-38.1	22.9	0.00e+00	0	33	0	651165696	46	6511
2026-01-09 03:01:28.17	294.86	14.31	-36.6	-37.5	23.1	0.00e+00	0	33	0	658505728	46	6036
2026-01-09 03:01:32.20	295.67	14.22	-36.2	-37.0	23.7	0.00e+00	0	33	0	666894336	46	5743
2026-01-09 03:01:36.24	296.49	14.14	-35.8	-36.6	24.1	0.00e+00	0	33	0	674234368	44	6168
2026-01-09 03:01:40.28	297.30	14.04	-35.8	-36.6	24.1	0.00e+00	0	33	0	681574400	44	6132
2026-01-09 03:01:44.31	298.10	13.95	-35.7	-36.6	24.1	0.00e+00	0	33	0	688914432	44	6115
2026-01-09 03:01:48.35	298.90	13.85	-36.5	-37.3	23.6	0.00e+00	0	33	0	696254464	44	6688
2026-01-09 03:01:52.39	299.69	13.74	-36.8	-37.7	23.3	0.00e+00	0	32	0	704643072	46	6183
2026-01-09 03:01:56.42	300.48	13.63	-36.3	-37.2	23.6	0.00e+00	0	33	0	711983104	46	5852
2026-01-09 03:02:00.46	301.26	13.51	-35.9	-36.7	24.0	0.00e+00	0	33	0	719323136	46	5562
2026-01-09 03:02:04.49	302.04	13.39	-35.4	-36.2	24.4	0.00e+00	0	33	0	726663168	44	5842
2026-01-09 03:02:08.53	302.81	13.27	-35.3	-36.2	24.3	0.00e+00	0	32	0	734003200	44	5833
2026-01-09 03:02:12.56	303.57	13.14	-35.7	-36.5	24.1	0.00e+00	0	33	0	742391808	44	6060
2026-01-09 03:02:16.60	304.32	13.01	-36.0	-36.9	23.8	0.00e+00	0	33	0	749731840	44	6356
2026-01-09 03:02:20.64	305.07	12.88	-36.0	-36.9	23.8	0.00e+00	0	33	0	757071872	44	6358
2026-01-09 03:02:24.67	305.82	12.74	-35.9	-36.7	23.9	0.00e+00	0	33	0	764411904	44	6236
2026-01-09 03:02:28.71	306.55	12.60	-36.0	-36.9	23.8	0.00e+00	0	33	0	772800512	44	6328
2026-01-09 03:02:32.75	307.28	12.45	-36.0	-36.9	23.8	0.00e+00	0	32	0	780140544	44	6336
2026-01-09 03:02:36.78	308.00	12.30	-36.8	-37.7	23.2	0.00e+00	0	33	0	787480576	46	6199
2026-01-09 03:02:40.82	308.72	12.15	-37.5	-38.5	22.4	0.00e+00	0	33	0	794820608	46	6835
2026-01-09 03:02:44.85	309.42	12.00	-37.2	-38.1	22.8	0.00e+00	0	33	0	802160640	48	5822
2026-01-09 03:02:48.88	310.12	11.84	-37.7	-38.8	22.3	0.00e+00	0	33	0	810549248	48	6254
2026-01-09 03:02:52.92	310.82	11.68	-38.3	-39.4	21.7	0.00e+00	0	33	0	817889280	48	6762
2026-01-09 03:02:56.96	311.50	11.51	-38.1	-39.1	21.9	0.00e+00	0	33	0	825229312	48	6525
2026-01-09 03:03:01.00	312.18	11.35	-38.7	-39.8	21.3	0.00e+00	0	33	0	832569344	48	7079
2026-01-09 03:03:05.03	312.85	11.18	-37.6	-38.6	22.4	0.00e+00	0	33	0	840957952	48	6123
2026-01-09 03:03:09.07	313.52	11.01	-37.8	-38.9	22.1	0.00e+00	0	33	0	848297984	48	6338
2026-01-09 03:03:13.11	314.17	10.84	-38.9	-40.1	21.1	0.00e+00	0	33	0	855638016	50	6492
2026-01-09 03:03:17.15	314.82	10.66	-39.0	-40.2	20.9	0.00e+00	0	33	0	862978048	50	6585
2026-01-09 03:03:21.19	315.46	10.49	-38.8	-39.9	21.2	0.00e+00	0	33	0	870318080	50	6388
2026-01-09 03:03:25.22	316.09	10.31	-38.4	-39.5	21.6	0.00e+00	0	33	0	878706688	50	6067
2026-01-09 03:03:29.26	316.72	10.13	-38.5	-39.7	21.4	0.00e+00	0	33	0	886046720	50	6179
2026-01-09 03:03:33.29	317.34	9.95	-38.4	-39.5	21.6	0.00e+00	0	33	0	893386752	50	6051
2026-01-09 03:03:37.33	317.95	9.77	-37.6	-38.7	22.2	0.00e+00	0	33	0	900726784	48	6179
2026-01-09 03:03:41.37	318.55	9.58	-38.1	-39.2	21.8	0.00e+00	0	33	0	909115392	48	6552
2026-01-09 03:03:45.41	319.15	9.40	-39.2	-40.4	20.8	0.00e+00	0	33	0	916455424	50	6732
2026-01-09 03:03:49.44	319.74	9.21	-38.8	-40.0	21.1	0.00e+00	0	33	0	923795456	50	6426
2026-01-09 03:03:53.47	320.32	9.02	-38.2	-39.3	21.7	0.00e+00	0	33	0	931135488	50	5924
2026-01-09 03:03:57.51	320.89	8.83	-38.2	-39.4	21.7	0.00e+00	0	33	0	938475520	50	5971
2026-01-09 03:04:01.54	321.46	8.64	-37.8	-38.8	22.0	0.00e+00	0	33	0	946864128	48	6316
2026-01-09 03:04:05.58	322.02	8.45	-37.8	-38.8	21.9	0.00e+00	0	33	0	954204160	48	6282
2026-01-09 03:04:09.61	322.57	8.26	-38.2	-39.3	21.6	0.00e+00	0	33	0	961544192	48	6639
2026-01-09 03:04:13.65	323.12	8.07	-37.9	-39.0	21.9	0.00e+00	0	33	0	968884224	48	6392
2026-01-09 03:04:17.69	323.66	7.88	-37.7	-38.8	22.0	0.00e+00	0	33	0	976224256	48	6253
2026-01-09 03:04:21.73	324.19	7.68	-37.8	-38.9	21.7	0.00e+00	0	33	0	984612864	48	6357
2026-01-09 03:04:25.77	324.72	7.49	-38.1	-39.2	21.6	0.00e+00	0	33	0	991952896	48	6585
2026-01-09 03:04:29.81	325.24	7.29	-38.3	-39.5	21.4	0.00e+00	0	33	0	999292928	48	6780
2026-01-09 03:04:33.85	325.75	7.10	-38.1	-39.2	21.5	0.00e+00	0	33	0	1006632960	48	6609
2026-01-09 03:04:37.88	326.25	6.90	-38.2	-39.4	21.4	0.00e+00	0	33	0	1015021568	48	6700
2026-01-09 03:04:41.92	326.75	6.71	-38.3	-39.5	21.2	0.00e+00	0	33	0	1022361600	48	6787
2026-01-09 03:04:45.96	327.25	6.51	-38.0	-39.2	21.6	0.00e+00	0	33	0	1029701632	48	6540
2026-01-09 03:04:49.99	327.73	6.32	-38.4	-39.6	21.1	0.00e+00	0	33	0	1037041664	48	6892
2026-01-09 03:04:54.03	328.21	6.12	-38.8	-40.0	20.7	0.00e+00	0	32	0	1044381696	50	6461
2026-01-09 03:04:58.07	328.69	5.92	-38.7	-39.9	20.8	0.00e+00	0	33	0	1052770304	50	6374
2026-01-09 03:05:02.11	329.16	5.73	-38.6	-39.8	20.8	0.00e+00	0	33	0	1060110336	50	6293
2026-01-09 03:05:06.14	329.62	5.53	-38.4	-39.6	21.0	0.00e+00	0	33	0	1067450368	50	6155
2026-01-09 03:05:10.18	330.07	5.33	-38.6	-39.8	20.9	0.00e+00	0	33	0	1074790400	50	6285
2026-01-09 03:05:14.21	330.52	5.14	-38.6	-39.9	20.7	0.00e+00	0	33	0	1083179008	50	6341
2026-01-09 03:05:18.26	330.97	4.94	-39.2	-40.6	20.0	0.00e+00	0	33	0	1090519040	50	6894
2026-01-09 03:05:22.30	331.41	4.74	-39.6	-41.0	19.4	0.00e+00	0	33	0	1097859072	50	7242
2026-01-09 03:05:26.34	331.84	4.55	-40.6	-42.4	17.9	0.00e+00	0	33	0	1105199104	52	7554
2026-01-09 03:05:30.37	332.27	4.35	-41.6	-44.3	14.9	0.00e+00	0	33	0	1112539136	54	8414
2026-01-09 03:05:34.40	332.69	4.15	-42.7	-48.5	8.7	1.67e-02	0	33	0	1120927744	56	12159
2026-01-09 03:05:38.44	333.11	3.96	-42.8	-53.2	3.8	1.17e+00	0	33	0	1127219200	58	18537
2026-01-09 03:05:42.47	333.52	3.76	-42.8	-57.0	3.6	1.51e+00	0	33	104	1127219200	58	28741
2026-01-09 03:05:46.51	333.92	3.57	-42.8	-57.8	3.6	1.51e+00	0	33	104	1127219200	58	31472
2026-01-09 03:05:50.55	334.33	3.37	-42.8	-57.9	3.6	1.51e+00	0	33	104	1127219200	58	31828
2026-01-09 03:05:54.59	334.72	3.18	-42.8	-57.9	3.6	1.51e+00	0	33	104	1127219200	58	31790
2026-01-09 03:05:58.62	335.11	2.98	-42.8	-57.9	3.6	1.51e+00	0	33	104	1127219200	58	31873
2026-01-09 03:06:02.66	335.50	2.79	-48.0	-63.2	3.6	1.51e+00	0	33	104	1127219200	60	52084
2026-01-09 03:06:06.70	335.88	2.59	-48.2	-63.4	3.6	1.51e+00	0	33	104	1127219200	60	53535
2026-01-09 03:06:10.74	336.26	2.40	-48.0	-63.3	3.6	1.51e+00	0	33	104	1127219200	60	53120
2026-01-09 03:06:14.78	336.63	2.21	-48.3	-63.5	3.6	1.51e+00	0	33	104	1127219200	60	53773
2026-01-09 03:06:18.81	337.00	2.02	-48.1	-63.3	3.6	1.51e+00	0	33	104	1127219200	60	52970
2026-01-09 03:06:22.85	337.36	1.82	-48.1	-63.4	3.6	1.51e+00	0	33	104	1127219200	60	53166
2026-01-09 03:06:26.89	337.72	1.63	-48.1	-63.3	3.6	1.51e+00	0	33	104	1127219200	60	52839
2026-01-09 03:06:30.93	338.08	1.44	-48.1	-63.3	3.6	1.51e+00	0	33	104	1127219200	60	53040
2026-01-09 03:06:34.97	338.43	1.25	-48.1	-63.2	3.6	1.51e+00	0	33	104	1127219200	60	52453
2026-01-09 03:06:39.01	338.77	1.06	-48.0	-63.2	3.6	1.51e+00	0	33	104	1127219200	60	52365
2026-01-09 03:06:43.05	339.12	0.87	-48.1	-63.2	3.6	1.51e+00	0	33	104	1127219200	60	52420
2026-01-09 03:06:47.09	339.45	0.68	-48.1	-63.3	3.6	1.51e+00	0	33	104	1127219200	60	52742
2026-01-09 03:06:51.13	339.79	0.49	-48.1	-63.3	3.6	1.51e+00	0	33	104	1127219200	60	52935
2026-01-09 03:06:55.17	340.12	0.30	-48.1	-63.2	3.6	1.51e+00	0	33	104	1127219200	60	52360
2026-01-09 03:06:59.21	340.45	0.11	-48.1	-63.2	3.6	1.51e+00	0	33	104	1127219200	60	52351

#Closed at: 2026-01-09 03:07:02
#Recorded file [1127 MB]: D:/lorett/data/35029_260109_145404.dat