passes_logs/2026/01/09/R4.6S_Anadyr/R4.6S_Anadyr__20260109_225958_AQUA_rec.log

#Pass ID: 20260109_225958_AQUA
#Satellite: AQUA
#Configuration: AQUA
#almurnet v.1.7.20251203
#Start time: 2026-01-09 23:00:00

#Version: 2.2.20231116
#Station: R4.6S_Anadyr
#Location: 177.4865 lon 64.73178 lat
#TLE: 1 27424U 02022A   26009.00333547  .00001046  00000+0  21942-3 0  9998
#TLE: 2 27424  98.4075 335.3304 0002026  85.7625 349.1392 14.61808998260012

#Time	Az	El	Level	Level2	SNR	BER	BlckErr	Temp	State	Recorded	gain1	gain2
2026-01-09 23:00:00.90	83.58	0.12	-47.8	-60.4	3.5	1.52e+00	0	23	0	0	60	36623
2026-01-09 23:00:03.83	83.35	0.27	-48.2	-66.1	3.5	3.03e+01	0	24	104	0	60	77824
2026-01-09 23:00:06.77	83.11	0.43	-48.2	-66.1	3.5	3.03e+01	0	24	104	0	60	77747
2026-01-09 23:00:09.70	82.88	0.58	-48.3	-66.1	3.5	3.03e+01	0	24	104	0	60	78009
2026-01-09 23:00:12.63	82.64	0.73	-48.1	-66.1	3.5	3.03e+01	0	24	104	0	60	77321
2026-01-09 23:00:15.57	82.39	0.89	-46.4	-65.9	3.5	3.03e+01	0	24	104	0	60	75519
2026-01-09 23:00:18.50	82.15	1.04	-46.7	-64.8	3.5	3.03e+01	0	24	104	0	60	66744
2026-01-09 23:00:21.43	81.90	1.20	-46.6	-64.5	3.5	3.03e+01	0	24	104	0	60	64623
2026-01-09 23:00:24.37	81.65	1.35	-46.6	-64.5	3.5	3.03e+01	0	24	104	0	60	64356
2026-01-09 23:00:27.30	81.40	1.51	-46.6	-64.5	3.5	3.03e+01	0	24	104	0	60	64459
2026-01-09 23:00:30.23	81.14	1.66	-46.6	-64.5	3.5	3.03e+01	0	24	104	0	60	64582
2026-01-09 23:00:33.16	80.88	1.82	-46.6	-64.5	3.5	3.03e+01	0	24	104	0	60	64321
2026-01-09 23:00:36.09	80.62	1.97	-46.6	-64.5	3.5	3.03e+01	0	25	104	0	60	64645
2026-01-09 23:00:39.02	80.35	2.13	-46.6	-64.5	3.5	3.03e+01	0	24	104	0	60	64334
2026-01-09 23:00:41.96	80.08	2.29	-46.6	-64.2	3.5	3.03e+01	0	24	104	0	60	62671
2026-01-09 23:00:44.89	79.81	2.45	-46.5	-64.3	3.5	3.03e+01	0	24	104	0	60	62850
2026-01-09 23:00:47.82	79.53	2.61	-46.6	-64.4	3.5	3.03e+01	0	24	104	0	60	63656
2026-01-09 23:00:50.76	79.25	2.76	-46.6	-64.3	3.5	3.03e+01	0	24	104	0	60	63370
2026-01-09 23:00:53.69	78.97	2.92	-46.5	-63.7	3.5	3.03e+01	0	24	104	0	60	58739
2026-01-09 23:00:56.62	78.68	3.08	-44.6	-57.9	3.5	3.03e+01	0	25	104	0	60	30065
2026-01-09 23:00:59.55	78.39	3.24	-46.7	-63.5	3.5	3.03e+01	0	24	104	0	60	57615
2026-01-09 23:01:02.48	78.10	3.40	-38.5	-49.2	3.5	3.03e+01	0	24	104	0	56	13942
2026-01-09 23:01:05.41	77.80	3.56	-37.8	-48.4	3.5	3.03e+01	0	25	104	0	50	17926
2026-01-09 23:01:08.34	77.50	3.73	-36.9	-47.4	3.6	3.03e+01	0	25	104	0	50	15997
2026-01-09 23:01:11.27	77.19	3.89	-45.0	-59.0	3.5	3.03e+01	0	25	104	0	60	34366
2026-01-09 23:01:14.21	76.88	4.05	-39.4	-50.2	3.5	3.03e+01	0	24	104	0	54	17558
2026-01-09 23:01:17.14	76.57	4.21	-38.2	-48.8	3.6	3.03e+01	0	25	104	0	52	16808
2026-01-09 23:01:20.07	76.26	4.37	-46.6	-64.2	3.5	3.03e+01	0	24	104	0	60	62708
2026-01-09 23:01:23.00	75.94	4.54	-39.4	-50.1	3.5	3.03e+01	0	25	104	0	54	17474
2026-01-09 23:01:25.93	75.61	4.70	-38.8	-49.5	3.6	3.03e+01	0	24	104	0	52	18129
2026-01-09 23:01:28.86	75.28	4.86	-45.6	-59.7	3.5	3.03e+01	0	24	104	0	60	37213
2026-01-09 23:01:31.80	74.95	5.03	-40.2	-51.0	3.6	3.03e+01	0	25	104	0	56	17229
2026-01-09 23:01:34.73	74.61	5.19	-37.6	-48.1	3.6	3.03e+01	0	24	104	0	50	17408
2026-01-09 23:01:37.66	74.27	5.35	-43.5	-55.8	3.5	3.03e+01	0	25	104	0	54	33657
2026-01-09 23:01:40.60	73.93	5.52	-43.1	-54.9	3.6	3.03e+01	0	25	104	0	60	21472
2026-01-09 23:01:43.52	73.58	5.68	-41.3	-52.5	3.5	3.03e+01	0	25	104	0	58	18257
2026-01-09 23:01:46.45	73.22	5.85	-37.9	-48.6	3.5	3.03e+01	0	25	104	0	52	16363
2026-01-09 23:01:49.38	72.87	6.01	-44.2	-62.8	3.5	3.03e+01	0	25	104	0	60	52936
2026-01-09 23:01:52.31	72.50	6.18	-36.7	-47.3	3.5	3.03e+01	0	25	104	0	48	17710
2026-01-09 23:01:55.24	72.13	6.34	-39.1	-50.2	3.5	3.03e+01	0	25	104	0	56	15642
2026-01-09 23:01:58.17	71.76	6.51	-38.7	-49.8	3.6	3.03e+01	0	25	104	0	50	21112
2026-01-09 23:02:01.09	71.39	6.67	-38.2	-48.9	3.5	3.03e+01	0	25	104	0	50	19085
2026-01-09 23:02:04.02	71.00	6.84	-38.8	-50.2	3.5	3.03e+01	0	25	104	0	50	22036
2026-01-09 23:02:06.95	70.62	7.01	-47.0	-64.9	3.5	3.03e+01	0	25	104	0	60	67581
2026-01-09 23:02:09.88	70.23	7.17	-36.8	-47.2	3.5	3.03e+01	0	25	104	0	48	17601
2026-01-09 23:02:12.81	69.83	7.34	-37.2	-47.7	3.5	3.03e+01	0	25	104	0	46	20991
2026-01-09 23:02:15.75	69.43	7.50	-45.4	-58.7	3.5	3.03e+01	0	25	104	0	56	41799
2026-01-09 23:02:18.68	69.02	7.67	-37.1	-47.6	3.5	3.03e+01	0	25	104	0	50	16492
2026-01-09 23:02:21.61	68.61	7.83	-35.4	-45.7	3.5	3.03e+01	0	25	104	0	46	16624
2026-01-09 23:02:24.55	68.19	8.00	-39.2	-50.4	3.6	3.03e+01	0	25	104	0	48	25538
2026-01-09 23:02:27.47	67.77	8.16	-41.0	-52.2	3.5	3.03e+01	0	25	104	0	56	19744
2026-01-09 23:02:30.40	67.34	8.33	-46.0	-65.1	3.5	3.03e+01	0	25	104	0	60	69334
2026-01-09 23:02:33.33	66.91	8.49	-43.8	-56.9	3.6	3.03e+01	0	25	104	0	60	26914
2026-01-09 23:02:36.26	66.47	8.66	-35.1	-45.6	3.5	3.03e+01	0	25	104	0	46	16399
2026-01-09 23:02:39.19	66.03	8.82	-35.9	-46.3	3.5	3.03e+01	0	25	104	0	46	17728
2026-01-09 23:02:42.13	65.57	8.99	-43.7	-55.7	3.5	3.03e+01	0	25	104	0	60	23464
2026-01-09 23:02:45.05	65.12	9.15	-43.4	-55.3	3.5	3.03e+01	0	25	104	0	60	22499
2026-01-09 23:02:47.99	64.66	9.31	-38.3	-48.9	3.5	3.03e+01	0	25	104	0	52	16924
2026-01-09 23:02:50.93	64.19	9.48	-44.5	-65.0	3.5	3.03e+01	0	25	104	0	60	68067
2026-01-09 23:02:53.85	63.72	9.64	-35.8	-46.5	3.5	3.03e+01	0	25	104	0	46	18118
2026-01-09 23:02:56.78	63.24	9.80	-35.6	-46.3	3.5	3.03e+01	0	25	104	0	46	17741
2026-01-09 23:02:59.71	62.76	9.96	-43.8	-57.8	3.5	3.03e+01	0	25	104	0	60	29959
2026-01-09 23:03:02.65	62.27	10.12	-43.1	-54.8	3.5	3.03e+01	0	25	104	0	60	21046
2026-01-09 23:03:05.58	61.77	10.28	-42.4	-53.8	3.5	3.03e+01	0	25	104	0	58	21166
2026-01-09 23:03:08.50	61.27	10.43	-35.6	-45.9	3.5	3.03e+01	0	25	104	0	48	15185
2026-01-09 23:03:11.43	60.77	10.59	-35.9	-46.2	3.5	3.03e+01	0	25	104	0	48	15655
2026-01-09 23:03:14.36	60.25	10.75	-35.0	-45.2	3.5	3.03e+01	0	25	104	0	44	17655
2026-01-09 23:03:17.30	59.73	10.90	-46.8	-61.9	3.6	3.03e+01	0	25	104	0	60	47887
2026-01-09 23:03:20.23	59.21	11.06	-39.4	-50.0	3.5	3.03e+01	0	25	104	0	54	17256
2026-01-09 23:03:23.16	58.68	11.21	-37.9	-48.3	3.6	3.03e+01	0	25	104	0	52	15842
2026-01-09 23:03:26.09	58.14	11.36	-43.2	-54.9	3.5	3.03e+01	0	25	104	0	60	21401
2026-01-09 23:03:29.03	57.59	11.51	-35.9	-46.2	3.5	3.03e+01	0	25	104	0	46	17581
2026-01-09 23:03:31.96	57.04	11.66	-34.8	-45.0	3.5	3.03e+01	0	25	104	0	44	17101
2026-01-09 23:03:34.89	56.49	11.81	-46.3	-64.4	3.5	3.03e+01	0	25	104	0	60	63800
2026-01-09 23:03:37.81	55.93	11.96	-37.4	-48.1	3.5	3.03e+01	0	25	104	0	52	15535
2026-01-09 23:03:40.74	55.36	12.10	-36.1	-46.4	3.6	3.03e+01	0	25	104	0	46	18042
2026-01-09 23:03:43.68	54.79	12.24	-42.3	-53.5	3.5	3.03e+01	0	25	104	0	50	32277
2026-01-09 23:03:46.60	54.21	12.38	-39.4	-50.0	3.5	3.03e+01	0	25	104	0	54	17222
2026-01-09 23:03:49.54	53.62	12.52	-35.4	-45.7	3.5	3.03e+01	0	25	104	0	46	16608
2026-01-09 23:03:52.47	53.03	12.66	-36.5	-46.8	3.5	3.03e+01	0	25	104	0	46	18956
2026-01-09 23:03:55.40	52.43	12.79	-46.2	-59.9	3.5	3.03e+01	0	25	104	0	60	37846
2026-01-09 23:03:58.34	51.83	12.93	-36.8	-47.1	3.5	3.03e+01	0	25	104	0	48	17441
2026-01-09 23:04:01.27	51.22	13.06	-36.0	-46.3	3.5	3.03e+01	0	25	104	0	48	15897
2026-01-09 23:04:04.20	50.60	13.19	-47.3	-65.2	3.5	3.03e+01	0	25	104	0	60	69910
2026-01-09 23:04:07.13	49.98	13.31	-41.3	-52.2	3.5	3.03e+01	0	25	104	0	58	17650
2026-01-09 23:04:10.06	49.35	13.44	-46.9	-65.4	3.5	3.03e+01	0	25	104	0	60	71609
2026-01-09 23:04:12.99	48.72	13.56	-36.3	-46.5	3.5	3.03e+01	0	25	104	0	44	20543
2026-01-09 23:04:15.92	48.08	13.68	-35.3	-45.6	3.5	3.03e+01	0	25	104	0	46	16453
2026-01-09 23:04:18.85	47.44	13.79	-36.2	-46.5	3.5	3.03e+01	0	25	104	0	44	20404
2026-01-09 23:04:21.79	46.79	13.91	-45.1	-57.7	3.5	3.03e+01	0	25	104	0	56	37163
2026-01-09 23:04:24.73	46.13	14.02	-40.3	-51.0	3.5	3.03e+01	0	25	104	0	54	19327
2026-01-09 23:04:27.66	45.48	14.12	-46.1	-59.9	3.5	3.03e+01	0	25	104	0	60	37968
2026-01-09 23:04:30.59	44.81	14.23	-36.7	-47.1	3.5	3.03e+01	0	25	104	0	52	13794
2026-01-09 23:04:33.52	44.14	14.33	-35.3	-45.5	3.5	3.03e+01	0	25	104	0	46	16284
2026-01-09 23:04:36.45	43.47	14.42	-34.4	-44.6	3.5	3.03e+01	0	25	104	0	44	16417
2026-01-09 23:04:39.38	42.79	14.52	-36.0	-46.2	3.5	3.03e+01	0	25	104	0	50	13997
2026-01-09 23:04:42.31	42.11	14.61	-36.5	-46.7	3.5	3.03e+01	0	25	104	0	48	16664
2026-01-09 23:04:45.25	41.42	14.70	-37.0	-47.3	3.5	3.03e+01	0	25	104	0	50	15913
2026-01-09 23:04:48.19	40.72	14.78	-41.1	-52.0	3.5	3.03e+01	0	25	104	0	60	15253
2026-01-09 23:04:51.12	40.03	14.86	-39.3	-49.8	3.4	3.03e+01	0	25	104	0	54	16819
2026-01-09 23:04:54.06	39.33	14.93	-35.7	-37.0	27.8	3.03e+01	63	25	0	524288	46	6127
2026-01-09 23:04:56.99	38.62	15.01	-34.2	-35.4	29.2	3.03e+01	60	25	0	6291456	44	5700
2026-01-09 23:04:59.92	37.92	15.07	-34.2	-35.5	29.2	3.03e+01	51	25	0	11534336	42	6431
2026-01-09 23:05:02.85	37.20	15.14	-34.2	-35.4	29.2	3.03e+01	56	25	0	17301504	42	6416
2026-01-09 23:05:05.78	36.49	15.20	-34.4	-35.6	29.1	3.03e+01	61	25	0	22544384	42	6569
2026-01-09 23:05:08.71	35.77	15.25	-34.3	-35.5	29.1	3.03e+01	60	25	0	28311552	42	6455
2026-01-09 23:05:11.65	35.05	15.31	-34.3	-35.5	29.1	3.03e+01	59	25	0	33554432	42	6446
2026-01-09 23:05:14.58	34.33	15.35	-34.0	-35.2	29.4	3.03e+01	57	25	0	39321600	42	6236
2026-01-09 23:05:17.52	33.60	15.40	-34.2	-35.4	29.2	3.03e+01	57	25	0	44564480	42	6396
2026-01-09 23:05:20.45	32.88	15.44	-34.0	-35.2	29.4	3.03e+01	58	25	0	49807360	42	6223
2026-01-09 23:05:23.39	32.15	15.47	-34.1	-35.4	29.3	3.03e+01	60	25	0	55574528	42	6357
2026-01-09 23:05:26.32	31.42	15.50	-34.5	-35.7	28.9	3.03e+01	60	25	0	61341696	42	6615
2026-01-09 23:05:29.26	30.68	15.53	-35.2	-36.4	28.2	3.03e+01	44	25	0	66584576	44	6411
2026-01-09 23:05:32.19	29.95	15.55	-34.3	-35.5	29.0	3.03e+01	60	25	0	71827456	44	5784
2026-01-09 23:05:35.12	29.22	15.57	-34.0	-35.2	29.3	3.03e+01	61	25	0	77594624	44	5590
2026-01-09 23:05:38.05	28.48	15.58	-34.1	-35.3	29.2	3.03e+01	62	25	0	82837504	42	6337
2026-01-09 23:05:40.98	27.75	15.59	-34.3	-35.5	29.1	3.03e+01	57	25	0	88604672	42	6445
2026-01-09 23:05:43.91	27.01	15.59	-34.1	-35.3	29.2	3.03e+01	61	25	0	93847552	42	6346
2026-01-09 23:05:46.85	26.28	15.59	-34.4	-35.6	29.0	3.03e+01	54	25	0	99614720	42	6571
2026-01-09 23:05:49.78	25.54	15.58	-34.4	-35.6	29.0	3.03e+01	56	25	0	104857600	42	6541
2026-01-09 23:05:52.72	24.81	15.57	-34.2	-35.5	29.1	3.03e+01	59	25	0	110624768	42	6441
2026-01-09 23:05:55.66	24.07	15.56	-34.3	-35.5	29.1	3.03e+01	53	25	0	115867648	42	6463
2026-01-09 23:05:58.59	23.34	15.54	-34.2	-35.4	29.2	3.03e+01	50	25	0	121634816	42	6390
2026-01-09 23:06:01.52	22.61	15.51	-34.0	-35.3	29.3	3.03e+01	59	25	0	126877696	42	6296
2026-01-09 23:06:04.45	21.88	15.49	-34.2	-35.5	29.1	3.03e+01	58	25	0	132644864	42	6438
2026-01-09 23:06:07.39	21.14	15.45	-34.2	-35.5	29.2	3.03e+01	60	25	0	137887744	42	6434
2026-01-09 23:06:10.31	20.42	15.42	-34.3	-35.5	29.1	3.03e+01	57	25	0	143654912	42	6440
2026-01-09 23:06:13.25	19.69	15.37	-34.3	-35.5	29.1	3.03e+01	60	25	0	148897792	42	6450
2026-01-09 23:06:16.17	18.97	15.33	-34.1	-35.3	29.2	3.03e+01	56	25	0	154664960	42	6342
2026-01-09 23:06:19.10	18.25	15.28	-34.1	-35.3	29.2	3.03e+01	58	25	0	159907840	42	6301
2026-01-09 23:06:22.03	17.54	15.23	-34.1	-35.3	29.2	3.03e+01	60	25	0	165675008	42	6320
2026-01-09 23:06:24.96	16.82	15.17	-34.2	-35.4	29.2	3.03e+01	48	25	0	170917888	42	6381
2026-01-09 23:06:27.90	16.11	15.10	-34.2	-35.4	29.2	3.03e+01	46	25	0	176685056	42	6373
2026-01-09 23:06:30.83	15.40	15.04	-34.2	-35.4	29.2	3.03e+01	60	25	0	181927936	42	6384
2026-01-09 23:06:33.76	14.70	14.97	-34.3	-35.5	29.0	3.03e+01	58	25	0	187695104	42	6488
2026-01-09 23:06:36.69	14.00	14.89	-34.2	-35.5	29.1	3.03e+01	59	25	0	192937984	42	6429
2026-01-09 23:06:39.63	13.30	14.82	-34.2	-35.4	29.1	3.03e+01	59	25	0	198705152	42	6413
2026-01-09 23:06:42.57	12.60	14.73	-34.2	-35.4	29.1	3.03e+01	55	25	0	203948032	42	6375
2026-01-09 23:06:45.49	11.92	14.65	-34.2	-35.4	29.1	3.03e+01	60	25	0	209715200	42	6401
2026-01-09 23:06:48.43	11.23	14.56	-34.4	-35.6	29.0	3.03e+01	58	25	0	214958080	42	6562
2026-01-09 23:06:51.37	10.55	14.47	-34.1	-35.4	29.2	3.03e+01	62	25	0	220725248	42	6361
2026-01-09 23:06:54.29	9.87	14.37	-34.3	-35.5	29.1	3.03e+01	59	25	0	225968128	42	6466
2026-01-09 23:06:57.23	9.20	14.27	-34.4	-35.6	29.0	3.03e+01	46	25	0	231735296	42	6534
2026-01-09 23:07:00.17	8.53	14.17	-34.3	-35.5	29.0	3.03e+01	60	25	0	236978176	42	6457
2026-01-09 23:07:03.09	7.88	14.07	-34.1	-35.3	29.2	3.03e+01	57	25	0	242745344	42	6306
2026-01-09 23:07:06.04	7.22	13.96	-34.4	-35.6	28.9	3.03e+01	61	25	0	247988224	42	6556
2026-01-09 23:07:08.97	6.57	13.85	-34.3	-35.5	29.0	3.03e+01	59	25	0	253755392	42	6465
2026-01-09 23:07:11.90	5.92	13.73	-34.5	-35.7	28.9	3.03e+01	59	25	0	258998272	42	6603
2026-01-09 23:07:14.83	5.28	13.61	-34.2	-35.5	29.0	3.03e+01	60	25	0	264765440	42	6440
2026-01-09 23:07:17.76	4.65	13.50	-34.1	-35.3	29.2	3.03e+01	61	25	0	270008320	42	6328
2026-01-09 23:07:20.69	4.02	13.37	-34.3	-35.6	28.9	3.03e+01	58	25	0	275251200	42	6505
2026-01-09 23:07:23.63	3.40	13.25	-34.3	-35.5	29.0	3.03e+01	50	25	0	281018368	42	6466
2026-01-09 23:07:26.56	2.78	13.12	-34.2	-35.5	29.0	3.03e+01	54	25	0	286785536	42	6428
2026-01-09 23:07:29.49	2.17	12.99	-34.3	-35.5	29.1	3.03e+01	57	25	0	292028416	42	6453
2026-01-09 23:07:32.43	1.56	12.86	-34.5	-35.7	28.8	3.03e+01	60	25	0	297795584	42	6626
2026-01-09 23:07:35.36	0.97	12.73	-34.4	-35.6	28.9	3.03e+01	62	25	0	303038464	42	6525
2026-01-09 23:07:38.29	0.37	12.59	-34.3	-35.6	29.0	3.03e+01	60	25	0	308281344	42	6504
2026-01-09 23:07:41.22	359.79	12.45	-34.5	-35.7	28.7	3.03e+01	59	25	0	314048512	42	6639
2026-01-09 23:07:44.15	359.20	12.31	-34.3	-35.5	28.8	3.03e+01	58	25	0	319291392	42	6488
2026-01-09 23:07:47.09	358.63	12.17	-34.5	-35.7	28.8	3.03e+01	61	25	0	325058560	42	6613
2026-01-09 23:07:50.02	358.06	12.03	-34.4	-35.6	28.8	3.03e+01	59	25	0	330301440	42	6548
2026-01-09 23:07:52.96	357.49	11.88	-34.5	-35.7	28.7	3.03e+01	59	25	0	336068608	42	6625
2026-01-09 23:07:55.89	356.94	11.73	-35.0	-36.3	28.2	3.03e+01	47	25	0	341311488	42	7058
2026-01-09 23:07:58.82	356.39	11.59	-34.7	-36.0	28.5	3.03e+01	60	25	0	347078656	44	6088
2026-01-09 23:08:01.76	355.84	11.44	-34.4	-35.7	28.7	3.03e+01	58	25	0	352321536	44	5866
2026-01-09 23:08:04.69	355.30	11.29	-34.6	-35.9	28.6	3.03e+01	58	25	0	358088704	44	6004
2026-01-09 23:08:07.62	354.77	11.13	-35.3	-36.7	27.8	3.03e+01	58	25	0	363331584	44	6590
2026-01-09 23:08:10.56	354.24	10.98	-34.5	-35.8	28.5	3.03e+01	59	25	0	369098752	44	5928
2026-01-09 23:08:13.50	353.72	10.82	-35.1	-36.4	27.8	3.03e+01	57	25	0	374341632	44	6411
2026-01-09 23:08:16.43	353.21	10.67	-34.7	-36.0	28.4	3.03e+01	58	25	0	380108800	44	6079
2026-01-09 23:08:19.36	352.70	10.51	-34.7	-35.9	28.5	3.03e+01	58	25	0	385351680	44	6016
2026-01-09 23:08:22.30	352.19	10.35	-35.5	-36.9	27.3	3.03e+01	60	25	0	391118848	44	6761
2026-01-09 23:08:25.23	351.70	10.20	-35.0	-36.2	28.0	3.03e+01	44	25	0	396361728	44	6263
2026-01-09 23:08:28.17	351.20	10.04	-35.3	-36.6	27.4	3.03e+01	57	25	0	402128896	46	5841
2026-01-09 23:08:31.10	350.72	9.88	-35.1	-36.3	28.0	3.03e+01	56	25	0	407371776	44	6331
2026-01-09 23:08:34.04	350.24	9.72	-35.1	-36.3	28.0	3.03e+01	62	25	0	413138944	44	6320
2026-01-09 23:08:36.98	349.77	9.55	-35.0	-36.3	28.1	3.03e+01	58	25	0	418381824	44	6284
2026-01-09 23:08:39.92	349.30	9.39	-34.6	-35.8	28.3	3.03e+01	62	25	0	424148992	44	5967
2026-01-09 23:08:42.86	348.83	9.23	-35.2	-36.5	27.7	3.03e+01	60	25	0	429391872	44	6432
2026-01-09 23:08:45.80	348.38	9.07	-35.3	-36.7	27.7	3.03e+01	59	25	0	435159040	44	6595
2026-01-09 23:08:48.74	347.92	8.90	-35.2	-36.5	27.9	3.03e+01	56	25	0	440401920	44	6441
2026-01-09 23:08:51.69	347.48	8.74	-35.5	-36.8	27.5	3.03e+01	53	25	0	446169088	44	6711
2026-01-09 23:08:54.65	347.03	8.57	-35.5	-36.8	27.6	3.03e+01	49	25	0	451411968	44	6726
2026-01-09 23:08:57.61	346.60	8.41	-35.9	-37.3	27.2	3.03e+01	60	25	0	457179136	46	6320
2026-01-09 23:09:00.56	346.16	8.24	-36.0	-37.3	26.9	3.03e+01	62	25	0	462946304	46	6346
2026-01-09 23:09:03.55	345.73	8.07	-36.2	-37.6	26.9	3.03e+01	62	25	0	468189184	46	6522
2026-01-09 23:09:06.57	345.30	7.90	-35.7	-37.0	27.4	3.03e+01	55	25	0	473956352	46	6092
2026-01-09 23:09:09.56	344.88	7.73	-35.9	-37.2	27.0	3.03e+01	59	25	0	479723520	46	6260
2026-01-09 23:09:12.55	344.47	7.57	-36.2	-37.6	26.6	3.03e+01	58	25	0	484966400	46	6537
2026-01-09 23:09:15.55	344.06	7.40	-36.4	-37.8	26.6	3.03e+01	48	25	0	490733568	46	6666
2026-01-09 23:09:18.54	343.65	7.23	-36.1	-37.5	26.8	3.03e+01	46	25	0	496500736	46	6428
2026-01-09 23:09:21.53	343.25	7.06	-36.1	-37.4	26.9	3.03e+01	59	25	0	502267904	46	6421
2026-01-09 23:09:24.51	342.86	6.89	-36.2	-37.6	26.7	3.03e+01	59	25	0	507510784	46	6519
2026-01-09 23:09:27.50	342.47	6.72	-36.5	-37.9	26.4	3.03e+01	59	25	0	513277952	46	6797
2026-01-09 23:09:30.49	342.09	6.55	-36.6	-38.0	26.1	3.03e+01	60	25	0	519045120	46	6858
2026-01-09 23:09:33.52	341.70	6.38	-36.4	-37.9	26.2	3.03e+01	60	25	0	524812288	46	6754
2026-01-09 23:09:36.55	341.32	6.21	-37.0	-38.5	25.6	3.03e+01	60	25	0	530055168	46	7234
2026-01-09 23:09:39.57	340.95	6.04	-36.5	-37.9	25.9	3.03e+01	49	25	0	535822336	48	6011
2026-01-09 23:09:42.60	340.58	5.87	-36.1	-37.5	26.2	3.03e+01	45	25	0	541589504	48	5756
2026-01-09 23:09:45.63	340.22	5.70	-36.5	-37.9	25.9	3.03e+01	59	25	0	547356672	48	6007
2026-01-09 23:09:48.66	339.86	5.53	-37.5	-39.1	24.7	3.03e+01	60	25	0	553123840	48	6888
2026-01-09 23:09:51.69	339.50	5.36	-37.8	-39.5	23.8	3.03e+01	60	25	0	558891008	50	6481
2026-01-09 23:09:54.72	339.15	5.19	-38.6	-40.6	22.5	3.03e+01	58	25	0	564133888	50	7355
2026-01-09 23:09:57.74	338.81	5.03	-39.0	-41.1	21.6	3.03e+01	59	25	0	569901056	52	6959
2026-01-09 23:10:00.77	338.46	4.86	-39.4	-41.6	21.0	3.03e+01	49	25	0	575668224	52	7357
2026-01-09 23:10:03.80	338.13	4.69	-40.6	-43.6	18.5	3.03e+01	58	25	0	581435392	54	8236
2026-01-09 23:10:06.83	337.80	4.52	-42.1	-47.1	14.3	3.03e+01	56	25	0	587202560	58	9749
2026-01-09 23:10:09.85	337.47	4.35	-42.6	-50.3	10.0	3.03e+01	55	25	0	592445440	58	14117
2026-01-09 23:10:12.88	337.14	4.19	-43.0	-53.6	5.9	3.03e+01	92	25	0	598212608	60	18446
2026-01-09 23:10:15.90	336.82	4.02	-43.1	-58.0	3.6	3.03e+01	0	25	104	598736896	60	30469
2026-01-09 23:10:18.93	336.51	3.85	-43.2	-60.4	3.5	3.03e+01	0	25	104	598736896	60	40165
2026-01-09 23:10:21.96	336.20	3.69	-43.1	-61.0	3.5	3.03e+01	0	25	104	598736896	60	43075
2026-01-09 23:10:24.99	335.89	3.52	-43.2	-60.8	3.5	3.03e+01	0	25	104	598736896	60	42300
2026-01-09 23:10:28.02	335.58	3.35	-43.2	-61.1	3.5	3.03e+01	0	25	104	598736896	60	43437
2026-01-09 23:10:31.04	335.29	3.19	-43.2	-61.0	3.5	3.03e+01	0	25	104	598736896	60	43156
2026-01-09 23:10:34.08	334.99	3.02	-43.1	-60.9	3.5	3.03e+01	0	25	104	598736896	60	42793
2026-01-09 23:10:37.11	334.70	2.86	-47.8	-65.7	3.5	3.03e+01	0	25	104	598736896	60	74294
2026-01-09 23:10:40.13	334.41	2.70	-48.2	-66.1	3.5	3.03e+01	0	25	104	598736896	60	77927
2026-01-09 23:10:43.16	334.12	2.53	-48.3	-66.3	3.5	3.03e+01	0	25	104	598736896	60	79416
2026-01-09 23:10:46.19	333.84	2.37	-48.2	-66.1	3.5	3.03e+01	0	25	104	598736896	60	77591
2026-01-09 23:10:49.21	333.56	2.21	-48.0	-66.1	3.5	3.03e+01	0	25	104	598736896	60	77503
2026-01-09 23:10:52.24	333.29	2.04	-48.3	-66.1	3.5	3.03e+01	0	25	104	598736896	60	77875
2026-01-09 23:10:55.26	333.02	1.88	-48.2	-66.1	3.5	3.03e+01	0	25	104	598736896	60	77258
2026-01-09 23:10:58.29	332.75	1.72	-48.2	-66.1	3.5	3.03e+01	0	25	104	598736896	60	77540
2026-01-09 23:11:01.32	332.49	1.56	-48.2	-66.1	3.5	3.03e+01	0	25	104	598736896	60	77291
2026-01-09 23:11:04.34	332.22	1.40	-48.2	-66.1	3.5	3.03e+01	0	25	104	598736896	60	77272
2026-01-09 23:11:07.37	331.97	1.24	-48.3	-66.1	3.5	3.03e+01	0	25	104	598736896	60	77700
2026-01-09 23:11:10.40	331.71	1.08	-48.2	-66.1	3.5	3.03e+01	0	25	104	598736896	60	77567
2026-01-09 23:11:13.43	331.46	0.92	-48.3	-66.1	3.5	3.03e+01	0	25	104	598736896	60	77586
2026-01-09 23:11:16.46	331.21	0.76	-48.2	-66.0	3.5	3.03e+01	0	25	104	598736896	60	77153
2026-01-09 23:11:19.49	330.96	0.61	-48.2	-66.1	3.5	3.03e+01	0	25	104	598736896	60	77267
2026-01-09 23:11:22.51	330.72	0.45	-48.2	-66.1	3.5	3.03e+01	0	25	104	598736896	60	77441
2026-01-09 23:11:25.54	330.48	0.29	-48.2	-66.0	3.5	3.03e+01	0	25	104	598736896	60	77069
2026-01-09 23:11:28.57	330.25	0.13	-48.3	-66.1	3.5	3.03e+01	0	25	104	598736896	60	77764
2026-01-09 23:11:31.60	330.01	-0.02	-48.2	-66.0	3.5	3.03e+01	0	25	104	598736896	60	77170

#Closed at: 2026-01-09 23:11:34
#Recorded file [598 MB]: D:/lorett/data/35029_260110_110000.dat