passes_logs/2026/01/09/R4.6S_Anadyr/R4.6S_Anadyr__20260109_145658_SUOMI_NPP_rec.log

#Pass ID: 20260109_145658_SUOMI NPP
#Satellite: SUOMI NPP
#Configuration: NPP
#almurnet v.1.7.20251203
#Start time: 2026-01-09 14:56:59

#Version: 2.2.20231116
#Station: R4.6S_Anadyr
#Location: 177.4865 lon 64.73178 lat
#TLE: 1 37849U 11061A   26008.05542337  .00000108  00000+0  71976-4 0  9997
#TLE: 2 37849  98.7805 310.1641 0002540  75.6410 284.5048 14.19523335735721

#Time	Az	El	Level	Level2	SNR	BER	BlckErr	Temp	State	Recorded	gain1	gain2
2026-01-09 14:56:59.47	20.88	0.05	-47.7	-60.2	3.4	1.52e+00	0	20	0	0	60	35864
2026-01-09 14:57:03.51	20.88	0.30	-47.8	-63.0	3.6	1.51e+00	0	21	104	0	60	51026
2026-01-09 14:57:07.55	20.88	0.54	-47.6	-62.8	3.6	1.51e+00	0	21	104	0	60	49936
2026-01-09 14:57:11.58	20.88	0.78	-47.2	-62.4	3.6	1.51e+00	0	21	104	0	60	47744
2026-01-09 14:57:15.62	20.88	1.03	-46.2	-61.3	3.6	1.51e+00	0	22	104	0	60	42153
2026-01-09 14:57:19.66	20.88	1.28	-46.2	-61.3	3.6	1.51e+00	0	22	104	0	60	42161
2026-01-09 14:57:23.69	20.88	1.54	-46.2	-61.2	3.6	1.51e+00	0	22	104	0	60	41393
2026-01-09 14:57:27.73	20.88	1.79	-46.1	-61.3	3.6	1.51e+00	0	22	104	0	60	41949
2026-01-09 14:57:31.77	20.88	2.05	-46.1	-61.3	3.6	1.51e+00	0	22	104	0	60	41943
2026-01-09 14:57:35.82	20.88	2.31	-46.1	-60.8	3.6	1.51e+00	0	22	104	0	60	39523
2026-01-09 14:57:39.85	20.87	2.57	-46.0	-59.5	3.6	1.51e+00	0	22	104	0	60	34153
2026-01-09 14:57:43.90	20.87	2.83	-45.9	-57.3	4.2	1.42e+00	11	22	104	0	60	26460
2026-01-09 14:57:47.94	20.87	3.10	-44.5	-49.5	10.4	1.19e-02	0	22	0	7340032	60	10781
2026-01-09 14:57:51.98	20.87	3.37	-42.9	-46.0	14.1	5.30e-06	0	22	0	14680064	60	7185
2026-01-09 14:57:56.02	20.86	3.64	-43.3	-46.8	13.3	6.10e-06	0	22	0	22020096	60	7932
2026-01-09 14:58:00.06	20.86	3.92	-46.0	-60.8	3.6	1.01e+00	0	22	104	29360128	60	39463
2026-01-09 14:58:04.10	20.85	4.19	-42.0	-44.4	16.1	7.00e-07	0	22	0	29360128	58	6714
2026-01-09 14:58:08.14	20.85	4.47	-41.5	-43.6	16.5	0.00e+00	0	22	0	36700160	56	6893
2026-01-09 14:58:12.17	20.85	4.76	-40.8	-42.7	17.4	0.00e+00	0	22	0	45088768	56	6211
2026-01-09 14:58:16.21	20.84	5.04	-40.8	-42.7	17.7	0.00e+00	0	22	0	52428800	54	6976
2026-01-09 14:58:20.25	20.83	5.33	-40.8	-42.6	17.5	0.00e+00	0	22	0	59768832	54	6918
2026-01-09 14:58:24.29	20.83	5.62	-40.6	-42.3	17.8	0.00e+00	0	22	0	67108864	54	6678
2026-01-09 14:58:28.33	20.82	5.92	-40.7	-42.5	17.9	0.00e+00	0	22	0	75497472	54	6817
2026-01-09 14:58:32.37	20.81	6.22	-40.6	-42.4	18.1	0.00e+00	0	22	0	82837504	54	6731
2026-01-09 14:58:36.41	20.81	6.52	-40.7	-42.4	18.1	0.00e+00	0	22	0	90177536	54	6759
2026-01-09 14:58:40.45	20.80	6.83	-40.2	-41.8	18.7	0.00e+00	0	22	0	97517568	54	6271
2026-01-09 14:58:44.49	20.79	7.14	-40.2	-41.8	18.7	0.00e+00	0	22	0	104857600	54	6308
2026-01-09 14:58:48.53	20.78	7.45	-40.1	-41.6	19.0	0.00e+00	0	22	0	113246208	54	6170
2026-01-09 14:58:52.57	20.77	7.77	-40.1	-41.6	19.0	0.00e+00	0	22	0	120586240	54	6155
2026-01-09 14:58:56.61	20.76	8.09	-39.9	-41.5	19.2	0.00e+00	0	22	0	127926272	52	6774
2026-01-09 14:59:00.65	20.75	8.42	-40.1	-41.7	19.1	0.00e+00	0	22	0	135266304	52	6946
2026-01-09 14:59:04.69	20.73	8.75	-39.8	-41.3	19.4	0.00e+00	0	22	0	143654912	52	6658
2026-01-09 14:59:08.72	20.72	9.08	-39.8	-41.3	19.5	0.00e+00	0	22	0	150994944	52	6621
2026-01-09 14:59:12.76	20.71	9.42	-39.7	-41.2	19.6	0.00e+00	0	22	0	158334976	52	6540
2026-01-09 14:59:16.80	20.69	9.77	-39.2	-40.6	20.1	0.00e+00	0	22	0	165675008	52	6125
2026-01-09 14:59:20.84	20.68	10.12	-39.2	-40.5	20.2	0.00e+00	0	22	0	173015040	52	6093
2026-01-09 14:59:24.88	20.66	10.47	-38.9	-40.2	20.5	0.00e+00	0	22	0	181403648	52	5879
2026-01-09 14:59:28.92	20.65	10.83	-38.7	-40.0	20.8	0.00e+00	0	22	0	188743680	50	6406
2026-01-09 14:59:32.95	20.63	11.19	-38.6	-39.8	20.9	0.00e+00	0	22	0	196083712	50	6261
2026-01-09 14:59:36.99	20.61	11.56	-38.4	-39.6	21.0	0.00e+00	0	22	0	203423744	50	6139
2026-01-09 14:59:41.03	20.59	11.94	-38.2	-39.3	21.3	0.00e+00	0	22	0	210763776	50	5943
2026-01-09 14:59:45.07	20.57	12.32	-38.1	-39.2	21.4	0.00e+00	0	22	0	219152384	50	5892
2026-01-09 14:59:49.11	20.55	12.71	-37.9	-39.0	21.6	0.00e+00	0	22	0	226492416	50	5724
2026-01-09 14:59:53.15	20.53	13.10	-38.0	-39.1	21.6	0.00e+00	0	22	0	233832448	50	5779
2026-01-09 14:59:57.19	20.51	13.50	-37.6	-38.6	22.1	0.00e+00	0	22	0	241172480	48	6141
2026-01-09 15:00:01.23	20.48	13.91	-37.5	-38.5	22.1	0.00e+00	0	22	0	249561088	48	6078
2026-01-09 15:00:05.27	20.46	14.32	-37.2	-38.2	22.4	0.00e+00	0	22	0	256901120	48	5855
2026-01-09 15:00:09.31	20.43	14.74	-37.0	-38.0	22.5	0.00e+00	0	22	0	264241152	48	5746
2026-01-09 15:00:13.35	20.40	15.17	-36.7	-37.7	22.8	0.00e+00	0	22	0	271581184	46	6177
2026-01-09 15:00:17.39	20.37	15.61	-36.7	-37.7	22.8	0.00e+00	0	22	0	279969792	46	6205
2026-01-09 15:00:21.43	20.34	16.05	-36.6	-37.5	22.9	0.00e+00	0	22	0	287309824	46	6082
2026-01-09 15:00:25.46	20.31	16.50	-36.6	-37.6	22.9	0.00e+00	0	22	0	294649856	46	6105
2026-01-09 15:00:29.51	20.28	16.96	-36.6	-37.6	22.8	0.00e+00	0	22	0	301989888	46	6123
2026-01-09 15:00:33.54	20.24	17.43	-36.5	-37.4	23.1	0.00e+00	0	22	0	309329920	46	6010
2026-01-09 15:00:37.58	20.20	17.91	-36.3	-37.2	23.2	0.00e+00	0	22	0	317718528	46	5865
2026-01-09 15:00:41.62	20.16	18.40	-36.1	-37.0	23.3	0.00e+00	0	22	0	325058560	46	5719
2026-01-09 15:00:45.67	20.12	18.90	-35.9	-36.8	23.5	0.00e+00	0	22	0	332398592	46	5593
2026-01-09 15:00:49.71	20.08	19.41	-35.8	-36.6	23.7	0.00e+00	0	22	0	339738624	44	6160
2026-01-09 15:00:53.74	20.04	19.93	-35.8	-36.7	23.5	0.00e+00	0	22	0	348127232	44	6191
2026-01-09 15:00:57.79	19.99	20.46	-35.7	-36.6	23.7	0.00e+00	0	22	0	355467264	44	6140
2026-01-09 15:01:01.81	19.94	21.00	-35.9	-36.8	23.5	0.00e+00	0	22	0	362807296	44	6305
2026-01-09 15:01:05.86	19.89	21.55	-35.4	-36.3	24.0	0.00e+00	0	22	0	370147328	44	5897
2026-01-09 15:01:09.90	19.84	22.12	-35.8	-36.7	23.7	0.00e+00	0	22	0	377487360	44	6185
2026-01-09 15:01:13.93	19.78	22.69	-35.8	-36.7	23.9	0.00e+00	0	23	0	385875968	44	6179
2026-01-09 15:01:17.97	19.72	23.29	-35.5	-36.3	24.0	0.00e+00	0	22	0	393216000	44	5929
2026-01-09 15:01:22.01	19.66	23.89	-35.6	-36.5	23.9	0.00e+00	0	22	0	400556032	44	6072
2026-01-09 15:01:26.05	19.60	24.51	-35.6	-36.4	23.9	0.00e+00	0	22	0	407896064	44	6027
2026-01-09 15:01:30.09	19.53	25.15	-35.8	-36.6	23.7	0.00e+00	0	22	0	416284672	44	6171
2026-01-09 15:01:34.12	19.46	25.80	-35.5	-36.3	24.0	0.00e+00	0	22	0	423624704	44	5937
2026-01-09 15:01:38.16	19.38	26.46	-36.0	-36.9	23.7	0.00e+00	0	22	0	430964736	44	6336
2026-01-09 15:01:42.20	19.30	27.15	-37.2	-38.2	22.6	0.00e+00	0	22	0	438304768	46	6597
2026-01-09 15:01:46.24	19.22	27.85	-37.3	-38.3	22.6	0.00e+00	0	22	0	445644800	46	6651
2026-01-09 15:01:50.28	19.13	28.57	-37.4	-38.4	22.4	0.00e+00	0	22	0	454033408	48	6001
2026-01-09 15:01:54.32	19.04	29.31	-38.5	-39.7	21.4	0.00e+00	0	22	0	461373440	48	6941
2026-01-09 15:01:58.35	18.94	30.07	-38.2	-39.4	21.6	0.00e+00	0	22	0	468713472	50	5979
2026-01-09 15:02:02.39	18.83	30.84	-38.4	-39.5	21.5	0.00e+00	0	22	0	476053504	50	6086
2026-01-09 15:02:06.43	18.72	31.65	-39.8	-41.2	20.1	0.00e+00	0	22	0	484442112	52	6601
2026-01-09 15:02:10.48	18.61	32.47	-40.2	-41.7	19.5	0.00e+00	0	22	0	491782144	52	6988
2026-01-09 15:02:14.52	18.48	33.32	-40.0	-41.5	19.9	0.00e+00	0	22	0	499122176	52	6801
2026-01-09 15:02:18.55	18.35	34.19	-39.9	-41.3	20.1	0.00e+00	0	22	0	506462208	52	6628
2026-01-09 15:02:22.59	18.21	35.08	-36.8	-37.7	23.0	0.00e+00	0	23	0	513802240	48	5551
2026-01-09 15:02:26.63	18.07	36.00	-36.0	-36.8	23.7	0.00e+00	0	22	0	522190848	46	5628
2026-01-09 15:02:30.67	17.91	36.95	-34.9	-35.7	24.4	0.00e+00	0	22	0	529530880	44	5528
2026-01-09 15:02:34.71	17.74	37.93	-34.0	-34.8	24.9	0.00e+00	0	22	0	536870912	42	5596
2026-01-09 15:02:38.74	17.56	38.93	-35.4	-36.3	24.1	0.00e+00	0	22	0	544210944	42	6642
2026-01-09 15:02:42.78	17.37	39.96	-34.9	-35.7	24.5	0.00e+00	0	22	0	551550976	42	6228
2026-01-09 15:02:46.82	17.16	41.03	-34.8	-35.5	24.7	0.00e+00	0	22	0	559939584	42	6091
2026-01-09 15:02:50.86	16.94	42.13	-35.8	-36.6	23.8	0.00e+00	0	22	0	567279616	44	6160
2026-01-09 15:02:54.90	16.70	43.26	-36.0	-36.9	23.7	0.00e+00	0	22	0	574619648	44	6364
2026-01-09 15:02:58.94	16.45	44.43	-36.5	-37.4	23.4	0.00e+00	0	22	0	581959680	44	6755
2026-01-09 15:03:02.97	16.17	45.62	-36.7	-37.6	23.0	0.00e+00	0	22	0	590348288	46	6153
2026-01-09 15:03:07.01	15.87	46.86	-39.6	-40.9	20.0	0.00e+00	0	22	0	597688320	50	7152
2026-01-09 15:03:11.05	15.54	48.13	-39.3	-40.6	21.0	0.00e+00	0	22	0	605028352	52	6137
2026-01-09 15:03:15.09	15.18	49.44	-37.0	-38.0	22.9	0.00e+00	0	22	0	612368384	48	5754
2026-01-09 15:03:19.12	14.79	50.79	-34.7	-35.5	24.7	0.00e+00	0	22	0	619708416	42	6074
2026-01-09 15:03:23.16	14.36	52.18	-35.6	-36.5	24.1	0.00e+00	0	22	0	628097024	42	6784
2026-01-09 15:03:27.20	13.88	53.60	-36.1	-37.0	23.5	0.00e+00	0	22	0	635437056	44	6393
2026-01-09 15:03:31.24	13.35	55.07	-34.9	-35.7	24.6	0.00e+00	0	22	0	642777088	42	6187
2026-01-09 15:03:35.27	12.77	56.57	-35.9	-36.7	23.8	0.00e+00	0	22	0	650117120	44	6224
2026-01-09 15:03:39.31	12.11	58.11	-39.2	-40.5	20.7	0.00e+00	0	22	0	658505728	50	6823
2026-01-09 15:03:43.35	11.37	59.69	-37.7	-38.8	21.8	0.00e+00	0	22	0	665845760	48	6262
2026-01-09 15:03:47.39	10.53	61.30	-38.2	-39.3	21.7	0.00e+00	0	23	0	673185792	48	6688
2026-01-09 15:03:51.43	9.57	62.95	-35.4	-36.3	24.2	0.00e+00	0	22	0	680525824	44	5920
2026-01-09 15:03:55.47	8.46	64.64	-35.2	-36.0	24.3	0.00e+00	0	22	0	687865856	42	6453
2026-01-09 15:03:59.51	7.17	66.35	-37.0	-38.0	22.6	0.00e+00	0	22	0	696254464	46	6431
2026-01-09 15:04:03.55	5.66	68.08	-37.6	-38.7	22.1	0.00e+00	0	22	0	703594496	48	6197
2026-01-09 15:04:07.59	3.86	69.83	-36.7	-37.6	23.1	0.00e+00	0	23	0	710934528	46	6123
2026-01-09 15:04:11.63	1.68	71.59	-35.8	-36.7	23.9	0.00e+00	0	22	0	718274560	46	5559
2026-01-09 15:04:15.67	359.01	73.35	-35.5	-36.4	24.1	0.00e+00	0	22	0	726663168	42	6716
2026-01-09 15:04:19.70	355.68	75.09	-37.6	-38.7	22.6	0.00e+00	0	22	0	734003200	46	7002
2026-01-09 15:04:23.74	351.43	76.80	-39.4	-40.7	20.1	0.00e+00	0	22	0	741343232	52	6216
2026-01-09 15:04:27.78	345.91	78.42	-38.8	-40.1	21.1	0.00e+00	0	22	0	748683264	50	6488
2026-01-09 15:04:31.82	338.60	79.93	-37.8	-38.9	22.1	0.00e+00	0	22	0	756023296	48	6379
2026-01-09 15:04:35.86	328.90	81.23	-35.4	-36.3	24.2	0.00e+00	0	22	0	764411904	44	5913
2026-01-09 15:04:39.89	316.31	82.20	-37.9	-39.0	22.0	0.00e+00	0	22	0	771751936	48	6414
2026-01-09 15:04:43.93	301.03	82.71	-37.3	-38.3	22.5	0.00e+00	0	22	0	779091968	48	5939
2026-01-09 15:04:47.97	284.75	82.66	-35.5	-36.3	24.0	0.00e+00	0	22	0	786432000	42	6684
2026-01-09 15:04:52.01	269.87	82.05	-37.1	-38.0	22.7	0.00e+00	0	22	0	794820608	46	6434
2026-01-09 15:04:56.05	257.81	81.00	-37.8	-38.9	22.0	0.00e+00	0	22	0	802160640	48	6338
2026-01-09 15:05:00.09	248.59	79.66	-40.1	-41.6	20.1	0.00e+00	0	22	0	809500672	52	6895
2026-01-09 15:05:04.13	241.67	78.13	-40.1	-41.5	19.9	0.00e+00	0	22	0	816840704	54	6039
2026-01-09 15:05:08.17	236.41	76.48	-35.3	-36.2	24.1	0.00e+00	0	22	0	824180736	44	5840
2026-01-09 15:05:12.20	232.36	74.77	-36.8	-37.7	23.0	0.00e+00	0	23	0	832569344	46	6223
2026-01-09 15:05:16.24	229.17	73.02	-34.9	-35.7	24.6	0.00e+00	0	22	0	839909376	44	5529
2026-01-09 15:05:20.28	226.60	71.25	-40.4	-42.1	19.4	0.00e+00	0	23	0	847249408	52	7317
2026-01-09 15:05:24.32	224.50	69.49	-36.9	-37.8	22.8	0.00e+00	0	22	0	854589440	48	5612
2026-01-09 15:05:28.36	222.75	67.74	-37.0	-38.0	22.7	0.00e+00	0	22	0	862978048	46	6453
2026-01-09 15:05:32.40	221.28	66.01	-36.1	-37.0	23.7	0.00e+00	0	22	0	870318080	44	6415
2026-01-09 15:05:36.43	220.03	64.30	-34.2	-35.0	25.0	0.00e+00	0	22	0	877658112	42	5739
2026-01-09 15:05:40.47	218.96	62.62	-34.7	-35.5	24.7	0.00e+00	0	22	0	884998144	42	6039
2026-01-09 15:05:44.51	218.02	60.97	-34.3	-35.1	24.8	0.00e+00	0	23	0	892338176	40	6497
2026-01-09 15:05:48.55	217.20	59.36	-38.4	-39.6	21.6	0.00e+00	0	22	0	900726784	48	6883
2026-01-09 15:05:52.59	216.47	57.79	-36.2	-37.1	23.6	0.00e+00	0	23	0	908066816	44	6515
2026-01-09 15:05:56.63	215.83	56.25	-36.5	-37.5	23.5	0.00e+00	0	22	0	915406848	46	6051
2026-01-09 15:06:00.67	215.25	54.75	-34.9	-35.7	24.5	0.00e+00	0	23	0	922746880	42	6185
2026-01-09 15:06:04.71	214.74	53.28	-35.5	-36.3	24.1	0.00e+00	0	22	0	931135488	42	6688
2026-01-09 15:06:08.74	214.27	51.87	-38.2	-39.3	21.6	0.00e+00	0	23	0	938475520	48	6690
2026-01-09 15:06:12.78	213.84	50.48	-36.6	-37.5	23.1	0.00e+00	0	22	0	945815552	46	6088
2026-01-09 15:06:16.82	213.46	49.14	-37.9	-39.0	21.9	0.00e+00	0	22	0	953155584	48	6423
2026-01-09 15:06:20.86	213.10	47.83	-37.7	-38.7	22.2	0.00e+00	0	22	0	960495616	48	6235
2026-01-09 15:06:24.89	212.78	46.56	-37.4	-38.4	22.5	0.00e+00	0	22	0	968884224	48	6016
2026-01-09 15:06:28.94	212.48	45.33	-37.8	-38.9	21.7	0.00e+00	0	22	0	976224256	46	7106
2026-01-09 15:06:32.98	212.21	44.13	-42.5	-45.0	16.6	0.00e+00	0	22	0	983564288	56	8046
2026-01-09 15:06:37.02	211.95	42.97	-40.6	-42.2	19.6	0.00e+00	0	23	0	990904320	56	5857
2026-01-09 15:06:41.06	211.71	41.84	-38.2	-39.3	21.8	0.00e+00	0	22	0	999292928	50	5958
2026-01-09 15:06:45.09	211.50	40.75	-40.1	-41.7	19.8	0.00e+00	0	23	0	1006632960	52	6933
2026-01-09 15:06:49.13	211.29	39.69	-38.3	-39.4	22.1	0.00e+00	0	22	0	1013972992	50	5977
2026-01-09 15:06:53.18	211.10	38.65	-36.3	-37.2	23.5	0.00e+00	0	23	0	1021313024	44	6561
2026-01-09 15:06:57.22	210.92	37.65	-39.9	-41.4	20.1	0.00e+00	0	23	0	1028653056	52	6714
2026-01-09 15:07:01.26	210.75	36.68	-38.2	-39.3	21.9	0.00e+00	0	23	0	1037041664	50	5919
2026-01-09 15:07:05.30	210.60	35.73	-39.3	-40.6	20.6	0.00e+00	0	23	0	1044381696	50	6927
2026-01-09 15:07:09.33	210.45	34.81	-37.4	-38.4	22.6	0.00e+00	0	23	0	1051721728	48	5987
2026-01-09 15:07:13.37	210.31	33.92	-38.6	-39.7	21.4	0.00e+00	0	23	0	1059061760	48	6979
2026-01-09 15:07:17.41	210.18	33.05	-40.9	-42.6	18.9	0.00e+00	0	23	0	1067450368	52	7733
2026-01-09 15:07:21.45	210.06	32.21	-41.4	-43.5	18.2	0.00e+00	0	23	0	1074790400	56	6790
2026-01-09 15:07:25.49	209.94	31.39	-40.0	-41.6	19.8	0.00e+00	0	23	0	1082130432	54	6167
2026-01-09 15:07:29.53	209.83	30.59	-38.4	-39.6	21.5	0.00e+00	0	23	0	1089470464	50	6117
2026-01-09 15:07:33.57	209.73	29.81	-38.1	-39.3	21.9	0.00e+00	0	22	0	1096810496	50	5904
2026-01-09 15:07:37.61	209.63	29.06	-37.3	-38.3	22.5	0.00e+00	0	22	0	1105199104	48	5962
2026-01-09 15:07:41.65	209.53	28.32	-37.8	-38.9	21.9	0.00e+00	0	23	0	1112539136	48	6345
2026-01-09 15:07:45.69	209.44	27.60	-39.0	-40.3	20.9	0.00e+00	0	23	0	1119879168	50	6658
2026-01-09 15:07:49.72	209.36	26.90	-37.3	-38.4	22.5	0.00e+00	0	22	0	1127219200	48	5976
2026-01-09 15:07:53.76	209.28	26.22	-35.7	-36.6	24.0	0.00e+00	0	22	0	1135607808	44	6111
2026-01-09 15:07:57.80	209.20	25.56	-36.3	-37.2	23.5	0.00e+00	0	23	0	1142947840	44	6596
2026-01-09 15:08:01.84	209.13	24.91	-37.8	-38.8	22.1	0.00e+00	0	23	0	1150287872	48	6307
2026-01-09 15:08:05.88	209.06	24.27	-38.9	-40.2	21.0	0.00e+00	0	23	0	1157627904	50	6552
2026-01-09 15:08:09.92	208.99	23.65	-38.0	-39.2	21.9	0.00e+00	0	23	0	1164967936	50	5830
2026-01-09 15:08:13.96	208.93	23.05	-37.1	-38.1	22.7	0.00e+00	0	23	0	1173356544	48	5788
2026-01-09 15:08:18.00	208.87	22.46	-36.0	-36.9	23.6	0.00e+00	0	23	0	1180696576	46	5663
2026-01-09 15:08:22.04	208.81	21.88	-35.3	-36.1	24.3	0.00e+00	0	23	0	1188036608	44	5792
2026-01-09 15:08:26.08	208.76	21.32	-35.3	-36.1	24.2	0.00e+00	0	23	0	1195376640	44	5826
2026-01-09 15:08:30.12	208.71	20.76	-35.9	-36.8	23.7	0.00e+00	0	23	0	1203765248	44	6290
2026-01-09 15:08:34.15	208.65	20.23	-36.1	-37.0	23.6	0.00e+00	0	23	0	1211105280	44	6424
2026-01-09 15:08:38.20	208.61	19.69	-36.2	-37.1	23.5	0.00e+00	0	23	0	1218445312	44	6503
2026-01-09 15:08:42.24	208.56	19.18	-36.1	-37.0	23.5	0.00e+00	0	23	0	1225785344	44	6434
2026-01-09 15:08:46.28	208.52	18.67	-37.2	-38.1	22.7	0.00e+00	0	23	0	1234173952	46	6521
2026-01-09 15:08:50.32	208.47	18.17	-38.4	-39.5	21.3	0.00e+00	0	23	0	1241513984	48	6798
2026-01-09 15:08:54.36	208.43	17.68	-40.0	-41.4	19.9	0.00e+00	0	23	0	1248854016	52	6699
2026-01-09 15:08:58.40	208.39	17.21	-40.3	-41.7	19.6	0.00e+00	0	23	0	1256194048	52	6980
2026-01-09 15:09:02.44	208.36	16.74	-39.8	-41.1	20.1	0.00e+00	0	23	0	1263534080	52	6521
2026-01-09 15:09:06.48	208.32	16.28	-39.8	-41.2	19.9	0.00e+00	0	23	0	1271922688	52	6588
2026-01-09 15:09:10.52	208.29	15.83	-39.4	-40.7	20.5	0.00e+00	0	23	0	1279262720	52	6188
2026-01-09 15:09:14.56	208.25	15.38	-39.6	-41.0	20.2	0.00e+00	0	23	0	1286602752	52	6404
2026-01-09 15:09:18.60	208.22	14.95	-39.5	-40.8	20.4	0.00e+00	0	23	0	1293942784	52	6308
2026-01-09 15:09:22.64	208.19	14.52	-38.9	-40.2	20.9	0.00e+00	0	23	0	1302331392	52	5849
2026-01-09 15:09:26.68	208.16	14.10	-38.5	-39.7	21.2	0.00e+00	0	23	0	1309671424	50	6213
2026-01-09 15:09:30.71	208.14	13.69	-38.2	-39.3	21.6	0.00e+00	0	23	0	1317011456	50	5952
2026-01-09 15:09:34.75	208.11	13.28	-38.1	-39.2	21.7	0.00e+00	0	23	0	1324351488	50	5880
2026-01-09 15:09:38.79	208.08	12.88	-37.9	-39.0	21.9	0.00e+00	0	23	0	1331691520	48	6408
2026-01-09 15:09:42.83	208.06	12.49	-37.8	-38.9	21.9	0.00e+00	0	23	0	1340080128	48	6350
2026-01-09 15:09:46.86	208.04	12.10	-37.8	-38.8	21.9	0.00e+00	0	23	0	1347420160	48	6296
2026-01-09 15:09:50.90	208.01	11.72	-38.1	-39.2	21.6	0.00e+00	0	23	0	1354760192	48	6561
2026-01-09 15:09:54.94	207.99	11.35	-37.8	-38.8	21.8	0.00e+00	0	23	0	1362100224	48	6302
2026-01-09 15:09:58.98	207.97	10.98	-38.2	-39.4	21.4	0.00e+00	0	23	0	1369440256	48	6700
2026-01-09 15:10:03.02	207.95	10.61	-38.3	-39.4	21.2	0.00e+00	0	22	0	1377828864	48	6752
2026-01-09 15:10:07.06	207.93	10.26	-38.3	-39.4	21.3	0.00e+00	0	23	0	1385168896	48	6761
2026-01-09 15:10:11.09	207.91	9.90	-38.2	-39.3	21.4	0.00e+00	0	23	0	1392508928	48	6672
2026-01-09 15:10:15.13	207.89	9.55	-38.2	-39.3	21.4	0.00e+00	0	23	0	1399848960	48	6668
2026-01-09 15:10:19.17	207.88	9.21	-38.2	-39.3	21.4	0.00e+00	0	23	0	1408237568	48	6683
2026-01-09 15:10:23.21	207.86	8.87	-38.3	-39.4	21.2	0.00e+00	0	23	0	1415577600	48	6761
2026-01-09 15:10:27.25	207.85	8.54	-38.5	-39.7	21.0	0.00e+00	0	23	0	1422917632	48	6957
2026-01-09 15:10:31.29	207.83	8.21	-38.4	-39.6	21.0	0.00e+00	0	23	0	1430257664	48	6877
2026-01-09 15:10:35.33	207.82	7.88	-38.4	-39.6	21.0	0.00e+00	0	23	0	1437597696	48	6886
2026-01-09 15:10:39.37	207.80	7.56	-38.3	-39.5	21.1	0.00e+00	0	23	0	1445986304	48	6804
2026-01-09 15:10:43.41	207.79	7.24	-38.5	-39.7	20.9	0.00e+00	0	22	0	1453326336	48	6963
2026-01-09 15:10:47.45	207.78	6.93	-38.6	-39.8	20.6	0.00e+00	0	23	0	1460666368	50	6300
2026-01-09 15:10:51.49	207.76	6.62	-38.8	-40.0	20.5	0.00e+00	0	23	0	1468006400	50	6452
2026-01-09 15:10:55.53	207.75	6.31	-39.1	-40.5	20.1	0.00e+00	0	23	0	1476395008	50	6788
2026-01-09 15:10:59.57	207.74	6.01	-39.2	-40.5	20.1	0.00e+00	0	23	0	1483735040	50	6810
2026-01-09 15:11:03.61	207.73	5.71	-39.5	-40.9	19.7	0.00e+00	0	23	0	1491075072	50	7131
2026-01-09 15:11:07.65	207.72	5.41	-39.6	-41.0	19.5	0.00e+00	0	23	0	1498415104	52	6417
2026-01-09 15:11:11.68	207.71	5.12	-39.5	-41.0	19.5	0.00e+00	0	23	0	1505755136	52	6403
2026-01-09 15:11:15.72	207.70	4.83	-39.7	-41.2	19.1	0.00e+00	0	23	0	1514143744	52	6604
2026-01-09 15:11:19.77	207.69	4.55	-40.2	-41.7	18.8	0.00e+00	0	23	0	1521483776	52	7002
2026-01-09 15:11:23.80	207.68	4.26	-40.1	-41.7	18.7	0.00e+00	0	23	0	1528823808	52	6998
2026-01-09 15:11:27.83	207.67	3.98	-40.2	-41.8	18.6	0.00e+00	0	23	0	1536163840	52	7056
2026-01-09 15:11:31.88	207.67	3.71	-40.3	-42.0	18.3	0.00e+00	0	23	0	1544552448	52	7232
2026-01-09 15:11:35.91	207.66	3.43	-40.2	-41.9	18.1	0.00e+00	0	23	0	1551892480	54	6359
2026-01-09 15:11:39.95	207.65	3.16	-40.7	-42.6	17.6	0.00e+00	0	23	0	1559232512	54	6890
2026-01-09 15:11:43.99	207.65	2.89	-47.1	-62.3	3.6	1.51e+00	0	23	104	1563426816	60	47026
2026-01-09 15:11:48.03	207.64	2.62	-47.6	-62.8	3.6	1.51e+00	0	23	104	1563426816	60	50181
2026-01-09 15:11:52.06	207.63	2.36	-47.6	-62.9	3.6	1.51e+00	0	23	104	1563426816	60	50450
2026-01-09 15:11:56.10	207.63	2.10	-47.5	-62.8	3.6	1.51e+00	0	23	104	1563426816	60	49850
2026-01-09 15:12:00.14	207.62	1.84	-47.6	-62.8	3.6	1.51e+00	0	23	104	1563426816	60	49751
2026-01-09 15:12:04.18	207.62	1.58	-47.6	-62.8	3.5	1.51e+00	0	23	104	1563426816	60	49777
2026-01-09 15:12:08.22	207.61	1.33	-47.6	-62.8	3.6	1.51e+00	0	23	104	1563426816	60	49651
2026-01-09 15:12:12.26	207.61	1.08	-47.6	-62.8	3.6	1.51e+00	0	23	104	1563426816	60	49864
2026-01-09 15:12:16.30	207.60	0.83	-47.6	-62.8	3.6	1.51e+00	0	23	104	1563426816	60	50171
2026-01-09 15:12:20.34	207.60	0.58	-47.6	-62.8	3.6	1.51e+00	0	23	104	1563426816	60	49968
2026-01-09 15:12:24.38	207.60	0.33	-47.6	-62.8	3.6	1.51e+00	0	23	104	1563426816	60	49822
2026-01-09 15:12:28.41	207.59	0.09	-47.6	-62.8	3.6	1.51e+00	0	23	104	1563426816	60	49695

#Closed at: 2026-01-09 15:12:30
#Recorded file [1563 MB]: D:/lorett/data/35029_260110_025659.dat