passes_logs/2026/01/09/R4.6S_Anadyr/R4.6S_Anadyr__20260109_201554_NOAA_20_JPSS-1_rec.log

#Pass ID: 20260109_201554_NOAA 20 (JPSS-1)
#Satellite: NOAA 20 (JPSS-1)
#Configuration: NOAA 20
#almurnet v.1.7.20251203
#Start time: 2026-01-09 20:15:56

#Version: 2.2.20231116
#Station: R4.6S_Anadyr
#Location: 177.4865 lon 64.73178 lat
#TLE: 1 43013U 17073A   26008.91585656  .00000107  00000+0  71497-4 0  9999
#TLE: 2 43013  98.7631 309.9196 0001713  47.9261 312.2060 14.19534561421870

#Time	Az	El	Level	Level2	SNR	BER	BlckErr	Temp	State	Recorded	gain1	gain2
2026-01-09 20:15:56.06	66.86	0.08	-47.9	-62.8	3.5	1.51e+00	0	23	0	0	60	49907
2026-01-09 20:15:59.09	66.63	0.23	-47.8	-63.1	3.6	1.51e+00	0	24	104	0	60	51364
2026-01-09 20:16:02.12	66.41	0.38	-47.8	-63.1	3.6	1.51e+00	0	24	104	0	60	51674
2026-01-09 20:16:05.15	66.18	0.53	-47.8	-63.1	3.6	1.51e+00	0	24	104	0	60	51418
2026-01-09 20:16:08.18	65.95	0.68	-47.8	-63.0	3.6	1.51e+00	0	24	104	0	60	51327
2026-01-09 20:16:11.20	65.72	0.83	-47.5	-62.7	3.6	1.51e+00	0	24	104	0	60	49189
2026-01-09 20:16:14.23	65.48	0.98	-46.3	-61.4	3.6	1.51e+00	0	24	104	0	60	42433
2026-01-09 20:16:17.27	65.24	1.13	-46.2	-61.4	3.6	1.51e+00	0	24	104	0	60	42251
2026-01-09 20:16:20.30	65.00	1.28	-46.2	-61.4	3.6	1.51e+00	0	24	104	0	60	42231
2026-01-09 20:16:23.32	64.76	1.44	-46.2	-61.4	3.6	1.51e+00	0	24	104	0	60	42262
2026-01-09 20:16:26.35	64.52	1.59	-46.2	-61.4	3.6	1.51e+00	0	24	104	0	60	42231
2026-01-09 20:16:29.38	64.27	1.74	-46.2	-61.4	3.6	1.51e+00	0	24	104	0	60	42421
2026-01-09 20:16:32.41	64.02	1.89	-46.2	-61.4	3.6	1.51e+00	0	24	104	0	60	42275
2026-01-09 20:16:35.44	63.76	2.05	-46.2	-61.2	3.6	1.51e+00	0	24	104	0	60	41298
2026-01-09 20:16:38.47	63.51	2.20	-46.2	-61.1	3.6	1.51e+00	0	24	104	0	60	41238
2026-01-09 20:16:41.50	63.25	2.35	-46.2	-61.4	3.6	1.51e+00	0	24	104	0	60	42305
2026-01-09 20:16:44.53	62.99	2.51	-46.2	-61.4	3.6	1.51e+00	0	25	104	0	60	42240
2026-01-09 20:16:47.56	62.72	2.66	-46.1	-60.5	3.6	1.51e+00	0	24	104	0	60	38405
2026-01-09 20:16:50.59	62.46	2.82	-46.2	-60.6	3.6	1.51e+00	0	24	104	0	60	38847
2026-01-09 20:16:53.62	62.19	2.97	-44.8	-50.2	9.5	5.13e-02	0	24	0	3145728	60	11749
2026-01-09 20:16:56.65	61.91	3.13	-45.9	-54.8	4.5	3.21e-01	0	25	0	8388608	60	19890
2026-01-09 20:16:59.67	61.64	3.28	-45.3	-52.7	5.2	0.00e+00	0	24	0	11534336	58	17602
2026-01-09 20:17:02.70	61.36	3.44	-41.1	-43.0	17.5	0.00e+00	0	25	0	12582912	56	6411
2026-01-09 20:17:05.72	61.08	3.59	-41.2	-43.1	17.6	0.00e+00	0	25	0	18874368	56	6501
2026-01-09 20:17:08.75	60.79	3.75	-41.6	-43.6	17.1	0.00e+00	0	24	0	24117248	56	6907
2026-01-09 20:17:11.77	60.50	3.90	-41.4	-43.5	17.1	0.00e+00	0	25	0	30408704	56	6792
2026-01-09 20:17:14.79	60.21	4.06	-41.2	-43.2	17.5	0.00e+00	0	25	0	35651584	56	6554
2026-01-09 20:17:17.81	59.92	4.22	-41.1	-42.9	17.8	0.00e+00	0	25	0	40894464	56	6374
2026-01-09 20:17:20.84	59.62	4.37	-41.2	-43.0	17.7	0.00e+00	0	25	0	47185920	56	6463
2026-01-09 20:17:23.87	59.32	4.53	-40.9	-42.7	18.1	0.00e+00	0	25	0	52428800	56	6214
2026-01-09 20:17:26.90	59.01	4.69	-41.0	-42.8	18.1	0.00e+00	0	25	0	58720256	56	6288
2026-01-09 20:17:29.92	58.71	4.84	-40.8	-42.6	18.3	0.00e+00	0	25	0	63963136	56	6127
2026-01-09 20:17:32.95	58.39	5.00	-40.6	-42.3	18.5	0.00e+00	0	25	0	69206016	54	6645
2026-01-09 20:17:35.98	58.08	5.16	-40.3	-41.9	18.8	0.00e+00	0	25	0	75497472	54	6367
2026-01-09 20:17:39.01	57.76	5.32	-40.7	-42.3	18.5	0.00e+00	0	25	0	80740352	54	6691
2026-01-09 20:17:42.04	57.44	5.48	-40.3	-41.8	19.0	0.00e+00	0	25	0	87031808	54	6299
2026-01-09 20:17:45.06	57.11	5.63	-40.3	-41.8	19.1	0.00e+00	0	25	0	92274688	54	6305
2026-01-09 20:17:48.09	56.78	5.79	-40.1	-41.6	19.3	0.00e+00	0	25	0	98566144	54	6114
2026-01-09 20:17:51.12	56.45	5.95	-39.9	-41.4	19.6	0.00e+00	0	25	0	103809024	54	6019
2026-01-09 20:17:54.15	56.11	6.11	-39.7	-41.1	19.7	0.00e+00	0	25	0	109051904	52	6538
2026-01-09 20:17:57.18	55.77	6.27	-39.5	-40.9	20.1	0.00e+00	0	25	0	115343360	52	6324
2026-01-09 20:18:00.20	55.43	6.42	-39.5	-40.9	20.1	0.00e+00	0	25	0	120586240	52	6323
2026-01-09 20:18:03.23	55.08	6.58	-39.4	-40.7	20.2	0.00e+00	0	25	0	126877696	52	6213
2026-01-09 20:18:06.26	54.73	6.74	-39.5	-40.8	20.1	0.00e+00	0	25	0	132120576	52	6311
2026-01-09 20:18:09.29	54.37	6.90	-39.6	-41.0	20.0	0.00e+00	0	25	0	137363456	52	6412
2026-01-09 20:18:12.31	54.01	7.05	-39.5	-40.8	20.2	0.00e+00	0	25	0	143654912	52	6312
2026-01-09 20:18:15.34	53.65	7.21	-39.7	-41.0	20.1	0.00e+00	0	25	0	148897792	52	6442
2026-01-09 20:18:18.36	53.28	7.37	-39.5	-40.8	20.2	0.00e+00	0	25	0	155189248	52	6299
2026-01-09 20:18:21.39	52.91	7.53	-39.2	-40.5	20.5	0.00e+00	0	25	0	160432128	52	6075
2026-01-09 20:18:24.42	52.53	7.68	-39.4	-40.7	20.4	0.00e+00	0	25	0	165675008	52	6207
2026-01-09 20:18:27.44	52.15	7.84	-39.3	-40.6	20.4	0.00e+00	0	25	0	171966464	52	6163
2026-01-09 20:18:30.47	51.77	8.00	-39.3	-40.6	20.5	0.00e+00	0	25	0	177209344	52	6121
2026-01-09 20:18:33.50	51.38	8.15	-39.3	-40.6	20.5	0.00e+00	0	25	0	183500800	52	6155
2026-01-09 20:18:36.53	50.98	8.31	-39.3	-40.6	20.5	0.00e+00	0	25	0	188743680	52	6126
2026-01-09 20:18:39.56	50.59	8.47	-39.2	-40.5	20.6	0.00e+00	0	25	0	195035136	52	6062
2026-01-09 20:18:42.58	50.18	8.62	-39.2	-40.4	20.7	0.00e+00	0	25	0	200278016	52	6027
2026-01-09 20:18:45.61	49.78	8.78	-39.2	-40.4	20.7	0.00e+00	0	25	0	205520896	52	6021
2026-01-09 20:18:48.63	49.37	8.93	-39.0	-40.2	20.9	0.00e+00	0	25	0	211812352	52	5895
2026-01-09 20:18:51.65	48.95	9.08	-38.9	-40.1	21.0	0.00e+00	0	25	0	217055232	52	5806
2026-01-09 20:18:54.68	48.53	9.24	-38.9	-40.1	21.0	0.00e+00	0	25	0	223346688	52	5791
2026-01-09 20:18:57.72	48.11	9.39	-38.9	-40.1	21.1	0.00e+00	0	25	0	228589568	52	5780
2026-01-09 20:19:00.75	47.68	9.54	-38.9	-40.1	21.1	0.00e+00	0	25	0	233832448	52	5781
2026-01-09 20:19:03.77	47.25	9.69	-39.0	-40.3	20.9	0.00e+00	0	25	0	240123904	52	5900
2026-01-09 20:19:06.80	46.81	9.85	-39.0	-40.2	20.9	0.00e+00	0	25	0	245366784	52	5863
2026-01-09 20:19:09.83	46.37	10.00	-38.9	-40.1	21.2	0.00e+00	0	25	0	251658240	52	5773
2026-01-09 20:19:12.86	45.92	10.15	-38.6	-39.7	21.4	0.00e+00	0	25	0	256901120	50	6206
2026-01-09 20:19:15.88	45.47	10.29	-38.4	-39.5	21.7	0.00e+00	0	25	0	263192576	50	6048
2026-01-09 20:19:18.91	45.01	10.44	-38.2	-39.4	21.8	0.00e+00	0	25	0	268435456	50	5965
2026-01-09 20:19:21.93	44.55	10.59	-38.0	-39.0	22.1	0.00e+00	0	25	0	273678336	50	5748
2026-01-09 20:19:24.96	44.08	10.74	-37.9	-38.9	22.2	0.00e+00	0	25	0	279969792	50	5682
2026-01-09 20:19:27.99	43.61	10.88	-37.4	-38.4	22.6	0.00e+00	0	25	0	285212672	48	6014
2026-01-09 20:19:31.02	43.14	11.02	-37.6	-38.6	22.5	0.00e+00	0	25	0	291504128	48	6152
2026-01-09 20:19:34.05	42.66	11.17	-37.3	-38.3	22.8	0.00e+00	0	25	0	296747008	48	5916
2026-01-09 20:19:37.07	42.17	11.31	-37.3	-38.3	22.8	0.00e+00	0	25	0	301989888	48	5959
2026-01-09 20:19:40.10	41.68	11.45	-37.2	-38.2	22.9	0.00e+00	0	25	0	308281344	48	5845
2026-01-09 20:19:43.13	41.19	11.59	-37.0	-38.0	23.1	0.00e+00	0	25	0	313524224	48	5713
2026-01-09 20:19:46.16	40.69	11.73	-37.1	-38.0	23.1	0.00e+00	0	25	0	319815680	48	5748
2026-01-09 20:19:49.19	40.19	11.86	-36.8	-37.7	23.3	0.00e+00	0	25	0	325058560	48	5559
2026-01-09 20:19:52.22	39.68	12.00	-36.9	-37.9	23.3	0.00e+00	0	25	0	330301440	46	6328
2026-01-09 20:19:55.24	39.16	12.13	-36.6	-37.5	23.6	0.00e+00	0	25	0	336592896	46	6059
2026-01-09 20:19:58.27	38.65	12.26	-36.5	-37.4	22.9	0.00e+00	0	25	0	341835776	46	5998
2026-01-09 20:20:01.30	38.12	12.39	-36.4	-37.3	23.7	0.00e+00	0	25	0	348127232	46	5928
2026-01-09 20:20:04.32	37.60	12.52	-36.8	-37.7	23.4	0.00e+00	0	25	0	353370112	46	6191
2026-01-09 20:20:07.35	37.06	12.65	-36.9	-37.9	23.2	0.00e+00	0	25	0	359661568	46	6327
2026-01-09 20:20:10.38	36.53	12.78	-36.8	-37.7	23.4	0.00e+00	0	25	0	364904448	46	6219
2026-01-09 20:20:13.41	35.99	12.90	-37.0	-37.9	22.9	0.00e+00	0	25	0	370147328	46	6364
2026-01-09 20:20:16.43	35.44	13.02	-36.9	-37.8	23.3	0.00e+00	0	25	0	376438784	46	6269
2026-01-09 20:20:19.46	34.89	13.14	-37.0	-37.9	23.3	0.00e+00	0	25	0	381681664	46	6384
2026-01-09 20:20:22.49	34.33	13.26	-37.0	-38.0	23.1	0.00e+00	0	25	0	387973120	46	6418
2026-01-09 20:20:25.52	33.77	13.37	-36.8	-37.7	23.5	0.00e+00	0	25	0	393216000	46	6209
2026-01-09 20:20:28.55	33.21	13.49	-36.8	-37.7	23.4	0.00e+00	0	25	0	398458880	46	6193
2026-01-09 20:20:31.57	32.64	13.60	-36.7	-37.7	23.4	0.00e+00	0	25	0	404750336	46	6181
2026-01-09 20:20:34.60	32.07	13.70	-36.6	-37.5	23.7	0.00e+00	0	25	0	409993216	46	6071
2026-01-09 20:20:37.63	31.49	13.81	-36.5	-37.4	23.7	0.00e+00	0	25	0	416284672	46	5987
2026-01-09 20:20:40.66	30.91	13.91	-36.6	-37.4	23.6	0.00e+00	0	25	0	421527552	46	6030
2026-01-09 20:20:43.69	30.33	14.01	-36.4	-37.3	23.8	0.00e+00	0	25	0	427819008	46	5935
2026-01-09 20:20:46.71	29.74	14.11	-36.3	-37.2	23.8	0.00e+00	0	25	0	433061888	46	5887
2026-01-09 20:20:49.74	29.15	14.21	-36.3	-37.1	23.9	0.00e+00	0	25	0	438304768	46	5810
2026-01-09 20:20:52.77	28.55	14.30	-36.6	-37.5	23.6	0.00e+00	0	25	0	444596224	46	6076
2026-01-09 20:20:55.80	27.95	14.39	-36.2	-37.1	23.9	0.00e+00	0	25	0	449839104	46	5795
2026-01-09 20:20:58.82	27.35	14.48	-36.7	-37.6	23.6	0.00e+00	0	25	0	456130560	46	6127
2026-01-09 20:21:01.85	26.74	14.56	-36.4	-37.3	23.8	0.00e+00	0	25	0	461373440	46	5898
2026-01-09 20:21:04.88	26.13	14.65	-36.7	-37.6	23.6	0.00e+00	0	25	0	466616320	46	6153
2026-01-09 20:21:07.90	25.52	14.72	-36.6	-37.5	23.1	0.00e+00	0	25	0	472907776	46	6079
2026-01-09 20:21:10.93	24.90	14.80	-36.8	-37.7	23.5	0.00e+00	0	25	0	478150656	46	6197
2026-01-09 20:21:13.96	24.28	14.87	-36.8	-37.7	23.4	0.00e+00	0	25	0	484442112	46	6244
2026-01-09 20:21:16.99	23.65	14.94	-36.7	-37.6	23.5	0.00e+00	0	25	0	489684992	46	6171
2026-01-09 20:21:20.02	23.03	15.01	-37.2	-38.2	23.0	0.00e+00	0	25	0	494927872	46	6543
2026-01-09 20:21:23.05	22.40	15.07	-37.3	-38.3	23.0	0.00e+00	0	25	0	501219328	46	6648
2026-01-09 20:21:26.08	21.77	15.13	-37.4	-38.4	22.9	0.00e+00	0	25	0	506462208	46	6734
2026-01-09 20:21:29.11	21.13	15.19	-37.0	-37.9	23.3	0.00e+00	0	25	0	512753664	46	6389
2026-01-09 20:21:32.14	20.49	15.24	-36.7	-37.6	23.5	0.00e+00	0	25	0	517996544	46	6165
2026-01-09 20:21:35.16	19.86	15.29	-36.7	-37.6	23.5	0.00e+00	0	25	0	524288000	46	6143
2026-01-09 20:21:38.19	19.22	15.33	-36.7	-37.6	23.6	0.00e+00	0	25	0	529530880	46	6126
2026-01-09 20:21:41.22	18.57	15.37	-36.8	-37.8	23.4	0.00e+00	0	25	0	534773760	46	6256
2026-01-09 20:21:44.24	17.93	15.41	-37.0	-37.9	23.1	0.00e+00	0	25	0	541065216	46	6387
2026-01-09 20:21:47.27	17.28	15.45	-36.8	-37.7	23.4	0.00e+00	0	25	0	546308096	46	6239
2026-01-09 20:21:50.30	16.64	15.48	-36.9	-37.8	23.4	0.00e+00	0	25	0	552599552	46	6281
2026-01-09 20:21:53.33	15.99	15.51	-37.0	-38.0	23.2	0.00e+00	0	25	0	557842432	46	6405
2026-01-09 20:21:56.36	15.34	15.53	-37.0	-37.9	23.2	0.00e+00	0	25	0	563085312	46	6385
2026-01-09 20:21:59.38	14.69	15.55	-36.9	-37.9	23.3	0.00e+00	0	25	0	569376768	46	6338
2026-01-09 20:22:02.41	14.04	15.57	-36.8	-37.7	23.4	0.00e+00	0	25	0	574619648	46	6229
2026-01-09 20:22:05.44	13.38	15.58	-36.9	-37.8	23.4	0.00e+00	0	25	0	580911104	46	6299
2026-01-09 20:22:08.46	12.73	15.59	-36.9	-37.8	23.3	0.00e+00	0	25	0	586153984	46	6316
2026-01-09 20:22:11.49	12.08	15.59	-36.9	-37.8	23.3	0.00e+00	0	25	0	592445440	46	6298
2026-01-09 20:22:14.52	11.43	15.59	-37.0	-37.9	23.3	0.00e+00	0	25	0	597688320	46	6335
2026-01-09 20:22:17.55	10.77	15.59	-36.9	-37.8	23.3	0.00e+00	0	25	0	602931200	46	6275
2026-01-09 20:22:20.58	10.12	15.59	-36.7	-37.6	23.5	0.00e+00	0	25	0	609222656	46	6154
2026-01-09 20:22:23.61	9.47	15.58	-37.1	-38.1	23.2	0.00e+00	0	25	0	614465536	46	6471
2026-01-09 20:22:26.64	8.82	15.56	-37.3	-38.2	23.0	0.00e+00	0	25	0	620756992	46	6607
2026-01-09 20:22:29.66	8.17	15.54	-37.1	-38.1	23.2	0.00e+00	0	25	0	625999872	46	6474
2026-01-09 20:22:32.69	7.52	15.52	-37.2	-38.2	23.1	0.00e+00	0	25	0	631242752	46	6555
2026-01-09 20:22:35.72	6.87	15.50	-37.0	-38.0	23.3	0.00e+00	0	25	0	637534208	46	6399
2026-01-09 20:22:38.74	6.22	15.47	-37.0	-38.0	23.2	0.00e+00	0	25	0	642777088	46	6409
2026-01-09 20:22:41.77	5.57	15.44	-37.0	-38.0	23.2	0.00e+00	0	25	0	649068544	46	6408
2026-01-09 20:22:44.80	4.93	15.40	-37.0	-37.9	23.3	0.00e+00	0	25	0	654311424	46	6361
2026-01-09 20:22:47.83	4.28	15.36	-36.9	-37.8	23.5	0.00e+00	0	25	0	660602880	46	6288
2026-01-09 20:22:50.86	3.64	15.32	-36.6	-37.5	23.6	0.00e+00	0	25	0	665845760	46	6057
2026-01-09 20:22:53.88	3.00	15.27	-36.6	-37.6	23.5	0.00e+00	0	25	0	671088640	46	6113
2026-01-09 20:22:56.91	2.36	15.22	-36.5	-37.4	23.8	0.00e+00	0	25	0	677380096	46	5976
2026-01-09 20:22:59.94	1.73	15.17	-36.3	-37.2	23.9	0.00e+00	0	25	0	682622976	46	5852
2026-01-09 20:23:02.96	1.10	15.11	-36.6	-37.4	23.7	0.00e+00	0	25	0	688914432	46	6029
2026-01-09 20:23:05.99	0.47	15.05	-36.5	-37.4	23.7	0.00e+00	0	25	0	694157312	46	5974
2026-01-09 20:23:09.02	359.84	14.99	-36.5	-37.4	23.7	0.00e+00	0	25	0	699400192	46	5983
2026-01-09 20:23:12.05	359.21	14.92	-36.7	-37.6	23.5	0.00e+00	0	25	0	705691648	46	6125
2026-01-09 20:23:15.07	358.59	14.85	-36.8	-37.7	23.5	0.00e+00	0	25	0	710934528	46	6216
2026-01-09 20:23:18.10	357.97	14.78	-36.8	-37.7	23.4	0.00e+00	0	25	0	717225984	46	6243
2026-01-09 20:23:21.13	357.36	14.70	-36.9	-37.8	23.3	0.00e+00	0	25	0	722468864	46	6292
2026-01-09 20:23:24.16	356.74	14.62	-36.9	-37.9	23.3	0.00e+00	0	25	0	727711744	46	6328
2026-01-09 20:23:27.19	356.13	14.54	-36.9	-37.8	23.3	0.00e+00	0	25	0	734003200	46	6295
2026-01-09 20:23:30.22	355.53	14.46	-36.9	-37.8	23.3	0.00e+00	0	25	0	739246080	46	6296
2026-01-09 20:23:33.24	354.93	14.37	-37.1	-38.1	23.0	0.00e+00	0	25	0	745537536	46	6495
2026-01-09 20:23:36.27	354.33	14.28	-36.9	-37.8	23.4	0.00e+00	0	25	0	750780416	46	6288
2026-01-09 20:23:39.30	353.73	14.18	-36.9	-37.8	23.4	0.00e+00	0	25	0	757071872	46	6291
2026-01-09 20:23:42.32	353.14	14.09	-36.5	-37.4	23.7	0.00e+00	0	25	0	762314752	46	6014
2026-01-09 20:23:45.35	352.55	13.99	-36.6	-37.5	23.5	0.00e+00	0	25	0	767557632	46	6096
2026-01-09 20:23:48.38	351.97	13.89	-36.6	-37.5	23.5	0.00e+00	0	25	0	773849088	46	6062
2026-01-09 20:23:51.40	351.39	13.78	-36.5	-37.4	23.7	0.00e+00	0	25	0	779091968	46	6003
2026-01-09 20:23:54.42	350.82	13.68	-36.8	-37.7	23.4	0.00e+00	0	25	0	785383424	46	6232
2026-01-09 20:23:57.45	350.25	13.57	-36.8	-37.7	23.3	0.00e+00	0	25	0	790626304	46	6236
2026-01-09 20:24:00.48	349.68	13.46	-36.8	-37.7	23.4	0.00e+00	0	25	0	795869184	46	6191
2026-01-09 20:24:03.50	349.12	13.34	-36.5	-37.4	23.5	0.00e+00	0	25	0	802160640	46	6026
2026-01-09 20:24:06.53	348.56	13.23	-37.0	-37.9	23.2	0.00e+00	0	25	0	807403520	46	6383
2026-01-09 20:24:09.56	348.01	13.11	-36.9	-37.8	23.3	0.00e+00	0	25	0	813694976	46	6276
2026-01-09 20:24:12.58	347.46	12.99	-36.8	-37.7	23.4	0.00e+00	0	25	0	818937856	46	6212
2026-01-09 20:24:15.61	346.92	12.87	-36.9	-37.8	23.1	0.00e+00	0	25	0	824180736	46	6304
2026-01-09 20:24:18.64	346.38	12.74	-37.1	-38.1	23.0	0.00e+00	0	25	0	830472192	46	6515
2026-01-09 20:24:21.67	345.84	12.62	-37.4	-38.4	22.7	0.00e+00	0	25	0	835715072	46	6709
2026-01-09 20:24:24.69	345.31	12.49	-37.5	-38.5	22.6	0.00e+00	0	25	0	842006528	46	6826
2026-01-09 20:24:27.72	344.79	12.36	-37.7	-38.8	22.4	0.00e+00	0	25	0	847249408	46	7017
2026-01-09 20:24:30.75	344.27	12.23	-37.8	-38.9	22.3	0.00e+00	0	25	0	853540864	48	6320
2026-01-09 20:24:33.78	343.75	12.10	-38.0	-39.2	22.0	0.00e+00	0	25	0	858783744	48	6554
2026-01-09 20:24:36.80	343.24	11.97	-38.4	-39.6	21.5	0.00e+00	0	25	0	864026624	48	6904
2026-01-09 20:24:39.83	342.73	11.83	-38.7	-40.0	21.2	0.00e+00	0	25	0	870318080	48	7193
2026-01-09 20:24:42.86	342.23	11.69	-38.9	-40.2	21.1	0.00e+00	0	25	0	875560960	50	6541
2026-01-09 20:24:45.89	341.73	11.56	-38.9	-40.2	21.0	0.00e+00	0	25	0	881852416	50	6570
2026-01-09 20:24:48.91	341.24	11.42	-39.0	-40.3	21.0	0.00e+00	0	25	0	887095296	50	6640
2026-01-09 20:24:51.94	340.76	11.28	-39.4	-40.7	20.6	0.00e+00	0	25	0	892338176	50	7003
2026-01-09 20:24:54.97	340.27	11.13	-39.3	-40.7	20.6	0.00e+00	0	25	0	898629632	50	6961
2026-01-09 20:24:58.00	339.79	10.99	-39.3	-40.7	20.5	0.00e+00	0	25	0	903872512	50	6963
2026-01-09 20:25:01.03	339.32	10.85	-39.5	-40.9	20.3	0.00e+00	0	25	0	910163968	50	7139
2026-01-09 20:25:04.06	338.85	10.70	-39.6	-41.0	20.2	0.00e+00	0	25	0	915406848	50	7224
2026-01-09 20:25:07.08	338.39	10.55	-39.7	-41.1	20.0	0.00e+00	0	25	0	921698304	50	7323
2026-01-09 20:25:10.11	337.93	10.41	-39.6	-41.0	20.1	0.00e+00	0	25	0	926941184	50	7204
2026-01-09 20:25:13.14	337.47	10.26	-39.5	-40.9	20.3	0.00e+00	0	25	0	932184064	50	7146
2026-01-09 20:25:16.17	337.02	10.11	-39.6	-40.9	20.3	0.00e+00	0	25	0	938475520	50	7145
2026-01-09 20:25:19.20	336.58	9.96	-39.6	-41.0	20.2	0.00e+00	0	25	0	943718400	50	7199
2026-01-09 20:25:22.23	336.14	9.81	-39.4	-40.8	20.3	0.00e+00	0	25	0	950009856	50	7030
2026-01-09 20:25:25.26	335.70	9.66	-39.3	-40.6	20.5	0.00e+00	0	25	0	955252736	50	6868
2026-01-09 20:25:28.28	335.27	9.51	-39.1	-40.3	20.8	0.00e+00	0	25	0	960495616	50	6671
2026-01-09 20:25:31.30	334.85	9.36	-39.0	-40.2	20.9	0.00e+00	0	25	0	966787072	50	6612
2026-01-09 20:25:34.32	334.42	9.20	-38.9	-40.1	21.0	0.00e+00	0	25	0	972029952	50	6478
2026-01-09 20:25:37.35	334.01	9.05	-38.7	-39.9	21.2	0.00e+00	0	25	0	978321408	50	6388
2026-01-09 20:25:40.38	333.59	8.90	-38.7	-39.8	21.2	0.00e+00	0	25	0	983564288	50	6308
2026-01-09 20:25:43.40	333.19	8.74	-38.5	-39.7	21.3	0.00e+00	0	25	0	988807168	50	6193
2026-01-09 20:25:46.43	332.78	8.59	-38.2	-39.3	21.7	0.00e+00	0	25	0	995098624	50	5945
2026-01-09 20:25:49.46	332.38	8.43	-38.2	-39.3	21.7	0.00e+00	0	25	0	1000341504	50	5959
2026-01-09 20:25:52.48	331.99	8.28	-37.9	-39.0	22.0	0.00e+00	0	25	0	1006632960	50	5719
2026-01-09 20:25:55.51	331.59	8.12	-37.7	-38.8	22.2	0.00e+00	0	25	0	1011875840	48	6268
2026-01-09 20:25:58.53	331.21	7.96	-37.6	-38.7	22.2	0.00e+00	0	25	0	1018167296	48	6207
2026-01-09 20:26:01.56	330.83	7.81	-37.5	-38.5	22.4	0.00e+00	0	25	0	1023410176	48	6101
2026-01-09 20:26:04.59	330.45	7.65	-37.5	-38.5	22.4	0.00e+00	0	25	0	1028653056	48	6066
2026-01-09 20:26:07.62	330.07	7.49	-37.5	-38.6	22.2	0.00e+00	0	25	0	1034944512	48	6107
2026-01-09 20:26:10.64	329.70	7.34	-37.4	-38.4	22.4	0.00e+00	0	25	0	1040187392	48	6023
2026-01-09 20:26:13.67	329.34	7.18	-37.6	-38.7	21.7	0.00e+00	0	25	0	1046478848	48	6203
2026-01-09 20:26:16.70	328.97	7.02	-37.6	-38.7	22.1	0.00e+00	0	25	0	1051721728	48	6183
2026-01-09 20:26:19.73	328.62	6.86	-37.5	-38.5	22.3	0.00e+00	0	25	0	1056964608	48	6084
2026-01-09 20:26:22.76	328.26	6.71	-37.6	-38.7	22.2	0.00e+00	0	25	0	1063256064	48	6182
2026-01-09 20:26:25.78	327.91	6.55	-37.8	-38.9	22.0	0.00e+00	0	25	0	1068498944	48	6351
2026-01-09 20:26:28.81	327.57	6.39	-37.9	-39.0	21.8	0.00e+00	0	25	0	1074790400	48	6457
2026-01-09 20:26:31.84	327.22	6.23	-38.0	-39.2	21.7	0.00e+00	0	25	0	1080033280	48	6549
2026-01-09 20:26:34.87	326.88	6.07	-38.1	-39.2	21.5	0.00e+00	0	25	0	1085276160	48	6594
2026-01-09 20:26:37.90	326.55	5.92	-38.2	-39.3	21.6	0.00e+00	0	25	0	1091567616	48	6671
2026-01-09 20:26:40.92	326.22	5.76	-38.1	-39.2	21.6	0.00e+00	0	25	0	1096810496	48	6576
2026-01-09 20:26:43.95	325.89	5.60	-38.4	-39.6	21.3	0.00e+00	0	25	0	1103101952	48	6856
2026-01-09 20:26:46.97	325.57	5.44	-38.5	-39.7	21.0	0.00e+00	0	25	0	1108344832	48	6977
2026-01-09 20:26:50.00	325.25	5.29	-38.8	-40.0	20.8	0.00e+00	0	25	0	1114636288	50	6427
2026-01-09 20:26:53.03	324.93	5.13	-38.7	-40.0	20.8	0.00e+00	0	25	0	1119879168	50	6412
2026-01-09 20:26:56.06	324.62	4.97	-39.2	-40.5	20.3	0.00e+00	0	25	0	1125122048	50	6793
2026-01-09 20:26:59.09	324.31	4.81	-39.0	-40.3	20.3	0.00e+00	0	25	0	1131413504	50	6677
2026-01-09 20:27:02.12	324.00	4.66	-39.4	-40.7	20.1	0.00e+00	0	25	0	1136656384	50	6996
2026-01-09 20:27:05.15	323.70	4.50	-39.2	-40.5	20.2	2.20e-06	0	25	0	1142947840	50	6846
2026-01-09 20:27:08.18	323.40	4.34	-39.2	-40.5	20.1	0.00e+00	0	25	0	1148190720	50	6846
2026-01-09 20:27:11.21	323.10	4.19	-39.5	-41.0	19.7	0.00e+00	0	25	0	1153433600	50	7176
2026-01-09 20:27:14.24	322.81	4.03	-39.6	-41.0	19.6	0.00e+00	0	25	0	1159725056	52	6459
2026-01-09 20:27:17.27	322.52	3.87	-39.9	-41.4	19.3	0.00e+00	0	25	0	1164967936	52	6751
2026-01-09 20:27:20.29	322.23	3.72	-40.2	-41.8	18.8	0.00e+00	0	25	0	1171259392	52	7023
2026-01-09 20:27:23.32	321.95	3.56	-40.1	-41.6	19.0	0.00e+00	0	25	0	1176502272	52	6896
2026-01-09 20:27:26.35	321.66	3.41	-40.1	-41.6	18.9	0.00e+00	0	25	0	1182793728	52	6916
2026-01-09 20:27:29.38	321.39	3.25	-40.2	-41.8	18.7	0.00e+00	0	25	0	1188036608	52	7040
2026-01-09 20:27:32.40	321.11	3.10	-40.3	-41.9	18.7	0.00e+00	0	25	0	1193279488	52	7138
2026-01-09 20:27:35.43	320.84	2.94	-47.1	-62.3	3.6	1.51e+00	0	25	104	1197473792	60	47015
2026-01-09 20:27:38.46	320.57	2.79	-47.9	-63.0	3.6	1.51e+00	0	25	104	1197473792	60	51346
2026-01-09 20:27:41.49	320.31	2.63	-48.0	-63.2	3.6	1.51e+00	0	25	104	1197473792	60	52244
2026-01-09 20:27:44.52	320.04	2.48	-47.9	-63.2	3.6	1.51e+00	0	25	104	1197473792	60	52277
2026-01-09 20:27:47.54	319.78	2.33	-47.8	-63.1	3.6	1.51e+00	0	25	104	1197473792	60	51392
2026-01-09 20:27:50.57	319.53	2.17	-48.0	-63.2	3.6	1.51e+00	0	25	104	1197473792	60	52029
2026-01-09 20:27:53.60	319.27	2.02	-47.9	-63.1	3.5	1.51e+00	0	25	104	1197473792	60	51426
2026-01-09 20:27:56.63	319.02	1.87	-47.9	-63.0	3.6	1.51e+00	0	25	104	1197473792	60	51092
2026-01-09 20:27:59.66	318.77	1.71	-47.9	-63.1	3.6	1.51e+00	0	25	104	1197473792	60	51587
2026-01-09 20:28:02.69	318.53	1.56	-47.9	-63.0	3.6	1.51e+00	0	25	104	1197473792	60	51292
2026-01-09 20:28:05.71	318.28	1.41	-47.9	-63.0	3.6	1.51e+00	0	25	104	1197473792	60	51193
2026-01-09 20:28:08.74	318.04	1.26	-47.8	-63.0	3.5	1.51e+00	0	25	104	1197473792	60	50933
2026-01-09 20:28:11.77	317.80	1.11	-47.8	-63.0	3.6	1.51e+00	0	25	104	1197473792	60	50943
2026-01-09 20:28:14.80	317.57	0.96	-47.8	-63.0	3.6	1.51e+00	0	25	104	1197473792	60	51043
2026-01-09 20:28:17.83	317.33	0.81	-47.9	-63.0	3.6	1.51e+00	0	25	104	1197473792	60	51212
2026-01-09 20:28:20.86	317.10	0.65	-47.9	-63.0	3.6	1.51e+00	0	25	104	1197473792	60	51249
2026-01-09 20:28:23.89	316.87	0.50	-47.9	-63.0	3.6	1.51e+00	0	25	104	1197473792	60	50975
2026-01-09 20:28:26.92	316.65	0.35	-47.9	-63.1	3.6	1.51e+00	0	25	104	1197473792	60	51703
2026-01-09 20:28:29.95	316.42	0.21	-47.8	-63.0	3.6	1.51e+00	0	25	104	1197473792	60	50912
2026-01-09 20:28:32.97	316.20	0.06	-47.9	-63.1	3.6	1.51e+00	0	25	104	1197473792	60	51604
2026-01-09 20:28:36.00	315.98	-0.09	-47.8	-63.0	3.6	1.51e+00	0	25	104	1197473792	60	51193

#Closed at: 2026-01-09 20:28:36
#Recorded file [1197 MB]: D:/lorett/data/35029_260110_081556.dat