passes_logs/2026/01/09/R4.6S_Anadyr/R4.6S_Anadyr__20260109_195542_SUOMI_NPP_rec.log

#Pass ID: 20260109_195542_SUOMI NPP
#Satellite: SUOMI NPP
#Configuration: NPP
#almurnet v.1.7.20251203
#Start time: 2026-01-09 19:55:44

#Version: 2.2.20231116
#Station: R4.6S_Anadyr
#Location: 177.4865 lon 64.73178 lat
#TLE: 1 37849U 11061A   26008.05542337  .00000108  00000+0  71976-4 0  9997
#TLE: 2 37849  98.7805 310.1641 0002540  75.6410 284.5048 14.19523335735721

#Time	Az	El	Level	Level2	SNR	BER	BlckErr	Temp	State	Recorded	gain1	gain2
2026-01-09 19:55:44.24	59.79	0.07	-47.7	-62.5	3.5	1.51e+00	0	22	0	0	60	48343
2026-01-09 19:55:47.27	59.56	0.22	-47.7	-63.0	3.6	1.51e+00	0	24	104	0	60	51203
2026-01-09 19:55:50.29	59.33	0.36	-47.9	-63.1	3.6	1.51e+00	0	24	104	0	60	51358
2026-01-09 19:55:53.32	59.09	0.51	-47.8	-63.0	3.6	1.51e+00	0	24	104	0	60	51149
2026-01-09 19:55:56.35	58.86	0.66	-47.2	-63.0	3.6	1.51e+00	0	24	104	0	60	50932
2026-01-09 19:55:59.38	58.62	0.81	-47.4	-62.5	3.6	1.51e+00	0	24	104	0	60	48307
2026-01-09 19:56:02.41	58.38	0.96	-46.2	-61.3	3.6	1.51e+00	0	24	104	0	60	42037
2026-01-09 19:56:05.43	58.14	1.11	-46.2	-61.3	3.6	1.51e+00	0	24	104	0	60	42151
2026-01-09 19:56:08.46	57.89	1.26	-46.1	-61.3	3.6	1.51e+00	0	24	104	0	60	42100
2026-01-09 19:56:11.50	57.64	1.41	-46.1	-61.3	3.6	1.51e+00	0	24	104	0	60	41956
2026-01-09 19:56:14.52	57.39	1.55	-46.1	-61.3	3.6	1.51e+00	0	24	104	0	60	41753
2026-01-09 19:56:17.55	57.14	1.70	-46.1	-61.3	3.6	1.51e+00	0	24	104	0	60	42034
2026-01-09 19:56:20.59	56.88	1.86	-46.1	-61.3	3.6	1.51e+00	0	24	104	0	60	41902
2026-01-09 19:56:23.62	56.62	2.01	-46.2	-61.3	3.6	1.51e+00	0	24	104	0	60	42173
2026-01-09 19:56:26.65	56.36	2.16	-46.1	-61.0	3.6	1.51e+00	0	24	104	0	60	40572
2026-01-09 19:56:29.68	56.10	2.31	-46.1	-61.3	3.6	1.51e+00	0	24	104	0	60	41843
2026-01-09 19:56:32.70	55.83	2.46	-46.1	-61.2	3.6	1.51e+00	0	24	104	0	60	41482
2026-01-09 19:56:35.73	55.56	2.61	-46.1	-60.7	3.6	1.51e+00	0	24	104	0	60	38991
2026-01-09 19:56:38.76	55.29	2.76	-46.1	-61.0	3.6	1.51e+00	0	24	104	0	60	40625
2026-01-09 19:56:41.79	55.01	2.92	-45.3	-52.1	7.9	2.72e-01	0	24	0	0	60	14628
2026-01-09 19:56:44.82	54.73	3.07	-45.9	-54.8	4.7	4.42e-05	0	25	0	5242880	60	19882
2026-01-09 19:56:47.84	54.45	3.22	-41.8	-44.0	16.2	3.19e-03	0	25	0	8388608	56	7230
2026-01-09 19:56:50.87	54.17	3.37	-41.1	-43.1	17.2	0.00e+00	0	25	0	10485760	56	6534
2026-01-09 19:56:53.90	53.88	3.53	-41.7	-44.0	16.4	0.00e+00	0	25	0	15728640	56	7252
2026-01-09 19:56:56.93	53.59	3.68	-41.2	-43.3	17.0	0.00e+00	0	24	0	22020096	56	6629
2026-01-09 19:56:59.95	53.30	3.83	-40.9	-42.9	17.4	0.00e+00	0	25	0	27262976	56	6326
2026-01-09 19:57:02.98	53.00	3.98	-40.9	-42.8	17.7	0.00e+00	0	24	0	33554432	56	6266
2026-01-09 19:57:06.01	52.70	4.14	-40.4	-42.2	18.3	0.00e+00	0	25	0	38797312	54	6549
2026-01-09 19:57:09.03	52.39	4.29	-40.7	-42.5	17.9	0.00e+00	0	25	0	44040192	54	6841
2026-01-09 19:57:12.06	52.09	4.44	-40.8	-42.6	17.9	0.00e+00	0	25	0	50331648	54	6881
2026-01-09 19:57:15.09	51.78	4.60	-40.5	-42.2	18.3	0.00e+00	0	25	0	55574528	54	6603
2026-01-09 19:57:18.12	51.46	4.75	-40.7	-42.5	18.1	0.00e+00	0	25	0	61865984	54	6819
2026-01-09 19:57:21.14	51.15	4.91	-40.6	-42.3	18.3	0.00e+00	0	25	0	67108864	54	6675
2026-01-09 19:57:24.17	50.83	5.06	-40.5	-42.2	18.3	0.00e+00	0	25	0	72351744	54	6609
2026-01-09 19:57:27.20	50.50	5.21	-40.4	-42.1	18.4	0.00e+00	0	25	0	78643200	54	6539
2026-01-09 19:57:30.23	50.17	5.37	-40.6	-42.4	18.0	0.00e+00	0	25	0	83886080	54	6695
2026-01-09 19:57:33.26	49.84	5.52	-40.5	-42.3	18.4	0.00e+00	0	25	0	90177536	54	6636
2026-01-09 19:57:36.28	49.51	5.68	-40.2	-41.7	18.9	0.00e+00	0	25	0	95420416	54	6245
2026-01-09 19:57:39.31	49.17	5.83	-39.8	-41.3	19.5	0.00e+00	0	25	0	101711872	52	6642
2026-01-09 19:57:42.34	48.83	5.98	-39.9	-41.4	19.4	0.00e+00	0	25	0	106954752	52	6723
2026-01-09 19:57:45.36	48.48	6.14	-39.6	-41.0	19.8	0.00e+00	0	25	0	112197632	52	6407
2026-01-09 19:57:48.39	48.13	6.29	-39.2	-40.5	20.1	0.00e+00	0	25	0	118489088	52	6083
2026-01-09 19:57:51.42	47.78	6.44	-39.2	-40.6	20.1	0.00e+00	0	25	0	123731968	52	6119
2026-01-09 19:57:54.45	47.42	6.60	-39.1	-40.5	20.2	0.00e+00	0	25	0	130023424	52	6060
2026-01-09 19:57:57.48	47.06	6.75	-39.2	-40.6	19.7	0.00e+00	0	25	0	135266304	52	6133
2026-01-09 19:58:00.50	46.69	6.90	-39.3	-40.6	20.1	0.00e+00	0	25	0	140509184	52	6172
2026-01-09 19:58:03.53	46.32	7.06	-39.4	-40.7	19.9	0.00e+00	0	25	0	146800640	52	6236
2026-01-09 19:58:06.56	45.95	7.21	-39.7	-41.2	19.7	0.00e+00	0	25	0	152043520	52	6576
2026-01-09 19:58:09.58	45.58	7.36	-39.6	-41.0	19.7	0.00e+00	0	25	0	158334976	52	6452
2026-01-09 19:58:12.62	45.19	7.52	-39.7	-41.1	19.7	0.00e+00	0	25	0	163577856	52	6511
2026-01-09 19:58:15.64	44.81	7.67	-39.7	-41.2	19.7	0.00e+00	0	25	0	168820736	52	6560
2026-01-09 19:58:18.67	44.42	7.82	-39.5	-40.8	20.0	0.00e+00	0	25	0	175112192	52	6309
2026-01-09 19:58:21.70	44.02	7.97	-39.3	-40.6	20.2	0.00e+00	0	25	0	180355072	52	6158
2026-01-09 19:58:24.73	43.63	8.12	-39.3	-40.6	20.2	0.00e+00	0	25	0	186646528	52	6168
2026-01-09 19:58:27.76	43.22	8.27	-39.2	-40.5	20.3	0.00e+00	0	25	0	191889408	52	6101
2026-01-09 19:58:30.78	42.82	8.42	-39.4	-40.8	20.0	0.00e+00	0	25	0	198180864	52	6259
2026-01-09 19:58:33.81	42.41	8.57	-39.9	-41.4	19.6	0.00e+00	0	25	0	203423744	52	6724
2026-01-09 19:58:36.84	41.99	8.72	-39.8	-41.3	19.6	0.00e+00	0	25	0	208666624	52	6643
2026-01-09 19:58:39.86	41.58	8.87	-39.4	-40.8	20.1	0.00e+00	0	25	0	214958080	52	6281
2026-01-09 19:58:42.89	41.15	9.01	-39.3	-40.6	20.3	0.00e+00	0	25	0	220200960	52	6135
2026-01-09 19:58:45.91	40.72	9.16	-39.4	-40.7	20.0	0.00e+00	0	25	0	226492416	52	6236
2026-01-09 19:58:48.94	40.29	9.31	-39.1	-40.4	20.2	0.00e+00	0	25	0	231735296	52	6026
2026-01-09 19:58:51.97	39.86	9.45	-38.8	-40.1	20.8	0.00e+00	0	25	0	236978176	52	5788
2026-01-09 19:58:55.00	39.41	9.60	-38.3	-39.5	21.2	0.00e+00	0	25	0	243269632	50	6090
2026-01-09 19:58:58.02	38.97	9.74	-38.0	-39.1	21.5	0.00e+00	0	25	0	248512512	50	5795
2026-01-09 19:59:01.05	38.52	9.88	-37.9	-39.0	21.7	0.00e+00	0	25	0	254803968	50	5744
2026-01-09 19:59:04.08	38.06	10.03	-37.3	-38.3	22.2	0.00e+00	0	25	0	260046848	48	5931
2026-01-09 19:59:07.11	37.60	10.17	-37.1	-38.2	22.4	0.00e+00	0	25	0	266338304	48	5834
2026-01-09 19:59:10.13	37.14	10.31	-37.6	-38.6	22.1	0.00e+00	0	25	0	271581184	48	6172
2026-01-09 19:59:13.16	36.67	10.45	-37.8	-38.9	21.8	0.00e+00	0	25	0	276824064	48	6341
2026-01-09 19:59:16.19	36.20	10.59	-37.8	-38.9	21.8	0.00e+00	0	25	0	283115520	48	6353
2026-01-09 19:59:19.21	35.72	10.72	-37.3	-38.3	22.4	0.00e+00	0	25	0	288358400	48	5939
2026-01-09 19:59:22.24	35.24	10.86	-37.0	-38.0	22.6	0.00e+00	0	25	0	294649856	48	5716
2026-01-09 19:59:25.27	34.76	10.99	-36.6	-37.6	22.9	0.00e+00	0	25	0	299892736	46	6106
2026-01-09 19:59:28.30	34.26	11.13	-36.6	-37.5	23.0	0.00e+00	0	25	0	305135616	46	6078
2026-01-09 19:59:31.33	33.77	11.26	-36.8	-37.7	22.7	0.00e+00	0	25	0	311427072	46	6230
2026-01-09 19:59:34.35	33.27	11.39	-36.8	-37.7	22.9	0.00e+00	0	25	0	316669952	46	6223
2026-01-09 19:59:37.38	32.77	11.52	-36.3	-37.3	23.1	0.00e+00	0	25	0	322961408	46	5897
2026-01-09 19:59:40.41	32.26	11.65	-36.2	-37.1	23.4	0.00e+00	0	25	0	328204288	46	5786
2026-01-09 19:59:43.44	31.74	11.77	-36.5	-37.4	23.1	0.00e+00	0	25	0	333447168	46	6005
2026-01-09 19:59:46.46	31.23	11.90	-36.9	-37.9	22.7	0.00e+00	0	25	0	339738624	46	6330
2026-01-09 19:59:49.49	30.70	12.02	-37.3	-38.4	22.3	0.00e+00	0	25	0	344981504	46	6699
2026-01-09 19:59:52.51	30.18	12.14	-37.2	-38.2	22.4	0.00e+00	0	25	0	351272960	46	6571
2026-01-09 19:59:55.55	29.64	12.26	-37.0	-37.9	22.7	0.00e+00	0	25	0	356515840	46	6380
2026-01-09 19:59:58.58	29.11	12.38	-37.2	-38.2	22.4	0.00e+00	0	25	0	362807296	46	6593
2026-01-09 20:00:01.60	28.57	12.49	-37.3	-38.3	22.4	0.00e+00	0	25	0	368050176	46	6665
2026-01-09 20:00:04.63	28.03	12.60	-37.2	-38.2	22.5	0.00e+00	0	25	0	373293056	46	6571
2026-01-09 20:00:07.66	27.48	12.72	-36.6	-37.5	23.1	0.00e+00	0	25	0	379584512	46	6084
2026-01-09 20:00:10.69	26.92	12.82	-36.4	-37.3	23.2	0.00e+00	0	25	0	384827392	46	5942
2026-01-09 20:00:13.71	26.37	12.93	-36.8	-37.7	23.0	0.00e+00	0	25	0	391118848	46	6240
2026-01-09 20:00:16.74	25.81	13.04	-36.8	-37.7	22.8	0.00e+00	0	25	0	396361728	46	6243
2026-01-09 20:00:19.77	25.24	13.14	-36.7	-37.7	23.0	0.00e+00	0	25	0	401604608	46	6189
2026-01-09 20:00:22.80	24.67	13.24	-37.0	-38.0	22.5	0.00e+00	0	25	0	407896064	46	6435
2026-01-09 20:00:25.83	24.10	13.34	-37.6	-38.7	22.0	0.00e+00	0	25	0	413138944	46	6980
2026-01-09 20:00:28.86	23.53	13.43	-37.6	-38.7	22.3	0.00e+00	0	25	0	419430400	48	6199
2026-01-09 20:00:31.89	22.95	13.52	-36.6	-37.5	23.1	0.00e+00	0	25	0	424673280	46	6084
2026-01-09 20:00:34.91	22.36	13.61	-36.3	-37.2	23.3	0.00e+00	0	25	0	430964736	46	5859
2026-01-09 20:00:37.95	21.77	13.70	-35.8	-36.6	23.6	0.00e+00	0	25	0	436207616	44	6153
2026-01-09 20:00:40.97	21.18	13.79	-36.2	-37.1	23.4	0.00e+00	0	25	0	441450496	44	6476
2026-01-09 20:00:44.00	20.59	13.87	-35.8	-36.7	23.7	0.00e+00	0	25	0	447741952	44	6206
2026-01-09 20:00:47.02	19.99	13.95	-35.9	-36.8	23.6	0.00e+00	0	25	0	452984832	44	6255
2026-01-09 20:00:50.05	19.39	14.02	-36.5	-37.4	23.0	0.00e+00	0	25	0	459276288	44	6735
2026-01-09 20:00:53.08	18.79	14.10	-37.3	-38.4	22.4	0.00e+00	0	25	0	464519168	46	6723
2026-01-09 20:00:56.10	18.19	14.17	-37.4	-38.4	22.3	0.00e+00	0	25	0	469762048	46	6732
2026-01-09 20:00:59.13	17.58	14.23	-37.3	-38.4	22.4	0.00e+00	0	25	0	476053504	46	6716
2026-01-09 20:01:02.15	16.97	14.30	-37.3	-38.3	22.1	0.00e+00	0	25	0	481296384	46	6652
2026-01-09 20:01:05.18	16.35	14.36	-37.1	-38.1	22.6	0.00e+00	0	25	0	487587840	46	6499
2026-01-09 20:01:08.21	15.73	14.42	-36.9	-37.9	22.8	0.00e+00	0	25	0	492830720	46	6368
2026-01-09 20:01:11.23	15.12	14.47	-36.3	-37.1	23.4	0.00e+00	0	25	0	498073600	46	5828
2026-01-09 20:01:14.25	14.50	14.52	-36.2	-37.1	23.3	0.00e+00	0	25	0	504365056	46	5807
2026-01-09 20:01:17.28	13.87	14.57	-36.4	-37.3	23.3	0.00e+00	0	25	0	509607936	46	5947
2026-01-09 20:01:20.31	13.25	14.62	-36.8	-37.7	22.9	0.00e+00	0	25	0	515899392	46	6230
2026-01-09 20:01:23.34	12.62	14.66	-37.0	-38.0	22.7	0.00e+00	0	25	0	521142272	46	6395
2026-01-09 20:01:26.36	11.99	14.70	-36.6	-37.6	23.0	0.00e+00	0	25	0	527433728	46	6116
2026-01-09 20:01:29.39	11.36	14.73	-36.7	-37.7	23.0	0.00e+00	0	25	0	532676608	46	6195
2026-01-09 20:01:32.42	10.73	14.76	-37.2	-38.2	22.6	0.00e+00	0	25	0	537919488	46	6566
2026-01-09 20:01:35.45	10.09	14.79	-37.0	-38.0	22.7	0.00e+00	0	25	0	544210944	46	6448
2026-01-09 20:01:38.48	9.46	14.82	-36.9	-37.9	22.8	0.00e+00	0	25	0	549453824	46	6319
2026-01-09 20:01:41.50	8.82	14.84	-36.8	-37.7	22.9	0.00e+00	0	25	0	555745280	46	6239
2026-01-09 20:01:44.53	8.19	14.85	-36.5	-37.4	23.2	0.00e+00	0	25	0	560988160	46	6029
2026-01-09 20:01:47.56	7.55	14.87	-36.7	-37.6	23.0	0.00e+00	0	25	0	566231040	46	6157
2026-01-09 20:01:50.59	6.91	14.88	-37.1	-38.1	22.6	0.00e+00	0	25	0	572522496	46	6509
2026-01-09 20:01:53.61	6.27	14.88	-37.1	-38.2	22.6	0.00e+00	0	25	0	577765376	46	6544
2026-01-09 20:01:56.64	5.64	14.89	-36.8	-37.7	22.9	0.00e+00	0	25	0	584056832	46	6238
2026-01-09 20:01:59.67	5.00	14.89	-36.5	-37.4	23.3	0.00e+00	0	25	0	589299712	46	5969
2026-01-09 20:02:02.69	4.36	14.88	-36.4	-37.3	23.2	0.00e+00	0	25	0	594542592	46	5945
2026-01-09 20:02:05.71	3.72	14.88	-36.7	-37.7	23.0	0.00e+00	0	25	0	600834048	46	6198
2026-01-09 20:02:08.74	3.09	14.86	-37.1	-38.1	22.7	0.00e+00	0	25	0	606076928	46	6487
2026-01-09 20:02:11.77	2.45	14.85	-37.3	-38.3	22.5	0.00e+00	0	25	0	612368384	46	6638
2026-01-09 20:02:14.80	1.81	14.83	-37.4	-38.5	21.7	0.00e+00	0	25	0	617611264	46	6770
2026-01-09 20:02:17.82	1.18	14.81	-37.3	-38.3	22.4	0.00e+00	0	25	0	623902720	46	6672
2026-01-09 20:02:20.85	0.54	14.79	-37.0	-38.0	22.7	0.00e+00	0	25	0	629145600	46	6452
2026-01-09 20:02:23.88	359.91	14.76	-36.8	-37.7	23.0	0.00e+00	0	25	0	634388480	46	6232
2026-01-09 20:02:26.91	359.28	14.72	-36.5	-37.4	23.1	0.00e+00	0	25	0	640679936	46	5980
2026-01-09 20:02:29.93	358.65	14.69	-36.9	-37.9	22.8	0.00e+00	0	25	0	645922816	46	6341
2026-01-09 20:02:32.96	358.02	14.65	-36.6	-37.6	23.1	0.00e+00	0	25	0	652214272	46	6108
2026-01-09 20:02:35.98	357.39	14.61	-36.1	-37.0	23.5	0.00e+00	0	25	0	657457152	46	5719
2026-01-09 20:02:39.01	356.77	14.56	-36.1	-37.0	23.4	0.00e+00	0	25	0	662700032	46	5731
2026-01-09 20:02:42.04	356.15	14.51	-36.5	-37.4	23.1	0.00e+00	0	25	0	668991488	46	6005
2026-01-09 20:02:45.07	355.52	14.46	-36.7	-37.7	22.8	0.00e+00	0	25	0	674234368	46	6214
2026-01-09 20:02:48.09	354.91	14.40	-37.2	-38.2	22.6	0.00e+00	0	25	0	680525824	46	6572
2026-01-09 20:02:51.12	354.29	14.35	-37.2	-38.3	22.3	0.00e+00	0	25	0	685768704	46	6623
2026-01-09 20:02:54.15	353.68	14.28	-37.0	-38.0	22.8	0.00e+00	0	25	0	691011584	46	6420
2026-01-09 20:02:57.17	353.07	14.22	-36.6	-37.6	23.1	0.00e+00	0	25	0	697303040	46	6116
2026-01-09 20:03:00.20	352.46	14.15	-36.2	-37.1	23.5	0.00e+00	0	25	0	702545920	46	5799
2026-01-09 20:03:03.22	351.85	14.08	-36.5	-37.5	23.2	0.00e+00	0	25	0	708837376	46	6037
2026-01-09 20:03:06.25	351.25	14.01	-36.4	-37.3	23.3	0.00e+00	0	25	0	714080256	46	5909
2026-01-09 20:03:09.27	350.65	13.93	-36.5	-37.5	23.4	0.00e+00	0	25	0	720371712	46	6040
2026-01-09 20:03:12.30	350.06	13.85	-36.9	-37.8	22.9	0.00e+00	0	25	0	725614592	46	6299
2026-01-09 20:03:15.32	349.47	13.77	-36.9	-37.9	22.8	0.00e+00	0	25	0	730857472	46	6323
2026-01-09 20:03:18.35	348.88	13.68	-37.0	-38.0	22.7	0.00e+00	0	25	0	737148928	46	6400
2026-01-09 20:03:21.38	348.29	13.59	-37.3	-38.3	22.5	0.00e+00	0	25	0	742391808	46	6653
2026-01-09 20:03:24.41	347.71	13.50	-37.3	-38.3	22.5	0.00e+00	0	25	0	748683264	46	6674
2026-01-09 20:03:27.43	347.13	13.41	-36.9	-37.8	22.9	0.00e+00	0	25	0	753926144	46	6304
2026-01-09 20:03:30.46	346.55	13.31	-36.5	-37.5	23.0	0.00e+00	0	25	0	759169024	46	6053
2026-01-09 20:03:33.49	345.98	13.22	-36.7	-37.6	23.1	0.00e+00	0	25	0	765460480	46	6166
2026-01-09 20:03:36.52	345.41	13.12	-36.4	-37.4	23.2	0.00e+00	0	25	0	770703360	46	5986
2026-01-09 20:03:39.55	344.85	13.01	-35.8	-36.7	23.8	0.00e+00	0	25	0	776994816	46	5533
2026-01-09 20:03:42.58	344.29	12.91	-35.9	-36.8	23.6	0.00e+00	0	25	0	782237696	44	6248
2026-01-09 20:03:45.60	343.74	12.80	-36.6	-37.6	22.9	0.00e+00	0	25	0	788529152	44	6851
2026-01-09 20:03:48.64	343.18	12.69	-36.9	-37.9	22.7	0.00e+00	0	25	0	793772032	46	6328
2026-01-09 20:03:51.66	342.64	12.58	-37.9	-39.1	21.8	0.00e+00	0	25	0	799014912	46	7254
2026-01-09 20:03:54.69	342.10	12.47	-37.6	-38.7	22.1	0.00e+00	0	25	0	805306368	48	6230
2026-01-09 20:03:57.72	341.56	12.35	-37.6	-38.7	22.0	0.00e+00	0	25	0	810549248	48	6224
2026-01-09 20:04:00.74	341.02	12.23	-37.4	-38.4	22.3	0.00e+00	0	25	0	816840704	48	6001
2026-01-09 20:04:03.77	340.49	12.11	-37.6	-38.7	22.1	0.00e+00	0	25	0	822083584	48	6176
2026-01-09 20:04:06.80	339.97	11.99	-37.6	-38.6	22.1	0.00e+00	0	25	0	827326464	48	6164
2026-01-09 20:04:09.83	339.45	11.87	-37.4	-38.5	22.3	0.00e+00	0	25	0	833617920	48	6059
2026-01-09 20:04:12.85	338.93	11.74	-37.9	-39.0	21.9	0.00e+00	0	25	0	838860800	48	6395
2026-01-09 20:04:15.88	338.42	11.62	-37.7	-38.7	22.0	0.00e+00	0	25	0	845152256	48	6226
2026-01-09 20:04:18.91	337.91	11.49	-37.4	-38.4	22.4	0.00e+00	0	25	0	850395136	48	5988
2026-01-09 20:04:21.94	337.41	11.36	-37.1	-38.1	22.5	0.00e+00	0	25	0	855638016	48	5804
2026-01-09 20:04:24.97	336.91	11.23	-37.8	-38.9	21.9	0.00e+00	0	25	0	861929472	48	6327
2026-01-09 20:04:27.99	336.42	11.10	-38.9	-40.1	20.9	0.00e+00	0	25	0	867172352	50	6522
2026-01-09 20:04:31.02	335.93	10.96	-39.2	-40.4	20.7	0.00e+00	0	25	0	873463808	50	6746
2026-01-09 20:04:34.05	335.44	10.83	-38.7	-39.8	21.1	0.00e+00	0	25	0	878706688	50	6310
2026-01-09 20:04:37.07	334.96	10.69	-38.7	-39.9	21.0	0.00e+00	0	25	0	884998144	50	6380
2026-01-09 20:04:40.10	334.49	10.56	-39.8	-41.2	19.9	0.00e+00	0	25	0	890241024	52	6583
2026-01-09 20:04:43.13	334.01	10.42	-41.3	-43.1	18.1	0.00e+00	0	25	0	895483904	54	7298
2026-01-09 20:04:46.16	333.55	10.28	-40.8	-42.4	18.7	0.00e+00	0	25	0	901775360	54	6762
2026-01-09 20:04:49.19	333.09	10.14	-40.5	-42.0	19.1	0.00e+00	0	25	0	907018240	54	6429
2026-01-09 20:04:52.21	332.63	10.00	-40.2	-41.7	19.4	0.00e+00	0	25	0	913309696	54	6179
2026-01-09 20:04:55.24	332.18	9.85	-39.8	-41.2	19.9	0.00e+00	0	25	0	918552576	54	5852
2026-01-09 20:04:58.27	331.73	9.71	-39.3	-40.6	20.5	0.00e+00	0	25	0	923795456	52	6109
2026-01-09 20:05:01.30	331.28	9.57	-39.4	-40.7	20.4	0.00e+00	0	25	0	930086912	52	6234
2026-01-09 20:05:04.33	330.84	9.42	-39.4	-40.7	20.3	0.00e+00	0	25	0	935329792	52	6206
2026-01-09 20:05:07.35	330.41	9.28	-39.0	-40.2	20.8	0.00e+00	0	25	0	941621248	52	5836
2026-01-09 20:05:10.38	329.98	9.13	-38.7	-39.8	21.1	0.00e+00	0	25	0	946864128	50	6292
2026-01-09 20:05:13.41	329.55	8.98	-38.4	-39.6	21.2	0.00e+00	0	25	0	953155584	50	6107
2026-01-09 20:05:16.44	329.13	8.84	-38.5	-39.7	21.2	0.00e+00	0	25	0	958398464	50	6218
2026-01-09 20:05:19.46	328.71	8.69	-38.8	-40.0	20.8	0.00e+00	0	25	0	963641344	50	6391
2026-01-09 20:05:22.49	328.30	8.54	-39.0	-40.2	20.6	0.00e+00	0	25	0	969932800	50	6579
2026-01-09 20:05:25.51	327.89	8.39	-39.2	-40.4	20.5	0.00e+00	0	25	0	975175680	50	6748
2026-01-09 20:05:28.54	327.48	8.24	-38.8	-40.0	20.8	0.00e+00	0	25	0	981467136	50	6448
2026-01-09 20:05:31.57	327.08	8.09	-38.7	-39.9	20.9	0.00e+00	0	25	0	986710016	50	6360
2026-01-09 20:05:34.59	326.69	7.94	-38.6	-39.8	20.9	0.00e+00	0	25	0	991952896	50	6291
2026-01-09 20:05:37.62	326.30	7.79	-38.4	-39.5	21.2	0.00e+00	0	25	0	998244352	50	6086
2026-01-09 20:05:40.65	325.91	7.64	-37.7	-38.7	21.9	0.00e+00	0	25	0	1003487232	48	6220
2026-01-09 20:05:43.67	325.52	7.48	-37.3	-38.4	22.2	0.00e+00	0	25	0	1009778688	48	5976
2026-01-09 20:05:46.70	325.14	7.33	-37.4	-38.4	22.1	0.00e+00	0	25	0	1015021568	48	6033
2026-01-09 20:05:49.73	324.77	7.18	-37.7	-38.8	21.9	0.00e+00	0	25	0	1020264448	48	6249
2026-01-09 20:05:52.76	324.40	7.03	-37.6	-38.7	21.9	0.00e+00	0	25	0	1026555904	48	6178
2026-01-09 20:05:55.78	324.03	6.87	-37.3	-38.4	22.2	0.00e+00	0	25	0	1031798784	48	5966
2026-01-09 20:05:58.81	323.66	6.72	-37.4	-38.4	22.1	0.00e+00	0	25	0	1038090240	48	6026
2026-01-09 20:06:01.84	323.30	6.57	-37.6	-38.7	21.8	0.00e+00	0	25	0	1043333120	48	6213
2026-01-09 20:06:04.87	322.95	6.41	-37.9	-39.1	21.5	0.00e+00	0	25	0	1049624576	48	6479
2026-01-09 20:06:07.89	322.60	6.26	-38.3	-39.4	21.2	0.00e+00	0	25	0	1054867456	48	6744
2026-01-09 20:06:10.92	322.25	6.11	-38.3	-39.5	21.2	0.00e+00	0	25	0	1060110336	48	6790
2026-01-09 20:06:13.95	321.90	5.95	-38.5	-39.7	20.9	0.00e+00	0	25	0	1066401792	48	6941
2026-01-09 20:06:16.98	321.56	5.80	-38.5	-39.7	20.9	0.00e+00	0	25	0	1071644672	48	6963
2026-01-09 20:06:20.00	321.23	5.65	-38.4	-39.6	20.9	0.00e+00	0	25	0	1077936128	48	6878
2026-01-09 20:06:23.03	320.89	5.49	-38.4	-39.5	20.9	0.00e+00	0	25	0	1083179008	48	6833
2026-01-09 20:06:26.05	320.56	5.34	-37.9	-39.0	21.4	0.00e+00	0	25	0	1088421888	48	6409
2026-01-09 20:06:29.08	320.24	5.18	-37.9	-39.0	21.0	0.00e+00	0	25	0	1094713344	48	6446
2026-01-09 20:06:32.11	319.91	5.03	-37.9	-39.0	21.4	0.00e+00	0	25	0	1099956224	48	6431
2026-01-09 20:06:35.14	319.59	4.88	-38.2	-39.3	21.1	0.00e+00	0	25	0	1106247680	48	6675
2026-01-09 20:06:38.16	319.28	4.72	-38.9	-40.2	20.3	0.00e+00	0	25	0	1111490560	50	6591
2026-01-09 20:06:41.19	318.97	4.57	-38.9	-40.3	20.2	0.00e+00	0	25	0	1116733440	50	6618
2026-01-09 20:06:44.22	318.66	4.42	-38.7	-40.0	20.5	0.00e+00	0	25	0	1123024896	50	6416
2026-01-09 20:06:47.25	318.35	4.26	-38.4	-39.6	20.8	0.00e+00	0	25	0	1128267776	50	6108
2026-01-09 20:06:50.28	318.05	4.11	-38.2	-39.4	20.9	0.00e+00	0	25	0	1134559232	50	5998
2026-01-09 20:06:53.31	317.75	3.96	-38.1	-39.2	21.0	0.00e+00	0	25	0	1139802112	48	6610
2026-01-09 20:06:56.34	317.45	3.80	-37.8	-38.9	21.2	0.00e+00	0	25	0	1146093568	48	6371
2026-01-09 20:06:59.36	317.16	3.65	-38.1	-39.3	20.8	0.00e+00	0	25	0	1151336448	48	6670
2026-01-09 20:07:02.38	316.87	3.50	-39.0	-40.4	19.9	0.00e+00	0	25	0	1156579328	50	6706
2026-01-09 20:07:05.41	316.58	3.34	-39.4	-40.9	19.5	0.00e+00	0	25	0	1162870784	50	7113
2026-01-09 20:07:08.44	316.30	3.19	-40.0	-41.6	18.7	0.00e+00	0	25	0	1168113664	52	6876
2026-01-09 20:07:11.47	316.02	3.04	-40.4	-42.1	18.2	0.00e+00	0	25	0	1174405120	52	7284
2026-01-09 20:07:14.50	315.74	2.89	-47.5	-62.7	3.6	1.51e+00	0	25	104	1175453696	60	49466
2026-01-09 20:07:17.52	315.47	2.74	-48.0	-63.2	3.6	1.51e+00	0	25	104	1175453696	60	52011
2026-01-09 20:07:20.55	315.20	2.58	-48.1	-63.2	3.6	1.51e+00	0	25	104	1175453696	60	52308
2026-01-09 20:07:23.58	314.93	2.43	-47.8	-63.1	3.6	1.51e+00	0	25	104	1175453696	60	51932
2026-01-09 20:07:26.61	314.66	2.28	-47.8	-63.0	3.6	1.51e+00	0	25	104	1175453696	60	51154
2026-01-09 20:07:29.64	314.40	2.13	-47.9	-63.1	3.6	1.51e+00	0	25	104	1175453696	60	51537
2026-01-09 20:07:32.67	314.14	1.98	-47.9	-63.1	3.6	1.51e+00	0	25	104	1175453696	60	51478
2026-01-09 20:07:35.69	313.88	1.83	-47.9	-63.0	3.6	1.51e+00	0	25	104	1175453696	60	51260
2026-01-09 20:07:38.72	313.62	1.68	-47.9	-63.1	3.6	1.51e+00	0	25	104	1175453696	60	51399
2026-01-09 20:07:41.75	313.37	1.53	-47.8	-63.0	3.6	1.51e+00	0	25	104	1175453696	60	51296
2026-01-09 20:07:44.78	313.12	1.38	-47.9	-63.1	3.6	1.51e+00	0	25	104	1175453696	60	51406
2026-01-09 20:07:47.81	312.87	1.23	-47.8	-63.0	3.6	1.51e+00	0	25	104	1175453696	60	50868
2026-01-09 20:07:50.84	312.63	1.08	-47.8	-63.0	3.6	1.51e+00	0	25	104	1175453696	60	51314
2026-01-09 20:07:53.87	312.39	0.93	-47.8	-63.1	3.6	1.51e+00	0	25	104	1175453696	60	51429
2026-01-09 20:07:56.89	312.15	0.78	-47.9	-63.1	3.6	1.51e+00	0	25	104	1175453696	60	51535
2026-01-09 20:07:59.92	311.91	0.64	-47.9	-63.1	3.6	1.51e+00	0	25	104	1175453696	60	51720
2026-01-09 20:08:02.95	311.68	0.49	-47.8	-63.0	3.6	1.51e+00	0	25	104	1175453696	60	51176
2026-01-09 20:08:05.98	311.45	0.34	-47.8	-63.0	3.6	1.51e+00	0	25	104	1175453696	60	51154
2026-01-09 20:08:09.01	311.22	0.19	-47.9	-63.1	3.6	1.51e+00	0	25	104	1175453696	60	51480
2026-01-09 20:08:12.04	310.99	0.04	-47.9	-63.1	3.6	1.51e+00	0	25	104	1175453696	60	51622

#Closed at: 2026-01-09 20:08:13
#Recorded file [1175 MB]: D:/lorett/data/35029_260110_075544.dat