passes_logs/2026/01/09/R4.6S_Anadyr/R4.6S_Anadyr__20260109_122652_2024-110A_rec.log

#Pass ID: 20260109_122652_2024-110A
#Satellite: 2024-110A
#Configuration: 01B_900M
#almurnet v.1.7.20251203
#Start time: 2026-01-09 12:26:54

#Version: 2.2.20231116
#Station: R4.6S_Anadyr
#Location: 177.4865 lon 64.73178 lat
#TLE: 1 60012U 24110A   26008.98058397  .00007481  00000+0  45382-3 0  9996
#TLE: 2 60012  97.5751 102.0471 0010606  85.2699 274.9742 15.10780355 87850

#Time	Az	El	Level	Level2	SNR	BER	BlckErr	Temp	State	Recorded	gain1	gain2
2026-01-09 12:26:54.64	215.47	0.14	-47.7	-62.6	3.5	1.51e+00	0	21	0	0	60	48793
2026-01-09 12:26:57.67	215.75	0.30	-47.5	-50.1	6.1	7.54e-01	0	23	104	0	60	38976
2026-01-09 12:27:00.70	216.03	0.47	-47.8	-50.3	6.1	7.54e-01	0	23	104	0	60	39997
2026-01-09 12:27:03.73	216.32	0.63	-47.8	-50.2	6.1	7.54e-01	0	23	104	0	60	39639
2026-01-09 12:27:06.75	216.61	0.79	-47.6	-50.0	6.1	7.54e-01	0	23	104	0	60	38912
2026-01-09 12:27:09.78	216.91	0.96	-46.3	-48.8	6.1	7.54e-01	0	23	104	0	60	33843
2026-01-09 12:27:12.81	217.21	1.13	-45.8	-48.3	6.1	7.54e-01	0	23	104	0	60	32001
2026-01-09 12:27:15.85	217.51	1.29	-45.9	-48.4	6.1	7.55e-01	0	23	104	0	60	32131
2026-01-09 12:27:18.87	217.82	1.46	-45.9	-48.4	6.1	7.54e-01	0	23	104	0	60	32259
2026-01-09 12:27:21.90	218.13	1.63	-45.9	-48.4	6.1	7.54e-01	0	23	104	0	60	32310
2026-01-09 12:27:24.93	218.45	1.79	-45.9	-48.4	6.1	7.55e-01	0	24	104	0	60	32170
2026-01-09 12:27:27.96	218.77	1.96	-46.0	-48.5	6.1	7.54e-01	0	23	104	0	60	32523
2026-01-09 12:27:30.98	219.09	2.13	-45.9	-48.4	6.1	7.55e-01	0	24	104	0	60	32207
2026-01-09 12:27:34.01	219.42	2.30	-45.8	-48.4	6.1	7.55e-01	0	23	104	0	60	32049
2026-01-09 12:27:37.04	219.75	2.47	-45.9	-48.4	6.1	7.54e-01	0	24	104	0	60	32076
2026-01-09 12:27:40.08	220.09	2.65	-45.9	-48.4	6.1	7.54e-01	0	24	104	0	60	32153
2026-01-09 12:27:43.10	220.44	2.82	-45.9	-48.3	6.1	7.54e-01	0	24	104	0	60	31972
2026-01-09 12:27:46.13	220.79	2.99	-45.9	-48.4	6.1	7.55e-01	0	24	104	0	60	32053
2026-01-09 12:27:49.15	221.14	3.16	-45.9	-48.4	6.1	7.55e-01	0	24	104	0	60	32106
2026-01-09 12:27:52.18	221.50	3.34	-45.8	-48.4	6.1	7.55e-01	0	24	104	0	60	32048
2026-01-09 12:27:55.21	221.86	3.51	-45.6	-48.2	6.1	7.54e-01	0	24	104	0	60	31605
2026-01-09 12:27:58.24	222.23	3.69	-43.7	-46.4	6.2	7.55e-01	0	24	104	0	60	25642
2026-01-09 12:28:01.27	222.60	3.86	-42.9	-45.7	6.2	7.52e-01	0	24	104	0	60	23692
2026-01-09 12:28:04.30	222.98	4.04	-42.5	-45.2	6.5	7.50e-01	0	24	104	0	58	24926
2026-01-09 12:28:07.32	223.37	4.22	-38.3	-41.2	7.8	7.40e-01	0	24	104	0	52	22215
2026-01-09 12:28:10.35	223.76	4.40	-37.8	-40.7	7.9	7.37e-01	0	24	104	0	52	21065
2026-01-09 12:28:13.38	224.15	4.58	-43.2	-45.9	6.3	7.52e-01	0	24	104	0	60	24174
2026-01-09 12:28:16.40	224.55	4.75	-37.8	-40.5	8.1	7.40e-01	0	24	104	0	50	23131
2026-01-09 12:28:19.43	224.96	4.93	-39.1	-42.0	7.4	7.41e-01	0	24	104	0	52	24450
2026-01-09 12:28:22.46	225.38	5.11	-38.9	-41.7	7.6	7.41e-01	0	24	104	0	52	23611
2026-01-09 12:28:25.49	225.80	5.29	-40.5	-43.4	7.0	7.44e-01	0	24	104	0	56	22699
2026-01-09 12:28:28.51	226.22	5.47	-42.9	-45.8	6.4	7.52e-01	0	24	104	0	60	23763
2026-01-09 12:28:31.54	226.66	5.66	-38.8	-41.6	7.7	7.41e-01	0	24	104	0	54	20723
2026-01-09 12:28:34.57	227.10	5.84	-42.1	-44.9	6.4	7.50e-01	0	24	104	0	58	24078
2026-01-09 12:28:37.60	227.54	6.02	-42.5	-45.2	6.5	7.50e-01	0	24	104	0	60	22410
2026-01-09 12:28:40.62	227.99	6.20	-44.5	-47.2	6.1	7.53e-01	0	24	104	0	60	27978
2026-01-09 12:28:43.65	228.45	6.39	-44.8	-47.5	6.1	7.53e-01	0	24	104	0	60	28904
2026-01-09 12:28:46.68	228.92	6.57	-45.7	-48.3	6.1	7.53e-01	0	24	104	0	60	31753
2026-01-09 12:28:49.70	229.39	6.75	-46.0	-48.6	6.1	7.55e-01	0	24	104	0	60	32834
2026-01-09 12:28:52.73	229.87	6.94	-45.3	-48.0	6.1	7.55e-01	0	24	104	0	60	30780
2026-01-09 12:28:55.76	230.36	7.12	-45.3	-48.0	6.1	7.54e-01	0	24	104	0	60	30852
2026-01-09 12:28:58.78	230.86	7.31	-46.6	-49.0	6.1	7.54e-01	0	24	104	0	60	34592
2026-01-09 12:29:01.81	231.36	7.49	-46.3	-48.8	6.0	7.54e-01	0	24	104	0	60	33772
2026-01-09 12:29:04.84	231.87	7.68	-43.0	-44.5	6.6	7.50e-01	0	24	104	0	60	20487
2026-01-09 12:29:07.87	232.39	7.86	-46.5	-49.0	6.1	7.55e-01	0	24	104	0	60	34550
2026-01-09 12:29:10.90	232.92	8.05	-46.1	-48.4	6.1	7.54e-01	0	24	104	0	60	32043
2026-01-09 12:29:13.92	233.45	8.23	-46.5	-49.0	6.1	7.55e-01	0	24	104	0	60	34574
2026-01-09 12:29:16.95	233.99	8.41	-46.6	-49.1	6.1	7.55e-01	0	24	104	0	60	34995
2026-01-09 12:29:19.98	234.54	8.60	-46.0	-48.6	6.1	7.54e-01	0	24	104	0	60	33017
2026-01-09 12:29:23.01	235.10	8.78	-46.3	-48.9	6.1	7.55e-01	0	24	104	0	60	34177
2026-01-09 12:29:26.03	235.67	8.97	-46.5	-49.0	6.1	7.54e-01	0	25	104	0	60	34516
2026-01-09 12:29:29.06	236.24	9.15	-46.5	-49.0	6.1	7.54e-01	0	24	104	0	60	34713
2026-01-09 12:29:32.09	236.83	9.33	-46.9	-49.4	6.1	7.55e-01	0	24	104	0	60	35940
2026-01-09 12:29:35.12	237.42	9.51	-46.7	-49.3	6.1	7.55e-01	0	24	104	0	60	35581
2026-01-09 12:29:38.15	238.02	9.70	-46.8	-49.3	6.1	7.53e-01	0	24	104	0	60	35843
2026-01-09 12:29:41.18	238.63	9.88	-46.4	-49.0	6.1	7.53e-01	0	24	104	0	60	34463
2026-01-09 12:29:44.21	239.25	10.06	-46.9	-49.4	6.1	7.54e-01	0	24	104	0	60	36003
2026-01-09 12:29:47.24	239.88	10.24	-47.0	-49.4	6.1	7.54e-01	0	24	104	0	60	36287
2026-01-09 12:29:50.26	240.51	10.41	-46.9	-49.4	6.1	7.54e-01	0	24	104	0	60	36157
2026-01-09 12:29:53.29	241.16	10.59	-46.8	-49.3	6.1	7.54e-01	0	24	104	0	60	35894
2026-01-09 12:29:56.32	241.82	10.77	-46.9	-49.4	6.1	7.53e-01	0	24	104	0	60	36237
2026-01-09 12:29:59.35	242.48	10.94	-47.0	-49.5	6.1	7.54e-01	0	24	104	0	60	36573
2026-01-09 12:30:02.38	243.16	11.11	-47.2	-49.7	6.1	7.56e-01	0	24	104	0	60	37362
2026-01-09 12:30:05.40	243.84	11.28	-47.1	-49.6	6.1	7.55e-01	0	24	104	0	60	36880
2026-01-09 12:30:08.43	244.53	11.45	-47.2	-49.6	6.1	7.55e-01	0	24	104	0	60	36943
2026-01-09 12:30:11.46	245.23	11.62	-47.3	-49.7	6.1	7.54e-01	0	24	104	0	60	37544
2026-01-09 12:30:14.49	245.94	11.79	-47.4	-49.9	6.1	7.55e-01	0	25	104	0	60	38127
2026-01-09 12:30:17.52	246.66	11.95	-47.2	-49.7	6.1	7.54e-01	0	25	104	0	60	37527
2026-01-09 12:30:20.54	247.39	12.11	-47.4	-49.9	6.1	7.54e-01	0	25	104	0	60	38266
2026-01-09 12:30:23.57	248.13	12.27	-47.4	-49.9	6.1	7.55e-01	0	25	104	0	60	38261
2026-01-09 12:30:26.59	248.88	12.43	-47.4	-49.9	6.1	7.55e-01	0	24	104	0	60	38376
2026-01-09 12:30:29.62	249.63	12.58	-47.5	-49.9	6.1	7.54e-01	0	25	104	0	60	38444
2026-01-09 12:30:32.65	250.40	12.73	-47.5	-50.0	6.1	7.54e-01	0	25	104	0	60	38531
2026-01-09 12:30:35.68	251.18	12.88	-47.4	-49.8	6.1	7.56e-01	0	25	104	0	60	38052
2026-01-09 12:30:38.71	251.96	13.02	-47.5	-50.0	6.1	7.54e-01	0	24	104	0	60	38581
2026-01-09 12:30:41.74	252.75	13.17	-47.5	-50.0	6.1	7.54e-01	0	25	104	0	60	38590
2026-01-09 12:30:44.77	253.56	13.30	-47.5	-50.0	6.1	7.54e-01	0	25	104	0	60	38642
2026-01-09 12:30:47.79	254.36	13.44	-47.5	-50.0	6.1	7.54e-01	0	25	104	0	60	38662
2026-01-09 12:30:50.82	255.18	13.57	-47.5	-49.9	6.1	7.53e-01	0	25	104	0	60	38437
2026-01-09 12:30:53.85	256.01	13.69	-47.5	-50.0	6.1	7.54e-01	0	24	104	0	60	38928
2026-01-09 12:30:56.88	256.84	13.82	-47.5	-50.0	6.1	7.53e-01	0	24	104	0	60	38718
2026-01-09 12:30:59.91	257.69	13.94	-47.6	-50.0	6.1	7.53e-01	0	24	104	0	60	38911
2026-01-09 12:31:02.93	258.53	14.05	-47.5	-50.0	6.1	7.54e-01	0	25	104	0	60	38744
2026-01-09 12:31:05.96	259.39	14.16	-47.6	-50.1	6.1	7.54e-01	0	25	104	0	60	39137
2026-01-09 12:31:08.99	260.26	14.26	-47.6	-50.1	6.1	7.53e-01	0	25	104	0	60	39054
2026-01-09 12:31:12.02	261.13	14.36	-47.6	-50.1	6.1	7.55e-01	0	25	104	0	60	39129
2026-01-09 12:31:15.05	262.01	14.46	-47.6	-50.1	6.1	7.53e-01	0	25	104	0	60	38989
2026-01-09 12:31:18.08	262.89	14.54	-47.6	-50.0	6.1	7.54e-01	0	24	104	0	60	38917
2026-01-09 12:31:21.11	263.78	14.63	-47.6	-50.1	6.1	7.54e-01	0	25	104	0	60	38997
2026-01-09 12:31:24.13	264.67	14.71	-47.6	-50.1	6.1	7.54e-01	0	25	104	0	60	39064
2026-01-09 12:31:27.16	265.57	14.78	-47.6	-50.1	6.1	7.54e-01	0	25	104	0	60	39163
2026-01-09 12:31:30.19	266.48	14.85	-47.6	-50.1	6.1	7.55e-01	0	25	104	0	60	39334
2026-01-09 12:31:33.22	267.39	14.91	-47.6	-50.1	6.1	7.54e-01	0	25	104	0	60	39046
2026-01-09 12:31:36.25	268.30	14.96	-47.6	-50.0	6.1	7.54e-01	0	25	104	0	60	38901
2026-01-09 12:31:39.28	269.22	15.01	-47.6	-50.0	6.1	7.55e-01	0	25	104	0	60	38711
2026-01-09 12:31:42.30	270.14	15.06	-47.5	-50.0	6.1	7.54e-01	0	25	104	0	60	38866
2026-01-09 12:31:45.33	271.06	15.09	-47.6	-50.0	6.1	7.54e-01	0	24	104	0	60	38819
2026-01-09 12:31:48.36	271.98	15.12	-47.6	-50.2	6.1	7.55e-01	0	24	104	0	60	39487
2026-01-09 12:31:51.39	272.91	15.15	-47.6	-50.1	6.1	7.53e-01	0	25	104	0	60	39323
2026-01-09 12:31:54.41	273.84	15.17	-47.6	-50.1	6.1	7.55e-01	0	25	104	0	60	39287
2026-01-09 12:31:57.44	274.77	15.18	-47.6	-50.1	6.1	7.54e-01	0	25	104	0	60	39100
2026-01-09 12:32:00.47	275.70	15.19	-47.6	-50.1	6.1	7.54e-01	0	25	104	0	60	39199
2026-01-09 12:32:03.50	276.63	15.19	-47.6	-50.1	6.1	7.55e-01	0	25	104	0	60	39104
2026-01-09 12:32:06.53	277.56	15.18	-47.6	-50.1	6.1	7.53e-01	0	25	104	0	60	39245
2026-01-09 12:32:09.56	278.49	15.17	-47.6	-50.1	6.1	7.55e-01	0	25	104	0	60	39054
2026-01-09 12:32:12.58	279.41	15.15	-47.5	-50.0	6.1	7.54e-01	0	25	104	0	60	38810
2026-01-09 12:32:15.61	280.34	15.12	-47.6	-50.1	6.1	7.54e-01	0	25	104	0	60	38995
2026-01-09 12:32:18.64	281.27	15.09	-47.5	-50.0	6.1	7.54e-01	0	25	104	0	60	38930
2026-01-09 12:32:21.66	282.19	15.05	-47.6	-50.1	6.1	7.55e-01	0	25	104	0	60	39215
2026-01-09 12:32:24.69	283.10	15.01	-47.6	-50.1	6.1	7.55e-01	0	25	104	0	60	38978
2026-01-09 12:32:27.72	284.02	14.96	-47.6	-50.1	6.1	7.55e-01	0	25	104	0	60	39162
2026-01-09 12:32:30.75	284.93	14.90	-47.5	-50.0	6.1	7.55e-01	0	25	104	0	60	38847
2026-01-09 12:32:33.78	285.84	14.84	-47.5	-50.1	6.1	7.53e-01	0	25	104	0	60	39017
2026-01-09 12:32:36.80	286.74	14.77	-47.6	-50.0	6.1	7.55e-01	0	25	104	0	60	38900
2026-01-09 12:32:39.83	287.64	14.70	-47.6	-50.1	6.1	7.53e-01	0	25	104	0	60	38956
2026-01-09 12:32:42.86	288.53	14.62	-47.6	-50.1	6.1	7.53e-01	0	25	104	0	60	39129
2026-01-09 12:32:45.89	289.42	14.54	-47.4	-50.0	6.1	7.54e-01	0	25	104	0	60	38952
2026-01-09 12:32:48.92	290.30	14.45	-47.6	-50.0	6.1	7.54e-01	0	25	104	0	60	38937
2026-01-09 12:32:51.94	291.17	14.35	-47.6	-50.1	6.1	7.55e-01	0	25	104	0	60	39110
2026-01-09 12:32:54.97	292.04	14.25	-47.5	-50.0	6.1	7.55e-01	0	25	104	0	60	38845
2026-01-09 12:32:58.00	292.90	14.15	-47.4	-50.0	6.1	7.55e-01	0	25	104	0	60	38825
2026-01-09 12:33:01.03	293.75	14.04	-47.6	-50.0	6.1	7.54e-01	0	25	104	0	60	38938
2026-01-09 12:33:04.06	294.60	13.93	-47.6	-50.0	6.1	7.55e-01	0	25	104	0	60	38816
2026-01-09 12:33:07.09	295.44	13.81	-47.6	-50.0	6.1	7.55e-01	0	25	104	0	60	38868
2026-01-09 12:33:10.11	296.27	13.69	-47.5	-50.0	6.1	7.53e-01	0	25	104	0	60	38894
2026-01-09 12:33:13.14	297.09	13.56	-47.5	-50.0	6.1	7.54e-01	0	25	104	0	60	38762
2026-01-09 12:33:16.17	297.91	13.43	-47.6	-50.0	6.1	7.54e-01	0	25	104	0	60	38759
2026-01-09 12:33:19.20	298.71	13.29	-47.5	-50.0	6.1	7.55e-01	0	25	104	0	60	38616
2026-01-09 12:33:22.23	299.51	13.16	-47.5	-50.0	6.1	7.54e-01	0	25	104	0	60	38835
2026-01-09 12:33:25.26	300.30	13.02	-47.5	-49.9	6.1	7.54e-01	0	25	104	0	60	38348
2026-01-09 12:33:28.29	301.08	12.87	-47.4	-49.9	6.1	7.55e-01	0	25	104	0	60	38239
2026-01-09 12:33:31.32	301.85	12.72	-47.3	-49.8	6.1	7.55e-01	0	25	104	0	60	37892
2026-01-09 12:33:34.34	302.61	12.57	-47.4	-49.9	6.1	7.56e-01	0	25	104	0	60	38323
2026-01-09 12:33:37.37	303.37	12.42	-47.1	-49.7	6.1	7.54e-01	0	25	104	0	60	37224
2026-01-09 12:33:40.40	304.11	12.27	-47.1	-49.6	6.1	7.55e-01	0	25	104	0	60	37193
2026-01-09 12:33:43.43	304.85	12.11	-46.9	-49.4	6.1	7.54e-01	0	25	104	0	60	36305
2026-01-09 12:33:46.45	305.57	11.95	-46.9	-49.5	6.1	7.54e-01	0	25	104	0	60	36613
2026-01-09 12:33:49.48	306.29	11.78	-46.9	-49.4	6.1	7.54e-01	0	25	104	0	60	36296
2026-01-09 12:33:52.51	306.99	11.62	-46.9	-49.5	6.1	7.54e-01	0	25	104	0	60	36519
2026-01-09 12:33:55.54	307.69	11.45	-46.7	-49.3	6.1	7.53e-01	0	25	104	0	60	35793
2026-01-09 12:33:58.57	308.38	11.28	-46.8	-49.5	6.1	7.53e-01	0	25	104	0	60	36711
2026-01-09 12:34:01.60	309.06	11.11	-47.1	-49.7	6.1	7.53e-01	0	25	104	0	60	37468
2026-01-09 12:34:04.63	309.73	10.94	-47.2	-49.7	6.1	7.54e-01	0	25	104	0	60	37610
2026-01-09 12:34:07.65	310.39	10.77	-47.1	-49.7	6.1	7.54e-01	0	25	104	0	60	37433
2026-01-09 12:34:10.68	311.04	10.59	-47.2	-49.8	6.1	7.53e-01	0	25	104	0	60	37817
2026-01-09 12:34:13.71	311.68	10.42	-47.1	-49.7	6.1	7.54e-01	0	25	104	0	60	37331
2026-01-09 12:34:16.73	312.32	10.24	-47.1	-49.6	6.1	7.54e-01	0	25	104	0	60	37135
2026-01-09 12:34:19.76	312.94	10.06	-47.2	-49.8	6.1	7.54e-01	0	25	104	0	60	37761
2026-01-09 12:34:22.79	313.56	9.89	-47.2	-49.8	6.1	7.54e-01	0	25	104	0	60	37754
2026-01-09 12:34:25.82	314.16	9.71	-47.3	-49.8	6.1	7.54e-01	0	25	104	0	60	37839
2026-01-09 12:34:28.84	314.76	9.53	-47.2	-49.7	6.1	7.55e-01	0	25	104	0	60	37440
2026-01-09 12:34:31.87	315.35	9.34	-47.3	-49.8	6.1	7.55e-01	0	25	104	0	60	37811
2026-01-09 12:34:34.90	315.93	9.16	-47.2	-49.7	6.1	7.54e-01	0	25	104	0	60	37287
2026-01-09 12:34:37.92	316.50	8.98	-47.2	-49.7	6.1	7.53e-01	0	25	104	0	60	37553
2026-01-09 12:34:40.95	317.07	8.80	-47.2	-49.7	6.1	7.53e-01	0	25	104	0	60	37474
2026-01-09 12:34:43.98	317.62	8.62	-47.2	-49.7	6.1	7.54e-01	0	25	104	0	60	37278
2026-01-09 12:34:47.01	318.17	8.43	-47.0	-49.5	6.1	7.54e-01	0	25	104	0	60	36671
2026-01-09 12:34:50.04	318.71	8.25	-47.1	-49.6	6.1	7.54e-01	0	25	104	0	60	37197
2026-01-09 12:34:53.07	319.24	8.07	-47.0	-49.5	6.1	7.55e-01	0	25	104	0	60	36727
2026-01-09 12:34:56.10	319.76	7.88	-47.1	-49.5	6.1	7.53e-01	0	25	104	0	60	36657
2026-01-09 12:34:59.13	320.28	7.70	-47.1	-49.6	6.1	7.55e-01	0	25	104	0	60	37197
2026-01-09 12:35:02.16	320.79	7.52	-47.1	-49.6	6.1	7.54e-01	0	25	104	0	60	37002
2026-01-09 12:35:05.19	321.29	7.33	-47.0	-49.5	6.1	7.53e-01	0	25	104	0	60	36513
2026-01-09 12:35:08.22	321.78	7.15	-47.0	-49.5	6.1	7.54e-01	0	25	104	0	60	36578
2026-01-09 12:35:11.25	322.27	6.97	-47.0	-49.5	6.1	7.55e-01	0	25	104	0	60	36721
2026-01-09 12:35:14.27	322.75	6.78	-47.1	-49.6	6.1	7.55e-01	0	25	104	0	60	37057
2026-01-09 12:35:17.30	323.22	6.60	-46.9	-49.4	6.1	7.55e-01	0	25	104	0	60	36187
2026-01-09 12:35:20.32	323.68	6.42	-46.9	-49.4	6.1	7.54e-01	0	25	104	0	60	36219
2026-01-09 12:35:23.34	324.14	6.24	-47.0	-49.4	6.1	7.55e-01	0	25	104	0	60	36299
2026-01-09 12:35:26.37	324.59	6.06	-47.0	-49.6	6.1	7.54e-01	0	25	104	0	60	36806
2026-01-09 12:35:29.40	325.03	5.88	-46.8	-49.3	6.1	7.55e-01	0	25	104	0	60	35764
2026-01-09 12:35:32.42	325.47	5.70	-46.8	-49.3	6.1	7.54e-01	0	25	104	0	60	35905
2026-01-09 12:35:35.35	325.89	5.52	-46.5	-49.1	6.1	7.54e-01	0	25	104	0	60	35004
2026-01-09 12:35:38.37	326.31	5.34	-46.5	-49.2	6.1	7.54e-01	0	25	104	0	60	35152
2026-01-09 12:35:41.40	326.73	5.16	-46.7	-49.2	6.1	7.55e-01	0	25	104	0	60	35276
2026-01-09 12:35:44.43	327.14	4.99	-46.8	-49.2	6.1	7.53e-01	0	25	104	0	60	35427
2026-01-09 12:35:47.46	327.55	4.81	-46.7	-49.2	6.1	7.55e-01	0	25	104	0	60	35482
2026-01-09 12:35:50.49	327.95	4.63	-46.7	-49.2	6.1	7.54e-01	0	25	104	0	60	35469
2026-01-09 12:35:53.52	328.35	4.45	-46.6	-49.1	6.1	7.55e-01	0	25	104	0	60	35029
2026-01-09 12:35:56.54	328.74	4.28	-46.5	-49.1	6.1	7.54e-01	0	25	104	0	60	34802
2026-01-09 12:35:59.57	329.12	4.10	-46.5	-49.0	6.1	7.54e-01	0	25	104	0	60	34482
2026-01-09 12:36:02.60	329.50	3.92	-46.1	-48.6	6.1	7.54e-01	0	25	104	0	60	32795
2026-01-09 12:36:05.63	329.87	3.75	-44.6	-47.0	6.1	7.55e-01	0	25	104	0	60	27542
2026-01-09 12:36:08.66	330.24	3.58	-43.1	-45.6	6.1	7.55e-01	0	25	104	0	60	23325
2026-01-09 12:36:11.69	330.60	3.40	-44.1	-46.6	6.1	7.54e-01	0	25	104	0	60	26100
2026-01-09 12:36:14.72	330.96	3.23	-43.1	-45.5	6.1	7.55e-01	0	25	104	0	60	23179
2026-01-09 12:36:17.75	331.32	3.06	-42.9	-45.4	6.1	7.55e-01	0	25	104	0	60	22805
2026-01-09 12:36:20.78	331.66	2.89	-47.3	-49.8	6.0	7.54e-01	0	25	104	0	60	37888
2026-01-09 12:36:23.81	332.01	2.71	-47.6	-50.1	6.1	7.55e-01	0	25	104	0	60	39351
2026-01-09 12:36:26.84	332.35	2.54	-47.7	-50.3	6.1	7.54e-01	0	25	104	0	60	40023
2026-01-09 12:36:29.87	332.68	2.37	-47.9	-50.4	6.1	7.56e-01	0	25	104	0	60	40464
2026-01-09 12:36:32.90	333.01	2.21	-47.8	-50.3	6.1	7.54e-01	0	25	104	0	60	40123
2026-01-09 12:36:35.93	333.33	2.04	-48.0	-50.4	6.1	7.55e-01	0	25	104	0	60	40575
2026-01-09 12:36:38.95	333.65	1.87	-47.9	-50.4	6.1	7.53e-01	0	25	104	0	60	40397
2026-01-09 12:36:41.98	333.97	1.70	-47.9	-50.4	6.1	7.56e-01	0	25	104	0	60	40366
2026-01-09 12:36:45.01	334.28	1.54	-47.9	-50.4	6.1	7.54e-01	0	25	104	0	60	40396
2026-01-09 12:36:48.04	334.59	1.37	-47.9	-50.3	6.1	7.53e-01	0	25	104	0	60	40290
2026-01-09 12:36:51.07	334.89	1.21	-47.9	-50.3	6.1	7.53e-01	0	25	104	0	60	40282
2026-01-09 12:36:54.10	335.19	1.04	-47.9	-50.4	6.1	7.53e-01	0	25	104	0	60	40409
2026-01-09 12:36:57.13	335.49	0.88	-47.9	-50.4	6.1	7.54e-01	0	25	104	0	60	40549
2026-01-09 12:37:00.16	335.78	0.71	-47.9	-50.4	6.1	7.55e-01	0	25	104	0	60	40380
2026-01-09 12:37:03.19	336.07	0.55	-47.9	-50.4	6.1	7.53e-01	0	25	104	0	60	40598
2026-01-09 12:37:06.22	336.35	0.39	-48.0	-50.4	6.1	7.54e-01	0	25	104	0	60	40495
2026-01-09 12:37:09.25	336.63	0.23	-47.9	-50.4	6.1	7.53e-01	0	25	104	0	60	40340
2026-01-09 12:37:12.28	336.91	0.07	-47.9	-50.3	6.1	7.55e-01	0	25	104	0	60	40315
2026-01-09 12:37:15.31	337.19	-0.09	-47.9	-50.4	6.1	7.55e-01	0	25	104	0	60	40469

#Closed at: 2026-01-09 12:37:15
#Recorded file [0 MB]: D:/lorett/data/35029_260110_002654.dat