passes_logs/2026/01/09/R4.6S_Anadyr/R4.6S_Anadyr__20260109_031219_AQUA_rec.log

#Pass ID: 20260109_031219_AQUA
#Satellite: AQUA
#Configuration: AQUA
#almurnet v.1.7.20251203
#Start time: 2026-01-09 03:12:20

#Version: 2.2.20231116
#Station: R4.6S_Anadyr
#Location: 177.4865 lon 64.73178 lat
#TLE: 1 27424U 02022A   26004.96787593  .00001598  00000+0  32997-3 0  9996
#TLE: 2 27424  98.4069 331.2279 0002002  90.2377   0.6092 14.61798176259425

#Time	Az	El	Level	Level2	SNR	BER	BlckErr	Temp	State	Recorded	gain1	gain2
2026-01-09 03:12:20.83	190.33	0.05	-48.1	-63.0	3.6	1.51e+00	0	30	0	0	60	51244
2026-01-09 03:12:24.86	190.53	0.29	-48.3	-66.2	3.5	3.02e+01	0	31	104	0	60	78475
2026-01-09 03:12:28.90	190.72	0.53	-48.4	-66.2	3.5	3.02e+01	0	31	104	0	60	78639
2026-01-09 03:12:32.94	190.93	0.77	-48.1	-66.0	3.5	3.02e+01	0	32	104	0	60	76509
2026-01-09 03:12:36.97	191.13	1.01	-47.1	-64.8	3.5	3.02e+01	0	32	104	0	60	66604
2026-01-09 03:12:41.01	191.34	1.26	-47.0	-64.5	3.5	3.02e+01	0	32	104	0	60	64241
2026-01-09 03:12:45.05	191.55	1.50	-47.0	-64.5	3.5	3.02e+01	0	32	104	0	60	64368
2026-01-09 03:12:49.09	191.76	1.75	-47.0	-64.8	3.5	3.02e+01	0	32	104	0	60	66809
2026-01-09 03:12:53.12	191.98	2.00	-47.0	-64.7	3.5	3.02e+01	0	32	104	0	60	65996
2026-01-09 03:12:57.16	192.21	2.25	-47.0	-64.8	3.5	3.02e+01	0	32	104	0	60	67080
2026-01-09 03:13:01.20	192.43	2.51	-47.0	-64.7	3.5	3.02e+01	0	32	104	0	60	65771
2026-01-09 03:13:05.24	192.66	2.77	-46.9	-61.7	4.0	3.02e+01	0	32	104	0	60	46970
2026-01-09 03:13:09.28	192.90	3.03	-46.9	-61.9	3.6	3.02e+01	0	32	104	0	60	48087
2026-01-09 03:13:13.32	193.14	3.29	-41.7	-44.1	20.2	3.02e+01	0	32	0	5242880	58	6958
2026-01-09 03:13:17.36	193.38	3.55	-38.3	-39.9	24.3	3.02e+01	0	32	0	12582912	52	6043
2026-01-09 03:13:21.39	193.63	3.82	-42.6	-45.1	20.9	3.02e+01	0	32	0	19922944	60	6959
2026-01-09 03:13:25.43	193.88	4.09	-37.4	-38.9	25.4	3.02e+01	0	32	0	27787264	50	6024
2026-01-09 03:13:29.46	194.14	4.36	-36.7	-38.1	26.1	3.02e+01	0	32	0	35127296	48	6202
2026-01-09 03:13:33.50	194.40	4.63	-36.6	-38.0	26.3	3.02e+01	0	32	0	42991616	48	6110
2026-01-09 03:13:37.53	194.67	4.91	-36.5	-37.9	26.5	3.02e+01	0	32	0	50331648	48	6003
2026-01-09 03:13:41.56	194.94	5.19	-36.6	-38.0	26.3	3.02e+01	0	32	0	58195968	48	6118
2026-01-09 03:13:45.60	195.22	5.47	-36.3	-37.7	26.7	3.02e+01	0	32	0	65536000	48	5883
2026-01-09 03:13:49.63	195.51	5.76	-36.2	-37.6	26.9	3.02e+01	0	32	0	72876032	48	5826
2026-01-09 03:13:53.67	195.80	6.05	-36.3	-37.7	26.8	3.02e+01	0	32	0	80740352	48	5902
2026-01-09 03:13:57.71	196.10	6.34	-35.9	-37.2	27.2	3.02e+01	0	32	0	88080384	46	6244
2026-01-09 03:14:01.76	196.40	6.63	-36.0	-37.3	27.1	3.02e+01	0	32	0	95944704	46	6342
2026-01-09 03:14:05.79	196.71	6.93	-36.0	-37.3	27.3	3.02e+01	0	32	0	103284736	46	6319
2026-01-09 03:14:09.83	197.02	7.23	-35.9	-37.2	27.3	3.02e+01	0	32	0	111149056	46	6229
2026-01-09 03:14:13.87	197.35	7.54	-35.8	-37.1	27.4	3.02e+01	0	32	0	118489088	46	6194
2026-01-09 03:14:17.91	197.68	7.85	-35.8	-37.1	27.5	3.02e+01	0	32	0	126353408	46	6169
2026-01-09 03:14:21.94	198.01	8.16	-35.6	-36.9	27.7	3.02e+01	0	32	0	133693440	46	6038
2026-01-09 03:14:25.98	198.36	8.47	-35.5	-36.9	27.8	3.02e+01	0	32	0	141033472	46	5996
2026-01-09 03:14:30.02	198.71	8.79	-35.4	-36.7	27.9	3.02e+01	0	32	0	148897792	46	5912
2026-01-09 03:14:34.05	199.07	9.11	-35.3	-36.6	28.0	3.02e+01	0	32	0	156237824	46	5794
2026-01-09 03:14:38.09	199.44	9.44	-35.1	-36.4	28.2	3.02e+01	0	32	0	164102144	46	5686
2026-01-09 03:14:42.12	199.82	9.77	-35.2	-36.4	28.2	3.02e+01	0	32	0	171442176	46	5711
2026-01-09 03:14:46.16	200.21	10.10	-35.1	-36.4	28.2	3.02e+01	0	32	0	179306496	46	5705
2026-01-09 03:14:50.20	200.60	10.44	-35.0	-36.2	28.3	3.02e+01	0	32	0	186646528	44	6266
2026-01-09 03:14:54.23	201.01	10.78	-34.7	-36.0	28.6	3.02e+01	0	32	0	193986560	44	6083
2026-01-09 03:14:58.27	201.42	11.13	-34.8	-36.1	28.6	3.02e+01	0	32	0	201850880	44	6138
2026-01-09 03:15:02.31	201.85	11.48	-34.8	-36.0	28.6	3.02e+01	0	32	0	209190912	44	6113
2026-01-09 03:15:06.34	202.29	11.83	-34.7	-35.9	28.7	3.02e+01	0	32	0	217055232	44	6038
2026-01-09 03:15:10.38	202.73	12.19	-34.7	-36.0	28.7	3.02e+01	0	32	0	224395264	44	6080
2026-01-09 03:15:14.42	203.19	12.56	-34.5	-35.7	28.9	3.02e+01	0	32	0	232259584	44	5921
2026-01-09 03:15:18.45	203.67	12.92	-34.2	-35.4	29.2	3.02e+01	0	32	0	239599616	44	5707
2026-01-09 03:15:22.49	204.15	13.30	-34.3	-35.5	29.1	3.02e+01	0	32	0	246939648	44	5765
2026-01-09 03:15:26.53	204.65	13.67	-34.4	-35.6	29.1	3.02e+01	0	32	0	254803968	44	5811
2026-01-09 03:15:30.56	205.16	14.06	-34.2	-35.4	29.2	3.02e+01	0	32	0	262144000	44	5698
2026-01-09 03:15:34.60	205.68	14.44	-34.2	-35.4	29.3	3.02e+01	0	32	0	270008320	44	5670
2026-01-09 03:15:38.64	206.22	14.83	-34.1	-35.3	29.3	3.02e+01	0	32	0	277348352	44	5641
2026-01-09 03:15:42.68	206.77	15.23	-34.0	-35.2	29.5	3.02e+01	0	32	0	285212672	42	6210
2026-01-09 03:15:46.71	207.34	15.63	-34.1	-35.3	29.4	3.02e+01	0	32	0	292552704	42	6327
2026-01-09 03:15:50.75	207.92	16.04	-34.0	-35.2	29.6	3.02e+01	0	32	0	300417024	42	6234
2026-01-09 03:15:54.79	208.53	16.45	-34.2	-35.3	29.3	3.02e+01	0	32	0	307757056	42	6349
2026-01-09 03:15:58.82	209.14	16.86	-34.0	-35.2	29.6	3.02e+01	0	32	0	315097088	42	6212
2026-01-09 03:16:02.85	209.78	17.28	-34.2	-35.4	29.4	3.02e+01	0	32	0	322961408	42	6356
2026-01-09 03:16:06.88	210.43	17.71	-34.0	-35.2	29.5	3.02e+01	0	32	0	330301440	42	6256
2026-01-09 03:16:10.92	211.11	18.14	-34.0	-35.2	29.5	3.02e+01	0	32	0	338165760	42	6263
2026-01-09 03:16:14.96	211.80	18.57	-33.9	-35.1	29.6	3.02e+01	0	32	0	345505792	42	6187
2026-01-09 03:16:19.00	212.52	19.01	-34.0	-35.2	29.6	3.02e+01	0	32	0	353370112	42	6215
2026-01-09 03:16:23.04	213.26	19.45	-34.1	-35.3	29.5	3.02e+01	0	32	0	360710144	42	6284
2026-01-09 03:16:27.07	214.01	19.90	-33.9	-35.1	29.6	3.02e+01	0	32	0	368050176	42	6162
2026-01-09 03:16:31.11	214.80	20.35	-34.0	-35.2	29.5	3.02e+01	0	32	0	375914496	42	6268
2026-01-09 03:16:35.15	215.60	20.81	-34.0	-35.2	29.6	3.02e+01	0	32	0	383254528	42	6239
2026-01-09 03:16:39.19	216.44	21.27	-34.1	-35.3	29.5	3.02e+01	0	32	0	391118848	42	6335
2026-01-09 03:16:43.23	217.29	21.73	-34.1	-35.3	29.5	3.02e+01	0	32	0	398458880	42	6296
2026-01-09 03:16:47.26	218.17	22.19	-34.4	-35.6	29.2	3.02e+01	0	32	0	406323200	42	6537
2026-01-09 03:16:51.30	219.09	22.66	-34.2	-35.4	29.4	3.02e+01	0	32	0	413663232	42	6419
2026-01-09 03:16:55.34	220.03	23.13	-34.5	-35.7	29.3	3.02e+01	0	32	0	421003264	42	6609
2026-01-09 03:16:59.37	220.99	23.60	-34.2	-35.4	29.4	3.02e+01	0	32	0	428867584	42	6384
2026-01-09 03:17:03.41	221.99	24.07	-34.3	-35.5	29.4	3.02e+01	0	32	0	436207616	42	6453
2026-01-09 03:17:07.44	223.02	24.54	-34.3	-35.5	29.4	3.02e+01	0	32	0	444071936	42	6467
2026-01-09 03:17:11.48	224.09	25.01	-34.3	-35.5	29.4	3.02e+01	0	32	0	451411968	42	6442
2026-01-09 03:17:15.51	225.18	25.48	-34.3	-35.5	29.3	3.02e+01	0	32	0	459276288	42	6449
2026-01-09 03:17:19.55	226.31	25.95	-34.5	-35.7	29.3	3.02e+01	0	32	0	466616320	42	6608
2026-01-09 03:17:23.59	227.47	26.41	-34.4	-35.6	29.3	3.02e+01	0	32	0	473956352	42	6566
2026-01-09 03:17:27.63	228.67	26.88	-34.4	-35.6	29.2	3.02e+01	0	32	0	481820672	42	6561
2026-01-09 03:17:31.67	229.90	27.33	-34.3	-35.5	29.4	3.02e+01	0	32	0	489160704	42	6449
2026-01-09 03:17:35.71	231.18	27.78	-34.5	-35.7	29.3	3.02e+01	0	32	0	497025024	42	6602
2026-01-09 03:17:39.75	232.48	28.23	-34.4	-35.6	29.3	3.02e+01	0	32	0	504365056	42	6511
2026-01-09 03:17:43.78	233.82	28.66	-34.3	-35.5	29.3	3.02e+01	0	32	0	512229376	42	6479
2026-01-09 03:17:47.82	235.21	29.09	-34.2	-35.4	29.5	3.02e+01	0	32	0	519569408	42	6393
2026-01-09 03:17:51.85	236.62	29.50	-34.4	-35.6	29.4	3.02e+01	0	32	0	527433728	42	6541
2026-01-09 03:17:55.89	238.08	29.91	-34.2	-35.4	29.4	3.02e+01	0	32	0	534773760	42	6393
2026-01-09 03:17:59.92	239.56	30.29	-33.9	-35.1	29.7	3.02e+01	0	32	0	542113792	42	6151
2026-01-09 03:18:03.96	241.09	30.67	-34.1	-35.3	29.6	3.02e+01	0	32	0	549978112	42	6330
2026-01-09 03:18:08.00	242.66	31.02	-34.2	-35.4	29.5	3.02e+01	0	32	0	557318144	42	6387
2026-01-09 03:18:12.04	244.25	31.36	-34.0	-35.2	29.6	3.02e+01	0	32	0	565182464	42	6263
2026-01-09 03:18:16.07	245.88	31.67	-34.1	-35.3	29.6	3.02e+01	0	33	0	572522496	42	6323
2026-01-09 03:18:20.11	247.54	31.97	-33.8	-35.0	29.8	3.02e+01	0	32	0	580386816	42	6103
2026-01-09 03:18:24.15	249.23	32.24	-33.9	-35.0	29.7	3.02e+01	0	32	0	587726848	42	6117
2026-01-09 03:18:28.19	250.95	32.49	-33.8	-35.0	29.8	3.02e+01	0	32	0	595591168	42	6105
2026-01-09 03:18:32.23	252.70	32.71	-33.7	-34.9	29.9	3.02e+01	0	32	0	602931200	42	6023
2026-01-09 03:18:36.26	254.46	32.90	-33.7	-34.8	30.0	3.02e+01	0	32	0	610271232	42	5986
2026-01-09 03:18:40.30	256.25	33.07	-33.9	-35.1	29.8	3.02e+01	0	32	0	618135552	42	6140
2026-01-09 03:18:44.34	258.05	33.21	-33.4	-34.6	30.2	3.02e+01	0	32	0	625475584	42	5799
2026-01-09 03:18:48.37	259.86	33.31	-33.7	-34.9	30.0	3.02e+01	0	32	0	633339904	42	5999
2026-01-09 03:18:52.41	261.69	33.39	-33.5	-34.7	30.0	3.02e+01	0	32	0	640679936	42	5910
2026-01-09 03:18:56.45	263.52	33.43	-33.5	-34.6	30.1	3.02e+01	0	32	0	648544256	42	5849
2026-01-09 03:19:00.48	265.36	33.45	-33.3	-34.5	30.3	3.02e+01	0	32	0	655884288	42	5752
2026-01-09 03:19:04.52	267.19	33.43	-33.3	-34.5	30.3	3.02e+01	0	32	0	663748608	42	5736
2026-01-09 03:19:08.55	269.02	33.38	-33.2	-34.3	30.4	3.02e+01	0	32	0	671088640	42	5642
2026-01-09 03:19:12.59	270.84	33.30	-33.2	-34.4	30.4	3.02e+01	0	32	0	678428672	42	5661
2026-01-09 03:19:16.62	272.65	33.19	-33.0	-34.1	30.6	3.02e+01	0	32	0	686292992	40	6181
2026-01-09 03:19:20.66	274.45	33.05	-32.9	-34.1	30.6	3.02e+01	0	32	0	693633024	40	6156
2026-01-09 03:19:24.69	276.23	32.88	-32.7	-33.9	30.7	3.02e+01	0	32	0	701497344	40	6005
2026-01-09 03:19:28.73	277.99	32.68	-32.8	-33.9	30.6	3.02e+01	0	32	0	708837376	40	6037
2026-01-09 03:19:32.76	279.72	32.45	-32.7	-33.8	30.7	3.02e+01	0	32	0	716701696	40	5987
2026-01-09 03:19:36.80	281.43	32.20	-32.7	-33.8	30.8	3.02e+01	0	32	0	724041728	40	5978
2026-01-09 03:19:40.84	283.12	31.93	-32.6	-33.7	30.9	3.02e+01	0	32	0	731381760	40	5897
2026-01-09 03:19:44.87	284.77	31.63	-32.6	-33.8	30.8	3.02e+01	0	32	0	739246080	40	5944
2026-01-09 03:19:48.90	286.38	31.31	-32.5	-33.6	30.8	3.02e+01	0	32	0	746586112	40	5842
2026-01-09 03:19:52.94	287.97	30.97	-32.5	-33.6	30.9	3.02e+01	0	32	0	754450432	40	5827
2026-01-09 03:19:56.98	289.53	30.62	-32.5	-33.7	30.9	3.02e+01	0	32	0	761790464	40	5870
2026-01-09 03:20:01.02	291.04	30.24	-32.5	-33.7	30.9	3.02e+01	0	32	0	769654784	40	5865
2026-01-09 03:20:05.05	292.52	29.86	-32.6	-33.7	30.9	3.02e+01	0	32	0	776994816	40	5910
2026-01-09 03:20:09.08	293.97	29.45	-32.7	-33.9	30.7	3.02e+01	0	32	0	784334848	40	6027
2026-01-09 03:20:13.12	295.37	29.04	-32.7	-33.9	30.6	3.02e+01	0	32	0	792199168	40	6006
2026-01-09 03:20:17.16	296.74	28.61	-32.8	-33.9	30.6	3.02e+01	0	32	0	799539200	40	6061
2026-01-09 03:20:21.20	298.08	28.18	-32.9	-34.0	30.5	3.02e+01	0	32	0	807403520	40	6125
2026-01-09 03:20:25.23	299.37	27.74	-33.0	-34.1	30.5	3.02e+01	0	32	0	814743552	40	6199
2026-01-09 03:20:29.27	300.63	27.29	-33.0	-34.1	30.4	3.02e+01	0	32	0	822607872	40	6176
2026-01-09 03:20:33.31	301.86	26.83	-33.1	-34.3	30.3	3.02e+01	0	32	0	829947904	40	6311
2026-01-09 03:20:37.34	303.05	26.38	-33.1	-34.3	30.3	3.02e+01	0	32	0	837812224	40	6284
2026-01-09 03:20:41.38	304.20	25.91	-33.2	-34.4	30.3	3.02e+01	0	32	0	845152256	40	6351
2026-01-09 03:20:45.42	305.32	25.45	-33.1	-34.2	30.3	3.02e+01	0	32	0	852492288	40	6265
2026-01-09 03:20:49.45	306.41	24.98	-33.1	-34.3	30.3	3.02e+01	0	32	0	860356608	40	6306
2026-01-09 03:20:53.49	307.46	24.51	-33.2	-34.4	30.2	3.02e+01	0	32	0	867696640	40	6388
2026-01-09 03:20:57.53	308.48	24.04	-33.1	-34.2	30.3	3.02e+01	0	32	0	875560960	40	6248
2026-01-09 03:21:01.56	309.47	23.57	-33.3	-34.5	30.2	3.02e+01	0	32	0	882900992	40	6436
2026-01-09 03:21:05.60	310.44	23.11	-33.3	-34.5	30.0	3.02e+01	0	32	0	890765312	40	6455
2026-01-09 03:21:09.64	311.37	22.64	-33.2	-34.3	30.3	3.02e+01	0	32	0	898105344	40	6344
2026-01-09 03:21:13.67	312.27	22.18	-33.2	-34.3	30.2	3.02e+01	0	32	0	905445376	40	6336
2026-01-09 03:21:17.70	313.15	21.72	-33.0	-34.2	30.4	3.02e+01	0	32	0	913309696	40	6246
2026-01-09 03:21:21.73	314.00	21.26	-33.0	-34.1	30.4	3.02e+01	0	32	0	920649728	40	6189
2026-01-09 03:21:25.77	314.82	20.81	-33.0	-34.2	30.3	3.02e+01	0	32	0	928514048	40	6225
2026-01-09 03:21:29.80	315.62	20.36	-33.2	-34.4	30.3	3.02e+01	0	32	0	935854080	40	6357
2026-01-09 03:21:33.84	316.40	19.91	-33.1	-34.2	30.3	3.02e+01	0	32	0	943194112	40	6254
2026-01-09 03:21:37.88	317.15	19.46	-32.9	-34.1	30.3	3.02e+01	0	32	0	951058432	40	6142
2026-01-09 03:21:41.91	317.88	19.03	-32.8	-34.0	30.5	3.02e+01	0	32	0	958398464	40	6083
2026-01-09 03:21:45.95	318.60	18.59	-33.1	-34.2	30.3	3.02e+01	0	32	0	966262784	40	6264
2026-01-09 03:21:49.99	319.29	18.16	-33.2	-34.3	30.1	3.02e+01	0	32	0	973602816	40	6339
2026-01-09 03:21:54.02	319.96	17.73	-32.9	-34.0	30.5	3.02e+01	0	32	0	981467136	40	6100
2026-01-09 03:21:58.06	320.61	17.31	-32.9	-34.1	30.3	3.02e+01	0	32	0	988807168	40	6173
2026-01-09 03:22:02.09	321.24	16.90	-32.9	-34.1	30.3	3.02e+01	0	32	0	996147200	40	6137
2026-01-09 03:22:06.13	321.86	16.48	-33.0	-34.2	30.2	3.02e+01	0	32	0	1004011520	40	6224
2026-01-09 03:22:10.16	322.45	16.08	-32.8	-33.9	30.4	3.02e+01	0	32	0	1011351552	40	6058
2026-01-09 03:22:14.20	323.04	15.67	-33.2	-34.4	30.1	3.02e+01	0	32	0	1019215872	40	6396
2026-01-09 03:22:18.24	323.60	15.28	-33.2	-34.4	30.0	3.02e+01	0	32	0	1026555904	40	6376
2026-01-09 03:22:22.27	324.15	14.88	-33.1	-34.3	30.2	3.02e+01	0	32	0	1034420224	40	6284
2026-01-09 03:22:26.31	324.69	14.50	-33.1	-34.3	30.1	3.02e+01	0	32	0	1041760256	40	6315
2026-01-09 03:22:30.34	325.21	14.11	-33.3	-34.5	30.0	3.02e+01	0	32	0	1049624576	40	6439
2026-01-09 03:22:34.38	325.72	13.73	-33.5	-34.7	29.8	3.02e+01	0	32	0	1056964608	40	6578
2026-01-09 03:22:38.42	326.21	13.36	-33.4	-34.6	29.8	3.02e+01	0	32	0	1064304640	40	6549
2026-01-09 03:22:42.46	326.70	12.99	-33.5	-34.6	29.8	3.02e+01	0	32	0	1072168960	40	6562
2026-01-09 03:22:46.49	327.17	12.62	-33.3	-34.5	29.8	3.02e+01	0	32	0	1079508992	40	6446
2026-01-09 03:22:50.53	327.63	12.26	-33.4	-34.6	29.7	3.02e+01	0	32	0	1087373312	40	6502
2026-01-09 03:22:54.57	328.07	11.91	-33.7	-34.9	29.5	3.02e+01	0	32	0	1094713344	40	6792
2026-01-09 03:22:58.60	328.51	11.56	-33.8	-35.0	29.5	3.02e+01	0	32	0	1102577664	42	6073
2026-01-09 03:23:02.64	328.93	11.21	-33.8	-35.0	29.4	3.02e+01	0	32	0	1109917696	42	6127
2026-01-09 03:23:06.68	329.35	10.86	-34.0	-35.3	29.2	3.02e+01	0	32	0	1117782016	42	6294
2026-01-09 03:23:10.72	329.76	10.52	-34.2	-35.4	29.0	3.02e+01	0	32	0	1125122048	42	6389
2026-01-09 03:23:14.75	330.15	10.19	-34.2	-35.4	29.0	3.02e+01	0	32	0	1132462080	42	6368
2026-01-09 03:23:18.78	330.54	9.86	-34.2	-35.4	29.0	3.02e+01	0	32	0	1140326400	42	6372
2026-01-09 03:23:22.82	330.92	9.53	-34.7	-44.8	3.6	3.02e+01	0	32	104	1145044992	42	18853
2026-01-09 03:23:26.85	331.29	9.21	-46.5	-61.3	3.5	3.02e+01	0	32	104	1145044992	60	44804
2026-01-09 03:23:30.89	331.65	8.89	-35.2	-45.3	3.4	3.02e+01	0	32	104	1145044992	46	15785
2026-01-09 03:23:34.93	332.00	8.57	-38.6	-49.0	3.5	3.02e+01	0	32	104	1145044992	48	21558
2026-01-09 03:23:38.96	332.35	8.26	-35.9	-46.0	4.1	3.02e+01	0	32	104	1145044992	48	15302
2026-01-09 03:23:43.00	332.68	7.95	-37.7	-48.2	3.5	3.02e+01	0	32	104	1145044992	48	19683
2026-01-09 03:23:47.04	333.01	7.64	-40.0	-50.8	3.5	3.02e+01	0	33	104	1145044992	52	21140
2026-01-09 03:23:51.08	333.34	7.34	-39.0	-49.6	3.5	3.02e+01	0	32	104	1145044992	52	18467
2026-01-09 03:23:55.11	333.65	7.04	-46.5	-61.9	3.5	3.02e+01	0	32	104	1145044992	60	47932
2026-01-09 03:23:59.15	333.97	6.74	-35.8	-46.1	3.5	3.02e+01	0	32	104	1145044992	46	17316
2026-01-09 03:24:03.19	334.27	6.45	-45.9	-62.8	3.5	3.02e+01	0	32	104	1145044992	60	53200
2026-01-09 03:24:07.22	334.57	6.16	-36.8	-47.2	3.5	3.02e+01	0	32	104	1145044992	48	17512
2026-01-09 03:24:11.25	334.86	5.88	-39.4	-50.2	3.5	3.02e+01	0	32	104	1145044992	56	15611
2026-01-09 03:24:15.29	335.15	5.59	-40.3	-51.5	3.5	3.02e+01	0	32	104	1145044992	56	18269
2026-01-09 03:24:19.32	335.43	5.31	-42.2	-54.1	3.5	3.02e+01	0	32	104	1145044992	58	22013
2026-01-09 03:24:23.36	335.70	5.03	-42.9	-56.8	3.5	3.02e+01	0	32	104	1145044992	60	26557
2026-01-09 03:24:27.40	335.97	4.76	-42.5	-56.7	3.5	3.02e+01	0	32	104	1145044992	60	26236
2026-01-09 03:24:31.44	336.24	4.48	-43.1	-59.9	3.4	3.02e+01	0	32	104	1145044992	60	37852
2026-01-09 03:24:35.47	336.50	4.22	-43.3	-59.3	3.5	3.02e+01	0	32	104	1145044992	60	35349
2026-01-09 03:24:39.51	336.75	3.95	-43.2	-60.9	3.5	3.02e+01	0	32	104	1145044992	60	42882
2026-01-09 03:24:43.55	337.00	3.68	-43.3	-60.9	3.5	3.02e+01	0	32	104	1145044992	60	42645
2026-01-09 03:24:47.59	337.25	3.42	-43.2	-61.0	3.5	3.02e+01	0	32	104	1145044992	60	43225
2026-01-09 03:24:51.63	337.49	3.16	-43.2	-61.1	3.5	3.02e+01	0	32	104	1145044992	60	43587
2026-01-09 03:24:55.67	337.73	2.90	-47.5	-65.3	3.5	3.02e+01	0	33	104	1145044992	60	70914
2026-01-09 03:24:59.70	337.96	2.65	-48.3	-66.1	3.5	3.02e+01	0	33	104	1145044992	60	77880
2026-01-09 03:25:03.74	338.19	2.39	-48.3	-66.2	3.5	3.02e+01	0	33	104	1145044992	60	78905
2026-01-09 03:25:07.78	338.42	2.14	-48.3	-66.2	3.5	3.02e+01	0	32	104	1145044992	60	78232
2026-01-09 03:25:11.82	338.64	1.89	-48.3	-66.2	3.5	3.02e+01	0	33	104	1145044992	60	78270
2026-01-09 03:25:15.86	338.86	1.65	-48.3	-66.1	3.5	3.02e+01	0	32	104	1145044992	60	77788
2026-01-09 03:25:19.89	339.07	1.40	-48.3	-66.1	3.5	3.02e+01	0	33	104	1145044992	60	77827
2026-01-09 03:25:23.93	339.28	1.16	-48.3	-66.2	3.5	3.02e+01	0	32	104	1145044992	60	78177
2026-01-09 03:25:27.97	339.49	0.92	-48.2	-66.1	3.5	3.02e+01	0	32	104	1145044992	60	77674
2026-01-09 03:25:32.01	339.69	0.68	-48.3	-66.2	3.5	3.02e+01	0	33	104	1145044992	60	78215
2026-01-09 03:25:36.05	339.89	0.44	-48.4	-66.2	3.5	3.02e+01	0	32	104	1145044992	60	78499
2026-01-09 03:25:40.09	340.09	0.21	-48.2	-66.1	3.5	3.02e+01	0	32	104	1145044992	60	77776
2026-01-09 03:25:44.12	340.29	-0.03	-48.2	-66.1	3.5	3.02e+01	0	32	104	1145044992	60	77832

#Closed at: 2026-01-09 03:25:45
#Recorded file [1145 MB]: D:/lorett/data/35029_260109_151220.dat