passes_logs/2026/01/09/R4.6S_Anadyr/R4.6S_Anadyr__20260109_072059_FENGYUN_3E_rec.log

#Pass ID: 20260109_072059_FENGYUN 3E
#Satellite: FENGYUN 3E
#Configuration: FENGYUN 3E
#almurnet v.1.7.20251203
#Start time: 2026-01-09 07:21:03

#Version: 2.2.20231116
#Station: R4.6S_Anadyr
#Location: 177.4865 lon 64.73178 lat
#TLE: 1 49008U 21062A   26008.59312205 -.00000223  00000+0 -84486-4 0  9997
#TLE: 2 49008  98.7483  13.7961 0001692 149.3118 210.8157 14.19883502233939

#Time	Az	El	Level	Level2	SNR	BER	BlckErr	Temp	State	Recorded	gain1	gain2
2026-01-09 07:21:03.24	232.77	0.15	-47.5	-57.7	3.3	8.40e-01	0	27	0	0	60	27652
2026-01-09 07:21:06.26	233.03	0.28	-47.4	-59.0	3.6	8.45e-01	0	27	104	0	60	32364
2026-01-09 07:21:09.29	233.30	0.42	-47.4	-59.1	3.6	8.45e-01	0	27	104	0	60	32418
2026-01-09 07:21:12.32	233.57	0.55	-47.7	-58.9	3.6	8.45e-01	0	27	104	0	60	31940
2026-01-09 07:21:15.35	233.84	0.69	-47.2	-58.4	3.6	8.45e-01	0	27	104	0	60	30115
2026-01-09 07:21:18.37	234.11	0.82	-43.3	-56.6	3.6	8.44e-01	0	27	104	0	60	24357
2026-01-09 07:21:21.41	234.39	0.96	-43.3	-56.5	3.6	8.46e-01	0	28	104	0	60	24289
2026-01-09 07:21:24.44	234.67	1.10	-43.3	-56.5	3.6	8.45e-01	0	28	104	0	60	24286
2026-01-09 07:21:27.47	234.95	1.23	-43.4	-56.6	3.6	8.45e-01	0	27	104	0	60	24393
2026-01-09 07:21:30.50	235.23	1.37	-43.3	-56.6	3.6	8.45e-01	0	28	104	0	60	24379
2026-01-09 07:21:33.53	235.52	1.50	-43.3	-56.5	3.6	8.45e-01	0	28	104	0	60	24243
2026-01-09 07:21:36.56	235.81	1.64	-43.3	-56.5	3.6	8.44e-01	0	28	104	0	60	24188
2026-01-09 07:21:39.59	236.10	1.77	-43.3	-56.6	3.6	8.45e-01	0	28	104	0	60	24353
2026-01-09 07:21:42.62	236.40	1.91	-43.3	-56.5	3.6	8.45e-01	0	28	104	0	60	24092
2026-01-09 07:21:45.64	236.69	2.05	-43.3	-56.5	3.6	8.45e-01	0	28	104	0	60	24217
2026-01-09 07:21:48.67	236.99	2.18	-43.3	-56.5	3.6	8.46e-01	0	28	104	0	60	24129
2026-01-09 07:21:51.70	237.29	2.32	-43.3	-56.5	3.6	8.46e-01	0	28	104	0	60	24167
2026-01-09 07:21:54.73	237.60	2.46	-43.3	-56.5	3.6	8.46e-01	0	28	104	0	60	24099
2026-01-09 07:21:57.76	237.90	2.59	-43.3	-56.4	3.6	8.46e-01	0	28	104	0	60	23998
2026-01-09 07:22:00.78	238.21	2.73	-43.2	-56.4	3.6	8.46e-01	0	28	104	0	60	23890
2026-01-09 07:22:03.81	238.53	2.86	-43.2	-55.9	3.6	8.46e-01	0	28	104	0	60	22595
2026-01-09 07:22:06.84	238.84	3.00	-43.2	-55.5	3.6	8.45e-01	0	28	104	0	60	21560
2026-01-09 07:22:09.87	239.16	3.14	-44.2	-54.7	3.6	8.44e-01	0	28	104	0	60	19679
2026-01-09 07:22:12.89	239.48	3.27	-44.1	-51.8	4.6	8.27e-01	0	28	104	0	60	14067
2026-01-09 07:22:15.92	239.80	3.41	-44.0	-49.7	5.0	7.38e-01	0	28	0	0	60	11021
2026-01-09 07:22:18.94	240.13	3.54	-43.9	-48.6	6.3	2.85e-01	0	28	0	12582912	60	9775
2026-01-09 07:22:21.97	240.46	3.68	-42.8	-47.5	7.5	1.19e-01	0	28	0	34603008	60	8602
2026-01-09 07:22:25.00	240.79	3.82	-42.4	-46.1	9.0	2.89e-02	0	28	0	55574528	58	8215
2026-01-09 07:22:28.03	241.13	3.95	-42.0	-45.2	10.2	8.86e-03	0	28	0	77594624	58	7422
2026-01-09 07:22:31.06	241.47	4.09	-41.9	-44.6	11.0	2.75e-03	0	28	0	99614720	58	6924
2026-01-09 07:22:34.09	241.81	4.22	-41.5	-43.8	11.9	4.45e-04	0	28	0	121634816	56	7083
2026-01-09 07:22:37.11	242.15	4.36	-40.5	-42.4	13.4	2.51e-05	0	28	0	143654912	54	6725
2026-01-09 07:22:40.14	242.50	4.49	-40.1	-41.6	14.3	1.10e-06	0	28	0	165675008	54	6169
2026-01-09 07:22:43.17	242.85	4.63	-39.6	-41.0	14.8	0.00e+00	0	28	0	187695104	52	6448
2026-01-09 07:22:46.20	243.20	4.76	-38.9	-40.2	15.7	0.00e+00	0	28	0	209715200	52	5871
2026-01-09 07:22:49.23	243.56	4.90	-37.8	-38.9	16.9	0.00e+00	0	28	0	230686720	50	5646
2026-01-09 07:22:52.26	243.92	5.03	-37.1	-38.2	17.6	0.00e+00	0	28	0	252706816	48	5868
2026-01-09 07:22:55.29	244.28	5.17	-36.8	-37.7	18.1	0.00e+00	0	28	0	274726912	46	6239
2026-01-09 07:22:58.32	244.65	5.30	-36.1	-37.1	18.6	0.00e+00	0	28	0	296747008	46	5769
2026-01-09 07:23:01.35	245.02	5.43	-35.6	-36.5	19.1	0.00e+00	0	28	0	317718528	44	6054
2026-01-09 07:23:04.38	245.39	5.57	-35.4	-36.3	19.4	0.00e+00	0	28	0	339738624	44	5936
2026-01-09 07:23:07.41	245.77	5.70	-35.0	-35.8	19.7	0.00e+00	0	28	0	361758720	44	5611
2026-01-09 07:23:10.44	246.15	5.83	-34.7	-35.5	20.0	0.00e+00	0	28	0	383778816	42	6099
2026-01-09 07:23:13.47	246.53	5.96	-34.4	-35.2	20.3	0.00e+00	0	28	0	405798912	42	5889
2026-01-09 07:23:16.50	246.92	6.10	-34.2	-35.0	20.5	0.00e+00	0	28	0	427819008	42	5758
2026-01-09 07:23:19.53	247.31	6.23	-33.8	-34.6	20.8	0.00e+00	0	28	0	449839104	42	5468
2026-01-09 07:23:22.56	247.70	6.36	-33.5	-34.3	21.0	0.00e+00	0	28	0	471859200	40	5909
2026-01-09 07:23:25.59	248.10	6.49	-33.3	-34.1	21.2	0.00e+00	0	28	0	492830720	40	5802
2026-01-09 07:23:28.62	248.50	6.62	-32.9	-33.7	21.4	0.00e+00	0	28	0	514850816	40	5532
2026-01-09 07:23:31.65	248.90	6.75	-32.9	-33.6	21.5	0.00e+00	0	28	0	536870912	40	5485
2026-01-09 07:23:34.68	249.31	6.88	-32.7	-33.5	21.7	0.00e+00	0	28	0	558891008	38	6041
2026-01-09 07:23:37.71	249.72	7.00	-32.7	-33.5	21.7	0.00e+00	0	28	0	580911104	38	6055
2026-01-09 07:23:40.74	250.13	7.13	-32.5	-33.2	21.8	0.00e+00	0	28	0	602931200	38	5892
2026-01-09 07:23:43.77	250.55	7.26	-32.5	-33.3	21.8	0.00e+00	0	28	0	624951296	38	5905
2026-01-09 07:23:46.80	250.97	7.38	-32.4	-33.2	21.8	0.00e+00	0	28	0	645922816	38	5847
2026-01-09 07:23:49.83	251.40	7.51	-32.3	-33.0	21.9	0.00e+00	0	28	0	667942912	38	5732
2026-01-09 07:23:52.85	251.82	7.63	-32.3	-33.1	21.9	0.00e+00	0	28	0	689963008	38	5766
2026-01-09 07:23:55.88	252.25	7.76	-32.3	-33.1	21.8	0.00e+00	0	28	0	711983104	38	5762
2026-01-09 07:23:58.91	252.69	7.88	-32.3	-33.0	21.9	0.00e+00	0	28	0	734003200	38	5738
2026-01-09 07:24:01.94	253.13	8.00	-32.1	-32.9	22.0	0.00e+00	0	28	0	756023296	38	5642
2026-01-09 07:24:04.97	253.57	8.13	-31.9	-32.6	22.4	0.00e+00	0	28	0	778043392	38	5497
2026-01-09 07:24:08.00	254.01	8.25	-32.0	-32.7	22.2	0.00e+00	0	28	0	799014912	38	5525
2026-01-09 07:24:11.02	254.46	8.37	-31.9	-32.6	22.3	0.00e+00	0	28	0	821035008	38	5445
2026-01-09 07:24:14.05	254.91	8.49	-31.9	-32.6	22.1	0.00e+00	0	28	0	843055104	38	5447
2026-01-09 07:24:17.08	255.37	8.60	-31.8	-32.5	22.2	0.00e+00	0	28	0	865075200	36	6083
2026-01-09 07:24:20.10	255.83	8.72	-31.9	-32.6	22.3	0.00e+00	0	28	0	887095296	36	6121
2026-01-09 07:24:23.13	256.29	8.84	-31.7	-32.4	22.5	0.00e+00	0	28	0	909115392	36	5998
2026-01-09 07:24:26.17	256.76	8.95	-31.6	-32.3	22.5	0.00e+00	0	28	0	931135488	36	5941
2026-01-09 07:24:29.19	257.23	9.06	-31.5	-32.2	22.6	0.00e+00	0	28	0	952107008	36	5835
2026-01-09 07:24:32.22	257.70	9.18	-31.6	-32.2	22.5	0.00e+00	0	28	0	974127104	36	5893
2026-01-09 07:24:35.25	258.18	9.29	-31.5	-32.2	22.5	0.00e+00	0	28	0	996147200	36	5857
2026-01-09 07:24:38.28	258.66	9.40	-31.6	-32.3	22.4	0.00e+00	0	28	0	1018167296	36	5922
2026-01-09 07:24:41.31	259.15	9.51	-31.4	-32.1	22.5	0.00e+00	0	28	0	1040187392	36	5777
2026-01-09 07:24:44.34	259.63	9.61	-31.4	-32.0	22.5	0.00e+00	0	28	0	1062207488	36	5761
2026-01-09 07:24:47.37	260.13	9.72	-31.2	-31.9	22.6	0.00e+00	0	28	0	1084227584	36	5651
2026-01-09 07:24:50.40	260.62	9.83	-31.3	-32.0	22.5	0.00e+00	0	28	0	1106247680	36	5751
2026-01-09 07:24:53.43	261.12	9.93	-31.2	-31.9	22.7	0.00e+00	0	28	0	1127219200	36	5643
2026-01-09 07:24:56.46	261.62	10.03	-31.3	-32.0	22.5	0.00e+00	0	28	0	1149239296	36	5740
2026-01-09 07:24:59.49	262.12	10.13	-31.3	-32.0	22.6	0.00e+00	0	28	0	1171259392	36	5737
2026-01-09 07:25:02.51	262.63	10.23	-31.2	-31.9	22.8	0.00e+00	0	28	0	1193279488	36	5641
2026-01-09 07:25:05.54	263.14	10.33	-31.0	-31.7	22.9	0.00e+00	0	28	0	1215299584	36	5536
2026-01-09 07:25:08.57	263.66	10.42	-31.3	-32.0	22.8	0.00e+00	0	28	0	1237319680	36	5707
2026-01-09 07:25:11.60	264.18	10.51	-31.1	-31.8	22.8	0.00e+00	0	28	0	1259339776	36	5580
2026-01-09 07:25:14.63	264.70	10.61	-31.4	-32.2	22.4	0.00e+00	0	28	0	1280311296	36	5843
2026-01-09 07:25:17.65	265.22	10.70	-30.7	-31.4	23.0	0.00e+00	0	28	0	1302331392	34	5981
2026-01-09 07:25:20.68	265.75	10.79	-30.9	-31.5	23.0	0.00e+00	0	28	0	1324351488	34	6080
2026-01-09 07:25:23.70	266.27	10.87	-31.0	-31.7	22.7	0.00e+00	0	29	0	1346371584	34	6211
2026-01-09 07:25:26.73	266.81	10.96	-31.0	-31.7	22.7	0.00e+00	0	28	0	1367343104	34	6184
2026-01-09 07:25:29.76	267.34	11.04	-30.8	-31.5	22.8	0.00e+00	0	28	0	1389363200	34	6071
2026-01-09 07:25:32.79	267.88	11.12	-30.8	-31.5	22.9	0.00e+00	0	28	0	1411383296	34	6083
2026-01-09 07:25:35.82	268.43	11.20	-30.9	-31.6	22.9	0.00e+00	0	28	0	1433403392	34	6141
2026-01-09 07:25:38.85	268.97	11.28	-31.0	-31.7	22.6	0.00e+00	0	29	0	1455423488	34	6219
2026-01-09 07:25:41.88	269.52	11.35	-30.9	-31.6	22.6	0.00e+00	0	28	0	1477443584	34	6124
2026-01-09 07:25:44.91	270.07	11.42	-30.9	-31.6	22.8	0.00e+00	0	29	0	1499463680	34	6104
2026-01-09 07:25:47.93	270.62	11.49	-31.0	-31.7	22.7	0.00e+00	0	28	0	1520435200	34	6207
2026-01-09 07:25:50.97	271.18	11.56	-30.9	-31.6	22.8	0.00e+00	0	29	0	1542455296	34	6141
2026-01-09 07:25:53.99	271.73	11.63	-30.7	-31.4	22.8	0.00e+00	0	28	0	1564475392	34	6026
2026-01-09 07:25:57.02	272.29	11.69	-30.5	-31.1	23.1	0.00e+00	0	29	0	1586495488	34	5824
2026-01-09 07:26:00.05	272.85	11.75	-30.6	-31.2	23.1	0.00e+00	0	28	0	1608515584	34	5888
2026-01-09 07:26:03.07	273.42	11.81	-30.6	-31.3	23.0	0.00e+00	0	28	0	1630535680	34	5931
2026-01-09 07:26:06.10	273.98	11.87	-30.5	-31.2	23.0	0.00e+00	0	28	0	1652555776	34	5851
2026-01-09 07:26:09.13	274.55	11.92	-30.5	-31.2	22.9	0.00e+00	0	28	0	1673527296	34	5840
2026-01-09 07:26:12.16	275.12	11.97	-30.3	-31.0	23.0	0.00e+00	0	28	0	1695547392	34	5742
2026-01-09 07:26:15.19	275.70	12.02	-30.2	-30.9	23.2	0.00e+00	0	28	0	1717567488	34	5653
2026-01-09 07:26:18.21	276.27	12.07	-30.5	-31.2	23.2	0.00e+00	0	28	0	1739587584	34	5858
2026-01-09 07:26:21.24	276.84	12.12	-30.4	-31.1	23.2	0.00e+00	0	28	0	1761607680	34	5764
2026-01-09 07:26:24.27	277.42	12.16	-30.4	-31.1	23.1	0.00e+00	0	29	0	1783627776	34	5765
2026-01-09 07:26:27.30	278.00	12.20	-30.6	-31.3	23.0	0.00e+00	0	29	0	1804599296	34	5931
2026-01-09 07:26:30.33	278.58	12.23	-30.4	-31.1	23.2	0.00e+00	0	28	0	1826619392	34	5778
2026-01-09 07:26:33.35	279.16	12.27	-30.4	-31.1	23.1	0.00e+00	0	29	0	1848639488	34	5784
2026-01-09 07:26:36.38	279.75	12.30	-30.7	-31.3	23.0	0.00e+00	0	28	0	1870659584	34	5960
2026-01-09 07:26:39.41	280.33	12.33	-30.5	-31.2	23.0	0.00e+00	0	29	0	1892679680	34	5881
2026-01-09 07:26:42.44	280.91	12.36	-30.4	-31.1	23.1	0.00e+00	0	28	0	1914699776	34	5790
2026-01-09 07:26:45.47	281.50	12.38	-30.3	-31.0	23.1	0.00e+00	0	28	0	1936719872	34	5741
2026-01-09 07:26:48.50	282.09	12.40	-30.7	-31.4	22.8	0.00e+00	0	28	0	1957691392	34	6003
2026-01-09 07:26:51.52	282.67	12.42	-30.8	-31.6	22.7	0.00e+00	0	29	0	1979711488	34	6110
2026-01-09 07:26:54.55	283.26	12.43	-30.7	-31.4	22.8	0.00e+00	0	28	0	2001731584	34	6010
2026-01-09 07:26:57.58	283.85	12.45	-30.5	-31.1	23.1	0.00e+00	0	28	0	2023751680	34	5815
2026-01-09 07:27:00.61	284.44	12.46	-30.4	-31.1	23.1	0.00e+00	0	28	0	2045771776	34	5780
2026-01-09 07:27:03.64	285.03	12.46	-30.5	-31.2	23.0	0.00e+00	0	29	0	2067791872	34	5884
2026-01-09 07:27:06.67	285.62	12.47	-30.5	-31.2	23.0	0.00e+00	0	29	0	2089811968	34	5857
2026-01-09 07:27:09.70	286.21	12.47	-30.4	-31.0	23.1	0.00e+00	0	29	0	2110783488	34	5747
2026-01-09 07:27:12.72	286.80	12.47	-30.3	-31.0	23.3	0.00e+00	0	28	0	2132803584	34	5729
2026-01-09 07:27:15.75	287.39	12.47	-30.4	-31.1	23.1	0.00e+00	0	28	0	2154823680	34	5783
2026-01-09 07:27:18.78	287.98	12.46	-30.6	-31.2	23.0	0.00e+00	0	29	0	2176843776	34	5889
2026-01-09 07:27:21.81	288.57	12.45	-30.4	-31.0	23.1	0.00e+00	0	29	0	2198863872	34	5758
2026-01-09 07:27:24.83	289.16	12.44	-30.3	-31.0	23.1	0.00e+00	0	29	0	2219835392	34	5743
2026-01-09 07:27:27.85	289.74	12.43	-30.4	-31.1	23.0	0.00e+00	0	29	0	2241855488	34	5796
2026-01-09 07:27:30.88	290.33	12.41	-30.7	-31.4	22.8	0.00e+00	0	29	0	2263875584	34	6016
2026-01-09 07:27:33.91	290.92	12.39	-30.6	-31.3	22.8	0.00e+00	0	29	0	2285895680	34	5951
2026-01-09 07:27:36.93	291.50	12.37	-30.5	-31.1	22.9	0.00e+00	0	29	0	2307915776	34	5825
2026-01-09 07:27:39.97	292.09	12.34	-30.5	-31.2	22.9	0.00e+00	0	29	0	2329935872	34	5882
2026-01-09 07:27:42.99	292.67	12.31	-30.7	-31.3	22.7	0.00e+00	0	29	0	2350907392	34	5963
2026-01-09 07:27:46.02	293.25	12.28	-30.4	-31.1	23.1	0.00e+00	0	29	0	2372927488	34	5783
2026-01-09 07:27:49.05	293.84	12.25	-30.4	-31.1	23.3	0.00e+00	0	29	0	2394947584	34	5782
2026-01-09 07:27:52.08	294.42	12.21	-30.5	-31.1	23.2	0.00e+00	0	29	0	2416967680	34	5808
2026-01-09 07:27:55.11	295.00	12.18	-30.4	-31.1	23.0	0.00e+00	0	29	0	2438987776	34	5804
2026-01-09 07:27:58.14	295.57	12.13	-30.5	-31.2	22.9	0.00e+00	0	29	0	2461007872	34	5864
2026-01-09 07:28:01.17	296.15	12.09	-30.5	-31.1	23.1	0.00e+00	0	29	0	2483027968	34	5827
2026-01-09 07:28:04.19	296.72	12.05	-30.4	-31.0	23.2	0.00e+00	0	29	0	2503999488	34	5738
2026-01-09 07:28:07.22	297.29	12.00	-30.5	-31.2	23.1	0.00e+00	0	28	0	2526019584	34	5841
2026-01-09 07:28:10.25	297.86	11.95	-30.6	-31.3	22.8	0.00e+00	0	29	0	2548039680	34	5956
2026-01-09 07:28:13.28	298.43	11.89	-30.8	-31.5	22.6	0.00e+00	0	29	0	2570059776	34	6100
2026-01-09 07:28:16.31	299.00	11.84	-30.9	-31.6	22.6	0.00e+00	0	29	0	2592079872	34	6128
2026-01-09 07:28:19.34	299.56	11.78	-30.8	-31.5	22.8	0.00e+00	0	28	0	2614099968	34	6040
2026-01-09 07:28:22.36	300.12	11.72	-30.6	-31.3	22.9	0.00e+00	0	29	0	2636120064	34	5917
2026-01-09 07:28:25.39	300.68	11.66	-30.6	-31.3	22.9	0.00e+00	0	28	0	2657091584	34	5953
2026-01-09 07:28:28.42	301.24	11.59	-30.7	-31.4	22.7	0.00e+00	0	29	0	2679111680	34	6021
2026-01-09 07:28:31.45	301.80	11.53	-30.9	-31.6	22.7	0.00e+00	0	29	0	2701131776	34	6127
2026-01-09 07:28:34.48	302.35	11.46	-30.8	-31.5	22.8	0.00e+00	0	28	0	2723151872	34	6059
2026-01-09 07:28:37.51	302.90	11.39	-31.0	-31.6	25.4	0.00e+00	0	29	0	2745171968	34	6116
2026-01-09 07:28:40.54	303.44	11.31	-31.1	-31.7	25.3	0.00e+00	0	29	0	2767192064	34	6181
2026-01-09 07:28:43.56	303.99	11.24	-31.2	-31.7	25.2	0.00e+00	0	29	0	2789212160	34	6210
2026-01-09 07:28:46.59	304.53	11.16	-31.3	-31.9	25.0	0.00e+00	0	29	0	2810183680	34	6322
2026-01-09 07:28:49.62	305.07	11.08	-31.3	-31.9	25.1	0.00e+00	0	29	0	2832203776	34	6336
2026-01-09 07:28:52.65	305.60	11.00	-31.4	-31.9	25.1	0.00e+00	0	28	0	2854223872	34	6387
2026-01-09 07:28:55.68	306.14	10.91	-31.2	-31.7	25.2	0.00e+00	0	29	0	2876243968	34	6200
2026-01-09 07:28:58.71	306.67	10.83	-31.1	-31.7	25.2	0.00e+00	0	29	0	2898264064	34	6183
2026-01-09 07:29:01.74	307.19	10.74	-31.1	-31.6	25.2	0.00e+00	0	28	0	2920284160	34	6152
2026-01-09 07:29:04.77	307.72	10.65	-31.1	-31.7	25.2	0.00e+00	0	28	0	2942304256	34	6205
2026-01-09 07:29:07.80	308.24	10.56	-31.2	-31.8	25.0	0.00e+00	0	29	0	2963275776	34	6268
2026-01-09 07:29:10.83	308.76	10.47	-31.4	-32.0	25.0	0.00e+00	0	29	0	2985295872	34	6392
2026-01-09 07:29:13.86	309.27	10.38	-31.5	-32.1	24.9	0.00e+00	0	29	0	3007315968	34	6487
2026-01-09 07:29:16.88	309.78	10.28	-31.6	-32.1	24.8	0.00e+00	0	29	0	3029336064	34	6504
2026-01-09 07:29:19.91	310.29	10.18	-31.6	-32.2	24.8	0.00e+00	0	29	0	3051356160	34	6565
2026-01-09 07:29:22.94	310.79	10.08	-31.5	-32.1	24.9	0.00e+00	0	29	0	3073376256	34	6469
2026-01-09 07:29:25.97	311.29	9.98	-31.5	-32.0	24.9	0.00e+00	0	29	0	3095396352	34	6453
2026-01-09 07:29:29.00	311.79	9.88	-31.5	-32.0	24.9	0.00e+00	0	29	0	3117416448	34	6447
2026-01-09 07:29:32.03	312.29	9.78	-31.5	-32.1	24.8	0.00e+00	0	29	0	3138387968	34	6467
2026-01-09 07:29:35.06	312.78	9.67	-31.7	-32.2	24.7	0.00e+00	0	29	0	3160408064	34	6595
2026-01-09 07:29:38.09	313.27	9.57	-31.9	-32.4	24.5	0.00e+00	0	29	0	3182428160	36	6007
2026-01-09 07:29:41.12	313.75	9.46	-31.9	-32.5	24.5	0.00e+00	0	29	0	3204448256	36	6054
2026-01-09 07:29:44.15	314.23	9.35	-31.7	-32.3	24.6	0.00e+00	0	29	0	3225419776	36	5920
2026-01-09 07:29:47.17	314.71	9.24	-31.5	-32.0	24.8	0.00e+00	0	29	0	3247439872	36	5747
2026-01-09 07:29:50.20	315.18	9.13	-31.5	-32.1	24.7	0.00e+00	0	29	0	3269459968	36	5773
2026-01-09 07:29:53.23	315.65	9.02	-31.8	-32.3	24.5	0.00e+00	0	29	0	3291480064	36	5943
2026-01-09 07:29:56.26	316.12	8.91	-32.1	-32.6	24.3	0.00e+00	0	29	0	3313500160	36	6166
2026-01-09 07:29:59.29	316.58	8.79	-32.2	-32.7	24.2	0.00e+00	0	29	0	3335520256	36	6234
2026-01-09 07:30:02.32	317.04	8.68	-32.3	-32.8	24.1	0.00e+00	0	28	0	3357540352	36	6284
2026-01-09 07:30:05.36	317.50	8.56	-32.2	-32.8	24.1	0.00e+00	0	29	0	3379560448	36	6256
2026-01-09 07:30:08.39	317.95	8.44	-32.3	-32.8	24.1	0.00e+00	0	29	0	3400531968	36	6289
2026-01-09 07:30:11.41	318.40	8.32	-32.2	-32.7	24.0	0.00e+00	0	29	0	3422552064	36	6236
2026-01-09 07:30:14.44	318.84	8.20	-32.3	-32.9	24.0	0.00e+00	0	29	0	3444572160	36	6332
2026-01-09 07:30:17.47	319.29	8.08	-32.3	-32.8	23.9	0.00e+00	0	29	0	3466592256	36	6316
2026-01-09 07:30:20.50	319.72	7.96	-32.3	-32.9	24.0	0.00e+00	0	29	0	3488612352	36	6329
2026-01-09 07:30:23.53	320.16	7.84	-32.3	-32.8	23.9	0.00e+00	0	29	0	3510632448	36	6315
2026-01-09 07:30:26.56	320.59	7.72	-32.6	-33.1	23.7	0.00e+00	0	29	0	3532652544	36	6520
2026-01-09 07:30:29.59	321.02	7.59	-32.6	-33.1	23.7	0.00e+00	0	29	0	3553624064	36	6534
2026-01-09 07:30:32.62	321.44	7.47	-32.6	-33.2	23.6	0.00e+00	0	29	0	3575644160	36	6569
2026-01-09 07:30:35.65	321.86	7.34	-32.8	-33.4	23.4	0.00e+00	0	29	0	3597664256	38	5975
2026-01-09 07:30:38.68	322.28	7.22	-32.6	-33.2	23.5	0.00e+00	0	29	0	3619684352	38	5876
2026-01-09 07:30:41.70	322.69	7.09	-32.6	-33.2	23.6	0.00e+00	0	29	0	3641704448	38	5831
2026-01-09 07:30:44.73	323.10	6.97	-32.5	-33.1	23.6	0.00e+00	0	29	0	3663724544	38	5771
2026-01-09 07:30:47.77	323.51	6.84	-32.5	-33.0	23.7	0.00e+00	0	29	0	3685744640	38	5746
2026-01-09 07:30:50.80	323.92	6.71	-32.5	-33.1	23.6	0.00e+00	0	28	0	3706716160	38	5794
2026-01-09 07:30:53.82	324.32	6.58	-32.8	-33.4	23.4	0.00e+00	0	29	0	3728736256	38	6015
2026-01-09 07:30:56.85	324.71	6.45	-33.0	-33.6	23.1	0.00e+00	0	29	0	3750756352	38	6152
2026-01-09 07:30:59.88	325.11	6.32	-33.2	-33.8	22.9	0.00e+00	0	29	0	3772776448	38	6310
2026-01-09 07:31:02.91	325.50	6.19	-33.3	-33.9	22.8	0.00e+00	0	29	0	3794796544	38	6377
2026-01-09 07:31:05.93	325.88	6.06	-33.3	-33.9	22.8	0.00e+00	0	28	0	3816816640	38	6350
2026-01-09 07:31:08.96	326.27	5.93	-32.9	-33.5	23.2	0.00e+00	0	29	0	3838836736	38	6061
2026-01-09 07:31:11.99	326.65	5.80	-32.7	-33.3	23.3	0.00e+00	0	29	0	3859808256	38	5917
2026-01-09 07:31:15.01	327.02	5.67	-32.6	-33.1	23.5	0.00e+00	0	29	0	3881828352	38	5819
2026-01-09 07:31:18.04	327.40	5.54	-32.6	-33.2	23.4	0.00e+00	0	29	0	3903848448	38	5856
2026-01-09 07:31:21.07	327.77	5.41	-33.0	-33.5	23.0	0.00e+00	0	29	0	3925868544	38	6096
2026-01-09 07:31:24.10	328.13	5.28	-33.2	-33.8	22.8	0.00e+00	0	29	0	3947888640	38	6282
2026-01-09 07:31:27.13	328.50	5.14	-33.4	-34.0	22.5	0.00e+00	0	29	0	3969908736	38	6439
2026-01-09 07:31:30.15	328.86	5.01	-33.5	-34.1	22.5	0.00e+00	0	29	0	3991928832	38	6478
2026-01-09 07:31:33.18	329.22	4.88	-33.6	-34.2	22.3	0.00e+00	0	29	0	4012900352	38	6575
2026-01-09 07:31:36.21	329.57	4.74	-33.6	-34.2	22.2	0.00e+00	0	29	0	4034920448	38	6606
2026-01-09 07:31:39.24	329.92	4.61	-33.4	-34.0	22.4	0.00e+00	0	29	0	4056940544	38	6428
2026-01-09 07:31:42.27	330.27	4.48	-33.3	-33.9	22.5	0.00e+00	0	29	0	4078960640	38	6334
2026-01-09 07:31:45.29	330.62	4.34	-33.0	-33.6	22.6	0.00e+00	0	29	0	4099932160	38	6167
2026-01-09 07:31:48.32	330.96	4.21	-33.0	-33.6	22.4	0.00e+00	0	28	0	4121952256	38	6119
2026-01-09 07:31:51.35	331.30	4.07	-33.9	-34.5	21.3	0.00e+00	0	28	0	4143972352	38	6833
2026-01-09 07:31:54.38	331.63	3.94	-35.5	-36.3	18.9	0.00e+00	0	29	0	4165992448	42	6660
2026-01-09 07:31:57.41	331.97	3.81	-37.7	-39.0	15.1	0.00e+00	0	28	0	4188012544	46	7236
2026-01-09 07:32:00.44	332.30	3.67	-40.4	-43.1	9.6	7.31e-03	0	29	0	4210032640	52	8208
2026-01-09 07:32:03.47	332.63	3.54	-42.0	-47.4	4.5	8.20e-01	0	29	0	4227858432	56	10644
2026-01-09 07:32:06.50	332.95	3.40	-42.4	-52.0	3.6	8.45e-01	0	29	104	4227858432	56	18153
2026-01-09 07:32:09.53	333.27	3.27	-42.5	-53.1	3.6	8.45e-01	0	29	104	4227858432	56	20455
2026-01-09 07:32:12.56	333.59	3.13	-42.5	-53.5	3.6	8.45e-01	0	29	104	4227858432	56	21609
2026-01-09 07:32:15.59	333.91	3.00	-43.0	-53.9	3.6	8.45e-01	0	29	104	4227858432	56	22448
2026-01-09 07:32:18.62	334.22	2.86	-47.5	-58.8	3.6	8.46e-01	0	29	104	4227858432	60	31321
2026-01-09 07:32:21.65	334.54	2.73	-47.5	-59.0	3.6	8.47e-01	0	29	104	4227858432	60	32349
2026-01-09 07:32:24.68	334.84	2.59	-47.5	-59.1	3.6	8.44e-01	0	29	104	4227858432	60	32776
2026-01-09 07:32:27.71	335.15	2.46	-47.6	-59.0	3.6	8.45e-01	0	29	104	4227858432	60	32132
2026-01-09 07:32:30.73	335.45	2.32	-47.5	-58.9	3.6	8.45e-01	0	29	104	4227858432	60	31956
2026-01-09 07:32:33.76	335.75	2.19	-47.8	-59.1	3.6	8.44e-01	0	29	104	4227858432	60	32418
2026-01-09 07:32:36.79	336.05	2.05	-47.8	-59.0	3.6	8.44e-01	0	29	104	4227858432	60	32300
2026-01-09 07:32:39.82	336.35	1.92	-47.8	-59.0	3.6	8.46e-01	0	29	104	4227858432	60	32198
2026-01-09 07:32:42.85	336.64	1.78	-47.7	-59.0	3.6	8.45e-01	0	29	104	4227858432	60	32068
2026-01-09 07:32:45.88	336.93	1.65	-47.7	-58.9	3.6	8.46e-01	0	29	104	4227858432	60	31969
2026-01-09 07:32:48.91	337.22	1.51	-47.7	-59.0	3.6	8.44e-01	0	29	104	4227858432	60	32147
2026-01-09 07:32:51.94	337.50	1.38	-47.8	-59.0	3.6	8.46e-01	0	29	104	4227858432	60	32254
2026-01-09 07:32:54.97	337.79	1.25	-47.8	-59.0	3.6	8.46e-01	0	29	104	4227858432	60	32233
2026-01-09 07:32:58.00	338.07	1.11	-47.8	-59.0	3.6	8.45e-01	0	29	104	4227858432	60	32178
2026-01-09 07:33:01.03	338.34	0.98	-47.7	-59.0	3.6	8.46e-01	0	29	104	4227858432	60	32160
2026-01-09 07:33:04.06	338.62	0.84	-47.8	-59.0	3.6	8.45e-01	0	29	104	4227858432	60	32268
2026-01-09 07:33:07.09	338.89	0.71	-47.7	-58.9	3.6	8.45e-01	0	29	104	4227858432	60	31947
2026-01-09 07:33:10.12	339.17	0.58	-47.7	-58.9	3.6	8.46e-01	0	29	104	4227858432	60	32030
2026-01-09 07:33:13.15	339.43	0.44	-47.7	-58.9	3.6	8.46e-01	0	29	104	4227858432	60	31832
2026-01-09 07:33:16.18	339.70	0.31	-47.7	-58.9	3.6	8.45e-01	0	29	104	4227858432	60	31906
2026-01-09 07:33:19.21	339.97	0.17	-47.7	-58.9	3.6	8.46e-01	0	29	104	4227858432	60	31946
2026-01-09 07:33:22.24	340.23	0.04	-47.8	-59.0	3.6	8.46e-01	0	29	104	4227858432	60	32181
2026-01-09 07:33:25.27	340.49	-0.09	-47.7	-58.9	3.6	8.45e-01	0	29	104	4227858432	60	31970

#Closed at: 2026-01-09 07:33:25
#Recorded file [4227 MB]: D:/lorett/data/35029_260109_192103.dat