passes_logs/2026/01/09/R4.6S_Anadyr/R4.6S_Anadyr__20260109_013419_AQUA_rec.log

#Pass ID: 20260109_013419_AQUA
#Satellite: AQUA
#Configuration: AQUA
#almurnet v.1.7.20251203
#Start time: 2026-01-09 01:34:21

#Version: 2.2.20231116
#Station: R4.6S_Anadyr
#Location: 177.4865 lon 64.73178 lat
#TLE: 1 27424U 02022A   26004.96787593  .00001598  00000+0  32997-3 0  9996
#TLE: 2 27424  98.4069 331.2279 0002002  90.2377   0.6092 14.61798176259425

#Time	Az	El	Level	Level2	SNR	BER	BlckErr	Temp	State	Recorded	gain1	gain2
2026-01-09 01:34:21.34	146.92	0.11	-48.1	-63.0	3.5	1.51e+00	0	30	0	0	60	51000
2026-01-09 01:34:25.37	146.88	0.36	-48.4	-66.2	3.5	3.02e+01	0	31	104	0	60	78852
2026-01-09 01:34:29.41	146.84	0.61	-48.4	-66.3	3.5	3.02e+01	0	32	104	0	60	79587
2026-01-09 01:34:33.45	146.80	0.87	-48.0	-65.9	3.5	3.02e+01	0	32	104	0	60	75693
2026-01-09 01:34:37.49	146.75	1.13	-46.7	-64.5	3.5	3.02e+01	0	32	104	0	60	64359
2026-01-09 01:34:41.52	146.71	1.39	-46.5	-64.4	3.5	3.02e+01	0	32	104	0	60	63522
2026-01-09 01:34:45.56	146.66	1.65	-46.5	-64.4	3.5	3.02e+01	0	32	104	0	60	63654
2026-01-09 01:34:49.60	146.61	1.92	-46.5	-63.8	3.5	3.02e+01	0	32	104	0	60	59539
2026-01-09 01:34:53.64	146.56	2.18	-46.5	-63.3	3.5	3.02e+01	0	32	104	0	60	56299
2026-01-09 01:34:57.68	146.51	2.46	-46.5	-63.2	3.5	3.02e+01	0	32	104	0	60	55612
2026-01-09 01:35:01.71	146.46	2.73	-46.5	-63.7	3.5	3.02e+01	0	32	104	0	60	58654
2026-01-09 01:35:05.75	146.41	3.01	-46.5	-63.3	3.5	3.02e+01	0	32	104	0	60	56238
2026-01-09 01:35:09.79	146.35	3.29	-46.4	-60.1	4.6	3.02e+01	0	32	104	0	60	38963
2026-01-09 01:35:13.83	146.30	3.57	-43.7	-47.6	16.5	3.02e+01	90	32	0	6291456	60	9217
2026-01-09 01:35:17.86	146.24	3.86	-41.0	-43.4	20.5	3.02e+01	92	32	0	14155776	58	6367
2026-01-09 01:35:21.90	146.18	4.15	-46.2	-57.0	4.3	3.02e+01	92	32	0	17825792	60	27176
2026-01-09 01:35:25.93	146.12	4.44	-37.8	-39.4	24.6	3.02e+01	89	32	0	23068672	50	6421
2026-01-09 01:35:29.97	146.06	4.74	-36.8	-38.3	25.8	3.02e+01	92	32	0	30932992	48	6317
2026-01-09 01:35:33.99	146.00	5.04	-36.8	-38.2	26.0	3.02e+01	92	32	0	38273024	48	6240
2026-01-09 01:35:38.03	145.93	5.34	-36.4	-37.9	26.4	3.02e+01	92	32	0	45613056	48	5999
2026-01-09 01:35:42.06	145.86	5.65	-36.2	-37.5	26.7	3.02e+01	92	32	0	53477376	48	5790
2026-01-09 01:35:46.10	145.80	5.97	-36.0	-37.4	26.8	3.02e+01	89	32	0	60817408	48	5709
2026-01-09 01:35:50.14	145.72	6.28	-36.1	-37.5	26.8	3.02e+01	90	32	0	68681728	46	6439
2026-01-09 01:35:54.17	145.65	6.60	-35.9	-37.2	27.1	3.02e+01	92	32	0	76021760	46	6270
2026-01-09 01:35:58.21	145.58	6.93	-35.7	-37.0	27.4	3.02e+01	91	32	0	83886080	46	6099
2026-01-09 01:36:02.24	145.50	7.26	-35.6	-37.0	27.4	3.02e+01	92	32	0	91226112	46	6073
2026-01-09 01:36:06.28	145.42	7.60	-35.3	-36.6	27.8	3.02e+01	92	32	0	98566144	46	5837
2026-01-09 01:36:10.31	145.34	7.94	-35.3	-36.6	27.9	3.02e+01	92	32	0	106430464	46	5795
2026-01-09 01:36:14.35	145.25	8.28	-35.2	-36.5	27.9	3.02e+01	90	32	0	113770496	46	5726
2026-01-09 01:36:18.39	145.17	8.63	-35.0	-36.3	28.1	3.02e+01	92	32	0	121634816	46	5633
2026-01-09 01:36:22.43	145.08	8.99	-34.8	-36.1	28.3	3.02e+01	92	33	0	128974848	44	6139
2026-01-09 01:36:26.47	144.99	9.35	-34.7	-36.0	28.3	3.02e+01	92	32	0	136839168	44	6097
2026-01-09 01:36:30.50	144.89	9.72	-34.7	-36.0	28.4	3.02e+01	92	32	0	144179200	44	6083
2026-01-09 01:36:34.54	144.79	10.09	-34.7	-36.0	28.4	3.02e+01	92	33	0	152043520	44	6086
2026-01-09 01:36:38.57	144.69	10.47	-34.5	-35.7	28.6	3.02e+01	92	32	0	159383552	44	5923
2026-01-09 01:36:42.61	144.59	10.86	-34.4	-35.7	28.7	3.02e+01	91	33	0	166723584	44	5892
2026-01-09 01:36:46.64	144.48	11.25	-34.4	-35.6	28.8	3.02e+01	90	32	0	174587904	44	5843
2026-01-09 01:36:50.67	144.37	11.65	-34.9	-45.0	3.6	3.02e+01	0	33	104	175636480	44	17251
2026-01-09 01:36:54.71	144.25	12.06	-37.5	-47.8	3.6	3.02e+01	0	33	104	175636480	48	18814
2026-01-09 01:36:58.74	144.14	12.47	-37.1	-47.4	3.6	3.02e+01	0	33	104	175636480	50	15999
2026-01-09 01:37:02.78	144.01	12.90	-41.3	-52.2	3.5	3.02e+01	0	33	104	175636480	60	15732
2026-01-09 01:37:06.82	143.89	13.33	-37.9	-48.2	4.1	3.02e+01	0	33	104	175636480	50	17503
2026-01-09 01:37:10.86	143.75	13.77	-46.9	-61.9	3.5	3.02e+01	0	33	104	175636480	60	48104
2026-01-09 01:37:14.89	143.62	14.22	-35.2	-45.4	3.5	3.02e+01	0	33	104	175636480	46	16035
2026-01-09 01:37:18.92	143.48	14.67	-41.0	-51.9	3.5	3.02e+01	0	33	104	175636480	52	23964
2026-01-09 01:37:22.96	143.33	15.14	-38.5	-49.0	3.5	3.02e+01	0	33	104	175636480	54	15329
2026-01-09 01:37:26.99	143.18	15.62	-37.9	-48.4	3.5	3.02e+01	0	33	104	175636480	50	17901
2026-01-09 01:37:31.03	143.02	16.11	-47.8	-64.8	3.5	3.02e+01	0	33	104	175636480	60	66713
2026-01-09 01:37:35.07	142.86	16.60	-34.6	-44.8	3.5	3.02e+01	0	33	104	175636480	44	16712
2026-01-09 01:37:39.10	142.69	17.11	-36.7	-47.0	3.5	3.02e+01	0	33	104	175636480	50	15267
2026-01-09 01:37:43.14	142.51	17.63	-34.7	-44.8	3.5	3.02e+01	0	33	104	175636480	44	16832
2026-01-09 01:37:47.17	142.33	18.17	-47.5	-63.0	3.5	3.02e+01	0	33	104	175636480	60	54462
2026-01-09 01:37:51.21	142.13	18.71	-34.6	-44.7	3.5	3.02e+01	0	33	104	175636480	44	16602
2026-01-09 01:37:55.24	141.94	19.27	-37.0	-47.4	3.5	3.02e+01	0	33	104	175636480	52	14261
2026-01-09 01:37:59.28	141.73	19.85	-35.1	-45.3	3.5	3.02e+01	0	33	104	175636480	46	15873
2026-01-09 01:38:03.32	141.51	20.43	-34.4	-44.6	3.5	3.02e+01	0	33	104	175636480	44	16479
2026-01-09 01:38:07.36	141.28	21.04	-45.1	-57.2	3.5	3.02e+01	0	33	104	175636480	60	28038
2026-01-09 01:38:11.39	141.05	21.65	-34.2	-44.4	3.5	3.02e+01	0	33	104	175636480	44	16038
2026-01-09 01:38:15.43	140.80	22.29	-37.9	-48.3	3.5	3.02e+01	0	33	104	175636480	52	15879
2026-01-09 01:38:19.47	140.54	22.94	-37.8	-48.2	3.5	3.02e+01	0	33	104	175636480	50	17514
2026-01-09 01:38:23.50	140.27	23.61	-44.6	-56.8	3.5	3.02e+01	0	33	104	175636480	58	29845
2026-01-09 01:38:27.54	139.98	24.30	-34.6	-44.8	3.5	3.02e+01	0	33	104	175636480	44	16793
2026-01-09 01:38:31.58	139.69	25.00	-35.9	-46.1	3.5	3.02e+01	0	33	104	175636480	44	19451
2026-01-09 01:38:35.62	139.37	25.73	-34.7	-44.9	3.5	3.02e+01	0	33	104	175636480	44	16937
2026-01-09 01:38:39.66	139.04	26.48	-35.5	-45.7	3.5	3.02e+01	0	33	104	175636480	44	18632
2026-01-09 01:38:43.69	138.70	27.25	-42.9	-53.9	3.5	3.02e+01	0	33	104	175636480	60	19158
2026-01-09 01:38:47.73	138.33	28.04	-43.7	-55.4	3.5	3.02e+01	0	33	104	175636480	58	25538
2026-01-09 01:38:51.77	137.94	28.86	-41.4	-52.2	3.5	3.02e+01	0	33	104	175636480	50	28004
2026-01-09 01:38:55.81	137.54	29.70	-33.4	-43.5	3.5	3.02e+01	0	33	104	175636480	42	16276
2026-01-09 01:38:59.85	137.10	30.57	-40.3	-51.0	3.5	3.02e+01	0	33	104	175636480	56	17145
2026-01-09 01:39:03.88	136.65	31.46	-33.5	-43.6	3.5	3.02e+01	0	33	104	175636480	42	16339
2026-01-09 01:39:07.92	136.16	32.38	-48.3	-66.0	3.5	3.02e+01	0	33	104	175636480	60	76863
2026-01-09 01:39:11.95	135.65	33.33	-39.3	-49.7	3.5	3.02e+01	0	33	104	175636480	54	16630
2026-01-09 01:39:15.99	135.10	34.31	-48.2	-65.3	3.5	3.02e+01	0	33	104	175636480	60	70728
2026-01-09 01:39:20.03	134.51	35.32	-35.5	-45.7	3.5	3.02e+01	0	33	104	175636480	46	16646
2026-01-09 01:39:24.07	133.89	36.37	-39.4	-49.9	3.5	3.02e+01	0	33	104	175636480	52	19065
2026-01-09 01:39:28.10	133.22	37.44	-47.3	-62.0	3.5	3.02e+01	0	33	104	175636480	60	48382
2026-01-09 01:39:32.14	132.51	38.55	-35.9	-46.2	3.5	3.02e+01	0	33	104	175636480	46	17498
2026-01-09 01:39:36.18	131.74	39.69	-44.9	-57.0	3.5	3.02e+01	0	33	104	175636480	60	27305
2026-01-09 01:39:40.21	130.91	40.86	-38.1	-48.5	3.5	3.02e+01	0	33	104	175636480	52	16216
2026-01-09 01:39:44.25	130.02	42.07	-43.6	-54.9	3.5	3.02e+01	0	33	104	175636480	60	21295
2026-01-09 01:39:48.30	129.05	43.32	-34.9	-45.2	3.5	3.02e+01	0	33	104	175636480	46	15639
2026-01-09 01:39:52.33	128.00	44.60	-36.4	-46.8	3.5	3.02e+01	0	33	104	175636480	52	13311
2026-01-09 01:39:56.37	126.86	45.91	-35.6	-45.9	3.5	3.02e+01	0	33	104	175636480	46	16900
2026-01-09 01:40:00.40	125.62	47.25	-35.6	-45.9	3.6	3.02e+01	0	33	104	175636480	48	15059
2026-01-09 01:40:04.44	124.26	48.62	-45.8	-58.5	3.5	3.02e+01	0	33	104	175636480	60	32296
2026-01-09 01:40:08.48	122.78	50.02	-35.7	-45.8	3.5	3.02e+01	0	33	104	175636480	46	16822
2026-01-09 01:40:12.52	121.14	51.44	-35.9	-46.1	3.5	3.02e+01	0	33	104	175636480	54	10927
2026-01-09 01:40:16.56	119.34	52.88	-34.1	-44.2	3.5	3.02e+01	0	33	104	175636480	42	17675
2026-01-09 01:40:20.60	117.35	54.33	-44.0	-55.7	3.5	3.02e+01	0	33	104	175636480	60	23519
2026-01-09 01:40:24.64	115.14	55.79	-34.1	-44.2	3.5	3.02e+01	0	33	104	175636480	42	17511
2026-01-09 01:40:28.67	112.69	57.23	-44.9	-56.9	3.4	3.02e+01	0	33	104	175636480	52	42727
2026-01-09 01:40:32.71	109.97	58.66	-37.2	-47.4	3.5	3.02e+01	0	33	104	175636480	48	18036
2026-01-09 01:40:36.74	106.93	60.06	-47.3	-61.7	3.5	3.02e+01	0	33	104	175636480	60	46932
2026-01-09 01:40:40.78	103.55	61.41	-36.4	-46.7	3.5	3.02e+01	0	33	104	175636480	50	14752
2026-01-09 01:40:44.82	99.79	62.69	-42.8	-54.0	3.5	3.02e+01	0	33	104	175636480	56	24367
2026-01-09 01:40:48.86	95.61	63.87	-46.6	-60.2	3.5	3.02e+01	0	33	104	175636480	60	39172
2026-01-09 01:40:52.89	91.02	64.94	-37.8	-48.3	3.5	3.02e+01	0	33	104	175636480	50	17766
2026-01-09 01:40:56.93	86.00	65.86	-47.3	-62.0	3.5	3.02e+01	0	33	104	175636480	60	48185
2026-01-09 01:41:00.96	80.58	66.60	-40.6	-51.3	3.5	3.02e+01	0	33	104	175636480	54	19896
2026-01-09 01:41:05.00	74.81	67.15	-47.6	-63.2	3.5	3.02e+01	0	33	104	175636480	60	55340
2026-01-09 01:41:09.04	68.80	67.48	-40.7	-51.8	3.5	3.02e+01	0	33	104	175636480	56	18759
2026-01-09 01:41:13.06	62.68	67.58	-43.1	-54.5	3.5	3.02e+01	0	33	104	175636480	58	23035
2026-01-09 01:41:17.10	56.55	67.44	-40.7	-51.1	3.5	3.02e+01	0	33	104	175636480	56	17451
2026-01-09 01:41:21.13	50.59	67.07	-41.8	-53.0	3.5	3.02e+01	0	33	104	175636480	58	19201
2026-01-09 01:41:25.17	44.88	66.49	-44.9	-57.4	3.5	3.02e+01	0	33	104	175636480	60	28422
2026-01-09 01:41:29.21	39.52	65.71	-39.4	-49.9	3.5	3.02e+01	0	33	104	175636480	54	17061
2026-01-09 01:41:33.25	34.58	64.76	-46.0	-59.1	3.5	3.02e+01	0	33	104	175636480	60	34860
2026-01-09 01:41:37.29	30.06	63.67	-38.3	-48.5	3.5	3.02e+01	0	33	104	175636480	52	16179
2026-01-09 01:41:41.33	25.97	62.47	-47.1	-61.1	3.5	3.02e+01	0	33	104	175636480	60	43537
2026-01-09 01:41:45.36	22.29	61.18	-36.7	-46.9	3.5	3.02e+01	0	33	104	175636480	48	17028
2026-01-09 01:41:49.40	18.97	59.82	-35.7	-46.0	3.5	3.02e+01	0	33	104	175636480	48	15279
2026-01-09 01:41:53.43	16.00	58.42	-37.3	-47.4	3.6	3.02e+01	0	33	104	175636480	50	16096
2026-01-09 01:41:57.47	13.33	56.99	-35.2	-45.3	3.5	3.02e+01	0	33	104	175636480	46	15849
2026-01-09 01:42:01.51	10.93	55.55	-40.9	-51.8	3.5	3.02e+01	0	33	104	175636480	60	14930
2026-01-09 01:42:05.54	8.77	54.10	-34.4	-44.5	3.5	3.02e+01	0	33	104	175636480	42	18232
2026-01-09 01:42:09.58	6.81	52.65	-35.6	-45.9	3.5	3.02e+01	0	33	104	175636480	46	17005
2026-01-09 01:42:13.61	5.05	51.22	-34.0	-44.2	3.5	3.02e+01	0	33	104	175636480	44	15661
2026-01-09 01:42:17.65	3.45	49.81	-45.9	-58.7	3.5	3.02e+01	0	33	104	175636480	60	33003
2026-01-09 01:42:21.69	1.98	48.42	-36.5	-46.8	3.5	3.02e+01	0	33	104	175636480	48	16705
2026-01-09 01:42:25.72	0.65	47.06	-48.1	-64.8	3.5	3.02e+01	0	33	104	175636480	60	67181
2026-01-09 01:42:29.76	359.43	45.73	-37.1	-47.1	3.5	3.02e+01	0	33	104	175636480	48	17484
2026-01-09 01:42:33.80	358.31	44.42	-35.6	-46.2	3.5	3.02e+01	0	33	104	175636480	44	19641
2026-01-09 01:42:37.84	357.28	43.16	-36.2	-46.3	3.6	3.02e+01	0	33	104	175636480	48	15877
2026-01-09 01:42:41.87	356.33	41.92	-35.7	-45.7	3.5	3.02e+01	0	33	104	175636480	44	18726
2026-01-09 01:42:45.91	355.45	40.72	-47.0	-61.0	3.5	3.02e+01	0	33	104	175636480	60	43019
2026-01-09 01:42:49.95	354.63	39.56	-38.7	-48.9	3.5	3.02e+01	0	33	104	175636480	52	17046
2026-01-09 01:42:53.98	353.88	38.43	-48.1	-65.4	3.5	3.02e+01	0	33	104	175636480	60	71934
2026-01-09 01:42:58.02	353.17	37.33	-36.0	-46.6	3.5	3.02e+01	0	33	104	175636480	48	16332
2026-01-09 01:43:02.06	352.51	36.26	-48.1	-65.2	3.5	3.02e+01	0	33	104	175636480	60	70330
2026-01-09 01:43:06.10	351.89	35.23	-35.4	-45.5	3.5	3.02e+01	0	33	104	175636480	46	16273
2026-01-09 01:43:10.13	351.32	34.23	-37.2	-47.5	3.5	3.02e+01	0	33	104	175636480	46	20399
2026-01-09 01:43:14.17	350.78	33.26	-37.2	-47.6	3.5	3.02e+01	0	33	104	175636480	50	16418
2026-01-09 01:43:18.21	350.27	32.31	-33.9	-44.3	3.5	3.02e+01	0	33	104	175636480	42	17890
2026-01-09 01:43:22.25	349.79	31.40	-45.9	-58.6	3.4	3.02e+01	0	33	104	175636480	60	32896
2026-01-09 01:43:26.28	349.34	30.51	-35.2	-36.4	28.5	3.02e+01	55	33	0	177209344	44	6387
2026-01-09 01:43:30.32	348.91	29.65	-33.1	-34.2	30.4	3.02e+01	57	33	0	185073664	42	5574
2026-01-09 01:43:34.36	348.51	28.82	-33.4	-34.6	30.1	3.02e+01	51	33	0	192413696	42	5804
2026-01-09 01:43:38.40	348.13	28.01	-33.2	-34.4	30.3	3.02e+01	59	33	0	200278016	42	5678
2026-01-09 01:43:42.43	347.77	27.22	-33.6	-34.7	29.9	3.02e+01	52	33	0	207618048	42	5926
2026-01-09 01:43:46.47	347.43	26.46	-33.5	-34.7	29.9	3.02e+01	56	33	0	214958080	42	5906
2026-01-09 01:43:50.51	347.10	25.71	-33.3	-34.4	30.1	3.02e+01	46	33	0	222822400	42	5712
2026-01-09 01:43:54.55	346.79	24.99	-33.6	-34.8	29.8	3.02e+01	59	33	0	230162432	42	5928
2026-01-09 01:43:58.59	346.50	24.29	-33.7	-34.8	29.9	3.02e+01	45	33	0	238026752	42	5972
2026-01-09 01:44:02.62	346.22	23.61	-34.0	-35.2	29.5	3.02e+01	59	33	0	245366784	42	6219
2026-01-09 01:44:06.66	345.95	22.94	-34.1	-35.3	29.4	3.02e+01	50	33	0	253231104	42	6346
2026-01-09 01:44:10.69	345.70	22.30	-33.8	-34.9	29.7	3.02e+01	59	33	0	260571136	42	6058
2026-01-09 01:44:14.73	345.45	21.67	-33.8	-34.9	29.7	3.02e+01	46	33	0	267911168	42	6060
2026-01-09 01:44:18.77	345.22	21.05	-34.1	-35.3	29.3	3.02e+01	64	33	0	275775488	42	6320
2026-01-09 01:44:22.80	345.00	20.46	-33.9	-35.1	29.5	3.02e+01	58	33	0	283115520	42	6192
2026-01-09 01:44:26.83	344.78	19.87	-34.2	-35.4	29.3	3.02e+01	62	33	0	290979840	42	6417
2026-01-09 01:44:30.87	344.58	19.30	-34.1	-35.3	29.4	3.02e+01	60	33	0	298319872	42	6323
2026-01-09 01:44:34.91	344.38	18.75	-33.9	-35.1	29.5	3.02e+01	55	33	0	306184192	42	6156
2026-01-09 01:44:38.94	344.20	18.21	-33.8	-35.0	29.5	3.02e+01	57	33	0	313524224	42	6102
2026-01-09 01:44:42.98	344.01	17.68	-33.7	-34.9	29.6	3.02e+01	61	33	0	320864256	42	6039
2026-01-09 01:44:47.02	343.84	17.16	-33.6	-34.8	29.7	3.02e+01	63	33	0	328728576	42	5952
2026-01-09 01:44:51.06	343.67	16.65	-33.6	-34.8	29.8	3.02e+01	57	33	0	336068608	42	5930
2026-01-09 01:44:55.09	343.51	16.16	-33.7	-34.9	29.7	3.02e+01	61	33	0	343932928	42	6005
2026-01-09 01:44:59.13	343.36	15.67	-33.7	-34.9	29.6	3.02e+01	59	33	0	351272960	42	6022
2026-01-09 01:45:03.16	343.21	15.20	-33.6	-34.8	29.7	3.02e+01	57	33	0	359137280	42	5948
2026-01-09 01:45:07.20	343.07	14.73	-33.6	-34.7	29.7	3.02e+01	59	33	0	366477312	42	5906
2026-01-09 01:45:11.24	342.93	14.28	-33.7	-34.9	29.7	3.02e+01	59	33	0	374341632	42	6015
2026-01-09 01:45:15.27	342.80	13.83	-33.8	-35.0	29.5	3.02e+01	59	33	0	381681664	42	6116
2026-01-09 01:45:19.31	342.67	13.39	-33.9	-35.1	29.4	3.02e+01	61	33	0	389021696	42	6139
2026-01-09 01:45:23.35	342.54	12.96	-33.8	-35.0	29.5	3.02e+01	59	33	0	396886016	42	6086
2026-01-09 01:45:27.38	342.42	12.54	-33.9	-35.1	29.3	3.02e+01	59	33	0	404226048	42	6200
2026-01-09 01:45:31.42	342.31	12.13	-34.1	-35.3	29.1	3.02e+01	58	33	0	412090368	42	6329
2026-01-09 01:45:35.46	342.19	11.72	-34.0	-35.2	29.2	3.02e+01	57	33	0	419430400	42	6272
2026-01-09 01:45:39.50	342.09	11.33	-34.0	-35.2	29.2	3.02e+01	46	33	0	427294720	42	6266
2026-01-09 01:45:43.54	341.98	10.93	-34.2	-35.4	29.1	3.02e+01	60	33	0	434634752	42	6362
2026-01-09 01:45:47.57	341.88	10.55	-34.3	-35.6	28.9	3.02e+01	45	33	0	441974784	42	6502
2026-01-09 01:45:51.61	341.78	10.17	-34.5	-35.8	28.7	3.02e+01	59	33	0	449839104	42	6651
2026-01-09 01:45:55.65	341.69	9.80	-34.6	-35.8	28.6	3.02e+01	46	33	0	457179136	42	6701
2026-01-09 01:45:59.68	341.60	9.43	-34.6	-35.8	28.5	3.02e+01	59	33	0	465043456	42	6706
2026-01-09 01:46:03.72	341.51	9.07	-34.8	-36.0	28.3	3.02e+01	59	33	0	472383488	42	6883
2026-01-09 01:46:07.76	341.42	8.72	-34.8	-36.1	28.3	3.02e+01	61	33	0	480247808	42	6928
2026-01-09 01:46:11.79	341.34	8.37	-34.8	-36.0	28.2	3.02e+01	52	33	0	487587840	42	6874
2026-01-09 01:46:15.83	341.26	8.03	-34.8	-36.1	28.2	3.02e+01	59	33	0	495452160	44	6140
2026-01-09 01:46:19.87	341.18	7.69	-34.7	-36.0	28.2	3.02e+01	47	33	0	502792192	44	6104
2026-01-09 01:46:23.90	341.10	7.35	-35.1	-36.4	27.9	3.02e+01	59	33	0	510132224	44	6357
2026-01-09 01:46:27.94	341.03	7.03	-35.0	-36.3	27.9	3.02e+01	46	33	0	517996544	44	6323
2026-01-09 01:46:31.97	340.96	6.70	-34.9	-36.2	27.9	3.02e+01	56	33	0	525336576	44	6209
2026-01-09 01:46:36.00	340.89	6.38	-34.9	-36.2	27.9	3.02e+01	46	33	0	533200896	44	6224
2026-01-09 01:46:40.04	340.82	6.07	-35.5	-36.8	27.2	3.02e+01	61	33	0	540540928	44	6700
2026-01-09 01:46:44.07	340.76	5.75	-36.5	-38.0	25.9	3.02e+01	47	33	0	548405248	46	6822
2026-01-09 01:46:48.11	340.69	5.45	-38.2	-39.9	23.8	3.02e+01	60	33	0	555745280	50	6790
2026-01-09 01:46:52.15	340.63	5.14	-39.5	-41.7	20.8	3.02e+01	63	33	0	563609600	52	7439
2026-01-09 01:46:56.19	340.57	4.84	-41.3	-44.9	17.1	3.02e+01	57	33	0	570949632	56	8478
2026-01-09 01:47:00.22	340.51	4.55	-42.7	-48.9	12.2	3.02e+01	57	33	0	578289664	58	12041
2026-01-09 01:47:04.26	340.46	4.25	-43.3	-52.5	7.6	3.02e+01	87	33	0	586153984	60	16205
2026-01-09 01:47:08.30	340.40	3.97	-43.5	-57.1	4.5	3.02e+01	0	33	104	589824000	60	27589
2026-01-09 01:47:12.33	340.35	3.68	-43.5	-59.6	3.6	3.02e+01	0	33	104	589824000	60	36648
2026-01-09 01:47:16.37	340.29	3.40	-43.5	-60.6	3.5	3.02e+01	0	33	104	589824000	60	41322
2026-01-09 01:47:20.41	340.24	3.12	-43.5	-61.4	3.5	3.02e+01	0	33	104	589824000	60	45073
2026-01-09 01:47:24.44	340.20	2.84	-47.7	-65.5	3.5	3.02e+01	0	33	104	589824000	60	72767
2026-01-09 01:47:28.48	340.15	2.57	-48.3	-66.2	3.5	3.02e+01	0	33	104	589824000	60	78814
2026-01-09 01:47:32.52	340.10	2.30	-48.3	-66.3	3.5	3.02e+01	0	33	104	589824000	60	79541
2026-01-09 01:47:36.56	340.06	2.03	-48.3	-66.2	3.5	3.02e+01	0	33	104	589824000	60	78578
2026-01-09 01:47:40.60	340.01	1.76	-48.3	-66.2	3.5	3.02e+01	0	33	104	589824000	60	78402
2026-01-09 01:47:44.64	339.97	1.50	-48.3	-66.2	3.5	3.02e+01	0	33	104	589824000	60	78352
2026-01-09 01:47:48.68	339.93	1.24	-48.3	-66.1	3.5	3.02e+01	0	33	104	589824000	60	77859
2026-01-09 01:47:52.72	339.89	0.98	-48.3	-66.1	3.5	3.02e+01	0	33	104	589824000	60	77946
2026-01-09 01:47:56.76	339.85	0.73	-48.3	-66.1	3.5	3.02e+01	0	33	104	589824000	60	77970
2026-01-09 01:48:00.80	339.81	0.48	-48.3	-66.1	3.5	3.02e+01	0	33	104	589824000	60	77861
2026-01-09 01:48:04.84	339.77	0.23	-48.3	-66.2	3.5	3.02e+01	0	33	104	589824000	60	78251
2026-01-09 01:48:08.87	339.73	-0.02	-48.3	-66.1	3.5	3.02e+01	0	33	104	589824000	60	77490

#Closed at: 2026-01-09 01:48:10
#Recorded file [589 MB]: D:/lorett/data/35029_260109_133421.dat