passes_logs/2026/01/09/R4.6S_Anadyr/R4.6S_Anadyr__20260109_224303_NOAA_21_JPSS-2_rec.log

#Pass ID: 20260109_224303_NOAA 21 (JPSS-2)
#Satellite: NOAA 21 (JPSS-2)
#Configuration: NOAA-21
#almurnet v.1.7.20251203
#Start time: 2026-01-09 22:43:08

#Version: 2.2.20231116
#Station: R4.6S_Anadyr
#Location: 177.4865 lon 64.73178 lat
#TLE: 1 54234U 22150A   26008.59854928  .00000127  00000+0  81204-4 0  9992
#TLE: 2 54234  98.7494 309.5759 0000887 327.7487  32.3634 14.19533414163905

#Time	Az	El	Level	Level2	SNR	BER	BlckErr	Temp	State	Recorded	gain1	gain2
2026-01-09 22:43:08.74	119.64	0.32	-48.0	-49.5	5.7	0.00e+00	0	22	0	0	60	36389
2026-01-09 22:43:12.65	119.50	0.54	-48.0	-60.8	3.5	1.52e+00	0	24	104	0	60	38698
2026-01-09 22:43:16.56	119.35	0.77	-47.7	-60.6	3.5	1.52e+00	0	24	104	0	60	37663
2026-01-09 22:43:20.47	119.20	1.01	-47.1	-59.9	3.5	1.52e+00	0	24	104	0	60	34687
2026-01-09 22:43:24.37	119.05	1.24	-45.4	-59.1	3.5	1.52e+00	0	24	104	0	60	31789
2026-01-09 22:43:28.29	118.89	1.47	-45.4	-59.1	3.5	1.52e+00	0	24	104	0	60	31635
2026-01-09 22:43:32.21	118.74	1.71	-45.5	-59.1	3.5	1.51e+00	0	24	104	0	60	31574
2026-01-09 22:43:36.12	118.58	1.95	-45.5	-58.9	3.5	1.52e+00	0	24	104	0	60	30966
2026-01-09 22:43:40.03	118.42	2.19	-45.4	-58.8	3.5	1.52e+00	0	24	104	0	60	30730
2026-01-09 22:43:43.94	118.25	2.43	-45.5	-59.1	3.5	1.52e+00	0	24	104	0	60	31514
2026-01-09 22:43:47.85	118.08	2.67	-45.5	-58.9	3.5	1.52e+00	0	24	104	0	60	30992
2026-01-09 22:43:51.76	117.91	2.92	-45.4	-58.2	3.5	1.51e+00	0	24	104	0	60	28511
2026-01-09 22:43:55.67	117.74	3.17	-45.4	-57.6	3.5	1.51e+00	0	25	104	0	60	26738
2026-01-09 22:43:59.58	117.56	3.42	-42.3	-45.4	12.9	1.27e-04	0	24	0	6291456	58	7322
2026-01-09 22:44:03.49	117.38	3.67	-45.0	-51.2	3.6	7.60e-06	0	24	0	17825792	56	15963
2026-01-09 22:44:07.40	117.19	3.92	-40.8	-43.2	15.9	4.52e-02	0	24	104	18874368	58	5720
2026-01-09 22:44:11.31	117.01	4.18	-37.0	-38.3	20.0	0.00e+00	0	25	0	29360128	48	5749
2026-01-09 22:44:15.21	116.82	4.43	-36.4	-37.7	20.5	0.00e+00	0	25	0	41943040	46	6062
2026-01-09 22:44:19.13	116.62	4.69	-36.5	-37.9	20.5	0.00e+00	0	25	0	54525952	46	6140
2026-01-09 22:44:23.04	116.42	4.95	-36.4	-37.6	20.7	0.00e+00	0	25	0	66060288	46	5993
2026-01-09 22:44:26.95	116.22	5.22	-36.6	-37.7	20.7	0.00e+00	0	25	0	78643200	46	6043
2026-01-09 22:44:30.87	116.01	5.49	-36.3	-37.5	20.9	0.00e+00	0	25	0	91226112	46	5877
2026-01-09 22:44:34.78	115.80	5.75	-36.3	-37.4	21.1	0.00e+00	0	25	0	102760448	46	5838
2026-01-09 22:44:38.68	115.59	6.03	-36.0	-37.1	21.4	0.00e+00	0	25	0	115343360	46	5608
2026-01-09 22:44:42.59	115.37	6.30	-35.6	-36.8	21.7	0.00e+00	0	25	0	127926272	44	6076
2026-01-09 22:44:46.50	115.15	6.58	-35.7	-36.7	21.7	0.00e+00	0	25	0	139460608	44	6062
2026-01-09 22:44:50.41	114.92	6.85	-35.4	-36.4	22.0	0.00e+00	0	25	0	152043520	44	5850
2026-01-09 22:44:54.33	114.69	7.14	-35.3	-36.3	22.1	0.00e+00	0	25	0	164626432	44	5788
2026-01-09 22:44:58.23	114.45	7.42	-35.4	-36.4	22.0	0.00e+00	0	25	0	176160768	44	5827
2026-01-09 22:45:02.13	114.21	7.71	-35.2	-36.2	22.2	0.00e+00	0	25	0	188743680	44	5704
2026-01-09 22:45:06.04	113.97	7.99	-35.0	-36.1	22.3	0.00e+00	0	25	0	200278016	44	5619
2026-01-09 22:45:09.95	113.72	8.29	-34.9	-35.9	22.5	0.00e+00	0	25	0	212860928	44	5513
2026-01-09 22:45:13.86	113.46	8.58	-35.0	-36.0	22.4	0.00e+00	0	25	0	225443840	44	5561
2026-01-09 22:45:17.77	113.20	8.88	-34.8	-35.8	22.8	0.00e+00	0	25	0	238026752	42	6079
2026-01-09 22:45:21.67	112.93	9.18	-34.6	-35.6	22.8	0.00e+00	0	25	0	249561088	42	5944
2026-01-09 22:45:25.58	112.65	9.48	-34.5	-35.5	22.9	0.00e+00	0	25	0	262144000	42	5885
2026-01-09 22:45:29.49	112.37	9.79	-34.3	-35.2	23.1	0.00e+00	0	25	0	273678336	42	5715
2026-01-09 22:45:33.40	112.09	10.10	-34.2	-35.1	23.2	0.00e+00	0	25	0	286261248	42	5654
2026-01-09 22:45:37.31	111.79	10.42	-34.1	-35.1	23.4	0.00e+00	0	25	0	298844160	42	5605
2026-01-09 22:45:41.22	111.50	10.73	-33.7	-34.7	23.6	0.00e+00	0	25	0	310378496	40	6054
2026-01-09 22:45:45.13	111.19	11.05	-33.6	-34.6	23.8	0.00e+00	0	25	0	322961408	40	5966
2026-01-09 22:45:49.04	110.88	11.38	-33.2	-34.2	23.9	0.00e+00	0	25	0	335544320	40	5678
2026-01-09 22:45:52.95	110.56	11.70	-33.4	-34.3	23.9	0.00e+00	0	25	0	347078656	40	5789
2026-01-09 22:45:56.87	110.23	12.03	-33.4	-34.4	23.9	0.00e+00	0	25	0	359661568	40	5792
2026-01-09 22:46:00.78	109.89	12.37	-33.4	-34.3	24.0	0.00e+00	0	25	0	372244480	40	5752
2026-01-09 22:46:04.69	109.55	12.70	-33.3	-34.2	24.1	0.00e+00	0	25	0	383778816	40	5692
2026-01-09 22:46:08.61	109.20	13.05	-33.2	-34.1	24.1	0.00e+00	0	25	0	396361728	40	5654
2026-01-09 22:46:12.51	108.84	13.39	-33.2	-34.1	24.1	0.00e+00	0	25	0	408944640	40	5636
2026-01-09 22:46:16.42	108.47	13.74	-33.3	-34.2	24.1	0.00e+00	0	25	0	420478976	40	5677
2026-01-09 22:46:20.32	108.09	14.09	-33.4	-34.3	24.1	0.00e+00	0	25	0	433061888	40	5780
2026-01-09 22:46:24.23	107.70	14.45	-33.4	-34.3	24.1	0.00e+00	0	25	0	445644800	40	5776
2026-01-09 22:46:28.15	107.30	14.81	-33.3	-34.2	24.2	0.00e+00	0	25	0	457179136	40	5692
2026-01-09 22:46:32.06	106.90	15.17	-33.3	-34.3	24.1	0.00e+00	0	25	0	469762048	40	5742
2026-01-09 22:46:35.97	106.48	15.54	-33.6	-34.5	24.0	0.00e+00	0	25	0	482344960	40	5893
2026-01-09 22:46:39.88	106.05	15.91	-33.6	-34.6	23.9	0.00e+00	0	25	0	493879296	40	5932
2026-01-09 22:46:43.79	105.61	16.29	-33.5	-34.5	24.1	0.00e+00	0	25	0	506462208	40	5864
2026-01-09 22:46:47.69	105.16	16.67	-33.5	-34.4	24.2	0.00e+00	0	25	0	517996544	40	5828
2026-01-09 22:46:51.60	104.70	17.05	-33.5	-34.4	24.1	0.00e+00	0	25	0	530579456	40	5824
2026-01-09 22:46:55.51	104.22	17.44	-33.6	-34.5	24.0	0.00e+00	0	25	0	543162368	40	5872
2026-01-09 22:46:59.43	103.73	17.83	-34.0	-34.9	23.7	0.00e+00	0	25	0	554696704	40	6199
2026-01-09 22:47:03.33	103.24	18.23	-33.7	-34.6	24.1	0.00e+00	0	25	0	567279616	40	5969
2026-01-09 22:47:07.24	102.72	18.63	-33.5	-34.4	24.1	0.00e+00	0	25	0	579862528	40	5845
2026-01-09 22:47:11.14	102.19	19.03	-33.5	-34.5	24.0	0.00e+00	0	25	0	591396864	40	5868
2026-01-09 22:47:15.06	101.65	19.44	-33.6	-34.6	24.0	0.00e+00	0	25	0	603979776	40	5935
2026-01-09 22:47:18.96	101.09	19.85	-33.6	-34.5	24.1	0.00e+00	0	25	0	616562688	40	5891
2026-01-09 22:47:22.87	100.52	20.27	-32.9	-33.8	24.5	0.00e+00	0	25	0	628097024	40	5450
2026-01-09 22:47:26.78	99.93	20.69	-33.0	-33.9	24.4	0.00e+00	0	25	0	640679936	40	5479
2026-01-09 22:47:30.69	99.32	21.11	-32.6	-33.5	24.8	0.00e+00	0	25	0	653262848	38	5911
2026-01-09 22:47:34.60	98.70	21.54	-32.5	-33.4	24.9	0.00e+00	0	25	0	664797184	38	5827
2026-01-09 22:47:38.51	98.06	21.97	-32.3	-33.2	25.0	0.00e+00	0	25	0	677380096	38	5664
2026-01-09 22:47:42.42	97.40	22.40	-32.3	-33.1	25.1	0.00e+00	0	25	0	689963008	38	5657
2026-01-09 22:47:46.33	96.72	22.84	-32.4	-33.2	25.0	0.00e+00	0	25	0	701497344	38	5723
2026-01-09 22:47:50.25	96.02	23.28	-32.1	-33.0	25.2	0.00e+00	0	25	0	714080256	38	5533
2026-01-09 22:47:54.16	95.31	23.73	-32.1	-33.0	25.1	0.00e+00	0	25	0	726663168	38	5543
2026-01-09 22:47:58.07	94.57	24.17	-32.5	-33.4	24.9	0.00e+00	0	25	0	738197504	38	5835
2026-01-09 22:48:01.99	93.80	24.62	-32.5	-33.3	25.0	0.00e+00	0	25	0	750780416	38	5773
2026-01-09 22:48:05.89	93.02	25.07	-32.5	-33.4	24.7	0.00e+00	0	25	0	762314752	38	5817
2026-01-09 22:48:09.80	92.22	25.52	-32.7	-33.5	24.9	0.00e+00	0	25	0	774897664	38	5923
2026-01-09 22:48:13.72	91.39	25.98	-32.5	-33.4	25.0	0.00e+00	0	25	0	787480576	38	5800
2026-01-09 22:48:17.63	90.53	26.43	-33.0	-33.9	24.5	0.00e+00	0	25	0	800063488	38	6176
2026-01-09 22:48:21.53	89.66	26.88	-33.1	-34.0	24.6	0.00e+00	0	25	0	811597824	38	6268
2026-01-09 22:48:25.44	88.75	27.34	-33.0	-33.9	24.6	0.00e+00	0	25	0	824180736	38	6151
2026-01-09 22:48:29.35	87.82	27.79	-33.4	-34.3	24.3	0.00e+00	0	25	0	835715072	38	6454
2026-01-09 22:48:33.26	86.86	28.24	-33.3	-34.2	24.4	0.00e+00	0	25	0	848297984	38	6411
2026-01-09 22:48:37.18	85.88	28.69	-33.3	-34.2	24.2	0.00e+00	0	25	0	860880896	38	6423
2026-01-09 22:48:41.08	84.87	29.14	-33.3	-34.2	24.4	0.00e+00	0	25	0	872415232	38	6366
2026-01-09 22:48:44.99	83.82	29.58	-32.9	-33.8	24.6	0.00e+00	0	25	0	884998144	38	6130
2026-01-09 22:48:48.90	82.75	30.02	-33.0	-33.9	24.5	0.00e+00	0	25	0	897581056	38	6137
2026-01-09 22:48:52.82	81.65	30.46	-32.9	-33.8	24.4	0.00e+00	0	25	0	909115392	38	6127
2026-01-09 22:48:56.72	80.52	30.89	-32.9	-33.8	24.6	0.00e+00	0	25	0	921698304	38	6087
2026-01-09 22:49:00.62	79.37	31.31	-33.1	-34.0	24.5	0.00e+00	0	25	0	934281216	38	6218
2026-01-09 22:49:04.53	78.18	31.72	-33.3	-34.2	24.4	0.00e+00	0	25	0	945815552	38	6373
2026-01-09 22:49:08.44	76.95	32.13	-33.6	-34.5	24.3	0.00e+00	0	25	0	958398464	38	6638
2026-01-09 22:49:12.35	75.70	32.52	-33.6	-34.5	24.2	0.00e+00	0	25	0	970981376	38	6638
2026-01-09 22:49:16.26	74.42	32.91	-33.8	-34.7	24.3	0.00e+00	0	25	0	982515712	38	6744
2026-01-09 22:49:20.17	73.11	33.28	-34.2	-35.2	23.8	0.00e+00	0	25	0	995098624	40	6364
2026-01-09 22:49:24.08	71.76	33.64	-34.1	-35.1	23.9	0.00e+00	0	25	0	1007681536	40	6281
2026-01-09 22:49:27.99	70.39	33.99	-33.7	-34.6	24.3	0.00e+00	0	25	0	1019215872	40	5936
2026-01-09 22:49:31.89	68.99	34.32	-33.5	-34.4	24.2	0.00e+00	0	25	0	1031798784	40	5835
2026-01-09 22:49:35.80	67.56	34.63	-33.7	-34.6	24.1	0.00e+00	0	25	0	1043333120	40	5989
2026-01-09 22:49:39.71	66.10	34.93	-33.9	-34.9	23.9	0.00e+00	0	25	0	1055916032	40	6143
2026-01-09 22:49:43.62	64.62	35.21	-34.6	-35.6	23.6	0.00e+00	0	25	0	1068498944	40	6662
2026-01-09 22:49:47.53	63.11	35.47	-34.8	-35.7	23.5	0.00e+00	0	25	0	1080033280	42	6063
2026-01-09 22:49:51.44	61.58	35.70	-33.9	-34.8	24.0	0.00e+00	0	25	0	1092616192	42	5465
2026-01-09 22:49:55.35	60.03	35.92	-34.7	-35.6	23.5	0.00e+00	0	25	0	1105199104	40	6705
2026-01-09 22:49:59.26	58.46	36.11	-34.8	-35.8	23.3	0.00e+00	0	25	0	1116733440	42	6107
2026-01-09 22:50:03.16	56.88	36.27	-34.6	-35.5	23.5	0.00e+00	0	25	0	1129316352	42	5917
2026-01-09 22:50:07.07	55.27	36.42	-34.5	-35.5	23.7	0.00e+00	0	25	0	1141899264	42	5869
2026-01-09 22:50:10.98	53.66	36.53	-34.4	-35.3	23.7	0.00e+00	0	25	0	1153433600	42	5751
2026-01-09 22:50:14.89	52.03	36.63	-34.3	-35.2	23.7	0.00e+00	0	25	0	1166016512	42	5709
2026-01-09 22:50:18.79	50.40	36.69	-34.0	-34.9	24.0	0.00e+00	0	25	0	1178599424	42	5510
2026-01-09 22:50:22.70	48.76	36.73	-34.4	-35.3	23.8	0.00e+00	0	25	0	1190133760	42	5769
2026-01-09 22:50:26.61	47.12	36.74	-34.6	-35.6	23.5	0.00e+00	0	25	0	1202716672	42	5962
2026-01-09 22:50:30.52	45.48	36.73	-34.8	-35.7	23.4	0.00e+00	0	25	0	1215299584	42	6049
2026-01-09 22:50:34.43	43.84	36.69	-34.6	-35.5	23.6	0.00e+00	0	25	0	1226833920	42	5921
2026-01-09 22:50:38.34	42.20	36.62	-34.5	-35.4	23.7	0.00e+00	0	25	0	1239416832	42	5842
2026-01-09 22:50:42.25	40.58	36.52	-34.3	-35.3	23.7	0.00e+00	0	25	0	1250951168	42	5742
2026-01-09 22:50:46.16	38.97	36.40	-34.4	-35.3	23.6	0.00e+00	0	25	0	1263534080	42	5748
2026-01-09 22:50:50.07	37.37	36.26	-33.9	-34.8	24.0	0.00e+00	0	25	0	1276116992	42	5437
2026-01-09 22:50:53.98	35.78	36.09	-34.0	-34.9	23.8	0.00e+00	0	25	0	1287651328	40	6196
2026-01-09 22:50:57.89	34.21	35.89	-34.8	-35.7	23.4	0.00e+00	0	25	0	1300234240	40	6801
2026-01-09 22:51:01.79	32.67	35.68	-34.6	-35.6	23.2	0.00e+00	0	25	0	1312817152	42	5943
2026-01-09 22:51:05.71	31.14	35.44	-34.4	-35.4	23.7	0.00e+00	0	25	0	1324351488	42	5793
2026-01-09 22:51:09.61	29.64	35.18	-34.7	-35.7	23.4	0.00e+00	0	25	0	1336934400	42	6003
2026-01-09 22:51:13.53	28.16	34.90	-34.6	-35.5	23.5	0.00e+00	0	25	0	1349517312	42	5919
2026-01-09 22:51:17.44	26.71	34.60	-33.8	-34.7	24.1	0.00e+00	0	25	0	1361051648	42	5383
2026-01-09 22:51:21.34	25.29	34.29	-33.8	-34.7	24.0	0.00e+00	0	25	0	1373634560	40	6014
2026-01-09 22:51:25.24	23.90	33.96	-33.8	-34.7	24.0	0.00e+00	0	25	0	1386217472	40	6035
2026-01-09 22:51:29.15	22.53	33.61	-33.3	-34.2	24.5	0.00e+00	0	25	0	1397751808	40	5710
2026-01-09 22:51:33.05	21.20	33.25	-34.3	-35.2	23.8	0.00e+00	0	25	0	1410334720	40	6387
2026-01-09 22:51:36.96	19.89	32.88	-32.8	-33.6	24.9	0.00e+00	0	25	0	1422917632	40	5340
2026-01-09 22:51:40.87	18.61	32.49	-33.9	-34.9	23.9	0.00e+00	0	25	0	1434451968	40	6149
2026-01-09 22:51:44.78	17.37	32.10	-33.2	-34.1	24.6	0.00e+00	0	25	0	1447034880	40	5625
2026-01-09 22:51:48.68	16.16	31.69	-33.6	-34.6	23.8	0.00e+00	0	25	0	1458569216	40	5948
2026-01-09 22:51:52.59	14.97	31.28	-32.6	-33.5	24.6	0.00e+00	0	25	0	1471152128	38	5890
2026-01-09 22:51:56.50	13.82	30.85	-33.6	-34.5	24.2	0.00e+00	0	25	0	1483735040	38	6585
2026-01-09 22:52:00.40	12.70	30.43	-33.8	-34.7	23.7	0.00e+00	0	25	0	1495269376	40	6046
2026-01-09 22:52:04.32	11.60	29.99	-33.3	-34.3	24.3	0.00e+00	0	25	0	1507852288	40	5746
2026-01-09 22:52:08.23	10.54	29.55	-33.3	-34.3	24.0	0.00e+00	0	25	0	1520435200	40	5730
2026-01-09 22:52:12.14	9.50	29.11	-32.8	-33.7	24.7	0.00e+00	0	25	0	1531969536	40	5389
2026-01-09 22:52:16.05	8.49	28.66	-32.6	-33.5	24.8	0.00e+00	0	25	0	1544552448	38	5888
2026-01-09 22:52:19.96	7.52	28.22	-32.5	-33.3	24.9	0.00e+00	0	25	0	1557135360	38	5782
2026-01-09 22:52:23.86	6.57	27.77	-32.8	-33.7	24.8	0.00e+00	0	25	0	1568669696	38	6008
2026-01-09 22:52:27.77	5.64	27.32	-32.3	-33.1	25.2	0.00e+00	0	25	0	1581252608	38	5643
2026-01-09 22:52:31.68	4.74	26.86	-32.7	-33.5	25.0	0.00e+00	0	25	0	1593835520	38	5924
2026-01-09 22:52:35.59	3.87	26.41	-32.9	-33.8	24.5	0.00e+00	0	25	0	1605369856	38	6068
2026-01-09 22:52:39.50	3.02	25.96	-32.1	-32.9	24.9	0.00e+00	0	25	0	1617952768	38	5526
2026-01-09 22:52:43.41	2.20	25.51	-32.8	-33.6	24.8	0.00e+00	0	25	0	1630535680	38	5986
2026-01-09 22:52:47.32	1.40	25.06	-33.1	-34.0	24.4	0.00e+00	0	25	0	1642070016	38	6246
2026-01-09 22:52:51.23	0.62	24.61	-32.4	-33.2	25.2	0.00e+00	0	25	0	1654652928	38	5725
2026-01-09 22:52:55.14	359.87	24.16	-32.0	-32.9	25.4	0.00e+00	0	25	0	1667235840	38	5470
2026-01-09 22:52:59.05	359.13	23.72	-32.3	-33.1	25.2	0.00e+00	0	25	0	1678770176	38	5629
2026-01-09 22:53:02.96	358.42	23.28	-32.2	-33.1	25.3	0.00e+00	0	25	0	1691353088	38	5608
2026-01-09 22:53:06.87	357.73	22.84	-32.3	-33.2	25.1	0.00e+00	0	25	0	1703936000	38	5668
2026-01-09 22:53:10.77	357.05	22.41	-32.8	-33.7	24.8	0.00e+00	0	25	0	1715470336	38	5996
2026-01-09 22:53:14.68	356.40	21.97	-32.8	-33.7	24.6	0.00e+00	0	25	0	1728053248	38	6039
2026-01-09 22:53:18.59	355.76	21.54	-33.0	-33.9	24.4	0.00e+00	0	25	0	1739587584	38	6154
2026-01-09 22:53:22.49	355.15	21.12	-32.7	-33.6	24.6	0.00e+00	0	25	0	1752170496	38	5952
2026-01-09 22:53:26.40	354.54	20.70	-33.2	-34.1	24.3	0.00e+00	0	25	0	1764753408	38	6345
2026-01-09 22:53:30.32	353.96	20.28	-33.2	-34.1	24.3	0.00e+00	0	25	0	1776287744	38	6350
2026-01-09 22:53:34.23	353.39	19.87	-33.1	-34.0	24.5	0.00e+00	0	25	0	1788870656	38	6209
2026-01-09 22:53:38.14	352.84	19.45	-33.1	-34.0	24.5	0.00e+00	0	25	0	1801453568	38	6266
2026-01-09 22:53:42.04	352.30	19.05	-33.0	-33.9	24.5	0.00e+00	0	25	0	1812987904	38	6189
2026-01-09 22:53:45.95	351.77	18.65	-32.7	-33.6	24.8	0.00e+00	0	25	0	1825570816	38	5977
2026-01-09 22:53:49.86	351.26	18.25	-32.8	-33.7	24.8	0.00e+00	0	25	0	1838153728	38	6022
2026-01-09 22:53:53.77	350.77	17.85	-33.0	-33.9	24.6	0.00e+00	0	25	0	1849688064	38	6152
2026-01-09 22:53:57.68	350.28	17.46	-33.3	-34.2	24.3	0.00e+00	0	25	0	1862270976	38	6423
2026-01-09 22:54:01.59	349.81	17.08	-33.5	-34.4	24.1	0.00e+00	0	25	0	1874853888	38	6511
2026-01-09 22:54:05.50	349.35	16.69	-33.3	-34.2	24.2	0.00e+00	0	25	0	1886388224	38	6387
2026-01-09 22:54:09.41	348.91	16.32	-33.1	-34.0	24.3	0.00e+00	0	25	0	1898971136	38	6264
2026-01-09 22:54:13.32	348.47	15.94	-33.5	-34.4	24.0	0.00e+00	0	25	0	1911554048	38	6562
2026-01-09 22:54:17.23	348.05	15.57	-34.0	-34.9	23.7	0.00e+00	0	25	0	1923088384	40	6177
2026-01-09 22:54:21.14	347.63	15.21	-34.4	-35.3	23.3	0.00e+00	0	25	0	1935671296	40	6481
2026-01-09 22:54:25.05	347.23	14.84	-34.3	-35.3	23.1	0.00e+00	0	25	0	1947205632	40	6437
2026-01-09 22:54:28.97	346.83	14.48	-34.0	-34.9	23.2	0.00e+00	0	25	0	1959788544	40	6189
2026-01-09 22:54:32.88	346.45	14.13	-33.5	-34.4	23.8	0.00e+00	0	25	0	1972371456	40	5839
2026-01-09 22:54:36.78	346.08	13.78	-33.7	-34.7	23.8	0.00e+00	0	25	0	1983905792	40	6014
2026-01-09 22:54:40.69	345.71	13.43	-34.1	-35.0	23.5	0.00e+00	0	25	0	1996488704	40	6264
2026-01-09 22:54:44.60	345.35	13.09	-34.2	-35.2	23.3	0.00e+00	0	25	0	2009071616	40	6391
2026-01-09 22:54:48.51	345.00	12.75	-34.3	-35.3	23.1	0.00e+00	0	25	0	2020605952	40	6483
2026-01-09 22:54:52.42	344.66	12.41	-34.4	-35.4	22.9	0.00e+00	0	25	0	2033188864	40	6533
2026-01-09 22:54:56.33	344.33	12.08	-34.4	-35.4	22.9	0.00e+00	0	25	0	2045771776	40	6543
2026-01-09 22:55:00.24	344.01	11.75	-34.3	-35.3	23.1	0.00e+00	0	25	0	2057306112	40	6440
2026-01-09 22:55:04.15	343.69	11.43	-34.2	-35.1	23.2	0.00e+00	0	25	0	2069889024	40	6336
2026-01-09 22:55:08.06	343.38	11.10	-34.2	-35.2	23.2	0.00e+00	0	25	0	2082471936	40	6353
2026-01-09 22:55:11.97	343.08	10.79	-34.4	-35.4	23.1	0.00e+00	0	25	0	2094006272	40	6558
2026-01-09 22:55:15.88	342.78	10.47	-34.5	-35.4	23.1	0.00e+00	0	25	0	2106589184	40	6559
2026-01-09 22:55:19.78	342.49	10.16	-34.7	-35.7	22.9	0.00e+00	0	25	0	2119172096	40	6775
2026-01-09 22:55:23.70	342.21	9.85	-35.0	-36.0	22.6	0.00e+00	0	25	0	2130706432	42	6261
2026-01-09 22:55:27.61	341.93	9.54	-35.1	-36.1	22.5	0.00e+00	0	25	0	2143289344	42	6316
2026-01-09 22:55:31.52	341.66	9.24	-35.3	-36.4	22.2	0.00e+00	0	25	0	2155872256	42	6533
2026-01-09 22:55:35.43	341.40	8.94	-35.3	-36.4	22.2	0.00e+00	0	25	0	2167406592	42	6526
2026-01-09 22:55:39.34	341.14	8.64	-35.4	-36.5	22.1	0.00e+00	0	25	0	2179989504	42	6608
2026-01-09 22:55:43.24	340.88	8.35	-35.6	-36.7	21.9	0.00e+00	0	25	0	2191523840	42	6729
2026-01-09 22:55:47.14	340.64	8.06	-35.6	-36.7	21.8	0.00e+00	0	25	0	2204106752	44	6043
2026-01-09 22:55:51.05	340.39	7.77	-35.9	-37.0	21.6	0.00e+00	0	25	0	2216689664	44	6252
2026-01-09 22:55:54.95	340.16	7.49	-36.0	-37.1	21.5	0.00e+00	0	25	0	2228224000	44	6328
2026-01-09 22:55:58.86	339.92	7.20	-36.4	-37.5	21.1	0.00e+00	0	25	0	2240806912	44	6631
2026-01-09 22:56:02.77	339.69	6.92	-36.3	-37.5	21.0	0.00e+00	0	25	0	2253389824	44	6605
2026-01-09 22:56:06.67	339.47	6.64	-36.3	-37.4	21.0	0.00e+00	0	25	0	2264924160	44	6546
2026-01-09 22:56:10.59	339.25	6.37	-36.2	-37.4	21.0	0.00e+00	0	25	0	2277507072	44	6501
2026-01-09 22:56:14.49	339.04	6.10	-36.1	-37.3	21.1	0.00e+00	0	25	0	2290089984	44	6427
2026-01-09 22:56:18.40	338.83	5.83	-36.3	-37.5	20.7	0.00e+00	0	25	0	2301624320	44	6577
2026-01-09 22:56:22.32	338.62	5.56	-36.7	-38.0	20.0	0.00e+00	0	25	0	2314207232	44	6978
2026-01-09 22:56:26.22	338.42	5.29	-37.5	-39.0	18.8	0.00e+00	0	25	0	2326790144	46	6971
2026-01-09 22:56:30.13	338.22	5.03	-38.6	-40.4	16.7	0.00e+00	0	25	0	2338324480	48	7316
2026-01-09 22:56:34.04	338.02	4.77	-40.1	-42.7	13.7	3.80e-06	0	25	0	2350907392	52	7566
2026-01-09 22:56:37.95	337.83	4.51	-41.4	-45.5	9.9	6.35e-03	0	25	0	2363490304	54	9335
2026-01-09 22:56:41.85	337.64	4.25	-42.3	-50.2	3.9	6.50e-01	0	25	104	2373976064	56	14257
2026-01-09 22:56:45.77	337.46	4.00	-42.5	-53.2	3.8	1.50e+00	0	25	104	2373976064	56	20111
2026-01-09 22:56:49.67	337.28	3.75	-42.6	-54.7	3.5	1.52e+00	0	25	104	2373976064	56	23936
2026-01-09 22:56:53.58	337.10	3.49	-42.6	-55.0	3.5	1.52e+00	0	25	104	2373976064	56	24747
2026-01-09 22:56:57.50	336.93	3.25	-42.7	-55.4	3.5	1.52e+00	0	25	104	2373976064	56	26150
2026-01-09 22:57:01.41	336.76	3.00	-42.6	-55.4	3.5	1.52e+00	0	25	104	2373976064	56	26132
2026-01-09 22:57:05.32	336.59	2.75	-47.8	-60.6	3.5	1.52e+00	0	25	104	2373976064	60	37754
2026-01-09 22:57:09.23	336.42	2.51	-48.1	-60.9	3.5	1.52e+00	0	25	104	2373976064	60	39030
2026-01-09 22:57:13.13	336.26	2.27	-47.7	-60.7	3.5	1.52e+00	0	25	104	2373976064	60	38191
2026-01-09 22:57:17.04	336.10	2.03	-47.9	-60.8	3.5	1.51e+00	0	25	104	2373976064	60	38456
2026-01-09 22:57:20.96	335.95	1.79	-47.9	-60.8	3.5	1.52e+00	0	25	104	2373976064	60	38331
2026-01-09 22:57:24.86	335.79	1.56	-47.9	-60.7	3.5	1.52e+00	0	25	104	2373976064	60	38060
2026-01-09 22:57:28.77	335.64	1.32	-47.9	-60.7	3.5	1.52e+00	0	25	104	2373976064	60	38069
2026-01-09 22:57:32.68	335.50	1.09	-47.8	-60.7	3.5	1.52e+00	0	25	104	2373976064	60	38251
2026-01-09 22:57:36.59	335.35	0.86	-47.8	-60.6	3.5	1.52e+00	0	25	104	2373976064	60	37623
2026-01-09 22:57:40.51	335.21	0.63	-47.9	-60.7	3.5	1.52e+00	0	26	104	2373976064	60	38103
2026-01-09 22:57:44.42	335.07	0.40	-47.9	-60.7	3.5	1.52e+00	0	25	104	2373976064	60	38048
2026-01-09 22:57:48.33	334.93	0.18	-47.8	-60.7	3.5	1.52e+00	0	25	104	2373976064	60	38139
2026-01-09 22:57:52.24	334.79	-0.05	-47.8	-60.7	3.5	1.52e+00	0	25	104	2373976064	60	37908

#Closed at: 2026-01-09 22:57:53
#Recorded file [2373 MB]: D:/lorett/data/35029_260110_104308.dat