passes_logs/2026/01/09/R4.6S_Anadyr/R4.6S_Anadyr__20260109_011118_SUOMI_NPP_rec.log

#Pass ID: 20260109_011118_SUOMI NPP
#Satellite: SUOMI NPP
#Configuration: NPP
#almurnet v.1.7.20251203
#Start time: 2026-01-09 01:11:18

#Version: 2.2.20231116
#Station: R4.6S_Anadyr
#Location: 177.4865 lon 64.73178 lat
#TLE: 1 37849U 11061A   26008.05542337  .00000108  00000+0  71976-4 0  9997
#TLE: 2 37849  98.7805 310.1641 0002540  75.6410 284.5048 14.19523335735721

#Time	Az	El	Level	Level2	SNR	BER	BlckErr	Temp	State	Recorded	gain1	gain2
2026-01-09 01:11:18.83	178.97	0.03	-48.1	-60.7	3.5	1.52e+00	0	31	0	0	60	38118
2026-01-09 01:11:22.86	179.10	0.27	-48.2	-63.4	3.6	1.51e+00	0	33	104	0	60	53582
2026-01-09 01:11:26.90	179.22	0.51	-48.2	-63.4	3.6	1.51e+00	0	33	104	0	60	53751
2026-01-09 01:11:30.94	179.35	0.75	-47.8	-63.0	3.6	1.51e+00	0	33	104	0	60	51016
2026-01-09 01:11:34.98	179.48	0.99	-46.8	-61.9	3.6	1.51e+00	0	33	104	0	60	44919
2026-01-09 01:11:39.01	179.61	1.23	-46.8	-61.9	3.6	1.51e+00	0	33	104	0	60	45129
2026-01-09 01:11:43.05	179.74	1.48	-46.8	-61.9	3.6	1.51e+00	0	33	104	0	60	45032
2026-01-09 01:11:47.09	179.87	1.73	-46.7	-61.8	3.6	1.51e+00	0	33	104	0	60	44572
2026-01-09 01:11:51.13	180.01	1.98	-46.8	-61.9	3.6	1.51e+00	0	33	104	0	60	44967
2026-01-09 01:11:55.17	180.15	2.23	-46.7	-61.8	3.6	1.51e+00	0	33	104	0	60	44605
2026-01-09 01:11:59.20	180.29	2.49	-46.7	-61.3	3.6	1.51e+00	0	33	104	0	60	42025
2026-01-09 01:12:03.24	180.43	2.74	-46.7	-60.7	3.6	1.51e+00	0	33	104	0	60	39272
2026-01-09 01:12:07.28	180.57	3.00	-46.1	-53.7	6.6	6.10e-01	0	33	0	0	60	17441
2026-01-09 01:12:11.32	180.72	3.26	-42.0	-44.2	16.8	0.00e+00	92	33	0	7340032	58	6558
2026-01-09 01:12:15.36	180.87	3.53	-40.0	-41.5	19.1	0.00e+00	92	33	0	14680064	54	6101
2026-01-09 01:12:19.39	181.02	3.79	-42.2	-44.1	17.7	5.16e-01	0	33	0	22020096	60	5773
2026-01-09 01:12:23.43	181.18	4.06	-41.0	-42.7	18.2	0.00e+00	0	33	0	29360128	56	6238
2026-01-09 01:12:27.47	181.34	4.33	-39.7	-41.1	19.6	0.00e+00	90	33	0	37748736	52	6486
2026-01-09 01:12:31.51	181.50	4.61	-39.6	-40.9	19.9	0.00e+00	91	33	0	45088768	52	6384
2026-01-09 01:12:35.54	181.66	4.88	-39.4	-40.8	19.9	0.00e+00	0	33	0	52428800	52	6264
2026-01-09 01:12:39.57	181.82	5.16	-39.3	-40.6	20.3	0.00e+00	0	33	0	59768832	52	6136
2026-01-09 01:12:43.60	181.99	5.44	-39.3	-40.6	20.3	0.00e+00	54	33	0	67108864	52	6147
2026-01-09 01:12:47.64	182.16	5.73	-39.3	-40.6	20.3	0.00e+00	92	33	0	75497472	52	6155
2026-01-09 01:12:51.67	182.34	6.02	-39.2	-40.5	20.3	0.00e+00	0	33	0	82837504	52	6078
2026-01-09 01:12:55.71	182.52	6.31	-39.3	-40.5	20.4	0.00e+00	52	33	0	90177536	52	6101
2026-01-09 01:12:59.75	182.70	6.60	-39.4	-40.7	20.4	0.00e+00	92	33	0	97517568	52	6178
2026-01-09 01:13:03.79	182.88	6.90	-39.3	-40.6	20.5	0.00e+00	91	33	0	104857600	52	6118
2026-01-09 01:13:07.82	183.07	7.20	-39.2	-40.5	20.5	0.00e+00	0	33	0	113246208	52	6073
2026-01-09 01:13:11.86	183.26	7.50	-39.5	-40.8	20.3	0.00e+00	92	33	0	120586240	52	6272
2026-01-09 01:13:15.90	183.46	7.81	-39.1	-40.3	20.8	0.00e+00	92	33	0	127926272	52	5903
2026-01-09 01:13:19.93	183.66	8.12	-39.1	-40.3	20.8	0.00e+00	72	33	0	135266304	52	5963
2026-01-09 01:13:23.97	183.86	8.43	-38.9	-40.1	21.0	0.00e+00	0	33	0	143654912	50	6501
2026-01-09 01:13:28.01	184.07	8.75	-38.6	-39.7	21.2	0.00e+00	92	33	0	150994944	50	6240
2026-01-09 01:13:32.04	184.28	9.07	-38.3	-39.4	21.7	0.00e+00	92	33	0	158334976	50	6003
2026-01-09 01:13:36.07	184.50	9.40	-37.8	-38.8	22.2	0.00e+00	0	33	0	165675008	50	5572
2026-01-09 01:13:40.11	184.72	9.73	-37.5	-38.5	22.4	0.00e+00	56	33	0	173015040	48	6080
2026-01-09 01:13:44.15	184.95	10.06	-37.3	-38.2	22.7	0.00e+00	92	33	0	181403648	48	5855
2026-01-09 01:13:48.18	185.18	10.40	-37.4	-38.3	22.7	0.00e+00	92	33	0	188743680	48	5920
2026-01-09 01:13:52.21	185.41	10.74	-37.3	-38.2	22.7	0.00e+00	0	33	0	196083712	48	5892
2026-01-09 01:13:56.25	185.65	11.09	-37.3	-38.3	22.7	0.00e+00	54	33	0	203423744	48	5913
2026-01-09 01:14:00.29	185.90	11.44	-37.0	-38.0	23.0	0.00e+00	90	33	0	211812352	48	5718
2026-01-09 01:14:04.32	186.15	11.79	-37.1	-38.0	23.0	0.00e+00	92	33	0	219152384	48	5758
2026-01-09 01:14:08.36	186.41	12.15	-37.1	-38.0	22.9	0.00e+00	0	33	0	226492416	48	5751
2026-01-09 01:14:12.39	186.68	12.52	-37.1	-38.0	22.9	0.00e+00	92	33	0	233832448	48	5739
2026-01-09 01:14:16.43	186.95	12.89	-37.3	-38.2	22.7	0.00e+00	90	33	0	241172480	48	5884
2026-01-09 01:14:20.46	187.22	13.27	-37.2	-38.2	22.8	0.00e+00	0	33	0	249561088	48	5859
2026-01-09 01:14:24.50	187.51	13.65	-37.3	-38.3	22.8	0.00e+00	17	33	0	256901120	48	5905
2026-01-09 01:14:28.53	187.80	14.03	-37.0	-38.0	23.0	0.00e+00	91	33	0	264241152	48	5725
2026-01-09 01:14:32.57	188.10	14.42	-36.8	-37.7	23.2	0.00e+00	92	33	0	271581184	46	6205
2026-01-09 01:14:36.60	188.40	14.82	-36.4	-37.3	23.6	0.00e+00	0	34	0	279969792	46	5917
2026-01-09 01:14:40.64	188.72	15.22	-36.2	-37.0	23.8	0.00e+00	0	33	0	287309824	46	5740
2026-01-09 01:14:44.68	189.04	15.63	-36.0	-36.8	23.9	0.00e+00	74	33	0	294649856	46	5594
2026-01-09 01:14:48.72	189.37	16.05	-35.6	-36.4	24.2	0.00e+00	92	33	0	301989888	44	5998
2026-01-09 01:14:52.75	189.71	16.47	-35.9	-36.7	24.0	0.00e+00	0	33	0	309329920	44	6225
2026-01-09 01:14:56.78	190.06	16.90	-35.8	-36.6	24.0	0.00e+00	90	33	0	317718528	44	6163
2026-01-09 01:15:00.82	190.41	17.33	-35.5	-36.3	24.2	0.00e+00	90	33	0	325058560	44	5936
2026-01-09 01:15:04.85	190.78	17.78	-35.5	-36.3	24.3	0.00e+00	0	33	0	332398592	44	5927
2026-01-09 01:15:08.89	191.16	18.23	-35.7	-36.5	24.1	0.00e+00	0	33	0	339738624	44	6077
2026-01-09 01:15:12.93	191.55	18.68	-35.6	-36.5	24.2	0.00e+00	90	33	0	347078656	44	6041
2026-01-09 01:15:16.97	191.95	19.15	-36.1	-37.0	23.8	0.00e+00	91	33	0	355467264	44	6432
2026-01-09 01:15:21.00	192.37	19.62	-35.7	-36.6	24.2	0.00e+00	0	33	0	362807296	44	6111
2026-01-09 01:15:25.04	192.79	20.09	-35.8	-36.6	24.2	0.00e+00	0	33	0	370147328	44	6154
2026-01-09 01:15:29.07	193.23	20.58	-35.5	-36.3	24.3	0.00e+00	92	33	0	377487360	44	5931
2026-01-09 01:15:33.11	193.68	21.07	-35.4	-36.2	24.4	0.00e+00	93	33	0	385875968	44	5871
2026-01-09 01:15:37.14	194.15	21.57	-35.2	-36.0	24.6	0.00e+00	0	33	0	393216000	44	5706
2026-01-09 01:15:41.18	194.63	22.09	-35.5	-36.3	24.5	0.00e+00	92	33	0	400556032	44	5921
2026-01-09 01:15:45.22	195.13	22.60	-35.1	-35.9	24.5	0.00e+00	89	33	0	407896064	44	5691
2026-01-09 01:15:49.25	195.64	23.13	-35.3	-36.1	24.4	0.00e+00	33	33	0	415236096	44	5786
2026-01-09 01:15:53.29	196.17	23.67	-35.7	-36.6	24.2	0.00e+00	0	33	0	423624704	44	6114
2026-01-09 01:15:57.33	196.72	24.21	-35.9	-36.8	23.9	0.00e+00	91	33	0	430964736	44	6256
2026-01-09 01:16:01.36	197.29	24.76	-36.3	-37.2	23.8	0.00e+00	92	33	0	438304768	44	6540
2026-01-09 01:16:05.39	197.87	25.32	-36.0	-36.9	24.0	0.00e+00	0	33	0	445644800	44	6320
2026-01-09 01:16:09.43	198.48	25.90	-36.5	-37.3	23.6	0.00e+00	0	33	0	452984832	44	6672
2026-01-09 01:16:13.46	199.11	26.48	-36.3	-37.2	23.8	0.00e+00	86	33	0	461373440	44	6564
2026-01-09 01:16:17.50	199.77	27.06	-36.3	-37.2	23.7	0.00e+00	92	33	0	468713472	44	6540
2026-01-09 01:16:21.54	200.44	27.66	-37.0	-37.8	23.3	0.00e+00	0	33	0	476053504	46	6316
2026-01-09 01:16:25.57	201.14	28.27	-37.7	-38.6	22.6	0.00e+00	41	33	0	483393536	46	6925
2026-01-09 01:16:29.61	201.87	28.88	-38.1	-39.1	22.2	0.00e+00	72	33	0	491782144	48	6493
2026-01-09 01:16:33.65	202.63	29.51	-37.6	-38.5	22.8	0.00e+00	92	33	0	499122176	48	6084
2026-01-09 01:16:37.69	203.42	30.14	-38.0	-39.0	22.4	0.00e+00	0	33	0	506462208	48	6427
2026-01-09 01:16:41.72	204.23	30.78	-37.9	-38.9	22.5	0.00e+00	92	33	0	513802240	48	6339
2026-01-09 01:16:45.76	205.08	31.43	-38.8	-39.9	21.7	0.00e+00	90	33	0	521142272	50	6366
2026-01-09 01:16:49.80	205.97	32.09	-37.7	-38.6	22.7	0.00e+00	38	33	0	529530880	48	6171
2026-01-09 01:16:53.83	206.89	32.75	-37.6	-38.6	21.9	0.00e+00	0	33	0	536870912	48	6137
2026-01-09 01:16:57.87	207.84	33.42	-38.4	-39.5	21.9	0.00e+00	92	33	0	544210944	48	6787
2026-01-09 01:17:01.91	208.84	34.10	-37.4	-38.4	23.0	0.00e+00	92	33	0	551550976	48	5971
2026-01-09 01:17:05.95	209.88	34.78	-36.6	-37.5	23.6	0.00e+00	0	33	0	559939584	46	6083
2026-01-09 01:17:09.98	210.96	35.46	-37.2	-38.1	23.1	0.00e+00	0	33	0	567279616	46	6519
2026-01-09 01:17:14.02	212.09	36.15	-37.3	-38.3	23.0	0.00e+00	66	33	0	574619648	46	6622
2026-01-09 01:17:18.06	213.26	36.84	-37.0	-38.0	23.2	0.00e+00	90	33	0	581959680	46	6400
2026-01-09 01:17:22.09	214.48	37.53	-36.4	-37.2	23.8	0.00e+00	0	33	0	589299712	46	5876
2026-01-09 01:17:26.13	215.76	38.22	-35.5	-36.3	24.3	0.00e+00	58	33	0	597688320	44	5950
2026-01-09 01:17:30.16	217.09	38.91	-36.0	-36.9	24.1	0.00e+00	92	33	0	605028352	44	6338
2026-01-09 01:17:34.20	218.48	39.59	-36.3	-37.1	23.8	0.00e+00	91	33	0	612368384	44	6536
2026-01-09 01:17:38.23	219.92	40.27	-37.3	-38.3	22.9	0.00e+00	0	33	0	619708416	46	6644
2026-01-09 01:17:42.27	221.43	40.94	-36.4	-37.2	24.0	0.00e+00	92	33	0	627048448	46	5874
2026-01-09 01:17:46.30	223.00	41.60	-37.4	-38.4	22.9	0.00e+00	90	33	0	635437056	46	6738
2026-01-09 01:17:50.34	224.63	42.25	-36.0	-36.9	24.1	0.00e+00	0	33	0	642777088	44	6333
2026-01-09 01:17:54.37	226.32	42.88	-37.1	-38.0	23.3	0.00e+00	0	33	0	650117120	46	6399
2026-01-09 01:17:58.41	228.09	43.49	-36.6	-37.4	23.6	0.00e+00	90	33	0	657457152	46	6032
2026-01-09 01:18:02.45	229.92	44.08	-37.3	-38.2	23.1	0.00e+00	90	33	0	665845760	46	6567
2026-01-09 01:18:06.48	231.81	44.65	-36.5	-37.4	23.7	0.00e+00	0	33	0	673185792	46	6000
2026-01-09 01:18:10.52	233.78	45.19	-37.4	-38.4	22.9	0.00e+00	0	33	0	680525824	46	6722
2026-01-09 01:18:14.56	235.81	45.70	-38.5	-39.7	21.3	0.00e+00	56	33	0	687865856	48	6940
2026-01-09 01:18:18.60	237.90	46.18	-39.1	-40.3	21.2	0.00e+00	92	33	0	695205888	50	6636
2026-01-09 01:18:22.63	240.05	46.61	-38.1	-39.1	22.4	0.00e+00	0	33	0	703594496	50	5785
2026-01-09 01:18:26.66	242.26	47.01	-40.0	-41.3	20.5	0.00e+00	52	33	0	710934528	54	5902
2026-01-09 01:18:30.70	244.52	47.37	-40.2	-41.5	20.3	0.00e+00	92	33	0	718274560	52	6841
2026-01-09 01:18:34.74	246.84	47.68	-40.3	-41.6	20.1	0.00e+00	0	33	0	725614592	52	6925
2026-01-09 01:18:38.77	249.19	47.94	-40.0	-41.3	20.5	0.00e+00	0	33	0	734003200	54	5927
2026-01-09 01:18:42.81	251.58	48.15	-38.5	-39.5	22.0	0.00e+00	92	33	0	741343232	50	6086
2026-01-09 01:18:46.84	253.99	48.30	-39.1	-40.2	21.5	0.00e+00	92	33	0	748683264	52	5830
2026-01-09 01:18:50.88	256.43	48.41	-39.3	-40.5	21.3	0.00e+00	0	33	0	756023296	52	6073
2026-01-09 01:18:54.91	258.88	48.45	-38.8	-39.9	22.0	0.00e+00	0	33	0	763363328	50	6332
2026-01-09 01:18:58.95	261.33	48.45	-39.2	-40.4	21.4	0.00e+00	58	33	0	771751936	50	6722
2026-01-09 01:19:02.98	263.77	48.38	-37.7	-38.7	22.7	0.00e+00	92	33	0	779091968	48	6214
2026-01-09 01:19:07.02	266.21	48.27	-40.3	-41.7	20.1	0.00e+00	0	33	0	786432000	52	6984
2026-01-09 01:19:11.06	268.62	48.10	-39.3	-40.4	21.0	0.00e+00	29	33	0	793772032	50	6740
2026-01-09 01:19:15.10	271.00	47.87	-40.8	-42.2	19.7	0.00e+00	92	33	0	802160640	54	6580
2026-01-09 01:19:19.13	273.33	47.60	-39.9	-41.2	20.9	0.00e+00	91	33	0	809500672	52	6549
2026-01-09 01:19:23.16	275.63	47.28	-37.9	-38.8	22.4	0.00e+00	0	33	0	816840704	50	5605
2026-01-09 01:19:27.20	277.88	46.91	-36.1	-36.9	24.1	0.00e+00	92	33	0	824180736	44	6367
2026-01-09 01:19:31.23	280.07	46.51	-38.2	-39.2	22.3	0.00e+00	90	33	0	831520768	50	5875
2026-01-09 01:19:35.27	282.20	46.06	-37.3	-38.1	23.2	0.00e+00	0	33	0	839909376	48	5827
2026-01-09 01:19:39.31	284.27	45.58	-40.4	-41.8	20.2	0.00e+00	0	33	0	847249408	52	7076
2026-01-09 01:19:43.34	286.28	45.06	-37.0	-37.9	23.3	0.00e+00	92	33	0	854589440	48	5657
2026-01-09 01:19:47.37	288.22	44.51	-35.3	-36.1	24.6	0.00e+00	91	33	0	861929472	44	5781
2026-01-09 01:19:51.41	290.10	43.94	-35.6	-36.4	24.4	0.00e+00	0	33	0	869269504	44	5980
2026-01-09 01:19:55.44	291.90	43.35	-35.1	-35.9	24.9	0.00e+00	0	33	0	877658112	42	6320
2026-01-09 01:19:59.47	293.64	42.73	-34.5	-35.3	25.1	0.00e+00	55	33	0	884998144	40	6633
2026-01-09 01:20:03.50	295.32	42.10	-34.1	-34.8	25.5	0.00e+00	92	33	0	892338176	42	5615
2026-01-09 01:20:07.54	296.93	41.45	-35.7	-36.5	24.1	0.00e+00	0	33	0	899678208	44	6054
2026-01-09 01:20:11.57	298.48	40.79	-36.6	-37.4	23.8	0.00e+00	75	33	0	907018240	44	6755
2026-01-09 01:20:15.61	299.96	40.12	-36.1	-37.0	23.9	0.00e+00	87	33	0	915406848	44	6406
2026-01-09 01:20:19.65	301.39	39.45	-39.8	-41.0	21.0	0.00e+00	0	33	0	922746880	52	6442
2026-01-09 01:20:23.69	302.76	38.76	-38.4	-39.4	22.0	0.00e+00	0	33	0	930086912	48	6736
2026-01-09 01:20:27.72	304.08	38.08	-38.0	-39.0	22.5	0.00e+00	91	33	0	937426944	50	5719
2026-01-09 01:20:31.76	305.34	37.39	-40.8	-42.4	19.4	0.00e+00	92	33	0	945815552	54	6716
2026-01-09 01:20:35.80	306.55	36.70	-39.0	-40.1	21.5	0.00e+00	0	33	0	953155584	50	6486
2026-01-09 01:20:39.84	307.71	36.02	-40.9	-42.4	19.7	0.00e+00	0	33	0	960495616	54	6709
2026-01-09 01:20:43.87	308.82	35.34	-38.6	-39.6	22.0	0.00e+00	60	33	0	967835648	50	6131
2026-01-09 01:20:47.90	309.89	34.66	-39.3	-40.6	21.0	0.00e+00	41	32	0	975175680	50	6856
2026-01-09 01:20:51.94	310.91	33.98	-35.7	-36.5	24.3	0.00e+00	0	32	0	983564288	44	6096
2026-01-09 01:20:55.98	311.90	33.31	-37.6	-38.6	22.7	0.00e+00	17	33	0	990904320	46	6864
2026-01-09 01:21:00.02	312.85	32.64	-36.4	-37.2	23.8	0.00e+00	92	33	0	998244352	46	5891
2026-01-09 01:21:04.05	313.75	31.99	-36.7	-37.6	23.5	0.00e+00	0	33	0	1005584384	46	6131
2026-01-09 01:21:08.09	314.63	31.33	-37.3	-38.3	23.0	0.00e+00	0	32	0	1012924416	48	5904
2026-01-09 01:21:12.13	315.47	30.69	-36.7	-37.6	23.4	0.00e+00	92	32	0	1021313024	46	6154
2026-01-09 01:21:16.16	316.27	30.06	-36.2	-37.1	23.8	0.00e+00	92	33	0	1028653056	46	5772
2026-01-09 01:21:20.20	317.05	29.43	-35.9	-36.7	24.1	0.00e+00	0	32	0	1035993088	44	6212
2026-01-09 01:21:24.24	317.80	28.81	-37.7	-38.6	22.7	0.00e+00	0	32	0	1043333120	46	6879
2026-01-09 01:21:28.27	318.52	28.20	-37.8	-38.8	22.5	0.00e+00	43	32	0	1051721728	48	6308
2026-01-09 01:21:32.30	319.22	27.60	-36.8	-37.6	23.3	0.00e+00	90	32	0	1059061760	46	6167
2026-01-09 01:21:36.34	319.89	27.01	-37.2	-38.1	23.1	0.00e+00	0	32	0	1066401792	46	6524
2026-01-09 01:21:40.37	320.53	26.42	-35.8	-36.6	24.2	0.00e+00	0	32	0	1073741824	44	6128
2026-01-09 01:21:44.40	321.16	25.85	-35.7	-36.5	24.1	0.00e+00	51	32	0	1081081856	44	6080
2026-01-09 01:21:48.44	321.76	25.28	-37.4	-38.4	22.8	0.00e+00	70	32	0	1089470464	46	6744
2026-01-09 01:21:52.48	322.34	24.73	-38.1	-39.1	22.2	0.00e+00	0	33	0	1096810496	48	6486
2026-01-09 01:21:56.51	322.91	24.18	-38.5	-39.6	21.6	0.00e+00	50	32	0	1104150528	48	6886
2026-01-09 01:22:00.54	323.45	23.64	-38.4	-39.6	21.8	0.00e+00	92	32	0	1111490560	50	6128
2026-01-09 01:22:04.58	323.98	23.11	-38.4	-39.6	21.9	0.00e+00	0	32	0	1118830592	50	6142
2026-01-09 01:22:08.61	324.49	22.59	-39.2	-40.5	20.8	0.00e+00	0	33	0	1127219200	50	6829
2026-01-09 01:22:12.65	324.98	22.07	-39.4	-40.8	20.8	0.00e+00	92	32	0	1134559232	52	6254
2026-01-09 01:22:16.69	325.46	21.57	-37.1	-38.0	22.8	0.00e+00	0	32	0	1141899264	48	5750
2026-01-09 01:22:20.73	325.93	21.07	-35.1	-35.9	24.5	0.00e+00	0	32	0	1149239296	44	5692
2026-01-09 01:22:24.77	326.38	20.58	-35.4	-36.2	24.2	0.00e+00	0	33	0	1157627904	44	5887
2026-01-09 01:22:28.80	326.81	20.10	-37.0	-38.0	22.7	0.00e+00	77	32	0	1164967936	46	6425
2026-01-09 01:22:32.83	327.24	19.62	-38.4	-39.6	21.6	0.00e+00	0	32	0	1172307968	48	6873
2026-01-09 01:22:36.87	327.65	19.16	-38.4	-39.6	21.7	0.00e+00	0	32	0	1179648000	50	6118
2026-01-09 01:22:40.91	328.05	18.70	-37.8	-38.9	22.2	0.00e+00	0	32	0	1186988032	50	5638
2026-01-09 01:22:44.95	328.44	18.25	-37.6	-38.6	22.4	0.00e+00	16	33	0	1195376640	48	6168
2026-01-09 01:22:48.98	328.81	17.80	-37.7	-38.7	22.3	0.00e+00	0	33	0	1202716672	48	6227
2026-01-09 01:22:53.01	329.18	17.36	-38.1	-39.2	21.9	0.00e+00	0	32	0	1210056704	48	6556
2026-01-09 01:22:57.05	329.54	16.93	-38.8	-40.0	21.1	0.00e+00	20	32	0	1217396736	50	6464
2026-01-09 01:23:01.09	329.89	16.51	-38.4	-39.6	21.6	0.00e+00	0	32	0	1225785344	50	6126
2026-01-09 01:23:05.13	330.23	16.09	-38.0	-39.1	22.1	0.00e+00	0	33	0	1233125376	50	5766
2026-01-09 01:23:09.16	330.56	15.68	-37.2	-38.2	22.7	0.00e+00	0	33	0	1240465408	48	5851
2026-01-09 01:23:13.19	330.88	15.27	-37.1	-38.0	22.7	0.00e+00	49	32	0	1247805440	48	5742
2026-01-09 01:23:17.22	331.19	14.87	-36.8	-37.7	23.0	0.00e+00	0	32	0	1255145472	48	5522
2026-01-09 01:23:21.26	331.50	14.48	-37.3	-38.3	22.5	0.00e+00	0	32	0	1263534080	48	5943
2026-01-09 01:23:25.29	331.79	14.09	-37.3	-38.3	22.5	0.00e+00	0	32	0	1270874112	48	5920
2026-01-09 01:23:29.33	332.09	13.70	-37.6	-38.7	22.3	0.00e+00	54	32	0	1278214144	48	6197
2026-01-09 01:23:33.37	332.37	13.33	-37.4	-38.5	22.3	0.00e+00	0	32	0	1285554176	48	6053
2026-01-09 01:23:37.40	332.65	12.95	-37.1	-38.1	22.7	0.00e+00	0	32	0	1293942784	48	5768
2026-01-09 01:23:41.44	332.92	12.59	-36.8	-37.8	22.8	0.00e+00	41	32	0	1301282816	48	5575
2026-01-09 01:23:45.48	333.19	12.22	-37.3	-38.2	22.5	0.00e+00	65	32	0	1308622848	48	5886
2026-01-09 01:23:49.52	333.44	11.87	-37.7	-38.7	22.1	0.00e+00	0	32	0	1315962880	48	6225
2026-01-09 01:23:53.55	333.70	11.51	-38.4	-39.6	21.5	0.00e+00	0	33	0	1323302912	48	6869
2026-01-09 01:23:57.59	333.95	11.16	-38.9	-40.2	20.9	0.00e+00	46	32	0	1331691520	50	6560
2026-01-09 01:24:01.62	334.19	10.82	-39.2	-40.5	20.6	0.00e+00	0	32	0	1339031552	50	6839
2026-01-09 01:24:05.66	334.43	10.48	-39.2	-40.5	20.6	0.00e+00	0	32	0	1346371584	50	6837
2026-01-09 01:24:09.70	334.66	10.15	-40.0	-41.4	19.9	0.00e+00	0	33	0	1353711616	52	6746
2026-01-09 01:24:13.73	334.89	9.81	-39.1	-40.3	20.6	0.00e+00	93	33	0	1361051648	52	5960
2026-01-09 01:24:17.77	335.11	9.49	-38.9	-40.1	20.9	0.00e+00	0	32	0	1369440256	52	5792
2026-01-09 01:24:21.81	335.33	9.16	-38.7	-39.9	21.0	0.00e+00	0	32	0	1376780288	50	6372
2026-01-09 01:24:25.84	335.54	8.84	-38.4	-39.6	21.2	0.00e+00	0	32	0	1384120320	50	6133
2026-01-09 01:24:29.88	335.75	8.53	-38.4	-39.6	21.3	0.00e+00	90	32	0	1391460352	50	6111
2026-01-09 01:24:33.92	335.96	8.22	-38.4	-39.6	21.2	0.00e+00	0	32	0	1399848960	50	6163
2026-01-09 01:24:37.96	336.16	7.91	-38.4	-39.5	21.3	0.00e+00	0	32	0	1407188992	50	6097
2026-01-09 01:24:41.99	336.36	7.60	-38.3	-39.5	21.2	0.00e+00	21	33	0	1414529024	50	6046
2026-01-09 01:24:46.02	336.55	7.30	-38.6	-39.9	20.7	0.00e+00	0	33	0	1421869056	50	6320
2026-01-09 01:24:50.05	336.74	7.00	-38.9	-40.2	20.5	0.00e+00	0	32	0	1429209088	50	6581
2026-01-09 01:24:54.08	336.93	6.71	-39.2	-40.5	20.3	0.00e+00	0	32	0	1437597696	50	6814
2026-01-09 01:24:58.12	337.11	6.42	-39.3	-40.7	20.0	0.00e+00	49	32	0	1444937728	50	6980
2026-01-09 01:25:02.16	337.29	6.13	-39.6	-41.1	19.5	0.00e+00	0	32	0	1452277760	50	7292
2026-01-09 01:25:06.20	337.47	5.84	-40.0	-41.7	18.6	0.00e+00	0	32	0	1459617792	52	6957
2026-01-09 01:25:10.23	337.64	5.56	-40.4	-42.3	17.8	0.00e+00	0	33	0	1466957824	52	7457
2026-01-09 01:25:14.27	337.82	5.28	-41.0	-43.4	16.1	0.00e+00	90	33	0	1475346432	54	7533
2026-01-09 01:25:18.31	337.99	5.00	-42.0	-45.2	14.1	1.50e-06	0	33	0	1482686464	56	8246
2026-01-09 01:25:22.35	338.15	4.73	-42.5	-46.9	11.7	4.66e-04	0	33	0	1490026496	56	10039
2026-01-09 01:25:26.38	338.31	4.46	-42.8	-49.1	8.2	3.44e-02	0	33	0	1497366528	58	11549
2026-01-09 01:25:30.42	338.47	4.19	-43.0	-51.6	4.9	5.33e-01	90	33	0	1505755136	58	15445
2026-01-09 01:25:34.46	338.63	3.92	-42.9	-55.6	3.7	1.46e+00	0	33	104	1508900864	58	24316
2026-01-09 01:25:38.50	338.79	3.65	-42.8	-57.4	3.6	1.51e+00	0	33	104	1508900864	58	30165
2026-01-09 01:25:42.54	338.94	3.39	-42.8	-57.9	3.6	1.51e+00	0	33	104	1508900864	58	31899
2026-01-09 01:25:46.57	339.09	3.13	-42.9	-58.1	3.6	1.51e+00	0	33	104	1508900864	58	32688
2026-01-09 01:25:50.61	339.24	2.87	-47.6	-62.8	3.6	1.51e+00	0	33	104	1508900864	60	49654
2026-01-09 01:25:54.65	339.39	2.62	-48.1	-63.3	3.6	1.51e+00	0	33	104	1508900864	60	53140
2026-01-09 01:25:58.68	339.53	2.37	-47.8	-63.4	3.6	1.51e+00	0	33	104	1508900864	60	53522
2026-01-09 01:26:02.72	339.67	2.11	-48.2	-63.3	3.6	1.51e+00	0	33	104	1508900864	60	52896
2026-01-09 01:26:06.76	339.81	1.87	-48.1	-63.3	3.6	1.51e+00	0	33	104	1508900864	60	52963
2026-01-09 01:26:10.80	339.95	1.62	-48.1	-63.3	3.6	1.51e+00	0	33	104	1508900864	60	52864
2026-01-09 01:26:14.84	340.09	1.37	-48.1	-63.3	3.6	1.51e+00	0	33	104	1508900864	60	52788
2026-01-09 01:26:18.88	340.22	1.13	-48.1	-63.3	3.6	1.51e+00	0	33	104	1508900864	60	52648
2026-01-09 01:26:22.91	340.35	0.89	-48.0	-63.3	3.6	1.51e+00	0	33	104	1508900864	60	52601
2026-01-09 01:26:26.95	340.48	0.65	-48.0	-63.3	3.6	1.51e+00	0	33	104	1508900864	60	52558
2026-01-09 01:26:30.99	340.61	0.41	-48.0	-63.2	3.6	1.51e+00	0	33	104	1508900864	60	52431
2026-01-09 01:26:35.03	340.74	0.18	-48.0	-63.3	3.6	1.51e+00	0	33	104	1508900864	60	52589
2026-01-09 01:26:39.07	340.86	-0.06	-48.1	-63.3	3.6	1.51e+00	0	33	104	1508900864	60	52940

#Closed at: 2026-01-09 01:26:40
#Recorded file [1508 MB]: D:/lorett/data/35029_260109_131118.dat