passes_logs/2026/01/09/R4.6S_Anadyr/R4.6S_Anadyr__20260109_183723_NOAA_20_JPSS-1_rec.log

#Pass ID: 20260109_183723_NOAA 20 (JPSS-1)
#Satellite: NOAA 20 (JPSS-1)
#Configuration: NOAA 20
#almurnet v.1.7.20251203
#Start time: 2026-01-09 18:37:24

#Version: 2.2.20231116
#Station: R4.6S_Anadyr
#Location: 177.4865 lon 64.73178 lat
#TLE: 1 43013U 17073A   26008.91585656  .00000107  00000+0  71497-4 0  9999
#TLE: 2 43013  98.7631 309.9196 0001713  47.9261 312.2060 14.19534561421870

#Time	Az	El	Level	Level2	SNR	BER	BlckErr	Temp	State	Recorded	gain1	gain2
2026-01-09 18:37:24.35	42.67	0.06	-47.9	-65.6	3.5	3.04e+01	0	23	0	0	60	73330
2026-01-09 18:37:27.38	42.45	0.21	-47.7	-62.9	3.6	1.51e+00	0	24	104	0	60	50471
2026-01-09 18:37:30.40	42.23	0.36	-47.8	-62.9	3.6	1.51e+00	0	24	104	0	60	50589
2026-01-09 18:37:33.43	42.00	0.51	-47.6	-62.8	3.6	1.51e+00	0	24	104	0	60	49853
2026-01-09 18:37:36.46	41.77	0.66	-47.4	-62.6	3.6	1.51e+00	0	24	104	0	60	48808
2026-01-09 18:37:39.48	41.55	0.81	-46.7	-61.9	3.6	1.51e+00	0	24	104	0	60	45070
2026-01-09 18:37:42.51	41.31	0.96	-46.0	-61.2	3.6	1.51e+00	0	24	104	0	60	41353
2026-01-09 18:37:45.55	41.08	1.12	-46.0	-61.2	3.6	1.51e+00	0	24	104	0	60	41539
2026-01-09 18:37:48.58	40.84	1.27	-46.0	-61.2	3.6	1.51e+00	0	24	104	0	60	41302
2026-01-09 18:37:51.61	40.60	1.42	-46.0	-61.2	3.5	1.51e+00	0	24	104	0	60	41327
2026-01-09 18:37:54.63	40.36	1.57	-46.0	-61.1	3.6	1.51e+00	0	24	104	0	60	41223
2026-01-09 18:37:57.66	40.12	1.73	-46.0	-61.2	3.6	1.51e+00	0	25	104	0	60	41321
2026-01-09 18:38:00.68	39.87	1.88	-46.0	-61.1	3.6	1.51e+00	0	25	104	0	60	40892
2026-01-09 18:38:03.71	39.62	2.03	-46.0	-60.9	3.6	1.51e+00	0	25	104	0	60	40173
2026-01-09 18:38:06.74	39.37	2.19	-46.0	-61.0	3.6	1.51e+00	0	25	104	0	60	40502
2026-01-09 18:38:09.77	39.11	2.34	-46.0	-61.1	3.6	1.51e+00	0	25	104	0	60	41097
2026-01-09 18:38:12.80	38.85	2.50	-46.0	-61.1	3.6	1.51e+00	0	25	104	0	60	40945
2026-01-09 18:38:15.83	38.59	2.65	-45.9	-60.1	3.6	1.51e+00	0	25	104	0	60	36697
2026-01-09 18:38:18.86	38.33	2.81	-45.9	-59.4	3.6	1.51e+00	0	25	104	0	60	33675
2026-01-09 18:38:21.89	38.06	2.96	-44.6	-50.1	9.8	2.01e-02	0	25	0	3145728	60	11563
2026-01-09 18:38:24.92	37.79	3.12	-46.1	-60.4	3.6	1.51e+00	0	25	104	6291456	60	37745
2026-01-09 18:38:27.94	37.52	3.27	-45.8	-59.8	3.6	2.24e-04	0	25	104	8388608	60	35356
2026-01-09 18:38:30.97	37.25	3.43	-41.3	-43.4	16.7	0.00e+00	0	25	0	10485760	56	6768
2026-01-09 18:38:33.99	36.97	3.59	-40.9	-42.8	17.6	0.00e+00	0	25	0	15728640	56	6317
2026-01-09 18:38:37.02	36.69	3.74	-41.0	-42.9	17.4	0.00e+00	0	25	0	22020096	56	6351
2026-01-09 18:38:40.05	36.40	3.90	-40.6	-42.3	18.0	0.00e+00	0	25	0	27262976	54	6692
2026-01-09 18:38:43.08	36.11	4.06	-40.7	-42.5	18.0	0.00e+00	0	25	0	33554432	54	6770
2026-01-09 18:38:46.11	35.82	4.21	-40.7	-42.4	18.0	0.00e+00	0	25	0	38797312	54	6768
2026-01-09 18:38:49.14	35.53	4.37	-40.5	-42.3	18.2	0.00e+00	0	25	0	44040192	54	6644
2026-01-09 18:38:52.16	35.23	4.53	-40.7	-42.6	17.9	0.00e+00	0	25	0	50331648	54	6856
2026-01-09 18:38:55.19	34.93	4.69	-40.8	-42.5	18.0	0.00e+00	0	25	0	55574528	54	6844
2026-01-09 18:38:58.22	34.62	4.85	-40.7	-42.4	18.1	0.00e+00	0	25	0	61865984	54	6754
2026-01-09 18:39:01.25	34.31	5.01	-40.7	-42.4	18.1	0.00e+00	0	25	0	67108864	54	6768
2026-01-09 18:39:04.27	34.00	5.16	-40.6	-42.4	18.2	0.00e+00	0	25	0	73400320	54	6721
2026-01-09 18:39:07.30	33.69	5.32	-40.4	-42.0	18.5	0.00e+00	0	25	0	78643200	54	6448
2026-01-09 18:39:10.32	33.37	5.48	-40.3	-41.9	18.7	0.00e+00	0	25	0	83886080	54	6342
2026-01-09 18:39:13.35	33.05	5.64	-40.2	-41.8	18.9	0.00e+00	0	25	0	90177536	54	6253
2026-01-09 18:39:16.37	32.72	5.80	-39.9	-41.5	19.1	0.00e+00	0	25	0	95420416	54	6040
2026-01-09 18:39:19.40	32.39	5.96	-39.9	-41.4	19.3	0.00e+00	0	25	0	101711872	54	5986
2026-01-09 18:39:22.43	32.06	6.12	-40.0	-41.5	19.2	0.00e+00	0	25	0	106954752	52	6782
2026-01-09 18:39:25.45	31.72	6.28	-39.8	-41.3	19.0	0.00e+00	0	25	0	112197632	52	6647
2026-01-09 18:39:28.48	31.38	6.44	-39.6	-41.0	19.7	0.00e+00	0	25	0	118489088	52	6454
2026-01-09 18:39:31.51	31.04	6.60	-39.7	-41.1	19.7	0.00e+00	0	25	0	123731968	52	6491
2026-01-09 18:39:34.54	30.69	6.76	-39.6	-41.0	19.8	0.00e+00	0	25	0	130023424	52	6391
2026-01-09 18:39:37.57	30.34	6.91	-39.3	-40.6	20.2	0.00e+00	0	25	0	135266304	52	6139
2026-01-09 18:39:40.60	29.98	7.07	-39.1	-40.4	20.4	0.00e+00	0	25	0	140509184	52	5992
2026-01-09 18:39:43.62	29.62	7.23	-39.2	-40.5	20.3	0.00e+00	0	25	0	146800640	52	6095
2026-01-09 18:39:46.65	29.26	7.39	-39.6	-41.0	19.9	0.00e+00	0	25	0	152043520	52	6432
2026-01-09 18:39:49.68	28.89	7.55	-39.2	-40.5	20.4	0.00e+00	0	25	0	158334976	52	6049
2026-01-09 18:39:52.71	28.51	7.71	-39.4	-40.7	20.1	0.00e+00	0	25	0	163577856	52	6236
2026-01-09 18:39:55.74	28.14	7.87	-39.2	-40.4	20.4	0.00e+00	0	25	0	169869312	52	6027
2026-01-09 18:39:58.76	27.76	8.03	-39.0	-40.3	20.5	0.00e+00	0	25	0	175112192	52	5943
2026-01-09 18:40:01.79	27.37	8.18	-39.1	-40.4	20.6	0.00e+00	0	25	0	180355072	52	5985
2026-01-09 18:40:04.82	26.98	8.34	-38.9	-40.1	20.8	0.00e+00	0	25	0	186646528	52	5794
2026-01-09 18:40:07.85	26.59	8.50	-39.0	-40.2	20.7	0.00e+00	0	25	0	191889408	52	5857
2026-01-09 18:40:10.88	26.19	8.66	-38.9	-40.2	20.7	0.00e+00	0	25	0	198180864	52	5858
2026-01-09 18:40:13.91	25.78	8.81	-38.9	-40.1	20.8	0.00e+00	0	25	0	203423744	52	5819
2026-01-09 18:40:16.93	25.38	8.97	-38.7	-39.9	20.9	0.00e+00	0	25	0	208666624	50	6383
2026-01-09 18:40:19.95	24.97	9.13	-38.8	-40.0	20.9	0.00e+00	0	25	0	214958080	50	6446
2026-01-09 18:40:22.98	24.55	9.28	-38.8	-40.0	21.0	0.00e+00	0	25	0	220200960	50	6395
2026-01-09 18:40:26.00	24.13	9.44	-38.6	-39.7	21.2	0.00e+00	0	25	0	226492416	50	6243
2026-01-09 18:40:29.03	23.70	9.59	-38.7	-39.9	21.1	0.00e+00	0	25	0	231735296	50	6335
2026-01-09 18:40:32.06	23.27	9.75	-38.5	-39.7	21.3	0.00e+00	0	25	0	236978176	50	6176
2026-01-09 18:40:35.08	22.84	9.90	-38.6	-39.8	21.2	0.00e+00	0	25	0	243269632	50	6257
2026-01-09 18:40:38.11	22.40	10.05	-38.6	-39.8	21.1	0.00e+00	0	25	0	248512512	50	6288
2026-01-09 18:40:41.14	21.96	10.20	-38.6	-39.7	21.3	0.00e+00	0	25	0	254803968	50	6218
2026-01-09 18:40:44.17	21.51	10.35	-38.7	-39.9	21.2	0.00e+00	0	25	0	260046848	50	6330
2026-01-09 18:40:47.19	21.05	10.50	-38.6	-39.8	21.2	0.00e+00	0	25	0	266338304	50	6251
2026-01-09 18:40:50.22	20.60	10.65	-38.4	-39.6	21.4	0.00e+00	0	25	0	271581184	50	6106
2026-01-09 18:40:53.24	20.13	10.80	-38.2	-39.4	21.7	0.00e+00	0	25	0	276824064	50	5968
2026-01-09 18:40:56.27	19.67	10.95	-38.0	-39.1	21.8	0.00e+00	0	25	0	283115520	50	5795
2026-01-09 18:40:59.29	19.19	11.10	-37.7	-38.8	22.2	0.00e+00	0	25	0	288358400	48	6260
2026-01-09 18:41:02.32	18.72	11.24	-37.4	-38.4	22.5	0.00e+00	0	25	0	294649856	48	6025
2026-01-09 18:41:05.35	18.23	11.39	-37.3	-38.3	22.6	0.00e+00	0	25	0	299892736	48	5916
2026-01-09 18:41:08.37	17.75	11.53	-37.2	-38.1	22.8	0.00e+00	0	25	0	305135616	48	5827
2026-01-09 18:41:11.40	17.25	11.67	-37.3	-38.2	22.6	0.00e+00	0	25	0	311427072	48	5894
2026-01-09 18:41:14.43	16.76	11.81	-37.2	-38.2	22.7	0.00e+00	0	25	0	316669952	48	5869
2026-01-09 18:41:17.45	16.26	11.95	-37.0	-38.0	22.9	0.00e+00	0	25	0	322961408	48	5727
2026-01-09 18:41:20.48	15.75	12.09	-36.9	-37.8	23.1	0.00e+00	0	25	0	328204288	46	6294
2026-01-09 18:41:23.51	15.24	12.23	-36.7	-37.6	23.3	0.00e+00	0	25	0	333447168	46	6151
2026-01-09 18:41:26.54	14.72	12.36	-36.6	-37.5	23.4	0.00e+00	0	25	0	339738624	46	6068
2026-01-09 18:41:29.57	14.20	12.50	-36.3	-37.2	23.4	0.00e+00	0	25	0	344981504	46	5850
2026-01-09 18:41:32.60	13.67	12.63	-36.3	-37.1	23.7	0.00e+00	0	25	0	351272960	46	5825
2026-01-09 18:41:35.63	13.14	12.76	-36.1	-37.0	23.9	0.00e+00	0	25	0	356515840	46	5723
2026-01-09 18:41:38.66	12.61	12.89	-36.3	-37.2	23.7	0.00e+00	0	25	0	362807296	46	5871
2026-01-09 18:41:41.69	12.07	13.01	-36.4	-37.3	23.5	0.00e+00	0	25	0	368050176	46	5952
2026-01-09 18:41:44.71	11.52	13.14	-36.7	-37.6	23.2	0.00e+00	0	25	0	373293056	46	6129
2026-01-09 18:41:47.73	10.97	13.26	-36.7	-37.6	23.3	0.00e+00	0	25	0	379584512	46	6133
2026-01-09 18:41:50.76	10.42	13.38	-36.6	-37.6	23.4	0.00e+00	0	25	0	384827392	46	6111
2026-01-09 18:41:53.79	9.86	13.50	-36.6	-37.6	23.4	0.00e+00	0	25	0	391118848	46	6118
2026-01-09 18:41:56.82	9.30	13.62	-36.7	-37.6	23.4	0.00e+00	0	25	0	396361728	46	6152
2026-01-09 18:41:59.85	8.73	13.73	-36.4	-37.3	23.5	0.00e+00	0	25	0	401604608	46	5937
2026-01-09 18:42:02.88	8.16	13.84	-36.6	-37.5	23.5	0.00e+00	0	25	0	407896064	46	6037
2026-01-09 18:42:05.90	7.58	13.95	-36.4	-37.3	23.7	0.00e+00	0	25	0	413138944	46	5947
2026-01-09 18:42:08.93	7.00	14.06	-36.4	-37.2	23.6	0.00e+00	0	25	0	419430400	46	5896
2026-01-09 18:42:11.95	6.42	14.16	-36.1	-37.0	23.8	0.00e+00	0	25	0	424673280	46	5739
2026-01-09 18:42:14.98	5.83	14.26	-36.3	-37.1	23.6	0.00e+00	0	25	0	430964736	46	5827
2026-01-09 18:42:18.01	5.23	14.36	-36.3	-37.2	23.7	0.00e+00	0	25	0	436207616	46	5862
2026-01-09 18:42:21.04	4.64	14.46	-36.3	-37.1	23.8	0.00e+00	0	25	0	441450496	46	5823
2026-01-09 18:42:24.07	4.04	14.55	-36.1	-37.0	23.9	0.00e+00	0	25	0	447741952	46	5715
2026-01-09 18:42:27.10	3.43	14.65	-36.1	-37.0	23.9	0.00e+00	0	25	0	452984832	46	5727
2026-01-09 18:42:30.13	2.82	14.73	-36.1	-36.9	23.9	0.00e+00	0	25	0	459276288	46	5694
2026-01-09 18:42:33.15	2.21	14.82	-36.3	-37.1	23.8	0.00e+00	0	25	0	464519168	46	5825
2026-01-09 18:42:36.18	1.59	14.90	-36.2	-37.1	23.8	0.00e+00	0	25	0	469762048	46	5791
2026-01-09 18:42:39.21	0.97	14.98	-36.2	-37.0	23.9	0.00e+00	0	25	0	476053504	46	5751
2026-01-09 18:42:42.24	0.35	15.06	-36.3	-37.2	23.6	0.00e+00	0	25	0	481296384	46	5830
2026-01-09 18:42:45.26	359.73	15.13	-36.2	-37.0	23.9	0.00e+00	0	25	0	487587840	46	5740
2026-01-09 18:42:48.29	359.10	15.20	-36.3	-37.2	23.8	0.00e+00	0	25	0	492830720	46	5842
2026-01-09 18:42:51.32	358.47	15.27	-36.5	-37.4	23.6	0.00e+00	0	25	0	499122176	46	5984
2026-01-09 18:42:54.35	357.83	15.33	-36.6	-37.5	23.5	0.00e+00	0	25	0	504365056	46	6056
2026-01-09 18:42:57.38	357.20	15.39	-36.8	-37.8	23.3	0.00e+00	0	25	0	509607936	46	6257
2026-01-09 18:43:00.41	356.56	15.44	-36.6	-37.5	23.4	0.00e+00	0	25	0	515899392	46	6084
2026-01-09 18:43:03.43	355.92	15.50	-36.4	-37.3	23.5	0.00e+00	0	25	0	521142272	46	5956
2026-01-09 18:43:06.46	355.27	15.55	-36.6	-37.5	23.5	0.00e+00	0	25	0	527433728	46	6076
2026-01-09 18:43:09.48	354.63	15.59	-36.4	-37.3	23.6	0.00e+00	0	25	0	532676608	46	5948
2026-01-09 18:43:12.51	353.98	15.63	-36.6	-37.5	23.5	0.00e+00	0	25	0	537919488	46	6047
2026-01-09 18:43:15.54	353.33	15.67	-36.6	-37.5	23.2	0.00e+00	0	25	0	544210944	46	6089
2026-01-09 18:43:18.56	352.68	15.71	-36.6	-37.5	23.5	0.00e+00	0	25	0	549453824	46	6055
2026-01-09 18:43:21.59	352.03	15.74	-36.6	-37.5	23.6	0.00e+00	0	25	0	555745280	46	6078
2026-01-09 18:43:24.62	351.37	15.76	-36.8	-37.7	23.5	0.00e+00	0	25	0	560988160	46	6202
2026-01-09 18:43:27.65	350.72	15.79	-36.7	-37.6	23.4	0.00e+00	0	25	0	566231040	46	6148
2026-01-09 18:43:30.67	350.06	15.81	-36.8	-37.7	23.3	0.00e+00	0	25	0	572522496	46	6199
2026-01-09 18:43:33.70	349.40	15.82	-36.7	-37.6	23.4	0.00e+00	0	25	0	577765376	46	6171
2026-01-09 18:43:36.73	348.75	15.83	-36.6	-37.5	23.6	0.00e+00	0	25	0	584056832	46	6060
2026-01-09 18:43:39.76	348.09	15.84	-36.4	-37.3	23.6	0.00e+00	0	25	0	589299712	46	5933
2026-01-09 18:43:42.79	347.43	15.85	-36.5	-37.4	23.6	0.00e+00	0	25	0	595591168	46	6028
2026-01-09 18:43:45.81	346.77	15.85	-36.8	-37.7	23.3	0.00e+00	0	25	0	600834048	46	6244
2026-01-09 18:43:48.84	346.11	15.84	-36.6	-37.6	23.4	0.00e+00	0	25	0	606076928	46	6118
2026-01-09 18:43:51.87	345.46	15.84	-36.5	-37.4	23.4	0.00e+00	0	25	0	612368384	46	6021
2026-01-09 18:43:54.89	344.80	15.82	-36.7	-37.7	23.4	0.00e+00	0	25	0	617611264	46	6184
2026-01-09 18:43:57.92	344.14	15.81	-36.7	-37.7	23.3	0.00e+00	0	25	0	623902720	46	6203
2026-01-09 18:44:00.95	343.49	15.79	-36.8	-37.8	23.3	0.00e+00	0	25	0	629145600	46	6259
2026-01-09 18:44:03.97	342.83	15.77	-36.8	-37.8	23.2	0.00e+00	0	25	0	634388480	46	6271
2026-01-09 18:44:06.99	342.18	15.74	-36.9	-37.9	23.1	0.00e+00	0	25	0	640679936	46	6340
2026-01-09 18:44:10.02	341.53	15.71	-36.7	-37.7	23.3	0.00e+00	0	25	0	645922816	46	6192
2026-01-09 18:44:13.05	340.87	15.68	-36.7	-37.6	23.4	0.00e+00	0	25	0	652214272	46	6149
2026-01-09 18:44:16.08	340.22	15.64	-36.7	-37.7	23.3	0.00e+00	0	25	0	657457152	46	6190
2026-01-09 18:44:19.11	339.57	15.60	-36.6	-37.6	23.3	0.00e+00	0	25	0	662700032	46	6148
2026-01-09 18:44:22.14	338.93	15.56	-36.7	-37.7	23.2	0.00e+00	0	25	0	668991488	46	6183
2026-01-09 18:44:25.16	338.28	15.51	-36.5	-37.4	23.4	0.00e+00	0	25	0	674234368	46	6005
2026-01-09 18:44:28.19	337.64	15.46	-36.6	-37.6	23.4	0.00e+00	0	25	0	680525824	46	6116
2026-01-09 18:44:31.21	337.00	15.40	-36.4	-37.3	23.7	0.00e+00	0	25	0	685768704	46	5906
2026-01-09 18:44:34.24	336.36	15.34	-36.1	-37.0	23.9	0.00e+00	0	25	0	692060160	46	5708
2026-01-09 18:44:37.26	335.73	15.28	-36.3	-37.2	23.6	0.00e+00	0	25	0	697303040	46	5850
2026-01-09 18:44:40.29	335.10	15.22	-36.6	-37.5	23.4	0.00e+00	0	25	0	702545920	46	6060
2026-01-09 18:44:43.32	334.47	15.15	-36.6	-37.5	23.5	0.00e+00	0	25	0	708837376	46	6089
2026-01-09 18:44:46.35	333.84	15.07	-36.5	-37.4	23.6	0.00e+00	0	25	0	714080256	46	5967
2026-01-09 18:44:49.38	333.22	15.00	-36.4	-37.3	23.7	0.00e+00	0	25	0	720371712	46	5926
2026-01-09 18:44:52.40	332.60	14.92	-36.5	-37.4	23.5	0.00e+00	0	25	0	725614592	46	6026
2026-01-09 18:44:55.43	331.98	14.84	-36.7	-37.7	23.3	0.00e+00	0	25	0	730857472	46	6191
2026-01-09 18:44:58.46	331.37	14.75	-37.1	-38.1	23.0	0.00e+00	0	25	0	737148928	46	6467
2026-01-09 18:45:01.48	330.76	14.67	-37.0	-38.0	23.1	0.00e+00	0	25	0	742391808	46	6414
2026-01-09 18:45:04.51	330.15	14.58	-37.1	-38.0	23.1	0.00e+00	0	25	0	748683264	46	6447
2026-01-09 18:45:07.54	329.55	14.48	-37.0	-37.9	23.1	0.00e+00	0	25	0	753926144	46	6387
2026-01-09 18:45:10.57	328.95	14.39	-36.9	-37.8	23.2	0.00e+00	0	25	0	760217600	46	6302
2026-01-09 18:45:13.59	328.36	14.29	-36.5	-37.4	23.6	0.00e+00	0	25	0	765460480	46	5999
2026-01-09 18:45:16.62	327.77	14.19	-36.6	-37.5	23.4	0.00e+00	0	25	0	770703360	46	6076
2026-01-09 18:45:19.65	327.18	14.08	-36.6	-37.5	23.4	0.00e+00	0	25	0	776994816	46	6078
2026-01-09 18:45:22.67	326.60	13.98	-36.5	-37.4	23.4	0.00e+00	0	25	0	782237696	46	6014
2026-01-09 18:45:25.69	326.02	13.87	-36.5	-37.4	23.6	0.00e+00	0	25	0	788529152	46	5994
2026-01-09 18:45:28.72	325.45	13.76	-36.6	-37.5	23.5	0.00e+00	0	25	0	793772032	46	6088
2026-01-09 18:45:31.75	324.88	13.64	-36.5	-37.4	23.5	0.00e+00	0	25	0	799014912	46	6010
2026-01-09 18:45:34.77	324.32	13.53	-36.6	-37.5	23.5	0.00e+00	0	25	0	805306368	46	6053
2026-01-09 18:45:37.80	323.76	13.41	-36.5	-37.5	23.5	0.00e+00	0	25	0	810549248	46	6044
2026-01-09 18:45:40.82	323.20	13.29	-36.6	-37.5	23.5	0.00e+00	0	25	0	816840704	46	6083
2026-01-09 18:45:43.85	322.65	13.17	-36.6	-37.5	23.5	0.00e+00	0	25	0	822083584	46	6069
2026-01-09 18:45:46.88	322.11	13.04	-36.5	-37.4	23.6	0.00e+00	0	25	0	827326464	46	5985
2026-01-09 18:45:49.90	321.56	12.92	-36.9	-37.8	23.2	0.00e+00	0	25	0	833617920	46	6274
2026-01-09 18:45:52.92	321.03	12.79	-37.3	-38.3	22.8	0.00e+00	0	25	0	838860800	46	6643
2026-01-09 18:45:55.95	320.50	12.66	-37.4	-38.4	22.6	0.00e+00	0	25	0	845152256	46	6707
2026-01-09 18:45:58.97	319.97	12.53	-37.5	-38.5	22.5	0.00e+00	0	25	0	850395136	46	6811
2026-01-09 18:46:02.01	319.45	12.39	-37.6	-38.6	22.5	0.00e+00	0	25	0	855638016	46	6876
2026-01-09 18:46:05.03	318.93	12.26	-37.8	-38.8	22.4	0.00e+00	0	25	0	861929472	48	6263
2026-01-09 18:46:08.06	318.42	12.12	-38.1	-39.1	21.9	0.00e+00	0	25	0	867172352	48	6525
2026-01-09 18:46:11.09	317.91	11.99	-38.4	-39.5	21.5	0.00e+00	0	25	0	873463808	48	6809
2026-01-09 18:46:14.11	317.40	11.85	-38.5	-39.7	21.5	0.00e+00	0	25	0	878706688	48	6933
2026-01-09 18:46:17.13	316.91	11.71	-38.6	-39.7	21.4	0.00e+00	0	25	0	884998144	48	6973
2026-01-09 18:46:20.16	316.41	11.56	-38.6	-39.8	21.2	0.00e+00	0	25	0	890241024	48	7020
2026-01-09 18:46:23.19	315.92	11.42	-38.7	-39.9	21.2	0.00e+00	0	25	0	895483904	48	7098
2026-01-09 18:46:26.21	315.44	11.28	-39.3	-40.5	20.7	0.00e+00	0	25	0	901775360	50	6839
2026-01-09 18:46:29.24	314.96	11.13	-39.2	-40.4	20.8	0.00e+00	0	25	0	907018240	50	6755
2026-01-09 18:46:32.27	314.49	10.99	-39.2	-40.4	20.8	0.00e+00	0	25	0	913309696	50	6736
2026-01-09 18:46:35.29	314.02	10.84	-39.3	-40.5	20.6	0.00e+00	0	25	0	918552576	50	6843
2026-01-09 18:46:38.32	313.55	10.69	-39.3	-40.6	20.5	0.00e+00	0	25	0	923795456	50	6903
2026-01-09 18:46:41.34	313.09	10.54	-39.3	-40.6	20.5	0.00e+00	0	25	0	930086912	50	6886
2026-01-09 18:46:44.37	312.64	10.39	-39.4	-40.7	20.5	0.00e+00	0	25	0	935329792	50	6961
2026-01-09 18:46:47.40	312.19	10.24	-39.5	-40.7	20.4	0.00e+00	0	25	0	941621248	50	7000
2026-01-09 18:46:50.43	311.74	10.09	-39.5	-40.8	20.3	0.00e+00	0	25	0	946864128	50	7008
2026-01-09 18:46:53.46	311.30	9.94	-39.4	-40.6	20.5	0.00e+00	0	25	0	952107008	50	6922
2026-01-09 18:46:56.48	310.86	9.78	-39.3	-40.5	20.6	0.00e+00	0	25	0	958398464	50	6840
2026-01-09 18:46:59.50	310.43	9.63	-39.1	-40.3	20.9	0.00e+00	0	25	0	963641344	50	6643
2026-01-09 18:47:02.53	310.01	9.47	-39.0	-40.2	20.9	0.00e+00	0	25	0	969932800	50	6575
2026-01-09 18:47:05.56	309.58	9.32	-38.8	-40.0	21.1	0.00e+00	0	25	0	975175680	50	6402
2026-01-09 18:47:08.59	309.16	9.16	-38.6	-39.8	21.2	0.00e+00	0	25	0	981467136	50	6247
2026-01-09 18:47:11.62	308.75	9.01	-38.6	-39.7	21.3	0.00e+00	0	25	0	986710016	50	6245
2026-01-09 18:47:14.65	308.34	8.85	-38.5	-39.7	21.4	0.00e+00	0	25	0	991952896	50	6175
2026-01-09 18:47:17.67	307.94	8.70	-38.4	-39.5	21.4	0.00e+00	0	25	0	998244352	50	6095
2026-01-09 18:47:20.69	307.54	8.54	-38.0	-39.1	21.9	0.00e+00	0	25	0	1003487232	50	5768
2026-01-09 18:47:23.72	307.14	8.38	-37.8	-38.9	22.0	0.00e+00	0	25	0	1009778688	50	5651
2026-01-09 18:47:26.75	306.75	8.22	-37.5	-38.6	22.3	0.00e+00	0	25	0	1015021568	48	6123
2026-01-09 18:47:29.77	306.36	8.06	-37.8	-38.8	22.2	0.00e+00	0	25	0	1020264448	48	6287
2026-01-09 18:47:32.80	305.98	7.91	-37.6	-38.6	22.3	0.00e+00	0	25	0	1026555904	48	6135
2026-01-09 18:47:35.83	305.60	7.75	-37.4	-38.5	22.3	0.00e+00	0	25	0	1031798784	48	6040
2026-01-09 18:47:38.86	305.23	7.59	-37.3	-38.3	22.5	0.00e+00	0	25	0	1038090240	48	5926
2026-01-09 18:47:41.88	304.86	7.43	-37.3	-38.3	22.3	0.00e+00	0	25	0	1043333120	48	5915
2026-01-09 18:47:44.91	304.49	7.27	-37.2	-38.2	22.5	0.00e+00	0	25	0	1048576000	48	5848
2026-01-09 18:47:47.94	304.13	7.11	-37.4	-38.5	22.3	0.00e+00	0	25	0	1054867456	48	6034
2026-01-09 18:47:50.97	303.77	6.95	-37.6	-38.6	22.1	0.00e+00	0	25	0	1060110336	48	6141
2026-01-09 18:47:53.99	303.42	6.79	-37.5	-38.5	22.2	0.00e+00	0	25	0	1066401792	48	6094
2026-01-09 18:47:57.02	303.07	6.63	-37.5	-38.5	22.2	0.00e+00	0	25	0	1071644672	48	6095
2026-01-09 18:48:00.05	302.72	6.47	-37.4	-38.5	22.2	0.00e+00	0	25	0	1077936128	48	6051
2026-01-09 18:48:03.08	302.38	6.31	-37.5	-38.5	22.2	0.00e+00	0	25	0	1083179008	48	6097
2026-01-09 18:48:06.11	302.04	6.16	-37.9	-39.0	21.7	0.00e+00	0	25	0	1088421888	48	6398
2026-01-09 18:48:09.13	301.70	6.00	-38.0	-39.1	21.6	0.00e+00	0	25	0	1094713344	48	6503
2026-01-09 18:48:12.16	301.37	5.84	-38.1	-39.2	21.5	0.00e+00	0	25	0	1099956224	48	6570
2026-01-09 18:48:15.19	301.05	5.68	-37.9	-39.0	21.7	0.00e+00	0	25	0	1106247680	48	6405
2026-01-09 18:48:18.22	300.72	5.52	-37.8	-38.9	21.8	0.00e+00	0	25	0	1111490560	48	6331
2026-01-09 18:48:21.25	300.40	5.36	-37.9	-39.0	21.6	0.00e+00	0	25	0	1116733440	48	6440
2026-01-09 18:48:24.27	300.09	5.20	-38.2	-39.3	21.3	0.00e+00	0	25	0	1123024896	48	6662
2026-01-09 18:48:27.29	299.77	5.04	-38.4	-39.5	21.0	0.00e+00	0	25	0	1128267776	48	6841
2026-01-09 18:48:30.32	299.46	4.88	-38.6	-39.8	20.8	0.00e+00	0	25	0	1134559232	48	7038
2026-01-09 18:48:33.35	299.16	4.73	-38.7	-39.9	20.6	0.00e+00	0	25	0	1139802112	48	7161
2026-01-09 18:48:36.37	298.86	4.57	-38.9	-40.1	20.4	0.00e+00	0	25	0	1146093568	50	6532
2026-01-09 18:48:39.40	298.56	4.41	-39.0	-40.3	20.3	0.00e+00	0	26	0	1151336448	50	6628
2026-01-09 18:48:42.43	298.26	4.25	-39.2	-40.6	20.0	0.00e+00	0	26	0	1156579328	50	6857
2026-01-09 18:48:45.46	297.97	4.09	-39.1	-40.5	20.0	0.00e+00	0	25	0	1162870784	50	6795
2026-01-09 18:48:48.49	297.68	3.94	-39.4	-40.9	19.5	0.00e+00	0	25	0	1168113664	50	7122
2026-01-09 18:48:51.52	297.39	3.78	-39.8	-41.4	19.1	0.00e+00	0	25	0	1174405120	52	6710
2026-01-09 18:48:54.55	297.11	3.62	-39.7	-41.2	19.2	0.00e+00	0	25	0	1179648000	52	6610
2026-01-09 18:48:57.58	296.83	3.47	-39.9	-41.5	18.9	0.00e+00	0	26	0	1184890880	52	6776
2026-01-09 18:49:00.60	296.55	3.31	-40.0	-41.6	18.7	0.00e+00	0	25	0	1191182336	52	6921
2026-01-09 18:49:03.63	296.28	3.15	-40.1	-41.8	18.5	0.00e+00	0	25	0	1196425216	52	7059
2026-01-09 18:49:06.66	296.01	3.00	-46.3	-60.6	3.6	4.50e-01	0	25	104	1201668096	60	38766
2026-01-09 18:49:09.68	295.74	2.84	-47.6	-62.8	3.6	1.51e+00	0	25	104	1201668096	60	49712
2026-01-09 18:49:12.71	295.47	2.69	-47.8	-63.0	3.6	1.51e+00	0	25	104	1201668096	60	51014
2026-01-09 18:49:15.74	295.21	2.53	-47.8	-63.0	3.6	1.51e+00	0	26	104	1201668096	60	50908
2026-01-09 18:49:18.78	294.95	2.38	-47.7	-63.0	3.6	1.51e+00	0	25	104	1201668096	60	50765
2026-01-09 18:49:21.81	294.69	2.22	-47.5	-62.8	3.6	1.51e+00	0	25	104	1201668096	60	49986
2026-01-09 18:49:24.84	294.44	2.07	-47.7	-62.9	3.6	1.51e+00	0	26	104	1201668096	60	50449
2026-01-09 18:49:27.86	294.19	1.91	-47.7	-62.9	3.6	1.51e+00	0	26	104	1201668096	60	50300
2026-01-09 18:49:30.89	293.94	1.76	-47.6	-62.9	3.6	1.51e+00	0	26	104	1201668096	60	50242
2026-01-09 18:49:33.92	293.69	1.61	-47.7	-62.8	3.6	1.51e+00	0	26	104	1201668096	60	50046
2026-01-09 18:49:36.95	293.45	1.45	-47.6	-62.8	3.6	1.51e+00	0	26	104	1201668096	60	50041
2026-01-09 18:49:39.98	293.21	1.30	-47.7	-62.8	3.6	1.51e+00	0	26	104	1201668096	60	50173
2026-01-09 18:49:43.00	292.97	1.15	-47.6	-62.8	3.6	1.51e+00	0	26	104	1201668096	60	49677
2026-01-09 18:49:46.03	292.74	1.00	-47.7	-62.8	3.6	1.51e+00	0	26	104	1201668096	60	49947
2026-01-09 18:49:49.06	292.50	0.85	-47.6	-62.8	3.6	1.51e+00	0	26	104	1201668096	60	49818
2026-01-09 18:49:52.09	292.27	0.69	-47.6	-62.8	3.6	1.51e+00	0	26	104	1201668096	60	49992
2026-01-09 18:49:55.12	292.04	0.54	-47.7	-62.9	3.6	1.51e+00	0	26	104	1201668096	60	50260
2026-01-09 18:49:58.15	291.82	0.39	-47.6	-62.8	3.5	1.51e+00	0	26	104	1201668096	60	49818
2026-01-09 18:50:01.17	291.60	0.24	-47.6	-62.8	3.6	1.51e+00	0	26	104	1201668096	60	49862
2026-01-09 18:50:04.20	291.38	0.09	-47.7	-62.8	3.6	1.51e+00	0	26	104	1201668096	60	50048

#Closed at: 2026-01-09 18:50:06
#Recorded file [1201 MB]: D:/lorett/data/35029_260110_063724.dat