passes_logs/2026/01/09/R4.6S_Anadyr/R4.6S_Anadyr__20260109_035713_FENGYUN_3E_rec.log

#Pass ID: 20260109_035713_FENGYUN 3E
#Satellite: FENGYUN 3E
#Configuration: FENGYUN 3E
#almurnet v.1.7.20251203
#Start time: 2026-01-09 03:57:16

#Version: 2.2.20231116
#Station: R4.6S_Anadyr
#Location: 177.4865 lon 64.73178 lat
#TLE: 1 49008U 21062A   26008.31124991 -.00000020  00000+0  11209-4 0  9997
#TLE: 2 49008  98.7482  13.5177 0001702 150.1462 209.9812 14.19884205233892

#Time	Az	El	Level	Level2	SNR	BER	BlckErr	Temp	State	Recorded	gain1	gain2
2026-01-09 03:57:16.97	142.81	0.19	-47.9	-57.7	3.3	8.40e-01	0	31	0	0	60	27647
2026-01-09 03:57:21.00	142.76	0.43	-48.0	-59.2	3.6	8.46e-01	0	31	104	0	60	32789
2026-01-09 03:57:25.04	142.71	0.68	-47.6	-58.8	3.6	8.45e-01	0	31	104	0	60	31505
2026-01-09 03:57:29.07	142.66	0.92	-45.8	-57.1	3.6	8.46e-01	0	31	104	0	60	25759
2026-01-09 03:57:33.11	142.61	1.17	-44.8	-55.5	3.6	8.45e-01	0	31	104	0	60	21573
2026-01-09 03:57:37.15	142.55	1.43	-44.8	-56.1	3.6	8.45e-01	0	32	104	0	60	23190
2026-01-09 03:57:41.19	142.50	1.68	-44.7	-55.4	3.6	8.45e-01	0	32	104	0	60	21318
2026-01-09 03:57:45.23	142.44	1.94	-44.7	-55.5	3.6	8.45e-01	0	32	104	0	60	21565
2026-01-09 03:57:49.27	142.39	2.19	-44.7	-55.5	3.6	8.46e-01	0	32	104	0	60	21494
2026-01-09 03:57:53.31	142.33	2.46	-44.7	-55.4	3.5	8.45e-01	0	32	104	0	60	21268
2026-01-09 03:57:57.35	142.27	2.72	-44.6	-55.0	3.6	8.46e-01	0	32	104	0	60	20396
2026-01-09 03:58:01.37	142.21	2.98	-43.9	-53.0	3.6	8.43e-01	0	32	104	0	60	16205
2026-01-09 03:58:05.41	142.15	3.25	-43.5	-48.1	6.0	6.29e-01	0	32	0	1048576	60	9190
2026-01-09 03:58:09.44	142.09	3.52	-42.8	-46.5	7.4	1.19e-01	0	32	0	30408704	60	7607
2026-01-09 03:58:13.48	142.03	3.80	-45.0	-55.9	3.6	8.46e-01	0	32	104	54525952	60	22648
2026-01-09 03:58:17.52	141.96	4.07	-44.3	-50.0	4.4	8.02e-01	0	32	0	59768832	60	11467
2026-01-09 03:58:21.55	141.89	4.35	-40.4	-42.2	12.1	5.58e-04	0	32	0	87031808	54	6610
2026-01-09 03:58:25.59	141.83	4.63	-40.4	-42.2	12.8	6.75e-05	0	32	0	116391936	54	6580
2026-01-09 03:58:29.63	141.76	4.92	-40.3	-42.1	12.9	4.80e-05	0	32	0	145752064	54	6516
2026-01-09 03:58:33.67	141.68	5.21	-40.3	-42.1	13.0	1.94e-05	0	32	0	175112192	54	6503
2026-01-09 03:58:37.71	141.61	5.50	-40.1	-41.9	13.3	1.71e-05	0	32	0	204472320	54	6335
2026-01-09 03:58:41.75	141.54	5.79	-40.0	-41.7	13.7	3.40e-06	0	32	0	233832448	54	6190
2026-01-09 03:58:45.79	141.46	6.09	-39.7	-41.2	14.3	4.50e-06	0	32	0	262144000	52	6542
2026-01-09 03:58:49.82	141.38	6.39	-39.2	-40.6	15.0	0.00e+00	0	32	0	291504128	52	6153
2026-01-09 03:58:53.86	141.30	6.70	-38.6	-39.8	15.6	0.00e+00	0	32	0	320864256	50	6295
2026-01-09 03:58:57.90	141.22	7.01	-38.2	-39.4	16.4	0.00e+00	0	32	0	350224384	50	5973
2026-01-09 03:59:01.93	141.13	7.32	-37.2	-38.1	17.6	0.00e+00	0	32	0	379584512	48	5815
2026-01-09 03:59:05.97	141.05	7.63	-36.7	-37.6	18.3	0.00e+00	0	32	0	407896064	46	6118
2026-01-09 03:59:10.01	140.96	7.95	-36.1	-36.9	18.9	0.00e+00	0	32	0	437256192	46	5688
2026-01-09 03:59:14.04	140.87	8.28	-35.3	-36.0	19.9	0.00e+00	0	32	0	466616320	44	5745
2026-01-09 03:59:18.08	140.77	8.60	-34.9	-35.6	20.5	0.00e+00	0	32	0	495976448	42	6112
2026-01-09 03:59:22.12	140.68	8.94	-34.3	-34.9	21.3	0.00e+00	0	32	0	524288000	42	5678
2026-01-09 03:59:26.15	140.58	9.27	-33.9	-34.5	21.9	0.00e+00	0	32	0	553648128	42	5434
2026-01-09 03:59:30.19	140.48	9.61	-33.8	-34.4	22.0	0.00e+00	0	32	0	583008256	40	6011
2026-01-09 03:59:34.23	140.38	9.96	-33.5	-34.1	22.3	0.00e+00	0	32	0	612368384	40	5827
2026-01-09 03:59:38.28	140.27	10.31	-33.3	-33.9	22.6	0.00e+00	0	32	0	641728512	40	5657
2026-01-09 03:59:42.31	140.16	10.66	-33.2	-33.7	22.8	0.00e+00	0	32	0	670040064	40	5566
2026-01-09 03:59:46.35	140.05	11.02	-32.7	-33.3	23.1	0.00e+00	0	32	0	699400192	38	5929
2026-01-09 03:59:50.38	139.93	11.39	-32.4	-32.9	23.8	0.00e+00	0	32	0	728760320	38	5681
2026-01-09 03:59:54.41	139.81	11.76	-32.1	-32.6	24.2	0.00e+00	0	32	0	758120448	38	5487
2026-01-09 03:59:58.45	139.69	12.14	-31.7	-32.2	24.7	0.00e+00	0	32	0	787480576	36	5888
2026-01-09 04:00:02.48	139.57	12.52	-31.3	-31.9	25.1	0.00e+00	0	32	0	815792128	36	5633
2026-01-09 04:00:06.52	139.44	12.91	-31.1	-31.6	25.3	0.00e+00	0	32	0	845152256	36	5487
2026-01-09 04:00:10.56	139.31	13.30	-30.5	-31.0	25.8	0.00e+00	0	32	0	874512384	34	5758
2026-01-09 04:00:14.60	139.17	13.70	-30.3	-30.8	26.0	0.00e+00	0	32	0	903872512	34	5628
2026-01-09 04:00:18.64	139.03	14.11	-30.3	-30.8	26.1	0.00e+00	0	32	0	933232640	34	5604
2026-01-09 04:00:22.68	138.88	14.52	-30.1	-30.6	26.3	0.00e+00	0	32	0	961544192	34	5490
2026-01-09 04:00:26.72	138.73	14.94	-30.0	-30.5	26.5	0.00e+00	0	32	0	990904320	34	5403
2026-01-09 04:00:30.76	138.58	15.37	-30.0	-30.5	26.4	0.00e+00	0	32	0	1020264448	34	5425
2026-01-09 04:00:34.80	138.42	15.81	-29.8	-30.3	26.6	0.00e+00	0	32	0	1049624576	34	5268
2026-01-09 04:00:38.83	138.26	16.25	-29.9	-30.3	26.6	0.00e+00	0	32	0	1078984704	34	5314
2026-01-09 04:00:42.87	138.09	16.70	-29.8	-30.3	26.6	0.00e+00	0	32	0	1107296256	34	5299
2026-01-09 04:00:46.91	137.91	17.16	-29.8	-30.3	26.7	0.00e+00	0	32	0	1136656384	32	5917
2026-01-09 04:00:50.94	137.73	17.63	-29.3	-29.8	27.1	0.00e+00	0	32	0	1166016512	32	5580
2026-01-09 04:00:54.98	137.54	18.11	-29.4	-29.9	27.0	0.00e+00	0	32	0	1195376640	32	5675
2026-01-09 04:00:59.01	137.35	18.59	-29.1	-29.6	27.3	0.00e+00	0	32	0	1223688192	32	5460
2026-01-09 04:01:03.05	137.15	19.09	-29.1	-29.6	27.2	0.00e+00	0	32	0	1253048320	32	5443
2026-01-09 04:01:07.09	136.94	19.59	-29.3	-29.8	27.2	0.00e+00	0	32	0	1282408448	32	5577
2026-01-09 04:01:11.12	136.73	20.10	-28.8	-29.3	27.5	0.00e+00	0	32	0	1311768576	32	5267
2026-01-09 04:01:15.16	136.50	20.63	-28.8	-29.2	27.5	0.00e+00	0	32	0	1341128704	32	5254
2026-01-09 04:01:19.20	136.27	21.17	-28.8	-29.3	27.5	0.00e+00	0	32	0	1369440256	30	5904
2026-01-09 04:01:23.23	136.03	21.71	-28.8	-29.3	27.6	0.00e+00	0	32	0	1398800384	30	5903
2026-01-09 04:01:27.27	135.78	22.27	-28.6	-29.1	27.7	0.00e+00	0	32	0	1428160512	30	5776
2026-01-09 04:01:31.30	135.53	22.84	-28.3	-28.7	28.0	0.00e+00	0	32	0	1457520640	30	5565
2026-01-09 04:01:35.34	135.26	23.42	-28.3	-28.7	28.0	0.00e+00	0	32	0	1486880768	30	5557
2026-01-09 04:01:39.37	134.98	24.01	-28.1	-28.5	28.1	0.00e+00	0	32	0	1515192320	30	5415
2026-01-09 04:01:43.41	134.69	24.62	-28.2	-28.6	28.1	0.00e+00	0	32	0	1544552448	30	5488
2026-01-09 04:01:47.45	134.38	25.24	-28.2	-28.7	28.1	0.00e+00	0	33	0	1573912576	30	5508
2026-01-09 04:01:51.49	134.07	25.88	-28.2	-28.6	28.1	0.00e+00	0	32	0	1603272704	30	5490
2026-01-09 04:01:55.53	133.74	26.53	-28.3	-28.8	28.0	0.00e+00	0	32	0	1632632832	30	5582
2026-01-09 04:01:59.57	133.40	27.20	-28.5	-29.0	28.1	0.00e+00	0	32	0	1660944384	30	5741
2026-01-09 04:02:03.61	133.04	27.88	-28.2	-28.7	28.1	0.00e+00	0	32	0	1690304512	30	5544
2026-01-09 04:02:07.65	132.66	28.57	-28.3	-28.8	28.0	0.00e+00	0	32	0	1719664640	30	5572
2026-01-09 04:02:11.68	132.27	29.28	-28.0	-28.4	28.3	0.00e+00	0	32	0	1749024768	30	5359
2026-01-09 04:02:15.72	131.86	30.01	-27.7	-28.1	28.6	0.00e+00	0	33	0	1777336320	28	5807
2026-01-09 04:02:19.76	131.43	30.76	-27.5	-28.0	28.6	0.00e+00	0	32	0	1806696448	28	5735
2026-01-09 04:02:23.80	130.98	31.52	-27.7	-28.2	28.5	0.00e+00	0	33	0	1836056576	28	5837
2026-01-09 04:02:27.83	130.50	32.30	-27.8	-28.2	28.4	0.00e+00	0	33	0	1865416704	28	5875
2026-01-09 04:02:31.87	130.00	33.10	-27.8	-28.2	28.5	0.00e+00	0	32	0	1894776832	28	5880
2026-01-09 04:02:35.91	129.48	33.92	-27.8	-28.2	28.5	0.00e+00	0	33	0	1924136960	28	5885
2026-01-09 04:02:39.94	128.93	34.76	-27.5	-27.9	28.7	0.00e+00	0	33	0	1952448512	28	5671
2026-01-09 04:02:43.98	128.35	35.62	-27.4	-27.9	28.7	0.00e+00	0	32	0	1981808640	28	5635
2026-01-09 04:02:48.02	127.73	36.49	-27.6	-28.0	28.6	0.00e+00	0	32	0	2011168768	28	5739
2026-01-09 04:02:52.05	127.08	37.39	-27.7	-28.1	28.5	0.00e+00	0	32	0	2040528896	28	5819
2026-01-09 04:02:56.09	126.39	38.31	-28.1	-28.6	28.3	0.00e+00	0	32	0	2069889024	28	6138
2026-01-09 04:03:00.13	125.66	39.25	-28.0	-28.5	28.2	0.00e+00	0	33	0	2098200576	28	6073
2026-01-09 04:03:04.16	124.89	40.20	-28.4	-28.9	28.0	0.00e+00	0	33	0	2127560704	28	6339
2026-01-09 04:03:08.20	124.07	41.18	-28.3	-28.8	28.2	0.00e+00	0	33	0	2156920832	28	6255
2026-01-09 04:03:12.23	123.20	42.18	-27.8	-28.3	28.6	0.00e+00	0	33	0	2186280960	28	5917
2026-01-09 04:03:16.27	122.27	43.20	-27.8	-28.2	28.5	0.00e+00	0	33	0	2214592512	28	5893
2026-01-09 04:03:20.31	121.27	44.23	-28.6	-29.1	27.8	0.00e+00	0	33	0	2243952640	28	6466
2026-01-09 04:03:24.34	120.21	45.29	-28.4	-28.9	28.0	0.00e+00	0	33	0	2273312768	30	5634
2026-01-09 04:03:28.38	119.07	46.36	-28.2	-28.7	28.1	0.00e+00	0	33	0	2302672896	30	5528
2026-01-09 04:03:32.41	117.86	47.44	-29.1	-29.5	27.4	0.00e+00	0	33	0	2330984448	30	6088
2026-01-09 04:03:36.45	116.55	48.54	-29.6	-30.0	27.1	0.00e+00	0	33	0	2360344576	30	6462
2026-01-09 04:03:40.49	115.15	49.64	-29.1	-29.6	27.4	0.00e+00	0	33	0	2389704704	30	6119
2026-01-09 04:03:44.52	113.64	50.76	-29.1	-29.6	27.6	0.00e+00	0	32	0	2419064832	30	6120
2026-01-09 04:03:48.55	112.02	51.87	-29.2	-29.7	27.4	0.00e+00	0	33	0	2448424960	30	6209
2026-01-09 04:03:52.59	110.26	52.99	-29.2	-29.7	27.4	0.00e+00	0	33	0	2477785088	32	5511
2026-01-09 04:03:56.62	108.37	54.10	-29.7	-30.2	27.0	0.00e+00	0	33	0	2506096640	32	5850
2026-01-09 04:04:00.66	106.32	55.21	-29.9	-30.4	26.8	0.00e+00	0	32	0	2535456768	32	6021
2026-01-09 04:04:04.70	104.10	56.29	-29.5	-30.0	27.2	0.00e+00	0	32	0	2564816896	32	5760
2026-01-09 04:04:08.74	101.71	57.36	-29.7	-30.2	27.0	0.00e+00	0	32	0	2594177024	32	5843
2026-01-09 04:04:12.78	99.12	58.38	-29.3	-29.7	27.2	0.00e+00	0	33	0	2622488576	32	5556
2026-01-09 04:04:16.81	96.34	59.37	-29.2	-29.6	27.3	0.00e+00	0	33	0	2651848704	32	5483
2026-01-09 04:04:20.85	93.33	60.30	-29.3	-29.8	27.2	0.00e+00	0	32	0	2681208832	32	5597
2026-01-09 04:04:24.89	90.11	61.18	-29.6	-30.1	27.0	0.00e+00	0	32	0	2710568960	32	5826
2026-01-09 04:04:28.92	86.67	61.97	-28.9	-29.3	27.6	0.00e+00	0	33	0	2738880512	30	5939
2026-01-09 04:04:32.96	83.00	62.68	-29.2	-29.6	27.4	0.00e+00	0	33	0	2768240640	30	6173
2026-01-09 04:04:37.00	79.13	63.29	-28.3	-28.8	28.0	0.00e+00	0	33	0	2797600768	30	5584
2026-01-09 04:04:41.04	75.06	63.80	-28.9	-29.4	27.7	0.00e+00	0	33	0	2826960896	30	6022
2026-01-09 04:04:45.08	70.84	64.18	-28.5	-29.0	27.9	0.00e+00	0	32	0	2856321024	30	5733
2026-01-09 04:04:49.12	66.51	64.43	-27.5	-27.9	28.6	0.00e+00	0	32	0	2885681152	28	5690
2026-01-09 04:04:53.15	62.11	64.55	-28.0	-28.5	28.3	0.00e+00	0	33	0	2913992704	28	6051
2026-01-09 04:04:57.19	57.68	64.54	-28.0	-28.5	28.2	0.00e+00	0	33	0	2943352832	28	6039
2026-01-09 04:05:01.23	53.28	64.39	-28.1	-28.5	28.1	0.00e+00	0	33	0	2972712960	28	6092
2026-01-09 04:05:05.26	48.98	64.10	-28.3	-28.7	28.0	0.00e+00	0	32	0	3002073088	28	6220
2026-01-09 04:05:09.30	44.80	63.69	-27.9	-28.4	28.3	0.00e+00	0	33	0	3031433216	28	6016
2026-01-09 04:05:13.34	40.78	63.17	-28.4	-28.9	27.9	0.00e+00	0	33	0	3059744768	28	6327
2026-01-09 04:05:17.38	36.95	62.53	-28.7	-29.2	27.7	0.00e+00	0	33	0	3089104896	28	6575
2026-01-09 04:05:21.42	33.34	61.80	-28.6	-29.1	27.6	0.00e+00	0	33	0	3118465024	30	5774
2026-01-09 04:05:25.45	29.95	60.99	-28.9	-29.3	27.6	0.00e+00	0	33	0	3147825152	30	5963
2026-01-09 04:05:29.49	26.78	60.10	-29.1	-29.6	27.4	0.00e+00	0	33	0	3177185280	30	6128
2026-01-09 04:05:33.53	23.83	59.16	-29.0	-29.5	27.3	0.00e+00	0	33	0	3206545408	30	6044
2026-01-09 04:05:37.57	21.09	58.16	-29.3	-29.8	27.3	0.00e+00	0	33	0	3234856960	30	6273
2026-01-09 04:05:41.61	18.55	57.13	-29.7	-30.2	26.9	0.00e+00	0	33	0	3264217088	30	6554
2026-01-09 04:05:45.65	16.20	56.06	-29.6	-30.1	27.0	0.00e+00	0	33	0	3293577216	32	5777
2026-01-09 04:05:49.69	14.03	54.97	-29.5	-29.9	27.1	0.00e+00	0	33	0	3322937344	32	5686
2026-01-09 04:05:53.73	12.02	53.87	-29.0	-29.5	27.5	0.00e+00	0	33	0	3351248896	30	6072
2026-01-09 04:05:57.76	10.16	52.76	-29.4	-29.9	27.3	0.00e+00	0	33	0	3380609024	30	6326
2026-01-09 04:06:01.80	8.44	51.64	-29.7	-30.2	26.9	0.00e+00	0	33	0	3409969152	32	5847
2026-01-09 04:06:05.84	6.84	50.53	-29.3	-29.7	27.2	0.00e+00	0	33	0	3439329280	32	5551
2026-01-09 04:06:09.87	5.36	49.42	-29.3	-29.8	27.2	0.00e+00	0	33	0	3467640832	32	5584
2026-01-09 04:06:13.91	3.98	48.31	-29.2	-29.7	27.4	0.00e+00	0	33	0	3497000960	32	5539
2026-01-09 04:06:17.95	2.70	47.22	-28.5	-29.0	27.9	0.00e+00	0	33	0	3526361088	30	5700
2026-01-09 04:06:21.98	1.50	46.15	-28.3	-28.7	28.1	0.00e+00	0	33	0	3555721216	30	5540
2026-01-09 04:06:26.02	0.38	45.08	-28.3	-28.8	28.0	0.00e+00	0	33	0	3585081344	30	5598
2026-01-09 04:06:30.05	359.34	44.04	-28.0	-28.5	28.2	0.00e+00	0	33	0	3613392896	30	5387
2026-01-09 04:06:34.09	358.37	43.01	-28.1	-28.6	28.1	0.00e+00	0	33	0	3642753024	30	5448
2026-01-09 04:06:38.12	357.45	42.00	-28.4	-28.9	28.0	0.00e+00	0	33	0	3672113152	30	5643
2026-01-09 04:06:42.16	356.59	41.01	-28.0	-28.4	28.4	0.00e+00	0	33	0	3701473280	30	5369
2026-01-09 04:06:46.20	355.78	40.04	-28.2	-28.7	28.1	0.00e+00	0	33	0	3730833408	30	5534
2026-01-09 04:06:50.24	355.02	39.08	-27.9	-28.3	28.4	0.00e+00	0	33	0	3760193536	30	5286
2026-01-09 04:06:54.27	354.30	38.15	-27.6	-28.1	28.3	0.00e+00	0	33	0	3788505088	28	5794
2026-01-09 04:06:58.31	353.63	37.24	-27.6	-28.0	28.5	0.00e+00	0	33	0	3817865216	28	5743
2026-01-09 04:07:02.35	352.99	36.35	-27.7	-28.1	28.2	0.00e+00	0	33	0	3847225344	28	5817
2026-01-09 04:07:06.39	352.38	35.48	-27.9	-28.3	28.1	0.00e+00	0	33	0	3876585472	28	5956
2026-01-09 04:07:10.42	351.81	34.63	-27.6	-28.1	28.5	0.00e+00	0	33	0	3904897024	28	5764
2026-01-09 04:07:14.46	351.26	33.80	-27.7	-28.1	28.5	0.00e+00	0	33	0	3934257152	28	5807
2026-01-09 04:07:18.50	350.75	32.99	-27.9	-28.4	28.3	0.00e+00	0	33	0	3963617280	28	5980
2026-01-09 04:07:22.53	350.26	32.20	-27.8	-28.3	28.1	0.00e+00	0	33	0	3992977408	28	5914
2026-01-09 04:07:26.57	349.79	31.42	-27.5	-28.0	28.5	0.00e+00	0	33	0	4021288960	28	5731
2026-01-09 04:07:30.61	349.34	30.66	-27.7	-28.2	28.4	0.00e+00	0	33	0	4050649088	28	5862
2026-01-09 04:07:34.64	348.92	29.92	-28.0	-28.5	28.2	0.00e+00	0	33	0	4080009216	28	6068
2026-01-09 04:07:38.68	348.51	29.20	-28.1	-28.5	27.8	0.00e+00	0	33	0	4109369344	28	6090
2026-01-09 04:07:42.71	348.13	28.50	-28.1	-28.5	28.2	0.00e+00	0	33	0	4138729472	28	6067
2026-01-09 04:07:46.75	347.76	27.81	-28.2	-28.7	28.0	0.00e+00	0	33	0	4167041024	28	6186
2026-01-09 04:07:50.78	347.41	27.13	-28.2	-28.7	28.0	0.00e+00	0	33	0	4196401152	28	6189
2026-01-09 04:07:54.82	347.07	26.47	-28.3	-28.8	27.9	0.00e+00	0	33	0	4225761280	28	6281
2026-01-09 04:07:58.86	346.74	25.83	-28.4	-28.9	27.9	0.00e+00	0	33	0	4255121408	28	6341
2026-01-09 04:08:02.90	346.43	25.20	-28.3	-28.7	27.9	0.00e+00	0	33	0	4284481536	28	6238
2026-01-09 04:08:06.94	346.13	24.58	-27.9	-28.4	28.2	0.00e+00	0	33	0	4313841664	28	5999
2026-01-09 04:08:10.97	345.85	23.98	-28.0	-28.4	28.1	0.00e+00	0	33	0	4342153216	28	6014
2026-01-09 04:08:15.01	345.57	23.39	-28.0	-28.5	28.0	0.00e+00	0	33	0	4371513344	28	6068
2026-01-09 04:08:19.05	345.31	22.81	-28.3	-28.8	27.9	0.00e+00	0	33	0	4400873472	28	6280
2026-01-09 04:08:23.09	345.06	22.24	-28.6	-29.0	27.7	0.00e+00	0	33	0	4430233600	28	6464
2026-01-09 04:08:27.13	344.81	21.69	-28.5	-29.0	27.7	0.00e+00	0	33	0	4458545152	28	6395
2026-01-09 04:08:31.17	344.57	21.14	-28.5	-29.0	27.6	0.00e+00	0	33	0	4487905280	28	6407
2026-01-09 04:08:35.21	344.35	20.61	-28.7	-29.1	27.4	0.00e+00	0	33	0	4517265408	28	6534
2026-01-09 04:08:39.24	344.13	20.09	-28.9	-29.3	27.4	0.00e+00	0	33	0	4546625536	30	5951
2026-01-09 04:08:43.28	343.92	19.58	-29.2	-29.7	27.2	0.00e+00	0	33	0	4575985664	30	6220
2026-01-09 04:08:47.32	343.71	19.08	-29.5	-30.0	26.9	0.00e+00	0	33	0	4604297216	30	6418
2026-01-09 04:08:51.36	343.52	18.59	-29.5	-30.0	27.0	0.00e+00	0	33	0	4633657344	30	6430
2026-01-09 04:08:55.39	343.33	18.11	-29.7	-30.2	26.7	0.00e+00	0	33	0	4663017472	32	5883
2026-01-09 04:08:59.43	343.14	17.63	-29.7	-30.1	26.7	0.00e+00	0	33	0	4692377600	32	5828
2026-01-09 04:09:03.47	342.97	17.17	-29.5	-30.0	26.9	0.00e+00	0	33	0	4720689152	32	5726
2026-01-09 04:09:07.51	342.79	16.71	-29.5	-30.0	26.9	0.00e+00	0	33	0	4750049280	32	5703
2026-01-09 04:09:11.55	342.63	16.26	-29.6	-30.1	26.7	0.00e+00	0	33	0	4779409408	32	5778
2026-01-09 04:09:15.58	342.47	15.82	-29.6	-30.1	26.8	0.00e+00	0	33	0	4808769536	32	5797
2026-01-09 04:09:19.62	342.31	15.39	-29.8	-30.3	26.5	0.00e+00	0	33	0	4838129664	32	5934
2026-01-09 04:09:23.66	342.16	14.96	-30.0	-30.5	26.4	0.00e+00	0	33	0	4867489792	32	6035
2026-01-09 04:09:27.70	342.01	14.54	-30.3	-30.8	25.7	0.00e+00	0	33	0	4895801344	32	6262
2026-01-09 04:09:31.74	341.87	14.13	-30.5	-31.0	25.7	0.00e+00	0	33	0	4925161472	32	6412
2026-01-09 04:09:35.78	341.74	13.73	-30.5	-31.0	25.9	0.00e+00	0	33	0	4954521600	34	5744
2026-01-09 04:09:39.82	341.60	13.33	-30.7	-31.2	25.7	0.00e+00	0	33	0	4983881728	34	5872
2026-01-09 04:09:43.86	341.47	12.94	-30.9	-31.4	25.6	0.00e+00	0	33	0	5013241856	34	5970
2026-01-09 04:09:47.90	341.35	12.55	-31.2	-31.7	25.3	0.00e+00	0	33	0	5041553408	34	6216
2026-01-09 04:09:51.94	341.23	12.17	-31.1	-31.6	25.4	0.00e+00	0	33	0	5070913536	34	6145
2026-01-09 04:09:55.98	341.11	11.79	-31.1	-31.6	25.4	0.00e+00	0	33	0	5100273664	34	6120
2026-01-09 04:10:00.02	340.99	11.42	-31.1	-31.6	25.1	0.00e+00	0	33	0	5129633792	34	6164
2026-01-09 04:10:04.06	340.88	11.06	-31.4	-31.9	25.1	0.00e+00	0	33	0	5158993920	34	6358
2026-01-09 04:10:08.10	340.77	10.70	-31.3	-31.8	25.1	0.00e+00	0	33	0	5188354048	34	6258
2026-01-09 04:10:12.14	340.67	10.35	-31.4	-31.9	25.0	0.00e+00	0	33	0	5216665600	34	6362
2026-01-09 04:10:16.17	340.56	10.00	-31.7	-32.2	24.7	0.00e+00	0	33	0	5246025728	36	5878
2026-01-09 04:10:20.21	340.46	9.66	-31.7	-32.2	24.7	0.00e+00	0	33	0	5275385856	36	5876
2026-01-09 04:10:24.24	340.37	9.32	-31.9	-32.4	24.5	0.00e+00	0	33	0	5304745984	36	6031
2026-01-09 04:10:28.28	340.27	8.98	-32.0	-32.5	24.3	0.00e+00	0	33	0	5334106112	36	6074
2026-01-09 04:10:32.32	340.18	8.65	-32.2	-32.7	24.1	0.00e+00	0	33	0	5362417664	36	6224
2026-01-09 04:10:36.35	340.09	8.33	-32.3	-32.8	24.0	0.00e+00	0	33	0	5391777792	36	6295
2026-01-09 04:10:40.39	340.00	8.00	-32.6	-33.2	23.6	0.00e+00	0	33	0	5421137920	38	5848
2026-01-09 04:10:44.43	339.92	7.69	-33.1	-33.6	23.2	0.00e+00	0	33	0	5449449472	38	6165
2026-01-09 04:10:48.46	339.83	7.37	-32.7	-33.3	23.5	0.00e+00	0	33	0	5478809600	38	5918
2026-01-09 04:10:52.49	339.75	7.06	-33.0	-33.6	23.1	0.00e+00	0	33	0	5508169728	38	6117
2026-01-09 04:10:56.53	339.67	6.76	-33.0	-33.6	23.1	0.00e+00	0	33	0	5537529856	38	6114
2026-01-09 04:11:00.57	339.60	6.45	-33.0	-33.6	23.0	0.00e+00	0	33	0	5566889984	38	6121
2026-01-09 04:11:04.61	339.52	6.15	-32.9	-33.5	23.0	0.00e+00	0	33	0	5595201536	38	6066
2026-01-09 04:11:08.64	339.45	5.86	-33.2	-33.8	22.6	0.00e+00	0	33	0	5624561664	38	6253
2026-01-09 04:11:12.67	339.38	5.56	-33.6	-34.2	22.0	0.00e+00	0	33	0	5653921792	38	6594
2026-01-09 04:11:16.71	339.31	5.27	-34.6	-35.4	20.2	0.00e+00	0	33	0	5683281920	40	6712
2026-01-09 04:11:20.75	339.24	4.99	-36.0	-36.9	18.1	0.00e+00	0	33	0	5712642048	44	6375
2026-01-09 04:11:24.79	339.18	4.70	-38.1	-39.5	14.8	0.00e+00	0	33	0	5742002176	48	6806
2026-01-09 04:11:28.83	339.11	4.42	-40.0	-42.3	11.0	1.14e-03	0	33	0	5770313728	52	7482
2026-01-09 04:11:32.86	339.05	4.14	-41.7	-45.8	6.2	2.11e-01	0	33	0	5799673856	54	9998
2026-01-09 04:11:36.90	338.99	3.87	-42.4	-48.8	3.9	8.28e-01	0	33	0	5809111040	56	12543
2026-01-09 04:11:40.94	338.93	3.60	-42.7	-52.6	3.6	8.45e-01	0	33	104	5809111040	56	19499
2026-01-09 04:11:44.98	338.87	3.32	-42.8	-53.8	3.6	8.45e-01	0	33	104	5809111040	58	19771
2026-01-09 04:11:49.01	338.81	3.06	-42.9	-53.9	3.6	8.47e-01	0	33	104	5809111040	58	20187
2026-01-09 04:11:53.04	338.76	2.79	-47.6	-58.8	3.6	8.45e-01	0	33	104	5809111040	60	31511
2026-01-09 04:11:57.08	338.70	2.53	-47.9	-59.1	3.6	8.46e-01	0	33	104	5809111040	60	32757
2026-01-09 04:12:01.12	338.65	2.27	-47.7	-59.2	3.6	8.46e-01	0	33	104	5809111040	60	32928
2026-01-09 04:12:05.15	338.60	2.01	-48.1	-59.3	3.6	8.45e-01	0	33	104	5809111040	60	33317
2026-01-09 04:12:09.19	338.55	1.76	-47.9	-59.2	3.6	8.46e-01	0	33	104	5809111040	60	32839
2026-01-09 04:12:13.23	338.50	1.50	-47.9	-59.1	3.6	8.45e-01	0	33	104	5809111040	60	32588
2026-01-09 04:12:17.27	338.45	1.25	-47.9	-59.1	3.6	8.45e-01	0	33	104	5809111040	60	32661
2026-01-09 04:12:21.30	338.40	1.00	-47.9	-59.1	3.6	8.46e-01	0	33	104	5809111040	60	32403
2026-01-09 04:12:25.34	338.35	0.76	-47.9	-59.1	3.6	8.44e-01	0	33	104	5809111040	60	32704
2026-01-09 04:12:29.38	338.31	0.51	-47.8	-59.1	3.6	8.45e-01	0	33	104	5809111040	60	32537
2026-01-09 04:12:33.42	338.27	0.27	-47.8	-59.1	3.6	8.44e-01	0	33	104	5809111040	60	32439
2026-01-09 04:12:37.45	338.22	0.03	-47.8	-59.1	3.6	8.44e-01	0	33	104	5809111040	60	32527

#Closed at: 2026-01-09 04:12:40
#Recorded file [5809 MB]: D:/lorett/data/35029_260109_155716.dat