passes_logs/2026/01/09/R4.6S_Anadyr/R4.6S_Anadyr__20260109_231219_SUOMI_NPP_rec.log

#Pass ID: 20260109_231219_SUOMI NPP
#Satellite: SUOMI NPP
#Configuration: NPP
#almurnet v.1.7.20251203
#Start time: 2026-01-09 23:12:23

#Version: 2.2.20231116
#Station: R4.6S_Anadyr
#Location: 177.4865 lon 64.73178 lat
#TLE: 1 37849U 11061A   26008.05542337  .00000108  00000+0  71976-4 0  9997
#TLE: 2 37849  98.7805 310.1641 0002540  75.6410 284.5048 14.19523335735721

#Time	Az	El	Level	Level2	SNR	BER	BlckErr	Temp	State	Recorded	gain1	gain2
2026-01-09 23:12:23.10	129.64	0.20	-48.0	-61.8	3.3	1.54e+00	0	24	0	0	60	44450
2026-01-09 23:12:27.13	129.53	0.44	-48.1	-63.2	3.6	1.51e+00	0	24	104	0	60	52365
2026-01-09 23:12:31.17	129.42	0.68	-47.8	-63.0	3.6	1.51e+00	0	25	104	0	60	51318
2026-01-09 23:12:35.21	129.31	0.93	-47.2	-62.5	3.6	1.51e+00	0	24	104	0	60	48369
2026-01-09 23:12:39.25	129.20	1.17	-46.2	-61.5	3.6	1.51e+00	0	25	104	0	60	43074
2026-01-09 23:12:43.28	129.08	1.42	-46.1	-61.5	3.6	1.51e+00	0	25	104	0	60	42782
2026-01-09 23:12:47.32	128.97	1.67	-46.1	-61.5	3.6	1.51e+00	0	25	104	0	60	43015
2026-01-09 23:12:51.35	128.85	1.92	-46.1	-61.3	3.6	1.51e+00	0	25	104	0	60	41991
2026-01-09 23:12:55.39	128.73	2.17	-46.1	-61.4	3.6	1.51e+00	0	25	104	0	60	42331
2026-01-09 23:12:59.44	128.60	2.43	-46.1	-61.5	3.6	1.51e+00	0	25	104	0	60	42715
2026-01-09 23:13:03.48	128.48	2.69	-46.1	-61.0	3.6	1.51e+00	0	25	104	0	60	40379
2026-01-09 23:13:07.51	128.35	2.95	-46.1	-61.5	3.6	1.51e+00	0	25	104	0	60	42796
2026-01-09 23:13:11.55	128.22	3.21	-45.4	-52.8	6.7	3.99e-01	92	25	0	2097152	60	15805
2026-01-09 23:13:15.59	128.08	3.48	-42.3	-45.0	15.4	3.00e-06	0	25	0	9437184	58	7194
2026-01-09 23:13:19.62	127.95	3.74	-46.4	-60.1	3.7	1.51e+00	0	25	104	15728640	60	36460
2026-01-09 23:13:23.66	127.81	4.01	-44.0	-48.4	5.9	1.51e+00	0	25	104	18874368	60	9527
2026-01-09 23:13:27.69	127.67	4.29	-39.6	-41.2	19.1	0.00e+00	78	25	0	24117248	52	6598
2026-01-09 23:13:31.73	127.52	4.56	-38.9	-40.2	20.2	0.00e+00	0	25	0	31457280	52	5882
2026-01-09 23:13:35.77	127.38	4.84	-38.8	-40.1	20.3	0.00e+00	92	25	0	38797312	50	6506
2026-01-09 23:13:39.80	127.23	5.12	-38.6	-39.9	20.6	0.00e+00	90	25	0	47185920	50	6322
2026-01-09 23:13:43.84	127.07	5.40	-38.6	-39.9	20.6	0.00e+00	0	25	0	54525952	50	6335
2026-01-09 23:13:47.88	126.91	5.69	-38.2	-39.4	21.0	0.00e+00	9	25	0	61865984	50	6031
2026-01-09 23:13:51.92	126.75	5.98	-38.4	-39.6	20.9	0.00e+00	83	25	0	69206016	50	6129
2026-01-09 23:13:55.96	126.59	6.27	-38.4	-39.7	20.7	0.00e+00	91	25	0	76546048	50	6221
2026-01-09 23:14:00.00	126.42	6.56	-38.4	-39.8	20.7	0.00e+00	0	25	0	84934656	50	6275
2026-01-09 23:14:04.04	126.25	6.86	-38.0	-39.2	21.3	0.00e+00	43	25	0	92274688	50	5892
2026-01-09 23:14:08.07	126.08	7.16	-38.2	-39.4	21.2	0.00e+00	47	25	0	99614720	50	5977
2026-01-09 23:14:12.11	125.90	7.47	-38.3	-39.5	20.9	0.00e+00	0	25	0	106954752	50	6038
2026-01-09 23:14:16.15	125.71	7.78	-37.9	-39.1	21.5	0.00e+00	65	25	0	115343360	50	5784
2026-01-09 23:14:20.19	125.53	8.09	-37.6	-38.7	21.7	0.00e+00	92	25	0	122683392	48	6245
2026-01-09 23:14:24.22	125.34	8.40	-37.9	-39.0	21.6	0.00e+00	92	25	0	130023424	48	6441
2026-01-09 23:14:28.26	125.14	8.72	-37.7	-38.8	21.7	0.00e+00	0	25	0	137363456	48	6308
2026-01-09 23:14:32.29	124.94	9.04	-37.6	-38.7	21.9	0.00e+00	0	25	0	144703488	48	6187
2026-01-09 23:14:36.33	124.74	9.37	-37.7	-38.8	21.8	0.00e+00	91	25	0	153092096	48	6295
2026-01-09 23:14:40.37	124.52	9.70	-37.6	-38.7	21.9	0.00e+00	92	25	0	160432128	48	6232
2026-01-09 23:14:44.41	124.31	10.03	-37.3	-38.3	22.3	0.00e+00	0	25	0	167772160	48	5943
2026-01-09 23:14:48.44	124.09	10.37	-37.2	-38.2	22.4	0.00e+00	0	25	0	175112192	48	5848
2026-01-09 23:14:52.48	123.86	10.72	-37.4	-38.4	22.2	0.00e+00	90	25	0	183500800	48	6027
2026-01-09 23:14:56.51	123.63	11.06	-37.2	-38.2	22.4	0.00e+00	92	25	0	190840832	48	5892
2026-01-09 23:15:00.55	123.39	11.41	-37.0	-37.9	22.7	0.00e+00	0	25	0	198180864	48	5687
2026-01-09 23:15:04.59	123.15	11.77	-36.9	-37.9	22.6	0.00e+00	92	25	0	205520896	48	5676
2026-01-09 23:15:08.63	122.90	12.13	-37.3	-38.3	22.5	0.00e+00	92	25	0	212860928	48	5922
2026-01-09 23:15:12.65	122.64	12.50	-36.9	-37.9	22.7	0.00e+00	3	25	0	221249536	48	5666
2026-01-09 23:15:16.69	122.38	12.87	-37.0	-38.1	22.7	0.00e+00	0	25	0	228589568	48	5766
2026-01-09 23:15:20.73	122.11	13.24	-37.0	-38.1	22.6	0.00e+00	92	25	0	235929600	48	5777
2026-01-09 23:15:24.77	121.83	13.62	-36.8	-37.8	22.7	0.00e+00	92	25	0	243269632	48	5569
2026-01-09 23:15:28.81	121.55	14.01	-37.1	-38.1	22.6	0.00e+00	0	25	0	250609664	48	5775
2026-01-09 23:15:32.84	121.26	14.40	-37.1	-38.1	22.7	0.00e+00	41	25	0	258998272	48	5825
2026-01-09 23:15:36.88	120.95	14.80	-36.5	-37.4	23.2	0.00e+00	79	25	0	266338304	46	6025
2026-01-09 23:15:40.92	120.64	15.20	-36.8	-37.8	22.7	0.00e+00	87	25	0	273678336	46	6298
2026-01-09 23:15:44.95	120.33	15.61	-36.6	-37.6	23.1	0.00e+00	0	25	0	281018368	46	6166
2026-01-09 23:15:48.99	120.00	16.03	-36.6	-37.6	23.0	0.00e+00	92	25	0	289406976	46	6124
2026-01-09 23:15:53.02	119.66	16.45	-37.1	-38.1	22.7	0.00e+00	70	25	0	296747008	46	6486
2026-01-09 23:15:57.06	119.31	16.87	-37.6	-38.6	22.3	0.00e+00	92	25	0	304087040	48	6165
2026-01-09 23:16:01.10	118.96	17.31	-36.9	-37.9	22.9	0.00e+00	0	25	0	311427072	46	6324
2026-01-09 23:16:05.14	118.59	17.75	-37.5	-38.6	22.4	0.00e+00	92	25	0	318767104	46	6916
2026-01-09 23:16:09.18	118.21	18.20	-37.0	-38.1	22.8	0.00e+00	92	25	0	327155712	46	6481
2026-01-09 23:16:13.21	117.81	18.65	-37.1	-38.1	22.9	0.00e+00	0	25	0	334495744	46	6470
2026-01-09 23:16:17.25	117.41	19.11	-37.0	-38.0	22.9	0.00e+00	0	25	0	341835776	46	6396
2026-01-09 23:16:21.28	116.99	19.58	-37.2	-38.2	22.9	0.00e+00	92	25	0	349175808	46	6583
2026-01-09 23:16:25.31	116.56	20.05	-37.9	-39.0	22.1	0.00e+00	92	25	0	357564416	48	6417
2026-01-09 23:16:29.35	116.12	20.54	-36.8	-37.8	23.1	0.00e+00	0	25	0	364904448	48	5591
2026-01-09 23:16:33.39	115.66	21.03	-36.7	-37.6	23.2	0.00e+00	65	25	0	372244480	46	6143
2026-01-09 23:16:37.43	115.19	21.53	-36.9	-37.9	23.1	0.00e+00	92	25	0	379584512	46	6373
2026-01-09 23:16:41.46	114.70	22.03	-37.0	-38.0	22.9	0.00e+00	90	25	0	386924544	46	6408
2026-01-09 23:16:45.50	114.19	22.55	-37.2	-38.1	22.8	0.00e+00	0	25	0	395313152	46	6533
2026-01-09 23:16:49.54	113.67	23.07	-37.3	-38.2	22.8	0.00e+00	92	25	0	402653184	46	6614
2026-01-09 23:16:53.57	113.12	23.60	-37.1	-38.1	22.8	0.00e+00	92	25	0	409993216	46	6479
2026-01-09 23:16:57.61	112.56	24.13	-37.8	-38.9	22.2	0.00e+00	4	25	0	417333248	48	6344
2026-01-09 23:17:01.65	111.98	24.68	-37.7	-38.7	22.3	0.00e+00	0	25	0	424673280	48	6235
2026-01-09 23:17:05.69	111.38	25.23	-37.1	-38.0	22.9	0.00e+00	92	25	0	433061888	48	5730
2026-01-09 23:17:09.73	110.75	25.80	-37.2	-38.2	22.8	0.00e+00	92	25	0	440401920	46	6562
2026-01-09 23:17:13.77	110.10	26.37	-37.6	-38.7	22.5	0.00e+00	0	25	0	447741952	48	6198
2026-01-09 23:17:17.79	109.43	26.94	-37.3	-38.3	22.8	0.00e+00	0	25	0	455081984	48	5928
2026-01-09 23:17:21.83	108.74	27.53	-37.0	-38.0	23.0	0.00e+00	71	25	0	463470592	48	5717
2026-01-09 23:17:25.87	108.01	28.12	-37.5	-38.5	22.6	0.00e+00	92	25	0	470810624	48	6089
2026-01-09 23:17:29.90	107.26	28.72	-37.9	-38.9	22.3	0.00e+00	0	25	0	478150656	48	6383
2026-01-09 23:17:33.94	106.48	29.33	-38.4	-39.6	21.5	0.00e+00	76	25	0	485490688	50	6148
2026-01-09 23:17:37.98	105.67	29.95	-38.4	-39.5	21.6	0.00e+00	92	25	0	492830720	50	6065
2026-01-09 23:17:42.02	104.82	30.57	-39.1	-40.3	21.1	0.00e+00	0	25	0	501219328	50	6665
2026-01-09 23:17:46.05	103.95	31.19	-39.2	-40.4	21.0	0.00e+00	0	25	0	508559360	50	6716
2026-01-09 23:17:50.09	103.03	31.83	-38.4	-39.4	21.7	0.00e+00	92	25	0	515899392	50	6033
2026-01-09 23:17:54.13	102.08	32.47	-39.8	-41.2	20.6	0.00e+00	92	25	0	523239424	50	7372
2026-01-09 23:17:58.16	101.10	33.11	-39.5	-40.8	20.7	0.00e+00	0	25	0	531628032	52	6252
2026-01-09 23:18:02.20	100.07	33.76	-40.2	-41.6	20.1	0.00e+00	0	25	0	538968064	52	6882
2026-01-09 23:18:06.24	99.00	34.41	-40.3	-41.8	19.8	0.00e+00	92	25	0	546308096	54	6258
2026-01-09 23:18:10.27	97.88	35.05	-38.8	-39.9	21.6	0.00e+00	90	25	0	553648128	50	6382
2026-01-09 23:18:14.31	96.72	35.71	-37.7	-38.7	22.5	0.00e+00	0	25	0	560988160	48	6210
2026-01-09 23:18:18.34	95.52	36.36	-37.7	-38.7	21.8	0.00e+00	0	25	0	569376768	46	6937
2026-01-09 23:18:22.38	94.26	37.00	-39.3	-40.6	20.8	0.00e+00	91	25	0	576716800	50	6888
2026-01-09 23:18:26.41	92.95	37.65	-39.8	-41.2	20.4	0.00e+00	92	25	0	584056832	50	7366
2026-01-09 23:18:30.45	91.59	38.29	-37.5	-38.5	22.6	0.00e+00	0	25	0	591396864	48	6070
2026-01-09 23:18:34.49	90.18	38.92	-40.1	-41.6	20.0	0.00e+00	70	25	0	599785472	52	6924
2026-01-09 23:18:38.52	88.71	39.54	-38.9	-40.1	21.4	0.00e+00	92	25	0	607125504	52	5785
2026-01-09 23:18:42.56	87.18	40.15	-38.8	-40.0	21.3	0.00e+00	0	25	0	614465536	50	6397
2026-01-09 23:18:46.60	85.59	40.75	-37.1	-38.1	23.0	0.00e+00	0	25	0	621805568	48	5777
2026-01-09 23:18:50.63	83.95	41.33	-37.7	-38.8	22.4	0.00e+00	92	25	0	629145600	46	7075
2026-01-09 23:18:54.67	82.24	41.89	-37.0	-38.0	23.0	0.00e+00	92	25	0	637534208	48	5733
2026-01-09 23:18:58.71	80.48	42.43	-36.8	-37.8	22.9	0.00e+00	0	25	0	644874240	46	6284
2026-01-09 23:19:02.75	78.65	42.94	-35.9	-36.8	23.9	0.00e+00	17	25	0	652214272	44	6308
2026-01-09 23:19:06.78	76.78	43.43	-35.9	-36.8	24.1	0.00e+00	75	25	0	659554304	44	6250
2026-01-09 23:19:10.82	74.84	43.89	-38.1	-39.2	22.0	0.00e+00	90	25	0	667942912	48	6573
2026-01-09 23:19:14.86	72.84	44.32	-39.3	-40.6	20.9	0.00e+00	0	25	0	675282944	50	6871
2026-01-09 23:19:18.90	70.80	44.71	-37.6	-38.6	22.7	0.00e+00	83	25	0	682622976	48	6119
2026-01-09 23:19:22.93	68.71	45.06	-37.7	-38.7	22.6	0.00e+00	91	25	0	689963008	48	6219
2026-01-09 23:19:26.97	66.57	45.37	-38.8	-40.0	21.3	0.00e+00	0	25	0	697303040	48	7209
2026-01-09 23:19:31.00	64.40	45.64	-38.4	-39.6	22.1	0.00e+00	0	25	0	705691648	52	5446
2026-01-09 23:19:35.04	62.18	45.86	-37.5	-38.5	22.6	0.00e+00	90	25	0	713031680	48	6067
2026-01-09 23:19:39.08	59.94	46.04	-39.1	-40.5	21.0	0.00e+00	64	25	0	720371712	50	6770
2026-01-09 23:19:43.12	57.68	46.17	-37.9	-39.0	22.3	0.00e+00	0	25	0	727711744	50	5707
2026-01-09 23:19:47.16	55.40	46.25	-38.0	-39.1	22.2	0.00e+00	0	25	0	735051776	50	5798
2026-01-09 23:19:51.20	53.12	46.28	-37.3	-38.3	22.9	0.00e+00	10	25	0	743440384	48	5940
2026-01-09 23:19:55.23	50.84	46.26	-37.4	-38.5	22.8	0.00e+00	90	25	0	750780416	46	6782
2026-01-09 23:19:59.27	48.56	46.19	-37.5	-38.5	22.5	0.00e+00	0	25	0	758120448	48	6064
2026-01-09 23:20:03.30	46.30	46.07	-38.5	-39.7	22.0	0.00e+00	33	25	0	765460480	48	6971
2026-01-09 23:20:07.34	44.06	45.90	-38.1	-39.3	22.0	0.00e+00	86	25	0	773849088	50	5898
2026-01-09 23:20:11.38	41.85	45.68	-37.7	-38.6	22.5	0.00e+00	0	25	0	781189120	46	6921
2026-01-09 23:20:15.42	39.66	45.42	-36.7	-37.7	23.3	0.00e+00	0	25	0	788529152	46	6176
2026-01-09 23:20:19.46	37.52	45.11	-37.8	-38.8	22.4	0.00e+00	92	25	0	795869184	48	6286
2026-01-09 23:20:23.49	35.43	44.77	-38.3	-39.4	21.7	0.00e+00	71	25	0	803209216	50	6016
2026-01-09 23:20:27.53	33.38	44.39	-37.3	-38.2	22.8	0.00e+00	0	25	0	811597824	48	5895
2026-01-09 23:20:31.57	31.38	43.97	-37.2	-38.2	22.8	0.00e+00	0	25	0	818937856	46	6571
2026-01-09 23:20:35.60	29.44	43.51	-36.1	-37.0	23.9	0.00e+00	91	25	0	826277888	46	5712
2026-01-09 23:20:39.64	27.55	43.03	-36.7	-37.6	23.4	0.00e+00	92	25	0	833617920	46	6160
2026-01-09 23:20:43.68	25.72	42.52	-34.6	-35.3	25.0	0.00e+00	0	25	0	842006528	42	5952
2026-01-09 23:20:47.72	23.94	41.98	-34.0	-34.7	25.1	0.00e+00	75	25	0	849346560	40	6241
2026-01-09 23:20:51.76	22.23	41.43	-33.8	-34.6	25.4	0.00e+00	40	25	0	856686592	40	6114
2026-01-09 23:20:55.79	20.58	40.85	-35.4	-36.2	24.1	0.00e+00	0	25	0	864026624	42	6554
2026-01-09 23:20:59.83	18.99	40.26	-36.2	-37.1	23.7	0.00e+00	0	25	0	871366656	46	5808
2026-01-09 23:21:03.87	17.46	39.65	-36.0	-36.9	23.8	0.00e+00	76	25	0	879755264	44	6343
2026-01-09 23:21:07.91	15.98	39.03	-36.6	-37.6	23.5	0.00e+00	85	25	0	887095296	46	6127
2026-01-09 23:21:11.94	14.56	38.41	-37.8	-38.9	22.3	0.00e+00	0	25	0	894435328	48	6340
2026-01-09 23:21:15.98	13.19	37.77	-36.9	-37.8	23.3	0.00e+00	0	25	0	901775360	46	6292
2026-01-09 23:21:20.02	11.88	37.13	-37.8	-38.9	22.3	0.00e+00	92	25	0	910163968	48	6321
2026-01-09 23:21:24.05	10.62	36.48	-38.8	-40.1	21.3	0.00e+00	86	25	0	917504000	48	7260
2026-01-09 23:21:28.09	9.41	35.84	-39.9	-41.3	20.1	0.00e+00	0	25	0	924844032	52	6666
2026-01-09 23:21:32.12	8.25	35.19	-39.9	-41.2	20.5	0.00e+00	0	25	0	932184064	54	5885
2026-01-09 23:21:36.16	7.13	34.54	-41.6	-43.4	18.2	0.00e+00	72	25	0	939524096	54	7591
2026-01-09 23:21:40.19	6.05	33.89	-39.8	-41.1	20.4	0.00e+00	9	25	0	947912704	52	6532
2026-01-09 23:21:44.23	5.02	33.25	-40.0	-41.5	20.1	0.00e+00	0	25	0	955252736	52	6775
2026-01-09 23:21:48.27	4.03	32.61	-37.5	-38.5	22.6	0.00e+00	7	25	0	962592768	48	6079
2026-01-09 23:21:52.31	3.08	31.97	-39.5	-40.8	20.4	0.00e+00	90	25	0	969932800	50	7068
2026-01-09 23:21:56.34	2.16	31.34	-39.7	-41.0	20.6	0.00e+00	0	25	0	977272832	52	6461
2026-01-09 23:22:00.38	1.28	30.71	-39.4	-40.7	20.9	0.00e+00	0	25	0	985661440	52	6187
2026-01-09 23:22:04.41	0.44	30.09	-37.9	-38.9	22.4	0.00e+00	38	25	0	993001472	48	6352
2026-01-09 23:22:08.45	359.62	29.48	-39.1	-40.3	20.6	0.00e+00	0	25	0	1000341504	52	5924
2026-01-09 23:22:12.49	358.84	28.87	-36.6	-37.5	23.4	0.00e+00	0	25	0	1007681536	46	6093
2026-01-09 23:22:16.53	358.08	28.27	-37.0	-37.9	23.0	0.00e+00	0	25	0	1016070144	46	6341
2026-01-09 23:22:20.56	357.36	27.68	-39.5	-40.8	20.8	0.00e+00	83	25	0	1023410176	52	6265
2026-01-09 23:22:24.60	356.66	27.09	-37.4	-38.3	22.7	0.00e+00	0	25	0	1030750208	48	5959
2026-01-09 23:22:28.64	355.99	26.52	-37.3	-38.3	22.6	0.00e+00	0	25	0	1038090240	46	6690
2026-01-09 23:22:32.67	355.34	25.95	-38.0	-39.0	22.1	0.00e+00	0	25	0	1045430272	48	6437
2026-01-09 23:22:36.71	354.71	25.39	-37.6	-38.6	22.5	0.00e+00	92	25	0	1053818880	48	6129
2026-01-09 23:22:40.75	354.11	24.83	-38.8	-40.0	21.3	0.00e+00	0	25	0	1061158912	50	6412
2026-01-09 23:22:44.78	353.52	24.29	-37.8	-38.8	22.6	0.00e+00	0	25	0	1068498944	50	5628
2026-01-09 23:22:48.82	352.96	23.75	-37.6	-38.6	22.5	0.00e+00	19	25	0	1075838976	48	6105
2026-01-09 23:22:52.86	352.42	23.22	-37.3	-38.3	22.7	0.00e+00	0	25	0	1083179008	48	5930
2026-01-09 23:22:56.90	351.89	22.70	-37.6	-38.7	22.4	0.00e+00	0	25	0	1091567616	48	6175
2026-01-09 23:23:00.93	351.39	22.19	-36.8	-37.8	23.0	0.00e+00	0	25	0	1098907648	48	5610
2026-01-09 23:23:04.97	350.90	21.68	-36.6	-37.5	23.3	0.00e+00	67	25	0	1106247680	46	6054
2026-01-09 23:23:09.01	350.42	21.18	-38.0	-39.1	21.9	0.00e+00	0	25	0	1113587712	48	6478
2026-01-09 23:23:13.05	349.96	20.69	-38.8	-40.0	21.3	0.00e+00	0	25	0	1121976320	50	6393
2026-01-09 23:23:17.08	349.52	20.21	-37.9	-39.0	22.2	0.00e+00	0	25	0	1129316352	50	5699
2026-01-09 23:23:21.12	349.09	19.74	-37.7	-38.8	22.2	0.00e+00	95	25	0	1136656384	48	6271
2026-01-09 23:23:25.16	348.67	19.27	-37.7	-38.7	22.3	0.00e+00	0	25	0	1143996416	48	6201
2026-01-09 23:23:29.19	348.27	18.81	-37.3	-38.3	22.5	0.00e+00	0	25	0	1151336448	48	5930
2026-01-09 23:23:33.23	347.88	18.35	-37.0	-38.0	22.8	0.00e+00	0	25	0	1159725056	48	5735
2026-01-09 23:23:37.27	347.50	17.91	-37.0	-38.0	22.7	0.00e+00	0	25	0	1167065088	48	5700
2026-01-09 23:23:41.31	347.13	17.47	-37.6	-38.7	22.2	0.00e+00	0	25	0	1174405120	48	6187
2026-01-09 23:23:45.34	346.77	17.03	-38.0	-39.1	21.9	0.00e+00	0	25	0	1181745152	48	6503
2026-01-09 23:23:49.38	346.43	16.61	-37.6	-38.6	22.3	0.00e+00	69	25	0	1190133760	48	6137
2026-01-09 23:23:53.42	346.09	16.18	-36.9	-37.9	22.9	0.00e+00	0	25	0	1197473792	48	5666
2026-01-09 23:23:57.46	345.76	15.77	-36.9	-37.9	22.9	0.00e+00	0	25	0	1204813824	46	6373
2026-01-09 23:24:01.50	345.44	15.36	-37.4	-38.4	22.4	0.00e+00	0	25	0	1212153856	46	6736
2026-01-09 23:24:05.53	345.14	14.96	-38.6	-39.8	21.2	0.00e+00	91	25	0	1219493888	48	7059
2026-01-09 23:24:09.57	344.84	14.56	-39.0	-40.3	20.8	0.00e+00	0	25	0	1227882496	50	6648
2026-01-09 23:24:13.61	344.54	14.17	-38.7	-40.0	21.0	0.00e+00	0	25	0	1235222528	50	6425
2026-01-09 23:24:17.65	344.26	13.78	-38.8	-40.1	20.9	0.00e+00	0	25	0	1242562560	50	6474
2026-01-09 23:24:21.68	343.98	13.40	-38.7	-39.9	21.1	0.00e+00	72	25	0	1249902592	50	6324
2026-01-09 23:24:25.72	343.71	13.03	-38.7	-40.0	21.0	0.00e+00	0	25	0	1258291200	50	6411
2026-01-09 23:24:29.76	343.45	12.65	-38.9	-40.2	20.8	0.00e+00	0	25	0	1265631232	50	6575
2026-01-09 23:24:33.80	343.20	12.29	-39.1	-40.5	20.6	0.00e+00	23	25	0	1272971264	50	6823
2026-01-09 23:24:37.84	342.95	11.93	-38.9	-40.2	20.7	0.00e+00	0	25	0	1280311296	50	6614
2026-01-09 23:24:41.87	342.71	11.57	-38.8	-40.0	20.8	0.00e+00	0	25	0	1287651328	50	6462
2026-01-09 23:24:45.91	342.47	11.22	-38.4	-39.6	21.2	0.00e+00	0	25	0	1296039936	50	6151
2026-01-09 23:24:49.95	342.24	10.87	-38.3	-39.5	21.4	0.00e+00	70	25	0	1303379968	50	6090
2026-01-09 23:24:53.98	342.02	10.53	-38.4	-39.6	21.3	0.00e+00	0	25	0	1310720000	50	6168
2026-01-09 23:24:58.02	341.80	10.19	-38.7	-40.0	21.0	0.00e+00	0	25	0	1318060032	50	6400
2026-01-09 23:25:02.06	341.59	9.86	-39.2	-40.6	20.4	0.00e+00	0	25	0	1326448640	50	6864
2026-01-09 23:25:06.10	341.38	9.53	-39.5	-41.1	19.8	0.00e+00	92	25	0	1333788672	50	7286
2026-01-09 23:25:10.13	341.17	9.20	-39.9	-41.5	19.5	0.00e+00	0	25	0	1341128704	52	6818
2026-01-09 23:25:14.17	340.98	8.88	-39.5	-41.0	19.7	0.00e+00	0	25	0	1348468736	52	6454
2026-01-09 23:25:18.21	340.78	8.56	-39.7	-41.3	19.6	0.00e+00	63	25	0	1355808768	52	6636
2026-01-09 23:25:22.24	340.59	8.25	-39.5	-40.9	19.8	0.00e+00	0	25	0	1364197376	52	6378
2026-01-09 23:25:26.28	340.41	7.93	-39.5	-41.0	19.7	0.00e+00	0	25	0	1371537408	52	6399
2026-01-09 23:25:30.32	340.23	7.63	-39.6	-41.1	19.7	0.00e+00	0	25	0	1378877440	52	6485
2026-01-09 23:25:34.36	340.05	7.32	-39.4	-40.8	19.7	7.00e-07	64	25	0	1386217472	52	6293
2026-01-09 23:25:38.39	339.88	7.02	-39.8	-41.4	19.2	0.00e+00	0	25	0	1394606080	52	6699
2026-01-09 23:25:42.43	339.71	6.72	-39.5	-40.9	19.7	0.00e+00	0	25	0	1401946112	52	6355
2026-01-09 23:25:46.47	339.55	6.43	-39.6	-41.1	19.4	0.00e+00	0	25	0	1409286144	52	6529
2026-01-09 23:25:50.50	339.38	6.14	-39.5	-41.0	19.5	0.00e+00	92	25	0	1416626176	52	6443
2026-01-09 23:25:54.54	339.23	5.85	-39.6	-41.2	19.2	0.00e+00	0	25	0	1423966208	52	6569
2026-01-09 23:25:58.57	339.07	5.56	-39.9	-41.7	18.5	0.00e+00	0	25	0	1432354816	52	6936
2026-01-09 23:26:02.61	338.92	5.28	-40.6	-42.8	16.8	0.00e+00	0	25	0	1439694848	52	7939
2026-01-09 23:26:06.65	338.77	5.00	-41.8	-45.1	14.0	1.50e-06	92	25	0	1447034880	54	9178
2026-01-09 23:26:10.68	338.63	4.72	-42.5	-47.4	11.0	1.35e-03	0	25	0	1454374912	56	10629
2026-01-09 23:26:14.72	338.49	4.45	-42.8	-49.8	7.3	7.70e-02	0	25	0	1461714944	58	12552
2026-01-09 23:26:18.76	338.35	4.17	-42.9	-52.3	4.5	6.94e-01	53	25	0	1470103552	58	16698
2026-01-09 23:26:22.80	338.21	3.90	-42.7	-56.3	3.6	1.50e+00	0	25	104	1472200704	58	26618
2026-01-09 23:26:26.84	338.08	3.64	-42.6	-57.8	3.6	1.51e+00	0	25	104	1472200704	58	31342
2026-01-09 23:26:30.88	337.95	3.37	-42.6	-57.7	3.6	1.51e+00	0	25	104	1472200704	58	31254
2026-01-09 23:26:34.91	337.82	3.11	-42.6	-57.8	3.6	1.51e+00	0	25	104	1472200704	58	31374
2026-01-09 23:26:38.95	337.70	2.85	-47.5	-62.7	3.6	1.51e+00	0	25	104	1472200704	60	49220
2026-01-09 23:26:42.99	337.57	2.59	-48.0	-63.2	3.6	1.51e+00	0	25	104	1472200704	60	52491
2026-01-09 23:26:47.03	337.45	2.34	-48.0	-63.2	3.6	1.51e+00	0	25	104	1472200704	60	52083
2026-01-09 23:26:51.08	337.33	2.08	-47.8	-63.1	3.6	1.51e+00	0	25	104	1472200704	60	51864
2026-01-09 23:26:55.12	337.22	1.83	-47.9	-63.1	3.6	1.51e+00	0	25	104	1472200704	60	51734
2026-01-09 23:26:59.16	337.10	1.58	-47.9	-63.1	3.6	1.51e+00	0	25	104	1472200704	60	51493
2026-01-09 23:27:03.20	336.99	1.33	-47.9	-63.1	3.6	1.51e+00	0	25	104	1472200704	60	51526
2026-01-09 23:27:07.24	336.88	1.09	-47.8	-63.0	3.6	1.51e+00	0	25	104	1472200704	60	50919
2026-01-09 23:27:11.28	336.78	0.84	-47.8	-63.1	3.6	1.51e+00	0	25	104	1472200704	60	51585
2026-01-09 23:27:15.31	336.67	0.60	-47.9	-63.1	3.6	1.51e+00	0	25	104	1472200704	60	51792
2026-01-09 23:27:19.35	336.57	0.36	-47.8	-63.1	3.6	1.51e+00	0	25	104	1472200704	60	51613
2026-01-09 23:27:23.39	336.47	0.13	-47.9	-63.1	3.6	1.51e+00	0	25	104	1472200704	60	51575

#Closed at: 2026-01-09 23:27:26
#Recorded file [1472 MB]: D:/lorett/data/35029_260110_111223.dat