passes_logs/2026/01/28/R2M6_AANII_01/R2M6_AANII_01__20260128_223253_SUOMI_NPP_rec.log

#Pass ID: 20260128_223253_SUOMI NPP
#Satellite: SUOMI NPP
#Configuration: NPP
#almurnet v.1.7.20240730
#Start time: 2026-01-28 22:32:52

#Version: 2.2.20231116
#Station: R2M6_AANII_01
#Location: 30.233357 lon 59.946436 lat
#TLE: 1 37849U 11061A   26027.86188320  .00000172  00000+0  10275-3 0  9990
#TLE: 2 37849  98.7823 329.8005 0002088  41.4184 318.7150 14.19530883738530

#Time	Az	El	Level	Level2	SNR	BER	BlckErr	Temp	State	Recorded	gain1	gain2
2026-01-28 22:32:52.70	33.19	6.98	-31.3	-36.4	4.9	1.24e+00	0	41	0	0	22	6464
2026-01-28 22:32:55.70	33.52	7.15	-31.3	-36.1	7.8	8.71e-02	0	41	0	1048576	22	6256
2026-01-28 22:32:58.72	33.85	7.32	-31.4	-36.5	7.6	1.24e-01	0	41	0	7340032	22	6457
2026-01-28 22:33:01.73	34.19	7.49	-31.2	-35.6	8.3	5.63e-02	0	41	0	12582912	22	5944
2026-01-28 22:33:04.75	34.53	7.66	-31.1	-34.9	8.8	4.86e-02	0	41	0	17825792	22	5620
2026-01-28 22:33:07.77	34.87	7.84	-30.3	-32.8	10.8	3.51e-03	0	41	0	24117248	21	4793
2026-01-28 22:33:10.78	35.22	8.01	-30.0	-32.1	11.8	4.59e-04	0	41	0	29360128	20	4613
2026-01-28 22:33:13.79	35.57	8.18	-30.0	-32.3	11.8	5.15e-04	0	41	0	35651584	20	4677
2026-01-28 22:33:16.80	35.93	8.35	-30.1	-32.3	11.8	5.23e-04	0	41	0	40894464	20	4678
2026-01-28 22:33:19.81	36.29	8.53	-30.0	-32.2	11.8	3.84e-04	0	41	0	46137344	20	4605
2026-01-28 22:33:22.84	36.65	8.70	-30.0	-32.2	11.9	3.56e-04	0	42	0	52428800	20	4615
2026-01-28 22:33:25.85	37.02	8.88	-30.1	-32.3	11.8	4.98e-04	0	42	0	57671680	20	4654
2026-01-28 22:33:28.86	37.39	9.05	-30.2	-32.7	11.7	4.85e-04	0	42	0	63963136	20	4767
2026-01-28 22:33:31.87	37.77	9.23	-30.2	-32.5	11.8	4.26e-04	0	42	0	69206016	20	4712
2026-01-28 22:33:34.88	38.15	9.40	-30.1	-32.1	12.1	3.17e-04	0	42	0	74448896	20	4579
2026-01-28 22:33:37.88	38.53	9.57	-30.0	-32.1	12.1	2.15e-04	0	42	0	80740352	20	4553
2026-01-28 22:33:40.90	38.92	9.75	-29.9	-31.6	12.4	1.50e-04	0	42	0	85983232	20	4403
2026-01-28 22:33:43.90	39.32	9.92	-30.0	-31.9	12.3	1.10e-04	0	42	0	92274688	20	4482
2026-01-28 22:33:46.91	39.72	10.10	-30.0	-31.8	12.3	1.56e-04	0	42	0	97517568	20	4463
2026-01-28 22:33:49.91	40.12	10.27	-29.8	-31.3	12.7	9.00e-05	0	42	0	102760448	20	4278
2026-01-28 22:33:52.92	40.53	10.45	-29.9	-31.7	12.4	1.05e-04	0	42	0	109051904	20	4427
2026-01-28 22:33:55.95	40.94	10.62	-30.0	-31.9	12.3	1.92e-04	0	42	0	114294784	20	4492
2026-01-28 22:33:58.94	41.36	10.80	-30.0	-32.0	12.2	3.07e-04	0	42	0	119537664	20	4530
2026-01-28 22:34:01.95	41.78	10.97	-30.1	-32.2	12.2	2.33e-04	0	42	0	125829120	20	4579
2026-01-28 22:34:04.96	42.21	11.15	-30.2	-32.4	12.0	2.47e-04	0	42	0	131072000	20	4658
2026-01-28 22:34:07.97	42.64	11.32	-30.1	-32.1	12.3	1.59e-04	0	43	0	137363456	20	4533
2026-01-28 22:34:10.97	43.07	11.50	-29.9	-31.6	12.6	5.64e-05	0	42	0	142606336	20	4367
2026-01-28 22:34:13.99	43.52	11.67	-30.1	-32.0	12.3	1.40e-04	0	42	0	147849216	20	4512
2026-01-28 22:34:17.00	43.96	11.84	-30.1	-32.1	12.3	2.21e-04	0	43	0	154140672	20	4523
2026-01-28 22:34:20.01	44.42	12.02	-30.0	-31.8	12.5	1.27e-04	0	43	0	159383552	20	4435
2026-01-28 22:34:23.01	44.87	12.19	-29.5	-30.3	13.5	1.06e-05	0	43	0	164626432	20	3969
2026-01-28 22:34:26.02	45.34	12.36	-29.6	-31.1	13.4	1.37e-05	0	42	0	170917888	19	4300
2026-01-28 22:34:29.02	45.80	12.53	-29.7	-31.4	13.3	1.44e-05	0	43	0	176160768	19	4366
2026-01-28 22:34:32.04	46.28	12.71	-29.7	-31.5	13.2	2.82e-05	0	43	0	182452224	19	4407
2026-01-28 22:34:35.06	46.76	12.88	-29.7	-31.5	13.2	1.83e-05	0	43	0	187695104	19	4401
2026-01-28 22:34:38.07	47.24	13.05	-29.6	-31.2	13.5	1.29e-05	0	43	0	192937984	19	4294
2026-01-28 22:34:41.08	47.73	13.22	-29.5	-30.8	13.7	5.30e-06	0	43	0	199229440	19	4185
2026-01-28 22:34:44.09	48.23	13.39	-29.6	-31.1	13.5	1.22e-05	0	43	0	204472320	19	4265
2026-01-28 22:34:47.09	48.73	13.56	-29.6	-31.1	13.5	1.37e-05	0	43	0	209715200	19	4269
2026-01-28 22:34:50.11	49.24	13.72	-29.8	-31.5	13.2	1.98e-05	0	43	0	216006656	19	4406
2026-01-28 22:34:53.12	49.75	13.89	-29.8	-31.6	13.2	1.60e-05	0	43	0	221249536	19	4428
2026-01-28 22:34:56.13	50.27	14.06	-29.6	-30.9	13.2	2.28e-05	0	43	0	227540992	20	4141
2026-01-28 22:34:59.13	50.79	14.22	-29.6	-30.9	13.4	1.90e-05	0	43	0	232783872	19	4227
2026-01-28 22:35:02.14	51.32	14.38	-29.9	-31.9	13.0	2.36e-05	0	43	0	238026752	19	4510
2026-01-28 22:35:05.15	51.85	14.55	-30.1	-31.9	12.7	1.04e-04	0	43	0	244318208	20	4437
2026-01-28 22:35:08.15	52.39	14.71	-30.0	-31.6	12.8	4.02e-04	0	43	0	249561088	20	4357
2026-01-28 22:35:11.16	52.94	14.87	-30.0	-31.8	12.8	1.82e-04	0	43	0	255852544	20	4398
2026-01-28 22:35:14.17	53.49	15.03	-30.3	-32.5	12.3	3.51e-04	0	43	0	261095424	20	4652
2026-01-28 22:35:17.18	54.04	15.18	-30.2	-32.2	12.5	1.30e-04	0	43	0	266338304	20	4547
2026-01-28 22:35:20.19	54.61	15.34	-30.2	-32.2	12.5	1.04e-04	0	43	0	272629760	20	4532
2026-01-28 22:35:23.19	55.18	15.49	-30.0	-31.7	12.8	8.23e-05	0	43	0	277872640	20	4381
2026-01-28 22:35:26.20	55.75	15.64	-30.1	-31.8	12.8	7.70e-05	0	43	0	283115520	20	4403
2026-01-28 22:35:29.21	56.33	15.79	-30.3	-32.5	12.3	2.01e-04	0	43	0	289406976	20	4648
2026-01-28 22:35:32.23	56.92	15.94	-30.4	-32.6	12.2	7.80e-04	0	43	0	294649856	20	4683
2026-01-28 22:35:35.23	57.51	16.09	-30.2	-32.1	12.6	1.01e-03	0	43	0	300941312	20	4487
2026-01-28 22:35:38.25	58.11	16.24	-30.4	-32.7	12.3	2.95e-04	0	43	0	306184192	20	4711
2026-01-28 22:35:41.27	58.71	16.38	-30.8	-33.3	11.4	1.10e-03	0	43	0	311427072	21	4838
2026-01-28 22:35:44.28	59.32	16.52	-30.7	-33.1	11.6	1.24e-03	0	43	0	317718528	21	4740
2026-01-28 22:35:47.28	59.93	16.66	-30.5	-32.6	12.0	8.56e-04	0	43	0	322961408	21	4575
2026-01-28 22:35:50.29	60.55	16.79	-30.7	-33.1	11.6	9.60e-04	0	43	0	328204288	21	4747
2026-01-28 22:35:53.29	61.18	16.92	-30.1	-31.4	12.8	8.23e-05	0	43	0	334495744	21	4164
2026-01-28 22:35:56.29	61.80	17.06	-30.1	-31.3	12.8	6.02e-05	0	43	0	339738624	21	4151
2026-01-28 22:35:59.31	62.44	17.18	-30.1	-31.3	12.8	7.17e-05	0	43	0	346030080	21	4146
2026-01-28 22:36:02.31	63.08	17.31	-29.7	-31.1	13.7	4.50e-06	0	43	0	351272960	19	4258
2026-01-28 22:36:05.32	63.73	17.43	-29.8	-31.4	13.5	8.30e-06	0	43	0	356515840	19	4350
2026-01-28 22:36:08.32	64.38	17.55	-30.0	-31.6	13.0	3.69e-04	0	43	0	362807296	20	4328
2026-01-28 22:36:11.33	65.03	17.67	-30.0	-31.7	12.9	3.63e-04	0	43	0	368050176	20	4356
2026-01-28 22:36:14.34	65.70	17.78	-30.0	-31.4	13.1	3.50e-04	0	43	0	374341632	20	4269
2026-01-28 22:36:17.36	66.36	17.89	-29.5	-30.6	14.0	1.50e-06	0	43	0	379584512	19	4096
2026-01-28 22:36:20.37	67.04	18.00	-29.3	-30.8	14.3	7.00e-07	0	43	0	384827392	18	4237
2026-01-28 22:36:23.37	67.71	18.10	-29.6	-30.9	13.9	4.50e-06	0	43	0	391118848	19	4191
2026-01-28 22:36:26.39	68.39	18.20	-29.6	-30.9	13.9	6.10e-06	0	43	0	396361728	19	4189
2026-01-28 22:36:29.39	69.07	18.30	-29.4	-30.5	14.2	7.00e-07	0	43	0	401604608	19	4058
2026-01-28 22:36:32.40	69.76	18.39	-29.5	-30.7	14.1	6.10e-06	0	43	0	407896064	19	4119
2026-01-28 22:36:35.41	70.45	18.48	-29.6	-31.0	13.9	3.00e-06	0	43	0	413138944	19	4209
2026-01-28 22:36:38.43	71.15	18.57	-29.7	-31.2	13.7	6.10e-06	0	43	0	419430400	19	4282
2026-01-28 22:36:41.44	71.85	18.65	-29.3	-30.2	14.3	2.20e-06	0	43	0	424673280	19	3989
2026-01-28 22:36:44.45	72.56	18.73	-29.3	-30.2	14.4	0.00e+00	0	43	0	429916160	19	3978
2026-01-28 22:36:47.46	73.27	18.80	-29.9	-31.6	13.5	7.17e-05	0	43	0	436207616	19	4411
2026-01-28 22:36:50.47	73.98	18.87	-29.7	-31.3	13.6	6.63e-05	0	43	0	441450496	19	4314
2026-01-28 22:36:53.48	74.69	18.94	-30.1	-31.8	12.9	3.28e-05	0	43	0	447741952	20	4392
2026-01-28 22:36:56.48	75.41	19.00	-30.2	-32.0	12.8	4.19e-05	0	43	0	452984832	20	4438
2026-01-28 22:36:59.49	76.13	19.06	-30.1	-31.9	13.0	3.20e-05	0	43	0	458227712	20	4408
2026-01-28 22:37:02.51	76.85	19.11	-30.1	-31.9	12.9	5.87e-05	0	43	0	464519168	20	4423
2026-01-28 22:37:05.51	77.57	19.16	-29.8	-31.0	13.4	1.75e-05	0	43	0	469762048	20	4137
2026-01-28 22:37:08.51	78.30	19.20	-29.8	-31.0	13.5	1.22e-05	0	43	0	475004928	20	4127
2026-01-28 22:37:11.52	79.03	19.24	-29.8	-31.0	13.5	1.67e-05	0	43	0	481296384	20	4133
2026-01-28 22:37:14.54	79.76	19.28	-29.8	-30.9	13.6	8.30e-06	0	43	0	486539264	20	4109
2026-01-28 22:37:17.55	80.49	19.31	-30.0	-31.5	13.2	1.23e-04	0	43	0	492830720	20	4301
2026-01-28 22:37:20.55	81.23	19.34	-29.9	-31.2	13.4	2.73e-04	0	43	0	498073600	20	4195
2026-01-28 22:37:23.57	81.96	19.36	-30.0	-31.7	13.1	8.16e-05	0	43	0	503316480	20	4332
2026-01-28 22:37:26.59	82.70	19.38	-30.4	-32.7	12.4	1.52e-04	0	43	0	509607936	20	4671
2026-01-28 22:37:29.59	83.44	19.39	-30.4	-32.1	12.4	1.85e-04	0	43	0	514850816	21	4391
2026-01-28 22:37:32.59	84.17	19.40	-30.4	-32.3	12.4	1.31e-04	0	43	0	520093696	21	4443
2026-01-28 22:37:35.61	84.91	19.40	-30.2	-31.5	12.8	6.56e-05	0	43	0	526385152	21	4202
2026-01-28 22:37:38.62	85.65	19.40	-30.0	-31.0	13.2	1.44e-05	0	43	0	531628032	21	4054
2026-01-28 22:37:41.62	86.38	19.39	-30.3	-31.9	12.6	1.27e-04	0	43	0	537919488	21	4313
2026-01-28 22:37:44.64	87.12	19.38	-30.2	-31.7	12.7	8.69e-05	0	43	0	543162368	21	4242
2026-01-28 22:37:47.63	87.86	19.37	-30.0	-31.1	13.1	2.82e-05	0	43	0	548405248	21	4072
2026-01-28 22:37:50.65	88.60	19.35	-30.0	-30.9	13.2	2.21e-05	0	43	0	554696704	21	4031
2026-01-28 22:37:53.67	89.33	19.32	-30.2	-31.5	12.8	5.41e-05	0	44	0	559939584	21	4204
2026-01-28 22:37:56.69	90.07	19.29	-30.1	-31.4	12.9	9.00e-05	0	43	0	566231040	21	4165
2026-01-28 22:37:59.69	90.80	19.26	-29.8	-30.6	13.4	4.73e-05	0	43	0	571473920	21	3938
2026-01-28 22:38:02.68	91.52	19.22	-29.8	-30.9	13.6	1.44e-05	0	43	0	576716800	20	4099
2026-01-28 22:38:05.71	92.26	19.18	-30.1	-32.0	12.8	5.64e-05	0	43	0	583008256	20	4441
2026-01-28 22:38:08.72	92.99	19.13	-29.9	-31.3	13.3	2.28e-05	0	43	0	588251136	20	4224
2026-01-28 22:38:11.73	93.71	19.08	-30.0	-31.6	13.0	4.34e-05	0	43	0	593494016	20	4310
2026-01-28 22:38:14.74	94.43	19.02	-30.0	-31.7	13.0	3.20e-05	0	43	0	599785472	20	4348
2026-01-28 22:38:17.75	95.15	18.96	-29.9	-31.3	13.3	1.98e-05	0	43	0	605028352	20	4213
2026-01-28 22:38:20.75	95.87	18.90	-30.2	-32.0	12.8	5.41e-05	0	43	0	611319808	20	4461
2026-01-28 22:38:23.77	96.58	18.83	-30.4	-32.6	12.3	1.59e-04	0	43	0	616562688	20	4675
2026-01-28 22:38:26.78	97.29	18.76	-29.5	-30.3	13.9	1.22e-05	0	43	0	621805568	20	3932
2026-01-28 22:38:29.79	98.00	18.68	-29.7	-30.7	13.6	5.30e-06	0	43	0	628097024	20	4041
2026-01-28 22:38:32.80	98.70	18.60	-29.7	-30.8	13.5	2.82e-05	0	44	0	633339904	20	4091
2026-01-28 22:38:35.81	99.40	18.51	-29.7	-30.7	13.7	1.06e-05	0	44	0	639631360	20	4038
2026-01-28 22:38:38.83	100.10	18.42	-29.6	-30.6	13.6	7.60e-06	0	44	0	644874240	20	4036
2026-01-28 22:38:41.84	100.79	18.33	-29.7	-30.8	13.5	6.10e-06	0	43	0	650117120	20	4097
2026-01-28 22:38:44.85	101.48	18.24	-29.3	-29.8	14.1	7.00e-07	0	43	0	656408576	20	3807
2026-01-28 22:38:47.86	102.17	18.14	-29.3	-30.2	14.3	2.20e-06	0	43	0	661651456	19	3997
2026-01-28 22:38:50.88	102.85	18.03	-29.6	-31.2	13.7	6.10e-06	0	43	0	666894336	19	4285
2026-01-28 22:38:53.89	103.52	17.93	-29.6	-30.9	13.8	3.00e-06	0	44	0	673185792	19	4210
2026-01-28 22:38:56.90	104.19	17.82	-29.8	-31.5	13.4	9.90e-06	0	44	0	678428672	19	4398
2026-01-28 22:38:59.91	104.86	17.70	-29.7	-31.4	13.5	1.29e-05	0	43	0	684720128	19	4348
2026-01-28 22:39:02.92	105.52	17.59	-29.8	-31.5	13.4	4.50e-06	0	44	0	689963008	19	4393
2026-01-28 22:39:05.92	106.17	17.47	-29.7	-30.7	13.5	1.44e-05	0	43	0	695205888	20	4068
2026-01-28 22:39:08.92	106.82	17.35	-29.9	-31.3	13.2	9.90e-06	0	44	0	701497344	20	4249
2026-01-28 22:39:11.93	107.46	17.22	-30.4	-32.7	12.2	1.27e-04	0	43	0	706740224	20	4719
2026-01-28 22:39:14.94	108.10	17.09	-30.4	-32.8	12.1	2.23e-04	0	43	0	711983104	20	4749
2026-01-28 22:39:17.95	108.74	16.96	-30.1	-32.0	12.7	8.16e-05	0	43	0	718274560	20	4447
2026-01-28 22:39:20.95	109.37	16.83	-30.2	-32.3	12.4	8.23e-05	0	44	0	723517440	20	4569
2026-01-28 22:39:23.96	109.99	16.70	-29.7	-30.9	13.4	1.90e-05	0	43	0	729808896	20	4116
2026-01-28 22:39:26.97	110.61	16.56	-29.8	-30.9	13.3	1.44e-05	0	43	0	735051776	20	4132
2026-01-28 22:39:29.98	111.22	16.42	-30.3	-32.4	12.4	1.51e-04	0	43	0	740294656	20	4607
2026-01-28 22:39:33.00	111.83	16.27	-30.5	-32.7	11.7	5.26e-04	0	44	0	746586112	21	4624
2026-01-28 22:39:36.01	112.43	16.13	-30.3	-32.2	12.1	3.78e-04	0	43	0	751828992	21	4475
2026-01-28 22:39:39.03	113.03	15.98	-30.1	-31.6	12.5	1.15e-04	0	44	0	758120448	21	4250
2026-01-28 22:39:42.03	113.62	15.83	-29.8	-30.6	13.2	4.27e-05	0	43	0	763363328	21	3966
2026-01-28 22:39:45.03	114.20	15.68	-30.0	-31.1	12.8	6.63e-05	0	43	0	768606208	21	4107
2026-01-28 22:39:48.05	114.78	15.53	-31.0	-34.2	10.7	2.15e-03	0	43	0	774897664	21	5211
2026-01-28 22:39:51.06	115.36	15.37	-31.2	-34.4	10.1	6.76e-03	0	43	0	780140544	22	5237
2026-01-28 22:39:54.07	115.92	15.22	-30.7	-32.7	11.3	1.40e-03	0	43	0	785383424	22	4562
2026-01-28 22:39:57.08	116.48	15.06	-30.5	-32.3	11.6	5.33e-04	0	43	0	791674880	22	4418
2026-01-28 22:40:00.09	117.04	14.90	-30.2	-31.9	12.2	3.14e-04	0	43	0	796917760	21	4365
2026-01-28 22:40:03.09	117.59	14.74	-29.9	-30.9	12.9	6.17e-05	0	43	0	803209216	21	4033
2026-01-28 22:40:06.10	118.13	14.58	-30.2	-31.7	12.3	1.61e-04	0	43	0	808452096	21	4303
2026-01-28 22:40:09.12	118.67	14.41	-30.2	-31.9	12.2	2.30e-04	0	43	0	813694976	21	4355
2026-01-28 22:40:12.13	119.21	14.25	-30.3	-32.2	11.9	2.01e-04	0	43	0	819986432	21	4466
2026-01-28 22:40:15.13	119.73	14.08	-30.1	-32.1	12.2	1.79e-04	0	43	0	825229312	20	4536
2026-01-28 22:40:18.15	120.26	13.92	-30.2	-32.6	11.9	3.11e-04	0	44	0	830472192	20	4721
2026-01-28 22:40:21.15	120.77	13.75	-30.3	-32.6	12.0	6.24e-04	0	43	0	836763648	20	4724
2026-01-28 22:40:24.17	121.28	13.58	-30.9	-34.1	10.5	3.78e-03	0	43	0	842006528	21	5212
2026-01-28 22:40:27.18	121.79	13.41	-30.6	-33.2	11.2	1.95e-03	0	43	0	848297984	21	4828
2026-01-28 22:40:30.19	122.29	13.24	-30.2	-32.0	12.0	2.64e-04	0	44	0	853540864	21	4399
2026-01-28 22:40:33.20	122.78	13.07	-30.1	-31.7	12.1	2.94e-04	0	43	0	858783744	21	4336
2026-01-28 22:40:36.21	123.27	12.90	-30.0	-31.5	12.3	1.69e-04	0	44	0	865075200	21	4260
2026-01-28 22:40:39.21	123.75	12.73	-30.3	-32.4	11.6	6.25e-04	0	43	0	870318080	21	4587
2026-01-28 22:40:42.22	124.22	12.55	-29.9	-31.0	12.6	1.14e-04	0	43	0	876609536	21	4105
2026-01-28 22:40:45.23	124.70	12.38	-29.5	-30.3	13.4	1.98e-05	0	44	0	881852416	20	3977
2026-01-28 22:40:48.24	125.16	12.21	-29.5	-30.9	13.5	6.40e-05	0	43	0	887095296	19	4218
2026-01-28 22:40:51.26	125.63	12.03	-29.6	-31.4	13.1	2.67e-05	0	44	0	893386752	19	4406
2026-01-28 22:40:54.28	126.08	11.85	-29.7	-31.7	12.8	1.74e-04	0	43	0	898629632	19	4536
2026-01-28 22:40:57.30	126.53	11.68	-29.8	-32.0	12.6	5.32e-04	0	44	0	903872512	19	4614
2026-01-28 22:41:00.29	126.98	11.50	-30.3	-32.9	11.6	5.51e-04	0	44	0	910163968	20	4856
2026-01-28 22:41:03.30	127.42	11.33	-30.4	-33.0	11.4	9.54e-04	0	43	0	915406848	20	4905
2026-01-28 22:41:06.31	127.85	11.15	-30.1	-32.4	11.8	5.94e-04	0	44	0	921698304	20	4688
2026-01-28 22:41:09.32	128.28	10.98	-30.0	-32.1	12.0	2.97e-04	0	43	0	926941184	20	4583
2026-01-28 22:41:12.33	128.71	10.80	-30.2	-32.5	11.7	5.87e-04	0	44	0	932184064	20	4714
2026-01-28 22:41:15.34	129.13	10.62	-30.2	-32.6	11.7	6.06e-04	0	44	0	938475520	20	4740
2026-01-28 22:41:18.34	129.54	10.45	-29.9	-31.8	12.1	4.26e-04	0	43	0	943718400	20	4493
2026-01-28 22:41:21.35	129.95	10.27	-29.9	-31.7	12.2	1.35e-04	0	43	0	950009856	20	4439
2026-01-28 22:41:24.37	130.36	10.09	-30.0	-32.0	12.0	2.62e-04	0	43	0	955252736	20	4554
2026-01-28 22:41:27.39	130.76	9.92	-30.1	-32.3	11.8	4.13e-04	0	43	0	960495616	20	4643
2026-01-28 22:41:30.40	131.16	9.74	-29.8	-31.6	12.3	2.37e-04	0	44	0	966787072	20	4411
2026-01-28 22:41:33.41	131.55	9.56	-29.9	-31.8	12.0	2.59e-04	0	44	0	972029952	20	4486
2026-01-28 22:41:36.41	131.94	9.39	-30.1	-32.4	11.6	4.63e-04	0	44	0	977272832	20	4697
2026-01-28 22:41:39.43	132.32	9.21	-30.3	-33.1	11.1	1.34e-03	0	44	0	983564288	20	4952
2026-01-28 22:41:42.45	132.70	9.03	-30.0	-32.1	11.8	6.48e-04	0	44	0	988807168	20	4588
2026-01-28 22:41:45.47	133.07	8.86	-29.8	-31.6	12.1	2.36e-04	0	43	0	995098624	20	4441
2026-01-28 22:41:48.48	133.44	8.68	-29.7	-31.4	12.1	1.68e-04	0	44	0	1000341504	20	4395
2026-01-28 22:41:51.50	133.81	8.51	-29.9	-32.2	11.4	9.72e-04	0	43	0	1005584384	20	4687
2026-01-28 22:41:54.51	134.17	8.33	-30.4	-33.9	10.1	7.27e-03	0	43	0	1011875840	20	5379
2026-01-28 22:41:57.52	134.53	8.16	-30.4	-33.7	9.8	9.16e-03	0	43	0	1017118720	21	5276
2026-01-28 22:42:00.53	134.88	7.98	-30.4	-33.7	9.8	8.36e-03	0	44	0	1023410176	21	5282
2026-01-28 22:42:03.54	135.23	7.81	-30.4	-33.7	9.8	9.92e-03	0	43	0	1028653056	21	5277
2026-01-28 22:42:06.55	135.57	7.63	-30.8	-34.9	8.9	2.81e-02	0	43	0	1033895936	21	5794
2026-01-28 22:42:09.56	135.92	7.46	-30.9	-35.2	8.7	3.42e-02	0	44	0	1040187392	21	5935
2026-01-28 22:42:12.56	136.25	7.29	-30.6	-34.3	9.4	2.00e-02	0	44	0	1045430272	21	5504
2026-01-28 22:42:15.56	136.58	7.11	-30.3	-33.3	10.0	8.42e-03	0	44	0	1050673152	21	5119

#Closed at: 2026-01-28 22:42:18
#Recorded file [1052 MB]: D:/data/31010_260129_013254.dat