passes_logs/2026/01/28/R2M6_AANII_01/R2M6_AANII_01__20260128_030838_FENGYUN_3D_rec.log

#Pass ID: 20260128_030838_FENGYUN 3D
#Satellite: FENGYUN 3D
#Configuration: FENGYUN 3D
#almurnet v.1.7.20240730
#Start time: 2026-01-28 03:08:38

#Version: 2.2.20231116
#Station: R2M6_AANII_01
#Location: 30.233357 lon 59.946436 lat
#TLE: 1 43010U 17072A   26027.47796828  .00000374  00000+0  19850-3 0  9992
#TLE: 2 43010  98.9960 359.4888 0002523  87.5419 272.6045 14.19701595425023

#Time	Az	El	Level	Level2	SNR	BER	BlckErr	Temp	State	Recorded	gain1	gain2
2026-01-28 03:08:38.82	15.40	7.01	-29.7	-32.8	5.5	7.86e-01	0	40	0	0	19	5139
2026-01-28 03:08:41.82	15.31	7.24	-30.1	-33.4	9.6	1.24e-02	0	40	0	5242880	20	5261
2026-01-28 03:08:44.83	15.21	7.47	-29.7	-32.7	10.5	4.68e-03	0	40	0	22020096	19	5098
2026-01-28 03:08:47.83	15.10	7.70	-29.0	-31.4	11.8	7.12e-04	0	41	0	38797312	18	4727
2026-01-28 03:08:50.84	15.00	7.93	-28.2	-30.4	13.0	6.75e-05	0	41	0	55574528	16	4638
2026-01-28 03:08:53.86	14.89	8.17	-27.9	-29.7	13.5	2.40e-05	0	41	0	73400320	16	4428
2026-01-28 03:08:56.86	14.79	8.41	-27.8	-30.1	13.4	2.51e-05	0	41	0	90177536	15	4661
2026-01-28 03:08:59.87	14.68	8.65	-27.9	-30.2	13.4	1.94e-05	0	41	0	106954752	15	4697
2026-01-28 03:09:02.87	14.56	8.89	-27.4	-29.0	14.1	4.50e-06	0	41	0	123731968	15	4340
2026-01-28 03:09:05.89	14.45	9.13	-27.3	-29.4	14.1	8.00e-06	0	41	0	140509184	14	4560
2026-01-28 03:09:08.91	14.33	9.38	-27.4	-28.9	14.1	8.00e-06	0	41	0	157286400	15	4310
2026-01-28 03:09:11.92	14.21	9.63	-27.3	-29.3	14.3	1.10e-06	0	41	0	174063616	14	4534
2026-01-28 03:09:14.93	14.09	9.88	-26.2	-27.6	13.8	1.10e-06	0	41	0	191889408	14	4242
2026-01-28 03:09:17.93	13.97	10.14	-27.0	-28.7	14.2	1.10e-06	0	41	0	208666624	14	4347
2026-01-28 03:09:20.95	13.85	10.39	-27.1	-28.8	14.6	1.10e-06	0	42	0	225443840	14	4390
2026-01-28 03:09:23.95	13.72	10.65	-26.9	-28.9	14.8	1.79e-03	0	42	0	242221056	13	4528
2026-01-28 03:09:26.98	13.59	10.91	-27.0	-29.0	14.8	0.00e+00	0	42	0	258998272	13	4568
2026-01-28 03:09:29.99	13.45	11.18	-26.8	-28.7	15.0	0.00e+00	0	42	0	275775488	13	4477
2026-01-28 03:09:33.01	13.32	11.45	-26.8	-28.6	15.0	1.72e-03	0	42	0	293601280	13	4435
2026-01-28 03:09:36.02	13.18	11.72	-26.8	-28.6	15.1	1.64e-03	0	42	0	310378496	13	4443
2026-01-28 03:09:39.04	13.04	11.99	-26.7	-28.3	15.3	0.00e+00	0	42	0	327155712	13	4354
2026-01-28 03:09:42.06	12.89	12.27	-26.6	-28.3	15.3	1.65e-03	0	42	0	343932928	13	4342
2026-01-28 03:09:45.06	12.75	12.54	-26.6	-28.2	15.4	1.59e-03	0	42	0	360710144	13	4315
2026-01-28 03:09:48.06	12.60	12.82	-26.6	-28.1	15.4	1.83e-03	0	42	0	377487360	13	4304
2026-01-28 03:09:51.08	12.44	13.11	-26.6	-28.1	15.4	2.45e-04	0	42	0	395313152	13	4300
2026-01-28 03:09:54.09	12.29	13.40	-26.7	-28.4	15.3	1.57e-03	0	42	0	412090368	13	4366
2026-01-28 03:09:57.11	12.13	13.69	-26.4	-28.3	15.6	1.66e-03	0	42	0	428867584	12	4460
2026-01-28 03:10:00.12	11.96	13.98	-26.5	-27.9	15.6	0.00e+00	0	42	0	445644800	13	4236
2026-01-28 03:10:03.12	11.80	14.28	-26.2	-27.3	15.9	0.00e+00	0	42	0	462422016	13	4081
2026-01-28 03:10:06.12	11.63	14.58	-26.4	-28.2	15.7	1.56e-03	0	42	0	479199232	12	4435
2026-01-28 03:10:09.13	11.45	14.88	-26.2	-27.8	15.9	0.00e+00	0	42	0	495976448	12	4331
2026-01-28 03:10:12.15	11.28	15.19	-26.2	-27.7	16.0	0.00e+00	0	42	0	513802240	12	4294
2026-01-28 03:10:15.16	11.09	15.50	-25.9	-27.2	16.3	0.00e+00	0	42	0	530579456	12	4157
2026-01-28 03:10:18.17	10.91	15.82	-25.8	-26.9	16.5	0.00e+00	0	42	0	547356672	12	4086
2026-01-28 03:10:21.17	10.72	16.14	-25.8	-27.3	16.6	0.00e+00	0	42	0	564133888	11	4301
2026-01-28 03:10:24.19	10.52	16.46	-25.6	-26.9	16.8	0.00e+00	0	42	0	580911104	11	4197
2026-01-28 03:10:27.20	10.32	16.79	-25.6	-26.9	16.9	0.00e+00	0	42	0	597688320	11	4182
2026-01-28 03:10:30.22	10.12	17.12	-25.3	-26.4	17.2	0.00e+00	0	42	0	614465536	11	4049
2026-01-28 03:10:33.23	9.91	17.46	-25.4	-27.0	17.1	0.00e+00	0	42	0	632291328	10	4328
2026-01-28 03:10:36.25	9.70	17.80	-25.3	-26.8	17.2	0.00e+00	0	42	0	649068544	10	4285
2026-01-28 03:10:39.26	9.48	18.14	-25.3	-26.7	17.3	0.00e+00	0	42	0	665845760	10	4241
2026-01-28 03:10:42.27	9.25	18.49	-25.1	-26.3	17.6	0.00e+00	0	42	0	682622976	10	4130
2026-01-28 03:10:45.28	9.02	18.84	-25.0	-26.2	17.6	0.00e+00	0	43	0	699400192	10	4109
2026-01-28 03:10:48.29	8.79	19.20	-25.1	-26.5	17.5	0.00e+00	0	43	0	716177408	10	4184
2026-01-28 03:10:51.31	8.55	19.56	-25.1	-26.4	17.6	0.00e+00	0	42	0	734003200	10	4157
2026-01-28 03:10:54.32	8.30	19.93	-25.1	-26.3	17.6	0.00e+00	0	42	0	750780416	10	4148
2026-01-28 03:10:57.33	8.05	20.30	-24.9	-26.0	17.8	0.00e+00	0	43	0	767557632	10	4057
2026-01-28 03:11:00.33	7.79	20.68	-24.8	-26.3	17.9	1.17e-03	0	43	0	784334848	9	4246
2026-01-28 03:11:03.35	7.52	21.06	-24.9	-26.3	17.8	0.00e+00	0	43	0	801112064	9	4259
2026-01-28 03:11:06.36	7.25	21.45	-24.7	-25.9	18.1	0.00e+00	0	43	0	817889280	9	4149
2026-01-28 03:11:09.37	6.97	21.84	-24.7	-26.0	18.0	1.11e-03	0	42	0	835715072	9	4187
2026-01-28 03:11:12.37	6.68	22.23	-24.8	-26.1	18.0	1.08e-03	0	43	0	852492288	9	4212
2026-01-28 03:11:15.38	6.38	22.64	-24.6	-25.8	18.2	6.37e-04	0	43	0	869269504	9	4118
2026-01-28 03:11:18.38	6.08	23.04	-24.4	-25.4	18.4	1.09e-03	0	43	0	886046720	9	4030
2026-01-28 03:11:21.40	5.76	23.46	-24.4	-25.3	18.5	1.09e-03	0	43	0	902823936	9	4001
2026-01-28 03:11:24.41	5.44	23.88	-24.4	-25.4	18.4	1.10e-03	0	43	0	919601152	9	4031
2026-01-28 03:11:27.42	5.11	24.31	-24.2	-25.4	18.7	1.19e-03	0	43	0	936378368	8	4151
2026-01-28 03:11:30.42	4.77	24.74	-24.2	-25.4	18.7	1.17e-03	0	43	0	954204160	8	4152
2026-01-28 03:11:33.43	4.42	25.17	-24.3	-25.6	18.6	1.11e-03	0	43	0	970981376	8	4183
2026-01-28 03:11:36.44	4.06	25.62	-24.2	-25.4	18.7	0.00e+00	0	43	0	987758592	8	4138
2026-01-28 03:11:39.46	3.69	26.07	-23.9	-24.8	19.0	0.00e+00	0	43	0	1004535808	8	3997
2026-01-28 03:11:42.47	3.31	26.53	-23.8	-24.6	19.2	1.13e-03	0	43	0	1021313024	8	3936
2026-01-28 03:11:45.48	2.92	26.99	-23.7	-24.4	19.2	0.00e+00	0	43	0	1038090240	8	3902
2026-01-28 03:11:48.50	2.51	27.46	-23.8	-25.0	19.2	0.00e+00	0	43	0	1054867456	7	4146
2026-01-28 03:11:51.51	2.09	27.93	-23.8	-25.1	19.2	0.00e+00	0	43	0	1072693248	7	4162
2026-01-28 03:11:54.53	1.66	28.42	-23.6	-24.6	19.4	0.00e+00	0	43	0	1089470464	7	4049
2026-01-28 03:11:57.53	1.22	28.91	-23.8	-25.0	19.2	0.00e+00	0	43	0	1106247680	7	4147
2026-01-28 03:12:00.55	0.76	29.40	-24.0	-25.4	19.0	0.00e+00	0	43	0	1123024896	7	4241
2026-01-28 03:12:03.56	0.28	29.91	-24.3	-25.6	18.7	0.00e+00	0	43	0	1139802112	8	4182
2026-01-28 03:12:06.57	359.79	30.41	-23.6	-24.7	19.4	0.00e+00	0	43	0	1156579328	7	4063
2026-01-28 03:12:09.59	359.29	30.93	-23.3	-24.1	19.6	0.00e+00	0	43	0	1174405120	7	3931
2026-01-28 03:12:12.60	358.77	31.45	-23.2	-23.8	19.8	0.00e+00	0	43	0	1191182336	7	3856
2026-01-28 03:12:15.62	358.22	31.98	-23.2	-24.3	19.8	0.00e+00	0	43	0	1207959552	6	4095
2026-01-28 03:12:18.62	357.67	32.52	-23.4	-24.6	19.6	0.00e+00	0	43	0	1224736768	6	4176
2026-01-28 03:12:21.62	357.09	33.06	-23.6	-24.6	19.4	0.00e+00	0	43	0	1241513984	7	4053
2026-01-28 03:12:24.63	356.50	33.61	-23.4	-24.3	19.6	0.00e+00	0	43	0	1258291200	7	3973
2026-01-28 03:12:27.63	355.88	34.16	-23.5	-24.4	19.6	0.00e+00	0	43	0	1275068416	7	3992
2026-01-28 03:12:30.63	355.24	34.72	-23.0	-23.4	20.1	0.00e+00	0	43	0	1292894208	7	3768
2026-01-28 03:12:33.63	354.58	35.28	-23.0	-23.9	20.1	0.00e+00	0	43	0	1309671424	6	4002
2026-01-28 03:12:36.62	353.90	35.85	-23.2	-24.2	19.9	0.00e+00	0	43	0	1326448640	6	4066
2026-01-28 03:12:39.62	353.19	36.43	-23.1	-24.1	20.0	0.00e+00	0	43	0	1343225856	6	4044
2026-01-28 03:12:42.64	352.45	37.01	-23.4	-24.7	19.7	0.00e+00	0	43	0	1360003072	6	4199
2026-01-28 03:12:45.65	351.69	37.60	-23.2	-24.4	19.8	0.00e+00	0	43	0	1376780288	6	4106
2026-01-28 03:12:48.66	350.90	38.19	-22.7	-23.6	19.2	0.00e+00	0	43	0	1393557504	6	3998
2026-01-28 03:12:51.67	350.07	38.79	-23.5	-24.4	19.6	0.00e+00	0	43	0	1410334720	7	3993
2026-01-28 03:12:54.68	349.22	39.38	-23.4	-24.2	19.7	0.00e+00	0	43	0	1428160512	7	3962
2026-01-28 03:12:57.69	348.33	39.99	-23.4	-24.3	19.7	0.00e+00	0	43	0	1444937728	7	3969
2026-01-28 03:13:00.70	347.41	40.59	-23.4	-24.2	19.7	3.05e-04	0	43	0	1461714944	7	3942
2026-01-28 03:13:03.72	346.45	41.20	-23.4	-24.7	19.7	0.00e+00	0	43	0	1478492160	6	4177
2026-01-28 03:13:06.73	345.46	41.80	-23.4	-24.7	19.7	6.84e-04	0	43	0	1495269376	6	4181
2026-01-28 03:13:09.74	344.43	42.41	-23.6	-24.6	19.5	8.81e-04	0	43	0	1512046592	7	4050
2026-01-28 03:13:12.75	343.36	43.02	-23.4	-24.3	19.7	1.11e-03	0	43	0	1528823808	7	3968
2026-01-28 03:13:15.76	342.25	43.62	-23.3	-24.1	19.8	1.06e-03	0	43	0	1546649600	7	3932
2026-01-28 03:13:18.78	341.09	44.22	-23.1	-23.7	20.0	8.28e-04	0	43	0	1563426816	7	3830
2026-01-28 03:13:21.79	339.89	44.82	-23.2	-24.2	20.0	7.55e-04	0	43	0	1580204032	6	4060
2026-01-28 03:13:24.78	338.65	45.40	-23.6	-24.2	19.5	6.51e-04	0	43	0	1596981248	8	3833
2026-01-28 03:13:27.79	337.35	45.99	-23.4	-24.2	19.7	0.00e+00	0	43	0	1613758464	7	3959
2026-01-28 03:13:30.81	336.01	46.56	-23.2	-23.8	20.0	3.27e-04	0	43	0	1630535680	7	3861
2026-01-28 03:13:33.82	334.61	47.13	-23.3	-24.6	19.8	0.00e+00	0	43	0	1648361472	6	4156
2026-01-28 03:13:36.83	333.17	47.68	-23.8	-25.1	19.3	0.00e+00	0	43	0	1665138688	7	4171
2026-01-28 03:13:39.85	331.67	48.22	-23.8	-25.0	19.4	0.00e+00	0	43	0	1681915904	7	4145
2026-01-28 03:13:42.86	330.12	48.74	-23.7	-24.8	19.5	6.66e-04	0	43	0	1698693120	7	4097
2026-01-28 03:13:45.87	328.52	49.25	-23.8	-24.9	19.4	0.00e+00	0	43	0	1715470336	7	4123
2026-01-28 03:13:48.87	326.87	49.73	-24.3	-25.5	18.9	0.00e+00	0	43	0	1732247552	8	4163
2026-01-28 03:13:51.89	325.16	50.20	-24.7	-25.9	18.5	0.00e+00	0	43	0	1749024768	9	4137
2026-01-28 03:13:54.90	323.40	50.64	-24.1	-24.7	19.1	0.00e+00	0	43	0	1765801984	9	3834
2026-01-28 03:13:57.92	321.58	51.06	-24.7	-26.0	18.4	0.00e+00	0	43	0	1783627776	9	4165
2026-01-28 03:14:00.93	319.72	51.45	-24.4	-25.3	18.8	0.00e+00	0	43	0	1800404992	9	3992
2026-01-28 03:14:03.94	317.81	51.81	-24.2	-25.4	18.9	0.00e+00	0	43	0	1817182208	8	4140
2026-01-28 03:14:06.96	315.85	52.14	-23.9	-24.2	19.3	0.00e+00	0	43	0	1833959424	9	3743
2026-01-28 03:14:09.97	313.85	52.43	-24.0	-24.9	19.2	0.00e+00	0	43	0	1851785216	8	4007
2026-01-28 03:14:12.97	311.83	52.69	-24.2	-25.5	18.9	0.00e+00	0	43	0	1868562432	8	4153
2026-01-28 03:14:15.97	309.77	52.91	-23.9	-24.8	19.3	0.00e+00	0	43	0	1885339648	8	3980
2026-01-28 03:14:18.99	307.66	53.10	-24.3	-25.7	18.8	0.00e+00	0	43	0	1902116864	8	4193
2026-01-28 03:14:21.99	305.55	53.24	-24.8	-25.6	18.3	0.00e+00	0	43	0	1918894080	10	3964
2026-01-28 03:14:25.01	303.40	53.35	-24.2	-24.8	19.0	0.00e+00	0	43	0	1935671296	9	3884
2026-01-28 03:14:28.02	301.25	53.41	-23.8	-24.1	19.3	0.00e+00	0	43	0	1952448512	9	3717
2026-01-28 03:14:31.02	299.10	53.44	-24.1	-25.3	19.0	0.00e+00	0	43	0	1969225728	8	4103
2026-01-28 03:14:34.03	296.94	53.42	-24.0	-24.9	19.2	0.00e+00	0	43	0	1987051520	8	4002
2026-01-28 03:14:37.05	294.78	53.36	-23.9	-24.7	19.3	0.00e+00	0	43	0	2003828736	8	3958
2026-01-28 03:14:40.07	292.63	53.26	-23.6	-24.6	19.5	0.00e+00	0	43	0	2020605952	7	4036
2026-01-28 03:14:43.08	290.51	53.12	-24.2	-25.4	18.9	0.00e+00	0	43	0	2037383168	8	4132
2026-01-28 03:14:46.10	288.40	52.93	-23.5	-24.5	19.6	0.00e+00	0	43	0	2054160384	7	4015
2026-01-28 03:14:49.09	286.34	52.72	-23.9	-25.2	19.2	0.00e+00	0	43	0	2070937600	7	4195
2026-01-28 03:14:52.11	284.29	52.46	-24.3	-25.5	18.8	0.00e+00	0	43	0	2087714816	8	4167
2026-01-28 03:14:55.11	282.30	52.17	-23.7	-24.4	19.3	0.00e+00	0	43	0	2105540608	8	3899
2026-01-28 03:14:58.12	280.34	51.85	-23.7	-24.8	19.4	0.00e+00	0	43	0	2122317824	7	4109
2026-01-28 03:15:01.14	278.41	51.49	-23.6	-24.6	19.4	0.00e+00	0	43	0	2139095040	7	4060
2026-01-28 03:15:04.15	276.54	51.10	-23.6	-24.7	19.4	0.00e+00	0	43	0	2155872256	7	4081
2026-01-28 03:15:07.16	274.73	50.69	-23.7	-24.9	19.3	0.00e+00	0	43	0	2172649472	7	4124
2026-01-28 03:15:10.16	272.96	50.25	-23.8	-25.0	19.2	0.00e+00	0	43	0	2189426688	7	4164
2026-01-28 03:15:13.17	271.25	49.79	-23.6	-24.7	19.4	0.00e+00	0	43	0	2207252480	7	4067
2026-01-28 03:15:16.18	269.58	49.30	-23.5	-24.4	19.5	0.00e+00	0	43	0	2224029696	7	4003
2026-01-28 03:15:19.19	267.97	48.79	-23.3	-24.0	19.7	0.00e+00	0	43	0	2240806912	7	3920
2026-01-28 03:15:22.20	266.41	48.27	-23.2	-24.2	19.8	0.00e+00	0	43	0	2257584128	6	4074
2026-01-28 03:15:25.22	264.90	47.73	-23.2	-24.4	19.7	0.00e+00	0	43	0	2274361344	6	4113
2026-01-28 03:15:28.22	263.46	47.18	-23.3	-24.5	19.7	0.00e+00	0	43	0	2291138560	6	4142
2026-01-28 03:15:31.23	262.05	46.62	-23.1	-24.0	19.9	0.00e+00	0	43	0	2307915776	6	4028
2026-01-28 03:15:34.25	260.70	46.04	-22.6	-23.1	20.3	0.00e+00	0	43	0	2324692992	6	3815
2026-01-28 03:15:37.26	259.40	45.46	-22.8	-24.0	20.1	0.00e+00	0	43	0	2342518784	5	4136
2026-01-28 03:15:40.26	258.15	44.87	-22.9	-24.1	20.0	0.00e+00	0	43	0	2359296000	5	4161
2026-01-28 03:15:43.26	256.94	44.27	-22.5	-23.5	20.3	1.10e-06	0	43	0	2376073216	5	4001
2026-01-28 03:15:46.27	255.78	43.67	-22.4	-23.1	20.5	0.00e+00	0	43	0	2392850432	5	3928
2026-01-28 03:15:49.27	254.66	43.07	-22.5	-23.3	20.4	0.00e+00	0	43	0	2409627648	5	3964
2026-01-28 03:15:52.27	253.58	42.46	-22.9	-24.2	19.9	3.40e-06	0	43	0	2426404864	5	4186
2026-01-28 03:15:55.27	252.55	41.85	-22.9	-24.2	19.9	1.10e-06	0	43	0	2443182080	5	4192
2026-01-28 03:15:58.29	251.55	41.24	-23.5	-24.5	19.3	2.20e-06	0	43	0	2459959296	7	4035
2026-01-28 03:16:01.30	250.58	40.64	-22.9	-23.7	19.9	0.00e+00	0	43	0	2477785088	6	3941
2026-01-28 03:16:04.32	249.65	40.03	-22.9	-23.8	19.9	0.00e+00	0	43	0	2494562304	6	3980
2026-01-28 03:16:07.33	248.76	39.42	-22.6	-23.7	20.2	0.00e+00	0	43	0	2511339520	5	4053
2026-01-28 03:16:10.34	247.90	38.82	-22.6	-23.5	20.3	0.00e+00	0	43	0	2528116736	5	4010
2026-01-28 03:16:13.34	247.07	38.22	-22.6	-23.4	20.1	0.00e+00	0	43	0	2544893952	5	3946
2026-01-28 03:16:16.35	246.27	37.63	-22.7	-23.8	17.5	0.00e+00	0	43	0	2561671168	5	4089
2026-01-28 03:16:19.37	245.50	37.04	-22.5	-23.4	20.3	0.00e+00	0	43	0	2579496960	5	3973
2026-01-28 03:16:22.38	244.76	36.45	-22.3	-23.6	20.4	0.00e+00	0	43	0	2596274176	4	4143
2026-01-28 03:16:25.38	244.04	35.87	-22.7	-23.8	20.1	1.53e-03	0	43	0	2613051392	5	4088
2026-01-28 03:16:28.40	243.35	35.30	-22.4	-23.2	20.4	1.05e-03	0	43	0	2629828608	5	3935
2026-01-28 03:16:31.41	242.68	34.73	-22.3	-22.9	20.5	0.00e+00	0	43	0	2646605824	5	3867
2026-01-28 03:16:34.42	242.04	34.17	-22.2	-22.7	20.6	2.56e-04	0	43	0	2663383040	5	3831
2026-01-28 03:16:37.44	241.42	33.61	-22.5	-23.5	20.2	7.09e-04	0	43	0	2680160256	5	4015
2026-01-28 03:16:40.46	240.81	33.05	-22.4	-23.2	20.3	8.78e-04	0	43	0	2697986048	5	3934
2026-01-28 03:16:43.48	240.23	32.51	-22.7	-23.7	20.0	9.88e-04	0	43	0	2714763264	5	4073
2026-01-28 03:16:46.47	239.67	31.97	-23.0	-24.3	19.7	8.97e-04	0	43	0	2731540480	5	4217
2026-01-28 03:16:49.48	239.13	31.44	-23.0	-23.8	19.7	2.25e-04	0	43	0	2748317696	6	3987
2026-01-28 03:16:52.49	238.60	30.92	-22.9	-23.7	19.8	0.00e+00	0	43	0	2765094912	6	3950
2026-01-28 03:16:55.51	238.09	30.40	-23.1	-24.1	19.6	0.00e+00	0	43	0	2781872128	6	4057
2026-01-28 03:16:58.51	237.60	29.89	-22.9	-23.8	19.7	7.29e-04	0	43	0	2799697920	6	3973
2026-01-28 03:17:01.53	237.12	29.38	-23.1	-24.2	19.6	0.00e+00	0	43	0	2816475136	6	4062
2026-01-28 03:17:04.53	236.66	28.88	-23.1	-24.2	19.5	0.00e+00	0	43	0	2833252352	6	4075
2026-01-28 03:17:07.53	236.22	28.39	-23.2	-24.4	19.4	0.00e+00	0	43	0	2850029568	6	4123
2026-01-28 03:17:10.55	235.78	27.91	-23.2	-24.4	19.4	0.00e+00	0	43	0	2866806784	6	4126
2026-01-28 03:17:13.57	235.36	27.43	-23.1	-24.2	19.5	0.00e+00	0	43	0	2883584000	6	4076
2026-01-28 03:17:16.58	234.95	26.96	-23.3	-24.5	19.3	0.00e+00	0	43	0	2900361216	6	4150
2026-01-28 03:17:19.58	234.56	26.49	-23.3	-24.5	19.3	0.00e+00	0	43	0	2918187008	6	4138
2026-01-28 03:17:22.59	234.17	26.03	-23.3	-24.5	19.3	0.00e+00	0	43	0	2934964224	6	4141
2026-01-28 03:17:25.62	233.79	25.58	-23.4	-24.3	19.2	0.00e+00	0	43	0	2951741440	7	3979
2026-01-28 03:17:28.62	233.43	25.13	-23.4	-24.2	19.2	0.00e+00	0	43	0	2968518656	7	3965
2026-01-28 03:17:31.64	233.08	24.69	-23.4	-24.3	19.1	0.00e+00	0	43	0	2985295872	7	3991
2026-01-28 03:17:34.64	232.74	24.26	-23.3	-24.5	19.2	0.00e+00	0	43	0	3002073088	6	4159
2026-01-28 03:17:37.65	232.40	23.83	-23.4	-24.7	19.1	0.00e+00	0	43	0	3018850304	6	4193
2026-01-28 03:17:40.67	232.08	23.41	-23.5	-24.9	19.0	0.00e+00	0	43	0	3036676096	6	4261
2026-01-28 03:17:43.67	231.76	22.99	-23.4	-24.2	19.1	0.00e+00	0	43	0	3053453312	7	3969
2026-01-28 03:17:46.68	231.46	22.58	-23.3	-24.0	19.2	0.00e+00	0	43	0	3070230528	7	3924
2026-01-28 03:17:49.69	231.16	22.18	-23.5	-24.9	19.0	0.00e+00	0	43	0	3087007744	6	4252
2026-01-28 03:17:52.71	230.86	21.78	-23.7	-24.9	18.8	0.00e+00	0	43	0	3103784960	7	4125
2026-01-28 03:17:55.71	230.58	21.39	-23.9	-25.4	18.5	0.00e+00	0	43	0	3120562176	7	4263
2026-01-28 03:17:58.72	230.30	21.00	-24.2	-25.6	16.1	0.00e+00	0	43	0	3138387968	8	4197
2026-01-28 03:18:01.73	230.04	20.61	-24.1	-25.4	18.0	0.00e+00	0	43	0	3155165184	8	4147
2026-01-28 03:18:04.75	229.77	20.23	-24.2	-25.4	18.2	4.98e-04	0	43	0	3171942400	8	4164
2026-01-28 03:18:07.76	229.52	19.86	-24.1	-25.2	18.3	0.00e+00	0	43	0	3188719616	8	4106
2026-01-28 03:18:10.77	229.27	19.49	-24.2	-25.5	18.1	0.00e+00	0	43	0	3205496832	8	4166
2026-01-28 03:18:13.79	229.02	19.13	-24.3	-25.7	18.0	1.38e-03	0	43	0	3222274048	8	4220
2026-01-28 03:18:16.80	228.78	18.77	-24.5	-25.7	17.7	1.47e-03	0	43	0	3239051264	9	4110
2026-01-28 03:18:19.81	228.55	18.42	-24.5	-25.6	17.8	0.00e+00	0	43	0	3256877056	9	4079
2026-01-28 03:18:22.82	228.33	18.07	-24.4	-25.5	17.8	1.32e-03	0	43	0	3273654272	9	4052
2026-01-28 03:18:25.84	228.10	17.72	-24.6	-25.9	17.6	1.38e-03	0	43	0	3290431488	9	4165
2026-01-28 03:18:28.84	227.89	17.38	-24.7	-26.0	17.5	1.34e-03	0	43	0	3307208704	9	4185
2026-01-28 03:18:31.84	227.68	17.04	-24.8	-26.3	17.3	1.30e-03	0	43	0	3323985920	9	4273
2026-01-28 03:18:34.84	227.47	16.71	-25.0	-26.7	17.1	1.31e-03	0	43	0	3340763136	9	4375
2026-01-28 03:18:37.85	227.27	16.38	-25.3	-26.8	16.8	1.19e-03	0	43	0	3357540352	10	4294
2026-01-28 03:18:40.86	227.07	16.06	-25.0	-26.3	17.0	0.00e+00	0	43	0	3374317568	10	4171
2026-01-28 03:18:43.86	226.88	15.74	-25.2	-26.6	16.9	1.27e-03	0	43	0	3392143360	10	4230
2026-01-28 03:18:46.87	226.69	15.42	-25.0	-26.3	17.0	1.24e-03	0	43	0	3408920576	10	4162
2026-01-28 03:18:49.88	226.51	15.11	-25.0	-26.3	17.0	0.00e+00	0	43	0	3425697792	10	4158
2026-01-28 03:18:52.89	226.33	14.80	-25.1	-26.4	16.9	0.00e+00	0	43	0	3442475008	10	4199
2026-01-28 03:18:55.90	226.15	14.50	-25.2	-26.6	16.8	1.18e-03	0	43	0	3459252224	10	4238
2026-01-28 03:18:58.90	225.98	14.20	-25.3	-26.9	16.6	0.00e+00	0	43	0	3476029440	10	4309
2026-01-28 03:19:01.92	225.81	13.90	-25.5	-26.8	16.3	0.00e+00	0	43	0	3493855232	11	4189
2026-01-28 03:19:04.93	225.64	13.60	-25.5	-26.8	16.3	0.00e+00	0	43	0	3510632448	11	4195
2026-01-28 03:19:07.94	225.48	13.31	-25.6	-27.1	16.2	0.00e+00	0	43	0	3527409664	11	4254
2026-01-28 03:19:10.96	225.32	13.02	-25.7	-27.3	16.0	0.00e+00	0	43	0	3544186880	11	4322
2026-01-28 03:19:13.97	225.16	12.73	-25.9	-27.7	15.8	0.00e+00	0	43	0	3560964096	11	4427
2026-01-28 03:19:16.98	225.01	12.45	-25.9	-27.6	15.8	0.00e+00	0	43	0	3577741312	11	4403
2026-01-28 03:19:20.00	224.86	12.17	-25.9	-27.8	15.7	0.00e+00	0	43	0	3594518528	11	4447
2026-01-28 03:19:23.01	224.71	11.89	-25.8	-27.5	15.8	0.00e+00	0	43	0	3612344320	11	4382
2026-01-28 03:19:26.03	224.57	11.62	-25.8	-26.9	15.8	0.00e+00	0	43	0	3629121536	12	4116
2026-01-28 03:19:29.03	224.43	11.35	-25.9	-27.8	15.6	0.00e+00	0	43	0	3645898752	11	4462
2026-01-28 03:19:32.04	224.29	11.08	-25.8	-27.5	15.8	0.00e+00	0	43	0	3662675968	11	4383
2026-01-28 03:19:35.05	224.16	10.82	-25.9	-27.7	15.6	0.00e+00	0	43	0	3679453184	11	4444
2026-01-28 03:19:38.04	224.02	10.56	-25.9	-27.1	15.6	0.00e+00	0	43	0	3696230400	12	4170
2026-01-28 03:19:41.07	223.89	10.29	-26.0	-27.4	15.4	0.00e+00	0	43	0	3714056192	12	4238
2026-01-28 03:19:44.08	223.76	10.04	-26.1	-27.6	15.3	0.00e+00	0	43	0	3730833408	12	4302
2026-01-28 03:19:47.09	223.64	9.78	-26.2	-28.0	15.0	0.00e+00	0	43	0	3747610624	12	4421
2026-01-28 03:19:50.09	223.51	9.53	-26.3	-28.1	14.9	0.00e+00	0	43	0	3764387840	12	4437
2026-01-28 03:19:53.10	223.39	9.28	-26.5	-28.5	14.6	0.00e+00	0	43	0	3781165056	12	4573
2026-01-28 03:19:56.11	223.27	9.03	-26.5	-28.0	14.6	0.00e+00	0	43	0	3797942272	13	4318
2026-01-28 03:19:59.13	223.16	8.79	-26.4	-28.5	14.7	1.10e-06	0	43	0	3814719488	12	4557
2026-01-28 03:20:02.13	223.04	8.55	-26.8	-28.8	14.1	3.40e-06	0	43	0	3832545280	13	4548
2026-01-28 03:20:05.13	222.93	8.31	-27.0	-28.9	13.8	9.10e-06	0	43	0	3849322496	14	4460
2026-01-28 03:20:08.12	222.82	8.07	-26.9	-29.1	13.9	1.10e-06	0	43	0	3866099712	13	4631
2026-01-28 03:20:11.14	222.71	7.83	-26.6	-28.5	14.2	3.40e-06	0	43	0	3882876928	13	4455
2026-01-28 03:20:14.15	222.60	7.60	-26.9	-29.0	13.9	9.10e-06	0	43	0	3899654144	13	4621
2026-01-28 03:20:17.16	222.50	7.36	-27.5	-29.5	12.9	6.52e-05	0	43	0	3916431360	15	4554
2026-01-28 03:20:20.17	222.39	7.13	-27.4	-29.7	13.2	1.37e-05	0	43	0	3933208576	14	4710

#Closed at: 2026-01-28 03:20:22
#Recorded file [3934 MB]: D:/data/31010_260128_060840.dat