passes_logs/2026/01/28/R2M6_AANII_01/R2M6_AANII_01__20260128_104451_NOAA_20_JPSS-1_rec.log

#Pass ID: 20260128_104451_NOAA 20 (JPSS-1)
#Satellite: NOAA 20 (JPSS-1)
#Configuration: NOAA 20
#almurnet v.1.7.20240730
#Start time: 2026-01-28 10:44:51

#Version: 2.2.20231116
#Station: R2M6_AANII_01
#Location: 30.233357 lon 59.946436 lat
#TLE: 1 43013U 17073A   26027.80586608  .00000156  00000+0  94940-4 0  9998
#TLE: 2 43013  98.7647 328.6108 0000947  21.3465 338.7750 14.19541216424550

#Time	Az	El	Level	Level2	SNR	BER	BlckErr	Temp	State	Recorded	gain1	gain2
2026-01-28 10:44:51.89	173.40	7.02	-30.4	-34.6	5.5	1.18e+00	0	41	0	0	21	5802
2026-01-28 10:44:54.91	173.49	7.25	-30.8	-35.2	10.1	5.59e-03	0	41	0	1048576	22	5992
2026-01-28 10:44:57.93	173.58	7.49	-30.2	-33.7	11.6	1.17e-03	0	41	0	7340032	21	5378
2026-01-28 10:45:00.93	173.66	7.72	-29.9	-32.9	12.2	2.42e-04	0	41	0	12582912	21	5075
2026-01-28 10:45:03.94	173.75	7.96	-29.9	-32.8	12.4	1.33e-04	0	41	0	17825792	21	5004
2026-01-28 10:45:06.95	173.85	8.20	-29.8	-32.5	12.6	1.43e-04	0	41	0	24117248	21	4903
2026-01-28 10:45:09.97	173.94	8.44	-29.8	-32.4	12.7	1.11e-04	0	41	0	29360128	21	4864
2026-01-28 10:45:12.98	174.03	8.69	-29.8	-32.8	12.7	6.17e-05	0	41	0	35651584	20	5105
2026-01-28 10:45:15.99	174.13	8.93	-29.8	-32.8	12.7	8.31e-05	0	41	0	40894464	20	5119
2026-01-28 10:45:19.00	174.23	9.18	-29.7	-32.6	12.9	4.27e-05	0	41	0	46137344	20	5024
2026-01-28 10:45:22.00	174.32	9.43	-29.6	-32.3	13.2	2.74e-05	0	42	0	52428800	20	4904
2026-01-28 10:45:25.02	174.42	9.69	-29.6	-32.3	13.2	3.28e-05	0	42	0	57671680	20	4911
2026-01-28 10:45:28.02	174.53	9.94	-29.7	-32.4	13.1	2.82e-05	0	42	0	63963136	20	4951
2026-01-28 10:45:31.02	174.63	10.20	-29.6	-32.2	13.3	1.90e-05	0	42	0	69206016	20	4854
2026-01-28 10:45:34.04	174.73	10.46	-29.6	-32.2	13.3	1.22e-05	0	42	0	74448896	20	4876
2026-01-28 10:45:37.06	174.84	10.73	-29.5	-32.0	13.5	1.37e-05	0	41	0	80740352	20	4794
2026-01-28 10:45:40.06	174.95	10.99	-29.5	-32.0	13.5	1.98e-05	0	42	0	85983232	20	4779
2026-01-28 10:45:43.07	175.06	11.26	-29.6	-32.3	13.3	2.05e-05	0	42	0	91226112	20	4911
2026-01-28 10:45:46.09	175.17	11.54	-29.5	-32.0	13.6	1.44e-05	0	42	0	97517568	20	4780
2026-01-28 10:45:49.10	175.29	11.81	-29.5	-32.1	13.5	1.37e-05	0	42	0	102760448	20	4812
2026-01-28 10:45:52.11	175.40	12.09	-29.6	-32.2	13.4	1.22e-05	0	42	0	109051904	20	4870
2026-01-28 10:45:55.12	175.52	12.38	-29.5	-32.1	13.5	6.10e-06	0	42	0	114294784	20	4810
2026-01-28 10:45:58.13	175.64	12.66	-29.4	-31.6	13.9	9.10e-06	0	42	0	119537664	20	4634
2026-01-28 10:46:01.13	175.76	12.95	-29.3	-31.4	14.0	9.10e-06	0	42	0	125829120	20	4561
2026-01-28 10:46:04.15	175.89	13.24	-29.4	-32.1	14.0	1.14e-05	0	42	0	131072000	19	4926
2026-01-28 10:46:07.16	176.01	13.54	-29.4	-32.2	14.0	8.30e-06	0	42	0	137363456	19	4942
2026-01-28 10:46:10.17	176.14	13.84	-29.6	-32.5	13.8	1.75e-05	0	42	0	142606336	19	5039
2026-01-28 10:46:13.18	176.28	14.14	-29.5	-32.4	13.8	2.20e-06	0	42	0	147849216	19	5020
2026-01-28 10:46:16.19	176.41	14.45	-29.6	-32.7	13.7	6.10e-06	0	42	0	154140672	19	5125
2026-01-28 10:46:19.20	176.55	14.76	-29.7	-32.8	13.6	4.50e-06	0	42	0	159383552	19	5171
2026-01-28 10:46:22.21	176.69	15.07	-29.7	-32.8	13.7	1.44e-05	0	43	0	164626432	19	5129
2026-01-28 10:46:25.22	176.83	15.39	-29.7	-32.9	13.6	1.37e-05	0	42	0	170917888	19	5196
2026-01-28 10:46:28.23	176.97	15.71	-29.7	-32.8	13.6	8.30e-06	0	42	0	176160768	19	5157
2026-01-28 10:46:31.24	177.12	16.04	-29.8	-33.0	13.5	9.90e-06	0	43	0	182452224	19	5221
2026-01-28 10:46:34.24	177.27	16.37	-29.7	-33.0	13.6	1.52e-05	0	43	0	187695104	19	5230
2026-01-28 10:46:37.25	177.43	16.70	-29.9	-33.6	13.2	2.89e-05	0	43	0	192937984	19	5468
2026-01-28 10:46:40.26	177.58	17.04	-29.9	-33.4	13.3	1.83e-05	0	43	0	199229440	19	5397
2026-01-28 10:46:43.27	177.75	17.38	-30.1	-33.5	12.9	4.73e-05	0	43	0	204472320	20	5326
2026-01-28 10:46:46.28	177.91	17.73	-29.9	-33.1	13.2	3.50e-05	0	42	0	209715200	20	5155
2026-01-28 10:46:49.29	178.08	18.09	-29.9	-32.8	13.3	1.14e-05	0	43	0	216006656	20	5075
2026-01-28 10:46:52.30	178.25	18.44	-29.8	-32.9	13.3	1.90e-05	0	42	0	221249536	20	5089
2026-01-28 10:46:55.31	178.43	18.81	-29.8	-32.9	13.3	1.75e-05	0	43	0	227540992	20	5094
2026-01-28 10:46:58.32	178.61	19.18	-29.9	-33.1	13.1	2.82e-05	0	42	0	232783872	20	5206
2026-01-28 10:47:01.32	178.79	19.55	-29.8	-32.9	13.3	1.22e-05	0	43	0	238026752	20	5106
2026-01-28 10:47:04.33	178.98	19.93	-30.2	-33.8	12.7	5.79e-05	0	43	0	244318208	20	5456
2026-01-28 10:47:07.33	179.17	20.31	-30.2	-33.7	12.8	5.11e-05	0	43	0	249561088	20	5386
2026-01-28 10:47:10.34	179.37	20.70	-30.2	-33.7	12.9	6.48e-05	0	43	0	254803968	20	5395
2026-01-28 10:47:13.35	179.57	21.10	-30.0	-32.9	13.5	6.80e-06	0	43	0	261095424	20	5067
2026-01-28 10:47:16.36	179.78	21.50	-29.8	-32.5	13.7	9.10e-06	0	43	0	266338304	20	4921
2026-01-28 10:47:19.36	179.99	21.91	-29.9	-32.7	13.6	6.10e-06	0	43	0	272629760	20	4988
2026-01-28 10:47:22.36	180.20	22.32	-30.0	-33.0	13.5	1.22e-05	0	43	0	277872640	20	5091
2026-01-28 10:47:25.36	180.43	22.74	-29.8	-32.6	13.7	8.30e-06	0	43	0	283115520	20	4932
2026-01-28 10:47:28.37	180.66	23.17	-29.9	-32.8	13.6	9.10e-06	0	43	0	289406976	20	5002
2026-01-28 10:47:31.38	180.89	23.60	-29.8	-32.3	14.0	2.20e-06	0	43	0	294649856	20	4836
2026-01-28 10:47:34.38	181.13	24.04	-29.8	-32.4	14.0	4.50e-06	0	43	0	300941312	20	4834
2026-01-28 10:47:37.39	181.38	24.49	-29.6	-31.8	14.3	7.00e-07	0	43	0	306184192	20	4663
2026-01-28 10:47:40.41	181.64	24.95	-29.6	-31.8	14.3	1.50e-06	0	43	0	311427072	20	4642
2026-01-28 10:47:43.43	181.90	25.41	-29.4	-31.5	14.6	7.00e-07	0	43	0	317718528	20	4536
2026-01-28 10:47:46.44	182.17	25.88	-29.4	-31.2	14.7	1.50e-06	0	43	0	322961408	20	4461
2026-01-28 10:47:49.45	182.45	26.36	-29.5	-31.5	14.6	7.00e-07	0	43	0	329252864	20	4541
2026-01-28 10:47:52.46	182.73	26.85	-29.5	-31.5	14.6	0.00e+00	0	43	0	334495744	20	4534
2026-01-28 10:47:55.46	183.03	27.34	-29.6	-31.8	14.4	0.00e+00	0	43	0	339738624	20	4639
2026-01-28 10:47:58.47	183.33	27.85	-29.5	-31.4	14.7	7.00e-07	0	43	0	346030080	20	4526
2026-01-28 10:48:01.48	183.64	28.36	-29.6	-31.8	14.4	7.00e-07	0	43	0	351272960	20	4633
2026-01-28 10:48:04.49	183.97	28.88	-29.8	-32.3	14.1	1.50e-06	0	43	0	356515840	20	4812
2026-01-28 10:48:07.50	184.30	29.41	-30.2	-33.5	13.4	9.90e-06	0	43	0	362807296	20	5232
2026-01-28 10:48:10.51	184.64	29.94	-30.4	-33.6	13.0	6.17e-05	0	43	0	368050176	21	5173
2026-01-28 10:48:13.52	185.00	30.49	-30.3	-33.1	13.3	1.83e-05	0	43	0	374341632	21	4982
2026-01-28 10:48:16.53	185.36	31.05	-30.4	-33.4	13.1	2.36e-05	0	43	0	379584512	21	5082
2026-01-28 10:48:19.55	185.75	31.62	-30.7	-34.3	12.5	1.07e-04	0	43	0	384827392	21	5463
2026-01-28 10:48:22.56	186.14	32.19	-30.9	-35.0	12.0	3.70e-04	0	43	0	391118848	21	5763
2026-01-28 10:48:25.56	186.54	32.77	-30.8	-34.5	12.3	2.03e-04	0	43	0	396361728	21	5556
2026-01-28 10:48:28.57	186.97	33.37	-30.9	-34.8	12.2	1.85e-04	0	43	0	401604608	21	5642
2026-01-28 10:48:31.57	187.40	33.97	-31.2	-35.2	11.7	3.90e-04	0	43	0	407896064	22	5697
2026-01-28 10:48:34.59	187.85	34.59	-31.0	-34.6	12.0	3.58e-04	0	43	0	413138944	22	5476
2026-01-28 10:48:37.60	188.32	35.22	-31.2	-35.1	11.7	5.50e-04	0	43	0	419430400	22	5693
2026-01-28 10:48:40.61	188.81	35.85	-31.2	-35.3	11.5	8.93e-04	0	43	0	424673280	22	5759
2026-01-28 10:48:43.62	189.32	36.50	-31.0	-34.8	11.9	4.00e-04	0	43	0	429916160	22	5532
2026-01-28 10:48:46.63	189.85	37.16	-31.2	-35.3	11.6	3.65e-04	0	43	0	436207616	22	5765
2026-01-28 10:48:49.64	190.40	37.83	-31.4	-35.8	11.2	9.70e-04	0	43	0	441450496	22	6008
2026-01-28 10:48:52.66	190.97	38.51	-31.5	-36.1	11.0	1.39e-03	0	43	0	447741952	22	6144
2026-01-28 10:48:55.65	191.56	39.19	-31.6	-36.0	10.8	2.62e-03	0	43	0	452984832	23	5951
2026-01-28 10:48:58.67	192.18	39.90	-31.3	-35.1	11.4	1.30e-03	0	43	0	458227712	23	5561
2026-01-28 10:49:01.67	192.83	40.60	-31.1	-34.4	11.9	6.42e-04	0	43	0	464519168	23	5260
2026-01-28 10:49:04.68	193.50	41.32	-30.8	-33.6	12.5	1.23e-04	0	43	0	469762048	23	4952
2026-01-28 10:49:07.69	194.21	42.05	-30.4	-32.8	13.3	1.90e-05	0	43	0	475004928	22	4755
2026-01-28 10:49:10.69	194.95	42.79	-30.3	-32.6	13.5	1.44e-05	0	43	0	481296384	22	4688
2026-01-28 10:49:13.71	195.72	43.54	-30.2	-32.9	13.6	2.20e-06	0	43	0	486539264	21	4909
2026-01-28 10:49:16.71	196.53	44.30	-30.8	-34.6	12.5	1.01e-04	0	43	0	492830720	21	5547
2026-01-28 10:49:19.72	197.38	45.07	-30.4	-33.2	13.4	1.37e-05	0	43	0	498073600	21	5010
2026-01-28 10:49:22.73	198.27	45.84	-30.8	-34.4	12.7	6.48e-05	0	43	0	503316480	21	5444
2026-01-28 10:49:25.75	199.21	46.62	-31.3	-35.4	11.7	6.10e-04	0	43	0	509607936	22	5802
2026-01-28 10:49:28.75	200.18	47.41	-31.2	-35.2	11.8	5.24e-04	0	43	0	514850816	22	5701
2026-01-28 10:49:31.77	201.22	48.20	-30.7	-33.8	12.8	2.89e-05	0	43	0	520093696	22	5098
2026-01-28 10:49:34.79	202.31	49.00	-31.0	-34.4	12.3	1.20e-04	0	43	0	526385152	22	5372
2026-01-28 10:49:37.80	203.45	49.81	-30.4	-32.9	13.4	4.27e-05	0	43	0	531628032	22	4790
2026-01-28 10:49:40.81	204.66	50.61	-30.0	-32.1	14.1	3.00e-06	0	43	0	537919488	21	4626
2026-01-28 10:49:43.82	205.93	51.41	-29.1	-31.0	15.6	0.00e+00	0	43	0	543162368	19	4451
2026-01-28 10:49:46.83	207.27	52.21	-28.6	-30.2	16.4	0.00e+00	0	43	0	548405248	18	4333
2026-01-28 10:49:49.84	208.68	53.01	-28.6	-30.1	16.5	0.00e+00	0	43	0	554696704	18	4291
2026-01-28 10:49:52.85	210.17	53.80	-28.5	-29.9	16.5	0.00e+00	0	43	0	559939584	18	4253
2026-01-28 10:49:55.86	211.74	54.58	-29.4	-32.0	15.4	0.00e+00	0	43	0	566231040	18	4884
2026-01-28 10:49:58.87	213.40	55.35	-29.7	-32.0	14.7	1.50e-06	0	43	0	571473920	20	4668
2026-01-28 10:50:01.88	215.15	56.11	-29.8	-32.2	14.6	0.00e+00	0	43	0	576716800	20	4736
2026-01-28 10:50:04.89	217.00	56.85	-30.3	-33.5	13.7	5.30e-06	0	43	0	583008256	20	5212
2026-01-28 10:50:07.91	218.95	57.58	-30.2	-33.1	14.0	1.50e-06	0	43	0	588251136	20	5051
2026-01-28 10:50:10.92	221.00	58.27	-30.3	-32.9	13.9	9.10e-06	0	43	0	593494016	21	4872
2026-01-28 10:50:13.94	223.17	58.95	-29.6	-31.6	15.0	7.00e-07	0	43	0	599785472	20	4551
2026-01-28 10:50:16.94	225.43	59.58	-29.4	-31.5	15.4	0.00e+00	0	43	0	605028352	19	4589
2026-01-28 10:50:19.94	227.80	60.18	-29.2	-31.0	15.7	0.00e+00	0	43	0	611319808	19	4450
2026-01-28 10:50:22.95	230.29	60.74	-29.0	-30.7	15.8	0.00e+00	0	43	0	616562688	19	4346
2026-01-28 10:50:25.96	232.88	61.26	-29.7	-32.3	15.0	0.00e+00	0	43	0	621805568	19	4870
2026-01-28 10:50:28.97	235.58	61.73	-29.2	-31.1	15.7	0.00e+00	0	43	0	628097024	19	4462
2026-01-28 10:50:31.99	238.39	62.15	-29.6	-32.2	15.1	0.00e+00	0	43	0	633339904	19	4816
2026-01-28 10:50:34.99	241.27	62.50	-29.5	-31.7	15.4	0.00e+00	0	43	0	638582784	19	4672
2026-01-28 10:50:38.00	244.23	62.80	-29.9	-32.3	14.7	7.00e-07	0	43	0	644874240	20	4738
2026-01-28 10:50:41.01	247.26	63.03	-29.2	-31.1	15.8	0.00e+00	0	43	0	650117120	19	4469
2026-01-28 10:50:44.01	250.33	63.20	-30.1	-32.8	14.3	0.00e+00	0	43	0	656408576	20	4927
2026-01-28 10:50:47.02	253.44	63.29	-29.2	-30.9	15.9	0.00e+00	0	43	0	661651456	19	4413
2026-01-28 10:50:50.03	256.57	63.32	-28.5	-29.9	16.8	7.00e-07	0	43	0	666894336	18	4221
2026-01-28 10:50:53.04	259.70	63.28	-28.7	-30.3	16.5	7.00e-07	0	43	0	673185792	18	4343
2026-01-28 10:50:56.06	262.82	63.17	-28.7	-30.3	16.5	0.00e+00	0	43	0	678428672	18	4342
2026-01-28 10:50:59.07	265.89	62.99	-29.0	-31.1	16.1	1.50e-06	0	43	0	684720128	18	4563
2026-01-28 10:51:02.07	268.90	62.75	-28.7	-30.4	16.5	0.00e+00	0	43	0	689963008	18	4350
2026-01-28 10:51:05.08	271.85	62.44	-28.8	-30.7	16.4	0.00e+00	0	43	0	695205888	18	4445
2026-01-28 10:51:08.10	274.72	62.07	-29.6	-32.1	15.2	0.00e+00	0	43	0	701497344	19	4792
2026-01-28 10:51:11.12	277.50	61.64	-30.6	-33.7	13.5	6.80e-06	0	43	0	706740224	21	5138
2026-01-28 10:51:14.13	280.18	61.16	-30.1	-32.3	14.4	7.00e-07	0	43	0	711983104	21	4635
2026-01-28 10:51:17.14	282.75	60.64	-31.4	-35.4	12.0	8.01e-05	0	43	0	718274560	22	5732
2026-01-28 10:51:20.15	285.21	60.07	-30.4	-32.7	13.9	1.50e-06	0	43	0	723517440	22	4670
2026-01-28 10:51:23.16	287.56	59.46	-30.8	-33.6	13.3	1.06e-05	0	43	0	729808896	22	4984
2026-01-28 10:51:26.16	289.80	58.82	-31.5	-35.3	11.8	5.37e-04	0	43	0	735051776	23	5544
2026-01-28 10:51:29.17	291.93	58.14	-30.1	-32.4	14.4	7.00e-07	0	43	0	740294656	21	4666
2026-01-28 10:51:32.18	293.96	57.44	-30.8	-34.2	13.2	3.96e-05	0	43	0	746586112	21	5338
2026-01-28 10:51:35.19	295.88	56.72	-29.5	-31.4	15.3	0.00e+00	0	43	0	751828992	20	4457
2026-01-28 10:51:38.21	297.71	55.98	-29.5	-31.2	15.4	0.00e+00	0	43	0	758120448	20	4398
2026-01-28 10:51:41.22	299.44	55.22	-28.6	-30.0	16.7	0.00e+00	0	43	0	763363328	18	4263
2026-01-28 10:51:44.23	301.08	54.45	-27.5	-28.6	18.1	0.00e+00	0	43	0	768606208	16	4075
2026-01-28 10:51:47.24	302.64	53.66	-26.6	-27.5	19.0	0.00e+00	0	43	0	774897664	14	4022
2026-01-28 10:51:50.25	304.11	52.87	-27.6	-29.3	17.8	0.00e+00	0	43	0	780140544	15	4377
2026-01-28 10:51:53.26	305.50	52.08	-27.4	-29.0	17.9	0.00e+00	0	43	0	785383424	15	4297
2026-01-28 10:51:56.27	306.82	51.28	-28.9	-31.3	16.3	0.00e+00	0	43	0	791674880	17	4753
2026-01-28 10:51:59.28	308.08	50.48	-29.1	-30.8	16.0	0.00e+00	0	43	0	796917760	19	4361
2026-01-28 10:52:02.29	309.27	49.68	-31.5	-35.8	11.8	1.31e-04	0	43	0	803209216	22	5903
2026-01-28 10:52:05.30	310.40	48.89	-31.4	-35.0	12.0	2.68e-04	0	43	0	808452096	23	5435
2026-01-28 10:52:08.30	311.47	48.10	-31.7	-35.9	11.3	7.53e-04	0	43	0	813694976	23	5834
2026-01-28 10:52:11.32	312.49	47.31	-32.7	-38.4	8.7	4.18e-02	0	43	0	819986432	25	6955
2026-01-28 10:52:14.32	313.46	46.53	-31.8	-35.8	11.1	8.81e-04	0	43	0	825229312	24	5678
2026-01-28 10:52:17.33	314.39	45.75	-32.2	-36.6	10.0	2.23e-02	0	43	0	830472192	25	5977
2026-01-28 10:52:20.34	315.27	44.98	-32.3	-37.4	9.9	4.44e-03	0	43	0	836763648	24	6450
2026-01-28 10:52:23.35	316.11	44.22	-31.8	-35.2	11.1	4.70e-03	0	43	0	842006528	25	5322
2026-01-28 10:52:26.36	316.91	43.47	-31.3	-34.5	12.3	2.41e-04	0	43	0	848297984	23	5229
2026-01-28 10:52:29.37	317.68	42.72	-31.0	-33.6	12.9	3.20e-05	0	43	0	853540864	23	4884
2026-01-28 10:52:32.38	318.41	41.99	-30.1	-32.3	14.4	3.00e-06	0	43	0	858783744	21	4648
2026-01-28 10:52:35.39	319.11	41.26	-29.0	-31.1	16.0	0.00e+00	0	43	0	865075200	18	4582
2026-01-28 10:52:38.40	319.78	40.55	-31.1	-34.6	12.4	9.99e-05	0	43	0	870318080	22	5416
2026-01-28 10:52:41.41	320.42	39.84	-29.1	-30.8	15.9	0.00e+00	0	43	0	876609536	19	4363
2026-01-28 10:52:44.43	321.04	39.15	-29.7	-32.4	14.9	0.00e+00	0	43	0	881852416	19	4904
2026-01-28 10:52:47.43	321.63	38.46	-31.0	-34.5	12.6	1.20e-04	0	43	0	887095296	22	5360
2026-01-28 10:52:50.43	322.19	37.79	-30.0	-32.1	14.4	2.20e-06	0	43	0	893386752	21	4601
2026-01-28 10:52:53.44	322.74	37.13	-30.1	-32.2	14.4	7.00e-07	0	43	0	898629632	21	4625
2026-01-28 10:52:56.45	323.26	36.48	-30.7	-34.1	13.1	1.98e-05	0	43	0	903872512	21	5299
2026-01-28 10:52:59.46	323.76	35.84	-31.3	-35.3	11.9	4.29e-04	0	43	0	910163968	22	5698
2026-01-28 10:53:02.46	324.25	35.21	-30.3	-32.8	14.1	0.00e+00	0	43	0	915406848	21	4799
2026-01-28 10:53:05.47	324.71	34.58	-30.1	-32.8	14.3	7.00e-07	0	43	0	921698304	20	4932
2026-01-28 10:53:08.48	325.16	33.97	-30.7	-34.1	13.1	2.21e-05	0	43	0	926941184	21	5311
2026-01-28 10:53:11.49	325.60	33.37	-31.1	-34.7	12.3	1.78e-04	0	43	0	932184064	22	5427
2026-01-28 10:53:14.51	326.02	32.78	-31.0	-34.3	12.6	1.04e-04	0	43	0	938475520	22	5266
2026-01-28 10:53:17.51	326.42	32.20	-31.0	-34.4	12.4	1.56e-04	0	43	0	943718400	22	5340
2026-01-28 10:53:20.51	326.81	31.63	-31.1	-34.6	12.3	1.73e-04	0	43	0	948961280	22	5417
2026-01-28 10:53:23.52	327.19	31.07	-31.0	-34.5	12.3	3.25e-04	0	43	0	955252736	22	5389
2026-01-28 10:53:26.53	327.55	30.52	-31.2	-34.9	12.0	2.21e-04	0	43	0	960495616	22	5556
2026-01-28 10:53:29.55	327.91	29.97	-31.4	-35.7	11.4	9.00e-04	0	43	0	966787072	22	5916
2026-01-28 10:53:32.56	328.25	29.44	-31.5	-35.5	11.2	1.33e-03	0	43	0	972029952	23	5710
2026-01-28 10:53:35.56	328.58	28.92	-31.6	-36.0	10.9	1.66e-03	0	43	0	977272832	23	5944
2026-01-28 10:53:38.58	328.91	28.40	-31.4	-35.1	11.5	8.70e-04	0	43	0	983564288	23	5541
2026-01-28 10:53:41.58	329.22	27.89	-31.5	-35.5	11.3	9.31e-04	0	43	0	988807168	23	5678
2026-01-28 10:53:44.59	329.52	27.39	-31.3	-34.7	11.7	1.08e-03	0	43	0	995098624	23	5380
2026-01-28 10:53:47.60	329.81	26.90	-30.9	-33.6	12.6	1.17e-04	0	43	0	1000341504	23	4915
2026-01-28 10:53:50.61	330.10	26.42	-30.6	-33.5	13.0	3.89e-05	0	43	0	1005584384	22	4973
2026-01-28 10:53:53.62	330.38	25.94	-30.5	-33.1	13.2	2.89e-05	0	43	0	1011875840	22	4844
2026-01-28 10:53:56.62	330.65	25.48	-30.1	-32.4	14.0	2.20e-06	0	43	0	1017118720	21	4715
2026-01-28 10:53:59.62	330.91	25.02	-29.9	-32.0	14.2	1.50e-06	0	43	0	1022361600	21	4562
2026-01-28 10:54:02.62	331.16	24.57	-29.8	-31.7	14.4	7.00e-07	0	43	0	1028653056	21	4480
2026-01-28 10:54:05.63	331.41	24.12	-29.9	-32.6	14.0	0.00e+00	0	43	0	1033895936	20	4895
2026-01-28 10:54:08.64	331.65	23.68	-30.2	-33.4	13.6	7.60e-06	0	43	0	1039138816	20	5189
2026-01-28 10:54:11.65	331.89	23.25	-30.3	-33.5	13.4	1.52e-05	0	43	0	1045430272	20	5216
2026-01-28 10:54:14.66	332.12	22.83	-30.2	-33.4	13.5	1.29e-05	0	43	0	1050673152	20	5203
2026-01-28 10:54:17.67	332.34	22.41	-30.3	-33.7	13.3	1.22e-05	0	43	0	1056964608	20	5289
2026-01-28 10:54:20.68	332.56	22.00	-30.0	-32.9	13.7	2.20e-06	0	43	0	1062207488	20	5021
2026-01-28 10:54:23.69	332.77	21.59	-30.2	-33.4	13.3	9.90e-06	0	43	0	1067450368	20	5190
2026-01-28 10:54:26.69	332.98	21.19	-30.4	-34.2	12.1	3.96e-05	0	43	0	1073741824	20	5546
2026-01-28 10:54:29.70	333.18	20.80	-29.5	-31.7	13.4	2.97e-05	0	43	0	1078984704	20	4617
2026-01-28 10:54:32.71	333.38	20.41	-29.0	-30.8	14.1	1.50e-06	0	43	0	1085276160	19	4446
2026-01-28 10:54:35.71	333.57	20.03	-29.1	-31.1	14.9	0.00e+00	0	43	0	1090519040	19	4516
2026-01-28 10:54:38.72	333.76	19.65	-29.2	-31.3	14.4	0.00e+00	0	43	0	1095761920	19	4582
2026-01-28 10:54:41.74	333.95	19.28	-29.2	-31.3	14.2	2.20e-06	0	43	0	1102053376	19	4594
2026-01-28 10:54:44.75	334.13	18.92	-28.6	-31.0	11.1	4.81e-04	0	43	0	1107296256	18	4777
2026-01-28 10:54:47.76	334.31	18.55	-28.8	-31.4	11.6	6.95e-04	0	43	0	1112539136	18	4870
2026-01-28 10:54:50.78	334.48	18.20	-29.3	-32.1	14.6	0.00e+00	0	43	0	1118830592	18	4971
2026-01-28 10:54:53.80	334.65	17.84	-29.1	-31.8	13.6	5.30e-06	0	43	0	1124073472	18	4906
2026-01-28 10:54:56.81	334.82	17.50	-29.2	-31.9	13.6	5.30e-06	0	43	0	1130364928	18	4920
2026-01-28 10:54:59.83	334.98	17.16	-29.2	-32.0	13.5	9.90e-06	0	43	0	1135607808	18	4964
2026-01-28 10:55:02.83	335.14	16.82	-29.5	-32.5	14.4	0.00e+00	0	43	0	1140850688	18	5112
2026-01-28 10:55:05.85	335.29	16.49	-29.6	-32.5	14.2	7.00e-07	0	43	0	1147142144	19	4981
2026-01-28 10:55:08.86	335.45	16.16	-29.9	-33.0	13.9	2.20e-06	0	43	0	1152385024	19	5174
2026-01-28 10:55:11.87	335.60	15.83	-30.0	-32.8	13.7	4.50e-06	0	43	0	1158676480	20	5003
2026-01-28 10:55:14.88	335.74	15.51	-30.0	-33.1	13.4	1.22e-05	0	43	0	1163919360	20	5113
2026-01-28 10:55:17.89	335.89	15.20	-29.9	-32.7	13.6	1.75e-05	0	43	0	1169162240	20	4977
2026-01-28 10:55:20.88	336.03	14.89	-30.0	-32.9	13.5	9.10e-06	0	43	0	1175453696	20	5043
2026-01-28 10:55:23.90	336.17	14.58	-29.9	-32.8	13.5	1.22e-05	0	43	0	1180696576	20	5032
2026-01-28 10:55:26.91	336.30	14.27	-30.0	-33.1	13.3	1.37e-05	0	43	0	1185939456	20	5115
2026-01-28 10:55:29.93	336.44	13.97	-29.9	-32.6	13.6	5.30e-06	0	43	0	1192230912	20	4960
2026-01-28 10:55:32.94	336.57	13.67	-29.9	-32.6	13.6	8.30e-06	0	43	0	1197473792	20	4955
2026-01-28 10:55:35.96	336.70	13.38	-29.8	-32.5	13.6	6.10e-06	0	43	0	1203765248	20	4918
2026-01-28 10:55:38.96	336.82	13.09	-29.8	-32.4	13.7	6.80e-06	0	43	0	1209008128	20	4893
2026-01-28 10:55:41.98	336.95	12.80	-29.9	-32.7	13.5	1.14e-05	0	43	0	1214251008	20	4983
2026-01-28 10:55:44.98	337.07	12.52	-30.0	-33.0	13.3	9.10e-06	0	43	0	1220542464	20	5085
2026-01-28 10:55:47.99	337.19	12.24	-30.1	-33.3	13.0	3.12e-05	0	43	0	1225785344	20	5222
2026-01-28 10:55:50.98	337.31	11.96	-30.2	-33.5	12.9	4.50e-05	0	43	0	1231028224	20	5278
2026-01-28 10:55:53.98	337.42	11.69	-30.1	-33.5	12.8	3.66e-05	0	43	0	1237319680	20	5312
2026-01-28 10:55:56.98	337.54	11.42	-30.3	-33.9	12.5	8.31e-05	0	43	0	1242562560	20	5483
2026-01-28 10:55:59.99	337.65	11.15	-30.5	-34.1	12.0	2.67e-04	0	43	0	1248854016	21	5475
2026-01-28 10:56:03.00	337.76	10.88	-30.5	-34.3	11.9	4.74e-04	0	43	0	1254096896	21	5524
2026-01-28 10:56:06.01	337.87	10.62	-30.6	-34.4	11.8	5.39e-04	0	43	0	1259339776	21	5586
2026-01-28 10:56:09.02	337.98	10.36	-30.5	-34.3	11.8	5.21e-04	0	43	0	1265631232	21	5555
2026-01-28 10:56:12.03	338.08	10.10	-30.5	-34.0	12.0	3.68e-04	0	43	0	1270874112	21	5443
2026-01-28 10:56:15.03	338.19	9.85	-30.5	-34.1	11.9	4.22e-04	0	43	0	1277165568	21	5491
2026-01-28 10:56:18.05	338.29	9.59	-30.5	-34.3	11.7	5.07e-04	0	43	0	1282408448	21	5565
2026-01-28 10:56:21.05	338.39	9.35	-30.7	-34.8	11.3	7.19e-04	0	43	0	1287651328	21	5772
2026-01-28 10:56:24.06	338.49	9.10	-30.5	-34.3	11.7	6.35e-04	0	43	0	1293942784	21	5559
2026-01-28 10:56:27.07	338.59	8.85	-30.8	-35.2	11.0	1.69e-03	0	43	0	1299185664	21	5988
2026-01-28 10:56:30.08	338.68	8.61	-30.6	-34.7	11.3	1.46e-03	0	43	0	1304428544	21	5760
2026-01-28 10:56:33.09	338.78	8.37	-30.4	-34.0	11.8	5.31e-04	0	43	0	1310720000	21	5455
2026-01-28 10:56:36.11	338.87	8.13	-30.4	-34.1	11.7	6.91e-04	0	43	0	1315962880	21	5487
2026-01-28 10:56:39.12	338.97	7.89	-30.4	-33.9	11.8	4.38e-04	0	43	0	1322254336	21	5435
2026-01-28 10:56:42.13	339.06	7.66	-30.5	-34.3	11.5	8.38e-04	0	43	0	1327497216	21	5589
2026-01-28 10:56:45.14	339.15	7.43	-30.6	-34.6	11.3	9.51e-04	0	43	0	1332740096	21	5736
2026-01-28 10:56:48.15	339.24	7.20	-30.6	-34.7	11.1	1.33e-03	0	43	0	1339031552	21	5776
2026-01-28 10:56:51.16	339.32	6.97	-33.5	-47.6	3.8	1.49e+00	0	43	104	1341128704	27	18209

#Closed at: 2026-01-28 10:56:53
#Recorded file [1341 MB]: D:/data/31010_260128_134453.dat