passes_logs/2026/01/28/R2M6_AANII_01/R2M6_AANII_01__20260128_000142_NOAA_21_JPSS-2_rec.log

#Pass ID: 20260128_000142_NOAA 21 (JPSS-2)
#Satellite: NOAA 21 (JPSS-2)
#Configuration: NOAA 21
#almurnet v.1.7.20240730
#Start time: 2026-01-28 00:01:41

#Version: 2.2.20231116
#Station: R2M6_AANII_01
#Location: 30.233357 lon 59.946436 lat
#TLE: 1 54234U 22150A   26027.41809747  .00000179  00000+0  10565-3 0  9991
#TLE: 2 54234  98.7510 328.1683 0000854 205.0798 155.0336 14.19540145166571

#Time	Az	El	Level	Level2	SNR	BER	BlckErr	Temp	State	Recorded	gain1	gain2
2026-01-28 00:01:41.70	19.80	6.94	-29.8	-34.1	4.8	1.38e+00	0	40	0	0	19	5948
2026-01-28 00:01:44.71	19.86	7.17	-30.0	-33.8	9.4	1.77e-02	0	40	0	3145728	20	5539
2026-01-28 00:01:47.72	19.93	7.40	-30.1	-34.0	9.2	2.20e-02	0	40	0	12582912	20	5623
2026-01-28 00:01:50.72	19.99	7.63	-30.4	-35.0	8.5	4.00e-02	0	40	0	22020096	20	6054
2026-01-28 00:01:53.74	20.06	7.87	-30.2	-34.3	9.1	3.02e-02	0	40	0	30408704	20	5731
2026-01-28 00:01:56.75	20.13	8.11	-29.6	-32.9	10.5	4.47e-03	0	40	0	40894464	19	5261
2026-01-28 00:01:59.76	20.19	8.35	-29.5	-32.4	10.8	3.21e-03	0	41	0	49283072	19	5071
2026-01-28 00:02:02.77	20.26	8.59	-28.7	-31.3	12.2	2.25e-04	0	41	0	58720256	17	4878
2026-01-28 00:02:05.78	20.33	8.83	-28.8	-31.5	12.0	2.27e-04	0	41	0	68157440	17	4948
2026-01-28 00:02:08.79	20.40	9.08	-28.4	-30.6	12.7	7.93e-05	0	41	0	77594624	17	4635
2026-01-28 00:02:11.80	20.47	9.33	-28.4	-31.2	12.6	5.79e-05	0	41	0	87031808	16	4957
2026-01-28 00:02:14.81	20.55	9.58	-28.2	-30.6	13.1	3.77e-04	0	41	0	96468992	16	4748
2026-01-28 00:02:17.82	20.62	9.84	-28.0	-30.2	13.4	1.60e-05	0	41	0	105906176	16	4607
2026-01-28 00:02:20.83	20.70	10.09	-27.7	-30.0	13.6	3.82e-04	0	41	0	115343360	15	4671
2026-01-28 00:02:23.85	20.77	10.35	-27.7	-29.9	13.6	3.50e-04	0	41	0	124780544	15	4644
2026-01-28 00:02:26.87	20.85	10.62	-27.6	-29.6	13.9	4.20e-04	0	41	0	134217728	15	4543
2026-01-28 00:02:29.87	20.93	10.88	-27.6	-29.6	13.4	4.11e-04	0	41	0	143654912	15	4542
2026-01-28 00:02:32.89	21.01	11.15	-27.5	-29.5	13.9	4.36e-04	0	41	0	153092096	15	4513
2026-01-28 00:02:35.90	21.09	11.42	-27.4	-29.6	14.2	4.58e-04	0	41	0	162529280	14	4662
2026-01-28 00:02:38.90	21.17	11.70	-27.5	-29.5	14.0	3.08e-03	0	41	0	171966464	15	4506
2026-01-28 00:02:41.92	21.25	11.97	-27.4	-29.6	14.2	5.02e-04	0	41	0	181403648	14	4668
2026-01-28 00:02:44.93	21.34	12.26	-27.3	-29.5	14.3	3.70e-03	0	42	0	190840832	14	4625
2026-01-28 00:02:47.94	21.42	12.54	-27.7	-29.8	13.9	3.62e-03	0	42	0	200278016	15	4608
2026-01-28 00:02:50.95	21.51	12.83	-27.5	-29.4	14.1	3.35e-03	0	42	0	209715200	15	4473
2026-01-28 00:02:53.96	21.60	13.12	-27.1	-29.0	14.6	3.83e-03	0	42	0	219152384	14	4469
2026-01-28 00:02:56.97	21.69	13.41	-27.4	-29.6	14.3	3.72e-03	0	42	0	228589568	14	4655
2026-01-28 00:02:59.98	21.78	13.71	-26.9	-29.1	14.9	3.43e-03	0	41	0	238026752	13	4599
2026-01-28 00:03:02.99	21.88	14.01	-27.2	-29.1	14.6	3.76e-03	0	42	0	247463936	14	4507
2026-01-28 00:03:06.00	21.97	14.31	-27.3	-29.3	14.5	3.67e-03	0	42	0	256901120	14	4566
2026-01-28 00:03:09.01	22.07	14.62	-27.4	-29.6	14.4	7.00e-07	0	42	0	266338304	14	4638
2026-01-28 00:03:12.03	22.17	14.94	-27.5	-29.4	14.2	7.00e-07	0	42	0	275775488	15	4470
2026-01-28 00:03:15.04	22.27	15.25	-28.1	-30.1	13.7	3.48e-03	0	42	0	285212672	16	4573
2026-01-28 00:03:18.04	22.37	15.57	-28.1	-30.3	13.6	1.29e-05	0	42	0	294649856	16	4618
2026-01-28 00:03:21.06	22.47	15.90	-27.9	-30.4	13.7	3.80e-06	0	42	0	304087040	15	4786
2026-01-28 00:03:24.08	22.58	16.23	-27.9	-29.8	13.9	3.80e-06	0	42	0	313524224	16	4476
2026-01-28 00:03:27.09	22.69	16.56	-27.5	-29.3	14.4	0.00e+00	0	42	0	322961408	15	4433
2026-01-28 00:03:30.10	22.80	16.90	-27.4	-29.6	14.5	7.00e-07	0	42	0	332398592	14	4630
2026-01-28 00:03:33.11	22.91	17.25	-27.8	-30.1	13.9	4.50e-06	0	42	0	341835776	15	4709
2026-01-28 00:03:36.13	23.03	17.59	-27.8	-30.1	13.8	3.80e-06	0	42	0	351272960	15	4691
2026-01-28 00:03:39.13	23.15	17.95	-27.5	-29.4	14.4	0.00e+00	0	42	0	360710144	15	4447
2026-01-28 00:03:42.15	23.27	18.31	-27.3	-29.4	14.6	0.00e+00	0	42	0	370147328	14	4583
2026-01-28 00:03:45.16	23.39	18.67	-27.6	-29.5	14.3	1.50e-06	0	42	0	379584512	15	4494
2026-01-28 00:03:48.18	23.51	19.04	-26.8	-28.8	15.2	3.42e-04	0	42	0	389021696	13	4510
2026-01-28 00:03:51.19	23.64	19.41	-27.0	-28.7	15.1	0.00e+00	0	42	0	397410304	14	4363
2026-01-28 00:03:54.19	23.77	19.79	-26.8	-28.7	15.3	3.68e-04	0	42	0	406847488	13	4486
2026-01-28 00:03:57.21	23.91	20.18	-26.9	-29.0	15.2	3.23e-04	0	42	0	417333248	13	4560
2026-01-28 00:04:00.21	24.04	20.57	-26.5	-28.1	15.7	2.91e-04	0	42	0	425721856	13	4304
2026-01-28 00:04:03.23	24.18	20.97	-26.5	-28.0	15.8	2.11e-04	0	42	0	435159040	13	4292
2026-01-28 00:04:06.25	24.33	21.37	-26.5	-27.9	15.9	4.34e-05	0	42	0	444596224	13	4243
2026-01-28 00:04:09.25	24.47	21.78	-26.3	-28.1	16.0	0.00e+00	0	42	0	454033408	12	4415
2026-01-28 00:04:12.26	24.63	22.20	-26.2	-27.8	16.2	0.00e+00	0	42	0	463470592	12	4328
2026-01-28 00:04:15.27	24.78	22.62	-26.3	-28.1	16.1	0.00e+00	0	42	0	472907776	12	4404
2026-01-28 00:04:18.28	24.94	23.05	-26.5	-28.1	15.8	0.00e+00	0	42	0	482344960	13	4290
2026-01-28 00:04:21.29	25.10	23.49	-26.6	-28.1	15.8	0.00e+00	0	42	0	491782144	13	4314
2026-01-28 00:04:24.29	25.27	23.93	-26.2	-27.8	16.2	0.00e+00	0	42	0	501219328	12	4337
2026-01-28 00:04:27.30	25.44	24.38	-26.2	-27.7	16.3	0.00e+00	0	42	0	510656512	12	4313
2026-01-28 00:04:30.31	25.61	24.84	-26.1	-27.1	16.4	0.00e+00	0	42	0	520093696	13	4032
2026-01-28 00:04:33.32	25.80	25.31	-26.1	-27.5	16.4	0.00e+00	0	42	0	529530880	12	4254
2026-01-28 00:04:36.34	25.98	25.79	-26.3	-28.1	16.1	0.00e+00	0	42	0	538968064	12	4408
2026-01-28 00:04:39.34	26.17	26.27	-26.4	-28.2	16.1	0.00e+00	0	42	0	548405248	12	4454
2026-01-28 00:04:42.36	26.37	26.76	-26.8	-28.7	15.6	0.00e+00	0	42	0	557842432	13	4454
2026-01-28 00:04:45.36	26.57	27.26	-26.7	-28.3	15.8	0.00e+00	0	42	0	567279616	13	4362
2026-01-28 00:04:48.37	26.78	27.78	-26.9	-28.9	15.4	0.00e+00	0	42	0	576716800	13	4539
2026-01-28 00:04:51.37	27.00	28.29	-27.3	-29.3	15.0	0.00e+00	0	42	0	586153984	14	4529
2026-01-28 00:04:54.39	27.22	28.83	-27.6	-29.5	14.6	0.00e+00	0	42	0	595591168	15	4473
2026-01-28 00:04:57.40	27.45	29.36	-27.5	-29.2	14.8	7.00e-07	0	42	0	605028352	15	4371
2026-01-28 00:05:00.42	27.68	29.92	-27.2	-28.5	15.2	0.00e+00	0	42	0	614465536	15	4199
2026-01-28 00:05:03.42	27.93	30.47	-27.3	-29.2	15.1	0.00e+00	0	42	0	623902720	14	4498
2026-01-28 00:05:06.43	28.18	31.05	-26.5	-27.5	16.0	0.00e+00	0	42	0	633339904	14	4019
2026-01-28 00:05:09.43	28.44	31.62	-26.5	-28.0	16.0	0.00e+00	0	42	0	642777088	13	4261
2026-01-28 00:05:12.44	28.71	32.22	-26.7	-28.4	15.8	0.00e+00	0	42	0	652214272	13	4380
2026-01-28 00:05:15.45	28.99	32.82	-26.8	-28.6	15.7	0.00e+00	0	42	0	661651456	13	4441
2026-01-28 00:05:18.47	29.28	33.44	-27.2	-29.0	15.3	0.00e+00	0	42	0	671088640	14	4426
2026-01-28 00:05:21.48	29.58	34.07	-27.5	-29.6	14.9	0.00e+00	0	42	0	680525824	14	4617
2026-01-28 00:05:24.48	29.90	34.70	-27.6	-29.5	14.8	7.00e-07	0	42	0	689963008	15	4451
2026-01-28 00:05:27.50	30.22	35.36	-28.2	-30.3	14.2	2.20e-06	0	42	0	699400192	16	4586
2026-01-28 00:05:30.51	30.56	36.02	-27.9	-29.7	14.5	0.00e+00	0	42	0	708837376	16	4389
2026-01-28 00:05:33.51	30.91	36.70	-28.2	-30.2	14.2	3.00e-06	0	42	0	718274560	16	4558
2026-01-28 00:05:36.53	31.28	37.39	-28.2	-30.3	14.2	2.20e-06	0	42	0	726663168	16	4590
2026-01-28 00:05:39.55	31.66	38.10	-28.0	-29.7	14.5	0.00e+00	0	42	0	736100352	16	4411
2026-01-28 00:05:42.55	32.06	38.81	-28.1	-29.9	14.4	7.00e-07	0	42	0	745537536	16	4455
2026-01-28 00:05:45.56	32.47	39.55	-28.3	-30.5	14.2	0.00e+00	0	42	0	754974720	16	4626
2026-01-28 00:05:48.58	32.91	40.30	-28.5	-30.4	13.9	3.00e-06	0	42	0	764411904	17	4512
2026-01-28 00:05:51.58	33.36	41.05	-29.0	-31.3	13.1	2.59e-05	0	42	0	773849088	18	4654
2026-01-28 00:05:54.60	33.84	41.83	-29.4	-32.2	12.6	8.62e-05	0	42	0	783286272	18	4966
2026-01-28 00:05:57.61	34.34	42.62	-29.3	-31.9	12.8	4.66e-04	0	42	0	792723456	18	4849
2026-01-28 00:06:00.61	34.86	43.42	-29.3	-32.0	12.7	7.70e-05	0	42	0	802160640	18	4909
2026-01-28 00:06:03.62	35.41	44.24	-29.8	-32.6	12.0	9.28e-04	0	42	0	811597824	19	4990
2026-01-28 00:06:06.63	35.99	45.07	-29.7	-32.5	12.1	3.16e-04	0	42	0	821035008	19	4955
2026-01-28 00:06:09.64	36.60	45.92	-29.5	-31.9	12.3	9.12e-04	0	42	0	830472192	19	4761
2026-01-28 00:06:12.65	37.24	46.78	-29.0	-31.1	13.2	9.44e-04	0	42	0	839909376	18	4597
2026-01-28 00:06:15.67	37.92	47.66	-28.6	-30.7	13.7	9.19e-04	0	42	0	849346560	17	4586
2026-01-28 00:06:18.68	38.64	48.55	-28.3	-30.5	14.2	7.70e-04	0	42	0	858783744	16	4638
2026-01-28 00:06:21.69	39.40	49.46	-28.5	-30.5	13.9	4.68e-04	0	42	0	868220928	17	4521
2026-01-28 00:06:24.71	40.21	50.38	-28.6	-30.7	13.9	6.05e-04	0	43	0	877658112	17	4591
2026-01-28 00:06:27.73	41.07	51.31	-28.9	-31.3	13.5	8.30e-06	0	42	0	887095296	17	4781
2026-01-28 00:06:30.74	41.98	52.25	-28.5	-30.3	14.1	1.75e-03	0	43	0	896532480	17	4468
2026-01-28 00:06:33.75	42.95	53.21	-28.2	-30.1	14.5	0.00e+00	0	43	0	905969664	16	4518
2026-01-28 00:06:36.77	43.99	54.17	-28.2	-30.4	14.4	7.00e-07	0	43	0	915406848	16	4591
2026-01-28 00:06:39.79	45.10	55.14	-27.9	-29.5	14.8	0.00e+00	0	42	0	924844032	16	4341
2026-01-28 00:06:42.81	46.29	56.12	-27.6	-29.5	15.1	0.00e+00	0	42	0	934281216	15	4434
2026-01-28 00:06:45.83	47.57	57.11	-27.5	-29.1	15.2	0.00e+00	0	43	0	943718400	15	4350
2026-01-28 00:06:48.83	48.93	58.09	-27.5	-29.0	15.3	0.00e+00	0	42	0	953155584	15	4309
2026-01-28 00:06:51.83	50.40	59.07	-27.1	-28.8	15.7	0.00e+00	0	42	0	962592768	14	4349
2026-01-28 00:06:54.83	51.97	60.05	-27.1	-28.8	15.7	9.10e-06	0	42	0	972029952	14	4344
2026-01-28 00:06:57.85	53.69	61.04	-26.6	-28.0	16.4	0.00e+00	0	42	0	981467136	13	4251
2026-01-28 00:07:00.87	55.54	62.01	-26.3	-27.8	16.8	5.34e-05	0	42	0	990904320	12	4322
2026-01-28 00:07:03.88	57.53	62.96	-25.6	-26.4	17.6	7.00e-07	0	43	0	1000341504	12	3940
2026-01-28 00:07:06.88	59.68	63.90	-25.7	-26.5	17.5	5.30e-06	0	43	0	1009778688	12	3968
2026-01-28 00:07:09.89	62.02	64.81	-25.8	-26.8	17.3	6.94e-05	0	43	0	1019215872	12	4029
2026-01-28 00:07:12.89	64.54	65.69	-25.6	-26.9	17.6	0.00e+00	0	43	0	1028653056	11	4186
2026-01-28 00:07:15.90	67.28	66.54	-25.7	-27.0	17.6	0.00e+00	0	43	0	1038090240	11	4198
2026-01-28 00:07:18.92	70.24	67.35	-26.0	-27.3	17.2	0.00e+00	0	43	0	1047527424	12	4182
2026-01-28 00:07:21.93	73.43	68.10	-25.8	-27.4	17.5	0.00e+00	0	42	0	1056964608	11	4302
2026-01-28 00:07:24.94	76.85	68.80	-25.9	-27.4	17.4	0.00e+00	0	43	0	1066401792	11	4308
2026-01-28 00:07:27.96	80.52	69.42	-26.1	-27.6	17.0	0.00e+00	0	43	0	1075838976	12	4247
2026-01-28 00:07:30.98	84.42	69.97	-25.8	-26.9	16.2	0.00e+00	0	43	0	1085276160	12	4073
2026-01-28 00:07:33.99	88.52	70.42	-25.5	-26.7	17.9	0.00e+00	0	43	0	1093664768	11	4113
2026-01-28 00:07:37.00	92.81	70.78	-25.5	-26.6	17.9	0.00e+00	0	42	0	1104150528	11	4095
2026-01-28 00:07:40.01	97.25	71.04	-25.9	-27.1	17.3	0.00e+00	0	43	0	1113587712	12	4120
2026-01-28 00:07:43.02	101.78	71.19	-26.1	-27.6	17.0	2.32e-03	0	42	0	1121976320	12	4239
2026-01-28 00:07:46.03	106.37	71.22	-25.5	-26.7	17.8	0.00e+00	0	43	0	1131413504	11	4105
2026-01-28 00:07:49.04	110.95	71.14	-26.2	-27.7	17.1	1.04e-03	0	42	0	1140850688	12	4291
2026-01-28 00:07:52.05	115.45	70.96	-25.9	-27.1	17.4	2.21e-03	0	42	0	1150287872	12	4108
2026-01-28 00:07:55.06	119.84	70.66	-26.0	-27.3	17.2	2.21e-05	0	43	0	1159725056	12	4163
2026-01-28 00:07:58.07	124.07	70.27	-26.3	-28.0	16.9	2.47e-03	0	42	0	1169162240	12	4356
2026-01-28 00:08:01.09	128.11	69.78	-26.8	-28.6	16.3	1.49e-04	0	43	0	1178599424	13	4401
2026-01-28 00:08:04.09	131.91	69.20	-25.8	-27.3	17.6	2.14e-03	0	42	0	1188036608	11	4281
2026-01-28 00:08:07.10	135.49	68.55	-26.3	-27.9	17.0	0.00e+00	0	43	0	1197473792	12	4308
2026-01-28 00:08:10.11	138.83	67.84	-25.3	-26.1	18.3	1.93e-03	0	43	0	1206910976	11	3979
2026-01-28 00:08:13.12	141.93	67.06	-25.9	-27.1	17.4	0.00e+00	0	43	0	1216348160	12	4117
2026-01-28 00:08:16.12	144.80	66.24	-25.2	-25.9	18.3	0.00e+00	0	43	0	1225785344	11	3926
2026-01-28 00:08:19.13	147.47	65.38	-26.2	-27.6	17.2	0.00e+00	0	43	0	1235222528	12	4256
2026-01-28 00:08:22.15	149.94	64.48	-25.5	-26.2	17.9	0.00e+00	0	42	0	1244659712	12	3892
2026-01-28 00:08:25.16	152.21	63.55	-26.3	-27.8	16.9	0.00e+00	0	42	0	1254096896	12	4302
2026-01-28 00:08:28.17	154.31	62.60	-28.0	-29.8	15.0	3.00e-06	0	43	0	1263534080	16	4399
2026-01-28 00:08:31.18	156.25	61.64	-25.8	-26.9	17.4	0.00e+00	0	43	0	1272971264	12	4061
2026-01-28 00:08:34.19	158.05	60.66	-28.5	-30.4	14.4	1.14e-05	0	43	0	1282408448	17	4466
2026-01-28 00:08:37.20	159.71	59.68	-25.4	-26.0	17.9	0.00e+00	0	43	0	1291845632	12	3832
2026-01-28 00:08:40.22	161.26	58.69	-27.3	-29.2	15.7	0.00e+00	0	43	0	1301282816	14	4473
2026-01-28 00:08:43.25	162.70	57.69	-27.4	-28.4	15.6	0.00e+00	0	43	0	1310720000	16	4007
2026-01-28 00:08:46.26	164.03	56.70	-26.3	-27.4	16.9	0.00e+00	0	43	0	1320157184	13	4078
2026-01-28 00:08:49.27	165.27	55.72	-29.3	-31.8	13.1	3.35e-05	0	43	0	1329594368	18	4817
2026-01-28 00:08:52.28	166.43	54.74	-28.3	-30.0	14.4	7.00e-07	0	42	0	1339031552	17	4366
2026-01-28 00:08:55.30	167.52	53.77	-28.0	-29.3	14.9	0.00e+00	0	43	0	1348468736	17	4154
2026-01-28 00:08:58.31	168.53	52.81	-29.7	-32.4	12.4	7.93e-05	0	43	0	1357905920	19	4906
2026-01-28 00:09:01.32	169.48	51.85	-29.5	-31.4	12.6	1.33e-04	0	43	0	1367343104	20	4469
2026-01-28 00:09:04.33	170.37	50.91	-28.9	-30.4	13.7	5.30e-06	0	43	0	1376780288	19	4243
2026-01-28 00:09:07.34	171.21	49.98	-30.2	-33.2	11.5	5.03e-04	0	43	0	1386217472	20	5080
2026-01-28 00:09:10.35	172.00	49.07	-30.4	-33.2	11.2	1.38e-03	0	43	0	1395654656	21	4958
2026-01-28 00:09:13.36	172.74	48.16	-28.8	-30.1	13.8	1.29e-05	0	43	0	1405091840	19	4168
2026-01-28 00:09:16.38	173.45	47.27	-29.0	-31.1	13.5	6.10e-06	0	43	0	1414529024	18	4568
2026-01-28 00:09:19.40	174.11	46.39	-29.1	-31.3	13.3	1.67e-05	0	43	0	1423966208	18	4642
2026-01-28 00:09:22.40	174.74	45.54	-28.9	-30.8	13.7	4.50e-06	0	43	0	1433403392	18	4492
2026-01-28 00:09:25.41	175.34	44.69	-29.6	-32.1	12.5	4.19e-05	0	43	0	1442840576	19	4803
2026-01-28 00:09:28.43	175.91	43.86	-29.7	-31.9	12.3	1.98e-04	0	43	0	1452277760	20	4642
2026-01-28 00:09:31.45	176.45	43.04	-29.5	-31.2	12.7	8.92e-05	0	43	0	1461714944	20	4416
2026-01-28 00:09:34.45	176.96	42.24	-29.7	-31.9	12.2	3.43e-04	0	43	0	1471152128	20	4622
2026-01-28 00:09:37.46	177.45	41.45	-29.5	-31.3	12.6	1.46e-04	0	43	0	1480589312	20	4428
2026-01-28 00:09:40.47	177.92	40.68	-28.7	-30.3	13.8	5.30e-06	0	43	0	1488977920	18	4335
2026-01-28 00:09:43.49	178.37	39.92	-29.6	-32.0	12.6	6.86e-05	0	43	0	1498415104	19	4768
2026-01-28 00:09:46.50	178.80	39.17	-29.1	-30.9	13.2	3.96e-05	0	43	0	1508900864	19	4419
2026-01-28 00:09:49.52	179.21	38.44	-28.9	-30.9	13.6	1.75e-05	0	43	0	1517289472	18	4512
2026-01-28 00:09:52.52	179.59	37.72	-28.2	-29.8	14.4	1.50e-06	0	43	0	1526726656	17	4291
2026-01-28 00:09:55.54	179.97	37.02	-28.2	-30.2	14.4	7.00e-07	0	43	0	1536163840	16	4543
2026-01-28 00:09:58.55	180.33	36.33	-28.0	-29.8	14.7	1.50e-06	0	43	0	1545601024	16	4418
2026-01-28 00:10:01.56	180.68	35.65	-28.0	-29.6	14.8	0.00e+00	0	43	0	1555038208	16	4366
2026-01-28 00:10:04.56	181.01	34.99	-28.0	-29.7	14.8	0.00e+00	0	43	0	1564475392	16	4375
2026-01-28 00:10:07.58	181.33	34.34	-28.5	-30.6	13.9	7.00e-07	0	43	0	1573912576	17	4542
2026-01-28 00:10:10.59	181.63	33.70	-28.8	-31.1	13.6	1.22e-05	0	43	0	1583349760	17	4703
2026-01-28 00:10:13.60	181.93	33.08	-28.4	-30.3	14.1	1.50e-06	0	43	0	1592786944	17	4446
2026-01-28 00:10:16.61	182.22	32.46	-28.0	-29.4	14.6	0.00e+00	0	43	0	1602224128	17	4191
2026-01-28 00:10:19.62	182.49	31.86	-27.8	-29.4	14.9	0.00e+00	0	43	0	1611661312	16	4292
2026-01-28 00:10:22.63	182.76	31.27	-27.9	-30.1	14.6	7.00e-07	0	43	0	1621098496	15	4633
2026-01-28 00:10:25.63	183.01	30.69	-28.0	-29.7	14.6	0.00e+00	0	43	0	1630535680	16	4392
2026-01-28 00:10:28.64	183.26	30.12	-26.7	-27.7	16.1	0.00e+00	0	43	0	1639972864	14	4079
2026-01-28 00:10:31.66	183.50	29.56	-26.6	-28.1	16.1	0.00e+00	0	43	0	1649410048	13	4277
2026-01-28 00:10:34.67	183.74	29.02	-26.9	-28.8	15.8	0.00e+00	0	43	0	1658847232	13	4491
2026-01-28 00:10:37.69	183.96	28.48	-26.9	-28.3	15.8	0.00e+00	0	43	0	1668284416	14	4240
2026-01-28 00:10:40.70	184.18	27.95	-27.0	-29.0	15.6	0.00e+00	0	43	0	1677721600	13	4526
2026-01-28 00:10:43.71	184.39	27.43	-26.8	-28.5	15.9	0.00e+00	0	43	0	1687158784	13	4402
2026-01-28 00:10:46.72	184.60	26.92	-26.8	-28.7	15.8	3.29e-03	0	43	0	1696595968	13	4445
2026-01-28 00:10:49.74	184.80	26.42	-27.2	-29.0	15.3	0.00e+00	0	43	0	1706033152	14	4441
2026-01-28 00:10:52.75	184.99	25.93	-27.2	-29.0	15.3	3.55e-03	0	43	0	1715470336	14	4438
2026-01-28 00:10:55.76	185.18	25.44	-27.0	-28.6	15.6	3.03e-03	0	43	0	1724907520	14	4319
2026-01-28 00:10:58.77	185.36	24.97	-26.8	-28.6	15.8	2.91e-03	0	43	0	1734344704	13	4440
2026-01-28 00:11:01.78	185.54	24.50	-26.8	-28.5	15.8	2.83e-03	0	43	0	1743781888	13	4410
2026-01-28 00:11:04.79	185.71	24.04	-27.0	-29.1	15.5	0.00e+00	0	43	0	1753219072	13	4575
2026-01-28 00:11:07.79	185.88	23.59	-27.0	-29.0	15.5	2.92e-03	0	43	0	1762656256	13	4573
2026-01-28 00:11:10.81	186.04	23.15	-27.1	-28.9	15.3	2.81e-03	0	43	0	1772093440	14	4420
2026-01-28 00:11:13.82	186.20	22.71	-27.1	-28.8	15.3	2.61e-03	0	43	0	1781530624	14	4385
2026-01-28 00:11:16.83	186.36	22.28	-27.0	-28.5	15.5	2.80e-03	0	43	0	1790967808	14	4299
2026-01-28 00:11:19.84	186.51	21.86	-26.9	-28.8	15.6	1.46e-04	0	43	0	1800404992	13	4484
2026-01-28 00:11:22.85	186.65	21.45	-26.4	-28.3	16.1	2.76e-03	0	43	0	1809842176	12	4472
2026-01-28 00:11:25.86	186.80	21.04	-26.9	-28.8	15.6	2.06e-04	0	43	0	1819279360	13	4502
2026-01-28 00:11:28.88	186.94	20.63	-27.0	-29.0	15.4	2.28e-03	0	43	0	1828716544	13	4562
2026-01-28 00:11:31.89	187.08	20.24	-27.3	-28.8	15.0	2.13e-04	0	43	0	1837105152	15	4262
2026-01-28 00:11:34.90	187.21	19.85	-27.4	-29.4	14.9	1.81e-04	0	43	0	1847590912	14	4568
2026-01-28 00:11:37.91	187.34	19.46	-27.5	-29.1	14.8	1.27e-04	0	43	0	1857028096	15	4371
2026-01-28 00:11:40.93	187.47	19.08	-27.3	-29.4	15.0	3.80e-06	0	43	0	1865416704	14	4557
2026-01-28 00:11:43.94	187.59	18.71	-28.2	-30.3	14.0	3.00e-06	0	43	0	1874853888	16	4592
2026-01-28 00:11:46.95	187.72	18.34	-27.7	-29.3	14.6	7.00e-07	0	43	0	1884291072	16	4295
2026-01-28 00:11:49.95	187.84	17.98	-27.8	-29.4	14.5	0.00e+00	0	43	0	1893728256	16	4330
2026-01-28 00:11:52.96	187.95	17.62	-27.8	-29.4	14.5	1.50e-06	0	43	0	1903165440	16	4333
2026-01-28 00:11:55.97	188.07	17.27	-27.8	-29.3	14.5	1.50e-06	0	43	0	1912602624	16	4312
2026-01-28 00:11:58.99	188.18	16.92	-27.7	-29.3	14.5	0.00e+00	0	43	0	1922039808	16	4312
2026-01-28 00:12:02.00	188.29	16.58	-27.8	-29.5	14.3	1.50e-06	0	43	0	1931476992	16	4372
2026-01-28 00:12:05.02	188.40	16.24	-27.8	-29.5	14.4	7.00e-07	0	43	0	1940914176	16	4359
2026-01-28 00:12:08.02	188.50	15.91	-27.8	-29.3	14.4	7.00e-07	0	43	0	1950351360	16	4322
2026-01-28 00:12:11.03	188.61	15.58	-28.1	-30.1	14.0	5.30e-06	0	43	0	1959788544	16	4543
2026-01-28 00:12:14.05	188.71	15.26	-27.9	-29.7	14.2	2.20e-06	0	43	0	1969225728	16	4430
2026-01-28 00:12:17.05	188.81	14.94	-28.0	-29.9	14.1	7.00e-07	0	42	0	1978662912	16	4470
2026-01-28 00:12:20.07	188.91	14.62	-28.2	-30.3	13.3	9.90e-06	0	43	0	1988100096	16	4622
2026-01-28 00:12:23.07	189.00	14.31	-28.5	-30.6	13.3	2.05e-05	0	43	0	1997537280	17	4591
2026-01-28 00:12:26.06	189.09	14.00	-28.6	-30.9	13.2	1.17e-03	0	43	0	2006974464	17	4672
2026-01-28 00:12:29.08	189.19	13.70	-28.4	-30.3	13.4	1.83e-05	0	43	0	2016411648	17	4507
2026-01-28 00:12:32.08	189.28	13.40	-28.1	-30.2	13.8	6.10e-06	0	43	0	2025848832	16	4568
2026-01-28 00:12:35.08	189.37	13.10	-28.4	-30.9	13.4	1.86e-03	0	43	0	2035286016	16	4794
2026-01-28 00:12:38.08	189.45	12.81	-27.8	-29.9	14.1	2.20e-06	0	43	0	2044723200	15	4616
2026-01-28 00:12:41.08	189.54	12.52	-27.8	-29.9	14.1	2.01e-03	0	43	0	2054160384	15	4613
2026-01-28 00:12:44.08	189.62	12.23	-28.0	-30.5	13.7	6.80e-06	0	43	0	2063597568	15	4789
2026-01-28 00:12:47.07	189.70	11.95	-28.4	-30.8	13.4	2.26e-03	0	43	0	2073034752	16	4783
2026-01-28 00:12:50.08	189.79	11.67	-28.6	-30.9	13.1	2.15e-03	0	43	0	2082471936	17	4685
2026-01-28 00:12:53.06	189.87	11.40	-28.7	-31.3	12.7	2.08e-03	0	43	0	2090860544	17	4822
2026-01-28 00:12:56.06	189.94	11.12	-28.8	-31.3	12.7	2.20e-03	0	43	0	2100297728	17	4839
2026-01-28 00:12:59.06	190.02	10.85	-28.9	-31.7	12.5	2.36e-03	0	43	0	2109734912	17	4964
2026-01-28 00:13:02.07	190.10	10.59	-28.4	-30.5	13.1	2.63e-03	0	42	0	2119172096	17	4587
2026-01-28 00:13:05.07	190.17	10.32	-28.3	-30.6	13.4	2.87e-03	0	42	0	2128609280	16	4732
2026-01-28 00:13:08.09	190.25	10.06	-28.4	-31.1	13.1	2.85e-03	0	42	0	2138046464	16	4874
2026-01-28 00:13:11.11	190.32	9.80	-28.7	-31.3	12.6	3.49e-03	0	42	0	2147483648	17	4850
2026-01-28 00:13:14.12	190.39	9.54	-28.9	-31.6	12.4	1.54e-04	0	43	0	2156920832	17	4960
2026-01-28 00:13:17.13	190.46	9.29	-29.3	-32.2	11.7	3.87e-03	0	42	0	2166358016	18	5040
2026-01-28 00:13:20.14	190.53	9.03	-29.1	-31.8	12.0	3.68e-04	0	42	0	2175795200	18	4894
2026-01-28 00:13:23.16	190.60	8.78	-28.8	-31.5	12.4	1.57e-04	0	43	0	2185232384	17	4909
2026-01-28 00:13:26.18	190.67	8.54	-29.1	-31.7	12.0	2.67e-04	0	43	0	2194669568	18	4859
2026-01-28 00:13:29.18	190.74	8.29	-29.3	-32.5	11.5	7.22e-04	0	43	0	2204106752	18	5147
2026-01-28 00:13:32.20	190.80	8.05	-29.0	-31.7	11.9	3.94e-04	0	43	0	2213543936	18	4876
2026-01-28 00:13:35.21	190.87	7.81	-29.2	-32.1	11.6	8.19e-04	0	43	0	2222981120	18	5035
2026-01-28 00:13:38.23	190.93	7.57	-28.7	-31.4	12.3	1.85e-04	0	43	0	2232418304	17	4890
2026-01-28 00:13:41.25	190.99	7.33	-29.2	-32.3	11.4	6.41e-04	0	43	0	2241855488	18	5092
2026-01-28 00:13:44.26	191.05	7.10	-31.1	-36.3	7.6	2.33e-03	0	43	0	2251292672	22	6505

#Closed at: 2026-01-28 00:13:46
#Recorded file [2251 MB]: D:/data/31010_260128_030143.dat