passes_logs/2026/01/28/R2M6_AANII_01/R2M6_AANII_01__20260128_112131_FENGYUN_3D_rec.log

#Pass ID: 20260128_112131_FENGYUN 3D
#Satellite: FENGYUN 3D
#Configuration: FENGYUN 3D
#almurnet v.1.7.20240730
#Start time: 2026-01-28 11:21:31

#Version: 2.2.20231116
#Station: R2M6_AANII_01
#Location: 30.233357 lon 59.946436 lat
#TLE: 1 43010U 17072A   26027.90082829  .00000305  00000+0  16579-3 0  9998
#TLE: 2 43010  98.9960 359.9183 0002511  88.1058 272.0405 14.19701796425082

#Time	Az	El	Level	Level2	SNR	BER	BlckErr	Temp	State	Recorded	gain1	gain2
2026-01-28 11:21:31.11	128.33	6.97	-29.9	-32.7	5.3	7.91e-01	0	41	0	0	21	4943
2026-01-28 11:21:34.12	128.18	7.19	-30.0	-32.7	9.4	2.56e-02	0	41	0	5242880	21	4960
2026-01-28 11:21:37.14	128.03	7.42	-29.8	-32.2	9.7	2.05e-02	0	41	0	22020096	21	4772
2026-01-28 11:21:40.14	127.87	7.64	-29.6	-32.1	10.2	6.97e-03	0	41	0	38797312	20	4821
2026-01-28 11:21:43.15	127.71	7.87	-29.7	-32.4	10.1	1.05e-02	0	41	0	55574528	20	4921
2026-01-28 11:21:46.16	127.55	8.10	-28.2	-30.1	12.5	2.62e-04	0	41	0	73400320	17	4475
2026-01-28 11:21:49.18	127.39	8.34	-27.4	-28.6	13.8	8.00e-06	0	41	0	90177536	16	4161
2026-01-28 11:21:52.20	127.23	8.57	-27.0	-28.3	14.1	2.20e-06	0	41	0	106954752	15	4187
2026-01-28 11:21:55.20	127.06	8.81	-27.2	-28.7	13.9	4.50e-06	0	41	0	123731968	15	4279
2026-01-28 11:21:58.21	126.89	9.04	-27.3	-28.9	13.7	6.80e-06	0	42	0	140509184	15	4350
2026-01-28 11:22:01.21	126.72	9.28	-27.1	-28.6	13.9	4.50e-06	0	41	0	158334976	15	4254
2026-01-28 11:22:04.22	126.54	9.52	-26.9	-28.1	14.3	3.40e-06	0	41	0	175112192	15	4115
2026-01-28 11:22:07.24	126.36	9.77	-26.7	-28.0	14.6	1.10e-06	0	42	0	191889408	14	4210
2026-01-28 11:22:10.24	126.18	10.01	-26.8	-28.2	14.5	0.00e+00	0	42	0	208666624	14	4256
2026-01-28 11:22:13.26	125.99	10.26	-26.7	-28.2	14.6	0.00e+00	0	42	0	225443840	14	4238
2026-01-28 11:22:16.27	125.80	10.51	-26.6	-27.9	14.8	0.00e+00	0	42	0	242221056	14	4182
2026-01-28 11:22:19.26	125.61	10.77	-26.5	-27.7	14.9	1.10e-06	0	42	0	258998272	14	4119
2026-01-28 11:22:22.28	125.41	11.02	-26.5	-27.6	15.0	0.00e+00	0	42	0	275775488	14	4091
2026-01-28 11:22:25.30	125.21	11.28	-26.4	-27.4	15.1	0.00e+00	0	42	0	293601280	14	4040
2026-01-28 11:22:28.32	125.01	11.54	-26.5	-27.5	15.1	0.00e+00	0	42	0	310378496	14	4049
2026-01-28 11:22:31.33	124.80	11.80	-26.2	-27.4	15.4	0.00e+00	0	42	0	327155712	13	4128
2026-01-28 11:22:34.34	124.59	12.07	-26.1	-27.1	15.6	0.00e+00	0	42	0	343932928	13	4064
2026-01-28 11:22:37.35	124.37	12.34	-26.0	-26.9	15.7	0.00e+00	0	42	0	360710144	13	4007
2026-01-28 11:22:40.36	124.15	12.61	-26.2	-27.4	15.5	0.00e+00	0	42	0	378535936	13	4120
2026-01-28 11:22:43.37	123.93	12.88	-26.2	-27.4	15.5	0.00e+00	0	42	0	395313152	13	4126
2026-01-28 11:22:46.38	123.70	13.15	-26.2	-27.4	15.5	0.00e+00	0	42	0	412090368	13	4145
2026-01-28 11:22:49.40	123.47	13.43	-26.0	-26.9	15.8	0.00e+00	0	42	0	428867584	13	4002
2026-01-28 11:22:52.41	123.23	13.71	-25.8	-26.5	16.0	0.00e+00	0	42	0	445644800	13	3903
2026-01-28 11:22:55.42	122.99	14.00	-25.6	-26.7	16.2	0.00e+00	0	42	0	462422016	12	4044
2026-01-28 11:22:58.45	122.74	14.28	-25.6	-26.6	16.3	0.00e+00	0	42	0	479199232	12	4035
2026-01-28 11:23:01.46	122.49	14.57	-25.6	-26.5	16.3	0.00e+00	0	42	0	497025024	12	4013
2026-01-28 11:23:04.47	122.23	14.87	-25.6	-26.6	16.4	0.00e+00	0	42	0	513802240	12	4022
2026-01-28 11:23:07.48	121.97	15.16	-25.6	-26.5	16.4	0.00e+00	0	43	0	530579456	12	4006
2026-01-28 11:23:10.49	121.70	15.46	-25.5	-26.3	16.5	0.00e+00	0	42	0	547356672	12	3949
2026-01-28 11:23:13.51	121.43	15.76	-25.6	-26.7	16.4	0.00e+00	0	42	0	564133888	12	4048
2026-01-28 11:23:16.52	121.15	16.06	-25.6	-26.5	16.4	0.00e+00	0	42	0	580911104	12	4019
2026-01-28 11:23:19.53	120.87	16.37	-25.4	-26.1	16.7	1.10e-06	0	43	0	598736896	12	3911
2026-01-28 11:23:22.54	120.58	16.68	-25.4	-26.1	16.7	0.00e+00	0	43	0	615514112	12	3904
2026-01-28 11:23:25.55	120.28	16.99	-25.3	-26.3	16.9	0.00e+00	0	43	0	632291328	11	4070
2026-01-28 11:23:28.56	119.98	17.31	-25.1	-26.1	17.1	0.00e+00	0	43	0	649068544	11	3996
2026-01-28 11:23:31.56	119.67	17.63	-25.1	-26.0	17.1	1.10e-06	0	43	0	665845760	11	3986
2026-01-28 11:23:34.58	119.35	17.95	-25.1	-26.0	17.2	0.00e+00	0	43	0	682622976	11	3977
2026-01-28 11:23:37.59	119.02	18.28	-25.1	-25.8	17.3	0.00e+00	0	43	0	699400192	11	3940
2026-01-28 11:23:40.60	118.69	18.61	-25.1	-26.0	17.2	0.00e+00	0	43	0	716177408	11	3982
2026-01-28 11:23:43.61	118.36	18.94	-25.3	-26.3	17.0	0.00e+00	0	43	0	734003200	11	4063
2026-01-28 11:23:46.62	118.01	19.28	-25.3	-26.3	17.0	0.00e+00	0	43	0	750780416	11	4063
2026-01-28 11:23:49.64	117.65	19.62	-25.0	-25.7	17.3	0.00e+00	0	43	0	767557632	11	3906
2026-01-28 11:23:52.64	117.29	19.96	-24.8	-25.7	17.6	0.00e+00	0	43	0	784334848	10	4023
2026-01-28 11:23:55.65	116.92	20.31	-24.5	-25.2	17.9	0.00e+00	0	43	0	801112064	10	3888
2026-01-28 11:23:58.66	116.54	20.66	-24.3	-24.8	18.1	0.00e+00	0	43	0	818937856	10	3806
2026-01-28 11:24:01.66	116.16	21.01	-24.4	-25.1	18.0	0.00e+00	0	43	0	835715072	10	3863
2026-01-28 11:24:04.69	115.76	21.38	-24.4	-24.9	18.1	0.00e+00	0	43	0	852492288	10	3830
2026-01-28 11:24:07.71	115.35	21.74	-24.2	-25.0	18.3	0.00e+00	0	43	0	869269504	9	3944
2026-01-28 11:24:10.72	114.93	22.10	-24.2	-24.9	18.3	0.00e+00	0	43	0	886046720	9	3935
2026-01-28 11:24:13.73	114.50	22.47	-24.3	-25.1	18.3	0.00e+00	0	43	0	902823936	9	3983
2026-01-28 11:24:16.75	114.06	22.85	-24.3	-25.1	18.3	0.00e+00	0	43	0	919601152	9	3975
2026-01-28 11:24:19.77	113.61	23.22	-23.9	-24.3	18.7	0.00e+00	0	43	0	937426944	9	3782
2026-01-28 11:24:22.79	113.15	23.60	-23.7	-24.5	18.9	0.00e+00	0	43	0	954204160	8	3937
2026-01-28 11:24:25.81	112.68	23.99	-23.8	-24.6	18.8	0.00e+00	0	43	0	970981376	8	3959
2026-01-28 11:24:28.81	112.20	24.37	-23.8	-24.6	18.8	0.00e+00	0	43	0	987758592	8	3977
2026-01-28 11:24:31.83	111.70	24.77	-23.8	-24.6	18.8	0.00e+00	0	43	0	1004535808	8	3960
2026-01-28 11:24:34.84	111.19	25.16	-23.6	-24.3	19.0	0.00e+00	0	43	0	1022361600	8	3887
2026-01-28 11:24:37.85	110.67	25.56	-23.5	-23.9	19.2	0.00e+00	0	43	0	1039138816	8	3807
2026-01-28 11:24:40.86	110.14	25.96	-23.3	-23.7	19.3	0.00e+00	0	43	0	1055916032	8	3742
2026-01-28 11:24:43.88	109.59	26.36	-23.5	-24.0	19.1	0.00e+00	0	43	0	1072693248	8	3826
2026-01-28 11:24:46.89	109.03	26.77	-23.5	-24.0	19.2	0.00e+00	0	43	0	1089470464	8	3820
2026-01-28 11:24:49.90	108.45	27.18	-23.2	-24.0	19.4	0.00e+00	0	43	0	1106247680	7	3926
2026-01-28 11:24:52.90	107.86	27.59	-23.2	-23.9	19.4	0.00e+00	0	43	0	1123024896	7	3907
2026-01-28 11:24:55.93	107.25	28.01	-23.4	-24.3	19.2	0.00e+00	0	43	0	1140850688	7	4002
2026-01-28 11:24:58.95	106.62	28.42	-23.4	-24.3	19.3	0.00e+00	0	43	0	1157627904	7	3989
2026-01-28 11:25:01.96	105.98	28.84	-23.4	-24.3	19.3	0.00e+00	0	43	0	1174405120	7	3988
2026-01-28 11:25:04.97	105.32	29.27	-23.5	-24.5	19.2	0.00e+00	0	43	0	1191182336	7	4050
2026-01-28 11:25:07.97	104.64	29.69	-23.4	-24.2	19.3	0.00e+00	0	43	0	1207959552	7	3981
2026-01-28 11:25:10.99	103.95	30.12	-23.3	-24.1	19.4	0.00e+00	0	43	0	1224736768	7	3955
2026-01-28 11:25:14.01	103.23	30.55	-23.4	-24.3	19.3	0.00e+00	0	43	0	1242562560	7	3990
2026-01-28 11:25:17.01	102.50	30.97	-23.2	-23.9	19.5	0.00e+00	0	43	0	1259339776	7	3906
2026-01-28 11:25:20.01	101.75	31.40	-23.1	-23.7	19.6	0.00e+00	0	43	0	1276116992	7	3848
2026-01-28 11:25:23.02	100.98	31.83	-23.1	-23.7	19.6	0.00e+00	0	43	0	1292894208	7	3866
2026-01-28 11:25:26.02	100.19	32.26	-23.2	-23.9	19.5	0.00e+00	0	43	0	1309671424	7	3902
2026-01-28 11:25:29.04	99.37	32.69	-23.4	-24.3	19.3	0.00e+00	0	43	0	1326448640	7	4001
2026-01-28 11:25:32.04	98.54	33.12	-23.3	-24.1	19.4	0.00e+00	0	43	0	1343225856	7	3947
2026-01-28 11:25:35.04	97.68	33.54	-23.1	-23.6	19.7	0.00e+00	0	43	0	1360003072	7	3833
2026-01-28 11:25:38.04	96.80	33.97	-23.4	-24.3	19.4	0.00e+00	0	43	0	1377828864	7	4008
2026-01-28 11:25:41.05	95.90	34.39	-22.9	-23.3	19.9	0.00e+00	0	43	0	1394606080	7	3764
2026-01-28 11:25:44.05	94.97	34.81	-22.9	-23.2	19.9	0.00e+00	0	43	0	1411383296	7	3743
2026-01-28 11:25:47.06	94.02	35.23	-22.9	-23.3	19.9	0.00e+00	0	43	0	1428160512	7	3756
2026-01-28 11:25:50.07	93.04	35.65	-23.1	-23.7	19.7	0.00e+00	0	43	0	1444937728	7	3856
2026-01-28 11:25:53.08	92.03	36.06	-23.3	-24.1	19.5	0.00e+00	0	43	0	1461714944	7	3941
2026-01-28 11:25:56.10	91.00	36.46	-23.4	-24.2	19.4	0.00e+00	0	43	0	1478492160	7	3985
2026-01-28 11:25:59.10	89.95	36.86	-23.3	-24.2	19.5	0.00e+00	0	43	0	1495269376	7	3961
2026-01-28 11:26:02.12	88.86	37.26	-22.9	-23.3	19.9	0.00e+00	0	43	0	1513095168	7	3761
2026-01-28 11:26:05.13	87.76	37.64	-23.1	-23.8	19.7	0.00e+00	0	43	0	1529872384	7	3872
2026-01-28 11:26:08.13	86.63	38.02	-23.2	-23.9	19.6	0.00e+00	0	43	0	1546649600	7	3897
2026-01-28 11:26:11.14	85.47	38.38	-23.1	-23.6	19.8	0.00e+00	0	43	0	1563426816	7	3830
2026-01-28 11:26:14.15	84.28	38.74	-23.1	-23.7	19.8	0.00e+00	0	43	0	1580204032	7	3848
2026-01-28 11:26:17.16	83.07	39.09	-23.3	-24.0	19.6	0.00e+00	0	43	0	1598029824	7	3925
2026-01-28 11:26:20.19	81.82	39.43	-23.4	-24.3	19.5	0.00e+00	0	43	0	1614807040	7	3988
2026-01-28 11:26:23.19	80.56	39.75	-23.2	-23.9	19.7	0.00e+00	0	43	0	1631584256	7	3885
2026-01-28 11:26:26.20	79.27	40.06	-22.8	-23.1	20.1	0.00e+00	0	43	0	1648361472	7	3723
2026-01-28 11:26:29.21	77.96	40.36	-22.7	-23.3	20.2	0.00e+00	0	43	0	1665138688	6	3857
2026-01-28 11:26:32.23	76.62	40.64	-23.2	-24.3	19.7	0.00e+00	0	43	0	1681915904	6	4100
2026-01-28 11:26:35.25	75.26	40.90	-23.3	-24.7	19.6	0.00e+00	0	43	0	1698693120	6	4194
2026-01-28 11:26:38.26	73.87	41.15	-23.0	-23.9	20.0	0.00e+00	0	43	0	1716518912	6	3996
2026-01-28 11:26:41.28	72.47	41.38	-22.7	-23.3	20.2	0.00e+00	0	43	0	1733296128	6	3867
2026-01-28 11:26:44.29	71.05	41.60	-22.8	-23.6	20.1	0.00e+00	0	43	0	1750073344	6	3927
2026-01-28 11:26:47.29	69.61	41.79	-23.0	-23.9	20.0	0.00e+00	0	43	0	1766850560	6	4013
2026-01-28 11:26:50.30	68.16	41.96	-23.0	-24.0	19.9	0.00e+00	0	43	0	1783627776	6	4041
2026-01-28 11:26:53.32	66.68	42.12	-22.9	-23.8	20.1	0.00e+00	0	43	0	1800404992	6	3969
2026-01-28 11:26:56.34	65.19	42.25	-23.3	-24.6	19.8	0.00e+00	0	43	0	1818230784	6	4169
2026-01-28 11:26:59.36	63.69	42.36	-23.9	-24.8	19.3	0.00e+00	0	43	0	1835008000	8	3981
2026-01-28 11:27:02.37	62.19	42.45	-23.1	-23.6	20.0	0.00e+00	0	43	0	1851785216	7	3821
2026-01-28 11:27:05.38	60.68	42.51	-23.1	-23.6	20.1	0.00e+00	0	43	0	1868562432	7	3818
2026-01-28 11:27:08.39	59.16	42.56	-22.4	-22.6	20.8	0.00e+00	0	43	0	1885339648	6	3695
2026-01-28 11:27:11.39	57.65	42.58	-22.3	-22.4	20.9	0.00e+00	0	43	0	1902116864	6	3652
2026-01-28 11:27:14.40	56.13	42.58	-22.5	-23.3	20.7	0.00e+00	0	43	0	1918894080	5	3962
2026-01-28 11:27:17.42	54.61	42.55	-23.1	-24.0	20.1	0.00e+00	0	43	0	1936719872	6	4019
2026-01-28 11:27:20.44	53.09	42.51	-22.4	-22.6	20.8	0.00e+00	0	43	0	1953497088	6	3701
2026-01-28 11:27:23.45	51.58	42.44	-22.3	-23.0	20.8	0.00e+00	0	43	0	1970274304	5	3882
2026-01-28 11:27:26.46	50.07	42.35	-22.3	-22.8	20.9	0.00e+00	0	43	0	1987051520	5	3851
2026-01-28 11:27:29.48	48.58	42.23	-22.7	-23.7	20.5	0.00e+00	0	43	0	2003828736	5	4053
2026-01-28 11:27:32.49	47.10	42.10	-22.4	-23.1	20.7	0.00e+00	0	43	0	2021654528	5	3917
2026-01-28 11:27:35.51	45.63	41.94	-22.6	-23.5	20.5	0.00e+00	0	43	0	2038431744	5	4008
2026-01-28 11:27:38.53	44.17	41.77	-22.8	-23.9	20.4	0.00e+00	0	43	0	2055208960	5	4109
2026-01-28 11:27:41.54	42.73	41.57	-22.7	-23.8	20.4	0.00e+00	0	43	0	2071986176	5	4075
2026-01-28 11:27:44.56	41.31	41.36	-22.8	-24.0	20.3	0.00e+00	0	43	0	2088763392	5	4130
2026-01-28 11:27:47.57	39.91	41.12	-22.7	-23.7	20.4	0.00e+00	0	43	0	2106589184	5	4053
2026-01-28 11:27:50.57	38.54	40.87	-22.7	-23.8	20.4	0.00e+00	0	43	0	2123366400	5	4067
2026-01-28 11:27:53.59	37.18	40.61	-22.7	-23.2	20.5	0.00e+00	0	43	0	2140143616	6	3814
2026-01-28 11:27:56.61	35.85	40.32	-22.5	-22.9	20.6	0.00e+00	0	43	0	2156920832	6	3749
2026-01-28 11:27:59.62	34.54	40.03	-22.6	-23.0	20.6	0.00e+00	0	43	0	2173698048	6	3774
2026-01-28 11:28:02.63	33.26	39.72	-22.5	-23.3	20.6	0.00e+00	0	43	0	2190475264	5	3965
2026-01-28 11:28:05.64	32.00	39.39	-22.4	-23.1	20.7	0.00e+00	0	43	0	2207252480	5	3900
2026-01-28 11:28:08.64	30.77	39.06	-22.9	-24.1	20.2	0.00e+00	0	43	0	2224029696	5	4155
2026-01-28 11:28:11.65	29.57	38.71	-22.9	-24.2	20.2	0.00e+00	0	43	0	2241855488	5	4184
2026-01-28 11:28:14.66	28.38	38.35	-22.8	-23.4	20.3	0.00e+00	0	43	0	2258632704	6	3869
2026-01-28 11:28:17.67	27.23	37.98	-22.9	-23.7	20.2	0.00e+00	0	43	0	2275409920	6	3950
2026-01-28 11:28:20.68	26.10	37.61	-22.7	-23.3	20.4	0.00e+00	0	43	0	2292187136	6	3853
2026-01-28 11:28:23.69	25.00	37.22	-22.9	-23.6	20.2	0.00e+00	0	43	0	2308964352	6	3922
2026-01-28 11:28:26.70	23.93	36.83	-22.7	-23.2	20.4	0.00e+00	0	43	0	2325741568	6	3831
2026-01-28 11:28:29.71	22.88	36.43	-22.8	-23.4	20.3	0.00e+00	0	43	0	2343567360	6	3871
2026-01-28 11:28:32.73	21.85	36.02	-22.5	-22.9	20.5	0.00e+00	0	43	0	2360344576	6	3767
2026-01-28 11:28:35.75	20.85	35.61	-22.2	-22.6	20.9	0.00e+00	0	43	0	2377121792	5	3805
2026-01-28 11:28:38.76	19.88	35.20	-22.2	-22.8	20.8	0.00e+00	0	43	0	2393899008	5	3835
2026-01-28 11:28:41.76	18.93	34.78	-22.4	-23.1	20.6	0.00e+00	0	43	0	2410676224	5	3922
2026-01-28 11:28:44.77	18.01	34.36	-22.6	-23.6	20.4	0.00e+00	0	43	0	2427453440	5	4043
2026-01-28 11:28:47.77	17.11	33.94	-22.7	-23.7	20.3	0.00e+00	0	43	0	2444230656	5	4061
2026-01-28 11:28:50.78	16.23	33.52	-22.5	-23.3	20.5	0.00e+00	0	43	0	2462056448	5	3954
2026-01-28 11:28:53.80	15.38	33.09	-22.7	-23.8	20.3	0.00e+00	0	43	0	2478833664	5	4088
2026-01-28 11:28:56.79	14.55	32.66	-22.6	-23.6	20.4	0.00e+00	0	43	0	2495610880	5	4038
2026-01-28 11:28:59.81	13.74	32.23	-22.6	-23.5	20.4	0.00e+00	0	43	0	2512388096	5	4000
2026-01-28 11:29:02.82	12.95	31.81	-22.9	-24.1	20.1	0.00e+00	0	43	0	2529165312	5	4164
2026-01-28 11:29:05.84	12.18	31.38	-22.7	-23.7	20.3	0.00e+00	0	43	0	2545942528	5	4055
2026-01-28 11:29:08.84	11.44	30.95	-22.9	-24.2	20.0	0.00e+00	0	43	0	2562719744	5	4191
2026-01-28 11:29:11.86	10.71	30.52	-23.3	-24.5	19.6	0.00e+00	0	43	0	2580545536	6	4137
2026-01-28 11:29:14.87	10.00	30.10	-23.2	-24.4	19.7	0.00e+00	0	43	0	2597322752	6	4122
2026-01-28 11:29:17.88	9.31	29.67	-23.1	-24.1	19.8	0.00e+00	0	43	0	2614099968	6	4046
2026-01-28 11:29:20.89	8.64	29.25	-23.0	-23.8	19.9	0.00e+00	0	43	0	2630877184	6	3975
2026-01-28 11:29:23.92	7.98	28.83	-23.1	-24.1	19.8	0.00e+00	0	43	0	2647654400	6	4049
2026-01-28 11:29:26.93	7.35	28.41	-23.3	-24.6	19.5	0.00e+00	0	43	0	2664431616	6	4161
2026-01-28 11:29:29.94	6.73	27.99	-23.4	-24.7	19.5	0.00e+00	0	43	0	2682257408	6	4185
2026-01-28 11:29:32.95	6.12	27.58	-23.4	-24.7	19.4	0.00e+00	0	43	0	2699034624	6	4191
2026-01-28 11:29:35.96	5.53	27.17	-23.6	-24.6	19.2	0.00e+00	0	43	0	2715811840	7	4066
2026-01-28 11:29:38.98	4.96	26.76	-23.6	-24.7	19.2	0.00e+00	0	43	0	2732589056	7	4070
2026-01-28 11:29:41.99	4.40	26.36	-23.4	-24.3	19.4	0.00e+00	0	43	0	2749366272	7	3987
2026-01-28 11:29:45.00	3.86	25.96	-23.6	-24.6	19.2	0.00e+00	0	43	0	2766143488	7	4054
2026-01-28 11:29:48.01	3.33	25.56	-23.4	-24.3	19.4	0.00e+00	0	44	0	2783969280	7	3975
2026-01-28 11:29:51.02	2.81	25.16	-23.3	-24.1	19.5	0.00e+00	0	43	0	2800746496	7	3939
2026-01-28 11:29:54.03	2.31	24.77	-23.3	-24.0	19.5	0.00e+00	0	43	0	2817523712	7	3922
2026-01-28 11:29:57.05	1.81	24.38	-23.3	-24.0	19.5	0.00e+00	0	43	0	2834300928	7	3913
2026-01-28 11:30:00.06	1.33	24.00	-23.4	-24.3	19.4	0.00e+00	0	43	0	2851078144	7	3972
2026-01-28 11:30:03.06	0.87	23.62	-23.7	-24.9	19.0	0.00e+00	0	43	0	2867855360	7	4121
2026-01-28 11:30:06.06	0.41	23.24	-23.8	-25.2	18.9	0.00e+00	0	43	0	2884632576	7	4200
2026-01-28 11:30:09.07	359.97	22.87	-24.2	-24.8	18.5	0.00e+00	0	43	0	2902458368	9	3888
2026-01-28 11:30:12.09	359.53	22.49	-24.0	-25.0	18.7	0.00e+00	0	43	0	2919235584	8	4047
2026-01-28 11:30:15.10	359.11	22.13	-24.0	-25.1	18.7	0.00e+00	0	43	0	2936012800	8	4058
2026-01-28 11:30:18.12	358.70	21.76	-24.1	-25.1	18.6	0.00e+00	0	43	0	2952790016	8	4064
2026-01-28 11:30:21.13	358.29	21.40	-23.9	-24.8	18.8	0.00e+00	0	43	0	2969567232	8	3983
2026-01-28 11:30:24.14	357.90	21.05	-24.2	-25.4	18.5	0.00e+00	0	43	0	2986344448	8	4144
2026-01-28 11:30:27.16	357.51	20.69	-24.7	-26.0	17.9	0.00e+00	0	43	0	3003121664	9	4180
2026-01-28 11:30:30.18	357.13	20.34	-24.7	-25.5	17.9	0.00e+00	0	43	0	3020947456	10	3948
2026-01-28 11:30:33.20	356.77	20.00	-24.9	-25.9	17.7	0.00e+00	0	43	0	3037724672	10	4031
2026-01-28 11:30:36.21	356.41	19.65	-24.5	-25.1	18.0	0.00e+00	0	43	0	3054501888	10	3860
2026-01-28 11:30:39.22	356.06	19.32	-24.6	-25.3	17.9	0.00e+00	0	43	0	3071279104	10	3909
2026-01-28 11:30:42.22	355.71	18.98	-24.7	-25.6	17.8	0.00e+00	0	43	0	3088056320	10	3972
2026-01-28 11:30:45.24	355.38	18.65	-24.8	-25.7	17.7	0.00e+00	0	43	0	3104833536	10	3989
2026-01-28 11:30:48.25	355.05	18.32	-24.6	-25.3	17.9	0.00e+00	0	43	0	3122659328	10	3909
2026-01-28 11:30:51.26	354.73	18.00	-24.7	-25.6	17.8	0.00e+00	0	43	0	3139436544	10	3965
2026-01-28 11:30:54.26	354.42	17.67	-24.8	-25.8	17.6	0.00e+00	0	43	0	3156213760	10	4019
2026-01-28 11:30:57.27	354.11	17.36	-24.9	-26.0	17.5	0.00e+00	0	43	0	3172990976	10	4066
2026-01-28 11:31:00.28	353.81	17.04	-25.0	-26.2	17.3	0.00e+00	0	43	0	3189768192	10	4132
2026-01-28 11:31:03.30	353.51	16.73	-25.1	-26.3	17.3	0.00e+00	0	43	0	3206545408	10	4158
2026-01-28 11:31:06.31	353.23	16.42	-25.4	-26.6	16.9	0.00e+00	0	43	0	3224371200	11	4116
2026-01-28 11:31:09.32	352.94	16.11	-25.7	-27.2	16.5	0.00e+00	0	43	0	3241148416	11	4270
2026-01-28 11:31:12.32	352.67	15.81	-25.9	-27.0	16.2	0.00e+00	0	43	0	3257925632	12	4124
2026-01-28 11:31:15.32	352.40	15.51	-25.3	-25.8	16.9	0.00e+00	0	43	0	3274702848	12	3818
2026-01-28 11:31:18.34	352.14	15.22	-25.4	-26.6	16.8	0.00e+00	0	43	0	3291480064	11	4118
2026-01-28 11:31:21.35	351.88	14.92	-25.4	-26.4	16.9	0.00e+00	0	43	0	3308257280	11	4066
2026-01-28 11:31:24.36	351.62	14.63	-25.5	-26.7	16.7	0.00e+00	0	43	0	3325034496	11	4151
2026-01-28 11:31:27.37	351.37	14.34	-25.5	-26.7	16.7	0.00e+00	0	43	0	3342860288	11	4140
2026-01-28 11:31:30.38	351.13	14.06	-25.8	-27.5	16.2	0.00e+00	0	43	0	3359637504	11	4350
2026-01-28 11:31:33.39	350.89	13.78	-25.8	-27.4	16.3	0.00e+00	0	43	0	3376414720	11	4331
2026-01-28 11:31:36.41	350.66	13.50	-25.9	-27.7	16.1	0.00e+00	0	43	0	3393191936	11	4405
2026-01-28 11:31:39.42	350.43	13.22	-25.9	-27.2	16.0	0.00e+00	0	43	0	3409969152	12	4182
2026-01-28 11:31:42.43	350.20	12.95	-25.7	-26.7	16.3	0.00e+00	0	43	0	3426746368	12	4044
2026-01-28 11:31:45.44	349.98	12.68	-25.8	-26.9	16.1	0.00e+00	0	43	0	3443523584	12	4108
2026-01-28 11:31:48.44	349.76	12.41	-25.9	-27.3	15.9	0.00e+00	0	43	0	3461349376	12	4203
2026-01-28 11:31:51.45	349.55	12.14	-26.1	-27.6	15.7	0.00e+00	0	43	0	3478126592	12	4277
2026-01-28 11:31:54.47	349.34	11.88	-26.3	-28.0	15.5	0.00e+00	0	43	0	3494903808	12	4392
2026-01-28 11:31:57.48	349.14	11.62	-26.2	-27.8	15.6	0.00e+00	0	43	0	3511681024	12	4351
2026-01-28 11:32:00.49	348.94	11.36	-26.1	-27.7	15.6	0.00e+00	0	43	0	3528458240	12	4319
2026-01-28 11:32:03.50	348.74	11.10	-26.2	-27.8	15.5	0.00e+00	0	43	0	3545235456	12	4329
2026-01-28 11:32:06.51	348.55	10.85	-26.2	-27.8	15.5	0.00e+00	0	43	0	3563061248	12	4345
2026-01-28 11:32:09.52	348.36	10.59	-26.3	-28.1	15.3	0.00e+00	0	43	0	3579838464	12	4430
2026-01-28 11:32:12.53	348.17	10.34	-26.5	-28.0	15.1	0.00e+00	0	43	0	3596615680	13	4270
2026-01-28 11:32:15.55	347.99	10.09	-26.3	-27.5	15.4	0.00e+00	0	43	0	3613392896	13	4140
2026-01-28 11:32:18.55	347.81	9.85	-26.3	-27.6	15.3	0.00e+00	0	43	0	3630170112	13	4170
2026-01-28 11:32:21.56	347.63	9.61	-26.3	-27.6	15.2	0.00e+00	0	43	0	3646947328	13	4169
2026-01-28 11:32:24.57	347.46	9.37	-26.3	-27.5	15.3	0.00e+00	0	43	0	3663724544	13	4156
2026-01-28 11:32:27.58	347.29	9.13	-26.5	-28.1	14.9	1.10e-06	0	43	0	3681550336	13	4315
2026-01-28 11:32:30.58	347.12	8.89	-26.6	-28.3	14.8	0.00e+00	0	43	0	3698327552	13	4368
2026-01-28 11:32:33.59	346.95	8.65	-26.7	-28.4	14.7	0.00e+00	0	43	0	3715104768	13	4410
2026-01-28 11:32:36.61	346.79	8.42	-26.6	-28.4	14.7	0.00e+00	0	43	0	3731881984	13	4389
2026-01-28 11:32:39.61	346.63	8.19	-26.6	-28.3	14.7	0.00e+00	0	43	0	3748659200	13	4380
2026-01-28 11:32:42.63	346.48	7.96	-26.6	-28.4	14.6	1.10e-06	0	43	0	3765436416	13	4402
2026-01-28 11:32:45.65	346.32	7.73	-26.8	-28.8	14.3	1.10e-06	0	43	0	3782213632	13	4534
2026-01-28 11:32:48.66	346.17	7.51	-27.1	-28.9	14.0	1.25e-05	0	43	0	3800039424	14	4435
2026-01-28 11:32:51.67	346.02	7.28	-27.0	-28.7	14.1	3.40e-06	0	43	0	3816816640	14	4386
2026-01-28 11:32:54.68	345.88	7.06	-32.8	-42.2	3.8	5.20e-01	0	43	104	3832545280	25	10626

#Closed at: 2026-01-28 11:32:56
#Recorded file [3832 MB]: D:/data/31010_260128_142132.dat