passes_logs/2026/01/28/R2M6_AANII_01/R2M6_AANII_01__20260128_090514_NOAA_20_JPSS-1_rec.log

#Pass ID: 20260128_090514_NOAA 20 (JPSS-1)
#Satellite: NOAA 20 (JPSS-1)
#Configuration: NOAA 20
#almurnet v.1.7.20240730
#Start time: 2026-01-28 09:05:14

#Version: 2.2.20231116
#Station: R2M6_AANII_01
#Location: 30.233357 lon 59.946436 lat
#TLE: 1 43013U 17073A   26027.80586608  .00000156  00000+0  94940-4 0  9998
#TLE: 2 43013  98.7647 328.6108 0000947  21.3465 338.7750 14.19541216424550

#Time	Az	El	Level	Level2	SNR	BER	BlckErr	Temp	State	Recorded	gain1	gain2
2026-01-28 09:05:14.61	122.01	7.00	-32.0	-38.8	4.7	1.33e+00	0	39	0	0	25	7837
2026-01-28 09:05:17.62	121.83	7.22	-32.0	-38.6	6.7	1.77e-01	0	39	0	1048576	25	7644
2026-01-28 09:05:20.62	121.64	7.43	-32.1	-38.8	6.6	2.28e-01	0	40	0	7340032	25	7787
2026-01-28 09:05:23.63	121.46	7.66	-31.6	-36.7	8.6	5.07e-02	0	40	0	12582912	24	6494
2026-01-28 09:05:26.64	121.26	7.88	-30.9	-34.7	10.6	4.84e-03	0	40	0	17825792	23	5573
2026-01-28 09:05:29.65	121.07	8.10	-30.8	-34.9	10.8	2.10e-03	0	40	0	24117248	22	5740
2026-01-28 09:05:32.66	120.87	8.33	-31.0	-35.3	10.6	3.21e-03	0	40	0	29360128	22	5938
2026-01-28 09:05:35.67	120.67	8.55	-31.0	-35.4	10.5	4.70e-03	0	40	0	35651584	22	5988
2026-01-28 09:05:38.67	120.47	8.78	-31.1	-35.8	10.3	4.28e-03	0	40	0	40894464	22	6181
2026-01-28 09:05:41.68	120.26	9.01	-30.8	-34.7	11.1	1.76e-03	0	40	0	46137344	22	5645
2026-01-28 09:05:44.69	120.05	9.24	-31.0	-35.4	10.6	2.83e-03	0	40	0	52428800	22	5948
2026-01-28 09:05:47.70	119.84	9.48	-31.0	-35.4	10.7	3.66e-03	0	40	0	57671680	22	5946
2026-01-28 09:05:50.72	119.62	9.72	-30.8	-34.8	11.2	1.59e-03	0	40	0	63963136	22	5653
2026-01-28 09:05:53.72	119.40	9.95	-31.0	-35.2	10.9	2.31e-03	0	41	0	69206016	22	5832
2026-01-28 09:05:56.73	119.17	10.19	-31.0	-35.4	10.8	2.35e-03	0	41	0	74448896	22	5942
2026-01-28 09:05:59.74	118.94	10.43	-31.2	-36.0	10.3	4.03e-03	0	41	0	80740352	22	6225
2026-01-28 09:06:02.76	118.71	10.68	-31.0	-35.2	11.0	2.03e-03	0	41	0	85983232	22	5825
2026-01-28 09:06:05.76	118.47	10.92	-30.9	-34.9	11.2	1.57e-03	0	41	0	91226112	22	5717
2026-01-28 09:06:08.76	118.23	11.17	-30.7	-34.0	11.9	5.13e-04	0	41	0	97517568	22	5296
2026-01-28 09:06:11.77	117.99	11.42	-30.7	-34.2	11.8	3.85e-04	0	41	0	102760448	22	5351
2026-01-28 09:06:14.78	117.74	11.67	-30.9	-34.7	11.5	8.77e-04	0	41	0	109051904	22	5600
2026-01-28 09:06:17.79	117.48	11.92	-30.8	-34.5	11.6	1.08e-03	0	41	0	114294784	22	5512
2026-01-28 09:06:20.80	117.22	12.18	-30.8	-34.5	11.7	8.83e-04	0	41	0	119537664	22	5462
2026-01-28 09:06:23.81	116.96	12.44	-30.6	-33.7	12.2	1.73e-04	0	41	0	125829120	22	5165
2026-01-28 09:06:26.82	116.69	12.70	-30.6	-33.8	12.2	2.79e-04	0	41	0	131072000	22	5185
2026-01-28 09:06:29.83	116.42	12.96	-30.5	-33.4	12.5	9.84e-05	0	41	0	136314880	22	5038
2026-01-28 09:06:32.85	116.14	13.22	-30.5	-33.5	12.4	1.96e-04	0	41	0	142606336	22	5099
2026-01-28 09:06:35.86	115.85	13.49	-30.6	-33.8	12.3	1.42e-04	0	41	0	147849216	22	5192
2026-01-28 09:06:38.87	115.56	13.76	-30.6	-33.8	12.3	1.71e-04	0	41	0	154140672	22	5208
2026-01-28 09:06:41.88	115.27	14.03	-30.6	-33.6	12.5	1.56e-04	0	41	0	159383552	22	5088
2026-01-28 09:06:44.89	114.97	14.30	-30.7	-34.0	12.2	1.48e-04	0	41	0	164626432	22	5270
2026-01-28 09:06:47.90	114.66	14.58	-30.8	-34.4	12.0	2.56e-04	0	41	0	170917888	22	5420
2026-01-28 09:06:50.92	114.35	14.85	-30.5	-33.3	12.8	5.26e-05	0	41	0	176160768	22	4974
2026-01-28 09:06:53.93	114.03	15.13	-30.5	-33.5	12.7	5.18e-05	0	41	0	182452224	22	5029
2026-01-28 09:06:56.94	113.71	15.42	-30.2	-32.9	13.3	2.05e-05	0	42	0	187695104	21	4946
2026-01-28 09:06:59.95	113.38	15.70	-30.3	-33.3	13.1	2.36e-05	0	42	0	192937984	21	5061
2026-01-28 09:07:02.95	113.05	15.99	-30.4	-33.5	13.0	3.81e-05	0	41	0	199229440	21	5152
2026-01-28 09:07:05.96	112.70	16.28	-30.5	-33.9	12.7	7.32e-05	0	41	0	204472320	21	5315
2026-01-28 09:07:08.97	112.35	16.57	-30.4	-33.4	13.1	2.74e-05	0	41	0	209715200	21	5096
2026-01-28 09:07:11.98	111.99	16.86	-30.4	-33.5	13.1	3.89e-05	0	41	0	216006656	21	5126
2026-01-28 09:07:14.98	111.63	17.16	-30.6	-34.1	12.7	6.79e-05	0	42	0	221249536	21	5359
2026-01-28 09:07:18.00	111.26	17.46	-30.6	-33.9	12.8	5.34e-05	0	42	0	227540992	21	5301
2026-01-28 09:07:21.00	110.88	17.76	-30.7	-34.3	12.6	8.23e-05	0	42	0	232783872	21	5448
2026-01-28 09:07:24.01	110.49	18.06	-30.7	-34.3	12.6	1.10e-04	0	41	0	238026752	21	5459
2026-01-28 09:07:27.02	110.10	18.37	-30.6	-34.0	12.8	5.41e-05	0	42	0	244318208	21	5302
2026-01-28 09:07:30.03	109.70	18.67	-30.9	-35.0	12.2	2.23e-04	0	42	0	249561088	21	5741
2026-01-28 09:07:33.03	109.29	18.98	-30.8	-34.5	12.5	1.13e-04	0	42	0	254803968	21	5522
2026-01-28 09:07:36.05	108.86	19.30	-30.9	-34.8	12.4	9.68e-05	0	42	0	261095424	21	5618
2026-01-28 09:07:39.06	108.44	19.61	-31.0	-34.7	12.1	1.75e-04	0	42	0	266338304	22	5471
2026-01-28 09:07:42.07	108.00	19.93	-30.9	-34.3	12.4	1.30e-04	0	42	0	272629760	22	5312
2026-01-28 09:07:45.09	107.55	20.25	-30.7	-33.6	12.9	6.10e-05	0	42	0	277872640	22	5037
2026-01-28 09:07:48.11	107.09	20.57	-30.4	-32.9	13.4	2.05e-05	0	42	0	283115520	22	4795
2026-01-28 09:07:51.12	106.62	20.90	-30.5	-33.2	13.2	2.59e-05	0	42	0	289406976	22	4881
2026-01-28 09:07:54.13	106.15	21.23	-30.4	-32.7	13.6	9.90e-06	0	42	0	294649856	22	4710
2026-01-28 09:07:57.14	105.66	21.55	-30.4	-32.8	13.5	6.10e-06	0	42	0	300941312	22	4743
2026-01-28 09:08:00.16	105.16	21.89	-30.5	-33.1	13.4	1.14e-05	0	42	0	306184192	22	4822
2026-01-28 09:08:03.17	104.65	22.22	-30.7	-33.5	13.1	3.43e-05	0	42	0	311427072	22	4986
2026-01-28 09:08:06.18	104.13	22.55	-30.5	-33.2	13.3	2.74e-05	0	42	0	317718528	22	4863
2026-01-28 09:08:09.19	103.60	22.89	-30.5	-32.9	13.6	5.30e-06	0	42	0	322961408	22	4765
2026-01-28 09:08:12.20	103.05	23.22	-30.5	-32.9	13.6	1.06e-05	0	42	0	329252864	22	4748
2026-01-28 09:08:15.21	102.50	23.56	-30.7	-33.6	13.1	3.12e-05	0	42	0	334495744	22	5013
2026-01-28 09:08:18.22	101.93	23.90	-30.9	-34.0	12.9	5.03e-05	0	42	0	339738624	22	5167
2026-01-28 09:08:21.23	101.35	24.25	-31.0	-34.4	12.5	9.68e-05	0	42	0	346030080	22	5347
2026-01-28 09:08:24.25	100.76	24.59	-31.1	-34.7	12.4	1.64e-04	0	42	0	351272960	22	5451
2026-01-28 09:08:27.26	100.15	24.94	-31.1	-34.6	12.4	1.68e-04	0	42	0	356515840	22	5421
2026-01-28 09:08:30.27	99.53	25.28	-31.2	-35.1	12.2	2.14e-04	0	42	0	362807296	22	5593
2026-01-28 09:08:33.27	98.90	25.62	-31.1	-34.8	12.4	2.12e-04	0	42	0	368050176	22	5470
2026-01-28 09:08:36.28	98.25	25.97	-31.2	-35.1	12.2	1.98e-04	0	42	0	374341632	22	5625
2026-01-28 09:08:39.28	97.59	26.32	-31.3	-35.2	12.1	2.43e-04	0	42	0	379584512	22	5636
2026-01-28 09:08:42.30	96.91	26.66	-31.1	-34.6	12.6	1.32e-04	0	42	0	384827392	22	5390
2026-01-28 09:08:45.31	96.22	27.01	-31.1	-34.5	12.6	9.00e-05	0	42	0	391118848	22	5360
2026-01-28 09:08:48.32	95.51	27.36	-31.1	-34.6	12.5	1.30e-04	0	42	0	396361728	22	5404
2026-01-28 09:08:51.33	94.79	27.70	-31.3	-35.1	12.2	1.81e-04	0	42	0	402653184	22	5632
2026-01-28 09:08:54.34	94.05	28.05	-31.3	-35.0	12.3	2.15e-04	0	42	0	407896064	22	5559
2026-01-28 09:08:57.35	93.30	28.39	-31.2	-35.0	12.3	2.14e-04	0	42	0	413138944	22	5541
2026-01-28 09:09:00.36	92.53	28.73	-31.2	-34.9	12.4	1.65e-04	0	42	0	419430400	22	5507
2026-01-28 09:09:03.38	91.74	29.08	-31.3	-35.1	12.3	1.32e-04	0	42	0	424673280	22	5583
2026-01-28 09:09:06.38	90.93	29.41	-31.4	-35.5	12.0	2.86e-04	0	42	0	429916160	22	5761
2026-01-28 09:09:09.38	90.12	29.75	-31.6	-35.4	11.8	5.40e-04	0	42	0	436207616	23	5584
2026-01-28 09:09:12.38	89.28	30.08	-32.2	-36.9	10.3	3.92e-03	0	42	0	441450496	24	6197
2026-01-28 09:09:15.39	88.42	30.41	-32.3	-37.3	10.0	8.18e-03	0	42	0	447741952	24	6385
2026-01-28 09:09:18.41	87.55	30.74	-32.6	-37.8	9.2	2.02e-02	0	42	0	452984832	25	6602
2026-01-28 09:09:21.41	86.66	31.06	-32.7	-38.3	8.9	2.70e-02	0	42	0	458227712	25	6872
2026-01-28 09:09:24.42	85.75	31.38	-32.6	-38.1	9.1	2.40e-02	0	42	0	464519168	25	6738
2026-01-28 09:09:27.43	84.82	31.69	-32.8	-38.8	8.5	4.27e-02	0	42	0	469762048	25	7155
2026-01-28 09:09:30.45	83.87	32.00	-32.9	-39.4	8.0	7.04e-02	0	42	0	475004928	25	7573
2026-01-28 09:09:33.45	82.91	32.30	-33.0	-39.2	7.9	8.69e-02	0	42	0	481296384	26	7318
2026-01-28 09:09:36.46	81.93	32.59	-32.8	-38.2	8.7	4.19e-02	0	42	0	486539264	26	6708
2026-01-28 09:09:39.47	80.93	32.88	-32.7	-37.8	8.9	2.54e-02	0	42	0	492830720	26	6491
2026-01-28 09:09:42.49	79.91	33.16	-32.6	-37.5	9.2	2.47e-02	0	42	0	498073600	26	6297
2026-01-28 09:09:45.50	78.87	33.43	-32.5	-37.2	9.5	1.37e-02	0	42	0	503316480	26	6122
2026-01-28 09:09:48.52	77.82	33.70	-32.2	-36.3	10.5	5.51e-03	0	42	0	509607936	25	5806
2026-01-28 09:09:51.52	76.75	33.95	-31.7	-35.2	11.7	5.77e-04	0	42	0	514850816	24	5387
2026-01-28 09:09:54.54	75.66	34.20	-31.4	-34.2	12.3	3.20e-04	0	42	0	521142272	24	5011
2026-01-28 09:09:57.55	74.56	34.44	-31.4	-34.7	12.4	1.46e-04	0	42	0	526385152	23	5280
2026-01-28 09:10:00.56	73.45	34.66	-31.3	-34.4	12.6	9.23e-05	0	42	0	531628032	23	5148
2026-01-28 09:10:03.58	72.31	34.88	-31.5	-35.2	12.1	1.80e-04	0	42	0	537919488	23	5468
2026-01-28 09:10:06.58	71.17	35.08	-30.9	-33.4	13.3	3.28e-05	0	42	0	543162368	23	4778
2026-01-28 09:10:09.58	70.01	35.27	-30.7	-33.3	13.6	4.50e-06	0	42	0	548405248	22	4860
2026-01-28 09:10:12.59	68.83	35.45	-30.5	-32.7	14.0	7.00e-07	0	42	0	554696704	22	4662
2026-01-28 09:10:15.61	67.64	35.61	-30.0	-32.0	14.8	0.00e+00	0	42	0	559939584	21	4537
2026-01-28 09:10:18.63	66.44	35.76	-30.2	-32.4	14.6	0.00e+00	0	42	0	566231040	21	4668
2026-01-28 09:10:21.63	65.24	35.90	-29.9	-31.8	14.9	0.00e+00	0	42	0	571473920	21	4462
2026-01-28 09:10:24.64	64.02	36.03	-29.8	-31.9	15.1	0.00e+00	0	42	0	576716800	20	4614
2026-01-28 09:10:27.65	62.79	36.13	-29.7	-31.7	15.3	0.00e+00	0	42	0	583008256	20	4538
2026-01-28 09:10:30.66	61.56	36.23	-29.8	-31.9	15.1	0.00e+00	0	42	0	588251136	20	4606
2026-01-28 09:10:33.68	60.31	36.31	-30.1	-32.7	14.7	7.00e-07	0	42	0	594542592	20	4864
2026-01-28 09:10:36.68	59.07	36.37	-30.4	-33.5	14.2	1.50e-06	0	42	0	599785472	20	5152
2026-01-28 09:10:39.69	57.82	36.42	-30.7	-33.9	13.7	7.60e-06	0	42	0	605028352	21	5165
2026-01-28 09:10:42.70	56.56	36.46	-30.7	-33.7	13.6	2.20e-06	0	42	0	611319808	21	5114
2026-01-28 09:10:45.70	55.31	36.47	-30.7	-33.7	13.8	6.80e-06	0	42	0	616562688	21	5084
2026-01-28 09:10:48.71	54.06	36.48	-30.6	-33.5	13.9	2.20e-06	0	42	0	621805568	21	5023
2026-01-28 09:10:51.71	52.80	36.46	-31.0	-34.6	13.2	2.67e-05	0	42	0	628097024	21	5444
2026-01-28 09:10:54.72	51.55	36.43	-31.1	-34.4	13.0	6.79e-05	0	42	0	633339904	22	5247
2026-01-28 09:10:57.73	50.30	36.39	-31.2	-34.6	12.8	3.12e-05	0	42	0	639631360	22	5345
2026-01-28 09:11:00.73	49.05	36.33	-31.3	-35.0	12.6	1.01e-04	0	42	0	644874240	22	5516
2026-01-28 09:11:03.73	47.82	36.25	-31.8	-35.9	11.6	7.39e-04	0	42	0	650117120	23	5779
2026-01-28 09:11:06.74	46.58	36.16	-31.8	-35.9	11.6	6.81e-04	0	42	0	656408576	23	5790
2026-01-28 09:11:09.74	45.36	36.06	-31.8	-35.9	11.7	5.34e-04	0	42	0	661651456	23	5760
2026-01-28 09:11:12.75	44.14	35.94	-31.8	-36.0	11.5	1.10e-03	0	42	0	666894336	23	5843
2026-01-28 09:11:15.76	42.93	35.80	-31.7	-35.8	11.7	6.82e-04	0	42	0	673185792	23	5738
2026-01-28 09:11:18.76	41.73	35.66	-31.8	-36.1	11.4	8.83e-04	0	42	0	678428672	23	5874
2026-01-28 09:11:21.77	40.54	35.50	-31.8	-36.1	11.4	8.74e-04	0	42	0	684720128	23	5866
2026-01-28 09:11:24.78	39.37	35.32	-31.4	-34.8	12.3	2.78e-04	0	42	0	689963008	23	5309
2026-01-28 09:11:27.79	38.20	35.14	-31.5	-35.0	12.2	2.92e-04	0	42	0	695205888	23	5408
2026-01-28 09:11:30.80	37.06	34.94	-31.3	-34.6	12.4	1.42e-04	0	42	0	701497344	23	5244
2026-01-28 09:11:33.81	35.92	34.73	-30.8	-33.5	13.5	2.44e-05	0	42	0	706740224	22	4935
2026-01-28 09:11:36.82	34.80	34.51	-30.4	-32.5	14.2	2.20e-06	0	42	0	711983104	22	4594
2026-01-28 09:11:39.83	33.70	34.27	-31.0	-34.2	13.1	1.90e-05	0	42	0	718274560	22	5191
2026-01-28 09:11:42.84	32.61	34.03	-30.9	-33.9	13.2	2.97e-05	0	42	0	723517440	22	5098
2026-01-28 09:11:45.85	31.54	33.78	-31.1	-34.4	12.9	3.20e-05	0	42	0	729808896	22	5272
2026-01-28 09:11:48.86	30.49	33.52	-31.8	-36.2	11.2	9.45e-04	0	42	0	735051776	23	5955
2026-01-28 09:11:51.86	29.45	33.25	-31.7	-35.8	11.4	1.34e-03	0	42	0	740294656	23	5772
2026-01-28 09:11:54.87	28.43	32.97	-31.2	-34.2	12.6	8.85e-05	0	42	0	746586112	23	5123
2026-01-28 09:11:57.88	27.43	32.69	-31.5	-35.2	11.8	4.94e-04	0	42	0	751828992	23	5526
2026-01-28 09:12:00.89	26.45	32.40	-31.7	-35.9	11.4	1.00e-03	0	42	0	757071872	23	5823
2026-01-28 09:12:03.90	25.48	32.10	-31.7	-35.9	11.4	8.60e-04	0	42	0	763363328	23	5808
2026-01-28 09:12:06.91	24.53	31.79	-31.8	-36.4	10.9	2.97e-03	0	42	0	768606208	23	6116
2026-01-28 09:12:09.92	23.60	31.48	-31.7	-35.8	11.3	1.05e-03	0	42	0	774897664	23	5801
2026-01-28 09:12:12.94	22.69	31.17	-31.6	-35.7	11.4	9.46e-04	0	42	0	780140544	23	5738
2026-01-28 09:12:15.95	21.79	30.85	-31.9	-36.7	10.7	2.28e-03	0	42	0	785383424	23	6218
2026-01-28 09:12:18.96	20.92	30.52	-31.9	-36.4	10.9	2.59e-03	0	42	0	791674880	23	6091
2026-01-28 09:12:21.97	20.06	30.20	-31.9	-36.0	10.7	3.68e-03	0	42	0	796917760	24	5797
2026-01-28 09:12:24.98	19.22	29.87	-31.7	-35.3	11.3	1.32e-03	0	42	0	803209216	24	5477
2026-01-28 09:12:27.99	18.39	29.53	-31.4	-34.4	11.9	3.92e-04	0	42	0	808452096	24	5114
2026-01-28 09:12:31.00	17.59	29.20	-31.1	-34.1	12.5	2.28e-04	0	42	0	813694976	23	5065
2026-01-28 09:12:34.00	16.80	28.86	-31.0	-33.8	12.7	5.26e-05	0	42	0	819986432	23	4954
2026-01-28 09:12:37.01	16.03	28.52	-30.8	-33.3	13.1	7.85e-05	0	42	0	825229312	23	4788
2026-01-28 09:12:40.02	15.27	28.18	-30.5	-32.8	13.7	9.10e-06	0	42	0	830472192	22	4723
2026-01-28 09:12:43.03	14.53	27.83	-30.4	-32.7	13.7	3.00e-06	0	42	0	836763648	22	4664
2026-01-28 09:12:46.04	13.81	27.49	-30.4	-32.8	13.7	6.10e-06	0	42	0	842006528	22	4710
2026-01-28 09:12:49.04	13.10	27.15	-30.4	-32.8	13.6	1.52e-05	0	42	0	848297984	22	4703
2026-01-28 09:12:52.05	12.41	26.80	-30.5	-33.0	13.4	1.90e-05	0	42	0	853540864	22	4795
2026-01-28 09:12:55.06	11.73	26.46	-30.2	-32.8	13.7	7.60e-06	0	42	0	858783744	21	4823
2026-01-28 09:12:58.06	11.07	26.11	-30.3	-32.9	13.2	1.83e-05	0	42	0	865075200	21	4884
2026-01-28 09:13:01.07	10.42	25.77	-29.8	-32.1	14.4	7.00e-07	0	42	0	870318080	20	4700
2026-01-28 09:13:04.09	9.78	25.42	-29.8	-32.1	14.0	3.80e-06	0	42	0	875560960	20	4726
2026-01-28 09:13:07.10	9.16	25.08	-29.6	-31.9	13.7	5.30e-06	0	42	0	881852416	20	4647
2026-01-28 09:13:10.11	8.55	24.73	-29.8	-32.3	13.3	1.14e-05	0	42	0	887095296	20	4812
2026-01-28 09:13:13.11	7.96	24.39	-29.7	-32.5	11.3	7.29e-04	0	42	0	893386752	20	4997
2026-01-28 09:13:16.12	7.38	24.05	-29.9	-32.7	13.4	2.28e-05	0	42	0	898629632	20	4931
2026-01-28 09:13:19.12	6.81	23.71	-30.0	-32.7	14.0	2.20e-06	0	42	0	903872512	20	4909
2026-01-28 09:13:22.13	6.26	23.38	-29.6	-32.0	13.3	1.14e-05	0	42	0	910163968	20	4703
2026-01-28 09:13:25.15	5.71	23.04	-29.8	-32.2	13.7	3.80e-06	0	42	0	915406848	20	4756
2026-01-28 09:13:28.16	5.18	22.70	-29.3	-32.0	9.1	6.52e-03	0	42	0	921698304	20	4927
2026-01-28 09:13:31.17	4.66	22.37	-29.5	-33.0	9.1	3.98e-02	0	42	0	926941184	19	5414
2026-01-28 09:13:34.18	4.15	22.04	-30.5	-33.7	12.5	1.75e-04	0	42	0	932184064	21	5224
2026-01-28 09:13:37.19	3.65	21.71	-30.4	-33.7	11.5	4.55e-04	0	42	0	938475520	21	5239
2026-01-28 09:13:40.20	3.16	21.38	-30.5	-34.3	9.9	7.03e-03	0	42	0	943718400	21	5572
2026-01-28 09:13:43.21	2.68	21.06	-30.8	-34.8	11.2	1.90e-03	0	42	0	948961280	21	5694
2026-01-28 09:13:46.22	2.22	20.73	-30.8	-34.5	11.8	5.68e-04	0	42	0	955252736	21	5554
2026-01-28 09:13:49.22	1.76	20.41	-30.7	-34.2	12.5	1.27e-04	0	42	0	960495616	21	5391
2026-01-28 09:13:52.22	1.32	20.10	-30.9	-34.7	12.4	1.19e-04	0	42	0	966787072	21	5594
2026-01-28 09:13:55.23	0.88	19.78	-30.8	-34.6	12.2	2.86e-04	0	42	0	972029952	21	5579
2026-01-28 09:13:58.24	0.45	19.46	-31.1	-35.0	11.7	4.56e-04	0	42	0	977272832	22	5612
2026-01-28 09:14:01.25	0.03	19.15	-30.9	-34.3	12.2	2.81e-04	0	42	0	983564288	22	5328
2026-01-28 09:14:04.26	359.62	18.84	-30.8	-34.1	12.4	1.79e-04	0	42	0	988807168	22	5257
2026-01-28 09:14:07.27	359.21	18.53	-30.7	-33.8	12.6	9.61e-05	0	43	0	994050048	22	5118
2026-01-28 09:14:10.28	358.82	18.23	-30.8	-34.0	12.5	1.43e-04	0	42	0	1000341504	22	5192
2026-01-28 09:14:13.29	358.43	17.93	-30.7	-33.7	12.6	8.85e-05	0	42	0	1005584384	22	5109
2026-01-28 09:14:16.31	358.05	17.62	-30.5	-33.2	12.9	4.65e-05	0	42	0	1011875840	22	4913
2026-01-28 09:14:19.31	357.68	17.33	-30.6	-33.6	12.7	5.11e-05	0	42	0	1017118720	22	5061
2026-01-28 09:14:22.32	357.32	17.03	-30.8	-34.0	12.3	1.68e-04	0	42	0	1022361600	22	5222
2026-01-28 09:14:25.33	356.96	16.74	-30.7	-33.7	12.6	1.07e-04	0	42	0	1028653056	22	5106
2026-01-28 09:14:28.34	356.61	16.45	-30.7	-33.7	12.5	1.22e-04	0	42	0	1033895936	22	5105
2026-01-28 09:14:31.35	356.27	16.16	-30.6	-33.4	12.7	8.69e-05	0	42	0	1039138816	22	5017
2026-01-28 09:14:34.36	355.93	15.87	-30.6	-33.7	12.5	9.15e-05	0	42	0	1045430272	22	5110
2026-01-28 09:14:37.37	355.60	15.59	-30.7	-34.0	12.3	2.14e-04	0	42	0	1050673152	22	5232
2026-01-28 09:14:40.37	355.28	15.31	-30.5	-33.3	12.7	6.25e-05	0	42	0	1056964608	22	4963
2026-01-28 09:14:43.39	354.96	15.03	-30.6	-33.5	12.6	7.17e-05	0	42	0	1062207488	22	5031
2026-01-28 09:14:46.40	354.65	14.75	-30.4	-33.0	12.9	5.41e-05	0	42	0	1067450368	22	4856
2026-01-28 09:14:49.41	354.35	14.47	-30.5	-33.3	12.7	6.79e-05	0	42	0	1073741824	22	4980
2026-01-28 09:14:52.42	354.05	14.20	-30.7	-33.8	12.3	1.73e-04	0	43	0	1078984704	22	5168
2026-01-28 09:14:55.43	353.75	13.93	-30.8	-34.3	12.0	3.33e-04	0	42	0	1085276160	22	5375
2026-01-28 09:14:58.44	353.46	13.66	-30.9	-34.5	11.8	5.16e-04	0	43	0	1090519040	22	5464
2026-01-28 09:15:01.46	353.18	13.40	-30.9	-34.7	11.7	4.20e-04	0	42	0	1095761920	22	5533
2026-01-28 09:15:04.48	352.90	13.13	-30.7	-34.0	12.1	2.85e-04	0	42	0	1102053376	22	5245
2026-01-28 09:15:07.48	352.63	12.87	-30.8	-34.4	11.7	5.45e-04	0	42	0	1107296256	22	5434
2026-01-28 09:15:10.48	352.36	12.61	-31.0	-34.8	11.5	7.82e-04	0	42	0	1112539136	22	5612
2026-01-28 09:15:13.48	352.10	12.35	-31.0	-35.1	11.2	1.17e-03	0	42	0	1118830592	22	5730
2026-01-28 09:15:16.49	351.84	12.10	-31.0	-35.0	11.2	1.11e-03	0	42	0	1124073472	22	5720
2026-01-28 09:15:19.51	351.59	11.85	-31.2	-35.5	10.9	2.08e-03	0	43	0	1130364928	22	5937
2026-01-28 09:15:22.51	351.34	11.60	-31.1	-35.5	10.8	2.61e-03	0	42	0	1135607808	22	5943
2026-01-28 09:15:25.51	351.10	11.35	-31.2	-35.8	10.6	3.46e-03	0	42	0	1140850688	22	6078
2026-01-28 09:15:28.51	350.86	11.10	-31.2	-35.6	10.8	2.66e-03	0	42	0	1147142144	22	6005
2026-01-28 09:15:31.51	350.62	10.86	-31.2	-35.8	10.6	3.32e-03	0	42	0	1152385024	22	6121
2026-01-28 09:15:34.52	350.39	10.61	-31.3	-36.0	10.4	5.36e-03	0	42	0	1157627904	22	6228
2026-01-28 09:15:37.54	350.16	10.37	-31.3	-36.3	10.2	6.31e-03	0	42	0	1163919360	22	6354
2026-01-28 09:15:40.54	349.94	10.13	-31.3	-36.2	10.2	6.47e-03	0	43	0	1169162240	22	6345
2026-01-28 09:15:43.55	349.72	9.89	-31.3	-36.2	10.2	6.52e-03	0	42	0	1175453696	22	6304
2026-01-28 09:15:46.56	349.50	9.66	-31.3	-36.1	10.2	6.84e-03	0	42	0	1180696576	22	6279
2026-01-28 09:15:49.57	349.29	9.42	-31.2	-35.9	10.4	5.31e-03	0	42	0	1185939456	22	6187
2026-01-28 09:15:52.58	349.08	9.19	-31.3	-36.2	10.0	6.26e-03	0	43	0	1192230912	22	6353
2026-01-28 09:15:55.58	348.88	8.96	-31.2	-36.1	10.1	6.28e-03	0	42	0	1197473792	22	6297
2026-01-28 09:15:58.60	348.67	8.73	-31.3	-36.5	9.8	9.17e-03	0	42	0	1202716672	22	6500
2026-01-28 09:16:01.61	348.47	8.51	-31.3	-36.4	9.8	9.25e-03	0	43	0	1209008128	22	6473
2026-01-28 09:16:04.62	348.28	8.28	-31.4	-36.6	9.6	1.19e-02	0	43	0	1214251008	22	6596
2026-01-28 09:16:07.64	348.09	8.06	-31.4	-36.4	9.3	1.97e-02	0	43	0	1220542464	23	6412
2026-01-28 09:16:10.65	347.90	7.83	-31.4	-36.4	9.4	1.76e-02	0	42	0	1225785344	23	6404
2026-01-28 09:16:13.65	347.71	7.62	-31.4	-36.3	9.4	1.96e-02	0	42	0	1231028224	23	6364
2026-01-28 09:16:16.67	347.53	7.40	-31.4	-36.4	9.3	1.85e-02	0	42	0	1237319680	23	6382
2026-01-28 09:16:19.68	347.35	7.18	-31.4	-36.7	9.1	2.18e-02	0	43	0	1242562560	23	6581

#Closed at: 2026-01-28 09:16:22
#Recorded file [1246 MB]: D:/data/31010_260128_120516.dat