passes_logs/2026/01/28/R2M6_AANII_01/R2M6_AANII_01__20260128_081615_NOAA_21_JPSS-2_rec.log

#Pass ID: 20260128_081615_NOAA 21 (JPSS-2)
#Satellite: NOAA 21 (JPSS-2)
#Configuration: NOAA 21
#almurnet v.1.7.20240730
#Start time: 2026-01-28 08:16:14

#Version: 2.2.20231116
#Station: R2M6_AANII_01
#Location: 30.233357 lon 59.946436 lat
#TLE: 1 54234U 22150A   26027.55906748  .00000170  00000+0  10132-3 0  9996
#TLE: 2 54234  98.7510 328.3076 0000860 204.4692 155.6443 14.19540154166599

#Time	Az	El	Level	Level2	SNR	BER	BlckErr	Temp	State	Recorded	gain1	gain2
2026-01-28 08:16:14.81	96.70	6.98	-31.1	-42.5	3.8	1.49e+00	0	39	0	0	23	13436
2026-01-28 08:16:17.82	96.41	7.16	-31.0	-42.3	3.8	1.49e+00	0	40	104	0	23	13241
2026-01-28 08:16:20.83	96.11	7.35	-30.8	-42.4	3.8	1.49e+00	0	40	104	0	22	13714
2026-01-28 08:16:23.85	95.81	7.54	-30.8	-42.4	3.8	1.49e+00	0	40	104	0	22	13750
2026-01-28 08:16:26.86	95.51	7.73	-30.8	-42.5	3.8	1.49e+00	0	40	104	0	22	13866
2026-01-28 08:16:29.88	95.20	7.92	-31.0	-42.8	3.8	1.49e+00	0	40	104	0	22	14057
2026-01-28 08:16:32.89	94.89	8.11	-31.1	-42.9	3.8	1.49e+00	0	40	104	0	22	14085
2026-01-28 08:16:35.92	94.57	8.30	-31.1	-43.0	3.8	1.49e+00	0	40	104	0	22	14168
2026-01-28 08:16:38.93	94.25	8.49	-31.2	-42.9	3.8	1.49e+00	0	40	104	0	22	13858
2026-01-28 08:16:41.94	93.92	8.68	-31.3	-42.9	3.8	1.49e+00	0	40	104	0	22	13686
2026-01-28 08:16:44.96	93.59	8.88	-31.4	-42.6	3.8	1.49e+00	0	40	104	0	22	13005
2026-01-28 08:16:47.97	93.26	9.07	-31.1	-38.6	4.8	8.72e-01	0	40	104	0	22	8515
2026-01-28 08:16:50.97	92.92	9.26	-30.9	-36.3	6.5	4.09e-01	0	40	104	0	22	6675
2026-01-28 08:16:53.99	92.58	9.46	-31.3	-36.8	6.8	1.51e-01	0	40	104	0	22	6811
2026-01-28 08:16:57.00	92.23	9.65	-31.2	-36.4	7.3	8.96e-02	0	41	104	0	22	6522
2026-01-28 08:17:00.00	91.88	9.85	-31.5	-37.0	6.6	1.89e-01	0	41	104	0	23	6758
2026-01-28 08:17:03.01	91.52	10.04	-30.8	-34.2	8.7	4.38e-02	0	41	104	0	23	5305
2026-01-28 08:17:06.02	91.16	10.24	-30.0	-32.6	10.6	3.54e-03	0	41	104	0	21	4871
2026-01-28 08:17:09.03	90.79	10.44	-29.8	-32.6	11.1	1.70e-03	0	41	104	0	20	4943
2026-01-28 08:17:12.05	90.42	10.63	-29.1	-31.1	12.5	1.22e-04	0	41	104	0	19	4534
2026-01-28 08:17:15.07	90.04	10.83	-28.5	-30.2	13.5	1.29e-05	0	41	104	0	18	4342
2026-01-28 08:17:18.07	89.66	11.03	-28.5	-30.0	13.6	9.10e-06	0	41	104	0	18	4288
2026-01-28 08:17:21.09	89.27	11.23	-28.4	-29.7	13.8	6.80e-06	0	41	104	0	18	4210
2026-01-28 08:17:24.11	88.88	11.43	-28.0	-29.3	14.3	0.00e+00	0	41	104	0	17	4192
2026-01-28 08:17:27.12	88.48	11.63	-27.9	-29.1	14.5	0.00e+00	0	41	104	0	17	4135
2026-01-28 08:17:30.14	88.07	11.83	-28.1	-29.5	14.3	2.20e-06	0	41	104	0	17	4237
2026-01-28 08:17:33.16	87.66	12.03	-28.0	-29.3	14.4	7.00e-07	0	41	104	0	17	4182
2026-01-28 08:17:36.16	87.25	12.22	-27.8	-29.3	14.7	0.00e+00	0	41	104	0	16	4291
2026-01-28 08:17:39.17	86.83	12.42	-27.8	-29.3	14.8	0.00e+00	0	41	104	0	16	4278
2026-01-28 08:17:42.18	86.40	12.62	-28.0	-29.7	14.5	1.50e-06	0	41	104	0	16	4414
2026-01-28 08:17:45.19	85.97	12.82	-28.1	-30.1	14.4	1.50e-06	0	41	104	0	16	4513
2026-01-28 08:17:48.21	85.52	13.02	-28.1	-30.1	14.3	0.00e+00	0	41	104	0	16	4523
2026-01-28 08:17:51.22	85.08	13.22	-28.2	-30.3	14.2	7.00e-07	0	41	104	0	16	4589
2026-01-28 08:17:54.23	84.63	13.42	-28.2	-30.2	14.3	1.50e-06	0	41	104	0	16	4558
2026-01-28 08:17:57.24	84.17	13.62	-28.3	-30.5	14.2	1.50e-06	0	41	104	0	16	4645
2026-01-28 08:18:00.25	83.71	13.82	-28.1	-30.0	14.5	7.00e-07	0	41	104	0	16	4498
2026-01-28 08:18:03.26	83.24	14.02	-28.2	-30.2	14.3	0.00e+00	0	41	104	0	16	4548
2026-01-28 08:18:06.28	82.76	14.22	-28.3	-30.5	14.2	3.00e-06	0	41	104	0	16	4622
2026-01-28 08:18:09.30	82.28	14.42	-28.3	-30.6	14.2	0.00e+00	0	42	104	0	16	4673
2026-01-28 08:18:12.31	81.79	14.61	-28.2	-29.8	14.4	1.50e-06	0	41	104	0	17	4303
2026-01-28 08:18:15.33	81.29	14.81	-28.1	-29.4	14.7	0.00e+00	0	42	104	0	17	4188
2026-01-28 08:18:18.34	80.79	15.01	-28.1	-29.6	14.5	1.50e-06	0	41	104	0	17	4250
2026-01-28 08:18:21.36	80.27	15.20	-28.0	-29.3	14.7	1.50e-06	0	41	104	0	17	4177
2026-01-28 08:18:24.37	79.76	15.40	-28.1	-29.5	14.6	0.00e+00	0	42	104	0	17	4218
2026-01-28 08:18:27.39	79.23	15.59	-27.9	-29.0	14.9	0.00e+00	0	41	104	0	17	4102
2026-01-28 08:18:30.41	78.70	15.79	-28.1	-29.5	14.7	0.00e+00	0	41	104	0	17	4212
2026-01-28 08:18:33.43	78.16	15.98	-28.1	-29.5	14.7	0.00e+00	0	42	104	0	17	4232
2026-01-28 08:18:36.44	77.62	16.17	-28.2	-29.8	14.5	7.00e-07	0	42	104	0	17	4304
2026-01-28 08:18:39.45	77.07	16.36	-28.3	-30.0	14.4	0.00e+00	0	42	104	0	17	4358
2026-01-28 08:18:42.47	76.51	16.55	-28.1	-29.5	14.7	0.00e+00	0	42	104	0	17	4209
2026-01-28 08:18:45.48	75.94	16.74	-28.3	-29.8	14.5	0.00e+00	0	41	104	0	17	4316
2026-01-28 08:18:48.48	75.37	16.92	-28.3	-29.9	14.5	0.00e+00	0	42	104	0	17	4328
2026-01-28 08:18:51.50	74.79	17.11	-28.1	-29.4	14.8	0.00e+00	0	42	104	0	17	4187
2026-01-28 08:18:54.50	74.21	17.29	-28.2	-29.8	14.6	0.00e+00	0	42	104	0	17	4289
2026-01-28 08:18:57.53	73.61	17.47	-28.2	-29.8	14.6	0.00e+00	0	42	104	0	17	4295
2026-01-28 08:19:00.54	73.01	17.65	-28.1	-29.4	14.8	0.00e+00	0	41	104	0	17	4199
2026-01-28 08:19:03.54	72.40	17.83	-28.0	-29.2	14.9	0.00e+00	0	42	104	0	17	4137
2026-01-28 08:19:06.55	71.79	18.00	-28.2	-29.6	14.7	7.00e-07	0	42	104	0	17	4255
2026-01-28 08:19:09.57	71.16	18.17	-28.0	-29.3	14.9	0.00e+00	0	42	104	0	17	4152
2026-01-28 08:19:12.58	70.53	18.34	-27.8	-28.8	15.2	0.00e+00	0	42	104	0	17	4033
2026-01-28 08:19:15.59	69.90	18.51	-27.5	-28.6	15.6	0.00e+00	0	42	104	0	16	4060
2026-01-28 08:19:18.61	69.25	18.68	-27.4	-28.4	15.7	0.00e+00	0	42	104	0	16	4022
2026-01-28 08:19:21.61	68.60	18.84	-27.4	-28.3	15.7	0.00e+00	0	42	104	0	16	4002
2026-01-28 08:19:24.62	67.95	19.00	-27.4	-28.2	15.8	0.00e+00	0	42	104	0	16	3977
2026-01-28 08:19:27.64	67.28	19.16	-27.3	-28.1	15.9	0.00e+00	0	42	104	0	16	3952
2026-01-28 08:19:30.66	66.61	19.31	-27.6	-28.8	15.5	0.00e+00	0	42	104	0	16	4117
2026-01-28 08:19:33.67	65.93	19.46	-27.5	-28.5	15.7	0.00e+00	0	42	104	0	16	4049
2026-01-28 08:19:36.67	65.25	19.61	-27.4	-28.4	15.7	0.00e+00	0	42	104	0	16	4033
2026-01-28 08:19:39.68	64.55	19.75	-27.5	-28.5	15.7	0.00e+00	0	42	104	0	16	4042
2026-01-28 08:19:42.69	63.86	19.89	-27.1	-28.2	16.0	0.00e+00	0	42	104	0	15	4078
2026-01-28 08:19:45.71	63.15	20.03	-27.0	-28.0	16.1	0.00e+00	0	42	104	0	15	4026
2026-01-28 08:19:48.72	62.44	20.16	-27.2	-28.3	15.9	0.00e+00	0	42	104	0	15	4110
2026-01-28 08:19:51.73	61.72	20.29	-27.2	-28.4	15.9	0.00e+00	0	42	104	0	15	4129
2026-01-28 08:19:54.74	61.00	20.41	-27.1	-28.1	16.1	0.00e+00	0	42	104	0	15	4053
2026-01-28 08:19:57.75	60.28	20.53	-27.0	-28.0	16.1	0.00e+00	0	42	104	0	15	4013
2026-01-28 08:20:00.76	59.54	20.65	-27.0	-27.8	16.2	0.00e+00	0	42	104	0	15	3979
2026-01-28 08:20:03.78	58.80	20.76	-27.0	-27.9	16.1	0.00e+00	0	42	104	0	15	4009
2026-01-28 08:20:06.78	58.06	20.86	-27.1	-28.0	16.1	0.00e+00	0	42	104	0	15	4035
2026-01-28 08:20:09.80	57.31	20.96	-27.2	-28.3	16.0	0.00e+00	0	42	104	0	15	4102
2026-01-28 08:20:12.81	56.55	21.06	-27.4	-28.8	15.7	0.00e+00	0	42	104	0	15	4225
2026-01-28 08:20:15.82	55.79	21.15	-27.4	-28.8	15.7	0.00e+00	0	42	104	0	15	4221
2026-01-28 08:20:18.84	55.03	21.24	-27.2	-28.4	15.9	0.00e+00	0	42	104	0	15	4117
2026-01-28 08:20:21.86	54.26	21.32	-27.1	-28.2	16.0	0.00e+00	0	42	104	0	15	4079
2026-01-28 08:20:24.88	53.49	21.40	-27.2	-28.3	16.0	0.00e+00	0	42	104	0	15	4104
2026-01-28 08:20:27.88	52.71	21.47	-27.1	-28.1	16.1	0.00e+00	0	42	104	0	15	4037
2026-01-28 08:20:30.90	51.93	21.54	-27.3	-28.6	15.8	0.00e+00	0	42	104	0	15	4184
2026-01-28 08:20:33.92	51.15	21.60	-27.3	-28.6	15.8	0.00e+00	0	42	104	0	15	4185
2026-01-28 08:20:36.93	50.36	21.65	-27.4	-28.9	15.7	0.00e+00	0	42	104	0	15	4251
2026-01-28 08:20:39.94	49.58	21.70	-27.5	-29.0	15.6	0.00e+00	0	42	104	0	15	4297
2026-01-28 08:20:42.96	48.79	21.74	-27.3	-28.6	15.8	0.00e+00	0	42	104	0	15	4169
2026-01-28 08:20:45.97	47.99	21.78	-27.4	-28.9	15.7	0.00e+00	0	42	104	0	15	4261
2026-01-28 08:20:48.98	47.20	21.81	-27.2	-28.3	16.0	0.00e+00	0	42	104	0	15	4092
2026-01-28 08:20:51.98	46.41	21.84	-27.5	-29.1	15.6	0.00e+00	0	42	104	0	15	4319
2026-01-28 08:20:55.00	45.61	21.86	-27.2	-28.4	15.9	0.00e+00	0	42	104	0	15	4127
2026-01-28 08:20:58.02	44.81	21.87	-27.4	-28.9	15.7	0.00e+00	0	42	104	0	15	4252
2026-01-28 08:21:01.03	44.02	21.88	-27.3	-28.5	15.9	0.00e+00	0	42	104	0	15	4150
2026-01-28 08:21:04.05	43.22	21.88	-27.6	-29.4	15.4	0.00e+00	0	42	104	0	15	4387
2026-01-28 08:21:07.06	42.42	21.88	-27.2	-28.4	15.9	0.00e+00	0	42	104	0	15	4137
2026-01-28 08:21:10.08	41.62	21.87	-27.4	-28.7	15.7	0.00e+00	0	42	104	0	15	4212
2026-01-28 08:21:13.09	40.82	21.86	-27.6	-29.3	15.4	0.00e+00	0	42	104	0	15	4380
2026-01-28 08:21:16.11	40.03	21.83	-27.4	-28.8	15.7	0.00e+00	0	42	104	0	15	4237
2026-01-28 08:21:19.12	39.23	21.81	-27.3	-28.6	15.8	0.00e+00	0	42	104	0	15	4192
2026-01-28 08:21:22.14	38.44	21.77	-27.4	-28.7	15.8	0.00e+00	0	42	104	0	15	4225
2026-01-28 08:21:25.14	37.65	21.74	-27.1	-28.1	16.1	0.00e+00	0	42	104	0	15	4057
2026-01-28 08:21:28.16	36.86	21.69	-27.2	-28.4	15.9	0.00e+00	0	42	104	0	15	4120
2026-01-28 08:21:31.17	36.07	21.64	-27.3	-28.7	15.8	0.00e+00	0	42	104	0	15	4209
2026-01-28 08:21:34.18	35.29	21.58	-27.5	-29.2	15.5	0.00e+00	0	42	104	0	15	4335
2026-01-28 08:21:37.20	34.51	21.52	-27.5	-29.0	15.6	0.00e+00	0	42	104	0	15	4283
2026-01-28 08:21:40.21	33.73	21.46	-27.3	-28.5	15.9	0.00e+00	0	42	104	0	15	4160
2026-01-28 08:21:43.24	32.95	21.38	-27.1	-28.2	16.0	0.00e+00	0	42	104	0	15	4068
2026-01-28 08:21:46.25	32.18	21.31	-27.4	-28.9	15.6	0.00e+00	0	42	104	0	15	4263
2026-01-28 08:21:49.27	31.42	21.22	-27.5	-29.0	15.6	0.00e+00	0	42	104	0	15	4290
2026-01-28 08:21:52.28	30.65	21.14	-27.6	-29.3	15.4	0.00e+00	0	42	104	0	15	4365
2026-01-28 08:21:55.29	29.90	21.04	-27.8	-29.8	15.2	0.00e+00	0	42	104	0	15	4520
2026-01-28 08:21:58.31	29.14	20.95	-27.5	-29.0	15.6	0.00e+00	0	42	104	0	15	4287
2026-01-28 08:22:01.33	28.39	20.84	-27.3	-28.5	15.9	0.00e+00	0	42	104	0	15	4157
2026-01-28 08:22:04.33	27.66	20.74	-27.4	-28.8	15.7	0.00e+00	0	42	104	0	15	4242
2026-01-28 08:22:07.33	26.92	20.62	-27.3	-28.5	15.8	0.00e+00	0	42	104	0	15	4159
2026-01-28 08:22:10.35	26.19	20.51	-27.5	-29.1	15.5	0.00e+00	0	42	104	0	15	4333
2026-01-28 08:22:13.36	25.46	20.39	-27.4	-28.8	15.7	0.00e+00	0	42	104	0	15	4222
2026-01-28 08:22:16.38	24.74	20.26	-27.4	-28.8	15.6	0.00e+00	0	42	104	0	15	4245
2026-01-28 08:22:19.40	24.03	20.13	-27.3	-28.5	15.8	0.00e+00	0	42	104	0	15	4157
2026-01-28 08:22:22.40	23.32	20.00	-27.1	-28.0	16.0	0.00e+00	0	42	104	0	15	4034
2026-01-28 08:22:25.40	22.62	19.86	-27.0	-28.0	16.1	0.00e+00	0	42	104	0	15	4032
2026-01-28 08:22:28.42	21.93	19.72	-27.4	-28.8	15.6	0.00e+00	0	42	104	0	15	4237
2026-01-28 08:22:31.44	21.24	19.58	-27.6	-29.3	15.3	0.00e+00	0	42	104	0	15	4381
2026-01-28 08:22:34.46	20.55	19.43	-27.5	-29.2	15.4	0.00e+00	0	42	104	0	15	4335
2026-01-28 08:22:37.47	19.88	19.28	-27.4	-28.8	15.6	0.00e+00	0	42	104	0	15	4236
2026-01-28 08:22:40.50	19.21	19.13	-27.3	-28.7	15.7	0.00e+00	0	42	104	0	15	4204
2026-01-28 08:22:43.51	18.55	18.97	-27.7	-29.6	15.1	0.00e+00	0	42	104	0	15	4468
2026-01-28 08:22:46.52	17.89	18.81	-27.8	-29.2	15.2	0.00e+00	0	42	104	0	16	4227
2026-01-28 08:22:49.54	17.24	18.65	-27.7	-28.9	15.4	0.00e+00	0	42	104	0	16	4146
2026-01-28 08:22:52.54	16.61	18.48	-27.5	-28.6	15.6	0.00e+00	0	42	104	0	16	4075
2026-01-28 08:22:55.55	15.97	18.31	-27.7	-29.0	15.3	0.00e+00	0	42	104	0	16	4188
2026-01-28 08:22:58.57	15.34	18.14	-27.6	-28.7	15.5	0.00e+00	0	42	104	0	16	4099
2026-01-28 08:23:01.57	14.73	17.97	-27.6	-28.7	15.4	0.00e+00	0	42	104	0	16	4111
2026-01-28 08:23:04.60	14.11	17.80	-27.8	-29.2	15.2	0.00e+00	0	42	104	0	16	4228
2026-01-28 08:23:07.61	13.51	17.62	-27.7	-28.9	15.4	0.00e+00	0	42	104	0	16	4166
2026-01-28 08:23:10.63	12.91	17.44	-27.8	-29.1	15.3	0.00e+00	0	42	104	0	16	4209
2026-01-28 08:23:13.63	12.32	17.26	-27.7	-29.1	15.3	0.00e+00	0	42	104	0	16	4207
2026-01-28 08:23:16.65	11.74	17.08	-27.9	-29.5	15.0	0.00e+00	0	42	104	0	16	4323
2026-01-28 08:23:19.67	11.16	16.89	-27.7	-29.1	15.2	0.00e+00	0	42	104	0	16	4201
2026-01-28 08:23:22.70	10.59	16.71	-27.9	-29.4	15.1	0.00e+00	0	42	104	0	16	4301
2026-01-28 08:23:25.71	10.03	16.52	-28.1	-30.0	14.7	0.00e+00	0	42	104	0	16	4465
2026-01-28 08:23:28.72	9.47	16.33	-28.1	-29.9	14.7	0.00e+00	0	42	104	0	16	4440
2026-01-28 08:23:31.73	8.93	16.14	-27.9	-29.5	15.0	0.00e+00	0	42	104	0	16	4319
2026-01-28 08:23:34.75	8.38	15.95	-27.9	-29.4	15.0	0.00e+00	0	42	104	0	16	4308
2026-01-28 08:23:37.76	7.85	15.76	-27.9	-29.5	14.8	0.00e+00	0	42	104	0	16	4336
2026-01-28 08:23:40.78	7.32	15.56	-27.9	-29.5	14.9	0.00e+00	0	42	104	0	16	4328
2026-01-28 08:23:43.78	6.81	15.37	-27.8	-29.3	14.9	0.00e+00	0	42	104	0	16	4286
2026-01-28 08:23:46.79	6.29	15.18	-28.1	-30.0	14.6	0.00e+00	0	42	104	0	16	4479
2026-01-28 08:23:49.80	5.79	14.98	-28.0	-29.7	14.8	0.00e+00	0	42	104	0	16	4382
2026-01-28 08:23:52.80	5.29	14.79	-28.2	-30.1	14.5	7.00e-07	0	42	104	0	16	4518
2026-01-28 08:23:55.80	4.80	14.59	-28.2	-30.1	14.5	0.00e+00	0	42	104	0	16	4511
2026-01-28 08:23:58.81	4.31	14.39	-27.9	-29.6	14.7	0.00e+00	0	42	104	0	16	4356
2026-01-28 08:24:01.82	3.83	14.20	-27.8	-29.3	14.9	0.00e+00	0	42	104	0	16	4267
2026-01-28 08:24:04.82	3.36	14.00	-27.9	-29.4	14.8	0.00e+00	0	42	104	0	16	4316
2026-01-28 08:24:07.84	2.90	13.80	-27.9	-29.6	14.8	7.00e-07	0	42	104	0	16	4353
2026-01-28 08:24:10.85	2.44	13.60	-28.0	-29.8	14.6	7.00e-07	0	42	104	0	16	4414
2026-01-28 08:24:13.88	1.98	13.40	-27.9	-29.6	14.6	7.00e-07	0	42	104	0	16	4371
2026-01-28 08:24:16.89	1.53	13.20	-28.0	-29.8	14.4	0.00e+00	0	42	104	0	16	4428
2026-01-28 08:24:19.90	1.09	13.00	-28.0	-29.7	14.5	7.00e-07	0	42	104	0	16	4407
2026-01-28 08:24:22.91	0.66	12.81	-28.0	-29.8	14.4	0.00e+00	0	42	104	0	16	4445
2026-01-28 08:24:25.93	0.22	12.61	-28.3	-30.5	13.9	2.20e-06	0	42	104	0	16	4657
2026-01-28 08:24:28.94	359.80	12.41	-28.4	-30.8	13.7	4.50e-06	0	42	104	0	16	4740
2026-01-28 08:24:31.96	359.38	12.21	-28.6	-30.7	13.5	1.22e-05	0	42	104	0	17	4601
2026-01-28 08:24:34.98	358.97	12.01	-28.4	-30.3	13.7	9.90e-06	0	42	104	0	17	4471
2026-01-28 08:24:37.99	358.56	11.81	-28.4	-30.3	13.7	5.30e-06	0	42	104	0	17	4472
2026-01-28 08:24:41.00	358.16	11.61	-28.5	-30.5	13.6	4.50e-06	0	42	104	0	17	4540
2026-01-28 08:24:44.02	357.77	11.41	-28.7	-31.0	13.3	1.98e-05	0	42	104	0	17	4701
2026-01-28 08:24:47.04	357.37	11.22	-28.7	-31.0	13.3	2.05e-05	0	42	104	0	17	4699
2026-01-28 08:24:50.04	356.99	11.02	-28.5	-30.6	13.4	1.75e-05	0	42	104	0	17	4582
2026-01-28 08:24:53.05	356.61	10.82	-28.4	-30.3	13.6	1.29e-05	0	42	104	0	17	4482
2026-01-28 08:24:56.07	356.24	10.62	-28.3	-30.1	13.7	3.80e-06	0	42	104	0	17	4424
2026-01-28 08:24:59.09	355.87	10.43	-28.7	-31.0	13.2	1.52e-05	0	42	104	0	17	4706
2026-01-28 08:25:02.10	355.50	10.23	-28.9	-31.5	12.9	4.27e-05	0	42	104	0	17	4855
2026-01-28 08:25:05.12	355.14	10.03	-28.8	-31.2	13.0	4.57e-05	0	42	104	0	17	4771
2026-01-28 08:25:08.13	354.79	9.84	-28.8	-31.4	12.9	5.87e-05	0	42	104	0	17	4823
2026-01-28 08:25:11.15	354.44	9.64	-28.6	-30.9	13.2	2.13e-05	0	42	104	0	17	4669
2026-01-28 08:25:14.16	354.10	9.45	-28.7	-31.1	13.0	3.20e-05	0	42	104	0	17	4746
2026-01-28 08:25:17.17	353.76	9.26	-28.9	-31.7	12.7	7.24e-05	0	42	104	0	17	4949
2026-01-28 08:25:20.19	353.42	9.06	-29.4	-32.3	12.0	3.46e-04	0	42	104	0	18	5047
2026-01-28 08:25:23.20	353.09	8.87	-29.1	-31.5	12.4	1.26e-04	0	42	104	0	18	4774
2026-01-28 08:25:26.20	352.77	8.68	-29.0	-31.4	12.5	1.31e-04	0	42	104	0	18	4735
2026-01-28 08:25:29.22	352.44	8.49	-28.9	-31.0	12.7	9.07e-05	0	42	104	0	18	4626
2026-01-28 08:25:32.24	352.12	8.30	-28.8	-30.9	12.7	8.92e-05	0	42	104	0	18	4581
2026-01-28 08:25:35.24	351.81	8.11	-28.9	-31.2	12.5	1.14e-04	0	42	104	0	18	4680
2026-01-28 08:25:38.25	351.50	7.92	-29.2	-31.9	12.1	3.13e-04	0	42	104	0	18	4908
2026-01-28 08:25:41.26	351.20	7.73	-29.4	-32.0	11.6	8.04e-04	0	42	104	0	19	4851
2026-01-28 08:25:44.28	350.90	7.54	-29.6	-32.5	11.3	9.97e-04	0	42	104	0	19	5023
2026-01-28 08:25:47.29	350.60	7.35	-29.3	-31.7	11.8	6.06e-04	0	42	104	0	19	4750
2026-01-28 08:25:50.29	350.31	7.16	-29.3	-31.8	11.8	4.27e-04	0	42	104	0	19	4769
2026-01-28 08:25:53.31	350.02	6.98	-33.6	-45.6	3.8	1.49e+00	0	42	104	0	27	14262

#Closed at: 2026-01-28 08:25:55
#Recorded file [0 MB]: D:/data/31010_260128_111614.dat