passes_logs/2026/01/28/R2M6_AANII_01/R2M6_AANII_01__20260128_014213_NOAA_21_JPSS-2_rec.log

#Pass ID: 20260128_014213_NOAA 21 (JPSS-2)
#Satellite: NOAA 21 (JPSS-2)
#Configuration: NOAA 21
#almurnet v.1.7.20240730
#Start time: 2026-01-28 01:42:14

#Version: 2.2.20231116
#Station: R2M6_AANII_01
#Location: 30.233357 lon 59.946436 lat
#TLE: 1 54234U 22150A   26027.41809747  .00000179  00000+0  10565-3 0  9991
#TLE: 2 54234  98.7510 328.1683 0000854 205.0798 155.0336 14.19540145166571

#Time	Az	El	Level	Level2	SNR	BER	BlckErr	Temp	State	Recorded	gain1	gain2
2026-01-28 01:42:14.86	12.15	7.11	-31.8	-38.5	4.3	1.44e+00	0	42	0	0	23	7797
2026-01-28 01:42:17.87	11.95	7.32	-31.8	-37.5	6.4	2.18e-01	0	42	0	3145728	23	6927
2026-01-28 01:42:20.88	11.75	7.54	-31.7	-37.0	6.9	1.69e-01	0	42	0	12582912	23	6643
2026-01-28 01:42:23.87	11.55	7.75	-30.7	-34.5	9.4	2.15e-02	0	42	0	22020096	21	5584
2026-01-28 01:42:26.88	11.34	7.97	-30.3	-33.7	10.3	8.33e-03	0	42	0	30408704	20	5362
2026-01-28 01:42:29.85	11.13	8.18	-30.2	-33.4	10.5	3.69e-03	0	42	0	39845888	20	5252
2026-01-28 01:42:32.87	10.91	8.40	-30.2	-33.4	10.6	4.34e-03	0	42	0	49283072	20	5227
2026-01-28 01:42:35.87	10.69	8.62	-29.9	-33.2	11.2	6.18e-03	0	42	0	58720256	19	5260
2026-01-28 01:42:38.89	10.47	8.85	-28.9	-31.5	12.9	6.40e-05	0	42	0	68157440	17	4868
2026-01-28 01:42:41.89	10.24	9.07	-28.6	-30.7	13.5	3.83e-03	0	42	0	77594624	17	4605
2026-01-28 01:42:44.89	10.01	9.30	-28.5	-30.5	13.6	4.20e-03	0	42	0	87031808	17	4553
2026-01-28 01:42:47.91	9.78	9.52	-28.6	-30.8	13.5	3.96e-03	0	42	0	96468992	17	4620
2026-01-28 01:42:50.91	9.54	9.75	-28.4	-30.7	13.8	3.52e-03	0	42	0	105906176	16	4700
2026-01-28 01:42:53.92	9.30	9.98	-28.8	-31.3	13.2	4.13e-03	0	42	0	115343360	17	4779
2026-01-28 01:42:56.93	9.05	10.22	-28.5	-30.5	13.6	3.95e-03	0	42	0	124780544	17	4552
2026-01-28 01:42:59.95	8.80	10.45	-28.4	-30.9	13.7	7.60e-06	0	42	0	134217728	16	4777
2026-01-28 01:43:02.95	8.54	10.69	-28.1	-30.1	14.2	4.08e-03	0	42	0	143654912	16	4516
2026-01-28 01:43:05.96	8.29	10.92	-27.9	-30.1	14.3	7.00e-07	0	42	0	153092096	15	4661
2026-01-28 01:43:08.97	8.02	11.16	-28.5	-30.9	13.7	3.80e-06	0	42	0	162529280	16	4776
2026-01-28 01:43:11.97	7.76	11.40	-28.3	-30.4	14.1	3.00e-06	0	42	0	171966464	16	4620
2026-01-28 01:43:14.97	7.48	11.64	-28.5	-30.5	13.7	3.80e-06	0	42	0	181403648	17	4541
2026-01-28 01:43:17.99	7.21	11.89	-28.2	-30.3	14.2	2.20e-06	0	43	0	190840832	16	4590
2026-01-28 01:43:21.00	6.92	12.14	-27.8	-29.9	14.5	7.00e-07	0	42	0	200278016	15	4576
2026-01-28 01:43:24.01	6.64	12.38	-27.8	-29.8	14.6	0.00e+00	0	42	0	209715200	15	4534
2026-01-28 01:43:27.01	6.34	12.63	-27.8	-29.8	14.7	7.00e-07	0	42	0	219152384	15	4539
2026-01-28 01:43:30.02	6.05	12.88	-27.6	-29.4	14.8	0.00e+00	0	42	0	228589568	15	4441
2026-01-28 01:43:33.03	5.74	13.14	-27.9	-30.0	14.6	0.00e+00	0	43	0	238026752	15	4608
2026-01-28 01:43:36.02	5.44	13.39	-27.8	-29.9	14.6	7.00e-07	0	42	0	247463936	15	4585
2026-01-28 01:43:39.02	5.13	13.65	-27.8	-29.9	14.6	1.50e-06	0	43	0	255852544	15	4592
2026-01-28 01:43:42.03	4.81	13.91	-27.9	-30.2	14.5	1.50e-06	0	43	0	265289728	15	4650
2026-01-28 01:43:45.03	4.48	14.17	-27.5	-29.2	15.1	0.00e+00	0	43	0	274726912	15	4362
2026-01-28 01:43:48.03	4.15	14.43	-27.6	-29.4	15.0	0.00e+00	0	43	0	284164096	15	4408
2026-01-28 01:43:51.05	3.81	14.69	-27.6	-29.3	15.0	0.00e+00	0	42	0	293601280	15	4380
2026-01-28 01:43:54.05	3.47	14.96	-27.5	-29.2	15.1	0.00e+00	0	43	0	303038464	15	4376
2026-01-28 01:43:57.07	3.12	15.23	-27.5	-29.2	15.1	0.00e+00	0	43	0	312475648	15	4365
2026-01-28 01:44:00.09	2.76	15.50	-27.5	-29.1	15.2	0.00e+00	0	42	0	321912832	15	4323
2026-01-28 01:44:03.10	2.40	15.77	-27.5	-29.0	15.2	0.00e+00	0	43	0	331350016	15	4304
2026-01-28 01:44:06.11	2.03	16.04	-27.4	-29.4	15.3	0.00e+00	0	43	0	340787200	14	4536
2026-01-28 01:44:09.12	1.65	16.32	-27.4	-29.0	15.3	0.00e+00	0	43	0	350224384	15	4295
2026-01-28 01:44:12.14	1.27	16.60	-27.6	-29.4	15.0	0.00e+00	0	43	0	359661568	15	4404
2026-01-28 01:44:15.15	0.88	16.88	-27.7	-29.6	15.0	2.06e-04	0	43	0	369098752	15	4475
2026-01-28 01:44:18.16	0.48	17.16	-27.8	-29.7	14.9	0.00e+00	0	43	0	378535936	15	4516
2026-01-28 01:44:21.16	0.07	17.44	-27.9	-30.1	14.7	2.46e-04	0	43	0	387973120	15	4612
2026-01-28 01:44:24.18	359.66	17.72	-27.7	-29.6	15.0	0.00e+00	0	43	0	397410304	15	4457
2026-01-28 01:44:27.19	359.23	18.01	-27.8	-29.8	14.9	2.43e-04	0	43	0	406847488	15	4539
2026-01-28 01:44:30.21	358.80	18.30	-27.9	-30.0	14.8	1.94e-04	0	43	0	416284672	15	4588
2026-01-28 01:44:33.22	358.36	18.59	-27.2	-29.0	15.0	0.00e+00	0	43	0	425721856	15	4468
2026-01-28 01:44:36.22	357.91	18.88	-27.6	-29.4	15.1	3.18e-04	0	43	0	435159040	15	4422
2026-01-28 01:44:39.23	357.46	19.17	-27.6	-29.3	15.2	2.37e-04	0	43	0	444596224	15	4393
2026-01-28 01:44:42.24	356.99	19.46	-27.6	-29.4	15.2	3.29e-04	0	43	0	454033408	15	4401
2026-01-28 01:44:45.25	356.51	19.76	-27.3	-29.1	15.6	2.93e-04	0	43	0	463470592	14	4435
2026-01-28 01:44:48.26	356.03	20.06	-27.2	-28.8	15.8	4.68e-04	0	43	0	472907776	14	4364
2026-01-28 01:44:51.27	355.53	20.36	-27.0	-28.4	16.1	1.63e-04	0	43	0	482344960	14	4232
2026-01-28 01:44:54.28	355.03	20.65	-26.9	-28.8	16.1	2.82e-04	0	43	0	491782144	13	4455
2026-01-28 01:44:57.28	354.52	20.95	-26.8	-28.1	16.1	4.20e-04	0	43	0	501219328	14	4164
2026-01-28 01:45:00.30	353.99	21.26	-26.6	-28.1	16.5	1.25e-04	0	43	0	510656512	13	4274
2026-01-28 01:45:03.30	353.46	21.56	-26.6	-28.0	16.5	2.05e-05	0	43	0	520093696	13	4238
2026-01-28 01:45:06.32	352.91	21.86	-26.6	-28.0	16.5	0.00e+00	0	43	0	529530880	13	4237
2026-01-28 01:45:09.33	352.35	22.17	-26.7	-28.2	16.4	0.00e+00	0	43	0	538968064	13	4307
2026-01-28 01:45:12.33	351.78	22.47	-26.7	-28.2	16.4	0.00e+00	0	43	0	548405248	13	4298
2026-01-28 01:45:15.34	351.20	22.78	-26.6	-28.0	16.5	0.00e+00	0	43	0	557842432	13	4247
2026-01-28 01:45:18.36	350.61	23.08	-26.5	-27.9	16.6	0.00e+00	0	43	0	567279616	13	4207
2026-01-28 01:45:21.37	350.00	23.39	-26.7	-28.2	16.4	0.00e+00	0	43	0	576716800	13	4300
2026-01-28 01:45:24.37	349.39	23.70	-26.7	-28.4	16.3	0.00e+00	0	43	0	585105408	13	4354
2026-01-28 01:45:27.37	348.76	24.00	-26.6	-28.1	16.4	0.00e+00	0	43	0	594542592	13	4279
2026-01-28 01:45:30.39	348.12	24.31	-26.9	-28.7	16.2	0.00e+00	0	43	0	603979776	13	4444
2026-01-28 01:45:33.40	347.47	24.61	-26.9	-28.2	16.2	0.00e+00	0	43	0	613416960	14	4182
2026-01-28 01:45:36.42	346.80	24.92	-26.7	-27.7	16.5	0.00e+00	0	43	0	622854144	14	4057
2026-01-28 01:45:39.44	346.12	25.23	-26.9	-28.3	16.2	0.00e+00	0	43	0	632291328	14	4203
2026-01-28 01:45:42.44	345.43	25.53	-27.3	-29.1	15.8	0.00e+00	0	43	0	641728512	14	4426
2026-01-28 01:45:45.44	344.72	25.83	-27.1	-28.6	16.0	0.00e+00	0	43	0	651165696	14	4289
2026-01-28 01:45:48.43	344.01	26.13	-27.3	-29.0	15.8	0.00e+00	0	43	0	660602880	14	4408
2026-01-28 01:45:51.45	343.27	26.43	-27.4	-29.2	15.6	0.00e+00	0	43	0	670040064	14	4473
2026-01-28 01:45:54.47	342.52	26.72	-27.6	-29.4	15.3	1.50e-06	0	43	0	679477248	15	4400
2026-01-28 01:45:57.47	341.76	27.02	-27.4	-29.3	15.6	0.00e+00	0	43	0	688914432	14	4485
2026-01-28 01:46:00.48	340.98	27.31	-27.3	-29.1	15.7	0.00e+00	0	43	0	698351616	14	4445
2026-01-28 01:46:03.47	340.19	27.60	-26.4	-28.3	15.6	0.00e+00	0	43	0	707788800	14	4453
2026-01-28 01:46:06.48	339.39	27.88	-27.0	-28.9	14.2	0.00e+00	0	43	0	717225984	13	4484
2026-01-28 01:46:09.49	338.57	28.16	-26.2	-27.8	15.6	3.43e-05	0	43	0	726663168	14	4309
2026-01-28 01:46:12.49	337.73	28.44	-27.3	-29.2	15.6	0.00e+00	0	43	0	736100352	14	4471
2026-01-28 01:46:15.50	336.88	28.72	-27.6	-29.3	15.4	6.53e-04	0	43	0	745537536	15	4366
2026-01-28 01:46:18.51	336.02	28.99	-27.2	-28.9	15.9	0.00e+00	0	43	0	754974720	14	4374
2026-01-28 01:46:21.52	335.14	29.25	-26.9	-28.1	16.3	4.01e-04	0	43	0	764411904	14	4157
2026-01-28 01:46:24.53	334.25	29.51	-26.9	-28.8	16.2	3.07e-04	0	43	0	773849088	13	4458
2026-01-28 01:46:27.53	333.34	29.76	-27.2	-28.8	15.9	8.55e-04	0	43	0	783286272	14	4349
2026-01-28 01:46:30.54	332.42	30.01	-27.3	-29.1	15.7	3.42e-03	0	43	0	792723456	14	4426
2026-01-28 01:46:33.55	331.48	30.25	-27.3	-29.1	15.7	3.00e-03	0	43	0	802160640	14	4442
2026-01-28 01:46:36.55	330.53	30.49	-27.3	-29.1	15.7	3.18e-03	0	43	0	811597824	14	4435
2026-01-28 01:46:39.56	329.57	30.71	-27.3	-29.0	15.8	3.90e-03	0	43	0	821035008	14	4406
2026-01-28 01:46:42.58	328.59	30.94	-27.4	-29.4	15.6	3.87e-03	0	44	0	830472192	14	4517
2026-01-28 01:46:45.59	327.59	31.15	-27.5	-29.1	15.5	0.00e+00	0	43	0	839909376	15	4325
2026-01-28 01:46:48.61	326.59	31.35	-27.6	-29.3	15.4	6.10e-06	0	44	0	849346560	15	4366
2026-01-28 01:46:51.61	325.57	31.55	-27.7	-29.5	15.3	4.15e-03	0	43	0	857735168	15	4421
2026-01-28 01:46:54.62	324.54	31.73	-27.8	-29.8	15.1	0.00e+00	0	43	0	867172352	15	4529
2026-01-28 01:46:57.63	323.50	31.91	-28.3	-30.4	14.7	0.00e+00	0	44	0	877658112	16	4567
2026-01-28 01:47:00.65	322.44	32.08	-28.3	-30.4	14.7	0.00e+00	0	43	0	886046720	16	4562
2026-01-28 01:47:03.64	321.39	32.23	-28.3	-30.5	14.6	0.00e+00	0	43	0	895483904	16	4591
2026-01-28 01:47:06.65	320.31	32.38	-28.1	-29.9	14.9	0.00e+00	0	43	0	904921088	16	4439
2026-01-28 01:47:09.66	319.23	32.51	-28.1	-29.9	14.9	0.00e+00	0	44	0	914358272	16	4436
2026-01-28 01:47:12.68	318.14	32.64	-28.2	-30.1	14.8	0.00e+00	0	43	0	923795456	16	4493
2026-01-28 01:47:15.69	317.04	32.75	-28.3	-30.3	14.7	0.00e+00	0	43	0	933232640	16	4552
2026-01-28 01:47:18.69	315.93	32.85	-28.2	-30.0	14.9	0.00e+00	0	43	0	942669824	16	4468
2026-01-28 01:47:21.70	314.82	32.94	-28.2	-30.1	14.8	0.00e+00	0	43	0	952107008	16	4483
2026-01-28 01:47:24.71	313.70	33.02	-27.9	-30.0	15.0	0.00e+00	0	43	0	961544192	15	4585
2026-01-28 01:47:27.71	312.58	33.08	-28.1	-29.9	15.0	0.00e+00	0	43	0	970981376	16	4418
2026-01-28 01:47:30.73	311.45	33.13	-28.2	-30.2	14.8	0.00e+00	0	43	0	980418560	16	4507
2026-01-28 01:47:33.74	310.31	33.17	-28.7	-30.8	14.2	1.50e-06	0	43	0	989855744	17	4570
2026-01-28 01:47:36.74	309.18	33.20	-28.2	-30.0	14.8	0.00e+00	0	43	0	999292928	16	4467
2026-01-28 01:47:39.75	308.05	33.21	-28.3	-30.4	14.6	0.00e+00	0	43	0	1008730112	16	4583
2026-01-28 01:47:42.75	306.91	33.22	-28.4	-30.6	14.5	0.00e+00	0	43	0	1018167296	16	4644
2026-01-28 01:47:45.76	305.78	33.20	-28.5	-30.2	14.4	1.50e-06	0	43	0	1027604480	17	4414
2026-01-28 01:47:48.77	304.64	33.18	-28.3	-30.4	14.6	3.00e-06	0	43	0	1037041664	16	4590
2026-01-28 01:47:51.78	303.51	33.14	-28.3	-30.4	14.6	7.00e-07	0	43	0	1046478848	16	4558
2026-01-28 01:47:54.79	302.38	33.09	-28.5	-30.3	14.4	1.50e-06	0	43	0	1055916032	17	4431
2026-01-28 01:47:57.80	301.25	33.03	-28.4	-30.1	14.5	0.00e+00	0	43	0	1065353216	17	4361
2026-01-28 01:48:00.81	300.13	32.96	-28.4	-30.5	12.8	7.00e-07	0	44	0	1074790400	16	4602
2026-01-28 01:48:03.82	299.01	32.87	-28.4	-30.7	14.4	7.00e-07	0	44	0	1084227584	16	4661
2026-01-28 01:48:06.82	297.91	32.77	-28.4	-30.2	14.4	1.50e-06	0	43	0	1093664768	17	4394
2026-01-28 01:48:09.84	296.80	32.66	-28.3	-30.3	14.6	7.00e-07	0	44	0	1103101952	16	4555
2026-01-28 01:48:12.85	295.71	32.54	-28.5	-30.8	14.4	2.20e-06	0	43	0	1112539136	16	4704
2026-01-28 01:48:15.86	294.62	32.41	-28.3	-30.2	14.7	3.89e-03	0	43	0	1121976320	16	4527
2026-01-28 01:48:18.88	293.54	32.26	-27.9	-29.9	15.0	0.00e+00	0	43	0	1131413504	15	4565
2026-01-28 01:48:21.90	292.47	32.11	-27.9	-30.0	14.9	3.50e-03	0	43	0	1140850688	15	4574
2026-01-28 01:48:24.91	291.41	31.94	-27.9	-30.1	14.9	4.05e-03	0	43	0	1150287872	15	4601
2026-01-28 01:48:27.93	290.36	31.77	-28.2	-30.2	14.7	3.68e-03	0	43	0	1158676480	16	4506
2026-01-28 01:48:30.93	289.33	31.58	-27.9	-30.0	14.9	3.48e-03	0	43	0	1169162240	15	4587
2026-01-28 01:48:33.95	288.30	31.39	-28.7	-30.9	14.0	4.05e-03	0	43	0	1178599424	17	4630
2026-01-28 01:48:36.97	287.29	31.19	-28.2	-30.0	14.8	3.76e-03	0	43	0	1186988032	16	4469
2026-01-28 01:48:39.98	286.29	30.98	-27.7	-29.5	15.1	0.00e+00	0	43	0	1197473792	15	4447
2026-01-28 01:48:42.99	285.31	30.76	-28.2	-30.2	14.6	1.13e-04	0	43	0	1205862400	16	4514
2026-01-28 01:48:46.00	284.34	30.53	-27.5	-29.2	15.3	0.00e+00	0	43	0	1215299584	15	4353
2026-01-28 01:48:49.00	283.38	30.30	-27.3	-29.1	15.6	2.08e-03	0	43	0	1224736768	14	4448
2026-01-28 01:48:52.02	282.44	30.05	-27.6	-29.3	15.2	0.00e+00	0	43	0	1234173952	15	4391
2026-01-28 01:48:55.04	281.51	29.81	-26.9	-27.8	16.0	0.00e+00	0	43	0	1243611136	15	3966
2026-01-28 01:48:58.04	280.60	29.55	-27.3	-29.1	15.6	0.00e+00	0	43	0	1253048320	14	4437
2026-01-28 01:49:01.04	279.70	29.29	-27.8	-29.8	14.9	1.50e-06	0	43	0	1262485504	15	4535
2026-01-28 01:49:04.05	278.81	29.03	-26.5	-27.9	16.4	0.00e+00	0	43	0	1271922688	13	4228
2026-01-28 01:49:07.06	277.94	28.76	-26.7	-28.3	16.3	0.00e+00	0	43	0	1281359872	13	4317
2026-01-28 01:49:10.08	277.08	28.48	-27.6	-29.4	15.1	0.00e+00	0	43	0	1290797056	15	4415
2026-01-28 01:49:13.09	276.24	28.21	-26.9	-28.2	16.0	0.00e+00	0	43	0	1300234240	14	4198
2026-01-28 01:49:16.10	275.42	27.92	-26.9	-28.7	16.0	0.00e+00	0	43	0	1309671424	13	4449
2026-01-28 01:49:19.11	274.60	27.64	-27.5	-29.1	15.2	0.00e+00	0	43	0	1319108608	15	4333
2026-01-28 01:49:22.13	273.80	27.35	-26.8	-28.0	16.1	0.00e+00	0	43	0	1328545792	14	4133
2026-01-28 01:49:25.15	273.02	27.05	-26.5	-27.9	16.4	0.00e+00	0	43	0	1337982976	13	4217
2026-01-28 01:49:28.16	272.25	26.76	-27.3	-29.1	15.5	0.00e+00	0	43	0	1347420160	14	4436
2026-01-28 01:49:31.17	271.50	26.46	-27.4	-28.9	15.3	0.00e+00	0	43	0	1356857344	15	4295
2026-01-28 01:49:34.18	270.76	26.16	-26.8	-28.0	16.1	0.00e+00	0	43	0	1366294528	14	4131
2026-01-28 01:49:37.19	270.03	25.86	-26.6	-28.1	16.3	0.00e+00	0	43	0	1375731712	13	4272
2026-01-28 01:49:40.20	269.32	25.56	-26.3	-28.2	15.8	0.00e+00	0	43	0	1385168896	13	4490
2026-01-28 01:49:43.21	268.62	25.25	-27.0	-28.6	15.7	0.00e+00	0	43	0	1394606080	14	4298
2026-01-28 01:49:46.23	267.93	24.95	-26.9	-28.4	15.8	0.00e+00	0	43	0	1404043264	14	4250
2026-01-28 01:49:49.22	267.26	24.64	-26.9	-28.7	15.9	1.06e-04	0	43	0	1413480448	13	4446
2026-01-28 01:49:52.22	266.61	24.34	-26.9	-28.3	15.8	0.00e+00	0	43	0	1422917632	14	4235
2026-01-28 01:49:55.22	265.96	24.03	-27.1	-28.6	15.7	1.16e-03	0	43	0	1432354816	14	4322
2026-01-28 01:49:58.22	265.33	23.72	-27.4	-29.3	15.3	2.20e-03	0	43	0	1441792000	14	4522
2026-01-28 01:50:01.24	264.71	23.41	-27.5	-29.6	15.1	2.53e-03	0	43	0	1451229184	14	4591
2026-01-28 01:50:04.24	264.10	23.11	-27.8	-29.7	14.7	2.04e-03	0	43	0	1460666368	15	4528
2026-01-28 01:50:07.25	263.50	22.80	-27.0	-28.9	15.7	6.41e-04	0	43	0	1470103552	13	4519
2026-01-28 01:50:10.26	262.92	22.49	-27.0	-28.5	15.6	9.18e-04	0	43	0	1479540736	14	4292
2026-01-28 01:50:13.27	262.34	22.19	-27.1	-28.9	15.5	0.00e+00	0	43	0	1487929344	14	4401
2026-01-28 01:50:16.29	261.78	21.88	-27.2	-28.9	15.4	0.00e+00	0	43	0	1498415104	14	4412
2026-01-28 01:50:19.30	261.23	21.57	-26.6	-28.2	16.0	0.00e+00	0	43	0	1506803712	13	4324
2026-01-28 01:50:22.32	260.69	21.27	-26.3	-28.0	16.4	0.00e+00	0	43	0	1516240896	12	4373
2026-01-28 01:50:25.34	260.15	20.96	-26.5	-28.0	16.1	0.00e+00	0	43	0	1526726656	13	4249
2026-01-28 01:50:28.35	259.63	20.66	-26.8	-28.6	15.8	0.00e+00	0	43	0	1535115264	13	4416
2026-01-28 01:50:31.36	259.13	20.36	-26.8	-28.6	15.7	0.00e+00	0	43	0	1544552448	13	4442
2026-01-28 01:50:34.37	258.63	20.06	-26.9	-28.8	15.7	0.00e+00	0	43	0	1553989632	13	4484
2026-01-28 01:50:37.39	258.13	19.76	-26.7	-28.3	15.9	0.00e+00	0	43	0	1563426816	13	4349
2026-01-28 01:50:40.40	257.65	19.46	-26.8	-28.5	15.8	0.00e+00	0	43	0	1572864000	13	4409
2026-01-28 01:50:43.41	257.18	19.17	-26.6	-28.2	15.9	0.00e+00	0	43	0	1582301184	13	4319
2026-01-28 01:50:46.42	256.72	18.88	-27.1	-28.8	15.3	0.00e+00	0	43	0	1591738368	14	4376
2026-01-28 01:50:49.44	256.27	18.58	-27.2	-29.0	15.2	0.00e+00	0	43	0	1601175552	14	4441
2026-01-28 01:50:52.44	255.83	18.29	-27.1	-28.8	15.3	0.00e+00	0	43	0	1610612736	14	4381
2026-01-28 01:50:55.45	255.39	18.00	-27.0	-28.6	15.4	0.00e+00	0	43	0	1620049920	14	4334
2026-01-28 01:50:58.46	254.96	17.71	-27.2	-29.1	15.2	0.00e+00	0	43	0	1629487104	14	4456
2026-01-28 01:51:01.47	254.54	17.43	-27.8	-29.8	14.4	0.00e+00	0	43	0	1638924288	15	4573
2026-01-28 01:51:04.48	254.13	17.14	-27.2	-29.1	15.1	0.00e+00	0	43	0	1648361472	14	4461
2026-01-28 01:51:07.49	253.73	16.86	-27.1	-28.7	15.3	2.21e-03	0	43	0	1657798656	14	4366
2026-01-28 01:51:10.50	253.33	16.58	-26.8	-28.7	15.6	0.00e+00	0	43	0	1667235840	13	4456
2026-01-28 01:51:13.52	252.95	16.30	-26.8	-28.7	15.5	0.00e+00	0	43	0	1676673024	13	4470
2026-01-28 01:51:16.54	252.56	16.02	-27.2	-29.0	15.1	8.62e-05	0	43	0	1686110208	14	4453
2026-01-28 01:51:19.56	252.19	15.75	-27.2	-29.5	14.6	7.00e-07	0	43	0	1695547392	14	4649
2026-01-28 01:51:22.57	251.82	15.47	-27.3	-29.3	13.1	7.00e-07	0	43	0	1704984576	14	4544
2026-01-28 01:51:25.59	251.46	15.20	-27.1	-28.8	15.1	6.59e-03	0	43	0	1714421760	14	4390
2026-01-28 01:51:28.61	251.10	14.93	-26.9	-28.8	15.3	0.00e+00	0	43	0	1723858944	13	4503
2026-01-28 01:51:31.61	250.76	14.66	-27.2	-29.0	14.9	7.14e-03	0	43	0	1733296128	14	4442
2026-01-28 01:51:34.62	250.42	14.40	-27.5	-29.3	14.5	6.60e-03	0	43	0	1742733312	15	4441
2026-01-28 01:51:37.63	250.08	14.14	-27.7	-29.7	14.3	1.21e-04	0	43	0	1752170496	15	4554
2026-01-28 01:51:40.64	249.75	13.87	-27.7	-29.7	14.3	5.11e-03	0	43	0	1761607680	15	4534
2026-01-28 01:51:43.64	249.43	13.61	-27.8	-30.1	14.0	5.45e-03	0	43	0	1771044864	15	4664
2026-01-28 01:51:46.65	249.12	13.36	-27.5	-29.4	14.4	5.86e-03	0	43	0	1780482048	15	4464
2026-01-28 01:51:49.65	248.80	13.10	-27.6	-29.5	14.3	6.47e-03	0	43	0	1789919232	15	4498
2026-01-28 01:51:52.66	248.50	12.85	-27.6	-29.5	14.3	6.97e-03	0	43	0	1799356416	15	4494
2026-01-28 01:51:55.67	248.20	12.59	-27.7	-29.8	14.1	6.25e-03	0	43	0	1808793600	15	4589
2026-01-28 01:51:58.67	247.90	12.34	-27.9	-30.4	13.7	1.06e-05	0	43	0	1818230784	15	4760
2026-01-28 01:52:01.68	247.61	12.09	-28.5	-31.1	13.2	5.02e-03	0	43	0	1827667968	16	4878
2026-01-28 01:52:04.70	247.33	11.85	-28.4	-31.1	13.2	3.28e-05	0	43	0	1837105152	16	4862
2026-01-28 01:52:07.70	247.05	11.60	-28.5	-31.1	13.1	3.16e-03	0	43	0	1846542336	16	4893
2026-01-28 01:52:10.71	246.77	11.36	-28.3	-30.7	13.4	1.90e-05	0	43	0	1854930944	16	4757
2026-01-28 01:52:13.73	246.50	11.11	-28.3	-30.6	13.4	2.05e-05	0	43	0	1864368128	16	4719
2026-01-28 01:52:16.74	246.23	10.87	-27.9	-30.4	13.6	6.80e-06	0	43	0	1873805312	15	4784
2026-01-28 01:52:19.75	245.97	10.63	-28.2	-30.5	13.4	9.10e-06	0	43	0	1883242496	16	4689
2026-01-28 01:52:22.76	245.71	10.40	-28.4	-30.9	13.2	2.59e-05	0	43	0	1892679680	16	4824
2026-01-28 01:52:25.77	245.46	10.16	-28.5	-31.2	13.0	3.12e-05	0	43	0	1902116864	16	4912
2026-01-28 01:52:28.78	245.21	9.93	-28.7	-31.3	12.5	1.16e-04	0	43	0	1911554048	17	4854
2026-01-28 01:52:31.80	244.96	9.70	-28.8	-31.4	12.5	1.34e-04	0	43	0	1920991232	17	4892
2026-01-28 01:52:34.81	244.72	9.47	-28.8	-31.5	12.4	1.40e-04	0	43	0	1930428416	17	4932
2026-01-28 01:52:37.82	244.48	9.24	-28.7	-31.3	12.5	1.27e-04	0	43	0	1939865600	17	4862
2026-01-28 01:52:40.82	244.25	9.01	-28.7	-31.4	12.4	1.33e-04	0	43	0	1949302784	17	4884
2026-01-28 01:52:43.83	244.02	8.79	-28.4	-30.9	13.0	4.19e-05	0	43	0	1958739968	16	4843
2026-01-28 01:52:46.84	243.79	8.56	-28.6	-31.1	12.5	9.53e-05	0	43	0	1968177152	17	4783
2026-01-28 01:52:49.85	243.57	8.34	-28.5	-30.8	12.7	8.01e-05	0	43	0	1977614336	17	4691
2026-01-28 01:52:52.87	243.35	8.12	-28.7	-31.4	12.2	1.36e-04	0	43	0	1987051520	17	4907
2026-01-28 01:52:55.88	243.13	7.90	-28.5	-30.9	12.6	9.07e-05	0	43	0	1996488704	17	4746
2026-01-28 01:52:58.89	242.92	7.68	-28.5	-31.0	12.5	1.25e-04	0	43	0	2005925888	17	4772
2026-01-28 01:53:01.90	242.71	7.47	-28.7	-31.5	12.1	2.22e-04	0	43	0	2015363072	17	4937
2026-01-28 01:53:04.91	242.51	7.25	-28.0	-31.1	11.7	3.82e-04	0	43	0	2024800256	17	5143
2026-01-28 01:53:07.92	242.30	7.04	-32.8	-44.6	3.8	1.49e+00	0	43	104	2032140288	25	13949

#Closed at: 2026-01-28 01:53:10
#Recorded file [2032 MB]: D:/data/31010_260128_044216.dat