passes_logs/2026/01/28/R2M6_AANII_01/R2M6_AANII_01__20260128_102414_SUOMI_NPP_rec.log

#Pass ID: 20260128_102414_SUOMI NPP
#Satellite: SUOMI NPP
#Configuration: NPP
#almurnet v.1.7.20240730
#Start time: 2026-01-28 10:24:14

#Version: 2.2.20231116
#Station: R2M6_AANII_01
#Location: 30.233357 lon 59.946436 lat
#TLE: 1 37849U 11061A   26027.86188320  .00000172  00000+0  10275-3 0  9990
#TLE: 2 37849  98.7823 329.8005 0002088  41.4184 318.7150 14.19530883738530

#Time	Az	El	Level	Level2	SNR	BER	BlckErr	Temp	State	Recorded	gain1	gain2
2026-01-28 10:24:14.01	160.30	6.99	-31.7	-38.3	4.4	1.42e+00	0	40	0	0	24	7719
2026-01-28 10:24:17.02	160.31	7.23	-31.4	-37.3	6.4	2.06e-01	0	41	0	1048576	23	7099
2026-01-28 10:24:20.04	160.33	7.46	-31.3	-36.3	7.1	1.50e-01	0	41	0	7340032	23	6421
2026-01-28 10:24:23.04	160.34	7.70	-31.0	-35.5	7.7	9.76e-02	0	41	0	12582912	23	5983
2026-01-28 10:24:26.05	160.36	7.94	-30.8	-35.1	8.4	4.71e-02	0	41	0	17825792	22	5865
2026-01-28 10:24:29.07	160.37	8.19	-30.6	-34.4	9.0	4.24e-02	0	41	0	24117248	22	5566
2026-01-28 10:24:32.08	160.39	8.43	-30.6	-34.2	9.2	2.42e-02	0	41	0	29360128	22	5437
2026-01-28 10:24:35.09	160.41	8.68	-30.5	-33.8	9.5	1.23e-02	0	41	0	35651584	22	5262
2026-01-28 10:24:38.10	160.42	8.93	-30.7	-34.4	9.1	1.79e-02	0	41	0	40894464	22	5494
2026-01-28 10:24:41.12	160.44	9.19	-30.8	-34.6	9.0	2.43e-02	0	41	0	46137344	22	5593
2026-01-28 10:24:44.13	160.45	9.44	-30.9	-35.0	8.7	3.04e-02	0	41	0	52428800	22	5781
2026-01-28 10:24:47.12	160.47	9.70	-30.8	-34.7	8.9	2.30e-02	0	41	0	57671680	22	5626
2026-01-28 10:24:50.14	160.49	9.96	-30.8	-34.8	8.9	2.71e-02	0	41	0	63963136	22	5666
2026-01-28 10:24:53.13	160.50	10.22	-30.9	-35.0	8.8	2.89e-02	0	41	0	69206016	22	5781
2026-01-28 10:24:56.14	160.52	10.49	-30.7	-34.4	9.3	2.24e-02	0	42	0	74448896	22	5480
2026-01-28 10:24:59.16	160.54	10.76	-30.8	-34.5	9.2	1.65e-02	0	42	0	80740352	22	5509
2026-01-28 10:25:02.17	160.56	11.03	-31.0	-34.9	9.0	2.14e-02	0	42	0	85983232	22	5660
2026-01-28 10:25:05.19	160.57	11.31	-31.3	-35.5	8.7	2.43e-02	0	42	0	91226112	22	5855
2026-01-28 10:25:08.21	160.59	11.59	-31.5	-35.6	8.4	4.63e-02	0	42	0	97517568	23	5773
2026-01-28 10:25:11.21	160.61	11.87	-31.3	-34.7	9.0	2.63e-02	0	42	0	102760448	23	5346
2026-01-28 10:25:14.22	160.63	12.16	-31.3	-34.7	9.1	2.42e-02	0	42	0	109051904	23	5331
2026-01-28 10:25:17.23	160.64	12.45	-31.4	-35.4	8.5	3.22e-02	0	42	0	114294784	23	5694
2026-01-28 10:25:20.25	160.66	12.74	-31.4	-35.2	8.7	4.02e-02	0	42	0	119537664	23	5604
2026-01-28 10:25:23.27	160.68	13.04	-31.3	-35.0	8.8	2.87e-02	0	42	0	125829120	23	5508
2026-01-28 10:25:26.28	160.70	13.34	-31.2	-34.4	9.4	1.52e-02	0	42	0	131072000	23	5183
2026-01-28 10:25:29.29	160.72	13.64	-31.2	-34.5	9.3	2.09e-02	0	42	0	137363456	23	5248
2026-01-28 10:25:32.31	160.74	13.95	-30.3	-32.1	11.4	1.43e-03	0	42	0	142606336	22	4434
2026-01-28 10:25:35.32	160.76	14.26	-29.8	-31.1	12.4	1.78e-04	0	42	0	147849216	21	4202
2026-01-28 10:25:38.34	160.78	14.57	-29.6	-31.2	12.7	9.91e-05	0	42	0	154140672	20	4316
2026-01-28 10:25:41.34	160.80	14.89	-29.8	-31.4	12.6	9.23e-05	0	42	0	159383552	20	4351
2026-01-28 10:25:44.35	160.82	15.22	-29.9	-31.6	12.6	1.13e-04	0	42	0	164626432	20	4376
2026-01-28 10:25:47.36	160.84	15.54	-30.0	-31.7	12.5	1.04e-04	0	42	0	170917888	20	4417
2026-01-28 10:25:50.36	160.86	15.88	-29.5	-30.4	13.4	2.13e-05	0	42	0	176160768	20	4003
2026-01-28 10:25:53.37	160.88	16.21	-29.4	-30.2	13.6	9.10e-06	0	42	0	182452224	20	3925
2026-01-28 10:25:56.37	160.90	16.55	-29.5	-30.3	13.6	9.10e-06	0	42	0	187695104	20	3964
2026-01-28 10:25:59.39	160.92	16.90	-29.7	-30.8	13.3	1.29e-05	0	43	0	192937984	20	4104
2026-01-28 10:26:02.40	160.94	17.25	-29.7	-30.9	13.3	1.44e-05	0	42	0	199229440	20	4133
2026-01-28 10:26:05.42	160.96	17.61	-29.7	-31.0	13.1	4.50e-05	0	43	0	204472320	20	4171
2026-01-28 10:26:08.43	160.99	17.97	-29.6	-30.6	13.5	1.52e-05	0	43	0	210763776	20	4035
2026-01-28 10:26:11.45	161.01	18.34	-29.4	-30.4	14.0	4.50e-06	0	43	0	216006656	19	4062
2026-01-28 10:26:14.44	161.03	18.71	-29.4	-30.5	14.0	7.00e-07	0	42	0	221249536	19	4081
2026-01-28 10:26:17.45	161.05	19.09	-29.7	-31.2	13.6	3.80e-06	0	42	0	227540992	19	4272
2026-01-28 10:26:20.46	161.08	19.48	-29.4	-30.4	14.1	4.50e-06	0	43	0	232783872	19	4059
2026-01-28 10:26:23.48	161.10	19.87	-29.6	-30.9	13.8	5.30e-06	0	43	0	238026752	19	4202
2026-01-28 10:26:26.48	161.12	20.26	-29.8	-31.4	13.5	1.06e-05	0	43	0	244318208	19	4361
2026-01-28 10:26:29.49	161.15	20.67	-29.2	-30.0	14.3	7.00e-07	0	43	0	249561088	19	3942
2026-01-28 10:26:32.50	161.17	21.08	-29.2	-29.9	14.4	7.00e-07	0	43	0	255852544	19	3920
2026-01-28 10:26:35.51	161.20	21.49	-29.4	-30.3	14.2	1.50e-06	0	43	0	261095424	19	4024
2026-01-28 10:26:38.52	161.22	21.92	-29.6	-31.0	13.8	6.10e-06	0	43	0	266338304	19	4240
2026-01-28 10:26:41.52	161.25	22.35	-29.7	-31.2	13.7	7.60e-06	0	43	0	272629760	19	4282
2026-01-28 10:26:44.53	161.28	22.78	-29.6	-30.9	13.8	8.30e-06	0	43	0	277872640	19	4206
2026-01-28 10:26:47.54	161.30	23.23	-29.6	-30.9	13.9	3.00e-06	0	43	0	283115520	19	4179
2026-01-28 10:26:50.55	161.33	23.68	-29.7	-31.2	13.8	4.50e-06	0	43	0	289406976	19	4288
2026-01-28 10:26:53.56	161.36	24.15	-30.0	-31.7	13.1	1.37e-05	0	43	0	294649856	20	4341
2026-01-28 10:26:56.58	161.39	24.62	-30.3	-32.5	12.6	8.54e-05	0	43	0	300941312	20	4605
2026-01-28 10:26:59.59	161.42	25.10	-30.3	-32.3	12.7	7.93e-05	0	43	0	306184192	20	4545
2026-01-28 10:27:02.59	161.45	25.58	-30.1	-31.7	13.1	3.35e-05	0	43	0	311427072	20	4362
2026-01-28 10:27:05.60	161.48	26.08	-30.2	-32.0	12.8	9.38e-05	0	43	0	317718528	20	4456
2026-01-28 10:27:08.60	161.51	26.58	-30.3	-32.3	12.8	4.19e-05	0	43	0	322961408	20	4540
2026-01-28 10:27:11.61	161.54	27.10	-30.5	-32.3	12.4	1.13e-04	0	43	0	329252864	21	4443
2026-01-28 10:27:14.62	161.57	27.62	-30.1	-31.2	13.2	8.62e-05	0	43	0	334495744	21	4094
2026-01-28 10:27:17.63	161.61	28.16	-30.1	-31.2	13.2	1.67e-05	0	43	0	339738624	21	4096
2026-01-28 10:27:20.63	161.64	28.70	-30.6	-32.8	12.2	1.16e-04	0	43	0	346030080	21	4588
2026-01-28 10:27:23.64	161.68	29.26	-30.4	-32.1	12.6	1.34e-04	0	43	0	351272960	21	4363
2026-01-28 10:27:26.65	161.71	29.83	-30.5	-32.3	12.5	9.99e-05	0	43	0	356515840	21	4451
2026-01-28 10:27:29.66	161.75	30.41	-30.5	-32.2	12.6	1.22e-04	0	43	0	362807296	21	4392
2026-01-28 10:27:32.67	161.79	31.00	-30.9	-32.8	11.9	6.95e-04	0	43	0	368050176	22	4494
2026-01-28 10:27:35.67	161.83	31.60	-31.0	-33.1	11.7	1.08e-03	0	43	0	374341632	22	4594
2026-01-28 10:27:38.68	161.87	32.22	-31.4	-34.6	10.6	9.43e-04	0	43	0	379584512	22	5177
2026-01-28 10:27:41.69	161.91	32.85	-31.4	-33.8	10.8	3.26e-03	0	43	0	384827392	23	4791
2026-01-28 10:27:44.69	161.95	33.49	-31.4	-33.9	10.8	3.82e-03	0	43	0	391118848	23	4815
2026-01-28 10:27:47.70	161.99	34.15	-30.8	-32.2	12.0	3.70e-04	0	43	0	396361728	23	4215
2026-01-28 10:27:50.71	162.04	34.82	-30.7	-32.4	12.3	1.55e-04	0	43	0	401604608	22	4360
2026-01-28 10:27:53.71	162.08	35.50	-30.1	-31.1	13.5	7.60e-06	0	43	0	407896064	21	4033
2026-01-28 10:27:56.72	162.13	36.21	-29.9	-30.5	13.8	9.10e-06	0	43	0	413138944	21	3872
2026-01-28 10:27:59.73	162.18	36.92	-29.2	-29.6	15.0	0.00e+00	0	43	0	419430400	19	3804
2026-01-28 10:28:02.74	162.23	37.65	-29.0	-29.3	15.3	0.00e+00	0	43	0	424673280	19	3720
2026-01-28 10:28:05.76	162.29	38.41	-29.0	-29.1	15.4	0.00e+00	0	43	0	429916160	19	3676
2026-01-28 10:28:08.77	162.34	39.17	-28.8	-29.2	15.7	0.00e+00	0	43	0	436207616	18	3774
2026-01-28 10:28:11.78	162.40	39.95	-29.4	-30.4	14.7	0.00e+00	0	43	0	441450496	19	4003
2026-01-28 10:28:14.79	162.46	40.75	-29.4	-30.3	14.6	1.50e-06	0	43	0	447741952	19	3987
2026-01-28 10:28:17.81	162.52	41.58	-29.9	-31.4	14.1	7.00e-07	0	43	0	452984832	19	4305
2026-01-28 10:28:20.81	162.59	42.41	-29.3	-30.1	14.9	0.00e+00	0	43	0	458227712	19	3928
2026-01-28 10:28:23.82	162.66	43.27	-29.5	-30.5	14.6	7.00e-07	0	43	0	464519168	19	4022
2026-01-28 10:28:26.83	162.73	44.15	-29.7	-30.9	14.4	0.00e+00	0	43	0	469762048	19	4152
2026-01-28 10:28:29.84	162.80	45.04	-30.7	-32.6	12.6	3.50e-05	0	43	0	475004928	21	4503
2026-01-28 10:28:32.86	162.88	45.96	-31.1	-33.5	11.6	1.00e-03	0	43	0	481296384	22	4742
2026-01-28 10:28:35.87	162.97	46.90	-31.1	-33.4	11.7	4.03e-04	0	43	0	486539264	22	4702
2026-01-28 10:28:38.88	163.06	47.86	-31.2	-33.8	11.5	6.07e-04	0	43	0	492830720	22	4821
2026-01-28 10:28:41.90	163.15	48.85	-31.2	-33.2	11.5	1.35e-03	0	43	0	498073600	23	4511
2026-01-28 10:28:44.92	163.25	49.85	-31.5	-33.9	10.9	1.52e-03	0	43	0	503316480	23	4797
2026-01-28 10:28:47.93	163.35	50.88	-30.9	-32.3	12.3	4.90e-04	0	43	0	509607936	23	4210
2026-01-28 10:28:50.94	163.46	51.93	-30.3	-31.5	13.3	2.28e-05	0	43	0	514850816	21	4142
2026-01-28 10:28:53.96	163.58	53.01	-29.9	-30.9	14.1	1.50e-06	0	43	0	521142272	20	4049
2026-01-28 10:28:56.96	163.71	54.10	-29.8	-30.8	14.2	2.20e-06	0	43	0	526385152	20	4018
2026-01-28 10:28:59.96	163.84	55.22	-29.8	-30.7	14.2	3.00e-06	0	43	0	531628032	20	3998
2026-01-28 10:29:02.97	163.99	56.36	-28.3	-27.9	16.6	0.00e+00	0	43	0	537919488	18	3459
2026-01-28 10:29:05.99	164.15	57.53	-28.4	-28.8	16.4	0.00e+00	0	43	0	543162368	17	3744
2026-01-28 10:29:09.00	164.32	58.72	-29.7	-30.9	14.6	7.00e-07	0	43	0	548405248	19	4140
2026-01-28 10:29:12.00	164.51	59.94	-28.9	-29.0	15.8	0.00e+00	0	43	0	554696704	19	3613
2026-01-28 10:29:15.00	164.71	61.17	-28.6	-28.6	16.3	0.00e+00	0	43	0	559939584	18	3605
2026-01-28 10:29:18.02	164.94	62.44	-26.9	-26.3	18.2	0.00e+00	0	43	0	566231040	15	3352
2026-01-28 10:29:21.02	165.19	63.72	-27.4	-27.4	17.6	0.00e+00	0	43	0	571473920	15	3597
2026-01-28 10:29:24.02	165.46	65.02	-28.1	-28.6	16.9	0.00e+00	0	43	0	576716800	16	3783
2026-01-28 10:29:27.02	165.77	66.35	-29.3	-30.4	15.3	0.00e+00	0	43	0	583008256	18	4072
2026-01-28 10:29:30.03	166.12	67.70	-29.4	-30.2	15.2	0.00e+00	0	43	0	588251136	19	3914
2026-01-28 10:29:33.04	166.52	69.07	-32.1	-35.3	10.0	5.94e-03	0	43	0	593494016	24	5203
2026-01-28 10:29:36.05	166.98	70.46	-32.0	-35.0	10.2	9.92e-03	0	43	0	599785472	24	5096
2026-01-28 10:29:39.06	167.51	71.87	-31.9	-34.1	10.5	1.14e-02	0	43	0	605028352	25	4651
2026-01-28 10:29:42.08	168.13	73.31	-30.1	-30.8	14.0	3.00e-06	0	43	0	611319808	21	3925
2026-01-28 10:29:45.09	168.88	74.75	-30.5	-32.0	13.4	1.50e-06	0	43	0	616562688	21	4258
2026-01-28 10:29:48.10	169.79	76.21	-31.7	-34.5	11.0	1.41e-03	0	43	0	621805568	23	4940
2026-01-28 10:29:51.10	170.91	77.67	-29.6	-30.1	14.9	2.20e-06	0	43	0	628097024	20	3800
2026-01-28 10:29:54.11	172.35	79.14	-31.2	-32.9	12.1	5.43e-04	0	43	0	633339904	23	4365
2026-01-28 10:29:57.12	174.25	80.62	-30.7	-31.8	13.2	1.33e-04	0	43	0	639631360	22	4083
2026-01-28 10:30:00.13	176.87	82.09	-32.6	-36.3	9.1	1.44e-02	0	43	0	644874240	25	5512
2026-01-28 10:30:03.14	180.69	83.55	-31.7	-33.7	11.4	3.22e-03	0	43	0	650117120	24	4531
2026-01-28 10:30:06.16	186.74	84.98	-32.0	-34.5	10.9	2.50e-03	0	43	0	656408576	24	4811
2026-01-28 10:30:09.17	197.32	86.31	-32.2	-35.1	10.6	2.38e-03	0	43	0	661651456	24	5057
2026-01-28 10:30:12.18	217.99	87.38	-33.5	-38.8	6.7	2.15e-01	0	43	0	666894336	27	6621
2026-01-28 10:30:15.19	254.32	87.80	-32.6	-35.4	9.8	7.88e-03	0	43	0	673185792	26	4985
2026-01-28 10:30:18.19	288.27	87.24	-30.8	-31.5	13.4	1.09e-04	0	43	0	678428672	23	3895
2026-01-28 10:30:21.19	306.63	86.10	-31.3	-32.8	12.5	1.36e-03	0	43	0	684720128	23	4308
2026-01-28 10:30:24.20	316.20	84.75	-30.9	-31.9	13.0	1.92e-04	0	43	0	689963008	23	4027
2026-01-28 10:30:27.22	321.78	83.32	-31.2	-33.2	12.3	1.19e-04	0	43	0	695205888	22	4558
2026-01-28 10:30:30.23	325.35	81.86	-31.6	-34.1	11.3	9.97e-04	0	43	0	701497344	23	4769
2026-01-28 10:30:33.25	327.84	80.38	-31.4	-33.5	11.8	1.91e-04	0	43	0	706740224	23	4547
2026-01-28 10:30:36.25	329.64	78.91	-32.6	-36.6	8.8	1.86e-02	0	43	0	711983104	25	5695
2026-01-28 10:30:39.27	331.02	77.43	-32.7	-37.1	8.3	3.80e-02	0	43	0	718274560	25	5959
2026-01-28 10:30:42.27	332.11	75.97	-31.1	-32.6	12.3	9.65e-04	0	43	0	723517440	23	4288
2026-01-28 10:30:45.29	332.99	74.52	-32.5	-36.2	8.9	1.73e-02	0	43	0	729808896	25	5550
2026-01-28 10:30:48.30	333.71	73.08	-31.6	-34.1	11.3	4.61e-04	0	43	0	735051776	23	4804
2026-01-28 10:30:51.31	334.32	71.66	-31.4	-33.2	11.4	2.64e-03	0	43	0	740294656	24	4404
2026-01-28 10:30:54.32	334.84	70.25	-32.0	-34.8	9.9	3.13e-02	0	43	0	746586112	25	4919
2026-01-28 10:30:57.32	335.28	68.87	-30.5	-31.5	13.3	7.78e-05	0	43	0	751828992	22	4041
2026-01-28 10:31:00.32	335.67	67.51	-31.6	-34.3	11.0	1.89e-03	0	43	0	758120448	23	4926
2026-01-28 10:31:03.34	336.01	66.16	-31.4	-33.2	11.3	3.81e-03	0	43	0	763363328	24	4411
2026-01-28 10:31:06.36	336.32	64.83	-30.6	-32.0	12.7	2.19e-04	0	43	0	768606208	22	4187
2026-01-28 10:31:09.36	336.59	63.54	-31.2	-33.4	11.9	1.31e-04	0	43	0	774897664	22	4675
2026-01-28 10:31:12.36	336.83	62.26	-29.3	-29.9	15.1	0.00e+00	0	43	0	780140544	19	3845
2026-01-28 10:31:15.37	337.06	61.01	-30.9	-33.1	12.4	1.29e-05	0	43	0	785383424	21	4637
2026-01-28 10:31:18.38	337.26	59.78	-30.1	-30.8	13.8	2.38e-04	0	43	0	791674880	21	3939
2026-01-28 10:31:21.40	337.44	58.56	-29.9	-30.8	14.1	3.00e-06	0	43	0	796917760	20	4024
2026-01-28 10:31:24.41	337.61	57.38	-30.8	-32.3	12.6	2.70e-04	0	43	0	803209216	22	4296
2026-01-28 10:31:27.41	337.77	56.22	-29.7	-30.9	14.4	0.00e+00	0	43	0	808452096	19	4148
2026-01-28 10:31:30.42	337.92	55.09	-29.6	-30.2	14.5	2.20e-06	0	43	0	813694976	20	3859
2026-01-28 10:31:33.42	338.05	53.98	-31.1	-33.3	11.9	4.64e-04	0	43	0	819986432	22	4641
2026-01-28 10:31:36.42	338.18	52.89	-30.6	-32.5	12.8	9.10e-06	0	43	0	825229312	21	4445
2026-01-28 10:31:39.44	338.29	51.82	-31.9	-35.3	9.9	7.65e-03	0	43	0	830472192	23	5363
2026-01-28 10:31:42.45	338.40	50.78	-31.8	-34.7	10.0	7.79e-03	0	43	0	836763648	24	5006
2026-01-28 10:31:45.46	338.51	49.76	-30.2	-31.2	13.5	1.29e-05	0	44	0	842006528	21	4048
2026-01-28 10:31:48.47	338.61	48.77	-31.6	-34.6	10.4	1.11e-03	0	43	0	848297984	23	5082
2026-01-28 10:31:51.49	338.70	47.79	-30.7	-32.3	12.3	2.12e-03	0	43	0	853540864	22	4317
2026-01-28 10:31:54.50	338.79	46.84	-29.1	-29.5	15.2	0.00e+00	0	43	0	858783744	19	3772
2026-01-28 10:31:57.50	338.87	45.91	-30.2	-31.7	13.4	7.60e-06	0	43	0	865075200	20	4319
2026-01-28 10:32:00.50	338.95	45.00	-30.4	-32.0	12.8	6.71e-05	0	43	0	870318080	21	4316
2026-01-28 10:32:03.51	339.02	44.11	-29.3	-29.9	14.9	1.50e-06	0	43	0	876609536	19	3868
2026-01-28 10:32:06.51	339.10	43.24	-28.8	-29.1	15.6	0.00e+00	0	43	0	881852416	18	3749
2026-01-28 10:32:09.53	339.17	42.39	-30.3	-32.2	13.0	6.10e-06	0	43	0	887095296	20	4473
2026-01-28 10:32:12.54	339.23	41.55	-31.3	-33.5	11.1	1.27e-03	0	43	0	893386752	23	4671
2026-01-28 10:32:15.55	339.30	40.74	-31.0	-32.5	11.9	8.25e-04	0	43	0	898629632	23	4316
2026-01-28 10:32:18.55	339.36	39.95	-30.9	-32.5	11.8	8.19e-04	0	43	0	903872512	23	4298
2026-01-28 10:32:21.56	339.41	39.17	-31.8	-35.2	9.8	9.84e-03	0	43	0	910163968	23	5351
2026-01-28 10:32:24.57	339.47	38.41	-32.9	-39.6	5.8	3.62e-01	0	43	0	915406848	25	7726
2026-01-28 10:32:27.58	339.53	37.67	-32.2	-36.2	8.1	1.96e-01	0	43	0	921698304	25	5685
2026-01-28 10:32:30.59	339.58	36.94	-31.8	-34.9	9.7	8.16e-03	0	43	0	926941184	24	5155
2026-01-28 10:32:33.59	339.63	36.23	-31.6	-34.0	10.3	9.00e-03	0	43	0	932184064	24	4766
2026-01-28 10:32:36.59	339.68	35.54	-31.3	-33.7	10.9	2.49e-03	0	43	0	938475520	23	4728
2026-01-28 10:32:39.60	339.72	34.85	-32.3	-36.8	8.1	1.89e-02	0	43	0	943718400	24	6084
2026-01-28 10:32:42.61	339.77	34.19	-32.7	-38.4	6.5	2.57e-01	0	43	0	948961280	25	6962
2026-01-28 10:32:45.62	339.82	33.54	-32.6	-38.0	6.8	1.85e-01	0	43	0	955252736	25	6709
2026-01-28 10:32:48.62	339.86	32.90	-32.3	-36.5	8.0	9.40e-02	0	43	0	960495616	25	5814
2026-01-28 10:32:51.64	339.90	32.27	-31.7	-34.6	9.9	1.07e-02	0	43	0	966787072	24	5004
2026-01-28 10:32:54.65	339.94	31.66	-31.1	-32.9	11.4	3.07e-03	0	43	0	972029952	23	4453
2026-01-28 10:32:57.66	339.98	31.06	-31.2	-33.2	11.2	8.22e-04	0	43	0	977272832	23	4568
2026-01-28 10:33:00.68	340.02	30.47	-32.0	-36.0	9.1	1.72e-02	0	43	0	983564288	23	5728
2026-01-28 10:33:03.69	340.06	29.89	-32.5	-37.7	7.0	1.99e-01	0	43	0	988807168	25	6483
2026-01-28 10:33:06.71	340.10	29.32	-32.1	-35.9	8.4	3.91e-02	0	43	0	994050048	25	5534
2026-01-28 10:33:09.72	340.13	28.77	-31.1	-33.2	11.1	2.70e-03	0	43	0	1000341504	23	4571
2026-01-28 10:33:12.74	340.17	28.23	-30.7	-32.4	12.1	2.70e-04	0	43	0	1005584384	22	4376
2026-01-28 10:33:15.76	340.20	27.69	-30.3	-31.9	12.8	7.70e-05	0	43	0	1011875840	21	4289
2026-01-28 10:33:18.78	340.24	27.17	-30.0	-30.8	13.4	1.22e-05	0	43	0	1017118720	21	3969
2026-01-28 10:33:21.79	340.27	26.65	-29.8	-30.8	13.8	1.14e-05	0	43	0	1022361600	20	4047
2026-01-28 10:33:24.79	340.30	26.15	-29.6	-30.4	14.0	6.80e-06	0	43	0	1028653056	20	3935
2026-01-28 10:33:27.79	340.34	25.66	-29.0	-29.2	15.1	0.00e+00	0	43	0	1033895936	19	3709
2026-01-28 10:33:30.80	340.37	25.18	-29.2	-30.0	14.6	0.00e+00	0	43	0	1040187392	19	3912
2026-01-28 10:33:33.81	340.40	24.70	-29.5	-30.7	14.1	3.00e-06	0	43	0	1045430272	19	4123
2026-01-28 10:33:36.83	340.43	24.23	-29.7	-31.1	13.7	3.80e-06	0	43	0	1050673152	19	4254
2026-01-28 10:33:39.83	340.46	23.78	-29.3	-30.1	14.4	1.50e-06	0	43	0	1056964608	19	3945
2026-01-28 10:33:42.84	340.49	23.32	-29.0	-29.3	14.8	0.00e+00	0	43	0	1062207488	19	3748
2026-01-28 10:33:45.84	340.52	22.88	-28.7	-29.1	15.3	0.00e+00	0	43	0	1067450368	18	3777
2026-01-28 10:33:48.85	340.54	22.45	-28.8	-29.4	15.0	0.00e+00	0	43	0	1073741824	18	3850
2026-01-28 10:33:51.86	340.57	22.02	-28.9	-29.6	15.0	7.00e-07	0	43	0	1078984704	18	3906
2026-01-28 10:33:54.87	340.60	21.60	-29.0	-29.7	14.9	0.00e+00	0	43	0	1085276160	18	3943
2026-01-28 10:33:57.89	340.63	21.18	-29.0	-29.9	14.8	7.00e-07	0	43	0	1090519040	18	3986
2026-01-28 10:34:00.90	340.65	20.77	-29.4	-30.8	14.2	0.00e+00	0	43	0	1095761920	18	4262
2026-01-28 10:34:03.90	340.68	20.37	-29.6	-31.0	13.8	3.00e-06	0	43	0	1102053376	19	4221
2026-01-28 10:34:06.91	340.70	19.98	-29.8	-31.6	13.4	9.90e-06	0	43	0	1107296256	19	4411
2026-01-28 10:34:09.92	340.73	19.59	-29.7	-31.2	13.7	6.80e-06	0	43	0	1113587712	19	4268
2026-01-28 10:34:12.93	340.76	19.21	-29.6	-30.8	13.9	4.50e-06	0	43	0	1118830592	19	4168
2026-01-28 10:34:15.93	340.78	18.83	-29.4	-30.4	14.2	7.60e-06	0	43	0	1124073472	19	4031
2026-01-28 10:34:18.93	340.80	18.46	-29.1	-29.8	14.5	0.00e+00	0	43	0	1130364928	19	3872
2026-01-28 10:34:21.94	340.83	18.10	-29.2	-30.0	14.3	2.20e-06	0	43	0	1135607808	19	3942
2026-01-28 10:34:24.96	340.85	17.74	-29.3	-30.3	14.1	6.10e-06	0	43	0	1140850688	19	4019
2026-01-28 10:34:27.97	340.88	17.38	-29.4	-30.6	13.9	1.50e-06	0	43	0	1147142144	19	4101
2026-01-28 10:34:30.98	340.90	17.03	-29.5	-30.8	13.7	4.50e-06	0	43	0	1152385024	19	4176
2026-01-28 10:34:33.99	340.92	16.69	-29.3	-30.3	14.1	1.50e-06	0	43	0	1158676480	19	4020
2026-01-28 10:34:37.00	340.95	16.35	-29.4	-30.4	13.9	2.20e-06	0	43	0	1163919360	19	4065
2026-01-28 10:34:40.02	340.97	16.01	-29.4	-30.6	13.9	3.80e-06	0	43	0	1169162240	19	4100
2026-01-28 10:34:43.04	340.99	15.68	-29.6	-30.9	13.6	5.30e-06	0	43	0	1175453696	19	4215
2026-01-28 10:34:46.04	341.01	15.35	-29.5	-30.9	13.6	1.37e-05	0	43	0	1180696576	19	4209
2026-01-28 10:34:49.04	341.04	15.03	-29.9	-31.5	12.8	4.95e-05	0	43	0	1185939456	20	4319
2026-01-28 10:34:52.05	341.06	14.71	-30.0	-31.6	12.7	6.33e-05	0	43	0	1192230912	20	4360
2026-01-28 10:34:55.05	341.08	14.40	-30.0	-31.7	12.7	7.70e-05	0	43	0	1197473792	20	4381
2026-01-28 10:34:58.06	341.10	14.09	-30.0	-31.6	12.6	6.25e-05	0	43	0	1203765248	20	4362
2026-01-28 10:35:01.07	341.12	13.78	-29.8	-31.2	12.9	6.56e-05	0	43	0	1209008128	20	4240
2026-01-28 10:35:04.07	341.14	13.48	-29.7	-30.9	13.1	3.96e-05	0	43	0	1214251008	20	4135
2026-01-28 10:35:07.08	341.17	13.19	-29.7	-30.9	13.1	3.43e-05	0	43	0	1220542464	20	4148
2026-01-28 10:35:10.09	341.19	12.89	-29.6	-30.8	13.1	2.51e-05	0	43	0	1225785344	20	4103
2026-01-28 10:35:13.10	341.21	12.60	-29.7	-31.0	13.0	2.89e-05	0	43	0	1231028224	20	4158
2026-01-28 10:35:16.12	341.23	12.31	-29.6	-30.7	13.2	2.05e-05	0	43	0	1237319680	20	4071
2026-01-28 10:35:19.13	341.25	12.03	-29.7	-31.0	12.9	3.66e-05	0	43	0	1242562560	20	4167
2026-01-28 10:35:22.13	341.27	11.75	-29.5	-30.5	13.2	2.28e-05	0	43	0	1248854016	20	4031
2026-01-28 10:35:25.14	341.29	11.47	-29.6	-30.6	13.2	2.97e-05	0	43	0	1254096896	20	4064
2026-01-28 10:35:28.14	341.31	11.19	-29.5	-30.5	13.2	3.12e-05	0	43	0	1259339776	20	4037
2026-01-28 10:35:31.15	341.33	10.92	-29.5	-30.6	13.2	1.75e-05	0	43	0	1265631232	20	4050
2026-01-28 10:35:34.17	341.35	10.65	-29.7	-31.1	12.8	5.72e-05	0	43	0	1270874112	20	4209
2026-01-28 10:35:37.18	341.37	10.39	-29.7	-31.1	12.8	7.70e-05	0	43	0	1277165568	20	4232
2026-01-28 10:35:40.20	341.39	10.12	-29.8	-31.3	12.6	1.20e-04	0	43	0	1282408448	20	4298
2026-01-28 10:35:43.20	341.41	9.86	-29.8	-31.3	12.6	1.13e-04	0	43	0	1287651328	20	4279
2026-01-28 10:35:46.22	341.43	9.61	-30.0	-32.0	12.1	1.99e-04	0	43	0	1293942784	20	4530
2026-01-28 10:35:49.22	341.44	9.35	-29.8	-31.3	12.5	9.07e-05	0	43	0	1299185664	20	4290
2026-01-28 10:35:52.24	341.46	9.10	-29.8	-31.4	12.4	1.20e-04	0	43	0	1304428544	20	4324
2026-01-28 10:35:55.25	341.48	8.85	-29.8	-31.6	12.2	1.38e-04	0	43	0	1310720000	20	4404
2026-01-28 10:35:58.27	341.50	8.60	-29.7	-31.2	12.6	1.12e-04	0	43	0	1315962880	20	4257
2026-01-28 10:36:01.27	341.52	8.36	-29.8	-31.4	12.3	1.72e-04	0	43	0	1322254336	20	4351
2026-01-28 10:36:04.28	341.54	8.12	-29.7	-31.3	12.4	1.15e-04	0	43	0	1327497216	20	4301
2026-01-28 10:36:07.29	341.56	7.87	-29.7	-31.3	12.4	1.84e-04	0	43	0	1332740096	20	4305
2026-01-28 10:36:10.30	341.58	7.64	-29.8	-31.6	12.1	2.20e-04	0	43	0	1339031552	20	4415
2026-01-28 10:36:13.30	341.59	7.40	-29.9	-31.9	12.0	3.93e-04	0	43	0	1344274432	20	4501
2026-01-28 10:36:16.31	341.61	7.17	-29.8	-31.6	12.1	2.82e-04	0	43	0	1350565888	20	4413

#Closed at: 2026-01-28 10:36:18
#Recorded file [1352 MB]: D:/data/31010_260128_132415.dat