passes_logs/2026/01/28/R2M6_AANII_01/R2M6_AANII_01__20260128_063140_FENGYUN_3E_rec.log

#Pass ID: 20260128_063140_FENGYUN 3E
#Satellite: FENGYUN 3E
#Configuration: FENGYUN 3E
#almurnet v.1.7.20240730
#Start time: 2026-01-28 06:31:41

#Version: 2.2.20231116
#Station: R2M6_AANII_01
#Location: 30.233357 lon 59.946436 lat
#TLE: 1 49008U 21062A   26027.61944472  .00000309  00000+0  16619-3 0  9993
#TLE: 2 49008  98.7500  32.6009 0002501 114.4803 245.6635 14.19888604236631

#Time	Az	El	Level	Level2	SNR	BER	BlckErr	Temp	State	Recorded	gain1	gain2
2026-01-28 06:31:41.70	10.26	7.06	-30.9	-34.3	4.9	7.97e-01	0	40	0	0	21	5371
2026-01-28 06:31:44.71	9.99	7.25	-30.1	-32.4	9.0	2.20e-02	0	41	0	7340032	20	4711
2026-01-28 06:31:47.72	9.71	7.44	-29.6	-31.6	9.9	1.39e-02	0	41	0	28311552	19	4545
2026-01-28 06:31:50.74	9.43	7.64	-28.2	-29.7	12.1	4.24e-04	0	41	0	50331648	16	4269
2026-01-28 06:31:53.75	9.15	7.83	-28.3	-29.9	12.1	2.32e-04	0	41	0	72351744	16	4306
2026-01-28 06:31:56.77	8.86	8.03	-28.1	-29.4	12.3	1.98e-04	0	41	0	94371840	16	4187
2026-01-28 06:31:59.77	8.57	8.23	-27.7	-29.0	12.8	7.43e-05	0	41	0	115343360	15	4173
2026-01-28 06:32:02.79	8.27	8.43	-27.2	-28.4	13.5	1.48e-05	0	41	0	137363456	14	4116
2026-01-28 06:32:05.80	7.97	8.62	-27.4	-28.9	13.2	2.05e-05	0	41	0	159383552	14	4234
2026-01-28 06:32:08.81	7.66	8.82	-27.6	-29.2	13.0	3.08e-05	0	41	0	181403648	14	4324
2026-01-28 06:32:11.82	7.35	9.03	-27.4	-28.6	13.3	1.71e-05	0	41	0	202375168	14	4174
2026-01-28 06:32:14.83	7.04	9.23	-27.7	-28.9	12.9	2.97e-05	0	42	0	224395264	15	4146
2026-01-28 06:32:17.84	6.72	9.43	-27.1	-28.1	13.7	4.50e-06	0	42	0	246415360	14	4019
2026-01-28 06:32:20.86	6.40	9.63	-27.6	-28.8	13.0	4.34e-05	0	42	0	268435456	15	4115
2026-01-28 06:32:23.88	6.07	9.84	-27.5	-28.6	13.2	1.83e-05	0	42	0	289406976	15	4046
2026-01-28 06:32:26.88	5.74	10.04	-27.7	-28.9	12.9	3.89e-05	0	42	0	311427072	15	4150
2026-01-28 06:32:29.89	5.40	10.24	-26.9	-27.7	14.0	1.10e-06	0	42	0	333447168	14	3917
2026-01-28 06:32:32.89	5.06	10.45	-26.7	-27.6	14.4	1.10e-06	0	42	0	354418688	13	3990
2026-01-28 06:32:35.90	4.71	10.66	-26.6	-27.9	13.3	0.00e+00	0	42	0	376438784	12	4172
2026-01-28 06:32:38.91	4.36	10.86	-26.7	-27.6	14.4	0.00e+00	0	42	0	398458880	13	3992
2026-01-28 06:32:41.91	4.00	11.07	-26.9	-28.1	14.0	0.00e+00	0	42	0	420478976	13	4139
2026-01-28 06:32:44.93	3.64	11.28	-26.6	-27.5	14.5	0.00e+00	0	42	0	441450496	13	3962
2026-01-28 06:32:47.94	3.27	11.49	-26.6	-27.4	14.5	0.00e+00	0	42	0	463470592	13	3956
2026-01-28 06:32:50.96	2.90	11.70	-26.5	-27.7	14.6	2.00e-03	0	42	0	485490688	12	4122
2026-01-28 06:32:53.97	2.52	11.91	-26.5	-27.8	14.6	1.71e-03	0	42	0	506462208	12	4152
2026-01-28 06:32:56.98	2.13	12.12	-26.6	-27.4	14.5	0.00e+00	0	42	0	528482304	13	3959
2026-01-28 06:32:59.99	1.74	12.33	-26.4	-27.5	14.8	1.83e-03	0	42	0	550502400	12	4083
2026-01-28 06:33:02.99	1.35	12.54	-26.3	-27.3	14.9	1.71e-03	0	42	0	571473920	12	4029
2026-01-28 06:33:06.01	0.94	12.76	-26.3	-27.3	14.9	1.88e-03	0	43	0	593494016	12	4026
2026-01-28 06:33:09.03	0.53	12.97	-26.4	-27.4	14.9	1.74e-03	0	42	0	615514112	12	4053
2026-01-28 06:33:12.05	0.12	13.18	-26.3	-27.3	15.0	1.10e-06	0	42	0	637534208	12	4018
2026-01-28 06:33:15.06	359.70	13.40	-26.2	-27.0	15.1	0.00e+00	0	42	0	659554304	12	3936
2026-01-28 06:33:18.06	359.27	13.61	-26.2	-26.9	15.2	1.76e-03	0	42	0	680525824	12	3933
2026-01-28 06:33:21.06	358.84	13.82	-26.3	-27.3	15.0	0.00e+00	0	42	0	702545920	12	4029
2026-01-28 06:33:24.07	358.40	14.04	-26.6	-27.8	14.7	1.10e-06	0	43	0	724566016	12	4143
2026-01-28 06:33:27.07	357.96	14.25	-26.4	-27.4	14.9	0.00e+00	0	43	0	745537536	12	4060
2026-01-28 06:33:30.09	357.50	14.47	-26.3	-27.1	15.1	0.00e+00	0	42	0	767557632	12	3977
2026-01-28 06:33:33.09	357.04	14.68	-26.0	-26.5	15.5	0.00e+00	0	43	0	789577728	12	3816
2026-01-28 06:33:36.11	356.58	14.90	-26.0	-27.0	15.5	0.00e+00	0	43	0	811597824	11	4045
2026-01-28 06:33:39.12	356.10	15.11	-25.9	-26.8	15.6	0.00e+00	0	43	0	832569344	11	4000
2026-01-28 06:33:42.14	355.62	15.33	-26.0	-27.1	15.5	0.00e+00	0	43	0	854589440	11	4065
2026-01-28 06:33:45.14	355.13	15.54	-25.7	-26.4	15.9	0.00e+00	0	43	0	876609536	11	3902
2026-01-28 06:33:48.16	354.64	15.75	-25.6	-26.1	16.1	0.00e+00	0	43	0	898629632	11	3821
2026-01-28 06:33:51.17	354.14	15.97	-25.6	-26.1	16.1	0.00e+00	0	43	0	919601152	11	3817
2026-01-28 06:33:54.18	353.63	16.18	-25.6	-26.1	16.1	0.00e+00	0	43	0	941621248	11	3831
2026-01-28 06:33:57.19	353.11	16.39	-25.6	-26.1	16.1	0.00e+00	0	43	0	963641344	11	3832
2026-01-28 06:34:00.21	352.58	16.61	-25.7	-26.3	16.0	0.00e+00	0	43	0	985661440	11	3884
2026-01-28 06:34:03.21	352.05	16.82	-25.7	-26.3	16.0	0.00e+00	0	43	0	1006632960	11	3883
2026-01-28 06:34:06.22	351.51	17.03	-25.4	-25.7	16.3	0.00e+00	0	43	0	1028653056	11	3739
2026-01-28 06:34:09.23	350.97	17.24	-25.3	-25.9	16.5	0.00e+00	0	43	0	1050673152	10	3892
2026-01-28 06:34:12.24	350.41	17.45	-25.1	-25.6	16.7	0.00e+00	0	43	0	1071644672	10	3819
2026-01-28 06:34:15.26	349.85	17.66	-24.9	-25.7	16.9	0.00e+00	0	43	0	1093664768	9	3947
2026-01-28 06:34:18.28	349.27	17.86	-25.0	-25.8	16.8	0.00e+00	0	43	0	1115684864	9	3965
2026-01-28 06:34:21.29	348.70	18.07	-25.3	-26.0	16.5	0.00e+00	0	43	0	1136656384	10	3905
2026-01-28 06:34:24.31	348.11	18.27	-25.3	-26.1	16.4	0.00e+00	0	43	0	1158676480	10	3935
2026-01-28 06:34:27.33	347.51	18.48	-25.2	-25.9	16.5	0.00e+00	0	43	0	1180696576	10	3883
2026-01-28 06:34:30.33	346.91	18.68	-25.0	-25.3	16.9	0.00e+00	0	43	0	1202716672	10	3731
2026-01-28 06:34:33.35	346.29	18.88	-24.8	-24.9	17.1	0.00e+00	0	43	0	1223688192	10	3644
2026-01-28 06:34:36.35	345.68	19.07	-24.8	-25.4	17.0	0.00e+00	0	43	0	1245708288	9	3878
2026-01-28 06:34:39.37	345.05	19.27	-24.9	-25.7	16.9	0.00e+00	0	43	0	1267728384	9	3952
2026-01-28 06:34:42.38	344.41	19.46	-25.0	-25.8	16.8	0.00e+00	0	43	0	1289748480	9	3970
2026-01-28 06:34:45.37	343.77	19.65	-25.0	-26.0	16.8	0.00e+00	0	43	0	1310720000	9	4008
2026-01-28 06:34:48.38	343.12	19.84	-25.0	-25.3	16.9	0.00e+00	0	43	0	1332740096	10	3734
2026-01-28 06:34:51.38	342.46	20.03	-24.8	-25.0	17.1	0.00e+00	0	43	0	1354760192	10	3673
2026-01-28 06:34:54.39	341.79	20.21	-24.6	-24.9	17.3	0.00e+00	0	43	0	1375731712	9	3752
2026-01-28 06:34:57.40	341.12	20.39	-24.6	-25.1	17.3	0.00e+00	0	43	0	1397751808	9	3788
2026-01-28 06:35:00.39	340.44	20.57	-24.5	-25.3	17.4	0.00e+00	0	43	0	1419771904	8	3939
2026-01-28 06:35:03.39	339.75	20.74	-24.6	-25.1	17.3	0.00e+00	0	43	0	1440743424	9	3786
2026-01-28 06:35:06.40	339.05	20.92	-24.5	-24.9	17.4	0.00e+00	0	43	0	1462763520	9	3747
2026-01-28 06:35:09.41	338.34	21.08	-24.6	-25.0	17.3	0.00e+00	0	43	0	1484783616	9	3776
2026-01-28 06:35:12.42	337.62	21.25	-24.4	-25.0	17.6	0.00e+00	0	43	0	1506803712	8	3886
2026-01-28 06:35:15.42	336.90	21.41	-24.2	-24.8	17.7	0.00e+00	0	43	0	1527775232	8	3822
2026-01-28 06:35:18.43	336.17	21.57	-24.3	-24.9	17.6	0.00e+00	0	43	0	1549795328	8	3859
2026-01-28 06:35:21.45	335.43	21.72	-24.2	-24.7	17.8	0.00e+00	0	43	0	1571815424	8	3811
2026-01-28 06:35:24.46	334.68	21.87	-24.3	-24.8	17.7	0.00e+00	0	43	0	1593835520	8	3829
2026-01-28 06:35:27.47	333.93	22.01	-24.2	-24.7	17.8	0.00e+00	0	43	0	1614807040	8	3804
2026-01-28 06:35:30.48	333.17	22.15	-24.3	-24.9	17.7	0.00e+00	0	43	0	1636827136	8	3854
2026-01-28 06:35:33.49	332.40	22.29	-24.3	-24.9	17.7	0.00e+00	0	43	0	1658847232	8	3849
2026-01-28 06:35:36.50	331.63	22.42	-24.1	-24.4	17.9	0.00e+00	0	43	0	1679818752	8	3741
2026-01-28 06:35:39.50	330.85	22.54	-23.9	-24.0	18.1	0.00e+00	0	43	0	1701838848	8	3652
2026-01-28 06:35:42.51	330.06	22.66	-24.1	-24.4	17.9	0.00e+00	0	43	0	1723858944	8	3736
2026-01-28 06:35:45.53	329.27	22.77	-24.2	-24.7	17.8	0.00e+00	0	43	0	1744830464	8	3816
2026-01-28 06:35:48.54	328.47	22.88	-24.3	-24.9	17.7	0.00e+00	0	43	0	1766850560	8	3861
2026-01-28 06:35:51.56	327.66	22.99	-24.1	-24.5	17.9	0.00e+00	0	43	0	1788870656	8	3754
2026-01-28 06:35:54.58	326.85	23.09	-24.1	-24.4	17.9	0.00e+00	0	43	0	1810890752	8	3744
2026-01-28 06:35:57.59	326.04	23.18	-23.9	-24.5	18.1	0.00e+00	0	43	0	1831862272	7	3870
2026-01-28 06:36:00.60	325.22	23.26	-24.0	-24.8	17.9	0.00e+00	0	43	0	1853882368	7	3937
2026-01-28 06:36:03.60	324.40	23.34	-24.2	-24.6	17.8	0.00e+00	0	43	0	1875902464	8	3790
2026-01-28 06:36:06.61	323.57	23.42	-24.3	-25.0	14.6	0.00e+00	0	43	0	1897922560	8	3872
2026-01-28 06:36:09.62	322.74	23.48	-24.6	-25.1	17.3	0.00e+00	0	43	0	1918894080	9	3798
2026-01-28 06:36:12.64	321.90	23.55	-24.6	-25.1	17.3	0.00e+00	0	43	0	1940914176	9	3788
2026-01-28 06:36:15.65	321.06	23.60	-24.5	-25.2	17.5	1.42e-03	0	43	0	1962934272	8	3935
2026-01-28 06:36:18.67	320.22	23.65	-24.4	-25.1	17.5	1.22e-03	0	43	0	1984954368	8	3905
2026-01-28 06:36:21.67	319.38	23.69	-24.0	-24.8	17.9	0.00e+00	0	43	0	2005925888	7	3941
2026-01-28 06:36:24.68	318.53	23.72	-23.8	-24.4	18.1	0.00e+00	0	43	0	2027945984	7	3854
2026-01-28 06:36:27.68	317.69	23.75	-23.8	-24.4	18.1	1.54e-03	0	43	0	2049966080	7	3843
2026-01-28 06:36:30.70	316.83	23.77	-24.0	-24.7	18.0	1.57e-03	0	43	0	2071986176	7	3906
2026-01-28 06:36:33.71	315.98	23.79	-24.0	-24.7	18.0	1.68e-03	0	43	0	2092957696	7	3910
2026-01-28 06:36:36.73	315.13	23.80	-24.1	-24.5	17.8	0.00e+00	0	43	0	2114977792	8	3764
2026-01-28 06:36:39.74	314.28	23.80	-23.8	-24.3	18.1	0.00e+00	0	43	0	2136997888	7	3828
2026-01-28 06:36:42.76	313.43	23.79	-23.8	-24.4	18.1	1.79e-03	0	43	0	2159017984	7	3850
2026-01-28 06:36:45.77	312.58	23.78	-23.9	-24.5	18.0	1.58e-03	0	43	0	2179989504	7	3856
2026-01-28 06:36:48.78	311.73	23.76	-24.1	-24.6	17.8	0.00e+00	0	43	0	2202009600	8	3784
2026-01-28 06:36:51.79	310.88	23.73	-24.1	-24.4	17.8	0.00e+00	0	43	0	2224029696	8	3747
2026-01-28 06:36:54.80	310.03	23.70	-24.0	-24.2	17.9	0.00e+00	0	43	0	2246049792	8	3705
2026-01-28 06:36:57.81	309.19	23.66	-23.8	-24.4	18.1	0.00e+00	0	43	0	2267021312	7	3850
2026-01-28 06:37:00.81	308.35	23.61	-23.8	-24.2	18.1	1.10e-06	0	43	0	2289041408	7	3811
2026-01-28 06:37:03.83	307.51	23.56	-23.8	-24.2	18.2	0.00e+00	0	43	0	2311061504	7	3805
2026-01-28 06:37:06.84	306.67	23.50	-23.7	-24.2	18.2	0.00e+00	0	43	0	2332033024	7	3796
2026-01-28 06:37:09.84	305.84	23.43	-23.8	-24.4	18.0	0.00e+00	0	43	0	2354053120	7	3858
2026-01-28 06:37:12.84	305.01	23.36	-23.8	-24.2	18.1	0.00e+00	0	43	0	2375024640	7	3806
2026-01-28 06:37:15.85	304.19	23.28	-23.7	-24.1	18.2	0.00e+00	0	43	0	2397044736	7	3777
2026-01-28 06:37:18.87	303.36	23.20	-23.5	-23.7	18.4	0.00e+00	0	43	0	2419064832	7	3693
2026-01-28 06:37:21.88	302.55	23.11	-23.8	-24.3	18.0	0.00e+00	0	43	0	2441084928	7	3834
2026-01-28 06:37:24.89	301.73	23.01	-23.8	-24.4	18.0	0.00e+00	0	43	0	2462056448	7	3839
2026-01-28 06:37:27.91	300.92	22.91	-23.7	-24.1	18.1	0.00e+00	0	43	0	2484076544	7	3776
2026-01-28 06:37:30.91	300.13	22.80	-23.5	-23.8	18.3	0.00e+00	0	43	0	2506096640	7	3708
2026-01-28 06:37:33.92	299.33	22.69	-23.5	-23.8	18.3	0.00e+00	0	43	0	2528116736	7	3711
2026-01-28 06:37:36.93	298.54	22.57	-23.6	-23.9	18.2	0.00e+00	0	43	0	2549088256	7	3737
2026-01-28 06:37:39.95	297.75	22.44	-23.7	-24.1	18.1	0.00e+00	0	43	0	2571108352	7	3771
2026-01-28 06:37:42.96	296.98	22.32	-23.7	-24.2	18.1	0.00e+00	0	43	0	2593128448	7	3803
2026-01-28 06:37:45.97	296.21	22.18	-23.9	-24.5	17.9	0.00e+00	0	43	0	2615148544	7	3876
2026-01-28 06:37:48.97	295.44	22.04	-23.8	-24.3	18.0	0.00e+00	0	43	0	2636120064	7	3836
2026-01-28 06:37:51.99	294.68	21.90	-23.7	-24.1	18.1	0.00e+00	0	43	0	2658140160	7	3778
2026-01-28 06:37:55.01	293.93	21.75	-23.6	-24.0	18.1	7.68e-04	0	43	0	2680160256	7	3754
2026-01-28 06:37:58.02	293.19	21.60	-23.7	-24.0	18.1	5.89e-04	0	43	0	2702180352	7	3766
2026-01-28 06:38:01.03	292.45	21.44	-24.0	-24.8	17.7	0.00e+00	0	43	0	2723151872	7	3954
2026-01-28 06:38:04.04	291.73	21.28	-24.4	-25.2	17.3	0.00e+00	0	43	0	2745171968	8	3924
2026-01-28 06:38:07.06	291.00	21.12	-24.0	-24.2	17.7	1.02e-04	0	43	0	2767192064	8	3694
2026-01-28 06:38:10.07	290.29	20.95	-23.8	-23.8	17.9	2.40e-05	0	43	0	2789212160	8	3607
2026-01-28 06:38:13.08	289.59	20.78	-23.8	-23.8	17.9	0.00e+00	0	43	0	2810183680	8	3620
2026-01-28 06:38:16.09	288.89	20.60	-24.0	-24.3	17.6	0.00e+00	0	43	0	2832203776	8	3729
2026-01-28 06:38:19.09	288.20	20.43	-24.1	-24.4	17.6	0.00e+00	0	43	0	2854223872	8	3751
2026-01-28 06:38:22.10	287.52	20.25	-24.3	-24.8	17.4	8.87e-04	0	43	0	2876243968	8	3842
2026-01-28 06:38:25.12	286.85	20.06	-24.1	-24.5	17.5	3.74e-04	0	43	0	2897215488	8	3766
2026-01-28 06:38:28.14	286.18	19.88	-24.2	-24.6	17.4	0.00e+00	0	43	0	2919235584	8	3804
2026-01-28 06:38:31.15	285.52	19.69	-24.1	-24.5	17.5	0.00e+00	0	43	0	2941255680	8	3769
2026-01-28 06:38:34.16	284.88	19.50	-24.3	-24.9	17.3	0.00e+00	0	43	0	2963275776	8	3853
2026-01-28 06:38:37.17	284.24	19.30	-24.3	-24.9	17.3	0.00e+00	0	43	0	2984247296	8	3857
2026-01-28 06:38:40.19	283.60	19.11	-24.3	-24.9	17.3	0.00e+00	0	43	0	3006267392	8	3867
2026-01-28 06:38:43.20	282.98	18.91	-24.4	-25.1	17.2	0.00e+00	0	43	0	3028287488	8	3909
2026-01-28 06:38:46.22	282.36	18.71	-24.3	-24.9	17.3	0.00e+00	0	43	0	3049259008	8	3865
2026-01-28 06:38:49.24	281.75	18.50	-24.5	-25.4	17.0	0.00e+00	0	43	0	3071279104	8	3972
2026-01-28 06:38:52.24	281.15	18.30	-24.7	-25.3	16.8	0.00e+00	0	43	0	3093299200	9	3845
2026-01-28 06:38:55.25	280.56	18.10	-24.9	-25.8	16.5	0.00e+00	0	43	0	3114270720	9	3969
2026-01-28 06:38:58.25	279.98	17.89	-24.9	-25.7	16.5	0.00e+00	0	43	0	3136290816	9	3946
2026-01-28 06:39:01.27	279.41	17.68	-24.7	-25.2	16.8	0.00e+00	0	43	0	3158310912	9	3823
2026-01-28 06:39:04.27	278.84	17.48	-24.6	-24.9	16.9	0.00e+00	0	43	0	3180331008	9	3765
2026-01-28 06:39:07.29	278.28	17.27	-24.7	-25.4	16.7	0.00e+00	0	43	0	3201302528	9	3874
2026-01-28 06:39:10.30	277.73	17.06	-25.0	-26.0	16.4	0.00e+00	0	43	0	3223322624	9	4029
2026-01-28 06:39:13.31	277.18	16.84	-24.9	-25.6	16.6	0.00e+00	0	43	0	3245342720	9	3925
2026-01-28 06:39:16.32	276.65	16.63	-24.7	-25.4	16.7	0.00e+00	0	43	0	3267362816	9	3869
2026-01-28 06:39:19.33	276.12	16.42	-24.8	-25.6	16.6	0.00e+00	0	43	0	3288334336	9	3914
2026-01-28 06:39:22.35	275.60	16.21	-25.2	-25.8	16.2	0.00e+00	0	43	0	3310354432	10	3857
2026-01-28 06:39:25.35	275.08	15.99	-25.2	-25.9	16.1	0.00e+00	0	43	0	3332374528	10	3902
2026-01-28 06:39:28.35	274.58	15.78	-25.3	-26.1	16.0	0.00e+00	0	43	0	3354394624	10	3939
2026-01-28 06:39:31.36	274.08	15.56	-25.6	-26.1	15.7	0.00e+00	0	43	0	3375366144	11	3842
2026-01-28 06:39:34.38	273.59	15.35	-25.5	-26.1	15.7	0.00e+00	0	43	0	3397386240	11	3843
2026-01-28 06:39:37.39	273.10	15.13	-25.4	-26.2	15.9	0.00e+00	0	43	0	3419406336	10	3980
2026-01-28 06:39:40.39	272.63	14.92	-25.2	-25.8	16.1	3.01e-04	0	43	0	3440377856	10	3877
2026-01-28 06:39:43.40	272.16	14.70	-25.3	-26.1	16.0	1.69e-04	0	43	0	3462397952	10	3949
2026-01-28 06:39:46.42	271.69	14.49	-25.4	-26.3	15.8	0.00e+00	0	43	0	3484418048	10	4001
2026-01-28 06:39:49.43	271.23	14.27	-25.5	-26.5	15.7	3.96e-04	0	43	0	3506438144	10	4043
2026-01-28 06:39:52.44	270.78	14.06	-25.4	-26.4	15.7	6.73e-04	0	43	0	3527409664	10	4015
2026-01-28 06:39:55.45	270.34	13.84	-25.6	-26.7	15.6	7.86e-04	0	43	0	3549429760	10	4091
2026-01-28 06:39:58.47	269.90	13.63	-25.9	-26.9	15.2	8.23e-04	0	43	0	3571449856	11	4036
2026-01-28 06:40:01.48	269.47	13.41	-26.1	-26.8	14.9	0.00e+00	0	43	0	3592421376	12	3903
2026-01-28 06:40:04.49	269.05	13.20	-26.0	-27.1	15.0	0.00e+00	0	43	0	3614441472	11	4095
2026-01-28 06:40:07.51	268.63	12.98	-26.2	-27.2	14.6	0.00e+00	0	43	0	3636461568	12	4007
2026-01-28 06:40:10.52	268.21	12.77	-25.9	-26.9	15.1	0.00e+00	0	43	0	3658481664	11	4041
2026-01-28 06:40:13.53	267.81	12.55	-26.0	-26.5	15.0	0.00e+00	0	43	0	3679453184	12	3846
2026-01-28 06:40:16.54	267.41	12.34	-26.1	-26.9	14.7	0.00e+00	0	43	0	3701473280	12	3948
2026-01-28 06:40:19.55	267.01	12.13	-26.1	-26.8	14.8	0.00e+00	0	43	0	3723493376	12	3912
2026-01-28 06:40:22.57	266.62	11.92	-26.1	-27.0	14.6	0.00e+00	0	43	0	3745513472	12	3960
2026-01-28 06:40:25.58	266.24	11.71	-26.3	-27.4	14.4	1.10e-06	0	43	0	3766484992	12	4080
2026-01-28 06:40:28.59	265.86	11.50	-26.4	-27.6	14.3	1.10e-06	0	43	0	3788505088	12	4124
2026-01-28 06:40:31.60	265.49	11.29	-26.3	-27.3	14.4	0.00e+00	0	43	0	3810525184	12	4050
2026-01-28 06:40:34.61	265.12	11.08	-26.1	-27.0	14.6	0.00e+00	0	43	0	3832545280	12	3961
2026-01-28 06:40:37.62	264.76	10.87	-26.0	-27.1	14.8	0.00e+00	0	43	0	3853516800	11	4105
2026-01-28 06:40:40.64	264.40	10.66	-26.4	-27.5	14.2	1.10e-06	0	43	0	3875536896	12	4108
2026-01-28 06:40:43.65	264.05	10.45	-26.8	-27.9	13.6	5.70e-06	0	43	0	3897556992	13	4109
2026-01-28 06:40:46.66	263.71	10.24	-26.8	-27.9	13.7	5.70e-06	0	43	0	3919577088	13	4097
2026-01-28 06:40:49.67	263.37	10.04	-26.7	-27.8	13.7	5.70e-06	0	43	0	3940548608	13	4080
2026-01-28 06:40:52.68	263.03	9.83	-26.5	-27.9	13.9	0.00e+00	0	43	0	3962568704	12	4208
2026-01-28 06:40:55.69	262.70	9.63	-26.8	-28.1	13.5	1.14e-05	0	43	0	3984588800	13	4156
2026-01-28 06:40:58.70	262.37	9.43	-26.4	-27.1	14.1	1.10e-06	0	43	0	4006608896	13	3899
2026-01-28 06:41:01.72	262.05	9.22	-26.4	-27.6	14.0	4.50e-06	0	43	0	4027580416	12	4146
2026-01-28 06:41:04.73	261.73	9.02	-25.4	-26.4	11.3	0.00e+00	0	43	0	4049600512	12	4018
2026-01-28 06:41:07.74	261.42	8.82	-26.2	-27.2	14.0	2.87e-03	0	43	0	4071620608	12	4039
2026-01-28 06:41:10.75	261.11	8.62	-26.3	-27.4	14.1	5.70e-06	0	43	0	4093640704	12	4090
2026-01-28 06:41:13.77	260.81	8.42	-26.4	-27.7	13.9	1.10e-06	0	43	0	4114612224	12	4161
2026-01-28 06:41:16.78	260.51	8.22	-26.8	-28.0	13.3	5.70e-06	0	43	0	4136632320	13	4142
2026-01-28 06:41:19.78	260.21	8.02	-26.7	-28.0	13.3	6.57e-03	0	43	0	4158652416	13	4138
2026-01-28 06:41:22.78	259.92	7.83	-26.9	-28.4	13.1	6.96e-03	0	43	0	4179623936	13	4264
2026-01-28 06:41:25.79	259.63	7.63	-27.4	-28.9	12.4	6.60e-03	0	43	0	4201644032	14	4303
2026-01-28 06:41:28.81	259.35	7.43	-27.2	-28.5	12.6	6.40e-05	0	43	0	4223664128	14	4185
2026-01-28 06:41:31.82	259.07	7.24	-27.0	-28.1	12.9	4.19e-03	0	43	0	4244635648	14	4082
2026-01-28 06:41:34.84	258.79	7.04	-32.7	-41.7	3.8	8.45e-01	0	43	104	4263510016	25	10217

#Closed at: 2026-01-28 06:41:37
#Recorded file [4263 MB]: D:/data/31010_260128_093143.dat