passes_logs/2026/01/28/R2M6_AANII_01/R2M6_AANII_01__20260128_095433_NOAA_21_JPSS-2_rec.log

#Pass ID: 20260128_095433_NOAA 21 (JPSS-2)
#Satellite: NOAA 21 (JPSS-2)
#Configuration: NOAA 21
#almurnet v.1.7.20240730
#Start time: 2026-01-28 09:54:32

#Version: 2.2.20231116
#Station: R2M6_AANII_01
#Location: 30.233357 lon 59.946436 lat
#TLE: 1 54234U 22150A   26027.55906748  .00000170  00000+0  10132-3 0  9996
#TLE: 2 54234  98.7510 328.3076 0000860 204.4692 155.6443 14.19540154166599

#Time	Az	El	Level	Level2	SNR	BER	BlckErr	Temp	State	Recorded	gain1	gain2
2026-01-28 09:54:32.81	147.44	6.96	-28.4	-35.9	4.5	1.41e+00	0	42	0	0	17	8558
2026-01-28 09:54:35.82	147.38	7.19	-29.2	-37.1	6.3	3.05e-01	0	41	0	3145728	18	8968
2026-01-28 09:54:38.83	147.33	7.43	-29.5	-36.5	7.1	1.85e-01	0	42	0	12582912	18	8107
2026-01-28 09:54:41.84	147.27	7.67	-29.2	-34.3	9.1	2.20e-02	0	42	0	22020096	18	6489
2026-01-28 09:54:44.84	147.22	7.90	-29.0	-33.0	10.3	8.24e-03	0	42	0	30408704	18	5674
2026-01-28 09:54:47.86	147.16	8.15	-29.2	-32.9	10.6	3.38e-03	0	42	0	39845888	18	5553
2026-01-28 09:54:50.86	147.10	8.39	-29.0	-32.2	11.3	1.59e-03	0	42	0	49283072	18	5167
2026-01-28 09:54:53.87	147.04	8.63	-28.5	-30.6	12.4	1.56e-04	0	42	0	58720256	18	4572
2026-01-28 09:54:56.88	146.98	8.88	-28.5	-30.4	12.6	1.20e-04	0	42	0	68157440	18	4485
2026-01-28 09:54:59.89	146.91	9.13	-28.6	-30.5	12.6	6.48e-05	0	42	0	77594624	18	4506
2026-01-28 09:55:02.90	146.85	9.39	-28.4	-30.1	12.9	8.08e-05	0	42	0	87031808	18	4377
2026-01-28 09:55:05.91	146.79	9.64	-28.1	-29.9	13.3	2.05e-05	0	42	0	96468992	17	4410
2026-01-28 09:55:08.92	146.72	9.90	-28.1	-30.0	13.3	1.98e-05	0	42	0	105906176	17	4455
2026-01-28 09:55:11.92	146.65	10.16	-28.1	-30.1	13.2	2.05e-05	0	42	0	115343360	17	4521
2026-01-28 09:55:14.93	146.58	10.42	-27.8	-29.8	13.6	6.80e-06	0	42	0	124780544	16	4532
2026-01-28 09:55:17.94	146.51	10.69	-27.8	-29.7	13.7	5.30e-06	0	42	0	134217728	16	4498
2026-01-28 09:55:20.94	146.44	10.96	-27.5	-29.1	14.1	1.50e-06	0	42	0	143654912	16	4310
2026-01-28 09:55:23.94	146.37	11.23	-27.5	-29.0	14.1	1.50e-06	0	42	0	153092096	16	4286
2026-01-28 09:55:26.95	146.29	11.51	-27.5	-29.1	14.1	4.50e-06	0	42	0	162529280	16	4304
2026-01-28 09:55:29.95	146.22	11.78	-27.5	-29.1	14.1	2.20e-06	0	42	0	171966464	16	4305
2026-01-28 09:55:32.96	146.14	12.06	-27.4	-28.7	14.4	1.50e-06	0	42	0	181403648	16	4183
2026-01-28 09:55:35.97	146.06	12.35	-27.2	-28.7	14.5	7.00e-07	0	43	0	190840832	15	4305
2026-01-28 09:55:38.95	145.98	12.63	-27.3	-28.9	14.4	2.20e-06	0	43	0	200278016	15	4351
2026-01-28 09:55:41.94	145.89	12.92	-27.4	-29.3	14.2	0.00e+00	0	43	0	209715200	15	4461
2026-01-28 09:55:44.92	145.81	13.22	-27.2	-28.8	14.4	0.00e+00	0	42	0	219152384	15	4326
2026-01-28 09:55:47.92	145.72	13.51	-27.0	-28.4	14.6	7.00e-07	0	42	0	228589568	15	4230
2026-01-28 09:55:50.94	145.63	13.82	-27.0	-28.5	14.6	0.00e+00	0	43	0	236978176	15	4243
2026-01-28 09:55:53.95	145.54	14.12	-27.0	-28.3	14.8	7.00e-07	0	43	0	246415360	15	4191
2026-01-28 09:55:56.95	145.45	14.43	-27.0	-28.4	14.7	7.00e-07	0	43	0	255852544	15	4197
2026-01-28 09:55:59.94	145.35	14.74	-27.0	-28.4	14.7	1.50e-06	0	43	0	265289728	15	4204
2026-01-28 09:56:02.94	145.26	15.06	-27.2	-28.8	14.6	0.00e+00	0	43	0	274726912	15	4299
2026-01-28 09:56:05.93	145.16	15.38	-27.1	-28.4	14.7	0.00e+00	0	43	0	284164096	15	4210
2026-01-28 09:56:08.93	145.06	15.70	-27.1	-28.4	14.8	7.00e-07	0	43	0	293601280	15	4189
2026-01-28 09:56:11.94	144.95	16.03	-27.2	-28.6	14.7	6.10e-06	0	43	0	303038464	15	4240
2026-01-28 09:56:14.95	144.84	16.37	-27.5	-29.5	14.3	0.00e+00	0	43	0	312475648	15	4500
2026-01-28 09:56:17.95	144.74	16.70	-27.4	-29.2	14.4	1.06e-05	0	43	0	321912832	15	4421
2026-01-28 09:56:20.95	144.62	17.05	-27.5	-29.3	14.4	0.00e+00	0	43	0	331350016	15	4430
2026-01-28 09:56:23.97	144.51	17.39	-27.4	-29.1	14.6	6.10e-06	0	43	0	340787200	15	4366
2026-01-28 09:56:26.97	144.39	17.75	-27.4	-29.1	14.6	6.10e-06	0	43	0	350224384	15	4379
2026-01-28 09:56:29.96	144.27	18.10	-27.4	-29.0	14.7	0.00e+00	0	43	0	359661568	15	4350
2026-01-28 09:56:32.97	144.15	18.47	-27.5	-29.4	14.5	0.00e+00	0	43	0	369098752	15	4450
2026-01-28 09:56:35.97	144.02	18.83	-27.3	-29.0	14.8	7.00e-07	0	43	0	378535936	15	4329
2026-01-28 09:56:38.98	143.89	19.21	-27.3	-28.9	14.9	0.00e+00	0	43	0	387973120	15	4291
2026-01-28 09:56:42.00	143.75	19.59	-27.3	-28.8	14.9	3.00e-06	0	43	0	397410304	15	4288
2026-01-28 09:56:45.01	143.62	19.97	-27.1	-28.4	15.3	7.60e-06	0	43	0	406847488	15	4148
2026-01-28 09:56:48.01	143.47	20.36	-26.9	-27.9	15.5	6.80e-06	0	43	0	416284672	15	4029
2026-01-28 09:56:51.01	143.33	20.76	-26.9	-27.8	15.6	0.00e+00	0	43	0	425721856	15	3998
2026-01-28 09:56:54.02	143.18	21.16	-26.6	-27.7	16.0	9.10e-06	0	43	0	435159040	14	4081
2026-01-28 09:56:57.02	143.03	21.57	-26.8	-28.1	15.8	0.00e+00	0	43	0	443547648	14	4169
2026-01-28 09:57:00.02	142.87	21.98	-26.7	-27.8	16.0	0.00e+00	0	43	0	452984832	14	4091
2026-01-28 09:57:03.02	142.71	22.40	-26.5	-27.4	16.2	0.00e+00	0	43	0	462422016	14	3996
2026-01-28 09:57:06.02	142.54	22.83	-26.2	-27.4	16.5	0.00e+00	0	43	0	471859200	13	4092
2026-01-28 09:57:09.04	142.37	23.27	-26.1	-26.9	16.7	0.00e+00	0	43	0	481296384	13	3982
2026-01-28 09:57:12.05	142.19	23.71	-26.1	-26.9	16.8	0.00e+00	0	43	0	490733568	13	3982
2026-01-28 09:57:15.04	142.01	24.16	-26.4	-27.7	16.3	0.00e+00	0	43	0	500170752	13	4178
2026-01-28 09:57:18.04	141.82	24.62	-26.2	-27.1	16.7	0.00e+00	0	43	0	509607936	13	4029
2026-01-28 09:57:21.03	141.63	25.08	-26.2	-27.3	16.6	0.00e+00	0	43	0	519045120	13	4070
2026-01-28 09:57:24.03	141.43	25.55	-26.7	-28.4	16.0	0.00e+00	0	43	0	528482304	13	4383
2026-01-28 09:57:27.01	141.22	26.03	-26.4	-27.8	16.4	0.00e+00	0	43	0	537919488	13	4201
2026-01-28 09:57:30.01	141.01	26.52	-26.8	-28.6	15.9	0.00e+00	0	43	0	547356672	13	4436
2026-01-28 09:57:33.02	140.79	27.02	-27.0	-28.4	15.8	0.00e+00	0	43	0	556793856	14	4258
2026-01-28 09:57:36.03	140.56	27.52	-27.1	-28.8	15.6	0.00e+00	0	43	0	566231040	14	4360
2026-01-28 09:57:39.04	140.33	28.04	-27.5	-29.2	15.2	0.00e+00	0	43	0	575668224	15	4350
2026-01-28 09:57:42.05	140.08	28.57	-27.6	-29.3	15.1	0.00e+00	0	43	0	585105408	15	4386
2026-01-28 09:57:45.07	139.83	29.10	-27.3	-28.8	15.5	0.00e+00	0	43	0	594542592	15	4242
2026-01-28 09:57:48.09	139.57	29.65	-27.4	-28.9	15.4	0.00e+00	0	43	0	603979776	15	4283
2026-01-28 09:57:51.09	139.30	30.20	-27.2	-28.4	15.7	0.00e+00	0	43	0	613416960	15	4134
2026-01-28 09:57:54.11	139.02	30.77	-27.1	-28.1	15.8	0.00e+00	0	43	0	621805568	15	4062
2026-01-28 09:57:57.12	138.73	31.35	-26.8	-28.1	16.1	0.00e+00	0	43	0	632291328	14	4171
2026-01-28 09:58:00.13	138.43	31.93	-27.0	-28.6	15.9	0.00e+00	0	43	0	641728512	14	4294
2026-01-28 09:58:03.13	138.12	32.53	-27.3	-29.2	15.6	0.00e+00	0	43	0	650117120	14	4463
2026-01-28 09:58:06.12	137.79	33.13	-27.4	-29.5	15.4	0.00e+00	0	43	0	659554304	14	4558
2026-01-28 09:58:09.13	137.46	33.75	-27.4	-29.3	15.5	0.00e+00	0	43	0	668991488	14	4507
2026-01-28 09:58:12.12	137.11	34.38	-27.7	-29.7	15.0	7.00e-07	0	43	0	678428672	15	4506
2026-01-28 09:58:15.12	136.74	35.02	-27.9	-30.2	14.7	0.00e+00	0	43	0	687865856	15	4648
2026-01-28 09:58:18.13	136.36	35.67	-28.4	-30.7	14.4	7.00e-07	0	43	0	697303040	16	4673
2026-01-28 09:58:21.15	135.97	36.34	-28.5	-30.5	14.2	0.00e+00	0	43	0	706740224	17	4495
2026-01-28 09:58:24.15	135.55	37.01	-28.7	-31.0	13.9	4.50e-06	0	43	0	716177408	17	4667
2026-01-28 09:58:27.15	135.12	37.70	-28.6	-30.7	14.0	0.00e+00	0	43	0	725614592	17	4590
2026-01-28 09:58:30.15	134.68	38.40	-28.7	-30.8	14.0	3.00e-06	0	43	0	735051776	17	4604
2026-01-28 09:58:33.15	134.21	39.12	-28.7	-30.7	14.1	7.00e-07	0	43	0	744488960	17	4573
2026-01-28 09:58:36.17	133.71	39.85	-28.5	-30.4	14.3	1.50e-06	0	43	0	753926144	17	4487
2026-01-28 09:58:39.19	133.19	40.59	-28.5	-30.5	14.2	0.00e+00	0	43	0	763363328	17	4505
2026-01-28 09:58:42.20	132.65	41.34	-29.0	-31.5	13.6	7.60e-06	0	43	0	772800512	17	4816
2026-01-28 09:58:45.21	132.09	42.11	-29.4	-32.0	13.1	4.95e-05	0	43	0	782237696	18	4885
2026-01-28 09:58:48.23	131.49	42.89	-29.4	-31.9	13.2	2.21e-05	0	43	0	791674880	18	4820
2026-01-28 09:58:51.24	130.87	43.69	-29.5	-31.8	13.0	3.05e-05	0	43	0	801112064	19	4656
2026-01-28 09:58:54.26	130.21	44.49	-29.9	-32.8	12.4	1.68e-04	0	43	0	810549248	19	4996
2026-01-28 09:58:57.27	129.51	45.31	-29.7	-31.8	12.7	9.53e-05	0	43	0	819986432	20	4566
2026-01-28 09:59:00.28	128.78	46.14	-29.5	-31.3	13.0	8.23e-05	0	43	0	829423616	20	4408
2026-01-28 09:59:03.28	128.02	46.98	-29.1	-30.6	13.7	4.50e-06	0	43	0	838860800	19	4304
2026-01-28 09:59:06.29	127.20	47.83	-29.2	-31.0	13.4	1.37e-05	0	44	0	848297984	19	4422
2026-01-28 09:59:09.30	126.34	48.69	-29.0	-30.6	13.8	4.50e-06	0	43	0	857735168	19	4291
2026-01-28 09:59:12.31	125.43	49.56	-29.5	-31.8	13.1	3.20e-05	0	44	0	867172352	19	4662
2026-01-28 09:59:15.33	124.46	50.44	-29.6	-32.0	13.0	3.43e-05	0	43	0	876609536	19	4716
2026-01-28 09:59:18.34	123.44	51.33	-29.7	-32.3	12.8	5.03e-05	0	44	0	886046720	19	4836
2026-01-28 09:59:21.34	122.36	52.22	-29.5	-31.8	13.1	2.89e-05	0	44	0	895483904	19	4667
2026-01-28 09:59:24.36	121.20	53.12	-29.4	-31.4	13.4	2.05e-05	0	43	0	903872512	19	4529
2026-01-28 09:59:27.37	119.97	54.02	-29.1	-30.8	13.8	6.10e-06	0	43	0	914358272	19	4357
2026-01-28 09:59:30.37	118.67	54.93	-27.5	-28.6	15.8	0.00e+00	0	44	0	922746880	16	4057
2026-01-28 09:59:33.38	117.27	55.83	-27.8	-29.1	15.5	0.00e+00	0	44	0	932184064	16	4202
2026-01-28 09:59:36.38	115.79	56.73	-27.6	-28.8	15.8	0.00e+00	0	43	0	941621248	16	4119
2026-01-28 09:59:39.40	114.20	57.62	-27.1	-28.2	16.3	0.00e+00	0	44	0	951058432	15	4067
2026-01-28 09:59:42.41	112.50	58.51	-27.5	-29.1	15.8	0.00e+00	0	44	0	960495616	15	4310
2026-01-28 09:59:45.41	110.69	59.38	-26.9	-28.2	16.6	0.00e+00	0	44	0	969932800	14	4161
2026-01-28 09:59:48.43	108.75	60.24	-26.9	-28.2	16.5	0.00e+00	0	43	0	979369984	14	4182
2026-01-28 09:59:51.44	106.68	61.08	-26.7	-27.7	16.9	0.00e+00	0	43	0	988807168	14	4030
2026-01-28 09:59:54.45	104.47	61.89	-26.5	-27.4	17.0	0.00e+00	0	44	0	998244352	14	3964
2026-01-28 09:59:57.46	102.10	62.67	-26.4	-27.0	17.3	0.00e+00	0	44	0	1007681536	14	3867
2026-01-28 10:00:00.47	99.59	63.42	-26.1	-27.0	17.5	0.00e+00	0	44	0	1017118720	13	3959
2026-01-28 10:00:03.48	96.91	64.13	-27.0	-28.3	16.6	0.00e+00	0	44	0	1026555904	14	4204
2026-01-28 10:00:06.48	94.08	64.78	-26.7	-27.8	16.9	0.00e+00	0	44	0	1035993088	14	4060
2026-01-28 10:00:09.50	91.06	65.39	-27.0	-28.3	16.6	0.00e+00	0	44	0	1045430272	14	4189
2026-01-28 10:00:12.50	87.91	65.93	-26.3	-26.9	17.4	0.00e+00	0	44	0	1054867456	14	3838
2026-01-28 10:00:15.52	84.58	66.41	-26.4	-27.0	17.3	0.00e+00	0	44	0	1064304640	14	3870
2026-01-28 10:00:18.53	81.13	66.81	-26.2	-27.2	17.5	0.00e+00	0	44	0	1073741824	13	4014
2026-01-28 10:00:21.54	77.55	67.14	-25.6	-26.2	18.2	0.00e+00	0	44	0	1083179008	12	3879
2026-01-28 10:00:24.54	73.89	67.38	-26.0	-27.1	17.7	0.00e+00	0	44	0	1092616192	12	4111
2026-01-28 10:00:27.55	70.15	67.53	-26.3	-27.8	17.4	0.00e+00	0	44	0	1102053376	12	4292
2026-01-28 10:00:30.56	66.37	67.60	-26.2	-27.2	17.5	0.00e+00	0	44	0	1111490560	13	4020
2026-01-28 10:00:33.56	62.59	67.57	-26.5	-27.7	17.1	0.00e+00	0	43	0	1120927744	13	4147
2026-01-28 10:00:36.57	58.82	67.46	-26.2	-27.1	17.5	0.00e+00	0	44	0	1130364928	13	3984
2026-01-28 10:00:39.58	55.11	67.26	-27.1	-28.5	16.5	0.00e+00	0	44	0	1139802112	14	4255
2026-01-28 10:00:42.60	51.48	66.97	-26.5	-27.3	17.1	0.00e+00	0	44	0	1149239296	14	3933
2026-01-28 10:00:45.61	47.97	66.60	-27.6	-29.3	15.7	0.00e+00	0	44	0	1158676480	15	4358
2026-01-28 10:00:48.63	44.58	66.16	-26.2	-27.2	17.3	0.00e+00	0	44	0	1168113664	13	4020
2026-01-28 10:00:51.64	41.35	65.64	-26.2	-27.1	17.4	0.00e+00	0	44	0	1177550848	13	3987
2026-01-28 10:00:54.64	38.29	65.07	-27.3	-29.1	16.1	0.00e+00	0	43	0	1186988032	14	4417
2026-01-28 10:00:57.65	35.37	64.44	-28.2	-30.0	15.3	0.00e+00	0	44	0	1196425216	16	4435
2026-01-28 10:01:00.67	32.61	63.75	-27.4	-28.1	16.3	0.00e+00	0	44	0	1205862400	16	3936
2026-01-28 10:01:03.68	30.03	63.02	-27.6	-29.3	15.7	6.10e-06	0	44	0	1215299584	15	4365
2026-01-28 10:01:06.69	27.60	62.26	-26.8	-27.4	16.7	0.00e+00	0	44	0	1223688192	15	3865
2026-01-28 10:01:09.71	25.32	61.46	-27.4	-29.2	16.0	0.00e+00	0	43	0	1233125376	14	4453
2026-01-28 10:01:12.72	23.19	60.63	-27.5	-28.4	16.1	0.00e+00	0	44	0	1243611136	16	4001
2026-01-28 10:01:15.73	21.19	59.78	-26.0	-27.3	17.5	0.00e+00	0	44	0	1251999744	12	4148
2026-01-28 10:01:18.75	19.32	58.92	-28.1	-29.9	15.2	0.00e+00	0	43	0	1261436928	16	4417
2026-01-28 10:01:21.76	17.57	58.04	-27.0	-28.5	16.4	0.00e+00	0	43	0	1270874112	14	4235
2026-01-28 10:01:24.78	15.93	57.15	-28.7	-30.7	14.3	0.00e+00	0	44	0	1280311296	17	4549
2026-01-28 10:01:27.80	14.40	56.25	-28.8	-30.3	14.3	1.50e-06	0	44	0	1289748480	18	4305
2026-01-28 10:01:30.82	12.96	55.35	-28.2	-30.0	15.1	0.00e+00	0	44	0	1299185664	16	4429
2026-01-28 10:01:33.82	11.63	54.45	-29.9	-32.6	12.6	6.40e-05	0	44	0	1308622848	19	4926
2026-01-28 10:01:36.83	10.36	53.55	-29.3	-31.1	13.5	1.60e-05	0	44	0	1318060032	19	4435
2026-01-28 10:01:39.84	9.18	52.65	-28.5	-29.9	14.4	7.00e-07	0	44	0	1327497216	18	4191
2026-01-28 10:01:42.85	8.07	51.76	-30.0	-32.5	12.3	2.00e-04	0	44	0	1336934400	20	4790
2026-01-28 10:01:45.87	7.02	50.87	-28.6	-30.0	14.5	7.00e-07	0	44	0	1346371584	18	4239
2026-01-28 10:01:48.88	6.03	49.99	-28.3	-29.7	15.0	0.00e+00	0	44	0	1355808768	17	4231
2026-01-28 10:01:51.88	5.10	49.12	-29.1	-31.2	13.8	7.00e-07	0	43	0	1365245952	18	4579
2026-01-28 10:01:54.90	4.22	48.25	-29.6	-31.5	12.9	8.01e-05	0	44	0	1374683136	20	4458
2026-01-28 10:01:57.91	3.39	47.40	-29.6	-31.9	13.0	2.28e-05	0	44	0	1384120320	19	4696
2026-01-28 10:02:00.92	2.60	46.56	-29.6	-31.4	13.0	3.89e-05	0	44	0	1393557504	20	4422
2026-01-28 10:02:03.92	1.86	45.73	-29.6	-31.9	13.1	1.29e-05	0	44	0	1402994688	19	4699
2026-01-28 10:02:06.93	1.15	44.91	-30.7	-33.9	11.0	1.83e-03	0	43	0	1412431872	21	5192
2026-01-28 10:02:09.95	0.47	44.10	-29.0	-30.3	14.0	7.60e-06	0	44	0	1421869056	19	4214
2026-01-28 10:02:12.96	359.84	43.30	-29.0	-30.8	13.9	7.00e-07	0	44	0	1431306240	18	4458
2026-01-28 10:02:15.96	359.23	42.52	-29.7	-32.3	12.7	5.49e-05	0	44	0	1440743424	19	4824
2026-01-28 10:02:18.97	358.65	41.75	-29.5	-31.2	13.0	3.73e-05	0	44	0	1450180608	20	4389
2026-01-28 10:02:21.98	358.10	41.00	-29.4	-31.0	13.0	3.96e-05	0	44	0	1459617792	20	4338
2026-01-28 10:02:24.99	357.58	40.25	-28.3	-29.7	14.7	1.50e-06	0	44	0	1469054976	17	4264
2026-01-28 10:02:28.00	357.08	39.52	-28.2	-29.6	14.8	7.00e-07	0	43	0	1478492160	17	4235
2026-01-28 10:02:31.01	356.60	38.80	-29.0	-31.5	13.7	3.00e-06	0	44	0	1487929344	17	4807
2026-01-28 10:02:34.02	356.14	38.10	-29.5	-32.2	13.0	4.27e-05	0	44	0	1497366528	18	4917
2026-01-28 10:02:37.03	355.70	37.40	-29.1	-31.2	13.6	4.50e-06	0	44	0	1506803712	18	4584
2026-01-28 10:02:40.03	355.28	36.72	-28.7	-30.3	14.1	4.50e-06	0	44	0	1516240896	18	4336
2026-01-28 10:02:43.04	354.88	36.05	-28.3	-29.4	14.6	0.00e+00	0	44	0	1525678080	18	4091
2026-01-28 10:02:46.05	354.50	35.40	-28.2	-29.7	14.7	7.00e-07	0	43	0	1535115264	17	4266
2026-01-28 10:02:49.06	354.13	34.75	-27.6	-28.7	15.7	0.00e+00	0	44	0	1543503872	16	4085
2026-01-28 10:02:52.06	353.77	34.12	-27.9	-29.4	15.2	0.00e+00	0	44	0	1553989632	16	4292
2026-01-28 10:02:55.08	353.43	33.50	-28.3	-30.3	14.6	0.00e+00	0	44	0	1563426816	16	4564
2026-01-28 10:02:58.08	353.10	32.89	-28.0	-29.7	15.0	0.00e+00	0	44	0	1571815424	16	4367
2026-01-28 10:03:01.09	352.78	32.29	-27.9	-29.5	15.1	0.00e+00	0	44	0	1581252608	16	4321
2026-01-28 10:03:04.10	352.48	31.70	-27.5	-28.5	15.7	0.00e+00	0	43	0	1590689792	16	4044
2026-01-28 10:03:07.12	352.19	31.12	-27.7	-29.0	15.4	0.00e+00	0	44	0	1600126976	16	4180
2026-01-28 10:03:10.13	351.90	30.55	-28.0	-29.7	15.0	0.00e+00	0	43	0	1609564160	16	4364
2026-01-28 10:03:13.14	351.63	30.00	-27.8	-29.3	15.2	0.00e+00	0	43	0	1619001344	16	4262
2026-01-28 10:03:16.15	351.37	29.45	-28.1	-30.0	14.9	7.00e-07	0	44	0	1628438528	16	4442
2026-01-28 10:03:19.17	351.11	28.91	-27.7	-29.1	15.4	0.00e+00	0	43	0	1637875712	16	4200
2026-01-28 10:03:22.18	350.87	28.38	-27.1	-28.2	16.1	0.00e+00	0	43	0	1647312896	15	4069
2026-01-28 10:03:25.20	350.63	27.86	-27.0	-27.8	16.2	0.00e+00	0	44	0	1656750080	15	3964
2026-01-28 10:03:28.21	350.40	27.35	-26.5	-27.3	16.7	0.00e+00	0	44	0	1666187264	14	3951
2026-01-28 10:03:31.22	350.18	26.85	-26.5	-27.2	16.7	0.00e+00	0	44	0	1675624448	14	3928
2026-01-28 10:03:34.23	349.96	26.36	-26.4	-27.1	16.7	0.00e+00	0	43	0	1685061632	14	3913
2026-01-28 10:03:37.25	349.75	25.87	-26.7	-27.7	16.4	0.00e+00	0	44	0	1694498816	14	4066
2026-01-28 10:03:40.26	349.55	25.40	-26.8	-28.1	16.2	0.00e+00	0	44	0	1703936000	14	4165
2026-01-28 10:03:43.27	349.36	24.93	-27.0	-28.4	16.0	0.00e+00	0	44	0	1713373184	14	4249
2026-01-28 10:03:46.27	349.17	24.47	-27.2	-28.9	15.7	0.00e+00	0	43	0	1722810368	14	4397
2026-01-28 10:03:49.28	348.99	24.02	-27.5	-29.2	15.3	0.00e+00	0	43	0	1732247552	15	4342
2026-01-28 10:03:52.30	348.81	23.57	-27.5	-29.1	15.3	0.00e+00	0	43	0	1741684736	15	4341
2026-01-28 10:03:55.31	348.64	23.13	-27.7	-29.5	15.1	0.00e+00	0	44	0	1751121920	15	4441
2026-01-28 10:03:58.32	348.47	22.70	-27.7	-29.5	15.2	0.00e+00	0	44	0	1760559104	15	4436
2026-01-28 10:04:01.33	348.31	22.28	-27.3	-28.8	15.5	0.00e+00	0	43	0	1769996288	15	4233
2026-01-28 10:04:04.33	348.15	21.86	-27.2	-28.5	15.6	0.00e+00	0	43	0	1779433472	15	4154
2026-01-28 10:04:07.35	347.99	21.45	-27.3	-28.7	15.5	0.00e+00	0	44	0	1788870656	15	4230
2026-01-28 10:04:10.35	347.84	21.05	-27.2	-28.4	15.6	0.00e+00	0	43	0	1798307840	15	4143
2026-01-28 10:04:13.38	347.70	20.65	-27.1	-28.2	15.7	0.00e+00	0	43	0	1807745024	15	4085
2026-01-28 10:04:16.39	347.56	20.26	-27.0	-27.9	15.9	0.00e+00	0	44	0	1817182208	15	4008
2026-01-28 10:04:19.40	347.42	19.87	-26.8	-28.1	16.0	0.00e+00	0	43	0	1826619392	14	4176
2026-01-28 10:04:22.42	347.29	19.49	-26.9	-28.3	15.9	0.00e+00	0	43	0	1836056576	14	4220
2026-01-28 10:04:25.43	347.16	19.11	-26.8	-28.1	16.0	0.00e+00	0	44	0	1845493760	14	4161
2026-01-28 10:04:28.44	347.03	18.74	-26.9	-28.3	15.8	0.00e+00	0	44	0	1854930944	14	4225
2026-01-28 10:04:31.44	346.91	18.38	-26.8	-28.2	15.9	0.00e+00	0	44	0	1864368128	14	4185
2026-01-28 10:04:34.45	346.79	18.02	-26.9	-28.2	15.8	0.00e+00	0	43	0	1873805312	14	4206
2026-01-28 10:04:37.45	346.67	17.67	-27.1	-28.8	15.5	0.00e+00	0	44	0	1883242496	14	4351
2026-01-28 10:04:40.47	346.55	17.32	-27.1	-28.7	15.5	0.00e+00	0	43	0	1892679680	14	4352
2026-01-28 10:04:43.47	346.44	16.98	-27.2	-29.1	15.3	0.00e+00	0	43	0	1902116864	14	4452
2026-01-28 10:04:46.48	346.33	16.64	-27.4	-29.4	15.1	0.00e+00	0	43	0	1911554048	14	4533
2026-01-28 10:04:49.49	346.23	16.30	-27.5	-29.5	15.1	7.00e-07	0	44	0	1919942656	14	4583
2026-01-28 10:04:52.50	346.13	15.97	-27.5	-29.1	15.0	7.00e-07	0	43	0	1929379840	15	4344
2026-01-28 10:04:55.51	346.02	15.64	-27.6	-29.4	14.7	0.00e+00	0	43	0	1938817024	15	4444
2026-01-28 10:04:58.52	345.93	15.32	-27.8	-29.9	14.5	7.00e-07	0	43	0	1948254208	15	4570
2026-01-28 10:05:01.53	345.83	15.00	-27.8	-30.0	14.4	1.50e-06	0	44	0	1957691392	15	4621
2026-01-28 10:05:04.53	345.74	14.69	-27.8	-29.9	14.4	3.00e-06	0	44	0	1967128576	15	4579
2026-01-28 10:05:07.54	345.64	14.38	-27.9	-30.2	14.2	7.00e-07	0	43	0	1976565760	15	4672
2026-01-28 10:05:10.55	345.55	14.07	-27.9	-30.2	14.2	7.00e-07	0	44	0	1986002944	15	4695
2026-01-28 10:05:13.57	345.47	13.77	-28.1	-30.1	14.1	7.00e-07	0	44	0	1995440128	16	4542
2026-01-28 10:05:16.58	345.38	13.47	-28.2	-30.5	13.9	6.80e-06	0	44	0	2004877312	16	4649
2026-01-28 10:05:19.59	345.30	13.18	-28.1	-30.1	14.0	7.00e-07	0	43	0	2014314496	16	4531
2026-01-28 10:05:22.60	345.22	12.89	-28.1	-30.0	14.1	3.00e-06	0	43	0	2023751680	16	4515
2026-01-28 10:05:25.60	345.14	12.60	-28.0	-29.9	14.1	7.00e-07	0	43	0	2033188864	16	4464
2026-01-28 10:05:28.61	345.06	12.31	-28.1	-30.1	14.0	3.80e-06	0	43	0	2042626048	16	4533
2026-01-28 10:05:31.62	344.98	12.03	-28.1	-30.1	14.1	2.20e-06	0	43	0	2052063232	16	4519
2026-01-28 10:05:34.63	344.91	11.75	-28.3	-30.5	13.8	6.80e-06	0	44	0	2061500416	16	4660
2026-01-28 10:05:37.64	344.84	11.48	-28.1	-30.1	14.0	7.60e-06	0	43	0	2070937600	16	4539
2026-01-28 10:05:40.65	344.76	11.20	-28.1	-30.0	14.0	2.20e-06	0	44	0	2080374784	16	4518
2026-01-28 10:05:43.66	344.69	10.93	-28.1	-30.2	13.9	6.80e-06	0	44	0	2089811968	16	4565
2026-01-28 10:05:46.67	344.63	10.67	-28.2	-30.3	13.8	5.30e-06	0	43	0	2099249152	16	4614
2026-01-28 10:05:49.69	344.56	10.40	-28.4	-30.8	13.5	9.10e-06	0	43	0	2108686336	16	4775
2026-01-28 10:05:52.69	344.49	10.14	-28.2	-29.9	13.7	1.29e-05	0	43	0	2118123520	17	4371
2026-01-28 10:05:55.70	344.43	9.88	-28.3	-30.1	13.6	7.60e-06	0	44	0	2127560704	17	4423
2026-01-28 10:05:58.72	344.37	9.63	-28.2	-29.9	13.7	5.30e-06	0	43	0	2136997888	17	4390
2026-01-28 10:06:01.71	344.30	9.37	-28.2	-30.0	13.6	8.30e-06	0	43	0	2146435072	17	4413
2026-01-28 10:06:04.73	344.24	9.12	-28.4	-30.4	13.3	2.13e-05	0	43	0	2155872256	17	4546
2026-01-28 10:06:07.74	344.19	8.87	-28.4	-30.3	13.3	1.83e-05	0	43	0	2165309440	17	4506
2026-01-28 10:06:10.75	344.13	8.63	-28.6	-30.9	12.9	3.05e-05	0	43	0	2174746624	17	4710
2026-01-28 10:06:13.76	344.07	8.39	-28.6	-31.0	12.9	4.73e-05	0	44	0	2184183808	17	4739
2026-01-28 10:06:16.76	344.02	8.14	-28.8	-31.3	12.7	1.01e-04	0	44	0	2192572416	17	4838
2026-01-28 10:06:19.77	343.96	7.91	-28.8	-30.8	12.7	9.23e-05	0	43	0	2203058176	18	4568
2026-01-28 10:06:22.78	343.91	7.67	-28.8	-30.9	12.5	9.15e-05	0	43	0	2212495360	18	4604
2026-01-28 10:06:25.80	343.86	7.43	-28.9	-31.3	12.2	1.36e-04	0	43	0	2220883968	18	4746
2026-01-28 10:06:28.80	343.80	7.20	-29.2	-32.1	11.8	4.00e-04	0	43	0	2230321152	18	5006

#Closed at: 2026-01-28 10:06:31
#Recorded file [2236 MB]: D:/data/31010_260128_125434.dat