passes_logs/2026/01/28/R2M6_AANII_01/R2M6_AANII_01__20260128_045104_FENGYUN_3E_rec.log

#Pass ID: 20260128_045104_FENGYUN 3E
#Satellite: FENGYUN 3E
#Configuration: FENGYUN 3E
#almurnet v.1.7.20240730
#Start time: 2026-01-28 04:58:21

#Version: 2.2.20231116
#Station: R2M6_AANII_01
#Location: 30.233357 lon 59.946436 lat
#TLE: 1 49008U 21062A   26027.61944472  .00000309  00000+0  16619-3 0  9993
#TLE: 2 49008  98.7500  32.6009 0002501 114.4803 245.6635 14.19888604236631

#Time	Az	El	Level	Level2	SNR	BER	BlckErr	Temp	State	Recorded	gain1	gain2
2026-01-28 04:58:21.80	222.68	53.18	-34.2	-45.5	3.8	8.46e-01	0	43	0	0	28	13206
2026-01-28 04:58:23.81	222.21	52.50	-34.6	-44.2	3.8	8.45e-01	0	43	104	0	29	10796
2026-01-28 04:58:25.81	221.76	51.83	-34.7	-44.2	3.8	8.45e-01	0	43	104	0	29	10847
2026-01-28 04:58:27.81	221.33	51.16	-34.6	-44.2	3.8	8.46e-01	0	43	104	0	29	10778
2026-01-28 04:58:29.82	220.92	50.50	-34.6	-44.6	3.8	8.46e-01	0	43	104	0	28	11372
2026-01-28 04:58:31.83	220.52	49.85	-34.5	-44.5	3.8	8.47e-01	0	43	104	0	28	11284
2026-01-28 04:58:33.84	220.15	49.20	-34.5	-44.5	3.8	8.46e-01	0	43	104	0	28	11334
2026-01-28 04:58:35.85	219.78	48.57	-34.5	-44.5	3.8	8.45e-01	0	43	104	0	28	11303
2026-01-28 04:58:37.85	219.44	47.94	-34.5	-44.5	3.8	8.46e-01	0	43	104	0	28	11308
2026-01-28 04:58:39.86	219.11	47.32	-34.4	-44.1	3.8	8.46e-01	0	43	104	0	28	11108
2026-01-28 04:58:41.87	218.79	46.71	-34.2	-43.9	3.8	8.46e-01	0	43	104	0	28	10889
2026-01-28 04:58:43.88	218.48	46.10	-34.1	-43.6	3.8	8.46e-01	0	43	104	0	27	10793
2026-01-28 04:58:45.89	218.18	45.51	-33.9	-42.6	3.8	8.46e-01	0	43	104	0	28	9827
2026-01-28 04:58:47.90	217.90	44.92	-34.1	-44.0	3.8	8.45e-01	0	43	104	0	27	11292
2026-01-28 04:58:49.91	217.62	44.34	-34.0	-43.8	3.8	8.46e-01	0	43	104	0	27	11104
2026-01-28 04:58:51.92	217.36	43.76	-34.0	-43.4	3.8	8.45e-01	0	43	104	0	27	10669
2026-01-28 04:58:53.91	217.11	43.20	-34.0	-43.7	3.8	8.46e-01	0	43	104	0	27	11004
2026-01-28 04:58:55.92	216.86	42.64	-34.0	-44.0	3.8	8.46e-01	0	43	104	0	27	11347
2026-01-28 04:58:57.93	216.62	42.09	-34.0	-43.7	3.8	8.46e-01	0	43	104	0	27	10994
2026-01-28 04:58:59.93	216.40	41.55	-33.8	-42.1	3.8	8.45e-01	0	43	104	0	27	9407
2026-01-28 04:59:01.93	216.18	41.02	-33.9	-42.9	3.8	8.47e-01	0	43	104	0	27	10100
2026-01-28 04:59:03.94	215.96	40.49	-34.0	-44.0	3.8	8.47e-01	0	43	104	0	27	11320
2026-01-28 04:59:05.94	215.76	39.97	-34.0	-43.9	3.8	8.46e-01	0	43	104	0	27	11173
2026-01-28 04:59:07.94	215.56	39.46	-34.0	-43.4	3.8	8.45e-01	0	43	104	0	27	10686
2026-01-28 04:59:09.95	215.36	38.95	-32.8	-37.5	4.3	8.33e-01	0	43	104	0	26	6139
2026-01-28 04:59:11.96	215.17	38.45	-31.3	-33.8	8.2	7.15e-02	0	43	0	5242880	23	4799
2026-01-28 04:59:13.96	214.99	37.96	-28.7	-29.4	12.6	2.25e-04	0	43	0	19922944	18	3940
2026-01-28 04:59:15.97	214.82	37.48	-24.7	-24.7	17.3	0.00e+00	0	43	0	34603008	10	3612
2026-01-28 04:59:17.98	214.64	37.00	-25.3	-26.0	16.4	0.00e+00	0	43	0	49283072	10	3916
2026-01-28 04:59:19.98	214.48	36.53	-24.2	-24.3	17.7	0.00e+00	0	43	0	62914560	9	3620
2026-01-28 04:59:21.98	214.32	36.06	-23.6	-23.5	18.4	0.00e+00	0	43	0	77594624	8	3536
2026-01-28 04:59:23.99	214.16	35.60	-23.3	-23.8	18.7	0.00e+00	0	43	0	92274688	6	3815
2026-01-28 04:59:25.99	214.01	35.15	-23.1	-23.4	18.9	0.00e+00	0	43	0	106954752	6	3717
2026-01-28 04:59:28.01	213.86	34.70	-22.9	-23.0	19.1	0.00e+00	0	43	0	121634816	6	3633
2026-01-28 04:59:30.01	213.72	34.26	-22.7	-23.1	19.3	0.00e+00	0	43	0	136314880	5	3753
2026-01-28 04:59:32.02	213.58	33.83	-22.7	-22.9	19.3	0.00e+00	0	43	0	149946368	5	3723
2026-01-28 04:59:34.03	213.44	33.40	-22.8	-23.3	19.1	0.00e+00	0	43	0	164626432	5	3808
2026-01-28 04:59:36.05	213.31	32.97	-23.0	-23.7	19.0	0.00e+00	0	43	0	179306496	5	3889
2026-01-28 04:59:38.06	213.18	32.55	-23.4	-24.1	18.5	0.00e+00	0	43	0	193986560	6	3886
2026-01-28 04:59:40.06	213.06	32.14	-23.3	-23.7	18.7	0.00e+00	0	43	0	208666624	6	3805
2026-01-28 04:59:42.06	212.93	31.74	-23.2	-23.7	18.7	0.00e+00	0	43	0	223346688	6	3782
2026-01-28 04:59:44.06	212.82	31.34	-23.2	-23.6	18.7	0.00e+00	0	43	0	236978176	6	3768
2026-01-28 04:59:46.07	212.70	30.94	-23.1	-23.4	18.8	0.00e+00	0	43	0	251658240	6	3728
2026-01-28 04:59:48.08	212.59	30.55	-23.1	-23.4	18.8	0.00e+00	0	43	0	266338304	6	3717
2026-01-28 04:59:50.09	212.48	30.16	-23.2	-23.6	18.7	0.00e+00	0	43	0	281018368	6	3776
2026-01-28 04:59:52.09	212.37	29.78	-23.4	-24.0	18.5	0.00e+00	0	43	0	294649856	6	3847
2026-01-28 04:59:54.10	212.27	29.41	-23.5	-24.2	18.4	0.00e+00	0	43	0	310378496	6	3910
2026-01-28 04:59:56.11	212.16	29.03	-23.6	-24.4	18.3	0.00e+00	0	43	0	324009984	6	3952
2026-01-28 04:59:58.12	212.06	28.67	-23.7	-24.1	18.2	0.00e+00	0	43	0	338690048	7	3782
2026-01-28 05:00:00.12	211.97	28.31	-23.7	-24.1	18.2	0.00e+00	0	43	0	353370112	7	3780
2026-01-28 05:00:02.11	211.87	27.95	-23.6	-24.0	18.3	0.00e+00	0	43	0	368050176	7	3756
2026-01-28 05:00:04.09	211.78	27.61	-23.6	-24.0	18.2	0.00e+00	0	43	0	381681664	7	3756
2026-01-28 05:00:06.09	211.69	27.26	-23.7	-24.2	18.1	0.00e+00	0	43	0	396361728	7	3814
2026-01-28 05:00:08.08	211.60	26.92	-23.5	-23.7	18.4	0.00e+00	0	43	0	411041792	7	3699
2026-01-28 05:00:10.09	211.52	26.58	-23.6	-23.9	17.9	2.20e-06	0	43	0	424673280	7	3726
2026-01-28 05:00:12.09	211.43	26.24	-23.8	-24.3	18.0	0.00e+00	0	43	0	439353344	7	3831
2026-01-28 05:00:14.07	211.35	25.92	-23.8	-24.5	17.9	0.00e+00	0	43	0	454033408	7	3864
2026-01-28 05:00:16.06	211.27	25.59	-24.0	-24.7	17.8	1.10e-06	0	43	0	468713472	7	3923
2026-01-28 05:00:18.05	211.19	25.27	-24.2	-24.6	17.6	0.00e+00	0	43	0	482344960	8	3800
2026-01-28 05:00:20.05	211.11	24.95	-23.9	-24.1	17.9	0.00e+00	0	43	0	497025024	8	3676
2026-01-28 05:00:22.04	211.04	24.64	-23.9	-24.1	17.8	0.00e+00	0	43	0	511705088	8	3686
2026-01-28 05:00:24.05	210.96	24.32	-23.8	-23.9	18.0	0.00e+00	0	43	0	525336576	8	3635
2026-01-28 05:00:26.05	210.89	24.02	-23.9	-24.1	17.9	0.00e+00	0	43	0	540016640	8	3672
2026-01-28 05:00:28.05	210.82	23.71	-23.7	-23.7	18.1	0.00e+00	0	44	0	554696704	8	3587
2026-01-28 05:00:30.05	210.75	23.41	-23.6	-24.0	18.1	0.00e+00	0	43	0	569376768	7	3761
2026-01-28 05:00:32.06	210.68	23.11	-23.7	-24.2	13.7	0.00e+00	0	43	0	584056832	7	3796
2026-01-28 05:00:34.06	210.61	22.82	-23.6	-23.9	18.1	0.00e+00	0	43	0	598736896	7	3741
2026-01-28 05:00:36.06	210.55	22.53	-23.6	-23.9	18.1	0.00e+00	0	43	0	612368384	7	3739
2026-01-28 05:00:38.06	210.49	22.24	-23.6	-24.0	18.1	0.00e+00	0	44	0	627048448	7	3749
2026-01-28 05:00:40.07	210.42	21.95	-23.8	-24.3	17.9	0.00e+00	0	44	0	641728512	7	3825
2026-01-28 05:00:42.08	210.36	21.67	-23.7	-24.1	18.0	0.00e+00	0	43	0	656408576	7	3788
2026-01-28 05:00:44.09	210.30	21.39	-23.7	-24.2	18.0	0.00e+00	0	44	0	670040064	7	3816
2026-01-28 05:00:46.10	210.24	21.12	-23.8	-24.3	17.9	9.78e-04	0	44	0	684720128	7	3840
2026-01-28 05:00:48.10	210.18	20.84	-23.8	-24.5	17.8	0.00e+00	0	44	0	699400192	7	3870
2026-01-28 05:00:50.11	210.13	20.57	-24.0	-24.8	17.6	9.62e-04	0	43	0	714080256	7	3954
2026-01-28 05:00:52.11	210.07	20.31	-24.2	-24.6	17.5	9.82e-04	0	44	0	728760320	8	3803
2026-01-28 05:00:54.11	210.01	20.04	-24.2	-24.7	17.4	0.00e+00	0	43	0	743440384	8	3829
2026-01-28 05:00:56.11	209.96	19.78	-24.1	-24.6	17.5	8.75e-04	0	43	0	757071872	8	3791
2026-01-28 05:00:58.12	209.91	19.52	-24.0	-24.3	17.5	8.71e-04	0	44	0	771751936	8	3719
2026-01-28 05:01:00.13	209.86	19.27	-24.0	-24.4	17.5	0.00e+00	0	43	0	786432000	8	3740
2026-01-28 05:01:02.14	209.81	19.01	-24.1	-24.6	17.4	9.63e-04	0	44	0	801112064	8	3801
2026-01-28 05:01:04.15	209.76	18.76	-24.1	-24.6	17.4	8.83e-04	0	44	0	815792128	8	3801
2026-01-28 05:01:06.16	209.71	18.51	-24.2	-24.8	17.3	0.00e+00	0	44	0	830472192	8	3839
2026-01-28 05:01:08.16	209.66	18.26	-24.4	-25.2	17.1	0.00e+00	0	44	0	844103680	8	3943
2026-01-28 05:01:10.17	209.61	18.02	-24.5	-25.3	17.0	1.02e-03	0	43	0	858783744	8	3964
2026-01-28 05:01:12.18	209.56	17.78	-24.5	-25.5	16.9	0.00e+00	0	44	0	873463808	8	4000
2026-01-28 05:01:14.18	209.52	17.54	-24.6	-25.2	16.8	0.00e+00	0	44	0	888143872	9	3822
2026-01-28 05:01:16.19	209.47	17.30	-24.8	-25.5	16.6	0.00e+00	0	44	0	901775360	9	3902
2026-01-28 05:01:18.19	209.43	17.07	-24.8	-25.6	16.6	0.00e+00	0	44	0	916455424	9	3920
2026-01-28 05:01:20.20	209.39	16.84	-25.0	-25.8	16.4	0.00e+00	0	44	0	931135488	9	3987
2026-01-28 05:01:22.20	209.34	16.61	-25.0	-25.9	16.4	0.00e+00	0	44	0	945815552	9	4000
2026-01-28 05:01:24.20	209.30	16.38	-25.0	-26.0	16.3	0.00e+00	0	44	0	959447040	9	4012
2026-01-28 05:01:26.19	209.26	16.16	-25.1	-25.7	16.2	0.00e+00	0	44	0	974127104	10	3842
2026-01-28 05:01:28.19	209.22	15.93	-25.1	-25.6	16.2	0.00e+00	0	44	0	988807168	10	3823
2026-01-28 05:01:30.20	209.18	15.71	-25.2	-25.9	16.1	0.00e+00	0	44	0	1003487232	10	3906
2026-01-28 05:01:32.21	209.14	15.49	-25.3	-26.0	16.0	0.00e+00	0	44	0	1018167296	10	3929
2026-01-28 05:01:34.23	209.10	15.27	-25.3	-26.1	15.9	0.00e+00	0	44	0	1032847360	10	3948
2026-01-28 05:01:36.23	209.07	15.05	-25.6	-26.3	15.6	0.00e+00	0	44	0	1046478848	11	3888
2026-01-28 05:01:38.23	209.03	14.84	-25.4	-26.4	15.8	0.00e+00	0	44	0	1061158912	10	4028
2026-01-28 05:01:40.24	208.99	14.63	-25.4	-26.4	15.7	0.00e+00	0	44	0	1075838976	10	4018
2026-01-28 05:01:42.24	208.96	14.42	-25.5	-26.5	15.7	0.00e+00	0	44	0	1090519040	10	4035
2026-01-28 05:01:44.24	208.92	14.21	-25.3	-26.1	15.9	0.00e+00	0	44	0	1104150528	10	3938
2026-01-28 05:01:46.25	208.89	14.00	-25.3	-26.2	15.8	0.00e+00	0	44	0	1119879168	10	3969
2026-01-28 05:01:48.26	208.85	13.80	-25.3	-26.2	15.8	0.00e+00	0	44	0	1133510656	10	3963
2026-01-28 05:01:50.25	208.82	13.60	-25.3	-26.1	15.8	0.00e+00	0	44	0	1148190720	10	3946
2026-01-28 05:01:52.25	208.79	13.40	-25.4	-26.4	15.6	0.00e+00	0	44	0	1162870784	10	4027
2026-01-28 05:01:54.26	208.75	13.19	-25.5	-26.5	15.6	0.00e+00	0	44	0	1177550848	10	4055
2026-01-28 05:01:56.27	208.72	13.00	-25.6	-26.7	15.5	0.00e+00	0	44	0	1191182336	10	4093
2026-01-28 05:01:58.27	208.69	12.80	-25.6	-26.3	15.4	0.00e+00	0	43	0	1205862400	11	3889
2026-01-28 05:02:00.28	208.66	12.60	-25.9	-27.0	15.0	1.10e-06	0	44	0	1220542464	11	4076
2026-01-28 05:02:02.27	208.63	12.41	-25.6	-26.3	15.4	0.00e+00	0	44	0	1235222528	11	3893
2026-01-28 05:02:04.27	208.60	12.22	-25.7	-26.5	15.3	0.00e+00	0	44	0	1248854016	11	3958
2026-01-28 05:02:06.29	208.57	12.03	-25.7	-26.5	15.2	0.00e+00	0	44	0	1263534080	11	3957
2026-01-28 05:02:08.29	208.54	11.84	-25.7	-26.5	15.2	0.00e+00	0	44	0	1278214144	11	3939
2026-01-28 05:02:10.30	208.51	11.65	-25.8	-26.6	15.2	0.00e+00	0	44	0	1292894208	11	3971
2026-01-28 05:02:12.30	208.48	11.47	-25.8	-26.6	15.2	0.00e+00	0	44	0	1307574272	11	3978
2026-01-28 05:02:14.31	208.45	11.28	-25.8	-26.8	15.0	0.00e+00	0	44	0	1322254336	11	4015
2026-01-28 05:02:16.32	208.43	11.10	-25.9	-26.9	15.0	0.00e+00	0	44	0	1335885824	11	4048
2026-01-28 05:02:18.32	208.40	10.91	-25.9	-26.9	14.9	0.00e+00	0	43	0	1350565888	11	4055
2026-01-28 05:02:20.33	208.37	10.73	-26.0	-27.2	14.8	1.10e-06	0	44	0	1365245952	11	4138
2026-01-28 05:02:22.33	208.35	10.55	-26.0	-26.6	14.7	0.00e+00	0	44	0	1379926016	12	3881
2026-01-28 05:02:24.34	208.32	10.38	-26.3	-27.4	14.3	1.10e-06	0	44	0	1393557504	12	4076
2026-01-28 05:02:26.34	208.30	10.20	-26.4	-27.6	14.2	1.10e-06	0	44	0	1408237568	12	4115
2026-01-28 05:02:28.34	208.27	10.02	-26.5	-27.4	14.0	2.20e-06	0	44	0	1422917632	13	3982
2026-01-28 05:02:30.35	208.25	9.85	-26.5	-27.8	14.0	8.00e-06	0	44	0	1437597696	12	4180
2026-01-28 05:02:32.35	208.22	9.68	-26.5	-27.3	14.0	5.70e-06	0	44	0	1452277760	13	3959
2026-01-28 05:02:34.36	208.20	9.50	-26.4	-27.7	14.1	1.10e-06	0	44	0	1466957824	12	4149
2026-01-28 05:02:36.37	208.17	9.33	-26.6	-27.5	13.8	4.50e-06	0	44	0	1480589312	13	4010
2026-01-28 05:02:38.38	208.15	9.16	-26.7	-27.9	13.6	1.02e-05	0	44	0	1495269376	13	4096
2026-01-28 05:02:40.38	208.13	8.99	-26.6	-27.5	13.8	1.17e-03	0	44	0	1509949440	13	4017
2026-01-28 05:02:42.39	208.10	8.83	-26.6	-28.0	13.8	1.20e-03	0	43	0	1524629504	12	4252
2026-01-28 05:02:44.39	208.08	8.66	-26.7	-27.8	13.6	9.10e-06	0	43	0	1539309568	13	4085
2026-01-28 05:02:46.40	208.06	8.49	-26.9	-28.3	13.3	1.83e-05	0	44	0	1552941056	13	4219
2026-01-28 05:02:48.40	208.04	8.33	-27.0	-28.4	13.2	1.76e-03	0	44	0	1567621120	13	4248
2026-01-28 05:02:50.40	208.02	8.17	-26.8	-28.0	13.4	9.10e-06	0	44	0	1582301184	13	4155
2026-01-28 05:02:52.40	208.00	8.01	-26.9	-28.2	13.3	1.57e-03	0	44	0	1596981248	13	4206
2026-01-28 05:02:54.41	207.97	7.85	-26.9	-28.2	13.3	1.61e-03	0	44	0	1611661312	13	4187
2026-01-28 05:02:56.41	207.95	7.69	-27.2	-28.5	12.8	8.58e-05	0	44	0	1625292800	14	4163
2026-01-28 05:02:58.43	207.93	7.53	-27.2	-28.6	12.8	1.87e-03	0	44	0	1639972864	14	4191
2026-01-28 05:03:00.43	207.91	7.37	-27.3	-28.6	12.7	1.91e-03	0	44	0	1654652928	14	4204
2026-01-28 05:03:02.43	207.89	7.21	-27.5	-29.1	12.4	1.74e-04	0	44	0	1669332992	14	4359
2026-01-28 05:03:04.43	207.87	7.06	-31.1	-35.6	6.7	2.33e-03	0	44	0	1684013056	21	6011
2026-01-28 05:03:06.45	207.86	6.90	-33.6	-43.2	3.8	8.46e-01	0	44	104	1684013056	27	10811

#Closed at: 2026-01-28 05:03:07
#Recorded file [1684 MB]: D:/data/31010_260128_075911.dat