passes_logs/2026/01/28/R2M6_AANII_01/R2M6_AANII_01__20260128_162558_FENGYUN_3E_rec.log

#Pass ID: 20260128_162558_FENGYUN 3E
#Satellite: FENGYUN 3E
#Configuration: FENGYUN 3E
#almurnet v.1.7.20240730
#Start time: 2026-01-28 16:25:59

#Version: 2.2.20231116
#Station: R2M6_AANII_01
#Location: 30.233357 lon 59.946436 lat
#TLE: 1 49008U 21062A   26027.83084825  .00000170  00000+0  10081-3 0  9997
#TLE: 2 49008  98.7501  32.8098 0002509 114.2687 245.8752 14.19888158236667

#Time	Az	El	Level	Level2	SNR	BER	BlckErr	Temp	State	Recorded	gain1	gain2
2026-01-28 16:25:59.63	221.14	7.04	-28.7	-30.0	5.5	7.48e-01	0	41	0	0	18	4205
2026-01-28 16:26:02.64	221.46	7.22	-28.8	-30.2	10.6	4.08e-03	0	41	0	7340032	18	4256
2026-01-28 16:26:05.66	221.79	7.40	-28.7	-29.9	10.9	1.98e-03	0	42	0	28311552	18	4151
2026-01-28 16:26:08.66	222.12	7.57	-27.5	-28.0	12.7	1.41e-04	0	42	0	50331648	16	3845
2026-01-28 16:26:11.68	222.45	7.75	-26.6	-27.2	13.6	1.02e-05	0	42	0	72351744	14	3833
2026-01-28 16:26:14.68	222.79	7.93	-26.9	-27.7	13.3	2.17e-05	0	42	0	93323264	14	3969
2026-01-28 16:26:17.68	223.13	8.11	-27.2	-28.4	12.9	6.63e-05	0	42	0	115343360	14	4148
2026-01-28 16:26:20.69	223.48	8.29	-26.8	-27.5	13.5	1.94e-05	0	42	0	137363456	14	3905
2026-01-28 16:26:23.70	223.83	8.47	-26.8	-27.4	13.5	1.02e-05	0	42	0	159383552	14	3893
2026-01-28 16:26:26.71	224.19	8.65	-26.6	-27.2	13.7	9.10e-06	0	42	0	180355072	14	3819
2026-01-28 16:26:29.73	224.55	8.83	-26.6	-27.1	13.7	8.00e-06	0	42	0	202375168	14	3803
2026-01-28 16:26:32.74	224.91	9.01	-26.5	-26.8	13.9	3.40e-06	0	42	0	224395264	14	3738
2026-01-28 16:26:35.76	225.28	9.19	-26.8	-27.6	13.4	1.02e-05	0	42	0	246415360	14	3933
2026-01-28 16:26:38.77	225.65	9.37	-26.6	-27.0	13.8	6.80e-06	0	42	0	267386880	14	3790
2026-01-28 16:26:41.79	226.03	9.56	-26.9	-27.8	13.4	1.37e-05	0	43	0	289406976	14	3985
2026-01-28 16:26:44.81	226.41	9.74	-26.4	-26.6	14.1	2.20e-06	0	42	0	311427072	14	3684
2026-01-28 16:26:47.81	226.80	9.92	-26.3	-27.0	14.2	4.50e-06	0	43	0	333447168	13	3862
2026-01-28 16:26:50.82	227.19	10.10	-26.3	-26.9	14.2	5.70e-06	0	43	0	354418688	13	3856
2026-01-28 16:26:53.83	227.58	10.29	-26.6	-27.6	13.8	6.80e-06	0	43	0	376438784	13	4024
2026-01-28 16:26:56.84	227.99	10.47	-26.4	-27.1	14.1	3.40e-06	0	43	0	398458880	13	3894
2026-01-28 16:26:59.84	228.39	10.65	-26.2	-26.6	14.5	0.00e+00	0	43	0	420478976	13	3763
2026-01-28 16:27:02.85	228.80	10.84	-26.0	-26.2	14.7	0.00e+00	0	43	0	441450496	13	3676
2026-01-28 16:27:05.86	229.21	11.02	-26.0	-26.1	14.7	0.00e+00	0	43	0	463470592	13	3665
2026-01-28 16:27:08.87	229.63	11.20	-26.0	-26.2	14.7	1.10e-06	0	43	0	484442112	13	3671
2026-01-28 16:27:11.86	230.06	11.38	-26.4	-27.0	14.2	0.00e+00	0	43	0	506462208	13	3873
2026-01-28 16:27:14.87	230.49	11.57	-26.2	-26.7	14.4	1.10e-06	0	43	0	528482304	13	3804
2026-01-28 16:27:17.87	230.92	11.75	-26.2	-26.5	14.5	1.10e-06	0	43	0	549453824	13	3750
2026-01-28 16:27:20.88	231.36	11.93	-26.0	-26.7	14.8	2.20e-06	0	43	0	571473920	12	3883
2026-01-28 16:27:23.88	231.81	12.11	-26.0	-26.6	14.8	1.10e-06	0	43	0	593494016	12	3867
2026-01-28 16:27:26.88	232.26	12.30	-25.9	-26.5	14.9	0.00e+00	0	43	0	614465536	12	3843
2026-01-28 16:27:29.89	232.72	12.48	-25.6	-25.8	15.3	0.00e+00	0	43	0	636485632	12	3688
2026-01-28 16:27:32.89	233.18	12.66	-25.5	-25.7	15.4	0.00e+00	0	43	0	658505728	12	3653
2026-01-28 16:27:35.89	233.64	12.84	-25.6	-25.7	15.3	0.00e+00	0	43	0	680525824	12	3664
2026-01-28 16:27:38.89	234.12	13.02	-25.6	-25.7	15.4	1.10e-06	0	43	0	701497344	12	3657
2026-01-28 16:27:41.90	234.59	13.20	-25.5	-25.5	15.5	0.00e+00	0	43	0	723517440	12	3604
2026-01-28 16:27:44.90	235.08	13.38	-25.8	-26.6	15.3	0.00e+00	0	43	0	745537536	11	3961
2026-01-28 16:27:47.90	235.57	13.56	-25.2	-25.3	15.9	0.00e+00	0	43	0	766509056	11	3665
2026-01-28 16:27:50.91	236.06	13.74	-25.4	-25.8	15.7	0.00e+00	0	43	0	788529152	11	3772
2026-01-28 16:27:53.93	236.57	13.92	-25.3	-25.5	15.9	0.00e+00	0	43	0	810549248	11	3705
2026-01-28 16:27:56.93	237.08	14.10	-25.2	-25.3	16.0	0.00e+00	0	43	0	832569344	11	3668
2026-01-28 16:27:59.92	237.59	14.27	-25.1	-25.1	16.1	0.00e+00	0	43	0	853540864	11	3621
2026-01-28 16:28:02.92	238.11	14.45	-25.1	-25.1	16.1	0.00e+00	0	43	0	875560960	11	3602
2026-01-28 16:28:05.93	238.63	14.62	-25.0	-25.0	16.2	0.00e+00	0	44	0	897581056	11	3579
2026-01-28 16:28:08.95	239.17	14.80	-25.2	-25.4	16.0	0.00e+00	0	43	0	918552576	11	3679
2026-01-28 16:28:11.95	239.70	14.97	-25.0	-25.4	16.3	0.00e+00	0	43	0	940572672	10	3780
2026-01-28 16:28:14.96	240.25	15.14	-24.9	-25.3	16.3	0.00e+00	0	43	0	962592768	10	3757
2026-01-28 16:28:17.97	240.80	15.31	-25.2	-25.8	16.1	0.00e+00	0	43	0	983564288	10	3870
2026-01-28 16:28:20.99	241.36	15.48	-24.9	-25.1	16.4	0.00e+00	0	43	0	1005584384	10	3716
2026-01-28 16:28:24.00	241.92	15.65	-25.0	-25.4	16.3	0.00e+00	0	43	0	1027604480	10	3784
2026-01-28 16:28:27.01	242.49	15.82	-25.0	-25.3	16.3	0.00e+00	0	43	0	1048576000	10	3758
2026-01-28 16:28:30.02	243.06	15.98	-24.9	-25.2	16.4	0.00e+00	0	44	0	1070596096	10	3734
2026-01-28 16:28:33.03	243.64	16.15	-25.1	-25.7	16.2	0.00e+00	0	43	0	1092616192	10	3837
2026-01-28 16:28:36.05	244.23	16.31	-24.8	-25.0	16.5	0.00e+00	0	44	0	1114636288	10	3693
2026-01-28 16:28:39.06	244.83	16.47	-24.6	-24.5	16.8	0.00e+00	0	44	0	1135607808	10	3571
2026-01-28 16:28:42.08	245.43	16.63	-24.3	-24.5	17.1	0.00e+00	0	44	0	1157627904	9	3669
2026-01-28 16:28:45.08	246.03	16.78	-24.7	-25.2	16.7	0.00e+00	0	44	0	1179648000	9	3839
2026-01-28 16:28:48.09	246.64	16.94	-24.8	-25.5	16.6	0.00e+00	0	44	0	1201668096	9	3900
2026-01-28 16:28:51.10	247.26	17.09	-24.7	-25.3	16.7	0.00e+00	0	44	0	1222639616	9	3845
2026-01-28 16:28:54.12	247.89	17.24	-24.6	-25.1	16.8	0.00e+00	0	44	0	1244659712	9	3813
2026-01-28 16:28:57.12	248.52	17.38	-24.9	-25.7	16.5	0.00e+00	0	43	0	1266679808	9	3940
2026-01-28 16:29:00.13	249.15	17.53	-24.4	-24.7	17.0	0.00e+00	0	44	0	1287651328	9	3727
2026-01-28 16:29:03.13	249.79	17.67	-24.4	-24.7	17.0	0.00e+00	0	44	0	1309671424	9	3712
2026-01-28 16:29:06.14	250.44	17.81	-24.7	-25.3	16.8	0.00e+00	0	44	0	1331691520	9	3845
2026-01-28 16:29:09.15	251.09	17.95	-24.4	-24.7	17.0	0.00e+00	0	44	0	1353711616	9	3708
2026-01-28 16:29:12.16	251.75	18.08	-24.6	-25.1	16.8	0.00e+00	0	44	0	1374683136	9	3819
2026-01-28 16:29:15.18	252.42	18.21	-24.9	-25.7	16.5	0.00e+00	0	44	0	1396703232	9	3945
2026-01-28 16:29:18.18	253.09	18.34	-24.7	-25.3	16.8	0.00e+00	0	44	0	1418723328	9	3846
2026-01-28 16:29:21.20	253.76	18.46	-24.7	-25.2	16.7	0.00e+00	0	44	0	1440743424	9	3839
2026-01-28 16:29:24.21	254.45	18.58	-24.9	-25.8	16.5	0.00e+00	0	44	0	1461714944	9	3964
2026-01-28 16:29:27.22	255.13	18.70	-24.9	-25.6	16.5	0.00e+00	0	44	0	1483735040	9	3934
2026-01-28 16:29:30.24	255.83	18.82	-24.8	-24.9	16.7	0.00e+00	0	44	0	1505755136	10	3662
2026-01-28 16:29:33.25	256.52	18.93	-24.3	-24.5	17.1	0.00e+00	0	44	0	1527775232	9	3674
2026-01-28 16:29:36.26	257.22	19.03	-24.4	-24.7	17.0	0.00e+00	0	44	0	1548746752	9	3717
2026-01-28 16:29:39.27	257.93	19.14	-24.8	-25.5	16.6	0.00e+00	0	44	0	1570766848	9	3905
2026-01-28 16:29:42.28	258.64	19.23	-24.4	-24.7	17.1	0.00e+00	0	44	0	1592786944	9	3714
2026-01-28 16:29:45.29	259.35	19.33	-24.1	-24.0	17.4	0.00e+00	0	44	0	1614807040	9	3552
2026-01-28 16:29:48.31	260.07	19.42	-24.1	-24.1	17.4	0.00e+00	0	44	0	1635778560	9	3579
2026-01-28 16:29:51.31	260.79	19.51	-24.3	-24.3	17.3	0.00e+00	0	44	0	1657798656	9	3629
2026-01-28 16:29:54.31	261.52	19.59	-24.2	-24.3	17.3	0.00e+00	0	44	0	1678770176	9	3626
2026-01-28 16:29:57.32	262.25	19.67	-24.3	-24.3	17.3	0.00e+00	0	44	0	1700790272	9	3634
2026-01-28 16:30:00.34	262.99	19.74	-24.3	-24.5	17.2	0.00e+00	0	44	0	1722810368	9	3682
2026-01-28 16:30:03.36	263.73	19.81	-24.5	-24.8	17.0	0.00e+00	0	44	0	1744830464	9	3735
2026-01-28 16:30:06.36	264.46	19.88	-24.4	-24.7	17.1	0.00e+00	0	44	0	1765801984	9	3706
2026-01-28 16:30:09.37	265.21	19.94	-24.2	-24.3	17.3	0.00e+00	0	44	0	1787822080	9	3618
2026-01-28 16:30:12.36	265.95	20.00	-23.9	-23.6	17.7	0.00e+00	0	44	0	1809842176	9	3465
2026-01-28 16:30:15.36	266.70	20.05	-24.0	-24.2	17.6	0.00e+00	0	44	0	1830813696	8	3712
2026-01-28 16:30:18.37	267.45	20.09	-24.1	-24.4	17.6	0.00e+00	0	44	0	1852833792	8	3749
2026-01-28 16:30:21.37	268.20	20.13	-24.2	-24.7	17.4	0.00e+00	0	44	0	1874853888	8	3818
2026-01-28 16:30:24.38	268.95	20.17	-24.3	-24.9	17.2	0.00e+00	0	44	0	1896873984	8	3874
2026-01-28 16:30:27.38	269.71	20.20	-24.2	-24.7	17.3	0.00e+00	0	44	0	1917845504	8	3823
2026-01-28 16:30:30.39	270.46	20.23	-24.2	-24.7	17.4	0.00e+00	0	44	0	1939865600	8	3805
2026-01-28 16:30:33.40	271.22	20.25	-24.1	-24.5	17.4	0.00e+00	0	44	0	1961885696	8	3780
2026-01-28 16:30:36.41	271.98	20.27	-24.3	-24.9	17.2	0.00e+00	0	44	0	1982857216	8	3868
2026-01-28 16:30:39.42	272.74	20.28	-24.0	-24.3	17.6	0.00e+00	0	44	0	2004877312	8	3730
2026-01-28 16:30:42.43	273.50	20.29	-24.1	-24.4	17.5	0.00e+00	0	44	0	2026897408	8	3750
2026-01-28 16:30:45.44	274.27	20.29	-24.1	-24.6	17.4	0.00e+00	0	44	0	2048917504	8	3793
2026-01-28 16:30:48.46	275.03	20.29	-24.0	-24.3	17.6	0.00e+00	0	44	0	2069889024	8	3731
2026-01-28 16:30:51.47	275.79	20.28	-24.0	-24.2	17.6	0.00e+00	0	44	0	2091909120	8	3702
2026-01-28 16:30:54.48	276.55	20.27	-24.1	-24.6	17.4	0.00e+00	0	44	0	2113929216	8	3787
2026-01-28 16:30:57.49	277.31	20.25	-24.4	-25.1	17.2	0.00e+00	0	44	0	2135949312	8	3898
2026-01-28 16:31:00.50	278.07	20.23	-24.5	-25.3	17.1	0.00e+00	0	44	0	2156920832	8	3957
2026-01-28 16:31:03.51	278.83	20.20	-24.7	-25.2	16.9	0.00e+00	0	44	0	2178940928	9	3835
2026-01-28 16:31:06.53	279.58	20.17	-24.4	-24.6	17.2	0.00e+00	0	44	0	2200961024	9	3690
2026-01-28 16:31:09.55	280.34	20.13	-24.5	-24.8	17.1	0.00e+00	0	44	0	2222981120	9	3725
2026-01-28 16:31:12.55	281.09	20.09	-24.5	-24.8	17.0	0.00e+00	0	44	0	2243952640	9	3749
2026-01-28 16:31:15.56	281.84	20.04	-24.2	-24.2	17.3	0.00e+00	0	44	0	2265972736	9	3611
2026-01-28 16:31:18.58	282.59	19.99	-24.3	-24.4	17.3	0.00e+00	0	44	0	2287992832	9	3642
2026-01-28 16:31:21.59	283.34	19.94	-24.3	-24.4	17.3	0.00e+00	0	44	0	2308964352	9	3643
2026-01-28 16:31:24.60	284.08	19.87	-24.3	-24.4	17.3	0.00e+00	0	44	0	2330984448	9	3640
2026-01-28 16:31:27.62	284.82	19.81	-24.4	-24.6	17.2	0.00e+00	0	44	0	2353004544	9	3694
2026-01-28 16:31:30.62	285.55	19.74	-24.4	-24.6	17.1	0.00e+00	0	44	0	2373976064	9	3700
2026-01-28 16:31:33.63	286.29	19.66	-24.3	-24.4	17.3	0.00e+00	0	44	0	2395996160	9	3635
2026-01-28 16:31:36.64	287.01	19.59	-24.3	-24.4	17.2	0.00e+00	0	44	0	2418016256	9	3634
2026-01-28 16:31:39.64	287.74	19.50	-24.4	-24.6	17.2	0.00e+00	0	44	0	2440036352	9	3692
2026-01-28 16:31:42.66	288.46	19.42	-24.4	-24.5	17.2	0.00e+00	0	44	0	2461007872	9	3675
2026-01-28 16:31:45.66	289.17	19.33	-24.3	-24.4	17.3	0.00e+00	0	44	0	2483027968	9	3646
2026-01-28 16:31:48.66	289.88	19.23	-24.2	-24.3	17.3	0.00e+00	0	44	0	2505048064	9	3617
2026-01-28 16:31:51.67	290.59	19.13	-24.4	-24.6	17.2	0.00e+00	0	44	0	2526019584	9	3682
2026-01-28 16:31:54.68	291.30	19.03	-24.6	-25.0	16.9	0.00e+00	0	44	0	2548039680	9	3787
2026-01-28 16:31:57.69	291.99	18.92	-24.6	-25.0	16.9	0.00e+00	0	44	0	2570059776	9	3782
2026-01-28 16:32:00.70	292.69	18.81	-24.6	-25.0	16.9	0.00e+00	0	44	0	2592079872	9	3783
2026-01-28 16:32:03.71	293.38	18.70	-24.6	-25.1	16.9	0.00e+00	0	44	0	2613051392	9	3797
2026-01-28 16:32:06.72	294.06	18.58	-24.6	-25.0	17.0	0.00e+00	0	44	0	2635071488	9	3777
2026-01-28 16:32:09.74	294.74	18.46	-24.6	-25.0	16.9	0.00e+00	0	44	0	2657091584	9	3788
2026-01-28 16:32:12.75	295.41	18.34	-24.8	-25.4	16.7	0.00e+00	0	44	0	2679111680	9	3890
2026-01-28 16:32:15.76	296.08	18.21	-24.6	-25.1	16.9	0.00e+00	0	44	0	2700083200	9	3797
2026-01-28 16:32:18.78	296.75	18.08	-24.7	-25.3	16.8	0.00e+00	0	44	0	2722103296	9	3847
2026-01-28 16:32:21.79	297.40	17.95	-24.7	-25.4	16.7	0.00e+00	0	44	0	2744123392	9	3866
2026-01-28 16:32:24.79	298.05	17.81	-24.8	-25.5	16.7	0.00e+00	0	44	0	2766143488	9	3894
2026-01-28 16:32:27.80	298.70	17.67	-24.9	-25.7	16.5	0.00e+00	0	44	0	2787115008	9	3949
2026-01-28 16:32:30.82	299.34	17.53	-25.0	-25.3	16.5	0.00e+00	0	44	0	2809135104	10	3760
2026-01-28 16:32:33.84	299.97	17.39	-24.9	-25.2	16.6	0.00e+00	0	44	0	2831155200	10	3713
2026-01-28 16:32:36.84	300.60	17.24	-24.9	-25.1	16.6	0.00e+00	0	44	0	2853175296	10	3700
2026-01-28 16:32:39.84	301.22	17.09	-24.9	-25.3	16.5	0.00e+00	0	44	0	2874146816	10	3743
2026-01-28 16:32:42.86	301.83	16.94	-25.0	-25.4	16.4	0.00e+00	0	44	0	2896166912	10	3775
2026-01-28 16:32:45.88	302.45	16.79	-25.1	-25.7	16.3	0.00e+00	0	44	0	2917138432	10	3849
2026-01-28 16:32:48.89	303.05	16.63	-25.1	-25.7	16.3	0.00e+00	0	44	0	2939158528	10	3833
2026-01-28 16:32:51.88	303.64	16.48	-25.1	-25.6	16.4	0.00e+00	0	44	0	2961178624	10	3813
2026-01-28 16:32:54.88	304.23	16.32	-25.3	-26.0	16.1	0.00e+00	0	44	0	2983198720	10	3917
2026-01-28 16:32:57.89	304.82	16.16	-25.1	-25.6	16.3	0.00e+00	0	44	0	3004170240	10	3820
2026-01-28 16:33:00.90	305.39	16.00	-25.0	-25.4	16.4	0.00e+00	0	44	0	3026190336	10	3761
2026-01-28 16:33:03.92	305.97	15.83	-25.2	-25.9	16.1	0.00e+00	0	44	0	3048210432	10	3895
2026-01-28 16:33:06.93	306.54	15.67	-25.5	-26.5	15.8	0.00e+00	0	44	0	3070230528	10	4039
2026-01-28 16:33:09.95	307.10	15.50	-25.7	-26.5	15.5	0.00e+00	0	44	0	3091202048	11	3937
2026-01-28 16:33:12.95	307.65	15.33	-25.4	-25.9	15.9	0.00e+00	0	44	0	3113222144	11	3779
2026-01-28 16:33:15.97	308.20	15.16	-25.6	-26.2	15.7	0.00e+00	0	44	0	3135242240	11	3853
2026-01-28 16:33:18.97	308.74	14.99	-25.8	-26.8	15.4	0.00e+00	0	44	0	3156213760	11	4000
2026-01-28 16:33:21.98	309.28	14.82	-25.7	-26.5	15.6	0.00e+00	0	44	0	3178233856	11	3926
2026-01-28 16:33:25.00	309.81	14.65	-25.6	-26.3	15.6	0.00e+00	0	44	0	3200253952	11	3871
2026-01-28 16:33:28.00	310.33	14.47	-26.0	-27.0	15.2	0.00e+00	0	44	0	3222274048	11	4062
2026-01-28 16:33:31.02	310.85	14.30	-25.7	-26.4	15.5	0.00e+00	0	44	0	3243245568	11	3922
2026-01-28 16:33:34.04	311.36	14.12	-25.8	-26.7	15.4	0.00e+00	0	44	0	3265265664	11	3977
2026-01-28 16:33:37.05	311.87	13.95	-25.9	-26.8	15.3	0.00e+00	0	44	0	3287285760	11	4018
2026-01-28 16:33:40.06	312.37	13.77	-26.0	-27.0	15.2	0.00e+00	0	44	0	3309305856	11	4064
2026-01-28 16:33:43.08	312.87	13.59	-26.0	-27.1	15.1	0.00e+00	0	44	0	3330277376	11	4101
2026-01-28 16:33:46.08	313.36	13.41	-25.8	-26.7	15.3	0.00e+00	0	44	0	3352297472	11	3990
2026-01-28 16:33:49.09	313.84	13.23	-25.8	-26.6	15.4	0.00e+00	0	44	0	3374317568	11	3969
2026-01-28 16:33:52.10	314.32	13.05	-25.5	-26.0	15.7	0.00e+00	0	44	0	3396337664	11	3829
2026-01-28 16:33:55.11	314.79	12.87	-25.7	-26.6	15.4	0.00e+00	0	44	0	3417309184	11	3949
2026-01-28 16:33:58.11	315.25	12.70	-25.9	-27.0	15.2	1.10e-06	0	44	0	3439329280	11	4048
2026-01-28 16:34:01.11	315.71	12.52	-26.4	-27.4	14.6	0.00e+00	0	44	0	3461349376	12	4062
2026-01-28 16:34:04.11	316.17	12.34	-26.2	-27.1	14.7	1.10e-06	0	44	0	3482320896	12	3987
2026-01-28 16:34:07.12	316.62	12.15	-26.1	-26.9	14.8	1.10e-06	0	44	0	3504340992	12	3932
2026-01-28 16:34:10.14	317.06	11.97	-25.9	-26.3	15.1	0.00e+00	0	44	0	3526361088	12	3795
2026-01-28 16:34:13.15	317.50	11.79	-25.8	-26.3	15.2	0.00e+00	0	44	0	3547332608	12	3779
2026-01-28 16:34:16.16	317.94	11.61	-25.7	-26.1	15.3	0.00e+00	0	44	0	3569352704	12	3736
2026-01-28 16:34:19.16	318.36	11.43	-25.9	-26.5	15.0	0.00e+00	0	44	0	3591372800	12	3844
2026-01-28 16:34:22.17	318.79	11.25	-26.1	-26.8	14.8	0.00e+00	0	44	0	3612344320	12	3908
2026-01-28 16:34:25.18	319.21	11.07	-26.3	-27.3	14.5	1.10e-06	0	44	0	3634364416	12	4044
2026-01-28 16:34:28.20	319.62	10.88	-26.7	-27.7	14.0	1.10e-06	0	44	0	3656384512	13	4041
2026-01-28 16:34:31.21	320.03	10.70	-26.6	-27.4	14.2	1.10e-06	0	44	0	3678404608	13	3970
2026-01-28 16:34:34.22	320.43	10.52	-26.5	-27.4	14.2	3.40e-06	0	44	0	3699376128	13	3958
2026-01-28 16:34:37.22	320.83	10.34	-26.4	-27.1	14.3	0.00e+00	0	44	0	3721396224	13	3896
2026-01-28 16:34:40.23	321.23	10.16	-26.5	-27.2	14.2	3.40e-06	0	44	0	3743416320	13	3924
2026-01-28 16:34:43.25	321.62	9.98	-26.5	-27.3	14.2	0.00e+00	0	44	0	3765436416	13	3937
2026-01-28 16:34:46.26	322.00	9.80	-26.5	-27.4	14.1	1.10e-06	0	44	0	3786407936	13	3965
2026-01-28 16:34:49.27	322.38	9.62	-26.6	-27.5	14.0	5.70e-06	0	44	0	3808428032	13	3988
2026-01-28 16:34:52.27	322.76	9.44	-26.7	-27.7	13.9	1.10e-06	0	44	0	3830448128	13	4042
2026-01-28 16:34:55.28	323.13	9.26	-27.0	-28.4	13.5	1.48e-05	0	44	0	3852468224	13	4222
2026-01-28 16:34:58.29	323.50	9.08	-26.7	-27.7	13.9	1.02e-05	0	44	0	3873439744	13	4045
2026-01-28 16:35:01.31	323.86	8.90	-26.8	-28.0	13.7	5.70e-06	0	44	0	3895459840	13	4116
2026-01-28 16:35:04.32	324.22	8.72	-26.8	-27.9	13.8	1.10e-06	0	44	0	3917479936	13	4094
2026-01-28 16:35:07.33	324.58	8.54	-26.9	-28.2	13.6	1.25e-05	0	44	0	3938451456	13	4176
2026-01-28 16:35:10.33	324.93	8.36	-27.3	-28.6	13.0	4.46e-05	0	44	0	3960471552	14	4191
2026-01-28 16:35:13.34	325.27	8.18	-27.0	-27.9	13.4	5.70e-06	0	44	0	3982491648	14	3989
2026-01-28 16:35:16.35	325.61	8.01	-27.0	-27.8	13.5	1.02e-05	0	44	0	4004511744	14	3979
2026-01-28 16:35:19.36	325.95	7.83	-26.8	-27.5	13.6	4.50e-06	0	44	0	4025483264	14	3899
2026-01-28 16:35:22.36	326.29	7.65	-26.9	-27.8	13.5	9.10e-06	0	44	0	4047503360	14	3959
2026-01-28 16:35:25.36	326.62	7.48	-26.9	-27.8	13.4	1.14e-05	0	44	0	4068474880	14	3973
2026-01-28 16:35:28.37	326.94	7.30	-27.3	-28.5	13.0	5.14e-05	0	44	0	4090494976	14	4173
2026-01-28 16:35:31.37	327.26	7.13	-27.4	-28.9	12.7	9.38e-05	0	44	0	4112515072	14	4271

#Closed at: 2026-01-28 16:35:34
#Recorded file [4119 MB]: D:/data/31010_260128_192601.dat