passes_logs/2026/01/28/R2M6_AANII_01/R2M6_AANII_01__20260128_144341_FENGYUN_3E_rec.log

#Pass ID: 20260128_144341_FENGYUN 3E
#Satellite: FENGYUN 3E
#Configuration: FENGYUN 3E
#almurnet v.1.7.20240730
#Start time: 2026-01-28 14:43:41

#Version: 2.2.20231116
#Station: R2M6_AANII_01
#Location: 30.233357 lon 59.946436 lat
#TLE: 1 49008U 21062A   26027.83084825  .00000170  00000+0  10081-3 0  9997
#TLE: 2 49008  98.7501  32.8098 0002509 114.2687 245.8752 14.19888158236667

#Time	Az	El	Level	Level2	SNR	BER	BlckErr	Temp	State	Recorded	gain1	gain2
2026-01-28 14:43:41.94	164.03	7.06	-29.8	-32.9	5.0	8.00e-01	0	41	0	0	20	5138
2026-01-28 14:43:44.95	164.07	7.30	-29.5	-32.3	8.5	4.13e-02	0	41	0	7340032	19	4995
2026-01-28 14:43:47.95	164.11	7.53	-29.4	-32.2	8.6	3.55e-02	0	41	0	28311552	19	4930
2026-01-28 14:43:50.96	164.14	7.77	-28.8	-30.9	9.7	1.37e-02	0	41	0	50331648	18	4616
2026-01-28 14:43:53.97	164.18	8.01	-27.1	-28.5	11.9	5.73e-04	0	41	0	72351744	15	4217
2026-01-28 14:43:56.99	164.22	8.26	-26.3	-27.6	12.9	3.31e-05	0	42	0	93323264	13	4216
2026-01-28 14:44:00.00	164.25	8.50	-25.8	-27.2	13.5	5.70e-06	0	42	0	115343360	12	4194
2026-01-28 14:44:03.02	164.29	8.75	-25.7	-26.9	13.7	2.20e-06	0	42	0	137363456	12	4115
2026-01-28 14:44:06.03	164.33	9.00	-25.7	-26.8	13.8	5.70e-06	0	42	0	159383552	12	4082
2026-01-28 14:44:09.04	164.37	9.25	-25.7	-26.8	13.8	3.40e-06	0	42	0	180355072	12	4091
2026-01-28 14:44:12.06	164.41	9.51	-25.5	-26.5	14.0	2.20e-06	0	42	0	202375168	12	4004
2026-01-28 14:44:15.08	164.45	9.77	-25.4	-26.5	14.3	1.10e-06	0	42	0	224395264	11	4118
2026-01-28 14:44:18.08	164.49	10.03	-25.4	-26.7	14.2	2.20e-06	0	42	0	246415360	11	4164
2026-01-28 14:44:21.11	164.53	10.30	-25.5	-26.7	14.2	0.00e+00	0	42	0	268435456	11	4176
2026-01-28 14:44:24.12	164.57	10.56	-25.2	-26.2	14.5	1.10e-06	0	42	0	289406976	11	4041
2026-01-28 14:44:27.14	164.62	10.83	-25.2	-26.2	14.6	0.00e+00	0	42	0	311427072	11	4037
2026-01-28 14:44:30.14	164.66	11.11	-25.2	-26.1	14.7	0.00e+00	0	42	0	333447168	11	4007
2026-01-28 14:44:33.15	164.70	11.38	-25.0	-25.8	14.9	0.00e+00	0	43	0	355467264	11	3915
2026-01-28 14:44:36.16	164.75	11.66	-25.3	-26.3	14.6	0.00e+00	0	43	0	376438784	11	4030
2026-01-28 14:44:39.17	164.79	11.94	-24.9	-25.5	15.1	0.00e+00	0	43	0	398458880	11	3839
2026-01-28 14:44:42.19	164.84	12.23	-24.8	-25.8	15.2	0.00e+00	0	43	0	420478976	10	4014
2026-01-28 14:44:45.20	164.88	12.52	-25.2	-26.5	14.8	0.00e+00	0	43	0	442499072	10	4208
2026-01-28 14:44:48.21	164.93	12.81	-24.6	-25.2	15.5	2.20e-06	0	43	0	463470592	10	3870
2026-01-28 14:44:51.22	164.98	13.11	-24.6	-25.1	15.6	0.00e+00	0	43	0	485490688	10	3855
2026-01-28 14:44:54.22	165.03	13.40	-24.5	-25.1	15.6	0.00e+00	0	43	0	506462208	10	3851
2026-01-28 14:44:57.23	165.08	13.71	-24.3	-25.2	15.8	0.00e+00	0	43	0	528482304	9	3970
2026-01-28 14:45:00.24	165.13	14.02	-24.9	-26.3	15.3	4.50e-06	0	43	0	550502400	9	4249
2026-01-28 14:45:03.25	165.18	14.33	-24.2	-24.8	16.1	0.00e+00	0	43	0	572522496	9	3856
2026-01-28 14:45:06.27	165.23	14.64	-24.3	-25.0	16.0	0.00e+00	0	43	0	593494016	9	3919
2026-01-28 14:45:09.28	165.29	14.96	-24.2	-24.9	16.0	1.10e-06	0	43	0	615514112	9	3886
2026-01-28 14:45:12.29	165.34	15.29	-24.2	-24.9	16.1	0.00e+00	0	43	0	637534208	9	3906
2026-01-28 14:45:15.30	165.39	15.61	-24.2	-24.9	16.0	0.00e+00	0	43	0	659554304	9	3902
2026-01-28 14:45:18.32	165.45	15.95	-24.2	-24.9	16.1	0.00e+00	0	43	0	680525824	9	3886
2026-01-28 14:45:21.34	165.51	16.28	-24.2	-24.9	16.1	0.00e+00	0	43	0	702545920	9	3911
2026-01-28 14:45:24.35	165.57	16.63	-24.1	-24.7	16.2	0.00e+00	0	43	0	724566016	9	3851
2026-01-28 14:45:27.36	165.63	16.97	-24.1	-24.6	16.3	0.00e+00	0	43	0	746586112	9	3811
2026-01-28 14:45:30.36	165.69	17.32	-24.2	-24.8	16.2	0.00e+00	0	43	0	767557632	9	3868
2026-01-28 14:45:33.38	165.75	17.68	-24.2	-24.8	16.2	0.00e+00	0	43	0	789577728	9	3873
2026-01-28 14:45:36.39	165.81	18.04	-24.2	-24.8	16.2	0.00e+00	0	43	0	811597824	9	3866
2026-01-28 14:45:39.40	165.88	18.41	-23.9	-24.6	16.6	0.00e+00	0	43	0	833617920	8	3908
2026-01-28 14:45:42.41	165.94	18.78	-23.6	-24.1	16.9	0.00e+00	0	43	0	854589440	8	3792
2026-01-28 14:45:45.41	166.01	19.16	-23.6	-23.9	16.9	0.00e+00	0	43	0	876609536	8	3757
2026-01-28 14:45:48.43	166.08	19.54	-23.4	-23.7	17.1	0.00e+00	0	43	0	898629632	8	3697
2026-01-28 14:45:51.44	166.15	19.94	-23.3	-24.0	17.1	0.00e+00	0	43	0	920649728	7	3873
2026-01-28 14:45:54.46	166.22	20.33	-23.1	-23.4	17.4	0.00e+00	0	43	0	941621248	7	3733
2026-01-28 14:45:57.48	166.29	20.74	-23.2	-23.7	17.2	0.00e+00	0	43	0	963641344	7	3819
2026-01-28 14:46:00.50	166.37	21.15	-23.2	-23.7	17.2	0.00e+00	0	43	0	985661440	7	3828
2026-01-28 14:46:03.50	166.44	21.56	-23.4	-24.2	17.0	0.00e+00	0	43	0	1007681536	7	3947
2026-01-28 14:46:06.51	166.52	21.99	-23.7	-24.8	16.7	0.00e+00	0	44	0	1028653056	7	4087
2026-01-28 14:46:09.52	166.60	22.42	-23.8	-25.1	16.5	0.00e+00	0	44	0	1050673152	7	4183
2026-01-28 14:46:12.54	166.69	22.86	-23.8	-24.6	16.5	0.00e+00	0	44	0	1072693248	8	3957
2026-01-28 14:46:15.54	166.77	23.30	-23.3	-24.1	17.0	0.00e+00	0	44	0	1094713344	7	3934
2026-01-28 14:46:18.56	166.86	23.75	-22.9	-23.3	17.4	0.00e+00	0	44	0	1115684864	7	3755
2026-01-28 14:46:21.57	166.95	24.21	-22.9	-23.7	17.5	0.00e+00	0	43	0	1137704960	6	3940
2026-01-28 14:46:24.56	167.04	24.68	-22.7	-23.2	17.7	0.00e+00	0	44	0	1158676480	6	3840
2026-01-28 14:46:27.58	167.13	25.16	-22.6	-23.1	17.7	0.00e+00	0	44	0	1180696576	6	3812
2026-01-28 14:46:30.59	167.23	25.65	-22.7	-23.2	17.8	0.00e+00	0	43	0	1202716672	6	3818
2026-01-28 14:46:33.60	167.33	26.14	-22.5	-22.9	17.9	0.00e+00	0	43	0	1224736768	6	3761
2026-01-28 14:46:36.60	167.43	26.64	-22.6	-23.0	17.9	0.00e+00	0	43	0	1245708288	6	3768
2026-01-28 14:46:39.62	167.53	27.16	-22.4	-23.0	18.2	0.00e+00	0	44	0	1267728384	5	3867
2026-01-28 14:46:42.63	167.64	27.68	-22.3	-22.7	18.3	0.00e+00	0	44	0	1289748480	5	3807
2026-01-28 14:46:45.65	167.75	28.22	-22.3	-22.8	18.3	0.00e+00	0	43	0	1311768576	5	3826
2026-01-28 14:46:48.65	167.87	28.76	-22.4	-23.0	18.2	0.00e+00	0	44	0	1332740096	5	3857
2026-01-28 14:46:51.66	167.99	29.32	-22.3	-22.9	18.3	0.00e+00	0	43	0	1354760192	5	3837
2026-01-28 14:46:54.68	168.11	29.88	-22.5	-23.2	18.1	0.00e+00	0	44	0	1376780288	5	3925
2026-01-28 14:46:57.69	168.23	30.46	-22.6	-23.4	18.0	0.00e+00	0	44	0	1398800384	5	3963
2026-01-28 14:47:00.70	168.36	31.05	-22.6	-23.0	18.9	0.00e+00	0	44	0	1419771904	5	3739
2026-01-28 14:47:03.71	168.50	31.65	-23.0	-23.1	18.6	0.00e+00	0	44	0	1441792000	6	3675
2026-01-28 14:47:06.73	168.64	32.27	-23.3	-23.7	18.3	0.00e+00	0	43	0	1463812096	6	3810
2026-01-28 14:47:09.74	168.78	32.89	-23.4	-24.0	18.2	0.00e+00	0	44	0	1484783616	6	3873
2026-01-28 14:47:12.75	168.94	33.53	-23.2	-23.6	18.4	0.00e+00	0	44	0	1506803712	6	3774
2026-01-28 14:47:15.77	169.09	34.19	-23.4	-24.1	18.2	0.00e+00	0	43	0	1528823808	6	3897
2026-01-28 14:47:18.78	169.25	34.85	-23.0	-23.3	18.6	0.00e+00	0	43	0	1550843904	6	3710
2026-01-28 14:47:21.79	169.42	35.53	-22.9	-23.0	18.7	0.00e+00	0	44	0	1572864000	6	3640
2026-01-28 14:47:24.80	169.60	36.23	-22.7	-22.6	19.0	0.00e+00	0	43	0	1593835520	6	3547
2026-01-28 14:47:27.80	169.78	36.94	-22.8	-22.7	18.9	0.00e+00	0	44	0	1615855616	6	3576
2026-01-28 14:47:30.82	169.97	37.66	-23.4	-24.0	18.3	0.00e+00	0	44	0	1637875712	6	3875
2026-01-28 14:47:33.84	170.17	38.41	-23.6	-23.9	18.1	0.00e+00	0	44	0	1659895808	7	3743
2026-01-28 14:47:36.86	170.37	39.17	-23.3	-23.4	18.3	0.00e+00	0	44	0	1680867328	7	3625
2026-01-28 14:47:39.87	170.59	39.94	-23.6	-23.9	18.1	0.00e+00	0	44	0	1702887424	7	3740
2026-01-28 14:47:42.87	170.82	40.73	-23.4	-23.6	18.3	0.00e+00	0	44	0	1724907520	7	3669
2026-01-28 14:47:45.89	171.06	41.54	-23.1	-22.9	18.6	0.00e+00	0	44	0	1746927616	7	3523
2026-01-28 14:47:48.91	171.31	42.37	-23.3	-23.2	18.5	0.00e+00	0	44	0	1767899136	7	3591
2026-01-28 14:47:51.92	171.57	43.22	-23.2	-23.6	18.5	0.00e+00	0	44	0	1789919232	6	3765
2026-01-28 14:47:54.93	171.84	44.08	-23.2	-23.6	18.5	0.00e+00	0	44	0	1810890752	6	3780
2026-01-28 14:47:57.95	172.14	44.97	-23.6	-23.9	18.1	0.00e+00	0	43	0	1832910848	7	3740
2026-01-28 14:48:00.96	172.44	45.87	-23.9	-24.7	17.7	0.00e+00	0	44	0	1854930944	7	3918
2026-01-28 14:48:03.97	172.77	46.79	-24.0	-24.7	17.7	0.00e+00	0	44	0	1876951040	7	3932
2026-01-28 14:48:06.99	173.11	47.73	-24.0	-24.2	17.8	0.00e+00	0	44	0	1898971136	8	3695
2026-01-28 14:48:10.01	173.48	48.70	-24.3	-25.0	17.4	0.00e+00	0	44	0	1919942656	8	3879
2026-01-28 14:48:13.03	173.87	49.68	-25.1	-25.1	16.6	0.00e+00	0	44	0	1941962752	11	3604
2026-01-28 14:48:16.04	174.28	50.68	-24.3	-24.3	17.5	0.00e+00	0	44	0	1963982848	9	3632
2026-01-28 14:48:19.05	174.72	51.70	-24.7	-25.2	17.0	0.00e+00	0	44	0	1986002944	9	3838
2026-01-28 14:48:22.06	175.19	52.75	-24.7	-24.7	17.0	0.00e+00	0	44	0	2006974464	10	3620
2026-01-28 14:48:25.07	175.70	53.81	-24.2	-24.2	17.6	0.00e+00	0	44	0	2028994560	9	3597
2026-01-28 14:48:28.09	176.24	54.89	-24.5	-24.9	17.1	0.00e+00	0	44	0	2051014656	9	3756
2026-01-28 14:48:31.10	176.83	56.00	-24.9	-25.1	16.9	0.00e+00	0	44	0	2073034752	10	3707
2026-01-28 14:48:34.10	177.46	57.12	-24.8	-24.9	17.0	0.00e+00	0	44	0	2094006272	10	3652
2026-01-28 14:48:37.10	178.15	58.25	-25.1	-25.6	16.6	0.00e+00	0	44	0	2116026368	10	3815
2026-01-28 14:48:40.12	178.90	59.42	-24.6	-25.1	17.1	0.00e+00	0	44	0	2138046464	9	3813
2026-01-28 14:48:43.13	179.72	60.59	-23.9	-24.1	18.0	0.00e+00	0	44	0	2159017984	8	3682
2026-01-28 14:48:46.14	180.62	61.79	-24.5	-24.7	17.4	0.00e+00	0	44	0	2181038080	9	3716
2026-01-28 14:48:49.15	181.61	62.99	-24.3	-24.3	17.6	0.00e+00	0	44	0	2203058176	9	3628
2026-01-28 14:48:52.16	182.70	64.22	-24.4	-24.7	17.5	0.00e+00	0	44	0	2225078272	9	3701
2026-01-28 14:48:55.18	183.92	65.45	-23.8	-23.8	18.2	0.00e+00	0	44	0	2246049792	8	3603
2026-01-28 14:48:58.19	185.27	66.69	-23.3	-23.3	18.7	0.00e+00	0	44	0	2268069888	7	3608
2026-01-28 14:49:01.21	186.80	67.94	-22.9	-22.5	19.1	0.00e+00	0	44	0	2290089984	7	3433
2026-01-28 14:49:04.21	188.52	69.19	-22.8	-22.8	18.9	0.00e+00	0	44	0	2312110080	6	3587
2026-01-28 14:49:07.22	190.48	70.43	-23.9	-24.5	18.1	0.00e+00	0	44	0	2333081600	7	3877
2026-01-28 14:49:10.22	192.71	71.67	-22.7	-22.5	19.4	0.00e+00	0	44	0	2355101696	6	3529
2026-01-28 14:49:13.24	195.30	72.89	-23.1	-23.4	18.9	0.00e+00	0	44	0	2377121792	6	3733
2026-01-28 14:49:16.25	198.30	74.09	-23.0	-23.1	19.1	0.00e+00	0	44	0	2399141888	6	3665
2026-01-28 14:49:19.26	201.79	75.25	-23.0	-23.1	19.1	0.00e+00	0	44	0	2420113408	6	3665
2026-01-28 14:49:22.26	205.87	76.35	-22.5	-22.0	19.7	0.00e+00	0	44	0	2442133504	6	3427
2026-01-28 14:49:25.28	210.69	77.39	-22.3	-22.2	19.8	0.00e+00	0	44	0	2463105024	5	3569
2026-01-28 14:49:28.30	216.36	78.33	-21.8	-21.8	20.3	0.00e+00	0	44	0	2485125120	4	3572
2026-01-28 14:49:31.31	222.96	79.15	-21.3	-21.2	20.8	0.00e+00	0	44	0	2507145216	3	3544
2026-01-28 14:49:34.32	230.52	79.80	-21.3	-21.1	20.9	0.00e+00	0	44	0	2529165312	3	3527
2026-01-28 14:49:37.33	238.98	80.26	-21.2	-21.1	20.8	0.00e+00	0	44	0	2550136832	3	3523
2026-01-28 14:49:40.33	248.04	80.50	-21.7	-22.0	20.5	0.00e+00	0	44	0	2572156928	3	3714
2026-01-28 14:49:43.34	257.35	80.49	-22.0	-22.1	20.3	0.00e+00	0	44	0	2594177024	4	3631
2026-01-28 14:49:46.36	266.44	80.24	-22.2	-22.6	20.0	0.00e+00	0	44	0	2616197120	4	3742
2026-01-28 14:49:49.37	274.85	79.77	-22.1	-21.8	20.1	0.00e+00	0	44	0	2637168640	5	3482
2026-01-28 14:49:52.38	282.35	79.10	-22.4	-22.9	19.8	0.00e+00	0	44	0	2659188736	4	3810
2026-01-28 14:49:55.39	288.89	78.28	-22.1	-22.3	20.1	0.00e+00	0	44	0	2681208832	4	3680
2026-01-28 14:49:58.41	294.50	77.33	-23.0	-23.7	19.1	0.00e+00	0	44	0	2703228928	5	3907
2026-01-28 14:50:01.42	299.27	76.29	-22.3	-22.1	19.9	0.00e+00	0	44	0	2724200448	5	3549
2026-01-28 14:50:04.43	303.32	75.18	-22.5	-22.5	19.8	0.00e+00	0	44	0	2746220544	5	3624
2026-01-28 14:50:07.44	306.78	74.02	-23.2	-23.5	18.8	0.00e+00	0	44	0	2768240640	6	3748
2026-01-28 14:50:10.45	309.74	72.83	-23.5	-23.7	18.6	0.00e+00	0	44	0	2790260736	7	3683
2026-01-28 14:50:13.44	312.28	71.62	-24.3	-24.9	17.8	0.00e+00	0	44	0	2811232256	8	3857
2026-01-28 14:50:16.45	314.51	70.38	-24.3	-24.9	17.7	0.00e+00	0	44	0	2833252352	8	3862
2026-01-28 14:50:19.46	316.45	69.14	-23.5	-23.2	18.6	0.00e+00	0	44	0	2855272448	8	3471
2026-01-28 14:50:22.46	318.16	67.90	-23.3	-23.2	18.8	0.00e+00	0	44	0	2876243968	7	3573
2026-01-28 14:50:25.48	319.68	66.65	-23.0	-22.7	19.0	0.00e+00	0	44	0	2898264064	7	3457
2026-01-28 14:50:28.50	321.03	65.41	-24.0	-24.8	18.0	0.00e+00	0	44	0	2920284160	7	3935
2026-01-28 14:50:31.49	322.23	64.19	-23.4	-23.4	18.7	0.00e+00	0	44	0	2942304256	7	3619
2026-01-28 14:50:34.50	323.32	62.97	-23.4	-23.6	18.6	0.00e+00	0	44	0	2963275776	7	3661
2026-01-28 14:50:37.51	324.30	61.76	-24.2	-24.6	17.8	0.00e+00	0	44	0	2985295872	8	3789
2026-01-28 14:50:40.53	325.20	60.57	-24.5	-25.3	17.5	0.00e+00	0	44	0	3007315968	8	3939
2026-01-28 14:50:43.54	326.01	59.40	-24.3	-24.3	17.7	0.00e+00	0	44	0	3029336064	9	3623
2026-01-28 14:50:46.55	326.76	58.24	-24.6	-25.0	17.3	0.00e+00	0	44	0	3050307584	9	3776
2026-01-28 14:50:49.57	327.45	57.10	-24.8	-25.5	17.1	0.00e+00	0	44	0	3072327680	9	3878
2026-01-28 14:50:52.58	328.08	55.98	-24.5	-24.9	17.4	0.00e+00	0	44	0	3093299200	9	3750
2026-01-28 14:50:55.60	328.67	54.88	-24.8	-25.4	17.1	0.00e+00	0	44	0	3115319296	9	3863
2026-01-28 14:50:58.62	329.21	53.80	-25.0	-25.3	16.9	0.00e+00	0	43	0	3137339392	10	3744
2026-01-28 14:51:01.62	329.71	52.74	-24.7	-24.8	17.1	0.00e+00	0	44	0	3159359488	10	3630
2026-01-28 14:51:04.63	330.19	51.71	-24.5	-24.8	17.3	0.00e+00	0	44	0	3180331008	9	3726
2026-01-28 14:51:07.64	330.63	50.69	-24.8	-25.4	17.0	0.00e+00	0	44	0	3202351104	9	3873
2026-01-28 14:51:10.64	331.04	49.69	-24.2	-24.2	17.6	0.00e+00	0	44	0	3224371200	9	3602
2026-01-28 14:51:13.65	331.42	48.72	-24.3	-24.4	17.4	0.00e+00	0	44	0	3246391296	9	3651
2026-01-28 14:51:16.66	331.79	47.76	-23.7	-23.6	18.2	0.00e+00	0	44	0	3267362816	8	3563
2026-01-28 14:51:19.67	332.13	46.82	-23.6	-23.4	18.3	0.00e+00	0	44	0	3289382912	8	3526
2026-01-28 14:51:22.69	332.46	45.90	-23.6	-23.9	18.2	0.00e+00	0	44	0	3311403008	7	3742
2026-01-28 14:51:25.71	332.76	45.00	-23.6	-23.9	18.2	0.00e+00	0	44	0	3333423104	7	3739
2026-01-28 14:51:28.72	333.06	44.12	-23.1	-22.9	18.7	0.00e+00	0	44	0	3354394624	7	3521
2026-01-28 14:51:31.73	333.33	43.26	-23.2	-23.0	18.6	0.00e+00	0	44	0	3376414720	7	3547
2026-01-28 14:51:34.74	333.59	42.42	-23.3	-23.3	18.5	0.00e+00	0	44	0	3398434816	7	3599
2026-01-28 14:51:37.76	333.84	41.60	-23.5	-23.8	18.3	0.00e+00	0	44	0	3420454912	7	3710
2026-01-28 14:51:40.77	334.08	40.79	-23.8	-24.4	18.0	0.00e+00	0	44	0	3441426432	7	3844
2026-01-28 14:51:43.78	334.31	40.00	-23.9	-24.5	17.9	0.00e+00	0	44	0	3463446528	7	3869
2026-01-28 14:51:46.80	334.53	39.23	-23.2	-23.1	18.5	0.00e+00	0	44	0	3485466624	7	3571
2026-01-28 14:51:49.81	334.73	38.48	-22.8	-22.8	18.9	0.00e+00	0	44	0	3507486720	6	3592
2026-01-28 14:51:52.82	334.93	37.74	-23.0	-23.1	18.8	0.00e+00	0	44	0	3528458240	6	3667
2026-01-28 14:51:55.83	335.12	37.01	-23.1	-23.5	18.6	0.00e+00	0	43	0	3550478336	6	3740
2026-01-28 14:51:58.83	335.31	36.31	-23.2	-23.7	18.5	0.00e+00	0	44	0	3572498432	6	3794
2026-01-28 14:52:01.84	335.48	35.62	-23.2	-23.6	18.6	0.00e+00	0	44	0	3594518528	6	3767
2026-01-28 14:52:04.86	335.65	34.94	-23.0	-23.2	18.8	0.00e+00	0	44	0	3615490048	6	3672
2026-01-28 14:52:07.87	335.81	34.27	-22.8	-22.7	19.0	0.00e+00	0	44	0	3637510144	6	3574
2026-01-28 14:52:10.87	335.97	33.62	-22.8	-22.8	18.9	0.00e+00	0	44	0	3659530240	6	3595
2026-01-28 14:52:13.88	336.12	32.99	-23.1	-23.4	18.6	0.00e+00	0	44	0	3680501760	6	3716
2026-01-28 14:52:16.90	336.27	32.36	-22.9	-23.0	18.8	0.00e+00	0	44	0	3702521856	6	3635
2026-01-28 14:52:19.91	336.41	31.75	-22.9	-23.0	18.8	0.00e+00	0	44	0	3724541952	6	3637
2026-01-28 14:52:22.91	336.54	31.15	-23.0	-23.1	18.7	0.00e+00	0	44	0	3745513472	6	3673
2026-01-28 14:52:25.91	336.68	30.57	-23.1	-23.4	18.5	0.00e+00	0	44	0	3767533568	6	3739
2026-01-28 14:52:28.93	336.80	29.99	-23.3	-23.7	18.4	0.00e+00	0	44	0	3789553664	6	3803
2026-01-28 14:52:31.93	336.93	29.43	-23.7	-24.3	17.9	0.00e+00	0	44	0	3810525184	7	3817
2026-01-28 14:52:34.94	337.05	28.88	-23.9	-24.5	17.7	0.00e+00	0	44	0	3832545280	7	3873
2026-01-28 14:52:37.95	337.16	28.33	-23.9	-24.6	17.7	0.00e+00	0	44	0	3854565376	7	3905
2026-01-28 14:52:40.96	337.28	27.80	-23.6	-23.8	18.0	0.00e+00	0	44	0	3876585472	7	3721
2026-01-28 14:52:43.96	337.38	27.28	-23.5	-23.6	18.1	0.00e+00	0	43	0	3897556992	7	3679
2026-01-28 14:52:46.98	337.49	26.77	-23.4	-23.5	18.2	0.00e+00	0	44	0	3919577088	7	3651
2026-01-28 14:52:49.98	337.59	26.27	-23.3	-23.3	18.3	0.00e+00	0	44	0	3941597184	7	3608
2026-01-28 14:52:52.99	337.70	25.77	-23.5	-23.7	18.1	0.00e+00	0	44	0	3963617280	7	3693
2026-01-28 14:52:56.01	337.79	25.29	-23.5	-23.6	18.1	0.00e+00	0	44	0	3984588800	7	3682
2026-01-28 14:52:59.00	337.89	24.81	-23.5	-23.8	18.0	0.00e+00	0	44	0	4006608896	7	3726
2026-01-28 14:53:02.02	337.98	24.34	-23.4	-23.6	18.1	0.00e+00	0	44	0	4028628992	7	3680
2026-01-28 14:53:05.02	338.07	23.89	-23.4	-23.4	18.2	0.00e+00	0	44	0	4049600512	7	3638
2026-01-28 14:53:08.04	338.16	23.43	-23.3	-23.4	18.2	0.00e+00	0	44	0	4071620608	7	3627
2026-01-28 14:53:11.06	338.25	22.99	-23.3	-23.2	18.3	0.00e+00	0	44	0	4093640704	7	3594
2026-01-28 14:53:14.08	338.33	22.55	-23.3	-23.3	18.2	0.00e+00	0	44	0	4115660800	7	3611
2026-01-28 14:53:17.08	338.41	22.12	-23.4	-23.5	18.1	0.00e+00	0	44	0	4136632320	7	3647
2026-01-28 14:53:20.10	338.49	21.70	-23.5	-23.8	17.9	0.00e+00	0	44	0	4158652416	7	3722
2026-01-28 14:53:23.11	338.57	21.29	-23.9	-24.6	17.6	0.00e+00	0	44	0	4180672512	7	3895
2026-01-28 14:53:26.12	338.65	20.88	-24.5	-25.3	17.0	0.00e+00	0	44	0	4202692608	8	3956
2026-01-28 14:53:29.13	338.72	20.48	-24.5	-24.9	16.9	0.00e+00	0	44	0	4223664128	9	3770
2026-01-28 14:53:32.15	338.80	20.08	-23.9	-23.6	17.5	0.00e+00	0	44	0	4245684224	9	3479
2026-01-28 14:53:35.15	338.87	19.69	-24.1	-24.5	17.3	0.00e+00	0	44	0	4267704320	8	3778
2026-01-28 14:53:38.16	338.94	19.31	-24.0	-24.3	17.4	0.00e+00	0	44	0	4288675840	8	3729
2026-01-28 14:53:41.18	339.01	18.93	-24.0	-24.2	17.4	0.00e+00	0	44	0	4310695936	8	3716
2026-01-28 14:53:44.18	339.08	18.56	-24.2	-24.8	17.1	0.00e+00	0	44	0	4332716032	8	3840
2026-01-28 14:53:47.19	339.14	18.19	-24.5	-25.3	16.8	0.00e+00	0	44	0	4354736128	8	3959
2026-01-28 14:53:50.20	339.21	17.83	-24.7	-25.3	16.5	0.00e+00	0	44	0	4375707648	9	3856
2026-01-28 14:53:53.21	339.27	17.48	-24.7	-25.4	16.5	0.00e+00	0	44	0	4397727744	9	3876
2026-01-28 14:53:56.22	339.33	17.13	-24.7	-25.4	16.5	0.00e+00	0	44	0	4419747840	9	3882
2026-01-28 14:53:59.23	339.40	16.78	-24.4	-24.8	16.8	0.00e+00	0	44	0	4440719360	9	3732
2026-01-28 14:54:02.24	339.46	16.44	-24.7	-25.3	16.5	0.00e+00	0	44	0	4462739456	9	3852
2026-01-28 14:54:05.26	339.52	16.10	-24.7	-25.2	16.4	0.00e+00	0	44	0	4484759552	9	3844
2026-01-28 14:54:08.26	339.57	15.77	-24.8	-25.6	16.3	0.00e+00	0	44	0	4506779648	9	3924
2026-01-28 14:54:11.25	339.63	15.45	-24.9	-25.7	16.2	0.00e+00	0	44	0	4527751168	9	3952
2026-01-28 14:54:14.27	339.69	15.12	-25.1	-26.1	16.0	0.00e+00	0	44	0	4549771264	9	4054
2026-01-28 14:54:17.28	339.74	14.81	-25.3	-26.1	15.8	0.00e+00	0	44	0	4571791360	10	3937
2026-01-28 14:54:20.29	339.80	14.49	-25.5	-26.6	15.5	0.00e+00	0	44	0	4593811456	10	4079
2026-01-28 14:54:23.29	339.85	14.18	-25.8	-26.8	15.1	0.00e+00	0	44	0	4614782976	11	4007
2026-01-28 14:54:26.30	339.90	13.88	-25.8	-26.8	15.1	0.00e+00	0	44	0	4636803072	11	4009
2026-01-28 14:54:29.32	339.96	13.57	-25.7	-26.4	15.3	0.00e+00	0	44	0	4658823168	11	3917
2026-01-28 14:54:32.33	340.01	13.27	-25.6	-26.3	15.3	0.00e+00	0	44	0	4679794688	11	3903
2026-01-28 14:54:35.34	340.06	12.98	-25.6	-26.3	15.3	1.10e-06	0	44	0	4701814784	11	3898
2026-01-28 14:54:38.34	340.11	12.69	-25.8	-26.7	15.0	0.00e+00	0	44	0	4723834880	11	3994
2026-01-28 14:54:41.35	340.16	12.40	-25.7	-26.5	15.2	0.00e+00	0	44	0	4745854976	11	3935
2026-01-28 14:54:44.36	340.20	12.11	-25.6	-26.4	15.2	0.00e+00	0	44	0	4766826496	11	3919
2026-01-28 14:54:47.37	340.25	11.83	-25.8	-26.7	15.0	0.00e+00	0	44	0	4788846592	11	3998
2026-01-28 14:54:50.38	340.30	11.55	-25.9	-27.0	14.8	0.00e+00	0	44	0	4810866688	11	4064
2026-01-28 14:54:53.39	340.35	11.28	-26.1	-26.9	14.5	0.00e+00	0	44	0	4832886784	12	3960
2026-01-28 14:54:56.39	340.39	11.01	-26.1	-26.9	14.5	0.00e+00	0	44	0	4853858304	12	3953
2026-01-28 14:54:59.40	340.44	10.74	-26.3	-27.3	14.3	1.10e-06	0	44	0	4875878400	12	4056
2026-01-28 14:55:02.41	340.48	10.47	-26.6	-27.5	13.9	3.40e-06	0	44	0	4896849920	13	3995
2026-01-28 14:55:05.42	340.52	10.21	-26.0	-26.3	14.6	0.00e+00	0	44	0	4918870016	13	3704
2026-01-28 14:55:08.44	340.57	9.95	-25.9	-26.1	14.6	1.10e-06	0	44	0	4940890112	13	3662
2026-01-28 14:55:11.44	340.61	9.69	-26.0	-26.4	14.1	2.40e-05	0	44	0	4962910208	13	3760
2026-01-28 14:55:14.45	340.65	9.43	-25.8	-26.5	14.4	6.80e-06	0	44	0	4983881728	12	3877
2026-01-28 14:55:17.46	340.70	9.18	-26.0	-26.9	14.3	3.40e-06	0	44	0	5005901824	12	3976
2026-01-28 14:55:20.48	340.74	8.93	-26.1	-27.0	14.1	2.17e-05	0	44	0	5027921920	12	4000
2026-01-28 14:55:23.48	340.78	8.68	-26.3	-27.4	13.8	1.46e-04	0	44	0	5048893440	12	4086
2026-01-28 14:55:26.50	340.82	8.44	-26.1	-27.0	14.3	1.10e-06	0	44	0	5070913536	12	3987
2026-01-28 14:55:29.50	340.86	8.20	-26.3	-27.5	13.9	0.00e+00	0	44	0	5092933632	12	4116
2026-01-28 14:55:32.51	340.90	7.95	-26.2	-27.1	14.1	4.50e-06	0	44	0	5114953728	12	4021
2026-01-28 14:55:35.51	340.94	7.72	-26.3	-27.5	13.9	3.40e-06	0	44	0	5135925248	12	4103
2026-01-28 14:55:38.52	340.98	7.48	-26.6	-27.6	13.5	1.14e-05	0	44	0	5157945344	13	4039
2026-01-28 14:55:41.53	341.01	7.25	-26.8	-28.0	13.3	2.05e-05	0	44	0	5179965440	13	4141
2026-01-28 14:55:44.53	341.05	7.02	-33.1	-43.0	3.8	8.45e-01	0	44	104	5194645504	25	11279

#Closed at: 2026-01-28 14:55:46
#Recorded file [5194 MB]: D:/data/31010_260128_174343.dat