passes_logs/2026/01/28/R2M6_AANII_01/R2M6_AANII_01__20260128_023049_AQUA_rec.log

#Pass ID: 20260128_023049_AQUA
#Satellite: AQUA
#Configuration: AQUA
#almurnet v.1.7.20240730
#Start time: 2026-01-28 02:30:50

#Version: 2.2.20231116
#Station: R2M6_AANII_01
#Location: 30.233357 lon 59.946436 lat
#TLE: 1 27424U 02022A   26027.49103455  .00001862  00000+0  38220-3 0  9997
#TLE: 2 27424  98.4102 354.1298 0001846  63.8060  46.9979 14.61867034262711

#Time	Az	El	Level	Level2	SNR	BER	BlckErr	Temp	State	Recorded	gain1	gain2
2026-01-28 02:30:50.67	14.16	7.07	-32.2	-39.3	4.9	7.14e-01	0	40	0	0	25	8202
2026-01-28 02:30:53.68	14.07	7.31	-32.3	-38.7	11.4	6.08e-01	0	40	0	1572864	25	7554
2026-01-28 02:30:56.69	13.98	7.56	-31.8	-37.2	12.8	6.05e-01	0	41	0	7340032	24	6725
2026-01-28 02:30:59.70	13.89	7.81	-31.6	-36.4	13.8	6.03e-01	0	41	0	13107200	24	6290
2026-01-28 02:31:02.71	13.80	8.06	-31.0	-35.3	15.8	6.03e-01	0	41	0	18350080	22	5942
2026-01-28 02:31:05.72	13.70	8.31	-30.5	-34.4	17.0	6.02e-01	0	41	0	24117248	21	5646
2026-01-28 02:31:08.73	13.61	8.57	-30.5	-34.3	17.0	6.04e-01	0	41	0	29884416	21	5616
2026-01-28 02:31:11.74	13.51	8.83	-30.4	-34.0	17.4	6.03e-01	0	41	0	35651584	21	5451
2026-01-28 02:31:14.75	13.41	9.09	-30.3	-33.9	17.5	6.00e-01	0	41	0	41418752	21	5421
2026-01-28 02:31:17.76	13.31	9.36	-30.3	-33.7	17.6	6.01e-01	0	41	0	46661632	21	5347
2026-01-28 02:31:20.77	13.20	9.63	-30.3	-33.8	17.7	6.01e-01	0	41	0	52428800	21	5364
2026-01-28 02:31:23.78	13.10	9.90	-30.4	-34.1	17.6	6.01e-01	0	41	0	58195968	21	5492
2026-01-28 02:31:26.79	12.99	10.17	-30.3	-33.7	17.8	6.02e-01	0	41	0	63963136	21	5350
2026-01-28 02:31:29.81	12.87	10.45	-30.3	-33.7	17.9	6.03e-01	0	41	0	69206016	21	5313
2026-01-28 02:31:32.83	12.76	10.74	-30.2	-33.3	18.3	6.00e-01	0	41	0	74973184	21	5167
2026-01-28 02:31:35.84	12.64	11.02	-30.2	-33.4	18.3	6.00e-01	0	41	0	80740352	21	5212
2026-01-28 02:31:38.85	12.52	11.31	-30.1	-33.3	18.6	6.02e-01	0	42	0	86507520	21	5153
2026-01-28 02:31:41.86	12.40	11.61	-30.2	-33.4	18.6	6.03e-01	0	41	0	91750400	21	5191
2026-01-28 02:31:44.87	12.27	11.90	-30.1	-33.0	18.9	6.02e-01	0	42	0	97517568	21	5061
2026-01-28 02:31:47.88	12.14	12.20	-30.1	-33.0	19.1	6.03e-01	0	42	0	103284736	21	5054
2026-01-28 02:31:50.89	12.01	12.51	-30.2	-33.4	18.9	6.02e-01	0	42	0	109051904	21	5184
2026-01-28 02:31:53.90	11.88	12.82	-30.1	-33.1	19.0	6.01e-01	0	42	0	114819072	21	5095
2026-01-28 02:31:56.92	11.74	13.13	-30.1	-33.1	19.1	6.04e-01	0	42	0	120061952	21	5082
2026-01-28 02:31:59.92	11.60	13.45	-30.1	-33.1	19.0	6.00e-01	0	42	0	125829120	21	5076
2026-01-28 02:32:02.93	11.45	13.77	-30.1	-33.0	19.1	6.02e-01	0	42	0	131596288	21	5053
2026-01-28 02:32:05.93	11.30	14.10	-30.2	-33.3	19.0	6.00e-01	0	42	0	137363456	21	5149
2026-01-28 02:32:08.95	11.15	14.43	-30.1	-33.1	19.1	6.02e-01	0	42	0	142606336	21	5052
2026-01-28 02:32:11.95	10.99	14.76	-30.2	-33.4	18.9	6.01e-01	0	42	0	148373504	21	5167
2026-01-28 02:32:14.97	10.83	15.11	-30.1	-33.4	19.0	6.01e-01	0	42	0	154140672	20	5286
2026-01-28 02:32:17.98	10.66	15.45	-29.9	-33.0	19.2	6.02e-01	0	42	0	159907840	20	5123
2026-01-28 02:32:20.99	10.49	15.80	-29.9	-32.9	19.2	6.02e-01	0	42	0	165150720	20	5115
2026-01-28 02:32:24.00	10.32	16.16	-29.8	-32.6	19.4	6.01e-01	0	42	0	170917888	20	4982
2026-01-28 02:32:27.01	10.14	16.52	-29.9	-32.9	19.3	6.03e-01	0	42	0	176685056	20	5086
2026-01-28 02:32:30.03	9.95	16.89	-29.9	-32.9	19.4	6.03e-01	0	42	0	182452224	20	5078
2026-01-28 02:32:33.04	9.76	17.27	-29.8	-32.8	19.5	6.03e-01	0	42	0	188219392	20	5049
2026-01-28 02:32:36.05	9.56	17.65	-29.9	-32.9	19.6	6.01e-01	0	42	0	193462272	20	5074
2026-01-28 02:32:39.05	9.36	18.03	-30.0	-33.1	19.5	6.00e-01	0	42	0	199229440	20	5162
2026-01-28 02:32:42.06	9.16	18.43	-30.0	-32.6	19.6	6.02e-01	0	42	0	204996608	21	4874
2026-01-28 02:32:45.06	8.94	18.83	-29.8	-32.6	19.7	6.02e-01	0	42	0	210239488	20	4985
2026-01-28 02:32:48.08	8.72	19.23	-29.8	-32.6	19.7	6.03e-01	0	42	0	216006656	20	4965
2026-01-28 02:32:51.09	8.50	19.65	-29.8	-32.7	19.7	6.03e-01	0	42	0	221773824	20	5002
2026-01-28 02:32:54.09	8.27	20.07	-29.9	-32.9	19.5	6.01e-01	0	42	0	227540992	20	5067
2026-01-28 02:32:57.10	8.03	20.49	-30.1	-33.3	19.2	6.03e-01	0	42	0	233308160	20	5221
2026-01-28 02:33:00.11	7.78	20.93	-30.3	-33.5	18.7	6.02e-01	0	42	0	238551040	21	5165
2026-01-28 02:33:03.12	7.52	21.37	-30.1	-32.9	19.2	6.02e-01	0	42	0	244318208	21	4943
2026-01-28 02:33:06.13	7.26	21.82	-30.3	-33.3	19.0	6.04e-01	0	42	0	250085376	21	5090
2026-01-28 02:33:09.13	6.99	22.28	-30.1	-32.8	19.2	6.03e-01	0	42	0	255852544	21	4923
2026-01-28 02:33:12.15	6.70	22.75	-30.0	-33.1	19.5	6.00e-01	0	42	0	261095424	20	5147
2026-01-28 02:33:15.16	6.41	23.23	-30.1	-33.2	19.6	6.01e-01	0	42	0	266862592	20	5184
2026-01-28 02:33:18.18	6.11	23.72	-30.3	-33.4	19.3	6.00e-01	0	42	0	272629760	21	5120
2026-01-28 02:33:21.20	5.80	24.21	-30.4	-33.1	19.3	6.02e-01	0	43	0	278396928	22	4888
2026-01-28 02:33:24.21	5.48	24.72	-30.3	-33.2	19.6	6.01e-01	0	42	0	283639808	21	5050
2026-01-28 02:33:27.22	5.14	25.23	-30.2	-33.1	19.7	6.01e-01	0	43	0	289406976	21	5002
2026-01-28 02:33:30.23	4.80	25.76	-30.3	-33.2	19.6	6.02e-01	0	42	0	295174144	21	5046
2026-01-28 02:33:33.24	4.44	26.29	-30.4	-33.5	19.5	6.03e-01	0	43	0	300941312	21	5142
2026-01-28 02:33:36.25	4.07	26.84	-30.3	-33.4	19.5	6.00e-01	0	42	0	306708480	21	5117
2026-01-28 02:33:39.26	3.68	27.39	-30.1	-32.9	19.8	6.04e-01	0	42	0	311951360	21	4930
2026-01-28 02:33:42.26	3.28	27.96	-30.3	-33.4	19.6	6.01e-01	0	42	0	317718528	21	5108
2026-01-28 02:33:45.27	2.87	28.53	-30.5	-33.9	19.2	6.01e-01	0	43	0	323485696	21	5302
2026-01-28 02:33:48.27	2.43	29.12	-30.2	-33.1	19.7	6.00e-01	0	42	0	329252864	21	4989
2026-01-28 02:33:51.28	1.98	29.72	-29.7	-32.3	20.4	6.03e-01	0	42	0	334495744	20	4847
2026-01-28 02:33:54.29	1.52	30.34	-29.8	-32.5	20.3	6.00e-01	0	42	0	340262912	20	4906
2026-01-28 02:33:57.30	1.03	30.96	-29.8	-32.6	20.2	6.03e-01	0	42	0	346030080	20	4940
2026-01-28 02:34:00.30	0.52	31.59	-29.8	-32.6	20.2	6.02e-01	0	42	0	351797248	20	4926
2026-01-28 02:34:03.31	360.00	32.24	-29.7	-32.3	20.3	6.03e-01	0	43	0	357040128	20	4854
2026-01-28 02:34:06.32	359.44	32.91	-28.3	-30.8	19.9	6.04e-01	0	43	0	362807296	20	4800
2026-01-28 02:34:09.33	358.87	33.58	-30.0	-33.1	19.9	6.01e-01	0	42	0	368574464	20	5110
2026-01-28 02:34:12.35	358.26	34.27	-30.0	-33.0	20.1	6.05e-01	0	43	0	374341632	20	5088
2026-01-28 02:34:15.36	357.63	34.97	-30.2	-33.1	19.8	6.04e-01	0	42	0	379584512	21	4984
2026-01-28 02:34:18.36	356.98	35.68	-30.5	-33.8	19.4	6.04e-01	0	43	0	385351680	21	5257
2026-01-28 02:34:21.37	356.29	36.41	-30.9	-34.2	18.8	6.02e-01	0	42	0	391118848	22	5275
2026-01-28 02:34:24.38	355.57	37.14	-30.9	-34.4	18.8	6.02e-01	0	42	0	396886016	22	5347
2026-01-28 02:34:27.40	354.81	37.90	-31.2	-34.5	18.4	6.03e-01	0	43	0	402653184	23	5279
2026-01-28 02:34:30.40	354.02	38.66	-30.9	-34.4	18.7	6.00e-01	0	43	0	407896064	22	5348
2026-01-28 02:34:33.41	353.18	39.43	-31.3	-34.7	18.3	6.04e-01	0	43	0	413663232	23	5366
2026-01-28 02:34:36.42	352.31	40.22	-31.6	-35.2	17.7	6.04e-01	0	43	0	419430400	24	5463
2026-01-28 02:34:39.43	351.38	41.01	-31.2	-34.5	18.4	6.01e-01	0	42	0	425197568	23	5284
2026-01-28 02:34:42.44	350.41	41.82	-31.2	-34.5	18.4	6.03e-01	0	43	0	430440448	23	5287
2026-01-28 02:34:45.45	349.39	42.64	-31.2	-34.6	18.4	6.02e-01	0	43	0	436207616	23	5302
2026-01-28 02:34:48.45	348.32	43.46	-31.7	-35.4	17.6	6.03e-01	0	43	0	441974784	24	5530
2026-01-28 02:34:51.46	347.19	44.29	-31.9	-35.5	17.2	6.01e-01	0	43	0	447741952	25	5443
2026-01-28 02:34:54.46	345.99	45.12	-31.3	-34.8	18.2	6.00e-01	0	43	0	452984832	23	5403
2026-01-28 02:34:57.49	344.72	45.97	-31.1	-34.6	18.7	6.03e-01	0	42	0	458752000	22	5426
2026-01-28 02:35:00.47	343.40	46.80	-31.3	-34.7	18.3	6.02e-01	0	42	0	464519168	23	5334
2026-01-28 02:35:03.47	341.99	47.64	-31.5	-35.2	18.0	6.03e-01	0	43	0	470286336	23	5561
2026-01-28 02:35:06.49	340.50	48.49	-31.8	-35.7	17.4	6.02e-01	0	43	0	475529216	24	5662
2026-01-28 02:35:09.49	338.93	49.32	-31.5	-35.3	18.0	6.03e-01	0	42	0	481296384	23	5572
2026-01-28 02:35:12.50	337.27	50.15	-31.0	-34.0	18.8	6.02e-01	0	43	0	487063552	23	5068
2026-01-28 02:35:15.51	335.51	50.96	-30.9	-34.3	18.9	6.02e-01	0	43	0	492830720	22	5287
2026-01-28 02:35:18.52	333.65	51.76	-30.5	-33.7	19.6	6.02e-01	0	43	0	498073600	21	5207
2026-01-28 02:35:21.53	331.69	52.55	-30.1	-32.7	20.2	6.01e-01	0	43	0	503840768	21	4859
2026-01-28 02:35:24.54	329.63	53.30	-30.2	-32.8	20.1	6.01e-01	0	43	0	509607936	21	4872
2026-01-28 02:35:27.55	327.45	54.03	-30.2	-33.0	20.0	6.05e-01	0	43	0	515375104	21	4931
2026-01-28 02:35:30.56	325.16	54.73	-30.7	-33.6	19.3	6.01e-01	0	43	0	520617984	22	5053
2026-01-28 02:35:33.57	322.76	55.39	-30.5	-33.6	19.7	6.02e-01	0	43	0	526385152	21	5149
2026-01-28 02:35:36.57	320.25	56.00	-30.4	-33.5	19.7	6.02e-01	0	43	0	532152320	21	5113
2026-01-28 02:35:39.57	317.64	56.56	-30.4	-33.0	19.7	6.01e-01	0	43	0	537919488	22	4832
2026-01-28 02:35:42.56	314.93	57.07	-30.6	-33.5	19.4	6.00e-01	0	43	0	543162368	22	5024
2026-01-28 02:35:45.57	312.10	57.52	-30.8	-33.9	19.0	6.01e-01	0	43	0	548929536	22	5151
2026-01-28 02:35:48.58	309.19	57.90	-31.0	-34.5	18.8	6.02e-01	0	43	0	554696704	22	5383
2026-01-28 02:35:51.58	306.20	58.22	-31.1	-34.4	18.6	6.02e-01	0	43	0	560463872	23	5227
2026-01-28 02:35:54.59	303.15	58.46	-30.8	-33.9	19.1	6.00e-01	0	43	0	565706752	22	5155
2026-01-28 02:35:57.59	300.05	58.63	-30.9	-34.4	18.7	6.00e-01	0	43	0	571473920	22	5346
2026-01-28 02:36:00.61	296.90	58.72	-31.1	-34.7	18.0	6.04e-01	0	43	0	577241088	22	5453
2026-01-28 02:36:03.63	293.74	58.73	-30.9	-34.3	18.9	6.01e-01	0	43	0	583008256	22	5303
2026-01-28 02:36:06.65	290.59	58.66	-30.7	-33.7	19.2	6.01e-01	0	43	0	588251136	22	5078
2026-01-28 02:36:09.66	287.48	58.51	-30.4	-33.0	19.5	6.02e-01	0	43	0	594018304	22	4837
2026-01-28 02:36:12.68	284.39	58.28	-30.8	-34.0	18.8	6.05e-01	0	43	0	599785472	22	5218
2026-01-28 02:36:15.69	281.38	57.98	-30.9	-34.3	18.8	6.02e-01	0	43	0	605552640	22	5343
2026-01-28 02:36:18.70	278.45	57.61	-30.9	-33.8	18.7	6.01e-01	0	43	0	611319808	23	5021
2026-01-28 02:36:21.70	275.61	57.17	-30.8	-34.2	18.9	6.01e-01	0	43	0	616562688	22	5280
2026-01-28 02:36:24.72	272.84	56.67	-30.9	-34.3	18.8	6.01e-01	0	43	0	622329856	22	5320
2026-01-28 02:36:27.73	270.20	56.12	-30.3	-33.3	19.6	6.01e-01	0	43	0	628097024	21	5091
2026-01-28 02:36:30.74	267.66	55.51	-29.8	-32.5	20.4	6.02e-01	0	43	0	633864192	20	4899
2026-01-28 02:36:33.75	265.23	54.86	-29.8	-32.5	20.4	6.02e-01	0	43	0	639107072	20	4906
2026-01-28 02:36:36.76	262.91	54.17	-30.3	-32.7	19.6	6.02e-01	0	43	0	644874240	22	4761
2026-01-28 02:36:39.77	260.71	53.45	-29.7	-32.3	20.5	6.02e-01	0	43	0	650641408	20	4860
2026-01-28 02:36:42.78	258.62	52.69	-29.9	-32.9	20.2	6.02e-01	0	43	0	656408576	20	5054
2026-01-28 02:36:45.79	256.63	51.91	-29.3	-31.8	21.1	6.04e-01	0	43	0	661651456	19	4802
2026-01-28 02:36:48.80	254.75	51.11	-29.5	-32.2	20.9	6.04e-01	0	43	0	667418624	19	4926
2026-01-28 02:36:51.81	252.97	50.30	-29.5	-32.4	20.7	6.02e-01	0	43	0	673185792	19	4978
2026-01-28 02:36:54.82	251.28	49.47	-29.9	-32.8	20.2	6.00e-01	0	43	0	678952960	20	5023
2026-01-28 02:36:57.82	249.69	48.64	-29.8	-32.6	20.2	6.02e-01	0	43	0	684720128	20	4952
2026-01-28 02:37:00.82	248.19	47.80	-29.2	-31.6	21.1	6.01e-01	0	43	0	689963008	19	4751
2026-01-28 02:37:03.84	246.76	46.95	-29.6	-32.4	20.5	6.02e-01	0	43	0	695730176	19	5018
2026-01-28 02:37:06.85	245.40	46.10	-29.0	-31.0	21.4	6.02e-01	0	43	0	701497344	19	4551
2026-01-28 02:37:09.86	244.12	45.26	-29.4	-32.0	20.8	6.00e-01	0	43	0	706740224	19	4881
2026-01-28 02:37:12.88	242.91	44.41	-29.2	-31.6	21.1	6.01e-01	0	43	0	712507392	19	4731
2026-01-28 02:37:15.89	241.76	43.58	-29.7	-32.4	20.2	6.02e-01	0	43	0	718274560	20	4902
2026-01-28 02:37:18.90	240.67	42.75	-29.3	-31.8	20.9	6.03e-01	0	43	0	724041728	19	4803
2026-01-28 02:37:21.91	239.63	41.93	-30.1	-32.8	19.5	6.02e-01	0	43	0	729808896	21	4947
2026-01-28 02:37:24.92	238.65	41.12	-30.2	-33.2	19.4	6.02e-01	0	42	0	735051776	21	5056
2026-01-28 02:37:27.94	237.72	40.31	-30.2	-33.1	19.5	6.00e-01	0	43	0	740818944	21	5013
2026-01-28 02:37:30.94	236.83	39.53	-30.2	-33.0	19.5	6.01e-01	0	43	0	746586112	21	5014
2026-01-28 02:37:33.95	235.99	38.75	-30.7	-33.9	18.7	6.02e-01	0	43	0	752353280	22	5221
2026-01-28 02:37:36.97	235.18	37.98	-30.8	-34.3	18.4	6.06e-01	0	43	0	757596160	22	5376
2026-01-28 02:37:39.98	234.42	37.22	-30.4	-33.8	19.0	6.00e-01	0	43	0	763363328	21	5307
2026-01-28 02:37:42.99	233.69	36.48	-30.1	-33.0	19.4	5.99e-01	0	43	0	769130496	21	5009
2026-01-28 02:37:46.01	232.99	35.74	-30.4	-33.8	18.9	5.98e-01	0	43	0	774897664	21	5345
2026-01-28 02:37:49.02	232.32	35.03	-30.0	-33.2	19.6	6.02e-01	0	43	0	780140544	20	5210
2026-01-28 02:37:52.04	231.68	34.32	-30.1	-33.2	19.2	6.01e-01	0	43	0	785907712	21	5106
2026-01-28 02:37:55.03	231.08	33.63	-29.9	-33.0	19.6	6.02e-01	0	43	0	791674880	20	5150
2026-01-28 02:37:58.04	230.50	32.95	-29.5	-32.0	20.3	6.01e-01	0	43	0	797442048	20	4784
2026-01-28 02:38:01.05	229.94	32.28	-29.5	-32.5	20.3	6.00e-01	0	43	0	803209216	19	5086
2026-01-28 02:38:04.06	229.40	31.63	-29.3	-31.9	20.6	5.99e-01	0	43	0	808452096	19	4878
2026-01-28 02:38:07.07	228.89	30.99	-29.1	-31.6	20.8	6.01e-01	0	43	0	814219264	19	4777
2026-01-28 02:38:10.08	228.40	30.36	-29.3	-31.9	20.7	6.02e-01	0	43	0	819986432	19	4875
2026-01-28 02:38:13.09	227.93	29.74	-29.2	-31.6	20.8	5.99e-01	0	43	0	825753600	19	4787
2026-01-28 02:38:16.09	227.47	29.14	-29.1	-31.6	20.9	6.02e-01	0	43	0	830996480	19	4765
2026-01-28 02:38:19.11	227.03	28.55	-29.2	-31.8	20.8	6.03e-01	0	43	0	836763648	19	4830
2026-01-28 02:38:22.11	226.62	27.97	-29.3	-32.1	20.5	6.03e-01	0	43	0	842530816	19	4934
2026-01-28 02:38:25.12	226.21	27.40	-29.4	-32.3	20.4	6.03e-01	0	43	0	848297984	19	5023
2026-01-28 02:38:28.13	225.82	26.84	-29.4	-32.2	20.5	6.03e-01	0	43	0	854065152	19	4970
2026-01-28 02:38:31.15	225.44	26.29	-29.6	-32.4	20.0	6.01e-01	0	43	0	859308032	20	4941
2026-01-28 02:38:34.16	225.08	25.75	-29.5	-32.2	20.1	6.01e-01	0	43	0	865075200	20	4874
2026-01-28 02:38:37.17	224.73	25.22	-29.6	-32.7	20.1	6.01e-01	0	43	0	870842368	19	5159
2026-01-28 02:38:40.18	224.39	24.70	-29.6	-32.3	19.9	6.00e-01	0	43	0	876609536	20	4914
2026-01-28 02:38:43.20	224.07	24.19	-29.8	-32.9	19.6	6.04e-01	0	43	0	881852416	20	5151
2026-01-28 02:38:46.21	223.75	23.69	-29.7	-32.7	19.7	6.01e-01	0	43	0	887619584	20	5081
2026-01-28 02:38:49.22	223.45	23.20	-29.7	-32.5	19.8	6.01e-01	0	43	0	893386752	20	5009
2026-01-28 02:38:52.24	223.15	22.72	-29.8	-33.0	19.5	6.03e-01	0	43	0	899153920	20	5175
2026-01-28 02:38:55.24	222.87	22.25	-29.9	-33.2	19.4	6.00e-01	0	43	0	904396800	20	5238
2026-01-28 02:38:58.26	222.59	21.79	-29.7	-32.6	19.7	6.00e-01	0	43	0	910163968	20	5049
2026-01-28 02:39:01.26	222.33	21.34	-29.8	-33.0	19.4	6.01e-01	0	43	0	915931136	20	5180
2026-01-28 02:39:04.28	222.07	20.89	-29.7	-32.7	19.6	6.02e-01	0	43	0	921698304	20	5060
2026-01-28 02:39:07.29	221.82	20.45	-29.9	-33.1	19.3	6.03e-01	0	43	0	927465472	20	5221
2026-01-28 02:39:10.31	221.57	20.02	-29.8	-33.0	19.3	6.02e-01	0	43	0	932708352	20	5194
2026-01-28 02:39:13.32	221.33	19.60	-29.7	-32.6	19.6	6.01e-01	0	43	0	938475520	20	5041
2026-01-28 02:39:16.34	221.10	19.18	-29.6	-32.5	17.3	6.09e-01	0	42	0	944242688	20	5003
2026-01-28 02:39:19.35	220.88	18.77	-29.7	-32.8	18.4	6.00e-01	0	43	0	950009856	20	5100
2026-01-28 02:39:22.36	220.67	18.37	-29.7	-32.8	19.4	6.01e-01	0	43	0	955252736	20	5121
2026-01-28 02:39:25.36	220.46	17.97	-29.7	-32.7	19.5	6.02e-01	0	42	0	961019904	20	5094
2026-01-28 02:39:28.38	220.25	17.58	-29.9	-33.1	19.2	6.03e-01	0	43	0	966787072	20	5239
2026-01-28 02:39:31.39	220.05	17.20	-29.9	-33.1	19.2	6.03e-01	0	43	0	972554240	20	5242
2026-01-28 02:39:34.39	219.86	16.83	-30.0	-33.5	18.9	6.03e-01	0	43	0	977797120	20	5399
2026-01-28 02:39:37.41	219.67	16.45	-30.4	-34.2	18.1	6.01e-01	0	43	0	983564288	21	5562
2026-01-28 02:39:40.42	219.49	16.09	-29.8	-32.9	19.2	6.04e-01	0	43	0	989331456	20	5168
2026-01-28 02:39:43.43	219.31	15.73	-29.8	-33.1	19.1	6.04e-01	0	43	0	995098624	20	5232
2026-01-28 02:39:46.43	219.14	15.38	-29.8	-33.2	19.0	6.01e-01	0	43	0	1000865792	20	5266
2026-01-28 02:39:49.44	218.97	15.03	-29.9	-33.2	18.9	6.03e-01	0	43	0	1006108672	20	5293
2026-01-28 02:39:52.45	218.81	14.69	-29.7	-32.7	19.2	6.02e-01	0	43	0	1011875840	20	5113
2026-01-28 02:39:55.46	218.65	14.35	-29.9	-33.3	18.8	6.04e-01	0	43	0	1017643008	20	5340
2026-01-28 02:39:58.47	218.49	14.02	-29.7	-32.9	19.1	6.02e-01	0	43	0	1022885888	20	5163
2026-01-28 02:40:01.47	218.34	13.69	-29.8	-33.1	19.0	6.01e-01	0	43	0	1028653056	20	5251
2026-01-28 02:40:04.48	218.19	13.36	-29.6	-32.6	19.2	6.02e-01	0	43	0	1034420224	20	5083
2026-01-28 02:40:07.48	218.05	13.05	-29.6	-32.5	19.3	6.03e-01	0	43	0	1040187392	20	5057
2026-01-28 02:40:10.50	217.90	12.73	-29.7	-32.7	19.1	6.02e-01	0	42	0	1045954560	20	5136
2026-01-28 02:40:13.50	217.77	12.42	-29.7	-32.9	19.0	6.02e-01	0	43	0	1051197440	20	5182
2026-01-28 02:40:16.51	217.63	12.12	-29.8	-33.0	18.9	6.00e-01	0	43	0	1056964608	20	5238
2026-01-28 02:40:19.52	217.50	11.81	-29.9	-33.4	18.6	6.03e-01	0	43	0	1062731776	20	5387
2026-01-28 02:40:22.53	217.37	11.52	-30.0	-33.6	18.4	6.03e-01	0	43	0	1068498944	20	5497
2026-01-28 02:40:25.55	217.24	11.22	-30.0	-33.9	18.2	6.01e-01	0	43	0	1073741824	20	5600
2026-01-28 02:40:28.56	217.12	10.93	-30.6	-35.0	17.1	6.02e-01	0	42	0	1079508992	21	6017
2026-01-28 02:40:31.57	217.00	10.64	-30.9	-35.6	16.3	6.02e-01	0	42	0	1085276160	22	6186
2026-01-28 02:40:34.58	216.88	10.36	-31.1	-35.9	15.7	6.02e-01	0	43	0	1091043328	23	6207
2026-01-28 02:40:37.58	216.77	10.08	-31.1	-35.8	15.7	6.02e-01	0	43	0	1096286208	23	6177
2026-01-28 02:40:40.59	216.66	9.80	-31.3	-36.4	15.3	6.02e-01	0	43	0	1102053376	23	6505
2026-01-28 02:40:43.60	216.55	9.53	-30.6	-34.8	16.7	6.00e-01	0	43	0	1107820544	22	5816
2026-01-28 02:40:46.60	216.44	9.26	-30.0	-33.9	18.0	6.02e-01	0	43	0	1113587712	20	5624
2026-01-28 02:40:49.62	216.33	8.99	-29.9	-33.7	18.1	6.04e-01	0	43	0	1118830592	20	5573
2026-01-28 02:40:52.63	216.23	8.73	-30.0	-34.0	17.9	6.01e-01	0	43	0	1124597760	20	5694
2026-01-28 02:40:55.64	216.13	8.47	-30.2	-34.0	17.6	6.02e-01	0	43	0	1130364928	21	5570
2026-01-28 02:40:58.64	216.03	8.21	-30.2	-34.1	17.4	6.01e-01	0	43	0	1136132096	21	5637
2026-01-28 02:41:01.64	215.94	7.96	-30.2	-34.0	17.5	6.01e-01	0	43	0	1141374976	21	5577
2026-01-28 02:41:04.67	215.84	7.70	-30.1	-33.8	17.1	6.04e-01	0	43	0	1147142144	21	5514
2026-01-28 02:41:07.68	215.75	7.45	-30.2	-34.2	17.3	6.02e-01	0	43	0	1152909312	21	5679
2026-01-28 02:41:10.70	215.66	7.20	-30.2	-34.0	17.3	6.02e-01	0	43	0	1158676480	21	5613

#Closed at: 2026-01-28 02:41:13
#Recorded file [1161 MB]: D:/data/31010_260128_053052.dat