passes_logs/2026/01/28/R2M6_AANII_01/R2M6_AANII_01__20260128_134549_AQUA_rec.log

#Pass ID: 20260128_134549_AQUA
#Satellite: AQUA
#Configuration: AQUA
#almurnet v.1.7.20240730
#Start time: 2026-01-28 13:45:50

#Version: 2.2.20231116
#Station: R2M6_AANII_01
#Location: 30.233357 lon 59.946436 lat
#TLE: 1 27424U 02022A   26027.88561574  .00001798  00000+0  36942-3 0  9997
#TLE: 2 27424  98.4102 354.5311 0001840  63.5604 322.5877 14.61868111262779

#Time	Az	El	Level	Level2	SNR	BER	BlckErr	Temp	State	Recorded	gain1	gain2
2026-01-28 13:45:50.85	220.71	7.11	-31.2	-36.7	5.2	7.09e-01	0	41	0	0	24	6748
2026-01-28 13:45:53.87	221.08	7.30	-32.2	-39.5	12.0	6.14e-01	0	41	0	1572864	25	8332
2026-01-28 13:45:56.88	221.45	7.49	-31.6	-36.8	14.2	6.07e-01	0	41	0	7340032	25	6516
2026-01-28 13:45:59.90	221.84	7.68	-31.3	-36.1	15.2	6.07e-01	0	41	0	13107200	24	6217
2026-01-28 13:46:02.90	222.22	7.86	-30.8	-34.6	16.6	6.05e-01	0	41	0	18874368	23	5613
2026-01-28 13:46:05.92	222.62	8.05	-30.5	-33.8	17.2	6.06e-01	0	41	0	24117248	23	5269
2026-01-28 13:46:08.93	223.01	8.24	-30.7	-34.2	16.9	6.06e-01	0	41	0	29884416	23	5441
2026-01-28 13:46:11.94	223.42	8.43	-30.3	-33.6	17.7	6.05e-01	0	41	0	35651584	22	5264
2026-01-28 13:46:14.95	223.82	8.62	-30.5	-34.2	17.4	6.06e-01	0	41	0	41418752	22	5498
2026-01-28 13:46:17.96	224.24	8.82	-30.4	-34.0	17.5	6.08e-01	0	41	0	46661632	22	5407
2026-01-28 13:46:20.96	224.66	9.01	-30.4	-33.8	17.6	6.07e-01	0	41	0	52428800	22	5335
2026-01-28 13:46:23.98	225.08	9.20	-30.3	-33.6	17.8	6.07e-01	0	42	0	58195968	22	5250
2026-01-28 13:46:26.99	225.51	9.39	-30.2	-33.3	18.0	6.07e-01	0	42	0	63963136	22	5131
2026-01-28 13:46:30.00	225.95	9.58	-30.2	-33.4	18.0	6.05e-01	0	41	0	69206016	22	5161
2026-01-28 13:46:33.01	226.39	9.78	-30.0	-32.8	18.4	6.08e-01	0	42	0	74973184	22	4931
2026-01-28 13:46:36.03	226.85	9.97	-30.0	-32.7	18.5	6.04e-01	0	42	0	80740352	22	4908
2026-01-28 13:46:39.03	227.30	10.16	-30.0	-32.6	18.5	6.04e-01	0	42	0	86507520	22	4884
2026-01-28 13:46:42.04	227.76	10.36	-30.0	-32.6	18.5	6.06e-01	0	42	0	91750400	22	4887
2026-01-28 13:46:45.05	228.23	10.55	-29.9	-32.3	18.7	6.07e-01	0	42	0	97517568	22	4767
2026-01-28 13:46:48.07	228.71	10.74	-29.8	-32.6	18.9	6.04e-01	0	42	0	103284736	21	4956
2026-01-28 13:46:51.07	229.19	10.94	-30.0	-33.2	18.5	6.07e-01	0	42	0	109051904	21	5186
2026-01-28 13:46:54.08	229.68	11.13	-30.0	-33.1	18.6	6.06e-01	0	42	0	114819072	21	5139
2026-01-28 13:46:57.09	230.17	11.32	-30.1	-33.4	18.4	6.07e-01	0	42	0	120061952	21	5271
2026-01-28 13:47:00.10	230.67	11.52	-29.8	-32.5	19.0	6.06e-01	0	42	0	125829120	21	4907
2026-01-28 13:47:03.11	231.18	11.71	-29.8	-32.5	19.0	6.04e-01	0	42	0	131596288	21	4915
2026-01-28 13:47:06.12	231.70	11.90	-29.8	-32.4	19.1	6.07e-01	0	42	0	137363456	21	4882
2026-01-28 13:47:09.12	232.22	12.09	-29.8	-32.5	19.0	6.05e-01	0	42	0	142606336	21	4918
2026-01-28 13:47:12.14	232.75	12.29	-29.7	-32.3	19.1	6.06e-01	0	42	0	148373504	21	4833
2026-01-28 13:47:15.15	233.29	12.48	-29.9	-32.6	19.0	6.07e-01	0	42	0	154140672	21	4959
2026-01-28 13:47:18.16	233.84	12.67	-29.7	-32.3	19.1	6.06e-01	0	42	0	159907840	21	4841
2026-01-28 13:47:21.17	234.39	12.86	-30.1	-33.3	18.5	6.06e-01	0	42	0	165150720	21	5201
2026-01-28 13:47:24.19	234.95	13.05	-30.0	-32.9	18.8	6.08e-01	0	42	0	170917888	21	5058
2026-01-28 13:47:27.19	235.52	13.24	-29.8	-32.5	19.2	6.07e-01	0	42	0	176685056	21	4890
2026-01-28 13:47:30.20	236.09	13.43	-30.2	-33.6	18.4	6.06e-01	0	42	0	182452224	21	5328
2026-01-28 13:47:33.22	236.68	13.62	-29.7	-32.3	19.3	6.07e-01	0	43	0	188219392	21	4836
2026-01-28 13:47:36.23	237.27	13.80	-29.7	-32.1	19.4	6.05e-01	0	43	0	193462272	21	4752
2026-01-28 13:47:39.24	237.87	13.99	-29.7	-32.1	19.5	6.06e-01	0	43	0	199229440	21	4773
2026-01-28 13:47:42.26	238.47	14.17	-29.7	-32.1	19.5	6.05e-01	0	43	0	204996608	21	4736
2026-01-28 13:47:45.25	239.08	14.35	-29.8	-32.4	19.3	6.04e-01	0	43	0	210763776	21	4854
2026-01-28 13:47:48.25	239.70	14.53	-30.0	-33.0	19.0	6.07e-01	0	43	0	216006656	21	5062
2026-01-28 13:47:51.26	240.33	14.71	-29.8	-32.3	19.4	6.08e-01	0	43	0	221773824	21	4819
2026-01-28 13:47:54.27	240.97	14.89	-29.6	-31.8	19.7	6.06e-01	0	43	0	227540992	21	4649
2026-01-28 13:47:57.28	241.62	15.07	-29.5	-31.6	19.8	6.06e-01	0	43	0	233308160	21	4580
2026-01-28 13:48:00.28	242.27	15.24	-29.5	-31.5	19.9	6.06e-01	0	43	0	238551040	21	4562
2026-01-28 13:48:03.29	242.93	15.41	-29.5	-31.6	19.8	6.08e-01	0	43	0	244318208	21	4588
2026-01-28 13:48:06.30	243.60	15.58	-29.4	-31.3	20.0	6.05e-01	0	43	0	250085376	21	4482
2026-01-28 13:48:09.33	244.28	15.75	-29.6	-31.9	19.7	6.07e-01	0	43	0	255852544	21	4674
2026-01-28 13:48:12.33	244.96	15.92	-29.5	-31.6	19.8	6.06e-01	0	43	0	261095424	21	4597
2026-01-28 13:48:15.34	245.65	16.08	-29.6	-31.8	19.7	6.05e-01	0	43	0	266862592	21	4659
2026-01-28 13:48:18.35	246.36	16.24	-29.7	-32.0	19.6	6.08e-01	0	43	0	272629760	21	4700
2026-01-28 13:48:21.36	247.06	16.40	-29.6	-31.9	19.7	6.07e-01	0	43	0	278396928	21	4688
2026-01-28 13:48:24.36	247.78	16.55	-29.7	-32.1	19.6	6.09e-01	0	43	0	283639808	21	4725
2026-01-28 13:48:27.38	248.50	16.71	-29.6	-31.8	19.8	6.06e-01	0	43	0	289406976	21	4639
2026-01-28 13:48:30.39	249.23	16.85	-29.6	-31.8	19.8	6.07e-01	0	43	0	295174144	21	4625
2026-01-28 13:48:33.41	249.97	17.00	-29.6	-31.7	19.9	6.06e-01	0	43	0	300941312	21	4603
2026-01-28 13:48:36.41	250.72	17.14	-29.6	-31.8	19.8	6.03e-01	0	43	0	306708480	21	4645
2026-01-28 13:48:39.42	251.47	17.28	-29.6	-31.7	19.9	6.03e-01	0	43	0	311951360	21	4597
2026-01-28 13:48:42.43	252.23	17.41	-29.6	-31.8	19.8	6.05e-01	0	43	0	317718528	21	4648
2026-01-28 13:48:45.44	253.00	17.54	-29.8	-32.3	19.5	6.08e-01	0	43	0	323485696	21	4792
2026-01-28 13:48:48.44	253.77	17.67	-29.7	-32.1	19.5	6.08e-01	0	43	0	328728576	21	4750
2026-01-28 13:48:51.45	254.55	17.79	-29.6	-31.9	19.7	6.07e-01	0	43	0	334495744	21	4659
2026-01-28 13:48:54.46	255.34	17.91	-29.7	-32.0	19.6	6.04e-01	0	43	0	340262912	21	4699
2026-01-28 13:48:57.46	256.13	18.02	-30.0	-32.9	19.1	6.07e-01	0	43	0	346030080	21	5000
2026-01-28 13:49:00.48	256.93	18.13	-29.7	-32.1	19.7	6.05e-01	0	43	0	351797248	21	4725
2026-01-28 13:49:03.49	257.73	18.24	-29.7	-32.0	19.7	6.06e-01	0	43	0	357040128	21	4703
2026-01-28 13:49:06.50	258.54	18.33	-29.8	-32.2	19.6	6.06e-01	0	43	0	362807296	21	4759
2026-01-28 13:49:09.52	259.36	18.43	-29.8	-32.3	19.6	6.07e-01	0	43	0	368574464	21	4792
2026-01-28 13:49:12.53	260.18	18.52	-29.6	-31.8	19.8	6.06e-01	0	43	0	374341632	21	4648
2026-01-28 13:49:15.54	261.00	18.60	-29.6	-31.9	19.8	6.07e-01	0	43	0	379584512	21	4666
2026-01-28 13:49:18.56	261.84	18.68	-29.8	-32.2	19.5	6.06e-01	0	43	0	385351680	21	4775
2026-01-28 13:49:21.57	262.67	18.75	-29.7	-32.0	19.7	6.08e-01	0	43	0	391118848	21	4702
2026-01-28 13:49:24.59	263.51	18.82	-29.7	-31.9	19.8	6.07e-01	0	43	0	396886016	21	4665
2026-01-28 13:49:27.59	264.35	18.88	-29.8	-32.2	19.6	6.06e-01	0	43	0	402653184	21	4761
2026-01-28 13:49:30.60	265.19	18.94	-29.7	-31.9	19.8	6.08e-01	0	43	0	407896064	21	4671
2026-01-28 13:49:33.62	266.05	18.99	-29.7	-31.9	19.8	6.07e-01	0	43	0	413663232	21	4652
2026-01-28 13:49:36.62	266.89	19.04	-29.8	-32.3	19.6	6.06e-01	0	43	0	419430400	21	4779
2026-01-28 13:49:39.63	267.75	19.08	-29.9	-32.4	19.5	6.06e-01	0	43	0	425197568	21	4807
2026-01-28 13:49:42.64	268.60	19.11	-29.8	-32.3	19.6	6.07e-01	0	43	0	430440448	21	4774
2026-01-28 13:49:45.66	269.46	19.14	-29.8	-32.2	19.6	6.06e-01	0	43	0	436207616	21	4769
2026-01-28 13:49:48.67	270.32	19.16	-29.8	-32.3	19.6	6.05e-01	0	43	0	441974784	21	4778
2026-01-28 13:49:51.67	271.17	19.17	-29.8	-32.3	19.7	6.06e-01	0	43	0	447741952	21	4774
2026-01-28 13:49:54.68	272.03	19.18	-29.9	-32.6	19.4	6.05e-01	0	43	0	452984832	21	4899
2026-01-28 13:49:57.69	272.89	19.18	-29.8	-32.3	19.6	6.05e-01	0	43	0	458752000	21	4777
2026-01-28 13:50:00.69	273.75	19.18	-30.0	-32.7	19.4	6.03e-01	0	43	0	464519168	21	4914
2026-01-28 13:50:03.71	274.61	19.17	-30.4	-43.1	3.8	7.46e-01	0	43	104	465567744	21	15594
2026-01-28 13:50:06.72	275.47	19.16	-31.5	-45.3	3.8	7.45e-01	0	43	104	465567744	23	17534
2026-01-28 13:50:09.73	276.33	19.13	-32.2	-46.1	3.8	7.44e-01	0	43	104	465567744	25	17927
2026-01-28 13:50:12.74	277.18	19.11	-32.6	-47.2	3.8	7.43e-01	0	43	104	465567744	26	19256
2026-01-28 13:50:15.75	278.04	19.07	-33.2	-48.7	3.8	7.45e-01	0	43	104	465567744	27	21534
2026-01-28 13:50:18.76	278.89	19.03	-33.4	-49.7	3.8	7.43e-01	0	43	104	465567744	27	23594
2026-01-28 13:50:21.76	279.73	18.99	-33.4	-50.0	3.8	7.46e-01	0	43	104	465567744	27	24094
2026-01-28 13:50:24.78	280.58	18.94	-33.5	-50.0	3.8	7.44e-01	0	43	104	465567744	27	24217
2026-01-28 13:50:27.80	281.43	18.88	-33.4	-49.7	3.8	7.46e-01	0	43	104	465567744	27	23449
2026-01-28 13:50:30.82	282.27	18.82	-33.1	-48.4	3.8	7.44e-01	0	43	104	465567744	27	21071
2026-01-28 13:50:33.82	283.10	18.75	-32.4	-46.1	3.8	7.43e-01	0	43	104	465567744	27	17262
2026-01-28 13:50:36.83	283.94	18.68	-31.9	-44.9	3.8	7.46e-01	0	43	104	465567744	26	15990
2026-01-28 13:50:39.84	284.76	18.60	-31.4	-43.9	3.8	7.44e-01	0	43	104	465567744	25	15036
2026-01-28 13:50:42.85	285.59	18.52	-30.4	-42.1	3.8	7.44e-01	0	43	104	465567744	23	13831
2026-01-28 13:50:45.86	286.40	18.43	-30.6	-43.1	3.8	7.45e-01	0	43	104	465567744	22	15125
2026-01-28 13:50:48.86	287.21	18.33	-30.9	-43.8	3.8	7.42e-01	0	43	104	465567744	22	15953
2026-01-28 13:50:51.88	288.02	18.23	-30.7	-43.2	3.8	7.46e-01	0	43	104	465567744	22	15289
2026-01-28 13:50:54.89	288.83	18.13	-31.8	-45.4	3.8	7.49e-01	0	43	104	465567744	24	17307
2026-01-28 13:50:57.91	289.62	18.02	-32.8	-48.0	3.8	7.44e-01	0	43	104	465567744	26	20682
2026-01-28 13:51:00.93	290.42	17.91	-33.0	-48.5	3.8	7.45e-01	0	43	104	465567744	26	21475
2026-01-28 13:51:03.95	291.20	17.79	-33.2	-49.2	3.8	7.44e-01	0	43	104	465567744	27	22707
2026-01-28 13:51:06.96	291.98	17.67	-33.4	-49.7	3.8	7.43e-01	0	43	104	465567744	27	23487
2026-01-28 13:51:09.96	292.75	17.54	-33.3	-49.6	3.8	7.45e-01	0	43	104	465567744	27	23364
2026-01-28 13:51:12.97	293.51	17.41	-33.4	-50.1	3.8	7.43e-01	0	43	104	465567744	27	24434
2026-01-28 13:51:15.97	294.26	17.28	-33.4	-49.8	3.8	7.46e-01	0	43	104	465567744	27	23941
2026-01-28 13:51:18.99	295.02	17.14	-33.1	-48.7	3.8	7.42e-01	0	43	104	465567744	27	21638
2026-01-28 13:51:22.00	295.76	17.00	-32.6	-46.7	3.8	7.43e-01	0	43	104	465567744	27	18203
2026-01-28 13:51:25.01	296.49	16.86	-31.8	-45.0	3.8	7.45e-01	0	43	104	465567744	25	16473
2026-01-28 13:51:28.02	297.22	16.71	-31.3	-44.2	3.8	7.45e-01	0	43	104	465567744	24	15778
2026-01-28 13:51:31.04	297.94	16.56	-30.7	-42.9	3.8	7.44e-01	0	43	104	465567744	23	14616
2026-01-28 13:51:34.05	298.65	16.40	-31.0	-43.9	3.8	7.43e-01	0	43	104	465567744	23	15909
2026-01-28 13:51:37.06	299.36	16.25	-31.8	-45.4	3.8	7.47e-01	0	43	104	465567744	24	17297
2026-01-28 13:51:40.08	300.06	16.09	-31.8	-45.7	3.8	7.44e-01	0	43	104	465567744	24	17761
2026-01-28 13:51:43.10	300.75	15.92	-32.2	-46.4	3.8	7.44e-01	0	43	104	465567744	25	18433
2026-01-28 13:51:46.11	301.43	15.76	-33.0	-48.9	3.8	7.41e-01	0	43	104	465567744	26	22529
2026-01-28 13:51:49.13	302.11	15.59	-33.3	-49.5	3.8	7.46e-01	0	43	104	465567744	27	23302
2026-01-28 13:51:52.14	302.77	15.42	-33.2	-49.5	3.8	7.48e-01	0	43	104	465567744	27	23434
2026-01-28 13:51:55.16	303.43	15.25	-33.3	-49.7	3.8	7.47e-01	0	43	104	465567744	27	23757
2026-01-28 13:51:58.15	304.08	15.08	-33.3	-49.6	3.8	7.40e-01	0	43	104	465567744	27	23508
2026-01-28 13:52:01.16	304.72	14.91	-33.1	-48.7	3.8	7.45e-01	0	43	104	465567744	27	21670
2026-01-28 13:52:04.18	305.35	14.73	-33.4	-50.2	3.8	7.45e-01	0	43	104	465567744	27	24845
2026-01-28 13:52:07.20	305.98	14.55	-33.1	-49.1	3.8	7.48e-01	0	43	104	465567744	27	22500
2026-01-28 13:52:10.21	306.60	14.37	-32.7	-47.0	3.8	7.47e-01	0	43	104	465567744	27	18828
2026-01-28 13:52:13.22	307.21	14.19	-31.8	-45.1	3.8	7.42e-01	0	43	104	465567744	25	16699
2026-01-28 13:52:16.23	307.81	14.01	-31.1	-43.6	3.8	7.47e-01	0	43	104	465567744	24	15236
2026-01-28 13:52:19.24	308.41	13.82	-30.7	-42.9	3.8	7.45e-01	0	43	104	465567744	23	14755
2026-01-28 13:52:22.25	309.00	13.64	-31.2	-44.3	3.8	7.44e-01	0	43	104	465567744	23	16386
2026-01-28 13:52:25.26	309.57	13.45	-32.3	-46.8	3.8	7.42e-01	0	43	104	465567744	25	19183
2026-01-28 13:52:28.28	310.15	13.27	-32.7	-47.9	3.8	7.46e-01	0	43	104	465567744	26	20613
2026-01-28 13:52:31.30	310.71	13.08	-32.6	-47.4	3.8	7.48e-01	0	43	104	465567744	26	19868
2026-01-28 13:52:34.31	311.27	12.89	-33.1	-49.5	3.8	7.45e-01	0	43	104	465567744	26	23790
2026-01-28 13:52:37.33	311.82	12.70	-33.4	-50.6	3.8	7.48e-01	0	43	104	465567744	27	26043
2026-01-28 13:52:40.34	312.36	12.51	-33.4	-50.4	3.8	7.47e-01	0	43	104	465567744	27	25519
2026-01-28 13:52:43.36	312.90	12.32	-33.3	-49.9	3.8	7.47e-01	0	44	104	465567744	27	24364
2026-01-28 13:52:46.37	313.43	12.13	-33.2	-49.6	3.8	7.46e-01	0	43	104	465567744	27	23782
2026-01-28 13:52:49.38	313.95	11.94	-33.0	-48.8	3.8	7.46e-01	0	43	104	465567744	27	22197
2026-01-28 13:52:52.39	314.46	11.75	-32.9	-48.3	3.8	7.45e-01	0	43	104	465567744	27	21205
2026-01-28 13:52:55.41	314.97	11.56	-33.0	-48.9	3.8	7.47e-01	0	43	104	465567744	27	22272
2026-01-28 13:52:58.43	315.47	11.36	-32.5	-46.6	3.8	7.47e-01	0	43	104	465567744	27	18275
2026-01-28 13:53:01.45	315.97	11.17	-31.8	-45.2	3.8	7.46e-01	0	43	104	465567744	25	16899
2026-01-28 13:53:04.46	316.45	10.98	-31.6	-44.7	3.8	7.44e-01	0	43	104	465567744	25	16279
2026-01-28 13:53:07.48	316.93	10.79	-31.3	-44.3	3.8	7.46e-01	0	43	104	465567744	24	16098
2026-01-28 13:53:10.50	317.41	10.59	-31.7	-45.7	3.8	7.46e-01	0	43	104	465567744	24	17881
2026-01-28 13:53:13.51	317.87	10.40	-32.6	-47.8	3.8	7.42e-01	0	43	104	465567744	26	20693
2026-01-28 13:53:16.52	318.33	10.21	-33.1	-49.8	3.8	7.44e-01	0	43	104	465567744	26	24719
2026-01-28 13:53:19.53	318.79	10.02	-33.2	-50.0	3.8	7.43e-01	0	43	104	465567744	27	24961
2026-01-28 13:53:22.54	319.23	9.83	-33.2	-49.8	3.8	7.44e-01	0	43	104	465567744	27	24566
2026-01-28 13:53:25.56	319.68	9.64	-33.3	-50.8	3.8	7.49e-01	0	43	104	465567744	27	27017
2026-01-28 13:53:28.58	320.11	9.45	-33.2	-50.3	3.8	7.47e-01	0	43	104	465567744	27	25527
2026-01-28 13:53:31.59	320.54	9.26	-33.2	-49.8	3.8	7.46e-01	0	43	104	465567744	27	24587
2026-01-28 13:53:34.60	320.97	9.07	-33.2	-49.9	3.8	7.43e-01	0	43	104	465567744	27	24824
2026-01-28 13:53:37.60	321.38	8.88	-33.1	-49.5	3.8	7.43e-01	0	43	104	465567744	27	23943
2026-01-28 13:53:40.61	321.80	8.69	-32.5	-47.2	3.8	7.47e-01	0	43	104	465567744	27	19544
2026-01-28 13:53:43.63	322.20	8.50	-32.9	-48.8	3.8	7.46e-01	0	43	104	465567744	27	22421
2026-01-28 13:53:46.64	322.60	8.31	-32.5	-47.3	3.8	7.47e-01	0	43	104	465567744	27	19651
2026-01-28 13:53:49.66	323.00	8.12	-31.8	-45.6	3.8	7.48e-01	0	43	104	465567744	25	17667
2026-01-28 13:53:52.67	323.39	7.93	-32.4	-47.6	3.8	7.44e-01	0	43	104	465567744	25	20754
2026-01-28 13:53:55.67	323.78	7.75	-32.2	-47.0	3.8	7.43e-01	0	43	104	465567744	25	19854
2026-01-28 13:53:58.69	324.16	7.56	-32.1	-46.9	3.8	7.43e-01	0	43	104	465567744	25	19737
2026-01-28 13:54:01.71	324.53	7.38	-32.7	-48.8	3.8	7.48e-01	0	43	104	465567744	26	23057
2026-01-28 13:54:04.73	324.91	7.19	-33.0	-50.4	3.8	7.45e-01	0	43	104	465567744	26	26747
2026-01-28 13:54:07.73	325.27	7.01	-33.9	-53.3	3.8	7.45e-01	0	43	104	465567744	28	33685

#Closed at: 2026-01-28 13:54:10
#Recorded file [465 MB]: D:/data/31010_260128_164552.dat