passes_logs/2026/01/28/R2M6_AANII_01/R2M6_AANII_01__20260128_225308_NOAA_20_JPSS-1_rec.log

#Pass ID: 20260128_225308_NOAA 20 (JPSS-1)
#Satellite: NOAA 20 (JPSS-1)
#Configuration: NOAA 20
#almurnet v.1.7.20240730
#Start time: 2026-01-28 22:53:08

#Version: 2.2.20231116
#Station: R2M6_AANII_01
#Location: 30.233357 lon 59.946436 lat
#TLE: 1 43013U 17073A   26027.80586608  .00000156  00000+0  94940-4 0  9998
#TLE: 2 43013  98.7647 328.6108 0000947  21.3465 338.7750 14.19541216424550

#Time	Az	El	Level	Level2	SNR	BER	BlckErr	Temp	State	Recorded	gain1	gain2
2026-01-28 22:53:08.57	28.46	7.03	-31.1	-36.5	5.2	1.18e+00	0	41	0	0	22	6747
2026-01-28 22:53:11.58	28.72	7.22	-31.8	-39.0	6.8	1.73e-01	0	41	0	1048576	23	8282
2026-01-28 22:53:14.60	28.99	7.42	-31.4	-37.3	8.2	8.07e-02	0	41	0	7340032	23	7045
2026-01-28 22:53:17.59	29.25	7.62	-30.9	-35.5	10.0	1.28e-02	0	41	0	12582912	22	6120
2026-01-28 22:53:20.62	29.52	7.82	-30.8	-35.6	10.4	6.99e-03	0	41	0	18874368	21	6268
2026-01-28 22:53:23.64	29.80	8.02	-30.5	-35.0	11.2	1.32e-03	0	41	0	24117248	20	6085
2026-01-28 22:53:26.65	30.07	8.22	-30.7	-35.1	10.7	2.03e-03	0	42	0	29360128	21	6005
2026-01-28 22:53:29.66	30.35	8.43	-30.5	-34.6	11.2	1.45e-03	0	41	0	35651584	21	5775
2026-01-28 22:53:32.66	30.64	8.63	-30.6	-34.9	11.0	1.66e-03	0	42	0	40894464	21	5905
2026-01-28 22:53:35.67	30.92	8.83	-30.4	-34.1	11.6	7.26e-04	0	42	0	46137344	21	5504
2026-01-28 22:53:38.69	31.22	9.04	-30.4	-34.7	11.6	6.32e-04	0	42	0	52428800	20	5899
2026-01-28 22:53:41.70	31.51	9.25	-30.5	-34.5	11.4	9.45e-04	0	42	0	57671680	21	5707
2026-01-28 22:53:44.72	31.81	9.46	-30.3	-34.3	11.9	5.55e-04	0	42	0	63963136	20	5702
2026-01-28 22:53:47.73	32.12	9.67	-30.1	-33.6	12.4	2.71e-04	0	42	0	69206016	20	5377
2026-01-28 22:53:50.75	32.43	9.88	-30.0	-33.3	12.7	7.55e-05	0	42	0	74448896	20	5260
2026-01-28 22:53:53.75	32.74	10.09	-29.9	-33.1	12.8	7.93e-05	0	42	0	80740352	20	5211
2026-01-28 22:53:56.77	33.06	10.30	-29.9	-33.5	12.9	4.19e-05	0	42	0	85983232	19	5468
2026-01-28 22:53:59.78	33.38	10.52	-29.9	-33.0	12.9	5.03e-05	0	42	0	92274688	20	5163
2026-01-28 22:54:02.79	33.70	10.73	-29.9	-33.1	12.9	6.10e-05	0	42	0	97517568	20	5171
2026-01-28 22:54:05.80	34.04	10.95	-30.0	-33.3	12.8	7.01e-05	0	42	0	102760448	20	5268
2026-01-28 22:54:08.81	34.37	11.16	-30.1	-33.6	12.5	1.07e-04	0	42	0	109051904	20	5378
2026-01-28 22:54:11.82	34.71	11.38	-30.1	-33.7	12.5	1.29e-04	0	42	0	114294784	20	5441
2026-01-28 22:54:14.83	35.06	11.60	-30.2	-33.8	12.5	1.20e-04	0	42	0	119537664	20	5456
2026-01-28 22:54:17.84	35.41	11.82	-30.1	-33.6	12.6	1.46e-04	0	43	0	125829120	20	5368
2026-01-28 22:54:20.86	35.76	12.04	-29.9	-33.0	13.1	2.59e-05	0	42	0	131072000	20	5137
2026-01-28 22:54:23.86	36.12	12.26	-29.8	-32.8	13.2	1.90e-05	0	43	0	137363456	20	5056
2026-01-28 22:54:26.87	36.49	12.49	-29.9	-33.5	13.1	2.67e-05	0	43	0	142606336	19	5421
2026-01-28 22:54:29.88	36.86	12.71	-30.1	-33.6	12.6	1.33e-04	0	43	0	147849216	20	5365
2026-01-28 22:54:32.89	37.23	12.94	-30.2	-33.9	12.4	1.80e-04	0	43	0	154140672	20	5512
2026-01-28 22:54:35.89	37.61	13.16	-29.8	-32.5	13.4	9.10e-06	0	43	0	159383552	20	4959
2026-01-28 22:54:38.90	38.00	13.39	-29.7	-32.3	13.6	1.44e-05	0	43	0	164626432	20	4867
2026-01-28 22:54:41.91	38.39	13.62	-29.7	-32.4	13.6	9.10e-06	0	43	0	170917888	20	4909
2026-01-28 22:54:44.93	38.79	13.85	-29.7	-32.4	13.6	9.10e-06	0	43	0	176160768	20	4894
2026-01-28 22:54:47.93	39.20	14.08	-29.7	-32.5	13.5	9.90e-06	0	43	0	182452224	20	4930
2026-01-28 22:54:50.94	39.61	14.31	-29.7	-32.2	13.7	4.50e-06	0	43	0	187695104	20	4838
2026-01-28 22:54:53.94	40.03	14.54	-29.7	-32.4	13.6	1.06e-05	0	43	0	192937984	20	4881
2026-01-28 22:54:56.95	40.45	14.77	-29.6	-31.9	13.9	3.80e-06	0	43	0	199229440	20	4729
2026-01-28 22:54:59.95	40.88	15.01	-29.6	-32.0	13.9	2.20e-06	0	43	0	204472320	20	4737
2026-01-28 22:55:02.96	41.32	15.24	-29.5	-31.9	14.0	6.10e-06	0	43	0	209715200	20	4709
2026-01-28 22:55:05.98	41.76	15.48	-29.5	-31.8	14.0	5.30e-06	0	43	0	216006656	20	4700
2026-01-28 22:55:08.99	42.21	15.71	-29.4	-31.6	14.1	2.20e-06	0	43	0	221249536	20	4621
2026-01-28 22:55:11.99	42.67	15.95	-29.4	-31.5	14.3	7.00e-07	0	43	0	227540992	20	4586
2026-01-28 22:55:15.00	43.13	16.18	-29.3	-31.3	14.4	0.00e+00	0	43	0	232783872	20	4497
2026-01-28 22:55:18.02	43.60	16.42	-29.3	-31.6	14.6	0.00e+00	0	43	0	238026752	19	4720
2026-01-28 22:55:21.04	44.09	16.66	-29.2	-31.5	14.7	0.00e+00	0	43	0	244318208	19	4671
2026-01-28 22:55:24.04	44.57	16.90	-29.1	-31.2	14.9	7.00e-07	0	43	0	249561088	19	4586
2026-01-28 22:55:27.05	45.06	17.14	-29.3	-31.5	14.7	7.00e-07	0	43	0	255852544	19	4683
2026-01-28 22:55:30.04	45.56	17.38	-29.3	-31.7	14.6	0.00e+00	0	43	0	261095424	19	4744
2026-01-28 22:55:33.06	46.07	17.62	-29.5	-32.1	14.4	7.00e-07	0	43	0	266338304	19	4858
2026-01-28 22:55:36.07	46.59	17.86	-29.5	-32.1	14.4	7.00e-07	0	43	0	272629760	19	4873
2026-01-28 22:55:39.07	47.11	18.09	-29.7	-32.6	14.1	7.00e-07	0	43	0	277872640	19	5028
2026-01-28 22:55:42.08	47.65	18.33	-29.5	-32.2	14.4	3.00e-06	0	43	0	283115520	19	4887
2026-01-28 22:55:45.10	48.19	18.57	-29.4	-31.8	14.6	7.00e-07	0	43	0	289406976	19	4751
2026-01-28 22:55:48.10	48.74	18.81	-29.4	-31.7	14.7	7.00e-07	0	43	0	294649856	19	4735
2026-01-28 22:55:51.12	49.30	19.05	-29.4	-31.8	14.6	0.00e+00	0	43	0	300941312	19	4753
2026-01-28 22:55:54.12	49.87	19.29	-29.0	-30.8	15.0	0.00e+00	0	43	0	306184192	19	4440
2026-01-28 22:55:57.11	50.44	19.53	-28.9	-30.7	15.3	0.00e+00	0	43	0	311427072	19	4391
2026-01-28 22:56:00.12	51.02	19.77	-28.7	-30.7	15.7	0.00e+00	0	43	0	317718528	18	4505
2026-01-28 22:56:03.12	51.61	20.00	-28.7	-30.5	15.8	0.00e+00	0	43	0	322961408	18	4432
2026-01-28 22:56:06.14	52.22	20.24	-28.7	-30.5	15.7	0.00e+00	0	43	0	329252864	18	4440
2026-01-28 22:56:09.16	52.83	20.48	-28.6	-30.3	15.8	0.00e+00	0	43	0	334495744	18	4400
2026-01-28 22:56:12.16	53.45	20.71	-28.9	-31.5	15.4	0.00e+00	0	43	0	339738624	17	4886
2026-01-28 22:56:15.17	54.08	20.94	-28.8	-31.4	15.5	0.00e+00	0	43	0	346030080	17	4831
2026-01-28 22:56:18.17	54.72	21.17	-28.9	-31.7	15.4	2.36e-05	0	43	0	351272960	17	4936
2026-01-28 22:56:21.17	55.37	21.40	-28.6	-30.9	15.9	0.00e+00	0	43	0	356515840	17	4658
2026-01-28 22:56:24.19	56.03	21.63	-28.7	-31.0	15.8	0.00e+00	0	43	0	362807296	17	4705
2026-01-28 22:56:27.19	56.69	21.86	-28.9	-31.5	15.5	0.00e+00	0	43	0	368050176	17	4872
2026-01-28 22:56:30.19	57.37	22.08	-28.9	-31.6	15.4	0.00e+00	0	43	0	374341632	17	4908
2026-01-28 22:56:33.21	58.06	22.31	-29.3	-32.0	15.0	4.42e-05	0	43	0	379584512	18	4926
2026-01-28 22:56:36.22	58.76	22.53	-29.4	-32.4	14.8	0.00e+00	0	43	0	384827392	18	5037
2026-01-28 22:56:39.23	59.46	22.75	-29.5	-32.0	14.7	6.17e-05	0	43	0	391118848	19	4795
2026-01-28 22:56:42.24	60.18	22.96	-29.3	-31.4	15.1	4.73e-05	0	43	0	396361728	19	4621
2026-01-28 22:56:45.26	60.91	23.18	-29.3	-31.4	15.0	4.65e-05	0	43	0	401604608	19	4616
2026-01-28 22:56:48.27	61.64	23.39	-29.5	-32.0	14.7	0.00e+00	0	43	0	407896064	19	4812
2026-01-28 22:56:51.28	62.39	23.59	-29.4	-32.2	14.9	3.66e-04	0	43	0	413138944	18	5001
2026-01-28 22:56:54.28	63.14	23.80	-29.7	-32.6	14.3	4.35e-04	0	43	0	419430400	19	5014
2026-01-28 22:56:57.29	63.91	24.00	-29.9	-33.1	14.0	4.00e-04	0	43	0	424673280	19	5189
2026-01-28 22:57:00.29	64.68	24.19	-30.3	-33.7	13.3	1.46e-04	0	43	0	429916160	20	5315
2026-01-28 22:57:03.29	65.46	24.38	-30.1	-33.1	13.6	7.47e-05	0	43	0	436207616	20	5116
2026-01-28 22:57:06.30	66.25	24.57	-30.1	-33.1	13.6	7.60e-06	0	43	0	441450496	20	5092
2026-01-28 22:57:09.31	67.06	24.75	-30.5	-33.7	12.8	2.89e-05	0	43	0	446693376	21	5226
2026-01-28 22:57:12.31	67.87	24.93	-30.8	-34.6	12.3	1.91e-04	0	43	0	452984832	21	5578
2026-01-28 22:57:15.32	68.69	25.11	-30.7	-34.2	12.5	1.16e-04	0	43	0	458227712	21	5429
2026-01-28 22:57:18.33	69.52	25.28	-30.5	-33.8	12.9	4.19e-05	0	43	0	464519168	21	5248
2026-01-28 22:57:21.34	70.36	25.44	-31.0	-34.8	11.8	2.34e-04	0	43	0	469762048	22	5562
2026-01-28 22:57:24.35	71.20	25.60	-31.5	-35.9	10.6	3.19e-03	0	43	0	475004928	23	5954
2026-01-28 22:57:27.36	72.06	25.75	-31.5	-35.7	10.8	3.99e-03	0	43	0	481296384	23	5868
2026-01-28 22:57:30.38	72.92	25.90	-30.7	-33.9	12.5	1.48e-04	0	43	0	486539264	22	5176
2026-01-28 22:57:33.37	73.79	26.04	-30.9	-34.5	12.0	2.78e-04	0	43	0	492830720	22	5425
2026-01-28 22:57:36.37	74.67	26.17	-31.0	-34.7	12.0	3.71e-04	0	43	0	498073600	22	5503
2026-01-28 22:57:39.38	75.55	26.30	-30.9	-34.5	12.1	2.90e-04	0	43	0	503316480	22	5420
2026-01-28 22:57:42.39	76.44	26.42	-30.9	-34.4	12.2	3.18e-04	0	43	0	509607936	22	5366
2026-01-28 22:57:45.39	77.34	26.54	-30.7	-33.7	12.6	8.16e-05	0	43	0	514850816	22	5112
2026-01-28 22:57:48.39	78.24	26.65	-30.4	-32.8	13.2	2.97e-05	0	43	0	520093696	22	4779
2026-01-28 22:57:51.40	79.15	26.75	-30.5	-33.1	13.0	4.34e-05	0	43	0	526385152	22	4864
2026-01-28 22:57:54.40	80.07	26.84	-30.4	-33.1	13.1	2.74e-05	0	43	0	531628032	22	4865
2026-01-28 22:57:57.42	80.99	26.93	-30.8	-34.0	12.4	1.30e-04	0	43	0	536870912	22	5215
2026-01-28 22:58:00.42	81.92	27.00	-30.9	-34.3	12.2	2.37e-04	0	43	0	543162368	22	5347
2026-01-28 22:58:03.43	82.85	27.08	-30.8	-34.2	12.3	2.22e-04	0	43	0	548405248	22	5292
2026-01-28 22:58:06.44	83.78	27.14	-30.5	-33.3	12.9	6.10e-05	0	43	0	554696704	22	4936
2026-01-28 22:58:09.45	84.72	27.19	-30.4	-32.8	13.3	1.75e-05	0	43	0	559939584	22	4791
2026-01-28 22:58:12.45	85.66	27.24	-30.2	-33.0	13.3	7.60e-06	0	43	0	565182464	21	4957
2026-01-28 22:58:15.46	86.61	27.28	-30.2	-32.8	13.5	1.37e-05	0	43	0	571473920	21	4881
2026-01-28 22:58:18.47	87.55	27.31	-30.2	-32.8	13.5	9.10e-06	0	43	0	576716800	21	4894
2026-01-28 22:58:21.47	88.50	27.33	-29.8	-31.8	14.1	1.50e-06	0	43	0	583008256	21	4553
2026-01-28 22:58:24.48	89.45	27.35	-29.7	-31.9	14.4	1.50e-06	0	43	0	588251136	20	4684
2026-01-28 22:58:27.48	90.39	27.35	-30.1	-33.2	13.6	8.30e-06	0	43	0	593494016	20	5148
2026-01-28 22:58:30.50	91.35	27.35	-30.2	-33.5	13.4	8.54e-05	0	43	0	599785472	20	5258
2026-01-28 22:58:33.51	92.30	27.34	-30.0	-33.0	13.7	5.30e-06	0	43	0	605028352	20	5047
2026-01-28 22:58:36.52	93.24	27.32	-30.4	-33.8	13.2	1.29e-04	0	44	0	610271232	20	5367
2026-01-28 22:58:39.53	94.19	27.29	-30.6	-34.1	12.6	1.07e-04	0	44	0	616562688	21	5384
2026-01-28 22:58:42.54	95.14	27.26	-30.5	-33.8	12.9	5.95e-05	0	43	0	621805568	21	5252
2026-01-28 22:58:45.54	96.08	27.21	-30.5	-33.7	12.9	3.58e-05	0	44	0	628097024	21	5221
2026-01-28 22:58:48.55	97.02	27.16	-30.6	-34.0	12.7	5.72e-05	0	44	0	633339904	21	5336
2026-01-28 22:58:51.56	97.96	27.10	-30.9	-35.0	12.0	2.81e-04	0	44	0	638582784	21	5757
2026-01-28 22:58:54.58	98.89	27.03	-30.7	-34.4	12.4	2.08e-04	0	43	0	644874240	21	5535
2026-01-28 22:58:57.60	99.83	26.96	-30.1	-32.7	13.6	6.80e-06	0	44	0	650117120	21	4858
2026-01-28 22:59:00.60	100.75	26.87	-30.3	-33.2	13.2	1.98e-05	0	43	0	655360000	21	5046
2026-01-28 22:59:03.61	101.67	26.78	-30.5	-33.8	12.8	4.65e-05	0	44	0	661651456	21	5264
2026-01-28 22:59:06.60	102.58	26.69	-29.8	-32.0	14.0	6.80e-06	0	44	0	666894336	21	4626
2026-01-28 22:59:09.60	103.49	26.58	-29.9	-32.6	13.9	3.00e-06	0	43	0	673185792	20	4934
2026-01-28 22:59:12.62	104.39	26.47	-29.7	-32.1	14.3	3.00e-06	0	44	0	678428672	20	4740
2026-01-28 22:59:15.64	105.29	26.35	-30.0	-33.1	13.6	5.30e-06	0	44	0	683671552	20	5109
2026-01-28 22:59:18.65	106.18	26.22	-29.7	-32.2	14.1	3.00e-06	0	43	0	689963008	20	4804
2026-01-28 22:59:21.66	107.07	26.09	-29.8	-32.5	13.9	2.20e-06	0	43	0	695205888	20	4903
2026-01-28 22:59:24.67	107.94	25.95	-29.5	-31.7	14.4	1.50e-06	0	44	0	701497344	20	4636
2026-01-28 22:59:27.69	108.82	25.81	-29.1	-31.1	15.2	0.00e+00	0	43	0	706740224	19	4509
2026-01-28 22:59:30.70	109.68	25.65	-29.5	-32.0	14.6	0.00e+00	0	43	0	711983104	19	4829
2026-01-28 22:59:33.70	110.53	25.50	-29.5	-32.1	14.6	7.00e-07	0	44	0	718274560	19	4861
2026-01-28 22:59:36.71	111.37	25.33	-29.3	-31.6	14.9	0.00e+00	0	44	0	723517440	19	4662
2026-01-28 22:59:39.72	112.21	25.17	-29.3	-31.6	14.8	0.00e+00	0	44	0	728760320	19	4696
2026-01-28 22:59:42.72	113.03	24.99	-29.6	-32.4	14.3	1.50e-06	0	43	0	735051776	19	4968
2026-01-28 22:59:45.74	113.85	24.82	-30.0	-32.8	13.6	8.30e-06	0	43	0	740294656	20	5023
2026-01-28 22:59:48.76	114.66	24.63	-29.6	-32.0	14.2	3.00e-06	0	43	0	746586112	20	4719
2026-01-28 22:59:51.78	115.47	24.44	-29.7	-32.3	13.9	3.00e-06	0	44	0	751828992	20	4828
2026-01-28 22:59:54.78	116.25	24.25	-29.9	-32.7	13.7	7.60e-06	0	43	0	757071872	20	4988
2026-01-28 22:59:57.80	117.04	24.06	-30.1	-33.3	13.2	1.44e-05	0	43	0	763363328	20	5204
2026-01-28 23:00:00.80	117.81	23.86	-30.2	-33.6	13.0	3.58e-05	0	43	0	768606208	20	5322
2026-01-28 23:00:03.80	118.56	23.65	-30.0	-32.9	13.5	9.90e-06	0	44	0	773849088	20	5057
2026-01-28 23:00:06.81	119.32	23.45	-29.5	-31.7	14.3	7.00e-07	0	44	0	780140544	20	4631
2026-01-28 23:00:09.81	120.06	23.24	-29.7	-32.2	13.9	3.00e-06	0	43	0	785383424	20	4799
2026-01-28 23:00:12.81	120.79	23.02	-29.9	-32.9	13.5	9.10e-06	0	43	0	791674880	20	5057
2026-01-28 23:00:15.82	121.51	22.81	-29.8	-32.4	13.8	2.13e-05	0	43	0	796917760	20	4857
2026-01-28 23:00:18.82	122.22	22.59	-29.7	-32.3	13.8	3.80e-06	0	43	0	802160640	20	4846
2026-01-28 23:00:21.82	122.92	22.37	-29.7	-32.3	13.8	3.80e-06	0	43	0	808452096	20	4852
2026-01-28 23:00:24.82	123.61	22.15	-29.6	-32.0	14.0	5.30e-06	0	43	0	813694976	20	4737
2026-01-28 23:00:27.83	124.30	21.92	-30.1	-33.5	13.0	1.37e-05	0	43	0	818937856	20	5295
2026-01-28 23:00:30.84	124.97	21.69	-30.7	-34.5	12.0	3.97e-04	0	43	0	825229312	21	5619
2026-01-28 23:00:33.85	125.64	21.46	-30.1	-32.8	13.2	2.74e-05	0	43	0	830472192	21	4913
2026-01-28 23:00:36.87	126.29	21.23	-30.6	-34.3	12.2	1.49e-04	0	44	0	836763648	21	5499
2026-01-28 23:00:39.88	126.94	21.00	-30.3	-33.5	12.6	1.51e-04	0	43	0	842006528	21	5197
2026-01-28 23:00:42.89	127.58	20.76	-29.8	-32.5	13.7	7.60e-06	0	43	0	847249408	20	4925
2026-01-28 23:00:45.90	128.20	20.53	-30.1	-33.5	13.0	5.87e-05	0	43	0	853540864	20	5285
2026-01-28 23:00:48.91	128.82	20.29	-29.7	-32.1	13.8	1.67e-05	0	43	0	858783744	20	4796
2026-01-28 23:00:51.92	129.43	20.05	-29.9	-32.9	13.3	8.30e-06	0	43	0	865075200	20	5087
2026-01-28 23:00:54.93	130.03	19.81	-30.5	-34.3	11.9	2.58e-04	0	44	0	870318080	21	5564
2026-01-28 23:00:57.94	130.62	19.57	-30.4	-34.0	12.1	2.97e-04	0	43	0	875560960	21	5460
2026-01-28 23:01:00.95	131.20	19.33	-30.3	-33.8	12.2	2.78e-04	0	44	0	881852416	21	5363
2026-01-28 23:01:03.96	131.77	19.09	-31.1	-35.8	10.5	2.79e-03	0	43	0	887095296	22	6141
2026-01-28 23:01:06.97	132.33	18.85	-30.5	-33.7	12.0	4.95e-04	0	43	0	892338176	22	5200
2026-01-28 23:01:09.98	132.89	18.61	-30.0	-32.8	12.9	4.80e-05	0	43	0	898629632	21	4959
2026-01-28 23:01:12.99	133.44	18.37	-30.0	-33.2	13.0	2.44e-05	0	44	0	903872512	20	5210
2026-01-28 23:01:16.00	133.97	18.13	-29.7	-32.5	13.5	1.14e-05	0	43	0	910163968	20	4930
2026-01-28 23:01:19.01	134.50	17.89	-29.6	-32.2	13.6	9.10e-06	0	43	0	915406848	20	4853
2026-01-28 23:01:22.02	135.03	17.64	-29.8	-32.8	13.2	9.90e-06	0	43	0	920649728	20	5047
2026-01-28 23:01:25.04	135.54	17.40	-29.8	-32.7	13.2	1.90e-05	0	44	0	926941184	20	5028
2026-01-28 23:01:28.04	136.04	17.16	-29.5	-32.0	13.6	9.10e-06	0	44	0	932184064	20	4770
2026-01-28 23:01:31.04	136.54	16.92	-29.5	-32.4	13.7	4.50e-06	0	43	0	937426944	19	5047
2026-01-28 23:01:34.05	137.03	16.68	-29.5	-32.4	13.6	9.07e-05	0	43	0	943718400	19	5060
2026-01-28 23:01:37.05	137.51	16.44	-29.4	-32.2	13.8	5.30e-06	0	43	0	948961280	19	4962
2026-01-28 23:01:40.06	137.99	16.20	-29.2	-31.8	14.0	7.00e-07	0	43	0	955252736	19	4847
2026-01-28 23:01:43.07	138.46	15.96	-29.2	-31.7	14.0	1.50e-06	0	44	0	960495616	19	4824
2026-01-28 23:01:46.07	138.92	15.72	-29.3	-32.0	13.8	6.80e-06	0	44	0	965738496	19	4931
2026-01-28 23:01:49.08	139.37	15.49	-29.5	-32.6	13.4	7.24e-05	0	43	0	972029952	19	5156
2026-01-28 23:01:52.10	139.82	15.25	-29.6	-33.1	13.0	1.09e-04	0	44	0	977272832	19	5364
2026-01-28 23:01:55.11	140.26	15.01	-29.6	-33.1	12.8	8.69e-05	0	43	0	982515712	19	5411
2026-01-28 23:01:58.12	140.69	14.78	-29.6	-33.1	12.8	1.22e-04	0	44	0	988807168	19	5386
2026-01-28 23:02:01.13	141.12	14.54	-29.5	-33.0	12.9	1.32e-04	0	44	0	994050048	19	5349
2026-01-28 23:02:04.14	141.54	14.31	-29.7	-33.3	12.7	1.43e-04	0	44	0	1000341504	19	5469
2026-01-28 23:02:07.15	141.95	14.07	-29.8	-33.5	12.5	3.71e-04	0	44	0	1005584384	19	5533
2026-01-28 23:02:10.17	142.36	13.84	-30.0	-34.2	12.0	6.12e-04	0	43	0	1010827264	19	5863
2026-01-28 23:02:13.17	142.76	13.61	-30.1	-34.5	11.2	1.39e-03	0	43	0	1017118720	20	5985
2026-01-28 23:02:16.18	143.16	13.38	-30.0	-34.5	11.1	2.27e-03	0	43	0	1022361600	20	6039
2026-01-28 23:02:19.19	143.55	13.15	-30.2	-35.1	10.6	3.99e-03	0	44	0	1028653056	20	6329
2026-01-28 23:02:22.20	143.93	12.92	-29.8	-34.3	11.7	6.09e-04	0	43	0	1033895936	19	5992
2026-01-28 23:02:25.21	144.31	12.69	-30.0	-34.4	11.2	1.15e-03	0	44	0	1039138816	20	5924
2026-01-28 23:02:28.21	144.68	12.47	-30.2	-34.8	10.9	2.06e-03	0	44	0	1045430272	20	6102
2026-01-28 23:02:31.23	145.05	12.24	-30.1	-34.5	11.2	1.13e-03	0	44	0	1050673152	20	5935
2026-01-28 23:02:34.23	145.41	12.02	-30.1	-34.4	11.3	2.33e-03	0	44	0	1055916032	20	5923
2026-01-28 23:02:37.24	145.77	11.79	-30.1	-34.6	11.0	2.47e-03	0	43	0	1062207488	20	6056
2026-01-28 23:02:40.25	146.12	11.57	-30.1	-34.4	11.2	1.50e-03	0	43	0	1067450368	20	5958
2026-01-28 23:02:43.24	146.46	11.35	-30.0	-34.4	11.1	1.43e-03	0	43	0	1073741824	20	5981
2026-01-28 23:02:46.25	146.80	11.13	-29.8	-33.9	11.4	1.33e-03	0	44	0	1078984704	20	5778
2026-01-28 23:02:49.27	147.14	10.91	-29.7	-34.3	11.5	7.66e-04	0	44	0	1084227584	19	6072
2026-01-28 23:02:52.27	147.47	10.69	-29.6	-34.0	11.7	5.52e-04	0	44	0	1090519040	19	5920
2026-01-28 23:02:55.27	147.80	10.48	-29.6	-33.6	12.1	2.88e-04	0	44	0	1095761920	19	5719
2026-01-28 23:02:58.29	148.12	10.26	-29.6	-33.4	12.3	1.60e-04	0	44	0	1101004800	19	5581
2026-01-28 23:03:01.31	148.44	10.04	-29.7	-33.8	11.9	3.14e-04	0	44	0	1107296256	19	5758
2026-01-28 23:03:04.32	148.75	9.83	-29.7	-33.7	12.0	2.72e-04	0	43	0	1112539136	19	5716
2026-01-28 23:03:07.34	149.06	9.62	-29.7	-33.9	11.7	5.34e-04	0	44	0	1118830592	19	5874
2026-01-28 23:03:10.35	149.37	9.41	-29.7	-33.9	11.7	7.33e-04	0	44	0	1124073472	19	5904
2026-01-28 23:03:13.36	149.67	9.20	-29.8	-34.3	11.5	7.70e-04	0	44	0	1129316352	19	6007
2026-01-28 23:03:16.37	149.96	8.99	-29.9	-34.2	11.6	2.79e-03	0	44	0	1135607808	19	5927
2026-01-28 23:03:19.39	150.26	8.78	-29.7	-33.9	11.7	2.54e-03	0	43	0	1140850688	19	5855
2026-01-28 23:03:22.40	150.55	8.57	-29.2	-34.0	11.5	3.06e-03	0	43	0	1147142144	18	6298
2026-01-28 23:03:25.41	150.83	8.36	-29.1	-34.1	11.3	9.73e-04	0	44	0	1152385024	18	6412
2026-01-28 23:03:28.42	151.11	8.16	-28.8	-34.4	11.1	1.78e-03	0	44	0	1157627904	17	6885
2026-01-28 23:03:31.43	151.39	7.96	-28.8	-34.5	11.0	2.02e-03	0	44	0	1163919360	17	6912
2026-01-28 23:03:34.44	151.66	7.75	-29.3	-34.5	10.9	4.32e-03	0	44	0	1169162240	18	6619
2026-01-28 23:03:37.46	151.93	7.55	-29.5	-34.1	11.1	3.86e-03	0	44	0	1174405120	19	6081
2026-01-28 23:03:40.48	152.20	7.35	-29.8	-34.4	11.1	3.87e-03	0	44	0	1180696576	19	6094
2026-01-28 23:03:43.49	152.46	7.15	-29.6	-34.0	11.3	3.26e-03	0	44	0	1185939456	19	5951

#Closed at: 2026-01-28 23:03:46
#Recorded file [1188 MB]: D:/data/31010_260129_015310.dat