passes_logs/2026/01/28/R2M6_AANII_01/R2M6_AANII_01__20260128_003128_SUOMI_NPP_rec.log

#Pass ID: 20260128_003128_SUOMI NPP
#Satellite: SUOMI NPP
#Configuration: NPP
#almurnet v.1.7.20240730
#Start time: 2026-01-28 00:31:28

#Version: 2.2.20231116
#Station: R2M6_AANII_01
#Location: 30.233357 lon 59.946436 lat
#TLE: 1 37849U 11061A   26027.50945616  .00000185  00000+0  10897-3 0  9994
#TLE: 2 37849  98.7823 329.4511 0002105  42.1421 317.9917 14.19530771738482

#Time	Az	El	Level	Level2	SNR	BER	BlckErr	Temp	State	Recorded	gain1	gain2
2026-01-28 00:31:28.91	17.66	7.02	-32.3	-38.9	4.5	1.39e+00	0	40	0	0	24	7685
2026-01-28 00:31:31.92	17.65	7.26	-32.6	-39.6	5.1	5.50e-01	0	40	0	1048576	25	8108
2026-01-28 00:31:34.93	17.65	7.49	-32.3	-38.1	6.5	2.92e-01	0	40	0	7340032	24	7034
2026-01-28 00:31:37.93	17.64	7.73	-32.2	-37.3	7.2	1.40e-01	0	41	0	12582912	24	6470
2026-01-28 00:31:40.94	17.64	7.96	-32.0	-36.4	7.8	1.04e-01	0	41	0	17825792	24	5963
2026-01-28 00:31:43.95	17.63	8.21	-32.0	-36.8	7.9	6.22e-02	0	41	0	24117248	23	6279
2026-01-28 00:31:46.96	17.63	8.45	-31.8	-35.8	8.7	3.23e-02	0	41	0	29360128	23	5753
2026-01-28 00:31:49.97	17.62	8.70	-31.7	-35.5	9.1	2.09e-02	0	41	0	35651584	23	5596
2026-01-28 00:31:52.98	17.61	8.94	-31.6	-35.0	9.4	1.73e-02	0	41	0	40894464	23	5347
2026-01-28 00:31:55.99	17.61	9.19	-31.6	-35.0	9.5	1.50e-02	0	41	0	46137344	23	5344
2026-01-28 00:31:59.00	17.60	9.45	-31.6	-35.2	9.4	1.59e-02	0	41	0	52428800	23	5410
2026-01-28 00:32:02.01	17.59	9.70	-31.5	-34.6	9.8	1.07e-02	0	41	0	57671680	23	5157
2026-01-28 00:32:05.02	17.58	9.96	-31.4	-34.9	10.1	7.35e-03	0	41	0	63963136	22	5364
2026-01-28 00:32:08.03	17.57	10.22	-31.5	-34.6	9.9	6.98e-03	0	41	0	69206016	23	5166
2026-01-28 00:32:11.04	17.56	10.49	-31.5	-34.7	9.8	1.15e-02	0	41	0	74448896	23	5205
2026-01-28 00:32:14.06	17.56	10.76	-31.5	-34.7	9.9	8.92e-03	0	41	0	80740352	23	5165
2026-01-28 00:32:17.08	17.55	11.03	-31.5	-34.6	10.1	8.61e-03	0	41	0	85983232	23	5122
2026-01-28 00:32:20.08	17.53	11.30	-31.4	-34.5	10.5	3.82e-03	0	41	0	91226112	22	5178
2026-01-28 00:32:23.09	17.52	11.58	-31.2	-33.8	11.0	2.24e-03	0	41	0	97517568	22	4895
2026-01-28 00:32:26.10	17.51	11.86	-31.1	-33.6	11.1	1.61e-03	0	42	0	102760448	22	4809
2026-01-28 00:32:29.10	17.50	12.14	-31.1	-33.8	10.9	1.90e-03	0	42	0	109051904	22	4886
2026-01-28 00:32:32.11	17.49	12.42	-31.0	-33.7	11.5	8.62e-04	0	42	0	114294784	21	4924
2026-01-28 00:32:35.13	17.48	12.71	-30.9	-33.5	11.6	6.99e-04	0	42	0	119537664	21	4850
2026-01-28 00:32:38.14	17.46	13.01	-31.2	-34.1	10.9	1.80e-03	0	42	0	125829120	22	4976
2026-01-28 00:32:41.15	17.45	13.30	-31.1	-33.4	11.4	1.08e-03	0	42	0	131072000	22	4743
2026-01-28 00:32:44.16	17.44	13.60	-31.1	-33.6	11.3	1.62e-03	0	42	0	136314880	22	4807
2026-01-28 00:32:47.17	17.42	13.91	-30.8	-33.1	11.9	3.50e-03	0	42	0	142606336	21	4711
2026-01-28 00:32:50.19	17.41	14.21	-30.9	-33.5	11.8	3.05e-03	0	42	0	147849216	21	4835
2026-01-28 00:32:53.19	17.39	14.52	-30.6	-32.4	12.5	2.89e-03	0	42	0	154140672	21	4463
2026-01-28 00:32:56.20	17.37	14.84	-30.8	-33.1	12.0	2.25e-04	0	42	0	159383552	21	4699
2026-01-28 00:32:59.21	17.36	15.16	-30.4	-32.3	12.9	4.57e-05	0	42	0	164626432	20	4508
2026-01-28 00:33:02.21	17.34	15.48	-30.2	-31.9	13.3	2.63e-04	0	42	0	170917888	20	4358
2026-01-28 00:33:05.22	17.32	15.81	-30.5	-32.2	12.8	2.77e-03	0	42	0	176160768	21	4365
2026-01-28 00:33:08.23	17.30	16.14	-30.4	-32.3	13.0	2.43e-03	0	42	0	182452224	20	4510
2026-01-28 00:33:11.25	17.28	16.48	-30.3	-32.2	13.1	2.72e-03	0	42	0	187695104	20	4464
2026-01-28 00:33:14.26	17.26	16.82	-30.7	-32.6	12.5	2.81e-03	0	42	0	192937984	21	4501
2026-01-28 00:33:17.27	17.24	17.17	-30.8	-33.0	12.2	2.80e-03	0	42	0	199229440	21	4649
2026-01-28 00:33:20.28	17.22	17.52	-30.6	-32.3	12.8	2.52e-03	0	42	0	204472320	21	4397
2026-01-28 00:33:23.29	17.20	17.88	-30.7	-32.6	12.5	2.81e-03	0	42	0	209715200	21	4480
2026-01-28 00:33:26.30	17.17	18.24	-30.5	-32.5	13.0	2.60e-03	0	42	0	216006656	20	4543
2026-01-28 00:33:29.31	17.15	18.61	-31.1	-33.2	11.8	3.40e-03	0	42	0	221249536	22	4623
2026-01-28 00:33:32.32	17.12	18.98	-30.8	-33.0	12.3	2.84e-03	0	42	0	227540992	21	4619
2026-01-28 00:33:35.33	17.09	19.36	-31.2	-33.5	11.7	2.96e-03	0	42	0	232783872	22	4705
2026-01-28 00:33:38.33	17.07	19.75	-30.5	-31.9	13.0	7.55e-05	0	42	0	238026752	21	4274
2026-01-28 00:33:41.33	17.04	20.14	-29.9	-31.0	14.0	3.00e-06	0	43	0	244318208	20	4091
2026-01-28 00:33:44.34	17.01	20.53	-29.9	-31.3	14.2	7.00e-07	0	42	0	249561088	19	4264
2026-01-28 00:33:47.34	16.98	20.94	-30.0	-31.2	13.9	3.00e-06	0	42	0	254803968	20	4143
2026-01-28 00:33:50.35	16.95	21.35	-30.1	-31.5	13.8	2.51e-03	0	42	0	261095424	20	4209
2026-01-28 00:33:53.37	16.91	21.76	-30.3	-32.1	13.3	2.08e-03	0	43	0	266338304	20	4395
2026-01-28 00:33:56.39	16.88	22.19	-30.7	-32.7	12.7	4.50e-05	0	43	0	272629760	21	4534
2026-01-28 00:33:59.39	16.85	22.62	-30.5	-32.0	13.2	3.28e-05	0	42	0	277872640	21	4269
2026-01-28 00:34:02.38	16.81	23.06	-30.3	-32.0	13.5	1.67e-05	0	43	0	283115520	20	4364
2026-01-28 00:34:05.39	16.77	23.50	-30.5	-32.1	13.1	2.05e-05	0	42	0	289406976	21	4315
2026-01-28 00:34:08.40	16.73	23.96	-30.2	-31.8	13.6	1.44e-05	0	43	0	294649856	20	4313
2026-01-28 00:34:11.41	16.69	24.42	-30.5	-32.1	13.1	1.83e-05	0	43	0	300941312	21	4301
2026-01-28 00:34:14.43	16.65	24.89	-30.6	-32.2	13.0	3.20e-05	0	43	0	306184192	21	4354
2026-01-28 00:34:17.43	16.60	25.37	-29.4	-31.2	13.3	1.06e-05	0	42	0	311427072	20	4421
2026-01-28 00:34:20.44	16.56	25.85	-30.4	-32.3	12.2	2.21e-05	0	43	0	317718528	20	4448
2026-01-28 00:34:23.45	16.51	26.35	-30.6	-32.2	12.9	4.73e-05	0	42	0	322961408	21	4341
2026-01-28 00:34:26.45	16.46	26.85	-30.9	-33.1	12.5	1.17e-04	0	43	0	328204288	21	4646
2026-01-28 00:34:29.47	16.41	27.37	-31.2	-33.3	12.0	2.43e-04	0	43	0	334495744	22	4600
2026-01-28 00:34:32.50	16.35	27.90	-30.8	-32.7	12.8	6.40e-05	0	42	0	339738624	21	4486
2026-01-28 00:34:35.51	16.30	28.44	-30.7	-32.4	12.9	2.12e-03	0	43	0	346030080	21	4403
2026-01-28 00:34:38.52	16.24	28.98	-30.9	-33.0	12.6	2.44e-03	0	43	0	351272960	21	4608
2026-01-28 00:34:41.53	16.18	29.54	-31.3	-33.9	11.7	2.62e-03	0	43	0	356515840	22	4814
2026-01-28 00:34:44.53	16.11	30.11	-31.3	-33.6	11.9	4.16e-04	0	43	0	362807296	22	4696
2026-01-28 00:34:47.54	16.05	30.69	-31.1	-33.1	12.3	2.21e-04	0	43	0	368050176	22	4512
2026-01-28 00:34:50.55	15.98	31.28	-31.3	-33.2	11.8	2.35e-03	0	43	0	374341632	23	4480
2026-01-28 00:34:53.55	15.91	31.88	-31.7	-34.4	11.1	4.80e-03	0	43	0	379584512	23	4909
2026-01-28 00:34:56.56	15.83	32.50	-31.7	-34.4	11.0	3.19e-03	0	43	0	384827392	23	4903
2026-01-28 00:34:59.58	15.75	33.13	-32.0	-35.3	10.4	4.03e-03	0	43	0	391118848	23	5261
2026-01-28 00:35:02.59	15.67	33.77	-32.1	-35.2	10.0	9.11e-03	0	43	0	396361728	24	5140
2026-01-28 00:35:05.60	15.58	34.43	-31.5	-33.6	11.6	3.31e-03	0	43	0	401604608	23	4624
2026-01-28 00:35:08.61	15.49	35.10	-30.8	-32.8	12.8	3.28e-05	0	43	0	407896064	21	4505
2026-01-28 00:35:11.62	15.40	35.78	-30.2	-31.5	14.0	1.35e-03	0	43	0	413138944	20	4204
2026-01-28 00:35:14.63	15.30	36.48	-29.7	-30.3	14.8	1.34e-03	0	43	0	419430400	20	3851
2026-01-28 00:35:17.64	15.19	37.19	-29.4	-30.4	15.3	1.08e-03	0	43	0	424673280	18	4078
2026-01-28 00:35:20.66	15.08	37.93	-29.3	-30.4	15.4	1.02e-03	0	43	0	429916160	18	4050
2026-01-28 00:35:23.67	14.97	38.67	-29.7	-30.7	14.9	2.65e-04	0	43	0	436207616	19	4051
2026-01-28 00:35:26.68	14.85	39.44	-29.4	-30.6	15.2	0.00e+00	0	43	0	441450496	18	4116
2026-01-28 00:35:29.70	14.72	40.22	-29.3	-30.2	15.5	0.00e+00	0	43	0	447741952	18	4005
2026-01-28 00:35:32.72	14.58	41.02	-29.2	-30.1	15.6	0.00e+00	0	43	0	452984832	18	3969
2026-01-28 00:35:35.73	14.44	41.84	-29.7	-30.7	14.9	0.00e+00	0	43	0	458227712	19	4056
2026-01-28 00:35:38.75	14.29	42.68	-30.1	-31.4	14.1	1.50e-06	0	43	0	464519168	20	4166
2026-01-28 00:35:41.77	14.13	43.53	-30.2	-31.6	14.0	0.00e+00	0	43	0	469762048	20	4236
2026-01-28 00:35:44.78	13.97	44.40	-30.3	-31.9	13.7	0.00e+00	0	43	0	476053504	20	4309
2026-01-28 00:35:47.78	13.79	45.29	-30.7	-32.5	13.1	2.05e-05	0	43	0	481296384	21	4404
2026-01-28 00:35:50.79	13.60	46.21	-31.0	-32.8	12.6	3.66e-05	0	43	0	486539264	22	4430
2026-01-28 00:35:53.80	13.40	47.14	-31.8	-34.7	11.0	1.49e-03	0	43	0	492830720	23	5024
2026-01-28 00:35:56.82	13.18	48.09	-31.7	-33.9	10.9	3.19e-03	0	43	0	498073600	24	4636
2026-01-28 00:35:59.83	12.95	49.07	-31.4	-33.4	11.8	2.88e-04	0	43	0	503316480	23	4541
2026-01-28 00:36:02.84	12.71	50.06	-30.4	-31.7	13.6	2.89e-05	0	43	0	509607936	21	4167
2026-01-28 00:36:05.84	12.44	51.08	-29.4	-30.1	15.2	0.00e+00	0	43	0	514850816	19	3897
2026-01-28 00:36:08.85	12.16	52.12	-29.3	-29.8	15.4	0.00e+00	0	43	0	521142272	19	3796
2026-01-28 00:36:11.86	11.86	53.18	-29.4	-30.1	15.3	0.00e+00	0	43	0	526385152	19	3885
2026-01-28 00:36:14.86	11.53	54.26	-28.9	-29.3	16.1	0.00e+00	0	43	0	531628032	18	3761
2026-01-28 00:36:17.88	11.18	55.37	-29.2	-30.1	15.6	0.00e+00	0	43	0	537919488	18	3965
2026-01-28 00:36:20.89	10.79	56.49	-29.3	-30.3	15.5	0.00e+00	0	43	0	543162368	18	4038
2026-01-28 00:36:23.88	10.37	57.64	-30.4	-31.6	13.7	6.80e-06	0	43	0	548405248	21	4131
2026-01-28 00:36:26.89	9.92	58.81	-31.0	-32.8	12.6	7.85e-05	0	43	0	554696704	22	4410
2026-01-28 00:36:29.91	9.41	60.00	-31.5	-33.9	11.6	5.09e-04	0	43	0	559939584	23	4712
2026-01-28 00:36:32.91	8.86	61.21	-31.2	-32.8	12.2	2.01e-04	0	43	0	566231040	23	4344
2026-01-28 00:36:35.93	8.25	62.45	-30.5	-31.5	13.6	1.06e-05	0	43	0	571473920	22	3998
2026-01-28 00:36:38.94	7.58	63.70	-29.5	-29.7	15.2	0.00e+00	0	43	0	576716800	20	3704
2026-01-28 00:36:41.95	6.82	64.97	-29.3	-29.8	15.5	2.20e-06	0	43	0	583008256	19	3809
2026-01-28 00:36:44.97	5.97	66.27	-30.5	-31.8	13.7	1.06e-05	0	43	0	588251136	21	4182
2026-01-28 00:36:47.99	5.01	67.57	-31.0	-32.8	12.7	1.62e-04	0	43	0	594542592	22	4397
2026-01-28 00:36:51.00	3.92	68.89	-32.0	-34.8	10.7	4.11e-03	0	43	0	599785472	24	4951
2026-01-28 00:36:54.00	2.68	70.22	-31.7	-34.3	11.3	7.02e-04	0	43	0	605028352	23	4845
2026-01-28 00:36:57.00	1.24	71.55	-30.5	-31.3	13.6	3.00e-06	0	43	0	611319808	22	3945
2026-01-28 00:37:00.01	359.55	72.89	-30.2	-31.5	14.1	3.80e-06	0	43	0	616562688	20	4194
2026-01-28 00:37:03.02	357.56	74.23	-31.0	-32.7	12.8	5.03e-05	0	43	0	621805568	22	4352
2026-01-28 00:37:06.03	355.18	75.56	-32.1	-34.6	10.4	2.17e-02	0	43	0	628097024	25	4763
2026-01-28 00:37:09.03	352.31	76.87	-32.9	-37.1	8.2	4.20e-02	0	43	0	633339904	26	5789
2026-01-28 00:37:12.04	348.78	78.16	-32.4	-36.0	9.9	5.24e-03	0	43	0	639631360	24	5433
2026-01-28 00:37:15.05	344.37	79.40	-33.0	-37.3	7.9	8.50e-02	0	43	0	644874240	26	5918
2026-01-28 00:37:18.06	338.81	80.57	-32.3	-35.2	10.0	1.93e-02	0	43	0	650117120	25	5037
2026-01-28 00:37:21.07	331.72	81.64	-31.0	-32.5	13.0	2.36e-05	0	43	0	656408576	22	4298
2026-01-28 00:37:24.08	322.71	82.55	-31.1	-32.7	13.0	2.51e-05	0	43	0	661651456	22	4367
2026-01-28 00:37:27.09	311.54	83.23	-30.8	-32.0	13.4	3.12e-05	0	43	0	666894336	22	4127
2026-01-28 00:37:30.10	298.48	83.60	-30.8	-32.6	13.3	1.14e-05	0	43	0	673185792	21	4428
2026-01-28 00:37:33.11	284.59	83.62	-30.2	-31.6	13.9	1.50e-06	0	43	0	678428672	20	4197
2026-01-28 00:37:36.12	271.40	83.27	-29.7	-30.6	15.1	0.00e+00	0	43	0	684720128	19	4003
2026-01-28 00:37:39.13	260.04	82.62	-31.1	-33.0	12.6	1.81e-04	0	43	0	689963008	22	4454
2026-01-28 00:37:42.13	250.87	81.73	-31.3	-33.1	12.1	3.29e-04	0	43	0	695205888	23	4419
2026-01-28 00:37:45.13	243.64	80.68	-32.2	-35.5	9.9	7.55e-03	0	43	0	701497344	24	5272
2026-01-28 00:37:48.15	237.93	79.51	-32.2	-35.5	10.1	1.16e-02	0	43	0	706740224	24	5272
2026-01-28 00:37:51.17	233.41	78.27	-32.2	-35.6	9.8	1.54e-02	0	43	0	713031680	24	5299
2026-01-28 00:37:54.18	229.81	76.98	-32.1	-35.1	10.3	8.21e-03	0	43	0	718274560	24	5093
2026-01-28 00:37:57.19	226.88	75.67	-31.2	-33.3	12.2	2.23e-04	0	43	0	723517440	22	4582
2026-01-28 00:38:00.18	224.48	74.34	-30.3	-31.4	13.6	1.06e-05	0	43	0	729808896	21	4076
2026-01-28 00:38:03.19	222.45	73.00	-30.8	-32.8	12.7	6.01e-04	0	43	0	735051776	21	4540
2026-01-28 00:38:06.21	220.74	71.65	-32.1	-35.3	9.9	3.38e-02	0	43	0	740294656	24	5248
2026-01-28 00:38:09.23	219.27	70.31	-31.9	-34.5	10.5	7.78e-03	0	43	0	746586112	24	4880
2026-01-28 00:38:12.24	218.00	68.98	-32.3	-36.1	9.3	2.03e-02	0	43	0	751828992	24	5563
2026-01-28 00:38:15.25	216.90	67.66	-31.5	-33.8	11.3	1.21e-03	0	43	0	758120448	23	4689
2026-01-28 00:38:18.26	215.93	66.35	-31.2	-33.4	12.1	1.32e-03	0	43	0	763363328	22	4642
2026-01-28 00:38:21.27	215.08	65.06	-29.0	-29.6	15.7	0.00e+00	0	43	0	768606208	18	3857
2026-01-28 00:38:24.28	214.31	63.78	-30.1	-31.5	14.0	1.22e-03	0	43	0	774897664	20	4199
2026-01-28 00:38:27.29	213.63	62.52	-30.8	-32.7	12.8	1.49e-03	0	43	0	780140544	21	4505
2026-01-28 00:38:30.30	213.01	61.29	-29.7	-30.9	14.6	1.92e-03	0	43	0	785383424	19	4123
2026-01-28 00:38:33.31	212.46	60.07	-30.3	-31.8	13.7	2.21e-03	0	43	0	791674880	20	4316
2026-01-28 00:38:36.31	211.95	58.88	-29.1	-29.2	15.6	2.17e-03	0	43	0	796917760	19	3666
2026-01-28 00:38:39.33	211.49	57.70	-28.5	-29.0	16.3	0.00e+00	0	43	0	803209216	17	3793
2026-01-28 00:38:42.35	211.07	56.54	-29.6	-30.7	14.8	0.00e+00	0	43	0	808452096	19	4069
2026-01-28 00:38:45.36	210.68	55.41	-28.2	-28.6	16.8	0.00e+00	0	43	0	813694976	16	3797
2026-01-28 00:38:48.37	210.32	54.30	-27.6	-27.8	17.3	0.00e+00	0	43	0	819986432	15	3697
2026-01-28 00:38:51.38	209.99	53.21	-29.9	-31.4	14.3	1.81e-03	0	43	0	825229312	19	4270
2026-01-28 00:38:54.39	209.68	52.14	-30.7	-32.6	12.8	4.27e-05	0	43	0	831520768	21	4454
2026-01-28 00:38:57.40	209.40	51.10	-30.0	-31.6	14.2	7.00e-07	0	43	0	836763648	19	4340
2026-01-28 00:39:00.41	209.13	50.08	-30.0	-31.7	14.1	0.00e+00	0	43	0	842006528	19	4385
2026-01-28 00:39:03.43	208.89	49.07	-30.5	-32.1	13.1	7.70e-05	0	43	0	848297984	21	4334
2026-01-28 00:39:06.43	208.66	48.10	-30.5	-32.7	12.4	1.45e-03	0	43	0	853540864	21	4634
2026-01-28 00:39:09.45	208.44	47.14	-30.6	-31.8	12.9	2.21e-04	0	43	0	858783744	22	4147
2026-01-28 00:39:12.47	208.23	46.20	-29.8	-30.3	14.2	3.00e-06	0	43	0	865075200	21	3789
2026-01-28 00:39:15.48	208.04	45.28	-31.3	-33.9	11.5	8.38e-04	0	43	0	870318080	22	4846
2026-01-28 00:39:18.49	207.86	44.38	-33.0	-38.8	6.3	8.68e-02	0	43	0	876609536	26	7001
2026-01-28 00:39:21.49	207.69	43.51	-33.2	-39.8	5.6	5.70e-01	0	43	0	881852416	26	7691
2026-01-28 00:39:24.51	207.53	42.65	-30.6	-32.2	12.9	2.56e-04	0	43	0	887095296	21	4368
2026-01-28 00:39:27.52	207.38	41.81	-30.9	-32.9	12.5	2.42e-04	0	43	0	893386752	22	4511
2026-01-28 00:39:30.54	207.24	40.99	-31.9	-34.9	10.0	1.19e-02	0	43	0	898629632	24	5074
2026-01-28 00:39:33.56	207.10	40.19	-31.7	-34.1	10.5	2.17e-02	0	43	0	904921088	24	4751
2026-01-28 00:39:36.56	206.97	39.40	-29.2	-29.6	15.3	3.42e-04	0	43	0	910163968	19	3773
2026-01-28 00:39:39.58	206.85	38.64	-30.2	-31.8	13.5	1.68e-04	0	43	0	915406848	20	4330
2026-01-28 00:39:42.59	206.73	37.88	-31.8	-35.3	10.1	6.66e-03	0	43	0	921698304	23	5358
2026-01-28 00:39:45.60	206.62	37.15	-31.4	-33.8	11.1	2.68e-03	0	43	0	926941184	23	4769
2026-01-28 00:39:48.60	206.52	36.44	-31.4	-33.8	11.1	2.52e-03	0	43	0	932184064	23	4761
2026-01-28 00:39:51.61	206.42	35.73	-31.8	-35.2	10.0	5.98e-03	0	43	0	938475520	23	5307
2026-01-28 00:39:54.61	206.32	35.05	-30.6	-32.5	12.7	2.54e-03	0	43	0	943718400	21	4482
2026-01-28 00:39:57.62	206.23	34.37	-30.8	-33.1	12.2	2.24e-03	0	43	0	950009856	21	4670
2026-01-28 00:40:00.63	206.14	33.71	-31.3	-34.1	11.2	3.09e-03	0	43	0	955252736	22	4965
2026-01-28 00:40:03.63	206.06	33.07	-32.2	-36.2	8.9	2.77e-02	0	43	0	960495616	24	5688
2026-01-28 00:40:06.65	205.98	32.44	-32.5	-37.1	7.7	6.94e-02	0	43	0	966787072	25	6104
2026-01-28 00:40:09.66	205.90	31.82	-32.0	-35.3	9.5	1.97e-02	0	43	0	972029952	24	5277
2026-01-28 00:40:12.66	205.83	31.21	-31.4	-33.8	10.9	2.34e-03	0	43	0	978321408	23	4778
2026-01-28 00:40:15.66	205.76	30.62	-31.2	-33.9	11.3	3.69e-03	0	43	0	983564288	22	4890
2026-01-28 00:40:18.68	205.69	30.04	-30.9	-33.0	11.9	2.56e-03	0	43	0	988807168	22	4556
2026-01-28 00:40:21.69	205.62	29.47	-30.5	-32.3	12.6	7.78e-05	0	43	0	995098624	21	4442
2026-01-28 00:40:24.70	205.56	28.91	-30.5	-32.4	12.6	1.27e-04	0	43	0	1000341504	21	4465
2026-01-28 00:40:27.71	205.50	28.36	-31.0	-33.8	11.6	3.91e-04	0	43	0	1005584384	21	4976
2026-01-28 00:40:30.71	205.44	27.82	-31.3	-34.3	10.9	1.72e-03	0	43	0	1011875840	22	5077
2026-01-28 00:40:33.72	205.39	27.29	-31.1	-33.6	11.4	1.51e-03	0	43	0	1017118720	22	4813
2026-01-28 00:40:36.72	205.33	26.78	-30.3	-31.8	12.9	5.64e-05	0	43	0	1023410176	21	4282
2026-01-28 00:40:39.74	205.28	26.27	-29.7	-31.0	14.1	3.80e-06	0	43	0	1028653056	19	4212
2026-01-28 00:40:42.75	205.23	25.77	-29.5	-30.7	14.4	7.00e-07	0	43	0	1033895936	19	4104
2026-01-28 00:40:45.74	205.18	25.28	-30.1	-31.7	13.3	9.90e-06	0	43	0	1040187392	20	4327
2026-01-28 00:40:48.75	205.14	24.80	-31.1	-33.6	11.3	7.30e-04	0	43	0	1045430272	22	4800
2026-01-28 00:40:51.77	205.09	24.33	-31.5	-34.4	10.4	4.53e-03	0	43	0	1050673152	23	5034
2026-01-28 00:40:54.78	205.05	23.86	-31.2	-33.8	11.2	1.55e-03	0	43	0	1056964608	22	4887
2026-01-28 00:40:57.79	205.01	23.41	-31.0	-33.4	11.3	9.00e-04	0	43	0	1062207488	22	4742
2026-01-28 00:41:00.79	204.97	22.96	-30.3	-31.6	12.9	4.50e-05	0	43	0	1068498944	21	4213
2026-01-28 00:41:03.80	204.93	22.52	-29.8	-31.2	13.9	3.80e-06	0	43	0	1073741824	19	4262
2026-01-28 00:41:06.82	204.89	22.09	-29.6	-30.7	14.2	0.00e+00	0	43	0	1078984704	19	4111
2026-01-28 00:41:09.83	204.86	21.66	-29.2	-30.3	14.8	3.00e-06	0	43	0	1085276160	18	4077
2026-01-28 00:41:12.84	204.82	21.24	-29.5	-30.5	14.3	0.00e+00	0	43	0	1090519040	19	4057
2026-01-28 00:41:15.85	204.79	20.83	-29.6	-30.9	14.0	4.80e-05	0	43	0	1095761920	19	4178
2026-01-28 00:41:18.86	204.76	20.43	-29.8	-31.7	13.2	7.07e-03	0	43	0	1102053376	19	4486
2026-01-28 00:41:21.86	204.72	20.03	-29.6	-31.1	13.6	2.72e-03	0	43	0	1107296256	19	4285
2026-01-28 00:41:24.88	204.69	19.64	-29.5	-30.8	13.5	2.65e-03	0	43	0	1113587712	19	4186
2026-01-28 00:41:27.90	204.66	19.25	-29.3	-30.9	13.7	1.40e-02	0	43	0	1118830592	18	4336
2026-01-28 00:41:30.91	204.64	18.87	-29.9	-32.0	12.9	9.08e-03	0	43	0	1124073472	19	4555
2026-01-28 00:41:33.92	204.61	18.49	-30.4	-32.8	12.3	1.16e-03	0	43	0	1130364928	20	4716
2026-01-28 00:41:36.93	204.58	18.12	-31.1	-33.7	11.0	1.06e-03	0	43	0	1135607808	22	4875
2026-01-28 00:41:39.94	204.56	17.76	-31.6	-35.0	9.5	9.34e-03	0	43	0	1141899264	23	5340
2026-01-28 00:41:42.96	204.53	17.40	-31.6	-35.2	9.4	1.59e-02	0	43	0	1147142144	23	5445
2026-01-28 00:41:45.98	204.51	17.05	-31.6	-35.3	9.3	1.79e-02	0	43	0	1152385024	23	5498
2026-01-28 00:41:48.98	204.48	16.70	-31.6	-35.2	9.4	1.61e-02	0	43	0	1158676480	23	5427
2026-01-28 00:41:51.98	204.46	16.36	-31.6	-35.1	9.5	1.48e-02	0	43	0	1163919360	23	5382
2026-01-28 00:41:54.99	204.44	16.02	-31.5	-35.2	9.7	1.07e-02	0	43	0	1169162240	22	5523
2026-01-28 00:41:58.00	204.42	15.68	-31.4	-34.9	9.9	9.06e-03	0	43	0	1175453696	22	5400
2026-01-28 00:42:01.01	204.40	15.36	-31.2	-34.5	10.2	6.12e-03	0	43	0	1180696576	22	5217
2026-01-28 00:42:04.02	204.38	15.03	-31.2	-34.5	10.2	7.27e-03	0	43	0	1186988032	22	5230
2026-01-28 00:42:07.03	204.36	14.71	-31.3	-34.5	10.1	8.03e-03	0	43	0	1192230912	22	5252
2026-01-28 00:42:10.04	204.34	14.39	-31.1	-34.1	10.4	4.48e-03	0	43	0	1197473792	22	5047
2026-01-28 00:42:13.06	204.32	14.08	-30.9	-33.3	11.0	2.43e-03	0	43	0	1203765248	22	4743
2026-01-28 00:42:16.07	204.30	13.77	-30.8	-33.4	11.2	1.21e-03	0	43	0	1209008128	21	4903
2026-01-28 00:42:19.08	204.28	13.47	-30.7	-33.1	11.4	1.25e-03	0	43	0	1215299584	21	4790
2026-01-28 00:42:22.09	204.27	13.17	-30.4	-33.0	11.8	4.03e-04	0	43	0	1220542464	20	4831
2026-01-28 00:42:25.09	204.25	12.87	-30.4	-32.8	12.0	3.81e-04	0	43	0	1225785344	20	4748
2026-01-28 00:42:28.09	204.24	12.58	-30.4	-32.3	11.9	3.25e-04	0	43	0	1232076800	21	4497
2026-01-28 00:42:31.10	204.22	12.29	-30.4	-33.1	11.7	5.68e-04	0	43	0	1237319680	20	4888
2026-01-28 00:42:34.10	204.21	12.00	-30.5	-32.7	11.6	6.44e-04	0	43	0	1242562560	21	4632
2026-01-28 00:42:37.11	204.19	11.72	-30.6	-33.0	11.3	1.58e-03	0	43	0	1248854016	21	4754
2026-01-28 00:42:40.10	204.18	11.44	-30.5	-32.9	11.4	9.41e-04	0	43	0	1254096896	21	4716
2026-01-28 00:42:43.11	204.17	11.16	-30.5	-32.8	11.4	8.32e-04	0	43	0	1260388352	21	4691
2026-01-28 00:42:46.12	204.15	10.89	-30.7	-33.5	10.9	3.68e-03	0	43	0	1265631232	21	4945
2026-01-28 00:42:49.13	204.14	10.62	-30.6	-33.2	11.1	3.82e-03	0	43	0	1270874112	21	4851
2026-01-28 00:42:52.14	204.13	10.35	-30.7	-33.4	11.0	2.30e-03	0	43	0	1277165568	21	4917
2026-01-28 00:42:55.14	204.12	10.09	-30.9	-34.2	10.3	3.82e-03	0	43	0	1282408448	21	5263
2026-01-28 00:42:58.14	204.11	9.82	-30.6	-33.1	11.1	1.77e-03	0	43	0	1287651328	21	4813
2026-01-28 00:43:01.14	204.09	9.57	-30.6	-33.2	11.0	4.45e-03	0	43	0	1293942784	21	4857
2026-01-28 00:43:04.15	204.08	9.31	-30.6	-33.3	10.9	4.09e-03	0	43	0	1299185664	21	4898
2026-01-28 00:43:07.16	204.07	9.06	-30.7	-33.7	10.6	5.66e-03	0	43	0	1305477120	21	5050
2026-01-28 00:43:10.18	204.06	8.80	-30.7	-33.5	10.7	5.52e-03	0	43	0	1310720000	21	5004
2026-01-28 00:43:13.19	204.05	8.55	-30.6	-33.4	10.7	6.02e-03	0	43	0	1315962880	21	4942
2026-01-28 00:43:16.19	204.04	8.31	-30.7	-33.6	10.6	5.14e-03	0	43	0	1322254336	21	5048
2026-01-28 00:43:19.20	204.04	8.06	-30.8	-34.0	10.2	8.23e-03	0	43	0	1327497216	21	5212
2026-01-28 00:43:22.22	204.03	7.82	-30.8	-34.1	10.2	8.42e-03	0	43	0	1332740096	21	5256
2026-01-28 00:43:25.24	204.02	7.58	-30.8	-34.3	10.0	1.20e-02	0	43	0	1339031552	21	5347
2026-01-28 00:43:28.25	204.01	7.34	-30.8	-34.0	10.1	1.05e-02	0	43	0	1344274432	21	5250
2026-01-28 00:43:31.27	204.00	7.11	-30.9	-34.4	10.0	1.02e-02	0	43	0	1350565888	21	5417

#Closed at: 2026-01-28 00:43:33
#Recorded file [1350 MB]: D:/data/31010_260128_033130.dat