passes_logs/2026/01/28/R2M6_AANII_01/R2M6_AANII_01__20260128_084517_SUOMI_NPP_rec.log

#Pass ID: 20260128_084517_SUOMI NPP
#Satellite: SUOMI NPP
#Configuration: NPP
#almurnet v.1.7.20240730
#Start time: 2026-01-28 08:45:19

#Version: 2.2.20231116
#Station: R2M6_AANII_01
#Location: 30.233357 lon 59.946436 lat
#TLE: 1 37849U 11061A   26027.86188320  .00000172  00000+0  10275-3 0  9990
#TLE: 2 37849  98.7823 329.8005 0002088  41.4184 318.7150 14.19530883738530

#Time	Az	El	Level	Level2	SNR	BER	BlckErr	Temp	State	Recorded	gain1	gain2
2026-01-28 08:45:19.76	109.20	7.14	-32.1	-37.9	4.5	1.37e+00	0	39	0	0	25	7049
2026-01-28 08:45:22.76	108.96	7.34	-32.1	-37.3	6.4	2.58e-01	0	39	0	1048576	25	6563
2026-01-28 08:45:25.77	108.71	7.55	-32.1	-37.5	6.3	2.39e-01	0	39	0	7340032	25	6698
2026-01-28 08:45:28.77	108.46	7.76	-32.1	-37.2	6.5	3.04e-01	0	39	0	12582912	25	6484
2026-01-28 08:45:31.79	108.21	7.96	-31.4	-34.4	9.1	3.36e-02	0	39	0	17825792	24	5090
2026-01-28 08:45:34.80	107.95	8.17	-30.9	-33.1	10.5	4.49e-03	0	39	0	24117248	23	4634
2026-01-28 08:45:37.80	107.69	8.38	-31.2	-34.2	9.8	8.11e-03	0	40	0	29360128	23	5051
2026-01-28 08:45:40.81	107.42	8.60	-30.9	-32.9	10.8	3.78e-03	0	40	0	35651584	23	4546
2026-01-28 08:45:43.82	107.15	8.81	-30.9	-33.1	10.7	2.85e-03	0	40	0	40894464	23	4601
2026-01-28 08:45:46.84	106.88	9.02	-31.1	-33.7	10.2	5.54e-03	0	40	0	46137344	23	4856
2026-01-28 08:45:49.84	106.60	9.24	-31.1	-33.7	10.3	5.52e-03	0	40	0	52428800	23	4831
2026-01-28 08:45:52.86	106.32	9.46	-31.1	-33.6	10.4	4.19e-03	0	40	0	57671680	23	4792
2026-01-28 08:45:55.86	106.04	9.67	-31.3	-34.2	10.0	8.89e-03	0	40	0	63963136	23	5020
2026-01-28 08:45:58.88	105.75	9.89	-31.0	-33.0	10.8	3.50e-03	0	40	0	69206016	23	4576
2026-01-28 08:46:01.89	105.45	10.11	-30.8	-32.9	11.4	7.77e-04	0	40	0	74448896	22	4595
2026-01-28 08:46:04.89	105.15	10.33	-31.2	-34.4	10.4	3.64e-03	0	40	0	80740352	22	5189
2026-01-28 08:46:07.91	104.85	10.56	-30.9	-33.4	11.0	2.21e-03	0	40	0	85983232	22	4807
2026-01-28 08:46:10.92	104.54	10.78	-30.9	-33.2	11.1	1.22e-03	0	40	0	91226112	22	4715
2026-01-28 08:46:13.91	104.23	11.00	-31.1	-34.0	10.6	3.58e-03	0	41	0	97517568	22	5037
2026-01-28 08:46:16.92	103.91	11.23	-31.1	-34.0	10.6	3.44e-03	0	41	0	102760448	22	5020
2026-01-28 08:46:19.93	103.58	11.46	-30.8	-32.7	11.6	8.58e-04	0	41	0	109051904	22	4529
2026-01-28 08:46:22.94	103.26	11.69	-31.0	-33.5	11.0	1.55e-03	0	41	0	114294784	22	4811
2026-01-28 08:46:25.95	102.92	11.92	-30.9	-33.2	11.2	1.90e-03	0	41	0	119537664	22	4709
2026-01-28 08:46:28.96	102.58	12.15	-30.6	-32.2	12.0	3.53e-04	0	41	0	125829120	22	4334
2026-01-28 08:46:31.97	102.24	12.38	-30.7	-32.6	11.8	3.84e-04	0	41	0	131072000	22	4482
2026-01-28 08:46:34.99	101.88	12.62	-31.0	-33.6	11.1	1.23e-03	0	41	0	136314880	22	4828
2026-01-28 08:46:37.99	101.53	12.85	-31.0	-33.5	11.2	1.69e-03	0	41	0	142606336	22	4784
2026-01-28 08:46:41.00	101.17	13.09	-30.9	-33.0	11.6	9.96e-04	0	41	0	147849216	22	4586
2026-01-28 08:46:44.00	100.80	13.32	-31.2	-34.1	10.8	2.16e-03	0	41	0	154140672	22	5015
2026-01-28 08:46:47.01	100.42	13.56	-31.0	-33.6	11.1	1.59e-03	0	41	0	159383552	22	4810
2026-01-28 08:46:50.02	100.04	13.80	-30.7	-32.6	11.8	4.86e-04	0	41	0	164626432	22	4458
2026-01-28 08:46:53.02	99.66	14.04	-30.6	-32.3	12.1	3.29e-04	0	41	0	170917888	22	4349
2026-01-28 08:46:56.03	99.27	14.28	-30.3	-31.9	12.7	5.26e-05	0	41	0	176160768	21	4304
2026-01-28 08:46:59.04	98.87	14.52	-30.3	-31.9	12.8	3.89e-05	0	41	0	181403648	21	4285
2026-01-28 08:47:02.05	98.46	14.77	-30.3	-31.9	12.9	4.11e-05	0	41	0	187695104	21	4280
2026-01-28 08:47:05.06	98.05	15.01	-30.3	-31.7	12.9	2.89e-05	0	41	0	192937984	21	4216
2026-01-28 08:47:08.06	97.63	15.25	-30.6	-32.5	12.5	9.99e-05	0	41	0	199229440	21	4483
2026-01-28 08:47:11.07	97.20	15.50	-30.4	-32.1	12.8	6.17e-05	0	41	0	204472320	21	4340
2026-01-28 08:47:14.09	96.76	15.75	-30.3	-31.8	13.0	2.67e-05	0	41	0	209715200	21	4254
2026-01-28 08:47:17.09	96.32	16.00	-30.3	-31.6	13.1	5.79e-05	0	41	0	216006656	21	4190
2026-01-28 08:47:20.10	95.87	16.24	-30.2	-31.5	13.2	2.21e-05	0	41	0	221249536	21	4140
2026-01-28 08:47:23.12	95.41	16.49	-30.5	-32.5	12.4	1.01e-04	0	41	0	227540992	21	4522
2026-01-28 08:47:26.12	94.95	16.74	-30.3	-31.8	12.9	4.11e-05	0	41	0	232783872	21	4286
2026-01-28 08:47:29.13	94.48	16.99	-30.5	-32.6	12.4	1.01e-04	0	41	0	238026752	21	4562
2026-01-28 08:47:32.14	94.00	17.24	-30.8	-32.7	12.0	2.81e-04	0	41	0	244318208	22	4496
2026-01-28 08:47:35.15	93.51	17.50	-30.6	-32.2	12.5	1.23e-04	0	41	0	249561088	22	4304
2026-01-28 08:47:38.16	93.01	17.75	-31.3	-34.4	10.9	1.94e-03	0	41	0	254803968	22	5147
2026-01-28 08:47:41.17	92.51	18.00	-30.8	-32.6	12.2	2.27e-04	0	41	0	261095424	22	4460
2026-01-28 08:47:44.19	91.99	18.25	-30.9	-32.9	12.0	2.86e-04	0	41	0	266338304	22	4553
2026-01-28 08:47:47.20	91.47	18.51	-30.8	-32.8	12.1	4.16e-04	0	41	0	272629760	22	4511
2026-01-28 08:47:50.21	90.94	18.76	-30.7	-32.6	12.2	1.87e-04	0	41	0	277872640	22	4435
2026-01-28 08:47:53.23	90.39	19.01	-30.7	-32.6	12.2	2.46e-04	0	41	0	283115520	22	4444
2026-01-28 08:47:56.23	89.84	19.26	-30.8	-32.7	12.2	2.51e-04	0	41	0	289406976	22	4491
2026-01-28 08:47:59.23	89.29	19.51	-30.9	-33.1	12.0	4.05e-04	0	41	0	294649856	22	4605
2026-01-28 08:48:02.24	88.72	19.77	-30.9	-32.8	12.1	3.07e-04	0	41	0	300941312	22	4527
2026-01-28 08:48:05.26	88.14	20.02	-30.4	-31.5	13.0	3.58e-05	0	41	0	306184192	22	4090
2026-01-28 08:48:08.26	87.55	20.27	-30.7	-32.2	12.7	7.01e-05	0	41	0	311427072	22	4273
2026-01-28 08:48:11.28	86.95	20.52	-30.6	-31.9	12.8	3.89e-05	0	41	0	317718528	22	4182
2026-01-28 08:48:14.28	86.35	20.77	-31.0	-33.3	11.9	2.83e-04	0	41	0	322961408	22	4652
2026-01-28 08:48:17.29	85.73	21.02	-30.8	-32.5	12.4	1.11e-04	0	41	0	328204288	22	4375
2026-01-28 08:48:20.31	85.10	21.26	-30.4	-31.3	13.2	1.83e-05	0	41	0	334495744	22	4025
2026-01-28 08:48:23.32	84.46	21.51	-29.9	-30.5	14.0	7.00e-07	0	41	0	339738624	21	3883
2026-01-28 08:48:26.32	83.82	21.75	-29.9	-31.3	13.9	4.50e-06	0	41	0	346030080	20	4191
2026-01-28 08:48:29.32	83.16	21.99	-29.9	-31.2	13.9	1.50e-06	0	41	0	351272960	20	4183
2026-01-28 08:48:32.33	82.49	22.24	-30.0	-31.3	13.9	5.30e-06	0	41	0	356515840	20	4198
2026-01-28 08:48:35.34	81.82	22.47	-29.6	-30.2	14.5	1.50e-06	0	41	0	362807296	20	3892
2026-01-28 08:48:38.35	81.13	22.71	-29.4	-30.2	15.0	0.00e+00	0	41	0	368050176	19	3952
2026-01-28 08:48:41.36	80.43	22.94	-29.8	-31.3	14.3	3.00e-06	0	41	0	374341632	19	4263
2026-01-28 08:48:44.37	79.72	23.18	-29.4	-30.3	14.9	7.00e-07	0	41	0	379584512	19	3985
2026-01-28 08:48:47.39	78.99	23.41	-29.1	-29.6	15.4	0.00e+00	0	41	0	384827392	19	3782
2026-01-28 08:48:50.39	78.26	23.63	-29.4	-30.2	14.9	0.00e+00	0	41	0	391118848	19	3964
2026-01-28 08:48:53.40	77.52	23.85	-29.5	-30.6	14.8	0.00e+00	0	41	0	396361728	19	4060
2026-01-28 08:48:56.41	76.77	24.07	-29.4	-30.3	14.9	0.00e+00	0	41	0	401604608	19	3963
2026-01-28 08:48:59.42	76.01	24.29	-29.8	-31.2	14.4	7.00e-07	0	41	0	407896064	19	4230
2026-01-28 08:49:02.42	75.23	24.50	-29.9	-31.5	14.3	7.00e-07	0	41	0	413138944	19	4325
2026-01-28 08:49:05.44	74.45	24.71	-30.2	-31.6	13.9	2.20e-06	0	42	0	419430400	20	4260
2026-01-28 08:49:08.45	73.65	24.91	-29.9	-31.1	14.1	4.50e-06	0	41	0	424673280	20	4107
2026-01-28 08:49:11.46	72.85	25.11	-29.8	-30.8	14.3	3.00e-06	0	41	0	429916160	20	4036
2026-01-28 08:49:14.48	72.03	25.30	-30.1	-31.5	13.8	7.00e-07	0	41	0	436207616	20	4235
2026-01-28 08:49:17.49	71.21	25.49	-29.6	-30.2	14.5	0.00e+00	0	41	0	441450496	20	3865
2026-01-28 08:49:20.50	70.37	25.68	-29.3	-29.5	15.1	0.00e+00	0	41	0	446693376	20	3672
2026-01-28 08:49:23.50	69.53	25.85	-29.4	-29.7	15.0	0.00e+00	0	41	0	452984832	20	3735
2026-01-28 08:49:26.51	68.68	26.03	-29.4	-30.2	15.2	0.00e+00	0	41	0	458227712	19	3927
2026-01-28 08:49:29.51	67.82	26.19	-29.6	-30.6	14.8	0.00e+00	0	41	0	464519168	19	4043
2026-01-28 08:49:32.53	66.94	26.35	-29.5	-30.4	15.0	0.00e+00	0	41	0	469762048	19	3984
2026-01-28 08:49:35.53	66.06	26.51	-30.0	-31.1	14.2	0.00e+00	0	41	0	475004928	20	4124
2026-01-28 08:49:38.55	65.17	26.65	-30.3	-32.2	13.5	7.60e-06	0	42	0	481296384	20	4438
2026-01-28 08:49:41.55	64.28	26.79	-30.9	-33.2	12.5	7.93e-05	0	41	0	486539264	21	4676
2026-01-28 08:49:44.56	63.37	26.93	-30.8	-32.4	12.7	6.33e-05	0	41	0	492830720	22	4326
2026-01-28 08:49:47.58	62.46	27.05	-31.0	-32.8	12.5	5.49e-05	0	41	0	498073600	22	4455
2026-01-28 08:49:50.59	61.54	27.17	-31.2	-33.4	12.1	2.40e-04	0	41	0	503316480	22	4654
2026-01-28 08:49:53.59	60.62	27.28	-30.7	-32.2	12.9	5.79e-05	0	41	0	509607936	22	4252
2026-01-28 08:49:56.60	59.69	27.38	-31.0	-33.1	12.4	1.45e-04	0	41	0	514850816	22	4550
2026-01-28 08:49:59.60	58.75	27.48	-31.0	-33.1	12.4	7.32e-05	0	42	0	520093696	22	4558
2026-01-28 08:50:02.62	57.81	27.56	-31.0	-33.1	12.3	5.49e-05	0	41	0	526385152	22	4564
2026-01-28 08:50:05.62	56.86	27.64	-31.1	-33.4	12.0	2.49e-04	0	41	0	531628032	22	4669
2026-01-28 08:50:08.62	55.91	27.71	-30.6	-31.9	13.1	3.12e-05	0	41	0	537919488	22	4187
2026-01-28 08:50:11.62	54.96	27.77	-30.9	-32.7	12.5	1.30e-04	0	41	0	543162368	22	4433
2026-01-28 08:50:14.64	54.00	27.82	-31.5	-34.5	11.2	1.09e-03	0	41	0	548405248	22	5131
2026-01-28 08:50:17.64	53.04	27.86	-31.1	-32.8	12.1	6.34e-04	0	42	0	554696704	23	4401
2026-01-28 08:50:20.66	52.07	27.90	-30.2	-31.2	13.8	1.14e-05	0	41	0	559939584	21	4046
2026-01-28 08:50:23.67	51.11	27.92	-30.0	-30.8	14.1	3.80e-06	0	41	0	565182464	21	3936
2026-01-28 08:50:26.68	50.14	27.94	-30.4	-31.8	13.4	1.67e-05	0	41	0	571473920	21	4223
2026-01-28 08:50:29.69	49.17	27.95	-31.1	-33.0	12.3	2.96e-04	0	41	0	576716800	22	4529
2026-01-28 08:50:32.70	48.21	27.94	-30.2	-31.1	13.9	5.30e-06	0	42	0	583008256	21	4029
2026-01-28 08:50:35.71	47.24	27.93	-30.5	-32.1	13.3	2.21e-05	0	41	0	588251136	21	4297
2026-01-28 08:50:38.73	46.27	27.91	-30.8	-33.1	12.5	8.85e-05	0	41	0	593494016	21	4661
2026-01-28 08:50:41.73	45.31	27.88	-31.0	-32.9	12.3	1.86e-04	0	41	0	599785472	22	4510
2026-01-28 08:50:44.75	44.34	27.84	-30.3	-31.4	13.7	6.80e-06	0	41	0	605028352	21	4104
2026-01-28 08:50:47.76	43.38	27.80	-29.7	-30.4	14.6	0.00e+00	0	41	0	610271232	20	3900
2026-01-28 08:50:50.76	42.43	27.74	-30.0	-31.2	14.3	7.00e-07	0	41	0	616562688	20	4125
2026-01-28 08:50:53.78	41.47	27.68	-29.5	-29.9	14.9	0.00e+00	0	41	0	621805568	20	3769
2026-01-28 08:50:56.80	40.52	27.60	-29.5	-30.3	14.9	0.00e+00	0	41	0	628097024	19	3963
2026-01-28 08:50:59.81	39.58	27.52	-30.1	-31.4	13.9	2.20e-06	0	41	0	633339904	20	4188
2026-01-28 08:51:02.82	38.64	27.43	-29.8	-30.6	14.4	0.00e+00	0	41	0	638582784	20	3975
2026-01-28 08:51:05.83	37.71	27.33	-30.3	-32.0	13.5	6.80e-06	0	41	0	644874240	20	4382
2026-01-28 08:51:08.84	36.78	27.23	-30.1	-31.7	13.6	6.80e-06	0	41	0	650117120	20	4338
2026-01-28 08:51:11.84	35.86	27.11	-29.6	-30.4	14.5	7.00e-07	0	41	0	656408576	20	3939
2026-01-28 08:51:14.84	34.95	26.99	-30.0	-31.3	13.9	7.00e-07	0	41	0	661651456	20	4178
2026-01-28 08:51:17.84	34.05	26.86	-29.5	-30.0	14.7	0.00e+00	0	41	0	666894336	20	3807
2026-01-28 08:51:20.84	33.15	26.73	-29.8	-30.9	14.1	7.00e-07	0	41	0	673185792	20	4091
2026-01-28 08:51:23.85	32.26	26.59	-30.0	-31.4	13.7	3.80e-06	0	41	0	678428672	20	4244
2026-01-28 08:51:26.87	31.37	26.43	-30.4	-32.5	13.1	2.74e-05	0	41	0	683671552	20	4548
2026-01-28 08:51:29.88	30.50	26.28	-30.7	-32.7	12.5	9.38e-05	0	41	0	689963008	21	4550
2026-01-28 08:51:32.89	29.63	26.12	-30.9	-32.9	11.9	2.50e-04	0	41	0	695205888	22	4504
2026-01-28 08:51:35.89	28.78	25.95	-31.1	-33.4	11.7	5.72e-04	0	41	0	701497344	22	4707
2026-01-28 08:51:38.89	27.94	25.77	-30.7	-32.3	12.5	1.72e-04	0	41	0	706740224	22	4329
2026-01-28 08:51:41.90	27.10	25.59	-30.5	-31.6	12.9	5.95e-05	0	41	0	711983104	22	4091
2026-01-28 08:51:44.92	26.27	25.41	-30.2	-31.4	13.3	2.97e-05	0	41	0	718274560	21	4143
2026-01-28 08:51:47.93	25.45	25.22	-29.4	-29.8	14.6	7.00e-07	0	41	0	723517440	20	3762
2026-01-28 08:51:50.93	24.65	25.02	-30.1	-31.7	13.4	9.10e-06	0	41	0	728760320	20	4334
2026-01-28 08:51:53.94	23.85	24.82	-30.5	-32.3	12.7	6.10e-05	0	41	0	735051776	21	4437
2026-01-28 08:51:56.96	23.06	24.62	-31.1	-33.5	11.6	2.52e-04	0	41	0	740294656	22	4778
2026-01-28 08:51:59.97	22.28	24.41	-30.6	-32.1	12.4	1.68e-04	0	41	0	746586112	22	4291
2026-01-28 08:52:02.99	21.52	24.19	-30.9	-32.8	12.2	9.99e-05	0	41	0	751828992	22	4478
2026-01-28 08:52:06.00	20.76	23.98	-31.0	-33.1	11.9	4.81e-04	0	41	0	757071872	22	4591
2026-01-28 08:52:09.01	20.01	23.76	-30.6	-32.1	12.5	2.27e-04	0	41	0	763363328	22	4268
2026-01-28 08:52:12.02	19.28	23.53	-30.9	-32.8	12.2	1.59e-04	0	41	0	768606208	22	4479
2026-01-28 08:52:15.04	18.55	23.31	-31.1	-33.3	11.7	2.66e-04	0	41	0	774897664	22	4674
2026-01-28 08:52:18.04	17.84	23.08	-31.1	-33.3	11.7	2.61e-04	0	41	0	780140544	22	4665
2026-01-28 08:52:21.05	17.14	22.85	-31.4	-34.3	11.1	7.44e-04	0	41	0	785383424	22	5025
2026-01-28 08:52:24.05	16.45	22.61	-30.0	-30.8	13.6	2.13e-05	0	41	0	791674880	21	3963
2026-01-28 08:52:27.06	15.77	22.38	-29.3	-29.7	14.6	7.00e-07	0	41	0	796917760	20	3735
2026-01-28 08:52:30.07	15.10	22.14	-30.2	-31.8	13.3	2.05e-05	0	41	0	802160640	20	4348
2026-01-28 08:52:33.07	14.44	21.90	-30.1	-31.7	13.3	1.60e-05	0	41	0	808452096	20	4333
2026-01-28 08:52:36.08	13.79	21.65	-29.7	-30.7	13.9	3.80e-06	0	41	0	813694976	20	4033
2026-01-28 08:52:39.10	13.15	21.41	-29.5	-30.1	14.3	0.00e+00	0	41	0	819986432	20	3856
2026-01-28 08:52:42.10	12.52	21.17	-29.4	-29.9	14.6	7.00e-07	0	41	0	825229312	20	3812
2026-01-28 08:52:45.11	11.90	20.92	-29.0	-29.3	15.2	0.00e+00	0	41	0	830472192	19	3713
2026-01-28 08:52:48.12	11.29	20.67	-28.5	-28.7	15.9	0.00e+00	0	41	0	836763648	18	3649
2026-01-28 08:52:51.11	10.70	20.42	-29.0	-29.8	15.2	0.00e+00	0	41	0	842006528	18	3932
2026-01-28 08:52:54.13	10.11	20.17	-29.2	-30.3	14.9	0.00e+00	0	41	0	847249408	18	4073
2026-01-28 08:52:57.14	9.53	19.92	-28.8	-29.3	15.5	0.00e+00	0	41	0	853540864	18	3813
2026-01-28 08:53:00.14	8.96	19.67	-28.9	-29.5	15.3	0.00e+00	0	41	0	858783744	18	3863
2026-01-28 08:53:03.15	8.40	19.42	-29.2	-30.3	14.8	0.00e+00	0	41	0	865075200	18	4086
2026-01-28 08:53:06.17	7.84	19.17	-29.4	-30.7	14.6	0.00e+00	0	41	0	870318080	18	4212
2026-01-28 08:53:09.18	7.30	18.92	-29.3	-30.0	14.7	7.00e-07	0	41	0	875560960	19	3916
2026-01-28 08:53:12.19	6.77	18.67	-29.1	-29.5	15.0	0.00e+00	0	41	0	881852416	19	3778
2026-01-28 08:53:15.19	6.24	18.42	-28.9	-29.5	15.3	0.00e+00	0	41	0	887095296	18	3859
2026-01-28 08:53:18.20	5.73	18.17	-29.8	-31.4	13.8	6.10e-06	0	41	0	892338176	19	4327
2026-01-28 08:53:21.22	5.22	17.92	-30.0	-31.4	13.4	1.37e-05	0	41	0	898629632	20	4235
2026-01-28 08:53:24.22	4.72	17.66	-29.8	-30.8	13.8	8.30e-06	0	41	0	903872512	20	4073
2026-01-28 08:53:27.22	4.23	17.42	-29.6	-30.5	14.0	3.00e-06	0	41	0	910163968	20	3969
2026-01-28 08:53:30.23	3.75	17.17	-29.6	-30.4	14.0	3.00e-06	0	41	0	915406848	20	3957
2026-01-28 08:53:33.23	3.28	16.92	-29.8	-31.1	13.6	2.20e-06	0	41	0	920649728	20	4135
2026-01-28 08:53:36.24	2.81	16.67	-30.1	-31.8	13.1	6.02e-05	0	41	0	926941184	20	4359
2026-01-28 08:53:39.24	2.35	16.42	-30.1	-31.8	13.1	3.81e-05	0	41	0	932184064	20	4366
2026-01-28 08:53:42.25	1.90	16.17	-29.6	-30.3	14.0	4.50e-06	0	41	0	937426944	20	3918
2026-01-28 08:53:45.26	1.46	15.92	-29.7	-30.7	13.8	7.60e-06	0	41	0	943718400	20	4035
2026-01-28 08:53:48.28	1.02	15.68	-30.1	-31.8	13.0	2.74e-05	0	41	0	948961280	20	4374
2026-01-28 08:53:51.28	0.60	15.43	-30.2	-32.0	12.9	5.64e-05	0	41	0	955252736	20	4450
2026-01-28 08:53:54.30	0.17	15.19	-29.7	-30.7	13.7	8.30e-06	0	41	0	960495616	20	4042
2026-01-28 08:53:57.31	359.76	14.94	-29.3	-29.8	14.2	4.50e-06	0	41	0	965738496	20	3785
2026-01-28 08:54:00.31	359.35	14.70	-29.6	-30.4	13.8	1.50e-06	0	41	0	972029952	20	3966
2026-01-28 08:54:03.32	358.95	14.46	-29.5	-30.3	13.9	6.10e-06	0	41	0	977272832	20	3928
2026-01-28 08:54:06.33	358.56	14.22	-29.8	-30.9	13.5	1.14e-05	0	41	0	983564288	20	4111
2026-01-28 08:54:09.34	358.17	13.98	-30.0	-31.5	13.0	3.35e-05	0	41	0	988807168	20	4297
2026-01-28 08:54:12.35	357.79	13.74	-30.0	-31.7	12.9	5.64e-05	0	41	0	994050048	20	4352
2026-01-28 08:54:15.36	357.41	13.50	-30.3	-32.5	12.4	1.51e-04	0	41	0	1000341504	20	4627
2026-01-28 08:54:18.38	357.04	13.26	-30.0	-31.8	12.8	5.95e-05	0	41	0	1005584384	20	4409
2026-01-28 08:54:21.38	356.68	13.03	-30.8	-33.4	11.3	6.71e-04	0	41	0	1010827264	21	4899
2026-01-28 08:54:24.38	356.33	12.80	-30.9	-33.4	10.9	3.21e-03	0	41	0	1017118720	22	4823
2026-01-28 08:54:27.40	355.97	12.56	-30.6	-32.5	11.6	5.74e-04	0	41	0	1022361600	22	4474
2026-01-28 08:54:30.42	355.63	12.33	-30.3	-32.2	12.1	2.53e-04	0	41	0	1028653056	21	4441
2026-01-28 08:54:33.43	355.29	12.10	-29.9	-30.8	13.0	3.12e-05	0	41	0	1033895936	21	4012
2026-01-28 08:54:36.44	354.95	11.87	-30.1	-31.9	12.6	7.17e-05	0	41	0	1039138816	20	4441
2026-01-28 08:54:39.46	354.62	11.64	-30.5	-32.8	11.6	4.82e-04	0	41	0	1045430272	21	4689
2026-01-28 08:54:42.46	354.30	11.41	-31.1	-34.2	10.3	5.16e-03	0	41	0	1050673152	22	5132
2026-01-28 08:54:45.47	353.98	11.19	-31.3	-34.8	9.8	1.11e-02	0	41	0	1056964608	22	5389
2026-01-28 08:54:48.48	353.67	10.96	-31.2	-34.3	10.1	7.17e-03	0	41	0	1062207488	22	5192
2026-01-28 08:54:51.49	353.36	10.74	-31.2	-34.5	10.0	7.19e-03	0	41	0	1067450368	22	5268
2026-01-28 08:54:54.50	353.06	10.52	-31.0	-33.8	10.5	4.96e-03	0	41	0	1073741824	22	4983
2026-01-28 08:54:57.50	352.76	10.29	-31.0	-33.9	10.4	4.25e-03	0	41	0	1078984704	22	5010
2026-01-28 08:55:00.51	352.46	10.07	-31.2	-34.7	9.8	1.03e-02	0	41	0	1084227584	22	5348
2026-01-28 08:55:03.53	352.17	9.85	-31.2	-34.6	9.9	1.20e-02	0	41	0	1090519040	22	5337
2026-01-28 08:55:06.55	351.89	9.64	-31.2	-34.6	9.8	1.04e-02	0	41	0	1095761920	22	5314
2026-01-28 08:55:09.55	351.61	9.42	-31.1	-34.1	10.2	5.97e-03	0	41	0	1102053376	22	5110
2026-01-28 08:55:12.56	351.33	9.21	-30.9	-33.6	10.5	5.16e-03	0	41	0	1107296256	22	4907
2026-01-28 08:55:15.57	351.06	8.99	-30.5	-32.4	11.4	1.67e-03	0	41	0	1112539136	22	4457
2026-01-28 08:55:18.58	350.79	8.78	-30.4	-32.1	11.6	1.00e-03	0	41	0	1118830592	22	4349
2026-01-28 08:55:21.59	350.52	8.57	-30.4	-31.9	11.6	6.83e-04	0	41	0	1124073472	22	4305
2026-01-28 08:55:24.59	350.26	8.36	-30.5	-32.8	11.4	8.25e-04	0	41	0	1129316352	21	4686
2026-01-28 08:55:27.61	350.01	8.15	-30.8	-33.9	10.4	3.28e-03	0	41	0	1135607808	21	5158
2026-01-28 08:55:30.61	349.76	7.94	-30.9	-34.2	10.2	5.12e-03	0	41	0	1140850688	21	5308
2026-01-28 08:55:33.63	349.51	7.73	-31.2	-34.8	9.4	1.45e-02	0	41	0	1147142144	22	5464
2026-01-28 08:55:36.64	349.26	7.53	-31.2	-34.9	9.3	1.97e-02	0	41	0	1152385024	22	5528
2026-01-28 08:55:39.64	349.02	7.32	-31.1	-34.7	9.4	1.54e-02	0	41	0	1157627904	22	5412
2026-01-28 08:55:42.65	348.78	7.12	-31.2	-35.0	9.2	2.35e-02	0	41	0	1163919360	22	5559

#Closed at: 2026-01-28 08:55:45
#Recorded file [1164 MB]: D:/data/31010_260128_114521.dat