passes_logs/2026/01/28/R2M6_AANII_01/R2M6_AANII_01__20260128_012822_FENGYUN_3D_rec.log

#Pass ID: 20260128_012822_FENGYUN 3D
#Satellite: FENGYUN 3D
#Configuration: FENGYUN 3D
#almurnet v.1.7.20240730
#Start time: 2026-01-28 01:28:23

#Version: 2.2.20231116
#Station: R2M6_AANII_01
#Location: 30.233357 lon 59.946436 lat
#TLE: 1 43010U 17072A   26027.47796828  .00000374  00000+0  19850-3 0  9992
#TLE: 2 43010  98.9960 359.4888 0002523  87.5419 272.6045 14.19701595425023

#Time	Az	El	Level	Level2	SNR	BER	BlckErr	Temp	State	Recorded	gain1	gain2
2026-01-28 01:28:23.83	24.85	7.10	-28.9	-32.0	5.5	7.79e-01	0	41	0	0	17	5147
2026-01-28 01:28:26.84	25.03	7.32	-29.6	-32.9	9.7	1.85e-02	0	41	0	5242880	19	5244
2026-01-28 01:28:29.84	25.21	7.54	-29.0	-31.6	10.9	3.96e-03	0	41	0	22020096	18	4887
2026-01-28 01:28:32.85	25.39	7.76	-28.5	-30.9	11.7	8.69e-04	0	41	0	38797312	17	4734
2026-01-28 01:28:35.86	25.58	7.98	-27.3	-28.9	13.3	3.54e-05	0	41	0	55574528	15	4368
2026-01-28 01:28:38.88	25.77	8.20	-27.1	-29.0	13.6	1.14e-05	0	41	0	73400320	14	4498
2026-01-28 01:28:41.90	25.96	8.43	-26.8	-28.4	13.9	3.40e-06	0	41	0	90177536	14	4332
2026-01-28 01:28:44.91	26.16	8.66	-26.5	-28.2	14.4	5.70e-06	0	41	0	106954752	13	4373
2026-01-28 01:28:47.93	26.36	8.89	-26.5	-28.2	14.4	2.20e-06	0	41	0	123731968	13	4372
2026-01-28 01:28:50.94	26.56	9.12	-26.6	-28.5	14.3	1.10e-06	0	41	0	140509184	13	4460
2026-01-28 01:28:53.95	26.76	9.35	-26.7	-28.7	14.2	5.70e-06	0	41	0	158334976	13	4506
2026-01-28 01:28:56.97	26.97	9.59	-26.6	-28.5	14.3	3.40e-06	0	42	0	175112192	13	4446
2026-01-28 01:28:59.98	27.18	9.82	-26.3	-27.8	14.7	0.00e+00	0	42	0	191889408	13	4247
2026-01-28 01:29:02.99	27.40	10.06	-26.5	-28.2	14.5	0.00e+00	0	42	0	208666624	13	4356
2026-01-28 01:29:06.00	27.61	10.30	-26.2	-27.9	15.0	0.00e+00	0	42	0	225443840	12	4373
2026-01-28 01:29:09.02	27.83	10.55	-25.9	-27.4	15.3	0.00e+00	0	42	0	242221056	12	4240
2026-01-28 01:29:12.03	28.06	10.79	-25.9	-27.3	15.3	0.00e+00	0	42	0	260046848	12	4226
2026-01-28 01:29:15.05	28.28	11.04	-25.9	-27.3	15.3	0.00e+00	0	42	0	276824064	12	4213
2026-01-28 01:29:18.06	28.51	11.29	-26.1	-27.7	15.1	0.00e+00	0	42	0	293601280	12	4331
2026-01-28 01:29:21.06	28.75	11.54	-26.0	-27.6	15.2	0.00e+00	0	42	0	310378496	12	4287
2026-01-28 01:29:24.08	28.99	11.79	-26.1	-27.6	15.2	0.00e+00	0	42	0	327155712	12	4304
2026-01-28 01:29:27.09	29.23	12.05	-25.8	-27.1	15.5	0.00e+00	0	42	0	343932928	12	4167
2026-01-28 01:29:30.11	29.48	12.31	-25.9	-27.3	15.4	0.00e+00	0	42	0	360710144	12	4226
2026-01-28 01:29:33.12	29.73	12.57	-26.4	-28.3	14.8	0.00e+00	0	42	0	378535936	12	4504
2026-01-28 01:29:36.12	29.98	12.83	-25.5	-26.9	16.0	0.00e+00	0	42	0	395313152	11	4209
2026-01-28 01:29:39.14	30.24	13.10	-25.4	-27.0	16.2	0.00e+00	0	42	0	412090368	10	4369
2026-01-28 01:29:42.15	30.50	13.36	-25.4	-26.7	16.2	0.00e+00	0	43	0	428867584	11	4172
2026-01-28 01:29:45.16	30.77	13.63	-25.4	-27.1	16.2	0.00e+00	0	42	0	445644800	10	4384
2026-01-28 01:29:48.16	31.04	13.90	-25.6	-27.0	16.0	0.00e+00	0	42	0	462422016	11	4241
2026-01-28 01:29:51.18	31.32	14.18	-25.6	-27.0	16.0	0.00e+00	0	42	0	479199232	11	4256
2026-01-28 01:29:54.19	31.61	14.46	-25.2	-26.8	16.4	0.00e+00	0	43	0	497025024	10	4290
2026-01-28 01:29:57.20	31.89	14.74	-25.3	-26.8	16.4	0.00e+00	0	42	0	513802240	10	4313
2026-01-28 01:30:00.22	32.19	15.02	-25.0	-26.3	16.7	2.31e-04	0	43	0	530579456	10	4179
2026-01-28 01:30:03.22	32.48	15.31	-25.1	-26.5	16.6	0.00e+00	0	42	0	547356672	10	4219
2026-01-28 01:30:06.24	32.79	15.59	-25.0	-26.1	16.8	0.00e+00	0	43	0	564133888	10	4130
2026-01-28 01:30:09.26	33.10	15.89	-24.7	-25.7	17.1	1.69e-04	0	43	0	580911104	10	4015
2026-01-28 01:30:12.27	33.41	16.18	-24.6	-25.4	17.2	1.54e-04	0	43	0	598736896	10	3945
2026-01-28 01:30:15.29	33.74	16.48	-24.5	-25.7	17.4	1.84e-04	0	43	0	615514112	9	4119
2026-01-28 01:30:18.31	34.07	16.78	-24.5	-25.7	17.3	1.89e-04	0	43	0	632291328	9	4128
2026-01-28 01:30:21.32	34.40	17.08	-24.7	-26.1	17.0	1.52e-04	0	43	0	649068544	9	4218
2026-01-28 01:30:24.33	34.74	17.38	-24.5	-25.7	17.4	8.12e-05	0	43	0	665845760	9	4116
2026-01-28 01:30:27.34	35.09	17.69	-24.4	-25.5	17.5	7.00e-04	0	43	0	683671552	9	4069
2026-01-28 01:30:30.35	35.44	18.00	-24.3	-25.2	17.7	1.04e-04	0	43	0	700448768	9	3993
2026-01-28 01:30:33.36	35.80	18.32	-24.2	-25.1	17.7	5.49e-05	0	43	0	717225984	9	3979
2026-01-28 01:30:36.37	36.17	18.63	-24.4	-25.5	17.5	0.00e+00	0	43	0	734003200	9	4077
2026-01-28 01:30:39.39	36.55	18.95	-24.3	-25.2	17.7	3.43e-05	0	43	0	750780416	9	4000
2026-01-28 01:30:42.40	36.93	19.28	-24.3	-25.2	17.6	8.35e-05	0	43	0	767557632	9	4007
2026-01-28 01:30:45.41	37.32	19.60	-24.3	-25.2	17.7	2.07e-04	0	43	0	784334848	9	3993
2026-01-28 01:30:48.40	37.72	19.93	-23.9	-24.4	18.1	1.32e-04	0	43	0	801112064	9	3806
2026-01-28 01:30:51.42	38.13	20.26	-24.0	-24.7	18.0	3.20e-05	0	43	0	818937856	9	3872
2026-01-28 01:30:54.43	38.54	20.60	-23.8	-24.6	18.3	0.00e+00	0	43	0	835715072	8	3962
2026-01-28 01:30:57.44	38.97	20.93	-23.6	-24.3	18.5	1.10e-06	0	43	0	852492288	8	3883
2026-01-28 01:31:00.44	39.40	21.27	-23.6	-24.3	18.5	1.02e-04	0	43	0	869269504	8	3887
2026-01-28 01:31:03.45	39.85	21.62	-23.7	-24.4	18.4	0.00e+00	0	43	0	886046720	8	3901
2026-01-28 01:31:06.47	40.30	21.96	-23.7	-24.5	18.4	0.00e+00	0	43	0	902823936	8	3923
2026-01-28 01:31:09.49	40.77	22.32	-23.7	-24.4	18.4	8.92e-05	0	43	0	920649728	8	3912
2026-01-28 01:31:12.50	41.24	22.67	-23.5	-24.1	18.6	0.00e+00	0	43	0	937426944	8	3846
2026-01-28 01:31:15.51	41.73	23.02	-23.4	-23.7	18.8	0.00e+00	0	43	0	954204160	8	3755
2026-01-28 01:31:18.53	42.23	23.38	-23.5	-24.0	18.7	0.00e+00	0	43	0	970981376	8	3812
2026-01-28 01:31:21.54	42.73	23.75	-23.5	-24.1	18.6	0.00e+00	0	43	0	987758592	8	3838
2026-01-28 01:31:24.54	43.25	24.11	-23.4	-23.9	18.8	0.00e+00	0	43	0	1004535808	8	3785
2026-01-28 01:31:27.55	43.78	24.48	-23.3	-23.5	18.9	0.00e+00	0	43	0	1022361600	8	3710
2026-01-28 01:31:30.57	44.32	24.85	-23.1	-23.7	19.1	0.00e+00	0	43	0	1039138816	7	3842
2026-01-28 01:31:33.57	44.88	25.22	-23.3	-24.1	18.9	0.00e+00	0	43	0	1055916032	7	3942
2026-01-28 01:31:36.59	45.45	25.59	-23.2	-23.8	19.0	0.00e+00	0	43	0	1072693248	7	3880
2026-01-28 01:31:39.60	46.03	25.97	-23.3	-24.2	18.9	0.00e+00	0	43	0	1089470464	7	3958
2026-01-28 01:31:42.62	46.63	26.35	-22.9	-23.1	19.4	0.00e+00	0	43	0	1106247680	7	3724
2026-01-28 01:31:45.63	47.24	26.73	-22.8	-23.5	19.5	0.00e+00	0	43	0	1123024896	6	3902
2026-01-28 01:31:48.64	47.86	27.12	-22.7	-23.3	19.6	0.00e+00	0	43	0	1140850688	6	3868
2026-01-28 01:31:51.65	48.50	27.50	-22.7	-23.4	19.6	0.00e+00	0	43	0	1157627904	6	3877
2026-01-28 01:31:54.66	49.15	27.89	-22.8	-24.1	19.4	0.00e+00	0	43	0	1174405120	5	4170
2026-01-28 01:31:57.68	49.83	28.28	-22.6	-23.7	19.7	0.00e+00	0	43	0	1191182336	5	4059
2026-01-28 01:32:00.68	50.51	28.67	-22.6	-23.6	19.7	0.00e+00	0	43	0	1207959552	5	4038
2026-01-28 01:32:03.68	51.21	29.06	-22.4	-23.3	19.9	4.23e-05	0	43	0	1224736768	5	3971
2026-01-28 01:32:06.69	51.93	29.45	-22.5	-23.3	19.9	0.00e+00	0	43	0	1242562560	5	3978
2026-01-28 01:32:09.70	52.67	29.84	-22.5	-23.5	19.8	0.00e+00	0	43	0	1259339776	5	4010
2026-01-28 01:32:12.71	53.42	30.23	-22.4	-23.3	19.9	0.00e+00	0	43	0	1276116992	5	3958
2026-01-28 01:32:15.72	54.19	30.63	-22.7	-23.8	19.6	3.15e-04	0	43	0	1292894208	5	4091
2026-01-28 01:32:18.73	54.99	31.02	-22.2	-22.8	20.2	5.03e-05	0	43	0	1309671424	5	3852
2026-01-28 01:32:21.73	55.79	31.41	-22.1	-22.7	20.2	0.00e+00	0	43	0	1326448640	5	3821
2026-01-28 01:32:24.74	56.62	31.80	-22.3	-23.1	20.0	2.48e-04	0	43	0	1343225856	5	3919
2026-01-28 01:32:27.75	57.48	32.19	-22.3	-23.1	20.1	2.62e-04	0	43	0	1360003072	5	3916
2026-01-28 01:32:30.77	58.35	32.58	-22.4	-23.2	20.0	3.17e-04	0	43	0	1377828864	5	3943
2026-01-28 01:32:33.78	59.24	32.96	-22.5	-23.5	19.9	2.77e-04	0	43	0	1394606080	5	4012
2026-01-28 01:32:36.79	60.15	33.34	-22.4	-23.2	20.0	1.25e-04	0	43	0	1411383296	5	3937
2026-01-28 01:32:39.80	61.09	33.72	-22.3	-23.1	20.1	1.33e-04	0	43	0	1428160512	5	3919
2026-01-28 01:32:42.82	62.04	34.10	-22.4	-23.3	20.0	0.00e+00	0	43	0	1444937728	5	3965
2026-01-28 01:32:45.83	63.02	34.47	-22.4	-23.1	20.0	1.92e-04	0	43	0	1461714944	5	3933
2026-01-28 01:32:48.83	64.02	34.83	-22.3	-23.0	20.1	1.54e-04	0	43	0	1478492160	5	3902
2026-01-28 01:32:51.84	65.04	35.19	-22.5	-23.4	19.9	1.10e-06	0	43	0	1496317952	5	4006
2026-01-28 01:32:54.85	66.08	35.55	-22.3	-23.1	20.1	0.00e+00	0	43	0	1513095168	5	3916
2026-01-28 01:32:57.86	67.15	35.89	-22.4	-23.3	20.0	1.25e-05	0	43	0	1529872384	5	3963
2026-01-28 01:33:00.86	68.23	36.23	-22.5	-23.3	20.0	3.40e-06	0	43	0	1546649600	5	3985
2026-01-28 01:33:03.88	69.35	36.57	-22.4	-23.2	20.1	1.10e-06	0	43	0	1563426816	5	3948
2026-01-28 01:33:06.89	70.48	36.89	-22.2	-22.8	20.1	0.00e+00	0	43	0	1580204032	5	3861
2026-01-28 01:33:09.91	71.64	37.20	-22.3	-23.1	20.0	0.00e+00	0	43	0	1598029824	5	3931
2026-01-28 01:33:12.91	72.81	37.51	-21.9	-22.2	20.4	0.00e+00	0	43	0	1614807040	5	3722
2026-01-28 01:33:15.93	74.02	37.80	-22.0	-22.4	20.3	0.00e+00	0	43	0	1631584256	5	3766
2026-01-28 01:33:18.94	75.24	38.08	-21.8	-22.5	20.5	0.00e+00	0	43	0	1648361472	4	3907
2026-01-28 01:33:21.95	76.48	38.35	-22.1	-23.1	20.2	0.00e+00	0	43	0	1665138688	4	4052
2026-01-28 01:33:24.97	77.74	38.61	-22.2	-23.3	20.1	0.00e+00	0	43	0	1681915904	4	4090
2026-01-28 01:33:27.99	79.03	38.85	-22.0	-22.9	20.3	0.00e+00	0	43	0	1699741696	4	4008
2026-01-28 01:33:30.99	80.32	39.08	-22.4	-23.2	19.9	0.00e+00	0	43	0	1716518912	5	3954
2026-01-28 01:33:34.00	81.64	39.29	-22.0	-22.5	20.3	0.00e+00	0	43	0	1733296128	5	3798
2026-01-28 01:33:37.01	82.97	39.49	-21.9	-22.3	20.4	0.00e+00	0	43	0	1750073344	5	3744
2026-01-28 01:33:40.02	84.32	39.67	-21.9	-22.2	20.4	0.00e+00	0	43	0	1766850560	5	3731
2026-01-28 01:33:43.03	85.68	39.83	-21.9	-22.2	20.4	0.00e+00	0	43	0	1783627776	5	3734
2026-01-28 01:33:46.05	87.06	39.98	-21.9	-22.1	20.5	0.00e+00	0	43	0	1800404992	5	3710
2026-01-28 01:33:49.05	88.44	40.11	-22.5	-23.6	19.8	0.00e+00	0	43	0	1818230784	5	4052
2026-01-28 01:33:52.06	89.84	40.22	-22.2	-22.8	20.2	0.00e+00	0	43	0	1835008000	5	3859
2026-01-28 01:33:55.07	91.25	40.31	-22.5	-23.4	19.8	0.00e+00	0	43	0	1851785216	5	4018
2026-01-28 01:33:58.08	92.66	40.39	-22.2	-22.8	20.2	0.00e+00	0	43	0	1868562432	5	3863
2026-01-28 01:34:01.08	94.08	40.44	-22.4	-23.3	20.0	0.00e+00	0	43	0	1885339648	5	3974
2026-01-28 01:34:04.08	95.50	40.48	-22.5	-23.4	19.9	0.00e+00	0	43	0	1902116864	5	4015
2026-01-28 01:34:07.09	96.92	40.49	-22.5	-23.4	19.9	0.00e+00	0	43	0	1918894080	5	4019
2026-01-28 01:34:10.11	98.35	40.49	-22.2	-22.8	20.1	0.00e+00	0	43	0	1936719872	5	3866
2026-01-28 01:34:13.12	99.78	40.46	-22.3	-23.0	20.1	0.00e+00	0	43	0	1953497088	5	3914
2026-01-28 01:34:16.13	101.20	40.42	-22.3	-23.0	20.1	0.00e+00	0	43	0	1970274304	5	3913
2026-01-28 01:34:19.15	102.62	40.36	-22.4	-23.3	19.9	0.00e+00	0	43	0	1987051520	5	3989
2026-01-28 01:34:22.16	104.04	40.28	-22.3	-23.1	20.0	0.00e+00	0	43	0	2003828736	5	3949
2026-01-28 01:34:25.16	105.44	40.18	-22.3	-23.0	20.1	0.00e+00	0	43	0	2020605952	5	3909
2026-01-28 01:34:28.18	106.83	40.06	-22.0	-22.5	20.3	0.00e+00	0	43	0	2037383168	5	3804
2026-01-28 01:34:31.18	108.21	39.92	-22.0	-22.4	20.3	0.00e+00	0	43	0	2055208960	5	3785
2026-01-28 01:34:34.19	109.59	39.77	-21.9	-22.3	20.4	0.00e+00	0	43	0	2071986176	5	3759
2026-01-28 01:34:37.20	110.95	39.60	-22.3	-23.1	20.0	0.00e+00	0	43	0	2088763392	5	3930
2026-01-28 01:34:40.20	112.29	39.41	-22.3	-23.1	20.0	0.00e+00	0	43	0	2105540608	5	3940
2026-01-28 01:34:43.22	113.62	39.20	-22.4	-23.4	19.9	0.00e+00	0	43	0	2122317824	5	4001
2026-01-28 01:34:46.23	114.93	38.99	-21.9	-22.2	20.4	0.00e+00	0	43	0	2139095040	5	3736
2026-01-28 01:34:49.24	116.22	38.75	-22.1	-22.7	20.2	0.00e+00	0	43	0	2156920832	5	3841
2026-01-28 01:34:52.25	117.50	38.50	-22.3	-23.0	20.0	0.00e+00	0	43	0	2173698048	5	3925
2026-01-28 01:34:55.26	118.75	38.24	-22.1	-22.7	20.2	0.00e+00	0	43	0	2190475264	5	3840
2026-01-28 01:34:58.27	119.99	37.97	-22.2	-22.8	20.2	0.00e+00	0	43	0	2207252480	5	3882
2026-01-28 01:35:01.27	121.20	37.68	-22.2	-22.9	20.1	0.00e+00	0	43	0	2224029696	5	3899
2026-01-28 01:35:04.29	122.40	37.38	-22.5	-23.4	19.8	0.00e+00	0	43	0	2240806912	5	4016
2026-01-28 01:35:07.30	123.57	37.07	-22.4	-23.3	19.9	0.00e+00	0	43	0	2257584128	5	3987
2026-01-28 01:35:10.31	124.72	36.75	-22.4	-23.3	19.9	0.00e+00	0	43	0	2274361344	5	3995
2026-01-28 01:35:13.31	125.84	36.43	-22.4	-23.2	19.9	0.00e+00	0	43	0	2292187136	5	3958
2026-01-28 01:35:16.33	126.95	36.09	-22.3	-23.0	20.1	0.00e+00	0	43	0	2308964352	5	3906
2026-01-28 01:35:19.34	128.03	35.74	-22.5	-23.4	19.8	0.00e+00	0	43	0	2325741568	5	4023
2026-01-28 01:35:22.35	129.09	35.39	-22.1	-22.6	20.2	0.00e+00	0	43	0	2342518784	5	3823
2026-01-28 01:35:25.35	130.13	35.03	-22.2	-22.9	20.0	0.00e+00	0	43	0	2359296000	5	3903
2026-01-28 01:35:28.36	131.14	34.67	-22.1	-22.7	20.1	0.00e+00	0	43	0	2376073216	5	3848
2026-01-28 01:35:31.36	132.13	34.30	-22.5	-23.4	19.8	0.00e+00	0	43	0	2392850432	5	4021
2026-01-28 01:35:34.38	133.11	33.93	-22.7	-23.9	19.5	0.00e+00	0	43	0	2409627648	5	4142
2026-01-28 01:35:37.39	134.06	33.55	-22.7	-23.8	19.5	0.00e+00	0	43	0	2427453440	5	4127
2026-01-28 01:35:40.41	134.99	33.16	-22.6	-23.6	19.6	1.96e-04	0	43	0	2444230656	5	4078
2026-01-28 01:35:43.41	135.89	32.78	-22.6	-23.7	19.6	3.66e-05	0	43	0	2461007872	5	4094
2026-01-28 01:35:46.42	136.78	32.39	-22.6	-23.2	19.6	0.00e+00	0	43	0	2477785088	6	3863
2026-01-28 01:35:49.43	137.64	32.00	-22.6	-23.3	19.6	0.00e+00	0	43	0	2494562304	6	3870
2026-01-28 01:35:52.44	138.48	31.61	-22.9	-23.8	19.3	2.75e-04	0	43	0	2512388096	6	3998
2026-01-28 01:35:55.46	139.31	31.22	-22.7	-23.3	19.5	2.95e-04	0	43	0	2529165312	6	3890
2026-01-28 01:35:58.47	140.12	30.82	-22.6	-23.1	19.6	2.71e-04	0	43	0	2545942528	6	3844
2026-01-28 01:36:01.48	140.90	30.43	-22.9	-23.9	19.2	5.38e-04	0	43	0	2562719744	6	4023
2026-01-28 01:36:04.49	141.67	30.03	-23.2	-24.4	19.0	5.19e-04	0	43	0	2579496960	6	4152
2026-01-28 01:36:07.50	142.42	29.64	-23.1	-24.3	19.0	0.00e+00	0	43	0	2596274176	6	4116
2026-01-28 01:36:10.52	143.16	29.24	-22.9	-23.8	19.3	0.00e+00	0	43	0	2613051392	6	3999
2026-01-28 01:36:13.53	143.87	28.85	-23.1	-24.2	19.0	7.00e-04	0	43	0	2629828608	6	4109
2026-01-28 01:36:16.53	144.56	28.46	-23.1	-24.2	19.1	7.64e-04	0	43	0	2647654400	6	4093
2026-01-28 01:36:19.55	145.25	28.06	-22.8	-23.6	19.4	0.00e+00	0	43	0	2664431616	6	3947
2026-01-28 01:36:22.56	145.91	27.67	-22.9	-24.0	19.2	0.00e+00	0	43	0	2681208832	6	4043
2026-01-28 01:36:25.57	146.56	27.28	-23.0	-24.1	19.1	0.00e+00	0	43	0	2697986048	6	4085
2026-01-28 01:36:28.58	147.20	26.90	-22.8	-23.6	19.3	0.00e+00	0	43	0	2714763264	6	3952
2026-01-28 01:36:31.58	147.81	26.51	-22.7	-23.5	19.4	0.00e+00	0	43	0	2732589056	6	3924
2026-01-28 01:36:34.59	148.42	26.13	-23.1	-24.3	19.0	0.00e+00	0	43	0	2749366272	6	4115
2026-01-28 01:36:37.59	149.01	25.75	-23.2	-24.1	18.8	0.00e+00	0	43	0	2766143488	7	3963
2026-01-28 01:36:40.60	149.58	25.37	-23.2	-24.5	18.8	0.00e+00	0	43	0	2782920704	6	4172
2026-01-28 01:36:43.60	150.15	25.00	-23.2	-24.4	18.9	0.00e+00	0	43	0	2799697920	6	4145
2026-01-28 01:36:46.61	150.70	24.62	-23.1	-24.3	19.0	0.00e+00	0	43	0	2816475136	6	4112
2026-01-28 01:36:49.61	151.23	24.25	-23.3	-24.7	18.7	0.00e+00	0	43	0	2833252352	6	4231
2026-01-28 01:36:52.63	151.76	23.88	-23.5	-24.6	18.5	0.00e+00	0	43	0	2850029568	7	4088
2026-01-28 01:36:55.64	152.28	23.52	-23.8	-25.2	18.1	0.00e+00	0	43	0	2867855360	7	4248
2026-01-28 01:36:58.66	152.78	23.15	-23.8	-24.8	18.2	0.00e+00	0	43	0	2884632576	8	4017
2026-01-28 01:37:01.67	153.27	22.79	-23.6	-24.8	18.3	0.00e+00	0	43	0	2901409792	7	4147
2026-01-28 01:37:04.68	153.75	22.44	-23.9	-25.5	18.0	0.00e+00	0	43	0	2918187008	7	4314
2026-01-28 01:37:07.69	154.22	22.08	-23.9	-25.5	17.9	0.00e+00	0	43	0	2934964224	7	4329
2026-01-28 01:37:10.70	154.68	21.73	-24.3	-25.8	17.5	0.00e+00	0	43	0	2951741440	8	4289
2026-01-28 01:37:13.71	155.13	21.38	-23.2	-23.9	15.6	0.00e+00	0	43	0	2968518656	8	3927
2026-01-28 01:37:16.71	155.57	21.04	-24.0	-25.2	17.7	0.00e+00	0	43	0	2985295872	8	4128
2026-01-28 01:37:19.72	156.00	20.70	-24.2	-25.7	17.6	0.00e+00	0	43	0	3003121664	8	4278
2026-01-28 01:37:22.73	156.42	20.36	-24.4	-26.0	17.5	0.00e+00	0	43	0	3019898880	8	4340
2026-01-28 01:37:25.75	156.84	20.02	-24.2	-25.6	17.7	0.00e+00	0	43	0	3036676096	8	4226
2026-01-28 01:37:28.76	157.24	19.69	-24.2	-25.6	17.7	9.54e-04	0	43	0	3053453312	8	4229
2026-01-28 01:37:31.78	157.64	19.36	-24.3	-25.8	17.6	1.13e-03	0	43	0	3070230528	8	4280
2026-01-28 01:37:34.79	158.03	19.03	-24.4	-26.1	17.3	9.38e-05	0	43	0	3088056320	8	4375
2026-01-28 01:37:37.79	158.41	18.71	-24.7	-26.1	17.1	1.09e-03	0	43	0	3104833536	9	4258
2026-01-28 01:37:40.80	158.78	18.39	-24.5	-25.8	17.3	1.15e-03	0	43	0	3121610752	9	4159
2026-01-28 01:37:43.81	159.14	18.07	-24.5	-25.7	17.3	1.14e-03	0	43	0	3138387968	9	4143
2026-01-28 01:37:46.82	159.50	17.76	-24.6	-25.9	17.2	1.04e-03	0	43	0	3155165184	9	4198
2026-01-28 01:37:49.83	159.85	17.45	-24.8	-26.4	16.9	1.24e-03	0	43	0	3171942400	9	4331
2026-01-28 01:37:52.84	160.19	17.14	-24.9	-26.7	16.8	1.23e-03	0	43	0	3188719616	9	4403
2026-01-28 01:37:55.84	160.53	16.84	-25.2	-26.8	16.5	0.00e+00	0	43	0	3206545408	10	4310
2026-01-28 01:37:58.85	160.86	16.53	-24.9	-26.1	16.8	0.00e+00	0	43	0	3223322624	10	4147
2026-01-28 01:38:01.85	161.18	16.23	-25.0	-26.8	16.7	1.29e-03	0	43	0	3240099840	9	4428
2026-01-28 01:38:04.85	161.50	15.94	-25.0	-26.4	16.6	1.28e-03	0	43	0	3256877056	10	4229
2026-01-28 01:38:07.86	161.81	15.64	-25.2	-26.8	16.4	0.00e+00	0	43	0	3273654272	10	4335
2026-01-28 01:38:10.85	162.12	15.35	-25.2	-26.9	16.3	0.00e+00	0	43	0	3290431488	10	4395
2026-01-28 01:38:13.86	162.42	15.07	-25.3	-27.0	16.2	1.24e-03	0	43	0	3307208704	10	4410
2026-01-28 01:38:16.88	162.71	14.78	-25.2	-27.0	16.3	0.00e+00	0	43	0	3323985920	10	4380
2026-01-28 01:38:19.88	163.00	14.50	-25.3	-27.0	16.2	0.00e+00	0	43	0	3340763136	10	4376
2026-01-28 01:38:22.90	163.29	14.21	-25.3	-26.9	16.3	0.00e+00	0	43	0	3358588928	10	4346
2026-01-28 01:38:25.91	163.57	13.94	-25.4	-27.2	16.1	0.00e+00	0	43	0	3375366144	10	4441
2026-01-28 01:38:28.92	163.84	13.66	-25.7	-27.4	15.7	0.00e+00	0	43	0	3392143360	11	4375
2026-01-28 01:38:31.93	164.11	13.39	-25.8	-27.7	15.5	0.00e+00	0	43	0	3408920576	11	4471
2026-01-28 01:38:34.95	164.38	13.12	-26.0	-27.6	15.2	0.00e+00	0	43	0	3425697792	12	4340
2026-01-28 01:38:37.97	164.64	12.85	-25.9	-27.5	15.1	0.00e+00	0	43	0	3442475008	12	4296
2026-01-28 01:38:40.98	164.89	12.58	-25.9	-27.9	15.4	0.00e+00	0	43	0	3459252224	11	4523
2026-01-28 01:38:43.99	165.14	12.32	-25.8	-27.6	15.5	0.00e+00	0	43	0	3477078016	11	4443
2026-01-28 01:38:47.00	165.39	12.06	-26.3	-28.2	14.9	1.10e-06	0	43	0	3493855232	12	4508
2026-01-28 01:38:50.01	165.63	11.80	-26.3	-28.2	14.9	0.00e+00	0	43	0	3510632448	12	4506
2026-01-28 01:38:53.02	165.87	11.54	-26.3	-28.2	14.9	0.00e+00	0	43	0	3527409664	12	4503
2026-01-28 01:38:56.04	166.11	11.29	-26.1	-27.9	15.0	0.00e+00	0	43	0	3544186880	12	4422
2026-01-28 01:38:59.05	166.34	11.04	-26.1	-27.9	15.0	1.10e-04	0	43	0	3562012672	12	4416
2026-01-28 01:39:02.06	166.57	10.79	-26.3	-28.2	14.8	1.10e-06	0	43	0	3578789888	12	4515
2026-01-28 01:39:05.07	166.79	10.54	-26.3	-28.3	14.7	0.00e+00	0	43	0	3595567104	12	4523
2026-01-28 01:39:08.07	167.01	10.30	-26.5	-28.6	14.5	0.00e+00	0	43	0	3612344320	12	4626
2026-01-28 01:39:11.09	167.23	10.05	-26.6	-28.6	14.3	1.23e-04	0	43	0	3629121536	13	4490
2026-01-28 01:39:14.10	167.44	9.81	-26.6	-28.5	14.3	0.00e+00	0	43	0	3645898752	13	4486
2026-01-28 01:39:17.11	167.65	9.57	-26.3	-27.9	14.7	0.00e+00	0	43	0	3662675968	13	4295
2026-01-28 01:39:20.12	167.86	9.33	-26.5	-28.2	14.4	8.46e-05	0	43	0	3679453184	13	4393
2026-01-28 01:39:23.12	168.06	9.10	-26.6	-28.6	14.2	8.46e-05	0	43	0	3697278976	13	4503
2026-01-28 01:39:26.13	168.26	8.87	-26.6	-28.5	14.2	1.10e-06	0	43	0	3714056192	13	4491
2026-01-28 01:39:29.15	168.46	8.63	-26.7	-28.7	14.1	1.10e-04	0	43	0	3730833408	13	4538
2026-01-28 01:39:32.17	168.66	8.40	-26.8	-28.9	13.9	1.21e-04	0	43	0	3747610624	13	4614
2026-01-28 01:39:35.17	168.85	8.18	-26.8	-29.0	13.8	1.14e-04	0	43	0	3764387840	13	4650
2026-01-28 01:39:38.19	169.04	7.95	-26.9	-29.2	13.8	8.00e-06	0	43	0	3782213632	13	4690
2026-01-28 01:39:41.20	169.22	7.72	-26.8	-28.9	13.3	9.95e-05	0	43	0	3798990848	13	4621
2026-01-28 01:39:44.21	169.41	7.50	-26.8	-29.0	13.8	2.61e-04	0	43	0	3815768064	13	4647
2026-01-28 01:39:47.23	169.59	7.28	-26.7	-28.9	13.9	4.50e-06	0	43	0	3832545280	13	4594
2026-01-28 01:39:50.24	169.77	7.06	-28.4	-31.3	11.9	1.02e-05	0	43	0	3849322496	16	5039

#Closed at: 2026-01-28 01:39:52
#Recorded file [3850 MB]: D:/data/31010_260128_042825.dat