passes_logs/2026/01/28/R2M6_AANII_01/R2M6_AANII_01__20260128_130129_FENGYUN_3D_rec.log

#Pass ID: 20260128_130129_FENGYUN 3D
#Satellite: FENGYUN 3D
#Configuration: FENGYUN 3D
#almurnet v.1.7.20240730
#Start time: 2026-01-28 13:01:30

#Version: 2.2.20231116
#Station: R2M6_AANII_01
#Location: 30.233357 lon 59.946436 lat
#TLE: 1 43010U 17072A   26027.90082829  .00000305  00000+0  16579-3 0  9998
#TLE: 2 43010  98.9960 359.9183 0002511  88.1058 272.0405 14.19701796425082

#Time	Az	El	Level	Level2	SNR	BER	BlckErr	Temp	State	Recorded	gain1	gain2
2026-01-28 13:01:30.99	180.08	7.14	-28.3	-31.0	5.7	7.75e-01	0	41	0	0	16	4902
2026-01-28 13:01:34.00	180.21	7.37	-28.8	-31.0	11.4	1.87e-03	0	41	0	5242880	18	4669
2026-01-28 13:01:37.01	180.33	7.60	-27.1	-28.6	13.7	4.69e-05	0	41	0	22020096	15	4252
2026-01-28 13:01:40.00	180.46	7.83	-26.5	-27.7	14.5	0.00e+00	0	41	0	38797312	14	4113
2026-01-28 13:01:43.02	180.59	8.07	-26.5	-27.6	14.6	0.00e+00	0	41	0	55574528	14	4083
2026-01-28 13:01:46.02	180.73	8.30	-26.5	-27.6	14.7	1.10e-06	0	41	0	73400320	14	4099
2026-01-28 13:01:49.03	180.86	8.54	-26.5	-28.2	14.5	3.40e-06	0	41	0	90177536	13	4383
2026-01-28 13:01:52.05	181.00	8.78	-26.3	-27.8	14.8	0.00e+00	0	41	0	106954752	13	4243
2026-01-28 13:01:55.06	181.14	9.03	-26.4	-27.9	14.7	0.00e+00	0	41	0	123731968	13	4280
2026-01-28 13:01:58.06	181.28	9.27	-26.5	-28.0	14.7	0.00e+00	0	42	0	140509184	13	4326
2026-01-28 13:02:01.06	181.42	9.52	-26.8	-28.7	14.3	2.20e-06	0	42	0	157286400	13	4517
2026-01-28 13:02:04.07	181.57	9.77	-26.3	-27.8	14.8	1.10e-06	0	42	0	174063616	13	4262
2026-01-28 13:02:07.09	181.71	10.02	-26.3	-27.7	14.9	0.00e+00	0	42	0	190840832	13	4219
2026-01-28 13:02:10.10	181.87	10.27	-26.3	-27.8	14.9	0.00e+00	0	42	0	208666624	13	4250
2026-01-28 13:02:13.12	182.02	10.53	-26.1	-27.2	15.2	0.00e+00	0	42	0	225443840	13	4094
2026-01-28 13:02:16.13	182.17	10.79	-26.0	-26.9	15.4	0.00e+00	0	42	0	242221056	13	4029
2026-01-28 13:02:19.15	182.33	11.05	-25.8	-26.7	15.6	0.00e+00	0	42	0	258998272	13	3952
2026-01-28 13:02:22.16	182.49	11.32	-25.8	-26.6	15.6	0.00e+00	0	42	0	275775488	13	3936
2026-01-28 13:02:25.17	182.66	11.59	-25.7	-26.8	15.7	0.00e+00	0	42	0	293601280	12	4105
2026-01-28 13:02:28.19	182.83	11.86	-25.7	-26.8	15.8	0.00e+00	0	42	0	310378496	12	4099
2026-01-28 13:02:31.20	182.99	12.13	-25.6	-26.6	15.9	0.00e+00	0	42	0	327155712	12	4042
2026-01-28 13:02:34.18	183.17	12.40	-25.8	-27.1	15.6	0.00e+00	0	42	0	343932928	12	4163
2026-01-28 13:02:37.20	183.34	12.68	-25.6	-26.6	15.9	0.00e+00	0	42	0	360710144	12	4054
2026-01-28 13:02:40.21	183.52	12.97	-25.9	-27.3	15.6	0.00e+00	0	42	0	377487360	12	4219
2026-01-28 13:02:43.23	183.70	13.25	-25.8	-27.0	15.8	0.00e+00	0	42	0	394264576	12	4134
2026-01-28 13:02:46.23	183.89	13.54	-25.8	-26.9	15.8	0.00e+00	0	42	0	411041792	12	4130
2026-01-28 13:02:49.24	184.08	13.83	-25.6	-26.6	16.0	0.00e+00	0	42	0	428867584	12	4035
2026-01-28 13:02:52.26	184.27	14.13	-25.5	-26.4	16.1	0.00e+00	0	42	0	445644800	12	3990
2026-01-28 13:02:55.27	184.47	14.42	-25.6	-26.7	16.0	0.00e+00	0	42	0	462422016	12	4057
2026-01-28 13:02:58.29	184.67	14.73	-25.2	-26.2	16.6	0.00e+00	0	43	0	479199232	11	4042
2026-01-28 13:03:01.30	184.87	15.03	-25.3	-26.4	16.5	0.00e+00	0	43	0	495976448	11	4081
2026-01-28 13:03:04.30	185.08	15.34	-25.3	-26.3	16.6	0.00e+00	0	43	0	513802240	11	4076
2026-01-28 13:03:07.32	185.29	15.65	-25.0	-25.8	16.9	0.00e+00	0	42	0	530579456	11	3939
2026-01-28 13:03:10.33	185.51	15.97	-25.0	-25.7	16.9	0.00e+00	0	42	0	547356672	11	3913
2026-01-28 13:03:13.34	185.73	16.29	-24.7	-25.6	17.2	0.00e+00	0	43	0	564133888	10	4003
2026-01-28 13:03:16.36	185.95	16.61	-24.7	-25.6	17.2	0.00e+00	0	43	0	580911104	10	4008
2026-01-28 13:03:19.36	186.18	16.94	-24.8	-25.8	17.2	0.00e+00	0	43	0	597688320	10	4037
2026-01-28 13:03:22.38	186.42	17.27	-24.8	-26.0	17.1	0.00e+00	0	43	0	614465536	10	4090
2026-01-28 13:03:25.40	186.66	17.61	-24.5	-25.3	17.4	0.00e+00	0	43	0	632291328	10	3920
2026-01-28 13:03:28.41	186.90	17.95	-24.6	-25.5	17.4	0.00e+00	0	43	0	649068544	10	3973
2026-01-28 13:03:31.42	187.15	18.29	-24.6	-25.4	17.4	0.00e+00	0	43	0	665845760	10	3945
2026-01-28 13:03:34.42	187.41	18.64	-24.5	-25.2	17.6	0.00e+00	0	43	0	682622976	10	3898
2026-01-28 13:03:37.44	187.67	18.99	-24.4	-25.1	17.6	0.00e+00	0	43	0	699400192	10	3880
2026-01-28 13:03:40.45	187.94	19.35	-25.0	-26.3	17.0	0.00e+00	0	43	0	716177408	10	4168
2026-01-28 13:03:43.46	188.21	19.71	-24.7	-25.6	17.3	0.00e+00	0	43	0	734003200	10	4006
2026-01-28 13:03:46.47	188.49	20.08	-24.7	-25.6	17.4	0.00e+00	0	43	0	750780416	10	4000
2026-01-28 13:03:49.48	188.77	20.45	-24.3	-25.3	17.8	0.00e+00	0	43	0	767557632	9	4024
2026-01-28 13:03:52.50	189.07	20.83	-23.9	-24.4	18.3	0.00e+00	0	43	0	784334848	9	3810
2026-01-28 13:03:55.50	189.37	21.21	-23.6	-24.3	18.6	0.00e+00	0	43	0	801112064	8	3900
2026-01-28 13:03:58.51	189.67	21.59	-23.4	-24.0	18.8	0.00e+00	0	43	0	817889280	8	3830
2026-01-28 13:04:01.53	189.99	21.98	-23.4	-24.0	18.8	0.00e+00	0	43	0	834666496	8	3822
2026-01-28 13:04:04.53	190.31	22.38	-23.5	-24.0	18.8	0.00e+00	0	43	0	851443712	8	3835
2026-01-28 13:04:07.55	190.64	22.78	-23.6	-24.4	18.6	0.00e+00	0	43	0	869269504	8	3912
2026-01-28 13:04:10.55	190.98	23.19	-23.8	-24.7	18.5	0.00e+00	0	43	0	886046720	8	3988
2026-01-28 13:04:13.56	191.33	23.60	-23.7	-24.4	18.6	0.00e+00	0	43	0	902823936	8	3934
2026-01-28 13:04:16.56	191.68	24.02	-23.6	-24.3	18.7	0.00e+00	0	43	0	919601152	8	3901
2026-01-28 13:04:19.57	192.05	24.44	-23.3	-23.7	18.9	0.00e+00	0	43	0	936378368	8	3761
2026-01-28 13:04:22.57	192.42	24.87	-23.2	-24.0	19.0	0.00e+00	0	43	0	953155584	7	3938
2026-01-28 13:04:25.58	192.81	25.31	-23.1	-23.7	19.2	0.00e+00	0	43	0	969932800	7	3849
2026-01-28 13:04:28.59	193.21	25.75	-23.0	-23.6	19.3	0.00e+00	0	43	0	987758592	7	3840
2026-01-28 13:04:31.60	193.61	26.20	-23.3	-24.1	19.0	0.00e+00	0	43	0	1004535808	7	3960
2026-01-28 13:04:34.62	194.03	26.65	-23.2	-24.0	19.1	0.00e+00	0	43	0	1021313024	7	3930
2026-01-28 13:04:37.64	194.47	27.11	-23.4	-24.3	18.9	0.00e+00	0	43	0	1038090240	7	4001
2026-01-28 13:04:40.64	194.91	27.58	-23.1	-23.7	19.2	0.00e+00	0	43	0	1054867456	7	3872
2026-01-28 13:04:43.66	195.36	28.05	-23.0	-23.4	19.4	0.00e+00	0	43	0	1072693248	7	3801
2026-01-28 13:04:46.66	195.83	28.53	-23.1	-23.8	19.2	0.00e+00	0	43	0	1089470464	7	3884
2026-01-28 13:04:49.68	196.32	29.02	-22.8	-23.1	19.5	0.00e+00	0	43	0	1106247680	7	3730
2026-01-28 13:04:52.69	196.81	29.51	-23.1	-23.7	19.2	0.00e+00	0	43	0	1123024896	7	3864
2026-01-28 13:04:55.71	197.33	30.01	-23.0	-23.4	19.4	0.00e+00	0	43	0	1139802112	7	3795
2026-01-28 13:04:58.72	197.86	30.51	-23.8	-25.2	18.6	0.00e+00	0	43	0	1156579328	7	4216
2026-01-28 13:05:01.72	198.40	31.02	-23.8	-25.2	18.6	0.00e+00	0	43	0	1173356544	7	4212
2026-01-28 13:05:04.73	198.96	31.54	-24.0	-25.5	18.4	0.00e+00	0	43	0	1190133760	7	4308
2026-01-28 13:05:07.74	199.54	32.06	-24.0	-25.1	18.4	0.00e+00	0	43	0	1207959552	8	4095
2026-01-28 13:05:10.76	200.14	32.59	-23.1	-23.8	19.3	0.00e+00	0	43	0	1224736768	7	3875
2026-01-28 13:05:13.78	200.76	33.12	-22.9	-23.3	19.5	0.00e+00	0	43	0	1241513984	7	3760
2026-01-28 13:05:16.79	201.40	33.66	-22.7	-23.3	19.8	0.00e+00	0	43	0	1258291200	6	3872
2026-01-28 13:05:19.81	202.06	34.21	-22.7	-23.3	19.8	0.00e+00	0	43	0	1275068416	6	3881
2026-01-28 13:05:22.83	202.74	34.76	-22.8	-23.6	19.6	2.20e-06	0	43	0	1292894208	6	3945
2026-01-28 13:05:25.86	203.45	35.32	-22.6	-23.1	19.9	0.00e+00	0	43	0	1309671424	6	3832
2026-01-28 13:05:28.87	204.18	35.89	-22.5	-23.0	20.0	0.00e+00	0	43	0	1326448640	6	3795
2026-01-28 13:05:31.88	204.93	36.45	-22.8	-23.7	19.6	1.10e-06	0	43	0	1343225856	6	3967
2026-01-28 13:05:34.89	205.72	37.02	-22.7	-23.3	19.8	0.00e+00	0	43	0	1360003072	6	3879
2026-01-28 13:05:37.89	206.52	37.59	-22.8	-23.5	19.8	0.00e+00	0	43	0	1376780288	6	3909
2026-01-28 13:05:40.91	207.36	38.17	-22.6	-23.1	19.9	0.00e+00	0	43	0	1394606080	6	3834
2026-01-28 13:05:43.92	208.22	38.76	-23.2	-24.3	19.4	0.00e+00	0	43	0	1411383296	6	4127
2026-01-28 13:05:46.94	209.12	39.34	-22.4	-22.7	20.1	0.00e+00	0	43	0	1428160512	6	3735
2026-01-28 13:05:49.95	210.05	39.93	-22.5	-23.0	20.0	0.00e+00	0	43	0	1444937728	6	3803
2026-01-28 13:05:52.95	211.01	40.51	-22.4	-22.8	20.1	0.00e+00	0	43	0	1461714944	6	3764
2026-01-28 13:05:55.96	212.01	41.10	-22.5	-22.9	20.3	0.00e+00	0	43	0	1478492160	6	3773
2026-01-28 13:05:58.96	213.04	41.68	-22.6	-23.1	20.2	0.00e+00	0	43	0	1495269376	6	3810
2026-01-28 13:06:01.97	214.11	42.27	-22.8	-23.6	20.0	0.00e+00	0	43	0	1513095168	6	3914
2026-01-28 13:06:04.99	215.23	42.85	-23.1	-24.0	19.7	0.00e+00	0	43	0	1529872384	6	4023
2026-01-28 13:06:08.01	216.38	43.44	-22.8	-23.4	20.0	0.00e+00	0	43	0	1546649600	6	3890
2026-01-28 13:06:11.02	217.57	44.01	-23.2	-24.3	19.6	0.00e+00	0	43	0	1563426816	6	4098
2026-01-28 13:06:14.03	218.81	44.58	-23.1	-24.2	19.7	0.00e+00	0	43	0	1580204032	6	4058
2026-01-28 13:06:17.05	220.10	45.15	-23.2	-24.3	19.6	0.00e+00	0	43	0	1598029824	6	4101
2026-01-28 13:06:20.06	221.42	45.70	-23.0	-24.0	19.8	0.00e+00	0	43	0	1614807040	6	4010
2026-01-28 13:06:23.07	222.79	46.25	-22.9	-23.7	20.0	0.00e+00	0	43	0	1631584256	6	3949
2026-01-28 13:06:26.07	224.21	46.78	-23.3	-24.6	19.5	0.00e+00	0	43	0	1648361472	6	4174
2026-01-28 13:06:29.10	225.69	47.31	-22.8	-23.5	20.1	0.00e+00	0	43	0	1665138688	6	3905
2026-01-28 13:06:32.11	227.20	47.81	-23.2	-24.4	19.6	0.00e+00	0	43	0	1681915904	6	4132
2026-01-28 13:06:35.12	228.77	48.30	-22.9	-23.6	20.0	0.00e+00	0	43	0	1698693120	6	3923
2026-01-28 13:06:38.13	230.38	48.78	-23.2	-24.3	19.7	0.00e+00	0	43	0	1715470336	6	4084
2026-01-28 13:06:41.13	232.04	49.23	-22.8	-23.5	20.1	0.00e+00	0	43	0	1733296128	6	3890
2026-01-28 13:06:44.13	233.75	49.66	-23.3	-24.5	19.6	0.00e+00	0	43	0	1750073344	6	4146
2026-01-28 13:06:47.16	235.52	50.07	-23.4	-24.7	19.5	0.00e+00	0	43	0	1766850560	6	4192
2026-01-28 13:06:50.17	237.32	50.45	-23.3	-24.6	19.6	0.00e+00	0	43	0	1783627776	6	4162
2026-01-28 13:06:53.19	239.18	50.81	-23.0	-23.4	19.9	0.00e+00	0	43	0	1800404992	7	3765
2026-01-28 13:06:56.19	241.06	51.14	-23.1	-23.7	19.8	0.00e+00	0	43	0	1818230784	7	3827
2026-01-28 13:06:59.21	243.00	51.43	-23.0	-23.4	19.9	0.00e+00	0	43	0	1835008000	7	3777
2026-01-28 13:07:02.22	244.96	51.70	-23.7	-24.8	19.3	0.00e+00	0	43	0	1851785216	7	4106
2026-01-28 13:07:05.23	246.96	51.92	-23.2	-23.7	19.8	0.00e+00	0	43	0	1868562432	7	3849
2026-01-28 13:07:08.25	249.00	52.12	-23.8	-25.0	19.2	0.00e+00	0	43	0	1885339648	7	4158
2026-01-28 13:07:11.25	251.04	52.28	-23.5	-24.4	19.5	0.00e+00	0	43	0	1902116864	7	3992
2026-01-28 13:07:14.26	253.11	52.40	-23.4	-24.3	19.5	0.00e+00	0	43	0	1918894080	7	3972
2026-01-28 13:07:17.27	255.20	52.48	-23.7	-24.9	19.2	0.00e+00	0	43	0	1936719872	7	4111
2026-01-28 13:07:20.29	257.30	52.53	-24.2	-25.4	18.7	0.00e+00	0	43	0	1953497088	8	4144
2026-01-28 13:07:23.31	259.40	52.53	-23.8	-24.7	19.1	0.00e+00	0	43	0	1970274304	8	3955
2026-01-28 13:07:26.32	261.49	52.50	-24.0	-24.4	19.1	0.00e+00	0	43	0	1987051520	9	3779
2026-01-28 13:07:29.33	263.58	52.43	-23.6	-24.2	19.4	0.00e+00	0	43	0	2003828736	8	3859
2026-01-28 13:07:32.33	265.65	52.32	-23.4	-24.2	19.6	0.00e+00	0	43	0	2020605952	7	3964
2026-01-28 13:07:35.34	267.70	52.17	-23.3	-23.9	19.7	0.00e+00	0	43	0	2037383168	7	3889
2026-01-28 13:07:38.35	269.73	51.98	-23.8	-25.0	19.2	0.00e+00	0	43	0	2055208960	7	4163
2026-01-28 13:07:41.36	271.74	51.77	-23.3	-23.9	19.8	0.00e+00	0	43	0	2071986176	7	3886
2026-01-28 13:07:44.37	273.71	51.51	-23.8	-25.1	19.2	0.00e+00	0	43	0	2088763392	7	4178
2026-01-28 13:07:47.38	275.65	51.23	-23.3	-24.1	19.7	0.00e+00	0	43	0	2105540608	7	3920
2026-01-28 13:07:50.40	277.56	50.91	-23.4	-24.2	19.6	0.00e+00	0	43	0	2122317824	7	3944
2026-01-28 13:07:53.42	279.42	50.56	-23.2	-23.9	19.8	0.00e+00	0	43	0	2139095040	7	3876
2026-01-28 13:07:56.43	281.24	50.19	-23.3	-24.0	19.8	0.00e+00	0	43	0	2156920832	7	3896
2026-01-28 13:07:59.44	283.01	49.79	-23.4	-24.2	19.6	0.00e+00	0	43	0	2173698048	7	3961
2026-01-28 13:08:02.45	284.73	49.36	-23.0	-23.4	20.1	0.00e+00	0	43	0	2190475264	7	3761
2026-01-28 13:08:05.46	286.40	48.92	-23.2	-23.8	19.8	0.00e+00	0	43	0	2207252480	7	3863
2026-01-28 13:08:08.46	288.03	48.45	-23.1	-23.7	19.9	0.00e+00	0	43	0	2224029696	7	3853
2026-01-28 13:08:11.48	289.61	47.97	-23.6	-24.6	19.4	0.00e+00	0	43	0	2240806912	7	4048
2026-01-28 13:08:14.49	291.13	47.47	-24.1	-25.2	18.9	0.00e+00	0	43	0	2257584128	8	4095
2026-01-28 13:08:17.50	292.61	46.95	-24.0	-24.9	19.1	0.00e+00	0	43	0	2275409920	8	3999
2026-01-28 13:08:20.50	294.04	46.42	-24.3	-25.2	18.7	0.00e+00	0	43	0	2292187136	9	3966
2026-01-28 13:08:23.51	295.42	45.88	-23.7	-24.3	19.4	0.00e+00	0	43	0	2308964352	8	3872
2026-01-28 13:08:26.52	296.76	45.33	-23.5	-24.0	19.5	0.00e+00	0	43	0	2325741568	8	3807
2026-01-28 13:08:29.54	298.05	44.77	-23.9	-24.7	19.2	0.00e+00	0	43	0	2342518784	8	3967
2026-01-28 13:08:32.55	299.30	44.21	-23.1	-23.7	19.9	0.00e+00	0	43	0	2359296000	7	3837
2026-01-28 13:08:35.56	300.50	43.63	-23.1	-23.5	19.9	0.00e+00	0	43	0	2377121792	7	3798
2026-01-28 13:08:38.58	301.67	43.06	-23.6	-24.8	19.3	0.00e+00	0	43	0	2393899008	7	4096
2026-01-28 13:08:41.60	302.79	42.47	-22.9	-23.2	20.1	0.00e+00	0	43	0	2410676224	7	3712
2026-01-28 13:08:44.61	303.87	41.89	-23.0	-23.3	20.0	0.00e+00	0	44	0	2427453440	7	3757
2026-01-28 13:08:47.62	304.92	41.31	-22.9	-23.2	20.1	0.00e+00	0	43	0	2444230656	7	3721
2026-01-28 13:08:50.64	305.93	40.72	-22.8	-23.5	20.2	0.00e+00	0	43	0	2461007872	6	3886
2026-01-28 13:08:53.66	306.90	40.14	-22.9	-23.6	20.1	0.00e+00	0	43	0	2478833664	6	3923
2026-01-28 13:08:56.67	307.84	39.55	-22.7	-23.3	20.3	0.00e+00	0	43	0	2495610880	6	3857
2026-01-28 13:08:59.68	308.74	38.97	-22.8	-23.6	20.1	0.00e+00	0	43	0	2512388096	6	3918
2026-01-28 13:09:02.70	309.62	38.39	-22.8	-23.6	20.1	0.00e+00	0	43	0	2529165312	6	3920
2026-01-28 13:09:05.71	310.46	37.82	-22.9	-23.6	20.1	0.00e+00	0	43	0	2545942528	6	3926
2026-01-28 13:09:08.73	311.28	37.24	-22.8	-23.4	20.2	0.00e+00	0	43	0	2562719744	6	3882
2026-01-28 13:09:11.74	312.06	36.67	-23.1	-24.0	19.9	0.00e+00	0	43	0	2579496960	6	4025
2026-01-28 13:09:14.75	312.82	36.11	-22.7	-23.4	20.2	0.00e+00	0	43	0	2597322752	6	3872
2026-01-28 13:09:17.77	313.56	35.55	-22.8	-23.6	20.1	0.00e+00	0	43	0	2614099968	6	3916
2026-01-28 13:09:20.79	314.27	34.99	-23.1	-24.2	19.8	0.00e+00	0	43	0	2630877184	6	4075
2026-01-28 13:09:23.79	314.96	34.44	-23.3	-24.5	19.6	0.00e+00	0	43	0	2647654400	6	4135
2026-01-28 13:09:26.79	315.62	33.90	-23.4	-24.2	19.5	0.00e+00	0	43	0	2664431616	7	3944
2026-01-28 13:09:29.80	316.27	33.36	-23.0	-23.3	19.9	0.00e+00	0	43	0	2682257408	7	3758
2026-01-28 13:09:32.82	316.89	32.82	-23.0	-23.5	19.9	0.00e+00	0	43	0	2699034624	7	3792
2026-01-28 13:09:35.84	317.50	32.30	-23.0	-23.5	19.8	0.00e+00	0	43	0	2715811840	7	3791
2026-01-28 13:09:38.85	318.08	31.77	-23.0	-23.3	19.9	0.00e+00	0	43	0	2732589056	7	3755
2026-01-28 13:09:41.87	318.65	31.26	-23.3	-24.0	19.5	0.00e+00	0	43	0	2749366272	7	3918
2026-01-28 13:09:44.88	319.20	30.75	-23.4	-24.4	19.4	0.00e+00	0	43	0	2766143488	7	3999
2026-01-28 13:09:47.89	319.73	30.24	-23.5	-24.5	19.3	0.00e+00	0	43	0	2782920704	7	4040
2026-01-28 13:09:50.91	320.25	29.75	-23.6	-24.6	19.3	0.00e+00	0	43	0	2800746496	7	4058
2026-01-28 13:09:53.92	320.75	29.26	-23.3	-24.0	19.5	0.00e+00	0	43	0	2817523712	7	3904
2026-01-28 13:09:56.94	321.24	28.77	-23.3	-24.1	19.5	0.00e+00	0	43	0	2834300928	7	3931
2026-01-28 13:09:59.95	321.72	28.29	-23.3	-24.0	19.5	0.00e+00	0	43	0	2851078144	7	3907
2026-01-28 13:10:02.97	322.18	27.82	-23.4	-24.2	19.4	0.00e+00	0	43	0	2867855360	7	3964
2026-01-28 13:10:05.97	322.62	27.36	-23.5	-24.4	19.3	0.00e+00	0	43	0	2884632576	7	4003
2026-01-28 13:10:08.99	323.06	26.89	-23.4	-24.2	19.4	0.00e+00	0	43	0	2902458368	7	3953
2026-01-28 13:10:12.00	323.48	26.44	-23.1	-23.7	19.7	0.00e+00	0	43	0	2919235584	7	3843
2026-01-28 13:10:15.02	323.89	25.99	-23.4	-24.2	19.4	0.00e+00	0	43	0	2936012800	7	3951
2026-01-28 13:10:18.03	324.29	25.55	-23.8	-25.1	18.9	0.00e+00	0	43	0	2952790016	7	4172
2026-01-28 13:10:21.04	324.68	25.12	-23.6	-24.8	19.0	0.00e+00	0	44	0	2969567232	7	4096
2026-01-28 13:10:24.05	325.06	24.69	-23.6	-24.7	19.1	0.00e+00	0	43	0	2987393024	7	4072
2026-01-28 13:10:27.06	325.43	24.26	-23.6	-24.6	19.1	0.00e+00	0	43	0	3004170240	7	4065
2026-01-28 13:10:30.07	325.79	23.84	-23.7	-24.9	18.9	0.00e+00	0	43	0	3020947456	7	4144
2026-01-28 13:10:33.08	326.14	23.43	-24.0	-25.1	18.6	0.00e+00	0	43	0	3037724672	8	4071
2026-01-28 13:10:36.09	326.49	23.02	-24.1	-25.2	18.6	0.00e+00	0	43	0	3054501888	8	4104
2026-01-28 13:10:39.09	326.82	22.62	-24.1	-25.2	18.6	0.00e+00	0	44	0	3071279104	8	4092
2026-01-28 13:10:42.10	327.14	22.23	-23.9	-24.9	18.7	0.00e+00	0	44	0	3088056320	8	4009
2026-01-28 13:10:45.11	327.46	21.84	-24.1	-25.3	18.5	0.00e+00	0	43	0	3104833536	8	4108
2026-01-28 13:10:48.12	327.77	21.45	-24.1	-25.3	18.5	0.00e+00	0	43	0	3122659328	8	4114
2026-01-28 13:10:51.12	328.07	21.07	-24.3	-25.7	18.3	0.00e+00	0	43	0	3139436544	8	4225
2026-01-28 13:10:54.12	328.37	20.70	-24.4	-25.9	18.1	0.00e+00	0	43	0	3156213760	8	4264
2026-01-28 13:10:57.13	328.66	20.32	-24.4	-26.0	18.1	0.00e+00	0	43	0	3172990976	8	4285
2026-01-28 13:11:00.14	328.94	19.96	-24.5	-25.7	18.0	0.00e+00	0	43	0	3189768192	9	4100
2026-01-28 13:11:03.15	329.22	19.60	-24.6	-25.7	17.9	0.00e+00	0	43	0	3206545408	9	4117
2026-01-28 13:11:06.16	329.49	19.24	-24.7	-26.0	17.8	0.00e+00	0	43	0	3223322624	9	4188
2026-01-28 13:11:09.17	329.75	18.89	-24.8	-26.3	17.6	0.00e+00	0	43	0	3240099840	9	4254
2026-01-28 13:11:12.18	330.01	18.54	-24.8	-26.2	17.7	0.00e+00	0	43	0	3257925632	9	4229
2026-01-28 13:11:15.19	330.27	18.20	-25.4	-27.1	16.9	0.00e+00	0	43	0	3274702848	10	4356
2026-01-28 13:11:18.20	330.51	17.86	-25.4	-27.0	17.0	0.00e+00	0	43	0	3291480064	10	4323
2026-01-28 13:11:21.20	330.75	17.52	-25.3	-26.8	17.1	0.00e+00	0	43	0	3308257280	10	4276
2026-01-28 13:11:24.21	330.99	17.19	-25.5	-26.7	16.8	0.00e+00	0	43	0	3325034496	11	4141
2026-01-28 13:11:27.23	331.23	16.86	-25.2	-26.0	17.2	0.00e+00	0	43	0	3341811712	11	3970
2026-01-28 13:11:30.24	331.45	16.54	-25.5	-26.7	16.8	0.00e+00	0	43	0	3358588928	11	4134
2026-01-28 13:11:33.26	331.68	16.22	-25.6	-27.0	16.6	0.00e+00	0	43	0	3376414720	11	4212
2026-01-28 13:11:36.26	331.90	15.90	-25.7	-27.1	16.5	0.00e+00	0	43	0	3393191936	11	4251
2026-01-28 13:11:39.26	332.11	15.59	-25.9	-27.2	16.2	0.00e+00	0	43	0	3409969152	12	4162
2026-01-28 13:11:42.28	332.32	15.28	-25.7	-26.7	16.4	0.00e+00	0	43	0	3426746368	12	4038
2026-01-28 13:11:45.30	332.53	14.98	-25.7	-26.8	16.3	0.00e+00	0	43	0	3443523584	12	4062
2026-01-28 13:11:48.31	332.73	14.68	-25.8	-26.8	16.3	0.00e+00	0	43	0	3461349376	12	4070
2026-01-28 13:11:51.32	332.93	14.38	-25.9	-27.1	16.1	0.00e+00	0	44	0	3478126592	12	4133
2026-01-28 13:11:54.33	333.13	14.09	-25.9	-27.2	16.1	0.00e+00	0	43	0	3494903808	12	4168
2026-01-28 13:11:57.33	333.32	13.80	-26.2	-27.7	15.8	0.00e+00	0	43	0	3511681024	12	4314
2026-01-28 13:12:00.34	333.51	13.51	-26.2	-27.8	15.7	0.00e+00	0	43	0	3528458240	12	4340
2026-01-28 13:12:03.34	333.69	13.22	-26.1	-27.6	15.8	0.00e+00	0	43	0	3545235456	12	4285
2026-01-28 13:12:06.36	333.88	12.94	-26.2	-27.8	15.6	0.00e+00	0	44	0	3562012672	12	4334
2026-01-28 13:12:09.37	334.05	12.66	-26.2	-27.9	15.6	0.00e+00	0	43	0	3578789888	12	4352
2026-01-28 13:12:12.38	334.23	12.39	-26.2	-27.9	15.6	0.00e+00	0	43	0	3596615680	12	4366
2026-01-28 13:12:15.39	334.40	12.11	-26.3	-27.9	15.5	0.00e+00	0	44	0	3613392896	12	4367
2026-01-28 13:12:18.40	334.57	11.84	-26.3	-28.1	15.5	0.00e+00	0	43	0	3630170112	12	4398
2026-01-28 13:12:21.42	334.74	11.58	-26.2	-27.9	15.5	0.00e+00	0	43	0	3646947328	12	4359
2026-01-28 13:12:24.43	334.90	11.31	-26.4	-28.2	15.4	0.00e+00	0	43	0	3663724544	12	4444
2026-01-28 13:12:27.45	335.07	11.05	-26.3	-28.0	15.4	0.00e+00	0	44	0	3681550336	12	4388
2026-01-28 13:12:30.45	335.22	10.79	-26.3	-28.0	15.4	0.00e+00	0	43	0	3698327552	12	4391
2026-01-28 13:12:33.47	335.38	10.53	-26.4	-27.9	15.2	0.00e+00	0	43	0	3715104768	13	4237
2026-01-28 13:12:36.48	335.53	10.28	-26.4	-27.7	15.2	0.00e+00	0	44	0	3731881984	13	4209
2026-01-28 13:12:39.50	335.69	10.03	-26.5	-27.9	15.2	0.00e+00	0	43	0	3748659200	13	4254
2026-01-28 13:12:42.51	335.84	9.78	-26.6	-28.3	14.9	1.10e-06	0	43	0	3765436416	13	4369
2026-01-28 13:12:45.52	335.98	9.53	-26.8	-28.6	14.7	0.00e+00	0	43	0	3782213632	13	4452
2026-01-28 13:12:48.52	336.13	9.28	-26.6	-28.2	15.0	1.10e-06	0	43	0	3798990848	13	4334
2026-01-28 13:12:51.47	336.27	9.05	-26.8	-28.8	14.6	1.10e-06	0	43	0	3816816640	13	4498
2026-01-28 13:12:54.49	336.41	8.81	-26.7	-28.5	14.7	1.10e-06	0	44	0	3833593856	13	4423
2026-01-28 13:12:57.50	336.55	8.57	-26.9	-28.9	14.5	1.10e-06	0	44	0	3850371072	13	4540
2026-01-28 13:13:00.51	336.68	8.33	-27.0	-28.6	14.4	0.00e+00	0	43	0	3867148288	14	4345
2026-01-28 13:13:03.51	336.82	8.10	-26.9	-28.5	14.4	1.10e-06	0	43	0	3883925504	14	4308
2026-01-28 13:13:06.52	336.95	7.87	-27.1	-29.0	14.1	6.80e-06	0	44	0	3900702720	14	4460
2026-01-28 13:13:09.53	337.08	7.64	-27.1	-28.9	14.1	5.70e-06	0	43	0	3917479936	14	4432
2026-01-28 13:13:12.55	337.21	7.41	-27.1	-29.0	14.0	1.10e-06	0	44	0	3935305728	14	4453
2026-01-28 13:13:15.56	337.33	7.18	-27.1	-29.0	14.0	5.70e-06	0	44	0	3952082944	14	4465
2026-01-28 13:13:18.58	337.46	6.96	-33.5	-44.9	3.8	8.47e-01	0	44	104	3961520128	26	13487

#Closed at: 2026-01-28 13:13:20
#Recorded file [3961 MB]: D:/data/31010_260128_160132.dat