passes_logs/2026/01/28/R2M6_AANII_01/R2M6_AANII_01__20260128_005203_NOAA_20_JPSS-1_rec.log

#Pass ID: 20260128_005203_NOAA 20 (JPSS-1)
#Satellite: NOAA 20 (JPSS-1)
#Configuration: NOAA 20
#almurnet v.1.7.20240730
#Start time: 2026-01-28 00:52:02

#Version: 2.2.20231116
#Station: R2M6_AANII_01
#Location: 30.233357 lon 59.946436 lat
#TLE: 1 43013U 17073A   26027.45344144  .00000161  00000+0  97205-4 0  9999
#TLE: 2 43013  98.7647 328.2621 0000962  21.7793 338.3424 14.19541101424503

#Time	Az	El	Level	Level2	SNR	BER	BlckErr	Temp	State	Recorded	gain1	gain2
2026-01-28 00:52:02.89	15.65	6.96	-32.0	-38.6	4.9	1.30e+00	0	40	0	0	24	7662
2026-01-28 00:52:05.90	15.58	7.19	-32.3	-39.7	6.6	2.54e-01	0	40	0	1048576	24	8469
2026-01-28 00:52:08.92	15.50	7.42	-32.1	-38.7	7.4	1.55e-01	0	41	0	7340032	24	7677
2026-01-28 00:52:11.93	15.43	7.65	-32.0	-38.3	8.2	4.11e-02	0	41	0	12582912	23	7471
2026-01-28 00:52:14.94	15.35	7.89	-31.9	-37.8	8.6	5.46e-02	0	41	0	17825792	23	7134
2026-01-28 00:52:17.96	15.27	8.13	-31.2	-35.8	10.5	6.54e-03	0	41	0	24117248	22	6117
2026-01-28 00:52:20.96	15.20	8.37	-31.0	-35.5	11.2	1.49e-03	0	41	0	29360128	21	6065
2026-01-28 00:52:23.98	15.11	8.61	-31.2	-35.7	10.7	4.79e-03	0	41	0	35651584	22	6043
2026-01-28 00:52:26.99	15.03	8.85	-30.6	-34.1	12.2	2.49e-04	0	41	0	40894464	21	5440
2026-01-28 00:52:30.00	14.95	9.10	-30.5	-33.9	12.5	1.27e-04	0	41	0	46137344	21	5315
2026-01-28 00:52:33.01	14.86	9.35	-30.4	-34.2	12.6	1.13e-04	0	41	0	52428800	20	5562
2026-01-28 00:52:36.03	14.77	9.60	-30.7	-34.5	12.1	2.30e-04	0	41	0	57671680	21	5569
2026-01-28 00:52:39.03	14.69	9.85	-30.7	-34.5	12.0	4.81e-04	0	41	0	63963136	21	5583
2026-01-28 00:52:42.03	14.59	10.11	-30.5	-34.3	12.6	9.30e-05	0	41	0	69206016	20	5584
2026-01-28 00:52:45.05	14.50	10.37	-30.2	-33.5	13.1	3.28e-05	0	41	0	74448896	20	5284
2026-01-28 00:52:48.05	14.41	10.63	-30.2	-33.6	13.1	1.98e-05	0	41	0	80740352	20	5292
2026-01-28 00:52:51.06	14.31	10.89	-30.2	-33.6	13.1	3.35e-05	0	41	0	85983232	20	5296
2026-01-28 00:52:54.07	14.21	11.16	-30.3	-33.8	12.6	2.74e-05	0	42	0	91226112	20	5404
2026-01-28 00:52:57.07	14.11	11.43	-30.1	-33.3	12.9	2.21e-05	0	42	0	97517568	20	5194
2026-01-28 00:53:00.09	14.01	11.71	-30.0	-33.0	13.6	2.45e-03	0	42	0	102760448	20	5051
2026-01-28 00:53:03.09	13.90	11.98	-29.9	-33.2	13.8	2.69e-03	0	42	0	109051904	19	5241
2026-01-28 00:53:06.10	13.80	12.26	-29.9	-33.1	14.0	3.00e-06	0	42	0	114294784	19	5194
2026-01-28 00:53:09.11	13.69	12.54	-29.9	-33.0	14.0	1.50e-06	0	42	0	119537664	19	5175
2026-01-28 00:53:12.12	13.58	12.83	-29.8	-32.8	14.2	7.00e-07	0	42	0	125829120	19	5083
2026-01-28 00:53:15.13	13.46	13.11	-29.8	-32.9	14.2	2.20e-06	0	42	0	131072000	19	5105
2026-01-28 00:53:18.15	13.34	13.41	-29.8	-32.7	14.2	2.46e-03	0	42	0	137363456	19	5059
2026-01-28 00:53:21.16	13.23	13.70	-29.7	-32.6	14.3	2.57e-03	0	42	0	142606336	19	5015
2026-01-28 00:53:24.17	13.10	14.00	-29.8	-32.7	14.3	2.40e-03	0	42	0	147849216	19	5037
2026-01-28 00:53:27.19	12.98	14.30	-29.6	-32.3	14.5	2.59e-03	0	42	0	154140672	19	4910
2026-01-28 00:53:30.20	12.85	14.61	-29.7	-32.5	14.4	2.56e-03	0	42	0	159383552	19	4954
2026-01-28 00:53:33.21	12.72	14.92	-29.6	-32.3	14.6	7.00e-07	0	42	0	164626432	19	4911
2026-01-28 00:53:36.22	12.59	15.23	-29.6	-32.1	14.7	2.60e-03	0	42	0	170917888	19	4841
2026-01-28 00:53:39.24	12.45	15.55	-29.6	-32.2	14.7	2.48e-03	0	42	0	176160768	19	4853
2026-01-28 00:53:42.25	12.31	15.87	-29.7	-32.5	14.5	2.27e-03	0	42	0	182452224	19	4961
2026-01-28 00:53:45.26	12.17	16.20	-29.5	-32.0	14.8	2.58e-03	0	42	0	187695104	19	4793
2026-01-28 00:53:48.26	12.02	16.53	-29.5	-32.1	14.8	2.48e-03	0	42	0	192937984	19	4807
2026-01-28 00:53:51.26	11.87	16.86	-29.7	-32.5	14.6	1.76e-04	0	42	0	199229440	19	4959
2026-01-28 00:53:54.27	11.72	17.20	-29.5	-31.9	15.0	0.00e+00	0	42	0	204472320	19	4754
2026-01-28 00:53:57.29	11.56	17.54	-29.4	-32.2	15.1	2.47e-03	0	42	0	209715200	18	4955
2026-01-28 00:54:00.29	11.40	17.89	-29.4	-32.1	15.2	2.28e-03	0	42	0	216006656	18	4933
2026-01-28 00:54:03.29	11.23	18.24	-29.5	-31.9	15.0	2.49e-03	0	42	0	221249536	19	4734
2026-01-28 00:54:06.30	11.06	18.60	-29.7	-32.3	14.8	2.49e-03	0	42	0	227540992	19	4878
2026-01-28 00:54:09.32	10.89	18.96	-29.8	-32.5	14.6	1.13e-04	0	42	0	232783872	19	4957
2026-01-28 00:54:12.32	10.71	19.33	-29.5	-32.3	15.1	7.00e-07	0	42	0	238026752	18	4989
2026-01-28 00:54:15.34	10.53	19.70	-29.5	-31.8	15.1	0.00e+00	0	42	0	244318208	19	4717
2026-01-28 00:54:18.36	10.34	20.08	-29.7	-32.4	14.7	7.00e-07	0	42	0	249561088	19	4910
2026-01-28 00:54:21.37	10.15	20.46	-29.5	-31.7	15.2	0.00e+00	0	42	0	255852544	19	4680
2026-01-28 00:54:24.38	9.95	20.85	-29.6	-32.1	15.0	0.00e+00	0	42	0	261095424	19	4809
2026-01-28 00:54:27.39	9.75	21.25	-29.4	-31.7	15.3	0.00e+00	0	42	0	266338304	19	4661
2026-01-28 00:54:30.41	9.54	21.65	-29.4	-32.0	15.4	0.00e+00	0	42	0	272629760	18	4874
2026-01-28 00:54:33.43	9.32	22.06	-29.4	-32.0	15.4	0.00e+00	0	43	0	277872640	18	4874
2026-01-28 00:54:36.44	9.10	22.47	-29.4	-32.1	15.2	0.00e+00	0	43	0	284164096	18	4896
2026-01-28 00:54:39.45	8.87	22.89	-29.4	-32.0	15.5	0.00e+00	0	42	0	289406976	18	4875
2026-01-28 00:54:42.46	8.64	23.31	-29.5	-31.8	15.2	0.00e+00	0	43	0	294649856	19	4706
2026-01-28 00:54:45.46	8.40	23.74	-29.7	-32.3	15.0	0.00e+00	0	42	0	300941312	19	4852
2026-01-28 00:54:48.47	8.15	24.18	-29.9	-32.8	14.7	2.17e-03	0	42	0	306184192	19	5023
2026-01-28 00:54:51.48	7.90	24.63	-30.3	-33.3	13.9	1.99e-03	0	42	0	311427072	20	5118
2026-01-28 00:54:54.49	7.63	25.08	-30.0	-32.6	14.4	1.50e-06	0	43	0	317718528	20	4846
2026-01-28 00:54:57.50	7.36	25.54	-30.1	-32.8	14.3	7.00e-07	0	42	0	322961408	20	4944
2026-01-28 00:55:00.52	7.08	26.01	-30.3	-33.4	13.9	1.50e-06	0	43	0	329252864	20	5149
2026-01-28 00:55:03.53	6.79	26.48	-30.6	-33.8	13.4	9.90e-06	0	43	0	334495744	21	5179
2026-01-28 00:55:06.54	6.50	26.96	-30.8	-34.3	13.1	2.14e-03	0	42	0	339738624	21	5369
2026-01-28 00:55:09.55	6.19	27.45	-31.1	-34.6	12.5	2.12e-03	0	43	0	346030080	22	5390
2026-01-28 00:55:12.56	5.87	27.95	-31.4	-35.6	11.8	2.74e-03	0	43	0	351272960	22	5818
2026-01-28 00:55:15.56	5.55	28.45	-31.4	-35.4	12.0	2.69e-03	0	43	0	357564416	22	5719
2026-01-28 00:55:18.58	5.21	28.97	-31.3	-35.2	12.1	2.43e-03	0	43	0	362807296	22	5631
2026-01-28 00:55:21.59	4.86	29.49	-31.4	-35.5	11.9	4.35e-04	0	42	0	368050176	22	5764
2026-01-28 00:55:24.61	4.50	30.02	-31.6	-35.5	11.6	3.42e-03	0	43	0	374341632	23	5666
2026-01-28 00:55:27.61	4.13	30.56	-31.6	-35.6	11.5	2.99e-03	0	42	0	379584512	23	5706
2026-01-28 00:55:30.62	3.74	31.11	-31.7	-35.9	11.3	3.39e-03	0	43	0	384827392	23	5826
2026-01-28 00:55:33.63	3.34	31.67	-31.9	-36.3	11.0	4.75e-03	0	43	0	391118848	23	6041
2026-01-28 00:55:36.65	2.92	32.24	-31.8	-36.2	11.1	3.71e-03	0	43	0	396361728	23	5974
2026-01-28 00:55:39.66	2.49	32.81	-31.8	-36.3	11.1	2.03e-03	0	42	0	402653184	23	5998
2026-01-28 00:55:42.67	2.04	33.40	-31.7	-35.8	11.5	7.18e-04	0	43	0	407896064	23	5770
2026-01-28 00:55:45.67	1.58	33.99	-31.8	-36.0	11.3	1.10e-03	0	43	0	413138944	23	5856
2026-01-28 00:55:48.68	1.10	34.59	-31.8	-36.2	11.2	4.65e-03	0	43	0	419430400	23	5958
2026-01-28 00:55:51.69	0.60	35.20	-32.1	-36.7	10.4	7.14e-03	0	43	0	424673280	24	6097
2026-01-28 00:55:54.71	0.08	35.83	-32.0	-36.3	10.8	5.49e-03	0	43	0	430964736	24	5911
2026-01-28 00:55:57.71	359.54	36.46	-32.1	-36.4	10.7	2.17e-03	0	42	0	436207616	24	5946
2026-01-28 00:56:00.72	358.98	37.10	-31.4	-34.8	12.2	4.23e-04	0	43	0	441450496	23	5336
2026-01-28 00:56:03.73	358.39	37.75	-31.3	-34.9	12.5	8.39e-05	0	43	0	447741952	22	5479
2026-01-28 00:56:06.74	357.78	38.41	-31.6	-35.6	11.7	5.46e-04	0	42	0	452984832	23	5653
2026-01-28 00:56:09.75	357.15	39.08	-31.6	-35.3	11.9	2.87e-04	0	43	0	458227712	23	5537
2026-01-28 00:56:12.76	356.49	39.76	-31.7	-35.9	11.5	6.16e-04	0	42	0	464519168	23	5781
2026-01-28 00:56:15.78	355.79	40.45	-31.6	-35.3	11.9	3.79e-04	0	43	0	469762048	23	5551
2026-01-28 00:56:18.78	355.07	41.14	-31.7	-35.6	11.7	6.35e-04	0	43	0	476053504	23	5659
2026-01-28 00:56:21.78	354.32	41.84	-31.8	-36.1	11.3	8.63e-04	0	43	0	481296384	23	5894
2026-01-28 00:56:24.79	353.53	42.55	-31.8	-36.1	11.4	7.78e-04	0	43	0	486539264	23	5876
2026-01-28 00:56:27.81	352.70	43.27	-31.5	-35.2	12.0	5.94e-04	0	43	0	492830720	23	5478
2026-01-28 00:56:30.81	351.84	43.99	-31.2	-34.7	12.7	4.04e-05	0	43	0	498073600	22	5372
2026-01-28 00:56:33.81	350.94	44.72	-31.3	-34.9	12.6	1.07e-04	0	43	0	503316480	22	5466
2026-01-28 00:56:36.82	349.99	45.46	-30.7	-33.8	13.6	7.01e-05	0	43	0	509607936	21	5145
2026-01-28 00:56:39.83	349.00	46.20	-31.1	-34.4	12.9	6.25e-05	0	43	0	514850816	22	5257
2026-01-28 00:56:42.84	347.96	46.94	-31.2	-34.7	12.8	6.17e-05	0	43	0	521142272	22	5379
2026-01-28 00:56:45.85	346.87	47.69	-31.3	-34.9	12.6	1.11e-04	0	43	0	526385152	22	5457
2026-01-28 00:56:48.85	345.72	48.43	-31.0	-34.2	13.1	4.27e-05	0	43	0	531628032	22	5186
2026-01-28 00:56:51.87	344.52	49.18	-30.8	-34.0	13.5	6.10e-06	0	43	0	537919488	21	5224
2026-01-28 00:56:54.88	343.25	49.92	-30.9	-33.9	13.3	2.97e-05	0	43	0	543162368	22	5085
2026-01-28 00:56:57.90	341.92	50.67	-30.9	-34.5	13.2	3.81e-05	0	43	0	549453824	21	5426
2026-01-28 00:57:00.90	340.52	51.40	-30.4	-33.0	14.2	1.22e-05	0	43	0	554696704	21	4842
2026-01-28 00:57:03.92	339.05	52.13	-29.5	-31.3	15.5	0.00e+00	0	43	0	559939584	20	4409
2026-01-28 00:57:06.92	337.52	52.85	-29.4	-31.5	15.8	0.00e+00	0	43	0	566231040	19	4571
2026-01-28 00:57:09.93	335.90	53.56	-29.3	-31.7	15.9	7.00e-07	0	43	0	571473920	18	4734
2026-01-28 00:57:12.94	334.20	54.25	-29.3	-31.7	15.9	0.00e+00	0	43	0	576716800	18	4729
2026-01-28 00:57:15.96	332.41	54.92	-29.5	-31.7	15.6	0.00e+00	0	43	0	583008256	19	4623
2026-01-28 00:57:18.97	330.54	55.58	-30.0	-32.5	14.8	0.00e+00	0	43	0	588251136	20	4793
2026-01-28 00:57:21.98	328.59	56.21	-31.1	-34.3	13.0	6.10e-05	0	43	0	594542592	22	5234
2026-01-28 00:57:24.99	326.54	56.81	-31.4	-34.8	12.3	2.02e-04	0	43	0	599785472	23	5323
2026-01-28 00:57:28.01	324.40	57.38	-31.4	-35.3	12.4	1.02e-04	0	43	0	605028352	22	5633
2026-01-28 00:57:31.02	322.17	57.92	-31.5	-34.9	12.3	3.40e-04	0	43	0	611319808	23	5365
2026-01-28 00:57:34.02	319.87	58.42	-31.3	-34.9	12.7	8.39e-05	0	43	0	616562688	22	5447
2026-01-28 00:57:37.04	317.46	58.88	-31.4	-34.8	12.4	1.24e-04	0	43	0	621805568	23	5320
2026-01-28 00:57:40.04	314.99	59.29	-30.9	-33.3	13.5	4.88e-05	0	43	0	628097024	23	4735
2026-01-28 00:57:43.05	312.44	59.66	-30.3	-32.8	14.3	2.20e-06	0	43	0	633339904	21	4793
2026-01-28 00:57:46.06	309.81	59.97	-30.0	-32.4	14.8	0.00e+00	0	43	0	639631360	20	4762
2026-01-28 00:57:49.07	307.13	60.23	-29.8	-32.0	15.0	0.00e+00	0	43	0	644874240	20	4640
2026-01-28 00:57:52.08	304.40	60.43	-29.7	-31.8	15.3	0.00e+00	0	43	0	650117120	20	4566
2026-01-28 00:57:55.09	301.63	60.58	-28.7	-31.2	15.0	0.00e+00	0	43	0	656408576	18	4785
2026-01-28 00:57:58.09	298.84	60.66	-29.0	-31.0	16.3	0.00e+00	0	43	0	661651456	18	4516
2026-01-28 00:58:01.10	296.04	60.69	-28.3	-30.4	16.9	0.00e+00	0	43	0	667942912	16	4566
2026-01-28 00:58:04.12	293.22	60.65	-28.2	-30.2	17.3	1.47e-03	0	43	0	673185792	16	4509
2026-01-28 00:58:07.12	290.44	60.55	-28.2	-30.1	17.3	0.00e+00	0	43	0	678428672	16	4500
2026-01-28 00:58:10.12	287.69	60.39	-27.9	-30.0	17.5	0.00e+00	0	43	0	684720128	15	4592
2026-01-28 00:58:13.12	284.97	60.18	-28.4	-30.7	17.0	0.00e+00	0	43	0	689963008	16	4658
2026-01-28 00:58:16.12	282.31	59.91	-28.3	-30.4	17.2	0.00e+00	0	43	0	695205888	16	4586
2026-01-28 00:58:19.13	279.70	59.58	-29.1	-31.3	16.1	2.02e-03	0	43	0	701497344	18	4629
2026-01-28 00:58:22.14	277.15	59.21	-29.2	-31.6	15.8	2.10e-03	0	43	0	706740224	18	4716
2026-01-28 00:58:25.15	274.69	58.78	-29.1	-31.2	16.1	2.07e-03	0	43	0	713031680	18	4607
2026-01-28 00:58:28.16	272.30	58.32	-30.1	-32.9	14.4	2.10e-03	0	43	0	718274560	20	4935
2026-01-28 00:58:31.17	270.01	57.81	-30.1	-32.7	14.5	0.00e+00	0	43	0	723517440	20	4862
2026-01-28 00:58:34.19	267.79	57.26	-30.0	-32.6	14.6	0.00e+00	0	43	0	729808896	20	4833
2026-01-28 00:58:37.20	265.67	56.68	-29.4	-31.9	15.7	1.89e-03	0	43	0	735051776	18	4813
2026-01-28 00:58:40.21	263.64	56.07	-29.6	-32.0	15.3	2.12e-03	0	43	0	740294656	19	4754
2026-01-28 00:58:43.23	261.69	55.43	-29.7	-32.3	15.1	9.03e-04	0	43	0	746586112	19	4851
2026-01-28 00:58:46.23	259.85	54.77	-29.9	-32.7	14.9	4.29e-04	0	43	0	751828992	19	4986
2026-01-28 00:58:49.24	258.08	54.09	-29.7	-32.2	15.1	5.11e-04	0	43	0	758120448	19	4822
2026-01-28 00:58:52.25	256.39	53.40	-29.6	-32.0	15.2	0.00e+00	0	43	0	763363328	19	4761
2026-01-28 00:58:55.27	254.78	52.68	-30.3	-33.3	14.0	1.50e-06	0	43	0	768606208	20	5091
2026-01-28 00:58:58.28	253.25	51.96	-30.0	-32.6	14.5	5.85e-04	0	43	0	774897664	20	4838
2026-01-28 00:59:01.28	251.80	51.23	-30.5	-33.5	13.6	1.75e-03	0	43	0	780140544	21	5072
2026-01-28 00:59:04.28	250.42	50.49	-30.9	-34.7	12.7	4.59e-04	0	43	0	785383424	21	5556
2026-01-28 00:59:07.29	249.11	49.75	-31.8	-36.2	11.0	3.63e-03	0	43	0	791674880	23	6015
2026-01-28 00:59:10.31	247.85	49.00	-31.2	-34.8	12.3	2.12e-04	0	43	0	796917760	22	5487
2026-01-28 00:59:13.32	246.65	48.25	-31.5	-35.5	11.4	6.45e-04	0	43	0	803209216	23	5692
2026-01-28 00:59:16.33	245.51	47.50	-31.8	-36.4	10.7	3.76e-03	0	43	0	808452096	23	6131
2026-01-28 00:59:19.34	244.43	46.75	-31.4	-34.9	11.8	7.48e-04	0	43	0	813694976	23	5444
2026-01-28 00:59:22.34	243.40	46.01	-31.1	-34.7	12.3	3.67e-04	0	43	0	819986432	22	5448
2026-01-28 00:59:25.35	242.41	45.27	-31.0	-34.5	12.4	2.37e-03	0	43	0	825229312	22	5384
2026-01-28 00:59:28.37	241.47	44.53	-31.0	-34.5	12.4	1.67e-04	0	43	0	831520768	22	5365
2026-01-28 00:59:31.37	240.58	43.80	-31.1	-34.6	12.4	1.62e-04	0	43	0	836763648	22	5420
2026-01-28 00:59:34.37	239.72	43.07	-31.0	-34.9	12.4	1.11e-04	0	43	0	842006528	21	5657
2026-01-28 00:59:37.37	238.90	42.36	-31.0	-34.5	12.4	1.45e-04	0	43	0	848297984	22	5389
2026-01-28 00:59:40.39	238.12	41.64	-31.4	-35.8	11.5	8.52e-04	0	43	0	853540864	22	5952
2026-01-28 00:59:43.40	237.37	40.94	-31.7	-36.2	10.2	2.26e-03	0	43	0	858783744	23	6024
2026-01-28 00:59:46.42	236.65	40.24	-31.6	-35.9	11.0	2.08e-03	0	43	0	865075200	23	5893
2026-01-28 00:59:49.43	235.96	39.55	-31.9	-36.9	10.3	8.14e-03	0	43	0	870318080	23	6410
2026-01-28 00:59:52.44	235.30	38.87	-31.7	-36.1	10.9	3.43e-03	0	43	0	876609536	23	5973
2026-01-28 00:59:55.45	234.67	38.21	-31.8	-36.6	10.5	4.71e-03	0	43	0	881852416	23	6221
2026-01-28 00:59:58.46	234.07	37.54	-31.1	-34.9	12.0	3.18e-04	0	43	0	887095296	22	5562
2026-01-28 01:00:01.47	233.48	36.89	-31.2	-35.2	11.8	2.84e-04	0	43	0	893386752	22	5702
2026-01-28 01:00:04.49	232.92	36.25	-31.2	-35.3	11.7	2.17e-03	0	43	0	898629632	22	5736
2026-01-28 01:00:07.50	232.39	35.62	-31.2	-35.2	11.8	2.65e-03	0	43	0	904921088	22	5691
2026-01-28 01:00:10.51	231.87	35.00	-31.3	-35.5	11.5	2.95e-03	0	43	0	910163968	22	5877
2026-01-28 01:00:13.53	231.37	34.38	-31.1	-35.0	12.0	2.29e-03	0	43	0	915406848	22	5615
2026-01-28 01:00:16.54	230.89	33.78	-31.4	-36.0	11.1	3.33e-03	0	43	0	921698304	22	6107
2026-01-28 01:00:19.55	230.43	33.18	-31.7	-36.5	10.4	6.57e-03	0	43	0	926941184	23	6223
2026-01-28 01:00:22.55	229.99	32.60	-31.4	-35.8	11.2	3.71e-03	0	43	0	932184064	22	6020
2026-01-28 01:00:25.56	229.56	32.03	-31.0	-34.6	12.1	2.50e-03	0	43	0	938475520	22	5452
2026-01-28 01:00:28.56	229.15	31.46	-31.0	-34.8	11.9	2.43e-03	0	43	0	943718400	22	5548
2026-01-28 01:00:31.57	228.75	30.90	-31.2	-35.2	11.7	2.60e-03	0	43	0	950009856	22	5743
2026-01-28 01:00:34.59	228.36	30.35	-31.2	-35.4	11.5	2.94e-03	0	43	0	955252736	22	5811
2026-01-28 01:00:37.59	227.99	29.82	-31.8	-36.6	10.2	6.11e-03	0	43	0	960495616	23	6313
2026-01-28 01:00:40.60	227.63	29.28	-31.6	-36.1	10.7	3.66e-03	0	43	0	966787072	23	6035
2026-01-28 01:00:43.61	227.28	28.76	-31.5	-36.2	10.9	2.11e-03	0	43	0	972029952	22	6179
2026-01-28 01:00:46.62	226.94	28.25	-31.3	-35.3	11.2	4.63e-03	0	43	0	977272832	23	5668
2026-01-28 01:00:49.63	226.62	27.74	-30.8	-34.6	12.3	2.35e-03	0	43	0	983564288	21	5593
2026-01-28 01:00:52.63	226.30	27.25	-30.6	-34.0	12.7	2.27e-03	0	43	0	988807168	21	5340
2026-01-28 01:00:55.64	225.99	26.76	-30.6	-34.1	12.6	6.86e-05	0	43	0	995098624	21	5373
2026-01-28 01:00:58.64	225.70	26.28	-30.6	-34.2	12.5	1.15e-04	0	43	0	1000341504	21	5452
2026-01-28 01:01:01.65	225.41	25.80	-30.7	-34.4	12.4	9.00e-05	0	43	0	1005584384	21	5516
2026-01-28 01:01:04.66	225.13	25.34	-30.3	-33.9	13.1	3.73e-05	0	43	0	1011875840	20	5423
2026-01-28 01:01:07.66	224.86	24.88	-30.3	-33.9	13.1	2.97e-05	0	43	0	1017118720	20	5427
2026-01-28 01:01:10.68	224.60	24.42	-30.3	-33.8	13.1	3.72e-04	0	43	0	1022361600	20	5394
2026-01-28 01:01:13.69	224.34	23.98	-30.5	-33.9	12.6	6.71e-05	0	43	0	1028653056	21	5336
2026-01-28 01:01:16.68	224.10	23.54	-30.5	-33.9	12.7	1.23e-04	0	43	0	1033895936	21	5331
2026-01-28 01:01:19.69	223.86	23.11	-30.3	-33.9	13.0	3.28e-05	0	43	0	1040187392	20	5426
2026-01-28 01:01:22.70	223.62	22.69	-30.1	-33.3	13.4	1.60e-05	0	43	0	1045430272	20	5211
2026-01-28 01:01:25.71	223.39	22.27	-30.1	-33.4	13.3	1.60e-05	0	43	0	1050673152	20	5253
2026-01-28 01:01:28.72	223.17	21.86	-30.0	-33.1	13.3	1.44e-05	0	43	0	1056964608	20	5133
2026-01-28 01:01:31.73	222.96	21.45	-30.2	-33.4	13.0	1.83e-05	0	43	0	1062207488	20	5258
2026-01-28 01:01:34.74	222.75	21.05	-30.3	-34.0	12.9	4.35e-04	0	43	0	1067450368	20	5479
2026-01-28 01:01:37.75	222.54	20.65	-30.1	-33.4	13.2	5.98e-04	0	43	0	1073741824	20	5232
2026-01-28 01:01:40.76	222.34	20.27	-30.1	-33.4	13.2	3.43e-05	0	43	0	1078984704	20	5252
2026-01-28 01:01:43.77	222.15	19.88	-30.0	-32.9	13.5	9.10e-06	0	43	0	1085276160	20	5065
2026-01-28 01:01:46.78	221.96	19.50	-30.0	-33.4	13.6	8.30e-06	0	43	0	1090519040	19	5342
2026-01-28 01:01:49.79	221.78	19.13	-29.8	-33.1	13.8	8.30e-06	0	43	0	1095761920	19	5219
2026-01-28 01:01:52.80	221.60	18.77	-30.0	-33.0	13.4	2.24e-04	0	43	0	1102053376	20	5107
2026-01-28 01:01:55.81	221.42	18.40	-30.1	-33.4	13.1	3.66e-04	0	43	0	1107296256	20	5267
2026-01-28 01:01:58.81	221.25	18.05	-30.3	-34.0	12.7	4.14e-04	0	43	0	1113587712	20	5493
2026-01-28 01:02:01.82	221.09	17.69	-30.2	-33.7	12.9	4.01e-04	0	43	0	1118830592	20	5394
2026-01-28 01:02:04.82	220.92	17.35	-30.1	-33.3	13.1	2.74e-05	0	43	0	1124073472	20	5219
2026-01-28 01:02:07.83	220.76	17.01	-30.1	-33.4	13.0	2.53e-04	0	43	0	1130364928	20	5279
2026-01-28 01:02:10.84	220.61	16.67	-30.2	-33.7	12.8	2.68e-04	0	43	0	1135607808	20	5407
2026-01-28 01:02:13.85	220.46	16.33	-30.3	-34.0	12.6	4.91e-04	0	43	0	1140850688	20	5498
2026-01-28 01:02:16.87	220.31	16.00	-30.3	-34.0	12.6	5.07e-04	0	43	0	1147142144	20	5510
2026-01-28 01:02:19.88	220.16	15.68	-30.3	-34.2	12.4	5.79e-04	0	43	0	1152385024	20	5603
2026-01-28 01:02:22.89	220.02	15.35	-30.3	-34.2	12.4	5.98e-04	0	43	0	1158676480	20	5599
2026-01-28 01:02:25.90	219.89	15.04	-30.3	-34.1	12.4	3.94e-04	0	43	0	1163919360	20	5583
2026-01-28 01:02:28.90	219.75	14.72	-30.3	-34.2	12.3	3.97e-04	0	43	0	1169162240	20	5628
2026-01-28 01:02:31.91	219.62	14.41	-30.2	-33.9	12.5	4.04e-04	0	43	0	1175453696	20	5491
2026-01-28 01:02:34.92	219.49	14.11	-30.4	-34.3	12.2	3.95e-04	0	43	0	1180696576	20	5639
2026-01-28 01:02:37.93	219.36	13.81	-30.4	-34.3	12.2	4.28e-04	0	43	0	1185939456	20	5669
2026-01-28 01:02:40.93	219.24	13.51	-30.3	-34.3	12.2	3.73e-04	0	43	0	1192230912	20	5666
2026-01-28 01:02:43.94	219.12	13.21	-30.3	-34.1	12.3	3.14e-04	0	43	0	1197473792	20	5589
2026-01-28 01:02:46.95	219.00	12.92	-30.4	-34.4	12.1	4.18e-04	0	43	0	1203765248	20	5697
2026-01-28 01:02:49.96	218.88	12.63	-30.4	-34.4	12.0	3.13e-04	0	43	0	1209008128	20	5741
2026-01-28 01:02:52.98	218.77	12.35	-30.5	-34.7	11.8	4.16e-04	0	43	0	1214251008	20	5870
2026-01-28 01:02:55.99	218.66	12.06	-30.7	-34.9	11.3	1.65e-03	0	43	0	1220542464	21	5851
2026-01-28 01:02:59.01	218.55	11.78	-30.7	-35.0	11.2	1.26e-03	0	43	0	1225785344	21	5886
2026-01-28 01:03:02.01	218.44	11.51	-30.6	-34.8	11.2	1.24e-03	0	43	0	1232076800	21	5827
2026-01-28 01:03:05.02	218.34	11.24	-30.7	-35.0	11.1	1.43e-03	0	43	0	1237319680	21	5909
2026-01-28 01:03:08.03	218.23	10.97	-30.5	-34.4	11.5	6.95e-04	0	43	0	1242562560	21	5625
2026-01-28 01:03:11.03	218.13	10.70	-30.5	-34.5	11.4	1.02e-03	0	43	0	1248854016	21	5713
2026-01-28 01:03:14.05	218.03	10.43	-30.6	-34.7	11.3	1.16e-03	0	43	0	1254096896	21	5759
2026-01-28 01:03:17.07	217.94	10.17	-30.6	-34.8	11.1	1.53e-03	0	43	0	1260388352	21	5854
2026-01-28 01:03:20.07	217.84	9.91	-30.7	-35.0	11.0	2.24e-03	0	43	0	1265631232	21	5947
2026-01-28 01:03:23.08	217.75	9.66	-30.8	-35.4	10.6	3.44e-03	0	43	0	1270874112	21	6157
2026-01-28 01:03:26.09	217.66	9.40	-30.8	-35.4	10.6	3.33e-03	0	43	0	1277165568	21	6161
2026-01-28 01:03:29.09	217.57	9.15	-30.8	-35.7	10.4	4.57e-03	0	43	0	1282408448	21	6283
2026-01-28 01:03:32.10	217.48	8.90	-31.0	-36.1	10.0	6.39e-03	0	43	0	1287651328	21	6513
2026-01-28 01:03:35.11	217.39	8.66	-31.0	-35.9	9.8	8.80e-03	0	43	0	1293942784	22	6323
2026-01-28 01:03:38.12	217.31	8.41	-31.1	-36.3	9.4	1.29e-02	0	43	0	1299185664	22	6539
2026-01-28 01:03:41.12	217.23	8.17	-31.2	-36.5	9.3	2.03e-02	0	43	0	1305477120	22	6670
2026-01-28 01:03:44.13	217.14	7.93	-31.2	-36.7	9.1	2.25e-02	0	43	0	1310720000	22	6786
2026-01-28 01:03:47.13	217.06	7.70	-31.1	-36.2	9.4	1.95e-02	0	43	0	1315962880	22	6516
2026-01-28 01:03:50.14	216.98	7.46	-31.2	-36.7	9.0	3.70e-02	0	43	0	1322254336	22	6787
2026-01-28 01:03:53.15	216.91	7.23	-31.2	-36.7	9.0	2.96e-02	0	43	0	1327497216	22	6795
2026-01-28 01:03:56.18	216.83	6.99	-33.0	-47.5	3.8	1.45e+00	0	43	104	1331691520	25	19168

#Closed at: 2026-01-28 01:03:58
#Recorded file [1331 MB]: D:/data/31010_260128_035204.dat