passes_logs/2026/01/28/R2M6_AANII_01/R2M6_AANII_01__20260128_044916_FENGYUN_3D_rec.log

#Pass ID: 20260128_044916_FENGYUN 3D
#Satellite: FENGYUN 3D
#Configuration: FENGYUN 3D
#almurnet v.1.7.20240730
#Start time: 2026-01-28 04:49:16

#Version: 2.2.20231116
#Station: R2M6_AANII_01
#Location: 30.233357 lon 59.946436 lat
#TLE: 1 43010U 17072A   26027.47796828  .00000374  00000+0  19850-3 0  9992
#TLE: 2 43010  98.9960 359.4888 0002523  87.5419 272.6045 14.19701595425023

#Time	Az	El	Level	Level2	SNR	BER	BlckErr	Temp	State	Recorded	gain1	gain2
2026-01-28 04:49:16.78	9.70	7.02	-31.7	-36.9	4.7	8.15e-01	0	41	0	0	23	6556
2026-01-28 04:49:19.77	9.38	7.20	-30.6	-34.2	8.9	3.43e-02	0	41	0	5242880	21	5439
2026-01-28 04:49:22.79	9.05	7.37	-30.6	-34.3	8.8	3.54e-02	0	41	0	22020096	21	5511
2026-01-28 04:49:25.79	8.72	7.55	-30.1	-32.9	9.8	1.47e-02	0	41	0	38797312	21	4924
2026-01-28 04:49:28.81	8.38	7.72	-28.7	-30.6	12.4	2.87e-04	0	41	0	55574528	18	4468
2026-01-28 04:49:31.81	8.04	7.89	-28.4	-30.8	12.9	2.10e-04	0	41	0	73400320	16	4741
2026-01-28 04:49:34.82	7.69	8.07	-28.2	-30.4	13.2	4.11e-05	0	41	0	90177536	16	4631
2026-01-28 04:49:37.83	7.34	8.24	-28.1	-30.1	13.4	2.86e-05	0	41	0	106954752	16	4532
2026-01-28 04:49:40.85	6.99	8.42	-27.7	-29.2	13.9	1.48e-05	0	41	0	123731968	16	4276
2026-01-28 04:49:43.86	6.63	8.60	-27.4	-29.6	14.2	5.70e-06	0	41	0	140509184	14	4600
2026-01-28 04:49:46.86	6.27	8.77	-27.5	-29.1	14.1	3.40e-06	0	41	0	157286400	15	4364
2026-01-28 04:49:49.88	5.90	8.95	-27.3	-29.3	14.3	1.10e-06	0	41	0	174063616	14	4517
2026-01-28 04:49:52.89	5.53	9.12	-27.4	-29.0	14.3	2.20e-06	0	42	0	191889408	15	4318
2026-01-28 04:49:55.91	5.15	9.30	-27.5	-29.2	14.1	1.10e-06	0	41	0	208666624	15	4388
2026-01-28 04:49:58.91	4.77	9.48	-27.2	-29.0	14.6	1.10e-06	0	42	0	225443840	14	4432
2026-01-28 04:50:01.92	4.39	9.65	-27.3	-29.4	14.4	0.00e+00	0	42	0	242221056	14	4543
2026-01-28 04:50:04.93	4.00	9.83	-27.4	-28.9	14.3	1.10e-06	0	42	0	258998272	15	4306
2026-01-28 04:50:07.93	3.60	10.00	-27.3	-29.1	14.5	0.00e+00	0	42	0	275775488	14	4477
2026-01-28 04:50:10.95	3.20	10.18	-27.2	-29.0	14.6	2.20e-06	0	42	0	293601280	14	4422
2026-01-28 04:50:13.96	2.80	10.35	-26.9	-28.7	15.1	0.00e+00	0	42	0	310378496	13	4470
2026-01-28 04:50:16.97	2.38	10.53	-26.8	-28.7	15.1	0.00e+00	0	42	0	327155712	13	4450
2026-01-28 04:50:19.98	1.97	10.70	-26.8	-28.6	15.2	0.00e+00	0	42	0	343932928	13	4420
2026-01-28 04:50:22.99	1.55	10.88	-26.2	-28.0	14.6	1.10e-06	0	42	0	360710144	13	4431
2026-01-28 04:50:26.00	1.12	11.05	-26.9	-28.9	13.9	1.10e-06	0	42	0	377487360	13	4526
2026-01-28 04:50:29.01	0.69	11.23	-27.1	-28.7	14.9	1.53e-03	0	42	0	394264576	14	4346
2026-01-28 04:50:32.01	0.26	11.40	-26.9	-28.8	15.0	0.00e+00	0	42	0	411041792	13	4500
2026-01-28 04:50:35.02	359.82	11.58	-26.8	-28.7	15.1	1.10e-06	0	42	0	428867584	13	4458
2026-01-28 04:50:38.02	359.37	11.75	-26.8	-28.6	15.2	0.00e+00	0	42	0	445644800	13	4437
2026-01-28 04:50:41.02	358.92	11.92	-26.8	-28.6	15.2	1.42e-03	0	42	0	462422016	13	4430
2026-01-28 04:50:44.03	358.46	12.09	-26.7	-28.5	15.3	0.00e+00	0	42	0	479199232	13	4396
2026-01-28 04:50:47.04	358.00	12.26	-26.6	-28.2	15.5	1.42e-03	0	42	0	495976448	13	4309
2026-01-28 04:50:50.04	357.53	12.43	-26.4	-28.2	15.7	1.25e-03	0	42	0	512753664	12	4430
2026-01-28 04:50:53.04	357.06	12.60	-26.5	-28.0	15.6	1.34e-03	0	42	0	529530880	13	4255
2026-01-28 04:50:56.04	356.58	12.77	-26.4	-27.8	15.7	0.00e+00	0	42	0	546308096	13	4197
2026-01-28 04:50:59.05	356.09	12.94	-26.3	-28.0	15.9	1.05e-03	0	43	0	564133888	12	4375
2026-01-28 04:51:02.08	355.60	13.11	-26.7	-28.4	15.4	9.74e-04	0	42	0	580911104	13	4366
2026-01-28 04:51:05.08	355.10	13.28	-26.2	-27.7	16.1	0.00e+00	0	42	0	597688320	12	4283
2026-01-28 04:51:08.09	354.60	13.44	-26.4	-28.1	15.8	6.37e-04	0	43	0	614465536	12	4404
2026-01-28 04:51:11.10	354.09	13.61	-26.5	-28.0	15.6	8.73e-04	0	42	0	631242752	13	4269
2026-01-28 04:51:14.12	353.58	13.77	-26.3	-28.0	15.9	8.49e-04	0	42	0	648019968	12	4369
2026-01-28 04:51:17.13	353.06	13.93	-26.1	-27.5	16.2	0.00e+00	0	43	0	665845760	12	4231
2026-01-28 04:51:20.14	352.53	14.09	-26.0	-27.2	16.4	0.00e+00	0	43	0	682622976	12	4154
2026-01-28 04:51:23.14	352.00	14.25	-26.0	-27.7	16.5	3.27e-04	0	43	0	699400192	11	4399
2026-01-28 04:51:26.15	351.46	14.41	-26.0	-27.3	16.3	0.00e+00	0	42	0	716177408	12	4183
2026-01-28 04:51:29.16	350.92	14.57	-25.9	-27.1	16.4	0.00e+00	0	43	0	732954624	12	4120
2026-01-28 04:51:32.18	350.37	14.72	-26.0	-27.3	16.3	0.00e+00	0	43	0	749731840	12	4184
2026-01-28 04:51:35.20	349.81	14.87	-25.9	-27.1	16.5	0.00e+00	0	42	0	766509056	12	4128
2026-01-28 04:51:38.22	349.25	15.03	-26.0	-27.2	16.4	0.00e+00	0	43	0	784334848	12	4159
2026-01-28 04:51:41.23	348.68	15.17	-26.3	-28.0	16.0	0.00e+00	0	43	0	801112064	12	4370
2026-01-28 04:51:44.24	348.11	15.32	-25.9	-27.1	16.5	0.00e+00	0	43	0	817889280	12	4139
2026-01-28 04:51:47.25	347.53	15.47	-25.7	-27.2	16.8	0.00e+00	0	43	0	834666496	11	4257
2026-01-28 04:51:50.26	346.95	15.61	-25.6	-27.0	16.9	0.00e+00	0	43	0	851443712	11	4203
2026-01-28 04:51:53.27	346.36	15.75	-25.7	-27.1	16.8	0.00e+00	0	43	0	868220928	11	4247
2026-01-28 04:51:56.27	345.77	15.89	-25.8	-27.4	16.7	0.00e+00	0	43	0	884998144	11	4308
2026-01-28 04:51:59.28	345.17	16.03	-25.7	-27.1	16.8	0.00e+00	0	43	0	902823936	11	4242
2026-01-28 04:52:02.28	344.56	16.16	-25.5	-26.8	17.0	0.00e+00	0	43	0	919601152	11	4147
2026-01-28 04:52:05.29	343.95	16.29	-25.5	-26.6	17.1	0.00e+00	0	43	0	936378368	11	4119
2026-01-28 04:52:08.31	343.33	16.42	-25.6	-26.9	16.9	0.00e+00	0	43	0	953155584	11	4196
2026-01-28 04:52:11.31	342.71	16.55	-24.2	-25.4	14.4	0.00e+00	0	43	0	969932800	10	4145
2026-01-28 04:52:14.33	342.08	16.67	-25.4	-26.9	17.2	0.00e+00	0	43	0	986710016	10	4304
2026-01-28 04:52:17.34	341.45	16.79	-25.2	-26.5	17.4	1.27e-03	0	43	0	1004535808	10	4186
2026-01-28 04:52:20.35	340.81	16.91	-25.3	-26.7	17.3	1.39e-03	0	43	0	1021313024	10	4242
2026-01-28 04:52:23.36	340.17	17.02	-25.3	-26.8	17.3	0.00e+00	0	43	0	1038090240	10	4259
2026-01-28 04:52:26.37	339.52	17.13	-25.3	-26.8	17.3	0.00e+00	0	43	0	1054867456	10	4263
2026-01-28 04:52:29.39	338.86	17.24	-25.0	-26.2	17.6	1.45e-03	0	43	0	1071644672	10	4102
2026-01-28 04:52:32.41	338.21	17.34	-24.9	-26.5	17.6	1.44e-03	0	43	0	1088421888	9	4306
2026-01-28 04:52:35.43	337.54	17.44	-24.8	-26.2	17.8	1.29e-03	0	43	0	1105199104	9	4236
2026-01-28 04:52:38.44	336.87	17.54	-25.0	-26.0	17.7	1.36e-03	0	43	0	1123024896	10	4075
2026-01-28 04:52:41.46	336.20	17.64	-24.9	-26.5	17.7	1.30e-03	0	43	0	1139802112	9	4310
2026-01-28 04:52:44.47	335.53	17.72	-24.9	-26.0	17.7	0.00e+00	0	43	0	1156579328	10	4067
2026-01-28 04:52:47.48	334.85	17.81	-25.2	-26.5	17.4	1.29e-03	0	43	0	1173356544	10	4196
2026-01-28 04:52:50.49	334.17	17.89	-25.1	-26.4	17.5	1.29e-03	0	43	0	1190133760	10	4178
2026-01-28 04:52:53.50	333.48	17.97	-25.2	-26.6	17.3	0.00e+00	0	43	0	1207959552	10	4222
2026-01-28 04:52:56.52	332.79	18.04	-24.8	-25.8	17.8	0.00e+00	0	43	0	1224736768	10	4004
2026-01-28 04:52:59.52	332.10	18.11	-24.8	-26.2	17.8	1.21e-03	0	43	0	1241513984	9	4222
2026-01-28 04:53:02.54	331.40	18.18	-24.7	-26.0	17.9	0.00e+00	0	43	0	1258291200	9	4179
2026-01-28 04:53:05.54	330.70	18.24	-24.6	-25.7	18.1	0.00e+00	0	43	0	1275068416	9	4102
2026-01-28 04:53:08.56	330.00	18.30	-24.5	-25.7	18.1	0.00e+00	0	43	0	1291845632	9	4094
2026-01-28 04:53:11.57	329.29	18.35	-24.4	-25.4	18.2	0.00e+00	0	43	0	1308622848	9	4026
2026-01-28 04:53:14.57	328.59	18.40	-24.6	-25.7	18.1	0.00e+00	0	43	0	1325400064	9	4096
2026-01-28 04:53:17.58	327.88	18.44	-24.6	-25.8	18.1	0.00e+00	0	43	0	1343225856	9	4127
2026-01-28 04:53:20.59	327.17	18.48	-24.4	-25.4	18.2	0.00e+00	0	43	0	1360003072	9	4027
2026-01-28 04:53:23.61	326.45	18.52	-24.5	-25.7	18.1	0.00e+00	0	43	0	1376780288	9	4096
2026-01-28 04:53:26.61	325.74	18.55	-24.4	-25.4	18.3	0.00e+00	0	43	0	1393557504	9	4021
2026-01-28 04:53:29.62	325.02	18.58	-24.5	-25.6	18.1	0.00e+00	0	43	0	1410334720	9	4083
2026-01-28 04:53:32.63	324.30	18.60	-24.5	-25.5	18.2	0.00e+00	0	43	0	1428160512	9	4057
2026-01-28 04:53:35.65	323.58	18.61	-24.4	-25.4	18.2	0.00e+00	0	43	0	1444937728	9	4035
2026-01-28 04:53:38.66	322.86	18.63	-24.3	-25.1	18.4	0.00e+00	0	43	0	1461714944	9	3948
2026-01-28 04:53:41.66	322.15	18.63	-24.2	-25.4	18.5	0.00e+00	0	43	0	1478492160	8	4137
2026-01-28 04:53:44.67	321.43	18.64	-24.2	-25.5	18.4	0.00e+00	0	43	0	1495269376	8	4166
2026-01-28 04:53:47.68	320.71	18.63	-24.4	-25.8	18.3	0.00e+00	0	43	0	1512046592	8	4232
2026-01-28 04:53:50.68	319.99	18.63	-24.7	-26.0	17.9	0.00e+00	0	43	0	1528823808	9	4187
2026-01-28 04:53:53.69	319.27	18.61	-24.6	-25.8	18.0	0.00e+00	0	43	0	1545601024	9	4121
2026-01-28 04:53:56.71	318.55	18.60	-24.7	-25.9	17.9	2.39e-04	0	43	0	1563426816	9	4169
2026-01-28 04:53:59.72	317.83	18.58	-24.6	-25.8	18.0	0.00e+00	0	43	0	1580204032	9	4119
2026-01-28 04:54:02.72	317.12	18.55	-24.4	-25.3	18.2	0.00e+00	0	43	0	1596981248	9	4018
2026-01-28 04:54:05.73	316.40	18.52	-24.2	-25.4	18.4	2.41e-04	0	43	0	1613758464	8	4146
2026-01-28 04:54:08.74	315.69	18.49	-24.4	-25.8	18.3	1.85e-04	0	43	0	1630535680	8	4241
2026-01-28 04:54:11.75	314.98	18.45	-24.1	-25.3	18.5	2.48e-04	0	43	0	1647312896	8	4111
2026-01-28 04:54:14.77	314.27	18.41	-24.2	-25.4	18.4	1.89e-04	0	43	0	1664090112	8	4140
2026-01-28 04:54:17.80	313.55	18.36	-24.3	-25.7	18.3	1.20e-04	0	43	0	1681915904	8	4220
2026-01-28 04:54:20.80	312.85	18.30	-24.4	-25.5	18.2	1.42e-04	0	43	0	1698693120	9	4042
2026-01-28 04:54:23.81	312.15	18.25	-24.4	-25.4	18.2	0.00e+00	0	43	0	1715470336	9	4031
2026-01-28 04:54:26.81	311.45	18.19	-24.5	-25.5	18.1	1.14e-05	0	43	0	1732247552	9	4057
2026-01-28 04:54:29.82	310.75	18.12	-24.5	-25.7	18.0	2.86e-05	0	43	0	1749024768	9	4096
2026-01-28 04:54:32.82	310.06	18.05	-24.8	-26.1	17.8	0.00e+00	0	43	0	1765801984	9	4220
2026-01-28 04:54:35.84	309.36	17.98	-24.6	-25.9	17.9	0.00e+00	0	43	0	1783627776	9	4150
2026-01-28 04:54:38.86	308.67	17.90	-24.7	-26.0	17.8	0.00e+00	0	43	0	1800404992	9	4189
2026-01-28 04:54:41.88	307.99	17.82	-24.7	-26.0	17.8	0.00e+00	0	43	0	1817182208	9	4192
2026-01-28 04:54:44.89	307.31	17.73	-25.0	-26.6	17.5	0.00e+00	0	43	0	1833959424	9	4331
2026-01-28 04:54:47.90	306.63	17.64	-25.1	-26.4	17.4	0.00e+00	0	43	0	1850736640	10	4175
2026-01-28 04:54:50.91	305.96	17.55	-24.7	-25.5	17.8	0.00e+00	0	43	0	1867513856	10	3940
2026-01-28 04:54:53.92	305.29	17.45	-24.6	-25.8	17.9	0.00e+00	0	43	0	1884291072	9	4123
2026-01-28 04:54:56.93	304.63	17.35	-24.5	-25.7	18.0	0.00e+00	0	43	0	1902116864	9	4094
2026-01-28 04:54:59.94	303.97	17.25	-24.6	-25.9	17.9	0.00e+00	0	43	0	1918894080	9	4147
2026-01-28 04:55:02.95	303.31	17.14	-24.7	-26.0	17.8	0.00e+00	0	43	0	1935671296	9	4178
2026-01-28 04:55:05.97	302.66	17.03	-24.7	-26.1	17.7	0.00e+00	0	43	0	1952448512	9	4200
2026-01-28 04:55:08.99	302.01	16.92	-24.7	-26.1	17.7	0.00e+00	0	43	0	1969225728	9	4200
2026-01-28 04:55:11.99	301.38	16.80	-24.8	-26.3	17.6	0.00e+00	0	43	0	1986002944	9	4260
2026-01-28 04:55:15.02	300.74	16.68	-24.8	-26.2	17.6	0.00e+00	0	43	0	2003828736	9	4241
2026-01-28 04:55:18.02	300.11	16.56	-25.0	-26.2	17.4	0.00e+00	0	43	0	2020605952	10	4122
2026-01-28 04:55:21.03	299.49	16.43	-25.0	-26.1	17.4	0.00e+00	0	43	0	2037383168	10	4110
2026-01-28 04:55:24.03	298.87	16.30	-25.0	-26.1	17.3	0.00e+00	0	43	0	2054160384	10	4088
2026-01-28 04:55:27.04	298.25	16.17	-25.3	-26.8	16.4	0.00e+00	0	43	0	2070937600	10	4279
2026-01-28 04:55:30.05	297.65	16.04	-25.4	-27.0	16.9	0.00e+00	0	43	0	2087714816	10	4330
2026-01-28 04:55:33.06	297.04	15.90	-25.2	-26.5	17.1	0.00e+00	0	43	0	2104492032	10	4212
2026-01-28 04:55:36.08	296.44	15.76	-25.1	-26.4	17.2	4.11e-05	0	43	0	2122317824	10	4173
2026-01-28 04:55:39.08	295.85	15.62	-25.1	-26.3	17.2	0.00e+00	0	43	0	2139095040	10	4147
2026-01-28 04:55:42.09	295.27	15.48	-25.1	-26.4	17.2	1.14e-03	0	43	0	2155872256	10	4167
2026-01-28 04:55:45.11	294.68	15.33	-25.2	-26.6	17.1	1.16e-03	0	43	0	2172649472	10	4230
2026-01-28 04:55:48.13	294.11	15.18	-25.4	-26.4	16.9	1.56e-03	0	43	0	2189426688	11	4078
2026-01-28 04:55:51.13	293.54	15.04	-25.1	-26.4	17.1	1.54e-03	0	43	0	2207252480	10	4176
2026-01-28 04:55:54.14	292.98	14.88	-25.3	-26.8	16.9	1.25e-03	0	43	0	2224029696	10	4277
2026-01-28 04:55:57.15	292.42	14.73	-25.4	-27.0	16.8	1.14e-03	0	43	0	2240806912	10	4349
2026-01-28 04:56:00.16	291.87	14.58	-25.4	-27.0	16.8	0.00e+00	0	43	0	2257584128	10	4344
2026-01-28 04:56:03.17	291.32	14.42	-25.5	-26.8	16.7	1.22e-03	0	43	0	2274361344	11	4157
2026-01-28 04:56:06.18	290.78	14.26	-25.6	-26.9	16.5	1.30e-03	0	43	0	2291138560	11	4187
2026-01-28 04:56:09.19	290.25	14.10	-25.6	-27.1	16.5	0.00e+00	0	43	0	2307915776	11	4244
2026-01-28 04:56:12.20	289.72	13.94	-25.7	-27.2	16.3	0.00e+00	0	43	0	2324692992	11	4293
2026-01-28 04:56:15.20	289.20	13.78	-25.6	-26.9	16.5	1.46e-03	0	43	0	2342518784	11	4199
2026-01-28 04:56:18.21	288.68	13.62	-25.6	-27.1	16.4	1.41e-03	0	43	0	2359296000	11	4244
2026-01-28 04:56:21.22	288.17	13.45	-25.5	-26.8	16.6	0.00e+00	0	43	0	2376073216	11	4161
2026-01-28 04:56:24.23	287.66	13.29	-25.8	-27.3	16.2	0.00e+00	0	43	0	2392850432	11	4311
2026-01-28 04:56:27.23	287.17	13.12	-25.9	-27.3	15.9	0.00e+00	0	43	0	2409627648	12	4199
2026-01-28 04:56:30.24	286.67	12.95	-26.0	-27.3	15.9	0.00e+00	0	43	0	2426404864	12	4190
2026-01-28 04:56:33.26	286.18	12.78	-25.7	-27.2	16.3	0.00e+00	0	43	0	2443182080	11	4271
2026-01-28 04:56:36.28	285.70	12.61	-26.2	-27.8	15.6	0.00e+00	0	43	0	2461007872	12	4336
2026-01-28 04:56:39.29	285.22	12.44	-26.1	-27.7	15.6	0.00e+00	0	43	0	2477785088	12	4296
2026-01-28 04:56:42.30	284.75	12.27	-26.3	-28.1	15.4	0.00e+00	0	43	0	2494562304	12	4405
2026-01-28 04:56:45.31	284.28	12.10	-26.8	-28.7	14.7	0.00e+00	0	43	0	2511339520	13	4488
2026-01-28 04:56:48.32	283.82	11.93	-26.4	-27.9	15.2	0.00e+00	0	43	0	2528116736	13	4247
2026-01-28 04:56:51.33	283.37	11.75	-26.2	-27.9	15.5	1.10e-06	0	43	0	2544893952	12	4354
2026-01-28 04:56:54.34	282.92	11.58	-26.3	-28.1	15.3	0.00e+00	0	43	0	2562719744	12	4418
2026-01-28 04:56:57.36	282.47	11.40	-26.5	-28.4	15.2	0.00e+00	0	43	0	2579496960	12	4513
2026-01-28 04:57:00.35	282.04	11.23	-26.4	-27.8	15.2	0.00e+00	0	43	0	2596274176	13	4232
2026-01-28 04:57:03.37	281.60	11.06	-26.7	-28.5	14.8	3.40e-06	0	43	0	2613051392	13	4435
2026-01-28 04:57:06.38	281.17	10.88	-25.6	-27.5	14.3	1.10e-06	0	43	0	2629828608	12	4462
2026-01-28 04:57:09.38	280.75	10.71	-26.6	-28.3	14.7	2.20e-06	0	43	0	2646605824	13	4380
2026-01-28 04:57:12.39	280.33	10.53	-26.8	-28.7	14.6	1.92e-03	0	43	0	2663383040	13	4489
2026-01-28 04:57:15.39	279.92	10.36	-26.7	-28.4	14.8	0.00e+00	0	43	0	2680160256	13	4393
2026-01-28 04:57:18.41	279.51	10.18	-26.6	-28.3	14.8	0.00e+00	0	43	0	2697986048	13	4366
2026-01-28 04:57:21.41	279.11	10.00	-26.4	-28.4	15.0	0.00e+00	0	43	0	2714763264	12	4512
2026-01-28 04:57:24.42	278.71	9.83	-26.8	-28.7	14.6	2.15e-03	0	43	0	2731540480	13	4481
2026-01-28 04:57:27.42	278.32	9.65	-26.5	-28.0	14.9	0.00e+00	0	43	0	2748317696	13	4283
2026-01-28 04:57:30.42	277.93	9.48	-26.6	-28.2	14.8	0.00e+00	0	43	0	2765094912	13	4338
2026-01-28 04:57:33.41	277.55	9.30	-26.7	-28.5	14.6	2.32e-03	0	43	0	2781872128	13	4438
2026-01-28 04:57:36.42	277.17	9.12	-26.7	-28.6	14.5	2.35e-03	0	43	0	2798649344	13	4474
2026-01-28 04:57:39.44	276.80	8.95	-26.8	-28.6	14.5	2.40e-04	0	43	0	2815426560	13	4467
2026-01-28 04:57:42.45	276.43	8.77	-26.8	-28.7	14.4	1.98e-03	0	43	0	2833252352	13	4480
2026-01-28 04:57:45.46	276.06	8.59	-26.9	-29.0	14.2	1.78e-03	0	43	0	2850029568	13	4581
2026-01-28 04:57:48.46	275.70	8.42	-27.1	-28.9	14.0	1.53e-03	0	43	0	2866806784	14	4436
2026-01-28 04:57:51.46	275.35	8.24	-26.9	-29.0	14.2	2.20e-06	0	43	0	2883584000	13	4587
2026-01-28 04:57:54.47	274.99	8.07	-27.3	-29.4	13.7	1.79e-03	0	43	0	2900361216	14	4591
2026-01-28 04:57:57.49	274.65	7.89	-27.0	-28.8	14.0	9.19e-04	0	43	0	2917138432	14	4412
2026-01-28 04:58:00.51	274.30	7.72	-27.0	-28.8	14.0	3.40e-06	0	43	0	2933915648	14	4422
2026-01-28 04:58:03.52	273.96	7.54	-26.9	-28.6	14.1	3.40e-06	0	43	0	2950692864	14	4353
2026-01-28 04:58:06.53	273.63	7.37	-27.0	-29.1	14.0	1.63e-03	0	43	0	2968518656	13	4632
2026-01-28 04:58:09.54	273.30	7.19	-27.1	-29.1	13.7	1.02e-05	0	43	0	2985295872	14	4511
2026-01-28 04:58:12.54	272.97	7.02	-33.3	-44.7	3.8	8.47e-01	0	43	104	2995781632	26	13362

#Closed at: 2026-01-28 04:58:15
#Recorded file [2995 MB]: D:/data/31010_260128_074918.dat