passes_logs/2026/01/28/R2M6_AANII_01/R2M6_AANII_01__20260128_113541_NOAA_21_JPSS-2_rec.log

#Pass ID: 20260128_113541_NOAA 21 (JPSS-2)
#Satellite: NOAA 21 (JPSS-2)
#Configuration: NOAA 21
#almurnet v.1.7.20240730
#Start time: 2026-01-28 11:35:43

#Version: 2.2.20231116
#Station: R2M6_AANII_01
#Location: 30.233357 lon 59.946436 lat
#TLE: 1 54234U 22150A   26027.55906748  .00000170  00000+0  10132-3 0  9996
#TLE: 2 54234  98.7510 328.3076 0000860 204.4692 155.6443 14.19540154166599

#Time	Az	El	Level	Level2	SNR	BER	BlckErr	Temp	State	Recorded	gain1	gain2
2026-01-28 11:35:43.11	201.25	7.08	-29.9	-34.0	4.8	1.36e+00	0	42	0	0	20	5758
2026-01-28 11:35:46.11	201.48	7.29	-30.8	-35.0	7.9	6.36e-02	0	42	0	2097152	22	5848
2026-01-28 11:35:49.12	201.71	7.50	-30.2	-33.4	9.6	1.27e-02	0	42	0	12582912	21	5207
2026-01-28 11:35:52.12	201.95	7.71	-29.9	-32.5	10.3	6.39e-03	0	42	0	22020096	21	4869
2026-01-28 11:35:55.13	202.19	7.92	-29.6	-32.3	10.6	3.55e-03	0	42	0	30408704	20	4934
2026-01-28 11:35:58.14	202.43	8.13	-29.1	-31.7	11.1	2.03e-03	0	42	0	39845888	19	4828
2026-01-28 11:36:01.16	202.68	8.35	-28.6	-30.8	11.9	4.57e-04	0	42	0	49283072	18	4645
2026-01-28 11:36:04.17	202.93	8.56	-28.9	-31.3	11.9	3.85e-04	0	43	0	58720256	18	4787
2026-01-28 11:36:07.17	203.19	8.78	-28.6	-30.5	12.7	1.07e-04	0	42	0	68157440	18	4492
2026-01-28 11:36:10.19	203.45	9.00	-28.7	-30.6	12.9	5.56e-05	0	42	0	77594624	18	4498
2026-01-28 11:36:13.20	203.71	9.22	-28.7	-30.7	12.9	5.03e-05	0	42	0	87031808	18	4524
2026-01-28 11:36:16.21	203.98	9.44	-28.4	-30.0	13.2	2.51e-05	0	43	0	96468992	18	4324
2026-01-28 11:36:19.21	204.24	9.66	-28.4	-30.1	13.1	2.21e-05	0	43	0	105906176	18	4351
2026-01-28 11:36:22.22	204.52	9.88	-28.3	-29.7	13.3	1.22e-05	0	43	0	115343360	18	4228
2026-01-28 11:36:25.23	204.80	10.11	-28.2	-30.1	13.2	1.67e-05	0	43	0	124780544	17	4461
2026-01-28 11:36:28.23	205.08	10.33	-28.1	-29.9	13.4	1.29e-05	0	43	0	134217728	17	4414
2026-01-28 11:36:31.25	205.36	10.56	-28.1	-29.7	13.6	8.30e-06	0	43	0	143654912	17	4341
2026-01-28 11:36:34.27	205.66	10.79	-28.1	-29.8	13.6	2.44e-05	0	43	0	153092096	17	4358
2026-01-28 11:36:37.28	205.95	11.03	-28.1	-29.8	13.7	1.22e-05	0	43	0	162529280	17	4365
2026-01-28 11:36:40.29	206.25	11.26	-28.0	-29.5	13.9	1.90e-05	0	43	0	171966464	17	4267
2026-01-28 11:36:43.30	206.56	11.49	-28.1	-29.6	13.7	1.90e-05	0	43	0	181403648	17	4318
2026-01-28 11:36:46.31	206.86	11.73	-27.9	-29.3	14.0	2.36e-05	0	43	0	190840832	17	4226
2026-01-28 11:36:49.32	207.18	11.97	-28.0	-29.4	14.1	1.67e-05	0	43	0	200278016	17	4227
2026-01-28 11:36:52.34	207.50	12.21	-27.9	-29.3	14.2	1.44e-05	0	43	0	209715200	17	4199
2026-01-28 11:36:55.34	207.82	12.45	-27.9	-29.2	14.3	1.29e-05	0	43	0	219152384	17	4171
2026-01-28 11:36:58.34	208.15	12.69	-27.8	-29.0	14.4	9.90e-06	0	43	0	228589568	17	4125
2026-01-28 11:37:01.33	208.48	12.93	-27.9	-29.2	14.3	1.22e-05	0	43	0	238026752	17	4175
2026-01-28 11:37:04.32	208.82	13.18	-27.8	-29.3	14.5	1.06e-05	0	43	0	247463936	16	4313
2026-01-28 11:37:07.32	209.16	13.42	-27.6	-29.0	14.7	0.00e+00	0	43	0	256901120	16	4211
2026-01-28 11:37:10.33	209.51	13.67	-27.6	-28.9	14.8	1.22e-05	0	43	0	266338304	16	4196
2026-01-28 11:37:13.34	209.87	13.92	-27.6	-28.9	14.9	0.00e+00	0	43	0	275775488	16	4178
2026-01-28 11:37:16.34	210.23	14.17	-27.6	-28.9	14.8	0.00e+00	0	43	0	284164096	16	4191
2026-01-28 11:37:19.35	210.60	14.43	-27.6	-28.9	14.8	7.00e-07	0	43	0	293601280	16	4194
2026-01-28 11:37:22.35	210.97	14.68	-27.6	-29.0	14.8	7.00e-07	0	43	0	303038464	16	4206
2026-01-28 11:37:25.35	211.35	14.94	-27.6	-28.8	14.9	0.00e+00	0	43	0	312475648	16	4158
2026-01-28 11:37:28.35	211.74	15.19	-27.7	-29.2	14.7	0.00e+00	0	43	0	321912832	16	4262
2026-01-28 11:37:31.35	212.13	15.45	-27.7	-29.2	14.8	0.00e+00	0	43	0	331350016	16	4267
2026-01-28 11:37:34.34	212.53	15.71	-27.8	-29.4	14.6	0.00e+00	0	43	0	340787200	16	4338
2026-01-28 11:37:37.33	212.93	15.97	-27.6	-28.9	15.0	0.00e+00	0	43	0	350224384	16	4187
2026-01-28 11:37:40.34	213.34	16.24	-27.7	-29.0	14.9	7.00e-07	0	43	0	359661568	16	4221
2026-01-28 11:37:43.35	213.77	16.50	-27.6	-28.9	15.0	0.00e+00	0	43	0	369098752	16	4172
2026-01-28 11:37:46.36	214.19	16.77	-27.8	-29.3	14.7	7.00e-07	0	43	0	378535936	16	4301
2026-01-28 11:37:49.37	214.63	17.04	-27.6	-29.0	15.0	0.00e+00	0	43	0	387973120	16	4206
2026-01-28 11:37:52.38	215.07	17.31	-27.6	-29.0	15.0	7.00e-07	0	43	0	397410304	16	4202
2026-01-28 11:37:55.40	215.53	17.58	-27.9	-29.5	14.7	0.00e+00	0	43	0	406847488	16	4341
2026-01-28 11:37:58.41	215.98	17.85	-27.7	-29.1	15.0	7.00e-07	0	43	0	416284672	16	4228
2026-01-28 11:38:01.42	216.45	18.13	-27.7	-29.0	15.0	0.00e+00	0	43	0	425721856	16	4215
2026-01-28 11:38:04.40	216.92	18.40	-27.5	-28.8	15.2	0.00e+00	0	43	0	435159040	16	4136
2026-01-28 11:38:07.40	217.40	18.67	-27.6	-28.9	15.1	0.00e+00	0	43	0	444596224	16	4165
2026-01-28 11:38:10.40	217.90	18.95	-27.5	-28.6	15.3	0.00e+00	0	43	0	454033408	16	4086
2026-01-28 11:38:13.41	218.40	19.23	-27.4	-28.5	15.4	0.00e+00	0	43	0	463470592	16	4063
2026-01-28 11:38:16.43	218.91	19.51	-27.5	-28.6	15.3	0.00e+00	0	43	0	472907776	16	4085
2026-01-28 11:38:19.44	219.43	19.79	-27.0	-28.1	15.7	0.00e+00	0	43	0	482344960	15	4067
2026-01-28 11:38:22.44	219.95	20.07	-26.9	-27.8	15.9	0.00e+00	0	43	0	490733568	15	3999
2026-01-28 11:38:25.44	220.49	20.35	-27.0	-27.9	15.8	0.00e+00	0	43	0	500170752	15	4022
2026-01-28 11:38:28.44	221.04	20.63	-26.9	-27.8	15.9	0.00e+00	0	43	0	509607936	15	3999
2026-01-28 11:38:31.45	221.59	20.91	-27.0	-28.0	15.9	0.00e+00	0	43	0	519045120	15	4037
2026-01-28 11:38:34.44	222.16	21.19	-26.9	-27.9	15.9	0.00e+00	0	43	0	528482304	15	4008
2026-01-28 11:38:37.44	222.73	21.47	-26.8	-28.1	16.1	0.00e+00	0	43	0	537919488	14	4177
2026-01-28 11:38:40.43	223.32	21.76	-26.9	-28.3	15.9	0.00e+00	0	43	0	547356672	14	4231
2026-01-28 11:38:43.43	223.91	22.04	-26.9	-28.2	16.0	0.00e+00	0	44	0	556793856	14	4206
2026-01-28 11:38:46.45	224.53	22.32	-26.7	-27.9	16.2	0.00e+00	0	43	0	566231040	14	4130
2026-01-28 11:38:49.48	225.15	22.61	-27.0	-28.4	15.9	0.00e+00	0	44	0	575668224	14	4258
2026-01-28 11:38:52.49	225.78	22.89	-26.9	-28.2	16.1	0.00e+00	0	43	0	585105408	14	4205
2026-01-28 11:38:55.48	226.42	23.17	-26.6	-27.7	16.3	0.00e+00	0	43	0	594542592	14	4074
2026-01-28 11:38:58.50	227.08	23.46	-26.7	-27.8	16.3	0.00e+00	0	43	0	603979776	14	4087
2026-01-28 11:39:01.50	227.74	23.74	-26.8	-28.1	16.1	0.00e+00	0	44	0	613416960	14	4180
2026-01-28 11:39:04.50	228.41	24.02	-26.9	-28.2	16.1	0.00e+00	0	43	0	622854144	14	4200
2026-01-28 11:39:07.50	229.10	24.29	-27.1	-28.7	15.8	0.00e+00	0	44	0	632291328	14	4325
2026-01-28 11:39:10.52	229.80	24.57	-27.2	-29.0	15.7	0.00e+00	0	44	0	641728512	14	4413
2026-01-28 11:39:13.54	230.52	24.85	-27.3	-28.8	15.5	0.00e+00	0	43	0	651165696	15	4238
2026-01-28 11:39:16.54	231.24	25.12	-27.3	-28.8	15.5	0.00e+00	0	43	0	660602880	15	4239
2026-01-28 11:39:19.55	231.98	25.40	-26.9	-27.8	16.1	0.00e+00	0	44	0	670040064	15	3974
2026-01-28 11:39:22.57	232.73	25.67	-27.0	-27.9	16.0	0.00e+00	0	43	0	679477248	15	4011
2026-01-28 11:39:25.57	233.49	25.93	-27.2	-28.4	15.7	0.00e+00	0	43	0	688914432	15	4142
2026-01-28 11:39:28.58	234.27	26.20	-27.2	-28.4	15.7	0.00e+00	0	44	0	698351616	15	4143
2026-01-28 11:39:31.59	235.06	26.46	-27.2	-28.4	15.8	0.00e+00	0	44	0	707788800	15	4147
2026-01-28 11:39:34.60	235.86	26.72	-27.1	-28.2	16.0	0.00e+00	0	44	0	716177408	15	4070
2026-01-28 11:39:37.62	236.68	26.97	-27.3	-28.7	15.7	0.00e+00	0	43	0	726663168	15	4202
2026-01-28 11:39:40.62	237.50	27.23	-27.5	-29.0	15.5	0.00e+00	0	44	0	736100352	15	4282
2026-01-28 11:39:43.63	238.34	27.47	-27.3	-28.7	15.6	0.00e+00	0	44	0	744488960	15	4213
2026-01-28 11:39:46.63	239.19	27.71	-27.2	-28.3	15.9	0.00e+00	0	43	0	753926144	15	4113
2026-01-28 11:39:49.63	240.05	27.95	-26.9	-27.8	16.1	7.00e-07	0	44	0	763363328	15	3979
2026-01-28 11:39:52.63	240.92	28.18	-26.9	-27.7	16.2	0.00e+00	0	44	0	772800512	15	3940
2026-01-28 11:39:55.65	241.81	28.41	-27.0	-27.9	16.1	0.00e+00	0	44	0	782237696	15	4008
2026-01-28 11:39:58.67	242.72	28.64	-27.1	-28.1	16.0	0.00e+00	0	43	0	791674880	15	4056
2026-01-28 11:40:01.68	243.63	28.85	-26.9	-27.7	16.2	0.00e+00	0	44	0	801112064	15	3950
2026-01-28 11:40:04.69	244.56	29.06	-27.5	-29.0	15.5	0.00e+00	0	43	0	810549248	15	4285
2026-01-28 11:40:07.71	245.50	29.27	-27.5	-29.1	15.5	0.00e+00	0	44	0	819986432	15	4319
2026-01-28 11:40:10.73	246.45	29.46	-27.3	-28.7	15.7	0.00e+00	0	44	0	829423616	15	4203
2026-01-28 11:40:13.74	247.41	29.65	-27.3	-28.6	15.8	0.00e+00	0	43	0	838860800	15	4177
2026-01-28 11:40:16.74	248.38	29.83	-27.3	-28.7	15.7	0.00e+00	0	44	0	848297984	15	4207
2026-01-28 11:40:19.75	249.36	30.01	-27.3	-28.5	15.8	0.00e+00	0	44	0	857735168	15	4156
2026-01-28 11:40:22.74	250.34	30.17	-27.1	-28.2	16.0	0.00e+00	0	43	0	867172352	15	4066
2026-01-28 11:40:25.74	251.34	30.33	-27.3	-28.7	15.7	0.00e+00	0	44	0	876609536	15	4205
2026-01-28 11:40:28.76	252.36	30.48	-27.6	-29.2	15.4	0.00e+00	0	44	0	886046720	15	4358
2026-01-28 11:40:31.77	253.38	30.62	-27.7	-29.6	15.2	0.00e+00	0	44	0	895483904	15	4453
2026-01-28 11:40:34.77	254.40	30.75	-28.1	-30.0	14.9	0.00e+00	0	44	0	904921088	16	4455
2026-01-28 11:40:37.78	255.44	30.87	-28.3	-29.9	14.7	0.00e+00	0	44	0	914358272	17	4303
2026-01-28 11:40:40.79	256.48	30.98	-28.3	-29.7	14.7	0.00e+00	0	44	0	923795456	17	4271
2026-01-28 11:40:43.80	257.53	31.08	-28.3	-29.7	14.7	7.00e-07	0	44	0	933232640	17	4268
2026-01-28 11:40:46.81	258.58	31.17	-27.8	-29.2	15.3	0.00e+00	0	44	0	942669824	16	4219
2026-01-28 11:40:49.81	259.64	31.25	-28.0	-29.6	15.1	0.00e+00	0	44	0	952107008	16	4352
2026-01-28 11:40:52.81	260.70	31.32	-27.9	-29.3	15.3	0.00e+00	0	44	0	961544192	16	4258
2026-01-28 11:40:55.82	261.77	31.38	-28.0	-29.7	15.1	0.00e+00	0	44	0	970981376	16	4367
2026-01-28 11:40:58.83	262.85	31.43	-27.9	-29.4	15.2	0.00e+00	0	44	0	980418560	16	4291
2026-01-28 11:41:01.84	263.92	31.47	-27.8	-29.2	15.3	0.00e+00	0	44	0	988807168	16	4233
2026-01-28 11:41:04.86	265.00	31.50	-27.8	-29.3	15.3	0.00e+00	0	44	0	998244352	16	4251
2026-01-28 11:41:07.86	266.08	31.51	-28.1	-29.8	15.1	0.00e+00	0	44	0	1008730112	16	4384
2026-01-28 11:41:10.87	267.16	31.52	-28.2	-30.0	14.9	5.30e-06	0	44	0	1017118720	16	4457
2026-01-28 11:41:13.88	268.24	31.51	-28.0	-29.7	15.1	0.00e+00	0	44	0	1026555904	16	4359
2026-01-28 11:41:16.89	269.32	31.50	-28.2	-30.1	14.9	6.10e-06	0	44	0	1035993088	16	4469
2026-01-28 11:41:19.90	270.40	31.47	-27.9	-29.5	15.2	1.50e-06	0	44	0	1045430272	16	4296
2026-01-28 11:41:22.90	271.47	31.43	-28.0	-29.6	15.1	3.80e-06	0	44	0	1054867456	16	4347
2026-01-28 11:41:25.91	272.54	31.38	-27.7	-28.9	15.5	3.80e-06	0	44	0	1064304640	16	4154
2026-01-28 11:41:28.91	273.61	31.32	-28.2	-30.1	14.9	0.00e+00	0	44	0	1073741824	16	4462
2026-01-28 11:41:31.91	274.67	31.25	-27.5	-28.5	15.8	3.00e-06	0	44	0	1083179008	16	4030
2026-01-28 11:41:34.92	275.73	31.17	-27.7	-29.0	15.5	0.00e+00	0	44	0	1092616192	16	4172
2026-01-28 11:41:37.93	276.78	31.08	-27.6	-28.7	15.6	0.00e+00	0	44	0	1102053376	16	4102
2026-01-28 11:41:40.94	277.83	30.98	-27.6	-28.8	15.6	0.00e+00	0	44	0	1111490560	16	4131
2026-01-28 11:41:43.95	278.87	30.87	-27.5	-28.6	15.7	0.00e+00	0	44	0	1120927744	16	4062
2026-01-28 11:41:46.94	279.90	30.75	-27.9	-29.3	15.3	0.00e+00	0	44	0	1130364928	16	4264
2026-01-28 11:41:49.94	280.92	30.62	-27.7	-28.9	15.5	0.00e+00	0	44	0	1139802112	16	4154
2026-01-28 11:41:52.95	281.94	30.48	-27.7	-29.0	15.5	0.00e+00	0	44	0	1149239296	16	4173
2026-01-28 11:41:55.96	282.94	30.33	-27.7	-29.0	15.5	0.00e+00	0	44	0	1158676480	16	4157
2026-01-28 11:41:58.97	283.94	30.17	-27.8	-29.2	15.3	0.00e+00	0	44	0	1168113664	16	4236
2026-01-28 11:42:01.98	284.93	30.01	-27.6	-28.7	15.6	0.00e+00	0	44	0	1177550848	16	4091
2026-01-28 11:42:04.99	285.91	29.83	-27.5	-28.5	15.7	0.00e+00	0	44	0	1186988032	16	4040
2026-01-28 11:42:08.00	286.88	29.65	-27.6	-28.6	15.7	0.00e+00	0	44	0	1196425216	16	4066
2026-01-28 11:42:11.01	287.83	29.46	-27.3	-28.1	16.0	0.00e+00	0	44	0	1205862400	16	3947
2026-01-28 11:42:14.02	288.78	29.27	-27.4	-28.3	15.9	0.00e+00	0	44	0	1215299584	16	3979
2026-01-28 11:42:17.03	289.71	29.07	-27.5	-28.5	15.7	0.00e+00	0	44	0	1224736768	16	4045
2026-01-28 11:42:20.04	290.64	28.86	-27.3	-28.1	16.0	0.00e+00	0	44	0	1234173952	16	3942
2026-01-28 11:42:23.05	291.55	28.64	-27.4	-28.7	15.7	0.00e+00	0	44	0	1242562560	15	4211
2026-01-28 11:42:26.06	292.45	28.42	-27.6	-29.2	15.4	0.00e+00	0	44	0	1251999744	15	4356
2026-01-28 11:42:29.06	293.33	28.19	-27.5	-29.0	15.6	0.00e+00	0	44	0	1262485504	15	4299
2026-01-28 11:42:32.07	294.20	27.96	-27.5	-28.9	15.6	0.00e+00	0	44	0	1270874112	15	4265
2026-01-28 11:42:35.08	295.06	27.73	-27.2	-28.3	15.9	0.00e+00	0	44	0	1280311296	15	4108
2026-01-28 11:42:38.08	295.91	27.48	-27.4	-28.7	15.7	0.00e+00	0	44	0	1289748480	15	4219
2026-01-28 11:42:41.09	296.75	27.24	-27.4	-28.7	15.7	0.00e+00	0	44	0	1299185664	15	4206
2026-01-28 11:42:44.10	297.57	26.99	-27.2	-28.4	15.9	0.00e+00	0	44	0	1308622848	15	4141
2026-01-28 11:42:47.11	298.38	26.74	-27.2	-28.4	15.9	0.00e+00	0	44	0	1318060032	15	4131
2026-01-28 11:42:50.10	299.17	26.48	-27.1	-28.1	16.0	0.00e+00	0	44	0	1327497216	15	4061
2026-01-28 11:42:53.11	299.96	26.22	-27.0	-27.9	16.1	0.00e+00	0	44	0	1336934400	15	3998
2026-01-28 11:42:56.12	300.73	25.96	-27.1	-28.0	16.1	0.00e+00	0	44	0	1346371584	15	4034
2026-01-28 11:42:59.14	301.49	25.69	-26.8	-27.9	16.4	0.00e+00	0	44	0	1355808768	14	4109
2026-01-28 11:43:02.15	302.24	25.42	-26.7	-27.8	16.4	0.00e+00	0	44	0	1365245952	14	4076
2026-01-28 11:43:05.15	302.97	25.15	-26.9	-28.3	16.2	0.00e+00	0	44	0	1374683136	14	4200
2026-01-28 11:43:08.16	303.70	24.88	-27.2	-28.9	15.9	0.00e+00	0	44	0	1384120320	14	4358
2026-01-28 11:43:11.17	304.41	24.61	-27.4	-29.3	15.6	0.00e+00	0	44	0	1393557504	14	4482
2026-01-28 11:43:14.18	305.11	24.33	-27.2	-28.8	15.9	0.00e+00	0	44	0	1402994688	14	4354
2026-01-28 11:43:17.19	305.79	24.05	-27.2	-28.9	15.8	0.00e+00	0	44	0	1412431872	14	4382
2026-01-28 11:43:20.20	306.47	23.77	-27.3	-29.1	15.7	7.00e-07	0	44	0	1421869056	14	4439
2026-01-28 11:43:23.21	307.13	23.50	-27.0	-28.5	16.0	0.00e+00	0	44	0	1431306240	14	4256
2026-01-28 11:43:26.20	307.78	23.22	-27.1	-28.7	15.9	0.00e+00	0	44	0	1440743424	14	4309
2026-01-28 11:43:29.21	308.42	22.94	-26.6	-27.6	16.5	0.00e+00	0	44	0	1450180608	14	4016
2026-01-28 11:43:32.22	309.05	22.66	-26.7	-27.7	16.5	0.00e+00	0	44	0	1459617792	14	4055
2026-01-28 11:43:35.23	309.67	22.37	-26.9	-28.3	16.2	0.00e+00	0	44	0	1469054976	14	4204
2026-01-28 11:43:38.24	310.27	22.09	-27.4	-29.3	15.6	0.00e+00	0	44	0	1478492160	14	4504
2026-01-28 11:43:41.26	310.87	21.81	-27.3	-29.1	15.7	0.00e+00	0	44	0	1487929344	14	4434
2026-01-28 11:43:44.28	311.46	21.53	-27.1	-28.6	16.0	0.00e+00	0	44	0	1497366528	14	4290
2026-01-28 11:43:47.30	312.04	21.25	-27.1	-28.7	15.9	0.00e+00	0	44	0	1506803712	14	4326
2026-01-28 11:43:50.31	312.61	20.97	-27.0	-28.4	16.0	0.00e+00	0	44	0	1516240896	14	4233
2026-01-28 11:43:53.32	313.16	20.68	-27.1	-28.7	15.9	0.00e+00	0	44	0	1525678080	14	4335
2026-01-28 11:43:56.33	313.71	20.40	-27.3	-29.2	15.6	0.00e+00	0	44	0	1535115264	14	4469
2026-01-28 11:43:59.33	314.24	20.13	-27.1	-28.7	15.9	0.00e+00	0	44	0	1543503872	14	4318
2026-01-28 11:44:02.34	314.77	19.85	-27.1	-28.8	15.8	0.00e+00	0	44	0	1552941056	14	4339
2026-01-28 11:44:05.34	315.28	19.57	-27.3	-29.1	15.6	0.00e+00	0	44	0	1562378240	14	4440
2026-01-28 11:44:08.36	315.79	19.29	-27.7	-29.6	15.1	0.00e+00	0	44	0	1571815424	15	4470
2026-01-28 11:44:11.37	316.29	19.02	-27.6	-29.4	15.1	0.00e+00	0	44	0	1581252608	15	4420
2026-01-28 11:44:14.38	316.79	18.74	-27.7	-29.7	14.9	0.00e+00	0	44	0	1590689792	15	4500
2026-01-28 11:44:17.41	317.27	18.47	-27.9	-29.6	14.9	0.00e+00	0	44	0	1600126976	16	4350
2026-01-28 11:44:20.43	317.75	18.19	-27.7	-29.0	15.3	7.00e-07	0	44	0	1609564160	16	4176
2026-01-28 11:44:23.45	318.22	17.92	-27.4	-28.4	15.5	0.00e+00	0	44	0	1619001344	16	4030
2026-01-28 11:44:26.47	318.67	17.65	-27.5	-28.6	15.4	0.00e+00	0	44	0	1628438528	16	4076
2026-01-28 11:44:29.48	319.12	17.38	-27.4	-28.5	15.5	0.00e+00	0	44	0	1637875712	16	4041
2026-01-28 11:44:32.50	319.57	17.11	-27.5	-28.5	15.5	0.00e+00	0	44	0	1647312896	16	4050
2026-01-28 11:44:35.51	320.00	16.85	-27.6	-28.8	15.3	0.00e+00	0	44	0	1656750080	16	4126
2026-01-28 11:44:38.52	320.43	16.58	-27.7	-29.0	15.1	0.00e+00	0	44	0	1666187264	16	4200
2026-01-28 11:44:41.53	320.85	16.32	-27.6	-28.8	15.3	0.00e+00	0	44	0	1675624448	16	4137
2026-01-28 11:44:44.53	321.26	16.06	-27.6	-28.9	15.2	0.00e+00	0	44	0	1685061632	16	4163
2026-01-28 11:44:47.55	321.67	15.80	-27.5	-28.6	15.3	0.00e+00	0	44	0	1694498816	16	4095
2026-01-28 11:44:50.56	322.07	15.54	-27.5	-28.5	15.3	0.00e+00	0	44	0	1703936000	16	4060
2026-01-28 11:44:53.56	322.46	15.28	-27.8	-29.2	14.9	0.00e+00	0	44	0	1713373184	16	4256
2026-01-28 11:44:56.58	322.85	15.02	-28.0	-29.9	14.5	7.00e-07	0	44	0	1722810368	16	4441
2026-01-28 11:44:59.58	323.23	14.77	-28.1	-29.9	14.5	0.00e+00	0	44	0	1732247552	16	4452
2026-01-28 11:45:02.59	323.60	14.52	-28.2	-30.2	14.4	7.00e-07	0	44	0	1741684736	16	4532
2026-01-28 11:45:05.61	323.97	14.27	-28.1	-30.0	14.5	7.00e-07	0	44	0	1751121920	16	4466
2026-01-28 11:45:08.62	324.33	14.02	-28.2	-30.2	14.3	7.00e-07	0	44	0	1760559104	16	4538
2026-01-28 11:45:11.63	324.69	13.77	-28.2	-30.3	14.3	3.80e-06	0	44	0	1769996288	16	4565
2026-01-28 11:45:14.63	325.04	13.52	-28.1	-29.9	14.5	1.50e-06	0	44	0	1779433472	16	4454
2026-01-28 11:45:17.64	325.39	13.28	-28.2	-30.2	14.3	7.00e-07	0	44	0	1788870656	16	4524
2026-01-28 11:45:20.65	325.73	13.03	-28.4	-30.8	13.9	3.80e-06	0	44	0	1798307840	16	4720
2026-01-28 11:45:23.66	326.06	12.79	-28.7	-30.9	13.6	9.10e-06	0	44	0	1807745024	17	4653
2026-01-28 11:45:26.67	326.39	12.55	-28.7	-31.0	13.4	1.14e-05	0	44	0	1817182208	17	4680
2026-01-28 11:45:29.68	326.71	12.31	-28.4	-30.2	13.9	3.80e-06	0	44	0	1826619392	17	4442
2026-01-28 11:45:32.68	327.03	12.07	-28.4	-30.2	13.9	5.30e-06	0	44	0	1836056576	17	4441
2026-01-28 11:45:35.69	327.35	11.84	-28.6	-30.7	13.6	6.10e-06	0	44	0	1845493760	17	4574
2026-01-28 11:45:38.71	327.66	11.60	-28.4	-30.2	13.9	6.10e-06	0	44	0	1854930944	17	4428
2026-01-28 11:45:41.72	327.96	11.37	-28.5	-30.6	13.7	7.60e-06	0	44	0	1864368128	17	4560
2026-01-28 11:45:44.73	328.26	11.14	-28.5	-30.6	13.7	6.10e-06	0	44	0	1873805312	17	4549
2026-01-28 11:45:47.74	328.56	10.91	-28.6	-30.7	13.6	9.10e-06	0	44	0	1883242496	17	4588
2026-01-28 11:45:50.75	328.85	10.68	-28.6	-30.7	13.6	5.30e-06	0	44	0	1891631104	17	4587
2026-01-28 11:45:53.76	329.14	10.45	-28.5	-30.5	13.6	6.80e-06	0	44	0	1902116864	17	4535
2026-01-28 11:45:56.77	329.42	10.23	-28.5	-30.4	13.7	6.80e-06	0	44	0	1911554048	17	4513
2026-01-28 11:45:59.79	329.70	10.00	-28.7	-31.1	13.3	1.37e-05	0	44	0	1919942656	17	4728
2026-01-28 11:46:02.80	329.97	9.78	-28.9	-31.5	13.0	3.05e-05	0	44	0	1929379840	17	4859
2026-01-28 11:46:05.81	330.24	9.56	-29.0	-31.6	12.9	3.89e-05	0	44	0	1938817024	17	4901
2026-01-28 11:46:08.81	330.51	9.34	-28.9	-31.6	12.9	4.19e-05	0	44	0	1948254208	17	4892
2026-01-28 11:46:11.81	330.77	9.13	-28.9	-31.6	12.9	4.34e-05	0	44	0	1957691392	17	4910
2026-01-28 11:46:14.82	331.03	8.91	-28.9	-31.0	12.9	4.73e-05	0	44	0	1967128576	18	4604
2026-01-28 11:46:17.83	331.29	8.69	-29.1	-31.6	12.5	1.25e-04	0	44	0	1976565760	18	4788
2026-01-28 11:46:20.85	331.54	8.48	-29.1	-31.7	12.5	1.09e-04	0	44	0	1986002944	18	4815
2026-01-28 11:46:23.86	331.79	8.27	-29.2	-31.8	12.3	1.91e-04	0	44	0	1995440128	18	4856
2026-01-28 11:46:26.87	332.04	8.06	-29.0	-31.3	12.7	8.08e-05	0	44	0	2004877312	18	4698
2026-01-28 11:46:29.89	332.28	7.85	-29.1	-31.5	12.6	8.46e-05	0	44	0	2014314496	18	4745
2026-01-28 11:46:32.90	332.52	7.64	-29.2	-31.7	12.4	1.32e-04	0	44	0	2023751680	18	4828
2026-01-28 11:46:35.92	332.76	7.43	-29.1	-31.7	12.1	1.81e-04	0	44	0	2033188864	18	4828
2026-01-28 11:46:38.93	332.99	7.22	-29.1	-31.5	12.4	1.62e-04	0	44	0	2042626048	18	4780
2026-01-28 11:46:41.94	333.22	7.02	-33.3	-44.9	3.8	1.49e+00	0	44	104	2051014656	26	13612

#Closed at: 2026-01-28 11:46:44
#Recorded file [2051 MB]: D:/data/31010_260128_143545.dat