passes_logs/2026/01/28/R2M6_AANII_01/R2M6_AANII_01__20260128_120616_SUOMI_NPP_rec.log

#Pass ID: 20260128_120616_SUOMI NPP
#Satellite: SUOMI NPP
#Configuration: NPP
#almurnet v.1.7.20240730
#Start time: 2026-01-28 12:06:18

#Version: 2.2.20231116
#Station: R2M6_AANII_01
#Location: 30.233357 lon 59.946436 lat
#TLE: 1 37849U 11061A   26027.86188320  .00000172  00000+0  10275-3 0  9990
#TLE: 2 37849  98.7823 329.8005 0002088  41.4184 318.7150 14.19530883738530

#Time	Az	El	Level	Level2	SNR	BER	BlckErr	Temp	State	Recorded	gain1	gain2
2026-01-28 12:06:18.50	216.64	7.12	-31.4	-35.5	5.1	1.20e+00	0	41	0	0	23	5795
2026-01-28 12:06:21.50	216.94	7.31	-31.7	-36.0	7.5	1.06e-01	0	41	0	1048576	24	5951
2026-01-28 12:06:24.51	217.25	7.49	-31.4	-34.6	8.7	3.60e-02	0	41	0	7340032	24	5223
2026-01-28 12:06:27.52	217.56	7.68	-31.0	-33.7	9.9	9.74e-03	0	41	0	12582912	23	4884
2026-01-28 12:06:30.52	217.88	7.86	-30.8	-32.8	10.6	5.05e-03	0	41	0	17825792	23	4553
2026-01-28 12:06:33.53	218.20	8.05	-30.4	-32.0	11.6	7.55e-04	0	41	0	24117248	22	4322
2026-01-28 12:06:36.54	218.52	8.24	-30.5	-32.3	11.4	8.94e-04	0	41	0	29360128	22	4427
2026-01-28 12:06:39.55	218.85	8.43	-30.5	-32.4	11.3	6.22e-04	0	42	0	35651584	22	4485
2026-01-28 12:06:42.57	219.19	8.62	-30.5	-32.1	11.6	5.52e-04	0	41	0	40894464	22	4358
2026-01-28 12:06:45.57	219.52	8.81	-30.5	-32.8	11.5	5.04e-04	0	42	0	46137344	21	4705
2026-01-28 12:06:48.58	219.86	9.00	-30.5	-32.9	11.4	7.33e-04	0	42	0	52428800	21	4735
2026-01-28 12:06:51.60	220.21	9.19	-30.7	-33.5	10.9	1.61e-03	0	42	0	57671680	21	4975
2026-01-28 12:06:54.61	220.56	9.39	-30.8	-33.7	10.8	1.78e-03	0	42	0	63963136	21	5043
2026-01-28 12:06:57.61	220.91	9.58	-30.8	-33.8	10.7	2.56e-03	0	42	0	69206016	21	5088
2026-01-28 12:07:00.62	221.27	9.77	-30.7	-33.4	11.0	1.48e-03	0	42	0	74448896	21	4907
2026-01-28 12:07:03.63	221.63	9.96	-30.8	-33.6	11.0	1.31e-03	0	42	0	80740352	21	4968
2026-01-28 12:07:06.65	222.00	10.16	-30.7	-33.4	11.1	1.17e-03	0	42	0	85983232	21	4910
2026-01-28 12:07:09.66	222.37	10.35	-30.3	-32.2	12.0	3.49e-04	0	42	0	91226112	21	4449
2026-01-28 12:07:12.67	222.75	10.55	-30.1	-31.6	12.4	1.43e-04	0	42	0	97517568	21	4248
2026-01-28 12:07:15.68	223.13	10.75	-30.1	-31.5	12.5	1.39e-04	0	42	0	102760448	21	4236
2026-01-28 12:07:18.69	223.52	10.94	-30.2	-31.7	12.4	1.19e-04	0	42	0	109051904	21	4297
2026-01-28 12:07:21.70	223.91	11.14	-30.0	-31.1	12.7	5.41e-05	0	42	0	114294784	21	4108
2026-01-28 12:07:24.73	224.31	11.34	-30.0	-31.2	12.7	7.09e-05	0	42	0	119537664	21	4133
2026-01-28 12:07:27.73	224.71	11.53	-30.0	-31.2	12.7	1.50e-04	0	42	0	125829120	21	4140
2026-01-28 12:07:30.74	225.12	11.73	-29.9	-30.8	13.0	3.96e-05	0	42	0	131072000	21	4026
2026-01-28 12:07:33.75	225.54	11.93	-29.8	-30.6	13.2	3.28e-05	0	42	0	136314880	21	3953
2026-01-28 12:07:36.75	225.95	12.13	-29.9	-31.4	13.1	3.96e-05	0	42	0	142606336	20	4263
2026-01-28 12:07:39.77	226.38	12.33	-30.1	-31.9	12.6	6.71e-05	0	42	0	147849216	20	4442
2026-01-28 12:07:42.78	226.81	12.52	-30.0	-31.8	12.8	6.56e-05	0	42	0	154140672	20	4389
2026-01-28 12:07:45.79	227.24	12.72	-30.0	-31.8	12.8	9.38e-05	0	42	0	159383552	20	4403
2026-01-28 12:07:48.80	227.68	12.92	-29.8	-31.2	13.2	4.50e-05	0	43	0	164626432	20	4217
2026-01-28 12:07:51.81	228.13	13.12	-29.6	-30.6	13.6	1.37e-05	0	42	0	170917888	20	4020
2026-01-28 12:07:54.82	228.58	13.32	-29.5	-30.2	13.9	5.30e-06	0	43	0	176160768	20	3913
2026-01-28 12:07:57.83	229.04	13.52	-29.5	-30.7	14.0	0.00e+00	0	43	0	182452224	19	4130
2026-01-28 12:08:00.83	229.51	13.72	-29.7	-31.1	13.7	3.00e-06	0	43	0	187695104	19	4247
2026-01-28 12:08:03.84	229.98	13.92	-29.6	-31.1	13.8	1.50e-06	0	43	0	192937984	19	4247
2026-01-28 12:08:06.85	230.45	14.11	-29.9	-31.7	13.4	9.10e-06	0	43	0	199229440	19	4425
2026-01-28 12:08:09.87	230.94	14.31	-29.9	-31.6	13.4	6.80e-06	0	43	0	204472320	19	4412
2026-01-28 12:08:12.88	231.43	14.51	-29.9	-31.7	13.4	1.75e-05	0	43	0	209715200	19	4439
2026-01-28 12:08:15.90	231.92	14.71	-30.1	-31.7	13.0	1.75e-05	0	43	0	216006656	20	4362
2026-01-28 12:08:18.90	232.43	14.91	-29.6	-30.4	13.9	6.80e-06	0	43	0	221249536	20	3958
2026-01-28 12:08:21.91	232.93	15.10	-29.5	-30.1	14.1	1.50e-06	0	43	0	227540992	20	3878
2026-01-28 12:08:24.92	233.45	15.30	-29.6	-30.5	13.9	1.50e-06	0	43	0	232783872	20	3962
2026-01-28 12:08:27.93	233.97	15.50	-29.5	-30.1	14.1	5.30e-06	0	43	0	238026752	20	3870
2026-01-28 12:08:30.95	234.50	15.69	-29.4	-30.0	14.2	0.00e+00	0	43	0	244318208	20	3825
2026-01-28 12:08:33.96	235.04	15.89	-29.5	-30.0	14.2	1.50e-06	0	43	0	249561088	20	3843
2026-01-28 12:08:36.97	235.58	16.08	-29.8	-31.0	13.7	7.00e-07	0	43	0	255852544	20	4093
2026-01-28 12:08:39.98	236.13	16.27	-29.9	-31.2	13.6	6.80e-06	0	43	0	261095424	20	4172
2026-01-28 12:08:42.98	236.68	16.46	-30.1	-31.7	13.2	2.44e-05	0	43	0	266338304	20	4338
2026-01-28 12:08:45.99	237.24	16.65	-30.0	-31.4	13.5	5.30e-06	0	43	0	272629760	20	4228
2026-01-28 12:08:49.01	237.81	16.84	-30.0	-31.4	13.4	1.67e-05	0	43	0	277872640	20	4237
2026-01-28 12:08:52.02	238.39	17.03	-30.5	-32.2	12.5	8.62e-05	0	43	0	283115520	21	4407
2026-01-28 12:08:55.02	238.97	17.22	-30.0	-30.8	13.5	1.44e-05	0	43	0	289406976	21	3964
2026-01-28 12:08:58.04	239.57	17.40	-30.0	-31.0	13.3	1.90e-05	0	43	0	294649856	21	4018
2026-01-28 12:09:01.05	240.16	17.59	-29.9	-31.1	13.6	7.60e-06	0	43	0	300941312	20	4147
2026-01-28 12:09:04.07	240.77	17.77	-29.8	-30.8	13.7	7.60e-06	0	43	0	306184192	20	4056
2026-01-28 12:09:07.07	241.38	17.95	-29.9	-31.1	13.6	1.14e-05	0	43	0	311427072	20	4147
2026-01-28 12:09:10.08	242.00	18.13	-29.9	-31.1	13.5	4.50e-06	0	43	0	317718528	20	4155
2026-01-28 12:09:13.09	242.62	18.30	-29.7	-30.7	13.8	6.10e-06	0	43	0	322961408	20	4019
2026-01-28 12:09:16.10	243.26	18.48	-29.7	-30.6	13.9	1.50e-06	0	43	0	329252864	20	3988
2026-01-28 12:09:19.11	243.90	18.65	-30.1	-31.7	13.2	1.67e-05	0	43	0	334495744	20	4327
2026-01-28 12:09:22.11	244.54	18.82	-29.9	-31.1	13.6	7.60e-06	0	43	0	339738624	20	4148
2026-01-28 12:09:25.12	245.20	18.99	-29.8	-30.7	13.9	6.10e-06	0	43	0	346030080	20	4023
2026-01-28 12:09:28.13	245.86	19.15	-30.4	-32.5	12.7	5.18e-05	0	43	0	351272960	20	4580
2026-01-28 12:09:31.14	246.52	19.31	-30.3	-31.6	13.1	2.13e-05	0	43	0	356515840	21	4189
2026-01-28 12:09:34.15	247.20	19.47	-30.5	-32.1	12.7	7.17e-05	0	43	0	362807296	21	4368
2026-01-28 12:09:37.16	247.88	19.63	-30.7	-32.9	12.2	3.17e-04	0	43	0	368050176	21	4638
2026-01-28 12:09:40.17	248.57	19.78	-30.9	-32.8	11.9	6.21e-04	0	43	0	374341632	22	4488
2026-01-28 12:09:43.19	249.27	19.93	-31.1	-33.5	11.4	8.84e-04	0	43	0	379584512	22	4762
2026-01-28 12:09:46.19	249.96	20.08	-30.8	-32.7	11.9	6.37e-04	0	43	0	384827392	22	4459
2026-01-28 12:09:49.20	250.67	20.22	-30.5	-31.6	12.8	6.79e-05	0	43	0	391118848	22	4112
2026-01-28 12:09:52.21	251.39	20.36	-30.3	-31.7	13.0	4.04e-05	0	43	0	396361728	21	4231
2026-01-28 12:09:55.23	252.11	20.50	-30.5	-32.3	12.6	7.85e-05	0	43	0	402653184	21	4427
2026-01-28 12:09:58.23	252.83	20.63	-30.7	-32.9	12.3	2.14e-04	0	43	0	407896064	21	4616
2026-01-28 12:10:01.23	253.56	20.76	-30.5	-32.3	12.6	1.31e-04	0	43	0	413138944	21	4398
2026-01-28 12:10:04.24	254.30	20.88	-30.3	-31.5	13.2	4.19e-05	0	43	0	419430400	21	4168
2026-01-28 12:10:07.24	255.04	21.00	-30.4	-31.9	13.0	4.88e-05	0	43	0	424673280	21	4271
2026-01-28 12:10:10.25	255.79	21.12	-30.1	-31.0	13.5	9.10e-06	0	43	0	429916160	21	4016
2026-01-28 12:10:13.25	256.55	21.23	-30.6	-32.4	12.6	4.88e-05	0	43	0	436207616	21	4434
2026-01-28 12:10:16.25	257.30	21.33	-30.1	-31.0	13.5	1.83e-05	0	43	0	441450496	21	4012
2026-01-28 12:10:19.26	258.07	21.44	-29.8	-30.9	13.9	1.50e-06	0	43	0	447741952	20	4057
2026-01-28 12:10:22.28	258.84	21.53	-30.1	-31.5	13.5	5.30e-06	0	43	0	452984832	20	4234
2026-01-28 12:10:25.29	259.62	21.63	-30.1	-31.5	13.5	8.30e-06	0	43	0	458227712	20	4248
2026-01-28 12:10:28.29	260.39	21.71	-29.9	-31.0	13.9	6.10e-06	0	43	0	464519168	20	4085
2026-01-28 12:10:31.31	261.18	21.80	-29.6	-30.3	14.3	2.20e-06	0	43	0	469762048	20	3884
2026-01-28 12:10:34.32	261.96	21.87	-29.7	-30.6	14.1	3.00e-06	0	43	0	475004928	20	3987
2026-01-28 12:10:37.32	262.75	21.95	-29.6	-30.2	14.4	0.00e+00	0	43	0	481296384	20	3869
2026-01-28 12:10:40.32	263.54	22.01	-30.2	-31.8	13.4	9.10e-06	0	43	0	486539264	20	4331
2026-01-28 12:10:43.33	264.34	22.07	-30.0	-31.4	13.6	9.90e-06	0	43	0	492830720	20	4200
2026-01-28 12:10:46.33	265.14	22.13	-30.1	-31.5	13.6	2.20e-06	0	43	0	498073600	20	4226
2026-01-28 12:10:49.34	265.94	22.18	-30.2	-31.7	13.5	9.90e-06	0	43	0	503316480	20	4291
2026-01-28 12:10:52.33	266.74	22.22	-29.9	-30.9	14.0	7.00e-07	0	43	0	509607936	20	4049
2026-01-28 12:10:55.34	267.55	22.26	-30.3	-32.0	13.2	1.44e-05	0	43	0	514850816	20	4401
2026-01-28 12:10:58.34	268.35	22.30	-30.0	-31.2	13.8	6.10e-06	0	43	0	520093696	20	4146
2026-01-28 12:11:01.36	269.17	22.32	-30.3	-32.1	13.3	1.60e-05	0	43	0	526385152	20	4414
2026-01-28 12:11:04.37	269.98	22.35	-30.1	-31.5	13.6	2.13e-05	0	43	0	531628032	20	4223
2026-01-28 12:11:07.38	270.79	22.36	-30.1	-31.5	13.6	8.30e-06	0	43	0	537919488	20	4222
2026-01-28 12:11:10.39	271.60	22.37	-30.1	-31.4	13.6	9.10e-06	0	43	0	543162368	20	4206
2026-01-28 12:11:13.38	272.41	22.38	-29.8	-30.8	14.0	1.50e-06	0	43	0	548405248	20	4027
2026-01-28 12:11:16.39	273.22	22.38	-30.7	-32.5	12.6	6.25e-05	0	43	0	554696704	21	4467
2026-01-28 12:11:19.40	274.04	22.37	-30.4	-31.9	13.0	5.56e-05	0	43	0	559939584	21	4262
2026-01-28 12:11:22.41	274.85	22.36	-30.2	-31.2	13.4	1.67e-05	0	43	0	565182464	21	4069
2026-01-28 12:11:25.42	275.66	22.34	-29.9	-30.4	14.0	1.50e-06	0	43	0	571473920	21	3822
2026-01-28 12:11:28.41	276.47	22.31	-30.1	-31.1	13.6	1.60e-05	0	43	0	576716800	21	4024
2026-01-28 12:11:31.42	277.28	22.28	-30.1	-31.0	13.6	9.90e-06	0	43	0	583008256	21	3985
2026-01-28 12:11:34.44	278.09	22.25	-29.8	-30.7	14.1	2.20e-06	0	43	0	588251136	20	3992
2026-01-28 12:11:37.45	278.89	22.20	-29.6	-30.1	14.5	0.00e+00	0	43	0	593494016	20	3827
2026-01-28 12:11:40.46	279.69	22.16	-29.5	-30.0	14.5	7.00e-07	0	43	0	599785472	20	3808
2026-01-28 12:11:43.47	280.49	22.10	-29.7	-30.5	14.1	6.10e-06	0	43	0	605028352	20	3950
2026-01-28 12:11:46.47	281.29	22.05	-29.8	-30.6	14.2	3.00e-06	0	43	0	610271232	20	3967
2026-01-28 12:11:49.48	282.08	21.98	-29.8	-30.6	14.2	7.00e-07	0	43	0	616562688	20	3982
2026-01-28 12:11:52.49	282.87	21.91	-30.0	-31.2	13.8	5.30e-06	0	43	0	621805568	20	4150
2026-01-28 12:11:55.50	283.66	21.84	-29.8	-30.8	14.1	7.00e-07	0	43	0	628097024	20	4020
2026-01-28 12:11:58.50	284.44	21.76	-30.0	-31.3	13.7	7.60e-06	0	43	0	633339904	20	4178
2026-01-28 12:12:01.50	285.22	21.68	-30.2	-31.9	13.4	1.83e-05	0	43	0	638582784	20	4371
2026-01-28 12:12:04.50	285.99	21.59	-30.1	-31.5	13.6	1.22e-05	0	43	0	644874240	20	4226
2026-01-28 12:12:07.52	286.76	21.49	-30.0	-31.2	13.7	6.10e-06	0	43	0	650117120	20	4138
2026-01-28 12:12:10.53	287.53	21.39	-29.9	-31.1	13.8	5.30e-06	0	43	0	655360000	20	4123
2026-01-28 12:12:13.55	288.29	21.29	-29.9	-31.0	13.9	4.50e-06	0	43	0	661651456	20	4093
2026-01-28 12:12:16.55	289.05	21.18	-29.6	-30.2	14.4	1.50e-06	0	43	0	666894336	20	3863
2026-01-28 12:12:19.56	289.80	21.07	-29.5	-30.0	14.5	0.00e+00	0	43	0	673185792	20	3808
2026-01-28 12:12:22.57	290.54	20.95	-29.4	-29.8	14.6	7.00e-07	0	43	0	678428672	20	3744
2026-01-28 12:12:25.58	291.28	20.83	-29.8	-30.8	14.0	0.00e+00	0	43	0	683671552	20	4033
2026-01-28 12:12:28.58	292.01	20.70	-29.9	-31.1	13.9	3.80e-06	0	44	0	689963008	20	4105
2026-01-28 12:12:31.59	292.74	20.57	-29.7	-30.4	14.3	2.20e-06	0	43	0	695205888	20	3919
2026-01-28 12:12:34.60	293.46	20.44	-29.7	-30.6	14.2	3.80e-06	0	43	0	701497344	20	3959
2026-01-28 12:12:37.60	294.17	20.30	-29.6	-30.1	14.4	0.00e+00	0	43	0	706740224	20	3840
2026-01-28 12:12:40.62	294.88	20.16	-29.7	-30.5	14.2	7.00e-07	0	43	0	711983104	20	3955
2026-01-28 12:12:43.63	295.58	20.02	-29.7	-30.6	14.1	4.50e-06	0	43	0	718274560	20	3971
2026-01-28 12:12:46.64	296.28	19.87	-29.7	-30.5	14.2	1.50e-06	0	43	0	723517440	20	3944
2026-01-28 12:12:49.64	296.97	19.72	-30.1	-31.5	13.6	1.44e-05	0	43	0	728760320	20	4238
2026-01-28 12:12:52.63	297.64	19.57	-29.8	-30.8	14.0	2.20e-06	0	43	0	735051776	20	4021
2026-01-28 12:12:55.65	298.32	19.41	-29.5	-29.9	14.5	7.00e-07	0	43	0	740294656	20	3794
2026-01-28 12:12:58.66	298.99	19.25	-29.6	-30.2	14.4	7.00e-07	0	43	0	746586112	20	3864
2026-01-28 12:13:01.67	299.65	19.09	-29.8	-30.8	14.0	6.10e-06	0	43	0	751828992	20	4044
2026-01-28 12:13:04.68	300.31	18.93	-30.7	-32.6	12.5	9.46e-05	0	43	0	757071872	21	4499
2026-01-28 12:13:07.67	300.95	18.76	-30.6	-32.6	12.5	1.71e-04	0	43	0	763363328	21	4489
2026-01-28 12:13:10.70	301.60	18.59	-30.4	-31.9	13.0	3.73e-05	0	43	0	768606208	21	4258
2026-01-28 12:13:13.71	302.23	18.42	-30.7	-32.7	12.5	1.14e-04	0	43	0	773849088	21	4522
2026-01-28 12:13:16.73	302.86	18.24	-30.5	-32.1	12.9	8.01e-05	0	43	0	780140544	21	4322
2026-01-28 12:13:19.74	303.48	18.07	-30.5	-32.3	12.7	7.01e-05	0	43	0	785383424	21	4396
2026-01-28 12:13:22.75	304.09	17.89	-30.6	-32.6	12.5	6.17e-05	0	43	0	791674880	21	4513
2026-01-28 12:13:25.76	304.70	17.71	-30.7	-32.9	12.3	1.91e-04	0	43	0	796917760	21	4602
2026-01-28 12:13:28.77	305.30	17.53	-31.2	-33.6	11.4	9.27e-04	0	43	0	802160640	22	4788
2026-01-28 12:13:31.78	305.89	17.35	-31.0	-33.2	11.7	7.27e-04	0	44	0	808452096	22	4636
2026-01-28 12:13:34.79	306.47	17.16	-31.0	-33.0	11.8	4.59e-04	0	43	0	813694976	22	4566
2026-01-28 12:13:37.80	307.05	16.98	-30.8	-32.7	12.1	3.19e-04	0	43	0	819986432	22	4438
2026-01-28 12:13:40.82	307.62	16.79	-31.2	-33.8	11.2	9.22e-04	0	43	0	825229312	22	4857
2026-01-28 12:13:43.83	308.19	16.60	-31.0	-33.2	11.7	5.74e-04	0	43	0	830472192	22	4634
2026-01-28 12:13:46.85	308.75	16.41	-30.6	-32.0	12.5	1.13e-04	0	43	0	836763648	22	4216
2026-01-28 12:13:49.85	309.29	16.22	-30.7	-32.3	12.3	1.81e-04	0	43	0	842006528	22	4327
2026-01-28 12:13:52.85	309.84	16.03	-30.4	-31.4	12.9	5.87e-05	0	43	0	847249408	22	4041
2026-01-28 12:13:55.86	310.37	15.84	-30.6	-32.0	12.5	1.04e-04	0	43	0	853540864	22	4217
2026-01-28 12:13:58.87	310.90	15.65	-30.9	-33.0	11.8	2.74e-04	0	43	0	858783744	22	4554
2026-01-28 12:14:01.89	311.43	15.45	-31.1	-33.4	11.5	7.32e-04	0	43	0	865075200	22	4717
2026-01-28 12:14:04.90	311.94	15.26	-30.4	-31.6	12.7	9.99e-05	0	43	0	870318080	22	4099
2026-01-28 12:14:07.90	312.45	15.06	-30.4	-31.9	12.8	7.93e-05	0	43	0	875560960	21	4274
2026-01-28 12:14:10.91	312.96	14.87	-30.6	-32.5	12.4	2.03e-04	0	43	0	881852416	21	4480
2026-01-28 12:14:13.92	313.45	14.67	-30.6	-32.4	12.3	2.20e-04	0	43	0	887095296	21	4470
2026-01-28 12:14:16.94	313.95	14.48	-30.7	-32.7	12.1	1.83e-04	0	43	0	893386752	21	4576
2026-01-28 12:14:19.96	314.43	14.28	-30.9	-33.5	11.7	4.64e-04	0	43	0	898629632	21	4837
2026-01-28 12:14:22.98	314.91	14.08	-31.4	-34.7	10.4	4.03e-03	0	43	0	903872512	22	5227
2026-01-28 12:14:25.99	315.39	13.89	-31.1	-33.6	11.1	1.39e-03	0	43	0	910163968	22	4795
2026-01-28 12:14:28.99	315.85	13.69	-30.6	-32.2	11.9	4.78e-04	0	43	0	915406848	22	4323
2026-01-28 12:14:32.00	316.31	13.49	-30.6	-32.1	12.0	3.89e-04	0	43	0	920649728	22	4282
2026-01-28 12:14:35.01	316.77	13.30	-30.2	-31.6	12.8	6.17e-05	0	43	0	926941184	21	4213
2026-01-28 12:14:38.02	317.21	13.10	-30.1	-31.1	13.1	5.03e-05	0	43	0	932184064	21	4076
2026-01-28 12:14:41.04	317.66	12.90	-30.1	-31.3	12.9	2.67e-05	0	43	0	938475520	21	4141
2026-01-28 12:14:44.05	318.10	12.70	-30.2	-31.6	12.9	5.95e-05	0	43	0	943718400	21	4209
2026-01-28 12:14:47.05	318.53	12.51	-30.5	-32.6	12.0	3.39e-04	0	43	0	948961280	21	4572
2026-01-28 12:14:50.06	318.95	12.31	-30.6	-32.7	11.9	3.99e-04	0	43	0	955252736	21	4588
2026-01-28 12:14:53.05	319.37	12.12	-30.7	-32.9	11.9	3.78e-04	0	43	0	960495616	21	4659
2026-01-28 12:14:56.07	319.79	11.92	-30.6	-32.9	11.8	6.55e-04	0	43	0	965738496	21	4666
2026-01-28 12:14:59.08	320.20	11.72	-31.0	-33.5	11.0	1.87e-03	0	43	0	972029952	22	4819
2026-01-28 12:15:02.10	320.60	11.53	-30.5	-31.9	12.2	2.17e-04	0	43	0	977272832	22	4232
2026-01-28 12:15:05.10	321.00	11.33	-29.9	-30.8	13.2	3.43e-05	0	43	0	983564288	21	3997
2026-01-28 12:15:08.11	321.39	11.14	-29.9	-30.8	13.2	2.13e-05	0	43	0	988807168	21	3981
2026-01-28 12:15:11.13	321.78	10.94	-30.0	-31.1	13.0	4.19e-05	0	43	0	994050048	21	4075
2026-01-28 12:15:14.14	322.17	10.75	-30.2	-31.5	12.7	8.39e-05	0	43	0	1000341504	21	4203
2026-01-28 12:15:17.15	322.55	10.56	-30.2	-31.7	12.6	9.53e-05	0	43	0	1005584384	21	4255
2026-01-28 12:15:20.16	322.92	10.36	-30.3	-32.0	12.4	1.69e-04	0	43	0	1011875840	21	4354
2026-01-28 12:15:23.17	323.29	10.17	-30.6	-32.7	11.8	3.23e-04	0	43	0	1017118720	21	4627
2026-01-28 12:15:26.18	323.66	9.98	-30.8	-33.4	11.3	1.04e-03	0	43	0	1022361600	21	4873
2026-01-28 12:15:29.19	324.02	9.79	-30.7	-33.2	11.4	9.67e-04	0	43	0	1028653056	21	4814
2026-01-28 12:15:32.21	324.38	9.60	-30.4	-32.2	12.1	6.06e-04	0	43	0	1033895936	21	4454
2026-01-28 12:15:35.22	324.73	9.40	-30.3	-32.0	12.2	1.89e-04	0	43	0	1039138816	21	4372
2026-01-28 12:15:38.24	325.08	9.21	-30.1	-31.5	12.6	1.44e-04	0	43	0	1045430272	21	4217
2026-01-28 12:15:41.26	325.42	9.02	-30.2	-31.9	12.3	1.80e-04	0	44	0	1050673152	21	4349
2026-01-28 12:15:44.26	325.76	8.84	-30.7	-33.3	11.2	1.13e-03	0	44	0	1056964608	21	4865
2026-01-28 12:15:47.27	326.09	8.65	-30.8	-33.7	11.0	1.60e-03	0	44	0	1062207488	21	4987
2026-01-28 12:15:50.29	326.43	8.46	-31.0	-33.8	10.5	4.49e-03	0	43	0	1067450368	22	4960
2026-01-28 12:15:53.29	326.75	8.27	-31.1	-34.3	10.1	5.55e-03	0	44	0	1073741824	22	5162
2026-01-28 12:15:56.29	327.07	8.09	-31.1	-34.8	9.5	1.26e-02	0	43	0	1078984704	22	5536
2026-01-28 12:15:59.30	327.39	7.90	-31.4	-35.3	9.2	1.69e-02	0	43	0	1085276160	22	5672
2026-01-28 12:16:02.30	327.71	7.72	-31.1	-34.4	9.9	9.64e-03	0	43	0	1090519040	22	5235
2026-01-28 12:16:05.31	328.02	7.53	-31.2	-34.6	9.8	7.16e-03	0	43	0	1095761920	22	5299
2026-01-28 12:16:08.33	328.32	7.35	-31.0	-33.8	10.4	4.32e-03	0	43	0	1102053376	22	4972
2026-01-28 12:16:11.33	328.63	7.17	-31.0	-33.9	10.2	5.63e-03	0	43	0	1107296256	22	5035
2026-01-28 12:16:14.34	328.93	6.98	-33.5	-46.1	3.8	1.49e+00	0	43	104	1111490560	26	15473

#Closed at: 2026-01-28 12:16:17
#Recorded file [1111 MB]: D:/data/31010_260128_150620.dat