passes_logs/2026/01/28/R2M6_AANII_01/R2M6_AANII_01__20260128_234255_NOAA_21_JPSS-2_rec.log

#Pass ID: 20260128_234255_NOAA 21 (JPSS-2)
#Satellite: NOAA 21 (JPSS-2)
#Configuration: NOAA 21
#almurnet v.1.7.20240730
#Start time: 2026-01-28 23:42:55

#Version: 2.2.20231116
#Station: R2M6_AANII_01
#Location: 30.233357 lon 59.946436 lat
#TLE: 1 54234U 22150A   26027.77052245  .00000166  00000+0  99439-4 0  9997
#TLE: 2 54234  98.7510 328.5165 0000872 203.6403 156.4733 14.19540252166628

#Time	Az	El	Level	Level2	SNR	BER	BlckErr	Temp	State	Recorded	gain1	gain2
2026-01-28 23:42:55.30	21.72	6.98	-30.0	-34.4	4.7	1.39e+00	0	41	0	0	20	6037
2026-01-28 23:42:58.31	21.84	7.20	-30.1	-34.3	8.7	3.36e-02	0	41	0	3145728	20	5811
2026-01-28 23:43:01.32	21.96	7.43	-30.3	-34.9	8.4	4.82e-02	0	41	0	12582912	20	6075
2026-01-28 23:43:04.33	22.08	7.66	-30.0	-33.7	9.2	2.38e-02	0	41	0	20971520	20	5512
2026-01-28 23:43:07.35	22.20	7.89	-29.4	-32.5	10.5	5.37e-03	0	41	0	30408704	19	5123
2026-01-28 23:43:10.37	22.32	8.12	-29.0	-31.8	11.3	1.51e-03	0	42	0	40894464	18	4965
2026-01-28 23:43:13.38	22.45	8.36	-28.2	-30.7	12.7	1.06e-04	0	41	0	49283072	16	4800
2026-01-28 23:43:16.39	22.58	8.59	-27.9	-30.6	12.9	3.35e-05	0	42	0	58720256	15	4896
2026-01-28 23:43:19.39	22.70	8.83	-27.8	-29.8	13.3	1.83e-05	0	42	0	68157440	16	4524
2026-01-28 23:43:22.41	22.84	9.07	-27.6	-29.7	13.5	1.22e-05	0	42	0	77594624	15	4614
2026-01-28 23:43:25.42	22.97	9.32	-27.7	-30.0	13.0	1.98e-05	0	42	0	87031808	15	4703
2026-01-28 23:43:28.44	23.10	9.56	-27.6	-29.8	13.5	1.22e-05	0	42	0	96468992	15	4637
2026-01-28 23:43:31.45	23.24	9.81	-27.7	-30.0	13.4	1.60e-05	0	42	0	105906176	15	4697
2026-01-28 23:43:34.47	23.38	10.06	-27.6	-29.8	13.5	4.57e-04	0	42	0	115343360	15	4618
2026-01-28 23:43:37.47	23.52	10.32	-27.6	-29.7	13.5	1.37e-05	0	42	0	124780544	15	4607
2026-01-28 23:43:40.48	23.66	10.57	-27.2	-29.2	14.2	5.30e-04	0	42	0	134217728	14	4548
2026-01-28 23:43:43.49	23.81	10.83	-27.2	-29.3	14.2	5.44e-04	0	42	0	143654912	14	4579
2026-01-28 23:43:46.50	23.96	11.09	-26.9	-28.7	14.5	5.64e-04	0	42	0	153092096	14	4392
2026-01-28 23:43:49.51	24.11	11.35	-27.1	-29.0	14.4	5.45e-04	0	42	0	162529280	14	4487
2026-01-28 23:43:52.53	24.26	11.62	-27.1	-29.1	14.3	5.16e-04	0	42	0	171966464	14	4522
2026-01-28 23:43:55.55	24.42	11.89	-27.1	-29.1	14.3	5.31e-04	0	42	0	181403648	14	4503
2026-01-28 23:43:58.56	24.58	12.16	-27.2	-29.2	14.3	3.00e-06	0	42	0	190840832	14	4557
2026-01-28 23:44:01.57	24.74	12.44	-27.0	-28.8	14.5	6.13e-04	0	42	0	200278016	14	4442
2026-01-28 23:44:04.56	24.90	12.71	-26.9	-29.1	14.6	0.00e+00	0	42	0	209715200	13	4628
2026-01-28 23:44:07.57	25.07	12.99	-26.8	-28.9	14.8	0.00e+00	0	43	0	219152384	13	4565
2026-01-28 23:44:10.58	25.24	13.28	-26.9	-29.2	14.6	0.00e+00	0	43	0	228589568	13	4644
2026-01-28 23:44:13.59	25.41	13.57	-27.2	-29.2	14.4	1.50e-06	0	42	0	238026752	14	4532
2026-01-28 23:44:16.58	25.58	13.85	-27.0	-28.9	14.6	0.00e+00	0	43	0	247463936	14	4448
2026-01-28 23:44:19.59	25.76	14.15	-27.2	-29.1	14.4	2.20e-06	0	43	0	256901120	14	4526
2026-01-28 23:44:22.60	25.94	14.44	-26.9	-28.5	14.8	0.00e+00	0	43	0	266338304	14	4330
2026-01-28 23:44:25.60	26.13	14.74	-27.0	-28.8	14.6	0.00e+00	0	43	0	275775488	14	4434
2026-01-28 23:44:28.62	26.32	15.05	-27.2	-29.3	14.3	3.00e-06	0	43	0	285212672	14	4576
2026-01-28 23:44:31.63	26.51	15.35	-27.0	-28.7	14.7	7.00e-07	0	43	0	294649856	14	4387
2026-01-28 23:44:34.63	26.71	15.66	-27.3	-29.4	13.8	7.00e-07	0	43	0	304087040	14	4594
2026-01-28 23:44:37.65	26.91	15.98	-27.0	-28.7	14.7	0.00e+00	0	43	0	313524224	14	4395
2026-01-28 23:44:40.65	27.11	16.30	-26.8	-28.8	14.9	0.00e+00	0	43	0	322961408	13	4531
2026-01-28 23:44:43.67	27.32	16.62	-26.9	-29.1	14.8	9.99e-05	0	43	0	332398592	13	4617
2026-01-28 23:44:46.68	27.53	16.95	-26.9	-28.6	14.8	3.80e-06	0	43	0	341835776	14	4347
2026-01-28 23:44:49.69	27.75	17.28	-26.8	-28.2	15.0	9.10e-06	0	43	0	350224384	14	4255
2026-01-28 23:44:52.70	27.97	17.61	-26.9	-29.0	14.9	3.58e-05	0	43	0	359661568	13	4573
2026-01-28 23:44:55.71	28.20	17.95	-27.1	-28.8	14.3	7.47e-05	0	43	0	370147328	14	4426
2026-01-28 23:44:58.73	28.43	18.29	-26.8	-28.8	15.0	6.71e-05	0	43	0	378535936	13	4530
2026-01-28 23:45:01.73	28.66	18.64	-27.1	-29.0	14.6	1.08e-03	0	43	0	387973120	14	4459
2026-01-28 23:45:04.75	28.91	18.99	-26.6	-28.3	15.3	1.78e-04	0	43	0	397410304	13	4390
2026-01-28 23:45:07.76	29.15	19.35	-26.6	-28.4	15.3	1.36e-03	0	43	0	406847488	13	4403
2026-01-28 23:45:10.76	29.41	19.71	-26.5	-28.0	15.5	1.15e-04	0	43	0	416284672	13	4294
2026-01-28 23:45:13.76	29.66	20.08	-26.8	-28.6	15.1	7.16e-04	0	43	0	425721856	13	4476
2026-01-28 23:45:16.77	29.93	20.45	-26.3	-27.6	15.8	6.32e-04	0	43	0	435159040	13	4189
2026-01-28 23:45:19.78	30.20	20.82	-26.4	-28.2	15.7	4.96e-04	0	43	0	444596224	12	4473
2026-01-28 23:45:22.79	30.47	21.20	-26.3	-28.0	15.8	5.88e-04	0	43	0	454033408	12	4401
2026-01-28 23:45:25.79	30.75	21.59	-26.2	-27.9	15.9	5.39e-04	0	43	0	463470592	12	4359
2026-01-28 23:45:28.80	31.04	21.98	-26.1	-27.7	16.0	3.93e-04	0	43	0	472907776	12	4311
2026-01-28 23:45:31.81	31.34	22.38	-26.2	-27.9	15.9	0.00e+00	0	43	0	482344960	12	4377
2026-01-28 23:45:34.82	31.65	22.78	-26.0	-27.5	16.1	0.00e+00	0	43	0	491782144	12	4264
2026-01-28 23:45:37.83	31.96	23.19	-25.9	-27.2	16.3	4.50e-04	0	43	0	501219328	12	4182
2026-01-28 23:45:40.83	32.28	23.60	-26.2	-27.8	16.0	0.00e+00	0	43	0	510656512	12	4342
2026-01-28 23:45:43.84	32.61	24.02	-25.7	-26.9	16.5	0.00e+00	0	43	0	520093696	12	4089
2026-01-28 23:45:46.86	32.94	24.45	-25.8	-27.0	16.5	0.00e+00	0	43	0	529530880	12	4119
2026-01-28 23:45:49.88	33.29	24.88	-25.7	-27.3	16.7	0.00e+00	0	43	0	538968064	11	4302
2026-01-28 23:45:52.89	33.65	25.32	-25.6	-27.1	16.8	0.00e+00	0	43	0	548405248	11	4250
2026-01-28 23:45:55.90	34.01	25.76	-25.7	-27.2	16.7	0.00e+00	0	43	0	557842432	11	4292
2026-01-28 23:45:58.91	34.39	26.21	-25.8	-27.4	16.6	0.00e+00	0	43	0	567279616	11	4336
2026-01-28 23:46:01.92	34.77	26.67	-25.9	-27.2	16.4	0.00e+00	0	43	0	576716800	12	4160
2026-01-28 23:46:04.93	35.17	27.14	-26.2	-27.7	16.2	0.00e+00	0	43	0	586153984	12	4314
2026-01-28 23:46:07.94	35.58	27.61	-26.3	-28.1	16.0	0.00e+00	0	43	0	595591168	12	4405
2026-01-28 23:46:10.95	36.00	28.08	-26.5	-28.4	15.8	0.00e+00	0	43	0	605028352	12	4498
2026-01-28 23:46:13.97	36.43	28.57	-26.6	-28.3	15.6	0.00e+00	0	43	0	614465536	13	4350
2026-01-28 23:46:16.97	36.87	29.06	-27.0	-28.7	15.1	6.10e-06	0	43	0	623902720	14	4367
2026-01-28 23:46:19.98	37.33	29.55	-27.1	-28.9	15.0	0.00e+00	0	43	0	633339904	14	4409
2026-01-28 23:46:23.00	37.81	30.06	-27.0	-28.6	15.2	7.00e-07	0	43	0	642777088	14	4319
2026-01-28 23:46:26.01	38.29	30.57	-26.9	-28.4	15.3	0.00e+00	0	43	0	652214272	14	4279
2026-01-28 23:46:29.02	38.80	31.09	-26.8	-28.2	15.4	2.20e-06	0	43	0	661651456	14	4234
2026-01-28 23:46:32.03	39.31	31.61	-26.8	-28.1	15.5	7.00e-07	0	43	0	671088640	14	4210
2026-01-28 23:46:35.03	39.85	32.14	-26.4	-27.3	16.0	7.00e-07	0	43	0	679477248	14	3989
2026-01-28 23:46:38.04	40.40	32.68	-26.6	-27.6	15.8	5.30e-06	0	44	0	688914432	14	4065
2026-01-28 23:46:41.04	40.97	33.23	-26.8	-28.2	15.5	0.00e+00	0	43	0	698351616	14	4220
2026-01-28 23:46:44.05	41.56	33.78	-27.2	-29.1	15.0	0.00e+00	0	43	0	707788800	14	4457
2026-01-28 23:46:47.05	42.17	34.34	-27.6	-29.5	14.5	1.50e-06	0	43	0	717225984	15	4488
2026-01-28 23:46:50.06	42.80	34.90	-28.2	-30.3	13.9	6.10e-06	0	43	0	726663168	16	4597
2026-01-28 23:46:53.07	43.45	35.48	-28.1	-30.1	14.0	9.90e-06	0	43	0	736100352	16	4545
2026-01-28 23:46:56.08	44.13	36.06	-28.7	-31.2	13.1	3.20e-05	0	43	0	745537536	17	4772
2026-01-28 23:46:59.09	44.83	36.64	-28.3	-30.1	13.8	4.73e-05	0	43	0	754974720	17	4412
2026-01-28 23:47:02.09	45.55	37.23	-28.2	-29.9	13.9	5.30e-06	0	43	0	764411904	17	4358
2026-01-28 23:47:05.10	46.31	37.83	-28.1	-29.6	14.1	4.50e-06	0	43	0	773849088	17	4271
2026-01-28 23:47:08.10	47.08	38.42	-28.2	-29.8	14.0	1.50e-06	0	43	0	783286272	17	4338
2026-01-28 23:47:11.11	47.89	39.03	-28.3	-30.1	13.8	5.30e-06	0	43	0	792723456	17	4423
2026-01-28 23:47:14.12	48.73	39.64	-28.1	-29.7	14.1	2.20e-06	0	43	0	802160640	17	4296
2026-01-28 23:47:17.13	49.60	40.26	-28.3	-30.0	13.9	7.00e-07	0	43	0	811597824	17	4385
2026-01-28 23:47:20.13	50.50	40.87	-28.4	-30.4	13.7	7.60e-06	0	43	0	821035008	17	4508
2026-01-28 23:47:23.14	51.44	41.49	-28.5	-30.5	13.6	8.30e-06	0	43	0	830472192	17	4540
2026-01-28 23:47:26.15	52.42	42.11	-28.5	-30.4	13.7	9.10e-06	0	43	0	839909376	17	4521
2026-01-28 23:47:29.17	53.43	42.74	-28.8	-31.3	13.2	1.98e-05	0	43	0	849346560	17	4780
2026-01-28 23:47:32.18	54.49	43.36	-29.0	-31.3	12.9	4.42e-05	0	43	0	858783744	18	4674
2026-01-28 23:47:35.19	55.58	43.99	-29.1	-31.4	12.9	4.19e-05	0	43	0	868220928	18	4709
2026-01-28 23:47:38.20	56.72	44.61	-29.0	-31.2	13.0	4.50e-05	0	43	0	877658112	18	4639
2026-01-28 23:47:41.21	57.90	45.23	-28.6	-30.3	13.6	9.90e-06	0	43	0	887095296	18	4360
2026-01-28 23:47:44.22	59.13	45.84	-29.0	-31.2	13.0	4.27e-05	0	43	0	896532480	18	4629
2026-01-28 23:47:47.24	60.41	46.45	-29.0	-31.2	13.0	3.89e-05	0	44	0	905969664	18	4637
2026-01-28 23:47:50.26	61.74	47.06	-29.1	-31.6	12.7	4.95e-05	0	43	0	915406848	18	4766
2026-01-28 23:47:53.27	63.12	47.65	-29.0	-31.1	13.2	5.34e-05	0	43	0	924844032	18	4619
2026-01-28 23:47:56.29	64.55	48.24	-28.8	-30.7	13.3	2.13e-05	0	43	0	934281216	18	4479
2026-01-28 23:47:59.30	66.04	48.81	-28.6	-30.2	13.6	8.30e-06	0	43	0	943718400	18	4333
2026-01-28 23:48:02.30	67.57	49.37	-29.3	-32.0	12.6	1.14e-04	0	44	0	953155584	18	4914
2026-01-28 23:48:05.32	69.18	49.91	-28.4	-29.7	14.0	2.20e-06	0	43	0	962592768	18	4189
2026-01-28 23:48:08.33	70.83	50.44	-27.8	-29.3	14.8	0.00e+00	0	43	0	972029952	16	4291
2026-01-28 23:48:11.33	72.53	50.94	-28.0	-29.7	14.6	0.00e+00	0	43	0	980418560	16	4402
2026-01-28 23:48:14.32	74.29	51.42	-28.0	-29.8	14.5	0.00e+00	0	44	0	989855744	16	4433
2026-01-28 23:48:17.32	76.10	51.88	-28.3	-30.6	14.0	4.50e-06	0	44	0	999292928	16	4676
2026-01-28 23:48:20.33	77.98	52.31	-28.3	-30.5	14.1	7.00e-07	0	43	0	1008730112	16	4638
2026-01-28 23:48:23.34	79.91	52.72	-28.2	-29.7	14.2	0.00e+00	0	43	0	1018167296	17	4299
2026-01-28 23:48:26.35	81.90	53.09	-28.7	-31.0	13.3	1.60e-05	0	44	0	1027604480	17	4702
2026-01-28 23:48:29.36	83.93	53.44	-28.7	-30.9	13.6	9.10e-06	0	43	0	1037041664	17	4633
2026-01-28 23:48:32.37	86.01	53.74	-28.8	-31.1	13.4	2.74e-05	0	43	0	1046478848	17	4724
2026-01-28 23:48:35.37	88.12	54.01	-28.4	-30.2	14.0	1.50e-06	0	43	0	1055916032	17	4437
2026-01-28 23:48:38.40	90.30	54.25	-27.6	-28.9	15.0	0.00e+00	0	44	0	1065353216	16	4175
2026-01-28 23:48:41.41	92.49	54.44	-27.5	-28.6	15.2	0.00e+00	0	43	0	1074790400	16	4085
2026-01-28 23:48:44.43	94.71	54.59	-27.0	-28.0	15.6	0.00e+00	0	44	0	1084227584	15	4051
2026-01-28 23:48:47.44	96.95	54.70	-27.2	-28.4	15.4	0.00e+00	0	43	0	1093664768	15	4154
2026-01-28 23:48:50.46	99.21	54.77	-27.6	-29.5	14.8	0.00e+00	0	43	0	1103101952	15	4472
2026-01-28 23:48:53.47	101.46	54.79	-27.4	-29.1	15.0	7.00e-07	0	44	0	1112539136	15	4338
2026-01-28 23:48:56.48	103.72	54.77	-27.4	-29.0	15.1	0.00e+00	0	44	0	1121976320	15	4317
2026-01-28 23:48:59.49	105.97	54.70	-27.1	-28.3	15.5	0.00e+00	0	44	0	1131413504	15	4129
2026-01-28 23:49:02.50	108.21	54.59	-27.0	-28.1	15.6	0.00e+00	0	44	0	1140850688	15	4075
2026-01-28 23:49:05.51	110.43	54.44	-26.9	-27.8	15.8	0.00e+00	0	44	0	1150287872	15	3989
2026-01-28 23:49:08.52	112.62	54.25	-27.2	-28.5	15.4	0.00e+00	0	44	0	1159725056	15	4186
2026-01-28 23:49:11.53	114.78	54.02	-27.1	-28.3	15.5	0.00e+00	0	44	0	1169162240	15	4114
2026-01-28 23:49:14.55	116.92	53.75	-27.5	-29.3	15.0	0.00e+00	0	44	0	1178599424	15	4383
2026-01-28 23:49:17.57	119.01	53.44	-27.0	-28.0	15.7	0.00e+00	0	44	0	1188036608	15	4045
2026-01-28 23:49:20.57	121.04	53.10	-26.7	-27.9	16.0	0.00e+00	0	43	0	1197473792	14	4135
2026-01-28 23:49:23.59	123.03	52.72	-27.3	-29.1	15.4	0.00e+00	0	43	0	1206910976	14	4451
2026-01-28 23:49:26.60	124.97	52.32	-27.9	-30.1	14.5	1.50e-06	0	44	0	1216348160	15	4636
2026-01-28 23:49:29.62	126.86	51.88	-28.0	-29.4	14.5	0.00e+00	0	44	0	1225785344	17	4198
2026-01-28 23:49:32.63	128.68	51.42	-28.3	-29.9	14.2	1.50e-06	0	44	0	1235222528	17	4352
2026-01-28 23:49:35.63	130.45	50.94	-28.0	-29.9	14.5	1.99e-04	0	43	0	1244659712	16	4456
2026-01-28 23:49:38.64	132.16	50.43	-28.9	-31.5	13.2	9.90e-06	0	43	0	1254096896	17	4845
2026-01-28 23:49:41.64	133.81	49.91	-29.2	-31.2	12.7	1.59e-04	0	44	0	1263534080	19	4564
2026-01-28 23:49:44.65	135.41	49.36	-28.8	-30.3	13.4	9.38e-05	0	44	0	1272971264	19	4250
2026-01-28 23:49:47.66	136.96	48.80	-29.0	-31.2	13.1	8.31e-04	0	44	0	1282408448	18	4640
2026-01-28 23:49:50.67	138.45	48.23	-28.9	-30.9	13.3	2.28e-04	0	43	0	1291845632	18	4532
2026-01-28 23:49:53.69	139.89	47.64	-29.0	-31.1	13.2	9.45e-04	0	43	0	1300234240	18	4602
2026-01-28 23:49:56.70	141.27	47.04	-29.0	-31.3	13.0	1.06e-03	0	43	0	1310720000	18	4703
2026-01-28 23:49:59.71	142.60	46.44	-29.0	-31.2	13.1	2.97e-05	0	43	0	1320157184	18	4633
2026-01-28 23:50:02.73	143.88	45.82	-29.0	-31.2	13.1	3.58e-05	0	43	0	1328545792	18	4640
2026-01-28 23:50:05.73	145.11	45.21	-29.4	-32.2	12.4	2.34e-04	0	43	0	1337982976	18	4981
2026-01-28 23:50:08.74	146.30	44.58	-29.2	-31.6	12.8	5.56e-05	0	43	0	1347420160	18	4763
2026-01-28 23:50:11.74	147.43	43.96	-28.9	-31.0	13.2	2.98e-04	0	43	0	1356857344	18	4560
2026-01-28 23:50:14.75	148.53	43.34	-28.5	-30.0	13.8	6.10e-06	0	43	0	1366294528	18	4260
2026-01-28 23:50:17.76	149.59	42.71	-29.2	-31.7	12.7	7.78e-05	0	43	0	1375731712	18	4822
2026-01-28 23:50:20.77	150.60	42.08	-29.0	-31.3	13.0	7.01e-05	0	43	0	1385168896	18	4663
2026-01-28 23:50:23.79	151.58	41.45	-28.9	-31.0	13.2	1.06e-05	0	44	0	1394606080	18	4578
2026-01-28 23:50:26.78	152.52	40.83	-28.6	-30.4	13.5	1.44e-05	0	44	0	1404043264	18	4391
2026-01-28 23:50:29.79	153.42	40.21	-28.6	-30.2	13.6	9.10e-06	0	43	0	1413480448	18	4337
2026-01-28 23:50:32.80	154.30	39.60	-28.9	-31.1	13.1	3.05e-05	0	43	0	1422917632	18	4617
2026-01-28 23:50:35.81	155.14	38.98	-28.1	-29.5	14.3	1.50e-06	0	43	0	1432354816	17	4258
2026-01-28 23:50:38.81	155.95	38.37	-28.6	-30.9	13.5	1.44e-05	0	43	0	1441792000	17	4661
2026-01-28 23:50:41.83	156.73	37.77	-28.4	-30.3	13.8	6.10e-06	0	43	0	1451229184	17	4469
2026-01-28 23:50:44.83	157.48	37.17	-28.0	-29.3	14.3	7.00e-07	0	44	0	1460666368	17	4176
2026-01-28 23:50:47.85	158.21	36.57	-27.8	-29.3	14.7	7.00e-07	0	44	0	1470103552	16	4296
2026-01-28 23:50:50.86	158.91	35.98	-27.6	-29.0	14.8	7.00e-07	0	44	0	1479540736	16	4202
2026-01-28 23:50:53.87	159.59	35.40	-27.3	-28.8	15.0	7.00e-07	0	44	0	1488977920	15	4268
2026-01-28 23:50:56.88	160.24	34.83	-27.4	-29.0	14.9	2.20e-06	0	44	0	1498415104	15	4338
2026-01-28 23:50:59.88	160.87	34.26	-27.1	-28.7	15.3	7.00e-07	0	44	0	1507852288	14	4354
2026-01-28 23:51:02.89	161.49	33.70	-27.5	-29.4	14.7	0.00e+00	0	44	0	1517289472	15	4431
2026-01-28 23:51:05.91	162.08	33.14	-28.1	-30.2	14.1	2.20e-06	0	43	0	1526726656	16	4568
2026-01-28 23:51:08.91	162.65	32.59	-27.5	-29.3	14.6	0.00e+00	0	44	0	1536163840	15	4420
2026-01-28 23:51:11.92	163.20	32.05	-26.6	-28.2	15.8	0.00e+00	0	44	0	1545601024	13	4318
2026-01-28 23:51:14.94	163.74	31.51	-26.5	-28.0	15.9	4.50e-06	0	44	0	1555038208	13	4287
2026-01-28 23:51:17.95	164.26	30.98	-26.7	-28.4	15.7	6.31e-04	0	44	0	1564475392	13	4402
2026-01-28 23:51:20.97	164.76	30.46	-26.9	-29.0	15.3	0.00e+00	0	44	0	1573912576	13	4584
2026-01-28 23:51:23.99	165.25	29.95	-26.8	-28.7	15.5	5.42e-04	0	43	0	1583349760	13	4481
2026-01-28 23:51:27.00	165.72	29.44	-26.7	-28.4	15.6	0.00e+00	0	43	0	1592786944	13	4391
2026-01-28 23:51:30.02	166.18	28.94	-26.8	-28.7	15.5	3.60e-04	0	44	0	1602224128	13	4480
2026-01-28 23:51:33.02	166.63	28.45	-26.4	-28.2	16.0	5.38e-04	0	43	0	1611661312	12	4454
2026-01-28 23:51:36.03	167.06	27.96	-26.4	-28.4	15.9	6.06e-04	0	43	0	1620049920	12	4490
2026-01-28 23:51:39.03	167.47	27.48	-27.4	-29.5	14.8	6.38e-04	0	44	0	1629487104	14	4601
2026-01-28 23:51:42.05	167.88	27.01	-27.5	-29.3	14.6	7.00e-07	0	43	0	1638924288	15	4417
2026-01-28 23:51:45.06	168.28	26.54	-27.1	-28.9	15.1	7.92e-04	0	44	0	1648361472	14	4432
2026-01-28 23:51:48.06	168.66	26.08	-27.0	-28.6	15.3	0.00e+00	0	44	0	1657798656	14	4320
2026-01-28 23:51:51.07	169.04	25.63	-26.2	-27.9	16.2	0.00e+00	0	44	0	1667235840	12	4364
2026-01-28 23:51:54.09	169.40	25.18	-26.5	-28.1	15.8	0.00e+00	0	43	0	1676673024	13	4291
2026-01-28 23:51:57.11	169.76	24.74	-26.5	-28.0	15.8	0.00e+00	0	44	0	1686110208	13	4287
2026-01-28 23:52:00.12	170.10	24.31	-26.3	-28.1	16.0	0.00e+00	0	43	0	1695547392	12	4425
2026-01-28 23:52:03.12	170.44	23.88	-26.1	-27.2	16.3	0.00e+00	0	44	0	1704984576	13	4061
2026-01-28 23:52:06.13	170.77	23.46	-26.2	-27.7	16.2	0.00e+00	0	43	0	1714421760	12	4308
2026-01-28 23:52:09.13	171.08	23.04	-26.2	-27.9	16.2	0.00e+00	0	43	0	1723858944	12	4355
2026-01-28 23:52:12.14	171.39	22.63	-26.3	-28.1	16.0	0.00e+00	0	44	0	1733296128	12	4406
2026-01-28 23:52:15.17	171.70	22.23	-26.3	-28.0	16.0	0.00e+00	0	44	0	1742733312	12	4392
2026-01-28 23:52:18.18	172.00	21.83	-26.3	-28.1	16.0	4.24e-04	0	44	0	1752170496	12	4420
2026-01-28 23:52:21.18	172.28	21.43	-26.4	-28.2	15.9	0.00e+00	0	43	0	1761607680	12	4451
2026-01-28 23:52:24.19	172.57	21.05	-26.5	-27.9	15.8	5.11e-04	0	43	0	1771044864	13	4260
2026-01-28 23:52:27.19	172.84	20.66	-26.6	-28.2	15.7	5.87e-04	0	43	0	1780482048	13	4326
2026-01-28 23:52:30.21	173.11	20.29	-26.5	-28.0	15.7	5.88e-04	0	43	0	1789919232	13	4296
2026-01-28 23:52:33.21	173.37	19.91	-26.4	-27.8	15.8	4.37e-04	0	43	0	1799356416	13	4227
2026-01-28 23:52:36.22	173.63	19.55	-26.3	-28.0	16.0	0.00e+00	0	43	0	1808793600	12	4396
2026-01-28 23:52:39.23	173.88	19.18	-26.4	-28.4	15.8	4.32e-04	0	44	0	1818230784	12	4500
2026-01-28 23:52:42.23	174.12	18.83	-26.5	-28.1	15.7	5.49e-04	0	43	0	1827667968	13	4314
2026-01-28 23:52:45.24	174.36	18.47	-26.5	-28.1	15.6	5.97e-04	0	43	0	1837105152	13	4324
2026-01-28 23:52:48.25	174.60	18.12	-26.8	-28.8	15.3	6.33e-04	0	43	0	1846542336	13	4506
2026-01-28 23:52:51.26	174.83	17.78	-26.6	-28.3	15.5	0.00e+00	0	44	0	1855979520	13	4366
2026-01-28 23:52:54.28	175.05	17.44	-26.8	-28.8	15.2	5.40e-04	0	44	0	1865416704	13	4519
2026-01-28 23:52:57.30	175.27	17.10	-26.9	-28.6	15.0	0.00e+00	0	43	0	1874853888	14	4371
2026-01-28 23:53:00.32	175.49	16.77	-27.1	-29.0	14.8	0.00e+00	0	44	0	1884291072	14	4468
2026-01-28 23:53:03.33	175.70	16.44	-27.0	-28.8	14.9	0.00e+00	0	43	0	1893728256	14	4423
2026-01-28 23:53:06.34	175.91	16.12	-27.1	-29.0	14.7	7.00e-07	0	43	0	1903165440	14	4488
2026-01-28 23:53:09.35	176.11	15.80	-27.0	-28.8	14.9	0.00e+00	0	44	0	1912602624	14	4411
2026-01-28 23:53:12.36	176.31	15.48	-27.1	-28.9	14.8	0.00e+00	0	44	0	1922039808	14	4447
2026-01-28 23:53:15.36	176.50	15.17	-27.2	-29.1	14.7	0.00e+00	0	44	0	1931476992	14	4498
2026-01-28 23:53:18.37	176.69	14.86	-27.2	-29.2	14.6	1.50e-06	0	43	0	1940914176	14	4530
2026-01-28 23:53:21.38	176.88	14.55	-27.2	-29.2	14.5	0.00e+00	0	43	0	1949302784	14	4544
2026-01-28 23:53:24.40	177.06	14.25	-27.2	-29.3	14.6	7.00e-07	0	43	0	1958739968	14	4554
2026-01-28 23:53:27.40	177.24	13.96	-27.3	-29.5	14.4	0.00e+00	0	44	0	1968177152	14	4614
2026-01-28 23:53:30.40	177.42	13.66	-27.4	-29.6	14.3	3.80e-06	0	43	0	1977614336	14	4664
2026-01-28 23:53:33.40	177.59	13.37	-27.6	-29.5	14.1	3.80e-06	0	44	0	1987051520	15	4516
2026-01-28 23:53:36.42	177.76	13.08	-27.6	-29.7	13.9	3.00e-06	0	43	0	1996488704	15	4587
2026-01-28 23:53:39.43	177.93	12.80	-27.5	-29.5	14.0	3.00e-06	0	43	0	2005925888	15	4506
2026-01-28 23:53:42.45	178.09	12.52	-27.5	-29.9	13.7	0.00e+00	0	43	0	2015363072	14	4737
2026-01-28 23:53:45.47	178.25	12.24	-27.7	-30.0	13.7	4.19e-05	0	43	0	2024800256	15	4660
2026-01-28 23:53:48.47	178.41	11.96	-27.6	-29.5	14.0	2.20e-06	0	43	0	2034237440	15	4527
2026-01-28 23:53:51.48	178.57	11.69	-27.4	-29.6	14.2	1.33e-03	0	44	0	2043674624	14	4650
2026-01-28 23:53:54.49	178.72	11.42	-27.4	-29.7	14.1	1.50e-06	0	44	0	2053111808	14	4691
2026-01-28 23:53:57.51	178.87	11.15	-27.8	-30.0	13.6	1.16e-03	0	43	0	2062548992	15	4682
2026-01-28 23:54:00.52	179.02	10.89	-27.8	-30.1	13.6	1.32e-03	0	43	0	2071986176	15	4695
2026-01-28 23:54:03.53	179.17	10.62	-27.9	-30.3	13.4	1.17e-03	0	44	0	2081423360	15	4778
2026-01-28 23:54:06.55	179.31	10.36	-28.3	-30.7	13.1	1.17e-03	0	44	0	2090860544	16	4771
2026-01-28 23:54:09.56	179.45	10.11	-28.3	-30.7	13.0	5.72e-05	0	43	0	2100297728	16	4777
2026-01-28 23:54:12.58	179.59	9.85	-28.2	-30.7	13.0	1.28e-03	0	43	0	2109734912	16	4776
2026-01-28 23:54:15.58	179.73	9.60	-28.9	-31.9	11.9	1.30e-03	0	43	0	2119172096	17	5062
2026-01-28 23:54:18.61	179.86	9.35	-29.3	-32.3	11.3	1.21e-03	0	43	0	2128609280	18	5113
2026-01-28 23:54:21.61	179.99	9.10	-29.2	-32.1	11.5	1.14e-03	0	44	0	2138046464	18	5040
2026-01-28 23:54:24.63	180.12	8.86	-29.4	-32.6	11.1	1.82e-03	0	44	0	2147483648	18	5236
2026-01-28 23:54:27.65	180.25	8.62	-29.6	-32.7	10.7	4.96e-03	0	43	0	2156920832	19	5148
2026-01-28 23:54:30.66	180.38	8.38	-28.8	-31.8	11.9	5.53e-04	0	44	0	2166358016	17	5030
2026-01-28 23:54:33.68	180.50	8.14	-29.1	-31.9	11.5	1.12e-03	0	43	0	2175795200	18	4977
2026-01-28 23:54:36.69	180.62	7.90	-29.0	-31.6	11.7	1.11e-03	0	44	0	2185232384	18	4864
2026-01-28 23:54:39.70	180.74	7.67	-28.6	-31.3	12.1	7.53e-04	0	44	0	2194669568	17	4889
2026-01-28 23:54:42.71	180.86	7.44	-28.7	-31.4	12.0	9.53e-04	0	43	0	2204106752	17	4926
2026-01-28 23:54:45.71	180.98	7.21	-28.5	-31.3	12.4	7.87e-04	0	43	0	2213543936	16	5021
2026-01-28 23:54:48.72	181.09	6.98	-32.6	-44.9	3.8	1.49e+00	0	44	104	2218786816	25	14706

#Closed at: 2026-01-28 23:54:51
#Recorded file [2218 MB]: D:/data/31010_260129_024257.dat