passes_logs/2026/01/28/R2M6_AANII_01/R2M6_AANII_01__20260128_021204_SUOMI_NPP_rec.log

#Pass ID: 20260128_021204_SUOMI NPP
#Satellite: SUOMI NPP
#Configuration: NPP
#almurnet v.1.7.20240730
#Start time: 2026-01-28 02:12:04

#Version: 2.2.20231116
#Station: R2M6_AANII_01
#Location: 30.233357 lon 59.946436 lat
#TLE: 1 37849U 11061A   26027.50945616  .00000185  00000+0  10897-3 0  9994
#TLE: 2 37849  98.7823 329.4511 0002105  42.1421 317.9917 14.19530771738482

#Time	Az	El	Level	Level2	SNR	BER	BlckErr	Temp	State	Recorded	gain1	gain2
2026-01-28 02:12:04.95	10.84	7.05	-32.6	-40.5	4.1	1.46e+00	0	40	0	0	25	8902
2026-01-28 02:12:07.97	10.58	7.24	-32.5	-39.3	5.4	5.33e-01	0	41	0	1048576	25	7844
2026-01-28 02:12:10.97	10.33	7.44	-32.6	-39.8	5.1	5.98e-01	0	41	0	7340032	25	8242
2026-01-28 02:12:13.98	10.06	7.64	-32.5	-39.1	5.5	6.20e-01	0	41	0	12582912	25	7664
2026-01-28 02:12:16.99	9.80	7.84	-32.0	-36.7	7.5	1.29e-01	0	41	0	17825792	24	6200
2026-01-28 02:12:20.00	9.53	8.05	-31.4	-34.6	9.7	1.64e-02	0	41	0	24117248	23	5191
2026-01-28 02:12:23.00	9.25	8.25	-31.3	-34.8	9.9	1.03e-02	0	41	0	29360128	22	5367
2026-01-28 02:12:26.00	8.98	8.45	-31.4	-35.1	9.7	1.12e-02	0	41	0	35651584	22	5518
2026-01-28 02:12:29.00	8.69	8.66	-31.5	-34.9	9.5	1.56e-02	0	41	0	40894464	23	5322
2026-01-28 02:12:32.02	8.41	8.86	-31.4	-34.3	9.9	8.80e-03	0	41	0	46137344	23	5064
2026-01-28 02:12:35.03	8.12	9.07	-31.3	-34.5	10.2	6.93e-03	0	41	0	52428800	22	5220
2026-01-28 02:12:38.05	7.82	9.28	-31.2	-34.2	10.5	5.47e-03	0	41	0	57671680	22	5084
2026-01-28 02:12:41.04	7.52	9.49	-31.3	-34.6	10.2	6.00e-03	0	42	0	62914560	22	5275
2026-01-28 02:12:44.05	7.22	9.70	-31.4	-35.0	9.8	7.41e-03	0	41	0	69206016	22	5455
2026-01-28 02:12:47.07	6.91	9.91	-31.3	-34.0	10.2	7.23e-03	0	42	0	74448896	23	4942
2026-01-28 02:12:50.08	6.60	10.12	-31.2	-34.2	10.5	4.02e-03	0	42	0	80740352	22	5084
2026-01-28 02:12:53.08	6.28	10.33	-31.1	-34.0	10.7	2.92e-03	0	42	0	85983232	22	5000
2026-01-28 02:12:56.09	5.96	10.55	-31.4	-35.0	9.9	5.23e-03	0	42	0	91226112	22	5442
2026-01-28 02:12:59.11	5.63	10.76	-31.5	-34.7	9.9	1.03e-02	0	42	0	97517568	23	5198
2026-01-28 02:13:02.11	5.30	10.98	-31.0	-33.6	11.1	1.51e-03	0	42	0	102760448	22	4834
2026-01-28 02:13:05.12	4.96	11.19	-31.0	-33.6	11.1	1.67e-03	0	42	0	109051904	22	4828
2026-01-28 02:13:08.12	4.62	11.41	-30.9	-33.6	11.4	1.02e-03	0	42	0	114294784	21	4931
2026-01-28 02:13:11.12	4.27	11.63	-31.0	-33.9	11.2	1.18e-03	0	42	0	119537664	21	5023
2026-01-28 02:13:14.13	3.92	11.85	-30.9	-33.2	11.4	1.50e-03	0	42	0	125829120	22	4673
2026-01-28 02:13:17.15	3.56	12.07	-30.5	-32.4	12.3	2.07e-04	0	42	0	131072000	21	4472
2026-01-28 02:13:20.17	3.19	12.29	-30.7	-33.1	11.9	2.67e-04	0	42	0	136314880	21	4712
2026-01-28 02:13:23.17	2.82	12.51	-30.9	-33.5	11.5	6.84e-04	0	42	0	142606336	21	4857
2026-01-28 02:13:26.18	2.45	12.74	-31.0	-33.3	11.4	1.07e-03	0	42	0	147849216	22	4712
2026-01-28 02:13:29.19	2.06	12.96	-31.0	-33.5	11.3	1.03e-03	0	42	0	154140672	22	4761
2026-01-28 02:13:32.20	1.68	13.18	-31.0	-33.5	10.9	8.14e-04	0	42	0	159383552	22	4780
2026-01-28 02:13:35.21	1.28	13.41	-31.1	-33.8	11.1	1.38e-03	0	42	0	164626432	22	4888
2026-01-28 02:13:38.23	0.88	13.64	-30.8	-33.4	11.7	6.71e-04	0	42	0	170917888	21	4820
2026-01-28 02:13:41.24	0.47	13.86	-30.4	-32.6	12.6	1.08e-04	0	42	0	176160768	20	4621
2026-01-28 02:13:44.26	0.06	14.09	-30.4	-32.5	12.7	6.02e-05	0	42	0	182452224	20	4611
2026-01-28 02:13:47.26	359.64	14.32	-30.3	-32.4	12.8	2.63e-03	0	42	0	187695104	20	4561
2026-01-28 02:13:50.26	359.22	14.54	-30.4	-32.6	12.6	2.57e-03	0	42	0	192937984	20	4629
2026-01-28 02:13:53.29	358.78	14.77	-30.3	-32.2	13.0	2.31e-03	0	42	0	199229440	20	4493
2026-01-28 02:13:56.30	358.34	15.00	-30.5	-32.4	12.5	2.63e-03	0	42	0	204472320	21	4465
2026-01-28 02:13:59.31	357.89	15.23	-30.6	-32.6	12.4	1.10e-04	0	42	0	209715200	21	4534
2026-01-28 02:14:02.33	357.44	15.46	-30.4	-32.6	12.7	9.38e-05	0	42	0	216006656	20	4614
2026-01-28 02:14:05.34	356.98	15.69	-30.4	-32.4	12.8	2.53e-03	0	42	0	221249536	20	4570
2026-01-28 02:14:08.36	356.51	15.93	-30.7	-32.9	12.1	2.42e-03	0	42	0	227540992	21	4641
2026-01-28 02:14:11.38	356.03	16.16	-30.5	-32.3	12.6	2.17e-03	0	43	0	232783872	21	4423
2026-01-28 02:14:14.39	355.55	16.39	-30.4	-32.6	12.8	2.39e-03	0	42	0	238026752	20	4632
2026-01-28 02:14:17.41	355.05	16.62	-30.7	-32.8	12.2	2.10e-03	0	42	0	244318208	21	4612
2026-01-28 02:14:20.42	354.55	16.85	-30.8	-33.3	11.9	2.16e-03	0	42	0	249561088	21	4779
2026-01-28 02:14:23.43	354.05	17.08	-30.9	-33.4	11.9	4.62e-04	0	43	0	255852544	21	4811
2026-01-28 02:14:26.44	353.53	17.31	-30.8	-33.1	12.1	2.01e-03	0	43	0	261095424	21	4709
2026-01-28 02:14:29.45	353.01	17.54	-30.8	-33.3	12.1	1.99e-03	0	43	0	266338304	21	4765
2026-01-28 02:14:32.46	352.48	17.77	-30.8	-33.2	12.0	2.00e-03	0	43	0	272629760	21	4721
2026-01-28 02:14:35.47	351.94	18.00	-30.7	-32.8	12.3	1.07e-03	0	43	0	277872640	21	4605
2026-01-28 02:14:38.48	351.39	18.23	-30.8	-33.1	12.1	2.18e-04	0	43	0	283115520	21	4710
2026-01-28 02:14:41.51	350.83	18.46	-30.9	-33.4	11.9	4.23e-04	0	43	0	289406976	21	4796
2026-01-28 02:14:44.51	350.27	18.69	-30.7	-32.8	12.3	2.87e-04	0	43	0	294649856	21	4598
2026-01-28 02:14:47.52	349.69	18.92	-30.9	-33.5	12.0	2.80e-04	0	43	0	300941312	21	4834
2026-01-28 02:14:50.53	349.11	19.14	-30.8	-33.1	12.2	2.46e-04	0	43	0	306184192	21	4696
2026-01-28 02:14:53.53	348.52	19.37	-30.9	-32.7	12.2	3.41e-04	0	42	0	311427072	22	4444
2026-01-28 02:14:56.55	347.92	19.59	-30.9	-33.3	12.0	2.20e-04	0	43	0	317718528	21	4769
2026-01-28 02:14:59.57	347.31	19.81	-31.3	-33.9	11.4	9.27e-04	0	43	0	322961408	22	4884
2026-01-28 02:15:02.59	346.69	20.03	-30.9	-32.4	12.0	4.96e-04	0	43	0	329252864	23	4261
2026-01-28 02:15:05.59	346.07	20.25	-30.4	-31.8	13.1	2.67e-05	0	43	0	334495744	21	4261
2026-01-28 02:15:08.60	345.43	20.47	-30.5	-32.2	12.5	5.26e-05	0	43	0	339738624	21	4394
2026-01-28 02:15:11.61	344.79	20.69	-30.0	-31.4	13.7	1.90e-05	0	43	0	346030080	20	4220
2026-01-28 02:15:14.62	344.13	20.90	-29.7	-31.0	14.2	2.20e-06	0	43	0	351272960	19	4204
2026-01-28 02:15:17.64	343.47	21.11	-29.9	-31.6	13.9	2.29e-03	0	43	0	357564416	19	4380
2026-01-28 02:15:20.65	342.79	21.32	-30.0	-31.7	13.9	2.25e-03	0	43	0	362807296	19	4392
2026-01-28 02:15:23.65	342.11	21.52	-29.8	-31.3	14.2	2.50e-03	0	43	0	368050176	19	4263
2026-01-28 02:15:26.67	341.42	21.73	-30.2	-31.8	13.5	1.14e-05	0	43	0	374341632	20	4331
2026-01-28 02:15:29.67	340.72	21.93	-29.6	-30.7	14.5	7.00e-07	0	43	0	379584512	19	4105
2026-01-28 02:15:32.69	340.01	22.13	-29.2	-30.3	15.0	0.00e+00	0	43	0	384827392	18	4076
2026-01-28 02:15:35.69	339.29	22.32	-29.4	-30.8	14.8	2.38e-03	0	43	0	391118848	18	4231
2026-01-28 02:15:38.71	338.56	22.51	-29.2	-30.2	15.2	2.17e-03	0	43	0	396361728	18	4040
2026-01-28 02:15:41.72	337.83	22.70	-29.5	-30.9	14.8	2.42e-03	0	43	0	402653184	18	4231
2026-01-28 02:15:44.73	337.08	22.88	-29.1	-30.1	15.3	2.39e-03	0	43	0	407896064	18	4003
2026-01-28 02:15:47.74	336.33	23.06	-29.4	-30.7	15.0	2.10e-03	0	43	0	413138944	18	4171
2026-01-28 02:15:50.75	335.56	23.24	-29.9	-31.5	14.0	2.20e-06	0	43	0	419430400	19	4336
2026-01-28 02:15:53.76	334.79	23.41	-29.7	-31.0	14.4	2.29e-03	0	43	0	424673280	19	4182
2026-01-28 02:15:56.77	334.01	23.57	-29.6	-30.7	14.6	2.06e-03	0	43	0	430964736	19	4085
2026-01-28 02:15:59.78	333.22	23.73	-29.5	-30.5	14.7	2.20e-03	0	43	0	436207616	19	4033
2026-01-28 02:16:02.79	332.43	23.89	-29.4	-30.1	15.0	2.18e-03	0	43	0	441450496	19	3928
2026-01-28 02:16:05.80	331.62	24.04	-29.1	-30.0	15.3	2.02e-03	0	43	0	447741952	18	3991
2026-01-28 02:16:08.82	330.81	24.19	-29.3	-30.5	15.1	0.00e+00	0	43	0	452984832	18	4117
2026-01-28 02:16:11.82	329.99	24.33	-29.0	-30.1	15.6	0.00e+00	0	43	0	458227712	17	4101
2026-01-28 02:16:14.83	329.16	24.46	-29.4	-30.6	14.9	0.00e+00	0	43	0	464519168	18	4149
2026-01-28 02:16:17.83	328.33	24.59	-29.1	-30.0	15.3	1.68e-03	0	43	0	469762048	18	3983
2026-01-28 02:16:20.84	327.49	24.71	-28.9	-29.4	15.6	8.16e-05	0	43	0	476053504	18	3835
2026-01-28 02:16:23.85	326.64	24.83	-29.2	-30.1	15.2	1.31e-04	0	43	0	481296384	18	4022
2026-01-28 02:16:26.85	325.79	24.94	-29.5	-30.4	14.6	0.00e+00	0	43	0	486539264	19	4007
2026-01-28 02:16:29.86	324.93	25.04	-29.9	-31.4	14.1	3.00e-06	0	43	0	492830720	19	4299
2026-01-28 02:16:32.86	324.07	25.14	-31.1	-33.3	11.9	2.26e-04	0	43	0	498073600	22	4653
2026-01-28 02:16:35.88	323.19	25.23	-30.2	-31.7	13.6	1.90e-05	0	43	0	503316480	20	4297
2026-01-28 02:16:38.90	322.32	25.31	-30.0	-31.3	13.9	2.20e-06	0	43	0	509607936	20	4179
2026-01-28 02:16:41.91	321.44	25.39	-30.5	-32.1	12.9	3.35e-05	0	43	0	514850816	21	4356
2026-01-28 02:16:44.92	320.55	25.46	-30.3	-31.5	13.3	2.59e-05	0	43	0	521142272	21	4165
2026-01-28 02:16:47.93	319.67	25.52	-29.9	-31.0	14.0	3.80e-06	0	43	0	526385152	20	4086
2026-01-28 02:16:50.93	318.78	25.57	-30.7	-32.9	12.1	1.20e-04	0	43	0	531628032	21	4631
2026-01-28 02:16:53.95	317.88	25.62	-30.2	-31.9	13.3	2.36e-05	0	43	0	537919488	20	4392
2026-01-28 02:16:56.96	316.98	25.66	-30.0	-31.2	13.8	6.10e-06	0	43	0	543162368	20	4166
2026-01-28 02:16:59.97	316.09	25.69	-30.2	-32.0	13.4	6.10e-06	0	43	0	549453824	20	4396
2026-01-28 02:17:02.98	315.19	25.71	-30.6	-32.5	12.7	2.89e-04	0	43	0	554696704	21	4474
2026-01-28 02:17:05.99	314.29	25.73	-30.3	-32.2	13.3	2.67e-05	0	43	0	559939584	20	4455
2026-01-28 02:17:08.99	313.39	25.73	-30.4	-31.9	13.0	3.43e-05	0	43	0	566231040	21	4295
2026-01-28 02:17:12.00	312.49	25.73	-30.0	-31.2	13.8	6.10e-06	0	43	0	571473920	20	4153
2026-01-28 02:17:15.02	311.58	25.73	-30.2	-31.7	13.6	3.80e-06	0	43	0	576716800	20	4308
2026-01-28 02:17:18.03	310.68	25.71	-30.5	-32.3	12.8	4.88e-05	0	43	0	583008256	21	4399
2026-01-28 02:17:21.04	309.78	25.69	-30.7	-32.9	12.4	3.22e-04	0	43	0	588251136	21	4635
2026-01-28 02:17:24.04	308.88	25.66	-30.5	-32.6	12.9	5.35e-04	0	43	0	594542592	20	4609
2026-01-28 02:17:27.05	307.99	25.62	-29.5	-30.5	14.6	5.10e-04	0	43	0	599785472	19	4030
2026-01-28 02:17:30.07	307.09	25.57	-29.4	-30.7	14.9	7.65e-04	0	43	0	605028352	18	4189
2026-01-28 02:17:33.07	306.20	25.52	-29.3	-30.5	14.9	6.65e-04	0	43	0	611319808	18	4126
2026-01-28 02:17:36.07	305.32	25.46	-28.9	-29.6	15.5	5.19e-04	0	43	0	616562688	18	3870
2026-01-28 02:17:39.08	304.43	25.39	-28.7	-29.5	15.8	5.16e-04	0	43	0	621805568	17	3950
2026-01-28 02:17:42.09	303.55	25.31	-28.4	-28.6	16.3	2.55e-04	0	43	0	628097024	17	3722
2026-01-28 02:17:45.11	302.67	25.23	-28.2	-28.9	16.5	1.29e-04	0	43	0	633339904	16	3878
2026-01-28 02:17:48.10	301.81	25.14	-28.8	-29.7	15.7	0.00e+00	0	43	0	639631360	17	4009
2026-01-28 02:17:51.10	300.94	25.04	-29.1	-29.9	15.3	0.00e+00	0	43	0	644874240	18	3954
2026-01-28 02:17:54.11	300.08	24.94	-29.1	-29.9	15.3	0.00e+00	0	43	0	650117120	18	3955
2026-01-28 02:17:57.12	299.23	24.83	-29.1	-30.0	15.2	0.00e+00	0	43	0	656408576	18	3988
2026-01-28 02:18:00.12	298.38	24.72	-28.9	-29.4	15.6	0.00e+00	0	43	0	661651456	18	3812
2026-01-28 02:18:03.14	297.53	24.59	-29.8	-31.2	14.2	1.50e-06	0	43	0	666894336	19	4234
2026-01-28 02:18:06.16	296.70	24.46	-29.5	-30.5	14.6	1.52e-05	0	43	0	673185792	19	4041
2026-01-28 02:18:09.17	295.87	24.33	-30.0	-31.3	13.7	2.20e-06	0	43	0	678428672	20	4184
2026-01-28 02:18:12.19	295.04	24.19	-30.3	-31.9	13.5	9.10e-06	0	43	0	684720128	20	4338
2026-01-28 02:18:15.20	294.23	24.04	-30.4	-32.2	13.3	1.83e-05	0	43	0	689963008	20	4445
2026-01-28 02:18:18.21	293.42	23.89	-30.4	-32.3	13.2	3.20e-05	0	43	0	695205888	20	4495
2026-01-28 02:18:21.23	292.62	23.73	-30.6	-32.4	12.7	6.86e-05	0	43	0	701497344	21	4409
2026-01-28 02:18:24.24	291.83	23.57	-30.4	-31.7	13.2	4.04e-05	0	43	0	706740224	21	4216
2026-01-28 02:18:27.25	291.05	23.40	-30.4	-32.4	13.1	2.13e-05	0	43	0	713031680	20	4516
2026-01-28 02:18:30.26	290.27	23.23	-30.8	-32.8	12.4	1.16e-04	0	43	0	718274560	21	4571
2026-01-28 02:18:33.27	289.51	23.06	-30.5	-33.1	12.1	1.95e-04	0	43	0	723517440	20	4882
2026-01-28 02:18:36.28	288.75	22.88	-30.3	-32.0	12.9	2.97e-05	0	43	0	729808896	20	4403
2026-01-28 02:18:39.30	288.00	22.69	-30.6	-32.5	12.7	4.19e-05	0	43	0	735051776	21	4448
2026-01-28 02:18:42.31	287.26	22.51	-30.9	-33.3	12.1	3.53e-04	0	43	0	741343232	21	4723
2026-01-28 02:18:45.31	286.54	22.32	-31.0	-33.0	12.0	4.53e-04	0	43	0	746586112	22	4545
2026-01-28 02:18:48.31	285.82	22.12	-30.9	-32.8	12.1	2.70e-04	0	43	0	751828992	22	4479
2026-01-28 02:18:51.33	285.10	21.92	-31.3	-33.9	11.3	2.86e-03	0	43	0	758120448	22	4859
2026-01-28 02:18:54.34	284.40	21.72	-31.0	-33.2	11.8	3.69e-03	0	43	0	763363328	22	4619
2026-01-28 02:18:57.35	283.71	21.52	-29.8	-31.1	14.2	2.08e-03	0	43	0	768606208	19	4217
2026-01-28 02:19:00.35	283.03	21.31	-29.8	-31.4	14.0	2.05e-03	0	43	0	774897664	19	4301
2026-01-28 02:19:03.37	282.35	21.10	-30.4	-32.3	12.9	3.73e-05	0	43	0	780140544	20	4510
2026-01-28 02:19:06.38	281.68	20.89	-29.9	-31.0	13.8	2.20e-06	0	43	0	786432000	20	4083
2026-01-28 02:19:09.39	281.03	20.68	-29.6	-30.1	14.4	0.00e+00	0	43	0	791674880	20	3848
2026-01-28 02:19:12.40	280.38	20.46	-29.3	-29.8	14.9	1.79e-04	0	43	0	796917760	19	3849
2026-01-28 02:19:15.40	279.74	20.24	-29.8	-31.2	14.0	9.90e-06	0	43	0	803209216	19	4237
2026-01-28 02:19:18.40	279.11	20.03	-29.7	-30.6	14.0	2.04e-04	0	43	0	808452096	20	3986
2026-01-28 02:19:21.40	278.50	19.81	-29.9	-31.1	13.7	1.50e-03	0	43	0	813694976	20	4131
2026-01-28 02:19:24.41	277.88	19.58	-29.9	-31.0	13.8	3.80e-06	0	43	0	819986432	20	4102
2026-01-28 02:19:27.42	277.28	19.36	-29.8	-31.4	13.9	1.12e-03	0	43	0	825229312	19	4301
2026-01-28 02:19:30.43	276.69	19.13	-29.4	-30.7	14.6	2.21e-03	0	43	0	831520768	18	4201
2026-01-28 02:19:33.44	276.10	18.91	-29.5	-31.0	14.5	2.11e-03	0	43	0	836763648	18	4268
2026-01-28 02:19:36.45	275.53	18.68	-29.9	-31.5	13.7	2.26e-03	0	43	0	842006528	19	4353
2026-01-28 02:19:39.45	274.96	18.45	-29.7	-31.1	14.0	2.19e-03	0	43	0	848297984	19	4229
2026-01-28 02:19:42.47	274.40	18.22	-29.7	-31.0	14.1	7.00e-07	0	43	0	853540864	19	4194
2026-01-28 02:19:45.48	273.85	17.99	-29.9	-31.6	13.7	6.10e-06	0	43	0	858783744	19	4369
2026-01-28 02:19:48.49	273.31	17.76	-29.5	-30.6	14.3	2.20e-06	0	43	0	865075200	19	4090
2026-01-28 02:19:51.50	272.78	17.53	-29.6	-30.7	14.2	2.20e-06	0	43	0	870318080	19	4112
2026-01-28 02:19:54.50	272.25	17.30	-29.3	-30.4	14.7	1.68e-03	0	43	0	876609536	18	4118
2026-01-28 02:19:57.52	271.73	17.07	-29.7	-31.1	14.0	9.65e-04	0	43	0	881852416	19	4221
2026-01-28 02:20:00.52	271.23	16.84	-29.8	-31.5	13.7	1.06e-05	0	43	0	887095296	19	4340
2026-01-28 02:20:03.53	270.72	16.61	-29.5	-30.5	14.3	7.00e-07	0	43	0	893386752	19	4046
2026-01-28 02:20:06.54	270.23	16.37	-29.0	-29.9	15.0	0.00e+00	0	43	0	898629632	18	3975
2026-01-28 02:20:09.55	269.74	16.14	-29.2	-30.4	14.7	7.00e-07	0	43	0	904921088	18	4111
2026-01-28 02:20:12.55	269.27	15.91	-29.4	-30.9	14.3	2.20e-06	0	43	0	910163968	18	4281
2026-01-28 02:20:15.55	268.80	15.68	-29.5	-30.7	14.1	7.00e-07	0	43	0	915406848	19	4104
2026-01-28 02:20:18.57	268.33	15.45	-29.3	-30.6	14.5	7.00e-07	0	43	0	921698304	18	4169
2026-01-28 02:20:21.58	267.87	15.22	-28.8	-29.8	15.2	0.00e+00	0	43	0	926941184	17	4053
2026-01-28 02:20:24.59	267.43	14.99	-29.4	-30.9	14.3	0.00e+00	0	43	0	932184064	18	4277
2026-01-28 02:20:27.60	266.98	14.76	-30.0	-31.9	13.3	7.60e-06	0	43	0	938475520	19	4480
2026-01-28 02:20:30.62	266.55	14.53	-30.0	-31.9	13.2	2.44e-05	0	43	0	943718400	19	4509
2026-01-28 02:20:33.62	266.12	14.30	-29.6	-30.9	13.9	7.60e-06	0	43	0	950009856	19	4190
2026-01-28 02:20:36.63	265.70	14.07	-29.5	-30.7	14.0	2.20e-06	0	43	0	955252736	19	4129
2026-01-28 02:20:39.65	265.28	13.84	-29.2	-30.4	14.5	2.41e-03	0	43	0	960495616	18	4149
2026-01-28 02:20:42.66	264.87	13.61	-29.4	-31.0	14.0	2.05e-03	0	43	0	966787072	18	4319
2026-01-28 02:20:45.67	264.47	13.39	-30.2	-32.1	12.7	2.57e-03	0	43	0	972029952	20	4490
2026-01-28 02:20:48.68	264.07	13.16	-30.4	-32.8	12.1	2.91e-04	0	43	0	977272832	20	4745
2026-01-28 02:20:51.69	263.68	12.94	-30.4	-32.9	12.1	5.96e-04	0	43	0	983564288	20	4758
2026-01-28 02:20:54.71	263.29	12.71	-29.5	-30.8	13.8	3.40e-03	0	43	0	988807168	19	4182
2026-01-28 02:20:57.72	262.91	12.49	-29.6	-31.0	13.7	3.24e-03	0	43	0	995098624	19	4236
2026-01-28 02:21:00.72	262.54	12.27	-29.9	-31.8	13.1	2.79e-03	0	43	0	1000341504	19	4494
2026-01-28 02:21:03.73	262.17	12.05	-29.6	-31.0	13.7	2.74e-03	0	43	0	1005584384	19	4226
2026-01-28 02:21:06.76	261.81	11.82	-29.8	-31.6	13.2	2.48e-03	0	43	0	1011875840	19	4437
2026-01-28 02:21:09.77	261.45	11.60	-30.0	-32.0	13.0	2.05e-03	0	43	0	1017118720	19	4564
2026-01-28 02:21:12.78	261.10	11.38	-30.2	-32.3	12.4	1.31e-04	0	43	0	1023410176	20	4571
2026-01-28 02:21:15.79	260.76	11.16	-30.3	-32.5	12.2	2.70e-03	0	43	0	1028653056	20	4669
2026-01-28 02:21:18.80	260.42	10.95	-30.4	-32.8	12.0	2.97e-03	0	43	0	1033895936	20	4747
2026-01-28 02:21:21.80	260.08	10.73	-30.6	-33.1	11.4	3.74e-03	0	43	0	1040187392	21	4768
2026-01-28 02:21:24.82	259.75	10.52	-30.8	-33.8	10.8	4.57e-03	0	43	0	1045430272	21	5070
2026-01-28 02:21:27.82	259.43	10.30	-30.9	-33.9	10.8	2.08e-03	0	43	0	1050673152	21	5093
2026-01-28 02:21:30.83	259.11	10.09	-30.2	-32.4	12.2	3.85e-04	0	43	0	1056964608	20	4607
2026-01-28 02:21:33.84	258.79	9.88	-30.1	-32.1	12.4	1.18e-04	0	43	0	1062207488	20	4530
2026-01-28 02:21:36.85	258.48	9.66	-30.0	-31.9	12.5	9.76e-05	0	43	0	1068498944	20	4442
2026-01-28 02:21:39.85	258.18	9.45	-30.3	-32.5	12.0	3.18e-04	0	43	0	1073741824	20	4669
2026-01-28 02:21:42.87	257.87	9.24	-30.4	-33.1	11.6	4.35e-03	0	43	0	1078984704	20	4886
2026-01-28 02:21:45.88	257.57	9.04	-30.5	-32.8	11.4	8.43e-04	0	43	0	1085276160	21	4705
2026-01-28 02:21:48.89	257.28	8.83	-30.3	-32.7	11.8	5.02e-04	0	43	0	1090519040	20	4737
2026-01-28 02:21:51.90	256.99	8.62	-30.2	-32.4	12.0	3.68e-04	0	43	0	1096810496	20	4652
2026-01-28 02:21:54.90	256.71	8.42	-30.1	-32.1	12.1	2.78e-04	0	43	0	1102053376	20	4533
2026-01-28 02:21:57.91	256.43	8.21	-30.2	-32.4	11.9	3.79e-04	0	43	0	1107296256	20	4654
2026-01-28 02:22:00.91	256.15	8.01	-30.3	-32.9	11.5	8.94e-04	0	43	0	1113587712	20	4850
2026-01-28 02:22:03.92	255.88	7.81	-30.6	-33.4	10.8	2.54e-03	0	43	0	1118830592	21	4938
2026-01-28 02:22:06.92	255.61	7.60	-30.7	-33.7	10.5	4.12e-03	0	43	0	1124073472	21	5059
2026-01-28 02:22:09.93	255.35	7.40	-30.8	-34.1	10.2	5.36e-03	0	43	0	1130364928	21	5246
2026-01-28 02:22:12.95	255.08	7.20	-31.0	-34.2	9.7	1.14e-02	0	43	0	1135607808	22	5195
2026-01-28 02:22:15.95	254.83	7.01	-33.1	-45.3	3.8	1.26e+00	0	43	104	1139802112	26	14726

#Closed at: 2026-01-28 02:22:18
#Recorded file [1139 MB]: D:/data/31010_260128_051206.dat