passes_logs/2026/01/28/R2M6_AANII_01/R2M6_AANII_01__20260128_040849_AQUA_rec.log

#Pass ID: 20260128_040849_AQUA
#Satellite: AQUA
#Configuration: AQUA
#almurnet v.1.7.20240730
#Start time: 2026-01-28 04:08:49

#Version: 2.2.20231116
#Station: R2M6_AANII_01
#Location: 30.233357 lon 59.946436 lat
#TLE: 1 27424U 02022A   26027.49103455  .00001862  00000+0  38220-3 0  9997
#TLE: 2 27424  98.4102 354.1298 0001846  63.8060  46.9979 14.61867034262711

#Time	Az	El	Level	Level2	SNR	BER	BlckErr	Temp	State	Recorded	gain1	gain2
2026-01-28 04:08:49.06	3.64	6.99	-33.2	-51.1	3.8	7.47e-01	0	40	0	0	27	28081
2026-01-28 04:08:51.07	3.39	7.11	-31.7	-48.1	3.8	7.43e-01	0	40	104	0	26	23921
2026-01-28 04:08:53.08	3.13	7.23	-32.9	-49.4	3.8	7.46e-01	0	40	104	0	26	24236
2026-01-28 04:08:55.09	2.88	7.35	-33.0	-49.8	3.8	7.42e-01	0	40	104	0	26	25031
2026-01-28 04:08:57.09	2.62	7.47	-32.9	-49.5	3.8	7.44e-01	0	40	104	0	26	24283
2026-01-28 04:08:59.10	2.36	7.59	-32.5	-48.3	3.8	7.48e-01	0	40	104	0	25	22089
2026-01-28 04:09:01.10	2.10	7.71	-32.1	-46.7	3.8	7.48e-01	0	40	104	0	25	19336
2026-01-28 04:09:03.12	1.83	7.83	-32.1	-46.7	3.8	7.44e-01	0	41	104	0	25	19216
2026-01-28 04:09:05.13	1.57	7.95	-31.7	-45.7	3.8	7.43e-01	0	41	104	0	24	18004
2026-01-28 04:09:07.14	1.30	8.08	-31.5	-45.5	3.8	7.47e-01	0	41	104	0	23	18014
2026-01-28 04:09:09.15	1.02	8.20	-31.6	-45.5	3.9	7.42e-01	0	41	104	0	24	17766
2026-01-28 04:09:11.16	0.75	8.32	-32.2	-47.0	3.8	7.48e-01	0	41	104	0	25	19796
2026-01-28 04:09:13.16	0.47	8.44	-32.7	-48.3	3.8	7.45e-01	0	41	104	0	26	21847
2026-01-28 04:09:15.16	0.19	8.56	-32.8	-49.0	3.8	7.46e-01	0	41	104	0	26	23024
2026-01-28 04:09:17.17	359.91	8.68	-32.9	-49.1	3.8	7.47e-01	0	41	104	0	26	23456
2026-01-28 04:09:19.18	359.62	8.80	-33.0	-49.6	3.8	7.46e-01	0	41	104	0	26	24459
2026-01-28 04:09:21.19	359.34	8.92	-33.1	-49.8	3.9	7.43e-01	0	41	104	0	27	24523
2026-01-28 04:09:23.21	359.04	9.04	-33.3	-50.9	3.8	7.46e-01	0	41	104	0	27	27346
2026-01-28 04:09:25.22	358.75	9.16	-33.4	-51.7	3.8	7.46e-01	0	41	104	0	27	29504
2026-01-28 04:09:27.22	358.46	9.29	-33.5	-52.1	3.8	7.47e-01	0	41	104	0	27	30429
2026-01-28 04:09:29.23	358.16	9.41	-33.5	-51.7	3.8	7.42e-01	0	41	104	0	27	29335
2026-01-28 04:09:31.24	357.85	9.53	-33.5	-51.4	3.8	7.44e-01	0	41	104	0	27	28350
2026-01-28 04:09:33.26	357.55	9.65	-33.4	-51.1	3.8	7.47e-01	0	41	104	0	27	27480
2026-01-28 04:09:35.27	357.24	9.77	-33.3	-50.4	3.8	7.43e-01	0	41	104	0	27	25827
2026-01-28 04:09:37.28	356.93	9.89	-33.1	-49.5	3.8	7.44e-01	0	41	104	0	27	23796
2026-01-28 04:09:39.29	356.62	10.01	-32.9	-48.8	3.8	7.44e-01	0	42	104	0	26	22579
2026-01-28 04:09:41.30	356.30	10.13	-32.9	-49.0	3.8	7.44e-01	0	41	104	0	26	22826
2026-01-28 04:09:43.31	355.98	10.25	-33.1	-49.7	3.8	7.45e-01	0	41	104	0	26	24357
2026-01-28 04:09:45.32	355.66	10.37	-33.2	-49.8	3.8	7.48e-01	0	41	104	0	27	24131
2026-01-28 04:09:47.32	355.34	10.49	-33.0	-48.6	3.8	7.43e-01	0	42	104	0	27	21644
2026-01-28 04:09:49.33	355.01	10.61	-32.5	-47.1	3.8	7.48e-01	0	42	104	0	26	19332
2026-01-28 04:09:51.34	354.68	10.73	-32.1	-46.2	3.8	7.44e-01	0	42	104	0	25	18287
2026-01-28 04:09:53.36	354.35	10.85	-31.6	-45.2	3.8	7.42e-01	0	42	104	0	24	17201
2026-01-28 04:09:55.36	354.01	10.97	-31.2	-44.5	3.8	7.44e-01	0	42	104	0	23	16637
2026-01-28 04:09:57.38	353.67	11.09	-31.0	-44.5	3.8	7.45e-01	0	42	104	0	22	16937
2026-01-28 04:09:59.39	353.33	11.21	-31.4	-45.1	3.8	7.41e-01	0	42	104	0	23	17390
2026-01-28 04:10:01.40	352.98	11.33	-32.0	-46.5	3.8	7.44e-01	0	42	104	0	24	19058
2026-01-28 04:10:03.41	352.63	11.44	-32.7	-47.8	3.8	7.46e-01	0	42	104	0	26	20578
2026-01-28 04:10:05.41	352.28	11.56	-32.9	-48.5	3.8	7.47e-01	0	42	104	0	26	21767
2026-01-28 04:10:07.42	351.93	11.68	-33.0	-48.9	3.8	7.44e-01	0	42	104	0	26	22576
2026-01-28 04:10:09.42	351.57	11.79	-33.1	-49.0	3.8	7.44e-01	0	42	104	0	27	22436
2026-01-28 04:10:11.44	351.21	11.91	-33.1	-48.9	3.8	7.43e-01	0	42	104	0	27	22217
2026-01-28 04:10:13.45	350.84	12.03	-33.4	-50.4	3.8	7.47e-01	0	42	104	0	27	25408
2026-01-28 04:10:15.46	350.48	12.14	-33.6	-51.4	3.8	7.42e-01	0	42	104	0	27	28009
2026-01-28 04:10:17.47	350.11	12.26	-33.6	-51.3	3.8	7.42e-01	0	42	104	0	28	27605
2026-01-28 04:10:19.47	349.73	12.37	-33.5	-50.7	3.8	7.46e-01	0	42	104	0	28	26162
2026-01-28 04:10:21.48	349.36	12.48	-33.5	-50.9	3.8	7.46e-01	0	42	104	0	27	26719
2026-01-28 04:10:23.49	348.98	12.60	-33.5	-50.6	3.8	7.45e-01	0	42	104	0	27	25872
2026-01-28 04:10:25.50	348.59	12.71	-33.4	-50.1	3.8	7.43e-01	0	42	104	0	27	24634
2026-01-28 04:10:27.51	348.21	12.82	-33.0	-48.9	3.8	7.46e-01	0	42	104	0	27	22639
2026-01-28 04:10:29.52	347.82	12.93	-32.9	-48.6	3.8	7.47e-01	0	42	104	0	26	21964
2026-01-28 04:10:31.52	347.43	13.04	-33.1	-49.0	3.8	7.44e-01	0	42	104	0	27	22428
2026-01-28 04:10:33.53	347.03	13.15	-33.3	-49.6	3.8	7.46e-01	0	42	104	0	27	23682
2026-01-28 04:10:35.54	346.63	13.26	-33.1	-49.1	3.8	7.42e-01	0	42	104	0	26	22858
2026-01-28 04:10:37.55	346.23	13.37	-32.7	-47.5	3.8	7.44e-01	0	42	104	0	26	19941
2026-01-28 04:10:39.56	345.82	13.48	-32.1	-46.5	3.8	7.42e-01	0	42	104	0	24	18958
2026-01-28 04:10:41.57	345.41	13.59	-31.5	-45.2	3.8	7.46e-01	0	42	104	0	23	17380
2026-01-28 04:10:43.58	345.00	13.69	-31.1	-44.1	3.8	7.45e-01	0	42	104	0	23	16036
2026-01-28 04:10:45.58	344.59	13.80	-30.9	-43.9	3.8	7.41e-01	0	42	104	0	22	16157
2026-01-28 04:10:47.59	344.17	13.90	-30.8	-43.8	3.8	7.43e-01	0	42	104	0	22	16030
2026-01-28 04:10:49.59	343.75	14.00	-31.3	-44.6	3.8	7.49e-01	0	42	104	0	23	16653
2026-01-28 04:10:51.61	343.32	14.11	-32.0	-46.4	3.8	7.47e-01	0	42	104	0	24	18876
2026-01-28 04:10:53.62	342.89	14.21	-32.6	-39.0	13.4	6.05e-01	0	42	0	0	25	7576
2026-01-28 04:10:55.63	342.46	14.31	-32.4	-38.2	14.0	6.00e-01	0	42	0	3670016	25	7071
2026-01-28 04:10:57.63	342.03	14.40	-32.3	-38.1	14.1	6.03e-01	0	42	0	7340032	25	7018
2026-01-28 04:10:59.64	341.59	14.50	-32.4	-38.3	14.0	6.02e-01	0	42	0	11010048	25	7128
2026-01-28 04:11:01.65	341.15	14.60	-32.4	-38.2	14.1	6.00e-01	0	42	0	14680064	25	7047
2026-01-28 04:11:03.65	340.71	14.69	-32.1	-37.3	14.8	6.01e-01	0	42	0	18874368	25	6519
2026-01-28 04:11:05.66	340.26	14.79	-31.3	-35.6	16.8	6.02e-01	0	42	0	22544384	23	5855
2026-01-28 04:11:07.67	339.81	14.88	-30.7	-33.7	18.1	6.01e-01	0	42	0	26214400	23	5067
2026-01-28 04:11:09.67	339.36	14.97	-30.6	-34.3	18.3	6.00e-01	0	42	0	29884416	21	5534
2026-01-28 04:11:11.68	338.91	15.06	-30.5	-34.3	18.3	6.01e-01	0	42	0	33554432	21	5520
2026-01-28 04:11:13.68	338.45	15.15	-30.5	-34.2	18.3	6.00e-01	0	42	0	37748736	21	5512
2026-01-28 04:11:15.69	337.99	15.24	-30.9	-34.6	17.8	6.02e-01	0	42	0	41418752	22	5554
2026-01-28 04:11:17.69	337.53	15.32	-30.6	-33.9	18.3	6.02e-01	0	42	0	45088768	22	5270
2026-01-28 04:11:19.70	337.06	15.41	-30.5	-34.1	18.5	6.02e-01	0	43	0	48758784	21	5448
2026-01-28 04:11:21.71	336.59	15.49	-30.5	-34.2	18.4	6.00e-01	0	42	0	52428800	21	5501
2026-01-28 04:11:23.71	336.12	15.57	-30.3	-33.7	18.7	6.00e-01	0	42	0	56098816	21	5295
2026-01-28 04:11:25.72	335.64	15.65	-30.2	-33.4	18.9	6.01e-01	0	42	0	60293120	21	5193
2026-01-28 04:11:27.73	335.16	15.73	-30.2	-33.4	18.9	6.01e-01	0	42	0	63963136	21	5173
2026-01-28 04:11:29.73	334.68	15.81	-30.3	-33.6	18.8	6.00e-01	0	43	0	67633152	21	5259
2026-01-28 04:11:31.74	334.20	15.88	-30.3	-33.6	18.7	6.01e-01	0	42	0	71303168	21	5269
2026-01-28 04:11:33.74	333.71	15.96	-30.2	-33.2	19.0	6.01e-01	0	43	0	74973184	21	5127
2026-01-28 04:11:35.76	333.22	16.03	-30.2	-33.4	18.8	6.00e-01	0	43	0	78643200	21	5203
2026-01-28 04:11:37.77	332.73	16.10	-30.2	-33.4	18.8	5.98e-01	0	42	0	82837504	21	5206
2026-01-28 04:11:39.78	332.24	16.16	-30.3	-33.5	18.8	6.01e-01	0	42	0	86507520	21	5239
2026-01-28 04:11:41.79	331.74	16.23	-30.2	-33.3	18.9	6.03e-01	0	43	0	90177536	21	5156
2026-01-28 04:11:43.79	331.24	16.29	-30.2	-33.3	18.9	6.02e-01	0	42	0	93847552	21	5158
2026-01-28 04:11:45.80	330.74	16.36	-30.1	-33.2	19.0	6.04e-01	0	42	0	97517568	21	5095
2026-01-28 04:11:47.80	330.24	16.42	-30.2	-33.3	18.9	6.04e-01	0	42	0	101711872	21	5129
2026-01-28 04:11:49.81	329.74	16.47	-30.2	-33.3	18.8	6.02e-01	0	42	0	105381888	21	5165
2026-01-28 04:11:51.82	329.23	16.53	-30.2	-33.3	18.9	6.02e-01	0	42	0	109051904	21	5135
2026-01-28 04:11:53.83	328.72	16.58	-30.2	-33.2	18.8	6.00e-01	0	42	0	112721920	21	5114
2026-01-28 04:11:55.83	328.21	16.64	-30.2	-33.2	18.9	5.98e-01	0	43	0	116391936	21	5122
2026-01-28 04:11:57.84	327.70	16.69	-30.2	-33.2	18.8	5.99e-01	0	43	0	120061952	21	5118
2026-01-28 04:11:59.85	327.18	16.73	-30.2	-33.4	18.7	5.98e-01	0	42	0	124256256	21	5196
2026-01-28 04:12:01.85	326.67	16.78	-30.1	-33.1	18.8	6.01e-01	0	42	0	127926272	21	5068
2026-01-28 04:12:03.86	326.15	16.82	-30.2	-33.4	18.7	6.00e-01	0	43	0	131596288	21	5190
2026-01-28 04:12:05.87	325.63	16.86	-30.4	-33.8	16.5	6.04e-01	0	43	0	135266304	21	5338
2026-01-28 04:12:07.87	325.11	16.90	-30.2	-33.4	16.6	6.02e-01	0	43	0	138936320	21	5185
2026-01-28 04:12:09.88	324.58	16.94	-30.3	-33.7	18.5	5.99e-01	0	42	0	143130624	21	5285
2026-01-28 04:12:11.88	324.06	16.97	-30.3	-33.6	17.9	5.99e-01	0	43	0	146800640	21	5262
2026-01-28 04:12:13.89	323.54	17.01	-30.2	-33.3	18.8	6.00e-01	0	42	0	150470656	21	5157
2026-01-28 04:12:15.89	323.01	17.04	-30.2	-33.3	18.9	6.00e-01	0	43	0	154140672	21	5155
2026-01-28 04:12:17.89	322.49	17.06	-30.2	-33.2	19.0	6.03e-01	0	42	0	157810688	21	5129
2026-01-28 04:12:19.89	321.96	17.09	-30.2	-33.3	18.9	6.00e-01	0	43	0	161480704	21	5144
2026-01-28 04:12:21.89	321.43	17.11	-30.2	-33.2	18.9	6.00e-01	0	42	0	165150720	21	5126
2026-01-28 04:12:23.90	320.90	17.13	-30.1	-33.4	19.1	6.01e-01	0	43	0	169345024	20	5314
2026-01-28 04:12:25.90	320.37	17.15	-30.2	-33.3	18.9	5.99e-01	0	42	0	173015040	21	5152
2026-01-28 04:12:27.91	319.84	17.17	-30.3	-33.5	18.8	6.01e-01	0	42	0	176685056	21	5223
2026-01-28 04:12:29.89	319.31	17.18	-30.1	-33.2	19.0	6.01e-01	0	43	0	180355072	21	5102
2026-01-28 04:12:31.89	318.78	17.19	-30.2	-33.3	18.9	6.01e-01	0	42	0	184025088	21	5167
2026-01-28 04:12:33.90	318.25	17.20	-30.2	-33.3	19.0	6.00e-01	0	42	0	187695104	21	5150
2026-01-28 04:12:35.90	317.72	17.21	-30.3	-33.7	18.8	5.99e-01	0	43	0	191889408	21	5286
2026-01-28 04:12:37.90	317.19	17.21	-30.6	-34.3	18.3	5.98e-01	0	42	0	195559424	21	5555
2026-01-28 04:12:39.91	316.65	17.21	-30.2	-33.4	18.8	6.01e-01	0	43	0	199229440	21	5194
2026-01-28 04:12:41.93	316.12	17.21	-30.2	-33.4	18.9	6.00e-01	0	42	0	202899456	21	5190
2026-01-28 04:12:43.93	315.58	17.21	-30.0	-32.9	19.2	5.99e-01	0	42	0	206569472	21	5002
2026-01-28 04:12:45.94	315.05	17.20	-29.8	-32.9	19.4	6.02e-01	0	42	0	210239488	20	5121
2026-01-28 04:12:47.94	314.52	17.19	-30.0	-33.3	19.2	5.99e-01	0	43	0	214433792	20	5277
2026-01-28 04:12:49.94	313.99	17.18	-30.2	-33.5	18.8	6.00e-01	0	43	0	218103808	21	5217
2026-01-28 04:12:51.94	313.46	17.17	-30.3	-33.7	18.7	6.03e-01	0	43	0	221773824	21	5298
2026-01-28 04:12:53.94	312.93	17.15	-30.1	-33.0	19.1	6.01e-01	0	43	0	225443840	21	5050
2026-01-28 04:12:55.94	312.40	17.14	-29.8	-32.4	19.5	6.01e-01	0	42	0	229113856	21	4814
2026-01-28 04:12:57.96	311.86	17.12	-29.9	-32.5	19.5	5.99e-01	0	43	0	233308160	21	4853
2026-01-28 04:12:59.97	311.33	17.09	-30.2	-33.2	18.9	6.03e-01	0	43	0	236978176	21	5136
2026-01-28 04:13:01.97	310.80	17.07	-30.5	-34.2	18.3	6.02e-01	0	43	0	240648192	21	5524
2026-01-28 04:13:03.97	310.28	17.04	-30.1	-33.1	18.9	6.02e-01	0	43	0	244318208	21	5091
2026-01-28 04:13:05.98	309.75	17.01	-29.9	-32.6	19.2	6.02e-01	0	43	0	247988224	21	4911
2026-01-28 04:13:07.97	309.23	16.98	-30.2	-33.3	19.0	6.03e-01	0	43	0	251658240	21	5141
2026-01-28 04:13:09.98	308.70	16.95	-30.3	-33.7	18.6	6.00e-01	0	43	0	255328256	21	5321
2026-01-28 04:13:11.99	308.18	16.91	-30.2	-33.3	18.9	6.01e-01	0	43	0	259522560	21	5145
2026-01-28 04:13:14.00	307.66	16.87	-30.3	-33.6	18.7	6.00e-01	0	42	0	263192576	21	5265
2026-01-28 04:13:16.01	307.14	16.83	-29.9	-33.0	19.3	6.01e-01	0	42	0	266862592	20	5174
2026-01-28 04:13:18.01	306.62	16.79	-30.2	-33.3	18.9	6.02e-01	0	43	0	270532608	21	5166
2026-01-28 04:13:20.02	306.10	16.74	-30.1	-33.2	18.9	5.99e-01	0	43	0	274202624	21	5119
2026-01-28 04:13:22.03	305.58	16.69	-29.9	-32.5	19.4	6.02e-01	0	43	0	278396928	21	4854
2026-01-28 04:13:24.04	305.07	16.65	-30.1	-33.2	18.8	5.99e-01	0	43	0	282066944	21	5143
2026-01-28 04:13:26.05	304.56	16.59	-29.9	-33.1	19.3	6.00e-01	0	43	0	285736960	20	5193
2026-01-28 04:13:28.05	304.05	16.54	-30.2	-33.3	18.9	5.97e-01	0	42	0	289406976	21	5166
2026-01-28 04:13:30.06	303.54	16.48	-30.0	-33.4	19.1	6.01e-01	0	43	0	293076992	20	5326
2026-01-28 04:13:32.07	303.03	16.43	-30.2	-33.3	18.9	6.01e-01	0	43	0	297271296	21	5183
2026-01-28 04:13:34.07	302.53	16.37	-30.0	-32.8	19.0	6.01e-01	0	43	0	300941312	21	4983
2026-01-28 04:13:36.08	302.03	16.30	-29.8	-32.8	19.4	5.99e-01	0	43	0	304611328	20	5084
2026-01-28 04:13:38.08	301.53	16.24	-29.7	-32.4	19.6	6.01e-01	0	43	0	308281344	20	4961
2026-01-28 04:13:40.10	301.03	16.17	-30.0	-32.8	19.1	6.01e-01	0	43	0	311951360	21	4974
2026-01-28 04:13:42.10	300.54	16.11	-29.6	-31.7	19.6	5.98e-01	0	43	0	315621376	21	4605
2026-01-28 04:13:44.10	300.04	16.04	-29.5	-31.4	19.8	6.03e-01	0	43	0	319815680	21	4521
2026-01-28 04:13:46.11	299.55	15.97	-29.4	-31.2	19.9	6.00e-01	0	43	0	323485696	21	4449
2026-01-28 04:13:48.13	299.06	15.89	-29.9	-32.5	19.2	6.02e-01	0	43	0	327155712	21	4893
2026-01-28 04:13:50.12	298.58	15.82	-30.2	-33.6	18.5	5.98e-01	0	43	0	330825728	21	5293
2026-01-28 04:13:52.13	298.10	15.74	-30.7	-34.5	17.6	5.99e-01	0	43	0	334495744	22	5546
2026-01-28 04:13:54.14	297.62	15.66	-30.4	-34.0	18.2	6.03e-01	0	43	0	338165760	21	5483
2026-01-28 04:13:56.15	297.14	15.59	-30.2	-33.9	18.6	6.00e-01	0	43	0	342360064	20	5520
2026-01-28 04:13:58.15	296.67	15.50	-29.9	-33.1	19.0	5.99e-01	0	43	0	346030080	20	5213
2026-01-28 04:14:00.16	296.19	15.42	-29.7	-32.6	19.3	6.01e-01	0	43	0	349700096	20	5034
2026-01-28 04:14:02.16	295.73	15.34	-29.9	-33.1	18.9	6.00e-01	0	43	0	353370112	20	5218
2026-01-28 04:14:04.17	295.26	15.25	-30.0	-33.5	18.8	5.99e-01	0	43	0	357040128	20	5353
2026-01-28 04:14:06.18	294.80	15.16	-29.9	-32.6	19.0	6.00e-01	0	43	0	360710144	21	4928
2026-01-28 04:14:08.17	294.34	15.08	-29.7	-32.7	19.2	6.00e-01	0	43	0	364904448	20	5085
2026-01-28 04:14:10.18	293.88	14.99	-30.0	-33.4	18.8	6.01e-01	0	42	0	368574464	20	5339
2026-01-28 04:14:12.18	293.43	14.89	-30.5	-34.4	17.8	6.00e-01	0	43	0	372244480	21	5624
2026-01-28 04:14:14.20	292.98	14.80	-29.9	-33.1	18.9	6.02e-01	0	43	0	375914496	20	5240
2026-01-28 04:14:16.21	292.53	14.71	-29.8	-32.9	19.1	6.02e-01	0	43	0	379584512	20	5146
2026-01-28 04:14:18.21	292.08	14.61	-29.9	-32.8	18.8	6.00e-01	0	43	0	383778816	21	5001
2026-01-28 04:14:20.21	291.64	14.52	-30.0	-33.4	18.8	6.03e-01	0	42	0	387448832	20	5346
2026-01-28 04:14:22.22	291.20	14.42	-29.7	-32.8	19.2	6.02e-01	0	43	0	391118848	20	5105
2026-01-28 04:14:24.22	290.77	14.32	-29.8	-32.5	19.0	6.01e-01	0	43	0	394788864	21	4908
2026-01-28 04:14:26.24	290.33	14.22	-30.5	-34.6	17.7	6.02e-01	0	43	0	398458880	21	5719
2026-01-28 04:14:28.23	289.91	14.12	-29.9	-33.2	18.8	6.00e-01	0	43	0	402128896	20	5287
2026-01-28 04:14:30.24	289.48	14.02	-29.8	-33.0	19.0	6.00e-01	0	43	0	405798912	20	5207
2026-01-28 04:14:32.25	289.06	13.91	-29.7	-32.7	19.2	6.00e-01	0	43	0	409993216	20	5085
2026-01-28 04:14:34.26	288.64	13.81	-29.9	-33.2	18.7	5.99e-01	0	43	0	413663232	20	5299
2026-01-28 04:14:36.26	288.22	13.70	-30.0	-33.5	18.7	5.99e-01	0	43	0	417333248	20	5407
2026-01-28 04:14:38.26	287.81	13.60	-29.6	-32.8	19.4	6.01e-01	0	43	0	421003264	19	5240
2026-01-28 04:14:40.27	287.40	13.49	-29.8	-32.5	18.8	6.01e-01	0	43	0	424673280	21	4910
2026-01-28 04:14:42.28	286.99	13.38	-30.2	-33.7	18.2	6.01e-01	0	43	0	428867584	21	5378
2026-01-28 04:14:44.28	286.59	13.28	-30.1	-33.3	19.4	5.98e-01	0	43	0	432537600	20	5183
2026-01-28 04:14:46.30	286.18	13.17	-29.9	-33.4	18.7	5.99e-01	0	43	0	436207616	20	5346
2026-01-28 04:14:48.31	285.78	13.06	-30.4	-34.1	17.9	6.03e-01	0	43	0	439877632	21	5547
2026-01-28 04:14:50.31	285.39	12.95	-29.8	-33.0	18.9	6.03e-01	0	43	0	443547648	20	5224
2026-01-28 04:14:52.31	285.00	12.83	-30.0	-33.1	18.4	6.02e-01	0	43	0	447741952	21	5152
2026-01-28 04:14:54.31	284.61	12.72	-30.3	-34.0	17.9	5.99e-01	0	43	0	451411968	21	5518
2026-01-28 04:14:56.32	284.23	12.61	-30.2	-33.6	18.2	5.99e-01	0	43	0	455081984	21	5346
2026-01-28 04:14:58.32	283.85	12.50	-30.6	-34.5	17.3	6.01e-01	0	43	0	458752000	22	5591
2026-01-28 04:15:00.33	283.47	12.38	-30.2	-33.7	18.1	6.01e-01	0	43	0	462422016	21	5383
2026-01-28 04:15:02.33	283.09	12.27	-30.0	-33.5	18.6	6.00e-01	0	43	0	466092032	20	5397
2026-01-28 04:15:04.33	282.72	12.15	-30.2	-33.8	18.1	6.00e-01	0	43	0	469762048	21	5402
2026-01-28 04:15:06.34	282.35	12.04	-30.4	-34.2	17.7	6.01e-01	0	43	0	473956352	21	5596
2026-01-28 04:15:08.35	281.99	11.92	-30.3	-34.0	17.9	6.02e-01	0	43	0	477626368	21	5498
2026-01-28 04:15:10.36	281.62	11.81	-30.1	-33.4	18.3	6.01e-01	0	43	0	481296384	21	5276
2026-01-28 04:15:12.37	281.26	11.69	-30.3	-33.8	18.0	5.99e-01	0	43	0	484966400	21	5431
2026-01-28 04:15:14.38	280.91	11.57	-30.3	-33.9	18.0	5.99e-01	0	43	0	488636416	21	5455
2026-01-28 04:15:16.38	280.55	11.45	-30.1	-33.5	18.2	6.02e-01	0	43	0	492830720	21	5298
2026-01-28 04:15:18.39	280.20	11.34	-30.1	-33.4	18.2	6.00e-01	0	43	0	496500736	21	5259
2026-01-28 04:15:20.40	279.85	11.22	-29.9	-33.4	18.5	6.01e-01	0	43	0	500170752	20	5363
2026-01-28 04:15:22.41	279.51	11.10	-30.1	-33.9	18.2	6.00e-01	0	43	0	503840768	20	5573
2026-01-28 04:15:24.42	279.17	10.98	-30.1	-33.5	18.2	6.00e-01	0	43	0	507510784	21	5311
2026-01-28 04:15:26.42	278.83	10.86	-30.3	-34.1	17.8	6.01e-01	0	43	0	511180800	21	5551
2026-01-28 04:15:28.44	278.49	10.74	-30.3	-34.2	17.7	6.00e-01	0	43	0	515375104	21	5588
2026-01-28 04:15:30.45	278.16	10.62	-30.0	-33.2	18.4	6.00e-01	0	42	0	519045120	21	5181
2026-01-28 04:15:32.45	277.83	10.50	-30.1	-33.4	18.2	6.00e-01	0	43	0	522715136	21	5274
2026-01-28 04:15:34.46	277.50	10.38	-30.2	-33.9	17.9	6.01e-01	0	43	0	526385152	21	5478
2026-01-28 04:15:36.47	277.18	10.26	-30.5	-34.5	17.3	6.01e-01	0	43	0	530055168	21	5765
2026-01-28 04:15:38.48	276.86	10.14	-30.0	-33.1	18.2	6.03e-01	0	43	0	534249472	21	5180
2026-01-28 04:15:40.47	276.54	10.02	-28.8	-32.8	18.1	5.98e-01	0	43	0	537919488	20	5677
2026-01-28 04:15:42.47	276.23	9.90	-30.1	-33.8	17.3	6.00e-01	0	43	0	541589504	21	5486
2026-01-28 04:15:44.48	275.92	9.78	-30.0	-33.7	18.3	5.97e-01	0	43	0	545259520	20	5506
2026-01-28 04:15:46.48	275.61	9.66	-29.9	-33.4	17.4	6.00e-01	0	43	0	548929536	20	5404
2026-01-28 04:15:48.49	275.30	9.54	-30.0	-33.9	16.8	6.00e-01	0	43	0	552599552	20	5593
2026-01-28 04:15:50.50	275.00	9.41	-30.3	-34.1	17.7	6.02e-01	0	43	0	556269568	21	5564
2026-01-28 04:15:52.50	274.70	9.29	-30.0	-33.8	18.1	6.01e-01	0	43	0	560463872	20	5580
2026-01-28 04:15:54.51	274.40	9.17	-30.0	-33.9	18.0	6.02e-01	0	43	0	564133888	20	5627
2026-01-28 04:15:56.52	274.10	9.05	-30.2	-33.8	17.7	5.99e-01	0	43	0	567803904	21	5483
2026-01-28 04:15:58.52	273.81	8.93	-30.2	-33.9	17.7	6.00e-01	0	43	0	571473920	21	5501
2026-01-28 04:16:00.53	273.52	8.81	-30.2	-34.0	17.6	6.01e-01	0	43	0	575143936	21	5550
2026-01-28 04:16:02.53	273.23	8.69	-30.2	-34.0	17.6	6.03e-01	0	43	0	579338240	21	5557
2026-01-28 04:16:04.54	272.95	8.57	-30.1	-33.7	17.8	6.01e-01	0	43	0	583008256	21	5411
2026-01-28 04:16:06.56	272.66	8.44	-30.2	-33.8	17.7	6.01e-01	0	43	0	586678272	21	5488
2026-01-28 04:16:08.55	272.39	8.32	-30.2	-33.9	17.7	6.01e-01	0	43	0	590348288	21	5499
2026-01-28 04:16:10.56	272.11	8.20	-30.2	-33.8	17.7	6.02e-01	0	43	0	594018304	21	5477
2026-01-28 04:16:12.57	271.83	8.08	-30.3	-34.1	17.5	6.02e-01	0	43	0	598212608	21	5604
2026-01-28 04:16:14.57	271.56	7.96	-30.4	-34.6	17.1	5.99e-01	0	43	0	601882624	21	5827
2026-01-28 04:16:16.58	271.29	7.84	-30.2	-34.0	17.5	6.02e-01	0	43	0	605552640	21	5553
2026-01-28 04:16:18.59	271.02	7.72	-30.3	-34.2	17.3	6.00e-01	0	43	0	609222656	21	5676
2026-01-28 04:16:20.59	270.76	7.60	-30.3	-34.4	17.1	6.00e-01	0	43	0	612892672	21	5772
2026-01-28 04:16:22.60	270.50	7.48	-30.4	-34.5	17.0	6.00e-01	0	43	0	616562688	21	5802
2026-01-28 04:16:24.61	270.24	7.36	-30.3	-34.4	17.1	6.01e-01	0	43	0	620756992	21	5768
2026-01-28 04:16:26.61	269.98	7.24	-30.3	-34.3	17.2	6.02e-01	0	43	0	624427008	21	5731
2026-01-28 04:16:28.62	269.73	7.11	-30.3	-34.4	17.1	6.00e-01	0	43	0	628097024	21	5779
2026-01-28 04:16:30.62	269.47	6.99	-33.6	-52.8	3.8	7.46e-01	0	43	104	629669888	28	32559

#Closed at: 2026-01-28 04:16:32
#Recorded file [629 MB]: D:/data/31010_260128_071053.dat