passes_logs/2026/01/28/R2M6_AANII_01/R2M6_AANII_01__20260128_122757_NOAA_20_JPSS-1_rec.log

#Pass ID: 20260128_122757_NOAA 20 (JPSS-1)
#Satellite: NOAA 20 (JPSS-1)
#Configuration: NOAA 20
#almurnet v.1.7.20240730
#Start time: 2026-01-28 12:27:58

#Version: 2.2.20231116
#Station: R2M6_AANII_01
#Location: 30.233357 lon 59.946436 lat
#TLE: 1 43013U 17073A   26027.80586608  .00000156  00000+0  94940-4 0  9998
#TLE: 2 43013  98.7647 328.6108 0000947  21.3465 338.7750 14.19541216424550

#Time	Az	El	Level	Level2	SNR	BER	BlckErr	Temp	State	Recorded	gain1	gain2
2026-01-28 12:27:58.42	233.46	7.06	-31.4	-36.9	5.2	1.14e+00	0	41	0	0	23	6789
2026-01-28 12:28:01.42	233.83	7.22	-32.0	-38.8	6.8	2.08e-01	0	41	0	1048576	24	7931
2026-01-28 12:28:04.43	234.21	7.37	-32.0	-39.1	6.7	2.29e-01	0	41	0	7340032	24	8112
2026-01-28 12:28:07.45	234.59	7.52	-31.9	-38.2	7.4	1.25e-01	0	41	0	12582912	24	7451
2026-01-28 12:28:10.46	234.97	7.68	-31.4	-36.1	9.1	3.04e-02	0	41	0	17825792	24	6154
2026-01-28 12:28:13.47	235.36	7.83	-31.2	-35.7	9.9	8.96e-03	0	41	0	24117248	23	6023
2026-01-28 12:28:16.48	235.75	7.98	-30.9	-34.7	10.6	7.62e-03	0	41	0	29360128	23	5548
2026-01-28 12:28:19.49	236.15	8.13	-31.1	-35.7	10.3	6.52e-03	0	42	0	35651584	22	6129
2026-01-28 12:28:22.49	236.55	8.29	-30.9	-35.1	10.7	4.42e-03	0	41	0	40894464	22	5830
2026-01-28 12:28:25.51	236.95	8.44	-30.8	-34.7	11.0	1.65e-03	0	42	0	46137344	22	5638
2026-01-28 12:28:28.53	237.36	8.59	-30.6	-34.2	11.4	7.31e-04	0	42	0	52428800	22	5417
2026-01-28 12:28:31.54	237.77	8.74	-31.0	-35.3	10.6	2.22e-03	0	42	0	57671680	22	5933
2026-01-28 12:28:34.54	238.19	8.89	-30.7	-34.4	11.4	1.07e-03	0	42	0	63963136	22	5486
2026-01-28 12:28:37.56	238.61	9.04	-30.7	-34.4	11.3	8.98e-04	0	42	0	69206016	22	5516
2026-01-28 12:28:40.57	239.03	9.19	-30.5	-33.6	11.9	4.79e-04	0	42	0	74448896	22	5151
2026-01-28 12:28:43.58	239.46	9.34	-30.4	-33.3	12.2	2.05e-04	0	42	0	80740352	22	5051
2026-01-28 12:28:46.59	239.89	9.49	-30.2	-33.3	12.5	1.23e-04	0	42	0	85983232	21	5130
2026-01-28 12:28:49.60	240.33	9.64	-30.2	-33.2	12.6	1.21e-04	0	42	0	91226112	21	5092
2026-01-28 12:28:52.60	240.77	9.79	-30.1	-33.1	12.6	9.68e-05	0	42	0	97517568	21	5084
2026-01-28 12:28:55.62	241.21	9.93	-30.0	-32.6	13.0	3.73e-05	0	42	0	102760448	21	4898
2026-01-28 12:28:58.63	241.66	10.08	-29.9	-32.6	13.0	2.97e-05	0	42	0	109051904	21	4864
2026-01-28 12:29:01.63	242.12	10.23	-29.9	-32.5	13.1	2.89e-05	0	42	0	114294784	21	4847
2026-01-28 12:29:04.64	242.58	10.37	-30.0	-32.6	13.1	4.27e-05	0	42	0	119537664	21	4873
2026-01-28 12:29:07.64	243.04	10.51	-30.0	-32.6	13.0	4.11e-05	0	42	0	125829120	21	4871
2026-01-28 12:29:10.65	243.50	10.66	-30.0	-32.8	13.0	4.80e-05	0	42	0	131072000	21	4924
2026-01-28 12:29:13.66	243.98	10.80	-29.9	-32.3	13.3	1.37e-05	0	42	0	136314880	21	4740
2026-01-28 12:29:16.66	244.45	10.94	-29.9	-32.3	13.3	1.29e-05	0	43	0	142606336	21	4748
2026-01-28 12:29:19.69	244.93	11.08	-29.9	-32.7	13.4	8.30e-06	0	43	0	147849216	20	5017
2026-01-28 12:29:22.70	245.42	11.22	-29.9	-33.0	13.2	2.21e-05	0	43	0	154140672	20	5108
2026-01-28 12:29:25.72	245.91	11.36	-30.1	-33.3	13.0	5.95e-05	0	43	0	159383552	20	5229
2026-01-28 12:29:28.71	246.40	11.50	-29.9	-32.9	13.3	3.35e-05	0	42	0	164626432	20	5072
2026-01-28 12:29:31.73	246.90	11.64	-29.8	-32.6	13.5	1.22e-05	0	43	0	170917888	20	4947
2026-01-28 12:29:34.75	247.41	11.77	-29.9	-32.9	13.3	1.98e-05	0	43	0	176160768	20	5082
2026-01-28 12:29:37.76	247.91	11.91	-30.1	-33.3	13.1	4.80e-05	0	43	0	182452224	20	5199
2026-01-28 12:29:40.77	248.43	12.04	-29.9	-32.9	13.3	2.44e-05	0	43	0	187695104	20	5076
2026-01-28 12:29:43.78	248.94	12.17	-30.0	-33.2	13.2	1.29e-05	0	43	0	192937984	20	5161
2026-01-28 12:29:46.79	249.46	12.30	-30.2	-33.8	12.8	3.66e-05	0	43	0	199229440	20	5400
2026-01-28 12:29:49.80	249.99	12.43	-30.3	-33.9	12.7	7.01e-05	0	43	0	204472320	20	5459
2026-01-28 12:29:52.82	250.52	12.56	-30.5	-34.0	12.2	1.25e-04	0	43	0	209715200	21	5402
2026-01-28 12:29:55.83	251.05	12.68	-30.8	-34.9	11.7	3.00e-04	0	43	0	216006656	21	5758
2026-01-28 12:29:58.84	251.59	12.80	-31.0	-35.0	11.2	1.40e-03	0	43	0	221249536	22	5730
2026-01-28 12:30:01.86	252.14	12.93	-30.9	-34.6	11.6	5.99e-04	0	43	0	227540992	22	5526
2026-01-28 12:30:04.87	252.69	13.05	-30.7	-34.2	11.9	4.03e-04	0	43	0	232783872	22	5361
2026-01-28 12:30:07.87	253.23	13.16	-30.8	-34.4	11.8	5.38e-04	0	43	0	238026752	22	5420
2026-01-28 12:30:10.88	253.79	13.28	-30.8	-34.4	11.7	5.07e-04	0	43	0	244318208	22	5455
2026-01-28 12:30:13.89	254.35	13.40	-31.0	-34.9	11.4	8.65e-04	0	43	0	249561088	22	5646
2026-01-28 12:30:16.90	254.91	13.51	-31.0	-34.8	11.5	8.07e-04	0	43	0	255852544	22	5588
2026-01-28 12:30:19.91	255.48	13.62	-30.9	-34.6	11.7	6.86e-04	0	43	0	261095424	22	5523
2026-01-28 12:30:22.92	256.06	13.73	-30.9	-34.6	11.6	5.45e-04	0	43	0	266338304	22	5521
2026-01-28 12:30:25.93	256.63	13.83	-31.0	-35.1	11.4	1.00e-03	0	43	0	272629760	22	5722
2026-01-28 12:30:28.93	257.21	13.94	-31.3	-35.8	10.8	1.78e-03	0	43	0	277872640	22	6048
2026-01-28 12:30:31.95	257.80	14.04	-31.1	-35.3	11.3	1.42e-03	0	43	0	283115520	22	5803
2026-01-28 12:30:34.95	258.38	14.14	-31.0	-35.0	11.4	1.16e-03	0	43	0	289406976	22	5680
2026-01-28 12:30:37.95	258.97	14.24	-30.9	-34.6	11.7	4.74e-04	0	43	0	294649856	22	5499
2026-01-28 12:30:40.96	259.57	14.33	-30.9	-34.7	11.6	5.56e-04	0	43	0	300941312	22	5545
2026-01-28 12:30:43.98	260.17	14.42	-30.9	-34.5	11.8	4.94e-04	0	43	0	306184192	22	5462
2026-01-28 12:30:47.00	260.77	14.51	-30.6	-33.8	12.3	1.90e-04	0	43	0	311427072	22	5169
2026-01-28 12:30:50.00	261.38	14.60	-30.3	-32.9	12.9	4.80e-05	0	43	0	317718528	22	4821
2026-01-28 12:30:53.01	261.99	14.68	-29.9	-32.3	13.7	8.30e-06	0	43	0	322961408	21	4713
2026-01-28 12:30:56.03	262.60	14.76	-29.9	-32.1	13.7	2.20e-06	0	43	0	329252864	21	4674
2026-01-28 12:30:59.04	263.22	14.84	-30.0	-32.6	13.5	1.37e-05	0	43	0	334495744	21	4815
2026-01-28 12:31:02.05	263.84	14.92	-30.1	-32.6	13.4	1.98e-05	0	43	0	339738624	21	4828
2026-01-28 12:31:05.05	264.46	14.99	-30.0	-32.4	13.6	1.37e-05	0	43	0	346030080	21	4756
2026-01-28 12:31:08.07	265.08	15.06	-30.2	-33.1	13.1	2.59e-05	0	43	0	351272960	21	4997
2026-01-28 12:31:11.07	265.71	15.13	-30.3	-33.3	13.0	4.73e-05	0	43	0	357564416	21	5074
2026-01-28 12:31:14.09	266.34	15.19	-30.5	-34.0	12.5	1.24e-04	0	43	0	362807296	21	5342
2026-01-28 12:31:17.10	266.97	15.25	-30.6	-34.0	12.5	8.69e-05	0	43	0	368050176	21	5360
2026-01-28 12:31:20.10	267.61	15.31	-30.5	-33.9	12.6	8.16e-05	0	43	0	374341632	21	5298
2026-01-28 12:31:23.11	268.24	15.36	-30.7	-34.3	12.3	1.48e-04	0	43	0	379584512	21	5483
2026-01-28 12:31:26.12	268.88	15.42	-30.6	-34.2	12.4	1.22e-04	0	43	0	384827392	21	5417
2026-01-28 12:31:29.14	269.53	15.46	-30.6	-34.2	12.5	1.20e-04	0	43	0	391118848	21	5405
2026-01-28 12:31:32.16	270.17	15.51	-30.5	-33.8	12.8	9.61e-05	0	43	0	396361728	21	5255
2026-01-28 12:31:35.17	270.82	15.55	-30.5	-33.9	12.8	5.95e-05	0	43	0	402653184	21	5281
2026-01-28 12:31:38.18	271.46	15.59	-30.6	-34.0	12.6	8.08e-05	0	43	0	407896064	21	5342
2026-01-28 12:31:41.19	272.11	15.62	-30.6	-34.1	12.6	8.62e-05	0	43	0	413138944	21	5377
2026-01-28 12:31:44.20	272.76	15.65	-30.3	-33.1	13.2	3.20e-05	0	43	0	419430400	21	5002
2026-01-28 12:31:47.21	273.41	15.68	-30.4	-33.4	13.1	2.82e-05	0	43	0	424673280	21	5087
2026-01-28 12:31:50.23	274.07	15.70	-30.3	-33.1	13.2	2.67e-05	0	43	0	430964736	21	4990
2026-01-28 12:31:53.24	274.72	15.73	-30.3	-33.3	13.1	2.21e-05	0	43	0	436207616	21	5052
2026-01-28 12:31:56.24	275.37	15.74	-30.3	-33.1	13.2	2.89e-05	0	43	0	441450496	21	5009
2026-01-28 12:31:59.24	276.02	15.76	-30.3	-33.1	13.2	3.05e-05	0	43	0	447741952	21	4999
2026-01-28 12:32:02.24	276.68	15.77	-30.5	-33.9	12.7	5.72e-05	0	43	0	452984832	21	5296
2026-01-28 12:32:05.25	277.33	15.77	-30.5	-33.7	12.8	6.25e-05	0	43	0	458227712	21	5232
2026-01-28 12:32:08.27	277.99	15.78	-30.6	-34.0	12.6	1.02e-04	0	43	0	464519168	21	5333
2026-01-28 12:32:11.28	278.64	15.78	-30.5	-33.7	12.8	1.21e-04	0	43	0	469762048	21	5224
2026-01-28 12:32:14.29	279.30	15.77	-30.3	-33.3	13.1	2.74e-05	0	43	0	476053504	21	5059
2026-01-28 12:32:17.30	279.95	15.77	-30.5	-33.9	12.6	9.61e-05	0	43	0	481296384	21	5317
2026-01-28 12:32:20.31	280.61	15.75	-30.0	-32.5	13.6	3.80e-06	0	43	0	486539264	21	4777
2026-01-28 12:32:23.32	281.26	15.74	-30.0	-32.3	13.7	4.50e-06	0	43	0	492830720	21	4697
2026-01-28 12:32:26.35	281.92	15.72	-30.1	-32.8	13.4	1.29e-05	0	43	0	498073600	21	4883
2026-01-28 12:32:29.36	282.57	15.70	-30.1	-32.8	13.4	1.60e-05	0	43	0	503316480	21	4868
2026-01-28 12:32:32.36	283.22	15.68	-30.2	-33.1	13.2	1.06e-05	0	43	0	509607936	21	4978
2026-01-28 12:32:35.38	283.87	15.65	-30.2	-32.9	13.3	1.22e-05	0	43	0	514850816	21	4936
2026-01-28 12:32:38.40	284.52	15.62	-30.3	-33.3	13.1	3.66e-05	0	43	0	521142272	21	5071
2026-01-28 12:32:41.41	285.17	15.58	-30.0	-32.4	13.7	3.80e-06	0	43	0	526385152	21	4752
2026-01-28 12:32:44.42	285.82	15.54	-30.2	-32.8	13.3	1.98e-05	0	43	0	531628032	21	4895
2026-01-28 12:32:47.43	286.46	15.50	-30.2	-33.1	13.2	2.74e-05	0	43	0	537919488	21	4994
2026-01-28 12:32:50.44	287.10	15.46	-30.1	-32.6	13.5	1.06e-05	0	43	0	543162368	21	4832
2026-01-28 12:32:53.45	287.74	15.41	-30.3	-33.2	13.0	3.12e-05	0	43	0	549453824	21	5058
2026-01-28 12:32:56.47	288.38	15.36	-30.4	-33.5	12.9	4.80e-05	0	43	0	554696704	21	5150
2026-01-28 12:32:59.48	289.02	15.30	-30.2	-33.0	13.2	2.13e-05	0	43	0	559939584	21	4966
2026-01-28 12:33:02.49	289.65	15.24	-30.0	-32.5	13.5	1.14e-05	0	43	0	566231040	21	4791
2026-01-28 12:33:05.50	290.28	15.18	-29.9	-32.2	13.7	6.80e-06	0	43	0	571473920	21	4686
2026-01-28 12:33:08.51	290.91	15.12	-30.0	-32.5	13.5	1.06e-05	0	43	0	576716800	21	4782
2026-01-28 12:33:11.53	291.54	15.05	-29.8	-32.0	13.8	5.30e-06	0	43	0	583008256	21	4620
2026-01-28 12:33:14.55	292.16	14.98	-29.8	-32.0	13.9	6.10e-06	0	43	0	588251136	21	4615
2026-01-28 12:33:17.56	292.78	14.91	-29.8	-32.3	14.0	2.20e-06	0	43	0	594542592	20	4818
2026-01-28 12:33:20.56	293.40	14.83	-29.9	-32.5	13.9	5.30e-06	0	43	0	599785472	20	4876
2026-01-28 12:33:23.56	294.01	14.75	-29.9	-32.5	13.9	5.30e-06	0	43	0	605028352	20	4900
2026-01-28 12:33:26.58	294.62	14.67	-30.0	-32.9	13.5	4.50e-06	0	43	0	611319808	20	5051
2026-01-28 12:33:29.60	295.23	14.59	-29.7	-32.1	14.1	3.80e-06	0	43	0	616562688	20	4749
2026-01-28 12:33:32.60	295.83	14.50	-29.6	-32.0	14.2	1.50e-06	0	43	0	622854144	20	4712
2026-01-28 12:33:35.62	296.43	14.41	-29.3	-31.1	14.7	0.00e+00	0	43	0	628097024	20	4430
2026-01-28 12:33:38.63	297.03	14.32	-29.3	-31.2	14.6	0.00e+00	0	43	0	633339904	20	4471
2026-01-28 12:33:41.64	297.62	14.23	-29.6	-31.9	14.2	7.00e-07	0	43	0	639631360	20	4688
2026-01-28 12:33:44.66	298.21	14.13	-29.8	-32.4	13.9	2.20e-06	0	43	0	644874240	20	4871
2026-01-28 12:33:47.67	298.80	14.03	-29.9	-32.7	13.7	8.30e-06	0	43	0	651165696	20	4962
2026-01-28 12:33:50.68	299.38	13.93	-29.7	-32.1	14.1	1.50e-06	0	43	0	656408576	20	4745
2026-01-28 12:33:53.70	299.96	13.83	-29.7	-32.0	14.1	3.80e-06	0	43	0	661651456	20	4736
2026-01-28 12:33:56.71	300.53	13.72	-29.5	-31.6	14.4	7.00e-07	0	43	0	667942912	20	4604
2026-01-28 12:33:59.72	301.10	13.61	-29.8	-32.3	14.0	2.20e-06	0	43	0	673185792	20	4821
2026-01-28 12:34:02.72	301.66	13.50	-30.0	-33.0	13.5	1.14e-05	0	43	0	678428672	20	5085
2026-01-28 12:34:05.72	302.22	13.39	-30.4	-34.0	12.8	4.65e-05	0	43	0	684720128	20	5468
2026-01-28 12:34:08.72	302.78	13.28	-30.3	-33.7	13.0	4.34e-05	0	43	0	689963008	20	5359
2026-01-28 12:34:11.73	303.33	13.16	-30.5	-34.3	12.5	5.72e-05	0	43	0	696254464	20	5617
2026-01-28 12:34:14.74	303.88	13.04	-30.2	-33.5	13.2	2.82e-05	0	43	0	701497344	20	5276
2026-01-28 12:34:17.75	304.42	12.92	-30.2	-33.5	13.2	1.90e-05	0	43	0	706740224	20	5285
2026-01-28 12:34:20.75	304.96	12.80	-30.3	-33.9	12.8	4.57e-05	0	43	0	713031680	20	5438
2026-01-28 12:34:23.75	305.49	12.68	-30.7	-34.6	12.1	2.43e-04	0	43	0	718274560	21	5594
2026-01-28 12:34:26.76	306.03	12.56	-31.1	-35.2	11.3	7.80e-04	0	43	0	723517440	22	5777
2026-01-28 12:34:29.75	306.55	12.43	-31.3	-35.8	10.9	2.27e-03	0	43	0	729808896	22	6038
2026-01-28 12:34:32.76	307.07	12.30	-31.3	-36.0	10.7	2.82e-03	0	43	0	735051776	22	6165
2026-01-28 12:34:35.77	307.59	12.17	-31.5	-36.0	10.3	5.33e-03	0	43	0	741343232	23	6058
2026-01-28 12:34:38.78	308.10	12.04	-31.5	-35.9	10.4	4.59e-03	0	43	0	746586112	23	6001
2026-01-28 12:34:41.80	308.61	11.91	-31.5	-36.2	10.1	5.29e-03	0	43	0	751828992	23	6164
2026-01-28 12:34:44.82	309.12	11.78	-31.2	-35.1	10.9	2.52e-03	0	43	0	758120448	23	5644
2026-01-28 12:34:47.83	309.62	11.64	-31.5	-36.0	10.2	4.57e-03	0	44	0	763363328	23	6077
2026-01-28 12:34:50.84	310.11	11.51	-31.7	-36.7	9.7	1.38e-02	0	43	0	768606208	23	6404
2026-01-28 12:34:53.85	310.61	11.37	-31.9	-37.5	9.1	2.08e-02	0	43	0	774897664	23	6896
2026-01-28 12:34:56.87	311.09	11.24	-31.7	-36.7	9.6	1.76e-02	0	43	0	780140544	23	6448
2026-01-28 12:34:59.87	311.58	11.10	-31.5	-36.1	10.1	8.51e-03	0	43	0	786432000	23	6145
2026-01-28 12:35:02.88	312.05	10.96	-31.1	-34.9	11.0	1.90e-03	0	43	0	791674880	23	5556
2026-01-28 12:35:05.89	312.53	10.82	-31.2	-35.1	10.9	2.08e-03	0	43	0	796917760	23	5632
2026-01-28 12:35:08.90	313.00	10.68	-30.9	-34.3	11.4	1.08e-03	0	43	0	803209216	23	5286
2026-01-28 12:35:11.91	313.46	10.53	-31.1	-34.7	11.1	1.34e-03	0	44	0	808452096	23	5491
2026-01-28 12:35:14.92	313.92	10.39	-30.9	-34.2	11.4	1.14e-03	0	43	0	814743552	23	5274
2026-01-28 12:35:17.92	314.38	10.25	-31.0	-34.5	11.1	1.54e-03	0	43	0	819986432	23	5391
2026-01-28 12:35:20.93	314.83	10.10	-31.1	-34.9	10.8	2.81e-03	0	43	0	825229312	23	5579
2026-01-28 12:35:23.94	315.27	9.96	-31.1	-34.9	10.9	1.65e-03	0	43	0	831520768	23	5544
2026-01-28 12:35:26.97	315.72	9.81	-31.0	-34.4	11.3	1.30e-03	0	43	0	836763648	23	5351
2026-01-28 12:35:29.98	316.16	9.67	-30.8	-33.8	11.6	1.05e-03	0	43	0	842006528	23	5112
2026-01-28 12:35:32.99	316.59	9.52	-30.4	-33.1	12.5	1.33e-04	0	43	0	848297984	22	4949
2026-01-28 12:35:35.99	317.02	9.37	-30.3	-33.0	12.6	1.22e-04	0	43	0	853540864	22	4884
2026-01-28 12:35:39.01	317.45	9.22	-30.6	-33.8	11.9	2.61e-04	0	43	0	859832320	22	5200
2026-01-28 12:35:42.01	317.87	9.08	-30.6	-34.0	11.8	6.15e-04	0	43	0	865075200	22	5281
2026-01-28 12:35:45.02	318.29	8.93	-30.5	-33.7	12.1	2.86e-04	0	44	0	870318080	22	5171
2026-01-28 12:35:48.03	318.70	8.78	-30.4	-33.2	12.4	1.60e-04	0	43	0	876609536	22	4982
2026-01-28 12:35:51.02	319.11	8.63	-30.6	-33.8	11.6	3.12e-04	0	44	0	881852416	22	5223
2026-01-28 12:35:54.03	319.51	8.48	-30.6	-33.9	11.8	5.80e-04	0	43	0	887095296	22	5250
2026-01-28 12:35:57.04	319.92	8.33	-30.6	-33.9	11.5	8.28e-04	0	43	0	893386752	22	5274
2026-01-28 12:36:00.06	320.31	8.18	-30.6	-34.0	11.5	1.03e-03	0	44	0	898629632	22	5322
2026-01-28 12:36:03.07	320.71	8.03	-30.4	-33.5	11.4	4.86e-04	0	44	0	904921088	22	5141
2026-01-28 12:36:06.08	321.10	7.88	-29.8	-33.8	8.5	2.46e-02	0	44	0	910163968	20	5709
2026-01-28 12:36:09.08	321.48	7.73	-29.9	-34.2	8.1	6.34e-02	0	43	0	915406848	20	5914
2026-01-28 12:36:12.08	321.86	7.58	-29.2	-33.7	6.5	1.52e-01	0	44	0	921698304	19	6025
2026-01-28 12:36:15.10	322.24	7.42	-29.1	-33.9	6.3	2.83e-01	0	43	0	926941184	18	6277
2026-01-28 12:36:18.10	322.62	7.27	-29.9	-34.5	7.6	1.06e-01	0	44	0	932184064	20	6059
2026-01-28 12:36:21.11	322.99	7.12	-30.6	-34.9	10.4	6.23e-03	0	43	0	938475520	21	5903

#Closed at: 2026-01-28 12:36:23
#Recorded file [940 MB]: D:/data/31010_260128_152800.dat