passes_logs/2025/01/18/Planum_Noyabrsk/Planum_Noyabrsk__20250118_070902_NOAA_18_rec.log

#Pass ID: 20250118_070902_NOAA 18
#Satellite: NOAA 18
#Configuration: NOAA 18
#Start time: 2025-01-18 07:09:07.139568

#LorettStation: 1.0.0 05.05.2024
#Station: Planum_Noyabrsk
#Location: 75.446886 lon 63.207202 lat
#TLE: 1 28654U 05018A   25017.28638263  .00000382  00000+0  22605-3 0  9992
#TLE: 2 28654  98.8562  98.3181 0014468 172.7280 187.4105 14.13488533 13500

#Time	Az	El	Level	SNR
2025-01-18 07:09:13.329966	14.5	31.2	-54.2	0.0
2025-01-18 07:09:14.468931	14.4	31.4	-54.8	0.0
2025-01-18 07:09:15.609893	14.4	31.6	-53.7	0.0
2025-01-18 07:09:16.747862	14.3	31.8	-54.8	0.0
2025-01-18 07:09:17.884850	14.2	32.1	-55.8	0.0
2025-01-18 07:09:19.024813	14.1	32.3	-55.4	0.0
2025-01-18 07:09:20.162782	14.1	32.5	-55.0	0.0
2025-01-18 07:09:21.300752	14.0	32.7	-57.0	0.0
2025-01-18 07:09:22.439052	13.9	33.0	-55.9	0.0
2025-01-18 07:09:23.580014	13.9	33.2	-54.0	0.0
2025-01-18 07:09:24.721972	13.8	33.4	-57.3	0.0
2025-01-18 07:09:25.864928	13.7	33.7	-55.3	0.0
2025-01-18 07:09:27.004893	13.6	33.9	-56.3	0.0
2025-01-18 07:09:28.145852	13.5	34.2	-55.3	0.0
2025-01-18 07:09:29.286814	13.5	34.4	-56.8	0.0
2025-01-18 07:09:30.426777	13.4	34.6	-56.9	0.0
2025-01-18 07:09:31.566741	13.3	34.9	-60.4	1.6
2025-01-18 07:09:32.706705	13.2	35.1	-56.6	0.0
2025-01-18 07:09:33.846178	13.1	35.4	-60.2	2.6
2025-01-18 07:09:34.983150	13.0	35.6	-57.0	0.0
2025-01-18 07:09:36.121125	12.9	35.9	-58.6	0.0
2025-01-18 07:09:37.266576	12.8	36.1	-57.7	0.0
2025-01-18 07:09:38.406540	12.8	36.4	-59.9	0.4
2025-01-18 07:09:39.544509	12.7	36.7	-58.0	0.0
2025-01-18 07:09:40.684472	12.6	36.9	-59.2	1.7
2025-01-18 07:09:41.825434	12.5	37.2	-60.8	1.8
2025-01-18 07:09:42.968390	12.4	37.4	-59.8	0.0
2025-01-18 07:09:44.108859	12.3	37.7	-60.5	0.6
2025-01-18 07:09:45.249820	12.2	38.0	-60.9	1.8
2025-01-18 07:09:46.389786	12.1	38.2	-60.5	0.8
2025-01-18 07:09:47.529748	12.0	38.5	-61.2	3.0
2025-01-18 07:09:48.672219	11.8	38.8	-60.8	1.9
2025-01-18 07:09:49.809192	11.7	39.1	-60.8	1.1
2025-01-18 07:09:50.950153	11.6	39.4	-60.7	2.3
2025-01-18 07:09:52.087642	11.5	39.6	-60.8	1.2
2025-01-18 07:09:53.228604	11.4	39.9	-61.8	3.0
2025-01-18 07:09:54.370562	11.3	40.2	-61.6	0.5
2025-01-18 07:09:55.506059	11.2	40.5	-62.6	5.2
2025-01-18 07:09:56.643031	11.0	40.8	-62.7	7.4
2025-01-18 07:09:57.783993	10.9	41.1	-63.8	5.1
2025-01-18 07:09:58.923957	10.8	41.4	-62.8	6.8
2025-01-18 07:10:00.067910	10.7	41.7	-63.0	6.2
2025-01-18 07:10:01.207873	10.5	42.0	-63.1	6.4
2025-01-18 07:10:02.349832	10.4	42.3	-64.6	7.0
2025-01-18 07:10:03.490310	10.2	42.6	-63.5	6.0
2025-01-18 07:10:04.631264	10.1	42.9	-62.0	4.8
2025-01-18 07:10:05.771227	10.0	43.2	-64.3	8.9
2025-01-18 07:10:06.914199	9.8	43.5	-62.9	3.9
2025-01-18 07:10:08.055160	9.7	43.8	-62.4	5.5
2025-01-18 07:10:09.198117	9.5	44.1	-64.4	5.1
2025-01-18 07:10:10.338587	9.4	44.4	-63.7	6.7
2025-01-18 07:10:11.482048	9.2	44.8	-63.4	7.7
2025-01-18 07:10:12.623010	9.0	45.1	-62.4	6.4
2025-01-18 07:10:13.762973	8.9	45.4	-63.5	7.3
2025-01-18 07:10:14.900467	8.7	45.7	-62.6	6.3
2025-01-18 07:10:16.039434	8.5	46.1	-62.9	7.9
2025-01-18 07:10:17.183391	8.4	46.4	-62.4	8.2
2025-01-18 07:10:18.323860	8.2	46.7	-63.0	10.4
2025-01-18 07:10:19.465327	8.0	47.1	-63.3	9.1
2025-01-18 07:10:20.606287	7.8	47.4	-62.4	7.4
2025-01-18 07:10:21.744763	7.6	47.7	-62.6	7.9
2025-01-18 07:10:22.885725	7.4	48.1	-62.1	7.2
2025-01-18 07:10:24.023693	7.2	48.4	-61.2	8.5
2025-01-18 07:10:25.165652	7.0	48.8	-61.8	8.7
2025-01-18 07:10:26.307610	6.8	49.1	-61.3	6.5
2025-01-18 07:10:27.450567	6.6	49.5	-61.6	5.8
2025-01-18 07:10:28.591528	6.4	49.8	-61.8	7.3
2025-01-18 07:10:29.733486	6.1	50.2	-61.9	6.3
2025-01-18 07:10:30.874447	5.9	50.6	-61.6	5.9
2025-01-18 07:10:32.015409	5.7	50.9	-61.6	6.1
2025-01-18 07:10:33.157872	5.4	51.3	-61.6	5.6
2025-01-18 07:10:34.298834	5.2	51.7	-61.9	5.0
2025-01-18 07:10:35.438797	4.9	52.0	-60.4	3.8
2025-01-18 07:10:36.577279	4.7	52.4	-61.4	6.0
2025-01-18 07:10:37.718241	4.4	52.8	-62.8	7.3
2025-01-18 07:10:38.854215	4.1	53.1	-63.7	5.7
2025-01-18 07:10:39.994687	3.8	53.5	-62.2	6.3
2025-01-18 07:10:41.134163	3.5	53.9	-59.2	1.9
2025-01-18 07:10:42.272132	3.2	54.3	-61.6	5.5
2025-01-18 07:10:43.414058	2.9	54.7	-61.1	6.2
2025-01-18 07:10:44.561003	2.6	55.1	-61.3	5.9
2025-01-18 07:10:45.700967	2.3	55.4	-61.2	6.8
2025-01-18 07:10:46.840440	2.0	55.8	-61.4	6.5
2025-01-18 07:10:47.978915	1.6	56.2	-62.1	9.5
2025-01-18 07:10:49.118879	1.3	56.6	-62.4	8.9
2025-01-18 07:10:50.259840	0.9	57.0	-61.3	7.3
2025-01-18 07:10:51.397809	0.5	57.4	-62.0	7.8
2025-01-18 07:10:52.538771	0.2	57.8	-61.7	8.0
2025-01-18 07:10:53.678736	359.8	58.2	-61.0	6.1
2025-01-18 07:10:54.821200	359.3	58.6	-61.9	6.6
2025-01-18 07:10:55.959169	358.9	59.0	-60.9	5.3
2025-01-18 07:10:57.099133	358.5	59.4	-61.2	5.3
2025-01-18 07:10:58.240094	358.0	59.8	-60.9	5.7
2025-01-18 07:10:59.382052	357.6	60.2	-61.6	7.1
2025-01-18 07:11:00.524012	357.1	60.6	-61.0	6.1
2025-01-18 07:11:01.664079	356.6	61.0	-61.9	6.6
2025-01-18 07:11:02.805548	356.1	61.4	-60.8	4.4
2025-01-18 07:11:03.944514	355.6	61.8	-61.8	6.5
2025-01-18 07:11:05.082992	355.0	62.3	-61.5	4.1
2025-01-18 07:11:06.220472	354.5	62.7	-63.3	9.6
2025-01-18 07:11:07.361434	353.9	63.1	-63.1	8.7
2025-01-18 07:11:08.500399	353.3	63.5	-62.0	5.9
2025-01-18 07:11:09.637371	352.6	63.9	-62.8	7.3
2025-01-18 07:11:10.776337	352.0	64.3	-63.1	6.4
2025-01-18 07:11:11.919293	351.3	64.7	-61.4	2.8
2025-01-18 07:11:13.057768	350.6	65.1	-62.5	5.1
2025-01-18 07:11:14.195737	349.9	65.5	-61.9	4.6
2025-01-18 07:11:15.335701	349.2	65.9	-61.4	3.1
2025-01-18 07:11:16.473670	348.4	66.3	-63.6	7.4
2025-01-18 07:11:17.612637	347.6	66.7	-63.7	7.9
2025-01-18 07:11:18.753599	346.7	67.1	-62.7	6.0
2025-01-18 07:11:19.895557	345.9	67.5	-62.5	4.7
2025-01-18 07:11:21.037024	345.0	67.9	-62.2	4.8
2025-01-18 07:11:22.176987	344.0	68.3	-62.6	6.3
2025-01-18 07:11:23.319943	343.0	68.7	-62.8	7.3
2025-01-18 07:11:24.461901	342.0	69.0	-61.9	6.6
2025-01-18 07:11:25.600868	341.0	69.4	-63.0	6.2
2025-01-18 07:11:26.740832	339.9	69.8	-62.6	5.0
2025-01-18 07:11:27.879308	338.7	70.1	-63.0	5.4
2025-01-18 07:11:29.026252	337.5	70.5	-61.6	4.6
2025-01-18 07:11:30.168211	336.3	70.8	-62.6	1.0
2025-01-18 07:11:31.310170	335.0	71.2	-64.4	4.5
2025-01-18 07:11:32.449136	333.7	71.5	-63.6	6.1
2025-01-18 07:11:33.591094	332.3	71.8	-63.2	5.2
2025-01-18 07:11:34.732056	330.9	72.2	-63.2	4.0
2025-01-18 07:11:35.874014	329.4	72.5	-63.4	6.4
2025-01-18 07:11:37.014975	327.8	72.8	-65.6	9.5
2025-01-18 07:11:38.152944	326.2	73.0	-64.9	8.4
2025-01-18 07:11:39.291420	324.6	73.3	-63.4	5.9
2025-01-18 07:11:40.433378	322.9	73.6	-63.1	6.0
2025-01-18 07:11:41.570350	321.1	73.8	-64.5	7.3
2025-01-18 07:11:42.711311	319.3	74.0	-64.8	6.7
2025-01-18 07:11:43.852274	317.4	74.2	-64.8	9.4
2025-01-18 07:11:44.994232	315.5	74.4	-64.9	7.8
2025-01-18 07:11:46.134702	313.5	74.6	-65.3	6.7
2025-01-18 07:11:47.275663	311.5	74.8	-65.2	5.9
2025-01-18 07:11:48.415626	309.4	74.9	-64.3	4.0
2025-01-18 07:11:49.557099	307.3	75.0	-66.0	7.3
2025-01-18 07:11:50.696572	305.2	75.2	-65.4	5.6
2025-01-18 07:11:51.838531	303.0	75.2	-65.9	5.9
2025-01-18 07:11:52.978495	300.8	75.3	-66.4	6.9
2025-01-18 07:11:54.119456	298.6	75.3	-66.7	6.1
2025-01-18 07:11:55.258422	296.4	75.4	-66.7	4.5
2025-01-18 07:11:56.399383	294.2	75.4	-66.8	4.7
2025-01-18 07:11:57.543337	292.0	75.3	-66.2	5.9
2025-01-18 07:11:58.682809	289.8	75.3	-65.7	4.4
2025-01-18 07:11:59.822773	287.6	75.2	-65.4	3.8
2025-01-18 07:12:00.963734	285.4	75.2	-64.9	3.7
2025-01-18 07:12:02.103698	283.3	75.0	-64.9	5.5
2025-01-18 07:12:03.241667	281.2	74.9	-64.8	3.1
2025-01-18 07:12:04.382689	279.1	74.8	-64.4	2.5
2025-01-18 07:12:05.522653	277.1	74.6	-66.2	7.8
2025-01-18 07:12:06.661619	275.1	74.4	-64.1	2.2
2025-01-18 07:12:07.800586	273.2	74.2	-64.9	4.3
2025-01-18 07:12:08.942545	271.3	74.0	-64.7	2.7
2025-01-18 07:12:10.084503	269.5	73.8	-66.1	4.2
2025-01-18 07:12:11.222472	267.8	73.6	-65.7	3.1
2025-01-18 07:12:12.362944	266.0	73.3	-64.5	1.5
2025-01-18 07:12:13.502908	264.4	73.0	-62.9	1.9
2025-01-18 07:12:14.644866	262.8	72.8	-64.9	4.2
2025-01-18 07:12:15.787822	261.2	72.5	-64.5	3.2
2025-01-18 07:12:16.928783	259.7	72.2	-64.9	5.6
2025-01-18 07:12:18.067749	258.3	71.8	-64.0	5.3
2025-01-18 07:12:19.210735	256.9	71.5	-64.5	4.2
2025-01-18 07:12:20.351695	255.6	71.2	-64.0	4.5
2025-01-18 07:12:21.491168	254.3	70.8	-65.1	5.1
2025-01-18 07:12:22.630135	253.1	70.5	-63.8	0.0
2025-01-18 07:12:23.769118	251.9	70.1	-65.2	4.2
2025-01-18 07:12:24.910079	250.7	69.8	-64.3	2.5
2025-01-18 07:12:26.051040	249.6	69.4	-65.1	8.6
2025-01-18 07:12:27.189515	248.6	69.0	-64.9	6.2
2025-01-18 07:12:28.330477	247.6	68.6	-65.0	7.7
2025-01-18 07:12:29.470440	246.6	68.3	-65.0	7.9
2025-01-18 07:12:30.614900	245.6	67.9	-65.6	9.7
2025-01-18 07:12:31.753866	244.7	67.5	-64.5	8.8
2025-01-18 07:12:32.898817	243.9	67.1	-63.8	5.4
2025-01-18 07:12:34.037784	243.0	66.7	-65.4	9.7
2025-01-18 07:12:35.176750	242.2	66.3	-65.8	9.5
2025-01-18 07:12:36.317711	241.4	65.9	-64.6	1.1
2025-01-18 07:12:37.455680	240.7	65.5	-66.3	7.5
2025-01-18 07:12:38.597639	240.0	65.1	-65.4	7.5
2025-01-18 07:12:39.738600	239.3	64.7	-65.6	7.1
2025-01-18 07:12:40.881559	238.6	64.3	-65.2	8.2
2025-01-18 07:12:42.021523	237.9	63.9	-65.8	7.4
2025-01-18 07:12:43.163482	237.3	63.4	-66.1	9.2
2025-01-18 07:12:44.303446	236.7	63.0	-63.2	1.0
2025-01-18 07:12:45.444407	236.1	62.6	-66.7	9.7
2025-01-18 07:12:46.586365	235.6	62.2	-65.6	8.9
2025-01-18 07:12:47.728324	235.0	61.8	-65.9	7.6
2025-01-18 07:12:48.870282	234.5	61.4	-66.3	9.5
2025-01-18 07:12:50.012241	234.0	61.0	-66.3	10.3
2025-01-18 07:12:51.149212	233.5	60.6	-65.7	6.0
2025-01-18 07:12:52.287688	233.0	60.2	-66.6	6.5
2025-01-18 07:12:53.426655	232.5	59.8	-66.4	10.0
2025-01-18 07:12:54.564624	232.1	59.3	-66.8	9.4
2025-01-18 07:12:55.705584	231.7	58.9	-66.8	9.5
2025-01-18 07:12:56.844551	231.2	58.5	-66.6	11.0
2025-01-18 07:12:57.983518	230.8	58.1	-66.5	11.2
2025-01-18 07:12:59.125476	230.4	57.7	-66.9	9.0
2025-01-18 07:13:00.265946	230.0	57.3	-66.8	11.6
2025-01-18 07:13:01.402917	229.7	56.9	-66.2	12.4
2025-01-18 07:13:02.540886	229.3	56.5	-66.0	11.4
2025-01-18 07:13:03.679871	228.9	56.1	-66.0	9.8
2025-01-18 07:13:04.823824	228.6	55.8	-65.3	11.2
2025-01-18 07:13:05.962790	228.3	55.4	-65.6	13.8
2025-01-18 07:13:07.105747	227.9	55.0	-65.3	12.3
2025-01-18 07:13:08.245712	227.6	54.6	-65.0	9.6
2025-01-18 07:13:09.383679	227.3	54.2	-65.4	11.5
2025-01-18 07:13:10.523644	227.0	53.8	-65.2	11.1
2025-01-18 07:13:11.665114	226.7	53.4	-65.3	11.6
2025-01-18 07:13:12.806076	226.5	53.1	-65.5	11.9
2025-01-18 07:13:13.946039	226.2	52.7	-65.6	11.7
2025-01-18 07:13:15.090499	225.9	52.3	-65.3	11.9
2025-01-18 07:13:16.230462	225.6	51.9	-66.0	11.9
2025-01-18 07:13:17.369429	225.4	51.6	-66.1	12.2
2025-01-18 07:13:18.509393	225.1	51.2	-66.2	11.6
2025-01-18 07:13:19.649357	224.9	50.8	-65.4	10.8
2025-01-18 07:13:20.790318	224.7	50.5	-65.5	10.6
2025-01-18 07:13:21.931788	224.4	50.1	-65.7	11.7
2025-01-18 07:13:23.072749	224.2	49.7	-65.6	11.7
2025-01-18 07:13:24.211716	224.0	49.4	-66.4	11.6
2025-01-18 07:13:25.350682	223.8	49.0	-66.4	12.4
2025-01-18 07:13:26.493638	223.6	48.7	-66.4	13.4
2025-01-18 07:13:27.632605	223.3	48.3	-66.6	12.7
2025-01-18 07:13:28.776066	223.1	48.0	-66.0	12.5
2025-01-18 07:13:29.916045	222.9	47.6	-66.0	12.7
2025-01-18 07:13:31.055011	222.8	47.3	-65.9	13.0
2025-01-18 07:13:32.192980	222.6	46.9	-66.5	13.5
2025-01-18 07:13:33.334452	222.4	46.6	-65.3	12.0
2025-01-18 07:13:34.474918	222.2	46.3	-65.4	12.9
2025-01-18 07:13:35.611890	222.0	45.9	-65.7	13.1
2025-01-18 07:13:36.753867	221.9	45.6	-65.6	12.8
2025-01-18 07:13:37.895335	221.7	45.3	-65.5	12.6
2025-01-18 07:13:39.037293	221.5	44.9	-65.1	12.9
2025-01-18 07:13:40.179252	221.4	44.6	-65.1	12.2
2025-01-18 07:13:41.319215	221.2	44.3	-65.1	11.4
2025-01-18 07:13:42.460177	221.0	44.0	-65.5	11.6
2025-01-18 07:13:43.604130	220.9	43.7	-65.4	11.5
2025-01-18 07:13:44.747085	220.7	43.3	-66.0	12.0
2025-01-18 07:13:45.885055	220.6	43.0	-65.9	12.0
2025-01-18 07:13:47.026016	220.5	42.7	-65.4	10.8
2025-01-18 07:13:48.166977	220.3	42.4	-65.8	11.3
2025-01-18 07:13:49.305452	220.2	42.1	-65.5	11.4
2025-01-18 07:13:50.446413	220.0	41.8	-66.3	12.4
2025-01-18 07:13:51.585379	219.9	41.5	-65.5	10.6
2025-01-18 07:13:52.722351	219.8	41.2	-66.0	10.9
2025-01-18 07:13:53.865308	219.6	40.9	-65.8	11.0
2025-01-18 07:13:55.004779	219.5	40.6	-66.6	11.8
2025-01-18 07:13:56.142748	219.4	40.3	-65.9	11.8
2025-01-18 07:13:57.283711	219.3	40.0	-65.0	7.4
2025-01-18 07:13:58.424671	219.2	39.8	-66.5	10.7
2025-01-18 07:13:59.566139	219.0	39.5	-66.1	10.7
2025-01-18 07:14:00.707099	218.9	39.2	-67.4	12.7
2025-01-18 07:14:01.847063	218.8	38.9	-66.1	10.7
2025-01-18 07:14:02.985541	218.7	38.6	-67.1	14.2
2025-01-18 07:14:04.125504	218.6	38.4	-67.3	14.2
2025-01-18 07:14:05.267461	218.5	38.1	-67.5	14.2
2025-01-18 07:14:06.407425	218.4	37.8	-67.4	14.5
2025-01-18 07:14:07.548386	218.3	37.5	-67.6	14.6
2025-01-18 07:14:08.687353	218.2	37.3	-67.4	13.8
2025-01-18 07:14:09.827826	218.1	37.0	-67.4	13.9
2025-01-18 07:14:10.967298	218.0	36.7	-67.6	14.5
2025-01-18 07:14:12.104270	217.9	36.5	-67.1	13.9
2025-01-18 07:14:13.242240	217.8	36.2	-66.9	14.1
2025-01-18 07:14:14.382025	217.7	36.0	-66.8	12.6
2025-01-18 07:14:15.523983	217.6	35.7	-67.5	10.8
2025-01-18 07:14:16.665942	217.5	35.4	-67.5	14.2
2025-01-18 07:14:17.806420	217.4	35.2	-66.6	12.5
2025-01-18 07:14:18.945387	217.3	34.9	-67.3	13.6
2025-01-18 07:14:20.083357	217.3	34.7	-67.5	13.5
2025-01-18 07:14:21.226312	217.2	34.4	-66.6	10.8
2025-01-18 07:14:22.365278	217.1	34.2	-67.0	13.5
2025-01-18 07:14:23.503248	217.0	34.0	-65.9	10.4
2025-01-18 07:14:24.643716	216.9	33.7	-67.1	12.1
2025-01-18 07:14:25.784804	216.8	33.5	-66.8	10.9
2025-01-18 07:14:26.925765	216.8	33.2	-67.8	14.0
2025-01-18 07:14:28.065728	216.7	33.0	-67.8	13.9
2025-01-18 07:14:29.207704	216.6	32.8	-66.7	12.5
2025-01-18 07:14:30.346671	216.5	32.5	-67.0	13.3
2025-01-18 07:14:31.484640	216.5	32.3	-66.1	10.6
2025-01-18 07:14:32.625111	216.4	32.1	-66.8	11.8
2025-01-18 07:14:33.771058	216.3	31.8	-66.7	12.1
2025-01-18 07:14:34.910060	216.3	31.6	-66.9	12.4
2025-01-18 07:14:36.052954	216.2	31.4	-67.2	12.9
2025-01-18 07:14:37.196906	216.1	31.2	-67.5	13.7
2025-01-18 07:14:38.336870	216.0	31.0	-66.5	11.3
2025-01-18 07:14:39.475347	216.0	30.7	-66.7	11.6
2025-01-18 07:14:40.614313	215.9	30.5	-66.9	12.3
2025-01-18 07:14:41.754277	215.8	30.3	-67.3	11.9
2025-01-18 07:14:42.895238	215.8	30.1	-67.6	11.8
2025-01-18 07:14:44.036199	215.7	29.9	-68.1	7.1
#Closed at: 2025-01-18 07:09:02.142765