passes_logs/2025/01/18/Planum_Noyabrsk/Planum_Noyabrsk__20250118_005627_METEOR-M2_2_rec.log

#Pass ID: 20250118_005627_METEOR-M2 2
#Satellite: METEOR-M2 2
#Configuration: METEOR-M2 2
#Start time: 2025-01-18 00:56:32.469796

#LorettStation: 1.0.0 05.05.2024
#Station: Planum_Noyabrsk
#Location: 75.446886 lon 63.207202 lat
#TLE: 1 44387U 19038A   25017.31630164  .00000236  00000+0  12216-3 0  9991
#TLE: 2 44387  98.8570 353.7319 0002278  75.4231 284.7200 14.24118322287869

#Time	Az	El	Level	SNR
2025-01-18 00:56:38.646402	354.9	30.9	-67.9	0.0
2025-01-18 00:56:39.780394	354.6	31.1	-67.4	0.0
2025-01-18 00:56:40.912391	354.3	31.3	-68.0	0.0
2025-01-18 00:56:42.047893	354.1	31.5	-67.5	0.0
2025-01-18 00:56:43.181393	353.8	31.6	-66.9	0.0
2025-01-18 00:56:44.315892	353.5	31.8	-67.1	0.0
2025-01-18 00:56:45.448888	353.2	32.0	-67.9	0.0
2025-01-18 00:56:46.583389	353.0	32.2	-68.2	0.0
2025-01-18 00:56:47.716379	352.7	32.3	-67.5	0.0
2025-01-18 00:56:48.851369	352.4	32.5	-67.6	0.0
2025-01-18 00:56:49.985363	352.1	32.7	-67.1	0.0
2025-01-18 00:56:51.119353	351.8	32.9	-66.9	0.0
2025-01-18 00:56:52.252346	351.5	33.0	-62.4	0.0
2025-01-18 00:56:53.387335	351.2	33.2	-65.0	0.0
2025-01-18 00:56:54.526327	350.9	33.4	-66.9	0.0
2025-01-18 00:56:55.660306	350.6	33.6	-64.2	0.0
2025-01-18 00:56:56.795803	350.3	33.8	-63.7	0.0
2025-01-18 00:56:57.929795	350.0	33.9	-63.4	0.0
2025-01-18 00:56:59.061792	349.7	34.1	-67.3	0.0
2025-01-18 00:57:00.193789	349.3	34.3	-68.2	0.0
2025-01-18 00:57:01.327780	349.0	34.5	-69.3	0.0
2025-01-18 00:57:02.462282	348.7	34.6	-69.8	0.0
2025-01-18 00:57:03.594280	348.4	34.8	-69.2	0.0
2025-01-18 00:57:04.727273	348.0	35.0	-70.7	0.0
2025-01-18 00:57:05.861264	347.7	35.2	-71.3	0.0
2025-01-18 00:57:06.994777	347.3	35.3	-72.0	0.0
2025-01-18 00:57:08.129274	347.0	35.5	-69.0	0.0
2025-01-18 00:57:09.264263	346.6	35.7	-63.6	0.0
2025-01-18 00:57:10.397258	346.3	35.9	-64.7	0.0
2025-01-18 00:57:11.533687	345.9	36.1	-69.6	0.0
2025-01-18 00:57:12.666681	345.6	36.2	-68.0	0.0
2025-01-18 00:57:13.799675	345.2	36.4	-64.4	0.0
2025-01-18 00:57:14.934665	344.8	36.6	-66.7	0.0
2025-01-18 00:57:16.068671	344.5	36.8	-66.6	0.0
2025-01-18 00:57:17.202649	344.1	36.9	-66.4	0.0
2025-01-18 00:57:18.336645	343.7	37.1	-65.9	0.0
2025-01-18 00:57:19.470631	343.3	37.3	-67.2	0.0
2025-01-18 00:57:20.606623	342.9	37.4	-65.5	0.0
2025-01-18 00:57:21.741612	342.5	37.6	-64.9	0.0
2025-01-18 00:57:22.876109	342.1	37.8	-63.0	0.0
2025-01-18 00:57:24.010101	341.7	38.0	-59.9	0.0
2025-01-18 00:57:25.141102	341.3	38.1	-59.4	0.0
2025-01-18 00:57:26.276090	340.9	38.3	-61.7	0.0
2025-01-18 00:57:27.409084	340.5	38.5	-61.8	0.0
2025-01-18 00:57:28.544073	340.1	38.6	-61.2	0.0
2025-01-18 00:57:29.683052	339.7	38.8	-62.0	0.0
2025-01-18 00:57:30.815050	339.2	39.0	-59.5	0.0
2025-01-18 00:57:31.949041	338.8	39.1	-63.2	0.0
2025-01-18 00:57:33.083033	338.4	39.3	-58.5	0.0
2025-01-18 00:57:34.217029	337.9	39.4	-63.9	0.0
2025-01-18 00:57:35.349771	337.5	39.6	-62.6	0.0
2025-01-18 00:57:36.482765	337.0	39.8	-65.2	0.0
2025-01-18 00:57:37.614762	336.6	39.9	-66.4	0.0
2025-01-18 00:57:38.748267	336.1	40.1	-57.6	0.0
2025-01-18 00:57:39.883257	335.6	40.2	-67.9	0.0
2025-01-18 00:57:41.018248	335.2	40.4	-62.2	0.0
2025-01-18 00:57:42.152237	334.7	40.5	-66.8	0.0
2025-01-18 00:57:43.286231	334.2	40.7	-66.9	0.0
2025-01-18 00:57:44.420222	333.7	40.8	-62.1	0.0
2025-01-18 00:57:45.557205	333.3	41.0	-58.6	0.0
2025-01-18 00:57:46.690199	332.8	41.1	-62.9	0.0
2025-01-18 00:57:47.831236	332.3	41.3	-68.5	0.0
2025-01-18 00:57:48.965227	331.8	41.4	-64.7	0.0
2025-01-18 00:57:50.101219	331.3	41.6	-63.9	0.0
2025-01-18 00:57:51.236208	330.7	41.7	-67.6	0.0
2025-01-18 00:57:52.372702	330.2	41.8	-69.0	0.0
2025-01-18 00:57:53.506694	329.7	42.0	-65.4	0.0
2025-01-18 00:57:54.642680	329.2	42.1	-71.3	0.0
2025-01-18 00:57:55.775675	328.7	42.2	-60.8	0.0
2025-01-18 00:57:56.913172	328.1	42.4	-67.7	0.0
2025-01-18 00:57:58.048164	327.6	42.5	-71.1	0.0
2025-01-18 00:57:59.184657	327.1	42.6	-68.0	0.0
2025-01-18 00:58:00.319652	326.5	42.7	-60.9	0.0
2025-01-18 00:58:01.454640	326.0	42.8	-69.5	0.0
2025-01-18 00:58:02.587635	325.4	43.0	-69.0	0.0
2025-01-18 00:58:03.721626	324.9	43.1	-69.5	0.0
2025-01-18 00:58:04.855619	324.3	43.2	-69.4	0.0
2025-01-18 00:58:05.992620	323.7	43.3	-68.2	0.0
2025-01-18 00:58:07.127615	323.2	43.4	-64.3	0.0
2025-01-18 00:58:08.258615	322.6	43.5	-63.9	0.0
2025-01-18 00:58:09.392606	322.0	43.6	-67.7	0.0
2025-01-18 00:58:10.524550	321.5	43.7	-67.2	0.0
2025-01-18 00:58:11.656546	320.9	43.8	-68.4	0.0
2025-01-18 00:58:12.789049	320.3	43.9	-65.6	0.0
2025-01-18 00:58:13.924039	319.7	43.9	-67.4	0.0
2025-01-18 00:58:15.059534	319.1	44.0	-67.0	0.0
2025-01-18 00:58:16.190534	318.5	44.1	-66.9	0.0
2025-01-18 00:58:17.323528	317.9	44.2	-67.6	0.0
2025-01-18 00:58:18.459515	317.3	44.3	-67.5	0.0
2025-01-18 00:58:19.594017	316.7	44.3	-69.2	0.0
2025-01-18 00:58:20.729005	316.1	44.4	-69.6	0.0
2025-01-18 00:58:21.864993	315.5	44.4	-66.6	0.0
2025-01-18 00:58:22.999981	314.9	44.5	-67.7	0.0
2025-01-18 00:58:24.134484	314.3	44.6	-69.2	0.0
2025-01-18 00:58:25.265485	313.7	44.6	-66.0	0.0
2025-01-18 00:58:26.399480	313.1	44.7	-69.8	0.0
2025-01-18 00:58:27.532476	312.5	44.7	-69.9	0.0
2025-01-18 00:58:28.667468	311.8	44.7	-68.9	0.0
2025-01-18 00:58:29.804453	311.2	44.8	-70.3	0.0
2025-01-18 00:58:30.942435	310.6	44.8	-69.8	0.0
2025-01-18 00:58:32.076425	310.0	44.8	-70.6	0.0
2025-01-18 00:58:33.210423	309.4	44.9	-70.0	0.0
2025-01-18 00:58:34.343419	308.7	44.9	-71.7	0.0
2025-01-18 00:58:35.478408	308.1	44.9	-71.9	0.0
2025-01-18 00:58:36.612908	307.5	44.9	-70.8	0.0
2025-01-18 00:58:37.748406	306.9	44.9	-71.0	0.0
2025-01-18 00:58:38.882400	306.2	44.9	-70.9	0.0
2025-01-18 00:58:40.017388	305.6	44.9	-71.4	0.0
2025-01-18 00:58:41.149395	305.0	44.9	-69.4	0.0
2025-01-18 00:58:42.285381	304.3	44.9	-67.2	0.0
2025-01-18 00:58:43.420370	303.7	44.9	-72.3	0.0
2025-01-18 00:58:44.554363	303.1	44.9	-72.1	0.0
2025-01-18 00:58:45.687388	302.5	44.9	-71.6	0.0
2025-01-18 00:58:46.823344	301.8	44.9	-70.5	0.0
2025-01-18 00:58:47.958332	301.2	44.9	-70.3	0.0
2025-01-18 00:58:49.091326	300.6	44.8	-68.2	0.0
2025-01-18 00:58:50.224322	300.0	44.8	-69.2	0.0
2025-01-18 00:58:51.357831	299.4	44.8	-71.3	0.0
2025-01-18 00:58:52.490824	298.7	44.7	-70.8	0.0
2025-01-18 00:58:53.624816	298.1	44.7	-70.4	0.0
2025-01-18 00:58:54.757810	297.5	44.6	-71.0	0.0
2025-01-18 00:58:55.893640	296.9	44.6	-71.5	0.0
2025-01-18 00:58:57.026634	296.3	44.5	-68.5	0.0
2025-01-18 00:58:58.159629	295.7	44.5	-70.5	0.0
2025-01-18 00:58:59.294617	295.1	44.4	-70.7	0.0
2025-01-18 00:59:00.429607	294.5	44.4	-70.4	0.0
2025-01-18 00:59:01.562601	293.8	44.3	-70.6	0.0
2025-01-18 00:59:02.696593	293.2	44.2	-70.6	0.0
2025-01-18 00:59:03.829588	292.7	44.1	-67.6	0.0
2025-01-18 00:59:04.966091	292.1	44.1	-68.4	0.0
2025-01-18 00:59:06.101080	291.5	44.0	-69.1	0.0
2025-01-18 00:59:07.236069	290.9	43.9	-69.7	0.0
2025-01-18 00:59:08.372055	290.3	43.8	-66.3	0.0
2025-01-18 00:59:09.504068	289.7	43.7	-70.0	0.0
2025-01-18 00:59:10.636884	289.1	43.6	-70.8	0.0
2025-01-18 00:59:11.771381	288.6	43.5	-70.3	0.0
2025-01-18 00:59:12.905372	288.0	43.4	-69.8	0.0
2025-01-18 00:59:14.041537	287.4	43.3	-70.7	0.0
2025-01-18 00:59:15.175529	286.8	43.2	-69.8	0.0
2025-01-18 00:59:16.308523	286.3	43.1	-70.4	0.0
2025-01-18 00:59:17.444512	285.7	43.0	-70.2	0.0
2025-01-18 00:59:18.578165	285.2	42.9	-71.4	0.0
2025-01-18 00:59:19.714152	284.6	42.8	-71.9	0.0
2025-01-18 00:59:20.849141	284.1	42.7	-68.8	0.0
2025-01-18 00:59:21.981139	283.5	42.5	-71.4	0.0
2025-01-18 00:59:23.113135	283.0	42.4	-72.1	0.0
2025-01-18 00:59:24.247127	282.5	42.3	-66.2	0.0
2025-01-18 00:59:25.381119	281.9	42.2	-70.8	0.0
2025-01-18 00:59:26.515110	281.4	42.0	-69.3	0.0
2025-01-18 00:59:27.650104	280.9	41.9	-71.7	0.0
2025-01-18 00:59:28.784095	280.4	41.8	-72.1	0.0
2025-01-18 00:59:29.917090	279.9	41.6	-71.9	0.0
2025-01-18 00:59:31.052081	279.4	41.5	-68.5	0.0
2025-01-18 00:59:32.185491	278.9	41.4	-72.2	0.0
2025-01-18 00:59:33.323472	278.4	41.2	-71.9	0.0
2025-01-18 00:59:34.457465	277.9	41.1	-72.3	0.0
2025-01-18 00:59:35.592453	277.4	40.9	-70.1	0.0
2025-01-18 00:59:36.727951	276.9	40.8	-72.2	0.0
2025-01-18 00:59:37.861942	276.4	40.6	-71.2	0.0
2025-01-18 00:59:38.994938	275.9	40.5	-71.9	0.0
2025-01-18 00:59:40.132918	275.5	40.3	-70.9	0.0
2025-01-18 00:59:41.267907	275.0	40.2	-71.3	0.0
2025-01-18 00:59:42.399906	274.5	40.0	-71.1	0.0
2025-01-18 00:59:43.532898	274.1	39.8	-71.1	0.0
2025-01-18 00:59:44.665893	273.6	39.7	-70.9	0.0
2025-01-18 00:59:45.804461	273.2	39.5	-70.1	0.0
2025-01-18 00:59:46.937455	272.7	39.4	-68.4	0.0
2025-01-18 00:59:48.072445	272.3	39.2	-69.6	0.0
2025-01-18 00:59:49.204442	271.8	39.0	-68.8	0.0
2025-01-18 00:59:50.339431	271.4	38.9	-69.7	0.0
2025-01-18 00:59:51.482399	271.0	38.7	-70.4	0.0
2025-01-18 00:59:52.618387	270.5	38.5	-71.0	0.0
2025-01-18 00:59:53.752377	270.1	38.4	-71.0	0.0
2025-01-18 00:59:54.893351	269.7	38.2	-70.2	0.0
2025-01-18 00:59:56.027342	269.3	38.0	-71.7	0.0
2025-01-18 00:59:57.160337	268.9	37.9	-70.1	0.0
2025-01-18 00:59:58.293331	268.5	37.7	-71.0	0.0
2025-01-18 00:59:59.425332	268.1	37.5	-71.3	0.0
2025-01-18 01:00:00.562317	267.7	37.3	-69.9	0.0
2025-01-18 01:00:01.696421	267.3	37.2	-71.4	0.0
2025-01-18 01:00:02.832407	266.9	37.0	-70.4	0.0
2025-01-18 01:00:03.972898	266.6	36.8	-71.1	0.0
2025-01-18 01:00:05.107887	266.2	36.7	-71.8	0.0
2025-01-18 01:00:06.243876	265.8	36.5	-69.9	0.0
2025-01-18 01:00:07.378374	265.4	36.3	-71.1	0.0
2025-01-18 01:00:08.511369	265.1	36.1	-72.3	0.0
2025-01-18 01:00:09.645359	264.7	35.9	-72.4	0.0
2025-01-18 01:00:10.781360	264.4	35.8	-72.0	0.0
2025-01-18 01:00:11.916335	264.0	35.6	-72.9	0.0
2025-01-18 01:00:13.053319	263.6	35.4	-72.9	0.0
2025-01-18 01:00:14.187311	263.3	35.2	-71.3	0.0
2025-01-18 01:00:15.320319	263.0	35.1	-72.6	0.0
2025-01-18 01:00:16.452316	262.6	34.9	-72.0	0.0
2025-01-18 01:00:17.584821	262.3	34.7	-71.9	0.0
2025-01-18 01:00:18.718843	262.0	34.5	-71.9	0.0
2025-01-18 01:00:19.853265	261.6	34.4	-71.7	0.0
2025-01-18 01:00:20.987277	261.3	34.2	-72.0	0.0
2025-01-18 01:00:22.121777	261.0	34.0	-71.9	0.0
2025-01-18 01:00:23.255768	260.7	33.8	-71.8	0.0
2025-01-18 01:00:24.389767	260.4	33.6	-71.1	0.0
2025-01-18 01:00:25.526744	260.1	33.5	-72.2	0.0
2025-01-18 01:00:26.664725	259.7	33.3	-71.0	0.0
2025-01-18 01:00:27.797720	259.4	33.1	-70.8	0.0
2025-01-18 01:00:28.933706	259.1	32.9	-71.4	0.0
2025-01-18 01:00:30.067698	258.9	32.8	-69.9	0.0
2025-01-18 01:00:31.201689	258.6	32.6	-70.6	0.0
2025-01-18 01:00:32.335681	258.3	32.4	-69.2	0.0
2025-01-18 01:00:33.469672	258.0	32.2	-70.1	0.0
2025-01-18 01:00:34.602657	257.7	32.0	-71.5	0.0
2025-01-18 01:00:35.742633	257.4	31.9	-71.4	0.0
2025-01-18 01:00:36.877624	257.1	31.7	-68.0	0.0
2025-01-18 01:00:38.010739	256.9	31.5	-69.1	0.0
2025-01-18 01:00:39.145731	256.6	31.3	-72.2	0.0
2025-01-18 01:00:40.278724	256.3	31.2	-68.6	0.0
2025-01-18 01:00:41.413712	256.1	31.0	-70.8	0.0
2025-01-18 01:00:42.545708	255.8	30.8	-70.5	0.0
2025-01-18 01:00:43.678703	255.5	30.6	-72.0	0.0
2025-01-18 01:00:44.817191	255.3	30.5	-69.4	0.0
2025-01-18 01:00:45.952178	255.0	30.3	-70.3	0.0
2025-01-18 01:00:47.088164	254.8	30.1	-72.7	0.0
2025-01-18 01:00:48.225033	254.5	30.0	-69.9	0.0
#Closed at: 2025-01-18 00:56:27.473055