passes_logs/2025/01/18/Planum_Noyabrsk/Planum_Noyabrsk__20250118_064450_NOAA_19_rec.log

#Pass ID: 20250118_064450_NOAA 19
#Satellite: NOAA 19
#Configuration: NOAA 19
#Start time: 2025-01-18 06:44:55.012013

#LorettStation: 1.0.0 05.05.2024
#Station: Planum_Noyabrsk
#Location: 75.446886 lon 63.207202 lat
#TLE: 1 33591U 09005A   25017.34043103  .00000325  00000+0  19756-3 0  9998
#TLE: 2 33591  99.0191  81.1209 0014398  51.3165 308.9292 14.13261407821877

#Time	Az	El	Level	SNR
2025-01-18 06:45:01.199151	357.8	31.0	-64.6	6.9
2025-01-18 06:45:02.338117	357.6	31.1	-63.0	2.9
2025-01-18 06:45:03.475597	357.4	31.3	-64.0	7.9
2025-01-18 06:45:04.614565	357.1	31.5	-63.4	6.4
2025-01-18 06:45:05.754527	356.9	31.7	-61.9	2.1
2025-01-18 06:45:06.893493	356.6	31.8	-60.8	1.4
2025-01-18 06:45:08.035461	356.4	32.0	-61.4	3.2
2025-01-18 06:45:09.174427	356.1	32.2	-62.4	6.1
2025-01-18 06:45:10.319377	355.9	32.4	-60.7	3.6
2025-01-18 06:45:11.458890	355.6	32.6	-61.1	4.1
2025-01-18 06:45:12.600867	355.4	32.8	-60.1	3.9
2025-01-18 06:45:13.740320	355.1	32.9	-63.8	8.5
2025-01-18 06:45:14.880284	354.8	33.1	-63.9	6.6
2025-01-18 06:45:16.021245	354.5	33.3	-59.5	1.9
2025-01-18 06:45:17.160211	354.3	33.5	-58.0	0.0
2025-01-18 06:45:18.302676	354.0	33.7	-59.4	0.3
2025-01-18 06:45:19.442639	353.7	33.8	-58.9	0.0
2025-01-18 06:45:20.584599	353.4	34.0	-58.0	0.0
2025-01-18 06:45:21.727065	353.1	34.2	-57.5	0.0
2025-01-18 06:45:22.867535	352.8	34.4	-55.2	0.0
2025-01-18 06:45:24.009494	352.6	34.6	-59.0	0.0
2025-01-18 06:45:25.149457	352.3	34.8	-58.3	0.0
2025-01-18 06:45:26.291416	352.0	35.0	-56.1	0.0
2025-01-18 06:45:27.433375	351.7	35.1	-57.3	0.0
2025-01-18 06:45:28.574335	351.3	35.3	-57.5	0.0
2025-01-18 06:45:29.716296	351.0	35.5	-56.4	0.0
2025-01-18 06:45:30.857255	350.7	35.7	-53.8	0.0
2025-01-18 06:45:31.998216	350.4	35.9	-56.0	0.0
2025-01-18 06:45:33.143167	350.1	36.1	-55.0	0.0
2025-01-18 06:45:34.283130	349.7	36.3	-55.0	0.0
2025-01-18 06:45:35.422097	349.4	36.4	-54.4	0.0
2025-01-18 06:45:36.563058	349.1	36.6	-54.9	0.0
2025-01-18 06:45:37.705017	348.7	36.8	-54.9	0.0
2025-01-18 06:45:38.847973	348.4	37.0	-56.6	0.0
2025-01-18 06:45:39.993429	348.1	37.2	-54.3	0.0
2025-01-18 06:45:41.136386	347.7	37.4	-56.1	0.0
2025-01-18 06:45:42.277855	347.4	37.6	-55.7	0.0
2025-01-18 06:45:43.419813	347.0	37.7	-54.7	0.0
2025-01-18 06:45:44.559779	346.6	37.9	-55.2	0.0
2025-01-18 06:45:45.702732	346.3	38.1	-60.5	0.0
2025-01-18 06:45:46.843713	345.9	38.3	-52.5	0.0
2025-01-18 06:45:47.984674	345.5	38.5	-55.1	0.0
2025-01-18 06:45:49.126635	345.1	38.7	-53.9	0.0
2025-01-18 06:45:50.266596	344.8	38.8	-55.8	0.0
2025-01-18 06:45:51.408066	344.4	39.0	-53.6	0.0
2025-01-18 06:45:52.548029	344.0	39.2	-53.8	0.0
2025-01-18 06:45:53.687503	343.6	39.4	-53.0	0.0
2025-01-18 06:45:54.828464	343.2	39.6	-53.7	0.0
2025-01-18 06:45:55.966433	342.8	39.8	-52.2	0.0
2025-01-18 06:45:57.109389	342.4	39.9	-53.5	0.0
2025-01-18 06:45:58.251347	342.0	40.1	-53.2	0.0
2025-01-18 06:45:59.395301	341.5	40.3	-52.7	0.0
2025-01-18 06:46:00.538256	341.1	40.5	-52.8	0.0
2025-01-18 06:46:01.679217	340.7	40.6	-52.6	0.0
2025-01-18 06:46:02.817187	340.3	40.8	-53.4	0.0
2025-01-18 06:46:03.959145	339.8	41.0	-51.6	0.0
2025-01-18 06:46:05.100613	339.4	41.2	-53.7	0.0
2025-01-18 06:46:06.243077	338.9	41.3	-53.4	0.0
2025-01-18 06:46:07.382043	338.5	41.5	-53.5	0.0
2025-01-18 06:46:08.524002	338.0	41.7	-54.8	0.0
2025-01-18 06:46:09.663966	337.6	41.8	-55.3	0.0
2025-01-18 06:46:10.806923	337.1	42.0	-54.5	0.0
2025-01-18 06:46:11.945888	336.6	42.2	-53.8	0.0
2025-01-18 06:46:13.084858	336.1	42.3	-56.3	0.0
2025-01-18 06:46:14.224822	335.7	42.5	-54.9	0.0
2025-01-18 06:46:15.366290	335.2	42.6	-54.3	0.0
2025-01-18 06:46:16.508755	334.7	42.8	-54.3	0.0
2025-01-18 06:46:17.650712	334.2	43.0	-55.1	0.0
2025-01-18 06:46:18.791184	333.7	43.1	-54.4	0.0
2025-01-18 06:46:19.933141	333.2	43.3	-54.2	0.0
2025-01-18 06:46:21.074104	332.7	43.4	-53.8	0.0
2025-01-18 06:46:22.216060	332.2	43.6	-54.9	0.0
2025-01-18 06:46:23.360014	331.6	43.7	-55.4	0.0
2025-01-18 06:46:24.498980	331.1	43.9	-59.0	3.7
2025-01-18 06:46:25.636949	330.6	44.0	-55.9	0.0
2025-01-18 06:46:26.776422	330.1	44.1	-56.5	0.0
2025-01-18 06:46:27.917383	329.5	44.3	-56.0	0.0
2025-01-18 06:46:29.059342	329.0	44.4	-55.9	0.0
2025-01-18 06:46:30.200303	328.4	44.6	-58.7	2.4
2025-01-18 06:46:31.342261	327.9	44.7	-58.3	1.0
2025-01-18 06:46:32.482225	327.3	44.8	-58.2	1.3
2025-01-18 06:46:33.624201	326.8	44.9	-58.4	2.0
2025-01-18 06:46:34.765161	326.2	45.1	-57.9	0.0
2025-01-18 06:46:35.906123	325.6	45.2	-57.7	3.0
2025-01-18 06:46:37.047592	325.1	45.3	-57.7	2.0
2025-01-18 06:46:38.189551	324.5	45.4	-58.5	3.4
2025-01-18 06:46:39.330511	323.9	45.5	-58.1	2.2
2025-01-18 06:46:40.469478	323.3	45.6	-59.8	2.2
2025-01-18 06:46:41.615937	322.7	45.7	-59.5	4.0
2025-01-18 06:46:42.757893	322.1	45.8	-59.5	5.0
2025-01-18 06:46:43.899852	321.5	45.9	-58.8	2.9
2025-01-18 06:46:45.037451	320.9	46.0	-59.2	3.3
2025-01-18 06:46:46.177415	320.3	46.1	-59.1	3.3
2025-01-18 06:46:47.317380	319.7	46.2	-60.1	3.2
2025-01-18 06:46:48.455855	319.1	46.3	-59.6	4.7
2025-01-18 06:46:49.596817	318.5	46.4	-60.5	4.3
2025-01-18 06:46:50.734785	317.9	46.5	-59.5	3.5
2025-01-18 06:46:51.873260	317.2	46.5	-59.6	5.4
2025-01-18 06:46:53.014222	316.6	46.6	-59.0	1.5
2025-01-18 06:46:54.156180	316.0	46.7	-60.3	5.8
2025-01-18 06:46:55.295147	315.4	46.7	-59.4	4.2
2025-01-18 06:46:56.434619	314.7	46.8	-59.7	4.9
2025-01-18 06:46:57.573585	314.1	46.8	-60.2	6.9
2025-01-18 06:46:58.713549	313.5	46.9	-59.8	4.5
2025-01-18 06:46:59.853513	312.8	47.0	-59.7	4.6
2025-01-18 06:47:00.996469	312.2	47.0	-60.4	6.3
2025-01-18 06:47:02.136433	311.5	47.0	-60.8	5.9
2025-01-18 06:47:03.281383	310.9	47.1	-61.3	7.2
2025-01-18 06:47:04.421347	310.3	47.1	-61.1	7.2
2025-01-18 06:47:05.562309	309.6	47.1	-60.4	5.8
2025-01-18 06:47:06.701786	309.0	47.2	-60.4	6.3
2025-01-18 06:47:07.840752	308.3	47.2	-60.9	8.0
2025-01-18 06:47:08.979719	307.7	47.2	-61.2	7.5
2025-01-18 06:47:10.122674	307.0	47.2	-61.6	7.5
2025-01-18 06:47:11.262638	306.4	47.2	-61.8	8.2
2025-01-18 06:47:12.405103	305.7	47.2	-61.4	8.4
2025-01-18 06:47:13.547061	305.1	47.2	-61.9	8.5
2025-01-18 06:47:14.687024	304.4	47.2	-61.7	7.5
2025-01-18 06:47:15.828984	303.8	47.2	-62.1	10.2
2025-01-18 06:47:16.970941	303.1	47.2	-61.9	6.8
2025-01-18 06:47:18.112924	302.4	47.2	-64.1	11.6
2025-01-18 06:47:19.252887	301.8	47.2	-62.3	7.4
2025-01-18 06:47:20.394863	301.2	47.1	-62.7	8.5
2025-01-18 06:47:21.532350	300.5	47.1	-62.6	8.5
2025-01-18 06:47:22.673302	299.9	47.1	-63.0	7.7
2025-01-18 06:47:23.813773	299.2	47.1	-62.9	7.7
2025-01-18 06:47:24.956729	298.6	47.0	-62.7	8.5
2025-01-18 06:47:26.096694	297.9	47.0	-62.7	8.1
2025-01-18 06:47:27.235659	297.3	46.9	-62.2	7.2
2025-01-18 06:47:28.374625	296.7	46.9	-62.2	7.7
2025-01-18 06:47:29.515604	296.0	46.8	-61.9	7.9
2025-01-18 06:47:30.655568	295.4	46.8	-61.1	6.5
2025-01-18 06:47:31.797526	294.8	46.7	-61.9	7.5
2025-01-18 06:47:32.938994	294.1	46.6	-61.6	6.6
2025-01-18 06:47:34.077960	293.5	46.6	-61.6	6.8
2025-01-18 06:47:35.217924	292.9	46.5	-61.2	7.0
2025-01-18 06:47:36.358398	292.3	46.4	-61.7	6.5
2025-01-18 06:47:37.500356	291.6	46.3	-61.2	6.9
2025-01-18 06:47:38.640321	291.0	46.2	-61.0	5.0
2025-01-18 06:47:39.782279	290.4	46.2	-61.1	4.7
2025-01-18 06:47:40.930222	289.8	46.1	-61.6	5.2
2025-01-18 06:47:42.070185	289.2	46.0	-61.2	5.4
2025-01-18 06:47:43.210654	288.6	45.9	-61.1	4.8
2025-01-18 06:47:44.354608	288.0	45.8	-61.1	4.5
2025-01-18 06:47:45.495570	287.4	45.7	-61.1	5.7
2025-01-18 06:47:46.635532	286.8	45.6	-60.5	4.0
2025-01-18 06:47:47.776503	286.2	45.5	-60.1	4.1
2025-01-18 06:47:48.917455	285.7	45.3	-61.2	5.7
2025-01-18 06:47:50.055424	285.1	45.2	-61.5	4.8
2025-01-18 06:47:51.195303	284.5	45.1	-60.7	5.1
2025-01-18 06:47:52.335267	284.0	45.0	-62.0	7.7
2025-01-18 06:47:53.475231	283.4	44.9	-61.6	6.4
2025-01-18 06:47:54.616211	282.8	44.7	-60.6	5.6
2025-01-18 06:47:55.756173	282.3	44.6	-62.1	6.6
2025-01-18 06:47:56.897134	281.7	44.5	-62.4	5.1
2025-01-18 06:47:58.038602	281.2	44.3	-61.3	4.9
2025-01-18 06:47:59.179563	280.6	44.2	-61.2	6.1
2025-01-18 06:48:00.322519	280.1	44.1	-61.4	6.9
2025-01-18 06:48:01.463481	279.6	43.9	-62.3	9.3
2025-01-18 06:48:02.604441	279.1	43.8	-62.1	7.3
2025-01-18 06:48:03.745402	278.5	43.6	-62.5	7.8
2025-01-18 06:48:04.886364	278.0	43.5	-62.1	8.7
2025-01-18 06:48:06.028322	277.5	43.3	-62.4	7.1
2025-01-18 06:48:07.170280	277.0	43.2	-62.5	8.9
2025-01-18 06:48:08.308250	276.5	43.0	-62.8	9.2
2025-01-18 06:48:09.448321	276.0	42.9	-62.0	8.1
2025-01-18 06:48:10.590279	275.5	42.7	-62.6	9.7
2025-01-18 06:48:11.731240	275.0	42.6	-61.9	8.0
2025-01-18 06:48:12.869715	274.5	42.4	-62.3	9.8
2025-01-18 06:48:14.009679	274.1	42.2	-61.5	9.8
2025-01-18 06:48:15.148645	273.6	42.1	-61.3	9.4
2025-01-18 06:48:16.287120	273.1	41.9	-62.3	9.2
2025-01-18 06:48:17.426087	272.7	41.7	-62.1	10.0
2025-01-18 06:48:18.568060	272.2	41.6	-62.0	10.9
2025-01-18 06:48:19.710526	271.7	41.4	-61.9	9.5
2025-01-18 06:48:20.848807	271.3	41.2	-62.0	8.7
2025-01-18 06:48:21.990766	270.9	41.1	-61.4	8.1
2025-01-18 06:48:23.132725	270.4	40.9	-61.8	9.2
2025-01-18 06:48:24.274191	270.0	40.7	-62.3	9.0
2025-01-18 06:48:25.417147	269.5	40.5	-62.1	7.9
2025-01-18 06:48:26.558108	269.1	40.4	-62.1	8.9
2025-01-18 06:48:27.700067	268.7	40.2	-62.4	7.8
2025-01-18 06:48:28.840030	268.3	40.0	-62.4	6.3
2025-01-18 06:48:29.980992	267.9	39.8	-62.2	6.5
2025-01-18 06:48:31.123456	267.5	39.7	-63.7	8.6
2025-01-18 06:48:32.264417	267.1	39.5	-63.5	9.7
2025-01-18 06:48:33.406376	266.7	39.3	-63.9	9.8
2025-01-18 06:48:34.547337	266.3	39.1	-64.0	8.8
2025-01-18 06:48:35.687301	265.9	38.9	-64.1	10.3
2025-01-18 06:48:36.826267	265.5	38.7	-64.1	7.8
2025-01-18 06:48:37.964744	265.1	38.6	-64.0	9.9
2025-01-18 06:48:39.109694	264.7	38.4	-64.7	10.0
2025-01-18 06:48:40.249658	264.4	38.2	-64.9	10.6
2025-01-18 06:48:41.389621	264.0	38.0	-65.1	10.8
2025-01-18 06:48:42.526593	263.6	37.8	-65.2	11.3
2025-01-18 06:48:43.667554	263.3	37.6	-65.1	11.9
2025-01-18 06:48:44.808516	262.9	37.5	-65.4	11.0
2025-01-18 06:48:45.951497	262.6	37.3	-65.1	11.7
2025-01-18 06:48:47.090462	262.2	37.1	-65.6	11.2
2025-01-18 06:48:48.228431	261.9	36.9	-65.4	11.3
2025-01-18 06:48:49.370055	261.5	36.7	-65.5	10.9
2025-01-18 06:48:50.511015	261.2	36.5	-65.8	11.3
2025-01-18 06:48:51.653971	260.9	36.3	-65.6	12.0
2025-01-18 06:48:52.791460	260.5	36.2	-65.7	10.1
2025-01-18 06:48:53.928432	260.2	36.0	-65.5	11.3
2025-01-18 06:48:55.066909	259.9	35.8	-64.9	10.4
2025-01-18 06:48:56.207871	259.6	35.6	-65.0	10.8
2025-01-18 06:48:57.347834	259.3	35.4	-64.6	9.3
2025-01-18 06:48:58.483808	259.0	35.2	-64.2	8.5
2025-01-18 06:48:59.626765	258.7	35.0	-64.4	11.1
2025-01-18 06:49:00.765731	258.3	34.9	-64.4	9.8
2025-01-18 06:49:01.903700	258.1	34.7	-63.9	10.3
2025-01-18 06:49:03.043664	257.8	34.5	-64.4	9.5
2025-01-18 06:49:04.183136	257.5	34.3	-64.2	9.7
2025-01-18 06:49:05.321105	257.2	34.1	-64.1	8.7
2025-01-18 06:49:06.462067	256.9	33.9	-64.4	9.3
2025-01-18 06:49:07.601033	256.6	33.8	-64.3	10.0
2025-01-18 06:49:08.743989	256.3	33.6	-64.0	9.4
2025-01-18 06:49:09.886945	256.0	33.4	-63.9	9.4
2025-01-18 06:49:11.027906	255.8	33.2	-63.3	9.8
2025-01-18 06:49:12.167379	255.5	33.0	-63.5	9.2
2025-01-18 06:49:13.307343	255.2	32.8	-63.3	8.5
2025-01-18 06:49:14.446309	255.0	32.7	-63.1	8.7
2025-01-18 06:49:15.585785	254.7	32.5	-63.6	8.9
2025-01-18 06:49:16.723754	254.5	32.3	-63.3	9.3
2025-01-18 06:49:17.870341	254.2	32.1	-63.5	8.5
2025-01-18 06:49:19.007819	253.9	31.9	-63.1	8.5
2025-01-18 06:49:20.150284	253.7	31.8	-63.3	8.5
2025-01-18 06:49:21.289250	253.4	31.6	-63.5	7.6
2025-01-18 06:49:22.429214	253.2	31.4	-63.8	8.3
2025-01-18 06:49:23.567206	253.0	31.2	-63.8	7.5
2025-01-18 06:49:24.708168	252.7	31.0	-62.3	6.7
2025-01-18 06:49:25.847134	252.5	30.9	-63.5	7.5
2025-01-18 06:49:26.987712	252.3	30.7	-63.7	7.0
2025-01-18 06:49:28.129320	252.0	30.5	-63.4	6.3
2025-01-18 06:49:29.270291	251.8	30.3	-65.0	9.2
2025-01-18 06:49:30.412240	251.6	30.2	-64.0	7.8
2025-01-18 06:49:31.552204	251.3	30.0	-66.5	2.1
#Closed at: 2025-01-18 06:44:50.014949