passes_logs/2025/01/18/Planum_Noyabrsk/Planum_Noyabrsk__20250118_150052_NOAA_19_rec.log

#Pass ID: 20250118_150052_NOAA 19
#Satellite: NOAA 19
#Configuration: NOAA 19
#Start time: 2025-01-18 15:00:57.286032

#LorettStation: 1.0.0 05.05.2024
#Station: Planum_Noyabrsk
#Location: 75.446886 lon 63.207202 lat
#TLE: 1 33591U 09005A   25017.34043103  .00000325  00000+0  19756-3 0  9998
#TLE: 2 33591  99.0191  81.1209 0014398  51.3165 308.9292 14.13261407821877

#Time	Az	El	Level	SNR
2025-01-18 15:01:09.512852	141.9	32.4	-61.3	0.9
2025-01-18 15:01:10.653814	141.8	32.6	-61.6	0.0
2025-01-18 15:01:11.795280	141.8	32.8	-61.8	1.3
2025-01-18 15:01:12.938236	141.7	33.1	-61.6	3.5
2025-01-18 15:01:14.078200	141.6	33.3	-59.1	0.0
2025-01-18 15:01:15.221156	141.5	33.5	-62.3	2.5
2025-01-18 15:01:16.362116	141.4	33.8	-60.9	3.5
2025-01-18 15:01:17.503078	141.3	34.0	-63.6	6.3
2025-01-18 15:01:18.645541	141.2	34.3	-61.8	3.5
2025-01-18 15:01:19.786502	141.1	34.5	-63.8	7.2
2025-01-18 15:01:20.926973	141.1	34.8	-64.0	7.8
2025-01-18 15:01:22.068931	141.0	35.0	-61.3	2.6
2025-01-18 15:01:23.210889	140.9	35.3	-61.5	3.6
2025-01-18 15:01:24.350877	140.8	35.5	-61.7	5.0
2025-01-18 15:01:25.492348	140.7	35.8	-62.4	0.3
2025-01-18 15:01:26.635304	140.6	36.0	-59.7	0.2
2025-01-18 15:01:27.775267	140.5	36.3	-63.0	8.5
2025-01-18 15:01:28.917226	140.4	36.5	-62.9	7.8
2025-01-18 15:01:30.059184	140.3	36.8	-62.5	4.4
2025-01-18 15:01:31.200651	140.1	37.1	-62.2	5.4
2025-01-18 15:01:32.344604	140.0	37.3	-62.4	6.6
2025-01-18 15:01:33.485565	139.9	37.6	-60.3	1.0
2025-01-18 15:01:34.624531	139.8	37.9	-62.7	3.4
2025-01-18 15:01:35.767487	139.7	38.2	-61.9	2.7
2025-01-18 15:01:36.907451	139.6	38.4	-62.7	6.3
2025-01-18 15:01:38.048413	139.5	38.7	-62.2	3.9
2025-01-18 15:01:39.188881	139.3	39.0	-62.2	2.6
2025-01-18 15:01:40.330840	139.2	39.3	-63.0	3.7
2025-01-18 15:01:41.472798	139.1	39.5	-62.2	3.7
2025-01-18 15:01:42.614268	139.0	39.8	-63.1	2.1
2025-01-18 15:01:43.754737	138.8	40.1	-58.9	0.0
2025-01-18 15:01:44.896696	138.7	40.4	-63.3	0.0
2025-01-18 15:01:46.038164	138.6	40.7	-59.8	0.0
2025-01-18 15:01:47.179130	138.4	41.0	-61.1	6.2
2025-01-18 15:01:48.320085	138.3	41.3	-60.0	4.1
2025-01-18 15:01:49.462045	138.1	41.6	-62.4	8.5
2025-01-18 15:01:50.604002	138.0	41.9	-59.9	0.0
2025-01-18 15:01:51.745961	137.9	42.2	-59.7	1.9
2025-01-18 15:01:52.885924	137.7	42.5	-58.9	0.0
2025-01-18 15:01:54.027903	137.5	42.8	-61.8	7.6
2025-01-18 15:01:55.167866	137.4	43.1	-61.1	2.3
2025-01-18 15:01:56.312817	137.2	43.4	-60.0	1.7
2025-01-18 15:01:57.452780	137.1	43.7	-60.3	2.3
2025-01-18 15:01:58.593741	136.9	44.1	-58.5	0.0
2025-01-18 15:01:59.735700	136.7	44.4	-58.9	2.5
2025-01-18 15:02:00.874175	136.6	44.7	-61.4	6.4
2025-01-18 15:02:02.017130	136.4	45.0	-60.8	2.2
2025-01-18 15:02:03.157103	136.2	45.3	-60.7	4.2
2025-01-18 15:02:04.301554	136.0	45.7	-60.9	3.3
2025-01-18 15:02:05.442023	135.8	46.0	-59.9	3.9
2025-01-18 15:02:06.583981	135.6	46.3	-61.1	5.4
2025-01-18 15:02:07.724942	135.4	46.7	-61.1	4.0
2025-01-18 15:02:08.865903	135.2	47.0	-62.4	3.7
2025-01-18 15:02:10.007864	135.0	47.4	-60.7	3.6
2025-01-18 15:02:11.147839	134.8	47.7	-61.8	4.5
2025-01-18 15:02:12.291792	134.6	48.0	-63.4	7.0
2025-01-18 15:02:13.432753	134.4	48.4	-61.6	5.5
2025-01-18 15:02:14.572225	134.1	48.7	-60.0	3.5
2025-01-18 15:02:15.714183	133.9	49.1	-60.3	1.5
2025-01-18 15:02:16.857139	133.7	49.4	-58.9	2.8
2025-01-18 15:02:17.997612	133.4	49.8	-56.0	0.0
2025-01-18 15:02:19.138574	133.2	50.1	-57.2	0.0
2025-01-18 15:02:20.280532	132.9	50.5	-56.5	0.0
2025-01-18 15:02:21.422491	132.7	50.9	-58.0	3.4
2025-01-18 15:02:22.563452	132.4	51.2	-58.1	2.2
2025-01-18 15:02:23.705410	132.1	51.6	-60.1	4.8
2025-01-18 15:02:24.846884	131.9	52.0	-60.4	2.8
2025-01-18 15:02:25.988842	131.6	52.3	-62.5	6.7
2025-01-18 15:02:27.130800	131.3	52.7	-59.9	5.3
2025-01-18 15:02:28.273264	131.0	53.1	-62.0	6.7
2025-01-18 15:02:29.416220	130.7	53.5	-60.8	6.4
2025-01-18 15:02:30.557182	130.3	53.8	-59.8	5.8
2025-01-18 15:02:31.700137	130.0	54.2	-62.0	6.6
2025-01-18 15:02:32.841604	129.7	54.6	-60.9	3.8
2025-01-18 15:02:33.983562	129.3	55.0	-62.2	8.2
2025-01-18 15:02:35.124523	129.0	55.4	-58.7	0.0
2025-01-18 15:02:36.266501	128.6	55.8	-62.0	8.1
2025-01-18 15:02:37.406466	128.2	56.2	-63.0	9.9
2025-01-18 15:02:38.549421	127.9	56.5	-59.7	5.4
2025-01-18 15:02:39.690382	127.5	56.9	-59.3	4.8
2025-01-18 15:02:40.831343	127.1	57.3	-59.8	1.4
2025-01-18 15:02:41.971307	126.6	57.7	-59.9	5.0
2025-01-18 15:02:43.113773	126.2	58.1	-58.7	0.0
2025-01-18 15:02:44.254732	125.8	58.5	-60.5	3.8
2025-01-18 15:02:45.397688	125.3	58.9	-61.4	5.1
2025-01-18 15:02:46.539158	124.8	59.3	-59.8	0.0
2025-01-18 15:02:47.681116	124.3	59.7	-59.2	0.0
2025-01-18 15:02:48.821080	123.8	60.1	-60.8	3.3
2025-01-18 15:02:49.965032	123.3	60.5	-60.5	4.8
2025-01-18 15:02:51.106991	122.8	60.9	-61.7	4.7
2025-01-18 15:02:52.248949	122.2	61.3	-59.0	0.0
2025-01-18 15:02:53.387429	121.6	61.7	-59.5	0.0
2025-01-18 15:02:54.528390	121.1	62.1	-58.8	0.0
2025-01-18 15:02:55.670348	120.4	62.5	-58.2	0.0
2025-01-18 15:02:56.810825	119.8	62.9	-59.7	3.2
2025-01-18 15:02:57.952783	119.2	63.3	-60.3	4.3
2025-01-18 15:02:59.094742	118.5	63.7	-60.4	0.0
2025-01-18 15:03:00.235704	117.8	64.1	-60.2	1.6
2025-01-18 15:03:01.376665	117.1	64.5	-60.8	1.3
2025-01-18 15:03:02.517625	116.3	64.9	-58.4	0.0
2025-01-18 15:03:03.659092	115.5	65.3	-57.5	0.0
2025-01-18 15:03:04.799055	114.7	65.7	-59.3	0.0
2025-01-18 15:03:05.942011	113.9	66.0	-59.4	1.8
2025-01-18 15:03:07.083969	113.0	66.4	-58.4	0.0
2025-01-18 15:03:08.225928	112.2	66.8	-57.2	0.0
2025-01-18 15:03:09.366889	111.2	67.2	-58.2	0.0
2025-01-18 15:03:10.508359	110.3	67.6	-58.7	0.0
2025-01-18 15:03:11.650318	109.3	67.9	-56.7	0.0
2025-01-18 15:03:12.790282	108.2	68.3	-57.9	0.0
2025-01-18 15:03:13.933238	107.2	68.6	-57.9	0.0
2025-01-18 15:03:15.076193	106.1	69.0	-59.5	0.0
2025-01-18 15:03:16.221144	104.9	69.3	-58.3	0.0
2025-01-18 15:03:17.361615	103.7	69.7	-58.7	0.0
2025-01-18 15:03:18.503582	102.5	70.0	-57.4	0.0
2025-01-18 15:03:19.644535	101.2	70.3	-59.7	0.0
2025-01-18 15:03:20.786493	99.9	70.7	-60.1	1.8
2025-01-18 15:03:21.926969	98.5	71.0	-60.1	0.0
2025-01-18 15:03:23.069925	97.1	71.3	-58.0	0.0
2025-01-18 15:03:24.210885	95.6	71.5	-59.4	0.3
2025-01-18 15:03:25.352845	94.1	71.8	-58.8	0.0
2025-01-18 15:03:26.494803	92.6	72.1	-58.0	0.0
2025-01-18 15:03:27.634766	91.0	72.3	-57.4	0.0
2025-01-18 15:03:28.775727	89.3	72.6	-58.4	0.0
2025-01-18 15:03:29.918683	87.6	72.8	-59.2	0.2
2025-01-18 15:03:31.060641	85.9	73.0	-58.9	0.0
2025-01-18 15:03:32.202600	84.1	73.2	-59.2	0.0
2025-01-18 15:03:33.342564	82.3	73.4	-54.7	0.0
2025-01-18 15:03:34.484522	80.4	73.5	-58.2	0.0
2025-01-18 15:03:35.623488	78.5	73.7	-57.6	0.0
2025-01-18 15:03:36.767441	76.5	73.8	-58.9	0.0
2025-01-18 15:03:37.906407	74.6	73.9	-58.3	0.0
2025-01-18 15:03:39.048872	72.6	74.0	-60.1	0.0
2025-01-18 15:03:40.189833	70.5	74.1	-59.1	0.0
2025-01-18 15:03:41.330796	68.5	74.1	-60.0	0.0
2025-01-18 15:03:42.471265	66.5	74.2	-58.8	0.0
2025-01-18 15:03:43.614222	64.4	74.2	-60.4	0.0
2025-01-18 15:03:44.755182	62.4	74.2	-58.8	0.0
2025-01-18 15:03:45.896651	60.3	74.1	-60.1	0.0
2025-01-18 15:03:47.039607	58.3	74.1	-58.4	0.0
2025-01-18 15:03:48.180568	56.2	74.0	-58.5	0.0
2025-01-18 15:03:49.321529	54.2	73.9	-60.2	1.8
2025-01-18 15:03:50.462490	52.3	73.8	-59.6	1.1
2025-01-18 15:03:51.603451	50.3	73.7	-59.8	2.0
2025-01-18 15:03:52.744412	48.4	73.6	-58.9	0.0
2025-01-18 15:03:53.889870	46.5	73.4	-59.0	0.0
2025-01-18 15:03:55.031827	44.7	73.3	-59.0	0.0
2025-01-18 15:03:56.174784	42.8	73.1	-58.8	0.0
2025-01-18 15:03:57.317250	41.1	72.9	-59.0	0.0
2025-01-18 15:03:58.460715	39.4	72.7	-59.5	0.0
2025-01-18 15:03:59.603671	37.7	72.4	-59.9	0.0
2025-01-18 15:04:00.744143	36.1	72.2	-60.9	2.4
2025-01-18 15:04:01.886101	34.5	71.9	-60.5	0.0
2025-01-18 15:04:03.027062	33.0	71.7	-58.9	0.0
2025-01-18 15:04:04.168039	31.5	71.4	-59.9	0.8
2025-01-18 15:04:05.311993	30.0	71.1	-58.8	0.0
2025-01-18 15:04:06.453951	28.7	70.8	-58.1	0.0
2025-01-18 15:04:07.598900	27.3	70.5	-59.4	0.8
2025-01-18 15:04:08.741856	26.0	70.1	-58.8	0.4
2025-01-18 15:04:09.882817	24.8	69.8	-58.2	0.0
2025-01-18 15:04:11.023778	23.6	69.5	-59.4	1.7
2025-01-18 15:04:12.166734	22.4	69.1	-59.6	0.0
2025-01-18 15:04:13.308692	21.3	68.8	-58.1	0.0
2025-01-18 15:04:14.450651	20.2	68.4	-60.9	3.8
2025-01-18 15:04:15.590614	19.2	68.1	-59.0	0.0
2025-01-18 15:04:16.734567	18.1	67.7	-60.1	0.8
2025-01-18 15:04:17.875041	17.2	67.3	-58.4	0.0
2025-01-18 15:04:19.016999	16.2	67.0	-58.9	0.0
2025-01-18 15:04:20.156963	15.3	66.6	-59.2	0.0
2025-01-18 15:04:21.298431	14.5	66.2	-60.5	2.8
2025-01-18 15:04:22.439392	13.6	65.8	-58.3	0.0
2025-01-18 15:04:23.579356	12.8	65.4	-59.0	3.2
2025-01-18 15:04:24.722312	12.0	65.1	-60.4	3.2
2025-01-18 15:04:25.863272	11.3	64.7	-59.2	0.0
2025-01-18 15:04:27.004233	10.5	64.3	-58.3	0.0
2025-01-18 15:04:28.145703	9.8	63.9	-59.9	1.8
2025-01-18 15:04:29.286663	9.1	63.5	-59.1	3.9
2025-01-18 15:04:30.428621	8.5	63.1	-58.7	0.0
2025-01-18 15:04:31.570579	7.8	62.7	-60.3	3.6
2025-01-18 15:04:32.712538	7.2	62.3	-59.6	0.0
2025-01-18 15:04:33.852501	6.6	61.9	-59.6	3.2
2025-01-18 15:04:34.994967	6.0	61.5	-59.4	1.7
2025-01-18 15:04:36.134931	5.5	61.1	-59.0	2.7
2025-01-18 15:04:37.276890	4.9	60.7	-59.7	6.1
2025-01-18 15:04:38.418848	4.4	60.3	-60.6	4.4
2025-01-18 15:04:39.560806	3.9	59.9	-60.2	5.7
2025-01-18 15:04:40.700770	3.4	59.5	-61.2	5.1
2025-01-18 15:04:41.842728	2.9	59.1	-61.2	3.8
2025-01-18 15:04:42.984196	2.5	58.7	-56.6	0.8
2025-01-18 15:04:44.126154	2.0	58.3	-57.9	2.2
2025-01-18 15:04:45.268113	1.6	57.9	-59.2	0.0
2025-01-18 15:04:46.408583	1.2	57.5	-62.0	6.1
2025-01-18 15:04:47.548547	0.7	57.1	-61.5	4.9
2025-01-18 15:04:48.693497	0.3	56.7	-59.2	0.8
2025-01-18 15:04:49.831974	360.0	56.4	-61.5	4.3
2025-01-18 15:04:50.975928	359.6	56.0	-61.4	7.8
2025-01-18 15:04:52.116889	359.2	55.6	-57.2	0.0
2025-01-18 15:04:53.259357	358.8	55.2	-57.5	5.5
2025-01-18 15:04:54.399320	358.5	54.8	-57.6	0.0
2025-01-18 15:04:55.541307	358.2	54.4	-55.6	0.0
2025-01-18 15:04:56.681242	357.8	54.1	-55.2	0.0
2025-01-18 15:04:57.822205	357.5	53.7	-55.7	0.0
2025-01-18 15:04:58.964162	357.2	53.3	-56.6	0.0
2025-01-18 15:05:00.107121	356.9	52.9	-56.5	0.0
2025-01-18 15:05:01.246084	356.6	52.6	-56.8	0.0
2025-01-18 15:05:02.388043	356.3	52.2	-57.1	4.0
2025-01-18 15:05:03.527516	356.0	51.8	-56.6	0.0
2025-01-18 15:05:04.667480	355.7	51.4	-56.1	0.0
2025-01-18 15:05:05.811433	355.5	51.1	-56.4	0.0
2025-01-18 15:05:06.954388	355.2	50.7	-56.4	0.0
2025-01-18 15:05:08.095349	355.0	50.4	-55.6	0.0
2025-01-18 15:05:09.237820	354.7	50.0	-56.2	0.0
2025-01-18 15:05:10.377784	354.5	49.7	-57.9	0.0
2025-01-18 15:05:11.519743	354.2	49.3	-55.4	0.0
2025-01-18 15:05:12.661701	354.0	48.9	-55.4	0.0
2025-01-18 15:05:13.805654	353.8	48.6	-57.4	0.0
2025-01-18 15:05:14.950120	353.5	48.3	-55.7	0.0
2025-01-18 15:05:16.091081	353.3	47.9	-55.3	0.0
2025-01-18 15:05:17.233040	353.1	47.6	-55.4	0.0
2025-01-18 15:05:18.373509	352.9	47.2	-56.0	0.0
2025-01-18 15:05:19.515468	352.7	46.9	-57.4	0.0
2025-01-18 15:05:20.657426	352.5	46.6	-56.1	0.0
2025-01-18 15:05:21.799384	352.3	46.2	-56.9	0.0
2025-01-18 15:05:22.939348	352.1	45.9	-56.6	0.0
2025-01-18 15:05:24.080310	351.9	45.6	-57.6	0.0
2025-01-18 15:05:25.221271	351.8	45.2	-57.9	0.0
2025-01-18 15:05:26.364227	351.6	44.9	-55.6	0.0
2025-01-18 15:05:27.504189	351.4	44.6	-56.0	0.0
2025-01-18 15:05:28.645661	351.2	44.3	-55.2	0.0
2025-01-18 15:05:29.788126	351.1	44.0	-56.6	0.0
2025-01-18 15:05:30.930085	350.9	43.7	-55.3	0.0
2025-01-18 15:05:32.070559	350.7	43.3	-55.3	0.0
2025-01-18 15:05:33.212517	350.6	43.0	-55.9	0.0
2025-01-18 15:05:34.353478	350.4	42.7	-56.3	0.0
2025-01-18 15:05:35.495947	350.3	42.4	-56.0	0.0
2025-01-18 15:05:36.638902	350.1	42.1	-55.4	0.0
2025-01-18 15:05:37.779863	350.0	41.8	-54.7	0.0
2025-01-18 15:05:38.923817	349.8	41.5	-56.9	0.0
2025-01-18 15:05:40.064777	349.7	41.2	-56.8	0.0
2025-01-18 15:05:41.207733	349.6	40.9	-58.7	0.0
2025-01-18 15:05:42.350227	349.4	40.6	-57.4	0.0
2025-01-18 15:05:43.494179	349.3	40.3	-60.8	0.0
2025-01-18 15:05:44.637135	349.2	40.1	-58.4	0.0
2025-01-18 15:05:45.777605	349.0	39.8	-59.3	0.0
2025-01-18 15:05:46.922555	348.9	39.5	-56.4	0.0
2025-01-18 15:05:48.066509	348.8	39.2	-58.1	0.0
2025-01-18 15:05:49.208467	348.6	38.9	-55.9	0.0
2025-01-18 15:05:50.348431	348.5	38.7	-59.8	0.0
2025-01-18 15:05:51.491386	348.4	38.4	-57.5	0.0
2025-01-18 15:05:52.633365	348.3	38.1	-57.6	0.0
2025-01-18 15:05:53.773328	348.2	37.8	-58.3	0.0
2025-01-18 15:05:54.915287	348.1	37.6	-57.6	0.0
2025-01-18 15:05:56.056248	348.0	37.3	-57.9	0.0
2025-01-18 15:05:57.199203	347.9	37.0	-58.2	0.0
2025-01-18 15:05:58.340166	347.7	36.8	-58.7	0.0
2025-01-18 15:05:59.481126	347.6	36.5	-57.3	0.0
2025-01-18 15:06:00.623084	347.5	36.3	-56.9	0.0
2025-01-18 15:06:01.766039	347.4	36.0	-55.2	0.0
2025-01-18 15:06:02.905513	347.3	35.7	-57.3	0.0
2025-01-18 15:06:04.047471	347.2	35.5	-59.1	0.0
2025-01-18 15:06:05.187435	347.1	35.2	-60.3	0.0
2025-01-18 15:06:06.330391	347.1	35.0	-56.9	0.0
2025-01-18 15:06:07.470355	347.0	34.7	-54.3	0.0
2025-01-18 15:06:08.612313	346.9	34.5	-54.5	0.0
2025-01-18 15:06:09.754272	346.8	34.3	-52.9	0.0
2025-01-18 15:06:10.897227	346.7	34.0	-53.9	0.0
2025-01-18 15:06:12.041686	346.6	33.8	-54.2	0.0
2025-01-18 15:06:13.183644	346.5	33.5	-55.5	0.0
2025-01-18 15:06:14.330590	346.4	33.3	-57.0	0.0
2025-01-18 15:06:15.472548	346.3	33.1	-56.0	0.0
2025-01-18 15:06:16.614015	346.3	32.8	-59.8	0.0
2025-01-18 15:06:17.755483	346.2	32.6	-55.2	0.0
2025-01-18 15:06:18.897441	346.1	32.4	-56.8	0.0
2025-01-18 15:06:20.039399	346.0	32.1	-60.2	1.4
2025-01-18 15:06:21.181358	345.9	31.9	-56.1	0.0
2025-01-18 15:06:22.324313	345.9	31.7	-53.8	0.0
2025-01-18 15:06:23.467269	345.8	31.5	-55.7	0.0
2025-01-18 15:06:24.609227	345.7	31.3	-55.2	0.0
2025-01-18 15:06:25.750694	345.6	31.0	-55.5	0.0
2025-01-18 15:06:26.890659	345.6	30.8	-55.4	0.0
2025-01-18 15:06:28.033614	345.5	30.6	-53.1	0.0
2025-01-18 15:06:29.175572	345.4	30.4	-53.3	0.0
2025-01-18 15:06:30.319525	345.4	30.2	-53.2	0.0
#Closed at: 2025-01-18 15:00:52.290734