passes_logs/2025/01/18/Planum_Noyabrsk/Planum_Noyabrsk__20250118_050354_NOAA_19_rec.log

#Pass ID: 20250118_050354_NOAA 19
#Satellite: NOAA 19
#Configuration: NOAA 19
#Start time: 2025-01-18 05:03:59.308653

#LorettStation: 1.0.0 05.05.2024
#Station: Planum_Noyabrsk
#Location: 75.446886 lon 63.207202 lat
#TLE: 1 33591U 09005A   25017.34043103  .00000325  00000+0  19756-3 0  9998
#TLE: 2 33591  99.0191  81.1209 0014398  51.3165 308.9292 14.13261407821877

#Time	Az	El	Level	SNR
2025-01-18 05:04:05.509122	39.0	31.1	-62.9	7.8
2025-01-18 05:04:06.651080	39.2	31.3	-62.3	8.2
2025-01-18 05:04:07.796050	39.4	31.5	-63.5	9.6
2025-01-18 05:04:08.938009	39.5	31.7	-63.7	11.6
2025-01-18 05:04:10.079492	39.7	31.9	-63.5	9.5
2025-01-18 05:04:11.220961	39.9	32.1	-63.4	10.4
2025-01-18 05:04:12.365912	40.1	32.3	-63.3	9.4
2025-01-18 05:04:13.507870	40.3	32.5	-63.6	10.6
2025-01-18 05:04:14.648847	40.5	32.7	-63.3	9.7
2025-01-18 05:04:15.789808	40.7	32.9	-63.0	8.3
2025-01-18 05:04:16.932764	40.9	33.1	-63.8	9.3
2025-01-18 05:04:18.075720	41.1	33.3	-63.5	8.5
2025-01-18 05:04:19.217678	41.3	33.5	-63.4	10.2
2025-01-18 05:04:20.358639	41.6	33.7	-64.1	9.7
2025-01-18 05:04:21.504098	41.8	33.9	-62.7	9.8
2025-01-18 05:04:22.647054	42.0	34.1	-63.2	9.6
2025-01-18 05:04:23.789012	42.2	34.3	-62.9	9.4
2025-01-18 05:04:24.929485	42.4	34.6	-64.0	10.6
2025-01-18 05:04:26.071444	42.7	34.8	-62.9	8.0
2025-01-18 05:04:27.213402	42.9	35.0	-64.1	11.1
2025-01-18 05:04:28.355360	43.1	35.2	-62.8	11.1
2025-01-18 05:04:29.497319	43.4	35.4	-62.4	9.5
2025-01-18 05:04:30.638280	43.6	35.6	-62.2	2.8
2025-01-18 05:04:31.784244	43.8	35.9	-61.7	9.9
2025-01-18 05:04:32.926202	44.1	36.1	-62.3	8.8
2025-01-18 05:04:34.067669	44.3	36.3	-60.7	5.3
2025-01-18 05:04:35.210625	44.6	36.5	-59.3	0.2
2025-01-18 05:04:36.351586	44.8	36.7	-61.4	9.0
2025-01-18 05:04:37.496537	45.1	37.0	-60.2	5.2
2025-01-18 05:04:38.645984	45.4	37.2	-61.1	2.4
2025-01-18 05:04:39.791449	45.6	37.4	-60.3	7.0
2025-01-18 05:04:40.935402	45.9	37.7	-61.0	7.6
2025-01-18 05:04:42.084342	46.2	37.9	-62.6	5.6
2025-01-18 05:04:43.226300	46.5	38.1	-61.1	5.8
2025-01-18 05:04:44.368259	46.7	38.3	-61.4	8.2
2025-01-18 05:04:45.514230	47.0	38.6	-61.6	8.6
2025-01-18 05:04:46.655191	47.3	38.8	-60.9	5.5
2025-01-18 05:04:47.799145	47.6	39.0	-60.8	7.0
2025-01-18 05:04:48.943605	47.9	39.3	-59.9	0.0
2025-01-18 05:04:50.087558	48.2	39.5	-59.5	0.0
2025-01-18 05:04:51.228519	48.5	39.7	-59.7	0.0
2025-01-18 05:04:52.377459	48.8	40.0	-61.8	9.1
2025-01-18 05:04:53.520415	49.1	40.2	-59.4	0.0
2025-01-18 05:04:54.663371	49.5	40.4	-58.7	0.0
2025-01-18 05:04:55.809318	49.8	40.7	-60.6	0.0
2025-01-18 05:04:56.951277	50.1	40.9	-58.8	7.2
2025-01-18 05:04:58.098244	50.5	41.2	-60.1	6.4
2025-01-18 05:04:59.241201	50.8	41.4	-59.1	0.0
2025-01-18 05:05:00.394130	51.1	41.6	-60.0	6.2
2025-01-18 05:05:01.536594	51.5	41.9	-58.1	0.6
2025-01-18 05:05:02.679059	51.8	42.1	-58.0	0.0
2025-01-18 05:05:03.822015	52.2	42.4	-60.8	6.3
2025-01-18 05:05:04.963974	52.6	42.6	-57.5	0.0
2025-01-18 05:05:06.106930	52.9	42.8	-59.5	0.0
2025-01-18 05:05:07.249886	53.3	43.1	-58.7	0.9
2025-01-18 05:05:08.392842	53.7	43.3	-56.7	0.0
2025-01-18 05:05:09.534799	54.1	43.6	-58.7	5.0
2025-01-18 05:05:10.676759	54.5	43.8	-61.9	6.4
2025-01-18 05:05:11.823704	54.9	44.0	-57.7	4.6
2025-01-18 05:05:12.968654	55.3	44.3	-56.6	0.0
2025-01-18 05:05:14.113605	55.7	44.5	-60.2	3.4
2025-01-18 05:05:15.257574	56.1	44.8	-60.6	6.9
2025-01-18 05:05:16.400538	56.5	45.0	-61.0	1.1
2025-01-18 05:05:17.542494	56.9	45.2	-60.4	4.8
2025-01-18 05:05:18.687464	57.4	45.5	-57.9	1.8
2025-01-18 05:05:19.830420	57.8	45.7	-58.6	0.0
2025-01-18 05:05:20.974373	58.3	46.0	-62.2	8.6
2025-01-18 05:05:22.121829	58.7	46.2	-59.8	6.0
2025-01-18 05:05:23.264294	59.2	46.4	-60.7	6.3
2025-01-18 05:05:24.406253	59.7	46.7	-58.3	0.0
2025-01-18 05:05:25.547721	60.1	46.9	-58.6	0.0
2025-01-18 05:05:26.692672	60.6	47.2	-60.7	7.5
2025-01-18 05:05:27.836624	61.1	47.4	-59.5	3.7
2025-01-18 05:05:28.980578	61.6	47.6	-60.7	3.3
2025-01-18 05:05:30.122536	62.1	47.9	-60.3	5.4
2025-01-18 05:05:31.265493	62.6	48.1	-60.4	7.7
2025-01-18 05:05:32.406961	63.1	48.3	-61.4	5.8
2025-01-18 05:05:33.550915	63.7	48.5	-59.7	4.9
2025-01-18 05:05:34.692872	64.2	48.8	-60.5	1.6
2025-01-18 05:05:35.836825	64.7	49.0	-61.3	7.0
2025-01-18 05:05:36.980780	65.3	49.2	-58.2	0.0
2025-01-18 05:05:38.122737	65.9	49.4	-55.8	0.0
2025-01-18 05:05:39.267008	66.4	49.7	-59.9	5.2
2025-01-18 05:05:40.408966	67.0	49.9	-59.5	5.6
2025-01-18 05:05:41.553917	67.6	50.1	-59.4	3.5
2025-01-18 05:05:42.699375	68.2	50.3	-59.1	3.7
2025-01-18 05:05:43.842331	68.8	50.5	-60.5	1.8
2025-01-18 05:05:44.985287	69.4	50.7	-61.5	6.6
2025-01-18 05:05:46.128242	70.0	51.0	-62.9	7.1
2025-01-18 05:05:47.271240	70.6	51.2	-61.2	2.5
2025-01-18 05:05:48.415152	71.3	51.4	-59.2	0.0
2025-01-18 05:05:49.557619	71.9	51.6	-60.3	0.0
2025-01-18 05:05:50.700575	72.6	51.8	-57.9	0.0
2025-01-18 05:05:51.843531	73.2	52.0	-59.7	2.0
2025-01-18 05:05:52.986487	73.9	52.1	-54.3	0.0
2025-01-18 05:05:54.131437	74.6	52.3	-56.1	0.0
2025-01-18 05:05:55.273396	75.2	52.5	-58.8	0.2
2025-01-18 05:05:56.416352	75.9	52.7	-54.8	0.0
2025-01-18 05:05:57.561302	76.6	52.9	-56.2	0.0
2025-01-18 05:05:58.704258	77.4	53.1	-55.4	0.0
2025-01-18 05:05:59.853198	78.1	53.2	-55.2	0.0
2025-01-18 05:06:00.997168	78.8	53.4	-49.4	0.0
2025-01-18 05:06:02.143134	79.5	53.6	-51.9	0.0
2025-01-18 05:06:03.290080	80.3	53.7	-54.9	0.0
2025-01-18 05:06:04.432038	81.0	53.9	-56.4	0.0
2025-01-18 05:06:05.575502	81.8	54.0	-55.5	0.0
2025-01-18 05:06:06.719454	82.6	54.2	-58.8	0.0
2025-01-18 05:06:07.864405	83.3	54.3	-55.5	0.0
2025-01-18 05:06:09.008358	84.1	54.4	-58.4	0.0
2025-01-18 05:06:10.151315	84.9	54.6	-58.9	0.0
2025-01-18 05:06:11.295267	85.7	54.7	-58.7	0.0
2025-01-18 05:06:12.443233	86.5	54.8	-60.0	0.0
2025-01-18 05:06:13.585191	87.3	54.9	-60.1	0.0
2025-01-18 05:06:14.727150	88.1	55.0	-61.0	0.0
2025-01-18 05:06:15.871119	89.0	55.1	-61.7	0.0
2025-01-18 05:06:17.014075	89.8	55.2	-63.2	0.0
2025-01-18 05:06:18.159025	90.6	55.3	-63.5	7.7
2025-01-18 05:06:19.307474	91.5	55.4	-61.3	0.0
2025-01-18 05:06:20.449939	92.3	55.5	-63.4	0.0
2025-01-18 05:06:21.594889	93.2	55.6	-62.7	1.4
2025-01-18 05:06:22.736356	94.0	55.6	-62.4	3.4
2025-01-18 05:06:23.882305	94.9	55.7	-58.8	0.0
2025-01-18 05:06:25.025260	95.7	55.7	-62.1	9.4
2025-01-18 05:06:26.178189	96.6	55.8	-63.2	8.9
2025-01-18 05:06:27.321145	97.5	55.8	-64.7	11.0
2025-01-18 05:06:28.473077	98.4	55.9	-62.5	5.7
2025-01-18 05:06:29.618027	99.2	55.9	-61.9	0.8
2025-01-18 05:06:30.760984	100.1	55.9	-62.7	6.7
2025-01-18 05:06:31.904936	101.0	55.9	-62.7	6.2
2025-01-18 05:06:33.048890	101.8	56.0	-63.2	8.0
2025-01-18 05:06:34.192903	102.7	56.0	-62.5	7.3
2025-01-18 05:06:35.335878	103.6	56.0	-63.7	7.1
2025-01-18 05:06:36.477836	104.5	55.9	-58.6	0.0
2025-01-18 05:06:37.620792	105.3	55.9	-64.0	10.0
2025-01-18 05:06:38.768735	106.2	55.9	-64.6	8.1
2025-01-18 05:06:39.913194	107.1	55.9	-62.7	4.5
2025-01-18 05:06:41.056149	108.0	55.9	-63.9	8.4
2025-01-18 05:06:42.200626	108.8	55.8	-60.1	0.0
2025-01-18 05:06:43.344580	109.7	55.8	-61.0	4.3
2025-01-18 05:06:44.489530	110.6	55.7	-60.0	0.0
2025-01-18 05:06:45.632993	111.4	55.7	-62.2	2.0
2025-01-18 05:06:46.776947	112.3	55.6	-61.9	0.0
2025-01-18 05:06:47.923893	113.1	55.5	-60.8	2.7
2025-01-18 05:06:49.069840	114.0	55.4	-62.0	0.5
2025-01-18 05:06:50.214790	114.8	55.4	-61.6	0.0
2025-01-18 05:06:51.357746	115.7	55.3	-61.0	1.3
2025-01-18 05:06:52.503694	116.5	55.2	-62.1	5.3
2025-01-18 05:06:53.646650	117.3	55.1	-63.2	8.4
2025-01-18 05:06:54.790603	118.1	55.0	-63.6	7.2
2025-01-18 05:06:55.938545	118.9	54.9	-62.7	6.6
2025-01-18 05:06:57.083496	119.8	54.7	-63.4	6.3
2025-01-18 05:06:58.224968	120.6	54.6	-62.5	1.2
2025-01-18 05:06:59.367923	121.3	54.5	-63.2	5.7
2025-01-18 05:07:00.513871	122.1	54.4	-62.1	1.4
2025-01-18 05:07:01.659819	122.9	54.2	-63.2	7.4
2025-01-18 05:07:02.804770	123.7	54.1	-60.6	0.1
2025-01-18 05:07:03.946728	124.5	53.9	-60.5	1.2
2025-01-18 05:07:05.094686	125.2	53.8	-60.4	2.2
2025-01-18 05:07:06.239638	126.0	53.6	-63.1	6.6
2025-01-18 05:07:07.383590	126.7	53.5	-62.6	2.4
2025-01-18 05:07:08.532529	127.4	53.3	-63.2	5.4
2025-01-18 05:07:09.677480	128.2	53.1	-64.8	9.5
2025-01-18 05:07:10.830437	128.9	53.0	-62.9	6.2
2025-01-18 05:07:11.978895	129.6	52.8	-61.3	5.4
2025-01-18 05:07:13.123846	130.3	52.6	-61.2	2.0
2025-01-18 05:07:14.271788	131.0	52.4	-61.3	0.0
2025-01-18 05:07:15.417736	131.7	52.2	-62.8	2.7
2025-01-18 05:07:16.560692	132.3	52.0	-63.8	7.6
2025-01-18 05:07:17.706150	133.0	51.8	-63.5	7.0
2025-01-18 05:07:18.851101	133.7	51.7	-63.6	7.0
2025-01-18 05:07:19.995054	134.3	51.5	-64.5	7.4
2025-01-18 05:07:21.138011	135.0	51.3	-64.8	8.6
2025-01-18 05:07:22.283958	135.6	51.0	-63.5	6.9
2025-01-18 05:07:23.429936	136.2	50.8	-63.4	6.1
2025-01-18 05:07:24.575391	136.8	50.6	-64.1	9.9
2025-01-18 05:07:25.720341	137.4	50.4	-64.8	10.9
2025-01-18 05:07:26.865293	138.0	50.2	-62.3	10.2
2025-01-18 05:07:28.009245	138.6	50.0	-65.6	10.0
2025-01-18 05:07:29.153198	139.2	49.8	-64.2	7.2
2025-01-18 05:07:30.306128	139.8	49.5	-63.6	5.4
2025-01-18 05:07:31.450081	140.3	49.3	-65.0	9.7
2025-01-18 05:07:32.593037	140.9	49.1	-66.7	11.8
2025-01-18 05:07:33.735993	141.4	48.9	-65.7	13.4
2025-01-18 05:07:34.881451	142.0	48.6	-66.0	12.9
2025-01-18 05:07:36.026402	142.5	48.4	-64.7	10.8
2025-01-18 05:07:37.170355	143.0	48.2	-66.1	12.5
2025-01-18 05:07:38.315325	143.5	47.9	-65.4	13.5
2025-01-18 05:07:39.458281	144.1	47.7	-63.8	8.8
2025-01-18 05:07:40.605226	144.6	47.5	-64.2	10.2
2025-01-18 05:07:41.750177	145.0	47.2	-63.1	8.9
2025-01-18 05:07:42.897632	145.5	47.0	-63.8	9.3
2025-01-18 05:07:44.049563	146.0	46.8	-65.4	8.7
2025-01-18 05:07:45.192519	146.5	46.5	-65.8	9.3
2025-01-18 05:07:46.335493	147.0	46.3	-65.7	9.7
2025-01-18 05:07:47.480950	147.4	46.1	-66.0	8.2
2025-01-18 05:07:48.625900	147.9	45.8	-65.2	9.2
2025-01-18 05:07:49.769853	148.3	45.6	-65.4	10.4
2025-01-18 05:07:50.914804	148.7	45.3	-65.4	11.3
2025-01-18 05:07:52.057760	149.2	45.1	-65.2	12.4
2025-01-18 05:07:53.204705	149.6	44.9	-65.0	11.3
2025-01-18 05:07:54.350162	150.0	44.6	-65.0	9.8
2025-01-18 05:07:55.493117	150.4	44.4	-65.0	11.0
2025-01-18 05:07:56.637071	150.8	44.1	-64.8	11.1
2025-01-18 05:07:57.783021	151.2	43.9	-65.0	12.9
2025-01-18 05:07:58.927969	151.6	43.6	-64.7	12.1
2025-01-18 05:08:00.072920	152.0	43.4	-64.5	10.6
2025-01-18 05:08:01.216873	152.4	43.2	-64.6	12.1
2025-01-18 05:08:02.363818	152.8	42.9	-66.2	14.3
2025-01-18 05:08:03.507772	153.2	42.7	-65.3	12.5
2025-01-18 05:08:04.652722	153.5	42.4	-65.8	12.7
2025-01-18 05:08:05.797378	153.9	42.2	-65.4	13.1
2025-01-18 05:08:06.942329	154.2	42.0	-65.3	12.2
2025-01-18 05:08:08.086282	154.6	41.7	-64.9	14.5
2025-01-18 05:08:09.229238	154.9	41.5	-65.9	14.5
2025-01-18 05:08:10.374189	155.3	41.2	-65.7	14.6
2025-01-18 05:08:11.518142	155.6	41.0	-65.7	13.9
2025-01-18 05:08:12.665087	155.9	40.8	-65.8	14.5
2025-01-18 05:08:13.810037	156.3	40.5	-66.2	15.0
2025-01-18 05:08:14.957980	156.6	40.3	-66.5	15.2
2025-01-18 05:08:16.103928	156.9	40.1	-65.9	15.2
2025-01-18 05:08:17.247882	157.2	39.8	-66.6	16.1
2025-01-18 05:08:18.393339	157.5	39.6	-66.4	15.6
2025-01-18 05:08:19.538317	157.8	39.3	-66.3	14.9
2025-01-18 05:08:20.685261	158.1	39.1	-66.1	15.1
2025-01-18 05:08:21.833224	158.4	38.9	-66.0	15.7
2025-01-18 05:08:22.980164	158.7	38.6	-66.2	14.0
2025-01-18 05:08:24.123121	159.0	38.4	-66.2	15.6
2025-01-18 05:08:25.268071	159.3	38.2	-66.3	16.0
2025-01-18 05:08:26.413022	159.6	38.0	-66.5	15.6
2025-01-18 05:08:27.560476	159.8	37.7	-66.2	14.8
2025-01-18 05:08:28.708437	160.1	37.5	-66.9	15.7
2025-01-18 05:08:29.853387	160.4	37.3	-67.3	15.5
2025-01-18 05:08:31.001329	160.7	37.0	-66.0	9.9
2025-01-18 05:08:32.149298	160.9	36.8	-66.6	14.3
2025-01-18 05:08:33.291257	161.2	36.6	-66.6	12.9
2025-01-18 05:08:34.436228	161.4	36.4	-67.3	14.7
2025-01-18 05:08:35.578186	161.7	36.1	-67.1	14.2
2025-01-18 05:08:36.723136	161.9	35.9	-66.9	14.3
2025-01-18 05:08:37.864624	162.2	35.7	-66.6	14.9
2025-01-18 05:08:39.008577	162.4	35.5	-67.2	15.2
2025-01-18 05:08:40.154525	162.6	35.3	-67.0	15.0
2025-01-18 05:08:41.295996	162.9	35.0	-67.3	15.1
2025-01-18 05:08:42.440947	163.1	34.8	-67.3	15.4
2025-01-18 05:08:43.583903	163.3	34.6	-67.3	15.3
2025-01-18 05:08:44.727857	163.6	34.4	-67.4	15.6
2025-01-18 05:08:45.869815	163.8	34.2	-67.5	15.2
2025-01-18 05:08:47.013767	164.0	34.0	-67.7	14.8
2025-01-18 05:08:48.157723	164.2	33.8	-67.6	15.1
2025-01-18 05:08:49.303668	164.4	33.6	-67.8	14.6
2025-01-18 05:08:50.446624	164.6	33.3	-68.0	14.2
2025-01-18 05:08:51.589093	164.9	33.1	-67.8	13.6
2025-01-18 05:08:52.733047	165.1	32.9	-67.6	13.3
2025-01-18 05:08:53.875004	165.3	32.7	-67.8	13.1
2025-01-18 05:08:55.019955	165.5	32.5	-67.9	13.2
2025-01-18 05:08:56.160916	165.7	32.3	-67.7	12.9
2025-01-18 05:08:57.303381	165.9	32.1	-67.8	12.4
2025-01-18 05:08:58.444851	166.1	31.9	-68.2	12.1
2025-01-18 05:08:59.594788	166.2	31.7	-68.3	13.0
2025-01-18 05:09:00.735749	166.4	31.5	-68.3	13.3
2025-01-18 05:09:01.878216	166.6	31.3	-68.5	13.3
2025-01-18 05:09:03.021171	166.8	31.1	-68.3	13.0
2025-01-18 05:09:04.166121	167.0	30.9	-68.4	12.8
2025-01-18 05:09:05.309078	167.2	30.7	-68.3	12.6
2025-01-18 05:09:06.450039	167.4	30.5	-68.5	11.6
2025-01-18 05:09:07.591997	167.5	30.3	-68.4	12.0
2025-01-18 05:09:08.737458	167.7	30.1	-68.4	12.7
2025-01-18 05:09:09.883406	167.9	29.9	-69.7	9.6
#Closed at: 2025-01-18 05:03:54.312448