passes_logs/2026/01/12/R2M6_AANII_01/R2M6_AANII_01__20260112_002952_AQUA_rec.log

#Pass ID: 20260112_002952_AQUA
#Satellite: AQUA
#Configuration: AQUA
#almurnet v.1.7.20240730
#Start time: 2026-01-12 00:29:53

#Version: 2.2.20231116
#Station: R2M6_AANII_01
#Location: 30.233357 lon 59.946436 lat
#TLE: 1 27424U 02022A   26011.34052177  .00001139  00000+0  23789-3 0  9999
#TLE: 2 27424  98.4078 337.7066 0002035  82.6124  44.5301 14.61815662260355

#Time	Az	El	Level	Level2	SNR	BER	BlckErr	Temp	State	Recorded	gain1	gain2
2026-01-12 00:29:53.52	32.59	7.06	-31.3	-38.3	5.1	7.11e-01	0	39	0	0	23	8089
2026-01-12 00:29:56.52	32.92	7.26	-32.0	-40.2	11.2	6.09e-01	0	39	0	1572864	24	9286
2026-01-12 00:29:59.54	33.27	7.45	-30.6	-37.2	13.1	6.04e-01	0	39	0	7340032	23	7686
2026-01-12 00:30:02.55	33.61	7.65	-31.1	-36.8	14.7	6.02e-01	0	40	0	13107200	22	6971
2026-01-12 00:30:05.57	33.96	7.85	-30.9	-35.9	15.6	6.04e-01	0	40	0	18874368	22	6421
2026-01-12 00:30:08.58	34.32	8.05	-30.8	-35.7	15.8	6.00e-01	0	40	0	24117248	22	6323
2026-01-12 00:30:11.60	34.68	8.25	-30.0	-33.7	17.5	6.02e-01	0	40	0	29884416	21	5514
2026-01-12 00:30:14.62	35.04	8.46	-29.9	-33.8	17.9	6.01e-01	0	40	0	35651584	20	5624
2026-01-12 00:30:17.63	35.41	8.66	-30.0	-34.0	17.7	6.00e-01	0	40	0	41418752	20	5710
2026-01-12 00:30:20.66	35.79	8.86	-30.1	-34.3	17.6	6.03e-01	0	40	0	46661632	20	5824
2026-01-12 00:30:23.68	36.17	9.07	-30.1	-33.9	17.5	6.01e-01	0	40	0	52428800	21	5541
2026-01-12 00:30:26.70	36.56	9.27	-30.1	-33.7	17.6	6.01e-01	0	40	0	58195968	21	5471
2026-01-12 00:30:29.72	36.96	9.48	-30.0	-33.4	17.9	6.00e-01	0	40	0	63963136	21	5327
2026-01-12 00:30:32.74	37.36	9.69	-29.8	-33.0	18.3	6.02e-01	0	40	0	69730304	21	5155
2026-01-12 00:30:35.76	37.76	9.90	-29.8	-33.3	18.3	5.99e-01	0	40	0	74973184	20	5411
2026-01-12 00:30:38.77	38.17	10.11	-29.7	-33.1	18.3	6.00e-01	0	40	0	80740352	20	5345
2026-01-12 00:30:41.79	38.59	10.32	-29.8	-33.3	18.0	6.00e-01	0	40	0	86507520	20	5401
2026-01-12 00:30:44.81	39.02	10.53	-29.7	-33.2	18.4	6.02e-01	0	40	0	92274688	20	5359
2026-01-12 00:30:47.83	39.45	10.74	-29.6	-32.8	18.7	6.00e-01	0	41	0	98041856	20	5204
2026-01-12 00:30:50.86	39.89	10.95	-29.7	-33.0	18.6	6.00e-01	0	41	0	104333312	20	5289
2026-01-12 00:30:53.59	40.29	11.14	-29.6	-32.8	18.7	6.04e-01	0	41	0	109051904	20	5212
2026-01-12 00:30:56.89	40.78	11.38	-29.6	-32.9	18.7	6.02e-01	0	41	0	115343360	20	5222
2026-01-12 00:30:59.63	41.20	11.57	-29.8	-33.3	18.5	6.01e-01	0	41	0	120586240	20	5362
2026-01-12 00:31:02.93	41.71	11.80	-29.5	-32.5	19.0	6.03e-01	0	41	0	126877696	20	5060
2026-01-12 00:31:05.65	42.13	12.00	-29.6	-32.6	19.0	6.02e-01	0	41	0	131596288	20	5101
2026-01-12 00:31:08.97	42.66	12.23	-29.4	-32.3	19.2	6.02e-01	0	41	0	137887744	20	4980
2026-01-12 00:31:11.70	43.10	12.43	-29.4	-32.3	19.2	6.03e-01	0	41	0	143130624	20	4977
2026-01-12 00:31:15.00	43.64	12.66	-29.4	-32.6	19.4	6.02e-01	0	41	0	149422080	19	5189
2026-01-12 00:31:17.74	44.09	12.86	-29.5	-32.9	19.2	6.01e-01	0	41	0	154664960	19	5309
2026-01-12 00:31:21.04	44.65	13.10	-29.4	-32.7	19.3	6.02e-01	0	41	0	160432128	19	5260
2026-01-12 00:31:23.77	45.12	13.29	-29.4	-32.7	19.1	6.02e-01	0	41	0	165675008	19	5243
2026-01-12 00:31:27.08	45.69	13.53	-29.3	-32.5	19.2	6.02e-01	0	41	0	171966464	19	5171
2026-01-12 00:31:29.82	46.18	13.73	-29.4	-32.6	19.0	6.01e-01	0	41	0	177209344	19	5212
2026-01-12 00:31:33.13	46.77	13.97	-29.4	-32.6	19.2	6.02e-01	0	41	0	183500800	19	5205
2026-01-12 00:31:35.85	47.27	14.16	-29.4	-32.6	19.4	6.03e-01	0	41	0	188219392	19	5183
2026-01-12 00:31:39.16	47.88	14.40	-28.1	-31.8	15.1	6.04e-01	0	41	0	194510848	18	5527
2026-01-12 00:31:41.89	48.39	14.59	-29.3	-32.5	19.1	6.03e-01	0	41	0	199753728	19	5182
2026-01-12 00:31:45.18	49.02	14.83	-28.9	-32.4	16.8	6.00e-01	0	41	0	206045184	19	5381
2026-01-12 00:31:47.91	49.55	15.02	-29.2	-32.4	18.4	5.98e-01	0	41	0	211288064	19	5196
2026-01-12 00:31:51.22	50.20	15.26	-29.3	-32.1	18.6	6.00e-01	0	41	0	217055232	20	4972
2026-01-12 00:31:53.95	50.74	15.45	-29.3	-32.4	19.5	6.01e-01	0	41	0	222298112	19	5115
2026-01-12 00:31:57.25	51.41	15.69	-29.2	-31.9	19.9	6.01e-01	0	41	0	228589568	19	4932
2026-01-12 00:31:59.98	51.97	15.88	-29.4	-32.5	19.6	6.00e-01	0	41	0	233832448	19	5148
2026-01-12 00:32:03.29	52.66	16.11	-29.7	-32.8	19.1	6.02e-01	0	41	0	239599616	20	5132
2026-01-12 00:32:06.01	53.23	16.30	-29.4	-32.5	19.7	6.01e-01	0	41	0	244842496	19	5142
2026-01-12 00:32:09.31	53.94	16.53	-29.4	-32.1	19.5	5.99e-01	0	41	0	251133952	20	4883
2026-01-12 00:32:12.04	54.54	16.72	-29.2	-32.0	19.9	6.03e-01	0	41	0	256376832	19	4952
2026-01-12 00:32:15.35	55.27	16.94	-29.7	-32.9	19.1	6.02e-01	0	41	0	262668288	20	5165
2026-01-12 00:32:18.08	55.88	17.13	-29.2	-31.9	20.0	6.02e-01	0	41	0	267386880	19	4912
2026-01-12 00:32:21.39	56.63	17.35	-29.4	-32.4	19.8	6.01e-01	0	41	0	273678336	19	5072
2026-01-12 00:32:24.12	57.26	17.53	-29.1	-31.7	20.1	6.03e-01	0	42	0	278921216	19	4859
2026-01-12 00:32:27.43	58.04	17.75	-29.4	-32.4	19.8	6.00e-01	0	41	0	285212672	19	5099
2026-01-12 00:32:30.15	58.68	17.93	-29.5	-32.6	19.7	6.00e-01	0	41	0	290455552	19	5160
2026-01-12 00:32:33.46	59.47	18.14	-29.5	-32.6	19.7	6.00e-01	0	41	0	296222720	19	5142
2026-01-12 00:32:36.19	60.14	18.31	-29.3	-32.2	19.9	6.03e-01	0	41	0	301465600	19	5019
2026-01-12 00:32:39.49	60.95	18.52	-29.3	-32.1	20.0	6.00e-01	0	41	0	307757056	19	4983
2026-01-12 00:32:42.22	61.63	18.69	-29.3	-32.2	20.0	6.00e-01	0	41	0	312999936	19	5009
2026-01-12 00:32:45.52	62.47	18.89	-29.3	-32.1	20.0	6.01e-01	0	42	0	319291392	19	4961
2026-01-12 00:32:48.25	63.17	19.05	-29.3	-32.1	20.0	6.02e-01	0	41	0	324009984	19	4961
2026-01-12 00:32:51.57	64.03	19.24	-29.3	-32.2	19.9	6.00e-01	0	42	0	330301440	19	5027
2026-01-12 00:32:54.31	64.75	19.40	-29.4	-32.0	19.7	6.00e-01	0	41	0	335544320	20	4826
2026-01-12 00:32:57.61	65.62	19.58	-29.4	-32.3	19.8	6.01e-01	0	41	0	341835776	19	5053
2026-01-12 00:33:00.36	66.36	19.73	-29.4	-32.5	19.8	5.99e-01	0	41	0	347078656	19	5113
2026-01-12 00:33:03.66	67.25	19.90	-29.4	-32.5	19.8	6.00e-01	0	41	0	352845824	19	5117
2026-01-12 00:33:06.41	68.01	20.04	-29.5	-32.2	19.6	6.04e-01	0	42	0	358088704	20	4914
2026-01-12 00:33:09.72	68.92	20.21	-29.7	-32.6	19.4	6.00e-01	0	41	0	364380160	20	5052
2026-01-12 00:33:12.45	69.69	20.34	-29.5	-32.2	19.6	6.01e-01	0	42	0	369623040	20	4919
2026-01-12 00:33:15.76	70.62	20.49	-29.5	-32.2	19.5	6.01e-01	0	41	0	375914496	20	4925
2026-01-12 00:33:18.49	71.40	20.62	-29.4	-32.0	19.6	6.01e-01	0	41	0	381157376	20	4849
2026-01-12 00:33:21.80	72.35	20.76	-29.5	-32.1	19.8	6.01e-01	0	42	0	386924544	20	4856
2026-01-12 00:33:24.53	73.15	20.87	-29.5	-32.2	19.6	6.01e-01	0	42	0	392167424	20	4920
2026-01-12 00:33:27.82	74.11	21.00	-29.4	-31.8	19.9	6.01e-01	0	41	0	398458880	20	4774
2026-01-12 00:33:30.54	74.91	21.10	-29.4	-31.9	19.8	6.01e-01	0	41	0	403701760	20	4811
2026-01-12 00:33:33.85	75.89	21.21	-29.7	-32.7	19.3	6.02e-01	0	41	0	409468928	20	5095
2026-01-12 00:33:36.58	76.71	21.30	-29.5	-32.2	19.6	6.02e-01	0	41	0	414711808	20	4911
2026-01-12 00:33:39.88	77.70	21.41	-29.5	-32.1	19.8	6.00e-01	0	41	0	421003264	20	4854
2026-01-12 00:33:42.61	78.53	21.48	-29.5	-32.2	19.6	6.01e-01	0	41	0	426246144	20	4899
2026-01-12 00:33:45.92	79.54	21.57	-29.5	-32.3	19.6	6.02e-01	0	41	0	432537600	20	4937
2026-01-12 00:33:48.65	80.37	21.64	-29.7	-32.6	19.4	6.00e-01	0	41	0	437256192	20	5036
2026-01-12 00:33:51.96	81.39	21.71	-29.5	-32.6	19.8	5.99e-01	0	42	0	443547648	19	5135
2026-01-12 00:33:54.69	82.24	21.76	-29.5	-32.7	19.7	6.02e-01	0	42	0	448790528	19	5197
2026-01-12 00:33:57.99	83.26	21.82	-29.5	-32.2	19.7	6.00e-01	0	41	0	455081984	20	4899
2026-01-12 00:34:00.73	84.11	21.86	-29.4	-31.9	19.7	6.01e-01	0	42	0	459800576	20	4808
2026-01-12 00:34:04.04	85.14	21.90	-29.7	-32.7	19.3	6.02e-01	0	42	0	466092032	20	5091
2026-01-12 00:34:06.76	85.99	21.92	-29.8	-32.3	19.3	6.00e-01	0	42	0	471334912	21	4835
2026-01-12 00:34:10.07	87.03	21.94	-29.6	-31.9	19.5	6.01e-01	0	42	0	477626368	21	4705
2026-01-12 00:34:12.79	87.88	21.96	-29.8	-33.0	19.1	6.02e-01	0	42	0	482869248	20	5212
2026-01-12 00:34:16.10	88.92	21.96	-29.7	-32.7	19.3	6.01e-01	0	42	0	489160704	20	5083
2026-01-12 00:34:18.83	89.78	21.96	-29.9	-32.8	19.0	6.00e-01	0	41	0	493879296	21	5021
2026-01-12 00:34:22.12	90.81	21.95	-29.7	-32.7	19.2	6.02e-01	0	41	0	500170752	20	5102
2026-01-12 00:34:24.86	91.67	21.93	-29.8	-32.9	19.1	6.00e-01	0	42	0	505413632	20	5170
2026-01-12 00:34:28.16	92.70	21.91	-29.5	-32.2	19.7	6.05e-01	0	41	0	511705088	20	4919
2026-01-12 00:34:30.90	93.56	21.88	-29.4	-32.0	19.8	6.05e-01	0	41	0	516423680	20	4833
2026-01-12 00:34:34.21	94.59	21.83	-29.4	-31.8	19.8	6.04e-01	0	41	0	522715136	20	4776
2026-01-12 00:34:36.94	95.44	21.79	-29.6	-32.5	19.4	6.00e-01	0	42	0	527958016	20	5020
2026-01-12 00:34:40.24	96.46	21.73	-29.6	-32.4	19.5	5.99e-01	0	42	0	534249472	20	4962
2026-01-12 00:34:42.97	97.31	21.68	-29.8	-33.0	19.1	6.01e-01	0	42	0	539492352	20	5201
2026-01-12 00:34:46.28	98.32	21.60	-29.5	-32.2	19.6	6.02e-01	0	42	0	545259520	20	4908
2026-01-12 00:34:49.01	99.16	21.53	-29.5	-32.2	19.6	6.01e-01	0	41	0	550502400	20	4924
2026-01-12 00:34:52.31	100.16	21.44	-29.5	-32.3	19.5	6.01e-01	0	42	0	556793856	20	4945
2026-01-12 00:34:55.04	100.99	21.36	-29.7	-32.8	19.3	6.01e-01	0	42	0	562036736	20	5116
2026-01-12 00:34:58.35	101.98	21.26	-29.7	-32.7	19.3	6.02e-01	0	42	0	568328192	20	5082
2026-01-12 00:35:01.08	102.80	21.16	-29.8	-32.5	19.1	6.00e-01	0	42	0	573046784	21	4911
2026-01-12 00:35:04.38	103.78	21.04	-29.8	-32.9	19.2	6.02e-01	0	42	0	579338240	20	5160
2026-01-12 00:35:07.11	104.58	20.94	-29.7	-32.6	19.3	6.01e-01	0	42	0	584581120	20	5050
2026-01-12 00:35:10.41	105.55	20.81	-29.4	-32.4	19.8	6.00e-01	0	42	0	590872576	19	5100
2026-01-12 00:35:13.14	106.34	20.69	-29.4	-32.4	19.8	6.01e-01	0	42	0	595591168	19	5100
2026-01-12 00:35:16.43	107.28	20.55	-29.4	-32.3	19.8	6.02e-01	0	42	0	601882624	19	5048
2026-01-12 00:35:19.17	108.06	20.42	-29.5	-32.6	19.7	6.02e-01	0	42	0	607125504	19	5157
2026-01-12 00:35:22.47	109.00	20.26	-29.5	-32.3	19.5	6.00e-01	0	42	0	613416960	20	4954
2026-01-12 00:35:25.21	109.76	20.13	-29.5	-32.2	19.5	6.01e-01	0	42	0	618659840	20	4926
2026-01-12 00:35:28.52	110.68	19.96	-29.4	-32.3	19.9	6.00e-01	0	41	0	624427008	19	5060
2026-01-12 00:35:31.27	111.43	19.82	-29.2	-32.1	20.0	6.01e-01	0	42	0	629669888	19	4975
2026-01-12 00:35:34.57	112.32	19.64	-29.4	-32.4	19.7	6.02e-01	0	41	0	635961344	19	5108
2026-01-12 00:35:37.29	113.05	19.49	-29.4	-32.4	19.8	6.02e-01	0	42	0	641204224	19	5104
2026-01-12 00:35:40.59	113.92	19.30	-29.5	-32.7	19.6	6.01e-01	0	41	0	647495680	19	5226
2026-01-12 00:35:43.32	114.64	19.15	-29.6	-32.6	19.2	6.04e-01	0	42	0	652214272	20	5065
2026-01-12 00:35:46.62	115.49	18.95	-29.3	-31.8	19.7	6.00e-01	0	42	0	658505728	20	4801
2026-01-12 00:35:49.36	116.19	18.79	-29.4	-32.6	19.6	6.01e-01	0	42	0	663748608	19	5178
2026-01-12 00:35:52.66	117.03	18.58	-29.5	-32.3	19.3	6.04e-01	0	42	0	670040064	20	4999
2026-01-12 00:35:55.39	117.71	18.41	-29.5	-32.3	19.4	6.01e-01	0	42	0	675282944	20	4961
2026-01-12 00:35:58.70	118.52	18.20	-29.4	-32.1	19.5	6.00e-01	0	42	0	681050112	20	4891
2026-01-12 00:36:01.43	119.18	18.03	-29.4	-32.1	19.5	6.00e-01	0	42	0	686292992	20	4889
2026-01-12 00:36:04.73	119.97	17.81	-29.6	-32.7	19.1	6.00e-01	0	42	0	692584448	20	5119
2026-01-12 00:36:07.46	120.62	17.63	-29.6	-32.7	19.1	6.01e-01	0	42	0	697827328	20	5121
2026-01-12 00:36:10.76	121.39	17.41	-29.6	-32.6	19.2	6.00e-01	0	42	0	704118784	20	5087
2026-01-12 00:36:13.49	122.02	17.23	-29.5	-32.4	19.3	6.02e-01	0	42	0	708837376	20	5014
2026-01-12 00:36:16.80	122.77	17.00	-29.3	-31.8	19.6	6.00e-01	0	42	0	715128832	20	4812
2026-01-12 00:36:19.53	123.38	16.82	-29.1	-31.4	19.8	5.99e-01	0	42	0	720371712	20	4666
2026-01-12 00:36:22.83	124.10	16.59	-29.3	-32.3	19.7	6.01e-01	0	42	0	726663168	19	5099
2026-01-12 00:36:25.59	124.70	16.40	-29.4	-32.4	19.7	6.03e-01	0	42	0	731906048	19	5110
2026-01-12 00:36:28.90	125.41	16.16	-29.2	-32.1	19.8	6.01e-01	0	42	0	737673216	19	5007
2026-01-12 00:36:31.63	125.99	15.97	-29.2	-32.2	19.7	6.01e-01	0	42	0	742916096	19	5043
2026-01-12 00:36:34.94	126.68	15.74	-29.5	-32.5	19.1	6.03e-01	0	42	0	749207552	20	5088
2026-01-12 00:36:37.67	127.24	15.54	-29.2	-31.6	19.7	6.00e-01	0	42	0	754450432	20	4738
2026-01-12 00:36:40.97	127.90	15.31	-29.3	-32.4	19.5	5.99e-01	0	42	0	760741888	19	5147
2026-01-12 00:36:43.71	128.45	15.11	-29.2	-32.1	19.6	6.01e-01	0	42	0	765460480	19	5068
2026-01-12 00:36:47.01	129.09	14.87	-29.4	-32.7	19.3	6.03e-01	0	42	0	771751936	19	5253
2026-01-12 00:36:49.75	129.62	14.68	-29.3	-32.4	19.5	6.00e-01	0	42	0	776994816	19	5114
2026-01-12 00:36:53.05	130.25	14.44	-29.3	-32.5	19.2	6.03e-01	0	42	0	783286272	19	5179
2026-01-12 00:36:55.79	130.76	14.24	-29.6	-33.1	18.9	6.03e-01	0	42	0	788529152	19	5427
2026-01-12 00:36:59.09	131.37	14.00	-29.4	-32.7	19.2	6.01e-01	0	42	0	794296320	19	5244
2026-01-12 00:37:01.82	131.86	13.80	-29.5	-32.9	19.0	6.01e-01	0	42	0	799539200	19	5377
2026-01-12 00:37:05.12	132.45	13.56	-29.3	-32.5	19.2	5.99e-01	0	42	0	805830656	19	5231
2026-01-12 00:37:07.84	132.93	13.37	-29.6	-33.1	18.9	6.01e-01	0	42	0	811073536	19	5411
2026-01-12 00:37:11.16	133.51	13.13	-29.6	-32.7	18.7	5.99e-01	0	42	0	817364992	20	5181
2026-01-12 00:37:13.89	133.97	12.93	-29.6	-32.9	18.6	6.02e-01	0	42	0	822083584	20	5258
2026-01-12 00:37:17.19	134.53	12.69	-29.5	-32.7	18.6	6.01e-01	0	42	0	828375040	20	5194
2026-01-12 00:37:19.92	134.98	12.49	-29.5	-32.6	18.5	6.01e-01	0	42	0	833617920	20	5150
2026-01-12 00:37:23.23	135.52	12.25	-29.4	-32.3	18.9	6.02e-01	0	42	0	839909376	20	5042
2026-01-12 00:37:25.96	135.95	12.06	-29.5	-33.0	18.7	6.03e-01	0	42	0	845152256	19	5433
2026-01-12 00:37:29.26	136.48	11.82	-29.4	-33.0	18.7	5.99e-01	0	42	0	850919424	19	5446
2026-01-12 00:37:31.99	136.90	11.62	-29.5	-33.4	18.4	5.98e-01	0	42	0	856162304	19	5636
2026-01-12 00:37:35.30	137.41	11.39	-29.6	-33.2	18.2	6.00e-01	0	41	0	862453760	20	5409
2026-01-12 00:37:38.03	137.82	11.19	-29.6	-33.0	18.3	6.03e-01	0	42	0	867696640	20	5297
2026-01-12 00:37:41.33	138.31	10.96	-29.8	-33.4	18.0	6.01e-01	0	42	0	873463808	20	5505
2026-01-12 00:37:44.06	138.71	10.76	-29.5	-32.8	18.4	6.03e-01	0	42	0	878706688	20	5259
2026-01-12 00:37:47.36	139.18	10.53	-29.7	-33.3	18.0	6.03e-01	0	42	0	884998144	20	5455
2026-01-12 00:37:50.09	139.57	10.34	-29.7	-33.3	18.0	6.01e-01	0	42	0	890241024	20	5455
2026-01-12 00:37:53.38	140.03	10.11	-29.6	-33.1	18.1	5.99e-01	0	42	0	896008192	20	5403
2026-01-12 00:37:56.11	140.41	9.92	-29.6	-33.1	18.0	6.00e-01	0	42	0	901251072	20	5392
2026-01-12 00:37:59.42	140.86	9.69	-29.6	-33.2	18.0	6.01e-01	0	42	0	907542528	20	5440
2026-01-12 00:38:02.15	141.22	9.50	-29.7	-33.5	17.7	6.03e-01	0	42	0	912785408	20	5575
2026-01-12 00:38:05.44	141.65	9.27	-29.8	-33.8	17.4	6.01e-01	0	42	0	919076864	20	5708
2026-01-12 00:38:08.17	142.01	9.08	-29.9	-34.1	17.2	6.02e-01	0	42	0	923795456	20	5823
2026-01-12 00:38:11.47	142.43	8.85	-29.8	-33.9	17.2	6.02e-01	0	42	0	930086912	20	5749
2026-01-12 00:38:14.20	142.77	8.67	-29.8	-33.8	17.3	5.99e-01	0	42	0	935329792	20	5704
2026-01-12 00:38:17.50	143.18	8.44	-29.8	-33.9	16.4	6.03e-01	0	42	0	941621248	20	5787
2026-01-12 00:38:20.22	143.51	8.26	-29.8	-34.1	17.0	6.01e-01	0	42	0	946864128	20	5885
2026-01-12 00:38:23.52	143.91	8.04	-29.8	-34.3	16.4	6.03e-01	0	42	0	952631296	20	5996
2026-01-12 00:38:26.25	144.23	7.85	-29.9	-34.5	16.5	5.99e-01	0	42	0	957874176	20	6137
2026-01-12 00:38:29.55	144.62	7.63	-30.0	-34.9	16.3	6.04e-01	0	42	0	964165632	20	6331
2026-01-12 00:38:32.29	144.94	7.45	-30.4	-35.4	15.6	6.02e-01	0	42	0	969408512	21	6455
2026-01-12 00:38:35.60	145.31	7.23	-30.3	-35.1	15.8	6.01e-01	0	42	0	975699968	21	6272
2026-01-12 00:38:38.32	145.62	7.05	-32.5	-49.1	4.2	7.43e-01	0	41	104	980418560	25	24405

#Closed at: 2026-01-12 00:38:39
#Recorded file [980 MB]: D:/data/31010_260112_032955.dat