passes_logs/2026/01/12/R2M6_AANII_01/R2M6_AANII_01__20260112_014201_NOAA_21_JPSS-2_rec.log

#Pass ID: 20260112_014201_NOAA 21 (JPSS-2)
#Satellite: NOAA 21 (JPSS-2)
#Configuration: NOAA 21
#almurnet v.1.7.20240730
#Start time: 2026-01-12 01:42:31

#Version: 2.2.20231116
#Station: R2M6_AANII_01
#Location: 30.233357 lon 59.946436 lat
#TLE: 1 54234U 22150A   26011.27699114  .00000090  00000+0  63771-4 0  9993
#TLE: 2 54234  98.7494 312.2218 0000765 314.9553  45.1561 14.19534106164285

#Time	Az	El	Level	Level2	SNR	BER	BlckErr	Temp	State	Recorded	gain1	gain2
2026-01-12 01:42:31.10	10.17	9.14	-33.0	-44.6	3.8	8.46e-01	0	42	0	0	25	13636
2026-01-12 01:42:34.11	9.94	9.37	-33.7	-45.8	3.8	1.49e+00	0	42	104	0	27	14444
2026-01-12 01:42:37.13	9.70	9.60	-33.8	-45.9	3.8	1.49e+00	0	42	104	0	27	14551
2026-01-12 01:42:40.14	9.47	9.83	-33.9	-46.1	3.8	1.49e+00	0	42	104	0	27	14721
2026-01-12 01:42:43.16	9.22	10.06	-33.9	-46.2	3.8	1.49e+00	0	42	104	0	27	14764
2026-01-12 01:42:46.19	8.97	10.29	-33.9	-46.2	3.8	1.49e+00	0	42	104	0	27	14738
2026-01-12 01:42:49.21	8.72	10.53	-33.9	-46.1	3.8	1.49e+00	0	42	104	0	27	14713
2026-01-12 01:42:52.23	8.46	10.77	-33.9	-46.1	3.8	1.49e+00	0	42	104	0	27	14728
2026-01-12 01:42:55.25	8.20	11.00	-33.9	-46.1	3.8	1.49e+00	0	42	104	0	27	14741
2026-01-12 01:42:58.27	7.94	11.25	-33.9	-46.2	3.8	1.49e+00	0	42	104	0	27	14760
2026-01-12 01:43:01.28	7.67	11.49	-33.9	-46.1	3.8	1.49e+00	0	42	104	0	27	14722
2026-01-12 01:43:04.29	7.39	11.73	-33.9	-46.1	3.8	1.49e+00	0	42	104	0	27	14735
2026-01-12 01:43:07.30	7.11	11.98	-33.9	-46.2	3.8	1.49e+00	0	42	104	0	27	14755
2026-01-12 01:43:10.31	6.83	12.22	-33.9	-46.1	3.8	1.49e+00	0	42	104	0	27	14709
2026-01-12 01:43:13.33	6.54	12.47	-33.9	-46.1	3.8	1.49e+00	0	42	104	0	27	14710
2026-01-12 01:43:16.34	6.25	12.72	-33.9	-46.1	3.8	1.49e+00	0	42	104	0	27	14706
2026-01-12 01:43:19.36	5.95	12.98	-33.9	-46.1	3.8	1.49e+00	0	42	104	0	27	14702
2026-01-12 01:43:22.38	5.64	13.23	-33.9	-46.1	3.8	1.49e+00	0	42	104	0	27	14682
2026-01-12 01:43:25.39	5.33	13.49	-33.9	-46.1	3.8	1.49e+00	0	42	104	0	27	14685
2026-01-12 01:43:28.41	5.02	13.74	-33.9	-46.1	3.8	1.49e+00	0	42	104	0	27	14713
2026-01-12 01:43:31.43	4.69	14.01	-33.9	-46.1	3.8	1.49e+00	0	42	104	0	27	14665
2026-01-12 01:43:34.46	4.37	14.27	-33.9	-46.1	3.8	1.49e+00	0	42	104	0	27	14693
2026-01-12 01:43:37.47	4.03	14.53	-33.9	-46.1	3.8	1.49e+00	0	42	104	0	27	14653
2026-01-12 01:43:40.49	3.69	14.80	-33.9	-46.1	3.8	1.49e+00	0	42	104	0	27	14668
2026-01-12 01:43:43.50	3.35	15.07	-33.9	-46.1	3.8	1.49e+00	0	42	104	0	27	14679
2026-01-12 01:43:46.52	2.99	15.33	-32.8	-44.9	3.8	1.49e+00	0	42	104	0	27	14378
2026-01-12 01:43:49.54	2.63	15.61	-33.9	-46.1	3.8	1.49e+00	0	42	104	0	27	14640
2026-01-12 01:43:52.56	2.27	15.88	-33.9	-46.1	3.8	1.49e+00	0	42	104	0	27	14686
2026-01-12 01:43:55.59	1.89	16.16	-33.9	-46.1	3.8	1.49e+00	0	42	104	0	27	14746
2026-01-12 01:43:58.60	1.51	16.43	-33.9	-46.1	3.8	1.49e+00	0	42	104	0	27	14728
2026-01-12 01:44:01.61	1.12	16.71	-33.9	-46.1	3.8	1.49e+00	0	42	104	0	27	14677
2026-01-12 01:44:04.63	0.73	16.99	-33.9	-46.1	3.8	1.49e+00	0	42	104	0	27	14694
2026-01-12 01:44:07.65	0.33	17.27	-33.9	-46.1	3.8	1.49e+00	0	42	104	0	27	14681
2026-01-12 01:44:10.67	359.91	17.56	-33.9	-46.1	3.8	1.49e+00	0	41	104	0	27	14743
2026-01-12 01:44:13.69	359.50	17.84	-33.9	-46.1	3.8	1.49e+00	0	42	104	0	27	14685
2026-01-12 01:44:16.71	359.07	18.13	-33.9	-46.1	3.8	1.49e+00	0	42	104	0	27	14701
2026-01-12 01:44:19.72	358.63	18.42	-33.9	-46.1	3.8	1.49e+00	0	42	104	0	27	14690
2026-01-12 01:44:22.74	358.19	18.71	-33.9	-46.1	3.8	1.49e+00	0	42	104	0	27	14718
2026-01-12 01:44:25.75	357.74	19.00	-33.9	-46.1	3.8	1.49e+00	0	42	104	0	27	14660
2026-01-12 01:44:28.77	357.28	19.30	-33.9	-46.1	3.8	1.49e+00	0	42	104	0	27	14646
2026-01-12 01:44:31.78	356.81	19.59	-33.9	-46.0	3.8	1.49e+00	0	41	104	0	27	14634
2026-01-12 01:44:34.80	356.32	19.89	-33.9	-46.1	3.8	1.49e+00	0	42	104	0	27	14675
2026-01-12 01:44:37.82	355.83	20.19	-33.9	-46.1	3.8	1.49e+00	0	41	104	0	27	14698
2026-01-12 01:44:40.84	355.33	20.49	-33.9	-46.1	3.8	1.49e+00	0	42	104	0	27	14669
2026-01-12 01:44:43.86	354.82	20.79	-33.9	-46.1	3.8	1.49e+00	0	42	104	0	27	14674
2026-01-12 01:44:46.89	354.30	21.09	-33.9	-46.1	3.8	1.49e+00	0	42	104	0	27	14697
2026-01-12 01:44:49.90	353.77	21.40	-33.9	-46.1	3.8	1.49e+00	0	42	104	0	27	14670
2026-01-12 01:44:52.92	353.23	21.70	-33.9	-46.1	3.8	1.49e+00	0	42	104	0	27	14660
2026-01-12 01:44:55.95	352.68	22.01	-33.9	-46.1	3.8	1.49e+00	0	42	104	0	27	14678
2026-01-12 01:44:58.97	352.11	22.31	-33.9	-46.0	3.8	1.49e+00	0	42	104	0	27	14643
2026-01-12 01:45:01.98	351.54	22.62	-33.9	-46.1	3.8	1.49e+00	0	42	104	0	27	14709
2026-01-12 01:45:05.00	350.95	22.93	-33.8	-46.0	3.8	1.49e+00	0	42	104	0	27	14589
2026-01-12 01:45:08.02	350.35	23.23	-33.9	-46.1	3.8	1.49e+00	0	42	104	0	27	14682
2026-01-12 01:45:11.04	349.74	23.54	-33.9	-46.1	3.8	1.49e+00	0	42	104	0	27	14649
2026-01-12 01:45:14.05	349.12	23.85	-33.9	-46.1	3.8	1.49e+00	0	42	104	0	27	14671
2026-01-12 01:45:17.06	348.49	24.15	-33.9	-46.1	3.8	1.49e+00	0	42	104	0	27	14657
2026-01-12 01:45:20.08	347.84	24.46	-33.9	-46.0	3.8	1.49e+00	0	42	104	0	27	14616
2026-01-12 01:45:23.10	347.18	24.77	-33.9	-46.1	3.8	1.49e+00	0	42	104	0	27	14667
2026-01-12 01:45:26.13	346.50	25.07	-33.9	-46.1	3.8	1.49e+00	0	42	104	0	27	14674
2026-01-12 01:45:29.14	345.81	25.38	-33.9	-46.1	3.8	1.49e+00	0	42	104	0	27	14697
2026-01-12 01:45:32.17	345.11	25.68	-33.9	-46.1	3.8	1.49e+00	0	42	104	0	27	14708
2026-01-12 01:45:35.19	344.39	25.99	-33.9	-46.1	3.8	1.49e+00	0	42	104	0	27	14687
2026-01-12 01:45:38.19	343.67	26.28	-33.9	-46.1	3.8	1.49e+00	0	42	104	0	27	14678
2026-01-12 01:45:41.22	342.92	26.58	-33.9	-46.1	3.8	1.49e+00	0	42	104	0	27	14695
2026-01-12 01:45:44.24	342.17	26.88	-33.9	-46.1	3.8	1.49e+00	0	42	104	0	27	14680
2026-01-12 01:45:47.26	341.39	27.18	-33.9	-46.1	3.8	1.49e+00	0	42	104	0	27	14706
2026-01-12 01:45:50.27	340.61	27.47	-33.9	-46.1	3.8	1.49e+00	0	42	104	0	27	14693
2026-01-12 01:45:53.30	339.81	27.76	-33.9	-46.1	3.8	1.49e+00	0	42	104	0	27	14659
2026-01-12 01:45:56.32	338.99	28.04	-33.9	-46.1	3.8	1.49e+00	0	42	104	0	27	14685
2026-01-12 01:45:59.34	338.16	28.32	-33.9	-46.1	3.8	1.49e+00	0	42	104	0	27	14692
2026-01-12 01:46:02.37	337.31	28.60	-33.9	-46.1	3.8	1.49e+00	0	42	104	0	27	14681
2026-01-12 01:46:05.38	336.45	28.87	-33.9	-46.1	3.8	1.49e+00	0	42	104	0	27	14679
2026-01-12 01:46:08.39	335.58	29.14	-33.9	-46.1	3.8	1.49e+00	0	42	104	0	27	14737
2026-01-12 01:46:11.41	334.69	29.40	-33.9	-46.1	3.8	1.49e+00	0	42	104	0	27	14691
2026-01-12 01:46:14.44	333.79	29.66	-33.9	-46.1	3.8	1.49e+00	0	42	104	0	27	14684
2026-01-12 01:46:17.46	332.87	29.92	-33.9	-46.1	3.8	1.49e+00	0	42	104	0	27	14687
2026-01-12 01:46:20.47	331.94	30.16	-33.9	-46.1	3.8	1.49e+00	0	42	104	0	27	14693
2026-01-12 01:46:23.49	330.99	30.40	-33.9	-46.1	3.8	1.49e+00	0	42	104	0	27	14647
2026-01-12 01:46:26.51	330.03	30.63	-33.9	-46.1	3.8	1.49e+00	0	42	104	0	27	14681
2026-01-12 01:46:29.53	329.05	30.86	-33.9	-46.1	3.8	1.49e+00	0	42	104	0	27	14692
2026-01-12 01:46:32.53	328.07	31.07	-33.9	-46.1	3.8	1.49e+00	0	42	104	0	27	14666
2026-01-12 01:46:35.56	327.06	31.28	-33.9	-46.1	3.8	1.49e+00	0	42	104	0	27	14664
2026-01-12 01:46:38.57	326.05	31.48	-33.9	-46.1	3.8	1.49e+00	0	42	104	0	27	14650
2026-01-12 01:46:41.58	325.03	31.67	-33.9	-46.0	3.8	1.49e+00	0	42	104	0	27	14622
2026-01-12 01:46:44.59	323.99	31.85	-33.9	-46.1	3.8	1.49e+00	0	42	104	0	27	14664
2026-01-12 01:46:47.61	322.94	32.02	-33.9	-46.1	3.8	1.49e+00	0	42	104	0	27	14663
2026-01-12 01:46:50.62	321.88	32.19	-33.9	-46.1	3.8	1.49e+00	0	42	104	0	27	14671
2026-01-12 01:46:53.64	320.81	32.34	-33.9	-46.0	3.8	1.49e+00	0	42	104	0	27	14600
2026-01-12 01:46:56.67	319.72	32.48	-33.8	-46.0	3.8	1.49e+00	0	42	104	0	27	14651
2026-01-12 01:46:59.67	318.64	32.61	-33.8	-46.0	3.8	1.49e+00	0	42	104	0	27	14609
2026-01-12 01:47:02.70	317.54	32.73	-33.9	-46.0	3.8	1.49e+00	0	42	104	0	27	14604
2026-01-12 01:47:05.72	316.43	32.83	-33.9	-46.1	3.8	1.49e+00	0	42	104	0	27	14642
2026-01-12 01:47:08.74	315.31	32.93	-33.9	-46.1	3.8	1.49e+00	0	42	104	0	27	14685
2026-01-12 01:47:11.76	314.19	33.01	-33.8	-46.0	3.8	1.49e+00	0	42	104	0	27	14647
2026-01-12 01:47:14.77	313.07	33.08	-33.9	-46.0	3.8	1.49e+00	0	42	104	0	27	14643
2026-01-12 01:47:17.79	311.94	33.14	-33.9	-46.1	3.8	1.49e+00	0	42	104	0	27	14689
2026-01-12 01:47:20.81	310.80	33.19	-33.8	-46.0	3.8	1.49e+00	0	42	104	0	27	14631
2026-01-12 01:47:23.83	309.67	33.22	-33.9	-46.0	3.8	1.49e+00	0	42	104	0	27	14636
2026-01-12 01:47:26.85	308.53	33.24	-33.8	-46.0	3.8	1.49e+00	0	42	104	0	27	14644
2026-01-12 01:47:29.86	307.39	33.24	-33.8	-46.0	3.8	1.49e+00	0	42	104	0	27	14652
2026-01-12 01:47:32.89	306.24	33.24	-33.9	-46.1	3.8	1.49e+00	0	42	104	0	27	14665
2026-01-12 01:47:35.91	305.10	33.22	-33.8	-46.0	3.8	1.49e+00	0	42	104	0	27	14611
2026-01-12 01:47:38.93	303.97	33.19	-33.9	-46.0	3.8	1.49e+00	0	42	104	0	27	14654
2026-01-12 01:47:41.94	302.83	33.14	-33.9	-46.0	3.8	1.49e+00	0	42	104	0	27	14642
2026-01-12 01:47:44.97	301.70	33.09	-33.9	-46.0	3.8	1.49e+00	0	42	104	0	27	14652
2026-01-12 01:47:47.98	300.57	33.02	-33.8	-46.0	3.8	1.49e+00	0	42	104	0	27	14634
2026-01-12 01:47:50.99	299.46	32.94	-33.9	-46.1	3.8	1.49e+00	0	42	104	0	27	14700
2026-01-12 01:47:54.00	298.34	32.84	-33.9	-46.1	3.8	1.49e+00	0	42	104	0	27	14688
2026-01-12 01:47:57.02	297.23	32.74	-33.1	-45.1	3.8	1.49e+00	0	42	104	0	27	14375
2026-01-12 01:48:00.03	296.13	32.62	-33.9	-46.0	3.8	1.49e+00	0	42	104	0	27	14641
2026-01-12 01:48:03.05	295.04	32.49	-33.9	-46.1	3.8	1.49e+00	0	42	104	0	27	14725
2026-01-12 01:48:06.07	293.96	32.35	-33.9	-46.0	3.8	1.49e+00	0	42	104	0	27	14633
2026-01-12 01:48:09.09	292.88	32.20	-33.9	-46.0	3.8	1.49e+00	0	42	104	0	27	14623
2026-01-12 01:48:12.10	291.82	32.04	-33.9	-46.1	3.8	1.49e+00	0	42	104	0	27	14694
2026-01-12 01:48:15.12	290.76	31.87	-33.9	-46.0	3.8	1.49e+00	0	42	104	0	27	14649
2026-01-12 01:48:18.14	289.72	31.69	-33.9	-46.1	3.8	1.49e+00	0	42	104	0	27	14674
2026-01-12 01:48:21.17	288.69	31.50	-33.9	-46.1	3.8	1.49e+00	0	42	104	0	27	14687
2026-01-12 01:48:24.18	287.67	31.30	-33.9	-46.1	3.8	1.49e+00	0	42	104	0	27	14671
2026-01-12 01:48:27.20	286.67	31.09	-33.9	-46.1	3.8	1.49e+00	0	42	104	0	27	14712
2026-01-12 01:48:30.22	285.67	30.87	-33.9	-46.1	3.8	1.49e+00	0	42	104	0	27	14683
2026-01-12 01:48:33.24	284.69	30.65	-33.9	-46.1	3.8	1.49e+00	0	42	104	0	27	14666
2026-01-12 01:48:36.26	283.73	30.41	-33.9	-46.1	3.8	1.49e+00	0	42	104	0	27	14680
2026-01-12 01:48:39.28	282.78	30.17	-33.9	-46.0	3.8	1.49e+00	0	42	104	0	27	14649
2026-01-12 01:48:42.30	281.84	29.93	-33.9	-46.1	3.8	1.49e+00	0	42	104	0	27	14690
2026-01-12 01:48:45.32	280.92	29.68	-33.9	-46.0	3.8	1.49e+00	0	42	104	0	27	14626
2026-01-12 01:48:48.34	280.01	29.42	-33.9	-46.1	3.8	1.49e+00	0	42	104	0	27	14684
2026-01-12 01:48:51.36	279.12	29.15	-33.9	-46.1	3.8	1.49e+00	0	42	104	0	27	14692
2026-01-12 01:48:54.38	278.24	28.89	-33.8	-46.0	3.8	1.49e+00	0	42	104	0	27	14641
2026-01-12 01:48:57.40	277.37	28.61	-33.9	-46.1	3.8	1.49e+00	0	42	104	0	27	14654
2026-01-12 01:49:00.42	276.52	28.33	-33.9	-46.1	3.8	1.49e+00	0	42	104	0	27	14747
2026-01-12 01:49:03.44	275.69	28.05	-33.9	-46.1	3.8	1.49e+00	0	42	104	0	27	14642
2026-01-12 01:49:06.47	274.87	27.76	-33.9	-46.0	3.8	1.49e+00	0	42	104	0	27	14636
2026-01-12 01:49:09.49	274.06	27.47	-33.9	-46.1	3.8	1.49e+00	0	42	104	0	27	14705
2026-01-12 01:49:12.50	273.27	27.18	-33.9	-46.1	3.8	1.49e+00	0	42	104	0	27	14685
2026-01-12 01:49:15.52	272.50	26.89	-33.8	-46.0	3.8	1.49e+00	0	42	104	0	27	14633
2026-01-12 01:49:18.53	271.74	26.59	-33.9	-46.0	3.8	1.49e+00	0	42	104	0	27	14659
2026-01-12 01:49:21.55	270.99	26.29	-33.9	-46.1	3.8	1.49e+00	0	42	104	0	27	14670
2026-01-12 01:49:24.57	270.26	25.99	-33.9	-46.1	3.8	1.49e+00	0	42	104	0	27	14682
2026-01-12 01:49:27.59	269.54	25.69	-33.9	-46.0	3.8	1.49e+00	0	42	104	0	27	14601
2026-01-12 01:49:30.61	268.83	25.38	-33.9	-46.1	3.8	1.49e+00	0	42	104	0	27	14694
2026-01-12 01:49:33.63	268.14	25.07	-33.9	-46.1	3.8	1.49e+00	0	42	104	0	27	14667
2026-01-12 01:49:36.66	267.46	24.77	-33.9	-46.1	3.8	1.49e+00	0	42	104	0	27	14657
2026-01-12 01:49:39.67	266.80	24.46	-33.9	-46.1	3.8	1.49e+00	0	42	104	0	27	14692
2026-01-12 01:49:42.70	266.14	24.15	-33.9	-46.1	3.8	1.49e+00	0	42	104	0	27	14656
2026-01-12 01:49:45.72	265.50	23.84	-33.9	-46.1	3.8	1.49e+00	0	42	104	0	27	14692
2026-01-12 01:49:48.74	264.88	23.53	-33.9	-46.1	3.8	1.49e+00	0	42	104	0	27	14736
2026-01-12 01:49:51.76	264.26	23.22	-33.9	-46.1	3.8	1.49e+00	0	42	104	0	27	14728
2026-01-12 01:49:54.77	263.66	22.92	-33.9	-46.1	3.8	1.49e+00	0	42	104	0	27	14697
2026-01-12 01:49:57.80	263.07	22.61	-33.9	-46.1	3.8	1.49e+00	0	42	104	0	27	14689
2026-01-12 01:50:00.81	262.49	22.30	-33.9	-46.1	3.8	1.49e+00	0	42	104	0	27	14658
2026-01-12 01:50:03.83	261.92	21.99	-33.9	-46.1	3.8	1.49e+00	0	42	104	0	27	14679
2026-01-12 01:50:06.86	261.36	21.69	-33.9	-46.1	3.8	1.49e+00	0	42	104	0	27	14667
2026-01-12 01:50:09.87	260.82	21.38	-33.9	-46.1	3.8	1.49e+00	0	42	104	0	27	14678
2026-01-12 01:50:12.89	260.29	21.08	-33.9	-46.0	3.8	1.49e+00	0	42	104	0	27	14621
2026-01-12 01:50:15.91	259.76	20.77	-33.9	-46.1	3.8	1.49e+00	0	42	104	0	27	14661
2026-01-12 01:50:18.93	259.25	20.47	-33.9	-46.1	3.8	1.49e+00	0	42	104	0	27	14649
2026-01-12 01:50:21.94	258.75	20.17	-33.9	-46.1	3.8	1.49e+00	0	42	104	0	27	14697
2026-01-12 01:50:24.96	258.25	19.87	-33.9	-46.1	3.8	1.49e+00	0	42	104	0	27	14675
2026-01-12 01:50:27.98	257.77	19.57	-33.9	-46.1	3.8	1.49e+00	0	42	104	0	27	14670
2026-01-12 01:50:31.00	257.29	19.27	-33.9	-46.1	3.8	1.49e+00	0	42	104	0	27	14672
2026-01-12 01:50:34.02	256.83	18.98	-33.9	-46.0	3.8	1.49e+00	0	42	104	0	27	14639
2026-01-12 01:50:37.04	256.37	18.68	-33.8	-46.0	3.8	1.49e+00	0	42	104	0	27	14637
2026-01-12 01:50:40.06	255.92	18.39	-33.9	-46.1	3.8	1.49e+00	0	42	104	0	27	14689
2026-01-12 01:50:43.07	255.49	18.10	-33.9	-46.1	3.8	1.49e+00	0	42	104	0	27	14672
2026-01-12 01:50:46.08	255.06	17.81	-33.9	-46.0	3.8	1.49e+00	0	42	104	0	27	14630
2026-01-12 01:50:49.11	254.63	17.52	-33.8	-46.1	3.8	1.49e+00	0	42	104	0	27	14711
2026-01-12 01:50:52.13	254.22	17.24	-33.9	-46.0	3.8	1.49e+00	0	42	104	0	27	14646
2026-01-12 01:50:55.15	253.81	16.96	-33.8	-46.0	3.8	1.49e+00	0	42	104	0	27	14651
2026-01-12 01:50:58.16	253.42	16.67	-33.9	-46.1	3.8	1.49e+00	0	42	104	0	27	14659
2026-01-12 01:51:01.18	253.02	16.39	-33.8	-46.0	3.8	1.49e+00	0	42	104	0	27	14625
2026-01-12 01:51:04.20	252.64	16.12	-33.9	-46.1	3.8	1.49e+00	0	42	104	0	27	14674
2026-01-12 01:51:07.22	252.26	15.84	-33.9	-46.1	3.8	1.49e+00	0	42	104	0	27	14673
2026-01-12 01:51:10.25	251.89	15.56	-33.8	-46.1	3.8	1.49e+00	0	42	104	0	27	14676
2026-01-12 01:51:13.27	251.53	15.29	-33.9	-46.1	3.8	1.49e+00	0	42	104	0	27	14665
2026-01-12 01:51:16.29	251.17	15.02	-33.9	-46.1	3.8	1.49e+00	0	42	104	0	27	14702
2026-01-12 01:51:19.31	250.82	14.75	-33.9	-46.1	3.8	1.49e+00	0	42	104	0	27	14693
2026-01-12 01:51:22.33	250.48	14.48	-33.9	-46.1	3.8	1.49e+00	0	42	104	0	27	14667
2026-01-12 01:51:25.35	250.14	14.22	-33.9	-46.1	3.8	1.49e+00	0	42	104	0	27	14671
2026-01-12 01:51:28.38	249.81	13.95	-33.9	-46.1	3.8	1.49e+00	0	42	104	0	27	14722
2026-01-12 01:51:31.39	249.49	13.69	-33.9	-46.1	3.8	1.49e+00	0	42	104	0	27	14660
2026-01-12 01:51:34.42	249.17	13.43	-33.9	-46.1	3.8	1.49e+00	0	42	104	0	27	14664
2026-01-12 01:51:37.44	248.85	13.17	-33.9	-46.1	3.8	1.49e+00	0	42	104	0	27	14641
2026-01-12 01:51:40.46	248.54	12.92	-33.9	-46.1	3.8	1.49e+00	0	42	104	0	27	14634
2026-01-12 01:51:43.49	248.24	12.66	-33.9	-46.0	3.8	1.49e+00	0	42	104	0	27	14614
2026-01-12 01:51:46.51	247.94	12.41	-33.9	-46.1	3.8	1.49e+00	0	42	104	0	27	14665
2026-01-12 01:51:49.53	247.65	12.16	-33.9	-46.1	3.8	1.49e+00	0	42	104	0	27	14739
2026-01-12 01:51:52.55	247.36	11.91	-33.9	-46.1	3.8	1.49e+00	0	42	104	0	27	14725
2026-01-12 01:51:55.56	247.08	11.67	-33.9	-46.1	3.8	1.49e+00	0	42	104	0	27	14652
2026-01-12 01:51:58.58	246.80	11.42	-33.9	-46.1	3.8	1.49e+00	0	42	104	0	27	14660
2026-01-12 01:52:01.60	246.53	11.18	-33.8	-46.0	3.9	1.49e+00	0	42	104	0	27	14605
2026-01-12 01:52:04.62	246.26	10.94	-33.8	-46.1	3.8	1.49e+00	0	42	104	0	27	14678
2026-01-12 01:52:07.62	246.00	10.70	-33.9	-46.1	3.8	1.49e+00	0	42	104	0	27	14659
2026-01-12 01:52:10.65	245.74	10.46	-33.8	-46.0	3.8	1.49e+00	0	42	104	0	27	14659
2026-01-12 01:52:13.66	245.49	10.22	-33.9	-46.1	3.8	1.49e+00	0	42	104	0	27	14685
2026-01-12 01:52:16.67	245.24	9.99	-33.9	-46.0	3.8	1.49e+00	0	42	104	0	27	14644
2026-01-12 01:52:19.69	244.99	9.76	-33.9	-46.1	3.8	1.49e+00	0	42	104	0	27	14665
2026-01-12 01:52:22.72	244.74	9.53	-33.9	-46.1	3.8	1.49e+00	0	42	104	0	27	14676
2026-01-12 01:52:25.73	244.51	9.30	-33.9	-46.0	3.8	1.49e+00	0	42	104	0	27	14633
2026-01-12 01:52:28.75	244.27	9.07	-33.9	-46.0	3.8	1.49e+00	0	42	104	0	27	14647
2026-01-12 01:52:31.77	244.04	8.84	-33.9	-46.0	3.8	1.49e+00	0	42	104	0	27	14629
2026-01-12 01:52:34.79	243.81	8.62	-33.8	-46.0	3.8	1.49e+00	0	42	104	0	27	14641
2026-01-12 01:52:37.81	243.59	8.39	-33.9	-46.1	3.8	1.49e+00	0	42	104	0	27	14701
2026-01-12 01:52:40.83	243.37	8.17	-33.9	-46.1	3.8	1.49e+00	0	42	104	0	27	14710
2026-01-12 01:52:43.85	243.15	7.95	-33.9	-46.1	3.8	1.49e+00	0	42	104	0	27	14661
2026-01-12 01:52:46.86	242.94	7.73	-33.9	-46.1	3.8	1.49e+00	0	42	104	0	27	14691
2026-01-12 01:52:49.88	242.73	7.52	-33.9	-46.1	3.8	1.49e+00	0	42	104	0	27	14667
2026-01-12 01:52:52.91	242.52	7.30	-33.9	-46.1	3.8	1.49e+00	0	42	104	0	27	14683
2026-01-12 01:52:55.93	242.31	7.09	-33.8	-46.1	3.8	1.49e+00	0	42	104	0	27	14688

#Closed at: 2026-01-12 01:52:57
#Recorded file [0 MB]: D:/data/31010_260112_044231.dat