passes_logs/2026/01/12/R2M6_AANII_01/R2M6_AANII_01__20260112_020659_AQUA_rec.log

#Pass ID: 20260112_020659_AQUA
#Satellite: AQUA
#Configuration: AQUA
#almurnet v.1.7.20240730
#Start time: 2026-01-12 02:07:00

#Version: 2.2.20231116
#Station: R2M6_AANII_01
#Location: 30.233357 lon 59.946436 lat
#TLE: 1 27424U 02022A   26011.34052177  .00001139  00000+0  23789-3 0  9999
#TLE: 2 27424  98.4078 337.7066 0002035  82.6124  44.5301 14.61815662260355

#Time	Az	El	Level	Level2	SNR	BER	BlckErr	Temp	State	Recorded	gain1	gain2
2026-01-12 02:07:00.07	16.71	7.08	-31.6	-38.6	5.0	7.10e-01	0	39	0	0	24	8082
2026-01-12 02:07:03.08	16.70	7.33	-32.0	-40.3	4.9	7.12e-01	0	39	104	0	25	9343
2026-01-12 02:07:06.10	16.69	7.58	-31.4	-36.5	14.1	6.03e-01	0	39	0	3670016	25	6422
2026-01-12 02:07:09.12	16.67	7.83	-30.9	-35.0	15.5	6.04e-01	0	39	0	9437184	24	5774
2026-01-12 02:07:12.14	16.66	8.09	-30.8	-35.1	15.9	6.04e-01	0	39	0	15204352	23	5867
2026-01-12 02:07:15.16	16.65	8.35	-30.1	-33.4	17.5	6.03e-01	0	39	0	20971520	22	5235
2026-01-12 02:07:18.18	16.63	8.61	-30.0	-33.0	17.7	6.02e-01	0	40	0	26214400	22	5089
2026-01-12 02:07:21.19	16.62	8.87	-30.0	-32.9	17.9	6.02e-01	0	40	0	31981568	22	5027
2026-01-12 02:07:24.21	16.60	9.14	-30.0	-32.8	18.0	6.03e-01	0	40	0	37748736	22	4980
2026-01-12 02:07:27.22	16.59	9.41	-29.9	-33.1	18.1	6.04e-01	0	40	0	43515904	21	5209
2026-01-12 02:07:30.24	16.57	9.69	-29.9	-33.0	18.2	6.02e-01	0	40	0	49283072	21	5176
2026-01-12 02:07:33.26	16.55	9.96	-29.8	-32.8	18.3	6.05e-01	0	40	0	54525952	21	5092
2026-01-12 02:07:36.28	16.54	10.25	-29.9	-33.0	18.2	6.05e-01	0	40	0	60293120	21	5166
2026-01-12 02:07:39.29	16.52	10.53	-29.8	-32.8	18.4	6.02e-01	0	40	0	66060288	21	5086
2026-01-12 02:07:42.30	16.50	10.82	-29.8	-32.7	18.5	6.05e-01	0	40	0	71827456	21	5023
2026-01-12 02:07:45.33	16.48	11.11	-29.8	-32.7	18.5	6.02e-01	0	40	0	77594624	21	5047
2026-01-12 02:07:48.34	16.46	11.41	-29.9	-33.0	18.3	6.05e-01	0	40	0	82837504	21	5151
2026-01-12 02:07:51.36	16.44	11.71	-29.8	-32.7	18.5	6.02e-01	0	40	0	88604672	21	5035
2026-01-12 02:07:54.38	16.42	12.01	-29.9	-33.0	18.3	6.01e-01	0	40	0	94371840	21	5143
2026-01-12 02:07:57.40	16.39	12.32	-29.9	-33.1	18.3	6.02e-01	0	40	0	100139008	21	5186
2026-01-12 02:08:00.41	16.37	12.63	-30.1	-33.6	18.0	6.02e-01	0	41	0	105381888	21	5393
2026-01-12 02:08:03.43	16.35	12.95	-30.2	-33.7	18.0	6.05e-01	0	41	0	111149056	21	5411
2026-01-12 02:08:06.45	16.32	13.27	-30.2	-33.8	18.0	6.02e-01	0	41	0	116916224	21	5434
2026-01-12 02:08:09.47	16.30	13.60	-29.8	-32.7	18.6	6.05e-01	0	41	0	122683392	21	5038
2026-01-12 02:08:12.49	16.27	13.93	-29.4	-31.7	19.3	6.02e-01	0	41	0	128450560	21	4660
2026-01-12 02:08:15.51	16.24	14.27	-29.5	-31.7	19.3	6.03e-01	0	41	0	133693440	21	4677
2026-01-12 02:08:18.52	16.21	14.61	-29.3	-31.9	19.5	6.02e-01	0	41	0	139460608	20	4843
2026-01-12 02:08:21.54	16.18	14.96	-29.3	-31.9	19.5	6.01e-01	0	41	0	145227776	20	4821
2026-01-12 02:08:24.56	16.15	15.32	-29.3	-31.8	19.7	6.02e-01	0	41	0	150994944	20	4785
2026-01-12 02:08:27.57	16.12	15.67	-29.2	-31.5	19.8	6.03e-01	0	41	0	156762112	20	4689
2026-01-12 02:08:30.58	16.09	16.04	-29.2	-31.5	19.8	6.03e-01	0	41	0	162004992	20	4696
2026-01-12 02:08:33.59	16.05	16.41	-29.1	-31.3	19.9	6.03e-01	0	41	0	167772160	20	4616
2026-01-12 02:08:36.60	16.02	16.79	-29.0	-31.0	20.1	6.02e-01	0	41	0	173539328	20	4537
2026-01-12 02:08:39.62	15.98	17.17	-29.1	-31.3	20.0	6.04e-01	0	41	0	179306496	20	4623
2026-01-12 02:08:42.64	15.94	17.56	-29.2	-31.5	19.8	6.01e-01	0	41	0	184549376	20	4690
2026-01-12 02:08:45.65	15.90	17.96	-29.3	-31.7	19.8	6.02e-01	0	41	0	190316544	20	4748
2026-01-12 02:08:48.67	15.86	18.37	-29.5	-32.2	19.5	6.02e-01	0	41	0	196083712	20	4909
2026-01-12 02:08:51.69	15.82	18.78	-29.5	-32.1	19.5	6.03e-01	0	41	0	201850880	20	4893
2026-01-12 02:08:54.71	15.78	19.20	-29.6	-32.6	19.3	6.01e-01	0	41	0	207618048	20	5049
2026-01-12 02:08:57.73	15.73	19.63	-29.3	-31.6	19.9	6.03e-01	0	41	0	212860928	20	4711
2026-01-12 02:09:00.75	15.68	20.07	-29.3	-31.7	19.9	6.03e-01	0	41	0	218628096	20	4728
2026-01-12 02:09:03.76	15.63	20.51	-29.5	-32.3	19.5	6.03e-01	0	41	0	224395264	20	4942
2026-01-12 02:09:06.78	15.58	20.96	-29.7	-32.7	19.3	6.03e-01	0	41	0	230162432	20	5099
2026-01-12 02:09:09.80	15.53	21.43	-29.9	-33.2	18.9	6.04e-01	0	41	0	235929600	20	5272
2026-01-12 02:09:12.83	15.47	21.90	-29.9	-33.1	19.1	6.02e-01	0	41	0	241172480	20	5234
2026-01-12 02:09:15.84	15.41	22.38	-29.9	-33.2	19.0	6.01e-01	0	41	0	246939648	20	5256
2026-01-12 02:09:18.85	15.35	22.88	-30.2	-33.4	18.6	6.02e-01	0	41	0	252706816	21	5232
2026-01-12 02:09:21.87	15.29	23.38	-30.3	-33.9	18.3	6.00e-01	0	41	0	258473984	21	5401
2026-01-12 02:09:24.89	15.23	23.89	-30.6	-34.2	17.8	6.01e-01	0	41	0	264241152	22	5406
2026-01-12 02:09:27.91	15.16	24.42	-30.7	-34.5	17.6	6.02e-01	0	41	0	269484032	22	5543
2026-01-12 02:09:30.92	15.09	24.95	-30.6	-33.9	18.0	6.05e-01	0	41	0	275251200	22	5320
2026-01-12 02:09:33.94	15.01	25.50	-29.6	-31.8	19.7	6.05e-01	0	41	0	281018368	21	4657
2026-01-12 02:09:36.96	14.94	26.07	-29.4	-31.8	20.0	6.02e-01	0	41	0	286785536	20	4762
2026-01-12 02:09:39.97	14.86	26.64	-29.3	-31.6	20.1	6.02e-01	0	41	0	292552704	20	4680
2026-01-12 02:09:42.98	14.77	27.22	-29.2	-31.4	20.3	6.02e-01	0	41	0	297795584	20	4610
2026-01-12 02:09:46.00	14.69	27.83	-29.3	-31.5	20.2	6.03e-01	0	41	0	303562752	20	4663
2026-01-12 02:09:49.02	14.60	28.44	-29.1	-31.1	20.4	6.04e-01	0	41	0	309329920	20	4540
2026-01-12 02:09:52.04	14.50	29.07	-29.1	-31.1	20.4	6.03e-01	0	41	0	315097088	20	4540
2026-01-12 02:09:55.06	14.40	29.72	-29.2	-31.4	20.3	6.01e-01	0	41	0	320339968	20	4615
2026-01-12 02:09:58.07	14.29	30.38	-29.3	-31.5	20.2	6.03e-01	0	41	0	326107136	20	4658
2026-01-12 02:10:01.09	14.18	31.06	-29.0	-30.8	20.7	6.03e-01	0	41	0	331874304	20	4428
2026-01-12 02:10:04.10	14.07	31.76	-29.1	-30.9	20.7	6.02e-01	0	41	0	337641472	20	4471
2026-01-12 02:10:07.12	13.95	32.47	-29.2	-31.3	20.4	6.02e-01	0	41	0	343408640	20	4577
2026-01-12 02:10:10.14	13.82	33.21	-28.9	-30.5	20.8	6.04e-01	0	41	0	348651520	20	4348
2026-01-12 02:10:13.16	13.69	33.96	-29.3	-31.5	20.3	6.04e-01	0	41	0	354418688	20	4644
2026-01-12 02:10:16.16	13.54	34.73	-29.5	-32.1	20.0	6.04e-01	0	41	0	360185856	20	4826
2026-01-12 02:10:19.18	13.40	35.52	-29.9	-33.1	19.4	6.01e-01	0	41	0	365953024	20	5206
2026-01-12 02:10:22.21	13.24	36.34	-30.1	-33.5	19.2	6.02e-01	0	41	0	371720192	20	5327
2026-01-12 02:10:25.23	13.07	37.17	-30.4	-33.4	18.6	6.02e-01	0	41	0	376963072	22	5087
2026-01-12 02:10:28.25	12.89	38.03	-30.6	-33.8	18.4	6.02e-01	0	41	0	382730240	22	5238
2026-01-12 02:10:31.26	12.71	38.92	-30.6	-33.8	18.4	6.03e-01	0	41	0	388497408	22	5215
2026-01-12 02:10:34.28	12.51	39.82	-30.4	-33.3	18.7	6.03e-01	0	41	0	394264576	22	5036
2026-01-12 02:10:37.30	12.30	40.76	-30.4	-33.4	18.6	6.02e-01	0	41	0	400031744	22	5064
2026-01-12 02:10:40.33	12.07	41.72	-30.5	-33.8	18.4	6.04e-01	0	42	0	405274624	22	5209
2026-01-12 02:10:43.34	11.84	42.70	-30.4	-33.3	18.7	6.03e-01	0	41	0	411041792	22	5019
2026-01-12 02:10:46.37	11.58	43.72	-30.5	-33.6	18.5	6.04e-01	0	41	0	416808960	22	5147
2026-01-12 02:10:49.39	11.31	44.76	-30.0	-32.2	19.4	6.03e-01	0	41	0	422576128	22	4661
2026-01-12 02:10:52.41	11.01	45.83	-29.5	-31.6	20.1	6.01e-01	0	42	0	428343296	21	4569
2026-01-12 02:10:55.42	10.70	46.92	-29.5	-31.6	20.0	6.01e-01	0	42	0	433586176	21	4551
2026-01-12 02:10:58.44	10.36	48.05	-29.6	-31.7	20.0	6.03e-01	0	42	0	439353344	21	4592
2026-01-12 02:11:01.45	9.99	49.21	-29.5	-32.1	20.1	6.02e-01	0	41	0	445120512	20	4814
2026-01-12 02:11:04.47	9.59	50.40	-29.4	-31.6	20.4	6.04e-01	0	41	0	450887680	20	4664
2026-01-12 02:11:07.49	9.16	51.62	-29.2	-31.3	20.6	6.03e-01	0	42	0	456654848	20	4561
2026-01-12 02:11:10.50	8.69	52.87	-29.2	-31.3	20.6	6.02e-01	0	41	0	461897728	20	4559
2026-01-12 02:11:13.52	8.18	54.16	-28.8	-30.8	21.2	6.03e-01	0	41	0	467664896	19	4516
2026-01-12 02:11:16.53	7.62	55.47	-29.4	-32.2	20.3	6.03e-01	0	42	0	473432064	19	4978
2026-01-12 02:11:19.55	6.99	56.82	-29.4	-32.1	20.5	6.04e-01	0	42	0	479199232	19	4945
2026-01-12 02:11:22.57	6.30	58.20	-30.0	-33.1	19.4	6.04e-01	0	41	0	484966400	20	5198
2026-01-12 02:11:25.58	5.54	59.60	-30.0	-32.6	19.5	6.02e-01	0	41	0	490209280	21	4908
2026-01-12 02:11:28.60	4.68	61.04	-30.3	-33.6	18.9	6.04e-01	0	41	0	495976448	21	5263
2026-01-12 02:11:31.62	3.72	62.51	-30.3	-33.6	18.9	6.00e-01	0	42	0	501743616	21	5261
2026-01-12 02:11:34.64	2.63	64.00	-30.7	-34.1	18.3	6.02e-01	0	41	0	507510784	22	5313
2026-01-12 02:11:37.66	1.38	65.51	-31.3	-35.5	17.1	6.02e-01	0	42	0	512753664	23	5811
2026-01-12 02:11:40.66	359.96	67.03	-31.9	-36.8	15.9	6.04e-01	0	41	0	518520832	24	6297
2026-01-12 02:11:43.68	358.30	68.58	-32.3	-37.5	15.1	6.05e-01	0	42	0	524288000	25	6572
2026-01-12 02:11:46.70	356.36	70.13	-32.3	-37.5	15.1	6.04e-01	0	41	0	530055168	25	6578
2026-01-12 02:11:49.72	354.06	71.68	-32.1	-36.7	15.7	6.04e-01	0	42	0	535822336	25	6146
2026-01-12 02:11:52.72	351.32	73.22	-32.3	-37.6	15.0	6.06e-01	0	42	0	541065216	25	6615
2026-01-12 02:11:55.74	347.98	74.74	-32.7	-38.7	13.8	6.02e-01	0	41	0	546832384	26	7158
2026-01-12 02:11:58.76	343.88	76.21	-32.7	-38.7	13.9	6.02e-01	0	42	0	552599552	26	7150
2026-01-12 02:12:01.78	338.78	77.62	-32.4	-37.3	14.8	6.04e-01	0	41	0	558366720	26	6376
2026-01-12 02:12:04.80	332.39	78.92	-32.2	-36.6	15.4	6.04e-01	0	42	0	563609600	26	6000
2026-01-12 02:12:07.81	324.41	80.05	-30.8	-33.8	18.2	6.04e-01	0	42	0	569376768	23	5077
2026-01-12 02:12:10.83	314.56	80.96	-31.4	-35.5	17.3	6.03e-01	0	42	0	575143936	23	5780
2026-01-12 02:12:13.85	302.90	81.55	-30.8	-33.7	18.4	6.02e-01	0	42	0	580911104	23	5034
2026-01-12 02:12:16.86	290.13	81.75	-31.5	-35.8	17.1	6.02e-01	0	42	0	586678272	23	5929
2026-01-12 02:12:19.89	277.29	81.54	-30.8	-33.7	18.4	6.02e-01	0	42	0	591921152	23	5040
2026-01-12 02:12:22.90	265.70	80.94	-30.9	-34.0	18.2	6.05e-01	0	42	0	597688320	23	5149
2026-01-12 02:12:25.92	255.88	80.03	-30.7	-33.5	18.5	6.05e-01	0	41	0	603455488	23	4967
2026-01-12 02:12:28.94	247.92	78.89	-30.6	-33.7	18.6	6.04e-01	0	42	0	609222656	22	5161
2026-01-12 02:12:31.96	241.56	77.58	-31.3	-35.4	17.2	6.03e-01	0	41	0	614989824	23	5754
2026-01-12 02:12:34.97	236.50	76.18	-32.3	-37.5	14.9	6.03e-01	0	41	0	620232704	25	6597
2026-01-12 02:12:37.99	232.41	74.70	-32.4	-37.3	14.6	6.03e-01	0	42	0	625999872	26	6389
2026-01-12 02:12:41.01	229.09	73.18	-31.6	-35.3	16.6	6.02e-01	0	42	0	631767040	25	5504
2026-01-12 02:12:44.02	226.35	71.63	-31.9	-36.3	15.8	6.00e-01	0	42	0	637534208	25	5978
2026-01-12 02:12:47.04	224.06	70.08	-32.1	-37.1	15.3	6.04e-01	0	41	0	643301376	25	6350
2026-01-12 02:12:50.05	222.13	68.53	-32.7	-38.8	13.4	6.04e-01	0	42	0	648544256	26	7274
2026-01-12 02:12:53.07	220.47	66.98	-32.4	-37.6	14.4	6.03e-01	0	42	0	654311424	26	6559
2026-01-12 02:12:56.08	219.05	65.45	-32.4	-38.4	14.3	6.03e-01	0	42	0	660078592	25	7117
2026-01-12 02:12:59.09	217.81	63.94	-31.8	-36.1	15.9	6.04e-01	0	42	0	665845760	25	5912
2026-01-12 02:13:02.10	216.73	62.45	-31.3	-34.8	17.2	6.04e-01	0	42	0	671088640	24	5408
2026-01-12 02:13:05.12	215.77	60.98	-31.4	-35.3	16.8	6.02e-01	0	41	0	676855808	24	5630
2026-01-12 02:13:08.14	214.91	59.54	-31.8	-36.4	16.0	6.05e-01	0	42	0	682622976	24	6157
2026-01-12 02:13:11.15	214.15	58.13	-30.7	-33.7	18.1	6.03e-01	0	42	0	688390144	23	5086
2026-01-12 02:13:14.17	213.46	56.75	-29.6	-31.6	20.0	6.04e-01	0	41	0	694157312	21	4580
2026-01-12 02:13:17.18	212.84	55.40	-29.1	-31.1	20.5	6.03e-01	0	42	0	699400192	20	4518
2026-01-12 02:13:20.20	212.27	54.08	-28.3	-30.1	21.8	6.00e-01	0	42	0	705167360	18	4423
2026-01-12 02:13:23.22	211.76	52.79	-28.7	-31.0	21.3	6.02e-01	0	42	0	710934528	18	4690
2026-01-12 02:13:26.24	211.29	51.53	-28.6	-30.9	21.4	6.02e-01	0	42	0	716701696	18	4654
2026-01-12 02:13:29.26	210.86	50.31	-29.5	-32.6	20.0	6.03e-01	0	41	0	721944576	19	5128
2026-01-12 02:13:32.28	210.46	49.11	-29.3	-32.1	20.3	6.04e-01	0	42	0	727711744	19	4952
2026-01-12 02:13:35.29	210.09	47.95	-29.2	-31.9	20.4	6.02e-01	0	41	0	733478912	19	4869
2026-01-12 02:13:38.30	209.76	46.83	-29.2	-31.3	20.4	6.04e-01	0	41	0	739246080	20	4589
2026-01-12 02:13:41.31	209.44	45.73	-29.1	-31.1	20.5	6.03e-01	0	41	0	745013248	20	4521
2026-01-12 02:13:44.32	209.15	44.66	-29.2	-31.2	20.4	6.04e-01	0	42	0	750256128	20	4550
2026-01-12 02:13:47.33	208.87	43.62	-29.3	-31.6	20.2	6.02e-01	0	42	0	756023296	20	4686
2026-01-12 02:13:50.35	208.62	42.60	-29.5	-32.0	19.9	6.01e-01	0	42	0	761790464	20	4829
2026-01-12 02:13:53.37	208.38	41.61	-29.7	-32.6	19.6	6.00e-01	0	41	0	767557632	20	5026
2026-01-12 02:13:56.39	208.15	40.65	-29.9	-33.1	19.3	6.01e-01	0	41	0	773324800	20	5201
2026-01-12 02:13:59.42	207.94	39.71	-30.1	-33.6	19.0	6.02e-01	0	42	0	778567680	20	5401
2026-01-12 02:14:02.44	207.74	38.80	-30.3	-33.7	18.6	6.02e-01	0	42	0	784334848	21	5327
2026-01-12 02:14:05.45	207.56	37.92	-30.2	-33.3	18.8	6.02e-01	0	41	0	790102016	21	5189
2026-01-12 02:14:08.47	207.38	37.06	-30.0	-33.1	19.0	6.02e-01	0	42	0	795869184	21	5101
2026-01-12 02:14:11.49	207.21	36.22	-29.9	-32.7	19.2	6.02e-01	0	42	0	801636352	21	4967
2026-01-12 02:14:14.50	207.05	35.40	-30.0	-32.8	19.1	6.02e-01	0	42	0	806879232	21	5006
2026-01-12 02:14:17.51	206.90	34.61	-29.6	-31.9	19.6	6.03e-01	0	42	0	812646400	21	4694
2026-01-12 02:14:20.52	206.76	33.84	-29.4	-31.8	20.0	6.04e-01	0	42	0	818413568	20	4751
2026-01-12 02:14:23.54	206.63	33.08	-29.3	-31.5	20.1	6.04e-01	0	42	0	824180736	20	4677
2026-01-12 02:14:26.56	206.50	32.35	-29.0	-31.0	20.4	6.02e-01	0	42	0	829423616	20	4507
2026-01-12 02:14:29.58	206.37	31.63	-28.9	-30.6	20.7	6.03e-01	0	42	0	835190784	20	4389
2026-01-12 02:14:32.60	206.26	30.93	-28.8	-30.8	20.9	6.02e-01	0	42	0	840957952	19	4563
2026-01-12 02:14:35.61	206.15	30.25	-28.6	-30.5	21.0	6.01e-01	0	41	0	846725120	19	4453
2026-01-12 02:14:38.61	206.04	29.59	-28.6	-30.3	21.1	6.03e-01	0	42	0	851968000	19	4405
2026-01-12 02:14:41.63	205.94	28.94	-28.6	-30.3	21.1	6.02e-01	0	41	0	857735168	19	4410
2026-01-12 02:14:44.65	205.84	28.31	-28.7	-30.7	20.9	6.03e-01	0	42	0	863502336	19	4531
2026-01-12 02:14:47.66	205.75	27.69	-28.9	-31.2	20.6	6.03e-01	0	42	0	869269504	19	4678
2026-01-12 02:14:50.68	205.66	27.09	-29.2	-31.8	20.2	6.03e-01	0	42	0	875036672	19	4896
2026-01-12 02:14:53.70	205.58	26.50	-29.2	-31.9	20.2	6.04e-01	0	42	0	880279552	19	4930
2026-01-12 02:14:56.71	205.49	25.93	-29.3	-32.3	19.9	6.03e-01	0	42	0	886046720	19	5054
2026-01-12 02:14:59.73	205.42	25.36	-29.2	-32.0	20.0	6.02e-01	0	41	0	891813888	19	4965
2026-01-12 02:15:02.74	205.34	24.81	-29.3	-32.2	19.9	6.02e-01	0	42	0	897581056	19	5031
2026-01-12 02:15:05.76	205.27	24.27	-29.4	-32.5	19.7	6.02e-01	0	42	0	903348224	19	5141
2026-01-12 02:15:08.77	205.20	23.75	-29.5	-32.7	19.7	6.01e-01	0	42	0	908591104	19	5186
2026-01-12 02:15:11.79	205.13	23.23	-29.4	-32.0	19.7	6.03e-01	0	42	0	914358272	20	4864
2026-01-12 02:15:14.81	205.07	22.73	-29.5	-32.3	19.5	6.02e-01	0	41	0	920125440	20	4941
2026-01-12 02:15:17.82	205.01	22.24	-29.5	-32.3	19.5	6.03e-01	0	42	0	925892608	20	4937
2026-01-12 02:15:20.84	204.95	21.75	-29.4	-32.0	19.7	6.01e-01	0	41	0	931659776	20	4845
2026-01-12 02:15:23.86	204.89	21.28	-29.5	-32.2	19.5	6.01e-01	0	42	0	936902656	20	4906
2026-01-12 02:15:26.88	204.84	20.81	-29.3	-31.8	19.7	6.04e-01	0	41	0	942669824	20	4797
2026-01-12 02:15:29.91	204.78	20.36	-29.4	-31.9	19.6	6.02e-01	0	41	0	948436992	20	4812
2026-01-12 02:15:32.93	204.73	19.91	-29.3	-31.7	19.7	6.04e-01	0	42	0	954204160	20	4763
2026-01-12 02:15:35.95	204.68	19.47	-29.4	-31.9	19.6	6.00e-01	0	41	0	959971328	20	4827
2026-01-12 02:15:38.97	204.63	19.04	-29.3	-31.8	19.6	6.04e-01	0	41	0	965214208	20	4798
2026-01-12 02:15:41.98	204.59	18.62	-29.4	-31.9	19.5	6.01e-01	0	42	0	970981376	20	4845
2026-01-12 02:15:45.00	204.54	18.21	-29.3	-31.7	19.7	6.02e-01	0	42	0	976748544	20	4778
2026-01-12 02:15:48.02	204.50	17.80	-29.3	-31.9	19.5	6.03e-01	0	42	0	982515712	20	4836
2026-01-12 02:15:51.04	204.46	17.40	-29.5	-32.4	19.3	6.04e-01	0	42	0	988282880	20	5001
2026-01-12 02:15:54.05	204.42	17.01	-29.5	-32.4	19.2	6.01e-01	0	42	0	993525760	20	5009
2026-01-12 02:15:57.07	204.38	16.63	-29.6	-32.6	19.1	6.04e-01	0	42	0	999292928	20	5077
2026-01-12 02:16:00.08	204.34	16.25	-29.4	-32.2	19.3	6.03e-01	0	42	0	1005060096	20	4942
2026-01-12 02:16:03.10	204.31	15.87	-29.5	-32.4	19.1	6.02e-01	0	42	0	1010827264	20	5010
2026-01-12 02:16:06.13	204.27	15.51	-29.4	-32.2	19.2	6.02e-01	0	42	0	1016594432	20	4949
2026-01-12 02:16:09.15	204.24	15.15	-29.5	-32.3	19.1	6.04e-01	0	42	0	1021837312	20	4996
2026-01-12 02:16:12.16	204.21	14.79	-29.3	-31.9	19.4	6.02e-01	0	42	0	1027604480	20	4860
2026-01-12 02:16:15.19	204.17	14.44	-29.4	-32.1	19.2	6.03e-01	0	42	0	1033371648	20	4923
2026-01-12 02:16:18.20	204.14	14.10	-29.3	-32.0	19.3	6.03e-01	0	42	0	1039138816	20	4880
2026-01-12 02:16:21.22	204.11	13.76	-29.5	-32.4	19.0	6.05e-01	0	42	0	1044905984	20	5020
2026-01-12 02:16:24.24	204.08	13.43	-29.5	-32.3	19.0	6.05e-01	0	42	0	1050148864	20	5012
2026-01-12 02:16:27.26	204.06	13.10	-29.7	-32.9	18.6	6.02e-01	0	42	0	1055916032	20	5238
2026-01-12 02:16:30.28	204.03	12.78	-29.6	-32.7	18.7	6.08e-01	0	41	0	1061683200	20	5164
2026-01-12 02:16:33.29	204.00	12.46	-29.5	-32.5	18.8	6.02e-01	0	42	0	1067450368	20	5064
2026-01-12 02:16:36.32	203.98	12.15	-29.5	-32.4	18.9	6.04e-01	0	42	0	1073217536	20	5050
2026-01-12 02:16:39.34	203.95	11.84	-29.7	-33.0	18.5	6.03e-01	0	42	0	1078460416	20	5261
2026-01-12 02:16:42.36	203.93	11.53	-29.5	-32.6	18.6	6.04e-01	0	42	0	1084227584	20	5126
2026-01-12 02:16:45.37	203.91	11.23	-29.5	-32.5	18.7	6.04e-01	0	41	0	1089994752	20	5089
2026-01-12 02:16:48.39	203.88	10.93	-29.7	-33.0	18.4	6.04e-01	0	42	0	1095761920	20	5301
2026-01-12 02:16:51.41	203.86	10.64	-29.6	-32.8	18.5	6.01e-01	0	42	0	1101004800	20	5192
2026-01-12 02:16:54.44	203.84	10.35	-29.7	-33.0	18.3	6.02e-01	0	42	0	1106771968	20	5296
2026-01-12 02:16:57.45	203.82	10.07	-29.4	-32.4	18.7	6.03e-01	0	42	0	1112539136	20	5055
2026-01-12 02:17:00.46	203.80	9.78	-29.5	-32.7	18.5	6.03e-01	0	42	0	1118306304	20	5189
2026-01-12 02:17:03.48	203.78	9.51	-29.9	-33.7	17.9	6.03e-01	0	42	0	1124073472	20	5588
2026-01-12 02:17:06.49	203.76	9.23	-29.7	-33.1	18.2	6.00e-01	0	42	0	1129316352	20	5329
2026-01-12 02:17:09.51	203.74	8.96	-29.6	-32.9	18.4	6.03e-01	0	42	0	1135083520	20	5260
2026-01-12 02:17:12.52	203.73	8.69	-29.6	-33.0	18.2	6.03e-01	0	42	0	1140850688	20	5308
2026-01-12 02:17:15.55	203.71	8.43	-29.7	-33.3	18.0	6.02e-01	0	42	0	1146617856	20	5451
2026-01-12 02:17:18.56	203.69	8.17	-29.8	-33.4	17.9	6.05e-01	0	42	0	1151860736	20	5487
2026-01-12 02:17:21.58	203.68	7.91	-30.0	-34.0	17.5	6.03e-01	0	42	0	1157627904	20	5747
2026-01-12 02:17:24.60	203.66	7.65	-29.9	-33.8	17.6	6.03e-01	0	41	0	1163395072	20	5646
2026-01-12 02:17:27.61	203.64	7.40	-29.9	-33.9	17.5	6.04e-01	0	42	0	1169162240	20	5714
2026-01-12 02:17:30.62	203.63	7.15	-30.1	-33.9	17.1	6.03e-01	0	42	0	1174929408	21	5603
2026-01-12 02:17:33.63	203.62	6.90	-33.6	-52.7	3.8	7.46e-01	0	42	104	1176502272	28	32516

#Closed at: 2026-01-12 02:17:34
#Recorded file [1176 MB]: D:/data/31010_260112_050703.dat