passes_logs/2026/01/12/R2M6_AANII_01/R2M6_AANII_01__20260112_000130_NOAA_21_JPSS-2_rec.log

#Pass ID: 20260112_000130_NOAA 21 (JPSS-2)
#Satellite: NOAA 21 (JPSS-2)
#Configuration: NOAA 21
#almurnet v.1.7.20240730
#Start time: 2026-01-12 00:01:30

#Version: 2.2.20231116
#Station: R2M6_AANII_01
#Location: 30.233357 lon 59.946436 lat
#TLE: 1 54234U 22150A   26011.27699114  .00000090  00000+0  63771-4 0  9993
#TLE: 2 54234  98.7494 312.2218 0000765 314.9553  45.1561 14.19534106164285

#Time	Az	El	Level	Level2	SNR	BER	BlckErr	Temp	State	Recorded	gain1	gain2
2026-01-12 00:01:30.07	19.80	6.95	-30.8	-36.9	4.4	1.42e+00	0	39	0	0	21	7243
2026-01-12 00:01:33.09	19.86	7.18	-30.8	-36.0	7.2	1.38e-01	0	39	0	3145728	21	6592
2026-01-12 00:01:36.12	19.93	7.41	-30.7	-35.8	7.4	1.25e-01	0	39	0	12582912	21	6432
2026-01-12 00:01:39.13	19.99	7.64	-30.4	-34.6	8.2	7.05e-02	0	39	0	22020096	21	5812
2026-01-12 00:01:42.16	20.06	7.88	-29.2	-32.4	10.9	4.29e-03	0	40	0	31457280	18	5188
2026-01-12 00:01:45.19	20.13	8.12	-28.2	-30.9	12.6	7.38e-04	0	40	0	40894464	16	4861
2026-01-12 00:01:48.21	20.20	8.36	-27.9	-30.6	12.8	4.88e-05	0	40	0	50331648	15	4899
2026-01-12 00:01:51.23	20.27	8.61	-28.0	-30.3	13.0	4.19e-05	0	40	0	59768832	16	4661
2026-01-12 00:01:54.25	20.34	8.85	-27.9	-30.5	13.0	4.65e-05	0	40	0	69206016	15	4861
2026-01-12 00:01:57.27	20.41	9.10	-28.2	-30.7	12.7	7.32e-05	0	40	0	78643200	16	4794
2026-01-12 00:02:00.29	20.48	9.35	-28.3	-30.9	12.6	1.09e-04	0	40	0	88080384	16	4878
2026-01-12 00:02:03.31	20.55	9.60	-28.5	-31.0	12.3	1.75e-04	0	40	0	97517568	17	4781
2026-01-12 00:02:06.33	20.63	9.86	-28.4	-31.3	12.4	1.34e-04	0	40	0	106954752	16	4993
2026-01-12 00:02:09.36	20.70	10.12	-28.2	-30.7	12.8	5.56e-05	0	40	0	116391936	16	4804
2026-01-12 00:02:12.38	20.78	10.38	-27.5	-29.6	13.6	1.06e-05	0	40	0	125829120	15	4571
2026-01-12 00:02:15.39	20.86	10.64	-27.3	-29.6	13.9	5.30e-06	0	40	0	135266304	14	4692
2026-01-12 00:02:18.40	20.93	10.91	-27.2	-29.2	14.2	1.50e-06	0	40	0	144703488	14	4556
2026-01-12 00:02:21.42	21.01	11.18	-27.1	-29.1	14.3	7.00e-07	0	40	0	154140672	14	4506
2026-01-12 00:02:24.44	21.10	11.45	-27.3	-29.6	14.0	4.50e-06	0	40	0	163577856	14	4674
2026-01-12 00:02:27.46	21.18	11.73	-27.2	-29.2	14.2	0.00e+00	0	41	0	173015040	14	4551
2026-01-12 00:02:30.48	21.26	12.01	-27.0	-28.9	13.3	1.50e-06	0	41	0	182452224	14	4448
2026-01-12 00:02:33.49	21.35	12.29	-27.6	-29.7	13.6	7.00e-07	0	41	0	191889408	15	4578
2026-01-12 00:02:36.50	21.43	12.57	-27.7	-29.9	13.6	1.06e-05	0	41	0	201326592	15	4651
2026-01-12 00:02:39.53	21.52	12.86	-27.8	-30.2	13.4	1.83e-05	0	41	0	210763776	15	4730
2026-01-12 00:02:42.55	21.61	13.15	-27.4	-29.8	13.9	4.05e-03	0	41	0	220200960	14	4735
2026-01-12 00:02:45.56	21.70	13.45	-27.1	-28.9	14.5	0.00e+00	0	41	0	229638144	14	4455
2026-01-12 00:02:48.59	21.79	13.75	-26.8	-28.7	14.9	3.53e-03	0	41	0	239075328	13	4508
2026-01-12 00:02:51.61	21.89	14.05	-26.8	-28.9	14.8	0.00e+00	0	41	0	248512512	13	4575
2026-01-12 00:02:54.63	21.98	14.36	-26.8	-28.9	14.8	3.85e-03	0	41	0	257949696	13	4551
2026-01-12 00:02:57.65	22.08	14.67	-26.8	-28.8	14.9	3.44e-03	0	41	0	267386880	13	4536
2026-01-12 00:03:00.66	22.18	14.98	-26.7	-28.5	15.1	3.15e-03	0	41	0	276824064	13	4458
2026-01-12 00:03:03.68	22.28	15.30	-26.8	-28.8	14.9	0.00e+00	0	41	0	286261248	13	4521
2026-01-12 00:03:06.70	22.39	15.62	-26.8	-28.8	14.9	0.00e+00	0	41	0	295698432	13	4523
2026-01-12 00:03:09.72	22.49	15.95	-26.9	-29.0	14.9	7.00e-07	0	41	0	305135616	13	4581
2026-01-12 00:03:12.74	22.60	16.28	-27.0	-28.8	14.7	0.00e+00	0	41	0	314572800	14	4408
2026-01-12 00:03:15.75	22.71	16.61	-27.0	-29.2	14.7	7.00e-07	0	41	0	324009984	13	4644
2026-01-12 00:03:18.76	22.82	16.95	-26.9	-28.9	14.9	7.00e-07	0	41	0	332398592	13	4563
2026-01-12 00:03:21.77	22.93	17.29	-26.8	-28.3	15.0	0.00e+00	0	41	0	342884352	14	4275
2026-01-12 00:03:24.79	23.05	17.64	-26.7	-28.6	15.1	0.00e+00	0	41	0	352321536	13	4456
2026-01-12 00:03:27.81	23.16	18.00	-26.7	-28.5	15.2	0.00e+00	0	41	0	360710144	13	4424
2026-01-12 00:03:30.82	23.29	18.36	-26.8	-28.7	15.1	0.00e+00	0	41	0	371195904	13	4492
2026-01-12 00:03:33.85	23.41	18.72	-27.0	-29.2	14.8	0.00e+00	0	41	0	379584512	13	4633
2026-01-12 00:03:36.85	23.53	19.09	-26.8	-28.9	15.0	7.00e-07	0	41	0	389021696	13	4541
2026-01-12 00:03:39.87	23.66	19.47	-26.6	-28.3	15.3	7.00e-07	0	41	0	399507456	13	4377
2026-01-12 00:03:42.90	23.80	19.85	-26.4	-27.9	15.6	0.00e+00	0	41	0	407896064	13	4264
2026-01-12 00:03:45.91	23.93	20.24	-26.8	-28.8	15.1	0.00e+00	0	41	0	417333248	13	4520
2026-01-12 00:03:48.93	24.07	20.63	-26.8	-28.3	15.1	0.00e+00	0	41	0	426770432	14	4259
2026-01-12 00:03:51.95	24.21	21.03	-26.6	-28.3	15.4	0.00e+00	0	41	0	436207616	13	4379
2026-01-12 00:03:54.96	24.35	21.43	-27.0	-28.7	14.0	0.00e+00	0	41	0	445644800	13	4356
2026-01-12 00:03:57.97	24.50	21.84	-26.4	-27.9	15.6	2.79e-03	0	41	0	455081984	13	4259
2026-01-12 00:04:00.99	24.65	22.26	-26.1	-27.6	16.1	0.00e+00	0	41	0	464519168	12	4285
2026-01-12 00:04:04.00	24.81	22.69	-26.5	-28.1	15.5	1.87e-03	0	41	0	473956352	13	4308
2026-01-12 00:04:07.02	24.97	23.12	-26.8	-28.2	15.3	6.80e-06	0	41	0	483393536	14	4231
2026-01-12 00:04:10.05	25.13	23.56	-26.6	-28.4	15.4	1.71e-03	0	41	0	492830720	13	4387
2026-01-12 00:04:13.07	25.30	24.01	-26.5	-28.0	15.6	2.31e-03	0	41	0	502267904	13	4287
2026-01-12 00:04:16.09	25.48	24.46	-25.6	-27.1	16.8	2.95e-03	0	41	0	511705088	11	4262
2026-01-12 00:04:19.09	25.65	24.92	-25.8	-27.5	16.6	3.19e-03	0	41	0	521142272	11	4353
2026-01-12 00:04:22.11	25.83	25.39	-25.9	-27.7	16.4	5.79e-05	0	41	0	530579456	11	4435
2026-01-12 00:04:25.12	26.02	25.87	-26.1	-27.6	16.2	3.10e-03	0	41	0	540016640	12	4289
2026-01-12 00:04:28.15	26.21	26.36	-26.3	-28.1	15.9	9.10e-06	0	41	0	549453824	12	4423
2026-01-12 00:04:31.16	26.41	26.85	-26.8	-28.8	15.3	2.20e-06	0	42	0	558891008	13	4516
2026-01-12 00:04:34.19	26.62	27.36	-26.8	-28.8	15.3	0.00e+00	0	42	0	568328192	13	4507
2026-01-12 00:04:37.20	26.83	27.87	-27.2	-29.0	14.9	0.00e+00	0	42	0	577765376	14	4460
2026-01-12 00:04:40.21	27.05	28.40	-27.4	-29.1	14.6	0.00e+00	0	41	0	587202560	15	4365
2026-01-12 00:04:43.23	27.27	28.93	-27.3	-29.3	14.7	0.00e+00	0	42	0	596639744	14	4546
2026-01-12 00:04:46.25	27.50	29.47	-27.3	-29.4	14.7	7.00e-07	0	42	0	606076928	14	4555
2026-01-12 00:04:49.27	27.74	30.03	-27.0	-28.6	15.2	0.00e+00	0	41	0	615514112	14	4349
2026-01-12 00:04:52.29	27.99	30.59	-27.1	-28.8	15.1	0.00e+00	0	42	0	624951296	14	4403
2026-01-12 00:04:55.32	28.24	31.17	-27.1	-28.8	15.1	0.00e+00	0	42	0	634388480	14	4391
2026-01-12 00:04:58.34	28.51	31.75	-26.7	-28.4	15.6	0.00e+00	0	41	0	643825664	13	4382
2026-01-12 00:05:01.35	28.78	32.35	-27.1	-28.9	15.0	0.00e+00	0	41	0	653262848	14	4433
2026-01-12 00:05:04.36	29.06	32.95	-27.7	-29.7	14.3	2.20e-06	0	41	0	662700032	15	4531
2026-01-12 00:05:07.38	29.36	33.57	-27.4	-29.1	14.7	0.00e+00	0	41	0	672137216	15	4368
2026-01-12 00:05:10.40	29.66	34.20	-27.5	-29.3	14.6	1.50e-06	0	41	0	681574400	15	4426
2026-01-12 00:05:13.43	29.98	34.85	-27.9	-30.3	14.1	7.00e-07	0	41	0	691011584	15	4714
2026-01-12 00:05:16.43	30.31	35.50	-28.0	-29.9	14.2	1.50e-06	0	41	0	700448768	16	4472
2026-01-12 00:05:19.46	30.65	36.17	-28.5	-31.0	13.5	4.50e-06	0	41	0	709885952	16	4814
2026-01-12 00:05:22.47	31.00	36.85	-28.3	-30.0	13.8	5.30e-06	0	42	0	719323136	17	4388
2026-01-12 00:05:25.49	31.37	37.55	-28.0	-29.3	14.2	3.80e-06	0	41	0	728760320	17	4204
2026-01-12 00:05:28.52	31.76	38.26	-27.8	-28.8	14.5	0.00e+00	0	42	0	738197504	17	4057
2026-01-12 00:05:31.53	32.17	38.98	-27.7	-29.1	14.7	0.00e+00	0	42	0	747634688	16	4224
2026-01-12 00:05:34.55	32.59	39.72	-27.8	-29.5	14.4	1.50e-06	0	42	0	757071872	16	4348
2026-01-12 00:05:37.57	33.03	40.47	-28.0	-30.3	13.9	1.50e-06	0	42	0	766509056	16	4664
2026-01-12 00:05:40.59	33.49	41.24	-28.8	-31.3	13.1	2.13e-05	0	42	0	775946240	17	4817
2026-01-12 00:05:43.60	33.97	42.02	-29.2	-31.8	12.6	1.85e-04	0	42	0	785383424	18	4838
2026-01-12 00:05:46.63	34.48	42.81	-29.0	-31.2	12.9	4.65e-05	0	41	0	794820608	18	4664
2026-01-12 00:05:49.65	35.01	43.62	-29.3	-32.1	12.4	3.26e-04	0	42	0	804257792	18	4943
2026-01-12 00:05:52.68	35.57	44.45	-29.8	-32.7	11.7	8.79e-04	0	42	0	813694976	19	5062
2026-01-12 00:05:55.70	36.16	45.29	-29.3	-31.4	12.5	1.20e-04	0	42	0	823132160	19	4590
2026-01-12 00:05:58.73	36.78	46.15	-29.2	-31.6	12.6	1.04e-04	0	42	0	832569344	18	4787
2026-01-12 00:06:01.74	37.44	47.01	-28.5	-30.0	13.7	9.10e-06	0	42	0	842006528	18	4265
2026-01-12 00:06:04.76	38.13	47.89	-28.4	-30.8	13.8	2.20e-06	0	42	0	851443712	16	4744
2026-01-12 00:06:07.77	38.86	48.79	-28.0	-29.8	14.4	1.50e-06	0	42	0	860880896	16	4436
2026-01-12 00:06:10.79	39.63	49.70	-28.1	-30.0	14.3	1.50e-06	0	42	0	870318080	16	4497
2026-01-12 00:06:13.80	40.45	50.62	-28.4	-30.8	13.8	4.50e-06	0	42	0	879755264	16	4744
2026-01-12 00:06:16.82	41.32	51.55	-28.8	-30.8	13.3	2.13e-05	0	42	0	889192448	18	4513
2026-01-12 00:06:19.84	42.25	52.50	-28.4	-30.4	13.9	7.60e-06	0	42	0	898629632	17	4489
2026-01-12 00:06:22.86	43.25	53.46	-28.2	-30.2	14.2	2.20e-06	0	42	0	908066816	16	4558
2026-01-12 00:06:25.89	44.31	54.43	-28.3	-30.6	14.0	3.80e-06	0	42	0	917504000	16	4668
2026-01-12 00:06:28.91	45.44	55.40	-27.7	-29.1	14.9	0.00e+00	0	42	0	926941184	16	4224
2026-01-12 00:06:31.92	46.65	56.38	-27.4	-28.9	15.2	0.00e+00	0	42	0	936378368	15	4284
2026-01-12 00:06:34.94	47.95	57.36	-27.1	-28.9	14.5	0.00e+00	0	42	0	945815552	14	4392
2026-01-12 00:06:37.96	49.35	58.35	-26.8	-28.6	15.8	0.00e+00	0	42	0	955252736	13	4419
2026-01-12 00:06:40.98	50.85	59.34	-26.6	-28.1	16.1	2.17e-03	0	42	0	964689920	13	4284
2026-01-12 00:06:44.01	52.48	60.32	-26.2	-27.8	16.5	2.15e-03	0	42	0	974127104	12	4301
2026-01-12 00:06:47.02	54.22	61.30	-25.7	-27.0	17.2	9.34e-04	0	42	0	983564288	11	4214
2026-01-12 00:06:50.03	56.11	62.26	-25.7	-27.0	17.3	9.98e-04	0	42	0	993001472	11	4222
2026-01-12 00:06:53.05	58.15	63.22	-26.0	-27.2	16.9	0.00e+00	0	42	0	1002438656	12	4154
2026-01-12 00:06:56.05	60.35	64.14	-26.1	-27.4	16.9	1.34e-04	0	42	0	1011875840	12	4201
2026-01-12 00:06:59.08	62.75	65.05	-25.9	-27.1	17.0	0.00e+00	0	42	0	1021313024	12	4137
2026-01-12 00:07:02.10	65.35	65.93	-26.7	-28.4	16.0	1.18e-03	0	42	0	1030750208	13	4373
2026-01-12 00:07:05.12	68.15	66.77	-25.9	-27.2	17.0	0.00e+00	0	42	0	1040187392	12	4150
2026-01-12 00:07:08.14	71.18	67.56	-26.4	-28.1	16.5	7.93e-05	0	42	0	1049624576	12	4400
2026-01-12 00:07:11.16	74.44	68.30	-25.2	-26.5	17.9	0.00e+00	0	42	0	1059061760	10	4191
2026-01-12 00:07:14.18	77.94	68.97	-25.2	-26.5	18.0	0.00e+00	0	42	0	1068498944	10	4183
2026-01-12 00:07:17.18	81.65	69.57	-25.8	-27.4	17.3	0.00e+00	0	42	0	1077936128	11	4313
2026-01-12 00:07:20.20	85.61	70.09	-25.7	-27.1	17.5	0.00e+00	0	42	0	1087373312	11	4229
2026-01-12 00:07:23.23	89.79	70.52	-24.8	-26.1	18.3	0.00e+00	0	42	0	1096810496	9	4203
2026-01-12 00:07:26.25	94.13	70.85	-25.0	-26.0	18.2	0.00e+00	0	42	0	1106247680	10	4064
2026-01-12 00:07:29.28	98.63	71.07	-25.6	-26.9	17.5	0.00e+00	0	42	0	1115684864	11	4168
2026-01-12 00:07:32.30	103.19	71.19	-25.6	-26.9	17.5	0.00e+00	0	42	0	1125122048	11	4181
2026-01-12 00:07:35.31	107.77	71.19	-25.1	-26.4	18.0	0.00e+00	0	42	0	1134559232	10	4158
2026-01-12 00:07:38.33	112.34	71.08	-25.9	-27.5	17.2	0.00e+00	0	42	0	1143996416	11	4339
2026-01-12 00:07:41.35	116.82	70.85	-25.8	-27.4	17.2	0.00e+00	0	42	0	1153433600	11	4301
2026-01-12 00:07:44.37	121.17	70.53	-26.3	-28.0	16.6	0.00e+00	0	42	0	1162870784	12	4360
2026-01-12 00:07:47.39	125.34	70.10	-26.5	-28.0	16.3	0.00e+00	0	42	0	1172307968	13	4259
2026-01-12 00:07:50.42	129.32	69.58	-26.5	-27.9	16.3	0.00e+00	0	42	0	1181745152	13	4226
2026-01-12 00:07:53.45	133.08	68.98	-25.2	-26.0	18.0	0.00e+00	0	42	0	1191182336	11	3949
2026-01-12 00:07:56.46	136.57	68.31	-26.1	-27.4	16.1	0.00e+00	0	42	0	1200619520	12	4215
2026-01-12 00:07:59.48	139.84	67.57	-24.9	-25.9	18.3	0.00e+00	0	42	0	1210056704	10	4032
2026-01-12 00:08:02.50	142.88	66.78	-26.0	-27.3	16.9	0.00e+00	0	42	0	1219493888	12	4192
2026-01-12 00:08:05.52	145.69	65.94	-24.6	-25.7	18.6	3.53e-03	0	42	0	1228931072	9	4096
2026-01-12 00:08:08.53	148.28	65.06	-26.4	-28.1	16.5	0.00e+00	0	42	0	1238368256	12	4404
2026-01-12 00:08:11.56	150.69	64.15	-24.9	-25.3	18.3	5.32e-04	0	42	0	1247805440	11	3787
2026-01-12 00:08:14.57	152.90	63.22	-26.8	-28.6	15.9	0.00e+00	0	42	0	1257242624	13	4428
2026-01-12 00:08:17.58	154.94	62.27	-27.0	-28.0	15.7	2.12e-04	0	42	0	1266679808	15	4055
2026-01-12 00:08:20.60	156.84	61.29	-26.9	-28.9	15.8	1.22e-05	0	42	0	1276116992	13	4495
2026-01-12 00:08:23.62	158.59	60.31	-27.9	-29.0	14.8	5.02e-04	0	41	0	1285554176	17	4096
2026-01-12 00:08:26.62	160.21	59.33	-25.8	-27.4	17.2	0.00e+00	0	42	0	1294991360	11	4307
2026-01-12 00:08:29.64	161.72	58.34	-28.4	-30.7	14.1	7.00e-07	0	42	0	1304428544	16	4690
2026-01-12 00:08:32.65	163.11	57.36	-27.1	-28.8	15.4	2.57e-03	0	42	0	1313865728	14	4359
2026-01-12 00:08:35.66	164.41	56.37	-26.2	-27.8	16.6	0.00e+00	0	42	0	1323302912	12	4316
2026-01-12 00:08:38.69	165.63	55.38	-29.1	-31.5	12.9	6.71e-05	0	42	0	1332740096	18	4749
2026-01-12 00:08:41.70	166.76	54.41	-27.7	-29.1	14.9	0.00e+00	0	42	0	1342177280	16	4212
2026-01-12 00:08:44.72	167.82	53.44	-27.8	-29.3	14.9	0.00e+00	0	42	0	1351614464	16	4269
2026-01-12 00:08:47.74	168.82	52.48	-29.3	-31.9	12.7	5.26e-05	0	42	0	1361051648	18	4847
2026-01-12 00:08:50.76	169.75	51.53	-28.5	-29.9	13.8	1.37e-05	0	42	0	1370488832	18	4253
2026-01-12 00:08:53.78	170.62	50.59	-27.6	-28.9	15.0	0.00e+00	0	42	0	1379926016	16	4162
2026-01-12 00:08:56.81	171.45	49.66	-29.2	-31.6	12.9	3.58e-05	0	42	0	1389363200	18	4755
2026-01-12 00:08:59.82	172.22	48.75	-29.6	-32.1	12.3	1.81e-04	0	42	0	1398800384	19	4834
2026-01-12 00:09:02.84	172.96	47.85	-29.1	-30.8	13.0	3.81e-05	0	42	0	1408237568	19	4388
2026-01-12 00:09:05.86	173.65	46.96	-29.1	-30.8	13.1	3.20e-05	0	42	0	1417674752	19	4390
2026-01-12 00:09:08.89	174.31	46.09	-29.4	-31.6	12.5	1.33e-04	0	42	0	1427111936	19	4657
2026-01-12 00:09:11.91	174.93	45.23	-28.8	-30.7	13.4	2.28e-05	0	42	0	1436549120	18	4473
2026-01-12 00:09:14.93	175.51	44.39	-29.9	-32.9	11.8	4.33e-04	0	42	0	1445986304	19	5100
2026-01-12 00:09:17.95	176.07	43.56	-29.2	-31.0	12.8	9.38e-05	0	42	0	1455423488	19	4468
2026-01-12 00:09:20.97	176.61	42.74	-29.0	-31.1	13.2	2.44e-05	0	42	0	1464860672	18	4596
2026-01-12 00:09:23.99	177.11	41.95	-29.1	-31.0	12.9	7.01e-05	0	42	0	1474297856	19	4462
2026-01-12 00:09:27.01	177.60	41.16	-28.9	-30.3	13.3	3.58e-05	0	42	0	1483735040	19	4261
2026-01-12 00:09:30.03	178.06	40.39	-28.8	-30.8	13.3	1.44e-05	0	42	0	1493172224	18	4516
2026-01-12 00:09:33.04	178.50	39.64	-29.7	-32.4	12.1	2.52e-04	0	42	0	1502609408	19	4913
2026-01-12 00:09:36.05	178.92	38.90	-28.8	-30.7	13.4	2.21e-05	0	42	0	1512046592	18	4480
2026-01-12 00:09:39.08	179.32	38.17	-28.6	-30.6	13.7	6.10e-06	0	42	0	1521483776	17	4563
2026-01-12 00:09:42.10	179.71	37.46	-28.1	-29.6	14.2	1.50e-06	0	42	0	1530920960	17	4254
2026-01-12 00:09:45.12	180.08	36.76	-27.6	-29.5	14.7	0.00e+00	0	42	0	1540358144	15	4454
2026-01-12 00:09:48.13	180.43	36.08	-27.8	-30.0	14.4	7.00e-07	0	42	0	1549795328	15	4610
2026-01-12 00:09:51.15	180.77	35.40	-27.7	-29.7	14.6	0.00e+00	0	42	0	1559232512	15	4529
2026-01-12 00:09:54.17	181.10	34.74	-28.2	-30.3	14.1	0.00e+00	0	42	0	1568669696	16	4577
2026-01-12 00:09:57.19	181.42	34.10	-28.5	-30.6	13.6	7.60e-06	0	42	0	1578106880	17	4566
2026-01-12 00:10:00.21	181.72	33.46	-28.8	-30.9	13.2	3.28e-05	0	42	0	1587544064	18	4550
2026-01-12 00:10:03.23	182.01	32.84	-28.3	-30.5	14.0	2.84e-04	0	42	0	1596981248	16	4640
2026-01-12 00:10:06.25	182.30	32.23	-27.4	-29.1	14.9	0.00e+00	0	42	0	1606418432	15	4349
2026-01-12 00:10:09.26	182.57	31.63	-27.2	-29.1	15.2	2.79e-04	0	42	0	1615855616	14	4450
2026-01-12 00:10:12.28	182.83	31.05	-27.0	-28.6	15.5	3.91e-04	0	42	0	1625292800	14	4315
2026-01-12 00:10:15.30	183.09	30.47	-26.9	-28.3	15.6	3.78e-04	0	42	0	1634729984	14	4231
2026-01-12 00:10:18.32	183.33	29.90	-26.3	-27.4	16.3	0.00e+00	0	42	0	1644167168	13	4098
2026-01-12 00:10:21.34	183.57	29.35	-26.5	-28.4	16.0	4.86e-04	0	42	0	1653604352	12	4488
2026-01-12 00:10:24.36	183.80	28.80	-26.8	-28.6	15.6	0.00e+00	0	42	0	1663041536	13	4428
2026-01-12 00:10:27.37	184.02	28.27	-26.6	-28.2	15.8	0.00e+00	0	42	0	1672478720	13	4324
2026-01-12 00:10:30.40	184.24	27.74	-26.6	-28.3	15.8	0.00e+00	0	42	0	1681915904	13	4349
2026-01-12 00:10:33.41	184.45	27.23	-26.0	-27.6	14.1	0.00e+00	0	42	0	1691353088	13	4329
2026-01-12 00:10:36.43	184.65	26.72	-26.6	-28.3	15.7	3.80e-03	0	42	0	1700790272	13	4343
2026-01-12 00:10:39.44	184.85	26.22	-26.7	-28.5	15.6	0.00e+00	0	42	0	1710227456	13	4423
2026-01-12 00:10:42.46	185.04	25.73	-26.9	-28.9	15.4	3.40e-03	0	42	0	1719664640	13	4529
2026-01-12 00:10:45.48	185.23	25.25	-26.8	-28.6	15.6	3.48e-03	0	42	0	1729101824	13	4436
2026-01-12 00:10:48.50	185.41	24.78	-26.7	-28.4	15.7	3.23e-03	0	42	0	1738539008	13	4384
2026-01-12 00:10:51.51	185.58	24.32	-26.8	-28.6	15.6	3.18e-03	0	42	0	1747976192	13	4448
2026-01-12 00:10:54.53	185.76	23.86	-27.3	-29.4	14.8	3.21e-03	0	42	0	1757413376	14	4568
2026-01-12 00:10:57.54	185.92	23.41	-26.8	-28.7	15.5	2.97e-03	0	42	0	1766850560	13	4485
2026-01-12 00:11:00.55	186.08	22.97	-26.7	-28.4	15.6	0.00e+00	0	42	0	1776287744	13	4395
2026-01-12 00:11:03.58	186.24	22.54	-26.6	-28.1	15.8	3.29e-03	0	42	0	1785724928	13	4308
2026-01-12 00:11:06.60	186.40	22.11	-26.2	-27.8	16.2	0.00e+00	0	42	0	1795162112	12	4341
2026-01-12 00:11:09.62	186.55	21.69	-26.1	-27.7	16.3	1.91e-03	0	42	0	1804599296	12	4308
2026-01-12 00:11:12.64	186.69	21.28	-26.4	-28.2	15.9	0.00e+00	0	42	0	1814036480	12	4454
2026-01-12 00:11:15.64	186.84	20.87	-26.5	-28.1	15.8	0.00e+00	0	42	0	1823473664	13	4298
2026-01-12 00:11:18.67	186.98	20.47	-26.5	-28.1	15.7	0.00e+00	0	42	0	1832910848	13	4304
2026-01-12 00:11:21.68	187.11	20.08	-26.5	-28.0	15.8	0.00e+00	0	42	0	1842348032	13	4273
2026-01-12 00:11:24.70	187.24	19.69	-26.5	-28.0	15.7	3.00e-06	0	42	0	1851785216	13	4291
2026-01-12 00:11:27.73	187.38	19.30	-26.8	-28.7	15.4	2.20e-06	0	42	0	1861222400	13	4468
2026-01-12 00:11:30.75	187.50	18.93	-26.9	-29.0	15.2	3.80e-06	0	42	0	1870659584	13	4566
2026-01-12 00:11:33.77	187.63	18.55	-27.3	-29.3	14.7	6.10e-06	0	42	0	1880096768	14	4559
2026-01-12 00:11:36.79	187.75	18.19	-27.4	-29.1	14.5	0.00e+00	0	42	0	1889533952	15	4374
2026-01-12 00:11:39.82	187.87	17.83	-27.4	-29.1	14.5	0.00e+00	0	42	0	1898971136	15	4381
2026-01-12 00:11:42.85	187.98	17.47	-27.5	-29.4	14.3	3.00e-06	0	42	0	1908408320	15	4466
2026-01-12 00:11:45.86	188.10	17.12	-27.6	-29.5	14.3	7.00e-07	0	42	0	1917845504	15	4502
2026-01-12 00:11:48.89	188.21	16.77	-27.5	-29.3	14.4	0.00e+00	0	42	0	1927282688	15	4422
2026-01-12 00:11:51.91	188.32	16.43	-27.5	-29.4	14.3	7.00e-07	0	42	0	1936719872	15	4454
2026-01-12 00:11:54.93	188.43	16.09	-27.5	-29.3	14.4	0.00e+00	0	42	0	1946157056	15	4447
2026-01-12 00:11:57.95	188.53	15.76	-27.5	-29.4	14.3	1.91e-04	0	42	0	1955594240	15	4477
2026-01-12 00:12:00.96	188.63	15.44	-27.5	-29.5	14.2	3.80e-06	0	42	0	1965031424	15	4482
2026-01-12 00:12:03.99	188.73	15.11	-27.6	-29.7	14.1	2.24e-04	0	42	0	1974468608	15	4548
2026-01-12 00:12:07.01	188.83	14.79	-27.6	-29.7	14.1	4.75e-04	0	42	0	1983905792	15	4545
2026-01-12 00:12:10.04	188.93	14.48	-27.6	-29.6	14.1	8.81e-04	0	42	0	1993342976	15	4528
2026-01-12 00:12:13.06	189.03	14.16	-27.8	-30.1	13.8	1.08e-03	0	42	0	2002780160	15	4688
2026-01-12 00:12:16.07	189.12	13.86	-27.4	-29.6	14.4	0.00e+00	0	42	0	2012217344	14	4645
2026-01-12 00:12:19.09	189.21	13.55	-27.5	-29.5	14.1	2.00e-03	0	42	0	2021654528	15	4486
2026-01-12 00:12:22.11	189.30	13.25	-27.5	-29.4	14.2	3.80e-06	0	42	0	2031091712	15	4470
2026-01-12 00:12:25.14	189.39	12.96	-27.6	-29.5	14.1	2.00e-03	0	42	0	2040528896	15	4516
2026-01-12 00:12:28.16	189.48	12.67	-27.6	-29.5	14.1	3.00e-06	0	42	0	2049966080	15	4503
2026-01-12 00:12:31.18	189.56	12.38	-27.6	-29.7	14.0	4.50e-06	0	42	0	2059403264	15	4555
2026-01-12 00:12:34.20	189.65	12.09	-27.3	-29.1	14.2	1.50e-06	0	42	0	2068840448	15	4417
2026-01-12 00:12:37.22	189.73	11.81	-27.5	-29.4	14.1	3.80e-06	0	42	0	2078277632	15	4482
2026-01-12 00:12:40.23	189.81	11.53	-27.5	-29.5	14.0	7.00e-07	0	42	0	2087714816	15	4503
2026-01-12 00:12:43.22	189.89	11.26	-27.5	-29.8	14.1	5.30e-06	0	42	0	2097152000	14	4720
2026-01-12 00:12:46.22	189.97	10.98	-27.7	-29.9	13.7	2.21e-05	0	42	0	2106589184	15	4641
2026-01-12 00:12:49.23	190.04	10.71	-27.6	-29.6	13.9	1.50e-06	0	42	0	2116026368	15	4556
2026-01-12 00:12:52.25	190.12	10.45	-28.0	-30.6	13.3	1.75e-05	0	42	0	2125463552	15	4856
2026-01-12 00:12:55.26	190.19	10.18	-28.2	-30.6	13.2	2.89e-05	0	42	0	2134900736	16	4728
2026-01-12 00:12:58.27	190.27	9.92	-28.2	-30.5	13.2	1.83e-05	0	42	0	2144337920	16	4691
2026-01-12 00:13:01.26	190.34	9.67	-28.1	-30.3	13.3	1.52e-05	0	42	0	2152726528	16	4640
2026-01-12 00:13:04.28	190.41	9.41	-28.2	-30.5	13.1	3.81e-05	0	42	0	2163212288	16	4717
2026-01-12 00:13:07.31	190.48	9.15	-28.4	-31.0	12.8	3.89e-05	0	42	0	2171600896	16	4866
2026-01-12 00:13:10.33	190.55	8.90	-28.5	-30.9	12.5	1.36e-04	0	42	0	2182086656	17	4745
2026-01-12 00:13:13.35	190.62	8.65	-28.6	-31.1	12.4	1.24e-04	0	42	0	2191523840	17	4798
2026-01-12 00:13:16.36	190.69	8.41	-28.8	-31.6	12.0	3.37e-04	0	42	0	2199912448	17	4986
2026-01-12 00:13:19.37	190.75	8.16	-29.2	-32.1	11.4	9.57e-04	0	42	0	2210398208	18	5038
2026-01-12 00:13:22.39	190.82	7.92	-28.9	-31.3	11.8	4.90e-04	0	42	0	2218786816	18	4758
2026-01-12 00:13:25.41	190.88	7.68	-28.7	-31.5	12.0	2.43e-04	0	42	0	2228224000	17	4968
2026-01-12 00:13:28.44	190.95	7.45	-29.0	-31.8	11.6	7.74e-04	0	42	0	2238709760	18	4935
2026-01-12 00:13:31.46	191.01	7.21	-28.8	-31.3	11.8	6.43e-04	0	42	0	2247098368	18	4782
2026-01-12 00:13:34.47	191.07	6.98	-32.7	-44.8	3.8	1.49e+00	0	42	104	2254438400	25	14396

#Closed at: 2026-01-12 00:13:34
#Recorded file [2254 MB]: D:/data/31010_260112_030131.dat