passes_logs/2026/01/12/R2M6_AANII_01/R2M6_AANII_01__20260112_045145_FENGYUN_3D_rec.log

#Pass ID: 20260112_045145_FENGYUN 3D
#Satellite: FENGYUN 3D
#Configuration: FENGYUN 3D
#almurnet v.1.7.20240730
#Start time: 2026-01-12 04:51:44

#Version: 2.2.20231116
#Station: R2M6_AANII_01
#Location: 30.233357 lon 59.946436 lat
#TLE: 1 43010U 17072A   26011.26828046  .00000354  00000+0  18908-3 0  9991
#TLE: 2 43010  98.9936 343.0270 0002205 114.1788 245.9618 14.19695184422722

#Time	Az	El	Level	Level2	SNR	BER	BlckErr	Temp	State	Recorded	gain1	gain2
2026-01-12 04:51:44.50	9.65	6.95	-30.8	-34.6	4.8	8.04e-01	0	39	0	0	23	5590
2026-01-12 04:51:47.52	9.32	7.12	-29.9	-32.6	9.1	1.95e-02	0	39	0	5242880	21	4930
2026-01-12 04:51:50.54	8.98	7.29	-29.6	-32.2	9.8	9.76e-03	0	39	0	22020096	20	4895
2026-01-12 04:51:53.55	8.65	7.46	-29.3	-31.9	10.4	4.39e-03	0	39	0	38797312	19	4848
2026-01-12 04:51:56.57	8.30	7.63	-27.8	-29.5	12.9	8.01e-05	0	39	0	56623104	16	4400
2026-01-12 04:51:59.59	7.95	7.81	-26.5	-27.7	14.5	0.00e+00	0	40	0	73400320	14	4120
2026-01-12 04:52:02.61	7.60	7.98	-26.9	-28.7	13.9	2.20e-06	0	40	0	90177536	14	4381
2026-01-12 04:52:05.63	7.24	8.15	-26.9	-28.5	14.0	2.20e-06	0	40	0	106954752	14	4347
2026-01-12 04:52:08.65	6.88	8.32	-27.1	-28.9	13.8	6.80e-06	0	40	0	123731968	14	4458
2026-01-12 04:52:11.67	6.52	8.49	-26.8	-28.3	14.2	0.00e+00	0	40	0	141557760	14	4269
2026-01-12 04:52:14.69	6.15	8.66	-26.6	-27.9	14.4	0.00e+00	0	40	0	158334976	14	4169
2026-01-12 04:52:17.70	5.78	8.83	-26.7	-28.1	14.3	0.00e+00	0	40	0	175112192	14	4224
2026-01-12 04:52:20.73	5.40	9.01	-26.9	-28.6	14.0	1.10e-06	0	40	0	191889408	14	4363
2026-01-12 04:52:23.74	5.01	9.18	-26.6	-27.9	14.5	1.10e-06	0	40	0	208666624	14	4162
2026-01-12 04:52:26.77	4.62	9.35	-26.3	-27.7	14.9	0.00e+00	0	40	0	226492416	13	4220
2026-01-12 04:52:29.79	4.23	9.52	-26.5	-28.1	14.7	0.00e+00	0	40	0	243269632	13	4314
2026-01-12 04:52:32.81	3.83	9.69	-26.7	-28.6	14.4	0.00e+00	0	41	0	260046848	13	4456
2026-01-12 04:52:35.83	3.43	9.87	-26.4	-27.9	14.8	0.00e+00	0	41	0	276824064	13	4263
2026-01-12 04:52:38.85	3.02	10.04	-26.7	-28.6	14.5	0.00e+00	0	40	0	294649856	13	4457
2026-01-12 04:52:41.86	2.61	10.21	-26.2	-27.4	15.2	0.00e+00	0	40	0	311427072	13	4126
2026-01-12 04:52:44.87	2.20	10.38	-26.4	-27.7	15.0	0.00e+00	0	41	0	328204288	13	4221
2026-01-12 04:52:47.88	1.78	10.55	-26.4	-27.9	15.0	0.00e+00	0	41	0	344981504	13	4258
2026-01-12 04:52:50.91	1.35	10.72	-26.3	-27.6	15.1	0.00e+00	0	41	0	361758720	13	4190
2026-01-12 04:52:53.93	0.91	10.89	-26.4	-27.9	15.0	0.00e+00	0	41	0	378535936	13	4270
2026-01-12 04:52:56.95	0.48	11.06	-26.4	-27.7	15.1	0.00e+00	0	41	0	395313152	13	4218
2026-01-12 04:52:59.97	0.03	11.22	-26.2	-27.3	15.3	0.00e+00	0	41	0	413138944	13	4090
2026-01-12 04:53:02.99	359.59	11.39	-26.1	-27.2	15.4	0.00e+00	0	41	0	429916160	13	4083
2026-01-12 04:53:06.01	359.13	11.56	-25.9	-26.8	15.6	0.00e+00	0	41	0	446693376	13	3980
2026-01-12 04:53:09.03	358.67	11.73	-25.7	-26.8	15.8	0.00e+00	0	41	0	463470592	12	4085
2026-01-12 04:53:12.06	358.21	11.89	-25.8	-27.0	15.8	0.00e+00	0	41	0	481296384	12	4123
2026-01-12 04:53:15.07	357.74	12.06	-26.0	-27.4	15.5	0.00e+00	0	41	0	498073600	12	4227
2026-01-12 04:53:18.09	357.27	12.22	-25.9	-27.2	15.7	0.00e+00	0	41	0	514850816	12	4178
2026-01-12 04:53:21.12	356.79	12.39	-25.8	-26.9	15.8	0.00e+00	0	41	0	531628032	12	4114
2026-01-12 04:53:24.14	356.30	12.55	-25.7	-26.7	15.9	0.00e+00	0	41	0	548405248	12	4062
2026-01-12 04:53:27.16	355.81	12.71	-25.8	-26.9	15.8	0.00e+00	0	41	0	566231040	12	4101
2026-01-12 04:53:30.18	355.31	12.87	-25.9	-27.3	15.6	0.00e+00	0	41	0	583008256	12	4205
2026-01-12 04:53:33.20	354.81	13.03	-26.1	-27.6	15.4	0.00e+00	0	41	0	599785472	12	4307
2026-01-12 04:53:36.21	354.30	13.19	-25.7	-26.8	15.9	0.00e+00	0	41	0	616562688	12	4074
2026-01-12 04:53:39.23	353.79	13.35	-25.6	-26.5	16.1	0.00e+00	0	41	0	633339904	12	3992
2026-01-12 04:53:42.25	353.27	13.50	-25.2	-26.2	16.6	0.00e+00	0	41	0	651165696	11	4030
2026-01-12 04:53:45.27	352.75	13.66	-25.4	-26.6	16.4	0.00e+00	0	41	0	667942912	11	4137
2026-01-12 04:53:48.29	352.22	13.81	-25.4	-26.5	16.4	0.00e+00	0	41	0	684720128	11	4106
2026-01-12 04:53:51.30	351.68	13.96	-25.3	-26.4	16.5	0.00e+00	0	41	0	701497344	11	4090
2026-01-12 04:53:54.32	351.14	14.11	-25.3	-26.3	16.6	0.00e+00	0	41	0	718274560	11	4044
2026-01-12 04:53:57.34	350.60	14.26	-25.3	-26.4	16.5	0.00e+00	0	41	0	735051776	11	4078
2026-01-12 04:54:00.35	350.05	14.41	-25.2	-26.2	16.6	0.00e+00	0	41	0	752877568	11	4019
2026-01-12 04:54:03.37	349.49	14.55	-25.4	-26.7	16.3	0.00e+00	0	41	0	769654784	11	4149
2026-01-12 04:54:06.39	348.92	14.69	-25.3	-26.5	16.4	0.00e+00	0	41	0	786432000	11	4103
2026-01-12 04:54:09.41	348.36	14.83	-25.1	-26.0	16.7	0.00e+00	0	41	0	803209216	11	3973
2026-01-12 04:54:12.41	347.78	14.97	-25.1	-25.9	16.8	0.00e+00	0	41	0	819986432	11	3943
2026-01-12 04:54:15.43	347.21	15.11	-25.4	-26.6	16.4	0.00e+00	0	41	0	837812224	11	4123
2026-01-12 04:54:18.45	346.62	15.24	-25.4	-26.6	16.4	0.00e+00	0	41	0	854589440	11	4137
2026-01-12 04:54:21.47	346.03	15.38	-25.1	-26.0	16.7	0.00e+00	0	41	0	871366656	11	3987
2026-01-12 04:54:24.48	345.44	15.51	-25.3	-26.2	16.7	0.00e+00	0	41	0	888143872	11	4033
2026-01-12 04:54:27.50	344.83	15.63	-25.0	-25.6	17.0	0.00e+00	0	41	0	904921088	11	3886
2026-01-12 04:54:30.51	344.23	15.76	-24.9	-25.4	17.1	0.00e+00	0	41	0	922746880	11	3841
2026-01-12 04:54:33.53	343.62	15.88	-24.8	-25.3	17.2	0.00e+00	0	41	0	939524096	11	3816
2026-01-12 04:54:36.54	343.01	16.00	-25.0	-26.3	16.9	0.00e+00	0	41	0	956301312	10	4153
2026-01-12 04:54:39.57	342.38	16.11	-24.6	-25.3	17.4	0.00e+00	0	41	0	973078528	10	3919
2026-01-12 04:54:42.59	341.76	16.23	-24.5	-25.1	17.5	0.00e+00	0	41	0	989855744	10	3859
2026-01-12 04:54:45.61	341.12	16.34	-24.4	-24.9	17.7	0.00e+00	0	41	0	1007681536	10	3812
2026-01-12 04:54:48.63	340.49	16.45	-24.5	-25.2	17.5	0.00e+00	0	41	0	1024458752	10	3882
2026-01-12 04:54:51.64	339.85	16.55	-24.6	-25.3	17.4	0.00e+00	0	41	0	1041235968	10	3908
2026-01-12 04:54:54.65	339.21	16.65	-24.2	-24.9	17.9	0.00e+00	0	41	0	1058013184	9	3922
2026-01-12 04:54:57.67	338.56	16.75	-24.3	-25.3	17.7	0.00e+00	0	41	0	1074790400	9	4015
2026-01-12 04:55:00.67	337.91	16.84	-24.3	-25.1	17.8	0.00e+00	0	41	0	1091567616	9	3975
2026-01-12 04:55:03.69	337.25	16.94	-24.6	-25.9	17.4	0.00e+00	0	41	0	1108344832	9	4170
2026-01-12 04:55:06.72	336.59	17.02	-24.6	-25.9	17.4	0.00e+00	0	41	0	1126170624	9	4161
2026-01-12 04:55:09.73	335.93	17.11	-24.5	-25.7	17.5	0.00e+00	0	42	0	1142947840	9	4111
2026-01-12 04:55:12.75	335.26	17.19	-24.4	-25.4	17.6	0.00e+00	0	42	0	1159725056	9	4041
2026-01-12 04:55:15.77	334.59	17.26	-24.5	-25.7	17.5	0.00e+00	0	42	0	1176502272	9	4117
2026-01-12 04:55:18.78	333.91	17.34	-24.5	-25.6	17.6	0.00e+00	0	41	0	1193279488	9	4081
2026-01-12 04:55:21.80	333.23	17.40	-24.4	-25.3	17.7	0.00e+00	0	41	0	1211105280	9	4023
2026-01-12 04:55:24.83	332.55	17.47	-24.2	-25.1	17.8	0.00e+00	0	42	0	1227882496	9	3964
2026-01-12 04:55:27.85	331.86	17.53	-24.1	-24.9	17.9	0.00e+00	0	41	0	1244659712	9	3914
2026-01-12 04:55:30.86	331.18	17.59	-24.3	-25.3	17.7	0.00e+00	0	41	0	1261436928	9	4015
2026-01-12 04:55:33.89	330.49	17.64	-24.2	-25.1	17.8	0.00e+00	0	41	0	1278214144	9	3963
2026-01-12 04:55:36.92	329.79	17.69	-24.2	-25.0	17.8	0.00e+00	0	41	0	1296039936	9	3947
2026-01-12 04:55:39.94	329.10	17.73	-24.1	-24.8	17.9	0.00e+00	0	41	0	1312817152	9	3905
2026-01-12 04:55:42.96	328.40	17.77	-23.9	-24.2	18.2	0.00e+00	0	41	0	1329594368	9	3768
2026-01-12 04:55:45.98	327.70	17.81	-23.9	-24.4	18.2	0.00e+00	0	41	0	1346371584	9	3800
2026-01-12 04:55:49.00	327.00	17.84	-23.9	-24.3	18.2	0.00e+00	0	41	0	1363148800	9	3781
2026-01-12 04:55:52.01	326.30	17.86	-24.2	-24.9	17.9	0.00e+00	0	42	0	1380974592	9	3925
2026-01-12 04:55:55.03	325.60	17.89	-24.3	-25.1	17.8	0.00e+00	0	41	0	1397751808	9	3977
2026-01-12 04:55:58.04	324.90	17.91	-23.9	-24.4	18.1	0.00e+00	0	42	0	1414529024	9	3815
2026-01-12 04:56:01.05	324.19	17.92	-23.9	-24.4	18.2	0.00e+00	0	42	0	1431306240	9	3799
2026-01-12 04:56:04.07	323.49	17.93	-23.8	-24.6	18.3	0.00e+00	0	41	0	1448083456	8	3966
2026-01-12 04:56:07.10	322.78	17.93	-23.6	-24.2	18.5	0.00e+00	0	41	0	1465909248	8	3853
2026-01-12 04:56:10.12	322.08	17.93	-23.6	-24.3	18.5	0.00e+00	0	42	0	1482686464	8	3881
2026-01-12 04:56:13.15	321.37	17.93	-23.9	-24.9	18.1	0.00e+00	0	41	0	1499463680	8	4025
2026-01-12 04:56:16.17	320.66	17.92	-24.2	-25.5	17.8	0.00e+00	0	42	0	1516240896	8	4170
2026-01-12 04:56:19.19	319.96	17.91	-24.3	-25.6	17.8	0.00e+00	0	42	0	1533018112	8	4209
2026-01-12 04:56:22.21	319.25	17.89	-24.4	-25.4	17.6	0.00e+00	0	42	0	1550843904	9	4045
2026-01-12 04:56:25.23	318.55	17.87	-24.1	-24.8	17.9	0.00e+00	0	42	0	1567621120	9	3901
2026-01-12 04:56:28.25	317.85	17.84	-23.9	-24.3	18.2	0.00e+00	0	42	0	1584398336	9	3773
2026-01-12 04:56:31.26	317.15	17.81	-23.6	-24.3	18.4	0.00e+00	0	42	0	1601175552	8	3898
2026-01-12 04:56:34.29	316.45	17.77	-23.9	-24.8	18.2	0.00e+00	0	41	0	1617952768	8	4009
2026-01-12 04:56:37.31	315.75	17.73	-23.7	-24.4	18.4	0.00e+00	0	42	0	1635778560	8	3909
2026-01-12 04:56:40.34	315.05	17.69	-23.8	-24.6	18.3	0.00e+00	0	42	0	1652555776	8	3953
2026-01-12 04:56:43.37	314.36	17.64	-23.9	-24.9	18.1	0.00e+00	0	42	0	1669332992	8	4037
2026-01-12 04:56:46.38	313.67	17.59	-24.1	-25.3	17.9	0.00e+00	0	42	0	1686110208	8	4126
2026-01-12 04:56:49.40	312.98	17.53	-24.1	-25.3	17.9	0.00e+00	0	42	0	1703936000	8	4123
2026-01-12 04:56:52.43	312.29	17.47	-24.1	-25.3	17.9	0.00e+00	0	42	0	1720713216	8	4121
2026-01-12 04:56:55.45	311.61	17.41	-24.1	-25.3	17.9	0.00e+00	0	42	0	1737490432	8	4125
2026-01-12 04:56:58.48	310.93	17.34	-24.2	-25.4	17.8	0.00e+00	0	42	0	1754267648	8	4159
2026-01-12 04:57:01.49	310.25	17.27	-24.2	-25.4	17.8	0.00e+00	0	41	0	1771044864	8	4154
2026-01-12 04:57:04.51	309.58	17.19	-24.2	-25.5	17.8	0.00e+00	0	41	0	1788870656	8	4185
2026-01-12 04:57:07.53	308.91	17.11	-24.4	-25.9	17.6	0.00e+00	0	42	0	1805647872	8	4276
2026-01-12 04:57:10.55	308.24	17.02	-24.3	-25.3	17.6	0.00e+00	0	42	0	1822425088	9	4023
2026-01-12 04:57:13.57	307.58	16.94	-24.3	-25.2	17.6	0.00e+00	0	42	0	1839202304	9	4004
2026-01-12 04:57:16.58	306.92	16.85	-24.3	-25.2	17.7	0.00e+00	0	42	0	1855979520	9	3988
2026-01-12 04:57:19.61	306.26	16.75	-24.2	-25.0	17.8	0.00e+00	0	42	0	1873805312	9	3939
2026-01-12 04:57:22.62	305.62	16.65	-24.1	-24.7	17.9	0.00e+00	0	42	0	1890582528	9	3873
2026-01-12 04:57:25.64	304.97	16.55	-24.5	-25.6	17.4	0.00e+00	0	42	0	1907359744	9	4109
2026-01-12 04:57:28.64	304.33	16.45	-24.6	-25.9	17.3	0.00e+00	0	42	0	1924136960	9	4170
2026-01-12 04:57:31.66	303.69	16.34	-24.8	-26.2	17.0	0.00e+00	0	42	0	1940914176	9	4248
2026-01-12 04:57:34.68	303.06	16.23	-25.1	-26.6	16.6	0.00e+00	0	42	0	1957691392	10	4233
2026-01-12 04:57:37.70	302.43	16.12	-24.4	-24.8	17.5	0.00e+00	0	42	0	1975517184	10	3804
2026-01-12 04:57:40.72	301.81	16.00	-24.4	-25.0	17.5	0.00e+00	0	41	0	1992294400	10	3837
2026-01-12 04:57:43.74	301.19	15.88	-24.9	-26.0	16.9	0.00e+00	0	42	0	2009071616	10	4084
2026-01-12 04:57:46.75	300.58	15.76	-24.7	-25.6	17.1	0.00e+00	0	42	0	2025848832	10	3986
2026-01-12 04:57:49.78	299.97	15.63	-24.8	-25.9	17.0	0.00e+00	0	42	0	2042626048	10	4058
2026-01-12 04:57:52.80	299.37	15.50	-25.0	-26.1	16.8	0.00e+00	0	41	0	2060451840	10	4118
2026-01-12 04:57:55.82	298.77	15.37	-24.8	-25.8	17.0	0.00e+00	0	42	0	2077229056	10	4036
2026-01-12 04:57:58.84	298.18	15.24	-24.6	-25.5	17.2	0.00e+00	0	42	0	2094006272	10	3956
2026-01-12 04:58:01.85	297.59	15.11	-24.8	-25.8	17.0	0.00e+00	0	42	0	2110783488	10	4044
2026-01-12 04:58:04.87	297.01	14.97	-24.8	-25.9	16.9	0.00e+00	0	42	0	2127560704	10	4058
2026-01-12 04:58:07.89	296.44	14.83	-25.0	-26.2	16.7	0.00e+00	0	42	0	2144337920	10	4143
2026-01-12 04:58:10.91	295.86	14.69	-25.0	-26.3	16.7	0.00e+00	0	42	0	2162163712	10	4178
2026-01-12 04:58:13.93	295.30	14.55	-24.9	-26.0	16.8	0.00e+00	0	42	0	2178940928	10	4102
2026-01-12 04:58:16.94	294.74	14.40	-25.1	-26.3	16.7	0.00e+00	0	42	0	2195718144	10	4174
2026-01-12 04:58:19.96	294.19	14.26	-25.0	-26.2	16.7	0.00e+00	0	42	0	2212495360	10	4153
2026-01-12 04:58:22.97	293.64	14.11	-25.1	-26.5	16.5	0.00e+00	0	41	0	2230321152	10	4236
2026-01-12 04:58:25.99	293.10	13.96	-25.2	-26.6	16.5	0.00e+00	0	42	0	2247098368	10	4248
2026-01-12 04:58:29.01	292.56	13.80	-25.1	-26.4	16.6	0.00e+00	0	42	0	2263875584	10	4193
2026-01-12 04:58:32.03	292.03	13.65	-25.3	-26.8	16.3	0.00e+00	0	42	0	2280652800	10	4302
2026-01-12 04:58:35.05	291.50	13.50	-25.2	-26.8	16.4	0.00e+00	0	42	0	2297430016	10	4295
2026-01-12 04:58:38.08	290.98	13.34	-25.7	-27.3	15.7	0.00e+00	0	42	0	2314207232	11	4339
2026-01-12 04:58:41.09	290.46	13.18	-25.3	-26.0	16.1	0.00e+00	0	42	0	2332033024	12	3895
2026-01-12 04:58:44.12	289.95	13.02	-25.3	-26.4	16.2	0.00e+00	0	42	0	2348810240	11	4101
2026-01-12 04:58:47.14	289.45	12.86	-25.3	-26.5	16.2	0.00e+00	0	42	0	2365587456	11	4110
2026-01-12 04:58:50.15	288.95	12.70	-25.1	-26.0	16.4	0.00e+00	0	42	0	2382364672	11	3983
2026-01-12 04:58:53.17	288.46	12.54	-25.1	-26.0	16.4	0.00e+00	0	42	0	2400190464	11	3984
2026-01-12 04:58:56.19	287.97	12.38	-25.4	-26.7	16.0	0.00e+00	0	42	0	2416967680	11	4168
2026-01-12 04:58:59.21	287.49	12.21	-25.4	-26.7	16.0	0.00e+00	0	42	0	2433744896	11	4172
2026-01-12 04:59:02.24	287.01	12.05	-25.2	-26.3	16.2	0.00e+00	0	42	0	2450522112	11	4059
2026-01-12 04:59:05.26	286.54	11.88	-25.5	-27.0	15.8	0.00e+00	0	42	0	2467299328	11	4249
2026-01-12 04:59:08.28	286.07	11.71	-25.6	-27.0	15.8	0.00e+00	0	42	0	2485125120	11	4243
2026-01-12 04:59:11.29	285.61	11.55	-25.6	-27.2	15.7	0.00e+00	0	42	0	2501902336	11	4293
2026-01-12 04:59:14.32	285.15	11.38	-25.9	-27.2	15.3	0.00e+00	0	42	0	2518679552	12	4214
2026-01-12 04:59:17.34	284.70	11.21	-25.7	-26.9	15.5	0.00e+00	0	42	0	2535456768	12	4118
2026-01-12 04:59:20.36	284.26	11.04	-25.8	-27.1	15.4	0.00e+00	0	42	0	2552233984	12	4164
2026-01-12 04:59:23.39	283.82	10.87	-25.9	-27.2	15.3	0.00e+00	0	42	0	2570059776	12	4204
2026-01-12 04:59:26.39	283.38	10.70	-25.9	-27.2	15.3	0.00e+00	0	42	0	2586836992	12	4214
2026-01-12 04:59:29.41	282.96	10.53	-25.7	-26.8	15.5	1.10e-06	0	42	0	2603614208	12	4103
2026-01-12 04:59:32.43	282.53	10.36	-25.9	-27.2	15.2	0.00e+00	0	42	0	2620391424	12	4204
2026-01-12 04:59:35.45	282.11	10.19	-26.0	-27.5	15.0	1.10e-06	0	42	0	2637168640	12	4288
2026-01-12 04:59:38.47	281.70	10.02	-26.4	-28.4	14.6	0.00e+00	0	42	0	2654994432	12	4534
2026-01-12 04:59:41.49	281.29	9.85	-26.4	-28.3	14.6	0.00e+00	0	42	0	2671771648	12	4518
2026-01-12 04:59:44.50	280.88	9.68	-26.7	-28.6	14.1	3.40e-06	0	42	0	2688548864	13	4485
2026-01-12 04:59:47.52	280.48	9.51	-26.2	-27.4	14.8	1.10e-06	0	42	0	2705326080	13	4137
2026-01-12 04:59:50.54	280.09	9.33	-25.9	-26.9	15.1	0.00e+00	0	42	0	2722103296	13	4019
2026-01-12 04:59:53.56	279.70	9.16	-26.1	-27.3	14.8	0.00e+00	0	42	0	2739929088	13	4128
2026-01-12 04:59:56.58	279.31	8.99	-26.1	-27.2	14.9	0.00e+00	0	42	0	2756706304	13	4101
2026-01-12 04:59:59.61	278.93	8.82	-26.3	-27.6	14.6	1.10e-06	0	42	0	2773483520	13	4215
2026-01-12 05:00:02.62	278.55	8.64	-26.2	-27.5	14.7	0.00e+00	0	42	0	2790260736	13	4165
2026-01-12 05:00:05.64	278.18	8.47	-26.4	-27.9	14.4	0.00e+00	0	42	0	2807037952	13	4308
2026-01-12 05:00:08.66	277.81	8.30	-26.5	-28.1	14.3	0.00e+00	0	42	0	2824863744	13	4341
2026-01-12 05:00:11.68	277.45	8.13	-26.5	-28.2	14.2	3.40e-06	0	42	0	2841640960	13	4379
2026-01-12 05:00:14.71	277.09	7.95	-27.0	-29.3	13.6	3.40e-06	0	42	0	2858418176	13	4700
2026-01-12 05:00:17.73	276.74	7.78	-26.7	-28.1	14.0	3.40e-06	0	42	0	2875195392	14	4245
2026-01-12 05:00:20.75	276.39	7.61	-26.7	-28.3	13.9	0.00e+00	0	42	0	2891972608	14	4285
2026-01-12 05:00:23.77	276.04	7.44	-26.8	-28.4	13.8	1.10e-06	0	42	0	2909798400	14	4337
2026-01-12 05:00:26.79	275.70	7.27	-26.7	-28.1	14.0	2.20e-06	0	42	0	2926575616	14	4232
2026-01-12 05:00:29.81	275.36	7.10	-26.7	-28.0	14.0	1.10e-06	0	42	0	2943352832	14	4224
2026-01-12 05:00:32.82	275.03	6.93	-33.2	-44.5	3.8	8.46e-01	0	42	104	2946498560	26	13214

#Closed at: 2026-01-12 05:00:33
#Recorded file [2946 MB]: D:/data/31010_260112_075146.dat