passes_logs/2026/01/12/R2M6_AANII_01/R2M6_AANII_01__20260112_130400_FENGYUN_3D_rec.log

#Pass ID: 20260112_130400_FENGYUN 3D
#Satellite: FENGYUN 3D
#Configuration: FENGYUN 3D
#almurnet v.1.7.20240730
#Start time: 2026-01-12 13:03:59

#Version: 2.2.20231116
#Station: R2M6_AANII_01
#Location: 30.233357 lon 59.946436 lat
#TLE: 1 43010U 17072A   26011.97305084  .00000235  00000+0  13268-3 0  9993
#TLE: 2 43010  98.9935 343.7425 0002238 114.1623 245.9787 14.19695178422825

#Time	Az	El	Level	Level2	SNR	BER	BlckErr	Temp	State	Recorded	gain1	gain2
2026-01-12 13:03:59.75	182.34	6.96	-27.3	-29.5	5.8	7.68e-01	0	39	0	0	14	4686
2026-01-12 13:04:02.76	182.48	7.18	-29.2	-31.7	10.3	6.17e-03	0	39	0	5242880	19	4833
2026-01-12 13:04:05.78	182.62	7.41	-28.7	-31.0	11.2	2.03e-03	0	39	0	22020096	18	4690
2026-01-12 13:04:08.80	182.76	7.64	-27.5	-29.1	13.0	2.97e-05	0	40	0	38797312	16	4303
2026-01-12 13:04:11.82	182.90	7.87	-26.6	-28.0	14.1	1.10e-06	0	40	0	56623104	14	4213
2026-01-12 13:04:14.84	183.04	8.11	-26.6	-27.9	14.1	1.10e-06	0	40	0	73400320	14	4206
2026-01-12 13:04:17.86	183.19	8.34	-26.3	-27.4	14.5	0.00e+00	0	40	0	90177536	14	4046
2026-01-12 13:04:20.88	183.34	8.58	-26.0	-27.1	14.9	0.00e+00	0	40	0	106954752	13	4073
2026-01-12 13:04:23.90	183.49	8.82	-26.1	-27.2	14.9	0.00e+00	0	40	0	123731968	13	4110
2026-01-12 13:04:26.92	183.65	9.06	-26.4	-27.9	14.5	1.10e-06	0	40	0	141557760	13	4294
2026-01-12 13:04:29.94	183.80	9.30	-26.3	-27.8	14.6	0.00e+00	0	40	0	158334976	13	4267
2026-01-12 13:04:32.95	183.96	9.55	-26.3	-27.8	14.6	0.00e+00	0	40	0	175112192	13	4272
2026-01-12 13:04:35.97	184.12	9.80	-26.3	-27.7	14.6	0.00e+00	0	40	0	191889408	13	4248
2026-01-12 13:04:38.99	184.29	10.05	-26.3	-27.8	14.6	0.00e+00	0	41	0	208666624	13	4257
2026-01-12 13:04:42.01	184.45	10.30	-26.2	-27.6	14.8	0.00e+00	0	41	0	226492416	13	4208
2026-01-12 13:04:45.04	184.62	10.56	-26.3	-27.7	14.7	0.00e+00	0	41	0	243269632	13	4248
2026-01-12 13:04:48.06	184.80	10.82	-25.9	-26.9	15.2	0.00e+00	0	41	0	260046848	13	4030
2026-01-12 13:04:51.08	184.97	11.08	-25.8	-27.2	15.3	0.00e+00	0	41	0	276824064	12	4211
2026-01-12 13:04:54.10	185.15	11.34	-25.8	-27.0	15.4	0.00e+00	0	41	0	293601280	12	4168
2026-01-12 13:04:57.12	185.33	11.61	-25.7	-27.0	15.4	0.00e+00	0	41	0	311427072	12	4156
2026-01-12 13:05:00.14	185.51	11.88	-25.5	-26.5	15.7	0.00e+00	0	41	0	328204288	12	4029
2026-01-12 13:05:03.16	185.70	12.15	-25.7	-27.0	15.5	0.00e+00	0	41	0	344981504	12	4143
2026-01-12 13:05:06.18	185.89	12.42	-25.5	-26.4	15.8	0.00e+00	0	41	0	361758720	12	3997
2026-01-12 13:05:09.20	186.09	12.70	-25.4	-26.3	15.9	0.00e+00	0	41	0	378535936	12	3975
2026-01-12 13:05:12.22	186.28	12.98	-25.5	-26.5	15.8	0.00e+00	0	41	0	396361728	12	4010
2026-01-12 13:05:15.24	186.49	13.26	-25.7	-26.8	15.6	0.00e+00	0	41	0	413138944	12	4101
2026-01-12 13:05:18.26	186.69	13.55	-25.8	-27.2	15.4	0.00e+00	0	41	0	429916160	12	4201
2026-01-12 13:05:21.28	186.90	13.83	-25.5	-26.4	15.9	0.00e+00	0	41	0	446693376	12	4006
2026-01-12 13:05:24.31	187.11	14.13	-25.3	-26.1	16.1	0.00e+00	0	41	0	464519168	12	3915
2026-01-12 13:05:27.33	187.33	14.42	-25.1	-26.0	16.4	0.00e+00	0	41	0	481296384	11	4007
2026-01-12 13:05:30.34	187.55	14.72	-25.1	-25.9	16.4	0.00e+00	0	41	0	498073600	11	3989
2026-01-12 13:05:33.35	187.78	15.02	-25.0	-25.9	16.6	0.00e+00	0	42	0	514850816	11	3967
2026-01-12 13:05:36.37	188.01	15.33	-25.0	-25.7	16.7	0.00e+00	0	41	0	531628032	11	3931
2026-01-12 13:05:39.38	188.24	15.63	-24.9	-25.6	16.8	0.00e+00	0	41	0	548405248	11	3893
2026-01-12 13:05:42.39	188.48	15.95	-24.8	-25.8	16.9	0.00e+00	0	41	0	565182464	10	4064
2026-01-12 13:05:45.41	188.72	16.26	-24.8	-25.9	16.8	0.00e+00	0	41	0	583008256	10	4083
2026-01-12 13:05:48.43	188.97	16.58	-24.7	-25.7	17.0	0.00e+00	0	42	0	599785472	10	4020
2026-01-12 13:05:51.45	189.22	16.90	-24.4	-24.9	17.4	0.00e+00	0	41	0	616562688	10	3845
2026-01-12 13:05:54.47	189.48	17.23	-24.1	-25.0	17.6	0.00e+00	0	41	0	633339904	9	3953
2026-01-12 13:05:57.50	189.75	17.56	-23.9	-24.4	17.9	0.00e+00	0	42	0	650117120	9	3821
2026-01-12 13:06:00.50	190.02	17.90	-23.9	-24.4	17.9	0.00e+00	0	41	0	667942912	9	3824
2026-01-12 13:06:03.52	190.29	18.23	-24.0	-24.6	17.8	0.00e+00	0	42	0	684720128	9	3875
2026-01-12 13:06:06.54	190.57	18.58	-24.2	-25.1	17.6	0.00e+00	0	41	0	701497344	9	3983
2026-01-12 13:06:09.57	190.86	18.93	-24.2	-25.0	17.6	0.00e+00	0	42	0	718274560	9	3970
2026-01-12 13:06:12.59	191.16	19.28	-24.0	-24.6	17.9	0.00e+00	0	41	0	735051776	9	3864
2026-01-12 13:06:15.61	191.46	19.63	-24.1	-24.8	17.8	0.00e+00	0	41	0	752877568	9	3927
2026-01-12 13:06:18.62	191.77	19.99	-24.1	-24.9	17.8	0.00e+00	0	41	0	769654784	9	3933
2026-01-12 13:06:21.65	192.08	20.36	-23.7	-24.5	18.2	0.00e+00	0	42	0	786432000	8	3953
2026-01-12 13:06:24.67	192.41	20.73	-23.6	-24.4	18.3	0.00e+00	0	42	0	803209216	8	3919
2026-01-12 13:06:27.68	192.74	21.10	-23.5	-24.0	18.5	2.20e-06	0	42	0	819986432	8	3835
2026-01-12 13:06:30.70	193.07	21.48	-23.6	-24.3	18.4	3.40e-06	0	42	0	837812224	8	3890
2026-01-12 13:06:33.72	193.42	21.86	-23.6	-24.3	18.4	0.00e+00	0	42	0	854589440	8	3896
2026-01-12 13:06:36.74	193.77	22.25	-23.7	-24.5	18.2	0.00e+00	0	42	0	871366656	8	3959
2026-01-12 13:06:39.76	194.14	22.64	-23.2	-24.0	18.7	1.10e-06	0	42	0	888143872	7	3943
2026-01-12 13:06:42.78	194.51	23.04	-23.4	-24.4	18.6	0.00e+00	0	42	0	904921088	7	4031
2026-01-12 13:06:45.81	194.89	23.44	-23.4	-24.4	18.6	0.00e+00	0	42	0	922746880	7	4045
2026-01-12 13:06:48.81	195.28	23.85	-23.2	-23.9	18.8	0.00e+00	0	42	0	939524096	7	3912
2026-01-12 13:06:51.82	195.68	24.26	-23.2	-23.9	18.8	0.00e+00	0	42	0	956301312	7	3914
2026-01-12 13:06:54.85	196.09	24.68	-23.1	-23.8	18.9	0.00e+00	0	42	0	973078528	7	3892
2026-01-12 13:06:57.87	196.52	25.10	-23.1	-23.8	18.9	0.00e+00	0	42	0	989855744	7	3883
2026-01-12 13:07:00.88	196.95	25.53	-23.1	-23.8	18.9	0.00e+00	0	42	0	1007681536	7	3891
2026-01-12 13:07:03.88	197.39	25.96	-23.0	-23.6	19.0	0.00e+00	0	42	0	1024458752	7	3844
2026-01-12 13:07:06.91	197.85	26.40	-22.8	-23.1	19.3	0.00e+00	0	42	0	1041235968	7	3729
2026-01-12 13:07:09.93	198.32	26.84	-22.7	-23.5	19.3	0.00e+00	0	42	0	1058013184	6	3929
2026-01-12 13:07:12.94	198.80	27.29	-22.7	-23.4	19.4	0.00e+00	0	42	0	1074790400	6	3908
2026-01-12 13:07:15.96	199.30	27.74	-22.9	-23.8	19.2	0.00e+00	0	42	0	1092616192	6	3988
2026-01-12 13:07:18.99	199.81	28.21	-22.8	-23.7	19.3	0.00e+00	0	42	0	1109393408	6	3972
2026-01-12 13:07:22.00	200.33	28.67	-23.0	-24.0	19.1	0.00e+00	0	42	0	1126170624	6	4036
2026-01-12 13:07:25.03	200.87	29.14	-22.8	-23.7	19.3	0.00e+00	0	42	0	1142947840	6	3971
2026-01-12 13:07:28.04	201.43	29.62	-22.9	-23.8	19.2	0.00e+00	0	42	0	1159725056	6	3993
2026-01-12 13:07:31.05	202.00	30.10	-23.0	-24.0	19.1	0.00e+00	0	42	0	1176502272	6	4052
2026-01-12 13:07:34.07	202.59	30.58	-22.6	-23.1	19.6	0.00e+00	0	42	0	1194328064	6	3833
2026-01-12 13:07:37.08	203.19	31.07	-22.8	-23.6	19.3	0.00e+00	0	42	0	1211105280	6	3960
2026-01-12 13:07:40.10	203.82	31.57	-22.7	-23.3	19.5	0.00e+00	0	42	0	1227882496	6	3887
2026-01-12 13:07:43.13	204.46	32.07	-22.8	-23.5	19.4	0.00e+00	0	42	0	1244659712	6	3931
2026-01-12 13:07:46.15	205.13	32.57	-22.6	-23.2	19.6	0.00e+00	0	42	0	1261436928	6	3845
2026-01-12 13:07:49.17	205.81	33.08	-22.7	-23.3	19.5	0.00e+00	0	42	0	1279262720	6	3883
2026-01-12 13:07:52.18	206.51	33.59	-22.8	-23.5	19.4	0.00e+00	0	42	0	1296039936	6	3932
2026-01-12 13:07:55.20	207.24	34.11	-22.9	-23.7	19.4	0.00e+00	0	42	0	1312817152	6	3974
2026-01-12 13:07:58.22	207.99	34.63	-22.6	-23.2	19.6	0.00e+00	0	42	0	1329594368	6	3851
2026-01-12 13:08:01.24	208.77	35.16	-22.7	-23.4	19.5	0.00e+00	0	42	0	1346371584	6	3904
2026-01-12 13:08:04.26	209.57	35.68	-22.6	-23.3	19.5	0.00e+00	0	42	0	1364197376	6	3876
2026-01-12 13:08:07.29	210.40	36.21	-22.3	-23.0	19.9	0.00e+00	0	42	0	1380974592	5	3906
2026-01-12 13:08:10.31	211.25	36.74	-22.2	-22.9	20.0	0.00e+00	0	42	0	1397751808	5	3880
2026-01-12 13:08:13.33	212.13	37.28	-22.2	-22.9	20.0	0.00e+00	0	42	0	1414529024	5	3887
2026-01-12 13:08:16.35	213.04	37.81	-22.1	-22.5	20.4	0.00e+00	0	42	0	1431306240	5	3776
2026-01-12 13:08:19.37	213.98	38.34	-22.1	-22.5	20.4	0.00e+00	0	42	0	1449132032	5	3776
2026-01-12 13:08:22.39	214.95	38.88	-22.3	-22.9	20.2	0.00e+00	0	42	0	1465909248	5	3886
2026-01-12 13:08:25.41	215.95	39.41	-22.0	-22.4	20.5	0.00e+00	0	42	0	1482686464	5	3765
2026-01-12 13:08:28.42	216.98	39.94	-22.3	-23.0	20.2	0.00e+00	0	42	0	1499463680	5	3889
2026-01-12 13:08:31.44	218.04	40.46	-22.7	-23.8	19.8	0.00e+00	0	42	0	1516240896	5	4097
2026-01-12 13:08:34.46	219.15	40.99	-22.1	-22.6	20.4	0.00e+00	0	42	0	1534066688	5	3809
2026-01-12 13:08:37.48	220.28	41.51	-22.7	-23.7	19.8	0.00e+00	0	42	0	1550843904	5	4074
2026-01-12 13:08:40.50	221.46	42.02	-22.3	-23.1	20.2	0.00e+00	0	42	0	1567621120	5	3921
2026-01-12 13:08:43.53	222.68	42.53	-22.3	-23.0	20.2	0.00e+00	0	42	0	1584398336	5	3902
2026-01-12 13:08:46.55	223.93	43.03	-22.6	-23.5	19.9	0.00e+00	0	42	0	1601175552	5	4025
2026-01-12 13:08:49.57	225.21	43.52	-22.4	-23.1	20.2	0.00e+00	0	42	0	1619001344	5	3921
2026-01-12 13:08:52.59	226.54	44.01	-22.4	-23.2	20.1	0.00e+00	0	42	0	1635778560	5	3944
2026-01-12 13:08:55.61	227.91	44.48	-22.5	-23.5	20.0	0.00e+00	0	42	0	1652555776	5	4010
2026-01-12 13:08:58.63	229.32	44.93	-22.7	-23.8	19.9	0.00e+00	0	42	0	1669332992	5	4092
2026-01-12 13:09:01.65	230.76	45.38	-22.6	-23.6	19.9	0.00e+00	0	42	0	1686110208	5	4051
2026-01-12 13:09:04.67	232.25	45.80	-22.8	-24.1	19.7	0.00e+00	0	42	0	1703936000	5	4163
2026-01-12 13:09:07.69	233.78	46.21	-23.0	-23.9	19.6	0.00e+00	0	42	0	1720713216	6	3991
2026-01-12 13:09:10.71	235.34	46.61	-22.5	-22.9	20.1	0.00e+00	0	42	0	1737490432	6	3773
2026-01-12 13:09:13.73	236.95	46.98	-23.2	-24.3	19.4	0.00e+00	0	42	0	1754267648	6	4103
2026-01-12 13:09:16.72	238.57	47.32	-23.1	-24.1	19.5	0.00e+00	0	42	0	1771044864	6	4048
2026-01-12 13:09:19.74	240.25	47.65	-23.4	-24.7	19.2	0.00e+00	0	42	0	1787822080	6	4189
2026-01-12 13:09:22.77	241.96	47.96	-22.5	-22.9	20.1	0.00e+00	0	42	0	1805647872	6	3754
2026-01-12 13:09:25.78	243.70	48.23	-22.5	-22.8	20.1	0.00e+00	0	42	0	1822425088	6	3753
2026-01-12 13:09:28.80	245.47	48.48	-22.7	-23.3	19.9	0.00e+00	0	42	0	1839202304	6	3864
2026-01-12 13:09:31.81	247.27	48.71	-22.9	-23.8	19.7	0.00e+00	0	42	0	1855979520	6	3977
2026-01-12 13:09:34.84	249.09	48.90	-22.7	-23.3	19.9	0.00e+00	0	42	0	1872756736	6	3858
2026-01-12 13:09:37.86	250.94	49.06	-23.2	-24.4	19.4	0.00e+00	0	42	0	1890582528	6	4117
2026-01-12 13:09:40.89	252.81	49.20	-22.5	-22.9	20.1	0.00e+00	0	42	0	1907359744	6	3768
2026-01-12 13:09:43.91	254.68	49.30	-22.9	-23.7	19.8	0.00e+00	0	42	0	1924136960	6	3945
2026-01-12 13:09:46.93	256.57	49.37	-23.0	-24.0	19.6	4.50e-06	0	42	0	1940914176	6	4032
2026-01-12 13:09:49.95	258.46	49.40	-22.6	-23.1	20.0	0.00e+00	0	42	0	1957691392	6	3820
2026-01-12 13:09:52.96	260.35	49.41	-23.4	-24.9	19.2	0.00e+00	0	42	0	1975517184	6	4243
2026-01-12 13:09:55.99	262.25	49.38	-23.1	-24.2	19.5	0.00e+00	0	42	0	1992294400	6	4065
2026-01-12 13:09:59.01	264.13	49.31	-22.9	-23.8	19.7	1.10e-06	0	42	0	2009071616	6	3967
2026-01-12 13:10:02.03	266.01	49.22	-23.0	-23.9	19.7	1.10e-06	0	42	0	2025848832	6	4000
2026-01-12 13:10:05.04	267.87	49.09	-22.9	-23.6	19.8	3.40e-06	0	42	0	2042626048	6	3935
2026-01-12 13:10:08.05	269.71	48.94	-23.1	-24.1	19.5	2.20e-06	0	42	0	2060451840	6	4042
2026-01-12 13:10:11.08	271.54	48.75	-22.9	-23.7	19.7	0.00e+00	0	42	0	2077229056	6	3960
2026-01-12 13:10:14.10	273.34	48.53	-22.6	-23.1	20.1	0.00e+00	0	42	0	2094006272	6	3804
2026-01-12 13:10:17.12	275.12	48.29	-22.5	-22.8	20.2	0.00e+00	0	42	0	2110783488	6	3736
2026-01-12 13:10:20.14	276.86	48.01	-22.6	-23.2	20.0	0.00e+00	0	42	0	2127560704	6	3827
2026-01-12 13:10:23.15	278.57	47.72	-22.9	-23.7	19.8	0.00e+00	0	42	0	2145386496	6	3956
2026-01-12 13:10:26.18	280.26	47.39	-22.6	-23.2	20.0	0.00e+00	0	42	0	2162163712	6	3829
2026-01-12 13:10:29.20	281.90	47.05	-22.7	-23.4	19.9	0.00e+00	0	42	0	2178940928	6	3880
2026-01-12 13:10:32.22	283.51	46.68	-22.5	-22.8	20.2	0.00e+00	0	42	0	2195718144	6	3746
2026-01-12 13:10:35.22	285.07	46.30	-22.7	-23.2	20.0	0.00e+00	0	42	0	2212495360	6	3842
2026-01-12 13:10:38.25	286.61	45.89	-22.7	-23.4	19.9	0.00e+00	0	42	0	2230321152	6	3887
2026-01-12 13:10:41.26	288.09	45.47	-22.9	-23.7	19.7	0.00e+00	0	42	0	2247098368	6	3956
2026-01-12 13:10:44.29	289.55	45.03	-23.0	-23.9	19.7	0.00e+00	0	42	0	2263875584	6	3986
2026-01-12 13:10:47.31	290.96	44.58	-22.7	-23.2	20.0	0.00e+00	0	42	0	2280652800	6	3830
2026-01-12 13:10:50.32	292.33	44.11	-23.1	-24.2	19.5	0.00e+00	0	42	0	2297430016	6	4073
2026-01-12 13:10:53.34	293.66	43.63	-22.7	-23.2	20.0	0.00e+00	0	42	0	2315255808	6	3843
2026-01-12 13:10:56.36	294.96	43.15	-22.7	-23.2	20.0	0.00e+00	0	42	0	2332033024	6	3845
2026-01-12 13:10:59.38	296.21	42.65	-22.8	-23.4	19.8	0.00e+00	0	42	0	2348810240	6	3888
2026-01-12 13:11:02.40	297.43	42.15	-22.5	-22.8	20.2	0.00e+00	0	42	0	2365587456	6	3751
2026-01-12 13:11:05.42	298.61	41.63	-22.8	-23.5	19.8	0.00e+00	0	42	0	2382364672	6	3923
2026-01-12 13:11:08.43	299.75	41.12	-22.6	-23.0	20.0	0.00e+00	0	42	0	2400190464	6	3790
2026-01-12 13:11:11.45	300.85	40.60	-22.5	-22.9	20.1	0.00e+00	0	42	0	2416967680	6	3762
2026-01-12 13:11:14.47	301.93	40.07	-22.5	-23.0	20.1	0.00e+00	0	42	0	2433744896	6	3788
2026-01-12 13:11:17.49	302.96	39.55	-22.2	-22.8	20.3	0.00e+00	0	42	0	2450522112	5	3860
2026-01-12 13:11:20.51	303.97	39.02	-22.3	-23.1	20.2	0.00e+00	0	42	0	2467299328	5	3913
2026-01-12 13:11:23.53	304.94	38.49	-22.2	-22.7	20.4	0.00e+00	0	42	0	2485125120	5	3840
2026-01-12 13:11:26.55	305.89	37.96	-22.1	-22.6	20.4	0.00e+00	0	42	0	2501902336	5	3811
2026-01-12 13:11:29.57	306.80	37.43	-22.3	-22.9	20.3	0.00e+00	0	42	0	2518679552	5	3886
2026-01-12 13:11:32.60	307.69	36.89	-22.4	-23.3	20.1	0.00e+00	0	42	0	2535456768	5	3970
2026-01-12 13:11:35.62	308.54	36.37	-22.4	-23.3	20.1	0.00e+00	0	42	0	2552233984	5	3962
2026-01-12 13:11:38.63	309.37	35.84	-22.3	-23.0	20.2	0.00e+00	0	42	0	2570059776	5	3896
2026-01-12 13:11:41.65	310.17	35.32	-22.6	-23.6	19.9	0.00e+00	0	42	0	2586836992	5	4046
2026-01-12 13:11:44.67	310.95	34.79	-22.5	-23.4	20.0	0.00e+00	0	42	0	2603614208	5	4000
2026-01-12 13:11:47.69	311.71	34.28	-22.5	-23.5	20.0	0.00e+00	0	42	0	2620391424	5	4014
2026-01-12 13:11:50.71	312.44	33.76	-22.5	-23.4	20.0	0.00e+00	0	42	0	2637168640	5	3984
2026-01-12 13:11:53.73	313.15	33.25	-22.5	-23.4	20.0	0.00e+00	0	42	0	2654994432	5	3989
2026-01-12 13:11:56.76	313.84	32.74	-22.7	-23.8	19.8	0.00e+00	0	42	0	2671771648	5	4089
2026-01-12 13:11:59.78	314.50	32.24	-22.8	-24.0	19.7	0.00e+00	0	42	0	2688548864	5	4132
2026-01-12 13:12:02.79	315.15	31.74	-23.0	-24.4	19.5	0.00e+00	0	42	0	2705326080	5	4245
2026-01-12 13:12:05.80	315.78	31.25	-22.7	-23.3	19.8	0.00e+00	0	42	0	2722103296	6	3864
2026-01-12 13:12:08.83	316.39	30.76	-22.7	-23.3	19.8	0.00e+00	0	42	0	2739929088	6	3870
2026-01-12 13:12:11.84	316.98	30.27	-22.6	-23.1	19.9	0.00e+00	0	42	0	2756706304	6	3805
2026-01-12 13:12:14.85	317.55	29.80	-22.6	-23.1	19.8	0.00e+00	0	42	0	2773483520	6	3824
2026-01-12 13:12:17.87	318.11	29.32	-22.8	-23.5	19.6	0.00e+00	0	42	0	2790260736	6	3917
2026-01-12 13:12:20.88	318.65	28.86	-23.0	-24.0	19.4	0.00e+00	0	42	0	2807037952	6	4042
2026-01-12 13:12:23.90	319.18	28.39	-23.0	-23.9	19.4	0.00e+00	0	42	0	2823815168	6	4007
2026-01-12 13:12:26.91	319.69	27.93	-22.9	-23.6	19.5	0.00e+00	0	42	0	2841640960	6	3940
2026-01-12 13:12:29.93	320.19	27.48	-22.8	-23.4	19.6	0.00e+00	0	42	0	2858418176	6	3887
2026-01-12 13:12:32.95	320.68	27.03	-22.7	-23.3	19.7	0.00e+00	0	42	0	2875195392	6	3856
2026-01-12 13:12:35.97	321.15	26.59	-22.8	-23.5	19.6	0.00e+00	0	42	0	2891972608	6	3905
2026-01-12 13:12:38.99	321.61	26.15	-22.9	-23.8	19.5	0.00e+00	0	42	0	2908749824	6	3981
2026-01-12 13:12:42.01	322.06	25.72	-23.0	-24.0	19.3	0.00e+00	0	42	0	2926575616	6	4032
2026-01-12 13:12:45.02	322.49	25.29	-23.0	-23.9	19.3	0.00e+00	0	42	0	2943352832	6	4003
2026-01-12 13:12:48.03	322.92	24.87	-22.8	-23.6	19.5	0.00e+00	0	42	0	2960130048	6	3926
2026-01-12 13:12:51.05	323.33	24.46	-23.1	-24.2	19.2	0.00e+00	0	42	0	2976907264	6	4067
2026-01-12 13:12:54.08	323.74	24.04	-23.3	-24.5	19.0	0.00e+00	0	42	0	2993684480	6	4150
2026-01-12 13:12:57.10	324.13	23.64	-23.7	-24.9	18.6	0.00e+00	0	42	0	3011510272	7	4131
2026-01-12 13:13:00.12	324.51	23.23	-24.0	-25.1	18.2	0.00e+00	0	42	0	3028287488	8	4089
2026-01-12 13:13:03.13	324.89	22.84	-24.4	-26.0	17.8	0.00e+00	0	42	0	3045064704	8	4310
2026-01-12 13:13:06.15	325.25	22.45	-25.1	-26.5	17.0	0.00e+00	0	42	0	3061841920	10	4201
2026-01-12 13:13:09.17	325.61	22.06	-24.1	-24.8	18.1	0.00e+00	0	42	0	3078619136	9	3903
2026-01-12 13:13:12.20	325.96	21.68	-23.9	-24.3	18.4	0.00e+00	0	42	0	3095396352	9	3779
2026-01-12 13:13:15.21	326.30	21.30	-23.8	-24.6	18.4	0.00e+00	0	42	0	3113222144	8	3959
2026-01-12 13:13:18.23	326.63	20.93	-23.9	-24.8	18.3	0.00e+00	0	42	0	3129999360	8	4003
2026-01-12 13:13:21.25	326.96	20.56	-23.9	-24.9	18.3	0.00e+00	0	42	0	3146776576	8	4016
2026-01-12 13:13:24.27	327.28	20.20	-23.9	-24.9	18.2	0.00e+00	0	42	0	3163553792	8	4032
2026-01-12 13:13:27.29	327.59	19.84	-24.1	-25.2	18.1	0.00e+00	0	42	0	3180331008	8	4098
2026-01-12 13:13:30.32	327.89	19.48	-24.3	-25.7	17.8	0.00e+00	0	42	0	3198156800	8	4219
2026-01-12 13:13:33.34	328.19	19.13	-24.4	-25.9	17.7	0.00e+00	0	42	0	3214934016	8	4282
2026-01-12 13:13:36.36	328.48	18.78	-24.6	-25.8	17.5	0.00e+00	0	42	0	3231711232	9	4148
2026-01-12 13:13:39.37	328.76	18.44	-24.8	-26.2	17.2	0.00e+00	0	42	0	3248488448	9	4258
2026-01-12 13:13:42.40	329.04	18.10	-24.8	-26.2	17.2	0.00e+00	0	42	0	3265265664	9	4251
2026-01-12 13:13:45.41	329.32	17.77	-24.9	-26.4	17.1	0.00e+00	0	42	0	3283091456	9	4297
2026-01-12 13:13:48.44	329.58	17.44	-24.8	-25.8	17.2	0.00e+00	0	42	0	3299868672	10	4042
2026-01-12 13:13:51.46	329.85	17.11	-24.9	-25.9	17.2	0.00e+00	0	42	0	3316645888	10	4056
2026-01-12 13:13:54.48	330.10	16.79	-24.9	-25.9	17.1	0.00e+00	0	42	0	3333423104	10	4059
2026-01-12 13:13:57.50	330.35	16.47	-25.0	-26.3	16.9	0.00e+00	0	42	0	3350200320	10	4151
2026-01-12 13:14:00.52	330.60	16.16	-25.1	-26.5	16.7	0.00e+00	0	42	0	3368026112	10	4213
2026-01-12 13:14:03.54	330.84	15.85	-25.2	-26.7	16.6	0.00e+00	0	42	0	3384803328	10	4263
2026-01-12 13:14:06.56	331.08	15.54	-25.1	-26.5	16.7	0.00e+00	0	42	0	3401580544	10	4230
2026-01-12 13:14:09.58	331.31	15.23	-25.3	-26.9	16.5	0.00e+00	0	42	0	3418357760	10	4319
2026-01-12 13:14:12.60	331.54	14.93	-25.4	-27.0	16.4	0.00e+00	0	42	0	3435134976	10	4358
2026-01-12 13:14:15.61	331.76	14.64	-25.4	-27.1	16.4	0.00e+00	0	42	0	3452960768	10	4386
2026-01-12 13:14:18.63	331.98	14.34	-25.5	-26.8	16.2	0.00e+00	0	42	0	3469737984	11	4187
2026-01-12 13:14:21.65	332.20	14.05	-25.6	-27.0	16.1	0.00e+00	0	42	0	3486515200	11	4226
2026-01-12 13:14:24.67	332.41	13.76	-25.6	-27.0	16.1	0.00e+00	0	42	0	3503292416	11	4229
2026-01-12 13:14:27.69	332.62	13.48	-25.6	-27.1	16.0	0.00e+00	0	42	0	3520069632	11	4261
2026-01-12 13:14:30.70	332.82	13.19	-25.6	-27.1	16.0	0.00e+00	0	42	0	3536846848	11	4263
2026-01-12 13:14:33.72	333.02	12.92	-25.7	-27.2	15.9	0.00e+00	0	42	0	3554672640	11	4279
2026-01-12 13:14:36.74	333.22	12.64	-25.7	-27.2	15.9	0.00e+00	0	42	0	3571449856	11	4300
2026-01-12 13:14:39.76	333.41	12.37	-25.8	-27.6	15.7	0.00e+00	0	42	0	3588227072	11	4391
2026-01-12 13:14:42.77	333.60	12.10	-25.8	-27.1	15.6	0.00e+00	0	42	0	3605004288	12	4151
2026-01-12 13:14:45.79	333.79	11.83	-26.0	-27.4	15.4	0.00e+00	0	42	0	3621781504	12	4237
2026-01-12 13:14:48.82	333.97	11.56	-26.1	-27.6	15.3	0.00e+00	0	42	0	3639607296	12	4301
2026-01-12 13:14:51.84	334.16	11.30	-26.3	-28.1	15.0	0.00e+00	0	42	0	3656384512	12	4444
2026-01-12 13:14:54.86	334.33	11.04	-26.2	-27.9	15.1	4.50e-06	0	42	0	3673161728	12	4393
2026-01-12 13:14:57.88	334.51	10.78	-26.3	-28.2	14.9	0.00e+00	0	42	0	3689938944	12	4462
2026-01-12 13:15:00.89	334.68	10.53	-26.2	-27.9	15.1	0.00e+00	0	42	0	3706716160	12	4390
2026-01-12 13:15:03.91	334.85	10.27	-26.2	-28.0	15.0	1.10e-06	0	42	0	3724541952	12	4411
2026-01-12 13:15:06.92	335.02	10.02	-26.2	-27.8	15.1	1.10e-06	0	42	0	3741319168	12	4365
2026-01-12 13:15:09.94	335.18	9.78	-26.2	-27.9	15.0	0.00e+00	0	42	0	3758096384	12	4396
2026-01-12 13:15:12.96	335.34	9.53	-26.2	-27.9	15.0	0.00e+00	0	42	0	3774873600	12	4376
2026-01-12 13:15:15.98	335.50	9.29	-26.1	-27.8	15.1	0.00e+00	0	42	0	3791650816	12	4348
2026-01-12 13:15:19.00	335.66	9.05	-26.3	-28.2	14.8	0.00e+00	0	42	0	3809476608	12	4488
2026-01-12 13:15:22.02	335.81	8.81	-26.6	-28.3	14.4	0.00e+00	0	42	0	3826253824	13	4383
2026-01-12 13:15:25.04	335.97	8.57	-26.6	-28.3	14.4	0.00e+00	0	42	0	3843031040	13	4391
2026-01-12 13:15:28.06	336.12	8.33	-26.5	-28.1	14.5	0.00e+00	0	42	0	3859808256	13	4333
2026-01-12 13:15:31.08	336.27	8.10	-26.5	-28.0	14.5	0.00e+00	0	42	0	3876585472	13	4323
2026-01-12 13:15:34.09	336.41	7.87	-26.7	-28.7	14.1	2.20e-06	0	42	0	3894411264	13	4511
2026-01-12 13:15:37.12	336.56	7.64	-26.4	-28.0	14.5	1.10e-06	0	42	0	3911188480	13	4310
2026-01-12 13:15:40.14	336.70	7.42	-26.6	-28.4	14.2	1.10e-06	0	42	0	3927965696	13	4427
2026-01-12 13:15:43.16	336.84	7.19	-26.5	-28.3	14.3	0.00e+00	0	42	0	3944742912	13	4382
2026-01-12 13:15:46.18	336.97	6.97	-33.2	-44.4	3.8	8.44e-01	0	42	104	3952082944	26	13067

#Closed at: 2026-01-12 13:15:46
#Recorded file [3952 MB]: D:/data/31010_260112_160401.dat