passes_logs/2026/01/12/R2M6_AANII_01/R2M6_AANII_01__20260112_090504_NOAA_20_JPSS-1_rec.log

#Pass ID: 20260112_090504_NOAA 20 (JPSS-1)
#Satellite: NOAA 20 (JPSS-1)
#Configuration: NOAA 20
#almurnet v.1.7.20240730
#Start time: 2026-01-12 09:05:05

#Version: 2.2.20231116
#Station: R2M6_AANII_01
#Location: 30.233357 lon 59.946436 lat
#TLE: 1 43013U 17073A   26011.31235446  .00000090  00000+0  63634-4 0  9991
#TLE: 2 43013  98.7632 312.2907 0001646  44.6084 315.5224 14.19535308422217

#Time	Az	El	Level	Level2	SNR	BER	BlckErr	Temp	State	Recorded	gain1	gain2
2026-01-12 09:05:05.77	121.98	7.07	-31.4	-37.5	4.9	1.29e+00	0	39	0	0	24	7209
2026-01-12 09:05:08.79	121.80	7.29	-31.5	-37.5	7.3	1.08e-01	0	40	0	1048576	24	7183
2026-01-12 09:05:11.80	121.61	7.51	-31.4	-37.2	7.6	8.02e-02	0	39	0	7340032	24	6957
2026-01-12 09:05:14.81	121.42	7.73	-31.6	-37.9	7.1	1.42e-01	0	40	0	12582912	24	7409
2026-01-12 09:05:17.83	121.23	7.95	-31.6	-37.8	7.2	1.67e-01	0	40	0	18874368	24	7385
2026-01-12 09:05:20.85	121.03	8.18	-30.9	-35.2	9.7	1.81e-02	0	40	0	24117248	23	5906
2026-01-12 09:05:23.87	120.83	8.41	-30.5	-34.1	11.0	2.50e-03	0	40	0	29360128	22	5474
2026-01-12 09:05:26.88	120.63	8.63	-30.6	-34.5	10.7	2.26e-03	0	40	0	35651584	22	5640
2026-01-12 09:05:29.90	120.42	8.86	-30.5	-34.2	11.0	1.80e-03	0	40	0	40894464	22	5485
2026-01-12 09:05:32.92	120.21	9.10	-30.6	-34.3	10.9	1.91e-03	0	40	0	47185920	22	5550
2026-01-12 09:05:35.94	120.00	9.33	-30.5	-34.0	11.2	1.30e-03	0	40	0	52428800	22	5403
2026-01-12 09:05:38.96	119.79	9.57	-30.5	-34.1	11.0	2.23e-03	0	40	0	57671680	22	5449
2026-01-12 09:05:41.96	119.57	9.80	-30.8	-35.0	10.4	4.50e-03	0	40	0	63963136	22	5874
2026-01-12 09:05:44.98	119.34	10.04	-30.9	-35.6	10.0	5.49e-03	0	40	0	69206016	22	6159
2026-01-12 09:05:48.00	119.12	10.28	-30.6	-34.5	10.9	4.56e-03	0	41	0	74448896	22	5600
2026-01-12 09:05:51.01	118.89	10.52	-30.4	-33.6	11.6	6.83e-04	0	41	0	80740352	22	5218
2026-01-12 09:05:54.04	118.65	10.77	-30.6	-34.2	11.2	9.96e-04	0	41	0	85983232	22	5474
2026-01-12 09:05:57.04	118.41	11.02	-30.2	-33.4	12.0	4.69e-04	0	41	0	92274688	21	5248
2026-01-12 09:06:00.05	118.17	11.26	-30.1	-33.2	12.2	2.23e-04	0	41	0	97517568	21	5155
2026-01-12 09:06:03.06	117.92	11.51	-30.3	-33.9	11.8	5.26e-04	0	41	0	102760448	21	5442
2026-01-12 09:06:06.09	117.67	11.77	-30.1	-33.2	12.3	2.04e-04	0	41	0	109051904	21	5148
2026-01-12 09:06:09.10	117.41	12.02	-29.9	-32.7	12.7	9.99e-05	0	41	0	114294784	21	4937
2026-01-12 09:06:12.11	117.15	12.28	-30.1	-33.1	12.5	1.14e-04	0	41	0	120586240	21	5089
2026-01-12 09:06:15.12	116.88	12.54	-30.0	-32.8	12.7	6.25e-05	0	41	0	125829120	21	4961
2026-01-12 09:06:18.13	116.61	12.80	-29.9	-32.6	12.9	7.01e-05	0	41	0	131072000	21	4897
2026-01-12 09:06:21.15	116.34	13.06	-30.1	-33.0	12.6	8.54e-05	0	41	0	137363456	21	5072
2026-01-12 09:06:24.16	116.06	13.33	-29.9	-32.4	12.9	4.27e-05	0	41	0	142606336	21	4831
2026-01-12 09:06:27.17	115.77	13.59	-30.0	-32.8	12.7	8.85e-05	0	41	0	148897792	21	4980
2026-01-12 09:06:30.18	115.48	13.86	-30.1	-33.1	12.6	1.15e-04	0	41	0	154140672	21	5073
2026-01-12 09:06:33.19	115.18	14.14	-30.1	-32.9	12.7	7.09e-05	0	41	0	159383552	21	5011
2026-01-12 09:06:36.20	114.88	14.41	-30.0	-32.6	13.0	4.73e-05	0	41	0	165675008	21	4899
2026-01-12 09:06:39.20	114.57	14.68	-29.9	-32.6	13.0	4.42e-05	0	41	0	170917888	21	4873
2026-01-12 09:06:42.21	114.26	14.96	-29.7	-32.5	13.5	1.52e-05	0	41	0	176160768	20	4938
2026-01-12 09:06:45.22	113.94	15.24	-29.8	-32.7	13.3	1.22e-05	0	41	0	182452224	20	5000
2026-01-12 09:06:48.24	113.61	15.53	-29.8	-32.6	13.4	1.75e-05	0	41	0	187695104	20	4983
2026-01-12 09:06:51.25	113.28	15.81	-29.8	-32.7	13.3	2.13e-05	0	41	0	193986560	20	5001
2026-01-12 09:06:54.26	112.94	16.10	-30.0	-33.1	13.1	3.73e-05	0	41	0	199229440	20	5156
2026-01-12 09:06:57.28	112.59	16.39	-30.0	-33.1	13.1	2.13e-05	0	41	0	204472320	20	5153
2026-01-12 09:07:00.30	112.24	16.69	-30.1	-33.5	12.8	7.09e-05	0	41	0	210763776	20	5323
2026-01-12 09:07:03.31	111.88	16.98	-30.1	-33.3	13.0	3.43e-05	0	41	0	216006656	20	5222
2026-01-12 09:07:06.32	111.51	17.28	-30.0	-33.2	13.1	3.73e-05	0	41	0	222298112	20	5192
2026-01-12 09:07:09.34	111.14	17.58	-30.0	-33.2	13.1	2.59e-05	0	41	0	227540992	20	5172
2026-01-12 09:07:12.35	110.75	17.88	-30.1	-33.5	12.9	3.89e-05	0	41	0	232783872	20	5300
2026-01-12 09:07:15.37	110.36	18.19	-30.2	-33.6	12.8	5.72e-05	0	41	0	239075328	20	5357
2026-01-12 09:07:18.39	109.96	18.50	-30.3	-34.1	12.6	1.07e-04	0	41	0	244318208	20	5533
2026-01-12 09:07:21.40	109.56	18.81	-30.4	-34.1	12.6	9.46e-05	0	41	0	249561088	20	5548
2026-01-12 09:07:24.42	109.14	19.12	-30.5	-34.0	12.3	1.81e-04	0	41	0	255852544	21	5387
2026-01-12 09:07:27.44	108.71	19.43	-30.4	-33.6	12.6	8.01e-05	0	41	0	261095424	21	5212
2026-01-12 09:07:30.46	108.28	19.75	-30.2	-33.1	12.9	3.28e-05	0	41	0	267386880	21	5047
2026-01-12 09:07:33.47	107.84	20.07	-30.4	-33.7	12.6	8.77e-05	0	41	0	272629760	21	5282
2026-01-12 09:07:36.49	107.38	20.39	-30.0	-32.5	13.4	1.67e-05	0	41	0	277872640	21	4809
2026-01-12 09:07:39.50	106.92	20.71	-29.9	-32.4	13.5	8.30e-06	0	42	0	284164096	21	4757
2026-01-12 09:07:42.50	106.45	21.04	-30.0	-32.4	13.6	1.60e-05	0	41	0	289406976	21	4748
2026-01-12 09:07:45.51	105.97	21.37	-29.9	-32.3	13.6	1.14e-05	0	42	0	295698432	21	4729
2026-01-12 09:07:48.54	105.48	21.70	-29.7	-32.2	14.0	5.30e-06	0	41	0	300941312	20	4805
2026-01-12 09:07:51.55	104.97	22.03	-29.8	-32.4	13.8	6.80e-06	0	41	0	306184192	20	4875
2026-01-12 09:07:54.56	104.46	22.36	-29.8	-32.4	13.8	1.29e-05	0	41	0	312475648	20	4881
2026-01-12 09:07:57.58	103.93	22.70	-29.9	-32.7	13.7	9.10e-06	0	41	0	317718528	20	4965
2026-01-12 09:08:00.60	103.39	23.04	-29.9	-32.8	13.6	1.37e-05	0	41	0	324009984	20	5021
2026-01-12 09:08:03.62	102.84	23.38	-30.2	-33.5	13.2	1.83e-05	0	42	0	329252864	20	5262
2026-01-12 09:08:06.64	102.28	23.72	-30.3	-33.9	12.9	4.73e-05	0	42	0	334495744	20	5420
2026-01-12 09:08:09.66	101.70	24.06	-30.7	-34.6	12.1	1.79e-04	0	42	0	340787200	21	5593
2026-01-12 09:08:12.67	101.12	24.40	-30.8	-34.9	11.9	3.22e-04	0	41	0	346030080	21	5724
2026-01-12 09:08:15.68	100.52	24.75	-30.7	-34.5	12.2	2.21e-04	0	41	0	352321536	21	5544
2026-01-12 09:08:18.69	99.91	25.09	-30.7	-34.3	12.3	1.98e-04	0	41	0	357564416	21	5486
2026-01-12 09:08:21.71	99.28	25.44	-30.6	-34.0	12.6	1.27e-04	0	41	0	362807296	21	5366
2026-01-12 09:08:24.72	98.64	25.79	-30.5	-33.8	12.7	8.46e-05	0	42	0	369098752	21	5286
2026-01-12 09:08:27.73	97.98	26.13	-30.8	-34.8	12.1	2.33e-04	0	42	0	374341632	21	5684
2026-01-12 09:08:30.75	97.31	26.48	-30.5	-33.9	12.7	8.54e-05	0	42	0	380633088	21	5329
2026-01-12 09:08:33.76	96.63	26.83	-30.5	-33.8	12.8	6.10e-05	0	42	0	385875968	21	5250
2026-01-12 09:08:36.79	95.92	27.18	-30.5	-33.7	12.8	4.95e-05	0	42	0	391118848	21	5217
2026-01-12 09:08:39.80	95.21	27.52	-30.6	-34.0	12.7	7.85e-05	0	42	0	397410304	21	5337
2026-01-12 09:08:42.81	94.48	27.87	-30.6	-34.1	12.6	9.76e-05	0	42	0	402653184	21	5380
2026-01-12 09:08:45.83	93.73	28.21	-30.6	-34.2	12.6	1.70e-04	0	42	0	408944640	21	5399
2026-01-12 09:08:48.84	92.97	28.56	-30.8	-34.6	12.3	1.37e-04	0	42	0	414187520	21	5567
2026-01-12 09:08:51.87	92.18	28.90	-30.7	-34.2	12.6	6.48e-05	0	42	0	419430400	21	5412
2026-01-12 09:08:54.88	91.39	29.24	-31.0	-34.7	11.9	3.87e-04	0	41	0	425721856	22	5503
2026-01-12 09:08:57.88	90.58	29.58	-31.0	-34.7	12.0	2.58e-04	0	42	0	430964736	22	5504
2026-01-12 09:09:00.90	89.74	29.91	-31.4	-36.0	11.0	1.40e-03	0	42	0	436207616	22	6091
2026-01-12 09:09:03.90	88.90	30.25	-31.7	-36.5	10.3	5.60e-03	0	42	0	442499072	23	6264
2026-01-12 09:09:06.92	88.03	30.57	-32.0	-37.4	9.7	1.14e-02	0	42	0	447741952	23	6704
2026-01-12 09:09:09.92	87.15	30.90	-32.1	-37.4	9.2	1.91e-02	0	42	0	454033408	24	6639
2026-01-12 09:09:12.94	86.24	31.22	-32.3	-38.0	8.7	2.30e-02	0	42	0	459276288	24	6978
2026-01-12 09:09:15.95	85.32	31.54	-32.2	-37.9	8.9	2.57e-02	0	42	0	464519168	24	6903
2026-01-12 09:09:18.96	84.39	31.85	-32.5	-38.9	8.1	5.44e-02	0	42	0	470810624	24	7565
2026-01-12 09:09:21.97	83.43	32.15	-32.6	-39.1	7.6	7.74e-02	0	42	0	476053504	25	7570
2026-01-12 09:09:24.98	82.46	32.45	-32.4	-37.9	8.5	5.08e-02	0	42	0	482344960	25	6811
2026-01-12 09:09:27.99	81.47	32.74	-32.2	-37.1	9.1	2.12e-02	0	42	0	487587840	25	6356
2026-01-12 09:09:31.00	80.46	33.03	-31.9	-36.1	9.8	1.30e-02	0	42	0	492830720	25	5858
2026-01-12 09:09:34.01	79.43	33.30	-31.8	-35.9	10.1	7.30e-03	0	42	0	499122176	25	5713
2026-01-12 09:09:37.03	78.38	33.57	-31.7	-35.9	10.5	4.15e-03	0	42	0	504365056	24	5829
2026-01-12 09:09:40.04	77.32	33.83	-31.4	-34.8	11.2	1.78e-03	0	42	0	509607936	24	5349
2026-01-12 09:09:43.05	76.24	34.08	-31.1	-34.4	11.9	8.96e-04	0	42	0	515899392	23	5254
2026-01-12 09:09:46.06	75.15	34.32	-30.9	-33.7	12.5	1.44e-04	0	42	0	521142272	23	4990
2026-01-12 09:09:49.08	74.04	34.56	-31.0	-34.5	12.3	1.65e-04	0	42	0	527433728	22	5407
2026-01-12 09:09:52.10	72.91	34.78	-30.6	-33.4	12.9	2.59e-05	0	42	0	532676608	22	4981
2026-01-12 09:09:55.11	71.77	34.99	-30.8	-34.0	12.5	1.26e-04	0	42	0	537919488	22	5215
2026-01-12 09:09:58.12	70.61	35.18	-30.6	-33.5	12.9	5.18e-05	0	42	0	544210944	22	5003
2026-01-12 09:10:01.13	69.44	35.37	-30.5	-33.2	13.1	2.51e-05	0	42	0	549453824	22	4881
2026-01-12 09:10:04.14	68.26	35.54	-30.6	-33.4	12.9	3.58e-05	0	42	0	555745280	22	4965
2026-01-12 09:10:07.15	67.07	35.70	-29.7	-31.9	14.6	7.00e-07	0	42	0	560988160	20	4666
2026-01-12 09:10:10.17	65.86	35.84	-29.8	-32.3	14.3	3.00e-06	0	42	0	566231040	20	4805
2026-01-12 09:10:13.18	64.64	35.97	-29.8	-32.2	14.4	7.00e-07	0	42	0	572522496	20	4759
2026-01-12 09:10:16.19	63.42	36.09	-29.7	-31.9	14.6	0.00e+00	0	42	0	577765376	20	4639
2026-01-12 09:10:19.22	62.18	36.19	-29.4	-31.1	15.0	0.00e+00	0	42	0	583008256	20	4394
2026-01-12 09:10:22.24	60.93	36.28	-29.7	-32.5	14.6	0.00e+00	0	42	0	589299712	19	4967
2026-01-12 09:10:25.26	59.68	36.35	-29.8	-32.7	14.4	7.00e-07	0	42	0	594542592	19	5026
2026-01-12 09:10:28.27	58.43	36.41	-30.2	-33.3	13.7	7.60e-06	0	42	0	600834048	20	5123
2026-01-12 09:10:31.29	57.18	36.45	-30.1	-33.1	13.8	4.50e-06	0	42	0	606076928	20	5084
2026-01-12 09:10:34.30	55.92	36.48	-30.2	-33.3	13.6	9.10e-06	0	42	0	611319808	20	5149
2026-01-12 09:10:37.32	54.66	36.49	-30.2	-33.4	13.6	3.80e-06	0	42	0	617611264	20	5180
2026-01-12 09:10:40.34	53.40	36.48	-30.5	-33.6	13.1	2.21e-05	0	42	0	622854144	21	5140
2026-01-12 09:10:43.35	52.14	36.46	-30.8	-34.6	12.5	1.15e-04	0	42	0	629145600	21	5559
2026-01-12 09:10:46.37	50.88	36.42	-30.5	-33.6	13.1	5.95e-05	0	42	0	634388480	21	5159
2026-01-12 09:10:49.39	49.63	36.37	-30.9	-34.8	12.3	1.69e-04	0	42	0	639631360	21	5638
2026-01-12 09:10:52.40	48.38	36.30	-31.6	-35.8	11.0	1.60e-03	0	42	0	645922816	23	5845
2026-01-12 09:10:55.42	47.14	36.21	-31.3	-34.8	11.6	7.99e-04	0	42	0	651165696	23	5420
2026-01-12 09:10:58.43	45.90	36.11	-31.1	-34.3	11.9	3.63e-04	0	42	0	657457152	23	5217
2026-01-12 09:11:01.45	44.67	36.00	-31.3	-34.9	11.5	6.67e-04	0	42	0	662700032	23	5477
2026-01-12 09:11:04.47	43.45	35.87	-31.3	-34.8	11.7	6.99e-04	0	42	0	667942912	23	5427
2026-01-12 09:11:07.49	42.25	35.73	-31.3	-34.9	11.6	8.73e-04	0	42	0	674234368	23	5464
2026-01-12 09:11:10.52	41.04	35.57	-31.4	-35.2	11.4	9.92e-04	0	42	0	679477248	23	5587
2026-01-12 09:11:13.52	39.87	35.40	-31.0	-34.2	12.1	2.36e-04	0	42	0	685768704	23	5157
2026-01-12 09:11:16.52	38.70	35.22	-30.7	-33.8	12.7	6.71e-05	0	42	0	691011584	22	5108
2026-01-12 09:11:19.55	37.54	35.03	-30.6	-33.4	13.0	3.81e-05	0	42	0	696254464	22	4974
2026-01-12 09:11:22.56	36.39	34.82	-30.4	-32.8	13.4	2.28e-05	0	42	0	702545920	22	4746
2026-01-12 09:11:25.55	35.28	34.61	-29.8	-31.8	14.3	0.00e+00	0	42	0	707788800	21	4528
2026-01-12 09:11:28.56	34.16	34.38	-30.2	-32.9	13.6	4.50e-06	0	42	0	713031680	21	4878
2026-01-12 09:11:31.58	33.07	34.14	-30.6	-33.8	13.0	2.82e-05	0	42	0	719323136	21	5238
2026-01-12 09:11:34.60	31.98	33.89	-30.4	-33.3	13.3	1.37e-05	0	42	0	724566016	21	5047
2026-01-12 09:11:37.61	30.92	33.63	-30.9	-35.0	12.2	1.73e-04	0	42	0	730857472	21	5723
2026-01-12 09:11:40.63	29.87	33.37	-31.3	-35.5	11.4	8.84e-04	0	42	0	736100352	22	5824
2026-01-12 09:11:43.66	28.84	33.09	-31.2	-35.3	11.6	5.90e-04	0	42	0	741343232	22	5761
2026-01-12 09:11:46.67	27.83	32.81	-31.3	-35.5	11.4	7.74e-04	0	42	0	747634688	22	5863
2026-01-12 09:11:49.69	26.83	32.52	-31.6	-36.1	10.6	2.61e-03	0	42	0	752877568	23	6013
2026-01-12 09:11:52.71	25.86	32.22	-31.8	-36.7	10.2	1.10e-02	0	42	0	759169024	23	6324
2026-01-12 09:11:55.74	24.90	31.91	-31.3	-34.9	11.6	5.19e-04	0	42	0	764411904	23	5462
2026-01-12 09:11:58.75	23.96	31.61	-31.0	-34.0	12.1	2.50e-04	0	42	0	769654784	23	5104
2026-01-12 09:12:01.75	23.04	31.29	-31.0	-34.3	11.9	3.79e-04	0	42	0	775946240	23	5214
2026-01-12 09:12:04.76	22.14	30.98	-31.2	-34.8	11.5	8.13e-04	0	42	0	781189120	23	5463
2026-01-12 09:12:07.78	21.25	30.65	-31.3	-35.1	11.3	1.40e-03	0	42	0	787480576	23	5584
2026-01-12 09:12:10.80	20.38	30.32	-31.4	-35.2	11.2	1.13e-03	0	42	0	792723456	23	5636
2026-01-12 09:12:13.81	19.54	29.99	-31.4	-35.5	11.0	1.80e-03	0	42	0	797966336	23	5760
2026-01-12 09:12:16.82	18.71	29.66	-31.3	-35.0	11.4	1.03e-03	0	42	0	804257792	23	5514
2026-01-12 09:12:19.83	17.89	29.33	-31.2	-34.8	11.4	6.18e-04	0	42	0	809500672	23	5448
2026-01-12 09:12:22.85	17.09	28.99	-31.1	-34.4	11.8	4.93e-04	0	42	0	815792128	23	5261
2026-01-12 09:12:25.87	16.31	28.65	-30.5	-33.4	12.8	8.31e-05	0	42	0	821035008	22	4976
2026-01-12 09:12:28.88	15.55	28.30	-30.4	-33.0	13.0	5.72e-05	0	42	0	826277888	22	4844
2026-01-12 09:12:31.90	14.80	27.96	-30.6	-33.4	12.7	4.27e-05	0	42	0	832569344	22	5011
2026-01-12 09:12:34.92	14.07	27.61	-30.4	-32.8	13.1	3.89e-05	0	42	0	837812224	22	4788
2026-01-12 09:12:37.93	13.35	27.27	-30.4	-33.5	13.0	4.34e-05	0	42	0	844103680	21	5121
2026-01-12 09:12:40.94	12.65	26.92	-30.2	-32.9	13.4	1.60e-05	0	41	0	849346560	21	4926
2026-01-12 09:12:43.96	11.97	26.58	-30.0	-32.3	13.7	1.06e-05	0	42	0	854589440	21	4731
2026-01-12 09:12:46.98	11.30	26.23	-30.2	-33.0	13.2	6.10e-06	0	42	0	860880896	21	4975
2026-01-12 09:12:50.00	10.64	25.88	-29.4	-31.4	14.6	0.00e+00	0	42	0	866123776	20	4520
2026-01-12 09:12:53.03	10.00	25.54	-29.3	-31.6	14.8	7.00e-07	0	42	0	872415232	19	4676
2026-01-12 09:12:56.02	9.37	25.20	-29.4	-31.9	14.6	0.00e+00	0	42	0	877658112	19	4797
2026-01-12 09:12:59.03	8.76	24.85	-29.4	-31.9	14.6	7.00e-07	0	42	0	882900992	19	4797
2026-01-12 09:13:02.04	8.16	24.51	-29.6	-32.4	14.3	1.50e-06	0	42	0	889192448	19	4955
2026-01-12 09:13:05.05	7.58	24.17	-29.8	-32.8	14.0	3.00e-06	0	42	0	894435328	19	5117
2026-01-12 09:13:08.07	7.00	23.83	-29.9	-33.0	13.9	1.50e-06	0	42	0	899678208	19	5185
2026-01-12 09:13:11.09	6.44	23.49	-29.3	-31.7	14.7	0.00e+00	0	42	0	905969664	19	4716
2026-01-12 09:13:14.11	5.89	23.15	-29.5	-32.0	14.4	0.00e+00	0	42	0	911212544	19	4835
2026-01-12 09:13:17.12	5.35	22.81	-29.9	-33.1	13.8	4.50e-06	0	42	0	917504000	19	5212
2026-01-12 09:13:20.13	4.83	22.48	-30.1	-33.3	13.2	1.90e-05	0	42	0	922746880	20	5203
2026-01-12 09:13:23.14	4.32	22.15	-30.1	-33.3	13.2	3.12e-05	0	42	0	927989760	20	5190
2026-01-12 09:13:26.16	3.81	21.81	-30.7	-34.5	12.1	2.06e-04	0	42	0	934281216	21	5584
2026-01-12 09:13:29.17	3.32	21.49	-30.8	-34.3	11.8	5.14e-04	0	42	0	939524096	22	5407
2026-01-12 09:13:32.19	2.84	21.16	-30.7	-34.0	12.0	2.59e-04	0	42	0	945815552	22	5281
2026-01-12 09:13:35.21	2.37	20.83	-30.5	-33.5	12.3	1.94e-04	0	42	0	951058432	22	5080
2026-01-12 09:13:38.22	1.90	20.51	-30.3	-33.3	12.8	7.40e-05	0	42	0	956301312	21	5094
2026-01-12 09:13:41.24	1.45	20.19	-30.4	-33.7	12.5	7.40e-05	0	42	0	962592768	21	5255
2026-01-12 09:13:44.25	1.01	19.87	-30.3	-33.6	12.6	1.09e-04	0	42	0	967835648	21	5212
2026-01-12 09:13:47.25	0.58	19.56	-30.5	-34.0	12.3	2.48e-04	0	42	0	973078528	21	5384
2026-01-12 09:13:50.26	0.16	19.25	-30.5	-33.9	12.4	1.52e-04	0	42	0	979369984	21	5337
2026-01-12 09:13:53.27	359.74	18.93	-30.2	-33.3	12.7	5.49e-05	0	42	0	984612864	21	5096
2026-01-12 09:13:56.28	359.34	18.63	-30.3	-33.5	12.6	1.06e-04	0	42	0	990904320	21	5198
2026-01-12 09:13:59.30	358.94	18.32	-30.4	-33.8	12.4	1.52e-04	0	42	0	996147200	21	5314
2026-01-12 09:14:02.31	358.55	18.02	-30.2	-33.1	12.8	5.95e-05	0	42	0	1001390080	21	5059
2026-01-12 09:14:05.32	358.17	17.71	-30.1	-33.0	12.8	5.95e-05	0	42	0	1007681536	21	5004
2026-01-12 09:14:08.34	357.79	17.41	-30.0	-32.7	13.1	2.97e-05	0	42	0	1012924416	21	4908
2026-01-12 09:14:11.35	357.43	17.12	-30.1	-33.0	12.9	4.42e-05	0	42	0	1019215872	21	4999
2026-01-12 09:14:14.35	357.07	16.82	-30.3	-33.5	12.5	1.13e-04	0	42	0	1024458752	21	5193
2026-01-12 09:14:17.36	356.72	16.53	-30.3	-33.4	12.6	7.24e-05	0	42	0	1029701632	21	5174
2026-01-12 09:14:20.36	356.37	16.24	-30.1	-32.9	12.9	6.56e-05	0	42	0	1035993088	21	4988
2026-01-12 09:14:23.38	356.03	15.95	-30.1	-33.0	12.8	6.56e-05	0	42	0	1041235968	21	5011
2026-01-12 09:14:26.39	355.70	15.67	-30.1	-32.9	12.8	4.27e-05	0	42	0	1046478848	21	4994
2026-01-12 09:14:29.41	355.38	15.39	-30.0	-32.8	12.9	5.18e-05	0	42	0	1052770304	21	4936
2026-01-12 09:14:32.43	355.06	15.10	-30.0	-32.5	13.1	3.43e-05	0	42	0	1058013184	21	4847
2026-01-12 09:14:35.44	354.74	14.83	-29.9	-32.4	13.2	2.67e-05	0	42	0	1064304640	21	4811
2026-01-12 09:14:38.45	354.44	14.55	-30.0	-32.8	12.9	3.89e-05	0	42	0	1069547520	21	4953
2026-01-12 09:14:41.47	354.14	14.28	-30.3	-33.7	12.3	1.30e-04	0	42	0	1074790400	21	5282
2026-01-12 09:14:44.48	353.84	14.01	-30.6	-34.5	11.7	5.61e-04	0	42	0	1081081856	21	5649
2026-01-12 09:14:47.50	353.55	13.74	-30.6	-34.4	11.8	5.81e-04	0	42	0	1086324736	21	5587
2026-01-12 09:14:50.51	353.27	13.47	-30.3	-33.6	12.3	2.43e-04	0	42	0	1092616192	21	5257
2026-01-12 09:14:53.53	352.99	13.20	-30.4	-33.9	12.0	2.33e-04	0	42	0	1097859072	21	5401
2026-01-12 09:14:56.56	352.71	12.94	-30.4	-33.8	12.1	2.23e-04	0	42	0	1103101952	21	5333
2026-01-12 09:14:59.57	352.44	12.68	-30.4	-34.0	12.0	3.93e-04	0	42	0	1109393408	21	5433
2026-01-12 09:15:02.56	352.18	12.42	-30.5	-34.2	11.8	3.94e-04	0	42	0	1114636288	21	5512
2026-01-12 09:15:05.59	351.92	12.17	-30.6	-34.6	11.5	7.39e-04	0	42	0	1120927744	21	5717
2026-01-12 09:15:08.60	351.66	11.91	-30.7	-34.9	11.2	1.15e-03	0	42	0	1126170624	21	5841
2026-01-12 09:15:11.61	351.41	11.66	-30.8	-35.3	10.9	2.08e-03	0	42	0	1131413504	21	6019
2026-01-12 09:15:14.62	351.17	11.41	-30.7	-35.0	11.0	2.26e-03	0	42	0	1137704960	21	5923
2026-01-12 09:15:17.64	350.93	11.16	-30.7	-35.2	10.9	1.78e-03	0	42	0	1142947840	21	5995
2026-01-12 09:15:20.66	350.69	10.92	-30.9	-35.7	10.5	4.91e-03	0	42	0	1148190720	21	6268
2026-01-12 09:15:23.69	350.45	10.67	-30.8	-35.3	10.8	2.60e-03	0	42	0	1154482176	21	6089
2026-01-12 09:15:26.69	350.23	10.43	-31.1	-35.8	10.1	5.57e-03	0	42	0	1159725056	22	6213
2026-01-12 09:15:29.71	350.00	10.19	-31.0	-35.7	10.2	5.57e-03	0	42	0	1166016512	22	6124
2026-01-12 09:15:32.72	349.78	9.95	-31.0	-35.6	10.3	5.04e-03	0	42	0	1171259392	22	6081
2026-01-12 09:15:35.74	349.56	9.71	-30.9	-35.4	10.3	5.29e-03	0	42	0	1176502272	22	6016
2026-01-12 09:15:38.76	349.35	9.48	-30.9	-35.2	10.4	5.60e-03	0	42	0	1182793728	22	5948
2026-01-12 09:15:41.78	349.14	9.24	-30.9	-35.3	10.3	4.95e-03	0	42	0	1188036608	22	5980
2026-01-12 09:15:44.78	348.93	9.01	-31.0	-35.8	9.9	8.09e-03	0	42	0	1194328064	22	6229
2026-01-12 09:15:47.80	348.73	8.78	-31.1	-36.0	9.7	9.06e-03	0	42	0	1199570944	22	6336
2026-01-12 09:15:50.81	348.53	8.56	-31.0	-35.8	9.9	1.06e-02	0	42	0	1204813824	22	6242
2026-01-12 09:15:53.83	348.33	8.33	-31.0	-35.7	10.0	7.96e-03	0	42	0	1211105280	22	6177
2026-01-12 09:15:56.85	348.13	8.11	-31.0	-35.9	9.7	1.02e-02	0	42	0	1216348160	22	6285
2026-01-12 09:15:59.87	347.94	7.88	-31.1	-36.0	9.6	1.38e-02	0	42	0	1222639616	22	6384
2026-01-12 09:16:02.88	347.76	7.66	-31.1	-36.2	9.6	1.57e-02	0	42	0	1227882496	22	6467
2026-01-12 09:16:05.89	347.57	7.44	-31.1	-36.2	9.5	1.35e-02	0	42	0	1233125376	22	6460
2026-01-12 09:16:08.91	347.39	7.22	-31.1	-36.2	9.5	1.54e-02	0	42	0	1239416832	22	6463
2026-01-12 09:16:11.92	347.21	7.01	-32.8	-45.8	3.8	3.69e-01	0	42	104	1243611136	25	16142

#Closed at: 2026-01-12 09:16:13
#Recorded file [1243 MB]: D:/data/31010_260112_120507.dat