passes_logs/2026/01/12/R2M6_AANII_01/R2M6_AANII_01__20260112_084458_SUOMI_NPP_rec.log

#Pass ID: 20260112_084458_SUOMI NPP
#Satellite: SUOMI NPP
#Configuration: NPP
#almurnet v.1.7.20240730
#Start time: 2026-01-12 08:44:58

#Version: 2.2.20231116
#Station: R2M6_AANII_01
#Location: 30.233357 lon 59.946436 lat
#TLE: 1 37849U 11061A   26011.29776829  .00000112  00000+0  74065-4 0  9999
#TLE: 2 37849  98.7807 313.3784 0002522  70.0451 290.0996 14.19524507736187

#Time	Az	El	Level	Level2	SNR	BER	BlckErr	Temp	State	Recorded	gain1	gain2
2026-01-12 08:44:58.76	109.32	7.04	-31.8	-37.3	4.6	1.37e+00	0	39	0	0	24	6813
2026-01-12 08:45:01.77	109.08	7.25	-31.7	-36.9	6.6	2.16e-01	0	39	0	1048576	24	6535
2026-01-12 08:45:04.78	108.84	7.45	-31.9	-38.0	5.9	3.57e-01	0	39	0	7340032	24	7217
2026-01-12 08:45:07.81	108.59	7.66	-31.7	-36.3	7.1	2.27e-01	0	39	0	12582912	24	6171
2026-01-12 08:45:10.82	108.34	7.87	-30.9	-33.4	9.8	1.37e-02	0	40	0	18874368	23	4824
2026-01-12 08:45:13.84	108.08	8.08	-31.3	-34.9	8.8	1.81e-02	0	40	0	24117248	23	5441
2026-01-12 08:45:16.86	107.82	8.29	-31.4	-35.4	8.4	3.41e-02	0	40	0	29360128	23	5689
2026-01-12 08:45:19.88	107.56	8.50	-30.9	-33.5	10.0	8.74e-03	0	40	0	35651584	23	4814
2026-01-12 08:45:22.90	107.29	8.72	-31.1	-34.1	9.5	8.19e-03	0	40	0	40894464	23	5079
2026-01-12 08:45:25.91	107.02	8.93	-31.2	-34.4	9.3	1.89e-02	0	40	0	47185920	23	5192
2026-01-12 08:45:28.93	106.74	9.14	-30.8	-33.3	10.6	4.09e-03	0	40	0	52428800	22	4813
2026-01-12 08:45:31.93	106.46	9.36	-30.7	-32.9	10.9	2.14e-03	0	40	0	57671680	22	4669
2026-01-12 08:45:34.95	106.18	9.58	-30.8	-33.3	10.7	3.56e-03	0	40	0	63963136	22	4791
2026-01-12 08:45:37.97	105.89	9.80	-30.6	-32.6	11.2	1.57e-03	0	40	0	69206016	22	4533
2026-01-12 08:45:40.96	105.59	10.02	-30.6	-32.7	11.1	1.70e-03	0	40	0	74448896	22	4578
2026-01-12 08:45:43.98	105.30	10.24	-30.6	-32.8	11.0	1.62e-03	0	40	0	80740352	22	4602
2026-01-12 08:45:46.98	105.00	10.46	-30.7	-32.9	10.9	1.97e-03	0	41	0	85983232	22	4665
2026-01-12 08:45:50.00	104.69	10.68	-30.8	-33.3	10.7	3.15e-03	0	41	0	92274688	22	4813
2026-01-12 08:45:53.01	104.38	10.91	-30.7	-33.0	10.9	2.20e-03	0	41	0	97517568	22	4692
2026-01-12 08:45:56.02	104.06	11.13	-30.5	-32.3	11.4	9.64e-04	0	41	0	102760448	22	4434
2026-01-12 08:45:59.04	103.74	11.36	-30.7	-32.9	11.1	1.47e-03	0	41	0	109051904	22	4622
2026-01-12 08:46:02.06	103.41	11.59	-30.5	-32.4	11.4	1.11e-03	0	41	0	114294784	22	4447
2026-01-12 08:46:05.07	103.08	11.82	-30.5	-32.3	11.5	8.37e-04	0	41	0	120586240	22	4408
2026-01-12 08:46:08.08	102.74	12.05	-30.6	-32.7	11.2	1.15e-03	0	41	0	125829120	22	4561
2026-01-12 08:46:11.08	102.40	12.28	-30.6	-32.6	11.3	1.11e-03	0	41	0	131072000	22	4536
2026-01-12 08:46:14.10	102.05	12.52	-30.5	-32.1	11.7	3.43e-04	0	41	0	137363456	22	4350
2026-01-12 08:46:17.11	101.69	12.75	-30.7	-32.9	11.1	1.45e-03	0	41	0	142606336	22	4615
2026-01-12 08:46:20.12	101.33	12.98	-30.5	-32.2	11.7	8.75e-04	0	41	0	147849216	22	4363
2026-01-12 08:46:23.14	100.97	13.22	-30.7	-32.9	11.2	1.41e-03	0	41	0	154140672	22	4622
2026-01-12 08:46:26.14	100.60	13.46	-30.6	-32.5	11.5	1.00e-03	0	41	0	159383552	22	4487
2026-01-12 08:46:29.15	100.22	13.70	-30.4	-32.0	11.9	4.38e-04	0	41	0	165675008	22	4292
2026-01-12 08:46:32.17	99.83	13.94	-30.2	-31.7	12.4	1.98e-04	0	41	0	170917888	21	4294
2026-01-12 08:46:35.17	99.44	14.18	-30.1	-31.6	12.5	1.09e-04	0	41	0	176160768	21	4253
2026-01-12 08:46:38.19	99.04	14.42	-30.0	-31.2	12.7	5.18e-05	0	41	0	182452224	21	4139
2026-01-12 08:46:41.20	98.64	14.66	-29.8	-31.0	13.2	1.90e-05	0	41	0	187695104	20	4162
2026-01-12 08:46:44.21	98.23	14.91	-29.9	-31.4	13.0	3.89e-05	0	41	0	193986560	20	4267
2026-01-12 08:46:47.23	97.81	15.15	-30.0	-31.6	12.9	3.73e-05	0	41	0	199229440	20	4321
2026-01-12 08:46:50.24	97.39	15.40	-29.9	-31.4	13.0	4.73e-05	0	41	0	204472320	20	4280
2026-01-12 08:46:53.25	96.95	15.65	-29.7	-30.6	13.5	8.30e-06	0	41	0	210763776	20	4033
2026-01-12 08:46:56.27	96.51	15.89	-29.8	-31.1	13.3	2.89e-05	0	41	0	216006656	20	4172
2026-01-12 08:46:59.27	96.07	16.14	-29.6	-30.5	13.7	8.30e-06	0	41	0	221249536	20	4001
2026-01-12 08:47:02.29	95.61	16.39	-29.8	-31.2	13.1	1.75e-05	0	41	0	227540992	20	4235
2026-01-12 08:47:05.31	95.15	16.64	-29.9	-31.7	12.8	7.70e-05	0	41	0	232783872	20	4405
2026-01-12 08:47:08.33	94.68	16.89	-29.8	-31.3	13.0	2.67e-05	0	41	0	239075328	20	4289
2026-01-12 08:47:11.33	94.20	17.14	-30.0	-31.8	12.7	5.41e-05	0	41	0	244318208	20	4447
2026-01-12 08:47:14.35	93.72	17.40	-30.1	-32.2	12.5	1.43e-04	0	41	0	249561088	20	4565
2026-01-12 08:47:17.36	93.22	17.65	-30.4	-33.0	11.9	4.03e-04	0	41	0	255852544	20	4864
2026-01-12 08:47:20.38	92.72	17.90	-30.3	-32.6	12.2	2.78e-04	0	41	0	261095424	20	4718
2026-01-12 08:47:23.38	92.21	18.15	-30.5	-32.7	11.9	5.43e-04	0	41	0	267386880	21	4662
2026-01-12 08:47:26.40	91.69	18.40	-30.5	-32.8	11.8	3.55e-04	0	41	0	272629760	21	4671
2026-01-12 08:47:29.42	91.16	18.66	-30.5	-32.8	11.8	5.45e-04	0	42	0	277872640	21	4671
2026-01-12 08:47:32.44	90.62	18.91	-30.2	-31.7	12.6	1.36e-04	0	42	0	284164096	21	4297
2026-01-12 08:47:35.46	90.07	19.16	-30.3	-32.0	12.4	1.91e-04	0	41	0	289406976	21	4411
2026-01-12 08:47:38.47	89.51	19.42	-30.3	-32.1	12.3	1.01e-04	0	41	0	295698432	21	4445
2026-01-12 08:47:41.48	88.95	19.67	-30.6	-33.0	11.7	5.31e-04	0	41	0	300941312	21	4754
2026-01-12 08:47:44.50	88.37	19.92	-30.3	-31.9	12.5	1.65e-04	0	41	0	306184192	21	4367
2026-01-12 08:47:47.52	87.78	20.17	-30.1	-31.3	12.9	5.72e-05	0	41	0	312475648	21	4167
2026-01-12 08:47:50.53	87.19	20.42	-30.1	-31.4	12.9	4.65e-05	0	41	0	317718528	21	4190
2026-01-12 08:47:53.54	86.59	20.67	-30.1	-31.6	12.8	7.17e-05	0	41	0	322961408	21	4239
2026-01-12 08:47:56.56	85.97	20.92	-30.3	-32.1	12.4	1.47e-04	0	42	0	329252864	21	4417
2026-01-12 08:47:59.57	85.35	21.17	-29.9	-30.9	13.4	2.44e-05	0	41	0	334495744	21	4039
2026-01-12 08:48:02.58	84.71	21.42	-29.4	-30.0	14.1	9.90e-06	0	42	0	340787200	20	3865
2026-01-12 08:48:05.60	84.07	21.66	-29.3	-30.3	14.3	7.00e-07	0	41	0	346030080	19	4046
2026-01-12 08:48:08.62	83.41	21.91	-29.6	-31.2	13.8	6.10e-06	0	41	0	351272960	19	4295
2026-01-12 08:48:11.63	82.75	22.15	-29.7	-31.3	13.7	1.44e-05	0	42	0	357564416	19	4325
2026-01-12 08:48:14.65	82.07	22.39	-29.0	-29.6	14.8	0.00e+00	0	42	0	362807296	19	3837
2026-01-12 08:48:17.66	81.38	22.62	-28.8	-29.4	15.2	0.00e+00	0	41	0	369098752	18	3864
2026-01-12 08:48:20.67	80.69	22.86	-29.2	-30.6	14.6	7.00e-07	0	41	0	374341632	18	4188
2026-01-12 08:48:23.69	79.98	23.09	-29.0	-29.9	14.9	7.00e-07	0	41	0	379584512	18	4009
2026-01-12 08:48:26.70	79.26	23.32	-29.0	-30.0	14.9	0.00e+00	0	42	0	385875968	18	4016
2026-01-12 08:48:29.72	78.53	23.55	-28.7	-29.2	15.4	0.00e+00	0	42	0	391118848	18	3804
2026-01-12 08:48:32.73	77.79	23.77	-28.9	-29.8	15.0	7.00e-07	0	42	0	397410304	18	3962
2026-01-12 08:48:35.73	77.04	23.99	-28.8	-29.4	15.3	0.00e+00	0	42	0	402653184	18	3860
2026-01-12 08:48:38.73	76.29	24.21	-28.8	-29.3	15.4	0.00e+00	0	41	0	407896064	18	3838
2026-01-12 08:48:41.75	75.51	24.42	-29.3	-30.6	14.6	0.00e+00	0	42	0	414187520	18	4189
2026-01-12 08:48:44.77	74.73	24.63	-29.5	-30.7	14.3	7.00e-07	0	42	0	419430400	19	4127
2026-01-12 08:48:47.79	73.94	24.84	-29.4	-30.4	14.4	1.50e-06	0	42	0	425721856	19	4036
2026-01-12 08:48:50.81	73.13	25.04	-29.4	-30.5	14.4	7.00e-07	0	42	0	430964736	19	4065
2026-01-12 08:48:53.82	72.32	25.24	-29.6	-30.9	14.2	7.00e-07	0	42	0	436207616	19	4183
2026-01-12 08:48:56.83	71.50	25.43	-29.0	-29.3	15.1	0.00e+00	0	41	0	442499072	19	3741
2026-01-12 08:48:59.85	70.66	25.61	-28.5	-28.7	15.8	0.00e+00	0	42	0	447741952	18	3655
2026-01-12 08:49:02.87	69.82	25.79	-28.8	-29.3	15.5	0.00e+00	0	42	0	454033408	18	3820
2026-01-12 08:49:05.88	68.97	25.97	-29.0	-29.7	15.2	0.00e+00	0	42	0	459276288	18	3934
2026-01-12 08:49:08.89	68.11	26.13	-29.2	-30.3	14.9	0.00e+00	0	41	0	464519168	18	4086
2026-01-12 08:49:11.92	67.23	26.30	-29.3	-30.7	14.6	7.00e-07	0	42	0	470810624	18	4231
2026-01-12 08:49:14.93	66.35	26.45	-29.3	-30.6	14.7	1.50e-06	0	42	0	476053504	18	4180
2026-01-12 08:49:17.94	65.47	26.60	-29.6	-30.8	14.3	1.50e-06	0	42	0	481296384	19	4159
2026-01-12 08:49:20.95	64.57	26.74	-29.9	-31.1	13.7	8.30e-06	0	42	0	487587840	20	4160
2026-01-12 08:49:23.96	63.67	26.88	-30.2	-32.0	13.2	1.98e-05	0	42	0	492830720	20	4419
2026-01-12 08:49:26.97	62.76	27.01	-29.7	-30.8	13.9	4.50e-06	0	42	0	499122176	20	4048
2026-01-12 08:49:29.99	61.84	27.13	-30.3	-32.3	12.9	3.20e-05	0	42	0	504365056	20	4534
2026-01-12 08:49:33.01	60.91	27.24	-30.7	-33.1	12.1	1.62e-04	0	42	0	509607936	21	4715
2026-01-12 08:49:36.02	59.98	27.35	-31.2	-33.9	11.1	1.10e-03	0	42	0	515899392	22	4926
2026-01-12 08:49:39.04	59.05	27.44	-31.0	-33.3	11.6	6.38e-04	0	42	0	521142272	22	4691
2026-01-12 08:49:42.05	58.10	27.53	-30.4	-31.8	12.6	1.68e-04	0	41	0	527433728	22	4204
2026-01-12 08:49:45.06	57.16	27.61	-30.7	-32.6	12.0	3.13e-04	0	42	0	532676608	22	4478
2026-01-12 08:49:48.07	56.21	27.68	-30.0	-31.2	13.2	3.28e-05	0	41	0	537919488	21	4125
2026-01-12 08:49:51.08	55.25	27.75	-30.2	-31.6	13.0	2.44e-05	0	42	0	544210944	21	4233
2026-01-12 08:49:54.09	54.29	27.80	-30.8	-33.5	11.7	3.27e-04	0	42	0	549453824	21	4899
2026-01-12 08:49:57.11	53.33	27.85	-30.8	-32.9	11.8	4.58e-04	0	42	0	555745280	22	4572
2026-01-12 08:50:00.11	52.37	27.88	-30.6	-32.0	12.4	2.38e-04	0	42	0	560988160	22	4273
2026-01-12 08:50:03.13	51.40	27.91	-29.4	-29.9	14.4	2.20e-06	0	42	0	566231040	20	3824
2026-01-12 08:50:06.15	50.43	27.93	-30.1	-31.9	13.2	6.80e-06	0	42	0	572522496	20	4395
2026-01-12 08:50:09.17	49.46	27.94	-30.2	-32.2	13.0	2.05e-05	0	42	0	577765376	20	4497
2026-01-12 08:50:12.19	48.49	27.94	-30.0	-31.5	13.4	1.83e-05	0	42	0	583008256	20	4285
2026-01-12 08:50:15.19	47.52	27.93	-29.9	-31.1	13.7	5.30e-06	0	42	0	589299712	20	4157
2026-01-12 08:50:18.21	46.55	27.91	-30.2	-32.0	13.1	3.35e-05	0	42	0	594542592	20	4444
2026-01-12 08:50:21.22	45.59	27.89	-30.3	-32.0	12.9	7.09e-05	0	42	0	600834048	21	4336
2026-01-12 08:50:24.23	44.62	27.85	-30.1	-31.3	13.2	5.18e-05	0	42	0	606076928	21	4127
2026-01-12 08:50:27.26	43.66	27.81	-29.8	-30.9	13.8	2.20e-06	0	41	0	611319808	20	4093
2026-01-12 08:50:30.27	42.70	27.75	-30.0	-31.5	13.5	9.90e-06	0	42	0	617611264	20	4265
2026-01-12 08:50:33.29	41.74	27.69	-29.7	-30.5	14.0	1.14e-05	0	42	0	622854144	20	3982
2026-01-12 08:50:36.29	40.79	27.62	-29.8	-30.8	13.8	2.20e-06	0	42	0	629145600	20	4052
2026-01-12 08:50:39.30	39.85	27.54	-29.4	-29.9	14.4	0.00e+00	0	42	0	634388480	20	3794
2026-01-12 08:50:42.32	38.91	27.45	-29.5	-30.7	14.3	1.50e-06	0	42	0	639631360	19	4098
2026-01-12 08:50:45.33	37.97	27.35	-29.8	-31.3	13.9	5.30e-06	0	42	0	645922816	19	4277
2026-01-12 08:50:48.34	37.04	27.25	-29.7	-30.6	14.0	4.50e-06	0	42	0	651165696	20	3997
2026-01-12 08:50:51.37	36.11	27.14	-29.3	-30.0	14.8	7.00e-07	0	42	0	657457152	19	3902
2026-01-12 08:50:54.39	35.19	27.02	-29.3	-30.1	14.7	0.00e+00	0	42	0	662700032	19	3925
2026-01-12 08:50:57.41	34.28	26.89	-29.3	-30.0	14.7	0.00e+00	0	42	0	667942912	19	3900
2026-01-12 08:51:00.41	33.38	26.76	-29.6	-30.8	14.2	1.50e-06	0	42	0	674234368	19	4147
2026-01-12 08:51:03.44	32.48	26.61	-29.8	-31.4	13.9	2.20e-06	0	42	0	679477248	19	4318
2026-01-12 08:51:06.46	31.60	26.47	-30.4	-32.2	12.5	9.91e-05	0	42	0	685768704	21	4430
2026-01-12 08:51:09.48	30.72	26.31	-30.4	-32.0	12.7	5.56e-05	0	42	0	691011584	21	4354
2026-01-12 08:51:12.50	29.85	26.15	-30.5	-32.5	12.3	8.31e-05	0	42	0	696254464	21	4509
2026-01-12 08:51:15.51	28.99	25.98	-30.9	-33.2	11.4	1.16e-03	0	42	0	702545920	22	4685
2026-01-12 08:51:18.52	28.14	25.81	-30.3	-31.8	12.7	6.48e-05	0	42	0	707788800	21	4304
2026-01-12 08:51:21.54	27.30	25.63	-29.9	-30.9	13.3	1.60e-05	0	42	0	713031680	21	4017
2026-01-12 08:51:24.56	26.46	25.44	-30.1	-31.4	12.9	4.11e-05	0	42	0	719323136	21	4178
2026-01-12 08:51:27.58	25.64	25.25	-29.4	-30.4	14.3	0.00e+00	0	42	0	724566016	19	4041
2026-01-12 08:51:30.59	24.83	25.06	-29.4	-30.4	14.3	0.00e+00	0	42	0	730857472	19	4063
2026-01-12 08:51:33.61	24.03	24.86	-30.1	-32.0	12.9	4.50e-05	0	42	0	736100352	20	4476
2026-01-12 08:51:36.61	23.24	24.65	-30.5	-32.7	12.1	3.75e-04	0	42	0	741343232	21	4613
2026-01-12 08:51:39.62	22.46	24.45	-30.2	-31.7	12.7	1.55e-04	0	42	0	747634688	21	4280
2026-01-12 08:51:42.62	21.70	24.23	-30.1	-31.5	12.9	6.48e-05	0	42	0	752877568	21	4197
2026-01-12 08:51:45.64	20.93	24.02	-30.1	-31.5	12.8	5.72e-05	0	42	0	759169024	21	4225
2026-01-12 08:51:48.66	20.18	23.80	-30.0	-31.2	13.0	5.03e-05	0	42	0	764411904	21	4130
2026-01-12 08:51:51.67	19.45	23.57	-29.3	-29.8	14.3	5.30e-06	0	42	0	769654784	20	3786
2026-01-12 08:51:54.67	18.72	23.35	-29.3	-30.2	14.4	7.00e-07	0	42	0	775946240	19	3993
2026-01-12 08:51:57.69	18.01	23.12	-29.3	-30.1	14.4	7.00e-07	0	42	0	781189120	19	3978
2026-01-12 08:52:00.70	17.30	22.89	-28.9	-29.2	15.0	0.00e+00	0	42	0	786432000	19	3720
2026-01-12 08:52:03.72	16.60	22.65	-28.7	-29.1	15.3	0.00e+00	0	42	0	792723456	18	3784
2026-01-12 08:52:06.73	15.92	22.42	-28.3	-28.6	15.9	0.00e+00	0	42	0	797966336	17	3747
2026-01-12 08:52:09.73	15.25	22.18	-28.6	-29.6	15.3	0.00e+00	0	42	0	804257792	17	4008
2026-01-12 08:52:12.75	14.58	21.94	-29.2	-30.5	14.5	0.00e+00	0	42	0	809500672	18	4166
2026-01-12 08:52:15.76	13.93	21.70	-29.5	-30.8	14.0	6.80e-06	0	42	0	814743552	19	4153
2026-01-12 08:52:18.77	13.29	21.45	-29.2	-29.9	14.5	0.00e+00	0	41	0	821035008	19	3916
2026-01-12 08:52:21.78	12.66	21.21	-29.3	-30.3	14.2	7.00e-07	0	42	0	826277888	19	4022
2026-01-12 08:52:24.79	12.04	20.96	-28.8	-29.0	15.0	0.00e+00	0	41	0	832569344	19	3669
2026-01-12 08:52:27.81	11.42	20.71	-28.5	-29.1	15.6	0.00e+00	0	42	0	837812224	17	3867
2026-01-12 08:52:30.83	10.82	20.46	-28.4	-28.8	15.7	0.00e+00	0	42	0	843055104	17	3800
2026-01-12 08:52:33.85	10.22	20.21	-28.6	-29.3	15.4	0.00e+00	0	42	0	849346560	17	3936
2026-01-12 08:52:36.86	9.64	19.96	-28.7	-29.3	15.2	0.00e+00	0	42	0	854589440	18	3837
2026-01-12 08:52:39.88	9.07	19.71	-28.6	-28.8	15.4	0.00e+00	0	42	0	860880896	18	3717
2026-01-12 08:52:42.91	8.50	19.46	-28.8	-29.5	15.1	0.00e+00	0	42	0	866123776	18	3882
2026-01-12 08:52:45.93	7.95	19.21	-29.0	-30.0	14.7	7.00e-07	0	42	0	871366656	18	4034
2026-01-12 08:52:48.95	7.40	18.96	-29.0	-29.8	14.8	0.00e+00	0	42	0	877658112	18	3973
2026-01-12 08:52:51.96	6.86	18.70	-28.7	-29.2	15.2	0.00e+00	0	42	0	882900992	18	3800
2026-01-12 08:52:54.98	6.34	18.45	-28.4	-28.9	15.6	0.00e+00	0	42	0	889192448	17	3823
2026-01-12 08:52:57.99	5.82	18.20	-29.1	-30.2	14.6	0.00e+00	0	42	0	894435328	18	4082
2026-01-12 08:53:01.02	5.31	17.95	-29.8	-31.5	13.4	1.67e-05	0	42	0	899678208	19	4395
2026-01-12 08:53:04.03	4.81	17.70	-29.6	-31.0	13.7	5.30e-06	0	42	0	905969664	19	4236
2026-01-12 08:53:07.04	4.31	17.45	-29.1	-29.8	14.5	7.00e-07	0	42	0	911212544	19	3889
2026-01-12 08:53:10.06	3.83	17.19	-29.1	-29.6	14.6	0.00e+00	0	42	0	917504000	19	3839
2026-01-12 08:53:13.07	3.35	16.94	-29.3	-30.2	14.2	1.50e-06	0	42	0	922746880	19	4007
2026-01-12 08:53:16.09	2.88	16.69	-29.9	-31.5	13.0	2.44e-05	0	42	0	927989760	20	4301
2026-01-12 08:53:19.09	2.43	16.45	-30.0	-31.5	12.9	4.95e-05	0	42	0	934281216	20	4324
2026-01-12 08:53:22.10	1.97	16.20	-29.6	-30.6	13.6	6.80e-06	0	41	0	939524096	20	4023
2026-01-12 08:53:25.12	1.53	15.95	-29.5	-30.2	13.8	5.30e-06	0	42	0	944766976	20	3919
2026-01-12 08:53:28.13	1.09	15.70	-30.2	-32.2	12.5	9.46e-05	0	42	0	951058432	20	4542
2026-01-12 08:53:31.15	0.66	15.46	-30.3	-32.6	12.2	1.59e-04	0	42	0	956301312	20	4677
2026-01-12 08:53:34.17	0.24	15.21	-30.3	-32.4	12.3	1.37e-04	0	42	0	962592768	20	4619
2026-01-12 08:53:37.17	359.82	14.97	-29.3	-29.9	13.8	4.50e-06	0	42	0	967835648	20	3855
2026-01-12 08:53:40.18	359.41	14.73	-29.4	-30.5	13.9	6.80e-06	0	42	0	973078528	19	4104
2026-01-12 08:53:43.20	359.01	14.48	-29.3	-30.2	14.0	1.50e-06	0	42	0	979369984	19	4020
2026-01-12 08:53:46.22	358.62	14.24	-29.7	-31.3	13.4	9.90e-06	0	42	0	984612864	19	4350
2026-01-12 08:53:49.23	358.23	14.00	-29.8	-31.6	13.2	1.98e-05	0	42	0	990904320	19	4426
2026-01-12 08:53:52.23	357.85	13.76	-29.7	-31.3	13.3	1.90e-05	0	42	0	996147200	19	4337
2026-01-12 08:53:55.25	357.47	13.52	-29.5	-30.8	13.6	6.10e-06	0	42	0	1001390080	19	4186
2026-01-12 08:53:58.27	357.10	13.29	-29.8	-31.6	13.2	1.60e-05	0	42	0	1007681536	19	4427
2026-01-12 08:54:01.29	356.73	13.05	-30.1	-32.2	12.3	1.35e-04	0	42	0	1012924416	20	4574
2026-01-12 08:54:04.29	356.38	12.82	-30.5	-32.9	11.4	8.40e-04	0	42	0	1018167296	21	4724
2026-01-12 08:54:07.31	356.02	12.58	-30.5	-32.7	11.5	7.41e-04	0	42	0	1024458752	21	4674
2026-01-12 08:54:10.33	355.68	12.35	-29.6	-30.8	13.1	9.84e-05	0	42	0	1029701632	20	4129
2026-01-12 08:54:13.35	355.33	12.12	-29.3	-29.9	13.7	5.30e-06	0	42	0	1035993088	20	3866
2026-01-12 08:54:16.36	355.00	11.89	-29.7	-30.9	13.0	1.75e-05	0	42	0	1041235968	20	4159
2026-01-12 08:54:19.38	354.67	11.66	-30.2	-32.4	12.0	3.13e-04	0	42	0	1046478848	20	4654
2026-01-12 08:54:22.40	354.34	11.43	-30.8	-33.8	10.6	2.77e-03	0	42	0	1052770304	21	5093
2026-01-12 08:54:25.42	354.02	11.20	-30.9	-34.2	10.3	5.70e-03	0	42	0	1058013184	21	5263
2026-01-12 08:54:28.43	353.71	10.98	-30.9	-34.2	10.3	5.23e-03	0	42	0	1064304640	21	5266
2026-01-12 08:54:31.44	353.40	10.75	-30.7	-33.6	10.8	2.47e-03	0	42	0	1069547520	21	5010
2026-01-12 08:54:34.46	353.09	10.53	-30.7	-33.5	10.7	2.18e-03	0	42	0	1074790400	21	5009
2026-01-12 08:54:37.47	352.79	10.31	-30.7	-33.7	10.6	2.52e-03	0	42	0	1081081856	21	5088
2026-01-12 08:54:40.49	352.50	10.09	-30.9	-34.2	10.2	5.34e-03	0	42	0	1086324736	21	5271
2026-01-12 08:54:43.49	352.21	9.87	-31.0	-34.3	9.8	8.01e-03	0	42	0	1092616192	22	5227
2026-01-12 08:54:46.51	351.92	9.65	-31.0	-34.4	9.7	1.11e-02	0	42	0	1097859072	22	5265
2026-01-12 08:54:49.52	351.64	9.43	-30.9	-33.9	10.0	9.23e-03	0	42	0	1103101952	22	5089
2026-01-12 08:54:52.53	351.36	9.22	-30.9	-33.9	10.0	6.88e-03	0	42	0	1109393408	22	5099
2026-01-12 08:54:55.54	351.09	9.00	-30.7	-33.1	10.7	2.94e-03	0	42	0	1114636288	22	4760
2026-01-12 08:54:58.56	350.82	8.79	-30.3	-32.3	11.5	7.19e-04	0	42	0	1120927744	21	4553
2026-01-12 08:55:01.58	350.55	8.58	-30.3	-32.3	11.4	1.23e-03	0	42	0	1126170624	21	4570
2026-01-12 08:55:04.61	350.29	8.37	-30.4	-32.7	11.2	1.76e-03	0	42	0	1131413504	21	4695
2026-01-12 08:55:07.64	350.03	8.15	-30.5	-33.2	10.8	2.36e-03	0	42	0	1137704960	21	4918
2026-01-12 08:55:10.65	349.78	7.95	-30.8	-34.2	10.0	4.41e-03	0	42	0	1142947840	21	5312
2026-01-12 08:55:13.66	349.53	7.74	-30.9	-34.7	9.5	9.19e-03	0	42	0	1149239296	21	5563
2026-01-12 08:55:16.67	349.29	7.53	-30.9	-34.1	9.6	1.48e-02	0	42	0	1154482176	22	5189
2026-01-12 08:55:19.68	349.04	7.33	-30.9	-34.0	9.7	1.07e-02	0	42	0	1159725056	22	5139
2026-01-12 08:55:22.70	348.80	7.12	-30.8	-33.9	9.6	9.63e-03	0	42	0	1166016512	22	5147
2026-01-12 08:55:25.71	348.57	6.92	-33.3	-45.9	3.8	1.49e+00	0	42	104	1167065088	26	15308

#Closed at: 2026-01-12 08:55:27
#Recorded file [1167 MB]: D:/data/31010_260112_114500.dat