passes_logs/2026/01/12/R2M6_AANII_01/R2M6_AANII_01__20260112_023233_NOAA_20_JPSS-1_rec.log

#Pass ID: 20260112_023233_NOAA 20 (JPSS-1)
#Satellite: NOAA 20 (JPSS-1)
#Configuration: NOAA 20
#almurnet v.1.7.20240730
#Start time: 2026-01-12 02:32:33

#Version: 2.2.20231116
#Station: R2M6_AANII_01
#Location: 30.233357 lon 59.946436 lat
#TLE: 1 43013U 17073A   26011.31235446  .00000090  00000+0  63634-4 0  9991
#TLE: 2 43013  98.7632 312.2907 0001646  44.6084 315.5224 14.19535308422217

#Time	Az	El	Level	Level2	SNR	BER	BlckErr	Temp	State	Recorded	gain1	gain2
2026-01-12 02:32:33.06	9.52	7.00	-32.3	-41.7	4.0	1.46e+00	0	39	0	0	26	10542
2026-01-12 02:32:36.07	9.21	7.18	-32.1	-39.9	5.5	5.31e-01	0	39	0	1048576	25	8894
2026-01-12 02:32:39.09	8.90	7.36	-32.1	-40.2	5.4	4.53e-01	0	39	0	7340032	25	9082
2026-01-12 02:32:42.11	8.59	7.55	-31.7	-38.1	7.2	1.82e-01	0	39	0	12582912	24	7457
2026-01-12 02:32:45.13	8.27	7.73	-31.2	-36.0	9.2	3.29e-02	0	39	0	18874368	23	6281
2026-01-12 02:32:48.16	7.94	7.91	-31.0	-35.2	9.9	1.00e-02	0	40	0	24117248	23	5857
2026-01-12 02:32:51.17	7.62	8.09	-31.0	-35.2	9.9	9.53e-03	0	40	0	29360128	23	5860
2026-01-12 02:32:54.19	7.29	8.28	-31.1	-35.5	9.7	1.17e-02	0	40	0	35651584	23	5989
2026-01-12 02:32:57.21	6.95	8.46	-31.0	-35.2	10.1	8.32e-03	0	40	0	40894464	23	5810
2026-01-12 02:33:00.23	6.61	8.65	-31.2	-35.7	9.7	1.40e-02	0	40	0	47185920	23	6080
2026-01-12 02:33:03.24	6.26	8.83	-31.2	-35.7	9.6	1.57e-02	0	40	0	52428800	23	6095
2026-01-12 02:33:06.27	5.91	9.02	-30.9	-34.7	10.5	3.93e-03	0	40	0	57671680	23	5585
2026-01-12 02:33:09.29	5.56	9.20	-30.8	-34.3	10.7	2.97e-03	0	40	0	63963136	23	5425
2026-01-12 02:33:12.30	5.20	9.39	-30.9	-34.7	10.5	3.69e-03	0	40	0	69206016	23	5596
2026-01-12 02:33:15.32	4.84	9.57	-31.0	-34.9	10.3	5.20e-03	0	40	0	75497472	23	5683
2026-01-12 02:33:18.34	4.47	9.76	-31.1	-35.3	10.1	6.44e-03	0	40	0	80740352	23	5834
2026-01-12 02:33:21.35	4.10	9.95	-31.0	-35.1	10.3	5.36e-03	0	40	0	85983232	23	5761
2026-01-12 02:33:24.36	3.72	10.13	-30.8	-34.3	10.9	2.33e-03	0	40	0	92274688	23	5379
2026-01-12 02:33:27.38	3.34	10.32	-30.8	-34.4	10.8	2.33e-03	0	40	0	97517568	23	5441
2026-01-12 02:33:30.40	2.95	10.51	-30.7	-34.4	11.2	1.40e-03	0	40	0	102760448	22	5509
2026-01-12 02:33:33.42	2.55	10.69	-30.7	-34.4	11.2	1.45e-03	0	41	0	109051904	22	5519
2026-01-12 02:33:36.44	2.16	10.88	-30.5	-33.7	11.7	5.82e-04	0	41	0	114294784	22	5237
2026-01-12 02:33:39.46	1.75	11.07	-30.5	-33.8	11.6	6.25e-04	0	41	0	120586240	22	5275
2026-01-12 02:33:42.49	1.34	11.26	-30.7	-34.2	11.4	9.89e-04	0	41	0	125829120	22	5441
2026-01-12 02:33:45.50	0.93	11.44	-30.5	-33.8	11.7	8.15e-04	0	41	0	131072000	22	5248
2026-01-12 02:33:48.51	0.51	11.63	-30.5	-33.7	11.8	5.43e-04	0	41	0	137363456	22	5221
2026-01-12 02:33:51.51	0.08	11.82	-30.4	-33.5	12.0	3.36e-04	0	41	0	142606336	22	5123
2026-01-12 02:33:54.53	359.65	12.00	-30.5	-33.8	11.8	4.71e-04	0	41	0	148897792	22	5247
2026-01-12 02:33:57.55	359.22	12.19	-30.5	-33.6	12.0	2.86e-04	0	41	0	154140672	22	5142
2026-01-12 02:34:00.56	358.78	12.38	-30.5	-33.7	11.9	3.86e-04	0	41	0	159383552	22	5181
2026-01-12 02:34:03.58	358.33	12.56	-30.4	-33.4	12.1	3.05e-04	0	41	0	165675008	22	5082
2026-01-12 02:34:06.60	357.87	12.75	-30.6	-33.9	11.7	4.84e-04	0	41	0	170917888	22	5282
2026-01-12 02:34:09.62	357.41	12.93	-30.6	-34.1	11.6	5.88e-04	0	41	0	177209344	22	5357
2026-01-12 02:34:12.63	356.95	13.12	-30.6	-34.0	11.7	5.92e-04	0	41	0	182452224	22	5308
2026-01-12 02:34:15.65	356.48	13.30	-30.6	-33.8	11.9	4.71e-04	0	41	0	187695104	22	5230
2026-01-12 02:34:18.68	356.00	13.49	-30.7	-34.1	11.7	5.79e-04	0	41	0	193986560	22	5369
2026-01-12 02:34:21.69	355.51	13.67	-30.8	-34.6	11.3	1.05e-03	0	41	0	199229440	22	5579
2026-01-12 02:34:24.71	355.02	13.85	-30.9	-34.9	11.1	2.07e-03	0	41	0	205520896	22	5693
2026-01-12 02:34:27.72	354.53	14.03	-30.9	-34.8	11.2	1.15e-03	0	41	0	210763776	22	5649
2026-01-12 02:34:30.74	354.03	14.22	-30.9	-35.0	11.0	1.81e-03	0	41	0	216006656	22	5748
2026-01-12 02:34:33.75	353.52	14.40	-31.1	-35.4	10.8	3.93e-03	0	41	0	222298112	22	5936
2026-01-12 02:34:36.77	353.00	14.57	-31.1	-35.4	10.8	3.12e-03	0	41	0	227540992	22	5941
2026-01-12 02:34:39.79	352.48	14.75	-31.0	-35.3	11.0	2.25e-03	0	41	0	233832448	22	5857
2026-01-12 02:34:42.81	351.95	14.93	-30.9	-34.7	11.3	1.29e-03	0	41	0	239075328	22	5613
2026-01-12 02:34:45.83	351.42	15.11	-31.0	-35.1	11.1	1.36e-03	0	41	0	244318208	22	5785
2026-01-12 02:34:48.85	350.88	15.28	-30.6	-33.8	12.0	3.55e-04	0	41	0	250609664	22	5216
2026-01-12 02:34:51.86	350.33	15.45	-30.5	-33.6	12.2	1.71e-04	0	41	0	255852544	22	5111
2026-01-12 02:34:54.88	349.78	15.62	-30.4	-33.3	12.4	1.14e-04	0	41	0	262144000	22	5006
2026-01-12 02:34:57.90	349.22	15.79	-30.4	-33.2	12.4	1.43e-04	0	41	0	267386880	22	4993
2026-01-12 02:35:00.91	348.65	15.96	-30.4	-33.2	12.5	1.25e-04	0	41	0	272629760	22	4989
2026-01-12 02:35:03.92	348.08	16.13	-29.9	-32.2	13.4	1.60e-05	0	41	0	278921216	21	4718
2026-01-12 02:35:06.95	347.50	16.29	-30.0	-32.5	13.3	1.22e-05	0	41	0	284164096	21	4822
2026-01-12 02:35:09.97	346.91	16.46	-29.7	-32.2	13.8	6.80e-06	0	41	0	290455552	20	4811
2026-01-12 02:35:12.98	346.32	16.62	-29.5	-31.8	14.0	2.20e-06	0	41	0	295698432	20	4669
2026-01-12 02:35:16.01	345.72	16.78	-29.6	-32.0	14.0	2.20e-06	0	41	0	300941312	20	4726
2026-01-12 02:35:19.02	345.12	16.93	-29.5	-31.8	14.1	3.00e-06	0	41	0	307232768	20	4673
2026-01-12 02:35:22.04	344.51	17.09	-29.5	-31.7	14.1	7.00e-07	0	42	0	312475648	20	4646
2026-01-12 02:35:25.06	343.89	17.24	-29.5	-31.8	14.1	3.00e-06	0	41	0	318767104	20	4664
2026-01-12 02:35:28.08	343.26	17.39	-29.4	-31.6	14.2	1.50e-06	0	41	0	324009984	20	4602
2026-01-12 02:35:31.10	342.63	17.54	-29.7	-32.2	13.8	3.80e-06	0	41	0	329252864	20	4812
2026-01-12 02:35:34.11	342.00	17.68	-29.7	-32.4	13.7	6.10e-06	0	41	0	335544320	20	4867
2026-01-12 02:35:37.13	341.36	17.82	-29.8	-32.5	13.6	9.90e-06	0	41	0	340787200	20	4907
2026-01-12 02:35:40.14	340.71	17.96	-29.8	-32.5	13.7	7.60e-06	0	41	0	346030080	20	4912
2026-01-12 02:35:43.15	340.06	18.09	-29.6	-32.1	13.9	6.80e-06	0	41	0	352321536	20	4751
2026-01-12 02:35:46.18	339.39	18.23	-29.3	-31.2	14.5	1.50e-06	0	41	0	357564416	20	4477
2026-01-12 02:35:49.19	338.73	18.35	-29.4	-31.4	14.4	7.00e-07	0	41	0	363855872	20	4525
2026-01-12 02:35:52.21	338.05	18.48	-29.2	-31.4	14.7	0.00e+00	0	41	0	369098752	19	4648
2026-01-12 02:35:55.23	337.38	18.60	-29.1	-31.1	15.0	0.00e+00	0	42	0	374341632	19	4531
2026-01-12 02:35:58.24	336.70	18.72	-29.1	-31.1	15.0	0.00e+00	0	41	0	380633088	19	4519
2026-01-12 02:36:01.26	336.01	18.83	-29.0	-30.8	15.1	0.00e+00	0	41	0	385875968	19	4440
2026-01-12 02:36:04.28	335.31	18.94	-28.8	-30.5	15.3	0.00e+00	0	42	0	392167424	19	4346
2026-01-12 02:36:07.29	334.62	19.05	-28.7	-30.7	15.5	0.00e+00	0	41	0	397410304	18	4509
2026-01-12 02:36:10.31	333.91	19.15	-28.7	-30.6	15.6	0.00e+00	0	41	0	402653184	18	4490
2026-01-12 02:36:13.34	333.20	19.25	-28.8	-30.9	15.4	0.00e+00	0	42	0	408944640	18	4581
2026-01-12 02:36:16.35	332.49	19.35	-28.9	-31.2	15.2	0.00e+00	0	42	0	414187520	18	4660
2026-01-12 02:36:19.37	331.77	19.44	-29.1	-31.6	14.9	0.00e+00	0	42	0	420478976	18	4804
2026-01-12 02:36:22.38	331.05	19.52	-29.1	-31.5	15.0	0.00e+00	0	42	0	425721856	18	4782
2026-01-12 02:36:25.40	330.33	19.60	-29.2	-32.0	14.7	0.00e+00	0	42	0	430964736	18	4925
2026-01-12 02:36:28.42	329.60	19.68	-29.5	-32.2	14.2	0.00e+00	0	42	0	437256192	19	4897
2026-01-12 02:36:31.44	328.86	19.75	-29.6	-32.5	14.1	1.50e-06	0	42	0	442499072	19	5005
2026-01-12 02:36:34.46	328.13	19.82	-30.1	-33.2	13.2	1.60e-05	0	41	0	448790528	20	5170
2026-01-12 02:36:37.48	327.39	19.88	-29.9	-32.6	13.6	5.30e-06	0	42	0	454033408	20	4957
2026-01-12 02:36:40.49	326.65	19.94	-29.8	-32.4	13.7	3.00e-06	0	41	0	459276288	20	4890
2026-01-12 02:36:43.52	325.90	19.99	-29.8	-32.4	13.8	7.60e-06	0	42	0	465567744	20	4863
2026-01-12 02:36:46.53	325.15	20.04	-29.9	-32.6	13.6	6.10e-06	0	41	0	470810624	20	4952
2026-01-12 02:36:49.55	324.40	20.08	-30.0	-33.0	13.4	1.60e-05	0	42	0	477102080	20	5108
2026-01-12 02:36:52.57	323.65	20.12	-30.2	-33.7	12.9	3.12e-05	0	42	0	482344960	20	5348
2026-01-12 02:36:55.59	322.90	20.15	-30.2	-33.6	13.0	4.73e-05	0	41	0	487587840	20	5306
2026-01-12 02:36:58.61	322.14	20.18	-30.1	-33.3	13.2	2.13e-05	0	41	0	493879296	20	5184
2026-01-12 02:37:01.62	321.39	20.20	-30.3	-33.9	12.8	6.40e-05	0	42	0	499122176	20	5454
2026-01-12 02:37:04.64	320.63	20.21	-30.3	-33.8	12.8	8.39e-05	0	42	0	505413632	20	5406
2026-01-12 02:37:07.65	319.87	20.22	-30.3	-33.7	12.9	6.17e-05	0	42	0	510656512	20	5373
2026-01-12 02:37:10.68	319.11	20.23	-30.1	-33.3	13.2	3.20e-05	0	42	0	515899392	20	5201
2026-01-12 02:37:13.70	318.35	20.23	-29.9	-32.9	13.4	1.37e-05	0	42	0	522190848	20	5043
2026-01-12 02:37:16.70	317.60	20.23	-30.0	-33.0	13.4	1.44e-05	0	41	0	527433728	20	5090
2026-01-12 02:37:19.72	316.84	20.22	-30.2	-33.7	12.9	4.42e-05	0	42	0	533725184	20	5374
2026-01-12 02:37:22.74	316.08	20.20	-30.3	-33.8	13.0	7.09e-05	0	42	0	538968064	20	5375
2026-01-12 02:37:25.76	315.33	20.18	-29.9	-32.8	13.5	9.90e-06	0	42	0	544210944	20	5001
2026-01-12 02:37:28.77	314.57	20.16	-29.6	-31.9	14.1	4.50e-06	0	42	0	550502400	20	4699
2026-01-12 02:37:31.79	313.82	20.12	-29.4	-31.4	14.4	0.00e+00	0	42	0	555745280	20	4547
2026-01-12 02:37:34.81	313.06	20.09	-29.3	-31.3	14.5	7.00e-07	0	42	0	562036736	20	4491
2026-01-12 02:37:37.83	312.31	20.05	-29.4	-31.4	14.4	0.00e+00	0	42	0	567279616	20	4532
2026-01-12 02:37:40.85	311.56	20.00	-29.3	-31.7	14.6	0.00e+00	0	41	0	572522496	19	4728
2026-01-12 02:37:43.87	310.82	19.95	-29.0	-31.0	15.0	0.00e+00	0	41	0	578813952	19	4504
2026-01-12 02:37:46.89	310.07	19.89	-28.8	-30.4	15.4	0.00e+00	0	42	0	584056832	19	4312
2026-01-12 02:37:49.90	309.33	19.83	-28.9	-30.7	15.2	0.00e+00	0	42	0	590348288	19	4414
2026-01-12 02:37:52.91	308.60	19.77	-29.0	-30.9	15.1	0.00e+00	0	41	0	595591168	19	4464
2026-01-12 02:37:55.94	307.86	19.70	-28.8	-30.4	15.3	0.00e+00	0	41	0	600834048	19	4319
2026-01-12 02:37:58.95	307.13	19.62	-28.7	-30.7	15.5	0.00e+00	0	42	0	607125504	18	4507
2026-01-12 02:38:01.97	306.40	19.54	-28.7	-30.5	15.6	0.00e+00	0	42	0	612368384	18	4468
2026-01-12 02:38:04.99	305.68	19.46	-28.9	-31.1	15.2	0.00e+00	0	42	0	618659840	18	4639
2026-01-12 02:38:08.01	304.96	19.37	-28.9	-31.2	15.1	0.00e+00	0	42	0	623902720	18	4691
2026-01-12 02:38:11.02	304.25	19.27	-29.0	-31.5	15.0	0.00e+00	0	42	0	629145600	18	4775
2026-01-12 02:38:14.04	303.54	19.18	-29.2	-31.9	14.7	7.00e-07	0	42	0	635437056	18	4920
2026-01-12 02:38:17.05	302.83	19.07	-29.3	-32.2	14.5	0.00e+00	0	42	0	640679936	18	5022
2026-01-12 02:38:20.06	302.13	18.97	-29.4	-32.3	14.4	0.00e+00	0	42	0	645922816	18	5064
2026-01-12 02:38:23.08	301.44	18.86	-29.5	-32.1	14.3	0.00e+00	0	42	0	652214272	19	4874
2026-01-12 02:38:26.10	300.74	18.75	-29.6	-32.4	14.1	0.00e+00	0	42	0	657457152	19	4970
2026-01-12 02:38:29.12	300.06	18.63	-29.6	-32.4	14.1	3.00e-06	0	42	0	663748608	19	4970
2026-01-12 02:38:32.13	299.38	18.51	-29.7	-32.8	13.8	3.80e-06	0	41	0	668991488	19	5121
2026-01-12 02:38:35.14	298.71	18.38	-29.8	-32.9	13.7	4.50e-06	0	42	0	674234368	19	5182
2026-01-12 02:38:38.17	298.03	18.26	-29.9	-33.4	13.4	1.22e-05	0	42	0	680525824	19	5347
2026-01-12 02:38:41.19	297.37	18.12	-30.1	-33.5	12.8	5.64e-05	0	42	0	685768704	20	5326
2026-01-12 02:38:44.21	296.71	17.99	-29.7	-32.3	13.6	3.80e-06	0	42	0	692060160	20	4874
2026-01-12 02:38:47.22	296.06	17.85	-30.1	-33.5	12.8	3.81e-05	0	42	0	697303040	20	5312
2026-01-12 02:38:50.24	295.42	17.71	-30.0	-33.0	13.2	2.59e-05	0	42	0	702545920	20	5093
2026-01-12 02:38:53.26	294.78	17.57	-29.5	-31.7	14.0	1.50e-06	0	42	0	708837376	20	4665
2026-01-12 02:38:56.28	294.14	17.42	-29.7	-32.2	13.7	7.60e-06	0	42	0	714080256	20	4833
2026-01-12 02:38:59.30	293.51	17.27	-29.9	-32.8	13.4	1.14e-05	0	42	0	720371712	20	5041
2026-01-12 02:39:02.32	292.89	17.12	-30.1	-33.3	13.0	3.35e-05	0	42	0	725614592	20	5233
2026-01-12 02:39:05.35	292.27	16.97	-30.0	-33.0	13.2	2.51e-05	0	42	0	730857472	20	5122
2026-01-12 02:39:08.36	291.67	16.81	-30.0	-33.1	13.0	4.11e-05	0	42	0	737148928	20	5170
2026-01-12 02:39:11.38	291.07	16.65	-30.2	-33.7	12.7	7.47e-05	0	42	0	742391808	20	5392
2026-01-12 02:39:14.40	290.47	16.49	-30.3	-34.2	12.3	1.71e-04	0	42	0	748683264	20	5608
2026-01-12 02:39:17.42	289.88	16.33	-30.2	-33.6	12.7	7.55e-05	0	42	0	753926144	20	5363
2026-01-12 02:39:20.43	289.30	16.16	-30.1	-33.6	12.7	1.02e-04	0	41	0	759169024	20	5335
2026-01-12 02:39:23.46	288.72	16.00	-30.0	-33.3	12.9	3.50e-05	0	42	0	765460480	20	5238
2026-01-12 02:39:26.48	288.15	15.83	-30.3	-34.0	12.4	1.20e-04	0	42	0	770703360	20	5515
2026-01-12 02:39:29.49	287.59	15.66	-30.2	-33.6	12.6	1.11e-04	0	42	0	776994816	20	5373
2026-01-12 02:39:32.51	287.03	15.49	-29.8	-32.8	13.2	1.98e-05	0	41	0	782237696	20	5047
2026-01-12 02:39:35.53	286.48	15.31	-29.9	-32.8	13.2	1.83e-05	0	42	0	787480576	20	5059
2026-01-12 02:39:38.55	285.93	15.14	-30.3	-34.1	12.3	1.57e-04	0	42	0	793772032	20	5585
2026-01-12 02:39:41.57	285.40	14.96	-30.6	-34.6	11.6	6.14e-04	0	42	0	799014912	21	5704
2026-01-12 02:39:44.59	284.86	14.78	-30.3	-33.6	12.2	2.46e-04	0	42	0	805306368	21	5283
2026-01-12 02:39:47.61	284.34	14.61	-30.4	-34.0	12.0	2.82e-04	0	42	0	810549248	21	5435
2026-01-12 02:39:50.62	283.82	14.43	-30.5	-34.1	11.9	4.97e-04	0	42	0	815792128	21	5485
2026-01-12 02:39:53.64	283.31	14.25	-30.3	-33.6	12.2	2.63e-04	0	42	0	822083584	21	5299
2026-01-12 02:39:56.64	282.81	14.07	-30.2	-33.5	12.3	1.49e-04	0	42	0	827326464	21	5232
2026-01-12 02:39:59.67	282.30	13.88	-30.5	-34.2	11.7	6.03e-04	0	42	0	833617920	21	5550
2026-01-12 02:40:02.68	281.81	13.70	-30.7	-34.8	11.3	9.20e-04	0	42	0	838860800	21	5801
2026-01-12 02:40:05.69	281.33	13.52	-30.5	-34.2	11.8	4.66e-04	0	42	0	844103680	21	5516
2026-01-12 02:40:08.71	280.84	13.33	-30.2	-33.5	12.2	2.02e-04	0	42	0	850395136	21	5250
2026-01-12 02:40:11.73	280.37	13.15	-30.7	-34.9	11.2	9.52e-04	0	42	0	855638016	21	5829
2026-01-12 02:40:14.75	279.90	12.96	-30.3	-33.7	12.1	3.93e-04	0	42	0	861929472	21	5328
2026-01-12 02:40:17.77	279.43	12.78	-30.0	-32.8	12.7	1.11e-04	0	42	0	867172352	21	4979
2026-01-12 02:40:20.78	278.98	12.59	-29.9	-32.5	12.8	5.03e-05	0	42	0	872415232	21	4866
2026-01-12 02:40:23.80	278.53	12.40	-30.1	-33.0	12.6	7.47e-05	0	42	0	878706688	21	5051
2026-01-12 02:40:26.82	278.08	12.22	-29.8	-32.4	13.0	4.95e-05	0	42	0	883949568	21	4822
2026-01-12 02:40:29.83	277.64	12.03	-29.8	-32.7	13.0	3.81e-05	0	42	0	890241024	20	5050
2026-01-12 02:40:32.85	277.21	11.84	-29.8	-32.8	13.0	3.20e-05	0	42	0	895483904	20	5068
2026-01-12 02:40:35.88	276.78	11.66	-29.8	-32.9	12.9	4.04e-05	0	42	0	900726784	20	5115
2026-01-12 02:40:38.89	276.35	11.47	-29.8	-32.8	13.0	3.35e-05	0	42	0	907018240	20	5067
2026-01-12 02:40:41.90	275.94	11.28	-30.0	-33.4	12.5	9.15e-05	0	42	0	912261120	20	5339
2026-01-12 02:40:44.92	275.52	11.09	-30.0	-33.4	12.5	1.38e-04	0	42	0	918552576	20	5298
2026-01-12 02:40:47.93	275.12	10.91	-30.0	-33.3	12.6	1.26e-04	0	42	0	923795456	20	5285
2026-01-12 02:40:50.94	274.72	10.72	-30.1	-33.8	12.2	2.21e-04	0	42	0	929038336	20	5484
2026-01-12 02:40:53.96	274.32	10.53	-30.2	-34.0	12.1	1.07e-04	0	42	0	935329792	20	5558
2026-01-12 02:40:56.99	273.93	10.34	-30.3	-33.7	11.9	6.94e-04	0	42	0	940572672	21	5327
2026-01-12 02:41:00.01	273.54	10.16	-29.8	-32.7	12.9	7.55e-05	0	42	0	946864128	20	5059
2026-01-12 02:41:03.03	273.16	9.97	-29.9	-33.1	12.7	5.87e-05	0	42	0	952107008	20	5208
2026-01-12 02:41:06.04	272.78	9.78	-29.9	-33.3	12.5	8.69e-05	0	42	0	957349888	20	5284
2026-01-12 02:41:09.05	272.41	9.60	-29.8	-32.8	12.8	6.33e-05	0	42	0	963641344	20	5101
2026-01-12 02:41:12.08	272.04	9.41	-29.7	-32.7	12.8	5.64e-05	0	42	0	968884224	20	5071
2026-01-12 02:41:15.09	271.68	9.22	-29.6	-32.4	13.0	3.43e-05	0	42	0	974127104	20	4975
2026-01-12 02:41:18.10	271.32	9.04	-29.7	-32.6	12.8	3.05e-05	0	42	0	980418560	20	5023
2026-01-12 02:41:21.11	270.97	8.85	-29.6	-32.2	13.1	2.97e-05	0	42	0	985661440	20	4894
2026-01-12 02:41:24.13	270.62	8.67	-29.8	-32.9	12.6	6.86e-05	0	42	0	991952896	20	5161
2026-01-12 02:41:27.14	270.28	8.48	-29.9	-33.1	12.4	1.33e-04	0	42	0	997195776	20	5251
2026-01-12 02:41:30.16	269.94	8.30	-30.0	-33.5	12.2	2.90e-04	0	42	0	1002438656	20	5382
2026-01-12 02:41:33.18	269.60	8.11	-30.0	-33.5	12.1	2.80e-04	0	42	0	1008730112	20	5415
2026-01-12 02:41:36.20	269.27	7.93	-30.1	-33.8	11.8	3.96e-04	0	42	0	1013972992	20	5550
2026-01-12 02:41:39.22	268.95	7.75	-30.1	-34.0	11.7	6.50e-04	0	42	0	1020264448	20	5636
2026-01-12 02:41:42.24	268.62	7.56	-30.3	-34.6	11.3	1.36e-03	0	42	0	1025507328	20	5912
2026-01-12 02:41:45.26	268.31	7.38	-30.3	-34.6	11.2	1.32e-03	0	42	0	1030750208	20	5909
2026-01-12 02:41:48.27	267.99	7.20	-30.3	-34.7	11.1	1.58e-03	0	42	0	1037041664	20	5983
2026-01-12 02:41:51.28	267.68	7.02	-32.9	-47.4	3.8	1.49e+00	0	42	104	1041235968	25	19026

#Closed at: 2026-01-12 02:41:52
#Recorded file [1041 MB]: D:/data/31010_260112_053234.dat