passes_logs/2026/01/12/R2M6_AANII_01/R2M6_AANII_01__20260112_104441_NOAA_20_JPSS-1_rec.log

#Pass ID: 20260112_104441_NOAA 20 (JPSS-1)
#Satellite: NOAA 20 (JPSS-1)
#Configuration: NOAA 20
#almurnet v.1.7.20240730
#Start time: 2026-01-12 10:44:42

#Version: 2.2.20231116
#Station: R2M6_AANII_01
#Location: 30.233357 lon 59.946436 lat
#TLE: 1 43013U 17073A   26011.31235446  .00000090  00000+0  63634-4 0  9991
#TLE: 2 43013  98.7632 312.2907 0001646  44.6084 315.5224 14.19535308422217

#Time	Az	El	Level	Level2	SNR	BER	BlckErr	Temp	State	Recorded	gain1	gain2
2026-01-12 10:44:42.54	173.46	7.05	-30.6	-35.3	5.4	1.21e+00	0	39	0	0	21	6231
2026-01-12 10:44:45.55	173.54	7.28	-31.0	-35.9	8.9	3.68e-02	0	40	0	1048576	23	6321
2026-01-12 10:44:48.57	173.63	7.51	-30.3	-33.8	11.0	3.13e-03	0	40	0	7340032	22	5351
2026-01-12 10:44:51.58	173.72	7.75	-29.8	-32.6	12.2	2.53e-04	0	40	0	12582912	21	4973
2026-01-12 10:44:54.59	173.81	7.99	-29.7	-32.8	12.5	1.50e-04	0	40	0	18874368	20	5124
2026-01-12 10:44:57.59	173.90	8.23	-29.6	-32.6	12.7	1.04e-04	0	40	0	24117248	20	5053
2026-01-12 10:45:00.60	174.00	8.47	-29.6	-32.4	12.9	6.17e-05	0	40	0	29360128	20	4971
2026-01-12 10:45:03.62	174.09	8.71	-29.7	-32.6	12.7	9.07e-05	0	40	0	35651584	20	5044
2026-01-12 10:45:06.64	174.19	8.96	-29.6	-32.6	12.8	1.19e-04	0	40	0	40894464	20	5033
2026-01-12 10:45:09.65	174.28	9.21	-29.6	-32.5	12.8	4.88e-05	0	40	0	46137344	20	4997
2026-01-12 10:45:12.66	174.38	9.46	-29.6	-32.4	13.0	3.58e-05	0	40	0	52428800	20	4959
2026-01-12 10:45:15.67	174.48	9.72	-29.4	-31.9	13.3	2.28e-05	0	40	0	57671680	20	4778
2026-01-12 10:45:18.68	174.59	9.97	-29.5	-32.1	13.1	2.74e-05	0	41	0	63963136	20	4862
2026-01-12 10:45:21.69	174.69	10.23	-29.5	-32.0	13.2	4.27e-05	0	40	0	69206016	20	4830
2026-01-12 10:45:24.70	174.79	10.49	-29.5	-32.0	13.3	1.98e-05	0	41	0	74448896	20	4807
2026-01-12 10:45:27.72	174.90	10.76	-29.5	-32.1	13.2	4.88e-05	0	41	0	80740352	20	4847
2026-01-12 10:45:30.74	175.01	11.03	-29.4	-31.8	13.5	6.80e-06	0	41	0	85983232	20	4726
2026-01-12 10:45:33.75	175.12	11.30	-29.5	-32.1	13.3	3.35e-05	0	41	0	92274688	20	4863
2026-01-12 10:45:36.77	175.24	11.57	-29.6	-32.4	13.1	2.67e-05	0	41	0	97517568	20	4943
2026-01-12 10:45:39.78	175.35	11.85	-29.7	-32.5	13.1	5.41e-05	0	41	0	102760448	20	4982
2026-01-12 10:45:42.79	175.47	12.13	-29.6	-32.2	13.3	1.75e-05	0	41	0	109051904	20	4868
2026-01-12 10:45:45.80	175.59	12.41	-29.3	-31.8	14.0	1.50e-06	0	41	0	114294784	19	4826
2026-01-12 10:45:48.82	175.71	12.70	-29.2	-31.6	14.1	7.00e-07	0	41	0	119537664	19	4747
2026-01-12 10:45:51.83	175.83	12.99	-29.3	-31.7	14.0	2.20e-06	0	41	0	125829120	19	4797
2026-01-12 10:45:54.85	175.96	13.28	-29.3	-31.9	14.0	7.00e-07	0	41	0	131072000	19	4859
2026-01-12 10:45:57.86	176.08	13.58	-29.3	-31.9	14.0	5.30e-06	0	41	0	137363456	19	4836
2026-01-12 10:46:00.87	176.21	13.88	-29.4	-32.1	13.9	3.80e-06	0	41	0	142606336	19	4913
2026-01-12 10:46:03.87	176.35	14.18	-29.5	-32.5	13.6	9.10e-06	0	41	0	147849216	19	5056
2026-01-12 10:46:06.89	176.48	14.49	-29.7	-32.9	13.4	1.60e-05	0	41	0	154140672	19	5201
2026-01-12 10:46:09.90	176.62	14.80	-29.7	-32.8	13.5	1.60e-05	0	41	0	159383552	19	5166
2026-01-12 10:46:12.91	176.76	15.11	-29.6	-32.6	13.6	8.30e-06	0	41	0	165675008	19	5077
2026-01-12 10:46:15.92	176.90	15.43	-29.6	-32.6	13.6	6.80e-06	0	42	0	170917888	19	5082
2026-01-12 10:46:18.93	177.05	15.75	-29.6	-32.7	13.6	1.22e-05	0	41	0	176160768	19	5140
2026-01-12 10:46:21.95	177.20	16.08	-29.9	-33.4	13.1	2.36e-05	0	41	0	182452224	19	5400
2026-01-12 10:46:24.96	177.35	16.41	-30.1	-33.6	12.6	1.07e-04	0	41	0	187695104	20	5384
2026-01-12 10:46:27.98	177.51	16.75	-30.2	-34.0	12.3	1.68e-04	0	42	0	192937984	20	5569
2026-01-12 10:46:30.99	177.67	17.09	-30.3	-34.1	12.3	2.62e-04	0	41	0	199229440	20	5603
2026-01-12 10:46:34.00	177.83	17.43	-29.9	-32.9	13.1	3.81e-05	0	41	0	204472320	20	5124
2026-01-12 10:46:37.02	177.99	17.78	-29.8	-32.6	13.3	2.97e-05	0	41	0	210763776	20	5008
2026-01-12 10:46:40.04	178.16	18.14	-29.8	-32.8	13.2	3.58e-05	0	42	0	216006656	20	5065
2026-01-12 10:46:43.04	178.34	18.50	-29.7	-32.5	13.4	1.06e-05	0	41	0	221249536	20	4957
2026-01-12 10:46:46.06	178.51	18.86	-29.8	-32.7	13.3	1.14e-05	0	42	0	227540992	20	5041
2026-01-12 10:46:49.06	178.69	19.23	-29.9	-33.0	13.1	2.21e-05	0	41	0	232783872	20	5144
2026-01-12 10:46:52.08	178.88	19.61	-29.9	-32.9	13.2	2.36e-05	0	42	0	239075328	20	5100
2026-01-12 10:46:55.10	179.07	19.99	-29.9	-33.0	13.2	2.82e-05	0	41	0	244318208	20	5132
2026-01-12 10:46:58.12	179.26	20.38	-29.8	-32.6	13.5	1.52e-05	0	42	0	249561088	20	4974
2026-01-12 10:47:01.14	179.46	20.77	-29.9	-32.7	13.4	1.29e-05	0	42	0	255852544	20	5021
2026-01-12 10:47:04.15	179.67	21.17	-29.8	-32.5	13.5	6.10e-06	0	42	0	261095424	20	4950
2026-01-12 10:47:07.17	179.88	21.57	-29.8	-32.6	13.5	1.14e-05	0	41	0	267386880	20	4968
2026-01-12 10:47:10.18	180.09	21.98	-29.7	-32.4	13.6	9.90e-06	0	42	0	272629760	20	4885
2026-01-12 10:47:13.19	180.31	22.40	-29.7	-32.1	13.8	4.50e-06	0	42	0	277872640	20	4795
2026-01-12 10:47:16.20	180.54	22.82	-29.6	-32.0	13.9	4.50e-06	0	42	0	284164096	20	4759
2026-01-12 10:47:19.21	180.77	23.25	-29.6	-32.0	13.9	1.50e-06	0	42	0	289406976	20	4733
2026-01-12 10:47:22.21	181.00	23.68	-29.5	-31.7	14.1	1.50e-06	0	42	0	294649856	20	4648
2026-01-12 10:47:25.23	181.25	24.13	-29.5	-31.8	14.1	3.00e-06	0	42	0	300941312	20	4678
2026-01-12 10:47:28.25	181.50	24.58	-29.4	-31.6	14.3	1.50e-06	0	42	0	306184192	20	4588
2026-01-12 10:47:31.25	181.76	25.03	-29.3	-31.2	14.5	0.00e+00	0	42	0	312475648	20	4464
2026-01-12 10:47:34.27	182.02	25.50	-29.3	-31.5	14.7	0.00e+00	0	42	0	317718528	19	4667
2026-01-12 10:47:37.28	182.29	25.97	-29.2	-31.4	14.8	0.00e+00	0	42	0	322961408	19	4641
2026-01-12 10:47:40.29	182.57	26.45	-29.3	-31.6	14.7	0.00e+00	0	41	0	329252864	19	4691
2026-01-12 10:47:43.30	182.86	26.94	-29.3	-31.7	14.7	7.00e-07	0	42	0	334495744	19	4717
2026-01-12 10:47:46.32	183.16	27.44	-29.3	-31.6	14.7	0.00e+00	0	42	0	340787200	19	4709
2026-01-12 10:47:49.34	183.47	27.95	-29.3	-31.5	14.8	0.00e+00	0	42	0	346030080	19	4653
2026-01-12 10:47:52.36	183.79	28.46	-29.4	-31.8	14.6	0.00e+00	0	42	0	351272960	19	4758
2026-01-12 10:47:55.38	184.11	28.98	-29.7	-32.6	14.1	2.20e-06	0	42	0	357564416	19	5024
2026-01-12 10:47:58.38	184.45	29.51	-30.0	-32.9	13.5	8.30e-06	0	42	0	362807296	20	5042
2026-01-12 10:48:01.40	184.80	30.05	-30.1	-33.1	13.4	1.06e-05	0	42	0	369098752	20	5133
2026-01-12 10:48:04.41	185.16	30.60	-30.1	-33.4	13.3	2.05e-05	0	42	0	374341632	20	5211
2026-01-12 10:48:07.43	185.53	31.16	-30.4	-34.0	12.8	5.72e-05	0	42	0	379584512	20	5481
2026-01-12 10:48:10.44	185.91	31.73	-30.8	-34.7	12.0	3.07e-04	0	42	0	385875968	21	5640
2026-01-12 10:48:13.45	186.31	32.31	-30.8	-34.9	11.9	3.37e-04	0	42	0	391118848	21	5717
2026-01-12 10:48:16.47	186.72	32.90	-30.8	-34.7	12.1	2.69e-04	0	42	0	397410304	21	5651
2026-01-12 10:48:19.49	187.15	33.50	-30.9	-34.6	11.8	6.68e-04	0	42	0	402653184	22	5498
2026-01-12 10:48:22.51	187.59	34.11	-30.9	-34.5	11.9	2.58e-04	0	42	0	407896064	22	5433
2026-01-12 10:48:25.53	188.05	34.73	-31.0	-34.7	11.8	3.36e-04	0	42	0	414187520	22	5512
2026-01-12 10:48:28.55	188.53	35.36	-31.2	-35.4	11.3	7.67e-04	0	42	0	419430400	22	5839
2026-01-12 10:48:31.57	189.02	36.00	-31.0	-34.7	11.8	5.84e-04	0	42	0	425721856	22	5537
2026-01-12 10:48:34.59	189.54	36.65	-30.9	-34.6	11.9	3.35e-04	0	42	0	430964736	22	5488
2026-01-12 10:48:37.60	190.07	37.31	-31.1	-35.1	11.5	7.93e-04	0	42	0	436207616	22	5687
2026-01-12 10:48:40.62	190.63	37.99	-31.3	-35.7	11.1	1.69e-03	0	42	0	442499072	22	5985
2026-01-12 10:48:43.64	191.21	38.67	-31.5	-36.3	10.7	2.45e-03	0	42	0	447741952	22	6261
2026-01-12 10:48:46.65	191.82	39.36	-31.4	-35.5	10.9	1.90e-03	0	42	0	454033408	23	5763
2026-01-12 10:48:49.67	192.45	40.07	-31.2	-34.7	11.5	9.17e-04	0	42	0	459276288	23	5413
2026-01-12 10:48:52.69	193.11	40.78	-31.2	-34.7	11.5	7.66e-04	0	42	0	464519168	23	5419
2026-01-12 10:48:55.70	193.79	41.50	-30.5	-33.2	12.9	7.62e-05	0	42	0	470810624	22	4907
2026-01-12 10:48:58.73	194.51	42.24	-30.1	-32.6	13.5	1.83e-05	0	42	0	476053504	21	4820
2026-01-12 10:49:01.74	195.26	42.98	-30.0	-32.5	13.7	6.10e-06	0	42	0	482344960	21	4757
2026-01-12 10:49:04.75	196.05	43.73	-30.3	-33.1	13.4	1.06e-05	0	42	0	487587840	21	4963
2026-01-12 10:49:07.76	196.87	44.49	-30.4	-33.4	13.1	4.27e-05	0	42	0	492830720	21	5079
2026-01-12 10:49:10.79	197.74	45.27	-30.3	-33.1	13.3	2.59e-05	0	42	0	499122176	21	4981
2026-01-12 10:49:13.80	198.64	46.04	-31.0	-35.1	12.1	2.25e-04	0	42	0	504365056	21	5768
2026-01-12 10:49:16.81	199.59	46.83	-31.1	-35.1	11.7	5.56e-04	0	42	0	509607936	22	5665
2026-01-12 10:49:19.81	200.59	47.61	-30.6	-33.6	12.8	1.80e-04	0	42	0	515899392	22	5044
2026-01-12 10:49:22.82	201.64	48.40	-30.4	-32.8	13.4	2.59e-05	0	42	0	521142272	22	4771
2026-01-12 10:49:25.85	202.75	49.21	-30.8	-33.9	12.6	1.27e-04	0	42	0	527433728	22	5173
2026-01-12 10:49:28.86	203.91	50.01	-30.0	-32.4	13.9	3.00e-06	0	42	0	532676608	21	4725
2026-01-12 10:49:31.87	205.14	50.81	-29.9	-32.5	14.2	2.20e-06	0	42	0	537919488	20	4848
2026-01-12 10:49:34.89	206.44	51.61	-29.0	-30.7	15.7	0.00e+00	0	42	0	544210944	19	4377
2026-01-12 10:49:37.91	207.80	52.41	-28.8	-30.2	15.9	0.00e+00	0	42	0	549453824	19	4232
2026-01-12 10:49:40.93	209.24	53.21	-28.7	-30.5	16.1	0.00e+00	0	42	0	555745280	18	4422
2026-01-12 10:49:43.93	210.76	53.99	-28.4	-29.8	16.5	0.00e+00	0	42	0	560988160	18	4220
2026-01-12 10:49:46.96	212.37	54.78	-29.0	-31.3	15.7	0.00e+00	0	42	0	566231040	18	4664
2026-01-12 10:49:49.97	214.06	55.54	-29.8	-32.7	14.5	0.00e+00	0	42	0	572522496	19	5026
2026-01-12 10:49:52.98	215.84	56.30	-29.7	-32.5	14.6	0.00e+00	0	42	0	577765376	19	4938
2026-01-12 10:49:55.99	217.72	57.03	-30.3	-33.6	13.5	1.06e-05	0	42	0	584056832	20	5269
2026-01-12 10:49:59.00	219.70	57.74	-30.5	-33.6	13.3	9.90e-06	0	42	0	589299712	21	5159
2026-01-12 10:50:02.01	221.78	58.43	-30.5	-33.7	13.2	9.90e-06	0	42	0	594542592	21	5161
2026-01-12 10:50:05.03	223.98	59.09	-29.9	-31.9	14.3	3.00e-06	0	42	0	600834048	21	4532
2026-01-12 10:50:08.03	226.28	59.71	-29.2	-31.0	15.6	0.00e+00	0	42	0	606076928	19	4468
2026-01-12 10:50:11.05	228.69	60.30	-28.9	-31.0	15.9	7.00e-07	0	42	0	611319808	18	4572
2026-01-12 10:50:14.05	231.21	60.85	-29.0	-31.1	15.8	0.00e+00	0	42	0	617611264	18	4582
2026-01-12 10:50:17.07	233.84	61.35	-29.1	-31.4	15.6	0.00e+00	0	42	0	622854144	18	4696
2026-01-12 10:50:20.09	236.58	61.80	-28.9	-30.8	15.9	0.00e+00	0	42	0	629145600	18	4520
2026-01-12 10:50:23.10	239.40	62.20	-28.9	-30.9	15.9	0.00e+00	0	42	0	634388480	18	4529
2026-01-12 10:50:26.11	242.31	62.53	-28.8	-30.7	16.1	0.00e+00	0	42	0	639631360	18	4478
2026-01-12 10:50:29.12	245.29	62.81	-29.6	-32.2	14.8	0.00e+00	0	42	0	645922816	19	4835
2026-01-12 10:50:32.13	248.33	63.02	-29.2	-31.7	15.5	0.00e+00	0	42	0	651165696	18	4772
2026-01-12 10:50:35.14	251.42	63.16	-28.9	-30.4	15.9	0.00e+00	0	42	0	657457152	19	4289
2026-01-12 10:50:38.16	254.54	63.23	-29.1	-31.4	15.6	0.00e+00	0	42	0	662700032	18	4693
2026-01-12 10:50:41.18	257.67	63.24	-27.9	-29.1	17.3	0.00e+00	0	42	0	667942912	17	4109
2026-01-12 10:50:44.20	260.80	63.17	-27.9	-29.1	17.2	0.00e+00	0	42	0	674234368	17	4112
2026-01-12 10:50:47.21	263.89	63.04	-28.2	-29.8	16.9	0.00e+00	0	42	0	679477248	17	4306
2026-01-12 10:50:50.23	266.95	62.84	-28.2	-29.6	16.9	0.00e+00	0	42	0	684720128	17	4267
2026-01-12 10:50:53.24	269.93	62.57	-28.0	-29.3	17.1	0.00e+00	0	42	0	691011584	17	4188
2026-01-12 10:50:56.25	272.85	62.24	-28.4	-30.3	16.6	0.00e+00	0	42	0	696254464	17	4460
2026-01-12 10:50:59.27	275.68	61.85	-28.7	-31.0	16.2	0.00e+00	0	42	0	702545920	17	4662
2026-01-12 10:51:02.28	278.42	61.41	-29.7	-32.5	14.7	0.00e+00	0	42	0	707788800	19	4940
2026-01-12 10:51:05.31	281.07	60.91	-29.5	-32.0	15.0	7.00e-07	0	42	0	713031680	19	4775
2026-01-12 10:51:08.33	283.61	60.37	-30.0	-32.7	14.1	4.50e-06	0	42	0	719323136	20	4924
2026-01-12 10:51:11.34	286.03	59.78	-29.9	-32.6	14.2	1.50e-06	0	42	0	724566016	20	4903
2026-01-12 10:51:14.36	288.34	59.16	-30.6	-33.9	13.1	3.28e-05	0	42	0	730857472	21	5243
2026-01-12 10:51:17.37	290.54	58.51	-30.1	-32.5	13.8	1.98e-05	0	42	0	736100352	21	4781
2026-01-12 10:51:20.39	292.64	57.82	-29.9	-32.5	14.3	0.00e+00	0	42	0	741343232	20	4842
2026-01-12 10:51:23.41	294.64	57.11	-29.6	-31.7	14.8	0.00e+00	0	42	0	747634688	20	4571
2026-01-12 10:51:26.42	296.52	56.38	-29.2	-31.1	15.5	0.00e+00	0	42	0	752877568	19	4487
2026-01-12 10:51:29.43	298.31	55.64	-28.4	-29.6	16.7	0.00e+00	0	42	0	759169024	18	4159
2026-01-12 10:51:32.44	300.01	54.87	-27.8	-29.2	17.4	0.00e+00	0	42	0	764411904	16	4266
2026-01-12 10:51:35.46	301.62	54.10	-27.9	-29.6	17.2	0.00e+00	0	42	0	769654784	16	4367
2026-01-12 10:51:38.48	303.15	53.31	-26.7	-28.0	18.5	0.00e+00	0	42	0	775946240	14	4144
2026-01-12 10:51:41.50	304.59	52.52	-27.6	-29.3	17.5	0.00e+00	0	42	0	781189120	15	4406
2026-01-12 10:51:44.50	305.96	51.73	-27.4	-29.0	17.6	0.00e+00	0	42	0	787480576	15	4328
2026-01-12 10:51:47.51	307.25	50.93	-29.3	-32.0	15.3	0.00e+00	0	42	0	792723456	18	4876
2026-01-12 10:51:50.52	308.48	50.13	-29.4	-32.2	15.1	2.20e-06	0	42	0	797966336	18	4943
2026-01-12 10:51:53.53	309.65	49.33	-31.7	-36.1	10.8	2.21e-03	0	42	0	804257792	23	6006
2026-01-12 10:51:56.53	310.76	48.54	-31.6	-35.7	11.1	1.22e-03	0	42	0	809500672	23	5820
2026-01-12 10:51:59.54	311.81	47.75	-32.1	-36.9	9.8	5.77e-03	0	42	0	814743552	24	6304
2026-01-12 10:52:02.55	312.81	46.97	-32.0	-36.3	9.8	2.27e-02	0	42	0	821035008	25	5912
2026-01-12 10:52:05.57	313.77	46.18	-32.3	-37.9	9.1	1.58e-02	0	42	0	826277888	24	6885
2026-01-12 10:52:08.59	314.68	45.41	-31.3	-34.7	11.8	1.01e-03	0	42	0	832569344	23	5375
2026-01-12 10:52:11.60	315.55	44.64	-32.0	-36.8	9.9	8.46e-03	0	42	0	837812224	24	6245
2026-01-12 10:52:14.61	316.38	43.89	-30.8	-33.5	12.6	1.99e-04	0	42	0	843055104	23	4892
2026-01-12 10:52:17.63	317.17	43.13	-30.9	-34.1	12.6	2.58e-04	0	42	0	849346560	22	5215
2026-01-12 10:52:20.65	317.92	42.39	-30.5	-33.1	13.2	1.98e-05	0	42	0	854589440	22	4856
2026-01-12 10:52:23.66	318.64	41.66	-29.4	-31.2	15.0	0.00e+00	0	42	0	860880896	20	4421
2026-01-12 10:52:26.67	319.33	40.94	-30.6	-33.8	13.0	4.50e-06	0	42	0	866123776	21	5243
2026-01-12 10:52:29.67	319.99	40.23	-30.7	-33.8	12.7	2.81e-04	0	42	0	871366656	22	5119
2026-01-12 10:52:32.69	320.63	39.53	-29.3	-31.3	15.3	0.00e+00	0	42	0	877658112	19	4549
2026-01-12 10:52:35.69	321.23	38.84	-30.6	-33.9	12.9	2.74e-05	0	42	0	882900992	21	5285
2026-01-12 10:52:38.70	321.81	38.16	-30.9	-34.2	12.4	2.66e-04	0	42	0	888143872	22	5287
2026-01-12 10:52:41.72	322.37	37.49	-29.0	-30.7	15.7	7.00e-07	0	42	0	894435328	19	4359
2026-01-12 10:52:44.73	322.91	36.84	-29.4	-31.6	15.1	0.00e+00	0	42	0	899678208	19	4665
2026-01-12 10:52:47.74	323.43	36.19	-30.8	-34.5	12.6	5.03e-05	0	42	0	905969664	21	5515
2026-01-12 10:52:50.76	323.92	35.55	-30.6	-34.0	12.9	8.08e-05	0	42	0	911212544	21	5300
2026-01-12 10:52:53.77	324.40	34.92	-30.7	-34.2	12.7	2.59e-05	0	42	0	916455424	21	5392
2026-01-12 10:52:56.79	324.87	34.30	-31.1	-34.7	12.0	2.29e-04	0	42	0	922746880	22	5492
2026-01-12 10:52:59.80	325.31	33.70	-31.4	-35.2	11.3	1.08e-03	0	42	0	927989760	23	5591
2026-01-12 10:53:02.81	325.74	33.10	-31.5	-35.8	10.9	2.97e-03	0	42	0	934281216	23	5851
2026-01-12 10:53:05.83	326.15	32.51	-31.2	-34.8	11.7	5.31e-04	0	42	0	939524096	23	5405
2026-01-12 10:53:08.84	326.55	31.93	-31.1	-34.4	11.9	3.81e-04	0	42	0	944766976	23	5274
2026-01-12 10:53:11.86	326.94	31.37	-30.8	-33.6	12.5	2.08e-04	0	42	0	951058432	23	4950
2026-01-12 10:53:14.87	327.31	30.81	-30.8	-33.9	12.7	8.62e-05	0	42	0	956301312	22	5159
2026-01-12 10:53:17.89	327.68	30.26	-31.1	-34.8	11.9	1.74e-04	0	42	0	962592768	22	5509
2026-01-12 10:53:20.90	328.03	29.72	-31.4	-35.7	11.3	7.27e-04	0	42	0	967835648	22	5949
2026-01-12 10:53:23.92	328.37	29.19	-31.3	-35.6	11.4	1.17e-03	0	42	0	973078528	22	5899
2026-01-12 10:53:26.93	328.70	28.67	-31.0	-34.7	12.1	3.46e-04	0	42	0	979369984	22	5480
2026-01-12 10:53:29.94	329.01	28.16	-30.9	-34.2	12.4	1.82e-04	0	42	0	984612864	22	5274
2026-01-12 10:53:32.95	329.32	27.65	-30.8	-34.1	12.5	1.20e-04	0	42	0	989855744	22	5225
2026-01-12 10:53:35.98	329.62	27.15	-30.7	-33.8	12.6	9.30e-05	0	42	0	996147200	22	5131
2026-01-12 10:53:38.98	329.91	26.67	-30.5	-33.2	13.0	4.27e-05	0	42	0	1001390080	22	4914
2026-01-12 10:53:41.99	330.20	26.19	-30.6	-33.3	12.9	1.44e-05	0	42	0	1007681536	22	4954
2026-01-12 10:53:45.00	330.47	25.72	-30.4	-32.8	13.3	2.59e-05	0	42	0	1012924416	22	4761
2026-01-12 10:53:48.02	330.74	25.25	-30.1	-32.8	13.4	8.09e-04	0	42	0	1018167296	21	4903
2026-01-12 10:53:51.04	331.00	24.79	-30.0	-32.7	13.4	6.12e-03	0	42	0	1024458752	21	4867
2026-01-12 10:53:54.05	331.25	24.34	-29.8	-32.5	13.8	6.50e-03	0	42	0	1029701632	20	4936
2026-01-12 10:53:57.07	331.50	23.90	-29.8	-32.7	13.6	7.70e-03	0	42	0	1035993088	20	5024
2026-01-12 10:54:00.07	331.74	23.47	-29.9	-32.7	14.0	3.00e-06	0	42	0	1041235968	20	4940
2026-01-12 10:54:03.08	331.97	23.04	-30.1	-33.2	13.6	1.37e-05	0	42	0	1046478848	20	5120
2026-01-12 10:54:06.09	332.20	22.62	-30.0	-32.8	13.8	4.50e-06	0	42	0	1052770304	20	4997
2026-01-12 10:54:09.11	332.42	22.20	-29.9	-32.7	13.6	4.69e-03	0	42	0	1058013184	20	4972
2026-01-12 10:54:12.13	332.64	21.79	-29.5	-31.5	14.4	2.88e-03	0	42	0	1063256064	20	4568
2026-01-12 10:54:15.15	332.85	21.39	-29.3	-31.5	14.7	2.45e-03	0	42	0	1069547520	19	4657
2026-01-12 10:54:18.16	333.06	20.99	-29.2	-31.4	14.8	1.00e-03	0	42	0	1074790400	19	4605
2026-01-12 10:54:21.17	333.26	20.60	-28.9	-30.6	15.1	9.33e-04	0	42	0	1081081856	19	4386
2026-01-12 10:54:24.18	333.46	20.21	-28.9	-30.6	15.2	1.18e-03	0	42	0	1086324736	19	4376
2026-01-12 10:54:27.19	333.65	19.83	-29.0	-30.8	15.1	1.11e-03	0	42	0	1091567616	19	4437
2026-01-12 10:54:30.20	333.83	19.46	-29.2	-31.2	15.1	0.00e+00	0	42	0	1097859072	19	4559
2026-01-12 10:54:33.21	334.02	19.09	-29.2	-31.3	15.0	0.00e+00	0	42	0	1103101952	19	4579
2026-01-12 10:54:36.22	334.20	18.73	-29.3	-31.5	14.9	7.00e-07	0	42	0	1109393408	19	4645
2026-01-12 10:54:39.24	334.37	18.37	-29.1	-31.1	15.1	0.00e+00	0	42	0	1114636288	19	4535
2026-01-12 10:54:42.26	334.55	18.01	-29.2	-31.2	15.0	0.00e+00	0	42	0	1119879168	19	4554
2026-01-12 10:54:45.28	334.71	17.66	-29.2	-31.4	14.9	0.00e+00	0	42	0	1126170624	19	4620
2026-01-12 10:54:48.29	334.88	17.32	-29.4	-31.8	14.6	0.00e+00	0	42	0	1131413504	19	4769
2026-01-12 10:54:51.29	335.04	16.98	-29.3	-31.6	14.7	0.00e+00	0	42	0	1137704960	19	4691
2026-01-12 10:54:54.31	335.20	16.65	-29.4	-31.8	14.6	7.00e-07	0	42	0	1142947840	19	4750
2026-01-12 10:54:57.33	335.35	16.31	-29.5	-32.2	14.3	2.20e-06	0	42	0	1148190720	19	4900
2026-01-12 10:55:00.34	335.50	15.99	-29.7	-32.7	14.0	4.50e-06	0	42	0	1154482176	19	5084
2026-01-12 10:55:03.34	335.65	15.67	-29.8	-33.0	13.7	9.10e-06	0	42	0	1159725056	19	5204
2026-01-12 10:55:06.36	335.80	15.35	-29.8	-32.9	13.7	7.60e-06	0	42	0	1164967936	19	5175
2026-01-12 10:55:09.38	335.94	15.03	-29.8	-32.9	13.7	1.29e-05	0	42	0	1171259392	19	5170
2026-01-12 10:55:12.39	336.08	14.72	-29.8	-32.9	13.8	3.00e-06	0	42	0	1176502272	19	5155
2026-01-12 10:55:15.40	336.22	14.42	-29.8	-32.9	13.8	6.10e-06	0	42	0	1182793728	19	5156
2026-01-12 10:55:18.41	336.36	14.11	-29.8	-32.9	13.7	3.00e-06	0	42	0	1188036608	19	5176
2026-01-12 10:55:21.41	336.49	13.82	-29.7	-32.6	13.9	2.20e-06	0	42	0	1193279488	19	5067
2026-01-12 10:55:24.43	336.62	13.52	-29.7	-32.8	13.8	4.50e-06	0	42	0	1199570944	19	5122
2026-01-12 10:55:27.45	336.75	13.23	-29.7	-32.8	13.7	3.80e-06	0	42	0	1204813824	19	5144
2026-01-12 10:55:30.46	336.87	12.94	-29.9	-33.2	13.4	1.22e-05	0	42	0	1211105280	19	5286
2026-01-12 10:55:33.48	337.00	12.65	-29.9	-32.8	13.3	2.97e-05	0	42	0	1216348160	20	5044
2026-01-12 10:55:36.50	337.12	12.37	-29.9	-32.8	13.3	1.75e-05	0	42	0	1221591040	20	5047
2026-01-12 10:55:39.51	337.24	12.09	-30.0	-33.1	13.1	2.51e-05	0	42	0	1227882496	20	5138
2026-01-12 10:55:42.52	337.36	11.81	-30.0	-33.2	13.0	5.18e-05	0	42	0	1233125376	20	5195
2026-01-12 10:55:45.54	337.47	11.54	-30.3	-34.0	12.4	1.06e-04	0	42	0	1239416832	20	5509
2026-01-12 10:55:48.55	337.59	11.27	-30.4	-34.5	12.0	3.02e-04	0	42	0	1244659712	20	5731
2026-01-12 10:55:51.57	337.70	11.00	-30.4	-33.9	12.1	3.10e-04	0	42	0	1249902592	21	5370
2026-01-12 10:55:54.60	337.81	10.73	-30.4	-34.1	12.0	4.45e-04	0	42	0	1256194048	21	5457
2026-01-12 10:55:57.60	337.92	10.47	-30.5	-34.2	11.8	5.19e-04	0	42	0	1261436928	21	5530
2026-01-12 10:56:00.62	338.02	10.21	-30.5	-34.2	11.9	3.66e-04	0	42	0	1266679808	21	5499
2026-01-12 10:56:03.62	338.13	9.96	-30.5	-34.3	11.7	5.71e-04	0	42	0	1272971264	21	5580
2026-01-12 10:56:06.65	338.23	9.70	-30.5	-34.4	11.7	5.93e-04	0	42	0	1278214144	21	5591
2026-01-12 10:56:09.65	338.33	9.45	-30.4	-34.0	11.9	4.31e-04	0	42	0	1284505600	21	5450
2026-01-12 10:56:12.66	338.44	9.20	-30.5	-34.2	11.8	4.45e-04	0	42	0	1289748480	21	5516
2026-01-12 10:56:15.68	338.53	8.96	-30.5	-34.2	11.8	6.31e-04	0	42	0	1294991360	21	5510
2026-01-12 10:56:18.70	338.63	8.71	-30.3	-33.8	12.0	3.44e-04	0	42	0	1301282816	21	5378
2026-01-12 10:56:21.69	338.73	8.47	-30.2	-33.5	12.1	2.94e-04	0	42	0	1306525696	21	5259
2026-01-12 10:56:24.71	338.82	8.23	-30.2	-33.4	12.1	2.46e-04	0	42	0	1312817152	21	5231
2026-01-12 10:56:27.73	338.92	7.99	-30.2	-33.5	12.1	2.18e-04	0	42	0	1318060032	21	5243
2026-01-12 10:56:30.74	339.01	7.76	-30.3	-33.7	11.9	4.45e-04	0	42	0	1323302912	21	5342
2026-01-12 10:56:33.74	339.10	7.53	-30.4	-34.2	11.5	6.34e-04	0	42	0	1329594368	21	5546
2026-01-12 10:56:36.76	339.19	7.30	-30.2	-33.7	11.9	3.92e-04	0	42	0	1334837248	21	5338
2026-01-12 10:56:39.77	339.28	7.07	-33.1	-46.9	3.8	3.39e-02	0	42	104	1340080128	26	17737

#Closed at: 2026-01-12 10:56:41
#Recorded file [1340 MB]: D:/data/31010_260112_134444.dat