passes_logs/2026/01/12/R2M6_AANII_01/R2M6_AANII_01__20260112_034451_AQUA_rec.log

#Pass ID: 20260112_034451_AQUA
#Satellite: AQUA
#Configuration: AQUA
#almurnet v.1.7.20240730
#Start time: 2026-01-12 03:44:52

#Version: 2.2.20231116
#Station: R2M6_AANII_01
#Location: 30.233357 lon 59.946436 lat
#TLE: 1 27424U 02022A   26011.34052177  .00001139  00000+0  23789-3 0  9999
#TLE: 2 27424  98.4078 337.7066 0002035  82.6124  44.5301 14.61815662260355

#Time	Az	El	Level	Level2	SNR	BER	BlckErr	Temp	State	Recorded	gain1	gain2
2026-01-12 03:44:52.40	5.94	7.06	-32.4	-48.4	3.8	7.44e-01	0	39	0	0	26	22879
2026-01-12 03:44:55.42	5.62	7.26	-32.0	-46.9	3.8	7.43e-01	0	39	104	0	26	19935
2026-01-12 03:44:58.45	5.29	7.46	-32.2	-47.8	3.8	7.44e-01	0	39	104	0	26	21544
2026-01-12 03:45:01.47	4.96	7.67	-31.5	-45.4	3.8	7.45e-01	0	39	104	0	25	17777
2026-01-12 03:45:04.49	4.62	7.87	-31.0	-44.0	3.8	7.46e-01	0	39	104	0	24	16075
2026-01-12 03:45:07.51	4.28	8.08	-31.1	-44.5	3.8	7.41e-01	0	40	104	0	24	16784
2026-01-12 03:45:10.52	3.93	8.28	-30.6	-43.4	3.8	7.44e-01	0	40	104	0	23	15711
2026-01-12 03:45:13.55	3.57	8.49	-31.2	-45.4	3.8	7.45e-01	0	40	104	0	23	18272
2026-01-12 03:45:16.56	3.22	8.70	-32.1	-47.8	3.8	7.45e-01	0	40	104	0	24	21954
2026-01-12 03:45:19.58	2.85	8.91	-32.2	-48.1	3.8	7.46e-01	0	40	104	0	25	22430
2026-01-12 03:45:22.60	2.48	9.12	-32.5	-49.1	3.8	7.44e-01	0	40	104	0	25	24321
2026-01-12 03:45:25.61	2.10	9.33	-32.8	-50.3	3.8	7.45e-01	0	40	104	0	26	26890
2026-01-12 03:45:28.63	1.72	9.54	-33.0	-51.2	3.8	7.40e-01	0	40	104	0	26	29434
2026-01-12 03:45:31.65	1.33	9.75	-32.9	-50.7	3.8	7.48e-01	0	40	104	0	26	27959
2026-01-12 03:45:34.67	0.93	9.96	-32.8	-49.7	3.8	7.44e-01	0	40	104	0	26	25250
2026-01-12 03:45:37.70	0.53	10.18	-32.5	-48.4	3.8	7.48e-01	0	40	104	0	26	22391
2026-01-12 03:45:40.71	0.12	10.39	-31.8	-46.0	3.8	7.43e-01	0	40	104	0	25	18446
2026-01-12 03:45:43.73	359.71	10.61	-31.4	-45.0	3.8	7.44e-01	0	40	104	0	24	17289
2026-01-12 03:45:46.75	359.28	10.82	-31.6	-45.9	3.8	7.44e-01	0	40	104	0	24	18515
2026-01-12 03:45:49.77	358.85	11.04	-31.4	-45.1	3.8	7.47e-01	0	40	104	0	24	17380
2026-01-12 03:45:52.80	358.42	11.26	-30.8	-43.8	3.8	7.44e-01	0	40	104	0	23	16097
2026-01-12 03:45:55.80	357.98	11.48	-31.7	-46.0	3.8	7.46e-01	0	40	104	0	24	18654
2026-01-12 03:45:58.83	357.52	11.70	-31.1	-44.1	3.8	7.42e-01	0	41	104	0	24	16141
2026-01-12 03:46:01.85	357.06	11.91	-31.2	-44.5	3.8	7.45e-01	0	41	104	0	24	16578
2026-01-12 03:46:04.88	356.60	12.13	-32.2	-47.2	3.8	7.44e-01	0	41	104	0	25	20379
2026-01-12 03:46:07.90	356.12	12.35	-32.5	-48.8	3.8	7.47e-01	0	41	104	0	25	23518
2026-01-12 03:46:10.92	355.64	12.57	-32.6	-48.8	3.8	7.44e-01	0	41	104	0	26	23122
2026-01-12 03:46:13.94	355.15	12.80	-32.9	-50.2	3.8	7.44e-01	0	41	104	0	26	26172
2026-01-12 03:46:16.96	354.65	13.02	-33.1	-50.4	3.8	7.47e-01	0	41	104	0	27	26485
2026-01-12 03:46:19.98	354.15	13.24	-32.7	-48.6	3.8	7.43e-01	0	41	104	0	27	22320
2026-01-12 03:46:23.01	353.63	13.46	-32.6	-47.8	3.8	7.44e-01	0	41	104	0	27	20784
2026-01-12 03:46:26.03	353.11	13.68	-32.4	-47.5	3.8	7.46e-01	0	41	104	0	26	20483
2026-01-12 03:46:29.05	352.57	13.90	-31.6	-45.1	3.8	7.45e-01	0	41	104	0	25	17087
2026-01-12 03:46:32.07	352.03	14.12	-30.4	-42.5	3.8	7.46e-01	0	41	104	0	23	14531
2026-01-12 03:46:35.10	351.48	14.34	-30.5	-42.8	3.8	7.44e-01	0	41	104	0	23	14749
2026-01-12 03:46:38.13	350.92	14.56	-31.7	-45.7	3.8	7.45e-01	0	41	104	0	24	18186
2026-01-12 03:46:41.14	350.36	14.78	-31.6	-45.3	3.8	7.45e-01	0	41	104	0	24	17504
2026-01-12 03:46:44.16	349.78	15.00	-32.2	-47.0	3.8	7.46e-01	0	41	104	0	25	19848
2026-01-12 03:46:47.18	349.20	15.22	-32.4	-47.4	3.8	7.45e-01	0	41	104	0	26	20179
2026-01-12 03:46:50.19	348.60	15.44	-31.7	-45.4	3.8	7.46e-01	0	41	104	0	25	17398
2026-01-12 03:46:53.21	348.00	15.65	-32.3	-38.7	13.0	6.05e-01	0	41	0	1048576	25	7598
2026-01-12 03:46:56.22	347.39	15.87	-31.1	-34.7	16.5	6.03e-01	0	41	0	6815744	24	5482
2026-01-12 03:46:59.24	346.76	16.08	-30.0	-32.7	18.5	6.02e-01	0	41	0	12058624	22	4886
2026-01-12 03:47:02.26	346.13	16.30	-29.8	-32.5	18.8	6.02e-01	0	41	0	17825792	21	4929
2026-01-12 03:47:05.28	345.49	16.51	-29.5	-31.8	19.3	6.02e-01	0	41	0	23592960	21	4700
2026-01-12 03:47:08.30	344.83	16.72	-29.7	-32.2	19.1	6.04e-01	0	41	0	29360128	21	4804
2026-01-12 03:47:11.32	344.17	16.93	-29.5	-31.8	19.3	6.02e-01	0	41	0	35127296	21	4679
2026-01-12 03:47:14.34	343.50	17.14	-29.4	-31.6	19.5	6.03e-01	0	41	0	40370176	21	4603
2026-01-12 03:47:17.35	342.82	17.34	-29.5	-31.7	19.4	6.02e-01	0	41	0	46137344	21	4657
2026-01-12 03:47:20.38	342.12	17.54	-29.5	-31.8	19.4	6.03e-01	0	41	0	51904512	21	4678
2026-01-12 03:47:23.39	341.42	17.74	-29.4	-31.5	19.6	6.01e-01	0	41	0	57671680	21	4569
2026-01-12 03:47:26.42	340.71	17.94	-29.6	-32.0	19.3	6.03e-01	0	41	0	63438848	21	4730
2026-01-12 03:47:29.44	339.98	18.14	-29.5	-31.7	19.5	6.04e-01	0	41	0	69206016	21	4637
2026-01-12 03:47:32.46	339.25	18.33	-29.6	-31.9	19.3	6.02e-01	0	41	0	74448896	21	4721
2026-01-12 03:47:35.48	338.51	18.52	-29.6	-31.9	19.4	6.04e-01	0	41	0	80216064	21	4709
2026-01-12 03:47:38.50	337.75	18.71	-29.7	-32.1	19.3	6.03e-01	0	41	0	85983232	21	4774
2026-01-12 03:47:41.51	336.99	18.89	-29.5	-31.8	19.5	6.02e-01	0	41	0	91750400	21	4665
2026-01-12 03:47:44.53	336.22	19.07	-29.8	-32.4	19.1	6.04e-01	0	41	0	96993280	21	4872
2026-01-12 03:47:47.54	335.44	19.24	-29.6	-31.9	19.4	6.03e-01	0	41	0	102760448	21	4688
2026-01-12 03:47:50.57	334.65	19.41	-29.7	-32.2	19.2	6.04e-01	0	41	0	108527616	21	4823
2026-01-12 03:47:53.58	333.85	19.58	-29.7	-32.7	19.1	6.04e-01	0	41	0	114294784	20	5106
2026-01-12 03:47:56.60	333.04	19.74	-30.0	-33.5	18.7	6.03e-01	0	41	0	120061952	20	5406
2026-01-12 03:47:59.62	332.22	19.90	-29.9	-32.8	18.8	6.04e-01	0	41	0	125304832	21	5028
2026-01-12 03:48:02.64	331.39	20.05	-30.0	-32.9	18.7	6.04e-01	0	41	0	131072000	21	5067
2026-01-12 03:48:05.66	330.55	20.20	-29.6	-32.0	19.3	6.02e-01	0	41	0	136839168	21	4742
2026-01-12 03:48:08.67	329.71	20.34	-29.7	-32.1	19.3	6.02e-01	0	41	0	142606336	21	4769
2026-01-12 03:48:11.68	328.86	20.48	-29.7	-32.2	19.2	6.04e-01	0	41	0	148373504	21	4801
2026-01-12 03:48:14.70	328.00	20.61	-29.8	-32.6	19.0	6.02e-01	0	41	0	153616384	21	4946
2026-01-12 03:48:17.72	327.13	20.74	-29.9	-32.6	19.0	6.06e-01	0	41	0	159383552	21	4947
2026-01-12 03:48:20.74	326.25	20.85	-29.8	-32.6	18.9	6.04e-01	0	41	0	165150720	21	4942
2026-01-12 03:48:23.76	325.37	20.97	-30.0	-33.0	18.8	6.04e-01	0	41	0	170917888	21	5077
2026-01-12 03:48:26.77	324.48	21.07	-29.7	-32.3	19.2	6.03e-01	0	41	0	176685056	21	4839
2026-01-12 03:48:29.80	323.58	21.17	-29.8	-32.5	19.1	6.01e-01	0	41	0	181927936	21	4899
2026-01-12 03:48:32.82	322.68	21.27	-29.8	-32.5	19.1	6.04e-01	0	41	0	187695104	21	4900
2026-01-12 03:48:35.84	321.77	21.35	-29.8	-32.3	19.1	6.03e-01	0	41	0	193462272	21	4851
2026-01-12 03:48:38.86	320.86	21.43	-29.8	-32.4	19.1	6.02e-01	0	41	0	199229440	21	4888
2026-01-12 03:48:41.88	319.94	21.50	-29.8	-32.4	19.1	6.04e-01	0	41	0	204996608	21	4858
2026-01-12 03:48:44.89	319.02	21.57	-29.8	-32.4	19.1	6.04e-01	0	42	0	210239488	21	4876
2026-01-12 03:48:47.91	318.09	21.63	-29.7	-32.3	19.2	6.03e-01	0	41	0	216006656	21	4823
2026-01-12 03:48:50.92	317.16	21.68	-29.7	-32.3	19.2	6.02e-01	0	41	0	221773824	21	4819
2026-01-12 03:48:53.94	316.23	21.72	-29.7	-32.2	19.2	6.02e-01	0	41	0	227540992	21	4819
2026-01-12 03:48:56.96	315.29	21.75	-30.2	-33.7	18.4	6.02e-01	0	41	0	233308160	21	5337
2026-01-12 03:48:59.97	314.36	21.78	-30.1	-33.3	18.6	6.01e-01	0	42	0	238551040	21	5184
2026-01-12 03:49:03.00	313.42	21.80	-29.9	-32.6	19.1	6.02e-01	0	41	0	244318208	21	4939
2026-01-12 03:49:06.02	312.48	21.81	-30.0	-33.0	18.8	6.04e-01	0	41	0	250085376	21	5094
2026-01-12 03:49:09.04	311.53	21.81	-29.6	-31.8	19.5	6.05e-01	0	41	0	255852544	21	4676
2026-01-12 03:49:12.05	310.60	21.81	-29.7	-32.2	19.3	6.03e-01	0	41	0	261619712	21	4806
2026-01-12 03:49:15.08	309.65	21.79	-29.7	-32.1	19.3	6.03e-01	0	41	0	266862592	21	4763
2026-01-12 03:49:18.10	308.71	21.77	-30.1	-33.3	18.5	6.05e-01	0	41	0	272629760	21	5179
2026-01-12 03:49:21.12	307.78	21.74	-30.0	-33.1	18.6	6.03e-01	0	41	0	278396928	21	5143
2026-01-12 03:49:24.13	306.84	21.71	-29.6	-32.0	19.3	6.01e-01	0	42	0	284164096	21	4744
2026-01-12 03:49:27.14	305.91	21.66	-29.3	-31.6	19.9	6.03e-01	0	41	0	289931264	20	4700
2026-01-12 03:49:30.16	304.98	21.61	-30.1	-33.7	18.7	6.04e-01	0	42	0	295174144	20	5456
2026-01-12 03:49:33.18	304.06	21.55	-29.6	-31.9	19.5	6.02e-01	0	41	0	300941312	21	4689
2026-01-12 03:49:36.20	303.13	21.49	-29.6	-32.0	19.2	6.02e-01	0	42	0	306708480	21	4738
2026-01-12 03:49:39.21	302.22	21.41	-29.5	-32.2	19.6	6.01e-01	0	42	0	312475648	20	4906
2026-01-12 03:49:42.22	301.31	21.33	-29.5	-31.6	19.3	6.02e-01	0	41	0	317718528	21	4607
2026-01-12 03:49:45.24	300.40	21.24	-29.8	-33.1	19.0	6.03e-01	0	42	0	323485696	20	5237
2026-01-12 03:49:48.26	299.49	21.15	-30.0	-32.4	18.5	6.03e-01	0	41	0	329252864	22	4775
2026-01-12 03:49:51.28	298.60	21.05	-29.7	-32.6	19.3	6.02e-01	0	41	0	335020032	20	5061
2026-01-12 03:49:54.30	297.71	20.94	-29.9	-33.2	18.8	6.03e-01	0	41	0	340787200	20	5292
2026-01-12 03:49:57.31	296.82	20.82	-29.3	-31.7	19.8	6.05e-01	0	41	0	346030080	20	4727
2026-01-12 03:50:00.33	295.95	20.70	-29.5	-32.1	19.5	6.03e-01	0	41	0	351797248	20	4893
2026-01-12 03:50:03.35	295.08	20.58	-30.0	-33.7	18.5	6.04e-01	0	41	0	357564416	20	5506
2026-01-12 03:50:06.37	294.22	20.44	-29.6	-32.5	19.3	6.02e-01	0	41	0	363331584	20	5008
2026-01-12 03:50:09.40	293.36	20.30	-29.5	-32.3	19.4	6.03e-01	0	41	0	369098752	20	4939
2026-01-12 03:50:12.41	292.52	20.16	-29.7	-32.7	19.0	6.03e-01	0	42	0	374341632	20	5101
2026-01-12 03:50:15.44	291.68	20.01	-29.8	-33.0	18.9	6.03e-01	0	41	0	380108800	20	5230
2026-01-12 03:50:18.45	290.85	19.86	-30.2	-33.7	18.1	6.03e-01	0	41	0	385875968	21	5396
2026-01-12 03:50:21.47	290.03	19.70	-29.2	-31.5	19.7	6.03e-01	0	41	0	391643136	20	4694
2026-01-12 03:50:24.49	289.22	19.53	-29.3	-31.8	19.7	6.04e-01	0	41	0	396886016	20	4784
2026-01-12 03:50:27.50	288.42	19.37	-29.9	-33.4	18.7	6.02e-01	0	41	0	402653184	20	5373
2026-01-12 03:50:30.52	287.63	19.19	-29.8	-33.2	18.7	6.03e-01	0	42	0	408420352	20	5306
2026-01-12 03:50:33.54	286.85	19.02	-29.8	-32.6	18.7	6.01e-01	0	42	0	414187520	21	4983
2026-01-12 03:50:36.56	286.08	18.84	-29.4	-32.1	19.4	6.05e-01	0	41	0	419954688	20	4880
2026-01-12 03:50:39.58	285.31	18.65	-29.2	-31.6	19.7	6.02e-01	0	41	0	425197568	20	4706
2026-01-12 03:50:42.60	284.56	18.46	-29.5	-32.1	19.4	6.05e-01	0	41	0	430964736	20	4900
2026-01-12 03:50:45.61	283.82	18.27	-29.9	-32.9	18.6	6.04e-01	0	42	0	436731904	21	5073
2026-01-12 03:50:48.63	283.09	18.08	-29.7	-32.2	18.9	6.02e-01	0	42	0	442499072	21	4845
2026-01-12 03:50:51.66	282.36	17.88	-29.8	-32.6	18.6	6.05e-01	0	41	0	448266240	21	4971
2026-01-12 03:50:54.68	281.65	17.68	-29.5	-32.3	19.3	6.02e-01	0	41	0	453509120	20	4976
2026-01-12 03:50:57.69	280.95	17.48	-29.1	-31.4	19.8	6.03e-01	0	41	0	459276288	20	4663
2026-01-12 03:51:00.70	280.26	17.28	-29.4	-32.0	19.4	6.01e-01	0	42	0	465043456	20	4864
2026-01-12 03:51:03.73	279.57	17.07	-29.3	-31.9	19.4	6.03e-01	0	41	0	470810624	20	4826
2026-01-12 03:51:06.74	278.90	16.86	-29.3	-31.7	19.5	6.02e-01	0	41	0	476577792	20	4774
2026-01-12 03:51:09.76	278.24	16.65	-29.5	-32.5	19.1	6.04e-01	0	41	0	481820672	20	5047
2026-01-12 03:51:12.78	277.58	16.44	-29.6	-32.5	19.0	6.03e-01	0	41	0	487587840	20	5053
2026-01-12 03:51:15.80	276.94	16.23	-29.5	-32.5	19.0	6.02e-01	0	42	0	493355008	20	5060
2026-01-12 03:51:18.81	276.31	16.01	-29.5	-32.2	19.2	6.02e-01	0	42	0	499122176	20	4956
2026-01-12 03:51:21.82	275.69	15.80	-29.5	-32.4	19.1	6.02e-01	0	42	0	504889344	20	5015
2026-01-12 03:51:24.83	275.07	15.58	-29.3	-31.8	19.4	6.04e-01	0	42	0	510132224	20	4810
2026-01-12 03:51:27.85	274.47	15.37	-29.3	-31.8	19.4	6.04e-01	0	41	0	515899392	20	4807
2026-01-12 03:51:30.87	273.87	15.15	-29.2	-31.6	19.5	6.03e-01	0	41	0	521666560	20	4742
2026-01-12 03:51:33.90	273.28	14.93	-29.2	-31.7	19.5	6.03e-01	0	41	0	527433728	20	4780
2026-01-12 03:51:36.92	272.71	14.71	-29.7	-33.1	18.6	6.03e-01	0	42	0	533200896	20	5275
2026-01-12 03:51:39.94	272.14	14.49	-29.6	-32.7	18.8	5.99e-01	0	41	0	538443776	20	5153
2026-01-12 03:51:42.95	271.58	14.26	-29.4	-32.2	19.1	6.03e-01	0	42	0	544210944	20	4951
2026-01-12 03:51:45.98	271.03	14.04	-29.4	-32.1	19.1	6.02e-01	0	41	0	549978112	20	4932
2026-01-12 03:51:49.00	270.49	13.82	-29.5	-32.3	19.0	6.03e-01	0	41	0	555745280	20	5008
2026-01-12 03:51:52.01	269.96	13.60	-29.2	-31.5	19.5	6.02e-01	0	41	0	561512448	20	4735
2026-01-12 03:51:55.03	269.43	13.38	-29.4	-32.2	19.1	6.03e-01	0	42	0	566755328	20	4963
2026-01-12 03:51:58.05	268.92	13.16	-29.4	-32.1	19.0	6.03e-01	0	41	0	572522496	20	4940
2026-01-12 03:52:01.07	268.41	12.93	-29.3	-32.0	19.2	6.04e-01	0	41	0	578289664	20	4888
2026-01-12 03:52:04.08	267.91	12.71	-29.5	-32.4	19.0	6.03e-01	0	42	0	584056832	20	5039
2026-01-12 03:52:07.10	267.42	12.49	-29.4	-32.2	19.0	6.02e-01	0	41	0	589824000	20	4986
2026-01-12 03:52:10.12	266.94	12.27	-29.4	-32.1	19.0	6.02e-01	0	42	0	595066880	20	4933
2026-01-12 03:52:13.14	266.47	12.05	-29.5	-32.5	18.8	6.03e-01	0	42	0	600834048	20	5074
2026-01-12 03:52:16.16	266.00	11.83	-29.6	-32.7	18.6	6.03e-01	0	41	0	606601216	20	5150
2026-01-12 03:52:19.18	265.54	11.61	-29.6	-32.9	18.4	6.05e-01	0	41	0	612368384	20	5243
2026-01-12 03:52:22.20	265.09	11.39	-29.8	-33.3	18.2	6.04e-01	0	41	0	618135552	20	5411
2026-01-12 03:52:25.21	264.64	11.17	-29.8	-33.5	18.1	6.02e-01	0	42	0	623378432	20	5482
2026-01-12 03:52:28.23	264.20	10.95	-29.8	-33.5	18.0	6.05e-01	0	42	0	629145600	20	5512
2026-01-12 03:52:31.26	263.77	10.74	-29.7	-33.1	18.3	6.03e-01	0	41	0	634912768	20	5327
2026-01-12 03:52:34.28	263.35	10.52	-29.9	-33.8	17.8	6.04e-01	0	42	0	640679936	20	5619
2026-01-12 03:52:37.31	262.93	10.30	-29.6	-32.8	18.4	6.03e-01	0	41	0	646447104	20	5232
2026-01-12 03:52:40.32	262.52	10.09	-29.7	-33.2	18.2	6.04e-01	0	42	0	651689984	20	5373
2026-01-12 03:52:43.34	262.12	9.87	-29.7	-32.8	18.1	6.03e-01	0	41	0	657457152	21	5132
2026-01-12 03:52:46.36	261.72	9.66	-29.8	-33.0	17.9	6.03e-01	0	42	0	663224320	21	5195
2026-01-12 03:52:49.38	261.33	9.45	-30.0	-33.7	17.5	6.04e-01	0	42	0	668991488	21	5477
2026-01-12 03:52:52.40	260.94	9.23	-30.1	-33.8	17.3	6.04e-01	0	42	0	674758656	21	5544
2026-01-12 03:52:55.42	260.56	9.02	-29.9	-33.4	17.6	6.02e-01	0	42	0	680001536	21	5367
2026-01-12 03:52:58.44	260.19	8.81	-29.8	-33.0	17.9	6.03e-01	0	41	0	685768704	21	5222
2026-01-12 03:53:01.46	259.83	8.60	-30.0	-33.5	17.5	6.04e-01	0	42	0	691535872	21	5412
2026-01-12 03:53:04.48	259.46	8.39	-29.6	-32.4	18.1	6.03e-01	0	42	0	697303040	21	5001
2026-01-12 03:53:07.49	259.11	8.19	-29.6	-32.5	18.1	6.03e-01	0	42	0	703070208	21	5043
2026-01-12 03:53:10.51	258.76	7.98	-29.9	-33.4	17.5	6.05e-01	0	42	0	708313088	21	5374
2026-01-12 03:53:13.53	258.42	7.77	-29.8	-33.2	17.6	6.03e-01	0	42	0	714080256	21	5312
2026-01-12 03:53:16.55	258.08	7.57	-29.8	-33.3	17.5	6.04e-01	0	42	0	719847424	21	5330
2026-01-12 03:53:19.57	257.74	7.37	-29.9	-33.5	17.3	6.03e-01	0	41	0	725614592	21	5448
2026-01-12 03:53:22.59	257.41	7.16	-30.0	-33.9	17.1	6.03e-01	0	41	0	731381760	21	5615
2026-01-12 03:53:25.61	257.09	6.96	-33.3	-52.7	3.8	7.42e-01	0	41	104	734527488	27	33433

#Closed at: 2026-01-12 03:53:26
#Recorded file [734 MB]: D:/data/31010_260112_064652.dat