passes_logs/2026/01/12/R2M6_AANII_01/R2M6_AANII_01__20260112_081603_NOAA_21_JPSS-2_rec.log

#Pass ID: 20260112_081603_NOAA 21 (JPSS-2)
#Satellite: NOAA 21 (JPSS-2)
#Configuration: NOAA 21
#almurnet v.1.7.20240730
#Start time: 2026-01-12 08:16:05

#Version: 2.2.20231116
#Station: R2M6_AANII_01
#Location: 30.233357 lon 59.946436 lat
#TLE: 1 54234U 22150A   26011.27699114  .00000090  00000+0  63771-4 0  9993
#TLE: 2 54234  98.7494 312.2218 0000765 314.9553  45.1561 14.19534106164285

#Time	Az	El	Level	Level2	SNR	BER	BlckErr	Temp	State	Recorded	gain1	gain2
2026-01-12 08:16:05.54	96.46	7.10	-30.7	-42.2	3.8	1.49e+00	0	39	0	0	22	13597
2026-01-12 08:16:08.56	96.17	7.29	-30.4	-41.5	3.8	1.49e+00	0	39	104	0	22	13055
2026-01-12 08:16:11.57	95.87	7.48	-30.4	-41.6	3.8	1.49e+00	0	39	104	0	22	13079
2026-01-12 08:16:14.56	95.57	7.67	-30.5	-41.8	3.8	1.49e+00	0	39	104	0	22	13262
2026-01-12 08:16:17.58	95.26	7.86	-30.6	-42.1	3.8	1.49e+00	0	39	104	0	22	13474
2026-01-12 08:16:20.60	94.95	8.05	-30.7	-42.2	3.8	1.49e+00	0	39	104	0	22	13512
2026-01-12 08:16:23.62	94.63	8.24	-30.8	-42.3	3.8	1.49e+00	0	40	104	0	22	13577
2026-01-12 08:16:26.63	94.31	8.43	-30.9	-42.3	3.8	1.49e+00	0	40	104	0	22	13429
2026-01-12 08:16:29.64	93.99	8.62	-31.0	-41.9	3.8	1.49e+00	0	40	104	0	22	12700
2026-01-12 08:16:32.67	93.66	8.82	-31.1	-42.2	3.8	1.49e+00	0	40	104	0	22	12788
2026-01-12 08:16:35.68	93.33	9.01	-30.7	-38.4	4.1	9.94e-01	0	40	104	0	22	8644
2026-01-12 08:16:38.70	92.99	9.20	-31.2	-39.1	4.2	1.47e+00	0	40	104	1048576	22	8989
2026-01-12 08:16:41.72	92.64	9.40	-30.5	-34.6	7.8	7.30e-02	0	40	0	6291456	22	5757
2026-01-12 08:16:44.71	92.30	9.59	-30.7	-34.8	7.9	7.02e-02	0	40	0	15728640	22	5797
2026-01-12 08:16:47.71	91.95	9.79	-30.8	-35.0	8.0	6.33e-02	0	40	0	25165824	22	5847
2026-01-12 08:16:50.73	91.59	9.98	-30.9	-35.3	7.9	8.68e-02	0	40	0	34603008	22	5980
2026-01-12 08:16:53.72	91.23	10.18	-29.5	-32.0	11.0	2.92e-03	0	40	0	44040192	20	4800
2026-01-12 08:16:56.73	90.87	10.37	-28.4	-30.0	13.1	4.19e-05	0	40	0	53477376	18	4314
2026-01-12 08:16:59.74	90.50	10.57	-28.0	-29.4	13.7	4.50e-06	0	40	0	62914560	17	4259
2026-01-12 08:17:02.75	90.12	10.77	-28.0	-29.6	13.7	6.10e-06	0	41	0	72351744	17	4313
2026-01-12 08:17:05.76	89.74	10.96	-28.0	-29.6	13.7	4.50e-06	0	41	0	81788928	17	4299
2026-01-12 08:17:08.77	89.35	11.16	-27.8	-29.1	14.0	2.20e-06	0	41	0	91226112	17	4163
2026-01-12 08:17:11.78	88.96	11.36	-27.7	-29.3	14.2	7.00e-07	0	41	0	99614720	16	4318
2026-01-12 08:17:14.79	88.56	11.56	-27.8	-29.6	14.1	3.00e-06	0	41	0	110100480	16	4397
2026-01-12 08:17:17.81	88.16	11.76	-27.8	-29.6	14.1	3.80e-06	0	41	0	118489088	16	4399
2026-01-12 08:17:20.83	87.75	11.96	-27.9	-29.8	14.0	2.20e-06	0	40	0	127926272	16	4463
2026-01-12 08:17:23.83	87.34	12.16	-27.1	-28.3	15.0	0.00e+00	0	41	0	138412032	15	4157
2026-01-12 08:17:26.85	86.92	12.36	-27.2	-28.6	14.9	0.00e+00	0	41	0	146800640	15	4232
2026-01-12 08:17:29.86	86.49	12.56	-27.2	-28.6	14.9	7.00e-07	0	41	0	156237824	15	4242
2026-01-12 08:17:32.87	86.06	12.76	-27.5	-29.3	14.5	0.00e+00	0	41	0	165675008	15	4434
2026-01-12 08:17:35.88	85.62	12.96	-27.5	-29.4	14.4	0.00e+00	0	41	0	175112192	15	4466
2026-01-12 08:17:38.89	85.18	13.15	-27.4	-29.1	14.6	0.00e+00	0	41	0	184549376	15	4374
2026-01-12 08:17:41.90	84.73	13.35	-27.4	-29.0	14.7	0.00e+00	0	41	0	193986560	15	4345
2026-01-12 08:17:44.91	84.27	13.55	-27.4	-29.0	14.7	0.00e+00	0	41	0	203423744	15	4351
2026-01-12 08:17:47.92	83.81	13.75	-27.4	-29.1	14.7	0.00e+00	0	41	0	212860928	15	4380
2026-01-12 08:17:50.93	83.34	13.95	-27.4	-29.1	14.7	7.00e-07	0	41	0	222298112	15	4360
2026-01-12 08:17:53.92	82.87	14.15	-27.5	-29.2	14.6	1.50e-06	0	41	0	231735296	15	4379
2026-01-12 08:17:56.95	82.39	14.35	-27.5	-29.3	14.6	7.00e-07	0	41	0	241172480	15	4438
2026-01-12 08:17:59.95	81.90	14.54	-27.4	-29.0	14.8	7.00e-07	0	41	0	250609664	15	4342
2026-01-12 08:18:02.97	81.41	14.74	-27.4	-28.9	14.8	0.00e+00	0	41	0	260046848	15	4313
2026-01-12 08:18:05.99	80.90	14.94	-27.4	-29.0	14.8	0.00e+00	0	41	0	269484032	15	4342
2026-01-12 08:18:09.01	80.39	15.14	-27.3	-28.9	14.9	7.00e-07	0	41	0	278921216	15	4314
2026-01-12 08:18:12.03	79.88	15.33	-27.2	-28.6	15.0	0.00e+00	0	41	0	288358400	15	4231
2026-01-12 08:18:15.04	79.36	15.53	-27.3	-28.9	14.9	0.00e+00	0	41	0	297795584	15	4307
2026-01-12 08:18:18.06	78.83	15.72	-27.4	-29.1	14.7	0.00e+00	0	41	0	307232768	15	4372
2026-01-12 08:18:21.08	78.29	15.91	-27.8	-29.9	14.4	7.00e-07	0	41	0	316669952	15	4587
2026-01-12 08:18:24.10	77.75	16.10	-28.2	-30.3	14.0	1.50e-06	0	41	0	326107136	16	4576
2026-01-12 08:18:27.12	77.19	16.29	-28.5	-30.6	13.5	1.37e-05	0	41	0	335544320	17	4579
2026-01-12 08:18:30.13	76.64	16.48	-27.8	-28.9	14.5	0.00e+00	0	41	0	344981504	17	4090
2026-01-12 08:18:33.14	76.08	16.67	-27.8	-29.3	14.6	7.00e-07	0	41	0	354418688	16	4296
2026-01-12 08:18:36.16	75.50	16.86	-27.7	-29.1	14.7	0.00e+00	0	41	0	363855872	16	4248
2026-01-12 08:18:39.18	74.92	17.04	-27.6	-28.9	14.9	0.00e+00	0	41	0	373293056	16	4178
2026-01-12 08:18:42.20	74.34	17.23	-27.6	-28.9	14.9	7.00e-07	0	41	0	382730240	16	4175
2026-01-12 08:18:45.22	73.74	17.41	-27.6	-28.8	14.9	7.00e-07	0	41	0	392167424	16	4164
2026-01-12 08:18:48.24	73.14	17.59	-27.5	-28.8	14.9	0.00e+00	0	41	0	401604608	16	4142
2026-01-12 08:18:51.23	72.54	17.76	-27.5	-28.7	15.0	0.00e+00	0	41	0	411041792	16	4141
2026-01-12 08:18:54.25	71.93	17.94	-27.4	-28.5	15.1	0.00e+00	0	41	0	420478976	16	4063
2026-01-12 08:18:57.26	71.31	18.11	-27.1	-28.3	15.3	0.00e+00	0	41	0	429916160	15	4144
2026-01-12 08:19:00.27	70.68	18.28	-27.1	-28.3	15.4	0.00e+00	0	41	0	439353344	15	4124
2026-01-12 08:19:03.27	70.05	18.45	-27.0	-28.1	15.4	0.00e+00	0	41	0	448790528	15	4076
2026-01-12 08:19:06.28	69.40	18.62	-26.8	-28.0	15.8	1.50e-06	0	41	0	458227712	14	4160
2026-01-12 08:19:09.29	68.76	18.78	-26.7	-28.0	15.8	0.00e+00	0	41	0	467664896	14	4151
2026-01-12 08:19:12.31	68.10	18.94	-26.7	-27.9	15.9	0.00e+00	0	41	0	477102080	14	4119
2026-01-12 08:19:15.31	67.44	19.10	-26.6	-27.7	15.9	0.00e+00	0	41	0	486539264	14	4090
2026-01-12 08:19:18.32	66.77	19.25	-26.8	-28.1	15.8	0.00e+00	0	41	0	495976448	14	4177
2026-01-12 08:19:21.33	66.09	19.40	-26.8	-28.1	15.8	0.00e+00	0	41	0	505413632	14	4187
2026-01-12 08:19:24.35	65.41	19.55	-26.9	-28.3	15.7	0.00e+00	0	41	0	514850816	14	4229
2026-01-12 08:19:27.37	64.72	19.70	-26.7	-27.8	16.0	0.00e+00	0	41	0	524288000	14	4097
2026-01-12 08:19:30.38	64.02	19.84	-26.5	-27.4	16.2	0.00e+00	0	41	0	533725184	14	3996
2026-01-12 08:19:33.40	63.32	19.97	-26.4	-27.2	16.3	0.00e+00	0	41	0	543162368	14	3952
2026-01-12 08:19:36.42	62.61	20.11	-26.8	-28.1	15.8	0.00e+00	0	41	0	552599552	14	4170
2026-01-12 08:19:39.42	61.89	20.24	-26.7	-27.9	15.9	0.00e+00	0	41	0	562036736	14	4138
2026-01-12 08:19:42.44	61.17	20.36	-26.8	-28.1	15.8	0.00e+00	0	41	0	571473920	14	4189
2026-01-12 08:19:45.47	60.44	20.48	-26.4	-27.3	16.3	0.00e+00	0	41	0	580911104	14	3966
2026-01-12 08:19:48.49	59.71	20.60	-26.3	-27.1	16.4	0.00e+00	0	41	0	590348288	14	3913
2026-01-12 08:19:51.50	58.97	20.71	-26.4	-27.1	16.4	0.00e+00	0	41	0	599785472	14	3923
2026-01-12 08:19:54.50	58.23	20.82	-26.5	-27.3	16.2	0.00e+00	0	41	0	609222656	14	3984
2026-01-12 08:19:57.51	57.48	20.92	-26.6	-27.6	16.1	0.00e+00	0	41	0	617611264	14	4042
2026-01-12 08:20:00.52	56.73	21.02	-26.7	-28.0	15.9	0.00e+00	0	41	0	627048448	14	4143
2026-01-12 08:20:03.54	55.97	21.11	-26.8	-28.0	15.9	0.00e+00	0	41	0	636485632	14	4157
2026-01-12 08:20:06.54	55.21	21.20	-26.7	-27.8	16.0	0.00e+00	0	41	0	645922816	14	4082
2026-01-12 08:20:09.55	54.44	21.28	-26.6	-27.6	16.1	0.00e+00	0	41	0	655360000	14	4036
2026-01-12 08:20:12.58	53.67	21.36	-26.5	-27.3	16.3	0.00e+00	0	41	0	664797184	14	3978
2026-01-12 08:20:15.58	52.90	21.44	-26.9	-28.2	15.8	0.00e+00	0	41	0	674234368	14	4206
2026-01-12 08:20:18.60	52.12	21.50	-26.9	-28.3	15.7	0.00e+00	0	42	0	683671552	14	4236
2026-01-12 08:20:21.60	51.34	21.56	-27.0	-28.4	15.7	0.00e+00	0	41	0	693108736	14	4264
2026-01-12 08:20:24.62	50.55	21.62	-26.6	-27.6	16.1	0.00e+00	0	42	0	702545920	14	4038
2026-01-12 08:20:27.62	49.77	21.67	-26.5	-27.4	16.2	0.00e+00	0	41	0	711983104	14	3992
2026-01-12 08:20:30.63	48.98	21.72	-26.7	-27.8	16.0	0.00e+00	0	42	0	721420288	14	4100
2026-01-12 08:20:33.64	48.19	21.75	-26.5	-27.3	16.3	0.00e+00	0	41	0	730857472	14	3963
2026-01-12 08:20:36.65	47.40	21.79	-26.5	-27.3	16.3	0.00e+00	0	41	0	740294656	14	3979
2026-01-12 08:20:39.67	46.60	21.82	-26.7	-27.8	16.0	0.00e+00	0	41	0	749731840	14	4102
2026-01-12 08:20:42.68	45.81	21.84	-26.7	-27.9	16.0	0.00e+00	0	42	0	759169024	14	4132
2026-01-12 08:20:45.70	45.01	21.85	-26.5	-27.5	16.2	0.00e+00	0	41	0	768606208	14	4013
2026-01-12 08:20:48.70	44.22	21.86	-26.3	-27.4	16.5	0.00e+00	0	41	0	778043392	13	4091
2026-01-12 08:20:51.71	43.42	21.87	-26.5	-27.9	16.2	0.00e+00	0	42	0	787480576	13	4240
2026-01-12 08:20:54.72	42.62	21.87	-26.6	-28.1	16.1	0.00e+00	0	42	0	796917760	13	4296
2026-01-12 08:20:57.73	41.83	21.86	-26.7	-28.5	15.9	0.00e+00	0	41	0	806354944	13	4395
2026-01-12 08:21:00.73	41.03	21.84	-26.9	-28.7	15.7	0.00e+00	0	42	0	815792128	13	4468
2026-01-12 08:21:03.74	40.24	21.82	-26.9	-28.8	15.7	0.00e+00	0	41	0	825229312	13	4488
2026-01-12 08:21:06.75	39.44	21.80	-27.2	-29.0	15.3	7.00e-07	0	41	0	834666496	14	4426
2026-01-12 08:21:09.77	38.65	21.77	-26.6	-27.5	16.1	0.00e+00	0	41	0	844103680	14	4033
2026-01-12 08:21:12.77	37.86	21.73	-26.3	-27.1	16.4	0.00e+00	0	41	0	853540864	14	3913
2026-01-12 08:21:15.76	37.08	21.69	-26.4	-27.3	16.3	0.00e+00	0	42	0	862978048	14	3965
2026-01-12 08:21:18.77	36.29	21.64	-26.8	-28.1	15.8	0.00e+00	0	42	0	872415232	14	4184
2026-01-12 08:21:21.74	35.52	21.59	-26.7	-27.8	16.0	0.00e+00	0	42	0	881852416	14	4099
2026-01-12 08:21:24.74	34.74	21.53	-26.5	-27.5	16.1	0.00e+00	0	41	0	890241024	14	4026
2026-01-12 08:21:27.74	33.97	21.46	-26.7	-27.8	16.0	0.00e+00	0	41	0	899678208	14	4097
2026-01-12 08:21:30.75	33.19	21.39	-26.4	-27.3	16.3	0.00e+00	0	41	0	909115392	14	3967
2026-01-12 08:21:33.75	32.42	21.32	-26.6	-27.6	16.1	0.00e+00	0	41	0	918552576	14	4051
2026-01-12 08:21:36.76	31.66	21.24	-26.7	-27.8	16.0	0.00e+00	0	41	0	927989760	14	4101
2026-01-12 08:21:39.76	30.90	21.15	-26.9	-28.4	15.6	0.00e+00	0	41	0	937426944	14	4274
2026-01-12 08:21:42.77	30.14	21.06	-26.8	-28.0	15.8	0.00e+00	0	41	0	946864128	14	4163
2026-01-12 08:21:45.78	29.39	20.96	-26.9	-28.2	15.7	0.00e+00	0	41	0	956301312	14	4216
2026-01-12 08:21:48.79	28.64	20.86	-27.1	-28.8	15.5	7.00e-07	0	41	0	965738496	14	4359
2026-01-12 08:21:51.78	27.90	20.76	-26.7	-27.8	15.9	0.00e+00	0	41	0	975175680	14	4116
2026-01-12 08:21:54.79	27.16	20.65	-27.0	-28.6	15.5	0.00e+00	0	41	0	984612864	14	4330
2026-01-12 08:21:57.79	26.43	20.53	-26.8	-28.2	15.8	0.00e+00	0	41	0	994050048	14	4195
2026-01-12 08:22:00.80	25.71	20.42	-27.4	-29.1	15.0	0.00e+00	0	41	0	1003487232	15	4336
2026-01-12 08:22:03.81	24.99	20.29	-26.7	-27.9	15.9	0.00e+00	0	41	0	1012924416	14	4119
2026-01-12 08:22:06.83	24.27	20.16	-26.6	-27.7	16.0	0.00e+00	0	41	0	1022361600	14	4062
2026-01-12 08:22:09.82	23.56	20.03	-26.7	-27.8	15.9	0.00e+00	0	41	0	1031798784	14	4102
2026-01-12 08:22:12.83	22.86	19.90	-26.6	-27.6	16.1	0.00e+00	0	41	0	1041235968	14	4044
2026-01-12 08:22:15.83	22.17	19.76	-26.7	-27.8	15.9	0.00e+00	0	41	0	1050673152	14	4102
2026-01-12 08:22:18.82	21.48	19.62	-27.0	-28.6	15.5	0.00e+00	0	41	0	1060110336	14	4314
2026-01-12 08:22:21.82	20.80	19.47	-27.3	-29.2	15.1	0.00e+00	0	41	0	1068498944	14	4483
2026-01-12 08:22:24.84	20.12	19.32	-26.6	-27.6	16.0	0.00e+00	0	41	0	1078984704	14	4041
2026-01-12 08:22:27.84	19.45	19.17	-26.8	-28.1	15.7	0.00e+00	0	41	0	1088421888	14	4176
2026-01-12 08:22:30.84	18.79	19.02	-27.1	-28.7	15.4	0.00e+00	0	41	0	1096810496	14	4347
2026-01-12 08:22:33.84	18.14	18.86	-27.3	-29.2	15.0	7.00e-07	0	41	0	1106247680	14	4510
2026-01-12 08:22:36.85	17.49	18.70	-27.0	-28.7	15.3	0.00e+00	0	41	0	1115684864	14	4340
2026-01-12 08:22:39.85	16.85	18.53	-27.0	-28.6	15.4	0.00e+00	0	41	0	1125122048	14	4319
2026-01-12 08:22:42.87	16.21	18.37	-26.8	-28.2	15.6	0.00e+00	0	41	0	1134559232	14	4207
2026-01-12 08:22:45.89	15.58	18.20	-27.0	-28.5	15.4	0.00e+00	0	41	0	1143996416	14	4305
2026-01-12 08:22:48.90	14.96	18.03	-26.4	-27.3	16.1	0.00e+00	0	41	0	1153433600	14	3965
2026-01-12 08:22:51.90	14.35	17.85	-26.9	-28.3	15.5	0.00e+00	0	41	0	1162870784	14	4247
2026-01-12 08:22:54.92	13.74	17.68	-26.8	-28.2	15.6	0.00e+00	0	42	0	1172307968	14	4213
2026-01-12 08:22:57.92	13.14	17.50	-26.8	-28.2	15.6	0.00e+00	0	41	0	1181745152	14	4224
2026-01-12 08:23:00.92	12.55	17.32	-27.2	-29.0	15.1	0.00e+00	0	41	0	1191182336	14	4450
2026-01-12 08:23:03.93	11.97	17.14	-28.0	-30.3	14.1	1.50e-06	0	41	0	1200619520	15	4733
2026-01-12 08:23:06.93	11.39	16.96	-28.1	-29.6	14.3	5.30e-06	0	41	0	1210056704	17	4265
2026-01-12 08:23:09.92	10.82	16.77	-28.0	-29.4	14.2	9.10e-06	0	41	0	1219493888	17	4222
2026-01-12 08:23:12.94	10.26	16.59	-28.3	-30.1	13.9	3.80e-06	0	41	0	1228931072	17	4419
2026-01-12 08:23:15.96	9.70	16.40	-27.6	-28.9	14.8	0.00e+00	0	41	0	1238368256	16	4178
2026-01-12 08:23:18.96	9.15	16.21	-27.5	-28.8	14.8	0.00e+00	0	41	0	1247805440	16	4156
2026-01-12 08:23:21.95	8.61	16.02	-27.1	-28.3	15.2	0.00e+00	0	41	0	1257242624	15	4139
2026-01-12 08:23:24.95	8.08	15.83	-27.2	-28.6	15.0	1.50e-06	0	41	0	1266679808	15	4220
2026-01-12 08:23:27.97	7.55	15.64	-27.2	-28.6	15.0	7.00e-07	0	41	0	1276116992	15	4232
2026-01-12 08:23:30.98	7.02	15.45	-27.1	-28.4	15.1	0.00e+00	0	42	0	1285554176	15	4179
2026-01-12 08:23:34.00	6.51	15.25	-27.1	-28.3	15.1	0.00e+00	0	41	0	1294991360	15	4153
2026-01-12 08:23:37.01	6.00	15.06	-27.1	-28.3	15.1	0.00e+00	0	41	0	1304428544	15	4151
2026-01-12 08:23:40.02	5.50	14.86	-27.4	-29.1	14.7	1.50e-06	0	41	0	1313865728	15	4354
2026-01-12 08:23:43.03	5.00	14.66	-27.4	-29.1	14.7	0.00e+00	0	42	0	1323302912	15	4355
2026-01-12 08:23:46.05	4.51	14.47	-27.3	-28.8	14.8	0.00e+00	0	42	0	1332740096	15	4293
2026-01-12 08:23:49.06	4.03	14.27	-27.0	-28.2	15.1	0.00e+00	0	42	0	1342177280	15	4110
2026-01-12 08:23:52.08	3.55	14.07	-27.0	-28.2	15.1	0.00e+00	0	42	0	1350565888	15	4114
2026-01-12 08:23:55.09	3.08	13.87	-27.1	-28.3	15.0	0.00e+00	0	42	0	1361051648	15	4143
2026-01-12 08:23:58.11	2.62	13.68	-27.2	-28.5	14.9	0.00e+00	0	42	0	1369440256	15	4204
2026-01-12 08:24:01.12	2.16	13.48	-27.3	-28.8	14.7	7.00e-07	0	42	0	1378877440	15	4287
2026-01-12 08:24:04.13	1.71	13.28	-27.3	-28.9	14.6	7.00e-07	0	42	0	1389363200	15	4321
2026-01-12 08:24:07.15	1.27	13.08	-27.5	-29.3	14.4	7.00e-07	0	42	0	1397751808	15	4433
2026-01-12 08:24:10.16	0.83	12.88	-27.3	-28.9	14.6	0.00e+00	0	42	0	1407188992	15	4316
2026-01-12 08:24:13.17	0.40	12.68	-27.6	-29.5	14.2	7.00e-07	0	42	0	1416626176	15	4503
2026-01-12 08:24:16.19	359.97	12.48	-27.8	-30.1	13.9	7.00e-07	0	42	0	1426063360	15	4668
2026-01-12 08:24:19.21	359.55	12.28	-28.3	-30.7	13.4	1.06e-05	0	42	0	1435500544	16	4758
2026-01-12 08:24:22.22	359.14	12.08	-28.0	-30.0	13.9	7.60e-06	0	42	0	1444937728	16	4513
2026-01-12 08:24:25.24	358.73	11.89	-27.9	-29.6	14.1	2.20e-06	0	42	0	1454374912	16	4409
2026-01-12 08:24:28.25	358.32	11.69	-27.9	-29.8	13.9	1.50e-06	0	42	0	1463812096	16	4476
2026-01-12 08:24:31.27	357.93	11.49	-28.2	-30.4	13.5	8.30e-06	0	42	0	1473249280	16	4670
2026-01-12 08:24:34.29	357.53	11.29	-28.2	-30.4	13.5	8.30e-06	0	42	0	1482686464	16	4650
2026-01-12 08:24:37.31	357.14	11.09	-28.2	-30.4	13.5	1.60e-05	0	42	0	1492123648	16	4655
2026-01-12 08:24:40.33	356.76	10.89	-27.9	-29.8	13.9	7.60e-06	0	42	0	1501560832	16	4466
2026-01-12 08:24:43.35	356.39	10.70	-27.9	-29.8	13.9	2.20e-06	0	42	0	1510998016	16	4455
2026-01-12 08:24:46.37	356.01	10.50	-28.1	-30.3	13.6	6.10e-06	0	42	0	1520435200	16	4626
2026-01-12 08:24:49.39	355.65	10.30	-28.3	-30.9	13.2	2.59e-05	0	42	0	1529872384	16	4809
2026-01-12 08:24:52.40	355.29	10.11	-28.3	-30.9	13.2	2.36e-05	0	42	0	1539309568	16	4806
2026-01-12 08:24:55.42	354.93	9.91	-28.3	-30.7	13.2	2.44e-05	0	42	0	1548746752	16	4772
2026-01-12 08:24:58.44	354.58	9.72	-28.3	-30.7	13.2	2.97e-05	0	42	0	1558183936	16	4749
2026-01-12 08:25:01.45	354.23	9.52	-28.3	-30.9	13.1	2.28e-05	0	42	0	1567621120	16	4812
2026-01-12 08:25:04.47	353.89	9.33	-28.4	-31.0	13.0	2.21e-05	0	42	0	1577058304	16	4852
2026-01-12 08:25:07.48	353.55	9.14	-28.9	-31.8	12.2	2.73e-04	0	42	0	1586495488	17	5034
2026-01-12 08:25:10.49	353.22	8.94	-28.8	-31.4	12.4	1.64e-04	0	42	0	1595932672	17	4898
2026-01-12 08:25:13.50	352.89	8.75	-28.8	-31.5	12.3	2.13e-04	0	42	0	1605369856	17	4914
2026-01-12 08:25:16.53	352.57	8.56	-28.4	-30.5	12.9	5.34e-05	0	42	0	1614807040	17	4590
2026-01-12 08:25:19.55	352.25	8.37	-28.4	-30.4	13.0	3.28e-05	0	42	0	1624244224	17	4580
2026-01-12 08:25:22.56	351.93	8.18	-28.3	-30.2	13.0	3.20e-05	0	42	0	1633681408	17	4512
2026-01-12 08:25:25.58	351.62	7.99	-28.4	-30.6	12.7	7.01e-05	0	42	0	1643118592	17	4658
2026-01-12 08:25:28.58	351.32	7.80	-28.6	-31.3	12.2	1.28e-04	0	42	0	1652555776	17	4913
2026-01-12 08:25:31.60	351.01	7.61	-28.9	-32.1	11.8	4.58e-04	0	42	0	1661992960	17	5171
2026-01-12 08:25:34.62	350.71	7.42	-29.1	-31.9	11.6	4.28e-04	0	42	0	1671430144	18	4993
2026-01-12 08:25:37.63	350.42	7.23	-28.7	-30.7	12.3	1.81e-04	0	42	0	1680867328	18	4579
2026-01-12 08:25:40.64	350.13	7.05	-32.1	-44.2	3.8	1.03e-02	0	42	104	1690304512	24	14485

#Closed at: 2026-01-12 08:25:42
#Recorded file [1690 MB]: D:/data/31010_260112_111639.dat