passes_logs/2026/01/12/R2M6_AANII_01/R2M6_AANII_01__20260112_223233_SUOMI_NPP_rec.log

#Pass ID: 20260112_223233_SUOMI NPP
#Satellite: SUOMI NPP
#Configuration: NPP
#almurnet v.1.7.20240730
#Start time: 2026-01-12 22:32:33

#Version: 2.2.20231116
#Station: R2M6_AANII_01
#Location: 30.233357 lon 59.946436 lat
#TLE: 1 37849U 11061A   26012.28456845  .00000093  00000+0  65163-4 0  9999
#TLE: 2 37849  98.7807 314.3566 0002508  68.3553 291.7890 14.19524725736322

#Time	Az	El	Level	Level2	SNR	BER	BlckErr	Temp	State	Recorded	gain1	gain2
2026-01-12 22:32:33.20	33.18	6.97	-31.5	-36.6	4.8	1.26e+00	0	39	0	0	23	6500
2026-01-12 22:32:36.20	33.51	7.14	-31.6	-37.0	6.9	1.56e-01	0	39	0	1048576	23	6675
2026-01-12 22:32:39.23	33.85	7.31	-31.7	-37.1	6.8	1.57e-01	0	40	0	7340032	23	6764
2026-01-12 22:32:42.25	34.18	7.48	-31.4	-35.6	8.0	1.09e-01	0	39	0	12582912	23	5832
2026-01-12 22:32:45.26	34.52	7.65	-30.8	-33.9	9.8	1.74e-02	0	40	0	18874368	22	5112
2026-01-12 22:32:48.28	34.87	7.83	-30.6	-33.7	10.3	4.94e-03	0	40	0	24117248	21	5138
2026-01-12 22:32:51.29	35.21	8.00	-30.3	-32.5	11.2	2.12e-03	0	40	0	29360128	21	4660
2026-01-12 22:32:54.30	35.57	8.17	-29.9	-32.0	12.0	3.82e-04	0	40	0	35651584	20	4548
2026-01-12 22:32:57.31	35.92	8.35	-30.0	-32.2	11.8	6.78e-04	0	40	0	40894464	20	4613
2026-01-12 22:33:00.33	36.28	8.52	-30.1	-32.3	11.8	4.14e-04	0	40	0	46137344	20	4657
2026-01-12 22:33:03.35	36.65	8.69	-30.2	-32.7	11.5	6.87e-04	0	40	0	52428800	20	4774
2026-01-12 22:33:06.36	37.02	8.87	-30.3	-32.9	11.4	8.06e-04	0	40	0	57671680	20	4849
2026-01-12 22:33:09.38	37.39	9.04	-30.2	-32.6	11.7	8.56e-04	0	40	0	63963136	20	4743
2026-01-12 22:33:12.39	37.77	9.22	-30.3	-33.0	11.4	8.55e-04	0	40	0	69206016	20	4906
2026-01-12 22:33:15.42	38.15	9.39	-30.0	-31.9	12.2	3.62e-04	0	41	0	74448896	20	4487
2026-01-12 22:33:18.43	38.53	9.57	-29.9	-31.8	12.3	2.10e-04	0	41	0	80740352	20	4437
2026-01-12 22:33:21.44	38.92	9.74	-29.9	-31.6	12.4	1.67e-04	0	41	0	85983232	20	4391
2026-01-12 22:33:24.45	39.32	9.92	-29.9	-31.7	12.4	1.36e-04	0	41	0	92274688	20	4419
2026-01-12 22:33:27.47	39.72	10.09	-30.0	-31.8	12.3	1.55e-04	0	41	0	97517568	20	4459
2026-01-12 22:33:30.49	40.12	10.27	-29.9	-31.5	12.5	9.53e-05	0	41	0	102760448	20	4356
2026-01-12 22:33:33.51	40.53	10.44	-29.9	-31.6	12.5	9.68e-05	0	41	0	109051904	20	4388
2026-01-12 22:33:36.51	40.94	10.62	-30.0	-31.8	12.4	1.25e-04	0	41	0	114294784	20	4456
2026-01-12 22:33:39.53	41.36	10.79	-30.2	-32.4	12.0	3.00e-04	0	41	0	120586240	20	4651
2026-01-12 22:33:42.54	41.79	10.97	-30.2	-32.6	11.8	4.44e-04	0	41	0	125829120	20	4726
2026-01-12 22:33:45.56	42.22	11.14	-30.2	-32.5	11.9	4.92e-04	0	41	0	131072000	20	4703
2026-01-12 22:33:48.57	42.65	11.32	-30.1	-32.1	12.2	2.99e-04	0	41	0	137363456	20	4547
2026-01-12 22:33:51.59	43.09	11.49	-30.1	-32.0	12.3	1.91e-04	0	41	0	142606336	20	4512
2026-01-12 22:33:54.61	43.53	11.67	-29.9	-31.5	12.7	7.24e-05	0	41	0	148897792	20	4317
2026-01-12 22:33:57.63	43.98	11.84	-30.0	-31.9	12.4	1.16e-04	0	41	0	154140672	20	4476
2026-01-12 22:34:00.65	44.43	12.02	-29.7	-31.1	13.1	4.57e-05	0	41	0	159383552	20	4188
2026-01-12 22:34:03.67	44.89	12.19	-29.6	-30.6	13.3	1.83e-05	0	41	0	165675008	20	4050
2026-01-12 22:34:06.69	45.36	12.36	-29.7	-31.5	13.2	2.13e-05	0	41	0	170917888	19	4407
2026-01-12 22:34:09.70	45.83	12.54	-30.0	-32.1	12.8	4.73e-05	0	41	0	177209344	19	4610
2026-01-12 22:34:12.73	46.31	12.71	-30.0	-31.8	12.6	1.08e-04	0	41	0	182452224	20	4408
2026-01-12 22:34:15.75	46.79	12.88	-29.7	-30.8	13.3	3.00e-06	0	41	0	187695104	20	4100
2026-01-12 22:34:18.77	47.27	13.05	-29.6	-30.6	13.4	1.90e-05	0	41	0	193986560	20	4041
2026-01-12 22:34:21.78	47.76	13.22	-29.5	-30.3	13.6	9.90e-06	0	41	0	199229440	20	3959
2026-01-12 22:34:24.80	48.26	13.39	-29.6	-30.6	13.4	8.30e-06	0	41	0	204472320	20	4041
2026-01-12 22:34:27.80	48.76	13.56	-29.7	-31.3	13.4	1.60e-05	0	41	0	210763776	19	4331
2026-01-12 22:34:30.82	49.27	13.73	-29.8	-31.6	13.2	3.80e-04	0	41	0	216006656	19	4435
2026-01-12 22:34:33.84	49.78	13.89	-29.9	-31.9	13.0	4.49e-04	0	41	0	222298112	19	4520
2026-01-12 22:34:36.85	50.30	14.06	-29.7	-31.4	13.3	3.23e-04	0	42	0	227540992	19	4367
2026-01-12 22:34:39.87	50.83	14.23	-29.7	-31.4	13.4	4.89e-04	0	41	0	232783872	19	4351
2026-01-12 22:34:42.89	51.36	14.39	-29.8	-31.7	13.2	2.21e-05	0	41	0	239075328	19	4457
2026-01-12 22:34:45.90	51.89	14.55	-30.1	-32.1	12.6	8.54e-05	0	42	0	244318208	20	4494
2026-01-12 22:34:48.92	52.44	14.71	-30.2	-32.2	12.5	1.35e-03	0	41	0	250609664	20	4549
2026-01-12 22:34:51.94	52.99	14.87	-30.3	-32.6	12.2	1.21e-03	0	42	0	255852544	20	4688
2026-01-12 22:34:54.95	53.54	15.03	-30.5	-32.7	11.8	7.29e-04	0	42	0	261095424	21	4607
2026-01-12 22:34:57.97	54.10	15.19	-30.6	-32.8	11.7	1.08e-03	0	42	0	267386880	21	4649
2026-01-12 22:35:00.97	54.66	15.35	-30.4	-32.3	12.1	9.35e-04	0	42	0	272629760	21	4468
2026-01-12 22:35:03.98	55.23	15.50	-30.2	-32.3	12.5	7.91e-04	0	42	0	278921216	20	4550
2026-01-12 22:35:07.00	55.81	15.65	-30.2	-32.2	12.5	1.04e-04	0	42	0	284164096	20	4535
2026-01-12 22:35:10.01	56.39	15.80	-30.6	-32.7	11.8	3.65e-04	0	42	0	289406976	21	4617
2026-01-12 22:35:13.03	56.98	15.95	-30.5	-32.5	11.9	1.59e-03	0	42	0	295698432	21	4548
2026-01-12 22:35:16.05	57.57	16.10	-30.3	-32.5	12.4	1.63e-03	0	42	0	300941312	20	4623
2026-01-12 22:35:19.06	58.17	16.24	-30.6	-32.7	11.8	8.95e-04	0	42	0	307232768	21	4621
2026-01-12 22:35:22.07	58.78	16.39	-30.8	-33.4	11.4	7.67e-04	0	42	0	312475648	21	4855
2026-01-12 22:35:25.10	59.39	16.53	-30.5	-32.6	12.0	5.26e-04	0	42	0	317718528	21	4577
2026-01-12 22:35:28.12	60.01	16.67	-30.3	-32.5	12.4	1.20e-04	0	42	0	324009984	20	4636
2026-01-12 22:35:31.13	60.63	16.80	-30.2	-32.0	12.7	1.20e-04	0	42	0	329252864	20	4450
2026-01-12 22:35:34.16	61.26	16.93	-30.1	-31.8	12.9	5.41e-05	0	42	0	335544320	20	4381
2026-01-12 22:35:37.17	61.89	17.07	-30.2	-32.2	12.7	8.01e-05	0	42	0	340787200	20	4512
2026-01-12 22:35:40.18	62.53	17.19	-30.3	-32.5	12.4	1.25e-04	0	42	0	346030080	20	4602
2026-01-12 22:35:43.20	63.17	17.32	-30.3	-32.3	12.6	1.01e-04	0	42	0	352321536	20	4540
2026-01-12 22:35:46.22	63.82	17.44	-30.2	-32.0	12.8	4.57e-05	0	42	0	357564416	20	4440
2026-01-12 22:35:49.22	64.47	17.56	-30.3	-32.3	12.6	1.01e-04	0	42	0	362807296	20	4558
2026-01-12 22:35:52.25	65.13	17.68	-30.1	-31.9	12.9	2.59e-05	0	42	0	369098752	20	4403
2026-01-12 22:35:55.26	65.80	17.79	-30.1	-31.9	12.9	3.50e-05	0	42	0	374341632	20	4405
2026-01-12 22:35:58.29	66.47	17.90	-29.5	-30.7	14.0	3.00e-06	0	42	0	380633088	19	4133
2026-01-12 22:36:01.30	67.14	18.01	-29.5	-30.7	14.1	2.77e-04	0	42	0	385875968	19	4122
2026-01-12 22:36:04.31	67.82	18.11	-29.8	-31.4	13.6	2.46e-04	0	42	0	391118848	19	4349
2026-01-12 22:36:07.32	68.50	18.21	-29.7	-31.1	13.8	5.79e-05	0	42	0	397410304	19	4253
2026-01-12 22:36:10.33	69.18	18.31	-29.4	-30.5	14.2	2.20e-06	0	42	0	402653184	19	4061
2026-01-12 22:36:13.35	69.88	18.40	-29.5	-30.6	14.1	2.23e-04	0	42	0	408944640	19	4093
2026-01-12 22:36:16.35	70.57	18.49	-29.3	-30.2	14.4	0.00e+00	0	42	0	414187520	19	3986
2026-01-12 22:36:19.37	71.27	18.58	-29.6	-30.8	14.0	4.19e-05	0	42	0	419430400	19	4161
2026-01-12 22:36:22.38	71.97	18.66	-29.5	-30.7	14.0	8.01e-05	0	42	0	425721856	19	4111
2026-01-12 22:36:25.39	72.67	18.73	-29.6	-30.9	13.9	4.50e-06	0	42	0	430964736	19	4194
2026-01-12 22:36:28.40	73.38	18.81	-30.0	-31.6	13.0	3.35e-05	0	42	0	437256192	20	4322
2026-01-12 22:36:31.42	74.10	18.88	-29.7	-30.7	13.7	1.29e-05	0	42	0	442499072	20	4047
2026-01-12 22:36:34.45	74.82	18.94	-30.0	-31.6	13.2	2.13e-05	0	42	0	447741952	20	4303
2026-01-12 22:36:37.46	75.54	19.00	-30.0	-31.5	13.2	2.28e-05	0	42	0	454033408	20	4270
2026-01-12 22:36:40.48	76.26	19.06	-30.3	-32.4	12.5	8.01e-05	0	42	0	459276288	20	4583
2026-01-12 22:36:43.50	76.98	19.11	-30.7	-32.9	11.9	3.95e-04	0	42	0	464519168	21	4672
2026-01-12 22:36:46.52	77.71	19.16	-30.6	-32.6	12.0	3.87e-04	0	42	0	470810624	21	4558
2026-01-12 22:36:49.53	78.44	19.21	-30.0	-31.1	13.0	3.12e-05	0	42	0	476053504	21	4060
2026-01-12 22:36:52.55	79.17	19.24	-30.1	-31.4	12.9	7.70e-05	0	42	0	482344960	21	4168
2026-01-12 22:36:55.57	79.91	19.28	-30.0	-30.9	13.3	3.05e-05	0	42	0	487587840	21	4012
2026-01-12 22:36:58.59	80.64	19.31	-30.1	-31.7	13.1	4.80e-05	0	42	0	492830720	20	4362
2026-01-12 22:37:01.60	81.38	19.33	-29.7	-30.6	13.7	7.60e-06	0	42	0	499122176	20	4020
2026-01-12 22:37:04.61	82.11	19.36	-29.9	-31.8	13.4	1.06e-05	0	42	0	504365056	19	4458
2026-01-12 22:37:07.62	82.85	19.37	-30.1	-31.8	13.0	4.80e-05	0	42	0	510656512	20	4372
2026-01-12 22:37:10.64	83.59	19.38	-30.2	-32.1	12.7	7.09e-05	0	42	0	515899392	20	4491
2026-01-12 22:37:13.65	84.33	19.39	-30.5	-32.8	12.2	1.85e-04	0	42	0	521142272	20	4733
2026-01-12 22:37:16.66	85.07	19.39	-30.1	-31.7	13.0	4.88e-05	0	42	0	527433728	20	4348
2026-01-12 22:37:19.68	85.81	19.39	-30.0	-31.6	13.1	2.13e-05	0	42	0	532676608	20	4302
2026-01-12 22:37:22.69	86.55	19.38	-30.3	-32.2	12.7	1.07e-04	0	42	0	538968064	20	4519
2026-01-12 22:37:25.71	87.29	19.37	-30.2	-32.0	12.8	5.34e-05	0	42	0	544210944	20	4428
2026-01-12 22:37:28.73	88.03	19.36	-30.0	-31.5	13.2	3.50e-05	0	42	0	549453824	20	4281
2026-01-12 22:37:31.74	88.76	19.33	-30.0	-31.6	13.1	2.51e-05	0	42	0	555745280	20	4324
2026-01-12 22:37:34.76	89.50	19.31	-30.2	-32.1	12.8	8.31e-05	0	42	0	560988160	20	4466
2026-01-12 22:37:37.77	90.24	19.28	-30.2	-32.0	12.8	5.26e-05	0	42	0	567279616	20	4438
2026-01-12 22:37:40.78	90.97	19.24	-29.9	-31.3	13.3	1.75e-05	0	42	0	572522496	20	4213
2026-01-12 22:37:43.81	91.70	19.20	-30.1	-31.8	13.0	3.81e-05	0	42	0	577765376	20	4370
2026-01-12 22:37:46.81	92.43	19.16	-30.4	-32.6	12.4	1.43e-04	0	42	0	584056832	20	4654
2026-01-12 22:37:49.84	93.16	19.11	-30.0	-31.6	13.0	4.65e-05	0	42	0	589299712	20	4331
2026-01-12 22:37:52.86	93.89	19.06	-30.3	-32.5	12.4	7.62e-05	0	42	0	595591168	20	4623
2026-01-12 22:37:55.86	94.61	19.00	-29.9	-31.2	13.3	3.05e-05	0	42	0	600834048	20	4181
2026-01-12 22:37:58.88	95.33	18.94	-29.9	-31.2	13.4	2.05e-05	0	42	0	606076928	20	4190
2026-01-12 22:38:01.89	96.05	18.88	-30.4	-32.6	12.4	1.24e-04	0	42	0	612368384	20	4658
2026-01-12 22:38:04.91	96.76	18.81	-30.1	-31.4	12.8	1.11e-04	0	42	0	617611264	21	4175
2026-01-12 22:38:07.93	97.48	18.73	-29.5	-30.1	14.0	6.80e-06	0	42	0	623902720	20	3887
2026-01-12 22:38:10.95	98.18	18.65	-29.8	-31.1	13.3	4.50e-06	0	42	0	629145600	20	4167
2026-01-12 22:38:13.95	98.88	18.57	-29.7	-30.7	13.6	1.60e-05	0	42	0	634388480	20	4046
2026-01-12 22:38:16.96	99.58	18.49	-29.5	-30.1	13.9	7.00e-07	0	42	0	640679936	20	3888
2026-01-12 22:38:19.97	100.28	18.40	-29.7	-31.4	13.5	1.37e-05	0	42	0	645922816	19	4333
2026-01-12 22:38:22.99	100.97	18.30	-29.5	-30.8	13.9	1.22e-05	0	42	0	651165696	19	4167
2026-01-12 22:38:26.01	101.66	18.21	-29.3	-30.2	14.3	3.80e-06	0	42	0	657457152	19	3997
2026-01-12 22:38:29.02	102.35	18.11	-29.4	-30.5	14.1	3.00e-06	0	42	0	662700032	19	4067
2026-01-12 22:38:32.04	103.03	18.00	-29.5	-30.8	13.9	3.80e-06	0	42	0	668991488	19	4166
2026-01-12 22:38:35.05	103.70	17.89	-29.7	-31.3	13.5	6.10e-06	0	42	0	674234368	19	4331
2026-01-12 22:38:38.06	104.37	17.78	-29.9	-31.4	13.1	2.59e-05	0	42	0	679477248	20	4281
2026-01-12 22:38:41.07	105.04	17.67	-29.6	-30.6	13.6	9.90e-06	0	42	0	685768704	20	4032
2026-01-12 22:38:44.09	105.70	17.55	-29.8	-31.5	13.3	1.44e-05	0	42	0	691011584	19	4385
2026-01-12 22:38:47.09	106.35	17.43	-29.8	-31.4	13.5	5.30e-06	0	42	0	697303040	19	4354
2026-01-12 22:38:50.11	107.00	17.31	-30.0	-31.5	13.0	9.90e-06	0	42	0	702545920	20	4301
2026-01-12 22:38:53.13	107.65	17.18	-30.4	-32.8	12.1	1.94e-04	0	42	0	707788800	20	4724
2026-01-12 22:38:56.14	108.29	17.05	-30.0	-31.6	13.0	5.56e-05	0	42	0	714080256	20	4322
2026-01-12 22:38:59.15	108.92	16.92	-30.1	-31.9	12.7	3.73e-05	0	42	0	719323136	20	4425
2026-01-12 22:39:02.16	109.55	16.79	-29.8	-31.1	13.3	3.50e-05	0	42	0	725614592	20	4177
2026-01-12 22:39:05.16	110.17	16.65	-29.8	-31.0	13.4	7.70e-05	0	42	0	730857472	20	4139
2026-01-12 22:39:08.18	110.79	16.51	-30.1	-31.9	12.7	7.27e-04	0	42	0	736100352	20	4438
2026-01-12 22:39:11.20	111.40	16.37	-30.5	-32.9	12.1	1.02e-03	0	42	0	742391808	20	4782
2026-01-12 22:39:14.22	112.01	16.23	-30.5	-32.7	11.8	1.14e-03	0	42	0	747634688	21	4619
2026-01-12 22:39:17.24	112.61	16.08	-30.5	-32.7	11.8	4.16e-04	0	42	0	752877568	21	4635
2026-01-12 22:39:20.25	113.21	15.93	-30.4	-32.4	12.0	3.09e-04	0	42	0	759169024	21	4508
2026-01-12 22:39:23.27	113.80	15.78	-29.8	-31.0	13.3	4.57e-05	0	42	0	764411904	20	4136
2026-01-12 22:39:26.28	114.38	15.63	-30.3	-32.5	12.2	4.42e-04	0	42	0	770703360	20	4635
2026-01-12 22:39:29.29	114.96	15.48	-31.1	-33.9	10.6	3.13e-03	0	42	0	775946240	22	4994
2026-01-12 22:39:32.31	115.53	15.32	-30.8	-32.9	11.2	1.99e-03	0	42	0	781189120	22	4618
2026-01-12 22:39:35.33	116.10	15.17	-30.5	-32.5	11.8	7.50e-04	0	42	0	787480576	21	4571
2026-01-12 22:39:38.35	116.66	15.01	-30.4	-32.2	12.0	3.34e-04	0	42	0	792723456	21	4471
2026-01-12 22:39:41.37	117.22	14.85	-30.3	-32.0	12.1	6.00e-04	0	42	0	799014912	21	4380
2026-01-12 22:39:44.39	117.77	14.68	-30.0	-31.3	12.6	2.46e-04	0	42	0	804257792	21	4162
2026-01-12 22:39:47.41	118.32	14.52	-30.4	-32.3	11.9	4.36e-04	0	42	0	809500672	21	4505
2026-01-12 22:39:50.42	118.85	14.36	-30.3	-32.0	12.1	3.35e-04	0	42	0	815792128	21	4405
2026-01-12 22:39:53.43	119.38	14.19	-30.1	-32.1	12.3	3.35e-04	0	42	0	821035008	20	4521
2026-01-12 22:39:56.45	119.91	14.03	-30.1	-32.1	12.4	1.41e-04	0	42	0	827326464	20	4531
2026-01-12 22:39:59.47	120.43	13.86	-30.2	-32.4	12.1	3.49e-04	0	42	0	832569344	20	4631
2026-01-12 22:40:02.49	120.95	13.69	-30.3	-32.5	12.1	2.00e-04	0	42	0	837812224	20	4681
2026-01-12 22:40:05.50	121.46	13.52	-30.2	-32.3	12.2	3.07e-04	0	42	0	844103680	20	4574
2026-01-12 22:40:08.50	121.96	13.35	-30.0	-31.7	12.6	1.83e-04	0	42	0	849346560	20	4391
2026-01-12 22:40:11.51	122.46	13.18	-29.5	-30.5	13.3	1.29e-05	0	42	0	855638016	20	4028
2026-01-12 22:40:14.53	122.95	13.01	-29.6	-30.6	13.3	2.36e-05	0	42	0	860880896	20	4065
2026-01-12 22:40:17.54	123.44	12.84	-30.0	-32.0	12.3	1.84e-04	0	42	0	866123776	20	4510
2026-01-12 22:40:20.55	123.92	12.66	-30.2	-32.4	12.0	3.36e-04	0	42	0	872415232	20	4645
2026-01-12 22:40:23.56	124.39	12.49	-29.8	-31.7	13.0	1.10e-04	0	42	0	877658112	19	4468
2026-01-12 22:40:26.58	124.87	12.32	-29.5	-30.9	13.4	1.14e-05	0	42	0	882900992	19	4235
2026-01-12 22:40:29.60	125.33	12.14	-29.7	-31.3	13.1	3.43e-05	0	42	0	889192448	19	4374
2026-01-12 22:40:32.62	125.79	11.97	-29.8	-31.8	12.8	4.43e-04	0	42	0	894435328	19	4535
2026-01-12 22:40:35.65	126.25	11.79	-29.9	-32.0	12.6	1.31e-03	0	42	0	900726784	19	4615
2026-01-12 22:40:38.66	126.70	11.61	-30.2	-32.4	11.9	8.04e-04	0	42	0	905969664	20	4662
2026-01-12 22:40:41.68	127.14	11.44	-30.5	-32.9	11.2	1.57e-03	0	42	0	911212544	21	4760
2026-01-12 22:40:44.70	127.58	11.26	-30.5	-32.9	11.1	1.47e-03	0	42	0	917504000	21	4772
2026-01-12 22:40:47.72	128.02	11.08	-30.1	-31.7	12.0	3.29e-04	0	42	0	922746880	21	4337
2026-01-12 22:40:50.75	128.45	10.91	-30.1	-31.7	12.0	5.12e-04	0	42	0	929038336	21	4342
2026-01-12 22:40:53.76	128.87	10.73	-30.3	-32.3	11.6	6.91e-04	0	42	0	934281216	21	4517
2026-01-12 22:40:56.78	129.29	10.55	-30.2	-31.9	11.8	5.54e-04	0	42	0	939524096	21	4402
2026-01-12 22:40:59.80	129.71	10.38	-30.0	-31.5	12.1	3.78e-04	0	42	0	945815552	21	4282
2026-01-12 22:41:02.81	130.12	10.20	-30.1	-31.8	11.8	2.17e-04	0	42	0	951058432	21	4376
2026-01-12 22:41:05.83	130.52	10.02	-30.1	-31.7	11.9	6.29e-04	0	42	0	957349888	21	4360
2026-01-12 22:41:08.85	130.92	9.84	-30.1	-31.7	11.9	4.11e-04	0	42	0	962592768	21	4348
2026-01-12 22:41:11.86	131.32	9.67	-30.0	-31.4	12.1	3.25e-04	0	42	0	967835648	21	4245
2026-01-12 22:41:14.88	131.71	9.49	-30.0	-31.6	11.9	2.72e-04	0	42	0	974127104	21	4320
2026-01-12 22:41:17.90	132.10	9.31	-30.3	-32.5	11.2	1.11e-03	0	42	0	979369984	21	4663
2026-01-12 22:41:20.92	132.48	9.14	-30.3	-32.6	11.1	1.55e-03	0	42	0	985661440	21	4695
2026-01-12 22:41:23.94	132.86	8.96	-29.8	-31.1	12.1	3.97e-04	0	42	0	990904320	21	4178
2026-01-12 22:41:26.95	133.23	8.78	-29.5	-30.7	12.7	8.69e-05	0	42	0	996147200	20	4126
2026-01-12 22:41:29.97	133.60	8.61	-29.7	-31.3	12.2	1.52e-04	0	42	0	1002438656	20	4347
2026-01-12 22:41:32.99	133.97	8.43	-30.1	-32.7	11.2	9.03e-04	0	42	0	1007681536	20	4855
2026-01-12 22:41:35.99	134.32	8.26	-30.4	-33.7	10.5	3.23e-03	0	42	0	1013972992	20	5251
2026-01-12 22:41:39.00	134.68	8.08	-30.5	-33.8	9.9	8.71e-03	0	42	0	1019215872	21	5217
2026-01-12 22:41:42.02	135.03	7.91	-30.5	-34.1	10.0	6.70e-03	0	42	0	1024458752	20	5488
2026-01-12 22:41:45.04	135.38	7.73	-30.8	-34.8	9.1	1.90e-02	0	42	0	1030750208	21	5733
2026-01-12 22:41:48.05	135.72	7.56	-31.0	-34.9	8.7	3.70e-02	0	42	0	1035993088	22	5666
2026-01-12 22:41:51.07	136.06	7.38	-30.9	-34.7	8.8	3.53e-02	0	42	0	1042284544	22	5557
2026-01-12 22:41:54.08	136.40	7.21	-30.7	-34.6	9.1	3.37e-02	0	42	0	1047527424	21	5636
2026-01-12 22:41:57.10	136.73	7.04	-32.8	-45.3	3.8	1.25e+00	0	42	104	1051721728	25	15247

#Closed at: 2026-01-12 22:41:58
#Recorded file [1051 MB]: D:/data/31010_260113_013235.dat