passes_logs/2026/01/12/R2M6_AANII_01/R2M6_AANII_01__20260112_100720_AQUA_rec.log

#Pass ID: 20260112_100720_AQUA
#Satellite: AQUA
#Configuration: AQUA
#almurnet v.1.7.20240730
#Start time: 2026-01-12 10:07:20

#Version: 2.2.20231116
#Station: R2M6_AANII_01
#Location: 30.233357 lon 59.946436 lat
#TLE: 1 27424U 02022A   26011.34052177  .00001139  00000+0  23789-3 0  9999
#TLE: 2 27424  98.4078 337.7066 0002035  82.6124  44.5301 14.61815662260355

#Time	Az	El	Level	Level2	SNR	BER	BlckErr	Temp	State	Recorded	gain1	gain2
2026-01-12 10:07:20.46	95.56	7.02	-31.1	-49.9	3.8	7.43e-01	0	42	0	0	24	31344
2026-01-12 10:07:22.45	95.32	7.14	-31.1	-49.8	3.8	7.44e-01	0	42	104	0	24	31259
2026-01-12 10:07:24.45	95.08	7.27	-31.2	-50.1	3.8	7.43e-01	0	42	104	0	24	31707
2026-01-12 10:07:26.46	94.84	7.40	-31.4	-50.4	3.8	7.41e-01	0	42	104	0	24	32227
2026-01-12 10:07:28.47	94.59	7.52	-31.4	-50.5	3.8	7.50e-01	0	42	104	0	24	32343
2026-01-12 10:07:30.47	94.34	7.65	-31.4	-50.4	3.8	7.46e-01	0	42	104	0	24	32114
2026-01-12 10:07:32.48	94.09	7.78	-31.5	-50.0	3.8	7.44e-01	0	42	104	0	24	30174
2026-01-12 10:07:34.49	93.84	7.91	-31.8	-47.4	4.3	7.28e-01	0	42	104	0	24	21504
2026-01-12 10:07:36.49	93.59	8.03	-32.1	-43.9	6.9	6.63e-01	0	42	0	0	24	14100
2026-01-12 10:07:38.49	93.33	8.16	-32.1	-40.9	10.0	6.27e-01	0	42	0	3670016	25	9821
2026-01-12 10:07:40.49	93.07	8.29	-32.4	-41.3	9.8	6.27e-01	0	42	0	7340032	25	10105
2026-01-12 10:07:42.49	92.81	8.42	-32.4	-41.0	10.4	6.19e-01	0	42	0	11010048	25	9707
2026-01-12 10:07:44.49	92.54	8.55	-32.3	-40.7	10.6	6.20e-01	0	42	0	14680064	25	9405
2026-01-12 10:07:46.48	92.28	8.68	-32.4	-40.5	11.0	6.19e-01	0	42	0	18350080	25	9198
2026-01-12 10:07:48.48	92.01	8.80	-32.1	-38.7	12.6	6.11e-01	0	42	0	22544384	25	7738
2026-01-12 10:07:50.49	91.74	8.93	-31.3	-35.9	15.2	6.07e-01	0	42	0	26214400	24	6151
2026-01-12 10:07:52.49	91.46	9.06	-31.0	-34.9	16.1	6.06e-01	0	42	0	29884416	24	5626
2026-01-12 10:07:54.49	91.18	9.19	-30.5	-33.7	17.2	6.07e-01	0	42	0	33554432	23	5216
2026-01-12 10:07:56.50	90.90	9.32	-30.2	-33.4	17.8	6.06e-01	0	42	0	37224448	22	5181
2026-01-12 10:07:58.49	90.62	9.45	-30.4	-33.9	17.5	6.07e-01	0	42	0	40894464	22	5389
2026-01-12 10:08:00.48	90.34	9.58	-30.3	-33.6	17.7	6.08e-01	0	42	0	45088768	22	5253
2026-01-12 10:08:02.49	90.05	9.71	-30.3	-33.5	17.8	6.05e-01	0	42	0	48758784	22	5227
2026-01-12 10:08:04.48	89.76	9.84	-30.3	-33.5	17.8	6.08e-01	0	42	0	52428800	22	5240
2026-01-12 10:08:06.48	89.46	9.97	-30.1	-33.1	18.1	6.05e-01	0	42	0	56098816	22	5052
2026-01-12 10:08:08.47	89.17	10.10	-30.1	-33.0	18.2	6.06e-01	0	42	0	59768832	22	5029
2026-01-12 10:08:10.49	88.86	10.23	-30.2	-33.2	18.1	6.09e-01	0	42	0	63438848	22	5090
2026-01-12 10:08:12.49	88.56	10.36	-30.2	-33.3	18.1	6.05e-01	0	42	0	67108864	22	5116
2026-01-12 10:08:14.48	88.26	10.49	-30.2	-33.0	18.3	6.06e-01	0	42	0	71303168	22	5018
2026-01-12 10:08:16.49	87.94	10.62	-30.1	-32.8	18.5	6.06e-01	0	42	0	74973184	22	4927
2026-01-12 10:08:18.49	87.63	10.75	-29.9	-32.4	18.8	6.08e-01	0	42	0	78643200	22	4779
2026-01-12 10:08:20.50	87.32	10.88	-30.0	-32.6	18.6	6.08e-01	0	42	0	82313216	22	4862
2026-01-12 10:08:22.50	87.00	11.01	-30.0	-32.5	18.6	6.06e-01	0	42	0	85983232	22	4843
2026-01-12 10:08:24.50	86.68	11.14	-30.0	-32.7	18.6	6.07e-01	0	42	0	89653248	22	4883
2026-01-12 10:08:26.50	86.35	11.27	-30.1	-32.7	18.5	6.08e-01	0	42	0	93323264	22	4910
2026-01-12 10:08:28.49	86.03	11.40	-30.0	-32.5	18.7	6.05e-01	0	42	0	97517568	22	4822
2026-01-12 10:08:30.50	85.69	11.53	-30.1	-32.8	18.6	6.08e-01	0	42	0	101187584	22	4930
2026-01-12 10:08:32.51	85.36	11.66	-30.1	-32.9	18.5	6.06e-01	0	42	0	104857600	22	4960
2026-01-12 10:08:34.51	85.02	11.79	-30.3	-33.4	18.2	6.06e-01	0	42	0	108527616	22	5149
2026-01-12 10:08:36.51	84.68	11.92	-30.2	-33.0	18.4	6.07e-01	0	42	0	112197632	22	5004
2026-01-12 10:08:38.50	84.34	12.05	-30.0	-32.6	18.7	6.05e-01	0	42	0	115867648	22	4855
2026-01-12 10:08:40.51	83.99	12.18	-30.1	-32.9	18.6	6.07e-01	0	42	0	120061952	22	4937
2026-01-12 10:08:42.51	83.64	12.31	-30.1	-32.9	18.6	6.05e-01	0	42	0	123731968	22	4933
2026-01-12 10:08:44.52	83.29	12.43	-30.0	-32.6	18.7	6.05e-01	0	42	0	127401984	22	4853
2026-01-12 10:08:46.52	82.93	12.56	-30.0	-32.6	18.8	6.06e-01	0	42	0	131072000	22	4838
2026-01-12 10:08:48.52	82.57	12.69	-30.0	-32.6	18.8	6.07e-01	0	42	0	134742016	22	4828
2026-01-12 10:08:50.52	82.21	12.82	-29.9	-32.3	18.9	6.05e-01	0	42	0	138936320	22	4753
2026-01-12 10:08:52.52	81.84	12.95	-29.9	-32.4	18.9	6.06e-01	0	42	0	142606336	22	4757
2026-01-12 10:08:54.52	81.47	13.07	-30.0	-32.6	18.8	6.07e-01	0	42	0	146276352	22	4821
2026-01-12 10:08:56.51	81.10	13.20	-30.1	-32.8	18.7	6.06e-01	0	42	0	149946368	22	4902
2026-01-12 10:08:58.51	80.72	13.32	-30.0	-32.6	18.8	6.05e-01	0	42	0	153616384	22	4825
2026-01-12 10:09:00.52	80.34	13.45	-29.9	-32.4	18.9	6.06e-01	0	42	0	157286400	22	4757
2026-01-12 10:09:02.52	79.95	13.58	-29.9	-32.3	19.0	6.04e-01	0	42	0	160956416	22	4721
2026-01-12 10:09:04.51	79.57	13.70	-30.1	-32.8	18.7	6.06e-01	0	42	0	165150720	22	4894
2026-01-12 10:09:06.52	79.17	13.82	-30.1	-32.7	18.8	6.05e-01	0	42	0	168820736	22	4855
2026-01-12 10:09:08.52	78.78	13.95	-30.1	-32.6	18.9	6.05e-01	0	42	0	172490752	22	4822
2026-01-12 10:09:10.52	78.38	14.07	-30.0	-32.4	19.0	6.06e-01	0	42	0	176160768	22	4743
2026-01-12 10:09:12.52	77.98	14.19	-30.1	-32.8	18.8	6.06e-01	0	42	0	179830784	22	4876
2026-01-12 10:09:14.51	77.57	14.31	-30.0	-32.5	19.0	6.06e-01	0	42	0	183500800	22	4786
2026-01-12 10:09:16.51	77.16	14.43	-30.1	-32.7	18.8	6.06e-01	0	42	0	187170816	22	4859
2026-01-12 10:09:18.51	76.75	14.55	-30.1	-32.6	18.9	6.04e-01	0	42	0	190840832	22	4820
2026-01-12 10:09:20.52	76.33	14.67	-30.4	-33.5	18.4	6.06e-01	0	42	0	195035136	22	5141
2026-01-12 10:09:22.53	75.91	14.79	-30.3	-33.4	18.5	6.05e-01	0	42	0	198705152	22	5092
2026-01-12 10:09:24.54	75.48	14.91	-30.4	-33.5	18.4	6.07e-01	0	42	0	202375168	22	5129
2026-01-12 10:09:26.55	75.05	15.03	-30.5	-33.7	18.3	6.07e-01	0	42	0	206045184	22	5228
2026-01-12 10:09:28.56	74.62	15.14	-30.2	-32.9	18.7	6.06e-01	0	42	0	209715200	22	4935
2026-01-12 10:09:30.56	74.19	15.26	-30.1	-32.7	18.9	6.08e-01	0	42	0	213909504	22	4864
2026-01-12 10:09:32.57	73.75	15.37	-30.1	-32.7	18.9	6.08e-01	0	42	0	217579520	22	4860
2026-01-12 10:09:34.59	73.30	15.49	-30.1	-32.6	19.0	6.05e-01	0	42	0	221249536	22	4824
2026-01-12 10:09:36.60	72.85	15.60	-30.0	-32.4	19.1	6.07e-01	0	42	0	224919552	22	4757
2026-01-12 10:09:38.61	72.40	15.71	-30.2	-32.9	18.9	6.08e-01	0	42	0	228589568	22	4905
2026-01-12 10:09:40.61	71.95	15.82	-30.4	-33.3	18.6	6.06e-01	0	42	0	232259584	22	5064
2026-01-12 10:09:42.62	71.49	15.93	-30.3	-33.3	18.6	6.04e-01	0	42	0	236453888	22	5046
2026-01-12 10:09:44.63	71.03	16.04	-30.4	-33.5	18.4	6.08e-01	0	42	0	240123904	22	5148
2026-01-12 10:09:46.65	70.56	16.14	-30.5	-33.8	18.3	6.06e-01	0	42	0	243793920	22	5253
2026-01-12 10:09:48.65	70.10	16.25	-30.5	-33.7	18.4	6.06e-01	0	42	0	247463936	22	5197
2026-01-12 10:09:50.66	69.62	16.35	-30.3	-33.3	18.6	6.06e-01	0	42	0	251658240	22	5055
2026-01-12 10:09:52.66	69.15	16.45	-31.0	-44.2	3.8	7.44e-01	0	42	104	252706816	22	16510
2026-01-12 10:09:54.68	68.67	16.56	-31.8	-45.7	3.8	7.46e-01	0	42	104	252706816	24	17757
2026-01-12 10:09:56.68	68.19	16.65	-32.5	-47.4	3.8	7.43e-01	0	42	104	252706816	25	20128
2026-01-12 10:09:58.69	67.70	16.75	-32.7	-47.5	3.8	7.44e-01	0	42	104	252706816	26	19934
2026-01-12 10:10:00.71	67.21	16.85	-32.9	-48.4	3.8	7.49e-01	0	42	104	252706816	26	21379
2026-01-12 10:10:02.73	66.71	16.94	-33.1	-48.8	3.8	7.45e-01	0	42	104	252706816	27	21925
2026-01-12 10:10:04.73	66.22	17.04	-33.4	-50.2	3.8	7.46e-01	0	42	104	252706816	27	24698
2026-01-12 10:10:06.73	65.72	17.13	-33.5	-50.4	3.8	7.43e-01	0	42	104	252706816	27	25358
2026-01-12 10:10:08.75	65.22	17.22	-33.5	-50.3	3.8	7.46e-01	0	42	104	252706816	27	25071
2026-01-12 10:10:10.76	64.71	17.30	-33.5	-50.5	3.8	7.48e-01	0	42	104	252706816	27	25472
2026-01-12 10:10:12.77	64.21	17.39	-33.5	-50.3	3.8	7.44e-01	0	42	104	252706816	27	25048
2026-01-12 10:10:14.78	63.69	17.47	-33.4	-50.1	3.8	7.44e-01	0	42	104	252706816	27	24523
2026-01-12 10:10:16.79	63.18	17.55	-33.3	-49.7	3.8	7.45e-01	0	42	104	252706816	27	23793
2026-01-12 10:10:18.80	62.66	17.63	-33.1	-48.7	3.8	7.44e-01	0	42	104	252706816	27	21683
2026-01-12 10:10:20.81	62.14	17.71	-32.6	-46.7	3.8	7.42e-01	0	42	104	252706816	27	18296
2026-01-12 10:10:22.82	61.62	17.79	-32.2	-45.8	3.8	7.46e-01	0	42	104	252706816	26	17172
2026-01-12 10:10:24.83	61.09	17.86	-32.0	-45.2	3.8	7.41e-01	0	42	104	252706816	26	16496
2026-01-12 10:10:26.84	60.56	17.93	-31.9	-44.9	3.8	7.44e-01	0	42	104	252706816	26	16075
2026-01-12 10:10:28.85	60.03	18.00	-32.1	-45.5	3.8	7.45e-01	0	42	104	252706816	26	16811
2026-01-12 10:10:30.86	59.50	18.07	-31.5	-44.1	3.8	7.45e-01	0	42	104	252706816	25	15414
2026-01-12 10:10:32.88	58.96	18.13	-30.9	-42.8	3.8	7.44e-01	0	42	104	252706816	24	14276
2026-01-12 10:10:34.89	58.42	18.20	-30.8	-43.2	3.8	7.43e-01	0	42	104	252706816	23	14993
2026-01-12 10:10:36.90	57.88	18.26	-30.8	-43.2	3.8	7.42e-01	0	42	104	252706816	23	14987
2026-01-12 10:10:38.92	57.33	18.31	-30.7	-43.0	3.8	7.41e-01	0	42	104	252706816	23	14798
2026-01-12 10:10:40.94	56.79	18.37	-31.0	-43.6	3.8	7.45e-01	0	42	104	252706816	23	15462
2026-01-12 10:10:42.95	56.24	18.42	-31.6	-44.9	3.8	7.47e-01	0	42	104	252706816	24	16662
2026-01-12 10:10:44.96	55.69	18.47	-32.1	-45.9	3.8	7.44e-01	0	42	104	252706816	25	17717
2026-01-12 10:10:46.98	55.14	18.52	-32.7	-47.6	3.8	7.49e-01	0	42	104	252706816	26	20040
2026-01-12 10:10:48.99	54.58	18.57	-33.0	-48.8	3.8	7.42e-01	0	42	104	252706816	26	22207
2026-01-12 10:10:51.00	54.03	18.61	-33.4	-50.0	3.8	7.44e-01	0	42	104	252706816	27	24319
2026-01-12 10:10:53.01	53.47	18.65	-33.5	-50.7	3.8	7.46e-01	0	42	104	252706816	27	25966
2026-01-12 10:10:55.03	52.91	18.69	-33.4	-50.3	3.8	7.44e-01	0	42	104	252706816	27	25143
2026-01-12 10:10:57.04	52.35	18.72	-33.5	-50.4	3.8	7.44e-01	0	42	104	252706816	27	25419
2026-01-12 10:10:59.05	51.79	18.75	-33.5	-50.4	3.8	7.46e-01	0	42	104	252706816	27	25304
2026-01-12 10:11:01.06	51.23	18.78	-33.5	-50.4	3.8	7.41e-01	0	42	104	252706816	27	25141
2026-01-12 10:11:03.07	50.67	18.81	-33.4	-50.1	3.8	7.48e-01	0	42	104	252706816	27	24697
2026-01-12 10:11:05.09	50.10	18.84	-33.5	-50.5	3.8	7.48e-01	0	42	104	252706816	27	25371
2026-01-12 10:11:07.10	49.54	18.86	-33.3	-49.4	3.8	7.43e-01	0	42	104	252706816	27	23090
2026-01-12 10:11:09.12	48.97	18.88	-32.9	-47.9	3.8	7.48e-01	0	42	104	252706816	27	20307
2026-01-12 10:11:11.13	48.40	18.89	-32.3	-46.3	3.8	7.44e-01	0	42	104	252706816	26	18007
2026-01-12 10:11:13.14	47.84	18.90	-31.9	-44.9	3.8	7.45e-01	0	42	104	252706816	26	16032
2026-01-12 10:11:15.15	47.27	18.92	-31.8	-45.0	3.8	7.49e-01	0	42	104	252706816	25	16433
2026-01-12 10:11:17.16	46.70	18.92	-32.0	-45.6	3.8	7.44e-01	0	42	104	252706816	25	17379
2026-01-12 10:11:19.17	46.13	18.93	-31.8	-45.1	3.8	7.47e-01	0	42	104	252706816	25	16644
2026-01-12 10:11:21.19	45.56	18.93	-31.1	-43.4	3.8	7.41e-01	0	42	104	252706816	24	14883
2026-01-12 10:11:23.20	44.99	18.93	-30.5	-42.4	3.8	7.47e-01	0	42	104	252706816	23	14154
2026-01-12 10:11:25.21	44.43	18.93	-30.6	-42.6	3.8	7.44e-01	0	42	104	252706816	23	14343
2026-01-12 10:11:27.23	43.86	18.92	-30.8	-43.1	3.8	7.44e-01	0	42	104	252706816	23	14840
2026-01-12 10:11:29.24	43.29	18.91	-31.2	-44.2	3.8	7.44e-01	0	42	104	252706816	23	16193
2026-01-12 10:11:31.25	42.72	18.90	-31.7	-45.2	3.8	7.44e-01	0	42	104	252706816	24	17086
2026-01-12 10:11:33.26	42.16	18.88	-32.1	-46.0	3.8	7.43e-01	0	42	104	252706816	25	17821
2026-01-12 10:11:35.27	41.59	18.87	-32.6	-47.7	3.8	7.45e-01	0	42	104	252706816	25	20585
2026-01-12 10:11:37.28	41.03	18.85	-32.9	-48.7	3.8	7.44e-01	0	42	104	252706816	26	22065
2026-01-12 10:11:39.28	40.47	18.82	-33.4	-50.4	3.8	7.46e-01	0	42	104	252706816	27	25421
2026-01-12 10:11:41.30	39.90	18.80	-33.5	-51.0	3.8	7.47e-01	0	42	104	252706816	27	27081
2026-01-12 10:11:43.31	39.34	18.77	-33.1	-49.2	3.8	7.48e-01	0	42	104	252706816	27	22889
2026-01-12 10:11:45.32	38.78	18.74	-33.3	-50.2	3.8	7.45e-01	0	42	104	252706816	27	24989
2026-01-12 10:11:47.33	38.22	18.70	-33.4	-50.1	3.8	7.46e-01	0	42	104	252706816	27	24725
2026-01-12 10:11:49.34	37.66	18.67	-33.4	-50.1	3.8	7.45e-01	0	42	104	252706816	27	24864
2026-01-12 10:11:51.36	37.10	18.63	-33.3	-50.0	3.8	7.41e-01	0	42	104	252706816	27	24419
2026-01-12 10:11:53.38	36.55	18.59	-33.3	-50.0	3.8	7.44e-01	0	42	104	252706816	27	24677
2026-01-12 10:11:55.39	35.99	18.54	-33.2	-49.7	3.8	7.45e-01	0	42	104	252706816	27	23831
2026-01-12 10:11:57.40	35.44	18.50	-33.0	-48.6	3.8	7.42e-01	0	42	104	252706816	27	21731
2026-01-12 10:11:59.40	34.89	18.45	-32.7	-47.3	3.8	7.45e-01	0	42	104	252706816	27	19369
2026-01-12 10:12:01.42	34.34	18.40	-32.0	-45.2	3.8	7.42e-01	0	42	104	252706816	26	16488
2026-01-12 10:12:03.43	33.80	18.34	-31.6	-44.4	3.8	7.45e-01	0	42	104	252706816	25	15806
2026-01-12 10:12:05.44	33.26	18.28	-31.6	-44.6	3.8	7.47e-01	0	42	104	252706816	25	16071
2026-01-12 10:12:07.46	32.71	18.23	-31.7	-44.8	3.8	7.44e-01	0	42	104	252706816	25	16279
2026-01-12 10:12:09.47	32.17	18.16	-31.5	-44.3	3.8	7.44e-01	0	42	104	252706816	25	15719
2026-01-12 10:12:11.48	31.64	18.10	-30.9	-42.8	3.8	7.45e-01	0	42	104	252706816	24	14270
2026-01-12 10:12:13.50	31.10	18.03	-30.6	-42.7	3.8	7.46e-01	0	42	104	252706816	23	14607
2026-01-12 10:12:15.51	30.57	17.97	-30.5	-42.4	3.8	7.42e-01	0	42	104	252706816	23	14163
2026-01-12 10:12:17.52	30.04	17.90	-31.2	-44.2	3.8	7.44e-01	0	42	104	252706816	23	16230
2026-01-12 10:12:19.53	29.51	17.82	-31.8	-45.9	3.8	7.45e-01	0	42	104	252706816	24	18051
2026-01-12 10:12:21.55	28.99	17.75	-32.4	-47.2	3.8	7.45e-01	0	42	104	252706816	25	19828
2026-01-12 10:12:23.56	28.47	17.67	-32.8	-48.1	3.8	7.46e-01	0	42	104	252706816	26	21034
2026-01-12 10:12:25.58	27.95	17.59	-33.1	-49.4	3.8	7.45e-01	0	42	104	252706816	26	23559
2026-01-12 10:12:27.58	27.44	17.51	-33.3	-50.0	3.8	7.44e-01	0	42	104	252706816	27	24642
2026-01-12 10:12:29.60	26.92	17.43	-33.2	-49.7	3.8	7.46e-01	0	42	104	252706816	27	24100
2026-01-12 10:12:31.61	26.41	17.35	-33.0	-48.8	3.8	7.47e-01	0	42	104	252706816	27	22082
2026-01-12 10:12:33.63	25.91	17.26	-32.8	-47.9	3.8	7.42e-01	0	42	104	252706816	27	20422
2026-01-12 10:12:35.64	25.40	17.17	-33.1	-48.8	3.8	7.44e-01	0	42	104	252706816	27	22145
2026-01-12 10:12:37.65	24.90	17.08	-33.2	-49.7	3.8	7.47e-01	0	42	104	252706816	27	23971
2026-01-12 10:12:39.66	24.41	16.99	-33.3	-49.9	3.8	7.46e-01	0	42	104	252706816	27	24566
2026-01-12 10:12:41.67	23.92	16.90	-33.2	-49.7	3.8	7.45e-01	0	42	104	252706816	27	24165
2026-01-12 10:12:43.68	23.43	16.80	-33.2	-49.5	3.8	7.45e-01	0	42	104	252706816	27	23609
2026-01-12 10:12:45.69	22.94	16.70	-33.1	-49.6	3.8	7.46e-01	0	42	104	252706816	27	23804
2026-01-12 10:12:47.70	22.46	16.61	-32.8	-47.8	3.8	7.43e-01	0	42	104	252706816	27	20403
2026-01-12 10:12:49.71	21.98	16.51	-32.2	-46.0	3.8	7.45e-01	0	42	104	252706816	26	17665
2026-01-12 10:12:51.72	21.50	16.40	-31.4	-44.0	3.8	7.45e-01	0	42	104	252706816	25	15454
2026-01-12 10:12:53.73	21.03	16.30	-31.2	-44.0	3.8	7.47e-01	0	42	104	252706816	24	15672
2026-01-12 10:12:55.74	20.56	16.20	-31.4	-44.4	3.8	7.41e-01	0	42	104	252706816	24	16181
2026-01-12 10:12:57.74	20.10	16.09	-31.6	-45.2	3.8	7.44e-01	0	42	104	252706816	24	17211
2026-01-12 10:12:59.76	19.63	15.99	-31.6	-45.2	3.8	7.43e-01	0	42	104	252706816	24	17322
2026-01-12 10:13:01.77	19.18	15.88	-31.1	-43.6	3.8	7.44e-01	0	42	104	252706816	24	15203
2026-01-12 10:13:03.77	18.72	15.77	-30.8	-43.4	3.8	7.45e-01	0	42	104	252706816	23	15356
2026-01-12 10:13:05.78	18.27	15.66	-31.0	-43.9	3.8	7.41e-01	0	42	104	252706816	23	15898
2026-01-12 10:13:07.78	17.83	15.55	-32.1	-46.5	3.9	7.44e-01	0	42	104	252706816	25	18793
2026-01-12 10:13:09.79	17.38	15.44	-33.0	-49.6	3.8	7.46e-01	0	42	104	252706816	26	24104
2026-01-12 10:13:11.80	16.94	15.32	-33.3	-50.2	3.8	7.44e-01	0	42	104	252706816	27	25442
2026-01-12 10:13:13.81	16.51	15.21	-33.2	-49.8	3.8	7.46e-01	0	42	104	252706816	27	24394
2026-01-12 10:13:15.82	16.07	15.09	-33.2	-50.1	3.8	7.45e-01	0	42	104	252706816	27	25228
2026-01-12 10:13:17.83	15.65	14.98	-33.1	-49.7	3.8	7.44e-01	0	42	104	252706816	27	24203
2026-01-12 10:13:19.83	15.22	14.86	-32.9	-48.7	3.8	7.43e-01	0	42	104	252706816	27	22158
2026-01-12 10:13:21.84	14.80	14.74	-32.7	-47.8	3.8	7.44e-01	0	42	104	252706816	27	20506
2026-01-12 10:13:23.85	14.38	14.62	-32.5	-46.9	3.8	7.44e-01	0	42	104	252706816	27	19009
2026-01-12 10:13:25.87	13.96	14.50	-32.7	-47.9	3.8	7.47e-01	0	42	104	252706816	27	20690
2026-01-12 10:13:27.88	13.55	14.38	-33.0	-49.4	3.8	7.48e-01	0	42	104	252706816	27	23736
2026-01-12 10:13:29.89	13.15	14.26	-33.1	-49.6	3.8	7.44e-01	0	42	104	252706816	27	24234
2026-01-12 10:13:31.91	12.74	14.14	-33.0	-49.5	3.8	7.45e-01	0	42	104	252706816	27	23979
2026-01-12 10:13:33.92	12.34	14.01	-33.0	-49.3	3.8	7.42e-01	0	42	104	252706816	27	23570
2026-01-12 10:13:35.93	11.94	13.89	-33.0	-49.2	3.8	7.44e-01	0	42	104	252706816	27	23388
2026-01-12 10:13:37.94	11.55	13.77	-32.6	-47.6	3.8	7.42e-01	0	42	104	252706816	27	20183
2026-01-12 10:13:39.96	11.16	13.64	-32.0	-45.7	3.8	7.45e-01	0	42	104	252706816	26	17403
2026-01-12 10:13:41.97	10.77	13.52	-31.2	-44.1	3.8	7.46e-01	0	42	104	252706816	24	15859
2026-01-12 10:13:43.99	10.39	13.39	-31.4	-44.7	3.8	7.43e-01	0	42	104	252706816	24	16779
2026-01-12 10:13:45.99	10.01	13.27	-31.8	-46.0	3.8	7.40e-01	0	42	104	252706816	24	18531
2026-01-12 10:13:48.01	9.64	13.14	-32.2	-47.2	3.8	7.47e-01	0	42	104	252706816	25	20208
2026-01-12 10:13:50.00	9.27	13.01	-32.3	-47.2	3.8	7.45e-01	0	42	104	252706816	25	20026
2026-01-12 10:13:52.02	8.90	12.89	-31.9	-45.8	3.8	7.45e-01	0	42	104	252706816	25	17831
2026-01-12 10:13:54.03	8.53	12.76	-31.7	-45.4	3.8	7.45e-01	0	42	104	252706816	25	17338
2026-01-12 10:13:56.04	8.17	12.63	-32.1	-46.8	3.8	7.45e-01	0	42	104	252706816	25	19412
2026-01-12 10:13:58.05	7.81	12.50	-32.7	-48.5	3.8	7.47e-01	0	42	104	252706816	26	22107
2026-01-12 10:14:00.06	7.46	12.37	-32.8	-48.7	3.8	7.45e-01	0	42	104	252706816	26	22642
2026-01-12 10:14:02.07	7.11	12.24	-32.6	-47.9	3.8	7.44e-01	0	42	104	252706816	26	21142
2026-01-12 10:14:04.09	6.76	12.11	-32.7	-48.5	3.8	7.45e-01	0	42	104	252706816	26	22121
2026-01-12 10:14:06.10	6.41	11.99	-32.8	-49.2	3.8	7.45e-01	0	42	104	252706816	26	23606
2026-01-12 10:14:08.11	6.07	11.86	-32.8	-49.1	3.8	7.47e-01	0	42	104	252706816	26	23535
2026-01-12 10:14:10.13	5.73	11.73	-32.6	-48.3	3.8	7.44e-01	0	42	104	252706816	26	21819
2026-01-12 10:14:12.14	5.40	11.60	-32.4	-47.2	3.8	7.47e-01	0	42	104	252706816	26	19983
2026-01-12 10:14:14.15	5.07	11.47	-32.1	-46.3	3.8	7.44e-01	0	42	104	252706816	26	18411
2026-01-12 10:14:16.17	4.74	11.34	-32.7	-48.6	3.8	7.48e-01	0	42	104	252706816	26	22621
2026-01-12 10:14:18.17	4.41	11.21	-33.0	-50.2	3.8	7.47e-01	0	42	104	252706816	26	26130
2026-01-12 10:14:20.19	4.09	11.08	-33.0	-50.2	3.8	7.46e-01	0	42	104	252706816	26	26230
2026-01-12 10:14:22.21	3.77	10.95	-32.9	-49.8	3.8	7.43e-01	0	42	104	252706816	26	25233
2026-01-12 10:14:24.22	3.45	10.81	-32.9	-50.0	3.8	7.44e-01	0	42	104	252706816	26	25687
2026-01-12 10:14:26.23	3.14	10.68	-32.9	-50.1	3.8	7.44e-01	0	42	104	252706816	26	25860
2026-01-12 10:14:28.24	2.83	10.55	-32.6	-48.4	3.8	7.45e-01	0	42	104	252706816	26	22213
2026-01-12 10:14:30.24	2.53	10.42	-32.2	-46.5	3.8	7.44e-01	0	42	104	252706816	26	18719
2026-01-12 10:14:32.25	2.22	10.29	-31.6	-45.1	3.8	7.44e-01	0	42	104	252706816	25	16973
2026-01-12 10:14:34.27	1.92	10.16	-32.0	-46.6	3.8	7.43e-01	0	42	104	252706816	25	19188
2026-01-12 10:14:36.28	1.62	10.03	-32.4	-48.0	3.8	7.46e-01	0	42	104	252706816	25	21615
2026-01-12 10:14:38.29	1.33	9.90	-32.7	-48.8	3.8	7.47e-01	0	42	104	252706816	26	22940
2026-01-12 10:14:40.31	1.04	9.77	-32.7	-49.2	3.8	7.44e-01	0	42	104	252706816	26	23827
2026-01-12 10:14:42.32	0.75	9.64	-32.8	-49.5	3.8	7.45e-01	0	42	104	252706816	26	24493
2026-01-12 10:14:44.33	0.46	9.51	-32.6	-48.4	3.8	7.44e-01	0	42	104	252706816	26	22313
2026-01-12 10:14:46.35	0.18	9.38	-33.0	-50.4	3.8	7.46e-01	0	42	104	252706816	26	26686
2026-01-12 10:14:48.36	359.90	9.25	-32.7	-48.9	3.8	7.46e-01	0	42	104	252706816	26	23260
2026-01-12 10:14:50.38	359.62	9.12	-32.3	-46.9	3.8	7.43e-01	0	42	104	252706816	26	19435
2026-01-12 10:14:52.39	359.34	8.99	-32.2	-46.9	3.8	7.41e-01	0	42	104	252706816	26	19404
2026-01-12 10:14:54.40	359.07	8.87	-32.5	-48.1	3.8	7.48e-01	0	42	104	252706816	26	21868
2026-01-12 10:14:56.42	358.80	8.74	-32.8	-49.6	3.8	7.46e-01	0	42	104	252706816	26	25131
2026-01-12 10:14:58.42	358.53	8.61	-32.6	-48.9	3.8	7.44e-01	0	42	104	252706816	26	23402
2026-01-12 10:15:00.41	358.27	8.48	-32.4	-47.5	3.8	7.47e-01	0	42	104	252706816	26	20472
2026-01-12 10:15:02.42	358.01	8.35	-32.3	-47.0	3.8	7.44e-01	0	42	104	252706816	26	19573
2026-01-12 10:15:04.43	357.75	8.22	-32.1	-46.8	3.8	7.42e-01	0	42	104	252706816	26	19447
2026-01-12 10:15:06.45	357.49	8.09	-32.6	-49.0	3.8	7.46e-01	0	42	104	252706816	26	23905
2026-01-12 10:15:08.46	357.24	7.97	-32.8	-50.2	3.8	7.46e-01	0	42	104	252706816	26	26753
2026-01-12 10:15:10.48	356.99	7.84	-32.7	-49.7	3.8	7.43e-01	0	42	104	252706816	26	25308
2026-01-12 10:15:12.49	356.74	7.71	-32.8	-50.0	3.8	7.46e-01	0	42	104	252706816	26	26165
2026-01-12 10:15:14.50	356.49	7.58	-32.8	-50.4	3.8	7.47e-01	0	42	104	252706816	26	27287
2026-01-12 10:15:16.51	356.25	7.46	-32.7	-50.0	3.8	7.43e-01	0	42	104	252706816	26	26302
2026-01-12 10:15:18.52	356.00	7.33	-32.6	-48.8	3.8	7.46e-01	0	42	104	252706816	26	23297
2026-01-12 10:15:20.54	355.76	7.20	-32.3	-47.9	3.8	7.41e-01	0	42	104	252706816	26	21743
2026-01-12 10:15:22.55	355.53	7.08	-33.3	-52.5	3.8	7.44e-01	0	42	104	252706816	27	32798

#Closed at: 2026-01-12 10:15:24
#Recorded file [252 MB]: D:/data/31010_260112_130736.dat