passes_logs/2026/01/12/R2M6_AANII_01/R2M6_AANII_01__20260112_112355_FENGYUN_3D_rec.log

#Pass ID: 20260112_112355_FENGYUN 3D
#Satellite: FENGYUN 3D
#Configuration: FENGYUN 3D
#almurnet v.1.7.20240730
#Start time: 2026-01-12 11:23:54

#Version: 2.2.20231116
#Station: R2M6_AANII_01
#Location: 30.233357 lon 59.946436 lat
#TLE: 1 43010U 17072A   26011.26828046  .00000354  00000+0  18908-3 0  9991
#TLE: 2 43010  98.9936 343.0270 0002205 114.1788 245.9618 14.19695184422722

#Time	Az	El	Level	Level2	SNR	BER	BlckErr	Temp	State	Recorded	gain1	gain2
2026-01-12 11:23:54.86	130.53	6.99	-29.7	-32.6	5.3	7.88e-01	0	39	0	0	20	5057
2026-01-12 11:23:57.87	130.39	7.21	-29.5	-32.2	9.9	1.40e-02	0	39	0	5242880	20	4888
2026-01-12 11:24:00.89	130.25	7.44	-29.5	-32.0	10.1	1.06e-02	0	40	0	22020096	20	4813
2026-01-12 11:24:03.91	130.10	7.67	-29.5	-32.0	10.1	1.24e-02	0	40	0	39845888	20	4804
2026-01-12 11:24:06.93	129.96	7.90	-28.4	-30.0	12.1	5.17e-04	0	40	0	56623104	18	4351
2026-01-12 11:24:09.94	129.81	8.13	-27.4	-28.7	13.6	1.14e-05	0	40	0	73400320	16	4183
2026-01-12 11:24:12.95	129.66	8.37	-27.0	-28.3	13.9	3.40e-06	0	40	0	90177536	15	4196
2026-01-12 11:24:15.97	129.50	8.60	-26.9	-28.0	14.1	1.10e-06	0	40	0	106954752	15	4109
2026-01-12 11:24:18.99	129.35	8.84	-26.9	-28.0	14.1	4.50e-06	0	40	0	123731968	15	4113
2026-01-12 11:24:22.01	129.19	9.08	-27.1	-28.6	13.8	9.10e-06	0	40	0	140509184	15	4268
2026-01-12 11:24:25.02	129.03	9.32	-26.8	-28.3	14.3	2.20e-06	0	40	0	158334976	14	4273
2026-01-12 11:24:28.04	128.86	9.57	-26.8	-28.2	14.3	3.40e-06	0	40	0	175112192	14	4269
2026-01-12 11:24:31.05	128.70	9.82	-26.9	-28.5	14.2	1.10e-06	0	40	0	191889408	14	4339
2026-01-12 11:24:34.07	128.53	10.07	-26.8	-28.3	14.4	1.10e-06	0	41	0	208666624	14	4278
2026-01-12 11:24:37.08	128.35	10.32	-26.6	-28.0	14.6	0.00e+00	0	41	0	225443840	14	4193
2026-01-12 11:24:40.09	128.18	10.57	-26.7	-28.0	14.5	2.20e-06	0	41	0	243269632	14	4211
2026-01-12 11:24:43.11	128.00	10.83	-26.8	-28.3	14.4	2.20e-06	0	41	0	260046848	14	4276
2026-01-12 11:24:46.12	127.81	11.09	-26.6	-27.9	14.7	6.80e-06	0	41	0	276824064	14	4181
2026-01-12 11:24:49.14	127.63	11.35	-26.8	-28.3	14.4	0.00e+00	0	41	0	293601280	14	4287
2026-01-12 11:24:52.15	127.44	11.61	-26.3	-27.2	15.1	0.00e+00	0	41	0	310378496	14	3985
2026-01-12 11:24:55.17	127.24	11.88	-26.3	-27.6	15.2	5.70e-06	0	41	0	328204288	13	4192
2026-01-12 11:24:58.19	127.05	12.15	-26.1	-27.3	15.3	5.70e-06	0	41	0	344981504	13	4109
2026-01-12 11:25:01.21	126.84	12.42	-26.0	-27.1	15.5	0.00e+00	0	41	0	361758720	13	4057
2026-01-12 11:25:04.22	126.64	12.69	-25.8	-26.6	15.7	0.00e+00	0	41	0	378535936	13	3946
2026-01-12 11:25:07.24	126.43	12.97	-25.8	-26.6	15.8	1.10e-06	0	41	0	395313152	13	3934
2026-01-12 11:25:10.26	126.22	13.25	-25.8	-27.0	15.9	0.00e+00	0	41	0	413138944	12	4133
2026-01-12 11:25:13.28	126.00	13.53	-25.7	-26.8	16.0	1.10e-06	0	41	0	429916160	12	4090
2026-01-12 11:25:16.30	125.78	13.82	-25.7	-26.7	16.0	0.00e+00	0	41	0	446693376	12	4078
2026-01-12 11:25:19.30	125.55	14.10	-25.8	-26.9	15.9	0.00e+00	0	41	0	463470592	12	4125
2026-01-12 11:25:22.33	125.32	14.40	-25.6	-26.7	16.1	0.00e+00	0	41	0	480247808	12	4053
2026-01-12 11:25:25.35	125.08	14.69	-25.5	-26.3	16.3	0.00e+00	0	41	0	497025024	12	3966
2026-01-12 11:25:28.37	124.84	14.99	-25.3	-26.0	16.5	0.00e+00	0	41	0	514850816	12	3878
2026-01-12 11:25:31.39	124.60	15.29	-25.4	-26.6	16.5	0.00e+00	0	41	0	531628032	11	4141
2026-01-12 11:25:34.40	124.35	15.59	-25.3	-26.4	16.6	0.00e+00	0	41	0	548405248	11	4094
2026-01-12 11:25:37.42	124.09	15.90	-25.2	-26.3	16.7	0.00e+00	0	41	0	565182464	11	4062
2026-01-12 11:25:40.43	123.83	16.21	-25.1	-26.1	16.9	0.00e+00	0	41	0	581959680	11	4004
2026-01-12 11:25:43.44	123.56	16.52	-25.1	-26.0	16.9	0.00e+00	0	41	0	598736896	11	3988
2026-01-12 11:25:46.46	123.29	16.84	-24.9	-25.6	17.1	0.00e+00	0	41	0	615514112	11	3898
2026-01-12 11:25:49.47	123.01	17.16	-25.2	-26.3	16.8	0.00e+00	0	41	0	633339904	11	4062
2026-01-12 11:25:52.49	122.72	17.49	-25.0	-25.8	17.0	0.00e+00	0	41	0	650117120	11	3949
2026-01-12 11:25:55.50	122.43	17.81	-25.1	-25.9	17.0	0.00e+00	0	41	0	666894336	11	3959
2026-01-12 11:25:58.52	122.13	18.15	-24.8	-25.7	17.4	0.00e+00	0	41	0	683671552	10	4021
2026-01-12 11:26:01.54	121.83	18.48	-24.7	-25.6	17.5	0.00e+00	0	41	0	700448768	10	3992
2026-01-12 11:26:04.56	121.51	18.82	-24.6	-25.4	17.6	0.00e+00	0	41	0	718274560	10	3944
2026-01-12 11:26:07.57	121.20	19.16	-24.7	-25.7	17.5	0.00e+00	0	41	0	735051776	10	4014
2026-01-12 11:26:10.59	120.87	19.51	-24.5	-25.3	17.7	0.00e+00	0	41	0	751828992	10	3910
2026-01-12 11:26:13.60	120.53	19.86	-24.6	-25.5	17.6	0.00e+00	0	42	0	768606208	10	3967
2026-01-12 11:26:16.60	120.19	20.21	-24.6	-25.3	17.7	0.00e+00	0	42	0	785383424	10	3915
2026-01-12 11:26:19.62	119.84	20.57	-24.5	-25.1	17.8	0.00e+00	0	42	0	803209216	10	3882
2026-01-12 11:26:22.63	119.48	20.93	-24.3	-24.8	18.0	0.00e+00	0	42	0	819986432	10	3788
2026-01-12 11:26:25.65	119.12	21.30	-24.2	-25.1	18.1	0.00e+00	0	42	0	836763648	9	3977
2026-01-12 11:26:28.66	118.74	21.67	-24.3	-25.3	18.0	0.00e+00	0	41	0	853540864	9	4038
2026-01-12 11:26:31.67	118.36	22.04	-24.5	-25.7	17.7	0.00e+00	0	42	0	870318080	9	4143
2026-01-12 11:26:34.67	117.96	22.42	-24.5	-25.6	17.8	0.00e+00	0	42	0	887095296	9	4104
2026-01-12 11:26:37.69	117.56	22.80	-24.5	-25.6	17.8	0.00e+00	0	42	0	903872512	9	4094
2026-01-12 11:26:40.71	117.14	23.19	-24.4	-25.4	18.0	0.00e+00	0	42	0	921698304	9	4057
2026-01-12 11:26:43.73	116.71	23.58	-24.0	-24.6	18.4	0.00e+00	0	42	0	938475520	9	3849
2026-01-12 11:26:46.74	116.27	23.97	-24.3	-25.3	18.1	0.00e+00	0	42	0	955252736	9	4031
2026-01-12 11:26:49.76	115.82	24.37	-23.9	-24.5	18.5	0.00e+00	0	42	0	972029952	9	3835
2026-01-12 11:26:52.77	115.36	24.77	-23.8	-24.2	18.6	0.00e+00	0	42	0	988807168	9	3772
2026-01-12 11:26:55.78	114.89	25.18	-23.7	-24.5	18.8	0.00e+00	0	42	0	1005584384	8	3930
2026-01-12 11:26:58.81	114.40	25.59	-23.8	-24.6	18.7	0.00e+00	0	42	0	1023410176	8	3974
2026-01-12 11:27:01.82	113.91	26.01	-23.7	-24.5	18.8	0.00e+00	0	42	0	1040187392	8	3930
2026-01-12 11:27:04.83	113.40	26.43	-23.7	-24.6	18.7	0.00e+00	0	42	0	1056964608	8	3959
2026-01-12 11:27:07.85	112.87	26.85	-23.6	-24.2	18.9	0.00e+00	0	42	0	1073741824	8	3875
2026-01-12 11:27:10.87	112.33	27.28	-23.8	-24.6	18.8	0.00e+00	0	42	0	1090519040	8	3965
2026-01-12 11:27:13.89	111.77	27.71	-23.5	-24.0	19.0	0.00e+00	0	42	0	1108344832	8	3830
2026-01-12 11:27:16.90	111.20	28.14	-23.3	-23.6	19.3	0.00e+00	0	42	0	1125122048	8	3735
2026-01-12 11:27:19.92	110.61	28.58	-23.5	-24.1	19.1	0.00e+00	0	42	0	1141899264	8	3842
2026-01-12 11:27:22.93	110.01	29.02	-23.5	-24.0	19.1	0.00e+00	0	42	0	1158676480	8	3820
2026-01-12 11:27:25.96	109.39	29.47	-23.4	-23.8	19.2	0.00e+00	0	42	0	1175453696	8	3782
2026-01-12 11:27:28.96	108.75	29.92	-23.1	-23.6	19.5	0.00e+00	0	42	0	1193279488	7	3833
2026-01-12 11:27:31.97	108.10	30.37	-23.4	-24.3	19.2	0.00e+00	0	42	0	1210056704	7	4007
2026-01-12 11:27:34.99	107.42	30.82	-23.4	-24.4	19.2	0.00e+00	0	42	0	1226833920	7	4019
2026-01-12 11:27:38.01	106.73	31.28	-23.3	-24.2	19.3	0.00e+00	0	42	0	1243611136	7	3973
2026-01-12 11:27:41.03	106.01	31.74	-23.2	-23.8	19.5	0.00e+00	0	42	0	1260388352	7	3890
2026-01-12 11:27:44.04	105.28	32.20	-23.1	-23.6	19.6	0.00e+00	0	42	0	1277165568	7	3833
2026-01-12 11:27:47.06	104.52	32.66	-23.2	-24.0	19.4	0.00e+00	0	42	0	1293942784	7	3916
2026-01-12 11:27:50.06	103.75	33.12	-23.2	-23.9	19.4	0.00e+00	0	42	0	1311768576	7	3913
2026-01-12 11:27:53.08	102.95	33.59	-23.3	-24.2	19.3	0.00e+00	0	42	0	1328545792	7	3974
2026-01-12 11:27:56.09	102.12	34.05	-22.8	-23.1	19.8	0.00e+00	0	42	0	1345323008	7	3726
2026-01-12 11:27:59.12	101.27	34.52	-22.8	-23.1	19.8	0.00e+00	0	42	0	1362100224	7	3727
2026-01-12 11:28:02.12	100.40	34.98	-22.8	-23.1	19.9	0.00e+00	0	42	0	1378877440	7	3717
2026-01-12 11:28:05.15	99.50	35.44	-22.8	-23.5	19.9	1.10e-06	0	42	0	1396703232	6	3913
2026-01-12 11:28:08.16	98.58	35.90	-23.0	-24.1	19.6	0.00e+00	0	42	0	1413480448	6	4061
2026-01-12 11:28:11.17	97.63	36.36	-22.8	-23.6	19.9	0.00e+00	0	42	0	1430257664	6	3929
2026-01-12 11:28:14.18	96.65	36.82	-23.3	-24.7	19.3	0.00e+00	0	42	0	1447034880	6	4200
2026-01-12 11:28:17.19	95.65	37.27	-23.4	-24.8	19.2	0.00e+00	0	42	0	1463812096	6	4247
2026-01-12 11:28:20.20	94.61	37.72	-23.4	-24.8	19.3	0.00e+00	0	42	0	1480589312	6	4220
2026-01-12 11:28:23.22	93.55	38.16	-23.3	-24.0	19.4	0.00e+00	0	42	0	1498415104	7	3936
2026-01-12 11:28:26.23	92.46	38.60	-23.3	-24.0	19.4	0.00e+00	0	42	0	1515192320	7	3922
2026-01-12 11:28:29.24	91.34	39.03	-23.8	-25.2	18.9	0.00e+00	0	42	0	1531969536	7	4210
2026-01-12 11:28:32.23	90.20	39.45	-22.8	-23.6	19.9	0.00e+00	0	42	0	1548746752	6	3932
2026-01-12 11:28:35.25	89.01	39.87	-22.9	-23.8	19.8	0.00e+00	0	42	0	1565523968	6	3987
2026-01-12 11:28:38.26	87.80	40.27	-22.8	-23.6	19.9	0.00e+00	0	42	0	1582301184	6	3939
2026-01-12 11:28:41.27	86.56	40.67	-23.3	-24.6	19.4	0.00e+00	0	42	0	1599078400	6	4183
2026-01-12 11:28:44.28	85.29	41.05	-22.8	-23.6	19.9	0.00e+00	0	42	0	1616904192	6	3947
2026-01-12 11:28:47.30	83.99	41.42	-23.1	-24.2	19.6	0.00e+00	0	42	0	1633681408	6	4077
2026-01-12 11:28:50.31	82.65	41.78	-22.6	-23.1	20.2	0.00e+00	0	42	0	1650458624	6	3815
2026-01-12 11:28:53.33	81.29	42.12	-22.6	-23.1	20.2	0.00e+00	0	42	0	1667235840	6	3824
2026-01-12 11:28:56.35	79.90	42.45	-22.8	-23.7	19.9	0.00e+00	0	42	0	1684013056	6	3951
2026-01-12 11:28:59.37	78.48	42.76	-22.6	-23.1	20.1	0.00e+00	0	42	0	1701838848	6	3825
2026-01-12 11:29:02.37	77.04	43.06	-22.4	-22.8	20.3	0.00e+00	0	42	0	1718616064	6	3748
2026-01-12 11:29:05.40	75.56	43.33	-22.8	-23.5	20.0	0.00e+00	0	42	0	1735393280	6	3913
2026-01-12 11:29:08.41	74.06	43.59	-22.7	-23.4	20.0	0.00e+00	0	42	0	1752170496	6	3905
2026-01-12 11:29:11.43	72.54	43.82	-22.5	-22.9	20.2	0.00e+00	0	42	0	1768947712	6	3780
2026-01-12 11:29:14.45	71.00	44.03	-22.6	-23.1	20.1	0.00e+00	0	42	0	1785724928	6	3822
2026-01-12 11:29:17.46	69.44	44.22	-22.7	-23.3	20.0	0.00e+00	0	42	0	1803550720	6	3867
2026-01-12 11:29:20.47	67.87	44.39	-22.7	-23.3	20.0	0.00e+00	0	42	0	1820327936	6	3861
2026-01-12 11:29:23.49	66.27	44.53	-22.7	-23.2	20.3	0.00e+00	0	42	0	1837105152	6	3826
2026-01-12 11:29:26.50	64.67	44.65	-22.8	-23.4	20.2	0.00e+00	0	42	0	1853882368	6	3875
2026-01-12 11:29:29.53	63.04	44.74	-22.7	-23.4	20.2	0.00e+00	0	42	0	1870659584	6	3873
2026-01-12 11:29:32.54	61.42	44.81	-22.5	-22.9	20.4	0.00e+00	0	42	0	1887436800	6	3767
2026-01-12 11:29:35.56	59.79	44.85	-22.5	-23.0	20.4	0.00e+00	0	42	0	1905262592	6	3775
2026-01-12 11:29:38.58	58.15	44.87	-22.2	-22.7	20.8	0.00e+00	0	42	0	1922039808	5	3816
2026-01-12 11:29:41.59	56.52	44.86	-22.5	-23.4	20.4	0.00e+00	0	42	0	1938817024	5	4001
2026-01-12 11:29:44.61	54.88	44.83	-22.6	-23.6	20.3	0.00e+00	0	42	0	1955594240	5	4027
2026-01-12 11:29:47.63	53.26	44.76	-23.3	-24.5	19.6	0.00e+00	0	42	0	1972371456	6	4131
2026-01-12 11:29:50.64	51.64	44.68	-23.6	-24.6	19.3	0.00e+00	0	42	0	1989148672	7	4042
2026-01-12 11:29:53.66	50.03	44.57	-23.9	-24.7	19.0	0.00e+00	0	42	0	2006974464	8	3965
2026-01-12 11:29:56.67	48.44	44.43	-22.5	-22.9	20.4	0.00e+00	0	42	0	2023751680	6	3765
2026-01-12 11:29:59.69	46.85	44.27	-22.5	-22.8	20.5	0.00e+00	0	42	0	2040528896	6	3748
2026-01-12 11:30:02.69	45.30	44.09	-22.4	-22.7	20.5	0.00e+00	0	42	0	2057306112	6	3709
2026-01-12 11:30:05.71	43.75	43.88	-22.4	-22.6	20.6	0.00e+00	0	42	0	2074083328	6	3691
2026-01-12 11:30:08.71	42.23	43.65	-22.4	-22.6	20.6	0.00e+00	0	42	0	2091909120	6	3698
2026-01-12 11:30:11.73	40.73	43.40	-22.3	-22.5	20.6	0.00e+00	0	42	0	2108686336	6	3669
2026-01-12 11:30:14.75	39.25	43.13	-22.6	-23.2	20.3	0.00e+00	0	42	0	2125463552	6	3820
2026-01-12 11:30:17.76	37.80	42.85	-22.4	-22.6	20.5	0.00e+00	0	42	0	2142240768	6	3693
2026-01-12 11:30:20.78	36.38	42.54	-22.4	-22.7	20.5	0.00e+00	0	42	0	2159017984	6	3715
2026-01-12 11:30:23.79	34.98	42.22	-22.5	-23.0	20.4	0.00e+00	0	42	0	2175795200	6	3775
2026-01-12 11:30:26.81	33.61	41.88	-22.6	-23.0	20.3	0.00e+00	0	42	0	2193620992	6	3780
2026-01-12 11:30:29.81	32.28	41.53	-22.7	-23.2	20.2	0.00e+00	0	42	0	2210398208	6	3837
2026-01-12 11:30:32.83	30.97	41.16	-22.5	-22.8	20.4	0.00e+00	0	42	0	2227175424	6	3741
2026-01-12 11:30:35.85	29.69	40.78	-22.4	-22.6	20.5	0.00e+00	0	42	0	2243952640	6	3703
2026-01-12 11:30:38.86	28.45	40.39	-22.5	-23.0	20.3	0.00e+00	0	42	0	2260729856	6	3780
2026-01-12 11:30:41.88	27.23	39.99	-22.4	-22.7	20.5	0.00e+00	0	42	0	2277507072	6	3714
2026-01-12 11:30:44.89	26.04	39.58	-22.6	-23.0	20.3	0.00e+00	0	42	0	2294284288	6	3789
2026-01-12 11:30:47.91	24.88	39.15	-22.4	-22.6	20.5	0.00e+00	0	42	0	2312110080	6	3702
2026-01-12 11:30:50.92	23.76	38.73	-22.5	-22.9	20.3	0.00e+00	0	42	0	2328887296	6	3775
2026-01-12 11:30:53.94	22.66	38.29	-22.7	-23.4	20.1	0.00e+00	0	42	0	2345664512	6	3873
2026-01-12 11:30:56.95	21.59	37.85	-22.8	-23.4	20.1	0.00e+00	0	42	0	2362441728	6	3876
2026-01-12 11:30:59.96	20.55	37.41	-22.9	-23.7	19.9	0.00e+00	0	42	0	2379218944	6	3943
2026-01-12 11:31:02.96	19.55	36.96	-22.7	-23.2	20.1	0.00e+00	0	42	0	2397044736	6	3840
2026-01-12 11:31:05.97	18.57	36.50	-22.2	-22.8	20.6	0.00e+00	0	42	0	2413821952	5	3842
2026-01-12 11:31:08.99	17.61	36.05	-22.1	-22.6	20.7	0.00e+00	0	42	0	2430599168	5	3808
2026-01-12 11:31:12.00	16.68	35.59	-22.2	-22.8	20.6	0.00e+00	0	42	0	2447376384	5	3851
2026-01-12 11:31:15.01	15.78	35.13	-22.4	-23.1	20.4	0.00e+00	0	42	0	2464153600	5	3912
2026-01-12 11:31:18.02	14.91	34.67	-22.2	-22.7	20.6	0.00e+00	0	42	0	2480930816	5	3820
2026-01-12 11:31:21.04	14.05	34.20	-22.0	-22.4	20.7	0.00e+00	0	42	0	2497708032	5	3763
2026-01-12 11:31:24.06	13.22	33.74	-22.0	-22.4	20.7	0.00e+00	0	42	0	2515533824	5	3760
2026-01-12 11:31:27.07	12.42	33.28	-22.2	-22.7	20.6	0.00e+00	0	42	0	2532311040	5	3815
2026-01-12 11:31:30.08	11.64	32.82	-22.5	-23.4	20.2	0.00e+00	0	42	0	2549088256	5	3985
2026-01-12 11:31:33.10	10.88	32.35	-22.4	-23.2	20.3	0.00e+00	0	42	0	2565865472	5	3935
2026-01-12 11:31:36.11	10.14	31.90	-22.5	-23.4	20.2	0.00e+00	0	42	0	2582642688	5	3999
2026-01-12 11:31:39.12	9.43	31.44	-22.6	-23.5	20.1	0.00e+00	0	42	0	2600468480	5	4021
2026-01-12 11:31:42.14	8.73	30.98	-22.7	-23.7	20.0	0.00e+00	0	42	0	2617245696	5	4069
2026-01-12 11:31:45.15	8.05	30.53	-23.0	-24.0	19.7	0.00e+00	0	42	0	2634022912	6	4013
2026-01-12 11:31:48.17	7.39	30.08	-23.0	-24.0	19.6	0.00e+00	0	42	0	2650800128	6	4014
2026-01-12 11:31:51.18	6.75	29.63	-22.9	-23.7	19.7	0.00e+00	0	42	0	2667577344	6	3958
2026-01-12 11:31:54.19	6.13	29.19	-22.7	-23.4	19.9	0.00e+00	0	42	0	2684354560	6	3881
2026-01-12 11:31:57.19	5.53	28.75	-22.9	-23.7	19.7	0.00e+00	0	42	0	2701131776	6	3948
2026-01-12 11:32:00.21	4.94	28.31	-23.1	-24.1	19.5	0.00e+00	0	42	0	2718957568	6	4050
2026-01-12 11:32:03.22	4.37	27.88	-23.3	-24.5	19.3	0.00e+00	0	42	0	2735734784	6	4150
2026-01-12 11:32:06.24	3.81	27.45	-23.2	-24.3	19.4	0.00e+00	0	42	0	2752512000	6	4102
2026-01-12 11:32:09.25	3.27	27.02	-23.3	-24.5	19.3	0.00e+00	0	42	0	2769289216	6	4159
2026-01-12 11:32:12.27	2.74	26.60	-23.1	-24.2	19.4	0.00e+00	0	42	0	2786066432	6	4076
2026-01-12 11:32:15.29	2.23	26.18	-23.2	-24.3	19.4	0.00e+00	0	42	0	2802843648	6	4090
2026-01-12 11:32:18.30	1.73	25.77	-23.2	-24.4	19.3	0.00e+00	0	42	0	2820669440	6	4110
2026-01-12 11:32:21.32	1.24	25.35	-23.3	-24.6	19.2	0.00e+00	0	42	0	2837446656	6	4167
2026-01-12 11:32:24.34	0.77	24.95	-22.8	-23.6	19.7	0.00e+00	0	42	0	2854223872	6	3921
2026-01-12 11:32:27.36	0.30	24.54	-23.0	-24.0	19.5	0.00e+00	0	42	0	2871001088	6	4020
2026-01-12 11:32:30.37	359.85	24.14	-23.1	-24.1	19.4	0.00e+00	0	42	0	2887778304	6	4059
2026-01-12 11:32:33.38	359.42	23.75	-23.0	-24.0	19.5	0.00e+00	0	42	0	2905604096	6	4024
2026-01-12 11:32:36.40	358.99	23.36	-23.5	-24.4	19.0	0.00e+00	0	42	0	2922381312	7	4004
2026-01-12 11:32:39.43	358.57	22.97	-23.6	-24.8	18.8	0.00e+00	0	42	0	2939158528	7	4104
2026-01-12 11:32:42.44	358.16	22.59	-23.9	-25.3	18.5	0.00e+00	0	42	0	2955935744	7	4230
2026-01-12 11:32:45.46	357.77	22.21	-23.4	-23.8	19.1	0.00e+00	0	42	0	2972712960	8	3776
2026-01-12 11:32:48.48	357.38	21.84	-23.5	-23.9	19.0	0.00e+00	0	42	0	2990538752	8	3782
2026-01-12 11:32:51.50	357.00	21.47	-23.6	-24.2	18.8	0.00e+00	0	42	0	3007315968	8	3858
2026-01-12 11:32:54.52	356.63	21.10	-23.7	-24.5	18.7	0.00e+00	0	42	0	3024093184	8	3927
2026-01-12 11:32:57.54	356.27	20.74	-23.9	-24.8	18.5	0.00e+00	0	42	0	3040870400	8	4005
2026-01-12 11:33:00.56	355.92	20.38	-23.8	-24.5	18.7	0.00e+00	0	42	0	3057647616	8	3931
2026-01-12 11:33:03.57	355.58	20.03	-23.8	-24.7	18.6	0.00e+00	0	42	0	3075473408	8	3965
2026-01-12 11:33:06.58	355.25	19.68	-23.9	-24.8	18.5	0.00e+00	0	42	0	3092250624	8	3995
2026-01-12 11:33:09.60	354.92	19.33	-24.2	-25.4	18.2	0.00e+00	0	42	0	3109027840	8	4150
2026-01-12 11:33:12.62	354.60	18.99	-24.3	-25.6	18.0	0.00e+00	0	42	0	3125805056	8	4207
2026-01-12 11:33:15.63	354.29	18.65	-24.4	-26.0	17.8	0.00e+00	0	42	0	3142582272	8	4301
2026-01-12 11:33:18.65	353.98	18.32	-24.5	-25.5	17.8	0.00e+00	0	42	0	3159359488	9	4070
2026-01-12 11:33:21.67	353.69	17.98	-24.8	-26.3	17.4	0.00e+00	0	42	0	3177185280	9	4261
2026-01-12 11:33:24.69	353.39	17.66	-24.8	-26.3	17.4	0.00e+00	0	42	0	3193962496	9	4282
2026-01-12 11:33:27.71	353.11	17.33	-24.7	-26.1	17.5	0.00e+00	0	42	0	3210739712	9	4206
2026-01-12 11:33:30.72	352.83	17.01	-24.6	-25.7	17.6	0.00e+00	0	42	0	3227516928	9	4124
2026-01-12 11:33:33.72	352.56	16.70	-24.6	-25.8	17.6	0.00e+00	0	42	0	3244294144	9	4132
2026-01-12 11:33:36.74	352.29	16.38	-24.7	-26.0	17.5	0.00e+00	0	42	0	3261071360	9	4184
2026-01-12 11:33:39.76	352.03	16.07	-24.8	-26.3	17.3	0.00e+00	0	42	0	3278897152	9	4258
2026-01-12 11:33:42.77	351.78	15.76	-24.8	-26.3	17.3	0.00e+00	0	42	0	3295674368	9	4278
2026-01-12 11:33:45.79	351.53	15.46	-24.9	-26.4	17.3	0.00e+00	0	42	0	3312451584	9	4293
2026-01-12 11:33:48.81	351.28	15.16	-25.0	-26.2	17.0	0.00e+00	0	42	0	3329228800	10	4138
2026-01-12 11:33:51.82	351.04	14.86	-25.1	-26.4	16.9	0.00e+00	0	42	0	3346006016	10	4189
2026-01-12 11:33:54.83	350.81	14.57	-25.3	-26.8	16.7	0.00e+00	0	42	0	3362783232	10	4294
2026-01-12 11:33:57.84	350.58	14.28	-25.5	-26.8	16.4	0.00e+00	0	42	0	3380609024	11	4188
2026-01-12 11:34:00.87	350.35	13.99	-25.9	-27.7	15.9	0.00e+00	0	42	0	3397386240	11	4419
2026-01-12 11:34:03.88	350.13	13.70	-25.7	-27.3	16.1	0.00e+00	0	42	0	3414163456	11	4322
2026-01-12 11:34:06.89	349.92	13.42	-25.8	-27.4	16.0	0.00e+00	0	42	0	3430940672	11	4356
2026-01-12 11:34:09.91	349.70	13.14	-25.8	-27.5	16.0	0.00e+00	0	42	0	3447717888	11	4374
2026-01-12 11:34:12.93	349.50	12.86	-25.8	-27.4	16.0	0.00e+00	0	42	0	3465543680	11	4352
2026-01-12 11:34:15.95	349.29	12.59	-25.7	-27.2	16.1	0.00e+00	0	42	0	3482320896	11	4274
2026-01-12 11:34:18.98	349.09	12.32	-25.6	-27.0	16.2	0.00e+00	0	42	0	3499098112	11	4234
2026-01-12 11:34:22.00	348.90	12.05	-25.8	-27.4	15.9	0.00e+00	0	42	0	3515875328	11	4345
2026-01-12 11:34:25.02	348.70	11.78	-25.7	-27.2	16.1	0.00e+00	0	42	0	3532652544	11	4297
2026-01-12 11:34:28.03	348.51	11.52	-25.6	-27.1	16.1	0.00e+00	0	42	0	3550478336	11	4265
2026-01-12 11:34:31.04	348.33	11.26	-25.8	-27.4	15.9	0.00e+00	0	42	0	3567255552	11	4351
2026-01-12 11:34:34.06	348.15	11.00	-26.0	-27.8	15.7	0.00e+00	0	42	0	3584032768	11	4461
2026-01-12 11:34:37.07	347.97	10.74	-26.3	-28.1	15.1	0.00e+00	0	42	0	3600809984	12	4438
2026-01-12 11:34:40.09	347.80	10.49	-25.9	-27.2	15.6	0.00e+00	0	42	0	3617587200	12	4192
2026-01-12 11:34:43.12	347.62	10.24	-26.1	-27.6	15.4	1.10e-06	0	42	0	3635412992	12	4301
2026-01-12 11:34:46.13	347.45	9.99	-26.1	-27.6	15.4	0.00e+00	0	42	0	3652190208	12	4303
2026-01-12 11:34:49.15	347.29	9.74	-26.2	-27.9	15.2	0.00e+00	0	42	0	3668967424	12	4380
2026-01-12 11:34:52.16	347.13	9.49	-26.3	-28.2	15.0	0.00e+00	0	42	0	3685744640	12	4450
2026-01-12 11:34:55.17	346.97	9.25	-26.4	-28.4	14.9	0.00e+00	0	42	0	3702521856	12	4520
2026-01-12 11:34:58.19	346.81	9.01	-26.4	-28.5	14.8	0.00e+00	0	42	0	3719299072	12	4548
2026-01-12 11:35:01.21	346.66	8.77	-26.6	-28.4	14.5	1.10e-06	0	42	0	3737124864	13	4418
2026-01-12 11:35:04.22	346.50	8.54	-26.4	-27.9	14.8	2.20e-06	0	42	0	3753902080	13	4284
2026-01-12 11:35:07.25	346.35	8.30	-26.5	-28.1	14.6	1.10e-06	0	42	0	3770679296	13	4340
2026-01-12 11:35:10.26	346.21	8.07	-26.7	-28.5	14.4	3.40e-06	0	42	0	3787456512	13	4456
2026-01-12 11:35:13.28	346.06	7.84	-26.6	-28.3	14.5	1.10e-06	0	42	0	3804233728	13	4383
2026-01-12 11:35:16.29	345.92	7.61	-26.5	-28.2	14.6	1.10e-06	0	42	0	3821010944	13	4348
2026-01-12 11:35:19.30	345.79	7.38	-26.8	-28.7	14.2	2.20e-06	0	42	0	3838836736	13	4510
2026-01-12 11:35:22.32	345.65	7.16	-26.9	-28.5	14.0	3.40e-06	0	42	0	3855613952	14	4323
2026-01-12 11:35:25.34	345.51	6.93	-33.3	-44.6	3.8	8.45e-01	0	42	104	3861905408	26	13280

#Closed at: 2026-01-12 11:35:26
#Recorded file [3861 MB]: D:/data/31010_260112_142356.dat