passes_logs/2026/01/12/R2M6_AANII_01/R2M6_AANII_01__20260112_021144_SUOMI_NPP_rec.log

#Pass ID: 20260112_021144_SUOMI NPP
#Satellite: SUOMI NPP
#Configuration: NPP
#almurnet v.1.7.20240730
#Start time: 2026-01-12 02:17:41

#Version: 2.2.20231116
#Station: R2M6_AANII_01
#Location: 30.233357 lon 59.946436 lat
#TLE: 1 37849U 11061A   26011.29776829  .00000112  00000+0  74065-4 0  9999
#TLE: 2 37849  98.7807 313.3784 0002522  70.0451 290.0996 14.19524507736187

#Time	Az	El	Level	Level2	SNR	BER	BlckErr	Temp	State	Recorded	gain1	gain2
2026-01-12 02:17:41.23	298.11	24.64	-33.7	-53.1	3.8	7.46e-01	0	41	0	0	28	33327
2026-01-12 02:17:43.23	297.55	24.56	-33.9	-45.5	3.8	1.49e+00	0	42	104	0	29	13721
2026-01-12 02:17:45.24	296.99	24.47	-33.9	-45.5	3.8	1.49e+00	0	42	104	0	29	13719
2026-01-12 02:17:47.26	296.43	24.38	-33.9	-45.6	3.8	1.49e+00	0	42	104	0	29	13801
2026-01-12 02:17:49.27	295.88	24.29	-33.9	-45.6	3.8	1.49e+00	0	41	104	0	29	13757
2026-01-12 02:17:51.29	295.33	24.20	-33.9	-45.5	3.8	1.49e+00	0	42	104	0	29	13733
2026-01-12 02:17:53.29	294.78	24.10	-33.9	-45.5	3.8	1.49e+00	0	42	104	0	29	13689
2026-01-12 02:17:55.30	294.24	24.01	-33.9	-45.5	3.8	1.49e+00	0	42	104	0	29	13704
2026-01-12 02:17:57.31	293.70	23.91	-34.0	-45.6	3.8	1.49e+00	0	42	104	0	29	13811
2026-01-12 02:17:59.32	293.17	23.80	-34.0	-45.6	3.8	1.49e+00	0	42	104	0	29	13819
2026-01-12 02:18:01.32	292.64	23.70	-33.9	-45.6	3.8	1.49e+00	0	42	104	0	29	13766
2026-01-12 02:18:03.33	292.11	23.59	-33.9	-45.5	3.8	1.49e+00	0	41	104	0	29	13677
2026-01-12 02:18:05.34	291.58	23.48	-33.8	-45.4	3.8	1.49e+00	0	42	104	0	29	13641
2026-01-12 02:18:07.35	291.06	23.37	-33.7	-45.6	3.8	1.49e+00	0	42	104	0	28	14184
2026-01-12 02:18:09.36	290.54	23.26	-33.5	-45.2	3.8	1.49e+00	0	42	104	0	28	13723
2026-01-12 02:18:11.37	290.03	23.14	-33.4	-45.0	3.8	1.49e+00	0	42	104	0	28	13674
2026-01-12 02:18:13.38	289.52	23.02	-33.4	-44.8	3.8	1.49e+00	0	42	104	0	28	13477
2026-01-12 02:18:15.38	289.02	22.90	-33.3	-44.4	3.8	1.49e+00	0	42	104	0	28	12899
2026-01-12 02:18:17.38	288.52	22.78	-33.3	-44.1	3.8	1.49e+00	0	42	104	0	28	12416
2026-01-12 02:18:19.39	288.02	22.66	-33.3	-44.5	3.8	1.49e+00	0	42	104	0	28	12967
2026-01-12 02:18:21.39	287.53	22.54	-33.4	-44.9	3.8	1.49e+00	0	42	104	0	28	13498
2026-01-12 02:18:23.39	287.04	22.41	-33.4	-45.0	3.8	1.49e+00	0	42	104	0	28	13696
2026-01-12 02:18:25.39	286.55	22.28	-33.4	-44.7	3.8	1.49e+00	0	42	104	0	28	13269
2026-01-12 02:18:27.40	286.07	22.15	-33.3	-44.1	3.8	1.49e+00	0	42	104	0	28	12391
2026-01-12 02:18:29.41	285.59	22.02	-33.3	-42.7	3.8	1.49e+00	0	42	104	0	27	10662
2026-01-12 02:18:31.42	285.12	21.89	-33.2	-41.9	3.9	1.47e+00	0	42	104	0	27	9806
2026-01-12 02:18:33.41	284.65	21.76	-32.8	-39.2	4.3	1.41e+00	0	41	104	0	27	7450
2026-01-12 02:18:35.43	284.19	21.62	-31.5	-34.3	9.3	1.10e+00	0	42	104	0	24	4969
2026-01-12 02:18:37.42	283.73	21.49	-31.5	-34.2	9.7	1.52e-02	0	42	0	2097152	24	4928
2026-01-12 02:18:39.42	283.27	21.35	-30.8	-32.4	11.4	1.78e-03	0	42	0	5242880	23	4322
2026-01-12 02:18:41.42	282.82	21.21	-30.6	-32.5	11.7	5.48e-04	0	42	0	9437184	22	4461
2026-01-12 02:18:43.44	282.37	21.07	-30.7	-32.7	11.5	1.00e-03	0	42	0	13631488	22	4536
2026-01-12 02:18:45.44	281.92	20.93	-30.0	-31.2	12.8	1.01e-04	0	42	0	16777216	21	4131
2026-01-12 02:18:47.44	281.49	20.79	-29.3	-30.3	14.1	7.60e-06	0	42	0	20971520	19	4040
2026-01-12 02:18:49.44	281.05	20.65	-28.9	-29.2	14.8	0.00e+00	0	42	0	24117248	19	3733
2026-01-12 02:18:51.46	280.61	20.50	-29.1	-29.7	14.5	1.50e-06	0	42	0	28311552	19	3857
2026-01-12 02:18:53.47	280.19	20.36	-28.8	-29.5	14.8	0.00e+00	0	42	0	31457280	18	3911
2026-01-12 02:18:55.47	279.76	20.21	-29.5	-30.9	13.6	7.00e-07	0	42	0	35651584	19	4223
2026-01-12 02:18:57.48	279.34	20.07	-29.8	-31.7	13.2	9.10e-06	0	42	0	39845888	19	4456
2026-01-12 02:18:59.49	278.92	19.92	-29.9	-31.6	13.0	3.96e-05	0	42	0	42991616	20	4331
2026-01-12 02:19:01.49	278.51	19.77	-30.3	-32.5	12.3	1.77e-04	0	42	0	47185920	20	4656
2026-01-12 02:19:03.49	278.11	19.63	-29.9	-31.5	12.9	5.34e-05	0	42	0	50331648	20	4323
2026-01-12 02:19:05.50	277.70	19.48	-29.6	-30.6	13.4	1.22e-05	0	42	0	54525952	20	4059
2026-01-12 02:19:07.50	277.30	19.33	-29.7	-30.8	13.3	1.37e-05	0	42	0	58720256	20	4118
2026-01-12 02:19:09.50	276.91	19.18	-29.3	-29.8	13.9	7.60e-06	0	42	0	61865984	20	3828
2026-01-12 02:19:11.52	276.51	19.03	-28.8	-29.6	14.7	0.00e+00	0	42	0	66060288	18	3946
2026-01-12 02:19:13.51	276.12	18.88	-28.9	-29.7	14.6	1.50e-06	0	42	0	69206016	18	3989
2026-01-12 02:19:15.52	275.74	18.73	-29.4	-31.1	13.8	0.00e+00	0	42	0	73400320	18	4398
2026-01-12 02:19:17.52	275.36	18.57	-29.3	-30.5	13.9	6.80e-06	0	42	0	77594624	19	4102
2026-01-12 02:19:19.52	274.98	18.42	-29.1	-29.8	14.4	7.00e-07	0	42	0	80740352	19	3912
2026-01-12 02:19:21.54	274.61	18.27	-29.4	-30.5	13.8	1.50e-06	0	42	0	84934656	19	4121
2026-01-12 02:19:23.56	274.23	18.11	-29.5	-31.0	13.5	7.60e-06	0	42	0	88080384	19	4257
2026-01-12 02:19:25.57	273.87	17.96	-29.7	-31.4	13.3	1.14e-05	0	42	0	92274688	19	4378
2026-01-12 02:19:27.59	273.50	17.81	-29.7	-31.4	13.3	1.29e-05	0	42	0	95420416	19	4370
2026-01-12 02:19:29.59	273.15	17.65	-29.2	-30.0	14.1	3.00e-06	0	42	0	99614720	19	3974
2026-01-12 02:19:31.61	272.79	17.50	-29.1	-29.8	14.3	0.00e+00	0	42	0	103809024	19	3917
2026-01-12 02:19:33.62	272.44	17.34	-29.1	-29.9	14.2	0.00e+00	0	42	0	106954752	19	3942
2026-01-12 02:19:35.63	272.09	17.19	-28.9	-29.3	14.6	0.00e+00	0	42	0	111149056	19	3777
2026-01-12 02:19:37.65	271.74	17.04	-29.4	-30.5	13.9	6.10e-06	0	42	0	114294784	19	4114
2026-01-12 02:19:39.66	271.40	16.88	-29.5	-31.0	13.5	1.67e-05	0	42	0	118489088	19	4249
2026-01-12 02:19:41.66	271.07	16.73	-29.5	-31.0	13.5	5.30e-06	0	42	0	122683392	19	4243
2026-01-12 02:19:43.68	270.73	16.57	-28.9	-29.4	14.5	0.00e+00	0	42	0	125829120	19	3794
2026-01-12 02:19:45.69	270.40	16.42	-28.9	-29.4	14.5	1.50e-06	0	42	0	130023424	19	3788
2026-01-12 02:19:47.70	270.07	16.26	-29.0	-29.7	14.4	0.00e+00	0	42	0	133169152	19	3876
2026-01-12 02:19:49.72	269.75	16.11	-29.3	-30.2	14.0	3.80e-06	0	42	0	137363456	19	4022
2026-01-12 02:19:51.72	269.43	15.95	-29.2	-30.1	14.0	3.00e-06	0	42	0	141557760	19	4000
2026-01-12 02:19:53.74	269.11	15.80	-29.4	-30.7	13.7	3.80e-06	0	42	0	144703488	19	4172
2026-01-12 02:19:55.75	268.80	15.64	-29.4	-30.6	13.7	3.80e-06	0	42	0	148897792	19	4132
2026-01-12 02:19:57.76	268.49	15.49	-29.3	-30.4	13.8	1.44e-05	0	42	0	152043520	19	4083
2026-01-12 02:19:59.76	268.18	15.34	-28.8	-29.7	14.6	1.50e-06	0	42	0	156237824	18	3960
2026-01-12 02:20:01.77	267.88	15.18	-28.8	-29.6	14.6	3.80e-06	0	42	0	160432128	18	3946
2026-01-12 02:20:03.79	267.57	15.03	-29.2	-30.5	14.1	1.50e-06	0	42	0	163577856	18	4209
2026-01-12 02:20:05.80	267.28	14.87	-29.6	-31.1	13.3	1.60e-05	0	42	0	167772160	19	4305
2026-01-12 02:20:07.82	266.98	14.72	-30.2	-32.5	12.1	3.57e-04	0	42	0	170917888	20	4659
2026-01-12 02:20:09.83	266.69	14.57	-30.2	-32.5	12.0	4.29e-04	0	42	0	175112192	20	4665
2026-01-12 02:20:11.85	266.40	14.41	-30.0	-32.0	12.3	2.83e-04	0	42	0	179306496	20	4501
2026-01-12 02:20:13.86	266.11	14.26	-29.5	-30.5	13.4	3.81e-05	0	42	0	182452224	20	4028
2026-01-12 02:20:15.87	265.83	14.11	-29.9	-31.5	12.6	5.41e-05	0	42	0	186646528	20	4350
2026-01-12 02:20:17.89	265.55	13.96	-29.7	-30.9	13.1	2.74e-05	0	42	0	189792256	20	4156
2026-01-12 02:20:19.90	265.27	13.80	-29.1	-29.8	14.1	3.00e-06	0	42	0	193986560	19	3914
2026-01-12 02:20:21.91	265.00	13.65	-28.9	-30.0	14.4	0.00e+00	0	42	0	198180864	18	4042
2026-01-12 02:20:23.92	264.73	13.50	-29.4	-31.2	13.6	3.80e-06	0	42	0	201326592	18	4412
2026-01-12 02:20:25.94	264.46	13.35	-29.6	-31.3	13.2	1.14e-05	0	42	0	205520896	19	4365
2026-01-12 02:20:27.95	264.19	13.20	-29.7	-31.5	13.0	4.88e-05	0	42	0	208666624	19	4419
2026-01-12 02:20:29.95	263.93	13.05	-29.7	-31.5	13.0	5.64e-05	0	42	0	212860928	19	4418
2026-01-12 02:20:31.97	263.67	12.90	-29.7	-31.5	13.0	2.13e-05	0	42	0	217055232	19	4437
2026-01-12 02:20:33.97	263.41	12.75	-29.1	-30.0	14.0	1.50e-06	0	42	0	220200960	19	3967
2026-01-12 02:20:35.97	263.16	12.60	-29.1	-29.9	14.0	4.50e-06	0	42	0	224395264	19	3958
2026-01-12 02:20:37.98	262.91	12.45	-29.4	-30.6	13.6	3.00e-06	0	42	0	227540992	19	4154
2026-01-12 02:20:39.99	262.66	12.30	-29.4	-30.6	13.5	1.29e-05	0	42	0	231735296	19	4165
2026-01-12 02:20:42.01	262.41	12.15	-29.5	-31.0	13.3	1.29e-05	0	42	0	235929600	19	4267
2026-01-12 02:20:44.01	262.17	12.01	-29.4	-30.6	13.5	5.30e-06	0	42	0	239075328	19	4147
2026-01-12 02:20:46.02	261.92	11.86	-29.4	-30.8	13.4	2.28e-05	0	42	0	243269632	19	4216
2026-01-12 02:20:48.04	261.68	11.71	-29.9	-31.8	12.3	1.03e-04	0	42	0	246415360	20	4463
2026-01-12 02:20:50.04	261.45	11.56	-29.7	-31.1	12.7	7.78e-05	0	42	0	250609664	20	4246
2026-01-12 02:20:52.05	261.21	11.42	-30.1	-32.2	12.0	3.25e-04	0	42	0	254803968	20	4600
2026-01-12 02:20:54.05	260.98	11.27	-30.3	-32.8	11.6	6.67e-04	0	42	0	257949696	20	4817
2026-01-12 02:20:56.06	260.75	11.13	-30.1	-32.2	12.0	4.27e-04	0	42	0	262144000	20	4608
2026-01-12 02:20:58.07	260.52	10.98	-30.3	-32.9	11.5	6.58e-04	0	42	0	265289728	20	4866
2026-01-12 02:21:00.08	260.30	10.84	-30.4	-32.6	11.4	1.08e-03	0	42	0	269484032	21	4646
2026-01-12 02:21:02.09	260.08	10.69	-30.4	-32.6	11.4	9.80e-04	0	42	0	272629760	21	4646
2026-01-12 02:21:04.11	259.85	10.55	-30.7	-33.5	10.7	1.79e-03	0	42	0	276824064	21	4998
2026-01-12 02:21:06.13	259.63	10.40	-30.4	-32.8	11.3	1.30e-03	0	42	0	281018368	21	4711
2026-01-12 02:21:08.14	259.42	10.26	-30.5	-33.0	11.1	1.70e-03	0	42	0	284164096	21	4789
2026-01-12 02:21:10.15	259.20	10.12	-30.0	-31.5	12.1	2.72e-04	0	42	0	288358400	21	4275
2026-01-12 02:21:12.16	258.99	9.98	-29.9	-31.0	12.5	1.96e-04	0	42	0	291504128	21	4119
2026-01-12 02:21:14.17	258.78	9.83	-29.8	-31.2	12.6	1.18e-04	0	42	0	295698432	20	4273
2026-01-12 02:21:16.18	258.57	9.69	-29.8	-31.4	12.5	1.42e-04	0	42	0	299892736	20	4325
2026-01-12 02:21:18.19	258.37	9.55	-29.9	-31.7	12.3	2.10e-04	0	42	0	303038464	20	4415
2026-01-12 02:21:20.21	258.16	9.41	-30.0	-32.1	11.9	3.18e-04	0	42	0	307232768	20	4577
2026-01-12 02:21:22.23	257.96	9.27	-30.2	-32.4	11.8	5.13e-04	0	42	0	311427072	20	4688
2026-01-12 02:21:24.25	257.76	9.13	-30.2	-32.5	11.7	5.65e-04	0	42	0	314572800	20	4704
2026-01-12 02:21:26.26	257.56	8.99	-30.3	-32.9	11.4	9.49e-04	0	42	0	318767104	20	4849
2026-01-12 02:21:28.28	257.36	8.85	-30.0	-32.1	11.9	5.00e-04	0	42	0	321912832	20	4579
2026-01-12 02:21:30.29	257.17	8.71	-30.1	-32.3	11.7	6.54e-04	0	42	0	326107136	20	4639
2026-01-12 02:21:32.30	256.98	8.58	-29.9	-31.7	12.2	2.63e-04	0	42	0	329252864	20	4429
2026-01-12 02:21:34.31	256.79	8.44	-29.8	-31.4	12.3	1.88e-04	0	42	0	333447168	20	4344
2026-01-12 02:21:36.33	256.60	8.30	-29.9	-31.6	12.1	2.71e-04	0	42	0	337641472	20	4425
2026-01-12 02:21:38.34	256.41	8.17	-29.9	-31.9	11.9	3.21e-04	0	42	0	340787200	20	4525
2026-01-12 02:21:40.36	256.22	8.03	-30.0	-32.1	11.7	6.50e-04	0	42	0	344981504	20	4603
2026-01-12 02:21:42.37	256.04	7.89	-30.1	-32.5	11.4	8.53e-04	0	42	0	349175808	20	4752
2026-01-12 02:21:44.38	255.86	7.76	-30.3	-33.1	11.1	1.48e-03	0	42	0	352321536	20	4943
2026-01-12 02:21:46.39	255.68	7.62	-30.4	-33.4	10.8	2.70e-03	0	42	0	356515840	20	5078
2026-01-12 02:21:48.40	255.50	7.49	-30.6	-33.4	10.4	4.93e-03	0	42	0	359661568	21	5009
2026-01-12 02:21:50.42	255.32	7.35	-30.6	-33.6	10.2	6.38e-03	0	42	0	363855872	21	5093
2026-01-12 02:21:52.44	255.15	7.22	-30.8	-34.2	9.8	1.08e-02	0	42	0	368050176	21	5342
2026-01-12 02:21:54.45	254.98	7.09	-32.7	-44.4	3.8	7.69e-03	0	42	0	371195904	25	13805
2026-01-12 02:21:56.45	254.81	6.96	-33.2	-45.7	3.8	1.49e+00	0	42	104	371195904	26	15088

#Closed at: 2026-01-12 02:21:57
#Recorded file [371 MB]: D:/data/31010_260112_051836.dat