passes_logs/2026/01/12/R2M6_AANII_01/R2M6_AANII_01__20260112_095421_NOAA_21_JPSS-2_rec.log

#Pass ID: 20260112_095421_NOAA 21 (JPSS-2)
#Satellite: NOAA 21 (JPSS-2)
#Configuration: NOAA 21
#almurnet v.1.7.20240730
#Start time: 2026-01-12 09:54:52

#Version: 2.2.20231116
#Station: R2M6_AANII_01
#Location: 30.233357 lon 59.946436 lat
#TLE: 1 54234U 22150A   26011.27699114  .00000090  00000+0  63771-4 0  9993
#TLE: 2 54234  98.7494 312.2218 0000765 314.9553  45.1561 14.19534106164285

#Time	Az	El	Level	Level2	SNR	BER	BlckErr	Temp	State	Recorded	gain1	gain2
2026-01-12 09:54:52.97	146.79	9.51	-33.4	-44.8	3.8	8.46e-01	0	42	0	0	26	13434
2026-01-12 09:54:55.97	146.72	9.76	-34.1	-45.5	3.8	1.49e+00	0	42	104	0	29	13374
2026-01-12 09:54:58.97	146.66	10.02	-34.1	-45.5	3.8	1.49e+00	0	42	104	0	29	13440
2026-01-12 09:55:01.99	146.59	10.28	-34.1	-45.5	3.8	1.49e+00	0	42	104	0	29	13447
2026-01-12 09:55:05.01	146.52	10.55	-34.1	-45.5	3.8	1.49e+00	0	42	104	0	29	13433
2026-01-12 09:55:08.04	146.45	10.82	-34.1	-45.5	3.8	1.49e+00	0	42	104	0	29	13379
2026-01-12 09:55:11.05	146.37	11.09	-34.1	-45.5	3.8	1.49e+00	0	42	104	0	29	13405
2026-01-12 09:55:14.08	146.30	11.37	-34.2	-45.6	3.8	1.49e+00	0	42	104	0	29	13518
2026-01-12 09:55:17.09	146.22	11.64	-34.2	-45.8	3.8	1.49e+00	0	42	104	0	29	13608
2026-01-12 09:55:20.11	146.14	11.92	-34.1	-45.6	3.8	1.49e+00	0	42	104	0	29	13520
2026-01-12 09:55:23.13	146.06	12.21	-33.9	-45.3	3.8	1.49e+00	0	42	104	0	29	13250
2026-01-12 09:55:26.15	145.98	12.50	-33.8	-45.0	3.8	1.49e+00	0	42	104	0	29	13018
2026-01-12 09:55:29.16	145.90	12.79	-33.3	-44.7	3.8	1.49e+00	0	42	104	0	27	13461
2026-01-12 09:55:32.18	145.82	13.08	-32.4	-39.8	4.0	1.47e+00	0	42	104	0	26	8425
2026-01-12 09:55:35.19	145.73	13.38	-31.2	-35.5	7.9	8.57e-02	0	41	0	5242880	23	5871
2026-01-12 09:55:38.20	145.64	13.68	-29.8	-32.1	11.0	2.59e-03	0	41	0	14680064	21	4672
2026-01-12 09:55:41.21	145.55	13.98	-28.8	-30.5	12.7	9.76e-05	0	42	0	24117248	19	4358
2026-01-12 09:55:44.23	145.46	14.29	-28.9	-31.0	12.7	6.33e-05	0	41	0	33554432	18	4629
2026-01-12 09:55:47.24	145.36	14.60	-29.6	-32.5	11.5	6.62e-04	0	41	0	42991616	19	5012
2026-01-12 09:55:50.24	145.27	14.92	-29.6	-32.4	11.6	8.85e-04	0	42	0	52428800	19	4976
2026-01-12 09:55:53.25	145.17	15.24	-28.8	-30.5	12.8	5.72e-05	0	41	0	61865984	19	4347
2026-01-12 09:55:56.26	145.07	15.56	-28.9	-31.0	12.8	4.34e-05	0	41	0	70254592	18	4610
2026-01-12 09:55:59.29	144.96	15.89	-28.3	-29.6	13.7	1.83e-05	0	42	0	80740352	18	4174
2026-01-12 09:56:02.30	144.85	16.22	-27.7	-29.2	14.6	1.50e-06	0	41	0	89128960	16	4265
2026-01-12 09:56:05.31	144.75	16.56	-27.8	-29.4	14.4	7.00e-07	0	41	0	98566144	16	4335
2026-01-12 09:56:08.33	144.63	16.90	-27.9	-29.6	14.3	0.00e+00	0	41	0	109051904	16	4401
2026-01-12 09:56:11.34	144.52	17.25	-27.8	-29.5	14.4	0.00e+00	0	41	0	117440512	16	4344
2026-01-12 09:56:14.36	144.40	17.60	-27.9	-29.7	14.4	7.00e-07	0	41	0	126877696	16	4411
2026-01-12 09:56:17.37	144.28	17.96	-28.1	-30.0	14.2	3.00e-06	0	41	0	136314880	16	4506
2026-01-12 09:56:20.38	144.16	18.32	-27.7	-29.1	14.8	0.00e+00	0	41	0	145752064	16	4244
2026-01-12 09:56:23.39	144.03	18.69	-27.6	-28.8	14.9	0.00e+00	0	41	0	155189248	16	4160
2026-01-12 09:56:26.38	143.90	19.06	-27.5	-28.8	15.0	0.00e+00	0	41	0	164626432	16	4143
2026-01-12 09:56:29.39	143.77	19.43	-27.5	-28.7	15.1	0.00e+00	0	41	0	174063616	16	4126
2026-01-12 09:56:32.40	143.63	19.82	-27.4	-28.5	15.3	0.00e+00	0	42	0	183500800	16	4055
2026-01-12 09:56:35.40	143.49	20.20	-27.3	-28.3	15.4	7.00e-07	0	42	0	192937984	16	3999
2026-01-12 09:56:38.40	143.35	20.60	-27.1	-28.2	15.6	0.00e+00	0	42	0	202375168	15	4091
2026-01-12 09:56:41.42	143.20	21.00	-26.8	-27.6	15.9	0.00e+00	0	42	0	211812352	15	3926
2026-01-12 09:56:44.44	143.05	21.41	-26.7	-27.8	16.1	0.00e+00	0	42	0	221249536	14	4098
2026-01-12 09:56:47.45	142.89	21.82	-26.4	-27.1	16.5	0.00e+00	0	42	0	230686720	14	3926
2026-01-12 09:56:50.47	142.73	22.24	-26.2	-27.3	16.6	0.00e+00	0	42	0	240123904	13	4064
2026-01-12 09:56:53.48	142.56	22.67	-26.2	-27.1	16.8	0.00e+00	0	42	0	249561088	13	4026
2026-01-12 09:56:56.49	142.39	23.10	-26.1	-27.1	16.8	0.00e+00	0	42	0	258998272	13	4019
2026-01-12 09:56:59.51	142.21	23.54	-26.2	-27.3	16.7	0.00e+00	0	42	0	268435456	13	4065
2026-01-12 09:57:02.52	142.03	23.99	-26.2	-27.2	16.7	0.00e+00	0	42	0	277872640	13	4044
2026-01-12 09:57:05.54	141.84	24.45	-26.3	-27.5	16.6	0.00e+00	0	42	0	287309824	13	4116
2026-01-12 09:57:08.56	141.65	24.91	-26.1	-27.0	16.9	0.00e+00	0	42	0	296747008	13	3998
2026-01-12 09:57:11.58	141.45	25.39	-26.3	-27.5	16.7	0.00e+00	0	42	0	306184192	13	4111
2026-01-12 09:57:14.59	141.25	25.87	-26.6	-28.1	16.3	0.00e+00	0	42	0	315621376	13	4286
2026-01-12 09:57:17.60	141.03	26.35	-26.9	-28.9	15.9	0.00e+00	0	42	0	325058560	13	4493
2026-01-12 09:57:20.62	140.81	26.85	-27.0	-28.5	15.9	0.00e+00	0	42	0	334495744	14	4260
2026-01-12 09:57:23.63	140.59	27.36	-27.3	-29.1	15.6	0.00e+00	0	42	0	343932928	14	4428
2026-01-12 09:57:26.65	140.35	27.87	-27.4	-29.3	15.5	0.00e+00	0	42	0	353370112	14	4506
2026-01-12 09:57:29.66	140.11	28.40	-27.5	-29.2	15.3	7.00e-07	0	42	0	362807296	15	4350
2026-01-12 09:57:32.67	139.86	28.93	-27.4	-28.9	15.5	0.00e+00	0	42	0	372244480	15	4258
2026-01-12 09:57:35.69	139.60	29.47	-27.4	-28.8	15.6	0.00e+00	0	42	0	381681664	15	4231
2026-01-12 09:57:38.69	139.34	30.02	-27.3	-28.6	15.7	0.00e+00	0	42	0	391118848	15	4192
2026-01-12 09:57:41.72	139.06	30.59	-27.2	-28.4	15.8	0.00e+00	0	42	0	400556032	15	4128
2026-01-12 09:57:44.73	138.77	31.16	-27.0	-28.0	16.0	0.00e+00	0	42	0	409993216	15	4016
2026-01-12 09:57:47.75	138.47	31.74	-27.2	-28.3	15.8	0.00e+00	0	42	0	419430400	15	4119
2026-01-12 09:57:50.76	138.16	32.34	-27.4	-28.9	15.6	0.00e+00	0	42	0	428867584	15	4263
2026-01-12 09:57:53.78	137.84	32.94	-27.4	-28.8	15.6	0.00e+00	0	42	0	438304768	15	4232
2026-01-12 09:57:56.81	137.50	33.56	-27.5	-29.0	15.5	0.00e+00	0	42	0	447741952	15	4301
2026-01-12 09:57:59.83	137.15	34.19	-27.6	-29.3	15.4	0.00e+00	0	42	0	457179136	15	4362
2026-01-12 09:58:02.83	136.79	34.83	-28.3	-30.3	14.7	7.60e-06	0	42	0	466616320	16	4557
2026-01-12 09:58:05.85	136.41	35.48	-28.4	-30.1	14.6	0.00e+00	0	42	0	476053504	17	4380
2026-01-12 09:58:08.86	136.02	36.15	-28.5	-30.4	14.4	2.20e-06	0	42	0	485490688	17	4464
2026-01-12 09:58:11.87	135.61	36.82	-28.9	-31.2	13.9	1.14e-05	0	42	0	494927872	17	4716
2026-01-12 09:58:14.89	135.18	37.51	-28.9	-31.2	13.9	1.37e-05	0	42	0	504365056	17	4704
2026-01-12 09:58:17.90	134.73	38.21	-29.0	-31.0	13.8	9.90e-06	0	42	0	513802240	18	4529
2026-01-12 09:58:20.92	134.26	38.92	-29.0	-30.9	13.9	6.10e-06	0	42	0	523239424	18	4491
2026-01-12 09:58:23.95	133.77	39.65	-28.8	-30.4	14.2	1.22e-05	0	42	0	532676608	18	4349
2026-01-12 09:58:26.95	133.26	40.39	-28.8	-30.4	14.2	7.00e-07	0	42	0	542113792	18	4336
2026-01-12 09:58:29.97	132.73	41.14	-29.0	-30.9	13.9	7.00e-07	0	42	0	551550976	18	4489
2026-01-12 09:58:32.97	132.17	41.90	-29.6	-31.9	13.0	2.51e-05	0	42	0	560988160	19	4707
2026-01-12 09:58:35.96	131.58	42.67	-29.5	-31.6	13.2	2.82e-05	0	42	0	569376768	19	4592
2026-01-12 09:58:38.97	130.96	43.46	-29.5	-31.7	13.1	2.59e-05	0	42	0	578813952	19	4642
2026-01-12 09:58:41.99	130.31	44.27	-29.9	-32.7	12.6	8.23e-05	0	42	0	588251136	19	4946
2026-01-12 09:58:45.02	129.62	45.09	-30.0	-32.5	12.3	1.73e-04	0	42	0	597688320	20	4774
2026-01-12 09:58:48.03	128.90	45.91	-30.0	-32.5	12.4	1.70e-04	0	42	0	607125504	20	4779
2026-01-12 09:58:51.04	128.14	46.75	-29.7	-31.6	12.9	4.57e-05	0	42	0	616562688	20	4482
2026-01-12 09:58:54.05	127.33	47.60	-29.8	-31.8	12.7	5.95e-05	0	42	0	625999872	20	4559
2026-01-12 09:58:57.06	126.48	48.46	-29.4	-31.0	13.2	3.43e-05	0	42	0	635437056	20	4326
2026-01-12 09:59:00.07	125.59	49.32	-29.7	-31.8	12.7	6.10e-05	0	42	0	644874240	20	4558
2026-01-12 09:59:03.07	124.64	50.20	-29.3	-31.2	13.5	1.60e-05	0	42	0	654311424	19	4466
2026-01-12 09:59:06.09	123.62	51.09	-29.6	-32.0	13.1	2.21e-05	0	42	0	663748608	19	4716
2026-01-12 09:59:09.11	122.55	51.98	-29.4	-31.3	13.5	1.29e-05	0	42	0	673185792	19	4504
2026-01-12 09:59:12.12	121.41	52.88	-29.1	-30.7	13.9	4.50e-06	0	42	0	682622976	19	4331
2026-01-12 09:59:15.13	120.20	53.78	-29.0	-30.5	14.0	3.00e-06	0	42	0	692060160	19	4278
2026-01-12 09:59:18.13	118.91	54.68	-28.0	-29.2	15.3	0.00e+00	0	42	0	701497344	17	4107
2026-01-12 09:59:21.12	117.55	55.57	-27.8	-29.2	15.6	0.00e+00	0	42	0	710934528	16	4209
2026-01-12 09:59:24.13	116.08	56.47	-27.9	-29.4	15.5	0.00e+00	0	42	0	720371712	16	4258
2026-01-12 09:59:27.14	114.52	57.37	-27.8	-29.2	15.6	0.00e+00	0	42	0	729808896	16	4197
2026-01-12 09:59:30.16	112.84	58.26	-27.8	-29.1	15.7	0.00e+00	0	42	0	739246080	16	4185
2026-01-12 09:59:33.17	111.06	59.14	-26.8	-27.9	16.7	0.00e+00	0	42	0	748683264	14	4087
2026-01-12 09:59:36.20	109.14	60.00	-27.0	-28.4	16.4	0.00e+00	0	42	0	758120448	14	4225
2026-01-12 09:59:39.21	107.10	60.84	-26.2	-27.1	17.4	0.00e+00	0	42	0	767557632	13	4005
2026-01-12 09:59:42.23	104.91	61.66	-26.3	-27.2	17.3	0.00e+00	0	42	0	776994816	13	4028
2026-01-12 09:59:45.23	102.59	62.45	-26.4	-27.6	17.1	0.00e+00	0	42	0	786432000	13	4132
2026-01-12 09:59:48.24	100.11	63.20	-26.2	-27.1	17.4	0.00e+00	0	42	0	795869184	13	3999
2026-01-12 09:59:51.25	97.48	63.92	-27.0	-28.8	16.5	0.00e+00	0	42	0	805306368	13	4453
2026-01-12 09:59:54.25	94.69	64.58	-26.4	-27.0	17.2	0.00e+00	0	42	0	814743552	14	3859
2026-01-12 09:59:57.27	91.71	65.20	-26.8	-27.9	16.8	0.00e+00	0	42	0	824180736	14	4080
2026-01-12 10:00:00.27	88.60	65.76	-26.6	-27.4	17.0	0.00e+00	0	42	0	833617920	14	3971
2026-01-12 10:00:03.29	85.32	66.25	-26.4	-27.2	17.2	0.00e+00	0	42	0	843055104	14	3910
2026-01-12 10:00:06.29	81.91	66.67	-26.3	-27.3	17.3	0.00e+00	0	42	0	852492288	13	4051
2026-01-12 10:00:09.29	78.38	67.01	-25.8	-26.3	17.8	0.00e+00	0	42	0	861929472	13	3800
2026-01-12 10:00:12.30	74.74	67.27	-26.5	-27.7	17.1	0.00e+00	0	42	0	871366656	13	4157
2026-01-12 10:00:15.29	71.04	67.45	-26.4	-27.5	17.2	0.00e+00	0	42	0	879755264	13	4094
2026-01-12 10:00:18.30	67.27	67.54	-27.0	-28.4	16.5	0.00e+00	0	42	0	889192448	14	4227
2026-01-12 10:00:21.30	63.50	67.53	-27.3	-29.1	16.1	0.00e+00	0	42	0	898629632	14	4417
2026-01-12 10:00:24.31	59.73	67.44	-26.6	-27.4	17.0	0.00e+00	0	42	0	908066816	14	3977
2026-01-12 10:00:27.32	56.02	67.26	-26.7	-28.1	16.8	0.00e+00	0	42	0	917504000	13	4250
2026-01-12 10:00:30.33	52.38	66.99	-26.0	-26.8	17.5	0.00e+00	0	42	0	926941184	13	3912
2026-01-12 10:00:33.32	48.87	66.65	-26.7	-28.2	16.8	0.00e+00	0	42	0	936378368	13	4285
2026-01-12 10:00:36.35	45.44	66.22	-26.4	-27.6	17.1	0.00e+00	0	42	0	945815552	13	4124
2026-01-12 10:00:39.36	42.18	65.73	-26.0	-26.7	17.6	0.00e+00	0	42	0	955252736	13	3895
2026-01-12 10:00:42.38	39.06	65.16	-26.7	-28.3	16.6	0.00e+00	0	42	0	964689920	13	4305
2026-01-12 10:00:45.40	36.10	64.54	-26.9	-28.6	16.5	0.00e+00	0	42	0	974127104	13	4398
2026-01-12 10:00:48.41	33.32	63.87	-26.8	-27.5	16.6	0.00e+00	0	42	0	983564288	15	3886
2026-01-12 10:00:51.41	30.70	63.16	-27.3	-29.0	16.1	0.00e+00	0	42	0	993001472	14	4387
2026-01-12 10:00:54.42	28.24	62.40	-27.1	-28.1	16.2	0.00e+00	0	42	0	1002438656	15	4036
2026-01-12 10:00:57.43	25.93	61.62	-26.7	-27.7	16.7	0.00e+00	0	42	0	1011875840	14	4036
2026-01-12 10:01:00.44	23.76	60.80	-27.7	-29.4	15.5	0.00e+00	0	42	0	1021313024	15	4408
2026-01-12 10:01:03.46	21.73	59.96	-25.8	-26.6	17.8	0.00e+00	0	42	0	1030750208	12	3984
2026-01-12 10:01:06.46	19.84	59.10	-28.3	-30.4	14.9	0.00e+00	0	42	0	1040187392	16	4562
2026-01-12 10:01:09.46	18.07	58.23	-27.0	-27.9	16.3	0.00e+00	0	42	0	1049624576	15	3991
2026-01-12 10:01:12.47	16.40	57.34	-28.5	-30.3	14.5	0.00e+00	0	42	0	1059061760	17	4403
2026-01-12 10:01:15.49	14.84	56.45	-29.4	-31.4	13.4	2.05e-05	0	42	0	1068498944	19	4524
2026-01-12 10:01:18.49	13.39	55.55	-26.3	-27.3	17.2	0.00e+00	0	42	0	1077936128	13	4033
2026-01-12 10:01:21.50	12.02	54.65	-28.8	-30.8	14.3	7.00e-07	0	42	0	1087373312	17	4579
2026-01-12 10:01:24.52	10.74	53.75	-29.2	-31.3	13.5	9.10e-06	0	42	0	1096810496	18	4628
2026-01-12 10:01:27.53	9.53	52.85	-28.0	-29.2	15.2	0.00e+00	0	42	0	1106247680	17	4110
2026-01-12 10:01:30.54	8.40	51.96	-29.4	-32.1	13.2	1.60e-05	0	42	0	1115684864	18	4866
2026-01-12 10:01:33.57	7.33	51.07	-28.9	-30.2	14.1	2.20e-06	0	42	0	1125122048	19	4171
2026-01-12 10:01:36.59	6.32	50.18	-27.9	-28.9	15.4	0.00e+00	0	42	0	1134559232	17	4019
2026-01-12 10:01:39.60	5.38	49.31	-28.3	-29.7	14.9	7.00e-07	0	42	0	1143996416	17	4237
2026-01-12 10:01:42.61	4.48	48.44	-29.8	-32.3	12.6	1.20e-04	0	42	0	1153433600	19	4837
2026-01-12 10:01:45.62	3.64	47.59	-29.5	-31.6	13.2	2.21e-05	0	42	0	1162870784	19	4599
2026-01-12 10:01:48.63	2.84	46.74	-29.8	-32.5	12.6	9.30e-05	0	42	0	1172307968	19	4896
2026-01-12 10:01:51.65	2.08	45.91	-29.8	-32.4	12.7	7.40e-05	0	42	0	1181745152	19	4877
2026-01-12 10:01:54.67	1.36	45.08	-30.9	-34.4	10.7	3.65e-03	0	42	0	1191182336	21	5394
2026-01-12 10:01:57.68	0.68	44.28	-31.1	-34.3	10.5	3.79e-03	0	42	0	1200619520	22	5197
2026-01-12 10:02:00.69	0.03	43.48	-30.1	-32.1	12.1	2.75e-04	0	42	0	1210056704	21	4554
2026-01-12 10:02:03.71	359.41	42.69	-30.8	-34.2	10.8	2.28e-03	0	42	0	1219493888	21	5291
2026-01-12 10:02:06.72	358.83	41.92	-31.5	-35.1	9.5	2.15e-02	0	42	0	1228931072	23	5439
2026-01-12 10:02:09.73	358.27	41.16	-29.7	-31.7	12.6	9.61e-05	0	42	0	1238368256	20	4522
2026-01-12 10:02:12.75	357.74	40.41	-28.4	-29.6	14.4	7.00e-07	0	42	0	1247805440	18	4127
2026-01-12 10:02:15.77	357.23	39.67	-28.1	-29.4	15.0	0.00e+00	0	42	0	1257242624	17	4164
2026-01-12 10:02:18.77	356.75	38.95	-28.9	-31.2	13.9	3.00e-06	0	42	0	1266679808	17	4690
2026-01-12 10:02:21.79	356.28	38.24	-29.4	-31.9	13.1	3.05e-05	0	42	0	1275068416	18	4824
2026-01-12 10:02:24.81	355.84	37.55	-29.3	-31.6	13.3	2.36e-05	0	42	0	1284505600	18	4721
2026-01-12 10:02:27.83	355.41	36.86	-29.0	-30.6	13.7	5.30e-06	0	42	0	1294991360	19	4291
2026-01-12 10:02:30.85	355.00	36.19	-28.8	-30.6	13.9	1.50e-06	0	42	0	1303379968	18	4427
2026-01-12 10:02:33.87	354.61	35.52	-28.6	-30.1	14.2	1.50e-06	0	42	0	1313865728	18	4278
2026-01-12 10:02:36.89	354.23	34.88	-27.9	-28.9	15.1	0.00e+00	0	42	0	1322254336	17	4052
2026-01-12 10:02:39.91	353.87	34.24	-27.9	-29.4	15.1	0.00e+00	0	42	0	1332740096	16	4274
2026-01-12 10:02:42.92	353.53	33.61	-28.3	-30.3	14.6	0.00e+00	0	42	0	1342177280	16	4548
2026-01-12 10:02:45.94	353.20	33.00	-28.2	-30.2	14.6	0.00e+00	0	42	0	1350565888	16	4535
2026-01-12 10:02:48.96	352.88	32.40	-28.1	-29.8	14.9	0.00e+00	0	42	0	1361051648	16	4397
2026-01-12 10:02:51.97	352.57	31.81	-28.0	-29.7	15.0	0.00e+00	0	42	0	1369440256	16	4376
2026-01-12 10:02:54.98	352.27	31.23	-27.8	-29.2	15.2	0.00e+00	0	43	0	1378877440	16	4235
2026-01-12 10:02:57.99	351.99	30.66	-27.6	-28.9	15.4	0.00e+00	0	42	0	1388314624	16	4144
2026-01-12 10:03:01.01	351.71	30.10	-28.0	-29.8	14.9	0.00e+00	0	42	0	1397751808	16	4407
2026-01-12 10:03:04.02	351.44	29.55	-27.7	-28.9	15.4	0.00e+00	0	43	0	1407188992	16	4151
2026-01-12 10:03:07.03	351.19	29.01	-27.4	-28.2	15.7	0.00e+00	0	42	0	1416626176	16	3973
2026-01-12 10:03:10.05	350.94	28.48	-26.8	-27.6	16.2	0.00e+00	0	43	0	1426063360	15	3923
2026-01-12 10:03:13.07	350.70	27.95	-26.6	-27.6	16.4	0.00e+00	0	42	0	1435500544	14	4034
2026-01-12 10:03:16.08	350.47	27.44	-26.6	-27.4	16.5	0.00e+00	0	42	0	1444937728	14	3986
2026-01-12 10:03:19.09	350.24	26.94	-26.4	-27.1	16.7	0.00e+00	0	42	0	1454374912	14	3894
2026-01-12 10:03:22.10	350.03	26.45	-26.6	-27.6	16.4	0.00e+00	0	42	0	1463812096	14	4031
2026-01-12 10:03:25.11	349.82	25.96	-26.6	-27.7	16.4	0.00e+00	0	43	0	1473249280	14	4058
2026-01-12 10:03:28.13	349.61	25.48	-26.7	-27.9	16.2	0.00e+00	0	43	0	1482686464	14	4115
2026-01-12 10:03:31.15	349.42	25.01	-26.9	-28.3	16.0	0.00e+00	0	42	0	1492123648	14	4219
2026-01-12 10:03:34.17	349.23	24.55	-27.1	-28.8	15.7	0.00e+00	0	43	0	1501560832	14	4357
2026-01-12 10:03:37.18	349.04	24.10	-27.3	-29.1	15.5	0.00e+00	0	43	0	1510998016	14	4436
2026-01-12 10:03:40.18	348.86	23.65	-27.6	-29.3	15.1	0.00e+00	0	42	0	1520435200	15	4393
2026-01-12 10:03:43.19	348.69	23.21	-28.1	-30.0	14.6	0.00e+00	0	42	0	1529872384	16	4488
2026-01-12 10:03:46.22	348.52	22.78	-27.9	-29.4	14.9	0.00e+00	0	42	0	1539309568	16	4312
2026-01-12 10:03:49.24	348.35	22.35	-27.5	-28.6	15.4	0.00e+00	0	42	0	1548746752	16	4083
2026-01-12 10:03:52.26	348.19	21.93	-27.4	-28.4	15.5	0.00e+00	0	42	0	1558183936	16	4036
2026-01-12 10:03:55.28	348.04	21.52	-27.1	-28.2	15.6	0.00e+00	0	42	0	1567621120	15	4095
2026-01-12 10:03:58.30	347.89	21.11	-27.1	-28.1	15.7	0.00e+00	0	42	0	1577058304	15	4078
2026-01-12 10:04:01.32	347.74	20.71	-26.9	-27.9	15.8	0.00e+00	0	42	0	1586495488	15	4016
2026-01-12 10:04:04.33	347.60	20.32	-26.9	-27.9	15.8	0.00e+00	0	42	0	1595932672	15	4011
2026-01-12 10:04:07.34	347.46	19.93	-26.7	-27.9	16.0	0.00e+00	0	42	0	1605369856	14	4112
2026-01-12 10:04:10.35	347.33	19.55	-26.6	-27.7	16.1	0.00e+00	0	42	0	1614807040	14	4074
2026-01-12 10:04:13.37	347.19	19.17	-26.7	-27.9	16.0	7.00e-07	0	42	0	1624244224	14	4122
2026-01-12 10:04:16.38	347.07	18.80	-26.6	-27.7	16.1	0.00e+00	0	42	0	1633681408	14	4069
2026-01-12 10:04:19.41	346.94	18.44	-26.8	-28.1	15.8	0.00e+00	0	42	0	1643118592	14	4165
2026-01-12 10:04:22.42	346.82	18.08	-26.7	-28.0	15.9	0.00e+00	0	42	0	1652555776	14	4139
2026-01-12 10:04:25.44	346.70	17.72	-26.9	-28.3	15.7	0.00e+00	0	42	0	1661992960	14	4221
2026-01-12 10:04:28.44	346.59	17.37	-27.0	-28.6	15.5	7.00e-07	0	42	0	1671430144	14	4320
2026-01-12 10:04:31.46	346.47	17.03	-27.2	-28.9	15.4	0.00e+00	0	42	0	1680867328	14	4389
2026-01-12 10:04:34.48	346.37	16.68	-27.2	-29.0	15.3	0.00e+00	0	42	0	1690304512	14	4427
2026-01-12 10:04:37.49	346.26	16.35	-27.4	-29.4	15.0	0.00e+00	0	42	0	1699741696	14	4547
2026-01-12 10:04:40.51	346.15	16.02	-27.4	-29.5	14.9	0.00e+00	0	43	0	1709178880	14	4579
2026-01-12 10:04:43.53	346.05	15.69	-27.6	-29.3	14.8	2.20e-06	0	42	0	1718616064	15	4417
2026-01-12 10:04:46.55	345.95	15.37	-27.6	-29.5	14.6	7.00e-07	0	42	0	1728053248	15	4461
2026-01-12 10:04:49.56	345.86	15.05	-27.6	-29.6	14.6	1.50e-06	0	42	0	1737490432	15	4485
2026-01-12 10:04:52.58	345.76	14.73	-27.7	-29.7	14.5	0.00e+00	0	42	0	1746927616	15	4521
2026-01-12 10:04:55.60	345.67	14.42	-28.1	-30.0	14.1	2.20e-06	0	42	0	1756364800	16	4514
2026-01-12 10:04:58.61	345.58	14.11	-28.0	-29.9	14.2	7.00e-07	0	42	0	1765801984	16	4475
2026-01-12 10:05:01.62	345.49	13.81	-28.2	-30.3	13.9	3.00e-06	0	42	0	1775239168	16	4598
2026-01-12 10:05:04.64	345.40	13.51	-28.3	-30.5	13.8	2.20e-06	0	42	0	1784676352	16	4661
2026-01-12 10:05:07.66	345.32	13.21	-28.2	-30.3	13.9	3.00e-06	0	42	0	1794113536	16	4606
2026-01-12 10:05:10.68	345.24	12.92	-28.1	-30.1	14.0	7.00e-07	0	42	0	1803550720	16	4535
2026-01-12 10:05:13.69	345.16	12.63	-28.1	-30.1	14.0	3.80e-06	0	42	0	1812987904	16	4542
2026-01-12 10:05:16.70	345.08	12.35	-28.1	-30.2	13.9	7.60e-06	0	42	0	1822425088	16	4584
2026-01-12 10:05:19.72	345.00	12.06	-27.9	-29.8	14.1	7.00e-07	0	42	0	1831862272	16	4436
2026-01-12 10:05:22.73	344.93	11.78	-28.1	-30.1	14.0	3.00e-06	0	42	0	1841299456	16	4527
2026-01-12 10:05:25.75	344.85	11.51	-28.0	-30.0	14.0	5.30e-06	0	42	0	1850736640	16	4522
2026-01-12 10:05:28.77	344.78	11.23	-28.0	-30.0	14.0	3.80e-06	0	42	0	1860173824	16	4496
2026-01-12 10:05:31.79	344.71	10.96	-27.9	-29.7	14.1	3.80e-06	0	42	0	1869611008	16	4433
2026-01-12 10:05:34.81	344.64	10.69	-28.0	-30.0	13.9	3.80e-06	0	42	0	1879048192	16	4516
2026-01-12 10:05:37.83	344.57	10.43	-28.2	-30.4	13.7	4.50e-06	0	42	0	1888485376	16	4633
2026-01-12 10:05:40.85	344.51	10.17	-28.3	-30.7	13.5	1.14e-05	0	42	0	1897922560	16	4723
2026-01-12 10:05:43.87	344.44	9.91	-28.3	-30.8	13.4	2.36e-05	0	42	0	1907359744	16	4764
2026-01-12 10:05:46.87	344.38	9.65	-28.3	-30.7	13.4	1.06e-05	0	43	0	1916796928	16	4737
2026-01-12 10:05:49.89	344.32	9.40	-28.3	-30.7	13.3	1.67e-05	0	42	0	1926234112	16	4757
2026-01-12 10:05:52.89	344.26	9.15	-28.3	-30.8	13.3	1.75e-05	0	42	0	1935671296	16	4772
2026-01-12 10:05:55.92	344.20	8.90	-28.6	-31.0	12.8	4.27e-05	0	42	0	1945108480	17	4753
2026-01-12 10:05:58.94	344.14	8.65	-28.6	-30.9	12.8	7.62e-05	0	42	0	1954545664	17	4721
2026-01-12 10:06:01.96	344.08	8.41	-28.6	-31.1	12.7	8.23e-05	0	42	0	1963982848	17	4775
2026-01-12 10:06:04.97	344.03	8.16	-28.9	-31.7	12.3	1.33e-04	0	42	0	1973420032	17	4968
2026-01-12 10:06:07.99	343.97	7.92	-28.6	-30.9	12.7	6.33e-05	0	42	0	1982857216	17	4707
2026-01-12 10:06:11.01	343.92	7.69	-28.5	-30.7	12.9	6.10e-05	0	42	0	1992294400	17	4649
2026-01-12 10:06:14.03	343.87	7.45	-28.7	-31.4	12.4	1.04e-04	0	42	0	2001731584	17	4880
2026-01-12 10:06:17.04	343.82	7.22	-29.0	-31.5	12.0	3.99e-04	0	42	0	2011168768	18	4824
2026-01-12 10:06:20.05	343.76	6.99	-33.3	-45.3	3.8	1.49e+00	0	42	104	2015363072	26	14311

#Closed at: 2026-01-12 10:06:22
#Recorded file [2015 MB]: D:/data/31010_260112_125533.dat