passes_logs/2026/01/12/R2M6_AANII_01/R2M6_AANII_01__20260112_113530_NOAA_21_JPSS-2_rec.log

#Pass ID: 20260112_113530_NOAA 21 (JPSS-2)
#Satellite: NOAA 21 (JPSS-2)
#Configuration: NOAA 21
#almurnet v.1.7.20240730
#Start time: 2026-01-12 11:35:33

#Version: 2.2.20231116
#Station: R2M6_AANII_01
#Location: 30.233357 lon 59.946436 lat
#TLE: 1 54234U 22150A   26011.27699114  .00000090  00000+0  63771-4 0  9993
#TLE: 2 54234  98.7494 312.2218 0000765 314.9553  45.1561 14.19534106164285

#Time	Az	El	Level	Level2	SNR	BER	BlckErr	Temp	State	Recorded	gain1	gain2
2026-01-12 11:35:33.06	201.33	7.17	-33.6	-44.6	3.8	8.46e-01	0	42	0	0	27	12904
2026-01-12 11:35:36.07	201.57	7.38	-34.0	-45.4	3.8	1.49e+00	0	42	104	0	29	13335
2026-01-12 11:35:39.09	201.80	7.59	-34.0	-45.4	3.8	1.49e+00	0	42	104	0	29	13352
2026-01-12 11:35:42.10	202.04	7.80	-34.0	-45.4	3.8	1.49e+00	0	42	104	0	29	13317
2026-01-12 11:35:45.11	202.28	8.01	-34.0	-45.4	3.8	1.49e+00	0	42	104	0	29	13292
2026-01-12 11:35:48.13	202.53	8.23	-34.0	-45.4	3.8	1.49e+00	0	42	104	0	29	13314
2026-01-12 11:35:51.14	202.78	8.44	-34.0	-45.4	3.8	1.49e+00	0	42	104	0	29	13312
2026-01-12 11:35:54.14	203.03	8.66	-34.0	-45.4	3.8	1.49e+00	0	42	104	0	29	13326
2026-01-12 11:35:57.16	203.29	8.88	-33.9	-45.2	3.8	1.49e+00	0	42	104	0	29	13175
2026-01-12 11:36:00.17	203.55	9.10	-33.8	-45.0	3.8	1.49e+00	0	42	104	0	29	13037
2026-01-12 11:36:03.18	203.81	9.32	-33.6	-45.2	3.8	1.49e+00	0	42	104	0	28	13582
2026-01-12 11:36:06.20	204.08	9.54	-33.4	-44.7	3.8	1.49e+00	0	42	104	0	28	13163
2026-01-12 11:36:09.20	204.35	9.76	-32.7	-42.2	3.9	1.49e+00	0	42	104	0	26	10669
2026-01-12 11:36:12.22	204.63	9.99	-32.8	-42.9	3.8	1.49e+00	0	42	104	0	26	11527
2026-01-12 11:36:15.23	204.91	10.21	-32.1	-38.4	5.2	7.87e-01	0	42	104	0	25	7442
2026-01-12 11:36:18.25	205.20	10.44	-30.1	-33.0	10.1	9.56e-03	0	42	0	8388608	21	5019
2026-01-12 11:36:21.28	205.49	10.67	-28.7	-30.7	12.7	1.20e-04	0	42	0	17825792	18	4527
2026-01-12 11:36:24.29	205.78	10.91	-28.6	-30.4	12.8	4.80e-05	0	42	0	27262976	18	4455
2026-01-12 11:36:27.30	206.08	11.14	-29.8	-33.2	10.7	1.98e-03	0	42	0	36700160	19	5310
2026-01-12 11:36:30.32	206.38	11.37	-29.6	-32.2	11.0	2.75e-03	0	42	0	46137344	20	4848
2026-01-12 11:36:33.34	206.69	11.61	-28.7	-30.7	12.7	1.04e-04	0	42	0	55574528	18	4518
2026-01-12 11:36:36.35	207.00	11.85	-28.3	-29.7	13.4	9.10e-06	0	41	0	65011712	18	4218
2026-01-12 11:36:39.36	207.31	12.08	-28.0	-29.4	13.9	1.50e-06	0	42	0	74448896	17	4256
2026-01-12 11:36:42.38	207.64	12.33	-27.7	-29.3	14.3	0.00e+00	0	42	0	83886080	16	4303
2026-01-12 11:36:45.40	207.96	12.57	-27.7	-29.2	14.4	7.00e-07	0	42	0	93323264	16	4274
2026-01-12 11:36:48.42	208.30	12.81	-27.6	-29.1	14.4	7.00e-07	0	42	0	102760448	16	4249
2026-01-12 11:36:51.44	208.64	13.06	-27.6	-29.0	14.5	1.50e-06	0	41	0	112197632	16	4228
2026-01-12 11:36:54.45	208.98	13.31	-27.6	-28.9	14.5	1.50e-06	0	41	0	121634816	16	4211
2026-01-12 11:36:57.47	209.33	13.55	-27.4	-28.5	14.8	0.00e+00	0	42	0	131072000	16	4105
2026-01-12 11:37:00.48	209.68	13.80	-27.4	-28.5	14.8	0.00e+00	0	41	0	140509184	16	4097
2026-01-12 11:37:03.48	210.04	14.05	-27.4	-28.6	14.8	0.00e+00	0	41	0	149946368	16	4117
2026-01-12 11:37:06.50	210.41	14.31	-27.7	-29.3	14.4	0.00e+00	0	41	0	159383552	16	4310
2026-01-12 11:37:09.52	210.78	14.56	-27.5	-28.7	14.7	1.50e-06	0	41	0	168820736	16	4144
2026-01-12 11:37:12.54	211.16	14.82	-27.6	-28.9	14.6	0.00e+00	0	41	0	178257920	16	4204
2026-01-12 11:37:15.55	211.54	15.08	-27.5	-28.8	14.7	0.00e+00	0	41	0	187695104	16	4179
2026-01-12 11:37:18.56	211.93	15.34	-27.6	-29.0	14.6	1.50e-06	0	41	0	197132288	16	4224
2026-01-12 11:37:21.59	212.33	15.60	-27.5	-28.7	14.8	7.00e-07	0	41	0	206569472	16	4139
2026-01-12 11:37:24.60	212.74	15.86	-27.6	-28.9	14.7	0.00e+00	0	41	0	216006656	16	4187
2026-01-12 11:37:27.61	213.15	16.13	-27.6	-29.0	14.6	0.00e+00	0	41	0	225443840	16	4228
2026-01-12 11:37:30.63	213.57	16.39	-27.4	-28.5	15.0	0.00e+00	0	42	0	234881024	16	4083
2026-01-12 11:37:33.64	213.99	16.66	-27.6	-29.0	14.7	0.00e+00	0	41	0	244318208	16	4228
2026-01-12 11:37:36.64	214.42	16.93	-27.5	-28.6	14.9	0.00e+00	0	41	0	253755392	16	4120
2026-01-12 11:37:39.65	214.86	17.19	-27.7	-29.1	14.7	0.00e+00	0	42	0	263192576	16	4240
2026-01-12 11:37:42.67	215.31	17.47	-27.5	-28.8	14.9	0.00e+00	0	42	0	272629760	16	4162
2026-01-12 11:37:45.65	215.76	17.74	-27.7	-29.2	14.7	7.00e-07	0	42	0	282066944	16	4261
2026-01-12 11:37:48.67	216.23	18.01	-27.6	-29.0	14.8	7.00e-07	0	42	0	291504128	16	4224
2026-01-12 11:37:51.66	216.70	18.28	-27.4	-28.4	15.1	0.00e+00	0	42	0	300941312	16	4058
2026-01-12 11:37:54.67	217.18	18.56	-27.3	-28.2	15.2	0.00e+00	0	42	0	310378496	16	3999
2026-01-12 11:37:57.68	217.67	18.84	-27.3	-28.2	15.2	0.00e+00	0	42	0	319815680	16	4003
2026-01-12 11:38:00.70	218.17	19.11	-27.1	-28.3	15.3	0.00e+00	0	42	0	329252864	15	4118
2026-01-12 11:38:03.71	218.67	19.39	-27.0	-28.0	15.5	0.00e+00	0	42	0	338690048	15	4045
2026-01-12 11:38:06.72	219.19	19.67	-26.8	-27.7	15.7	0.00e+00	0	42	0	348127232	15	3968
2026-01-12 11:38:09.75	219.72	19.96	-26.9	-27.9	15.6	0.00e+00	0	42	0	357564416	15	4038
2026-01-12 11:38:12.76	220.25	20.24	-26.8	-28.2	15.8	0.00e+00	0	42	0	367001600	14	4195
2026-01-12 11:38:15.77	220.80	20.52	-26.8	-28.1	15.8	0.00e+00	0	42	0	376438784	14	4176
2026-01-12 11:38:18.79	221.35	20.80	-26.9	-28.3	15.7	0.00e+00	0	42	0	385875968	14	4222
2026-01-12 11:38:21.79	221.91	21.08	-26.7	-27.9	15.9	0.00e+00	0	42	0	395313152	14	4116
2026-01-12 11:38:24.81	222.49	21.37	-26.6	-27.7	16.0	0.00e+00	0	42	0	404750336	14	4073
2026-01-12 11:38:27.82	223.07	21.65	-27.0	-28.5	15.6	0.00e+00	0	42	0	414187520	14	4292
2026-01-12 11:38:30.83	223.67	21.94	-26.9	-28.3	15.7	0.00e+00	0	42	0	422576128	14	4230
2026-01-12 11:38:33.85	224.28	22.22	-26.8	-28.1	15.8	0.00e+00	0	42	0	432013312	14	4171
2026-01-12 11:38:36.86	224.89	22.51	-26.7	-27.8	16.0	0.00e+00	0	42	0	442499072	14	4093
2026-01-12 11:38:39.87	225.52	22.79	-26.8	-28.0	15.9	0.00e+00	0	42	0	450887680	14	4165
2026-01-12 11:38:42.89	226.16	23.07	-26.6	-27.6	16.2	1.06e-05	0	42	0	460324864	14	4045
2026-01-12 11:38:45.91	226.81	23.36	-26.4	-27.2	16.3	0.00e+00	0	42	0	469762048	14	3955
2026-01-12 11:38:48.93	227.48	23.64	-26.4	-27.1	16.4	1.29e-05	0	42	0	479199232	14	3931
2026-01-12 11:38:51.96	228.15	23.92	-26.5	-27.3	16.3	1.29e-05	0	42	0	489684992	14	3971
2026-01-12 11:38:54.98	228.84	24.20	-26.7	-27.9	16.1	1.37e-05	0	42	0	498073600	14	4114
2026-01-12 11:38:57.99	229.54	24.48	-26.8	-28.1	15.9	1.14e-05	0	42	0	507510784	14	4185
2026-01-12 11:39:01.02	230.25	24.76	-27.0	-28.4	15.7	0.00e+00	0	42	0	516947968	14	4265
2026-01-12 11:39:04.03	230.97	25.04	-26.8	-28.2	15.9	1.06e-05	0	42	0	526385152	14	4193
2026-01-12 11:39:07.04	231.71	25.31	-26.6	-27.7	16.2	0.00e+00	0	42	0	535822336	14	4057
2026-01-12 11:39:10.06	232.46	25.58	-26.6	-27.7	16.2	0.00e+00	0	42	0	545259520	14	4056
2026-01-12 11:39:13.08	233.22	25.85	-27.0	-28.6	15.7	0.00e+00	0	42	0	554696704	14	4298
2026-01-12 11:39:16.10	233.99	26.12	-27.0	-28.5	15.7	0.00e+00	0	42	0	564133888	14	4287
2026-01-12 11:39:19.12	234.78	26.38	-27.1	-28.7	15.7	0.00e+00	0	42	0	573571072	14	4327
2026-01-12 11:39:22.13	235.58	26.64	-26.8	-28.0	16.1	7.00e-07	0	42	0	583008256	14	4141
2026-01-12 11:39:25.14	236.39	26.90	-26.8	-28.0	16.0	0.00e+00	0	42	0	592445440	14	4144
2026-01-12 11:39:28.16	237.21	27.15	-27.1	-28.8	15.6	0.00e+00	0	42	0	601882624	14	4373
2026-01-12 11:39:31.18	238.05	27.40	-27.2	-29.0	15.5	0.00e+00	0	42	0	611319808	14	4405
2026-01-12 11:39:34.19	238.90	27.65	-27.1	-28.8	15.6	7.00e-07	0	42	0	620756992	14	4361
2026-01-12 11:39:37.21	239.76	27.89	-26.9	-28.2	16.0	1.50e-06	0	42	0	630194176	14	4197
2026-01-12 11:39:40.21	240.64	28.12	-27.0	-28.4	15.8	0.00e+00	0	42	0	639631360	14	4259
2026-01-12 11:39:43.23	241.52	28.35	-26.8	-28.0	16.1	0.00e+00	0	42	0	649068544	14	4142
2026-01-12 11:39:46.25	242.43	28.58	-26.9	-28.4	15.9	0.00e+00	0	42	0	658505728	14	4236
2026-01-12 11:39:49.24	243.33	28.80	-26.8	-28.0	16.1	0.00e+00	0	42	0	667942912	14	4132
2026-01-12 11:39:52.25	244.25	29.01	-26.9	-28.2	16.0	0.00e+00	0	42	0	677380096	14	4185
2026-01-12 11:39:55.27	245.19	29.21	-27.3	-29.2	15.5	0.00e+00	0	42	0	686817280	14	4465
2026-01-12 11:39:58.29	246.14	29.41	-27.2	-29.0	15.6	0.00e+00	0	42	0	696254464	14	4403
2026-01-12 11:40:01.30	247.10	29.61	-27.0	-28.5	15.9	0.00e+00	0	42	0	705691648	14	4269
2026-01-12 11:40:04.31	248.06	29.79	-27.1	-28.6	15.8	0.00e+00	0	42	0	715128832	14	4310
2026-01-12 11:40:07.32	249.04	29.97	-27.0	-28.5	15.8	0.00e+00	0	42	0	724566016	14	4274
2026-01-12 11:40:10.33	250.03	30.13	-27.0	-28.4	15.9	0.00e+00	0	42	0	734003200	14	4248
2026-01-12 11:40:13.34	251.03	30.29	-27.2	-28.9	15.7	0.00e+00	0	42	0	743440384	14	4378
2026-01-12 11:40:16.34	252.04	30.45	-27.6	-29.4	15.1	0.00e+00	0	42	0	752877568	15	4425
2026-01-12 11:40:19.34	253.05	30.59	-27.6	-29.4	15.1	0.00e+00	0	42	0	762314752	15	4409
2026-01-12 11:40:22.35	254.08	30.72	-27.3	-28.5	15.5	0.00e+00	0	42	0	771751936	15	4173
2026-01-12 11:40:25.36	255.11	30.85	-27.6	-29.4	15.1	0.00e+00	0	42	0	781189120	15	4427
2026-01-12 11:40:28.38	256.16	30.96	-27.4	-28.9	15.4	0.00e+00	0	42	0	790626304	15	4271
2026-01-12 11:40:31.39	257.20	31.07	-27.5	-29.0	15.3	0.00e+00	0	42	0	800063488	15	4307
2026-01-12 11:40:34.40	258.26	31.16	-27.5	-29.2	15.2	7.00e-07	0	42	0	809500672	15	4355
2026-01-12 11:40:37.40	259.32	31.24	-27.6	-29.2	15.2	0.00e+00	0	42	0	818937856	15	4372
2026-01-12 11:40:40.41	260.38	31.32	-27.4	-28.9	15.4	0.00e+00	0	42	0	828375040	15	4274
2026-01-12 11:40:43.43	261.45	31.38	-27.5	-29.0	15.3	0.00e+00	0	42	0	837812224	15	4298
2026-01-12 11:40:46.45	262.53	31.43	-27.6	-29.4	15.1	0.00e+00	0	42	0	847249408	15	4401
2026-01-12 11:40:49.47	263.61	31.47	-27.7	-29.5	15.1	0.00e+00	0	42	0	856686592	15	4446
2026-01-12 11:40:52.48	264.69	31.51	-27.4	-28.9	15.3	0.00e+00	0	42	0	866123776	15	4287
2026-01-12 11:40:55.48	265.77	31.52	-27.7	-29.5	15.1	0.00e+00	0	42	0	875560960	15	4437
2026-01-12 11:40:58.50	266.85	31.53	-27.7	-29.6	15.0	0.00e+00	0	42	0	884998144	15	4470
2026-01-12 11:41:01.51	267.93	31.53	-27.6	-29.4	15.1	0.00e+00	0	42	0	894435328	15	4400
2026-01-12 11:41:04.52	269.01	31.52	-27.7	-29.5	15.0	0.00e+00	0	42	0	903872512	15	4456
2026-01-12 11:41:07.53	270.09	31.49	-27.6	-29.2	15.2	0.00e+00	0	42	0	912261120	15	4358
2026-01-12 11:41:10.55	271.17	31.46	-27.6	-29.4	15.1	0.00e+00	0	42	0	921698304	15	4415
2026-01-12 11:41:13.57	272.25	31.41	-27.3	-28.7	15.6	0.00e+00	0	42	0	932184064	15	4205
2026-01-12 11:41:16.57	273.32	31.35	-27.5	-29.1	15.3	0.00e+00	0	42	0	940572672	15	4334
2026-01-12 11:41:19.59	274.39	31.29	-27.5	-29.0	15.3	0.00e+00	0	42	0	950009856	15	4305
2026-01-12 11:41:22.59	275.44	31.21	-27.5	-29.1	15.3	0.00e+00	0	42	0	959447040	15	4327
2026-01-12 11:41:25.57	276.49	31.12	-27.7	-29.4	15.1	0.00e+00	0	42	0	968884224	15	4421
2026-01-12 11:41:28.59	277.54	31.02	-27.6	-29.3	15.2	0.00e+00	0	42	0	978321408	15	4386
2026-01-12 11:41:31.61	278.59	30.91	-27.1	-28.2	15.8	0.00e+00	0	42	0	987758592	15	4077
2026-01-12 11:41:34.62	279.63	30.79	-27.4	-28.9	15.4	0.00e+00	0	42	0	997195776	15	4286
2026-01-12 11:41:37.63	280.66	30.66	-27.5	-29.2	15.3	0.00e+00	0	42	0	1006632960	15	4358
2026-01-12 11:41:40.64	281.68	30.53	-27.5	-29.1	15.3	0.00e+00	0	42	0	1016070144	15	4330
2026-01-12 11:41:43.65	282.69	30.38	-27.5	-29.1	15.3	0.00e+00	0	42	0	1025507328	15	4333
2026-01-12 11:41:46.66	283.69	30.23	-27.7	-29.5	15.1	0.00e+00	0	42	0	1034944512	15	4438
2026-01-12 11:41:49.66	284.68	30.06	-27.6	-29.3	15.2	0.00e+00	0	42	0	1044381696	15	4397
2026-01-12 11:41:52.67	285.66	29.89	-27.1	-28.2	15.8	0.00e+00	0	42	0	1053818880	15	4075
2026-01-12 11:41:55.68	286.63	29.71	-27.1	-28.2	15.8	7.00e-07	0	42	0	1063256064	15	4078
2026-01-12 11:41:58.70	287.59	29.53	-27.2	-28.5	15.7	0.00e+00	0	42	0	1072693248	15	4159
2026-01-12 11:42:01.72	288.55	29.33	-27.1	-28.3	15.8	0.00e+00	0	42	0	1082130432	15	4099
2026-01-12 11:42:04.73	289.48	29.13	-27.4	-28.8	15.5	0.00e+00	0	42	0	1091567616	15	4235
2026-01-12 11:42:07.73	290.41	28.92	-27.2	-28.5	15.6	0.00e+00	0	42	0	1101004800	15	4155
2026-01-12 11:42:10.75	291.33	28.71	-27.2	-28.5	15.6	0.00e+00	0	42	0	1110441984	15	4169
2026-01-12 11:42:13.76	292.23	28.49	-27.5	-29.1	15.3	0.00e+00	0	42	0	1119879168	15	4322
2026-01-12 11:42:16.77	293.12	28.26	-27.5	-29.0	15.4	1.50e-06	0	42	0	1129316352	15	4298
2026-01-12 11:42:19.78	293.99	28.03	-27.2	-28.4	15.7	3.00e-06	0	42	0	1138753536	15	4140
2026-01-12 11:42:22.78	294.86	27.80	-26.9	-27.8	16.0	0.00e+00	0	42	0	1148190720	15	3982
2026-01-12 11:42:25.78	295.71	27.56	-27.2	-28.4	15.7	0.00e+00	0	42	0	1157627904	15	4125
2026-01-12 11:42:28.77	296.54	27.31	-27.1	-28.1	15.9	0.00e+00	0	42	0	1167065088	15	4052
2026-01-12 11:42:31.80	297.37	27.06	-27.3	-28.6	15.6	0.00e+00	0	42	0	1176502272	15	4185
2026-01-12 11:42:34.81	298.19	26.81	-26.9	-27.9	16.0	0.00e+00	0	42	0	1185939456	15	3997
2026-01-12 11:42:37.82	298.99	26.55	-27.0	-28.0	15.9	0.00e+00	0	42	0	1195376640	15	4027
2026-01-12 11:42:40.83	299.78	26.29	-27.0	-27.9	16.0	0.00e+00	0	42	0	1204813824	15	3997
2026-01-12 11:42:43.84	300.55	26.03	-26.9	-27.8	16.0	0.00e+00	0	42	0	1213202432	15	3985
2026-01-12 11:42:46.86	301.32	25.77	-26.6	-27.5	16.4	0.00e+00	0	42	0	1223688192	14	4013
2026-01-12 11:42:49.88	302.07	25.50	-26.4	-27.2	16.6	0.00e+00	0	42	0	1233125376	14	3929
2026-01-12 11:42:52.89	302.81	25.23	-26.8	-28.1	16.1	0.00e+00	0	42	0	1241513984	14	4156
2026-01-12 11:42:55.89	303.53	24.96	-27.0	-28.4	16.0	0.00e+00	0	42	0	1250951168	14	4238
2026-01-12 11:42:58.89	304.25	24.68	-27.0	-28.6	15.8	0.00e+00	0	42	0	1260388352	14	4303
2026-01-12 11:43:01.90	304.95	24.41	-27.1	-28.8	15.8	0.00e+00	0	42	0	1269825536	14	4354
2026-01-12 11:43:04.91	305.64	24.13	-27.1	-28.6	15.8	0.00e+00	0	42	0	1279262720	14	4319
2026-01-12 11:43:07.92	306.32	23.85	-27.0	-28.5	15.8	0.00e+00	0	42	0	1288699904	14	4283
2026-01-12 11:43:10.93	306.98	23.57	-26.8	-28.1	16.1	0.00e+00	0	42	0	1298137088	14	4157
2026-01-12 11:43:13.94	307.64	23.29	-26.8	-28.1	16.1	0.00e+00	0	42	0	1307574272	14	4154
2026-01-12 11:43:16.96	308.28	23.01	-26.6	-27.6	16.4	0.00e+00	0	42	0	1317011456	14	4042
2026-01-12 11:43:19.98	308.92	22.73	-26.6	-27.6	16.3	0.00e+00	0	42	0	1326448640	14	4035
2026-01-12 11:43:22.98	309.53	22.45	-26.8	-28.0	16.1	0.00e+00	0	42	0	1335885824	14	4125
2026-01-12 11:43:26.00	310.15	22.17	-27.3	-29.2	15.5	0.00e+00	0	42	0	1345323008	14	4479
2026-01-12 11:43:29.01	310.75	21.88	-27.1	-28.8	15.6	0.00e+00	0	42	0	1354760192	14	4367
2026-01-12 11:43:32.00	311.33	21.60	-27.1	-28.7	15.8	0.00e+00	0	42	0	1364197376	14	4319
2026-01-12 11:43:35.01	311.91	21.32	-26.9	-28.2	16.0	0.00e+00	0	42	0	1373634560	14	4202
2026-01-12 11:43:38.03	312.48	21.04	-27.1	-28.7	15.7	0.00e+00	0	42	0	1383071744	14	4317
2026-01-12 11:43:41.05	313.04	20.76	-27.0	-28.5	15.8	7.00e-07	0	42	0	1392508928	14	4273
2026-01-12 11:43:44.05	313.59	20.48	-27.0	-28.5	15.8	0.00e+00	0	42	0	1401946112	14	4288
2026-01-12 11:43:47.07	314.13	20.20	-27.2	-28.9	15.6	0.00e+00	0	42	0	1411383296	14	4399
2026-01-12 11:43:50.08	314.66	19.92	-27.0	-28.4	15.8	0.00e+00	0	42	0	1420820480	14	4260
2026-01-12 11:43:53.10	315.18	19.64	-27.2	-29.0	15.5	0.00e+00	0	42	0	1430257664	14	4405
2026-01-12 11:43:56.12	315.69	19.36	-27.3	-29.3	15.3	0.00e+00	0	42	0	1439694848	14	4516
2026-01-12 11:43:59.13	316.19	19.09	-27.4	-29.5	15.2	0.00e+00	0	42	0	1449132032	14	4565
2026-01-12 11:44:02.15	316.69	18.81	-27.6	-29.4	15.0	0.00e+00	0	42	0	1458569216	15	4438
2026-01-12 11:44:05.17	317.17	18.54	-27.5	-29.1	15.1	0.00e+00	0	42	0	1468006400	15	4351
2026-01-12 11:44:08.17	317.65	18.26	-27.5	-29.3	15.0	0.00e+00	0	42	0	1477443584	15	4391
2026-01-12 11:44:11.18	318.12	17.99	-27.3	-28.6	15.4	0.00e+00	0	42	0	1486880768	15	4202
2026-01-12 11:44:14.19	318.57	17.72	-27.2	-28.4	15.5	0.00e+00	0	42	0	1496317952	15	4146
2026-01-12 11:44:17.21	319.03	17.45	-27.2	-28.5	15.5	0.00e+00	0	42	0	1505755136	15	4163
2026-01-12 11:44:20.23	319.47	17.18	-27.1	-28.2	15.6	0.00e+00	0	42	0	1515192320	15	4099
2026-01-12 11:44:23.25	319.91	16.92	-27.2	-28.5	15.4	0.00e+00	0	42	0	1524629504	15	4174
2026-01-12 11:44:26.25	320.34	16.65	-27.4	-29.0	15.1	0.00e+00	0	42	0	1534066688	15	4318
2026-01-12 11:44:29.26	320.76	16.39	-27.4	-28.9	15.2	0.00e+00	0	42	0	1543503872	15	4295
2026-01-12 11:44:32.27	321.18	16.13	-27.3	-28.6	15.3	0.00e+00	0	42	0	1552941056	15	4207
2026-01-12 11:44:35.29	321.59	15.86	-27.3	-28.6	15.3	0.00e+00	0	42	0	1562378240	15	4207
2026-01-12 11:44:38.30	321.99	15.60	-27.2	-28.5	15.3	0.00e+00	0	42	0	1571815424	15	4179
2026-01-12 11:44:41.31	322.38	15.35	-27.5	-29.2	15.0	0.00e+00	0	42	0	1581252608	15	4360
2026-01-12 11:44:44.34	322.77	15.09	-27.9	-30.2	14.4	0.00e+00	0	43	0	1590689792	15	4663
2026-01-12 11:44:47.36	323.16	14.83	-27.7	-29.7	14.6	7.00e-07	0	43	0	1600126976	15	4531
2026-01-12 11:44:50.37	323.53	14.58	-27.8	-29.8	14.6	0.00e+00	0	42	0	1609564160	15	4549
2026-01-12 11:44:53.39	323.90	14.33	-27.8	-29.8	14.5	0.00e+00	0	43	0	1619001344	15	4556
2026-01-12 11:44:56.41	324.27	14.08	-27.9	-30.1	14.4	2.20e-06	0	43	0	1628438528	15	4643
2026-01-12 11:44:59.43	324.62	13.83	-27.9	-29.6	14.5	0.00e+00	0	42	0	1637875712	16	4375
2026-01-12 11:45:02.45	324.98	13.58	-27.9	-29.7	14.5	0.00e+00	0	42	0	1647312896	16	4394
2026-01-12 11:45:05.46	325.32	13.33	-28.1	-30.1	14.1	2.20e-06	0	42	0	1656750080	16	4535
2026-01-12 11:45:08.48	325.67	13.09	-28.3	-30.5	13.9	1.50e-06	0	43	0	1666187264	16	4639
2026-01-12 11:45:11.50	326.00	12.84	-28.3	-30.6	13.9	4.50e-06	0	42	0	1675624448	16	4681
2026-01-12 11:45:14.51	326.33	12.60	-28.4	-30.4	13.7	1.06e-05	0	43	0	1685061632	17	4505
2026-01-12 11:45:17.53	326.66	12.36	-28.3	-30.1	13.9	4.50e-06	0	42	0	1694498816	17	4414
2026-01-12 11:45:20.55	326.98	12.12	-28.5	-30.5	13.6	9.10e-06	0	42	0	1703936000	17	4530
2026-01-12 11:45:23.57	327.30	11.89	-28.2	-29.9	13.9	2.20e-06	0	42	0	1713373184	17	4358
2026-01-12 11:45:26.59	327.61	11.65	-28.5	-30.4	13.6	6.80e-06	0	43	0	1722810368	17	4517
2026-01-12 11:45:29.61	327.91	11.42	-28.5	-30.6	13.5	8.30e-06	0	42	0	1732247552	17	4584
2026-01-12 11:45:32.63	328.22	11.19	-28.4	-30.2	13.7	6.80e-06	0	43	0	1741684736	17	4451
2026-01-12 11:45:35.64	328.51	10.96	-28.3	-30.1	13.7	1.44e-05	0	43	0	1750073344	17	4424
2026-01-12 11:45:38.66	328.80	10.73	-28.3	-30.1	13.8	3.00e-06	0	43	0	1760559104	17	4423
2026-01-12 11:45:41.67	329.09	10.50	-28.4	-30.2	13.6	6.10e-06	0	43	0	1769996288	17	4468
2026-01-12 11:45:44.69	329.38	10.27	-28.5	-30.6	13.4	8.30e-06	0	43	0	1778384896	17	4577
2026-01-12 11:45:47.71	329.66	10.05	-28.7	-31.1	13.1	3.05e-05	0	43	0	1788870656	17	4742
2026-01-12 11:45:50.74	329.94	9.82	-28.9	-31.5	12.8	5.95e-05	0	43	0	1797259264	17	4870
2026-01-12 11:45:53.75	330.21	9.60	-28.8	-30.8	12.9	3.35e-05	0	43	0	1806696448	18	4539
2026-01-12 11:45:56.78	330.48	9.38	-28.7	-30.6	13.0	4.65e-05	0	43	0	1817182208	18	4483
2026-01-12 11:45:59.79	330.74	9.16	-28.8	-30.8	12.9	4.42e-05	0	43	0	1825570816	18	4534
2026-01-12 11:46:02.79	331.00	8.95	-28.8	-30.8	12.9	4.88e-05	0	42	0	1835008000	18	4550
2026-01-12 11:46:05.82	331.26	8.73	-28.9	-31.0	12.7	6.56e-05	0	43	0	1844445184	18	4620
2026-01-12 11:46:08.83	331.51	8.52	-28.9	-31.1	12.7	7.32e-05	0	43	0	1853882368	18	4637
2026-01-12 11:46:11.84	331.76	8.30	-29.0	-31.4	12.4	1.22e-04	0	43	0	1863319552	18	4752
2026-01-12 11:46:14.86	332.01	8.09	-29.0	-31.4	12.4	1.36e-04	0	43	0	1872756736	18	4751
2026-01-12 11:46:17.87	332.25	7.88	-28.7	-30.6	12.9	1.14e-04	0	43	0	1882193920	18	4481
2026-01-12 11:46:20.89	332.49	7.67	-28.7	-30.7	12.8	5.56e-05	0	43	0	1891631104	18	4529
2026-01-12 11:46:23.91	332.73	7.46	-28.8	-31.0	12.6	1.03e-04	0	43	0	1901068288	18	4630
2026-01-12 11:46:26.92	332.96	7.26	-28.8	-31.0	12.6	1.04e-04	0	43	0	1910505472	18	4617
2026-01-12 11:46:29.94	333.19	7.05	-33.1	-44.5	3.8	1.49e+00	0	43	104	1918894080	26	13376

#Closed at: 2026-01-12 11:46:32
#Recorded file [1918 MB]: D:/data/31010_260112_143615.dat