passes_logs/2026/01/12/R2M6_AANII_01/R2M6_AANII_01__20260112_045629_FENGYUN_3E_rec.log

#Pass ID: 20260112_045629_FENGYUN 3E
#Satellite: FENGYUN 3E
#Configuration: FENGYUN 3E
#almurnet v.1.7.20240730
#Start time: 2026-01-12 05:00:40

#Version: 2.2.20231116
#Station: R2M6_AANII_01
#Location: 30.233357 lon 59.946436 lat
#TLE: 1 49008U 21062A   26011.27090272  .00000463  00000+0  23869-3 0  9994
#TLE: 2 49008  98.7490  16.4432 0001856 145.0812 215.0487 14.19886022234312

#Time	Az	El	Level	Level2	SNR	BER	BlckErr	Temp	State	Recorded	gain1	gain2
2026-01-12 05:00:40.50	4.12	41.84	-33.4	-45.0	3.8	8.46e-01	0	42	0	0	26	13600
2026-01-12 05:00:42.52	3.80	42.37	-33.9	-43.2	3.8	8.46e-01	0	42	104	0	28	10462
2026-01-12 05:00:44.53	3.46	42.90	-33.9	-43.3	3.8	8.45e-01	0	42	104	0	28	10573
2026-01-12 05:00:46.54	3.11	43.44	-33.9	-43.2	3.8	8.47e-01	0	42	104	0	28	10523
2026-01-12 05:00:48.55	2.75	43.99	-33.9	-43.2	3.8	8.46e-01	0	42	104	0	28	10504
2026-01-12 05:00:50.53	2.38	44.54	-33.9	-43.1	3.8	8.45e-01	0	42	104	0	28	10457
2026-01-12 05:00:52.53	1.99	45.09	-33.9	-43.1	3.8	8.45e-01	0	42	104	0	28	10457
2026-01-12 05:00:54.55	1.59	45.66	-33.9	-43.1	3.8	8.45e-01	0	42	104	0	28	10394
2026-01-12 05:00:56.57	1.17	46.24	-33.9	-43.2	3.8	8.46e-01	0	42	104	0	28	10529
2026-01-12 05:00:58.58	0.74	46.82	-33.9	-43.3	3.8	8.46e-01	0	42	104	0	28	10533
2026-01-12 05:01:00.60	0.29	47.41	-33.9	-43.3	3.8	8.46e-01	0	42	104	0	28	10528
2026-01-12 05:01:02.61	359.82	48.00	-33.9	-43.1	3.8	8.46e-01	0	42	104	0	28	10444
2026-01-12 05:01:04.62	359.33	48.60	-33.8	-43.1	3.8	8.46e-01	0	42	104	0	28	10398
2026-01-12 05:01:06.64	358.82	49.21	-33.9	-43.0	3.8	8.46e-01	0	42	104	0	28	10367
2026-01-12 05:01:08.65	358.30	49.82	-33.9	-43.1	3.8	8.47e-01	0	42	104	0	28	10456
2026-01-12 05:01:10.66	357.75	50.43	-33.9	-43.1	3.8	8.46e-01	0	42	104	0	28	10424
2026-01-12 05:01:12.67	357.18	51.05	-33.8	-42.9	3.8	8.46e-01	0	42	104	0	28	10294
2026-01-12 05:01:14.68	356.58	51.68	-33.8	-42.7	3.8	8.47e-01	0	42	104	0	28	10062
2026-01-12 05:01:16.67	355.97	52.31	-33.7	-42.1	3.8	8.47e-01	0	42	104	0	28	9422
2026-01-12 05:01:18.69	355.31	52.94	-33.7	-41.6	3.8	8.44e-01	0	42	104	0	28	8938
2026-01-12 05:01:20.69	354.64	53.58	-33.7	-41.9	3.8	8.46e-01	0	42	104	0	28	9236
2026-01-12 05:01:22.71	353.93	54.23	-33.6	-41.3	3.8	8.45e-01	0	42	104	0	28	8668
2026-01-12 05:01:24.73	353.18	54.88	-33.4	-40.1	3.9	8.42e-01	0	42	104	0	27	7738
2026-01-12 05:01:26.75	352.40	55.53	-33.3	-39.1	4.0	8.41e-01	0	42	104	0	27	7057
2026-01-12 05:01:28.77	351.58	56.19	-32.4	-36.2	5.9	3.68e-01	0	42	0	3145728	25	5615
2026-01-12 05:01:30.78	350.72	56.84	-33.3	-39.8	4.3	8.09e-01	0	42	0	11534336	26	7644
2026-01-12 05:01:32.79	349.83	57.50	-28.2	-28.9	13.0	7.11e-04	0	42	0	18874368	17	3891
2026-01-12 05:01:34.80	348.88	58.15	-26.0	-26.6	15.5	0.00e+00	0	42	0	33554432	12	3838
2026-01-12 05:01:36.81	347.89	58.81	-26.0	-26.5	15.5	0.00e+00	0	42	0	48234496	12	3831
2026-01-12 05:01:38.83	346.85	59.47	-26.1	-26.8	15.4	0.00e+00	0	41	0	62914560	12	3884
2026-01-12 05:01:40.84	345.75	60.12	-25.4	-25.7	16.3	0.00e+00	0	42	0	77594624	11	3719
2026-01-12 05:01:42.85	344.60	60.77	-25.1	-25.5	16.7	0.00e+00	0	42	0	92274688	10	3793
2026-01-12 05:01:44.87	343.38	61.42	-24.4	-24.1	17.5	0.00e+00	0	42	0	106954752	10	3480
2026-01-12 05:01:46.87	342.11	62.05	-23.4	-23.0	18.5	0.00e+00	0	42	0	120586240	8	3438
2026-01-12 05:01:48.87	340.77	62.68	-23.4	-23.6	18.4	0.00e+00	0	42	0	135266304	7	3669
2026-01-12 05:01:50.88	339.35	63.30	-23.5	-23.8	18.3	0.00e+00	0	42	0	149946368	7	3706
2026-01-12 05:01:52.89	337.86	63.92	-24.0	-24.7	17.8	0.00e+00	0	42	0	164626432	7	3916
2026-01-12 05:01:54.90	336.28	64.52	-23.5	-23.6	18.4	0.00e+00	0	42	0	179306496	7	3676
2026-01-12 05:01:56.90	334.63	65.11	-23.0	-22.7	18.8	0.00e+00	0	42	0	192937984	7	3469
2026-01-12 05:01:58.91	332.88	65.68	-22.9	-22.9	19.0	0.00e+00	0	41	0	207618048	6	3605
2026-01-12 05:02:00.92	331.04	66.23	-22.7	-22.6	19.1	0.00e+00	0	41	0	222298112	6	3558
2026-01-12 05:02:02.93	329.10	66.77	-22.9	-22.9	18.9	0.00e+00	0	41	0	236978176	6	3621
2026-01-12 05:02:04.94	327.06	67.28	-22.6	-22.4	19.2	0.00e+00	0	42	0	251658240	6	3502
2026-01-12 05:02:06.96	324.91	67.77	-22.5	-22.7	19.3	0.00e+00	0	41	0	265289728	5	3679
2026-01-12 05:02:08.97	322.67	68.24	-23.3	-23.7	18.6	0.00e+00	0	41	0	281018368	6	3790
2026-01-12 05:02:10.98	320.33	68.67	-22.8	-22.8	19.0	0.00e+00	0	41	0	294649856	6	3595
2026-01-12 05:02:12.99	317.89	69.06	-22.7	-22.5	19.1	0.00e+00	0	41	0	309329920	6	3526
2026-01-12 05:02:14.99	315.36	69.43	-23.5	-24.2	18.2	0.00e+00	0	41	0	324009984	6	3922
2026-01-12 05:02:16.98	312.75	69.75	-22.7	-22.7	19.1	0.00e+00	0	41	0	338690048	6	3565
2026-01-12 05:02:18.97	310.06	70.03	-22.5	-22.1	19.4	0.00e+00	0	42	0	352321536	6	3450
2026-01-12 05:02:20.96	307.29	70.27	-23.1	-23.5	18.6	0.00e+00	0	41	0	367001600	6	3749
2026-01-12 05:02:22.95	304.45	70.47	-23.0	-23.2	18.8	0.00e+00	0	41	0	381681664	6	3686
2026-01-12 05:02:24.94	301.56	70.62	-22.8	-22.7	19.0	0.00e+00	0	42	0	395313152	6	3574
2026-01-12 05:02:26.93	298.62	70.72	-22.7	-22.5	19.1	0.00e+00	0	42	0	409993216	6	3530
2026-01-12 05:02:28.91	295.68	70.78	-23.3	-23.8	18.5	0.00e+00	0	42	0	424673280	6	3824
2026-01-12 05:02:30.91	292.70	70.79	-23.2	-23.1	18.6	0.00e+00	0	42	0	438304768	7	3575
2026-01-12 05:02:32.90	289.73	70.75	-23.4	-24.1	18.3	0.00e+00	0	42	0	452984832	6	3880
2026-01-12 05:02:34.89	286.79	70.66	-23.9	-24.6	17.9	0.00e+00	0	42	0	467664896	7	3893
2026-01-12 05:02:36.88	283.88	70.52	-22.9	-22.5	18.9	0.00e+00	0	42	0	482344960	7	3431
2026-01-12 05:02:38.88	281.01	70.34	-23.4	-23.9	18.4	0.00e+00	0	42	0	495976448	6	3851
2026-01-12 05:02:40.89	278.19	70.11	-23.2	-23.5	18.6	0.00e+00	0	42	0	510656512	6	3751
2026-01-12 05:02:42.90	275.45	69.83	-23.1	-23.3	18.7	0.00e+00	0	42	0	525336576	6	3717
2026-01-12 05:02:44.91	272.78	69.52	-22.9	-23.0	18.9	0.00e+00	0	42	0	540016640	6	3636
2026-01-12 05:02:46.92	270.22	69.16	-22.9	-23.0	18.9	0.00e+00	0	42	0	554696704	6	3634
2026-01-12 05:02:48.94	267.73	68.77	-22.6	-22.3	19.2	0.00e+00	0	42	0	569376768	6	3481
2026-01-12 05:02:50.95	265.36	68.35	-22.6	-22.8	19.0	0.00e+00	0	42	0	583008256	5	3705
2026-01-12 05:02:52.97	263.08	67.89	-23.1	-23.5	18.5	0.00e+00	0	42	0	597688320	6	3749
2026-01-12 05:02:54.98	260.91	67.41	-22.5	-22.2	19.2	0.00e+00	0	42	0	612368384	6	3468
2026-01-12 05:02:57.00	258.84	66.90	-22.7	-22.6	19.1	0.00e+00	0	42	0	627048448	6	3542
2026-01-12 05:02:59.01	256.87	66.37	-22.9	-23.0	18.8	0.00e+00	0	42	0	641728512	6	3646
2026-01-12 05:03:01.03	254.99	65.81	-23.0	-23.2	18.7	0.00e+00	0	42	0	656408576	6	3675
2026-01-12 05:03:03.04	253.22	65.24	-22.6	-22.4	19.2	0.00e+00	0	42	0	671088640	6	3506
2026-01-12 05:03:05.05	251.53	64.66	-23.1	-23.4	18.6	0.00e+00	0	42	0	684720128	6	3722
2026-01-12 05:03:07.06	249.93	64.06	-23.2	-23.6	18.4	0.00e+00	0	42	0	700448768	6	3775
2026-01-12 05:03:09.08	248.41	63.44	-23.3	-23.7	18.5	0.00e+00	0	42	0	714080256	6	3803
2026-01-12 05:03:11.09	246.97	62.82	-23.0	-23.2	18.7	0.00e+00	0	42	0	728760320	6	3678
2026-01-12 05:03:13.10	245.60	62.19	-23.2	-23.7	18.5	0.00e+00	0	42	0	743440384	6	3782
2026-01-12 05:03:15.12	244.30	61.54	-23.8	-24.4	17.8	0.00e+00	0	42	0	758120448	7	3855
2026-01-12 05:03:17.13	243.07	60.90	-23.5	-23.7	18.2	0.00e+00	0	42	0	772800512	7	3692
2026-01-12 05:03:19.15	241.90	60.25	-24.0	-24.8	17.6	0.00e+00	0	42	0	786432000	7	3944
2026-01-12 05:03:21.16	240.79	59.59	-24.6	-25.2	16.9	0.00e+00	0	42	0	801112064	9	3828
2026-01-12 05:03:23.18	239.73	58.93	-24.5	-24.8	17.1	0.00e+00	0	42	0	815792128	9	3737
2026-01-12 05:03:25.19	238.73	58.28	-24.6	-25.1	16.9	0.00e+00	0	42	0	830472192	9	3811
2026-01-12 05:03:27.20	237.77	57.62	-24.6	-25.0	17.0	0.00e+00	0	42	0	845152256	9	3785
2026-01-12 05:03:29.21	236.87	56.96	-24.5	-24.7	17.1	0.00e+00	0	42	0	859832320	9	3725
2026-01-12 05:03:31.23	236.00	56.30	-23.9	-24.2	17.7	0.00e+00	0	42	0	874512384	8	3693
2026-01-12 05:03:33.24	235.17	55.64	-24.3	-24.9	17.3	0.00e+00	0	42	0	889192448	8	3850
2026-01-12 05:03:35.25	234.38	54.99	-24.1	-24.4	17.5	0.00e+00	0	42	0	902823936	8	3753
2026-01-12 05:03:37.26	233.63	54.34	-23.8	-23.9	17.8	0.00e+00	0	42	0	917504000	8	3633
2026-01-12 05:03:39.27	232.91	53.70	-24.2	-24.7	17.4	0.00e+00	0	42	0	932184064	8	3827
2026-01-12 05:03:41.28	232.22	53.05	-24.5	-24.9	17.0	0.00e+00	0	42	0	946864128	9	3771
2026-01-12 05:03:43.28	231.57	52.42	-24.2	-24.1	17.4	0.00e+00	0	42	0	961544192	9	3593
2026-01-12 05:03:45.30	230.94	51.78	-24.2	-24.2	17.3	0.00e+00	0	42	0	976224256	9	3596
2026-01-12 05:03:47.31	230.34	51.15	-24.6	-25.0	16.9	0.00e+00	0	42	0	990904320	9	3790
2026-01-12 05:03:49.33	229.75	50.52	-24.5	-24.9	16.9	0.00e+00	0	42	0	1004535808	9	3775
2026-01-12 05:03:51.34	229.20	49.90	-23.8	-23.8	17.8	0.00e+00	0	42	0	1019215872	8	3608
2026-01-12 05:03:53.36	228.67	49.29	-23.6	-23.5	18.0	0.00e+00	0	42	0	1033895936	8	3552
2026-01-12 05:03:55.37	228.15	48.68	-24.1	-24.6	17.4	0.00e+00	0	42	0	1048576000	8	3798
2026-01-12 05:03:57.38	227.66	48.08	-24.0	-24.4	17.3	0.00e+00	0	42	0	1063256064	8	3758
2026-01-12 05:03:59.40	227.19	47.48	-24.0	-24.3	17.5	0.00e+00	0	42	0	1077936128	8	3721
2026-01-12 05:04:01.40	226.74	46.89	-23.7	-23.7	17.9	0.00e+00	0	42	0	1091567616	8	3586
2026-01-12 05:04:03.42	226.30	46.30	-23.6	-24.0	17.9	0.00e+00	0	42	0	1106247680	7	3758
2026-01-12 05:04:05.42	225.88	45.73	-23.8	-24.3	17.7	0.00e+00	0	42	0	1120927744	7	3836
2026-01-12 05:04:07.44	225.47	45.16	-23.6	-24.0	17.9	0.00e+00	0	42	0	1135607808	7	3764
2026-01-12 05:04:09.46	225.08	44.59	-23.3	-23.4	18.2	0.00e+00	0	42	0	1150287872	7	3619
2026-01-12 05:04:11.46	224.70	44.04	-23.2	-23.0	18.4	0.00e+00	0	42	0	1164967936	7	3549
2026-01-12 05:04:13.48	224.33	43.48	-23.2	-23.1	18.2	0.00e+00	0	42	0	1179648000	7	3566
2026-01-12 05:04:15.48	223.98	42.94	-23.7	-24.2	17.8	0.00e+00	0	42	0	1193279488	7	3817
2026-01-12 05:04:17.49	223.64	42.40	-24.0	-24.8	17.5	0.00e+00	0	42	0	1207959552	7	3950
2026-01-12 05:04:19.50	223.31	41.87	-23.7	-23.7	17.8	0.00e+00	0	42	0	1222639616	8	3598
2026-01-12 05:04:21.52	222.99	41.34	-23.7	-23.7	17.8	0.00e+00	0	42	0	1237319680	8	3594
2026-01-12 05:04:23.53	222.68	40.82	-23.9	-24.1	17.5	0.00e+00	0	42	0	1251999744	8	3695
2026-01-12 05:04:25.55	222.38	40.31	-23.3	-23.4	18.1	0.00e+00	0	42	0	1266679808	7	3623
2026-01-12 05:04:27.55	222.10	39.81	-23.4	-23.4	18.1	0.00e+00	0	42	0	1280311296	7	3638
2026-01-12 05:04:29.57	221.82	39.30	-23.2	-23.1	18.3	0.00e+00	0	42	0	1294991360	7	3569
2026-01-12 05:04:31.58	221.54	38.81	-23.1	-23.0	18.4	0.00e+00	0	42	0	1309671424	7	3535
2026-01-12 05:04:33.60	221.28	38.32	-23.1	-23.0	18.4	0.00e+00	0	42	0	1324351488	7	3533
2026-01-12 05:04:35.62	221.02	37.84	-23.0	-22.7	18.5	0.00e+00	0	42	0	1339031552	7	3476
2026-01-12 05:04:37.63	220.78	37.37	-23.1	-22.9	18.4	0.00e+00	0	42	0	1353711616	7	3517
2026-01-12 05:04:39.63	220.54	36.90	-22.9	-23.1	18.6	0.00e+00	0	42	0	1368391680	6	3662
2026-01-12 05:04:41.63	220.30	36.44	-22.6	-22.4	18.9	0.00e+00	0	42	0	1382023168	6	3513
2026-01-12 05:04:43.65	220.08	35.98	-22.5	-22.7	18.8	0.00e+00	0	42	0	1396703232	5	3675
2026-01-12 05:04:45.65	219.86	35.53	-22.2	-22.1	19.2	0.00e+00	0	42	0	1411383296	5	3554
2026-01-12 05:04:47.67	219.64	35.09	-22.3	-22.4	19.0	0.00e+00	0	42	0	1426063360	5	3611
2026-01-12 05:04:49.67	219.43	34.65	-22.6	-22.9	18.9	0.00e+00	0	42	0	1440743424	5	3726
2026-01-12 05:04:51.69	219.23	34.22	-22.7	-23.1	18.8	0.00e+00	0	42	0	1455423488	5	3761
2026-01-12 05:04:53.69	219.03	33.79	-23.0	-23.7	18.4	0.00e+00	0	42	0	1469054976	5	3909
2026-01-12 05:04:55.70	218.84	33.37	-22.9	-23.1	18.5	0.00e+00	0	42	0	1483735040	6	3658
2026-01-12 05:04:57.72	218.65	32.95	-22.9	-23.1	18.5	0.00e+00	0	42	0	1498415104	6	3660
2026-01-12 05:04:59.73	218.47	32.54	-23.2	-23.6	18.2	1.10e-06	0	42	0	1513095168	6	3775
2026-01-12 05:05:01.75	218.29	32.13	-22.6	-22.5	18.8	0.00e+00	0	42	0	1527775232	6	3529
2026-01-12 05:05:03.76	218.12	31.73	-22.7	-22.6	18.8	0.00e+00	0	42	0	1542455296	6	3553
2026-01-12 05:05:05.76	217.95	31.33	-22.7	-22.6	18.7	0.00e+00	0	42	0	1556086784	6	3558
2026-01-12 05:05:07.76	217.79	30.95	-22.8	-22.9	18.6	0.00e+00	0	42	0	1570766848	6	3619
2026-01-12 05:05:09.77	217.63	30.56	-22.5	-22.3	18.9	0.00e+00	0	42	0	1585446912	6	3484
2026-01-12 05:05:11.78	217.47	30.18	-22.6	-22.4	18.8	0.00e+00	0	42	0	1600126976	6	3522
2026-01-12 05:05:13.79	217.32	29.80	-22.7	-22.5	18.7	0.00e+00	0	42	0	1614807040	6	3539
2026-01-12 05:05:15.80	217.17	29.43	-22.6	-22.3	18.8	0.00e+00	0	42	0	1629487104	6	3503
2026-01-12 05:05:17.82	217.02	29.06	-22.6	-22.3	18.8	0.00e+00	0	42	0	1644167168	6	3499
2026-01-12 05:05:19.83	216.88	28.70	-22.7	-22.7	18.6	0.00e+00	0	42	0	1657798656	6	3573
2026-01-12 05:05:21.84	216.74	28.34	-22.8	-22.8	18.6	0.00e+00	0	42	0	1672478720	6	3593
2026-01-12 05:05:23.85	216.60	27.99	-22.6	-22.5	18.7	0.00e+00	0	42	0	1687158784	6	3530
2026-01-12 05:05:25.86	216.47	27.64	-22.8	-22.7	18.6	0.00e+00	0	42	0	1701838848	6	3583
2026-01-12 05:05:27.87	216.34	27.29	-22.9	-23.1	18.4	0.00e+00	0	42	0	1716518912	6	3662
2026-01-12 05:05:29.88	216.21	26.95	-23.0	-23.1	18.4	0.00e+00	0	42	0	1731198976	6	3679
2026-01-12 05:05:31.89	216.09	26.61	-23.0	-23.3	18.3	0.00e+00	0	42	0	1744830464	6	3714
2026-01-12 05:05:33.91	215.97	26.28	-23.3	-23.9	18.0	0.00e+00	0	42	0	1759510528	6	3840
2026-01-12 05:05:35.92	215.85	25.95	-23.3	-23.9	18.0	0.00e+00	0	42	0	1774190592	6	3846
2026-01-12 05:05:37.94	215.73	25.62	-23.5	-24.2	17.8	0.00e+00	0	42	0	1788870656	6	3915
2026-01-12 05:05:39.96	215.62	25.30	-23.4	-24.1	17.9	0.00e+00	0	42	0	1803550720	6	3898
2026-01-12 05:05:41.98	215.51	24.98	-22.9	-22.9	18.4	0.00e+00	0	42	0	1818230784	6	3631
2026-01-12 05:05:43.99	215.40	24.67	-22.9	-22.9	18.5	0.00e+00	0	42	0	1832910848	6	3625
2026-01-12 05:05:46.00	215.29	24.36	-22.8	-22.8	18.5	0.00e+00	0	42	0	1846542336	6	3609
2026-01-12 05:05:48.02	215.18	24.05	-22.9	-23.0	18.4	0.00e+00	0	42	0	1862270976	6	3641
2026-01-12 05:05:50.03	215.08	23.74	-22.8	-22.9	18.5	0.00e+00	0	42	0	1875902464	6	3623
2026-01-12 05:05:52.04	214.98	23.44	-22.9	-23.1	18.4	0.00e+00	0	42	0	1890582528	6	3662
2026-01-12 05:05:54.06	214.88	23.14	-22.9	-23.1	18.4	0.00e+00	0	42	0	1905262592	6	3659
2026-01-12 05:05:56.07	214.79	22.85	-23.0	-23.3	18.2	0.00e+00	0	42	0	1919942656	6	3713
2026-01-12 05:05:58.07	214.69	22.56	-23.0	-23.1	18.3	0.00e+00	0	42	0	1934622720	6	3677
2026-01-12 05:06:00.09	214.60	22.27	-23.0	-23.2	18.2	0.00e+00	0	42	0	1949302784	6	3700
2026-01-12 05:06:02.10	214.51	21.99	-23.3	-23.8	17.9	0.00e+00	0	42	0	1962934272	6	3832
2026-01-12 05:06:04.12	214.42	21.71	-23.0	-23.2	18.2	0.00e+00	0	42	0	1977614336	6	3686
2026-01-12 05:06:06.13	214.33	21.43	-23.1	-23.5	18.1	0.00e+00	0	42	0	1992294400	6	3751
2026-01-12 05:06:08.15	214.24	21.15	-23.2	-23.7	17.9	0.00e+00	0	42	0	2006974464	6	3812
2026-01-12 05:06:10.17	214.16	20.88	-23.3	-24.0	17.8	0.00e+00	0	42	0	2021654528	6	3869
2026-01-12 05:06:12.18	214.08	20.61	-23.5	-24.3	17.6	0.00e+00	0	42	0	2036334592	6	3943
2026-01-12 05:06:14.18	214.00	20.35	-23.4	-24.0	17.8	0.00e+00	0	42	0	2051014656	6	3886
2026-01-12 05:06:16.19	213.92	20.08	-23.5	-24.4	17.6	0.00e+00	0	42	0	2064646144	6	3970
2026-01-12 05:06:18.19	213.84	19.82	-23.7	-24.1	17.4	0.00e+00	0	42	0	2079326208	7	3801
2026-01-12 05:06:20.21	213.76	19.56	-24.2	-24.7	16.9	0.00e+00	0	42	0	2094006272	8	3832
2026-01-12 05:06:22.22	213.69	19.31	-24.6	-25.2	16.4	0.00e+00	0	42	0	2108686336	9	3836
2026-01-12 05:06:24.23	213.61	19.05	-24.2	-24.3	16.8	0.00e+00	0	42	0	2123366400	9	3641
2026-01-12 05:06:26.24	213.54	18.80	-24.2	-24.2	16.9	0.00e+00	0	42	0	2138046464	9	3617
2026-01-12 05:06:28.25	213.47	18.56	-24.2	-24.3	16.8	0.00e+00	0	42	0	2151677952	9	3637
2026-01-12 05:06:30.27	213.40	18.31	-24.3	-24.5	16.7	0.00e+00	0	42	0	2166358016	9	3678
2026-01-12 05:06:32.29	213.33	18.06	-24.3	-24.5	16.7	0.00e+00	0	42	0	2181038080	9	3694
2026-01-12 05:06:34.30	213.26	17.82	-24.2	-24.4	16.7	0.00e+00	0	42	0	2195718144	9	3661
2026-01-12 05:06:36.31	213.19	17.59	-24.2	-24.3	16.8	0.00e+00	0	42	0	2210398208	9	3636
2026-01-12 05:06:38.33	213.13	17.35	-24.3	-24.4	16.7	0.00e+00	0	42	0	2225078272	9	3669
2026-01-12 05:06:40.35	213.06	17.11	-24.6	-25.1	16.4	0.00e+00	0	42	0	2239758336	9	3821
2026-01-12 05:06:42.36	213.00	16.88	-24.4	-24.7	16.5	0.00e+00	0	42	0	2254438400	9	3731
2026-01-12 05:06:44.37	212.94	16.65	-24.5	-24.9	16.4	0.00e+00	0	42	0	2268069888	9	3770
2026-01-12 05:06:46.38	212.88	16.42	-24.6	-25.1	16.3	0.00e+00	0	42	0	2282749952	9	3832
2026-01-12 05:06:48.40	212.82	16.20	-24.2	-24.3	16.7	0.00e+00	0	42	0	2297430016	9	3638
2026-01-12 05:06:50.41	212.76	15.97	-24.3	-24.5	16.6	0.00e+00	0	42	0	2312110080	9	3680
2026-01-12 05:06:52.42	212.70	15.75	-24.3	-24.6	16.6	0.00e+00	0	42	0	2326790144	9	3707
2026-01-12 05:06:54.44	212.64	15.53	-24.3	-24.6	16.5	0.00e+00	0	42	0	2341470208	9	3708
2026-01-12 05:06:56.44	212.58	15.31	-24.4	-24.8	16.5	0.00e+00	0	42	0	2355101696	9	3741
2026-01-12 05:06:58.45	212.53	15.10	-24.5	-25.0	16.3	0.00e+00	0	42	0	2369781760	9	3790
2026-01-12 05:07:00.47	212.47	14.88	-24.7	-25.3	16.1	0.00e+00	0	42	0	2384461824	9	3866
2026-01-12 05:07:02.48	212.42	14.67	-25.0	-25.4	15.8	0.00e+00	0	42	0	2399141888	10	3800
2026-01-12 05:07:04.50	212.37	14.46	-24.8	-25.2	15.9	0.00e+00	0	42	0	2413821952	10	3744
2026-01-12 05:07:06.52	212.31	14.25	-24.9	-25.4	15.8	0.00e+00	0	42	0	2428502016	10	3790
2026-01-12 05:07:08.54	212.26	14.04	-25.1	-25.6	15.6	0.00e+00	0	42	0	2443182080	10	3846
2026-01-12 05:07:10.55	212.21	13.84	-25.0	-25.5	15.7	0.00e+00	0	42	0	2456813568	10	3811
2026-01-12 05:07:12.58	212.16	13.63	-25.1	-25.7	15.6	0.00e+00	0	42	0	2472542208	10	3877
2026-01-12 05:07:14.58	212.11	13.43	-25.1	-25.8	15.5	0.00e+00	0	42	0	2486173696	10	3897
2026-01-12 05:07:16.60	212.06	13.23	-25.2	-25.9	15.4	0.00e+00	0	42	0	2500853760	10	3917
2026-01-12 05:07:18.61	212.02	13.03	-25.2	-26.0	15.4	0.00e+00	0	42	0	2515533824	10	3948
2026-01-12 05:07:20.62	211.97	12.83	-25.4	-26.4	15.2	0.00e+00	0	42	0	2530213888	10	4032
2026-01-12 05:07:22.63	211.92	12.64	-25.3	-26.3	15.2	0.00e+00	0	42	0	2544893952	10	4008
2026-01-12 05:07:24.64	211.88	12.45	-25.5	-26.7	15.0	0.00e+00	0	42	0	2559574016	10	4119
2026-01-12 05:07:26.66	211.83	12.25	-25.8	-26.8	14.5	0.00e+00	0	42	0	2573205504	11	4044
2026-01-12 05:07:28.67	211.79	12.06	-25.7	-26.6	14.7	0.00e+00	0	42	0	2587885568	11	3990
2026-01-12 05:07:30.69	211.74	11.87	-25.7	-26.6	14.7	0.00e+00	0	42	0	2602565632	11	3976
2026-01-12 05:07:32.70	211.70	11.68	-25.5	-26.2	14.9	1.10e-06	0	43	0	2617245696	11	3881
2026-01-12 05:07:34.71	211.66	11.50	-25.5	-26.1	15.0	0.00e+00	0	42	0	2631925760	11	3865
2026-01-12 05:07:36.72	211.62	11.31	-25.5	-26.2	14.9	0.00e+00	0	42	0	2646605824	11	3896
2026-01-12 05:07:38.74	211.58	11.13	-25.5	-26.2	14.9	0.00e+00	0	42	0	2661285888	11	3890
2026-01-12 05:07:40.75	211.54	10.95	-25.6	-26.4	14.8	1.10e-06	0	42	0	2674917376	11	3935
2026-01-12 05:07:42.76	211.50	10.77	-25.9	-27.0	14.4	0.00e+00	0	43	0	2689597440	11	4084
2026-01-12 05:07:44.76	211.46	10.59	-25.8	-26.7	14.5	0.00e+00	0	42	0	2704277504	11	4025
2026-01-12 05:07:46.78	211.42	10.41	-25.9	-27.0	14.4	0.00e+00	0	42	0	2718957568	11	4107
2026-01-12 05:07:48.79	211.38	10.23	-25.8	-26.8	14.5	0.00e+00	0	42	0	2733637632	11	4051
2026-01-12 05:07:50.81	211.34	10.05	-26.1	-26.9	14.0	3.40e-06	0	42	0	2748317696	12	3972
2026-01-12 05:07:52.82	211.30	9.88	-26.2	-27.3	13.8	4.50e-06	0	42	0	2762997760	12	4080
2026-01-12 05:07:54.83	211.27	9.71	-25.8	-26.3	14.4	3.40e-06	0	43	0	2776629248	12	3829
2026-01-12 05:07:56.84	211.23	9.53	-25.8	-26.3	14.4	1.10e-06	0	42	0	2791309312	12	3819
2026-01-12 05:07:58.86	211.19	9.36	-25.9	-26.5	14.3	1.10e-06	0	43	0	2805989376	12	3861
2026-01-12 05:08:00.87	211.16	9.19	-25.9	-26.5	14.2	3.40e-06	0	42	0	2820669440	12	3867
2026-01-12 05:08:02.88	211.12	9.02	-25.9	-26.5	14.2	0.00e+00	0	42	0	2835349504	12	3880
2026-01-12 05:08:04.89	211.09	8.86	-26.1	-27.0	13.9	1.10e-06	0	43	0	2850029568	12	3988
2026-01-12 05:08:06.90	211.06	8.69	-26.2	-27.3	13.7	4.50e-06	0	42	0	2863661056	12	4067
2026-01-12 05:08:08.92	211.02	8.52	-26.1	-27.0	13.9	3.40e-06	0	42	0	2879389696	12	4008
2026-01-12 05:08:10.93	210.99	8.36	-26.2	-27.2	13.8	3.40e-06	0	43	0	2893021184	12	4051
2026-01-12 05:08:12.95	210.96	8.19	-26.3	-27.4	13.6	1.14e-05	0	43	0	2907701248	12	4116
2026-01-12 05:08:14.96	210.92	8.03	-26.6	-28.1	13.2	1.48e-05	0	42	0	2922381312	12	4298
2026-01-12 05:08:16.96	210.89	7.87	-26.2	-26.8	13.6	6.80e-06	0	43	0	2937061376	13	3862
2026-01-12 05:08:18.97	210.86	7.71	-26.3	-27.0	13.5	3.40e-06	0	42	0	2951741440	13	3897
2026-01-12 05:08:20.98	210.83	7.55	-26.5	-27.5	13.2	1.71e-05	0	42	0	2965372928	13	4031
2026-01-12 05:08:23.00	210.80	7.39	-26.8	-28.2	12.7	4.92e-05	0	42	0	2980052992	13	4219
2026-01-12 05:08:25.01	210.77	7.24	-26.7	-27.9	12.9	5.95e-05	0	42	0	2994733056	13	4144
2026-01-12 05:08:27.02	210.74	7.08	-26.7	-27.9	12.8	7.89e-05	0	43	0	3009413120	13	4150
2026-01-12 05:08:29.02	210.71	6.93	-33.0	-42.8	3.8	8.47e-01	0	42	104	3012558848	25	11195

#Closed at: 2026-01-12 05:08:30
#Recorded file [3012 MB]: D:/data/31010_260112_080128.dat