passes_logs/2026/01/12/R2M6_AANII_01/R2M6_AANII_01__20260112_013049_FENGYUN_3D_rec.log

#Pass ID: 20260112_013049_FENGYUN 3D
#Satellite: FENGYUN 3D
#Configuration: FENGYUN 3D
#almurnet v.1.7.20240730
#Start time: 2026-01-12 01:30:49

#Version: 2.2.20231116
#Station: R2M6_AANII_01
#Location: 30.233357 lon 59.946436 lat
#TLE: 1 43010U 17072A   26011.26828046  .00000354  00000+0  18908-3 0  9991
#TLE: 2 43010  98.9936 343.0270 0002205 114.1788 245.9618 14.19695184422722

#Time	Az	El	Level	Level2	SNR	BER	BlckErr	Temp	State	Recorded	gain1	gain2
2026-01-12 01:30:49.93	24.24	7.04	-28.9	-32.0	5.5	7.81e-01	0	39	0	0	17	5187
2026-01-12 01:30:52.93	24.41	7.26	-30.0	-34.1	8.6	3.19e-02	0	40	0	5242880	19	5779
2026-01-12 01:30:55.95	24.57	7.48	-29.2	-32.0	10.1	7.84e-03	0	40	0	22020096	19	4916
2026-01-12 01:30:58.97	24.75	7.70	-29.2	-32.2	10.3	2.65e-03	0	40	0	38797312	18	5114
2026-01-12 01:31:01.98	24.92	7.93	-28.6	-30.6	11.4	9.93e-04	0	40	0	56623104	18	4559
2026-01-12 01:31:05.00	25.09	8.16	-27.1	-28.7	13.2	3.77e-05	0	40	0	73400320	15	4298
2026-01-12 01:31:08.02	25.27	8.38	-27.6	-29.8	12.6	3.66e-05	0	40	0	90177536	15	4637
2026-01-12 01:31:11.04	25.46	8.61	-27.2	-29.4	13.2	1.25e-05	0	40	0	106954752	14	4628
2026-01-12 01:31:14.06	25.64	8.85	-27.6	-29.9	12.6	3.43e-05	0	40	0	123731968	15	4663
2026-01-12 01:31:17.07	25.83	9.08	-26.8	-28.3	13.8	3.40e-06	0	40	0	140509184	14	4301
2026-01-12 01:31:20.09	26.01	9.32	-26.2	-27.4	14.6	1.10e-06	0	40	0	158334976	13	4168
2026-01-12 01:31:23.12	26.21	9.55	-25.7	-27.0	15.2	0.00e+00	0	41	0	175112192	12	4147
2026-01-12 01:31:26.14	26.40	9.79	-25.7	-27.0	15.2	0.00e+00	0	40	0	191889408	12	4149
2026-01-12 01:31:29.15	26.60	10.04	-25.8	-27.0	15.2	0.00e+00	0	40	0	208666624	12	4148
2026-01-12 01:31:32.17	26.80	10.28	-25.8	-27.2	15.1	0.00e+00	0	40	0	226492416	12	4201
2026-01-12 01:31:35.19	27.01	10.53	-25.9	-27.4	15.0	0.00e+00	0	41	0	243269632	12	4263
2026-01-12 01:31:38.21	27.22	10.78	-25.6	-26.7	15.5	0.00e+00	0	41	0	260046848	12	4077
2026-01-12 01:31:41.22	27.43	11.03	-25.6	-26.7	15.5	0.00e+00	0	41	0	276824064	12	4071
2026-01-12 01:31:44.24	27.64	11.28	-25.5	-26.5	15.6	0.00e+00	0	41	0	293601280	12	4011
2026-01-12 01:31:47.25	27.86	11.53	-25.5	-26.4	15.7	0.00e+00	0	41	0	310378496	12	3995
2026-01-12 01:31:50.27	28.08	11.79	-25.5	-26.4	15.6	0.00e+00	0	41	0	328204288	12	4008
2026-01-12 01:31:53.30	28.31	12.05	-25.4	-26.1	15.8	0.00e+00	0	41	0	344981504	12	3925
2026-01-12 01:31:56.32	28.54	12.32	-25.4	-26.3	15.8	0.00e+00	0	41	0	361758720	12	3956
2026-01-12 01:31:59.34	28.77	12.58	-25.3	-26.4	16.0	0.00e+00	0	41	0	378535936	11	4111
2026-01-12 01:32:02.37	29.01	12.85	-25.5	-26.8	15.8	0.00e+00	0	41	0	395313152	11	4211
2026-01-12 01:32:05.39	29.25	13.12	-25.3	-27.1	16.0	0.00e+00	0	41	0	413138944	10	4379
2026-01-12 01:32:08.40	29.49	13.39	-25.5	-27.0	15.8	0.00e+00	0	41	0	429916160	11	4253
2026-01-12 01:32:11.42	29.74	13.67	-25.2	-26.2	16.2	0.00e+00	0	41	0	446693376	11	4043
2026-01-12 01:32:14.44	30.00	13.95	-25.2	-26.7	16.3	0.00e+00	0	41	0	463470592	10	4274
2026-01-12 01:32:17.45	30.26	14.23	-25.2	-26.7	16.2	0.00e+00	0	41	0	480247808	10	4280
2026-01-12 01:32:20.47	30.52	14.51	-25.5	-27.3	15.9	0.00e+00	0	41	0	498073600	10	4449
2026-01-12 01:32:23.49	30.79	14.80	-25.7	-27.4	15.6	0.00e+00	0	41	0	514850816	11	4370
2026-01-12 01:32:26.52	31.06	15.09	-25.3	-26.5	16.1	0.00e+00	0	42	0	531628032	11	4125
2026-01-12 01:32:29.53	31.34	15.38	-25.5	-27.0	15.9	0.00e+00	0	41	0	548405248	11	4239
2026-01-12 01:32:32.55	31.63	15.67	-24.9	-25.5	16.7	0.00e+00	0	41	0	565182464	11	3867
2026-01-12 01:32:35.56	31.91	15.97	-24.7	-25.6	16.9	0.00e+00	0	41	0	583008256	10	3990
2026-01-12 01:32:38.58	32.21	16.27	-24.5	-25.7	17.1	0.00e+00	0	41	0	599785472	9	4124
2026-01-12 01:32:41.60	32.51	16.58	-24.5	-25.6	17.1	0.00e+00	0	41	0	616562688	9	4113
2026-01-12 01:32:44.63	32.82	16.88	-24.4	-25.5	17.2	2.29e-04	0	41	0	633339904	9	4076
2026-01-12 01:32:47.64	33.13	17.19	-24.0	-24.7	17.7	0.00e+00	0	41	0	650117120	9	3874
2026-01-12 01:32:50.65	33.45	17.51	-23.9	-24.5	17.8	0.00e+00	0	42	0	667942912	9	3826
2026-01-12 01:32:53.67	33.77	17.82	-23.8	-24.6	18.0	0.00e+00	0	41	0	684720128	8	3971
2026-01-12 01:32:56.69	34.10	18.14	-23.7	-25.0	18.0	4.27e-04	0	41	0	701497344	7	4186
2026-01-12 01:32:59.71	34.44	18.47	-23.9	-24.9	17.9	6.19e-04	0	41	0	718274560	8	4032
2026-01-12 01:33:02.73	34.79	18.79	-24.0	-25.2	17.7	0.00e+00	0	41	0	735051776	8	4114
2026-01-12 01:33:05.74	35.14	19.12	-24.1	-25.4	17.6	7.84e-04	0	42	0	752877568	8	4171
2026-01-12 01:33:08.75	35.50	19.46	-23.9	-25.4	17.9	4.39e-04	0	41	0	769654784	7	4271
2026-01-12 01:33:11.76	35.87	19.79	-23.7	-24.9	18.1	0.00e+00	0	42	0	786432000	7	4159
2026-01-12 01:33:14.78	36.24	20.13	-23.5	-24.6	18.3	0.00e+00	0	42	0	803209216	7	4076
2026-01-12 01:33:17.80	36.63	20.48	-23.3	-24.2	18.5	4.37e-04	0	42	0	819986432	7	3975
2026-01-12 01:33:20.82	37.02	20.83	-23.1	-24.1	18.8	0.00e+00	0	42	0	836763648	6	4073
2026-01-12 01:33:23.84	37.42	21.18	-23.3	-24.6	18.5	0.00e+00	0	42	0	854589440	6	4185
2026-01-12 01:33:26.85	37.83	21.53	-23.7	-25.1	18.1	0.00e+00	0	42	0	871366656	7	4189
2026-01-12 01:33:29.88	38.25	21.89	-23.5	-24.6	18.3	0.00e+00	0	42	0	888143872	7	4081
2026-01-12 01:33:32.89	38.68	22.25	-23.5	-24.5	18.4	0.00e+00	0	42	0	904921088	7	4051
2026-01-12 01:33:35.91	39.12	22.62	-23.3	-24.2	18.6	0.00e+00	0	42	0	921698304	7	3979
2026-01-12 01:33:38.94	39.57	22.99	-23.5	-24.6	18.4	0.00e+00	0	42	0	939524096	7	4065
2026-01-12 01:33:41.95	40.03	23.36	-23.8	-25.3	18.0	0.00e+00	0	42	0	956301312	7	4244
2026-01-12 01:33:44.96	40.50	23.74	-23.2	-23.8	18.8	0.00e+00	0	42	0	973078528	7	3890
2026-01-12 01:33:47.99	40.98	24.12	-23.4	-24.4	18.5	0.00e+00	0	42	0	989855744	7	4014
2026-01-12 01:33:51.00	41.47	24.50	-22.8	-23.1	19.2	0.00e+00	0	42	0	1006632960	7	3708
2026-01-12 01:33:54.02	41.98	24.89	-23.0	-23.5	19.0	0.00e+00	0	42	0	1024458752	7	3819
2026-01-12 01:33:57.04	42.49	25.28	-22.7	-23.4	19.3	0.00e+00	0	42	0	1041235968	6	3883
2026-01-12 01:34:00.05	43.02	25.67	-22.7	-23.4	19.3	0.00e+00	0	42	0	1058013184	6	3889
2026-01-12 01:34:03.07	43.57	26.07	-22.6	-23.1	18.4	0.00e+00	0	42	0	1074790400	6	3830
2026-01-12 01:34:06.09	44.12	26.47	-22.5	-23.0	19.5	0.00e+00	0	42	0	1091567616	6	3797
2026-01-12 01:34:09.10	44.69	26.87	-22.9	-23.8	19.1	0.00e+00	0	42	0	1108344832	6	3980
2026-01-12 01:34:12.12	45.28	27.28	-22.5	-23.0	19.6	3.08e-04	0	42	0	1126170624	6	3791
2026-01-12 01:34:15.14	45.88	27.69	-22.3	-23.1	19.8	0.00e+00	0	42	0	1142947840	5	3923
2026-01-12 01:34:18.15	46.49	28.10	-22.3	-23.0	19.8	5.84e-04	0	42	0	1159725056	5	3896
2026-01-12 01:34:21.17	47.12	28.52	-22.3	-23.1	19.8	2.21e-04	0	42	0	1176502272	5	3929
2026-01-12 01:34:24.19	47.77	28.94	-22.4	-23.3	19.7	0.00e+00	0	42	0	1193279488	5	3974
2026-01-12 01:34:27.22	48.43	29.36	-22.4	-23.2	19.7	1.68e-04	0	42	0	1210056704	5	3954
2026-01-12 01:34:30.23	49.11	29.78	-22.3	-23.0	19.9	3.16e-04	0	42	0	1227882496	5	3902
2026-01-12 01:34:33.25	49.81	30.20	-22.1	-22.6	20.0	8.23e-05	0	42	0	1244659712	5	3809
2026-01-12 01:34:36.26	50.53	30.63	-22.3	-23.0	19.9	0.00e+00	0	42	0	1261436928	5	3906
2026-01-12 01:34:39.28	51.26	31.06	-22.3	-23.0	19.9	0.00e+00	0	42	0	1278214144	5	3893
2026-01-12 01:34:42.29	52.02	31.48	-22.3	-22.9	19.9	3.89e-05	0	42	0	1294991360	5	3881
2026-01-12 01:34:45.31	52.79	31.91	-22.3	-23.1	19.9	0.00e+00	0	42	0	1312817152	5	3920
2026-01-12 01:34:48.33	53.59	32.34	-22.1	-22.6	20.1	0.00e+00	0	42	0	1329594368	5	3808
2026-01-12 01:34:51.34	54.40	32.77	-22.0	-22.5	20.2	0.00e+00	0	42	0	1346371584	5	3778
2026-01-12 01:34:54.36	55.24	33.20	-22.1	-22.6	20.1	0.00e+00	0	42	0	1363148800	5	3815
2026-01-12 01:34:57.38	56.10	33.63	-22.3	-22.9	20.0	0.00e+00	0	42	0	1379926016	5	3884
2026-01-12 01:35:00.39	56.98	34.06	-22.0	-22.4	20.2	0.00e+00	0	42	0	1397751808	5	3767
2026-01-12 01:35:03.42	57.89	34.49	-22.1	-22.5	20.2	0.00e+00	0	42	0	1414529024	5	3786
2026-01-12 01:35:06.44	58.82	34.91	-22.1	-22.6	20.1	0.00e+00	0	42	0	1431306240	5	3826
2026-01-12 01:35:09.46	59.77	35.33	-22.0	-22.4	20.2	0.00e+00	0	42	0	1448083456	5	3762
2026-01-12 01:35:12.48	60.75	35.75	-22.0	-22.8	20.3	0.00e+00	0	42	0	1464860672	4	3971
2026-01-12 01:35:15.50	61.76	36.17	-22.0	-22.9	20.3	0.00e+00	0	42	0	1482686464	4	3982
2026-01-12 01:35:18.51	62.78	36.57	-22.0	-22.9	20.3	0.00e+00	0	42	0	1499463680	4	3979
2026-01-12 01:35:21.52	63.83	36.98	-21.9	-22.6	20.4	0.00e+00	0	42	0	1516240896	4	3923
2026-01-12 01:35:24.54	64.91	37.38	-22.0	-22.9	20.3	0.00e+00	0	42	0	1533018112	4	3987
2026-01-12 01:35:27.56	66.02	37.77	-22.2	-22.8	20.0	0.00e+00	0	42	0	1549795328	5	3856
2026-01-12 01:35:30.58	67.16	38.15	-22.1	-22.6	20.2	0.00e+00	0	42	0	1567621120	5	3801
2026-01-12 01:35:33.59	68.31	38.53	-21.7	-22.3	20.6	0.00e+00	0	42	0	1584398336	4	3857
2026-01-12 01:35:36.61	69.50	38.90	-22.0	-22.9	20.1	0.00e+00	0	42	0	1601175552	4	4001
2026-01-12 01:35:39.63	70.71	39.25	-21.8	-22.6	20.2	0.00e+00	0	42	0	1617952768	4	3932
2026-01-12 01:35:42.66	71.95	39.60	-22.2	-23.3	19.8	0.00e+00	0	42	0	1634729984	4	4109
2026-01-12 01:35:45.68	73.22	39.94	-21.9	-22.8	20.1	0.00e+00	0	42	0	1652555776	4	3970
2026-01-12 01:35:48.70	74.51	40.26	-21.8	-22.5	20.3	0.00e+00	0	42	0	1669332992	4	3913
2026-01-12 01:35:51.72	75.83	40.57	-22.0	-22.9	20.1	0.00e+00	0	42	0	1686110208	4	4003
2026-01-12 01:35:54.73	77.16	40.86	-22.1	-23.1	20.0	0.00e+00	0	42	0	1702887424	4	4057
2026-01-12 01:35:57.75	78.53	41.14	-21.9	-22.8	20.1	0.00e+00	0	42	0	1719664640	4	3988
2026-01-12 01:36:00.78	79.92	41.40	-22.0	-23.0	20.0	0.00e+00	0	42	0	1737490432	4	4027
2026-01-12 01:36:03.80	81.33	41.65	-22.0	-22.9	20.1	0.00e+00	0	42	0	1754267648	4	3995
2026-01-12 01:36:06.80	82.75	41.88	-21.9	-22.7	20.2	0.00e+00	0	42	0	1771044864	4	3953
2026-01-12 01:36:09.81	84.20	42.09	-22.0	-23.0	20.1	0.00e+00	0	42	0	1787822080	4	4030
2026-01-12 01:36:12.84	85.67	42.28	-22.7	-23.8	19.4	0.00e+00	0	42	0	1804599296	5	4118
2026-01-12 01:36:15.85	87.15	42.45	-22.3	-23.0	19.9	0.00e+00	0	42	0	1821376512	5	3926
2026-01-12 01:36:18.87	88.65	42.60	-22.2	-22.9	19.9	0.00e+00	0	42	0	1839202304	5	3894
2026-01-12 01:36:21.89	90.16	42.73	-22.0	-22.4	20.1	0.00e+00	0	42	0	1855979520	5	3782
2026-01-12 01:36:24.91	91.68	42.84	-22.0	-22.5	20.1	0.00e+00	0	42	0	1872756736	5	3811
2026-01-12 01:36:27.92	93.21	42.92	-22.1	-22.7	20.0	0.00e+00	0	42	0	1889533952	5	3851
2026-01-12 01:36:30.94	94.75	42.99	-22.2	-22.8	20.0	0.00e+00	0	42	0	1906311168	5	3873
2026-01-12 01:36:33.95	96.29	43.03	-22.2	-22.8	20.0	0.00e+00	0	42	0	1923088384	5	3863
2026-01-12 01:36:36.97	97.84	43.04	-22.2	-22.9	19.9	0.00e+00	0	42	0	1940914176	5	3905
2026-01-12 01:36:39.99	99.39	43.04	-22.1	-22.6	20.1	0.00e+00	0	42	0	1957691392	5	3823
2026-01-12 01:36:43.01	100.93	43.01	-22.5	-23.5	19.6	0.00e+00	0	42	0	1974468608	5	4027
2026-01-12 01:36:46.03	102.48	42.96	-22.2	-22.8	19.8	0.00e+00	0	42	0	1991245824	5	3876
2026-01-12 01:36:49.05	104.02	42.89	-22.3	-23.1	19.8	0.00e+00	0	42	0	2008023040	5	3929
2026-01-12 01:36:52.07	105.55	42.79	-22.2	-22.9	19.9	0.00e+00	0	42	0	2025848832	5	3892
2026-01-12 01:36:55.08	107.06	42.68	-22.5	-23.5	19.6	0.00e+00	0	42	0	2042626048	5	4035
2026-01-12 01:36:58.11	108.58	42.54	-22.5	-23.6	19.6	0.00e+00	0	42	0	2059403264	5	4054
2026-01-12 01:37:01.13	110.07	42.38	-22.6	-23.7	19.5	0.00e+00	0	42	0	2076180480	5	4096
2026-01-12 01:37:04.15	111.55	42.20	-22.9	-24.4	19.2	0.00e+00	0	42	0	2092957696	5	4258
2026-01-12 01:37:07.17	113.01	42.00	-22.5	-23.5	19.6	0.00e+00	0	42	0	2110783488	5	4044
2026-01-12 01:37:10.19	114.46	41.78	-22.0	-22.5	20.1	1.77e-04	0	42	0	2127560704	5	3809
2026-01-12 01:37:13.21	115.88	41.54	-22.2	-22.8	19.9	0.00e+00	0	42	0	2144337920	5	3873
2026-01-12 01:37:16.22	117.28	41.29	-22.4	-23.2	19.7	0.00e+00	0	42	0	2161115136	5	3965
2026-01-12 01:37:19.24	118.66	41.02	-22.2	-22.9	19.9	0.00e+00	0	42	0	2177892352	5	3885
2026-01-12 01:37:22.25	120.01	40.73	-22.4	-23.2	19.7	0.00e+00	0	42	0	2195718144	5	3979
2026-01-12 01:37:25.27	121.35	40.43	-22.3	-23.1	19.8	0.00e+00	0	42	0	2212495360	5	3943
2026-01-12 01:37:28.28	122.65	40.12	-22.1	-22.6	20.1	0.00e+00	0	42	0	2229272576	5	3819
2026-01-12 01:37:31.31	123.94	39.79	-21.9	-22.3	20.1	0.00e+00	0	42	0	2246049792	5	3761
2026-01-12 01:37:34.32	125.19	39.45	-22.1	-22.6	20.0	0.00e+00	0	42	0	2262827008	5	3836
2026-01-12 01:37:37.35	126.43	39.09	-21.9	-22.3	20.2	0.00e+00	0	42	0	2280652800	5	3752
2026-01-12 01:37:40.37	127.63	38.73	-22.1	-22.6	20.0	0.00e+00	0	42	0	2297430016	5	3834
2026-01-12 01:37:43.38	128.81	38.36	-21.7	-22.3	20.4	0.00e+00	0	42	0	2314207232	4	3862
2026-01-12 01:37:46.39	129.96	37.98	-22.0	-23.0	20.0	0.00e+00	0	42	0	2330984448	4	4037
2026-01-12 01:37:49.40	131.08	37.59	-22.0	-22.9	20.1	0.00e+00	0	42	0	2347761664	4	4016
2026-01-12 01:37:52.41	132.17	37.19	-22.2	-23.3	19.9	0.00e+00	0	42	0	2364538880	4	4110
2026-01-12 01:37:55.43	133.25	36.79	-22.0	-22.9	20.1	0.00e+00	0	42	0	2382364672	4	4021
2026-01-12 01:37:58.45	134.29	36.38	-22.1	-23.2	20.0	0.00e+00	0	42	0	2399141888	4	4072
2026-01-12 01:38:01.48	135.32	35.97	-22.0	-23.1	20.0	0.00e+00	0	42	0	2415919104	4	4052
2026-01-12 01:38:04.49	136.31	35.55	-22.0	-23.0	20.0	0.00e+00	0	42	0	2432696320	4	4028
2026-01-12 01:38:07.51	137.28	35.13	-22.3	-23.6	19.7	0.00e+00	0	42	0	2449473536	4	4174
2026-01-12 01:38:10.52	138.23	34.70	-22.4	-23.9	19.6	0.00e+00	0	42	0	2467299328	4	4250
2026-01-12 01:38:13.55	139.15	34.27	-22.5	-23.5	19.5	0.00e+00	0	42	0	2484076544	5	4028
2026-01-12 01:38:16.57	140.05	33.84	-22.2	-22.8	19.8	0.00e+00	0	42	0	2500853760	5	3885
2026-01-12 01:38:19.58	140.92	33.41	-22.1	-23.1	19.9	5.89e-04	0	42	0	2517630976	4	4066
2026-01-12 01:38:22.60	141.78	32.98	-22.1	-23.2	19.8	5.24e-04	0	42	0	2534408192	4	4087
2026-01-12 01:38:25.63	142.61	32.55	-22.4	-23.8	19.6	0.00e+00	0	42	0	2552233984	4	4229
2026-01-12 01:38:28.65	143.42	32.11	-22.7	-23.9	19.3	5.88e-04	0	42	0	2569011200	5	4147
2026-01-12 01:38:31.68	144.21	31.68	-22.6	-23.7	19.4	7.85e-04	0	42	0	2585788416	5	4087
2026-01-12 01:38:34.71	144.99	31.25	-22.8	-24.1	19.2	1.04e-03	0	42	0	2602565632	5	4198
2026-01-12 01:38:37.73	145.73	30.82	-22.7	-23.9	19.3	1.66e-04	0	42	0	2620391424	5	4131
2026-01-12 01:38:40.75	146.46	30.39	-22.7	-23.8	19.3	9.27e-04	0	42	0	2637168640	5	4119
2026-01-12 01:38:43.78	147.18	29.96	-22.8	-24.1	19.1	0.00e+00	0	42	0	2653945856	5	4179
2026-01-12 01:38:46.80	147.87	29.53	-22.8	-24.2	19.1	0.00e+00	0	42	0	2670723072	5	4229
2026-01-12 01:38:49.81	148.54	29.11	-22.5	-23.6	19.4	0.00e+00	0	42	0	2687500288	5	4059
2026-01-12 01:38:52.83	149.20	28.68	-22.4	-23.3	19.5	0.00e+00	0	42	0	2705326080	5	3994
2026-01-12 01:38:55.84	149.84	28.27	-22.5	-23.4	19.5	0.00e+00	0	42	0	2722103296	5	4019
2026-01-12 01:38:58.87	150.47	27.85	-22.6	-23.7	19.3	0.00e+00	0	42	0	2738880512	5	4081
2026-01-12 01:39:01.89	151.08	27.43	-22.9	-24.3	19.0	0.00e+00	0	42	0	2755657728	5	4254
2026-01-12 01:39:04.91	151.67	27.02	-22.7	-23.9	19.2	0.00e+00	0	42	0	2772434944	5	4147
2026-01-12 01:39:07.93	152.25	26.61	-22.9	-24.3	19.0	0.00e+00	0	42	0	2790260736	5	4245
2026-01-12 01:39:10.95	152.81	26.21	-23.1	-24.3	18.7	0.00e+00	0	42	0	2807037952	6	4127
2026-01-12 01:39:13.97	153.37	25.81	-22.9	-23.8	19.0	0.00e+00	0	42	0	2823815168	6	3993
2026-01-12 01:39:16.99	153.90	25.41	-22.7	-23.3	19.2	0.00e+00	0	42	0	2840592384	6	3886
2026-01-12 01:39:20.01	154.43	25.01	-22.9	-23.8	18.9	0.00e+00	0	42	0	2857369600	6	4009
2026-01-12 01:39:23.03	154.94	24.62	-23.2	-24.6	18.6	0.00e+00	0	42	0	2875195392	6	4207
2026-01-12 01:39:26.05	155.44	24.23	-23.2	-24.5	18.6	3.40e-06	0	42	0	2891972608	6	4184
2026-01-12 01:39:29.07	155.93	23.85	-23.2	-24.5	18.6	2.20e-06	0	42	0	2908749824	6	4176
2026-01-12 01:39:32.09	156.41	23.47	-22.9	-23.8	19.0	6.80e-06	0	42	0	2925527040	6	3992
2026-01-12 01:39:35.10	156.87	23.09	-23.2	-24.4	18.6	3.40e-06	0	42	0	2942304256	6	4149
2026-01-12 01:39:38.13	157.33	22.71	-23.5	-24.6	18.3	0.00e+00	0	42	0	2960130048	7	4082
2026-01-12 01:39:41.15	157.77	22.34	-23.4	-24.5	18.3	0.00e+00	0	42	0	2976907264	7	4058
2026-01-12 01:39:44.18	158.21	21.98	-23.5	-24.7	18.2	0.00e+00	0	42	0	2993684480	7	4124
2026-01-12 01:39:47.19	158.63	21.62	-23.8	-25.2	17.9	0.00e+00	0	42	0	3010461696	7	4264
2026-01-12 01:39:50.21	159.05	21.26	-24.0	-25.3	17.6	0.00e+00	0	42	0	3027238912	8	4157
2026-01-12 01:39:53.23	159.45	20.90	-24.0	-25.1	17.7	0.00e+00	0	42	0	3045064704	8	4111
2026-01-12 01:39:56.24	159.85	20.55	-24.1	-25.5	17.5	0.00e+00	0	42	0	3061841920	8	4191
2026-01-12 01:39:59.26	160.24	20.20	-24.5	-25.6	17.2	0.00e+00	0	42	0	3078619136	9	4127
2026-01-12 01:40:02.27	160.62	19.86	-23.9	-25.0	17.8	0.00e+00	0	42	0	3095396352	8	4065
2026-01-12 01:40:05.29	160.99	19.52	-24.3	-25.8	17.3	0.00e+00	0	42	0	3112173568	8	4288
2026-01-12 01:40:08.31	161.35	19.18	-24.7	-26.1	16.9	0.00e+00	0	42	0	3128950784	9	4254
2026-01-12 01:40:11.33	161.71	18.84	-24.4	-25.6	17.2	0.00e+00	0	42	0	3146776576	9	4109
2026-01-12 01:40:14.34	162.06	18.51	-24.5	-25.8	17.1	5.72e-05	0	42	0	3163553792	9	4171
2026-01-12 01:40:17.36	162.40	18.19	-25.0	-26.4	16.5	0.00e+00	0	42	0	3180331008	10	4220
2026-01-12 01:40:20.38	162.73	17.86	-25.0	-26.5	16.5	0.00e+00	0	42	0	3197108224	10	4235
2026-01-12 01:40:23.40	163.06	17.54	-24.9	-26.2	16.6	0.00e+00	0	42	0	3213885440	10	4165
2026-01-12 01:40:26.42	163.38	17.22	-24.8	-25.9	16.7	0.00e+00	0	42	0	3231711232	10	4089
2026-01-12 01:40:29.44	163.70	16.91	-24.8	-26.6	16.6	0.00e+00	0	42	0	3248488448	9	4394
2026-01-12 01:40:32.46	164.00	16.60	-24.8	-26.4	16.7	0.00e+00	0	42	0	3265265664	9	4335
2026-01-12 01:40:35.48	164.31	16.29	-24.9	-26.2	16.5	0.00e+00	0	42	0	3282042880	10	4176
2026-01-12 01:40:38.50	164.60	15.99	-25.0	-26.3	16.5	0.00e+00	0	42	0	3298820096	10	4195
2026-01-12 01:40:41.51	164.89	15.69	-24.9	-26.7	16.5	0.00e+00	0	42	0	3315597312	9	4421
2026-01-12 01:40:44.53	165.18	15.39	-25.1	-26.6	16.3	0.00e+00	0	42	0	3333423104	10	4288
2026-01-12 01:40:47.54	165.46	15.09	-25.2	-26.8	16.2	0.00e+00	0	42	0	3350200320	10	4337
2026-01-12 01:40:50.56	165.73	14.80	-25.3	-27.1	16.0	0.00e+00	0	42	0	3366977536	10	4404
2026-01-12 01:40:53.59	166.00	14.51	-25.5	-26.8	12.7	0.00e+00	0	42	0	3383754752	11	4222
2026-01-12 01:40:56.60	166.27	14.22	-25.4	-26.6	16.0	1.35e-03	0	42	0	3400531968	11	4170
2026-01-12 01:40:59.63	166.53	13.94	-25.4	-27.3	15.9	0.00e+00	0	42	0	3418357760	10	4462
2026-01-12 01:41:02.65	166.78	13.66	-25.8	-27.5	15.5	0.00e+00	0	42	0	3435134976	11	4420
2026-01-12 01:41:05.67	167.04	13.38	-25.6	-27.2	15.6	1.29e-03	0	42	0	3451912192	11	4330
2026-01-12 01:41:08.68	167.28	13.10	-25.6	-27.2	15.6	1.26e-03	0	42	0	3468689408	11	4331
2026-01-12 01:41:11.70	167.52	12.83	-25.6	-27.2	15.6	0.00e+00	0	42	0	3485466624	11	4341
2026-01-12 01:41:14.72	167.76	12.56	-25.7	-27.3	15.5	1.35e-03	0	42	0	3502243840	11	4368
2026-01-12 01:41:17.73	167.99	12.29	-25.6	-27.2	15.6	1.32e-03	0	42	0	3520069632	11	4341
2026-01-12 01:41:20.73	168.22	12.03	-25.8	-27.6	15.4	1.22e-03	0	42	0	3536846848	11	4440
2026-01-12 01:41:23.75	168.45	11.77	-25.8	-27.7	15.3	1.35e-03	0	42	0	3553624064	11	4474
2026-01-12 01:41:26.76	168.67	11.51	-26.0	-27.7	15.0	1.34e-03	0	42	0	3570401280	12	4347
2026-01-12 01:41:29.79	168.89	11.25	-26.1	-27.8	14.9	1.21e-03	0	42	0	3587178496	12	4380
2026-01-12 01:41:32.80	169.10	10.99	-26.1	-28.0	14.8	0.00e+00	0	42	0	3605004288	12	4437
2026-01-12 01:41:35.82	169.31	10.74	-26.0	-27.6	14.9	1.34e-03	0	42	0	3621781504	12	4344
2026-01-12 01:41:38.85	169.52	10.49	-26.1	-27.8	14.8	0.00e+00	0	42	0	3638558720	12	4390
2026-01-12 01:41:41.86	169.72	10.24	-26.0	-27.7	14.9	0.00e+00	0	42	0	3655335936	12	4372
2026-01-12 01:41:44.88	169.93	9.99	-26.1	-27.8	14.8	0.00e+00	0	42	0	3672113152	12	4386
2026-01-12 01:41:47.90	170.12	9.75	-26.1	-27.8	14.8	0.00e+00	0	42	0	3689938944	12	4392
2026-01-12 01:41:50.91	170.32	9.50	-26.1	-27.9	14.7	0.00e+00	0	42	0	3706716160	12	4430
2026-01-12 01:41:53.94	170.51	9.26	-26.2	-28.0	14.6	0.00e+00	0	42	0	3723493376	12	4454
2026-01-12 01:41:56.96	170.70	9.03	-26.1	-27.8	14.7	0.00e+00	0	42	0	3740270592	12	4395
2026-01-12 01:41:59.98	170.89	8.79	-26.2	-28.0	14.6	0.00e+00	0	42	0	3757047808	12	4452
2026-01-12 01:42:03.00	171.07	8.55	-26.5	-28.2	14.2	0.00e+00	0	42	0	3774873600	13	4391
2026-01-12 01:42:06.02	171.25	8.32	-26.6	-28.5	14.0	3.40e-06	0	42	0	3791650816	13	4492
2026-01-12 01:42:09.04	171.43	8.09	-26.6	-28.5	14.0	0.00e+00	0	42	0	3808428032	13	4473
2026-01-12 01:42:12.06	171.60	7.86	-26.8	-29.0	13.6	2.20e-06	0	42	0	3825205248	13	4644
2026-01-12 01:42:15.06	171.77	7.64	-26.8	-28.4	13.7	9.10e-06	0	42	0	3841982464	14	4335
2026-01-12 01:42:18.07	171.94	7.41	-26.2	-28.4	13.0	6.80e-06	0	42	0	3859808256	13	4642
2026-01-12 01:42:21.09	172.11	7.19	-27.1	-29.3	12.7	1.14e-05	0	42	0	3876585472	14	4601
2026-01-12 01:42:24.11	172.27	6.97	-32.9	-44.2	3.8	8.46e-01	0	42	104	3886022656	25	13269

#Closed at: 2026-01-12 01:42:24
#Recorded file [3886 MB]: D:/data/31010_260112_043051.dat