passes_logs/2026/01/12/R2M6_AANII_01/R2M6_AANII_01__20260112_163137_FENGYUN_3E_rec.log

#Pass ID: 20260112_163137_FENGYUN 3E
#Satellite: FENGYUN 3E
#Configuration: FENGYUN 3E
#almurnet v.1.7.20240730
#Start time: 2026-01-12 16:31:37

#Version: 2.2.20231116
#Station: R2M6_AANII_01
#Location: 30.233357 lon 59.946436 lat
#TLE: 1 49008U 21062A   26011.97558190  .00000066  00000+0  51928-4 0  9996
#TLE: 2 49008  98.7491  17.1395 0001916 144.4283 215.7021 14.19885193234411

#Time	Az	El	Level	Level2	SNR	BER	BlckErr	Temp	State	Recorded	gain1	gain2
2026-01-12 16:31:37.52	224.70	6.98	-28.3	-29.8	5.5	7.44e-01	0	40	0	0	17	4263
2026-01-12 16:31:40.54	225.04	7.15	-29.0	-30.9	9.7	1.09e-02	0	40	0	7340032	18	4508
2026-01-12 16:31:43.55	225.38	7.32	-28.4	-29.4	10.8	3.60e-03	0	40	0	28311552	18	4037
2026-01-12 16:31:46.57	225.72	7.49	-27.9	-29.3	11.5	8.70e-04	0	40	0	50331648	16	4202
2026-01-12 16:31:49.60	226.08	7.67	-27.6	-28.4	12.1	4.27e-04	0	40	0	72351744	16	3959
2026-01-12 16:31:52.62	226.43	7.84	-26.3	-26.9	13.7	1.25e-05	0	40	0	94371840	13	3872
2026-01-12 16:31:55.65	226.79	8.01	-26.1	-26.5	13.9	3.40e-06	0	40	0	116391936	13	3775
2026-01-12 16:31:58.67	227.15	8.18	-26.2	-26.7	13.8	8.00e-06	0	40	0	138412032	13	3816
2026-01-12 16:32:01.69	227.51	8.35	-26.3	-27.0	13.7	9.10e-06	0	40	0	159383552	13	3896
2026-01-12 16:32:04.70	227.88	8.53	-26.2	-26.7	13.8	3.40e-06	0	41	0	181403648	13	3815
2026-01-12 16:32:07.72	228.26	8.70	-26.1	-26.5	13.9	3.40e-06	0	41	0	203423744	13	3783
2026-01-12 16:32:10.74	228.64	8.87	-26.1	-26.5	14.0	2.20e-06	0	41	0	225443840	13	3774
2026-01-12 16:32:13.75	229.02	9.04	-26.1	-26.5	14.1	2.20e-06	0	41	0	246415360	13	3756
2026-01-12 16:32:16.77	229.41	9.22	-25.9	-26.1	14.2	1.10e-06	0	41	0	268435456	13	3675
2026-01-12 16:32:19.79	229.80	9.39	-25.8	-26.2	14.5	0.00e+00	0	41	0	290455552	12	3799
2026-01-12 16:32:22.80	230.19	9.56	-25.9	-26.4	14.4	0.00e+00	0	41	0	312475648	12	3856
2026-01-12 16:32:25.82	230.59	9.74	-25.8	-26.3	14.4	4.50e-06	0	41	0	334495744	12	3823
2026-01-12 16:32:28.83	231.00	9.91	-25.9	-26.5	14.4	0.00e+00	0	41	0	355467264	12	3861
2026-01-12 16:32:31.85	231.41	10.08	-25.9	-26.6	14.3	1.10e-06	0	41	0	377487360	12	3885
2026-01-12 16:32:34.87	231.82	10.26	-26.0	-26.8	14.2	0.00e+00	0	41	0	399507456	12	3945
2026-01-12 16:32:37.90	232.24	10.43	-26.0	-26.8	14.2	1.10e-06	0	41	0	421527552	12	3945
2026-01-12 16:32:40.91	232.67	10.60	-25.9	-26.5	14.4	0.00e+00	0	41	0	443547648	12	3879
2026-01-12 16:32:43.93	233.09	10.77	-25.9	-26.5	14.4	0.00e+00	0	41	0	464519168	12	3866
2026-01-12 16:32:46.95	233.53	10.95	-26.0	-26.7	14.3	0.00e+00	0	41	0	486539264	12	3921
2026-01-12 16:32:49.96	233.97	11.12	-25.7	-26.1	14.7	2.20e-06	0	42	0	508559360	12	3764
2026-01-12 16:32:52.98	234.41	11.29	-25.7	-26.0	14.7	0.00e+00	0	42	0	530579456	12	3739
2026-01-12 16:32:55.99	234.86	11.46	-25.5	-26.1	15.1	0.00e+00	0	41	0	551550976	11	3867
2026-01-12 16:32:59.00	235.31	11.63	-25.3	-25.7	15.3	0.00e+00	0	41	0	573571072	11	3763
2026-01-12 16:33:02.02	235.77	11.80	-25.4	-25.8	15.2	0.00e+00	0	41	0	595591168	11	3791
2026-01-12 16:33:05.03	236.23	11.97	-25.3	-25.6	15.3	0.00e+00	0	41	0	616562688	11	3743
2026-01-12 16:33:08.05	236.70	12.14	-25.3	-25.7	15.3	0.00e+00	0	42	0	638582784	11	3758
2026-01-12 16:33:11.06	237.18	12.31	-25.2	-25.4	15.5	0.00e+00	0	41	0	660602880	11	3690
2026-01-12 16:33:14.08	237.66	12.48	-25.1	-25.3	15.5	0.00e+00	0	42	0	682622976	11	3677
2026-01-12 16:33:17.10	238.14	12.65	-25.3	-25.8	15.3	0.00e+00	0	42	0	703594496	11	3782
2026-01-12 16:33:20.12	238.63	12.81	-25.1	-25.1	15.7	0.00e+00	0	42	0	725614592	11	3628
2026-01-12 16:33:23.15	239.13	12.98	-24.9	-25.4	15.8	0.00e+00	0	42	0	747634688	10	3790
2026-01-12 16:33:26.17	239.63	13.15	-25.2	-26.0	15.4	0.00e+00	0	42	0	769654784	10	3945
2026-01-12 16:33:29.18	240.14	13.31	-24.9	-25.2	15.9	0.00e+00	0	42	0	791674880	10	3754
2026-01-12 16:33:32.21	240.65	13.47	-24.9	-25.2	15.9	0.00e+00	0	42	0	812646400	10	3740
2026-01-12 16:33:35.22	241.17	13.64	-24.9	-25.4	15.8	0.00e+00	0	42	0	834666496	10	3786
2026-01-12 16:33:38.24	241.69	13.80	-24.9	-25.3	15.9	0.00e+00	0	42	0	856686592	10	3780
2026-01-12 16:33:41.25	242.22	13.96	-24.9	-25.2	16.0	0.00e+00	0	42	0	878706688	10	3744
2026-01-12 16:33:44.26	242.76	14.12	-24.9	-25.2	16.0	0.00e+00	0	42	0	900726784	10	3743
2026-01-12 16:33:47.28	243.30	14.27	-24.9	-25.3	15.9	0.00e+00	0	42	0	921698304	10	3775
2026-01-12 16:33:50.30	243.84	14.43	-24.9	-25.2	16.0	0.00e+00	0	42	0	943718400	10	3745
2026-01-12 16:33:53.31	244.39	14.59	-24.9	-25.3	16.0	0.00e+00	0	42	0	965738496	10	3754
2026-01-12 16:33:56.33	244.95	14.74	-24.9	-25.3	16.0	0.00e+00	0	42	0	987758592	10	3760
2026-01-12 16:33:59.35	245.51	14.89	-24.9	-25.3	16.0	0.00e+00	0	42	0	1008730112	10	3769
2026-01-12 16:34:02.37	246.08	15.04	-24.9	-25.2	16.0	0.00e+00	0	42	0	1030750208	10	3749
2026-01-12 16:34:05.39	246.65	15.19	-24.9	-25.3	16.0	0.00e+00	0	42	0	1052770304	10	3754
2026-01-12 16:34:08.41	247.23	15.34	-24.7	-25.0	16.2	0.00e+00	0	42	0	1074790400	10	3686
2026-01-12 16:34:11.43	247.82	15.48	-24.9	-25.3	16.0	0.00e+00	0	42	0	1096810496	10	3776
2026-01-12 16:34:14.45	248.41	15.62	-24.5	-24.4	16.5	0.00e+00	0	42	0	1117782016	10	3569
2026-01-12 16:34:17.46	249.00	15.77	-24.7	-24.8	16.3	0.00e+00	0	42	0	1139802112	10	3647
2026-01-12 16:34:20.48	249.60	15.90	-24.5	-24.4	16.5	0.00e+00	0	42	0	1161822208	10	3562
2026-01-12 16:34:23.50	250.21	16.04	-24.4	-24.7	16.6	0.00e+00	0	42	0	1183842304	9	3715
2026-01-12 16:34:26.52	250.82	16.17	-24.3	-24.6	16.7	0.00e+00	0	42	0	1205862400	9	3700
2026-01-12 16:34:29.53	251.44	16.31	-24.4	-24.7	16.6	1.10e-06	0	42	0	1226833920	9	3731
2026-01-12 16:34:32.55	252.06	16.44	-24.3	-24.5	16.7	0.00e+00	0	42	0	1248854016	9	3691
2026-01-12 16:34:35.57	252.69	16.56	-24.4	-24.6	16.7	0.00e+00	0	42	0	1270874112	9	3708
2026-01-12 16:34:38.59	253.32	16.69	-24.3	-24.6	16.7	1.10e-06	0	42	0	1291845632	9	3695
2026-01-12 16:34:41.61	253.96	16.81	-24.4	-24.8	16.6	3.40e-06	0	42	0	1313865728	9	3739
2026-01-12 16:34:44.64	254.60	16.93	-24.3	-24.5	16.7	5.70e-06	0	42	0	1335885824	9	3688
2026-01-12 16:34:47.65	255.25	17.04	-24.4	-24.7	16.7	2.20e-06	0	42	0	1357905920	9	3718
2026-01-12 16:34:50.66	255.90	17.15	-24.4	-24.8	16.6	0.00e+00	0	42	0	1379926016	9	3749
2026-01-12 16:34:53.69	256.56	17.26	-24.2	-24.3	16.8	0.00e+00	0	42	0	1400897536	9	3643
2026-01-12 16:34:56.71	257.22	17.37	-24.4	-24.8	16.6	0.00e+00	0	42	0	1422917632	9	3737
2026-01-12 16:34:59.73	257.89	17.47	-24.5	-24.8	16.6	0.00e+00	0	42	0	1444937728	9	3756
2026-01-12 16:35:02.74	258.56	17.57	-24.6	-25.2	16.4	0.00e+00	0	42	0	1466957824	9	3830
2026-01-12 16:35:05.76	259.23	17.67	-24.1	-24.0	17.0	0.00e+00	0	42	0	1487929344	9	3571
2026-01-12 16:35:08.77	259.91	17.76	-24.1	-24.0	17.0	0.00e+00	0	42	0	1509949440	9	3569
2026-01-12 16:35:11.79	260.59	17.85	-24.2	-24.2	17.0	1.10e-06	0	42	0	1531969536	9	3609
2026-01-12 16:35:14.81	261.28	17.94	-24.3	-24.4	16.8	0.00e+00	0	42	0	1553989632	9	3649
2026-01-12 16:35:17.83	261.97	18.02	-24.1	-24.0	17.1	0.00e+00	0	42	0	1576009728	9	3569
2026-01-12 16:35:20.85	262.66	18.10	-24.0	-23.9	17.1	0.00e+00	0	42	0	1596981248	9	3560
2026-01-12 16:35:23.87	263.36	18.17	-24.2	-24.4	16.9	0.00e+00	0	42	0	1619001344	9	3652
2026-01-12 16:35:26.90	264.06	18.24	-24.2	-24.3	16.9	0.00e+00	0	42	0	1641021440	9	3634
2026-01-12 16:35:29.92	264.76	18.31	-24.3	-24.4	16.8	0.00e+00	0	42	0	1663041536	9	3666
2026-01-12 16:35:32.94	265.47	18.37	-24.5	-24.9	16.6	0.00e+00	0	42	0	1685061632	9	3770
2026-01-12 16:35:35.95	266.18	18.43	-24.4	-24.7	16.7	0.00e+00	0	42	0	1706033152	9	3733
2026-01-12 16:35:38.96	266.89	18.49	-24.5	-24.9	16.6	0.00e+00	0	42	0	1728053248	9	3771
2026-01-12 16:35:41.98	267.60	18.54	-24.4	-24.6	16.7	0.00e+00	0	42	0	1750073344	9	3694
2026-01-12 16:35:45.01	268.32	18.58	-24.4	-24.7	16.7	0.00e+00	0	42	0	1772093440	9	3729
2026-01-12 16:35:48.02	269.03	18.62	-24.3	-24.5	16.8	0.00e+00	0	42	0	1794113536	9	3677
2026-01-12 16:35:51.05	269.76	18.66	-24.1	-24.0	17.1	0.00e+00	0	42	0	1815085056	9	3565
2026-01-12 16:35:54.07	270.48	18.70	-24.3	-24.6	16.7	0.00e+00	0	42	0	1837105152	9	3693
2026-01-12 16:35:57.08	271.20	18.72	-24.0	-23.9	17.1	0.00e+00	0	42	0	1859125248	9	3549
2026-01-12 16:36:00.11	271.93	18.75	-24.0	-23.9	17.1	0.00e+00	0	42	0	1881145344	9	3536
2026-01-12 16:36:03.12	272.65	18.77	-24.1	-24.0	17.0	0.00e+00	0	42	0	1903165440	9	3574
2026-01-12 16:36:06.13	273.37	18.78	-24.0	-23.9	17.1	0.00e+00	0	42	0	1924136960	9	3543
2026-01-12 16:36:09.15	274.10	18.79	-24.0	-23.9	17.1	0.00e+00	0	42	0	1946157056	9	3544
2026-01-12 16:36:12.17	274.82	18.80	-24.0	-23.8	17.1	0.00e+00	0	42	0	1968177152	9	3534
2026-01-12 16:36:15.19	275.55	18.80	-24.0	-23.8	17.2	0.00e+00	0	42	0	1990197248	9	3525
2026-01-12 16:36:18.20	276.28	18.80	-23.8	-24.0	17.3	0.00e+00	0	42	0	2011168768	8	3653
2026-01-12 16:36:21.22	277.00	18.79	-23.9	-24.1	17.2	0.00e+00	0	42	0	2033188864	8	3683
2026-01-12 16:36:24.23	277.73	18.78	-24.2	-24.7	16.9	0.00e+00	0	42	0	2055208960	8	3832
2026-01-12 16:36:27.24	278.45	18.76	-24.3	-24.9	16.8	0.00e+00	0	42	0	2076180480	8	3879
2026-01-12 16:36:30.26	279.17	18.74	-24.4	-25.3	16.7	0.00e+00	0	42	0	2098200576	8	3965
2026-01-12 16:36:33.28	279.90	18.72	-24.3	-25.0	16.8	0.00e+00	0	42	0	2120220672	8	3896
2026-01-12 16:36:36.30	280.62	18.69	-24.2	-24.8	16.9	0.00e+00	0	42	0	2142240768	8	3853
2026-01-12 16:36:39.32	281.34	18.66	-24.0	-24.4	17.1	0.00e+00	0	42	0	2164260864	8	3767
2026-01-12 16:36:42.33	282.06	18.62	-24.2	-24.8	16.9	0.00e+00	0	42	0	2185232384	8	3845
2026-01-12 16:36:45.36	282.78	18.58	-24.1	-24.6	17.0	0.00e+00	0	42	0	2207252480	8	3815
2026-01-12 16:36:48.37	283.49	18.53	-24.2	-24.7	16.9	0.00e+00	0	42	0	2229272576	8	3829
2026-01-12 16:36:51.39	284.20	18.48	-24.3	-24.9	16.8	0.00e+00	0	42	0	2251292672	8	3879
2026-01-12 16:36:54.40	284.91	18.42	-24.1	-24.5	17.1	0.00e+00	0	42	0	2272264192	8	3783
2026-01-12 16:36:57.43	285.62	18.37	-24.1	-24.5	17.0	0.00e+00	0	42	0	2294284288	8	3780
2026-01-12 16:37:00.45	286.32	18.30	-24.4	-25.1	16.7	0.00e+00	0	42	0	2316304384	8	3926
2026-01-12 16:37:03.47	287.02	18.24	-24.9	-25.7	16.2	0.00e+00	0	42	0	2338324480	9	3954
2026-01-12 16:37:06.49	287.72	18.16	-24.2	-24.2	16.9	0.00e+00	0	42	0	2360344576	9	3619
2026-01-12 16:37:09.51	288.42	18.09	-24.2	-24.3	16.9	0.00e+00	0	42	0	2382364672	9	3629
2026-01-12 16:37:12.53	289.11	18.01	-24.3	-24.4	16.8	0.00e+00	0	42	0	2403336192	9	3653
2026-01-12 16:37:15.54	289.80	17.93	-24.3	-24.5	16.8	0.00e+00	0	42	0	2425356288	9	3676
2026-01-12 16:37:18.56	290.48	17.84	-24.4	-24.7	16.6	0.00e+00	0	42	0	2447376384	9	3737
2026-01-12 16:37:21.57	291.16	17.75	-24.3	-24.5	16.8	0.00e+00	0	42	0	2469396480	9	3674
2026-01-12 16:37:24.60	291.84	17.66	-24.4	-24.7	16.6	0.00e+00	0	42	0	2490368000	9	3725
2026-01-12 16:37:27.62	292.51	17.56	-24.3	-24.6	16.7	0.00e+00	0	42	0	2512388096	9	3698
2026-01-12 16:37:30.64	293.18	17.46	-24.6	-25.0	16.4	0.00e+00	0	42	0	2534408192	9	3805
2026-01-12 16:37:33.65	293.84	17.36	-24.5	-24.8	16.6	0.00e+00	0	42	0	2556428288	9	3750
2026-01-12 16:37:36.67	294.50	17.25	-24.4	-24.8	16.6	0.00e+00	0	42	0	2578448384	9	3737
2026-01-12 16:37:39.69	295.15	17.14	-24.4	-24.7	16.7	0.00e+00	0	42	0	2599419904	9	3717
2026-01-12 16:37:42.70	295.80	17.03	-24.3	-24.5	16.7	0.00e+00	0	42	0	2621440000	9	3687
2026-01-12 16:37:45.72	296.44	16.92	-24.4	-24.8	16.6	0.00e+00	0	42	0	2643460096	9	3754
2026-01-12 16:37:48.74	297.08	16.80	-24.6	-25.0	16.4	1.10e-06	0	42	0	2665480192	9	3803
2026-01-12 16:37:51.75	297.72	16.68	-24.4	-24.6	16.7	0.00e+00	0	42	0	2686451712	9	3699
2026-01-12 16:37:54.77	298.35	16.55	-24.4	-24.7	16.6	0.00e+00	0	42	0	2708471808	9	3727
2026-01-12 16:37:57.79	298.97	16.43	-24.5	-24.9	16.5	0.00e+00	0	42	0	2730491904	9	3772
2026-01-12 16:38:00.80	299.59	16.30	-24.7	-25.3	16.3	0.00e+00	0	42	0	2751463424	9	3860
2026-01-12 16:38:03.83	300.21	16.17	-24.8	-25.5	16.2	0.00e+00	0	42	0	2773483520	9	3913
2026-01-12 16:38:06.85	300.81	16.03	-24.9	-25.7	16.0	0.00e+00	0	42	0	2795503616	9	3970
2026-01-12 16:38:09.87	301.42	15.90	-24.8	-25.6	16.1	0.00e+00	0	42	0	2817523712	9	3940
2026-01-12 16:38:12.88	302.01	15.76	-24.7	-25.3	16.3	0.00e+00	0	42	0	2839543808	9	3857
2026-01-12 16:38:15.91	302.61	15.62	-24.7	-25.4	16.2	0.00e+00	0	42	0	2860515328	9	3890
2026-01-12 16:38:18.93	303.20	15.48	-24.8	-25.6	16.1	0.00e+00	0	42	0	2882535424	9	3942
2026-01-12 16:38:21.95	303.78	15.33	-24.8	-25.5	16.2	0.00e+00	0	42	0	2904555520	9	3913
2026-01-12 16:38:24.96	304.35	15.19	-24.8	-25.6	16.0	0.00e+00	0	42	0	2926575616	9	3947
2026-01-12 16:38:27.97	304.92	15.04	-24.9	-25.9	15.9	0.00e+00	0	42	0	2948595712	9	4006
2026-01-12 16:38:30.99	305.49	14.89	-25.0	-26.0	15.8	0.00e+00	0	42	0	2969567232	9	4036
2026-01-12 16:38:34.00	306.05	14.74	-25.0	-25.9	15.9	0.00e+00	0	42	0	2991587328	9	4006
2026-01-12 16:38:37.03	306.60	14.59	-25.1	-25.7	15.7	0.00e+00	0	42	0	3013607424	10	3869
2026-01-12 16:38:40.05	307.15	14.43	-24.7	-24.9	16.2	0.00e+00	0	42	0	3035627520	10	3661
2026-01-12 16:38:43.07	307.69	14.28	-24.9	-25.3	16.0	0.00e+00	0	42	0	3057647616	10	3771
2026-01-12 16:38:46.09	308.23	14.12	-25.1	-25.8	15.7	0.00e+00	0	42	0	3078619136	10	3880
2026-01-12 16:38:49.11	308.76	13.96	-25.3	-26.2	15.5	0.00e+00	0	42	0	3100639232	10	3971
2026-01-12 16:38:52.13	309.29	13.80	-25.3	-26.2	15.5	0.00e+00	0	42	0	3122659328	10	3974
2026-01-12 16:38:55.15	309.81	13.64	-25.3	-26.2	15.4	0.00e+00	0	42	0	3144679424	10	3987
2026-01-12 16:38:58.17	310.33	13.48	-25.5	-26.6	15.2	0.00e+00	0	43	0	3166699520	10	4092
2026-01-12 16:39:01.20	310.84	13.32	-25.5	-26.5	15.3	0.00e+00	0	42	0	3187671040	10	4063
2026-01-12 16:39:04.21	311.34	13.16	-25.8	-26.7	14.9	0.00e+00	0	42	0	3209691136	11	3996
2026-01-12 16:39:07.23	311.84	12.99	-25.4	-26.0	15.3	0.00e+00	0	42	0	3231711232	11	3821
2026-01-12 16:39:10.25	312.34	12.83	-25.5	-26.1	15.2	0.00e+00	0	42	0	3253731328	11	3858
2026-01-12 16:39:13.25	312.82	12.66	-25.6	-26.3	15.1	0.00e+00	0	42	0	3274702848	11	3901
2026-01-12 16:39:16.27	313.30	12.50	-25.8	-26.7	14.8	1.10e-06	0	42	0	3296722944	11	4009
2026-01-12 16:39:19.29	313.78	12.33	-25.8	-26.7	14.8	0.00e+00	0	42	0	3318743040	11	4007
2026-01-12 16:39:22.31	314.26	12.16	-25.7	-26.6	14.9	0.00e+00	0	43	0	3340763136	11	3971
2026-01-12 16:39:25.33	314.72	11.99	-25.6	-26.3	15.1	0.00e+00	0	42	0	3362783232	11	3899
2026-01-12 16:39:28.36	315.19	11.82	-25.4	-25.8	15.3	0.00e+00	0	43	0	3383754752	11	3784
2026-01-12 16:39:31.38	315.64	11.66	-25.3	-25.6	15.4	0.00e+00	0	42	0	3405774848	11	3735
2026-01-12 16:39:34.39	316.09	11.49	-25.5	-26.1	15.2	0.00e+00	0	42	0	3427794944	11	3857
2026-01-12 16:39:37.40	316.54	11.32	-25.8	-26.7	14.8	1.10e-06	0	42	0	3448766464	11	4001
2026-01-12 16:39:40.42	316.98	11.15	-26.1	-26.9	14.3	0.00e+00	0	42	0	3470786560	12	3959
2026-01-12 16:39:43.43	317.42	10.98	-26.2	-27.1	14.2	0.00e+00	0	42	0	3492806656	12	4020
2026-01-12 16:39:46.45	317.85	10.81	-26.1	-26.9	14.3	2.20e-06	0	42	0	3514826752	12	3963
2026-01-12 16:39:49.47	318.28	10.63	-26.0	-26.8	14.3	1.10e-06	0	42	0	3536846848	12	3931
2026-01-12 16:39:52.50	318.70	10.46	-25.8	-26.4	14.6	0.00e+00	0	42	0	3557818368	12	3832
2026-01-12 16:39:55.51	319.12	10.29	-25.7	-26.1	14.7	1.10e-06	0	43	0	3579838464	12	3771
2026-01-12 16:39:58.54	319.53	10.12	-25.9	-26.5	14.4	0.00e+00	0	43	0	3601858560	12	3869
2026-01-12 16:40:01.56	319.94	9.95	-25.9	-26.6	14.4	1.10e-06	0	42	0	3623878656	12	3886
2026-01-12 16:40:04.57	320.34	9.78	-26.1	-27.0	14.1	3.40e-06	0	42	0	3645898752	12	3996
2026-01-12 16:40:07.59	320.74	9.61	-26.3	-27.4	13.9	5.70e-06	0	42	0	3666870272	12	4101
2026-01-12 16:40:10.61	321.14	9.43	-26.4	-27.7	13.8	9.10e-06	0	42	0	3688890368	12	4170
2026-01-12 16:40:13.63	321.53	9.26	-26.6	-28.1	13.5	8.00e-06	0	42	0	3710910464	12	4272
2026-01-12 16:40:16.64	321.91	9.09	-26.7	-27.9	13.3	2.28e-05	0	42	0	3732930560	13	4119
2026-01-12 16:40:19.66	322.30	8.92	-26.4	-27.1	13.8	5.70e-06	0	43	0	3754950656	13	3900
2026-01-12 16:40:22.68	322.67	8.75	-26.4	-27.1	13.7	3.40e-06	0	43	0	3775922176	13	3923
2026-01-12 16:40:25.71	323.05	8.58	-26.3	-26.9	13.8	6.80e-06	0	42	0	3797942272	13	3866
2026-01-12 16:40:28.73	323.42	8.41	-26.4	-27.1	13.7	2.20e-06	0	42	0	3819962368	13	3923
2026-01-12 16:40:31.74	323.78	8.24	-26.5	-27.3	13.6	1.14e-05	0	43	0	3841982464	13	3970
2026-01-12 16:40:34.76	324.14	8.07	-26.5	-27.3	13.6	1.60e-05	0	43	0	3862953984	13	3961
2026-01-12 16:40:37.78	324.50	7.90	-26.7	-27.9	13.2	2.28e-05	0	43	0	3884974080	13	4121
2026-01-12 16:40:40.80	324.85	7.73	-26.6	-27.5	13.4	1.14e-05	0	42	0	3906994176	13	4029
2026-01-12 16:40:43.81	325.20	7.56	-26.6	-27.7	13.3	1.60e-05	0	42	0	3929014272	13	4070
2026-01-12 16:40:46.83	325.54	7.39	-26.6	-27.6	13.3	1.25e-05	0	42	0	3951034368	13	4056
2026-01-12 16:40:49.85	325.88	7.22	-26.7	-27.9	13.2	4.92e-05	0	43	0	3972005888	13	4126
2026-01-12 16:40:52.88	326.22	7.05	-32.7	-41.4	3.8	8.46e-01	0	43	104	3990880256	25	9798
2026-01-12 16:40:55.89	326.56	6.88	-33.5	-43.3	3.8	8.46e-01	0	43	104	3990880256	26	11163

#Closed at: 2026-01-12 16:40:56
#Recorded file [3990 MB]: D:/data/31010_260112_193139.dat