passes_logs/2026/01/12/R2M6_AANII_01/R2M6_AANII_01__20260112_234244_NOAA_21_JPSS-2_rec.log

#Pass ID: 20260112_234244_NOAA 21 (JPSS-2)
#Satellite: NOAA 21 (JPSS-2)
#Configuration: NOAA 21
#almurnet v.1.7.20240730
#Start time: 2026-01-12 23:42:44

#Version: 2.2.20231116
#Station: R2M6_AANII_01
#Location: 30.233357 lon 59.946436 lat
#TLE: 1 54234U 22150A   26012.26378519  .00000063  00000+0  50547-4 0  9993
#TLE: 2 54234  98.7495 313.1967 0000726 309.1075  51.0036 14.19534275164425

#Time	Az	El	Level	Level2	SNR	BER	BlckErr	Temp	State	Recorded	gain1	gain2
2026-01-12 23:42:44.39	21.74	7.01	-30.0	-34.7	4.7	1.39e+00	0	40	0	0	20	6151
2026-01-12 23:42:47.40	21.86	7.24	-30.8	-36.1	7.1	1.24e-01	0	39	0	3145728	21	6615
2026-01-12 23:42:50.42	21.97	7.47	-30.4	-35.1	8.2	5.62e-02	0	40	0	12582912	20	6193
2026-01-12 23:42:53.44	22.10	7.70	-30.0	-33.8	9.3	2.01e-02	0	40	0	22020096	20	5549
2026-01-12 23:42:56.46	22.22	7.93	-30.1	-34.0	9.1	2.03e-02	0	40	0	31457280	20	5654
2026-01-12 23:42:59.47	22.34	8.16	-29.4	-32.4	10.7	4.19e-03	0	40	0	40894464	19	5068
2026-01-12 23:43:02.48	22.47	8.40	-28.4	-30.7	12.4	1.93e-04	0	40	0	49283072	17	4701
2026-01-12 23:43:05.51	22.60	8.63	-28.0	-30.2	13.1	3.05e-05	0	40	0	59768832	16	4637
2026-01-12 23:43:08.52	22.72	8.87	-27.9	-30.4	13.1	2.51e-05	0	40	0	69206016	15	4823
2026-01-12 23:43:11.55	22.86	9.12	-27.8	-30.2	13.2	2.82e-05	0	40	0	78643200	15	4763
2026-01-12 23:43:14.55	22.99	9.36	-28.0	-30.2	13.1	2.89e-05	0	40	0	88080384	16	4630
2026-01-12 23:43:17.57	23.12	9.61	-27.7	-30.0	13.4	1.90e-05	0	40	0	96468992	15	4691
2026-01-12 23:43:20.58	23.26	9.86	-27.8	-30.3	13.2	1.52e-05	0	40	0	105906176	15	4772
2026-01-12 23:43:23.61	23.40	10.11	-27.7	-30.1	13.4	1.75e-05	0	40	0	116391936	15	4706
2026-01-12 23:43:26.62	23.54	10.36	-27.7	-30.0	13.4	1.22e-05	0	40	0	124780544	15	4684
2026-01-12 23:43:29.64	23.69	10.62	-26.8	-29.0	13.5	1.06e-05	0	41	0	134217728	15	4620
2026-01-12 23:43:32.66	23.83	10.88	-27.5	-29.4	13.8	5.45e-04	0	41	0	143654912	15	4512
2026-01-12 23:43:35.67	23.98	11.14	-27.6	-29.7	13.4	1.14e-05	0	41	0	153092096	15	4585
2026-01-12 23:43:38.68	24.13	11.40	-27.1	-29.1	14.4	1.43e-03	0	41	0	162529280	14	4507
2026-01-12 23:43:41.70	24.29	11.67	-27.3	-29.5	14.1	2.04e-03	0	41	0	171966464	14	4643
2026-01-12 23:43:44.72	24.44	11.94	-27.2	-29.1	14.4	3.11e-03	0	41	0	181403648	14	4520
2026-01-12 23:43:47.74	24.60	12.22	-27.3	-29.4	14.2	2.17e-03	0	41	0	190840832	14	4594
2026-01-12 23:43:50.77	24.77	12.49	-27.1	-29.0	14.5	2.46e-03	0	41	0	200278016	14	4474
2026-01-12 23:43:53.79	24.93	12.77	-27.1	-29.0	14.5	2.25e-03	0	41	0	209715200	14	4475
2026-01-12 23:43:56.81	25.10	13.05	-27.4	-29.6	14.1	4.69e-04	0	41	0	219152384	14	4675
2026-01-12 23:43:59.83	25.27	13.34	-27.1	-29.0	14.5	1.29e-03	0	41	0	228589568	14	4474
2026-01-12 23:44:02.85	25.44	13.63	-27.0	-28.7	14.7	7.00e-07	0	41	0	238026752	14	4392
2026-01-12 23:44:05.87	25.62	13.92	-27.0	-28.7	14.7	6.89e-04	0	41	0	247463936	14	4388
2026-01-12 23:44:08.89	25.80	14.21	-26.9	-29.0	14.8	0.00e+00	0	41	0	256901120	13	4577
2026-01-12 23:44:11.90	25.98	14.51	-26.8	-28.9	14.9	7.12e-04	0	41	0	266338304	13	4552
2026-01-12 23:44:14.91	26.17	14.81	-27.0	-28.8	14.7	7.00e-07	0	41	0	275775488	14	4427
2026-01-12 23:44:17.92	26.36	15.12	-27.1	-28.9	14.6	7.00e-07	0	41	0	285212672	14	4454
2026-01-12 23:44:20.95	26.55	15.43	-27.3	-29.3	14.4	0.00e+00	0	41	0	294649856	14	4577
2026-01-12 23:44:23.98	26.75	15.74	-27.2	-29.3	14.5	0.00e+00	0	41	0	304087040	14	4554
2026-01-12 23:44:26.98	26.95	16.06	-27.1	-29.0	14.6	7.00e-07	0	41	0	313524224	14	4483
2026-01-12 23:44:30.00	27.16	16.38	-27.2	-29.1	14.6	2.20e-06	0	41	0	322961408	14	4489
2026-01-12 23:44:33.03	27.37	16.70	-27.2	-29.2	14.6	0.00e+00	0	41	0	332398592	14	4522
2026-01-12 23:44:36.04	27.58	17.03	-27.2	-29.1	14.6	0.00e+00	0	41	0	341835776	14	4501
2026-01-12 23:44:39.06	27.80	17.36	-27.1	-29.0	14.7	0.00e+00	0	42	0	351272960	14	4469
2026-01-12 23:44:42.08	28.03	17.70	-26.9	-28.5	15.0	0.00e+00	0	41	0	360710144	14	4310
2026-01-12 23:44:45.11	28.26	18.04	-26.7	-28.6	15.2	0.00e+00	0	41	0	370147328	13	4450
2026-01-12 23:44:48.13	28.49	18.38	-26.8	-28.7	15.1	0.00e+00	0	41	0	379584512	13	4496
2026-01-12 23:44:51.16	28.73	18.74	-26.7	-28.4	15.3	0.00e+00	0	42	0	389021696	13	4409
2026-01-12 23:44:54.17	28.97	19.09	-26.6	-28.2	15.4	0.00e+00	0	41	0	398458880	13	4348
2026-01-12 23:44:57.19	29.22	19.45	-26.5	-27.9	15.6	0.00e+00	0	41	0	407896064	13	4272
2026-01-12 23:45:00.19	29.47	19.81	-26.4	-27.8	15.7	0.00e+00	0	41	0	417333248	13	4241
2026-01-12 23:45:03.21	29.73	20.18	-26.5	-28.1	15.6	0.00e+00	0	41	0	426770432	13	4306
2026-01-12 23:45:06.23	30.00	20.55	-26.6	-28.3	15.5	0.00e+00	0	42	0	436207616	13	4365
2026-01-12 23:45:09.24	30.27	20.93	-26.4	-27.8	15.8	0.00e+00	0	42	0	445644800	13	4225
2026-01-12 23:45:12.26	30.55	21.31	-26.3	-28.1	15.9	3.59e-04	0	42	0	455081984	12	4413
2026-01-12 23:45:15.28	30.84	21.70	-26.3	-28.0	15.9	2.87e-04	0	42	0	464519168	12	4404
2026-01-12 23:45:18.30	31.13	22.10	-26.2	-27.9	16.0	2.80e-04	0	42	0	473956352	12	4359
2026-01-12 23:45:21.32	31.43	22.50	-26.2	-27.9	16.0	2.68e-04	0	42	0	483393536	12	4368
2026-01-12 23:45:24.34	31.74	22.90	-26.0	-27.4	16.3	2.52e-04	0	42	0	492830720	12	4220
2026-01-12 23:45:27.36	32.05	23.31	-25.9	-27.1	16.4	1.81e-04	0	42	0	502267904	12	4160
2026-01-12 23:45:30.38	32.38	23.73	-26.3	-28.1	15.9	0.00e+00	0	42	0	511705088	12	4417
2026-01-12 23:45:33.40	32.71	24.15	-25.7	-26.7	16.6	2.20e-04	0	42	0	521142272	12	4058
2026-01-12 23:45:36.43	33.05	24.58	-25.5	-26.4	16.9	0.00e+00	0	42	0	530579456	12	3967
2026-01-12 23:45:39.45	33.40	25.02	-25.6	-26.6	16.8	0.00e+00	0	41	0	540016640	12	4015
2026-01-12 23:45:42.47	33.76	25.46	-25.8	-27.4	16.7	0.00e+00	0	41	0	549453824	11	4323
2026-01-12 23:45:45.49	34.13	25.91	-25.9	-27.7	16.6	0.00e+00	0	42	0	558891008	11	4413
2026-01-12 23:45:48.51	34.51	26.36	-25.9	-27.3	16.5	0.00e+00	0	42	0	568328192	12	4192
2026-01-12 23:45:51.54	34.90	26.82	-26.1	-27.6	16.3	0.00e+00	0	42	0	577765376	12	4269
2026-01-12 23:45:54.57	35.30	27.29	-26.3	-28.0	16.1	0.00e+00	0	42	0	587202560	12	4381
2026-01-12 23:45:57.59	35.72	27.77	-26.4	-28.3	16.0	0.00e+00	0	42	0	596639744	12	4469
2026-01-12 23:46:00.60	36.14	28.24	-26.8	-28.6	15.5	0.00e+00	0	42	0	606076928	13	4447
2026-01-12 23:46:03.62	36.58	28.73	-27.2	-29.2	14.9	0.00e+00	0	42	0	615514112	14	4489
2026-01-12 23:46:06.65	37.03	29.23	-27.4	-29.5	14.7	7.00e-07	0	42	0	624951296	14	4581
2026-01-12 23:46:09.65	37.49	29.73	-27.7	-29.7	14.3	1.65e-04	0	42	0	634388480	15	4523
2026-01-12 23:46:12.66	37.97	30.23	-27.1	-28.2	15.2	7.00e-07	0	42	0	643825664	15	4127
2026-01-12 23:46:15.67	38.46	30.74	-27.3	-28.8	14.9	0.00e+00	0	42	0	653262848	15	4295
2026-01-12 23:46:18.68	38.97	31.26	-26.8	-28.1	15.6	1.50e-06	0	42	0	662700032	14	4183
2026-01-12 23:46:21.70	39.49	31.79	-26.6	-27.7	15.8	0.00e+00	0	42	0	672137216	14	4094
2026-01-12 23:46:24.70	40.03	32.33	-26.4	-27.3	16.0	7.70e-05	0	42	0	681574400	14	3984
2026-01-12 23:46:27.71	40.59	32.87	-26.6	-27.6	15.9	0.00e+00	0	42	0	691011584	14	4053
2026-01-12 23:46:30.73	41.17	33.42	-27.1	-28.8	15.2	0.00e+00	0	42	0	700448768	14	4368
2026-01-12 23:46:33.75	41.77	33.97	-27.4	-29.5	14.8	0.00e+00	0	42	0	709885952	14	4587
2026-01-12 23:46:36.76	42.39	34.53	-27.6	-29.5	14.5	5.64e-05	0	42	0	719323136	15	4484
2026-01-12 23:46:39.78	43.03	35.10	-27.8	-29.8	14.3	1.18e-04	0	42	0	728760320	15	4574
2026-01-12 23:46:42.80	43.69	35.68	-28.3	-30.6	13.9	7.00e-07	0	42	0	738197504	16	4681
2026-01-12 23:46:45.82	44.38	36.26	-28.5	-30.5	13.6	5.23e-04	0	42	0	747634688	17	4538
2026-01-12 23:46:48.83	45.09	36.85	-28.3	-30.6	13.8	7.60e-06	0	42	0	757071872	16	4696
2026-01-12 23:46:51.86	45.83	37.45	-28.3	-30.1	13.8	3.00e-06	0	42	0	766509056	17	4421
2026-01-12 23:46:54.87	46.59	38.04	-28.1	-29.5	14.2	2.20e-06	0	42	0	775946240	17	4254
2026-01-12 23:46:57.89	47.38	38.65	-28.5	-30.6	13.6	1.06e-05	0	42	0	785383424	17	4579
2026-01-12 23:47:00.91	48.20	39.26	-28.6	-30.8	13.4	1.29e-05	0	42	0	794820608	17	4640
2026-01-12 23:47:03.93	49.06	39.87	-28.6	-30.7	13.5	1.22e-05	0	42	0	804257792	17	4610
2026-01-12 23:47:06.94	49.94	40.49	-28.5	-30.7	13.6	7.60e-06	0	42	0	813694976	17	4588
2026-01-12 23:47:09.95	50.86	41.11	-28.7	-30.9	13.4	1.06e-05	0	42	0	823132160	17	4662
2026-01-12 23:47:12.97	51.81	41.73	-28.8	-31.4	13.1	1.98e-05	0	42	0	832569344	17	4815
2026-01-12 23:47:15.98	52.80	42.35	-28.6	-30.7	13.6	5.30e-06	0	42	0	842006528	17	4585
2026-01-12 23:47:19.00	53.83	42.98	-28.8	-31.3	13.2	2.05e-05	0	42	0	851443712	17	4778
2026-01-12 23:47:22.02	54.90	43.60	-29.2	-31.6	12.7	6.94e-05	0	42	0	860880896	18	4784
2026-01-12 23:47:25.04	56.02	44.23	-29.0	-31.1	13.1	3.50e-05	0	42	0	870318080	18	4611
2026-01-12 23:47:28.05	57.17	44.85	-28.7	-30.5	13.4	1.06e-05	0	42	0	879755264	18	4406
2026-01-12 23:47:31.06	58.37	45.46	-28.9	-31.1	13.1	2.74e-05	0	42	0	889192448	18	4600
2026-01-12 23:47:34.08	59.62	46.08	-29.0	-31.1	13.1	3.50e-05	0	42	0	898629632	18	4603
2026-01-12 23:47:37.10	60.92	46.69	-28.9	-30.9	13.2	1.67e-05	0	42	0	908066816	18	4545
2026-01-12 23:47:40.12	62.27	47.29	-29.1	-31.5	12.9	6.48e-05	0	42	0	917504000	18	4733
2026-01-12 23:47:43.14	63.67	47.88	-28.8	-30.8	13.3	2.13e-05	0	42	0	926941184	18	4521
2026-01-12 23:47:46.15	65.12	48.46	-28.9	-31.5	13.2	5.75e-04	0	42	0	936378368	17	4852
2026-01-12 23:47:49.17	66.63	49.03	-28.9	-31.5	13.2	2.13e-05	0	42	0	945815552	17	4856
2026-01-12 23:47:52.19	68.20	49.58	-29.1	-31.4	13.0	4.65e-05	0	42	0	955252736	18	4698
2026-01-12 23:47:55.20	69.81	50.12	-28.1	-29.5	14.4	1.76e-04	0	42	0	964689920	17	4241
2026-01-12 23:47:58.23	71.50	50.64	-28.1	-29.5	14.3	1.29e-04	0	42	0	974127104	17	4242
2026-01-12 23:48:01.25	73.24	51.14	-28.2	-29.7	14.3	1.17e-04	0	42	0	983564288	17	4282
2026-01-12 23:48:04.26	75.03	51.61	-28.2	-29.8	14.2	7.00e-07	0	42	0	993001472	17	4326
2026-01-12 23:48:07.28	76.88	52.06	-28.1	-29.4	14.5	1.50e-06	0	42	0	1002438656	17	4214
2026-01-12 23:48:10.30	78.78	52.48	-28.3	-30.0	14.1	7.00e-07	0	42	0	1011875840	17	4372
2026-01-12 23:48:13.31	80.73	52.88	-27.8	-28.8	14.7	3.96e-05	0	42	0	1021313024	17	4054
2026-01-12 23:48:16.32	82.74	53.24	-28.6	-30.7	13.7	9.90e-06	0	42	0	1030750208	17	4589
2026-01-12 23:48:19.33	84.79	53.56	-27.7	-29.1	14.8	1.50e-06	0	42	0	1040187392	16	4230
2026-01-12 23:48:22.35	86.89	53.86	-27.0	-28.0	15.6	0.00e+00	0	42	0	1049624576	15	4039
2026-01-12 23:48:25.37	89.03	54.11	-27.5	-29.1	15.1	0.00e+00	0	42	0	1059061760	15	4343
2026-01-12 23:48:28.39	91.21	54.33	-27.5	-29.2	15.0	0.00e+00	0	42	0	1068498944	15	4382
2026-01-12 23:48:31.41	93.41	54.50	-27.1	-28.3	15.5	0.00e+00	0	42	0	1077936128	15	4128
2026-01-12 23:48:34.44	95.65	54.64	-27.2	-28.6	15.3	0.00e+00	0	42	0	1087373312	15	4192
2026-01-12 23:48:37.45	97.89	54.73	-27.3	-28.7	15.3	0.00e+00	0	42	0	1096810496	15	4243
2026-01-12 23:48:40.46	100.15	54.78	-27.3	-28.7	15.3	0.00e+00	0	42	0	1106247680	15	4225
2026-01-12 23:48:43.47	102.40	54.78	-28.1	-30.2	14.3	7.00e-07	0	42	0	1115684864	16	4552
2026-01-12 23:48:46.48	104.66	54.74	-27.4	-28.5	15.3	0.00e+00	0	42	0	1125122048	16	4060
2026-01-12 23:48:49.49	106.90	54.66	-27.2	-28.4	15.5	0.00e+00	0	42	0	1134559232	15	4155
2026-01-12 23:48:52.50	109.13	54.53	-27.2	-29.1	15.4	0.00e+00	0	42	0	1143996416	14	4441
2026-01-12 23:48:55.50	111.33	54.37	-26.9	-28.3	15.9	0.00e+00	0	42	0	1153433600	14	4223
2026-01-12 23:48:58.52	113.52	54.16	-27.1	-28.8	15.6	0.00e+00	0	42	0	1162870784	14	4361
2026-01-12 23:49:01.54	115.67	53.91	-27.3	-29.3	15.3	0.00e+00	0	42	0	1172307968	14	4513
2026-01-12 23:49:04.56	117.78	53.62	-27.3	-28.6	15.4	0.00e+00	0	42	0	1181745152	15	4203
2026-01-12 23:49:07.58	119.85	53.30	-26.9	-27.8	15.9	0.00e+00	0	42	0	1191182336	15	3979
2026-01-12 23:49:10.59	121.86	52.94	-26.8	-28.1	15.9	0.00e+00	0	42	0	1200619520	14	4182
2026-01-12 23:49:13.61	123.84	52.56	-27.6	-29.4	14.9	0.00e+00	0	42	0	1210056704	15	4443
2026-01-12 23:49:16.61	125.74	52.14	-28.5	-30.9	13.9	6.80e-06	0	42	0	1219493888	16	4769
2026-01-12 23:49:19.63	127.61	51.69	-28.3	-29.9	14.2	3.80e-06	0	42	0	1227882496	17	4351
2026-01-12 23:49:22.65	129.41	51.22	-28.2	-29.7	14.3	5.30e-06	0	42	0	1238368256	17	4298
2026-01-12 23:49:25.66	131.16	50.73	-28.4	-30.8	14.0	1.50e-06	0	42	0	1247805440	16	4736
2026-01-12 23:49:28.68	132.85	50.21	-29.0	-31.7	13.2	2.13e-05	0	42	0	1256194048	17	4926
2026-01-12 23:49:31.69	134.49	49.68	-28.5	-30.5	13.8	5.30e-06	0	42	0	1265631232	17	4542
2026-01-12 23:49:34.71	136.07	49.12	-28.7	-31.0	13.5	1.14e-05	0	42	0	1275068416	17	4674
2026-01-12 23:49:37.71	137.58	48.56	-29.1	-31.5	13.0	4.88e-05	0	42	0	1284505600	18	4742
2026-01-12 23:49:40.74	139.05	47.98	-28.9	-31.0	13.3	2.82e-05	0	42	0	1293942784	18	4565
2026-01-12 23:49:43.75	140.47	47.39	-29.2	-31.6	12.9	2.89e-05	0	42	0	1303379968	18	4759
2026-01-12 23:49:46.78	141.83	46.78	-29.3	-31.9	12.7	5.64e-05	0	42	0	1312817152	18	4878
2026-01-12 23:49:49.80	143.14	46.17	-28.8	-31.3	13.4	1.22e-05	0	42	0	1322254336	17	4772
2026-01-12 23:49:52.82	144.41	45.56	-28.8	-31.1	13.5	6.10e-06	0	42	0	1331691520	17	4712
2026-01-12 23:49:55.84	145.62	44.93	-29.3	-32.0	12.6	8.77e-05	0	42	0	1341128704	18	4893
2026-01-12 23:49:58.86	146.79	44.31	-29.8	-32.6	11.9	3.44e-04	0	42	0	1350565888	19	4981
2026-01-12 23:50:01.87	147.91	43.69	-29.6	-32.1	12.3	1.91e-04	0	42	0	1360003072	19	4799
2026-01-12 23:50:04.89	148.99	43.06	-30.1	-33.0	11.3	8.17e-04	0	42	0	1369440256	20	5050
2026-01-12 23:50:07.91	150.03	42.43	-29.7	-32.0	11.8	5.05e-04	0	42	0	1378877440	20	4710
2026-01-12 23:50:10.91	151.03	41.80	-29.3	-31.4	12.6	8.54e-05	0	42	0	1388314624	19	4589
2026-01-12 23:50:13.93	151.99	41.18	-29.3	-31.4	12.6	1.23e-04	0	42	0	1397751808	19	4592
2026-01-12 23:50:16.95	152.92	40.55	-28.9	-30.9	13.3	1.67e-05	0	42	0	1407188992	18	4532
2026-01-12 23:50:19.97	153.81	39.93	-29.1	-31.4	13.0	3.96e-05	0	42	0	1416626176	18	4723
2026-01-12 23:50:22.99	154.67	39.31	-28.6	-30.3	13.6	8.30e-06	0	42	0	1426063360	18	4353
2026-01-12 23:50:26.00	155.50	38.70	-28.6	-30.2	13.6	3.00e-06	0	42	0	1435500544	18	4347
2026-01-12 23:50:29.01	156.29	38.10	-29.1	-31.4	13.0	6.10e-05	0	42	0	1444937728	18	4696
2026-01-12 23:50:32.03	157.06	37.49	-28.9	-31.1	13.2	1.52e-05	0	42	0	1454374912	18	4592
2026-01-12 23:50:35.05	157.81	36.89	-28.2	-30.2	14.2	1.50e-06	0	42	0	1463812096	16	4541
2026-01-12 23:50:38.07	158.52	36.30	-28.1	-30.1	14.3	0.00e+00	0	42	0	1473249280	16	4519
2026-01-12 23:50:41.09	159.22	35.71	-28.3	-30.5	14.0	1.91e-03	0	42	0	1482686464	16	4659
2026-01-12 23:50:44.11	159.89	35.13	-27.3	-29.2	15.2	0.00e+00	0	42	0	1492123648	14	4479
2026-01-12 23:50:47.13	160.53	34.56	-27.4	-29.5	15.0	2.98e-03	0	42	0	1501560832	14	4591
2026-01-12 23:50:50.15	161.15	33.99	-27.3	-29.2	15.1	3.19e-03	0	42	0	1510998016	14	4493
2026-01-12 23:50:53.17	161.76	33.43	-28.3	-30.5	14.0	3.96e-03	0	42	0	1520435200	16	4663
2026-01-12 23:50:56.19	162.34	32.88	-28.0	-29.8	14.3	3.69e-03	0	42	0	1529872384	16	4437
2026-01-12 23:50:59.20	162.90	32.33	-27.0	-28.6	15.4	3.45e-03	0	42	0	1539309568	14	4321
2026-01-12 23:51:02.23	163.45	31.79	-26.5	-28.0	16.0	0.00e+00	0	42	0	1548746752	13	4277
2026-01-12 23:51:05.25	163.98	31.26	-26.8	-28.7	15.6	1.27e-04	0	42	0	1558183936	13	4460
2026-01-12 23:51:08.26	164.49	30.73	-26.9	-29.0	15.5	0.00e+00	0	42	0	1567621120	13	4551
2026-01-12 23:51:11.28	164.99	30.21	-27.0	-28.6	15.4	0.00e+00	0	42	0	1577058304	14	4319
2026-01-12 23:51:14.30	165.47	29.70	-26.8	-28.8	15.6	0.00e+00	0	42	0	1586495488	13	4487
2026-01-12 23:51:17.32	165.93	29.20	-26.8	-28.6	15.6	0.00e+00	0	42	0	1595932672	13	4444
2026-01-12 23:51:20.35	166.39	28.70	-26.6	-28.2	15.8	0.00e+00	0	42	0	1605369856	13	4328
2026-01-12 23:51:23.35	166.82	28.21	-26.5	-28.0	15.9	0.00e+00	0	42	0	1614807040	13	4261
2026-01-12 23:51:26.38	167.25	27.72	-26.5	-28.0	15.9	0.00e+00	0	42	0	1624244224	13	4273
2026-01-12 23:51:29.40	167.67	27.25	-26.5	-28.0	15.9	0.00e+00	0	42	0	1633681408	13	4285
2026-01-12 23:51:32.42	168.07	26.78	-26.4	-28.3	16.0	0.00e+00	0	42	0	1643118592	12	4483
2026-01-12 23:51:35.44	168.46	26.31	-26.4	-28.2	16.1	0.00e+00	0	42	0	1652555776	12	4445
2026-01-12 23:51:38.46	168.84	25.86	-26.4	-28.2	16.1	0.00e+00	0	42	0	1661992960	12	4434
2026-01-12 23:51:41.48	169.21	25.40	-26.4	-28.2	16.1	0.00e+00	0	42	0	1671430144	12	4438
2026-01-12 23:51:44.50	169.57	24.96	-26.4	-28.2	16.1	0.00e+00	0	42	0	1680867328	12	4440
2026-01-12 23:51:47.51	169.92	24.52	-26.7	-28.4	15.7	0.00e+00	0	42	0	1690304512	13	4374
2026-01-12 23:51:50.53	170.26	24.09	-26.4	-27.8	16.0	0.00e+00	0	42	0	1699741696	13	4208
2026-01-12 23:51:53.55	170.59	23.67	-26.7	-28.4	15.6	0.00e+00	0	42	0	1709178880	13	4394
2026-01-12 23:51:56.58	170.92	23.24	-27.2	-29.0	15.0	0.00e+00	0	42	0	1718616064	14	4459
2026-01-12 23:51:59.60	171.24	22.83	-26.7	-28.6	15.6	0.00e+00	0	42	0	1728053248	13	4432
2026-01-12 23:52:02.61	171.54	22.42	-26.8	-28.7	15.5	2.47e-03	0	42	0	1737490432	13	4467
2026-01-12 23:52:05.63	171.84	22.02	-26.5	-28.4	15.9	0.00e+00	0	42	0	1746927616	12	4501
2026-01-12 23:52:08.63	172.13	21.62	-26.7	-28.5	15.5	2.40e-03	0	42	0	1756364800	13	4419
2026-01-12 23:52:11.65	172.42	21.23	-26.4	-27.8	15.9	2.11e-03	0	42	0	1765801984	13	4225
2026-01-12 23:52:14.66	172.70	20.85	-26.5	-28.4	15.8	1.45e-03	0	42	0	1775239168	12	4494
2026-01-12 23:52:17.67	172.97	20.47	-26.7	-28.4	15.6	1.51e-03	0	42	0	1784676352	13	4391
2026-01-12 23:52:20.69	173.24	20.09	-26.5	-28.5	15.8	1.74e-03	0	42	0	1794113536	12	4523
2026-01-12 23:52:23.71	173.50	19.72	-26.6	-28.2	15.6	1.58e-03	0	42	0	1803550720	13	4333
2026-01-12 23:52:26.72	173.75	19.36	-26.6	-28.2	15.6	1.75e-05	0	42	0	1812987904	13	4326
2026-01-12 23:52:29.74	174.00	18.99	-26.5	-28.5	15.8	1.50e-03	0	42	0	1822425088	12	4519
2026-01-12 23:52:32.76	174.24	18.64	-26.6	-28.2	15.6	1.06e-05	0	42	0	1831862272	13	4335
2026-01-12 23:52:35.78	174.48	18.28	-26.6	-28.3	15.5	1.60e-05	0	42	0	1841299456	13	4377
2026-01-12 23:52:38.78	174.71	17.94	-26.8	-28.7	15.3	7.00e-07	0	42	0	1850736640	13	4486
2026-01-12 23:52:41.79	174.94	17.60	-26.7	-28.6	15.4	0.00e+00	0	42	0	1860173824	13	4453
2026-01-12 23:52:44.81	175.16	17.26	-27.1	-28.8	14.9	0.00e+00	0	42	0	1869611008	14	4413
2026-01-12 23:52:47.81	175.37	16.93	-27.2	-29.1	14.8	0.00e+00	0	42	0	1879048192	14	4502
2026-01-12 23:52:50.84	175.59	16.59	-27.2	-29.2	14.7	3.52e-04	0	42	0	1888485376	14	4541
2026-01-12 23:52:53.86	175.80	16.27	-27.2	-29.1	14.8	0.00e+00	0	42	0	1897922560	14	4497
2026-01-12 23:52:56.88	176.00	15.95	-27.2	-29.2	14.7	2.90e-04	0	42	0	1907359744	14	4530
2026-01-12 23:52:59.89	176.20	15.63	-27.3	-29.3	14.6	0.00e+00	0	42	0	1916796928	14	4559
2026-01-12 23:53:02.91	176.40	15.31	-27.4	-29.6	14.5	2.63e-04	0	42	0	1926234112	14	4630
2026-01-12 23:53:05.93	176.59	15.00	-27.5	-29.4	14.3	2.59e-04	0	42	0	1935671296	15	4475
2026-01-12 23:53:08.96	176.78	14.69	-27.4	-29.2	14.3	2.65e-04	0	42	0	1945108480	15	4426
2026-01-12 23:53:11.98	176.97	14.39	-27.4	-29.7	14.4	3.11e-04	0	42	0	1954545664	14	4678
2026-01-12 23:53:15.01	177.15	14.09	-27.9	-30.3	13.7	4.03e-04	0	42	0	1963982848	15	4759
2026-01-12 23:53:18.02	177.33	13.79	-27.9	-30.4	13.6	2.59e-04	0	42	0	1973420032	15	4775
2026-01-12 23:53:21.03	177.50	13.50	-27.7	-29.8	14.0	7.00e-07	0	42	0	1982857216	15	4589
2026-01-12 23:53:24.06	177.68	13.21	-27.6	-29.6	14.0	9.90e-06	0	42	0	1992294400	15	4544
2026-01-12 23:53:27.08	177.85	12.92	-27.5	-29.5	14.1	3.00e-06	0	42	0	2001731584	15	4498
2026-01-12 23:53:30.10	178.01	12.64	-27.8	-30.1	13.8	6.80e-06	0	42	0	2011168768	15	4678
2026-01-12 23:53:33.11	178.17	12.36	-27.9	-30.3	13.6	1.06e-05	0	42	0	2020605952	15	4753
2026-01-12 23:53:36.14	178.33	12.08	-27.8	-29.6	13.9	5.30e-06	0	42	0	2030043136	16	4424
2026-01-12 23:53:39.15	178.49	11.81	-27.6	-29.6	14.0	2.20e-06	0	42	0	2039480320	15	4533
2026-01-12 23:53:42.17	178.65	11.53	-27.6	-29.7	13.9	4.50e-06	0	42	0	2048917504	15	4563
2026-01-12 23:53:45.19	178.80	11.27	-27.5	-29.5	14.0	1.50e-06	0	42	0	2058354688	15	4509
2026-01-12 23:53:48.20	178.95	11.00	-27.6	-29.8	13.8	4.50e-06	0	42	0	2067791872	15	4592
2026-01-12 23:53:51.23	179.09	10.74	-27.7	-29.9	13.7	4.50e-06	0	42	0	2077229056	15	4637
2026-01-12 23:53:54.26	179.24	10.47	-27.7	-29.9	13.7	9.10e-06	0	42	0	2086666240	15	4635
2026-01-12 23:53:57.28	179.38	10.21	-27.7	-29.9	13.7	6.80e-06	0	42	0	2096103424	15	4631
2026-01-12 23:54:00.29	179.52	9.96	-27.7	-29.9	13.6	9.90e-06	0	42	0	2105540608	15	4640
2026-01-12 23:54:03.31	179.66	9.71	-27.7	-29.8	13.7	1.14e-05	0	42	0	2114977792	15	4622
2026-01-12 23:54:06.33	179.79	9.46	-27.8	-30.1	13.5	7.60e-06	0	42	0	2124414976	15	4691
2026-01-12 23:54:09.35	179.93	9.21	-27.8	-30.1	13.5	6.80e-06	0	42	0	2133852160	15	4704
2026-01-12 23:54:12.37	180.06	8.96	-27.8	-30.3	13.4	2.05e-05	0	42	0	2143289344	15	4767
2026-01-12 23:54:15.39	180.19	8.72	-27.8	-30.2	13.4	1.37e-05	0	42	0	2152726528	15	4727
2026-01-12 23:54:18.41	180.31	8.48	-27.9	-30.4	13.2	5.72e-04	0	42	0	2162163712	15	4818
2026-01-12 23:54:21.43	180.44	8.24	-28.2	-30.5	13.0	2.21e-05	0	42	0	2171600896	16	4720
2026-01-12 23:54:24.44	180.56	8.00	-27.9	-30.5	13.1	4.62e-04	0	42	0	2181038080	15	4841
2026-01-12 23:54:27.45	180.68	7.76	-28.4	-31.1	12.6	9.00e-05	0	42	0	2190475264	16	4918
2026-01-12 23:54:30.47	180.80	7.53	-28.4	-31.2	12.1	4.86e-04	0	42	0	2199912448	16	4947
2026-01-12 23:54:33.50	180.92	7.30	-28.5	-31.1	12.2	1.67e-03	0	42	0	2209349632	17	4809
2026-01-12 23:54:36.51	181.04	7.07	-32.5	-44.1	3.8	2.00e-01	0	42	104	2218786816	25	13601
2026-01-12 23:54:39.53	181.15	6.84	-33.1	-45.1	3.8	1.49e+00	0	42	104	2218786816	26	14349

#Closed at: 2026-01-12 23:54:39
#Recorded file [2218 MB]: D:/data/31010_260113_024246.dat