passes_logs/2026/01/12/R2M6_AANII_01/R2M6_AANII_01__20260112_120557_SUOMI_NPP_rec.log

#Pass ID: 20260112_120557_SUOMI NPP
#Satellite: SUOMI NPP
#Configuration: NPP
#almurnet v.1.7.20240730
#Start time: 2026-01-12 12:05:58

#Version: 2.2.20231116
#Station: R2M6_AANII_01
#Location: 30.233357 lon 59.946436 lat
#TLE: 1 37849U 11061A   26011.29776829  .00000112  00000+0  74065-4 0  9999
#TLE: 2 37849  98.7807 313.3784 0002522  70.0451 290.0996 14.19524507736187

#Time	Az	El	Level	Level2	SNR	BER	BlckErr	Temp	State	Recorded	gain1	gain2
2026-01-12 12:05:58.50	216.61	7.09	-30.8	-34.2	5.3	1.18e+00	0	39	0	0	22	5290
2026-01-12 12:06:01.51	216.91	7.27	-31.4	-35.9	7.6	9.37e-02	0	40	0	1048576	23	6023
2026-01-12 12:06:04.52	217.22	7.46	-31.1	-34.3	8.9	3.18e-02	0	40	0	7340032	23	5211
2026-01-12 12:06:07.54	217.53	7.64	-31.1	-34.3	9.0	1.62e-02	0	40	0	12582912	23	5206
2026-01-12 12:06:10.55	217.85	7.83	-30.6	-32.9	10.4	6.55e-03	0	40	0	18874368	22	4720
2026-01-12 12:06:13.56	218.17	8.02	-30.4	-32.4	10.9	2.70e-03	0	40	0	24117248	22	4516
2026-01-12 12:06:16.57	218.49	8.21	-30.6	-33.0	10.4	3.77e-03	0	40	0	29360128	22	4758
2026-01-12 12:06:19.59	218.82	8.40	-30.3	-32.0	11.2	1.90e-03	0	40	0	35651584	22	4367
2026-01-12 12:06:22.60	219.15	8.59	-30.2	-32.0	11.6	8.32e-04	0	40	0	40894464	21	4442
2026-01-12 12:06:25.62	219.49	8.78	-30.1	-31.8	11.8	6.48e-04	0	40	0	46137344	21	4369
2026-01-12 12:06:28.64	219.83	8.97	-30.1	-31.9	11.8	5.59e-04	0	40	0	52428800	21	4411
2026-01-12 12:06:31.65	220.18	9.16	-30.2	-32.1	11.6	7.68e-04	0	40	0	57671680	21	4491
2026-01-12 12:06:34.66	220.53	9.35	-30.1	-31.8	11.9	6.23e-04	0	41	0	63963136	21	4371
2026-01-12 12:06:37.67	220.88	9.54	-30.2	-32.0	11.7	5.39e-04	0	41	0	69206016	21	4447
2026-01-12 12:06:40.68	221.24	9.74	-30.2	-32.0	11.7	4.45e-04	0	41	0	74448896	21	4447
2026-01-12 12:06:43.70	221.60	9.93	-30.3	-32.2	11.6	1.13e-03	0	41	0	80740352	21	4506
2026-01-12 12:06:46.72	221.97	10.13	-30.3	-32.3	11.6	7.16e-04	0	41	0	85983232	21	4541
2026-01-12 12:06:49.73	222.34	10.32	-30.3	-32.2	11.7	7.67e-04	0	41	0	92274688	21	4501
2026-01-12 12:06:52.75	222.72	10.52	-30.1	-31.6	12.2	2.54e-04	0	41	0	97517568	21	4272
2026-01-12 12:06:55.75	223.10	10.71	-29.8	-31.2	12.7	7.78e-05	0	41	0	102760448	20	4245
2026-01-12 12:06:58.77	223.49	10.91	-29.7	-31.0	12.9	5.34e-05	0	41	0	109051904	20	4198
2026-01-12 12:07:01.78	223.88	11.10	-30.2	-32.4	11.9	4.26e-04	0	41	0	114294784	20	4655
2026-01-12 12:07:04.79	224.28	11.30	-29.9	-31.4	12.7	8.69e-05	0	41	0	119537664	20	4309
2026-01-12 12:07:07.80	224.68	11.50	-29.9	-31.6	12.5	1.46e-04	0	41	0	125829120	20	4387
2026-01-12 12:07:10.82	225.09	11.70	-30.2	-32.4	11.9	6.59e-04	0	41	0	131072000	20	4647
2026-01-12 12:07:13.82	225.50	11.89	-29.9	-31.4	12.7	7.70e-05	0	41	0	137363456	20	4313
2026-01-12 12:07:16.85	225.92	12.09	-30.0	-31.9	12.3	1.08e-04	0	41	0	142606336	20	4480
2026-01-12 12:07:19.86	226.34	12.29	-29.8	-31.3	12.8	6.94e-05	0	41	0	147849216	20	4254
2026-01-12 12:07:22.88	226.77	12.49	-29.9	-31.6	12.6	6.71e-05	0	41	0	154140672	20	4361
2026-01-12 12:07:25.90	227.21	12.69	-30.0	-31.9	12.4	1.87e-04	0	41	0	159383552	20	4461
2026-01-12 12:07:28.93	227.65	12.89	-29.8	-31.1	13.0	3.50e-05	0	41	0	165675008	20	4206
2026-01-12 12:07:31.94	228.10	13.09	-29.6	-30.6	13.3	1.83e-05	0	41	0	170917888	20	4062
2026-01-12 12:07:34.95	228.55	13.29	-29.3	-30.3	13.9	3.80e-06	0	41	0	176160768	19	4047
2026-01-12 12:07:37.97	229.01	13.49	-29.3	-30.2	14.0	1.50e-06	0	41	0	182452224	19	4016
2026-01-12 12:07:40.98	229.47	13.68	-29.5	-30.9	13.5	4.50e-06	0	41	0	187695104	19	4220
2026-01-12 12:07:43.99	229.94	13.88	-29.6	-31.2	13.4	7.60e-06	0	42	0	193986560	19	4300
2026-01-12 12:07:47.00	230.42	14.08	-29.4	-30.5	13.9	8.30e-06	0	41	0	199229440	19	4092
2026-01-12 12:07:50.02	230.90	14.28	-29.7	-31.3	13.4	1.37e-05	0	41	0	204472320	19	4325
2026-01-12 12:07:53.04	231.39	14.48	-30.0	-31.6	12.8	8.01e-05	0	41	0	210763776	20	4332
2026-01-12 12:07:56.03	231.89	14.67	-29.9	-31.5	12.9	5.95e-05	0	42	0	216006656	20	4300
2026-01-12 12:07:59.04	232.39	14.87	-29.8	-31.0	13.2	3.58e-05	0	42	0	221249536	20	4153
2026-01-12 12:08:02.05	232.89	15.07	-29.6	-30.7	13.4	1.52e-05	0	41	0	227540992	20	4070
2026-01-12 12:08:05.07	233.41	15.27	-29.7	-30.8	13.3	2.13e-05	0	42	0	232783872	20	4106
2026-01-12 12:08:08.10	233.94	15.46	-29.2	-29.9	14.3	6.80e-06	0	42	0	239075328	19	3926
2026-01-12 12:08:11.11	234.46	15.66	-29.4	-30.4	14.0	5.30e-06	0	42	0	244318208	19	4051
2026-01-12 12:08:14.13	235.00	15.85	-29.2	-30.0	14.3	3.80e-06	0	42	0	249561088	19	3948
2026-01-12 12:08:17.15	235.54	16.05	-29.4	-30.6	13.9	6.10e-06	0	41	0	255852544	19	4099
2026-01-12 12:08:20.15	236.09	16.24	-29.7	-31.2	13.5	1.14e-05	0	42	0	261095424	19	4299
2026-01-12 12:08:23.17	236.65	16.43	-29.7	-31.3	13.5	6.80e-06	0	42	0	267386880	19	4327
2026-01-12 12:08:26.18	237.21	16.62	-29.6	-30.9	13.7	2.20e-06	0	42	0	272629760	19	4182
2026-01-12 12:08:29.19	237.78	16.81	-29.6	-31.0	13.7	3.80e-06	0	42	0	277872640	19	4237
2026-01-12 12:08:32.21	238.35	17.00	-29.6	-31.1	13.6	1.06e-05	0	42	0	284164096	19	4255
2026-01-12 12:08:35.23	238.94	17.19	-29.7	-31.2	13.6	4.50e-06	0	42	0	289406976	19	4290
2026-01-12 12:08:38.24	239.53	17.37	-29.6	-31.0	13.8	4.50e-06	0	42	0	295698432	19	4206
2026-01-12 12:08:41.26	240.13	17.56	-29.6	-31.0	13.8	5.30e-06	0	42	0	300941312	19	4222
2026-01-12 12:08:44.27	240.73	17.74	-29.8	-31.4	13.5	4.50e-06	0	42	0	306184192	19	4342
2026-01-12 12:08:47.29	241.34	17.92	-29.4	-30.5	14.1	3.00e-06	0	42	0	312475648	19	4071
2026-01-12 12:08:50.31	241.96	18.10	-29.7	-31.2	13.7	1.06e-05	0	42	0	317718528	19	4291
2026-01-12 12:08:53.32	242.59	18.27	-29.6	-31.0	13.8	6.10e-06	0	42	0	324009984	19	4207
2026-01-12 12:08:56.33	243.22	18.45	-29.4	-30.3	14.2	7.00e-07	0	42	0	329252864	19	4022
2026-01-12 12:08:59.34	243.86	18.62	-29.8	-31.3	13.6	9.90e-06	0	42	0	334495744	19	4317
2026-01-12 12:09:02.36	244.51	18.79	-29.9	-31.7	13.4	1.14e-05	0	42	0	340787200	19	4416
2026-01-12 12:09:05.37	245.16	18.96	-29.9	-31.2	13.3	1.67e-05	0	42	0	346030080	20	4201
2026-01-12 12:09:08.40	245.83	19.12	-30.4	-32.3	12.2	1.50e-04	0	42	0	352321536	21	4442
2026-01-12 12:09:11.41	246.49	19.29	-30.1	-31.3	12.9	9.30e-05	0	42	0	357564416	21	4130
2026-01-12 12:09:14.43	247.17	19.44	-30.0	-31.0	13.2	2.67e-05	0	42	0	362807296	21	4031
2026-01-12 12:09:17.44	247.85	19.60	-30.4	-32.1	12.4	1.01e-04	0	42	0	369098752	21	4391
2026-01-12 12:09:20.47	248.54	19.76	-30.4	-32.1	12.4	1.16e-04	0	42	0	374341632	21	4390
2026-01-12 12:09:23.48	249.24	19.91	-30.7	-33.1	11.7	5.52e-04	0	42	0	379584512	21	4712
2026-01-12 12:09:26.50	249.94	20.05	-30.8	-33.2	11.7	9.09e-04	0	42	0	385875968	21	4757
2026-01-12 12:09:29.51	250.65	20.20	-30.3	-31.8	12.7	9.91e-05	0	42	0	391118848	21	4281
2026-01-12 12:09:32.53	251.36	20.34	-30.2	-31.5	12.9	5.03e-05	0	42	0	397410304	21	4194
2026-01-12 12:09:35.54	252.08	20.47	-30.1	-31.3	13.0	4.42e-05	0	42	0	402653184	21	4130
2026-01-12 12:09:38.55	252.81	20.60	-30.5	-32.3	12.3	1.88e-04	0	42	0	407896064	21	4462
2026-01-12 12:09:41.57	253.55	20.73	-30.2	-31.4	13.0	5.64e-05	0	42	0	414187520	21	4156
2026-01-12 12:09:44.59	254.29	20.86	-29.9	-30.8	13.4	1.44e-05	0	42	0	419430400	21	3966
2026-01-12 12:09:47.61	255.03	20.98	-30.3	-31.8	12.7	7.70e-05	0	42	0	425721856	21	4273
2026-01-12 12:09:50.63	255.78	21.09	-29.9	-30.7	13.4	1.06e-05	0	42	0	430964736	21	3953
2026-01-12 12:09:53.65	256.54	21.21	-30.5	-32.3	12.4	1.34e-04	0	42	0	436207616	21	4432
2026-01-12 12:09:56.66	257.30	21.31	-29.8	-30.5	13.6	2.67e-05	0	42	0	442499072	21	3893
2026-01-12 12:09:59.67	258.07	21.42	-29.5	-30.0	14.2	1.50e-06	0	42	0	447741952	20	3831
2026-01-12 12:10:02.69	258.84	21.51	-29.7	-30.7	13.8	1.50e-06	0	42	0	454033408	20	4021
2026-01-12 12:10:05.70	259.61	21.61	-29.7	-30.6	13.8	3.80e-06	0	42	0	459276288	20	4012
2026-01-12 12:10:08.71	260.39	21.69	-29.7	-30.7	13.8	3.80e-06	0	42	0	464519168	20	4019
2026-01-12 12:10:11.73	261.18	21.78	-29.7	-30.6	13.8	7.00e-07	0	42	0	470810624	20	4005
2026-01-12 12:10:14.75	261.97	21.85	-29.5	-30.2	14.1	1.50e-06	0	42	0	476053504	20	3899
2026-01-12 12:10:17.76	262.76	21.93	-29.8	-30.8	13.7	2.20e-06	0	42	0	482344960	20	4061
2026-01-12 12:10:20.77	263.55	21.99	-30.0	-31.6	13.3	1.75e-05	0	42	0	487587840	20	4290
2026-01-12 12:10:23.79	264.35	22.05	-29.6	-30.4	14.0	2.20e-06	0	42	0	492830720	20	3930
2026-01-12 12:10:26.80	265.15	22.11	-30.1	-31.7	13.2	1.83e-05	0	42	0	499122176	20	4320
2026-01-12 12:10:29.81	265.95	22.16	-30.1	-31.8	13.1	2.82e-05	0	42	0	504365056	20	4363
2026-01-12 12:10:32.83	266.76	22.20	-30.1	-31.5	13.3	1.67e-05	0	42	0	510656512	20	4276
2026-01-12 12:10:35.85	267.57	22.24	-30.4	-32.6	12.5	1.03e-04	0	42	0	515899392	20	4634
2026-01-12 12:10:38.86	268.38	22.28	-30.2	-31.9	12.9	2.89e-05	0	42	0	521142272	20	4404
2026-01-12 12:10:41.88	269.19	22.30	-30.3	-32.2	12.8	4.73e-05	0	42	0	527433728	20	4498
2026-01-12 12:10:44.91	270.01	22.33	-30.3	-31.7	12.9	9.99e-05	0	42	0	532676608	21	4251
2026-01-12 12:10:47.92	270.82	22.34	-29.9	-31.1	13.5	5.30e-06	0	42	0	538968064	20	4139
2026-01-12 12:10:50.94	271.63	22.35	-29.8	-30.9	13.7	1.37e-05	0	42	0	544210944	20	4073
2026-01-12 12:10:53.96	272.45	22.36	-30.0	-31.4	13.3	1.37e-05	0	42	0	549453824	20	4243
2026-01-12 12:10:56.97	273.26	22.36	-30.8	-33.3	11.7	5.91e-04	0	42	0	555745280	21	4775
2026-01-12 12:10:59.99	274.08	22.35	-30.6	-32.5	12.3	1.91e-04	0	42	0	560988160	21	4498
2026-01-12 12:11:03.01	274.89	22.33	-30.4	-31.9	12.7	9.84e-05	0	42	0	567279616	21	4309
2026-01-12 12:11:06.02	275.71	22.32	-29.6	-30.3	14.1	1.50e-06	0	42	0	572522496	20	3916
2026-01-12 12:11:09.04	276.52	22.29	-29.9	-31.3	13.5	7.60e-06	0	42	0	577765376	20	4195
2026-01-12 12:11:12.04	277.32	22.26	-29.9	-31.0	13.6	1.75e-05	0	42	0	584056832	20	4120
2026-01-12 12:11:15.06	278.13	22.22	-29.7	-30.6	13.9	9.90e-06	0	42	0	589299712	20	3983
2026-01-12 12:11:18.06	278.94	22.18	-29.3	-30.1	14.6	7.00e-07	0	42	0	594542592	19	3928
2026-01-12 12:11:21.07	279.74	22.13	-29.3	-30.1	14.6	0.00e+00	0	42	0	600834048	19	3932
2026-01-12 12:11:24.08	280.54	22.08	-29.5	-30.6	14.3	1.50e-06	0	42	0	606076928	19	4071
2026-01-12 12:11:27.10	281.34	22.02	-29.5	-30.5	14.3	7.00e-07	0	42	0	612368384	19	4035
2026-01-12 12:11:30.12	282.14	21.96	-29.6	-30.8	14.2	2.20e-06	0	42	0	617611264	19	4125
2026-01-12 12:11:33.14	282.93	21.89	-29.7	-31.0	14.0	4.50e-06	0	42	0	622854144	19	4200
2026-01-12 12:11:36.16	283.72	21.81	-29.6	-30.9	14.1	0.00e+00	0	42	0	629145600	19	4153
2026-01-12 12:11:39.17	284.50	21.73	-30.0	-31.4	13.4	2.20e-06	0	42	0	634388480	20	4232
2026-01-12 12:11:42.19	285.28	21.65	-30.1	-31.6	13.2	3.43e-05	0	42	0	640679936	20	4300
2026-01-12 12:11:45.20	286.06	21.56	-30.2	-32.0	12.9	2.13e-05	0	42	0	645922816	20	4440
2026-01-12 12:11:48.22	286.83	21.46	-29.9	-31.0	13.6	1.22e-05	0	42	0	651165696	20	4116
2026-01-12 12:11:51.25	287.60	21.36	-29.5	-30.1	14.2	1.50e-06	0	42	0	657457152	20	3867
2026-01-12 12:11:54.25	288.36	21.26	-29.4	-29.8	14.3	1.50e-06	0	42	0	662700032	20	3769
2026-01-12 12:11:57.26	289.11	21.15	-29.3	-30.1	14.5	0.00e+00	0	42	0	668991488	19	3939
2026-01-12 12:12:00.27	289.86	21.04	-29.6	-30.8	14.1	1.50e-06	0	42	0	674234368	19	4126
2026-01-12 12:12:03.28	290.61	20.92	-29.2	-29.8	14.7	0.00e+00	0	42	0	679477248	19	3867
2026-01-12 12:12:06.29	291.34	20.80	-29.7	-31.0	14.0	7.00e-07	0	42	0	685768704	19	4203
2026-01-12 12:12:09.30	292.08	20.67	-29.6	-30.9	14.0	3.80e-06	0	42	0	691011584	19	4188
2026-01-12 12:12:12.31	292.80	20.54	-29.3	-30.2	14.5	0.00e+00	0	42	0	696254464	19	3968
2026-01-12 12:12:15.31	293.52	20.41	-29.2	-29.9	14.6	0.00e+00	0	42	0	702545920	19	3895
2026-01-12 12:12:18.32	294.24	20.27	-29.2	-29.8	14.7	0.00e+00	0	42	0	707788800	19	3855
2026-01-12 12:12:21.34	294.95	20.13	-29.3	-30.2	14.5	7.00e-07	0	42	0	714080256	19	3960
2026-01-12 12:12:24.34	295.65	19.99	-29.4	-30.4	14.3	1.50e-06	0	42	0	719323136	19	4024
2026-01-12 12:12:27.35	296.34	19.84	-29.7	-31.0	14.0	7.00e-07	0	42	0	724566016	19	4200
2026-01-12 12:12:30.36	297.03	19.69	-29.9	-31.2	13.5	1.44e-05	0	42	0	730857472	20	4170
2026-01-12 12:12:33.37	297.71	19.54	-29.7	-30.6	13.8	6.10e-06	0	42	0	736100352	20	4011
2026-01-12 12:12:36.40	298.39	19.38	-29.3	-30.1	14.5	7.00e-07	0	42	0	742391808	19	3953
2026-01-12 12:12:39.41	299.06	19.22	-29.4	-30.4	14.3	1.50e-06	0	42	0	747634688	19	4031
2026-01-12 12:12:42.42	299.72	19.06	-29.7	-31.2	13.8	7.00e-07	0	42	0	752877568	19	4258
2026-01-12 12:12:45.44	300.38	18.89	-30.4	-32.6	12.5	7.09e-05	0	42	0	759169024	20	4644
2026-01-12 12:12:48.45	301.02	18.72	-30.4	-32.1	12.5	1.60e-04	0	42	0	764411904	21	4367
2026-01-12 12:12:51.47	301.66	18.55	-30.1	-31.2	13.1	5.18e-05	0	42	0	769654784	21	4099
2026-01-12 12:12:54.48	302.30	18.38	-30.3	-31.8	12.7	7.17e-05	0	42	0	775946240	21	4271
2026-01-12 12:12:57.49	302.92	18.21	-30.0	-31.1	13.1	5.72e-05	0	42	0	781189120	21	4053
2026-01-12 12:13:00.51	303.55	18.03	-30.0	-31.1	13.1	1.98e-05	0	42	0	787480576	21	4063
2026-01-12 12:13:03.52	304.16	17.85	-30.0	-30.9	13.3	2.67e-05	0	42	0	792723456	21	4022
2026-01-12 12:13:06.54	304.76	17.67	-30.5	-32.5	12.2	1.78e-04	0	42	0	797966336	21	4520
2026-01-12 12:13:09.54	305.36	17.49	-30.8	-33.3	11.6	6.81e-04	0	42	0	804257792	21	4815
2026-01-12 12:13:12.57	305.96	17.31	-30.9	-33.7	11.3	1.17e-03	0	42	0	809500672	21	4950
2026-01-12 12:13:15.58	306.54	17.12	-31.0	-33.3	11.3	1.51e-03	0	42	0	815792128	22	4704
2026-01-12 12:13:18.60	307.12	16.94	-30.6	-32.2	12.0	2.91e-04	0	42	0	821035008	22	4345
2026-01-12 12:13:21.62	307.69	16.75	-30.7	-32.5	11.8	6.55e-04	0	42	0	826277888	22	4442
2026-01-12 12:13:24.63	308.25	16.56	-30.5	-31.8	12.2	2.08e-04	0	42	0	832569344	22	4216
2026-01-12 12:13:27.65	308.81	16.37	-30.1	-31.4	12.8	3.12e-05	0	42	0	837812224	21	4164
2026-01-12 12:13:30.67	309.36	16.18	-30.1	-31.3	12.9	6.40e-05	0	42	0	844103680	21	4133
2026-01-12 12:13:33.68	309.90	15.99	-30.1	-31.3	12.9	4.80e-05	0	42	0	849346560	21	4128
2026-01-12 12:13:36.69	310.44	15.80	-30.2	-31.7	12.6	5.18e-05	0	42	0	854589440	21	4254
2026-01-12 12:13:39.71	310.97	15.60	-30.5	-32.5	12.0	2.33e-04	0	42	0	860880896	21	4540
2026-01-12 12:13:42.73	311.50	15.41	-30.5	-32.6	11.9	3.12e-04	0	42	0	866123776	21	4582
2026-01-12 12:13:45.75	312.01	15.22	-30.5	-32.4	12.0	4.83e-04	0	42	0	872415232	21	4517
2026-01-12 12:13:48.76	312.52	15.02	-30.3	-31.9	12.5	1.58e-04	0	42	0	877658112	21	4320
2026-01-12 12:13:51.78	313.03	14.83	-30.6	-32.7	11.9	3.72e-04	0	42	0	882900992	21	4613
2026-01-12 12:13:54.80	313.53	14.63	-30.2	-31.7	12.4	2.68e-04	0	42	0	889192448	21	4281
2026-01-12 12:13:57.82	314.02	14.43	-29.8	-30.6	13.3	2.21e-05	0	42	0	894435328	21	3924
2026-01-12 12:14:00.83	314.50	14.24	-30.1	-31.4	12.7	5.95e-05	0	42	0	899678208	21	4173
2026-01-12 12:14:03.85	314.98	14.04	-30.6	-32.9	11.6	7.87e-04	0	42	0	905969664	21	4701
2026-01-12 12:14:06.87	315.45	13.84	-30.5	-32.6	11.9	6.64e-04	0	42	0	911212544	21	4590
2026-01-12 12:14:09.88	315.92	13.64	-29.9	-30.8	13.0	4.19e-05	0	42	0	917504000	21	4013
2026-01-12 12:14:12.90	316.38	13.45	-29.6	-30.6	13.6	9.90e-06	0	42	0	922746880	20	4011
2026-01-12 12:14:15.92	316.84	13.25	-29.5	-30.2	13.7	5.30e-06	0	42	0	927989760	20	3925
2026-01-12 12:14:18.92	317.28	13.05	-29.5	-30.2	13.7	3.80e-06	0	42	0	934281216	20	3926
2026-01-12 12:14:21.94	317.73	12.86	-29.6	-30.5	13.6	3.80e-06	0	42	0	939524096	20	3997
2026-01-12 12:14:24.96	318.16	12.66	-30.0	-31.6	12.9	3.43e-05	0	42	0	945815552	20	4321
2026-01-12 12:14:27.97	318.59	12.46	-30.3	-32.6	12.1	3.00e-04	0	42	0	951058432	20	4676
2026-01-12 12:14:30.99	319.02	12.26	-30.3	-32.7	12.1	2.31e-04	0	42	0	956301312	20	4698
2026-01-12 12:14:34.00	319.44	12.07	-30.3	-32.4	12.2	2.27e-04	0	42	0	962592768	20	4630
2026-01-12 12:14:37.02	319.86	11.87	-30.4	-32.8	11.9	3.56e-04	0	42	0	967835648	20	4765
2026-01-12 12:14:40.04	320.27	11.68	-30.7	-33.2	11.3	8.26e-04	0	42	0	974127104	21	4803
2026-01-12 12:14:43.06	320.67	11.48	-30.2	-31.6	12.4	1.60e-04	0	42	0	979369984	21	4263
2026-01-12 12:14:46.08	321.07	11.28	-29.8	-30.6	13.1	5.11e-05	0	42	0	984612864	21	3954
2026-01-12 12:14:49.10	321.47	11.09	-29.7	-30.8	13.2	2.89e-05	0	42	0	990904320	20	4086
2026-01-12 12:14:52.11	321.85	10.89	-29.9	-31.4	12.8	4.11e-05	0	42	0	996147200	20	4282
2026-01-12 12:14:55.12	322.24	10.70	-30.0	-31.8	12.5	7.62e-05	0	42	0	1002438656	20	4415
2026-01-12 12:14:58.13	322.62	10.51	-30.0	-31.7	12.6	9.23e-05	0	42	0	1007681536	20	4389
2026-01-12 12:15:01.13	322.99	10.31	-30.1	-32.0	12.4	1.72e-04	0	42	0	1012924416	20	4479
2026-01-12 12:15:04.15	323.36	10.12	-30.4	-33.0	11.6	5.80e-04	0	42	0	1019215872	20	4855
2026-01-12 12:15:07.16	323.72	9.93	-30.6	-33.1	11.2	1.18e-03	0	42	0	1024458752	21	4811
2026-01-12 12:15:10.18	324.09	9.74	-30.7	-33.5	10.9	2.11e-03	0	42	0	1029701632	21	4938
2026-01-12 12:15:13.19	324.44	9.55	-30.0	-31.2	12.5	1.56e-04	0	42	0	1035993088	21	4149
2026-01-12 12:15:16.20	324.79	9.36	-29.7	-30.9	13.0	2.36e-05	0	42	0	1041235968	20	4137
2026-01-12 12:15:19.21	325.14	9.17	-29.7	-31.0	13.0	5.72e-05	0	42	0	1047527424	20	4167
2026-01-12 12:15:22.22	325.48	8.98	-30.0	-31.8	12.4	9.84e-05	0	42	0	1052770304	20	4421
2026-01-12 12:15:25.23	325.82	8.79	-30.3	-32.7	11.8	4.26e-04	0	42	0	1058013184	20	4759
2026-01-12 12:15:28.24	326.15	8.60	-30.5	-32.9	11.3	9.46e-04	0	42	0	1064304640	21	4716
2026-01-12 12:15:31.25	326.48	8.41	-30.6	-33.1	11.0	1.68e-03	0	42	0	1069547520	21	4831
2026-01-12 12:15:34.26	326.81	8.23	-30.8	-34.0	10.3	5.75e-03	0	42	0	1075838976	21	5200
2026-01-12 12:15:37.28	327.13	8.04	-31.1	-34.4	9.8	9.50e-03	0	42	0	1081081856	22	5264
2026-01-12 12:15:40.29	327.45	7.85	-31.1	-34.4	9.7	1.45e-02	0	42	0	1086324736	22	5265
2026-01-12 12:15:43.30	327.77	7.67	-31.1	-34.5	9.6	1.37e-02	0	42	0	1092616192	22	5313
2026-01-12 12:15:46.32	328.08	7.48	-30.8	-33.6	10.2	9.64e-03	0	42	0	1097859072	22	4929
2026-01-12 12:15:49.33	328.38	7.30	-31.0	-34.1	9.9	6.69e-03	0	42	0	1103101952	22	5137
2026-01-12 12:15:52.34	328.69	7.12	-30.9	-34.0	9.9	7.46e-03	0	42	0	1109393408	22	5138
2026-01-12 12:15:55.36	328.99	6.93	-33.4	-46.1	3.8	1.49e+00	0	42	104	1111490560	26	15431

#Closed at: 2026-01-12 12:15:56
#Recorded file [1111 MB]: D:/data/31010_260112_150600.dat