passes_logs/2026/01/12/R2M6_AANII_01/R2M6_AANII_01__20260112_102354_SUOMI_NPP_rec.log

#Pass ID: 20260112_102354_SUOMI NPP
#Satellite: SUOMI NPP
#Configuration: NPP
#almurnet v.1.7.20240730
#Start time: 2026-01-12 10:23:56

#Version: 2.2.20231116
#Station: R2M6_AANII_01
#Location: 30.233357 lon 59.946436 lat
#TLE: 1 37849U 11061A   26011.29776829  .00000112  00000+0  74065-4 0  9999
#TLE: 2 37849  98.7807 313.3784 0002522  70.0451 290.0996 14.19524507736187

#Time	Az	El	Level	Level2	SNR	BER	BlckErr	Temp	State	Recorded	gain1	gain2
2026-01-12 10:23:56.55	160.33	7.16	-31.5	-36.7	4.6	1.37e+00	0	39	0	0	24	6591
2026-01-12 10:23:59.57	160.34	7.39	-31.3	-35.7	7.2	1.55e-01	0	40	0	1048576	24	5970
2026-01-12 10:24:02.59	160.36	7.63	-31.2	-35.9	7.3	1.36e-01	0	40	0	7340032	23	6181
2026-01-12 10:24:05.60	160.37	7.87	-31.2	-35.8	7.5	1.21e-01	0	40	0	12582912	23	6129
2026-01-12 10:24:08.62	160.39	8.11	-30.9	-34.4	8.6	3.75e-02	0	40	0	18874368	23	5398
2026-01-12 10:24:11.64	160.41	8.36	-30.8	-34.2	8.8	2.90e-02	0	40	0	24117248	23	5276
2026-01-12 10:24:14.65	160.42	8.61	-30.9	-34.6	8.9	2.92e-02	0	40	0	29360128	22	5570
2026-01-12 10:24:17.65	160.44	8.86	-30.8	-34.4	9.1	2.84e-02	0	40	0	35651584	22	5452
2026-01-12 10:24:20.67	160.45	9.11	-30.7	-33.8	9.6	1.20e-02	0	40	0	40894464	22	5163
2026-01-12 10:24:23.68	160.47	9.36	-30.8	-34.1	9.3	2.21e-02	0	40	0	46137344	22	5302
2026-01-12 10:24:26.70	160.49	9.62	-30.7	-34.0	9.5	1.69e-02	0	41	0	52428800	22	5260
2026-01-12 10:24:29.72	160.50	9.88	-30.8	-34.4	9.2	1.52e-02	0	40	0	57671680	22	5415
2026-01-12 10:24:32.74	160.52	10.15	-30.5	-33.3	10.0	7.79e-03	0	41	0	63963136	22	4958
2026-01-12 10:24:35.76	160.54	10.42	-30.6	-33.5	10.0	7.85e-03	0	41	0	69206016	22	5036
2026-01-12 10:24:38.77	160.56	10.68	-30.5	-33.1	10.2	6.12e-03	0	41	0	74448896	22	4846
2026-01-12 10:24:41.78	160.57	10.96	-30.3	-33.0	10.6	2.92e-03	0	41	0	80740352	21	4911
2026-01-12 10:24:44.79	160.59	11.23	-30.4	-33.1	10.7	2.92e-03	0	41	0	85983232	21	4903
2026-01-12 10:24:47.81	160.61	11.51	-30.6	-33.5	10.5	4.86e-03	0	41	0	92274688	21	5023
2026-01-12 10:24:50.82	160.63	11.79	-30.8	-34.2	9.9	7.74e-03	0	41	0	97517568	21	5354
2026-01-12 10:24:53.83	160.64	12.08	-30.8	-33.9	9.8	7.12e-03	0	41	0	102760448	22	5097
2026-01-12 10:24:56.84	160.66	12.36	-30.9	-34.0	9.8	1.05e-02	0	41	0	109051904	22	5173
2026-01-12 10:24:59.86	160.68	12.66	-31.0	-34.3	9.6	1.45e-02	0	41	0	114294784	22	5296
2026-01-12 10:25:02.88	160.70	12.95	-31.2	-34.9	9.2	2.25e-02	0	41	0	120586240	22	5556
2026-01-12 10:25:05.89	160.72	13.25	-31.3	-35.4	8.8	3.73e-02	0	41	0	125829120	22	5762
2026-01-12 10:25:08.90	160.74	13.55	-31.1	-34.6	9.5	1.68e-02	0	41	0	131072000	22	5391
2026-01-12 10:25:11.92	160.76	13.86	-31.2	-35.1	9.1	1.89e-02	0	41	0	137363456	22	5616
2026-01-12 10:25:14.93	160.78	14.17	-31.4	-35.8	8.5	2.83e-02	0	41	0	142606336	22	6002
2026-01-12 10:25:17.94	160.80	14.48	-30.8	-33.6	10.2	8.16e-03	0	41	0	147849216	22	4952
2026-01-12 10:25:20.95	160.81	14.80	-29.9	-31.3	12.2	3.84e-04	0	41	0	154140672	21	4211
2026-01-12 10:25:23.96	160.83	15.12	-29.6	-30.9	12.9	5.79e-05	0	41	0	159383552	20	4176
2026-01-12 10:25:26.98	160.86	15.45	-29.7	-31.0	12.8	5.56e-05	0	41	0	165675008	20	4211
2026-01-12 10:25:29.99	160.88	15.78	-29.7	-31.0	12.9	6.10e-05	0	41	0	170917888	20	4183
2026-01-12 10:25:33.01	160.90	16.12	-29.9	-31.6	12.5	7.62e-05	0	41	0	176160768	20	4393
2026-01-12 10:25:36.03	160.92	16.46	-29.9	-31.7	12.5	5.95e-05	0	42	0	182452224	20	4419
2026-01-12 10:25:39.05	160.94	16.81	-29.5	-30.4	13.4	2.82e-05	0	42	0	187695104	20	3992
2026-01-12 10:25:42.07	160.96	17.16	-29.4	-30.0	13.6	1.06e-05	0	42	0	193986560	20	3898
2026-01-12 10:25:45.07	160.98	17.51	-29.2	-30.2	13.9	5.30e-06	0	42	0	199229440	19	4025
2026-01-12 10:25:48.08	161.00	17.87	-29.3	-30.3	13.9	3.00e-06	0	41	0	204472320	19	4056
2026-01-12 10:25:51.10	161.03	18.24	-29.1	-29.8	14.2	7.00e-07	0	41	0	210763776	19	3899
2026-01-12 10:25:54.11	161.05	18.61	-29.0	-29.5	14.5	7.00e-07	0	42	0	216006656	19	3824
2026-01-12 10:25:57.13	161.07	18.99	-29.0	-29.5	14.4	0.00e+00	0	42	0	222298112	19	3824
2026-01-12 10:26:00.13	161.10	19.37	-28.9	-29.4	14.6	0.00e+00	0	42	0	227540992	19	3771
2026-01-12 10:26:03.14	161.12	19.76	-29.0	-29.5	14.5	2.20e-06	0	42	0	232783872	19	3822
2026-01-12 10:26:06.15	161.14	20.16	-29.2	-30.0	14.2	7.00e-07	0	42	0	239075328	19	3940
2026-01-12 10:26:09.15	161.17	20.56	-29.1	-29.8	14.3	2.20e-06	0	42	0	244318208	19	3881
2026-01-12 10:26:12.17	161.19	20.97	-29.2	-30.0	14.2	4.50e-06	0	42	0	249561088	19	3933
2026-01-12 10:26:15.18	161.22	21.38	-29.2	-29.9	14.4	2.20e-06	0	42	0	255852544	19	3909
2026-01-12 10:26:18.19	161.25	21.80	-29.3	-30.2	14.2	3.00e-06	0	42	0	261095424	19	4014
2026-01-12 10:26:21.20	161.27	22.23	-29.5	-30.7	13.8	3.00e-06	0	42	0	267386880	19	4161
2026-01-12 10:26:24.22	161.30	22.67	-29.5	-30.7	13.8	7.60e-06	0	42	0	272629760	19	4154
2026-01-12 10:26:27.23	161.33	23.11	-29.5	-30.9	13.7	9.90e-06	0	42	0	277872640	19	4212
2026-01-12 10:26:30.24	161.35	23.57	-29.9	-31.9	13.1	3.50e-05	0	42	0	284164096	19	4519
2026-01-12 10:26:33.25	161.38	24.03	-30.3	-32.4	12.5	7.09e-05	0	42	0	289406976	20	4592
2026-01-12 10:26:36.26	161.41	24.49	-30.2	-32.1	12.6	8.31e-05	0	42	0	295698432	20	4489
2026-01-12 10:26:39.28	161.44	24.97	-29.9	-31.2	13.2	5.49e-05	0	42	0	300941312	20	4220
2026-01-12 10:26:42.29	161.47	25.46	-29.6	-30.5	13.7	6.80e-06	0	42	0	306184192	20	3991
2026-01-12 10:26:45.30	161.50	25.95	-29.6	-30.5	13.6	1.14e-05	0	42	0	312475648	20	4011
2026-01-12 10:26:48.30	161.53	26.45	-29.9	-31.3	13.2	9.90e-06	0	42	0	317718528	20	4238
2026-01-12 10:26:51.31	161.56	26.97	-30.3	-32.5	12.4	1.14e-04	0	42	0	322961408	20	4610
2026-01-12 10:26:54.32	161.60	27.49	-29.9	-31.3	13.2	4.11e-05	0	42	0	329252864	20	4228
2026-01-12 10:26:57.34	161.63	28.03	-29.9	-31.1	13.3	2.36e-05	0	42	0	334495744	20	4171
2026-01-12 10:27:00.36	161.66	28.57	-30.2	-32.1	12.7	3.96e-05	0	42	0	340787200	20	4494
2026-01-12 10:27:03.38	161.70	29.13	-30.4	-32.2	12.3	1.88e-04	0	42	0	346030080	21	4438
2026-01-12 10:27:06.39	161.74	29.69	-30.3	-31.9	12.5	1.37e-04	0	42	0	351272960	21	4335
2026-01-12 10:27:09.41	161.77	30.27	-30.4	-32.3	12.2	1.91e-04	0	42	0	357564416	21	4457
2026-01-12 10:27:12.42	161.81	30.86	-30.5	-32.5	12.2	6.46e-04	0	42	0	362807296	21	4524
2026-01-12 10:27:15.44	161.85	31.46	-30.9	-33.2	11.4	8.02e-04	0	42	0	369098752	22	4658
2026-01-12 10:27:18.46	161.89	32.08	-30.7	-32.5	11.9	2.37e-04	0	42	0	374341632	22	4436
2026-01-12 10:27:21.46	161.93	32.71	-30.6	-32.1	12.2	2.78e-04	0	42	0	379584512	22	4284
2026-01-12 10:27:24.47	161.97	33.35	-31.0	-33.4	11.3	8.29e-04	0	42	0	385875968	22	4755
2026-01-12 10:27:27.49	162.02	34.00	-30.8	-32.7	11.9	5.60e-04	0	42	0	391118848	22	4482
2026-01-12 10:27:30.50	162.06	34.67	-30.5	-31.9	12.3	4.43e-04	0	42	0	397410304	22	4217
2026-01-12 10:27:33.52	162.11	35.36	-29.7	-30.6	13.9	3.80e-06	0	42	0	402653184	20	4012
2026-01-12 10:27:36.54	162.16	36.06	-29.5	-30.1	14.2	1.50e-06	0	42	0	407896064	20	3860
2026-01-12 10:27:39.56	162.21	36.77	-29.2	-29.7	14.7	0.00e+00	0	42	0	414187520	19	3841
2026-01-12 10:27:42.58	162.26	37.50	-28.9	-29.2	15.1	0.00e+00	0	42	0	419430400	19	3695
2026-01-12 10:27:45.60	162.32	38.25	-29.0	-29.3	15.0	0.00e+00	0	42	0	425721856	19	3732
2026-01-12 10:27:48.61	162.37	39.01	-28.9	-29.5	15.2	0.00e+00	0	42	0	430964736	18	3862
2026-01-12 10:27:51.62	162.43	39.79	-29.5	-31.0	14.3	0.00e+00	0	42	0	436207616	18	4311
2026-01-12 10:27:54.64	162.49	40.59	-29.6	-30.9	14.0	7.00e-07	0	42	0	442499072	19	4188
2026-01-12 10:27:57.66	162.55	41.41	-29.7	-30.7	13.8	1.06e-05	0	42	0	447741952	20	4039
2026-01-12 10:28:00.67	162.62	42.25	-29.4	-30.3	14.4	1.50e-06	0	42	0	454033408	19	4013
2026-01-12 10:28:03.67	162.69	43.10	-29.3	-30.0	14.7	0.00e+00	0	42	0	459276288	19	3904
2026-01-12 10:28:06.69	162.76	43.97	-29.3	-30.0	14.7	7.00e-07	0	42	0	464519168	19	3903
2026-01-12 10:28:09.70	162.84	44.86	-29.8	-31.4	13.8	3.00e-06	0	42	0	470810624	19	4326
2026-01-12 10:28:12.71	162.92	45.78	-30.5	-32.5	12.3	1.53e-04	0	42	0	476053504	21	4501
2026-01-12 10:28:15.71	163.00	46.71	-30.7	-32.9	12.1	1.60e-04	0	42	0	481296384	21	4635
2026-01-12 10:28:18.73	163.09	47.67	-30.8	-33.1	12.0	2.84e-04	0	42	0	487587840	21	4688
2026-01-12 10:28:21.74	163.18	48.65	-30.9	-32.9	11.8	7.04e-04	0	42	0	492830720	22	4538
2026-01-12 10:28:24.75	163.28	49.65	-30.6	-32.1	12.4	1.59e-04	0	42	0	499122176	22	4279
2026-01-12 10:28:27.77	163.38	50.67	-30.0	-30.8	13.4	1.37e-05	0	42	0	504365056	21	3963
2026-01-12 10:28:30.78	163.50	51.72	-29.4	-29.9	14.4	7.00e-07	0	42	0	509607936	20	3796
2026-01-12 10:28:33.79	163.61	52.79	-29.4	-30.2	14.6	7.00e-07	0	42	0	515899392	19	3954
2026-01-12 10:28:36.80	163.74	53.88	-29.5	-30.5	14.5	7.00e-07	0	42	0	521142272	19	4052
2026-01-12 10:28:39.82	163.88	55.00	-29.7	-30.5	14.0	1.83e-05	0	42	0	527433728	20	3960
2026-01-12 10:28:42.83	164.02	56.14	-28.2	-28.2	16.3	0.00e+00	0	42	0	532676608	17	3626
2026-01-12 10:28:45.84	164.18	57.30	-28.2	-28.4	16.3	0.00e+00	0	42	0	537919488	17	3674
2026-01-12 10:28:48.86	164.35	58.49	-29.2	-30.3	14.9	0.00e+00	0	42	0	544210944	18	4064
2026-01-12 10:28:51.87	164.54	59.70	-29.0	-29.1	15.4	0.00e+00	0	42	0	549453824	19	3660
2026-01-12 10:28:54.88	164.75	60.94	-28.5	-28.6	16.0	0.00e+00	0	42	0	554696704	18	3629
2026-01-12 10:28:57.89	164.97	62.20	-27.3	-26.7	17.6	0.00e+00	0	42	0	560988160	16	3363
2026-01-12 10:29:00.91	165.22	63.48	-27.7	-28.1	16.9	0.00e+00	0	42	0	566231040	15	3780
2026-01-12 10:29:03.92	165.49	64.79	-28.6	-29.1	15.9	0.00e+00	0	42	0	572522496	17	3852
2026-01-12 10:29:06.93	165.80	66.11	-29.3	-30.4	15.0	0.00e+00	0	42	0	577765376	18	4079
2026-01-12 10:29:09.94	166.15	67.46	-28.7	-29.0	15.8	0.00e+00	0	42	0	583008256	18	3708
2026-01-12 10:29:12.95	166.55	68.83	-31.5	-34.6	10.8	2.40e-04	0	42	0	589299712	22	5149
2026-01-12 10:29:15.96	167.00	70.22	-31.4	-33.7	11.0	1.65e-03	0	42	0	594542592	23	4732
2026-01-12 10:29:18.97	167.52	71.63	-31.2	-33.1	11.5	1.41e-03	0	42	0	600834048	23	4486
2026-01-12 10:29:21.98	168.14	73.05	-29.5	-30.0	14.6	0.00e+00	0	42	0	606076928	20	3813
2026-01-12 10:29:25.00	168.88	74.50	-29.5	-30.5	14.6	1.50e-06	0	42	0	611319808	19	4017
2026-01-12 10:29:28.02	169.77	75.96	-31.2	-33.7	11.5	7.50e-04	0	42	0	617611264	22	4802
2026-01-12 10:29:31.04	170.88	77.43	-29.6	-30.3	14.4	6.80e-06	0	42	0	622854144	20	3869
2026-01-12 10:29:34.05	172.28	78.90	-31.3	-33.6	11.3	1.20e-03	0	42	0	628097024	23	4642
2026-01-12 10:29:37.06	174.12	80.38	-30.9	-32.2	12.2	1.40e-03	0	42	0	634388480	23	4163
2026-01-12 10:29:40.07	176.64	81.85	-32.4	-36.8	8.7	2.27e-02	0	42	0	639631360	24	5941
2026-01-12 10:29:43.08	180.27	83.31	-32.0	-35.3	9.6	1.98e-02	0	42	0	645922816	24	5251
2026-01-12 10:29:46.09	185.91	84.74	-31.6	-34.2	11.1	4.39e-04	0	42	0	651165696	23	4858
2026-01-12 10:29:49.11	195.63	86.09	-31.6	-34.0	11.3	4.10e-04	0	42	0	656408576	23	4766
2026-01-12 10:29:52.12	214.21	87.22	-33.0	-38.1	7.0	1.33e-01	0	42	0	662700032	26	6459
2026-01-12 10:29:55.14	248.24	87.77	-31.9	-34.4	10.6	5.30e-03	0	42	0	667942912	24	4845
2026-01-12 10:29:58.16	283.99	87.34	-30.6	-31.6	13.1	1.31e-03	0	42	0	674234368	22	4065
2026-01-12 10:30:01.16	304.28	86.26	-31.2	-33.1	11.7	7.50e-03	0	42	0	679477248	23	4455
2026-01-12 10:30:04.17	314.81	84.94	-30.8	-32.3	12.6	5.00e-04	0	42	0	684720128	22	4276
2026-01-12 10:30:07.18	320.85	83.52	-30.5	-32.2	13.0	6.10e-05	0	42	0	691011584	21	4337
2026-01-12 10:30:10.19	324.69	82.06	-30.8	-33.0	12.6	4.73e-05	0	42	0	696254464	21	4599
2026-01-12 10:30:13.21	327.33	80.58	-29.6	-30.2	14.5	2.20e-06	0	42	0	702545920	20	3834
2026-01-12 10:30:16.22	329.25	79.11	-30.7	-32.5	12.8	5.30e-06	0	42	0	707788800	21	4457
2026-01-12 10:30:19.22	330.69	77.64	-30.4	-31.9	13.3	2.20e-06	0	42	0	713031680	21	4249
2026-01-12 10:30:22.24	331.84	76.17	-29.2	-29.7	15.2	3.00e-06	0	42	0	719323136	19	3791
2026-01-12 10:30:25.26	332.76	74.71	-31.2	-33.5	11.6	6.63e-05	0	42	0	724566016	22	4722
2026-01-12 10:30:28.28	333.51	73.27	-30.0	-30.7	13.8	4.50e-06	0	42	0	729808896	21	3910
2026-01-12 10:30:31.29	334.15	71.84	-31.5	-33.9	11.0	5.48e-03	0	42	0	736100352	23	4790
2026-01-12 10:30:34.30	334.68	70.44	-31.8	-34.7	10.0	1.28e-02	0	42	0	741343232	24	5028
2026-01-12 10:30:37.31	335.15	69.05	-29.9	-30.6	13.9	1.52e-05	0	42	0	747634688	21	3877
2026-01-12 10:30:40.33	335.55	67.67	-30.6	-32.0	12.6	4.03e-04	0	42	0	752877568	22	4202
2026-01-12 10:30:43.35	335.90	66.32	-31.3	-32.9	11.2	3.09e-03	0	42	0	758120448	24	4334
2026-01-12 10:30:46.36	336.22	64.99	-30.2	-31.4	13.3	6.17e-05	0	42	0	764411904	21	4140
2026-01-12 10:30:49.37	336.50	63.69	-30.8	-33.0	12.3	3.96e-05	0	42	0	769654784	21	4633
2026-01-12 10:30:52.39	336.75	62.40	-29.5	-30.1	14.5	1.50e-06	0	42	0	775946240	20	3842
2026-01-12 10:30:55.40	336.98	61.15	-30.4	-32.4	13.0	3.80e-06	0	42	0	781189120	20	4538
2026-01-12 10:30:58.41	337.19	59.91	-30.3	-31.6	12.2	2.80e-03	0	42	0	786432000	22	4219
2026-01-12 10:31:01.42	337.38	58.70	-30.4	-31.9	12.9	6.63e-05	0	42	0	792723456	21	4284
2026-01-12 10:31:04.43	337.55	57.51	-30.5	-32.3	12.6	1.22e-05	0	42	0	797966336	21	4419
2026-01-12 10:31:07.44	337.71	56.35	-27.8	-27.9	16.9	0.00e+00	0	42	0	803209216	16	3624
2026-01-12 10:31:10.44	337.86	55.21	-28.9	-29.4	15.5	0.00e+00	0	42	0	809500672	18	3817
2026-01-12 10:31:13.45	338.00	54.10	-30.7	-32.9	12.1	1.04e-04	0	42	0	814743552	21	4617
2026-01-12 10:31:16.46	338.13	53.01	-29.7	-30.5	14.0	5.30e-06	0	42	0	821035008	20	3963
2026-01-12 10:31:19.47	338.25	51.94	-31.0	-33.3	11.5	7.63e-04	0	42	0	826277888	22	4685
2026-01-12 10:31:22.49	338.36	50.89	-31.2	-33.4	11.0	3.18e-03	0	42	0	831520768	23	4635
2026-01-12 10:31:25.51	338.47	49.86	-30.6	-32.0	12.4	4.55e-04	0	42	0	837812224	22	4225
2026-01-12 10:31:28.53	338.57	48.86	-31.2	-33.9	11.1	5.87e-04	0	42	0	843055104	22	4914
2026-01-12 10:31:31.55	338.66	47.88	-31.5	-34.0	10.2	4.83e-02	0	42	0	849346560	24	4800
2026-01-12 10:31:34.56	338.75	46.92	-29.4	-30.2	14.6	7.00e-07	0	42	0	854589440	19	3967
2026-01-12 10:31:37.57	338.84	45.99	-30.1	-31.2	13.1	4.27e-05	0	42	0	859832320	21	4095
2026-01-12 10:31:40.58	338.92	45.08	-30.5	-32.4	12.4	9.07e-05	0	42	0	866123776	21	4465
2026-01-12 10:31:43.60	338.99	44.18	-29.8	-31.0	13.7	4.50e-06	0	42	0	871366656	20	4102
2026-01-12 10:31:46.61	339.07	43.31	-29.5	-30.5	14.4	0.00e+00	0	42	0	877658112	19	4046
2026-01-12 10:31:49.63	339.14	42.45	-31.6	-34.7	10.1	3.42e-03	0	42	0	882900992	23	5140
2026-01-12 10:31:52.65	339.20	41.62	-32.0	-35.9	8.7	6.97e-02	0	42	0	888143872	24	5604
2026-01-12 10:31:55.66	339.27	40.80	-31.2	-33.3	11.1	1.08e-03	0	42	0	894435328	23	4619
2026-01-12 10:31:58.67	339.33	40.00	-31.0	-32.7	11.5	1.02e-03	0	42	0	899678208	23	4400
2026-01-12 10:32:01.69	339.39	39.22	-31.2	-33.9	11.0	5.06e-04	0	42	0	904921088	22	4935
2026-01-12 10:32:04.70	339.45	38.46	-32.4	-37.5	7.4	1.04e-01	0	42	0	911212544	24	6493
2026-01-12 10:32:07.71	339.50	37.71	-32.2	-36.3	8.0	7.26e-02	0	42	0	916455424	25	5771
2026-01-12 10:32:10.73	339.56	36.98	-32.0	-35.4	8.6	3.82e-02	0	42	0	922746880	25	5335
2026-01-12 10:32:13.74	339.61	36.27	-31.5	-34.1	10.1	9.63e-03	0	42	0	927989760	24	4817
2026-01-12 10:32:16.76	339.66	35.57	-31.5	-34.1	10.1	5.66e-03	0	42	0	933232640	24	4828
2026-01-12 10:32:19.78	339.71	34.89	-32.0	-36.0	8.6	3.75e-02	0	42	0	939524096	24	5674
2026-01-12 10:32:22.80	339.75	34.22	-32.7	-39.0	5.9	2.42e-01	0	42	0	944766976	25	7438
2026-01-12 10:32:25.81	339.80	33.56	-32.6	-38.4	6.4	2.67e-01	0	42	0	951058432	25	7010
2026-01-12 10:32:28.83	339.84	32.92	-32.6	-38.1	6.5	2.62e-01	0	42	0	956301312	25	6819
2026-01-12 10:32:31.84	339.89	32.29	-31.3	-33.5	10.5	1.73e-02	0	42	0	961544192	24	4611
2026-01-12 10:32:34.86	339.93	31.68	-30.2	-31.5	12.9	2.08e-04	0	42	0	967835648	21	4193
2026-01-12 10:32:37.87	339.97	31.08	-30.4	-32.1	12.5	6.40e-05	0	42	0	973078528	21	4381
2026-01-12 10:32:40.89	340.01	30.49	-31.3	-34.3	10.6	2.85e-03	0	42	0	979369984	22	5092
2026-01-12 10:32:43.92	340.05	29.90	-32.2	-36.8	7.8	5.68e-02	0	42	0	984612864	24	6137
2026-01-12 10:32:46.93	340.08	29.34	-31.8	-35.3	9.0	3.03e-02	0	42	0	989855744	24	5357
2026-01-12 10:32:49.95	340.12	28.78	-31.3	-33.9	10.4	5.80e-03	0	42	0	996147200	23	4864
2026-01-12 10:32:52.96	340.16	28.24	-30.9	-32.7	11.3	1.09e-03	0	42	0	1001390080	23	4425
2026-01-12 10:32:55.98	340.19	27.70	-30.4	-31.5	12.5	1.52e-04	0	42	0	1007681536	22	4116
2026-01-12 10:32:59.00	340.23	27.18	-29.7	-30.8	13.6	1.37e-05	0	42	0	1012924416	20	4068
2026-01-12 10:33:02.00	340.26	26.67	-29.7	-30.7	13.6	1.22e-05	0	42	0	1018167296	20	4040
2026-01-12 10:33:05.02	340.29	26.16	-29.3	-30.1	14.4	7.00e-07	0	42	0	1024458752	19	3961
2026-01-12 10:33:08.04	340.32	25.67	-29.4	-30.3	14.2	0.00e+00	0	42	0	1029701632	19	4024
2026-01-12 10:33:11.06	340.36	25.18	-29.0	-29.4	14.7	0.00e+00	0	42	0	1035993088	19	3779
2026-01-12 10:33:14.07	340.39	24.71	-29.5	-30.6	14.1	3.00e-06	0	42	0	1041235968	19	4105
2026-01-12 10:33:17.08	340.42	24.24	-29.6	-30.9	13.9	4.50e-06	0	42	0	1046478848	19	4184
2026-01-12 10:33:20.09	340.45	23.78	-29.1	-29.7	14.6	7.00e-07	0	42	0	1052770304	19	3848
2026-01-12 10:33:23.10	340.48	23.33	-28.8	-29.4	15.0	7.00e-07	0	42	0	1058013184	18	3867
2026-01-12 10:33:26.12	340.51	22.88	-28.5	-28.7	15.4	0.00e+00	0	42	0	1063256064	18	3675
2026-01-12 10:33:29.14	340.54	22.44	-28.6	-28.9	15.3	0.00e+00	0	42	0	1069547520	18	3727
2026-01-12 10:33:32.15	340.56	22.02	-28.7	-29.1	15.1	0.00e+00	0	42	0	1074790400	18	3786
2026-01-12 10:33:35.16	340.59	21.59	-28.9	-29.6	14.8	0.00e+00	0	42	0	1081081856	18	3919
2026-01-12 10:33:38.18	340.62	21.18	-29.0	-29.9	14.7	7.00e-07	0	42	0	1086324736	18	4003
2026-01-12 10:33:41.19	340.65	20.77	-29.2	-30.3	14.4	0.00e+00	0	42	0	1091567616	18	4123
2026-01-12 10:33:44.20	340.67	20.37	-29.3	-30.6	14.2	0.00e+00	0	42	0	1097859072	18	4218
2026-01-12 10:33:47.22	340.70	19.97	-29.4	-30.5	13.9	5.30e-06	0	42	0	1103101952	19	4074
2026-01-12 10:33:50.23	340.72	19.58	-29.3	-30.2	14.1	7.00e-07	0	42	0	1109393408	19	4013
2026-01-12 10:33:53.25	340.75	19.20	-29.2	-30.0	14.2	7.00e-07	0	42	0	1114636288	19	3942
2026-01-12 10:33:56.26	340.77	18.82	-29.0	-29.4	14.6	0.00e+00	0	42	0	1119879168	19	3776
2026-01-12 10:33:59.28	340.80	18.45	-28.9	-29.1	14.7	0.00e+00	0	42	0	1126170624	19	3710
2026-01-12 10:34:02.30	340.82	18.08	-29.1	-29.6	14.4	0.00e+00	0	42	0	1131413504	19	3848
2026-01-12 10:34:05.31	340.85	17.72	-29.2	-30.0	14.1	7.00e-07	0	42	0	1137704960	19	3960
2026-01-12 10:34:08.32	340.87	17.37	-29.1	-29.9	14.3	0.00e+00	0	42	0	1142947840	19	3909
2026-01-12 10:34:11.33	340.90	17.02	-29.4	-30.5	13.8	3.80e-06	0	42	0	1148190720	19	4101
2026-01-12 10:34:14.36	340.92	16.67	-29.4	-30.6	13.7	4.50e-06	0	42	0	1154482176	19	4124
2026-01-12 10:34:17.38	340.94	16.33	-29.5	-30.7	13.7	4.50e-06	0	42	0	1159725056	19	4161
2026-01-12 10:34:20.39	340.97	16.00	-29.5	-30.8	13.6	1.37e-05	0	42	0	1164967936	19	4193
2026-01-12 10:34:23.40	340.99	15.66	-29.6	-31.2	13.3	2.13e-05	0	42	0	1171259392	19	4317
2026-01-12 10:34:26.41	341.01	15.34	-29.4	-30.7	13.6	1.29e-05	0	42	0	1176502272	19	4157
2026-01-12 10:34:29.43	341.03	15.02	-29.7	-31.4	13.2	1.90e-05	0	42	0	1182793728	19	4368
2026-01-12 10:34:32.45	341.06	14.70	-29.7	-31.4	13.1	1.98e-05	0	42	0	1188036608	19	4371
2026-01-12 10:34:35.46	341.08	14.38	-29.8	-31.7	13.0	3.43e-05	0	42	0	1193279488	19	4473
2026-01-12 10:34:38.47	341.10	14.07	-29.9	-31.7	12.5	7.55e-05	0	42	0	1199570944	20	4396
2026-01-12 10:34:41.48	341.12	13.77	-30.1	-32.2	12.1	2.81e-04	0	42	0	1204813824	20	4581
2026-01-12 10:34:44.49	341.14	13.47	-30.3	-32.6	11.8	4.07e-04	0	42	0	1211105280	20	4718
2026-01-12 10:34:47.50	341.16	13.17	-30.2	-32.5	11.9	2.62e-04	0	42	0	1216348160	20	4676
2026-01-12 10:34:50.51	341.18	12.87	-30.0	-32.0	12.2	1.91e-04	0	42	0	1221591040	20	4518
2026-01-12 10:34:53.52	341.21	12.58	-29.9	-31.7	12.4	2.19e-04	0	42	0	1227882496	20	4402
2026-01-12 10:34:56.54	341.23	12.29	-29.5	-30.4	13.2	3.89e-05	0	42	0	1233125376	20	4020
2026-01-12 10:34:59.56	341.25	12.01	-29.4	-30.3	13.2	1.90e-05	0	42	0	1239416832	20	3990
2026-01-12 10:35:02.58	341.27	11.73	-29.5	-30.4	13.2	2.67e-05	0	42	0	1244659712	20	4020
2026-01-12 10:35:05.60	341.29	11.45	-29.5	-30.5	13.1	2.21e-05	0	42	0	1249902592	20	4042
2026-01-12 10:35:08.61	341.31	11.17	-29.6	-30.8	12.9	2.82e-05	0	42	0	1256194048	20	4138
2026-01-12 10:35:11.62	341.33	10.90	-29.5	-30.6	13.0	3.28e-05	0	42	0	1261436928	20	4078
2026-01-12 10:35:14.64	341.35	10.63	-29.7	-31.1	12.6	6.56e-05	0	42	0	1266679808	20	4240
2026-01-12 10:35:17.65	341.37	10.37	-29.6	-30.8	12.9	4.04e-05	0	42	0	1272971264	20	4136
2026-01-12 10:35:20.67	341.39	10.10	-29.6	-30.8	12.9	4.50e-05	0	42	0	1278214144	20	4128
2026-01-12 10:35:23.68	341.41	9.84	-29.6	-30.8	12.8	5.64e-05	0	42	0	1284505600	20	4152
2026-01-12 10:35:26.70	341.43	9.58	-29.7	-31.1	12.5	6.86e-05	0	42	0	1289748480	20	4252
2026-01-12 10:35:29.72	341.45	9.33	-29.8	-31.3	12.4	1.18e-04	0	42	0	1294991360	20	4322
2026-01-12 10:35:32.74	341.46	9.08	-29.7	-31.2	12.5	1.07e-04	0	42	0	1301282816	20	4274
2026-01-12 10:35:35.76	341.48	8.83	-29.7	-31.1	12.5	8.46e-05	0	42	0	1306525696	20	4257
2026-01-12 10:35:38.78	341.50	8.58	-29.7	-31.3	12.4	2.27e-04	0	42	0	1312817152	20	4302
2026-01-12 10:35:41.80	341.52	8.33	-29.7	-31.2	12.4	1.81e-04	0	42	0	1318060032	20	4289
2026-01-12 10:35:44.81	341.54	8.09	-29.6	-31.0	12.5	2.03e-04	0	42	0	1323302912	20	4223
2026-01-12 10:35:47.83	341.56	7.85	-29.6	-31.1	12.4	1.67e-04	0	42	0	1329594368	20	4253
2026-01-12 10:35:50.84	341.58	7.61	-29.7	-31.5	12.1	1.71e-04	0	42	0	1334837248	20	4385
2026-01-12 10:35:53.86	341.60	7.37	-29.7	-31.3	12.2	1.58e-04	0	42	0	1341128704	20	4348
2026-01-12 10:35:56.87	341.61	7.14	-29.7	-31.4	12.1	2.37e-04	0	42	0	1346371584	20	4377
2026-01-12 10:35:59.89	341.63	6.91	-33.2	-45.8	3.8	1.49e+00	0	42	104	1347420160	26	15217

#Closed at: 2026-01-12 10:36:01
#Recorded file [1347 MB]: D:/data/31010_260112_132358.dat