passes_logs/2026/01/12/R2M6_AANII_01/R2M6_AANII_01__20260112_094623_FENGYUN_3D_rec.log

#Pass ID: 20260112_094623_FENGYUN 3D
#Satellite: FENGYUN 3D
#Configuration: FENGYUN 3D
#almurnet v.1.7.20240730
#Start time: 2026-01-12 09:46:24

#Version: 2.2.20231116
#Station: R2M6_AANII_01
#Location: 30.233357 lon 59.946436 lat
#TLE: 1 43010U 17072A   26011.26828046  .00000354  00000+0  18908-3 0  9991
#TLE: 2 43010  98.9936 343.0270 0002205 114.1788 245.9618 14.19695184422722

#Time	Az	El	Level	Level2	SNR	BER	BlckErr	Temp	State	Recorded	gain1	gain2
2026-01-12 09:46:24.13	79.76	7.06	-30.7	-34.6	5.0	7.94e-01	0	39	0	0	22	5639
2026-01-12 09:46:26.13	79.52	7.16	-30.0	-33.4	9.1	2.62e-02	0	40	0	0	20	5331
2026-01-12 09:46:28.13	79.29	7.27	-29.9	-33.1	9.3	1.84e-02	0	39	0	10485760	20	5216
2026-01-12 09:46:30.13	79.05	7.38	-29.8	-32.8	9.6	1.91e-02	0	40	0	22020096	20	5072
2026-01-12 09:46:32.14	78.81	7.49	-28.9	-30.8	11.3	2.81e-03	0	40	0	33554432	19	4486
2026-01-12 09:46:34.15	78.57	7.60	-27.8	-29.2	12.9	1.44e-04	0	40	0	45088768	17	4217
2026-01-12 09:46:36.16	78.33	7.71	-27.1	-28.5	13.8	1.14e-05	0	40	0	55574528	15	4228
2026-01-12 09:46:38.18	78.08	7.82	-27.3	-28.9	13.5	2.17e-05	0	40	0	67108864	15	4365
2026-01-12 09:46:40.19	77.83	7.92	-27.2	-28.7	13.7	1.60e-05	0	40	0	78643200	15	4308
2026-01-12 09:46:42.19	77.58	8.03	-27.2	-28.8	13.7	1.71e-05	0	40	0	90177536	15	4322
2026-01-12 09:46:44.20	77.33	8.14	-27.2	-28.8	13.6	1.25e-05	0	40	0	101711872	15	4335
2026-01-12 09:46:46.22	77.08	8.25	-27.2	-28.7	13.8	1.83e-05	0	40	0	112197632	15	4296
2026-01-12 09:46:48.23	76.82	8.36	-27.2	-28.7	13.7	1.25e-05	0	40	0	123731968	15	4303
2026-01-12 09:46:50.24	76.56	8.47	-27.3	-29.0	13.6	8.00e-06	0	40	0	135266304	15	4370
2026-01-12 09:46:52.25	76.30	8.57	-27.0	-28.3	14.0	9.10e-06	0	40	0	146800640	15	4189
2026-01-12 09:46:54.26	76.04	8.68	-27.1	-28.5	13.9	1.14e-05	0	40	0	158334976	15	4227
2026-01-12 09:46:56.27	75.78	8.79	-27.0	-28.3	14.0	2.20e-06	0	40	0	168820736	15	4188
2026-01-12 09:46:58.29	75.51	8.90	-27.2	-28.7	13.8	1.25e-05	0	40	0	180355072	15	4298
2026-01-12 09:47:00.30	75.25	9.00	-26.9	-28.5	14.3	0.00e+00	0	40	0	191889408	14	4327
2026-01-12 09:47:02.31	74.98	9.11	-26.8	-28.2	14.4	2.20e-06	0	41	0	203423744	14	4270
2026-01-12 09:47:04.32	74.71	9.22	-26.9	-28.5	14.3	3.40e-06	0	40	0	213909504	14	4329
2026-01-12 09:47:06.33	74.43	9.33	-26.8	-28.2	14.5	3.40e-06	0	41	0	225443840	14	4252
2026-01-12 09:47:08.34	74.16	9.43	-26.6	-27.9	14.6	2.20e-06	0	41	0	236978176	14	4185
2026-01-12 09:47:10.35	73.88	9.54	-26.8	-28.3	14.4	0.00e+00	0	41	0	248512512	14	4277
2026-01-12 09:47:12.35	73.60	9.65	-26.8	-28.4	14.4	2.20e-06	0	41	0	260046848	14	4300
2026-01-12 09:47:14.36	73.32	9.75	-26.6	-27.9	14.7	1.10e-06	0	41	0	270532608	14	4184
2026-01-12 09:47:16.36	73.04	9.86	-26.5	-27.7	14.8	2.20e-06	0	41	0	282066944	14	4129
2026-01-12 09:47:18.37	72.75	9.96	-26.7	-28.1	14.6	0.00e+00	0	41	0	293601280	14	4210
2026-01-12 09:47:20.38	72.47	10.07	-26.5	-27.5	14.9	0.00e+00	0	41	0	305135616	14	4064
2026-01-12 09:47:22.39	72.18	10.18	-26.5	-27.6	14.9	0.00e+00	0	41	0	316669952	14	4084
2026-01-12 09:47:24.40	71.88	10.28	-26.5	-27.6	14.9	0.00e+00	0	41	0	327155712	14	4085
2026-01-12 09:47:26.41	71.59	10.39	-26.7	-28.0	14.7	1.10e-06	0	41	0	338690048	14	4190
2026-01-12 09:47:28.42	71.29	10.49	-26.4	-27.4	15.0	0.00e+00	0	41	0	350224384	14	4044
2026-01-12 09:47:30.43	70.99	10.59	-26.2	-27.4	15.3	0.00e+00	0	41	0	360710144	13	4149
2026-01-12 09:47:32.44	70.69	10.70	-26.3	-27.6	15.2	1.10e-06	0	41	0	372244480	13	4209
2026-01-12 09:47:34.45	70.39	10.80	-26.4	-27.8	15.1	0.00e+00	0	41	0	383778816	13	4255
2026-01-12 09:47:36.46	70.09	10.91	-26.8	-28.8	14.6	5.70e-06	0	41	0	395313152	13	4524
2026-01-12 09:47:38.48	69.78	11.01	-26.8	-28.7	14.6	0.00e+00	0	41	0	406847488	13	4499
2026-01-12 09:47:40.49	69.47	11.11	-26.4	-27.9	15.1	1.10e-06	0	41	0	418381824	13	4280
2026-01-12 09:47:42.50	69.16	11.21	-26.4	-27.8	15.2	0.00e+00	0	41	0	428867584	13	4235
2026-01-12 09:47:44.51	68.84	11.32	-26.5	-28.2	14.9	0.00e+00	0	41	0	440401920	13	4349
2026-01-12 09:47:46.51	68.53	11.42	-26.2	-27.4	15.3	1.10e-06	0	41	0	451936256	13	4146
2026-01-12 09:47:48.52	68.21	11.52	-26.0	-27.0	15.6	0.00e+00	0	41	0	463470592	13	4040
2026-01-12 09:47:50.54	67.89	11.62	-26.0	-27.0	15.6	1.10e-06	0	41	0	475004928	13	4035
2026-01-12 09:47:52.55	67.57	11.72	-26.1	-27.3	15.5	0.00e+00	0	41	0	485490688	13	4109
2026-01-12 09:47:54.56	67.24	11.82	-26.2	-27.3	15.4	0.00e+00	0	41	0	497025024	13	4119
2026-01-12 09:47:56.58	66.91	11.92	-26.1	-27.2	15.5	0.00e+00	0	41	0	508559360	13	4077
2026-01-12 09:47:58.59	66.58	12.02	-26.3	-27.7	15.2	2.20e-06	0	41	0	520093696	13	4229
2026-01-12 09:48:00.61	66.25	12.12	-26.0	-27.0	15.7	0.00e+00	0	41	0	530579456	13	4025
2026-01-12 09:48:02.62	65.92	12.21	-25.8	-26.5	16.0	0.00e+00	0	41	0	542113792	13	3901
2026-01-12 09:48:04.63	65.58	12.31	-26.2	-27.2	15.7	0.00e+00	0	41	0	553648128	13	4070
2026-01-12 09:48:06.64	65.24	12.41	-26.3	-27.5	15.5	0.00e+00	0	41	0	565182464	13	4154
2026-01-12 09:48:08.65	64.90	12.50	-26.2	-27.3	15.6	0.00e+00	0	41	0	576716800	13	4084
2026-01-12 09:48:10.67	64.56	12.60	-26.1	-27.1	15.7	0.00e+00	0	41	0	587202560	13	4043
2026-01-12 09:48:12.68	64.21	12.69	-26.2	-27.3	15.6	0.00e+00	0	41	0	598736896	13	4103
2026-01-12 09:48:14.68	63.87	12.78	-26.3	-27.4	15.6	0.00e+00	0	41	0	610271232	13	4127
2026-01-12 09:48:16.70	63.52	12.88	-25.8	-26.5	16.1	0.00e+00	0	41	0	621805568	13	3899
2026-01-12 09:48:18.71	63.16	12.97	-25.9	-27.2	16.0	0.00e+00	0	41	0	633339904	12	4171
2026-01-12 09:48:20.73	62.81	13.06	-26.1	-27.6	15.8	0.00e+00	0	41	0	643825664	12	4280
2026-01-12 09:48:22.75	62.45	13.15	-26.0	-27.5	15.8	0.00e+00	0	41	0	655360000	12	4250
2026-01-12 09:48:24.76	62.09	13.24	-26.0	-27.4	15.9	0.00e+00	0	41	0	666894336	12	4236
2026-01-12 09:48:26.78	61.73	13.33	-26.1	-27.6	15.8	0.00e+00	0	41	0	678428672	12	4289
2026-01-12 09:48:28.78	61.37	13.42	-26.0	-27.3	15.9	0.00e+00	0	42	0	689963008	12	4207
2026-01-12 09:48:30.79	61.00	13.51	-25.7	-26.8	16.2	0.00e+00	0	42	0	700448768	12	4065
2026-01-12 09:48:32.80	60.64	13.60	-25.7	-26.7	16.3	0.00e+00	0	41	0	711983104	12	4048
2026-01-12 09:48:34.81	60.27	13.68	-25.7	-26.7	16.3	0.00e+00	0	41	0	723517440	12	4034
2026-01-12 09:48:36.82	59.90	13.77	-25.8	-26.9	16.2	0.00e+00	0	42	0	735051776	12	4082
2026-01-12 09:48:38.83	59.52	13.85	-25.4	-26.1	16.7	0.00e+00	0	42	0	746586112	12	3897
2026-01-12 09:48:40.85	59.14	13.93	-25.5	-26.3	16.6	0.00e+00	0	42	0	757071872	12	3938
2026-01-12 09:48:42.86	58.77	14.02	-25.5	-26.3	16.6	0.00e+00	0	41	0	768606208	12	3929
2026-01-12 09:48:44.86	58.39	14.10	-25.4	-26.0	16.7	0.00e+00	0	41	0	780140544	12	3871
2026-01-12 09:48:46.87	58.01	14.18	-25.5	-26.2	16.6	0.00e+00	0	42	0	791674880	12	3919
2026-01-12 09:48:48.89	57.62	14.26	-25.6	-26.9	16.6	0.00e+00	0	42	0	803209216	11	4208
2026-01-12 09:48:50.90	57.23	14.34	-25.8	-27.3	16.4	0.00e+00	0	41	0	813694976	11	4308
2026-01-12 09:48:52.92	56.84	14.41	-25.5	-26.7	16.7	0.00e+00	0	42	0	825229312	11	4146
2026-01-12 09:48:54.92	56.46	14.49	-25.0	-25.6	17.3	0.00e+00	0	42	0	836763648	11	3875
2026-01-12 09:48:56.92	56.07	14.56	-25.2	-26.0	17.1	0.00e+00	0	41	0	847249408	11	3966
2026-01-12 09:48:58.93	55.67	14.64	-25.5	-26.7	16.7	0.00e+00	0	42	0	858783744	11	4142
2026-01-12 09:49:00.94	55.28	14.71	-25.4	-26.5	16.8	0.00e+00	0	42	0	870318080	11	4107
2026-01-12 09:49:02.95	54.88	14.78	-25.2	-26.2	17.0	0.00e+00	0	42	0	881852416	11	4014
2026-01-12 09:49:04.97	54.47	14.85	-25.3	-26.4	16.9	0.00e+00	0	42	0	893386752	11	4066
2026-01-12 09:49:06.98	54.07	14.92	-25.5	-26.9	16.6	0.00e+00	0	42	0	903872512	11	4188
2026-01-12 09:49:08.98	53.67	14.99	-25.4	-26.5	16.8	0.00e+00	0	42	0	915406848	11	4098
2026-01-12 09:49:10.98	53.27	15.06	-25.4	-26.6	16.8	0.00e+00	0	41	0	926941184	11	4127
2026-01-12 09:49:12.99	52.86	15.12	-25.1	-26.0	17.1	0.00e+00	0	42	0	938475520	11	3966
2026-01-12 09:49:15.00	52.45	15.19	-25.4	-26.6	16.8	0.00e+00	0	42	0	950009856	11	4112
2026-01-12 09:49:17.00	52.04	15.25	-25.4	-26.4	16.9	0.00e+00	0	42	0	960495616	11	4079
2026-01-12 09:49:19.02	51.63	15.31	-25.2	-26.2	17.0	0.00e+00	0	42	0	972029952	11	4006
2026-01-12 09:49:21.03	51.21	15.37	-25.1	-25.9	17.2	0.00e+00	0	42	0	983564288	11	3951
2026-01-12 09:49:23.03	50.80	15.43	-25.0	-25.7	17.3	0.00e+00	0	42	0	995098624	11	3898
2026-01-12 09:49:25.04	50.38	15.49	-25.3	-26.2	17.0	0.00e+00	0	42	0	1005584384	11	4024
2026-01-12 09:49:27.05	49.96	15.54	-25.5	-26.7	16.8	0.00e+00	0	42	0	1017118720	11	4133
2026-01-12 09:49:29.06	49.54	15.60	-25.2	-26.1	17.1	0.00e+00	0	42	0	1028653056	11	3986
2026-01-12 09:49:31.07	49.12	15.65	-25.0	-25.7	17.3	0.00e+00	0	42	0	1040187392	11	3903
2026-01-12 09:49:33.08	48.69	15.70	-25.2	-26.1	17.1	0.00e+00	0	42	0	1051721728	11	4000
2026-01-12 09:49:35.09	48.27	15.75	-25.1	-25.9	17.3	0.00e+00	0	42	0	1062207488	11	3936
2026-01-12 09:49:37.10	47.84	15.80	-25.1	-26.0	17.2	0.00e+00	0	42	0	1073741824	11	3962
2026-01-12 09:49:39.10	47.42	15.85	-25.0	-25.6	17.4	0.00e+00	0	42	0	1085276160	11	3861
2026-01-12 09:49:41.11	46.99	15.89	-25.0	-25.7	17.3	0.00e+00	0	42	0	1096810496	11	3888
2026-01-12 09:49:43.13	46.55	15.94	-25.4	-26.5	16.9	0.00e+00	0	42	0	1107296256	11	4079
2026-01-12 09:49:45.14	46.12	15.98	-25.4	-26.5	16.9	0.00e+00	0	42	0	1118830592	11	4077
2026-01-12 09:49:47.15	45.69	16.02	-25.0	-25.6	17.4	0.00e+00	0	42	0	1130364928	11	3861
2026-01-12 09:49:49.16	45.25	16.06	-24.8	-25.7	17.6	0.00e+00	0	42	0	1141899264	10	3994
2026-01-12 09:49:51.17	44.82	16.10	-24.9	-25.9	17.5	0.00e+00	0	42	0	1152385024	10	4050
2026-01-12 09:49:53.18	44.38	16.13	-24.8	-25.8	17.5	0.00e+00	0	42	0	1163919360	10	4025
2026-01-12 09:49:55.20	43.94	16.17	-24.6	-25.2	17.8	0.00e+00	0	42	0	1175453696	10	3880
2026-01-12 09:49:57.21	43.50	16.20	-24.9	-25.8	17.5	0.00e+00	0	42	0	1186988032	10	4033
2026-01-12 09:49:59.22	43.06	16.23	-25.0	-26.2	17.3	0.00e+00	0	42	0	1198522368	10	4120
2026-01-12 09:50:01.23	42.62	16.26	-24.9	-25.9	17.5	0.00e+00	0	42	0	1209008128	10	4046
2026-01-12 09:50:03.24	42.18	16.29	-24.9	-25.9	17.5	0.00e+00	0	42	0	1220542464	10	4046
2026-01-12 09:50:05.25	41.74	16.32	-24.9	-26.0	17.4	0.00e+00	0	42	0	1232076800	10	4078
2026-01-12 09:50:07.26	41.30	16.34	-25.0	-26.2	17.4	0.00e+00	0	42	0	1243611136	10	4114
2026-01-12 09:50:09.28	40.85	16.36	-24.8	-25.7	17.6	0.00e+00	0	42	0	1255145472	10	4012
2026-01-12 09:50:11.28	40.41	16.38	-24.7	-25.6	17.7	0.00e+00	0	42	0	1266679808	10	3977
2026-01-12 09:50:13.30	39.96	16.40	-25.1	-26.5	17.2	0.00e+00	0	42	0	1277165568	10	4188
2026-01-12 09:50:15.30	39.52	16.42	-24.9	-25.9	17.5	0.00e+00	0	42	0	1288699904	10	4043
2026-01-12 09:50:17.32	39.07	16.44	-24.8	-25.7	17.6	0.00e+00	0	42	0	1300234240	10	4012
2026-01-12 09:50:19.34	38.62	16.45	-24.8	-25.7	17.6	0.00e+00	0	42	0	1311768576	10	3995
2026-01-12 09:50:21.35	38.18	16.46	-24.6	-25.2	17.9	0.00e+00	0	42	0	1322254336	10	3883
2026-01-12 09:50:23.36	37.73	16.47	-24.7	-25.5	17.7	0.00e+00	0	42	0	1333788672	10	3940
2026-01-12 09:50:25.37	37.28	16.48	-24.7	-25.5	17.7	0.00e+00	0	42	0	1345323008	10	3957
2026-01-12 09:50:27.39	36.83	16.49	-24.8	-25.7	17.6	0.00e+00	0	42	0	1356857344	10	3997
2026-01-12 09:50:29.40	36.39	16.49	-24.9	-26.0	17.4	0.00e+00	0	42	0	1368391680	10	4074
2026-01-12 09:50:31.42	35.94	16.50	-24.8	-25.7	17.5	0.00e+00	0	42	0	1378877440	10	4012
2026-01-12 09:50:33.43	35.49	16.50	-25.1	-26.3	17.3	0.00e+00	0	42	0	1390411776	10	4150
2026-01-12 09:50:35.43	35.04	16.50	-25.0	-26.1	17.3	0.00e+00	0	41	0	1401946112	10	4109
2026-01-12 09:50:37.45	34.59	16.50	-25.0	-26.2	17.3	0.00e+00	0	42	0	1413480448	10	4134
2026-01-12 09:50:39.46	34.15	16.49	-25.0	-26.3	17.3	1.10e-06	0	42	0	1425014784	10	4144
2026-01-12 09:50:41.47	33.70	16.49	-24.8	-25.7	17.6	0.00e+00	0	42	0	1435500544	10	3992
2026-01-12 09:50:43.49	33.25	16.48	-24.8	-25.7	17.6	0.00e+00	0	42	0	1447034880	10	3991
2026-01-12 09:50:45.50	32.80	16.47	-24.8	-25.6	17.6	0.00e+00	0	42	0	1458569216	10	3985
2026-01-12 09:50:47.52	32.35	16.46	-24.7	-25.5	17.6	0.00e+00	0	42	0	1470103552	10	3960
2026-01-12 09:50:49.52	31.91	16.45	-24.7	-25.5	17.6	0.00e+00	0	42	0	1481637888	10	3957
2026-01-12 09:50:51.53	31.46	16.43	-24.8	-25.8	17.5	0.00e+00	0	42	0	1492123648	10	4037
2026-01-12 09:50:53.55	31.02	16.42	-24.6	-25.2	17.7	0.00e+00	0	42	0	1503657984	10	3891
2026-01-12 09:50:55.56	30.57	16.40	-24.6	-25.2	17.8	1.10e-06	0	42	0	1515192320	10	3888
2026-01-12 09:50:57.58	30.12	16.38	-24.5	-25.1	17.8	0.00e+00	0	42	0	1526726656	10	3848
2026-01-12 09:50:59.59	29.68	16.36	-24.6	-25.2	17.7	0.00e+00	0	42	0	1538260992	10	3888
2026-01-12 09:51:01.60	29.24	16.33	-24.7	-25.5	17.6	0.00e+00	0	42	0	1548746752	10	3942
2026-01-12 09:51:03.62	28.79	16.31	-24.7	-25.5	17.6	0.00e+00	0	42	0	1560281088	10	3953
2026-01-12 09:51:05.62	28.35	16.28	-24.6	-25.3	17.7	0.00e+00	0	42	0	1571815424	10	3913
2026-01-12 09:51:07.62	27.92	16.26	-24.5	-25.1	17.8	0.00e+00	0	42	0	1583349760	10	3857
2026-01-12 09:51:09.63	27.48	16.23	-24.6	-25.3	17.7	0.00e+00	0	42	0	1594884096	10	3906
2026-01-12 09:51:11.65	27.03	16.19	-24.6	-25.3	17.7	0.00e+00	0	42	0	1605369856	10	3905
2026-01-12 09:51:13.66	26.60	16.16	-24.9	-25.9	17.4	0.00e+00	0	42	0	1616904192	10	4057
2026-01-12 09:51:15.67	26.16	16.13	-25.0	-26.2	17.3	0.00e+00	0	42	0	1628438528	10	4114
2026-01-12 09:51:17.67	25.73	16.09	-24.8	-25.7	17.5	0.00e+00	0	42	0	1639972864	10	3994
2026-01-12 09:51:19.69	25.29	16.05	-24.8	-25.8	17.4	0.00e+00	0	42	0	1651507200	10	4034
2026-01-12 09:51:21.70	24.86	16.01	-24.7	-25.6	17.5	0.00e+00	0	42	0	1661992960	10	3982
2026-01-12 09:51:23.71	24.42	15.97	-24.9	-25.9	17.4	0.00e+00	0	42	0	1673527296	10	4040
2026-01-12 09:51:25.72	23.99	15.93	-24.8	-25.7	17.4	0.00e+00	0	42	0	1685061632	10	4013
2026-01-12 09:51:27.74	23.56	15.88	-24.9	-26.1	17.3	0.00e+00	0	42	0	1696595968	10	4092
2026-01-12 09:51:29.74	23.13	15.84	-24.9	-26.0	17.3	0.00e+00	0	42	0	1707081728	10	4080
2026-01-12 09:51:31.76	22.70	15.79	-24.9	-25.9	17.4	0.00e+00	0	42	0	1718616064	10	4049
2026-01-12 09:51:33.77	22.28	15.74	-24.7	-25.6	17.5	0.00e+00	0	42	0	1730150400	10	3965
2026-01-12 09:51:35.78	21.85	15.69	-24.9	-26.1	17.3	0.00e+00	0	42	0	1741684736	10	4093
2026-01-12 09:51:37.79	21.43	15.64	-24.8	-25.7	17.4	0.00e+00	0	42	0	1753219072	10	4011
2026-01-12 09:51:39.79	21.01	15.58	-24.9	-25.9	17.3	0.00e+00	0	42	0	1763704832	10	4049
2026-01-12 09:51:41.80	20.59	15.53	-25.0	-26.2	17.2	0.00e+00	0	42	0	1775239168	10	4121
2026-01-12 09:51:43.81	20.17	15.47	-25.1	-26.4	17.1	0.00e+00	0	42	0	1786773504	10	4175
2026-01-12 09:51:45.81	19.76	15.42	-25.0	-26.2	17.2	0.00e+00	0	42	0	1798307840	10	4115
2026-01-12 09:51:47.82	19.34	15.36	-24.9	-25.9	17.4	0.00e+00	0	42	0	1808793600	10	4046
2026-01-12 09:51:49.82	18.93	15.30	-25.0	-26.2	17.2	0.00e+00	0	42	0	1820327936	10	4122
2026-01-12 09:51:51.83	18.52	15.23	-25.0	-26.3	17.1	0.00e+00	0	42	0	1831862272	10	4158
2026-01-12 09:51:53.84	18.11	15.17	-25.2	-26.6	16.9	0.00e+00	0	42	0	1843396608	10	4240
2026-01-12 09:51:55.84	17.71	15.11	-25.1	-26.5	17.0	0.00e+00	0	42	0	1853882368	10	4192
2026-01-12 09:51:57.85	17.30	15.04	-25.2	-26.6	17.0	0.00e+00	0	42	0	1865416704	10	4243
2026-01-12 09:51:59.86	16.90	14.97	-25.3	-26.8	16.9	0.00e+00	0	42	0	1876951040	10	4283
2026-01-12 09:52:01.87	16.49	14.91	-25.4	-27.0	16.8	0.00e+00	0	42	0	1888485376	10	4335
2026-01-12 09:52:03.87	16.09	14.84	-25.8	-27.5	16.2	0.00e+00	0	42	0	1898971136	11	4369
2026-01-12 09:52:05.88	15.70	14.77	-25.4	-26.6	16.7	0.00e+00	0	42	0	1910505472	11	4111
2026-01-12 09:52:07.90	15.30	14.69	-25.3	-26.3	16.9	0.00e+00	0	42	0	1922039808	11	4033
2026-01-12 09:52:09.91	14.90	14.62	-25.3	-26.4	16.8	0.00e+00	0	42	0	1933574144	11	4076
2026-01-12 09:52:11.92	14.51	14.55	-25.2	-26.1	16.9	0.00e+00	0	42	0	1945108480	11	4002
2026-01-12 09:52:13.92	14.12	14.47	-25.3	-26.3	16.9	0.00e+00	0	42	0	1955594240	11	4045
2026-01-12 09:52:15.93	13.73	14.40	-25.3	-26.3	16.8	0.00e+00	0	42	0	1967128576	11	4046
2026-01-12 09:52:17.94	13.34	14.32	-25.4	-26.6	16.6	0.00e+00	0	42	0	1978662912	11	4133
2026-01-12 09:52:19.95	12.96	14.24	-25.3	-26.2	16.8	0.00e+00	0	42	0	1990197248	11	4028
2026-01-12 09:52:21.95	12.58	14.16	-25.2	-26.1	16.9	0.00e+00	0	42	0	2000683008	11	4008
2026-01-12 09:52:23.96	12.20	14.08	-25.3	-26.2	16.8	0.00e+00	0	42	0	2012217344	11	4031
2026-01-12 09:52:25.96	11.82	14.00	-25.6	-27.1	16.4	0.00e+00	0	42	0	2023751680	11	4239
2026-01-12 09:52:27.98	11.44	13.92	-25.2	-26.1	16.9	0.00e+00	0	42	0	2035286016	11	4005
2026-01-12 09:52:29.98	11.07	13.83	-25.3	-26.4	16.7	0.00e+00	0	42	0	2045771776	11	4062
2026-01-12 09:52:31.98	10.70	13.75	-25.4	-26.6	16.6	0.00e+00	0	42	0	2057306112	11	4134
2026-01-12 09:52:33.99	10.33	13.67	-25.4	-26.5	16.7	0.00e+00	0	42	0	2068840448	11	4098
2026-01-12 09:52:36.00	9.96	13.58	-25.6	-27.0	16.4	0.00e+00	0	42	0	2080374784	11	4217
2026-01-12 09:52:38.02	9.60	13.49	-25.8	-27.5	16.1	0.00e+00	0	42	0	2091909120	11	4375
2026-01-12 09:52:40.03	9.23	13.40	-25.9	-27.7	15.9	0.00e+00	0	42	0	2102394880	11	4428
2026-01-12 09:52:42.04	8.87	13.32	-25.9	-27.6	16.1	0.00e+00	0	42	0	2113929216	11	4385
2026-01-12 09:52:44.06	8.51	13.23	-26.0	-27.8	15.9	0.00e+00	0	42	0	2125463552	11	4431
2026-01-12 09:52:46.07	8.15	13.14	-25.6	-27.0	16.4	0.00e+00	0	42	0	2136997888	11	4219
2026-01-12 09:52:48.08	7.80	13.04	-25.7	-27.2	16.2	0.00e+00	0	42	0	2147483648	11	4294
2026-01-12 09:52:50.09	7.45	12.95	-25.9	-27.6	16.0	0.00e+00	0	42	0	2159017984	11	4378
2026-01-12 09:52:52.10	7.10	12.86	-26.0	-27.3	15.8	0.00e+00	0	42	0	2170552320	12	4211
2026-01-12 09:52:54.11	6.75	12.77	-25.9	-27.2	15.9	0.00e+00	0	42	0	2182086656	12	4188
2026-01-12 09:52:56.12	6.40	12.67	-26.0	-27.5	15.7	0.00e+00	0	42	0	2193620992	12	4251
2026-01-12 09:52:58.12	6.06	12.58	-25.9	-27.2	15.9	0.00e+00	0	42	0	2204106752	12	4163
2026-01-12 09:53:00.14	5.72	12.48	-25.5	-26.3	16.3	0.00e+00	0	42	0	2215641088	12	3941
2026-01-12 09:53:02.13	5.38	12.39	-25.5	-26.3	16.4	0.00e+00	0	42	0	2227175424	12	3943
2026-01-12 09:53:04.14	5.05	12.29	-25.7	-26.7	16.1	0.00e+00	0	42	0	2238709760	12	4053
2026-01-12 09:53:06.15	4.71	12.20	-25.6	-26.6	16.2	1.10e-06	0	42	0	2250244096	12	4011
2026-01-12 09:53:08.16	4.38	12.10	-26.6	-28.2	15.1	0.00e+00	0	42	0	2260729856	13	4334
2026-01-12 09:53:10.15	4.05	12.00	-26.1	-27.2	15.6	0.00e+00	0	42	0	2272264192	13	4061
2026-01-12 09:53:12.17	3.73	11.90	-26.5	-27.4	15.2	0.00e+00	0	42	0	2283798528	14	4030
2026-01-12 09:53:14.18	3.40	11.80	-26.2	-27.4	15.4	0.00e+00	0	42	0	2294284288	13	4115
2026-01-12 09:53:16.18	3.08	11.71	-26.7	-28.4	14.9	1.10e-06	0	42	0	2305818624	13	4380
2026-01-12 09:53:18.19	2.76	11.61	-25.8	-26.6	15.9	0.00e+00	0	42	0	2317352960	13	3907
2026-01-12 09:53:20.19	2.44	11.51	-25.7	-26.8	16.0	0.00e+00	0	42	0	2328887296	12	4061
2026-01-12 09:53:22.19	2.13	11.41	-26.0	-27.3	15.7	1.10e-06	0	42	0	2340421632	12	4216
2026-01-12 09:53:24.20	1.81	11.30	-26.0	-27.5	15.6	1.10e-06	0	42	0	2350907392	12	4263
2026-01-12 09:53:26.20	1.50	11.20	-25.9	-27.2	15.7	1.10e-06	0	42	0	2362441728	12	4191
2026-01-12 09:53:28.22	1.19	11.10	-26.2	-27.8	15.4	0.00e+00	0	42	0	2373976064	12	4348
2026-01-12 09:53:30.23	0.88	11.00	-26.3	-28.2	15.2	1.10e-06	0	42	0	2385510400	12	4449
2026-01-12 09:53:32.23	0.58	10.90	-26.3	-28.2	15.2	0.00e+00	0	42	0	2397044736	12	4450
2026-01-12 09:53:34.25	0.27	10.79	-26.3	-28.2	15.2	0.00e+00	0	42	0	2407530496	12	4448
2026-01-12 09:53:36.26	359.97	10.69	-26.2	-27.8	15.4	0.00e+00	0	42	0	2419064832	12	4354
2026-01-12 09:53:38.27	359.67	10.58	-26.3	-28.0	15.3	0.00e+00	0	42	0	2430599168	12	4394
2026-01-12 09:53:40.28	359.38	10.48	-26.5	-28.1	14.9	0.00e+00	0	42	0	2441084928	13	4313
2026-01-12 09:53:42.29	359.08	10.38	-26.3	-27.7	15.2	0.00e+00	0	42	0	2452619264	13	4200
2026-01-12 09:53:44.29	358.79	10.27	-25.9	-26.7	15.7	0.00e+00	0	42	0	2464153600	13	3949
2026-01-12 09:53:46.30	358.50	10.17	-26.2	-27.4	15.3	0.00e+00	0	42	0	2475687936	13	4121
2026-01-12 09:53:48.31	358.21	10.06	-26.3	-27.6	15.2	0.00e+00	0	42	0	2487222272	13	4185
2026-01-12 09:53:50.32	357.93	9.96	-26.4	-27.8	15.1	0.00e+00	0	42	0	2497708032	13	4231
2026-01-12 09:53:52.33	357.64	9.85	-26.4	-27.9	15.0	0.00e+00	0	42	0	2509242368	13	4276
2026-01-12 09:53:54.35	357.36	9.74	-26.5	-28.2	14.9	0.00e+00	0	42	0	2520776704	13	4330
2026-01-12 09:53:56.35	357.08	9.64	-26.5	-28.1	14.9	0.00e+00	0	42	0	2532311040	13	4313
2026-01-12 09:53:58.36	356.80	9.53	-26.8	-28.8	14.5	2.20e-06	0	42	0	2543845376	13	4527
2026-01-12 09:54:00.37	356.53	9.42	-26.5	-28.1	14.9	0.00e+00	0	42	0	2554331136	13	4323
2026-01-12 09:54:02.38	356.25	9.32	-26.6	-28.2	14.8	1.10e-06	0	42	0	2565865472	13	4357
2026-01-12 09:54:04.40	355.98	9.21	-26.6	-28.4	14.7	1.10e-06	0	42	0	2577399808	13	4395
2026-01-12 09:54:06.41	355.71	9.10	-26.7	-28.0	14.6	1.10e-06	0	42	0	2588934144	14	4178
2026-01-12 09:54:08.40	355.45	9.00	-26.5	-27.5	14.9	0.00e+00	0	42	0	2599419904	14	4056
2026-01-12 09:54:10.42	355.18	8.89	-26.6	-27.8	14.8	0.00e+00	0	42	0	2610954240	14	4125
2026-01-12 09:54:12.43	354.92	8.78	-26.5	-27.6	14.8	1.10e-06	0	42	0	2622488576	14	4067
2026-01-12 09:54:14.43	354.66	8.67	-26.4	-27.4	14.9	2.20e-06	0	42	0	2634022912	14	4036
2026-01-12 09:54:16.44	354.40	8.57	-26.7	-28.0	14.6	0.00e+00	0	42	0	2645557248	14	4198
2026-01-12 09:54:18.45	354.14	8.46	-26.8	-28.3	14.4	1.10e-06	0	42	0	2656043008	14	4282
2026-01-12 09:54:20.46	353.88	8.35	-26.8	-28.2	14.4	1.10e-06	0	42	0	2667577344	14	4247
2026-01-12 09:54:22.46	353.63	8.24	-27.0	-28.6	14.2	2.20e-06	0	42	0	2679111680	14	4357
2026-01-12 09:54:24.48	353.38	8.13	-26.9	-28.4	14.3	3.40e-06	0	42	0	2690646016	14	4292
2026-01-12 09:54:26.49	353.13	8.03	-26.8	-28.3	14.3	1.10e-06	0	42	0	2702180352	14	4280
2026-01-12 09:54:28.50	352.88	7.92	-27.1	-29.0	13.9	1.10e-06	0	42	0	2712666112	14	4464
2026-01-12 09:54:30.49	352.64	7.81	-27.1	-29.0	13.9	8.00e-06	0	42	0	2724200448	14	4456
2026-01-12 09:54:32.50	352.39	7.70	-27.2	-29.1	13.9	6.80e-06	0	42	0	2735734784	14	4489
2026-01-12 09:54:34.52	352.15	7.59	-27.3	-29.5	13.6	1.25e-05	0	42	0	2746220544	14	4602
2026-01-12 09:54:36.53	351.91	7.49	-27.2	-28.8	13.7	2.63e-05	0	42	0	2757754880	15	4292
2026-01-12 09:54:38.54	351.67	7.38	-27.0	-28.3	14.0	4.50e-06	0	42	0	2769289216	15	4159
2026-01-12 09:54:40.55	351.43	7.27	-27.4	-29.1	13.5	1.25e-05	0	42	0	2780823552	15	4384
2026-01-12 09:54:42.55	351.20	7.16	-27.1	-28.4	13.9	1.14e-05	0	42	0	2792357888	15	4195
2026-01-12 09:54:44.56	350.97	7.05	-32.3	-40.2	4.6	3.39e-02	0	42	0	2802843648	24	8891

#Closed at: 2026-01-12 09:54:46
#Recorded file [2802 MB]: D:/data/31010_260112_124626.dat