passes_logs/2026/01/12/R2M6_AANII_01/R2M6_AANII_01__20260112_031107_FENGYUN_3D_rec.log

#Pass ID: 20260112_031107_FENGYUN 3D
#Satellite: FENGYUN 3D
#Configuration: FENGYUN 3D
#almurnet v.1.7.20240730
#Start time: 2026-01-12 03:11:09

#Version: 2.2.20231116
#Station: R2M6_AANII_01
#Location: 30.233357 lon 59.946436 lat
#TLE: 1 43010U 17072A   26011.26828046  .00000354  00000+0  18908-3 0  9991
#TLE: 2 43010  98.9936 343.0270 0002205 114.1788 245.9618 14.19695184422722

#Time	Az	El	Level	Level2	SNR	BER	BlckErr	Temp	State	Recorded	gain1	gain2
2026-01-12 03:11:09.32	15.03	7.16	-30.4	-34.4	5.0	8.03e-01	0	39	0	0	21	5682
2026-01-12 03:11:12.34	14.92	7.38	-30.1	-33.4	8.7	3.04e-02	0	39	0	5242880	21	5214
2026-01-12 03:11:15.36	14.80	7.61	-29.7	-32.6	9.6	1.52e-02	0	39	0	22020096	20	5015
2026-01-12 03:11:18.38	14.69	7.85	-28.4	-30.0	12.0	3.12e-04	0	40	0	39845888	18	4355
2026-01-12 03:11:21.39	14.57	8.08	-27.3	-28.5	13.6	8.00e-06	0	40	0	56623104	16	4116
2026-01-12 03:11:24.41	14.45	8.32	-26.8	-27.8	14.2	1.10e-06	0	40	0	73400320	15	4033
2026-01-12 03:11:27.42	14.33	8.55	-26.9	-28.5	14.0	1.10e-06	0	40	0	90177536	14	4335
2026-01-12 03:11:30.44	14.20	8.80	-26.5	-27.7	14.6	0.00e+00	0	40	0	106954752	14	4108
2026-01-12 03:11:33.45	14.08	9.04	-26.4	-27.5	14.7	0.00e+00	0	40	0	123731968	14	4053
2026-01-12 03:11:36.47	13.95	9.28	-26.3	-27.6	14.9	0.00e+00	0	40	0	141557760	13	4188
2026-01-12 03:11:39.49	13.82	9.53	-26.3	-27.8	14.8	0.00e+00	0	40	0	158334976	13	4237
2026-01-12 03:11:42.50	13.68	9.78	-26.4	-28.0	14.7	0.00e+00	0	40	0	175112192	13	4288
2026-01-12 03:11:45.52	13.55	10.03	-26.3	-27.6	15.0	0.00e+00	0	40	0	191889408	13	4199
2026-01-12 03:11:48.54	13.41	10.29	-26.3	-27.7	14.9	0.00e+00	0	40	0	208666624	13	4221
2026-01-12 03:11:51.57	13.27	10.54	-26.3	-27.7	14.9	0.00e+00	0	40	0	226492416	13	4207
2026-01-12 03:11:54.60	13.12	10.80	-26.3	-27.7	15.0	0.00e+00	0	41	0	243269632	13	4207
2026-01-12 03:11:57.62	12.98	11.07	-26.2	-27.5	15.1	0.00e+00	0	40	0	260046848	13	4166
2026-01-12 03:12:00.64	12.83	11.33	-26.3	-27.7	15.0	0.00e+00	0	41	0	276824064	13	4207
2026-01-12 03:12:03.66	12.67	11.60	-26.1	-27.3	15.2	0.00e+00	0	40	0	293601280	13	4099
2026-01-12 03:12:06.67	12.52	11.87	-26.1	-27.1	15.3	0.00e+00	0	41	0	311427072	13	4058
2026-01-12 03:12:09.67	12.36	12.14	-26.1	-27.2	15.3	0.00e+00	0	41	0	328204288	13	4079
2026-01-12 03:12:12.69	12.20	12.41	-25.8	-26.6	15.7	0.00e+00	0	41	0	344981504	13	3932
2026-01-12 03:12:15.71	12.03	12.69	-25.9	-26.8	15.6	0.00e+00	0	41	0	361758720	13	3968
2026-01-12 03:12:18.72	11.86	12.97	-26.2	-27.3	15.3	0.00e+00	0	41	0	378535936	13	4090
2026-01-12 03:12:21.73	11.69	13.26	-26.4	-27.9	15.0	0.00e+00	0	41	0	395313152	13	4262
2026-01-12 03:12:24.74	11.52	13.54	-26.3	-27.7	15.1	0.00e+00	0	41	0	413138944	13	4206
2026-01-12 03:12:27.76	11.34	13.83	-26.6	-28.3	14.8	0.00e+00	0	41	0	429916160	13	4382
2026-01-12 03:12:30.77	11.15	14.13	-25.8	-26.6	15.7	0.00e+00	0	41	0	446693376	13	3926
2026-01-12 03:12:33.80	10.97	14.42	-25.9	-27.1	15.7	0.00e+00	0	41	0	463470592	12	4168
2026-01-12 03:12:36.82	10.77	14.73	-25.6	-26.6	16.0	0.00e+00	0	41	0	480247808	12	4037
2026-01-12 03:12:39.84	10.58	15.03	-26.0	-27.3	15.7	0.00e+00	0	41	0	498073600	12	4216
2026-01-12 03:12:42.86	10.38	15.34	-25.6	-26.5	16.1	0.00e+00	0	41	0	514850816	12	4007
2026-01-12 03:12:45.89	10.17	15.65	-25.4	-26.5	16.5	0.00e+00	0	41	0	531628032	11	4118
2026-01-12 03:12:48.91	9.96	15.96	-25.1	-25.9	16.8	0.00e+00	0	41	0	548405248	11	3948
2026-01-12 03:12:51.93	9.75	16.28	-24.9	-25.4	17.1	0.00e+00	0	41	0	565182464	11	3830
2026-01-12 03:12:54.95	9.53	16.60	-24.8	-25.8	17.2	0.00e+00	0	41	0	583008256	10	4035
2026-01-12 03:12:57.96	9.31	16.93	-24.8	-25.7	17.2	0.00e+00	0	41	0	599785472	10	4018
2026-01-12 03:13:00.96	9.08	17.26	-24.9	-26.0	17.1	0.00e+00	0	41	0	616562688	10	4083
2026-01-12 03:13:03.98	8.85	17.59	-24.8	-25.7	17.2	0.00e+00	0	41	0	633339904	10	4020
2026-01-12 03:13:07.00	8.61	17.93	-24.8	-25.8	17.2	0.00e+00	0	41	0	650117120	10	4030
2026-01-12 03:13:10.02	8.36	18.27	-24.7	-25.6	17.4	0.00e+00	0	41	0	667942912	10	3975
2026-01-12 03:13:13.04	8.11	18.62	-24.5	-25.1	17.6	0.00e+00	0	41	0	684720128	10	3868
2026-01-12 03:13:16.06	7.86	18.97	-24.7	-25.6	17.3	0.00e+00	0	41	0	701497344	10	3988
2026-01-12 03:13:19.08	7.59	19.32	-24.7	-25.5	17.4	0.00e+00	0	41	0	718274560	10	3954
2026-01-12 03:13:22.10	7.32	19.68	-24.5	-25.1	17.6	0.00e+00	0	41	0	735051776	10	3863
2026-01-12 03:13:25.12	7.05	20.05	-24.1	-24.8	18.1	0.00e+00	0	41	0	752877568	9	3898
2026-01-12 03:13:28.15	6.76	20.42	-24.1	-24.7	18.1	0.00e+00	0	41	0	769654784	9	3869
2026-01-12 03:13:31.17	6.47	20.79	-23.9	-24.3	18.3	0.00e+00	0	41	0	786432000	9	3786
2026-01-12 03:13:34.19	6.17	21.17	-23.8	-24.2	18.4	0.00e+00	0	41	0	803209216	9	3755
2026-01-12 03:13:37.22	5.86	21.55	-23.8	-24.5	18.5	0.00e+00	0	41	0	819986432	8	3945
2026-01-12 03:13:40.24	5.55	21.94	-23.8	-24.6	18.5	0.00e+00	0	41	0	837812224	8	3951
2026-01-12 03:13:43.25	5.23	22.34	-23.7	-24.5	18.5	0.00e+00	0	41	0	854589440	8	3927
2026-01-12 03:13:46.28	4.90	22.74	-23.8	-24.6	18.5	0.00e+00	0	41	0	871366656	8	3956
2026-01-12 03:13:49.30	4.56	23.14	-23.7	-24.4	18.6	0.00e+00	0	41	0	888143872	8	3907
2026-01-12 03:13:52.32	4.21	23.55	-23.7	-24.4	18.6	0.00e+00	0	41	0	904921088	8	3912
2026-01-12 03:13:55.33	3.85	23.96	-23.5	-24.1	18.8	0.00e+00	0	41	0	922746880	8	3829
2026-01-12 03:13:58.36	3.48	24.38	-23.4	-23.7	19.0	0.00e+00	0	42	0	939524096	8	3750
2026-01-12 03:14:01.37	3.10	24.81	-23.1	-23.7	19.2	0.00e+00	0	41	0	956301312	7	3856
2026-01-12 03:14:04.39	2.71	25.24	-23.5	-24.5	18.8	0.00e+00	0	41	0	973078528	7	4036
2026-01-12 03:14:07.40	2.31	25.67	-23.4	-24.3	18.9	0.00e+00	0	41	0	989855744	7	3994
2026-01-12 03:14:10.41	1.90	26.11	-23.5	-24.6	18.8	0.00e+00	0	41	0	1007681536	7	4066
2026-01-12 03:14:13.43	1.48	26.56	-23.2	-23.8	19.2	0.00e+00	0	41	0	1024458752	7	3882
2026-01-12 03:14:16.43	1.04	27.01	-23.1	-23.7	19.3	0.00e+00	0	41	0	1041235968	7	3846
2026-01-12 03:14:19.45	0.59	27.47	-23.2	-23.8	19.2	0.00e+00	0	41	0	1058013184	7	3877
2026-01-12 03:14:22.47	0.13	27.93	-23.3	-24.0	19.1	0.00e+00	0	41	0	1074790400	7	3926
2026-01-12 03:14:25.49	359.65	28.40	-23.2	-23.8	19.3	0.00e+00	0	42	0	1091567616	7	3867
2026-01-12 03:14:28.51	359.16	28.88	-23.0	-23.4	19.5	0.00e+00	0	41	0	1108344832	7	3775
2026-01-12 03:14:31.52	358.66	29.36	-23.2	-23.8	19.3	0.00e+00	0	42	0	1126170624	7	3878
2026-01-12 03:14:34.55	358.13	29.85	-23.0	-23.5	19.4	0.00e+00	0	41	0	1142947840	7	3808
2026-01-12 03:14:37.57	357.59	30.34	-23.1	-23.7	19.4	0.00e+00	0	42	0	1159725056	7	3844
2026-01-12 03:14:40.59	357.04	30.84	-23.1	-23.6	19.4	0.00e+00	0	42	0	1176502272	7	3833
2026-01-12 03:14:43.60	356.46	31.35	-22.9	-23.3	19.6	0.00e+00	0	42	0	1193279488	7	3753
2026-01-12 03:14:46.63	355.87	31.86	-22.7	-23.3	19.8	0.00e+00	0	41	0	1211105280	6	3851
2026-01-12 03:14:49.65	355.26	32.37	-22.6	-23.1	19.9	0.00e+00	0	41	0	1227882496	6	3822
2026-01-12 03:14:52.66	354.63	32.89	-22.9	-23.7	19.6	0.00e+00	0	41	0	1244659712	6	3961
2026-01-12 03:14:55.68	353.97	33.42	-23.0	-24.0	19.5	0.00e+00	0	42	0	1261436928	6	4017
2026-01-12 03:14:58.68	353.30	33.94	-22.9	-23.7	19.7	0.00e+00	0	41	0	1278214144	6	3955
2026-01-12 03:15:01.70	352.60	34.48	-23.0	-23.9	19.6	0.00e+00	0	41	0	1294991360	6	4005
2026-01-12 03:15:04.72	351.88	35.01	-23.0	-23.8	19.6	0.00e+00	0	41	0	1312817152	6	3989
2026-01-12 03:15:07.74	351.13	35.56	-22.7	-23.4	19.8	0.00e+00	0	42	0	1329594368	6	3890
2026-01-12 03:15:10.76	350.36	36.10	-22.6	-23.1	20.0	0.00e+00	0	41	0	1346371584	6	3818
2026-01-12 03:15:13.78	349.56	36.65	-22.9	-23.8	19.7	0.00e+00	0	41	0	1363148800	6	3978
2026-01-12 03:15:16.79	348.74	37.20	-22.8	-23.6	19.8	0.00e+00	0	42	0	1379926016	6	3931
2026-01-12 03:15:19.82	347.88	37.76	-22.7	-23.3	19.9	0.00e+00	0	41	0	1397751808	6	3863
2026-01-12 03:15:22.84	346.99	38.31	-23.3	-24.5	19.3	0.00e+00	0	41	0	1414529024	6	4144
2026-01-12 03:15:25.86	346.08	38.87	-22.7	-23.3	19.9	0.00e+00	0	42	0	1431306240	6	3861
2026-01-12 03:15:28.88	345.13	39.43	-22.7	-23.3	19.9	0.00e+00	0	42	0	1448083456	6	3858
2026-01-12 03:15:31.90	344.15	39.98	-22.7	-23.4	19.9	0.00e+00	0	42	0	1464860672	6	3881
2026-01-12 03:15:34.93	343.13	40.54	-22.8	-23.6	19.8	0.00e+00	0	41	0	1482686464	6	3919
2026-01-12 03:15:37.94	342.08	41.09	-22.8	-23.5	19.8	0.00e+00	0	42	0	1499463680	6	3910
2026-01-12 03:15:40.96	340.99	41.64	-22.6	-23.2	20.0	0.00e+00	0	41	0	1516240896	6	3825
2026-01-12 03:15:43.98	339.86	42.19	-22.6	-23.0	20.1	0.00e+00	0	42	0	1533018112	6	3796
2026-01-12 03:15:47.00	338.69	42.73	-22.7	-23.3	19.9	0.00e+00	0	42	0	1550843904	6	3863
2026-01-12 03:15:50.02	337.48	43.27	-22.4	-22.6	20.3	0.00e+00	0	42	0	1567621120	6	3700
2026-01-12 03:15:53.04	336.23	43.80	-22.6	-23.2	20.0	0.00e+00	0	42	0	1584398336	6	3835
2026-01-12 03:15:56.06	334.94	44.32	-22.5	-23.0	20.1	0.00e+00	0	42	0	1601175552	6	3779
2026-01-12 03:15:59.07	333.62	44.83	-23.1	-24.1	19.6	0.00e+00	0	42	0	1617952768	6	4042
2026-01-12 03:16:02.09	332.24	45.32	-22.7	-23.4	19.9	0.00e+00	0	42	0	1635778560	6	3868
2026-01-12 03:16:05.11	330.82	45.81	-22.7	-23.3	19.9	0.00e+00	0	42	0	1652555776	6	3861
2026-01-12 03:16:08.13	329.35	46.28	-22.7	-23.3	19.9	0.00e+00	0	42	0	1669332992	6	3857
2026-01-12 03:16:11.15	327.85	46.73	-23.0	-24.0	19.6	0.00e+00	0	42	0	1686110208	6	4013
2026-01-12 03:16:14.18	326.29	47.17	-22.9	-23.8	19.7	0.00e+00	0	42	0	1702887424	6	3964
2026-01-12 03:16:17.20	324.69	47.59	-23.1	-24.0	19.6	0.00e+00	0	42	0	1720713216	6	4033
2026-01-12 03:16:20.22	323.05	47.99	-23.2	-24.2	19.5	0.00e+00	0	42	0	1737490432	6	4078
2026-01-12 03:16:23.24	321.37	48.36	-23.6	-24.7	19.0	0.00e+00	0	41	0	1754267648	7	4092
2026-01-12 03:16:26.26	319.65	48.71	-23.1	-23.7	19.5	0.00e+00	0	42	0	1771044864	7	3850
2026-01-12 03:16:29.29	317.89	49.04	-23.0	-23.4	19.7	0.00e+00	0	42	0	1787822080	7	3764
2026-01-12 03:16:32.30	316.10	49.33	-23.3	-24.0	19.4	0.00e+00	0	42	0	1805647872	7	3906
2026-01-12 03:16:35.32	314.27	49.60	-23.2	-23.9	19.4	0.00e+00	0	41	0	1822425088	7	3886
2026-01-12 03:16:38.35	312.41	49.84	-23.0	-23.3	19.8	0.00e+00	0	42	0	1839202304	7	3759
2026-01-12 03:16:41.36	310.53	50.04	-23.0	-23.5	19.7	0.00e+00	0	42	0	1855979520	7	3784
2026-01-12 03:16:44.38	308.62	50.21	-23.3	-24.0	19.4	0.00e+00	0	42	0	1872756736	7	3910
2026-01-12 03:16:47.40	306.68	50.35	-23.1	-23.6	19.6	0.00e+00	0	42	0	1890582528	7	3804
2026-01-12 03:16:50.42	304.74	50.46	-23.3	-24.0	19.4	0.00e+00	0	42	0	1907359744	7	3906
2026-01-12 03:16:53.43	302.79	50.53	-23.8	-25.0	18.9	0.00e+00	0	42	0	1924136960	7	4162
2026-01-12 03:16:56.45	300.82	50.56	-22.9	-23.2	19.8	0.00e+00	0	42	0	1940914176	7	3734
2026-01-12 03:16:59.47	298.85	50.56	-23.0	-23.5	19.7	0.00e+00	0	42	0	1957691392	7	3796
2026-01-12 03:17:02.48	296.90	50.52	-23.5	-24.4	19.2	0.00e+00	0	42	0	1975517184	7	4015
2026-01-12 03:17:05.50	294.94	50.45	-23.4	-24.3	19.2	0.00e+00	0	42	0	1992294400	7	3993
2026-01-12 03:17:08.52	292.99	50.34	-23.2	-23.8	19.5	0.00e+00	0	42	0	2009071616	7	3853
2026-01-12 03:17:11.54	291.06	50.20	-23.5	-24.5	19.1	0.00e+00	0	42	0	2025848832	7	4032
2026-01-12 03:17:14.56	289.15	50.02	-23.2	-23.8	19.5	0.00e+00	0	41	0	2042626048	7	3861
2026-01-12 03:17:17.57	287.27	49.82	-23.4	-24.3	19.2	0.00e+00	0	42	0	2060451840	7	3996
2026-01-12 03:17:20.57	285.43	49.58	-22.8	-23.1	19.9	0.00e+00	0	42	0	2077229056	7	3698
2026-01-12 03:17:23.58	283.60	49.31	-23.2	-23.8	19.5	0.00e+00	0	42	0	2094006272	7	3868
2026-01-12 03:17:26.60	281.81	49.01	-23.2	-23.8	19.4	0.00e+00	0	42	0	2110783488	7	3870
2026-01-12 03:17:29.62	280.05	48.68	-23.0	-23.5	19.6	0.00e+00	0	42	0	2127560704	7	3797
2026-01-12 03:17:32.65	278.33	48.33	-22.9	-23.2	19.7	0.00e+00	0	42	0	2144337920	7	3736
2026-01-12 03:17:35.67	276.65	47.95	-22.7	-23.3	20.0	0.00e+00	0	42	0	2162163712	6	3867
2026-01-12 03:17:38.69	275.01	47.55	-22.8	-23.6	19.8	0.00e+00	0	42	0	2178940928	6	3932
2026-01-12 03:17:41.71	273.41	47.13	-22.8	-23.6	19.8	0.00e+00	0	42	0	2195718144	6	3917
2026-01-12 03:17:44.74	271.86	46.69	-22.9	-23.7	19.7	0.00e+00	0	42	0	2212495360	6	3962
2026-01-12 03:17:47.76	270.35	46.23	-22.6	-23.1	20.0	0.00e+00	0	42	0	2230321152	6	3821
2026-01-12 03:17:50.78	268.88	45.76	-22.2	-22.8	20.4	0.00e+00	0	42	0	2247098368	5	3846
2026-01-12 03:17:53.80	267.46	45.27	-22.2	-22.7	20.4	0.00e+00	0	42	0	2263875584	5	3819
2026-01-12 03:17:56.81	266.09	44.77	-22.1	-22.6	20.5	0.00e+00	0	42	0	2280652800	5	3811
2026-01-12 03:17:59.83	264.76	44.26	-22.3	-22.9	20.3	0.00e+00	0	42	0	2297430016	5	3871
2026-01-12 03:18:02.85	263.47	43.74	-22.4	-23.2	20.2	0.00e+00	0	42	0	2314207232	5	3941
2026-01-12 03:18:05.87	262.22	43.21	-22.2	-22.7	20.4	0.00e+00	0	42	0	2332033024	5	3830
2026-01-12 03:18:08.89	261.01	42.67	-21.9	-22.0	20.7	0.00e+00	0	42	0	2348810240	5	3676
2026-01-12 03:18:11.91	259.85	42.13	-22.0	-22.4	20.6	0.00e+00	0	41	0	2365587456	5	3757
2026-01-12 03:18:14.94	258.72	41.57	-22.5	-23.3	20.1	0.00e+00	0	42	0	2382364672	5	3971
2026-01-12 03:18:17.96	257.63	41.02	-22.9	-24.1	19.6	0.00e+00	0	42	0	2399141888	5	4173
2026-01-12 03:18:20.98	256.57	40.47	-22.4	-23.2	20.1	0.00e+00	0	42	0	2416967680	5	3932
2026-01-12 03:18:24.00	255.56	39.91	-22.5	-23.4	20.0	0.00e+00	0	42	0	2433744896	5	3995
2026-01-12 03:18:27.02	254.57	39.35	-22.4	-23.3	20.1	8.00e-06	0	42	0	2450522112	5	3962
2026-01-12 03:18:30.03	253.63	38.79	-22.7	-23.8	19.8	0.00e+00	0	42	0	2467299328	5	4096
2026-01-12 03:18:33.06	252.71	38.23	-22.0	-22.5	20.5	0.00e+00	0	42	0	2484076544	5	3774
2026-01-12 03:18:36.08	251.82	37.67	-22.0	-22.3	20.5	1.10e-06	0	42	0	2501902336	5	3738
2026-01-12 03:18:39.10	250.97	37.12	-22.0	-22.3	20.5	3.40e-06	0	42	0	2518679552	5	3745
2026-01-12 03:18:42.12	250.14	36.56	-22.1	-22.6	20.4	0.00e+00	0	42	0	2535456768	5	3816
2026-01-12 03:18:45.13	249.34	36.01	-22.2	-22.7	20.3	3.40e-06	0	42	0	2552233984	5	3841
2026-01-12 03:18:48.17	248.57	35.46	-22.2	-22.7	20.3	1.10e-06	0	42	0	2570059776	5	3824
2026-01-12 03:18:51.19	247.82	34.92	-22.1	-22.5	20.4	2.20e-06	0	42	0	2586836992	5	3778
2026-01-12 03:18:54.21	247.10	34.38	-22.1	-22.6	20.4	0.00e+00	0	42	0	2603614208	5	3806
2026-01-12 03:18:57.23	246.40	33.84	-22.4	-23.2	20.0	0.00e+00	0	42	0	2620391424	5	3955
2026-01-12 03:19:00.25	245.72	33.31	-22.4	-23.1	20.1	0.00e+00	0	42	0	2637168640	5	3935
2026-01-12 03:19:03.26	245.07	32.78	-22.2	-22.8	20.2	0.00e+00	0	42	0	2654994432	5	3859
2026-01-12 03:19:06.28	244.44	32.26	-22.6	-23.7	19.8	0.00e+00	0	42	0	2671771648	5	4065
2026-01-12 03:19:09.30	243.82	31.75	-22.9	-24.3	19.5	0.00e+00	0	42	0	2688548864	5	4222
2026-01-12 03:19:12.32	243.23	31.23	-23.2	-24.3	19.3	0.00e+00	0	42	0	2705326080	6	4094
2026-01-12 03:19:15.33	242.66	30.73	-22.8	-23.6	19.6	0.00e+00	0	42	0	2722103296	6	3927
2026-01-12 03:19:18.35	242.10	30.23	-22.7	-23.3	19.8	0.00e+00	0	42	0	2738880512	6	3853
2026-01-12 03:19:21.37	241.56	29.73	-22.8	-23.5	19.6	0.00e+00	0	42	0	2756706304	6	3922
2026-01-12 03:19:24.39	241.04	29.25	-22.8	-23.5	19.6	0.00e+00	0	42	0	2773483520	6	3913
2026-01-12 03:19:27.41	240.53	28.76	-22.8	-23.5	19.7	0.00e+00	0	42	0	2790260736	6	3895
2026-01-12 03:19:30.44	240.03	28.28	-23.1	-24.2	19.3	0.00e+00	0	42	0	2807037952	6	4073
2026-01-12 03:19:33.45	239.56	27.81	-23.1	-24.2	19.3	0.00e+00	0	42	0	2823815168	6	4070
2026-01-12 03:19:36.45	239.10	27.35	-23.4	-24.7	19.0	0.00e+00	0	42	0	2840592384	6	4198
2026-01-12 03:19:39.46	238.65	26.89	-23.0	-24.0	19.4	0.00e+00	0	42	0	2858418176	6	4016
2026-01-12 03:19:42.48	238.21	26.44	-22.9	-23.8	19.4	0.00e+00	0	42	0	2875195392	6	3974
2026-01-12 03:19:45.50	237.78	25.99	-22.9	-23.7	19.5	0.00e+00	0	42	0	2891972608	6	3957
2026-01-12 03:19:48.52	237.37	25.54	-23.2	-24.4	19.1	0.00e+00	0	42	0	2908749824	6	4120
2026-01-12 03:19:51.54	236.97	25.11	-23.0	-23.9	19.4	0.00e+00	0	42	0	2925527040	6	3994
2026-01-12 03:19:54.55	236.58	24.68	-23.2	-24.4	19.1	0.00e+00	0	42	0	2942304256	6	4128
2026-01-12 03:19:57.57	236.20	24.25	-23.0	-24.0	19.3	0.00e+00	0	42	0	2960130048	6	4020
2026-01-12 03:20:00.58	235.83	23.83	-23.0	-24.1	19.3	0.00e+00	0	42	0	2976907264	6	4044
2026-01-12 03:20:03.59	235.47	23.42	-23.0	-24.0	19.3	0.00e+00	0	42	0	2993684480	6	4021
2026-01-12 03:20:06.61	235.12	23.01	-23.1	-24.1	19.2	0.00e+00	0	42	0	3010461696	6	4056
2026-01-12 03:20:09.63	234.78	22.60	-23.3	-24.5	19.0	0.00e+00	0	42	0	3027238912	6	4153
2026-01-12 03:20:12.65	234.45	22.20	-23.4	-24.8	18.8	0.00e+00	0	42	0	3045064704	6	4236
2026-01-12 03:20:15.68	234.12	21.81	-23.3	-24.1	18.9	0.00e+00	0	42	0	3061841920	7	3952
2026-01-12 03:20:18.70	233.81	21.42	-23.4	-24.3	18.8	0.00e+00	0	42	0	3078619136	7	3981
2026-01-12 03:20:21.71	233.50	21.03	-23.3	-24.1	18.9	0.00e+00	0	42	0	3095396352	7	3938
2026-01-12 03:20:24.73	233.20	20.66	-23.3	-24.0	18.9	0.00e+00	0	42	0	3112173568	7	3925
2026-01-12 03:20:27.75	232.91	20.28	-23.4	-24.4	18.7	0.00e+00	0	42	0	3129999360	7	4019
2026-01-12 03:20:30.77	232.63	19.91	-23.6	-24.8	18.5	0.00e+00	0	42	0	3146776576	7	4125
2026-01-12 03:20:33.79	232.35	19.55	-23.8	-25.1	18.3	0.00e+00	0	42	0	3163553792	7	4193
2026-01-12 03:20:36.81	232.08	19.19	-23.9	-25.5	18.1	0.00e+00	0	42	0	3180331008	7	4289
2026-01-12 03:20:39.83	231.81	18.83	-24.3	-25.7	17.8	0.00e+00	0	42	0	3197108224	8	4236
2026-01-12 03:20:42.85	231.55	18.48	-24.3	-25.3	17.7	0.00e+00	0	42	0	3214934016	9	4031
2026-01-12 03:20:45.88	231.30	18.13	-24.4	-25.4	17.6	0.00e+00	0	42	0	3231711232	9	4062
2026-01-12 03:20:48.90	231.05	17.79	-24.3	-25.3	17.7	0.00e+00	0	42	0	3248488448	9	4016
2026-01-12 03:20:51.91	230.81	17.45	-24.3	-25.2	17.7	0.00e+00	0	42	0	3265265664	9	3992
2026-01-12 03:20:54.94	230.58	17.11	-24.4	-25.4	17.6	0.00e+00	0	42	0	3282042880	9	4037
2026-01-12 03:20:57.96	230.34	16.78	-24.4	-25.4	17.5	0.00e+00	0	42	0	3299868672	9	4056
2026-01-12 03:21:00.98	230.12	16.46	-24.5	-25.7	17.4	0.00e+00	0	42	0	3316645888	9	4117
2026-01-12 03:21:04.00	229.90	16.13	-24.6	-25.8	17.3	0.00e+00	0	42	0	3333423104	9	4147
2026-01-12 03:21:07.01	229.68	15.81	-24.7	-26.0	17.2	0.00e+00	0	42	0	3350200320	9	4199
2026-01-12 03:21:10.03	229.47	15.50	-24.9	-26.5	16.9	0.00e+00	0	42	0	3366977536	9	4338
2026-01-12 03:21:13.06	229.27	15.19	-24.8	-26.3	17.0	0.00e+00	0	42	0	3384803328	9	4283
2026-01-12 03:21:16.08	229.07	14.88	-25.0	-26.2	16.8	0.00e+00	0	42	0	3401580544	10	4147
2026-01-12 03:21:19.09	228.87	14.57	-25.1	-26.5	16.6	0.00e+00	0	42	0	3418357760	10	4232
2026-01-12 03:21:22.12	228.67	14.27	-25.4	-27.1	16.3	0.00e+00	0	42	0	3435134976	10	4386
2026-01-12 03:21:25.13	228.49	13.98	-25.6	-27.0	16.0	0.00e+00	0	42	0	3451912192	11	4259
2026-01-12 03:21:28.16	228.30	13.68	-25.7	-27.2	15.9	0.00e+00	0	42	0	3469737984	11	4301
2026-01-12 03:21:31.17	228.12	13.39	-25.7	-27.2	15.9	0.00e+00	0	42	0	3486515200	11	4300
2026-01-12 03:21:34.19	227.94	13.10	-25.9	-27.3	15.5	0.00e+00	0	42	0	3503292416	12	4211
2026-01-12 03:21:37.21	227.77	12.82	-25.4	-26.2	16.1	0.00e+00	0	42	0	3520069632	12	3925
2026-01-12 03:21:40.22	227.60	12.54	-25.6	-26.6	15.8	0.00e+00	0	42	0	3536846848	12	4027
2026-01-12 03:21:43.24	227.43	12.26	-25.3	-26.0	16.2	0.00e+00	0	42	0	3554672640	12	3880
2026-01-12 03:21:46.26	227.26	11.98	-25.4	-26.7	16.1	0.00e+00	0	42	0	3571449856	11	4156
2026-01-12 03:21:49.28	227.10	11.71	-25.6	-27.0	15.9	0.00e+00	0	42	0	3588227072	11	4232
2026-01-12 03:21:52.29	226.95	11.44	-25.6	-27.0	15.9	0.00e+00	0	42	0	3605004288	11	4249
2026-01-12 03:21:55.30	226.79	11.17	-25.8	-27.5	15.6	0.00e+00	0	42	0	3621781504	11	4383
2026-01-12 03:21:58.33	226.64	10.90	-25.8	-27.5	15.6	0.00e+00	0	42	0	3639607296	11	4370
2026-01-12 03:22:01.36	226.49	10.64	-25.7	-26.9	15.6	0.00e+00	0	42	0	3656384512	12	4106
2026-01-12 03:22:04.38	226.34	10.38	-25.9	-27.3	15.3	0.00e+00	0	42	0	3673161728	12	4227
2026-01-12 03:22:07.41	226.20	10.12	-25.9	-27.2	15.3	0.00e+00	0	42	0	3689938944	12	4210
2026-01-12 03:22:10.43	226.06	9.87	-25.9	-27.3	15.3	0.00e+00	0	42	0	3706716160	12	4234
2026-01-12 03:22:13.45	225.92	9.62	-25.9	-27.4	15.2	0.00e+00	0	42	0	3724541952	12	4246
2026-01-12 03:22:16.46	225.78	9.37	-26.0	-27.5	15.1	0.00e+00	0	42	0	3741319168	12	4263
2026-01-12 03:22:19.48	225.65	9.12	-26.0	-27.5	15.1	0.00e+00	0	42	0	3758096384	12	4281
2026-01-12 03:22:22.50	225.52	8.87	-26.1	-27.7	15.0	0.00e+00	0	42	0	3774873600	12	4342
2026-01-12 03:22:25.51	225.39	8.63	-26.1	-27.7	14.9	0.00e+00	0	42	0	3791650816	12	4349
2026-01-12 03:22:28.53	225.26	8.39	-26.2	-28.0	14.8	0.00e+00	0	42	0	3809476608	12	4412
2026-01-12 03:22:31.55	225.14	8.15	-26.2	-28.0	14.7	0.00e+00	0	42	0	3826253824	12	4433
2026-01-12 03:22:34.56	225.02	7.92	-26.3	-28.1	14.6	0.00e+00	0	42	0	3843031040	12	4470
2026-01-12 03:22:37.59	224.90	7.68	-26.4	-28.5	14.4	2.20e-06	0	42	0	3859808256	12	4575
2026-01-12 03:22:40.60	224.78	7.45	-26.9	-28.5	13.8	3.40e-06	0	42	0	3876585472	14	4344
2026-01-12 03:22:43.62	224.66	7.22	-26.8	-28.5	13.8	1.10e-06	0	42	0	3894411264	14	4349
2026-01-12 03:22:46.63	224.55	6.99	-32.9	-44.4	3.8	8.46e-01	0	42	104	3903848448	25	13484

#Closed at: 2026-01-12 03:22:46
#Recorded file [3903 MB]: D:/data/31010_260112_061111.dat