passes_logs/2026/01/12/R2M6_AANII_01/R2M6_AANII_01__20260112_122747_NOAA_20_JPSS-1_rec.log

#Pass ID: 20260112_122747_NOAA 20 (JPSS-1)
#Satellite: NOAA 20 (JPSS-1)
#Configuration: NOAA 20
#almurnet v.1.7.20240730
#Start time: 2026-01-12 12:27:47

#Version: 2.2.20231116
#Station: R2M6_AANII_01
#Location: 30.233357 lon 59.946436 lat
#TLE: 1 43013U 17073A   26011.31235446  .00000090  00000+0  63634-4 0  9991
#TLE: 2 43013  98.7632 312.2907 0001646  44.6084 315.5224 14.19535308422217

#Time	Az	El	Level	Level2	SNR	BER	BlckErr	Temp	State	Recorded	gain1	gain2
2026-01-12 12:27:47.71	233.38	7.00	-31.0	-35.5	5.3	1.13e+00	0	40	0	0	23	6045
2026-01-12 12:27:50.72	233.75	7.15	-31.4	-37.2	8.1	5.96e-02	0	40	0	1048576	23	7046
2026-01-12 12:27:53.74	234.13	7.30	-31.6	-38.0	7.5	9.29e-02	0	40	0	7340032	23	7523
2026-01-12 12:27:56.76	234.51	7.46	-31.4	-36.9	8.4	4.63e-02	0	40	0	12582912	23	6836
2026-01-12 12:27:59.78	234.89	7.61	-31.2	-36.1	9.1	2.82e-02	0	40	0	18874368	23	6349
2026-01-12 12:28:02.80	235.28	7.76	-31.2	-36.4	8.9	3.77e-02	0	40	0	24117248	23	6483
2026-01-12 12:28:05.82	235.67	7.92	-30.6	-34.6	10.7	4.09e-03	0	40	0	29360128	22	5676
2026-01-12 12:28:08.84	236.07	8.07	-30.4	-33.8	11.3	1.39e-03	0	40	0	35651584	22	5322
2026-01-12 12:28:11.86	236.46	8.22	-30.6	-34.3	10.9	1.63e-03	0	40	0	40894464	22	5547
2026-01-12 12:28:14.87	236.87	8.37	-30.1	-33.3	12.0	4.43e-04	0	40	0	47185920	21	5216
2026-01-12 12:28:17.88	237.27	8.53	-30.2	-33.6	11.8	4.06e-04	0	41	0	52428800	21	5331
2026-01-12 12:28:20.90	237.69	8.68	-30.3	-33.9	11.6	5.71e-04	0	41	0	57671680	21	5457
2026-01-12 12:28:23.92	238.10	8.83	-30.7	-35.2	10.7	2.76e-03	0	41	0	63963136	21	6051
2026-01-12 12:28:26.94	238.52	8.98	-30.2	-33.7	11.9	4.42e-04	0	41	0	69206016	21	5348
2026-01-12 12:28:29.95	238.94	9.13	-30.4	-34.1	11.5	6.26e-04	0	41	0	74448896	21	5541
2026-01-12 12:28:32.96	239.37	9.28	-30.1	-33.3	12.2	4.49e-04	0	41	0	80740352	21	5177
2026-01-12 12:28:35.98	239.80	9.43	-30.0	-32.8	12.5	1.29e-04	0	41	0	85983232	21	5005
2026-01-12 12:28:39.00	240.24	9.58	-29.9	-32.5	12.7	1.05e-04	0	41	0	92274688	21	4886
2026-01-12 12:28:42.01	240.68	9.72	-30.0	-32.9	12.5	9.30e-05	0	41	0	97517568	21	5021
2026-01-12 12:28:45.04	241.13	9.87	-29.9	-32.6	12.7	7.24e-05	0	41	0	102760448	21	4920
2026-01-12 12:28:48.06	241.58	10.02	-29.8	-32.7	12.9	4.57e-05	0	41	0	109051904	20	5065
2026-01-12 12:28:51.08	242.03	10.17	-29.7	-32.5	13.1	3.66e-05	0	41	0	114294784	20	4973
2026-01-12 12:28:54.10	242.49	10.31	-29.6	-32.3	13.3	1.67e-05	0	41	0	120586240	20	4905
2026-01-12 12:28:57.11	242.95	10.46	-29.7	-32.5	13.1	2.44e-05	0	41	0	125829120	20	4982
2026-01-12 12:29:00.13	243.42	10.60	-29.7	-32.5	13.2	1.75e-05	0	41	0	131072000	20	4952
2026-01-12 12:29:03.15	243.89	10.74	-29.6	-32.3	13.3	2.21e-05	0	41	0	137363456	20	4904
2026-01-12 12:29:06.17	244.37	10.88	-29.6	-32.3	13.3	1.75e-05	0	41	0	142606336	20	4895
2026-01-12 12:29:09.19	244.85	11.03	-29.5	-32.0	13.5	1.37e-05	0	41	0	148897792	20	4797
2026-01-12 12:29:12.20	245.34	11.17	-29.6	-32.2	13.4	6.80e-06	0	41	0	154140672	20	4857
2026-01-12 12:29:15.22	245.83	11.31	-29.7	-32.4	13.3	2.05e-05	0	41	0	159383552	20	4905
2026-01-12 12:29:18.24	246.32	11.44	-29.6	-32.2	13.4	1.22e-05	0	41	0	165675008	20	4850
2026-01-12 12:29:21.24	246.82	11.58	-29.6	-32.2	13.4	1.22e-05	0	41	0	170917888	20	4859
2026-01-12 12:29:24.25	247.32	11.71	-29.6	-32.2	13.5	1.06e-05	0	42	0	177209344	20	4855
2026-01-12 12:29:27.28	247.83	11.85	-29.7	-32.5	13.3	2.13e-05	0	42	0	182452224	20	4947
2026-01-12 12:29:30.29	248.34	11.98	-29.8	-32.6	13.2	2.13e-05	0	42	0	187695104	20	5004
2026-01-12 12:29:33.32	248.86	12.11	-29.8	-32.7	13.2	1.52e-05	0	42	0	193986560	20	5030
2026-01-12 12:29:36.34	249.38	12.25	-29.9	-32.8	13.1	2.36e-05	0	42	0	199229440	20	5081
2026-01-12 12:29:39.35	249.90	12.37	-30.0	-33.2	12.9	4.73e-05	0	42	0	205520896	20	5205
2026-01-12 12:29:42.36	250.43	12.50	-30.0	-33.4	12.7	5.64e-05	0	42	0	210763776	20	5290
2026-01-12 12:29:45.39	250.97	12.63	-30.2	-33.8	12.4	1.47e-04	0	42	0	216006656	20	5457
2026-01-12 12:29:48.41	251.51	12.75	-30.3	-34.0	12.3	1.62e-04	0	42	0	222298112	20	5552
2026-01-12 12:29:51.41	252.05	12.87	-30.5	-34.0	12.0	4.53e-04	0	42	0	227540992	21	5443
2026-01-12 12:29:54.44	252.60	12.99	-30.5	-34.1	11.9	3.91e-04	0	42	0	233832448	21	5463
2026-01-12 12:29:57.45	253.15	13.11	-30.5	-34.2	11.9	3.64e-04	0	42	0	239075328	21	5490
2026-01-12 12:30:00.46	253.70	13.23	-30.6	-34.5	11.7	4.58e-04	0	42	0	244318208	21	5620
2026-01-12 12:30:03.48	254.26	13.35	-30.7	-34.8	11.5	7.51e-04	0	42	0	250609664	21	5779
2026-01-12 12:30:06.50	254.83	13.46	-30.7	-34.8	11.5	7.39e-04	0	42	0	255852544	21	5761
2026-01-12 12:30:09.52	255.40	13.57	-30.7	-34.7	11.5	7.23e-04	0	42	0	262144000	21	5734
2026-01-12 12:30:12.53	255.97	13.68	-30.8	-35.1	11.3	1.09e-03	0	42	0	267386880	21	5910
2026-01-12 12:30:15.55	256.55	13.79	-31.0	-35.4	10.8	1.73e-03	0	42	0	272629760	22	5932
2026-01-12 12:30:18.57	257.13	13.89	-31.1	-35.6	10.6	2.59e-03	0	42	0	278921216	22	6006
2026-01-12 12:30:21.59	257.71	13.99	-30.9	-35.0	11.1	1.80e-03	0	42	0	284164096	22	5720
2026-01-12 12:30:24.62	258.30	14.09	-30.8	-34.6	11.4	1.11e-03	0	42	0	290455552	22	5548
2026-01-12 12:30:27.63	258.89	14.19	-30.9	-34.8	11.2	1.82e-03	0	42	0	295698432	22	5661
2026-01-12 12:30:30.65	259.49	14.29	-30.5	-33.6	12.1	2.88e-04	0	42	0	300941312	22	5145
2026-01-12 12:30:33.66	260.09	14.38	-30.5	-33.6	12.1	2.58e-04	0	42	0	307232768	22	5138
2026-01-12 12:30:36.68	260.69	14.47	-30.5	-33.6	12.1	2.94e-04	0	42	0	312475648	22	5147
2026-01-12 12:30:39.70	261.30	14.56	-30.4	-33.4	12.3	2.18e-04	0	42	0	317718528	22	5048
2026-01-12 12:30:42.72	261.91	14.64	-30.2	-33.3	12.6	1.43e-04	0	42	0	324009984	21	5127
2026-01-12 12:30:45.74	262.53	14.72	-30.0	-32.6	13.1	3.20e-05	0	42	0	329252864	21	4876
2026-01-12 12:30:48.76	263.14	14.80	-30.1	-32.9	12.9	7.09e-05	0	42	0	335544320	21	4962
2026-01-12 12:30:51.77	263.76	14.88	-29.8	-32.2	13.4	1.83e-05	0	42	0	340787200	21	4717
2026-01-12 12:30:54.79	264.38	14.95	-29.9	-32.3	13.3	2.59e-05	0	42	0	346030080	21	4757
2026-01-12 12:30:57.80	265.01	15.02	-29.9	-32.8	13.3	1.75e-05	0	42	0	352321536	20	5034
2026-01-12 12:31:00.81	265.64	15.09	-29.8	-32.7	13.4	1.67e-05	0	42	0	357564416	20	5015
2026-01-12 12:31:03.82	266.26	15.15	-30.1	-33.3	13.0	3.66e-05	0	42	0	363855872	20	5254
2026-01-12 12:31:06.83	266.90	15.21	-30.2	-33.8	12.7	1.30e-04	0	42	0	369098752	20	5423
2026-01-12 12:31:09.85	267.53	15.27	-30.2	-33.8	12.7	8.92e-05	0	42	0	374341632	20	5414
2026-01-12 12:31:12.86	268.17	15.33	-30.3	-34.0	12.5	9.91e-05	0	42	0	380633088	20	5521
2026-01-12 12:31:15.89	268.81	15.38	-30.3	-34.0	12.6	9.15e-05	0	42	0	385875968	20	5488
2026-01-12 12:31:18.91	269.46	15.43	-30.4	-34.2	12.4	1.14e-04	0	42	0	392167424	20	5584
2026-01-12 12:31:21.93	270.10	15.47	-30.3	-33.9	12.6	6.33e-05	0	42	0	397410304	20	5454
2026-01-12 12:31:24.94	270.75	15.51	-30.2	-33.7	12.7	5.11e-05	0	42	0	402653184	20	5398
2026-01-12 12:31:27.96	271.40	15.55	-30.4	-34.3	12.4	1.48e-04	0	42	0	408944640	20	5606
2026-01-12 12:31:30.97	272.04	15.59	-30.2	-33.7	12.8	5.95e-05	0	42	0	414187520	20	5380
2026-01-12 12:31:33.99	272.69	15.62	-30.1	-33.4	13.0	4.73e-05	0	42	0	420478976	20	5241
2026-01-12 12:31:37.00	273.35	15.65	-30.0	-33.2	13.1	3.05e-05	0	42	0	425721856	20	5191
2026-01-12 12:31:40.02	274.00	15.67	-30.1	-33.2	13.1	1.98e-05	0	42	0	430964736	20	5200
2026-01-12 12:31:43.04	274.65	15.69	-30.2	-33.5	12.9	3.96e-05	0	42	0	437256192	20	5322
2026-01-12 12:31:46.06	275.31	15.71	-30.1	-33.5	12.9	3.73e-05	0	42	0	442499072	20	5309
2026-01-12 12:31:49.07	275.96	15.72	-30.1	-33.4	12.9	5.18e-05	0	42	0	448790528	20	5273
2026-01-12 12:31:52.09	276.62	15.74	-30.0	-33.2	13.1	4.42e-05	0	42	0	454033408	20	5208
2026-01-12 12:31:55.11	277.28	15.74	-30.0	-33.2	13.1	2.74e-05	0	42	0	459276288	20	5199
2026-01-12 12:31:58.13	277.93	15.75	-30.1	-33.5	12.9	4.80e-05	0	42	0	465567744	20	5309
2026-01-12 12:32:01.15	278.59	15.75	-30.0	-33.2	13.1	2.89e-05	0	42	0	470810624	20	5180
2026-01-12 12:32:04.17	279.25	15.74	-30.2	-33.6	12.8	6.79e-05	0	42	0	477102080	20	5351
2026-01-12 12:32:07.19	279.90	15.74	-30.2	-33.6	12.8	6.17e-05	0	42	0	482344960	20	5340
2026-01-12 12:32:10.20	280.56	15.73	-29.9	-32.9	13.3	1.44e-05	0	42	0	487587840	20	5061
2026-01-12 12:32:13.22	281.21	15.71	-29.8	-32.5	13.5	1.52e-05	0	42	0	493879296	20	4937
2026-01-12 12:32:16.24	281.87	15.69	-29.8	-32.6	13.5	1.06e-05	0	42	0	499122176	20	4958
2026-01-12 12:32:19.26	282.52	15.67	-29.8	-32.6	13.4	6.10e-06	0	42	0	505413632	20	4979
2026-01-12 12:32:22.28	283.18	15.65	-29.9	-32.8	13.4	6.10e-06	0	42	0	510656512	20	5021
2026-01-12 12:32:25.30	283.83	15.62	-29.8	-32.7	13.4	1.60e-05	0	42	0	515899392	20	4995
2026-01-12 12:32:28.30	284.48	15.59	-29.9	-32.9	13.2	1.37e-05	0	42	0	522190848	20	5083
2026-01-12 12:32:31.32	285.12	15.56	-29.8	-32.5	13.5	1.44e-05	0	42	0	527433728	20	4939
2026-01-12 12:32:34.34	285.77	15.52	-29.8	-32.6	13.5	7.60e-06	0	42	0	533725184	20	4952
2026-01-12 12:32:37.36	286.42	15.48	-29.9	-32.9	13.3	1.52e-05	0	42	0	538968064	20	5073
2026-01-12 12:32:40.37	287.06	15.43	-29.9	-32.7	13.4	1.06e-05	0	42	0	544210944	20	4995
2026-01-12 12:32:43.38	287.70	15.38	-29.8	-32.6	13.5	1.90e-05	0	42	0	550502400	20	4967
2026-01-12 12:32:46.40	288.34	15.33	-29.9	-32.9	13.3	1.98e-05	0	42	0	555745280	20	5082
2026-01-12 12:32:49.42	288.98	15.28	-29.9	-32.8	13.4	1.75e-05	0	42	0	562036736	20	5044
2026-01-12 12:32:52.44	289.61	15.22	-29.7	-32.3	13.7	8.30e-06	0	42	0	567279616	20	4862
2026-01-12 12:32:55.46	290.25	15.16	-29.7	-32.2	13.8	6.80e-06	0	42	0	572522496	20	4813
2026-01-12 12:32:58.47	290.87	15.09	-29.8	-32.5	13.6	3.80e-06	0	42	0	578813952	20	4933
2026-01-12 12:33:01.50	291.50	15.03	-29.8	-32.5	13.6	9.10e-06	0	42	0	584056832	20	4909
2026-01-12 12:33:04.52	292.13	14.96	-29.5	-31.9	13.9	4.50e-06	0	42	0	590348288	20	4715
2026-01-12 12:33:07.54	292.75	14.89	-29.5	-31.7	14.1	3.00e-06	0	42	0	595591168	20	4636
2026-01-12 12:33:10.55	293.37	14.81	-29.3	-31.2	14.3	0.00e+00	0	42	0	600834048	20	4500
2026-01-12 12:33:13.58	293.98	14.73	-29.5	-32.2	14.1	7.00e-07	0	42	0	607125504	19	4915
2026-01-12 12:33:16.59	294.59	14.65	-29.7	-32.8	13.8	2.20e-06	0	42	0	612368384	19	5124
2026-01-12 12:33:19.62	295.20	14.57	-29.7	-32.7	13.8	7.00e-07	0	42	0	618659840	19	5103
2026-01-12 12:33:22.63	295.81	14.48	-29.5	-32.1	14.2	1.50e-06	0	42	0	623902720	19	4891
2026-01-12 12:33:25.65	296.41	14.39	-29.3	-31.8	14.3	7.00e-07	0	42	0	629145600	19	4777
2026-01-12 12:33:28.67	297.01	14.30	-29.4	-31.8	14.3	7.00e-07	0	42	0	635437056	19	4784
2026-01-12 12:33:31.69	297.60	14.20	-29.6	-32.5	13.9	7.60e-06	0	42	0	640679936	19	5007
2026-01-12 12:33:34.70	298.19	14.11	-29.5	-32.3	14.1	7.00e-07	0	42	0	646971392	19	4939
2026-01-12 12:33:37.72	298.78	14.01	-29.6	-32.5	13.9	5.30e-06	0	42	0	652214272	19	5026
2026-01-12 12:33:40.74	299.36	13.91	-29.6	-32.6	13.8	1.37e-05	0	42	0	657457152	19	5061
2026-01-12 12:33:43.75	299.94	13.80	-29.7	-32.7	13.7	8.30e-06	0	42	0	663748608	19	5116
2026-01-12 12:33:46.76	300.51	13.70	-29.4	-32.1	14.1	2.20e-06	0	42	0	668991488	19	4877
2026-01-12 12:33:49.78	301.08	13.59	-29.8	-33.0	13.6	3.00e-06	0	42	0	674234368	19	5207
2026-01-12 12:33:52.80	301.65	13.48	-29.9	-32.9	13.2	2.36e-05	0	42	0	680525824	20	5074
2026-01-12 12:33:55.82	302.21	13.37	-29.8	-32.6	13.4	1.60e-05	0	42	0	685768704	20	4971
2026-01-12 12:33:58.84	302.77	13.25	-29.9	-32.9	13.2	2.82e-05	0	42	0	692060160	20	5091
2026-01-12 12:34:01.87	303.33	13.14	-30.0	-33.1	13.0	3.50e-05	0	42	0	697303040	20	5174
2026-01-12 12:34:04.89	303.88	13.02	-30.0	-33.0	13.1	2.89e-05	0	42	0	702545920	20	5141
2026-01-12 12:34:07.91	304.43	12.90	-30.0	-33.3	12.9	3.12e-05	0	42	0	708837376	20	5241
2026-01-12 12:34:10.93	304.97	12.78	-30.0	-33.2	12.9	4.04e-05	0	42	0	714080256	20	5200
2026-01-12 12:34:13.95	305.50	12.65	-30.4	-34.4	12.2	2.04e-04	0	42	0	720371712	20	5693
2026-01-12 12:34:16.96	306.03	12.53	-30.8	-35.1	11.3	1.32e-03	0	42	0	725614592	21	5894
2026-01-12 12:34:19.97	306.56	12.40	-31.1	-35.5	10.6	2.88e-03	0	42	0	730857472	22	5994
2026-01-12 12:34:22.99	307.09	12.28	-31.2	-36.1	10.2	5.36e-03	0	42	0	737148928	22	6289
2026-01-12 12:34:26.02	307.61	12.15	-31.4	-36.7	9.7	9.48e-03	0	42	0	742391808	22	6613
2026-01-12 12:34:29.03	308.12	12.02	-31.1	-35.5	10.6	4.37e-03	0	42	0	748683264	22	5971
2026-01-12 12:34:32.04	308.63	11.88	-30.8	-34.7	11.2	1.25e-03	0	42	0	753926144	22	5616
2026-01-12 12:34:35.06	309.13	11.75	-30.7	-34.2	11.5	6.10e-04	0	42	0	759169024	22	5414
2026-01-12 12:34:38.07	309.63	11.62	-30.9	-35.0	10.9	1.99e-03	0	42	0	765460480	22	5772
2026-01-12 12:34:41.08	310.13	11.48	-31.2	-36.1	10.1	5.54e-03	0	42	0	770703360	22	6325
2026-01-12 12:34:44.10	310.62	11.35	-31.5	-37.0	9.4	1.32e-02	0	42	0	776994816	22	6773
2026-01-12 12:34:47.11	311.11	11.21	-31.2	-35.4	10.2	6.94e-03	0	42	0	782237696	23	5878
2026-01-12 12:34:50.11	311.59	11.07	-31.0	-34.8	10.7	2.96e-03	0	42	0	787480576	23	5557
2026-01-12 12:34:53.13	312.07	10.93	-30.8	-34.1	11.2	1.51e-03	0	42	0	793772032	23	5296
2026-01-12 12:34:56.15	312.54	10.79	-30.8	-34.7	11.2	1.55e-03	0	42	0	799014912	22	5619
2026-01-12 12:34:59.17	313.01	10.65	-30.6	-34.1	11.5	7.41e-04	0	42	0	805306368	22	5358
2026-01-12 12:35:02.19	313.48	10.51	-30.4	-33.6	11.9	6.18e-04	0	42	0	810549248	22	5160
2026-01-12 12:35:05.19	313.94	10.36	-30.3	-33.8	12.0	2.30e-04	0	42	0	815792128	21	5364
2026-01-12 12:35:08.21	314.40	10.22	-30.6	-34.5	11.5	7.22e-04	0	42	0	822083584	21	5678
2026-01-12 12:35:11.23	314.85	10.08	-30.6	-34.8	11.3	1.18e-03	0	42	0	827326464	21	5792
2026-01-12 12:35:14.24	315.30	9.93	-30.8	-35.2	11.0	2.33e-03	0	42	0	832569344	21	6013
2026-01-12 12:35:17.26	315.74	9.78	-30.6	-34.7	11.3	1.06e-03	0	42	0	838860800	21	5760
2026-01-12 12:35:20.28	316.18	9.64	-30.5	-34.4	11.5	9.01e-04	0	42	0	844103680	21	5617
2026-01-12 12:35:23.29	316.62	9.49	-30.1	-33.0	12.5	1.24e-04	0	42	0	850395136	21	5065
2026-01-12 12:35:26.31	317.05	9.34	-30.0	-32.9	12.5	1.04e-04	0	42	0	855638016	21	5027
2026-01-12 12:35:29.32	317.47	9.20	-30.1	-33.1	12.4	1.46e-04	0	42	0	860880896	21	5100
2026-01-12 12:35:32.35	317.90	9.05	-30.3	-33.7	12.0	4.44e-04	0	42	0	867172352	21	5315
2026-01-12 12:35:35.36	318.31	8.90	-30.1	-33.2	12.3	1.72e-04	0	42	0	872415232	21	5140
2026-01-12 12:35:38.37	318.73	8.75	-30.1	-33.2	12.3	1.69e-04	0	42	0	878706688	21	5150
2026-01-12 12:35:41.38	319.14	8.60	-30.1	-33.2	12.3	1.87e-04	0	42	0	883949568	21	5130
2026-01-12 12:35:44.40	319.54	8.45	-30.3	-33.8	11.8	3.87e-04	0	42	0	889192448	21	5388
2026-01-12 12:35:47.42	319.95	8.30	-30.3	-33.8	11.8	4.90e-04	0	42	0	895483904	21	5386
2026-01-12 12:35:50.44	320.35	8.15	-30.3	-33.7	11.9	4.20e-04	0	42	0	900726784	21	5340
2026-01-12 12:35:53.46	320.74	8.00	-30.3	-33.8	11.8	4.00e-04	0	42	0	907018240	21	5388
2026-01-12 12:35:56.48	321.13	7.85	-30.3	-33.7	11.9	3.94e-04	0	42	0	912261120	21	5357
2026-01-12 12:35:59.49	321.52	7.69	-30.2	-33.6	11.9	3.86e-04	0	42	0	917504000	21	5322
2026-01-12 12:36:02.51	321.90	7.54	-30.2	-33.6	11.9	4.52e-04	0	42	0	923795456	21	5299
2026-01-12 12:36:05.53	322.28	7.39	-30.1	-33.4	12.0	4.36e-04	0	42	0	929038336	21	5244
2026-01-12 12:36:08.55	322.65	7.24	-30.2	-33.6	11.9	3.35e-04	0	42	0	935329792	21	5316
2026-01-12 12:36:11.58	323.03	7.09	-30.4	-34.1	11.5	6.45e-04	0	42	0	940572672	21	5529
2026-01-12 12:36:14.59	323.39	6.94	-33.5	-47.6	3.8	1.49e+00	0	42	104	942669824	27	18214

#Closed at: 2026-01-12 12:36:15
#Recorded file [942 MB]: D:/data/31010_260112_152749.dat