passes_logs/2026/01/12/R2M6_AANII_01/R2M6_AANII_01__20260112_005153_NOAA_20_JPSS-1_rec.log

#Pass ID: 20260112_005153_NOAA 20 (JPSS-1)
#Satellite: NOAA 20 (JPSS-1)
#Configuration: NOAA 20
#almurnet v.1.7.20240730
#Start time: 2026-01-12 00:51:52

#Version: 2.2.20231116
#Station: R2M6_AANII_01
#Location: 30.233357 lon 59.946436 lat
#TLE: 1 43013U 17073A   26011.31235446  .00000090  00000+0  63634-4 0  9991
#TLE: 2 43013  98.7632 312.2907 0001646  44.6084 315.5224 14.19535308422217

#Time	Az	El	Level	Level2	SNR	BER	BlckErr	Temp	State	Recorded	gain1	gain2
2026-01-12 00:51:52.71	15.64	6.95	-31.5	-38.2	5.0	1.30e+00	0	39	0	0	22	7849
2026-01-12 00:51:55.72	15.57	7.18	-31.8	-39.2	6.6	2.39e-01	0	39	0	1048576	23	8432
2026-01-12 00:51:58.74	15.50	7.41	-31.7	-38.5	7.2	1.85e-01	0	39	0	7340032	23	7885
2026-01-12 00:52:01.76	15.42	7.64	-31.4	-37.7	8.2	5.13e-02	0	40	0	12582912	22	7431
2026-01-12 00:52:04.77	15.34	7.88	-31.2	-36.4	8.9	5.48e-02	0	40	0	18874368	23	6541
2026-01-12 00:52:07.79	15.26	8.11	-30.6	-35.2	10.5	5.06e-03	0	40	0	24117248	21	6076
2026-01-12 00:52:10.81	15.18	8.36	-30.7	-35.2	10.6	2.96e-03	0	40	0	29360128	21	6070
2026-01-12 00:52:13.83	15.10	8.60	-30.5	-34.9	11.3	1.37e-03	0	40	0	35651584	20	6020
2026-01-12 00:52:16.84	15.02	8.84	-30.2	-34.2	11.8	8.22e-04	0	40	0	40894464	20	5696
2026-01-12 00:52:19.86	14.94	9.09	-30.3	-34.5	11.6	1.32e-03	0	40	0	47185920	20	5827
2026-01-12 00:52:22.87	14.85	9.34	-29.9	-33.6	12.7	4.48e-04	0	40	0	52428800	19	5529
2026-01-12 00:52:25.89	14.76	9.59	-29.9	-33.5	12.8	7.55e-05	0	40	0	57671680	19	5472
2026-01-12 00:52:28.91	14.67	9.85	-29.9	-33.6	12.7	4.58e-04	0	40	0	63963136	19	5512
2026-01-12 00:52:31.92	14.58	10.10	-29.9	-33.7	12.7	5.00e-04	0	40	0	69206016	19	5555
2026-01-12 00:52:34.93	14.49	10.36	-29.6	-32.8	13.3	5.01e-04	0	40	0	74448896	19	5193
2026-01-12 00:52:37.93	14.39	10.62	-29.6	-32.6	13.5	4.79e-04	0	40	0	80740352	19	5108
2026-01-12 00:52:40.95	14.30	10.89	-29.6	-32.7	13.4	4.30e-04	0	40	0	85983232	19	5138
2026-01-12 00:52:43.96	14.20	11.15	-29.5	-32.4	13.6	8.30e-06	0	40	0	92274688	19	5043
2026-01-12 00:52:46.98	14.10	11.42	-28.6	-31.6	13.5	9.90e-06	0	40	0	97517568	19	5087
2026-01-12 00:52:49.99	13.99	11.70	-29.5	-32.8	13.2	4.50e-06	0	41	0	102760448	18	5280
2026-01-12 00:52:53.01	13.89	11.97	-29.6	-32.7	13.5	1.14e-05	0	41	0	109051904	19	5119
2026-01-12 00:52:56.03	13.78	12.25	-29.7	-32.8	13.5	5.80e-04	0	41	0	114294784	19	5167
2026-01-12 00:52:59.05	13.67	12.54	-29.5	-32.7	13.9	4.62e-04	0	41	0	120586240	18	5245
2026-01-12 00:53:02.06	13.56	12.82	-29.7	-32.7	13.6	1.60e-05	0	41	0	125829120	19	5135
2026-01-12 00:53:05.08	13.44	13.11	-29.4	-32.5	14.1	2.20e-06	0	41	0	131072000	18	5153
2026-01-12 00:53:08.09	13.32	13.40	-29.2	-32.1	14.3	7.00e-07	0	41	0	137363456	18	5003
2026-01-12 00:53:11.11	13.20	13.70	-28.3	-31.2	14.3	2.20e-06	0	41	0	142606336	18	5014
2026-01-12 00:53:14.12	13.08	14.00	-29.2	-32.1	14.3	4.80e-04	0	41	0	148897792	18	5006
2026-01-12 00:53:17.13	12.96	14.30	-29.1	-31.8	14.6	3.76e-04	0	41	0	154140672	18	4898
2026-01-12 00:53:20.14	12.83	14.61	-29.2	-32.0	14.5	3.33e-04	0	41	0	159383552	18	4959
2026-01-12 00:53:23.16	12.70	14.92	-29.1	-31.8	14.7	3.16e-03	0	41	0	165675008	18	4878
2026-01-12 00:53:26.17	12.56	15.23	-29.1	-31.8	14.6	3.04e-03	0	41	0	170917888	18	4887
2026-01-12 00:53:29.18	12.43	15.55	-29.2	-32.0	14.5	2.42e-03	0	41	0	176160768	18	4972
2026-01-12 00:53:32.19	12.29	15.87	-29.3	-32.3	14.3	4.20e-04	0	41	0	182452224	18	5066
2026-01-12 00:53:35.20	12.14	16.20	-29.1	-31.6	14.8	3.30e-04	0	41	0	187695104	18	4832
2026-01-12 00:53:38.22	11.99	16.53	-29.0	-31.5	14.8	3.29e-04	0	41	0	193986560	18	4805
2026-01-12 00:53:41.24	11.84	16.86	-29.1	-31.6	14.8	2.87e-03	0	41	0	199229440	18	4825
2026-01-12 00:53:44.26	11.69	17.20	-28.9	-31.8	15.0	2.66e-03	0	41	0	204472320	17	4985
2026-01-12 00:53:47.27	11.53	17.55	-28.9	-31.3	15.0	2.25e-03	0	41	0	210763776	18	4718
2026-01-12 00:53:50.29	11.37	17.89	-28.9	-31.6	15.1	2.42e-03	0	41	0	216006656	17	4937
2026-01-12 00:53:53.31	11.20	18.25	-29.0	-31.8	15.0	2.45e-03	0	41	0	222298112	17	4991
2026-01-12 00:53:56.32	11.03	18.60	-29.0	-31.4	15.0	1.60e-05	0	41	0	227540992	18	4756
2026-01-12 00:53:59.33	10.86	18.97	-29.1	-31.7	14.8	7.00e-07	0	41	0	232783872	18	4850
2026-01-12 00:54:02.34	10.68	19.33	-29.0	-31.4	15.0	2.43e-03	0	41	0	239075328	18	4754
2026-01-12 00:54:05.36	10.49	19.71	-29.4	-32.0	14.3	2.29e-03	0	41	0	244318208	19	4835
2026-01-12 00:54:08.39	10.30	20.09	-29.0	-31.4	15.0	2.54e-03	0	41	0	250609664	18	4754
2026-01-12 00:54:11.40	10.11	20.47	-29.1	-31.6	14.9	2.37e-03	0	41	0	255852544	18	4814
2026-01-12 00:54:14.42	9.91	20.86	-29.3	-32.1	14.6	7.00e-07	0	41	0	261095424	18	4977
2026-01-12 00:54:17.44	9.70	21.26	-29.1	-31.6	15.0	1.50e-06	0	41	0	267386880	18	4793
2026-01-12 00:54:20.44	9.49	21.66	-29.0	-31.8	15.2	0.00e+00	0	41	0	272629760	17	4972
2026-01-12 00:54:23.46	9.28	22.07	-29.1	-31.6	15.0	3.29e-04	0	41	0	278921216	18	4813
2026-01-12 00:54:26.49	9.05	22.48	-28.8	-31.3	15.4	2.92e-04	0	41	0	284164096	17	4813
2026-01-12 00:54:29.51	8.83	22.90	-28.9	-31.6	15.3	1.88e-04	0	41	0	289406976	17	4909
2026-01-12 00:54:32.53	8.59	23.33	-29.0	-31.3	15.2	1.58e-04	0	41	0	295698432	18	4697
2026-01-12 00:54:35.55	8.35	23.76	-29.3	-32.1	14.8	7.00e-07	0	41	0	300941312	18	4962
2026-01-12 00:54:38.57	8.10	24.20	-29.3	-32.2	14.7	0.00e+00	0	41	0	307232768	18	5000
2026-01-12 00:54:41.58	7.84	24.65	-29.5	-32.1	14.5	2.20e-06	0	41	0	312475648	19	4855
2026-01-12 00:54:44.59	7.58	25.10	-29.5	-32.1	14.5	0.00e+00	0	41	0	317718528	19	4853
2026-01-12 00:54:47.61	7.30	25.56	-29.7	-32.5	14.3	1.98e-05	0	42	0	324009984	19	4978
2026-01-12 00:54:50.62	7.02	26.03	-29.9	-33.0	13.9	1.11e-04	0	41	0	329252864	19	5177
2026-01-12 00:54:53.64	6.73	26.51	-30.2	-33.4	13.3	2.06e-03	0	41	0	334495744	20	5218
2026-01-12 00:54:56.65	6.43	26.99	-30.2	-33.6	13.2	2.10e-03	0	41	0	340787200	20	5281
2026-01-12 00:54:59.66	6.13	27.48	-30.7	-34.3	12.4	2.51e-03	0	41	0	346030080	21	5454
2026-01-12 00:55:02.67	5.81	27.98	-30.8	-34.8	12.1	2.78e-03	0	42	0	352321536	21	5674
2026-01-12 00:55:05.69	5.48	28.48	-30.7	-34.4	12.4	4.97e-04	0	42	0	357564416	21	5496
2026-01-12 00:55:08.71	5.14	29.00	-31.0	-34.7	11.8	3.19e-03	0	42	0	362807296	22	5506
2026-01-12 00:55:11.73	4.78	29.52	-31.2	-35.3	11.4	3.53e-03	0	41	0	369098752	22	5798
2026-01-12 00:55:14.75	4.42	30.06	-31.3	-35.5	11.3	3.34e-03	0	41	0	374341632	22	5888
2026-01-12 00:55:17.77	4.04	30.60	-31.1	-35.1	11.5	3.38e-03	0	41	0	380633088	22	5704
2026-01-12 00:55:20.79	3.65	31.15	-31.1	-35.0	11.7	3.10e-03	0	42	0	385875968	22	5643
2026-01-12 00:55:23.81	3.25	31.71	-31.4	-35.8	11.1	3.93e-03	0	42	0	391118848	22	6020
2026-01-12 00:55:26.82	2.83	32.28	-31.4	-36.0	11.0	1.77e-03	0	42	0	397410304	22	6108
2026-01-12 00:55:29.85	2.39	32.86	-31.4	-35.5	10.9	2.63e-03	0	42	0	402653184	23	5782
2026-01-12 00:55:32.86	1.94	33.44	-31.4	-35.9	11.1	1.63e-03	0	42	0	408944640	22	6041
2026-01-12 00:55:35.88	1.48	34.04	-31.5	-35.9	10.7	3.42e-03	0	42	0	414187520	23	5921
2026-01-12 00:55:38.90	0.99	34.65	-31.4	-35.8	11.2	4.11e-03	0	41	0	419430400	22	5978
2026-01-12 00:55:41.91	0.49	35.26	-31.5	-35.8	10.8	5.53e-03	0	41	0	425721856	23	5871
2026-01-12 00:55:44.93	359.96	35.88	-31.4	-35.9	11.1	1.43e-03	0	42	0	430964736	22	6040
2026-01-12 00:55:47.95	359.42	36.52	-31.3	-35.5	11.4	1.10e-03	0	42	0	437256192	22	5841
2026-01-12 00:55:50.97	358.85	37.16	-31.0	-35.0	12.1	2.40e-04	0	42	0	442499072	21	5755
2026-01-12 00:55:53.98	358.26	37.81	-30.7	-34.3	12.6	7.85e-05	0	42	0	447741952	21	5421
2026-01-12 00:55:56.99	357.64	38.47	-30.9	-34.9	12.1	1.36e-04	0	42	0	454033408	21	5712
2026-01-12 00:56:00.01	357.00	39.15	-30.7	-34.3	12.6	8.23e-05	0	42	0	459276288	21	5421
2026-01-12 00:56:03.03	356.33	39.83	-30.8	-34.7	12.3	9.84e-05	0	42	0	465567744	21	5600
2026-01-12 00:56:06.03	355.64	40.51	-30.9	-34.8	12.2	3.76e-04	0	42	0	470810624	21	5644
2026-01-12 00:56:09.05	354.90	41.21	-31.0	-34.7	12.1	3.21e-04	0	42	0	476053504	22	5472
2026-01-12 00:56:12.06	354.14	41.91	-31.1	-34.8	11.9	3.54e-04	0	42	0	482344960	22	5540
2026-01-12 00:56:15.07	353.35	42.62	-31.0	-35.0	12.1	2.37e-04	0	42	0	487587840	21	5737
2026-01-12 00:56:18.09	352.51	43.34	-30.7	-34.2	12.7	1.06e-04	0	42	0	493879296	21	5399
2026-01-12 00:56:21.11	351.64	44.07	-30.6	-34.0	12.9	1.49e-04	0	42	0	499122176	21	5297
2026-01-12 00:56:24.13	350.72	44.80	-30.7	-34.1	12.8	1.07e-04	0	42	0	504365056	21	5365
2026-01-12 00:56:27.14	349.77	45.54	-30.4	-33.4	13.3	1.62e-04	0	42	0	510656512	21	5062
2026-01-12 00:56:30.17	348.76	46.28	-30.6	-34.0	12.9	1.55e-04	0	42	0	515899392	21	5301
2026-01-12 00:56:33.18	347.71	47.03	-30.7	-34.2	12.7	5.49e-05	0	42	0	522190848	21	5391
2026-01-12 00:56:36.20	346.60	47.77	-30.9	-34.7	12.4	1.30e-04	0	42	0	527433728	21	5590
2026-01-12 00:56:39.23	345.44	48.53	-30.8	-33.9	12.6	9.91e-05	0	42	0	532676608	22	5157
2026-01-12 00:56:42.25	344.21	49.27	-30.5	-33.6	13.2	2.05e-05	0	42	0	538968064	21	5135
2026-01-12 00:56:45.25	342.94	50.01	-30.6	-34.0	12.9	4.42e-05	0	42	0	544210944	21	5302
2026-01-12 00:56:48.26	341.60	50.75	-30.5	-33.8	13.1	2.97e-05	0	42	0	550502400	21	5209
2026-01-12 00:56:51.28	340.18	51.49	-29.8	-31.8	14.3	4.50e-06	0	42	0	555745280	21	4530
2026-01-12 00:56:54.29	338.70	52.21	-28.7	-30.4	16.2	0.00e+00	0	42	0	560988160	18	4372
2026-01-12 00:56:57.31	337.14	52.93	-29.1	-31.4	15.6	0.00e+00	0	42	0	567279616	18	4701
2026-01-12 00:57:00.33	335.50	53.64	-28.8	-31.2	16.0	0.00e+00	0	42	0	572522496	17	4747
2026-01-12 00:57:03.35	333.78	54.33	-28.8	-30.7	16.0	0.00e+00	0	42	0	577765376	18	4477
2026-01-12 00:57:06.37	331.98	55.00	-29.1	-31.3	15.7	0.00e+00	0	42	0	584056832	18	4666
2026-01-12 00:57:09.40	330.08	55.65	-29.8	-32.7	14.5	0.00e+00	0	42	0	589299712	19	5028
2026-01-12 00:57:12.42	328.10	56.27	-30.5	-33.7	13.1	2.59e-05	0	42	0	595591168	21	5183
2026-01-12 00:57:15.44	326.03	56.87	-31.0	-34.9	12.3	1.13e-04	0	42	0	600834048	21	5674
2026-01-12 00:57:18.45	323.88	57.43	-31.4	-35.9	11.3	9.88e-04	0	42	0	606076928	22	5998
2026-01-12 00:57:21.46	321.64	57.96	-31.5	-35.6	11.1	1.00e-03	0	41	0	612368384	23	5740
2026-01-12 00:57:24.48	319.30	58.45	-30.8	-34.4	12.7	1.11e-04	0	42	0	617611264	21	5438
2026-01-12 00:57:27.49	316.89	58.90	-31.0	-34.6	12.3	2.06e-04	0	42	0	623902720	22	5408
2026-01-12 00:57:30.50	314.40	59.30	-30.0	-32.8	14.1	3.00e-06	0	42	0	629145600	20	4950
2026-01-12 00:57:33.51	311.84	59.65	-30.0	-32.8	14.0	1.21e-03	0	42	0	634388480	20	4943
2026-01-12 00:57:36.53	309.20	59.96	-29.7	-32.4	14.7	4.03e-04	0	42	0	640679936	19	4903
2026-01-12 00:57:39.54	306.51	60.20	-29.3	-31.4	15.3	0.00e+00	0	42	0	645922816	19	4576
2026-01-12 00:57:42.56	303.76	60.39	-29.2	-31.6	15.5	1.15e-03	0	42	0	652214272	18	4742
2026-01-12 00:57:45.58	300.99	60.52	-29.1	-31.4	15.7	7.00e-07	0	42	0	657457152	18	4696
2026-01-12 00:57:48.60	298.18	60.59	-29.6	-32.1	14.9	1.11e-04	0	42	0	662700032	19	4821
2026-01-12 00:57:51.62	295.37	60.60	-29.1	-31.3	15.7	1.75e-03	0	42	0	668991488	18	4668
2026-01-12 00:57:54.64	292.57	60.55	-28.7	-30.8	16.2	1.74e-03	0	42	0	674234368	17	4627
2026-01-12 00:57:57.66	289.78	60.44	-27.7	-29.6	17.3	1.90e-03	0	42	0	680525824	15	4499
2026-01-12 00:58:00.67	287.03	60.27	-27.8	-29.8	17.2	1.98e-04	0	41	0	685768704	15	4557
2026-01-12 00:58:03.69	284.32	60.04	-27.7	-29.7	17.3	1.56e-03	0	42	0	691011584	15	4528
2026-01-12 00:58:06.71	281.66	59.75	-28.4	-30.7	16.6	0.00e+00	0	42	0	697303040	16	4688
2026-01-12 00:58:09.73	279.06	59.41	-28.9	-31.5	15.9	0.00e+00	0	42	0	702545920	17	4825
2026-01-12 00:58:12.75	276.54	59.02	-29.5	-31.8	15.1	0.00e+00	0	42	0	708837376	19	4712
2026-01-12 00:58:15.77	274.09	58.59	-29.2	-31.7	15.2	3.73e-05	0	42	0	714080256	18	4795
2026-01-12 00:58:18.78	271.74	58.11	-30.3	-33.5	13.6	2.36e-03	0	42	0	719323136	20	5199
2026-01-12 00:58:21.81	269.45	57.59	-30.5	-33.7	13.2	1.83e-03	0	42	0	725614592	21	5164
2026-01-12 00:58:24.83	267.26	57.03	-30.5	-33.5	13.2	5.18e-05	0	42	0	730857472	21	5094
2026-01-12 00:58:27.84	265.17	56.44	-29.9	-32.8	14.4	1.50e-06	0	42	0	737148928	19	5069
2026-01-12 00:58:30.85	263.17	55.83	-29.5	-31.9	14.9	1.50e-06	0	42	0	742391808	19	4767
2026-01-12 00:58:33.88	261.24	55.18	-29.2	-31.6	15.5	1.05e-03	0	42	0	747634688	18	4766
2026-01-12 00:58:36.89	259.42	54.52	-28.9	-31.4	15.8	0.00e+00	0	42	0	753926144	17	4809
2026-01-12 00:58:39.92	257.66	53.83	-29.2	-31.7	15.3	3.00e-06	0	42	0	759169024	18	4800
2026-01-12 00:58:42.93	256.00	53.13	-29.1	-31.5	15.4	0.00e+00	0	42	0	765460480	18	4746
2026-01-12 00:58:45.95	254.41	52.41	-29.9	-32.6	13.5	1.22e-03	0	42	0	770703360	20	4898
2026-01-12 00:58:48.95	252.91	51.69	-30.3	-33.6	13.4	1.34e-04	0	42	0	775946240	20	5245
2026-01-12 00:58:51.96	251.48	50.96	-30.4	-33.8	13.3	7.01e-05	0	42	0	782237696	20	5326
2026-01-12 00:58:54.98	250.11	50.22	-31.1	-34.8	11.9	1.87e-04	0	42	0	787480576	22	5554
2026-01-12 00:58:57.99	248.81	49.47	-31.5	-35.6	11.0	3.40e-03	0	42	0	792723456	23	5778
2026-01-12 00:59:01.01	247.57	48.72	-30.8	-34.7	12.3	1.73e-04	0	42	0	799014912	21	5588
2026-01-12 00:59:04.03	246.39	47.97	-31.8	-36.7	10.2	8.20e-03	0	42	0	804257792	23	6324
2026-01-12 00:59:07.05	245.26	47.22	-31.9	-37.0	10.0	1.03e-02	0	42	0	810549248	23	6472
2026-01-12 00:59:10.08	244.19	46.47	-31.6	-36.1	10.5	6.25e-03	0	41	0	815792128	23	6053
2026-01-12 00:59:13.08	243.17	45.73	-31.4	-35.9	11.1	4.28e-03	0	42	0	821035008	22	6037
2026-01-12 00:59:16.10	242.20	44.99	-31.5	-35.8	10.8	6.05e-03	0	42	0	827326464	23	5899
2026-01-12 00:59:19.11	241.27	44.25	-31.2	-35.2	11.5	3.29e-03	0	42	0	832569344	22	5734
2026-01-12 00:59:22.13	240.38	43.52	-31.1	-35.0	11.7	4.54e-03	0	42	0	838860800	22	5645
2026-01-12 00:59:25.15	239.53	42.80	-31.0	-34.8	11.9	2.45e-03	0	42	0	844103680	22	5533
2026-01-12 00:59:28.15	238.73	42.08	-31.0	-35.1	11.9	2.60e-03	0	42	0	849346560	21	5813
2026-01-12 00:59:31.17	237.95	41.37	-31.6	-36.3	10.3	8.50e-03	0	42	0	855638016	23	6158
2026-01-12 00:59:34.18	237.21	40.67	-31.9	-37.3	9.5	1.48e-02	0	42	0	860880896	23	6705
2026-01-12 00:59:37.20	236.50	39.98	-32.0	-37.2	9.3	2.51e-02	0	42	0	867172352	24	6510
2026-01-12 00:59:40.22	235.82	39.29	-32.0	-37.5	9.4	1.54e-02	0	42	0	872415232	23	6807
2026-01-12 00:59:43.24	235.17	38.62	-31.6	-36.0	10.6	3.46e-03	0	42	0	877658112	23	6019
2026-01-12 00:59:46.25	234.54	37.95	-31.4	-35.4	11.0	2.14e-03	0	42	0	883949568	23	5707
2026-01-12 00:59:49.27	233.94	37.29	-30.7	-34.5	12.4	1.66e-04	0	42	0	889192448	21	5516
2026-01-12 00:59:52.29	233.37	36.64	-31.1	-35.0	11.7	2.88e-03	0	42	0	895483904	22	5651
2026-01-12 00:59:55.31	232.81	36.00	-31.1	-35.2	11.4	7.35e-04	0	42	0	900726784	22	5737
2026-01-12 00:59:58.33	232.28	35.37	-31.2	-35.4	11.2	1.08e-03	0	42	0	905969664	22	5848
2026-01-12 01:00:01.35	231.77	34.75	-31.3	-35.7	11.1	1.34e-03	0	42	0	912261120	22	6009
2026-01-12 01:00:04.36	231.27	34.14	-31.2	-35.3	11.4	9.17e-04	0	42	0	917504000	22	5798
2026-01-12 01:00:07.38	230.80	33.54	-31.5	-36.0	10.5	4.08e-03	0	42	0	923795456	23	6029
2026-01-12 01:00:10.40	230.34	32.95	-31.5	-36.1	10.4	5.11e-03	0	42	0	929038336	23	6098
2026-01-12 01:00:13.42	229.90	32.37	-31.1	-35.0	11.5	1.27e-03	0	42	0	934281216	22	5688
2026-01-12 01:00:16.44	229.48	31.79	-30.6	-34.2	12.4	1.52e-04	0	42	0	940572672	21	5453
2026-01-12 01:00:19.46	229.07	31.23	-30.8	-34.8	12.0	3.14e-04	0	42	0	945815552	21	5704
2026-01-12 01:00:22.47	228.67	30.68	-30.8	-34.9	11.9	4.23e-04	0	42	0	952107008	21	5729
2026-01-12 01:00:25.49	228.29	30.13	-31.3	-35.7	11.0	1.66e-03	0	42	0	957349888	22	5983
2026-01-12 01:00:28.50	227.92	29.59	-31.3	-35.7	10.9	1.65e-03	0	42	0	962592768	22	6025
2026-01-12 01:00:31.50	227.56	29.07	-31.3	-36.0	10.7	4.03e-03	0	42	0	968884224	22	6173
2026-01-12 01:00:34.52	227.22	28.55	-31.2	-35.5	11.0	1.54e-03	0	42	0	974127104	22	5944
2026-01-12 01:00:37.53	226.88	28.04	-30.7	-34.6	12.1	3.56e-04	0	42	0	979369984	21	5604
2026-01-12 01:00:40.55	226.56	27.53	-30.5	-33.8	12.6	9.61e-05	0	42	0	985661440	21	5303
2026-01-12 01:00:43.56	226.25	27.04	-30.4	-34.0	12.7	1.05e-04	0	42	0	990904320	20	5496
2026-01-12 01:00:46.58	225.94	26.55	-30.3	-33.8	12.9	1.64e-04	0	42	0	997195776	20	5407
2026-01-12 01:00:49.58	225.65	26.08	-30.4	-34.1	12.7	5.03e-04	0	42	0	1002438656	20	5510
2026-01-12 01:00:52.60	225.36	25.60	-30.2	-33.6	13.0	4.19e-05	0	42	0	1007681536	20	5317
2026-01-12 01:00:55.61	225.09	25.14	-30.2	-33.7	12.9	4.44e-04	0	42	0	1013972992	20	5373
2026-01-12 01:00:58.63	224.82	24.68	-30.2	-33.6	13.0	3.23e-04	0	42	0	1019215872	20	5327
2026-01-12 01:01:01.65	224.56	24.23	-30.3	-33.8	12.8	2.40e-04	0	42	0	1025507328	20	5418
2026-01-12 01:01:04.66	224.30	23.79	-30.3	-33.9	12.7	6.71e-05	0	42	0	1030750208	20	5472
2026-01-12 01:01:07.67	224.06	23.35	-30.4	-34.3	12.5	1.08e-04	0	42	0	1035993088	20	5619
2026-01-12 01:01:10.69	223.82	22.92	-30.3	-33.5	12.6	1.49e-04	0	42	0	1042284544	21	5185
2026-01-12 01:01:13.71	223.59	22.50	-30.0	-33.2	13.1	1.63e-04	0	42	0	1047527424	20	5203
2026-01-12 01:01:16.72	223.36	22.08	-30.0	-33.4	13.4	1.57e-04	0	42	0	1053818880	19	5373
2026-01-12 01:01:19.73	223.14	21.67	-30.1	-33.3	13.0	2.36e-04	0	42	0	1059061760	20	5240
2026-01-12 01:01:22.76	222.93	21.27	-30.0	-33.0	13.2	3.04e-04	0	42	0	1064304640	20	5117
2026-01-12 01:01:25.77	222.72	20.87	-30.0	-33.2	13.1	2.51e-05	0	42	0	1070596096	20	5182
2026-01-12 01:01:28.79	222.51	20.48	-30.2	-33.6	12.8	3.97e-04	0	42	0	1075838976	20	5353
2026-01-12 01:01:31.82	222.32	20.09	-29.9	-33.4	13.3	3.23e-04	0	42	0	1082130432	19	5386
2026-01-12 01:01:34.84	222.12	19.71	-29.8	-33.0	13.6	2.94e-04	0	42	0	1087373312	19	5206
2026-01-12 01:01:37.86	221.93	19.33	-29.7	-32.9	13.0	1.82e-04	0	42	0	1092616192	19	5178
2026-01-12 01:01:40.87	221.75	18.96	-29.8	-33.0	13.0	2.68e-04	0	42	0	1098907648	19	5210
2026-01-12 01:01:43.89	221.57	18.59	-30.0	-33.2	13.0	3.38e-04	0	42	0	1104150528	20	5212
2026-01-12 01:01:46.91	221.40	18.23	-30.2	-33.7	12.6	1.73e-04	0	42	0	1110441984	20	5404
2026-01-12 01:01:49.93	221.23	17.88	-30.1	-33.4	12.8	1.32e-03	0	42	0	1115684864	20	5304
2026-01-12 01:01:52.95	221.06	17.53	-30.2	-33.7	12.6	1.92e-03	0	42	0	1120927744	20	5424
2026-01-12 01:01:55.97	220.90	17.18	-30.0	-33.3	12.9	3.07e-04	0	42	0	1127219200	20	5239
2026-01-12 01:01:58.99	220.74	16.84	-30.0	-33.6	13.0	2.98e-04	0	41	0	1132462080	19	5466
2026-01-12 01:02:02.01	220.59	16.50	-29.9	-33.5	13.1	3.07e-04	0	42	0	1138753536	19	5454
2026-01-12 01:02:05.03	220.44	16.17	-30.0	-33.4	12.7	2.42e-03	0	42	0	1143996416	20	5304
2026-01-12 01:02:08.05	220.29	15.84	-30.2	-33.8	12.4	2.26e-03	0	42	0	1149239296	20	5479
2026-01-12 01:02:11.08	220.15	15.51	-30.2	-34.0	12.3	2.54e-03	0	42	0	1155530752	20	5531
2026-01-12 01:02:14.10	220.01	15.19	-30.2	-33.8	12.4	2.46e-03	0	42	0	1160773632	20	5469
2026-01-12 01:02:17.12	219.87	14.88	-30.2	-34.0	12.2	2.28e-03	0	42	0	1167065088	20	5577
2026-01-12 01:02:20.13	219.73	14.56	-30.4	-34.5	11.8	2.31e-03	0	42	0	1172307968	20	5779
2026-01-12 01:02:23.14	219.60	14.26	-30.8	-35.2	10.8	1.43e-03	0	42	0	1177550848	21	5995
2026-01-12 01:02:26.15	219.48	13.95	-30.5	-34.3	11.5	1.54e-03	0	42	0	1183842304	21	5603
2026-01-12 01:02:29.17	219.35	13.65	-30.4	-34.5	11.8	1.31e-03	0	42	0	1189085184	20	5769
2026-01-12 01:02:32.20	219.23	13.35	-30.6	-34.8	11.2	2.29e-03	0	42	0	1195376640	21	5843
2026-01-12 01:02:35.22	219.11	13.06	-30.4	-34.8	11.6	2.22e-03	0	42	0	1200619520	20	5919
2026-01-12 01:02:38.24	218.99	12.77	-30.6	-34.8	11.2	3.49e-03	0	42	0	1205862400	21	5837
2026-01-12 01:02:41.26	218.87	12.48	-30.4	-34.1	11.6	1.44e-03	0	42	0	1212153856	21	5531
2026-01-12 01:02:44.29	218.76	12.19	-30.3	-34.4	11.7	8.94e-04	0	42	0	1217396736	20	5770
2026-01-12 01:02:47.30	218.65	11.91	-30.4	-34.6	11.6	1.32e-03	0	42	0	1222639616	20	5855
2026-01-12 01:02:50.31	218.54	11.64	-30.4	-34.6	11.6	1.19e-03	0	42	0	1228931072	20	5845
2026-01-12 01:02:53.34	218.43	11.36	-30.4	-34.7	11.4	1.23e-03	0	42	0	1234173952	20	5940
2026-01-12 01:02:56.36	218.33	11.09	-30.3	-34.5	11.6	1.03e-03	0	42	0	1240465408	20	5827
2026-01-12 01:02:59.38	218.23	10.82	-30.4	-34.8	11.3	9.92e-04	0	42	0	1245708288	20	5943
2026-01-12 01:03:02.40	218.12	10.55	-30.4	-34.8	11.3	2.97e-03	0	42	0	1251999744	20	5987
2026-01-12 01:03:05.42	218.03	10.29	-30.6	-34.9	10.8	2.51e-03	0	42	0	1257242624	21	5936
2026-01-12 01:03:08.43	217.93	10.03	-30.5	-34.8	10.9	2.55e-03	0	42	0	1262485504	21	5874
2026-01-12 01:03:11.45	217.84	9.77	-30.6	-35.0	10.7	2.70e-03	0	42	0	1268776960	21	5968
2026-01-12 01:03:14.47	217.74	9.51	-30.6	-35.0	10.7	3.20e-03	0	42	0	1274019840	21	5992
2026-01-12 01:03:17.49	217.65	9.26	-30.7	-35.3	10.4	4.00e-03	0	42	0	1279262720	21	6104
2026-01-12 01:03:20.51	217.56	9.01	-30.7	-35.5	10.3	6.71e-03	0	42	0	1285554176	21	6231
2026-01-12 01:03:23.52	217.47	8.76	-30.8	-35.7	10.1	8.59e-03	0	42	0	1290797056	21	6347
2026-01-12 01:03:26.54	217.39	8.52	-30.8	-35.9	9.9	1.05e-02	0	42	0	1297088512	21	6480
2026-01-12 01:03:29.56	217.30	8.27	-30.9	-36.2	9.7	1.39e-02	0	42	0	1302331392	21	6613
2026-01-12 01:03:32.59	217.22	8.03	-31.0	-36.3	9.1	2.20e-02	0	42	0	1307574272	22	6610
2026-01-12 01:03:35.60	217.14	7.79	-30.9	-36.4	9.5	1.61e-02	0	42	0	1313865728	21	6748
2026-01-12 01:03:38.62	217.06	7.55	-30.9	-36.5	9.3	2.13e-02	0	42	0	1319108608	21	6823
2026-01-12 01:03:41.64	216.98	7.32	-31.0	-36.4	9.1	2.20e-02	0	42	0	1325400064	22	6657
2026-01-12 01:03:44.65	216.90	7.09	-32.7	-46.8	3.8	2.88e-02	0	42	104	1330642944	25	18323
2026-01-12 01:03:47.68	216.83	6.86	-33.4	-47.9	3.8	1.49e+00	0	42	104	1330642944	26	19134

#Closed at: 2026-01-12 01:03:48
#Recorded file [1330 MB]: D:/data/31010_260112_035154.dat