passes_logs/2026/01/12/R2M6_AANII_01/R2M6_AANII_01__20260112_144906_FENGYUN_3E_rec.log

#Pass ID: 20260112_144906_FENGYUN 3E
#Satellite: FENGYUN 3E
#Configuration: FENGYUN 3E
#almurnet v.1.7.20240730
#Start time: 2026-01-12 14:49:07

#Version: 2.2.20231116
#Station: R2M6_AANII_01
#Location: 30.233357 lon 59.946436 lat
#TLE: 1 49008U 21062A   26011.97558190  .00000066  00000+0  51928-4 0  9996
#TLE: 2 49008  98.7491  17.1395 0001916 144.4283 215.7021 14.19885193234411

#Time	Az	El	Level	Level2	SNR	BER	BlckErr	Temp	State	Recorded	gain1	gain2
2026-01-12 14:49:07.97	166.96	7.12	-29.3	-31.9	5.1	7.90e-01	0	40	0	0	19	4862
2026-01-12 14:49:11.00	167.01	7.36	-28.9	-31.4	9.1	1.89e-02	0	40	0	7340032	18	4799
2026-01-12 14:49:14.00	167.06	7.59	-28.9	-31.2	9.4	2.14e-02	0	40	0	28311552	18	4691
2026-01-12 14:49:17.01	167.12	7.83	-28.3	-30.4	10.1	1.03e-02	0	40	0	50331648	17	4557
2026-01-12 14:49:20.03	167.17	8.07	-26.5	-27.5	12.5	1.40e-04	0	40	0	72351744	14	4070
2026-01-12 14:49:23.05	167.23	8.32	-26.4	-28.0	12.6	1.26e-04	0	40	0	94371840	13	4298
2026-01-12 14:49:26.07	167.28	8.56	-26.5	-28.2	12.5	1.09e-04	0	40	0	116391936	13	4346
2026-01-12 14:49:29.08	167.34	8.81	-26.5	-28.2	12.5	8.23e-05	0	40	0	137363456	13	4350
2026-01-12 14:49:32.10	167.39	9.06	-25.5	-26.3	13.9	8.00e-06	0	40	0	159383552	12	3957
2026-01-12 14:49:35.12	167.45	9.32	-25.7	-27.4	13.6	3.40e-06	0	41	0	181403648	11	4347
2026-01-12 14:49:38.13	167.51	9.57	-25.7	-27.3	13.7	9.10e-06	0	41	0	203423744	11	4309
2026-01-12 14:49:41.14	167.57	9.83	-25.9	-27.6	13.5	1.71e-05	0	41	0	224395264	11	4389
2026-01-12 14:49:44.16	167.63	10.09	-25.4	-26.1	14.0	2.20e-06	0	41	0	246415360	12	3907
2026-01-12 14:49:47.17	167.69	10.36	-25.9	-27.6	13.6	6.80e-06	0	41	0	268435456	11	4382
2026-01-12 14:49:50.19	167.75	10.62	-25.8	-27.3	13.8	8.00e-06	0	41	0	290455552	11	4310
2026-01-12 14:49:53.20	167.81	10.89	-25.5	-26.8	14.1	3.40e-06	0	41	0	311427072	11	4171
2026-01-12 14:49:56.22	167.88	11.17	-25.6	-26.9	14.1	2.20e-06	0	41	0	333447168	11	4179
2026-01-12 14:49:59.24	167.94	11.44	-25.8	-27.0	13.7	1.14e-05	0	41	0	355467264	12	4099
2026-01-12 14:50:02.25	168.01	11.72	-24.9	-25.4	14.9	0.00e+00	0	41	0	377487360	11	3820
2026-01-12 14:50:05.27	168.08	12.00	-24.8	-25.8	14.9	0.00e+00	0	41	0	399507456	10	4019
2026-01-12 14:50:08.29	168.14	12.29	-24.9	-26.0	14.9	0.00e+00	0	41	0	420478976	10	4060
2026-01-12 14:50:11.32	168.21	12.58	-24.7	-25.5	15.1	0.00e+00	0	41	0	442499072	10	3955
2026-01-12 14:50:14.33	168.28	12.87	-24.4	-24.9	15.5	0.00e+00	0	41	0	464519168	10	3807
2026-01-12 14:50:17.34	168.36	13.17	-24.4	-25.4	15.5	0.00e+00	0	41	0	486539264	9	4015
2026-01-12 14:50:20.36	168.43	13.47	-24.3	-25.2	15.6	0.00e+00	0	41	0	507510784	9	3963
2026-01-12 14:50:23.38	168.50	13.77	-24.2	-24.8	15.8	0.00e+00	0	41	0	529530880	9	3876
2026-01-12 14:50:26.41	168.58	14.08	-24.1	-24.7	15.9	0.00e+00	0	41	0	551550976	9	3845
2026-01-12 14:50:29.43	168.66	14.39	-24.0	-24.4	16.1	0.00e+00	0	41	0	573571072	9	3766
2026-01-12 14:50:32.45	168.74	14.71	-24.0	-24.4	16.0	0.00e+00	0	42	0	594542592	9	3767
2026-01-12 14:50:35.48	168.82	15.03	-24.0	-24.9	16.1	0.00e+00	0	41	0	616562688	8	3989
2026-01-12 14:50:38.50	168.90	15.35	-24.0	-24.9	16.1	0.00e+00	0	42	0	638582784	8	3987
2026-01-12 14:50:41.52	168.98	15.68	-24.0	-24.9	16.1	0.00e+00	0	42	0	660602880	8	3983
2026-01-12 14:50:44.54	169.07	16.01	-23.8	-24.5	16.3	0.00e+00	0	41	0	682622976	8	3901
2026-01-12 14:50:47.56	169.15	16.35	-24.0	-24.8	16.1	0.00e+00	0	42	0	703594496	8	3982
2026-01-12 14:50:50.56	169.24	16.69	-23.7	-24.3	16.4	0.00e+00	0	42	0	725614592	8	3856
2026-01-12 14:50:53.58	169.33	17.04	-23.7	-24.2	16.5	0.00e+00	0	42	0	747634688	8	3813
2026-01-12 14:50:56.60	169.42	17.39	-23.5	-23.9	16.6	0.00e+00	0	42	0	769654784	8	3762
2026-01-12 14:50:59.62	169.52	17.74	-23.5	-24.3	16.7	0.00e+00	0	42	0	791674880	7	3956
2026-01-12 14:51:02.63	169.61	18.10	-23.4	-24.1	16.8	0.00e+00	0	42	0	812646400	7	3898
2026-01-12 14:51:05.64	169.71	18.47	-23.2	-23.7	17.0	0.00e+00	0	42	0	834666496	7	3811
2026-01-12 14:51:08.66	169.81	18.84	-23.3	-24.0	16.8	0.00e+00	0	42	0	856686592	7	3878
2026-01-12 14:51:11.69	169.91	19.22	-23.1	-23.6	16.9	0.00e+00	0	41	0	878706688	7	3805
2026-01-12 14:51:14.70	170.02	19.61	-23.1	-23.5	17.0	0.00e+00	0	42	0	899678208	7	3791
2026-01-12 14:51:17.72	170.13	20.00	-22.8	-23.4	17.3	0.00e+00	0	42	0	921698304	6	3868
2026-01-12 14:51:20.74	170.24	20.39	-22.8	-23.4	17.3	0.00e+00	0	42	0	943718400	6	3879
2026-01-12 14:51:23.76	170.35	20.79	-22.8	-23.4	17.3	0.00e+00	0	42	0	965738496	6	3873
2026-01-12 14:51:26.76	170.46	21.20	-22.6	-23.0	17.5	0.00e+00	0	42	0	987758592	6	3780
2026-01-12 14:51:29.77	170.58	21.61	-22.7	-23.3	17.3	0.00e+00	0	42	0	1008730112	6	3856
2026-01-12 14:51:32.79	170.70	22.04	-22.7	-23.4	17.3	0.00e+00	0	42	0	1030750208	6	3886
2026-01-12 14:51:35.81	170.83	22.47	-23.0	-23.9	17.1	0.00e+00	0	42	0	1052770304	6	4015
2026-01-12 14:51:38.83	170.95	22.90	-22.5	-23.0	17.5	0.00e+00	0	42	0	1074790400	6	3800
2026-01-12 14:51:41.85	171.08	23.35	-22.5	-22.9	17.6	0.00e+00	0	42	0	1095761920	6	3785
2026-01-12 14:51:44.87	171.22	23.80	-22.7	-23.3	17.4	0.00e+00	0	42	0	1117782016	6	3868
2026-01-12 14:51:47.89	171.36	24.26	-22.7	-23.3	17.3	0.00e+00	0	42	0	1139802112	6	3878
2026-01-12 14:51:50.90	171.50	24.72	-22.5	-22.9	17.6	0.00e+00	0	42	0	1161822208	6	3791
2026-01-12 14:51:53.92	171.64	25.20	-22.6	-23.2	17.5	0.00e+00	0	42	0	1183842304	6	3845
2026-01-12 14:51:56.94	171.79	25.68	-22.9	-23.7	17.3	0.00e+00	0	42	0	1204813824	6	3950
2026-01-12 14:51:59.96	171.95	26.18	-22.8	-23.4	17.5	0.00e+00	0	42	0	1226833920	6	3882
2026-01-12 14:52:02.98	172.11	26.68	-22.3	-22.8	18.0	6.80e-06	0	42	0	1248854016	5	3836
2026-01-12 14:52:05.99	172.27	27.19	-22.4	-23.1	17.9	5.70e-06	0	42	0	1269825536	5	3886
2026-01-12 14:52:09.00	172.44	27.71	-21.9	-22.4	18.4	2.20e-06	0	42	0	1291845632	4	3836
2026-01-12 14:52:12.02	172.61	28.24	-22.1	-22.8	18.3	5.70e-06	0	42	0	1313865728	4	3928
2026-01-12 14:52:15.04	172.79	28.78	-21.8	-22.3	18.5	3.40e-06	0	42	0	1335885824	4	3799
2026-01-12 14:52:18.06	172.97	29.33	-21.8	-22.3	18.5	1.10e-06	0	42	0	1356857344	4	3803
2026-01-12 14:52:21.08	173.16	29.89	-22.0	-22.7	18.2	0.00e+00	0	42	0	1378877440	4	3909
2026-01-12 14:52:24.09	173.36	30.46	-21.8	-22.3	18.4	0.00e+00	0	42	0	1400897536	4	3841
2026-01-12 14:52:27.11	173.57	31.04	-21.7	-22.2	18.4	0.00e+00	0	42	0	1422917632	4	3815
2026-01-12 14:52:30.13	173.78	31.64	-22.1	-23.3	17.8	0.00e+00	0	42	0	1444937728	4	4097
2026-01-12 14:52:33.15	174.00	32.25	-22.0	-22.9	17.9	0.00e+00	0	42	0	1465909248	4	4010
2026-01-12 14:52:36.17	174.22	32.87	-23.0	-23.7	18.3	0.00e+00	0	42	0	1487929344	5	3913
2026-01-12 14:52:39.18	174.46	33.50	-22.8	-23.4	18.4	0.00e+00	0	42	0	1509949440	5	3835
2026-01-12 14:52:42.20	174.70	34.14	-22.9	-23.5	18.4	0.00e+00	0	42	0	1531969536	5	3861
2026-01-12 14:52:45.22	174.96	34.80	-22.6	-22.9	18.7	0.00e+00	0	42	0	1553989632	5	3729
2026-01-12 14:52:48.24	175.22	35.47	-22.4	-22.4	18.9	0.00e+00	0	42	0	1574961152	5	3624
2026-01-12 14:52:51.25	175.50	36.15	-22.4	-22.4	19.0	0.00e+00	0	42	0	1596981248	5	3615
2026-01-12 14:52:54.28	175.78	36.85	-22.9	-23.6	18.4	0.00e+00	0	42	0	1619001344	5	3880
2026-01-12 14:52:57.29	176.08	37.57	-23.0	-23.7	18.3	0.00e+00	0	42	0	1641021440	5	3912
2026-01-12 14:53:00.30	176.39	38.29	-23.2	-23.1	18.1	0.00e+00	0	42	0	1661992960	7	3575
2026-01-12 14:53:03.32	176.72	39.03	-23.1	-22.9	18.3	0.00e+00	0	42	0	1684013056	7	3523
2026-01-12 14:53:06.34	177.06	39.79	-23.2	-23.2	18.1	0.00e+00	0	42	0	1706033152	7	3588
2026-01-12 14:53:09.35	177.41	40.57	-22.8	-22.9	18.5	0.00e+00	0	42	0	1728053248	6	3628
2026-01-12 14:53:12.38	177.79	41.36	-22.7	-22.6	18.7	0.00e+00	0	42	0	1750073344	6	3556
2026-01-12 14:53:15.40	178.18	42.16	-22.7	-22.6	18.7	0.00e+00	0	42	0	1771044864	6	3553
2026-01-12 14:53:18.42	178.59	42.99	-23.0	-23.3	18.4	0.00e+00	0	42	0	1793064960	6	3714
2026-01-12 14:53:21.43	179.02	43.82	-23.2	-23.7	18.2	0.00e+00	0	42	0	1815085056	6	3806
2026-01-12 14:53:24.45	179.47	44.68	-23.2	-23.6	18.2	0.00e+00	0	42	0	1837105152	6	3779
2026-01-12 14:53:27.47	179.95	45.55	-23.2	-23.6	18.2	0.00e+00	0	42	0	1859125248	6	3774
2026-01-12 14:53:30.49	180.46	46.44	-23.3	-23.8	18.2	0.00e+00	0	42	0	1880096768	6	3816
2026-01-12 14:53:33.50	180.99	47.35	-23.9	-24.6	17.5	0.00e+00	0	42	0	1902116864	7	3901
2026-01-12 14:53:36.52	181.56	48.27	-24.0	-24.8	17.3	0.00e+00	0	42	0	1924136960	7	3959
2026-01-12 14:53:39.54	182.16	49.21	-24.2	-24.8	17.2	0.00e+00	0	42	0	1946157056	8	3838
2026-01-12 14:53:42.56	182.80	50.17	-24.4	-24.7	17.0	0.00e+00	0	42	0	1967128576	9	3726
2026-01-12 14:53:45.59	183.49	51.15	-24.2	-24.2	17.2	0.00e+00	0	42	0	1989148672	9	3607
2026-01-12 14:53:48.61	184.21	52.14	-24.0	-24.2	17.5	0.00e+00	0	42	0	2011168768	8	3713
2026-01-12 14:53:51.63	184.99	53.14	-24.1	-24.6	17.3	0.00e+00	0	42	0	2033188864	8	3800
2026-01-12 14:53:54.65	185.82	54.16	-24.0	-24.4	17.5	0.00e+00	0	42	0	2054160384	8	3737
2026-01-12 14:53:57.66	186.71	55.20	-24.0	-24.2	17.5	0.00e+00	0	42	0	2076180480	8	3710
2026-01-12 14:54:00.68	187.67	56.24	-24.3	-24.5	17.2	0.00e+00	0	42	0	2098200576	9	3662
2026-01-12 14:54:03.70	188.70	57.30	-24.5	-25.4	17.0	0.00e+00	0	42	0	2120220672	8	3985
2026-01-12 14:54:06.72	189.82	58.37	-24.3	-24.9	17.2	0.00e+00	0	42	0	2142240768	8	3871
2026-01-12 14:54:09.74	191.03	59.45	-24.0	-24.3	17.5	0.00e+00	0	42	0	2163212288	8	3738
2026-01-12 14:54:12.77	192.34	60.54	-24.0	-24.4	17.5	0.00e+00	0	42	0	2185232384	8	3753
2026-01-12 14:54:15.79	193.77	61.63	-23.8	-23.8	17.8	0.00e+00	0	42	0	2207252480	8	3627
2026-01-12 14:54:18.80	195.33	62.72	-23.6	-24.0	17.9	0.00e+00	0	42	0	2229272576	7	3777
2026-01-12 14:54:21.80	197.02	63.80	-23.5	-23.7	18.1	0.00e+00	0	42	0	2250244096	7	3700
2026-01-12 14:54:24.82	198.89	64.88	-22.8	-22.8	18.8	0.00e+00	0	42	0	2272264192	6	3591
2026-01-12 14:54:27.84	200.95	65.96	-22.8	-22.8	18.9	0.00e+00	0	42	0	2294284288	6	3591
2026-01-12 14:54:30.86	203.22	67.01	-22.4	-22.4	19.2	0.00e+00	0	42	0	2316304384	5	3613
2026-01-12 14:54:33.88	205.72	68.04	-22.8	-23.2	18.9	0.00e+00	0	42	0	2338324480	5	3794
2026-01-12 14:54:36.89	208.48	69.04	-22.9	-23.4	18.7	0.00e+00	0	42	0	2359296000	5	3844
2026-01-12 14:54:39.90	211.53	70.00	-22.8	-23.3	18.8	0.00e+00	0	42	0	2381316096	5	3811
2026-01-12 14:54:42.93	214.92	70.92	-23.0	-23.2	18.6	0.00e+00	0	42	0	2403336192	6	3673
2026-01-12 14:54:45.95	218.65	71.77	-23.0	-23.2	18.6	0.00e+00	0	42	0	2425356288	6	3689
2026-01-12 14:54:48.97	222.74	72.55	-23.0	-23.2	18.7	0.00e+00	0	42	0	2447376384	6	3690
2026-01-12 14:54:51.99	227.22	73.24	-22.5	-22.6	19.0	0.00e+00	0	42	0	2468347904	5	3664
2026-01-12 14:54:55.02	232.08	73.83	-22.4	-22.4	19.2	0.00e+00	0	42	0	2490368000	5	3616
2026-01-12 14:54:58.03	237.26	74.31	-22.4	-22.5	19.2	0.00e+00	0	42	0	2512388096	5	3631
2026-01-12 14:55:01.05	242.74	74.65	-22.2	-22.1	19.4	0.00e+00	0	42	0	2534408192	5	3549
2026-01-12 14:55:04.07	248.43	74.86	-22.4	-22.5	19.2	0.00e+00	0	42	0	2556428288	5	3629
2026-01-12 14:55:07.09	254.22	74.92	-22.7	-23.0	19.1	0.00e+00	0	42	0	2577399808	5	3737
2026-01-12 14:55:10.12	260.02	74.83	-22.7	-22.5	19.1	0.00e+00	0	42	0	2599419904	6	3530
2026-01-12 14:55:13.14	265.67	74.59	-22.9	-23.0	18.8	0.00e+00	0	42	0	2621440000	6	3648
2026-01-12 14:55:16.15	271.08	74.22	-24.0	-24.9	17.6	0.00e+00	0	42	0	2643460096	7	3957
2026-01-12 14:55:19.17	276.21	73.72	-23.3	-23.2	18.5	0.00e+00	0	42	0	2665480192	7	3587
2026-01-12 14:55:22.19	280.98	73.11	-23.5	-23.7	18.1	0.00e+00	0	42	0	2686451712	7	3679
2026-01-12 14:55:25.21	285.38	72.41	-23.3	-23.3	18.5	0.00e+00	0	42	0	2708471808	7	3594
2026-01-12 14:55:28.24	289.41	71.61	-23.1	-22.9	18.6	0.00e+00	0	42	0	2730491904	7	3517
2026-01-12 14:55:31.25	293.05	70.75	-23.4	-23.5	18.3	0.00e+00	0	42	0	2752512000	7	3655
2026-01-12 14:55:34.27	296.37	69.83	-23.1	-23.5	18.6	0.00e+00	0	42	0	2774532096	6	3741
2026-01-12 14:55:37.28	299.35	68.86	-23.1	-23.5	18.5	0.00e+00	0	42	0	2795503616	6	3745
2026-01-12 14:55:40.31	302.07	67.85	-23.4	-24.1	18.2	0.00e+00	0	42	0	2817523712	6	3885
2026-01-12 14:55:43.33	304.52	66.81	-22.9	-22.9	18.8	0.00e+00	0	42	0	2839543808	6	3630
2026-01-12 14:55:46.36	306.75	65.75	-23.1	-23.4	18.5	4.50e-06	0	42	0	2860515328	6	3727
2026-01-12 14:55:49.38	308.77	64.68	-22.8	-23.3	18.8	0.00e+00	0	42	0	2882535424	5	3811
2026-01-12 14:55:52.40	310.60	63.60	-23.1	-23.5	18.5	0.00e+00	0	42	0	2904555520	6	3737
2026-01-12 14:55:55.42	312.28	62.51	-23.0	-23.3	18.6	0.00e+00	0	42	0	2926575616	6	3695
2026-01-12 14:55:58.43	313.80	61.43	-23.6	-23.9	18.0	0.00e+00	0	42	0	2948595712	7	3734
2026-01-12 14:56:01.45	315.21	60.34	-24.4	-25.1	17.1	0.00e+00	0	42	0	2969567232	8	3906
2026-01-12 14:56:04.47	316.50	59.26	-24.3	-24.9	17.3	0.00e+00	0	42	0	2991587328	8	3853
2026-01-12 14:56:07.49	317.69	58.19	-24.3	-25.0	17.2	0.00e+00	0	42	0	3013607424	8	3880
2026-01-12 14:56:10.51	318.78	57.12	-24.7	-25.2	16.8	0.00e+00	0	42	0	3035627520	9	3834
2026-01-12 14:56:13.54	319.80	56.06	-24.4	-24.5	17.1	0.00e+00	0	42	0	3057647616	9	3674
2026-01-12 14:56:16.56	320.75	55.02	-24.4	-24.7	17.0	0.00e+00	0	42	0	3078619136	9	3725
2026-01-12 14:56:19.58	321.63	53.99	-24.1	-24.0	17.3	0.00e+00	0	42	0	3100639232	9	3558
2026-01-12 14:56:22.60	322.45	52.98	-23.6	-23.5	17.9	0.00e+00	0	42	0	3122659328	8	3542
2026-01-12 14:56:25.62	323.21	51.98	-23.9	-24.0	17.6	0.00e+00	0	42	0	3144679424	8	3653
2026-01-12 14:56:28.63	323.93	51.00	-23.8	-23.9	17.7	0.00e+00	0	42	0	3166699520	8	3625
2026-01-12 14:56:31.66	324.60	50.03	-24.1	-24.6	17.3	0.00e+00	0	42	0	3188719616	8	3786
2026-01-12 14:56:34.69	325.23	49.07	-24.2	-24.8	17.2	0.00e+00	0	42	0	3209691136	8	3829
2026-01-12 14:56:37.70	325.83	48.14	-24.0	-24.4	17.3	0.00e+00	0	42	0	3231711232	8	3748
2026-01-12 14:56:40.72	326.39	47.22	-24.3	-24.9	16.9	0.00e+00	0	42	0	3253731328	8	3873
2026-01-12 14:56:43.75	326.92	46.32	-23.9	-24.0	17.6	0.00e+00	0	42	0	3275751424	8	3665
2026-01-12 14:56:46.76	327.42	45.44	-22.9	-23.0	18.5	0.00e+00	0	42	0	3297771520	6	3650
2026-01-12 14:56:49.79	327.90	44.57	-23.2	-23.6	18.2	0.00e+00	0	42	0	3318743040	6	3784
2026-01-12 14:56:52.80	328.34	43.72	-23.2	-23.7	18.2	0.00e+00	0	42	0	3340763136	6	3804
2026-01-12 14:56:55.83	328.77	42.89	-22.7	-22.6	18.7	0.00e+00	0	42	0	3362783232	6	3565
2026-01-12 14:56:58.84	329.18	42.07	-22.6	-22.4	18.7	0.00e+00	0	42	0	3384803328	6	3520
2026-01-12 14:57:01.85	329.57	41.28	-22.9	-23.0	18.4	0.00e+00	0	42	0	3405774848	6	3648
2026-01-12 14:57:04.87	329.94	40.49	-23.0	-23.3	18.3	0.00e+00	0	42	0	3427794944	6	3697
2026-01-12 14:57:07.90	330.29	39.72	-23.0	-23.2	18.4	0.00e+00	0	42	0	3449815040	6	3678
2026-01-12 14:57:10.92	330.63	38.97	-22.8	-22.8	18.6	0.00e+00	0	42	0	3471835136	6	3598
2026-01-12 14:57:13.93	330.95	38.23	-22.8	-22.8	18.6	0.00e+00	0	42	0	3493855232	6	3598
2026-01-12 14:57:16.94	331.26	37.51	-22.6	-22.5	18.7	0.00e+00	0	42	0	3514826752	6	3538
2026-01-12 14:57:19.96	331.56	36.81	-22.5	-22.3	18.8	0.00e+00	0	42	0	3536846848	6	3492
2026-01-12 14:57:22.98	331.84	36.11	-22.4	-22.0	18.9	0.00e+00	0	42	0	3558866944	6	3442
2026-01-12 14:57:25.99	332.11	35.43	-22.6	-22.8	18.8	0.00e+00	0	42	0	3579838464	5	3714
2026-01-12 14:57:29.00	332.38	34.77	-22.6	-22.9	18.7	0.00e+00	0	42	0	3601858560	5	3725
2026-01-12 14:57:32.01	332.63	34.12	-22.6	-23.0	18.7	0.00e+00	0	42	0	3623878656	5	3738
2026-01-12 14:57:35.04	332.87	33.48	-22.5	-22.8	18.8	0.00e+00	0	42	0	3645898752	5	3700
2026-01-12 14:57:38.04	333.11	32.85	-22.3	-22.2	19.0	0.00e+00	0	42	0	3666870272	5	3575
2026-01-12 14:57:41.06	333.33	32.24	-22.2	-22.1	19.1	0.00e+00	0	42	0	3688890368	5	3548
2026-01-12 14:57:44.08	333.55	31.64	-22.2	-22.1	19.1	0.00e+00	0	42	0	3710910464	5	3551
2026-01-12 14:57:47.11	333.76	31.04	-22.4	-22.5	18.8	0.00e+00	0	42	0	3732930560	5	3641
2026-01-12 14:57:50.13	333.97	30.46	-22.5	-22.7	18.7	0.00e+00	0	42	0	3754950656	5	3686
2026-01-12 14:57:53.15	334.17	29.90	-22.7	-23.1	18.4	0.00e+00	0	42	0	3775922176	5	3770
2026-01-12 14:57:56.16	334.36	29.34	-22.9	-23.5	18.3	0.00e+00	0	42	0	3797942272	5	3862
2026-01-12 14:57:59.17	334.54	28.80	-22.7	-23.2	18.5	0.00e+00	0	42	0	3819962368	5	3793
2026-01-12 14:58:02.20	334.72	28.26	-22.8	-23.4	18.4	0.00e+00	0	43	0	3841982464	5	3841
2026-01-12 14:58:05.22	334.90	27.73	-22.7	-23.1	18.5	0.00e+00	0	42	0	3864002560	5	3776
2026-01-12 14:58:08.23	335.06	27.21	-22.8	-23.4	18.4	0.00e+00	0	42	0	3884974080	5	3845
2026-01-12 14:58:11.26	335.23	26.70	-23.0	-23.8	18.2	0.00e+00	0	42	0	3906994176	5	3924
2026-01-12 14:58:14.28	335.39	26.21	-23.0	-23.7	18.2	0.00e+00	0	42	0	3929014272	5	3919
2026-01-12 14:58:17.30	335.54	25.72	-23.1	-23.5	18.1	0.00e+00	0	42	0	3951034368	6	3756
2026-01-12 14:58:20.32	335.69	25.24	-23.1	-23.4	18.0	0.00e+00	0	42	0	3973054464	6	3726
2026-01-12 14:58:23.34	335.84	24.76	-23.0	-23.3	18.1	0.00e+00	0	42	0	3994025984	6	3712
2026-01-12 14:58:26.35	335.98	24.30	-23.1	-23.5	18.0	0.00e+00	0	43	0	4016046080	6	3754
2026-01-12 14:58:29.38	336.12	23.84	-23.0	-23.2	18.1	0.00e+00	0	43	0	4038066176	6	3699
2026-01-12 14:58:32.40	336.25	23.39	-23.2	-23.6	18.0	0.00e+00	0	42	0	4060086272	6	3779
2026-01-12 14:58:35.43	336.39	22.95	-23.0	-23.2	18.2	0.00e+00	0	42	0	4082106368	6	3688
2026-01-12 14:58:38.44	336.51	22.52	-23.1	-23.5	18.0	0.00e+00	0	42	0	4103077888	6	3757
2026-01-12 14:58:41.45	336.64	22.09	-22.9	-23.1	18.2	0.00e+00	0	42	0	4125097984	6	3668
2026-01-12 14:58:44.48	336.76	21.67	-23.0	-23.2	18.1	0.00e+00	0	42	0	4147118080	6	3690
2026-01-12 14:58:47.50	336.88	21.26	-23.2	-23.6	17.8	0.00e+00	0	42	0	4169138176	6	3794
2026-01-12 14:58:50.52	337.00	20.85	-23.1	-23.4	18.0	0.00e+00	0	42	0	4191158272	6	3724
2026-01-12 14:58:53.54	337.11	20.45	-23.2	-23.6	17.9	0.00e+00	0	42	0	4212129792	6	3777
2026-01-12 14:58:56.56	337.22	20.06	-23.3	-23.9	17.7	0.00e+00	0	42	0	4234149888	6	3856
2026-01-12 14:58:59.58	337.33	19.67	-23.5	-24.2	17.5	0.00e+00	0	42	0	4256169984	6	3922
2026-01-12 14:59:02.60	337.44	19.29	-23.7	-24.3	17.3	0.00e+00	0	42	0	4277141504	7	3833
2026-01-12 14:59:05.62	337.54	18.92	-23.8	-24.5	17.1	0.00e+00	0	42	0	4299161600	7	3885
2026-01-12 14:59:08.64	337.64	18.55	-24.0	-24.9	16.8	0.00e+00	0	42	0	4321181696	7	3970
2026-01-12 14:59:11.65	337.74	18.18	-24.1	-24.5	16.9	0.00e+00	0	42	0	4343201792	8	3782
2026-01-12 14:59:14.67	337.84	17.82	-24.1	-24.5	16.8	0.00e+00	0	42	0	4365221888	8	3793
2026-01-12 14:59:17.69	337.94	17.47	-24.2	-24.7	16.7	0.00e+00	0	42	0	4386193408	8	3824
2026-01-12 14:59:20.70	338.03	17.12	-24.3	-24.9	16.6	0.00e+00	0	42	0	4408213504	8	3880
2026-01-12 14:59:23.72	338.12	16.77	-24.2	-24.8	16.6	0.00e+00	0	42	0	4430233600	8	3854
2026-01-12 14:59:26.74	338.21	16.43	-24.2	-24.8	16.6	0.00e+00	0	42	0	4452253696	8	3868
2026-01-12 14:59:29.76	338.30	16.10	-24.4	-25.2	16.4	0.00e+00	0	42	0	4473225216	8	3951
2026-01-12 14:59:32.78	338.39	15.77	-24.4	-25.1	16.4	0.00e+00	0	42	0	4495245312	8	3937
2026-01-12 14:59:35.80	338.47	15.44	-24.3	-25.0	16.5	1.10e-06	0	42	0	4517265408	8	3916
2026-01-12 14:59:38.82	338.56	15.12	-24.4	-25.2	16.3	0.00e+00	0	42	0	4539285504	8	3957
2026-01-12 14:59:41.84	338.64	14.80	-24.5	-25.4	16.2	0.00e+00	0	42	0	4561305600	8	3998
2026-01-12 14:59:44.86	338.72	14.49	-25.1	-26.2	15.6	0.00e+00	0	42	0	4582277120	9	4092
2026-01-12 14:59:47.87	338.80	14.18	-25.3	-26.1	15.3	0.00e+00	0	42	0	4604297216	10	3971
2026-01-12 14:59:50.89	338.88	13.87	-25.6	-26.8	14.9	0.00e+00	0	42	0	4626317312	10	4145
2026-01-12 14:59:53.92	338.95	13.57	-24.8	-25.2	15.8	0.00e+00	0	42	0	4648337408	10	3738
2026-01-12 14:59:56.94	339.03	13.27	-25.0	-25.6	15.6	0.00e+00	0	42	0	4670357504	10	3843
2026-01-12 14:59:59.95	339.10	12.98	-25.3	-26.1	15.3	1.10e-06	0	43	0	4691329024	10	3963
2026-01-12 15:00:02.97	339.18	12.69	-25.4	-26.5	15.0	0.00e+00	0	42	0	4713349120	10	4071
2026-01-12 15:00:05.98	339.25	12.40	-25.6	-26.3	14.9	0.00e+00	0	42	0	4735369216	11	3912
2026-01-12 15:00:08.99	339.32	12.12	-25.6	-26.3	14.8	0.00e+00	0	42	0	4757389312	11	3905
2026-01-12 15:00:12.02	339.39	11.83	-25.5	-26.1	15.0	0.00e+00	0	43	0	4779409408	11	3853
2026-01-12 15:00:15.04	339.46	11.56	-25.2	-25.6	15.2	0.00e+00	0	42	0	4800380928	11	3734
2026-01-12 15:00:18.06	339.52	11.28	-25.4	-26.0	15.0	0.00e+00	0	42	0	4822401024	11	3829
2026-01-12 15:00:21.07	339.59	11.01	-25.4	-25.9	15.0	0.00e+00	0	42	0	4844421120	11	3818
2026-01-12 15:00:24.09	339.65	10.74	-25.5	-26.2	14.8	0.00e+00	0	42	0	4866441216	11	3883
2026-01-12 15:00:27.11	339.72	10.47	-25.6	-26.3	14.8	0.00e+00	0	43	0	4888461312	11	3908
2026-01-12 15:00:30.12	339.78	10.21	-25.5	-26.2	14.8	0.00e+00	0	42	0	4909432832	11	3878
2026-01-12 15:00:33.14	339.85	9.95	-25.8	-26.9	14.4	1.10e-06	0	42	0	4931452928	11	4067
2026-01-12 15:00:36.16	339.91	9.69	-25.7	-26.7	14.5	0.00e+00	0	42	0	4952424448	11	4003
2026-01-12 15:00:39.18	339.97	9.44	-26.1	-27.4	14.1	3.40e-06	0	42	0	4974444544	11	4189
2026-01-12 15:00:42.20	340.03	9.19	-26.1	-27.0	14.0	2.20e-06	0	42	0	4996464640	12	3984
2026-01-12 15:00:45.22	340.09	8.94	-26.0	-26.8	14.0	4.50e-06	0	42	0	5018484736	12	3954
2026-01-12 15:00:48.23	340.15	8.69	-26.0	-26.8	14.0	9.10e-06	0	42	0	5040504832	12	3938
2026-01-12 15:00:51.25	340.20	8.44	-25.8	-26.4	14.2	2.20e-06	0	42	0	5061476352	12	3858
2026-01-12 15:00:54.28	340.26	8.20	-25.9	-26.7	14.0	2.20e-06	0	42	0	5083496448	12	3922
2026-01-12 15:00:57.29	340.32	7.96	-25.9	-26.6	14.1	4.50e-06	0	42	0	5105516544	12	3886
2026-01-12 15:01:00.32	340.37	7.72	-26.0	-26.9	13.8	3.40e-06	0	43	0	5127536640	12	3978
2026-01-12 15:01:03.34	340.43	7.49	-26.1	-27.0	13.7	3.40e-06	0	42	0	5149556736	12	4003
2026-01-12 15:01:06.36	340.48	7.25	-26.0	-26.9	13.8	4.50e-06	0	42	0	5170528256	12	3973
2026-01-12 15:01:09.34	340.54	7.02	-32.7	-42.3	3.8	8.46e-01	0	43	104	5186256896	25	10863
2026-01-12 15:01:12.34	340.59	6.79	-33.3	-43.1	3.8	8.46e-01	0	42	104	5186256896	26	11044

#Closed at: 2026-01-12 15:01:12
#Recorded file [5186 MB]: D:/data/31010_260112_174909.dat