passes_logs/2026/01/12/R2M6_AANII_01/R2M6_AANII_01__20260112_225258_NOAA_20_JPSS-1_rec.log

#Pass ID: 20260112_225258_NOAA 20 (JPSS-1)
#Satellite: NOAA 20 (JPSS-1)
#Configuration: NOAA 20
#almurnet v.1.7.20240730
#Start time: 2026-01-12 22:52:57

#Version: 2.2.20231116
#Station: R2M6_AANII_01
#Location: 30.233357 lon 59.946436 lat
#TLE: 1 43013U 17073A   26012.29914746  .00000087  00000+0  62270-4 0  9997
#TLE: 2 43013  98.7632 313.2670 0001616  43.2193 316.9110 14.19535514422351

#Time	Az	El	Level	Level2	SNR	BER	BlckErr	Temp	State	Recorded	gain1	gain2
2026-01-12 22:52:57.99	28.39	6.97	-30.8	-35.8	5.4	1.16e+00	0	39	0	0	21	6391
2026-01-12 22:53:01.00	28.64	7.17	-31.5	-37.5	7.8	8.49e-02	0	39	0	1048576	23	7208
2026-01-12 22:53:04.03	28.91	7.37	-31.3	-37.2	8.6	5.77e-02	0	40	0	7340032	22	7080
2026-01-12 22:53:07.04	29.17	7.57	-30.6	-35.1	10.7	6.16e-03	0	40	0	12582912	21	6020
2026-01-12 22:53:10.06	29.44	7.77	-30.9	-36.1	10.0	5.38e-03	0	40	0	18874368	21	6505
2026-01-12 22:53:13.08	29.72	7.97	-30.4	-34.8	11.3	2.00e-03	0	40	0	24117248	20	5989
2026-01-12 22:53:16.10	29.99	8.17	-30.7	-35.2	10.7	1.87e-03	0	40	0	29360128	21	6029
2026-01-12 22:53:19.11	30.27	8.37	-30.6	-34.9	11.0	2.12e-03	0	40	0	35651584	21	5879
2026-01-12 22:53:22.13	30.56	8.58	-30.5	-34.9	11.4	1.24e-03	0	40	0	40894464	20	5995
2026-01-12 22:53:25.15	30.84	8.78	-30.4	-34.6	11.6	8.15e-04	0	40	0	47185920	20	5844
2026-01-12 22:53:28.17	31.14	8.99	-30.4	-34.7	11.6	1.02e-03	0	40	0	52428800	20	5894
2026-01-12 22:53:31.18	31.43	9.20	-30.4	-34.5	11.8	8.91e-04	0	40	0	57671680	20	5777
2026-01-12 22:53:34.20	31.73	9.41	-30.4	-34.5	11.8	8.70e-04	0	40	0	63963136	20	5796
2026-01-12 22:53:37.21	32.03	9.61	-30.2	-34.1	12.1	4.99e-04	0	41	0	69206016	20	5597
2026-01-12 22:53:40.24	32.34	9.83	-30.0	-33.5	12.5	4.89e-04	0	40	0	74448896	20	5347
2026-01-12 22:53:43.24	32.65	10.04	-30.0	-33.4	12.7	4.92e-04	0	41	0	80740352	20	5301
2026-01-12 22:53:46.26	32.97	10.25	-30.0	-33.4	12.6	4.24e-04	0	41	0	85983232	20	5298
2026-01-12 22:53:49.28	33.29	10.46	-30.1	-33.6	12.5	3.91e-04	0	41	0	92274688	20	5372
2026-01-12 22:53:52.30	33.62	10.68	-30.2	-33.8	12.4	3.90e-04	0	41	0	97517568	20	5461
2026-01-12 22:53:55.31	33.95	10.90	-30.3	-34.1	12.2	4.26e-04	0	41	0	102760448	20	5615
2026-01-12 22:53:58.34	34.28	11.11	-30.1	-33.6	12.6	1.10e-04	0	41	0	109051904	20	5359
2026-01-12 22:54:01.35	34.62	11.33	-30.0	-33.4	12.7	7.62e-05	0	41	0	114294784	20	5295
2026-01-12 22:54:04.37	34.97	11.55	-30.1	-33.6	12.6	9.38e-05	0	41	0	120586240	20	5373
2026-01-12 22:54:07.39	35.32	11.77	-30.0	-33.4	12.8	1.87e-04	0	41	0	125829120	20	5281
2026-01-12 22:54:10.41	35.67	11.99	-30.1	-33.5	12.7	2.33e-04	0	41	0	131072000	20	5353
2026-01-12 22:54:13.42	36.03	12.22	-30.1	-33.5	12.7	2.37e-04	0	41	0	137363456	20	5327
2026-01-12 22:54:16.43	36.39	12.44	-29.9	-32.9	13.2	2.36e-05	0	41	0	142606336	20	5103
2026-01-12 22:54:19.45	36.76	12.67	-29.8	-32.7	13.3	1.37e-05	0	41	0	148897792	20	5018
2026-01-12 22:54:22.47	37.14	12.89	-29.9	-32.8	13.3	2.89e-05	0	41	0	154140672	20	5053
2026-01-12 22:54:25.49	37.52	13.12	-29.8	-32.7	13.3	8.30e-06	0	41	0	159383552	20	5024
2026-01-12 22:54:28.50	37.91	13.35	-29.7	-32.3	13.6	4.50e-06	0	41	0	165675008	20	4863
2026-01-12 22:54:31.51	38.30	13.57	-29.8	-32.5	13.5	1.52e-05	0	41	0	170917888	20	4936
2026-01-12 22:54:34.53	38.70	13.80	-29.9	-32.9	13.3	1.67e-05	0	41	0	177209344	20	5086
2026-01-12 22:54:37.55	39.11	14.04	-29.9	-33.3	13.4	1.60e-05	0	41	0	182452224	19	5321
2026-01-12 22:54:40.56	39.52	14.27	-29.9	-33.2	13.5	6.80e-06	0	41	0	187695104	19	5284
2026-01-12 22:54:43.58	39.93	14.50	-29.9	-33.2	13.5	1.22e-05	0	41	0	193986560	19	5286
2026-01-12 22:54:46.60	40.36	14.73	-29.8	-32.9	13.7	4.50e-06	0	41	0	199229440	19	5184
2026-01-12 22:54:49.62	40.79	14.97	-29.9	-32.7	13.5	1.60e-05	0	41	0	205520896	20	4993
2026-01-12 22:54:52.64	41.23	15.20	-29.9	-32.8	13.4	6.10e-06	0	41	0	210763776	20	5037
2026-01-12 22:54:55.66	41.67	15.44	-30.1	-33.3	13.1	1.52e-05	0	41	0	216006656	20	5201
2026-01-12 22:54:58.68	42.12	15.68	-29.6	-32.0	14.0	4.50e-06	0	41	0	222298112	20	4752
2026-01-12 22:55:01.70	42.58	15.91	-29.5	-31.6	14.2	7.00e-07	0	41	0	227540992	20	4612
2026-01-12 22:55:04.71	43.04	16.15	-29.5	-31.7	14.0	0.00e+00	0	41	0	233832448	20	4621
2026-01-12 22:55:07.73	43.51	16.39	-29.5	-32.1	14.1	0.00e+00	0	41	0	239075328	19	4869
2026-01-12 22:55:10.74	43.99	16.63	-29.5	-32.2	14.3	5.87e-05	0	42	0	244318208	19	4897
2026-01-12 22:55:13.75	44.48	16.87	-29.4	-32.0	14.5	1.50e-06	0	42	0	250609664	19	4813
2026-01-12 22:55:16.76	44.97	17.10	-29.5	-32.0	14.4	0.00e+00	0	41	0	255852544	19	4841
2026-01-12 22:55:19.78	45.47	17.34	-29.4	-31.9	14.5	0.00e+00	0	42	0	261095424	19	4805
2026-01-12 22:55:22.80	45.98	17.59	-29.5	-32.2	14.3	0.00e+00	0	41	0	267386880	19	4904
2026-01-12 22:55:25.82	46.50	17.83	-29.8	-32.8	14.0	6.33e-05	0	41	0	272629760	19	5126
2026-01-12 22:55:28.84	47.02	18.07	-29.8	-32.9	13.9	4.27e-05	0	42	0	278921216	19	5146
2026-01-12 22:55:31.86	47.56	18.31	-29.9	-33.1	13.8	5.30e-06	0	41	0	284164096	19	5200
2026-01-12 22:55:34.88	48.10	18.55	-29.5	-32.0	14.5	2.20e-06	0	41	0	289406976	19	4836
2026-01-12 22:55:37.90	48.65	18.79	-29.6	-32.4	14.3	1.38e-04	0	41	0	295698432	19	4945
2026-01-12 22:55:40.92	49.21	19.03	-29.3	-31.7	14.8	4.50e-05	0	42	0	300941312	19	4701
2026-01-12 22:55:43.94	49.78	19.27	-29.2	-31.4	15.0	5.11e-05	0	42	0	307232768	19	4614
2026-01-12 22:55:46.95	50.36	19.51	-29.0	-30.7	15.4	9.76e-05	0	42	0	312475648	19	4401
2026-01-12 22:55:49.96	50.94	19.75	-28.7	-30.6	15.7	5.64e-05	0	42	0	317718528	18	4487
2026-01-12 22:55:52.99	51.54	19.99	-28.7	-30.7	15.7	6.48e-05	0	42	0	324009984	18	4489
2026-01-12 22:55:56.01	52.14	20.22	-28.6	-30.4	15.8	2.84e-04	0	42	0	329252864	18	4414
2026-01-12 22:55:59.02	52.75	20.46	-28.6	-30.8	15.9	1.22e-03	0	42	0	335544320	17	4656
2026-01-12 22:56:02.04	53.37	20.69	-28.6	-30.8	15.9	0.00e+00	0	42	0	340787200	17	4654
2026-01-12 22:56:05.05	54.00	20.93	-28.7	-31.0	15.8	0.00e+00	0	42	0	346030080	17	4710
2026-01-12 22:56:08.07	54.64	21.16	-28.8	-31.2	15.7	0.00e+00	0	42	0	352321536	17	4786
2026-01-12 22:56:11.09	55.29	21.39	-28.9	-31.5	15.5	0.00e+00	0	42	0	357564416	17	4868
2026-01-12 22:56:14.10	55.95	21.62	-29.1	-31.6	15.2	0.00e+00	0	42	0	363855872	18	4800
2026-01-12 22:56:17.12	56.62	21.85	-29.1	-31.6	15.2	3.20e-05	0	42	0	369098752	18	4782
2026-01-12 22:56:20.14	57.30	22.08	-29.2	-31.8	15.1	0.00e+00	0	42	0	374341632	18	4861
2026-01-12 22:56:23.16	57.99	22.30	-29.4	-32.2	14.9	0.00e+00	0	42	0	380633088	18	4986
2026-01-12 22:56:26.18	58.69	22.52	-29.5	-31.9	14.8	0.00e+00	0	42	0	385875968	19	4771
2026-01-12 22:56:29.19	59.40	22.74	-29.6	-32.2	14.6	0.00e+00	0	42	0	392167424	19	4854
2026-01-12 22:56:32.21	60.12	22.96	-29.4	-32.3	14.8	0.00e+00	0	42	0	397410304	18	5015
2026-01-12 22:56:35.22	60.84	23.17	-29.5	-32.4	14.7	7.00e-07	0	42	0	402653184	18	5053
2026-01-12 22:56:38.23	61.58	23.38	-29.8	-32.7	14.2	2.20e-06	0	42	0	408944640	19	5040
2026-01-12 22:56:41.25	62.33	23.59	-29.5	-32.1	14.6	5.60e-04	0	42	0	414187520	19	4832
2026-01-12 22:56:44.28	63.09	23.80	-29.6	-32.2	14.6	5.52e-04	0	42	0	420478976	19	4855
2026-01-12 22:56:47.29	63.85	24.00	-30.0	-32.8	13.8	2.74e-04	0	42	0	425721856	20	4969
2026-01-12 22:56:50.30	64.63	24.20	-30.3	-33.7	13.2	1.90e-05	0	42	0	430964736	20	5329
2026-01-12 22:56:53.32	65.41	24.39	-30.3	-33.6	13.3	2.13e-05	0	42	0	437256192	20	5285
2026-01-12 22:56:56.34	66.21	24.58	-30.1	-33.3	13.6	6.80e-06	0	42	0	442499072	20	5150
2026-01-12 22:56:59.36	67.01	24.76	-30.5	-34.2	12.9	1.90e-05	0	42	0	448790528	20	5511
2026-01-12 22:57:02.36	67.82	24.94	-30.9	-35.0	12.0	2.93e-04	0	42	0	454033408	21	5745
2026-01-12 22:57:05.37	68.64	25.12	-30.8	-34.5	12.4	5.56e-04	0	42	0	459276288	21	5517
2026-01-12 22:57:08.39	69.48	25.29	-30.5	-33.8	12.9	3.02e-04	0	42	0	465567744	21	5262
2026-01-12 22:57:11.41	70.32	25.45	-31.1	-35.1	11.6	8.57e-04	0	42	0	470810624	22	5668
2026-01-12 22:57:14.43	71.17	25.61	-31.5	-35.7	10.8	2.50e-03	0	42	0	477102080	23	5862
2026-01-12 22:57:17.45	72.03	25.77	-31.2	-35.2	11.6	8.54e-04	0	42	0	482344960	22	5713
2026-01-12 22:57:20.45	72.89	25.91	-30.9	-34.4	12.2	2.94e-04	0	42	0	487587840	22	5369
2026-01-12 22:57:23.46	73.76	26.06	-31.0	-34.6	12.1	2.35e-04	0	42	0	493879296	22	5442
2026-01-12 22:57:26.48	74.64	26.19	-31.1	-34.9	11.8	8.68e-04	0	42	0	499122176	22	5586
2026-01-12 22:57:29.49	75.53	26.32	-30.8	-34.6	12.3	5.30e-04	0	42	0	504365056	21	5581
2026-01-12 22:57:32.51	76.43	26.44	-30.8	-34.5	12.4	1.80e-04	0	42	0	510656512	21	5526
2026-01-12 22:57:35.53	77.33	26.56	-30.8	-34.7	12.3	2.45e-04	0	42	0	515899392	21	5592
2026-01-12 22:57:38.54	78.24	26.67	-30.4	-33.5	13.2	2.74e-05	0	42	0	522190848	21	5119
2026-01-12 22:57:41.56	79.15	26.77	-30.5	-33.8	12.9	5.56e-05	0	42	0	527433728	21	5244
2026-01-12 22:57:44.57	80.07	26.86	-30.7	-34.2	12.7	8.16e-05	0	42	0	532676608	21	5409
2026-01-12 22:57:47.59	80.99	26.95	-30.9	-34.8	12.3	1.72e-04	0	42	0	538968064	21	5659
2026-01-12 22:57:50.60	81.92	27.03	-31.0	-34.7	12.0	3.86e-04	0	42	0	544210944	22	5500
2026-01-12 22:57:53.61	82.86	27.10	-30.9	-34.4	12.1	2.10e-04	0	42	0	550502400	22	5388
2026-01-12 22:57:56.62	83.79	27.16	-30.9	-34.4	12.1	3.27e-04	0	42	0	555745280	22	5379
2026-01-12 22:57:59.63	84.73	27.22	-30.8	-34.0	12.5	1.43e-04	0	42	0	560988160	22	5218
2026-01-12 22:58:02.65	85.68	27.26	-30.7	-33.7	12.6	6.33e-05	0	42	0	567279616	22	5106
2026-01-12 22:58:05.66	86.62	27.30	-30.4	-33.5	13.1	3.05e-05	0	42	0	572522496	21	5142
2026-01-12 22:58:08.68	87.57	27.33	-30.4	-33.5	13.1	2.82e-05	0	42	0	578813952	21	5132
2026-01-12 22:58:11.70	88.53	27.36	-29.9	-32.2	13.9	2.20e-06	0	42	0	584056832	21	4655
2026-01-12 22:58:14.72	89.48	27.37	-29.7	-32.0	14.4	0.00e+00	0	42	0	589299712	20	4704
2026-01-12 22:58:17.73	90.43	27.38	-30.1	-33.2	13.6	3.00e-06	0	42	0	595591168	20	5103
2026-01-12 22:58:20.76	91.39	27.37	-30.2	-33.2	13.6	6.10e-06	0	42	0	600834048	20	5136
2026-01-12 22:58:23.76	92.33	27.36	-30.3	-33.7	13.3	1.37e-05	0	42	0	607125504	20	5316
2026-01-12 22:58:26.77	93.28	27.34	-30.6	-33.9	12.8	5.72e-05	0	42	0	612368384	21	5273
2026-01-12 22:58:29.79	94.24	27.32	-30.9	-34.7	12.2	2.33e-04	0	42	0	617611264	21	5637
2026-01-12 22:58:32.81	95.19	27.28	-30.7	-34.3	12.6	1.20e-04	0	42	0	623902720	21	5441
2026-01-12 22:58:35.83	96.13	27.24	-30.6	-34.0	12.7	5.11e-05	0	42	0	629145600	21	5330
2026-01-12 22:58:38.85	97.08	27.18	-30.8	-34.7	12.1	2.43e-04	0	42	0	635437056	21	5647
2026-01-12 22:58:41.86	98.02	27.12	-31.2	-35.3	11.4	6.52e-04	0	42	0	640679936	22	5785
2026-01-12 22:58:44.85	98.95	27.06	-30.7	-34.0	12.4	1.56e-04	0	42	0	645922816	22	5218
2026-01-12 22:58:47.87	99.88	26.98	-30.5	-33.3	12.9	3.20e-05	0	42	0	652214272	22	4953
2026-01-12 22:58:50.88	100.81	26.90	-30.9	-34.3	12.2	1.29e-04	0	42	0	657457152	22	5353
2026-01-12 22:58:53.90	101.73	26.80	-30.3	-32.8	13.1	3.89e-05	0	42	0	662700032	22	4795
2026-01-12 22:58:56.92	102.65	26.71	-30.1	-32.6	13.6	8.30e-06	0	42	0	668991488	21	4819
2026-01-12 22:58:59.94	103.56	26.60	-30.1	-32.7	13.6	6.10e-06	0	42	0	674234368	21	4841
2026-01-12 22:59:02.94	104.47	26.49	-30.2	-33.0	13.3	2.36e-05	0	42	0	680525824	21	4964
2026-01-12 22:59:05.95	105.36	26.37	-29.8	-32.3	14.1	1.50e-06	0	42	0	685768704	20	4808
2026-01-12 22:59:08.95	106.25	26.24	-29.5	-31.7	14.5	7.00e-07	0	42	0	691011584	20	4624
2026-01-12 22:59:11.97	107.14	26.11	-30.0	-32.8	13.7	6.10e-06	0	42	0	697303040	20	5011
2026-01-12 22:59:14.98	108.02	25.97	-30.2	-33.4	13.4	6.80e-06	0	42	0	702545920	20	5233
2026-01-12 22:59:18.00	108.89	25.82	-30.5	-33.8	12.7	8.23e-05	0	42	0	708837376	21	5261
2026-01-12 22:59:21.02	109.75	25.67	-31.1	-35.0	11.6	8.87e-04	0	42	0	714080256	22	5683
2026-01-12 22:59:24.04	110.61	25.51	-30.8	-34.2	12.2	6.90e-04	0	42	0	719323136	22	5302
2026-01-12 22:59:27.06	111.46	25.35	-30.2	-33.0	13.3	1.75e-05	0	42	0	725614592	21	4956
2026-01-12 22:59:30.07	112.29	25.18	-30.6	-34.1	12.5	5.03e-05	0	42	0	730857472	21	5404
2026-01-12 22:59:33.09	113.12	25.00	-30.0	-32.5	13.6	1.14e-05	0	42	0	737148928	21	4781
2026-01-12 22:59:36.11	113.94	24.82	-30.2	-33.1	13.1	3.28e-05	0	42	0	742391808	21	5028
2026-01-12 22:59:39.13	114.75	24.64	-29.8	-32.4	13.9	6.80e-06	0	42	0	747634688	20	4878
2026-01-12 22:59:42.15	115.56	24.45	-30.1	-33.3	13.3	2.55e-04	0	42	0	753926144	20	5180
2026-01-12 22:59:45.16	116.35	24.26	-30.1	-33.3	13.3	7.09e-05	0	42	0	759169024	20	5195
2026-01-12 22:59:48.17	117.13	24.06	-30.2	-33.7	13.0	7.24e-05	0	42	0	764411904	20	5345
2026-01-12 22:59:51.19	117.90	23.86	-30.2	-33.4	13.2	2.36e-05	0	42	0	770703360	20	5243
2026-01-12 22:59:54.21	118.67	23.66	-30.0	-32.8	13.6	1.29e-05	0	42	0	775946240	20	5014
2026-01-12 22:59:57.23	119.42	23.45	-30.2	-33.5	13.1	2.05e-05	0	42	0	782237696	20	5278
2026-01-12 23:00:00.23	120.16	23.24	-30.1	-33.1	13.5	1.06e-05	0	42	0	787480576	20	5120
2026-01-12 23:00:03.24	120.89	23.02	-30.5	-33.9	12.6	1.31e-04	0	42	0	792723456	21	5341
2026-01-12 23:00:06.24	121.61	22.81	-29.8	-32.0	13.8	7.93e-05	0	42	0	799014912	21	4612
2026-01-12 23:00:09.26	122.33	22.59	-29.7	-32.0	14.1	5.64e-05	0	42	0	804257792	20	4738
2026-01-12 23:00:12.27	123.03	22.37	-29.9	-32.7	13.6	3.89e-05	0	42	0	810549248	20	4987
2026-01-12 23:00:15.28	123.72	22.14	-29.6	-31.8	14.2	7.00e-07	0	42	0	815792128	20	4672
2026-01-12 23:00:18.30	124.41	21.91	-30.2	-33.7	12.9	3.66e-05	0	42	0	821035008	20	5374
2026-01-12 23:00:21.32	125.09	21.68	-30.4	-34.2	12.7	2.09e-04	0	42	0	827326464	20	5551
2026-01-12 23:00:24.34	125.75	21.45	-30.1	-33.4	13.1	4.27e-05	0	42	0	832569344	20	5234
2026-01-12 23:00:27.35	126.41	21.22	-30.5	-34.4	12.5	1.07e-04	0	42	0	838860800	20	5658
2026-01-12 23:00:30.37	127.05	20.99	-30.0	-32.5	13.4	3.35e-05	0	42	0	844103680	21	4808
2026-01-12 23:00:33.39	127.69	20.75	-30.1	-32.8	13.2	1.67e-05	0	42	0	849346560	21	4920
2026-01-12 23:00:36.41	128.32	20.51	-30.5	-34.0	12.4	1.65e-04	0	42	0	855638016	21	5376
2026-01-12 23:00:39.43	128.94	20.28	-30.0	-32.5	13.4	1.14e-05	0	42	0	860880896	21	4797
2026-01-12 23:00:42.45	129.55	20.04	-30.2	-33.7	12.9	4.88e-05	0	42	0	867172352	20	5381
2026-01-12 23:00:45.46	130.14	19.80	-30.8	-35.0	11.6	5.25e-04	0	42	0	872415232	21	5834
2026-01-12 23:00:48.48	130.74	19.56	-30.0	-32.6	13.2	2.05e-05	0	42	0	877658112	21	4858
2026-01-12 23:00:51.50	131.32	19.32	-30.2	-33.7	12.8	4.27e-05	0	42	0	883949568	20	5381
2026-01-12 23:00:54.52	131.89	19.07	-30.8	-35.1	11.2	9.12e-04	0	42	0	889192448	21	5886
2026-01-12 23:00:57.54	132.46	18.83	-30.7	-34.6	11.7	1.05e-03	0	42	0	895483904	21	5677
2026-01-12 23:01:00.55	133.01	18.59	-30.1	-33.5	12.9	2.51e-05	0	42	0	900726784	20	5319
2026-01-12 23:01:03.57	133.56	18.35	-30.4	-34.2	12.4	1.45e-04	0	42	0	905969664	20	5574
2026-01-12 23:01:06.58	134.09	18.11	-30.1	-33.4	13.0	3.73e-05	0	42	0	912261120	20	5257
2026-01-12 23:01:09.60	134.62	17.86	-30.1	-33.4	12.9	5.51e-04	0	42	0	917504000	20	5272
2026-01-12 23:01:12.61	135.15	17.62	-30.1	-33.4	12.9	4.23e-04	0	42	0	922746880	20	5251
2026-01-12 23:01:15.61	135.66	17.38	-29.9	-33.2	13.3	2.50e-04	0	42	0	929038336	19	5314
2026-01-12 23:01:18.63	136.16	17.14	-29.6	-32.6	13.8	1.95e-04	0	42	0	934281216	19	5064
2026-01-12 23:01:21.64	136.66	16.90	-29.7	-33.0	13.4	1.52e-05	0	42	0	940572672	19	5271
2026-01-12 23:01:24.66	137.15	16.65	-29.8	-33.1	13.3	2.28e-05	0	42	0	945815552	19	5296
2026-01-12 23:01:27.67	137.63	16.41	-29.6	-32.7	13.6	7.84e-04	0	42	0	951058432	19	5140
2026-01-12 23:01:30.67	138.10	16.18	-29.5	-32.3	13.8	4.47e-04	0	42	0	957349888	19	5008
2026-01-12 23:01:33.69	138.57	15.94	-29.4	-32.2	13.8	7.24e-05	0	42	0	962592768	19	4958
2026-01-12 23:01:36.70	139.03	15.70	-29.6	-32.7	13.5	3.38e-04	0	42	0	968884224	19	5147
2026-01-12 23:01:39.71	139.49	15.46	-29.9	-33.6	12.8	1.07e-03	0	42	0	974127104	19	5514
2026-01-12 23:01:42.71	139.93	15.22	-30.0	-33.5	12.5	1.10e-03	0	42	0	979369984	20	5371
2026-01-12 23:01:45.73	140.37	14.98	-30.1	-33.8	12.2	3.29e-04	0	42	0	985661440	20	5529
2026-01-12 23:01:48.74	140.80	14.75	-29.9	-33.3	12.4	1.35e-04	0	42	0	990904320	20	5320
2026-01-12 23:01:51.76	141.23	14.51	-30.0	-33.5	12.2	7.39e-04	0	42	0	996147200	20	5427
2026-01-12 23:01:54.76	141.65	14.28	-29.8	-33.1	12.5	1.30e-03	0	42	0	1002438656	20	5231
2026-01-12 23:01:57.77	142.06	14.05	-29.9	-33.7	12.5	1.24e-03	0	42	0	1007681536	19	5576
2026-01-12 23:02:00.79	142.47	13.81	-30.1	-34.0	11.8	3.02e-04	0	42	0	1013972992	20	5638
2026-01-12 23:02:03.80	142.87	13.58	-30.2	-34.4	11.5	7.97e-04	0	42	0	1019215872	20	5831
2026-01-12 23:02:06.81	143.27	13.35	-30.3	-34.8	11.2	1.39e-03	0	42	0	1024458752	20	6047
2026-01-12 23:02:09.83	143.66	13.12	-30.4	-35.2	10.9	1.79e-03	0	42	0	1030750208	20	6239
2026-01-12 23:02:12.84	144.04	12.89	-30.2	-34.5	11.4	9.41e-04	0	42	0	1035993088	20	5897
2026-01-12 23:02:15.87	144.42	12.66	-30.3	-34.6	11.3	1.06e-03	0	42	0	1042284544	20	5962
2026-01-12 23:02:18.89	144.79	12.43	-30.3	-34.8	11.1	1.60e-03	0	42	0	1047527424	20	6046
2026-01-12 23:02:21.91	145.16	12.21	-30.4	-34.5	11.1	2.58e-03	0	42	0	1052770304	21	5772
2026-01-12 23:02:24.92	145.52	11.98	-30.4	-34.5	11.0	2.62e-03	0	42	0	1059061760	21	5791
2026-01-12 23:02:27.93	145.87	11.76	-30.2	-34.4	11.4	1.04e-03	0	42	0	1064304640	20	5844
2026-01-12 23:02:30.94	146.22	11.54	-30.2	-34.5	11.4	9.48e-04	0	42	0	1070596096	20	5896
2026-01-12 23:02:33.96	146.57	11.32	-30.1	-34.3	11.4	8.88e-04	0	42	0	1075838976	20	5856
2026-01-12 23:02:36.97	146.91	11.10	-30.2	-34.6	11.2	1.23e-03	0	42	0	1081081856	20	5986
2026-01-12 23:02:39.99	147.25	10.88	-30.2	-34.9	11.0	1.94e-03	0	42	0	1087373312	20	6142
2026-01-12 23:02:43.01	147.58	10.66	-29.9	-33.8	11.8	8.31e-04	0	42	0	1092616192	20	5595
2026-01-12 23:02:46.03	147.91	10.44	-29.8	-33.4	12.1	5.48e-04	0	42	0	1097859072	20	5412
2026-01-12 23:02:49.04	148.23	10.22	-29.9	-33.9	12.2	3.78e-04	0	42	0	1104150528	19	5696
2026-01-12 23:02:52.04	148.54	10.01	-29.9	-33.9	12.1	2.35e-04	0	42	0	1109393408	19	5724
2026-01-12 23:02:55.05	148.86	9.80	-30.0	-34.3	11.8	3.01e-04	0	42	0	1115684864	19	5916
2026-01-12 23:02:58.07	149.17	9.58	-30.0	-34.3	11.3	1.08e-03	0	42	0	1120927744	20	5858
2026-01-12 23:03:01.09	149.47	9.37	-30.1	-34.4	11.1	1.72e-03	0	42	0	1126170624	20	5929
2026-01-12 23:03:04.11	149.77	9.16	-30.2	-34.7	10.9	2.66e-03	0	42	0	1132462080	20	6055
2026-01-12 23:03:07.11	150.07	8.95	-30.5	-35.4	10.4	5.37e-03	0	42	0	1137704960	20	6395
2026-01-12 23:03:10.13	150.36	8.74	-30.4	-35.3	10.4	4.15e-03	0	42	0	1143996416	20	6355
2026-01-12 23:03:13.15	150.65	8.53	-30.2	-35.1	10.4	4.03e-03	0	42	0	1149239296	20	6338
2026-01-12 23:03:16.17	150.93	8.33	-29.6	-33.9	11.0	2.12e-03	0	42	0	1154482176	20	5918
2026-01-12 23:03:19.20	151.21	8.12	-29.6	-34.7	10.8	2.60e-03	0	42	0	1160773632	19	6460
2026-01-12 23:03:22.21	151.49	7.92	-29.7	-34.8	10.7	2.89e-03	0	42	0	1166016512	19	6461
2026-01-12 23:03:25.23	151.76	7.72	-30.0	-34.8	10.3	4.88e-03	0	42	0	1172307968	20	6298
2026-01-12 23:03:28.25	152.03	7.51	-29.9	-34.7	11.0	3.04e-03	0	42	0	1177550848	19	6277
2026-01-12 23:03:31.26	152.30	7.31	-30.0	-34.5	10.7	3.19e-03	0	42	0	1182793728	20	6048
2026-01-12 23:03:34.27	152.56	7.11	-31.1	-37.7	8.3	2.16e-03	0	42	0	1189085184	22	7728
2026-01-12 23:03:37.29	152.82	6.91	-33.6	-47.7	3.8	1.49e+00	0	42	104	1189085184	27	18352

#Closed at: 2026-01-12 23:03:38
#Recorded file [1189 MB]: D:/data/31010_260113_015259.dat