passes_logs/2026/01/12/R2M6_AANII_01/R2M6_AANII_01__20260112_132117_AQUA_rec.log

#Pass ID: 20260112_132117_AQUA
#Satellite: AQUA
#Configuration: AQUA
#almurnet v.1.7.20240730
#Start time: 2026-01-12 13:21:16

#Version: 2.2.20231116
#Station: R2M6_AANII_01
#Location: 30.233357 lon 59.946436 lat
#TLE: 1 27424U 02022A   26011.93923927  .00001110  00000+0  23211-3 0  9993
#TLE: 2 27424  98.4078 338.3153 0002029  81.9924 314.0623 14.61816932260445

#Time	Az	El	Level	Level2	SNR	BER	BlckErr	Temp	State	Recorded	gain1	gain2
2026-01-12 13:21:16.56	205.77	6.94	-34.1	-52.8	3.8	7.48e-01	0	42	0	0	30	30920
2026-01-12 13:21:19.59	206.06	7.16	-33.8	-52.6	3.8	7.43e-01	0	42	104	0	29	31568
2026-01-12 13:21:22.60	206.36	7.37	-33.1	-48.5	4.0	7.44e-01	0	42	104	0	28	21239
2026-01-12 13:21:25.61	206.66	7.58	-33.0	-49.9	3.8	7.43e-01	0	42	104	0	28	25277
2026-01-12 13:21:28.62	206.96	7.80	-33.0	-51.0	3.8	7.47e-01	0	42	104	0	28	28589
2026-01-12 13:21:31.62	207.27	8.02	-32.8	-45.0	4.3	7.25e-01	0	42	104	0	27	14601
2026-01-12 13:21:34.63	207.58	8.24	-31.6	-37.3	13.3	6.09e-01	0	42	0	3670016	25	6907
2026-01-12 13:21:37.63	207.89	8.45	-30.6	-34.6	16.2	6.09e-01	0	42	0	8912896	23	5666
2026-01-12 13:21:40.64	208.22	8.68	-30.4	-34.3	16.7	6.04e-01	0	42	0	14680064	22	5623
2026-01-12 13:21:43.66	208.55	8.90	-31.2	-36.5	14.8	6.07e-01	0	42	0	20447232	23	6625
2026-01-12 13:21:46.67	208.88	9.13	-31.0	-35.8	15.3	6.09e-01	0	42	0	26214400	23	6216
2026-01-12 13:21:49.69	209.22	9.35	-30.4	-33.8	16.8	6.08e-01	0	42	0	31457280	23	5325
2026-01-12 13:21:52.69	209.56	9.58	-30.3	-33.8	17.1	6.08e-01	0	42	0	37224448	22	5410
2026-01-12 13:21:55.70	209.91	9.81	-29.7	-32.7	18.2	6.07e-01	0	42	0	42991616	21	5079
2026-01-12 13:21:58.71	210.27	10.04	-29.7	-32.6	18.3	6.07e-01	0	42	0	48758784	21	5020
2026-01-12 13:22:01.72	210.63	10.27	-29.6	-32.5	18.4	6.06e-01	0	42	0	54525952	21	4989
2026-01-12 13:22:04.74	210.99	10.51	-29.6	-32.3	18.6	6.06e-01	0	42	0	59768832	21	4921
2026-01-12 13:22:07.76	211.37	10.74	-29.5	-32.0	18.8	6.07e-01	0	42	0	65536000	21	4803
2026-01-12 13:22:10.78	211.75	10.98	-29.4	-31.9	18.9	6.06e-01	0	42	0	71303168	21	4763
2026-01-12 13:22:13.80	212.14	11.22	-29.4	-31.9	18.9	6.07e-01	0	42	0	77070336	21	4768
2026-01-12 13:22:16.81	212.53	11.46	-29.5	-32.0	18.8	6.07e-01	0	42	0	82837504	21	4805
2026-01-12 13:22:19.83	212.93	11.70	-29.5	-31.9	18.8	6.07e-01	0	42	0	88080384	21	4793
2026-01-12 13:22:22.85	213.34	11.94	-29.4	-32.3	19.0	6.06e-01	0	42	0	93847552	20	5019
2026-01-12 13:22:25.86	213.75	12.19	-29.5	-32.4	18.9	6.07e-01	0	42	0	99614720	20	5055
2026-01-12 13:22:28.88	214.18	12.43	-29.5	-32.5	18.9	6.08e-01	0	42	0	105381888	20	5078
2026-01-12 13:22:31.89	214.60	12.68	-29.4	-32.2	19.1	6.06e-01	0	42	0	110624768	20	4959
2026-01-12 13:22:34.90	215.04	12.93	-29.3	-31.9	19.3	6.07e-01	0	42	0	116391936	20	4871
2026-01-12 13:22:37.91	215.48	13.18	-29.3	-32.0	19.2	6.09e-01	0	42	0	122159104	20	4882
2026-01-12 13:22:40.92	215.94	13.43	-29.4	-32.2	19.1	6.04e-01	0	42	0	127926272	20	4963
2026-01-12 13:22:43.94	216.40	13.68	-29.3	-31.9	19.3	6.05e-01	0	42	0	133169152	20	4863
2026-01-12 13:22:46.96	216.87	13.94	-29.2	-31.5	19.5	6.07e-01	0	42	0	138936320	20	4739
2026-01-12 13:22:49.98	217.34	14.19	-29.3	-31.8	19.4	6.07e-01	0	42	0	144703488	20	4835
2026-01-12 13:22:53.00	217.83	14.45	-29.3	-31.9	19.4	6.08e-01	0	42	0	150470656	20	4854
2026-01-12 13:22:56.02	218.33	14.71	-29.3	-32.0	19.3	6.06e-01	0	42	0	156237824	20	4872
2026-01-12 13:22:59.04	218.83	14.97	-29.2	-31.7	19.5	6.06e-01	0	43	0	161480704	20	4782
2026-01-12 13:23:02.05	219.34	15.23	-29.2	-31.7	19.5	6.06e-01	0	42	0	167247872	20	4788
2026-01-12 13:23:05.07	219.87	15.49	-29.1	-31.5	19.7	6.05e-01	0	42	0	173015040	20	4699
2026-01-12 13:23:08.10	220.40	15.75	-29.4	-32.0	19.4	6.06e-01	0	42	0	178782208	20	4886
2026-01-12 13:23:11.12	220.94	16.02	-29.2	-31.6	19.6	6.08e-01	0	43	0	184549376	20	4753
2026-01-12 13:23:14.13	221.49	16.28	-29.3	-31.7	19.6	6.06e-01	0	42	0	189792256	20	4778
2026-01-12 13:23:17.16	222.06	16.55	-29.4	-32.1	19.3	6.07e-01	0	43	0	195559424	20	4922
2026-01-12 13:23:20.18	222.63	16.81	-29.3	-31.9	19.5	6.09e-01	0	42	0	201326592	20	4833
2026-01-12 13:23:23.19	223.21	17.08	-29.0	-31.1	19.9	6.05e-01	0	43	0	207093760	20	4589
2026-01-12 13:23:26.19	223.80	17.34	-29.1	-31.2	19.9	6.06e-01	0	43	0	212860928	20	4606
2026-01-12 13:23:29.21	224.41	17.61	-29.1	-31.3	19.9	6.04e-01	0	42	0	218103808	20	4642
2026-01-12 13:23:32.23	225.02	17.87	-29.2	-31.5	19.8	6.06e-01	0	42	0	223870976	20	4688
2026-01-12 13:23:35.24	225.65	18.14	-29.1	-31.4	19.9	6.06e-01	0	42	0	229638144	20	4659
2026-01-12 13:23:38.25	226.29	18.41	-29.4	-32.0	19.5	6.07e-01	0	42	0	235405312	20	4854
2026-01-12 13:23:41.25	226.93	18.67	-29.2	-31.4	19.8	6.06e-01	0	42	0	240648192	20	4676
2026-01-12 13:23:44.27	227.60	18.94	-29.0	-31.1	20.0	6.07e-01	0	42	0	246415360	20	4579
2026-01-12 13:23:47.29	228.27	19.20	-29.1	-31.3	19.9	6.07e-01	0	42	0	252182528	20	4638
2026-01-12 13:23:50.31	228.96	19.47	-29.1	-31.2	20.0	6.06e-01	0	42	0	257949696	20	4590
2026-01-12 13:23:53.33	229.66	19.73	-29.0	-31.0	20.1	6.07e-01	0	42	0	263716864	20	4550
2026-01-12 13:23:56.35	230.37	20.00	-29.0	-31.1	20.1	6.07e-01	0	42	0	269484032	20	4571
2026-01-12 13:23:59.37	231.09	20.26	-29.2	-31.4	19.9	6.08e-01	0	42	0	274726912	20	4673
2026-01-12 13:24:02.39	231.83	20.52	-29.1	-31.3	20.0	6.08e-01	0	42	0	280494080	20	4620
2026-01-12 13:24:05.41	232.58	20.78	-29.1	-31.3	20.0	6.07e-01	0	42	0	286261248	20	4633
2026-01-12 13:24:08.42	233.34	21.03	-29.3	-31.7	19.8	6.05e-01	0	42	0	292028416	20	4752
2026-01-12 13:24:11.44	234.11	21.29	-29.2	-31.5	19.9	6.09e-01	0	43	0	297271296	20	4690
2026-01-12 13:24:14.46	234.90	21.54	-29.4	-31.9	19.7	6.06e-01	0	42	0	303038464	20	4815
2026-01-12 13:24:17.48	235.71	21.79	-29.3	-31.7	19.8	6.05e-01	0	42	0	308805632	20	4755
2026-01-12 13:24:20.50	236.52	22.04	-29.3	-31.7	19.9	6.06e-01	0	42	0	314572800	20	4743
2026-01-12 13:24:23.51	237.35	22.28	-29.2	-31.5	19.9	6.07e-01	0	42	0	320339968	20	4682
2026-01-12 13:24:26.52	238.19	22.52	-29.4	-31.9	19.7	6.07e-01	0	43	0	325582848	20	4813
2026-01-12 13:24:29.55	239.05	22.76	-29.5	-32.2	19.5	6.07e-01	0	43	0	331350016	20	4920
2026-01-12 13:24:32.57	239.92	22.99	-29.5	-32.2	19.6	6.06e-01	0	42	0	337117184	20	4920
2026-01-12 13:24:35.59	240.80	23.22	-29.7	-32.8	19.2	6.05e-01	0	42	0	342884352	20	5112
2026-01-12 13:24:38.61	241.69	23.44	-29.3	-31.6	19.9	6.08e-01	0	42	0	348651520	20	4715
2026-01-12 13:24:41.63	242.60	23.66	-29.7	-32.6	19.3	6.08e-01	0	42	0	353894400	20	5058
2026-01-12 13:24:44.66	243.53	23.88	-29.4	-32.0	19.7	6.08e-01	0	42	0	359661568	20	4829
2026-01-12 13:24:47.68	244.46	24.08	-29.5	-32.0	19.7	6.07e-01	0	42	0	365428736	20	4850
2026-01-12 13:24:50.70	245.41	24.28	-29.4	-32.0	19.8	6.07e-01	0	42	0	371195904	20	4829
2026-01-12 13:24:53.71	246.36	24.48	-29.4	-32.0	19.7	6.05e-01	0	43	0	376963072	20	4833
2026-01-12 13:24:56.74	247.34	24.67	-29.4	-31.9	19.8	6.05e-01	0	43	0	382205952	20	4817
2026-01-12 13:24:59.76	248.32	24.85	-29.6	-32.3	19.6	6.06e-01	0	43	0	387973120	20	4930
2026-01-12 13:25:02.77	249.31	25.02	-29.5	-32.1	19.7	6.06e-01	0	43	0	393740288	20	4856
2026-01-12 13:25:05.79	250.31	25.19	-29.7	-32.7	19.4	6.05e-01	0	43	0	399507456	20	5067
2026-01-12 13:25:08.81	251.33	25.35	-29.6	-32.5	19.4	6.06e-01	0	43	0	405274624	20	5017
2026-01-12 13:25:11.83	252.36	25.50	-29.6	-32.3	19.6	6.05e-01	0	43	0	410517504	20	4949
2026-01-12 13:25:14.85	253.39	25.64	-29.3	-31.7	20.0	6.07e-01	0	42	0	416284672	20	4721
2026-01-12 13:25:17.87	254.44	25.78	-29.4	-31.9	19.8	6.07e-01	0	43	0	422051840	20	4794
2026-01-12 13:25:20.89	255.49	25.90	-29.5	-32.2	19.7	6.05e-01	0	43	0	427819008	20	4889
2026-01-12 13:25:23.89	256.54	26.02	-29.4	-32.0	19.8	6.06e-01	0	43	0	433586176	20	4817
2026-01-12 13:25:26.91	257.61	26.12	-29.4	-32.0	19.8	6.07e-01	0	43	0	438829056	20	4836
2026-01-12 13:25:29.93	258.69	26.22	-29.4	-31.9	19.8	6.07e-01	0	43	0	444596224	20	4793
2026-01-12 13:25:32.95	259.77	26.30	-29.5	-32.0	19.8	6.07e-01	0	43	0	450363392	20	4844
2026-01-12 13:25:35.97	260.86	26.38	-29.5	-32.3	19.6	6.06e-01	0	43	0	456130560	20	4933
2026-01-12 13:25:38.98	261.94	26.44	-29.6	-32.4	19.6	6.07e-01	0	43	0	461897728	20	4953
2026-01-12 13:25:42.00	263.04	26.50	-29.5	-32.0	19.8	6.05e-01	0	43	0	467140608	20	4836
2026-01-12 13:25:45.02	264.14	26.54	-29.6	-32.5	19.5	6.08e-01	0	43	0	472907776	20	4996
2026-01-12 13:25:48.04	265.24	26.57	-29.5	-32.1	19.8	6.06e-01	0	43	0	478674944	20	4855
2026-01-12 13:25:51.06	266.35	26.60	-29.8	-32.8	19.3	6.07e-01	0	43	0	484442112	20	5120
2026-01-12 13:25:54.08	267.45	26.61	-29.5	-32.0	19.8	6.07e-01	0	43	0	490209280	20	4842
2026-01-12 13:25:57.09	268.55	26.61	-29.5	-32.3	19.6	6.08e-01	0	43	0	495452160	20	4921
2026-01-12 13:26:00.11	269.66	26.60	-29.4	-31.8	20.0	6.06e-01	0	43	0	501219328	20	4754
2026-01-12 13:26:03.12	270.76	26.58	-29.3	-31.7	19.9	6.06e-01	0	43	0	506986496	20	4744
2026-01-12 13:26:06.13	271.86	26.55	-29.4	-31.8	19.9	6.03e-01	0	43	0	512753664	20	4755
2026-01-12 13:26:09.14	272.95	26.50	-29.3	-31.5	20.1	6.07e-01	0	42	0	517996544	20	4668
2026-01-12 13:26:12.16	274.05	26.45	-29.4	-31.8	19.9	6.08e-01	0	43	0	523763712	20	4750
2026-01-12 13:26:15.17	275.14	26.39	-29.4	-31.8	19.9	6.08e-01	0	43	0	529530880	20	4764
2026-01-12 13:26:18.19	276.22	26.31	-29.6	-32.4	19.5	6.07e-01	0	43	0	535298048	20	4981
2026-01-12 13:26:21.21	277.30	26.23	-29.6	-32.3	19.6	6.06e-01	0	43	0	541065216	20	4939
2026-01-12 13:26:24.22	278.38	26.13	-29.5	-32.1	19.7	6.09e-01	0	43	0	546308096	20	4851
2026-01-12 13:26:27.24	279.44	26.03	-29.4	-31.9	19.8	6.06e-01	0	43	0	552075264	20	4786
2026-01-12 13:26:30.24	280.50	25.92	-29.3	-31.6	20.0	6.07e-01	0	43	0	557842432	20	4691
2026-01-12 13:26:33.26	281.55	25.79	-29.4	-32.0	19.8	6.08e-01	0	43	0	563609600	20	4823
2026-01-12 13:26:36.27	282.59	25.66	-29.5	-32.0	19.7	6.06e-01	0	43	0	568852480	20	4844
2026-01-12 13:26:39.30	283.63	25.52	-29.4	-32.0	19.8	6.07e-01	0	42	0	574619648	20	4819
2026-01-12 13:26:42.31	284.65	25.37	-29.3	-31.6	20.0	6.08e-01	0	43	0	580386816	20	4680
2026-01-12 13:26:45.33	285.66	25.22	-29.2	-31.4	20.1	6.07e-01	0	42	0	586153984	20	4636
2026-01-12 13:26:48.35	286.66	25.05	-29.5	-32.2	19.6	6.06e-01	0	43	0	591921152	20	4893
2026-01-12 13:26:51.37	287.66	24.88	-29.7	-32.6	19.4	6.08e-01	0	43	0	597164032	20	5056
2026-01-12 13:26:54.38	288.63	24.70	-29.9	-33.3	19.0	6.06e-01	0	42	0	602931200	20	5299
2026-01-12 13:26:57.40	289.60	24.51	-29.4	-32.0	19.8	6.06e-01	0	43	0	608698368	20	4826
2026-01-12 13:27:00.41	290.56	24.32	-29.3	-31.6	20.0	6.06e-01	0	43	0	614465536	20	4706
2026-01-12 13:27:03.43	291.50	24.12	-29.4	-31.9	19.8	6.06e-01	0	42	0	620232704	20	4784
2026-01-12 13:27:06.45	292.43	23.91	-29.4	-31.8	19.8	6.05e-01	0	43	0	625475584	20	4777
2026-01-12 13:27:09.46	293.35	23.70	-29.3	-31.5	20.0	6.07e-01	0	43	0	631242752	20	4675
2026-01-12 13:27:12.48	294.26	23.49	-29.4	-31.8	19.9	6.06e-01	0	43	0	637009920	20	4772
2026-01-12 13:27:15.50	295.15	23.26	-29.4	-31.8	19.9	6.05e-01	0	43	0	642777088	20	4753
2026-01-12 13:27:18.51	296.03	23.04	-29.4	-31.8	19.9	6.04e-01	0	43	0	648544256	20	4754
2026-01-12 13:27:21.53	296.90	22.81	-29.5	-32.3	19.5	6.06e-01	0	43	0	653787136	20	4940
2026-01-12 13:27:24.55	297.75	22.57	-29.4	-32.0	19.8	6.07e-01	0	43	0	659554304	20	4821
2026-01-12 13:27:27.57	298.59	22.34	-29.4	-31.9	19.8	6.06e-01	0	43	0	665321472	20	4791
2026-01-12 13:27:30.58	299.42	22.10	-29.4	-31.9	19.8	6.06e-01	0	43	0	671088640	20	4787
2026-01-12 13:27:33.60	300.23	21.85	-29.3	-31.6	19.9	6.06e-01	0	43	0	676331520	20	4716
2026-01-12 13:27:36.61	301.03	21.60	-29.3	-31.6	19.9	6.06e-01	0	42	0	682098688	20	4697
2026-01-12 13:27:39.63	301.82	21.35	-29.3	-31.7	19.8	6.07e-01	0	43	0	687865856	20	4751
2026-01-12 13:27:42.64	302.59	21.10	-29.2	-31.4	20.0	6.05e-01	0	43	0	693633024	20	4651
2026-01-12 13:27:45.65	303.35	20.85	-29.4	-31.9	19.7	6.07e-01	0	42	0	698875904	20	4801
2026-01-12 13:27:48.67	304.10	20.59	-29.3	-31.8	19.8	6.06e-01	0	43	0	704643072	20	4765
2026-01-12 13:27:51.69	304.83	20.33	-29.2	-31.5	19.9	6.08e-01	0	43	0	710410240	20	4678
2026-01-12 13:27:54.70	305.55	20.07	-29.3	-31.8	19.8	6.07e-01	0	43	0	716177408	20	4767
2026-01-12 13:27:57.71	306.26	19.81	-29.3	-31.7	19.8	6.06e-01	0	42	0	721944576	20	4732
2026-01-12 13:28:00.72	306.96	19.55	-29.3	-31.6	19.9	6.06e-01	0	42	0	727187456	20	4698
2026-01-12 13:28:03.73	307.64	19.29	-29.2	-31.5	19.9	6.05e-01	0	43	0	732954624	20	4673
2026-01-12 13:28:06.76	308.32	19.03	-29.2	-31.4	20.0	6.03e-01	0	43	0	738721792	20	4655
2026-01-12 13:28:09.78	308.98	18.76	-29.4	-31.8	19.7	6.05e-01	0	42	0	744488960	20	4788
2026-01-12 13:28:12.80	309.63	18.50	-29.2	-31.4	20.0	6.07e-01	0	42	0	750256128	20	4654
2026-01-12 13:28:15.81	310.26	18.23	-29.2	-31.4	20.0	6.09e-01	0	42	0	755499008	20	4650
2026-01-12 13:28:18.84	310.89	17.97	-29.1	-31.1	20.1	6.05e-01	0	43	0	761266176	20	4559
2026-01-12 13:28:21.85	311.51	17.70	-29.1	-31.3	20.0	6.06e-01	0	43	0	767033344	20	4627
2026-01-12 13:28:24.88	312.11	17.44	-29.1	-31.3	20.0	6.05e-01	0	42	0	772800512	20	4607
2026-01-12 13:28:27.90	312.71	17.17	-29.0	-31.1	20.1	6.05e-01	0	42	0	778567680	20	4561
2026-01-12 13:28:30.91	313.29	16.91	-29.1	-31.2	20.0	6.03e-01	0	42	0	783810560	20	4579
2026-01-12 13:28:33.93	313.86	16.65	-29.2	-31.5	19.8	6.03e-01	0	42	0	789577728	20	4679
2026-01-12 13:28:36.95	314.42	16.39	-29.2	-31.5	19.8	6.02e-01	0	42	0	795344896	20	4699
2026-01-12 13:28:39.96	314.97	16.12	-29.2	-31.4	19.8	6.01e-01	0	42	0	801112064	20	4677
2026-01-12 13:28:42.97	315.51	15.86	-29.3	-31.7	19.7	6.04e-01	0	42	0	806879232	20	4752
2026-01-12 13:28:45.99	316.05	15.60	-29.4	-32.0	19.5	6.03e-01	0	42	0	812122112	20	4852
2026-01-12 13:28:49.01	316.57	15.34	-29.2	-31.7	19.6	6.05e-01	0	42	0	817889280	20	4759
2026-01-12 13:28:52.03	317.08	15.09	-29.2	-31.5	19.7	6.05e-01	0	42	0	823656448	20	4703
2026-01-12 13:28:55.05	317.59	14.83	-29.2	-31.4	19.7	6.05e-01	0	42	0	829423616	20	4682
2026-01-12 13:28:58.07	318.08	14.57	-29.1	-31.4	19.8	6.05e-01	0	42	0	835190784	20	4658
2026-01-12 13:29:01.08	318.57	14.32	-29.2	-31.6	19.6	6.03e-01	0	43	0	840433664	20	4731
2026-01-12 13:29:04.10	319.05	14.06	-29.2	-31.6	19.6	6.01e-01	0	42	0	846200832	20	4727
2026-01-12 13:29:07.12	319.52	13.81	-29.3	-31.9	19.4	6.03e-01	0	42	0	851968000	20	4848
2026-01-12 13:29:10.15	319.98	13.56	-29.2	-31.5	19.6	6.05e-01	0	42	0	857735168	20	4713
2026-01-12 13:29:13.17	320.43	13.31	-29.4	-32.1	19.2	6.03e-01	0	42	0	863502336	20	4927
2026-01-12 13:29:16.19	320.88	13.06	-29.5	-32.3	19.1	6.06e-01	0	42	0	868745216	20	5002
2026-01-12 13:29:19.21	321.32	12.81	-29.5	-32.4	19.0	6.02e-01	0	42	0	874512384	20	5032
2026-01-12 13:29:22.23	321.75	12.57	-29.6	-32.6	18.9	6.04e-01	0	42	0	880279552	20	5116
2026-01-12 13:29:25.25	322.17	12.32	-29.4	-32.2	19.1	6.03e-01	0	42	0	886046720	20	4954
2026-01-12 13:29:28.27	322.59	12.08	-29.4	-32.2	19.1	6.04e-01	0	43	0	891813888	20	4967
2026-01-12 13:29:31.29	322.99	11.84	-29.4	-32.3	19.0	6.03e-01	0	42	0	897056768	20	4977
2026-01-12 13:29:34.31	323.40	11.60	-29.5	-32.4	18.9	6.03e-01	0	42	0	902823936	20	5039
2026-01-12 13:29:37.33	323.79	11.36	-29.6	-32.6	18.9	6.02e-01	0	42	0	908591104	20	5104
2026-01-12 13:29:40.35	324.18	11.12	-29.8	-33.1	18.6	6.06e-01	0	42	0	914358272	20	5288
2026-01-12 13:29:43.36	324.56	10.89	-29.8	-33.1	18.5	6.03e-01	0	42	0	920125440	20	5302
2026-01-12 13:29:46.38	324.94	10.65	-29.7	-33.0	18.6	6.03e-01	0	42	0	925368320	20	5241
2026-01-12 13:29:49.40	325.31	10.42	-29.8	-33.3	18.4	6.03e-01	0	42	0	931135488	20	5371
2026-01-12 13:29:52.41	325.67	10.19	-29.6	-32.8	18.6	6.03e-01	0	42	0	936902656	20	5202
2026-01-12 13:29:55.42	326.02	9.96	-29.7	-32.9	18.6	6.01e-01	0	42	0	942669824	20	5237
2026-01-12 13:29:58.43	326.37	9.73	-29.6	-32.7	18.7	6.02e-01	0	42	0	947912704	20	5144
2026-01-12 13:30:01.45	326.72	9.50	-29.7	-33.1	18.4	6.00e-01	0	42	0	953679872	20	5298
2026-01-12 13:30:04.47	327.06	9.28	-29.8	-33.3	18.3	6.02e-01	0	42	0	959447040	20	5372
2026-01-12 13:30:07.48	327.39	9.06	-29.8	-33.3	18.2	6.05e-01	0	43	0	965214208	20	5389
2026-01-12 13:30:10.49	327.72	8.83	-29.9	-33.7	18.0	6.05e-01	0	42	0	970457088	20	5542
2026-01-12 13:30:13.50	328.05	8.61	-30.0	-33.9	17.8	6.05e-01	0	42	0	976224256	20	5663
2026-01-12 13:30:16.53	328.37	8.39	-30.1	-33.8	17.5	6.06e-01	0	42	0	981991424	21	5528
2026-01-12 13:30:19.55	328.68	8.18	-30.1	-33.9	17.3	6.01e-01	0	42	0	987758592	21	5568
2026-01-12 13:30:22.57	328.99	7.96	-30.0	-33.6	17.6	6.01e-01	0	42	0	993525760	21	5429
2026-01-12 13:30:25.59	329.30	7.74	-30.0	-33.6	17.6	6.04e-01	0	42	0	998768640	21	5431
2026-01-12 13:30:28.60	329.60	7.53	-30.0	-33.6	17.4	6.03e-01	0	42	0	1004535808	21	5469
2026-01-12 13:30:31.62	329.89	7.32	-30.2	-34.3	17.0	6.05e-01	0	42	0	1010302976	21	5747
2026-01-12 13:30:34.64	330.19	7.11	-30.4	-34.8	16.7	6.06e-01	0	42	0	1016070144	21	5970
2026-01-12 13:30:37.66	330.47	6.90	-33.6	-52.8	3.8	7.48e-01	0	42	104	1017643008	28	32689

#Closed at: 2026-01-12 13:30:38
#Recorded file [1017 MB]: D:/data/31010_260112_162132.dat