passes_logs/2026/01/15/PlanumMoscow/PlanumMoscow__20260115_081646_METOP-C_rec.log

#Pass ID: 20260115_081646_METOP-C
#Satellite: METOP-C
#Configuration: METOP-C
#Start time: 2026-01-15 08:16:51.236156

#LorettStation: 1.0.0 05.05.2024
#Station: PlanumMoscow
#Location: 37.6253844 lon 55.6713361 lat
#TLE: 1 43689U 18087A   25293.88981035  .00000265  00000+0  14109-3 0  9997
#TLE: 2 43689  98.7006 352.4487 0002041 122.1097 238.0279 14.21482740360838

#Time	Az	El	Level	SNR
2026-01-15 08:20:29.666729	0.8	28.1	-60.6	0.0
2026-01-15 08:20:31.911741	0.5	28.5	-61.6	0.0
2026-01-15 08:20:34.157770	0.2	28.9	-62.0	0.0
2026-01-15 08:20:36.402286	359.9	29.2	-60.9	0.0
2026-01-15 08:20:38.645804	359.6	29.6	-62.4	0.0
2026-01-15 08:20:40.889824	359.3	30.0	-62.0	0.0
2026-01-15 08:20:43.135350	359.0	30.4	-61.9	0.0
2026-01-15 08:20:45.379362	358.7	30.8	-61.1	0.0
2026-01-15 08:20:47.622381	358.3	31.2	-61.5	0.0
2026-01-15 08:20:49.866393	358.0	31.6	-62.6	0.0
2026-01-15 08:20:52.115414	357.6	32.0	-61.6	0.0
2026-01-15 08:20:54.359930	357.3	32.4	-62.6	0.0
2026-01-15 08:20:56.603941	356.9	32.9	-61.8	0.0
2026-01-15 08:20:58.851964	356.5	33.3	-62.2	0.0
2026-01-15 08:21:01.095975	356.1	33.7	-63.6	0.0
2026-01-15 08:21:03.340491	355.7	34.2	-63.9	0.0
2026-01-15 08:21:05.584516	355.3	34.6	-62.7	0.0
2026-01-15 08:21:07.827041	354.9	35.0	-63.2	0.0
2026-01-15 08:21:10.070557	354.5	35.5	-63.3	0.0
2026-01-15 08:21:12.313578	354.0	36.0	-63.6	0.0
2026-01-15 08:21:14.557598	353.5	36.4	-64.9	0.0
2026-01-15 08:21:16.805611	353.1	36.9	-64.8	0.0
2026-01-15 08:21:19.049623	352.6	37.3	-63.9	0.0
2026-01-15 08:21:21.293633	352.1	37.8	-64.2	0.0
2026-01-15 08:21:23.537645	351.6	38.3	-64.0	0.0
2026-01-15 08:21:25.782151	351.0	38.8	-63.7	0.0
2026-01-15 08:21:28.026658	350.5	39.2	-63.6	0.0
2026-01-15 08:21:30.272670	349.9	39.7	-64.7	0.0
2026-01-15 08:21:32.516681	349.3	40.2	-64.8	0.0
2026-01-15 08:21:34.759204	348.7	40.7	-65.6	0.0
2026-01-15 08:21:37.002720	348.1	41.2	-65.9	0.0
2026-01-15 08:21:39.245753	347.5	41.7	-66.3	0.0
2026-01-15 08:21:41.488276	346.8	42.2	-66.0	0.0
2026-01-15 08:21:43.732287	346.1	42.7	-65.3	0.0
2026-01-15 08:21:45.976299	345.4	43.2	-66.5	0.0
2026-01-15 08:21:48.220310	344.7	43.7	-65.9	0.0
2026-01-15 08:21:50.465827	343.9	44.2	-66.2	0.0
2026-01-15 08:21:52.713345	343.1	44.8	-66.6	0.0
2026-01-15 08:21:54.956366	342.3	45.3	-67.1	0.0
2026-01-15 08:21:57.201389	341.5	45.8	-67.5	0.0
2026-01-15 08:21:59.444903	340.6	46.3	-66.6	0.0
2026-01-15 08:22:01.687932	339.8	46.8	-67.0	0.0
2026-01-15 08:22:03.931951	338.8	47.3	-66.9	0.0
2026-01-15 08:22:06.175475	337.9	47.8	-67.8	0.0
2026-01-15 08:22:08.418494	336.9	48.3	-67.5	0.0
2026-01-15 08:22:10.661522	335.9	48.8	-68.1	0.0
2026-01-15 08:22:12.905038	334.9	49.3	-67.4	0.0
2026-01-15 08:22:15.148058	333.8	49.8	-68.0	0.0
2026-01-15 08:22:17.390087	332.7	50.3	-67.6	0.0
2026-01-15 08:22:19.633603	331.5	50.8	-67.2	0.0
2026-01-15 08:22:21.876622	330.3	51.2	-67.7	0.0
2026-01-15 08:22:24.119147	329.1	51.7	-68.3	0.0
2026-01-15 08:22:26.362663	327.8	52.2	-68.4	0.0
2026-01-15 08:22:28.606684	326.5	52.6	-68.1	0.0
2026-01-15 08:22:30.850695	325.2	53.0	-66.7	0.0
2026-01-15 08:22:33.094210	323.8	53.4	-66.9	0.0
2026-01-15 08:22:35.338716	322.4	53.8	-66.9	0.0
2026-01-15 08:22:37.582729	320.9	54.2	-67.8	0.0
2026-01-15 08:22:39.825263	319.4	54.6	-66.4	0.0
2026-01-15 08:22:42.069779	317.9	54.9	-67.2	0.0
2026-01-15 08:22:44.313790	316.3	55.3	-66.8	0.0
2026-01-15 08:22:46.558803	314.7	55.6	-66.6	0.0
2026-01-15 08:22:48.801823	313.0	55.9	-65.5	0.0
2026-01-15 08:22:51.045834	311.4	56.2	-66.9	0.0
2026-01-15 08:22:53.289845	309.6	56.4	-65.7	0.0
2026-01-15 08:22:55.533361	307.9	56.6	-65.9	0.0
2026-01-15 08:22:57.775398	306.1	56.8	-66.3	0.0
2026-01-15 08:23:00.019409	304.3	57.0	-65.5	0.0
2026-01-15 08:23:02.261438	302.5	57.1	-66.1	0.0
2026-01-15 08:23:04.505945	300.7	57.3	-64.6	0.0
2026-01-15 08:23:06.749956	298.8	57.3	-65.2	0.0
2026-01-15 08:23:08.994472	297.0	57.4	-62.9	0.0
2026-01-15 08:23:11.237989	295.1	57.4	-63.0	0.0
2026-01-15 08:23:13.481009	293.2	57.4	-66.2	0.0
2026-01-15 08:23:15.727516	291.4	57.4	-65.1	0.0
2026-01-15 08:23:17.971528	289.5	57.3	-63.7	0.0
2026-01-15 08:23:20.215043	287.7	57.3	-65.4	0.0
2026-01-15 08:23:22.459550	285.8	57.2	-65.6	0.0
2026-01-15 08:23:24.702075	284.0	57.0	-63.6	0.0
2026-01-15 08:23:26.946087	282.2	56.8	-64.9	0.0
2026-01-15 08:23:29.190099	280.4	56.6	-66.1	0.0
2026-01-15 08:23:31.433615	278.7	56.4	-65.5	0.0
2026-01-15 08:23:33.680131	277.0	56.2	-65.8	0.0
2026-01-15 08:23:35.923646	275.3	55.9	-65.8	0.0
2026-01-15 08:23:38.167658	273.6	55.6	-65.0	0.0
2026-01-15 08:23:40.415681	272.0	55.3	-64.1	0.0
2026-01-15 08:23:42.659197	270.4	55.0	-64.7	0.0
2026-01-15 08:23:44.903208	268.9	54.6	-66.6	0.0
2026-01-15 08:23:47.147714	267.3	54.3	-64.9	0.0
2026-01-15 08:23:49.392230	265.9	53.9	-65.7	0.0
2026-01-15 08:23:51.635745	264.4	53.5	-64.2	0.0
2026-01-15 08:23:53.879260	263.1	53.1	-65.0	0.0
2026-01-15 08:23:56.122775	261.7	52.6	-64.3	0.0
2026-01-15 08:23:58.366292	260.4	52.2	-63.6	0.0
2026-01-15 08:24:00.611304	259.1	51.7	-63.1	0.0
2026-01-15 08:24:02.854820	257.9	51.3	-64.1	0.0
2026-01-15 08:24:05.097345	256.7	50.8	-62.8	0.0
2026-01-15 08:24:07.341861	255.5	50.3	-64.3	0.0
2026-01-15 08:24:09.585376	254.4	49.8	-63.7	0.0
2026-01-15 08:24:11.828396	253.3	49.4	-62.8	0.0
2026-01-15 08:24:14.076408	252.3	48.9	-63.6	0.0
2026-01-15 08:24:16.320419	251.3	48.4	-62.4	0.0
2026-01-15 08:24:18.563934	250.3	47.8	-62.3	0.0
2026-01-15 08:24:20.807946	249.3	47.3	-63.1	0.0
2026-01-15 08:24:23.056463	248.4	46.8	-62.8	0.0
2026-01-15 08:24:25.300970	247.5	46.3	-63.2	0.0
2026-01-15 08:24:27.542502	246.6	45.8	-64.0	0.0
2026-01-15 08:24:29.786514	245.8	45.3	-61.9	0.0
2026-01-15 08:24:32.032038	245.0	44.8	-62.2	0.0
2026-01-15 08:24:34.275554	244.2	44.3	-63.5	0.0
2026-01-15 08:24:36.518583	243.5	43.7	-62.7	0.0
2026-01-15 08:24:38.761603	242.7	43.2	-62.1	0.0
2026-01-15 08:24:41.006614	242.0	42.7	-62.5	0.0
2026-01-15 08:24:43.249651	241.3	42.2	-62.1	0.0
2026-01-15 08:24:45.493671	240.7	41.7	-61.8	0.0
2026-01-15 08:24:47.735207	240.0	41.2	-63.4	0.0
2026-01-15 08:24:49.978722	239.4	40.7	-63.0	0.0
2026-01-15 08:24:52.223734	238.8	40.2	-63.4	0.0
2026-01-15 08:24:54.467745	238.2	39.7	-61.4	0.0
2026-01-15 08:24:56.711260	237.6	39.2	-62.0	0.0
2026-01-15 08:24:58.955272	237.1	38.7	-61.9	0.0
2026-01-15 08:25:01.198788	236.5	38.3	-62.5	0.0
2026-01-15 08:25:03.443800	236.0	37.8	-62.1	0.0
2026-01-15 08:25:05.687315	235.5	37.3	-62.0	0.0
2026-01-15 08:25:07.931822	235.0	36.8	-62.2	0.0
2026-01-15 08:25:10.175339	234.5	36.4	-62.0	0.0
2026-01-15 08:25:12.419846	234.1	35.9	-63.7	0.0
2026-01-15 08:25:14.663361	233.6	35.5	-62.8	0.0
2026-01-15 08:25:16.905885	233.2	35.0	-60.7	0.0
2026-01-15 08:25:19.149400	232.7	34.6	-60.7	0.0
2026-01-15 08:25:21.392915	232.3	34.1	-61.0	0.0
2026-01-15 08:25:23.636926	231.9	33.7	-62.0	0.0
2026-01-15 08:25:25.880442	231.5	33.2	-62.2	0.0
2026-01-15 08:25:28.124949	231.1	32.8	-61.8	0.0
2026-01-15 08:25:30.367474	230.8	32.4	-61.5	0.0
2026-01-15 08:25:32.611486	230.4	32.0	-61.2	0.0
2026-01-15 08:25:34.854506	230.0	31.6	-60.8	0.0
2026-01-15 08:25:37.098023	229.7	31.1	-61.9	0.0
2026-01-15 08:25:39.341538	229.4	30.7	-60.5	0.0
2026-01-15 08:25:41.585550	229.0	30.3	-60.9	0.0
2026-01-15 08:25:43.829066	228.7	29.9	-60.4	0.0
2026-01-15 08:25:46.072581	228.4	29.6	-61.0	0.0
2026-01-15 08:25:48.315106	228.1	29.2	-61.1	0.0
2026-01-15 08:25:50.558628	227.8	28.8	-61.0	0.0
2026-01-15 08:25:52.801649	227.5	28.4	-61.1	0.0
2026-01-15 08:25:55.045165	227.2	28.0	-60.3	0.0
2026-01-15 08:25:57.289672	227.0	27.7	-59.9	0.0
2026-01-15 08:25:59.532196	226.7	27.3	-61.1	0.0
2026-01-15 08:26:01.775215	226.4	26.9	-59.7	0.0
2026-01-15 08:26:04.019227	226.2	26.6	-59.8	0.0
2026-01-15 08:26:06.263246	225.9	26.2	-59.4	0.0
2026-01-15 08:26:08.507753	225.7	25.9	-61.5	0.0
2026-01-15 08:26:10.751764	225.4	25.5	-61.3	0.0
2026-01-15 08:26:12.993793	225.2	25.2	-60.1	0.0
2026-01-15 08:26:15.237308	225.0	24.8	-59.9	0.0
2026-01-15 08:26:17.480825	224.7	24.5	-59.6	0.0
2026-01-15 08:26:19.723349	224.5	24.2	-60.4	0.0
2026-01-15 08:26:21.967359	224.3	23.8	-60.3	0.0
2026-01-15 08:26:24.210378	224.1	23.5	-61.3	0.0
2026-01-15 08:26:26.454390	223.9	23.2	-61.2	0.0
2026-01-15 08:26:28.701907	223.7	22.9	-60.5	0.0
2026-01-15 08:26:30.945422	223.5	22.6	-61.9	0.0
2026-01-15 08:26:33.188453	223.3	22.3	-61.1	0.0
2026-01-15 08:26:35.431967	223.1	22.0	-59.8	0.0
2026-01-15 08:26:37.675979	222.9	21.6	-61.8	0.0
2026-01-15 08:26:39.920990	222.7	21.3	-60.8	0.0
2026-01-15 08:26:42.165497	222.5	21.1	-61.2	0.0
2026-01-15 08:26:44.408517	222.4	20.8	-60.7	0.0
2026-01-15 08:26:46.652033	222.2	20.5	-59.0	0.0
2026-01-15 08:26:48.895549	222.0	20.2	-59.2	0.0
2026-01-15 08:26:51.139569	221.9	19.9	-60.9	0.0
2026-01-15 08:26:53.381103	221.7	19.6	-58.5	0.0
2026-01-15 08:26:55.623131	221.5	19.3	-62.7	0.0
2026-01-15 08:26:57.869144	221.4	19.1	-62.7	0.6
2026-01-15 08:27:00.113156	221.2	18.8	-62.4	3.5
2026-01-15 08:27:02.357166	221.1	18.5	-61.7	0.9
2026-01-15 08:27:04.599690	220.9	18.3	-62.3	1.9
2026-01-15 08:27:06.845198	220.8	18.0	-63.2	4.7
2026-01-15 08:27:09.088713	220.6	17.7	-63.0	3.2
2026-01-15 08:27:11.333228	220.5	17.5	-63.5	4.1
2026-01-15 08:27:13.577744	220.4	17.2	-63.5	3.5
2026-01-15 08:27:15.821259	220.2	17.0	-61.7	0.0
2026-01-15 08:27:18.064278	220.1	16.7	-61.8	1.8
2026-01-15 08:27:20.308289	220.0	16.5	-63.9	5.6
2026-01-15 08:27:22.551804	219.8	16.2	-63.7	4.4
2026-01-15 08:27:24.795327	219.7	16.0	-63.6	5.4
2026-01-15 08:27:27.038844	219.6	15.7	-64.0	4.9
2026-01-15 08:27:29.282359	219.5	15.5	-63.8	4.2
2026-01-15 08:27:31.526875	219.3	15.2	-63.3	3.9
2026-01-15 08:27:33.770886	219.2	15.0	-64.4	5.1
2026-01-15 08:27:36.013906	219.1	14.8	-63.8	5.6
2026-01-15 08:27:38.257421	219.0	14.5	-64.0	6.0
2026-01-15 08:27:40.501432	218.9	14.3	-64.2	3.1
2026-01-15 08:27:42.744451	218.8	14.1	-64.0	5.5
2026-01-15 08:27:44.987968	218.7	13.9	-64.0	2.4
2026-01-15 08:27:47.231980	218.5	13.6	-63.8	4.0
2026-01-15 08:27:49.475991	218.4	13.4	-62.7	6.0
2026-01-15 08:27:51.720002	218.3	13.2	-63.7	6.6
2026-01-15 08:27:53.965520	218.2	13.0	-63.6	4.5
2026-01-15 08:27:56.209531	218.1	12.8	-63.4	4.1
2026-01-15 08:27:58.453543	218.0	12.6	-64.0	5.8
2026-01-15 08:28:00.696564	217.9	12.3	-63.7	5.6
2026-01-15 08:28:02.938096	217.8	12.1	-64.3	5.3
2026-01-15 08:28:05.182107	217.7	11.9	-64.2	6.0
2026-01-15 08:28:07.426624	217.7	11.7	-64.4	5.8
2026-01-15 08:28:09.669644	217.6	11.5	-63.9	4.4
2026-01-15 08:28:11.915174	217.5	11.3	-63.8	6.0
2026-01-15 08:28:14.158689	217.4	11.1	-62.9	0.0
2026-01-15 08:28:16.401710	217.3	10.9	-63.8	4.1
2026-01-15 08:28:18.650723	217.2	10.7	-63.9	4.7
2026-01-15 08:28:20.894735	217.1	10.5	-63.8	4.3
2026-01-15 08:28:23.138745	217.0	10.3	-64.3	3.1
2026-01-15 08:28:25.382261	217.0	10.1	-63.7	5.1
2026-01-15 08:28:27.625785	216.9	9.9	-64.3	6.0
2026-01-15 08:28:29.869309	216.8	9.7	-64.6	6.2
2026-01-15 08:28:32.111833	216.7	9.5	-64.5	5.0
2026-01-15 08:28:34.355349	216.6	9.4	-64.5	3.9
2026-01-15 08:28:36.599369	216.6	9.2	-64.5	5.1
2026-01-15 08:28:38.842884	216.5	9.0	-64.5	3.9
2026-01-15 08:28:41.086895	216.4	8.8	-65.3	5.7
2026-01-15 08:28:43.330906	216.3	8.6	-63.8	3.2
2026-01-15 08:28:45.572933	216.3	8.4	-64.7	6.3
2026-01-15 08:28:47.816954	216.2	8.3	-64.9	5.4
2026-01-15 08:28:50.060974	216.1	8.1	-65.1	5.9
2026-01-15 08:28:52.305480	216.0	7.9	-65.0	6.0
2026-01-15 08:28:54.549492	216.0	7.7	-65.4	5.2
2026-01-15 08:28:56.792520	215.9	7.5	-65.1	5.2
2026-01-15 08:28:59.034548	215.8	7.4	-65.0	6.7
2026-01-15 08:29:01.277073	215.8	7.2	-65.0	5.8
2026-01-15 08:29:03.519111	215.7	7.0	-65.3	5.5
2026-01-15 08:29:05.762138	215.6	6.8	-65.3	4.9
2026-01-15 08:29:08.004661	215.6	6.7	-65.2	4.6
2026-01-15 08:29:10.248185	215.5	6.5	-64.3	6.1
2026-01-15 08:29:12.490213	215.4	6.3	-64.9	4.8
2026-01-15 08:29:14.734739	215.4	6.2	-65.1	3.5
2026-01-15 08:29:16.978254	215.3	6.0	-64.6	4.4
2026-01-15 08:29:19.221770	215.3	5.8	-62.5	0.0
2026-01-15 08:29:21.466790	215.2	5.7	-64.7	0.0
2026-01-15 08:29:23.712316	215.1	5.5	-67.6	0.0
2026-01-15 08:29:25.956328	215.1	5.4	-69.4	0.0
2026-01-15 08:29:28.198356	215.0	5.2	-70.8	0.0
2026-01-15 08:29:30.446367	215.0	5.0	-69.1	0.0
#Closed at: 2026-01-15 08:16:46.237994