passes_logs/2026/01/15/PlanumMoscow/PlanumMoscow__20260115_183634_METEOR-M2_3_rec.log

#Pass ID: 20260115_183634_METEOR-M2 3
#Satellite: METEOR-M2 3
#Configuration: METEOR-M2 3
#Start time: 2026-01-15 18:36:39.681773

#LorettStation: 1.0.0 05.05.2024
#Station: PlanumMoscow
#Location: 37.6253844 lon 55.6713361 lat
#TLE: 1 57166U 23091A   25293.99389264  .00000062  00000+0  46113-4 0  9997
#TLE: 2 57166  98.6457 348.4330 0004759 135.3141 224.8422 14.24016546120475

#Time	Az	El	Level	SNR
2026-01-15 18:40:18.112531	209.9	25.7	-59.7	7.8
2026-01-15 18:40:20.352571	210.3	26.0	-61.6	9.8
2026-01-15 18:40:22.591132	210.7	26.3	-63.4	8.9
2026-01-15 18:40:24.832638	211.2	26.6	-63.8	9.6
2026-01-15 18:40:27.070191	211.6	26.9	-63.0	9.3
2026-01-15 18:40:29.309706	212.1	27.2	-63.5	8.0
2026-01-15 18:40:31.554213	212.6	27.5	-63.4	10.4
2026-01-15 18:40:33.798719	213.0	27.8	-63.8	8.9
2026-01-15 18:40:36.043226	213.5	28.1	-63.1	8.6
2026-01-15 18:40:38.287238	214.0	28.4	-63.0	6.5
2026-01-15 18:40:40.531250	214.5	28.7	-63.1	7.1
2026-01-15 18:40:42.775261	215.1	29.0	-62.0	5.6
2026-01-15 18:40:45.017776	215.6	29.3	-63.2	8.5
2026-01-15 18:40:47.260282	216.1	29.6	-63.2	6.0
2026-01-15 18:40:49.501797	216.7	29.9	-63.3	9.2
2026-01-15 18:40:51.746304	217.2	30.2	-62.5	7.1
2026-01-15 18:40:53.987810	217.8	30.5	-62.8	7.2
2026-01-15 18:40:56.225315	218.4	30.8	-61.8	6.9
2026-01-15 18:40:58.467822	219.0	31.1	-63.4	6.7
2026-01-15 18:41:00.712329	219.6	31.4	-61.6	6.2
2026-01-15 18:41:02.957340	220.2	31.7	-62.2	8.5
2026-01-15 18:41:05.200847	220.8	32.0	-61.5	6.0
2026-01-15 18:41:07.441857	221.4	32.3	-61.3	6.8
2026-01-15 18:41:09.685363	222.1	32.6	-61.6	5.0
2026-01-15 18:41:11.927879	222.7	32.9	-62.1	6.7
2026-01-15 18:41:14.172386	223.4	33.2	-61.2	6.5
2026-01-15 18:41:16.416893	224.1	33.5	-60.6	5.0
2026-01-15 18:41:18.659399	224.8	33.8	-61.7	6.6
2026-01-15 18:41:20.903410	225.5	34.1	-61.1	4.9
2026-01-15 18:41:23.147917	226.2	34.4	-59.4	3.6
2026-01-15 18:41:25.392424	227.0	34.7	-60.1	2.1
2026-01-15 18:41:27.635435	227.7	35.0	-60.3	4.1
2026-01-15 18:41:29.877949	228.5	35.3	-61.2	5.2
2026-01-15 18:41:32.122456	229.3	35.6	-62.4	6.5
2026-01-15 18:41:34.366963	230.0	35.9	-60.1	1.1
2026-01-15 18:41:36.615471	230.8	36.2	-61.4	3.9
2026-01-15 18:41:38.857977	231.7	36.4	-61.0	5.9
2026-01-15 18:41:41.100484	232.5	36.7	-61.8	4.8
2026-01-15 18:41:43.343990	233.3	37.0	-61.7	4.8
2026-01-15 18:41:45.570969	234.2	37.2	-61.3	6.2
2026-01-15 18:41:47.814476	235.0	37.5	-61.3	4.5
2026-01-15 18:41:50.058983	235.9	37.7	-61.7	3.1
2026-01-15 18:41:52.301490	236.8	38.0	-62.1	5.8
2026-01-15 18:41:54.545996	237.7	38.2	-61.1	3.2
2026-01-15 18:41:56.789512	238.7	38.4	-61.9	4.0
2026-01-15 18:41:59.038525	239.6	38.7	-61.4	4.6
2026-01-15 18:42:01.283031	240.5	38.9	-60.6	2.4
2026-01-15 18:42:03.527538	241.5	39.1	-62.1	3.7
2026-01-15 18:42:05.772054	242.5	39.3	-62.5	4.9
2026-01-15 18:42:08.016561	243.5	39.5	-62.7	5.2
2026-01-15 18:42:10.260573	244.5	39.7	-60.5	3.5
2026-01-15 18:42:12.505080	245.5	39.9	-60.6	2.3
2026-01-15 18:42:14.752597	246.5	40.0	-59.4	0.0
2026-01-15 18:42:16.997104	247.5	40.2	-60.9	3.0
2026-01-15 18:42:19.241610	248.5	40.3	-61.4	3.0
2026-01-15 18:42:21.486621	249.6	40.5	-62.3	4.1
2026-01-15 18:42:23.730128	250.6	40.6	-62.1	5.6
2026-01-15 18:42:25.974635	251.7	40.7	-62.1	4.0
2026-01-15 18:42:28.218646	252.8	40.8	-61.9	2.1
2026-01-15 18:42:30.464658	253.8	40.9	-61.9	3.2
2026-01-15 18:42:32.707164	254.9	41.0	-62.2	3.7
2026-01-15 18:42:34.948670	256.0	41.1	-62.4	5.1
2026-01-15 18:42:37.190205	257.1	41.2	-62.2	5.0
2026-01-15 18:42:39.433721	258.2	41.2	-63.4	4.1
2026-01-15 18:42:41.677227	259.3	41.3	-63.3	4.8
2026-01-15 18:42:43.921734	260.4	41.3	-62.6	3.4
2026-01-15 18:42:46.165745	261.5	41.3	-63.2	4.9
2026-01-15 18:42:48.411252	262.6	41.3	-64.0	6.4
2026-01-15 18:42:50.652759	263.7	41.3	-64.0	8.0
2026-01-15 18:42:52.896265	264.8	41.3	-65.0	8.6
2026-01-15 18:42:55.139276	265.9	41.3	-64.7	7.6
2026-01-15 18:42:57.377782	267.0	41.2	-64.0	6.2
2026-01-15 18:42:59.617288	268.1	41.2	-63.3	5.8
2026-01-15 18:43:01.859299	269.2	41.1	-63.9	5.5
2026-01-15 18:43:04.102805	270.3	41.0	-63.8	5.1
2026-01-15 18:43:06.344312	271.4	40.9	-64.2	6.8
2026-01-15 18:43:08.582817	272.4	40.9	-65.3	8.0
2026-01-15 18:43:10.826828	273.5	40.7	-64.6	7.6
2026-01-15 18:43:13.069335	274.6	40.6	-63.4	4.4
2026-01-15 18:43:15.308840	275.6	40.5	-65.3	7.9
2026-01-15 18:43:17.551347	276.7	40.4	-64.9	9.5
2026-01-15 18:43:19.792861	277.7	40.2	-64.3	6.3
2026-01-15 18:43:22.037368	278.7	40.1	-65.2	7.5
2026-01-15 18:43:24.281875	279.8	39.9	-62.6	4.5
2026-01-15 18:43:26.526896	280.8	39.7	-65.9	10.4
2026-01-15 18:43:28.771402	281.8	39.5	-65.0	9.0
2026-01-15 18:43:31.015909	282.7	39.3	-65.4	9.6
2026-01-15 18:43:33.255919	283.7	39.1	-65.8	8.7
2026-01-15 18:43:35.499435	284.7	38.9	-65.0	7.8
2026-01-15 18:43:37.743942	285.6	38.7	-65.8	9.0
2026-01-15 18:43:39.988449	286.6	38.5	-65.5	10.1
2026-01-15 18:43:42.231469	287.5	38.3	-63.4	5.9
2026-01-15 18:43:44.476976	288.4	38.0	-62.8	4.1
2026-01-15 18:43:46.720540	289.3	37.8	-64.7	6.1
2026-01-15 18:43:48.964590	290.2	37.6	-64.9	9.4
2026-01-15 18:43:51.208115	291.0	37.3	-65.1	7.7
2026-01-15 18:43:53.452157	291.9	37.0	-64.6	8.5
2026-01-15 18:43:55.693671	292.7	36.8	-65.3	10.6
2026-01-15 18:43:57.935712	293.6	36.5	-65.3	8.9
2026-01-15 18:44:00.179723	294.4	36.2	-65.8	10.3
2026-01-15 18:44:02.424230	295.2	36.0	-66.0	9.8
2026-01-15 18:44:04.660735	296.0	35.7	-64.4	7.8
2026-01-15 18:44:06.899745	296.7	35.4	-64.5	7.9
2026-01-15 18:44:09.137259	297.5	35.1	-65.5	10.5
2026-01-15 18:44:11.376765	298.3	34.8	-65.0	8.0
2026-01-15 18:44:13.618271	299.0	34.5	-63.2	6.4
2026-01-15 18:44:15.860778	299.7	34.2	-65.1	10.1
2026-01-15 18:44:18.097787	300.4	34.0	-64.6	8.7
2026-01-15 18:44:20.337797	301.1	33.7	-65.5	11.1
2026-01-15 18:44:22.578303	301.8	33.4	-65.4	11.1
2026-01-15 18:44:24.818809	302.5	33.1	-64.4	9.0
2026-01-15 18:44:27.057819	303.1	32.8	-65.9	10.5
2026-01-15 18:44:29.297325	303.8	32.5	-65.6	10.3
2026-01-15 18:44:31.537831	304.4	32.2	-64.9	11.3
2026-01-15 18:44:33.775336	305.0	31.9	-65.7	10.5
2026-01-15 18:44:36.016851	305.7	31.6	-65.6	10.8
2026-01-15 18:44:38.257357	306.3	31.2	-65.6	9.2
2026-01-15 18:44:40.495862	306.8	30.9	-65.4	10.2
2026-01-15 18:44:42.733368	307.4	30.6	-66.2	10.7
2026-01-15 18:44:44.969873	308.0	30.3	-65.5	8.9
2026-01-15 18:44:47.205387	308.5	30.0	-65.6	10.2
2026-01-15 18:44:49.441891	309.1	29.7	-64.6	10.0
2026-01-15 18:44:51.679397	309.6	29.4	-66.1	10.9
2026-01-15 18:44:53.919903	310.2	29.1	-65.9	11.5
2026-01-15 18:44:56.153911	310.7	28.8	-65.6	11.3
2026-01-15 18:44:58.392417	311.2	28.5	-65.5	11.8
2026-01-15 18:45:00.633923	311.7	28.2	-65.8	11.2
2026-01-15 18:45:02.872429	312.2	27.9	-66.0	11.4
2026-01-15 18:45:05.116439	312.7	27.6	-66.2	12.3
2026-01-15 18:45:07.360946	313.1	27.3	-65.9	10.6
2026-01-15 18:45:09.605453	313.6	27.0	-65.9	11.9
2026-01-15 18:45:11.849960	314.1	26.7	-65.4	11.5
2026-01-15 18:45:14.093475	314.5	26.5	-65.9	11.2
2026-01-15 18:45:16.337992	315.0	26.2	-66.1	11.9
2026-01-15 18:45:18.582499	315.4	25.9	-66.1	11.9
2026-01-15 18:45:20.827006	315.8	25.6	-66.0	12.3
2026-01-15 18:45:23.071017	316.2	25.3	-66.3	12.5
2026-01-15 18:45:25.315524	316.6	25.0	-66.0	11.3
2026-01-15 18:45:27.560031	317.0	24.7	-66.0	11.7
2026-01-15 18:45:29.804537	317.4	24.4	-66.2	10.8
2026-01-15 18:45:32.051549	317.8	24.2	-66.4	11.8
2026-01-15 18:45:34.296056	318.2	23.9	-65.4	7.6
2026-01-15 18:45:36.540563	318.6	23.6	-66.1	11.0
2026-01-15 18:45:38.784574	319.0	23.3	-66.5	10.8
2026-01-15 18:45:41.029081	319.3	23.1	-66.5	11.0
2026-01-15 18:45:43.273092	319.7	22.8	-66.3	11.0
2026-01-15 18:45:45.517599	320.0	22.5	-65.9	12.2
2026-01-15 18:45:47.761610	320.4	22.3	-66.1	11.3
2026-01-15 18:45:50.005622	320.7	22.0	-66.2	10.8
2026-01-15 18:45:52.249633	321.1	21.7	-66.2	11.0
2026-01-15 18:45:54.494140	321.4	21.5	-66.2	11.6
2026-01-15 18:45:56.737656	321.7	21.2	-66.1	10.3
2026-01-15 18:45:58.982163	322.0	20.9	-66.4	12.0
2026-01-15 18:46:01.226174	322.3	20.7	-66.2	9.7
2026-01-15 18:46:03.470681	322.6	20.4	-66.4	11.4
2026-01-15 18:46:05.718197	323.0	20.2	-66.5	10.8
2026-01-15 18:46:07.961713	323.2	19.9	-66.4	10.3
2026-01-15 18:46:10.206220	323.5	19.7	-66.1	9.9
2026-01-15 18:46:12.450726	323.8	19.4	-66.6	10.5
2026-01-15 18:46:14.698738	324.1	19.2	-65.5	8.4
2026-01-15 18:46:16.943245	324.4	18.9	-66.4	10.7
2026-01-15 18:46:19.187752	324.7	18.7	-66.5	10.5
2026-01-15 18:46:21.431763	324.9	18.5	-66.3	10.8
2026-01-15 18:46:23.676270	325.2	18.2	-66.7	11.0
2026-01-15 18:46:25.920777	325.5	18.0	-66.9	10.7
2026-01-15 18:46:28.165284	325.7	17.7	-66.3	10.6
2026-01-15 18:46:30.411296	326.0	17.5	-66.0	7.2
2026-01-15 18:46:32.655307	326.2	17.3	-65.8	9.4
2026-01-15 18:46:34.898822	326.5	17.1	-66.0	8.7
2026-01-15 18:46:37.143329	326.7	16.8	-66.4	9.8
2026-01-15 18:46:39.390846	327.0	16.6	-66.1	9.6
2026-01-15 18:46:41.635353	327.2	16.4	-66.9	10.3
2026-01-15 18:46:43.879860	327.4	16.1	-66.3	9.7
2026-01-15 18:46:46.125871	327.7	15.9	-66.6	9.8
2026-01-15 18:46:48.369883	327.9	15.7	-65.8	8.0
2026-01-15 18:46:50.614389	328.1	15.5	-67.0	10.3
2026-01-15 18:46:52.858896	328.4	15.3	-66.6	9.4
2026-01-15 18:46:55.106404	328.6	15.1	-66.9	10.0
2026-01-15 18:46:57.350910	328.8	14.8	-66.8	9.1
2026-01-15 18:46:59.594922	329.0	14.6	-66.6	7.8
2026-01-15 18:47:01.839429	329.2	14.4	-67.1	9.5
2026-01-15 18:47:04.084946	329.4	14.2	-67.0	8.6
2026-01-15 18:47:06.329453	329.6	14.0	-66.8	7.9
2026-01-15 18:47:08.573960	329.8	13.8	-66.7	9.2
2026-01-15 18:47:10.818467	330.0	13.6	-66.2	7.9
2026-01-15 18:47:13.062996	330.2	13.4	-65.9	6.9
2026-01-15 18:47:15.307503	330.4	13.2	-66.6	7.2
2026-01-15 18:47:17.552010	330.6	13.0	-65.9	7.7
2026-01-15 18:47:19.795525	330.8	12.8	-66.8	7.3
2026-01-15 18:47:22.040032	331.0	12.6	-66.5	8.6
2026-01-15 18:47:24.284539	331.2	12.4	-66.5	8.0
2026-01-15 18:47:26.529046	331.3	12.2	-66.8	8.7
2026-01-15 18:47:28.773066	331.5	12.0	-66.7	8.5
2026-01-15 18:47:31.017573	331.7	11.8	-66.5	7.0
2026-01-15 18:47:33.261593	331.9	11.6	-66.5	7.9
2026-01-15 18:47:35.505604	332.0	11.4	-66.0	7.0
2026-01-15 18:47:37.751616	332.2	11.2	-66.0	7.7
2026-01-15 18:47:39.996123	332.4	11.0	-66.0	7.8
2026-01-15 18:47:42.240630	332.6	10.9	-65.8	7.3
2026-01-15 18:47:44.484641	332.7	10.7	-65.8	7.2
2026-01-15 18:47:46.728653	332.9	10.5	-66.8	7.7
2026-01-15 18:47:48.973160	333.0	10.3	-66.1	4.5
2026-01-15 18:47:51.217667	333.2	10.1	-66.5	7.7
2026-01-15 18:47:53.461181	333.4	9.9	-66.1	7.5
2026-01-15 18:47:55.706729	333.5	9.8	-65.8	6.8
2026-01-15 18:47:57.950749	333.7	9.6	-65.6	7.1
2026-01-15 18:48:00.195256	333.8	9.4	-65.3	6.6
2026-01-15 18:48:02.439309	334.0	9.2	-66.0	7.0
2026-01-15 18:48:04.682866	334.1	9.1	-65.0	5.5
2026-01-15 18:48:06.927373	334.3	8.9	-65.1	5.5
2026-01-15 18:48:09.171880	334.4	8.7	-66.0	6.7
2026-01-15 18:48:11.415948	334.5	8.5	-65.8	5.6
2026-01-15 18:48:13.659967	334.7	8.4	-65.4	5.0
2026-01-15 18:48:15.903516	334.8	8.2	-65.9	5.6
2026-01-15 18:48:18.147568	335.0	8.0	-65.0	6.3
2026-01-15 18:48:20.395589	335.1	7.9	-64.9	7.6
2026-01-15 18:48:22.640136	335.2	7.7	-65.2	5.8
2026-01-15 18:48:24.884155	335.4	7.5	-64.7	4.1
2026-01-15 18:48:27.127672	335.5	7.4	-65.7	5.5
2026-01-15 18:48:29.372723	335.6	7.2	-65.0	6.7
2026-01-15 18:48:31.616744	335.8	7.0	-65.0	4.4
2026-01-15 18:48:33.860787	335.9	6.9	-65.7	6.3
2026-01-15 18:48:36.133311	336.0	6.7	-65.0	1.8
2026-01-15 18:48:38.377827	336.2	6.6	-65.2	5.1
2026-01-15 18:48:40.622376	336.3	6.4	-64.1	3.5
2026-01-15 18:48:42.865435	336.4	6.2	-63.7	0.8
2026-01-15 18:48:45.109487	336.5	6.1	-65.0	0.3
2026-01-15 18:48:47.354041	336.6	5.9	-67.5	2.2
2026-01-15 18:48:49.598571	336.8	5.8	-68.2	0.0
2026-01-15 18:48:51.844132	336.9	5.6	-68.3	0.0
2026-01-15 18:48:54.088196	337.0	5.5	-68.6	0.0
2026-01-15 18:48:56.332208	337.1	5.3	-69.0	0.0
2026-01-15 18:48:58.576723	337.2	5.2	-70.2	0.0
2026-01-15 18:49:00.829776	337.4	5.0	-70.2	0.0
#Closed at: 2026-01-15 18:36:34.682781