passes_logs/2026/01/15/PlanumMoscow/PlanumMoscow__20260115_073903_METOP-B_rec.log

#Pass ID: 20260115_073903_METOP-B
#Satellite: METOP-B
#Configuration: METOP-B
#Start time: 2026-01-15 07:39:08.188484

#LorettStation: 1.0.0 05.05.2024
#Station: PlanumMoscow
#Location: 37.6253844 lon 55.6713361 lat
#TLE: 1 38771U 12049A   25293.92766658  .00000266  00000+0  14193-3 0  9996
#TLE: 2 38771  98.6882 344.7603 0001609 341.5209  18.5909 14.21379342679275

#Time	Az	El	Level	SNR
2026-01-15 07:42:46.588943	3.8	28.6	-58.5	2.0
2026-01-15 07:42:48.834450	3.6	29.0	-59.3	0.5
2026-01-15 07:42:51.077470	3.3	29.4	-58.4	0.0
2026-01-15 07:42:53.320490	3.1	29.8	-59.2	0.0
2026-01-15 07:42:55.564500	2.8	30.2	-59.3	0.0
2026-01-15 07:42:57.808511	2.6	30.6	-60.3	0.8
2026-01-15 07:43:00.051532	2.3	31.0	-59.5	0.4
2026-01-15 07:43:02.294055	2.0	31.5	-60.0	1.0
2026-01-15 07:43:04.539562	1.7	31.9	-61.1	4.0
2026-01-15 07:43:06.782582	1.5	32.3	-58.7	0.0
2026-01-15 07:43:09.025602	1.2	32.8	-59.6	0.2
2026-01-15 07:43:11.271613	0.9	33.2	-60.1	2.7
2026-01-15 07:43:13.515150	0.6	33.7	-60.8	3.9
2026-01-15 07:43:15.758665	0.2	34.1	-61.1	4.3
2026-01-15 07:43:18.002181	359.9	34.6	-60.8	2.5
2026-01-15 07:43:20.246688	359.6	35.1	-60.7	2.5
2026-01-15 07:43:22.488229	359.2	35.5	-59.5	1.1
2026-01-15 07:43:24.732249	358.9	36.0	-60.4	1.5
2026-01-15 07:43:26.975765	358.5	36.5	-61.0	3.3
2026-01-15 07:43:29.219281	358.1	37.0	-61.0	3.9
2026-01-15 07:43:31.463292	357.7	37.5	-59.8	2.9
2026-01-15 07:43:33.707808	357.3	38.0	-61.7	4.7
2026-01-15 07:43:35.951818	356.9	38.5	-61.5	5.1
2026-01-15 07:43:38.196334	356.4	39.0	-62.1	6.2
2026-01-15 07:43:40.440345	356.0	39.5	-61.8	5.6
2026-01-15 07:43:42.684356	355.5	40.1	-61.3	5.7
2026-01-15 07:43:44.928873	355.0	40.6	-61.7	5.4
2026-01-15 07:43:47.172392	354.5	41.1	-61.5	5.9
2026-01-15 07:43:49.416412	354.0	41.7	-60.8	3.3
2026-01-15 07:43:51.661919	353.5	42.2	-61.4	5.1
2026-01-15 07:43:53.905930	352.9	42.8	-62.5	7.8
2026-01-15 07:43:56.147958	352.4	43.3	-62.1	7.0
2026-01-15 07:43:58.395970	351.8	43.9	-61.5	7.5
2026-01-15 07:44:00.640477	351.2	44.5	-61.7	8.0
2026-01-15 07:44:02.884001	350.5	45.1	-62.4	7.9
2026-01-15 07:44:05.127022	349.9	45.6	-62.4	7.8
2026-01-15 07:44:07.372538	349.2	46.2	-62.5	8.6
2026-01-15 07:44:09.615557	348.5	46.8	-62.4	9.4
2026-01-15 07:44:11.859071	347.7	47.4	-62.3	9.1
2026-01-15 07:44:14.101099	347.0	48.0	-62.7	9.2
2026-01-15 07:44:16.344614	346.2	48.6	-63.1	9.9
2026-01-15 07:44:18.588129	345.4	49.2	-62.7	9.3
2026-01-15 07:44:20.831645	344.5	49.8	-62.6	8.9
2026-01-15 07:44:23.075160	343.6	50.4	-62.9	9.6
2026-01-15 07:44:25.318181	342.7	51.0	-62.8	9.3
2026-01-15 07:44:27.561199	341.7	51.6	-63.0	9.4
2026-01-15 07:44:29.805210	340.7	52.2	-63.2	9.9
2026-01-15 07:44:32.049221	339.6	52.8	-63.3	9.1
2026-01-15 07:44:34.293241	338.5	53.4	-63.1	10.0
2026-01-15 07:44:36.537252	337.4	54.0	-62.5	8.4
2026-01-15 07:44:38.781263	336.2	54.5	-63.1	9.5
2026-01-15 07:44:41.025274	334.9	55.1	-63.1	9.8
2026-01-15 07:44:43.269789	333.6	55.7	-61.9	7.4
2026-01-15 07:44:45.512810	332.3	56.2	-62.5	6.9
2026-01-15 07:44:47.756820	330.9	56.8	-62.8	9.1
2026-01-15 07:44:50.000831	329.4	57.3	-63.7	8.8
2026-01-15 07:44:52.245338	327.9	57.8	-63.0	9.0
2026-01-15 07:44:54.492854	326.3	58.4	-62.7	8.5
2026-01-15 07:44:56.736866	324.7	58.8	-62.6	8.5
2026-01-15 07:44:58.979390	323.0	59.3	-62.8	9.8
2026-01-15 07:45:01.221417	321.2	59.8	-62.6	9.7
2026-01-15 07:45:03.465924	319.4	60.2	-62.4	7.4
2026-01-15 07:45:05.709439	317.5	60.6	-63.6	9.4
2026-01-15 07:45:07.953451	315.6	61.0	-63.4	9.1
2026-01-15 07:45:10.199472	313.6	61.3	-63.8	9.8
2026-01-15 07:45:12.444979	311.5	61.7	-62.1	6.4
2026-01-15 07:45:14.687502	309.4	62.0	-64.0	9.0
2026-01-15 07:45:16.930523	307.3	62.2	-63.7	7.9
2026-01-15 07:45:19.174039	305.1	62.4	-64.1	9.9
2026-01-15 07:45:21.417554	302.9	62.6	-63.8	8.4
2026-01-15 07:45:23.661073	300.6	62.8	-63.3	8.3
2026-01-15 07:45:25.905598	298.3	62.9	-63.5	9.0
2026-01-15 07:45:28.150105	296.0	63.0	-63.3	8.3
2026-01-15 07:45:30.392629	293.7	63.0	-63.9	9.7
2026-01-15 07:45:32.636639	291.3	63.0	-62.1	7.5
2026-01-15 07:45:34.883661	289.0	62.9	-63.7	9.4
2026-01-15 07:45:37.127176	286.7	62.9	-63.9	9.1
2026-01-15 07:45:39.370195	284.4	62.7	-64.1	9.0
2026-01-15 07:45:41.618713	282.1	62.6	-63.7	9.0
2026-01-15 07:45:43.862229	279.9	62.4	-63.0	8.2
2026-01-15 07:45:46.106240	277.7	62.2	-63.2	9.8
2026-01-15 07:45:48.350251	275.6	61.9	-62.8	7.9
2026-01-15 07:45:50.593279	273.5	61.6	-62.4	7.3
2026-01-15 07:45:52.836796	271.4	61.3	-62.5	7.6
2026-01-15 07:45:55.079816	269.4	60.9	-62.4	8.0
2026-01-15 07:45:57.324332	267.5	60.5	-62.8	8.7
2026-01-15 07:45:59.568343	265.6	60.1	-62.4	8.9
2026-01-15 07:46:01.812355	263.8	59.7	-62.6	9.4
2026-01-15 07:46:04.055871	262.1	59.2	-62.3	7.9
2026-01-15 07:46:06.298891	260.4	58.7	-62.8	7.1
2026-01-15 07:46:08.544407	258.8	58.2	-63.4	8.3
2026-01-15 07:46:10.787922	257.2	57.7	-62.8	8.1
2026-01-15 07:46:13.030942	255.7	57.2	-62.8	8.2
2026-01-15 07:46:15.277468	254.2	56.7	-63.0	8.0
2026-01-15 07:46:17.521984	252.9	56.1	-63.2	8.1
2026-01-15 07:46:19.765500	251.5	55.5	-62.5	6.8
2026-01-15 07:46:22.009523	250.2	55.0	-62.6	7.1
2026-01-15 07:46:24.255041	249.0	54.4	-61.2	5.0
2026-01-15 07:46:26.499051	247.8	53.8	-62.3	7.0
2026-01-15 07:46:28.743558	246.7	53.2	-62.1	5.6
2026-01-15 07:46:30.987075	245.6	52.6	-62.8	6.7
2026-01-15 07:46:33.231086	244.5	52.0	-62.2	5.8
2026-01-15 07:46:35.474601	243.5	51.4	-61.9	6.0
2026-01-15 07:46:37.718612	242.6	50.8	-59.8	2.4
2026-01-15 07:46:39.961633	241.6	50.2	-61.5	4.5
2026-01-15 07:46:42.205644	240.8	49.6	-60.7	4.3
2026-01-15 07:46:44.449656	239.9	49.0	-61.6	5.9
2026-01-15 07:46:46.693667	239.1	48.4	-61.3	5.9
2026-01-15 07:46:48.941184	238.3	47.8	-61.0	5.2
2026-01-15 07:46:51.186195	237.5	47.2	-61.4	6.4
2026-01-15 07:46:53.430206	236.8	46.6	-61.2	6.3
2026-01-15 07:46:55.673721	236.1	46.0	-60.5	4.3
2026-01-15 07:46:57.917751	235.4	45.5	-61.3	6.9
2026-01-15 07:47:00.161762	234.7	44.9	-60.0	4.6
2026-01-15 07:47:02.405804	234.1	44.3	-61.1	6.5
2026-01-15 07:47:04.648832	233.5	43.7	-60.1	4.0
2026-01-15 07:47:06.894853	232.9	43.2	-60.6	4.9
2026-01-15 07:47:09.138864	232.3	42.6	-60.4	4.9
2026-01-15 07:47:11.382876	231.8	42.0	-59.3	4.2
2026-01-15 07:47:13.626391	231.3	41.5	-61.1	6.2
2026-01-15 07:47:15.869412	230.8	40.9	-60.5	4.7
2026-01-15 07:47:18.111936	230.3	40.4	-60.8	2.9
2026-01-15 07:47:20.354957	229.8	39.9	-60.7	5.1
2026-01-15 07:47:22.598481	229.3	39.3	-60.9	4.0
2026-01-15 07:47:24.841006	228.9	38.8	-58.5	2.9
2026-01-15 07:47:27.084026	228.4	38.3	-57.7	0.7
2026-01-15 07:47:29.328046	228.0	37.8	-59.0	3.8
2026-01-15 07:47:31.573067	227.6	37.3	-60.0	1.7
2026-01-15 07:47:33.817574	227.2	36.8	-60.2	4.5
2026-01-15 07:47:36.061585	226.8	36.3	-60.1	4.7
2026-01-15 07:47:38.305605	226.5	35.8	-60.3	4.2
2026-01-15 07:47:40.550121	226.1	35.3	-59.2	3.4
2026-01-15 07:47:42.793637	225.8	34.9	-58.4	0.0
2026-01-15 07:47:45.038144	225.4	34.4	-58.8	2.8
2026-01-15 07:47:47.286156	225.1	33.9	-59.5	4.8
2026-01-15 07:47:49.530662	224.8	33.5	-60.3	5.2
2026-01-15 07:47:51.774674	224.5	33.0	-59.6	3.5
2026-01-15 07:47:54.017693	224.2	32.6	-59.2	4.3
2026-01-15 07:47:56.260712	223.9	32.1	-60.4	3.7
2026-01-15 07:47:58.503731	223.6	31.7	-60.3	3.1
2026-01-15 07:48:00.747742	223.3	31.3	-59.7	1.6
2026-01-15 07:48:02.991754	223.0	30.8	-61.3	4.4
2026-01-15 07:48:05.239766	222.8	30.4	-61.1	5.6
2026-01-15 07:48:07.483777	222.5	30.0	-60.2	3.6
2026-01-15 07:48:09.728284	222.3	29.6	-59.7	3.6
2026-01-15 07:48:11.972296	222.0	29.2	-60.1	4.0
2026-01-15 07:48:14.216307	221.8	28.8	-60.5	3.8
2026-01-15 07:48:16.459326	221.5	28.4	-60.6	5.6
2026-01-15 07:48:18.703338	221.3	28.0	-60.4	4.8
2026-01-15 07:48:20.946853	221.1	27.6	-60.8	4.1
2026-01-15 07:48:23.192360	220.9	27.3	-61.8	4.9
2026-01-15 07:48:25.436372	220.7	26.9	-61.1	3.3
2026-01-15 07:48:27.680382	220.5	26.5	-61.1	4.4
2026-01-15 07:48:29.926403	220.3	26.2	-61.0	3.4
2026-01-15 07:48:32.168926	220.1	25.8	-61.6	5.5
2026-01-15 07:48:34.412939	219.9	25.5	-61.7	5.6
2026-01-15 07:48:36.655977	219.7	25.1	-61.3	3.0
2026-01-15 07:48:38.899996	219.5	24.8	-61.8	5.4
2026-01-15 07:48:41.144008	219.3	24.4	-62.5	5.9
2026-01-15 07:48:43.388515	219.1	24.1	-62.1	4.8
2026-01-15 07:48:45.635031	219.0	23.7	-62.2	4.9
2026-01-15 07:48:47.880042	218.8	23.4	-62.2	5.0
2026-01-15 07:48:50.124053	218.6	23.1	-62.4	4.8
2026-01-15 07:48:52.368064	218.5	22.8	-62.2	4.3
2026-01-15 07:48:54.613076	218.3	22.4	-61.9	3.9
2026-01-15 07:48:56.857087	218.2	22.1	-61.9	4.6
2026-01-15 07:48:59.101100	218.0	21.8	-62.6	4.3
2026-01-15 07:49:01.345111	217.9	21.5	-63.0	4.3
2026-01-15 07:49:03.591636	217.7	21.2	-62.9	4.7
2026-01-15 07:49:05.835647	217.6	20.9	-63.1	6.2
2026-01-15 07:49:08.080154	217.4	20.6	-60.7	4.6
2026-01-15 07:49:10.326175	217.3	20.3	-63.0	6.3
2026-01-15 07:49:12.570681	217.2	20.0	-62.7	6.6
2026-01-15 07:49:14.813206	217.0	19.7	-62.5	4.9
2026-01-15 07:49:17.057218	216.9	19.5	-63.3	5.3
2026-01-15 07:49:19.305239	216.8	19.2	-63.4	6.0
2026-01-15 07:49:21.549250	216.7	18.9	-63.9	5.9
2026-01-15 07:49:23.791774	216.6	18.6	-63.8	5.1
2026-01-15 07:49:26.035289	216.4	18.3	-63.5	6.0
2026-01-15 07:49:28.278315	216.3	18.1	-63.1	3.6
2026-01-15 07:49:30.522326	216.2	17.8	-62.9	5.6
2026-01-15 07:49:32.767337	216.1	17.5	-63.6	6.5
2026-01-15 07:49:35.014855	216.0	17.3	-63.6	5.3
2026-01-15 07:49:37.258866	215.9	17.0	-63.2	6.7
2026-01-15 07:49:39.502381	215.8	16.8	-63.9	7.1
2026-01-15 07:49:41.746888	215.7	16.5	-63.6	6.6
2026-01-15 07:49:43.989907	215.6	16.3	-64.0	7.3
2026-01-15 07:49:46.235414	215.5	16.0	-64.1	6.6
2026-01-15 07:49:48.480426	215.4	15.8	-63.8	4.7
2026-01-15 07:49:50.724933	215.3	15.5	-63.9	6.7
2026-01-15 07:49:52.968449	215.2	15.3	-63.4	4.9
2026-01-15 07:49:55.212460	215.1	15.1	-63.7	5.3
2026-01-15 07:49:57.455481	215.0	14.8	-64.2	6.2
2026-01-15 07:49:59.699502	214.9	14.6	-64.5	5.8
2026-01-15 07:50:01.946018	214.8	14.3	-64.4	5.8
2026-01-15 07:50:04.190029	214.7	14.1	-64.3	6.8
2026-01-15 07:50:06.434536	214.6	13.9	-64.7	6.3
2026-01-15 07:50:08.677555	214.5	13.7	-64.1	5.3
2026-01-15 07:50:10.920576	214.5	13.4	-64.4	5.7
2026-01-15 07:50:13.164587	214.4	13.2	-64.6	5.7
2026-01-15 07:50:15.409598	214.3	13.0	-64.6	4.5
2026-01-15 07:50:17.654106	214.2	12.8	-64.6	4.9
2026-01-15 07:50:19.897631	214.1	12.6	-65.0	5.9
2026-01-15 07:50:22.142138	214.1	12.3	-64.6	5.7
2026-01-15 07:50:24.386645	214.0	12.1	-64.6	4.2
2026-01-15 07:50:26.629665	213.9	11.9	-65.4	4.8
2026-01-15 07:50:28.874180	213.8	11.7	-65.3	5.8
2026-01-15 07:50:31.117201	213.8	11.5	-65.6	6.0
2026-01-15 07:50:33.361212	213.7	11.3	-65.3	4.5
2026-01-15 07:50:35.604728	213.6	11.1	-65.4	4.8
2026-01-15 07:50:37.847255	213.5	10.9	-65.2	5.1
2026-01-15 07:50:40.090274	213.5	10.7	-65.1	5.1
2026-01-15 07:50:42.334286	213.4	10.5	-65.7	5.6
2026-01-15 07:50:44.583298	213.3	10.3	-65.1	4.4
2026-01-15 07:50:46.827805	213.3	10.1	-65.2	4.9
2026-01-15 07:50:49.071321	213.2	9.9	-65.5	4.9
2026-01-15 07:50:51.313348	213.2	9.7	-65.3	4.3
2026-01-15 07:50:53.557368	213.1	9.5	-65.7	4.6
2026-01-15 07:50:55.800891	213.0	9.3	-65.5	4.6
2026-01-15 07:50:58.045438	213.0	9.1	-65.8	4.0
2026-01-15 07:51:00.291962	212.9	9.0	-65.2	4.4
2026-01-15 07:51:02.536012	212.8	8.8	-65.6	3.9
2026-01-15 07:51:04.779528	212.8	8.6	-65.3	3.6
2026-01-15 07:51:07.023539	212.7	8.4	-65.6	2.9
2026-01-15 07:51:09.267110	212.7	8.2	-65.3	2.9
2026-01-15 07:51:11.509639	212.6	8.0	-65.2	2.5
2026-01-15 07:51:13.757156	212.6	7.9	-64.9	2.5
2026-01-15 07:51:16.005177	212.5	7.7	-65.6	3.2
2026-01-15 07:51:18.249702	212.5	7.5	-65.0	3.0
2026-01-15 07:51:20.493722	212.4	7.3	-64.9	3.0
2026-01-15 07:51:22.737753	212.3	7.2	-65.0	1.8
2026-01-15 07:51:24.985773	212.3	7.0	-65.4	3.3
2026-01-15 07:51:27.230280	212.2	6.8	-65.4	1.8
2026-01-15 07:51:29.474292	212.2	6.6	-65.2	3.0
2026-01-15 07:51:31.718312	212.1	6.5	-65.0	1.8
2026-01-15 07:51:33.964333	212.1	6.3	-65.2	0.0
2026-01-15 07:51:36.207849	212.0	6.1	-65.0	1.7
2026-01-15 07:51:38.451860	212.0	6.0	-65.1	0.0
2026-01-15 07:51:40.699376	212.0	5.8	-66.4	0.0
2026-01-15 07:51:42.943387	211.9	5.6	-67.0	0.0
2026-01-15 07:51:45.186903	211.9	5.5	-70.1	0.0
2026-01-15 07:51:47.430923	211.8	5.3	-71.1	0.0
2026-01-15 07:51:49.675935	211.8	5.2	-70.5	0.0
2026-01-15 07:51:51.919450	211.7	5.0	-70.8	0.0
#Closed at: 2026-01-15 07:39:03.190595