passes_logs/2026/01/15/PlanumMoscow/PlanumMoscow__20260115_070731_METEOR-M2_3_rec.log

#Pass ID: 20260115_070731_METEOR-M2 3
#Satellite: METEOR-M2 3
#Configuration: METEOR-M2 3
#Start time: 2026-01-15 07:07:36.995423

#LorettStation: 1.0.0 05.05.2024
#Station: PlanumMoscow
#Location: 37.6253844 lon 55.6713361 lat
#TLE: 1 57166U 23091A   25293.99389264  .00000062  00000+0  46113-4 0  9997
#TLE: 2 57166  98.6457 348.4330 0004759 135.3141 224.8422 14.24016546120475

#Time	Az	El	Level	SNR
2026-01-15 07:11:15.424523	28.7	28.7	-62.1	10.3
2026-01-15 07:11:17.667553	28.9	29.1	-64.0	9.5
2026-01-15 07:11:19.912564	29.1	29.5	-63.9	10.2
2026-01-15 07:11:22.138910	29.3	29.9	-63.5	10.1
2026-01-15 07:11:24.382922	29.6	30.3	-64.2	11.4
2026-01-15 07:11:26.626447	29.8	30.7	-63.5	10.9
2026-01-15 07:11:28.870459	30.0	31.1	-63.7	9.1
2026-01-15 07:11:31.114966	30.3	31.6	-63.6	10.5
2026-01-15 07:11:33.358978	30.6	32.0	-62.7	10.0
2026-01-15 07:11:35.605503	30.8	32.4	-62.5	8.5
2026-01-15 07:11:37.850019	31.1	32.9	-62.9	7.6
2026-01-15 07:11:40.094545	31.4	33.3	-62.6	6.9
2026-01-15 07:11:42.337566	31.7	33.8	-62.7	7.2
2026-01-15 07:11:44.582072	32.0	34.3	-62.6	7.2
2026-01-15 07:11:46.825092	32.3	34.7	-62.5	7.5
2026-01-15 07:11:49.068608	32.6	35.2	-61.7	5.3
2026-01-15 07:11:51.315115	32.9	35.7	-62.2	7.3
2026-01-15 07:11:53.558632	33.2	36.2	-62.3	8.2
2026-01-15 07:11:55.802643	33.6	36.7	-62.6	8.1
2026-01-15 07:11:58.046160	33.9	37.2	-60.8	4.8
2026-01-15 07:12:00.289675	34.3	37.7	-62.0	7.1
2026-01-15 07:12:02.533686	34.7	38.2	-61.0	6.1
2026-01-15 07:12:04.778193	35.1	38.8	-60.9	6.1
2026-01-15 07:12:07.021214	35.5	39.3	-60.0	4.1
2026-01-15 07:12:09.265225	35.9	39.8	-61.0	5.6
2026-01-15 07:12:11.508741	36.3	40.4	-60.9	4.9
2026-01-15 07:12:13.752763	36.8	40.9	-59.9	5.8
2026-01-15 07:12:15.995298	37.2	41.5	-60.3	4.9
2026-01-15 07:12:18.239805	37.7	42.1	-60.6	5.4
2026-01-15 07:12:20.484321	38.2	42.6	-59.8	5.3
2026-01-15 07:12:22.728332	38.7	43.2	-60.6	5.1
2026-01-15 07:12:24.975353	39.2	43.8	-59.8	3.5
2026-01-15 07:12:27.219364	39.8	44.4	-60.2	6.6
2026-01-15 07:12:29.463871	40.3	45.0	-59.0	3.3
2026-01-15 07:12:31.708892	40.9	45.6	-59.7	3.8
2026-01-15 07:12:33.952407	41.5	46.2	-60.0	5.5
2026-01-15 07:12:36.195924	42.2	46.8	-58.2	0.6
2026-01-15 07:12:38.438451	42.8	47.5	-59.9	3.3
2026-01-15 07:12:40.681482	43.5	48.1	-60.2	3.9
2026-01-15 07:12:42.925494	44.2	48.7	-60.2	2.4
2026-01-15 07:12:45.169505	45.0	49.4	-61.2	3.7
2026-01-15 07:12:47.414012	45.7	50.0	-60.4	2.8
2026-01-15 07:12:49.661024	46.6	50.7	-60.2	2.0
2026-01-15 07:12:51.904540	47.4	51.3	-60.2	2.7
2026-01-15 07:12:54.149056	48.3	52.0	-60.5	3.4
2026-01-15 07:12:56.391580	49.2	52.6	-61.1	3.4
2026-01-15 07:12:58.634600	50.2	53.3	-61.5	3.7
2026-01-15 07:13:00.878116	51.2	53.9	-61.1	3.2
2026-01-15 07:13:03.121632	52.2	54.6	-61.2	3.1
2026-01-15 07:13:05.364159	53.3	55.2	-61.9	3.5
2026-01-15 07:13:07.607674	54.5	55.9	-62.8	4.7
2026-01-15 07:13:09.851189	55.7	56.5	-63.4	5.4
2026-01-15 07:13:12.094727	57.0	57.1	-63.2	5.1
2026-01-15 07:13:14.338739	58.3	57.8	-63.0	4.3
2026-01-15 07:13:16.581767	59.7	58.4	-62.7	4.9
2026-01-15 07:13:18.824787	61.1	59.0	-63.8	5.3
2026-01-15 07:13:21.068809	62.7	59.6	-63.6	3.9
2026-01-15 07:13:23.313325	64.3	60.2	-63.4	3.5
2026-01-15 07:13:25.555354	65.9	60.8	-63.7	5.7
2026-01-15 07:13:27.798374	67.7	61.3	-63.8	5.9
2026-01-15 07:13:30.040413	69.5	61.9	-64.0	6.7
2026-01-15 07:13:32.283930	71.4	62.4	-63.8	5.2
2026-01-15 07:13:34.527941	73.4	62.9	-64.3	6.8
2026-01-15 07:13:36.771466	75.4	63.4	-64.0	5.1
2026-01-15 07:13:39.014982	77.6	63.8	-64.2	5.5
2026-01-15 07:13:41.257508	79.8	64.2	-64.2	5.4
2026-01-15 07:13:43.501520	82.1	64.6	-64.7	6.6
2026-01-15 07:13:45.745036	84.5	64.9	-64.6	5.4
2026-01-15 07:13:47.991048	86.9	65.2	-65.0	7.8
2026-01-15 07:13:50.235059	89.5	65.5	-65.0	8.4
2026-01-15 07:13:52.479566	92.0	65.7	-65.6	9.5
2026-01-15 07:13:54.722586	94.6	65.9	-65.2	7.7
2026-01-15 07:13:56.966102	97.3	66.0	-64.3	7.0
2026-01-15 07:13:59.210114	99.9	66.1	-65.0	7.6
2026-01-15 07:14:01.454125	102.6	66.1	-65.2	7.7
2026-01-15 07:14:03.698145	105.3	66.1	-65.9	7.4
2026-01-15 07:14:05.941166	108.0	66.1	-66.3	8.4
2026-01-15 07:14:08.185178	110.7	66.0	-65.5	7.0
2026-01-15 07:14:10.429190	113.3	65.8	-65.3	6.8
2026-01-15 07:14:12.671715	115.9	65.6	-65.6	8.0
2026-01-15 07:14:14.915726	118.4	65.4	-65.9	8.4
2026-01-15 07:14:17.158746	120.9	65.1	-66.0	9.6
2026-01-15 07:14:19.402262	123.3	64.8	-66.4	9.7
2026-01-15 07:14:21.645284	125.6	64.4	-66.0	10.2
2026-01-15 07:14:23.889791	127.9	64.0	-67.1	9.9
2026-01-15 07:14:26.133803	130.1	63.6	-67.1	9.1
2026-01-15 07:14:28.379815	132.2	63.1	-67.1	9.6
2026-01-15 07:14:30.623826	134.2	62.6	-67.1	10.1
2026-01-15 07:14:32.865855	136.2	62.1	-67.0	9.4
2026-01-15 07:14:35.109371	138.1	61.6	-67.1	9.6
2026-01-15 07:14:37.355887	139.9	61.1	-67.3	11.1
2026-01-15 07:14:39.600394	141.6	60.5	-67.2	11.7
2026-01-15 07:14:41.843910	143.2	59.9	-67.0	10.3
2026-01-15 07:14:44.087424	144.8	59.3	-67.0	11.2
2026-01-15 07:14:46.330939	146.2	58.7	-67.1	10.9
2026-01-15 07:14:48.574464	147.7	58.1	-67.2	11.9
2026-01-15 07:14:50.818477	149.0	57.4	-67.4	12.1
2026-01-15 07:14:53.060506	150.3	56.8	-67.4	11.6
2026-01-15 07:14:55.304517	151.6	56.2	-67.6	11.2
2026-01-15 07:14:57.548528	152.7	55.5	-67.4	11.6
2026-01-15 07:14:59.792045	153.9	54.8	-67.2	11.8
2026-01-15 07:15:02.036056	155.0	54.2	-66.9	11.8
2026-01-15 07:15:04.279571	156.0	53.5	-67.1	11.9
2026-01-15 07:15:06.523086	157.0	52.9	-66.9	11.7
2026-01-15 07:15:08.766602	157.9	52.2	-66.9	12.0
2026-01-15 07:15:11.008155	158.8	51.6	-67.1	13.1
2026-01-15 07:15:13.250679	159.7	50.9	-67.3	12.3
2026-01-15 07:15:15.494196	160.5	50.3	-67.2	12.5
2026-01-15 07:15:17.738207	161.3	49.6	-67.4	13.3
2026-01-15 07:15:19.988229	162.1	49.0	-67.1	13.7
2026-01-15 07:15:22.231248	162.8	48.3	-66.9	12.9
2026-01-15 07:15:24.475755	163.5	47.7	-67.1	12.5
2026-01-15 07:15:26.724768	164.2	47.1	-67.1	13.3
2026-01-15 07:15:28.969274	164.8	46.4	-67.1	13.0
2026-01-15 07:15:31.213790	165.5	45.8	-67.1	13.0
2026-01-15 07:15:33.458297	166.1	45.2	-67.0	13.1
2026-01-15 07:15:35.705813	166.6	44.6	-66.8	12.9
2026-01-15 07:15:37.948843	167.2	44.0	-66.7	13.8
2026-01-15 07:15:40.192358	167.7	43.4	-66.3	13.2
2026-01-15 07:15:42.435874	168.2	42.8	-65.9	12.9
2026-01-15 07:15:44.678893	168.7	42.2	-65.9	13.8
2026-01-15 07:15:46.922922	169.2	41.7	-66.0	13.3
2026-01-15 07:15:49.167448	169.7	41.1	-65.9	12.9
2026-01-15 07:15:51.409973	170.1	40.5	-66.2	14.8
2026-01-15 07:15:53.653489	170.6	40.0	-65.8	14.2
2026-01-15 07:15:55.897500	171.0	39.4	-65.8	14.7
2026-01-15 07:15:58.140529	171.4	38.9	-65.9	15.1
2026-01-15 07:16:00.385558	171.8	38.4	-65.7	14.0
2026-01-15 07:16:02.630083	172.2	37.8	-65.9	13.1
2026-01-15 07:16:04.874093	172.5	37.3	-65.5	13.0
2026-01-15 07:16:07.119105	172.9	36.8	-65.7	13.6
2026-01-15 07:16:09.362620	173.3	36.3	-65.4	14.3
2026-01-15 07:16:11.606631	173.6	35.8	-65.8	14.0
2026-01-15 07:16:13.850644	173.9	35.3	-64.9	12.9
2026-01-15 07:16:16.093182	174.2	34.8	-65.0	13.1
2026-01-15 07:16:18.342194	174.5	34.4	-64.3	12.5
2026-01-15 07:16:20.585709	174.8	33.9	-64.7	13.4
2026-01-15 07:16:22.830225	175.1	33.4	-64.3	12.9
2026-01-15 07:16:25.074236	175.4	33.0	-64.4	13.5
2026-01-15 07:16:27.318752	175.7	32.5	-64.9	13.1
2026-01-15 07:16:29.563259	176.0	32.1	-65.0	14.4
2026-01-15 07:16:31.805783	176.2	31.6	-64.9	11.9
2026-01-15 07:16:34.048803	176.5	31.2	-64.5	12.8
2026-01-15 07:16:36.292319	176.7	30.7	-64.8	12.8
2026-01-15 07:16:38.535833	177.0	30.3	-64.9	13.2
2026-01-15 07:16:40.777862	177.2	29.9	-64.7	12.8
2026-01-15 07:16:43.021377	177.4	29.5	-64.6	12.8
2026-01-15 07:16:45.269894	177.7	29.1	-64.5	13.3
2026-01-15 07:16:47.513905	177.9	28.7	-64.9	13.2
2026-01-15 07:16:49.756924	178.1	28.3	-65.0	14.0
2026-01-15 07:16:52.000440	178.3	27.9	-64.9	13.2
2026-01-15 07:16:54.244947	178.5	27.5	-65.0	13.2
2026-01-15 07:16:56.486976	178.7	27.1	-64.9	12.7
2026-01-15 07:16:58.730492	178.9	26.8	-64.6	12.9
2026-01-15 07:17:00.976504	179.1	26.4	-64.9	13.0
2026-01-15 07:17:03.220515	179.3	26.0	-64.6	12.2
2026-01-15 07:17:05.464525	179.5	25.7	-64.0	11.0
2026-01-15 07:17:07.708050	179.7	25.3	-64.6	12.5
2026-01-15 07:17:09.951071	179.8	24.9	-64.2	12.0
2026-01-15 07:17:12.194091	180.0	24.6	-65.1	12.6
2026-01-15 07:17:14.438607	180.2	24.3	-64.8	12.1
2026-01-15 07:17:16.682619	180.3	23.9	-64.4	11.7
2026-01-15 07:17:18.926630	180.5	23.6	-64.7	12.8
2026-01-15 07:17:21.171137	180.7	23.2	-64.8	12.6
2026-01-15 07:17:23.415148	180.8	22.9	-64.8	12.7
2026-01-15 07:17:25.658167	181.0	22.6	-64.9	13.1
2026-01-15 07:17:27.901683	181.1	22.3	-65.0	13.2
2026-01-15 07:17:30.144703	181.3	22.0	-65.1	11.9
2026-01-15 07:17:32.388218	181.4	21.6	-64.6	11.1
2026-01-15 07:17:34.632725	181.5	21.3	-65.2	12.8
2026-01-15 07:17:36.875745	181.7	21.0	-64.7	11.8
2026-01-15 07:17:39.119757	181.8	20.7	-65.1	11.5
2026-01-15 07:17:41.364264	181.9	20.4	-65.1	12.1
2026-01-15 07:17:43.608275	182.1	20.1	-64.6	11.9
2026-01-15 07:17:45.850801	182.2	19.8	-64.4	9.6
2026-01-15 07:17:48.094325	182.3	19.6	-65.2	12.4
2026-01-15 07:17:50.337345	182.4	19.3	-65.1	11.6
2026-01-15 07:17:52.581852	182.6	19.0	-64.9	12.0
2026-01-15 07:17:54.827864	182.7	18.7	-65.3	11.4
2026-01-15 07:17:57.071380	182.8	18.4	-65.3	11.6
2026-01-15 07:17:59.314895	182.9	18.2	-65.2	12.7
2026-01-15 07:18:01.558906	183.0	17.9	-65.1	10.3
2026-01-15 07:18:03.802421	183.1	17.6	-65.2	11.3
2026-01-15 07:18:06.045441	183.3	17.4	-65.0	11.0
2026-01-15 07:18:08.289452	183.4	17.1	-65.1	11.6
2026-01-15 07:18:10.532969	183.5	16.9	-65.0	10.4
2026-01-15 07:18:12.774998	183.6	16.6	-65.1	10.6
2026-01-15 07:18:15.019514	183.7	16.3	-65.0	10.4
2026-01-15 07:18:17.263525	183.8	16.1	-64.7	9.8
2026-01-15 07:18:19.507049	183.9	15.8	-64.0	5.3
2026-01-15 07:18:21.749573	184.0	15.6	-65.0	10.2
2026-01-15 07:18:23.993603	184.1	15.4	-64.7	9.8
2026-01-15 07:18:26.239615	184.2	15.1	-64.7	9.2
2026-01-15 07:18:28.483132	184.3	14.9	-65.0	8.7
2026-01-15 07:18:30.727142	184.4	14.6	-64.5	9.5
2026-01-15 07:18:32.971154	184.4	14.4	-64.1	8.5
2026-01-15 07:18:35.215184	184.5	14.2	-64.8	9.6
2026-01-15 07:18:37.458213	184.6	13.9	-64.8	9.0
2026-01-15 07:18:39.700736	184.7	13.7	-64.7	8.7
2026-01-15 07:18:41.944251	184.8	13.5	-64.8	9.4
2026-01-15 07:18:44.188263	184.9	13.3	-64.5	8.8
2026-01-15 07:18:46.431777	185.0	13.0	-63.9	4.5
2026-01-15 07:18:48.675293	185.0	12.8	-64.5	8.5
2026-01-15 07:18:50.918338	185.1	12.6	-64.8	8.3
2026-01-15 07:18:53.162348	185.2	12.4	-64.6	9.1
2026-01-15 07:18:55.406360	185.3	12.2	-65.0	9.2
2026-01-15 07:18:57.648390	185.4	12.0	-64.0	8.3
2026-01-15 07:18:59.893402	185.4	11.8	-64.5	7.3
2026-01-15 07:19:02.137413	185.5	11.6	-63.4	9.1
2026-01-15 07:19:04.382434	185.6	11.3	-64.8	7.7
2026-01-15 07:19:06.625465	185.7	11.1	-62.1	2.2
2026-01-15 07:19:08.868990	185.7	10.9	-64.5	6.4
2026-01-15 07:19:11.112009	185.8	10.7	-64.7	8.7
2026-01-15 07:19:13.355534	185.9	10.5	-63.9	6.8
2026-01-15 07:19:15.600041	186.0	10.3	-63.3	6.2
2026-01-15 07:19:17.843556	186.0	10.1	-63.2	5.7
2026-01-15 07:19:20.087568	186.1	9.9	-62.8	6.3
2026-01-15 07:19:22.330595	186.2	9.8	-63.9	7.3
2026-01-15 07:19:24.575111	186.2	9.6	-63.4	6.1
2026-01-15 07:19:26.817635	186.3	9.4	-63.8	5.2
2026-01-15 07:19:29.061647	186.4	9.2	-63.5	6.4
2026-01-15 07:19:31.305657	186.4	9.0	-63.4	4.1
2026-01-15 07:19:33.549669	186.5	8.8	-61.3	3.2
2026-01-15 07:19:35.792690	186.6	8.6	-63.7	5.1
2026-01-15 07:19:38.036206	186.6	8.4	-63.3	4.7
2026-01-15 07:19:40.279728	186.7	8.3	-62.8	4.8
2026-01-15 07:19:42.523745	186.7	8.1	-62.8	3.3
2026-01-15 07:19:44.766760	186.8	7.9	-63.0	5.2
2026-01-15 07:19:47.010276	186.9	7.7	-62.8	4.5
2026-01-15 07:19:49.253297	186.9	7.5	-63.1	4.4
2026-01-15 07:19:51.497309	187.0	7.4	-63.0	3.5
2026-01-15 07:19:53.741320	187.0	7.2	-63.9	4.3
2026-01-15 07:19:55.985838	187.1	7.0	-63.6	4.4
2026-01-15 07:19:58.229859	187.2	6.8	-63.4	4.1
2026-01-15 07:20:00.473870	187.2	6.7	-64.0	5.0
2026-01-15 07:20:02.717881	187.3	6.5	-63.2	5.5
2026-01-15 07:20:04.960406	187.3	6.3	-63.9	4.3
2026-01-15 07:20:07.202931	187.4	6.2	-62.7	2.3
2026-01-15 07:20:09.444961	187.4	6.0	-65.5	3.3
2026-01-15 07:20:11.687484	187.5	5.8	-69.9	0.0
2026-01-15 07:20:13.931009	187.5	5.7	-70.3	0.0
2026-01-15 07:20:16.177525	187.6	5.5	-70.0	0.0
2026-01-15 07:20:18.422041	187.6	5.3	-70.3	0.0
2026-01-15 07:20:20.666052	187.7	5.2	-70.8	0.0
2026-01-15 07:20:22.915065	187.7	5.0	-70.8	0.0
#Closed at: 2026-01-15 07:07:31.997347