passes_logs/2026/01/15/PlanumMoscow/PlanumMoscow__20260115_180623_METOP-C_rec.log

#Pass ID: 20260115_180623_METOP-C
#Satellite: METOP-C
#Configuration: METOP-C
#Start time: 2026-01-15 18:06:28.097355

#LorettStation: 1.0.0 05.05.2024
#Station: PlanumMoscow
#Location: 37.6253844 lon 55.6713361 lat
#TLE: 1 43689U 18087A   25293.88981035  .00000265  00000+0  14109-3 0  9997
#TLE: 2 43689  98.7006 352.4487 0002041 122.1097 238.0279 14.21482740360838

#Time	Az	El	Level	SNR
2026-01-15 18:10:06.513784	165.2	29.8	-66.9	4.7
2026-01-15 18:10:08.751793	165.3	30.2	-67.0	4.9
2026-01-15 18:10:10.989853	165.3	30.6	-66.6	5.3
2026-01-15 18:10:13.225358	165.4	31.1	-67.0	3.4
2026-01-15 18:10:15.467864	165.4	31.5	-67.3	4.0
2026-01-15 18:10:17.714381	165.5	32.0	-66.7	3.0
2026-01-15 18:10:19.951886	165.5	32.4	-67.1	0.3
2026-01-15 18:10:22.187391	165.6	32.9	-67.3	4.0
2026-01-15 18:10:24.423896	165.6	33.4	-67.8	2.5
2026-01-15 18:10:26.666403	165.7	33.9	-67.8	2.2
2026-01-15 18:10:28.899907	165.7	34.4	-67.7	2.0
2026-01-15 18:10:31.136412	165.8	34.9	-67.7	1.6
2026-01-15 18:10:33.369421	165.8	35.4	-68.0	3.1
2026-01-15 18:10:35.606430	165.9	35.9	-68.1	2.6
2026-01-15 18:10:37.842935	166.0	36.4	-68.4	3.4
2026-01-15 18:10:40.079440	166.0	37.0	-68.2	4.1
2026-01-15 18:10:42.319946	166.1	37.5	-68.1	3.8
2026-01-15 18:10:44.563957	166.2	38.1	-67.5	0.0
2026-01-15 18:10:46.807967	166.2	38.6	-68.3	2.3
2026-01-15 18:10:49.052474	166.3	39.2	-68.5	2.5
2026-01-15 18:10:51.296981	166.4	39.8	-68.5	2.0
2026-01-15 18:10:53.538496	166.5	40.4	-69.0	1.3
2026-01-15 18:10:55.774001	166.5	41.0	-68.5	0.0
2026-01-15 18:10:58.017508	166.6	41.6	-69.0	0.0
2026-01-15 18:11:00.255517	166.7	42.2	-69.6	0.0
2026-01-15 18:11:02.490022	166.8	42.9	-69.4	0.0
2026-01-15 18:11:04.733529	166.9	43.5	-69.2	0.0
2026-01-15 18:11:06.976044	167.0	44.2	-69.2	0.0
2026-01-15 18:11:09.214053	167.1	44.8	-69.6	0.0
2026-01-15 18:11:11.459560	167.2	45.5	-69.9	0.0
2026-01-15 18:11:13.693064	167.3	46.2	-70.0	0.0
2026-01-15 18:11:15.926569	167.4	46.9	-70.1	0.0
2026-01-15 18:11:18.162074	167.5	47.6	-70.5	0.0
2026-01-15 18:11:20.400083	167.6	48.4	-69.3	0.0
2026-01-15 18:11:22.633587	167.8	49.1	-70.0	0.0
2026-01-15 18:11:24.870092	167.9	49.8	-70.2	0.0
2026-01-15 18:11:27.102597	168.0	50.6	-70.1	0.0
2026-01-15 18:11:29.345608	168.2	51.4	-70.2	0.0
2026-01-15 18:11:31.590114	168.3	52.2	-70.3	0.0
2026-01-15 18:11:33.834622	168.5	53.0	-71.1	0.0
2026-01-15 18:11:36.080129	168.7	53.8	-70.6	0.0
2026-01-15 18:11:38.323645	168.9	54.6	-70.9	0.0
2026-01-15 18:11:40.569152	169.0	55.5	-70.3	0.0
2026-01-15 18:11:42.811659	169.3	56.3	-70.9	0.0
2026-01-15 18:11:45.036730	169.5	57.2	-70.4	0.0
2026-01-15 18:11:47.279246	169.7	58.1	-70.3	0.0
2026-01-15 18:11:49.519752	169.9	59.0	-70.2	0.0
2026-01-15 18:11:51.762762	170.2	59.9	-70.4	0.0
2026-01-15 18:11:54.003277	170.5	60.8	-70.3	0.0
2026-01-15 18:11:56.239286	170.8	61.7	-70.6	0.0
2026-01-15 18:11:58.480297	171.1	62.7	-70.7	0.0
2026-01-15 18:12:00.723803	171.5	63.6	-70.0	0.0
2026-01-15 18:12:02.969319	171.8	64.6	-70.9	0.0
2026-01-15 18:12:05.206825	172.2	65.6	-70.8	0.0
2026-01-15 18:12:07.447331	172.7	66.5	-70.4	0.0
2026-01-15 18:12:09.686836	173.2	67.5	-71.0	0.0
2026-01-15 18:12:11.924846	173.7	68.6	-70.5	0.0
2026-01-15 18:12:14.161351	174.3	69.6	-70.8	0.0
2026-01-15 18:12:16.393855	175.0	70.6	-70.7	0.0
2026-01-15 18:12:18.632360	175.7	71.6	-70.7	0.0
2026-01-15 18:12:20.868369	176.6	72.7	-70.3	0.0
2026-01-15 18:12:23.103874	177.5	73.7	-70.7	0.0
2026-01-15 18:12:25.342379	178.6	74.8	-70.6	0.0
2026-01-15 18:12:27.583886	179.9	75.8	-70.8	0.0
2026-01-15 18:12:29.829897	181.3	76.9	-70.8	0.0
2026-01-15 18:12:32.069403	183.1	78.0	-71.0	0.0
2026-01-15 18:12:34.305412	185.1	79.0	-71.0	0.0
2026-01-15 18:12:36.541917	187.7	80.0	-70.6	0.0
2026-01-15 18:12:38.780423	190.8	81.1	-70.9	0.0
2026-01-15 18:12:41.013431	194.6	82.0	-69.7	0.0
2026-01-15 18:12:43.247440	199.6	83.0	-70.3	0.0
2026-01-15 18:12:45.481944	206.1	83.9	-70.1	0.0
2026-01-15 18:12:47.716953	214.6	84.7	-70.3	0.0
2026-01-15 18:12:49.952458	225.7	85.3	-70.3	0.0
2026-01-15 18:12:52.188963	239.6	85.7	-70.2	0.0
2026-01-15 18:12:54.423467	255.2	85.8	-70.6	0.0
2026-01-15 18:12:56.657972	270.5	85.6	-70.3	0.0
2026-01-15 18:12:58.897982	283.6	85.1	-70.4	0.0
2026-01-15 18:13:01.136488	294.0	84.5	-69.8	0.0
2026-01-15 18:13:03.366991	301.9	83.7	-70.1	0.0
2026-01-15 18:13:05.604497	307.9	82.7	-70.1	0.0
2026-01-15 18:13:07.841002	312.6	81.8	-69.9	0.0
2026-01-15 18:13:10.080508	316.2	80.8	-70.2	0.0
2026-01-15 18:13:12.322014	319.2	79.8	-70.2	0.0
2026-01-15 18:13:14.556022	321.5	78.7	-70.3	0.0
2026-01-15 18:13:16.795032	323.5	77.7	-70.2	0.0
2026-01-15 18:13:19.030041	325.2	76.6	-68.8	0.0
2026-01-15 18:13:21.265050	326.6	75.6	-69.6	0.0
2026-01-15 18:13:23.498555	327.8	74.5	-67.4	0.0
2026-01-15 18:13:25.732059	328.8	73.5	-68.3	0.0
2026-01-15 18:13:27.969069	329.7	72.4	-69.1	0.0
2026-01-15 18:13:30.202573	330.6	71.4	-69.3	0.0
2026-01-15 18:13:32.439078	331.3	70.4	-68.3	0.0
2026-01-15 18:13:34.683585	331.9	69.3	-68.7	0.0
2026-01-15 18:13:36.928595	332.5	68.3	-69.7	0.0
2026-01-15 18:13:39.173148	333.0	67.3	-68.3	0.0
2026-01-15 18:13:41.415678	333.5	66.3	-69.1	0.0
2026-01-15 18:13:43.656720	334.0	65.3	-68.6	0.0
2026-01-15 18:13:45.893730	334.4	64.4	-69.1	0.0
2026-01-15 18:13:48.126234	334.7	63.4	-66.8	0.0
2026-01-15 18:13:50.359739	335.1	62.4	-67.5	0.0
2026-01-15 18:13:52.593243	335.4	61.5	-68.9	0.0
2026-01-15 18:13:54.827748	335.7	60.6	-68.6	0.0
2026-01-15 18:13:57.065253	336.0	59.7	-69.2	0.0
2026-01-15 18:13:59.295757	336.2	58.8	-67.7	0.0
2026-01-15 18:14:01.530261	336.5	57.9	-68.3	0.0
2026-01-15 18:14:03.761765	336.7	57.0	-69.1	0.0
2026-01-15 18:14:05.994269	336.9	56.2	-68.2	0.0
2026-01-15 18:14:08.226781	337.1	55.3	-68.9	0.0
2026-01-15 18:14:10.459285	337.3	54.5	-69.3	0.0
2026-01-15 18:14:12.690789	337.5	53.7	-69.0	0.0
2026-01-15 18:14:14.923293	337.6	52.9	-68.8	0.0
2026-01-15 18:14:17.168801	337.8	52.1	-68.4	0.0
2026-01-15 18:14:19.412811	337.9	51.3	-68.7	0.0
2026-01-15 18:14:21.657318	338.1	50.5	-68.7	0.0
2026-01-15 18:14:23.903826	338.2	49.8	-69.3	0.0
2026-01-15 18:14:26.149333	338.4	49.0	-69.9	0.0
2026-01-15 18:14:28.393840	338.5	48.3	-69.4	0.0
2026-01-15 18:14:30.636850	338.6	47.5	-69.2	0.0
2026-01-15 18:14:32.880862	338.7	46.8	-68.1	0.0
2026-01-15 18:14:35.121368	338.8	46.1	-68.6	0.0
2026-01-15 18:14:37.353872	338.9	45.5	-69.4	0.0
2026-01-15 18:14:39.588377	339.1	44.8	-68.1	0.0
2026-01-15 18:14:41.823386	339.1	44.1	-68.1	0.0
2026-01-15 18:14:44.060891	339.2	43.5	-68.8	0.0
2026-01-15 18:14:46.295900	339.3	42.8	-67.5	0.0
2026-01-15 18:14:48.528405	339.4	42.2	-68.9	0.0
2026-01-15 18:14:50.766414	339.5	41.6	-68.4	0.0
2026-01-15 18:14:53.000918	339.6	41.0	-68.4	0.0
2026-01-15 18:14:55.247930	339.7	40.4	-69.2	0.0
2026-01-15 18:14:57.484435	339.8	39.8	-68.4	0.0
2026-01-15 18:14:59.718940	339.8	39.2	-68.0	0.0
2026-01-15 18:15:01.957446	339.9	38.6	-68.6	0.0
2026-01-15 18:15:04.206467	340.0	38.1	-68.2	0.0
2026-01-15 18:15:06.450973	340.0	37.5	-67.9	0.0
2026-01-15 18:15:08.695480	340.1	37.0	-67.1	0.0
2026-01-15 18:15:10.939492	340.2	36.4	-68.1	0.0
2026-01-15 18:15:13.182510	340.2	35.9	-66.2	0.0
2026-01-15 18:15:15.426025	340.3	35.4	-68.0	0.0
2026-01-15 18:15:17.670542	340.4	34.9	-67.7	0.0
2026-01-15 18:15:19.914057	340.4	34.4	-67.0	0.0
2026-01-15 18:15:22.158564	340.5	33.9	-67.6	0.0
2026-01-15 18:15:24.403071	340.5	33.4	-67.7	0.0
2026-01-15 18:15:26.647578	340.6	32.9	-67.4	0.0
2026-01-15 18:15:28.891589	340.6	32.5	-66.5	0.0
2026-01-15 18:15:31.136096	340.7	32.0	-67.2	0.0
2026-01-15 18:15:33.380603	340.7	31.5	-67.4	0.0
2026-01-15 18:15:35.625109	340.8	31.1	-68.2	0.0
2026-01-15 18:15:37.874617	340.8	30.7	-67.0	0.0
2026-01-15 18:15:40.119124	340.9	30.2	-67.2	0.0
2026-01-15 18:15:42.363631	340.9	29.8	-65.7	0.0
2026-01-15 18:15:44.608138	341.0	29.4	-65.6	0.0
2026-01-15 18:15:46.852645	341.0	29.0	-66.0	0.0
2026-01-15 18:15:49.097152	341.1	28.5	-67.7	0.0
2026-01-15 18:15:51.341659	341.1	28.1	-67.0	0.0
2026-01-15 18:15:53.585670	341.1	27.7	-67.4	0.0
2026-01-15 18:15:55.830176	341.2	27.3	-67.3	0.0
2026-01-15 18:15:58.074684	341.2	27.0	-67.4	0.0
2026-01-15 18:16:00.317208	341.3	26.6	-67.3	0.0
2026-01-15 18:16:02.562716	341.3	26.2	-67.6	0.0
2026-01-15 18:16:04.807222	341.3	25.8	-67.1	0.0
2026-01-15 18:16:07.051729	341.4	25.5	-67.4	0.0
2026-01-15 18:16:09.295244	341.4	25.1	-67.3	0.0
2026-01-15 18:16:11.539751	341.4	24.8	-67.0	0.0
2026-01-15 18:16:13.783762	341.5	24.4	-66.9	0.0
2026-01-15 18:16:16.028269	341.5	24.1	-66.7	0.0
2026-01-15 18:16:18.273281	341.5	23.7	-66.7	0.0
2026-01-15 18:16:20.517787	341.6	23.4	-67.3	0.0
2026-01-15 18:16:22.762294	341.6	23.0	-67.5	0.0
2026-01-15 18:16:25.009821	341.6	22.7	-67.5	0.0
2026-01-15 18:16:27.254328	341.7	22.4	-66.7	0.0
2026-01-15 18:16:29.498339	341.7	22.1	-66.9	0.0
2026-01-15 18:16:31.742845	341.7	21.8	-66.6	0.0
2026-01-15 18:16:33.992363	341.8	21.4	-67.4	0.0
2026-01-15 18:16:36.236869	341.8	21.1	-66.4	0.0
2026-01-15 18:16:38.481376	341.8	20.8	-66.6	0.0
2026-01-15 18:16:40.725387	341.9	20.5	-66.0	0.0
2026-01-15 18:16:42.969894	341.9	20.2	-66.2	0.6
2026-01-15 18:16:45.214401	341.9	19.9	-66.4	0.1
2026-01-15 18:16:47.458908	341.9	19.6	-66.2	0.0
2026-01-15 18:16:49.703919	342.0	19.4	-66.6	0.0
2026-01-15 18:16:51.947435	342.0	19.1	-66.3	0.0
2026-01-15 18:16:54.191446	342.0	18.8	-66.1	0.0
2026-01-15 18:16:56.435953	342.1	18.5	-65.9	2.6
2026-01-15 18:16:58.684460	342.1	18.2	-65.5	0.0
2026-01-15 18:17:00.927976	342.1	18.0	-64.8	0.0
2026-01-15 18:17:03.172482	342.1	17.7	-65.2	0.0
2026-01-15 18:17:05.418493	342.2	17.4	-66.2	0.0
2026-01-15 18:17:07.664000	342.2	17.2	-65.5	0.9
2026-01-15 18:17:09.908508	342.2	16.9	-65.5	0.0
2026-01-15 18:17:12.153014	342.2	16.7	-66.8	2.0
2026-01-15 18:17:14.402026	342.3	16.4	-65.7	1.5
2026-01-15 18:17:16.646533	342.3	16.1	-65.9	0.8
2026-01-15 18:17:18.891040	342.3	15.9	-65.3	1.2
2026-01-15 18:17:21.134556	342.3	15.6	-65.3	0.0
2026-01-15 18:17:23.383568	342.4	15.4	-65.4	0.0
2026-01-15 18:17:25.628075	342.4	15.2	-65.9	0.9
2026-01-15 18:17:27.872582	342.4	14.9	-66.0	2.7
2026-01-15 18:17:30.120595	342.4	14.7	-65.5	2.0
2026-01-15 18:17:32.365102	342.4	14.5	-65.9	3.3
2026-01-15 18:17:34.609113	342.5	14.2	-65.6	2.1
2026-01-15 18:17:36.853132	342.5	14.0	-64.4	0.0
2026-01-15 18:17:39.096697	342.5	13.8	-64.5	0.0
2026-01-15 18:17:41.341213	342.5	13.5	-65.1	0.0
2026-01-15 18:17:43.585719	342.6	13.3	-64.6	0.0
2026-01-15 18:17:45.830768	342.6	13.1	-65.0	0.0
2026-01-15 18:17:48.074787	342.6	12.9	-65.7	1.6
2026-01-15 18:17:50.319332	342.6	12.7	-65.3	2.6
2026-01-15 18:17:52.563838	342.6	12.4	-65.0	1.6
2026-01-15 18:17:54.810413	342.7	12.2	-65.0	2.4
2026-01-15 18:17:57.054433	342.7	12.0	-65.5	2.9
2026-01-15 18:17:59.298987	342.7	11.8	-65.4	1.3
2026-01-15 18:18:01.543036	342.7	11.6	-65.4	0.0
2026-01-15 18:18:03.794049	342.7	11.4	-65.4	0.0
2026-01-15 18:18:06.037597	342.8	11.2	-65.3	1.7
2026-01-15 18:18:08.282617	342.8	11.0	-65.0	1.4
2026-01-15 18:18:10.527163	342.8	10.8	-65.0	3.2
2026-01-15 18:18:12.770688	342.8	10.6	-65.3	2.2
2026-01-15 18:18:15.014708	342.8	10.4	-65.4	2.5
2026-01-15 18:18:17.258756	342.9	10.2	-65.0	1.4
2026-01-15 18:18:19.501281	342.9	10.0	-65.0	1.0
2026-01-15 18:18:21.745325	342.9	9.8	-65.4	2.0
2026-01-15 18:18:23.989344	342.9	9.6	-65.2	0.0
2026-01-15 18:18:26.233850	342.9	9.4	-64.8	0.0
2026-01-15 18:18:28.478396	343.0	9.2	-64.1	0.0
2026-01-15 18:18:30.722414	343.0	9.0	-63.4	0.0
2026-01-15 18:18:32.966960	343.0	8.8	-63.7	0.0
2026-01-15 18:18:35.210980	343.0	8.7	-65.2	0.2
2026-01-15 18:18:37.456032	343.0	8.5	-64.8	0.0
2026-01-15 18:18:39.700057	343.0	8.3	-64.9	0.0
2026-01-15 18:18:41.944108	343.1	8.1	-64.1	0.0
2026-01-15 18:18:44.188615	343.1	7.9	-64.7	0.2
2026-01-15 18:18:46.432131	343.1	7.8	-64.9	0.0
2026-01-15 18:18:48.676638	343.1	7.6	-64.4	0.0
2026-01-15 18:18:50.921144	343.1	7.4	-64.4	0.0
2026-01-15 18:18:53.165651	343.1	7.2	-63.5	0.0
2026-01-15 18:18:55.410158	343.2	7.1	-64.8	0.0
2026-01-15 18:18:57.654665	343.2	6.9	-64.7	0.0
2026-01-15 18:18:59.899172	343.2	6.7	-64.4	0.0
2026-01-15 18:19:02.145184	343.2	6.5	-64.1	0.0
2026-01-15 18:19:04.389196	343.2	6.4	-63.8	0.0
2026-01-15 18:19:06.633205	343.3	6.2	-63.9	0.0
2026-01-15 18:19:08.879725	343.3	6.0	-64.5	0.0
2026-01-15 18:19:11.124232	343.3	5.9	-65.7	5.7
2026-01-15 18:19:13.368739	343.3	5.7	-68.8	0.0
2026-01-15 18:19:15.613246	343.3	5.5	-68.8	0.0
2026-01-15 18:19:17.858257	343.3	5.4	-68.1	0.0
2026-01-15 18:19:20.102765	343.4	5.2	-69.6	0.0
2026-01-15 18:19:22.346775	343.4	5.1	-70.3	0.0
#Closed at: 2026-01-15 18:06:23.098969