passes_logs/2026/01/13/R3.2S_Murmansk/R3.2S_Murmansk__20260113_104426_AQUA_rec.log

#Pass ID: 20260113_104426_AQUA
#Satellite: AQUA
#Configuration: AQUA
#almurnet v.1.7.20251203
#Start time: 2026-01-13 10:44:28

#Version: 2.2.20231116
#Station: R3.2S_Murmansk
#Location: 33.079688 lon 68.888172 lat
#TLE: 1 27424U 02022A   26013.18153243  .00000837  00000+0  17739-3 0  9991
#TLE: 2 27424  98.4079 339.5784 0002044  80.4993   9.3142 14.61818197260621

#Time	Az	El	Level	Level2	SNR	BER	BlckErr	Temp	State	Recorded	gain1	gain2
2026-01-13 10:44:28.64	138.92	2.14	-57.6	-77.0	3.8	7.48e-01	0	24	0	0	84	32553
2026-01-13 10:44:32.61	138.86	2.41	-57.4	-76.7	3.8	7.47e-01	0	25	104	0	82	35686
2026-01-13 10:44:36.58	138.79	2.67	-57.4	-76.6	3.8	7.43e-01	0	25	104	0	82	34896
2026-01-13 10:44:40.56	138.73	2.95	-57.4	-76.6	3.8	7.47e-01	0	25	104	0	82	35110
2026-01-13 10:44:44.52	138.66	3.22	-57.4	-76.2	3.8	7.45e-01	0	25	104	0	82	33334
2026-01-13 10:44:48.50	138.60	3.50	-57.3	-73.1	4.2	7.38e-01	0	25	104	0	82	23431
2026-01-13 10:44:52.47	138.53	3.78	-56.9	-66.9	7.9	6.43e-01	10	25	0	4718592	82	11463
2026-01-13 10:44:56.44	138.46	4.06	-56.4	-63.7	10.6	6.16e-01	0	25	0	12058624	82	7971
2026-01-13 10:45:00.41	138.38	4.35	-54.9	-59.3	13.6	6.08e-01	0	25	0	19398656	79	5681
2026-01-13 10:45:04.38	138.31	4.64	-52.5	-55.2	15.0	6.05e-01	0	25	0	26738688	74	4749
2026-01-13 10:45:08.37	138.23	4.93	-52.2	-54.8	14.9	6.05e-01	0	25	0	34078720	72	5051
2026-01-13 10:45:12.36	138.15	5.23	-52.0	-54.4	15.1	6.06e-01	0	25	0	41943040	73	4574
2026-01-13 10:45:16.35	138.07	5.54	-51.9	-54.3	15.1	6.05e-01	0	25	0	49283072	72	4805
2026-01-13 10:45:20.32	137.99	5.84	-51.8	-54.1	15.1	6.06e-01	0	26	0	56623104	72	4698
2026-01-13 10:45:24.29	137.90	6.15	-51.3	-53.4	15.2	6.07e-01	0	26	0	63963136	71	4591
2026-01-13 10:45:28.27	137.82	6.46	-51.2	-53.4	15.3	6.05e-01	0	26	0	71827456	71	4551
2026-01-13 10:45:32.24	137.73	6.78	-51.2	-53.3	15.3	6.06e-01	0	26	0	79167488	71	4540
2026-01-13 10:45:36.21	137.63	7.10	-51.0	-53.0	15.4	6.07e-01	0	26	0	86507520	71	4361
2026-01-13 10:45:40.19	137.54	7.43	-50.9	-53.0	15.3	6.07e-01	0	26	0	93847552	70	4615
2026-01-13 10:45:44.17	137.44	7.76	-50.8	-52.9	15.3	6.10e-01	0	26	0	101187584	70	4547
2026-01-13 10:45:48.14	137.34	8.10	-50.8	-52.7	15.4	6.07e-01	0	26	0	109051904	70	4492
2026-01-13 10:45:52.13	137.24	8.44	-50.6	-52.5	15.4	6.06e-01	0	26	0	116391936	70	4389
2026-01-13 10:45:56.10	137.13	8.78	-50.5	-52.4	15.5	6.08e-01	0	26	0	123731968	70	4331
2026-01-13 10:46:00.08	137.02	9.14	-50.5	-52.4	15.5	6.06e-01	0	26	0	131072000	70	4339
2026-01-13 10:46:04.05	136.91	9.49	-50.4	-52.3	15.5	6.05e-01	0	26	0	138936320	70	4259
2026-01-13 10:46:08.03	136.79	9.86	-50.4	-52.2	15.6	6.08e-01	0	26	0	146276352	70	4241
2026-01-13 10:46:12.00	136.67	10.22	-50.1	-51.9	15.5	6.06e-01	0	26	0	153616384	69	4303
2026-01-13 10:46:15.98	136.55	10.60	-50.0	-51.8	15.5	6.06e-01	0	26	0	160956416	69	4277
2026-01-13 10:46:19.97	136.42	10.98	-50.0	-51.8	15.5	6.05e-01	0	26	0	168296448	69	4278
2026-01-13 10:46:23.94	136.29	11.37	-49.9	-51.7	15.4	6.08e-01	0	26	0	176160768	68	4455
2026-01-13 10:46:27.90	136.16	11.76	-49.9	-51.7	15.4	6.06e-01	0	26	0	183500800	68	4444
2026-01-13 10:46:31.88	136.02	12.16	-49.9	-51.7	15.4	6.07e-01	0	26	0	190840832	68	4447
2026-01-13 10:46:35.85	135.87	12.57	-49.8	-51.6	15.5	6.06e-01	0	26	0	198180864	68	4396
2026-01-13 10:46:39.83	135.72	12.99	-49.8	-51.5	15.5	6.07e-01	0	26	0	205520896	68	4371
2026-01-13 10:46:43.79	135.57	13.41	-49.8	-51.5	15.5	6.08e-01	0	26	0	213385216	68	4383
2026-01-13 10:46:47.69	135.41	13.83	-49.8	-51.6	15.5	6.07e-01	0	26	0	220725248	68	4398
2026-01-13 10:46:51.66	135.25	14.27	-49.9	-51.6	15.4	6.05e-01	0	26	0	228065280	68	4428
2026-01-13 10:46:55.65	135.08	14.72	-49.8	-51.5	15.5	6.07e-01	0	26	0	235405312	68	4358
2026-01-13 10:46:59.63	134.90	15.18	-49.5	-51.2	15.6	6.07e-01	0	26	0	243269632	68	4204
2026-01-13 10:47:03.61	134.71	15.65	-49.4	-51.1	15.6	6.06e-01	0	26	0	250609664	68	4146
2026-01-13 10:47:07.59	134.52	16.13	-49.3	-50.9	15.5	6.07e-01	0	26	0	257949696	67	4334
2026-01-13 10:47:11.57	134.33	16.61	-49.3	-51.0	15.5	6.06e-01	0	26	0	265289728	67	4353
2026-01-13 10:47:15.53	134.12	17.11	-49.7	-51.4	15.4	6.06e-01	0	26	0	273154048	67	4552
2026-01-13 10:47:19.50	133.91	17.62	-49.7	-51.3	15.4	6.06e-01	0	26	0	280494080	67	4543
2026-01-13 10:47:23.47	133.69	18.14	-49.5	-51.2	15.4	6.03e-01	0	26	0	287834112	67	4478
2026-01-13 10:47:27.46	133.46	18.67	-49.5	-51.1	15.4	6.08e-01	0	26	0	295174144	67	4424
2026-01-13 10:47:31.44	133.22	19.22	-49.2	-50.9	15.5	6.07e-01	0	26	0	302514176	67	4299
2026-01-13 10:47:35.41	132.98	19.77	-49.4	-51.0	15.5	6.07e-01	0	26	0	310378496	67	4387
2026-01-13 10:47:39.39	132.72	20.35	-49.6	-51.3	15.4	6.05e-01	0	26	0	317718528	67	4531
2026-01-13 10:47:43.36	132.45	20.93	-49.7	-51.4	15.4	6.06e-01	0	26	0	325058560	67	4586
2026-01-13 10:47:47.32	132.17	21.53	-49.9	-51.6	15.3	6.05e-01	0	26	0	332398592	67	4677
2026-01-13 10:47:51.28	131.88	22.14	-49.7	-51.4	15.4	6.09e-01	0	26	0	339738624	67	4582
2026-01-13 10:47:55.27	131.57	22.77	-49.7	-51.4	15.4	6.05e-01	0	26	0	347078656	67	4554
2026-01-13 10:47:59.26	131.25	23.42	-49.8	-51.6	15.4	6.07e-01	0	26	0	354942976	67	4652
2026-01-13 10:48:03.23	130.91	24.08	-49.8	-51.5	15.3	6.06e-01	0	26	0	362283008	67	4648
2026-01-13 10:48:07.20	130.56	24.76	-49.7	-51.3	15.4	6.06e-01	0	26	0	369623040	67	4532
2026-01-13 10:48:11.16	130.19	25.46	-50.1	-61.6	3.8	7.46e-01	0	26	104	373293056	68	13924
2026-01-13 10:48:15.16	129.81	26.18	-52.6	-64.5	3.8	7.47e-01	0	26	104	373293056	74	13747
2026-01-13 10:48:19.15	129.40	26.92	-49.8	-61.2	3.8	7.49e-01	0	26	104	373293056	68	13338
2026-01-13 10:48:23.14	128.97	27.68	-52.2	-63.6	4.0	7.39e-01	0	26	104	373293056	73	13146
2026-01-13 10:48:27.14	128.52	28.47	-49.8	-61.0	3.8	7.44e-01	0	26	104	373293056	68	13047
2026-01-13 10:48:31.12	128.04	29.27	-52.4	-64.2	3.9	7.46e-01	0	26	104	373293056	74	13340
2026-01-13 10:48:35.10	127.54	30.10	-49.4	-60.7	3.9	7.45e-01	0	26	104	373293056	67	13305
2026-01-13 10:48:39.09	127.01	30.95	-52.2	-63.8	3.9	7.47e-01	0	26	104	373293056	73	13523
2026-01-13 10:48:43.06	126.45	31.82	-49.4	-60.7	3.8	7.44e-01	0	26	104	373293056	67	13352
2026-01-13 10:48:47.05	125.86	32.72	-52.8	-64.3	3.8	7.43e-01	0	26	104	373293056	74	13566
2026-01-13 10:48:51.03	125.23	33.65	-50.0	-61.4	3.8	7.45e-01	0	26	104	373293056	68	13580
2026-01-13 10:48:55.03	124.56	34.60	-54.6	-67.0	3.8	7.45e-01	0	26	104	373293056	78	14630
2026-01-13 10:48:59.02	123.85	35.59	-51.2	-62.6	3.8	7.48e-01	0	26	104	373293056	71	13235
2026-01-13 10:49:03.00	123.09	36.59	-54.5	-66.9	3.8	7.45e-01	0	26	104	373293056	78	14464
2026-01-13 10:49:06.99	122.28	37.63	-51.5	-63.0	3.9	7.45e-01	0	26	104	373293056	72	13025
2026-01-13 10:49:10.97	121.42	38.69	-55.0	-67.6	3.8	7.46e-01	0	26	104	373293056	78	15706
2026-01-13 10:49:14.95	120.50	39.78	-51.9	-63.6	3.8	7.47e-01	0	26	104	373293056	72	13982
2026-01-13 10:49:18.93	119.51	40.89	-54.7	-67.2	3.8	7.45e-01	0	26	104	373293056	78	14915
2026-01-13 10:49:22.91	118.44	42.04	-51.4	-63.0	3.9	7.47e-01	0	26	104	373293056	72	13012
2026-01-13 10:49:26.89	117.30	43.21	-54.3	-66.6	3.8	7.47e-01	0	26	104	373293056	77	14740
2026-01-13 10:49:30.88	116.06	44.40	-50.7	-62.0	3.8	7.42e-01	0	26	104	373293056	70	13047
2026-01-13 10:49:34.87	114.72	45.62	-54.5	-66.8	3.9	7.48e-01	0	26	104	373293056	78	14211
2026-01-13 10:49:38.85	113.27	46.86	-51.1	-62.7	3.9	7.42e-01	0	26	104	373293056	71	13308
2026-01-13 10:49:42.82	111.71	48.11	-54.5	-66.9	3.8	7.47e-01	0	26	104	373293056	78	14475
2026-01-13 10:49:46.80	110.00	49.38	-50.9	-62.3	3.8	7.47e-01	0	26	104	373293056	71	12712
2026-01-13 10:49:50.78	108.15	50.66	-54.2	-66.3	3.9	7.43e-01	0	26	104	373293056	77	14326
2026-01-13 10:49:54.76	106.12	51.93	-50.0	-61.3	3.9	7.44e-01	0	26	104	373293056	69	12731
2026-01-13 10:49:58.74	103.92	53.21	-52.8	-64.5	3.9	7.49e-01	0	26	104	373293056	74	13878
2026-01-13 10:50:02.72	101.51	54.46	-49.7	-61.0	3.9	7.44e-01	0	26	104	373293056	68	12967
2026-01-13 10:50:06.71	98.87	55.70	-54.8	-67.2	3.8	7.44e-01	0	26	104	373293056	78	14946
2026-01-13 10:50:10.71	95.99	56.90	-51.4	-62.9	3.9	7.47e-01	0	26	104	373293056	71	13591
2026-01-13 10:50:14.72	92.83	58.06	-53.2	-64.9	3.9	7.47e-01	0	26	104	373293056	75	13706
2026-01-13 10:50:18.70	89.42	59.14	-51.4	-62.9	3.9	7.42e-01	0	26	104	373293056	72	12908
2026-01-13 10:50:22.68	85.73	60.14	-54.4	-66.4	3.9	7.41e-01	0	26	104	373293056	78	13703
2026-01-13 10:50:26.68	81.73	61.04	-51.9	-63.5	3.9	7.46e-01	0	26	104	373293056	72	13856
2026-01-13 10:50:30.65	77.48	61.82	-55.4	-68.3	3.9	7.42e-01	0	26	104	373293056	80	15104
2026-01-13 10:50:34.63	72.97	62.46	-52.8	-64.6	3.8	7.48e-01	0	26	104	373293056	74	13942
2026-01-13 10:50:38.61	68.25	62.95	-55.8	-68.6	3.9	7.48e-01	0	26	104	373293056	80	15709
2026-01-13 10:50:42.59	63.35	63.28	-53.2	-65.2	3.8	7.46e-01	0	26	104	373293056	75	14153
2026-01-13 10:50:46.56	58.37	63.42	-56.0	-69.1	3.8	7.43e-01	0	26	104	373293056	81	15739
2026-01-13 10:50:50.54	53.36	63.39	-53.0	-64.7	3.8	7.43e-01	0	26	104	373293056	75	13370
2026-01-13 10:50:54.55	48.36	63.18	-55.9	-68.4	3.8	7.46e-01	0	26	104	373293056	81	14499
2026-01-13 10:50:58.52	43.53	62.80	-53.5	-65.5	3.8	7.49e-01	0	26	104	373293056	76	13784
2026-01-13 10:51:02.52	38.86	62.25	-56.5	-69.8	3.8	7.45e-01	0	26	104	373293056	82	16021
2026-01-13 10:51:06.49	34.45	61.56	-52.3	-63.8	3.8	7.47e-01	0	26	104	373293056	73	13424
2026-01-13 10:51:10.49	30.27	60.73	-55.3	-68.2	3.8	7.44e-01	0	26	104	373293056	80	15017
2026-01-13 10:51:14.47	26.40	59.79	-52.3	-63.8	3.8	7.46e-01	0	26	104	373293056	73	13444
2026-01-13 10:51:18.44	22.83	58.77	-56.4	-69.5	3.9	7.43e-01	0	26	104	373293056	82	15534
2026-01-13 10:51:22.41	19.53	57.66	-51.6	-63.1	3.8	7.43e-01	0	26	104	373293056	72	13211
2026-01-13 10:51:26.39	16.49	56.50	-55.7	-68.4	3.8	7.45e-01	0	26	104	373293056	80	15255
2026-01-13 10:51:30.40	13.69	55.28	-50.2	-61.7	3.9	7.48e-01	0	26	104	373293056	69	13271
2026-01-13 10:51:34.38	11.14	54.04	-55.4	-68.1	3.8	7.44e-01	0	26	104	373293056	80	14743
2026-01-13 10:51:38.37	8.80	52.78	-49.7	-61.0	3.8	7.44e-01	0	26	104	373293056	68	13019
2026-01-13 10:51:42.35	6.67	51.51	-55.7	-68.4	3.8	7.47e-01	0	26	104	373293056	80	15264
2026-01-13 10:51:46.31	4.72	50.24	-50.5	-61.9	3.8	7.45e-01	0	26	104	373293056	69	13571
2026-01-13 10:51:50.27	2.93	48.97	-56.7	-70.2	3.9	7.46e-01	0	26	104	373293056	82	16845
2026-01-13 10:51:54.25	1.28	47.71	-50.1	-61.2	3.8	7.48e-01	0	26	104	373293056	69	12617
2026-01-13 10:51:58.23	359.75	46.47	-57.0	-70.9	3.9	7.45e-01	0	26	104	373293056	83	17128
2026-01-13 10:52:02.20	358.35	45.24	-50.4	-61.9	3.8	7.45e-01	0	26	104	373293056	69	13613
2026-01-13 10:52:06.17	357.05	44.04	-57.5	-71.7	3.9	7.44e-01	0	26	104	373293056	84	17727
2026-01-13 10:52:10.16	355.85	42.85	-50.9	-62.6	3.9	7.43e-01	0	26	104	373293056	70	13947
2026-01-13 10:52:14.14	354.73	41.70	-57.9	-72.4	3.9	7.41e-01	0	26	104	373293056	85	18296
2026-01-13 10:52:18.12	353.69	40.57	-51.8	-63.3	3.8	7.45e-01	0	26	104	373293056	72	13563
2026-01-13 10:52:22.09	352.73	39.46	-58.3	-73.9	3.9	7.47e-01	0	26	104	373293056	85	21707
2026-01-13 10:52:26.06	351.83	38.39	-52.0	-63.6	3.8	7.46e-01	0	26	104	373293056	73	13131
2026-01-13 10:52:30.04	350.99	37.34	-58.5	-74.4	3.9	7.45e-01	0	26	104	373293056	85	22999
2026-01-13 10:52:34.02	350.20	36.32	-51.8	-63.1	3.8	7.46e-01	0	26	104	373293056	72	13257
2026-01-13 10:52:38.01	349.46	35.32	-58.5	-74.6	3.8	7.47e-01	0	26	104	373293056	85	23379
2026-01-13 10:52:42.00	348.76	34.35	-51.3	-62.7	3.8	7.50e-01	0	26	104	373293056	71	13346
2026-01-13 10:52:45.98	348.11	33.41	-58.5	-74.4	3.8	7.45e-01	0	26	104	373293056	84	24321
2026-01-13 10:52:49.93	347.50	32.51	-50.7	-62.1	3.8	7.46e-01	0	26	104	373293056	70	13168
2026-01-13 10:52:53.92	346.92	31.62	-58.5	-74.5	3.8	7.47e-01	0	26	104	373293056	84	24459
2026-01-13 10:52:57.90	346.37	30.75	-50.4	-61.8	3.9	7.46e-01	0	26	104	373293056	70	12671
2026-01-13 10:53:01.87	345.85	29.91	-58.4	-74.6	3.8	7.46e-01	0	26	104	373293056	84	24803
2026-01-13 10:53:05.85	345.36	29.10	-50.3	-61.6	3.8	7.44e-01	0	26	104	373293056	69	13186
2026-01-13 10:53:09.84	344.90	28.30	-58.1	-73.9	3.8	7.45e-01	0	26	104	373293056	83	24230
2026-01-13 10:53:13.81	344.46	27.53	-50.6	-61.8	3.9	7.45e-01	0	26	104	373293056	70	12751
2026-01-13 10:53:17.78	344.04	26.78	-58.4	-74.5	3.8	7.49e-01	0	26	104	373293056	84	24628
2026-01-13 10:53:21.76	343.64	26.05	-50.9	-62.2	3.8	7.48e-01	0	26	104	373293056	70	13409
2026-01-13 10:53:25.75	343.26	25.34	-58.1	-74.1	3.8	7.45e-01	0	26	104	373293056	83	24927
2026-01-13 10:53:29.74	342.90	24.64	-51.2	-62.7	3.8	7.48e-01	0	26	104	373293056	71	13372
2026-01-13 10:53:33.74	342.55	23.96	-58.1	-74.2	3.8	7.47e-01	0	26	104	373293056	83	25111
2026-01-13 10:53:37.72	342.22	23.31	-51.3	-62.8	3.8	7.44e-01	0	26	104	373293056	71	13420
2026-01-13 10:53:41.71	341.90	22.67	-57.9	-73.5	3.8	7.51e-01	0	26	104	373293056	83	23266
2026-01-13 10:53:45.69	341.60	22.04	-51.0	-62.5	3.9	7.43e-01	0	26	104	373293056	71	13040
2026-01-13 10:53:49.66	341.32	21.43	-57.7	-73.2	3.8	7.48e-01	0	26	104	373293056	83	22321
2026-01-13 10:53:53.63	341.04	20.84	-51.1	-62.5	3.8	7.50e-01	0	26	104	373293056	71	13062
2026-01-13 10:53:57.61	340.78	20.26	-57.4	-72.1	3.8	7.48e-01	0	26	104	373293056	82	20955
2026-01-13 10:54:01.59	340.52	19.70	-51.2	-62.7	3.9	7.43e-01	0	26	104	373293056	71	13299
2026-01-13 10:54:05.56	340.28	19.14	-56.8	-62.0	12.8	6.04e-01	0	26	0	376963072	81	6887
2026-01-13 10:54:09.54	340.04	18.60	-50.5	-52.2	15.5	6.05e-01	0	26	0	384303104	70	4216
2026-01-13 10:54:13.49	339.82	18.08	-50.0	-51.7	15.6	6.04e-01	0	26	0	391643136	69	4218
2026-01-13 10:54:17.46	339.61	17.56	-50.0	-51.8	15.5	6.03e-01	0	26	0	398983168	69	4247
2026-01-13 10:54:21.43	339.40	17.06	-50.2	-51.9	15.5	6.03e-01	0	26	0	406323200	69	4312
2026-01-13 10:54:25.42	339.20	16.57	-50.1	-51.8	15.5	6.03e-01	0	26	0	414187520	69	4275
2026-01-13 10:54:29.41	339.00	16.08	-50.2	-51.9	15.5	6.03e-01	0	26	0	421527552	69	4338
2026-01-13 10:54:33.39	338.82	15.61	-50.1	-51.8	15.5	6.04e-01	0	26	0	428867584	69	4286
2026-01-13 10:54:37.37	338.64	15.14	-50.0	-51.7	15.5	6.04e-01	0	26	0	436207616	69	4209
2026-01-13 10:54:41.35	338.46	14.69	-49.9	-51.6	15.4	6.01e-01	0	26	0	444071936	68	4404
2026-01-13 10:54:45.33	338.30	14.24	-49.9	-51.6	15.4	6.03e-01	0	26	0	451411968	68	4415
2026-01-13 10:54:49.29	338.14	13.81	-49.9	-51.6	15.4	6.03e-01	0	26	0	458752000	68	4429
2026-01-13 10:54:53.26	337.98	13.38	-50.0	-51.8	15.4	6.04e-01	0	26	0	466092032	68	4496
2026-01-13 10:54:57.24	337.83	12.96	-50.1	-51.8	15.3	6.02e-01	0	26	0	473956352	68	4537
2026-01-13 10:55:01.22	337.68	12.55	-50.1	-51.9	15.3	6.03e-01	0	26	0	481296384	68	4578
2026-01-13 10:55:05.20	337.54	12.14	-50.1	-51.9	15.3	6.03e-01	0	26	0	488636416	68	4572
2026-01-13 10:55:09.18	337.41	11.74	-50.3	-52.1	15.3	6.03e-01	0	26	0	495976448	68	4656
2026-01-13 10:55:13.16	337.27	11.35	-50.3	-52.1	15.3	6.04e-01	0	26	0	503316480	68	4657
2026-01-13 10:55:17.15	337.15	10.96	-50.4	-52.2	15.3	6.03e-01	0	26	0	511180800	68	4726
2026-01-13 10:55:21.13	337.02	10.59	-50.4	-52.2	15.2	6.02e-01	0	26	0	518520832	68	4721
2026-01-13 10:55:25.10	336.90	10.21	-50.4	-52.2	15.2	6.02e-01	0	26	0	525860864	68	4736
2026-01-13 10:55:29.07	336.78	9.85	-50.4	-52.3	15.2	6.04e-01	0	26	0	533200896	68	4784
2026-01-13 10:55:33.05	336.67	9.49	-50.5	-52.4	15.2	6.03e-01	0	26	0	541065216	68	4819
2026-01-13 10:55:37.01	336.56	9.14	-50.5	-52.3	15.2	6.00e-01	0	26	0	548405248	68	4809
2026-01-13 10:55:40.98	336.46	8.79	-50.4	-52.3	15.2	6.02e-01	0	26	0	555745280	68	4793
2026-01-13 10:55:44.96	336.35	8.44	-50.8	-52.7	15.2	6.05e-01	0	26	0	563085312	69	4719
2026-01-13 10:55:48.97	336.25	8.10	-50.9	-52.8	15.2	6.03e-01	0	26	0	570425344	69	4801
2026-01-13 10:55:52.95	336.16	7.77	-51.0	-53.0	15.1	6.02e-01	0	26	0	578289664	69	4902
2026-01-13 10:55:56.93	336.06	7.44	-51.2	-53.2	15.2	6.04e-01	0	26	0	585629696	70	4749
2026-01-13 10:56:00.91	335.97	7.11	-51.2	-53.2	15.2	6.03e-01	0	26	0	592969728	70	4758
2026-01-13 10:56:04.87	335.88	6.79	-51.3	-53.4	15.1	6.02e-01	0	26	0	600309760	70	4822
2026-01-13 10:56:08.84	335.79	6.48	-51.3	-53.5	15.1	6.02e-01	0	26	0	608174080	70	4882
2026-01-13 10:56:12.81	335.71	6.17	-51.4	-53.6	15.0	6.03e-01	0	26	0	615514112	70	4948
2026-01-13 10:56:16.80	335.63	5.86	-51.3	-53.5	15.1	6.03e-01	0	26	0	622854144	70	4881
2026-01-13 10:56:20.79	335.55	5.55	-51.5	-53.7	15.1	6.04e-01	0	26	0	630194176	71	4744
2026-01-13 10:56:24.78	335.47	5.25	-51.4	-53.6	15.1	6.01e-01	0	26	0	638058496	71	4699
2026-01-13 10:56:28.75	335.39	4.96	-56.7	-63.8	11.0	6.10e-01	0	26	0	645398528	81	8483
2026-01-13 10:56:32.77	335.32	4.66	-59.1	-78.5	3.8	7.45e-01	0	26	104	645922816	85	36634
2026-01-13 10:56:36.77	335.25	4.37	-59.6	-78.9	3.8	7.44e-01	0	26	104	645922816	86	36320
2026-01-13 10:56:40.79	335.18	4.08	-59.7	-79.1	3.8	7.51e-01	0	26	104	645922816	87	35093
2026-01-13 10:56:44.81	335.11	3.80	-59.9	-79.2	3.8	7.48e-01	0	26	104	645922816	87	35595
2026-01-13 10:56:48.83	335.04	3.51	-59.9	-79.3	3.8	7.49e-01	0	26	104	645922816	87	35712
2026-01-13 10:56:52.84	334.98	3.24	-59.8	-79.2	3.8	7.45e-01	0	26	104	645922816	87	35372
2026-01-13 10:56:56.81	334.91	2.96	-59.8	-79.1	3.9	7.47e-01	0	26	104	645922816	87	35258
2026-01-13 10:57:00.79	334.85	2.69	-59.8	-79.1	3.8	7.48e-01	0	26	104	645922816	87	35149
2026-01-13 10:57:04.77	334.79	2.42	-59.7	-79.1	3.8	7.43e-01	0	26	104	645922816	87	35061
2026-01-13 10:57:08.76	334.74	2.16	-59.7	-79.1	3.8	7.43e-01	0	26	104	645922816	87	35033
2026-01-13 10:57:12.75	334.68	1.90	-59.7	-79.1	3.8	7.47e-01	0	26	104	645922816	87	34971

#Closed at: 2026-01-13 10:57:12
#Recorded file [645 MB]: D:/lorett/data/31004_260113_134428.dat