passes_logs/2026/01/13/R3.2S_Murmansk/R3.2S_Murmansk__20260113_140148_AQUA_rec.log

#Pass ID: 20260113_140148_AQUA
#Satellite: AQUA
#Configuration: AQUA
#almurnet v.1.7.20251203
#Start time: 2026-01-13 14:01:49

#Version: 2.2.20231116
#Station: R3.2S_Murmansk
#Location: 33.079688 lon 68.888172 lat
#TLE: 1 27424U 02022A   26013.18153243  .00000837  00000+0  17739-3 0  9991
#TLE: 2 27424  98.4079 339.5784 0002044  80.4993   9.3142 14.61818197260621

#Time	Az	El	Level	Level2	SNR	BER	BlckErr	Temp	State	Recorded	gain1	gain2
2026-01-13 14:01:49.63	226.67	2.07	-58.0	-77.3	3.8	7.47e-01	0	24	0	0	85	32087
2026-01-13 14:01:52.64	226.96	2.22	-57.8	-77.1	3.8	7.47e-01	0	24	104	0	83	35236
2026-01-13 14:01:55.64	227.25	2.38	-57.8	-77.0	3.8	7.46e-01	0	25	104	0	83	34510
2026-01-13 14:01:58.65	227.55	2.54	-57.8	-77.1	3.8	7.47e-01	0	25	104	0	83	34996
2026-01-13 14:02:01.64	227.85	2.69	-57.8	-77.1	3.8	7.47e-01	0	25	104	0	83	35023
2026-01-13 14:02:04.62	228.16	2.85	-57.8	-76.9	3.8	7.48e-01	0	25	104	0	83	34112
2026-01-13 14:02:07.62	228.46	3.01	-57.8	-76.8	3.8	7.47e-01	0	25	104	0	83	34060
2026-01-13 14:02:10.63	228.78	3.17	-57.8	-77.0	3.8	7.45e-01	0	25	104	0	83	34757
2026-01-13 14:02:13.63	229.09	3.33	-57.8	-77.0	3.8	7.47e-01	0	25	104	0	83	34506
2026-01-13 14:02:16.64	229.41	3.48	-57.8	-76.8	3.8	7.48e-01	0	25	104	0	83	33957
2026-01-13 14:02:19.65	229.73	3.64	-57.8	-77.0	3.8	7.44e-01	0	25	104	0	83	34536
2026-01-13 14:02:22.65	230.06	3.80	-57.8	-77.2	3.8	7.45e-01	0	25	104	0	83	35429
2026-01-13 14:02:25.64	230.39	3.96	-57.9	-76.7	3.8	7.50e-01	0	25	104	0	83	33592
2026-01-13 14:02:28.64	230.72	4.12	-57.8	-75.1	3.9	7.41e-01	0	25	104	0	83	27920
2026-01-13 14:02:31.61	231.06	4.28	-57.8	-75.3	3.8	7.43e-01	0	25	104	0	83	28499
2026-01-13 14:02:34.60	231.40	4.44	-57.8	-73.8	4.2	7.34e-01	0	25	104	0	83	23860
2026-01-13 14:02:37.59	231.74	4.61	-57.1	-65.6	9.4	6.24e-01	0	25	0	3670016	83	9325
2026-01-13 14:02:40.60	232.09	4.77	-56.4	-62.4	12.0	6.08e-01	0	26	0	9437184	82	6840
2026-01-13 14:02:43.60	232.45	4.93	-53.7	-56.8	14.6	6.07e-01	0	26	0	14680064	76	5048
2026-01-13 14:02:46.60	232.80	5.09	-55.0	-59.0	13.9	6.07e-01	0	25	0	20447232	77	6151
2026-01-13 14:02:49.60	233.17	5.25	-52.0	-54.4	15.1	6.07e-01	0	25	0	26214400	73	4552
2026-01-13 14:02:52.60	233.53	5.42	-52.1	-54.5	15.2	6.07e-01	0	25	0	31981568	73	4618
2026-01-13 14:02:55.61	233.90	5.58	-52.0	-54.3	15.2	6.08e-01	0	25	0	37224448	73	4543
2026-01-13 14:02:58.60	234.28	5.74	-51.9	-54.2	15.1	6.05e-01	0	26	0	42991616	72	4710
2026-01-13 14:03:01.60	234.66	5.91	-51.9	-54.2	15.1	6.05e-01	0	25	0	48758784	72	4745
2026-01-13 14:03:04.60	235.04	6.07	-51.9	-54.1	15.1	6.04e-01	0	26	0	54001664	72	4700
2026-01-13 14:03:07.60	235.43	6.23	-51.7	-53.8	15.3	6.05e-01	0	26	0	59768832	72	4526
2026-01-13 14:03:10.59	235.82	6.40	-51.6	-53.7	15.3	6.05e-01	0	26	0	65536000	72	4493
2026-01-13 14:03:13.58	236.21	6.56	-51.6	-53.8	15.3	6.07e-01	0	26	0	71303168	72	4505
2026-01-13 14:03:16.59	236.62	6.72	-51.7	-53.9	15.2	6.06e-01	0	26	0	76546048	72	4565
2026-01-13 14:03:19.60	237.03	6.89	-51.5	-53.7	15.3	6.05e-01	0	26	0	82313216	72	4444
2026-01-13 14:03:22.60	237.44	7.05	-51.7	-53.8	15.3	6.08e-01	0	26	0	88080384	72	4529
2026-01-13 14:03:25.61	237.86	7.21	-51.5	-53.6	15.3	6.07e-01	0	26	0	93847552	72	4415
2026-01-13 14:03:28.60	238.28	7.38	-51.6	-53.7	15.3	6.05e-01	0	26	0	99090432	72	4453
2026-01-13 14:03:31.58	238.70	7.54	-51.3	-53.3	15.3	6.07e-01	0	26	0	104857600	71	4504
2026-01-13 14:03:34.57	239.13	7.70	-51.4	-53.5	15.2	6.07e-01	0	26	0	110624768	71	4613
2026-01-13 14:03:37.56	239.56	7.87	-51.5	-53.5	15.2	6.06e-01	0	26	0	115867648	71	4640
2026-01-13 14:03:40.54	240.00	8.03	-51.5	-53.5	15.2	6.06e-01	0	26	0	121634816	71	4648
2026-01-13 14:03:43.53	240.45	8.19	-51.3	-53.3	15.3	6.07e-01	0	26	0	127401984	71	4538
2026-01-13 14:03:46.53	240.90	8.35	-51.1	-53.1	15.4	6.06e-01	0	26	0	132644864	71	4408
2026-01-13 14:03:49.54	241.36	8.52	-51.2	-53.2	15.4	6.05e-01	0	26	0	138412032	71	4446
2026-01-13 14:03:52.54	241.82	8.68	-51.1	-53.1	15.4	6.06e-01	0	26	0	144179200	71	4405
2026-01-13 14:03:55.54	242.29	8.84	-51.3	-53.3	15.3	6.05e-01	0	26	0	149946368	71	4501
2026-01-13 14:03:58.52	242.76	9.00	-51.0	-52.9	15.4	6.04e-01	0	26	0	155189248	71	4314
2026-01-13 14:04:01.53	243.24	9.16	-50.9	-52.9	15.4	6.09e-01	0	26	0	160956416	71	4296
2026-01-13 14:04:04.52	243.72	9.32	-51.0	-53.0	15.4	6.06e-01	0	26	0	166723584	71	4365
2026-01-13 14:04:07.52	244.21	9.48	-50.9	-52.8	15.5	6.08e-01	0	26	0	171966464	71	4289
2026-01-13 14:04:10.52	244.71	9.64	-51.0	-52.9	15.4	6.03e-01	0	26	0	177733632	71	4319
2026-01-13 14:04:13.54	245.22	9.80	-50.8	-52.7	15.4	6.06e-01	0	26	0	183500800	70	4467
2026-01-13 14:04:16.54	245.72	9.96	-50.7	-52.6	15.4	6.08e-01	0	26	0	189267968	70	4415
2026-01-13 14:04:19.54	246.24	10.11	-50.8	-52.7	15.3	6.07e-01	0	26	0	194510848	70	4488
2026-01-13 14:04:22.54	246.75	10.27	-50.8	-52.7	15.4	6.05e-01	0	26	0	200278016	70	4456
2026-01-13 14:04:25.52	247.28	10.42	-50.7	-52.5	15.4	6.09e-01	0	26	0	206045184	70	4365
2026-01-13 14:04:28.52	247.81	10.58	-50.8	-52.6	15.4	6.06e-01	0	26	0	211288064	70	4441
2026-01-13 14:04:31.52	248.34	10.73	-50.6	-52.5	15.4	6.06e-01	0	26	0	217055232	70	4362
2026-01-13 14:04:34.50	248.88	10.88	-50.7	-52.6	15.4	6.08e-01	0	26	0	222822400	70	4403
2026-01-13 14:04:37.49	249.43	11.03	-50.5	-52.4	15.5	6.08e-01	0	26	0	228589568	70	4300
2026-01-13 14:04:40.47	249.98	11.18	-50.5	-52.4	15.5	6.08e-01	0	26	0	233832448	70	4295
2026-01-13 14:04:43.46	250.53	11.33	-50.5	-52.3	15.5	6.05e-01	0	26	0	239599616	70	4244
2026-01-13 14:04:46.47	251.10	11.48	-50.4	-52.2	15.5	6.05e-01	0	26	0	245366784	70	4239
2026-01-13 14:04:49.46	251.67	11.63	-50.5	-52.3	15.5	6.07e-01	0	26	0	250609664	70	4259
2026-01-13 14:04:52.45	252.25	11.77	-50.4	-52.2	15.5	6.06e-01	0	26	0	256376832	70	4228
2026-01-13 14:04:55.45	252.83	11.91	-50.4	-52.2	15.5	6.07e-01	0	26	0	262144000	70	4207
2026-01-13 14:04:58.45	253.42	12.05	-50.4	-52.2	15.4	6.07e-01	0	26	0	267911168	69	4449
2026-01-13 14:05:01.43	254.01	12.19	-50.3	-52.0	15.4	6.06e-01	0	26	0	273154048	69	4378
2026-01-13 14:05:04.43	254.61	12.33	-50.4	-52.2	15.4	6.05e-01	0	26	0	278921216	69	4459
2026-01-13 14:05:07.42	255.22	12.46	-50.3	-52.1	15.4	6.05e-01	0	26	0	284688384	69	4425
2026-01-13 14:05:10.42	255.83	12.60	-50.3	-52.1	15.4	6.07e-01	0	26	0	289931264	69	4407
2026-01-13 14:05:13.41	256.45	12.73	-50.3	-52.0	15.4	6.07e-01	0	26	0	295698432	69	4379
2026-01-13 14:05:16.41	257.07	12.86	-50.3	-52.1	15.4	6.06e-01	0	26	0	301465600	69	4409
2026-01-13 14:05:19.41	257.70	12.99	-50.2	-51.9	15.4	6.07e-01	0	26	0	307232768	69	4321
2026-01-13 14:05:22.40	258.33	13.11	-50.2	-52.0	15.4	6.05e-01	0	26	0	312475648	69	4346
2026-01-13 14:05:25.39	258.97	13.23	-50.3	-52.0	15.4	6.04e-01	0	26	0	318242816	69	4377
2026-01-13 14:05:28.39	259.62	13.36	-50.3	-52.0	15.4	6.07e-01	0	26	0	324009984	69	4375
2026-01-13 14:05:31.38	260.27	13.47	-50.3	-52.1	15.4	6.06e-01	0	26	0	329252864	69	4411
2026-01-13 14:05:34.37	260.92	13.59	-50.0	-51.7	15.5	6.06e-01	0	26	0	335020032	69	4237
2026-01-13 14:05:37.36	261.58	13.70	-50.1	-51.9	15.5	6.06e-01	0	26	0	340787200	69	4306
2026-01-13 14:05:40.34	262.25	13.81	-50.1	-51.8	15.5	6.07e-01	0	26	0	346030080	69	4259
2026-01-13 14:05:43.33	262.92	13.92	-50.1	-51.8	15.5	6.06e-01	0	26	0	351797248	69	4281
2026-01-13 14:05:46.33	263.60	14.02	-50.1	-51.8	15.5	6.07e-01	0	26	0	357564416	69	4254
2026-01-13 14:05:49.31	264.27	14.12	-50.1	-51.8	15.5	6.07e-01	0	26	0	362807296	69	4265
2026-01-13 14:05:52.30	264.96	14.22	-50.1	-51.9	15.5	6.07e-01	0	26	0	368574464	69	4308
2026-01-13 14:05:55.30	265.65	14.31	-50.1	-51.8	15.5	6.05e-01	0	26	0	374341632	69	4260
2026-01-13 14:05:58.30	266.35	14.40	-50.2	-51.9	15.5	6.07e-01	0	26	0	380108800	69	4330
2026-01-13 14:06:01.31	267.05	14.49	-50.1	-51.8	15.5	6.04e-01	0	26	0	385351680	69	4261
2026-01-13 14:06:04.29	267.75	14.57	-50.3	-52.0	15.4	6.07e-01	0	26	0	391118848	69	4371
2026-01-13 14:06:07.29	268.46	14.65	-50.1	-51.8	15.5	6.08e-01	0	26	0	396886016	69	4280
2026-01-13 14:06:10.29	269.17	14.73	-50.0	-51.7	15.5	6.07e-01	0	26	0	402653184	69	4229
2026-01-13 14:06:13.28	269.88	14.80	-50.0	-51.7	15.5	6.08e-01	0	26	0	407896064	69	4218
2026-01-13 14:06:16.28	270.60	14.87	-50.0	-51.8	15.5	6.04e-01	0	26	0	413663232	69	4244
2026-01-13 14:06:19.27	271.33	14.94	-50.1	-51.8	15.5	6.07e-01	0	26	0	419430400	69	4283
2026-01-13 14:06:22.27	272.05	15.00	-50.1	-51.8	15.5	6.07e-01	0	26	0	424673280	69	4276
2026-01-13 14:06:25.26	272.78	15.06	-50.2	-51.9	15.4	6.07e-01	0	26	0	430440448	69	4326
2026-01-13 14:06:28.25	273.51	15.11	-50.1	-51.9	15.5	6.07e-01	0	26	0	436207616	69	4300
2026-01-13 14:06:31.24	274.24	15.16	-50.1	-51.9	15.5	6.07e-01	0	26	0	441450496	69	4293
2026-01-13 14:06:34.23	274.98	15.21	-50.1	-51.9	15.5	6.04e-01	0	26	0	447217664	69	4296
2026-01-13 14:06:37.22	275.71	15.25	-50.2	-51.9	15.5	6.07e-01	0	26	0	452984832	69	4317
2026-01-13 14:06:40.21	276.45	15.29	-50.2	-51.9	15.4	6.05e-01	0	26	0	458227712	69	4312
2026-01-13 14:06:43.20	277.19	15.32	-50.1	-51.8	15.5	6.07e-01	0	26	0	463994880	69	4282
2026-01-13 14:06:46.17	277.93	15.35	-50.2	-51.9	15.4	6.05e-01	0	26	0	469762048	69	4319
2026-01-13 14:06:49.16	278.67	15.37	-50.1	-51.9	15.5	6.06e-01	0	26	0	475004928	69	4295
2026-01-13 14:06:52.16	279.42	15.39	-50.1	-51.8	15.5	6.07e-01	0	26	0	480772096	69	4289
2026-01-13 14:06:55.17	280.17	15.41	-50.2	-51.9	15.4	6.06e-01	0	26	0	486539264	69	4332
2026-01-13 14:06:58.19	280.93	15.42	-50.2	-51.9	15.4	6.03e-01	0	26	0	492306432	69	4323
2026-01-13 14:07:01.19	281.68	15.43	-50.3	-52.0	15.4	6.02e-01	0	26	0	498073600	69	4370
2026-01-13 14:07:04.19	282.42	15.43	-50.2	-52.0	15.4	6.03e-01	0	26	0	503316480	69	4355
2026-01-13 14:07:07.20	283.18	15.43	-50.2	-51.9	15.4	6.04e-01	0	26	0	509083648	69	4307
2026-01-13 14:07:10.18	283.92	15.42	-50.4	-52.2	15.4	6.03e-01	0	26	0	514850816	69	4446
2026-01-13 14:07:13.18	284.67	15.41	-50.2	-51.9	15.4	6.02e-01	0	26	0	520093696	69	4317
2026-01-13 14:07:16.19	285.42	15.40	-50.5	-52.3	15.3	6.02e-01	0	26	0	525860864	69	4520
2026-01-13 14:07:19.19	286.17	15.38	-50.3	-52.1	15.4	6.02e-01	0	26	0	531628032	69	4396
2026-01-13 14:07:22.17	286.91	15.36	-50.4	-52.1	15.4	6.05e-01	0	26	0	537395200	69	4435
2026-01-13 14:07:25.17	287.65	15.33	-50.4	-52.2	15.4	6.02e-01	0	26	0	542638080	69	4442
2026-01-13 14:07:28.16	288.39	15.30	-50.5	-52.2	15.3	6.02e-01	0	26	0	548405248	69	4484
2026-01-13 14:07:31.16	289.13	15.26	-50.4	-52.2	15.4	6.05e-01	0	26	0	554172416	69	4456
2026-01-13 14:07:34.15	289.87	15.22	-50.3	-52.0	15.4	6.02e-01	0	26	0	559415296	69	4382
2026-01-13 14:07:37.14	290.61	15.17	-50.4	-52.1	15.4	6.02e-01	0	26	0	565182464	69	4415
2026-01-13 14:07:40.13	291.34	15.13	-50.3	-52.0	15.4	6.04e-01	0	26	0	570949632	69	4386
2026-01-13 14:07:43.12	292.07	15.07	-50.4	-52.1	15.4	6.02e-01	0	26	0	576192512	69	4426
2026-01-13 14:07:46.10	292.79	15.02	-50.3	-52.1	15.4	6.04e-01	0	26	0	581959680	69	4395
2026-01-13 14:07:49.11	293.52	14.96	-50.3	-52.0	15.4	6.04e-01	0	26	0	587726848	69	4360
2026-01-13 14:07:52.11	294.24	14.89	-50.4	-52.1	15.4	6.03e-01	0	26	0	593494016	69	4436
2026-01-13 14:07:55.11	294.96	14.82	-50.4	-52.1	15.4	6.03e-01	0	26	0	598736896	69	4436
2026-01-13 14:07:58.11	295.68	14.75	-50.3	-52.1	15.4	6.02e-01	0	26	0	604504064	69	4396
2026-01-13 14:08:01.11	296.39	14.67	-50.5	-52.3	15.3	6.01e-01	0	26	0	610271232	69	4496
2026-01-13 14:08:04.09	297.09	14.60	-50.4	-52.2	15.4	6.04e-01	0	26	0	616038400	69	4452
2026-01-13 14:08:07.08	297.79	14.51	-50.4	-52.1	15.4	6.04e-01	0	26	0	621281280	69	4432
2026-01-13 14:08:10.09	298.50	14.43	-50.3	-52.0	15.4	6.03e-01	0	26	0	627048448	69	4387
2026-01-13 14:08:13.08	299.19	14.34	-50.4	-52.1	15.4	6.05e-01	0	26	0	632815616	69	4410
2026-01-13 14:08:16.08	299.88	14.24	-50.4	-52.1	15.4	6.03e-01	0	26	0	638058496	69	4428
2026-01-13 14:08:19.06	300.56	14.15	-50.3	-52.1	15.4	6.03e-01	0	26	0	643825664	69	4405
2026-01-13 14:08:22.06	301.24	14.05	-50.4	-52.2	15.4	6.03e-01	0	26	0	649592832	69	4465
2026-01-13 14:08:25.05	301.92	13.95	-50.3	-52.1	15.4	6.04e-01	0	26	0	654835712	69	4410
2026-01-13 14:08:28.05	302.59	13.84	-50.3	-52.1	15.4	6.03e-01	0	26	0	660602880	69	4395
2026-01-13 14:08:31.04	303.25	13.73	-50.4	-52.1	15.4	6.02e-01	0	26	0	666370048	69	4433
2026-01-13 14:08:34.04	303.92	13.62	-50.5	-52.3	15.3	6.02e-01	0	26	0	672137216	69	4531
2026-01-13 14:08:37.02	304.57	13.51	-50.5	-52.2	15.3	6.04e-01	0	26	0	677380096	69	4493
2026-01-13 14:08:40.02	305.22	13.39	-50.5	-52.3	15.3	6.04e-01	0	26	0	683147264	69	4536
2026-01-13 14:08:43.01	305.86	13.27	-50.5	-52.2	15.3	6.04e-01	0	26	0	688914432	69	4487
2026-01-13 14:08:45.99	306.50	13.15	-50.3	-52.1	15.4	6.02e-01	0	26	0	694157312	69	4409
2026-01-13 14:08:48.98	307.13	13.03	-50.4	-52.2	15.4	6.03e-01	0	26	0	699924480	69	4453
2026-01-13 14:08:51.98	307.76	12.90	-50.4	-52.2	15.4	6.02e-01	0	26	0	705691648	69	4455
2026-01-13 14:08:54.96	308.38	12.77	-50.4	-52.2	15.3	6.03e-01	0	26	0	710934528	69	4463
2026-01-13 14:08:57.95	308.99	12.64	-50.5	-52.2	15.3	6.03e-01	0	26	0	716701696	69	4486
2026-01-13 14:09:00.95	309.61	12.51	-50.4	-52.2	15.4	6.03e-01	0	26	0	722468864	69	4447
2026-01-13 14:09:03.96	310.21	12.38	-50.4	-52.2	15.3	6.02e-01	0	26	0	728236032	69	4483
2026-01-13 14:09:06.95	310.81	12.24	-50.4	-52.2	15.4	6.04e-01	0	26	0	733478912	69	4442
2026-01-13 14:09:09.95	311.41	12.10	-50.4	-52.2	15.3	6.02e-01	0	26	0	739246080	69	4486
2026-01-13 14:09:12.94	311.99	11.96	-50.3	-52.1	15.3	6.02e-01	0	26	0	745013248	69	4418
2026-01-13 14:09:15.95	312.58	11.82	-50.4	-52.2	15.3	6.04e-01	0	26	0	750256128	69	4476
2026-01-13 14:09:18.95	313.15	11.68	-50.4	-52.2	15.3	6.02e-01	0	26	0	756023296	69	4479
2026-01-13 14:09:21.94	313.72	11.53	-50.4	-52.2	15.4	6.03e-01	0	26	0	761790464	69	4451
2026-01-13 14:09:24.95	314.29	11.39	-50.4	-52.2	15.3	6.02e-01	0	26	0	767557632	69	4477
2026-01-13 14:09:27.96	314.85	11.24	-50.4	-52.2	15.3	6.03e-01	0	26	0	772800512	69	4493
2026-01-13 14:09:30.95	315.40	11.09	-50.6	-52.4	15.3	6.03e-01	0	26	0	778567680	69	4574
2026-01-13 14:09:33.94	315.95	10.94	-50.5	-52.3	15.3	6.03e-01	0	26	0	784334848	69	4543
2026-01-13 14:09:36.94	316.49	10.79	-50.5	-52.4	15.3	6.03e-01	0	26	0	790102016	69	4556
2026-01-13 14:09:39.92	317.02	10.64	-50.5	-52.3	15.3	6.03e-01	0	26	0	795344896	69	4542
2026-01-13 14:09:42.92	317.55	10.49	-50.6	-52.5	15.2	6.03e-01	0	26	0	801112064	69	4616
2026-01-13 14:09:45.91	318.07	10.33	-50.7	-52.5	15.2	6.02e-01	0	26	0	806879232	69	4637
2026-01-13 14:09:48.89	318.59	10.18	-50.6	-52.4	15.3	6.03e-01	0	26	0	812122112	69	4592
2026-01-13 14:09:51.90	319.10	10.02	-50.5	-52.3	15.3	6.05e-01	0	26	0	817889280	69	4525
2026-01-13 14:09:54.90	319.61	9.87	-50.6	-52.4	15.3	6.05e-01	0	26	0	823656448	69	4594
2026-01-13 14:09:57.90	320.11	9.71	-50.8	-52.6	15.2	6.02e-01	0	26	0	829423616	69	4704
2026-01-13 14:10:00.89	320.60	9.55	-50.7	-52.5	15.2	6.03e-01	0	26	0	834666496	69	4648
2026-01-13 14:10:03.88	321.09	9.40	-50.8	-52.7	15.2	6.03e-01	0	26	0	840433664	69	4726
2026-01-13 14:10:06.88	321.58	9.24	-50.8	-52.7	15.2	6.03e-01	0	26	0	846200832	69	4712
2026-01-13 14:10:09.88	322.05	9.08	-50.7	-52.6	15.2	6.02e-01	0	26	0	851443712	69	4680
2026-01-13 14:10:12.86	322.52	8.92	-50.8	-52.7	15.2	6.05e-01	0	26	0	857210880	69	4752
2026-01-13 14:10:15.86	322.99	8.76	-50.8	-52.7	15.2	6.04e-01	0	26	0	862978048	69	4755
2026-01-13 14:10:18.84	323.45	8.60	-50.9	-52.9	15.1	6.01e-01	0	26	0	868220928	69	4828
2026-01-13 14:10:21.85	323.91	8.44	-50.9	-52.8	15.1	6.03e-01	0	26	0	873988096	69	4797
2026-01-13 14:10:24.86	324.36	8.27	-50.8	-52.8	15.1	6.02e-01	0	26	0	879755264	69	4774
2026-01-13 14:10:27.85	324.81	8.11	-50.9	-52.9	15.1	6.03e-01	0	26	0	885522432	69	4836
2026-01-13 14:10:30.85	325.25	7.95	-50.9	-52.8	15.1	6.02e-01	0	26	0	890765312	69	4804
2026-01-13 14:10:33.85	325.69	7.79	-51.0	-53.0	15.1	6.04e-01	0	27	0	896532480	69	4884
2026-01-13 14:10:36.84	326.12	7.63	-51.2	-53.3	15.1	6.05e-01	0	26	0	902299648	70	4777
2026-01-13 14:10:39.84	326.54	7.47	-51.2	-53.2	15.1	6.04e-01	0	26	0	908066816	70	4719
2026-01-13 14:10:42.83	326.96	7.30	-51.2	-53.3	15.1	6.03e-01	0	26	0	913309696	70	4773
2026-01-13 14:10:45.84	327.38	7.14	-51.1	-53.1	15.2	6.03e-01	0	26	0	919076864	70	4688
2026-01-13 14:10:48.84	327.79	6.98	-51.3	-53.4	15.1	6.03e-01	0	26	0	924844032	70	4841
2026-01-13 14:10:51.83	328.20	6.82	-51.4	-53.5	15.1	6.02e-01	0	26	0	930086912	70	4871
2026-01-13 14:10:54.84	328.60	6.65	-51.5	-53.7	15.0	6.03e-01	0	26	0	935854080	70	4987
2026-01-13 14:10:57.82	329.00	6.49	-51.5	-53.6	15.1	6.05e-01	0	26	0	941621248	71	4682
2026-01-13 14:11:00.84	329.39	6.33	-51.5	-53.6	15.1	6.03e-01	0	26	0	947388416	71	4693
2026-01-13 14:11:03.84	329.78	6.17	-51.4	-53.5	15.2	6.04e-01	0	26	0	952631296	71	4630
2026-01-13 14:11:06.84	330.16	6.00	-51.6	-53.8	15.1	6.01e-01	0	26	0	958398464	71	4794
2026-01-13 14:11:09.84	330.54	5.84	-51.6	-53.7	15.1	6.03e-01	0	26	0	964165632	71	4742
2026-01-13 14:11:12.84	330.92	5.68	-51.6	-53.8	15.1	6.02e-01	0	26	0	969932800	71	4772
2026-01-13 14:11:15.85	331.29	5.52	-51.6	-53.8	15.1	6.03e-01	0	26	0	975175680	71	4780
2026-01-13 14:11:18.85	331.66	5.36	-51.5	-53.7	15.1	6.04e-01	0	26	0	980942848	71	4747
2026-01-13 14:11:21.85	332.02	5.20	-51.7	-53.9	15.0	6.02e-01	0	26	0	986710016	71	4848
2026-01-13 14:11:24.85	332.38	5.04	-51.7	-53.9	15.0	6.04e-01	0	26	0	991952896	71	4849
2026-01-13 14:11:27.85	332.73	4.88	-59.0	-78.3	3.8	7.44e-01	0	26	104	994574336	85	35784
2026-01-13 14:11:30.85	333.08	4.71	-59.4	-78.8	3.8	7.48e-01	0	26	104	994574336	86	35887
2026-01-13 14:11:33.84	333.43	4.56	-59.7	-79.1	3.8	7.47e-01	0	26	104	994574336	87	35026
2026-01-13 14:11:36.84	333.77	4.40	-59.8	-79.2	3.8	7.44e-01	0	26	104	994574336	87	35449
2026-01-13 14:11:39.84	334.11	4.24	-59.9	-79.3	3.8	7.47e-01	0	26	104	994574336	87	35891
2026-01-13 14:11:42.84	334.44	4.08	-59.9	-79.3	3.8	7.44e-01	0	27	104	994574336	87	35746
2026-01-13 14:11:45.83	334.77	3.92	-59.8	-79.2	3.8	7.47e-01	0	26	104	994574336	87	35655
2026-01-13 14:11:48.82	335.10	3.76	-59.8	-79.1	3.8	7.45e-01	0	26	104	994574336	87	35251
2026-01-13 14:11:51.82	335.42	3.60	-59.7	-79.1	3.8	7.50e-01	0	27	104	994574336	87	35164
2026-01-13 14:11:54.82	335.74	3.44	-59.7	-79.1	3.8	7.48e-01	0	27	104	994574336	87	34960
2026-01-13 14:11:57.80	336.05	3.29	-59.7	-79.1	3.8	7.44e-01	0	26	104	994574336	87	34969
2026-01-13 14:12:00.80	336.36	3.13	-59.7	-79.1	3.8	7.43e-01	0	26	104	994574336	87	34905
2026-01-13 14:12:03.80	336.67	2.97	-59.6	-79.0	3.8	7.50e-01	0	26	104	994574336	87	34791
2026-01-13 14:12:06.80	336.98	2.82	-59.6	-79.0	3.8	7.42e-01	0	27	104	994574336	87	34627
2026-01-13 14:12:09.80	337.28	2.66	-59.6	-79.0	3.8	7.44e-01	0	27	104	994574336	87	34693
2026-01-13 14:12:12.81	337.58	2.50	-59.6	-79.0	3.8	7.46e-01	0	27	104	994574336	87	34586
2026-01-13 14:12:15.81	337.88	2.35	-59.6	-79.0	3.8	7.48e-01	0	27	104	994574336	87	34695
2026-01-13 14:12:18.81	338.17	2.19	-59.6	-79.0	3.8	7.44e-01	0	27	104	994574336	87	34626
2026-01-13 14:12:21.81	338.46	2.04	-59.6	-79.0	3.8	7.46e-01	0	27	104	994574336	87	34522

#Closed at: 2026-01-13 14:12:24
#Recorded file [994 MB]: D:/lorett/data/31004_260113_170149.dat