passes_logs/2026/01/13/R3.2S_Murmansk/R3.2S_Murmansk__20260113_114754_SUOMI_NPP_rec.log

#Pass ID: 20260113_114754_SUOMI NPP
#Satellite: SUOMI NPP
#Configuration: NPP
#almurnet v.1.7.20251203
#Start time: 2026-01-13 11:47:54

#Version: 2.2.20231116
#Station: R3.2S_Murmansk
#Location: 33.079688 lon 68.888172 lat
#TLE: 1 37849U 11061A   26013.13039704  .00000061  00000+0  49955-4 0  9991
#TLE: 2 37849  98.7808 315.1951 0002492  66.9161 293.2277 14.19524814736449

#Time	Az	El	Level	Level2	SNR	BER	BlckErr	Temp	State	Recorded	gain1	gain2
2026-01-13 11:47:54.99	207.13	2.03	-58.3	-74.3	3.8	1.49e+00	0	24	0	0	83	21989
2026-01-13 11:47:58.96	207.39	2.25	-58.3	-74.3	3.8	1.49e+00	0	24	104	0	81	24536
2026-01-13 11:48:02.94	207.66	2.48	-58.3	-74.3	3.8	1.49e+00	0	24	104	0	81	24447
2026-01-13 11:48:06.92	207.93	2.71	-58.3	-74.3	3.8	1.49e+00	0	25	104	0	81	24634
2026-01-13 11:48:10.89	208.20	2.94	-58.3	-74.3	3.8	1.49e+00	0	25	104	0	81	24479
2026-01-13 11:48:14.88	208.48	3.17	-58.3	-74.2	3.8	1.49e+00	0	25	104	0	81	24360
2026-01-13 11:48:18.84	208.76	3.40	-58.3	-74.2	3.8	1.49e+00	0	25	104	0	81	24297
2026-01-13 11:48:22.83	209.04	3.64	-58.3	-74.2	3.8	1.49e+00	0	25	104	0	81	24243
2026-01-13 11:48:26.81	209.33	3.87	-58.3	-74.0	3.8	1.49e+00	0	25	104	0	81	23829
2026-01-13 11:48:30.79	209.63	4.11	-58.3	-74.0	3.8	1.49e+00	0	25	104	0	81	23598
2026-01-13 11:48:34.78	209.93	4.35	-58.0	-69.4	4.7	1.05e+00	0	25	0	1048576	81	13940
2026-01-13 11:48:38.76	210.23	4.59	-57.6	-65.5	7.0	1.51e-01	0	25	0	8388608	81	8962
2026-01-13 11:48:42.74	210.54	4.83	-55.8	-59.9	11.6	2.33e-04	0	26	0	15728640	78	5538
2026-01-13 11:48:46.70	210.85	5.07	-54.7	-57.8	12.8	0.00e+00	0	25	0	23068672	75	5188
2026-01-13 11:48:50.68	211.17	5.32	-54.2	-57.1	13.2	0.00e+00	0	25	0	30408704	74	5051
2026-01-13 11:48:54.67	211.50	5.57	-53.8	-56.4	13.5	0.00e+00	0	26	0	38797312	73	4972
2026-01-13 11:48:58.66	211.83	5.82	-53.5	-55.9	13.8	0.00e+00	0	26	0	46137344	73	4705
2026-01-13 11:49:02.66	212.16	6.07	-53.5	-56.0	13.7	0.00e+00	0	26	0	53477376	73	4728
2026-01-13 11:49:06.65	212.51	6.32	-53.8	-56.4	13.6	0.00e+00	0	26	0	60817408	73	4942
2026-01-13 11:49:10.61	212.85	6.57	-53.8	-56.4	13.6	0.00e+00	0	25	0	68157440	73	4940
2026-01-13 11:49:14.59	213.20	6.82	-54.0	-56.6	13.4	0.00e+00	0	26	0	75497472	73	5054
2026-01-13 11:49:18.57	213.56	7.08	-53.7	-56.2	13.6	0.00e+00	0	26	0	82837504	73	4862
2026-01-13 11:49:22.56	213.92	7.34	-53.7	-56.1	13.7	0.00e+00	0	26	0	90177536	73	4791
2026-01-13 11:49:26.55	214.29	7.60	-53.6	-56.0	13.8	0.00e+00	0	26	0	98566144	73	4759
2026-01-13 11:49:30.54	214.67	7.86	-53.5	-55.7	14.0	0.00e+00	0	26	0	105906176	73	4593
2026-01-13 11:49:34.53	215.05	8.12	-53.4	-55.7	14.0	0.00e+00	0	26	0	113246208	73	4565
2026-01-13 11:49:38.50	215.44	8.39	-53.5	-55.8	14.0	0.00e+00	0	26	0	120586240	73	4624
2026-01-13 11:49:42.48	215.84	8.65	-53.4	-55.7	14.0	0.00e+00	0	26	0	127926272	73	4547
2026-01-13 11:49:46.48	216.24	8.92	-53.3	-55.5	14.1	0.00e+00	0	26	0	135266304	73	4461
2026-01-13 11:49:50.50	216.66	9.20	-53.0	-55.1	14.2	0.00e+00	0	26	0	142606336	72	4526
2026-01-13 11:49:54.49	217.08	9.47	-52.9	-55.0	14.3	0.00e+00	0	26	0	150994944	72	4469
2026-01-13 11:49:58.50	217.51	9.74	-53.3	-55.5	14.0	0.00e+00	0	26	0	158334976	72	4723
2026-01-13 11:50:02.50	217.94	10.02	-53.6	-55.9	13.8	0.00e+00	0	26	0	165675008	72	4971
2026-01-13 11:50:06.47	218.38	10.29	-53.7	-56.1	13.7	0.00e+00	0	26	0	173015040	72	5071
2026-01-13 11:50:10.47	218.83	10.57	-53.4	-55.6	13.9	0.00e+00	0	26	0	180355072	72	4805
2026-01-13 11:50:14.46	219.29	10.85	-53.2	-55.4	14.1	0.00e+00	0	26	0	187695104	72	4656
2026-01-13 11:50:18.44	219.76	11.14	-53.2	-55.3	14.1	0.00e+00	0	26	0	195035136	72	4633
2026-01-13 11:50:22.41	220.23	11.42	-53.0	-55.0	14.2	0.00e+00	0	26	0	202375168	72	4493
2026-01-13 11:50:26.38	220.71	11.70	-52.8	-54.8	14.4	0.00e+00	0	26	0	210763776	72	4376
2026-01-13 11:50:30.37	221.20	11.99	-53.0	-55.0	14.3	0.00e+00	0	26	0	218103808	72	4478
2026-01-13 11:50:34.35	221.71	12.27	-52.9	-54.9	14.3	0.00e+00	0	26	0	225443840	72	4433
2026-01-13 11:50:38.34	222.22	12.56	-52.9	-54.9	14.3	0.00e+00	0	26	0	232783872	72	4438
2026-01-13 11:50:42.32	222.74	12.85	-53.2	-55.3	14.1	0.00e+00	0	26	0	240123904	72	4631
2026-01-13 11:50:46.34	223.28	13.15	-53.5	-55.7	13.9	0.00e+00	0	26	0	247463936	72	4870
2026-01-13 11:50:50.35	223.82	13.44	-53.4	-55.5	14.0	0.00e+00	0	26	0	254803968	72	4748
2026-01-13 11:50:54.34	224.38	13.74	-53.3	-55.4	14.1	0.00e+00	0	26	0	263192576	72	4671
2026-01-13 11:50:58.35	224.94	14.03	-52.8	-54.8	14.4	0.00e+00	0	26	0	270532608	72	4374
2026-01-13 11:51:02.36	225.52	14.33	-52.6	-54.5	14.4	0.00e+00	0	26	0	277872640	71	4476
2026-01-13 11:51:06.37	226.11	14.63	-52.4	-54.3	14.5	0.00e+00	0	26	0	285212672	71	4356
2026-01-13 11:51:10.38	226.71	14.93	-52.3	-54.1	14.5	0.00e+00	0	26	0	292552704	70	4544
2026-01-13 11:51:14.39	227.32	15.23	-52.4	-54.3	14.4	0.00e+00	0	26	0	299892736	70	4601
2026-01-13 11:51:18.40	227.95	15.53	-52.7	-54.7	14.2	0.00e+00	0	26	0	308281344	70	4823
2026-01-13 11:51:22.41	228.58	15.83	-53.0	-55.0	14.2	0.00e+00	0	26	0	315621376	71	4727
2026-01-13 11:51:26.43	229.24	16.14	-52.8	-54.8	14.3	0.00e+00	0	26	0	322961408	71	4603
2026-01-13 11:51:30.45	229.90	16.44	-52.3	-54.2	14.6	0.00e+00	0	26	0	330301440	71	4300
2026-01-13 11:51:34.48	230.58	16.74	-52.1	-53.9	14.6	0.00e+00	0	26	0	337641472	70	4424
2026-01-13 11:51:38.49	231.27	17.05	-51.6	-53.3	14.7	0.00e+00	0	26	0	346030080	69	4351
2026-01-13 11:51:42.51	231.97	17.35	-51.6	-53.3	14.7	0.00e+00	0	26	0	353370112	69	4343
2026-01-13 11:51:46.53	232.69	17.65	-52.2	-54.0	14.4	0.00e+00	0	26	0	360710144	69	4718
2026-01-13 11:51:50.53	233.42	17.95	-52.3	-54.1	14.5	0.00e+00	0	26	0	368050176	70	4512
2026-01-13 11:51:54.53	234.16	18.25	-52.6	-54.4	14.3	0.00e+00	0	26	0	375390208	70	4700
2026-01-13 11:51:58.54	234.92	18.55	-52.2	-54.0	14.5	0.00e+00	0	26	0	382730240	70	4475
2026-01-13 11:52:02.56	235.69	18.85	-51.9	-53.5	14.7	0.00e+00	0	26	0	391118848	70	4238
2026-01-13 11:52:06.58	236.48	19.15	-51.4	-53.0	14.8	0.00e+00	0	26	0	398458880	69	4194
2026-01-13 11:52:10.59	237.29	19.44	-51.1	-52.6	14.8	0.00e+00	0	26	0	405798912	68	4277
2026-01-13 11:52:14.60	238.11	19.73	-50.7	-52.2	15.0	0.00e+00	0	26	0	413138944	68	4076
2026-01-13 11:52:18.62	238.94	20.02	-50.4	-51.9	15.0	0.00e+00	0	26	0	420478976	67	4179
2026-01-13 11:52:22.63	239.79	20.31	-50.6	-52.1	14.9	0.00e+00	0	26	0	427819008	67	4264
2026-01-13 11:52:26.64	240.65	20.59	-50.7	-52.2	14.8	0.00e+00	0	26	0	436207616	67	4340
2026-01-13 11:52:30.67	241.54	20.88	-50.9	-52.4	14.7	0.00e+00	0	26	0	443547648	67	4418
2026-01-13 11:52:34.69	242.44	21.15	-50.6	-52.1	14.9	0.00e+00	0	26	0	450887680	67	4262
2026-01-13 11:52:38.71	243.35	21.43	-51.1	-52.7	14.7	0.00e+00	0	26	0	458227712	67	4565
2026-01-13 11:52:42.72	244.28	21.69	-51.0	-52.6	14.7	0.00e+00	0	26	0	465567744	67	4508
2026-01-13 11:52:46.75	245.22	21.96	-51.4	-53.0	14.6	0.00e+00	0	26	0	473956352	67	4748
2026-01-13 11:52:50.78	246.19	22.22	-51.1	-52.7	14.8	0.00e+00	0	26	0	481296384	68	4308
2026-01-13 11:52:54.78	247.16	22.47	-52.1	-53.8	14.5	0.00e+00	0	26	0	488636416	69	4650
2026-01-13 11:52:58.80	248.15	22.72	-51.3	-52.9	14.9	0.00e+00	0	26	0	495976448	69	4158
2026-01-13 11:53:02.83	249.16	22.96	-51.8	-53.5	14.6	0.00e+00	0	26	0	503316480	69	4476
2026-01-13 11:53:06.85	250.18	23.19	-51.8	-53.4	14.7	0.00e+00	0	26	0	511705088	69	4428
2026-01-13 11:53:10.87	251.22	23.42	-52.7	-54.6	14.3	0.00e+00	0	26	0	519045120	70	4793
2026-01-13 11:53:14.89	252.27	23.64	-52.5	-54.4	14.5	0.00e+00	0	26	0	526385152	71	4402
2026-01-13 11:53:18.92	253.33	23.85	-53.4	-55.6	14.0	0.00e+00	0	26	0	533725184	71	5053
2026-01-13 11:53:22.94	254.41	24.05	-54.1	-56.4	13.8	0.00e+00	0	26	0	541065216	73	4959
2026-01-13 11:53:26.96	255.51	24.24	-52.7	-54.5	14.5	0.00e+00	0	26	0	548405248	72	4226
2026-01-13 11:53:30.97	256.61	24.43	-54.5	-57.1	13.6	0.00e+00	0	26	0	556793856	74	5052
2026-01-13 11:53:34.99	257.72	24.60	-54.5	-57.0	13.6	0.00e+00	0	26	0	564133888	74	5010
2026-01-13 11:53:39.00	258.85	24.76	-54.3	-56.7	13.7	0.00e+00	0	26	0	571473920	74	4869
2026-01-13 11:53:42.99	259.98	24.91	-55.0	-57.7	13.2	0.00e+00	0	26	0	578813952	75	5130
2026-01-13 11:53:47.01	261.13	25.06	-55.1	-57.8	13.3	0.00e+00	0	26	0	586153984	76	4908
2026-01-13 11:53:51.03	262.29	25.19	-55.3	-58.2	13.1	0.00e+00	0	26	0	593494016	76	5132
2026-01-13 11:53:55.03	263.45	25.30	-54.3	-56.7	13.9	0.00e+00	0	26	0	601882624	75	4556
2026-01-13 11:53:59.04	264.63	25.41	-54.1	-56.4	13.9	0.00e+00	0	26	0	609222656	74	4658
2026-01-13 11:54:03.04	265.81	25.50	-54.5	-56.9	13.6	0.00e+00	0	27	0	616562688	74	4975
2026-01-13 11:54:07.05	266.99	25.59	-53.9	-56.0	14.1	0.00e+00	0	26	0	623902720	74	4487
2026-01-13 11:54:11.05	268.18	25.65	-52.7	-54.5	14.6	0.00e+00	0	26	0	631242752	72	4215
2026-01-13 11:54:15.04	269.37	25.71	-53.6	-55.8	14.0	0.00e+00	0	26	0	638582784	72	4891
2026-01-13 11:54:19.04	270.57	25.75	-53.0	-54.9	14.4	0.00e+00	0	26	0	646971392	72	4435
2026-01-13 11:54:23.05	271.77	25.78	-53.5	-55.5	14.1	0.00e+00	0	26	0	654311424	72	4754
2026-01-13 11:54:27.05	272.98	25.80	-53.5	-55.6	14.1	0.00e+00	0	26	0	661651456	72	4770
2026-01-13 11:54:31.04	274.18	25.81	-52.3	-54.1	14.7	0.00e+00	0	26	0	668991488	71	4248
2026-01-13 11:54:35.05	275.38	25.80	-53.1	-55.1	14.2	0.00e+00	0	26	0	676331520	71	4778
2026-01-13 11:54:39.05	276.58	25.78	-52.3	-54.1	14.6	0.00e+00	0	26	0	683671552	71	4253
2026-01-13 11:54:43.03	277.78	25.74	-53.3	-55.3	14.1	0.00e+00	0	26	0	691011584	71	4893
2026-01-13 11:54:47.02	278.97	25.69	-54.0	-56.2	13.9	0.00e+00	0	26	0	699400192	73	4859
2026-01-13 11:54:51.02	280.16	25.63	-53.6	-55.7	14.2	0.00e+00	0	26	0	706740224	73	4563
2026-01-13 11:54:55.03	281.35	25.56	-52.3	-54.0	14.7	0.00e+00	0	26	0	714080256	71	4223
2026-01-13 11:54:59.01	282.53	25.47	-52.4	-54.2	14.5	0.00e+00	0	26	0	721420288	70	4563
2026-01-13 11:55:03.02	283.70	25.37	-52.3	-54.0	14.6	0.00e+00	0	26	0	728760320	70	4464
2026-01-13 11:55:07.01	284.87	25.26	-51.9	-53.5	14.8	0.00e+00	0	26	0	736100352	70	4240
2026-01-13 11:55:10.99	286.02	25.14	-51.7	-53.3	14.7	0.00e+00	0	26	0	744488960	69	4391
2026-01-13 11:55:15.00	287.17	25.01	-52.4	-54.2	14.4	0.00e+00	0	26	0	751828992	69	4830
2026-01-13 11:55:18.99	288.31	24.87	-51.9	-53.5	14.6	0.00e+00	0	26	0	759169024	69	4488
2026-01-13 11:55:22.98	289.43	24.71	-51.5	-53.0	14.8	0.00e+00	0	26	0	766509056	69	4239
2026-01-13 11:55:26.95	290.54	24.55	-51.3	-52.9	14.9	0.00e+00	0	26	0	773849088	69	4154
2026-01-13 11:55:30.96	291.65	24.37	-51.0	-52.5	14.9	0.00e+00	0	26	0	781189120	68	4197
2026-01-13 11:55:34.96	292.74	24.19	-50.7	-52.1	14.9	0.00e+00	0	26	0	788529152	67	4288
2026-01-13 11:55:38.94	293.81	23.99	-50.3	-51.7	15.1	0.00e+00	0	26	0	795869184	67	4078
2026-01-13 11:55:42.92	294.88	23.79	-50.6	-52.1	14.8	0.00e+00	0	26	0	804257792	66	4517
2026-01-13 11:55:46.93	295.93	23.58	-50.4	-51.9	15.0	0.00e+00	0	26	0	811597824	67	4157
2026-01-13 11:55:50.95	296.98	23.36	-50.1	-51.5	15.0	0.00e+00	0	26	0	818937856	66	4213
2026-01-13 11:55:54.94	298.00	23.14	-50.9	-52.4	14.8	0.00e+00	0	26	0	826277888	67	4425
2026-01-13 11:55:58.93	299.00	22.90	-50.5	-51.9	15.0	0.00e+00	0	26	0	833617920	67	4178
2026-01-13 11:56:02.92	300.00	22.66	-50.8	-52.3	14.9	0.00e+00	0	26	0	840957952	67	4346
2026-01-13 11:56:06.92	300.98	22.42	-51.0	-52.5	14.8	0.00e+00	0	26	0	848297984	67	4463
2026-01-13 11:56:10.91	301.94	22.17	-51.2	-52.8	14.7	0.00e+00	0	26	0	856686592	67	4631
2026-01-13 11:56:14.91	302.89	21.91	-52.0	-53.7	14.6	0.00e+00	0	26	0	864026624	69	4561
2026-01-13 11:56:18.92	303.82	21.65	-51.7	-53.4	14.7	0.00e+00	0	26	0	871366656	69	4408
2026-01-13 11:56:22.92	304.74	21.38	-51.4	-52.9	14.9	0.00e+00	0	26	0	878706688	69	4186
2026-01-13 11:56:26.92	305.64	21.11	-52.7	-54.6	14.3	0.00e+00	0	26	0	886046720	70	4780
2026-01-13 11:56:30.90	306.52	20.83	-52.2	-53.9	14.6	0.00e+00	0	26	0	893386752	70	4424
2026-01-13 11:56:34.89	307.39	20.55	-51.4	-53.0	14.8	0.00e+00	0	26	0	901775360	69	4215
2026-01-13 11:56:38.90	308.25	20.27	-52.3	-54.1	14.4	0.00e+00	0	26	0	909115392	69	4771
2026-01-13 11:56:42.88	309.09	19.99	-52.6	-54.4	14.4	0.00e+00	0	27	0	916455424	70	4672
2026-01-13 11:56:46.89	309.92	19.70	-52.9	-54.8	14.3	0.00e+00	0	26	0	923795456	70	4878
2026-01-13 11:56:50.89	310.73	19.41	-52.5	-54.4	14.4	0.00e+00	0	27	0	931135488	70	4657
2026-01-13 11:56:54.90	311.52	19.12	-53.1	-55.1	14.2	0.00e+00	0	27	0	938475520	71	4804
2026-01-13 11:56:58.91	312.31	18.82	-52.3	-54.0	14.7	0.00e+00	0	26	0	945815552	71	4227
2026-01-13 11:57:02.89	313.07	18.53	-51.8	-53.5	14.6	0.00e+00	0	26	0	954204160	69	4474
2026-01-13 11:57:06.85	313.81	18.23	-53.0	-54.9	14.3	0.00e+00	0	26	0	961544192	71	4677
2026-01-13 11:57:10.84	314.55	17.94	-52.3	-54.0	14.7	0.00e+00	0	26	0	968884224	71	4232
2026-01-13 11:57:14.82	315.27	17.64	-53.6	-55.7	14.0	0.00e+00	0	26	0	976224256	72	4850
2026-01-13 11:57:18.83	315.98	17.34	-53.0	-54.9	14.4	0.00e+00	0	26	0	983564288	72	4425
2026-01-13 11:57:22.83	316.68	17.04	-52.3	-54.1	14.6	0.00e+00	0	26	0	990904320	71	4247
2026-01-13 11:57:26.81	317.36	16.74	-52.7	-54.6	14.4	0.00e+00	0	26	0	998244352	71	4530
2026-01-13 11:57:30.80	318.02	16.44	-52.0	-53.7	14.7	0.00e+00	0	27	0	1005584384	70	4298
2026-01-13 11:57:34.80	318.68	16.15	-52.9	-54.8	14.2	0.00e+00	0	27	0	1013972992	70	4926
2026-01-13 11:57:38.78	319.32	15.85	-53.0	-55.0	14.2	0.00e+00	0	26	0	1021313024	71	4741
2026-01-13 11:57:42.76	319.95	15.55	-52.4	-54.3	14.5	0.00e+00	0	26	0	1028653056	71	4349
2026-01-13 11:57:46.76	320.57	15.25	-52.8	-54.8	14.3	0.00e+00	0	26	0	1035993088	71	4614
2026-01-13 11:57:50.75	321.18	14.96	-52.5	-54.3	14.5	0.00e+00	0	26	0	1043333120	71	4370
2026-01-13 11:57:54.75	321.78	14.66	-52.6	-54.4	14.4	0.00e+00	0	26	0	1050673152	71	4431
2026-01-13 11:57:58.73	322.36	14.36	-53.7	-56.0	13.8	0.00e+00	0	26	0	1058013184	72	5001
2026-01-13 11:58:02.74	322.93	14.07	-53.6	-55.8	14.1	0.00e+00	0	27	0	1066401792	73	4621
2026-01-13 11:58:06.74	323.50	13.77	-53.0	-55.1	14.3	0.00e+00	0	26	0	1073741824	72	4498
2026-01-13 11:58:10.71	324.05	13.48	-52.8	-54.7	14.4	0.00e+00	0	26	0	1081081856	72	4339
2026-01-13 11:58:14.68	324.59	13.19	-52.4	-54.2	14.5	0.00e+00	0	26	0	1088421888	71	4305
2026-01-13 11:58:18.67	325.12	12.90	-52.1	-53.8	14.6	0.00e+00	0	27	0	1095761920	70	4380
2026-01-13 11:58:22.63	325.63	12.62	-52.5	-54.5	14.3	0.00e+00	0	26	0	1103101952	70	4710
2026-01-13 11:58:26.64	326.15	12.33	-53.0	-55.0	14.2	0.00e+00	0	26	0	1110441984	71	4754
2026-01-13 11:58:30.62	326.65	12.04	-53.0	-55.0	14.2	0.00e+00	0	26	0	1117782016	71	4731
2026-01-13 11:58:34.62	327.14	11.76	-52.8	-54.8	14.2	0.00e+00	0	27	0	1126170624	71	4610
2026-01-13 11:58:38.62	327.63	11.48	-52.8	-54.8	14.2	0.00e+00	0	26	0	1133510656	71	4628
2026-01-13 11:58:42.64	328.10	11.19	-53.0	-55.1	14.1	0.00e+00	0	26	0	1140850688	71	4765
2026-01-13 11:58:46.64	328.57	10.91	-52.9	-54.9	14.2	0.00e+00	0	26	0	1148190720	71	4670
2026-01-13 11:58:50.65	329.03	10.63	-53.1	-55.2	14.0	0.00e+00	0	26	0	1155530752	71	4861
2026-01-13 11:58:54.64	329.48	10.36	-53.6	-55.9	13.8	0.00e+00	0	26	0	1162870784	72	4980
2026-01-13 11:58:58.61	329.92	10.08	-54.0	-56.5	13.6	0.00e+00	0	26	0	1170210816	73	5004
2026-01-13 11:59:02.60	330.35	9.81	-53.9	-56.3	13.7	0.00e+00	0	26	0	1178599424	73	4888
2026-01-13 11:59:06.60	330.78	9.54	-53.8	-56.2	13.7	0.00e+00	0	26	0	1185939456	73	4855
2026-01-13 11:59:10.60	331.20	9.27	-53.6	-55.9	13.9	0.00e+00	0	26	0	1193279488	73	4686
2026-01-13 11:59:14.60	331.61	9.00	-53.6	-55.9	13.9	0.00e+00	0	26	0	1200619520	73	4667
2026-01-13 11:59:18.61	332.02	8.73	-53.6	-56.0	13.8	0.00e+00	0	26	0	1207959552	73	4721
2026-01-13 11:59:22.61	332.42	8.46	-53.4	-55.6	14.0	0.00e+00	0	26	0	1215299584	73	4536
2026-01-13 11:59:26.59	332.81	8.20	-53.2	-55.3	14.0	0.00e+00	0	26	0	1223688192	72	4648
2026-01-13 11:59:30.57	333.19	7.94	-53.3	-55.5	13.9	0.00e+00	0	27	0	1231028224	72	4726
2026-01-13 11:59:34.58	333.57	7.68	-54.0	-56.5	13.5	0.00e+00	0	27	0	1238368256	73	5033
2026-01-13 11:59:38.57	333.94	7.42	-54.3	-57.1	13.1	0.00e+00	0	26	0	1245708288	73	5387
2026-01-13 11:59:42.57	334.30	7.16	-54.5	-57.4	13.0	0.00e+00	0	26	0	1253048320	74	5244
2026-01-13 11:59:46.56	334.66	6.91	-54.2	-57.0	13.3	0.00e+00	0	26	0	1260388352	74	4994
2026-01-13 11:59:50.55	335.02	6.66	-53.8	-56.3	13.7	0.00e+00	0	27	0	1267728384	74	4611
2026-01-13 11:59:54.56	335.36	6.40	-53.8	-56.4	13.5	0.00e+00	0	26	0	1276116992	73	4936
2026-01-13 11:59:58.54	335.71	6.15	-54.0	-56.7	13.3	0.00e+00	0	27	0	1283457024	73	5153
2026-01-13 12:00:02.56	336.04	5.90	-54.4	-57.4	12.9	0.00e+00	0	26	0	1290797056	73	5542
2026-01-13 12:00:06.58	336.38	5.66	-54.6	-57.6	12.8	0.00e+00	0	26	0	1298137088	74	5379
2026-01-13 12:00:10.56	336.70	5.41	-54.5	-57.5	12.9	0.00e+00	0	26	0	1305477120	74	5324
2026-01-13 12:00:14.55	337.02	5.17	-54.4	-57.5	12.9	0.00e+00	0	26	0	1312817152	74	5284
2026-01-13 12:00:18.53	337.34	4.93	-58.9	-74.9	3.8	1.49e+00	0	26	104	1319108608	82	24881
2026-01-13 12:00:22.54	337.65	4.68	-59.8	-75.9	3.8	1.49e+00	0	26	104	1319108608	84	24766
2026-01-13 12:00:26.54	337.96	4.44	-60.2	-76.3	3.8	1.49e+00	0	27	104	1319108608	85	24454
2026-01-13 12:00:30.54	338.26	4.21	-60.3	-76.3	3.8	1.49e+00	0	27	104	1319108608	85	24674
2026-01-13 12:00:34.54	338.56	3.97	-60.3	-76.4	3.8	1.49e+00	0	27	104	1319108608	85	24781
2026-01-13 12:00:38.55	338.85	3.73	-60.3	-76.4	3.8	1.49e+00	0	27	104	1319108608	85	24794
2026-01-13 12:00:42.57	339.14	3.50	-60.3	-76.3	3.8	1.49e+00	0	27	104	1319108608	85	24635
2026-01-13 12:00:46.58	339.42	3.27	-60.2	-76.3	3.8	1.49e+00	0	27	104	1319108608	85	24432
2026-01-13 12:00:50.61	339.71	3.03	-60.1	-76.2	3.8	1.49e+00	0	27	104	1319108608	85	24300
2026-01-13 12:00:54.61	339.98	2.80	-60.1	-76.2	3.8	1.49e+00	0	27	104	1319108608	85	24263
2026-01-13 12:00:58.62	340.26	2.57	-60.1	-76.1	3.8	1.49e+00	0	27	104	1319108608	85	24098
2026-01-13 12:01:02.61	340.52	2.35	-60.0	-76.1	3.8	1.49e+00	0	27	104	1319108608	85	24047
2026-01-13 12:01:06.63	340.79	2.12	-60.0	-76.1	3.8	1.49e+00	0	27	104	1319108608	85	24016

#Closed at: 2026-01-13 12:01:09
#Recorded file [1319 MB]: D:/lorett/data/31004_260113_144754.dat