passes_logs/2026/01/13/R3.2S_Murmansk/R3.2S_Murmansk__20260113_110530_FENGYUN_3D_rec.log

#Pass ID: 20260113_110530_FENGYUN 3D
#Satellite: FENGYUN 3D
#Configuration: FENGYUN 3D
#almurnet v.1.7.20251203
#Start time: 2026-01-13 11:05:30

#Version: 2.2.20231116
#Station: R3.2S_Murmansk
#Location: 33.079688 lon 68.888172 lat
#TLE: 1 43010U 17072A   26013.17115950  .00000473  00000+0  24523-3 0  9998
#TLE: 2 43010  98.9934 344.9592 0002262 111.3119 248.8298 14.19696744422995

#Time	Az	El	Level	Level2	SNR	BER	BlckErr	Temp	State	Recorded	gain1	gain2
2026-01-13 11:05:30.90	140.45	2.04	-58.0	-70.9	3.8	8.47e-01	0	24	0	0	82	15732
2026-01-13 11:05:34.87	140.42	2.30	-57.9	-70.9	3.8	8.46e-01	0	24	104	0	80	17516
2026-01-13 11:05:38.84	140.38	2.56	-57.9	-70.8	3.8	8.46e-01	0	24	104	0	80	17382
2026-01-13 11:05:42.82	140.35	2.82	-57.9	-70.8	3.8	8.45e-01	0	25	104	0	80	17299
2026-01-13 11:05:46.81	140.31	3.08	-57.9	-70.6	3.8	8.46e-01	0	25	104	0	80	17014
2026-01-13 11:05:50.78	140.27	3.35	-57.9	-70.1	3.8	8.45e-01	0	25	104	0	80	16074
2026-01-13 11:05:54.76	140.23	3.62	-57.2	-64.8	5.2	7.49e-01	0	25	0	0	80	8739
2026-01-13 11:05:58.73	140.19	3.89	-56.6	-62.4	6.8	1.88e-01	0	25	0	17825792	79	7012
2026-01-13 11:06:02.69	140.15	4.16	-55.4	-59.5	9.4	1.19e-02	0	25	0	39845888	77	5593
2026-01-13 11:06:06.66	140.11	4.44	-52.8	-55.2	12.4	1.71e-05	0	25	0	61865984	72	4594
2026-01-13 11:06:10.63	140.07	4.72	-51.2	-53.1	13.5	0.00e+00	0	25	0	83886080	69	4274
2026-01-13 11:06:14.61	140.02	5.00	-50.8	-52.7	13.5	0.00e+00	0	25	0	106954752	67	4591
2026-01-13 11:06:18.58	139.98	5.28	-53.9	-56.7	11.5	6.75e-03	0	26	0	128974848	74	4850
2026-01-13 11:06:22.56	139.93	5.57	-50.5	-52.3	13.8	0.00e+00	0	25	0	150994944	67	4361
2026-01-13 11:06:26.54	139.88	5.86	-50.0	-51.7	14.0	0.00e+00	0	26	0	174063616	66	4317
2026-01-13 11:06:30.51	139.83	6.16	-50.0	-51.7	14.1	0.00e+00	0	26	0	196083712	66	4301
2026-01-13 11:06:34.47	139.78	6.46	-50.0	-51.7	14.1	0.00e+00	0	26	0	218103808	66	4312
2026-01-13 11:06:38.45	139.73	6.76	-49.8	-51.5	14.2	0.00e+00	0	26	0	241172480	66	4197
2026-01-13 11:06:42.42	139.68	7.06	-49.9	-51.6	14.2	0.00e+00	0	26	0	263192576	66	4252
2026-01-13 11:06:46.40	139.62	7.37	-49.6	-51.2	14.2	0.00e+00	0	26	0	285212672	65	4322
2026-01-13 11:06:50.38	139.57	7.69	-49.7	-51.3	14.2	0.00e+00	0	26	0	308281344	65	4353
2026-01-13 11:06:54.36	139.51	8.00	-49.4	-51.0	14.4	0.00e+00	0	26	0	330301440	65	4213
2026-01-13 11:06:58.33	139.45	8.32	-49.3	-50.8	14.5	0.00e+00	0	26	0	352321536	65	4102
2026-01-13 11:07:02.31	139.39	8.65	-49.0	-50.5	14.5	0.00e+00	0	26	0	375390208	64	4219
2026-01-13 11:07:06.29	139.33	8.98	-48.9	-50.3	14.6	0.00e+00	0	26	0	397410304	64	4132
2026-01-13 11:07:10.26	139.26	9.31	-48.8	-50.3	14.5	0.00e+00	0	26	0	419430400	63	4342
2026-01-13 11:07:14.24	139.20	9.65	-48.8	-50.3	14.5	0.00e+00	0	26	0	442499072	63	4355
2026-01-13 11:07:18.21	139.13	9.99	-48.5	-49.9	14.7	0.00e+00	0	26	0	464519168	63	4178
2026-01-13 11:07:22.18	139.06	10.34	-48.4	-49.8	14.8	0.00e+00	0	26	0	486539264	63	4134
2026-01-13 11:07:26.16	138.99	10.69	-48.4	-49.8	14.8	0.00e+00	0	26	0	509607936	63	4104
2026-01-13 11:07:30.15	138.92	11.05	-48.3	-49.7	14.8	0.00e+00	0	26	0	531628032	63	4068
2026-01-13 11:07:34.14	138.84	11.41	-48.2	-49.6	14.9	0.00e+00	0	26	0	553648128	63	4021
2026-01-13 11:07:38.13	138.76	11.78	-48.2	-49.6	14.7	0.00e+00	0	26	0	576716800	62	4253
2026-01-13 11:07:42.13	138.68	12.16	-48.0	-49.4	14.8	0.00e+00	0	26	0	598736896	62	4163
2026-01-13 11:07:46.12	138.60	12.54	-48.1	-49.4	14.8	0.00e+00	0	26	0	621805568	62	4188
2026-01-13 11:07:50.12	138.51	12.93	-48.0	-49.3	14.9	0.00e+00	0	26	0	643825664	62	4137
2026-01-13 11:07:54.11	138.42	13.32	-47.8	-49.1	14.9	0.00e+00	0	26	0	666894336	62	4049
2026-01-13 11:07:58.11	138.33	13.72	-47.7	-49.1	15.0	0.00e+00	0	26	0	688914432	62	4020
2026-01-13 11:08:02.10	138.24	14.12	-47.5	-48.9	14.9	0.00e+00	0	26	0	710934528	61	4150
2026-01-13 11:08:06.08	138.14	14.54	-47.3	-48.7	15.0	0.00e+00	0	26	0	734003200	61	4054
2026-01-13 11:08:10.07	138.04	14.96	-47.3	-48.5	15.1	0.00e+00	0	26	0	756023296	61	4000
2026-01-13 11:08:14.03	137.94	15.38	-47.2	-48.5	15.1	0.00e+00	0	26	0	778043392	61	3998
2026-01-13 11:08:18.01	137.83	15.81	-46.9	-48.2	15.1	0.00e+00	0	26	0	801112064	60	4072
2026-01-13 11:08:22.02	137.72	16.26	-46.9	-48.1	15.1	0.00e+00	0	26	0	823132160	60	4039
2026-01-13 11:08:26.00	137.61	16.71	-46.9	-48.1	15.1	0.00e+00	0	26	0	846200832	60	4044
2026-01-13 11:08:29.98	137.49	17.16	-46.8	-48.0	15.2	0.00e+00	0	26	0	868220928	60	3994
2026-01-13 11:08:33.98	137.37	17.63	-47.0	-48.3	14.9	0.00e+00	0	26	0	890241024	59	4355
2026-01-13 11:08:37.99	137.24	18.11	-46.9	-48.2	15.0	0.00e+00	0	26	0	913309696	59	4321
2026-01-13 11:08:41.99	137.11	18.60	-46.9	-48.3	14.9	0.00e+00	0	26	0	935329792	59	4344
2026-01-13 11:08:45.98	136.98	19.09	-47.0	-48.3	14.9	0.00e+00	0	26	0	958398464	59	4351
2026-01-13 11:08:49.96	136.84	19.59	-46.9	-48.2	15.0	0.00e+00	0	26	0	980418560	59	4317
2026-01-13 11:08:53.95	136.69	20.11	-46.9	-48.2	15.0	0.00e+00	0	26	0	1003487232	59	4313
2026-01-13 11:08:57.93	136.54	20.63	-46.8	-48.1	15.0	0.00e+00	0	26	0	1025507328	59	4272
2026-01-13 11:09:01.89	136.38	21.16	-46.7	-48.0	15.0	0.00e+00	0	26	0	1047527424	59	4235
2026-01-13 11:09:05.87	136.22	21.71	-46.5	-47.8	15.1	0.00e+00	0	26	0	1069547520	59	4138
2026-01-13 11:09:09.84	136.05	22.27	-46.4	-47.6	15.2	0.00e+00	0	26	0	1092616192	59	4027
2026-01-13 11:09:13.83	135.88	22.84	-45.9	-47.1	15.2	0.00e+00	0	26	0	1114636288	58	4024
2026-01-13 11:09:17.81	135.69	23.42	-45.6	-46.8	15.2	0.00e+00	0	26	0	1137704960	57	4133
2026-01-13 11:09:21.79	135.50	24.02	-45.7	-47.0	15.1	0.00e+00	0	26	0	1159725056	57	4196
2026-01-13 11:09:25.76	135.31	24.62	-45.9	-47.1	15.1	0.00e+00	0	26	0	1181745152	57	4275
2026-01-13 11:09:29.75	135.10	25.25	-45.9	-47.1	15.1	0.00e+00	0	26	0	1204813824	57	4290
2026-01-13 11:09:33.76	134.88	25.89	-45.7	-46.9	15.2	0.00e+00	0	26	0	1226833920	57	4181
2026-01-13 11:09:37.74	134.66	26.55	-45.7	-46.9	15.2	0.00e+00	0	26	0	1248854016	57	4179
2026-01-13 11:09:41.71	134.42	27.21	-45.8	-47.0	15.1	0.00e+00	0	26	0	1271922688	57	4214
2026-01-13 11:09:45.70	134.18	27.90	-45.5	-46.7	15.2	0.00e+00	0	26	0	1293942784	57	4089
2026-01-13 11:09:49.68	133.92	28.60	-45.5	-46.7	15.3	0.00e+00	0	26	0	1315962880	57	4074
2026-01-13 11:09:53.67	133.65	29.32	-45.7	-46.9	15.2	0.00e+00	0	26	0	1339031552	57	4183
2026-01-13 11:09:57.65	133.37	30.06	-45.6	-46.8	15.2	0.00e+00	0	26	0	1361051648	57	4119
2026-01-13 11:10:01.64	133.07	30.82	-45.4	-46.6	15.3	0.00e+00	0	26	0	1384120320	57	4019
2026-01-13 11:10:05.61	132.76	31.59	-45.3	-46.5	15.3	0.00e+00	0	26	0	1406140416	57	3995
2026-01-13 11:10:09.58	132.43	32.38	-45.1	-46.4	15.2	0.00e+00	0	26	0	1428160512	56	4152
2026-01-13 11:10:13.55	132.09	33.19	-45.2	-46.4	15.2	0.00e+00	0	26	0	1451229184	56	4191
2026-01-13 11:10:17.54	131.72	34.03	-45.2	-46.4	15.2	0.00e+00	0	27	0	1473249280	56	4164
2026-01-13 11:10:21.50	131.34	34.89	-45.4	-46.4	15.2	0.00e+00	0	26	0	1495269376	56	4189
2026-01-13 11:10:25.48	130.94	35.77	-45.0	-46.1	15.3	0.00e+00	0	26	0	1518338048	56	4016
2026-01-13 11:10:29.44	130.51	36.66	-45.2	-46.3	15.2	0.00e+00	0	26	0	1540358144	56	4108
2026-01-13 11:10:33.42	130.06	37.59	-45.4	-46.5	15.2	0.00e+00	0	26	0	1562378240	56	4218
2026-01-13 11:10:37.40	129.57	38.54	-45.2	-46.2	15.2	0.00e+00	0	26	0	1585446912	56	4090
2026-01-13 11:10:41.39	129.06	39.52	-45.9	-47.0	15.1	0.00e+00	0	26	0	1607467008	56	4461
2026-01-13 11:10:45.35	128.52	40.51	-45.8	-46.9	15.2	0.00e+00	0	26	0	1629487104	57	4164
2026-01-13 11:10:49.34	127.94	41.54	-45.6	-46.7	15.2	0.00e+00	0	26	0	1651507200	57	4053
2026-01-13 11:10:53.34	127.31	42.60	-45.5	-46.5	15.3	0.00e+00	0	26	0	1674575872	57	3991
2026-01-13 11:10:57.31	126.65	43.68	-45.3	-46.4	15.3	0.00e+00	0	26	0	1696595968	57	3918
2026-01-13 11:11:01.30	125.94	44.78	-45.7	-46.8	15.2	0.00e+00	0	26	0	1719664640	57	4115
2026-01-13 11:11:05.27	125.18	45.91	-45.6	-46.7	15.2	0.00e+00	0	26	0	1741684736	57	4073
2026-01-13 11:11:09.28	124.35	47.08	-45.8	-46.9	15.2	0.00e+00	0	27	0	1763704832	57	4146
2026-01-13 11:11:13.25	123.46	48.25	-46.0	-47.1	15.1	0.00e+00	0	27	0	1786773504	57	4254
2026-01-13 11:11:17.24	122.50	49.46	-46.5	-47.6	15.1	0.00e+00	0	26	0	1808793600	58	4249
2026-01-13 11:11:21.26	121.45	50.71	-46.5	-47.6	15.1	0.00e+00	0	27	0	1831862272	58	4285
2026-01-13 11:11:25.26	120.31	51.96	-46.8	-47.9	15.1	0.00e+00	0	26	0	1853882368	59	4171
2026-01-13 11:11:29.22	119.08	53.23	-46.8	-47.9	15.1	0.00e+00	0	26	0	1875902464	59	4160
2026-01-13 11:11:33.19	117.74	54.52	-46.5	-47.6	15.2	0.00e+00	0	26	0	1898971136	59	4033
2026-01-13 11:11:37.17	116.26	55.82	-46.4	-47.4	15.3	0.00e+00	0	26	0	1920991232	59	3954
2026-01-13 11:11:41.13	114.64	57.13	-46.2	-47.3	15.2	0.00e+00	0	26	0	1943011328	58	4139
2026-01-13 11:11:45.11	112.85	58.45	-46.7	-47.8	15.0	0.00e+00	0	26	0	1966080000	58	4383
2026-01-13 11:11:49.09	110.88	59.77	-46.3	-47.4	15.1	0.00e+00	0	26	0	1988100096	58	4164
2026-01-13 11:11:53.08	108.68	61.09	-45.9	-47.0	15.3	0.00e+00	0	26	0	2010120192	58	3961
2026-01-13 11:11:57.07	106.24	62.39	-45.4	-46.5	15.3	0.00e+00	0	26	0	2033188864	57	3968
2026-01-13 11:12:01.07	103.52	63.67	-45.3	-46.3	15.2	0.00e+00	0	26	0	2055208960	56	4118
2026-01-13 11:12:05.05	100.50	64.91	-44.9	-46.0	15.4	0.00e+00	0	26	0	2078277632	56	3974
2026-01-13 11:12:09.04	97.13	66.10	-44.7	-45.8	15.3	0.00e+00	0	26	0	2100297728	55	4109
2026-01-13 11:12:13.06	93.35	67.23	-44.7	-45.8	15.2	0.00e+00	0	26	0	2123366400	54	4349
2026-01-13 11:12:17.08	89.15	68.27	-44.2	-45.2	15.3	0.00e+00	0	26	0	2145386496	54	4085
2026-01-13 11:12:21.10	84.52	69.20	-44.5	-45.6	15.2	0.00e+00	0	26	0	2168455168	54	4246
2026-01-13 11:12:25.08	79.50	70.00	-44.5	-45.5	15.3	0.00e+00	0	26	0	2190475264	54	4237
2026-01-13 11:12:29.09	74.04	70.64	-44.6	-45.6	15.2	0.00e+00	0	26	0	2213543936	54	4288
2026-01-13 11:12:33.10	68.23	71.12	-44.4	-45.4	15.2	0.00e+00	0	26	0	2235564032	54	4185
2026-01-13 11:12:37.09	62.20	71.40	-44.3	-45.3	15.3	0.00e+00	0	26	0	2257584128	54	4117
2026-01-13 11:12:41.06	56.07	71.48	-44.8	-45.8	15.2	0.00e+00	0	26	0	2280652800	54	4387
2026-01-13 11:12:45.07	49.90	71.36	-44.4	-45.4	15.4	0.00e+00	0	26	0	2302672896	55	3931
2026-01-13 11:12:49.08	43.88	71.04	-44.1	-45.1	15.3	0.00e+00	0	26	0	2325741568	54	4018
2026-01-13 11:12:53.08	38.14	70.54	-44.6	-45.6	15.2	0.00e+00	0	26	0	2347761664	54	4275
2026-01-13 11:12:57.09	32.76	69.86	-44.4	-45.4	15.3	0.00e+00	0	26	0	2370830336	54	4188
2026-01-13 11:13:01.08	27.81	69.04	-44.2	-45.3	15.3	0.00e+00	0	26	0	2392850432	54	4104
2026-01-13 11:13:05.07	23.30	68.09	-44.5	-45.6	15.2	0.00e+00	0	26	0	2415919104	54	4246
2026-01-13 11:13:09.05	19.22	67.04	-44.9	-45.9	15.2	0.00e+00	0	26	0	2437939200	54	4430
2026-01-13 11:13:13.04	15.54	65.91	-44.5	-45.6	15.2	0.00e+00	0	26	0	2459959296	54	4252
2026-01-13 11:13:17.03	12.23	64.71	-44.9	-45.9	15.2	0.00e+00	0	26	0	2483027968	54	4429
2026-01-13 11:13:21.04	9.24	63.46	-45.2	-46.3	15.2	0.00e+00	0	26	0	2505048064	55	4366
2026-01-13 11:13:25.03	6.58	62.18	-45.0	-46.0	15.2	0.00e+00	0	26	0	2528116736	55	4240
2026-01-13 11:13:29.02	4.19	60.88	-45.3	-46.4	15.2	0.00e+00	0	26	0	2550136832	55	4404
2026-01-13 11:13:33.02	2.02	59.56	-46.1	-47.2	15.1	0.00e+00	0	26	0	2573205504	57	4305
2026-01-13 11:13:37.01	0.08	58.24	-45.7	-46.8	15.2	0.00e+00	0	26	0	2595225600	57	4114
2026-01-13 11:13:41.03	358.31	56.90	-45.8	-46.8	15.2	0.00e+00	0	26	0	2618294272	57	4135
2026-01-13 11:13:45.03	356.70	55.59	-46.3	-47.5	15.1	0.00e+00	0	26	0	2640314368	57	4443
2026-01-13 11:13:49.04	355.24	54.28	-46.4	-47.5	15.1	0.00e+00	0	26	0	2662334464	58	4225
2026-01-13 11:13:53.05	353.91	52.99	-46.2	-47.3	15.2	0.00e+00	0	26	0	2685403136	58	4131
2026-01-13 11:13:57.04	352.70	51.72	-46.0	-47.0	15.3	0.00e+00	0	26	0	2707423232	58	3997
2026-01-13 11:14:01.05	351.58	50.46	-45.8	-46.8	15.3	0.00e+00	0	26	0	2730491904	58	3895
2026-01-13 11:14:05.06	350.55	49.23	-45.5	-46.6	15.3	0.00e+00	0	26	0	2753560576	57	4014
2026-01-13 11:14:09.08	349.60	48.02	-45.6	-46.6	15.3	0.00e+00	0	26	0	2775580672	57	4040
2026-01-13 11:14:13.08	348.72	46.84	-45.4	-46.5	15.3	0.00e+00	0	26	0	2797600768	57	3961
2026-01-13 11:14:17.08	347.91	45.69	-45.4	-46.4	15.3	0.00e+00	0	26	0	2820669440	57	3943
2026-01-13 11:14:21.04	347.17	44.57	-45.5	-46.5	15.3	0.00e+00	0	26	0	2842689536	57	3987
2026-01-13 11:14:25.03	346.47	43.47	-45.3	-46.3	15.2	0.00e+00	0	26	0	2865758208	56	4133
2026-01-13 11:14:29.03	345.81	42.40	-45.4	-46.4	15.2	0.00e+00	0	26	0	2887778304	56	4178
2026-01-13 11:14:33.02	345.20	41.35	-45.1	-46.1	15.3	0.00e+00	0	27	0	2909798400	56	4026
2026-01-13 11:14:37.01	344.63	40.33	-45.1	-46.2	15.3	0.00e+00	0	26	0	2932867072	56	4055
2026-01-13 11:14:41.00	344.09	39.34	-45.1	-46.2	15.3	0.00e+00	0	26	0	2954887168	56	4070
2026-01-13 11:14:44.98	343.59	38.37	-44.9	-45.9	15.4	0.00e+00	0	26	0	2977955840	56	3952
2026-01-13 11:14:48.97	343.11	37.43	-44.4	-45.4	15.3	0.00e+00	0	26	0	2999975936	55	3949
2026-01-13 11:14:52.95	342.66	36.51	-44.6	-45.6	15.3	0.00e+00	0	26	0	3021996032	55	4049
2026-01-13 11:14:56.95	342.24	35.61	-44.7	-45.7	15.3	0.00e+00	0	26	0	3045064704	55	4087
2026-01-13 11:15:00.97	341.84	34.73	-44.9	-45.9	15.2	0.00e+00	0	26	0	3067084800	55	4184
2026-01-13 11:15:04.98	341.46	33.87	-44.9	-45.9	15.2	0.00e+00	0	26	0	3090153472	55	4164
2026-01-13 11:15:08.98	341.10	33.04	-44.8	-45.9	15.2	0.00e+00	0	26	0	3112173568	55	4150
2026-01-13 11:15:12.96	340.76	32.23	-45.2	-46.3	15.2	0.00e+00	0	26	0	3135242240	55	4351
2026-01-13 11:15:16.96	340.44	31.44	-45.4	-46.5	15.2	0.00e+00	0	26	0	3157262336	55	4453
2026-01-13 11:15:20.94	340.13	30.67	-45.6	-46.6	15.2	0.00e+00	0	26	0	3179282432	56	4284
2026-01-13 11:15:24.90	339.84	29.93	-45.5	-46.6	15.2	0.00e+00	0	26	0	3202351104	56	4280
2026-01-13 11:15:28.89	339.56	29.19	-45.4	-46.5	15.2	0.00e+00	0	27	0	3224371200	56	4215
2026-01-13 11:15:32.85	339.30	28.48	-45.4	-46.4	15.2	0.00e+00	0	26	0	3247439872	56	4186
2026-01-13 11:15:36.82	339.05	27.79	-45.4	-46.5	15.2	0.00e+00	0	26	0	3269459968	56	4216
2026-01-13 11:15:40.80	338.81	27.11	-45.5	-46.6	15.2	0.00e+00	0	27	0	3291480064	56	4271
2026-01-13 11:15:44.79	338.58	26.45	-45.4	-46.5	15.2	0.00e+00	0	26	0	3313500160	56	4227
2026-01-13 11:15:48.78	338.35	25.80	-45.5	-46.6	15.2	0.00e+00	0	26	0	3336568832	56	4246
2026-01-13 11:15:52.75	338.14	25.17	-45.5	-46.5	15.2	0.00e+00	0	27	0	3358588928	56	4239
2026-01-13 11:15:56.73	337.94	24.55	-45.5	-46.6	15.2	0.00e+00	0	26	0	3380609024	56	4249
2026-01-13 11:16:00.73	337.74	23.94	-45.6	-46.7	15.1	0.00e+00	0	26	0	3403677696	56	4303
2026-01-13 11:16:04.73	337.56	23.35	-45.9	-47.0	15.1	0.00e+00	0	26	0	3425697792	57	4227
2026-01-13 11:16:08.71	337.38	22.77	-46.3	-47.5	15.1	0.00e+00	0	26	0	3448766464	57	4452
2026-01-13 11:16:12.71	337.20	22.20	-46.4	-47.5	15.1	0.00e+00	0	26	0	3470786560	58	4228
2026-01-13 11:16:16.71	337.04	21.64	-46.4	-47.5	15.1	0.00e+00	0	26	0	3493855232	58	4236
2026-01-13 11:16:20.72	336.88	21.10	-46.4	-47.5	15.1	0.00e+00	0	26	0	3515875328	58	4208
2026-01-13 11:16:24.71	336.73	20.57	-46.3	-47.4	15.1	0.00e+00	0	26	0	3538944000	58	4168
2026-01-13 11:16:28.70	336.58	20.04	-46.4	-47.5	15.1	0.00e+00	0	26	0	3560964096	58	4202
2026-01-13 11:16:32.68	336.44	19.54	-46.5	-47.6	15.1	0.00e+00	0	26	0	3582984192	58	4248
2026-01-13 11:16:36.64	336.30	19.04	-46.7	-47.8	15.0	0.00e+00	0	26	0	3605004288	58	4383
2026-01-13 11:16:40.62	336.17	18.55	-46.6	-47.7	15.0	0.00e+00	0	26	0	3628072960	58	4326
2026-01-13 11:16:44.58	336.04	18.07	-46.7	-47.8	15.0	0.00e+00	0	26	0	3650093056	58	4391
2026-01-13 11:16:48.57	335.92	17.60	-46.9	-48.0	15.0	0.00e+00	0	26	0	3673161728	59	4224
2026-01-13 11:16:52.54	335.80	17.14	-46.9	-48.0	15.0	0.00e+00	0	26	0	3695181824	59	4224
2026-01-13 11:16:56.51	335.68	16.68	-47.0	-48.2	15.0	0.00e+00	0	26	0	3717201920	59	4305
2026-01-13 11:17:00.48	335.57	16.24	-47.1	-48.3	15.0	0.00e+00	0	26	0	3740270592	59	4349
2026-01-13 11:17:04.47	335.47	15.80	-47.3	-48.5	14.9	0.00e+00	0	26	0	3762290688	59	4465
2026-01-13 11:17:08.45	335.36	15.37	-47.2	-48.4	15.0	0.00e+00	0	27	0	3784310784	60	4164
2026-01-13 11:17:12.46	335.26	14.94	-47.4	-48.5	14.9	0.00e+00	0	27	0	3807379456	60	4238
2026-01-13 11:17:16.45	335.16	14.53	-47.4	-48.5	14.9	0.00e+00	0	27	0	3829399552	60	4239
2026-01-13 11:17:20.44	335.07	14.12	-47.6	-48.8	14.8	0.00e+00	0	26	0	3852468224	60	4349
2026-01-13 11:17:24.40	334.98	13.72	-47.8	-49.0	14.8	0.00e+00	0	26	0	3874488320	60	4466
2026-01-13 11:17:28.40	334.89	13.32	-47.6	-48.8	14.8	0.00e+00	0	26	0	3896508416	60	4375
2026-01-13 11:17:32.39	334.81	12.93	-47.8	-49.0	14.7	0.00e+00	0	27	0	3919577088	60	4474
2026-01-13 11:17:36.39	334.72	12.54	-48.0	-49.2	14.8	0.00e+00	0	26	0	3941597184	61	4305
2026-01-13 11:17:40.37	334.64	12.16	-48.0	-49.2	14.7	0.00e+00	0	27	0	3963617280	61	4318
2026-01-13 11:17:44.33	334.57	11.79	-48.0	-49.2	14.7	0.00e+00	0	26	0	3986685952	61	4324
2026-01-13 11:17:48.33	334.49	11.43	-48.1	-49.4	14.7	0.00e+00	0	27	0	4008706048	61	4392
2026-01-13 11:17:52.32	334.42	11.06	-48.3	-49.5	14.6	0.00e+00	0	26	0	4031774720	61	4476
2026-01-13 11:17:56.29	334.35	10.71	-48.3	-49.6	14.6	0.00e+00	0	26	0	4053794816	61	4497
2026-01-13 11:18:00.26	334.28	10.36	-48.3	-49.6	14.6	0.00e+00	0	26	0	4075814912	61	4504
2026-01-13 11:18:04.27	334.21	10.01	-48.5	-49.7	14.7	0.00e+00	0	26	0	4098883584	62	4330
2026-01-13 11:18:08.27	334.14	9.67	-48.6	-49.9	14.6	0.00e+00	0	26	0	4120903680	62	4398
2026-01-13 11:18:12.27	334.08	9.33	-48.7	-50.0	14.5	0.00e+00	0	27	0	4143972352	62	4474
2026-01-13 11:18:16.29	334.02	8.99	-48.8	-50.1	14.5	0.00e+00	0	26	0	4165992448	62	4507
2026-01-13 11:18:20.28	333.96	8.67	-48.9	-50.2	14.4	0.00e+00	0	27	0	4189061120	62	4572
2026-01-13 11:18:24.26	333.90	8.34	-48.9	-50.2	14.5	0.00e+00	0	27	0	4211081216	63	4322
2026-01-13 11:18:28.25	333.85	8.02	-49.0	-50.4	14.4	0.00e+00	0	26	0	4233101312	63	4413
2026-01-13 11:18:32.25	333.79	7.71	-49.1	-50.5	14.4	0.00e+00	0	26	0	4256169984	63	4451
2026-01-13 11:18:36.23	333.74	7.39	-49.1	-50.5	14.4	0.00e+00	0	27	0	4278190080	63	4450
2026-01-13 11:18:40.22	333.69	7.08	-49.4	-50.8	14.2	0.00e+00	0	27	0	4301258752	63	4631
2026-01-13 11:18:44.21	333.64	6.78	-49.3	-50.7	14.4	0.00e+00	0	26	0	4323278848	64	4318
2026-01-13 11:18:48.21	333.59	6.48	-49.4	-50.8	14.3	0.00e+00	0	26	0	4345298944	64	4387
2026-01-13 11:18:52.21	333.54	6.18	-49.7	-51.1	14.2	0.00e+00	0	26	0	4368367616	64	4533
2026-01-13 11:18:56.20	333.49	5.88	-49.5	-50.9	14.2	0.00e+00	0	26	0	4390387712	64	4419
2026-01-13 11:19:00.19	333.45	5.59	-49.8	-51.2	14.1	0.00e+00	0	26	0	4413456384	64	4594
2026-01-13 11:19:04.17	333.41	5.30	-49.7	-51.2	14.1	0.00e+00	0	26	0	4435476480	64	4583
2026-01-13 11:19:08.15	333.36	5.02	-50.0	-51.5	14.0	0.00e+00	0	26	0	4457496576	65	4466
2026-01-13 11:19:12.15	333.32	4.74	-59.3	-72.4	3.8	8.46e-01	0	26	104	4462739456	83	17594
2026-01-13 11:19:16.18	333.28	4.46	-59.9	-73.1	3.8	8.44e-01	0	26	104	4462739456	85	16967
2026-01-13 11:19:20.20	333.24	4.18	-60.2	-73.3	3.8	8.46e-01	0	27	104	4462739456	85	17365
2026-01-13 11:19:24.22	333.20	3.90	-60.3	-73.4	3.8	8.44e-01	0	26	104	4462739456	85	17537
2026-01-13 11:19:28.25	333.17	3.63	-60.3	-73.4	3.8	8.47e-01	0	27	104	4462739456	85	17662
2026-01-13 11:19:32.25	333.13	3.36	-60.3	-73.4	3.8	8.46e-01	0	26	104	4462739456	85	17508
2026-01-13 11:19:36.24	333.09	3.09	-60.2	-73.3	3.8	8.46e-01	0	27	104	4462739456	85	17400
2026-01-13 11:19:40.23	333.06	2.83	-60.1	-73.2	3.8	8.45e-01	0	26	104	4462739456	85	17184
2026-01-13 11:19:44.21	333.03	2.57	-60.1	-73.2	3.8	8.47e-01	0	27	104	4462739456	85	17086
2026-01-13 11:19:48.19	333.00	2.31	-60.1	-73.2	3.8	8.46e-01	0	27	104	4462739456	85	17092
2026-01-13 11:19:52.17	332.96	2.06	-60.1	-73.2	3.8	8.45e-01	0	27	104	4462739456	85	17201

#Closed at: 2026-01-13 11:19:54
#Recorded file [4462 MB]: D:/lorett/data/31004_260113_140530.dat