passes_logs/2026/01/13/R3.2S_Murmansk/R3.2S_Murmansk__20260113_205817_KANOPUS-V_5_rec.log

#Pass ID: 20260113_205817_KANOPUS-V 5
#Satellite: KANOPUS-V 5
#Configuration: KANOPUS-V_8320
#almurnet v.1.7.20251203
#Start time: 2026-01-13 20:58:17

#Version: 2.2.20231116
#Station: R3.2S_Murmansk
#Location: 33.079688 lon 68.888172 lat
#TLE: 1 43876U 18111A   26013.65992293  .00002361  00000+0  10210-3 0  9995
#TLE: 2 43876  97.3684 282.1984 0001772  87.0401 273.1039 15.23431305391261

#Time	Az	El	Level	Level2	SNR	BER	BlckErr	Temp	State	Recorded	gain1	gain2
2026-01-13 20:58:17.72	21.88	2.03	-59.0	-68.7	3.8	7.46e-01	0	26	0	0	82	10877
2026-01-13 20:58:20.65	22.08	2.22	-59.0	-68.7	3.8	7.46e-01	0	26	104	0	82	10840
2026-01-13 20:58:23.57	22.28	2.41	-59.0	-68.7	3.8	7.44e-01	0	26	104	0	82	10844
2026-01-13 20:58:26.49	22.49	2.61	-59.0	-68.7	3.8	7.46e-01	0	26	104	0	82	10882
2026-01-13 20:58:29.41	22.70	2.80	-59.0	-68.8	3.8	7.46e-01	0	26	104	0	82	10911
2026-01-13 20:58:32.33	22.91	3.00	-59.0	-68.7	3.8	7.46e-01	0	26	104	0	82	10887
2026-01-13 20:58:35.23	23.13	3.19	-59.0	-68.8	3.8	7.45e-01	0	26	104	0	82	10909
2026-01-13 20:58:38.15	23.35	3.39	-59.0	-68.8	3.8	7.46e-01	0	26	104	0	82	10904
2026-01-13 20:58:41.08	23.57	3.59	-59.0	-68.8	3.8	7.45e-01	0	26	104	0	82	10927
2026-01-13 20:58:44.00	23.80	3.80	-59.0	-68.7	3.8	7.46e-01	0	26	104	0	82	10903
2026-01-13 20:58:46.91	24.03	4.00	-59.0	-68.8	3.8	7.45e-01	0	26	104	0	82	10936
2026-01-13 20:58:49.83	24.27	4.21	-59.0	-68.8	3.8	7.48e-01	0	26	104	0	82	10986
2026-01-13 20:58:52.75	24.51	4.42	-59.0	-68.8	3.8	7.45e-01	0	26	104	0	82	10937
2026-01-13 20:58:55.67	24.75	4.63	-59.1	-68.8	3.8	7.45e-01	0	26	104	0	82	10953
2026-01-13 20:58:58.59	25.00	4.84	-59.1	-68.8	3.8	7.46e-01	0	27	104	0	82	10952
2026-01-13 20:59:01.50	25.25	5.05	-59.2	-69.0	3.8	7.46e-01	0	27	104	0	82	11188
2026-01-13 20:59:04.43	25.51	5.27	-59.0	-68.7	3.8	7.46e-01	0	27	104	0	82	10889
2026-01-13 20:59:07.34	25.77	5.48	-58.9	-68.7	3.8	7.48e-01	0	27	104	0	82	10866
2026-01-13 20:59:10.25	26.03	5.70	-59.2	-69.0	3.8	7.46e-01	0	27	104	0	82	11207
2026-01-13 20:59:13.18	26.31	5.93	-59.4	-69.1	3.8	7.45e-01	0	27	104	0	82	11395
2026-01-13 20:59:16.08	26.58	6.15	-59.5	-69.3	3.8	7.46e-01	0	27	104	0	82	11550
2026-01-13 20:59:19.00	26.86	6.38	-59.3	-69.0	3.8	7.46e-01	0	27	104	0	82	11258
2026-01-13 20:59:21.92	27.15	6.60	-59.4	-69.2	3.8	7.46e-01	0	27	104	0	82	11430
2026-01-13 20:59:24.84	27.44	6.83	-59.5	-69.3	3.8	7.45e-01	0	27	104	0	82	11596
2026-01-13 20:59:27.76	27.74	7.07	-59.6	-69.3	3.8	7.46e-01	0	27	104	0	82	11668
2026-01-13 20:59:30.67	28.04	7.30	-59.5	-69.3	3.8	7.45e-01	0	27	104	0	82	11557
2026-01-13 20:59:33.59	28.35	7.54	-59.6	-69.3	3.8	7.46e-01	0	27	104	0	82	11649
2026-01-13 20:59:36.52	28.67	7.78	-59.7	-69.4	3.8	7.47e-01	0	27	104	0	82	11787
2026-01-13 20:59:39.43	28.99	8.02	-59.6	-69.4	3.8	7.47e-01	0	27	104	0	82	11716
2026-01-13 20:59:42.34	29.32	8.27	-59.7	-69.4	3.8	7.47e-01	0	27	104	0	82	11733
2026-01-13 20:59:45.25	29.65	8.51	-59.7	-69.5	3.8	7.46e-01	0	27	104	0	82	11910
2026-01-13 20:59:48.16	29.99	8.76	-59.8	-69.5	3.8	7.46e-01	0	27	104	0	82	11952
2026-01-13 20:59:51.07	30.34	9.02	-59.7	-69.5	3.8	7.44e-01	0	27	104	0	82	11821
2026-01-13 20:59:53.98	30.69	9.27	-59.7	-69.5	3.8	7.45e-01	0	27	104	0	82	11886
2026-01-13 20:59:56.89	31.06	9.53	-59.8	-69.6	3.8	7.46e-01	0	27	104	0	82	12023
2026-01-13 20:59:59.81	31.43	9.79	-59.9	-69.6	3.8	7.44e-01	0	27	104	0	82	12001
2026-01-13 21:00:02.73	31.81	10.05	-59.8	-69.5	3.8	7.44e-01	0	27	104	0	82	11953
2026-01-13 21:00:05.64	32.20	10.32	-59.9	-69.6	3.8	7.46e-01	0	27	104	0	82	12049
2026-01-13 21:00:08.57	32.59	10.59	-59.9	-69.7	3.8	7.47e-01	0	27	104	0	83	11451
2026-01-13 21:00:11.48	33.00	10.86	-59.9	-69.6	3.8	7.44e-01	0	27	104	0	83	11374
2026-01-13 21:00:14.40	33.41	11.14	-59.9	-69.6	3.8	7.46e-01	0	27	104	0	83	11364
2026-01-13 21:00:17.31	33.84	11.41	-60.0	-69.7	3.8	7.47e-01	0	27	104	0	83	11505
2026-01-13 21:00:20.24	34.27	11.70	-60.0	-69.7	3.8	7.46e-01	0	27	104	0	83	11508
2026-01-13 21:00:23.15	34.71	11.98	-59.9	-69.7	3.8	7.45e-01	0	27	104	0	83	11478
2026-01-13 21:00:26.07	35.17	12.27	-60.0	-69.7	3.8	7.45e-01	0	27	104	0	83	11484
2026-01-13 21:00:28.99	35.63	12.56	-60.0	-69.8	3.8	7.44e-01	0	27	104	0	83	11595
2026-01-13 21:00:31.91	36.11	12.85	-60.1	-69.8	3.8	7.45e-01	0	28	104	0	83	11658
2026-01-13 21:00:34.83	36.60	13.15	-60.0	-69.8	3.8	7.46e-01	0	27	104	0	83	11584
2026-01-13 21:00:37.74	37.09	13.45	-60.0	-69.8	3.8	7.47e-01	0	28	104	0	83	11572
2026-01-13 21:00:40.66	37.60	13.76	-60.1	-69.8	3.8	7.47e-01	0	28	104	0	83	11682
2026-01-13 21:00:43.56	38.12	14.06	-60.1	-69.8	3.8	7.45e-01	0	27	104	0	83	11676
2026-01-13 21:00:46.47	38.66	14.37	-60.1	-69.8	3.8	7.46e-01	0	28	104	0	83	11680
2026-01-13 21:00:49.38	39.20	14.68	-60.1	-69.9	3.8	7.45e-01	0	27	104	0	83	11687
2026-01-13 21:00:52.30	39.77	15.00	-60.2	-69.9	3.8	7.46e-01	0	27	104	0	83	11810
2026-01-13 21:00:55.22	40.34	15.32	-60.1	-69.9	3.8	7.47e-01	0	27	104	0	83	11741
2026-01-13 21:00:58.15	40.94	15.64	-60.2	-69.9	3.8	7.46e-01	0	28	104	0	83	11769
2026-01-13 21:01:01.07	41.54	15.97	-51.1	-53.7	12.0	6.11e-01	0	27	0	0	65	5106
2026-01-13 21:01:03.99	42.17	16.30	-51.1	-53.6	12.2	6.10e-01	0	27	0	44040192	66	4804
2026-01-13 21:01:06.91	42.80	16.63	-48.5	-50.8	13.5	6.08e-01	0	27	0	88080384	61	4606
2026-01-13 21:01:09.82	43.46	16.97	-48.1	-50.3	13.6	6.09e-01	0	27	0	134217728	60	4634
2026-01-13 21:01:12.72	44.12	17.30	-48.0	-50.3	13.6	6.08e-01	0	27	0	178257920	60	4600
2026-01-13 21:01:15.62	44.81	17.64	-47.9	-50.2	13.7	6.08e-01	0	27	0	222298112	60	4572
2026-01-13 21:01:18.52	45.51	17.98	-47.8	-50.1	13.6	6.08e-01	0	28	0	268435456	59	4778
2026-01-13 21:01:21.42	46.23	18.32	-48.1	-50.6	13.4	5.89e-01	0	28	0	312475648	59	5091
2026-01-13 21:01:24.32	46.97	18.67	-48.1	-50.7	13.4	5.91e-01	0	28	0	356515840	59	5121
2026-01-13 21:01:27.22	47.73	19.01	-48.2	-50.7	13.4	5.89e-01	0	27	0	400556032	59	5149
2026-01-13 21:01:30.11	48.50	19.36	-48.0	-50.4	13.5	5.90e-01	0	28	0	446693376	59	4970
2026-01-13 21:01:33.01	49.30	19.71	-47.8	-50.4	13.6	5.91e-01	0	28	0	490733568	59	4939
2026-01-13 21:01:35.91	50.12	20.06	-48.0	-50.6	13.5	5.90e-01	0	27	0	534773760	59	5099
2026-01-13 21:01:38.81	50.96	20.42	-48.0	-50.6	13.5	5.90e-01	0	27	0	578813952	59	5079
2026-01-13 21:01:41.71	51.83	20.77	-47.8	-50.3	13.6	5.91e-01	0	27	0	622854144	59	4882
2026-01-13 21:01:44.60	52.71	21.12	-47.7	-50.1	13.7	5.89e-01	0	28	0	666894336	59	4779
2026-01-13 21:01:47.50	53.62	21.47	-47.6	-50.2	13.7	5.90e-01	0	28	0	713031680	59	4827
2026-01-13 21:01:50.41	54.55	21.83	-48.0	-50.7	13.5	5.91e-01	0	28	0	757071872	59	5105
2026-01-13 21:01:53.32	55.51	22.18	-47.6	-50.1	13.8	5.98e-01	0	28	0	801112064	59	4760
2026-01-13 21:01:56.25	56.50	22.54	-47.4	-49.7	13.9	5.95e-01	0	28	0	847249408	59	4584
2026-01-13 21:01:59.16	57.51	22.89	-47.7	-50.3	13.7	5.99e-01	0	28	0	891289600	59	4881
2026-01-13 21:02:02.09	58.56	23.23	-48.0	-50.8	13.5	6.00e-01	0	28	0	937426944	59	5173
2026-01-13 21:02:05.00	59.62	23.58	-48.1	-50.8	13.5	5.99e-01	0	28	0	981467136	59	5165
2026-01-13 21:02:07.92	60.71	23.92	-47.8	-50.1	13.7	5.98e-01	0	28	0	1025507328	59	4808
2026-01-13 21:02:10.85	61.83	24.26	-47.9	-50.4	13.6	5.98e-01	0	28	0	1071644672	59	4958
2026-01-13 21:02:13.77	62.97	24.59	-47.9	-50.7	13.5	5.98e-01	0	28	0	1115684864	59	5131
2026-01-13 21:02:16.69	64.14	24.91	-47.7	-50.3	13.7	6.03e-01	0	28	0	1161822208	59	4910
2026-01-13 21:02:19.61	65.34	25.23	-47.4	-49.8	13.9	5.99e-01	0	28	0	1205862400	59	4640
2026-01-13 21:02:22.53	66.56	25.54	-47.8	-50.4	13.6	6.00e-01	0	28	0	1249902592	59	4968
2026-01-13 21:02:25.46	67.82	25.85	-48.2	-51.0	13.4	6.01e-01	0	28	0	1296039936	59	5297
2026-01-13 21:02:28.37	69.09	26.14	-48.3	-51.2	13.3	5.99e-01	0	28	0	1340080128	59	5452
2026-01-13 21:02:31.30	70.40	26.42	-48.0	-50.7	13.5	5.98e-01	0	28	0	1384120320	59	5121
2026-01-13 21:02:34.23	71.73	26.69	-47.9	-50.4	13.6	5.98e-01	0	28	0	1430257664	59	4972
2026-01-13 21:02:37.14	73.07	26.95	-48.0	-50.6	13.5	6.01e-01	0	28	0	1474297856	59	5081
2026-01-13 21:02:40.06	74.45	27.20	-48.2	-51.2	13.3	6.01e-01	0	28	0	1520435200	59	5455
2026-01-13 21:02:42.98	75.85	27.43	-48.3	-51.4	13.2	6.06e-01	0	28	0	1564475392	59	5532
2026-01-13 21:02:45.90	77.26	27.65	-48.3	-51.1	13.3	6.04e-01	0	28	0	1608515584	59	5343
2026-01-13 21:02:48.83	78.71	27.85	-48.0	-50.7	13.5	6.02e-01	0	28	0	1654652928	59	5147
2026-01-13 21:02:51.76	80.17	28.03	-48.1	-50.8	13.5	5.99e-01	0	28	0	1698693120	59	5196
2026-01-13 21:02:54.67	81.65	28.20	-48.3	-51.1	13.3	6.04e-01	0	27	0	1744830464	59	5359
2026-01-13 21:02:57.59	83.14	28.35	-48.3	-51.4	13.3	6.01e-01	0	28	0	1788870656	60	5222
2026-01-13 21:03:00.52	84.65	28.48	-48.6	-51.5	13.3	6.00e-01	0	28	0	1835008000	60	5289
2026-01-13 21:03:03.44	86.17	28.59	-48.5	-51.5	13.3	6.02e-01	0	28	0	1879048192	60	5290
2026-01-13 21:03:06.36	87.70	28.69	-48.3	-51.1	13.4	5.98e-01	0	28	0	1923088384	60	5096
2026-01-13 21:03:09.28	89.24	28.76	-48.0	-50.7	13.6	5.99e-01	0	28	0	1969225728	60	4860
2026-01-13 21:03:12.20	90.78	28.81	-47.8	-50.5	13.8	5.97e-01	0	28	0	2013265920	60	4723
2026-01-13 21:03:15.12	92.33	28.84	-47.9	-50.6	13.7	5.99e-01	0	28	0	2059403264	60	4771
2026-01-13 21:03:18.04	93.89	28.85	-47.9	-50.7	13.7	5.98e-01	0	28	0	2103443456	60	4845
2026-01-13 21:03:20.95	95.43	28.84	-47.7	-50.3	13.8	5.97e-01	0	28	0	2147483648	60	4645
2026-01-13 21:03:23.88	96.99	28.80	-47.9	-50.5	13.6	5.97e-01	0	28	0	2193620992	59	5023
2026-01-13 21:03:26.80	98.53	28.75	-48.0	-50.6	13.6	6.00e-01	0	28	0	2237661184	59	5063
2026-01-13 21:03:29.72	100.07	28.68	-48.0	-50.5	13.6	5.95e-01	0	28	0	2283798528	59	5021
2026-01-13 21:03:32.65	101.61	28.58	-47.7	-50.1	13.7	5.97e-01	0	28	0	2327838720	59	4801
2026-01-13 21:03:35.56	103.12	28.47	-47.6	-50.0	13.8	6.00e-01	0	28	0	2371878912	59	4720
2026-01-13 21:03:38.49	104.64	28.33	-47.9	-50.3	13.7	5.98e-01	0	28	0	2418016256	59	4922
2026-01-13 21:03:41.41	106.13	28.18	-47.8	-50.2	13.7	5.97e-01	0	28	0	2462056448	59	4861
2026-01-13 21:03:44.33	107.60	28.01	-47.8	-50.3	13.7	6.00e-01	0	28	0	2506096640	59	4906
2026-01-13 21:03:47.24	109.06	27.82	-47.8	-50.2	13.7	6.03e-01	0	28	0	2552233984	59	4822
2026-01-13 21:03:50.16	110.50	27.62	-47.7	-50.2	13.7	5.96e-01	0	28	0	2596274176	59	4829
2026-01-13 21:03:53.09	111.92	27.40	-47.7	-50.0	13.8	5.93e-01	0	28	0	2642411520	59	4707
2026-01-13 21:03:56.01	113.32	27.16	-47.5	-49.9	13.9	5.96e-01	0	28	0	2686451712	59	4680
2026-01-13 21:03:58.92	114.69	26.91	-47.6	-49.9	13.8	6.00e-01	0	28	0	2730491904	59	4692
2026-01-13 21:04:01.84	116.04	26.65	-47.8	-50.2	13.7	5.93e-01	0	28	0	2776629248	59	4827
2026-01-13 21:04:04.74	117.36	26.38	-47.4	-49.8	13.9	5.98e-01	0	28	0	2820669440	59	4600
2026-01-13 21:04:07.67	118.67	26.10	-47.3	-49.5	14.0	6.00e-01	0	28	0	2864709632	59	4466
2026-01-13 21:04:10.59	119.95	25.80	-47.1	-49.4	13.9	5.99e-01	0	28	0	2910846976	58	4701
2026-01-13 21:04:13.50	121.19	25.50	-47.0	-49.3	14.0	5.99e-01	0	28	0	2954887168	58	4622
2026-01-13 21:04:16.42	122.42	25.18	-47.3	-49.7	13.8	6.00e-01	0	28	0	3001024512	58	4863
2026-01-13 21:04:19.34	123.62	24.86	-47.3	-49.8	13.8	5.99e-01	0	28	0	3045064704	58	4900
2026-01-13 21:04:22.25	124.78	24.54	-47.2	-49.4	13.9	6.02e-01	0	28	0	3089104896	58	4694
2026-01-13 21:04:25.18	125.93	24.20	-47.2	-49.5	13.9	6.01e-01	0	28	0	3135242240	58	4729
2026-01-13 21:04:28.10	127.05	23.86	-47.3	-49.7	13.8	5.98e-01	0	28	0	3179282432	58	4839
2026-01-13 21:04:31.02	128.14	23.52	-47.3	-49.7	13.8	6.04e-01	0	28	0	3225419776	58	4854
2026-01-13 21:04:33.95	129.21	23.17	-47.2	-49.7	13.8	6.00e-01	0	28	0	3269459968	58	4846
2026-01-13 21:04:36.86	130.25	22.82	-47.1	-49.6	13.9	6.01e-01	0	28	0	3313500160	58	4785
2026-01-13 21:04:39.79	131.26	22.47	-47.2	-49.6	13.8	5.97e-01	0	28	0	3359637504	58	4785
2026-01-13 21:04:42.71	132.25	22.11	-47.3	-49.5	13.8	5.96e-01	0	28	0	3403677696	58	4732
2026-01-13 21:04:45.63	133.22	21.76	-47.2	-49.4	13.9	6.04e-01	0	28	0	3447717888	58	4684
2026-01-13 21:04:48.55	134.15	21.40	-47.2	-49.4	13.9	6.01e-01	0	28	0	3493855232	58	4676
2026-01-13 21:04:51.49	135.08	21.04	-47.4	-49.7	13.8	5.90e-01	0	28	0	3537895424	58	4850
2026-01-13 21:04:54.40	135.96	20.68	-47.5	-49.9	13.7	5.90e-01	0	28	0	3584032768	58	4942
2026-01-13 21:04:57.32	136.83	20.32	-47.5	-49.9	13.6	5.90e-01	0	28	0	3628072960	58	4967
2026-01-13 21:05:00.25	137.68	19.97	-47.3	-49.6	13.7	5.89e-01	0	28	0	3672113152	58	4811
2026-01-13 21:05:03.17	138.51	19.61	-47.5	-49.9	13.6	5.90e-01	0	28	0	3718250496	58	4937
2026-01-13 21:05:06.09	139.31	19.25	-47.8	-50.1	13.5	5.90e-01	0	28	0	3762290688	58	5066
2026-01-13 21:05:09.03	140.10	18.90	-47.8	-50.2	13.5	5.89e-01	0	28	0	3808428032	58	5123
2026-01-13 21:05:11.97	140.87	18.55	-47.8	-50.2	13.5	6.07e-01	0	28	0	3852468224	58	5128
2026-01-13 21:05:14.90	141.61	18.20	-47.8	-50.1	13.5	6.02e-01	0	28	0	3898605568	58	5098
2026-01-13 21:05:17.83	142.34	17.85	-47.8	-50.2	13.6	5.99e-01	0	28	0	3942645760	59	4819
2026-01-13 21:05:20.78	143.05	17.50	-48.0	-50.4	13.5	6.03e-01	0	28	0	3988783104	59	4934
2026-01-13 21:05:23.74	143.75	17.15	-48.1	-50.4	13.5	6.06e-01	0	28	0	4032823296	59	4943
2026-01-13 21:05:26.69	144.42	16.81	-48.2	-50.5	13.4	6.04e-01	0	28	0	4078960640	59	5015
2026-01-13 21:05:29.66	145.08	16.47	-48.4	-50.8	13.2	6.01e-01	0	28	0	4125097984	59	5204
2026-01-13 21:05:32.63	145.73	16.13	-48.4	-50.9	13.3	6.06e-01	0	28	0	4171235328	60	4933
2026-01-13 21:05:35.61	146.36	15.79	-48.4	-50.9	13.3	6.04e-01	0	28	0	4215275520	60	4931
2026-01-13 21:05:38.59	146.98	15.46	-48.6	-51.0	13.2	6.07e-01	0	28	0	4261412864	60	5029
2026-01-13 21:05:41.54	147.57	15.13	-48.7	-51.2	13.2	6.05e-01	0	28	0	4307550208	60	5101
2026-01-13 21:05:44.49	148.15	14.81	-48.6	-51.1	13.1	6.03e-01	0	28	0	4351590400	60	5094
2026-01-13 21:05:47.46	148.72	14.48	-48.7	-51.2	13.1	6.03e-01	0	28	0	4397727744	60	5116
2026-01-13 21:05:50.42	149.27	14.17	-48.8	-51.3	13.1	6.03e-01	0	28	0	4443865088	60	5199
2026-01-13 21:05:53.39	149.81	13.85	-49.1	-51.5	13.0	6.07e-01	0	28	0	4490002432	61	5035
2026-01-13 21:05:56.35	150.34	13.54	-49.3	-51.7	12.9	6.04e-01	0	28	0	4534042624	61	5152
2026-01-13 21:05:59.32	150.85	13.23	-49.6	-52.0	12.8	6.08e-01	0	28	0	4580179968	62	5034
2026-01-13 21:06:02.29	151.35	12.92	-49.6	-52.1	12.8	6.08e-01	0	28	0	4626317312	62	5078
2026-01-13 21:06:05.25	151.84	12.62	-49.6	-52.2	12.7	6.08e-01	0	28	0	4670357504	62	5121
2026-01-13 21:06:08.22	152.32	12.32	-49.6	-52.1	12.8	5.98e-01	0	28	0	4716494848	62	5076
2026-01-13 21:06:11.18	152.79	12.03	-49.6	-52.1	12.8	6.04e-01	0	28	0	4762632192	62	5072
2026-01-13 21:06:14.14	153.24	11.73	-49.8	-52.4	12.6	6.04e-01	0	28	0	4808769536	62	5221
2026-01-13 21:06:17.10	153.69	11.45	-50.0	-52.5	12.6	6.07e-01	0	28	0	4852809728	63	5016
2026-01-13 21:06:20.05	154.12	11.16	-50.2	-52.7	12.5	6.08e-01	0	28	0	4898947072	63	5102
2026-01-13 21:06:23.01	154.54	10.88	-50.2	-52.7	12.4	6.02e-01	0	28	0	4942987264	63	5141
2026-01-13 21:06:25.96	154.96	10.60	-50.4	-52.9	12.3	6.06e-01	0	28	0	4989124608	63	5223
2026-01-13 21:06:28.92	155.36	10.32	-50.3	-52.9	12.3	5.83e-01	0	28	0	5035261952	63	5240
2026-01-13 21:06:31.88	155.76	10.05	-50.4	-53.0	12.3	6.04e-01	0	28	0	5081399296	64	5001
2026-01-13 21:06:34.84	156.15	9.78	-50.5	-53.1	12.2	6.04e-01	0	28	0	5125439488	64	5096
2026-01-13 21:06:37.81	156.53	9.51	-50.6	-53.2	12.1	6.02e-01	0	28	0	5171576832	64	5158
2026-01-13 21:06:40.77	156.90	9.25	-50.6	-53.2	12.1	6.01e-01	0	28	0	5217714176	64	5156
2026-01-13 21:06:43.72	157.26	8.99	-50.8	-53.6	11.9	5.98e-01	0	28	0	5261754368	64	5348
2026-01-13 21:06:46.68	157.62	8.73	-51.1	-53.9	11.8	6.05e-01	0	28	0	5307891712	65	5221
2026-01-13 21:06:49.64	157.97	8.47	-51.2	-53.9	11.7	5.98e-01	0	28	0	5354029056	65	5278
2026-01-13 21:06:52.59	158.31	8.22	-51.3	-54.0	11.6	5.96e-01	0	28	0	5398069248	65	5322
2026-01-13 21:06:55.56	158.65	7.97	-51.5	-54.2	11.6	6.04e-01	0	28	0	5444206592	66	5159
2026-01-13 21:06:58.51	158.97	7.72	-51.7	-54.4	11.4	6.03e-01	0	28	0	5488246784	66	5270
2026-01-13 21:07:01.46	159.29	7.48	-51.7	-54.5	11.4	6.05e-01	0	28	0	5534384128	66	5294
2026-01-13 21:07:04.43	159.61	7.24	-51.8	-54.5	11.3	6.08e-01	0	28	0	5580521472	66	5320
2026-01-13 21:07:07.44	159.92	6.99	-51.9	-54.6	11.3	6.03e-01	0	28	0	5626658816	67	5100
2026-01-13 21:07:10.41	160.22	6.75	-52.0	-54.9	11.1	6.06e-01	0	28	0	5672796160	67	5242
2026-01-13 21:07:13.40	160.52	6.52	-52.2	-55.1	10.9	6.09e-01	0	28	0	5718933504	67	5368
2026-01-13 21:07:16.40	160.82	6.28	-52.1	-55.0	10.9	6.07e-01	0	28	0	5765070848	67	5333
2026-01-13 21:07:19.39	161.11	6.05	-52.4	-55.4	10.7	6.09e-01	0	28	0	5811208192	67	5540
2026-01-13 21:07:22.38	161.39	5.82	-52.4	-55.4	10.7	6.09e-01	0	28	0	5855248384	67	5531
2026-01-13 21:07:25.37	161.67	5.59	-52.2	-55.2	10.8	6.09e-01	0	28	0	5901385728	68	5123
2026-01-13 21:07:28.36	161.94	5.36	-52.5	-55.5	10.6	6.11e-01	0	28	0	5947523072	68	5308
2026-01-13 21:07:31.36	162.20	5.14	-52.8	-55.8	10.2	6.15e-01	0	28	0	5993660416	68	5508
2026-01-13 21:07:34.34	162.47	4.91	-59.7	-69.5	3.8	7.45e-01	0	28	104	6033506304	82	11823
2026-01-13 21:07:37.34	162.72	4.69	-60.6	-70.3	3.8	7.46e-01	0	28	104	6033506304	84	11654
2026-01-13 21:07:40.33	162.98	4.48	-61.0	-70.7	3.8	7.45e-01	0	28	104	6033506304	85	11509
2026-01-13 21:07:43.32	163.22	4.26	-61.2	-70.9	3.8	7.44e-01	0	28	104	6033506304	85	11815
2026-01-13 21:07:46.29	163.47	4.05	-61.3	-71.0	3.8	7.45e-01	0	28	104	6033506304	85	11946
2026-01-13 21:07:49.28	163.71	3.84	-61.4	-71.1	3.8	7.46e-01	0	28	104	6033506304	85	12089
2026-01-13 21:07:52.28	163.94	3.63	-61.5	-71.2	3.8	7.45e-01	0	28	104	6033506304	86	11507
2026-01-13 21:07:55.27	164.17	3.42	-61.5	-71.2	3.8	7.46e-01	0	28	104	6033506304	86	11498
2026-01-13 21:07:58.27	164.40	3.21	-61.4	-71.2	3.8	7.47e-01	0	28	104	6033506304	86	11440
2026-01-13 21:08:01.28	164.63	3.00	-61.4	-71.1	3.8	7.47e-01	0	28	104	6033506304	86	11383
2026-01-13 21:08:04.27	164.84	2.80	-61.4	-71.1	3.8	7.45e-01	0	28	104	6033506304	86	11386
2026-01-13 21:08:07.27	165.06	2.60	-61.4	-71.1	3.8	7.46e-01	0	28	104	6033506304	86	11351
2026-01-13 21:08:10.28	165.27	2.40	-61.3	-71.1	3.8	7.47e-01	0	28	104	6033506304	86	11356
2026-01-13 21:08:13.28	165.48	2.20	-61.4	-71.1	3.8	7.46e-01	0	28	104	6033506304	86	11352
2026-01-13 21:08:16.26	165.69	2.00	-61.3	-71.1	3.8	7.47e-01	0	28	104	6033506304	86	11305

#Closed at: 2026-01-13 21:08:16
#Recorded file [6033 MB]: D:/lorett/data/31004_260113_235817.dat