passes_logs/2026/01/13/R3.2S_Murmansk/R3.2S_Murmansk__20260113_002647_KANOPUS-V_5_rec.log

#Pass ID: 20260113_002647_KANOPUS-V 5
#Satellite: KANOPUS-V 5
#Configuration: KANOPUS-V_8320
#almurnet v.1.7.20251203
#Start time: 2026-01-13 00:26:49

#Version: 2.2.20231116
#Station: R3.2S_Murmansk
#Location: 33.079688 lon 68.888172 lat
#TLE: 1 43876U 18111A   26012.28056898  .00003514  00000+0  15053-3 0  9996
#TLE: 2 43876  97.3682 280.8443 0001794  87.9048 272.2394 15.23425790391056

#Time	Az	El	Level	Level2	SNR	BER	BlckErr	Temp	State	Recorded	gain1	gain2
2026-01-13 00:26:49.53	24.67	2.11	-58.3	-68.0	3.8	7.45e-01	0	21	0	0	81	10614
2026-01-13 00:26:52.50	24.42	2.29	-58.3	-68.0	3.8	7.47e-01	0	21	104	0	81	10591
2026-01-13 00:26:55.48	24.16	2.48	-58.3	-68.0	3.8	7.46e-01	0	21	104	0	81	10620
2026-01-13 00:26:58.44	23.90	2.67	-58.3	-68.0	3.8	7.45e-01	0	21	104	0	81	10579
2026-01-13 00:27:01.40	23.64	2.86	-58.3	-68.0	3.8	7.45e-01	0	21	104	0	81	10601
2026-01-13 00:27:04.36	23.37	3.05	-58.3	-68.0	3.8	7.46e-01	0	21	104	0	81	10601
2026-01-13 00:27:07.33	23.09	3.24	-58.3	-68.0	3.8	7.45e-01	0	21	104	0	81	10606
2026-01-13 00:27:10.34	22.81	3.44	-58.3	-68.0	3.8	7.45e-01	0	21	104	0	81	10637
2026-01-13 00:27:13.35	22.52	3.64	-58.3	-68.0	3.8	7.45e-01	0	21	104	0	81	10630
2026-01-13 00:27:16.36	22.23	3.84	-58.4	-68.0	3.8	7.45e-01	0	21	104	0	81	10650
2026-01-13 00:27:19.36	21.93	4.03	-58.4	-68.0	3.8	7.46e-01	0	22	104	0	81	10608
2026-01-13 00:27:22.37	21.62	4.24	-58.4	-68.0	3.8	7.45e-01	0	22	104	0	81	10601
2026-01-13 00:27:25.39	21.31	4.44	-58.4	-68.0	3.8	7.46e-01	0	22	104	0	81	10640
2026-01-13 00:27:28.39	21.00	4.64	-58.4	-68.0	3.8	7.45e-01	0	22	104	0	81	10635
2026-01-13 00:27:31.40	20.68	4.85	-58.4	-68.0	3.8	7.45e-01	0	22	104	0	81	10630
2026-01-13 00:27:34.40	20.35	5.06	-58.4	-68.1	3.8	7.46e-01	0	22	104	0	81	10710
2026-01-13 00:27:37.39	20.02	5.26	-58.4	-68.1	3.8	7.48e-01	0	22	104	0	81	10723
2026-01-13 00:27:40.39	19.68	5.47	-58.4	-68.1	3.8	7.47e-01	0	22	104	0	81	10708
2026-01-13 00:27:43.40	19.33	5.68	-58.4	-68.1	3.8	7.46e-01	0	22	104	0	81	10666
2026-01-13 00:27:46.41	18.98	5.90	-58.5	-68.2	3.8	7.45e-01	0	22	104	0	81	10837
2026-01-13 00:27:49.40	18.62	6.11	-58.5	-68.2	3.8	7.45e-01	0	22	104	0	81	10801
2026-01-13 00:27:52.40	18.25	6.32	-58.5	-68.2	3.8	7.47e-01	0	22	104	0	81	10860
2026-01-13 00:27:55.41	17.88	6.54	-58.5	-68.2	3.8	7.45e-01	0	22	104	0	81	10845
2026-01-13 00:27:58.40	17.50	6.76	-58.6	-68.3	3.8	7.44e-01	0	22	104	0	81	10919
2026-01-13 00:28:01.41	17.11	6.98	-58.6	-68.3	3.8	7.44e-01	0	22	104	0	81	10918
2026-01-13 00:28:04.40	16.71	7.20	-58.6	-68.3	3.8	7.47e-01	0	22	104	0	81	10976
2026-01-13 00:28:07.41	16.31	7.42	-58.6	-68.3	3.8	7.47e-01	0	22	104	0	81	10915
2026-01-13 00:28:10.42	15.90	7.65	-58.7	-68.4	3.8	7.46e-01	0	22	104	0	81	11050
2026-01-13 00:28:13.42	15.48	7.87	-58.7	-68.4	3.8	7.45e-01	0	22	104	0	81	11034
2026-01-13 00:28:16.42	15.05	8.10	-58.7	-68.4	3.8	7.47e-01	0	22	104	0	81	11056
2026-01-13 00:28:19.43	14.61	8.33	-58.7	-68.4	3.8	7.46e-01	0	22	104	0	81	11051
2026-01-13 00:28:22.44	14.16	8.56	-58.7	-68.5	3.8	7.44e-01	0	22	104	0	81	11167
2026-01-13 00:28:25.45	13.71	8.79	-58.7	-68.4	3.8	7.46e-01	0	22	104	0	81	11139
2026-01-13 00:28:28.45	13.24	9.02	-58.8	-68.4	3.8	7.44e-01	0	22	104	0	81	11147
2026-01-13 00:28:31.47	12.76	9.26	-58.8	-68.5	3.8	7.45e-01	0	22	104	0	81	11222
2026-01-13 00:28:34.47	12.28	9.49	-58.8	-68.5	3.8	7.46e-01	0	22	104	0	81	11185
2026-01-13 00:28:37.45	11.79	9.73	-58.8	-68.5	3.8	7.45e-01	0	22	104	0	81	11162
2026-01-13 00:28:40.45	11.29	9.97	-58.8	-68.5	3.8	7.44e-01	0	22	104	0	81	11266
2026-01-13 00:28:43.47	10.77	10.21	-58.8	-68.6	3.8	7.44e-01	0	23	104	0	81	11292
2026-01-13 00:28:46.46	10.24	10.45	-58.9	-68.6	3.8	7.44e-01	0	22	104	0	81	11317
2026-01-13 00:28:49.47	9.71	10.69	-58.9	-68.6	3.8	7.46e-01	0	22	104	0	81	11305
2026-01-13 00:28:52.47	9.16	10.93	-58.9	-68.6	3.8	7.44e-01	0	22	104	0	81	11345
2026-01-13 00:28:55.47	8.60	11.17	-58.9	-68.6	3.8	7.45e-01	0	22	104	0	81	11374
2026-01-13 00:28:58.48	8.03	11.42	-59.0	-68.7	3.8	7.45e-01	0	22	104	0	81	11434
2026-01-13 00:29:01.48	7.45	11.66	-59.0	-68.6	3.8	7.46e-01	0	23	104	0	81	11411
2026-01-13 00:29:04.49	6.85	11.91	-59.0	-68.7	3.8	7.44e-01	0	23	104	0	81	11431
2026-01-13 00:29:07.49	6.24	12.16	-59.0	-68.7	3.8	7.45e-01	0	23	104	0	81	11453
2026-01-13 00:29:10.50	5.62	12.40	-59.0	-68.7	3.8	7.45e-01	0	22	104	0	81	11507
2026-01-13 00:29:13.50	4.99	12.65	-59.0	-68.7	3.8	7.46e-01	0	22	104	0	81	11492
2026-01-13 00:29:16.51	4.34	12.90	-59.0	-68.7	3.8	7.45e-01	0	23	104	0	81	11488
2026-01-13 00:29:19.51	3.68	13.15	-59.0	-68.7	3.8	7.45e-01	0	22	104	0	81	11520
2026-01-13 00:29:22.52	3.01	13.40	-59.1	-68.7	3.8	7.45e-01	0	23	104	0	81	11549
2026-01-13 00:29:25.53	2.32	13.64	-59.1	-68.7	3.8	7.44e-01	0	23	104	0	81	11535
2026-01-13 00:29:28.54	1.61	13.89	-59.1	-68.8	3.8	7.45e-01	0	23	104	0	81	11583
2026-01-13 00:29:31.55	0.89	14.14	-59.1	-68.8	3.8	7.45e-01	0	23	104	0	81	11587
2026-01-13 00:29:34.56	0.16	14.39	-59.1	-68.8	3.8	7.46e-01	0	23	104	0	81	11652
2026-01-13 00:29:37.55	359.42	14.63	-59.1	-68.8	3.8	7.46e-01	0	23	104	0	81	11651
2026-01-13 00:29:40.54	358.66	14.88	-59.1	-68.8	3.8	7.46e-01	0	23	104	0	81	11622
2026-01-13 00:29:43.53	357.89	15.12	-59.1	-68.8	3.8	7.44e-01	0	23	104	0	81	11652
2026-01-13 00:29:46.53	357.10	15.36	-59.2	-68.9	3.8	7.47e-01	0	23	104	0	81	11709
2026-01-13 00:29:49.53	356.29	15.60	-59.2	-68.9	3.8	7.47e-01	0	23	104	0	81	11789
2026-01-13 00:29:52.52	355.48	15.84	-59.2	-68.9	3.8	7.47e-01	0	23	104	0	81	11744
2026-01-13 00:29:55.52	354.64	16.07	-59.2	-68.9	3.8	7.46e-01	0	23	104	0	81	11696
2026-01-13 00:29:58.52	353.79	16.30	-59.2	-68.9	3.8	7.45e-01	0	22	104	0	81	11741
2026-01-13 00:30:01.53	352.92	16.54	-59.2	-68.9	3.8	7.46e-01	0	22	104	0	81	11770
2026-01-13 00:30:04.52	352.03	16.76	-59.2	-68.9	3.8	7.46e-01	0	22	104	0	81	11793
2026-01-13 00:30:07.51	351.14	16.98	-59.2	-68.9	3.8	7.46e-01	0	23	104	0	81	11778
2026-01-13 00:30:10.52	350.22	17.20	-59.2	-68.9	3.8	7.46e-01	0	23	104	0	81	11818
2026-01-13 00:30:13.54	349.28	17.42	-59.3	-68.9	3.8	7.45e-01	0	23	104	0	81	11803
2026-01-13 00:30:16.54	348.33	17.63	-59.3	-68.9	3.8	7.46e-01	0	23	104	0	81	11795
2026-01-13 00:30:19.55	347.37	17.84	-59.3	-69.0	3.8	7.45e-01	0	23	104	0	81	11853
2026-01-13 00:30:22.57	346.38	18.04	-59.3	-69.0	3.8	7.45e-01	0	22	104	0	81	11856
2026-01-13 00:30:25.57	345.39	18.23	-59.3	-69.0	3.8	7.45e-01	0	22	104	0	81	11909
2026-01-13 00:30:28.58	344.38	18.42	-59.3	-69.0	3.8	7.44e-01	0	23	104	0	81	11891
2026-01-13 00:30:31.57	343.36	18.61	-59.3	-69.0	3.8	7.43e-01	0	23	104	0	81	11915
2026-01-13 00:30:34.57	342.32	18.78	-59.3	-69.0	3.8	7.45e-01	0	23	104	0	81	11892
2026-01-13 00:30:37.57	341.27	18.95	-59.4	-69.0	3.8	7.45e-01	0	23	104	0	81	11946
2026-01-13 00:30:40.56	340.21	19.11	-59.3	-69.0	3.8	7.45e-01	0	23	104	0	81	11939
2026-01-13 00:30:43.57	339.13	19.26	-59.4	-69.1	3.8	7.45e-01	0	23	104	0	81	11979
2026-01-13 00:30:46.57	338.04	19.41	-59.4	-69.1	3.8	7.46e-01	0	23	104	0	81	11983
2026-01-13 00:30:49.59	336.93	19.54	-59.4	-69.1	3.8	7.44e-01	0	23	104	0	81	12033
2026-01-13 00:30:52.59	335.82	19.67	-59.5	-69.2	3.8	7.46e-01	0	23	104	0	82	11473
2026-01-13 00:30:55.60	334.69	19.79	-59.5	-69.2	3.8	7.43e-01	0	23	104	0	82	11442
2026-01-13 00:30:58.60	333.56	19.90	-59.5	-69.2	3.8	7.46e-01	0	23	104	0	82	11437
2026-01-13 00:31:01.59	332.43	19.99	-59.5	-69.2	3.8	7.44e-01	0	23	104	0	82	11488
2026-01-13 00:31:04.60	331.27	20.08	-59.5	-69.2	3.8	7.45e-01	0	23	104	0	82	11454
2026-01-13 00:31:07.60	330.12	20.16	-59.5	-69.2	3.8	7.44e-01	0	23	104	0	82	11470
2026-01-13 00:31:10.60	328.95	20.22	-59.5	-69.2	3.8	7.46e-01	0	23	104	0	82	11509
2026-01-13 00:31:13.61	327.78	20.28	-59.5	-69.3	3.8	7.44e-01	0	23	104	0	82	11563
2026-01-13 00:31:16.61	326.61	20.32	-59.5	-69.2	3.8	7.44e-01	0	23	104	0	82	11515
2026-01-13 00:31:19.60	325.44	20.36	-59.5	-69.2	3.8	7.45e-01	0	23	104	0	82	11479
2026-01-13 00:31:22.61	324.26	20.38	-59.5	-69.2	3.8	7.45e-01	0	23	104	0	82	11516
2026-01-13 00:31:25.61	323.08	20.39	-59.6	-69.3	3.8	7.45e-01	0	23	104	0	82	11561
2026-01-13 00:31:28.61	321.90	20.39	-59.5	-69.3	3.8	7.45e-01	0	23	104	0	82	11587
2026-01-13 00:31:31.60	320.72	20.38	-59.6	-69.3	3.8	7.44e-01	0	23	104	0	82	11561
2026-01-13 00:31:34.61	319.54	20.35	-59.6	-69.3	3.8	7.47e-01	0	23	104	0	82	11578
2026-01-13 00:31:37.60	318.37	20.32	-59.6	-69.3	3.8	7.45e-01	0	23	104	0	82	11579
2026-01-13 00:31:40.61	317.19	20.27	-59.6	-69.2	3.8	7.47e-01	0	23	104	0	82	11549
2026-01-13 00:31:43.61	316.02	20.22	-59.6	-69.3	3.8	7.45e-01	0	23	104	0	82	11612
2026-01-13 00:31:46.60	314.86	20.15	-59.6	-69.3	3.8	7.46e-01	0	23	104	0	82	11592
2026-01-13 00:31:49.61	313.70	20.07	-59.6	-69.3	3.8	7.44e-01	0	23	104	0	82	11579
2026-01-13 00:31:52.63	312.55	19.98	-59.6	-69.3	3.8	7.44e-01	0	23	104	0	82	11559
2026-01-13 00:31:55.63	311.41	19.88	-59.6	-69.3	3.8	7.45e-01	0	23	104	0	82	11630
2026-01-13 00:31:58.64	310.27	19.77	-59.6	-69.3	3.8	7.47e-01	0	23	104	0	82	11593
2026-01-13 00:32:01.65	309.14	19.65	-59.6	-69.3	3.8	7.45e-01	0	23	104	0	82	11651
2026-01-13 00:32:04.65	308.03	19.52	-59.6	-69.3	3.8	7.44e-01	0	23	104	0	82	11569
2026-01-13 00:32:07.67	306.92	19.38	-59.6	-69.3	3.8	7.45e-01	0	23	104	0	82	11622
2026-01-13 00:32:10.68	305.83	19.24	-59.6	-69.3	3.8	7.45e-01	0	23	104	0	82	11619
2026-01-13 00:32:13.69	304.75	19.08	-59.6	-69.3	3.8	7.46e-01	0	23	104	0	82	11642
2026-01-13 00:32:16.70	303.68	18.92	-59.6	-69.3	3.8	7.45e-01	0	23	104	0	82	11630
2026-01-13 00:32:19.69	302.64	18.75	-59.6	-69.3	3.8	7.45e-01	0	23	104	0	82	11644
2026-01-13 00:32:22.68	301.60	18.57	-59.6	-69.3	3.8	7.47e-01	0	23	104	0	82	11642
2026-01-13 00:32:25.68	300.58	18.39	-59.6	-69.4	3.8	7.46e-01	0	23	104	0	82	11697
2026-01-13 00:32:28.70	299.57	18.20	-59.6	-69.3	3.8	7.45e-01	0	23	104	0	82	11646
2026-01-13 00:32:31.70	298.57	18.00	-59.6	-69.3	3.8	7.44e-01	0	23	104	0	82	11668
2026-01-13 00:32:34.71	297.59	17.80	-59.6	-69.4	3.8	7.46e-01	0	23	104	0	82	11698
2026-01-13 00:32:37.72	296.63	17.59	-59.7	-69.4	3.8	7.45e-01	0	23	104	0	82	11727
2026-01-13 00:32:40.72	295.68	17.38	-59.7	-69.4	3.8	7.46e-01	0	23	104	0	82	11758
2026-01-13 00:32:43.72	294.75	17.16	-59.6	-69.3	3.8	7.47e-01	0	23	104	0	82	11682
2026-01-13 00:32:46.72	293.83	16.94	-59.6	-69.3	3.8	7.46e-01	0	23	104	0	82	11637
2026-01-13 00:32:49.73	292.93	16.72	-59.7	-69.4	3.8	7.44e-01	0	23	104	0	82	11691
2026-01-13 00:32:52.73	292.05	16.49	-59.7	-69.3	3.8	7.45e-01	0	23	104	0	82	11668
2026-01-13 00:32:55.74	291.17	16.26	-59.6	-69.3	3.8	7.45e-01	0	23	104	0	82	11619
2026-01-13 00:32:58.73	290.32	16.02	-59.6	-69.3	3.8	7.45e-01	0	23	104	0	82	11614
2026-01-13 00:33:01.73	289.49	15.79	-59.6	-69.3	3.8	7.43e-01	0	23	104	0	82	11643
2026-01-13 00:33:04.74	288.66	15.55	-59.6	-69.3	3.8	7.45e-01	0	23	104	0	82	11596
2026-01-13 00:33:07.74	287.86	15.31	-59.5	-69.3	3.8	7.46e-01	0	23	104	0	82	11556
2026-01-13 00:33:10.75	287.07	15.06	-59.5	-69.2	3.8	7.47e-01	0	23	104	0	82	11502
2026-01-13 00:33:13.75	286.29	14.82	-59.5	-69.2	3.8	7.46e-01	0	23	104	0	82	11511
2026-01-13 00:33:16.76	285.53	14.57	-59.5	-69.2	3.8	7.47e-01	0	23	104	0	82	11494
2026-01-13 00:33:19.76	284.79	14.32	-59.5	-69.1	3.8	7.46e-01	0	23	104	0	82	11396
2026-01-13 00:33:22.76	284.06	14.08	-59.4	-69.1	3.8	7.45e-01	0	23	104	0	82	11354
2026-01-13 00:33:25.77	283.34	13.83	-59.4	-69.1	3.8	7.45e-01	0	23	104	0	82	11407
2026-01-13 00:33:28.77	282.64	13.58	-59.4	-69.1	3.8	7.46e-01	0	23	104	0	82	11385
2026-01-13 00:33:31.77	281.95	13.33	-59.4	-69.1	3.8	7.44e-01	0	23	104	0	82	11379
2026-01-13 00:33:34.77	281.28	13.08	-59.4	-69.1	3.8	7.46e-01	0	23	104	0	82	11319
2026-01-13 00:33:37.76	280.62	12.84	-59.4	-69.1	3.8	7.45e-01	0	23	104	0	82	11319
2026-01-13 00:33:40.77	279.97	12.59	-59.4	-69.1	3.8	7.46e-01	0	23	104	0	82	11317
2026-01-13 00:33:43.77	279.34	12.34	-59.3	-69.0	3.8	7.45e-01	0	23	104	0	82	11227
2026-01-13 00:33:46.76	278.72	12.09	-59.3	-69.0	3.8	7.45e-01	0	23	104	0	82	11222
2026-01-13 00:33:49.76	278.11	11.84	-59.3	-69.0	3.8	7.46e-01	0	23	104	0	82	11201
2026-01-13 00:33:52.75	277.52	11.60	-59.3	-69.0	3.8	7.46e-01	0	23	104	0	82	11186
2026-01-13 00:33:55.73	276.94	11.35	-59.2	-68.9	3.8	7.46e-01	0	23	104	0	82	11126
2026-01-13 00:33:58.72	276.37	11.11	-59.2	-68.9	3.8	7.45e-01	0	23	104	0	82	11107
2026-01-13 00:34:01.72	275.81	10.87	-59.2	-68.9	3.8	7.44e-01	0	23	104	0	82	11111
2026-01-13 00:34:04.72	275.27	10.62	-59.2	-68.8	3.8	7.44e-01	0	23	104	0	82	11028
2026-01-13 00:34:07.72	274.73	10.38	-59.1	-68.9	3.8	7.44e-01	0	23	104	0	82	11031
2026-01-13 00:34:10.73	274.20	10.14	-59.1	-68.8	3.8	7.45e-01	0	23	104	0	82	10964
2026-01-13 00:34:13.73	273.69	9.90	-59.1	-68.9	3.8	7.45e-01	0	23	104	0	82	11038
2026-01-13 00:34:16.72	273.19	9.66	-59.1	-68.8	3.8	7.46e-01	0	23	104	0	82	10991
2026-01-13 00:34:19.70	272.69	9.43	-59.1	-68.7	3.8	7.45e-01	0	23	104	0	82	10860
2026-01-13 00:34:22.71	272.21	9.19	-59.0	-68.7	3.8	7.44e-01	0	23	104	0	82	10868
2026-01-13 00:34:25.71	271.73	8.96	-59.0	-68.7	3.8	7.43e-01	0	23	104	0	82	10866
2026-01-13 00:34:28.72	271.27	8.72	-59.0	-68.7	3.8	7.47e-01	0	23	104	0	82	10837
2026-01-13 00:34:31.73	270.81	8.49	-58.8	-68.5	3.8	7.45e-01	0	23	104	0	82	10584
2026-01-13 00:34:34.73	270.36	8.26	-58.8	-68.5	3.8	7.46e-01	0	23	104	0	82	10553
2026-01-13 00:34:37.72	269.93	8.03	-58.3	-68.0	3.8	7.45e-01	0	23	104	0	81	10577
2026-01-13 00:34:40.72	269.50	7.81	-58.3	-68.0	3.8	7.46e-01	0	23	104	0	80	11186
2026-01-13 00:34:43.72	269.08	7.58	-58.1	-67.7	3.8	7.46e-01	0	23	104	0	80	10899
2026-01-13 00:34:46.73	268.66	7.36	-58.2	-67.9	3.8	7.45e-01	0	23	104	0	80	11114
2026-01-13 00:34:49.72	268.26	7.13	-57.9	-67.6	3.8	7.46e-01	0	23	104	0	80	10704
2026-01-13 00:34:52.72	267.86	6.91	-58.1	-67.8	3.8	7.47e-01	0	23	104	0	80	11024
2026-01-13 00:34:55.74	267.47	6.69	-58.4	-68.2	3.8	7.45e-01	0	23	104	0	80	11421
2026-01-13 00:34:58.74	267.09	6.47	-58.5	-68.2	3.8	7.47e-01	0	23	104	0	80	11438
2026-01-13 00:35:01.75	266.71	6.25	-58.5	-68.2	3.8	7.45e-01	0	23	104	0	80	11541
2026-01-13 00:35:04.75	266.35	6.04	-58.5	-68.2	3.8	7.46e-01	0	23	104	0	80	11513
2026-01-13 00:35:07.75	265.99	5.83	-58.6	-68.3	3.8	7.45e-01	0	23	104	0	80	11553
2026-01-13 00:35:10.76	265.63	5.61	-58.5	-68.2	3.8	7.45e-01	0	23	104	0	80	11502
2026-01-13 00:35:13.77	265.28	5.40	-58.6	-68.3	3.8	7.47e-01	0	23	104	0	80	11617
2026-01-13 00:35:16.77	264.94	5.19	-58.5	-68.2	3.8	7.46e-01	0	23	104	0	80	11522
2026-01-13 00:35:19.76	264.61	4.98	-58.5	-68.2	3.8	7.46e-01	0	23	104	0	80	11471
2026-01-13 00:35:22.74	264.28	4.78	-59.3	-69.0	3.8	7.45e-01	0	23	104	0	81	11912
2026-01-13 00:35:25.75	263.96	4.57	-59.7	-69.4	3.8	7.45e-01	0	23	104	0	82	11717
2026-01-13 00:35:28.77	263.64	4.37	-59.9	-69.6	3.8	7.45e-01	0	23	104	0	82	12061
2026-01-13 00:35:31.77	263.33	4.16	-60.1	-69.8	3.8	7.44e-01	0	23	104	0	83	11590
2026-01-13 00:35:34.78	263.03	3.96	-60.2	-69.9	3.8	7.45e-01	0	23	104	0	83	11751
2026-01-13 00:35:37.79	262.73	3.76	-60.3	-70.0	3.8	7.45e-01	0	23	104	0	83	11861
2026-01-13 00:35:40.78	262.43	3.56	-60.3	-70.0	3.8	7.46e-01	0	23	104	0	83	11879
2026-01-13 00:35:43.79	262.14	3.37	-60.2	-69.9	3.8	7.46e-01	0	23	104	0	83	11738
2026-01-13 00:35:46.79	261.86	3.17	-60.2	-69.9	3.8	7.43e-01	0	23	104	0	83	11719
2026-01-13 00:35:49.79	261.58	2.98	-60.2	-69.9	3.8	7.44e-01	0	23	104	0	83	11702
2026-01-13 00:35:52.79	261.31	2.78	-60.1	-69.8	3.8	7.47e-01	0	23	104	0	83	11671
2026-01-13 00:35:55.80	261.04	2.59	-60.1	-69.8	3.8	7.46e-01	0	23	104	0	83	11656
2026-01-13 00:35:58.80	260.77	2.40	-60.1	-69.8	3.8	7.45e-01	0	23	104	0	83	11638
2026-01-13 00:36:01.81	260.51	2.21	-60.1	-69.8	3.8	7.45e-01	0	23	104	0	83	11637
2026-01-13 00:36:04.83	260.26	2.02	-60.1	-69.8	3.8	7.46e-01	0	23	104	0	83	11608

#Closed at: 2026-01-13 00:36:06
#Recorded file [0 MB]: D:/lorett/data/31004_260113_032649.dat