passes_logs/2026/01/13/R3.2S_Murmansk/R3.2S_Murmansk__20260113_100609_SUOMI_NPP_rec.log

#Pass ID: 20260113_100609_SUOMI NPP
#Satellite: SUOMI NPP
#Configuration: NPP
#almurnet v.1.7.20251203
#Start time: 2026-01-13 10:06:09

#Version: 2.2.20231116
#Station: R3.2S_Murmansk
#Location: 33.079688 lon 68.888172 lat
#TLE: 1 37849U 11061A   26013.13039704  .00000061  00000+0  49955-4 0  9991
#TLE: 2 37849  98.7808 315.1951 0002492  66.9161 293.2277 14.19524814736449

#Time	Az	El	Level	Level2	SNR	BER	BlckErr	Temp	State	Recorded	gain1	gain2
2026-01-13 10:06:09.30	163.93	2.00	-58.1	-74.1	3.8	1.49e+00	0	24	0	0	82	22560
2026-01-13 10:06:13.28	163.99	2.26	-58.1	-73.8	3.8	1.49e+00	0	24	104	0	81	23196
2026-01-13 10:06:17.25	164.06	2.51	-58.1	-73.7	3.8	1.49e+00	0	24	104	0	81	23009
2026-01-13 10:06:21.22	164.13	2.77	-58.1	-73.5	3.8	1.49e+00	0	24	104	0	81	22287
2026-01-13 10:06:25.21	164.20	3.03	-58.1	-73.9	3.8	1.49e+00	0	24	104	0	81	23440
2026-01-13 10:06:29.17	164.27	3.30	-58.1	-73.6	3.8	1.49e+00	0	25	104	0	81	22765
2026-01-13 10:06:33.15	164.34	3.56	-58.0	-70.5	4.2	1.40e+00	0	24	0	0	81	15785
2026-01-13 10:06:37.11	164.42	3.83	-57.7	-67.1	5.7	3.59e-01	0	25	0	6291456	81	10767
2026-01-13 10:06:41.08	164.49	4.10	-57.1	-64.1	8.1	6.64e-02	0	25	0	13631488	80	7998
2026-01-13 10:06:45.06	164.57	4.38	-56.0	-60.6	10.9	5.01e-04	0	25	0	20971520	78	6041
2026-01-13 10:06:49.03	164.64	4.66	-55.0	-58.4	12.5	7.00e-07	0	25	0	28311552	76	5248
2026-01-13 10:06:53.02	164.72	4.94	-54.6	-57.9	12.7	0.00e+00	0	25	0	36700160	75	5236
2026-01-13 10:06:57.01	164.80	5.22	-57.3	-65.0	7.4	1.50e-06	0	25	0	44040192	79	9435
2026-01-13 10:07:00.98	164.88	5.51	-54.4	-57.4	13.1	0.00e+00	0	25	0	51380224	75	4934
2026-01-13 10:07:04.94	164.97	5.80	-54.3	-57.3	13.2	0.00e+00	0	25	0	58720256	75	4889
2026-01-13 10:07:08.89	165.05	6.09	-54.4	-57.4	13.1	0.00e+00	0	25	0	66060288	75	4939
2026-01-13 10:07:12.87	165.13	6.38	-54.4	-57.3	13.1	0.00e+00	0	25	0	73400320	75	4924
2026-01-13 10:07:16.83	165.22	6.68	-54.1	-56.9	13.4	0.00e+00	0	25	0	80740352	74	4929
2026-01-13 10:07:20.82	165.31	6.99	-54.0	-56.6	13.5	0.00e+00	0	25	0	88080384	74	4808
2026-01-13 10:07:24.80	165.40	7.29	-53.8	-56.4	13.7	0.00e+00	0	25	0	95420416	74	4660
2026-01-13 10:07:28.78	165.49	7.60	-54.0	-56.6	13.6	0.00e+00	0	25	0	103809024	74	4789
2026-01-13 10:07:32.76	165.58	7.92	-53.6	-56.1	13.7	0.00e+00	0	25	0	111149056	73	4787
2026-01-13 10:07:36.72	165.67	8.23	-53.6	-56.0	13.8	0.00e+00	0	25	0	118489088	73	4712
2026-01-13 10:07:40.68	165.77	8.56	-53.5	-55.9	13.9	0.00e+00	0	25	0	125829120	73	4685
2026-01-13 10:07:44.64	165.87	8.88	-53.5	-55.9	13.9	0.00e+00	0	26	0	133169152	73	4654
2026-01-13 10:07:48.62	165.97	9.21	-53.3	-55.6	14.1	0.00e+00	0	25	0	140509184	73	4535
2026-01-13 10:07:52.59	166.07	9.55	-53.4	-55.7	14.0	0.00e+00	0	25	0	147849216	73	4565
2026-01-13 10:07:56.57	166.17	9.88	-53.3	-55.5	14.2	0.00e+00	0	25	0	155189248	73	4448
2026-01-13 10:08:00.54	166.28	10.23	-53.2	-55.4	14.1	0.00e+00	0	25	0	162529280	72	4653
2026-01-13 10:08:04.52	166.39	10.58	-53.0	-55.2	14.2	0.00e+00	0	26	0	169869312	72	4546
2026-01-13 10:08:08.48	166.50	10.93	-52.9	-54.9	14.3	0.00e+00	0	25	0	178257920	72	4420
2026-01-13 10:08:12.45	166.61	11.29	-52.6	-54.6	14.4	0.00e+00	0	26	0	185597952	71	4500
2026-01-13 10:08:16.42	166.72	11.65	-52.5	-54.5	14.4	0.00e+00	0	26	0	192937984	71	4465
2026-01-13 10:08:20.39	166.84	12.02	-52.4	-54.3	14.5	0.00e+00	0	25	0	200278016	71	4341
2026-01-13 10:08:24.37	166.96	12.39	-52.2	-54.1	14.5	0.00e+00	0	26	0	207618048	70	4516
2026-01-13 10:08:28.33	167.09	12.77	-52.1	-54.0	14.6	0.00e+00	0	26	0	214958080	70	4442
2026-01-13 10:08:32.33	167.21	13.16	-52.0	-53.7	14.7	0.00e+00	0	26	0	222298112	70	4334
2026-01-13 10:08:36.31	167.34	13.56	-51.9	-53.7	14.7	0.00e+00	0	26	0	229638144	70	4299
2026-01-13 10:08:40.27	167.47	13.95	-52.0	-53.7	14.7	0.00e+00	0	26	0	236978176	70	4324
2026-01-13 10:08:44.24	167.61	14.36	-52.1	-53.9	14.5	0.00e+00	0	26	0	244318208	70	4438
2026-01-13 10:08:48.21	167.75	14.77	-51.9	-53.7	14.7	0.00e+00	0	26	0	252706816	70	4321
2026-01-13 10:08:52.17	167.89	15.19	-52.0	-53.8	14.6	0.00e+00	0	26	0	260046848	70	4384
2026-01-13 10:08:56.15	168.04	15.62	-51.9	-53.7	14.7	0.00e+00	0	26	0	267386880	70	4313
2026-01-13 10:09:00.12	168.18	16.05	-52.2	-54.0	14.5	0.00e+00	0	25	0	274726912	70	4474
2026-01-13 10:09:04.10	168.34	16.49	-52.5	-54.5	14.3	0.00e+00	0	26	0	282066944	70	4709
2026-01-13 10:09:08.08	168.50	16.94	-52.7	-54.7	14.2	0.00e+00	0	26	0	289406976	70	4831
2026-01-13 10:09:12.05	168.66	17.40	-53.0	-55.0	14.2	0.00e+00	0	26	0	296747008	71	4724
2026-01-13 10:09:16.03	168.83	17.87	-53.1	-55.1	14.1	0.00e+00	0	26	0	304087040	71	4798
2026-01-13 10:09:20.02	169.00	18.34	-53.1	-55.2	14.2	0.00e+00	0	26	0	311427072	71	4815
2026-01-13 10:09:23.99	169.17	18.83	-53.3	-55.5	14.0	0.00e+00	0	26	0	319815680	71	5016
2026-01-13 10:09:27.95	169.36	19.32	-53.6	-55.9	13.9	0.00e+00	0	26	0	327155712	72	4947
2026-01-13 10:09:31.93	169.54	19.82	-53.7	-56.0	13.9	0.00e+00	0	26	0	334495744	72	4999
2026-01-13 10:09:35.90	169.74	20.34	-53.5	-55.7	14.0	0.00e+00	0	26	0	341835776	72	4823
2026-01-13 10:09:39.86	169.94	20.86	-53.2	-55.3	14.2	0.00e+00	0	26	0	349175808	72	4628
2026-01-13 10:09:43.83	170.14	21.39	-53.3	-55.3	14.2	0.00e+00	0	26	0	356515840	72	4649
2026-01-13 10:09:47.81	170.35	21.94	-53.3	-55.4	14.1	0.00e+00	0	26	0	363855872	72	4680
2026-01-13 10:09:51.78	170.57	22.50	-53.4	-55.5	14.1	0.00e+00	0	26	0	371195904	72	4732
2026-01-13 10:09:55.76	170.80	23.07	-53.4	-55.5	14.1	0.00e+00	0	26	0	378535936	72	4742
2026-01-13 10:09:59.73	171.03	23.65	-53.4	-55.6	14.1	0.00e+00	0	26	0	385875968	72	4761
2026-01-13 10:10:03.71	171.28	24.24	-53.2	-55.3	14.2	0.00e+00	0	26	0	394264576	72	4601
2026-01-13 10:10:07.67	171.53	24.85	-52.8	-54.8	14.5	0.00e+00	0	26	0	401604608	72	4343
2026-01-13 10:10:11.65	171.79	25.47	-52.8	-54.6	14.5	0.00e+00	0	26	0	408944640	72	4289
2026-01-13 10:10:15.62	172.06	26.11	-52.8	-54.7	14.5	0.00e+00	0	26	0	416284672	72	4292
2026-01-13 10:10:19.60	172.35	26.76	-52.6	-54.5	14.4	0.00e+00	0	26	0	423624704	71	4462
2026-01-13 10:10:23.55	172.64	27.43	-52.5	-54.3	14.6	0.00e+00	0	26	0	430964736	71	4363
2026-01-13 10:10:27.53	172.94	28.11	-52.7	-54.6	14.4	0.00e+00	0	26	0	438304768	71	4514
2026-01-13 10:10:31.51	173.26	28.81	-52.7	-54.5	14.5	0.00e+00	0	26	0	445644800	71	4476
2026-01-13 10:10:35.47	173.59	29.52	-53.0	-55.0	14.3	0.00e+00	0	26	0	452984832	71	4749
2026-01-13 10:10:39.44	173.94	30.25	-52.9	-54.9	14.4	0.00e+00	0	26	0	460324864	71	4659
2026-01-13 10:10:43.41	174.30	31.01	-53.3	-55.2	14.2	0.00e+00	0	26	0	468713472	72	4598
2026-01-13 10:10:47.38	174.68	31.77	-54.3	-56.7	13.7	0.00e+00	0	26	0	476053504	73	5115
2026-01-13 10:10:51.35	175.07	32.56	-54.6	-57.2	13.6	0.00e+00	0	26	0	483393536	74	5110
2026-01-13 10:10:55.32	175.49	33.37	-54.5	-56.9	13.8	0.00e+00	0	26	0	490733568	75	4670
2026-01-13 10:10:59.28	175.92	34.20	-53.6	-55.6	14.2	0.00e+00	0	26	0	498073600	73	4529
2026-01-13 10:11:03.25	176.38	35.05	-53.5	-55.6	14.3	0.00e+00	0	26	0	505413632	73	4514
2026-01-13 10:11:07.23	176.86	35.92	-54.1	-56.5	13.8	0.00e+00	0	26	0	512753664	73	4993
2026-01-13 10:11:11.20	177.37	36.81	-54.5	-56.9	13.6	0.00e+00	0	26	0	520093696	74	4975
2026-01-13 10:11:15.17	177.90	37.73	-54.4	-56.8	13.8	0.00e+00	0	26	0	527433728	74	4911
2026-01-13 10:11:19.15	178.47	38.67	-54.8	-57.4	13.6	0.00e+00	0	26	0	535822336	75	4940
2026-01-13 10:11:23.13	179.07	39.63	-55.7	-58.7	13.0	0.00e+00	0	26	0	543162368	77	5155
2026-01-13 10:11:27.09	179.70	40.61	-55.5	-58.3	13.2	0.00e+00	0	26	0	550502400	77	4912
2026-01-13 10:11:31.07	180.38	41.63	-54.9	-57.4	13.7	0.00e+00	0	26	0	557842432	76	4684
2026-01-13 10:11:35.06	181.10	42.66	-54.7	-57.2	13.7	0.00e+00	0	26	0	565182464	75	4839
2026-01-13 10:11:39.04	181.86	43.72	-55.2	-58.0	13.2	0.00e+00	0	26	0	572522496	75	5326
2026-01-13 10:11:43.00	182.68	44.80	-54.3	-56.6	14.0	0.00e+00	0	26	0	579862528	75	4508
2026-01-13 10:11:46.96	183.54	45.90	-54.0	-56.2	14.1	0.00e+00	0	26	0	587202560	74	4563
2026-01-13 10:11:50.94	184.48	47.03	-53.4	-55.3	14.4	0.00e+00	0	26	0	594542592	73	4389
2026-01-13 10:11:54.92	185.49	48.19	-54.2	-56.5	13.8	0.00e+00	0	26	0	601882624	73	5032
2026-01-13 10:11:58.90	186.57	49.36	-54.6	-57.0	13.8	0.00e+00	0	26	0	610271232	75	4734
2026-01-13 10:12:02.88	187.74	50.55	-53.4	-55.4	14.2	0.00e+00	0	26	0	617611264	72	4700
2026-01-13 10:12:06.86	189.00	51.76	-52.8	-54.7	14.4	0.00e+00	0	26	0	624951296	71	4547
2026-01-13 10:12:10.83	190.37	52.99	-52.6	-54.4	14.6	0.00e+00	0	26	0	632291328	71	4441
2026-01-13 10:12:14.81	191.86	54.23	-51.7	-53.4	14.8	0.00e+00	0	26	0	639631360	69	4405
2026-01-13 10:12:18.78	193.48	55.47	-50.5	-52.0	15.0	0.00e+00	0	26	0	646971392	67	4212
2026-01-13 10:12:22.76	195.25	56.73	-50.1	-51.6	15.0	0.00e+00	0	26	0	654311424	66	4244
2026-01-13 10:12:26.74	197.19	57.98	-49.9	-51.3	15.1	0.00e+00	0	26	0	661651456	66	4109
2026-01-13 10:12:30.72	199.32	59.23	-50.5	-51.9	14.9	0.00e+00	0	26	0	668991488	66	4421
2026-01-13 10:12:34.70	201.65	60.46	-52.2	-53.9	14.6	0.00e+00	0	26	0	677380096	70	4437
2026-01-13 10:12:38.68	204.22	61.68	-52.6	-54.3	14.5	0.00e+00	0	26	0	684720128	70	4637
2026-01-13 10:12:42.64	207.04	62.85	-50.5	-51.9	15.0	0.00e+00	0	26	0	692060160	67	4159
2026-01-13 10:12:46.61	210.14	63.98	-51.1	-52.6	14.9	0.00e+00	0	26	0	699400192	68	4264
2026-01-13 10:12:50.58	213.55	65.05	-50.8	-52.3	14.9	0.00e+00	0	26	0	706740224	67	4358
2026-01-13 10:12:54.56	217.30	66.06	-51.3	-52.9	14.7	0.00e+00	0	26	0	714080256	67	4669
2026-01-13 10:12:58.53	221.39	66.97	-52.9	-54.7	14.3	0.00e+00	0	26	0	721420288	70	4865
2026-01-13 10:13:02.50	225.82	67.78	-53.0	-54.9	14.4	0.00e+00	0	26	0	728760320	71	4657
2026-01-13 10:13:06.51	230.63	68.46	-53.8	-55.8	14.3	0.00e+00	0	26	0	736100352	74	4388
2026-01-13 10:13:10.46	235.67	69.00	-54.2	-56.4	14.2	0.00e+00	0	26	0	744488960	75	4403
2026-01-13 10:13:14.45	241.01	69.38	-54.8	-57.2	13.7	0.00e+00	0	26	0	751828992	76	4595
2026-01-13 10:13:18.44	246.51	69.60	-52.9	-54.7	14.5	0.00e+00	0	26	0	759169024	71	4586
2026-01-13 10:13:22.41	252.06	69.64	-52.5	-54.3	14.5	0.00e+00	0	26	0	766509056	70	4607
2026-01-13 10:13:26.41	257.62	69.50	-52.8	-54.6	14.5	0.00e+00	0	26	0	773849088	70	4787
2026-01-13 10:13:30.39	263.02	69.18	-53.7	-55.7	14.1	0.00e+00	0	26	0	781189120	72	4835
2026-01-13 10:13:34.38	268.22	68.71	-54.9	-57.4	13.6	0.00e+00	0	26	0	788529152	75	4974
2026-01-13 10:13:38.36	273.13	68.08	-54.0	-56.1	14.2	0.00e+00	0	26	0	795869184	74	4520
2026-01-13 10:13:42.35	277.72	67.33	-53.0	-54.8	14.5	0.00e+00	0	26	0	803209216	72	4381
2026-01-13 10:13:46.33	281.96	66.45	-52.5	-54.3	14.5	0.00e+00	0	26	0	811597824	70	4599
2026-01-13 10:13:50.31	285.85	65.49	-50.1	-51.4	15.1	0.00e+00	0	26	0	818937856	66	4190
2026-01-13 10:13:54.28	289.39	64.44	-50.2	-51.5	15.0	0.00e+00	0	26	0	826277888	66	4236
2026-01-13 10:13:58.24	292.61	63.34	-50.2	-51.6	15.0	0.00e+00	0	26	0	833617920	66	4243
2026-01-13 10:14:02.21	295.55	62.18	-51.2	-52.7	14.9	0.00e+00	0	26	0	840957952	68	4310
2026-01-13 10:14:06.19	298.22	60.99	-52.1	-53.8	14.6	0.00e+00	0	26	0	848297984	69	4622
2026-01-13 10:14:10.16	300.64	59.77	-52.3	-54.0	14.6	0.00e+00	0	26	0	855638016	70	4455
2026-01-13 10:14:14.12	302.84	58.54	-51.0	-52.5	15.0	0.00e+00	0	26	0	862978048	68	4198
2026-01-13 10:14:18.09	304.85	57.29	-49.9	-51.3	15.0	0.00e+00	0	26	0	870318080	65	4358
2026-01-13 10:14:22.07	306.69	56.04	-49.8	-51.1	15.2	0.00e+00	0	26	0	878706688	66	4030
2026-01-13 10:14:26.04	308.37	54.79	-50.5	-51.9	14.9	0.00e+00	0	26	0	886046720	66	4429
2026-01-13 10:14:30.02	309.92	53.55	-50.1	-51.5	14.9	0.00e+00	0	26	0	893386752	65	4482
2026-01-13 10:14:34.01	311.34	52.32	-51.4	-52.9	14.7	0.00e+00	0	26	0	900726784	67	4683
2026-01-13 10:14:37.99	312.64	51.10	-52.8	-54.6	14.5	0.00e+00	0	26	0	908066816	70	4800
2026-01-13 10:14:41.96	313.85	49.91	-53.2	-55.0	14.6	0.00e+00	0	26	0	915406848	73	4235
2026-01-13 10:14:45.95	314.97	48.73	-54.7	-57.2	13.8	0.00e+00	0	26	0	922746880	75	4832
2026-01-13 10:14:49.91	316.00	47.58	-53.7	-55.7	14.2	0.00e+00	0	26	0	930086912	73	4596
2026-01-13 10:14:53.87	316.96	46.45	-51.4	-52.9	14.8	0.00e+00	0	26	0	937426944	68	4417
2026-01-13 10:14:57.84	317.86	45.33	-53.3	-55.1	14.4	0.00e+00	0	26	0	944766976	72	4538
2026-01-13 10:15:01.81	318.70	44.25	-51.9	-53.5	14.9	0.00e+00	0	26	0	953155584	70	4195
2026-01-13 10:15:05.79	319.49	43.18	-54.6	-57.0	13.7	0.00e+00	0	26	0	960495616	74	5037
2026-01-13 10:15:09.76	320.22	42.14	-51.4	-52.8	15.0	0.00e+00	0	26	0	967835648	69	4133
2026-01-13 10:15:13.72	320.91	41.13	-53.5	-55.6	14.2	0.00e+00	0	26	0	975175680	72	4781
2026-01-13 10:15:17.67	321.56	40.14	-53.7	-55.8	14.4	0.00e+00	0	26	0	982515712	74	4365
2026-01-13 10:15:21.64	322.18	39.17	-50.9	-52.4	15.0	0.00e+00	0	26	0	989855744	68	4148
2026-01-13 10:15:25.62	322.76	38.22	-53.9	-56.0	14.0	0.00e+00	0	26	0	997195776	72	5022
2026-01-13 10:15:29.59	323.31	37.30	-52.6	-54.3	14.6	0.00e+00	0	26	0	1004535808	71	4366
2026-01-13 10:15:33.55	323.83	36.40	-51.5	-53.0	14.8	0.00e+00	0	26	0	1011875840	68	4477
2026-01-13 10:15:37.53	324.32	35.52	-51.9	-53.5	14.7	0.00e+00	0	26	0	1019215872	69	4443
2026-01-13 10:15:41.52	324.79	34.66	-52.8	-54.7	14.3	0.00e+00	0	26	0	1027604480	70	4835
2026-01-13 10:15:45.49	325.24	33.83	-54.3	-56.7	13.7	0.00e+00	0	26	0	1034944512	73	5101
2026-01-13 10:15:49.47	325.66	33.01	-55.4	-58.2	13.2	0.00e+00	0	26	0	1042284544	76	5152
2026-01-13 10:15:53.44	326.07	32.22	-53.4	-55.4	14.4	0.00e+00	0	26	0	1049624576	73	4402
2026-01-13 10:15:57.42	326.45	31.44	-52.8	-54.6	14.5	0.00e+00	0	26	0	1056964608	71	4518
2026-01-13 10:16:01.40	326.82	30.68	-53.8	-56.0	14.1	0.00e+00	0	26	0	1064304640	73	4733
2026-01-13 10:16:05.37	327.18	29.94	-54.2	-56.4	13.9	0.00e+00	0	26	0	1071644672	73	4983
2026-01-13 10:16:09.35	327.52	29.22	-53.5	-55.5	14.3	0.00e+00	0	26	0	1078984704	73	4468
2026-01-13 10:16:13.33	327.84	28.52	-53.4	-55.3	14.4	0.00e+00	0	26	0	1086324736	73	4379
2026-01-13 10:16:17.31	328.16	27.83	-51.8	-53.4	14.9	0.00e+00	0	26	0	1094713344	70	4179
2026-01-13 10:16:21.29	328.46	27.16	-51.4	-52.9	14.8	0.00e+00	0	26	0	1102053376	68	4422
2026-01-13 10:16:25.28	328.74	26.50	-51.9	-53.6	14.6	0.00e+00	0	26	0	1109393408	69	4539
2026-01-13 10:16:29.23	329.02	25.86	-52.0	-53.7	14.5	0.00e+00	0	26	0	1116733440	69	4583
2026-01-13 10:16:33.21	329.29	25.23	-52.5	-54.3	14.5	0.00e+00	0	26	0	1124073472	70	4638
2026-01-13 10:16:37.20	329.55	24.62	-53.1	-55.1	14.2	0.00e+00	0	26	0	1131413504	71	4779
2026-01-13 10:16:41.17	329.79	24.02	-52.8	-54.7	14.4	0.00e+00	0	26	0	1138753536	71	4571
2026-01-13 10:16:45.14	330.03	23.43	-52.0	-53.7	14.7	0.00e+00	0	26	0	1146093568	70	4336
2026-01-13 10:16:48.93	330.26	22.89	-51.3	-52.9	14.9	0.00e+00	0	26	0	1154482176	69	4178
2026-01-13 10:16:52.97	330.48	22.32	-50.8	-52.3	15.0	0.00e+00	0	26	0	1161822208	68	4118
2026-01-13 10:16:57.00	330.70	21.76	-50.3	-51.7	15.1	0.00e+00	0	26	0	1169162240	67	4091
2026-01-13 10:17:01.00	330.92	21.22	-50.6	-52.1	14.9	0.00e+00	0	26	0	1176502272	67	4265
2026-01-13 10:17:05.05	331.12	20.68	-51.1	-52.6	14.7	0.00e+00	0	26	0	1183842304	67	4539
2026-01-13 10:17:09.19	331.33	20.14	-51.2	-52.8	14.7	0.00e+00	0	26	0	1192230912	67	4632
2026-01-13 10:17:13.16	331.52	19.64	-51.1	-52.8	14.7	0.00e+00	0	26	0	1199570944	67	4602
2026-01-13 10:17:17.14	331.71	19.14	-51.5	-53.2	14.7	0.00e+00	0	26	0	1206910976	68	4567
2026-01-13 10:17:21.13	331.89	18.65	-52.1	-53.9	14.5	0.00e+00	0	26	0	1214251008	69	4666
2026-01-13 10:17:25.10	332.06	18.17	-52.5	-54.3	14.4	0.00e+00	0	26	0	1221591040	70	4648
2026-01-13 10:17:29.08	332.23	17.71	-52.4	-54.3	14.4	0.00e+00	0	26	0	1228931072	70	4600
2026-01-13 10:17:33.05	332.40	17.25	-52.1	-53.8	14.6	0.00e+00	0	26	0	1236271104	70	4391
2026-01-13 10:17:37.02	332.56	16.79	-51.6	-53.3	14.7	0.00e+00	0	26	0	1244659712	69	4342
2026-01-13 10:17:41.00	332.72	16.35	-51.5	-53.1	14.8	0.00e+00	0	26	0	1251999744	69	4275
2026-01-13 10:17:44.98	332.87	15.91	-51.5	-53.2	14.8	0.00e+00	0	26	0	1259339776	69	4301
2026-01-13 10:17:48.96	333.02	15.49	-51.8	-53.5	14.6	0.00e+00	0	26	0	1266679808	69	4491
2026-01-13 10:17:52.95	333.17	15.06	-52.1	-53.9	14.5	0.00e+00	0	26	0	1274019840	69	4655
2026-01-13 10:17:56.91	333.31	14.65	-52.3	-54.2	14.3	0.00e+00	0	26	0	1281359872	69	4856
2026-01-13 10:18:00.89	333.45	14.24	-52.6	-54.5	14.3	0.00e+00	0	26	0	1288699904	70	4754
2026-01-13 10:18:04.87	333.58	13.84	-52.9	-55.0	14.2	0.00e+00	0	26	0	1296039936	71	4710
2026-01-13 10:18:08.84	333.71	13.45	-53.2	-55.4	13.9	0.00e+00	0	26	0	1303379968	71	4939
2026-01-13 10:18:12.81	333.84	13.06	-53.5	-55.8	13.9	0.00e+00	0	26	0	1311768576	72	4872
2026-01-13 10:18:16.79	333.97	12.68	-53.5	-55.7	13.9	0.00e+00	0	26	0	1319108608	72	4829
2026-01-13 10:18:20.76	334.09	12.30	-53.5	-55.7	13.9	0.00e+00	0	26	0	1326448640	72	4862
2026-01-13 10:18:24.74	334.21	11.93	-53.5	-55.7	13.9	0.00e+00	0	26	0	1333788672	72	4853
2026-01-13 10:18:28.72	334.33	11.57	-53.5	-55.7	13.9	0.00e+00	0	26	0	1341128704	72	4849
2026-01-13 10:18:32.70	334.45	11.21	-53.2	-55.3	14.1	0.00e+00	0	26	0	1348468736	72	4651
2026-01-13 10:18:36.67	334.56	10.85	-53.2	-55.4	14.1	0.00e+00	0	26	0	1355808768	72	4670
2026-01-13 10:18:40.65	334.67	10.50	-53.0	-55.0	14.2	0.00e+00	0	26	0	1363148800	72	4491
2026-01-13 10:18:44.64	334.78	10.16	-52.9	-55.0	14.2	0.00e+00	0	26	0	1370488832	72	4448
2026-01-13 10:18:48.62	334.89	9.82	-52.9	-54.9	14.3	0.00e+00	0	26	0	1378877440	72	4421
2026-01-13 10:18:52.58	335.00	9.48	-52.8	-54.9	14.3	0.00e+00	0	26	0	1386217472	72	4416
2026-01-13 10:18:56.56	335.10	9.15	-52.7	-54.8	14.3	0.00e+00	0	26	0	1393557504	72	4345
2026-01-13 10:19:00.53	335.20	8.83	-52.9	-55.0	14.2	0.00e+00	0	26	0	1400897536	72	4486
2026-01-13 10:19:04.47	335.30	8.51	-52.7	-54.8	14.3	0.00e+00	0	26	0	1408237568	72	4368
2026-01-13 10:19:08.45	335.40	8.19	-52.8	-54.9	14.3	0.00e+00	0	26	0	1415577600	72	4411
2026-01-13 10:19:12.40	335.49	7.87	-52.8	-54.8	14.3	0.00e+00	0	26	0	1422917632	72	4381
2026-01-13 10:19:16.38	335.59	7.56	-52.9	-55.1	14.1	0.00e+00	0	26	0	1430257664	72	4515
2026-01-13 10:19:20.35	335.68	7.26	-52.9	-55.1	14.1	0.00e+00	0	26	0	1437597696	72	4526
2026-01-13 10:19:24.32	335.77	6.95	-53.0	-55.2	14.1	0.00e+00	0	26	0	1444937728	72	4568
2026-01-13 10:19:28.29	335.86	6.65	-52.9	-55.1	14.1	0.00e+00	0	26	0	1453326336	72	4504
2026-01-13 10:19:32.26	335.95	6.36	-53.1	-55.4	13.9	0.00e+00	0	26	0	1460666368	72	4688
2026-01-13 10:19:36.24	336.03	6.06	-53.2	-55.5	13.8	0.00e+00	0	26	0	1468006400	72	4758
2026-01-13 10:19:40.22	336.12	5.77	-53.2	-55.5	13.8	0.00e+00	0	26	0	1475346432	72	4749
2026-01-13 10:19:44.20	336.20	5.49	-53.1	-55.4	13.9	0.00e+00	0	26	0	1482686464	72	4674
2026-01-13 10:19:48.17	336.29	5.20	-53.3	-55.8	13.6	0.00e+00	0	26	0	1490026496	72	4922
2026-01-13 10:19:52.16	336.37	4.92	-56.3	-74.3	3.7	8.45e-01	0	26	104	1496317952	79	27409
2026-01-13 10:19:56.19	336.45	4.64	-59.7	-75.8	3.8	1.49e+00	0	26	104	1496317952	84	24499
2026-01-13 10:20:00.19	336.53	4.36	-60.1	-76.2	3.8	1.49e+00	0	26	104	1496317952	85	24240
2026-01-13 10:20:04.21	336.61	4.09	-60.2	-76.3	3.8	1.49e+00	0	26	104	1496317952	85	24617
2026-01-13 10:20:08.23	336.69	3.81	-60.3	-76.4	3.8	1.49e+00	0	26	104	1496317952	85	24857
2026-01-13 10:20:12.25	336.76	3.54	-60.4	-76.5	3.8	1.49e+00	0	26	104	1496317952	85	24995
2026-01-13 10:20:16.26	336.84	3.28	-60.3	-76.4	3.8	1.49e+00	0	26	104	1496317952	85	24762
2026-01-13 10:20:20.23	336.91	3.02	-60.2	-76.3	3.8	1.49e+00	0	26	104	1496317952	85	24625
2026-01-13 10:20:24.20	336.99	2.76	-60.2	-76.3	3.8	1.49e+00	0	26	104	1496317952	85	24540
2026-01-13 10:20:28.18	337.06	2.50	-60.2	-76.3	3.8	1.49e+00	0	26	104	1496317952	85	24423
2026-01-13 10:20:32.16	337.13	2.25	-60.2	-76.3	3.8	1.49e+00	0	26	104	1496317952	85	24435
2026-01-13 10:20:36.14	337.20	1.99	-60.1	-76.2	3.8	1.49e+00	0	26	104	1496317952	85	24251

#Closed at: 2026-01-13 10:20:38
#Recorded file [1496 MB]: D:/lorett/data/31004_260113_130609.dat