passes_logs/2026/01/13/R3.2S_Murmansk/R3.2S_Murmansk__20260113_011926_NOAA_21_JPSS-2_rec.log

#Pass ID: 20260113_011926_NOAA 21 (JPSS-2)
#Satellite: NOAA 21 (JPSS-2)
#Configuration: NOAA-21
#almurnet v.1.7.20251203
#Start time: 2026-01-13 01:19:27

#Version: 2.2.20231116
#Station: R3.2S_Murmansk
#Location: 33.079688 lon 68.888172 lat
#TLE: 1 54234U 22150A   26012.26378519  .00000063  00000+0  50547-4 0  9993
#TLE: 2 54234  98.7495 313.1967 0000726 309.1075  51.0036 14.19534275164425

#Time	Az	El	Level	Level2	SNR	BER	BlckErr	Temp	State	Recorded	gain1	gain2
2026-01-13 01:19:27.41	27.17	2.08	-56.7	-70.5	3.8	1.49e+00	0	20	0	0	80	16717
2026-01-13 01:19:31.42	27.12	2.34	-56.6	-70.4	3.8	1.49e+00	0	20	104	0	78	18553
2026-01-13 01:19:35.44	27.06	2.60	-56.7	-70.3	3.8	1.49e+00	0	20	104	0	78	18442
2026-01-13 01:19:39.46	27.01	2.86	-56.6	-69.9	3.8	1.49e+00	0	21	104	0	78	17634
2026-01-13 01:19:43.47	26.95	3.12	-56.6	-69.7	3.8	1.49e+00	0	21	104	0	78	17158
2026-01-13 01:19:47.49	26.90	3.39	-56.6	-69.5	3.8	1.49e+00	0	21	104	0	78	16855
2026-01-13 01:19:51.49	26.84	3.66	-56.6	-69.5	3.8	1.49e+00	0	21	104	0	78	16755
2026-01-13 01:19:55.51	26.78	3.93	-56.3	-65.4	4.7	9.28e-01	2	21	104	0	78	10438
2026-01-13 01:19:59.53	26.72	4.20	-55.9	-62.9	6.2	2.60e-01	0	21	0	11534336	78	7878
2026-01-13 01:20:03.54	26.65	4.48	-55.5	-61.5	7.4	8.62e-02	0	21	0	24117248	77	7062
2026-01-13 01:20:07.54	26.59	4.76	-55.7	-62.2	6.7	1.61e-01	0	21	0	36700160	77	7637
2026-01-13 01:20:11.56	26.53	5.04	-56.2	-62.2	7.7	3.45e-01	0	21	0	49283072	77	7641
2026-01-13 01:20:15.58	26.46	5.33	-55.9	-62.5	6.9	1.39e-03	0	21	0	54525952	76	8428
2026-01-13 01:20:19.58	26.39	5.62	-53.2	-55.8	12.7	7.00e-07	0	21	0	63963136	73	4648
2026-01-13 01:20:23.60	26.32	5.91	-51.7	-53.7	14.0	0.00e+00	0	21	0	76546048	70	4322
2026-01-13 01:20:27.61	26.25	6.21	-51.3	-53.2	14.2	0.00e+00	0	21	0	89128960	69	4311
2026-01-13 01:20:31.63	26.17	6.50	-51.4	-53.2	14.2	0.00e+00	0	21	0	101711872	69	4323
2026-01-13 01:20:35.63	26.10	6.80	-51.4	-53.2	14.3	0.00e+00	0	21	0	114294784	69	4314
2026-01-13 01:20:39.63	26.02	7.11	-50.9	-52.6	14.5	0.00e+00	0	21	0	126877696	68	4276
2026-01-13 01:20:43.65	25.94	7.42	-50.9	-52.6	14.5	0.00e+00	0	21	0	139460608	68	4257
2026-01-13 01:20:47.65	25.86	7.73	-50.5	-52.1	14.7	0.00e+00	0	21	0	152043520	67	4276
2026-01-13 01:20:51.66	25.77	8.05	-50.4	-52.0	14.7	0.00e+00	0	21	0	163577856	67	4207
2026-01-13 01:20:55.65	25.69	8.37	-50.1	-51.7	14.8	0.00e+00	0	21	0	176160768	66	4296
2026-01-13 01:20:59.65	25.60	8.69	-50.0	-51.5	14.9	0.00e+00	0	21	0	188743680	66	4234
2026-01-13 01:21:03.66	25.51	9.02	-50.0	-51.5	14.9	0.00e+00	0	22	0	201326592	66	4210
2026-01-13 01:21:07.66	25.41	9.35	-50.0	-51.5	14.9	0.00e+00	0	22	0	213909504	66	4206
2026-01-13 01:21:11.66	25.32	9.69	-49.8	-51.3	15.0	0.00e+00	0	22	0	226492416	66	4122
2026-01-13 01:21:15.65	25.22	10.02	-49.8	-51.2	15.1	0.00e+00	0	22	0	239075328	66	4088
2026-01-13 01:21:19.66	25.12	10.37	-49.7	-51.2	14.9	0.00e+00	0	21	0	251658240	65	4294
2026-01-13 01:21:23.67	25.01	10.72	-49.5	-50.9	15.1	0.00e+00	0	21	0	264241152	65	4173
2026-01-13 01:21:27.68	24.91	11.08	-49.5	-50.9	15.1	0.00e+00	0	22	0	276824064	65	4173
2026-01-13 01:21:31.69	24.80	11.44	-49.5	-50.9	15.1	0.00e+00	0	22	0	289406976	65	4163
2026-01-13 01:21:35.70	24.68	11.81	-49.4	-50.8	15.1	0.00e+00	0	21	0	301989888	65	4138
2026-01-13 01:21:39.70	24.56	12.18	-49.4	-50.8	15.2	0.00e+00	0	22	0	314572800	65	4122
2026-01-13 01:21:43.71	24.44	12.55	-49.4	-50.8	15.2	0.00e+00	0	22	0	327155712	65	4099
2026-01-13 01:21:47.71	24.32	12.94	-49.2	-50.6	15.2	0.00e+00	0	22	0	339738624	64	4252
2026-01-13 01:21:51.72	24.19	13.32	-49.1	-50.5	15.2	0.00e+00	0	22	0	352321536	64	4196
2026-01-13 01:21:55.72	24.06	13.72	-49.0	-50.3	15.3	0.00e+00	0	22	0	364904448	64	4124
2026-01-13 01:21:59.73	23.93	14.12	-48.9	-50.2	15.4	0.00e+00	0	22	0	376438784	64	4064
2026-01-13 01:22:03.73	23.79	14.53	-48.9	-50.2	15.4	0.00e+00	0	22	0	389021696	64	4064
2026-01-13 01:22:07.73	23.64	14.94	-48.9	-50.2	15.4	0.00e+00	0	22	0	401604608	64	4075
2026-01-13 01:22:11.76	23.49	15.37	-48.9	-50.2	15.4	0.00e+00	0	22	0	414187520	64	4081
2026-01-13 01:22:15.78	23.34	15.80	-48.9	-50.2	15.4	0.00e+00	0	22	0	426770432	64	4064
2026-01-13 01:22:19.77	23.18	16.23	-48.9	-50.3	15.4	0.00e+00	0	22	0	439353344	64	4102
2026-01-13 01:22:23.80	23.02	16.68	-48.9	-50.3	15.4	0.00e+00	0	22	0	451936256	64	4110
2026-01-13 01:22:27.80	22.85	17.13	-49.0	-50.3	15.4	0.00e+00	0	22	0	464519168	64	4127
2026-01-13 01:22:31.82	22.68	17.59	-49.1	-50.5	15.3	0.00e+00	0	22	0	477102080	64	4205
2026-01-13 01:22:35.84	22.49	18.06	-48.9	-50.3	15.4	0.00e+00	0	22	0	489684992	64	4104
2026-01-13 01:22:39.85	22.31	18.54	-49.0	-50.3	15.4	0.00e+00	0	22	0	502267904	64	4106
2026-01-13 01:22:43.85	22.12	19.02	-48.8	-50.1	15.5	0.00e+00	0	22	0	514850816	64	4040
2026-01-13 01:22:47.86	21.91	19.52	-48.7	-50.0	15.4	0.00e+00	0	22	0	527433728	63	4215
2026-01-13 01:22:51.87	21.71	20.02	-48.7	-50.0	15.4	0.00e+00	0	22	0	540016640	63	4197
2026-01-13 01:22:55.87	21.49	20.54	-48.5	-49.8	15.5	0.00e+00	0	22	0	552599552	63	4103
2026-01-13 01:22:59.89	21.27	21.06	-48.4	-49.6	15.5	0.00e+00	0	22	0	565182464	63	4042
2026-01-13 01:23:03.89	21.04	21.60	-48.1	-49.3	15.5	0.00e+00	0	22	0	577765376	62	4140
2026-01-13 01:23:07.89	20.80	22.15	-48.0	-49.3	15.6	0.00e+00	0	22	0	590348288	62	4102
2026-01-13 01:23:11.90	20.55	22.70	-47.9	-49.0	15.7	0.00e+00	0	22	0	601882624	62	4001
2026-01-13 01:23:15.92	20.29	23.28	-47.6	-48.8	15.6	0.00e+00	0	22	0	615514112	61	4120
2026-01-13 01:23:19.93	20.02	23.86	-47.5	-48.7	15.7	0.00e+00	0	22	0	627048448	61	4054
2026-01-13 01:23:23.93	19.74	24.45	-47.7	-48.8	15.6	0.00e+00	0	22	0	639631360	61	4140
2026-01-13 01:23:27.94	19.45	25.06	-47.8	-49.0	15.6	0.00e+00	0	22	0	652214272	61	4204
2026-01-13 01:23:31.96	19.15	25.69	-47.9	-49.1	15.5	0.00e+00	0	22	0	664797184	61	4286
2026-01-13 01:23:35.96	18.83	26.32	-48.2	-49.4	15.4	0.00e+00	0	22	0	677380096	61	4435
2026-01-13 01:23:39.97	18.50	26.97	-48.7	-49.9	15.3	0.00e+00	0	22	0	689963008	62	4438
2026-01-13 01:23:43.98	18.16	27.64	-49.0	-50.3	15.3	0.00e+00	0	22	0	702545920	63	4355
2026-01-13 01:23:47.99	17.80	28.32	-49.1	-50.5	15.2	0.00e+00	0	22	0	715128832	63	4446
2026-01-13 01:23:52.00	17.42	29.01	-49.1	-50.5	15.2	0.00e+00	0	22	0	727711744	63	4444
2026-01-13 01:23:56.01	17.02	29.72	-49.0	-50.3	15.3	0.00e+00	0	22	0	740294656	63	4364
2026-01-13 01:24:00.01	16.61	30.45	-48.7	-49.9	15.4	0.00e+00	0	22	0	752877568	63	4161
2026-01-13 01:24:04.02	16.18	31.19	-48.4	-49.7	15.5	0.00e+00	0	22	0	765460480	63	4058
2026-01-13 01:24:08.01	15.73	31.95	-48.5	-49.7	15.5	0.00e+00	0	22	0	778043392	63	4061
2026-01-13 01:24:12.03	15.25	32.74	-49.0	-50.3	15.2	0.00e+00	0	22	0	790626304	63	4390
2026-01-13 01:24:16.04	14.75	33.54	-49.1	-50.4	15.2	0.00e+00	0	22	0	803209216	63	4403
2026-01-13 01:24:20.05	14.22	34.35	-49.3	-50.6	15.1	0.00e+00	0	22	0	815792128	63	4542
2026-01-13 01:24:24.07	13.66	35.19	-50.2	-51.6	14.9	0.00e+00	0	22	0	828375040	65	4538
2026-01-13 01:24:28.08	13.08	36.05	-50.6	-52.1	14.8	0.00e+00	0	22	0	840957952	66	4506
2026-01-13 01:24:32.09	12.46	36.92	-50.5	-52.0	14.8	0.00e+00	0	22	0	852492288	66	4466
2026-01-13 01:24:36.09	11.80	37.82	-50.6	-52.1	14.7	0.00e+00	0	22	0	865075200	66	4542
2026-01-13 01:24:40.11	11.11	38.73	-50.7	-52.2	14.7	0.00e+00	0	22	0	877658112	66	4556
2026-01-13 01:24:44.13	10.37	39.67	-50.5	-51.9	14.9	0.00e+00	0	22	0	890241024	66	4423
2026-01-13 01:24:48.15	9.59	40.63	-50.7	-52.2	14.6	0.00e+00	0	22	0	902823936	66	4589
2026-01-13 01:24:52.15	8.77	41.60	-51.3	-52.9	14.4	0.00e+00	0	22	0	915406848	67	4700
2026-01-13 01:24:56.16	7.88	42.60	-50.8	-52.3	14.8	0.00e+00	0	22	0	927989760	67	4388
2026-01-13 01:25:00.16	6.95	43.61	-51.4	-53.0	14.4	0.00e+00	0	22	0	940572672	67	4741
2026-01-13 01:25:04.17	5.95	44.64	-52.1	-53.9	14.2	0.00e+00	0	22	0	953155584	69	4687
2026-01-13 01:25:08.18	4.88	45.68	-51.5	-53.1	14.7	0.00e+00	0	22	0	965738496	69	4243
2026-01-13 01:25:12.19	3.73	46.75	-51.2	-52.8	14.7	0.00e+00	0	22	0	978321408	68	4355
2026-01-13 01:25:16.20	2.51	47.82	-51.2	-52.8	14.8	0.00e+00	0	22	0	990904320	68	4358
2026-01-13 01:25:20.21	1.19	48.91	-50.8	-52.3	15.0	0.00e+00	0	22	0	1003487232	68	4112
2026-01-13 01:25:24.23	359.77	50.01	-50.6	-52.0	15.0	0.00e+00	0	22	0	1016070144	67	4237
2026-01-13 01:25:28.24	358.25	51.12	-50.2	-51.5	15.1	0.00e+00	0	22	0	1028653056	66	4232
2026-01-13 01:25:32.26	356.60	52.22	-50.5	-52.0	14.9	0.00e+00	0	22	0	1041235968	66	4446
2026-01-13 01:25:36.26	354.84	53.33	-49.3	-50.6	15.5	0.00e+00	0	22	0	1053818880	65	4017
2026-01-13 01:25:40.26	352.94	54.43	-48.9	-50.1	15.6	0.00e+00	0	22	0	1066401792	64	4018
2026-01-13 01:25:44.27	350.87	55.51	-49.5	-50.8	15.2	0.00e+00	0	22	0	1078984704	64	4376
2026-01-13 01:25:48.29	348.64	56.59	-48.8	-50.0	15.6	0.00e+00	0	22	0	1091567616	64	3965
2026-01-13 01:25:52.29	346.24	57.63	-48.9	-50.2	15.5	0.00e+00	0	22	0	1104150528	64	4071
2026-01-13 01:25:56.31	343.64	58.64	-48.8	-50.1	15.5	0.00e+00	0	22	0	1115684864	63	4245
2026-01-13 01:26:00.32	340.84	59.61	-48.4	-49.6	15.6	0.00e+00	0	22	0	1128267776	63	4038
2026-01-13 01:26:04.32	337.83	60.52	-47.5	-48.6	15.8	0.00e+00	0	22	0	1140850688	61	4013
2026-01-13 01:26:08.33	334.60	61.38	-47.6	-48.7	15.7	0.00e+00	0	22	0	1153433600	61	4074
2026-01-13 01:26:12.33	331.16	62.15	-48.1	-49.2	15.6	0.00e+00	0	22	0	1166016512	61	4331
2026-01-13 01:26:16.35	327.49	62.84	-48.1	-49.3	15.7	0.00e+00	0	22	0	1178599424	62	4099
2026-01-13 01:26:20.37	323.61	63.44	-47.7	-48.9	15.8	0.00e+00	0	22	0	1191182336	62	3922
2026-01-13 01:26:24.38	319.56	63.92	-47.7	-48.8	15.7	0.00e+00	0	22	0	1203765248	61	4119
2026-01-13 01:26:28.39	315.36	64.28	-47.8	-49.0	15.7	0.00e+00	0	22	0	1216348160	61	4214
2026-01-13 01:26:32.39	311.06	64.52	-47.6	-48.8	15.7	0.00e+00	0	22	0	1228931072	61	4099
2026-01-13 01:26:36.41	306.67	64.63	-47.8	-49.0	15.6	0.00e+00	0	22	0	1241513984	61	4212
2026-01-13 01:26:40.41	302.29	64.60	-48.0	-49.2	15.6	0.00e+00	0	22	0	1254096896	61	4320
2026-01-13 01:26:44.42	297.94	64.44	-47.9	-49.1	15.6	0.00e+00	0	22	0	1266679808	61	4258
2026-01-13 01:26:48.43	293.66	64.15	-48.3	-49.5	15.6	0.00e+00	0	22	0	1279262720	62	4224
2026-01-13 01:26:52.45	289.51	63.73	-48.1	-49.3	15.6	0.00e+00	0	22	0	1291845632	62	4108
2026-01-13 01:26:56.44	285.55	63.20	-48.0	-49.2	15.6	0.00e+00	0	22	0	1304428544	61	4300
2026-01-13 01:27:00.45	281.76	62.57	-48.5	-49.7	15.5	0.00e+00	0	22	0	1317011456	62	4311
2026-01-13 01:27:04.47	278.17	61.84	-48.9	-50.1	15.4	0.00e+00	0	22	0	1329594368	62	4527
2026-01-13 01:27:08.47	274.82	61.03	-47.8	-48.9	15.8	0.00e+00	0	22	0	1342177280	62	3922
2026-01-13 01:27:12.47	271.69	60.15	-48.0	-49.2	15.7	0.00e+00	0	22	0	1354760192	62	4061
2026-01-13 01:27:16.49	268.75	59.21	-48.6	-49.8	15.4	0.00e+00	0	22	0	1366294528	62	4367
2026-01-13 01:27:20.50	266.04	58.22	-48.1	-49.2	15.6	0.00e+00	0	22	0	1378877440	62	4095
2026-01-13 01:27:24.51	263.52	57.19	-49.5	-50.8	15.2	0.00e+00	0	22	0	1391460352	64	4355
2026-01-13 01:27:28.52	261.18	56.13	-48.7	-49.9	15.5	0.00e+00	0	22	0	1404043264	63	4159
2026-01-13 01:27:32.53	259.02	55.05	-50.1	-51.6	15.0	0.00e+00	0	22	0	1416626176	65	4505
2026-01-13 01:27:36.53	257.03	53.96	-49.4	-50.7	15.5	0.00e+00	0	22	0	1429209088	65	4063
2026-01-13 01:27:40.53	255.18	52.86	-52.1	-53.8	14.3	0.00e+00	0	22	0	1441792000	69	4646
2026-01-13 01:27:44.54	253.47	51.75	-50.8	-52.2	15.1	0.00e+00	0	22	0	1454374912	68	4079
2026-01-13 01:27:48.54	251.88	50.64	-50.8	-52.3	14.7	0.00e+00	0	22	0	1466957824	66	4631
2026-01-13 01:27:52.56	250.39	49.53	-51.4	-53.0	14.6	0.00e+00	0	22	0	1479540736	69	4222
2026-01-13 01:27:56.56	249.02	48.44	-50.6	-52.1	14.9	0.00e+00	0	22	0	1492123648	67	4259
2026-01-13 01:28:00.57	247.74	47.35	-53.0	-55.1	13.8	0.00e+00	0	22	0	1504706560	71	4761
2026-01-13 01:28:04.58	246.55	46.28	-51.4	-53.0	14.8	0.00e+00	0	22	0	1517289472	69	4196
2026-01-13 01:28:08.59	245.43	45.22	-50.6	-52.1	15.0	0.00e+00	0	22	0	1529872384	67	4261
2026-01-13 01:28:12.58	244.40	44.18	-51.4	-52.9	14.6	0.00e+00	0	22	0	1542455296	68	4436
2026-01-13 01:28:16.58	243.42	43.16	-51.9	-53.6	14.4	0.00e+00	0	22	0	1555038208	69	4535
2026-01-13 01:28:20.58	242.51	42.15	-50.9	-52.4	15.0	0.00e+00	0	22	0	1566572544	68	4170
2026-01-13 01:28:24.58	241.65	41.17	-51.3	-52.9	14.6	0.00e+00	0	22	0	1579155456	68	4434
2026-01-13 01:28:28.58	240.84	40.20	-50.5	-52.0	15.0	0.00e+00	0	22	0	1591738368	67	4194
2026-01-13 01:28:32.58	240.08	39.25	-50.3	-51.7	15.0	0.00e+00	0	22	0	1604321280	66	4304
2026-01-13 01:28:36.58	239.36	38.32	-50.8	-52.4	14.8	0.00e+00	0	22	0	1616904192	67	4392
2026-01-13 01:28:40.57	238.69	37.42	-50.5	-52.0	15.0	0.00e+00	0	22	0	1629487104	67	4197
2026-01-13 01:28:44.57	238.05	36.53	-50.3	-51.8	15.1	0.00e+00	0	22	0	1642070016	67	4102
2026-01-13 01:28:48.57	237.44	35.66	-49.9	-51.2	15.2	0.00e+00	0	22	0	1654652928	66	4087
2026-01-13 01:28:52.56	236.87	34.81	-50.1	-51.5	15.1	0.00e+00	0	22	0	1667235840	66	4231
2026-01-13 01:28:56.54	236.32	33.99	-50.7	-52.2	14.7	0.00e+00	0	22	0	1679818752	66	4586
2026-01-13 01:29:00.55	235.80	33.18	-49.4	-50.7	15.4	0.00e+00	0	22	0	1692401664	65	4076
2026-01-13 01:29:04.55	235.31	32.38	-48.8	-50.0	15.6	0.00e+00	0	22	0	1703936000	64	3998
2026-01-13 01:29:08.54	234.84	31.61	-49.2	-50.5	15.3	0.00e+00	0	22	0	1716518912	64	4214
2026-01-13 01:29:12.54	234.40	30.85	-49.2	-50.4	15.3	0.00e+00	0	22	0	1729101824	64	4188
2026-01-13 01:29:16.52	233.97	30.12	-49.2	-50.5	15.3	0.00e+00	0	22	0	1741684736	64	4207
2026-01-13 01:29:20.50	233.57	29.40	-49.1	-50.4	15.3	0.00e+00	0	22	0	1754267648	64	4172
2026-01-13 01:29:24.50	233.18	28.69	-49.1	-50.4	15.3	0.00e+00	0	22	0	1766850560	64	4174
2026-01-13 01:29:28.50	232.81	28.00	-48.8	-50.1	15.5	0.00e+00	0	22	0	1779433472	64	4022
2026-01-13 01:29:32.49	232.45	27.33	-48.5	-49.7	15.5	0.00e+00	0	22	0	1792016384	63	4080
2026-01-13 01:29:36.47	232.11	26.67	-48.4	-49.6	15.6	0.00e+00	0	22	0	1804599296	63	4017
2026-01-13 01:29:40.46	231.79	26.03	-48.4	-49.6	15.6	0.00e+00	0	22	0	1816133632	63	4026
2026-01-13 01:29:44.45	231.48	25.40	-48.3	-49.5	15.6	0.00e+00	0	22	0	1828716544	63	3997
2026-01-13 01:29:48.44	231.18	24.78	-48.3	-49.5	15.7	0.00e+00	0	22	0	1841299456	63	3967
2026-01-13 01:29:52.45	230.89	24.18	-48.4	-49.6	15.6	0.00e+00	0	22	0	1853882368	63	4024
2026-01-13 01:29:56.44	230.61	23.59	-48.8	-50.1	15.3	0.00e+00	0	22	0	1866465280	63	4250
2026-01-13 01:30:00.43	230.34	23.01	-48.7	-50.0	15.4	0.00e+00	0	22	0	1879048192	63	4220
2026-01-13 01:30:04.43	230.09	22.44	-48.6	-49.9	15.4	0.00e+00	0	22	0	1891631104	63	4162
2026-01-13 01:30:08.42	229.84	21.89	-48.6	-49.8	15.4	0.00e+00	0	22	0	1904214016	63	4140
2026-01-13 01:30:12.41	229.60	21.35	-48.7	-49.9	15.4	0.00e+00	0	22	0	1916796928	63	4182
2026-01-13 01:30:16.41	229.37	20.81	-48.6	-49.8	15.4	0.00e+00	0	22	0	1929379840	63	4144
2026-01-13 01:30:20.41	229.15	20.29	-48.5	-49.7	15.5	0.00e+00	0	22	0	1941962752	63	4093
2026-01-13 01:30:24.40	228.94	19.78	-48.6	-49.8	15.4	0.00e+00	0	22	0	1953497088	63	4135
2026-01-13 01:30:28.41	228.73	19.28	-48.7	-50.0	15.3	0.00e+00	0	22	0	1966080000	63	4222
2026-01-13 01:30:32.42	228.53	18.78	-49.0	-50.3	15.2	0.00e+00	0	22	0	1978662912	63	4370
2026-01-13 01:30:36.40	228.34	18.30	-48.9	-50.2	15.3	0.00e+00	0	22	0	1991245824	63	4325
2026-01-13 01:30:40.39	228.15	17.83	-49.0	-50.3	15.2	0.00e+00	0	22	0	2003828736	63	4348
2026-01-13 01:30:44.37	227.97	17.36	-49.1	-50.4	15.2	0.00e+00	0	22	0	2016411648	63	4412
2026-01-13 01:30:48.37	227.80	16.91	-49.2	-50.5	15.1	0.00e+00	0	22	0	2028994560	63	4488
2026-01-13 01:30:52.37	227.63	16.46	-49.5	-50.9	15.0	0.00e+00	0	22	0	2041577472	64	4396
2026-01-13 01:30:56.36	227.47	16.01	-49.5	-50.9	15.0	0.00e+00	0	22	0	2054160384	64	4420
2026-01-13 01:31:00.34	227.31	15.58	-49.5	-50.9	15.0	0.00e+00	0	22	0	2066743296	64	4410
2026-01-13 01:31:04.33	227.16	15.16	-49.5	-50.9	15.0	0.00e+00	0	22	0	2078277632	64	4438
2026-01-13 01:31:08.32	227.01	14.74	-49.4	-50.7	15.1	0.00e+00	0	22	0	2090860544	64	4328
2026-01-13 01:31:12.30	226.86	14.33	-49.3	-50.7	15.1	0.00e+00	0	22	0	2103443456	64	4314
2026-01-13 01:31:16.28	226.72	13.92	-49.2	-50.6	15.1	0.00e+00	0	22	0	2116026368	64	4256
2026-01-13 01:31:20.28	226.59	13.52	-49.2	-50.6	15.1	0.00e+00	0	22	0	2128609280	64	4266
2026-01-13 01:31:24.26	226.46	13.13	-49.2	-50.6	15.2	0.00e+00	0	22	0	2141192192	64	4250
2026-01-13 01:31:28.27	226.33	12.74	-49.3	-50.7	15.1	0.00e+00	0	22	0	2153775104	64	4319
2026-01-13 01:31:32.27	226.20	12.36	-49.3	-50.6	15.1	0.00e+00	0	22	0	2166358016	64	4283
2026-01-13 01:31:36.27	226.08	11.99	-49.5	-50.9	15.0	0.00e+00	0	22	0	2178940928	64	4425
2026-01-13 01:31:40.27	225.96	11.62	-49.5	-50.9	14.9	0.00e+00	0	22	0	2191523840	64	4440
2026-01-13 01:31:44.29	225.85	11.25	-49.4	-50.9	15.0	0.00e+00	0	22	0	2204106752	64	4395
2026-01-13 01:31:48.29	225.74	10.89	-49.5	-50.9	15.0	0.00e+00	0	22	0	2215641088	64	4407
2026-01-13 01:31:52.28	225.63	10.54	-49.5	-50.9	14.9	0.00e+00	0	22	0	2228224000	64	4425
2026-01-13 01:31:56.28	225.52	10.19	-49.5	-50.9	14.9	0.00e+00	0	22	0	2240806912	64	4434
2026-01-13 01:32:00.28	225.42	9.84	-49.7	-51.2	14.8	0.00e+00	0	22	0	2253389824	64	4547
2026-01-13 01:32:04.27	225.32	9.50	-49.8	-51.2	14.7	0.00e+00	0	22	0	2265972736	64	4594
2026-01-13 01:32:08.26	225.22	9.17	-50.0	-51.5	14.7	0.00e+00	0	22	0	2278555648	65	4493
2026-01-13 01:32:12.25	225.13	8.84	-50.1	-51.6	14.6	0.00e+00	0	22	0	2291138560	65	4538
2026-01-13 01:32:16.23	225.03	8.51	-50.2	-51.7	14.6	0.00e+00	0	22	0	2303721472	65	4584
2026-01-13 01:32:20.22	224.94	8.19	-50.4	-52.1	14.5	0.00e+00	0	22	0	2316304384	66	4496
2026-01-13 01:32:24.21	224.86	7.87	-50.6	-52.2	14.4	0.00e+00	0	22	0	2328887296	66	4569
2026-01-13 01:32:28.21	224.77	7.55	-50.6	-52.2	14.4	0.00e+00	0	22	0	2340421632	66	4595
2026-01-13 01:32:32.21	224.69	7.24	-50.6	-52.3	14.3	0.00e+00	0	22	0	2353004544	66	4601
2026-01-13 01:32:36.23	224.60	6.93	-50.7	-52.4	14.2	0.00e+00	0	22	0	2365587456	66	4669
2026-01-13 01:32:40.23	224.52	6.63	-50.8	-52.5	14.1	0.00e+00	0	22	0	2378170368	66	4754
2026-01-13 01:32:44.23	224.45	6.33	-50.9	-52.7	14.2	0.00e+00	0	22	0	2390753280	67	4576
2026-01-13 01:32:48.23	224.37	6.03	-51.2	-53.0	13.9	0.00e+00	0	22	0	2403336192	67	4734
2026-01-13 01:32:52.22	224.30	5.74	-51.2	-53.0	13.9	0.00e+00	0	22	0	2415919104	67	4755
2026-01-13 01:32:56.22	224.22	5.45	-51.5	-53.3	13.9	0.00e+00	0	22	0	2428502016	68	4650
2026-01-13 01:33:00.22	224.15	5.16	-51.6	-53.6	13.9	0.00e+00	0	22	0	2441084928	69	4526
2026-01-13 01:33:04.22	224.08	4.87	-58.3	-72.1	3.8	1.49e+00	0	22	104	2448424960	81	19070
2026-01-13 01:33:08.20	224.02	4.59	-58.8	-72.6	3.8	1.49e+00	0	22	104	2448424960	82	19166
2026-01-13 01:33:12.20	223.95	4.32	-59.0	-72.9	3.8	1.49e+00	0	22	104	2448424960	83	18550
2026-01-13 01:33:16.21	223.88	4.04	-59.1	-73.0	3.8	1.49e+00	0	22	104	2448424960	83	18740
2026-01-13 01:33:20.19	223.82	3.77	-59.2	-73.0	3.8	1.49e+00	0	22	104	2448424960	83	18930
2026-01-13 01:33:24.21	223.76	3.50	-59.3	-73.1	3.8	1.49e+00	0	22	104	2448424960	83	19083
2026-01-13 01:33:28.20	223.70	3.23	-59.2	-73.1	3.8	1.49e+00	0	22	104	2448424960	83	18993
2026-01-13 01:33:32.21	223.64	2.96	-59.2	-73.0	3.8	1.49e+00	0	22	104	2448424960	83	18903
2026-01-13 01:33:36.21	223.58	2.70	-59.2	-73.0	3.8	1.49e+00	0	22	104	2448424960	83	18881
2026-01-13 01:33:40.22	223.52	2.44	-59.2	-73.0	3.8	1.49e+00	0	22	104	2448424960	83	18920
2026-01-13 01:33:44.22	223.47	2.18	-59.2	-73.0	3.8	1.49e+00	0	22	104	2448424960	83	18890

#Closed at: 2026-01-13 01:33:47
#Recorded file [2448 MB]: D:/lorett/data/31004_260113_041927.dat