passes_logs/2026/01/13/R3.2S_Murmansk/R3.2S_Murmansk__20260113_024828_FENGYUN_3D_rec.log

#Pass ID: 20260113_024828_FENGYUN 3D
#Satellite: FENGYUN 3D
#Configuration: FENGYUN 3D
#almurnet v.1.7.20251203
#Start time: 2026-01-13 02:48:29

#Version: 2.2.20231116
#Station: R3.2S_Murmansk
#Location: 33.079688 lon 68.888172 lat
#TLE: 1 43010U 17072A   26012.32543542  .00000598  00000+0  30457-3 0  9997
#TLE: 2 43010  98.9935 344.1005 0002233 112.6136 247.5276 14.19696644422876

#Time	Az	El	Level	Level2	SNR	BER	BlckErr	Temp	State	Recorded	gain1	gain2
2026-01-13 02:48:29.55	25.29	2.10	-58.7	-71.8	3.8	8.46e-01	0	20	0	0	82	17353
2026-01-13 02:48:33.54	25.30	2.35	-58.7	-71.8	3.8	8.45e-01	0	20	104	0	82	17328
2026-01-13 02:48:37.54	25.31	2.61	-58.7	-71.8	3.8	8.44e-01	0	21	104	0	82	17344
2026-01-13 02:48:41.53	25.32	2.87	-58.8	-71.8	3.8	8.46e-01	0	21	104	0	82	17355
2026-01-13 02:48:45.54	25.34	3.14	-58.7	-71.8	3.8	8.47e-01	0	21	104	0	82	17389
2026-01-13 02:48:49.55	25.35	3.41	-58.8	-71.8	3.8	8.45e-01	0	21	104	0	82	17431
2026-01-13 02:48:53.56	25.36	3.68	-58.7	-71.8	3.8	8.46e-01	0	21	104	0	82	17353
2026-01-13 02:48:57.56	25.37	3.95	-58.7	-71.8	3.8	8.45e-01	0	21	104	0	82	17368
2026-01-13 02:49:01.54	25.38	4.22	-58.8	-71.8	3.8	8.46e-01	0	21	104	0	82	17404
2026-01-13 02:49:05.54	25.40	4.50	-58.8	-71.8	3.8	8.46e-01	0	21	104	0	82	17392
2026-01-13 02:49:09.53	25.41	4.78	-58.8	-71.8	3.8	8.46e-01	0	21	104	0	82	17392
2026-01-13 02:49:13.51	25.42	5.06	-58.8	-71.8	3.8	8.46e-01	0	21	104	0	82	17396
2026-01-13 02:49:17.51	25.43	5.35	-58.8	-71.8	3.8	8.46e-01	0	21	104	0	82	17405
2026-01-13 02:49:21.49	25.44	5.64	-58.7	-71.8	3.8	8.45e-01	0	22	104	0	82	17359
2026-01-13 02:49:25.49	25.45	5.93	-58.7	-71.8	3.8	8.45e-01	0	22	104	0	82	17353
2026-01-13 02:49:29.48	25.46	6.23	-58.8	-71.8	3.8	8.45e-01	0	22	104	0	82	17437
2026-01-13 02:49:33.49	25.47	6.53	-58.8	-71.8	3.8	8.44e-01	0	22	104	0	82	17426
2026-01-13 02:49:37.47	25.48	6.83	-58.8	-71.8	3.8	8.45e-01	0	22	104	0	82	17396
2026-01-13 02:49:41.47	25.50	7.14	-58.8	-71.8	3.8	8.45e-01	0	22	104	0	82	17398
2026-01-13 02:49:45.48	25.51	7.45	-58.8	-71.8	3.8	8.46e-01	0	22	104	0	82	17355
2026-01-13 02:49:49.48	25.52	7.77	-58.8	-71.8	3.8	8.46e-01	0	22	104	0	82	17421
2026-01-13 02:49:53.50	25.53	8.09	-58.8	-71.8	3.8	8.45e-01	0	22	104	0	82	17456
2026-01-13 02:49:57.50	25.54	8.41	-58.8	-71.8	3.8	8.45e-01	0	22	104	0	82	17455
2026-01-13 02:50:01.49	25.55	8.74	-58.8	-71.8	3.8	8.45e-01	0	22	104	0	82	17433
2026-01-13 02:50:05.48	25.56	9.07	-58.8	-71.8	3.8	8.45e-01	0	22	104	0	82	17398
2026-01-13 02:50:09.47	25.56	9.40	-58.8	-71.8	3.8	8.47e-01	0	22	104	0	82	17398
2026-01-13 02:50:13.46	25.57	9.74	-58.8	-71.8	3.8	8.46e-01	0	22	104	0	82	17438
2026-01-13 02:50:17.46	25.58	10.09	-58.8	-71.8	3.8	8.46e-01	0	22	104	0	82	17418
2026-01-13 02:50:21.45	25.59	10.43	-58.8	-71.8	3.8	8.45e-01	0	22	104	0	82	17374
2026-01-13 02:50:25.46	25.60	10.79	-58.8	-71.8	3.8	8.44e-01	0	22	104	0	82	17414
2026-01-13 02:50:29.46	25.61	11.15	-58.8	-71.8	3.8	8.46e-01	0	22	104	0	82	17446
2026-01-13 02:50:33.48	25.62	11.52	-58.8	-71.8	3.8	8.46e-01	0	22	104	0	82	17427
2026-01-13 02:50:37.50	25.62	11.89	-58.7	-71.8	3.8	8.46e-01	0	22	104	0	82	17342
2026-01-13 02:50:41.48	25.63	12.27	-58.8	-71.8	3.8	8.46e-01	0	22	104	0	82	17397
2026-01-13 02:50:45.49	25.64	12.65	-58.8	-71.8	3.8	8.46e-01	0	22	104	0	82	17381
2026-01-13 02:50:49.49	25.65	13.04	-58.8	-71.8	3.8	8.46e-01	0	22	104	0	82	17403
2026-01-13 02:50:53.50	25.65	13.44	-58.8	-71.8	3.8	8.46e-01	0	22	104	0	82	17445
2026-01-13 02:50:57.51	25.66	13.84	-58.8	-71.8	3.8	8.45e-01	0	22	104	0	82	17398
2026-01-13 02:51:01.52	25.67	14.25	-58.8	-71.8	3.8	8.45e-01	0	22	104	0	82	17386
2026-01-13 02:51:05.51	25.67	14.66	-58.8	-71.8	3.8	8.46e-01	0	22	104	0	82	17397
2026-01-13 02:51:09.50	25.68	15.09	-58.8	-71.8	3.8	8.47e-01	0	22	104	0	82	17377
2026-01-13 02:51:13.49	25.68	15.52	-58.8	-71.8	3.8	8.47e-01	0	22	104	0	82	17382
2026-01-13 02:51:17.49	25.69	15.95	-58.7	-71.8	3.8	8.44e-01	0	22	104	0	82	17382
2026-01-13 02:51:21.50	25.69	16.40	-58.8	-71.8	3.8	8.46e-01	0	22	104	0	82	17455
2026-01-13 02:51:25.51	25.70	16.86	-58.7	-71.8	3.8	8.45e-01	0	22	104	0	82	17366
2026-01-13 02:51:29.52	25.70	17.32	-58.8	-71.8	3.8	8.45e-01	0	22	104	0	82	17413
2026-01-13 02:51:33.52	25.71	17.79	-58.7	-71.8	3.8	8.45e-01	0	22	104	0	82	17355
2026-01-13 02:51:37.52	25.71	18.28	-58.8	-71.8	3.8	8.46e-01	0	23	104	0	82	17373
2026-01-13 02:51:41.51	25.71	18.77	-58.7	-71.8	3.8	8.46e-01	0	22	104	0	82	17344
2026-01-13 02:51:45.49	25.71	19.27	-58.8	-71.8	3.8	8.46e-01	0	22	104	0	82	17398
2026-01-13 02:51:49.50	25.72	19.78	-58.7	-71.8	3.8	8.46e-01	0	22	104	0	82	17349
2026-01-13 02:51:53.52	25.72	20.30	-58.7	-71.8	3.8	8.46e-01	0	22	104	0	82	17371
2026-01-13 02:51:57.51	25.72	20.84	-58.7	-71.8	3.8	8.46e-01	0	22	104	0	82	17371
2026-01-13 02:52:01.53	25.72	21.38	-58.8	-71.8	3.8	8.45e-01	0	22	104	0	82	17401
2026-01-13 02:52:05.53	25.72	21.94	-58.8	-71.8	3.8	8.46e-01	0	22	104	0	82	17432
2026-01-13 02:52:09.52	25.72	22.51	-58.8	-71.8	3.8	8.46e-01	0	22	104	0	82	17478
2026-01-13 02:52:13.51	25.71	23.09	-58.8	-71.9	3.8	8.46e-01	0	22	104	0	82	17489
2026-01-13 02:52:17.51	25.71	23.69	-58.8	-71.9	3.8	8.47e-01	0	22	104	0	82	17511
2026-01-13 02:52:21.50	25.71	24.30	-58.8	-71.8	3.8	8.46e-01	0	22	104	0	82	17430
2026-01-13 02:52:25.49	25.70	24.92	-58.8	-71.8	3.8	8.45e-01	0	22	104	0	82	17415
2026-01-13 02:52:29.50	25.70	25.56	-58.8	-71.8	3.8	8.46e-01	0	23	104	0	82	17460
2026-01-13 02:52:33.49	25.69	26.22	-58.8	-71.8	3.8	8.46e-01	0	22	104	0	82	17387
2026-01-13 02:52:37.50	25.69	26.89	-58.8	-71.8	3.8	8.45e-01	0	22	104	0	82	17367
2026-01-13 02:52:41.51	25.68	27.58	-58.8	-71.8	3.8	8.45e-01	0	22	104	0	82	17413
2026-01-13 02:52:45.51	25.67	28.29	-58.8	-71.8	3.8	8.45e-01	0	23	104	0	82	17416
2026-01-13 02:52:49.52	25.66	29.02	-58.8	-71.8	3.8	8.45e-01	0	23	104	0	82	17399
2026-01-13 02:52:53.53	25.65	29.77	-58.8	-71.8	3.8	8.45e-01	0	23	104	0	82	17397
2026-01-13 02:52:57.52	25.63	30.53	-58.8	-71.8	3.8	8.45e-01	0	23	104	0	82	17356
2026-01-13 02:53:01.53	25.62	31.32	-58.8	-71.8	3.8	8.45e-01	0	22	104	0	82	17363
2026-01-13 02:53:05.53	25.60	32.13	-58.8	-71.8	3.8	8.46e-01	0	23	104	0	82	17401
2026-01-13 02:53:09.52	25.59	32.96	-58.8	-71.8	3.8	8.46e-01	0	23	104	0	82	17366
2026-01-13 02:53:13.52	25.57	33.81	-58.8	-71.8	3.8	8.46e-01	0	23	104	0	82	17383
2026-01-13 02:53:17.53	25.55	34.69	-58.8	-71.7	3.8	8.45e-01	0	23	104	0	82	17228
2026-01-13 02:53:21.52	25.52	35.60	-58.8	-71.7	3.8	8.46e-01	0	23	104	0	82	17263
2026-01-13 02:53:25.52	25.50	36.53	-58.7	-71.7	3.8	8.46e-01	0	23	104	0	82	17211
2026-01-13 02:53:29.52	25.47	37.49	-58.8	-71.8	3.8	8.46e-01	0	23	104	0	82	17359
2026-01-13 02:53:33.53	25.44	38.48	-58.8	-71.7	3.8	8.46e-01	0	23	104	0	82	17136
2026-01-13 02:53:37.52	25.40	39.49	-58.8	-71.8	3.8	8.46e-01	0	23	104	0	82	17286
2026-01-13 02:53:41.52	25.37	40.54	-58.8	-71.7	3.8	8.45e-01	0	23	104	0	82	17182
2026-01-13 02:53:45.52	25.33	41.62	-58.8	-71.7	3.8	8.44e-01	0	22	104	0	82	17220
2026-01-13 02:53:49.52	25.28	42.73	-58.7	-71.3	3.8	8.46e-01	0	23	104	0	82	16487
2026-01-13 02:53:53.52	25.23	43.88	-58.8	-71.7	3.8	8.46e-01	0	23	104	0	82	17207
2026-01-13 02:53:57.54	25.18	45.06	-58.7	-71.5	3.8	8.46e-01	0	23	104	0	82	16766
2026-01-13 02:54:01.54	25.12	46.28	-58.8	-71.7	3.8	8.46e-01	0	23	104	0	82	17275
2026-01-13 02:54:05.53	25.05	47.53	-58.8	-71.6	3.8	8.45e-01	0	23	104	0	82	17011
2026-01-13 02:54:09.51	24.98	48.82	-58.8	-71.6	3.8	8.45e-01	0	23	104	0	82	16928
2026-01-13 02:54:13.51	24.90	50.15	-58.8	-71.7	3.8	8.46e-01	0	23	104	0	82	17267
2026-01-13 02:54:17.50	24.81	51.52	-58.7	-71.7	3.8	8.45e-01	0	23	104	0	82	17242
2026-01-13 02:54:21.50	24.71	52.93	-58.8	-71.7	3.8	8.45e-01	0	22	104	0	82	17255
2026-01-13 02:54:25.50	24.60	54.39	-58.8	-71.7	3.8	8.45e-01	0	23	104	0	82	17237
2026-01-13 02:54:29.49	24.48	55.88	-58.8	-71.8	3.8	8.46e-01	0	23	104	0	82	17367
2026-01-13 02:54:33.49	24.33	57.42	-58.7	-71.7	3.8	8.46e-01	0	23	104	0	82	17236
2026-01-13 02:54:37.49	24.17	59.00	-58.6	-69.6	3.8	8.45e-01	0	23	104	0	82	13435
2026-01-13 02:54:41.49	23.99	60.62	-58.7	-71.8	3.8	8.46e-01	0	23	104	0	82	17299
2026-01-13 02:54:45.48	23.78	62.28	-58.7	-70.5	3.8	8.45e-01	0	23	104	0	82	15049
2026-01-13 02:54:49.47	23.53	63.98	-58.7	-71.5	3.8	8.45e-01	0	23	104	0	82	16786
2026-01-13 02:54:53.46	23.25	65.72	-58.7	-70.7	3.8	8.46e-01	0	23	104	0	82	15331
2026-01-13 02:54:57.48	22.91	67.52	-58.7	-71.6	3.8	8.46e-01	0	23	104	0	82	16993
2026-01-13 02:55:01.48	22.50	69.34	-58.7	-71.6	3.8	8.46e-01	0	23	104	0	82	16893
2026-01-13 02:55:05.48	22.00	71.19	-58.7	-71.5	3.8	8.46e-01	0	23	104	0	82	16703
2026-01-13 02:55:09.48	21.38	73.08	-58.8	-71.8	3.8	8.46e-01	0	23	104	0	82	17403
2026-01-13 02:55:13.48	20.59	75.00	-58.7	-71.8	3.8	8.46e-01	0	23	104	0	82	17341
2026-01-13 02:55:17.48	19.55	76.95	-58.7	-71.5	3.8	8.46e-01	0	23	104	0	82	16737
2026-01-13 02:55:21.46	18.14	78.90	-58.7	-71.5	3.8	8.45e-01	0	23	104	0	82	16809
2026-01-13 02:55:25.46	16.08	80.88	-58.7	-71.2	3.8	8.45e-01	0	23	104	0	82	16311
2026-01-13 02:55:29.45	12.87	82.85	-58.7	-71.8	3.8	8.45e-01	0	23	104	0	82	17286
2026-01-13 02:55:33.45	7.17	84.80	-58.7	-71.7	3.8	8.45e-01	0	23	104	0	82	17092
2026-01-13 02:55:37.47	354.80	86.65	-58.7	-71.6	3.8	8.45e-01	0	23	104	0	82	17073
2026-01-13 02:55:41.46	320.35	88.04	-58.7	-71.8	3.8	8.45e-01	0	23	104	0	82	17311
2026-01-13 02:55:45.46	261.78	87.77	-58.7	-71.6	3.8	8.45e-01	0	23	104	0	82	16983
2026-01-13 02:55:49.45	235.82	86.19	-58.7	-71.7	3.8	8.45e-01	0	23	104	0	82	17198
2026-01-13 02:55:53.45	225.98	84.30	-58.7	-71.7	3.8	8.45e-01	0	23	104	0	82	17103
2026-01-13 02:55:57.45	221.13	82.34	-58.7	-71.7	3.8	8.46e-01	0	23	104	0	82	17222
2026-01-13 02:56:01.45	218.29	80.36	-58.7	-71.7	3.8	8.45e-01	0	23	104	0	82	17123
2026-01-13 02:56:05.45	216.43	78.39	-58.7	-71.7	3.8	8.46e-01	0	23	104	0	82	17271
2026-01-13 02:56:09.45	215.13	76.43	-58.7	-71.7	3.8	8.46e-01	0	23	104	0	82	17248
2026-01-13 02:56:13.43	214.17	74.50	-58.7	-71.8	3.8	8.45e-01	0	23	104	0	82	17306
2026-01-13 02:56:17.41	213.43	72.59	-58.7	-71.7	3.8	8.46e-01	0	23	104	0	82	17281
2026-01-13 02:56:21.40	212.85	70.71	-58.7	-71.7	3.8	8.46e-01	0	23	104	0	82	17250
2026-01-13 02:56:25.40	212.37	68.86	-58.7	-71.7	3.8	8.45e-01	0	23	104	0	82	17258
2026-01-13 02:56:29.40	211.98	67.04	-58.7	-71.8	3.8	8.46e-01	0	23	104	0	82	17297
2026-01-13 02:56:33.39	211.66	65.27	-58.7	-71.7	3.8	8.45e-01	0	23	104	0	82	17262
2026-01-13 02:56:37.39	211.38	63.53	-58.8	-71.8	3.8	8.45e-01	0	23	104	0	82	17416
2026-01-13 02:56:41.41	211.15	61.82	-58.7	-71.8	3.8	8.45e-01	0	23	104	0	82	17302
2026-01-13 02:56:45.41	210.94	60.17	-58.7	-71.8	3.8	8.45e-01	0	23	104	0	82	17363
2026-01-13 02:56:49.41	210.76	58.55	-58.7	-71.8	3.8	8.46e-01	0	23	104	0	82	17375
2026-01-13 02:56:53.41	210.61	56.98	-58.7	-71.8	3.8	8.45e-01	0	23	104	0	82	17323
2026-01-13 02:56:57.41	210.47	55.45	-58.7	-71.8	3.8	8.47e-01	0	23	104	0	82	17379
2026-01-13 02:57:01.41	210.35	53.96	-58.7	-71.8	3.8	8.45e-01	0	23	104	0	82	17314
2026-01-13 02:57:05.41	210.24	52.51	-58.7	-71.8	3.8	8.46e-01	0	23	104	0	82	17334
2026-01-13 02:57:09.42	210.14	51.10	-58.7	-71.8	3.8	8.46e-01	0	23	104	0	82	17351
2026-01-13 02:57:13.41	210.05	49.74	-58.7	-71.8	3.8	8.46e-01	0	23	104	0	82	17394
2026-01-13 02:57:17.40	209.97	48.42	-58.7	-71.8	3.8	8.45e-01	0	23	104	0	82	17375
2026-01-13 02:57:21.41	209.90	47.13	-58.7	-71.8	3.8	8.45e-01	0	23	104	0	82	17388
2026-01-13 02:57:25.40	209.84	45.89	-58.7	-71.8	3.8	8.46e-01	0	23	104	0	82	17322
2026-01-13 02:57:29.41	209.78	44.67	-58.7	-71.8	3.8	8.45e-01	0	23	104	0	82	17363
2026-01-13 02:57:33.40	209.73	43.50	-58.7	-71.8	3.8	8.44e-01	0	23	104	0	82	17344
2026-01-13 02:57:37.39	209.68	42.36	-58.7	-71.8	3.8	8.45e-01	0	23	104	0	82	17355
2026-01-13 02:57:41.39	209.63	41.26	-58.8	-71.8	3.8	8.46e-01	0	23	104	0	82	17384
2026-01-13 02:57:45.40	209.59	40.18	-58.7	-71.8	3.8	8.45e-01	0	23	104	0	82	17353
2026-01-13 02:57:49.40	209.56	39.14	-58.7	-71.8	3.8	8.45e-01	0	23	104	0	82	17335
2026-01-13 02:57:53.40	209.52	38.13	-58.7	-71.8	3.8	8.45e-01	0	23	104	0	82	17390
2026-01-13 02:57:57.41	209.49	37.14	-58.7	-71.8	3.8	8.47e-01	0	23	104	0	82	17355
2026-01-13 02:58:01.41	209.46	36.19	-58.7	-71.8	3.8	8.46e-01	0	23	104	0	82	17354
2026-01-13 02:58:05.40	209.44	35.26	-58.7	-71.8	3.8	8.45e-01	0	23	104	0	82	17448
2026-01-13 02:58:09.41	209.41	34.36	-58.7	-71.8	3.8	8.46e-01	0	23	104	0	82	17321
2026-01-13 02:58:13.41	209.39	33.49	-58.7	-71.8	3.8	8.46e-01	0	23	104	0	82	17339
2026-01-13 02:58:17.39	209.37	32.64	-58.7	-71.8	3.8	8.45e-01	0	23	104	0	82	17384
2026-01-13 02:58:21.38	209.35	31.81	-58.7	-71.8	3.8	8.45e-01	0	23	104	0	82	17367
2026-01-13 02:58:25.38	209.34	31.01	-58.7	-71.8	3.8	8.46e-01	0	23	104	0	82	17387
2026-01-13 02:58:29.38	209.32	30.23	-58.7	-71.8	3.8	8.46e-01	0	23	104	0	82	17344
2026-01-13 02:58:33.38	209.31	29.46	-58.8	-71.8	3.8	8.44e-01	0	23	104	0	82	17410
2026-01-13 02:58:37.38	209.30	28.72	-58.8	-71.8	3.8	8.44e-01	0	23	104	0	82	17389
2026-01-13 02:58:41.38	209.28	28.00	-58.7	-71.8	3.8	8.46e-01	0	23	104	0	82	17426
2026-01-13 02:58:45.39	209.27	27.29	-58.7	-71.8	3.8	8.44e-01	0	23	104	0	82	17371
2026-01-13 02:58:49.40	209.27	26.60	-58.7	-71.8	3.8	8.44e-01	0	23	104	0	82	17313
2026-01-13 02:58:53.39	209.26	25.94	-58.7	-71.8	3.8	8.45e-01	0	23	104	0	82	17343
2026-01-13 02:58:57.39	209.25	25.28	-58.7	-71.8	3.8	8.46e-01	0	23	104	0	82	17327
2026-01-13 02:59:01.39	209.24	24.64	-58.7	-71.8	3.8	8.46e-01	0	23	104	0	82	17367
2026-01-13 02:59:05.40	209.24	24.02	-58.7	-71.8	3.8	8.46e-01	0	23	104	0	82	17347
2026-01-13 02:59:09.41	209.23	23.41	-58.7	-71.8	3.8	8.45e-01	0	23	104	0	82	17330
2026-01-13 02:59:13.39	209.23	22.82	-58.7	-71.8	3.8	8.45e-01	0	23	104	0	82	17320
2026-01-13 02:59:17.39	209.23	22.24	-58.7	-71.8	3.8	8.46e-01	0	23	104	0	82	17336
2026-01-13 02:59:21.38	209.22	21.67	-58.7	-71.8	3.8	8.45e-01	0	23	104	0	82	17312
2026-01-13 02:59:25.39	209.22	21.12	-58.7	-71.8	3.8	8.45e-01	0	23	104	0	82	17304
2026-01-13 02:59:29.38	209.22	20.57	-58.7	-71.8	3.8	8.45e-01	0	23	104	0	82	17365
2026-01-13 02:59:33.39	209.22	20.04	-58.7	-71.8	3.8	8.47e-01	0	23	104	0	82	17408
2026-01-13 02:59:37.40	209.22	19.52	-58.7	-71.8	3.8	8.46e-01	0	23	104	0	82	17327
2026-01-13 02:59:41.41	209.22	19.01	-58.7	-71.8	3.8	8.47e-01	0	23	104	0	82	17355
2026-01-13 02:59:45.41	209.22	18.51	-58.7	-71.7	3.8	8.46e-01	0	23	104	0	82	17266
2026-01-13 02:59:49.39	209.22	18.02	-58.7	-71.8	3.8	8.46e-01	0	23	104	0	82	17308
2026-01-13 02:59:53.40	209.22	17.54	-58.7	-71.8	3.8	8.46e-01	0	23	104	0	82	17301
2026-01-13 02:59:57.38	209.22	17.07	-58.7	-71.8	3.8	8.45e-01	0	23	104	0	82	17331
2026-01-13 03:00:01.39	209.23	16.61	-58.7	-71.7	3.8	8.46e-01	0	23	104	0	82	17281
2026-01-13 03:00:05.39	209.23	16.15	-58.7	-71.8	3.8	8.46e-01	0	23	104	0	82	17331
2026-01-13 03:00:09.38	209.23	15.71	-58.7	-71.7	3.8	8.45e-01	0	23	104	0	82	17254
2026-01-13 03:00:13.38	209.23	15.27	-58.7	-71.8	3.8	8.45e-01	0	23	104	0	82	17287
2026-01-13 03:00:17.38	209.24	14.84	-58.7	-71.7	3.8	8.46e-01	0	23	104	0	82	17266
2026-01-13 03:00:21.38	209.24	14.42	-58.7	-71.8	3.8	8.45e-01	0	23	104	0	82	17327
2026-01-13 03:00:25.37	209.25	14.01	-58.7	-71.7	3.8	8.45e-01	0	23	104	0	82	17271
2026-01-13 03:00:29.36	209.25	13.60	-58.7	-71.7	3.8	8.45e-01	0	23	104	0	82	17265
2026-01-13 03:00:33.34	209.25	13.20	-58.7	-71.7	3.8	8.47e-01	0	23	104	0	82	17253
2026-01-13 03:00:37.33	209.26	12.81	-58.7	-71.8	3.8	8.47e-01	0	23	104	0	82	17292
2026-01-13 03:00:41.34	209.26	12.42	-58.7	-71.8	3.8	8.46e-01	0	23	104	0	82	17311
2026-01-13 03:00:45.34	209.27	12.04	-58.7	-71.7	3.8	8.46e-01	0	23	104	0	82	17274
2026-01-13 03:00:49.33	209.27	11.66	-58.7	-71.7	3.8	8.46e-01	0	23	104	0	82	17276
2026-01-13 03:00:53.33	209.28	11.29	-58.7	-71.8	3.8	8.46e-01	0	23	104	0	82	17324
2026-01-13 03:00:57.32	209.29	10.93	-58.7	-71.8	3.8	8.46e-01	0	23	104	0	82	17294
2026-01-13 03:01:01.32	209.29	10.57	-58.7	-71.8	3.8	8.46e-01	0	23	104	0	82	17296
2026-01-13 03:01:05.32	209.30	10.21	-58.7	-71.7	3.8	8.45e-01	0	23	104	0	82	17265
2026-01-13 03:01:09.33	209.30	9.86	-58.7	-71.8	3.8	8.45e-01	0	23	104	0	82	17287
2026-01-13 03:01:13.34	209.31	9.52	-58.7	-71.7	3.8	8.46e-01	0	23	104	0	82	17260
2026-01-13 03:01:17.35	209.32	9.17	-58.7	-71.7	3.8	8.47e-01	0	23	104	0	82	17226
2026-01-13 03:01:21.34	209.33	8.84	-58.7	-71.7	3.8	8.46e-01	0	23	104	0	82	17258
2026-01-13 03:01:25.33	209.33	8.51	-58.7	-71.7	3.8	8.46e-01	0	23	104	0	82	17263
2026-01-13 03:01:29.33	209.34	8.18	-58.7	-71.7	3.8	8.44e-01	0	23	104	0	82	17250
2026-01-13 03:01:33.32	209.35	7.86	-58.7	-71.7	3.8	8.46e-01	0	23	104	0	82	17269
2026-01-13 03:01:37.32	209.35	7.54	-58.7	-71.7	3.8	8.46e-01	0	23	104	0	82	17274
2026-01-13 03:01:41.31	209.36	7.23	-58.7	-71.8	3.8	8.47e-01	0	23	104	0	82	17311
2026-01-13 03:01:45.30	209.37	6.92	-58.7	-71.7	3.8	8.46e-01	0	23	104	0	82	17243
2026-01-13 03:01:49.30	209.38	6.61	-58.7	-71.7	3.8	8.46e-01	0	23	104	0	82	17201
2026-01-13 03:01:53.29	209.39	6.31	-58.7	-71.7	3.8	8.47e-01	0	23	104	0	82	17253
2026-01-13 03:01:57.30	209.39	6.01	-58.7	-71.7	3.8	8.46e-01	0	23	104	0	82	17272
2026-01-13 03:02:01.30	209.40	5.71	-58.7	-71.7	3.8	8.44e-01	0	23	104	0	82	17249
2026-01-13 03:02:05.30	209.41	5.42	-58.7	-71.7	3.8	8.47e-01	0	23	104	0	82	17191
2026-01-13 03:02:09.31	209.42	5.13	-58.7	-71.7	3.8	8.45e-01	0	23	104	0	82	17229
2026-01-13 03:02:13.32	209.43	4.84	-58.7	-71.7	3.8	8.46e-01	0	23	104	0	82	17248
2026-01-13 03:02:17.31	209.44	4.56	-58.7	-71.7	3.8	8.45e-01	0	23	104	0	82	17195
2026-01-13 03:02:21.30	209.44	4.28	-58.7	-71.7	3.8	8.46e-01	0	23	104	0	82	17185
2026-01-13 03:02:25.30	209.45	4.00	-58.7	-71.7	3.8	8.45e-01	0	23	104	0	82	17223
2026-01-13 03:02:29.29	209.46	3.73	-58.7	-71.7	3.8	8.45e-01	0	23	104	0	82	17171
2026-01-13 03:02:33.27	209.47	3.46	-58.7	-71.7	3.8	8.45e-01	0	23	104	0	82	17138
2026-01-13 03:02:37.28	209.48	3.19	-58.7	-71.7	3.8	8.45e-01	0	23	104	0	82	17168
2026-01-13 03:02:41.27	209.49	2.92	-58.7	-71.7	3.8	8.45e-01	0	23	104	0	82	17173
2026-01-13 03:02:45.28	209.50	2.66	-58.7	-71.7	3.8	8.46e-01	0	23	104	0	82	17096
2026-01-13 03:02:49.29	209.51	2.39	-58.6	-71.7	3.8	8.46e-01	0	23	104	0	82	17102
2026-01-13 03:02:53.28	209.52	2.14	-58.7	-71.7	3.8	8.46e-01	0	23	104	0	82	17197

#Closed at: 2026-01-13 03:02:55
#Recorded file [0 MB]: D:/lorett/data/31004_260113_054829.dat