passes_logs/2026/01/13/R3.2S_Murmansk/R3.2S_Murmansk__20260113_192452_KANOPUS-V_5_rec.log

#Pass ID: 20260113_192452_KANOPUS-V 5
#Satellite: KANOPUS-V 5
#Configuration: KANOPUS-V_8320
#almurnet v.1.7.20251203
#Start time: 2026-01-13 19:24:52

#Version: 2.2.20231116
#Station: R3.2S_Murmansk
#Location: 33.079688 lon 68.888172 lat
#TLE: 1 43876U 18111A   26013.20013897  .00002624  00000+0  11314-3 0  9998
#TLE: 2 43876  97.3684 281.7470 0001778  87.3461 272.7979 15.23429299391190

#Time	Az	El	Level	Level2	SNR	BER	BlckErr	Temp	State	Recorded	gain1	gain2
2026-01-13 19:24:52.96	28.66	2.03	-58.9	-68.7	3.8	7.47e-01	0	25	0	0	82	10836
2026-01-13 19:24:54.97	28.94	2.12	-59.0	-68.7	3.8	7.44e-01	0	25	104	0	82	10845
2026-01-13 19:24:56.99	29.24	2.21	-59.0	-68.7	3.8	7.46e-01	0	25	104	0	82	10859
2026-01-13 19:24:59.01	29.53	2.30	-59.0	-68.7	3.8	7.46e-01	0	25	104	0	82	10857
2026-01-13 19:25:01.02	29.83	2.39	-59.0	-68.7	3.8	7.46e-01	0	25	104	0	82	10845
2026-01-13 19:25:03.05	30.13	2.48	-59.0	-68.7	3.8	7.47e-01	0	25	104	0	82	10849
2026-01-13 19:25:05.07	30.43	2.56	-59.0	-68.7	3.8	7.45e-01	0	25	104	0	82	10819
2026-01-13 19:25:07.08	30.73	2.65	-59.0	-68.7	3.8	7.45e-01	0	25	104	0	82	10894
2026-01-13 19:25:09.10	31.04	2.74	-59.0	-68.7	3.8	7.46e-01	0	25	104	0	82	10853
2026-01-13 19:25:11.12	31.35	2.83	-59.0	-68.7	3.8	7.44e-01	0	25	104	0	82	10883
2026-01-13 19:25:13.14	31.66	2.92	-59.0	-68.7	3.8	7.45e-01	0	25	104	0	82	10884
2026-01-13 19:25:15.16	31.97	3.00	-59.0	-68.7	3.8	7.46e-01	0	25	104	0	82	10893
2026-01-13 19:25:17.17	32.28	3.09	-59.0	-68.7	3.8	7.44e-01	0	26	104	0	82	10900
2026-01-13 19:25:19.19	32.60	3.18	-59.0	-68.8	3.8	7.46e-01	0	26	104	0	82	10925
2026-01-13 19:25:21.20	32.92	3.26	-59.0	-68.7	3.8	7.46e-01	0	26	104	0	82	10889
2026-01-13 19:25:23.22	33.24	3.35	-59.0	-68.8	3.8	7.44e-01	0	26	104	0	82	10966
2026-01-13 19:25:25.24	33.57	3.44	-59.0	-68.7	3.8	7.45e-01	0	26	104	0	82	10895
2026-01-13 19:25:27.26	33.89	3.52	-59.0	-68.7	3.8	7.45e-01	0	26	104	0	82	10864
2026-01-13 19:25:29.28	34.22	3.61	-59.0	-68.8	3.8	7.45e-01	0	26	104	0	82	10953
2026-01-13 19:25:31.29	34.55	3.69	-59.0	-68.8	3.8	7.47e-01	0	26	104	0	82	10927
2026-01-13 19:25:33.31	34.89	3.78	-59.0	-68.8	3.8	7.45e-01	0	26	104	0	82	10949
2026-01-13 19:25:35.33	35.22	3.86	-59.0	-68.8	3.8	7.46e-01	0	26	104	0	82	10943
2026-01-13 19:25:37.35	35.56	3.95	-59.0	-68.8	3.8	7.46e-01	0	26	104	0	82	10933
2026-01-13 19:25:39.36	35.90	4.03	-59.0	-68.8	3.8	7.45e-01	0	26	104	0	82	10918
2026-01-13 19:25:41.38	36.25	4.11	-59.0	-68.8	3.8	7.46e-01	0	26	104	0	82	10943
2026-01-13 19:25:43.40	36.59	4.20	-59.0	-68.8	3.8	7.45e-01	0	26	104	0	82	10943
2026-01-13 19:25:45.42	36.94	4.28	-59.0	-68.8	3.8	7.47e-01	0	26	104	0	82	10946
2026-01-13 19:25:47.44	37.29	4.36	-59.0	-68.8	3.8	7.46e-01	0	26	104	0	82	10924
2026-01-13 19:25:49.46	37.65	4.44	-59.0	-68.8	3.8	7.44e-01	0	26	104	0	82	10916
2026-01-13 19:25:51.47	38.00	4.53	-59.0	-68.8	3.8	7.45e-01	0	26	104	0	82	10955
2026-01-13 19:25:53.49	38.36	4.61	-59.0	-68.8	3.8	7.45e-01	0	26	104	0	82	10956
2026-01-13 19:25:55.51	38.72	4.69	-59.0	-68.8	3.8	7.45e-01	0	26	104	0	82	10957
2026-01-13 19:25:57.53	39.08	4.77	-59.1	-68.8	3.8	7.46e-01	0	26	104	0	82	10981
2026-01-13 19:25:59.55	39.45	4.85	-59.1	-68.8	3.8	7.45e-01	0	26	104	0	82	10938
2026-01-13 19:26:01.55	39.81	4.93	-59.1	-68.8	3.8	7.44e-01	0	26	104	0	82	10956
2026-01-13 19:26:03.57	40.19	5.00	-59.1	-68.8	3.8	7.45e-01	0	26	104	0	82	10942
2026-01-13 19:26:05.59	40.56	5.08	-59.2	-68.9	3.8	7.46e-01	0	26	104	0	82	11085
2026-01-13 19:26:07.58	40.93	5.16	-59.0	-68.7	3.8	7.45e-01	0	26	104	0	82	10829
2026-01-13 19:26:09.59	41.31	5.24	-59.2	-69.0	3.8	7.46e-01	0	26	104	0	82	11177
2026-01-13 19:26:11.58	41.68	5.31	-59.0	-68.8	3.8	7.47e-01	0	26	104	0	82	10958
2026-01-13 19:26:13.58	42.06	5.39	-59.2	-69.0	3.8	7.46e-01	0	27	104	0	82	11199
2026-01-13 19:26:15.59	42.44	5.46	-59.1	-68.8	3.8	7.46e-01	0	27	104	0	82	11013
2026-01-13 19:26:17.59	42.83	5.54	-59.3	-69.0	3.8	7.45e-01	0	27	104	0	82	11226
2026-01-13 19:26:19.59	43.22	5.61	-59.1	-68.8	3.8	7.46e-01	0	27	104	0	82	11019
2026-01-13 19:26:21.60	43.61	5.68	-59.3	-69.0	3.8	7.44e-01	0	27	104	0	82	11278
2026-01-13 19:26:23.61	44.00	5.76	-59.1	-68.9	3.8	7.46e-01	0	27	104	0	82	11032
2026-01-13 19:26:25.60	44.39	5.83	-59.3	-69.0	3.8	7.47e-01	0	26	104	0	82	11275
2026-01-13 19:26:27.61	44.79	5.90	-59.2	-68.9	3.8	7.45e-01	0	27	104	0	82	11057
2026-01-13 19:26:29.62	45.19	5.97	-59.3	-69.0	3.8	7.46e-01	0	27	104	0	82	11275
2026-01-13 19:26:31.64	45.60	6.04	-59.2	-68.9	3.8	7.45e-01	0	27	104	0	82	11135
2026-01-13 19:26:33.66	46.00	6.11	-59.4	-69.1	3.8	7.46e-01	0	27	104	0	82	11337
2026-01-13 19:26:35.68	46.41	6.17	-59.2	-69.0	3.8	7.46e-01	0	27	104	0	82	11161
2026-01-13 19:26:37.69	46.83	6.24	-59.4	-69.1	3.8	7.45e-01	0	26	104	0	82	11308
2026-01-13 19:26:39.70	47.24	6.31	-59.3	-69.0	3.8	7.45e-01	0	27	104	0	82	11199
2026-01-13 19:26:41.72	47.66	6.37	-59.4	-69.1	3.8	7.45e-01	0	27	104	0	82	11401
2026-01-13 19:26:43.73	48.07	6.44	-59.3	-69.0	3.8	7.45e-01	0	27	104	0	82	11272
2026-01-13 19:26:45.75	48.49	6.50	-59.4	-69.1	3.8	7.45e-01	0	27	104	0	82	11399
2026-01-13 19:26:47.77	48.92	6.57	-59.3	-69.0	3.8	7.45e-01	0	27	104	0	82	11258
2026-01-13 19:26:49.79	49.34	6.63	-59.4	-69.1	3.8	7.46e-01	0	27	104	0	82	11385
2026-01-13 19:26:51.80	49.77	6.69	-59.3	-69.0	3.8	7.46e-01	0	27	104	0	82	11284
2026-01-13 19:26:53.81	50.20	6.75	-59.4	-69.2	3.8	7.45e-01	0	27	104	0	82	11454
2026-01-13 19:26:55.82	50.63	6.81	-59.3	-69.1	3.8	7.45e-01	0	27	104	0	82	11369
2026-01-13 19:26:57.84	51.07	6.87	-59.4	-69.2	3.8	7.47e-01	0	27	104	0	82	11443
2026-01-13 19:26:59.85	51.50	6.92	-59.4	-69.1	3.8	7.45e-01	0	27	104	0	82	11336
2026-01-13 19:27:01.86	51.94	6.98	-59.4	-69.2	3.8	7.46e-01	0	27	104	0	82	11458
2026-01-13 19:27:03.87	52.38	7.03	-59.4	-69.1	3.8	7.45e-01	0	27	104	0	82	11397
2026-01-13 19:27:05.88	52.82	7.09	-59.5	-69.2	3.8	7.46e-01	0	27	104	0	82	11471
2026-01-13 19:27:07.89	53.26	7.14	-59.4	-69.1	3.8	7.45e-01	0	27	104	0	82	11373
2026-01-13 19:27:09.91	53.71	7.19	-59.5	-69.2	3.8	7.45e-01	0	27	104	0	82	11506
2026-01-13 19:27:11.91	54.15	7.24	-59.3	-69.1	3.8	7.45e-01	0	27	104	0	82	11288
2026-01-13 19:27:13.92	54.60	7.29	-59.5	-69.2	3.8	7.45e-01	0	27	104	0	82	11498
2026-01-13 19:27:15.94	55.06	7.34	-59.4	-69.2	3.8	7.46e-01	0	27	104	0	82	11421
2026-01-13 19:27:17.96	55.51	7.39	-59.5	-69.2	3.8	7.46e-01	0	27	104	0	82	11518
2026-01-13 19:27:19.98	55.97	7.44	-59.4	-69.1	3.8	7.46e-01	0	27	104	0	82	11412
2026-01-13 19:27:21.99	56.43	7.48	-59.5	-69.2	3.8	7.46e-01	0	27	104	0	82	11509
2026-01-13 19:27:24.01	56.89	7.52	-59.4	-69.2	3.8	7.45e-01	0	27	104	0	82	11457
2026-01-13 19:27:26.03	57.35	7.57	-59.5	-69.2	3.8	7.46e-01	0	27	104	0	82	11543
2026-01-13 19:27:28.05	57.81	7.61	-59.4	-69.2	3.8	7.46e-01	0	27	104	0	82	11443
2026-01-13 19:27:30.06	58.27	7.65	-59.5	-69.2	3.8	7.47e-01	0	27	104	0	82	11529
2026-01-13 19:27:32.08	58.74	7.69	-59.4	-69.2	3.8	7.47e-01	0	27	104	0	82	11468
2026-01-13 19:27:34.10	59.21	7.72	-59.5	-69.3	3.8	7.46e-01	0	27	104	0	82	11564
2026-01-13 19:27:36.11	59.68	7.76	-59.5	-69.2	3.8	7.44e-01	0	27	104	0	82	11514
2026-01-13 19:27:38.13	60.15	7.79	-59.5	-69.2	3.8	7.45e-01	0	27	104	0	82	11535
2026-01-13 19:27:40.15	60.62	7.83	-59.5	-69.2	3.8	7.44e-01	0	27	104	0	82	11486
2026-01-13 19:27:42.16	61.09	7.86	-59.6	-69.3	3.8	7.45e-01	0	27	104	0	82	11594
2026-01-13 19:27:44.18	61.57	7.89	-59.5	-69.2	3.8	7.44e-01	0	27	104	0	82	11492
2026-01-13 19:27:46.19	62.04	7.92	-59.5	-69.3	3.8	7.45e-01	0	27	104	0	82	11605
2026-01-13 19:27:48.20	62.52	7.95	-59.5	-69.2	3.8	7.46e-01	0	27	104	0	82	11524
2026-01-13 19:27:50.22	63.00	7.97	-59.6	-69.3	3.8	7.45e-01	0	27	104	0	82	11602
2026-01-13 19:27:52.24	63.48	8.00	-59.5	-69.3	3.8	7.47e-01	0	27	104	0	82	11573
2026-01-13 19:27:54.25	63.96	8.02	-59.6	-69.3	3.8	7.45e-01	0	27	104	0	82	11601
2026-01-13 19:27:56.27	64.44	8.04	-59.5	-69.3	3.8	7.46e-01	0	27	104	0	82	11591
2026-01-13 19:27:58.29	64.92	8.06	-58.2	-69.3	3.8	7.45e-01	0	27	104	0	79	13859
2026-01-13 19:28:00.30	65.40	8.08	-58.5	-65.6	3.9	7.42e-01	0	27	104	2097152	81	8000
2026-01-13 19:28:02.31	65.88	8.10	-54.3	-57.8	9.2	6.27e-01	0	27	0	27262976	73	5184
2026-01-13 19:28:04.33	66.37	8.12	-54.1	-57.6	9.3	6.26e-01	0	27	0	54525952	72	5387
2026-01-13 19:28:06.34	66.85	8.13	-53.8	-57.2	9.6	6.23e-01	0	27	0	85983232	72	5157
2026-01-13 19:28:08.35	67.33	8.14	-52.8	-55.9	10.5	6.17e-01	0	27	0	117440512	70	4965
2026-01-13 19:28:10.37	67.82	8.15	-52.0	-55.0	11.1	6.14e-01	0	27	0	148897792	68	5001
2026-01-13 19:28:12.40	68.31	8.16	-51.6	-54.6	11.4	6.13e-01	0	27	0	178257920	67	5078
2026-01-13 19:28:14.41	68.80	8.17	-51.4	-54.4	11.6	6.13e-01	0	27	0	209715200	67	4943
2026-01-13 19:28:16.43	69.28	8.18	-51.2	-54.1	11.7	6.12e-01	0	27	0	241172480	67	4800
2026-01-13 19:28:18.44	69.77	8.19	-51.1	-54.0	11.7	6.13e-01	0	27	0	272629760	66	5015
2026-01-13 19:28:20.46	70.26	8.19	-51.2	-54.4	11.6	5.77e-01	0	27	0	301989888	66	5228
2026-01-13 19:28:22.47	70.74	8.19	-51.3	-54.5	11.5	5.77e-01	0	27	0	333447168	66	5298
2026-01-13 19:28:24.49	71.23	8.19	-51.2	-54.3	11.6	5.76e-01	0	27	0	364904448	66	5202
2026-01-13 19:28:26.51	71.72	8.19	-51.2	-54.3	11.6	5.78e-01	0	27	0	396361728	66	5201
2026-01-13 19:28:28.53	72.21	8.19	-51.1	-54.2	11.7	5.77e-01	0	27	0	427819008	66	5106
2026-01-13 19:28:30.55	72.70	8.19	-51.2	-54.3	11.6	5.77e-01	0	27	0	457179136	66	5178
2026-01-13 19:28:32.56	73.18	8.18	-51.1	-54.2	11.7	5.77e-01	0	27	0	488636416	66	5108
2026-01-13 19:28:34.58	73.67	8.17	-51.1	-54.3	11.6	5.78e-01	0	27	0	520093696	66	5198
2026-01-13 19:28:36.59	74.16	8.17	-51.3	-54.5	11.5	5.77e-01	0	27	0	551550976	66	5316
2026-01-13 19:28:38.61	74.65	8.16	-51.3	-54.5	11.5	5.78e-01	0	27	0	580911104	66	5306
2026-01-13 19:28:40.63	75.13	8.14	-51.3	-54.5	11.5	5.78e-01	0	27	0	612368384	66	5285
2026-01-13 19:28:42.64	75.62	8.13	-51.4	-54.6	11.5	5.77e-01	0	27	0	643825664	66	5347
2026-01-13 19:28:44.66	76.10	8.12	-51.2	-54.3	11.6	5.78e-01	0	27	0	675282944	66	5217
2026-01-13 19:28:46.68	76.59	8.10	-51.3	-54.5	11.5	5.76e-01	0	27	0	706740224	66	5305
2026-01-13 19:28:48.70	77.07	8.08	-51.3	-54.5	11.4	6.05e-01	0	27	0	736100352	66	5335
2026-01-13 19:28:50.71	77.56	8.07	-51.6	-54.8	11.2	6.06e-01	0	27	0	767557632	66	5513
2026-01-13 19:28:52.73	78.04	8.05	-51.5	-54.7	11.3	6.06e-01	0	27	0	799014912	66	5421
2026-01-13 19:28:54.75	78.52	8.02	-51.6	-54.7	11.3	6.06e-01	0	27	0	830472192	66	5450
2026-01-13 19:28:56.77	79.00	8.00	-51.6	-54.8	11.2	6.04e-01	0	27	0	861929472	66	5499
2026-01-13 19:28:58.79	79.48	7.98	-51.5	-54.7	11.3	6.02e-01	0	27	0	891289600	66	5455
2026-01-13 19:29:00.80	79.96	7.95	-51.5	-54.7	11.3	6.05e-01	0	27	0	922746880	66	5406
2026-01-13 19:29:02.82	80.44	7.92	-51.4	-54.6	11.4	6.04e-01	0	27	0	954204160	66	5353
2026-01-13 19:29:04.84	80.92	7.89	-51.5	-54.7	11.3	6.04e-01	0	27	0	985661440	66	5417
2026-01-13 19:29:06.86	81.39	7.86	-51.5	-54.6	11.4	6.05e-01	0	27	0	1015021568	66	5344
2026-01-13 19:29:08.88	81.87	7.83	-51.6	-54.8	11.3	6.04e-01	0	27	0	1046478848	66	5466
2026-01-13 19:29:10.89	82.34	7.80	-51.6	-54.9	11.2	6.04e-01	0	27	0	1077936128	66	5531
2026-01-13 19:29:12.91	82.81	7.76	-51.6	-54.9	11.2	6.06e-01	0	27	0	1107296256	66	5559
2026-01-13 19:29:14.93	83.28	7.73	-51.5	-54.7	11.3	6.06e-01	0	27	0	1140850688	66	5437
2026-01-13 19:29:16.95	83.75	7.69	-51.6	-54.7	11.3	6.06e-01	0	27	0	1170210816	66	5414
2026-01-13 19:29:18.97	84.22	7.65	-51.5	-54.5	11.4	6.05e-01	0	27	0	1201668096	66	5340
2026-01-13 19:29:20.99	84.69	7.61	-51.6	-54.7	11.3	6.08e-01	0	27	0	1233125376	66	5435
2026-01-13 19:29:23.00	85.15	7.57	-51.6	-54.8	11.2	6.08e-01	0	27	0	1262485504	66	5482
2026-01-13 19:29:25.01	85.61	7.53	-51.7	-54.9	11.2	6.05e-01	0	27	0	1293942784	66	5532
2026-01-13 19:29:27.03	86.08	7.48	-51.7	-54.8	11.2	6.08e-01	0	27	0	1325400064	66	5513
2026-01-13 19:29:29.05	86.54	7.44	-51.7	-54.7	11.2	6.07e-01	0	27	0	1356857344	66	5459
2026-01-13 19:29:31.06	86.99	7.39	-51.6	-54.6	11.3	6.08e-01	0	27	0	1388314624	66	5386
2026-01-13 19:29:33.08	87.45	7.35	-51.7	-54.8	11.2	6.07e-01	0	27	0	1417674752	66	5475
2026-01-13 19:29:35.10	87.90	7.30	-51.7	-54.8	11.1	6.08e-01	0	27	0	1449132032	66	5510
2026-01-13 19:29:37.12	88.36	7.25	-51.8	-55.0	11.0	6.08e-01	0	27	0	1480589312	66	5632
2026-01-13 19:29:39.13	88.81	7.20	-52.0	-55.3	10.9	6.07e-01	0	27	0	1512046592	67	5479
2026-01-13 19:29:41.15	89.26	7.14	-52.0	-55.3	10.9	6.08e-01	0	27	0	1541406720	67	5488
2026-01-13 19:29:43.17	89.70	7.09	-52.0	-55.2	10.9	6.07e-01	0	27	0	1572864000	67	5464
2026-01-13 19:29:45.19	90.15	7.04	-51.8	-55.1	11.0	6.08e-01	0	27	0	1604321280	67	5375
2026-01-13 19:29:47.20	90.59	6.98	-52.0	-55.3	10.9	6.09e-01	0	27	0	1635778560	67	5488
2026-01-13 19:29:49.22	91.03	6.92	-51.9	-55.2	10.9	6.07e-01	0	27	0	1667235840	67	5446
2026-01-13 19:29:51.24	91.47	6.87	-51.8	-55.0	11.1	6.10e-01	0	27	0	1696595968	67	5319
2026-01-13 19:29:53.26	91.91	6.81	-51.8	-55.1	11.0	6.09e-01	0	27	0	1728053248	67	5356
2026-01-13 19:29:55.28	92.34	6.75	-51.8	-55.1	11.0	6.06e-01	0	27	0	1759510528	67	5380
2026-01-13 19:29:57.29	92.77	6.69	-51.8	-55.1	11.0	6.09e-01	0	27	0	1790967808	67	5363
2026-01-13 19:29:59.31	93.20	6.63	-51.8	-55.1	11.0	6.08e-01	0	27	0	1822425088	67	5363
2026-01-13 19:30:01.33	93.63	6.56	-51.8	-55.0	11.1	6.07e-01	0	27	0	1851785216	67	5313
2026-01-13 19:30:03.34	94.05	6.50	-51.8	-55.0	11.1	6.08e-01	0	27	0	1883242496	67	5300
2026-01-13 19:30:05.36	94.48	6.44	-51.7	-54.9	11.1	6.07e-01	0	27	0	1914699776	67	5227
2026-01-13 19:30:07.38	94.90	6.37	-51.7	-54.9	11.1	6.07e-01	0	27	0	1946157056	67	5238
2026-01-13 19:30:09.40	95.32	6.31	-51.7	-54.9	11.1	6.07e-01	0	27	0	1975517184	67	5257
2026-01-13 19:30:11.42	95.74	6.24	-51.9	-55.1	10.9	6.04e-01	0	27	0	2006974464	67	5364
2026-01-13 19:30:13.43	96.15	6.17	-52.1	-55.3	10.8	6.05e-01	0	27	0	2038431744	67	5473
2026-01-13 19:30:15.45	96.56	6.10	-52.1	-55.3	10.7	6.04e-01	0	27	0	2069889024	67	5501
2026-01-13 19:30:17.47	96.97	6.03	-52.1	-55.4	10.7	6.07e-01	0	27	0	2101346304	67	5565
2026-01-13 19:30:19.49	97.38	5.96	-52.2	-55.6	10.6	6.09e-01	0	27	0	2130706432	67	5663
2026-01-13 19:30:21.50	97.78	5.89	-52.2	-55.5	10.6	6.10e-01	0	27	0	2162163712	67	5637
2026-01-13 19:30:23.52	98.18	5.82	-52.3	-55.5	10.6	6.07e-01	0	27	0	2193620992	67	5642
2026-01-13 19:30:25.53	98.58	5.75	-52.4	-55.6	10.5	6.12e-01	0	27	0	2225078272	68	5378
2026-01-13 19:30:27.55	98.98	5.67	-52.4	-55.6	10.5	6.09e-01	0	27	0	2254438400	68	5372
2026-01-13 19:30:29.57	99.37	5.60	-52.6	-55.9	10.3	6.11e-01	0	27	0	2285895680	68	5553
2026-01-13 19:30:31.59	99.77	5.53	-52.5	-55.8	10.3	6.10e-01	0	27	0	2317352960	68	5516
2026-01-13 19:30:33.60	100.15	5.45	-52.5	-56.0	10.2	6.12e-01	0	27	0	2348810240	68	5600
2026-01-13 19:30:35.62	100.54	5.37	-52.5	-56.0	10.2	6.08e-01	0	27	0	2380267520	68	5656
2026-01-13 19:30:37.64	100.93	5.30	-52.5	-55.9	10.2	6.13e-01	0	27	0	2409627648	68	5588
2026-01-13 19:30:39.65	101.31	5.22	-52.6	-56.0	10.1	6.12e-01	0	27	0	2441084928	68	5641
2026-01-13 19:30:41.67	101.69	5.14	-52.3	-55.5	10.5	6.12e-01	0	27	0	2472542208	68	5320
2026-01-13 19:30:43.69	102.07	5.07	-52.5	-55.6	10.4	6.10e-01	0	27	0	2503999488	68	5393
2026-01-13 19:30:45.71	102.44	4.99	-57.6	-63.2	5.1	6.94e-01	0	27	0	2533359616	78	7267
2026-01-13 19:30:47.73	102.81	4.91	-60.0	-69.7	3.8	7.45e-01	0	27	104	2535456768	83	11451
2026-01-13 19:30:49.74	103.18	4.83	-60.3	-70.1	3.8	7.44e-01	0	27	104	2535456768	83	11959
2026-01-13 19:30:51.76	103.55	4.75	-60.7	-70.4	3.8	7.47e-01	0	27	104	2535456768	84	11774
2026-01-13 19:30:53.76	103.91	4.67	-60.9	-70.6	3.8	7.45e-01	0	27	104	2535456768	84	12069
2026-01-13 19:30:55.78	104.27	4.59	-61.0	-70.7	3.8	7.45e-01	0	27	104	2535456768	85	11505
2026-01-13 19:30:57.80	104.63	4.50	-61.0	-70.8	3.8	7.45e-01	0	27	104	2535456768	85	11552
2026-01-13 19:30:59.81	104.99	4.42	-61.1	-70.8	3.8	7.45e-01	0	27	104	2535456768	85	11654
2026-01-13 19:31:01.83	105.35	4.34	-61.2	-70.9	3.8	7.45e-01	0	27	104	2535456768	85	11775
2026-01-13 19:31:03.85	105.70	4.26	-61.2	-70.9	3.8	7.44e-01	0	27	104	2535456768	85	11803
2026-01-13 19:31:05.87	106.05	4.17	-61.2	-71.0	3.8	7.44e-01	0	27	104	2535456768	85	11831
2026-01-13 19:31:07.89	106.40	4.09	-61.2	-71.0	3.8	7.45e-01	0	27	104	2535456768	85	11840
2026-01-13 19:31:09.91	106.74	4.00	-61.3	-71.0	3.8	7.45e-01	0	27	104	2535456768	85	11884
2026-01-13 19:31:11.92	107.08	3.92	-61.3	-71.0	3.8	7.45e-01	0	27	104	2535456768	85	11940
2026-01-13 19:31:13.95	107.43	3.83	-61.3	-71.1	3.8	7.44e-01	0	27	104	2535456768	85	11988
2026-01-13 19:31:15.97	107.76	3.75	-61.3	-71.0	3.8	7.46e-01	0	27	104	2535456768	85	11886
2026-01-13 19:31:17.99	108.10	3.66	-61.2	-71.0	3.8	7.45e-01	0	27	104	2535456768	85	11838
2026-01-13 19:31:20.01	108.43	3.58	-61.2	-71.0	3.8	7.44e-01	0	27	104	2535456768	85	11884
2026-01-13 19:31:22.02	108.76	3.49	-61.2	-71.0	3.8	7.48e-01	0	27	104	2535456768	85	11854
2026-01-13 19:31:24.04	109.09	3.40	-61.2	-71.0	3.8	7.46e-01	0	27	104	2535456768	85	11827
2026-01-13 19:31:26.05	109.41	3.32	-61.2	-70.9	3.8	7.46e-01	0	27	104	2535456768	85	11739
2026-01-13 19:31:28.07	109.74	3.23	-61.2	-70.9	3.8	7.46e-01	0	27	104	2535456768	85	11781
2026-01-13 19:31:30.09	110.06	3.14	-61.2	-70.9	3.8	7.47e-01	0	27	104	2535456768	85	11805
2026-01-13 19:31:32.11	110.38	3.06	-61.2	-70.9	3.8	7.46e-01	0	27	104	2535456768	85	11781
2026-01-13 19:31:34.12	110.69	2.97	-61.1	-70.9	3.8	7.46e-01	0	27	104	2535456768	85	11744
2026-01-13 19:31:36.14	111.01	2.88	-61.1	-70.9	3.8	7.44e-01	0	27	104	2535456768	85	11730
2026-01-13 19:31:38.16	111.32	2.79	-61.1	-70.9	3.8	7.44e-01	0	27	104	2535456768	85	11724
2026-01-13 19:31:40.17	111.63	2.70	-61.1	-70.9	3.8	7.44e-01	0	27	104	2535456768	85	11740
2026-01-13 19:31:42.19	111.94	2.62	-61.1	-70.9	3.8	7.45e-01	0	27	104	2535456768	85	11751
2026-01-13 19:31:44.20	112.24	2.53	-61.1	-70.9	3.8	7.46e-01	0	27	104	2535456768	85	11745
2026-01-13 19:31:46.22	112.54	2.44	-61.1	-70.9	3.8	7.45e-01	0	27	104	2535456768	85	11692
2026-01-13 19:31:48.24	112.84	2.35	-61.1	-70.9	3.8	7.44e-01	0	28	104	2535456768	85	11741
2026-01-13 19:31:50.26	113.14	2.26	-61.1	-70.8	3.8	7.46e-01	0	27	104	2535456768	85	11681
2026-01-13 19:31:52.27	113.43	2.17	-61.1	-70.9	3.8	7.45e-01	0	27	104	2535456768	85	11702
2026-01-13 19:31:54.29	113.73	2.08	-61.1	-70.8	3.8	7.44e-01	0	27	104	2535456768	85	11680
2026-01-13 19:31:56.30	114.02	1.99	-61.1	-70.9	3.8	7.44e-01	0	27	104	2535456768	85	11721

#Closed at: 2026-01-13 19:31:57
#Recorded file [2535 MB]: D:/lorett/data/31004_260113_222452.dat