passes_logs/2026/01/13/R3.2S_Murmansk/R3.2S_Murmansk__20260113_020943_NOAA_20_JPSS-1_rec.log

#Pass ID: 20260113_020943_NOAA 20 (JPSS-1)
#Satellite: NOAA 20 (JPSS-1)
#Configuration: NOAA 20
#almurnet v.1.7.20251203
#Start time: 2026-01-13 02:09:44

#Version: 2.2.20231116
#Station: R3.2S_Murmansk
#Location: 33.079688 lon 68.888172 lat
#TLE: 1 43013U 17073A   26012.29914746  .00000087  00000+0  62270-4 0  9997
#TLE: 2 43013  98.7632 313.2670 0001616  43.2193 316.9110 14.19535514422351

#Time	Az	El	Level	Level2	SNR	BER	BlckErr	Temp	State	Recorded	gain1	gain2
2026-01-13 02:09:44.52	31.67	2.09	-56.8	-72.8	3.8	1.49e+00	0	21	0	0	80	21756
2026-01-13 02:09:48.52	31.54	2.34	-56.7	-72.7	3.8	1.49e+00	0	21	104	0	78	24258
2026-01-13 02:09:52.53	31.41	2.59	-56.7	-72.7	3.8	1.49e+00	0	21	104	0	78	24235
2026-01-13 02:09:56.54	31.28	2.85	-56.7	-72.6	3.8	1.49e+00	0	21	104	0	78	24126
2026-01-13 02:10:00.54	31.15	3.11	-56.7	-72.7	3.8	1.49e+00	0	21	104	0	78	24298
2026-01-13 02:10:04.53	31.01	3.36	-56.7	-71.8	3.8	1.49e+00	0	21	104	0	78	21777
2026-01-13 02:10:08.52	30.87	3.62	-56.7	-71.1	3.8	1.49e+00	0	21	104	0	78	20286
2026-01-13 02:10:12.51	30.72	3.89	-56.7	-70.7	3.8	1.49e+00	0	21	104	0	78	19203
2026-01-13 02:10:16.52	30.58	4.15	-56.4	-66.8	5.1	8.67e-01	0	21	0	2097152	78	12323
2026-01-13 02:10:20.51	30.43	4.42	-56.1	-64.2	6.9	1.69e-01	0	22	0	9437184	78	9143
2026-01-13 02:10:24.52	30.28	4.69	-55.9	-63.0	8.0	4.92e-02	0	22	0	17825792	78	7987
2026-01-13 02:10:28.52	30.12	4.97	-56.1	-64.3	6.9	1.15e-01	0	22	0	25165824	78	9188
2026-01-13 02:10:32.53	29.96	5.24	-56.4	-65.2	6.5	2.98e-02	0	22	0	32505856	78	10240
2026-01-13 02:10:36.53	29.80	5.52	-54.1	-57.4	13.0	6.80e-06	0	22	0	37748736	74	5268
2026-01-13 02:10:40.52	29.63	5.80	-53.3	-56.1	13.7	0.00e+00	0	22	0	45088768	72	5083
2026-01-13 02:10:44.51	29.46	6.08	-53.0	-55.6	14.1	0.00e+00	0	22	0	52428800	72	4808
2026-01-13 02:10:48.50	29.29	6.37	-52.8	-55.3	14.3	0.00e+00	0	22	0	59768832	72	4625
2026-01-13 02:10:52.50	29.11	6.66	-53.1	-55.7	14.1	0.00e+00	0	22	0	67108864	72	4855
2026-01-13 02:10:56.50	28.93	6.95	-53.0	-55.5	14.2	0.00e+00	0	22	0	75497472	72	4742
2026-01-13 02:11:00.49	28.75	7.25	-53.0	-55.5	14.2	0.00e+00	0	22	0	82837504	72	4731
2026-01-13 02:11:04.47	28.56	7.55	-53.0	-55.4	14.3	0.00e+00	0	22	0	90177536	72	4701
2026-01-13 02:11:08.45	28.37	7.85	-52.9	-55.4	14.3	0.00e+00	0	22	0	97517568	72	4669
2026-01-13 02:11:12.45	28.17	8.15	-52.9	-55.4	14.4	0.00e+00	0	22	0	104857600	72	4678
2026-01-13 02:11:16.44	27.97	8.46	-52.8	-55.1	14.5	0.00e+00	0	22	0	112197632	72	4542
2026-01-13 02:11:20.44	27.76	8.77	-52.6	-54.9	14.5	0.00e+00	0	22	0	119537664	71	4672
2026-01-13 02:11:24.43	27.55	9.09	-52.7	-55.0	14.5	0.00e+00	0	22	0	127926272	71	4734
2026-01-13 02:11:28.43	27.34	9.41	-52.4	-54.6	14.7	0.00e+00	0	22	0	135266304	71	4513
2026-01-13 02:11:32.44	27.11	9.73	-52.4	-54.6	14.8	0.00e+00	0	22	0	142606336	71	4511
2026-01-13 02:11:36.43	26.89	10.06	-52.5	-54.7	14.7	0.00e+00	0	22	0	149946368	71	4563
2026-01-13 02:11:40.43	26.65	10.39	-52.4	-54.6	14.7	0.00e+00	0	22	0	157286400	71	4530
2026-01-13 02:11:44.43	26.42	10.72	-52.3	-54.5	14.8	0.00e+00	0	22	0	164626432	71	4450
2026-01-13 02:11:48.43	26.17	11.06	-52.4	-54.6	14.8	0.00e+00	0	22	0	173015040	71	4496
2026-01-13 02:11:52.43	25.92	11.40	-52.1	-54.1	15.0	0.00e+00	0	22	0	180355072	70	4539
2026-01-13 02:11:56.43	25.67	11.75	-52.1	-54.1	14.9	0.00e+00	0	22	0	187695104	70	4534
2026-01-13 02:12:00.41	25.40	12.10	-52.0	-54.0	15.0	0.00e+00	0	22	0	195035136	70	4457
2026-01-13 02:12:04.40	25.13	12.46	-51.9	-53.9	15.1	0.00e+00	0	22	0	202375168	70	4406
2026-01-13 02:12:08.40	24.86	12.82	-51.8	-53.7	15.2	0.00e+00	0	22	0	209715200	70	4311
2026-01-13 02:12:12.40	24.57	13.18	-51.8	-53.7	15.1	0.00e+00	0	23	0	217055232	70	4338
2026-01-13 02:12:16.38	24.28	13.55	-51.9	-53.8	15.1	0.00e+00	0	22	0	224395264	70	4378
2026-01-13 02:12:20.36	23.99	13.92	-51.8	-53.7	15.2	0.00e+00	0	23	0	232783872	70	4332
2026-01-13 02:12:24.35	23.68	14.30	-51.9	-53.8	15.1	0.00e+00	0	23	0	240123904	70	4382
2026-01-13 02:12:28.34	23.36	14.69	-51.8	-53.7	15.2	0.00e+00	0	22	0	247463936	70	4318
2026-01-13 02:12:32.35	23.04	15.08	-51.8	-53.7	15.2	0.00e+00	0	23	0	254803968	70	4330
2026-01-13 02:12:36.34	22.71	15.47	-51.8	-53.7	15.2	0.00e+00	0	23	0	262144000	70	4332
2026-01-13 02:12:40.33	22.36	15.87	-51.8	-53.6	15.2	0.00e+00	0	22	0	269484032	70	4284
2026-01-13 02:12:44.32	22.01	16.28	-51.9	-53.8	15.1	0.00e+00	0	23	0	276824064	70	4361
2026-01-13 02:12:48.30	21.65	16.69	-51.8	-53.7	15.2	0.00e+00	0	23	0	285212672	70	4330
2026-01-13 02:12:52.29	21.28	17.11	-51.9	-53.8	15.1	0.00e+00	0	23	0	292552704	70	4387
2026-01-13 02:12:56.29	20.89	17.53	-52.1	-54.0	15.0	0.00e+00	0	22	0	299892736	70	4467
2026-01-13 02:13:00.29	20.50	17.96	-52.2	-54.2	14.9	0.00e+00	0	22	0	307232768	70	4547
2026-01-13 02:13:04.27	20.09	18.39	-52.2	-54.2	14.9	0.00e+00	0	23	0	314572800	70	4572
2026-01-13 02:13:08.26	19.67	18.83	-52.1	-54.1	14.9	0.00e+00	0	23	0	321912832	70	4514
2026-01-13 02:13:12.25	19.24	19.28	-52.2	-54.2	14.9	0.00e+00	0	23	0	329252864	70	4574
2026-01-13 02:13:16.23	18.80	19.73	-52.2	-54.2	14.9	0.00e+00	0	23	0	337641472	70	4585
2026-01-13 02:13:20.22	18.34	20.19	-52.3	-54.4	14.8	0.00e+00	0	23	0	344981504	70	4660
2026-01-13 02:13:24.21	17.87	20.66	-52.4	-54.4	14.7	0.00e+00	0	23	0	352321536	70	4697
2026-01-13 02:13:28.20	17.38	21.13	-52.4	-54.4	14.8	0.00e+00	0	23	0	359661568	70	4658
2026-01-13 02:13:32.20	16.87	21.62	-52.2	-54.2	14.9	0.00e+00	0	23	0	367001600	70	4585
2026-01-13 02:13:36.19	16.35	22.10	-52.2	-54.1	15.0	0.00e+00	0	23	0	374341632	70	4516
2026-01-13 02:13:40.17	15.81	22.60	-52.1	-54.1	15.0	0.00e+00	0	23	0	381681664	70	4503
2026-01-13 02:13:44.16	15.26	23.10	-52.3	-54.2	14.9	0.00e+00	0	23	0	389021696	70	4587
2026-01-13 02:13:48.15	14.68	23.60	-52.3	-54.2	14.9	0.00e+00	0	23	0	397410304	70	4571
2026-01-13 02:13:52.15	14.09	24.12	-52.3	-54.3	14.8	0.00e+00	0	23	0	404750336	70	4637
2026-01-13 02:13:56.16	13.47	24.64	-52.5	-54.5	14.8	0.00e+00	0	23	0	412090368	70	4717
2026-01-13 02:14:00.14	12.84	25.17	-52.4	-54.4	14.8	0.00e+00	0	23	0	419430400	70	4666
2026-01-13 02:14:04.13	12.18	25.70	-52.7	-54.7	14.6	0.00e+00	0	23	0	426770432	70	4864
2026-01-13 02:14:08.11	11.50	26.24	-52.5	-54.6	14.7	0.00e+00	0	23	0	434110464	70	4770
2026-01-13 02:14:12.09	10.80	26.79	-52.5	-54.5	14.8	0.00e+00	0	23	0	441450496	70	4712
2026-01-13 02:14:16.06	10.07	27.34	-52.7	-54.7	14.6	0.00e+00	0	23	0	448790528	70	4865
2026-01-13 02:14:20.06	9.31	27.90	-52.7	-54.7	14.6	0.00e+00	0	23	0	457179136	70	4844
2026-01-13 02:14:24.07	8.52	28.46	-52.9	-55.1	14.4	0.00e+00	0	23	0	464519168	70	5063
2026-01-13 02:14:28.07	7.71	29.03	-53.4	-55.7	14.2	0.00e+00	0	23	0	471859200	71	5157
2026-01-13 02:14:32.05	6.87	29.61	-53.8	-56.3	14.0	0.00e+00	0	22	0	479199232	72	5194
2026-01-13 02:14:36.04	6.00	30.19	-54.5	-57.3	13.5	0.00e+00	0	22	0	486539264	74	5173
2026-01-13 02:14:40.04	5.09	30.77	-54.8	-57.9	13.2	0.00e+00	0	23	0	494927872	74	5542
2026-01-13 02:14:44.04	4.14	31.36	-55.1	-58.4	13.0	0.00e+00	0	23	0	502267904	75	5564
2026-01-13 02:14:48.02	3.17	31.94	-54.7	-57.6	13.5	0.00e+00	0	23	0	509607936	75	5084
2026-01-13 02:14:52.03	2.15	32.54	-54.6	-57.4	13.7	0.00e+00	0	23	0	516947968	75	4956
2026-01-13 02:14:56.02	1.10	33.13	-54.6	-57.4	13.8	0.00e+00	0	23	0	524288000	75	4954
2026-01-13 02:15:00.00	0.02	33.72	-54.7	-57.6	13.6	0.00e+00	0	23	0	531628032	75	5084
2026-01-13 02:15:04.00	358.88	34.31	-54.1	-56.6	14.2	0.00e+00	0	23	0	538968064	74	4772
2026-01-13 02:15:08.00	357.71	34.90	-53.3	-55.4	14.7	0.00e+00	0	23	0	547356672	73	4440
2026-01-13 02:15:11.98	356.50	35.49	-53.3	-55.5	14.7	0.00e+00	0	23	0	554696704	73	4470
2026-01-13 02:15:15.97	355.24	36.07	-53.0	-55.0	14.8	0.00e+00	0	23	0	562036736	72	4493
2026-01-13 02:15:19.96	353.93	36.64	-53.3	-55.6	14.5	0.00e+00	0	23	0	569376768	72	4765
2026-01-13 02:15:23.95	352.58	37.21	-53.3	-55.4	14.6	0.00e+00	0	23	0	576716800	72	4681
2026-01-13 02:15:27.94	351.18	37.77	-53.6	-55.9	14.3	0.00e+00	0	23	0	584056832	72	4952
2026-01-13 02:15:31.93	349.73	38.31	-53.5	-55.8	14.4	0.00e+00	0	23	0	591396864	72	4899
2026-01-13 02:15:35.93	348.22	38.85	-53.9	-56.3	14.2	0.00e+00	0	23	0	598736896	73	4926
2026-01-13 02:15:39.93	346.67	39.37	-53.7	-56.0	14.4	0.00e+00	0	23	0	607125504	73	4753
2026-01-13 02:15:43.95	345.06	39.87	-53.2	-55.3	14.9	0.00e+00	0	23	0	614465536	73	4356
2026-01-13 02:15:47.92	343.42	40.35	-52.8	-54.8	15.0	0.00e+00	0	23	0	621805568	72	4353
2026-01-13 02:15:51.93	341.71	40.81	-52.1	-53.9	15.2	0.00e+00	0	23	0	629145600	70	4436
2026-01-13 02:15:55.93	339.96	41.25	-52.0	-53.8	15.2	0.00e+00	0	23	0	636485632	70	4345
2026-01-13 02:15:59.93	338.16	41.66	-52.7	-54.7	14.7	0.00e+00	0	23	0	643825664	70	4848
2026-01-13 02:16:03.92	336.33	42.04	-52.9	-55.0	14.7	0.00e+00	0	23	0	652214272	71	4717
2026-01-13 02:16:07.90	334.45	42.39	-52.0	-53.8	15.2	0.00e+00	0	23	0	659554304	70	4364
2026-01-13 02:16:11.89	332.53	42.71	-52.6	-54.6	14.8	0.00e+00	0	23	0	666894336	70	4777
2026-01-13 02:16:15.88	330.57	42.99	-52.3	-54.1	15.0	0.00e+00	0	23	0	674234368	70	4535
2026-01-13 02:16:19.87	328.58	43.24	-52.0	-53.8	15.3	0.00e+00	0	23	0	681574400	70	4344
2026-01-13 02:16:23.87	326.56	43.45	-52.3	-54.1	15.1	0.00e+00	0	23	0	688914432	70	4528
2026-01-13 02:16:27.86	324.52	43.62	-52.4	-54.3	14.9	0.00e+00	0	23	0	696254464	70	4624
2026-01-13 02:16:31.87	322.45	43.75	-53.0	-55.0	14.7	0.00e+00	0	23	0	704643072	71	4736
2026-01-13 02:16:35.87	320.36	43.84	-52.7	-54.6	14.9	0.00e+00	0	23	0	711983104	71	4513
2026-01-13 02:16:39.86	318.28	43.88	-53.1	-55.2	14.6	0.00e+00	0	23	0	719323136	71	4835
2026-01-13 02:16:43.85	316.19	43.89	-53.6	-55.9	14.3	0.00e+00	0	23	0	726663168	72	4948
2026-01-13 02:16:47.86	314.09	43.85	-53.7	-56.0	14.4	0.00e+00	0	23	0	734003200	73	4716
2026-01-13 02:16:51.84	312.02	43.76	-54.3	-56.8	13.9	0.00e+00	0	23	0	741343232	73	5216
2026-01-13 02:16:55.83	309.96	43.64	-55.1	-58.1	13.4	0.00e+00	0	23	0	748683264	75	5348
2026-01-13 02:16:59.83	307.91	43.47	-54.6	-57.3	13.8	0.00e+00	0	23	0	757071872	75	4892
2026-01-13 02:17:03.84	305.87	43.27	-55.2	-58.2	13.3	0.00e+00	0	23	0	764411904	75	5462
2026-01-13 02:17:07.83	303.88	43.02	-55.4	-58.5	13.3	7.00e-07	0	23	0	771751936	76	5301
2026-01-13 02:17:11.82	301.92	42.74	-54.8	-57.4	14.1	0.00e+00	0	23	0	779091968	76	4663
2026-01-13 02:17:15.81	299.99	42.43	-54.1	-56.6	14.2	0.00e+00	0	23	0	786432000	74	4762
2026-01-13 02:17:19.78	298.11	42.08	-52.3	-54.1	15.2	0.00e+00	0	23	0	793772032	71	4248
2026-01-13 02:17:23.77	296.27	41.70	-52.8	-54.8	14.7	0.00e+00	0	23	0	801112064	70	4883
2026-01-13 02:17:27.76	294.47	41.30	-51.5	-53.1	15.4	0.00e+00	0	23	0	809500672	69	4275
2026-01-13 02:17:31.74	292.72	40.86	-51.2	-52.8	15.6	0.00e+00	0	23	0	816840704	69	4101
2026-01-13 02:17:35.73	291.01	40.41	-50.3	-51.8	15.7	0.00e+00	0	23	0	824180736	67	4125
2026-01-13 02:17:39.73	289.35	39.93	-50.6	-52.1	15.6	0.00e+00	0	23	0	831520768	67	4264
2026-01-13 02:17:43.75	287.73	39.42	-50.5	-51.9	15.6	0.00e+00	0	23	0	838860800	67	4190
2026-01-13 02:17:47.74	286.18	38.90	-50.6	-52.1	15.6	0.00e+00	0	23	0	846200832	67	4268
2026-01-13 02:17:51.74	284.66	38.37	-51.0	-52.6	15.3	0.00e+00	0	23	0	853540864	67	4515
2026-01-13 02:17:55.72	283.21	37.83	-51.2	-52.9	15.1	0.00e+00	0	23	0	860880896	67	4671
2026-01-13 02:17:59.70	281.80	37.27	-51.3	-53.0	15.1	0.00e+00	0	23	0	869269504	67	4746
2026-01-13 02:18:03.70	280.44	36.70	-51.9	-53.7	15.1	0.00e+00	0	23	0	876609536	69	4552
2026-01-13 02:18:07.70	279.12	36.13	-52.5	-54.4	14.8	0.00e+00	0	23	0	883949568	70	4704
2026-01-13 02:18:11.68	277.86	35.55	-52.6	-54.5	14.8	0.00e+00	0	23	0	891289600	70	4726
2026-01-13 02:18:15.67	276.63	34.96	-52.9	-55.0	14.5	0.00e+00	0	23	0	898629632	71	4730
2026-01-13 02:18:19.66	275.45	34.37	-53.6	-55.9	14.3	0.00e+00	0	23	0	905969664	72	4972
2026-01-13 02:18:23.64	274.32	33.78	-53.9	-56.4	14.2	0.00e+00	0	23	0	913309696	73	4927
2026-01-13 02:18:27.63	273.22	33.19	-54.4	-57.1	13.9	0.00e+00	0	23	0	921698304	74	5061
2026-01-13 02:18:31.63	272.16	32.59	-54.5	-57.2	13.8	0.00e+00	0	23	0	929038336	74	5110
2026-01-13 02:18:35.62	271.14	32.00	-54.5	-57.2	13.7	0.00e+00	0	23	0	936378368	74	5156
2026-01-13 02:18:39.62	270.16	31.41	-54.4	-57.0	13.9	0.00e+00	0	23	0	943718400	74	5025
2026-01-13 02:18:43.62	269.21	30.82	-54.6	-57.3	13.7	0.00e+00	0	23	0	951058432	74	5194
2026-01-13 02:18:47.60	268.30	30.24	-53.9	-56.3	14.4	0.00e+00	0	23	0	958398464	74	4602
2026-01-13 02:18:51.60	267.42	29.65	-53.5	-55.7	14.6	0.00e+00	0	23	0	965738496	73	4598
2026-01-13 02:18:55.59	266.57	29.08	-53.6	-55.9	14.5	0.00e+00	0	23	0	973078528	73	4660
2026-01-13 02:18:59.59	265.75	28.51	-53.1	-55.2	14.7	0.00e+00	0	23	0	981467136	72	4578
2026-01-13 02:19:03.58	264.96	27.94	-53.1	-55.2	14.7	0.00e+00	0	23	0	988807168	72	4559
2026-01-13 02:19:07.59	264.19	27.38	-53.0	-55.1	14.7	0.00e+00	0	23	0	996147200	72	4528
2026-01-13 02:19:11.57	263.46	26.82	-52.9	-54.9	14.9	0.00e+00	0	23	0	1003487232	72	4417
2026-01-13 02:19:15.55	262.75	26.28	-53.0	-55.0	14.8	0.00e+00	0	23	0	1010827264	72	4492
2026-01-13 02:19:19.53	262.07	25.73	-53.1	-55.3	14.6	0.00e+00	0	23	0	1018167296	72	4601
2026-01-13 02:19:23.53	261.40	25.20	-53.3	-55.6	14.5	0.00e+00	0	23	0	1025507328	72	4775
2026-01-13 02:19:27.51	260.77	24.67	-53.5	-55.8	14.3	0.00e+00	0	23	0	1033895936	72	4920
2026-01-13 02:19:31.50	260.15	24.15	-53.2	-55.4	14.5	0.00e+00	0	23	0	1041235968	72	4699
2026-01-13 02:19:35.50	259.55	23.63	-53.0	-55.2	14.7	0.00e+00	0	23	0	1048576000	72	4555
2026-01-13 02:19:39.50	258.97	23.12	-53.0	-55.1	14.7	0.00e+00	0	23	0	1055916032	72	4537
2026-01-13 02:19:43.51	258.41	22.61	-53.1	-55.2	14.7	0.00e+00	0	23	0	1063256064	72	4590
2026-01-13 02:19:47.50	257.86	22.12	-53.3	-55.5	14.5	0.00e+00	0	23	0	1070596096	72	4746
2026-01-13 02:19:51.49	257.34	21.63	-53.4	-55.7	14.3	0.00e+00	0	23	0	1077936128	72	4843
2026-01-13 02:19:55.50	256.83	21.15	-53.2	-55.4	14.5	0.00e+00	0	23	0	1086324736	72	4674
2026-01-13 02:19:59.51	256.33	20.67	-53.1	-55.2	14.6	0.00e+00	0	23	0	1093664768	72	4587
2026-01-13 02:20:03.51	255.86	20.20	-53.3	-55.5	14.4	0.00e+00	0	23	0	1101004800	72	4748
2026-01-13 02:20:07.51	255.39	19.74	-53.2	-55.5	14.4	0.00e+00	0	23	0	1108344832	72	4738
2026-01-13 02:20:11.51	254.94	19.28	-52.9	-55.1	14.7	0.00e+00	0	23	0	1115684864	72	4511
2026-01-13 02:20:15.51	254.51	18.83	-52.8	-54.9	14.8	0.00e+00	0	23	0	1123024896	72	4437
2026-01-13 02:20:19.49	254.09	18.39	-52.8	-55.0	14.8	0.00e+00	0	23	0	1131413504	72	4447
2026-01-13 02:20:23.48	253.68	17.95	-52.8	-54.9	14.8	0.00e+00	0	23	0	1138753536	72	4421
2026-01-13 02:20:27.46	253.28	17.52	-53.0	-55.3	14.6	0.00e+00	0	23	0	1146093568	72	4605
2026-01-13 02:20:31.44	252.90	17.10	-53.3	-55.6	14.4	0.00e+00	0	23	0	1153433600	72	4789
2026-01-13 02:20:35.45	252.52	16.68	-53.2	-55.5	14.4	0.00e+00	0	23	0	1160773632	72	4739
2026-01-13 02:20:39.44	252.15	16.26	-53.0	-55.2	14.6	0.00e+00	0	23	0	1168113664	72	4565
2026-01-13 02:20:43.43	251.80	15.86	-53.2	-55.5	14.4	0.00e+00	0	23	0	1175453696	72	4731
2026-01-13 02:20:47.43	251.45	15.46	-53.3	-55.6	14.3	0.00e+00	0	23	0	1182793728	72	4799
2026-01-13 02:20:51.43	251.12	15.06	-53.3	-55.7	14.3	0.00e+00	0	23	0	1191182336	72	4843
2026-01-13 02:20:55.43	250.79	14.67	-53.3	-55.7	14.3	0.00e+00	0	23	0	1198522368	72	4853
2026-01-13 02:20:59.43	250.47	14.28	-53.4	-55.8	14.2	0.00e+00	0	23	0	1205862400	72	4921
2026-01-13 02:21:03.44	250.16	13.90	-53.4	-55.9	14.2	0.00e+00	0	23	0	1213202432	72	4943
2026-01-13 02:21:07.43	249.86	13.52	-53.6	-56.2	14.0	0.00e+00	0	23	0	1220542464	72	5117
2026-01-13 02:21:11.43	249.57	13.15	-53.7	-56.3	13.9	0.00e+00	0	23	0	1227882496	72	5164
2026-01-13 02:21:15.42	249.28	12.79	-53.6	-56.2	13.9	0.00e+00	0	23	0	1236271104	72	5112
2026-01-13 02:21:19.42	249.00	12.43	-53.6	-56.2	13.9	0.00e+00	0	23	0	1243611136	72	5115
2026-01-13 02:21:23.40	248.73	12.07	-53.7	-56.3	13.9	0.00e+00	0	23	0	1250951168	72	5186
2026-01-13 02:21:27.38	248.47	11.72	-53.7	-56.3	13.8	0.00e+00	0	23	0	1258291200	72	5175
2026-01-13 02:21:31.37	248.21	11.37	-53.7	-56.3	13.8	0.00e+00	0	23	0	1265631232	72	5203
2026-01-13 02:21:35.37	247.95	11.03	-53.6	-56.2	13.8	0.00e+00	0	23	0	1272971264	72	5147
2026-01-13 02:21:39.38	247.71	10.69	-53.8	-56.5	13.7	0.00e+00	0	23	0	1280311296	72	5305
2026-01-13 02:21:43.37	247.47	10.35	-54.0	-56.9	13.5	0.00e+00	0	23	0	1288699904	73	5240
2026-01-13 02:21:47.37	247.23	10.02	-54.2	-57.2	13.3	0.00e+00	0	23	0	1296039936	73	5438
2026-01-13 02:21:51.38	247.00	9.69	-54.2	-57.2	13.3	0.00e+00	0	23	0	1303379968	73	5428
2026-01-13 02:21:55.36	246.78	9.37	-54.1	-57.1	13.3	0.00e+00	0	23	0	1310720000	73	5394
2026-01-13 02:21:59.36	246.56	9.05	-54.0	-57.0	13.4	0.00e+00	0	23	0	1318060032	73	5292
2026-01-13 02:22:03.36	246.35	8.73	-53.9	-56.8	13.6	0.00e+00	0	23	0	1325400064	73	5176
2026-01-13 02:22:07.37	246.14	8.42	-54.0	-57.0	13.4	0.00e+00	0	23	0	1332740096	73	5294
2026-01-13 02:22:11.36	245.93	8.11	-54.1	-57.2	13.2	0.00e+00	0	23	0	1341128704	73	5458
2026-01-13 02:22:15.36	245.73	7.80	-54.2	-57.3	13.1	0.00e+00	0	23	0	1348468736	73	5498
2026-01-13 02:22:19.35	245.54	7.50	-54.2	-57.4	13.1	0.00e+00	0	23	0	1355808768	73	5545
2026-01-13 02:22:23.35	245.35	7.20	-54.4	-57.7	12.8	0.00e+00	0	23	0	1363148800	73	5762
2026-01-13 02:22:27.33	245.16	6.91	-54.3	-57.6	13.0	0.00e+00	0	23	0	1370488832	74	5367
2026-01-13 02:22:31.32	244.98	6.62	-54.3	-57.6	13.0	0.00e+00	0	23	0	1377828864	74	5369
2026-01-13 02:22:35.30	244.80	6.33	-54.4	-57.8	12.9	0.00e+00	0	23	0	1385168896	74	5475
2026-01-13 02:22:39.29	244.62	6.04	-54.4	-57.8	12.8	0.00e+00	0	23	0	1392508928	74	5526
2026-01-13 02:22:43.30	244.45	5.75	-54.5	-58.1	12.6	7.00e-07	0	23	0	1400897536	74	5699
2026-01-13 02:22:47.31	244.28	5.47	-54.4	-57.9	12.7	0.00e+00	0	23	0	1408237568	74	5588
2026-01-13 02:22:51.31	244.12	5.19	-54.3	-57.8	12.7	1.50e-06	0	23	0	1415577600	74	5520
2026-01-13 02:22:55.30	243.96	4.92	-58.0	-74.0	3.8	1.44e+00	0	23	104	1421869056	81	23853
2026-01-13 02:22:59.29	243.80	4.64	-58.7	-74.8	3.8	1.49e+00	0	23	104	1421869056	82	24620
2026-01-13 02:23:03.29	243.64	4.37	-59.1	-75.1	3.8	1.49e+00	0	23	104	1421869056	83	24103
2026-01-13 02:23:07.28	243.49	4.11	-59.2	-75.3	3.8	1.49e+00	0	23	104	1421869056	83	24527
2026-01-13 02:23:11.28	243.34	3.84	-59.2	-75.3	3.8	1.49e+00	0	23	104	1421869056	83	24535
2026-01-13 02:23:15.29	243.20	3.57	-59.3	-75.4	3.8	1.49e+00	0	23	104	1421869056	83	24699
2026-01-13 02:23:19.28	243.05	3.31	-59.2	-75.3	3.8	1.49e+00	0	23	104	1421869056	83	24525
2026-01-13 02:23:23.26	242.91	3.06	-59.2	-75.3	3.8	1.49e+00	0	23	104	1421869056	83	24436
2026-01-13 02:23:27.25	242.78	2.80	-59.2	-75.3	3.8	1.49e+00	0	23	104	1421869056	83	24419
2026-01-13 02:23:31.24	242.64	2.54	-59.1	-75.2	3.8	1.49e+00	0	23	104	1421869056	83	24355
2026-01-13 02:23:35.23	242.51	2.29	-59.1	-75.2	3.8	1.49e+00	0	23	104	1421869056	83	24261
2026-01-13 02:23:39.23	242.38	2.04	-59.1	-75.2	3.8	1.49e+00	0	23	104	1421869056	83	24259

#Closed at: 2026-01-13 02:23:41
#Recorded file [1421 MB]: D:/lorett/data/31004_260113_050944.dat