passes_logs/2026/01/13/R3.2S_Murmansk/R3.2S_Murmansk__20260113_082607_SUOMI_NPP_rec.log

#Pass ID: 20260113_082607_SUOMI NPP
#Satellite: SUOMI NPP
#Configuration: NPP
#almurnet v.1.7.20251203
#Start time: 2026-01-13 08:26:07

#Version: 2.2.20231116
#Station: R3.2S_Murmansk
#Location: 33.079688 lon 68.888172 lat
#TLE: 1 37849U 11061A   26012.91893989  .00000069  00000+0  53763-4 0  9999
#TLE: 2 37849  98.7807 314.9855 0002493  67.2726 292.8714 14.19524788736418

#Time	Az	El	Level	Level2	SNR	BER	BlckErr	Temp	State	Recorded	gain1	gain2
2026-01-13 08:26:07.21	124.52	1.96	-57.6	-73.6	3.8	1.49e+00	0	24	0	0	81	22689
2026-01-13 08:26:11.26	124.42	2.22	-57.6	-73.6	3.8	1.49e+00	0	24	104	0	80	24032
2026-01-13 08:26:15.29	124.31	2.48	-57.6	-73.6	3.8	1.49e+00	0	24	104	0	80	24001
2026-01-13 08:26:19.33	124.20	2.74	-57.6	-73.5	3.8	1.49e+00	0	24	104	0	80	23850
2026-01-13 08:26:23.37	124.09	3.00	-57.6	-73.6	3.8	1.49e+00	0	24	104	0	80	23981
2026-01-13 08:26:27.41	123.98	3.26	-57.6	-73.6	3.8	1.49e+00	0	24	104	0	80	23937
2026-01-13 08:26:31.45	123.86	3.53	-57.6	-73.2	3.8	1.49e+00	0	24	104	0	80	23044
2026-01-13 08:26:35.48	123.74	3.80	-57.6	-72.7	3.8	1.49e+00	0	24	104	0	80	21567
2026-01-13 08:26:39.52	123.62	4.07	-57.6	-72.1	3.8	1.49e+00	0	24	104	0	80	20221
2026-01-13 08:26:43.55	123.50	4.35	-57.2	-66.8	5.6	6.68e-01	0	25	0	2097152	80	10977
2026-01-13 08:26:47.59	123.38	4.62	-55.5	-60.0	11.1	3.05e-04	0	25	0	10485760	77	5956
2026-01-13 08:26:51.62	123.25	4.90	-53.5	-56.6	13.0	1.44e-04	0	25	0	17825792	73	5084
2026-01-13 08:26:55.65	123.12	5.19	-53.9	-57.1	12.8	5.58e-03	0	25	0	25165824	73	5379
2026-01-13 08:26:59.68	122.98	5.47	-53.3	-56.3	13.2	5.03e-03	0	25	0	32505856	73	4895
2026-01-13 08:27:03.72	122.85	5.76	-53.0	-55.7	13.5	1.31e-03	0	25	0	40894464	72	4836
2026-01-13 08:27:07.76	122.71	6.05	-53.1	-55.6	13.8	0.00e+00	0	25	0	48234496	72	4799
2026-01-13 08:27:11.79	122.57	6.35	-53.5	-56.1	13.5	0.00e+00	0	25	0	55574528	72	5079
2026-01-13 08:27:15.81	122.42	6.64	-53.2	-55.7	13.8	0.00e+00	0	25	0	62914560	72	4858
2026-01-13 08:27:19.84	122.27	6.95	-53.1	-55.4	14.0	0.00e+00	0	25	0	70254592	72	4687
2026-01-13 08:27:23.86	122.12	7.25	-53.2	-55.6	13.9	0.00e+00	0	25	0	78643200	72	4771
2026-01-13 08:27:27.89	121.97	7.56	-53.0	-55.3	14.0	0.00e+00	0	25	0	85983232	72	4639
2026-01-13 08:27:31.92	121.81	7.87	-53.1	-55.4	14.0	0.00e+00	0	25	0	93323264	72	4705
2026-01-13 08:27:35.95	121.64	8.18	-53.1	-55.4	14.0	0.00e+00	0	25	0	100663296	72	4662
2026-01-13 08:27:39.98	121.48	8.50	-52.9	-55.1	14.2	0.00e+00	0	25	0	108003328	72	4531
2026-01-13 08:27:44.01	121.31	8.82	-53.0	-55.2	14.2	0.00e+00	0	25	0	116391936	72	4563
2026-01-13 08:27:48.05	121.13	9.15	-52.9	-55.1	14.2	0.00e+00	0	25	0	123731968	72	4514
2026-01-13 08:27:52.08	120.95	9.48	-52.8	-55.0	14.1	0.00e+00	0	25	0	131072000	71	4715
2026-01-13 08:27:56.11	120.77	9.82	-52.7	-54.8	14.3	0.00e+00	0	25	0	138412032	71	4610
2026-01-13 08:28:00.15	120.58	10.16	-52.7	-54.8	14.3	0.00e+00	0	25	0	145752064	71	4616
2026-01-13 08:28:04.18	120.39	10.50	-52.5	-54.5	14.4	0.00e+00	0	25	0	154140672	71	4466
2026-01-13 08:28:08.21	120.19	10.85	-52.5	-54.5	14.5	0.00e+00	0	25	0	161480704	71	4445
2026-01-13 08:28:12.25	119.98	11.20	-52.8	-54.9	14.3	0.00e+00	0	25	0	168820736	71	4656
2026-01-13 08:28:16.29	119.77	11.56	-52.5	-54.6	14.4	0.00e+00	0	25	0	176160768	71	4504
2026-01-13 08:28:20.33	119.56	11.92	-52.3	-54.5	14.5	0.00e+00	0	25	0	184549376	71	4484
2026-01-13 08:28:24.36	119.34	12.29	-52.0	-54.2	14.5	0.00e+00	0	25	0	191889408	70	4552
2026-01-13 08:28:28.39	119.12	12.66	-52.2	-54.4	14.4	0.00e+00	0	25	0	199229440	70	4702
2026-01-13 08:28:32.41	118.88	13.04	-52.1	-54.3	14.4	0.00e+00	0	25	0	206569472	70	4644
2026-01-13 08:28:36.45	118.65	13.42	-52.2	-54.4	14.5	0.00e+00	0	25	0	213909504	70	4656
2026-01-13 08:28:40.48	118.40	13.81	-52.2	-54.5	14.4	0.00e+00	0	25	0	222298112	70	4712
2026-01-13 08:28:44.52	118.15	14.21	-52.1	-54.2	14.5	0.00e+00	0	25	0	229638144	70	4590
2026-01-13 08:28:48.54	117.89	14.60	-51.9	-54.0	14.6	0.00e+00	0	25	0	236978176	70	4464
2026-01-13 08:28:52.58	117.62	15.01	-52.2	-54.4	14.4	0.00e+00	0	25	0	244318208	70	4655
2026-01-13 08:28:56.61	117.35	15.42	-52.2	-54.4	14.4	0.00e+00	0	26	0	251658240	70	4677
2026-01-13 08:29:00.64	117.07	15.84	-51.9	-54.0	14.6	0.00e+00	0	26	0	260046848	70	4452
2026-01-13 08:29:04.68	116.78	16.27	-52.2	-54.4	14.4	0.00e+00	0	26	0	267386880	70	4698
2026-01-13 08:29:08.71	116.48	16.70	-52.4	-54.6	14.3	0.00e+00	0	26	0	274726912	70	4784
2026-01-13 08:29:12.74	116.17	17.14	-52.2	-54.3	14.5	0.00e+00	0	26	0	282066944	70	4645
2026-01-13 08:29:16.77	115.85	17.59	-52.2	-54.2	14.5	0.00e+00	0	26	0	289406976	70	4597
2026-01-13 08:29:20.81	115.52	18.04	-52.1	-54.2	14.5	0.00e+00	0	25	0	297795584	70	4575
2026-01-13 08:29:24.85	115.19	18.50	-52.0	-54.0	14.6	0.00e+00	0	26	0	305135616	70	4443
2026-01-13 08:29:28.88	114.84	18.97	-52.2	-54.4	14.4	0.00e+00	0	26	0	312475648	70	4671
2026-01-13 08:29:32.91	114.48	19.45	-52.1	-54.3	14.5	0.00e+00	0	25	0	319815680	70	4603
2026-01-13 08:29:36.94	114.10	19.93	-52.2	-54.4	14.4	0.00e+00	0	26	0	328204288	70	4678
2026-01-13 08:29:40.98	113.72	20.43	-52.6	-54.9	14.2	0.00e+00	0	26	0	335544320	70	4936
2026-01-13 08:29:45.01	113.32	20.93	-52.7	-55.0	14.1	0.00e+00	0	25	0	342884352	70	5031
2026-01-13 08:29:49.04	112.91	21.44	-52.6	-54.8	14.3	0.00e+00	0	25	0	350224384	70	4915
2026-01-13 08:29:53.07	112.48	21.95	-52.6	-54.8	14.4	0.00e+00	0	25	0	357564416	71	4608
2026-01-13 08:29:57.10	112.04	22.48	-52.5	-54.5	14.4	0.00e+00	0	26	0	365953024	70	4756
2026-01-13 08:30:01.14	111.59	23.02	-53.0	-55.3	14.1	0.00e+00	0	26	0	373293056	71	4910
2026-01-13 08:30:05.18	111.11	23.57	-53.1	-55.6	14.0	0.00e+00	0	26	0	380633088	71	5050
2026-01-13 08:30:09.21	110.62	24.12	-53.3	-55.9	13.9	0.00e+00	0	25	0	387973120	72	4948
2026-01-13 08:30:13.24	110.11	24.69	-53.0	-55.5	14.2	0.00e+00	0	26	0	395313152	72	4750
2026-01-13 08:30:17.27	109.59	25.26	-53.7	-56.6	13.6	0.00e+00	0	26	0	403701760	72	5385
2026-01-13 08:30:21.31	109.04	25.85	-53.2	-55.7	14.1	0.00e+00	0	26	0	411041792	72	4830
2026-01-13 08:30:25.34	108.47	26.44	-52.7	-55.0	14.5	0.00e+00	0	26	0	418381824	72	4449
2026-01-13 08:30:29.37	107.88	27.04	-52.5	-54.6	14.4	0.00e+00	0	26	0	425721856	70	4789
2026-01-13 08:30:33.40	107.26	27.66	-53.0	-55.4	14.1	0.00e+00	0	26	0	433061888	71	4944
2026-01-13 08:30:37.43	106.62	28.28	-52.5	-54.8	14.3	0.00e+00	0	25	0	441450496	70	4905
2026-01-13 08:30:41.47	105.96	28.92	-52.7	-55.2	14.1	0.00e+00	0	26	0	448790528	70	5102
2026-01-13 08:30:45.49	105.26	29.56	-53.3	-55.9	13.9	0.00e+00	0	26	0	456130560	71	5231
2026-01-13 08:30:49.52	104.54	30.21	-53.3	-55.8	13.9	0.00e+00	0	26	0	463470592	71	5166
2026-01-13 08:30:53.56	103.79	30.88	-53.8	-56.6	13.6	0.00e+00	0	25	0	471859200	72	5350
2026-01-13 08:30:57.59	103.00	31.55	-53.7	-56.4	13.7	0.00e+00	0	26	0	479199232	72	5262
2026-01-13 08:31:01.63	102.18	32.24	-54.2	-57.0	13.5	0.00e+00	0	26	0	486539264	73	5313
2026-01-13 08:31:05.66	101.33	32.93	-54.3	-57.2	13.5	0.00e+00	0	26	0	493879296	74	5121
2026-01-13 08:31:09.69	100.44	33.63	-53.6	-56.3	13.9	0.00e+00	0	26	0	501219328	73	4899
2026-01-13 08:31:13.72	99.51	34.33	-54.5	-57.6	13.2	0.00e+00	0	26	0	509607936	74	5390
2026-01-13 08:31:17.75	98.53	35.05	-54.3	-57.1	13.6	0.00e+00	0	26	0	516947968	74	5098
2026-01-13 08:31:21.79	97.51	35.77	-54.1	-57.0	13.6	0.00e+00	0	26	0	524288000	74	5022
2026-01-13 08:31:25.82	96.45	36.50	-53.9	-56.8	13.8	0.00e+00	0	26	0	531628032	74	4905
2026-01-13 08:31:29.85	95.33	37.23	-54.3	-57.8	13.2	0.00e+00	0	26	0	538968064	74	5478
2026-01-13 08:31:33.88	94.17	37.96	-53.4	-56.2	14.0	0.00e+00	0	26	0	547356672	73	4826
2026-01-13 08:31:37.92	92.94	38.70	-53.4	-56.1	14.0	0.00e+00	0	26	0	554696704	73	4814
2026-01-13 08:31:41.96	91.66	39.43	-53.5	-56.3	13.9	0.00e+00	0	26	0	562036736	73	4922
2026-01-13 08:31:45.99	90.33	40.17	-53.1	-55.7	14.1	0.00e+00	0	26	0	569376768	72	4840
2026-01-13 08:31:50.03	88.93	40.90	-53.6	-56.3	13.7	0.00e+00	0	26	0	577765376	72	5196
2026-01-13 08:31:54.06	87.46	41.63	-54.3	-57.6	13.2	0.00e+00	0	26	0	585105408	74	5348
2026-01-13 08:31:58.09	85.93	42.34	-53.8	-56.7	13.7	0.00e+00	0	26	0	592445440	74	4826
2026-01-13 08:32:02.13	84.33	43.05	-53.7	-56.7	13.5	0.00e+00	0	26	0	599785472	72	5462
2026-01-13 08:32:06.17	82.65	43.74	-54.6	-58.2	12.8	0.00e+00	0	26	0	607125504	74	5774
2026-01-13 08:32:10.20	80.91	44.42	-53.7	-56.5	13.8	0.00e+00	0	26	0	615514112	73	5035
2026-01-13 08:32:14.23	79.09	45.08	-52.4	-54.5	14.5	0.00e+00	0	26	0	622854144	71	4469
2026-01-13 08:32:18.27	77.19	45.71	-52.7	-55.1	14.1	0.00e+00	0	26	0	630194176	70	5047
2026-01-13 08:32:22.31	75.21	46.32	-53.4	-56.1	14.0	0.00e+00	0	26	0	637534208	72	5044
2026-01-13 08:32:26.34	73.16	46.89	-54.2	-57.5	13.3	0.00e+00	0	26	0	644874240	74	5294
2026-01-13 08:32:30.36	71.04	47.43	-53.0	-55.4	14.2	0.00e+00	0	26	0	653262848	72	4665
2026-01-13 08:32:34.40	68.84	47.94	-53.5	-56.4	13.7	0.00e+00	0	26	0	660602880	72	5220
2026-01-13 08:32:38.43	66.57	48.40	-55.6	-60.8	11.4	6.10e-06	0	26	0	667942912	76	6933
2026-01-13 08:32:42.46	64.24	48.81	-54.3	-58.4	12.7	0.00e+00	0	26	0	675282944	75	5558
2026-01-13 08:32:46.49	61.85	49.18	-53.9	-57.4	13.1	0.00e+00	0	26	0	682622976	73	5582
2026-01-13 08:32:50.52	59.41	49.50	-53.3	-56.5	13.7	0.00e+00	0	26	0	691011584	73	4987
2026-01-13 08:32:54.56	56.91	49.75	-52.1	-54.4	14.4	0.00e+00	0	26	0	698351616	70	4691
2026-01-13 08:32:58.58	54.39	49.96	-52.0	-54.4	14.4	0.00e+00	0	26	0	705691648	70	4660
2026-01-13 08:33:02.58	51.85	50.10	-51.0	-53.1	14.6	0.00e+00	0	26	0	713031680	67	4773
2026-01-13 08:33:06.62	49.27	50.18	-52.0	-54.5	14.2	0.00e+00	0	26	0	720371712	69	5015
2026-01-13 08:33:10.66	46.67	50.20	-52.1	-54.6	14.3	0.00e+00	0	26	0	728760320	70	4792
2026-01-13 08:33:14.69	44.09	50.15	-52.0	-54.2	14.5	0.00e+00	0	26	0	736100352	70	4589
2026-01-13 08:33:18.73	41.52	50.05	-51.7	-53.9	14.5	0.00e+00	0	26	0	743440384	69	4687
2026-01-13 08:33:22.76	38.97	49.88	-52.1	-54.6	14.2	0.00e+00	0	26	0	750780416	69	5054
2026-01-13 08:33:26.80	36.45	49.66	-52.3	-54.8	14.2	0.00e+00	0	26	0	759169024	70	4926
2026-01-13 08:33:30.83	33.98	49.38	-53.0	-55.8	13.9	0.00e+00	0	26	0	766509056	71	5177
2026-01-13 08:33:34.86	31.56	49.04	-52.7	-55.2	14.2	0.00e+00	0	26	0	773849088	71	4867
2026-01-13 08:33:38.89	29.19	48.65	-54.0	-57.3	13.4	0.00e+00	0	26	0	781189120	73	5481
2026-01-13 08:33:42.93	26.88	48.22	-53.6	-56.3	13.7	0.00e+00	0	26	0	788529152	72	5215
2026-01-13 08:33:46.97	24.64	47.74	-53.3	-56.0	14.0	0.00e+00	0	26	0	796917760	73	4718
2026-01-13 08:33:51.01	22.47	47.22	-53.6	-56.3	13.8	0.00e+00	0	26	0	804257792	73	4926
2026-01-13 08:33:55.04	20.38	46.67	-54.0	-57.3	13.4	0.00e+00	0	26	0	811597824	74	5162
2026-01-13 08:33:59.08	18.36	46.08	-53.1	-55.7	14.0	0.00e+00	0	26	0	818937856	71	5120
2026-01-13 08:34:03.11	16.42	45.46	-54.4	-57.7	13.2	0.00e+00	0	26	0	826277888	73	5751
2026-01-13 08:34:07.15	14.56	44.82	-53.6	-56.3	13.9	0.00e+00	0	26	0	834666496	73	4903
2026-01-13 08:34:11.18	12.77	44.15	-53.4	-55.8	14.2	0.00e+00	0	26	0	842006528	73	4626
2026-01-13 08:34:15.21	11.06	43.47	-52.0	-54.0	14.6	0.00e+00	0	26	0	849346560	70	4469
2026-01-13 08:34:19.25	9.41	42.77	-52.6	-54.9	14.3	0.00e+00	0	26	0	856686592	71	4688
2026-01-13 08:34:23.29	7.84	42.06	-53.8	-56.7	13.6	0.00e+00	0	26	0	865075200	72	5410
2026-01-13 08:34:27.31	6.35	41.35	-55.0	-58.8	12.6	0.00e+00	0	26	0	872415232	75	5797
2026-01-13 08:34:31.35	4.91	40.62	-54.2	-57.1	13.6	0.00e+00	0	26	0	879755264	74	5090
2026-01-13 08:34:35.38	3.54	39.89	-53.6	-56.2	13.9	0.00e+00	0	26	0	887095296	73	4854
2026-01-13 08:34:39.42	2.23	39.16	-53.5	-56.0	14.0	0.00e+00	0	26	0	894435328	73	4742
2026-01-13 08:34:43.45	0.97	38.42	-55.7	-59.8	12.2	0.00e+00	0	26	0	902823936	76	6158
2026-01-13 08:34:47.48	359.78	37.69	-56.1	-60.7	11.5	3.43e-05	0	26	0	910163968	77	6467
2026-01-13 08:34:51.52	358.64	36.96	-55.3	-58.9	12.9	7.00e-07	0	26	0	917504000	77	5219
2026-01-13 08:34:55.55	357.54	36.23	-53.5	-55.8	14.0	0.00e+00	0	26	0	924844032	72	4923
2026-01-13 08:34:59.58	356.50	35.51	-53.3	-55.5	14.2	0.00e+00	0	26	0	932184064	72	4752
2026-01-13 08:35:03.60	355.51	34.79	-55.2	-58.7	12.8	0.00e+00	0	26	0	940572672	75	5756
2026-01-13 08:35:07.63	354.55	34.08	-55.8	-59.5	12.5	7.00e-07	0	26	0	947912704	78	5319
2026-01-13 08:35:11.67	353.64	33.38	-54.3	-56.8	13.9	0.00e+00	0	26	0	955252736	75	4641
2026-01-13 08:35:15.70	352.76	32.69	-53.8	-56.2	14.0	0.00e+00	0	26	0	962592768	73	4845
2026-01-13 08:35:19.72	351.93	32.00	-55.4	-58.7	12.9	0.00e+00	0	26	0	969932800	76	5419
2026-01-13 08:35:23.75	351.12	31.33	-52.3	-54.1	14.7	0.00e+00	0	26	0	978321408	71	4266
2026-01-13 08:35:27.79	350.35	30.66	-54.1	-56.5	13.8	0.00e+00	0	26	0	985661440	73	5035
2026-01-13 08:35:31.82	349.61	30.00	-54.1	-56.6	13.9	0.00e+00	0	26	0	993001472	74	4773
2026-01-13 08:35:35.85	348.91	29.35	-53.5	-55.8	13.9	0.00e+00	0	26	0	1000341504	72	4915
2026-01-13 08:35:39.88	348.23	28.71	-53.3	-55.5	14.1	0.00e+00	0	26	0	1008730112	72	4744
2026-01-13 08:35:43.92	347.57	28.08	-52.6	-54.7	14.4	0.00e+00	0	26	0	1016070144	71	4550
2026-01-13 08:35:47.95	346.94	27.47	-52.7	-54.7	14.4	0.00e+00	0	26	0	1023410176	71	4564
2026-01-13 08:35:51.99	346.34	26.86	-54.2	-56.9	13.6	0.00e+00	0	26	0	1030750208	73	5222
2026-01-13 08:35:56.03	345.76	26.26	-54.6	-57.4	13.4	0.00e+00	0	26	0	1038090240	74	5252
2026-01-13 08:36:00.07	345.20	25.67	-54.1	-56.7	13.8	0.00e+00	0	26	0	1046478848	74	4857
2026-01-13 08:36:04.11	344.66	25.09	-52.8	-54.9	14.4	0.00e+00	0	26	0	1053818880	72	4416
2026-01-13 08:36:08.14	344.14	24.52	-52.9	-55.1	14.2	0.00e+00	0	26	0	1061158912	71	4793
2026-01-13 08:36:12.17	343.64	23.96	-53.5	-55.9	14.0	0.00e+00	0	26	0	1068498944	72	4928
2026-01-13 08:36:16.20	343.16	23.41	-53.0	-55.1	14.3	0.00e+00	0	26	0	1075838976	72	4526
2026-01-13 08:36:20.24	342.70	22.87	-52.7	-54.7	14.5	0.00e+00	0	26	0	1084227584	72	4338
2026-01-13 08:36:24.27	342.25	22.34	-52.7	-54.7	14.4	0.00e+00	0	26	0	1091567616	71	4565
2026-01-13 08:36:28.30	341.81	21.81	-53.6	-55.9	13.9	0.00e+00	0	26	0	1098907648	72	4977
2026-01-13 08:36:32.33	341.40	21.30	-54.0	-56.5	13.7	0.00e+00	0	26	0	1106247680	73	5030
2026-01-13 08:36:36.36	340.99	20.80	-53.4	-55.6	14.2	0.00e+00	0	26	0	1114636288	73	4518
2026-01-13 08:36:40.39	340.60	20.30	-53.2	-55.3	14.2	0.00e+00	0	26	0	1121976320	72	4642
2026-01-13 08:36:44.42	340.22	19.81	-53.4	-55.8	13.9	0.00e+00	0	26	0	1129316352	72	4877
2026-01-13 08:36:48.45	339.86	19.33	-53.3	-55.6	14.1	0.00e+00	0	26	0	1136656384	72	4788
2026-01-13 08:36:52.49	339.50	18.86	-53.0	-55.1	14.3	0.00e+00	0	26	0	1143996416	72	4545
2026-01-13 08:36:56.52	339.16	18.39	-52.3	-54.3	14.6	0.00e+00	0	26	0	1152385024	71	4352
2026-01-13 08:37:00.56	338.83	17.94	-52.0	-53.8	14.6	0.00e+00	0	26	0	1159725056	70	4376
2026-01-13 08:37:04.59	338.51	17.49	-52.5	-54.5	14.4	0.00e+00	0	26	0	1167065088	70	4709
2026-01-13 08:37:08.63	338.19	17.04	-53.3	-55.6	13.9	0.00e+00	0	26	0	1174405120	71	5093
2026-01-13 08:37:12.67	337.89	16.61	-54.1	-56.7	13.6	0.00e+00	0	26	0	1181745152	73	5136
2026-01-13 08:37:16.69	337.60	16.18	-54.7	-57.8	13.0	0.00e+00	0	26	0	1190133760	74	5504
2026-01-13 08:37:20.72	337.31	15.76	-54.7	-57.7	13.2	0.00e+00	0	26	0	1197473792	75	5129
2026-01-13 08:37:24.76	337.04	15.34	-53.9	-56.5	13.8	0.00e+00	0	26	0	1204813824	74	4744
2026-01-13 08:37:28.79	336.77	14.93	-53.7	-56.1	13.8	0.00e+00	0	26	0	1212153856	73	4813
2026-01-13 08:37:32.83	336.50	14.53	-53.5	-55.9	13.9	0.00e+00	0	26	0	1219493888	73	4664
2026-01-13 08:37:36.87	336.25	14.13	-53.8	-56.4	13.7	0.00e+00	0	26	0	1227882496	73	4968
2026-01-13 08:37:40.90	336.00	13.74	-53.8	-56.4	13.7	0.00e+00	0	26	0	1235222528	73	4961
2026-01-13 08:37:44.92	335.76	13.36	-54.1	-56.7	13.5	0.00e+00	0	26	0	1242562560	73	5156
2026-01-13 08:37:48.96	335.53	12.97	-53.8	-56.4	13.7	0.00e+00	0	26	0	1249902592	73	4971
2026-01-13 08:37:52.99	335.30	12.60	-53.8	-56.4	13.7	0.00e+00	0	26	0	1258291200	73	4934
2026-01-13 08:37:57.03	335.08	12.23	-54.1	-56.9	13.4	0.00e+00	0	26	0	1265631232	73	5244
2026-01-13 08:38:01.06	334.87	11.87	-54.4	-57.4	13.1	0.00e+00	0	26	0	1272971264	74	5261
2026-01-13 08:38:05.10	334.66	11.51	-54.6	-57.8	12.9	0.00e+00	0	26	0	1280311296	74	5494
2026-01-13 08:38:09.14	334.45	11.15	-54.6	-57.7	13.0	0.00e+00	0	26	0	1287651328	74	5452
2026-01-13 08:38:13.16	334.25	10.80	-54.4	-57.4	13.2	0.00e+00	0	26	0	1296039936	74	5246
2026-01-13 08:38:17.20	334.06	10.45	-54.1	-56.8	13.5	0.00e+00	0	26	0	1303379968	74	4917
2026-01-13 08:38:21.23	333.87	10.11	-54.0	-56.6	13.6	0.00e+00	0	26	0	1310720000	74	4796
2026-01-13 08:38:25.26	333.69	9.78	-53.8	-56.5	13.7	0.00e+00	0	26	0	1318060032	74	4710
2026-01-13 08:38:29.30	333.51	9.44	-53.9	-56.6	13.6	0.00e+00	0	26	0	1325400064	74	4803
2026-01-13 08:38:33.32	333.33	9.12	-54.0	-56.8	13.5	0.00e+00	0	26	0	1333788672	74	4883
2026-01-13 08:38:37.35	333.16	8.79	-54.0	-56.8	13.4	0.00e+00	0	26	0	1341128704	74	4893
2026-01-13 08:38:41.38	332.99	8.47	-54.2	-57.1	13.2	0.00e+00	0	26	0	1348468736	74	5066
2026-01-13 08:38:45.42	332.83	8.15	-54.3	-57.2	13.2	0.00e+00	0	26	0	1355808768	74	5122
2026-01-13 08:38:49.46	332.67	7.84	-54.1	-57.0	13.3	0.00e+00	0	26	0	1364197376	74	4994
2026-01-13 08:38:53.49	332.51	7.53	-54.0	-56.9	13.3	0.00e+00	0	26	0	1371537408	74	4953
2026-01-13 08:38:57.53	332.36	7.22	-54.2	-57.2	13.2	0.00e+00	0	26	0	1378877440	74	5110
2026-01-13 08:39:01.56	332.21	6.92	-54.4	-57.5	13.0	0.00e+00	0	26	0	1386217472	74	5314
2026-01-13 08:39:05.58	332.07	6.62	-54.6	-57.9	12.7	7.00e-07	0	26	0	1393557504	74	5545
2026-01-13 08:39:09.61	331.93	6.33	-54.9	-58.4	12.4	0.00e+00	0	26	0	1401946112	75	5579
2026-01-13 08:39:13.64	331.79	6.04	-54.9	-58.5	12.3	7.00e-07	0	26	0	1409286144	75	5650
2026-01-13 08:39:17.68	331.65	5.74	-55.2	-59.1	11.9	7.00e-07	0	26	0	1416626176	75	6038
2026-01-13 08:39:21.71	331.52	5.46	-55.1	-59.1	11.9	4.50e-06	0	26	0	1423966208	75	6012
2026-01-13 08:39:25.75	331.39	5.17	-55.2	-59.3	11.7	5.30e-06	0	26	0	1431306240	75	6186
2026-01-13 08:39:29.78	331.26	4.89	-58.8	-74.9	3.8	1.49e+00	0	26	104	1437597696	82	24717
2026-01-13 08:39:33.82	331.14	4.61	-59.8	-75.8	3.8	1.49e+00	0	26	104	1437597696	84	24603
2026-01-13 08:39:37.85	331.02	4.34	-60.1	-76.2	3.8	1.49e+00	0	26	104	1437597696	85	24154
2026-01-13 08:39:41.89	330.90	4.07	-60.3	-76.4	3.8	1.49e+00	0	26	104	1437597696	85	24698
2026-01-13 08:39:45.93	330.78	3.79	-60.3	-76.4	3.8	1.49e+00	0	26	104	1437597696	85	24788
2026-01-13 08:39:49.96	330.67	3.53	-60.4	-76.5	3.8	1.49e+00	0	26	104	1437597696	85	25058
2026-01-13 08:39:54.00	330.56	3.26	-60.3	-76.4	3.9	1.49e+00	0	26	104	1437597696	85	24842
2026-01-13 08:39:58.04	330.45	3.00	-60.3	-76.3	3.8	1.49e+00	0	26	104	1437597696	85	24642
2026-01-13 08:40:02.07	330.34	2.74	-60.2	-76.3	3.8	1.49e+00	0	26	104	1437597696	85	24650
2026-01-13 08:40:06.10	330.23	2.48	-60.2	-76.3	3.8	1.49e+00	0	26	104	1437597696	85	24536
2026-01-13 08:40:10.14	330.13	2.22	-60.2	-76.3	3.8	1.49e+00	0	26	104	1437597696	85	24539

#Closed at: 2026-01-13 08:40:14
#Recorded file [1437 MB]: D:/lorett/data/31004_260113_112607.dat