passes_logs/2026/01/13/R3.2S_Murmansk/R3.2S_Murmansk__20260113_061755_NOAA_21_JPSS-2_rec.log

#Pass ID: 20260113_061755_NOAA 21 (JPSS-2)
#Satellite: NOAA 21 (JPSS-2)
#Configuration: NOAA-21
#almurnet v.1.7.20251203
#Start time: 2026-01-13 06:17:55

#Version: 2.2.20231116
#Station: R3.2S_Murmansk
#Location: 33.079688 lon 68.888172 lat
#TLE: 1 54234U 22150A   26012.26378519  .00000063  00000+0  50547-4 0  9993
#TLE: 2 54234  98.7495 313.1967 0000726 309.1075  51.0036 14.19534275164425

#Time	Az	El	Level	Level2	SNR	BER	BlckErr	Temp	State	Recorded	gain1	gain2
2026-01-13 06:17:55.76	81.25	2.04	-57.0	-70.7	3.8	1.49e+00	0	20	0	0	80	17097
2026-01-13 06:17:59.78	81.01	2.27	-56.9	-70.6	3.8	1.49e+00	0	20	104	0	78	19037
2026-01-13 06:18:03.78	80.77	2.51	-56.9	-70.5	3.8	1.49e+00	0	20	104	0	78	18923
2026-01-13 06:18:07.78	80.53	2.74	-56.9	-70.6	3.8	1.49e+00	0	20	104	0	78	19083
2026-01-13 06:18:11.78	80.28	2.98	-56.9	-70.6	3.8	1.49e+00	0	20	104	0	78	18973
2026-01-13 06:18:15.78	80.02	3.22	-56.9	-70.6	3.8	1.49e+00	0	20	104	0	78	19029
2026-01-13 06:18:19.77	79.77	3.46	-56.9	-70.6	3.8	1.49e+00	0	21	104	0	78	19000
2026-01-13 06:18:23.77	79.50	3.70	-56.9	-70.5	3.8	1.49e+00	0	21	104	0	78	18853
2026-01-13 06:18:27.76	79.24	3.94	-56.9	-70.4	3.8	1.49e+00	0	21	104	0	78	18574
2026-01-13 06:18:31.75	78.97	4.18	-56.7	-68.2	3.9	1.48e+00	0	21	104	0	78	14523
2026-01-13 06:18:35.77	78.69	4.43	-56.2	-63.7	5.8	4.20e-01	0	21	0	3145728	78	8611
2026-01-13 06:18:39.77	78.41	4.68	-55.3	-60.4	8.5	4.13e-02	0	21	0	15728640	77	6247
2026-01-13 06:18:43.78	78.12	4.93	-55.1	-59.8	9.1	9.81e-03	0	21	0	28311552	76	6147
2026-01-13 06:18:47.75	77.83	5.18	-56.1	-63.5	6.0	1.19e-02	0	21	0	40894464	77	8906
2026-01-13 06:18:51.73	77.54	5.43	-52.3	-54.6	13.3	0.00e+00	0	21	0	50331648	71	4539
2026-01-13 06:18:55.73	77.23	5.68	-51.1	-53.0	14.1	0.00e+00	0	21	0	62914560	68	4462
2026-01-13 06:18:59.75	76.92	5.94	-50.9	-52.7	14.4	0.00e+00	0	21	0	75497472	68	4297
2026-01-13 06:19:03.76	76.61	6.20	-50.7	-52.5	14.5	0.00e+00	0	21	0	88080384	68	4194
2026-01-13 06:19:07.78	76.29	6.46	-50.5	-52.2	14.4	0.00e+00	0	21	0	100663296	67	4327
2026-01-13 06:19:11.79	75.96	6.72	-50.5	-52.2	14.5	0.00e+00	0	22	0	112197632	67	4320
2026-01-13 06:19:15.80	75.63	6.98	-50.6	-52.3	14.4	0.00e+00	0	22	0	124780544	67	4387
2026-01-13 06:19:19.82	75.29	7.25	-50.3	-52.0	14.7	0.00e+00	0	21	0	137363456	67	4196
2026-01-13 06:19:23.84	74.95	7.52	-50.2	-51.8	14.7	0.00e+00	0	21	0	149946368	67	4141
2026-01-13 06:19:27.85	74.60	7.79	-50.1	-51.7	14.7	0.00e+00	0	21	0	162529280	66	4303
2026-01-13 06:19:31.87	74.24	8.06	-50.0	-51.6	14.7	0.00e+00	0	21	0	175112192	66	4273
2026-01-13 06:19:35.89	73.87	8.33	-49.9	-51.5	14.8	0.00e+00	0	21	0	187695104	66	4219
2026-01-13 06:19:39.91	73.50	8.60	-49.9	-51.5	14.8	0.00e+00	0	21	0	200278016	66	4223
2026-01-13 06:19:43.94	73.11	8.88	-49.6	-51.1	14.9	0.00e+00	0	22	0	212860928	65	4250
2026-01-13 06:19:47.95	72.73	9.16	-49.4	-50.8	15.1	0.00e+00	0	22	0	225443840	65	4138
2026-01-13 06:19:51.96	72.33	9.44	-49.3	-50.7	15.2	0.00e+00	0	22	0	238026752	65	4088
2026-01-13 06:19:55.97	71.93	9.72	-49.1	-50.5	15.1	0.00e+00	0	22	0	250609664	64	4224
2026-01-13 06:19:59.97	71.52	10.00	-49.3	-50.8	15.0	0.00e+00	0	22	0	263192576	64	4347
2026-01-13 06:20:03.98	71.10	10.29	-49.0	-50.4	15.2	0.00e+00	0	22	0	275775488	64	4183
2026-01-13 06:20:08.00	70.67	10.58	-47.4	-50.4	15.5	0.00e+00	0	22	0	288358400	61	4980
2026-01-13 06:20:12.00	70.24	10.86	-48.6	-50.1	15.1	0.00e+00	0	22	0	300941312	62	4524
2026-01-13 06:20:15.99	69.79	11.15	-48.7	-50.1	15.1	0.00e+00	0	22	0	313524224	62	4506
2026-01-13 06:20:20.00	69.34	11.44	-48.6	-49.9	15.1	0.00e+00	0	22	0	326107136	62	4441
2026-01-13 06:20:24.01	68.87	11.74	-48.6	-49.9	15.2	0.00e+00	0	22	0	338690048	62	4416
2026-01-13 06:20:28.04	68.40	12.03	-48.6	-49.9	15.2	0.00e+00	0	22	0	351272960	62	4426
2026-01-13 06:20:32.05	67.91	12.33	-48.5	-49.8	15.2	0.00e+00	0	22	0	363855872	62	4390
2026-01-13 06:20:36.06	67.42	12.63	-48.7	-50.1	15.1	0.00e+00	0	22	0	376438784	62	4512
2026-01-13 06:20:40.06	66.92	12.93	-48.7	-50.1	15.1	0.00e+00	0	22	0	389021696	62	4498
2026-01-13 06:20:44.07	66.40	13.23	-48.5	-49.9	15.2	0.00e+00	0	22	0	401604608	62	4393
2026-01-13 06:20:48.03	65.89	13.53	-48.6	-49.9	15.1	0.00e+00	0	22	0	413138944	62	4436
2026-01-13 06:20:52.04	65.35	13.83	-48.7	-50.1	15.1	0.00e+00	0	22	0	425721856	62	4494
2026-01-13 06:20:56.06	64.80	14.14	-48.6	-49.9	15.2	0.00e+00	0	22	0	438304768	62	4415
2026-01-13 06:21:00.05	64.24	14.44	-48.4	-49.8	15.2	0.00e+00	0	22	0	450887680	62	4341
2026-01-13 06:21:04.05	63.67	14.75	-48.6	-49.9	15.2	0.00e+00	0	22	0	463470592	62	4418
2026-01-13 06:21:08.07	63.09	15.05	-48.6	-49.9	15.2	0.00e+00	0	22	0	476053504	62	4435
2026-01-13 06:21:12.07	62.50	15.36	-48.7	-50.0	15.1	0.00e+00	0	22	0	488636416	62	4465
2026-01-13 06:21:16.07	61.89	15.67	-48.9	-50.3	15.1	0.00e+00	0	22	0	501219328	63	4374
2026-01-13 06:21:20.07	61.27	15.98	-49.0	-50.3	15.1	0.00e+00	0	22	0	513802240	63	4389
2026-01-13 06:21:24.07	60.64	16.29	-48.9	-50.3	15.2	0.00e+00	0	22	0	526385152	63	4347
2026-01-13 06:21:28.06	59.99	16.60	-49.0	-50.4	15.1	0.00e+00	0	22	0	538968064	63	4399
2026-01-13 06:21:32.06	59.33	16.91	-48.8	-50.2	15.2	0.00e+00	0	22	0	550502400	63	4321
2026-01-13 06:21:36.07	58.66	17.22	-48.8	-50.1	15.2	0.00e+00	0	22	0	564133888	63	4279
2026-01-13 06:21:40.06	57.97	17.53	-48.6	-49.9	15.3	0.00e+00	0	22	0	575668224	63	4187
2026-01-13 06:21:44.04	57.27	17.84	-48.6	-49.9	15.4	0.00e+00	0	22	0	588251136	63	4159
2026-01-13 06:21:48.05	56.55	18.15	-48.4	-49.6	15.5	0.00e+00	0	22	0	600834048	63	4040
2026-01-13 06:21:52.06	55.82	18.45	-48.1	-49.3	15.5	0.00e+00	0	22	0	613416960	62	4134
2026-01-13 06:21:56.05	55.08	18.76	-48.1	-49.4	15.5	0.00e+00	0	22	0	625999872	62	4177
2026-01-13 06:22:00.07	54.31	19.07	-48.6	-49.9	15.2	0.00e+00	0	22	0	638582784	62	4405
2026-01-13 06:22:04.06	53.53	19.37	-48.4	-49.7	15.3	0.00e+00	0	22	0	651165696	62	4306
2026-01-13 06:22:08.07	52.74	19.67	-48.2	-49.4	15.5	0.00e+00	0	22	0	663748608	62	4191
2026-01-13 06:22:12.06	51.93	19.97	-48.2	-49.4	15.5	0.00e+00	0	22	0	676331520	62	4192
2026-01-13 06:22:16.06	51.11	20.26	-47.7	-48.9	15.7	0.00e+00	0	22	0	688914432	62	3955
2026-01-13 06:22:20.05	50.27	20.56	-47.7	-48.9	15.7	0.00e+00	0	22	0	700448768	62	3951
2026-01-13 06:22:24.03	49.41	20.84	-47.8	-49.0	15.7	0.00e+00	0	22	0	713031680	62	3990
2026-01-13 06:22:28.03	48.54	21.13	-47.8	-49.0	15.7	0.00e+00	0	22	0	725614592	62	3997
2026-01-13 06:22:32.02	47.65	21.41	-47.9	-49.1	15.6	0.00e+00	0	22	0	738197504	62	4035
2026-01-13 06:22:36.00	46.75	21.69	-48.0	-49.2	15.6	0.00e+00	0	22	0	750780416	62	4082
2026-01-13 06:22:40.01	45.82	21.96	-47.8	-49.0	15.7	0.00e+00	0	22	0	763363328	62	3990
2026-01-13 06:22:44.01	44.89	22.23	-47.8	-49.1	15.7	0.00e+00	0	22	0	775946240	62	4006
2026-01-13 06:22:48.01	43.93	22.49	-47.9	-49.1	15.6	0.00e+00	0	22	0	788529152	62	4050
2026-01-13 06:22:52.01	42.96	22.75	-48.1	-49.3	15.5	0.00e+00	0	22	0	801112064	62	4132
2026-01-13 06:22:56.02	41.97	23.00	-48.0	-49.2	15.6	0.00e+00	0	22	0	813694976	62	4074
2026-01-13 06:23:00.02	40.96	23.24	-47.8	-49.1	15.7	0.00e+00	0	22	0	826277888	62	4011
2026-01-13 06:23:04.01	39.95	23.47	-47.8	-49.0	15.7	0.00e+00	0	22	0	838860800	62	3967
2026-01-13 06:23:08.02	38.91	23.70	-48.0	-49.2	15.6	0.00e+00	0	22	0	851443712	62	4085
2026-01-13 06:23:12.02	37.86	23.92	-48.0	-49.3	15.6	0.00e+00	0	22	0	862978048	62	4105
2026-01-13 06:23:16.03	36.79	24.13	-47.9	-49.2	15.6	0.00e+00	0	22	0	875560960	62	4058
2026-01-13 06:23:20.04	35.71	24.33	-47.9	-49.1	15.6	0.00e+00	0	22	0	888143872	62	4049
2026-01-13 06:23:24.06	34.62	24.52	-47.8	-49.0	15.7	0.00e+00	0	22	0	900726784	62	3997
2026-01-13 06:23:28.07	33.51	24.70	-47.9	-49.1	15.7	0.00e+00	0	22	0	913309696	62	4025
2026-01-13 06:23:32.08	32.39	24.87	-47.7	-48.9	15.7	0.00e+00	0	22	0	925892608	62	3947
2026-01-13 06:23:36.09	31.26	25.03	-47.3	-48.5	15.8	0.00e+00	0	22	0	938475520	61	3981
2026-01-13 06:23:40.10	30.11	25.18	-47.3	-48.5	15.8	0.00e+00	0	22	0	951058432	61	3969
2026-01-13 06:23:44.12	28.96	25.32	-47.7	-48.9	15.6	0.00e+00	0	22	0	963641344	61	4160
2026-01-13 06:23:48.14	27.79	25.44	-47.8	-49.1	15.5	0.00e+00	0	22	0	976224256	61	4246
2026-01-13 06:23:52.15	26.62	25.55	-47.9	-49.1	15.5	0.00e+00	0	22	0	988807168	61	4266
2026-01-13 06:23:56.17	25.44	25.65	-47.6	-48.8	15.6	0.00e+00	0	22	0	1001390080	61	4126
2026-01-13 06:24:00.19	24.25	25.74	-47.7	-48.9	15.6	0.00e+00	0	22	0	1013972992	61	4168
2026-01-13 06:24:04.18	23.06	25.81	-48.0	-49.2	15.5	0.00e+00	0	22	0	1026555904	61	4317
2026-01-13 06:24:08.15	21.88	25.87	-47.9	-49.1	15.5	0.00e+00	0	22	0	1039138816	61	4278
2026-01-13 06:24:12.14	20.68	25.91	-47.4	-48.6	15.7	0.00e+00	0	22	0	1051721728	61	4034
2026-01-13 06:24:16.12	19.49	25.94	-47.7	-48.9	15.6	0.00e+00	0	22	0	1064304640	61	4186
2026-01-13 06:24:20.11	18.29	25.96	-47.8	-49.0	15.6	0.00e+00	0	22	0	1075838976	61	4210
2026-01-13 06:24:24.08	17.10	25.96	-47.8	-49.0	15.5	0.00e+00	0	22	0	1088421888	61	4241
2026-01-13 06:24:28.05	15.90	25.95	-47.8	-49.0	15.5	0.00e+00	0	22	0	1101004800	61	4232
2026-01-13 06:24:32.04	14.70	25.93	-47.7	-48.9	15.6	0.00e+00	0	22	0	1113587712	61	4172
2026-01-13 06:24:36.04	13.50	25.89	-47.7	-48.9	15.6	0.00e+00	0	22	0	1126170624	61	4158
2026-01-13 06:24:40.03	12.31	25.84	-47.7	-49.0	15.6	0.00e+00	0	22	0	1138753536	61	4194
2026-01-13 06:24:44.06	11.11	25.77	-48.0	-49.2	15.5	0.00e+00	0	22	0	1151336448	61	4311
2026-01-13 06:24:48.07	9.92	25.69	-48.0	-49.2	15.5	0.00e+00	0	22	0	1163919360	61	4320
2026-01-13 06:24:52.06	8.75	25.60	-48.1	-49.3	15.4	0.00e+00	0	22	0	1176502272	61	4365
2026-01-13 06:24:56.05	7.58	25.50	-47.8	-49.0	15.5	0.00e+00	0	22	0	1188036608	61	4223
2026-01-13 06:25:00.06	6.41	25.38	-48.1	-49.3	15.4	0.00e+00	0	22	0	1200619520	61	4366
2026-01-13 06:25:04.05	5.26	25.25	-48.1	-49.4	15.4	0.00e+00	0	22	0	1213202432	61	4420
2026-01-13 06:25:08.05	4.12	25.11	-48.0	-49.2	15.4	0.00e+00	0	22	0	1225785344	61	4318
2026-01-13 06:25:12.05	2.98	24.95	-48.0	-49.2	15.4	0.00e+00	0	22	0	1238368256	61	4306
2026-01-13 06:25:16.04	1.86	24.79	-47.8	-49.0	15.5	0.00e+00	0	22	0	1250951168	61	4241
2026-01-13 06:25:20.06	0.75	24.61	-47.8	-49.0	15.5	0.00e+00	0	22	0	1263534080	61	4228
2026-01-13 06:25:24.08	359.65	24.43	-47.7	-48.9	15.6	0.00e+00	0	22	0	1276116992	61	4146
2026-01-13 06:25:28.10	358.56	24.23	-47.6	-48.8	15.6	0.00e+00	0	22	0	1288699904	61	4136
2026-01-13 06:25:32.13	357.48	24.02	-48.0	-49.2	15.5	0.00e+00	0	22	0	1301282816	61	4293
2026-01-13 06:25:36.16	356.41	23.81	-48.0	-49.2	15.5	0.00e+00	0	22	0	1313865728	61	4324
2026-01-13 06:25:40.19	355.37	23.58	-48.0	-49.2	15.4	0.00e+00	0	22	0	1326448640	61	4322
2026-01-13 06:25:44.23	354.33	23.35	-47.9	-49.1	15.5	0.00e+00	0	22	0	1339031552	61	4283
2026-01-13 06:25:48.26	353.31	23.11	-48.1	-49.4	15.4	0.00e+00	0	22	0	1351614464	61	4406
2026-01-13 06:25:52.29	352.31	22.86	-48.0	-49.2	15.4	0.00e+00	0	22	0	1364197376	61	4325
2026-01-13 06:25:56.32	351.33	22.61	-48.0	-49.2	15.4	0.00e+00	0	22	0	1376780288	61	4340
2026-01-13 06:26:00.35	350.36	22.35	-48.4	-49.6	15.3	0.00e+00	0	22	0	1389363200	61	4540
2026-01-13 06:26:04.38	349.41	22.08	-47.9	-49.2	15.4	0.00e+00	0	22	0	1401946112	61	4304
2026-01-13 06:26:08.41	348.47	21.81	-47.5	-48.6	15.7	0.00e+00	0	22	0	1414529024	61	4048
2026-01-13 06:26:12.44	347.55	21.53	-47.8	-49.0	15.5	0.00e+00	0	22	0	1427111936	61	4205
2026-01-13 06:26:16.48	346.65	21.25	-47.6	-48.8	15.6	0.00e+00	0	22	0	1439694848	61	4123
2026-01-13 06:26:20.50	345.76	20.96	-47.6	-48.8	15.6	0.00e+00	0	22	0	1452277760	61	4139
2026-01-13 06:26:24.54	344.89	20.67	-47.5	-48.7	15.7	0.00e+00	0	22	0	1464860672	61	4083
2026-01-13 06:26:28.56	344.04	20.38	-47.7	-48.9	15.6	0.00e+00	0	22	0	1477443584	61	4159
2026-01-13 06:26:32.59	343.21	20.08	-48.1	-49.4	15.3	0.00e+00	0	22	0	1490026496	61	4411
2026-01-13 06:26:36.61	342.39	19.78	-48.0	-49.3	15.4	0.00e+00	0	22	0	1502609408	61	4342
2026-01-13 06:26:40.62	341.59	19.48	-48.0	-49.2	15.4	0.00e+00	0	22	0	1515192320	61	4311
2026-01-13 06:26:44.65	340.80	19.18	-48.0	-49.3	15.4	0.00e+00	0	22	0	1527775232	61	4365
2026-01-13 06:26:48.67	340.03	18.87	-48.1	-49.3	15.4	0.00e+00	0	22	0	1540358144	61	4365
2026-01-13 06:26:52.71	339.27	18.56	-48.4	-49.7	15.2	0.00e+00	0	22	0	1552941056	61	4571
2026-01-13 06:26:56.73	338.53	18.25	-48.7	-50.0	15.2	0.00e+00	0	22	0	1565523968	62	4475
2026-01-13 06:27:00.76	337.81	17.94	-48.6	-49.9	15.3	0.00e+00	0	22	0	1578106880	62	4404
2026-01-13 06:27:04.78	337.10	17.63	-48.7	-50.1	15.2	0.00e+00	0	22	0	1590689792	62	4499
2026-01-13 06:27:08.78	336.41	17.33	-48.7	-50.0	15.2	0.00e+00	0	22	0	1603272704	62	4460
2026-01-13 06:27:12.80	335.73	17.01	-48.4	-49.7	15.3	0.00e+00	0	22	0	1615855616	62	4310
2026-01-13 06:27:16.83	335.06	16.70	-48.3	-49.6	15.4	0.00e+00	0	22	0	1628438528	62	4257
2026-01-13 06:27:20.86	334.41	16.39	-48.3	-49.5	15.4	0.00e+00	0	22	0	1641021440	62	4235
2026-01-13 06:27:24.90	333.77	16.08	-48.5	-49.8	15.3	0.00e+00	0	22	0	1653604352	62	4363
2026-01-13 06:27:28.93	333.14	15.77	-48.7	-50.0	15.2	0.00e+00	0	22	0	1666187264	62	4470
2026-01-13 06:27:32.96	332.53	15.46	-48.4	-49.7	15.3	0.00e+00	0	22	0	1678770176	62	4310
2026-01-13 06:27:36.98	331.93	15.15	-48.5	-49.7	15.3	0.00e+00	0	22	0	1691353088	62	4330
2026-01-13 06:27:41.02	331.34	14.84	-49.0	-50.3	15.1	0.00e+00	0	22	0	1703936000	63	4369
2026-01-13 06:27:45.06	330.76	14.53	-49.0	-50.4	15.0	0.00e+00	0	22	0	1716518912	63	4435
2026-01-13 06:27:49.09	330.20	14.22	-48.9	-50.3	15.1	0.00e+00	0	22	0	1729101824	63	4363
2026-01-13 06:27:53.12	329.64	13.91	-48.9	-50.2	15.2	0.00e+00	0	22	0	1741684736	63	4311
2026-01-13 06:27:57.15	329.10	13.61	-49.4	-50.9	14.9	0.00e+00	0	22	0	1754267648	64	4397
2026-01-13 06:28:01.19	328.57	13.31	-49.6	-51.1	14.8	0.00e+00	0	22	0	1766850560	64	4520
2026-01-13 06:28:05.22	328.06	13.00	-49.4	-50.8	15.0	0.00e+00	0	22	0	1779433472	64	4371
2026-01-13 06:28:09.26	327.55	12.70	-49.0	-50.4	15.2	0.00e+00	0	22	0	1792016384	64	4152
2026-01-13 06:28:13.29	327.05	12.40	-49.2	-50.7	15.1	0.00e+00	0	22	0	1804599296	64	4298
2026-01-13 06:28:17.32	326.56	12.10	-49.3	-50.8	15.0	0.00e+00	0	22	0	1817182208	64	4361
2026-01-13 06:28:21.35	326.09	11.81	-49.0	-50.3	15.2	0.00e+00	0	22	0	1829765120	64	4137
2026-01-13 06:28:25.37	325.62	11.51	-48.6	-49.9	15.3	0.00e+00	0	22	0	1842348032	63	4167
2026-01-13 06:28:29.41	325.16	11.22	-48.6	-50.0	15.2	0.00e+00	0	22	0	1854930944	63	4202
2026-01-13 06:28:33.44	324.71	10.93	-49.3	-50.7	14.9	0.00e+00	0	22	0	1867513856	63	4596
2026-01-13 06:28:37.47	324.28	10.64	-49.7	-51.2	14.7	0.00e+00	0	22	0	1880096768	64	4590
2026-01-13 06:28:41.51	323.84	10.35	-49.5	-51.0	14.8	0.00e+00	0	22	0	1892679680	64	4444
2026-01-13 06:28:45.54	323.42	10.06	-49.2	-50.7	15.0	0.00e+00	0	22	0	1905262592	64	4300
2026-01-13 06:28:49.58	323.01	9.78	-49.1	-50.5	15.1	0.00e+00	0	22	0	1917845504	64	4198
2026-01-13 06:28:53.61	322.60	9.50	-49.3	-50.8	14.9	0.00e+00	0	22	0	1930428416	64	4359
2026-01-13 06:28:57.65	322.21	9.21	-49.7	-51.3	14.6	0.00e+00	0	22	0	1943011328	64	4616
2026-01-13 06:29:01.68	321.82	8.94	-50.0	-51.6	14.5	0.00e+00	0	22	0	1955594240	65	4542
2026-01-13 06:29:05.71	321.44	8.66	-49.9	-51.5	14.6	0.00e+00	0	22	0	1969225728	65	4474
2026-01-13 06:29:09.75	321.06	8.38	-49.8	-51.3	14.7	0.00e+00	0	22	0	1980760064	65	4364
2026-01-13 06:29:13.78	320.69	8.11	-49.8	-51.3	14.7	0.00e+00	0	22	0	1994391552	65	4364
2026-01-13 06:29:17.82	320.33	7.84	-50.0	-51.6	14.6	0.00e+00	0	22	0	2006974464	65	4509
2026-01-13 06:29:21.85	319.98	7.57	-50.3	-52.0	14.3	0.00e+00	0	22	0	2019557376	65	4712
2026-01-13 06:29:25.88	319.63	7.30	-50.6	-52.3	14.3	0.00e+00	0	22	0	2032140288	66	4616
2026-01-13 06:29:29.91	319.29	7.03	-50.7	-52.6	14.1	0.00e+00	0	22	0	2044723200	66	4762
2026-01-13 06:29:33.94	318.96	6.77	-50.7	-52.5	14.1	0.00e+00	0	22	0	2057306112	66	4714
2026-01-13 06:29:37.97	318.63	6.50	-50.4	-52.1	14.3	0.00e+00	0	22	0	2069889024	66	4532
2026-01-13 06:29:42.01	318.31	6.24	-50.4	-52.1	14.3	0.00e+00	0	22	0	2082471936	66	4510
2026-01-13 06:29:46.04	318.00	5.98	-50.4	-52.1	14.3	0.00e+00	0	22	0	2095054848	66	4518
2026-01-13 06:29:50.09	317.69	5.72	-50.8	-52.7	13.9	0.00e+00	0	22	0	2107637760	66	4835
2026-01-13 06:29:54.12	317.38	5.47	-51.0	-52.9	13.9	0.00e+00	0	22	0	2120220672	67	4702
2026-01-13 06:29:58.16	317.09	5.21	-51.2	-53.2	13.6	0.00e+00	0	22	0	2132803584	67	4859
2026-01-13 06:30:02.19	316.79	4.96	-57.4	-69.3	3.9	6.50e-01	0	22	104	2144337920	79	15557
2026-01-13 06:30:06.23	316.50	4.71	-58.5	-72.3	3.8	1.49e+00	0	22	104	2144337920	82	18424
2026-01-13 06:30:10.27	316.22	4.46	-58.9	-72.7	3.8	1.49e+00	0	22	104	2144337920	82	19288
2026-01-13 06:30:14.30	315.94	4.21	-59.1	-73.0	3.8	1.49e+00	0	23	104	2144337920	83	18747
2026-01-13 06:30:18.34	315.67	3.97	-59.3	-73.1	3.8	1.49e+00	0	23	104	2144337920	83	19008
2026-01-13 06:30:22.37	315.40	3.72	-59.3	-73.1	3.8	1.49e+00	0	23	104	2144337920	83	18983
2026-01-13 06:30:26.41	315.14	3.48	-59.2	-73.0	3.8	1.49e+00	0	23	104	2144337920	83	18766
2026-01-13 06:30:30.45	314.88	3.24	-59.1	-72.9	3.8	1.49e+00	0	23	104	2144337920	83	18714
2026-01-13 06:30:34.48	314.63	3.00	-59.1	-72.9	3.8	1.49e+00	0	23	104	2144337920	83	18701
2026-01-13 06:30:38.51	314.38	2.76	-59.1	-72.9	3.8	1.49e+00	0	23	104	2144337920	83	18588
2026-01-13 06:30:42.54	314.13	2.52	-59.0	-72.9	3.8	1.49e+00	0	23	104	2144337920	83	18591
2026-01-13 06:30:46.58	313.89	2.29	-59.1	-72.9	3.8	1.49e+00	0	23	104	2144337920	83	18584
2026-01-13 06:30:50.62	313.65	2.05	-59.1	-72.9	3.8	1.49e+00	0	23	104	2144337920	83	18566

#Closed at: 2026-01-13 06:30:52
#Recorded file [2144 MB]: D:/lorett/data/31004_260113_091755.dat