passes_logs/2026/01/13/R3.2S_Murmansk/R3.2S_Murmansk__20260113_142847_FENGYUN_3D_rec.log

#Pass ID: 20260113_142847_FENGYUN 3D
#Satellite: FENGYUN 3D
#Configuration: FENGYUN 3D
#almurnet v.1.7.20251203
#Start time: 2026-01-13 14:28:50

#Version: 2.2.20231116
#Station: R3.2S_Murmansk
#Location: 33.079688 lon 68.888172 lat
#TLE: 1 43010U 17072A   26013.17115950  .00000473  00000+0  24523-3 0  9998
#TLE: 2 43010  98.9934 344.9592 0002262 111.3119 248.8298 14.19696744422995

#Time	Az	El	Level	Level2	SNR	BER	BlckErr	Temp	State	Recorded	gain1	gain2
2026-01-13 14:28:50.12	226.81	2.12	-58.5	-71.5	3.8	8.45e-01	0	25	0	0	83	15806
2026-01-13 14:28:53.12	227.07	2.27	-58.5	-71.5	3.8	8.47e-01	0	25	104	0	82	16782
2026-01-13 14:28:56.11	227.33	2.42	-58.4	-71.4	3.8	8.45e-01	0	25	104	0	82	16615
2026-01-13 14:28:59.10	227.60	2.58	-58.5	-71.4	3.8	8.45e-01	0	25	104	0	82	16521
2026-01-13 14:29:02.10	227.86	2.73	-58.5	-71.4	3.8	8.45e-01	0	25	104	0	82	16682
2026-01-13 14:29:05.09	228.13	2.88	-58.5	-71.3	3.8	8.45e-01	0	25	104	0	82	16496
2026-01-13 14:29:08.09	228.40	3.03	-58.5	-71.4	3.8	8.47e-01	0	25	104	0	82	16655
2026-01-13 14:29:11.08	228.68	3.19	-58.5	-71.4	3.8	8.46e-01	0	25	104	0	82	16630
2026-01-13 14:29:14.07	228.95	3.34	-58.5	-71.4	3.8	8.45e-01	0	26	104	0	82	16657
2026-01-13 14:29:17.07	229.23	3.49	-58.5	-71.5	3.8	8.46e-01	0	26	104	0	82	16783
2026-01-13 14:29:20.06	229.52	3.65	-58.5	-71.4	3.8	8.47e-01	0	26	104	0	82	16530
2026-01-13 14:29:23.06	229.80	3.80	-58.5	-71.4	3.8	8.46e-01	0	26	104	0	82	16543
2026-01-13 14:29:26.07	230.09	3.96	-58.5	-71.3	3.8	8.44e-01	0	26	104	0	82	16430
2026-01-13 14:29:29.09	230.38	4.11	-58.4	-70.9	3.8	8.45e-01	0	26	104	0	82	15633
2026-01-13 14:29:32.09	230.68	4.27	-58.4	-70.9	3.8	8.45e-01	0	26	104	0	82	15751
2026-01-13 14:29:35.10	230.98	4.43	-58.4	-70.7	3.8	8.46e-01	0	26	104	0	82	15383
2026-01-13 14:29:38.11	231.28	4.58	-57.7	-65.1	5.4	7.26e-01	0	26	0	0	82	7996
2026-01-13 14:29:41.09	231.58	4.74	-56.7	-61.4	8.2	5.99e-02	0	26	0	15728640	80	5921
2026-01-13 14:29:44.08	231.89	4.90	-54.1	-56.7	11.8	2.28e-05	0	26	0	32505856	74	4857
2026-01-13 14:29:47.09	232.20	5.05	-51.3	-53.0	13.8	0.00e+00	0	26	0	50331648	69	4223
2026-01-13 14:29:50.08	232.51	5.21	-50.7	-52.4	13.9	0.00e+00	0	26	0	67108864	67	4392
2026-01-13 14:29:53.07	232.83	5.37	-50.3	-51.8	14.2	0.00e+00	0	26	0	83886080	67	4116
2026-01-13 14:29:56.07	233.15	5.53	-49.8	-51.3	14.3	0.00e+00	0	26	0	100663296	66	4115
2026-01-13 14:29:59.08	233.47	5.68	-49.8	-51.2	14.4	0.00e+00	0	26	0	117440512	66	4083
2026-01-13 14:30:02.09	233.80	5.84	-49.7	-51.1	14.4	0.00e+00	0	26	0	134217728	66	4045
2026-01-13 14:30:05.08	234.13	6.00	-49.7	-51.1	14.3	0.00e+00	0	26	0	150994944	65	4259
2026-01-13 14:30:08.07	234.46	6.16	-49.8	-51.3	14.2	0.00e+00	0	26	0	167772160	65	4355
2026-01-13 14:30:11.06	234.79	6.32	-49.8	-51.3	14.2	0.00e+00	0	26	0	184549376	65	4365
2026-01-13 14:30:14.05	235.13	6.47	-49.7	-51.2	14.3	0.00e+00	0	26	0	201326592	65	4308
2026-01-13 14:30:17.05	235.48	6.63	-49.8	-51.2	14.3	0.00e+00	0	26	0	218103808	65	4313
2026-01-13 14:30:20.03	235.82	6.79	-49.6	-51.0	14.4	0.00e+00	0	26	0	234881024	65	4198
2026-01-13 14:30:23.04	236.18	6.95	-49.2	-50.6	14.6	0.00e+00	0	26	0	251658240	65	4013
2026-01-13 14:30:26.04	236.53	7.11	-49.2	-50.5	14.5	0.00e+00	0	26	0	268435456	64	4214
2026-01-13 14:30:29.04	236.89	7.27	-49.4	-50.7	14.4	0.00e+00	0	26	0	286261248	64	4339
2026-01-13 14:30:32.04	237.25	7.43	-49.4	-50.8	14.4	0.00e+00	0	26	0	303038464	64	4358
2026-01-13 14:30:35.03	237.62	7.59	-49.5	-51.0	14.3	0.00e+00	0	26	0	319815680	64	4442
2026-01-13 14:30:38.02	237.99	7.75	-49.2	-50.6	14.5	0.00e+00	0	26	0	336592896	64	4259
2026-01-13 14:30:41.02	238.36	7.91	-49.3	-50.7	14.5	0.00e+00	0	26	0	353370112	64	4293
2026-01-13 14:30:44.01	238.74	8.07	-49.2	-50.5	14.5	0.00e+00	0	26	0	370147328	64	4225
2026-01-13 14:30:47.01	239.12	8.23	-49.1	-50.4	14.6	0.00e+00	0	26	0	386924544	64	4190
2026-01-13 14:30:50.01	239.50	8.38	-49.1	-50.4	14.6	0.00e+00	0	26	0	403701760	64	4180
2026-01-13 14:30:53.02	239.90	8.54	-49.0	-50.3	14.6	0.00e+00	0	26	0	420478976	64	4130
2026-01-13 14:30:56.02	240.29	8.70	-49.0	-50.3	14.7	0.00e+00	0	26	0	437256192	64	4109
2026-01-13 14:30:59.03	240.69	8.86	-48.8	-50.1	14.7	0.00e+00	0	26	0	455081984	64	4050
2026-01-13 14:31:02.03	241.09	9.02	-48.8	-50.0	14.8	0.00e+00	0	26	0	471859200	64	4004
2026-01-13 14:31:05.03	241.50	9.18	-48.5	-49.7	14.8	0.00e+00	0	26	0	488636416	63	4089
2026-01-13 14:31:08.02	241.91	9.34	-48.6	-49.8	14.7	0.00e+00	0	26	0	505413632	63	4128
2026-01-13 14:31:11.02	242.32	9.50	-48.7	-50.0	14.6	0.00e+00	0	26	0	522190848	63	4235
2026-01-13 14:31:13.99	242.74	9.65	-48.7	-50.0	14.7	0.00e+00	0	27	0	538968064	63	4214
2026-01-13 14:31:16.98	243.16	9.81	-48.8	-50.0	14.6	0.00e+00	0	26	0	555745280	63	4241
2026-01-13 14:31:19.97	243.59	9.96	-48.8	-50.0	14.7	0.00e+00	0	26	0	572522496	63	4235
2026-01-13 14:31:22.97	244.02	10.12	-48.6	-49.9	14.7	0.00e+00	0	27	0	589299712	63	4168
2026-01-13 14:31:25.97	244.46	10.28	-48.7	-50.0	14.7	0.00e+00	0	26	0	606076928	63	4197
2026-01-13 14:31:28.99	244.91	10.43	-48.6	-49.8	14.7	0.00e+00	0	26	0	622854144	63	4131
2026-01-13 14:31:31.99	245.35	10.59	-48.6	-49.9	14.7	0.00e+00	0	26	0	639631360	63	4164
2026-01-13 14:31:34.98	245.80	10.74	-48.6	-49.9	14.7	0.00e+00	0	26	0	656408576	63	4177
2026-01-13 14:31:37.98	246.26	10.90	-48.5	-49.7	14.8	0.00e+00	0	26	0	673185792	63	4073
2026-01-13 14:31:40.97	246.72	11.05	-48.3	-49.5	14.9	0.00e+00	0	26	0	691011584	63	3990
2026-01-13 14:31:43.96	247.18	11.20	-48.3	-49.5	14.9	0.00e+00	0	26	0	707788800	63	3998
2026-01-13 14:31:46.97	247.65	11.35	-48.3	-49.5	14.9	0.00e+00	0	26	0	724566016	63	3993
2026-01-13 14:31:49.97	248.12	11.50	-48.3	-49.5	14.9	0.00e+00	0	27	0	741343232	63	3985
2026-01-13 14:31:52.96	248.60	11.65	-48.3	-49.6	14.9	0.00e+00	0	27	0	758120448	63	4015
2026-01-13 14:31:55.96	249.09	11.80	-48.3	-49.5	14.9	0.00e+00	0	26	0	774897664	63	3974
2026-01-13 14:31:58.97	249.58	11.95	-48.2	-49.4	14.8	0.00e+00	0	26	0	791674880	62	4163
2026-01-13 14:32:01.96	250.07	12.10	-48.1	-49.3	14.9	0.00e+00	0	26	0	808452096	62	4110
2026-01-13 14:32:04.96	250.57	12.25	-48.0	-49.2	14.9	0.00e+00	0	26	0	825229312	62	4083
2026-01-13 14:32:07.94	251.07	12.39	-48.0	-49.2	14.9	0.00e+00	0	26	0	842006528	62	4067
2026-01-13 14:32:10.93	251.57	12.53	-47.9	-49.1	14.9	0.00e+00	0	27	0	858783744	62	4033
2026-01-13 14:32:13.92	252.08	12.68	-48.0	-49.2	14.9	0.00e+00	0	27	0	875560960	62	4053
2026-01-13 14:32:16.91	252.60	12.82	-48.1	-49.3	14.9	0.00e+00	0	27	0	892338176	62	4131
2026-01-13 14:32:19.91	253.12	12.96	-47.8	-49.0	15.0	0.00e+00	0	27	0	909115392	62	3993
2026-01-13 14:32:22.92	253.65	13.10	-47.9	-49.1	15.0	0.00e+00	0	26	0	926941184	62	4007
2026-01-13 14:32:25.92	254.18	13.24	-47.8	-49.0	15.0	0.00e+00	0	27	0	943718400	62	3999
2026-01-13 14:32:28.91	254.71	13.37	-47.9	-49.1	15.0	0.00e+00	0	27	0	960495616	62	4020
2026-01-13 14:32:31.90	255.25	13.50	-47.8	-49.0	15.0	0.00e+00	0	27	0	977272832	62	3975
2026-01-13 14:32:34.91	255.80	13.64	-47.8	-49.0	15.0	0.00e+00	0	27	0	994050048	62	3964
2026-01-13 14:32:37.91	256.35	13.77	-47.5	-48.7	15.0	0.00e+00	0	26	0	1010827264	61	4057
2026-01-13 14:32:40.92	256.91	13.90	-47.4	-48.5	15.1	0.00e+00	0	27	0	1027604480	61	3982
2026-01-13 14:32:43.92	257.47	14.03	-47.5	-48.7	15.0	0.00e+00	0	27	0	1044381696	61	4057
2026-01-13 14:32:46.90	258.03	14.15	-47.5	-48.7	15.0	0.00e+00	0	27	0	1061158912	61	4078
2026-01-13 14:32:49.90	258.60	14.28	-47.5	-48.7	15.0	0.00e+00	0	27	0	1077936128	61	4061
2026-01-13 14:32:52.90	259.17	14.40	-47.5	-48.7	14.9	0.00e+00	0	27	0	1094713344	61	4077
2026-01-13 14:32:55.90	259.75	14.52	-47.6	-48.7	14.9	0.00e+00	0	27	0	1111490560	61	4093
2026-01-13 14:32:58.90	260.33	14.64	-47.7	-48.8	14.9	0.00e+00	0	27	0	1128267776	61	4145
2026-01-13 14:33:01.90	260.92	14.75	-47.7	-49.0	14.9	0.00e+00	0	27	0	1146093568	61	4194
2026-01-13 14:33:04.89	261.51	14.86	-47.3	-48.5	15.0	0.00e+00	0	27	0	1162870784	61	3981
2026-01-13 14:33:07.86	262.10	14.97	-47.4	-48.5	15.0	0.00e+00	0	26	0	1179648000	61	3997
2026-01-13 14:33:10.86	262.70	15.08	-47.4	-48.6	15.0	0.00e+00	0	27	0	1196425216	61	4011
2026-01-13 14:33:13.86	263.30	15.19	-47.5	-48.7	15.0	0.00e+00	0	27	0	1213202432	61	4053
2026-01-13 14:33:16.85	263.91	15.29	-47.2	-48.4	15.1	0.00e+00	0	27	0	1229979648	61	3915
2026-01-13 14:33:19.84	264.52	15.39	-47.2	-48.3	15.0	0.00e+00	0	26	0	1246756864	60	4121
2026-01-13 14:33:22.82	265.13	15.49	-47.0	-48.2	15.0	0.00e+00	0	27	0	1263534080	60	4053
2026-01-13 14:33:25.81	265.75	15.58	-47.2	-48.3	15.0	0.00e+00	0	27	0	1280311296	60	4116
2026-01-13 14:33:28.81	266.38	15.68	-47.2	-48.4	15.0	0.00e+00	0	27	0	1297088512	60	4151
2026-01-13 14:33:31.80	267.00	15.77	-47.1	-48.2	15.0	0.00e+00	0	26	0	1313865728	60	4087
2026-01-13 14:33:34.81	267.63	15.85	-47.1	-48.3	15.0	0.00e+00	0	27	0	1330642944	60	4117
2026-01-13 14:33:37.80	268.27	15.94	-47.2	-48.4	15.0	0.00e+00	0	27	0	1347420160	60	4158
2026-01-13 14:33:40.79	268.90	16.02	-47.3	-48.5	14.9	0.00e+00	0	27	0	1364197376	60	4202
2026-01-13 14:33:43.78	269.54	16.10	-47.3	-48.4	14.9	0.00e+00	0	26	0	1380974592	60	4170
2026-01-13 14:33:46.77	270.19	16.17	-47.2	-48.3	15.0	0.00e+00	0	27	0	1397751808	60	4115
2026-01-13 14:33:49.77	270.83	16.24	-47.4	-48.6	14.9	0.00e+00	0	27	0	1414529024	60	4262
2026-01-13 14:33:52.76	271.48	16.31	-47.3	-48.5	14.9	0.00e+00	0	27	0	1432354816	60	4226
2026-01-13 14:33:55.77	272.14	16.38	-47.1	-48.3	15.0	0.00e+00	0	27	0	1449132032	60	4109
2026-01-13 14:33:58.77	272.79	16.44	-47.2	-48.4	15.0	0.00e+00	0	26	0	1465909248	60	4147
2026-01-13 14:34:01.76	273.45	16.50	-47.1	-48.3	15.0	0.00e+00	0	27	0	1482686464	60	4100
2026-01-13 14:34:04.74	274.11	16.55	-47.5	-48.6	14.9	0.00e+00	0	27	0	1499463680	60	4283
2026-01-13 14:34:07.74	274.77	16.60	-47.3	-48.5	14.9	0.00e+00	0	27	0	1516240896	60	4208
2026-01-13 14:34:10.74	275.43	16.65	-47.1	-48.2	15.0	0.00e+00	0	27	0	1533018112	60	4088
2026-01-13 14:34:13.74	276.10	16.69	-47.1	-48.2	15.0	0.00e+00	0	27	0	1549795328	60	4091
2026-01-13 14:34:16.74	276.77	16.73	-47.1	-48.2	15.0	0.00e+00	0	26	0	1566572544	60	4073
2026-01-13 14:34:19.73	277.44	16.77	-47.1	-48.2	15.0	0.00e+00	0	27	0	1583349760	60	4082
2026-01-13 14:34:22.72	278.11	16.80	-47.1	-48.2	15.0	0.00e+00	0	27	0	1600126976	60	4093
2026-01-13 14:34:25.70	278.78	16.83	-47.3	-48.4	14.9	0.00e+00	0	27	0	1616904192	60	4193
2026-01-13 14:34:28.70	279.45	16.86	-47.0	-48.1	15.0	0.00e+00	0	27	0	1633681408	60	4040
2026-01-13 14:34:31.69	280.13	16.88	-47.0	-48.2	15.0	0.00e+00	0	27	0	1650458624	60	4061
2026-01-13 14:34:34.68	280.80	16.90	-47.1	-48.2	15.0	0.00e+00	0	26	0	1667235840	60	4082
2026-01-13 14:34:37.67	281.47	16.91	-47.2	-48.3	15.0	0.00e+00	0	27	0	1684013056	60	4120
2026-01-13 14:34:40.67	282.15	16.92	-47.2	-48.3	15.0	0.00e+00	0	27	0	1701838848	60	4136
2026-01-13 14:34:43.67	282.83	16.93	-47.2	-48.3	15.0	0.00e+00	0	27	0	1718616064	60	4131
2026-01-13 14:34:46.66	283.51	16.93	-47.3	-48.4	15.0	0.00e+00	0	27	0	1734344704	60	4171
2026-01-13 14:34:49.65	284.18	16.93	-47.3	-48.4	14.9	0.00e+00	0	27	0	1752170496	60	4192
2026-01-13 14:34:52.63	284.86	16.93	-47.3	-48.5	14.9	0.00e+00	0	27	0	1768947712	60	4198
2026-01-13 14:34:55.62	285.53	16.92	-47.3	-48.4	14.9	0.00e+00	0	27	0	1785724928	60	4193
2026-01-13 14:34:58.62	286.21	16.91	-47.5	-48.7	14.9	0.00e+00	0	27	0	1802502144	60	4296
2026-01-13 14:35:01.60	286.88	16.89	-47.5	-48.6	14.9	0.00e+00	0	27	0	1819279360	60	4275
2026-01-13 14:35:04.60	287.56	16.87	-47.5	-48.6	14.9	0.00e+00	0	27	0	1836056576	60	4273
2026-01-13 14:35:07.60	288.23	16.85	-47.6	-48.8	14.9	0.00e+00	0	27	0	1852833792	60	4349
2026-01-13 14:35:10.61	288.91	16.82	-47.4	-48.5	14.9	0.00e+00	0	27	0	1869611008	60	4230
2026-01-13 14:35:13.61	289.58	16.79	-47.2	-48.3	15.0	0.00e+00	0	27	0	1886388224	60	4132
2026-01-13 14:35:16.60	290.25	16.76	-47.3	-48.5	14.9	0.00e+00	0	27	0	1903165440	60	4209
2026-01-13 14:35:19.58	290.91	16.72	-47.4	-48.6	14.9	0.00e+00	0	27	0	1919942656	60	4269
2026-01-13 14:35:22.58	291.58	16.68	-47.6	-48.7	14.9	0.00e+00	0	27	0	1936719872	60	4337
2026-01-13 14:35:25.58	292.25	16.63	-47.6	-48.7	14.9	0.00e+00	0	27	0	1953497088	60	4335
2026-01-13 14:35:28.59	292.91	16.58	-47.6	-48.7	14.9	0.00e+00	0	27	0	1970274304	60	4338
2026-01-13 14:35:31.58	293.57	16.53	-47.6	-48.7	14.9	0.00e+00	0	27	0	1988100096	60	4327
2026-01-13 14:35:34.58	294.23	16.47	-47.7	-48.9	14.8	0.00e+00	0	27	0	2004877312	60	4392
2026-01-13 14:35:37.58	294.89	16.41	-48.0	-49.2	14.8	0.00e+00	0	27	0	2021654528	61	4297
2026-01-13 14:35:40.57	295.54	16.35	-48.0	-49.2	14.8	0.00e+00	0	27	0	2038431744	61	4296
2026-01-13 14:35:43.57	296.19	16.28	-47.8	-48.9	14.9	0.00e+00	0	27	0	2055208960	61	4180
2026-01-13 14:35:46.57	296.84	16.21	-47.8	-49.0	14.9	0.00e+00	0	27	0	2071986176	61	4224
2026-01-13 14:35:49.57	297.48	16.14	-47.6	-48.8	14.9	0.00e+00	0	27	0	2088763392	61	4123
2026-01-13 14:35:52.56	298.12	16.07	-47.8	-49.0	14.9	0.00e+00	0	27	0	2105540608	61	4196
2026-01-13 14:35:55.58	298.76	15.99	-48.0	-49.2	14.8	0.00e+00	0	27	0	2122317824	61	4302
2026-01-13 14:35:58.58	299.40	15.91	-48.1	-49.3	14.8	0.00e+00	0	27	0	2139095040	61	4354
2026-01-13 14:36:01.58	300.03	15.82	-48.1	-49.3	14.8	0.00e+00	0	27	0	2156920832	61	4383
2026-01-13 14:36:04.59	300.66	15.73	-48.0	-49.2	14.8	0.00e+00	0	27	0	2173698048	61	4298
2026-01-13 14:36:07.60	301.29	15.64	-47.9	-49.0	14.9	0.00e+00	0	27	0	2190475264	61	4234
2026-01-13 14:36:10.59	301.91	15.55	-47.9	-49.1	14.8	0.00e+00	0	27	0	2207252480	61	4247
2026-01-13 14:36:13.59	302.53	15.45	-47.8	-49.0	14.9	0.00e+00	0	27	0	2224029696	61	4227
2026-01-13 14:36:16.58	303.14	15.35	-47.8	-49.0	14.9	0.00e+00	0	27	0	2240806912	61	4202
2026-01-13 14:36:19.57	303.74	15.25	-47.8	-49.0	14.9	0.00e+00	0	27	0	2257584128	61	4235
2026-01-13 14:36:22.58	304.35	15.15	-47.9	-49.0	14.9	0.00e+00	0	27	0	2274361344	61	4241
2026-01-13 14:36:25.58	304.95	15.04	-47.9	-49.1	14.8	0.00e+00	0	27	0	2291138560	61	4248
2026-01-13 14:36:28.57	305.55	14.93	-48.0	-49.2	14.8	0.00e+00	0	27	0	2307915776	61	4336
2026-01-13 14:36:31.57	306.14	14.82	-48.1	-49.3	14.8	0.00e+00	0	27	0	2324692992	61	4346
2026-01-13 14:36:34.58	306.73	14.71	-48.1	-49.3	14.7	0.00e+00	0	27	0	2342518784	61	4391
2026-01-13 14:36:37.59	307.31	14.59	-48.1	-49.3	14.7	0.00e+00	0	27	0	2359296000	61	4380
2026-01-13 14:36:40.60	307.89	14.47	-48.1	-49.3	14.8	0.00e+00	0	27	0	2376073216	61	4346
2026-01-13 14:36:43.62	308.47	14.35	-48.1	-49.3	14.8	0.00e+00	0	27	0	2392850432	61	4391
2026-01-13 14:36:46.60	309.04	14.23	-48.2	-49.4	14.7	0.00e+00	0	27	0	2409627648	61	4439
2026-01-13 14:36:49.60	309.60	14.10	-48.1	-49.3	14.7	0.00e+00	0	27	0	2426404864	61	4379
2026-01-13 14:36:52.60	310.17	13.98	-48.2	-49.4	14.7	0.00e+00	0	27	0	2443182080	61	4437
2026-01-13 14:36:55.60	310.72	13.85	-48.3	-49.5	14.7	0.00e+00	0	27	0	2459959296	61	4462
2026-01-13 14:36:58.61	311.27	13.72	-48.1	-49.3	14.8	0.00e+00	0	27	0	2477785088	61	4346
2026-01-13 14:37:01.62	311.82	13.59	-48.2	-49.4	14.7	0.00e+00	0	27	0	2494562304	61	4414
2026-01-13 14:37:04.62	312.37	13.46	-48.3	-49.5	14.7	0.00e+00	0	27	0	2511339520	61	4452
2026-01-13 14:37:07.61	312.90	13.32	-48.2	-49.4	14.7	0.00e+00	0	27	0	2528116736	61	4419
2026-01-13 14:37:10.62	313.44	13.19	-48.1	-49.3	14.7	0.00e+00	0	27	0	2544893952	61	4371
2026-01-13 14:37:13.61	313.96	13.05	-48.3	-49.5	14.7	0.00e+00	0	27	0	2561671168	61	4472
2026-01-13 14:37:16.60	314.48	12.91	-48.5	-49.7	14.7	0.00e+00	0	27	0	2578448384	62	4316
2026-01-13 14:37:19.59	315.00	12.77	-48.5	-49.8	14.7	0.00e+00	0	27	0	2595225600	62	4345
2026-01-13 14:37:22.60	315.51	12.63	-48.6	-49.8	14.6	0.00e+00	0	27	0	2612002816	62	4373
2026-01-13 14:37:25.60	316.02	12.49	-48.6	-49.9	14.6	0.00e+00	0	27	0	2628780032	62	4396
2026-01-13 14:37:28.60	316.53	12.34	-48.6	-49.9	14.6	0.00e+00	0	27	0	2645557248	62	4413
2026-01-13 14:37:31.60	317.03	12.20	-48.7	-50.0	14.6	0.00e+00	0	27	0	2662334464	62	4469
2026-01-13 14:37:34.62	317.52	12.05	-48.7	-49.9	14.6	0.00e+00	0	27	0	2680160256	62	4441
2026-01-13 14:37:37.62	318.01	11.90	-48.7	-50.0	14.6	0.00e+00	0	27	0	2696937472	62	4472
2026-01-13 14:37:40.62	318.50	11.76	-48.8	-50.1	14.5	0.00e+00	0	27	0	2713714688	62	4513
2026-01-13 14:37:43.62	318.98	11.61	-48.7	-50.0	14.6	0.00e+00	0	27	0	2730491904	62	4471
2026-01-13 14:37:46.62	319.45	11.46	-48.6	-49.9	14.6	0.00e+00	0	27	0	2747269120	62	4426
2026-01-13 14:37:49.62	319.92	11.31	-48.6	-49.8	14.6	0.00e+00	0	27	0	2764046336	62	4374
2026-01-13 14:37:52.62	320.39	11.16	-48.5	-49.7	14.7	0.00e+00	0	27	0	2780823552	62	4335
2026-01-13 14:37:55.64	320.85	11.00	-48.7	-50.0	14.6	0.00e+00	0	27	0	2797600768	62	4464
2026-01-13 14:37:58.64	321.31	10.85	-48.9	-50.2	14.5	0.00e+00	0	27	0	2814377984	62	4576
2026-01-13 14:38:01.63	321.76	10.70	-48.9	-50.2	14.6	0.00e+00	0	27	0	2831155200	63	4333
2026-01-13 14:38:04.64	322.21	10.54	-48.9	-50.2	14.6	0.00e+00	0	27	0	2848980992	63	4303
2026-01-13 14:38:07.64	322.65	10.39	-48.9	-50.2	14.5	0.00e+00	0	27	0	2865758208	63	4332
2026-01-13 14:38:10.65	323.09	10.24	-48.9	-50.2	14.6	0.00e+00	0	27	0	2882535424	63	4316
2026-01-13 14:38:13.65	323.53	10.08	-49.0	-50.3	14.5	0.00e+00	0	27	0	2899312640	63	4343
2026-01-13 14:38:16.64	323.96	9.92	-49.1	-50.4	14.5	0.00e+00	0	27	0	2916089856	63	4422
2026-01-13 14:38:19.64	324.38	9.77	-49.2	-50.6	14.4	0.00e+00	0	27	0	2932867072	63	4514
2026-01-13 14:38:22.64	324.80	9.61	-49.2	-50.5	14.4	0.00e+00	0	27	0	2949644288	63	4469
2026-01-13 14:38:25.64	325.22	9.46	-49.2	-50.5	14.4	0.00e+00	0	27	0	2966421504	63	4477
2026-01-13 14:38:28.64	325.63	9.30	-49.2	-50.5	14.4	0.00e+00	0	27	0	2983198720	63	4472
2026-01-13 14:38:31.64	326.04	9.14	-49.3	-50.7	14.4	0.00e+00	0	27	0	2999975936	63	4551
2026-01-13 14:38:34.65	326.44	8.98	-49.4	-50.8	14.4	0.00e+00	0	27	0	3017801728	64	4376
2026-01-13 14:38:37.65	326.84	8.83	-49.3	-50.6	14.5	0.00e+00	0	27	0	3034578944	64	4272
2026-01-13 14:38:40.65	327.24	8.67	-49.3	-50.7	14.4	0.00e+00	0	27	0	3051356160	64	4303
2026-01-13 14:38:43.66	327.63	8.51	-49.2	-50.5	14.5	0.00e+00	0	27	0	3068133376	64	4238
2026-01-13 14:38:46.66	328.02	8.35	-49.2	-50.6	14.5	0.00e+00	0	27	0	3084910592	64	4255
2026-01-13 14:38:49.66	328.40	8.19	-49.2	-50.6	14.5	0.00e+00	0	27	0	3101687808	64	4248
2026-01-13 14:38:52.66	328.78	8.04	-49.3	-50.7	14.4	0.00e+00	0	27	0	3118465024	64	4328
2026-01-13 14:38:55.66	329.16	7.88	-49.6	-51.0	14.3	0.00e+00	0	27	0	3135242240	64	4465
2026-01-13 14:38:58.65	329.53	7.72	-49.8	-51.2	14.1	0.00e+00	0	27	0	3152019456	64	4587
2026-01-13 14:39:01.65	329.90	7.56	-50.0	-51.4	14.2	0.00e+00	0	27	0	3168796672	65	4433
2026-01-13 14:39:04.65	330.26	7.40	-50.0	-51.4	14.1	0.00e+00	0	27	0	3185573888	65	4440
2026-01-13 14:39:07.64	330.62	7.25	-50.1	-51.5	14.1	0.00e+00	0	27	0	3203399680	65	4487
2026-01-13 14:39:10.65	330.98	7.09	-50.0	-51.4	14.1	0.00e+00	0	27	0	3220176896	65	4438
2026-01-13 14:39:13.65	331.33	6.93	-50.1	-51.6	14.0	0.00e+00	0	27	0	3236954112	65	4526
2026-01-13 14:39:16.65	331.68	6.77	-50.1	-51.5	14.1	0.00e+00	0	27	0	3253731328	65	4491
2026-01-13 14:39:19.64	332.02	6.61	-50.1	-51.6	14.0	0.00e+00	0	27	0	3270508544	65	4510
2026-01-13 14:39:22.64	332.36	6.46	-50.1	-51.7	14.0	0.00e+00	0	27	0	3287285760	65	4551
2026-01-13 14:39:25.64	332.70	6.30	-50.4	-51.9	13.9	0.00e+00	0	27	0	3304062976	65	4700
2026-01-13 14:39:28.64	333.04	6.14	-50.1	-51.7	14.0	0.00e+00	0	27	0	3320840192	65	4550
2026-01-13 14:39:31.62	333.37	5.98	-50.3	-51.9	13.9	0.00e+00	0	27	0	3337617408	65	4673
2026-01-13 14:39:34.63	333.70	5.83	-50.5	-52.1	13.9	0.00e+00	0	27	0	3354394624	66	4517
2026-01-13 14:39:37.63	334.02	5.67	-50.5	-52.0	13.9	0.00e+00	0	27	0	3371171840	66	4492
2026-01-13 14:39:40.63	334.34	5.51	-50.4	-52.0	13.8	0.00e+00	0	27	0	3388997632	66	4486
2026-01-13 14:39:43.63	334.66	5.36	-50.4	-51.9	13.8	0.00e+00	0	27	0	3405774848	66	4435
2026-01-13 14:39:46.64	334.98	5.20	-50.1	-51.7	14.0	0.00e+00	0	27	0	3422552064	66	4306
2026-01-13 14:39:49.65	335.29	5.04	-50.3	-51.8	13.9	0.00e+00	0	27	0	3439329280	66	4390
2026-01-13 14:39:52.65	335.60	4.89	-59.2	-72.3	3.8	8.45e-01	0	27	104	3446669312	83	17414
2026-01-13 14:39:55.64	335.90	4.73	-59.9	-73.0	3.8	8.45e-01	0	27	104	3446669312	84	17697
2026-01-13 14:39:58.65	336.21	4.58	-60.2	-73.3	3.8	8.45e-01	0	27	104	3446669312	85	17335
2026-01-13 14:40:01.65	336.51	4.42	-60.3	-73.4	3.8	8.46e-01	0	27	104	3446669312	85	17668
2026-01-13 14:40:04.66	336.80	4.27	-60.4	-73.4	3.8	8.46e-01	0	27	104	3446669312	85	17650
2026-01-13 14:40:07.65	337.10	4.11	-60.4	-73.5	3.8	8.46e-01	0	27	104	3446669312	85	17732
2026-01-13 14:40:10.64	337.38	3.96	-60.3	-73.4	3.8	8.46e-01	0	27	104	3446669312	85	17670
2026-01-13 14:40:13.64	337.67	3.81	-60.3	-73.3	3.8	8.45e-01	0	27	104	3446669312	85	17445
2026-01-13 14:40:16.64	337.96	3.65	-60.2	-73.3	3.8	8.46e-01	0	27	104	3446669312	85	17395
2026-01-13 14:40:19.63	338.24	3.50	-60.2	-73.3	3.8	8.45e-01	0	27	104	3446669312	85	17383
2026-01-13 14:40:22.61	338.52	3.35	-60.2	-73.3	3.8	8.46e-01	0	27	104	3446669312	85	17370
2026-01-13 14:40:25.59	338.79	3.20	-60.1	-73.2	3.8	8.46e-01	0	27	104	3446669312	85	17281
2026-01-13 14:40:28.57	339.06	3.05	-60.1	-73.2	3.8	8.46e-01	0	27	104	3446669312	85	17212
2026-01-13 14:40:31.56	339.33	2.89	-60.1	-73.2	3.8	8.46e-01	0	27	104	3446669312	85	17252
2026-01-13 14:40:34.55	339.60	2.74	-60.1	-73.2	3.8	8.46e-01	0	27	104	3446669312	85	17240
2026-01-13 14:40:37.54	339.87	2.59	-60.1	-73.2	3.8	8.44e-01	0	27	104	3446669312	85	17246
2026-01-13 14:40:40.54	340.13	2.44	-60.1	-73.2	3.8	8.46e-01	0	27	104	3446669312	85	17198
2026-01-13 14:40:43.54	340.39	2.29	-60.1	-73.2	3.8	8.44e-01	0	27	104	3446669312	85	17170
2026-01-13 14:40:46.55	340.65	2.14	-60.1	-73.2	3.8	8.45e-01	0	27	104	3446669312	85	17210

#Closed at: 2026-01-13 14:40:49
#Recorded file [3446 MB]: D:/lorett/data/31004_260113_172849.dat