passes_logs/2026/01/13/R3.2S_Murmansk/R3.2S_Murmansk__20260113_034932_NOAA_20_JPSS-1_rec.log

#Pass ID: 20260113_034932_NOAA 20 (JPSS-1)
#Satellite: NOAA 20 (JPSS-1)
#Configuration: NOAA 20
#almurnet v.1.7.20251203
#Start time: 2026-01-13 03:49:33

#Version: 2.2.20231116
#Station: R3.2S_Murmansk
#Location: 33.079688 lon 68.888172 lat
#TLE: 1 43013U 17073A   26012.29914746  .00000087  00000+0  62270-4 0  9997
#TLE: 2 43013  98.7632 313.2670 0001616  43.2193 316.9110 14.19535514422351

#Time	Az	El	Level	Level2	SNR	BER	BlckErr	Temp	State	Recorded	gain1	gain2
2026-01-13 03:49:33.86	45.19	2.05	-57.1	-73.0	3.8	1.49e+00	0	20	0	0	80	22440
2026-01-13 03:49:37.85	44.96	2.29	-57.0	-73.0	3.8	1.49e+00	0	20	104	0	79	23723
2026-01-13 03:49:41.85	44.73	2.52	-57.0	-73.0	3.8	1.49e+00	0	20	104	0	79	23658
2026-01-13 03:49:45.84	44.49	2.76	-57.0	-73.0	3.8	1.49e+00	0	21	104	0	79	23733
2026-01-13 03:49:49.85	44.24	3.00	-57.0	-73.0	3.8	1.49e+00	0	21	104	0	79	23585
2026-01-13 03:49:53.85	44.00	3.23	-57.0	-73.0	3.8	1.49e+00	0	21	104	0	79	23685
2026-01-13 03:49:57.84	43.74	3.47	-57.0	-73.0	3.8	1.49e+00	0	21	104	0	79	23658
2026-01-13 03:50:01.85	43.49	3.72	-57.0	-73.0	3.8	1.49e+00	0	21	104	0	79	23738
2026-01-13 03:50:05.86	43.23	3.96	-57.0	-72.6	3.8	1.49e+00	0	21	104	0	79	22651
2026-01-13 03:50:09.86	42.96	4.21	-57.0	-71.0	3.8	1.49e+00	0	21	104	0	79	18857
2026-01-13 03:50:13.86	42.69	4.45	-56.8	-68.1	4.7	9.44e-01	0	21	0	1048576	79	13500
2026-01-13 03:50:17.86	42.41	4.70	-56.4	-64.8	6.7	2.23e-01	0	21	0	8388608	79	9181
2026-01-13 03:50:21.85	42.13	4.95	-56.4	-64.3	7.1	1.27e-01	0	21	0	15728640	79	8719
2026-01-13 03:50:25.85	41.85	5.20	-56.8	-69.9	4.1	7.92e-02	0	21	0	24117248	78	17664
2026-01-13 03:50:29.84	41.56	5.46	-54.7	-58.6	12.3	4.27e-05	0	21	0	29360128	76	5384
2026-01-13 03:50:33.82	41.26	5.71	-54.3	-58.0	12.8	5.30e-06	0	21	0	37748736	75	5287
2026-01-13 03:50:37.80	40.96	5.97	-54.1	-57.4	13.1	0.00e+00	0	22	0	45088768	74	5245
2026-01-13 03:50:41.79	40.66	6.23	-53.8	-57.0	13.5	0.00e+00	0	22	0	52428800	74	4989
2026-01-13 03:50:45.78	40.35	6.49	-53.7	-56.8	13.5	0.00e+00	0	22	0	59768832	73	5170
2026-01-13 03:50:49.79	40.03	6.75	-53.6	-56.5	13.7	0.00e+00	0	21	0	67108864	73	5040
2026-01-13 03:50:53.79	39.70	7.01	-53.6	-56.5	13.7	0.00e+00	0	22	0	74448896	73	5005
2026-01-13 03:50:57.78	39.37	7.28	-53.5	-56.4	13.8	0.00e+00	0	21	0	81788928	73	4944
2026-01-13 03:51:01.78	39.03	7.55	-53.6	-56.4	13.8	0.00e+00	0	22	0	90177536	73	4953
2026-01-13 03:51:05.78	38.69	7.82	-53.6	-56.4	13.8	0.00e+00	0	22	0	97517568	73	4940
2026-01-13 03:51:09.77	38.34	8.09	-53.5	-56.3	13.9	0.00e+00	0	22	0	104857600	73	4875
2026-01-13 03:51:13.77	37.98	8.36	-53.6	-56.4	13.8	0.00e+00	0	22	0	112197632	73	4972
2026-01-13 03:51:17.75	37.62	8.64	-53.7	-56.6	13.7	0.00e+00	0	22	0	119537664	73	5073
2026-01-13 03:51:21.76	37.25	8.91	-53.7	-56.5	13.8	0.00e+00	0	22	0	126877696	73	5030
2026-01-13 03:51:25.77	36.87	9.19	-53.5	-56.3	14.0	0.00e+00	0	22	0	135266304	73	4874
2026-01-13 03:51:29.75	36.48	9.47	-53.7	-56.5	13.8	0.00e+00	0	22	0	142606336	73	5001
2026-01-13 03:51:33.74	36.09	9.76	-53.5	-56.2	14.0	0.00e+00	0	22	0	149946368	73	4824
2026-01-13 03:51:37.72	35.69	10.04	-53.5	-56.2	14.0	0.00e+00	0	22	0	157286400	73	4845
2026-01-13 03:51:41.71	35.28	10.33	-53.4	-56.1	14.2	0.00e+00	0	22	0	164626432	73	4763
2026-01-13 03:51:45.69	34.86	10.61	-53.6	-56.3	14.0	0.00e+00	0	22	0	171966464	73	4895
2026-01-13 03:51:49.69	34.43	10.90	-53.4	-56.1	14.2	0.00e+00	0	22	0	179306496	73	4763
2026-01-13 03:51:53.69	34.00	11.20	-53.3	-55.8	14.4	0.00e+00	0	22	0	186646528	73	4608
2026-01-13 03:51:57.68	33.55	11.49	-53.0	-55.4	14.5	0.00e+00	0	22	0	195035136	72	4665
2026-01-13 03:52:01.69	33.10	11.78	-53.1	-55.5	14.4	0.00e+00	0	22	0	202375168	72	4719
2026-01-13 03:52:05.69	32.63	12.08	-53.1	-55.5	14.4	0.00e+00	0	22	0	209715200	72	4712
2026-01-13 03:52:09.69	32.16	12.38	-53.1	-55.6	14.4	0.00e+00	0	22	0	217055232	72	4783
2026-01-13 03:52:13.69	31.67	12.68	-53.1	-55.5	14.4	0.00e+00	0	22	0	224395264	72	4724
2026-01-13 03:52:17.69	31.18	12.98	-53.1	-55.5	14.4	0.00e+00	0	22	0	231735296	72	4716
2026-01-13 03:52:21.69	30.67	13.29	-53.0	-55.3	14.6	0.00e+00	0	22	0	239075328	72	4640
2026-01-13 03:52:25.68	30.16	13.59	-53.0	-55.3	14.6	0.00e+00	0	22	0	247463936	72	4635
2026-01-13 03:52:29.68	29.63	13.90	-52.9	-55.2	14.6	0.00e+00	0	22	0	254803968	72	4598
2026-01-13 03:52:33.68	29.09	14.21	-52.8	-55.1	14.7	0.00e+00	0	22	0	262144000	72	4501
2026-01-13 03:52:37.65	28.55	14.52	-52.7	-54.9	14.9	0.00e+00	0	22	0	269484032	72	4429
2026-01-13 03:52:41.62	27.99	14.83	-52.5	-54.7	14.9	0.00e+00	0	22	0	276824064	71	4552
2026-01-13 03:52:45.61	27.42	15.14	-52.5	-54.6	14.9	0.00e+00	0	22	0	284164096	71	4544
2026-01-13 03:52:49.60	26.83	15.45	-52.6	-54.7	14.8	0.00e+00	0	22	0	291504128	71	4564
2026-01-13 03:52:53.59	26.23	15.76	-52.5	-54.7	14.9	0.00e+00	0	22	0	299892736	71	4546
2026-01-13 03:52:57.59	25.62	16.08	-52.5	-54.5	14.9	0.00e+00	0	22	0	307232768	71	4489
2026-01-13 03:53:01.58	25.00	16.39	-52.3	-54.4	15.1	0.00e+00	0	22	0	314572800	71	4400
2026-01-13 03:53:05.58	24.36	16.71	-52.6	-54.7	14.9	0.00e+00	0	22	0	321912832	71	4554
2026-01-13 03:53:09.58	23.71	17.02	-52.6	-54.7	14.8	0.00e+00	0	22	0	329252864	71	4595
2026-01-13 03:53:13.56	23.04	17.34	-52.8	-55.0	14.6	0.00e+00	0	22	0	336592896	71	4758
2026-01-13 03:53:17.57	22.36	17.65	-52.7	-54.8	14.8	0.00e+00	0	22	0	343932928	71	4634
2026-01-13 03:53:21.57	21.67	17.97	-52.8	-55.0	14.7	0.00e+00	0	22	0	352321536	71	4714
2026-01-13 03:53:25.58	20.95	18.29	-52.6	-54.7	14.9	0.00e+00	0	22	0	359661568	71	4561
2026-01-13 03:53:29.58	20.23	18.60	-52.6	-54.8	14.8	0.00e+00	0	22	0	367001600	71	4606
2026-01-13 03:53:33.57	19.49	18.91	-52.8	-55.0	14.7	0.00e+00	0	22	0	374341632	71	4732
2026-01-13 03:53:37.56	18.74	19.23	-52.7	-54.9	14.8	0.00e+00	0	22	0	381681664	71	4669
2026-01-13 03:53:41.54	17.97	19.54	-52.6	-54.7	14.9	0.00e+00	0	22	0	389021696	71	4559
2026-01-13 03:53:45.54	17.18	19.85	-52.5	-54.6	14.9	0.00e+00	0	22	0	396361728	71	4533
2026-01-13 03:53:49.53	16.38	20.15	-52.4	-54.4	15.1	0.00e+00	0	22	0	404750336	71	4425
2026-01-13 03:53:53.53	15.56	20.46	-52.3	-54.4	15.1	0.00e+00	0	22	0	412090368	71	4392
2026-01-13 03:53:57.53	14.72	20.76	-52.0	-53.9	15.2	0.00e+00	0	22	0	419430400	70	4417
2026-01-13 03:54:01.53	13.86	21.06	-51.7	-53.5	15.4	0.00e+00	0	22	0	426770432	70	4242
2026-01-13 03:54:05.50	13.00	21.35	-51.4	-53.2	15.4	0.00e+00	0	22	0	434110464	69	4311
2026-01-13 03:54:09.51	12.11	21.65	-51.1	-52.8	15.5	0.00e+00	0	22	0	441450496	68	4365
2026-01-13 03:54:13.51	11.20	21.94	-51.2	-52.9	15.4	0.00e+00	0	22	0	448790528	68	4421
2026-01-13 03:54:17.51	10.28	22.22	-51.0	-52.6	15.6	0.00e+00	0	22	0	457179136	68	4285
2026-01-13 03:54:21.51	9.34	22.50	-51.1	-52.8	15.5	0.00e+00	0	22	0	464519168	68	4348
2026-01-13 03:54:25.50	8.39	22.77	-51.0	-52.7	15.6	0.00e+00	0	22	0	471859200	68	4295
2026-01-13 03:54:29.49	7.42	23.04	-50.8	-52.5	15.7	0.00e+00	0	22	0	479199232	68	4200
2026-01-13 03:54:33.48	6.43	23.30	-51.2	-52.9	15.4	0.00e+00	0	22	0	486539264	68	4416
2026-01-13 03:54:37.47	5.43	23.55	-51.1	-52.8	15.5	0.00e+00	0	22	0	493879296	68	4347
2026-01-13 03:54:41.46	4.41	23.80	-51.1	-52.8	15.5	0.00e+00	0	22	0	501219328	68	4382
2026-01-13 03:54:45.47	3.37	24.03	-51.0	-52.6	15.6	0.00e+00	0	22	0	509607936	68	4265
2026-01-13 03:54:49.45	2.32	24.26	-50.7	-52.3	15.8	0.00e+00	0	22	0	516947968	68	4135
2026-01-13 03:54:53.46	1.24	24.49	-50.9	-52.6	15.6	0.00e+00	0	22	0	524288000	68	4261
2026-01-13 03:54:57.46	0.16	24.70	-50.6	-52.2	15.6	0.00e+00	0	22	0	531628032	67	4336
2026-01-13 03:55:01.46	359.06	24.90	-50.4	-51.9	15.7	0.00e+00	0	22	0	538968064	67	4170
2026-01-13 03:55:05.46	357.95	25.09	-50.7	-52.4	15.5	0.00e+00	0	22	0	546308096	67	4406
2026-01-13 03:55:09.46	356.82	25.28	-51.0	-52.7	15.3	0.00e+00	0	22	0	553648128	67	4571
2026-01-13 03:55:13.44	355.69	25.45	-51.3	-53.1	15.1	0.00e+00	0	22	0	562036736	67	4763
2026-01-13 03:55:17.43	354.54	25.60	-51.7	-53.5	15.1	0.00e+00	0	22	0	569376768	68	4749
2026-01-13 03:55:21.43	353.37	25.75	-51.7	-53.6	15.1	0.00e+00	0	22	0	576716800	68	4760
2026-01-13 03:55:25.41	352.21	25.89	-52.2	-54.1	14.9	0.00e+00	0	22	0	584056832	69	4789
2026-01-13 03:55:29.42	351.02	26.01	-52.3	-54.3	14.8	0.00e+00	0	22	0	591396864	69	4911
2026-01-13 03:55:33.42	349.83	26.12	-52.5	-54.6	14.9	0.00e+00	0	22	0	598736896	70	4765
2026-01-13 03:55:37.41	348.63	26.21	-52.4	-54.4	15.0	0.00e+00	0	22	0	606076928	70	4672
2026-01-13 03:55:41.40	347.43	26.30	-52.6	-54.6	14.8	0.00e+00	0	22	0	614465536	70	4806
2026-01-13 03:55:45.40	346.22	26.36	-52.6	-54.7	14.7	0.00e+00	0	22	0	621805568	70	4850
2026-01-13 03:55:49.36	345.01	26.42	-52.6	-54.7	14.7	0.00e+00	0	22	0	629145600	70	4830
2026-01-13 03:55:53.36	343.79	26.46	-52.9	-55.1	14.6	0.00e+00	0	22	0	636485632	70	5047
2026-01-13 03:55:57.35	342.57	26.48	-52.8	-54.9	14.8	0.00e+00	0	22	0	643825664	71	4689
2026-01-13 03:56:01.36	341.34	26.50	-52.2	-54.1	15.3	0.00e+00	0	22	0	651165696	71	4263
2026-01-13 03:56:05.35	340.12	26.49	-52.4	-54.4	14.9	0.00e+00	0	22	0	658505728	70	4701
2026-01-13 03:56:09.37	338.89	26.48	-51.9	-53.7	15.4	0.00e+00	0	22	0	666894336	70	4294
2026-01-13 03:56:13.38	337.67	26.44	-51.6	-53.3	15.4	0.00e+00	0	22	0	674234368	69	4368
2026-01-13 03:56:17.36	336.45	26.40	-51.3	-53.0	15.6	0.00e+00	0	22	0	681574400	69	4225
2026-01-13 03:56:21.37	335.24	26.34	-51.3	-52.9	15.6	0.00e+00	0	22	0	688914432	69	4188
2026-01-13 03:56:25.38	334.02	26.26	-50.8	-52.4	15.7	0.00e+00	0	22	0	696254464	68	4155
2026-01-13 03:56:29.39	332.81	26.18	-50.8	-52.4	15.7	0.00e+00	0	22	0	703594496	68	4149
2026-01-13 03:56:33.39	331.62	26.07	-50.6	-52.2	15.6	0.00e+00	0	22	0	711983104	67	4332
2026-01-13 03:56:37.38	330.43	25.96	-50.6	-52.2	15.6	0.00e+00	0	22	0	719323136	67	4301
2026-01-13 03:56:41.37	329.26	25.83	-50.9	-52.6	15.4	0.00e+00	0	22	0	726663168	67	4514
2026-01-13 03:56:45.35	328.09	25.69	-51.0	-52.6	15.3	0.00e+00	0	22	0	734003200	67	4540
2026-01-13 03:56:49.35	326.93	25.54	-51.2	-52.9	15.2	0.00e+00	0	22	0	741343232	67	4672
2026-01-13 03:56:53.35	325.79	25.38	-51.3	-53.0	15.2	0.00e+00	0	22	0	748683264	67	4755
2026-01-13 03:56:57.33	324.66	25.20	-51.9	-53.7	15.0	0.00e+00	0	22	0	756023296	68	4837
2026-01-13 03:57:01.33	323.54	25.01	-52.2	-54.1	15.0	0.00e+00	0	22	0	764411904	69	4771
2026-01-13 03:57:05.33	322.43	24.82	-52.1	-54.0	15.0	0.00e+00	0	22	0	771751936	69	4757
2026-01-13 03:57:09.32	321.34	24.61	-52.3	-54.3	14.8	0.00e+00	0	22	0	779091968	69	4883
2026-01-13 03:57:13.32	320.26	24.39	-52.6	-54.7	14.8	0.00e+00	0	22	0	786432000	70	4823
2026-01-13 03:57:17.32	319.19	24.17	-52.6	-54.6	14.8	0.00e+00	0	22	0	793772032	70	4809
2026-01-13 03:57:21.30	318.15	23.94	-52.4	-54.4	14.9	0.00e+00	0	22	0	801112064	70	4687
2026-01-13 03:57:25.31	317.11	23.69	-52.6	-54.7	14.7	0.00e+00	0	22	0	808452096	70	4839
2026-01-13 03:57:29.32	316.09	23.44	-52.6	-54.6	14.8	0.00e+00	0	22	0	816840704	70	4804
2026-01-13 03:57:33.31	315.10	23.19	-52.4	-54.4	14.9	0.00e+00	0	22	0	824180736	70	4676
2026-01-13 03:57:37.31	314.11	22.92	-52.5	-54.5	14.9	0.00e+00	0	22	0	831520768	70	4732
2026-01-13 03:57:41.31	313.15	22.65	-52.1	-54.0	15.2	0.00e+00	0	22	0	838860800	70	4458
2026-01-13 03:57:45.30	312.20	22.38	-51.8	-53.6	15.4	0.00e+00	0	22	0	846200832	70	4244
2026-01-13 03:57:49.28	311.27	22.10	-51.6	-53.4	15.3	0.00e+00	0	22	0	853540864	69	4393
2026-01-13 03:57:53.27	310.36	21.81	-51.4	-53.2	15.5	0.00e+00	0	22	0	860880896	69	4292
2026-01-13 03:57:57.25	309.46	21.52	-51.4	-53.2	15.5	0.00e+00	0	22	0	868220928	69	4298
2026-01-13 03:58:01.24	308.58	21.23	-51.4	-53.2	15.5	0.00e+00	0	22	0	876609536	69	4292
2026-01-13 03:58:05.24	307.72	20.93	-51.6	-53.3	15.4	0.00e+00	0	22	0	883949568	69	4370
2026-01-13 03:58:09.23	306.87	20.63	-51.5	-53.3	15.4	0.00e+00	0	22	0	891289600	69	4342
2026-01-13 03:58:13.24	306.04	20.33	-51.4	-53.1	15.5	0.00e+00	0	22	0	898629632	69	4249
2026-01-13 03:58:17.23	305.23	20.02	-51.1	-52.7	15.5	0.00e+00	0	22	0	905969664	68	4320
2026-01-13 03:58:21.23	304.43	19.71	-51.1	-52.8	15.5	0.00e+00	0	22	0	913309696	68	4353
2026-01-13 03:58:25.24	303.64	19.40	-50.9	-52.5	15.7	0.00e+00	0	22	0	921698304	68	4206
2026-01-13 03:58:29.22	302.88	19.09	-50.7	-52.3	15.8	0.00e+00	0	22	0	929038336	68	4132
2026-01-13 03:58:33.22	302.13	18.78	-50.4	-52.0	15.7	0.00e+00	0	22	0	936378368	67	4197
2026-01-13 03:58:37.22	301.39	18.46	-50.4	-52.0	15.7	0.00e+00	0	22	0	943718400	67	4210
2026-01-13 03:58:41.22	300.67	18.15	-50.4	-51.9	15.7	0.00e+00	0	22	0	951058432	67	4186
2026-01-13 03:58:45.20	299.97	17.83	-50.4	-51.9	15.7	0.00e+00	0	22	0	958398464	67	4186
2026-01-13 03:58:49.19	299.28	17.52	-50.5	-52.1	15.6	0.00e+00	0	22	0	965738496	67	4253
2026-01-13 03:58:53.15	298.61	17.20	-50.5	-52.0	15.7	0.00e+00	0	22	0	973078528	67	4241
2026-01-13 03:58:57.14	297.95	16.89	-50.6	-52.2	15.6	0.00e+00	0	22	0	981467136	67	4321
2026-01-13 03:59:01.13	297.31	16.57	-50.7	-52.3	15.5	0.00e+00	0	22	0	988807168	67	4374
2026-01-13 03:59:05.15	296.67	16.26	-50.8	-52.4	15.5	0.00e+00	0	22	0	996147200	67	4419
2026-01-13 03:59:09.15	296.05	15.94	-51.2	-53.0	15.1	0.00e+00	0	22	0	1003487232	67	4718
2026-01-13 03:59:13.17	295.44	15.62	-51.4	-53.2	15.1	0.00e+00	0	22	0	1010827264	67	4820
2026-01-13 03:59:17.17	294.85	15.31	-51.7	-53.5	15.0	0.00e+00	0	22	0	1018167296	68	4753
2026-01-13 03:59:21.16	294.27	15.00	-51.7	-53.6	15.0	0.00e+00	0	22	0	1026555904	68	4777
2026-01-13 03:59:25.15	293.70	14.69	-51.8	-53.7	14.9	0.00e+00	0	22	0	1033895936	68	4839
2026-01-13 03:59:29.15	293.14	14.38	-51.9	-53.8	15.1	0.00e+00	0	22	0	1041235968	69	4622
2026-01-13 03:59:33.15	292.59	14.07	-52.2	-54.1	14.9	0.00e+00	0	22	0	1048576000	69	4797
2026-01-13 03:59:37.14	292.06	13.76	-52.1	-54.1	14.9	0.00e+00	0	22	0	1055916032	69	4765
2026-01-13 03:59:41.14	291.54	13.45	-52.2	-54.3	14.8	0.00e+00	0	22	0	1063256064	69	4874
2026-01-13 03:59:45.12	291.03	13.15	-52.4	-54.5	14.6	0.00e+00	0	22	0	1070596096	69	5006
2026-01-13 03:59:49.10	290.53	12.85	-52.5	-54.6	14.7	0.00e+00	0	22	0	1077936128	70	4800
2026-01-13 03:59:53.09	290.04	12.55	-52.4	-54.4	14.8	0.00e+00	0	22	0	1086324736	70	4697
2026-01-13 03:59:57.08	289.56	12.25	-52.5	-54.6	14.7	0.00e+00	0	22	0	1093664768	70	4813
2026-01-13 04:00:01.07	289.09	11.95	-52.7	-54.8	14.6	0.00e+00	0	22	0	1101004800	70	4904
2026-01-13 04:00:05.06	288.63	11.65	-52.7	-54.9	14.5	0.00e+00	0	22	0	1108344832	70	4982
2026-01-13 04:00:09.05	288.18	11.36	-53.0	-55.3	14.4	0.00e+00	0	22	0	1115684864	71	4882
2026-01-13 04:00:13.06	287.73	11.06	-53.2	-55.6	14.2	0.00e+00	0	22	0	1123024896	71	5069
2026-01-13 04:00:17.03	287.30	10.77	-53.3	-55.8	14.1	0.00e+00	0	22	0	1130364928	71	5183
2026-01-13 04:00:21.01	286.88	10.49	-53.4	-56.0	14.0	0.00e+00	0	22	0	1138753536	71	5294
2026-01-13 04:00:25.00	286.46	10.20	-53.5	-56.1	14.0	0.00e+00	0	22	0	1146093568	72	5074
2026-01-13 04:00:28.99	286.05	9.91	-53.6	-56.2	14.0	0.00e+00	0	22	0	1153433600	72	5105
2026-01-13 04:00:32.99	285.65	9.63	-53.5	-56.1	14.0	0.00e+00	0	22	0	1160773632	72	5074
2026-01-13 04:00:37.00	285.26	9.35	-53.3	-55.8	14.2	0.00e+00	0	22	0	1168113664	72	4890
2026-01-13 04:00:40.98	284.88	9.07	-53.4	-56.0	14.0	0.00e+00	0	22	0	1175453696	72	5014
2026-01-13 04:00:44.99	284.50	8.79	-53.6	-56.3	13.8	0.00e+00	0	22	0	1182793728	72	5211
2026-01-13 04:00:48.98	284.13	8.51	-53.8	-56.6	13.6	0.00e+00	0	22	0	1191182336	72	5390
2026-01-13 04:00:52.96	283.77	8.24	-54.0	-56.9	13.5	0.00e+00	0	22	0	1198522368	73	5276
2026-01-13 04:00:56.95	283.41	7.97	-54.0	-56.9	13.6	0.00e+00	0	22	0	1205862400	73	5226
2026-01-13 04:01:00.93	283.07	7.70	-54.1	-57.1	13.4	0.00e+00	0	22	0	1213202432	73	5356
2026-01-13 04:01:04.91	282.73	7.43	-54.2	-57.3	13.2	0.00e+00	0	22	0	1220542464	73	5469
2026-01-13 04:01:08.91	282.39	7.16	-54.3	-57.5	13.0	0.00e+00	0	22	0	1227882496	73	5644
2026-01-13 04:01:12.90	282.06	6.90	-54.2	-57.4	13.2	0.00e+00	0	22	0	1235222528	73	5530
2026-01-13 04:01:16.90	281.74	6.63	-54.1	-57.1	13.3	0.00e+00	0	22	0	1242562560	73	5392
2026-01-13 04:01:20.89	281.42	6.37	-54.0	-57.1	13.3	0.00e+00	0	22	0	1250951168	73	5344
2026-01-13 04:01:24.88	281.11	6.11	-54.2	-57.4	13.0	0.00e+00	0	22	0	1258291200	73	5547
2026-01-13 04:01:28.87	280.81	5.85	-54.1	-57.3	13.1	0.00e+00	0	22	0	1265631232	73	5526
2026-01-13 04:01:32.86	280.51	5.60	-54.3	-57.8	12.7	0.00e+00	0	22	0	1272971264	73	5807
2026-01-13 04:01:36.87	280.21	5.34	-54.5	-58.0	12.7	1.50e-06	0	22	0	1280311296	74	5614
2026-01-13 04:01:40.86	279.92	5.09	-54.7	-58.4	12.3	1.50e-06	0	22	0	1287651328	74	5902
2026-01-13 04:01:44.86	279.64	4.84	-58.2	-74.2	3.8	1.49e+00	0	22	104	1291845632	81	24346
2026-01-13 04:01:48.85	279.36	4.59	-58.7	-74.8	3.8	1.49e+00	0	22	104	1291845632	82	24473
2026-01-13 04:01:52.84	279.08	4.34	-59.0	-75.1	3.8	1.49e+00	0	22	104	1291845632	83	23955
2026-01-13 04:01:56.83	278.82	4.09	-59.2	-75.3	3.8	1.49e+00	0	22	104	1291845632	83	24499
2026-01-13 04:02:00.82	278.55	3.85	-59.4	-75.4	3.8	1.49e+00	0	22	104	1291845632	83	24883
2026-01-13 04:02:04.82	278.29	3.61	-59.3	-75.4	3.8	1.49e+00	0	22	104	1291845632	83	24758
2026-01-13 04:02:08.84	278.03	3.36	-59.3	-75.3	3.8	1.49e+00	0	22	104	1291845632	83	24577
2026-01-13 04:02:12.84	277.78	3.12	-59.2	-75.3	3.8	1.49e+00	0	22	104	1291845632	83	24472
2026-01-13 04:02:16.86	277.53	2.88	-59.2	-75.2	3.8	1.49e+00	0	22	104	1291845632	83	24407
2026-01-13 04:02:20.84	277.29	2.65	-59.2	-75.2	3.8	1.49e+00	0	22	104	1291845632	83	24291
2026-01-13 04:02:24.84	277.05	2.41	-59.1	-75.2	3.8	1.49e+00	0	22	104	1291845632	83	24262
2026-01-13 04:02:28.85	276.82	2.18	-59.1	-75.2	3.8	1.49e+00	0	22	104	1291845632	83	24215
2026-01-13 04:02:32.85	276.59	1.94	-59.1	-75.2	3.8	1.49e+00	0	22	104	1291845632	83	24231

#Closed at: 2026-01-13 04:02:33
#Recorded file [1291 MB]: D:/lorett/data/31004_260113_064933.dat