passes_logs/2026/01/13/R3.2S_Murmansk/R3.2S_Murmansk__20260113_090759_AQUA_rec.log

#Pass ID: 20260113_090759_AQUA
#Satellite: AQUA
#Configuration: AQUA
#almurnet v.1.7.20251203
#Start time: 2026-01-13 09:08:02

#Version: 2.2.20231116
#Station: R3.2S_Murmansk
#Location: 33.079688 lon 68.888172 lat
#TLE: 1 27424U 02022A   26012.97247290  .00000860  00000+0  18212-3 0  9996
#TLE: 2 27424  98.4079 339.3658 0002038  80.7891 349.4888 14.61817856260594

#Time	Az	El	Level	Level2	SNR	BER	BlckErr	Temp	State	Recorded	gain1	gain2
2026-01-13 09:08:02.05	101.02	2.13	-57.6	-76.9	3.8	7.49e-01	0	24	0	0	84	32268
2026-01-13 09:08:05.08	100.85	2.32	-57.4	-76.1	3.8	7.46e-01	0	24	104	0	82	33262
2026-01-13 09:08:08.11	100.67	2.51	-57.4	-76.5	3.8	7.46e-01	0	24	104	0	82	34579
2026-01-13 09:08:11.13	100.49	2.70	-57.4	-76.6	3.8	7.44e-01	0	24	104	0	82	35160
2026-01-13 09:08:14.16	100.30	2.89	-57.4	-76.6	3.8	7.47e-01	0	24	104	0	82	35104
2026-01-13 09:08:17.18	100.12	3.08	-57.4	-76.5	3.8	7.48e-01	0	24	104	0	82	34626
2026-01-13 09:08:20.21	99.93	3.28	-57.4	-76.5	3.8	7.48e-01	0	24	104	0	82	34551
2026-01-13 09:08:23.23	99.74	3.47	-57.4	-76.4	3.8	7.47e-01	0	24	104	0	82	34260
2026-01-13 09:08:26.26	99.55	3.67	-57.4	-75.7	3.8	7.43e-01	0	24	104	0	82	31484
2026-01-13 09:08:29.29	99.35	3.87	-57.4	-76.6	3.8	7.45e-01	0	25	104	0	82	35085
2026-01-13 09:08:32.32	99.15	4.07	-57.4	-74.4	3.9	7.43e-01	0	25	104	0	82	27108
2026-01-13 09:08:35.34	98.94	4.27	-57.0	-67.3	7.6	6.48e-01	63	25	0	2621440	82	11977
2026-01-13 09:08:38.37	98.74	4.47	-56.3	-63.2	11.1	6.11e-01	0	25	0	8388608	81	7923
2026-01-13 09:08:41.39	98.53	4.67	-55.5	-60.7	12.9	6.10e-01	0	25	0	14155776	80	6280
2026-01-13 09:08:44.42	98.31	4.88	-55.4	-60.3	13.0	6.09e-01	0	25	0	19398656	79	6417
2026-01-13 09:08:47.44	98.10	5.08	-55.5	-60.5	12.8	6.08e-01	0	25	0	25165824	79	6566
2026-01-13 09:08:50.47	97.88	5.29	-55.8	-60.9	12.0	6.09e-01	0	25	0	30932992	80	6488
2026-01-13 09:08:53.49	97.65	5.50	-51.8	-54.2	15.2	6.07e-01	0	25	0	36700160	72	4706
2026-01-13 09:08:56.51	97.43	5.71	-51.3	-53.4	15.3	6.05e-01	0	25	0	42467328	71	4583
2026-01-13 09:08:59.53	97.19	5.92	-51.0	-53.0	15.5	6.06e-01	0	25	0	47710208	71	4378
2026-01-13 09:09:02.55	96.96	6.13	-51.2	-53.3	15.4	6.05e-01	0	25	0	53477376	71	4507
2026-01-13 09:09:05.57	96.72	6.35	-51.0	-53.1	15.3	6.07e-01	0	25	0	59244544	70	4695
2026-01-13 09:09:08.60	96.48	6.56	-50.9	-53.0	15.3	6.04e-01	0	25	0	65011712	70	4615
2026-01-13 09:09:11.62	96.23	6.78	-50.8	-52.8	15.4	6.05e-01	0	25	0	70778880	70	4527
2026-01-13 09:09:14.65	95.98	7.00	-50.8	-52.8	15.4	6.05e-01	0	25	0	76546048	70	4532
2026-01-13 09:09:17.68	95.72	7.22	-50.7	-52.7	15.4	6.05e-01	0	25	0	81788928	70	4486
2026-01-13 09:09:20.70	95.46	7.44	-50.7	-52.7	15.4	6.05e-01	0	25	0	87556096	70	4464
2026-01-13 09:09:23.73	95.20	7.67	-50.6	-52.6	15.5	6.04e-01	0	25	0	93323264	70	4395
2026-01-13 09:09:26.76	94.93	7.89	-50.6	-52.5	15.5	6.04e-01	0	25	0	99090432	70	4384
2026-01-13 09:09:29.78	94.65	8.12	-50.4	-52.3	15.6	6.06e-01	0	25	0	104857600	70	4288
2026-01-13 09:09:32.81	94.37	8.35	-50.3	-52.2	15.4	6.06e-01	0	25	0	110624768	69	4479
2026-01-13 09:09:35.83	94.09	8.58	-50.4	-52.3	15.4	6.08e-01	0	25	0	115867648	69	4522
2026-01-13 09:09:38.86	93.80	8.81	-50.3	-52.1	15.5	6.07e-01	0	25	0	121634816	69	4440
2026-01-13 09:09:41.89	93.51	9.05	-50.2	-52.1	15.5	6.06e-01	0	25	0	127401984	69	4414
2026-01-13 09:09:44.91	93.21	9.28	-50.1	-51.9	15.6	6.07e-01	0	25	0	133169152	69	4314
2026-01-13 09:09:47.93	92.90	9.52	-50.1	-51.9	15.5	6.04e-01	0	25	0	138936320	69	4331
2026-01-13 09:09:50.95	92.59	9.76	-50.1	-52.0	15.5	6.06e-01	0	25	0	144179200	69	4343
2026-01-13 09:09:53.98	92.27	10.00	-50.0	-51.9	15.6	6.06e-01	0	25	0	149946368	69	4296
2026-01-13 09:09:57.00	91.95	10.24	-50.0	-51.8	15.6	6.05e-01	0	25	0	155713536	69	4270
2026-01-13 09:10:00.03	91.62	10.49	-50.0	-51.8	15.6	6.06e-01	0	25	0	161480704	69	4271
2026-01-13 09:10:03.06	91.29	10.74	-49.9	-51.7	15.5	6.06e-01	0	25	0	167247872	68	4460
2026-01-13 09:10:06.08	90.95	10.99	-49.8	-51.6	15.5	6.07e-01	0	25	0	172490752	68	4424
2026-01-13 09:10:09.10	90.60	11.24	-49.8	-51.6	15.5	6.07e-01	0	26	0	178257920	68	4403
2026-01-13 09:10:12.12	90.25	11.49	-49.8	-51.5	15.5	6.08e-01	0	25	0	184025088	68	4376
2026-01-13 09:10:15.14	89.89	11.74	-49.8	-51.5	15.5	6.05e-01	0	26	0	189792256	68	4373
2026-01-13 09:10:18.16	89.52	12.00	-49.6	-51.4	15.6	6.07e-01	0	26	0	195559424	68	4294
2026-01-13 09:10:21.18	89.14	12.25	-49.5	-51.3	15.6	6.04e-01	0	25	0	200802304	68	4246
2026-01-13 09:10:24.21	88.76	12.52	-49.4	-51.1	15.7	6.06e-01	0	26	0	206569472	68	4182
2026-01-13 09:10:27.24	88.37	12.78	-49.5	-51.2	15.6	6.06e-01	0	26	0	212336640	68	4216
2026-01-13 09:10:30.26	87.97	13.04	-49.4	-51.1	15.7	6.05e-01	0	25	0	218103808	68	4158
2026-01-13 09:10:33.28	87.57	13.31	-49.4	-51.1	15.7	6.06e-01	0	25	0	223870976	68	4151
2026-01-13 09:10:36.30	87.16	13.57	-49.5	-51.1	15.6	6.05e-01	0	25	0	229638144	68	4188
2026-01-13 09:10:39.33	86.74	13.84	-49.5	-51.2	15.6	6.04e-01	0	25	0	234881024	68	4206
2026-01-13 09:10:42.35	86.31	14.11	-49.4	-51.0	15.7	6.06e-01	0	25	0	240648192	68	4141
2026-01-13 09:10:45.38	85.87	14.39	-49.2	-50.8	15.6	6.02e-01	0	25	0	246415360	67	4286
2026-01-13 09:10:48.40	85.42	14.66	-49.2	-50.8	15.6	6.06e-01	0	25	0	252182528	67	4290
2026-01-13 09:10:51.43	84.96	14.94	-49.2	-50.8	15.6	6.06e-01	0	26	0	257949696	67	4274
2026-01-13 09:10:54.46	84.50	15.21	-49.2	-50.8	15.6	6.03e-01	0	25	0	263716864	67	4273
2026-01-13 09:10:57.48	84.02	15.49	-49.1	-50.7	15.6	6.07e-01	0	26	0	268959744	67	4240
2026-01-13 09:11:00.50	83.54	15.77	-49.2	-50.8	15.6	6.05e-01	0	25	0	274726912	67	4269
2026-01-13 09:11:03.53	83.04	16.06	-49.3	-51.0	15.5	6.06e-01	0	26	0	280494080	67	4364
2026-01-13 09:11:06.55	82.54	16.34	-49.3	-50.9	15.6	6.06e-01	0	26	0	286261248	67	4330
2026-01-13 09:11:09.58	82.02	16.63	-49.2	-50.8	15.6	6.05e-01	0	26	0	292028416	67	4278
2026-01-13 09:11:12.60	81.49	16.91	-49.2	-50.9	15.6	6.06e-01	0	25	0	297271296	67	4299
2026-01-13 09:11:15.62	80.96	17.20	-49.3	-50.9	15.6	6.00e-01	0	25	0	303038464	67	4319
2026-01-13 09:11:18.64	80.41	17.49	-49.2	-50.8	15.6	6.01e-01	0	25	0	308805632	67	4281
2026-01-13 09:11:21.67	79.85	17.78	-49.3	-50.9	15.6	6.01e-01	0	26	0	314572800	67	4319
2026-01-13 09:11:24.70	79.27	18.07	-49.2	-50.8	15.6	6.00e-01	0	25	0	320339968	67	4269
2026-01-13 09:11:27.73	78.69	18.37	-49.1	-50.8	15.6	6.01e-01	0	26	0	325582848	67	4246
2026-01-13 09:11:30.75	78.09	18.66	-49.3	-51.0	15.6	5.98e-01	0	25	0	331350016	67	4348
2026-01-13 09:11:33.78	77.48	18.95	-49.3	-50.9	15.6	6.01e-01	0	25	0	337117184	67	4315
2026-01-13 09:11:36.80	76.86	19.25	-49.2	-50.8	15.6	6.00e-01	0	25	0	342884352	67	4257
2026-01-13 09:11:39.82	76.23	19.54	-49.4	-51.1	15.5	6.00e-01	0	26	0	348651520	67	4413
2026-01-13 09:11:42.84	75.59	19.84	-49.5	-51.1	15.5	6.01e-01	0	25	0	353894400	67	4433
2026-01-13 09:11:45.86	74.93	20.13	-49.4	-51.0	15.5	6.00e-01	0	25	0	359661568	67	4380
2026-01-13 09:11:48.88	74.25	20.43	-49.4	-51.1	15.5	6.01e-01	0	25	0	365428736	67	4398
2026-01-13 09:11:51.89	73.57	20.72	-49.3	-51.0	15.5	6.02e-01	0	26	0	371195904	67	4358
2026-01-13 09:11:54.92	72.87	21.01	-49.4	-51.1	15.5	6.01e-01	0	25	0	376963072	67	4416
2026-01-13 09:11:57.94	72.15	21.31	-49.5	-51.1	15.5	6.03e-01	0	25	0	382205952	67	4422
2026-01-13 09:12:00.97	71.42	21.60	-49.7	-51.4	15.4	6.00e-01	0	25	0	387973120	67	4546
2026-01-13 09:12:03.99	70.67	21.89	-49.7	-51.3	15.4	5.98e-01	0	26	0	393740288	67	4545
2026-01-13 09:12:07.02	69.91	22.18	-49.6	-51.3	15.5	6.00e-01	0	25	0	399507456	67	4510
2026-01-13 09:12:10.04	69.14	22.47	-49.6	-51.3	15.4	6.01e-01	0	26	0	405274624	67	4498
2026-01-13 09:12:13.06	68.35	22.75	-49.6	-51.3	15.5	6.01e-01	0	25	0	411041792	67	4494
2026-01-13 09:12:16.09	67.54	23.04	-49.6	-51.2	15.4	5.99e-01	0	25	0	416284672	67	4490
2026-01-13 09:12:19.12	66.72	23.32	-49.6	-51.2	15.5	6.01e-01	0	25	0	422051840	67	4486
2026-01-13 09:12:22.14	65.88	23.60	-49.5	-51.2	15.5	5.99e-01	0	25	0	427819008	67	4470
2026-01-13 09:12:25.17	65.03	23.87	-49.7	-51.3	15.4	6.00e-01	0	25	0	433586176	67	4545
2026-01-13 09:12:28.19	64.16	24.14	-49.7	-51.4	15.4	6.01e-01	0	25	0	439353344	67	4549
2026-01-13 09:12:31.22	63.27	24.41	-49.5	-51.2	15.5	6.03e-01	0	26	0	445120512	67	4466
2026-01-13 09:12:34.24	62.37	24.67	-49.6	-51.3	15.4	6.00e-01	0	25	0	450363392	67	4498
2026-01-13 09:12:37.27	61.46	24.93	-49.6	-51.3	15.4	6.01e-01	0	25	0	456130560	67	4525
2026-01-13 09:12:40.30	60.52	25.18	-49.5	-51.2	15.5	5.99e-01	0	26	0	461897728	67	4442
2026-01-13 09:12:43.33	59.57	25.43	-49.6	-51.3	15.4	6.02e-01	0	26	0	467664896	67	4520
2026-01-13 09:12:46.36	58.61	25.67	-49.5	-51.2	15.5	5.99e-01	0	25	0	473432064	67	4454
2026-01-13 09:12:49.39	57.63	25.91	-49.4	-51.1	15.5	6.01e-01	0	26	0	478674944	67	4395
2026-01-13 09:12:52.41	56.64	26.13	-49.3	-50.9	15.5	6.00e-01	0	25	0	484442112	67	4320
2026-01-13 09:12:55.44	55.63	26.35	-49.5	-51.1	15.5	6.01e-01	0	26	0	490209280	67	4429
2026-01-13 09:12:58.47	54.61	26.57	-49.4	-51.1	15.5	6.01e-01	0	26	0	495976448	67	4393
2026-01-13 09:13:01.49	53.57	26.77	-49.4	-51.1	15.5	6.01e-01	0	26	0	501743616	67	4396
2026-01-13 09:13:04.52	52.52	26.97	-49.5	-51.1	15.5	6.00e-01	0	26	0	507510784	67	4407
2026-01-13 09:13:07.54	51.46	27.15	-49.4	-51.0	15.5	6.01e-01	0	25	0	512753664	67	4375
2026-01-13 09:13:10.56	50.38	27.33	-49.4	-51.0	15.5	5.99e-01	0	26	0	518520832	67	4367
2026-01-13 09:13:13.58	49.30	27.50	-49.3	-50.9	15.6	6.01e-01	0	26	0	524288000	67	4317
2026-01-13 09:13:16.61	48.20	27.65	-49.1	-50.7	15.6	6.01e-01	0	26	0	530055168	67	4229
2026-01-13 09:13:19.64	47.08	27.80	-49.3	-50.9	15.6	6.00e-01	0	26	0	535822336	67	4306
2026-01-13 09:13:22.67	45.96	27.94	-49.3	-50.9	15.6	6.00e-01	0	26	0	541589504	67	4301
2026-01-13 09:13:25.69	44.83	28.06	-49.3	-50.9	15.6	6.03e-01	0	26	0	546832384	67	4307
2026-01-13 09:13:28.72	43.69	28.17	-49.2	-50.7	15.6	6.03e-01	0	26	0	552599552	67	4241
2026-01-13 09:13:31.75	42.54	28.28	-49.3	-50.9	15.6	6.00e-01	0	26	0	558366720	67	4300
2026-01-13 09:13:34.77	41.39	28.36	-49.3	-50.9	15.6	6.00e-01	0	26	0	564133888	67	4308
2026-01-13 09:13:37.79	40.23	28.44	-49.3	-50.9	15.5	6.01e-01	0	26	0	569901056	67	4305
2026-01-13 09:13:40.82	39.07	28.51	-49.4	-51.0	15.5	6.01e-01	0	26	0	575143936	67	4354
2026-01-13 09:13:43.84	37.90	28.56	-49.3	-50.9	15.5	6.01e-01	0	26	0	580911104	67	4331
2026-01-13 09:13:46.87	36.72	28.60	-49.4	-51.1	15.5	6.01e-01	0	26	0	586678272	67	4401
2026-01-13 09:13:49.90	35.55	28.62	-49.4	-51.0	15.5	6.01e-01	0	26	0	592445440	67	4381
2026-01-13 09:13:52.92	34.37	28.63	-49.5	-51.1	15.5	6.02e-01	0	26	0	598212608	67	4413
2026-01-13 09:13:55.95	33.19	28.63	-49.4	-51.0	15.5	5.99e-01	0	26	0	603979776	67	4365
2026-01-13 09:13:58.97	32.02	28.62	-49.5	-51.1	15.5	6.00e-01	0	26	0	609222656	67	4408
2026-01-13 09:14:01.99	30.84	28.59	-49.4	-51.0	15.5	6.01e-01	0	26	0	614989824	67	4383
2026-01-13 09:14:05.02	29.67	28.55	-49.5	-51.2	15.5	6.03e-01	0	26	0	620756992	67	4449
2026-01-13 09:14:08.05	28.50	28.50	-49.5	-51.1	15.5	6.00e-01	0	26	0	626524160	67	4439
2026-01-13 09:14:11.08	27.33	28.43	-49.7	-51.3	15.4	6.01e-01	0	26	0	632291328	67	4528
2026-01-13 09:14:14.10	26.18	28.36	-49.8	-51.5	15.4	6.00e-01	0	26	0	638058496	67	4633
2026-01-13 09:14:17.12	25.03	28.27	-49.7	-51.3	15.4	5.99e-01	0	26	0	643301376	67	4520
2026-01-13 09:14:20.15	23.88	28.16	-49.9	-51.5	15.4	6.01e-01	0	25	0	649068544	67	4640
2026-01-13 09:14:23.17	22.74	28.05	-49.8	-51.4	15.4	6.00e-01	0	26	0	654835712	67	4583
2026-01-13 09:14:26.20	21.61	27.92	-49.8	-51.5	15.4	6.01e-01	0	26	0	660602880	67	4641
2026-01-13 09:14:29.21	20.50	27.79	-49.8	-51.4	15.4	6.00e-01	0	26	0	666370048	67	4585
2026-01-13 09:14:32.24	19.39	27.64	-49.8	-51.4	15.4	6.00e-01	0	26	0	671612928	67	4591
2026-01-13 09:14:35.26	18.30	27.48	-49.8	-51.5	15.4	6.02e-01	0	26	0	677380096	67	4627
2026-01-13 09:14:38.28	17.21	27.31	-50.0	-51.7	15.3	6.01e-01	0	26	0	683147264	67	4755
2026-01-13 09:14:41.31	16.14	27.13	-49.9	-51.6	15.3	6.01e-01	0	26	0	688914432	67	4689
2026-01-13 09:14:44.34	15.07	26.95	-50.1	-51.7	15.4	6.00e-01	0	26	0	694681600	68	4493
2026-01-13 09:14:47.36	14.03	26.75	-50.1	-51.8	15.4	6.01e-01	0	25	0	699924480	68	4514
2026-01-13 09:14:50.39	12.99	26.55	-50.0	-51.7	15.4	6.02e-01	0	26	0	705691648	68	4475
2026-01-13 09:14:53.41	11.98	26.33	-50.2	-51.9	15.4	6.01e-01	0	26	0	711458816	68	4591
2026-01-13 09:14:56.44	10.97	26.11	-50.2	-52.0	15.4	6.01e-01	0	26	0	717225984	68	4600
2026-01-13 09:14:59.46	9.98	25.89	-50.2	-51.9	15.4	5.98e-01	0	26	0	722993152	68	4555
2026-01-13 09:15:02.49	9.01	25.65	-50.3	-52.0	15.4	6.01e-01	0	26	0	728236032	68	4633
2026-01-13 09:15:05.52	8.04	25.41	-50.2	-51.9	15.4	6.00e-01	0	26	0	734003200	68	4578
2026-01-13 09:15:08.54	7.10	25.16	-50.1	-51.8	15.4	6.02e-01	0	26	0	739770368	68	4496
2026-01-13 09:15:11.57	6.17	24.91	-50.2	-51.9	15.4	6.00e-01	0	26	0	745537536	68	4583
2026-01-13 09:15:14.59	5.26	24.65	-50.2	-51.9	15.4	6.01e-01	0	26	0	751304704	68	4572
2026-01-13 09:15:17.62	4.36	24.39	-50.2	-51.9	15.4	6.04e-01	0	26	0	757071872	68	4597
2026-01-13 09:15:20.65	3.48	24.12	-50.2	-51.9	15.4	6.04e-01	0	26	0	762839040	68	4584
2026-01-13 09:15:23.67	2.62	23.85	-50.2	-52.0	15.4	6.00e-01	0	26	0	768081920	68	4611
2026-01-13 09:15:26.70	1.76	23.58	-50.3	-52.0	15.3	6.00e-01	0	26	0	773849088	68	4614
2026-01-13 09:15:29.73	0.93	23.30	-50.1	-51.8	15.4	6.04e-01	0	26	0	779616256	68	4530
2026-01-13 09:15:32.75	0.11	23.02	-50.3	-52.1	15.3	6.01e-01	0	26	0	785383424	68	4674
2026-01-13 09:15:35.78	359.31	22.74	-50.2	-51.9	15.4	6.01e-01	0	26	0	791150592	68	4570
2026-01-13 09:15:38.80	358.52	22.45	-50.6	-52.4	15.2	6.00e-01	0	26	0	796393472	68	4820
2026-01-13 09:15:41.82	357.75	22.16	-50.1	-51.8	15.6	6.02e-01	0	26	0	802160640	69	4281
2026-01-13 09:15:44.84	356.99	21.88	-50.2	-52.0	15.5	6.00e-01	0	26	0	807927808	69	4351
2026-01-13 09:15:47.86	356.25	21.59	-49.9	-51.6	15.5	5.99e-01	0	26	0	813694976	68	4405
2026-01-13 09:15:50.89	355.52	21.29	-50.2	-52.0	15.4	6.01e-01	0	26	0	819462144	68	4603
2026-01-13 09:15:53.90	354.82	21.00	-50.1	-51.8	15.4	6.02e-01	0	26	0	824705024	68	4511
2026-01-13 09:15:56.93	354.11	20.71	-50.2	-51.9	15.4	5.99e-01	0	26	0	830472192	68	4588
2026-01-13 09:15:59.95	353.43	20.41	-50.3	-52.1	15.3	6.02e-01	0	26	0	836239360	68	4668
2026-01-13 09:16:02.97	352.76	20.12	-49.8	-51.5	15.5	6.03e-01	0	26	0	842006528	68	4361
2026-01-13 09:16:05.99	352.10	19.83	-49.8	-51.5	15.5	6.01e-01	0	26	0	847773696	68	4354
2026-01-13 09:16:09.02	351.46	19.53	-50.0	-51.7	15.4	5.99e-01	0	26	0	853016576	68	4446
2026-01-13 09:16:12.04	350.83	19.24	-50.6	-52.5	15.3	5.99e-01	0	26	0	858783744	69	4601
2026-01-13 09:16:15.05	350.21	18.95	-50.3	-52.0	15.3	6.00e-01	0	26	0	864026624	68	4626
2026-01-13 09:16:18.36	349.55	18.63	-49.9	-51.5	15.5	6.03e-01	0	26	0	870318080	68	4357
2026-01-13 09:16:21.10	349.02	18.36	-51.6	-53.7	15.2	6.02e-01	0	26	0	875560960	71	4731
2026-01-13 09:16:24.41	348.38	18.04	-51.3	-53.3	15.2	6.02e-01	0	26	0	881852416	70	4773
2026-01-13 09:16:27.16	347.86	17.78	-50.8	-52.4	15.5	6.03e-01	0	26	0	886571008	70	4330
2026-01-13 09:16:30.47	347.25	17.46	-50.9	-52.8	15.2	5.99e-01	0	26	0	892862464	69	4800
2026-01-13 09:16:33.21	346.76	17.20	-50.1	-51.8	15.5	6.03e-01	0	26	0	898105344	69	4291
2026-01-13 09:16:36.52	346.18	16.88	-50.5	-52.4	15.4	6.02e-01	0	26	0	904396800	69	4564
2026-01-13 09:16:39.25	345.70	16.63	-50.4	-52.2	15.3	6.02e-01	0	26	0	909639680	68	4730
2026-01-13 09:16:42.56	345.14	16.32	-49.9	-51.6	15.4	6.04e-01	0	26	0	915931136	68	4434
2026-01-13 09:16:45.30	344.69	16.06	-50.2	-52.0	15.3	6.01e-01	0	26	0	920649728	68	4638
2026-01-13 09:16:48.61	344.15	15.75	-50.2	-52.0	15.3	6.01e-01	0	26	0	926941184	68	4628
2026-01-13 09:16:51.34	343.71	15.50	-49.8	-51.5	15.5	6.00e-01	0	26	0	932184064	68	4349
2026-01-13 09:16:54.64	343.20	15.19	-50.0	-51.7	15.4	6.02e-01	0	26	0	938475520	68	4463
2026-01-13 09:16:57.37	342.78	14.94	-50.3	-52.1	15.3	5.99e-01	0	26	0	943194112	68	4687
2026-01-13 09:17:00.68	342.28	14.64	-50.2	-52.0	15.4	6.01e-01	0	26	0	949485568	69	4369
2026-01-13 09:17:03.42	341.88	14.39	-50.1	-51.8	15.5	6.02e-01	0	26	0	954728448	69	4276
2026-01-13 09:17:06.72	341.40	14.10	-49.9	-51.6	15.6	6.02e-01	0	26	0	961019904	69	4185
2026-01-13 09:17:09.45	341.02	13.85	-50.1	-51.8	15.5	6.02e-01	0	26	0	966262784	69	4274
2026-01-13 09:17:12.77	340.56	13.56	-50.4	-52.2	15.4	6.02e-01	0	25	0	972554240	69	4463
2026-01-13 09:17:15.51	340.19	13.32	-50.1	-51.8	15.5	6.00e-01	0	26	0	977272832	69	4269
2026-01-13 09:17:18.82	339.75	13.03	-50.1	-51.9	15.5	6.00e-01	0	26	0	983564288	69	4298
2026-01-13 09:17:21.56	339.39	12.79	-50.2	-52.0	15.4	6.01e-01	0	26	0	988807168	69	4382
2026-01-13 09:17:24.87	338.96	12.51	-50.3	-52.1	15.4	5.99e-01	0	26	0	995098624	69	4432
2026-01-13 09:17:27.60	338.62	12.27	-50.4	-52.2	15.4	6.03e-01	0	26	0	1000341504	69	4468
2026-01-13 09:17:30.92	338.21	11.99	-50.4	-52.2	15.4	6.02e-01	0	26	0	1006108672	69	4484
2026-01-13 09:17:33.66	337.88	11.76	-50.6	-52.5	15.3	6.02e-01	0	26	0	1011351552	69	4599
2026-01-13 09:17:36.98	337.49	11.48	-50.4	-52.3	15.4	6.02e-01	0	26	0	1017643008	69	4499
2026-01-13 09:17:39.71	337.17	11.25	-50.5	-52.3	15.4	6.02e-01	0	26	0	1022885888	69	4542
2026-01-13 09:17:43.03	336.79	10.98	-50.8	-52.7	15.3	6.00e-01	0	26	0	1029177344	69	4712
2026-01-13 09:17:45.77	336.49	10.75	-50.6	-52.5	15.3	5.99e-01	0	26	0	1034420224	69	4601
2026-01-13 09:17:49.08	336.12	10.49	-50.4	-52.3	15.4	6.00e-01	0	26	0	1040187392	69	4498
2026-01-13 09:17:51.82	335.83	10.26	-50.7	-52.6	15.3	6.03e-01	0	26	0	1045430272	69	4674
2026-01-13 09:17:55.13	335.48	10.00	-50.7	-52.6	15.3	6.01e-01	0	26	0	1051721728	69	4654
2026-01-13 09:17:57.86	335.19	9.78	-50.9	-52.8	15.2	5.98e-01	0	26	0	1056964608	69	4803
2026-01-13 09:18:01.17	334.85	9.52	-50.8	-52.7	15.2	6.01e-01	0	26	0	1063256064	69	4717
2026-01-13 09:18:03.90	334.58	9.31	-50.9	-52.8	15.2	6.01e-01	0	26	0	1067974656	69	4793
2026-01-13 09:18:07.22	334.25	9.05	-51.0	-53.0	15.2	6.01e-01	0	26	0	1074266112	69	4873
2026-01-13 09:18:09.96	333.99	8.84	-51.0	-53.0	15.1	6.02e-01	0	26	0	1079508992	69	4917
2026-01-13 09:18:13.27	333.68	8.58	-51.0	-53.0	15.1	6.02e-01	0	26	0	1085800448	69	4893
2026-01-13 09:18:16.01	333.42	8.37	-51.0	-53.1	15.1	6.01e-01	0	26	0	1091043328	69	4930
2026-01-13 09:18:19.31	333.12	8.13	-51.2	-53.3	15.2	6.00e-01	0	26	0	1097334784	70	4762
2026-01-13 09:18:22.05	332.87	7.92	-51.2	-53.2	15.2	6.00e-01	0	26	0	1102053376	70	4723
2026-01-13 09:18:25.35	332.58	7.67	-51.2	-53.3	15.2	6.01e-01	0	26	0	1108344832	70	4806
2026-01-13 09:18:28.09	332.34	7.47	-51.2	-53.3	15.2	6.01e-01	0	26	0	1113587712	70	4762
2026-01-13 09:18:31.39	332.06	7.23	-51.3	-53.5	15.1	6.00e-01	0	26	0	1119879168	70	4884
2026-01-13 09:18:34.13	331.83	7.03	-51.3	-53.4	15.1	6.02e-01	0	26	0	1124597760	70	4843
2026-01-13 09:18:37.44	331.56	6.79	-51.4	-53.5	15.1	6.01e-01	0	26	0	1130889216	70	4887
2026-01-13 09:18:40.17	331.34	6.60	-51.4	-53.5	15.1	6.02e-01	0	26	0	1136132096	70	4924
2026-01-13 09:18:43.48	331.07	6.36	-51.4	-53.5	15.1	6.01e-01	0	26	0	1142423552	70	4909
2026-01-13 09:18:46.21	330.86	6.17	-51.4	-53.6	15.0	6.00e-01	0	26	0	1147666432	70	4959
2026-01-13 09:18:49.53	330.60	5.93	-51.6	-53.8	15.0	6.02e-01	0	26	0	1153957888	70	5060
2026-01-13 09:18:52.26	330.39	5.74	-51.6	-53.8	15.1	5.99e-01	0	26	0	1158676480	71	4785
2026-01-13 09:18:55.58	330.15	5.51	-51.6	-53.8	15.1	5.99e-01	0	26	0	1164967936	71	4787
2026-01-13 09:18:58.31	329.95	5.32	-51.7	-53.9	15.0	6.01e-01	0	26	0	1170210816	71	4861
2026-01-13 09:19:01.62	329.71	5.10	-51.7	-54.0	15.0	6.00e-01	0	26	0	1176502272	71	4894
2026-01-13 09:19:04.36	329.51	4.91	-57.8	-71.2	4.9	7.02e-01	0	26	0	1181220864	83	17781
2026-01-13 09:19:07.66	329.28	4.69	-59.0	-78.4	3.8	7.46e-01	0	26	104	1181220864	85	36243
2026-01-13 09:19:10.40	329.09	4.51	-59.4	-78.8	3.8	7.46e-01	0	26	104	1181220864	86	35894
2026-01-13 09:19:13.71	328.87	4.29	-59.6	-79.0	3.9	7.46e-01	0	26	104	1181220864	87	34833
2026-01-13 09:19:16.45	328.69	4.11	-59.7	-79.1	3.8	7.49e-01	0	26	104	1181220864	87	35163
2026-01-13 09:19:19.76	328.47	3.89	-59.8	-79.2	3.8	7.50e-01	0	26	104	1181220864	87	35523
2026-01-13 09:19:22.49	328.29	3.71	-59.9	-79.2	3.8	7.46e-01	0	26	104	1181220864	87	35673
2026-01-13 09:19:25.81	328.08	3.50	-59.9	-79.3	3.8	7.44e-01	0	26	104	1181220864	87	35737
2026-01-13 09:19:28.55	327.91	3.32	-59.8	-79.2	3.8	7.47e-01	0	26	104	1181220864	87	35483
2026-01-13 09:19:31.86	327.71	3.11	-59.8	-79.2	3.8	7.49e-01	0	26	104	1181220864	87	35410
2026-01-13 09:19:34.60	327.54	2.93	-59.8	-79.2	3.8	7.46e-01	0	26	104	1181220864	87	35311
2026-01-13 09:19:37.91	327.34	2.72	-59.8	-79.1	3.8	7.46e-01	0	26	104	1181220864	87	35222
2026-01-13 09:19:40.64	327.18	2.55	-59.7	-79.1	3.8	7.45e-01	0	26	104	1181220864	87	35175
2026-01-13 09:19:43.95	326.99	2.35	-59.7	-79.1	3.8	7.46e-01	0	26	104	1181220864	87	35233
2026-01-13 09:19:46.69	326.83	2.18	-59.7	-79.1	3.8	7.47e-01	0	26	104	1181220864	87	35117
2026-01-13 09:19:50.00	326.65	1.97	-59.7	-79.1	3.8	7.43e-01	0	26	104	1181220864	87	35003

#Closed at: 2026-01-13 09:19:52
#Recorded file [1181 MB]: D:/lorett/data/31004_260113_120801.dat