passes_logs/2026/01/13/R3.2S_Murmansk/R3.2S_Murmansk__20260113_081018_KANOPUS-V_5_rec.log

#Pass ID: 20260113_081018_KANOPUS-V 5
#Satellite: KANOPUS-V 5
#Configuration: KANOPUS-V_8320
#almurnet v.1.7.20251203
#Start time: 2026-01-13 08:10:20

#Version: 2.2.20231116
#Station: R3.2S_Murmansk
#Location: 33.079688 lon 68.888172 lat
#TLE: 1 43876U 18111A   26013.00308852  .00002656  00000+0  11448-3 0  9997
#TLE: 2 43876  97.3683 281.5536 0001778  87.2779 272.8662 15.23428134391165

#Time	Az	El	Level	Level2	SNR	BER	BlckErr	Temp	State	Recorded	gain1	gain2
2026-01-13 08:10:20.31	170.61	2.14	-59.1	-68.8	3.8	7.45e-01	0	24	0	0	82	10992
2026-01-13 08:10:23.29	170.69	2.35	-59.1	-68.8	3.8	7.45e-01	0	24	104	0	82	11008
2026-01-13 08:10:26.28	170.78	2.56	-59.1	-68.8	3.8	7.44e-01	0	24	104	0	82	10948
2026-01-13 08:10:29.28	170.87	2.78	-59.1	-68.7	3.8	7.45e-01	0	24	104	0	82	10876
2026-01-13 08:10:32.26	170.95	3.00	-59.1	-68.7	3.8	7.45e-01	0	25	104	0	82	10811
2026-01-13 08:10:35.25	171.04	3.21	-59.1	-68.6	3.8	7.47e-01	0	25	104	0	82	10712
2026-01-13 08:10:38.24	171.13	3.44	-59.2	-68.8	3.8	7.46e-01	0	25	104	0	82	10979
2026-01-13 08:10:41.23	171.22	3.66	-59.1	-68.6	3.8	7.46e-01	0	25	104	0	82	10735
2026-01-13 08:10:44.21	171.32	3.88	-58.6	-66.5	3.8	7.43e-01	0	25	104	0	81	8873
2026-01-13 08:10:47.19	171.41	4.11	-57.8	-63.8	4.7	7.09e-01	0	25	0	20971520	80	6942
2026-01-13 08:10:50.17	171.51	4.34	-56.7	-61.4	6.4	6.48e-01	0	25	0	67108864	78	5885
2026-01-13 08:10:53.17	171.61	4.58	-54.8	-58.4	8.6	6.02e-01	0	25	0	113246208	74	5263
2026-01-13 08:10:56.15	171.71	4.81	-53.0	-56.1	10.2	5.85e-01	0	25	0	159383552	70	5058
2026-01-13 08:10:59.13	171.81	5.05	-52.7	-55.7	10.5	5.84e-01	0	25	0	205520896	69	5118
2026-01-13 08:11:02.11	171.92	5.29	-54.5	-58.1	8.8	5.99e-01	0	25	0	251658240	72	5669
2026-01-13 08:11:05.09	172.02	5.54	-52.1	-55.0	11.0	5.82e-01	0	25	0	297795584	68	5002
2026-01-13 08:11:08.08	172.13	5.79	-52.2	-55.0	11.0	5.81e-01	0	25	0	343932928	68	5036
2026-01-13 08:11:11.04	172.24	6.03	-52.1	-54.9	11.1	5.81e-01	0	25	0	387973120	68	4968
2026-01-13 08:11:14.01	172.35	6.29	-52.0	-54.9	11.2	5.80e-01	0	25	0	434110464	68	4929
2026-01-13 08:11:17.00	172.47	6.54	-51.8	-54.6	11.4	5.81e-01	0	25	0	480247808	68	4777
2026-01-13 08:11:20.00	172.59	6.81	-51.9	-54.7	11.3	5.80e-01	0	25	0	526385152	68	4831
2026-01-13 08:11:22.98	172.71	7.07	-51.9	-54.7	11.4	5.80e-01	0	25	0	572522496	68	4822
2026-01-13 08:11:25.97	172.83	7.34	-51.7	-54.4	11.5	5.81e-01	0	25	0	618659840	67	4957
2026-01-13 08:11:28.95	172.96	7.61	-51.6	-54.3	11.6	5.79e-01	0	25	0	662700032	67	4893
2026-01-13 08:11:31.95	173.08	7.89	-51.5	-54.2	11.8	5.79e-01	0	25	0	708837376	67	4828
2026-01-13 08:11:34.94	173.21	8.17	-51.4	-54.1	11.9	5.78e-01	0	25	0	754974720	67	4782
2026-01-13 08:11:37.92	173.35	8.45	-51.4	-54.1	11.8	5.78e-01	0	26	0	801112064	67	4811
2026-01-13 08:11:40.91	173.48	8.74	-51.2	-53.9	11.9	5.79e-01	0	26	0	847249408	66	4957
2026-01-13 08:11:43.89	173.62	9.03	-51.1	-53.8	12.0	5.79e-01	0	25	0	893386752	66	4894
2026-01-13 08:11:46.86	173.77	9.33	-50.9	-53.6	12.2	5.79e-01	0	26	0	939524096	66	4796
2026-01-13 08:11:49.84	173.91	9.63	-50.9	-53.5	12.2	5.78e-01	0	26	0	983564288	66	4757
2026-01-13 08:11:52.82	174.06	9.93	-50.7	-53.4	12.4	5.79e-01	0	26	0	1029701632	66	4674
2026-01-13 08:11:55.80	174.22	10.25	-50.7	-53.3	12.4	5.77e-01	0	26	0	1075838976	66	4629
2026-01-13 08:11:58.78	174.37	10.56	-50.5	-53.1	12.4	5.78e-01	0	26	0	1121976320	65	4776
2026-01-13 08:12:01.77	174.53	10.89	-50.2	-52.7	12.7	5.78e-01	0	26	0	1168113664	65	4579
2026-01-13 08:12:04.74	174.70	11.21	-50.1	-52.5	12.8	5.78e-01	0	26	0	1212153856	64	4740
2026-01-13 08:12:07.72	174.87	11.54	-50.0	-52.4	12.8	5.77e-01	0	26	0	1258291200	64	4695
2026-01-13 08:12:10.71	175.04	11.88	-49.8	-52.2	12.9	6.00e-01	0	26	0	1304428544	64	4579
2026-01-13 08:12:13.70	175.22	12.23	-49.7	-52.1	13.0	5.94e-01	0	26	0	1350565888	63	4785
2026-01-13 08:12:16.68	175.41	12.58	-49.6	-52.0	13.0	5.98e-01	0	26	0	1396703232	63	4732
2026-01-13 08:12:19.67	175.60	12.94	-49.6	-52.0	13.0	5.96e-01	0	26	0	1442840576	63	4735
2026-01-13 08:12:22.65	175.79	13.31	-49.4	-51.9	13.1	6.00e-01	0	26	0	1488977920	63	4666
2026-01-13 08:12:25.64	175.99	13.68	-49.3	-51.7	13.2	5.94e-01	0	26	0	1535115264	63	4597
2026-01-13 08:12:28.62	176.19	14.06	-49.2	-51.7	13.3	5.97e-01	0	26	0	1579155456	63	4567
2026-01-13 08:12:31.59	176.41	14.45	-49.1	-51.5	13.2	5.96e-01	0	26	0	1625292800	62	4744
2026-01-13 08:12:34.57	176.62	14.84	-49.1	-51.5	13.3	5.99e-01	0	25	0	1671430144	62	4712
2026-01-13 08:12:37.54	176.85	15.24	-48.9	-51.3	13.4	5.96e-01	0	26	0	1717567488	62	4612
2026-01-13 08:12:40.52	177.08	15.66	-48.8	-51.2	13.5	5.95e-01	0	26	0	1763704832	62	4560
2026-01-13 08:12:43.49	177.32	16.08	-48.5	-50.9	13.5	5.95e-01	0	26	0	1807745024	61	4670
2026-01-13 08:12:46.48	177.56	16.51	-48.5	-50.8	13.6	5.96e-01	0	26	0	1853882368	61	4647
2026-01-13 08:12:49.47	177.82	16.95	-48.2	-50.5	13.6	5.91e-01	0	26	0	1900019712	60	4716
2026-01-13 08:12:52.45	178.08	17.40	-48.2	-50.5	13.6	5.98e-01	0	26	0	1946157056	60	4707
2026-01-13 08:12:55.43	178.35	17.86	-47.8	-50.0	13.9	5.99e-01	0	26	0	1992294400	60	4490
2026-01-13 08:12:58.41	178.63	18.33	-47.8	-50.1	13.9	6.01e-01	0	26	0	2038431744	60	4502
2026-01-13 08:13:01.40	178.93	18.81	-47.7	-50.0	13.9	6.00e-01	0	26	0	2082471936	60	4467
2026-01-13 08:13:04.39	179.23	19.31	-47.8	-50.0	13.9	6.04e-01	0	26	0	2128609280	60	4477
2026-01-13 08:13:07.37	179.54	19.81	-47.7	-49.9	13.8	6.02e-01	0	26	0	2174746624	59	4705
2026-01-13 08:13:10.36	179.87	20.33	-47.6	-49.8	13.9	6.04e-01	0	26	0	2220883968	59	4633
2026-01-13 08:13:13.34	180.21	20.87	-47.6	-49.8	13.9	6.02e-01	0	26	0	2267021312	59	4625
2026-01-13 08:13:16.31	180.56	21.41	-47.6	-49.7	13.9	6.03e-01	0	26	0	2313158656	59	4590
2026-01-13 08:13:19.29	180.92	21.97	-47.7	-49.7	13.9	6.04e-01	0	26	0	2357198848	59	4586
2026-01-13 08:13:22.29	181.30	22.55	-47.5	-49.4	14.0	6.01e-01	0	26	0	2403336192	59	4429
2026-01-13 08:13:25.27	181.70	23.14	-47.4	-49.4	14.1	6.02e-01	0	26	0	2449473536	59	4404
2026-01-13 08:13:28.25	182.11	23.74	-47.4	-49.4	14.1	6.03e-01	0	26	0	2495610880	59	4439
2026-01-13 08:13:31.23	182.54	24.36	-47.4	-49.5	14.1	5.98e-01	0	26	0	2541748224	59	4445
2026-01-13 08:13:34.20	182.99	25.00	-47.3	-49.4	14.1	5.97e-01	0	26	0	2587885568	59	4421
2026-01-13 08:13:37.18	183.46	25.66	-47.3	-49.4	14.1	5.99e-01	0	26	0	2634022912	59	4406
2026-01-13 08:13:40.15	183.94	26.33	-47.3	-49.3	14.1	5.99e-01	0	26	0	2678063104	59	4378
2026-01-13 08:13:43.13	184.46	27.02	-47.4	-49.4	14.1	6.00e-01	0	26	0	2724200448	59	4426
2026-01-13 08:13:46.13	185.00	27.74	-47.4	-49.5	14.1	5.76e-01	0	26	0	2770337792	59	4457
2026-01-13 08:13:49.11	185.57	28.48	-47.4	-49.5	14.1	5.76e-01	0	26	0	2816475136	59	4456
2026-01-13 08:13:52.11	186.17	29.24	-47.6	-49.8	14.0	5.76e-01	0	26	0	2862612480	59	4623
2026-01-13 08:13:55.08	186.79	30.01	-47.7	-49.8	13.9	5.76e-01	0	26	0	2908749824	59	4631
2026-01-13 08:13:58.06	187.45	30.81	-47.6	-49.6	14.0	5.76e-01	0	26	0	2952790016	59	4532
2026-01-13 08:14:01.06	188.15	31.64	-47.5	-49.5	14.1	5.76e-01	0	26	0	2998927360	59	4454
2026-01-13 08:14:04.04	188.88	32.48	-47.2	-49.2	14.2	6.02e-01	0	26	0	3045064704	59	4311
2026-01-13 08:14:07.03	189.66	33.35	-47.2	-49.3	14.1	5.99e-01	0	26	0	3091202048	58	4602
2026-01-13 08:14:10.00	190.48	34.24	-47.0	-49.2	14.1	5.97e-01	0	26	0	3137339392	58	4562
2026-01-13 08:14:12.99	191.35	35.16	-47.0	-49.3	14.1	5.97e-01	0	26	0	3183476736	58	4630
2026-01-13 08:14:15.98	192.28	36.11	-46.8	-49.3	14.2	5.97e-01	0	26	0	3229614080	58	4636
2026-01-13 08:14:18.96	193.26	37.07	-46.2	-48.7	14.4	5.98e-01	0	26	0	3275751424	57	4573
2026-01-13 08:14:21.95	194.31	38.07	-46.1	-48.7	14.3	5.96e-01	0	26	0	3319791616	56	4821
2026-01-13 08:14:24.93	195.43	39.08	-45.8	-48.2	14.5	5.98e-01	0	26	0	3365928960	56	4546
2026-01-13 08:14:27.92	196.62	40.12	-45.6	-48.2	14.5	5.95e-01	0	26	0	3412066304	55	4837
2026-01-13 08:14:30.90	197.89	41.18	-45.4	-47.8	14.6	5.95e-01	0	26	0	3458203648	55	4647
2026-01-13 08:14:33.87	199.25	42.25	-45.0	-47.4	14.6	5.95e-01	0	26	0	3504340992	54	4701
2026-01-13 08:14:36.85	200.71	43.35	-44.8	-47.2	14.7	5.96e-01	0	26	0	3548381184	54	4573
2026-01-13 08:14:39.85	202.29	44.46	-45.0	-47.7	14.6	5.96e-01	0	26	0	3594518528	54	4841
2026-01-13 08:14:42.82	203.97	45.58	-44.9	-47.5	14.6	5.96e-01	0	26	0	3640655872	54	4735
2026-01-13 08:14:45.80	205.78	46.71	-44.9	-47.4	14.7	5.96e-01	0	26	0	3686793216	54	4655
2026-01-13 08:14:48.78	207.73	47.84	-44.7	-47.2	14.8	6.00e-01	0	26	0	3732930560	54	4569
2026-01-13 08:14:51.76	209.83	48.97	-45.2	-47.7	14.5	5.94e-01	0	26	0	3779067904	54	4840
2026-01-13 08:14:54.76	212.11	50.09	-45.0	-47.4	14.6	5.98e-01	0	26	0	3825205248	54	4693
2026-01-13 08:14:57.74	214.55	51.18	-45.3	-47.7	14.5	5.97e-01	0	26	0	3871342592	54	4854
2026-01-13 08:15:00.72	217.18	52.25	-45.6	-48.2	14.3	5.99e-01	0	26	0	3915382784	54	5141
2026-01-13 08:15:03.70	220.00	53.27	-45.6	-48.2	14.3	6.01e-01	0	26	0	3961520128	54	5143
2026-01-13 08:15:06.68	223.02	54.25	-45.7	-48.4	14.4	5.96e-01	0	26	0	4007657472	55	4959
2026-01-13 08:15:09.66	226.26	55.16	-45.9	-48.6	14.3	5.74e-01	0	26	0	4053794816	55	5081
2026-01-13 08:15:12.67	229.73	56.00	-45.9	-48.8	14.3	5.76e-01	0	26	0	4099932160	55	5188
2026-01-13 08:15:15.66	233.39	56.74	-46.1	-49.1	14.1	5.75e-01	0	26	0	4146069504	55	5358
2026-01-13 08:15:18.66	237.25	57.38	-46.5	-49.5	14.0	5.76e-01	0	26	0	4192206848	56	5333
2026-01-13 08:15:21.66	241.28	57.90	-46.4	-49.3	14.1	5.76e-01	0	26	0	4238344192	56	5215
2026-01-13 08:15:24.65	245.43	58.28	-46.4	-49.2	14.1	5.76e-01	0	26	0	4284481536	56	5156
2026-01-13 08:15:27.63	249.67	58.53	-46.4	-49.1	14.1	5.76e-01	0	26	0	4328521728	56	5078
2026-01-13 08:15:30.63	254.00	58.63	-46.3	-49.0	14.2	6.06e-01	0	26	0	4374659072	56	5040
2026-01-13 08:15:33.62	258.32	58.58	-46.3	-49.1	14.2	6.01e-01	0	26	0	4420796416	56	5043
2026-01-13 08:15:36.60	262.58	58.39	-46.4	-49.0	14.2	6.04e-01	0	26	0	4466933760	56	5013
2026-01-13 08:15:39.60	266.79	58.06	-46.3	-48.9	14.3	6.04e-01	0	26	0	4513071104	56	4972
2026-01-13 08:15:42.59	270.86	57.59	-46.2	-48.5	14.4	6.03e-01	0	26	0	4559208448	56	4727
2026-01-13 08:15:45.58	274.77	57.00	-46.3	-48.9	14.3	6.03e-01	0	26	0	4605345792	56	4936
2026-01-13 08:15:48.56	278.49	56.30	-46.3	-48.7	14.3	6.03e-01	0	26	0	4651483136	56	4863
2026-01-13 08:15:51.54	282.01	55.51	-46.3	-48.7	14.2	6.02e-01	0	26	0	4695523328	56	4869
2026-01-13 08:15:54.53	285.33	54.62	-46.0	-48.4	14.4	6.01e-01	0	26	0	4741660672	56	4655
2026-01-13 08:15:57.52	288.44	53.67	-45.6	-47.9	14.5	6.03e-01	0	26	0	4787798016	55	4692
2026-01-13 08:16:00.50	291.34	52.67	-45.5	-48.0	14.6	6.03e-01	0	26	0	4833935360	55	4732
2026-01-13 08:16:03.48	294.03	51.62	-45.3	-47.7	14.7	6.03e-01	0	26	0	4880072704	55	4551
2026-01-13 08:16:06.48	296.56	50.53	-45.2	-47.7	14.7	6.04e-01	0	26	0	4926210048	55	4567
2026-01-13 08:16:09.47	298.89	49.42	-45.2	-47.5	14.7	6.07e-01	0	26	0	4972347392	55	4443
2026-01-13 08:16:12.45	301.05	48.30	-45.0	-47.4	14.6	6.04e-01	0	26	0	5018484736	54	4664
2026-01-13 08:16:15.43	303.06	47.18	-44.9	-47.2	14.7	6.05e-01	0	26	0	5062524928	54	4581
2026-01-13 08:16:18.41	304.92	46.05	-45.0	-47.6	14.7	6.02e-01	0	26	0	5108662272	54	4760
2026-01-13 08:16:21.39	306.65	44.93	-44.9	-47.3	14.7	5.99e-01	0	26	0	5154799616	54	4640
2026-01-13 08:16:24.38	308.27	43.82	-44.7	-47.1	14.6	6.04e-01	0	26	0	5200936960	53	4767
2026-01-13 08:16:27.37	309.77	42.72	-44.9	-47.3	14.5	6.00e-01	0	26	0	5247074304	53	4901
2026-01-13 08:16:30.35	311.17	41.64	-45.3	-47.7	14.3	6.01e-01	0	26	0	5293211648	53	5158
2026-01-13 08:16:33.33	312.47	40.58	-45.7	-48.1	14.3	6.01e-01	0	26	0	5337251840	54	5061
2026-01-13 08:16:36.32	313.70	39.53	-45.8	-48.2	14.2	6.03e-01	0	26	0	5383389184	54	5104
2026-01-13 08:16:39.30	314.84	38.51	-46.2	-48.7	14.1	6.04e-01	0	26	0	5429526528	55	5123
2026-01-13 08:16:42.29	315.91	37.51	-46.5	-48.9	14.2	6.03e-01	0	26	0	5475663872	56	4963
2026-01-13 08:16:45.27	316.92	36.54	-46.7	-48.9	14.1	6.04e-01	0	26	0	5521801216	56	4965
2026-01-13 08:16:48.25	317.86	35.59	-47.0	-49.3	14.0	6.07e-01	0	26	0	5567938560	57	4905
2026-01-13 08:16:51.22	318.75	34.67	-47.4	-49.9	13.8	6.03e-01	0	26	0	5611978752	57	5228
2026-01-13 08:16:54.22	319.60	33.77	-47.6	-49.9	13.8	6.03e-01	0	26	0	5658116096	58	4974
2026-01-13 08:16:57.22	320.39	32.89	-47.7	-50.0	13.8	6.03e-01	0	26	0	5704253440	58	4989
2026-01-13 08:17:00.22	321.15	32.03	-48.0	-50.3	13.8	6.04e-01	0	26	0	5750390784	59	4897
2026-01-13 08:17:03.21	321.86	31.20	-47.9	-50.2	13.8	6.03e-01	0	26	0	5796528128	59	4852
2026-01-13 08:17:06.17	322.53	30.40	-47.9	-50.2	13.8	6.01e-01	0	26	0	5842665472	59	4822
2026-01-13 08:17:09.16	323.17	29.62	-47.8	-50.1	13.8	6.03e-01	0	26	0	5888802816	59	4796
2026-01-13 08:17:12.15	323.78	28.85	-47.9	-50.2	13.8	6.06e-01	0	26	0	5934940160	59	4870
2026-01-13 08:17:15.14	324.35	28.11	-47.9	-50.3	13.8	6.04e-01	0	26	0	5981077504	59	4880
2026-01-13 08:17:18.12	324.90	27.39	-48.0	-50.3	13.7	6.05e-01	0	26	0	6025117696	59	4896
2026-01-13 08:17:21.10	325.43	26.69	-47.9	-50.2	13.8	6.04e-01	0	26	0	6071255040	59	4866
2026-01-13 08:17:24.10	325.93	26.01	-47.9	-50.2	13.8	6.03e-01	0	26	0	6117392384	59	4867
2026-01-13 08:17:27.07	326.41	25.35	-47.9	-50.2	13.8	6.00e-01	0	26	0	6163529728	59	4817
2026-01-13 08:17:30.07	326.86	24.70	-47.8	-50.0	13.9	6.01e-01	0	26	0	6209667072	59	4739
2026-01-13 08:17:33.06	327.30	24.08	-47.8	-50.1	13.8	5.96e-01	0	26	0	6255804416	59	4788
2026-01-13 08:17:36.03	327.72	23.47	-47.7	-50.0	13.9	5.75e-01	0	26	0	6301941760	59	4737
2026-01-13 08:17:39.02	328.12	22.87	-47.8	-50.1	13.8	5.76e-01	0	26	0	6348079104	59	4799
2026-01-13 08:17:42.02	328.51	22.29	-47.8	-50.3	13.8	5.76e-01	0	26	0	6394216448	59	4883
2026-01-13 08:17:45.02	328.88	21.72	-47.9	-50.3	13.7	5.76e-01	0	26	0	6438256640	59	4900
2026-01-13 08:17:48.01	329.24	21.17	-60.6	-70.3	3.8	7.44e-01	0	26	104	6482296832	84	11677
2026-01-13 08:17:50.99	329.58	20.64	-60.6	-70.3	3.8	7.45e-01	0	26	104	6482296832	84	11631
2026-01-13 08:17:53.97	329.91	20.12	-60.6	-70.3	3.8	7.46e-01	0	26	104	6482296832	84	11637
2026-01-13 08:17:56.96	330.23	19.61	-60.5	-70.2	3.8	7.46e-01	0	26	104	6482296832	84	11547
2026-01-13 08:17:59.94	330.54	19.11	-60.5	-70.3	3.8	7.47e-01	0	26	104	6482296832	84	11583
2026-01-13 08:18:02.90	330.83	18.63	-60.5	-70.2	3.8	7.46e-01	0	26	104	6482296832	84	11499
2026-01-13 08:18:05.87	331.12	18.16	-60.4	-70.1	3.8	7.45e-01	0	26	104	6482296832	84	11392
2026-01-13 08:18:08.85	331.39	17.69	-60.4	-70.1	3.8	7.45e-01	0	26	104	6482296832	84	11352
2026-01-13 08:18:11.82	331.66	17.24	-60.4	-70.1	3.8	7.46e-01	0	26	104	6482296832	84	11408
2026-01-13 08:18:14.80	331.92	16.80	-60.3	-70.0	3.8	7.45e-01	0	26	104	6482296832	84	11216
2026-01-13 08:18:17.78	332.17	16.37	-60.4	-70.1	3.8	7.45e-01	0	26	104	6482296832	84	11340
2026-01-13 08:18:20.76	332.41	15.94	-60.3	-70.0	3.8	7.45e-01	0	26	104	6482296832	84	11265
2026-01-13 08:18:23.76	332.65	15.53	-60.3	-70.0	3.8	7.46e-01	0	26	104	6482296832	84	11281
2026-01-13 08:18:26.78	332.88	15.12	-60.3	-70.0	3.8	7.46e-01	0	26	104	6482296832	84	11174
2026-01-13 08:18:29.80	333.10	14.71	-60.3	-70.0	3.8	7.45e-01	0	26	104	6482296832	84	11202
2026-01-13 08:18:32.83	333.32	14.32	-60.2	-69.9	3.8	7.47e-01	0	26	104	6482296832	84	11151
2026-01-13 08:18:35.85	333.53	13.93	-60.2	-69.9	3.8	7.46e-01	0	26	104	6482296832	84	11136
2026-01-13 08:18:38.87	333.74	13.55	-60.2	-69.9	3.8	7.46e-01	0	26	104	6482296832	84	11082
2026-01-13 08:18:41.90	333.94	13.18	-60.2	-69.9	3.8	7.45e-01	0	26	104	6482296832	84	11087
2026-01-13 08:18:44.92	334.13	12.82	-60.1	-69.8	3.8	7.46e-01	0	26	104	6482296832	84	10993
2026-01-13 08:18:47.95	334.32	12.46	-60.1	-69.9	3.8	7.47e-01	0	26	104	6482296832	84	11061
2026-01-13 08:18:50.98	334.50	12.11	-60.1	-69.8	3.8	7.45e-01	0	26	104	6482296832	84	10946
2026-01-13 08:18:54.00	334.68	11.76	-60.1	-69.8	3.8	7.46e-01	0	26	104	6482296832	84	10987
2026-01-13 08:18:57.02	334.86	11.42	-60.0	-69.7	3.8	7.43e-01	0	26	104	6482296832	84	10860
2026-01-13 08:19:00.04	335.03	11.09	-60.0	-69.7	3.8	7.45e-01	0	26	104	6482296832	84	10846
2026-01-13 08:19:03.07	335.19	10.76	-60.0	-69.7	3.8	7.47e-01	0	26	104	6482296832	84	10816
2026-01-13 08:19:06.09	335.35	10.44	-60.0	-69.7	3.8	7.46e-01	0	26	104	6482296832	84	10839
2026-01-13 08:19:09.12	335.51	10.13	-59.9	-69.6	3.8	7.46e-01	0	26	104	6482296832	84	10712
2026-01-13 08:19:12.14	335.66	9.82	-59.9	-69.7	3.8	7.45e-01	0	26	104	6482296832	84	10808
2026-01-13 08:19:15.17	335.81	9.51	-59.9	-69.6	3.8	7.46e-01	0	26	104	6482296832	84	10716
2026-01-13 08:19:18.20	335.96	9.21	-59.8	-69.6	3.8	7.46e-01	0	26	104	6482296832	84	10686
2026-01-13 08:19:21.22	336.10	8.91	-59.8	-69.5	3.8	7.45e-01	0	26	104	6482296832	84	10624
2026-01-13 08:19:24.25	336.25	8.62	-59.8	-69.5	3.8	7.46e-01	0	26	104	6482296832	84	10646
2026-01-13 08:19:27.28	336.38	8.33	-59.7	-69.5	3.8	7.44e-01	0	26	104	6482296832	84	10537
2026-01-13 08:19:30.31	336.52	8.05	-59.7	-69.4	3.8	7.46e-01	0	26	104	6482296832	84	10491
2026-01-13 08:19:33.33	336.65	7.77	-59.7	-69.4	3.8	7.45e-01	0	26	104	6482296832	84	10478
2026-01-13 08:19:36.35	336.78	7.50	-59.6	-69.3	3.8	7.46e-01	0	27	104	6482296832	83	10946
2026-01-13 08:19:39.37	336.90	7.23	-59.5	-69.2	3.8	7.46e-01	0	26	104	6482296832	83	10870
2026-01-13 08:19:42.40	337.02	6.96	-59.5	-69.2	3.8	7.47e-01	0	26	104	6482296832	83	10822
2026-01-13 08:19:45.43	337.15	6.69	-59.4	-69.1	3.8	7.45e-01	0	26	104	6482296832	83	10756
2026-01-13 08:19:48.44	337.26	6.43	-59.4	-69.1	3.8	7.46e-01	0	26	104	6482296832	83	10741
2026-01-13 08:19:51.47	337.38	6.18	-59.3	-69.1	3.8	7.46e-01	0	26	104	6482296832	83	10680
2026-01-13 08:19:54.49	337.49	5.92	-59.3	-69.0	3.8	7.47e-01	0	26	104	6482296832	83	10594
2026-01-13 08:19:57.51	337.60	5.67	-59.3	-69.0	3.8	7.46e-01	0	26	104	6482296832	83	10582
2026-01-13 08:20:00.52	337.71	5.43	-59.2	-68.9	3.8	7.44e-01	0	26	104	6482296832	82	11090
2026-01-13 08:20:03.55	337.82	5.18	-59.2	-68.9	3.8	7.46e-01	0	26	104	6482296832	82	11139
2026-01-13 08:20:06.58	337.93	4.94	-59.5	-69.3	3.8	7.47e-01	0	26	104	6482296832	82	11561
2026-01-13 08:20:09.60	338.03	4.70	-60.3	-70.1	3.8	7.44e-01	0	26	104	6482296832	83	12010
2026-01-13 08:20:12.63	338.13	4.47	-60.9	-70.6	3.8	7.46e-01	0	26	104	6482296832	84	11989
2026-01-13 08:20:15.66	338.23	4.23	-61.1	-70.9	3.8	7.46e-01	0	26	104	6482296832	85	11685
2026-01-13 08:20:18.69	338.33	4.00	-61.2	-70.9	3.8	7.44e-01	0	26	104	6482296832	85	11782
2026-01-13 08:20:21.71	338.43	3.78	-61.3	-71.0	3.8	7.45e-01	0	26	104	6482296832	85	11893
2026-01-13 08:20:24.73	338.52	3.55	-61.3	-71.1	3.8	7.46e-01	0	26	104	6482296832	85	11962
2026-01-13 08:20:27.76	338.62	3.33	-61.3	-71.1	3.8	7.45e-01	0	26	104	6482296832	85	11996
2026-01-13 08:20:30.79	338.71	3.11	-61.2	-71.0	3.8	7.45e-01	0	26	104	6482296832	85	11873
2026-01-13 08:20:33.81	338.80	2.89	-61.2	-70.9	3.8	7.45e-01	0	26	104	6482296832	85	11780
2026-01-13 08:20:36.84	338.89	2.67	-61.2	-70.9	3.8	7.45e-01	0	26	104	6482296832	85	11765
2026-01-13 08:20:39.86	338.97	2.46	-61.2	-70.9	3.8	7.45e-01	0	26	104	6482296832	85	11748
2026-01-13 08:20:42.89	339.06	2.25	-61.1	-70.9	3.8	7.46e-01	0	26	104	6482296832	85	11734
2026-01-13 08:20:45.92	339.15	2.04	-61.1	-70.9	3.8	7.45e-01	0	26	104	6482296832	85	11755
2026-01-13 08:20:48.94	339.23	1.83	-61.1	-70.9	3.8	7.46e-01	0	26	104	6482296832	85	11692

#Closed at: 2026-01-13 08:20:49
#Recorded file [6482 MB]: D:/lorett/data/31004_260113_111020.dat