passes_logs/2026/01/13/R3.2S_Murmansk/R3.2S_Murmansk__20260113_230835_FENGYUN_3D_rec.log

#Pass ID: 20260113_230835_FENGYUN 3D
#Satellite: FENGYUN 3D
#Configuration: FENGYUN 3D
#almurnet v.1.7.20251203
#Start time: 2026-01-13 23:08:35

#Version: 2.2.20231116
#Station: R3.2S_Murmansk
#Location: 33.079688 lon 68.888172 lat
#TLE: 1 43010U 17072A   26013.59402220  .00000029  00000+0  35477-4 0  9991
#TLE: 2 43010  98.9934 345.3884 0002280 110.7757 249.3663 14.19695359423056

#Time	Az	El	Level	Level2	SNR	BER	BlckErr	Temp	State	Recorded	gain1	gain2
2026-01-13 23:08:35.91	19.55	2.04	-57.8	-70.8	3.8	8.44e-01	0	25	0	0	82	15498
2026-01-13 23:08:38.91	19.87	2.16	-57.8	-70.6	3.8	8.45e-01	0	25	104	0	80	17048
2026-01-13 23:08:41.90	20.18	2.28	-57.8	-70.5	3.8	8.46e-01	0	25	104	0	80	16875
2026-01-13 23:08:44.89	20.50	2.40	-57.8	-70.6	3.8	8.44e-01	0	25	104	0	80	17049
2026-01-13 23:08:47.89	20.82	2.53	-57.8	-70.5	3.8	8.46e-01	0	25	104	0	80	16822
2026-01-13 23:08:50.89	21.14	2.65	-57.8	-70.4	3.8	8.45e-01	0	26	104	0	80	16543
2026-01-13 23:08:53.89	21.47	2.77	-57.8	-70.4	3.8	8.45e-01	0	26	104	0	80	16515
2026-01-13 23:08:56.89	21.80	2.90	-57.8	-70.6	3.8	8.46e-01	0	26	104	0	80	16958
2026-01-13 23:08:59.90	22.13	3.02	-57.8	-70.5	3.8	8.47e-01	0	26	104	0	80	16881
2026-01-13 23:09:02.89	22.47	3.14	-57.8	-70.5	3.8	8.45e-01	0	26	104	0	80	16752
2026-01-13 23:09:05.89	22.81	3.26	-57.8	-70.7	3.8	8.45e-01	0	26	104	0	80	17225
2026-01-13 23:09:08.89	23.15	3.38	-57.8	-70.7	3.8	8.46e-01	0	26	104	0	80	17181
2026-01-13 23:09:11.89	23.49	3.50	-57.8	-70.8	3.8	8.44e-01	0	26	104	0	80	17332
2026-01-13 23:09:14.88	23.83	3.63	-57.8	-70.7	3.8	8.46e-01	0	26	104	0	80	17122
2026-01-13 23:09:17.87	24.18	3.75	-57.8	-70.7	3.8	8.46e-01	0	26	104	0	80	17115
2026-01-13 23:09:20.87	24.53	3.87	-57.8	-70.8	3.8	8.46e-01	0	26	104	0	80	17360
2026-01-13 23:09:23.87	24.88	3.99	-57.8	-70.7	3.8	8.45e-01	0	26	104	0	80	17241
2026-01-13 23:09:26.86	25.24	4.11	-57.8	-70.8	3.8	8.45e-01	0	26	104	0	80	17292
2026-01-13 23:09:29.86	25.60	4.22	-57.8	-70.7	3.8	8.45e-01	0	26	104	0	80	17193
2026-01-13 23:09:32.86	25.96	4.34	-57.9	-70.7	3.8	8.46e-01	0	26	104	0	80	17278
2026-01-13 23:09:35.87	26.33	4.46	-57.7	-68.8	3.8	8.45e-01	0	26	104	0	80	13792
2026-01-13 23:09:38.86	26.69	4.58	-57.7	-68.6	4.0	8.44e-01	0	27	104	0	80	13477
2026-01-13 23:09:41.85	27.06	4.70	-56.7	-62.8	6.4	2.80e-01	0	27	0	3145728	80	6950
2026-01-13 23:09:44.84	27.43	4.81	-53.7	-56.4	11.6	6.52e-05	0	27	0	19922944	74	4686
2026-01-13 23:09:47.82	27.81	4.93	-53.2	-55.6	12.0	4.50e-06	0	26	0	36700160	72	4807
2026-01-13 23:09:50.83	28.19	5.05	-54.4	-57.5	10.8	3.97e-04	0	27	0	53477376	74	5290
2026-01-13 23:09:53.83	28.57	5.16	-49.9	-51.4	14.1	0.00e+00	0	27	0	70254592	66	4175
2026-01-13 23:09:56.82	28.95	5.28	-49.7	-51.1	14.3	0.00e+00	0	27	0	87031808	66	4043
2026-01-13 23:09:59.84	29.34	5.39	-49.6	-51.1	14.2	0.00e+00	0	26	0	103809024	65	4243
2026-01-13 23:10:02.84	29.74	5.51	-49.6	-51.0	14.2	0.00e+00	0	27	0	120586240	65	4242
2026-01-13 23:10:05.84	30.13	5.62	-49.8	-51.3	14.1	0.00e+00	0	27	0	137363456	65	4350
2026-01-13 23:10:08.84	30.53	5.73	-49.7	-51.2	14.1	0.00e+00	0	27	0	155189248	65	4335
2026-01-13 23:10:11.83	30.92	5.85	-49.7	-51.2	14.1	0.00e+00	0	27	0	171966464	65	4324
2026-01-13 23:10:14.82	31.33	5.96	-49.4	-50.8	14.4	0.00e+00	0	27	0	188743680	65	4111
2026-01-13 23:10:17.82	31.73	6.07	-49.4	-50.8	14.3	0.00e+00	0	27	0	205520896	65	4127
2026-01-13 23:10:20.81	32.14	6.18	-49.5	-50.9	14.3	0.00e+00	0	27	0	222298112	65	4176
2026-01-13 23:10:23.81	32.55	6.29	-49.3	-50.7	14.4	0.00e+00	0	27	0	239075328	65	4095
2026-01-13 23:10:26.80	32.96	6.40	-49.6	-51.0	14.3	0.00e+00	0	27	0	255852544	65	4234
2026-01-13 23:10:29.81	33.38	6.50	-49.5	-51.0	14.3	0.00e+00	0	27	0	272629760	65	4216
2026-01-13 23:10:32.79	33.80	6.61	-49.4	-50.8	14.4	0.00e+00	0	27	0	289406976	65	4114
2026-01-13 23:10:35.79	34.22	6.72	-49.4	-50.8	14.4	0.00e+00	0	27	0	306184192	65	4109
2026-01-13 23:10:38.79	34.65	6.82	-49.5	-50.9	14.3	0.00e+00	0	27	0	322961408	65	4168
2026-01-13 23:10:41.78	35.08	6.93	-49.5	-50.9	14.3	0.00e+00	0	27	0	339738624	65	4190
2026-01-13 23:10:44.78	35.51	7.03	-49.5	-50.9	14.4	0.00e+00	0	27	0	356515840	65	4163
2026-01-13 23:10:47.78	35.94	7.13	-49.3	-50.7	14.4	0.00e+00	0	27	0	373293056	65	4098
2026-01-13 23:10:50.78	36.38	7.23	-49.3	-50.7	14.5	0.00e+00	0	27	0	391118848	65	4055
2026-01-13 23:10:53.77	36.82	7.33	-49.1	-50.5	14.4	0.00e+00	0	27	0	407896064	64	4198
2026-01-13 23:10:56.76	37.27	7.43	-49.2	-50.6	14.4	0.00e+00	0	27	0	424673280	64	4258
2026-01-13 23:10:59.75	37.71	7.53	-49.2	-50.6	14.4	0.00e+00	0	27	0	441450496	64	4277
2026-01-13 23:11:02.75	38.16	7.63	-49.1	-50.4	14.5	0.00e+00	0	27	0	458227712	64	4187
2026-01-13 23:11:05.76	38.62	7.73	-48.9	-50.2	14.6	0.00e+00	0	27	0	475004928	64	4084
2026-01-13 23:11:08.75	39.07	7.82	-48.7	-50.0	14.7	0.00e+00	0	27	0	491782144	64	3990
2026-01-13 23:11:11.75	39.53	7.91	-48.8	-50.1	14.6	0.00e+00	0	27	0	508559360	64	4036
2026-01-13 23:11:14.75	39.99	8.01	-48.9	-50.3	14.6	0.00e+00	0	27	0	525336576	64	4105
2026-01-13 23:11:17.73	40.45	8.10	-48.9	-50.3	14.6	0.00e+00	0	27	0	542113792	64	4102
2026-01-13 23:11:20.73	40.92	8.19	-48.8	-50.1	14.6	0.00e+00	0	27	0	558891008	64	4030
2026-01-13 23:11:23.74	41.39	8.28	-48.8	-50.1	14.7	0.00e+00	0	27	0	575668224	64	4013
2026-01-13 23:11:26.74	41.86	8.36	-48.8	-50.1	14.6	0.00e+00	0	27	0	592445440	64	4022
2026-01-13 23:11:29.74	42.34	8.45	-49.0	-50.4	14.5	0.00e+00	0	27	0	610271232	64	4151
2026-01-13 23:11:32.74	42.82	8.54	-48.9	-50.2	14.6	0.00e+00	0	27	0	627048448	64	4074
2026-01-13 23:11:35.73	43.30	8.62	-48.7	-50.0	14.6	0.00e+00	0	27	0	643825664	63	4220
2026-01-13 23:11:38.72	43.78	8.70	-48.8	-50.2	14.5	0.00e+00	0	27	0	660602880	63	4313
2026-01-13 23:11:41.72	44.26	8.78	-48.9	-50.3	14.5	0.00e+00	0	27	0	677380096	63	4363
2026-01-13 23:11:44.72	44.75	8.86	-49.1	-50.4	14.4	0.00e+00	0	27	0	694157312	63	4429
2026-01-13 23:11:47.71	45.24	8.94	-48.8	-50.1	14.5	0.00e+00	0	27	0	710934528	63	4283
2026-01-13 23:11:50.71	45.74	9.01	-48.8	-50.1	14.5	0.00e+00	0	27	0	727711744	63	4273
2026-01-13 23:11:53.69	46.23	9.09	-48.8	-50.2	14.5	0.00e+00	0	27	0	744488960	63	4300
2026-01-13 23:11:56.67	46.72	9.16	-48.9	-50.2	14.5	0.00e+00	0	27	0	761266176	63	4340
2026-01-13 23:11:59.68	47.23	9.23	-48.7	-50.0	14.6	0.00e+00	0	27	0	778043392	63	4216
2026-01-13 23:12:02.66	47.73	9.30	-48.7	-50.1	14.5	0.00e+00	0	27	0	794820608	63	4256
2026-01-13 23:12:05.64	48.23	9.37	-48.6	-49.9	14.6	0.00e+00	0	27	0	811597824	63	4159
2026-01-13 23:12:08.65	48.74	9.43	-48.4	-49.7	14.7	0.00e+00	0	27	0	828375040	63	4069
2026-01-13 23:12:11.65	49.25	9.50	-48.5	-49.7	14.7	0.00e+00	0	27	0	845152256	63	4092
2026-01-13 23:12:14.64	49.76	9.56	-48.5	-49.8	14.7	0.00e+00	0	27	0	861929472	63	4107
2026-01-13 23:12:17.64	50.27	9.62	-48.3	-49.6	14.8	0.00e+00	0	27	0	878706688	63	4014
2026-01-13 23:12:20.64	50.79	9.68	-48.2	-49.4	14.7	0.00e+00	0	27	0	896532480	62	4181
2026-01-13 23:12:23.63	51.31	9.73	-48.2	-49.5	14.7	0.00e+00	0	27	0	913309696	62	4220
2026-01-13 23:12:26.64	51.83	9.79	-48.5	-49.8	14.6	0.00e+00	0	27	0	930086912	62	4344
2026-01-13 23:12:29.63	52.35	9.84	-48.6	-49.9	14.5	0.00e+00	0	27	0	946864128	62	4404
2026-01-13 23:12:32.61	52.87	9.89	-48.3	-49.6	14.6	0.00e+00	0	27	0	963641344	62	4265
2026-01-13 23:12:35.61	53.40	9.94	-48.3	-49.6	14.7	0.00e+00	0	27	0	980418560	62	4246
2026-01-13 23:12:38.59	53.92	9.99	-48.4	-49.6	14.6	0.00e+00	0	27	0	997195776	62	4272
2026-01-13 23:12:41.59	54.45	10.03	-48.5	-49.7	14.6	0.00e+00	0	27	0	1013972992	62	4336
2026-01-13 23:12:44.59	54.98	10.07	-48.5	-49.8	14.5	0.00e+00	0	27	0	1030750208	62	4376
2026-01-13 23:12:47.58	55.51	10.11	-48.7	-50.1	14.5	0.00e+00	0	27	0	1047527424	62	4503
2026-01-13 23:12:50.57	56.04	10.15	-48.4	-49.7	14.6	0.00e+00	0	27	0	1064304640	62	4292
2026-01-13 23:12:53.56	56.58	10.19	-48.4	-49.7	14.6	0.00e+00	0	27	0	1081081856	62	4331
2026-01-13 23:12:56.55	57.11	10.22	-48.4	-49.7	14.6	0.00e+00	0	27	0	1097859072	62	4324
2026-01-13 23:12:59.54	57.65	10.25	-48.3	-49.6	14.6	0.00e+00	0	27	0	1114636288	62	4252
2026-01-13 23:13:02.52	58.18	10.28	-48.4	-49.6	14.6	0.00e+00	0	27	0	1131413504	62	4291
2026-01-13 23:13:05.51	58.72	10.31	-48.2	-49.5	14.7	0.00e+00	0	27	0	1148190720	62	4201
2026-01-13 23:13:08.51	59.26	10.34	-48.4	-49.7	14.6	0.00e+00	0	27	0	1164967936	62	4310
2026-01-13 23:13:11.50	59.80	10.36	-48.5	-49.7	14.6	0.00e+00	0	27	0	1181745152	62	4340
2026-01-13 23:13:14.50	60.34	10.38	-48.4	-49.7	14.6	0.00e+00	0	27	0	1198522368	62	4321
2026-01-13 23:13:17.50	60.88	10.40	-48.3	-49.5	14.7	0.00e+00	0	27	0	1216348160	62	4229
2026-01-13 23:13:20.49	61.43	10.42	-48.2	-49.4	14.7	0.00e+00	0	27	0	1233125376	62	4172
2026-01-13 23:13:23.48	61.97	10.43	-48.2	-49.4	14.7	0.00e+00	0	27	0	1249902592	62	4192
2026-01-13 23:13:26.48	62.51	10.44	-48.3	-49.6	14.7	0.00e+00	0	27	0	1266679808	62	4254
2026-01-13 23:13:29.47	63.06	10.45	-48.3	-49.6	14.7	0.00e+00	0	27	0	1283457024	62	4259
2026-01-13 23:13:32.46	63.60	10.46	-48.2	-49.5	14.7	0.00e+00	0	27	0	1300234240	62	4206
2026-01-13 23:13:35.46	64.15	10.47	-48.3	-49.5	14.7	0.00e+00	0	27	0	1317011456	62	4242
2026-01-13 23:13:38.46	64.69	10.47	-48.5	-49.8	14.6	0.00e+00	0	27	0	1333788672	62	4353
2026-01-13 23:13:41.45	65.24	10.47	-48.4	-49.7	14.6	0.00e+00	0	27	0	1350565888	62	4336
2026-01-13 23:13:44.45	65.78	10.47	-48.4	-49.6	14.6	0.00e+00	0	27	0	1367343104	62	4284
2026-01-13 23:13:47.45	66.33	10.46	-48.3	-49.5	14.7	0.00e+00	0	27	0	1384120320	62	4219
2026-01-13 23:13:50.44	66.87	10.46	-48.3	-49.6	14.6	0.00e+00	0	27	0	1400897536	62	4253
2026-01-13 23:13:53.43	67.42	10.45	-48.4	-49.7	14.6	0.00e+00	0	27	0	1417674752	62	4293
2026-01-13 23:13:56.43	67.96	10.44	-48.3	-49.5	14.6	0.00e+00	0	27	0	1434451968	62	4235
2026-01-13 23:13:59.42	68.51	10.43	-48.4	-49.7	14.6	0.00e+00	0	27	0	1452277760	62	4325
2026-01-13 23:14:02.41	69.05	10.41	-48.6	-49.9	14.5	0.00e+00	0	27	0	1468006400	62	4435
2026-01-13 23:14:05.41	69.59	10.39	-48.7	-50.0	14.5	0.00e+00	0	27	0	1484783616	62	4470
2026-01-13 23:14:08.42	70.14	10.37	-48.5	-49.8	14.5	0.00e+00	0	27	0	1502609408	62	4379
2026-01-13 23:14:11.41	70.68	10.35	-48.4	-49.7	14.6	0.00e+00	0	27	0	1519386624	62	4307
2026-01-13 23:14:14.41	71.22	10.33	-48.4	-49.7	14.6	0.00e+00	0	27	0	1536163840	62	4322
2026-01-13 23:14:17.41	71.76	10.30	-48.3	-49.6	14.6	0.00e+00	0	27	0	1552941056	62	4271
2026-01-13 23:14:20.39	72.30	10.27	-48.3	-49.6	14.6	0.00e+00	0	27	0	1569718272	62	4251
2026-01-13 23:14:23.39	72.84	10.24	-48.4	-49.7	14.6	0.00e+00	0	27	0	1586495488	62	4295
2026-01-13 23:14:26.39	73.37	10.21	-48.5	-49.8	14.5	0.00e+00	0	27	0	1603272704	62	4389
2026-01-13 23:14:29.40	73.91	10.18	-48.5	-49.8	14.6	0.00e+00	0	27	0	1620049920	62	4355
2026-01-13 23:14:32.40	74.45	10.14	-48.2	-49.5	14.7	0.00e+00	0	27	0	1636827136	62	4213
2026-01-13 23:14:35.38	74.98	10.10	-48.4	-49.6	14.6	0.00e+00	0	27	0	1653604352	62	4288
2026-01-13 23:14:38.38	75.51	10.06	-48.4	-49.7	14.6	0.00e+00	0	27	0	1671430144	62	4313
2026-01-13 23:14:41.36	76.04	10.01	-48.5	-49.8	14.5	0.00e+00	0	27	0	1687158784	62	4387
2026-01-13 23:14:44.37	76.57	9.97	-48.5	-49.9	14.4	0.00e+00	0	27	0	1704984576	62	4419
2026-01-13 23:14:47.35	77.09	9.92	-48.4	-49.9	14.5	0.00e+00	0	27	0	1721761792	62	4403
2026-01-13 23:14:50.35	77.62	9.87	-48.6	-50.0	14.4	0.00e+00	0	27	0	1738539008	62	4490
2026-01-13 23:14:53.36	78.15	9.82	-48.7	-50.1	14.4	0.00e+00	0	27	0	1755316224	62	4539
2026-01-13 23:14:56.35	78.67	9.77	-48.4	-49.8	14.5	0.00e+00	0	27	0	1772093440	62	4379
2026-01-13 23:14:59.36	79.19	9.71	-48.4	-49.9	14.5	0.00e+00	0	27	0	1788870656	62	4404
2026-01-13 23:15:02.37	79.71	9.65	-48.5	-49.9	14.5	0.00e+00	0	27	0	1805647872	62	4418
2026-01-13 23:15:05.36	80.23	9.59	-48.5	-50.0	14.4	0.00e+00	0	27	0	1822425088	62	4457
2026-01-13 23:15:08.37	80.74	9.53	-48.5	-50.0	14.4	0.00e+00	0	27	0	1839202304	62	4455
2026-01-13 23:15:11.38	81.26	9.47	-48.6	-50.1	14.4	0.00e+00	0	27	0	1857028096	62	4516
2026-01-13 23:15:14.39	81.77	9.41	-48.6	-50.1	14.4	0.00e+00	0	27	0	1873805312	62	4531
2026-01-13 23:15:17.38	82.28	9.34	-48.7	-50.2	14.3	0.00e+00	0	27	0	1890582528	62	4587
2026-01-13 23:15:20.38	82.78	9.27	-48.8	-50.3	14.3	0.00e+00	0	27	0	1907359744	62	4635
2026-01-13 23:15:23.40	83.29	9.20	-48.8	-50.3	14.4	0.00e+00	0	27	0	1924136960	63	4386
2026-01-13 23:15:26.39	83.79	9.13	-48.9	-50.4	14.3	0.00e+00	0	27	0	1940914176	63	4430
2026-01-13 23:15:29.41	84.29	9.05	-48.9	-50.3	14.4	0.00e+00	0	27	0	1957691392	63	4391
2026-01-13 23:15:32.41	84.79	8.98	-48.7	-50.2	14.5	0.00e+00	0	27	0	1974468608	63	4292
2026-01-13 23:15:35.41	85.28	8.90	-48.7	-50.2	14.4	0.00e+00	0	27	0	1991245824	63	4293
2026-01-13 23:15:38.41	85.78	8.82	-48.7	-50.2	14.4	0.00e+00	0	27	0	2008023040	63	4308
2026-01-13 23:15:41.41	86.26	8.74	-48.8	-50.3	14.4	0.00e+00	0	27	0	2024800256	63	4369
2026-01-13 23:15:44.40	86.75	8.66	-48.8	-50.3	14.4	0.00e+00	0	27	0	2042626048	63	4356
2026-01-13 23:15:47.40	87.23	8.58	-49.0	-50.5	14.3	0.00e+00	0	27	0	2059403264	63	4474
2026-01-13 23:15:50.39	87.71	8.50	-49.1	-50.7	14.2	0.00e+00	0	27	0	2076180480	63	4563
2026-01-13 23:15:53.38	88.19	8.41	-49.1	-50.7	14.2	0.00e+00	0	27	0	2092957696	63	4567
2026-01-13 23:15:56.38	88.67	8.32	-48.9	-50.4	14.3	0.00e+00	0	27	0	2109734912	63	4434
2026-01-13 23:15:59.39	89.14	8.23	-48.8	-50.3	14.4	0.00e+00	0	27	0	2126512128	63	4373
2026-01-13 23:16:02.37	89.61	8.14	-48.9	-50.4	14.3	0.00e+00	0	27	0	2143289344	63	4409
2026-01-13 23:16:05.37	90.08	8.05	-49.1	-50.7	14.2	0.00e+00	0	27	0	2160066560	63	4552
2026-01-13 23:16:08.36	90.54	7.96	-49.2	-50.7	14.2	0.00e+00	0	27	0	2176843776	63	4586
2026-01-13 23:16:11.36	91.00	7.87	-49.3	-50.8	14.1	0.00e+00	0	27	0	2193620992	63	4636
2026-01-13 23:16:14.37	91.46	7.77	-49.4	-50.9	14.1	0.00e+00	0	27	0	2211446784	63	4696
2026-01-13 23:16:17.37	91.92	7.68	-49.3	-50.9	14.1	0.00e+00	0	27	0	2228224000	63	4656
2026-01-13 23:16:20.39	92.37	7.58	-49.2	-50.8	14.1	0.00e+00	0	27	0	2245001216	63	4607
2026-01-13 23:16:23.39	92.82	7.48	-49.2	-50.7	14.2	0.00e+00	0	27	0	2261778432	63	4584
2026-01-13 23:16:26.38	93.27	7.38	-49.2	-50.7	14.2	0.00e+00	0	27	0	2278555648	63	4586
2026-01-13 23:16:29.39	93.72	7.28	-49.1	-50.6	14.2	0.00e+00	0	27	0	2295332864	63	4496
2026-01-13 23:16:32.39	94.16	7.18	-49.2	-50.7	14.2	0.00e+00	0	27	0	2312110080	63	4561
2026-01-13 23:16:35.40	94.60	7.07	-49.3	-50.9	14.1	0.00e+00	0	27	0	2328887296	63	4668
2026-01-13 23:16:38.39	95.03	6.97	-49.5	-51.2	14.0	0.00e+00	0	27	0	2345664512	64	4551
2026-01-13 23:16:41.39	95.47	6.87	-49.5	-51.1	14.0	0.00e+00	0	27	0	2362441728	64	4532
2026-01-13 23:16:44.39	95.89	6.76	-49.5	-51.1	14.1	0.00e+00	0	27	0	2379218944	64	4522
2026-01-13 23:16:47.40	96.32	6.65	-49.5	-51.1	14.0	0.00e+00	0	27	0	2397044736	64	4516
2026-01-13 23:16:50.41	96.75	6.55	-49.6	-51.2	14.0	0.00e+00	0	27	0	2413821952	64	4555
2026-01-13 23:16:53.41	97.17	6.44	-49.7	-51.3	13.9	0.00e+00	0	27	0	2430599168	64	4650
2026-01-13 23:16:56.41	97.59	6.33	-49.8	-51.5	13.9	0.00e+00	0	27	0	2447376384	64	4719
2026-01-13 23:16:59.42	98.00	6.22	-49.7	-51.4	13.9	0.00e+00	0	27	0	2464153600	64	4667
2026-01-13 23:17:02.42	98.41	6.11	-49.6	-51.2	14.0	0.00e+00	0	27	0	2480930816	64	4573
2026-01-13 23:17:05.42	98.82	6.00	-49.4	-50.9	14.1	0.00e+00	0	27	0	2497708032	64	4427
2026-01-13 23:17:08.43	99.23	5.88	-49.5	-51.1	14.1	0.00e+00	0	27	0	2514485248	64	4501
2026-01-13 23:17:11.44	99.63	5.77	-49.5	-51.1	14.0	0.00e+00	0	27	0	2532311040	64	4519
2026-01-13 23:17:14.43	100.03	5.66	-49.9	-51.6	13.8	0.00e+00	0	27	0	2549088256	64	4760
2026-01-13 23:17:17.44	100.43	5.54	-49.9	-51.5	13.9	0.00e+00	0	27	0	2565865472	65	4490
2026-01-13 23:17:20.44	100.82	5.43	-50.1	-51.9	13.7	0.00e+00	0	27	0	2582642688	65	4672
2026-01-13 23:17:23.44	101.21	5.31	-50.0	-51.7	13.8	0.00e+00	0	27	0	2599419904	65	4596
2026-01-13 23:17:26.44	101.60	5.20	-49.7	-51.4	14.0	0.00e+00	0	27	0	2616197120	65	4402
2026-01-13 23:17:29.45	101.99	5.08	-49.9	-51.6	13.9	0.00e+00	0	27	0	2632974336	65	4497
2026-01-13 23:17:32.45	102.37	4.96	-58.6	-71.5	3.8	8.43e-01	0	27	104	2646605824	82	16795
2026-01-13 23:17:35.44	102.75	4.85	-59.2	-72.3	3.8	8.45e-01	0	27	104	2646605824	83	17369
2026-01-13 23:17:38.45	103.12	4.73	-59.8	-72.8	3.8	8.46e-01	0	27	104	2646605824	84	17468
2026-01-13 23:17:41.45	103.50	4.61	-60.0	-73.1	3.8	8.45e-01	0	27	104	2646605824	85	16960
2026-01-13 23:17:44.46	103.87	4.49	-60.1	-73.2	3.8	8.46e-01	0	27	104	2646605824	85	17230
2026-01-13 23:17:47.45	104.24	4.37	-60.2	-73.3	3.8	8.45e-01	0	27	104	2646605824	85	17344
2026-01-13 23:17:50.44	104.60	4.25	-60.3	-73.3	3.8	8.46e-01	0	27	104	2646605824	85	17481
2026-01-13 23:17:53.44	104.96	4.13	-60.3	-73.4	3.8	8.46e-01	0	27	104	2646605824	85	17599
2026-01-13 23:17:56.44	105.32	4.01	-60.3	-73.5	3.8	8.46e-01	0	27	104	2646605824	85	17721
2026-01-13 23:17:59.45	105.68	3.89	-60.4	-73.5	3.8	8.44e-01	0	27	104	2646605824	85	17770
2026-01-13 23:18:02.44	106.03	3.77	-60.3	-73.4	3.8	8.45e-01	0	27	104	2646605824	85	17668
2026-01-13 23:18:05.44	106.38	3.65	-60.3	-73.4	3.8	8.45e-01	0	28	104	2646605824	85	17653
2026-01-13 23:18:08.44	106.73	3.52	-60.3	-73.4	3.8	8.44e-01	0	27	104	2646605824	85	17622
2026-01-13 23:18:11.43	107.07	3.40	-60.3	-73.4	3.8	8.46e-01	0	28	104	2646605824	85	17513
2026-01-13 23:18:14.42	107.41	3.28	-60.3	-73.4	3.8	8.47e-01	0	27	104	2646605824	85	17486
2026-01-13 23:18:17.41	107.75	3.16	-60.3	-73.4	3.8	8.44e-01	0	27	104	2646605824	85	17562
2026-01-13 23:18:20.41	108.09	3.04	-60.3	-73.4	3.8	8.45e-01	0	27	104	2646605824	85	17526
2026-01-13 23:18:23.39	108.42	2.91	-60.3	-73.3	3.8	8.47e-01	0	27	104	2646605824	85	17467
2026-01-13 23:18:26.39	108.75	2.79	-60.3	-73.4	3.8	8.46e-01	0	28	104	2646605824	85	17498
2026-01-13 23:18:29.38	109.08	2.67	-60.3	-73.3	3.8	8.45e-01	0	27	104	2646605824	85	17478
2026-01-13 23:18:32.38	109.40	2.54	-60.2	-73.3	3.8	8.46e-01	0	28	104	2646605824	85	17400
2026-01-13 23:18:35.39	109.73	2.42	-60.2	-73.4	3.8	8.45e-01	0	27	104	2646605824	85	17482
2026-01-13 23:18:38.39	110.05	2.29	-60.2	-73.3	3.8	8.45e-01	0	27	104	2646605824	85	17458
2026-01-13 23:18:41.40	110.37	2.17	-60.2	-73.3	3.8	8.45e-01	0	28	104	2646605824	85	17411
2026-01-13 23:18:44.41	110.69	2.04	-60.2	-73.3	3.8	8.45e-01	0	27	104	2646605824	85	17422

#Closed at: 2026-01-13 23:18:46
#Recorded file [2646 MB]: D:/lorett/data/31004_260114_020835.dat