passes_logs/2026/01/13/R3.2S_Murmansk/R3.2S_Murmansk__20260113_032902_SUOMI_NPP_rec.log

#Pass ID: 20260113_032902_SUOMI NPP
#Satellite: SUOMI NPP
#Configuration: NPP
#almurnet v.1.7.20251203
#Start time: 2026-01-13 03:29:02

#Version: 2.2.20231116
#Station: R3.2S_Murmansk
#Location: 33.079688 lon 68.888172 lat
#TLE: 1 37849U 11061A   26012.28456845  .00000093  00000+0  65163-4 0  9999
#TLE: 2 37849  98.7807 314.3566 0002508  68.3553 291.7890 14.19524725736322

#Time	Az	El	Level	Level2	SNR	BER	BlckErr	Temp	State	Recorded	gain1	gain2
2026-01-13 03:29:02.55	41.20	2.01	-57.0	-72.9	3.8	1.49e+00	0	20	0	0	80	22207
2026-01-13 03:29:06.53	40.99	2.24	-56.9	-72.9	3.8	1.49e+00	0	20	104	0	78	24766
2026-01-13 03:29:10.52	40.78	2.48	-56.9	-72.9	3.8	1.49e+00	0	20	104	0	78	24722
2026-01-13 03:29:14.51	40.56	2.72	-56.9	-72.9	3.8	1.49e+00	0	20	104	0	78	24750
2026-01-13 03:29:18.51	40.34	2.96	-57.0	-72.9	3.8	1.49e+00	0	20	104	0	79	23494
2026-01-13 03:29:22.52	40.11	3.20	-57.0	-72.9	3.8	1.49e+00	0	20	104	0	79	23490
2026-01-13 03:29:26.54	39.88	3.45	-57.0	-72.9	3.8	1.49e+00	0	20	104	0	79	23555
2026-01-13 03:29:30.54	39.64	3.70	-57.0	-72.9	3.8	1.49e+00	0	20	104	0	79	23320
2026-01-13 03:29:34.55	39.40	3.95	-57.0	-72.9	3.8	1.49e+00	0	21	104	0	79	23570
2026-01-13 03:29:38.54	39.16	4.20	-57.0	-72.4	3.8	1.49e+00	0	21	104	0	79	22159
2026-01-13 03:29:42.55	38.91	4.45	-56.9	-70.3	3.9	1.49e+00	0	21	104	0	79	17478
2026-01-13 03:29:46.54	38.66	4.70	-56.7	-68.1	4.6	8.91e-01	0	21	0	3145728	79	13541
2026-01-13 03:29:50.54	38.40	4.96	-56.7	-67.5	4.9	7.42e-01	0	21	0	10485760	79	12570
2026-01-13 03:29:54.55	38.14	5.22	-56.7	-67.9	4.8	6.44e-01	0	21	0	17825792	79	13148
2026-01-13 03:29:58.54	37.87	5.48	-55.8	-61.8	9.6	1.84e-02	0	21	0	20971520	78	6943
2026-01-13 03:30:02.54	37.60	5.74	-55.5	-60.8	10.4	2.21e-03	0	21	0	28311552	77	6569
2026-01-13 03:30:06.51	37.33	6.00	-54.4	-58.5	12.2	1.29e-05	0	21	0	35651584	75	5654
2026-01-13 03:30:10.51	37.04	6.27	-54.2	-58.0	12.6	2.20e-06	0	21	0	42991616	75	5340
2026-01-13 03:30:14.48	36.76	6.53	-53.7	-57.2	13.1	0.00e+00	0	21	0	51380224	73	5422
2026-01-13 03:30:18.47	36.47	6.80	-53.2	-56.4	13.7	0.00e+00	0	21	0	58720256	73	4966
2026-01-13 03:30:22.46	36.17	7.07	-53.6	-57.0	13.1	0.00e+00	0	21	0	66060288	72	5613
2026-01-13 03:30:26.47	35.86	7.35	-53.5	-56.9	13.2	0.00e+00	0	21	0	73400320	72	5553
2026-01-13 03:30:30.47	35.55	7.62	-53.2	-56.3	13.6	0.00e+00	0	21	0	80740352	72	5204
2026-01-13 03:30:34.47	35.23	7.90	-53.4	-56.6	13.4	0.00e+00	0	21	0	88080384	72	5402
2026-01-13 03:30:38.46	34.91	8.18	-53.1	-56.1	13.8	0.00e+00	0	21	0	95420416	72	5095
2026-01-13 03:30:42.46	34.58	8.46	-53.0	-55.9	13.9	0.00e+00	0	21	0	103809024	72	4982
2026-01-13 03:30:46.45	34.24	8.75	-53.1	-56.0	13.9	0.00e+00	0	21	0	111149056	72	5038
2026-01-13 03:30:50.45	33.89	9.03	-52.9	-55.9	13.9	0.00e+00	0	22	0	118489088	71	5224
2026-01-13 03:30:54.43	33.54	9.32	-52.8	-55.6	14.1	0.00e+00	0	22	0	125829120	71	5052
2026-01-13 03:30:58.43	33.19	9.61	-52.9	-55.8	13.9	0.00e+00	0	21	0	133169152	71	5217
2026-01-13 03:31:02.44	32.82	9.91	-52.7	-55.4	14.2	0.00e+00	0	22	0	140509184	71	4977
2026-01-13 03:31:06.43	32.44	10.20	-52.7	-55.4	14.2	0.00e+00	0	21	0	147849216	71	4954
2026-01-13 03:31:10.43	32.06	10.50	-52.9	-55.7	14.1	0.00e+00	0	22	0	156237824	71	5101
2026-01-13 03:31:14.43	31.67	10.80	-52.8	-55.6	14.1	0.00e+00	0	22	0	163577856	71	5056
2026-01-13 03:31:18.41	31.27	11.11	-52.6	-55.2	14.3	0.00e+00	0	22	0	170917888	71	4858
2026-01-13 03:31:22.40	30.87	11.41	-52.5	-55.0	14.5	0.00e+00	0	22	0	178257920	71	4754
2026-01-13 03:31:26.40	30.45	11.72	-52.6	-55.1	14.4	0.00e+00	0	22	0	185597952	71	4803
2026-01-13 03:31:30.39	30.03	12.03	-52.4	-54.9	14.5	0.00e+00	0	22	0	192937984	71	4686
2026-01-13 03:31:34.38	29.59	12.34	-52.6	-55.3	14.3	0.00e+00	0	22	0	200278016	71	4876
2026-01-13 03:31:38.38	29.15	12.65	-52.6	-55.2	14.3	0.00e+00	0	22	0	208666624	71	4860
2026-01-13 03:31:42.39	28.69	12.97	-52.7	-55.4	14.2	0.00e+00	0	22	0	216006656	71	4957
2026-01-13 03:31:46.38	28.23	13.29	-52.4	-54.9	14.5	0.00e+00	0	22	0	223346688	71	4691
2026-01-13 03:31:50.37	27.75	13.61	-52.6	-55.2	14.4	0.00e+00	0	22	0	230686720	71	4845
2026-01-13 03:31:54.37	27.27	13.94	-51.9	-54.1	14.9	0.00e+00	0	22	0	238026752	70	4539
2026-01-13 03:31:58.37	26.77	14.26	-52.2	-54.6	14.6	0.00e+00	0	22	0	245366784	70	4788
2026-01-13 03:32:02.34	26.27	14.59	-52.1	-54.4	14.7	0.00e+00	0	22	0	252706816	70	4699
2026-01-13 03:32:06.32	25.75	14.92	-52.5	-55.0	14.4	0.00e+00	0	22	0	261095424	70	5019
2026-01-13 03:32:10.31	25.22	15.25	-52.5	-55.0	14.3	0.00e+00	0	22	0	268435456	70	5003
2026-01-13 03:32:14.29	24.68	15.58	-52.8	-55.5	14.2	0.00e+00	0	22	0	275775488	71	5024
2026-01-13 03:32:18.28	24.12	15.92	-52.2	-54.6	14.8	0.00e+00	0	22	0	283115520	71	4502
2026-01-13 03:32:22.28	23.55	16.26	-52.3	-54.8	14.5	0.00e+00	0	22	0	290455552	70	4873
2026-01-13 03:32:26.28	22.97	16.60	-51.7	-53.9	15.1	0.00e+00	0	22	0	297795584	70	4396
2026-01-13 03:32:30.28	22.37	16.94	-51.7	-53.9	14.9	0.00e+00	0	22	0	305135616	69	4658
2026-01-13 03:32:34.27	21.76	17.28	-51.5	-53.5	15.1	0.00e+00	0	22	0	313524224	69	4472
2026-01-13 03:32:38.27	21.14	17.62	-51.6	-53.7	15.0	0.00e+00	0	22	0	320864256	69	4589
2026-01-13 03:32:42.25	20.50	17.97	-51.8	-54.0	14.9	0.00e+00	0	22	0	328204288	69	4708
2026-01-13 03:32:46.25	19.84	18.32	-52.2	-54.6	14.5	0.00e+00	0	22	0	335544320	69	5047
2026-01-13 03:32:50.25	19.17	18.66	-51.9	-54.3	14.6	0.00e+00	0	22	0	342884352	69	4886
2026-01-13 03:32:54.24	18.49	19.01	-51.5	-53.7	15.0	0.00e+00	0	22	0	350224384	69	4571
2026-01-13 03:32:58.24	17.79	19.36	-51.6	-53.7	14.9	0.00e+00	0	22	0	357564416	69	4595
2026-01-13 03:33:02.25	17.07	19.71	-51.9	-54.3	14.7	0.00e+00	0	22	0	365953024	69	4877
2026-01-13 03:33:06.23	16.33	20.06	-52.2	-54.5	14.5	0.00e+00	0	22	0	373293056	69	5018
2026-01-13 03:33:10.22	15.58	20.40	-52.6	-55.1	14.3	0.00e+00	0	22	0	380633088	70	5094
2026-01-13 03:33:14.20	14.82	20.75	-51.9	-54.1	14.9	0.00e+00	0	22	0	387973120	70	4532
2026-01-13 03:33:18.19	14.03	21.10	-52.5	-55.0	14.4	0.00e+00	0	22	0	395313152	70	5013
2026-01-13 03:33:22.18	13.23	21.44	-52.3	-54.6	14.7	0.00e+00	0	22	0	402653184	70	4775
2026-01-13 03:33:26.20	12.40	21.79	-51.9	-54.0	15.1	0.00e+00	0	22	0	409993216	70	4445
2026-01-13 03:33:30.19	11.55	22.13	-52.0	-54.2	14.9	0.00e+00	0	22	0	417333248	70	4551
2026-01-13 03:33:34.18	10.69	22.47	-52.3	-54.5	14.7	0.00e+00	0	22	0	425721856	70	4749
2026-01-13 03:33:38.17	9.81	22.81	-51.9	-54.1	15.0	0.00e+00	0	22	0	433061888	70	4495
2026-01-13 03:33:42.15	8.92	23.14	-50.9	-52.7	15.4	0.00e+00	0	22	0	440401920	68	4330
2026-01-13 03:33:46.14	8.00	23.47	-50.7	-52.6	15.3	0.00e+00	0	22	0	447741952	67	4509
2026-01-13 03:33:50.13	7.06	23.80	-51.0	-52.9	15.0	0.00e+00	0	22	0	455081984	67	4696
2026-01-13 03:33:54.13	6.10	24.12	-51.2	-53.3	14.9	0.00e+00	0	22	0	462422016	67	4906
2026-01-13 03:33:58.13	5.12	24.44	-50.4	-52.3	15.5	0.00e+00	0	22	0	469762048	67	4342
2026-01-13 03:34:02.12	4.12	24.75	-51.1	-53.1	15.0	0.00e+00	0	22	0	478150656	67	4812
2026-01-13 03:34:06.10	3.11	25.05	-50.4	-52.2	15.5	0.00e+00	0	22	0	485490688	67	4323
2026-01-13 03:34:10.10	2.07	25.35	-50.7	-52.5	15.3	0.00e+00	0	22	0	492830720	67	4489
2026-01-13 03:34:14.09	1.01	25.64	-50.3	-52.1	15.3	0.00e+00	0	22	0	500170752	66	4517
2026-01-13 03:34:18.08	359.93	25.93	-51.7	-53.9	14.8	0.00e+00	0	22	0	507510784	68	4931
2026-01-13 03:34:22.07	358.84	26.20	-52.0	-54.2	14.8	0.00e+00	0	22	0	514850816	69	4817
2026-01-13 03:34:26.06	357.72	26.47	-51.6	-53.7	15.1	0.00e+00	0	22	0	522190848	69	4566
2026-01-13 03:34:30.07	356.58	26.72	-51.8	-54.0	14.9	0.00e+00	0	22	0	530579456	69	4722
2026-01-13 03:34:34.07	355.43	26.97	-51.0	-52.8	15.3	0.00e+00	0	22	0	537919488	68	4388
2026-01-13 03:34:38.05	354.26	27.21	-51.7	-53.8	14.8	0.00e+00	0	22	0	545259520	68	4908
2026-01-13 03:34:42.04	353.07	27.43	-51.2	-53.2	15.2	0.00e+00	0	22	0	552599552	68	4555
2026-01-13 03:34:46.04	351.86	27.64	-51.1	-53.0	15.2	0.00e+00	0	22	0	559939584	68	4491
2026-01-13 03:34:50.03	350.65	27.84	-51.4	-53.4	15.1	0.00e+00	0	22	0	567279616	68	4668
2026-01-13 03:34:54.02	349.41	28.02	-51.5	-53.7	14.9	0.00e+00	0	22	0	574619648	68	4818
2026-01-13 03:34:58.02	348.16	28.20	-51.9	-54.1	14.8	0.00e+00	0	22	0	583008256	69	4801
2026-01-13 03:35:02.01	346.90	28.35	-51.6	-53.7	15.0	0.00e+00	0	22	0	590348288	69	4563
2026-01-13 03:35:06.00	345.63	28.50	-52.8	-55.3	14.2	0.00e+00	0	22	0	597688320	70	5217
2026-01-13 03:35:09.99	344.34	28.62	-52.7	-55.2	14.3	0.00e+00	0	22	0	605028352	70	5128
2026-01-13 03:35:13.98	343.05	28.73	-52.8	-55.3	14.4	0.00e+00	0	22	0	612368384	71	4907
2026-01-13 03:35:17.98	341.74	28.83	-52.1	-54.4	14.8	0.00e+00	0	22	0	619708416	70	4670
2026-01-13 03:35:21.97	340.43	28.91	-52.6	-55.2	14.3	0.00e+00	0	22	0	627048448	70	5127
2026-01-13 03:35:25.93	339.13	28.97	-52.6	-55.2	14.2	0.00e+00	0	22	0	634388480	70	5156
2026-01-13 03:35:29.93	337.80	29.01	-53.1	-56.2	13.8	0.00e+00	0	22	0	642777088	71	5437
2026-01-13 03:35:33.92	336.48	29.04	-52.4	-54.9	14.6	0.00e+00	0	22	0	650117120	71	4695
2026-01-13 03:35:37.92	335.15	29.05	-51.9	-54.1	15.0	0.00e+00	0	22	0	657457152	70	4519
2026-01-13 03:35:41.92	333.83	29.05	-52.3	-54.7	14.5	0.00e+00	0	22	0	664797184	69	5123
2026-01-13 03:35:45.90	332.51	29.03	-53.0	-55.6	14.3	0.00e+00	0	22	0	672137216	71	5048
2026-01-13 03:35:49.90	331.18	28.99	-52.3	-54.5	14.8	0.00e+00	0	22	0	679477248	70	4717
2026-01-13 03:35:53.89	329.86	28.93	-53.0	-55.6	14.3	0.00e+00	0	22	0	686817280	71	5053
2026-01-13 03:35:57.89	328.55	28.85	-51.8	-53.9	15.2	0.00e+00	0	22	0	695205888	70	4394
2026-01-13 03:36:01.88	327.25	28.76	-52.2	-54.4	14.6	0.00e+00	0	22	0	702545920	69	4971
2026-01-13 03:36:05.88	325.94	28.66	-51.5	-53.6	15.2	0.00e+00	0	22	0	709885952	69	4515
2026-01-13 03:36:09.87	324.66	28.53	-50.9	-52.8	15.4	0.00e+00	0	22	0	717225984	68	4348
2026-01-13 03:36:13.85	323.38	28.40	-52.1	-54.4	14.7	0.00e+00	0	22	0	724566016	69	4935
2026-01-13 03:36:17.83	322.12	28.25	-51.6	-53.7	15.1	0.00e+00	0	22	0	731906048	69	4550
2026-01-13 03:36:21.82	320.87	28.08	-52.2	-54.4	14.6	0.00e+00	0	22	0	739246080	69	4970
2026-01-13 03:36:25.81	319.63	27.90	-51.5	-53.3	15.3	0.00e+00	0	22	0	747634688	69	4367
2026-01-13 03:36:29.82	318.40	27.70	-52.1	-54.2	14.7	0.00e+00	0	22	0	754974720	69	4848
2026-01-13 03:36:33.82	317.18	27.49	-51.7	-53.7	15.1	0.00e+00	0	22	0	762314752	69	4581
2026-01-13 03:36:37.81	315.99	27.27	-52.7	-55.1	14.4	0.00e+00	0	22	0	769654784	70	5055
2026-01-13 03:36:41.80	314.82	27.04	-52.8	-55.2	14.6	0.00e+00	0	22	0	776994816	71	4828
2026-01-13 03:36:45.79	313.66	26.80	-53.0	-55.6	14.2	0.00e+00	0	22	0	784334848	71	5074
2026-01-13 03:36:49.78	312.52	26.55	-53.4	-56.2	14.0	0.00e+00	0	22	0	791674880	72	5132
2026-01-13 03:36:53.77	311.39	26.28	-53.4	-56.3	13.9	0.00e+00	0	22	0	800063488	72	5215
2026-01-13 03:36:57.77	310.29	26.01	-51.9	-54.1	15.0	0.00e+00	0	22	0	807403520	70	4516
2026-01-13 03:37:01.78	309.20	25.73	-51.2	-53.2	15.4	0.00e+00	0	22	0	814743552	69	4305
2026-01-13 03:37:05.78	308.13	25.44	-51.7	-53.9	14.8	0.00e+00	0	22	0	822083584	68	4941
2026-01-13 03:37:09.77	307.09	25.14	-52.3	-54.7	14.4	0.00e+00	0	22	0	829423616	69	5143
2026-01-13 03:37:13.76	306.06	24.84	-52.8	-55.6	14.1	0.00e+00	0	22	0	836763648	70	5386
2026-01-13 03:37:17.75	305.06	24.53	-52.8	-55.6	14.1	0.00e+00	0	22	0	844103680	70	5369
2026-01-13 03:37:21.74	304.07	24.21	-52.4	-54.8	14.8	0.00e+00	0	22	0	852492288	71	4603
2026-01-13 03:37:25.74	303.10	23.89	-51.3	-53.3	15.3	0.00e+00	0	22	0	859832320	69	4376
2026-01-13 03:37:29.74	302.16	23.56	-51.3	-53.3	15.3	0.00e+00	0	22	0	867172352	69	4361
2026-01-13 03:37:33.74	301.23	23.23	-50.7	-52.5	15.5	0.00e+00	0	22	0	874512384	68	4214
2026-01-13 03:37:37.74	300.32	22.90	-50.2	-51.9	15.6	0.00e+00	0	22	0	881852416	67	4176
2026-01-13 03:37:41.75	299.43	22.56	-49.8	-51.4	15.7	0.00e+00	0	22	0	889192448	66	4182
2026-01-13 03:37:45.74	298.56	22.22	-50.7	-52.7	15.1	0.00e+00	0	22	0	896532480	66	4834
2026-01-13 03:37:49.73	297.71	21.88	-51.7	-53.9	14.8	0.00e+00	0	22	0	904921088	68	4955
2026-01-13 03:37:53.75	296.88	21.53	-51.4	-53.4	15.0	0.00e+00	0	22	0	912261120	68	4676
2026-01-13 03:37:57.73	296.07	21.19	-51.2	-53.2	15.2	0.00e+00	0	22	0	919601152	68	4556
2026-01-13 03:38:01.74	295.27	20.84	-49.8	-51.4	15.7	0.00e+00	0	22	0	926941184	66	4183
2026-01-13 03:38:05.73	294.50	20.49	-49.7	-51.3	15.6	0.00e+00	0	22	0	934281216	65	4358
2026-01-13 03:38:09.72	293.74	20.14	-50.0	-51.7	15.3	0.00e+00	0	22	0	941621248	65	4580
2026-01-13 03:38:13.71	293.00	19.80	-50.1	-51.8	15.3	0.00e+00	0	22	0	948961280	65	4634
2026-01-13 03:38:17.70	292.28	19.45	-50.4	-52.1	15.2	0.00e+00	0	22	0	957349888	65	4799
2026-01-13 03:38:21.69	291.57	19.10	-50.7	-52.6	15.1	0.00e+00	0	22	0	964689920	66	4763
2026-01-13 03:38:25.67	290.88	18.75	-50.7	-52.4	15.2	0.00e+00	0	22	0	972029952	66	4689
2026-01-13 03:38:29.66	290.21	18.40	-49.9	-51.4	15.7	0.00e+00	0	22	0	979369984	66	4193
2026-01-13 03:38:33.66	289.55	18.06	-50.7	-52.5	15.1	0.00e+00	0	22	0	986710016	66	4748
2026-01-13 03:38:37.64	288.90	17.71	-51.2	-53.2	14.9	0.00e+00	0	22	0	994050048	67	4828
2026-01-13 03:38:41.65	288.27	17.37	-50.9	-52.8	15.1	0.00e+00	0	22	0	1001390080	67	4612
2026-01-13 03:38:45.65	287.66	17.02	-51.0	-52.9	15.1	0.00e+00	0	22	0	1009778688	67	4682
2026-01-13 03:38:49.62	287.06	16.68	-51.6	-53.6	14.9	0.00e+00	0	22	0	1017118720	68	4808
2026-01-13 03:38:53.61	286.47	16.34	-52.3	-54.5	14.5	0.00e+00	0	22	0	1024458752	69	5019
2026-01-13 03:38:57.61	285.90	16.00	-51.9	-53.9	14.9	0.00e+00	0	22	0	1031798784	69	4691
2026-01-13 03:39:01.60	285.34	15.67	-51.5	-53.5	15.2	0.00e+00	0	22	0	1039138816	69	4452
2026-01-13 03:39:05.59	284.79	15.33	-52.0	-54.1	14.8	0.00e+00	0	22	0	1046478848	69	4811
2026-01-13 03:39:09.57	284.25	15.00	-51.7	-53.8	14.9	0.00e+00	0	22	0	1053818880	69	4618
2026-01-13 03:39:13.56	283.73	14.67	-51.4	-53.4	15.2	0.00e+00	0	22	0	1062207488	69	4412
2026-01-13 03:39:17.55	283.22	14.34	-51.3	-53.2	15.3	0.00e+00	0	22	0	1069547520	69	4328
2026-01-13 03:39:21.55	282.72	14.01	-51.6	-53.6	15.1	0.00e+00	0	22	0	1076887552	69	4505
2026-01-13 03:39:25.55	282.23	13.69	-52.0	-54.1	14.7	0.00e+00	0	22	0	1084227584	69	4814
2026-01-13 03:39:29.54	281.75	13.37	-52.2	-54.5	14.5	0.00e+00	0	22	0	1091567616	69	5002
2026-01-13 03:39:33.53	281.28	13.05	-51.9	-54.1	14.7	0.00e+00	0	22	0	1098907648	69	4779
2026-01-13 03:39:37.53	280.82	12.73	-52.4	-54.7	14.4	0.00e+00	0	22	0	1106247680	69	5113
2026-01-13 03:39:41.52	280.37	12.41	-53.2	-55.8	14.0	0.00e+00	0	22	0	1113587712	71	5209
2026-01-13 03:39:45.52	279.93	12.10	-52.7	-55.1	14.4	0.00e+00	0	22	0	1121976320	71	4808
2026-01-13 03:39:49.51	279.50	11.79	-51.8	-53.8	15.1	0.00e+00	0	22	0	1129316352	70	4388
2026-01-13 03:39:53.50	279.08	11.48	-51.7	-53.7	14.9	0.00e+00	0	22	0	1136656384	69	4595
2026-01-13 03:39:57.49	278.67	11.17	-52.6	-55.0	14.3	0.00e+00	0	22	0	1143996416	70	5025
2026-01-13 03:40:01.49	278.27	10.87	-53.4	-56.3	13.7	0.00e+00	0	22	0	1151336448	71	5469
2026-01-13 03:40:05.49	277.88	10.57	-53.6	-56.6	13.5	0.00e+00	0	22	0	1158676480	72	5401
2026-01-13 03:40:09.49	277.49	10.27	-53.6	-56.6	13.6	0.00e+00	0	22	0	1166016512	72	5341
2026-01-13 03:40:13.49	277.11	9.97	-53.4	-56.3	13.8	0.00e+00	0	22	0	1174405120	72	5193
2026-01-13 03:40:17.48	276.74	9.68	-53.3	-56.1	13.9	0.00e+00	0	22	0	1181745152	72	5082
2026-01-13 03:40:21.46	276.38	9.39	-53.5	-56.4	13.6	0.00e+00	0	22	0	1189085184	72	5277
2026-01-13 03:40:25.44	276.03	9.10	-53.8	-57.0	13.3	0.00e+00	0	22	0	1196425216	72	5602
2026-01-13 03:40:29.44	275.68	8.81	-53.8	-57.0	13.3	0.00e+00	0	22	0	1203765248	73	5314
2026-01-13 03:40:33.42	275.34	8.52	-53.3	-56.1	14.0	0.00e+00	0	22	0	1211105280	73	4779
2026-01-13 03:40:37.41	275.01	8.24	-52.7	-55.2	14.5	0.00e+00	0	22	0	1218445312	72	4557
2026-01-13 03:40:41.41	274.68	7.96	-52.4	-54.7	14.6	0.00e+00	0	22	0	1226833920	71	4563
2026-01-13 03:40:45.40	274.36	7.68	-52.4	-54.8	14.3	0.00e+00	0	22	0	1234173952	70	4902
2026-01-13 03:40:49.41	274.04	7.40	-52.9	-55.5	13.9	0.00e+00	0	22	0	1241513984	70	5340
2026-01-13 03:40:53.40	273.74	7.13	-53.5	-56.5	13.4	0.00e+00	0	22	0	1248854016	72	5326
2026-01-13 03:40:57.39	273.43	6.86	-53.9	-57.2	13.0	0.00e+00	0	22	0	1256194048	72	5728
2026-01-13 03:41:01.38	273.14	6.59	-54.1	-57.5	12.9	0.00e+00	0	22	0	1263534080	73	5639
2026-01-13 03:41:05.38	272.85	6.32	-54.1	-57.6	12.8	7.00e-07	0	22	0	1270874112	73	5693
2026-01-13 03:41:09.38	272.56	6.05	-54.2	-57.9	12.6	0.00e+00	0	22	0	1279262720	73	5863
2026-01-13 03:41:13.36	272.28	5.79	-54.2	-57.8	12.6	7.00e-07	0	22	0	1286602752	73	5841
2026-01-13 03:41:17.35	272.01	5.53	-54.0	-57.6	12.7	0.00e+00	0	22	0	1293942784	73	5684
2026-01-13 03:41:21.34	271.74	5.27	-54.2	-57.9	12.4	2.20e-06	0	22	0	1301282816	73	5900
2026-01-13 03:41:25.31	271.48	5.01	-54.4	-58.4	12.1	9.10e-06	0	22	0	1308622848	73	6222
2026-01-13 03:41:29.30	271.22	4.76	-58.5	-74.5	3.8	1.49e+00	0	22	104	1309671424	82	23785
2026-01-13 03:41:33.31	270.96	4.50	-58.8	-74.8	3.8	1.49e+00	0	22	104	1309671424	82	24637
2026-01-13 03:41:37.30	270.71	4.25	-59.1	-75.1	3.8	1.49e+00	0	22	104	1309671424	83	23987
2026-01-13 03:41:41.29	270.46	4.00	-59.2	-75.2	3.8	1.49e+00	0	22	104	1309671424	83	24410
2026-01-13 03:41:45.30	270.22	3.75	-59.3	-75.4	3.8	1.49e+00	0	22	104	1309671424	83	24762
2026-01-13 03:41:49.31	269.98	3.50	-59.3	-75.3	3.8	1.49e+00	0	22	104	1309671424	83	24559
2026-01-13 03:41:53.30	269.75	3.25	-59.2	-75.2	3.8	1.49e+00	0	22	104	1309671424	83	24325
2026-01-13 03:41:57.31	269.52	3.01	-59.2	-75.2	3.8	1.49e+00	0	22	104	1309671424	83	24281
2026-01-13 03:42:01.31	269.30	2.77	-59.1	-75.2	3.8	1.49e+00	0	22	104	1309671424	83	24223
2026-01-13 03:42:05.31	269.07	2.53	-59.1	-75.2	3.8	1.49e+00	0	22	104	1309671424	83	24177
2026-01-13 03:42:09.31	268.86	2.29	-59.1	-75.1	3.8	1.49e+00	0	22	104	1309671424	83	24048
2026-01-13 03:42:13.32	268.64	2.05	-59.1	-75.2	3.8	1.49e+00	0	22	104	1309671424	83	24184

#Closed at: 2026-01-13 03:42:16
#Recorded file [1309 MB]: D:/lorett/data/31004_260113_062902.dat