passes_logs/2026/01/13/R3.2S_Murmansk/R3.2S_Murmansk__20260113_203317_TY-42_rec.log

#Pass ID: 20260113_203317_TY-42
#Satellite: TY-42
#Configuration: TY-42_900M
#almurnet v.1.7.20251203
#Start time: 2026-01-13 20:33:17

#Version: 2.2.20231116
#Station: R3.2S_Murmansk
#Location: 33.079688 lon 68.888172 lat
#TLE: 1 64048U 25103A   26013.70377315  .00008011  00000-0  38191-3 0 09993
#TLE: 2 64048 097.4118 089.1457 0001799 091.6416 204.0819 15.19171765 36614

#Time	Az	El	Level	Level2	SNR	BER	BlckErr	Temp	State	Recorded	gain1	gain2
2026-01-13 20:33:17.81	207.19	2.01	-58.0	-61.2	6.2	0.00e+00	0	31	0	0	82	21280
2026-01-13 20:33:20.80	207.45	2.20	-58.1	-61.3	6.2	0.00e+00	0	32	104	0	83	20279
2026-01-13 20:33:23.80	207.72	2.39	-58.1	-61.3	6.2	0.00e+00	0	32	104	0	83	20337
2026-01-13 20:33:26.80	208.00	2.57	-58.1	-61.3	6.2	0.00e+00	0	32	104	0	83	20311
2026-01-13 20:33:29.79	208.28	2.76	-58.1	-61.3	6.1	0.00e+00	0	32	104	0	83	20351
2026-01-13 20:33:32.80	208.56	2.95	-58.1	-61.4	6.2	0.00e+00	0	32	104	0	83	20400
2026-01-13 20:33:35.78	208.84	3.14	-58.1	-61.4	6.2	0.00e+00	0	32	104	0	83	20417
2026-01-13 20:33:38.79	209.14	3.33	-58.1	-61.4	6.2	0.00e+00	0	32	104	0	83	20402
2026-01-13 20:33:41.80	209.43	3.53	-58.1	-61.3	6.2	0.00e+00	0	33	104	0	83	20387
2026-01-13 20:33:44.80	209.73	3.72	-58.1	-61.4	6.2	0.00e+00	0	33	104	0	83	20492
2026-01-13 20:33:47.79	210.04	3.92	-58.2	-61.4	6.2	0.00e+00	0	33	104	0	83	20547
2026-01-13 20:33:50.78	210.35	4.12	-58.2	-61.4	6.1	0.00e+00	0	33	104	0	83	20528
2026-01-13 20:33:53.78	210.66	4.32	-58.2	-61.4	6.2	0.00e+00	0	33	104	0	83	20556
2026-01-13 20:33:56.78	210.99	4.52	-58.2	-61.4	6.2	0.00e+00	0	33	104	0	83	20496
2026-01-13 20:33:59.76	211.31	4.72	-58.2	-61.4	6.1	0.00e+00	0	33	104	0	83	20522
2026-01-13 20:34:02.75	211.64	4.92	-58.2	-61.4	6.1	0.00e+00	0	33	104	0	83	20550
2026-01-13 20:34:05.74	211.98	5.12	-58.2	-61.4	6.2	0.00e+00	0	34	104	0	83	20529
2026-01-13 20:34:08.74	212.32	5.33	-58.2	-61.5	6.1	0.00e+00	0	33	104	0	83	20719
2026-01-13 20:34:11.73	212.67	5.54	-47.0	-47.5	10.7	4.45e-02	0	35	0	41943040	59	16476
2026-01-13 20:34:14.73	213.03	5.74	-43.5	-43.8	11.9	4.37e-02	0	35	0	385875968	53	15219
2026-01-13 20:34:17.71	213.39	5.95	-43.1	-43.4	12.1	1.47e-02	0	35	0	721420288	53	14589
2026-01-13 20:34:20.71	213.75	6.17	-43.0	-43.3	12.2	1.31e-02	0	35	0	1056964608	53	14372
2026-01-13 20:34:23.70	214.13	6.38	-42.9	-43.3	12.2	1.33e-02	0	35	0	1392508928	53	14276
2026-01-13 20:34:26.69	214.51	6.59	-43.0	-43.3	12.1	1.19e-02	0	36	0	1728053248	52	15243
2026-01-13 20:34:29.67	214.89	6.81	-42.9	-43.2	12.2	1.12e-02	0	36	0	2063597568	52	15023
2026-01-13 20:34:32.66	215.29	7.02	-42.9	-43.2	12.1	1.00e-02	0	36	0	2399141888	52	15062
2026-01-13 20:34:35.64	215.69	7.24	-42.7	-43.0	12.2	9.38e-03	0	36	0	2734686208	52	14672
2026-01-13 20:34:38.64	216.10	7.46	-42.8	-43.1	12.2	9.91e-03	0	36	0	3070230528	52	14897
2026-01-13 20:34:41.63	216.51	7.68	-42.7	-43.0	12.3	8.49e-03	0	36	0	3405774848	52	14655
2026-01-13 20:34:44.61	216.93	7.90	-42.6	-42.9	12.3	8.05e-03	0	36	0	3749707776	52	14586
2026-01-13 20:34:47.61	217.37	8.13	-42.7	-43.0	12.3	7.36e-03	0	37	0	4085252096	52	14655
2026-01-13 20:34:50.60	217.80	8.35	-42.6	-42.9	12.4	6.79e-03	0	37	0	4412407808	52	14524
2026-01-13 20:34:53.60	218.25	8.58	-42.4	-42.7	12.4	6.79e-03	0	37	0	4756340736	51	14970
2026-01-13 20:34:56.58	218.71	8.81	-42.3	-42.6	12.4	5.10e-03	0	37	0	5091885056	51	14810
2026-01-13 20:34:59.57	219.17	9.04	-42.2	-42.5	12.4	5.10e-03	0	37	0	5427429376	51	14725
2026-01-13 20:35:02.52	219.64	9.27	-41.9	-42.2	12.6	3.59e-03	0	37	0	5762973696	51	14243
2026-01-13 20:35:05.51	220.12	9.50	-41.9	-42.2	12.6	3.10e-03	0	37	0	6098518016	51	14238
2026-01-13 20:35:08.50	220.61	9.73	-41.9	-42.2	12.5	2.83e-03	0	37	0	6425673728	50	14978
2026-01-13 20:35:11.49	221.11	9.97	-41.6	-41.9	12.6	2.62e-03	0	37	0	6769606656	50	14534
2026-01-13 20:35:14.47	221.62	10.20	-41.6	-41.9	12.6	2.10e-03	0	37	0	7105150976	50	14470
2026-01-13 20:35:17.48	222.15	10.44	-41.4	-41.7	12.7	1.87e-03	0	37	0	7440695296	50	14236
2026-01-13 20:35:20.48	222.68	10.68	-41.2	-41.5	12.7	1.81e-03	0	38	0	7776239616	49	14717
2026-01-13 20:35:23.48	223.22	10.92	-41.2	-41.4	12.7	1.52e-03	0	37	0	8120172544	49	14595
2026-01-13 20:35:26.48	223.78	11.17	-41.2	-41.5	12.7	1.44e-03	0	38	0	8455716864	49	14611
2026-01-13 20:35:29.47	224.34	11.41	-40.9	-41.2	12.8	1.28e-03	0	38	0	8791261184	49	14241
2026-01-13 20:35:32.46	224.91	11.65	-40.7	-41.0	12.8	1.03e-03	0	38	0	9126805504	48	14728
2026-01-13 20:35:35.45	225.50	11.90	-40.7	-40.9	12.9	8.49e-04	0	38	0	9462349824	48	14584
2026-01-13 20:35:38.43	226.09	12.14	-40.5	-40.8	12.9	7.39e-04	0	38	0	9797894144	48	14389
2026-01-13 20:35:41.41	226.70	12.39	-39.6	-39.9	12.8	5.96e-04	0	38	0	10133438464	46	14540
2026-01-13 20:35:44.40	227.32	12.63	-39.6	-39.9	12.8	8.01e-04	0	38	0	10468982784	46	14512
2026-01-13 20:35:47.40	227.95	12.88	-39.5	-39.8	12.9	1.08e-03	0	38	0	10804527104	46	14276
2026-01-13 20:35:50.39	228.60	13.13	-39.4	-39.7	12.9	9.39e-04	0	38	0	11140071424	46	14217
2026-01-13 20:35:53.40	229.26	13.38	-39.3	-39.5	12.9	9.63e-04	0	38	0	11484004352	45	14767
2026-01-13 20:35:56.38	229.93	13.62	-39.1	-39.4	12.9	7.53e-04	0	38	0	11819548672	45	14558
2026-01-13 20:35:59.37	230.61	13.87	-39.1	-39.4	12.9	7.96e-04	0	38	0	12155092992	45	14570
2026-01-13 20:36:02.35	231.30	14.12	-39.1	-39.4	12.9	5.82e-04	0	38	0	12490637312	45	14511
2026-01-13 20:36:05.33	232.01	14.36	-38.9	-39.2	13.0	5.77e-04	0	38	0	12826181632	45	14117
2026-01-13 20:36:08.32	232.74	14.61	-38.8	-39.1	13.0	5.77e-04	0	38	0	13161725952	44	14889
2026-01-13 20:36:11.29	233.47	14.86	-38.8	-39.1	12.9	4.48e-04	0	38	0	13497270272	44	14910
2026-01-13 20:36:14.27	234.22	15.10	-38.8	-39.1	12.9	4.29e-04	0	38	0	13832814592	44	14785
2026-01-13 20:36:17.26	234.99	15.35	-38.7	-39.0	13.0	2.86e-04	0	38	0	14168358912	44	14716
2026-01-13 20:36:20.25	235.77	15.59	-38.6	-38.9	13.0	4.05e-04	0	38	0	14503903232	44	14544
2026-01-13 20:36:23.24	236.56	15.83	-38.6	-38.9	13.0	3.48e-04	0	38	0	14839447552	44	14505
2026-01-13 20:36:26.24	237.38	16.07	-38.5	-38.7	13.1	4.05e-04	0	38	0	15174991872	44	14255
2026-01-13 20:36:29.23	238.20	16.31	-38.4	-38.7	13.1	3.15e-04	0	38	0	15510536192	44	14236
2026-01-13 20:36:32.21	239.04	16.55	-38.3	-38.6	13.0	2.24e-04	0	38	0	15854469120	43	14818
2026-01-13 20:36:35.19	239.89	16.78	-38.3	-38.6	13.0	2.53e-04	0	38	0	16181624832	43	14914
2026-01-13 20:36:38.17	240.76	17.01	-38.2	-38.5	13.0	2.72e-04	0	39	0	16517169152	43	14736
2026-01-13 20:36:41.14	241.64	17.24	-38.2	-38.5	13.0	2.72e-04	0	39	0	16852713472	43	14676
2026-01-13 20:36:44.15	242.55	17.47	-38.0	-38.3	13.1	2.57e-04	0	39	0	17188257792	43	14386
2026-01-13 20:36:47.14	243.46	17.69	-37.9	-38.2	13.1	2.24e-04	0	39	0	17523802112	43	14189
2026-01-13 20:36:50.12	244.39	17.90	-37.8	-38.1	13.1	2.38e-04	0	39	0	17867735040	42	14942
2026-01-13 20:36:53.11	245.34	18.12	-37.7	-38.0	13.1	2.34e-04	0	39	0	18203279360	42	14713
2026-01-13 20:36:56.09	246.30	18.33	-37.8	-38.0	13.1	1.72e-04	0	39	0	18538823680	42	14716
2026-01-13 20:36:59.08	247.27	18.53	-37.4	-37.7	13.2	1.24e-04	0	39	0	18874368000	42	14190
2026-01-13 20:37:02.05	248.26	18.73	-37.3	-37.5	13.2	1.57e-04	0	38	0	19201523712	41	14759
2026-01-13 20:37:05.03	249.26	18.92	-37.2	-37.5	13.2	6.19e-05	0	39	0	19545456640	41	14717
2026-01-13 20:37:08.02	250.28	19.10	-37.2	-37.4	13.2	5.72e-05	0	39	0	19881000960	41	14595
2026-01-13 20:37:11.00	251.31	19.28	-37.1	-37.4	13.2	7.62e-05	0	39	0	20208156672	41	14540
2026-01-13 20:37:14.00	252.36	19.46	-37.1	-37.4	13.2	7.62e-05	0	39	0	20552089600	41	14563
2026-01-13 20:37:16.98	253.42	19.62	-37.1	-37.4	13.2	8.10e-05	0	39	0	20887633920	41	14484
2026-01-13 20:37:19.98	254.49	19.78	-37.2	-37.4	13.2	8.10e-05	0	39	0	21223178240	41	14585
2026-01-13 20:37:22.96	255.57	19.93	-37.1	-37.3	13.2	7.15e-05	0	39	0	21558722560	41	14401
2026-01-13 20:37:25.97	256.68	20.08	-37.1	-37.3	13.2	4.76e-05	0	39	0	21902655488	41	14427
2026-01-13 20:37:28.96	257.78	20.21	-37.0	-37.3	13.2	5.24e-05	0	39	0	22238199808	41	14339
2026-01-13 20:37:31.93	258.89	20.33	-37.1	-37.4	13.2	8.10e-05	0	39	0	22565355520	41	14441
2026-01-13 20:37:34.92	260.02	20.45	-37.0	-37.3	13.2	6.19e-05	0	39	0	22909288448	41	14342
2026-01-13 20:37:37.93	261.17	20.56	-37.0	-37.3	13.2	7.15e-05	0	39	0	23244832768	41	14356
2026-01-13 20:37:40.93	262.31	20.65	-37.1	-37.4	13.2	8.58e-05	0	39	0	23580377088	41	14464
2026-01-13 20:37:43.91	263.46	20.74	-37.1	-37.3	13.2	4.76e-05	0	39	0	23915921408	41	14427
2026-01-13 20:37:46.91	264.63	20.81	-37.1	-37.3	13.2	4.76e-05	0	39	0	24251465728	41	14398
2026-01-13 20:37:49.90	265.79	20.88	-37.1	-37.3	13.2	9.53e-05	0	39	0	24587010048	41	14392
2026-01-13 20:37:52.90	266.96	20.94	-37.1	-37.3	13.1	1.19e-04	0	39	0	24922554368	41	14396
2026-01-13 20:37:55.90	268.14	20.98	-36.9	-37.2	13.2	1.62e-04	0	39	0	25266487296	41	14207
2026-01-13 20:37:58.88	269.31	21.01	-37.1	-37.3	13.1	1.81e-04	0	39	0	25602031616	41	14427
2026-01-13 20:38:01.87	270.49	21.04	-37.2	-37.4	13.1	1.67e-04	0	39	0	25937575936	41	14556
2026-01-13 20:38:04.85	271.67	21.05	-37.1	-37.4	13.1	1.86e-04	0	39	0	26273120256	41	14492
2026-01-13 20:38:07.84	272.85	21.05	-37.1	-37.3	13.1	1.38e-04	0	39	0	26608664576	41	14429
2026-01-13 20:38:10.80	274.02	21.04	-37.1	-37.4	13.1	1.10e-04	0	39	0	26935820288	41	14483
2026-01-13 20:38:13.78	275.20	21.01	-37.2	-37.5	13.1	1.29e-04	0	39	0	27279753216	41	14673
2026-01-13 20:38:16.76	276.37	20.98	-37.2	-37.4	13.1	2.00e-04	0	39	0	27615297536	41	14598
2026-01-13 20:38:19.76	277.54	20.94	-37.3	-37.5	13.0	2.43e-04	0	39	0	27950841856	41	14731
2026-01-13 20:38:22.75	278.71	20.88	-37.4	-37.7	13.0	2.81e-04	0	39	0	28286386176	41	14970
2026-01-13 20:38:25.75	279.88	20.82	-37.4	-37.7	13.0	4.39e-04	0	39	0	28621930496	41	14948
2026-01-13 20:38:28.74	281.04	20.74	-37.3	-37.6	13.0	5.25e-04	0	39	0	28957474816	41	14895
2026-01-13 20:38:31.74	282.19	20.65	-37.4	-37.7	13.0	3.24e-04	0	39	0	29293019136	41	14969
2026-01-13 20:38:34.74	283.34	20.56	-37.4	-37.7	13.1	2.00e-04	0	39	0	29636952064	41	14980
2026-01-13 20:38:37.75	284.48	20.45	-37.5	-37.8	13.0	1.67e-04	0	39	0	29972496384	41	15240
2026-01-13 20:38:40.75	285.61	20.34	-37.5	-37.8	13.1	1.57e-04	0	39	0	30308040704	41	15129
2026-01-13 20:38:43.74	286.73	20.21	-37.5	-37.7	13.1	1.19e-04	0	39	0	30643585024	41	15116
2026-01-13 20:38:46.73	287.83	20.08	-37.6	-37.8	13.1	1.52e-04	0	39	0	30979129344	41	15290
2026-01-13 20:38:49.74	288.93	19.94	-37.6	-37.8	13.1	1.33e-04	0	39	0	31323062272	41	15271
2026-01-13 20:38:52.73	290.01	19.79	-37.6	-37.9	13.1	9.53e-05	0	39	0	31658606592	41	15297
2026-01-13 20:38:55.74	291.09	19.63	-37.6	-37.9	13.1	1.33e-04	0	39	0	31994150912	41	15345
2026-01-13 20:38:58.73	292.15	19.46	-37.8	-38.1	13.1	1.00e-04	0	39	0	32329695232	41	15748
2026-01-13 20:39:01.72	293.19	19.29	-37.7	-38.0	13.1	2.14e-04	0	39	0	32673628160	41	15541
2026-01-13 20:39:04.72	294.22	19.11	-37.8	-38.1	13.1	1.05e-04	0	39	0	33009172480	41	15708
2026-01-13 20:39:07.72	295.24	18.92	-37.9	-38.1	13.1	2.10e-04	0	39	0	33344716800	41	15793
2026-01-13 20:39:10.71	296.24	18.73	-38.1	-38.3	13.1	1.43e-04	0	39	0	33680261120	41	16191
2026-01-13 20:39:13.70	297.23	18.53	-37.9	-38.1	13.1	1.91e-04	0	39	0	34015805440	41	15799
2026-01-13 20:39:16.70	298.21	18.33	-37.9	-38.2	13.2	1.14e-04	0	39	0	34351349760	41	15879
2026-01-13 20:39:19.69	299.16	18.12	-38.0	-38.3	13.2	1.67e-04	0	39	0	34686894080	41	16081
2026-01-13 20:39:22.67	300.10	17.91	-38.0	-38.3	13.2	1.67e-04	0	39	0	35030827008	41	16036
2026-01-13 20:39:25.67	301.04	17.70	-38.1	-38.4	13.2	1.38e-04	0	39	0	35366371328	42	15354
2026-01-13 20:39:28.68	301.95	17.47	-38.2	-38.5	13.2	1.14e-04	0	39	0	35701915648	42	15603
2026-01-13 20:39:31.66	302.85	17.25	-38.4	-38.7	13.1	1.57e-04	0	39	0	36037459968	42	15939
2026-01-13 20:39:34.64	303.73	17.02	-38.4	-38.6	13.1	1.91e-04	0	39	0	36373004288	42	15789
2026-01-13 20:39:37.63	304.59	16.79	-38.4	-38.6	13.2	2.76e-04	0	39	0	36708548608	42	15801
2026-01-13 20:39:40.61	305.44	16.56	-38.4	-38.7	13.1	1.67e-04	0	39	0	37044092928	42	15932
2026-01-13 20:39:43.60	306.28	16.33	-38.5	-38.8	13.1	1.95e-04	0	39	0	37379637248	42	16059
2026-01-13 20:39:46.60	307.10	16.09	-38.6	-38.9	13.1	2.76e-04	0	39	0	37715181568	42	16227
2026-01-13 20:39:49.59	307.91	15.85	-38.7	-38.9	13.1	2.48e-04	0	39	0	38050725888	43	15442
2026-01-13 20:39:52.58	308.70	15.61	-38.8	-39.1	13.1	2.76e-04	0	39	0	38394658816	43	15802
2026-01-13 20:39:55.57	309.48	15.37	-38.9	-39.2	13.1	3.00e-04	0	39	0	38730203136	43	15944
2026-01-13 20:39:58.56	310.24	15.12	-39.0	-39.3	13.1	3.48e-04	0	39	0	39065747456	43	16034
2026-01-13 20:40:01.54	310.99	14.88	-39.0	-39.3	13.1	3.43e-04	0	39	0	39401291776	43	16017
2026-01-13 20:40:04.53	311.72	14.64	-39.0	-39.3	13.1	3.81e-04	0	39	0	39736836096	43	16108
2026-01-13 20:40:07.50	312.44	14.39	-39.0	-39.3	13.0	4.72e-04	0	39	0	40063991808	43	16181
2026-01-13 20:40:10.49	313.15	14.15	-39.0	-39.3	13.1	4.29e-04	0	39	0	40407924736	43	16125
2026-01-13 20:40:13.48	313.84	13.90	-39.3	-39.6	13.0	4.05e-04	0	39	0	40743469056	44	15689
2026-01-13 20:40:16.46	314.52	13.66	-39.3	-39.6	13.0	4.58e-04	0	39	0	41079013376	44	15704
2026-01-13 20:40:19.45	315.19	13.41	-39.3	-39.6	13.0	4.72e-04	0	39	0	41414557696	44	15815
2026-01-13 20:40:22.46	315.84	13.16	-39.4	-39.7	13.0	5.10e-04	0	39	0	41758490624	44	15984
2026-01-13 20:40:25.45	316.49	12.92	-39.6	-39.9	12.9	7.68e-04	0	39	0	42085646336	44	16274
2026-01-13 20:40:28.43	317.11	12.67	-39.7	-40.0	12.9	6.29e-04	0	39	0	42421190656	45	15581
2026-01-13 20:40:31.43	317.73	12.43	-39.8	-40.0	12.9	8.06e-04	0	39	0	42765123584	45	15623
2026-01-13 20:40:34.41	318.34	12.18	-39.7	-40.0	12.9	8.68e-04	0	39	0	43100667904	45	15581
2026-01-13 20:40:37.40	318.93	11.94	-39.9	-40.2	12.9	9.77e-04	0	39	0	43427823616	45	15848
2026-01-13 20:40:40.39	319.51	11.70	-39.9	-40.2	12.8	9.92e-04	0	39	0	43771756544	45	15880
2026-01-13 20:40:43.37	320.08	11.46	-40.0	-40.3	12.8	1.17e-03	0	39	0	44107300864	45	16163
2026-01-13 20:40:46.35	320.64	11.22	-40.2	-40.5	12.8	1.37e-03	0	39	0	44434456576	46	15525
2026-01-13 20:40:49.34	321.19	10.98	-40.2	-40.5	12.7	1.46e-03	0	39	0	44778389504	46	15574
2026-01-13 20:40:52.33	321.73	10.74	-40.2	-40.6	12.7	1.66e-03	0	39	0	45113933824	46	15661
2026-01-13 20:40:55.32	322.26	10.50	-40.4	-40.7	12.7	1.65e-03	0	39	0	45449478144	46	15906
2026-01-13 20:40:58.32	322.78	10.27	-40.5	-40.8	12.7	1.88e-03	0	39	0	45785022464	46	16176
2026-01-13 20:41:01.29	323.28	10.03	-40.6	-40.9	12.7	2.28e-03	0	39	0	46120566784	47	15359
2026-01-13 20:41:04.27	323.78	9.80	-40.6	-40.9	12.7	2.45e-03	0	39	0	46456111104	47	15449
2026-01-13 20:41:07.24	324.27	9.57	-40.7	-41.0	12.6	2.56e-03	0	39	0	46791655424	47	15557
2026-01-13 20:41:10.21	324.74	9.34	-40.8	-41.1	12.6	2.94e-03	0	39	0	47127199744	47	15763
2026-01-13 20:41:13.18	325.21	9.11	-40.6	-40.9	12.6	3.40e-03	0	39	0	47454355456	47	15447
2026-01-13 20:41:16.17	325.68	8.88	-40.8	-41.1	12.6	2.84e-03	0	39	0	47798288384	47	15821
2026-01-13 20:41:19.13	326.13	8.66	-40.7	-41.0	12.6	3.28e-03	0	39	0	48125444096	47	15622
2026-01-13 20:41:22.11	326.57	8.43	-40.6	-40.9	12.6	3.21e-03	0	39	0	48460988416	47	15442
2026-01-13 20:41:25.10	327.01	8.21	-40.7	-41.0	12.6	3.19e-03	0	39	0	48796532736	47	15623
2026-01-13 20:41:28.09	327.44	7.99	-40.6	-40.9	12.6	3.27e-03	0	39	0	49132077056	47	15410
2026-01-13 20:41:31.08	327.86	7.77	-40.6	-40.9	12.6	3.18e-03	0	39	0	49467621376	47	15448
2026-01-13 20:41:34.05	328.27	7.55	-40.6	-40.9	12.6	4.29e-03	0	39	0	49803165696	47	15393
2026-01-13 20:41:37.03	328.68	7.33	-40.7	-41.0	12.6	5.02e-03	0	40	0	50138710016	47	15585
2026-01-13 20:41:40.03	329.08	7.11	-40.8	-41.1	12.6	4.74e-03	0	40	0	50482642944	47	15711
2026-01-13 20:41:43.03	329.48	6.90	-58.8	-62.0	6.2	4.74e-03	0	39	104	50507808768	83	22098
2026-01-13 20:41:46.02	329.86	6.68	-58.7	-61.9	6.2	1.61e-03	0	38	104	50507808768	83	21759
2026-01-13 20:41:49.00	330.24	6.47	-58.8	-62.0	6.2	1.61e-03	0	38	104	50507808768	83	21991
2026-01-13 20:41:52.00	330.62	6.26	-58.6	-61.8	6.2	1.61e-03	0	38	104	50507808768	83	21428
2026-01-13 20:41:54.98	330.98	6.05	-58.6	-61.9	6.2	1.61e-03	0	38	104	50507808768	83	21619
2026-01-13 20:41:57.97	331.34	5.84	-58.5	-61.8	6.2	0.00e+00	0	38	104	50507808768	83	21375
2026-01-13 20:42:00.96	331.70	5.64	-58.6	-61.8	6.2	0.00e+00	0	38	104	50507808768	83	21556
2026-01-13 20:42:03.94	332.04	5.43	-58.4	-61.6	6.2	0.00e+00	0	38	104	50507808768	83	20972
2026-01-13 20:42:06.93	332.39	5.23	-58.5	-61.7	6.2	0.00e+00	0	38	104	50507808768	83	21130
2026-01-13 20:42:09.91	332.72	5.02	-58.3	-61.5	6.2	0.00e+00	0	38	104	50507808768	83	20867
2026-01-13 20:42:12.90	333.05	4.82	-59.5	-62.8	6.1	0.00e+00	0	37	104	50507808768	84	22653
2026-01-13 20:42:15.91	333.38	4.62	-60.0	-63.3	6.2	0.00e+00	0	38	104	50507808768	85	22741
2026-01-13 20:42:18.90	333.70	4.42	-60.4	-63.6	6.1	0.00e+00	0	37	104	50507808768	86	22252
2026-01-13 20:42:21.91	334.02	4.23	-60.5	-63.7	6.2	0.00e+00	0	37	104	50507808768	86	22595
2026-01-13 20:42:24.89	334.33	4.03	-60.6	-63.8	6.2	0.00e+00	0	37	104	50507808768	86	22777
2026-01-13 20:42:27.90	334.64	3.83	-60.6	-63.8	6.2	0.00e+00	0	37	104	50507808768	86	22777
2026-01-13 20:42:30.89	334.94	3.64	-60.5	-63.7	6.2	0.00e+00	0	37	104	50507808768	86	22539
2026-01-13 20:42:33.89	335.23	3.45	-60.4	-63.7	6.2	0.00e+00	0	37	104	50507808768	86	22380
2026-01-13 20:42:36.89	335.53	3.26	-60.4	-63.6	6.2	0.00e+00	0	37	104	50507808768	86	22231
2026-01-13 20:42:39.90	335.82	3.07	-60.3	-63.6	6.2	0.00e+00	0	37	104	50507808768	86	22148
2026-01-13 20:42:42.89	336.10	2.88	-60.3	-63.5	6.2	0.00e+00	0	37	104	50507808768	86	22036
2026-01-13 20:42:45.89	336.38	2.69	-60.3	-63.5	6.2	0.00e+00	0	37	104	50507808768	86	21984
2026-01-13 20:42:48.88	336.65	2.50	-60.3	-63.5	6.2	0.00e+00	0	37	104	50507808768	86	21964
2026-01-13 20:42:51.89	336.92	2.32	-60.2	-63.5	6.2	0.00e+00	0	37	104	50507808768	86	21905
2026-01-13 20:42:54.89	337.19	2.13	-60.2	-63.5	6.2	0.00e+00	0	37	104	50507808768	86	21904
2026-01-13 20:42:57.90	337.45	1.95	-60.2	-63.4	6.2	0.00e+00	0	37	104	50507808768	86	21825

#Closed at: 2026-01-13 20:42:58
#Recorded file [50507 MB]: D:/lorett/data/31004_260113_233317.dat