passes_logs/2026/01/13/R3.2S_Murmansk/R3.2S_Murmansk__20260113_133201_SUOMI_NPP_rec.log

#Pass ID: 20260113_133201_SUOMI NPP
#Satellite: SUOMI NPP
#Configuration: NPP
#almurnet v.1.7.20251203
#Start time: 2026-01-13 13:32:03

#Version: 2.2.20231116
#Station: R3.2S_Murmansk
#Location: 33.079688 lon 68.888172 lat
#TLE: 1 37849U 11061A   26013.13039704  .00000061  00000+0  49955-4 0  9991
#TLE: 2 37849  98.7808 315.1951 0002492  66.9161 293.2277 14.19524814736449

#Time	Az	El	Level	Level2	SNR	BER	BlckErr	Temp	State	Recorded	gain1	gain2
2026-01-13 13:32:03.50	256.93	2.07	-58.3	-74.3	3.8	1.49e+00	0	24	0	0	83	21963
2026-01-13 13:32:06.49	257.26	2.19	-58.3	-74.3	3.8	1.49e+00	0	25	104	0	81	24514
2026-01-13 13:32:09.50	257.59	2.30	-58.3	-74.3	3.8	1.49e+00	0	25	104	0	81	24603
2026-01-13 13:32:12.50	257.93	2.42	-58.3	-74.3	3.8	1.49e+00	0	25	104	0	81	24573
2026-01-13 13:32:15.49	258.27	2.53	-58.3	-74.3	3.8	1.49e+00	0	25	104	0	81	24525
2026-01-13 13:32:18.49	258.61	2.65	-58.3	-74.3	3.8	1.49e+00	0	25	104	0	81	24592
2026-01-13 13:32:21.48	258.95	2.76	-58.3	-74.3	3.8	1.49e+00	0	25	104	0	81	24596
2026-01-13 13:32:24.48	259.30	2.87	-58.3	-74.3	3.8	1.49e+00	0	25	104	0	81	24537
2026-01-13 13:32:27.48	259.65	2.98	-58.3	-74.3	3.8	1.49e+00	0	25	104	0	81	24598
2026-01-13 13:32:30.47	260.00	3.10	-58.3	-74.3	3.8	1.49e+00	0	25	104	0	81	24604
2026-01-13 13:32:33.47	260.35	3.21	-58.3	-74.3	3.8	1.49e+00	0	25	104	0	81	24565
2026-01-13 13:32:36.47	260.71	3.32	-58.3	-74.3	3.8	1.49e+00	0	25	104	0	81	24606
2026-01-13 13:32:39.47	261.07	3.43	-58.3	-74.3	3.8	1.49e+00	0	25	104	0	81	24674
2026-01-13 13:32:42.47	261.43	3.54	-58.3	-74.3	3.8	1.49e+00	0	26	104	0	81	24514
2026-01-13 13:32:45.47	261.79	3.65	-58.3	-74.2	3.8	1.49e+00	0	26	104	0	81	24265
2026-01-13 13:32:48.45	262.16	3.76	-58.3	-74.3	3.8	1.49e+00	0	26	104	0	81	24443
2026-01-13 13:32:51.45	262.53	3.87	-58.3	-74.3	3.8	1.49e+00	0	26	104	0	81	24497
2026-01-13 13:32:54.45	262.90	3.98	-58.3	-74.3	3.8	1.49e+00	0	26	104	0	81	24595
2026-01-13 13:32:57.45	263.27	4.09	-58.3	-74.2	3.8	1.49e+00	0	26	104	0	81	24197
2026-01-13 13:33:00.46	263.65	4.20	-58.3	-74.3	3.8	1.49e+00	0	26	104	0	81	24450
2026-01-13 13:33:03.48	264.04	4.30	-58.3	-74.3	3.8	1.49e+00	0	26	104	0	81	24493
2026-01-13 13:33:06.48	264.42	4.41	-58.3	-74.1	3.8	1.49e+00	0	26	104	0	81	24065
2026-01-13 13:33:09.48	264.80	4.52	-58.3	-73.8	3.8	1.49e+00	0	26	104	0	81	23153
2026-01-13 13:33:12.48	265.19	4.62	-58.3	-73.9	3.8	1.49e+00	0	26	104	0	81	23455
2026-01-13 13:33:15.47	265.58	4.73	-58.3	-72.5	3.8	1.49e+00	0	26	104	0	81	20021
2026-01-13 13:33:18.48	265.98	4.83	-57.9	-67.5	5.6	4.56e-01	0	26	0	3145728	81	11196
2026-01-13 13:33:21.48	266.37	4.93	-56.9	-62.5	9.6	9.30e-03	0	26	0	8388608	80	6693
2026-01-13 13:33:24.49	266.77	5.04	-55.7	-59.6	11.8	6.80e-06	0	26	0	14680064	77	5695
2026-01-13 13:33:27.50	267.18	5.14	-56.6	-61.9	10.1	1.03e-02	0	26	0	19922944	79	6633
2026-01-13 13:33:30.49	267.58	5.24	-54.6	-57.7	12.9	0.00e+00	0	26	0	25165824	75	5141
2026-01-13 13:33:33.50	267.99	5.34	-55.3	-59.1	11.9	1.50e-06	0	26	0	31457280	75	6026
2026-01-13 13:33:36.50	268.40	5.44	-56.1	-60.8	10.7	1.37e-04	0	26	0	36700160	77	6515
2026-01-13 13:33:39.50	268.81	5.54	-56.2	-61.2	10.4	4.13e-04	0	26	0	41943040	77	6837
2026-01-13 13:33:42.49	269.22	5.63	-56.2	-61.2	10.3	6.17e-04	0	26	0	48234496	77	6842
2026-01-13 13:33:45.46	269.64	5.73	-55.8	-60.2	11.2	8.39e-05	0	26	0	53477376	77	6098
2026-01-13 13:33:48.46	270.06	5.83	-55.4	-59.1	12.1	9.90e-06	0	26	0	59768832	77	5374
2026-01-13 13:33:51.44	270.48	5.92	-54.9	-58.2	12.7	0.00e+00	0	26	0	65011712	76	5117
2026-01-13 13:33:54.43	270.90	6.01	-54.9	-58.0	12.8	0.00e+00	0	26	0	70254592	76	5041
2026-01-13 13:33:57.42	271.33	6.11	-54.9	-58.1	12.7	0.00e+00	0	26	0	76546048	76	5092
2026-01-13 13:34:00.42	271.76	6.20	-55.1	-58.4	12.6	0.00e+00	0	26	0	81788928	76	5268
2026-01-13 13:34:03.42	272.19	6.29	-54.7	-57.7	13.1	0.00e+00	0	26	0	87031808	76	4846
2026-01-13 13:34:06.42	272.63	6.38	-54.8	-57.9	12.9	0.00e+00	0	26	0	93323264	75	5235
2026-01-13 13:34:09.42	273.07	6.47	-54.7	-57.8	12.9	0.00e+00	0	26	0	98566144	75	5176
2026-01-13 13:34:12.40	273.51	6.55	-54.8	-57.8	12.9	0.00e+00	0	26	0	103809024	75	5216
2026-01-13 13:34:15.40	273.95	6.64	-54.7	-57.6	13.0	0.00e+00	0	26	0	110100480	75	5094
2026-01-13 13:34:18.40	274.40	6.73	-54.5	-57.3	13.2	0.00e+00	0	26	0	115343360	75	4911
2026-01-13 13:34:21.41	274.85	6.81	-54.4	-57.2	13.3	0.00e+00	0	26	0	120586240	75	4837
2026-01-13 13:34:24.41	275.30	6.89	-54.6	-57.6	13.1	0.00e+00	0	26	0	126877696	75	5055
2026-01-13 13:34:27.41	275.75	6.98	-54.7	-57.7	13.0	0.00e+00	0	26	0	132120576	75	5136
2026-01-13 13:34:30.40	276.20	7.06	-55.0	-58.3	12.6	0.00e+00	0	26	0	137363456	75	5475
2026-01-13 13:34:33.39	276.66	7.13	-54.6	-57.5	13.1	0.00e+00	0	26	0	143654912	75	5020
2026-01-13 13:34:36.38	277.12	7.21	-54.5	-57.3	13.3	0.00e+00	0	26	0	148897792	75	4894
2026-01-13 13:34:39.38	277.58	7.29	-54.7	-57.7	13.0	0.00e+00	0	26	0	155189248	75	5132
2026-01-13 13:34:42.37	278.05	7.36	-54.9	-58.1	12.7	0.00e+00	0	26	0	160432128	75	5348
2026-01-13 13:34:45.37	278.52	7.44	-55.0	-58.1	12.7	0.00e+00	0	26	0	165675008	75	5379
2026-01-13 13:34:48.36	278.98	7.51	-54.8	-57.9	12.9	0.00e+00	0	26	0	171966464	75	5228
2026-01-13 13:34:51.35	279.45	7.58	-55.2	-58.5	12.5	7.00e-07	0	26	0	177209344	75	5631
2026-01-13 13:34:54.32	279.92	7.65	-55.0	-58.2	12.7	0.00e+00	0	26	0	182452224	75	5412
2026-01-13 13:34:57.30	280.40	7.72	-54.8	-57.8	12.9	0.00e+00	0	26	0	188743680	75	5170
2026-01-13 13:35:00.29	280.87	7.78	-54.7	-57.6	13.1	0.00e+00	0	26	0	193986560	75	5056
2026-01-13 13:35:03.28	281.35	7.85	-55.0	-58.2	12.7	0.00e+00	0	26	0	199229440	75	5435
2026-01-13 13:35:06.27	281.83	7.91	-55.7	-59.3	12.1	7.00e-07	0	26	0	205520896	76	5810
2026-01-13 13:35:09.27	282.32	7.97	-55.8	-59.5	12.0	3.00e-06	0	26	0	210763776	76	5952
2026-01-13 13:35:12.27	282.80	8.03	-55.4	-58.7	12.5	0.00e+00	0	26	0	216006656	76	5416
2026-01-13 13:35:15.28	283.29	8.09	-55.0	-58.1	12.9	0.00e+00	0	26	0	222298112	76	5069
2026-01-13 13:35:18.29	283.79	8.15	-55.0	-58.0	13.0	0.00e+00	0	26	0	227540992	76	4997
2026-01-13 13:35:21.27	284.28	8.20	-54.9	-57.9	13.1	0.00e+00	0	26	0	232783872	76	4940
2026-01-13 13:35:24.27	284.77	8.26	-54.9	-57.7	13.2	0.00e+00	0	26	0	239075328	76	4856
2026-01-13 13:35:27.26	285.26	8.31	-55.1	-58.1	13.0	0.00e+00	0	26	0	244318208	76	5065
2026-01-13 13:35:30.25	285.76	8.36	-55.5	-58.8	12.5	7.00e-07	0	26	0	249561088	76	5492
2026-01-13 13:35:33.24	286.26	8.41	-55.5	-58.8	12.5	0.00e+00	0	26	0	255852544	76	5479
2026-01-13 13:35:36.23	286.75	8.45	-54.7	-57.5	13.3	0.00e+00	0	26	0	261095424	76	4740
2026-01-13 13:35:39.22	287.25	8.50	-54.7	-57.5	13.2	0.00e+00	0	26	0	267386880	75	5040
2026-01-13 13:35:42.22	287.76	8.54	-54.9	-57.8	13.0	0.00e+00	0	26	0	272629760	75	5193
2026-01-13 13:35:45.21	288.26	8.58	-54.5	-57.2	13.4	0.00e+00	0	26	0	277872640	75	4830
2026-01-13 13:35:48.18	288.76	8.62	-54.3	-56.9	13.6	0.00e+00	0	27	0	284164096	75	4687
2026-01-13 13:35:51.17	289.27	8.66	-54.5	-57.2	13.4	0.00e+00	0	26	0	289406976	75	4846
2026-01-13 13:35:54.14	289.77	8.69	-54.4	-57.0	13.5	0.00e+00	0	26	0	294649856	75	4747
2026-01-13 13:35:57.13	290.28	8.73	-54.4	-57.0	13.6	0.00e+00	0	26	0	300941312	75	4738
2026-01-13 13:36:00.12	290.79	8.76	-55.0	-58.1	12.9	0.00e+00	0	26	0	306184192	75	5347
2026-01-13 13:36:03.12	291.30	8.79	-55.8	-59.2	12.3	0.00e+00	0	26	0	311427072	76	5776
2026-01-13 13:36:06.12	291.81	8.82	-55.6	-58.9	12.5	0.00e+00	0	26	0	317718528	76	5590
2026-01-13 13:36:09.12	292.33	8.84	-55.4	-58.6	12.7	0.00e+00	0	26	0	322961408	76	5359
2026-01-13 13:36:12.11	292.84	8.87	-55.5	-58.8	12.6	0.00e+00	0	26	0	328204288	76	5479
2026-01-13 13:36:15.12	293.36	8.89	-55.6	-58.8	12.5	0.00e+00	0	27	0	334495744	76	5528
2026-01-13 13:36:18.12	293.87	8.91	-55.6	-58.9	12.5	7.00e-07	0	26	0	339738624	76	5580
2026-01-13 13:36:21.11	294.39	8.93	-56.0	-59.6	12.1	0.00e+00	0	26	0	344981504	77	5696
2026-01-13 13:36:24.10	294.90	8.94	-55.9	-59.4	12.2	1.50e-06	0	26	0	351272960	77	5587
2026-01-13 13:36:27.09	295.42	8.96	-55.7	-59.0	12.5	0.00e+00	0	27	0	356515840	77	5315
2026-01-13 13:36:30.10	295.94	8.97	-55.4	-58.5	12.8	0.00e+00	0	26	0	361758720	77	4999
2026-01-13 13:36:33.12	296.46	8.98	-55.4	-58.5	12.9	0.00e+00	0	26	0	368050176	77	5011
2026-01-13 13:36:36.11	296.98	8.99	-55.4	-58.5	12.9	0.00e+00	0	27	0	373293056	77	5009
2026-01-13 13:36:39.11	297.49	8.99	-55.2	-58.3	13.0	0.00e+00	0	27	0	379584512	77	4889
2026-01-13 13:36:42.11	298.01	9.00	-55.2	-58.2	12.9	0.00e+00	0	27	0	384827392	76	5157
2026-01-13 13:36:45.11	298.53	9.00	-55.3	-58.4	12.8	0.00e+00	0	26	0	390070272	76	5277
2026-01-13 13:36:48.10	299.05	9.00	-55.1	-58.1	13.0	0.00e+00	0	26	0	396361728	76	5053
2026-01-13 13:36:51.08	299.57	9.00	-54.7	-57.4	13.4	0.00e+00	0	26	0	401604608	76	4704
2026-01-13 13:36:54.07	300.08	8.99	-54.6	-57.3	13.4	0.00e+00	0	26	0	406847488	75	4891
2026-01-13 13:36:57.07	300.60	8.99	-54.5	-57.1	13.5	0.00e+00	0	26	0	413138944	75	4790
2026-01-13 13:37:00.07	301.12	8.98	-54.0	-56.4	13.7	0.00e+00	0	26	0	418381824	74	4702
2026-01-13 13:37:03.08	301.64	8.97	-54.1	-56.6	13.6	0.00e+00	0	27	0	423624704	74	4799
2026-01-13 13:37:06.08	302.16	8.96	-54.4	-57.0	13.4	0.00e+00	0	26	0	429916160	74	5002
2026-01-13 13:37:09.07	302.67	8.94	-54.4	-57.1	13.3	0.00e+00	0	27	0	435159040	74	5078
2026-01-13 13:37:12.08	303.19	8.93	-54.2	-56.7	13.6	0.00e+00	0	26	0	441450496	74	4869
2026-01-13 13:37:15.08	303.71	8.91	-54.4	-57.0	13.4	0.00e+00	0	27	0	446693376	74	5017
2026-01-13 13:37:18.08	304.22	8.89	-54.6	-57.4	13.2	0.00e+00	0	27	0	451936256	74	5262
2026-01-13 13:37:21.06	304.73	8.87	-54.2	-56.7	13.5	0.00e+00	0	27	0	458227712	74	4846
2026-01-13 13:37:24.06	305.25	8.84	-53.9	-56.3	13.8	0.00e+00	0	26	0	463470592	74	4635
2026-01-13 13:37:27.07	305.76	8.82	-54.1	-56.6	13.6	0.00e+00	0	27	0	468713472	74	4766
2026-01-13 13:37:30.08	306.28	8.79	-54.1	-56.6	13.6	0.00e+00	0	27	0	475004928	74	4789
2026-01-13 13:37:33.10	306.79	8.76	-53.6	-55.9	13.8	0.00e+00	0	27	0	480247808	73	4699
2026-01-13 13:37:36.10	307.30	8.73	-53.1	-55.2	14.1	0.00e+00	0	26	0	486539264	72	4582
2026-01-13 13:37:39.10	307.81	8.70	-53.2	-55.4	14.0	0.00e+00	0	26	0	491782144	72	4658
2026-01-13 13:37:42.11	308.32	8.66	-53.5	-55.8	13.8	0.00e+00	0	27	0	497025024	72	4903
2026-01-13 13:37:45.12	308.83	8.62	-53.6	-56.0	13.7	0.00e+00	0	26	0	503316480	72	5007
2026-01-13 13:37:48.11	309.33	8.58	-53.6	-55.9	13.7	0.00e+00	0	27	0	508559360	72	4947
2026-01-13 13:37:51.11	309.83	8.54	-53.7	-56.1	13.7	0.00e+00	0	27	0	513802240	72	5086
2026-01-13 13:37:54.11	310.34	8.50	-53.7	-56.1	13.7	0.00e+00	0	26	0	520093696	72	5058
2026-01-13 13:37:57.10	310.84	8.45	-53.6	-56.0	13.7	0.00e+00	0	26	0	525336576	72	5007
2026-01-13 13:38:00.09	311.33	8.41	-53.6	-56.0	13.7	0.00e+00	0	27	0	530579456	72	4986
2026-01-13 13:38:03.09	311.83	8.36	-53.4	-55.7	13.8	0.00e+00	0	26	0	536870912	72	4855
2026-01-13 13:38:06.08	312.33	8.31	-53.8	-56.2	13.6	0.00e+00	0	27	0	542113792	72	5143
2026-01-13 13:38:09.08	312.82	8.26	-54.2	-56.9	13.3	0.00e+00	0	26	0	548405248	73	5223
2026-01-13 13:38:12.08	313.31	8.21	-54.3	-56.9	13.3	0.00e+00	0	26	0	553648128	73	5265
2026-01-13 13:38:15.08	313.80	8.15	-54.2	-56.9	13.3	0.00e+00	0	27	0	558891008	73	5241
2026-01-13 13:38:18.08	314.29	8.09	-53.9	-56.4	13.6	0.00e+00	0	27	0	565182464	73	4956
2026-01-13 13:38:21.09	314.78	8.03	-53.2	-55.3	14.1	0.00e+00	0	27	0	570425344	73	4382
2026-01-13 13:38:24.10	315.27	7.97	-52.5	-54.5	14.3	0.00e+00	0	27	0	575668224	71	4459
2026-01-13 13:38:27.10	315.75	7.91	-52.7	-54.7	14.2	0.00e+00	0	26	0	581959680	71	4565
2026-01-13 13:38:30.10	316.23	7.85	-53.1	-55.2	13.9	0.00e+00	0	27	0	587202560	71	4860
2026-01-13 13:38:33.10	316.71	7.79	-53.0	-55.1	14.0	0.00e+00	0	26	0	592445440	71	4798
2026-01-13 13:38:36.10	317.19	7.72	-52.9	-55.0	14.0	0.00e+00	0	27	0	598736896	71	4755
2026-01-13 13:38:39.10	317.66	7.65	-53.0	-55.2	14.0	0.00e+00	0	26	0	603979776	71	4825
2026-01-13 13:38:42.10	318.14	7.58	-53.1	-55.3	13.9	0.00e+00	0	26	0	610271232	71	4916
2026-01-13 13:38:45.09	318.61	7.51	-53.3	-55.6	13.8	0.00e+00	0	26	0	615514112	71	5043
2026-01-13 13:38:48.08	319.07	7.44	-53.2	-55.5	13.8	0.00e+00	0	27	0	620756992	71	4994
2026-01-13 13:38:51.06	319.54	7.37	-52.9	-55.0	14.0	0.00e+00	0	27	0	627048448	71	4752
2026-01-13 13:38:54.05	320.00	7.29	-52.6	-54.6	14.2	0.00e+00	0	27	0	632291328	71	4516
2026-01-13 13:38:57.03	320.46	7.22	-52.8	-54.9	14.1	0.00e+00	0	27	0	637534208	71	4672
2026-01-13 13:39:00.03	320.92	7.14	-53.2	-55.5	13.8	0.00e+00	0	26	0	643825664	71	5025
2026-01-13 13:39:03.01	321.37	7.06	-53.5	-56.0	13.7	0.00e+00	0	27	0	649068544	72	4984
2026-01-13 13:39:06.02	321.83	6.98	-53.5	-55.8	13.7	0.00e+00	0	26	0	654311424	72	4926
2026-01-13 13:39:09.02	322.28	6.90	-53.5	-55.9	13.7	0.00e+00	0	27	0	660602880	72	4980
2026-01-13 13:39:12.02	322.73	6.82	-53.9	-56.5	13.4	0.00e+00	0	27	0	665845760	72	5308
2026-01-13 13:39:15.03	323.18	6.73	-54.3	-57.1	13.1	0.00e+00	0	27	0	671088640	73	5371
2026-01-13 13:39:18.04	323.62	6.65	-54.4	-57.3	13.1	0.00e+00	0	27	0	677380096	74	5173
2026-01-13 13:39:21.04	324.07	6.56	-54.3	-57.1	13.2	0.00e+00	0	27	0	682622976	74	5067
2026-01-13 13:39:24.03	324.50	6.48	-54.4	-57.3	13.1	0.00e+00	0	26	0	688914432	74	5179
2026-01-13 13:39:27.03	324.94	6.39	-54.6	-57.7	12.8	0.00e+00	0	27	0	694157312	74	5422
2026-01-13 13:39:30.03	325.37	6.30	-54.9	-58.1	12.6	0.00e+00	0	27	0	699400192	75	5398
2026-01-13 13:39:33.03	325.81	6.21	-54.7	-57.7	12.9	0.00e+00	0	26	0	705691648	75	5127
2026-01-13 13:39:36.03	326.24	6.12	-54.5	-57.4	13.1	0.00e+00	0	27	0	710934528	75	4978
2026-01-13 13:39:39.04	326.66	6.02	-54.8	-57.9	12.8	0.00e+00	0	26	0	716177408	75	5230
2026-01-13 13:39:42.04	327.09	5.93	-55.0	-58.4	12.5	0.00e+00	0	27	0	722468864	75	5538
2026-01-13 13:39:45.05	327.51	5.84	-55.0	-58.3	12.5	0.00e+00	0	27	0	727711744	75	5507
2026-01-13 13:39:48.05	327.93	5.74	-55.2	-58.7	12.2	7.00e-07	0	27	0	732954624	75	5725
2026-01-13 13:39:51.05	328.35	5.65	-55.7	-59.7	11.6	3.80e-06	0	26	0	739246080	76	6084
2026-01-13 13:39:54.05	328.76	5.55	-56.1	-60.4	11.2	7.24e-05	0	27	0	744488960	77	6263
2026-01-13 13:39:57.03	329.17	5.45	-55.9	-60.0	11.4	3.50e-05	0	27	0	750780416	77	5976
2026-01-13 13:40:00.02	329.57	5.35	-55.6	-59.4	11.9	1.14e-05	0	27	0	756023296	77	5539
2026-01-13 13:40:03.01	329.98	5.25	-55.5	-59.1	12.1	7.00e-07	0	27	0	761266176	77	5387
2026-01-13 13:40:06.00	330.38	5.15	-55.3	-58.8	12.3	0.00e+00	0	27	0	767557632	77	5181
2026-01-13 13:40:09.00	330.78	5.05	-55.6	-59.5	11.8	3.00e-06	0	27	0	772800512	77	5622
2026-01-13 13:40:12.00	331.18	4.95	-59.0	-75.0	3.8	1.49e+00	0	27	104	775946240	83	23725
2026-01-13 13:40:15.00	331.57	4.85	-59.8	-75.8	3.8	1.49e+00	0	27	104	775946240	84	24567
2026-01-13 13:40:18.00	331.97	4.75	-60.1	-76.1	3.8	1.49e+00	0	27	104	775946240	85	24067
2026-01-13 13:40:21.00	332.35	4.64	-60.2	-76.3	3.8	1.49e+00	0	27	104	775946240	85	24545
2026-01-13 13:40:23.99	332.74	4.54	-60.3	-76.4	3.8	1.49e+00	0	27	104	775946240	85	24810
2026-01-13 13:40:26.99	333.12	4.43	-60.3	-76.4	3.8	1.49e+00	0	27	104	775946240	85	24860
2026-01-13 13:40:29.99	333.51	4.33	-60.3	-76.4	3.8	1.49e+00	0	27	104	775946240	85	24779
2026-01-13 13:40:33.00	333.89	4.22	-60.2	-76.3	3.8	1.49e+00	0	27	104	775946240	85	24619
2026-01-13 13:40:35.99	334.26	4.12	-60.2	-76.3	3.8	1.49e+00	0	27	104	775946240	85	24521
2026-01-13 13:40:39.00	334.64	4.01	-60.2	-76.3	3.8	1.49e+00	0	27	104	775946240	85	24416
2026-01-13 13:40:42.00	335.01	3.90	-60.1	-76.2	3.8	1.49e+00	0	27	104	775946240	85	24273
2026-01-13 13:40:45.00	335.38	3.79	-60.1	-76.2	3.8	1.49e+00	0	27	104	775946240	85	24276
2026-01-13 13:40:48.01	335.74	3.68	-60.1	-76.2	3.8	1.49e+00	0	27	104	775946240	85	24153
2026-01-13 13:40:50.99	336.10	3.57	-60.1	-76.2	3.8	1.49e+00	0	27	104	775946240	85	24153
2026-01-13 13:40:53.99	336.47	3.46	-60.1	-76.1	3.8	1.49e+00	0	27	104	775946240	85	24104
2026-01-13 13:40:56.99	336.82	3.35	-60.1	-76.2	3.8	1.49e+00	0	27	104	775946240	85	24165
2026-01-13 13:40:59.98	337.18	3.24	-60.1	-76.1	3.8	1.49e+00	0	27	104	775946240	85	24122
2026-01-13 13:41:02.98	337.53	3.13	-60.1	-76.1	3.8	1.49e+00	0	27	104	775946240	85	24128
2026-01-13 13:41:05.98	337.88	3.02	-60.0	-76.1	3.8	1.49e+00	0	27	104	775946240	85	24004
2026-01-13 13:41:08.98	338.23	2.91	-60.0	-76.1	3.8	1.49e+00	0	27	104	775946240	85	23950
2026-01-13 13:41:11.97	338.57	2.80	-60.0	-76.1	3.8	1.49e+00	0	27	104	775946240	85	24039
2026-01-13 13:41:14.97	338.92	2.68	-60.0	-76.1	3.8	1.49e+00	0	27	104	775946240	85	23923
2026-01-13 13:41:17.98	339.26	2.57	-59.9	-76.0	3.8	1.49e+00	0	27	104	775946240	85	23723
2026-01-13 13:41:20.98	339.60	2.46	-60.0	-76.0	3.8	1.49e+00	0	27	104	775946240	85	23685
2026-01-13 13:41:23.99	339.93	2.34	-60.0	-76.1	3.8	1.49e+00	0	27	104	775946240	85	23860
2026-01-13 13:41:26.99	340.27	2.23	-60.0	-76.1	3.8	1.49e+00	0	27	104	775946240	85	24035
2026-01-13 13:41:30.00	340.60	2.11	-60.0	-76.1	3.8	1.49e+00	0	27	104	775946240	85	23887
2026-01-13 13:41:33.00	340.93	2.00	-60.0	-76.1	3.8	1.49e+00	0	27	104	775946240	85	23951

#Closed at: 2026-01-13 13:41:35
#Recorded file [775 MB]: D:/lorett/data/31004_260113_163203.dat