passes_logs/2026/01/13/R3.2S_Murmansk/R3.2S_Murmansk__20260113_042841_FENGYUN_3D_rec.log

#Pass ID: 20260113_042841_FENGYUN 3D
#Satellite: FENGYUN 3D
#Configuration: FENGYUN 3D
#almurnet v.1.7.20251203
#Start time: 2026-01-13 04:28:42

#Version: 2.2.20231116
#Station: R3.2S_Murmansk
#Location: 33.079688 lon 68.888172 lat
#TLE: 1 43010U 17072A   26012.32543542  .00000598  00000+0  30457-3 0  9997
#TLE: 2 43010  98.9935 344.1005 0002233 112.6136 247.5276 14.19696644422876

#Time	Az	El	Level	Level2	SNR	BER	BlckErr	Temp	State	Recorded	gain1	gain2
2026-01-13 04:28:42.90	33.87	2.08	-56.9	-69.9	3.8	8.46e-01	0	20	0	0	80	15582
2026-01-13 04:28:46.88	33.73	2.33	-56.8	-69.7	3.8	8.45e-01	0	20	104	0	78	17254
2026-01-13 04:28:50.89	33.58	2.58	-56.8	-69.8	3.8	8.46e-01	0	20	104	0	78	17289
2026-01-13 04:28:54.90	33.43	2.83	-56.8	-69.8	3.8	8.46e-01	0	20	104	0	78	17354
2026-01-13 04:28:58.91	33.28	3.09	-56.8	-69.5	3.8	8.45e-01	0	20	104	0	78	16784
2026-01-13 04:29:02.91	33.13	3.34	-56.8	-69.0	3.8	8.45e-01	0	20	104	0	78	15926
2026-01-13 04:29:06.92	32.97	3.60	-56.7	-67.7	3.8	8.45e-01	0	21	104	0	78	13643
2026-01-13 04:29:10.92	32.81	3.86	-56.7	-68.5	3.8	8.46e-01	0	21	104	0	78	14910
2026-01-13 04:29:14.93	32.64	4.13	-56.2	-63.9	5.1	7.95e-01	0	21	0	0	78	8808
2026-01-13 04:29:18.93	32.47	4.39	-54.8	-59.2	8.9	2.02e-02	0	21	0	18874368	76	5767
2026-01-13 04:29:22.93	32.30	4.66	-53.5	-56.7	10.9	8.42e-04	0	21	0	40894464	73	5159
2026-01-13 04:29:26.93	32.13	4.93	-53.9	-57.4	10.3	2.21e-03	0	21	0	63963136	73	5586
2026-01-13 04:29:30.92	31.95	5.20	-55.9	-63.0	5.6	6.31e-02	0	21	0	85983232	76	8906
2026-01-13 04:29:34.91	31.77	5.48	-49.3	-50.9	14.8	0.00e+00	0	21	0	108003328	65	4156
2026-01-13 04:29:38.90	31.58	5.76	-49.1	-50.6	14.8	0.00e+00	0	21	0	131072000	64	4286
2026-01-13 04:29:42.90	31.39	6.04	-48.9	-50.4	14.8	0.00e+00	0	21	0	153092096	63	4423
2026-01-13 04:29:46.90	31.20	6.32	-49.3	-50.9	14.7	0.00e+00	0	21	0	175112192	64	4394
2026-01-13 04:29:50.89	31.00	6.60	-49.0	-50.4	14.9	0.00e+00	0	21	0	198180864	64	4187
2026-01-13 04:29:54.88	30.80	6.89	-48.8	-50.3	14.9	0.00e+00	0	21	0	220200960	63	4342
2026-01-13 04:29:58.89	30.59	7.19	-49.1	-50.6	14.7	0.00e+00	0	21	0	243269632	63	4517
2026-01-13 04:30:02.88	30.38	7.48	-48.8	-50.2	15.0	0.00e+00	0	21	0	265289728	63	4309
2026-01-13 04:30:06.90	30.17	7.78	-48.8	-50.3	15.0	0.00e+00	0	21	0	288358400	63	4343
2026-01-13 04:30:10.88	29.95	8.08	-48.6	-50.0	15.1	0.00e+00	0	21	0	310378496	63	4211
2026-01-13 04:30:14.87	29.72	8.38	-48.7	-50.1	15.1	0.00e+00	0	21	0	332398592	63	4261
2026-01-13 04:30:18.86	29.49	8.69	-48.6	-49.9	15.2	0.00e+00	0	21	0	355467264	63	4193
2026-01-13 04:30:22.86	29.26	9.00	-48.4	-49.8	15.3	0.00e+00	0	21	0	377487360	63	4115
2026-01-13 04:30:26.86	29.02	9.31	-48.3	-49.6	15.4	0.00e+00	0	21	0	400556032	63	4033
2026-01-13 04:30:30.85	28.77	9.63	-48.3	-49.6	15.4	0.00e+00	0	22	0	422576128	63	4050
2026-01-13 04:30:34.85	28.52	9.95	-48.1	-49.4	15.3	0.00e+00	0	22	0	444596224	62	4190
2026-01-13 04:30:38.83	28.26	10.28	-48.1	-49.5	15.3	0.00e+00	0	22	0	467664896	62	4199
2026-01-13 04:30:42.82	28.00	10.60	-48.1	-49.4	15.3	0.00e+00	0	22	0	489684992	62	4191
2026-01-13 04:30:46.81	27.72	10.93	-48.0	-49.3	15.4	0.00e+00	0	22	0	512753664	62	4103
2026-01-13 04:30:50.82	27.45	11.27	-47.8	-49.1	15.5	0.00e+00	0	22	0	534773760	62	4046
2026-01-13 04:30:54.82	27.16	11.61	-47.6	-48.9	15.5	0.00e+00	0	22	0	557842432	61	4153
2026-01-13 04:30:58.82	26.87	11.96	-47.4	-48.6	15.6	0.00e+00	0	22	0	579862528	61	4033
2026-01-13 04:31:02.81	26.57	12.30	-47.3	-48.5	15.7	0.00e+00	0	22	0	602931200	61	4002
2026-01-13 04:31:06.81	26.27	12.66	-47.3	-48.5	15.7	0.00e+00	0	22	0	624951296	61	3993
2026-01-13 04:31:10.81	25.95	13.01	-47.2	-48.5	15.7	0.00e+00	0	22	0	648019968	61	3966
2026-01-13 04:31:14.82	25.63	13.38	-47.1	-48.3	15.6	0.00e+00	0	22	0	670040064	60	4109
2026-01-13 04:31:18.82	25.30	13.74	-47.1	-48.3	15.6	0.00e+00	0	22	0	692060160	60	4111
2026-01-13 04:31:22.82	24.96	14.11	-47.1	-48.3	15.7	0.00e+00	0	22	0	715128832	60	4106
2026-01-13 04:31:26.82	24.61	14.49	-47.0	-48.2	15.7	0.00e+00	0	22	0	737148928	60	4073
2026-01-13 04:31:30.81	24.25	14.86	-46.8	-48.0	15.8	0.00e+00	0	22	0	760217600	60	3994
2026-01-13 04:31:34.82	23.88	15.25	-47.0	-48.2	15.6	0.00e+00	0	22	0	782237696	59	4326
2026-01-13 04:31:38.80	23.51	15.64	-46.8	-48.1	15.7	0.00e+00	0	22	0	805306368	59	4244
2026-01-13 04:31:42.80	23.12	16.03	-46.9	-48.2	15.6	0.00e+00	0	22	0	827326464	59	4295
2026-01-13 04:31:46.79	22.72	16.43	-46.9	-48.1	15.7	0.00e+00	0	22	0	849346560	59	4268
2026-01-13 04:31:50.79	22.31	16.83	-47.0	-48.2	15.6	0.00e+00	0	22	0	872415232	59	4295
2026-01-13 04:31:54.78	21.89	17.24	-46.7	-47.9	15.7	0.00e+00	0	22	0	894435328	59	4171
2026-01-13 04:31:58.77	21.46	17.66	-46.4	-47.5	15.9	0.00e+00	0	22	0	917504000	59	3992
2026-01-13 04:32:02.77	21.01	18.08	-46.2	-47.4	16.0	0.00e+00	0	22	0	939524096	59	3928
2026-01-13 04:32:06.77	20.55	18.50	-46.3	-47.5	15.8	0.00e+00	0	22	0	962592768	58	4197
2026-01-13 04:32:10.77	20.08	18.93	-46.2	-47.4	15.8	0.00e+00	0	22	0	984612864	58	4155
2026-01-13 04:32:14.77	19.59	19.37	-46.1	-47.2	15.9	0.00e+00	0	22	0	1007681536	58	4095
2026-01-13 04:32:18.77	19.09	19.81	-46.1	-47.2	15.9	0.00e+00	0	22	0	1029701632	58	4098
2026-01-13 04:32:22.78	18.57	20.26	-46.0	-47.2	15.9	0.00e+00	0	22	0	1052770304	58	4058
2026-01-13 04:32:26.77	18.04	20.71	-45.8	-46.9	16.1	0.00e+00	0	22	0	1074790400	58	3931
2026-01-13 04:32:30.76	17.50	21.17	-45.6	-46.8	16.0	0.00e+00	0	22	0	1096810496	57	4099
2026-01-13 04:32:34.76	16.93	21.63	-45.8	-46.9	15.9	0.00e+00	0	22	0	1119879168	57	4175
2026-01-13 04:32:38.75	16.35	22.10	-45.3	-46.4	16.1	0.00e+00	0	22	0	1141899264	57	3952
2026-01-13 04:32:42.71	15.75	22.57	-45.4	-46.5	16.1	0.00e+00	0	22	0	1164967936	57	3965
2026-01-13 04:32:46.72	15.13	23.05	-45.3	-46.4	16.1	0.00e+00	0	22	0	1186988032	57	3955
2026-01-13 04:32:50.72	14.49	23.53	-45.1	-46.2	16.0	0.00e+00	0	22	0	1209008128	56	4076
2026-01-13 04:32:54.70	13.83	24.02	-45.3	-46.4	16.0	0.00e+00	0	22	0	1232076800	56	4152
2026-01-13 04:32:58.70	13.15	24.52	-45.4	-46.5	15.9	0.00e+00	0	22	0	1254096896	56	4211
2026-01-13 04:33:02.65	12.45	25.01	-45.2	-46.3	16.0	0.00e+00	0	22	0	1276116992	56	4144
2026-01-13 04:33:06.66	11.72	25.52	-44.9	-45.9	16.1	0.00e+00	0	22	0	1299185664	56	3948
2026-01-13 04:33:10.63	10.98	26.02	-44.6	-45.6	16.1	0.00e+00	0	22	0	1321205760	55	4051
2026-01-13 04:33:14.63	10.20	26.53	-44.9	-46.0	16.0	0.00e+00	0	22	0	1344274432	55	4198
2026-01-13 04:33:18.62	9.40	27.05	-44.6	-45.6	16.1	0.00e+00	0	22	0	1366294528	55	4046
2026-01-13 04:33:22.63	8.57	27.57	-44.7	-45.7	16.0	0.00e+00	0	22	0	1389363200	55	4086
2026-01-13 04:33:26.63	7.71	28.09	-44.9	-45.9	16.0	0.00e+00	0	22	0	1411383296	55	4192
2026-01-13 04:33:30.62	6.82	28.62	-44.8	-45.9	16.0	0.00e+00	0	22	0	1434451968	55	4148
2026-01-13 04:33:34.61	5.91	29.14	-44.7	-45.7	16.1	0.00e+00	0	22	0	1456472064	55	4091
2026-01-13 04:33:38.61	4.96	29.67	-44.7	-45.8	16.1	0.00e+00	0	22	0	1478492160	55	4138
2026-01-13 04:33:42.59	3.98	30.20	-44.4	-45.5	16.1	0.00e+00	0	22	0	1501560832	55	3984
2026-01-13 04:33:46.57	2.98	30.73	-44.5	-45.5	16.1	0.00e+00	0	22	0	1523580928	55	3998
2026-01-13 04:33:50.58	1.93	31.26	-44.4	-45.5	16.1	0.00e+00	0	22	0	1546649600	55	3987
2026-01-13 04:33:54.59	0.84	31.78	-44.4	-45.5	16.1	0.00e+00	0	22	0	1568669696	55	3971
2026-01-13 04:33:58.57	359.73	32.31	-44.6	-45.7	16.1	0.00e+00	0	22	0	1590689792	55	4056
2026-01-13 04:34:02.57	358.57	32.83	-44.4	-45.5	16.1	0.00e+00	0	22	0	1613758464	55	3970
2026-01-13 04:34:06.57	357.38	33.34	-44.5	-45.6	16.1	0.00e+00	0	22	0	1635778560	55	4033
2026-01-13 04:34:10.58	356.15	33.85	-44.3	-45.3	16.2	0.00e+00	0	22	0	1658847232	55	3908
2026-01-13 04:34:14.57	354.88	34.35	-44.4	-45.4	16.2	0.00e+00	0	22	0	1680867328	55	3958
2026-01-13 04:34:18.58	353.57	34.85	-44.3	-45.3	16.2	0.00e+00	0	22	0	1703936000	55	3913
2026-01-13 04:34:22.59	352.21	35.33	-44.3	-45.4	16.2	0.00e+00	0	22	0	1725956096	55	3933
2026-01-13 04:34:26.58	350.82	35.80	-44.2	-45.2	16.2	0.00e+00	0	22	0	1749024768	55	3864
2026-01-13 04:34:30.59	349.39	36.26	-44.2	-45.3	16.1	0.00e+00	0	22	0	1771044864	54	4101
2026-01-13 04:34:34.58	347.92	36.71	-44.5	-45.5	16.0	0.00e+00	0	22	0	1794113536	54	4242
2026-01-13 04:34:38.58	346.40	37.14	-44.2	-45.3	16.1	0.00e+00	0	22	0	1816133632	54	4115
2026-01-13 04:34:42.57	344.85	37.54	-44.3	-45.3	16.1	0.00e+00	0	22	0	1838153728	54	4144
2026-01-13 04:34:46.55	343.27	37.93	-44.4	-45.5	16.0	0.00e+00	0	22	0	1861222400	54	4213
2026-01-13 04:34:50.55	341.64	38.30	-44.6	-45.7	16.0	0.00e+00	0	22	0	1883242496	54	4292
2026-01-13 04:34:54.56	339.97	38.65	-44.1	-45.2	16.1	0.00e+00	0	22	0	1906311168	54	4052
2026-01-13 04:34:58.57	338.27	38.97	-44.1	-45.1	16.2	0.00e+00	0	22	0	1928331264	54	4018
2026-01-13 04:35:02.55	336.54	39.26	-44.6	-45.6	16.0	0.00e+00	0	22	0	1951399936	54	4286
2026-01-13 04:35:06.56	334.77	39.53	-44.4	-45.4	16.1	0.00e+00	0	22	0	1973420032	54	4174
2026-01-13 04:35:10.54	332.99	39.76	-44.6	-45.7	16.0	0.00e+00	0	22	0	1995440128	54	4294
2026-01-13 04:35:14.53	331.18	39.96	-44.3	-45.3	16.1	0.00e+00	0	22	0	2018508800	54	4128
2026-01-13 04:35:18.53	329.34	40.14	-44.0	-45.0	16.2	0.00e+00	0	22	0	2040528896	54	3984
2026-01-13 04:35:22.53	327.49	40.28	-44.4	-45.4	16.1	0.00e+00	0	22	0	2063597568	54	4172
2026-01-13 04:35:26.54	325.61	40.38	-44.2	-45.3	16.1	0.00e+00	0	22	0	2085617664	54	4113
2026-01-13 04:35:30.53	323.74	40.45	-44.3	-45.3	16.1	0.00e+00	0	22	0	2108686336	54	4143
2026-01-13 04:35:34.53	321.85	40.49	-44.5	-45.5	16.1	0.00e+00	0	22	0	2130706432	54	4242
2026-01-13 04:35:38.51	319.97	40.49	-44.1	-45.2	16.1	0.00e+00	0	22	0	2153775104	54	4053
2026-01-13 04:35:42.50	318.09	40.46	-44.3	-45.4	16.1	0.00e+00	0	22	0	2175795200	54	4155
2026-01-13 04:35:46.49	316.21	40.39	-44.2	-45.3	16.1	0.00e+00	0	22	0	2197815296	54	4108
2026-01-13 04:35:50.47	314.35	40.28	-44.3	-45.3	16.1	0.00e+00	0	22	0	2220883968	54	4121
2026-01-13 04:35:54.46	312.50	40.15	-44.4	-45.4	16.1	0.00e+00	0	22	0	2242904064	54	4173
2026-01-13 04:35:58.46	310.66	39.97	-44.1	-45.1	16.1	0.00e+00	0	22	0	2265972736	54	4046
2026-01-13 04:36:02.46	308.84	39.77	-44.2	-45.3	16.1	0.00e+00	0	22	0	2287992832	54	4124
2026-01-13 04:36:06.45	307.05	39.54	-44.5	-45.5	16.0	0.00e+00	0	22	0	2310012928	54	4230
2026-01-13 04:36:10.45	305.28	39.27	-44.2	-45.2	16.1	0.00e+00	0	22	0	2333081600	54	4094
2026-01-13 04:36:14.46	303.54	38.98	-44.1	-45.2	16.1	0.00e+00	0	22	0	2355101696	54	4053
2026-01-13 04:36:18.45	301.84	38.66	-44.4	-45.4	16.1	0.00e+00	0	22	0	2378170368	54	4172
2026-01-13 04:36:22.46	300.17	38.32	-44.6	-45.6	16.0	0.00e+00	0	22	0	2400190464	54	4276
2026-01-13 04:36:26.46	298.53	37.95	-43.9	-44.9	16.2	0.00e+00	0	22	0	2423259136	54	3932
2026-01-13 04:36:30.45	296.94	37.56	-43.9	-45.0	16.2	0.00e+00	0	22	0	2445279232	54	3960
2026-01-13 04:36:34.45	295.38	37.15	-44.3	-45.4	16.1	0.00e+00	0	22	0	2468347904	54	4153
2026-01-13 04:36:38.45	293.87	36.72	-44.4	-45.4	16.0	0.00e+00	0	22	0	2490368000	54	4186
2026-01-13 04:36:42.45	292.39	36.28	-44.0	-45.0	16.2	0.00e+00	0	22	0	2512388096	54	3986
2026-01-13 04:36:46.43	290.96	35.82	-44.3	-45.3	16.1	0.00e+00	0	22	0	2535456768	54	4129
2026-01-13 04:36:50.42	289.57	35.35	-44.2	-45.2	16.1	0.00e+00	0	22	0	2557476864	54	4093
2026-01-13 04:36:54.42	288.21	34.86	-44.1	-45.1	16.1	0.00e+00	0	22	0	2580545536	54	4046
2026-01-13 04:36:58.42	286.90	34.37	-44.0	-45.1	16.1	0.00e+00	0	22	0	2602565632	54	4014
2026-01-13 04:37:02.41	285.62	33.87	-44.1	-45.1	16.1	0.00e+00	0	22	0	2625634304	54	4048
2026-01-13 04:37:06.40	284.39	33.36	-44.0	-45.1	16.1	0.00e+00	0	22	0	2647654400	54	4015
2026-01-13 04:37:10.38	283.20	32.84	-43.9	-44.9	16.2	0.00e+00	0	22	0	2669674496	54	3929
2026-01-13 04:37:14.39	282.04	32.32	-44.3	-45.4	16.1	0.00e+00	0	22	0	2692743168	54	4152
2026-01-13 04:37:18.39	280.91	31.80	-44.5	-45.5	16.0	0.00e+00	0	22	0	2714763264	54	4236
2026-01-13 04:37:22.38	279.83	31.27	-44.3	-45.4	16.0	0.00e+00	0	22	0	2737831936	54	4161
2026-01-13 04:37:26.36	278.78	30.74	-44.3	-45.4	16.0	0.00e+00	0	22	0	2759852032	54	4154
2026-01-13 04:37:30.36	277.77	30.21	-44.3	-45.4	16.0	0.00e+00	0	22	0	2782920704	54	4177
2026-01-13 04:37:34.36	276.78	29.68	-44.4	-45.5	16.0	0.00e+00	0	22	0	2804940800	54	4203
2026-01-13 04:37:38.35	275.83	29.15	-44.8	-45.9	15.9	0.00e+00	0	22	0	2828009472	54	4408
2026-01-13 04:37:42.34	274.91	28.62	-44.5	-45.6	16.0	0.00e+00	0	22	0	2850029568	54	4258
2026-01-13 04:37:46.31	274.03	28.10	-44.5	-45.6	16.0	0.00e+00	0	22	0	2872049664	54	4272
2026-01-13 04:37:50.30	273.17	27.58	-44.6	-45.7	16.0	0.00e+00	0	22	0	2895118336	54	4325
2026-01-13 04:37:54.30	272.33	27.06	-44.8	-45.9	15.9	0.00e+00	0	22	0	2917138432	54	4420
2026-01-13 04:37:58.30	271.53	26.54	-44.8	-45.9	16.0	0.00e+00	0	22	0	2940207104	55	4180
2026-01-13 04:38:02.31	270.74	26.02	-44.8	-45.8	16.0	0.00e+00	0	22	0	2962227200	55	4136
2026-01-13 04:38:06.31	269.99	25.51	-44.9	-46.0	15.9	0.00e+00	0	22	0	2984247296	55	4217
2026-01-13 04:38:10.31	269.26	25.01	-45.0	-46.0	15.9	0.00e+00	0	22	0	3007315968	55	4239
2026-01-13 04:38:14.31	268.55	24.50	-45.1	-46.1	15.9	0.00e+00	0	22	0	3029336064	55	4287
2026-01-13 04:38:18.29	267.87	24.01	-44.9	-46.0	16.0	0.00e+00	0	22	0	3052404736	55	4197
2026-01-13 04:38:22.29	267.20	23.52	-45.2	-46.3	15.9	0.00e+00	0	22	0	3074424832	55	4362
2026-01-13 04:38:26.30	266.56	23.03	-45.1	-46.2	15.9	0.00e+00	0	22	0	3096444928	55	4300
2026-01-13 04:38:30.29	265.94	22.55	-44.9	-45.9	16.0	0.00e+00	0	22	0	3119513600	55	4189
2026-01-13 04:38:34.28	265.33	22.08	-45.1	-46.2	15.9	0.00e+00	0	22	0	3141533696	55	4303
2026-01-13 04:38:38.27	264.75	21.61	-45.0	-46.1	15.9	0.00e+00	0	22	0	3164602368	55	4278
2026-01-13 04:38:42.27	264.18	21.14	-45.3	-46.4	15.8	0.00e+00	0	22	0	3186622464	55	4431
2026-01-13 04:38:46.26	263.63	20.68	-45.7	-46.8	15.8	0.00e+00	0	22	0	3209691136	56	4351
2026-01-13 04:38:50.26	263.10	20.23	-45.6	-46.7	15.8	0.00e+00	0	22	0	3231711232	56	4324
2026-01-13 04:38:54.25	262.58	19.78	-45.6	-46.7	15.8	0.00e+00	0	22	0	3254779904	56	4328
2026-01-13 04:38:58.24	262.07	19.34	-45.7	-46.9	15.8	0.00e+00	0	22	0	3276800000	56	4394
2026-01-13 04:39:02.24	261.59	18.90	-46.0	-47.1	15.8	0.00e+00	0	22	0	3298820096	57	4288
2026-01-13 04:39:06.26	261.11	18.47	-46.1	-47.3	15.8	0.00e+00	0	22	0	3321888768	57	4341
2026-01-13 04:39:10.27	260.65	18.04	-46.0	-47.1	15.8	0.00e+00	0	22	0	3344957440	57	4287
2026-01-13 04:39:14.27	260.20	17.62	-46.0	-47.1	15.8	0.00e+00	0	22	0	3366977536	57	4273
2026-01-13 04:39:18.27	259.76	17.20	-46.3	-47.4	15.7	0.00e+00	0	22	0	3388997632	57	4420
2026-01-13 04:39:22.27	259.34	16.79	-46.5	-47.7	15.7	0.00e+00	0	22	0	3412066304	58	4300
2026-01-13 04:39:26.26	258.93	16.39	-46.6	-47.8	15.7	0.00e+00	0	22	0	3434086400	58	4367
2026-01-13 04:39:30.26	258.52	15.99	-46.7	-47.8	15.6	0.00e+00	0	22	0	3457155072	58	4379
2026-01-13 04:39:34.26	258.13	15.59	-46.7	-47.9	15.6	0.00e+00	0	22	0	3479175168	58	4419
2026-01-13 04:39:38.26	257.76	15.20	-46.8	-48.0	15.6	0.00e+00	0	22	0	3502243840	58	4451
2026-01-13 04:39:42.25	257.39	14.82	-46.8	-48.0	15.6	0.00e+00	0	22	0	3524263936	58	4482
2026-01-13 04:39:46.25	257.03	14.44	-47.0	-48.2	15.6	0.00e+00	0	22	0	3546284032	59	4321
2026-01-13 04:39:50.24	256.68	14.06	-47.2	-48.4	15.5	0.00e+00	0	22	0	3569352704	59	4423
2026-01-13 04:39:54.23	256.34	13.69	-47.3	-48.5	15.5	0.00e+00	0	22	0	3591372800	59	4470
2026-01-13 04:39:58.23	256.00	13.33	-47.3	-48.5	15.5	0.00e+00	0	22	0	3614441472	59	4467
2026-01-13 04:40:02.22	255.68	12.96	-47.3	-48.5	15.4	0.00e+00	0	22	0	3636461568	59	4486
2026-01-13 04:40:06.22	255.36	12.61	-47.0	-48.2	15.7	0.00e+00	0	22	0	3659530240	60	4069
2026-01-13 04:40:10.23	255.05	12.25	-47.1	-48.3	15.6	0.00e+00	0	22	0	3681550336	60	4125
2026-01-13 04:40:14.23	254.75	11.90	-47.2	-48.4	15.6	0.00e+00	0	22	0	3704619008	60	4171
2026-01-13 04:40:18.22	254.46	11.56	-47.4	-48.6	15.5	0.00e+00	0	22	0	3726639104	60	4274
2026-01-13 04:40:22.23	254.17	11.22	-47.5	-48.8	15.4	0.00e+00	0	22	0	3748659200	60	4345
2026-01-13 04:40:26.23	253.89	10.88	-47.5	-48.7	15.4	0.00e+00	0	22	0	3771727872	60	4335
2026-01-13 04:40:30.24	253.62	10.55	-47.5	-48.8	15.4	0.00e+00	0	22	0	3793747968	60	4345
2026-01-13 04:40:34.24	253.35	10.22	-47.5	-48.8	15.4	0.00e+00	0	22	0	3816816640	60	4360
2026-01-13 04:40:38.25	253.09	9.89	-47.7	-49.0	15.3	0.00e+00	0	22	0	3838836736	60	4444
2026-01-13 04:40:42.24	252.83	9.57	-47.8	-49.0	15.2	0.00e+00	0	22	0	3861905408	60	4490
2026-01-13 04:40:46.23	252.59	9.25	-47.8	-49.1	15.2	0.00e+00	0	22	0	3883925504	60	4535
2026-01-13 04:40:50.21	252.34	8.94	-47.9	-49.2	15.3	0.00e+00	0	22	0	3906994176	61	4331
2026-01-13 04:40:54.20	252.11	8.63	-48.0	-49.3	15.2	0.00e+00	0	22	0	3929014272	61	4353
2026-01-13 04:40:58.21	251.87	8.32	-48.1	-49.5	15.1	0.00e+00	0	22	0	3952082944	61	4451
2026-01-13 04:41:02.19	251.65	8.02	-48.1	-49.5	15.1	0.00e+00	0	22	0	3974103040	61	4466
2026-01-13 04:41:06.16	251.43	7.72	-48.3	-49.6	15.0	0.00e+00	0	22	0	3996123136	61	4528
2026-01-13 04:41:10.18	251.21	7.42	-48.4	-49.8	15.1	0.00e+00	0	22	0	4019191808	62	4359
2026-01-13 04:41:14.17	250.99	7.12	-48.6	-50.0	14.9	0.00e+00	0	22	0	4041211904	62	4463
2026-01-13 04:41:18.17	250.79	6.83	-48.7	-50.1	14.9	0.00e+00	0	22	0	4064280576	62	4504
2026-01-13 04:41:22.16	250.58	6.54	-48.5	-49.8	15.0	0.00e+00	0	22	0	4086300672	62	4390
2026-01-13 04:41:26.16	250.38	6.25	-48.4	-49.8	15.0	0.00e+00	0	22	0	4109369344	62	4363
2026-01-13 04:41:30.15	250.19	5.97	-48.7	-50.1	14.8	0.00e+00	0	22	0	4131389440	62	4506
2026-01-13 04:41:34.17	249.99	5.69	-48.7	-50.1	14.8	0.00e+00	0	22	0	4153409536	62	4534
2026-01-13 04:41:38.17	249.81	5.41	-48.8	-50.2	14.9	0.00e+00	0	22	0	4176478208	63	4310
2026-01-13 04:41:42.18	249.62	5.13	-49.0	-50.5	14.6	0.00e+00	0	22	0	4198498304	63	4487
2026-01-13 04:41:46.18	249.44	4.86	-58.1	-71.1	3.8	8.45e-01	0	22	104	4213178368	81	17076
2026-01-13 04:41:50.17	249.26	4.59	-58.7	-71.7	3.8	8.45e-01	0	22	104	4213178368	82	17203
2026-01-13 04:41:54.14	249.09	4.32	-58.9	-72.0	3.8	8.45e-01	0	22	104	4213178368	82	17684
2026-01-13 04:41:58.14	248.92	4.06	-59.0	-72.1	3.8	8.46e-01	0	22	104	4213178368	83	16999
2026-01-13 04:42:02.14	248.75	3.79	-59.1	-72.1	3.8	8.46e-01	0	22	104	4213178368	83	17069
2026-01-13 04:42:06.13	248.59	3.53	-59.1	-72.2	3.8	8.45e-01	0	22	104	4213178368	83	17215
2026-01-13 04:42:10.14	248.43	3.27	-59.0	-72.1	3.8	8.46e-01	0	22	104	4213178368	83	17007
2026-01-13 04:42:14.14	248.27	3.02	-59.0	-72.1	3.8	8.45e-01	0	22	104	4213178368	83	16955
2026-01-13 04:42:18.15	248.12	2.76	-59.0	-72.1	3.8	8.44e-01	0	22	104	4213178368	83	16961
2026-01-13 04:42:22.13	247.97	2.51	-59.0	-72.0	3.8	8.47e-01	0	22	104	4213178368	83	16873
2026-01-13 04:42:26.13	247.82	2.26	-59.0	-72.1	3.8	8.46e-01	0	22	104	4213178368	83	16908
2026-01-13 04:42:30.13	247.67	2.01	-59.0	-72.0	3.8	8.45e-01	0	22	104	4213178368	83	16862

#Closed at: 2026-01-13 04:42:30
#Recorded file [4213 MB]: D:/lorett/data/31004_260113_072842.dat