passes_logs/2026/01/13/R3.2S_Murmansk/R3.2S_Murmansk__20260113_050822_SUOMI_NPP_rec.log

#Pass ID: 20260113_050822_SUOMI NPP
#Satellite: SUOMI NPP
#Configuration: NPP
#almurnet v.1.7.20251203
#Start time: 2026-01-13 05:08:21

#Version: 2.2.20231116
#Station: R3.2S_Murmansk
#Location: 33.079688 lon 68.888172 lat
#TLE: 1 37849U 11061A   26012.28456845  .00000093  00000+0  65163-4 0  9999
#TLE: 2 37849  98.7807 314.3566 0002508  68.3553 291.7890 14.19524725736322

#Time	Az	El	Level	Level2	SNR	BER	BlckErr	Temp	State	Recorded	gain1	gain2
2026-01-13 05:08:21.70	60.75	1.98	-57.1	-73.0	3.8	1.49e+00	0	20	0	0	80	22419
2026-01-13 05:08:25.69	60.50	2.21	-57.0	-73.0	3.8	1.49e+00	0	20	104	0	79	23630
2026-01-13 05:08:29.68	60.24	2.44	-57.0	-72.9	3.8	1.49e+00	0	20	104	0	79	23556
2026-01-13 05:08:33.66	59.97	2.67	-57.0	-73.0	3.8	1.49e+00	0	20	104	0	79	23626
2026-01-13 05:08:37.64	59.70	2.89	-57.0	-73.0	3.8	1.49e+00	0	20	104	0	79	23755
2026-01-13 05:08:41.63	59.43	3.13	-57.0	-73.0	3.8	1.49e+00	0	20	104	0	79	23695
2026-01-13 05:08:45.62	59.15	3.36	-57.0	-73.0	3.8	1.49e+00	0	21	104	0	79	23652
2026-01-13 05:08:49.63	58.87	3.59	-57.0	-73.0	3.8	1.49e+00	0	21	104	0	79	23644
2026-01-13 05:08:53.64	58.58	3.83	-57.0	-72.9	3.8	1.49e+00	0	21	104	0	79	23406
2026-01-13 05:08:57.65	58.29	4.07	-57.0	-72.9	3.8	1.49e+00	0	21	104	0	79	23460
2026-01-13 05:09:01.66	57.99	4.31	-56.9	-70.6	3.8	1.49e+00	0	21	104	0	79	18084
2026-01-13 05:09:05.67	57.68	4.55	-56.7	-67.7	4.9	7.32e-01	0	21	0	2097152	79	12823
2026-01-13 05:09:09.65	57.38	4.79	-56.5	-66.1	5.8	3.45e-01	0	21	0	9437184	79	10703
2026-01-13 05:09:13.65	57.06	5.03	-56.6	-66.4	5.6	4.11e-01	0	21	0	17825792	79	11040
2026-01-13 05:09:17.65	56.74	5.28	-55.8	-62.1	8.9	1.30e+00	0	21	0	24117248	78	7138
2026-01-13 05:09:21.63	56.42	5.52	-54.7	-59.1	11.8	1.72e-04	0	21	0	29360128	76	5676
2026-01-13 05:09:25.62	56.09	5.77	-54.0	-57.8	12.7	1.50e-06	0	21	0	36700160	74	5497
2026-01-13 05:09:29.61	55.75	6.01	-53.6	-57.0	13.2	7.00e-07	0	21	0	44040192	73	5336
2026-01-13 05:09:33.61	55.41	6.26	-53.5	-56.9	13.3	0.00e+00	0	21	0	51380224	73	5248
2026-01-13 05:09:37.59	55.06	6.51	-53.6	-57.0	13.1	0.00e+00	0	21	0	58720256	73	5324
2026-01-13 05:09:41.58	54.71	6.77	-53.8	-57.5	12.9	0.00e+00	0	21	0	66060288	73	5614
2026-01-13 05:09:45.57	54.35	7.02	-53.7	-57.4	12.9	0.00e+00	0	21	0	74448896	73	5561
2026-01-13 05:09:49.57	53.98	7.27	-53.5	-57.0	13.2	0.00e+00	0	21	0	81788928	73	5337
2026-01-13 05:09:53.55	53.61	7.53	-53.3	-56.6	13.6	0.00e+00	0	21	0	89128960	73	5075
2026-01-13 05:09:57.55	53.23	7.79	-53.1	-56.3	13.7	0.00e+00	0	21	0	96468992	72	5166
2026-01-13 05:10:01.54	52.84	8.05	-52.9	-55.9	14.0	0.00e+00	0	22	0	103809024	72	4951
2026-01-13 05:10:05.54	52.44	8.31	-52.7	-55.6	14.2	0.00e+00	0	22	0	111149056	72	4785
2026-01-13 05:10:09.54	52.04	8.57	-52.8	-55.7	14.2	0.00e+00	0	21	0	118489088	72	4817
2026-01-13 05:10:13.53	51.63	8.83	-52.9	-55.8	14.1	0.00e+00	0	22	0	126877696	72	4897
2026-01-13 05:10:17.52	51.21	9.10	-52.9	-55.8	14.0	0.00e+00	0	22	0	134217728	72	4923
2026-01-13 05:10:21.53	50.78	9.36	-53.2	-56.2	13.8	0.00e+00	0	22	0	141557760	72	5148
2026-01-13 05:10:25.54	50.35	9.63	-53.0	-55.9	14.0	0.00e+00	0	22	0	148897792	72	4929
2026-01-13 05:10:29.53	49.91	9.90	-53.1	-56.1	13.9	0.00e+00	0	22	0	156237824	72	5055
2026-01-13 05:10:33.52	49.45	10.17	-53.2	-56.2	13.8	0.00e+00	0	22	0	163577856	72	5158
2026-01-13 05:10:37.51	49.00	10.44	-53.1	-56.1	13.9	0.00e+00	0	22	0	171966464	72	5053
2026-01-13 05:10:41.49	48.53	10.71	-52.9	-55.8	14.1	0.00e+00	0	22	0	179306496	72	4888
2026-01-13 05:10:45.48	48.05	10.98	-52.9	-55.8	14.1	0.00e+00	0	22	0	186646528	72	4897
2026-01-13 05:10:49.48	47.56	11.26	-52.8	-55.5	14.3	0.00e+00	0	22	0	193986560	72	4733
2026-01-13 05:10:53.47	47.07	11.53	-52.6	-55.3	14.3	0.00e+00	0	22	0	201326592	71	4923
2026-01-13 05:10:57.48	46.56	11.81	-52.4	-54.9	14.5	0.00e+00	0	22	0	208666624	71	4705
2026-01-13 05:11:01.48	46.04	12.09	-52.5	-55.1	14.4	0.00e+00	0	22	0	216006656	71	4794
2026-01-13 05:11:05.47	45.52	12.36	-52.1	-54.5	14.7	0.00e+00	0	22	0	223346688	70	4723
2026-01-13 05:11:09.45	44.99	12.64	-52.2	-54.7	14.5	0.00e+00	0	22	0	231735296	70	4867
2026-01-13 05:11:13.44	44.44	12.92	-52.1	-54.6	14.6	0.00e+00	0	22	0	239075328	70	4774
2026-01-13 05:11:17.44	43.88	13.20	-52.2	-54.8	14.5	0.00e+00	0	22	0	246415360	70	4882
2026-01-13 05:11:21.44	43.31	13.48	-52.2	-54.8	14.5	0.00e+00	0	22	0	253755392	70	4881
2026-01-13 05:11:25.44	42.73	13.76	-52.3	-55.1	14.3	0.00e+00	0	22	0	261095424	70	5053
2026-01-13 05:11:29.42	42.15	14.04	-52.4	-55.2	14.3	0.00e+00	0	22	0	268435456	70	5132
2026-01-13 05:11:33.41	41.54	14.32	-52.3	-55.0	14.4	0.00e+00	0	22	0	275775488	70	5028
2026-01-13 05:11:37.37	40.94	14.60	-52.2	-54.8	14.5	0.00e+00	0	22	0	284164096	70	4878
2026-01-13 05:11:41.36	40.31	14.88	-52.6	-55.3	14.1	0.00e+00	0	22	0	291504128	70	5200
2026-01-13 05:11:45.35	39.68	15.16	-52.8	-55.7	13.8	0.00e+00	0	22	0	298844160	70	5419
2026-01-13 05:11:49.34	39.03	15.44	-52.7	-55.5	14.1	0.00e+00	0	22	0	306184192	71	5026
2026-01-13 05:11:53.34	38.36	15.72	-52.5	-55.2	14.3	0.00e+00	0	22	0	313524224	71	4850
2026-01-13 05:11:57.34	37.69	16.00	-52.6	-55.3	14.2	0.00e+00	0	22	0	320864256	71	4893
2026-01-13 05:12:01.35	37.00	16.27	-52.3	-54.9	14.6	0.00e+00	0	22	0	328204288	71	4666
2026-01-13 05:12:05.34	36.30	16.55	-52.4	-55.1	14.4	0.00e+00	0	22	0	336592896	71	4763
2026-01-13 05:12:09.33	35.58	16.82	-52.6	-55.4	14.3	0.00e+00	0	22	0	343932928	71	4938
2026-01-13 05:12:13.32	34.86	17.10	-52.8	-55.7	14.0	0.00e+00	0	22	0	351272960	71	5157
2026-01-13 05:12:17.32	34.12	17.37	-52.3	-54.8	14.6	0.00e+00	0	22	0	358612992	71	4640
2026-01-13 05:12:21.32	33.36	17.64	-52.0	-54.4	14.7	0.00e+00	0	22	0	365953024	70	4690
2026-01-13 05:12:25.32	32.59	17.91	-51.8	-54.2	14.9	0.00e+00	0	22	0	373293056	70	4550
2026-01-13 05:12:29.31	31.81	18.17	-51.4	-53.8	14.9	0.00e+00	0	22	0	380633088	69	4638
2026-01-13 05:12:33.32	31.01	18.43	-51.2	-53.5	14.9	0.00e+00	0	22	0	389021696	68	4719
2026-01-13 05:12:37.30	30.21	18.69	-51.2	-53.3	15.0	0.00e+00	0	22	0	396361728	68	4648
2026-01-13 05:12:41.27	29.39	18.94	-51.1	-53.3	15.0	0.00e+00	0	22	0	403701760	68	4607
2026-01-13 05:12:45.25	28.56	19.19	-50.9	-53.0	15.2	0.00e+00	0	22	0	411041792	68	4472
2026-01-13 05:12:49.24	27.71	19.44	-50.5	-52.5	15.2	0.00e+00	0	22	0	418381824	67	4482
2026-01-13 05:12:53.22	26.84	19.68	-51.0	-53.1	14.9	0.00e+00	0	22	0	425721856	67	4800
2026-01-13 05:12:57.22	25.97	19.92	-50.5	-52.5	15.3	0.00e+00	0	22	0	433061888	67	4491
2026-01-13 05:13:01.22	25.07	20.15	-50.5	-52.5	15.3	0.00e+00	0	22	0	440401920	67	4449
2026-01-13 05:13:05.22	24.16	20.38	-50.6	-52.6	15.2	0.00e+00	0	22	0	448790528	67	4533
2026-01-13 05:13:09.22	23.24	20.61	-49.9	-51.7	15.6	0.00e+00	0	22	0	456130560	66	4318
2026-01-13 05:13:13.21	22.31	20.82	-50.1	-51.9	15.4	0.00e+00	0	22	0	463470592	66	4421
2026-01-13 05:13:17.21	21.36	21.03	-50.1	-51.9	15.4	0.00e+00	0	22	0	470810624	66	4417
2026-01-13 05:13:21.22	20.40	21.24	-50.1	-51.9	15.4	0.00e+00	0	22	0	478150656	66	4423
2026-01-13 05:13:25.23	19.43	21.43	-50.4	-52.2	15.2	0.00e+00	0	22	0	485490688	66	4591
2026-01-13 05:13:29.23	18.44	21.62	-50.2	-52.0	15.4	0.00e+00	0	22	0	493879296	66	4462
2026-01-13 05:13:33.21	17.45	21.80	-50.2	-52.0	15.4	0.00e+00	0	22	0	501219328	66	4462
2026-01-13 05:13:37.20	16.44	21.97	-50.0	-51.7	15.6	0.00e+00	0	22	0	508559360	66	4328
2026-01-13 05:13:41.20	15.42	22.14	-50.2	-51.9	15.4	0.00e+00	0	22	0	515899392	66	4440
2026-01-13 05:13:45.19	14.39	22.29	-50.3	-52.1	15.4	0.00e+00	0	22	0	523239424	66	4496
2026-01-13 05:13:49.20	13.35	22.44	-50.9	-52.8	15.0	0.00e+00	0	22	0	530579456	66	4889
2026-01-13 05:13:53.20	12.30	22.58	-51.9	-54.2	14.7	0.00e+00	0	22	0	537919488	69	4831
2026-01-13 05:13:57.17	11.25	22.70	-52.0	-54.4	14.6	0.00e+00	0	22	0	546308096	69	4930
2026-01-13 05:14:01.17	10.18	22.82	-51.4	-53.5	15.2	0.00e+00	0	22	0	553648128	69	4476
2026-01-13 05:14:05.17	9.11	22.93	-51.5	-53.6	14.9	0.00e+00	0	22	0	560988160	68	4799
2026-01-13 05:14:09.15	8.03	23.02	-51.4	-53.5	14.9	0.00e+00	0	22	0	568328192	68	4747
2026-01-13 05:14:13.16	6.94	23.11	-51.8	-54.1	14.7	0.00e+00	0	22	0	575668224	69	4811
2026-01-13 05:14:17.16	5.84	23.18	-52.2	-54.6	14.4	0.00e+00	0	22	0	583008256	69	5081
2026-01-13 05:14:21.14	4.75	23.25	-52.1	-54.5	14.7	0.00e+00	0	22	0	590348288	70	4756
2026-01-13 05:14:25.14	3.65	23.30	-52.2	-54.7	14.6	0.00e+00	0	22	0	597688320	70	4834
2026-01-13 05:14:29.15	2.54	23.34	-52.4	-55.1	14.3	0.00e+00	0	22	0	606076928	70	5066
2026-01-13 05:14:33.13	1.43	23.37	-52.6	-55.4	14.2	0.00e+00	0	22	0	613416960	70	5248
2026-01-13 05:14:37.11	0.33	23.39	-51.4	-53.6	15.0	0.00e+00	0	22	0	620756992	69	4497
2026-01-13 05:14:41.10	359.22	23.39	-51.9	-54.4	14.4	0.00e+00	0	22	0	628097024	68	5245
2026-01-13 05:14:45.10	358.11	23.39	-51.6	-53.9	14.9	0.00e+00	0	22	0	635437056	69	4699
2026-01-13 05:14:49.08	357.00	23.37	-51.5	-53.8	14.9	0.00e+00	0	22	0	642777088	69	4637
2026-01-13 05:14:53.09	355.89	23.34	-51.2	-53.3	15.0	0.00e+00	0	22	0	650117120	68	4637
2026-01-13 05:14:57.07	354.79	23.30	-50.6	-52.4	15.3	0.00e+00	0	22	0	658505728	67	4438
2026-01-13 05:15:01.07	353.68	23.25	-51.0	-53.0	15.0	0.00e+00	0	22	0	665845760	67	4710
2026-01-13 05:15:05.07	352.59	23.19	-50.3	-52.0	15.4	0.00e+00	0	22	0	673185792	66	4457
2026-01-13 05:15:09.07	351.49	23.11	-50.4	-52.2	15.2	0.00e+00	0	22	0	680525824	66	4581
2026-01-13 05:15:13.05	350.41	23.03	-49.8	-51.5	15.7	0.00e+00	0	22	0	687865856	66	4209
2026-01-13 05:15:17.03	349.33	22.94	-50.3	-52.0	15.4	0.00e+00	0	22	0	695205888	66	4472
2026-01-13 05:15:21.04	348.25	22.83	-50.8	-52.7	15.0	0.00e+00	0	22	0	702545920	66	4820
2026-01-13 05:15:25.05	347.18	22.71	-50.4	-52.1	15.3	0.00e+00	0	22	0	710934528	66	4545
2026-01-13 05:15:29.05	346.12	22.59	-50.3	-52.1	15.3	0.00e+00	0	22	0	718274560	66	4506
2026-01-13 05:15:33.04	345.07	22.45	-50.9	-52.8	15.1	0.00e+00	0	22	0	725614592	67	4645
2026-01-13 05:15:37.01	344.04	22.30	-50.7	-52.6	15.3	0.00e+00	0	22	0	732954624	67	4510
2026-01-13 05:15:41.01	343.01	22.15	-51.1	-53.1	15.0	0.00e+00	0	22	0	740294656	67	4772
2026-01-13 05:15:45.00	341.99	21.99	-51.8	-54.0	14.6	0.00e+00	0	22	0	747634688	68	5027
2026-01-13 05:15:48.98	340.99	21.81	-52.1	-54.5	14.5	0.00e+00	0	22	0	754974720	69	5028
2026-01-13 05:15:52.98	339.99	21.63	-51.6	-53.8	14.9	0.00e+00	0	22	0	763363328	69	4651
2026-01-13 05:15:56.98	339.00	21.45	-51.7	-53.9	14.9	0.00e+00	0	22	0	770703360	69	4683
2026-01-13 05:16:00.96	338.03	21.25	-51.4	-53.5	15.1	0.00e+00	0	22	0	778043392	69	4464
2026-01-13 05:16:04.95	337.07	21.05	-51.3	-53.4	15.2	0.00e+00	0	22	0	785383424	69	4421
2026-01-13 05:16:08.94	336.13	20.84	-51.8	-54.0	14.8	0.00e+00	0	22	0	792723456	69	4751
2026-01-13 05:16:12.93	335.20	20.62	-52.0	-54.4	14.6	0.00e+00	0	22	0	800063488	69	4942
2026-01-13 05:16:16.92	334.28	20.40	-51.9	-54.3	14.6	0.00e+00	0	22	0	807403520	69	4911
2026-01-13 05:16:20.93	333.37	20.18	-52.9	-56.0	13.9	0.00e+00	0	22	0	815792128	71	5314
2026-01-13 05:16:24.93	332.47	19.94	-52.8	-55.7	14.0	0.00e+00	0	22	0	823132160	71	5152
2026-01-13 05:16:28.92	331.59	19.70	-51.8	-54.1	14.9	0.00e+00	0	22	0	830472192	69	4811
2026-01-13 05:16:32.92	330.73	19.46	-51.3	-53.4	15.1	0.00e+00	0	22	0	837812224	69	4433
2026-01-13 05:16:36.93	329.87	19.21	-51.1	-53.1	15.1	0.00e+00	0	22	0	845152256	68	4541
2026-01-13 05:16:40.92	329.03	18.96	-51.0	-53.0	15.2	0.00e+00	0	22	0	852492288	68	4451
2026-01-13 05:16:44.91	328.21	18.71	-51.1	-53.2	14.8	0.00e+00	0	22	0	859832320	67	4868
2026-01-13 05:16:48.89	327.40	18.45	-52.5	-55.3	14.2	0.00e+00	0	22	0	868220928	70	5166
2026-01-13 05:16:52.89	326.61	18.19	-52.7	-55.6	14.0	0.00e+00	0	22	0	875560960	70	5398
2026-01-13 05:16:56.89	325.82	17.93	-51.7	-54.0	15.0	0.00e+00	0	22	0	882900992	70	4485
2026-01-13 05:17:00.87	325.06	17.66	-51.1	-53.2	15.1	0.00e+00	0	22	0	890241024	68	4595
2026-01-13 05:17:04.87	324.30	17.39	-51.1	-53.2	15.1	0.00e+00	0	22	0	897581056	68	4587
2026-01-13 05:17:08.87	323.56	17.12	-51.8	-54.3	14.5	0.00e+00	0	22	0	904921088	68	5171
2026-01-13 05:17:12.87	322.83	16.85	-51.4	-53.6	14.8	0.00e+00	0	22	0	912261120	68	4806
2026-01-13 05:17:16.84	322.12	16.57	-51.6	-54.0	14.6	0.00e+00	0	22	0	920649728	68	4997
2026-01-13 05:17:20.83	321.42	16.30	-51.4	-53.6	14.9	0.00e+00	0	22	0	927989760	68	4767
2026-01-13 05:17:24.82	320.73	16.02	-51.3	-53.4	15.0	0.00e+00	0	22	0	935329792	68	4660
2026-01-13 05:17:28.83	320.05	15.74	-50.7	-52.6	15.4	0.00e+00	0	22	0	942669824	68	4287
2026-01-13 05:17:32.85	319.39	15.46	-50.8	-52.7	15.3	0.00e+00	0	22	0	950009856	68	4323
2026-01-13 05:17:36.85	318.74	15.18	-49.9	-51.6	15.6	0.00e+00	0	22	0	957349888	66	4275
2026-01-13 05:17:40.83	318.10	14.90	-50.1	-51.9	15.4	0.00e+00	0	22	0	964689920	66	4402
2026-01-13 05:17:44.82	317.47	14.62	-50.5	-52.4	15.1	0.00e+00	0	22	0	972029952	66	4676
2026-01-13 05:17:48.80	316.86	14.34	-50.7	-52.6	15.0	0.00e+00	0	22	0	980418560	66	4774
2026-01-13 05:17:52.78	316.26	14.06	-50.1	-51.9	15.4	0.00e+00	0	22	0	987758592	66	4408
2026-01-13 05:17:56.77	315.67	13.78	-50.6	-52.4	15.1	0.00e+00	0	22	0	995098624	66	4689
2026-01-13 05:18:00.77	315.09	13.50	-51.2	-53.3	14.8	0.00e+00	0	22	0	1002438656	67	4874
2026-01-13 05:18:04.75	314.52	13.22	-51.1	-53.2	14.9	0.00e+00	0	22	0	1009778688	67	4822
2026-01-13 05:18:08.75	313.97	12.95	-51.0	-53.0	14.9	0.00e+00	0	22	0	1017118720	67	4720
2026-01-13 05:18:12.74	313.42	12.67	-50.5	-52.4	15.3	0.00e+00	0	22	0	1024458752	67	4397
2026-01-13 05:18:16.74	312.88	12.39	-50.8	-52.7	15.1	0.00e+00	0	22	0	1032847360	67	4593
2026-01-13 05:18:20.72	312.36	12.11	-52.0	-54.3	14.6	0.00e+00	0	22	0	1040187392	69	4912
2026-01-13 05:18:24.72	311.84	11.83	-51.9	-54.1	14.7	0.00e+00	0	22	0	1047527424	69	4797
2026-01-13 05:18:28.72	311.33	11.56	-51.4	-53.4	15.1	0.00e+00	0	22	0	1054867456	69	4414
2026-01-13 05:18:32.70	310.84	11.28	-51.7	-53.9	14.8	0.00e+00	0	22	0	1062207488	69	4667
2026-01-13 05:18:36.70	310.35	11.01	-51.7	-53.8	14.8	0.00e+00	0	22	0	1069547520	69	4638
2026-01-13 05:18:40.68	309.87	10.74	-51.7	-53.8	14.8	0.00e+00	0	22	0	1076887552	69	4651
2026-01-13 05:18:44.68	309.40	10.47	-52.1	-54.5	14.4	0.00e+00	0	22	0	1085276160	69	4995
2026-01-13 05:18:48.67	308.95	10.19	-52.2	-54.7	14.3	0.00e+00	0	22	0	1092616192	69	5101
2026-01-13 05:18:52.65	308.50	9.93	-52.2	-54.7	14.3	0.00e+00	0	22	0	1099956224	69	5107
2026-01-13 05:18:56.63	308.05	9.66	-52.7	-55.4	14.0	0.00e+00	0	22	0	1107296256	70	5224
2026-01-13 05:19:00.62	307.62	9.39	-52.9	-55.7	13.9	0.00e+00	0	22	0	1114636288	71	5152
2026-01-13 05:19:04.62	307.19	9.13	-52.4	-54.8	14.5	0.00e+00	0	22	0	1121976320	71	4641
2026-01-13 05:19:08.62	306.77	8.86	-52.0	-54.3	14.6	0.00e+00	0	22	0	1129316352	70	4619
2026-01-13 05:19:12.62	306.36	8.60	-52.1	-54.4	14.5	0.00e+00	0	22	0	1136656384	70	4705
2026-01-13 05:19:16.61	305.96	8.34	-52.5	-55.0	14.2	0.00e+00	0	22	0	1145044992	70	5006
2026-01-13 05:19:20.61	305.56	8.07	-52.7	-55.3	14.0	0.00e+00	0	22	0	1152385024	70	5162
2026-01-13 05:19:24.61	305.17	7.81	-52.5	-55.0	14.2	0.00e+00	0	22	0	1159725056	70	5027
2026-01-13 05:19:28.60	304.79	7.56	-52.4	-54.8	14.3	0.00e+00	0	22	0	1167065088	70	4901
2026-01-13 05:19:32.59	304.42	7.30	-52.5	-55.1	14.1	0.00e+00	0	22	0	1174405120	70	5080
2026-01-13 05:19:36.58	304.05	7.05	-52.6	-55.3	13.9	0.00e+00	0	22	0	1181745152	70	5208
2026-01-13 05:19:40.57	303.69	6.79	-53.1	-56.1	13.5	0.00e+00	0	22	0	1190133760	71	5388
2026-01-13 05:19:44.56	303.33	6.54	-53.5	-56.7	13.2	0.00e+00	0	22	0	1197473792	72	5430
2026-01-13 05:19:48.55	302.98	6.29	-53.8	-57.3	12.8	0.00e+00	0	22	0	1204813824	72	5833
2026-01-13 05:19:52.52	302.64	6.04	-54.0	-57.5	12.8	7.00e-07	0	22	0	1212153856	73	5653
2026-01-13 05:19:56.50	302.31	5.80	-53.8	-57.2	12.9	0.00e+00	0	22	0	1219493888	73	5458
2026-01-13 05:20:00.51	301.98	5.55	-53.8	-57.3	12.9	0.00e+00	0	22	0	1226833920	73	5499
2026-01-13 05:20:04.50	301.65	5.30	-54.0	-57.7	12.5	0.00e+00	0	22	0	1234173952	73	5778
2026-01-13 05:20:08.49	301.33	5.06	-54.1	-57.9	12.4	3.00e-06	0	22	0	1241513984	73	5865
2026-01-13 05:20:12.49	301.02	4.82	-58.2	-74.0	3.8	1.49e+00	0	22	104	1244659712	81	23749
2026-01-13 05:20:16.49	300.71	4.57	-58.8	-74.8	3.8	1.49e+00	0	22	104	1244659712	82	24499
2026-01-13 05:20:20.47	300.41	4.34	-59.1	-75.1	3.8	1.49e+00	0	22	104	1244659712	83	24078
2026-01-13 05:20:24.46	300.11	4.10	-58.9	-75.4	3.8	1.49e+00	0	22	104	1244659712	83	24775
2026-01-13 05:20:28.46	299.81	3.86	-59.3	-75.4	3.8	1.49e+00	0	22	104	1244659712	83	24739
2026-01-13 05:20:32.48	299.52	3.62	-59.3	-75.4	3.8	1.49e+00	0	22	104	1244659712	83	24705
2026-01-13 05:20:36.46	299.24	3.39	-59.2	-75.3	3.8	1.49e+00	0	22	104	1244659712	83	24456
2026-01-13 05:20:40.48	298.96	3.15	-59.1	-75.2	3.8	1.49e+00	0	22	104	1244659712	83	24228
2026-01-13 05:20:44.48	298.69	2.92	-59.1	-75.2	3.8	1.49e+00	0	22	104	1244659712	83	24220
2026-01-13 05:20:48.47	298.42	2.69	-59.1	-75.1	3.8	1.49e+00	0	23	104	1244659712	83	24111
2026-01-13 05:20:52.46	298.15	2.46	-59.1	-75.1	3.8	1.49e+00	0	22	104	1244659712	83	24022
2026-01-13 05:20:56.44	297.89	2.24	-59.1	-75.1	3.8	1.49e+00	0	23	104	1244659712	83	24102
2026-01-13 05:21:00.43	297.64	2.01	-59.1	-75.1	3.8	1.49e+00	0	22	104	1244659712	83	24070

#Closed at: 2026-01-13 05:21:02
#Recorded file [1244 MB]: D:/lorett/data/31004_260113_080821.dat