passes_logs/2026/01/13/R3.2S_Murmansk/R3.2S_Murmansk__20260113_055551_AQUA_rec.log

#Pass ID: 20260113_055551_AQUA
#Satellite: AQUA
#Configuration: AQUA
#almurnet v.1.7.20251203
#Start time: 2026-01-13 05:55:52

#Version: 2.2.20231116
#Station: R3.2S_Murmansk
#Location: 33.079688 lon 68.888172 lat
#TLE: 1 27424U 02022A   26012.29577270  .00001027  00000+0  21555-3 0  9995
#TLE: 2 27424  98.4078 338.6778 0002034  81.5885  29.6294 14.61817302260499

#Time	Az	El	Level	Level2	SNR	BER	BlckErr	Temp	State	Recorded	gain1	gain2
2026-01-13 05:55:52.71	45.79	2.06	-56.3	-75.6	3.8	7.48e-01	0	20	0	0	81	33030
2026-01-13 05:55:55.72	45.56	2.23	-56.3	-75.6	3.8	7.46e-01	0	20	104	0	80	35080
2026-01-13 05:55:58.73	45.32	2.41	-56.3	-75.6	3.8	7.48e-01	0	20	104	0	80	35067
2026-01-13 05:56:01.74	45.08	2.58	-56.3	-75.6	3.8	7.44e-01	0	20	104	0	80	34967
2026-01-13 05:56:04.74	44.84	2.76	-56.3	-75.6	3.8	7.49e-01	0	20	104	0	80	34951
2026-01-13 05:56:07.74	44.59	2.93	-56.3	-75.3	3.8	7.43e-01	0	20	104	0	80	34084
2026-01-13 05:56:10.74	44.34	3.11	-56.3	-75.2	3.8	7.45e-01	0	20	104	0	80	33491
2026-01-13 05:56:13.73	44.09	3.28	-56.3	-75.2	3.8	7.44e-01	0	21	104	0	80	33622
2026-01-13 05:56:16.72	43.83	3.46	-56.3	-75.6	3.8	7.50e-01	0	21	104	0	80	35160
2026-01-13 05:56:19.71	43.58	3.64	-56.3	-75.6	3.8	7.47e-01	0	21	104	0	80	35001
2026-01-13 05:56:22.72	43.31	3.82	-56.3	-75.6	3.8	7.44e-01	0	21	104	0	80	34998
2026-01-13 05:56:25.72	43.04	4.00	-56.3	-75.6	3.8	7.45e-01	0	21	104	0	80	35077
2026-01-13 05:56:28.73	42.77	4.18	-56.3	-75.5	3.8	7.48e-01	0	21	104	0	80	34626
2026-01-13 05:56:31.73	42.50	4.36	-56.3	-75.6	3.8	7.45e-01	0	21	104	0	80	35131
2026-01-13 05:56:34.73	42.22	4.54	-56.2	-74.9	3.8	7.46e-01	0	21	104	0	80	32237
2026-01-13 05:56:37.71	41.94	4.72	-55.8	-72.6	3.8	7.45e-01	0	21	104	0	80	24968
2026-01-13 05:56:40.71	41.65	4.91	-55.2	-70.3	3.8	7.44e-01	0	21	104	0	79	20126
2026-01-13 05:56:43.70	41.36	5.09	-54.8	-69.1	3.8	7.45e-01	0	21	104	0	78	18671
2026-01-13 05:56:46.69	41.07	5.28	-52.7	-65.3	3.9	7.46e-01	0	21	104	0	74	15158
2026-01-13 05:56:49.69	40.77	5.46	-51.8	-64.0	3.8	7.47e-01	0	21	104	0	72	14570
2026-01-13 05:56:52.68	40.46	5.65	-52.1	-64.4	3.8	7.47e-01	0	21	104	0	73	14403
2026-01-13 05:56:55.68	40.16	5.84	-51.8	-63.9	3.9	7.43e-01	0	21	104	0	72	14485
2026-01-13 05:56:58.67	39.85	6.02	-50.9	-62.7	3.8	7.41e-01	0	21	104	0	71	13358
2026-01-13 05:57:01.67	39.53	6.21	-55.8	-71.8	3.8	7.49e-01	0	21	104	0	79	24043
2026-01-13 05:57:04.67	39.21	6.40	-51.7	-63.9	3.8	7.43e-01	0	21	104	0	72	14378
2026-01-13 05:57:07.65	38.88	6.59	-51.5	-63.4	3.8	7.46e-01	0	21	104	0	71	14482
2026-01-13 05:57:10.67	38.55	6.78	-55.2	-69.6	3.8	7.44e-01	0	21	104	0	79	18674
2026-01-13 05:57:13.67	38.21	6.98	-51.5	-63.6	3.8	7.48e-01	0	21	104	0	72	13906
2026-01-13 05:57:16.66	37.87	7.17	-51.9	-64.1	3.8	7.49e-01	0	21	104	0	72	14758
2026-01-13 05:57:19.66	37.53	7.36	-51.5	-63.5	3.8	7.44e-01	0	21	104	0	72	13747
2026-01-13 05:57:22.66	37.17	7.55	-51.5	-63.5	3.8	7.44e-01	0	21	104	0	71	14697
2026-01-13 05:57:25.66	36.82	7.75	-55.6	-70.6	3.8	7.48e-01	0	21	104	0	78	22100
2026-01-13 05:57:28.66	36.45	7.94	-51.4	-63.4	3.8	7.46e-01	0	22	104	0	71	14519
2026-01-13 05:57:31.67	36.09	8.14	-51.1	-63.0	3.8	7.41e-01	0	21	104	0	71	13745
2026-01-13 05:57:34.66	35.71	8.34	-55.3	-69.7	3.8	7.45e-01	0	21	104	0	79	18842
2026-01-13 05:57:37.66	35.33	8.53	-51.1	-63.0	3.8	7.45e-01	0	21	104	0	71	13799
2026-01-13 05:57:40.67	34.95	8.73	-51.5	-63.5	3.8	7.45e-01	0	22	104	0	70	15527
2026-01-13 05:57:43.66	34.56	8.93	-50.9	-62.6	3.8	7.46e-01	0	22	104	0	71	13223
2026-01-13 05:57:46.66	34.16	9.13	-50.5	-62.2	3.9	7.45e-01	0	22	104	0	70	13378
2026-01-13 05:57:49.65	33.76	9.33	-53.2	-69.6	3.8	7.47e-01	0	21	104	0	74	24872
2026-01-13 05:57:52.64	33.35	9.53	-50.8	-62.7	3.8	7.43e-01	0	21	104	0	70	14159
2026-01-13 05:57:55.61	32.94	9.72	-50.0	-61.6	3.8	7.44e-01	0	22	104	0	69	13130
2026-01-13 05:57:58.60	32.52	9.92	-55.1	-68.9	3.9	7.44e-01	0	22	104	0	79	17146
2026-01-13 05:58:01.59	32.10	10.12	-50.5	-62.2	3.8	7.46e-01	0	21	104	0	70	13330
2026-01-13 05:58:04.58	31.67	10.32	-51.3	-63.1	3.8	7.43e-01	0	22	104	0	70	14836
2026-01-13 05:58:07.58	31.22	10.53	-51.0	-62.8	3.8	7.45e-01	0	21	104	0	71	13516
2026-01-13 05:58:10.58	30.78	10.73	-49.8	-61.2	3.8	7.44e-01	0	22	104	0	68	13388
2026-01-13 05:58:13.57	30.32	10.93	-55.0	-68.8	3.8	7.43e-01	0	22	104	0	77	19095
2026-01-13 05:58:16.58	29.86	11.13	-51.0	-62.8	3.8	7.42e-01	0	22	104	0	70	14263
2026-01-13 05:58:19.58	29.39	11.33	-49.5	-61.0	3.8	7.41e-01	0	22	104	0	68	13074
2026-01-13 05:58:22.57	28.92	11.53	-55.0	-68.7	3.9	7.45e-01	0	22	104	0	79	16822
2026-01-13 05:58:25.56	28.44	11.74	-50.7	-62.4	3.8	7.45e-01	0	21	104	0	70	13650
2026-01-13 05:58:28.56	27.95	11.94	-51.3	-63.1	3.8	7.46e-01	0	22	104	0	70	14800
2026-01-13 05:58:31.55	27.45	12.14	-51.5	-63.4	3.9	7.48e-01	0	22	104	0	72	13710
2026-01-13 05:58:34.55	26.95	12.34	-50.1	-61.6	3.8	7.45e-01	0	22	104	0	69	13187
2026-01-13 05:58:37.56	26.43	12.54	-54.6	-67.8	3.8	7.47e-01	0	22	104	0	76	17996
2026-01-13 05:58:40.55	25.92	12.74	-50.6	-62.2	3.8	7.42e-01	0	22	104	0	70	13293
2026-01-13 05:58:43.54	25.39	12.94	-49.8	-61.2	3.9	7.45e-01	0	22	104	0	68	13409
2026-01-13 05:58:46.53	24.86	13.14	-55.0	-68.7	3.8	7.46e-01	0	22	104	0	79	16730
2026-01-13 05:58:49.51	24.32	13.34	-50.1	-61.7	3.8	7.43e-01	0	22	104	0	69	13291
2026-01-13 05:58:52.50	23.77	13.54	-50.1	-61.6	3.8	7.45e-01	0	22	104	0	67	14823
2026-01-13 05:58:55.52	23.20	13.74	-51.4	-63.2	3.9	7.46e-01	0	22	104	0	72	13312
2026-01-13 05:58:58.52	22.63	13.94	-49.5	-61.0	3.8	7.45e-01	0	22	104	0	68	12987
2026-01-13 05:59:01.51	22.06	14.13	-54.4	-67.6	3.8	7.47e-01	0	22	104	0	76	17495
2026-01-13 05:59:04.50	21.48	14.33	-50.2	-61.7	3.8	7.47e-01	0	22	104	0	69	13363
2026-01-13 05:59:07.49	20.89	14.52	-49.1	-60.5	3.8	7.43e-01	0	22	104	0	67	13012
2026-01-13 05:59:10.49	20.28	14.71	-55.2	-68.9	3.9	7.45e-01	0	22	104	0	79	17172
2026-01-13 05:59:13.47	19.68	14.91	-50.2	-61.7	3.8	7.44e-01	0	22	104	0	69	13362
2026-01-13 05:59:16.46	19.06	15.09	-51.0	-62.6	3.8	7.45e-01	0	22	104	0	69	14754
2026-01-13 05:59:19.45	18.44	15.28	-53.3	-65.9	3.8	7.46e-01	0	22	104	0	74	16180
2026-01-13 05:59:22.44	17.80	15.47	-51.3	-63.0	3.8	7.47e-01	0	22	104	0	71	13797
2026-01-13 05:59:25.43	17.16	15.65	-53.4	-65.9	3.8	7.46e-01	0	22	104	0	74	16201
2026-01-13 05:59:28.41	16.51	15.84	-49.9	-61.4	3.8	7.45e-01	0	22	104	0	68	13662
2026-01-13 05:59:31.42	15.85	16.02	-49.1	-60.5	3.9	7.44e-01	0	22	104	0	67	12989
2026-01-13 05:59:34.42	15.18	16.20	-55.3	-68.9	3.9	7.44e-01	0	22	104	0	79	17252
2026-01-13 05:59:37.41	14.51	16.37	-49.9	-61.4	3.8	7.48e-01	0	22	104	0	68	13599
2026-01-13 05:59:40.42	13.82	16.54	-50.4	-62.0	3.8	7.43e-01	0	22	104	0	68	14645
2026-01-13 05:59:43.43	13.12	16.72	-52.8	-65.1	3.8	7.45e-01	0	22	104	0	73	15681
2026-01-13 05:59:46.43	12.41	16.88	-50.3	-61.8	3.9	7.44e-01	0	22	104	0	69	13475
2026-01-13 05:59:49.42	11.70	17.05	-53.5	-66.0	3.8	7.47e-01	0	22	104	0	74	16453
2026-01-13 05:59:52.41	10.99	17.21	-49.8	-61.2	3.8	7.47e-01	0	22	104	0	68	13398
2026-01-13 05:59:55.41	10.26	17.37	-49.1	-60.5	3.9	7.42e-01	0	22	104	0	67	12991
2026-01-13 05:59:58.43	9.52	17.52	-55.5	-69.5	3.9	7.43e-01	0	22	104	0	80	17428
2026-01-13 06:00:01.42	8.77	17.68	-50.6	-62.1	3.8	7.45e-01	0	22	104	0	70	13229
2026-01-13 06:00:04.41	8.02	17.82	-50.7	-62.5	3.8	7.50e-01	0	22	104	0	69	14620
2026-01-13 06:00:07.40	7.26	17.97	-52.1	-64.0	3.8	7.45e-01	0	22	104	0	71	15477
2026-01-13 06:00:10.41	6.49	18.11	-50.5	-62.1	3.9	7.42e-01	0	22	104	0	70	13174
2026-01-13 06:00:13.41	5.72	18.24	-53.1	-65.3	3.8	7.44e-01	0	22	104	0	73	16048
2026-01-13 06:00:16.41	4.93	18.37	-49.8	-61.2	3.9	7.47e-01	0	22	104	0	68	13402
2026-01-13 06:00:19.40	4.15	18.50	-49.4	-60.9	3.8	7.43e-01	0	22	104	0	68	12811
2026-01-13 06:00:22.40	3.35	18.62	-55.3	-69.1	3.9	7.45e-01	0	22	104	0	80	16633
2026-01-13 06:00:25.41	2.54	18.73	-50.9	-62.5	3.8	7.46e-01	0	22	104	0	70	13834
2026-01-13 06:00:28.40	1.74	18.85	-53.0	-65.3	3.9	7.42e-01	0	22	104	0	75	14342
2026-01-13 06:00:31.40	0.92	18.95	-54.6	-67.7	3.9	7.45e-01	0	22	104	0	78	15800
2026-01-13 06:00:34.39	0.10	19.05	-49.7	-61.1	3.9	7.43e-01	0	22	104	0	68	13162
2026-01-13 06:00:37.39	359.27	19.15	-53.6	-66.0	3.8	7.50e-01	0	22	104	0	74	16476
2026-01-13 06:00:40.37	358.44	19.24	-54.7	-67.8	3.9	7.44e-01	0	22	104	0	78	15951
2026-01-13 06:00:43.37	357.61	19.32	-50.0	-61.4	3.8	7.46e-01	0	22	104	0	68	13665
2026-01-13 06:00:46.36	356.77	19.40	-55.8	-69.9	3.9	7.44e-01	0	22	104	0	80	18257
2026-01-13 06:00:49.36	355.92	19.47	-49.7	-61.1	3.8	7.42e-01	0	22	104	0	68	13240
2026-01-13 06:00:52.33	355.07	19.53	-51.3	-63.1	3.8	7.46e-01	0	22	104	0	70	14755
2026-01-13 06:00:55.33	354.22	19.59	-55.4	-69.2	3.9	7.43e-01	0	22	104	0	80	16748
2026-01-13 06:00:58.32	353.36	19.65	-50.1	-61.6	3.9	7.46e-01	0	22	104	0	69	13258
2026-01-13 06:01:01.33	352.50	19.70	-53.4	-65.7	3.8	7.43e-01	0	22	104	0	74	15904
2026-01-13 06:01:04.32	351.64	19.74	-55.2	-68.7	3.8	7.45e-01	0	22	104	0	79	16728
2026-01-13 06:01:07.31	350.77	19.77	-50.2	-61.8	3.8	7.44e-01	0	22	104	0	68	14222
2026-01-13 06:01:10.31	349.90	19.80	-56.1	-70.8	3.9	7.41e-01	0	22	104	0	81	18961
2026-01-13 06:01:13.33	349.03	19.82	-50.3	-61.7	3.9	7.44e-01	0	22	104	0	69	13382
2026-01-13 06:01:16.34	348.16	19.83	-50.1	-61.6	3.8	7.45e-01	0	22	104	0	68	13967
2026-01-13 06:01:19.34	347.28	19.84	-50.9	-62.5	3.8	7.41e-01	0	22	104	0	69	14689
2026-01-13 06:01:22.34	346.41	19.84	-49.8	-61.3	3.8	7.45e-01	0	22	104	0	68	13452
2026-01-13 06:01:25.33	345.54	19.84	-53.4	-65.7	3.8	7.48e-01	0	22	104	0	74	15935
2026-01-13 06:01:28.33	344.67	19.82	-49.7	-61.1	3.9	7.45e-01	0	22	104	0	68	13172
2026-01-13 06:01:31.33	343.80	19.81	-49.6	-61.1	3.8	7.46e-01	0	22	104	0	68	13201
2026-01-13 06:01:34.33	342.93	19.78	-55.7	-69.6	3.9	7.48e-01	0	22	104	0	80	17649
2026-01-13 06:01:37.33	342.06	19.75	-49.9	-61.3	3.8	7.48e-01	0	22	104	0	69	12705
2026-01-13 06:01:40.33	341.20	19.71	-54.5	-67.5	3.9	7.44e-01	0	22	104	0	78	15437
2026-01-13 06:01:43.33	340.34	19.67	-55.7	-69.6	3.9	7.46e-01	0	22	104	0	80	17489
2026-01-13 06:01:46.33	339.48	19.61	-49.8	-61.2	3.9	7.47e-01	0	22	104	0	68	13270
2026-01-13 06:01:49.31	338.62	19.56	-53.1	-65.4	3.8	7.44e-01	0	22	104	0	73	16212
2026-01-13 06:01:52.28	337.78	19.49	-55.5	-69.3	3.9	7.45e-01	0	22	104	0	80	16927
2026-01-13 06:01:55.28	336.93	19.42	-49.8	-61.2	3.8	7.47e-01	0	22	104	0	68	13342
2026-01-13 06:01:58.27	336.09	19.35	-56.1	-70.6	3.9	7.45e-01	0	22	104	0	81	18636
2026-01-13 06:02:01.27	335.25	19.27	-49.8	-61.2	3.8	7.45e-01	0	22	104	0	68	13314
2026-01-13 06:02:04.26	334.41	19.18	-55.7	-69.7	3.9	7.47e-01	0	22	104	0	80	17818
2026-01-13 06:02:07.27	333.58	19.08	-56.2	-70.9	3.9	7.45e-01	0	22	104	0	81	19169
2026-01-13 06:02:10.28	332.75	18.99	-49.7	-61.1	3.8	7.42e-01	0	22	104	0	68	13186
2026-01-13 06:02:13.27	331.94	18.88	-53.0	-65.0	3.8	7.50e-01	0	22	104	0	73	15558
2026-01-13 06:02:16.26	331.13	18.77	-55.3	-68.9	3.9	7.45e-01	0	22	104	0	80	16297
2026-01-13 06:02:19.27	330.32	18.66	-49.9	-61.1	3.8	7.44e-01	0	22	104	0	68	13251
2026-01-13 06:02:22.27	329.52	18.54	-56.1	-70.3	3.9	7.44e-01	0	22	104	0	81	17989
2026-01-13 06:02:25.26	328.73	18.41	-49.5	-60.5	3.9	7.47e-01	0	22	104	0	68	12359
2026-01-13 06:02:28.26	327.94	18.28	-50.4	-61.9	3.9	7.48e-01	0	22	104	0	69	13722
2026-01-13 06:02:31.27	327.16	18.15	-50.0	-61.4	3.9	7.49e-01	0	22	104	0	68	13601
2026-01-13 06:02:34.29	326.38	18.01	-49.7	-61.3	3.8	7.45e-01	0	22	104	0	68	13488
2026-01-13 06:02:37.28	325.62	17.87	-53.0	-65.8	3.9	7.45e-01	0	22	104	0	73	17079
2026-01-13 06:02:40.27	324.87	17.72	-55.4	-69.2	3.9	7.42e-01	0	22	104	0	80	16711
2026-01-13 06:02:43.27	324.12	17.57	-49.6	-60.4	3.8	7.43e-01	0	22	104	0	68	12099
2026-01-13 06:02:46.26	323.38	17.42	-56.1	-70.6	3.8	7.43e-01	0	22	104	0	81	18692
2026-01-13 06:02:49.26	322.65	17.26	-49.2	-51.0	16.3	5.99e-01	0	22	0	1048576	67	4344
2026-01-13 06:02:52.25	321.93	17.10	-49.3	-51.1	16.3	6.03e-01	0	22	0	6815744	67	4409
2026-01-13 06:02:55.25	321.21	16.94	-49.3	-51.1	16.3	6.02e-01	0	22	0	12058624	67	4400
2026-01-13 06:02:58.24	320.51	16.77	-48.9	-50.6	16.5	6.02e-01	0	22	0	17825792	67	4170
2026-01-13 06:03:01.22	319.82	16.60	-49.4	-51.2	16.3	6.04e-01	0	22	0	23592960	67	4444
2026-01-13 06:03:04.21	319.13	16.43	-49.1	-50.8	16.2	6.00e-01	0	22	0	28835840	66	4514
2026-01-13 06:03:07.21	318.45	16.26	-49.0	-50.7	16.2	6.03e-01	0	22	0	34603008	66	4455
2026-01-13 06:03:10.20	317.77	16.08	-48.9	-50.6	16.3	6.03e-01	0	22	0	40370176	66	4410
2026-01-13 06:03:13.20	317.11	15.90	-49.4	-51.2	16.1	6.04e-01	0	22	0	45613056	66	4751
2026-01-13 06:03:16.19	316.46	15.72	-48.5	-50.1	16.5	6.02e-01	0	22	0	51380224	66	4186
2026-01-13 06:03:19.19	315.81	15.53	-49.3	-51.1	16.1	6.04e-01	0	22	0	57147392	66	4685
2026-01-13 06:03:22.18	315.17	15.35	-49.0	-50.7	16.3	6.01e-01	0	22	0	62914560	66	4466
2026-01-13 06:03:25.17	314.54	15.16	-49.6	-51.5	16.1	6.01e-01	0	22	0	68157440	67	4618
2026-01-13 06:03:28.17	313.92	14.97	-49.8	-51.6	16.1	6.00e-01	0	22	0	73924608	67	4690
2026-01-13 06:03:31.15	313.31	14.78	-49.4	-51.3	16.2	6.02e-01	0	22	0	79691776	67	4505
2026-01-13 06:03:34.14	312.71	14.59	-49.6	-51.4	16.2	6.03e-01	0	22	0	84934656	67	4580
2026-01-13 06:03:37.14	312.11	14.39	-49.3	-51.0	16.3	6.00e-01	0	22	0	90701824	67	4379
2026-01-13 06:03:40.14	311.52	14.20	-49.1	-50.8	16.4	5.99e-01	0	22	0	96468992	67	4282
2026-01-13 06:03:43.14	310.94	14.00	-49.1	-50.8	16.4	5.97e-01	0	22	0	102236160	67	4267
2026-01-13 06:03:46.13	310.37	13.80	-49.5	-51.3	16.2	6.02e-01	0	22	0	107479040	67	4519
2026-01-13 06:03:49.13	309.81	13.61	-49.4	-51.3	16.2	6.01e-01	0	22	0	113246208	67	4503
2026-01-13 06:03:52.12	309.26	13.41	-49.3	-51.1	16.3	5.98e-01	0	22	0	119013376	67	4419
2026-01-13 06:03:55.11	308.71	13.21	-49.4	-51.2	16.3	6.02e-01	0	22	0	124256256	67	4465
2026-01-13 06:03:58.11	308.17	13.01	-49.5	-51.3	16.2	6.03e-01	0	22	0	130023424	67	4505
2026-01-13 06:04:01.10	307.64	12.81	-49.4	-51.2	16.3	6.00e-01	0	22	0	135790592	67	4466
2026-01-13 06:04:04.09	307.12	12.61	-49.6	-51.4	16.2	5.99e-01	0	22	0	141033472	67	4580
2026-01-13 06:04:07.09	306.61	12.41	-49.8	-51.7	16.0	6.00e-01	0	22	0	146800640	67	4750
2026-01-13 06:04:10.08	306.10	12.21	-50.0	-51.9	15.9	6.05e-01	0	22	0	152567808	67	4843
2026-01-13 06:04:13.08	305.60	12.00	-49.6	-51.4	16.4	6.04e-01	0	22	0	158334976	68	4337
2026-01-13 06:04:16.08	305.11	11.80	-49.4	-51.1	16.5	5.99e-01	0	22	0	163577856	68	4182
2026-01-13 06:04:19.09	304.62	11.60	-49.3	-51.2	16.2	6.05e-01	0	22	0	169345024	67	4442
2026-01-13 06:04:22.09	304.14	11.40	-49.9	-51.8	16.0	6.04e-01	0	22	0	175112192	67	4808
2026-01-13 06:04:25.07	303.67	11.19	-49.6	-51.5	16.1	6.05e-01	0	22	0	180879360	67	4628
2026-01-13 06:04:28.06	303.21	10.99	-49.5	-51.3	16.2	6.03e-01	0	22	0	186122240	67	4531
2026-01-13 06:04:31.06	302.75	10.79	-49.7	-51.6	16.0	6.00e-01	0	22	0	191889408	67	4664
2026-01-13 06:04:34.06	302.30	10.59	-50.0	-52.0	15.9	6.03e-01	0	22	0	197656576	67	4908
2026-01-13 06:04:37.04	301.86	10.39	-49.5	-51.3	16.2	6.01e-01	0	22	0	202899456	67	4541
2026-01-13 06:04:40.05	301.42	10.19	-50.0	-51.9	16.1	6.03e-01	0	22	0	208666624	68	4582
2026-01-13 06:04:43.04	300.99	9.99	-50.0	-52.0	16.1	6.00e-01	0	22	0	214433792	68	4624
2026-01-13 06:04:46.05	300.57	9.78	-49.6	-51.4	16.3	6.01e-01	0	22	0	219676672	68	4339
2026-01-13 06:04:49.03	300.15	9.59	-50.3	-52.4	15.9	6.01e-01	0	22	0	225443840	68	4860
2026-01-13 06:04:52.02	299.74	9.39	-49.9	-51.7	16.1	6.02e-01	0	22	0	231211008	68	4491
2026-01-13 06:04:55.02	299.34	9.19	-50.3	-52.4	15.9	6.01e-01	0	22	0	236978176	68	4861
2026-01-13 06:04:58.01	298.94	8.99	-49.9	-51.8	16.2	6.04e-01	0	22	0	242221056	68	4505
2026-01-13 06:05:01.01	298.55	8.79	-50.1	-52.0	16.0	6.03e-01	0	22	0	247988224	68	4644
2026-01-13 06:05:03.99	298.16	8.59	-50.3	-52.4	15.9	6.03e-01	0	22	0	253755392	68	4828
2026-01-13 06:05:06.98	297.78	8.40	-50.1	-52.1	16.0	6.00e-01	0	22	0	258998272	68	4698
2026-01-13 06:05:09.97	297.41	8.20	-50.3	-52.4	15.9	6.03e-01	0	22	0	264765440	68	4822
2026-01-13 06:05:12.96	297.04	8.01	-50.1	-52.1	16.0	6.00e-01	0	22	0	270532608	68	4696
2026-01-13 06:05:15.96	296.67	7.81	-50.2	-52.2	16.0	6.00e-01	0	22	0	275775488	68	4745
2026-01-13 06:05:18.96	296.31	7.61	-50.4	-52.5	15.8	6.01e-01	0	22	0	281542656	68	4919
2026-01-13 06:05:21.95	295.96	7.42	-50.4	-52.5	15.8	6.02e-01	0	22	0	287309824	68	4877
2026-01-13 06:05:24.94	295.61	7.23	-50.0	-52.0	16.1	6.00e-01	0	22	0	293076992	68	4634
2026-01-13 06:05:27.93	295.27	7.04	-50.3	-52.4	15.9	6.02e-01	0	22	0	298319872	68	4831
2026-01-13 06:05:30.92	294.93	6.84	-50.3	-52.4	15.9	6.03e-01	0	22	0	304087040	68	4863
2026-01-13 06:05:33.93	294.60	6.65	-50.3	-52.3	15.9	6.03e-01	0	22	0	309854208	68	4799
2026-01-13 06:05:36.92	294.27	6.46	-50.4	-52.5	15.8	6.01e-01	0	22	0	315621376	68	4914
2026-01-13 06:05:39.92	293.95	6.27	-50.6	-52.7	15.9	5.99e-01	0	22	0	320864256	69	4740
2026-01-13 06:05:42.91	293.63	6.08	-50.7	-52.9	15.8	6.01e-01	0	22	0	326631424	69	4863
2026-01-13 06:05:45.92	293.31	5.89	-50.7	-53.0	15.8	6.01e-01	0	22	0	332398592	69	4873
2026-01-13 06:05:48.93	293.00	5.71	-50.7	-52.8	15.9	6.00e-01	0	22	0	337641472	69	4812
2026-01-13 06:05:51.92	292.70	5.52	-50.8	-53.0	15.8	5.99e-01	0	22	0	343408640	69	4896
2026-01-13 06:05:54.92	292.39	5.33	-50.8	-53.1	15.7	6.00e-01	0	22	0	349175808	69	4953
2026-01-13 06:05:57.92	292.10	5.15	-51.1	-53.5	15.8	6.02e-01	0	22	0	354942976	70	4874
2026-01-13 06:06:00.93	291.80	4.96	-56.9	-70.1	5.7	6.99e-01	90	22	0	360185856	81	17602
2026-01-13 06:06:03.91	291.52	4.78	-57.9	-77.1	3.8	7.47e-01	0	22	104	360185856	83	35257
2026-01-13 06:06:06.92	291.23	4.60	-58.4	-77.6	3.8	7.47e-01	0	22	104	360185856	84	35174
2026-01-13 06:06:09.90	290.95	4.41	-58.5	-77.8	3.8	7.47e-01	0	22	104	360185856	84	35892
2026-01-13 06:06:12.91	290.67	4.23	-58.7	-77.9	3.8	7.47e-01	0	22	104	360185856	85	34471
2026-01-13 06:06:15.91	290.40	4.05	-58.7	-78.0	3.8	7.48e-01	0	22	104	360185856	85	34848
2026-01-13 06:06:18.92	290.13	3.87	-58.8	-78.1	3.8	7.44e-01	0	22	104	360185856	85	35088
2026-01-13 06:06:21.92	289.87	3.69	-58.8	-78.1	3.8	7.46e-01	0	22	104	360185856	85	35270
2026-01-13 06:06:24.91	289.60	3.51	-58.8	-78.1	3.8	7.48e-01	0	22	104	360185856	85	35239
2026-01-13 06:06:27.90	289.35	3.34	-58.8	-78.1	3.8	7.43e-01	0	22	104	360185856	85	35095
2026-01-13 06:06:30.89	289.09	3.16	-58.7	-78.1	3.8	7.47e-01	0	22	104	360185856	85	34956
2026-01-13 06:06:33.89	288.84	2.98	-58.7	-78.0	3.8	7.48e-01	0	22	104	360185856	85	34622
2026-01-13 06:06:36.89	288.59	2.81	-58.6	-78.0	3.8	7.42e-01	0	22	104	360185856	85	34522
2026-01-13 06:06:39.87	288.35	2.63	-58.7	-78.0	3.8	7.47e-01	0	22	104	360185856	85	34602
2026-01-13 06:06:42.87	288.11	2.46	-58.6	-78.0	3.8	7.49e-01	0	22	104	360185856	85	34572
2026-01-13 06:06:45.87	287.87	2.29	-58.6	-77.9	3.8	7.49e-01	0	22	104	360185856	85	34410
2026-01-13 06:06:48.86	287.64	2.11	-58.6	-77.9	3.8	7.46e-01	0	22	104	360185856	85	34307

#Closed at: 2026-01-13 06:06:51
#Recorded file [360 MB]: D:/lorett/data/31004_260113_085552.dat