passes_logs/2026/01/13/R3.2S_Murmansk/R3.2S_Murmansk__20260113_220917_SUOMI_NPP_rec.log

#Pass ID: 20260113_220917_SUOMI NPP
#Satellite: SUOMI NPP
#Configuration: NPP
#almurnet v.1.7.20251203
#Start time: 2026-01-13 22:09:18

#Version: 2.2.20231116
#Station: R3.2S_Murmansk
#Location: 33.079688 lon 68.888172 lat
#TLE: 1 37849U 11061A   26013.55331121  .00000059  00000+0  48721-4 0  9992
#TLE: 2 37849  98.7808 315.6144 0002478  66.1553 293.9883 14.19524925736509

#Time	Az	El	Level	Level2	SNR	BER	BlckErr	Temp	State	Recorded	gain1	gain2
2026-01-13 22:09:18.75	18.70	2.05	-58.0	-73.9	3.9	1.49e+00	0	25	0	0	82	22036
2026-01-13 22:09:21.74	18.93	2.21	-58.0	-73.9	3.8	1.49e+00	0	25	104	0	81	23546
2026-01-13 22:09:24.73	19.17	2.37	-58.0	-73.9	3.8	1.49e+00	0	25	104	0	81	23447
2026-01-13 22:09:27.74	19.41	2.53	-58.0	-73.8	3.8	1.49e+00	0	25	104	0	81	23096
2026-01-13 22:09:30.75	19.65	2.69	-58.0	-73.8	3.8	1.49e+00	0	25	104	0	81	23098
2026-01-13 22:09:33.75	19.89	2.85	-58.0	-73.9	3.8	1.49e+00	0	25	104	0	81	23550
2026-01-13 22:09:36.75	20.14	3.01	-58.0	-74.0	3.8	1.49e+00	0	25	104	0	81	23650
2026-01-13 22:09:39.77	20.39	3.17	-58.0	-74.0	3.8	1.49e+00	0	26	104	0	81	23726
2026-01-13 22:09:42.77	20.64	3.33	-58.0	-73.9	3.8	1.49e+00	0	25	104	0	81	23473
2026-01-13 22:09:45.76	20.89	3.50	-58.0	-73.3	3.8	1.49e+00	0	26	104	0	81	21898
2026-01-13 22:09:48.77	21.15	3.66	-58.0	-73.2	3.8	1.49e+00	0	25	104	0	81	21612
2026-01-13 22:09:51.76	21.40	3.82	-58.0	-73.3	3.8	1.49e+00	0	26	104	0	81	21890
2026-01-13 22:09:54.77	21.66	3.99	-57.9	-72.3	3.8	1.49e+00	0	26	104	0	81	19478
2026-01-13 22:09:57.79	21.93	4.15	-57.9	-71.9	3.8	1.48e+00	0	26	104	0	81	18631
2026-01-13 22:10:00.79	22.20	4.32	-57.9	-71.2	4.0	1.49e+00	0	26	104	0	81	17246
2026-01-13 22:10:03.79	22.47	4.48	-57.4	-66.3	6.2	3.96e-01	0	26	0	3145728	81	9785
2026-01-13 22:10:06.79	22.74	4.65	-56.7	-63.2	8.6	2.66e-02	0	26	0	9437184	80	7285
2026-01-13 22:10:09.79	23.01	4.82	-56.6	-62.7	9.1	7.95e-03	0	26	0	14680064	79	7264
2026-01-13 22:10:12.80	23.29	4.98	-57.1	-64.7	7.4	4.84e-02	0	26	0	20971520	79	9110
2026-01-13 22:10:15.79	23.57	5.15	-56.6	-62.6	9.3	3.36e-02	0	26	0	26214400	79	7127
2026-01-13 22:10:18.78	23.86	5.32	-54.5	-57.8	12.6	7.32e-02	0	26	0	31457280	75	5217
2026-01-13 22:10:21.78	24.14	5.49	-54.4	-57.7	12.7	0.00e+00	0	26	0	37748736	75	5138
2026-01-13 22:10:24.77	24.43	5.66	-54.2	-57.4	12.9	0.00e+00	0	26	0	42991616	74	5227
2026-01-13 22:10:27.77	24.73	5.83	-54.2	-57.3	12.9	0.00e+00	0	26	0	48234496	74	5214
2026-01-13 22:10:30.78	25.03	6.00	-54.0	-57.1	13.1	0.00e+00	0	26	0	54525952	74	5061
2026-01-13 22:10:33.78	25.33	6.17	-54.1	-57.2	13.0	0.00e+00	0	26	0	59768832	74	5113
2026-01-13 22:10:36.77	25.63	6.34	-54.0	-57.0	13.2	0.00e+00	0	26	0	65011712	74	5031
2026-01-13 22:10:39.78	25.94	6.51	-53.9	-56.8	13.3	0.00e+00	0	26	0	71303168	74	4923
2026-01-13 22:10:42.78	26.25	6.68	-54.0	-57.0	13.2	0.00e+00	0	26	0	76546048	74	5030
2026-01-13 22:10:45.77	26.56	6.86	-54.1	-57.1	13.1	0.00e+00	0	26	0	81788928	74	5087
2026-01-13 22:10:48.76	26.88	7.03	-54.0	-57.1	13.2	0.00e+00	0	26	0	88080384	74	5043
2026-01-13 22:10:51.76	27.20	7.20	-54.0	-57.0	13.2	0.00e+00	0	26	0	93323264	74	4984
2026-01-13 22:10:54.77	27.53	7.38	-54.0	-57.0	13.2	0.00e+00	0	26	0	99614720	74	5004
2026-01-13 22:10:57.77	27.85	7.55	-54.1	-57.1	13.2	0.00e+00	0	26	0	104857600	74	5059
2026-01-13 22:11:00.77	28.19	7.73	-53.8	-56.5	13.5	0.00e+00	0	27	0	110100480	74	4757
2026-01-13 22:11:03.77	28.52	7.90	-53.5	-56.1	13.7	0.00e+00	0	26	0	116391936	73	4773
2026-01-13 22:11:06.75	28.86	8.08	-53.1	-55.6	13.8	0.00e+00	0	26	0	121634816	72	4767
2026-01-13 22:11:09.75	29.21	8.25	-53.1	-55.5	13.8	0.00e+00	0	27	0	126877696	72	4759
2026-01-13 22:11:12.75	29.55	8.43	-53.1	-55.5	13.8	0.00e+00	0	26	0	133169152	72	4737
2026-01-13 22:11:15.74	29.91	8.60	-53.1	-55.5	13.8	0.00e+00	0	26	0	138412032	72	4742
2026-01-13 22:11:18.74	30.26	8.78	-53.2	-55.6	13.8	0.00e+00	0	26	0	143654912	72	4792
2026-01-13 22:11:21.75	30.62	8.96	-53.2	-55.7	13.8	0.00e+00	0	26	0	149946368	72	4862
2026-01-13 22:11:24.75	30.99	9.14	-53.3	-55.8	13.7	0.00e+00	0	26	0	155189248	72	4872
2026-01-13 22:11:27.74	31.36	9.31	-53.2	-55.7	13.8	0.00e+00	0	26	0	160432128	72	4827
2026-01-13 22:11:30.73	31.73	9.49	-53.2	-55.6	13.8	0.00e+00	0	26	0	166723584	72	4813
2026-01-13 22:11:33.74	32.11	9.67	-53.3	-55.7	13.8	0.00e+00	0	27	0	171966464	72	4866
2026-01-13 22:11:36.73	32.49	9.85	-53.5	-56.1	13.6	0.00e+00	0	26	0	178257920	72	5060
2026-01-13 22:11:39.73	32.88	10.03	-53.4	-55.9	13.7	0.00e+00	0	26	0	183500800	72	4975
2026-01-13 22:11:42.72	33.27	10.21	-53.3	-55.8	13.8	0.00e+00	0	26	0	188743680	72	4883
2026-01-13 22:11:45.73	33.66	10.39	-53.1	-55.6	13.9	0.00e+00	0	26	0	195035136	72	4762
2026-01-13 22:11:48.73	34.06	10.57	-53.0	-55.4	14.0	0.00e+00	0	26	0	200278016	72	4656
2026-01-13 22:11:51.73	34.47	10.74	-53.0	-55.4	14.0	0.00e+00	0	26	0	205520896	72	4652
2026-01-13 22:11:54.73	34.88	10.92	-53.0	-55.4	14.0	0.00e+00	0	26	0	211812352	72	4676
2026-01-13 22:11:57.73	35.29	11.10	-53.0	-55.3	14.0	0.00e+00	0	27	0	217055232	72	4636
2026-01-13 22:12:00.73	35.71	11.28	-53.0	-55.3	14.0	0.00e+00	0	27	0	222298112	72	4647
2026-01-13 22:12:03.73	36.14	11.46	-52.7	-55.0	14.2	0.00e+00	0	27	0	228589568	72	4455
2026-01-13 22:12:06.74	36.57	11.64	-52.7	-54.9	14.1	0.00e+00	0	26	0	233832448	71	4691
2026-01-13 22:12:09.74	37.01	11.82	-52.9	-55.2	14.0	0.00e+00	0	27	0	240123904	71	4857
2026-01-13 22:12:12.74	37.45	12.00	-53.1	-55.5	13.8	0.00e+00	0	27	0	245366784	71	5000
2026-01-13 22:12:15.74	37.89	12.18	-53.0	-55.4	13.9	0.00e+00	0	26	0	250609664	71	4932
2026-01-13 22:12:18.74	38.34	12.36	-53.1	-55.5	13.9	0.00e+00	0	26	0	256901120	71	5024
2026-01-13 22:12:21.73	38.80	12.54	-52.7	-55.0	14.1	0.00e+00	0	27	0	262144000	71	4722
2026-01-13 22:12:24.74	39.26	12.72	-52.8	-55.1	14.0	0.00e+00	0	26	0	267386880	71	4801
2026-01-13 22:12:27.73	39.73	12.89	-52.8	-55.2	14.0	0.00e+00	0	26	0	273678336	71	4865
2026-01-13 22:12:30.73	40.20	13.07	-52.6	-54.9	14.1	0.00e+00	0	26	0	278921216	71	4667
2026-01-13 22:12:33.73	40.68	13.25	-52.4	-54.6	14.3	0.00e+00	0	27	0	284164096	71	4503
2026-01-13 22:12:36.74	41.16	13.42	-52.5	-54.8	14.2	0.00e+00	0	26	0	290455552	71	4627
2026-01-13 22:12:39.74	41.65	13.60	-52.8	-55.3	14.0	0.00e+00	0	27	0	295698432	71	4877
2026-01-13 22:12:42.75	42.15	13.77	-52.7	-55.1	14.0	0.00e+00	0	27	0	301989888	71	4789
2026-01-13 22:12:45.76	42.65	13.95	-52.5	-54.8	14.2	0.00e+00	0	26	0	307232768	71	4621
2026-01-13 22:12:48.76	43.16	14.12	-52.3	-54.6	14.3	0.00e+00	0	27	0	312475648	71	4511
2026-01-13 22:12:51.77	43.67	14.30	-52.3	-54.6	14.2	0.00e+00	0	27	0	318767104	70	4777
2026-01-13 22:12:54.76	44.19	14.47	-52.4	-54.7	14.1	0.00e+00	0	27	0	324009984	70	4828
2026-01-13 22:12:57.76	44.71	14.64	-52.4	-54.8	14.1	0.00e+00	0	26	0	329252864	70	4891
2026-01-13 22:13:00.77	45.24	14.81	-52.5	-54.9	14.0	0.00e+00	0	27	0	335544320	70	4932
2026-01-13 22:13:03.78	45.78	14.98	-52.4	-54.8	14.1	0.00e+00	0	27	0	340787200	70	4879
2026-01-13 22:13:06.77	46.32	15.15	-52.4	-54.7	14.1	0.00e+00	0	27	0	347078656	70	4859
2026-01-13 22:13:09.79	46.87	15.31	-52.5	-54.9	14.0	0.00e+00	0	27	0	352321536	70	4976
2026-01-13 22:13:12.78	47.42	15.48	-52.7	-55.2	13.8	0.00e+00	0	27	0	357564416	70	5101
2026-01-13 22:13:15.78	47.98	15.64	-52.6	-55.0	13.9	0.00e+00	0	27	0	363855872	70	5005
2026-01-13 22:13:18.77	48.54	15.80	-52.6	-55.1	13.9	0.00e+00	0	27	0	369098752	70	5050
2026-01-13 22:13:21.77	49.11	15.96	-53.0	-55.6	13.8	0.00e+00	0	27	0	374341632	71	5069
2026-01-13 22:13:24.75	49.69	16.12	-52.9	-55.5	13.8	0.00e+00	0	27	0	380633088	71	4988
2026-01-13 22:13:27.75	50.27	16.28	-52.9	-55.4	13.9	0.00e+00	0	27	0	385875968	71	4954
2026-01-13 22:13:30.74	50.86	16.44	-53.1	-55.7	13.7	0.00e+00	0	27	0	391118848	71	5123
2026-01-13 22:13:33.74	51.45	16.59	-52.9	-55.4	13.9	0.00e+00	0	27	0	397410304	71	4966
2026-01-13 22:13:36.76	52.06	16.74	-53.1	-55.8	13.7	0.00e+00	0	27	0	402653184	71	5164
2026-01-13 22:13:39.75	52.66	16.89	-53.3	-55.9	13.6	0.00e+00	0	27	0	408944640	71	5262
2026-01-13 22:13:42.74	53.27	17.04	-53.2	-55.8	13.7	0.00e+00	0	27	0	414187520	71	5213
2026-01-13 22:13:45.74	53.89	17.18	-53.6	-56.5	13.4	0.00e+00	0	27	0	419430400	72	5306
2026-01-13 22:13:48.73	54.51	17.33	-53.5	-56.2	13.6	0.00e+00	0	27	0	425721856	72	5142
2026-01-13 22:13:51.72	55.14	17.47	-53.3	-55.9	13.8	0.00e+00	0	27	0	430964736	72	4932
2026-01-13 22:13:54.71	55.77	17.60	-53.4	-56.0	13.7	0.00e+00	0	27	0	436207616	72	5027
2026-01-13 22:13:57.70	56.41	17.74	-53.1	-55.5	13.9	0.00e+00	0	27	0	442499072	72	4737
2026-01-13 22:14:00.69	57.06	17.87	-53.0	-55.3	14.0	0.00e+00	0	27	0	447741952	72	4641
2026-01-13 22:14:03.69	57.71	18.00	-53.1	-55.6	13.9	0.00e+00	0	27	0	452984832	72	4761
2026-01-13 22:14:06.68	58.36	18.13	-52.9	-55.2	14.1	0.00e+00	0	26	0	459276288	72	4590
2026-01-13 22:14:09.68	59.03	18.25	-52.3	-54.3	14.4	0.00e+00	0	27	0	464519168	71	4385
2026-01-13 22:14:12.68	59.70	18.37	-52.8	-55.0	14.1	0.00e+00	0	27	0	469762048	71	4727
2026-01-13 22:14:15.67	60.37	18.49	-52.8	-55.0	14.1	0.00e+00	0	27	0	476053504	71	4759
2026-01-13 22:14:18.66	61.04	18.60	-52.3	-54.4	14.4	0.00e+00	0	27	0	481296384	71	4406
2026-01-13 22:14:21.66	61.73	18.71	-52.2	-54.2	14.5	0.00e+00	0	27	0	487587840	71	4337
2026-01-13 22:14:24.64	62.41	18.82	-51.8	-53.6	14.6	0.00e+00	0	27	0	492830720	70	4277
2026-01-13 22:14:27.64	63.10	18.92	-51.8	-53.7	14.4	0.00e+00	0	27	0	498073600	69	4591
2026-01-13 22:14:30.62	63.80	19.02	-52.2	-54.2	14.3	0.00e+00	0	27	0	504365056	69	4852
2026-01-13 22:14:33.62	64.50	19.12	-52.0	-53.9	14.4	0.00e+00	0	27	0	509607936	69	4700
2026-01-13 22:14:36.61	65.20	19.21	-52.3	-54.3	14.2	0.00e+00	0	27	0	514850816	69	4923
2026-01-13 22:14:39.59	65.91	19.30	-52.1	-54.1	14.3	0.00e+00	0	27	0	521142272	69	4761
2026-01-13 22:14:42.58	66.62	19.39	-52.1	-54.1	14.3	0.00e+00	0	27	0	526385152	69	4772
2026-01-13 22:14:45.56	67.33	19.47	-52.0	-53.9	14.4	0.00e+00	0	27	0	531628032	69	4705
2026-01-13 22:14:48.57	68.06	19.54	-52.0	-53.9	14.4	0.00e+00	0	27	0	537919488	69	4682
2026-01-13 22:14:51.55	68.78	19.61	-52.8	-55.0	14.0	0.00e+00	0	27	0	543162368	70	5016
2026-01-13 22:14:54.54	69.50	19.68	-52.7	-54.9	14.1	0.00e+00	0	27	0	548405248	70	4947
2026-01-13 22:14:57.54	70.24	19.75	-52.9	-55.1	13.9	0.00e+00	0	27	0	554696704	70	5089
2026-01-13 22:15:00.54	70.97	19.80	-53.1	-55.4	13.9	0.00e+00	0	27	0	559939584	71	4978
2026-01-13 22:15:03.52	71.70	19.86	-52.5	-54.6	14.3	0.00e+00	0	27	0	565182464	71	4505
2026-01-13 22:15:06.51	72.44	19.91	-52.4	-54.4	14.4	0.00e+00	0	27	0	571473920	71	4420
2026-01-13 22:15:09.50	73.18	19.95	-52.2	-54.1	14.5	0.00e+00	0	27	0	576716800	71	4288
2026-01-13 22:15:12.48	73.92	19.99	-52.3	-54.3	14.3	0.00e+00	0	27	0	581959680	70	4612
2026-01-13 22:15:15.44	74.66	20.03	-53.0	-55.3	14.0	0.00e+00	0	27	0	588251136	71	4903
2026-01-13 22:15:18.43	75.40	20.06	-53.1	-55.3	14.0	0.00e+00	0	27	0	593494016	71	4919
2026-01-13 22:15:21.42	76.15	20.09	-53.2	-55.5	13.8	0.00e+00	0	27	0	598736896	71	5028
2026-01-13 22:15:24.41	76.89	20.11	-53.0	-55.2	14.0	0.00e+00	0	27	0	605028352	71	4847
2026-01-13 22:15:27.39	77.64	20.13	-53.1	-55.3	14.0	0.00e+00	0	27	0	610271232	71	4907
2026-01-13 22:15:30.38	78.39	20.14	-53.3	-55.6	13.8	0.00e+00	0	27	0	615514112	71	5063
2026-01-13 22:15:33.38	79.14	20.15	-53.0	-55.3	14.0	0.00e+00	0	27	0	621805568	71	4895
2026-01-13 22:15:36.38	79.90	20.15	-53.3	-55.8	13.7	0.00e+00	0	27	0	627048448	71	5190
2026-01-13 22:15:39.38	80.65	20.15	-53.1	-55.5	13.9	0.00e+00	0	27	0	632291328	71	5013
2026-01-13 22:15:42.37	81.40	20.14	-53.2	-55.6	13.8	0.00e+00	0	27	0	638582784	71	5076
2026-01-13 22:15:45.37	82.15	20.13	-53.2	-55.6	13.8	0.00e+00	0	27	0	643825664	71	5084
2026-01-13 22:15:48.36	82.90	20.11	-52.8	-55.1	14.1	0.00e+00	0	27	0	650117120	71	4786
2026-01-13 22:15:51.36	83.65	20.09	-52.5	-54.7	14.2	0.00e+00	0	27	0	655360000	71	4550
2026-01-13 22:15:54.35	84.40	20.06	-52.7	-54.9	14.2	0.00e+00	0	27	0	660602880	71	4660
2026-01-13 22:15:57.35	85.15	20.03	-53.0	-55.3	14.0	0.00e+00	0	27	0	666894336	71	4912
2026-01-13 22:16:00.34	85.89	20.00	-52.8	-55.1	14.0	0.00e+00	0	27	0	672137216	71	4804
2026-01-13 22:16:03.33	86.63	19.96	-52.7	-54.9	14.1	0.00e+00	0	27	0	677380096	71	4701
2026-01-13 22:16:06.32	87.37	19.91	-52.8	-55.1	14.1	0.00e+00	0	27	0	683671552	71	4775
2026-01-13 22:16:09.31	88.11	19.86	-52.8	-55.1	14.1	0.00e+00	0	27	0	688914432	71	4776
2026-01-13 22:16:12.30	88.85	19.81	-52.5	-54.7	14.2	0.00e+00	0	27	0	694157312	71	4569
2026-01-13 22:16:15.29	89.58	19.75	-52.7	-55.0	14.1	0.00e+00	0	27	0	700448768	71	4743
2026-01-13 22:16:18.29	90.31	19.68	-52.5	-54.8	14.2	0.00e+00	0	27	0	705691648	71	4604
2026-01-13 22:16:21.30	91.04	19.62	-52.8	-55.2	14.0	0.00e+00	0	27	0	710934528	71	4835
2026-01-13 22:16:24.29	91.77	19.54	-53.2	-55.7	13.7	0.00e+00	0	27	0	717225984	71	5150
2026-01-13 22:16:27.28	92.49	19.47	-52.8	-55.1	14.1	0.00e+00	0	27	0	722468864	71	4786
2026-01-13 22:16:30.27	93.21	19.39	-52.2	-54.2	14.5	0.00e+00	0	27	0	727711744	71	4332
2026-01-13 22:16:33.26	93.92	19.30	-52.5	-54.6	14.3	0.00e+00	0	27	0	734003200	71	4532
2026-01-13 22:16:36.25	94.63	19.21	-52.1	-54.1	14.4	0.00e+00	0	27	0	739246080	70	4545
2026-01-13 22:16:39.24	95.33	19.12	-52.4	-54.4	14.3	0.00e+00	0	27	0	744488960	70	4692
2026-01-13 22:16:42.23	96.04	19.02	-52.5	-54.6	14.2	0.00e+00	0	27	0	750780416	70	4774
2026-01-13 22:16:45.22	96.73	18.92	-52.0	-54.0	14.5	0.00e+00	0	27	0	756023296	70	4460
2026-01-13 22:16:48.22	97.43	18.82	-51.8	-53.8	14.6	0.00e+00	0	27	0	762314752	70	4349
2026-01-13 22:16:51.20	98.11	18.71	-52.1	-54.1	14.4	0.00e+00	0	27	0	767557632	70	4503
2026-01-13 22:16:54.20	98.80	18.60	-52.0	-54.0	14.4	0.00e+00	0	27	0	772800512	70	4470
2026-01-13 22:16:57.18	99.47	18.49	-52.1	-54.2	14.4	0.00e+00	0	27	0	779091968	70	4564
2026-01-13 22:17:00.18	100.15	18.37	-52.6	-54.9	14.0	0.00e+00	0	27	0	784334848	70	4965
2026-01-13 22:17:03.17	100.82	18.25	-52.4	-54.6	14.2	0.00e+00	0	27	0	789577728	70	4781
2026-01-13 22:17:06.17	101.48	18.12	-52.5	-54.7	14.2	0.00e+00	0	27	0	795869184	70	4820
2026-01-13 22:17:09.17	102.14	18.00	-52.4	-54.6	14.2	0.00e+00	0	27	0	801112064	70	4761
2026-01-13 22:17:12.16	102.79	17.87	-53.0	-55.5	13.9	0.00e+00	0	27	0	806354944	71	4998
2026-01-13 22:17:15.17	103.44	17.73	-52.9	-55.3	14.0	0.00e+00	0	27	0	812646400	71	4884
2026-01-13 22:17:18.16	104.09	17.60	-52.7	-55.2	14.0	0.00e+00	0	27	0	817889280	71	4819
2026-01-13 22:17:21.17	104.72	17.46	-52.8	-55.4	13.9	0.00e+00	0	27	0	823132160	71	4958
2026-01-13 22:17:24.15	105.35	17.32	-52.5	-54.9	14.1	0.00e+00	0	27	0	829423616	71	4681
2026-01-13 22:17:27.14	105.98	17.18	-52.7	-55.2	14.0	0.00e+00	0	27	0	834666496	71	4819
2026-01-13 22:17:30.13	106.59	17.03	-53.2	-55.9	13.7	0.00e+00	0	27	0	839909376	71	5225
2026-01-13 22:17:33.12	107.21	16.88	-53.2	-55.9	13.7	0.00e+00	0	27	0	846200832	72	4932
2026-01-13 22:17:36.12	107.82	16.73	-53.1	-55.7	13.9	0.00e+00	0	27	0	851443712	72	4836
2026-01-13 22:17:39.12	108.42	16.58	-53.2	-55.8	13.7	0.00e+00	0	27	0	857735168	72	4922
2026-01-13 22:17:42.11	109.01	16.43	-53.1	-55.6	13.8	0.00e+00	0	27	0	862978048	72	4810
2026-01-13 22:17:45.11	109.60	16.27	-53.0	-55.6	13.9	0.00e+00	0	27	0	868220928	72	4793
2026-01-13 22:17:48.10	110.19	16.11	-53.7	-56.6	13.3	0.00e+00	0	27	0	874512384	72	5397
2026-01-13 22:17:51.10	110.77	15.95	-53.7	-56.5	13.5	0.00e+00	0	27	0	879755264	73	5039
2026-01-13 22:17:54.11	111.34	15.79	-53.3	-55.9	13.9	0.00e+00	0	27	0	884998144	73	4660
2026-01-13 22:17:57.10	111.91	15.63	-53.2	-55.7	13.8	0.00e+00	0	27	0	891289600	72	4859
2026-01-13 22:18:00.09	112.46	15.46	-53.1	-55.6	13.9	0.00e+00	0	27	0	896532480	72	4782
2026-01-13 22:18:03.09	113.02	15.30	-52.9	-55.3	14.1	0.00e+00	0	27	0	901775360	72	4618
2026-01-13 22:18:06.08	113.57	15.13	-53.1	-55.7	13.8	0.00e+00	0	27	0	908066816	72	4827
2026-01-13 22:18:09.09	114.11	14.96	-53.2	-55.8	13.8	0.00e+00	0	27	0	913309696	72	4912
2026-01-13 22:18:12.09	114.65	14.79	-53.1	-55.7	13.8	0.00e+00	0	27	0	918552576	72	4825
2026-01-13 22:18:15.09	115.18	14.62	-53.3	-55.9	13.7	0.00e+00	0	27	0	924844032	72	4962
2026-01-13 22:18:18.09	115.70	14.45	-53.2	-55.7	13.8	0.00e+00	0	27	0	930086912	72	4830
2026-01-13 22:18:21.09	116.22	14.27	-53.0	-55.4	14.0	0.00e+00	0	27	0	936378368	72	4665
2026-01-13 22:18:24.09	116.74	14.10	-53.1	-55.6	13.9	0.00e+00	0	27	0	941621248	72	4772
2026-01-13 22:18:27.09	117.25	13.93	-53.3	-55.7	13.8	0.00e+00	0	27	0	946864128	72	4863
2026-01-13 22:18:30.09	117.75	13.75	-52.9	-55.2	14.1	0.00e+00	0	27	0	953155584	72	4557
2026-01-13 22:18:33.09	118.24	13.57	-52.5	-54.6	14.2	0.00e+00	0	27	0	958398464	71	4545
2026-01-13 22:18:36.08	118.73	13.40	-53.1	-55.7	13.7	0.00e+00	0	27	0	963641344	71	5105
2026-01-13 22:18:39.07	119.22	13.22	-53.4	-56.0	13.6	0.00e+00	0	27	0	969932800	72	5035
2026-01-13 22:18:42.07	119.70	13.04	-52.8	-55.2	14.0	0.00e+00	0	27	0	975175680	72	4573
2026-01-13 22:18:45.07	120.17	12.86	-52.3	-54.4	14.3	0.00e+00	0	27	0	980418560	71	4440
2026-01-13 22:18:48.07	120.64	12.69	-52.2	-54.3	14.2	0.00e+00	0	27	0	986710016	70	4635
2026-01-13 22:18:51.06	121.10	12.51	-52.3	-54.4	14.2	0.00e+00	0	27	0	991952896	70	4698
2026-01-13 22:18:54.07	121.56	12.33	-52.3	-54.4	14.2	0.00e+00	0	27	0	998244352	70	4699
2026-01-13 22:18:57.07	122.01	12.15	-52.5	-54.8	14.0	0.00e+00	0	27	0	1003487232	70	4878
2026-01-13 22:19:00.07	122.46	11.97	-53.1	-55.6	13.7	0.00e+00	0	27	0	1008730112	71	5078
2026-01-13 22:19:03.08	122.90	11.79	-53.5	-55.9	13.7	0.00e+00	0	27	0	1015021568	72	4939
2026-01-13 22:19:06.07	123.33	11.61	-53.3	-55.5	13.9	0.00e+00	0	27	0	1020264448	72	4740
2026-01-13 22:19:09.08	123.77	11.42	-53.3	-55.6	13.9	0.00e+00	0	27	0	1025507328	72	4760
2026-01-13 22:19:12.08	124.19	11.24	-53.6	-55.9	13.7	0.00e+00	0	27	0	1031798784	72	4950
2026-01-13 22:19:15.07	124.61	11.06	-53.2	-55.4	13.9	0.00e+00	0	27	0	1037041664	72	4696
2026-01-13 22:19:18.05	125.03	10.88	-52.7	-54.7	14.3	0.00e+00	0	27	0	1042284544	72	4316
2026-01-13 22:19:21.02	125.43	10.70	-52.6	-54.6	14.2	0.00e+00	0	27	0	1048576000	71	4504
2026-01-13 22:19:24.03	125.84	10.52	-52.8	-54.9	14.0	0.00e+00	0	27	0	1053818880	71	4691
2026-01-13 22:19:27.01	126.24	10.34	-53.1	-55.2	13.9	0.00e+00	0	27	0	1059061760	71	4869
2026-01-13 22:19:30.00	126.63	10.16	-53.1	-55.3	13.8	0.00e+00	0	27	0	1065353216	71	4920
2026-01-13 22:19:32.99	127.03	9.98	-53.2	-55.4	13.8	0.00e+00	0	27	0	1070596096	71	4962
2026-01-13 22:19:35.99	127.41	9.80	-53.5	-55.9	13.7	0.00e+00	0	27	0	1076887552	72	4936
2026-01-13 22:19:39.00	127.80	9.62	-53.7	-56.1	13.5	0.00e+00	0	27	0	1082130432	72	5084
2026-01-13 22:19:42.00	128.18	9.44	-53.3	-55.6	13.8	0.00e+00	0	27	0	1087373312	72	4795
2026-01-13 22:19:44.99	128.55	9.26	-52.8	-54.9	14.1	0.00e+00	0	27	0	1093664768	72	4413
2026-01-13 22:19:47.97	128.92	9.09	-52.5	-54.5	14.2	0.00e+00	0	27	0	1098907648	71	4455
2026-01-13 22:19:50.97	129.28	8.91	-52.8	-55.0	14.0	0.00e+00	0	27	0	1104150528	71	4707
2026-01-13 22:19:53.98	129.64	8.73	-53.6	-56.0	13.6	0.00e+00	0	27	0	1110441984	72	5028
2026-01-13 22:19:56.98	130.00	8.55	-53.8	-56.3	13.4	0.00e+00	0	27	0	1115684864	72	5208
2026-01-13 22:19:59.98	130.35	8.37	-54.0	-56.6	13.3	0.00e+00	0	27	0	1121976320	73	5075
2026-01-13 22:20:02.98	130.70	8.19	-54.5	-57.4	12.9	0.00e+00	0	27	0	1127219200	74	5257
2026-01-13 22:20:05.97	131.04	8.02	-54.8	-58.0	12.6	0.00e+00	0	27	0	1132462080	74	5626
2026-01-13 22:20:08.99	131.39	7.84	-54.9	-58.1	12.6	7.00e-07	0	27	0	1138753536	75	5378
2026-01-13 22:20:11.99	131.72	7.66	-54.8	-57.9	12.7	0.00e+00	0	27	0	1143996416	75	5272
2026-01-13 22:20:14.99	132.06	7.49	-54.2	-57.0	13.2	0.00e+00	0	27	0	1149239296	74	4995
2026-01-13 22:20:17.99	132.39	7.31	-54.1	-56.9	13.2	0.00e+00	0	27	0	1155530752	74	4942
2026-01-13 22:20:20.98	132.71	7.14	-54.1	-56.9	13.2	0.00e+00	0	27	0	1160773632	74	4973
2026-01-13 22:20:23.98	133.03	6.96	-54.2	-57.1	13.0	0.00e+00	0	27	0	1166016512	74	5091
2026-01-13 22:20:26.98	133.35	6.79	-54.0	-56.7	13.3	0.00e+00	0	27	0	1172307968	74	4850
2026-01-13 22:20:29.98	133.66	6.61	-54.1	-56.9	13.1	0.00e+00	0	27	0	1177550848	74	4961
2026-01-13 22:20:32.98	133.97	6.44	-53.9	-56.6	13.4	0.00e+00	0	27	0	1183842304	74	4764
2026-01-13 22:20:35.98	134.28	6.27	-53.6	-56.3	13.4	0.00e+00	0	27	0	1189085184	73	4887
2026-01-13 22:20:38.98	134.58	6.09	-53.8	-56.6	13.2	0.00e+00	0	27	0	1194328064	73	5089
2026-01-13 22:20:41.99	134.89	5.92	-54.1	-57.1	12.9	0.00e+00	0	27	0	1200619520	73	5370
2026-01-13 22:20:45.00	135.18	5.75	-54.2	-57.3	12.8	0.00e+00	0	27	0	1205862400	73	5473
2026-01-13 22:20:48.00	135.48	5.58	-54.5	-57.8	12.5	0.00e+00	0	27	0	1211105280	74	5512
2026-01-13 22:20:51.00	135.77	5.41	-54.4	-57.7	12.6	0.00e+00	0	27	0	1217396736	74	5404
2026-01-13 22:20:54.00	136.05	5.24	-54.3	-57.4	12.7	0.00e+00	0	27	0	1222639616	74	5263
2026-01-13 22:20:57.00	136.34	5.07	-54.6	-57.9	12.4	0.00e+00	0	27	0	1227882496	74	5565
2026-01-13 22:21:00.01	136.62	4.90	-58.7	-74.7	3.8	1.49e+00	0	27	104	1232076800	82	24211
2026-01-13 22:21:03.01	136.90	4.73	-59.3	-75.4	3.8	1.49e+00	0	27	104	1232076800	83	24835
2026-01-13 22:21:06.02	137.17	4.56	-59.8	-75.9	3.8	1.49e+00	0	27	104	1232076800	84	24870
2026-01-13 22:21:09.03	137.45	4.39	-60.1	-76.2	3.8	1.49e+00	0	27	104	1232076800	85	24174
2026-01-13 22:21:12.03	137.71	4.23	-60.2	-76.3	3.8	1.49e+00	0	27	104	1232076800	85	24438
2026-01-13 22:21:15.04	137.98	4.06	-60.3	-76.4	3.8	1.49e+00	0	27	104	1232076800	85	24810
2026-01-13 22:21:18.04	138.24	3.89	-60.4	-76.5	3.8	1.49e+00	0	27	104	1232076800	85	25100
2026-01-13 22:21:21.04	138.50	3.73	-60.5	-76.6	3.8	1.49e+00	0	27	104	1232076800	86	23944
2026-01-13 22:21:24.03	138.76	3.57	-60.4	-76.5	3.8	1.49e+00	0	27	104	1232076800	86	23753
2026-01-13 22:21:27.03	139.01	3.40	-60.4	-76.5	3.8	1.49e+00	0	27	104	1232076800	86	23627
2026-01-13 22:21:30.04	139.27	3.24	-60.3	-76.4	3.8	1.49e+00	0	27	104	1232076800	86	23551
2026-01-13 22:21:33.03	139.52	3.07	-60.3	-76.4	3.8	1.49e+00	0	27	104	1232076800	86	23474
2026-01-13 22:21:36.03	139.76	2.91	-60.3	-76.4	3.8	1.49e+00	0	27	104	1232076800	86	23374
2026-01-13 22:21:39.01	140.00	2.75	-60.3	-76.4	3.8	1.49e+00	0	27	104	1232076800	86	23325
2026-01-13 22:21:42.01	140.25	2.59	-60.3	-76.4	3.8	1.49e+00	0	27	104	1232076800	86	23349
2026-01-13 22:21:45.00	140.48	2.43	-60.3	-76.4	3.8	1.49e+00	0	27	104	1232076800	86	23358
2026-01-13 22:21:48.01	140.72	2.27	-60.3	-76.4	3.8	1.49e+00	0	27	104	1232076800	86	23345
2026-01-13 22:21:51.01	140.96	2.11	-60.2	-76.3	3.8	1.49e+00	0	27	104	1232076800	86	23304
2026-01-13 22:21:54.01	141.19	1.95	-60.2	-76.3	3.8	1.49e+00	0	27	104	1232076800	86	23250

#Closed at: 2026-01-13 22:21:54
#Recorded file [1232 MB]: D:/lorett/data/31004_260114_010918.dat