passes_logs/2026/01/13/R3.2S_Murmansk/R3.2S_Murmansk__20260113_213936_NOAA_21_JPSS-2_rec.log

#Pass ID: 20260113_213936_NOAA 21 (JPSS-2)
#Satellite: NOAA 21 (JPSS-2)
#Configuration: NOAA-21
#almurnet v.1.7.20251203
#Start time: 2026-01-13 21:39:35

#Version: 2.2.20231116
#Station: R3.2S_Murmansk
#Location: 33.079688 lon 68.888172 lat
#TLE: 1 54234U 22150A   26013.60300550  .00000047  00000+0  43143-4 0  9998
#TLE: 2 54234  98.7496 314.5197 0000681 301.0337  59.0772 14.19534502164617

#Time	Az	El	Level	Level2	SNR	BER	BlckErr	Temp	State	Recorded	gain1	gain2
2026-01-13 21:39:35.79	18.25	1.98	-58.0	-71.8	3.8	1.49e+00	0	25	0	0	82	17309
2026-01-13 21:39:38.79	18.52	2.13	-58.0	-71.7	3.8	1.49e+00	0	25	104	0	81	18103
2026-01-13 21:39:41.78	18.79	2.28	-58.0	-71.5	3.8	1.49e+00	0	25	104	0	81	17702
2026-01-13 21:39:44.77	19.05	2.42	-58.0	-71.6	3.8	1.49e+00	0	25	104	0	81	18018
2026-01-13 21:39:47.78	19.33	2.57	-58.1	-71.8	3.8	1.49e+00	0	25	104	0	81	18373
2026-01-13 21:39:50.79	19.60	2.72	-58.0	-71.8	3.8	1.49e+00	0	25	104	0	81	18421
2026-01-13 21:39:53.79	19.88	2.86	-58.0	-71.7	3.8	1.49e+00	0	25	104	0	81	18283
2026-01-13 21:39:56.78	20.16	3.01	-58.0	-71.6	3.8	1.49e+00	0	26	104	0	81	18085
2026-01-13 21:39:59.79	20.44	3.16	-58.1	-71.7	3.8	1.49e+00	0	26	104	0	81	18198
2026-01-13 21:40:02.79	20.73	3.31	-58.1	-71.8	3.8	1.49e+00	0	26	104	0	81	18403
2026-01-13 21:40:05.79	21.02	3.46	-58.0	-71.8	3.8	1.49e+00	0	26	104	0	81	18354
2026-01-13 21:40:08.77	21.31	3.60	-58.1	-71.9	3.8	1.49e+00	0	26	104	0	81	18530
2026-01-13 21:40:11.76	21.60	3.75	-58.0	-71.5	3.8	1.49e+00	0	26	104	0	81	17870
2026-01-13 21:40:14.76	21.90	3.90	-58.0	-71.5	3.8	1.49e+00	0	26	104	0	81	17739
2026-01-13 21:40:17.77	22.20	4.05	-58.0	-71.4	3.8	1.49e+00	0	26	104	0	81	17508
2026-01-13 21:40:20.78	22.50	4.20	-57.9	-70.2	3.9	1.49e+00	0	26	104	0	81	15345
2026-01-13 21:40:23.77	22.80	4.35	-58.0	-70.6	3.9	1.49e+00	0	26	104	0	81	15985
2026-01-13 21:40:26.76	23.11	4.50	-57.6	-66.7	4.7	1.06e+00	0	26	104	0	81	10248
2026-01-13 21:40:29.75	23.42	4.65	-56.3	-61.2	8.7	2.45e-02	0	26	0	8388608	79	6112
2026-01-13 21:40:32.73	23.73	4.80	-55.3	-58.9	10.5	5.01e-04	0	26	0	17825792	77	5269
2026-01-13 21:40:35.72	24.05	4.95	-55.8	-60.1	9.5	3.13e-03	0	26	0	27262976	77	6014
2026-01-13 21:40:38.69	24.37	5.09	-54.9	-58.2	10.9	1.29e-05	0	26	0	36700160	75	5459
2026-01-13 21:40:41.68	24.69	5.24	-53.2	-55.3	12.8	5.72e-01	0	26	0	42991616	73	4390
2026-01-13 21:40:44.68	25.02	5.40	-52.5	-54.5	13.3	0.00e+00	0	26	0	52428800	71	4442
2026-01-13 21:40:47.68	25.35	5.55	-52.2	-54.1	13.5	0.00e+00	0	26	0	61865984	71	4268
2026-01-13 21:40:50.68	25.68	5.70	-52.0	-53.9	13.6	0.00e+00	0	26	0	71303168	70	4400
2026-01-13 21:40:53.69	26.02	5.85	-52.0	-53.9	13.6	0.00e+00	0	26	0	80740352	70	4392
2026-01-13 21:40:56.69	26.36	6.00	-51.9	-53.8	13.7	0.00e+00	0	26	0	90177536	70	4344
2026-01-13 21:40:59.70	26.70	6.15	-52.1	-53.9	13.6	0.00e+00	0	26	0	99614720	70	4418
2026-01-13 21:41:02.71	27.05	6.30	-52.0	-53.8	13.7	0.00e+00	0	27	0	109051904	70	4352
2026-01-13 21:41:05.70	27.40	6.45	-51.8	-53.5	13.8	0.00e+00	0	26	0	118489088	70	4233
2026-01-13 21:41:08.71	27.75	6.60	-51.6	-53.3	13.9	0.00e+00	0	26	0	127926272	69	4374
2026-01-13 21:41:11.70	28.11	6.75	-51.5	-53.1	13.9	0.00e+00	0	26	0	137363456	69	4289
2026-01-13 21:41:14.68	28.47	6.90	-51.3	-52.9	14.0	0.00e+00	0	26	0	146800640	69	4190
2026-01-13 21:41:17.68	28.83	7.06	-51.4	-53.0	14.0	0.00e+00	0	26	0	156237824	69	4239
2026-01-13 21:41:20.68	29.20	7.21	-51.4	-53.1	14.0	0.00e+00	0	27	0	164626432	69	4257
2026-01-13 21:41:23.68	29.57	7.36	-51.5	-53.1	13.9	0.00e+00	0	26	0	174063616	69	4288
2026-01-13 21:41:26.67	29.94	7.51	-51.5	-53.1	13.9	0.00e+00	0	26	0	183500800	69	4270
2026-01-13 21:41:29.66	30.32	7.66	-51.4	-53.1	14.0	0.00e+00	0	27	0	192937984	69	4244
2026-01-13 21:41:32.65	30.70	7.81	-51.2	-52.8	14.1	0.00e+00	0	26	0	202375168	69	4129
2026-01-13 21:41:35.62	31.09	7.96	-51.4	-53.0	14.0	0.00e+00	0	26	0	211812352	69	4214
2026-01-13 21:41:38.63	31.48	8.11	-51.4	-53.1	14.0	0.00e+00	0	27	0	221249536	69	4259
2026-01-13 21:41:41.62	31.87	8.26	-51.4	-53.0	14.0	0.00e+00	0	26	0	230686720	69	4228
2026-01-13 21:41:44.60	32.27	8.40	-51.1	-52.7	14.1	0.00e+00	0	27	0	240123904	68	4302
2026-01-13 21:41:47.59	32.67	8.55	-50.9	-52.5	14.2	0.00e+00	0	27	0	249561088	68	4205
2026-01-13 21:41:50.59	33.07	8.70	-50.8	-52.4	14.3	0.00e+00	0	27	0	258998272	68	4148
2026-01-13 21:41:53.59	33.48	8.85	-50.8	-52.3	14.2	0.00e+00	0	27	0	268435456	68	4141
2026-01-13 21:41:56.59	33.90	9.00	-50.9	-52.4	14.2	0.00e+00	0	27	0	277872640	68	4179
2026-01-13 21:41:59.59	34.31	9.15	-50.9	-52.5	14.2	0.00e+00	0	27	0	287309824	68	4206
2026-01-13 21:42:02.58	34.74	9.29	-50.9	-52.4	14.2	0.00e+00	0	27	0	295698432	68	4186
2026-01-13 21:42:05.57	35.16	9.44	-50.8	-52.3	14.3	0.00e+00	0	26	0	305135616	68	4107
2026-01-13 21:42:08.57	35.59	9.59	-50.9	-52.4	14.3	0.00e+00	0	27	0	314572800	68	4159
2026-01-13 21:42:11.55	36.02	9.73	-50.5	-52.0	14.3	0.00e+00	0	27	0	324009984	67	4203
2026-01-13 21:42:14.55	36.46	9.88	-50.5	-51.9	14.3	0.00e+00	0	27	0	333447168	67	4182
2026-01-13 21:42:17.55	36.90	10.02	-50.5	-52.0	14.3	0.00e+00	0	27	0	342884352	67	4211
2026-01-13 21:42:20.53	37.35	10.16	-50.5	-51.9	14.3	0.00e+00	0	27	0	352321536	67	4176
2026-01-13 21:42:23.52	37.80	10.31	-50.5	-51.9	14.3	0.00e+00	0	27	0	361758720	67	4185
2026-01-13 21:42:26.52	38.25	10.45	-50.3	-51.7	14.4	0.00e+00	0	27	0	371195904	67	4093
2026-01-13 21:42:29.51	38.71	10.59	-50.4	-51.8	14.4	0.00e+00	0	27	0	380633088	67	4116
2026-01-13 21:42:32.48	39.17	10.73	-50.4	-51.9	14.3	0.00e+00	0	27	0	389021696	67	4153
2026-01-13 21:42:35.46	39.64	10.87	-50.3	-51.7	14.4	0.00e+00	0	27	0	398458880	67	4057
2026-01-13 21:42:38.45	40.11	11.01	-50.3	-51.7	14.4	0.00e+00	0	27	0	407896064	67	4082
2026-01-13 21:42:41.43	40.58	11.14	-50.3	-51.7	14.4	0.00e+00	0	27	0	417333248	67	4064
2026-01-13 21:42:44.42	41.06	11.28	-50.5	-51.9	14.3	0.00e+00	0	27	0	426770432	67	4192
2026-01-13 21:42:47.41	41.55	11.42	-50.6	-52.1	14.3	0.00e+00	0	27	0	436207616	67	4246
2026-01-13 21:42:50.41	42.04	11.55	-50.4	-51.9	14.3	0.00e+00	0	27	0	445644800	67	4162
2026-01-13 21:42:53.40	42.53	11.69	-50.5	-52.0	14.3	0.00e+00	0	27	0	455081984	67	4199
2026-01-13 21:42:56.40	43.03	11.82	-50.5	-52.0	14.3	0.00e+00	0	27	0	464519168	67	4204
2026-01-13 21:42:59.39	43.53	11.95	-50.4	-51.8	14.4	0.00e+00	0	27	0	473956352	67	4113
2026-01-13 21:43:02.38	44.04	12.08	-50.3	-51.7	14.4	0.00e+00	0	27	0	483393536	67	4059
2026-01-13 21:43:05.38	44.55	12.21	-50.2	-51.6	14.4	0.00e+00	0	27	0	491782144	66	4284
2026-01-13 21:43:08.37	45.06	12.34	-50.3	-51.8	14.3	0.00e+00	0	27	0	501219328	66	4342
2026-01-13 21:43:11.38	45.59	12.46	-50.5	-52.0	14.2	0.00e+00	0	27	0	510656512	66	4446
2026-01-13 21:43:14.37	46.11	12.59	-50.4	-51.8	14.3	0.00e+00	0	27	0	520093696	66	4364
2026-01-13 21:43:17.36	46.64	12.71	-50.3	-51.7	14.3	0.00e+00	0	27	0	529530880	66	4327
2026-01-13 21:43:20.36	47.17	12.83	-50.4	-51.8	14.3	0.00e+00	0	27	0	538968064	66	4360
2026-01-13 21:43:23.37	47.71	12.95	-50.4	-51.9	14.3	0.00e+00	0	27	0	548405248	66	4407
2026-01-13 21:43:26.36	48.25	13.07	-50.5	-51.9	14.2	0.00e+00	0	27	0	557842432	66	4432
2026-01-13 21:43:29.36	48.80	13.19	-50.2	-51.6	14.4	0.00e+00	0	27	0	567279616	66	4253
2026-01-13 21:43:32.36	49.35	13.30	-50.1	-51.5	14.4	0.00e+00	0	27	0	576716800	66	4200
2026-01-13 21:43:35.35	49.90	13.41	-50.1	-51.4	14.4	0.00e+00	0	27	0	586153984	66	4189
2026-01-13 21:43:38.34	50.46	13.52	-50.2	-51.6	14.3	0.00e+00	0	27	0	595591168	66	4285
2026-01-13 21:43:41.32	51.02	13.63	-50.1	-51.5	14.4	0.00e+00	0	27	0	605028352	66	4221
2026-01-13 21:43:44.31	51.58	13.74	-49.9	-51.3	14.5	0.00e+00	0	27	0	614465536	66	4103
2026-01-13 21:43:47.30	52.15	13.84	-49.9	-51.3	14.5	0.00e+00	0	27	0	623902720	66	4099
2026-01-13 21:43:50.30	52.73	13.95	-50.0	-51.3	14.5	0.00e+00	0	27	0	632291328	66	4141
2026-01-13 21:43:53.29	53.30	14.05	-50.2	-51.6	14.3	0.00e+00	0	27	0	641728512	66	4287
2026-01-13 21:43:56.29	53.88	14.14	-50.1	-51.5	14.4	0.00e+00	0	27	0	651165696	66	4238
2026-01-13 21:43:59.29	54.47	14.24	-50.0	-51.4	14.4	0.00e+00	0	27	0	660602880	66	4171
2026-01-13 21:44:02.29	55.06	14.33	-49.9	-51.2	14.6	0.00e+00	0	27	0	670040064	66	4067
2026-01-13 21:44:05.30	55.66	14.42	-49.6	-51.0	14.5	0.00e+00	0	27	0	679477248	65	4195
2026-01-13 21:44:08.29	56.25	14.51	-49.8	-51.1	14.5	0.00e+00	0	27	0	688914432	65	4280
2026-01-13 21:44:11.30	56.85	14.60	-50.1	-51.5	14.3	0.00e+00	0	27	0	698351616	65	4446
2026-01-13 21:44:14.28	57.45	14.68	-50.0	-51.4	14.4	0.00e+00	0	27	0	707788800	65	4415
2026-01-13 21:44:17.29	58.06	14.76	-49.8	-51.1	14.5	0.00e+00	0	27	0	717225984	65	4263
2026-01-13 21:44:20.29	58.67	14.84	-49.6	-50.9	14.5	0.00e+00	0	27	0	726663168	65	4193
2026-01-13 21:44:23.27	59.28	14.91	-49.7	-51.0	14.5	0.00e+00	0	27	0	736100352	65	4239
2026-01-13 21:44:26.27	59.90	14.99	-49.9	-51.3	14.4	0.00e+00	0	27	0	745537536	65	4361
2026-01-13 21:44:29.26	60.51	15.06	-49.7	-51.0	14.5	0.00e+00	0	27	0	754974720	65	4234
2026-01-13 21:44:32.25	61.13	15.12	-49.8	-51.2	14.4	0.00e+00	0	27	0	763363328	65	4299
2026-01-13 21:44:35.24	61.76	15.18	-49.8	-51.1	14.4	0.00e+00	0	27	0	772800512	65	4285
2026-01-13 21:44:38.22	62.38	15.25	-49.6	-50.9	14.6	0.00e+00	0	27	0	782237696	65	4166
2026-01-13 21:44:41.20	63.00	15.30	-49.7	-51.1	14.5	0.00e+00	0	27	0	791674880	65	4249
2026-01-13 21:44:44.20	63.64	15.36	-49.8	-51.2	14.4	0.00e+00	0	27	0	801112064	65	4305
2026-01-13 21:44:47.18	64.27	15.41	-49.6	-50.9	14.6	0.00e+00	0	27	0	810549248	65	4162
2026-01-13 21:44:50.18	64.90	15.46	-49.6	-50.9	14.5	0.00e+00	0	27	0	819986432	65	4182
2026-01-13 21:44:53.17	65.54	15.50	-49.6	-50.9	14.5	0.00e+00	0	27	0	829423616	65	4184
2026-01-13 21:44:56.14	66.17	15.54	-49.6	-50.9	14.5	0.00e+00	0	27	0	838860800	65	4186
2026-01-13 21:44:59.15	66.81	15.58	-49.8	-51.2	14.4	0.00e+00	0	27	0	848297984	65	4300
2026-01-13 21:45:02.13	67.45	15.61	-50.0	-51.3	14.4	0.00e+00	0	27	0	856686592	65	4390
2026-01-13 21:45:05.13	68.10	15.65	-49.8	-51.1	14.5	0.00e+00	0	27	0	866123776	65	4261
2026-01-13 21:45:08.12	68.74	15.67	-49.8	-51.1	14.5	0.00e+00	0	27	0	875560960	65	4276
2026-01-13 21:45:11.12	69.39	15.70	-49.9	-51.2	14.4	0.00e+00	0	27	0	884998144	65	4338
2026-01-13 21:45:14.10	70.03	15.72	-49.9	-51.2	14.4	0.00e+00	0	27	0	894435328	65	4319
2026-01-13 21:45:17.09	70.68	15.74	-49.8	-51.2	14.4	0.00e+00	0	27	0	903872512	65	4307
2026-01-13 21:45:20.08	71.33	15.75	-49.8	-51.1	14.5	0.00e+00	0	27	0	913309696	65	4280
2026-01-13 21:45:23.08	71.98	15.76	-49.8	-51.1	14.5	0.00e+00	0	27	0	922746880	65	4283
2026-01-13 21:45:26.08	72.63	15.77	-49.9	-51.2	14.4	0.00e+00	0	27	0	932184064	65	4333
2026-01-13 21:45:29.07	73.27	15.78	-49.9	-51.3	14.4	0.00e+00	0	27	0	941621248	65	4367
2026-01-13 21:45:32.06	73.92	15.78	-49.9	-51.3	14.4	0.00e+00	0	27	0	951058432	65	4351
2026-01-13 21:45:35.06	74.57	15.77	-49.8	-51.1	14.5	0.00e+00	0	27	0	960495616	65	4262
2026-01-13 21:45:38.04	75.22	15.77	-49.7	-51.0	14.5	0.00e+00	0	27	0	969932800	65	4234
2026-01-13 21:45:41.04	75.87	15.76	-49.7	-51.0	14.5	0.00e+00	0	27	0	979369984	65	4221
2026-01-13 21:45:44.04	76.52	15.75	-49.7	-51.1	14.5	0.00e+00	0	27	0	987758592	65	4248
2026-01-13 21:45:47.01	77.16	15.73	-49.6	-50.9	14.5	0.00e+00	0	27	0	997195776	65	4182
2026-01-13 21:45:50.02	77.81	15.71	-49.8	-51.2	14.4	0.00e+00	0	27	0	1006632960	65	4297
2026-01-13 21:45:53.01	78.46	15.69	-49.7	-51.0	14.5	0.00e+00	0	27	0	1016070144	65	4235
2026-01-13 21:45:56.00	79.11	15.66	-49.7	-51.1	14.5	0.00e+00	0	27	0	1025507328	65	4250
2026-01-13 21:45:58.99	79.75	15.63	-50.0	-51.4	14.4	0.00e+00	0	27	0	1034944512	65	4409
2026-01-13 21:46:02.00	80.40	15.60	-50.0	-51.4	14.3	0.00e+00	0	27	0	1044381696	65	4419
2026-01-13 21:46:04.99	81.04	15.56	-49.8	-51.1	14.4	0.00e+00	0	27	0	1053818880	65	4277
2026-01-13 21:46:07.98	81.68	15.52	-49.7	-51.0	14.5	0.00e+00	0	27	0	1063256064	65	4221
2026-01-13 21:46:10.97	82.31	15.48	-49.8	-51.2	14.4	0.00e+00	0	27	0	1072693248	65	4310
2026-01-13 21:46:13.97	82.95	15.43	-49.7	-51.1	14.5	0.00e+00	0	27	0	1082130432	65	4253
2026-01-13 21:46:16.97	83.59	15.38	-50.1	-51.5	14.3	0.00e+00	0	27	0	1090519040	65	4452
2026-01-13 21:46:19.95	84.22	15.33	-49.9	-51.2	14.4	0.00e+00	0	27	0	1099956224	65	4333
2026-01-13 21:46:22.94	84.85	15.27	-49.8	-51.1	14.4	0.00e+00	0	27	0	1109393408	65	4267
2026-01-13 21:46:25.94	85.48	15.21	-49.8	-51.2	14.4	0.00e+00	0	27	0	1118830592	65	4296
2026-01-13 21:46:28.94	86.10	15.15	-49.8	-51.2	14.4	0.00e+00	0	27	0	1128267776	65	4300
2026-01-13 21:46:31.93	86.72	15.09	-49.8	-51.2	14.4	0.00e+00	0	27	0	1137704960	65	4317
2026-01-13 21:46:34.93	87.35	15.02	-49.7	-51.0	14.5	0.00e+00	0	27	0	1147142144	65	4241
2026-01-13 21:46:37.93	87.96	14.95	-49.8	-51.1	14.4	0.00e+00	0	27	0	1156579328	65	4283
2026-01-13 21:46:40.92	88.58	14.87	-49.7	-51.0	14.5	0.00e+00	0	27	0	1166016512	65	4226
2026-01-13 21:46:43.90	89.19	14.80	-49.7	-51.0	14.5	0.00e+00	0	27	0	1175453696	65	4237
2026-01-13 21:46:46.90	89.80	14.72	-49.8	-51.1	14.5	0.00e+00	0	27	0	1184890880	65	4273
2026-01-13 21:46:49.88	90.40	14.64	-49.9	-51.3	14.4	0.00e+00	0	27	0	1194328064	65	4351
2026-01-13 21:46:52.88	91.00	14.55	-49.8	-51.2	14.4	0.00e+00	0	27	0	1202716672	65	4315
2026-01-13 21:46:55.87	91.60	14.46	-49.8	-51.1	14.4	0.00e+00	0	27	0	1212153856	65	4272
2026-01-13 21:46:58.85	92.19	14.37	-49.7	-51.1	14.5	0.00e+00	0	27	0	1221591040	65	4243
2026-01-13 21:47:01.85	92.79	14.28	-49.6	-51.0	14.5	0.00e+00	0	27	0	1231028224	65	4196
2026-01-13 21:47:04.85	93.38	14.19	-49.6	-50.9	14.5	0.00e+00	0	27	0	1240465408	65	4170
2026-01-13 21:47:07.85	93.96	14.09	-49.8	-51.1	14.4	0.00e+00	0	27	0	1249902592	65	4265
2026-01-13 21:47:10.83	94.54	13.99	-49.7	-51.0	14.5	0.00e+00	0	27	0	1259339776	65	4211
2026-01-13 21:47:13.83	95.12	13.89	-49.7	-51.0	14.5	0.00e+00	0	27	0	1268776960	65	4233
2026-01-13 21:47:16.81	95.69	13.78	-49.5	-50.9	14.5	0.00e+00	0	27	0	1278214144	65	4147
2026-01-13 21:47:19.80	96.26	13.68	-49.6	-51.0	14.5	0.00e+00	0	27	0	1287651328	65	4204
2026-01-13 21:47:22.79	96.82	13.57	-49.7	-51.1	14.4	0.00e+00	0	27	0	1297088512	65	4251
2026-01-13 21:47:25.78	97.38	13.46	-49.9	-51.3	14.4	0.00e+00	0	27	0	1306525696	65	4359
2026-01-13 21:47:28.77	97.94	13.35	-49.8	-51.1	14.4	0.00e+00	0	27	0	1314914304	65	4277
2026-01-13 21:47:31.76	98.49	13.23	-49.7	-51.1	14.4	0.00e+00	0	27	0	1324351488	65	4255
2026-01-13 21:47:34.74	99.04	13.12	-49.9	-51.3	14.3	0.00e+00	0	27	0	1333788672	65	4380
2026-01-13 21:47:37.74	99.59	13.00	-50.1	-51.5	14.3	0.00e+00	0	27	0	1343225856	65	4448
2026-01-13 21:47:40.73	100.13	12.88	-50.2	-51.7	14.2	0.00e+00	0	27	0	1352663040	65	4548
2026-01-13 21:47:43.70	100.66	12.76	-50.2	-51.6	14.2	0.00e+00	0	27	0	1362100224	65	4544
2026-01-13 21:47:46.68	101.19	12.64	-50.1	-51.5	14.3	0.00e+00	0	27	0	1371537408	65	4467
2026-01-13 21:47:49.68	101.72	12.51	-50.2	-51.6	14.2	0.00e+00	0	27	0	1380974592	65	4527
2026-01-13 21:47:52.68	102.24	12.39	-50.5	-52.0	14.2	0.00e+00	0	27	0	1390411776	66	4458
2026-01-13 21:47:55.66	102.76	12.26	-50.3	-51.8	14.3	0.00e+00	0	27	0	1399848960	66	4357
2026-01-13 21:47:58.67	103.28	12.13	-50.4	-51.8	14.2	0.00e+00	0	27	0	1409286144	66	4378
2026-01-13 21:48:01.67	103.79	12.00	-50.4	-51.9	14.2	0.00e+00	0	27	0	1418723328	66	4403
2026-01-13 21:48:04.66	104.30	11.87	-50.5	-51.9	14.2	0.00e+00	0	27	0	1427111936	66	4427
2026-01-13 21:48:07.65	104.80	11.74	-50.5	-51.9	14.2	0.00e+00	0	27	0	1436549120	66	4431
2026-01-13 21:48:10.66	105.30	11.60	-50.7	-52.2	14.1	0.00e+00	0	27	0	1445986304	66	4564
2026-01-13 21:48:13.66	105.79	11.47	-50.7	-52.1	14.1	0.00e+00	0	27	0	1455423488	66	4542
2026-01-13 21:48:16.67	106.28	11.33	-50.8	-52.3	14.0	0.00e+00	0	27	0	1464860672	66	4625
2026-01-13 21:48:19.66	106.77	11.19	-50.6	-52.1	14.1	0.00e+00	0	27	0	1474297856	66	4541
2026-01-13 21:48:22.66	107.25	11.05	-50.7	-52.2	14.1	0.00e+00	0	27	0	1483735040	66	4548
2026-01-13 21:48:25.65	107.72	10.91	-50.7	-52.2	14.1	0.00e+00	0	27	0	1493172224	66	4592
2026-01-13 21:48:28.64	108.19	10.77	-50.7	-52.2	14.1	0.00e+00	0	27	0	1502609408	66	4570
2026-01-13 21:48:31.64	108.66	10.63	-50.8	-52.4	14.0	0.00e+00	0	27	0	1512046592	66	4661
2026-01-13 21:48:34.63	109.12	10.49	-50.9	-52.5	14.1	0.00e+00	0	27	0	1521483776	67	4444
2026-01-13 21:48:37.62	109.58	10.35	-50.9	-52.5	14.0	0.00e+00	0	27	0	1530920960	67	4448
2026-01-13 21:48:40.60	110.03	10.20	-50.9	-52.5	14.0	0.00e+00	0	27	0	1540358144	67	4464
2026-01-13 21:48:43.59	110.48	10.06	-50.9	-52.4	14.1	0.00e+00	0	27	0	1549795328	67	4428
2026-01-13 21:48:46.58	110.93	9.91	-50.9	-52.4	14.1	0.00e+00	0	27	0	1558183936	67	4418
2026-01-13 21:48:49.57	111.37	9.77	-50.9	-52.4	14.1	0.00e+00	0	27	0	1567621120	67	4438
2026-01-13 21:48:52.55	111.80	9.62	-51.0	-52.5	14.0	0.00e+00	0	27	0	1577058304	67	4484
2026-01-13 21:48:55.55	112.24	9.48	-51.0	-52.6	14.0	0.00e+00	0	27	0	1586495488	67	4522
2026-01-13 21:48:58.53	112.66	9.33	-51.0	-52.6	14.0	0.00e+00	0	27	0	1595932672	67	4535
2026-01-13 21:49:01.53	113.09	9.18	-51.0	-52.5	14.0	0.00e+00	0	27	0	1605369856	67	4476
2026-01-13 21:49:04.53	113.51	9.03	-51.1	-52.7	13.9	0.00e+00	0	27	0	1614807040	67	4576
2026-01-13 21:49:07.52	113.93	8.88	-51.0	-52.6	13.9	0.00e+00	0	27	0	1624244224	67	4517
2026-01-13 21:49:10.46	114.33	8.74	-51.0	-52.6	14.0	0.00e+00	0	27	0	1633681408	67	4505
2026-01-13 21:49:13.47	114.74	8.59	-51.3	-52.9	13.8	0.00e+00	0	27	0	1643118592	67	4672
2026-01-13 21:49:16.46	115.15	8.44	-51.1	-52.7	13.9	0.00e+00	0	27	0	1652555776	67	4598
2026-01-13 21:49:19.46	115.55	8.29	-51.2	-52.8	13.8	0.00e+00	0	27	0	1661992960	67	4622
2026-01-13 21:49:22.45	115.94	8.14	-51.6	-53.3	13.7	0.00e+00	0	27	0	1670381568	68	4614
2026-01-13 21:49:25.45	116.34	7.98	-51.5	-53.2	13.7	0.00e+00	0	27	0	1679818752	68	4590
2026-01-13 21:49:28.44	116.72	7.83	-51.6	-53.3	13.7	0.00e+00	0	27	0	1689255936	68	4631
2026-01-13 21:49:31.44	117.11	7.68	-51.8	-53.6	13.5	0.00e+00	0	27	0	1698693120	68	4764
2026-01-13 21:49:34.43	117.49	7.53	-51.8	-53.6	13.5	0.00e+00	0	27	0	1708130304	68	4793
2026-01-13 21:49:37.42	117.87	7.38	-52.0	-53.8	13.5	0.00e+00	0	27	0	1717567488	69	4626
2026-01-13 21:49:40.42	118.24	7.23	-51.8	-53.6	13.6	0.00e+00	0	27	0	1727004672	69	4507
2026-01-13 21:49:43.41	118.61	7.08	-51.8	-53.6	13.6	0.00e+00	0	27	0	1736441856	69	4521
2026-01-13 21:49:46.38	118.97	6.93	-51.7	-53.5	13.6	0.00e+00	0	27	0	1745879040	69	4465
2026-01-13 21:49:49.37	119.33	6.77	-51.8	-53.7	13.5	0.00e+00	0	27	0	1755316224	69	4546
2026-01-13 21:49:52.34	119.69	6.62	-51.7	-53.5	13.6	0.00e+00	0	27	0	1764753408	69	4485
2026-01-13 21:49:55.33	120.05	6.47	-51.8	-53.6	13.5	0.00e+00	0	27	0	1774190592	69	4532
2026-01-13 21:49:58.32	120.40	6.32	-51.9	-53.8	13.4	0.00e+00	0	27	0	1782579200	69	4641
2026-01-13 21:50:01.30	120.74	6.17	-52.1	-54.1	13.3	0.00e+00	0	27	0	1792016384	69	4771
2026-01-13 21:50:04.31	121.09	6.02	-52.0	-53.9	13.4	0.00e+00	0	27	0	1801453568	69	4661
2026-01-13 21:50:07.30	121.43	5.86	-51.9	-53.7	13.4	0.00e+00	0	27	0	1810890752	69	4594
2026-01-13 21:50:10.30	121.77	5.71	-52.0	-53.9	13.3	0.00e+00	0	27	0	1820327936	69	4657
2026-01-13 21:50:13.31	122.11	5.56	-51.9	-53.8	13.3	0.00e+00	0	27	0	1829765120	69	4630
2026-01-13 21:50:16.30	122.44	5.41	-52.1	-54.1	13.2	0.00e+00	0	27	0	1839202304	69	4779
2026-01-13 21:50:19.29	122.77	5.26	-51.9	-53.9	13.3	0.00e+00	0	27	0	1848639488	69	4658
2026-01-13 21:50:22.27	123.09	5.11	-52.0	-54.0	13.1	0.00e+00	0	27	0	1858076672	69	4756
2026-01-13 21:50:25.27	123.41	4.95	-58.3	-71.3	3.8	1.25e+00	0	27	104	1866465280	81	17435
2026-01-13 21:50:28.28	123.73	4.80	-59.2	-73.0	3.8	1.49e+00	0	27	104	1866465280	83	18849
2026-01-13 21:50:31.27	124.05	4.65	-59.8	-73.6	3.8	1.49e+00	0	27	104	1866465280	84	19034
2026-01-13 21:50:34.26	124.36	4.50	-60.0	-73.9	3.8	1.49e+00	0	27	104	1866465280	85	18534
2026-01-13 21:50:37.24	124.67	4.35	-60.1	-74.0	3.8	1.49e+00	0	27	104	1866465280	85	18808
2026-01-13 21:50:40.25	124.97	4.20	-60.2	-74.1	3.8	1.49e+00	0	27	104	1866465280	85	19010
2026-01-13 21:50:43.23	125.27	4.05	-60.3	-74.2	3.8	1.49e+00	0	27	104	1866465280	85	19232
2026-01-13 21:50:46.22	125.57	3.90	-60.4	-74.2	3.8	1.49e+00	0	27	104	1866465280	85	19344
2026-01-13 21:50:49.20	125.87	3.75	-60.5	-74.3	3.8	1.49e+00	0	27	104	1866465280	86	18502
2026-01-13 21:50:52.18	126.16	3.60	-60.4	-74.3	3.8	1.49e+00	0	27	104	1866465280	86	18409
2026-01-13 21:50:55.18	126.46	3.45	-60.4	-74.3	3.8	1.49e+00	0	27	104	1866465280	86	18334
2026-01-13 21:50:58.18	126.75	3.30	-60.4	-74.2	3.8	1.49e+00	0	27	104	1866465280	86	18240
2026-01-13 21:51:01.18	127.03	3.15	-60.4	-74.2	3.8	1.49e+00	0	28	104	1866465280	86	18235
2026-01-13 21:51:04.18	127.32	3.00	-60.3	-74.2	3.8	1.49e+00	0	28	104	1866465280	86	18183
2026-01-13 21:51:07.19	127.60	2.85	-60.3	-74.2	3.8	1.49e+00	0	28	104	1866465280	86	18239
2026-01-13 21:51:10.20	127.88	2.70	-60.3	-74.2	3.8	1.49e+00	0	27	104	1866465280	86	18232
2026-01-13 21:51:13.20	128.15	2.56	-60.3	-74.2	3.8	1.49e+00	0	27	104	1866465280	86	18185
2026-01-13 21:51:16.22	128.43	2.41	-60.3	-74.2	3.8	1.49e+00	0	27	104	1866465280	86	18123
2026-01-13 21:51:19.22	128.70	2.26	-60.3	-74.2	3.8	1.49e+00	0	27	104	1866465280	86	18163
2026-01-13 21:51:22.22	128.97	2.11	-60.3	-74.2	3.8	1.49e+00	0	27	104	1866465280	86	18233
2026-01-13 21:51:25.22	129.23	1.96	-60.3	-74.2	3.8	1.49e+00	0	27	104	1866465280	86	18139

#Closed at: 2026-01-13 21:51:26
#Recorded file [1866 MB]: D:/lorett/data/31004_260114_003935.dat