passes_logs/2026/01/13/R3.2S_Murmansk/R3.2S_Murmansk__20260113_223203_KANOPUS-V_5_rec.log

#Pass ID: 20260113_223203_KANOPUS-V 5
#Satellite: KANOPUS-V 5
#Configuration: KANOPUS-V_8320
#almurnet v.1.7.20251203
#Start time: 2026-01-13 22:32:03

#Version: 2.2.20231116
#Station: R3.2S_Murmansk
#Location: 33.079688 lon 68.888172 lat
#TLE: 1 43876U 18111A   26013.65992293  .00002361  00000+0  10210-3 0  9995
#TLE: 2 43876  97.3684 282.1984 0001772  87.0401 273.1039 15.23431305391261

#Time	Az	El	Level	Level2	SNR	BER	BlckErr	Temp	State	Recorded	gain1	gain2
2026-01-13 22:32:03.90	20.81	2.04	-60.8	-70.6	3.8	7.45e-01	0	25	0	0	84	11967
2026-01-13 22:32:06.90	20.79	2.25	-60.9	-70.6	3.8	7.45e-01	0	25	104	0	86	10759
2026-01-13 22:32:09.89	20.76	2.46	-60.9	-70.6	3.8	7.45e-01	0	25	104	0	86	10758
2026-01-13 22:32:12.90	20.73	2.68	-60.9	-70.6	3.8	7.46e-01	0	26	104	0	86	10769
2026-01-13 22:32:15.90	20.71	2.89	-60.9	-70.6	3.8	7.47e-01	0	25	104	0	86	10764
2026-01-13 22:32:18.89	20.68	3.11	-60.9	-70.7	3.8	7.46e-01	0	26	104	0	86	10805
2026-01-13 22:32:21.90	20.65	3.33	-60.9	-70.7	3.8	7.46e-01	0	26	104	0	86	10790
2026-01-13 22:32:24.89	20.63	3.56	-60.9	-70.7	3.8	7.45e-01	0	26	104	0	86	10803
2026-01-13 22:32:27.89	20.60	3.78	-60.9	-70.6	3.8	7.45e-01	0	26	104	0	86	10769
2026-01-13 22:32:30.91	20.57	4.01	-60.9	-70.7	3.8	7.47e-01	0	26	104	0	86	10783
2026-01-13 22:32:33.91	20.53	4.24	-60.9	-70.6	3.8	7.44e-01	0	26	104	0	86	10766
2026-01-13 22:32:36.90	20.50	4.48	-60.9	-70.7	3.8	7.45e-01	0	26	104	0	86	10812
2026-01-13 22:32:39.90	20.47	4.71	-60.9	-70.7	3.8	7.45e-01	0	26	104	0	86	10800
2026-01-13 22:32:42.91	20.44	4.95	-60.9	-70.7	3.8	7.46e-01	0	26	104	0	86	10819
2026-01-13 22:32:45.91	20.40	5.20	-60.9	-70.7	3.8	7.45e-01	0	26	104	0	86	10786
2026-01-13 22:32:48.90	20.37	5.44	-60.9	-70.7	3.8	7.46e-01	0	26	104	0	86	10810
2026-01-13 22:32:51.90	20.33	5.69	-60.9	-70.7	3.8	7.46e-01	0	26	104	0	86	10827
2026-01-13 22:32:54.89	20.29	5.94	-60.9	-70.7	3.8	7.46e-01	0	26	104	0	86	10793
2026-01-13 22:32:57.88	20.25	6.19	-60.9	-70.7	3.8	7.45e-01	0	26	104	0	86	10830
2026-01-13 22:33:00.89	20.21	6.45	-60.9	-70.7	3.8	7.47e-01	0	27	104	0	86	10799
2026-01-13 22:33:03.90	20.17	6.72	-61.0	-70.7	3.8	7.45e-01	0	26	104	0	86	10844
2026-01-13 22:33:06.89	20.13	6.98	-61.0	-70.7	3.8	7.45e-01	0	26	104	0	86	10816
2026-01-13 22:33:09.89	20.08	7.25	-61.0	-70.7	3.8	7.46e-01	0	27	104	0	86	10807
2026-01-13 22:33:12.90	20.04	7.52	-61.0	-70.7	3.8	7.45e-01	0	27	104	0	86	10820
2026-01-13 22:33:15.90	19.99	7.80	-60.9	-70.7	3.8	7.45e-01	0	27	104	0	86	10802
2026-01-13 22:33:18.90	19.94	8.08	-61.0	-70.7	3.8	7.45e-01	0	27	104	0	86	10800
2026-01-13 22:33:21.90	19.89	8.37	-61.0	-70.7	3.8	7.44e-01	0	27	104	0	86	10793
2026-01-13 22:33:24.89	19.84	8.66	-60.9	-70.7	3.8	7.47e-01	0	27	104	0	86	10806
2026-01-13 22:33:27.88	19.79	8.95	-61.0	-70.7	3.8	7.44e-01	0	27	104	0	86	10863
2026-01-13 22:33:30.88	19.73	9.25	-61.0	-70.7	3.8	7.46e-01	0	27	104	0	86	10844
2026-01-13 22:33:33.90	19.68	9.56	-61.0	-70.7	3.8	7.45e-01	0	27	104	0	86	10833
2026-01-13 22:33:36.87	19.62	9.86	-60.9	-70.7	3.8	7.44e-01	0	27	104	0	86	10830
2026-01-13 22:33:39.87	19.56	10.18	-60.9	-70.7	3.8	7.45e-01	0	27	104	0	86	10811
2026-01-13 22:33:42.88	19.50	10.50	-61.0	-70.7	3.8	7.46e-01	0	27	104	0	86	10843
2026-01-13 22:33:45.87	19.43	10.82	-60.9	-70.7	3.8	7.44e-01	0	27	104	0	86	10822
2026-01-13 22:33:48.87	19.37	11.15	-61.0	-70.7	3.8	7.44e-01	0	27	104	0	86	10807
2026-01-13 22:33:51.87	19.30	11.49	-61.0	-70.7	3.8	7.48e-01	0	27	104	0	86	10793
2026-01-13 22:33:54.87	19.23	11.83	-61.0	-70.7	3.8	7.45e-01	0	27	104	0	86	10846
2026-01-13 22:33:57.88	19.15	12.18	-61.0	-70.7	3.8	7.45e-01	0	27	104	0	86	10852
2026-01-13 22:34:00.89	19.08	12.54	-61.0	-70.7	3.8	7.46e-01	0	27	104	0	86	10850
2026-01-13 22:34:03.88	19.00	12.90	-60.9	-70.7	3.8	7.44e-01	0	27	104	0	86	10794
2026-01-13 22:34:06.88	18.92	13.28	-61.0	-70.7	3.8	7.45e-01	0	27	104	0	86	10838
2026-01-13 22:34:09.88	18.83	13.65	-61.0	-70.7	3.8	7.45e-01	0	27	104	0	86	10833
2026-01-13 22:34:12.87	18.75	14.04	-61.0	-70.7	3.8	7.45e-01	0	27	104	0	86	10831
2026-01-13 22:34:15.87	18.66	14.43	-61.0	-70.7	3.8	7.46e-01	0	27	104	0	86	10820
2026-01-13 22:34:18.87	18.56	14.84	-61.0	-70.7	3.8	7.47e-01	0	27	104	0	86	10817
2026-01-13 22:34:21.87	18.47	15.25	-61.0	-70.7	3.8	7.46e-01	0	27	104	0	86	10820
2026-01-13 22:34:24.86	18.37	15.67	-61.0	-70.7	3.8	7.46e-01	0	27	104	0	86	10882
2026-01-13 22:34:27.85	18.26	16.10	-60.9	-70.7	3.8	7.45e-01	0	27	104	0	86	10781
2026-01-13 22:34:30.85	18.15	16.54	-61.0	-70.7	3.8	7.44e-01	0	27	104	0	86	10831
2026-01-13 22:34:33.84	18.04	16.99	-60.9	-70.7	3.8	7.44e-01	0	27	104	0	86	10814
2026-01-13 22:34:36.84	17.92	17.45	-60.9	-70.7	3.8	7.45e-01	0	27	104	0	86	10822
2026-01-13 22:34:39.84	17.80	17.92	-60.9	-70.7	3.8	7.45e-01	0	27	104	0	86	10829
2026-01-13 22:34:42.83	17.68	18.41	-61.0	-70.7	3.8	7.45e-01	0	27	104	0	86	10810
2026-01-13 22:34:45.82	17.54	18.90	-61.0	-70.7	3.8	7.46e-01	0	27	104	0	86	10836
2026-01-13 22:34:48.82	17.41	19.41	-60.9	-70.7	3.8	7.46e-01	0	27	104	0	86	10814
2026-01-13 22:34:51.81	17.26	19.93	-60.9	-70.7	3.8	7.46e-01	0	27	104	0	86	10807
2026-01-13 22:34:54.80	17.11	20.47	-60.9	-70.7	3.8	7.46e-01	0	27	104	0	86	10793
2026-01-13 22:34:57.80	16.95	21.02	-61.0	-70.7	3.8	7.46e-01	0	27	104	0	86	10824
2026-01-13 22:35:00.78	16.79	21.59	-60.9	-70.7	3.9	7.47e-01	0	27	104	0	86	10810
2026-01-13 22:35:03.78	16.62	22.17	-61.0	-70.7	3.8	7.46e-01	0	27	104	0	86	10845
2026-01-13 22:35:06.76	16.44	22.77	-61.0	-70.7	3.8	7.45e-01	0	27	104	0	86	10866
2026-01-13 22:35:09.75	16.25	23.38	-61.0	-70.7	3.8	7.46e-01	0	27	104	0	86	10860
2026-01-13 22:35:12.75	16.06	24.02	-60.9	-70.7	3.8	7.45e-01	0	27	104	0	86	10793
2026-01-13 22:35:15.74	15.85	24.68	-61.0	-70.7	3.8	7.46e-01	0	27	104	0	86	10826
2026-01-13 22:35:18.74	15.63	25.35	-60.9	-70.7	3.8	7.45e-01	0	27	104	0	86	10788
2026-01-13 22:35:21.73	15.40	26.05	-61.0	-70.7	3.8	7.47e-01	0	27	104	0	86	10826
2026-01-13 22:35:24.73	15.16	26.77	-60.9	-70.7	3.8	7.44e-01	0	27	104	0	86	10817
2026-01-13 22:35:27.72	14.91	27.51	-60.9	-70.7	3.8	7.44e-01	0	27	104	0	86	10849
2026-01-13 22:35:30.73	14.64	28.28	-61.0	-70.7	3.8	7.46e-01	0	27	104	0	86	10821
2026-01-13 22:35:33.73	14.35	29.08	-61.0	-70.7	3.8	7.45e-01	0	27	104	0	86	10812
2026-01-13 22:35:36.73	14.05	29.90	-60.9	-70.6	3.8	7.46e-01	0	27	104	0	86	10766
2026-01-13 22:35:39.72	13.73	30.75	-60.9	-70.7	3.8	7.45e-01	0	27	104	0	86	10799
2026-01-13 22:35:42.72	13.40	31.63	-60.9	-70.7	3.8	7.48e-01	0	27	104	0	86	10826
2026-01-13 22:35:45.72	13.04	32.54	-60.9	-70.7	3.8	7.47e-01	0	27	104	0	86	10824
2026-01-13 22:35:48.71	12.65	33.47	-61.0	-70.7	3.8	7.45e-01	0	27	104	0	86	10812
2026-01-13 22:35:51.71	12.24	34.45	-61.0	-70.7	3.8	7.46e-01	0	27	104	0	86	10844
2026-01-13 22:35:54.69	11.81	35.46	-60.9	-70.7	3.8	7.46e-01	0	27	104	0	86	10800
2026-01-13 22:35:57.68	11.34	36.50	-61.0	-70.7	3.8	7.45e-01	0	27	104	0	86	10832
2026-01-13 22:36:00.65	10.85	37.58	-61.0	-70.7	3.8	7.46e-01	0	27	104	0	86	10827
2026-01-13 22:36:03.64	10.31	38.70	-61.0	-70.7	3.8	7.46e-01	0	27	104	0	86	10831
2026-01-13 22:36:06.65	9.72	39.87	-61.0	-70.7	3.8	7.46e-01	0	27	104	0	86	10826
2026-01-13 22:36:09.65	9.09	41.08	-60.9	-70.7	3.8	7.45e-01	0	27	104	0	86	10821
2026-01-13 22:36:12.64	8.41	42.32	-60.9	-70.7	3.8	7.46e-01	0	27	104	0	86	10800
2026-01-13 22:36:15.65	7.66	43.63	-61.0	-70.7	3.8	7.46e-01	0	28	104	0	86	10813
2026-01-13 22:36:18.65	6.85	44.97	-61.0	-70.7	3.8	7.47e-01	0	27	104	0	86	10800
2026-01-13 22:36:21.66	5.96	46.36	-60.9	-70.7	3.8	7.45e-01	0	27	104	0	86	10815
2026-01-13 22:36:24.67	4.98	47.80	-60.9	-70.7	3.8	7.45e-01	0	27	104	0	86	10796
2026-01-13 22:36:27.67	3.91	49.28	-61.0	-70.7	3.8	7.47e-01	0	27	104	0	86	10797
2026-01-13 22:36:30.68	2.71	50.81	-61.0	-70.7	3.8	7.45e-01	0	27	104	0	86	10824
2026-01-13 22:36:33.67	1.39	52.38	-61.0	-70.7	3.8	7.45e-01	0	27	104	0	86	10825
2026-01-13 22:36:36.68	359.90	53.99	-61.0	-70.7	3.8	7.46e-01	0	27	104	0	86	10847
2026-01-13 22:36:39.67	358.24	55.63	-60.9	-70.7	3.8	7.46e-01	0	27	104	0	86	10849
2026-01-13 22:36:42.67	356.37	57.30	-60.9	-70.6	3.8	7.45e-01	0	27	104	0	86	10760
2026-01-13 22:36:45.67	354.23	58.99	-61.0	-70.7	3.8	7.46e-01	0	27	104	0	86	10824
2026-01-13 22:36:48.68	351.80	60.70	-61.0	-70.7	3.8	7.46e-01	0	27	104	0	86	10868
2026-01-13 22:36:51.67	349.02	62.40	-61.0	-70.7	3.8	7.45e-01	0	27	104	0	86	10837
2026-01-13 22:36:54.66	345.81	64.07	-60.9	-70.7	3.8	7.45e-01	0	28	104	0	86	10806
2026-01-13 22:36:57.66	342.10	65.71	-60.9	-70.7	3.8	7.46e-01	0	27	104	0	86	10798
2026-01-13 22:37:00.65	337.80	67.27	-61.0	-70.7	3.8	7.46e-01	0	27	104	0	86	10822
2026-01-13 22:37:03.66	332.80	68.74	-61.0	-70.7	3.8	7.45e-01	0	27	104	0	86	10810
2026-01-13 22:37:06.66	327.04	70.05	-60.9	-70.7	3.8	7.46e-01	0	27	104	0	86	10823
2026-01-13 22:37:09.66	320.49	71.16	-60.9	-70.7	3.8	7.44e-01	0	27	104	0	86	10793
2026-01-13 22:37:12.66	313.15	72.02	-60.9	-70.7	3.8	7.45e-01	0	27	104	0	86	10854
2026-01-13 22:37:15.67	305.14	72.59	-61.0	-70.7	3.8	7.45e-01	0	27	104	0	86	10794
2026-01-13 22:37:18.69	296.71	72.81	-61.0	-70.7	3.8	7.45e-01	0	27	104	0	86	10842
2026-01-13 22:37:21.69	288.29	72.68	-60.9	-70.6	3.8	7.43e-01	0	27	104	0	86	10776
2026-01-13 22:37:24.68	280.20	72.20	-60.9	-70.6	3.8	7.43e-01	0	27	104	0	86	10775
2026-01-13 22:37:27.69	272.64	71.41	-60.9	-70.6	3.8	7.45e-01	0	27	104	0	86	10777
2026-01-13 22:37:30.68	265.89	70.36	-60.9	-70.6	3.8	7.45e-01	0	27	104	0	86	10767
2026-01-13 22:37:33.68	259.92	69.10	-60.9	-70.7	3.8	7.46e-01	0	27	104	0	86	10809
2026-01-13 22:37:36.67	254.75	67.68	-60.9	-70.7	3.8	7.45e-01	0	27	104	0	86	10788
2026-01-13 22:37:39.68	250.25	66.13	-60.9	-70.6	3.8	7.46e-01	0	27	104	0	86	10757
2026-01-13 22:37:42.69	246.37	64.50	-60.9	-70.7	3.8	7.45e-01	0	27	104	0	86	10807
2026-01-13 22:37:45.70	243.02	62.82	-60.9	-70.7	3.8	7.47e-01	0	28	104	0	86	10793
2026-01-13 22:37:48.70	240.13	61.11	-60.9	-70.7	3.8	7.44e-01	0	28	104	0	86	10783
2026-01-13 22:37:51.70	237.61	59.41	-60.9	-70.7	3.8	7.47e-01	0	27	104	0	86	10799
2026-01-13 22:37:54.70	235.40	57.70	-60.9	-70.7	3.8	7.45e-01	0	27	104	0	86	10811
2026-01-13 22:37:57.69	233.47	56.03	-60.9	-70.6	3.8	7.46e-01	0	27	104	0	86	10774
2026-01-13 22:38:00.67	231.76	54.38	-60.9	-70.7	3.8	7.45e-01	0	28	104	0	86	10805
2026-01-13 22:38:03.66	230.24	52.77	-60.9	-70.6	3.8	7.46e-01	0	27	104	0	86	10777
2026-01-13 22:38:06.66	228.87	51.18	-60.9	-70.7	3.8	7.46e-01	0	27	104	0	86	10805
2026-01-13 22:38:09.67	227.64	49.64	-60.9	-70.7	3.8	7.46e-01	0	27	104	0	86	10814
2026-01-13 22:38:12.68	226.53	48.14	-60.9	-70.7	3.8	7.47e-01	0	27	104	0	86	10803
2026-01-13 22:38:15.67	225.53	46.69	-60.9	-70.7	3.8	7.46e-01	0	27	104	0	86	10845
2026-01-13 22:38:18.68	224.62	45.28	-60.9	-70.7	3.8	7.45e-01	0	27	104	0	86	10809
2026-01-13 22:38:21.67	223.79	43.93	-60.9	-70.6	3.8	7.44e-01	0	27	104	0	86	10777
2026-01-13 22:38:24.68	223.03	42.61	-60.9	-70.6	3.8	7.44e-01	0	27	104	0	86	10773
2026-01-13 22:38:27.70	222.32	41.33	-60.9	-70.6	3.8	7.46e-01	0	27	104	0	86	10751
2026-01-13 22:38:30.70	221.68	40.11	-60.9	-70.6	3.8	7.44e-01	0	27	104	0	86	10745
2026-01-13 22:38:33.71	221.08	38.93	-60.9	-70.7	3.8	7.46e-01	0	27	104	0	86	10785
2026-01-13 22:38:36.71	220.53	37.79	-60.9	-70.6	3.8	7.47e-01	0	28	104	0	86	10767
2026-01-13 22:38:39.71	220.02	36.69	-60.9	-70.7	3.8	7.44e-01	0	28	104	0	86	10827
2026-01-13 22:38:42.72	219.54	35.62	-60.9	-70.7	3.8	7.45e-01	0	28	104	0	86	10787
2026-01-13 22:38:45.72	219.09	34.60	-60.9	-70.7	3.8	7.44e-01	0	27	104	0	86	10794
2026-01-13 22:38:48.72	218.67	33.61	-60.9	-70.7	3.8	7.46e-01	0	27	104	0	86	10780
2026-01-13 22:38:51.71	218.29	32.67	-60.9	-70.6	3.8	7.45e-01	0	28	104	0	86	10773
2026-01-13 22:38:54.70	217.92	31.75	-60.9	-70.7	3.8	7.47e-01	0	27	104	0	86	10821
2026-01-13 22:38:57.69	217.58	30.86	-60.9	-70.7	3.8	7.46e-01	0	27	104	0	86	10794
2026-01-13 22:39:00.68	217.25	30.01	-60.9	-70.7	3.8	7.45e-01	0	27	104	0	86	10795
2026-01-13 22:39:03.67	216.95	29.18	-60.9	-70.7	3.8	7.45e-01	0	27	104	0	86	10782
2026-01-13 22:39:06.67	216.66	28.38	-60.9	-70.7	3.8	7.46e-01	0	27	104	0	86	10781
2026-01-13 22:39:09.66	216.39	27.60	-60.9	-70.7	3.8	7.47e-01	0	28	104	0	86	10787
2026-01-13 22:39:12.65	216.13	26.85	-60.9	-70.7	3.8	7.46e-01	0	28	104	0	86	10787
2026-01-13 22:39:15.66	215.88	26.12	-60.9	-70.7	3.8	7.46e-01	0	27	104	0	86	10788
2026-01-13 22:39:18.66	215.65	25.42	-60.9	-70.7	3.8	7.42e-01	0	28	104	0	86	10791
2026-01-13 22:39:21.66	215.43	24.73	-60.9	-70.7	3.8	7.45e-01	0	27	104	0	86	10803
2026-01-13 22:39:24.66	215.22	24.07	-60.9	-70.6	3.8	7.45e-01	0	27	104	0	86	10755
2026-01-13 22:39:27.66	215.02	23.43	-60.9	-70.7	3.8	7.45e-01	0	27	104	0	86	10795
2026-01-13 22:39:30.67	214.83	22.80	-61.0	-70.7	3.8	7.45e-01	0	27	104	0	86	10806
2026-01-13 22:39:33.68	214.64	22.19	-61.0	-70.7	3.8	7.46e-01	0	27	104	0	86	10836
2026-01-13 22:39:36.68	214.47	21.60	-60.9	-70.7	3.8	7.47e-01	0	27	104	0	86	10854
2026-01-13 22:39:39.67	214.30	21.03	-60.9	-70.7	3.8	7.46e-01	0	28	104	0	86	10834
2026-01-13 22:39:42.67	214.14	20.48	-60.9	-70.7	3.8	7.43e-01	0	28	104	0	86	10827
2026-01-13 22:39:45.67	213.99	19.93	-60.9	-70.7	3.8	7.46e-01	0	27	104	0	86	10799
2026-01-13 22:39:48.68	213.84	19.40	-60.9	-70.7	3.8	7.46e-01	0	27	104	0	86	10813
2026-01-13 22:39:51.67	213.70	18.89	-60.9	-70.6	3.8	7.45e-01	0	27	104	0	86	10778
2026-01-13 22:39:54.68	213.57	18.39	-60.8	-70.7	3.8	7.46e-01	0	28	104	0	86	10803
2026-01-13 22:39:57.67	213.44	17.90	-60.8	-70.7	3.8	7.45e-01	0	27	104	0	86	10794
2026-01-13 22:40:00.67	213.32	17.42	-60.9	-70.6	3.8	7.45e-01	0	28	104	0	86	10769
2026-01-13 22:40:03.67	213.20	16.96	-60.9	-70.7	3.8	7.45e-01	0	28	104	0	86	10790
2026-01-13 22:40:06.67	213.08	16.51	-60.9	-70.7	3.8	7.46e-01	0	28	104	0	86	10796
2026-01-13 22:40:09.66	212.97	16.06	-60.9	-70.7	3.8	7.46e-01	0	27	104	0	86	10818
2026-01-13 22:40:12.67	212.86	15.63	-60.9	-70.7	3.8	7.46e-01	0	28	104	0	86	10801
2026-01-13 22:40:15.67	212.76	15.21	-60.9	-70.6	3.8	7.45e-01	0	28	104	0	86	10767
2026-01-13 22:40:18.67	212.66	14.79	-60.9	-70.7	3.8	7.45e-01	0	28	104	0	86	10796
2026-01-13 22:40:21.67	212.57	14.39	-60.9	-70.7	3.8	7.45e-01	0	28	104	0	86	10790
2026-01-13 22:40:24.68	212.48	13.99	-60.9	-70.7	3.8	7.45e-01	0	27	104	0	86	10818
2026-01-13 22:40:27.69	212.39	13.60	-60.9	-70.6	3.8	7.45e-01	0	28	104	0	86	10777
2026-01-13 22:40:30.68	212.30	13.22	-60.9	-70.7	3.8	7.45e-01	0	28	104	0	86	10805
2026-01-13 22:40:33.69	212.22	12.84	-60.9	-70.6	3.8	7.45e-01	0	28	104	0	86	10770
2026-01-13 22:40:36.69	212.14	12.48	-60.9	-70.7	3.8	7.44e-01	0	27	104	0	86	10805
2026-01-13 22:40:39.69	212.06	12.12	-60.9	-70.7	3.8	7.45e-01	0	28	104	0	86	10784
2026-01-13 22:40:42.70	211.99	11.77	-60.9	-70.6	3.8	7.45e-01	0	28	104	0	86	10776
2026-01-13 22:40:45.69	211.91	11.42	-60.9	-70.7	3.8	7.45e-01	0	27	104	0	86	10831
2026-01-13 22:40:48.69	211.84	11.09	-60.9	-70.7	3.8	7.45e-01	0	28	104	0	86	10782
2026-01-13 22:40:51.69	211.78	10.75	-60.9	-70.7	3.8	7.45e-01	0	27	104	0	86	10809
2026-01-13 22:40:54.69	211.71	10.43	-60.9	-70.6	3.8	7.48e-01	0	28	104	0	86	10745
2026-01-13 22:40:57.67	211.65	10.11	-60.9	-70.7	3.8	7.47e-01	0	28	104	0	86	10780
2026-01-13 22:41:00.66	211.58	9.79	-60.9	-70.6	3.8	7.46e-01	0	28	104	0	86	10773
2026-01-13 22:41:03.67	211.52	9.48	-60.9	-70.6	3.8	7.44e-01	0	28	104	0	86	10766
2026-01-13 22:41:06.66	211.47	9.18	-60.9	-70.6	3.8	7.46e-01	0	28	104	0	86	10770
2026-01-13 22:41:09.66	211.41	8.88	-60.9	-70.7	3.8	7.45e-01	0	28	104	0	86	10798
2026-01-13 22:41:12.65	211.36	8.58	-60.9	-70.7	3.8	7.46e-01	0	28	104	0	86	10788
2026-01-13 22:41:15.66	211.30	8.29	-60.9	-70.6	3.8	7.47e-01	0	28	104	0	86	10767
2026-01-13 22:41:18.66	211.25	8.00	-60.9	-70.6	3.8	7.46e-01	0	27	104	0	86	10739
2026-01-13 22:41:21.66	211.20	7.72	-60.9	-70.6	3.8	7.44e-01	0	28	104	0	86	10754
2026-01-13 22:41:24.66	211.15	7.44	-60.9	-70.6	3.8	7.46e-01	0	28	104	0	86	10760
2026-01-13 22:41:27.67	211.10	7.17	-60.9	-70.6	3.8	7.46e-01	0	27	104	0	86	10761
2026-01-13 22:41:30.67	211.06	6.90	-60.9	-70.6	3.8	7.44e-01	0	28	104	0	86	10758
2026-01-13 22:41:33.67	211.01	6.63	-60.9	-70.7	3.8	7.46e-01	0	27	104	0	86	10783
2026-01-13 22:41:36.66	210.97	6.37	-60.9	-70.6	3.8	7.46e-01	0	28	104	0	86	10767
2026-01-13 22:41:39.66	210.93	6.11	-60.9	-70.6	3.8	7.46e-01	0	27	104	0	86	10775
2026-01-13 22:41:42.65	210.89	5.85	-60.9	-70.7	3.8	7.46e-01	0	28	104	0	86	10786
2026-01-13 22:41:45.65	210.85	5.60	-60.9	-70.6	3.8	7.46e-01	0	27	104	0	86	10744
2026-01-13 22:41:48.65	210.81	5.35	-60.9	-70.7	3.8	7.46e-01	0	27	104	0	86	10786
2026-01-13 22:41:51.65	210.77	5.10	-60.9	-70.6	3.8	7.46e-01	0	28	104	0	86	10752
2026-01-13 22:41:54.64	210.73	4.86	-60.9	-70.6	3.8	7.46e-01	0	27	104	0	86	10720
2026-01-13 22:41:57.64	210.70	4.62	-60.9	-70.7	3.8	7.46e-01	0	28	104	0	86	10782
2026-01-13 22:42:00.63	210.66	4.38	-60.9	-70.7	3.8	7.45e-01	0	27	104	0	86	10784
2026-01-13 22:42:03.63	210.63	4.15	-60.9	-70.7	3.8	7.46e-01	0	28	104	0	86	10779
2026-01-13 22:42:06.62	210.60	3.92	-60.9	-70.6	3.8	7.46e-01	0	28	104	0	86	10773
2026-01-13 22:42:09.61	210.57	3.69	-60.9	-70.7	3.8	7.44e-01	0	28	104	0	86	10788
2026-01-13 22:42:12.62	210.53	3.46	-60.9	-70.6	3.8	7.46e-01	0	27	104	0	86	10731
2026-01-13 22:42:15.61	210.50	3.24	-60.9	-70.6	3.8	7.44e-01	0	28	104	0	86	10769
2026-01-13 22:42:18.61	210.47	3.02	-60.9	-70.6	3.8	7.46e-01	0	28	104	0	86	10773
2026-01-13 22:42:21.62	210.44	2.79	-60.9	-70.7	3.8	7.46e-01	0	28	104	0	86	10780
2026-01-13 22:42:24.62	210.42	2.58	-60.9	-70.6	3.8	7.46e-01	0	28	104	0	86	10761
2026-01-13 22:42:27.60	210.39	2.36	-60.9	-70.6	3.8	7.44e-01	0	28	104	0	86	10742
2026-01-13 22:42:30.59	210.36	2.15	-60.9	-70.6	3.8	7.46e-01	0	28	104	0	86	10774
2026-01-13 22:42:33.58	210.34	1.94	-60.9	-70.6	3.8	7.46e-01	0	27	104	0	86	10747

#Closed at: 2026-01-13 22:42:35
#Recorded file [0 MB]: D:/lorett/data/31004_260114_013203.dat