passes_logs/2026/01/13/R3.2S_Murmansk/R3.2S_Murmansk__20260113_093626_NOAA_21_JPSS-2_rec.log

#Pass ID: 20260113_093626_NOAA 21 (JPSS-2)
#Satellite: NOAA 21 (JPSS-2)
#Configuration: NOAA-21
#almurnet v.1.7.20251203
#Start time: 2026-01-13 09:36:27

#Version: 2.2.20231116
#Station: R3.2S_Murmansk
#Location: 33.079688 lon 68.888172 lat
#TLE: 1 54234U 22150A   26013.10960858  .00000050  00000+0  44556-4 0  9999
#TLE: 2 54234  98.7496 314.0323 0000695 304.2210  55.8900 14.19534407164546

#Time	Az	El	Level	Level2	SNR	BER	BlckErr	Temp	State	Recorded	gain1	gain2
2026-01-13 09:36:27.26	153.71	2.04	-58.0	-71.8	3.8	1.49e+00	0	24	0	0	82	17341
2026-01-13 09:36:31.23	153.73	2.30	-58.0	-71.6	3.8	1.49e+00	0	24	104	0	81	18001
2026-01-13 09:36:35.22	153.75	2.56	-58.0	-71.4	3.8	1.49e+00	0	24	104	0	81	17602
2026-01-13 09:36:39.21	153.77	2.82	-58.0	-71.2	3.8	1.49e+00	0	24	104	0	81	17220
2026-01-13 09:36:43.19	153.79	3.09	-58.0	-71.7	3.8	1.49e+00	0	25	104	0	81	18185
2026-01-13 09:36:47.15	153.81	3.35	-57.9	-69.9	3.8	1.49e+00	0	25	104	0	81	14713
2026-01-13 09:36:51.11	153.83	3.62	-57.5	-66.2	4.9	1.28e+00	2	25	104	0	81	9664
2026-01-13 09:36:55.08	153.86	3.89	-57.0	-63.4	6.7	2.03e-01	0	25	0	11534336	80	7431
2026-01-13 09:36:59.07	153.88	4.17	-55.7	-59.9	9.8	4.77e-03	0	25	0	24117248	78	5546
2026-01-13 09:37:03.03	153.90	4.44	-53.8	-56.4	12.3	2.20e-06	0	25	0	35651584	74	4670
2026-01-13 09:37:06.99	153.92	4.72	-52.5	-54.6	13.2	0.00e+00	0	25	0	48234496	71	4509
2026-01-13 09:37:10.97	153.94	5.00	-52.5	-54.7	13.0	0.00e+00	0	25	0	60817408	70	4830
2026-01-13 09:37:14.96	153.96	5.29	-55.0	-58.3	11.0	1.82e-04	0	25	0	73400320	76	5195
2026-01-13 09:37:18.95	153.99	5.58	-52.2	-54.1	13.4	0.00e+00	0	25	0	85983232	70	4523
2026-01-13 09:37:22.92	154.01	5.87	-52.0	-53.8	13.6	0.00e+00	0	25	0	98566144	70	4384
2026-01-13 09:37:26.90	154.03	6.17	-51.9	-53.7	13.7	0.00e+00	0	25	0	110100480	70	4305
2026-01-13 09:37:30.84	154.05	6.47	-51.8	-53.6	13.8	0.00e+00	0	25	0	122683392	70	4246
2026-01-13 09:37:34.81	154.08	6.77	-51.6	-53.3	13.8	0.00e+00	0	25	0	135266304	69	4384
2026-01-13 09:37:38.78	154.10	7.08	-51.6	-53.3	13.8	0.00e+00	0	25	0	147849216	69	4389
2026-01-13 09:37:42.75	154.12	7.39	-51.5	-53.2	14.0	0.00e+00	0	25	0	160432128	69	4312
2026-01-13 09:37:46.71	154.15	7.70	-51.5	-53.2	14.0	0.00e+00	0	25	0	173015040	69	4295
2026-01-13 09:37:50.69	154.17	8.02	-51.3	-53.0	14.1	0.00e+00	0	26	0	184549376	69	4206
2026-01-13 09:37:54.67	154.20	8.34	-51.3	-53.0	14.1	0.00e+00	0	25	0	197132288	69	4200
2026-01-13 09:37:58.63	154.22	8.66	-51.2	-52.8	14.0	0.00e+00	0	25	0	209715200	68	4390
2026-01-13 09:38:02.60	154.25	8.99	-51.2	-52.8	14.1	0.00e+00	0	25	0	222298112	68	4356
2026-01-13 09:38:06.56	154.27	9.33	-51.1	-52.7	14.1	0.00e+00	0	26	0	234881024	68	4315
2026-01-13 09:38:10.54	154.30	9.67	-50.9	-52.4	14.3	0.00e+00	0	26	0	247463936	68	4165
2026-01-13 09:38:14.51	154.32	10.01	-50.8	-52.3	14.3	0.00e+00	0	26	0	258998272	68	4118
2026-01-13 09:38:18.48	154.35	10.36	-50.5	-52.0	14.3	0.00e+00	0	26	0	271581184	67	4229
2026-01-13 09:38:22.47	154.37	10.71	-50.4	-51.8	14.4	0.00e+00	0	26	0	284164096	67	4144
2026-01-13 09:38:26.44	154.40	11.07	-50.5	-52.0	14.4	0.00e+00	0	25	0	296747008	67	4216
2026-01-13 09:38:30.41	154.43	11.44	-50.2	-51.6	14.5	0.00e+00	0	26	0	309329920	67	4041
2026-01-13 09:38:34.39	154.45	11.81	-50.1	-51.6	14.4	0.00e+00	0	26	0	321912832	66	4252
2026-01-13 09:38:38.36	154.48	12.18	-50.0	-51.4	14.5	0.00e+00	0	26	0	334495744	66	4163
2026-01-13 09:38:42.34	154.51	12.56	-50.1	-51.5	14.5	0.00e+00	0	26	0	346030080	66	4198
2026-01-13 09:38:46.33	154.53	12.95	-49.8	-51.2	14.7	0.00e+00	0	26	0	358612992	66	4057
2026-01-13 09:38:50.30	154.56	13.35	-49.8	-51.2	14.7	0.00e+00	0	26	0	371195904	66	4052
2026-01-13 09:38:54.27	154.59	13.75	-49.7	-51.1	14.5	0.00e+00	0	26	0	383778816	65	4263
2026-01-13 09:38:58.24	154.62	14.15	-49.7	-51.0	14.6	0.00e+00	0	26	0	396361728	65	4239
2026-01-13 09:39:02.21	154.65	14.56	-49.7	-51.0	14.6	0.00e+00	0	26	0	408944640	65	4217
2026-01-13 09:39:06.19	154.68	14.99	-49.5	-50.8	14.7	0.00e+00	0	26	0	420478976	65	4127
2026-01-13 09:39:10.15	154.71	15.41	-49.5	-50.8	14.7	0.00e+00	0	26	0	433061888	65	4106
2026-01-13 09:39:14.13	154.74	15.85	-49.5	-50.8	14.7	0.00e+00	0	26	0	445644800	65	4139
2026-01-13 09:39:18.12	154.77	16.30	-49.6	-50.9	14.6	0.00e+00	0	26	0	458227712	65	4172
2026-01-13 09:39:22.08	154.81	16.75	-49.6	-50.9	14.6	0.00e+00	0	26	0	470810624	65	4174
2026-01-13 09:39:26.06	154.84	17.21	-49.6	-50.9	14.6	0.00e+00	0	26	0	483393536	65	4167
2026-01-13 09:39:30.03	154.87	17.68	-49.8	-51.1	14.6	0.00e+00	0	26	0	494927872	65	4259
2026-01-13 09:39:34.01	154.90	18.16	-49.8	-51.1	14.6	0.00e+00	0	26	0	507510784	65	4267
2026-01-13 09:39:37.98	154.94	18.64	-49.9	-51.2	14.5	0.00e+00	0	26	0	520093696	65	4338
2026-01-13 09:39:41.95	154.97	19.14	-49.7	-51.1	14.6	0.00e+00	0	26	0	532676608	65	4256
2026-01-13 09:39:45.93	155.01	19.65	-49.7	-51.0	14.6	0.00e+00	0	26	0	545259520	65	4218
2026-01-13 09:39:49.90	155.05	20.17	-49.6	-50.9	14.7	0.00e+00	0	26	0	557842432	65	4173
2026-01-13 09:39:53.89	155.08	20.70	-49.4	-50.7	14.7	0.00e+00	0	26	0	570425344	65	4070
2026-01-13 09:39:57.86	155.12	21.24	-49.2	-50.5	14.7	0.00e+00	0	26	0	581959680	64	4199
2026-01-13 09:40:01.84	155.16	21.79	-48.8	-50.0	14.9	0.00e+00	0	26	0	594542592	64	3993
2026-01-13 09:40:05.83	155.20	22.36	-48.6	-49.8	14.8	0.00e+00	0	26	0	607125504	63	4120
2026-01-13 09:40:09.81	155.24	22.94	-48.4	-49.6	14.9	0.00e+00	0	26	0	619708416	63	4021
2026-01-13 09:40:13.79	155.28	23.53	-48.3	-49.5	15.0	0.00e+00	0	26	0	632291328	63	3962
2026-01-13 09:40:17.76	155.33	24.14	-48.3	-49.5	15.0	0.00e+00	0	26	0	644874240	63	3962
2026-01-13 09:40:21.73	155.37	24.76	-48.5	-49.7	14.9	0.00e+00	0	26	0	657457152	63	4052
2026-01-13 09:40:25.70	155.41	25.39	-48.6	-49.8	14.9	0.00e+00	0	26	0	668991488	63	4122
2026-01-13 09:40:29.68	155.46	26.04	-48.8	-50.0	14.8	0.00e+00	0	26	0	681574400	63	4221
2026-01-13 09:40:33.64	155.51	26.70	-49.1	-50.4	14.6	0.00e+00	0	26	0	694157312	63	4403
2026-01-13 09:40:37.61	155.56	27.39	-49.5	-50.7	14.6	0.00e+00	0	26	0	706740224	64	4340
2026-01-13 09:40:41.58	155.61	28.09	-49.7	-51.0	14.5	0.00e+00	0	26	0	719323136	64	4471
2026-01-13 09:40:45.54	155.66	28.80	-50.1	-51.4	14.4	0.00e+00	0	26	0	730857472	65	4439
2026-01-13 09:40:49.52	155.71	29.54	-49.9	-51.2	14.6	0.00e+00	0	26	0	743440384	65	4315
2026-01-13 09:40:53.50	155.77	30.30	-49.7	-51.0	14.6	0.00e+00	0	26	0	756023296	65	4216
2026-01-13 09:40:57.48	155.83	31.08	-49.2	-50.4	14.9	0.00e+00	0	26	0	768606208	65	3955
2026-01-13 09:41:01.45	155.89	31.87	-49.1	-50.4	14.8	0.00e+00	0	26	0	781189120	64	4148
2026-01-13 09:41:05.42	155.95	32.69	-49.1	-50.3	14.8	0.00e+00	0	26	0	793772032	64	4115
2026-01-13 09:41:09.38	156.01	33.53	-49.6	-50.8	14.6	0.00e+00	0	26	0	806354944	64	4383
2026-01-13 09:41:13.37	156.08	34.41	-50.2	-51.5	14.4	0.00e+00	0	26	0	817889280	65	4481
2026-01-13 09:41:17.34	156.15	35.30	-50.6	-52.0	14.3	0.00e+00	0	26	0	830472192	66	4486
2026-01-13 09:41:21.32	156.23	36.22	-51.2	-52.7	14.1	0.00e+00	0	26	0	843055104	67	4592
2026-01-13 09:41:25.28	156.30	37.16	-52.1	-53.7	13.9	0.00e+00	0	26	0	855638016	69	4570
2026-01-13 09:41:29.28	156.38	38.14	-51.8	-53.3	14.1	0.00e+00	0	26	0	868220928	69	4378
2026-01-13 09:41:33.25	156.47	39.14	-51.1	-52.5	14.4	0.00e+00	0	26	0	880803840	68	4215
2026-01-13 09:41:37.23	156.56	40.17	-50.8	-52.1	14.6	0.00e+00	0	26	0	893386752	68	4047
2026-01-13 09:41:41.20	156.65	41.23	-50.9	-52.3	14.5	0.00e+00	0	26	0	904921088	68	4141
2026-01-13 09:41:45.20	156.75	42.33	-51.3	-52.8	14.3	0.00e+00	0	26	0	917504000	68	4369
2026-01-13 09:41:49.17	156.86	43.46	-52.6	-54.3	13.7	0.00e+00	0	26	0	930086912	70	4637
2026-01-13 09:41:53.15	156.97	44.62	-52.4	-54.1	13.8	0.00e+00	0	26	0	942669824	70	4530
2026-01-13 09:41:57.11	157.09	45.81	-51.9	-53.5	14.2	0.00e+00	0	26	0	955252736	70	4211
2026-01-13 09:42:01.07	157.22	47.04	-52.1	-53.8	14.0	0.00e+00	0	26	0	967835648	70	4352
2026-01-13 09:42:05.05	157.36	48.31	-51.6	-53.1	14.2	0.00e+00	0	26	0	979369984	69	4276
2026-01-13 09:42:09.03	157.51	49.62	-50.5	-51.9	14.5	0.00e+00	0	26	0	991952896	67	4149
2026-01-13 09:42:13.02	157.67	50.97	-50.3	-51.6	14.5	0.00e+00	0	26	0	1004535808	66	4284
2026-01-13 09:42:16.99	157.84	52.36	-50.4	-51.7	14.5	0.00e+00	0	26	0	1017118720	66	4306
2026-01-13 09:42:20.97	158.03	53.79	-50.2	-51.5	14.6	0.00e+00	0	26	0	1029701632	66	4224
2026-01-13 09:42:24.96	158.24	55.26	-50.0	-51.3	14.7	0.00e+00	0	26	0	1042284544	66	4124
2026-01-13 09:42:28.93	158.47	56.76	-49.7	-51.0	14.7	0.00e+00	0	26	0	1054867456	65	4202
2026-01-13 09:42:32.90	158.73	58.31	-49.5	-50.8	14.8	0.00e+00	0	26	0	1067450368	65	4100
2026-01-13 09:42:36.86	159.01	59.89	-49.1	-50.4	14.8	0.00e+00	0	26	0	1078984704	64	4160
2026-01-13 09:42:40.83	159.33	61.52	-48.7	-49.9	14.9	0.00e+00	0	26	0	1091567616	63	4160
2026-01-13 09:42:44.81	159.70	63.20	-48.3	-49.5	15.0	0.00e+00	0	26	0	1104150528	63	3968
2026-01-13 09:42:48.79	160.12	64.91	-48.5	-49.7	14.9	0.00e+00	0	26	0	1116733440	63	4054
2026-01-13 09:42:52.77	160.60	66.66	-48.2	-49.3	14.9	0.00e+00	0	26	0	1129316352	62	4141
2026-01-13 09:42:56.74	161.17	68.44	-48.1	-49.2	14.9	0.00e+00	0	26	0	1140850688	62	4088
2026-01-13 09:43:00.73	161.86	70.26	-48.3	-49.4	14.9	0.00e+00	0	26	0	1153433600	62	4187
2026-01-13 09:43:04.70	162.68	72.11	-47.8	-48.9	15.1	0.00e+00	0	26	0	1166016512	62	3926
2026-01-13 09:43:08.68	163.71	73.99	-47.7	-48.8	15.1	0.00e+00	0	26	0	1178599424	62	3899
2026-01-13 09:43:12.67	165.03	75.89	-47.7	-48.8	15.0	0.00e+00	0	26	0	1191182336	61	4139
2026-01-13 09:43:16.65	166.77	77.81	-48.2	-49.3	14.8	0.00e+00	0	26	0	1203765248	61	4374
2026-01-13 09:43:20.63	169.17	79.74	-48.8	-50.1	14.8	0.00e+00	0	26	0	1216348160	63	4245
2026-01-13 09:43:24.61	172.70	81.66	-49.1	-50.3	14.7	0.00e+00	0	26	0	1228931072	63	4391
2026-01-13 09:43:28.59	178.34	83.54	-49.0	-50.3	14.7	0.00e+00	0	26	0	1240465408	63	4355
2026-01-13 09:43:32.56	188.43	85.32	-48.4	-49.7	15.0	0.00e+00	0	26	0	1253048320	63	4052
2026-01-13 09:43:36.53	209.21	86.80	-48.8	-50.1	14.8	0.00e+00	0	26	0	1265631232	63	4244
2026-01-13 09:43:40.53	249.04	87.39	-48.9	-50.2	14.9	0.00e+00	0	26	0	1278214144	64	4052
2026-01-13 09:43:44.53	285.54	86.56	-48.5	-49.7	14.9	0.00e+00	0	26	0	1290797056	63	4085
2026-01-13 09:43:48.53	303.54	84.98	-48.5	-49.6	14.9	0.00e+00	0	26	0	1303379968	63	4046
2026-01-13 09:43:52.52	312.44	83.16	-48.6	-49.8	14.8	0.00e+00	0	26	0	1315962880	62	4364
2026-01-13 09:43:56.50	317.51	81.27	-48.6	-49.7	14.9	0.00e+00	0	26	0	1328545792	63	4092
2026-01-13 09:44:00.48	320.75	79.34	-48.6	-49.8	14.9	0.00e+00	0	26	0	1340080128	63	4128
2026-01-13 09:44:04.43	322.98	77.44	-48.2	-49.4	14.9	0.00e+00	0	26	0	1352663040	62	4156
2026-01-13 09:44:08.41	324.62	75.52	-48.6	-49.7	14.8	0.00e+00	0	26	0	1365245952	62	4337
2026-01-13 09:44:12.38	325.86	73.63	-49.1	-50.3	14.7	0.00e+00	0	26	0	1377828864	63	4383
2026-01-13 09:44:16.34	326.84	71.77	-48.3	-49.5	15.0	0.00e+00	0	26	0	1390411776	63	3981
2026-01-13 09:44:20.32	327.64	69.93	-49.0	-50.2	14.8	0.00e+00	0	26	0	1402994688	63	4295
2026-01-13 09:44:24.30	328.30	68.12	-48.2	-49.3	15.1	0.00e+00	0	26	0	1414529024	63	3912
2026-01-13 09:44:28.28	328.85	66.34	-49.4	-50.7	14.7	0.00e+00	0	26	0	1427111936	64	4321
2026-01-13 09:44:32.26	329.33	64.60	-47.4	-48.5	15.1	0.00e+00	0	26	0	1439694848	61	3968
2026-01-13 09:44:36.24	329.74	62.90	-49.4	-50.6	14.7	0.00e+00	0	26	0	1452277760	64	4275
2026-01-13 09:44:40.22	330.09	61.24	-48.9	-50.1	14.9	0.00e+00	0	26	0	1464860672	64	4009
2026-01-13 09:44:44.20	330.41	59.62	-49.5	-50.8	14.7	0.00e+00	0	26	0	1477443584	65	4117
2026-01-13 09:44:48.17	330.69	58.04	-49.2	-50.4	14.9	0.00e+00	0	26	0	1490026496	65	3955
2026-01-13 09:44:52.16	330.94	56.50	-49.6	-50.8	14.6	0.00e+00	0	26	0	1502609408	64	4385
2026-01-13 09:44:56.13	331.16	55.01	-50.5	-51.9	14.4	0.00e+00	0	26	0	1514143744	66	4399
2026-01-13 09:45:00.11	331.37	53.55	-49.9	-51.1	14.7	0.00e+00	0	26	0	1526726656	66	4050
2026-01-13 09:45:04.09	331.56	52.13	-50.3	-51.6	14.5	0.00e+00	0	26	0	1539309568	65	4530
2026-01-13 09:45:08.06	331.73	50.76	-51.6	-53.1	14.1	0.00e+00	0	26	0	1551892480	68	4522
2026-01-13 09:45:12.03	331.89	49.43	-51.2	-52.6	14.4	0.00e+00	0	26	0	1564475392	68	4270
2026-01-13 09:45:16.01	332.04	48.13	-51.4	-52.8	14.3	0.00e+00	0	26	0	1577058304	68	4389
2026-01-13 09:45:19.97	332.17	46.87	-51.9	-53.4	14.1	0.00e+00	0	26	0	1588592640	69	4413
2026-01-13 09:45:23.94	332.30	45.65	-52.2	-53.7	13.9	0.00e+00	0	26	0	1601175552	69	4595
2026-01-13 09:45:27.92	332.42	44.47	-53.0	-54.9	13.6	0.00e+00	0	26	0	1613758464	71	4659
2026-01-13 09:45:31.90	332.53	43.31	-52.5	-54.2	14.0	0.00e+00	0	26	0	1626341376	71	4298
2026-01-13 09:45:35.89	332.64	42.19	-51.9	-53.4	14.2	0.00e+00	0	26	0	1638924288	70	4159
2026-01-13 09:45:39.87	332.74	41.10	-51.9	-53.4	14.2	0.00e+00	0	26	0	1651507200	70	4167
2026-01-13 09:45:43.85	332.83	40.05	-52.0	-53.5	14.2	0.00e+00	0	26	0	1663041536	70	4242
2026-01-13 09:45:47.83	332.92	39.02	-51.7	-53.2	14.4	0.00e+00	0	26	0	1675624448	70	4065
2026-01-13 09:45:51.81	333.00	38.03	-50.9	-52.2	14.6	0.00e+00	0	26	0	1688207360	68	4077
2026-01-13 09:45:55.78	333.09	37.07	-50.3	-51.6	14.6	0.00e+00	0	26	0	1700790272	67	4036
2026-01-13 09:45:59.75	333.16	36.13	-50.7	-52.0	14.5	0.00e+00	0	26	0	1713373184	67	4241
2026-01-13 09:46:03.74	333.24	35.22	-51.0	-52.4	14.3	0.00e+00	0	26	0	1725956096	67	4434
2026-01-13 09:46:07.72	333.31	34.33	-51.3	-52.7	14.1	0.00e+00	0	26	0	1738539008	67	4597
2026-01-13 09:46:11.68	333.38	33.47	-50.7	-52.1	14.4	0.00e+00	0	26	0	1750073344	67	4267
2026-01-13 09:46:15.64	333.44	32.64	-50.1	-51.4	14.6	0.00e+00	0	26	0	1762656256	66	4181
2026-01-13 09:46:19.61	333.50	31.83	-49.9	-51.2	14.7	0.00e+00	0	26	0	1775239168	66	4058
2026-01-13 09:46:23.57	333.56	31.04	-49.9	-51.2	14.7	0.00e+00	0	26	0	1787822080	66	4061
2026-01-13 09:46:27.54	333.62	30.27	-50.0	-51.3	14.6	0.00e+00	0	26	0	1800404992	66	4144
2026-01-13 09:46:31.50	333.68	29.52	-49.9	-51.2	14.7	0.00e+00	0	26	0	1812987904	66	4061
2026-01-13 09:46:35.44	333.73	28.79	-50.0	-51.3	14.6	0.00e+00	0	26	0	1824522240	66	4122
2026-01-13 09:46:39.41	333.79	28.08	-49.9	-51.2	14.7	0.00e+00	0	26	0	1837105152	66	4082
2026-01-13 09:46:43.39	333.84	27.38	-49.4	-50.7	14.8	0.00e+00	0	26	0	1849688064	65	4069
2026-01-13 09:46:47.36	333.89	26.70	-48.9	-50.1	14.9	0.00e+00	0	26	0	1862270976	64	4017
2026-01-13 09:46:51.34	333.94	26.04	-48.8	-50.0	14.9	0.00e+00	0	26	0	1874853888	64	3961
2026-01-13 09:46:55.31	333.99	25.40	-48.6	-49.8	14.8	0.00e+00	0	26	0	1887436800	63	4129
2026-01-13 09:46:59.28	334.03	24.77	-48.9	-50.1	14.8	0.00e+00	0	26	0	1898971136	63	4244
2026-01-13 09:47:03.26	334.08	24.15	-48.8	-50.0	14.8	0.00e+00	0	26	0	1911554048	63	4226
2026-01-13 09:47:07.25	334.12	23.55	-48.7	-49.9	14.8	0.00e+00	0	26	0	1924136960	63	4157
2026-01-13 09:47:11.21	334.16	22.96	-48.6	-49.8	14.8	0.00e+00	0	26	0	1936719872	63	4128
2026-01-13 09:47:15.17	334.21	22.39	-48.9	-50.1	14.7	0.00e+00	0	26	0	1949302784	63	4259
2026-01-13 09:47:19.14	334.25	21.83	-49.1	-50.4	14.6	0.00e+00	0	26	0	1961885696	63	4412
2026-01-13 09:47:23.12	334.29	21.28	-49.1	-50.3	14.6	0.00e+00	0	26	0	1974468608	63	4362
2026-01-13 09:47:27.09	334.33	20.74	-49.2	-50.5	14.6	0.00e+00	0	26	0	1986002944	63	4445
2026-01-13 09:47:31.06	334.37	20.21	-49.2	-50.5	14.6	0.00e+00	0	26	0	1998585856	63	4446
2026-01-13 09:47:35.02	334.40	19.70	-49.2	-50.4	14.6	0.00e+00	0	26	0	2011168768	63	4439
2026-01-13 09:47:38.99	334.44	19.20	-49.2	-50.4	14.6	0.00e+00	0	26	0	2023751680	63	4429
2026-01-13 09:47:42.97	334.48	18.70	-49.2	-50.5	14.6	0.00e+00	0	26	0	2036334592	63	4447
2026-01-13 09:47:46.94	334.51	18.21	-49.3	-50.5	14.6	0.00e+00	0	26	0	2047868928	63	4491
2026-01-13 09:47:50.93	334.55	17.74	-49.5	-50.8	14.6	0.00e+00	0	26	0	2060451840	64	4349
2026-01-13 09:47:54.91	334.58	17.27	-49.6	-50.9	14.5	0.00e+00	0	26	0	2073034752	64	4434
2026-01-13 09:47:58.89	334.62	16.81	-49.7	-51.0	14.4	0.00e+00	0	26	0	2085617664	64	4482
2026-01-13 09:48:02.87	334.65	16.36	-49.8	-51.1	14.4	0.00e+00	0	26	0	2098200576	64	4527
2026-01-13 09:48:06.84	334.69	15.92	-49.8	-51.2	14.4	0.00e+00	0	26	0	2110783488	64	4557
2026-01-13 09:48:10.80	334.72	15.49	-49.8	-51.2	14.4	0.00e+00	0	26	0	2123366400	64	4564
2026-01-13 09:48:14.78	334.75	15.06	-49.8	-51.1	14.4	0.00e+00	0	26	0	2134900736	64	4541
2026-01-13 09:48:18.75	334.78	14.64	-49.9	-51.3	14.3	0.00e+00	0	26	0	2147483648	64	4607
2026-01-13 09:48:22.73	334.82	14.23	-49.8	-51.2	14.4	0.00e+00	0	26	0	2160066560	64	4573
2026-01-13 09:48:26.71	334.85	13.82	-49.9	-51.3	14.4	0.00e+00	0	26	0	2172649472	65	4354
2026-01-13 09:48:30.69	334.88	13.42	-50.0	-51.3	14.4	0.00e+00	0	26	0	2185232384	65	4390
2026-01-13 09:48:34.67	334.91	13.03	-50.0	-51.4	14.3	0.00e+00	0	26	0	2197815296	65	4431
2026-01-13 09:48:38.64	334.94	12.65	-50.0	-51.4	14.3	0.00e+00	0	26	0	2210398208	65	4414
2026-01-13 09:48:42.62	334.97	12.27	-50.0	-51.4	14.4	0.00e+00	0	26	0	2221932544	65	4404
2026-01-13 09:48:46.60	335.00	11.89	-50.0	-51.3	14.4	0.00e+00	0	26	0	2234515456	65	4388
2026-01-13 09:48:50.58	335.03	11.52	-50.0	-51.4	14.4	0.00e+00	0	26	0	2247098368	65	4401
2026-01-13 09:48:54.55	335.06	11.16	-50.0	-51.4	14.4	0.00e+00	0	26	0	2259681280	65	4397
2026-01-13 09:48:58.52	335.08	10.80	-50.1	-51.5	14.3	0.00e+00	0	26	0	2272264192	65	4470
2026-01-13 09:49:02.50	335.11	10.45	-50.1	-51.5	14.3	0.00e+00	0	26	0	2284847104	65	4453
2026-01-13 09:49:06.46	335.14	10.11	-50.1	-51.5	14.3	0.00e+00	0	26	0	2296381440	65	4486
2026-01-13 09:49:10.43	335.17	9.76	-50.2	-51.6	14.2	0.00e+00	0	26	0	2308964352	65	4531
2026-01-13 09:49:14.40	335.20	9.43	-50.2	-51.7	14.2	0.00e+00	0	26	0	2321547264	65	4554
2026-01-13 09:49:18.37	335.22	9.09	-50.3	-51.7	14.2	0.00e+00	0	26	0	2334130176	65	4582
2026-01-13 09:49:22.35	335.25	8.76	-50.4	-51.9	14.1	0.00e+00	0	26	0	2346713088	65	4658
2026-01-13 09:49:26.34	335.28	8.44	-50.5	-52.0	14.1	0.00e+00	0	26	0	2359296000	66	4466
2026-01-13 09:49:30.32	335.30	8.12	-50.8	-52.3	14.0	0.00e+00	0	26	0	2371878912	66	4619
2026-01-13 09:49:34.29	335.33	7.80	-50.8	-52.3	14.0	0.00e+00	0	26	0	2383413248	66	4638
2026-01-13 09:49:38.26	335.36	7.49	-50.9	-52.5	14.0	0.00e+00	0	26	0	2395996160	67	4475
2026-01-13 09:49:42.25	335.38	7.18	-51.1	-52.7	13.9	0.00e+00	0	26	0	2408579072	67	4587
2026-01-13 09:49:46.22	335.41	6.87	-51.3	-53.0	13.7	0.00e+00	0	26	0	2421161984	67	4738
2026-01-13 09:49:50.19	335.44	6.57	-51.4	-53.1	13.6	0.00e+00	0	26	0	2433744896	67	4785
2026-01-13 09:49:54.18	335.46	6.27	-51.8	-53.6	13.7	0.00e+00	0	26	0	2446327808	69	4497
2026-01-13 09:49:58.15	335.49	5.98	-51.9	-53.7	13.6	0.00e+00	0	26	0	2457862144	69	4557
2026-01-13 09:50:02.14	335.51	5.69	-52.0	-53.8	13.5	0.00e+00	0	26	0	2470445056	69	4625
2026-01-13 09:50:06.11	335.54	5.40	-52.3	-54.3	13.2	0.00e+00	0	26	0	2483027968	69	4915
2026-01-13 09:50:10.09	335.56	5.11	-52.4	-54.4	13.1	0.00e+00	0	26	0	2495610880	69	4982
2026-01-13 09:50:14.10	335.59	4.83	-59.2	-73.0	3.8	1.49e+00	0	26	104	2500853760	83	18846
2026-01-13 09:50:18.12	335.61	4.55	-59.9	-73.7	3.8	1.49e+00	0	26	104	2500853760	84	19344
2026-01-13 09:50:22.16	335.64	4.27	-60.2	-74.0	3.8	1.49e+00	0	26	104	2500853760	85	18870
2026-01-13 09:50:26.19	335.66	3.99	-60.3	-74.1	3.8	1.49e+00	0	26	104	2500853760	85	19164
2026-01-13 09:50:30.20	335.69	3.72	-60.4	-74.2	3.8	1.49e+00	0	26	104	2500853760	85	19224
2026-01-13 09:50:34.22	335.71	3.44	-60.3	-74.2	3.8	1.49e+00	0	26	104	2500853760	85	19261
2026-01-13 09:50:38.19	335.74	3.18	-60.3	-74.1	3.8	1.49e+00	0	26	104	2500853760	85	19127
2026-01-13 09:50:42.18	335.76	2.92	-60.2	-74.1	3.8	1.49e+00	0	26	104	2500853760	85	19003
2026-01-13 09:50:46.15	335.78	2.66	-60.2	-74.0	3.8	1.49e+00	0	26	104	2500853760	85	18847
2026-01-13 09:50:50.13	335.81	2.40	-60.2	-74.0	3.8	1.49e+00	0	26	104	2500853760	85	18839
2026-01-13 09:50:54.09	335.83	2.14	-60.2	-74.0	3.8	1.49e+00	0	26	104	2500853760	85	18788

#Closed at: 2026-01-13 09:50:56
#Recorded file [2500 MB]: D:/lorett/data/31004_260113_123627.dat