passes_logs/2026/01/13/R3.2S_Murmansk/R3.2S_Murmansk__20260113_124609_FENGYUN_3D_rec.log

#Pass ID: 20260113_124609_FENGYUN 3D
#Satellite: FENGYUN 3D
#Configuration: FENGYUN 3D
#almurnet v.1.7.20251203
#Start time: 2026-01-13 12:46:10

#Version: 2.2.20231116
#Station: R3.2S_Murmansk
#Location: 33.079688 lon 68.888172 lat
#TLE: 1 43010U 17072A   26013.17115950  .00000473  00000+0  24523-3 0  9998
#TLE: 2 43010  98.9934 344.9592 0002262 111.3119 248.8298 14.19696744422995

#Time	Az	El	Level	Level2	SNR	BER	BlckErr	Temp	State	Recorded	gain1	gain2
2026-01-13 12:46:10.49	181.30	2.05	-58.3	-71.2	3.8	8.46e-01	0	25	0	0	83	15318
2026-01-13 12:46:14.48	181.45	2.30	-58.3	-71.2	3.8	8.46e-01	0	25	104	0	81	17263
2026-01-13 12:46:18.46	181.60	2.55	-58.2	-70.7	3.8	8.46e-01	0	25	104	0	81	16255
2026-01-13 12:46:22.46	181.76	2.80	-58.2	-70.8	3.8	8.45e-01	0	25	104	0	81	16339
2026-01-13 12:46:26.44	181.92	3.06	-58.3	-71.0	3.8	8.45e-01	0	25	104	0	81	16880
2026-01-13 12:46:30.44	182.08	3.31	-58.3	-71.1	3.8	8.45e-01	0	25	104	0	81	16918
2026-01-13 12:46:34.43	182.24	3.57	-58.2	-70.0	3.8	8.45e-01	0	25	104	0	81	15031
2026-01-13 12:46:38.41	182.40	3.83	-57.4	-64.4	5.7	6.04e-01	0	25	0	1048576	81	7838
2026-01-13 12:46:42.40	182.57	4.10	-56.4	-61.2	8.2	3.94e-02	0	26	0	24117248	79	6093
2026-01-13 12:46:46.39	182.74	4.36	-54.5	-57.5	11.1	2.75e-04	0	26	0	46137344	75	5026
2026-01-13 12:46:50.41	182.92	4.63	-51.8	-53.7	13.4	0.00e+00	0	26	0	69206016	70	4338
2026-01-13 12:46:54.41	183.10	4.91	-50.9	-52.6	13.8	0.00e+00	0	25	0	91226112	68	4283
2026-01-13 12:46:58.40	183.28	5.18	-52.3	-54.4	13.0	8.60e-03	0	26	0	113246208	71	4414
2026-01-13 12:47:02.40	183.46	5.46	-50.6	-52.4	13.8	0.00e+00	0	26	0	136314880	67	4392
2026-01-13 12:47:06.40	183.65	5.74	-50.2	-51.8	14.0	0.00e+00	0	26	0	158334976	66	4370
2026-01-13 12:47:10.40	183.84	6.02	-49.8	-51.4	14.1	0.00e+00	0	26	0	181403648	65	4430
2026-01-13 12:47:14.41	184.03	6.30	-49.7	-51.3	14.2	0.00e+00	0	26	0	203423744	65	4369
2026-01-13 12:47:18.43	184.23	6.59	-49.8	-51.4	14.2	0.00e+00	0	26	0	226492416	65	4392
2026-01-13 12:47:22.41	184.43	6.88	-49.3	-50.8	14.5	0.00e+00	0	26	0	248512512	65	4141
2026-01-13 12:47:26.39	184.63	7.18	-49.3	-50.8	14.5	0.00e+00	0	26	0	270532608	65	4137
2026-01-13 12:47:30.37	184.84	7.47	-49.1	-50.6	14.5	0.00e+00	0	26	0	293601280	64	4248
2026-01-13 12:47:34.35	185.05	7.77	-49.1	-50.5	14.5	0.00e+00	0	26	0	315621376	64	4234
2026-01-13 12:47:38.32	185.27	8.07	-49.0	-50.4	14.5	0.00e+00	0	26	0	338690048	64	4175
2026-01-13 12:47:42.29	185.49	8.38	-48.9	-50.4	14.6	0.00e+00	0	26	0	360710144	64	4150
2026-01-13 12:47:46.28	185.71	8.69	-48.8	-50.2	14.7	0.00e+00	0	26	0	382730240	64	4085
2026-01-13 12:47:50.25	185.94	9.00	-48.8	-50.3	14.7	0.00e+00	0	26	0	404750336	64	4104
2026-01-13 12:47:54.24	186.17	9.32	-48.7	-50.1	14.7	0.00e+00	0	26	0	427819008	64	4032
2026-01-13 12:47:58.23	186.41	9.64	-48.8	-50.2	14.7	0.00e+00	0	26	0	449839104	64	4057
2026-01-13 12:48:02.22	186.66	9.96	-48.6	-50.0	14.7	0.00e+00	0	26	0	472907776	63	4240
2026-01-13 12:48:06.21	186.91	10.29	-48.5	-49.9	14.7	0.00e+00	0	26	0	494927872	63	4146
2026-01-13 12:48:10.20	187.16	10.62	-48.4	-49.7	14.8	0.00e+00	0	26	0	516947968	63	4091
2026-01-13 12:48:14.18	187.42	10.96	-48.4	-49.7	14.8	0.00e+00	0	26	0	540016640	63	4089
2026-01-13 12:48:18.14	187.68	11.30	-48.3	-49.7	14.8	0.00e+00	0	26	0	562036736	63	4055
2026-01-13 12:48:22.13	187.95	11.64	-48.1	-49.4	14.8	0.00e+00	0	26	0	584056832	62	4177
2026-01-13 12:48:26.13	188.23	11.99	-48.0	-49.4	14.8	0.00e+00	0	26	0	607125504	62	4146
2026-01-13 12:48:30.13	188.52	12.35	-48.1	-49.4	14.8	0.00e+00	0	26	0	629145600	62	4163
2026-01-13 12:48:34.14	188.81	12.71	-47.9	-49.3	14.9	0.00e+00	0	26	0	652214272	62	4099
2026-01-13 12:48:38.14	189.11	13.07	-48.0	-49.3	14.9	0.00e+00	0	26	0	674234368	62	4125
2026-01-13 12:48:42.14	189.41	13.44	-48.0	-49.3	14.9	0.00e+00	0	26	0	697303040	62	4139
2026-01-13 12:48:46.14	189.72	13.81	-47.8	-49.1	14.9	0.00e+00	0	26	0	719323136	62	4045
2026-01-13 12:48:50.15	190.04	14.19	-47.6	-48.9	14.9	0.00e+00	0	26	0	742391808	61	4156
2026-01-13 12:48:54.15	190.37	14.58	-47.3	-48.6	15.0	0.00e+00	0	26	0	764411904	61	4019
2026-01-13 12:48:58.14	190.71	14.97	-47.2	-48.4	14.9	0.00e+00	0	26	0	787480576	60	4181
2026-01-13 12:49:02.16	191.05	15.36	-47.2	-48.5	14.9	0.00e+00	0	26	0	809500672	60	4194
2026-01-13 12:49:06.16	191.41	15.76	-47.1	-48.3	15.0	0.00e+00	0	26	0	832569344	60	4132
2026-01-13 12:49:10.18	191.77	16.17	-46.9	-48.1	15.1	0.00e+00	0	26	0	854589440	60	4027
2026-01-13 12:49:14.19	192.14	16.58	-46.9	-48.2	15.1	0.00e+00	0	26	0	877658112	60	4066
2026-01-13 12:49:18.19	192.53	17.00	-46.9	-48.2	15.1	0.00e+00	0	26	0	899678208	60	4057
2026-01-13 12:49:22.19	192.92	17.43	-46.9	-48.2	14.9	0.00e+00	0	26	0	922746880	59	4306
2026-01-13 12:49:26.21	193.32	17.86	-47.0	-48.2	14.9	0.00e+00	0	26	0	944766976	59	4337
2026-01-13 12:49:30.21	193.74	18.29	-47.0	-48.3	14.9	0.00e+00	0	26	0	967835648	59	4347
2026-01-13 12:49:34.22	194.17	18.74	-46.9	-48.1	15.0	0.00e+00	0	27	0	989855744	59	4287
2026-01-13 12:49:38.21	194.60	19.19	-46.6	-47.8	15.1	0.00e+00	0	26	0	1012924416	59	4140
2026-01-13 12:49:42.19	195.05	19.64	-46.7	-48.0	15.0	0.00e+00	0	27	0	1034944512	59	4211
2026-01-13 12:49:46.17	195.51	20.10	-46.8	-48.0	15.0	0.00e+00	0	26	0	1056964608	59	4238
2026-01-13 12:49:50.14	195.99	20.57	-46.6	-47.9	15.1	0.00e+00	0	26	0	1080033280	59	4152
2026-01-13 12:49:54.14	196.48	21.04	-46.5	-47.7	15.1	0.00e+00	0	26	0	1102053376	59	4079
2026-01-13 12:49:58.12	196.98	21.52	-46.8	-47.9	15.1	0.00e+00	0	26	0	1124073472	59	4182
2026-01-13 12:50:02.11	197.51	22.01	-46.6	-47.7	15.1	0.00e+00	0	26	0	1147142144	59	4094
2026-01-13 12:50:06.10	198.04	22.51	-46.3	-47.4	15.3	0.00e+00	0	27	0	1169162240	59	3917
2026-01-13 12:50:10.12	198.60	23.02	-46.1	-47.2	15.1	0.00e+00	0	26	0	1192230912	58	4091
2026-01-13 12:50:14.12	199.18	23.53	-46.0	-47.1	15.2	0.00e+00	0	26	0	1214251008	58	4035
2026-01-13 12:50:18.11	199.77	24.05	-46.0	-47.0	15.2	0.00e+00	0	26	0	1237319680	58	4004
2026-01-13 12:50:22.11	200.38	24.57	-45.8	-46.9	15.3	0.00e+00	0	26	0	1259339776	58	3929
2026-01-13 12:50:26.10	201.01	25.11	-45.5	-46.5	15.2	0.00e+00	0	27	0	1281359872	57	3991
2026-01-13 12:50:30.10	201.66	25.65	-45.7	-46.7	15.2	0.00e+00	0	26	0	1304428544	57	4092
2026-01-13 12:50:34.11	202.34	26.20	-45.9	-46.9	15.1	0.00e+00	0	26	0	1327497216	57	4193
2026-01-13 12:50:38.09	203.03	26.75	-46.0	-47.1	15.1	0.00e+00	0	26	0	1349517312	57	4265
2026-01-13 12:50:42.08	203.75	27.31	-45.5	-46.6	15.2	0.00e+00	0	26	0	1371537408	57	4026
2026-01-13 12:50:46.07	204.50	27.88	-45.5	-46.5	15.2	0.00e+00	0	26	0	1394606080	57	3998
2026-01-13 12:50:50.05	205.27	28.45	-45.6	-46.6	15.2	0.00e+00	0	26	0	1416626176	57	4036
2026-01-13 12:50:54.05	206.07	29.04	-45.6	-46.6	15.2	0.00e+00	0	27	0	1438646272	57	4037
2026-01-13 12:50:58.06	206.91	29.63	-45.5	-46.6	15.2	0.00e+00	0	26	0	1461714944	57	4018
2026-01-13 12:51:02.06	207.77	30.22	-45.7	-46.8	15.2	0.00e+00	0	27	0	1483735040	57	4101
2026-01-13 12:51:06.06	208.66	30.82	-45.5	-46.5	15.3	0.00e+00	0	26	0	1506803712	57	3996
2026-01-13 12:51:10.06	209.59	31.42	-45.4	-46.4	15.3	0.00e+00	0	27	0	1528823808	57	3946
2026-01-13 12:51:14.07	210.55	32.03	-45.5	-46.6	15.3	0.00e+00	0	26	0	1551892480	57	4024
2026-01-13 12:51:18.07	211.55	32.65	-45.6	-46.6	15.2	0.00e+00	0	27	0	1573912576	57	4046
2026-01-13 12:51:22.07	212.58	33.26	-45.5	-46.6	15.3	0.00e+00	0	26	0	1596981248	57	4015
2026-01-13 12:51:26.08	213.66	33.88	-45.6	-46.7	15.2	0.00e+00	0	27	0	1619001344	57	4067
2026-01-13 12:51:30.07	214.77	34.50	-45.6	-46.7	15.2	0.00e+00	0	27	0	1642070016	57	4081
2026-01-13 12:51:34.06	215.93	35.11	-45.4	-46.5	15.3	0.00e+00	0	26	0	1664090112	57	3966
2026-01-13 12:51:38.07	217.13	35.73	-45.3	-46.4	15.3	0.00e+00	0	26	0	1687158784	57	3940
2026-01-13 12:51:42.06	218.37	36.34	-45.1	-46.1	15.3	0.00e+00	0	26	0	1709178880	56	4031
2026-01-13 12:51:46.05	219.66	36.95	-45.3	-46.4	15.2	0.00e+00	0	27	0	1731198976	56	4152
2026-01-13 12:51:50.04	221.00	37.56	-45.0	-46.0	15.3	0.00e+00	0	26	0	1754267648	56	3976
2026-01-13 12:51:54.05	222.39	38.16	-45.2	-46.3	15.2	0.00e+00	0	27	0	1776287744	56	4119
2026-01-13 12:51:58.05	223.83	38.75	-45.2	-46.3	15.2	0.00e+00	0	27	0	1799356416	56	4112
2026-01-13 12:52:02.04	225.32	39.32	-45.3	-46.3	15.2	0.00e+00	0	27	0	1821376512	56	4142
2026-01-13 12:52:06.04	226.87	39.89	-45.3	-46.3	15.2	0.00e+00	0	27	0	1844445184	56	4145
2026-01-13 12:52:10.04	228.47	40.44	-45.1	-46.2	15.2	0.00e+00	0	27	0	1866465280	56	4060
2026-01-13 12:52:14.03	230.11	40.97	-45.3	-46.3	15.2	0.00e+00	0	27	0	1889533952	56	4123
2026-01-13 12:52:18.03	231.82	41.49	-45.2	-46.2	15.2	0.00e+00	0	26	0	1911554048	56	4095
2026-01-13 12:52:22.03	233.58	41.98	-45.2	-46.3	15.2	0.00e+00	0	26	0	1933574144	56	4117
2026-01-13 12:52:26.01	235.38	42.45	-45.3	-46.3	15.2	0.00e+00	0	26	0	1956642816	56	4140
2026-01-13 12:52:30.01	237.24	42.89	-45.6	-46.7	15.1	0.00e+00	0	27	0	1978662912	56	4327
2026-01-13 12:52:34.01	239.16	43.30	-45.2	-46.3	15.2	0.00e+00	0	26	0	2001731584	56	4121
2026-01-13 12:52:38.02	241.12	43.69	-45.8	-46.9	15.1	0.00e+00	0	26	0	2023751680	56	4402
2026-01-13 12:52:42.02	243.13	44.04	-45.8	-46.8	15.2	0.00e+00	0	27	0	2046820352	57	4133
2026-01-13 12:52:46.02	245.17	44.35	-45.6	-46.7	15.2	0.00e+00	0	27	0	2068840448	57	4059
2026-01-13 12:52:49.99	247.24	44.62	-45.5	-46.5	15.3	0.00e+00	0	26	0	2090860544	57	3989
2026-01-13 12:52:53.97	249.34	44.85	-45.6	-46.7	15.2	0.00e+00	0	26	0	2113929216	57	4057
2026-01-13 12:52:57.99	251.50	45.05	-46.0	-47.1	15.1	0.00e+00	0	26	0	2135949312	57	4243
2026-01-13 12:53:01.99	253.67	45.20	-45.8	-46.9	15.1	0.00e+00	0	26	0	2159017984	57	4175
2026-01-13 12:53:05.98	255.84	45.30	-45.9	-47.0	15.1	0.00e+00	0	27	0	2181038080	57	4195
2026-01-13 12:53:09.98	258.04	45.36	-45.8	-46.9	15.2	0.00e+00	0	27	0	2204106752	57	4158
2026-01-13 12:53:13.99	260.24	45.38	-46.0	-47.1	15.1	0.00e+00	0	27	0	2226126848	57	4252
2026-01-13 12:53:17.98	262.44	45.34	-46.3	-47.4	15.1	0.00e+00	0	26	0	2249195520	57	4421
2026-01-13 12:53:21.97	264.62	45.27	-45.9	-47.0	15.2	0.00e+00	0	27	0	2271215616	58	3991
2026-01-13 12:53:25.98	266.81	45.15	-45.9	-47.0	15.2	0.00e+00	0	27	0	2293235712	58	3977
2026-01-13 12:53:29.98	268.97	44.98	-46.1	-47.2	15.2	0.00e+00	0	27	0	2316304384	58	4065
2026-01-13 12:53:33.98	271.10	44.77	-46.1	-47.2	15.2	0.00e+00	0	27	0	2338324480	58	4092
2026-01-13 12:53:37.98	273.20	44.53	-46.0	-47.0	15.2	0.00e+00	0	27	0	2361393152	58	3998
2026-01-13 12:53:41.98	275.27	44.24	-46.1	-47.2	15.2	0.00e+00	0	26	0	2383413248	58	4077
2026-01-13 12:53:45.96	277.29	43.91	-45.8	-46.9	15.3	0.00e+00	0	26	0	2405433344	58	3937
2026-01-13 12:53:49.97	279.28	43.55	-45.7	-46.8	15.3	0.00e+00	0	26	0	2428502016	58	3882
2026-01-13 12:53:53.96	281.21	43.16	-45.8	-46.9	15.3	0.00e+00	0	27	0	2451570688	58	3935
2026-01-13 12:53:57.95	283.10	42.74	-46.0	-47.1	15.2	0.00e+00	0	26	0	2473590784	58	4024
2026-01-13 12:54:01.97	284.95	42.29	-46.0	-47.1	15.2	0.00e+00	0	27	0	2496659456	58	4012
2026-01-13 12:54:05.96	286.74	41.81	-46.0	-47.1	15.2	0.00e+00	0	27	0	2518679552	58	4042
2026-01-13 12:54:09.95	288.47	41.31	-45.7	-46.8	15.3	0.00e+00	0	27	0	2540699648	58	3898
2026-01-13 12:54:13.97	290.16	40.79	-45.8	-46.8	15.3	0.00e+00	0	27	0	2563768320	58	3913
2026-01-13 12:54:17.97	291.79	40.25	-45.5	-46.6	15.2	0.00e+00	0	26	0	2585788416	57	4024
2026-01-13 12:54:21.96	293.36	39.69	-45.7	-46.8	15.2	0.00e+00	0	27	0	2608857088	57	4105
2026-01-13 12:54:25.97	294.89	39.12	-45.3	-46.3	15.3	0.00e+00	0	27	0	2630877184	57	3887
2026-01-13 12:54:29.96	296.36	38.55	-45.4	-46.4	15.3	0.00e+00	0	27	0	2653945856	57	3950
2026-01-13 12:54:33.99	297.78	37.95	-45.5	-46.6	15.3	0.00e+00	0	27	0	2675965952	57	4017
2026-01-13 12:54:38.00	299.16	37.35	-45.4	-46.4	15.3	0.00e+00	0	26	0	2699034624	57	3944
2026-01-13 12:54:42.00	300.48	36.74	-45.3	-46.3	15.3	0.00e+00	0	27	0	2721054720	57	3900
2026-01-13 12:54:46.00	301.75	36.14	-45.5	-46.5	15.3	0.00e+00	0	26	0	2744123392	57	3988
2026-01-13 12:54:50.00	302.97	35.52	-45.8	-46.8	15.2	0.00e+00	0	27	0	2766143488	57	4145
2026-01-13 12:54:53.99	304.15	34.91	-45.6	-46.6	15.2	0.00e+00	0	27	0	2789212160	57	4049
2026-01-13 12:54:57.99	305.29	34.29	-45.6	-46.7	15.2	0.00e+00	0	27	0	2811232256	57	4063
2026-01-13 12:55:01.98	306.39	33.68	-45.5	-46.5	15.3	0.00e+00	0	27	0	2833252352	57	3987
2026-01-13 12:55:05.97	307.44	33.07	-45.7	-46.8	15.2	0.00e+00	0	27	0	2856321024	57	4103
2026-01-13 12:55:09.97	308.46	32.46	-45.6	-46.7	15.2	0.00e+00	0	27	0	2878341120	57	4078
2026-01-13 12:55:13.98	309.44	31.85	-45.7	-46.8	15.2	0.00e+00	0	27	0	2901409792	57	4112
2026-01-13 12:55:17.98	310.39	31.24	-45.9	-47.0	15.1	0.00e+00	0	27	0	2923429888	57	4239
2026-01-13 12:55:21.98	311.30	30.64	-45.8	-46.9	15.2	0.00e+00	0	27	0	2946498560	57	4170
2026-01-13 12:55:25.99	312.18	30.05	-46.1	-47.2	15.1	0.00e+00	0	26	0	2968518656	57	4307
2026-01-13 12:55:29.98	313.03	29.46	-46.0	-47.1	15.1	0.00e+00	0	27	0	2991587328	57	4271
2026-01-13 12:55:33.97	313.85	28.88	-45.6	-46.6	15.2	0.00e+00	0	27	0	3013607424	57	4039
2026-01-13 12:55:37.96	314.64	28.30	-45.7	-46.8	15.2	0.00e+00	0	26	0	3036676096	57	4114
2026-01-13 12:55:41.96	315.40	27.73	-45.9	-47.0	15.1	0.00e+00	0	27	0	3058696192	57	4231
2026-01-13 12:55:45.96	316.14	27.16	-46.0	-47.1	15.1	0.00e+00	0	27	0	3080716288	57	4245
2026-01-13 12:55:49.95	316.85	26.61	-46.0	-47.1	15.1	0.00e+00	0	27	0	3103784960	57	4286
2026-01-13 12:55:53.93	317.54	26.06	-46.1	-47.2	15.1	0.00e+00	0	26	0	3125805056	57	4297
2026-01-13 12:55:57.91	318.20	25.52	-46.0	-47.1	15.1	0.00e+00	0	27	0	3148873728	57	4272
2026-01-13 12:56:01.90	318.85	24.98	-46.1	-47.2	15.1	0.00e+00	0	27	0	3170893824	57	4292
2026-01-13 12:56:05.89	319.47	24.46	-46.4	-47.5	15.0	0.00e+00	0	27	0	3192913920	57	4489
2026-01-13 12:56:09.88	320.07	23.94	-46.6	-47.7	15.0	0.00e+00	0	27	0	3215982592	58	4329
2026-01-13 12:56:13.90	320.66	23.42	-46.5	-47.6	15.0	0.00e+00	0	27	0	3238002688	58	4255
2026-01-13 12:56:17.89	321.23	22.91	-46.3	-47.4	15.1	0.00e+00	0	27	0	3261071360	58	4150
2026-01-13 12:56:21.88	321.77	22.41	-46.6	-47.7	15.0	0.00e+00	0	27	0	3283091456	58	4338
2026-01-13 12:56:25.88	322.31	21.92	-46.9	-48.0	15.0	0.00e+00	0	26	0	3306160128	58	4471
2026-01-13 12:56:29.87	322.82	21.44	-46.8	-48.0	15.1	0.00e+00	0	27	0	3328180224	59	4198
2026-01-13 12:56:33.85	323.32	20.96	-46.8	-47.9	15.1	0.00e+00	0	27	0	3350200320	59	4190
2026-01-13 12:56:37.84	323.81	20.49	-47.1	-48.2	15.0	0.00e+00	0	26	0	3373268992	59	4332
2026-01-13 12:56:41.84	324.28	20.02	-47.2	-48.4	14.9	0.00e+00	0	26	0	3395289088	59	4417
2026-01-13 12:56:45.80	324.74	19.57	-47.1	-48.2	15.0	0.00e+00	0	26	0	3417309184	59	4304
2026-01-13 12:56:49.79	325.18	19.12	-47.1	-48.2	15.0	0.00e+00	0	27	0	3440377856	59	4310
2026-01-13 12:56:53.79	325.62	18.67	-47.3	-48.4	14.9	0.00e+00	0	27	0	3462397952	59	4436
2026-01-13 12:56:57.76	326.04	18.24	-47.2	-48.3	15.0	0.00e+00	0	27	0	3485466624	60	4145
2026-01-13 12:57:01.74	326.45	17.81	-47.3	-48.4	15.0	0.00e+00	0	26	0	3507486720	60	4174
2026-01-13 12:57:05.74	326.85	17.38	-47.2	-48.4	15.0	0.00e+00	0	27	0	3529506816	60	4170
2026-01-13 12:57:09.73	327.24	16.96	-47.3	-48.4	15.0	0.00e+00	0	27	0	3552575488	60	4182
2026-01-13 12:57:13.74	327.62	16.55	-47.5	-48.6	14.9	0.00e+00	0	27	0	3574595584	60	4278
2026-01-13 12:57:17.74	327.99	16.14	-47.6	-48.8	14.8	0.00e+00	0	27	0	3597664256	60	4352
2026-01-13 12:57:21.73	328.35	15.74	-47.7	-48.8	14.8	0.00e+00	0	27	0	3619684352	60	4391
2026-01-13 12:57:25.72	328.70	15.34	-47.7	-48.9	14.8	0.00e+00	0	27	0	3642753024	60	4423
2026-01-13 12:57:29.71	329.04	14.95	-47.6	-48.7	14.8	0.00e+00	0	27	0	3664773120	60	4335
2026-01-13 12:57:33.71	329.38	14.57	-47.7	-48.9	14.8	0.00e+00	0	27	0	3686793216	60	4412
2026-01-13 12:57:37.69	329.70	14.19	-48.0	-49.2	14.8	0.00e+00	0	27	0	3709861888	61	4323
2026-01-13 12:57:41.68	330.02	13.81	-48.3	-49.6	14.7	0.00e+00	0	27	0	3731881984	61	4501
2026-01-13 12:57:45.66	330.33	13.44	-48.5	-49.8	14.7	0.00e+00	0	27	0	3754950656	62	4359
2026-01-13 12:57:49.65	330.64	13.08	-48.5	-49.8	14.7	0.00e+00	0	27	0	3776970752	62	4361
2026-01-13 12:57:53.64	330.93	12.72	-48.4	-49.6	14.7	0.00e+00	0	26	0	3798990848	62	4277
2026-01-13 12:57:57.63	331.22	12.36	-48.4	-49.7	14.7	0.00e+00	0	26	0	3822059520	62	4295
2026-01-13 12:58:01.61	331.51	12.01	-48.5	-49.8	14.6	0.00e+00	0	27	0	3844079616	62	4351
2026-01-13 12:58:05.58	331.78	11.67	-48.7	-49.9	14.6	0.00e+00	0	27	0	3866099712	62	4440
2026-01-13 12:58:09.57	332.05	11.32	-48.9	-50.2	14.5	0.00e+00	0	27	0	3889168384	62	4559
2026-01-13 12:58:13.57	332.32	10.99	-48.9	-50.3	14.6	0.00e+00	0	27	0	3911188480	63	4343
2026-01-13 12:58:17.56	332.58	10.65	-48.9	-50.2	14.6	0.00e+00	0	27	0	3934257152	63	4294
2026-01-13 12:58:21.57	332.84	10.32	-48.8	-50.1	14.6	0.00e+00	0	27	0	3956277248	63	4245
2026-01-13 12:58:25.59	333.09	9.99	-48.9	-50.2	14.6	0.00e+00	0	27	0	3979345920	63	4304
2026-01-13 12:58:29.58	333.33	9.67	-49.1	-50.4	14.5	0.00e+00	0	27	0	4001366016	63	4426
2026-01-13 12:58:33.56	333.57	9.35	-49.3	-50.6	14.4	0.00e+00	0	27	0	4024434688	63	4545
2026-01-13 12:58:37.57	333.81	9.03	-49.3	-50.6	14.4	0.00e+00	0	27	0	4046454784	63	4545
2026-01-13 12:58:41.56	334.04	8.72	-49.5	-50.9	14.4	0.00e+00	0	27	0	4068474880	64	4395
2026-01-13 12:58:45.56	334.26	8.42	-49.4	-50.8	14.4	0.00e+00	0	27	0	4091543552	64	4389
2026-01-13 12:58:49.55	334.48	8.11	-49.6	-51.0	14.3	0.00e+00	0	27	0	4113563648	64	4490
2026-01-13 12:58:53.53	334.70	7.81	-49.4	-50.7	14.4	0.00e+00	0	27	0	4136632320	64	4331
2026-01-13 12:58:57.52	334.91	7.51	-49.5	-50.9	14.3	0.00e+00	0	27	0	4158652416	64	4402
2026-01-13 12:59:01.52	335.12	7.22	-49.4	-50.8	14.3	0.00e+00	0	27	0	4180672512	64	4382
2026-01-13 12:59:05.51	335.33	6.93	-49.7	-51.1	14.2	0.00e+00	0	27	0	4203741184	64	4537
2026-01-13 12:59:09.50	335.53	6.64	-49.8	-51.2	14.1	0.00e+00	0	27	0	4225761280	64	4575
2026-01-13 12:59:13.51	335.73	6.35	-49.7	-51.1	14.1	0.00e+00	0	26	0	4248829952	64	4540
2026-01-13 12:59:17.52	335.93	6.07	-49.9	-51.4	14.1	0.00e+00	0	27	0	4270850048	65	4441
2026-01-13 12:59:21.52	336.12	5.79	-50.0	-51.5	14.1	0.00e+00	0	27	0	4293918720	65	4448
2026-01-13 12:59:25.52	336.31	5.51	-49.8	-51.3	14.1	0.00e+00	0	27	0	4315938816	65	4381
2026-01-13 12:59:29.52	336.49	5.23	-50.0	-51.5	14.1	0.00e+00	0	27	0	4339007488	65	4471
2026-01-13 12:59:33.52	336.68	4.96	-58.9	-71.9	3.8	8.42e-01	0	26	104	4357881856	82	17583
2026-01-13 12:59:37.53	336.86	4.69	-59.8	-72.9	3.8	8.46e-01	0	27	104	4357881856	84	17601
2026-01-13 12:59:41.52	337.03	4.42	-52.8	-67.2	3.8	8.44e-01	0	27	104	4357881856	71	19355
2026-01-13 12:59:45.50	337.20	4.16	-60.3	-73.4	3.8	8.45e-01	0	27	104	4357881856	85	17556
2026-01-13 12:59:49.49	337.37	3.90	-60.4	-73.4	3.8	8.46e-01	0	27	104	4357881856	85	17648
2026-01-13 12:59:53.47	337.54	3.64	-60.3	-73.4	3.8	8.45e-01	0	27	104	4357881856	85	17627
2026-01-13 12:59:57.45	337.71	3.38	-60.2	-73.3	3.8	8.46e-01	0	27	104	4357881856	85	17461
2026-01-13 13:00:01.45	337.87	3.13	-60.2	-73.3	3.8	8.45e-01	0	27	104	4357881856	85	17376
2026-01-13 13:00:05.43	338.03	2.87	-60.2	-73.3	3.8	8.45e-01	0	27	104	4357881856	85	17301
2026-01-13 13:00:09.43	338.19	2.62	-60.2	-73.3	3.8	8.45e-01	0	27	104	4357881856	85	17289
2026-01-13 13:00:13.41	338.34	2.37	-60.2	-73.2	3.8	8.46e-01	0	27	104	4357881856	85	17249
2026-01-13 13:00:17.40	338.50	2.13	-60.1	-73.2	3.8	8.46e-01	0	27	104	4357881856	85	17208

#Closed at: 2026-01-13 13:00:21
#Recorded file [4357 MB]: D:/lorett/data/31004_260113_154610.dat