passes_logs/2026/01/13/R3.2S_Murmansk/R3.2S_Murmansk__20260113_052842_NOAA_20_JPSS-1_rec.log

#Pass ID: 20260113_052842_NOAA 20 (JPSS-1)
#Satellite: NOAA 20 (JPSS-1)
#Configuration: NOAA 20
#almurnet v.1.7.20251203
#Start time: 2026-01-13 05:28:41

#Version: 2.2.20231116
#Station: R3.2S_Murmansk
#Location: 33.079688 lon 68.888172 lat
#TLE: 1 43013U 17073A   26012.29914746  .00000087  00000+0  62270-4 0  9997
#TLE: 2 43013  98.7632 313.2670 0001616  43.2193 316.9110 14.19535514422351

#Time	Az	El	Level	Level2	SNR	BER	BlckErr	Temp	State	Recorded	gain1	gain2
2026-01-13 05:28:41.88	67.05	1.98	-57.0	-73.0	3.8	1.49e+00	0	20	0	0	80	22380
2026-01-13 05:28:45.88	66.79	2.20	-57.0	-72.9	3.8	1.49e+00	0	20	104	0	79	23529
2026-01-13 05:28:49.90	66.53	2.43	-57.0	-72.9	3.8	1.49e+00	0	20	104	0	79	23524
2026-01-13 05:28:53.90	66.27	2.66	-57.0	-73.0	3.8	1.49e+00	0	20	104	0	79	23585
2026-01-13 05:28:57.89	66.00	2.89	-57.0	-72.9	3.8	1.49e+00	0	21	104	0	79	23469
2026-01-13 05:29:01.89	65.73	3.13	-57.0	-73.0	3.8	1.49e+00	0	20	104	0	79	23669
2026-01-13 05:29:05.86	65.46	3.36	-57.0	-72.9	3.8	1.49e+00	0	21	104	0	79	23449
2026-01-13 05:29:09.86	65.17	3.59	-57.0	-73.0	3.8	1.49e+00	0	21	104	0	79	23649
2026-01-13 05:29:13.85	64.89	3.83	-57.0	-72.9	3.8	1.49e+00	0	21	104	0	79	23521
2026-01-13 05:29:17.85	64.60	4.07	-57.0	-73.0	3.8	1.49e+00	0	21	104	0	79	23616
2026-01-13 05:29:21.86	64.30	4.31	-57.0	-72.4	3.8	1.49e+00	0	21	104	0	79	22077
2026-01-13 05:29:25.87	64.00	4.55	-56.9	-69.5	4.2	1.42e+00	0	21	0	0	79	15842
2026-01-13 05:29:29.90	63.69	4.79	-56.6	-66.3	5.6	5.22e-01	0	21	0	6291456	79	10925
2026-01-13 05:29:33.90	63.38	5.04	-56.5	-65.2	6.4	2.08e-01	0	21	0	13631488	79	9612
2026-01-13 05:29:37.89	63.06	5.28	-56.6	-65.3	6.4	9.97e-01	0	21	0	18874368	78	10408
2026-01-13 05:29:41.89	62.74	5.53	-54.7	-58.7	12.2	3.58e-05	0	21	0	26214400	76	5416
2026-01-13 05:29:45.89	62.41	5.77	-53.9	-57.3	13.1	0.00e+00	0	21	0	34603008	74	5181
2026-01-13 05:29:49.89	62.07	6.02	-53.8	-57.1	13.3	0.00e+00	0	21	0	41943040	74	5061
2026-01-13 05:29:53.89	61.73	6.27	-53.8	-56.9	13.4	0.00e+00	0	21	0	49283072	74	4977
2026-01-13 05:29:57.89	61.39	6.53	-53.9	-57.0	13.4	0.00e+00	0	21	0	56623104	74	5038
2026-01-13 05:30:01.87	61.04	6.78	-53.9	-57.1	13.3	0.00e+00	0	21	0	63963136	74	5049
2026-01-13 05:30:05.87	60.68	7.03	-53.9	-57.0	13.4	0.00e+00	0	22	0	71303168	74	5032
2026-01-13 05:30:09.85	60.31	7.29	-53.9	-57.0	13.4	0.00e+00	0	22	0	78643200	74	5036
2026-01-13 05:30:13.84	59.94	7.55	-53.9	-57.0	13.4	0.00e+00	0	21	0	85983232	74	5016
2026-01-13 05:30:17.83	59.56	7.80	-53.8	-56.8	13.6	0.00e+00	0	21	0	94371840	74	4906
2026-01-13 05:30:21.84	59.17	8.07	-53.7	-56.8	13.7	0.00e+00	0	21	0	101711872	74	4871
2026-01-13 05:30:25.84	58.78	8.33	-53.5	-56.4	13.8	0.00e+00	0	21	0	109051904	73	4948
2026-01-13 05:30:29.84	58.38	8.59	-53.5	-56.3	13.9	0.00e+00	0	22	0	116391936	73	4907
2026-01-13 05:30:33.84	57.97	8.85	-53.4	-56.1	14.0	0.00e+00	0	22	0	123731968	73	4790
2026-01-13 05:30:37.83	57.55	9.12	-53.4	-56.2	14.0	0.00e+00	0	22	0	131072000	73	4819
2026-01-13 05:30:41.83	57.13	9.39	-53.4	-56.2	14.0	0.00e+00	0	21	0	139460608	73	4844
2026-01-13 05:30:45.83	56.70	9.66	-53.5	-56.3	13.9	0.00e+00	0	22	0	146800640	73	4905
2026-01-13 05:30:49.83	56.25	9.93	-53.6	-56.4	13.9	0.00e+00	0	22	0	154140672	73	4936
2026-01-13 05:30:53.83	55.80	10.20	-53.5	-56.3	13.9	0.00e+00	0	22	0	161480704	73	4911
2026-01-13 05:30:57.82	55.35	10.47	-53.6	-56.3	13.9	0.00e+00	0	22	0	168820736	73	4921
2026-01-13 05:31:01.82	54.88	10.74	-53.4	-56.1	14.1	0.00e+00	0	22	0	176160768	73	4762
2026-01-13 05:31:05.78	54.41	11.02	-53.3	-55.8	14.3	0.00e+00	0	22	0	183500800	73	4649
2026-01-13 05:31:09.78	53.92	11.29	-53.2	-55.8	14.3	0.00e+00	0	22	0	191889408	73	4613
2026-01-13 05:31:13.77	53.43	11.57	-53.0	-55.4	14.4	0.00e+00	0	22	0	199229440	72	4676
2026-01-13 05:31:17.76	52.93	11.84	-53.0	-55.4	14.5	0.00e+00	0	22	0	206569472	72	4672
2026-01-13 05:31:21.78	52.41	12.12	-53.0	-55.4	14.4	0.00e+00	0	22	0	213909504	72	4675
2026-01-13 05:31:25.77	51.89	12.40	-53.0	-55.4	14.5	0.00e+00	0	22	0	221249536	72	4674
2026-01-13 05:31:29.77	51.35	12.68	-52.8	-55.1	14.7	0.00e+00	0	22	0	228589568	72	4511
2026-01-13 05:31:33.78	50.81	12.97	-52.6	-54.9	14.6	0.00e+00	0	22	0	235929600	71	4688
2026-01-13 05:31:37.76	50.25	13.25	-52.5	-54.7	14.8	0.00e+00	0	22	0	244318208	71	4565
2026-01-13 05:31:41.76	49.69	13.53	-52.4	-54.6	14.9	0.00e+00	0	22	0	251658240	71	4521
2026-01-13 05:31:45.76	49.11	13.81	-52.4	-54.5	14.9	0.00e+00	0	22	0	258998272	71	4488
2026-01-13 05:31:49.76	48.52	14.09	-52.6	-54.8	14.7	0.00e+00	0	22	0	266338304	71	4632
2026-01-13 05:31:53.76	47.92	14.38	-52.6	-54.9	14.6	0.00e+00	0	22	0	273678336	71	4669
2026-01-13 05:31:57.74	47.31	14.66	-52.7	-54.9	14.6	0.00e+00	0	22	0	281018368	71	4690
2026-01-13 05:32:01.73	46.69	14.94	-52.8	-55.1	14.5	0.00e+00	0	22	0	288358400	71	4787
2026-01-13 05:32:05.72	46.05	15.22	-53.0	-55.5	14.3	0.00e+00	0	22	0	295698432	71	5000
2026-01-13 05:32:09.69	45.41	15.50	-53.0	-55.4	14.3	0.00e+00	0	22	0	304087040	71	4980
2026-01-13 05:32:13.70	44.75	15.79	-52.9	-55.3	14.4	0.00e+00	0	22	0	311427072	71	4902
2026-01-13 05:32:17.69	44.08	16.07	-52.9	-55.3	14.4	0.00e+00	0	22	0	318767104	71	4885
2026-01-13 05:32:21.68	43.39	16.34	-53.1	-55.5	14.3	0.00e+00	0	22	0	326107136	71	4997
2026-01-13 05:32:25.67	42.69	16.62	-53.0	-55.4	14.3	0.00e+00	0	22	0	333447168	71	4965
2026-01-13 05:32:29.68	41.98	16.90	-53.0	-55.4	14.3	0.00e+00	0	22	0	340787200	71	4971
2026-01-13 05:32:33.67	41.25	17.18	-52.9	-55.3	14.4	0.00e+00	0	22	0	348127232	71	4895
2026-01-13 05:32:37.68	40.51	17.45	-52.9	-55.2	14.5	0.00e+00	0	22	0	356515840	71	4848
2026-01-13 05:32:41.66	39.76	17.72	-52.6	-54.9	14.7	0.00e+00	0	22	0	363855872	71	4659
2026-01-13 05:32:45.66	38.99	17.99	-52.3	-54.3	15.1	0.00e+00	0	22	0	371195904	71	4385
2026-01-13 05:32:49.65	38.21	18.26	-51.8	-53.7	15.2	0.00e+00	0	22	0	378535936	70	4325
2026-01-13 05:32:53.66	37.41	18.53	-51.4	-53.2	15.4	0.00e+00	0	22	0	385875968	69	4326
2026-01-13 05:32:57.65	36.61	18.79	-51.3	-53.1	15.4	0.00e+00	0	22	0	393216000	69	4274
2026-01-13 05:33:01.61	35.79	19.04	-51.2	-52.9	15.3	0.00e+00	0	22	0	400556032	68	4440
2026-01-13 05:33:05.60	34.96	19.30	-50.9	-52.6	15.6	0.00e+00	0	22	0	408944640	68	4271
2026-01-13 05:33:09.58	34.11	19.55	-51.0	-52.7	15.5	0.00e+00	0	22	0	416284672	68	4339
2026-01-13 05:33:13.58	33.24	19.79	-50.8	-52.4	15.6	0.00e+00	0	22	0	423624704	68	4181
2026-01-13 05:33:17.57	32.36	20.04	-50.5	-52.1	15.6	0.00e+00	0	22	0	430964736	67	4274
2026-01-13 05:33:21.57	31.47	20.27	-50.7	-52.3	15.5	0.00e+00	0	22	0	438304768	67	4378
2026-01-13 05:33:25.57	30.56	20.50	-50.6	-52.3	15.5	0.00e+00	0	22	0	445644800	67	4378
2026-01-13 05:33:29.57	29.64	20.73	-50.7	-52.4	15.5	0.00e+00	0	22	0	452984832	67	4398
2026-01-13 05:33:33.57	28.71	20.95	-50.7	-52.4	15.4	0.00e+00	0	22	0	461373440	67	4433
2026-01-13 05:33:37.56	27.76	21.16	-50.5	-52.2	15.6	0.00e+00	0	22	0	468713472	67	4308
2026-01-13 05:33:41.54	26.80	21.37	-50.3	-51.9	15.7	0.00e+00	0	22	0	476053504	67	4169
2026-01-13 05:33:45.54	25.83	21.57	-50.2	-51.8	15.6	0.00e+00	0	22	0	483393536	66	4367
2026-01-13 05:33:49.55	24.84	21.76	-50.3	-51.9	15.6	0.00e+00	0	22	0	490733568	66	4402
2026-01-13 05:33:53.53	23.85	21.95	-50.0	-51.6	15.7	0.00e+00	0	22	0	498073600	66	4252
2026-01-13 05:33:57.52	22.84	22.12	-50.1	-51.7	15.6	0.00e+00	0	22	0	505413632	66	4325
2026-01-13 05:34:01.50	21.82	22.29	-50.2	-51.8	15.6	0.00e+00	0	22	0	513802240	66	4365
2026-01-13 05:34:05.49	20.79	22.45	-50.3	-52.0	15.5	0.00e+00	0	22	0	521142272	66	4449
2026-01-13 05:34:09.46	19.75	22.60	-50.3	-51.9	15.5	0.00e+00	0	22	0	528482304	66	4415
2026-01-13 05:34:13.46	18.70	22.74	-50.7	-52.3	15.3	0.00e+00	0	22	0	535822336	66	4648
2026-01-13 05:34:17.44	17.64	22.87	-51.3	-53.1	15.1	0.00e+00	0	22	0	543162368	67	4791
2026-01-13 05:34:21.44	16.57	22.99	-51.4	-53.3	15.0	0.00e+00	0	22	0	550502400	67	4876
2026-01-13 05:34:25.44	15.49	23.10	-51.7	-53.6	15.0	0.00e+00	0	22	0	557842432	68	4808
2026-01-13 05:34:29.46	14.40	23.20	-52.1	-54.0	14.9	0.00e+00	0	22	0	566231040	69	4755
2026-01-13 05:34:33.46	13.31	23.29	-52.2	-54.3	14.8	0.00e+00	0	22	0	573571072	69	4873
2026-01-13 05:34:37.46	12.21	23.37	-52.4	-54.5	14.8	0.00e+00	0	22	0	580911104	70	4736
2026-01-13 05:34:41.48	11.10	23.44	-52.3	-54.4	14.9	0.00e+00	0	22	0	588251136	70	4672
2026-01-13 05:34:45.48	9.99	23.49	-52.1	-54.0	15.1	0.00e+00	0	22	0	595591168	70	4491
2026-01-13 05:34:49.49	8.87	23.54	-52.4	-54.4	14.9	0.00e+00	0	22	0	602931200	70	4681
2026-01-13 05:34:53.48	7.76	23.57	-52.1	-54.0	15.1	0.00e+00	0	22	0	611319808	70	4493
2026-01-13 05:34:57.49	6.64	23.59	-52.0	-53.9	15.2	0.00e+00	0	22	0	618659840	70	4429
2026-01-13 05:35:01.49	5.52	23.60	-52.0	-53.9	15.2	0.00e+00	0	22	0	625999872	70	4435
2026-01-13 05:35:05.45	4.42	23.59	-51.6	-53.5	15.3	0.00e+00	0	22	0	633339904	69	4453
2026-01-13 05:35:09.45	3.30	23.58	-51.5	-53.2	15.3	0.00e+00	0	22	0	640679936	69	4335
2026-01-13 05:35:13.42	2.19	23.55	-51.3	-53.0	15.5	0.00e+00	0	22	0	648019968	69	4223
2026-01-13 05:35:17.42	1.08	23.51	-50.9	-52.6	15.6	0.00e+00	0	22	0	655360000	68	4245
2026-01-13 05:35:21.42	359.97	23.46	-50.3	-51.9	15.7	0.00e+00	0	22	0	662700032	67	4175
2026-01-13 05:35:25.41	358.87	23.40	-50.1	-51.6	15.7	0.00e+00	0	22	0	671088640	66	4269
2026-01-13 05:35:29.42	357.76	23.33	-49.9	-51.4	15.8	0.00e+00	0	22	0	678428672	66	4155
2026-01-13 05:35:33.43	356.66	23.25	-49.6	-51.1	15.8	0.00e+00	0	22	0	685768704	65	4258
2026-01-13 05:35:37.42	355.58	23.15	-49.5	-51.0	15.8	0.00e+00	0	22	0	693108736	65	4222
2026-01-13 05:35:41.41	354.50	23.05	-50.0	-51.5	15.6	0.00e+00	0	22	0	700448768	65	4477
2026-01-13 05:35:45.40	353.42	22.93	-49.9	-51.5	15.6	0.00e+00	0	22	0	707788800	65	4448
2026-01-13 05:35:49.39	352.36	22.80	-50.2	-51.8	15.4	0.00e+00	0	22	0	715128832	65	4639
2026-01-13 05:35:53.39	351.30	22.67	-50.5	-52.2	15.4	0.00e+00	0	22	0	723517440	66	4556
2026-01-13 05:35:57.39	350.25	22.52	-50.8	-52.5	15.2	0.00e+00	0	22	0	730857472	66	4718
2026-01-13 05:36:01.37	349.22	22.37	-51.0	-52.7	15.3	0.00e+00	0	22	0	738197504	67	4580
2026-01-13 05:36:05.38	348.19	22.20	-51.3	-53.1	15.0	0.00e+00	0	22	0	745537536	67	4810
2026-01-13 05:36:09.37	347.18	22.03	-51.4	-53.2	15.2	0.00e+00	0	22	0	752877568	68	4588
2026-01-13 05:36:13.36	346.18	21.85	-51.6	-53.4	15.1	0.00e+00	0	22	0	760217600	68	4692
2026-01-13 05:36:17.35	345.19	21.66	-51.9	-53.8	14.9	0.00e+00	0	22	0	767557632	68	4912
2026-01-13 05:36:21.33	344.21	21.47	-52.1	-54.1	14.9	0.00e+00	0	22	0	775946240	69	4763
2026-01-13 05:36:25.31	343.25	21.27	-51.8	-53.7	15.1	0.00e+00	0	22	0	783286272	69	4598
2026-01-13 05:36:29.31	342.29	21.05	-52.0	-54.0	14.9	0.00e+00	0	22	0	790626304	69	4726
2026-01-13 05:36:33.31	341.35	20.84	-51.9	-53.8	15.0	0.00e+00	0	22	0	797966336	69	4639
2026-01-13 05:36:37.31	340.43	20.61	-51.9	-53.8	15.1	0.00e+00	0	22	0	805306368	69	4603
2026-01-13 05:36:41.32	339.51	20.38	-51.9	-53.9	15.0	0.00e+00	0	22	0	812646400	69	4654
2026-01-13 05:36:45.30	338.61	20.15	-51.7	-53.5	15.2	0.00e+00	0	22	0	819986432	69	4490
2026-01-13 05:36:49.30	337.73	19.91	-51.6	-53.4	15.3	0.00e+00	0	22	0	828375040	69	4412
2026-01-13 05:36:53.30	336.86	19.67	-51.6	-53.4	15.2	0.00e+00	0	22	0	835715072	69	4441
2026-01-13 05:36:57.30	336.00	19.42	-51.7	-53.5	15.2	0.00e+00	0	22	0	843055104	69	4493
2026-01-13 05:37:01.29	335.16	19.17	-51.6	-53.4	15.3	0.00e+00	0	22	0	850395136	69	4421
2026-01-13 05:37:05.28	334.33	18.91	-51.6	-53.5	15.2	0.00e+00	0	22	0	857735168	69	4460
2026-01-13 05:37:09.27	333.52	18.65	-51.7	-53.6	15.2	0.00e+00	0	22	0	865075200	69	4494
2026-01-13 05:37:13.28	332.71	18.39	-51.8	-53.7	15.1	0.00e+00	0	22	0	872415232	69	4573
2026-01-13 05:37:17.25	331.93	18.12	-51.8	-53.7	15.1	0.00e+00	0	22	0	880803840	69	4555
2026-01-13 05:37:21.25	331.16	17.85	-51.7	-53.7	15.1	0.00e+00	0	22	0	888143872	69	4554
2026-01-13 05:37:25.25	330.40	17.58	-51.7	-53.6	15.2	0.00e+00	0	22	0	895483904	69	4495
2026-01-13 05:37:29.26	329.65	17.31	-51.8	-53.7	15.1	0.00e+00	0	22	0	902823936	69	4561
2026-01-13 05:37:33.26	328.92	17.03	-51.5	-53.4	15.3	0.00e+00	0	22	0	910163968	69	4415
2026-01-13 05:37:37.25	328.20	16.76	-51.3	-53.1	15.4	0.00e+00	0	22	0	917504000	69	4252
2026-01-13 05:37:41.25	327.49	16.48	-51.1	-52.8	15.4	0.00e+00	0	22	0	925892608	68	4388
2026-01-13 05:37:45.25	326.80	16.20	-51.2	-53.0	15.3	0.00e+00	0	22	0	933232640	68	4479
2026-01-13 05:37:49.24	326.12	15.92	-51.3	-53.1	15.2	0.00e+00	0	22	0	940572672	68	4537
2026-01-13 05:37:53.25	325.46	15.64	-50.9	-52.6	15.6	0.00e+00	0	22	0	947912704	68	4248
2026-01-13 05:37:57.26	324.80	15.36	-50.8	-52.5	15.6	0.00e+00	0	22	0	955252736	68	4241
2026-01-13 05:38:01.26	324.16	15.07	-50.9	-52.7	15.5	0.00e+00	0	22	0	962592768	68	4292
2026-01-13 05:38:05.27	323.53	14.79	-50.9	-52.6	15.5	0.00e+00	0	22	0	969932800	68	4244
2026-01-13 05:38:09.25	322.91	14.51	-50.9	-52.6	15.5	0.00e+00	0	22	0	978321408	68	4278
2026-01-13 05:38:13.25	322.31	14.23	-51.0	-52.8	15.4	0.00e+00	0	22	0	985661440	68	4347
2026-01-13 05:38:17.27	321.71	13.94	-51.2	-53.0	15.3	0.00e+00	0	22	0	993001472	68	4445
2026-01-13 05:38:21.27	321.13	13.66	-51.3	-53.1	15.2	0.00e+00	0	22	0	1000341504	68	4513
2026-01-13 05:38:25.25	320.56	13.38	-51.6	-53.5	15.0	0.00e+00	0	22	0	1007681536	68	4727
2026-01-13 05:38:29.25	320.00	13.10	-51.5	-53.4	15.0	0.00e+00	0	22	0	1015021568	68	4702
2026-01-13 05:38:33.26	319.45	12.82	-51.4	-53.3	15.1	0.00e+00	0	22	0	1022361600	68	4612
2026-01-13 05:38:37.26	318.91	12.53	-51.5	-53.4	15.0	0.00e+00	0	22	0	1030750208	68	4695
2026-01-13 05:38:41.27	318.38	12.25	-51.8	-53.8	14.8	0.00e+00	0	22	0	1038090240	68	4891
2026-01-13 05:38:45.26	317.87	11.98	-51.9	-53.9	14.7	0.00e+00	0	22	0	1045430272	68	4947
2026-01-13 05:38:49.25	317.36	11.70	-52.0	-54.0	14.8	0.00e+00	0	22	0	1052770304	69	4758
2026-01-13 05:38:53.26	316.86	11.42	-52.0	-54.0	14.8	0.00e+00	0	22	0	1060110336	69	4737
2026-01-13 05:38:57.23	316.38	11.15	-52.0	-54.1	14.8	0.00e+00	0	22	0	1067450368	69	4764
2026-01-13 05:39:01.23	315.90	10.87	-52.2	-54.3	14.6	0.00e+00	0	22	0	1075838976	69	4913
2026-01-13 05:39:05.23	315.43	10.60	-52.4	-54.6	14.6	0.00e+00	0	22	0	1083179008	70	4768
2026-01-13 05:39:09.23	314.96	10.33	-52.5	-54.7	14.5	0.00e+00	0	22	0	1090519040	70	4850
2026-01-13 05:39:13.23	314.51	10.05	-52.4	-54.6	14.6	0.00e+00	0	22	0	1097859072	70	4785
2026-01-13 05:39:17.21	314.07	9.78	-52.5	-54.7	14.5	0.00e+00	0	22	0	1105199104	70	4858
2026-01-13 05:39:21.19	313.64	9.52	-52.6	-54.9	14.4	0.00e+00	0	22	0	1112539136	70	4951
2026-01-13 05:39:25.19	313.21	9.25	-52.8	-55.3	14.1	0.00e+00	0	22	0	1119879168	70	5185
2026-01-13 05:39:29.17	312.79	8.98	-53.1	-55.7	14.0	0.00e+00	0	22	0	1127219200	71	5121
2026-01-13 05:39:33.16	312.38	8.72	-53.1	-55.6	14.0	0.00e+00	0	22	0	1135607808	71	5077
2026-01-13 05:39:37.17	311.97	8.46	-53.1	-55.7	14.0	0.00e+00	0	22	0	1142947840	71	5144
2026-01-13 05:39:41.16	311.58	8.19	-53.3	-56.0	13.7	0.00e+00	0	22	0	1150287872	71	5337
2026-01-13 05:39:45.16	311.19	7.93	-53.4	-56.2	13.6	0.00e+00	0	22	0	1157627904	71	5438
2026-01-13 05:39:49.16	310.81	7.67	-53.3	-55.9	14.0	0.00e+00	0	22	0	1164967936	72	4972
2026-01-13 05:39:53.14	310.43	7.42	-53.2	-55.9	13.9	0.00e+00	0	22	0	1172307968	72	4974
2026-01-13 05:39:57.14	310.06	7.16	-53.4	-56.1	13.8	0.00e+00	0	22	0	1179648000	72	5084
2026-01-13 05:40:01.14	309.70	6.90	-53.5	-56.4	13.6	0.00e+00	0	22	0	1188036608	72	5247
2026-01-13 05:40:05.13	309.35	6.65	-53.6	-56.5	13.5	0.00e+00	0	22	0	1195376640	72	5315
2026-01-13 05:40:09.12	309.00	6.40	-53.7	-56.7	13.3	0.00e+00	0	22	0	1202716672	72	5436
2026-01-13 05:40:13.10	308.66	6.15	-53.7	-56.8	13.1	0.00e+00	0	22	0	1210056704	72	5508
2026-01-13 05:40:17.09	308.32	5.90	-53.9	-57.1	13.2	0.00e+00	0	22	0	1217396736	73	5347
2026-01-13 05:40:21.07	307.99	5.65	-54.1	-57.5	12.9	7.00e-07	0	22	0	1224736768	73	5601
2026-01-13 05:40:25.05	307.67	5.41	-54.2	-57.7	12.6	1.50e-06	0	22	0	1232076800	73	5756
2026-01-13 05:40:29.04	307.35	5.16	-54.2	-57.9	12.5	3.00e-06	0	22	0	1240465408	73	5861
2026-01-13 05:40:33.03	307.04	4.92	-57.9	-73.8	3.8	1.49e+00	0	22	104	1245708288	80	24443
2026-01-13 05:40:37.02	306.73	4.68	-58.6	-74.7	3.8	1.49e+00	0	22	104	1245708288	82	24158
2026-01-13 05:40:41.04	306.42	4.44	-59.0	-75.1	3.8	1.49e+00	0	22	104	1245708288	83	23884
2026-01-13 05:40:45.05	306.13	4.20	-59.2	-75.3	3.8	1.49e+00	0	22	104	1245708288	83	24511
2026-01-13 05:40:49.04	305.83	3.96	-59.3	-75.4	3.8	1.49e+00	0	22	104	1245708288	83	24769
2026-01-13 05:40:53.04	305.54	3.72	-59.4	-75.4	3.8	1.49e+00	0	22	104	1245708288	83	24884
2026-01-13 05:40:57.04	305.26	3.49	-59.3	-75.3	3.8	1.49e+00	0	22	104	1245708288	83	24677
2026-01-13 05:41:01.04	304.98	3.25	-59.2	-75.3	3.8	1.49e+00	0	22	104	1245708288	83	24433
2026-01-13 05:41:05.04	304.71	3.02	-59.2	-75.3	3.8	1.49e+00	0	22	104	1245708288	83	24417
2026-01-13 05:41:09.04	304.44	2.79	-59.1	-75.2	3.8	1.49e+00	0	22	104	1245708288	83	24319
2026-01-13 05:41:13.02	304.18	2.56	-59.1	-75.2	3.8	1.49e+00	0	22	104	1245708288	83	24236
2026-01-13 05:41:17.01	303.92	2.33	-59.1	-75.2	3.8	1.49e+00	0	22	104	1245708288	83	24230
2026-01-13 05:41:21.01	303.66	2.10	-59.1	-75.2	3.8	1.49e+00	0	22	104	1245708288	83	24167

#Closed at: 2026-01-13 05:41:22
#Recorded file [1245 MB]: D:/lorett/data/31004_260113_082841.dat