passes_logs/2026/01/13/R3.2S_Murmansk/R3.2S_Murmansk__20260113_130109_NOAA_21_JPSS-2_rec.log

#Pass ID: 20260113_130109_NOAA 21 (JPSS-2)
#Satellite: NOAA 21 (JPSS-2)
#Configuration: NOAA-21
#almurnet v.1.7.20251203
#Start time: 2026-01-13 13:01:11

#Version: 2.2.20231116
#Station: R3.2S_Murmansk
#Location: 33.079688 lon 68.888172 lat
#TLE: 1 54234U 22150A   26013.10960858  .00000050  00000+0  44556-4 0  9999
#TLE: 2 54234  98.7496 314.0323 0000695 304.2210  55.8900 14.19534407164546

#Time	Az	El	Level	Level2	SNR	BER	BlckErr	Temp	State	Recorded	gain1	gain2
2026-01-13 13:01:11.27	243.47	2.10	-58.8	-72.6	3.8	1.49e+00	0	27	0	0	84	17059
2026-01-13 13:01:14.26	243.77	2.23	-58.6	-72.4	3.8	1.49e+00	0	27	104	0	82	18670
2026-01-13 13:01:17.26	244.07	2.36	-58.6	-72.4	3.8	1.49e+00	0	27	104	0	82	18678
2026-01-13 13:01:20.26	244.37	2.50	-58.6	-72.4	3.8	1.49e+00	0	27	104	0	82	18634
2026-01-13 13:01:23.27	244.68	2.63	-58.6	-72.4	3.8	1.49e+00	0	27	104	0	82	18640
2026-01-13 13:01:26.27	244.99	2.76	-58.6	-72.4	3.8	1.49e+00	0	27	104	0	82	18552
2026-01-13 13:01:29.28	245.31	2.90	-58.6	-72.4	3.8	1.49e+00	0	27	104	0	82	18602
2026-01-13 13:01:32.27	245.62	3.03	-58.6	-72.4	3.8	1.49e+00	0	27	104	0	82	18555
2026-01-13 13:01:35.25	245.94	3.16	-58.6	-72.3	3.8	1.49e+00	0	27	104	0	82	18378
2026-01-13 13:01:38.26	246.26	3.29	-58.6	-72.3	3.8	1.49e+00	0	27	104	0	82	18441
2026-01-13 13:01:41.27	246.59	3.43	-58.6	-72.3	3.8	1.49e+00	0	27	104	0	82	18445
2026-01-13 13:01:44.28	246.92	3.56	-58.6	-72.4	3.8	1.49e+00	0	27	104	0	82	18609
2026-01-13 13:01:47.28	247.24	3.69	-58.6	-72.2	3.8	1.49e+00	0	27	104	0	82	18210
2026-01-13 13:01:50.27	247.58	3.82	-58.6	-72.3	3.8	1.49e+00	0	27	104	0	82	18434
2026-01-13 13:01:53.28	247.91	3.96	-58.6	-72.4	3.8	1.49e+00	0	27	104	0	82	18597
2026-01-13 13:01:56.27	248.25	4.09	-58.6	-72.3	3.8	1.49e+00	0	27	104	0	82	18350
2026-01-13 13:01:59.27	248.59	4.22	-58.6	-72.3	3.8	1.49e+00	0	27	104	0	82	18307
2026-01-13 13:02:02.25	248.93	4.35	-58.6	-72.0	3.8	1.49e+00	0	27	104	0	82	17734
2026-01-13 13:02:05.25	249.28	4.48	-58.6	-72.3	3.8	1.49e+00	0	27	104	0	82	18308
2026-01-13 13:02:08.23	249.63	4.61	-58.4	-70.3	3.9	1.49e+00	0	27	104	0	82	14563
2026-01-13 13:02:11.22	249.98	4.74	-57.9	-65.5	5.7	4.62e-01	0	27	0	2097152	82	8418
2026-01-13 13:02:14.22	250.34	4.87	-56.5	-61.0	9.2	1.61e-02	0	27	0	11534336	79	5944
2026-01-13 13:02:17.21	250.70	5.00	-53.8	-56.2	12.6	0.00e+00	0	27	0	20971520	74	4564
2026-01-13 13:02:20.21	251.06	5.13	-55.5	-58.8	10.9	1.28e-03	0	27	0	30408704	77	5184
2026-01-13 13:02:23.20	251.42	5.26	-55.2	-58.3	11.3	3.80e-06	0	27	0	39845888	76	5193
2026-01-13 13:02:26.19	251.79	5.39	-52.7	-54.7	13.3	0.00e+00	0	27	0	49283072	71	4586
2026-01-13 13:02:29.19	252.16	5.52	-52.5	-54.4	13.5	0.00e+00	0	27	0	58720256	71	4425
2026-01-13 13:02:32.20	252.54	5.65	-52.4	-54.3	13.5	0.00e+00	0	27	0	68157440	71	4384
2026-01-13 13:02:35.20	252.92	5.78	-52.5	-54.4	13.5	0.00e+00	0	27	0	77594624	71	4410
2026-01-13 13:02:38.21	253.30	5.91	-52.3	-54.1	13.6	0.00e+00	0	27	0	87031808	71	4272
2026-01-13 13:02:41.20	253.68	6.04	-52.3	-54.1	13.6	0.00e+00	0	27	0	96468992	71	4279
2026-01-13 13:02:44.19	254.07	6.16	-52.3	-54.2	13.6	0.00e+00	0	27	0	105906176	71	4296
2026-01-13 13:02:47.19	254.46	6.29	-52.4	-54.3	13.6	0.00e+00	0	27	0	114294784	71	4361
2026-01-13 13:02:50.18	254.85	6.41	-52.0	-53.7	13.8	0.00e+00	0	27	0	123731968	70	4340
2026-01-13 13:02:53.17	255.25	6.54	-52.0	-53.7	13.8	0.00e+00	0	27	0	133169152	70	4326
2026-01-13 13:02:56.17	255.65	6.66	-52.0	-53.8	13.7	0.00e+00	0	27	0	142606336	70	4363
2026-01-13 13:02:59.15	256.05	6.79	-51.9	-53.6	13.8	0.00e+00	0	27	0	152043520	70	4286
2026-01-13 13:03:02.14	256.46	6.91	-51.9	-53.7	13.8	0.00e+00	0	27	0	161480704	70	4300
2026-01-13 13:03:05.12	256.87	7.03	-51.8	-53.5	13.9	0.00e+00	0	27	0	170917888	70	4211
2026-01-13 13:03:08.11	257.28	7.16	-51.9	-53.6	13.9	0.00e+00	0	27	0	180355072	70	4281
2026-01-13 13:03:11.10	257.69	7.28	-51.7	-53.4	13.9	0.00e+00	0	27	0	189792256	69	4409
2026-01-13 13:03:14.10	258.11	7.40	-51.5	-53.2	14.0	0.00e+00	0	26	0	199229440	69	4297
2026-01-13 13:03:17.09	258.54	7.52	-51.6	-53.2	13.9	0.00e+00	0	26	0	208666624	69	4333
2026-01-13 13:03:20.07	258.96	7.64	-51.4	-53.0	14.0	0.00e+00	0	27	0	217055232	69	4231
2026-01-13 13:03:23.08	259.39	7.76	-51.4	-53.1	14.0	0.00e+00	0	27	0	226492416	69	4244
2026-01-13 13:03:26.09	259.83	7.88	-51.5	-53.1	14.0	0.00e+00	0	26	0	235929600	69	4250
2026-01-13 13:03:29.09	260.27	7.99	-51.6	-53.3	13.9	0.00e+00	0	27	0	245366784	69	4360
2026-01-13 13:03:32.08	260.71	8.11	-51.6	-53.2	14.0	0.00e+00	0	27	0	254803968	69	4319
2026-01-13 13:03:35.07	261.15	8.22	-51.7	-53.3	13.9	0.00e+00	0	27	0	264241152	69	4379
2026-01-13 13:03:38.08	261.60	8.34	-51.4	-53.0	14.1	0.00e+00	0	27	0	273678336	69	4211
2026-01-13 13:03:41.08	262.05	8.45	-51.4	-52.9	14.1	0.00e+00	0	26	0	283115520	69	4185
2026-01-13 13:03:44.06	262.50	8.56	-51.3	-52.9	14.1	0.00e+00	0	27	0	292552704	69	4178
2026-01-13 13:03:47.05	262.96	8.68	-51.3	-52.9	14.2	0.00e+00	0	27	0	301989888	69	4154
2026-01-13 13:03:50.05	263.42	8.79	-51.3	-52.9	14.2	0.00e+00	0	27	0	311427072	69	4167
2026-01-13 13:03:53.05	263.88	8.90	-51.3	-52.8	14.0	0.00e+00	0	26	0	320864256	68	4384
2026-01-13 13:03:56.06	264.35	9.00	-51.1	-52.7	14.1	0.00e+00	0	26	0	330301440	68	4298
2026-01-13 13:03:59.07	264.83	9.11	-51.1	-52.7	14.1	0.00e+00	0	27	0	339738624	68	4311
2026-01-13 13:04:02.05	265.30	9.22	-51.0	-52.5	14.2	0.00e+00	0	26	0	349175808	68	4239
2026-01-13 13:04:05.05	265.77	9.32	-51.0	-52.5	14.2	0.00e+00	0	27	0	357564416	68	4233
2026-01-13 13:04:08.05	266.25	9.42	-50.8	-52.3	14.3	0.00e+00	0	27	0	367001600	68	4118
2026-01-13 13:04:11.04	266.74	9.52	-51.9	-53.6	13.6	0.00e+00	0	27	0	376438784	68	4812
2026-01-13 13:04:14.02	267.22	9.62	-53.2	-55.5	12.8	0.00e+00	0	27	0	385875968	71	4985
2026-01-13 13:04:17.02	267.71	9.72	-53.0	-55.1	12.9	0.00e+00	0	27	0	395313152	71	4809
2026-01-13 13:04:20.02	268.21	9.82	-53.8	-56.3	12.2	0.00e+00	0	26	0	404750336	72	5186
2026-01-13 13:04:23.02	268.70	9.92	-54.3	-57.1	11.8	7.60e-06	0	26	0	414187520	74	5074
2026-01-13 13:04:26.01	269.20	10.01	-54.0	-56.5	12.3	7.00e-07	0	26	0	423624704	74	4747
2026-01-13 13:04:29.01	269.70	10.10	-53.0	-55.2	13.1	0.00e+00	0	27	0	433061888	72	4551
2026-01-13 13:04:32.01	270.21	10.19	-52.2	-54.1	13.7	0.00e+00	0	27	0	442499072	71	4248
2026-01-13 13:04:35.01	270.72	10.28	-51.6	-53.3	14.0	0.00e+00	0	26	0	451936256	69	4368
2026-01-13 13:04:37.99	271.23	10.37	-51.1	-52.7	14.1	0.00e+00	0	27	0	461373440	68	4303
2026-01-13 13:04:41.01	271.75	10.46	-51.3	-52.9	14.0	0.00e+00	0	27	0	470810624	68	4416
2026-01-13 13:04:44.01	272.27	10.54	-51.1	-52.7	14.2	0.00e+00	0	27	0	480247808	68	4302
2026-01-13 13:04:47.01	272.79	10.63	-51.1	-52.6	14.2	0.00e+00	0	27	0	488636416	68	4274
2026-01-13 13:04:50.02	273.31	10.71	-51.2	-52.8	14.1	0.00e+00	0	27	0	499122176	68	4342
2026-01-13 13:04:53.01	273.84	10.79	-51.2	-52.8	14.1	0.00e+00	0	27	0	507510784	68	4346
2026-01-13 13:04:56.01	274.37	10.86	-51.1	-52.6	14.2	0.00e+00	0	26	0	516947968	68	4287
2026-01-13 13:04:59.01	274.90	10.94	-51.0	-52.5	14.3	0.00e+00	0	27	0	526385152	68	4205
2026-01-13 13:05:02.01	275.43	11.01	-51.0	-52.5	14.2	0.00e+00	0	26	0	535822336	68	4224
2026-01-13 13:05:05.00	275.97	11.08	-51.0	-52.5	14.2	0.00e+00	0	27	0	545259520	68	4234
2026-01-13 13:05:08.00	276.51	11.15	-51.2	-52.7	14.2	0.00e+00	0	27	0	554696704	68	4321
2026-01-13 13:05:11.00	277.05	11.22	-51.1	-52.6	14.2	0.00e+00	0	27	0	564133888	68	4282
2026-01-13 13:05:13.97	277.59	11.28	-51.0	-52.5	14.3	0.00e+00	0	27	0	573571072	68	4198
2026-01-13 13:05:16.96	278.13	11.35	-51.1	-52.6	14.2	0.00e+00	0	27	0	583008256	68	4258
2026-01-13 13:05:19.95	278.68	11.41	-51.2	-52.7	14.2	0.00e+00	0	27	0	592445440	68	4314
2026-01-13 13:05:22.95	279.23	11.47	-50.9	-52.4	14.3	0.00e+00	0	27	0	601882624	68	4158
2026-01-13 13:05:25.95	279.78	11.52	-51.0	-52.5	14.3	0.00e+00	0	27	0	611319808	68	4218
2026-01-13 13:05:28.95	280.34	11.58	-51.1	-52.7	14.2	0.00e+00	0	27	0	619708416	68	4302
2026-01-13 13:05:31.93	280.89	11.63	-51.2	-52.7	14.2	0.00e+00	0	27	0	629145600	68	4310
2026-01-13 13:05:34.93	281.45	11.68	-51.1	-52.6	14.2	0.00e+00	0	26	0	638582784	68	4269
2026-01-13 13:05:37.92	282.01	11.72	-51.1	-52.6	14.2	0.00e+00	0	27	0	648019968	68	4256
2026-01-13 13:05:40.92	282.57	11.77	-51.2	-52.7	14.2	0.00e+00	0	27	0	657457152	68	4310
2026-01-13 13:05:43.91	283.13	11.81	-51.3	-52.8	14.1	0.00e+00	0	27	0	666894336	68	4387
2026-01-13 13:05:46.92	283.70	11.85	-51.0	-52.5	14.3	0.00e+00	0	27	0	676331520	68	4198
2026-01-13 13:05:49.90	284.26	11.89	-50.8	-52.3	14.4	0.00e+00	0	27	0	685768704	68	4104
2026-01-13 13:05:52.91	284.83	11.92	-51.0	-52.5	14.3	0.00e+00	0	27	0	695205888	68	4203
2026-01-13 13:05:55.91	285.40	11.96	-50.9	-52.4	14.3	0.00e+00	0	27	0	704643072	68	4175
2026-01-13 13:05:58.89	285.96	11.99	-50.9	-52.4	14.3	0.00e+00	0	27	0	714080256	68	4171
2026-01-13 13:06:01.87	286.53	12.01	-51.1	-52.6	14.3	0.00e+00	0	27	0	723517440	68	4257
2026-01-13 13:06:04.86	287.10	12.04	-51.2	-52.7	14.2	0.00e+00	0	27	0	731906048	68	4320
2026-01-13 13:06:07.84	287.67	12.06	-51.2	-52.7	14.2	0.00e+00	0	27	0	741343232	68	4328
2026-01-13 13:06:10.84	288.24	12.08	-51.1	-52.6	14.3	0.00e+00	0	26	0	750780416	68	4252
2026-01-13 13:06:13.80	288.81	12.10	-50.9	-52.4	14.4	0.00e+00	0	27	0	760217600	68	4153
2026-01-13 13:06:16.79	289.38	12.11	-50.8	-52.2	14.4	0.00e+00	0	27	0	769654784	68	4097
2026-01-13 13:06:19.78	289.96	12.12	-50.5	-51.9	14.4	0.00e+00	0	27	0	779091968	67	4173
2026-01-13 13:06:22.77	290.53	12.13	-50.6	-52.0	14.4	0.00e+00	0	26	0	788529152	67	4201
2026-01-13 13:06:25.77	291.11	12.14	-50.5	-52.0	14.4	0.00e+00	0	27	0	797966336	67	4198
2026-01-13 13:06:28.77	291.68	12.15	-50.6	-52.1	14.3	0.00e+00	0	27	0	807403520	67	4244
2026-01-13 13:06:31.77	292.26	12.15	-50.6	-52.0	14.4	0.00e+00	0	27	0	816840704	67	4238
2026-01-13 13:06:34.77	292.84	12.15	-50.7	-52.2	14.3	0.00e+00	0	27	0	826277888	67	4305
2026-01-13 13:06:37.75	293.41	12.14	-50.6	-52.0	14.4	0.00e+00	0	27	0	835715072	67	4235
2026-01-13 13:06:40.76	293.99	12.14	-50.6	-52.0	14.4	0.00e+00	0	27	0	844103680	67	4231
2026-01-13 13:06:43.74	294.56	12.13	-50.7	-52.1	14.3	0.00e+00	0	27	0	853540864	67	4288
2026-01-13 13:06:46.73	295.13	12.12	-50.7	-52.1	14.3	0.00e+00	0	27	0	862978048	67	4271
2026-01-13 13:06:49.73	295.71	12.11	-50.6	-52.0	14.4	0.00e+00	0	27	0	872415232	67	4237
2026-01-13 13:06:52.73	296.28	12.09	-50.6	-52.0	14.4	0.00e+00	0	27	0	881852416	67	4231
2026-01-13 13:06:55.73	296.86	12.07	-50.7	-52.1	14.3	0.00e+00	0	27	0	891289600	67	4291
2026-01-13 13:06:58.75	297.43	12.05	-50.8	-52.3	14.3	0.00e+00	0	27	0	900726784	67	4350
2026-01-13 13:07:01.76	298.01	12.03	-50.9	-52.4	14.2	0.00e+00	0	26	0	910163968	67	4424
2026-01-13 13:07:04.75	298.58	12.00	-51.0	-52.5	14.2	0.00e+00	0	27	0	919601152	67	4450
2026-01-13 13:07:07.74	299.15	11.97	-50.9	-52.3	14.2	0.00e+00	0	27	0	929038336	67	4388
2026-01-13 13:07:10.73	299.71	11.94	-50.7	-52.2	14.3	0.00e+00	0	27	0	938475520	67	4316
2026-01-13 13:07:13.73	300.28	11.91	-50.8	-52.2	14.3	0.00e+00	0	26	0	947912704	67	4319
2026-01-13 13:07:16.72	300.84	11.87	-50.8	-52.2	14.3	0.00e+00	0	27	0	957349888	67	4324
2026-01-13 13:07:19.72	301.41	11.83	-50.8	-52.3	14.3	0.00e+00	0	27	0	966787072	67	4344
2026-01-13 13:07:22.71	301.97	11.79	-50.7	-52.1	14.3	0.00e+00	0	27	0	976224256	67	4289
2026-01-13 13:07:25.73	302.54	11.75	-50.6	-52.1	14.3	0.00e+00	0	27	0	985661440	67	4247
2026-01-13 13:07:28.74	303.10	11.70	-50.8	-52.2	14.3	0.00e+00	0	27	0	995098624	67	4322
2026-01-13 13:07:31.73	303.65	11.65	-50.8	-52.3	14.2	0.00e+00	0	27	0	1003487232	67	4365
2026-01-13 13:07:34.74	304.21	11.60	-50.7	-52.2	14.3	0.00e+00	0	27	0	1012924416	67	4323
2026-01-13 13:07:37.73	304.77	11.55	-50.7	-52.2	14.3	0.00e+00	0	27	0	1022361600	67	4300
2026-01-13 13:07:40.73	305.32	11.49	-50.9	-52.4	14.2	0.00e+00	0	26	0	1031798784	67	4394
2026-01-13 13:07:43.73	305.87	11.44	-50.7	-52.2	14.3	0.00e+00	0	27	0	1041235968	67	4314
2026-01-13 13:07:46.74	306.42	11.38	-50.7	-52.2	14.2	0.00e+00	0	27	0	1050673152	67	4314
2026-01-13 13:07:49.75	306.97	11.31	-50.6	-52.1	14.3	0.00e+00	0	27	0	1060110336	67	4259
2026-01-13 13:07:52.75	307.51	11.25	-50.6	-52.1	14.3	0.00e+00	0	27	0	1069547520	67	4263
2026-01-13 13:07:55.74	308.05	11.19	-50.7	-52.2	14.3	0.00e+00	0	27	0	1078984704	67	4312
2026-01-13 13:07:58.75	308.59	11.12	-50.8	-52.2	14.2	0.00e+00	0	27	0	1088421888	67	4334
2026-01-13 13:08:01.77	309.13	11.05	-50.7	-52.1	14.3	0.00e+00	0	27	0	1097859072	67	4281
2026-01-13 13:08:04.75	309.66	10.98	-50.6	-52.0	14.3	0.00e+00	0	27	0	1107296256	67	4223
2026-01-13 13:08:07.73	310.19	10.90	-50.6	-52.0	14.3	0.00e+00	0	27	0	1116733440	67	4212
2026-01-13 13:08:10.73	310.72	10.83	-50.6	-52.0	14.3	0.00e+00	0	27	0	1126170624	67	4223
2026-01-13 13:08:13.73	311.24	10.75	-50.6	-52.0	14.3	0.00e+00	0	27	0	1135607808	67	4232
2026-01-13 13:08:16.74	311.77	10.67	-50.6	-52.1	14.3	0.00e+00	0	27	0	1145044992	67	4260
2026-01-13 13:08:19.73	312.29	10.59	-50.5	-51.9	14.4	0.00e+00	0	27	0	1154482176	67	4182
2026-01-13 13:08:22.73	312.81	10.50	-50.5	-51.9	14.4	0.00e+00	0	27	0	1162870784	67	4178
2026-01-13 13:08:25.73	313.32	10.42	-50.6	-52.1	14.3	0.00e+00	0	27	0	1172307968	67	4258
2026-01-13 13:08:28.72	313.83	10.33	-50.9	-52.4	14.1	0.00e+00	0	27	0	1181745152	67	4435
2026-01-13 13:08:31.70	314.34	10.24	-50.8	-52.3	14.2	0.00e+00	0	27	0	1191182336	67	4386
2026-01-13 13:08:34.69	314.84	10.15	-50.8	-52.3	14.2	0.00e+00	0	27	0	1200619520	67	4391
2026-01-13 13:08:37.68	315.34	10.06	-50.9	-52.4	14.1	0.00e+00	0	27	0	1210056704	67	4424
2026-01-13 13:08:40.68	315.84	9.97	-51.0	-52.5	14.1	0.00e+00	0	27	0	1219493888	67	4474
2026-01-13 13:08:43.69	316.34	9.88	-50.9	-52.4	14.1	0.00e+00	0	27	0	1228931072	67	4440
2026-01-13 13:08:46.68	316.83	9.78	-51.0	-52.6	14.0	0.00e+00	0	27	0	1238368256	67	4498
2026-01-13 13:08:49.67	317.32	9.68	-50.9	-52.4	14.1	0.00e+00	0	27	0	1247805440	67	4405
2026-01-13 13:08:52.66	317.81	9.58	-50.7	-52.2	14.2	0.00e+00	0	27	0	1257242624	67	4329
2026-01-13 13:08:55.66	318.29	9.48	-50.6	-52.1	14.3	0.00e+00	0	27	0	1266679808	67	4248
2026-01-13 13:08:58.64	318.77	9.38	-50.7	-52.2	14.2	0.00e+00	0	26	0	1275068416	67	4292
2026-01-13 13:09:01.64	319.25	9.28	-50.9	-52.5	14.1	0.00e+00	0	27	0	1284505600	67	4454
2026-01-13 13:09:04.61	319.72	9.18	-51.2	-52.7	13.9	0.00e+00	0	27	0	1293942784	67	4593
2026-01-13 13:09:07.60	320.19	9.07	-51.1	-52.7	14.0	0.00e+00	0	27	0	1303379968	67	4568
2026-01-13 13:09:10.59	320.65	8.96	-51.1	-52.6	14.0	0.00e+00	0	27	0	1312817152	67	4540
2026-01-13 13:09:13.60	321.12	8.86	-51.1	-52.6	14.0	0.00e+00	0	27	0	1322254336	67	4539
2026-01-13 13:09:16.60	321.58	8.75	-51.0	-52.6	14.0	0.00e+00	0	27	0	1331691520	67	4499
2026-01-13 13:09:19.60	322.04	8.64	-51.1	-52.7	13.9	0.00e+00	0	27	0	1341128704	67	4568
2026-01-13 13:09:22.60	322.49	8.53	-51.3	-52.9	13.8	0.00e+00	0	27	0	1350565888	67	4695
2026-01-13 13:09:25.61	322.94	8.41	-51.5	-53.1	13.9	0.00e+00	0	27	0	1360003072	68	4531
2026-01-13 13:09:28.62	323.39	8.30	-51.4	-53.0	13.9	0.00e+00	0	27	0	1369440256	68	4467
2026-01-13 13:09:31.63	323.84	8.19	-51.4	-53.0	13.9	0.00e+00	0	26	0	1378877440	68	4458
2026-01-13 13:09:34.63	324.28	8.07	-51.3	-53.0	13.9	0.00e+00	0	26	0	1388314624	68	4445
2026-01-13 13:09:37.62	324.72	7.95	-51.5	-53.1	13.8	0.00e+00	0	27	0	1397751808	68	4545
2026-01-13 13:09:40.62	325.15	7.84	-51.5	-53.2	13.8	0.00e+00	0	27	0	1407188992	68	4571
2026-01-13 13:09:43.62	325.58	7.72	-51.8	-53.5	13.7	0.00e+00	0	27	0	1416626176	68	4738
2026-01-13 13:09:46.64	326.01	7.60	-51.7	-53.4	13.7	0.00e+00	0	27	0	1425014784	68	4698
2026-01-13 13:09:49.64	326.44	7.48	-51.7	-53.4	13.7	0.00e+00	0	26	0	1434451968	68	4703
2026-01-13 13:09:52.65	326.86	7.36	-51.6	-53.3	13.8	0.00e+00	0	27	0	1443889152	68	4609
2026-01-13 13:09:55.66	327.28	7.24	-51.5	-53.2	13.8	0.00e+00	0	26	0	1453326336	68	4565
2026-01-13 13:09:58.68	327.69	7.12	-51.7	-53.4	13.7	0.00e+00	0	27	0	1462763520	68	4702
2026-01-13 13:10:01.69	328.11	7.00	-51.8	-53.6	13.6	0.00e+00	0	27	0	1472200704	68	4799
2026-01-13 13:10:04.68	328.51	6.87	-51.9	-53.6	13.6	0.00e+00	0	27	0	1481637888	68	4796
2026-01-13 13:10:07.67	328.91	6.75	-51.8	-53.5	13.7	0.00e+00	0	27	0	1491075072	69	4493
2026-01-13 13:10:10.67	329.32	6.63	-51.8	-53.5	13.7	0.00e+00	0	27	0	1500512256	69	4493
2026-01-13 13:10:13.67	329.71	6.50	-51.9	-53.6	13.7	0.00e+00	0	27	0	1509949440	69	4539
2026-01-13 13:10:16.66	330.11	6.38	-51.8	-53.5	13.7	0.00e+00	0	27	0	1519386624	69	4463
2026-01-13 13:10:19.66	330.50	6.25	-51.7	-53.4	13.8	0.00e+00	0	27	0	1528823808	69	4423
2026-01-13 13:10:22.66	330.89	6.13	-51.7	-53.5	13.7	0.00e+00	0	27	0	1538260992	69	4444
2026-01-13 13:10:25.65	331.27	6.00	-51.9	-53.7	13.6	0.00e+00	0	27	0	1547698176	69	4567
2026-01-13 13:10:28.65	331.65	5.87	-52.1	-53.9	13.5	0.00e+00	0	27	0	1557135360	69	4687
2026-01-13 13:10:31.64	332.03	5.75	-52.1	-53.9	13.5	0.00e+00	0	27	0	1566572544	69	4691
2026-01-13 13:10:34.64	332.40	5.62	-52.2	-54.1	13.4	0.00e+00	0	27	0	1576009728	69	4768
2026-01-13 13:10:37.63	332.77	5.49	-52.0	-53.8	13.5	0.00e+00	0	27	0	1584398336	69	4617
2026-01-13 13:10:40.62	333.14	5.36	-52.6	-54.6	13.1	0.00e+00	0	27	0	1593835520	70	4805
2026-01-13 13:10:43.61	333.51	5.24	-52.5	-54.5	13.2	0.00e+00	0	27	0	1603272704	70	4713
2026-01-13 13:10:46.60	333.87	5.11	-52.2	-54.2	13.3	0.00e+00	0	27	0	1612709888	70	4550
2026-01-13 13:10:49.59	334.23	4.98	-55.3	-59.1	10.5	0.00e+00	0	27	0	1622147072	75	5998
2026-01-13 13:10:52.58	334.58	4.85	-59.4	-73.2	3.8	1.49e+00	0	27	104	1623195648	83	19279
2026-01-13 13:10:55.58	334.94	4.72	-60.0	-73.8	3.8	1.49e+00	0	27	104	1623195648	85	18356
2026-01-13 13:10:58.59	335.29	4.59	-60.2	-74.1	3.8	1.49e+00	0	27	104	1623195648	85	18953
2026-01-13 13:11:01.61	335.64	4.46	-60.3	-74.2	3.8	1.49e+00	0	27	104	1623195648	85	19176
2026-01-13 13:11:04.62	335.98	4.33	-60.3	-74.2	3.8	1.49e+00	0	27	104	1623195648	85	19253
2026-01-13 13:11:07.61	336.32	4.20	-60.4	-74.2	3.8	1.49e+00	0	27	104	1623195648	85	19261
2026-01-13 13:11:10.60	336.66	4.07	-60.3	-74.2	3.8	1.49e+00	0	27	104	1623195648	85	19322
2026-01-13 13:11:13.61	337.00	3.94	-60.3	-74.1	3.8	1.49e+00	0	27	104	1623195648	85	19145
2026-01-13 13:11:16.62	337.33	3.80	-60.2	-74.1	3.9	1.49e+00	0	27	104	1623195648	85	19027
2026-01-13 13:11:19.61	337.66	3.67	-60.2	-74.1	3.8	1.49e+00	0	27	104	1623195648	85	19033
2026-01-13 13:11:22.58	337.99	3.54	-60.2	-74.1	3.8	1.49e+00	0	27	104	1623195648	85	19069
2026-01-13 13:11:25.58	338.31	3.41	-60.2	-74.1	3.8	1.49e+00	0	27	104	1623195648	85	18960
2026-01-13 13:11:28.57	338.63	3.28	-60.2	-74.0	3.8	1.49e+00	0	27	104	1623195648	85	18894
2026-01-13 13:11:31.58	338.95	3.15	-60.2	-74.0	3.8	1.49e+00	0	27	104	1623195648	85	18859
2026-01-13 13:11:34.57	339.27	3.02	-60.2	-74.0	3.8	1.49e+00	0	27	104	1623195648	85	18844
2026-01-13 13:11:37.56	339.58	2.89	-60.1	-74.0	3.8	1.49e+00	0	27	104	1623195648	85	18850
2026-01-13 13:11:40.56	339.90	2.76	-60.1	-74.0	3.8	1.49e+00	0	27	104	1623195648	85	18780
2026-01-13 13:11:43.54	340.20	2.62	-60.1	-74.0	3.8	1.49e+00	0	27	104	1623195648	85	18807
2026-01-13 13:11:46.55	340.51	2.49	-60.1	-74.0	3.8	1.49e+00	0	27	104	1623195648	85	18762
2026-01-13 13:11:49.56	340.81	2.36	-60.1	-74.0	3.8	1.49e+00	0	27	104	1623195648	85	18735
2026-01-13 13:11:52.57	341.12	2.23	-60.1	-73.9	3.8	1.49e+00	0	27	104	1623195648	85	18711
2026-01-13 13:11:55.57	341.41	2.10	-60.1	-73.9	3.8	1.49e+00	0	27	104	1623195648	85	18726

#Closed at: 2026-01-13 13:11:58
#Recorded file [1623 MB]: D:/lorett/data/31004_260113_160111.dat