passes_logs/2026/01/13/R3.2S_Murmansk/R3.2S_Murmansk__20260113_102700_NOAA_20_JPSS-1_rec.log

#Pass ID: 20260113_102700_NOAA 20 (JPSS-1)
#Satellite: NOAA 20 (JPSS-1)
#Configuration: NOAA 20
#almurnet v.1.7.20251203
#Start time: 2026-01-13 10:27:02

#Version: 2.2.20231116
#Station: R3.2S_Murmansk
#Location: 33.079688 lon 68.888172 lat
#TLE: 1 43013U 17073A   26013.14496985  .00000068  00000+0  53315-4 0  9991
#TLE: 2 43013  98.7633 314.1039 0001584  42.1170 318.0128 14.19535620422471

#Time	Az	El	Level	Level2	SNR	BER	BlckErr	Temp	State	Recorded	gain1	gain2
2026-01-13 10:27:02.45	174.35	2.10	-58.2	-74.1	3.8	1.49e+00	0	24	0	0	82	22771
2026-01-13 10:27:06.43	174.46	2.36	-58.1	-73.8	3.8	1.49e+00	0	24	104	0	81	23244
2026-01-13 10:27:10.43	174.58	2.61	-58.1	-73.7	3.8	1.49e+00	0	24	104	0	81	23038
2026-01-13 10:27:14.39	174.70	2.87	-58.1	-74.0	3.8	1.49e+00	0	25	104	0	81	23714
2026-01-13 10:27:18.35	174.82	3.13	-58.1	-73.9	3.8	1.49e+00	0	25	104	0	81	23530
2026-01-13 10:27:22.33	174.94	3.39	-58.2	-74.1	3.8	1.49e+00	0	25	104	0	81	24090
2026-01-13 10:27:26.32	175.07	3.65	-58.1	-72.7	3.8	1.49e+00	0	25	104	0	81	20426
2026-01-13 10:27:30.30	175.20	3.92	-57.9	-68.9	4.8	6.66e-01	0	25	0	3145728	81	13204
2026-01-13 10:27:34.28	175.33	4.19	-57.5	-65.9	6.6	1.99e-01	0	25	0	10485760	81	9298
2026-01-13 10:27:38.26	175.46	4.46	-56.9	-62.9	9.2	1.93e-02	0	25	0	17825792	80	7022
2026-01-13 10:27:42.26	175.59	4.73	-55.9	-60.3	11.3	2.46e-04	0	25	0	25165824	78	5817
2026-01-13 10:27:46.23	175.73	5.01	-55.5	-59.3	12.0	6.80e-06	0	25	0	32505856	77	5526
2026-01-13 10:27:50.20	175.86	5.29	-57.2	-64.6	7.7	3.25e-02	0	25	0	39845888	79	9038
2026-01-13 10:27:54.18	176.00	5.57	-54.1	-57.0	13.3	0.00e+00	0	25	0	47185920	74	4986
2026-01-13 10:27:58.15	176.15	5.85	-54.0	-56.6	13.6	0.00e+00	0	25	0	54525952	74	4800
2026-01-13 10:28:02.12	176.29	6.14	-54.1	-56.8	13.5	0.00e+00	0	25	0	62914560	74	4873
2026-01-13 10:28:06.10	176.44	6.43	-53.8	-56.4	13.7	0.00e+00	0	25	0	70254592	74	4663
2026-01-13 10:28:10.07	176.59	6.73	-53.7	-56.2	13.9	0.00e+00	0	26	0	77594624	74	4549
2026-01-13 10:28:14.03	176.74	7.02	-53.7	-56.1	13.8	0.00e+00	0	25	0	84934656	73	4797
2026-01-13 10:28:18.00	176.90	7.32	-53.6	-56.0	13.9	0.00e+00	0	26	0	92274688	73	4713
2026-01-13 10:28:21.97	177.06	7.63	-53.6	-56.1	13.8	0.00e+00	0	26	0	99614720	73	4779
2026-01-13 10:28:25.95	177.22	7.93	-53.6	-56.0	13.9	0.00e+00	0	26	0	106954752	73	4727
2026-01-13 10:28:29.92	177.38	8.25	-53.5	-55.8	14.0	0.00e+00	0	26	0	114294784	73	4605
2026-01-13 10:28:33.89	177.55	8.56	-53.6	-55.9	13.9	0.00e+00	0	26	0	121634816	73	4683
2026-01-13 10:28:37.88	177.73	8.88	-53.3	-55.5	14.2	0.00e+00	0	26	0	128974848	73	4452
2026-01-13 10:28:41.85	177.90	9.20	-53.3	-55.5	14.2	0.00e+00	0	26	0	137363456	73	4467
2026-01-13 10:28:45.83	178.08	9.53	-53.3	-55.4	14.2	0.00e+00	0	26	0	144703488	73	4441
2026-01-13 10:28:49.78	178.26	9.86	-53.2	-55.4	14.3	0.00e+00	0	26	0	152043520	73	4401
2026-01-13 10:28:53.75	178.45	10.19	-53.2	-55.3	14.2	0.00e+00	0	26	0	159383552	72	4627
2026-01-13 10:28:57.72	178.64	10.53	-53.2	-55.4	14.1	0.00e+00	0	26	0	166723584	72	4665
2026-01-13 10:29:01.69	178.83	10.88	-53.2	-55.4	14.1	0.00e+00	0	26	0	174063616	72	4689
2026-01-13 10:29:05.66	179.03	11.22	-53.3	-55.4	14.1	0.00e+00	0	26	0	181403648	72	4705
2026-01-13 10:29:09.62	179.24	11.58	-53.2	-55.4	14.2	0.00e+00	0	26	0	188743680	72	4665
2026-01-13 10:29:13.60	179.44	11.94	-53.0	-55.1	14.3	0.00e+00	0	26	0	196083712	72	4529
2026-01-13 10:29:17.55	179.66	12.30	-53.0	-55.1	14.3	0.00e+00	0	26	0	203423744	72	4518
2026-01-13 10:29:21.52	179.87	12.66	-52.9	-55.0	14.4	0.00e+00	0	26	0	211812352	72	4442
2026-01-13 10:29:25.48	180.10	13.04	-53.0	-55.0	14.4	0.00e+00	0	26	0	219152384	72	4467
2026-01-13 10:29:29.44	180.32	13.41	-52.9	-54.9	14.4	0.00e+00	0	26	0	226492416	72	4402
2026-01-13 10:29:33.41	180.56	13.80	-52.9	-54.9	14.4	0.00e+00	0	26	0	233832448	72	4402
2026-01-13 10:29:37.38	180.80	14.19	-52.9	-54.9	14.4	0.00e+00	0	26	0	241172480	72	4414
2026-01-13 10:29:41.35	181.04	14.58	-52.8	-54.7	14.5	0.00e+00	0	26	0	248512512	72	4338
2026-01-13 10:29:45.33	181.30	14.99	-52.8	-54.8	14.5	0.00e+00	0	26	0	255852544	72	4366
2026-01-13 10:29:49.29	181.55	15.39	-52.6	-54.5	14.5	0.00e+00	0	26	0	263192576	71	4473
2026-01-13 10:29:53.27	181.82	15.81	-52.5	-54.4	14.5	0.00e+00	0	26	0	270532608	71	4425
2026-01-13 10:29:57.25	182.09	16.23	-52.6	-54.4	14.5	0.00e+00	0	26	0	277872640	71	4435
2026-01-13 10:30:01.22	182.37	16.66	-52.4	-54.2	14.6	0.00e+00	0	26	0	286261248	71	4312
2026-01-13 10:30:05.20	182.66	17.10	-52.3	-54.1	14.7	0.00e+00	0	26	0	293601280	71	4283
2026-01-13 10:30:09.16	182.95	17.54	-52.2	-54.0	14.7	0.00e+00	0	26	0	300941312	71	4233
2026-01-13 10:30:13.13	183.26	17.99	-52.2	-53.9	14.8	0.00e+00	0	26	0	308281344	71	4188
2026-01-13 10:30:17.09	183.57	18.44	-52.0	-53.8	14.7	0.00e+00	0	26	0	315621376	70	4352
2026-01-13 10:30:21.05	183.89	18.91	-51.9	-53.7	14.8	0.00e+00	0	26	0	322961408	70	4296
2026-01-13 10:30:25.02	184.22	19.38	-51.8	-53.4	14.9	0.00e+00	0	26	0	330301440	70	4182
2026-01-13 10:30:29.00	184.56	19.86	-51.7	-53.3	14.8	0.00e+00	0	26	0	337641472	69	4379
2026-01-13 10:30:32.98	184.91	20.35	-51.5	-53.2	14.9	0.00e+00	0	26	0	344981504	69	4306
2026-01-13 10:30:36.95	185.28	20.85	-51.5	-53.1	14.9	0.00e+00	0	26	0	352321536	69	4251
2026-01-13 10:30:40.93	185.65	21.36	-51.5	-53.1	14.9	0.00e+00	0	26	0	360710144	69	4248
2026-01-13 10:30:44.90	186.04	21.88	-51.3	-52.9	15.0	0.00e+00	0	26	0	368050176	69	4167
2026-01-13 10:30:48.86	186.43	22.40	-51.2	-52.8	15.0	0.00e+00	0	26	0	375390208	69	4100
2026-01-13 10:30:52.83	186.84	22.94	-51.0	-52.5	15.0	0.00e+00	0	26	0	382730240	68	4222
2026-01-13 10:30:56.83	187.27	23.49	-50.9	-52.4	15.0	0.00e+00	0	26	0	390070272	68	4163
2026-01-13 10:31:00.81	187.71	24.05	-50.8	-52.3	15.1	0.00e+00	0	26	0	397410304	68	4124
2026-01-13 10:31:04.79	188.17	24.61	-51.1	-52.7	14.9	0.00e+00	0	26	0	404750336	68	4297
2026-01-13 10:31:08.76	188.64	25.19	-51.3	-52.9	14.9	0.00e+00	0	26	0	412090368	68	4421
2026-01-13 10:31:12.71	189.13	25.78	-51.5	-53.1	14.8	0.00e+00	0	26	0	419430400	68	4511
2026-01-13 10:31:16.69	189.64	26.38	-51.7	-53.3	14.7	0.00e+00	0	26	0	426770432	68	4636
2026-01-13 10:31:20.66	190.16	26.99	-52.2	-53.9	14.6	0.00e+00	0	26	0	435159040	69	4686
2026-01-13 10:31:24.62	190.71	27.61	-52.6	-54.5	14.4	0.00e+00	0	26	0	442499072	70	4736
2026-01-13 10:31:28.59	191.27	28.24	-53.0	-54.9	14.4	0.00e+00	0	26	0	449839104	71	4675
2026-01-13 10:31:32.57	191.86	28.89	-53.3	-55.4	14.1	0.00e+00	0	26	0	457179136	71	4934
2026-01-13 10:31:36.55	192.48	29.54	-53.6	-55.7	14.1	0.00e+00	0	26	0	464519168	72	4861
2026-01-13 10:31:40.51	193.11	30.21	-54.1	-56.4	13.9	0.00e+00	0	26	0	471859200	73	4983
2026-01-13 10:31:44.48	193.78	30.89	-54.7	-57.2	13.5	0.00e+00	0	26	0	479199232	74	5154
2026-01-13 10:31:48.46	194.47	31.58	-54.4	-56.7	13.8	0.00e+00	0	26	0	486539264	74	4851
2026-01-13 10:31:52.43	195.19	32.29	-54.1	-56.4	14.0	0.00e+00	0	26	0	493879296	74	4685
2026-01-13 10:31:56.43	195.95	33.01	-54.2	-56.5	13.9	0.00e+00	0	26	0	502267904	74	4752
2026-01-13 10:32:00.40	196.74	33.74	-54.0	-56.2	14.2	0.00e+00	0	26	0	509607936	74	4551
2026-01-13 10:32:04.37	197.56	34.48	-53.6	-55.7	14.3	0.00e+00	0	26	0	516947968	73	4549
2026-01-13 10:32:08.35	198.42	35.23	-53.5	-55.6	14.3	0.00e+00	0	26	0	524288000	73	4508
2026-01-13 10:32:12.33	199.32	35.99	-53.4	-55.3	14.5	0.00e+00	0	26	0	531628032	73	4388
2026-01-13 10:32:16.31	200.27	36.76	-52.8	-54.6	14.7	0.00e+00	0	26	0	538968064	72	4259
2026-01-13 10:32:20.28	201.25	37.54	-52.5	-54.3	14.7	0.00e+00	0	26	0	546308096	71	4348
2026-01-13 10:32:24.24	202.28	38.33	-52.2	-53.9	14.7	0.00e+00	0	26	0	553648128	70	4399
2026-01-13 10:32:28.23	203.37	39.13	-52.0	-53.6	14.8	0.00e+00	0	26	0	560988160	70	4286
2026-01-13 10:32:32.21	204.52	39.94	-51.8	-53.4	14.9	0.00e+00	0	26	0	569376768	70	4170
2026-01-13 10:32:36.18	205.71	40.75	-51.9	-53.5	14.9	0.00e+00	0	26	0	576716800	70	4237
2026-01-13 10:32:40.17	206.97	41.57	-52.2	-53.9	14.7	0.00e+00	0	26	0	584056832	70	4429
2026-01-13 10:32:44.15	208.30	42.38	-52.7	-54.6	14.4	0.00e+00	0	26	0	591396864	70	4762
2026-01-13 10:32:48.13	209.69	43.20	-52.8	-54.7	14.4	0.00e+00	0	26	0	598736896	70	4828
2026-01-13 10:32:52.11	211.15	44.02	-53.8	-56.0	14.0	0.00e+00	0	26	0	606076928	72	4985
2026-01-13 10:32:56.09	212.69	44.83	-53.4	-55.4	14.3	0.00e+00	0	26	0	613416960	72	4684
2026-01-13 10:33:00.09	214.32	45.64	-54.2	-56.5	13.8	0.00e+00	0	26	0	620756992	73	5031
2026-01-13 10:33:04.08	216.03	46.44	-54.5	-56.9	13.8	0.00e+00	0	26	0	629145600	74	4930
2026-01-13 10:33:08.05	217.81	47.22	-54.8	-57.3	13.6	0.00e+00	0	26	0	636485632	74	5165
2026-01-13 10:33:12.01	219.68	47.98	-54.2	-56.4	14.0	0.00e+00	0	26	0	643825664	74	4697
2026-01-13 10:33:15.99	221.65	48.73	-54.6	-57.0	13.8	0.00e+00	0	26	0	651165696	74	4996
2026-01-13 10:33:19.97	223.72	49.45	-53.8	-55.9	14.4	0.00e+00	0	26	0	658505728	74	4400
2026-01-13 10:33:23.93	225.87	50.13	-54.2	-56.4	14.0	0.00e+00	0	26	0	665845760	73	4947
2026-01-13 10:33:27.92	228.13	50.79	-53.0	-54.8	14.6	0.00e+00	0	26	0	673185792	72	4376
2026-01-13 10:33:31.90	230.48	51.40	-52.4	-54.1	14.8	0.00e+00	0	26	0	680525824	71	4253
2026-01-13 10:33:35.87	232.93	51.98	-52.0	-53.7	14.7	0.00e+00	0	26	0	687865856	69	4563
2026-01-13 10:33:39.86	235.47	52.50	-51.5	-53.0	15.0	0.00e+00	0	26	0	696254464	69	4240
2026-01-13 10:33:43.82	238.09	52.97	-51.8	-53.4	14.8	0.00e+00	0	26	0	703594496	69	4430
2026-01-13 10:33:47.79	240.79	53.38	-51.3	-52.8	15.1	0.00e+00	0	26	0	710934528	69	4141
2026-01-13 10:33:51.77	243.56	53.72	-52.3	-53.9	14.6	0.00e+00	0	26	0	718274560	69	4705
2026-01-13 10:33:55.77	246.41	54.01	-52.2	-53.9	14.6	0.00e+00	0	26	0	725614592	69	4687
2026-01-13 10:33:59.76	249.30	54.22	-52.0	-53.7	14.8	0.00e+00	0	26	0	732954624	70	4292
2026-01-13 10:34:03.71	252.20	54.36	-52.3	-54.0	14.7	0.00e+00	0	26	0	740294656	70	4455
2026-01-13 10:34:07.70	255.15	54.43	-52.4	-54.1	14.7	0.00e+00	0	26	0	747634688	70	4498
2026-01-13 10:34:11.67	258.09	54.42	-51.9	-53.5	14.9	0.00e+00	0	26	0	754974720	70	4225
2026-01-13 10:34:15.65	261.03	54.34	-52.3	-54.0	14.7	0.00e+00	0	26	0	762314752	70	4462
2026-01-13 10:34:19.63	263.94	54.18	-51.0	-52.4	15.1	0.00e+00	0	26	0	770703360	68	4181
2026-01-13 10:34:23.60	266.80	53.95	-51.1	-52.6	15.0	0.00e+00	0	26	0	778043392	68	4279
2026-01-13 10:34:27.57	269.62	53.66	-50.5	-51.9	15.1	0.00e+00	0	26	0	785383424	67	4158
2026-01-13 10:34:31.53	272.37	53.30	-52.4	-53.8	14.6	0.00e+00	0	26	0	792723456	69	4608
2026-01-13 10:34:35.52	275.06	52.88	-51.9	-53.5	14.8	0.00e+00	0	26	0	800063488	69	4450
2026-01-13 10:34:39.49	277.66	52.40	-52.1	-53.7	14.7	0.00e+00	0	26	0	807403520	69	4596
2026-01-13 10:34:43.46	280.17	51.87	-52.0	-53.7	14.7	0.00e+00	0	26	0	814743552	69	4558
2026-01-13 10:34:47.45	282.60	51.28	-52.4	-54.1	14.7	0.00e+00	0	26	0	822083584	70	4530
2026-01-13 10:34:51.44	284.94	50.66	-53.2	-55.1	14.4	0.00e+00	0	26	0	829423616	71	4779
2026-01-13 10:34:55.40	287.16	50.00	-55.4	-58.1	13.3	0.00e+00	0	26	0	837812224	75	5350
2026-01-13 10:34:59.36	289.29	49.31	-55.5	-58.2	13.4	0.00e+00	0	26	0	845152256	76	5144
2026-01-13 10:35:03.34	291.33	48.59	-56.7	-60.2	12.4	1.50e-06	0	26	0	852492288	79	5419
2026-01-13 10:35:07.33	293.29	47.84	-56.8	-60.4	12.2	0.00e+00	0	26	0	859832320	78	5899
2026-01-13 10:35:11.30	295.14	47.08	-55.3	-57.9	13.6	0.00e+00	0	26	0	867172352	77	4673
2026-01-13 10:35:15.28	296.90	46.29	-54.2	-56.4	14.2	0.00e+00	0	26	0	874512384	75	4410
2026-01-13 10:35:19.26	298.59	45.50	-53.6	-55.6	14.2	0.00e+00	0	26	0	881852416	72	4792
2026-01-13 10:35:23.24	300.18	44.69	-54.2	-56.4	14.1	0.00e+00	0	26	0	889192448	74	4673
2026-01-13 10:35:27.21	301.70	43.89	-54.7	-57.1	13.8	0.00e+00	0	26	0	896532480	74	5048
2026-01-13 10:35:31.18	303.14	43.07	-53.4	-55.3	14.6	0.00e+00	0	26	0	904921088	73	4344
2026-01-13 10:35:35.14	304.51	42.26	-55.9	-58.9	13.0	0.00e+00	0	26	0	912261120	76	5568
2026-01-13 10:35:39.12	305.82	41.45	-55.3	-57.8	13.7	0.00e+00	0	26	0	919601152	77	4642
2026-01-13 10:35:43.12	307.08	40.63	-57.7	-62.4	10.8	9.53e-05	0	26	0	926941184	80	6619
2026-01-13 10:35:47.10	308.26	39.82	-55.5	-58.2	13.5	0.00e+00	0	26	0	934281216	77	4849
2026-01-13 10:35:51.05	309.38	39.03	-58.7	-65.6	8.2	2.48e-02	0	26	0	941621248	82	8485
2026-01-13 10:35:55.03	310.46	38.23	-55.6	-58.3	13.4	0.00e+00	0	26	0	948961280	77	4906
2026-01-13 10:35:58.99	311.48	37.45	-57.4	-61.8	11.3	2.21e-05	0	26	0	956301312	80	6136
2026-01-13 10:36:02.95	312.45	36.68	-53.8	-55.8	14.4	0.00e+00	0	26	0	963641344	74	4379
2026-01-13 10:36:06.93	313.39	35.91	-54.7	-57.0	13.8	0.00e+00	0	26	0	970981376	74	5031
2026-01-13 10:36:10.90	314.28	35.15	-54.8	-57.2	13.9	0.00e+00	0	26	0	979369984	76	4548
2026-01-13 10:36:14.87	315.13	34.41	-54.4	-56.6	14.0	0.00e+00	0	26	0	986710016	74	4787
2026-01-13 10:36:18.84	315.95	33.68	-55.8	-58.8	12.9	0.00e+00	0	26	0	994050048	76	5473
2026-01-13 10:36:22.81	316.73	32.95	-54.3	-56.6	14.1	0.00e+00	0	26	0	1001390080	75	4496
2026-01-13 10:36:26.78	317.47	32.24	-54.7	-57.0	13.7	0.00e+00	0	26	0	1008730112	74	5040
2026-01-13 10:36:30.76	318.19	31.54	-56.3	-59.7	12.4	0.00e+00	0	26	0	1016070144	77	5764
2026-01-13 10:36:34.73	318.88	30.86	-55.5	-58.3	13.3	0.00e+00	0	26	0	1023410176	77	4920
2026-01-13 10:36:38.70	319.54	30.18	-54.8	-57.1	13.9	0.00e+00	0	26	0	1030750208	76	4527
2026-01-13 10:36:42.68	320.17	29.52	-55.0	-57.5	13.6	0.00e+00	0	26	0	1038090240	75	5032
2026-01-13 10:36:46.65	320.78	28.86	-54.3	-56.5	14.1	0.00e+00	0	26	0	1046478848	75	4481
2026-01-13 10:36:50.62	321.37	28.22	-53.3	-55.2	14.5	0.00e+00	0	26	0	1053818880	73	4306
2026-01-13 10:36:54.60	321.93	27.59	-53.3	-55.2	14.5	0.00e+00	0	26	0	1061158912	73	4330
2026-01-13 10:36:58.58	322.47	26.98	-54.0	-56.1	14.0	0.00e+00	0	26	0	1068498944	73	4803
2026-01-13 10:37:02.56	323.00	26.37	-54.3	-56.7	13.8	0.00e+00	0	26	0	1075838976	73	5102
2026-01-13 10:37:06.53	323.50	25.78	-53.7	-55.8	14.2	0.00e+00	0	26	0	1083179008	73	4651
2026-01-13 10:37:10.51	323.99	25.19	-53.5	-55.5	14.3	0.00e+00	0	26	0	1090519040	73	4476
2026-01-13 10:37:14.49	324.46	24.62	-53.6	-55.6	14.3	0.00e+00	0	26	0	1097859072	73	4519
2026-01-13 10:37:18.47	324.91	24.05	-53.8	-55.9	14.2	0.00e+00	0	26	0	1105199104	73	4675
2026-01-13 10:37:22.45	325.35	23.50	-53.4	-55.4	14.4	0.00e+00	0	26	0	1113587712	73	4435
2026-01-13 10:37:26.42	325.78	22.96	-53.2	-55.2	14.4	0.00e+00	0	26	0	1120927744	72	4571
2026-01-13 10:37:30.38	326.19	22.43	-53.1	-55.1	14.4	0.00e+00	0	26	0	1128267776	72	4498
2026-01-13 10:37:34.36	326.58	21.90	-53.4	-55.5	14.2	0.00e+00	0	26	0	1135607808	72	4708
2026-01-13 10:37:38.32	326.97	21.39	-53.8	-56.0	13.9	0.00e+00	0	26	0	1142947840	72	5010
2026-01-13 10:37:42.30	327.34	20.89	-53.9	-56.1	14.0	0.00e+00	0	26	0	1150287872	73	4804
2026-01-13 10:37:46.27	327.70	20.39	-53.5	-55.5	14.3	0.00e+00	0	26	0	1157627904	73	4489
2026-01-13 10:37:50.26	328.06	19.90	-53.0	-54.9	14.5	0.00e+00	0	26	0	1164967936	72	4394
2026-01-13 10:37:54.25	328.40	19.42	-52.7	-54.5	14.7	0.00e+00	0	26	0	1172307968	72	4241
2026-01-13 10:37:58.23	328.73	18.95	-52.9	-54.8	14.5	0.00e+00	0	26	0	1179648000	72	4384
2026-01-13 10:38:02.22	329.05	18.49	-53.2	-55.2	14.3	0.00e+00	0	26	0	1188036608	72	4563
2026-01-13 10:38:06.20	329.36	18.03	-53.2	-55.3	14.3	0.00e+00	0	26	0	1195376640	72	4600
2026-01-13 10:38:10.17	329.67	17.58	-52.9	-54.9	14.5	0.00e+00	0	26	0	1202716672	72	4408
2026-01-13 10:38:14.17	329.96	17.14	-52.4	-54.3	14.6	0.00e+00	0	26	0	1210056704	71	4350
2026-01-13 10:38:18.13	330.25	16.71	-52.2	-53.9	14.8	0.00e+00	0	26	0	1217396736	71	4188
2026-01-13 10:38:22.11	330.53	16.28	-52.2	-53.9	14.6	0.00e+00	0	26	0	1224736768	70	4438
2026-01-13 10:38:26.09	330.80	15.86	-52.4	-54.2	14.5	0.00e+00	0	26	0	1232076800	70	4546
2026-01-13 10:38:30.06	331.07	15.45	-52.6	-54.5	14.4	0.00e+00	0	26	0	1239416832	70	4738
2026-01-13 10:38:34.03	331.33	15.05	-53.0	-55.0	14.3	0.00e+00	0	26	0	1246756864	71	4734
2026-01-13 10:38:38.00	331.58	14.65	-53.3	-55.4	14.0	0.00e+00	0	26	0	1255145472	71	4962
2026-01-13 10:38:41.97	331.83	14.25	-53.5	-55.7	14.0	0.00e+00	0	26	0	1262485504	72	4815
2026-01-13 10:38:45.93	332.07	13.87	-53.4	-55.5	14.1	0.00e+00	0	26	0	1269825536	72	4736
2026-01-13 10:38:49.92	332.30	13.48	-53.1	-55.1	14.3	0.00e+00	0	26	0	1277165568	72	4541
2026-01-13 10:38:53.90	332.53	13.11	-53.0	-55.0	14.4	0.00e+00	0	26	0	1284505600	72	4446
2026-01-13 10:38:57.86	332.76	12.74	-52.8	-54.8	14.4	0.00e+00	0	26	0	1291845632	72	4377
2026-01-13 10:39:01.82	332.97	12.37	-52.9	-54.9	14.4	0.00e+00	0	26	0	1299185664	72	4417
2026-01-13 10:39:05.80	333.19	12.01	-53.0	-55.1	14.3	0.00e+00	0	26	0	1306525696	72	4512
2026-01-13 10:39:09.78	333.40	11.66	-53.3	-55.4	14.1	0.00e+00	0	26	0	1313865728	72	4699
2026-01-13 10:39:13.76	333.60	11.30	-53.5	-55.8	13.9	0.00e+00	0	26	0	1322254336	72	4890
2026-01-13 10:39:17.74	333.80	10.96	-53.7	-56.1	13.7	0.00e+00	0	26	0	1329594368	72	5077
2026-01-13 10:39:21.71	334.00	10.62	-54.0	-56.5	13.6	0.00e+00	0	26	0	1336934400	73	4987
2026-01-13 10:39:25.68	334.19	10.28	-53.9	-56.4	13.7	0.00e+00	0	26	0	1344274432	73	4945
2026-01-13 10:39:29.66	334.38	9.94	-54.0	-56.5	13.6	0.00e+00	0	26	0	1351614464	73	4994
2026-01-13 10:39:33.63	334.56	9.62	-53.7	-56.1	13.8	0.00e+00	0	26	0	1358954496	73	4789
2026-01-13 10:39:37.60	334.75	9.29	-53.7	-56.1	13.8	0.00e+00	0	26	0	1366294528	73	4780
2026-01-13 10:39:41.57	334.92	8.97	-53.6	-55.9	13.9	0.00e+00	0	26	0	1373634560	73	4688
2026-01-13 10:39:45.55	335.10	8.65	-53.5	-55.8	14.0	0.00e+00	0	26	0	1380974592	73	4605
2026-01-13 10:39:49.51	335.27	8.34	-53.4	-55.7	14.0	0.00e+00	0	26	0	1388314624	73	4555
2026-01-13 10:39:53.48	335.43	8.03	-53.4	-55.7	14.0	0.00e+00	0	26	0	1396703232	73	4584
2026-01-13 10:39:57.47	335.60	7.73	-53.6	-55.9	13.9	0.00e+00	0	26	0	1404043264	73	4681
2026-01-13 10:40:01.44	335.76	7.42	-53.5	-55.9	13.8	0.00e+00	0	26	0	1411383296	73	4687
2026-01-13 10:40:05.43	335.92	7.12	-53.7	-56.2	13.7	0.00e+00	0	26	0	1418723328	73	4823
2026-01-13 10:40:09.43	336.07	6.83	-53.8	-56.3	13.6	0.00e+00	0	26	0	1426063360	73	4912
2026-01-13 10:40:13.40	336.23	6.53	-54.0	-56.7	13.4	0.00e+00	0	26	0	1433403392	73	5127
2026-01-13 10:40:17.38	336.38	6.24	-54.1	-56.8	13.3	0.00e+00	0	26	0	1440743424	73	5193
2026-01-13 10:40:21.35	336.52	5.96	-54.3	-57.2	13.1	0.00e+00	0	26	0	1448083456	74	5147
2026-01-13 10:40:25.34	336.67	5.67	-54.5	-57.6	12.9	0.00e+00	0	26	0	1456472064	74	5358
2026-01-13 10:40:29.30	336.81	5.39	-54.7	-57.9	12.7	0.00e+00	0	26	0	1463812096	74	5556
2026-01-13 10:40:33.28	336.95	5.12	-54.8	-58.1	12.5	0.00e+00	0	26	0	1471152128	74	5700
2026-01-13 10:40:37.29	337.09	4.84	-59.2	-75.3	3.8	1.49e+00	0	26	104	1474297856	83	24579
2026-01-13 10:40:41.29	337.23	4.57	-60.0	-76.0	3.8	1.49e+00	0	26	104	1474297856	85	23702
2026-01-13 10:40:45.32	337.36	4.29	-60.2	-76.3	3.8	1.49e+00	0	26	104	1474297856	85	24460
2026-01-13 10:40:49.32	337.50	4.02	-60.3	-76.4	3.8	1.49e+00	0	26	104	1474297856	85	24726
2026-01-13 10:40:53.35	337.63	3.76	-60.4	-76.5	3.8	1.49e+00	0	26	104	1474297856	85	25027
2026-01-13 10:40:57.36	337.76	3.49	-60.3	-76.4	3.8	1.49e+00	0	26	104	1474297856	85	24779
2026-01-13 10:41:01.32	337.88	3.23	-60.3	-76.3	3.8	1.49e+00	0	26	104	1474297856	85	24689
2026-01-13 10:41:05.29	338.00	2.98	-60.2	-76.3	3.8	1.49e+00	0	26	104	1474297856	85	24592
2026-01-13 10:41:09.27	338.13	2.72	-60.2	-76.3	3.8	1.49e+00	0	26	104	1474297856	85	24531
2026-01-13 10:41:13.25	338.25	2.47	-60.2	-76.3	3.8	1.49e+00	0	26	104	1474297856	85	24562
2026-01-13 10:41:17.20	338.36	2.22	-60.2	-76.3	3.8	1.49e+00	0	26	104	1474297856	85	24510
2026-01-13 10:41:21.17	338.48	1.97	-60.2	-76.3	3.8	1.49e+00	0	27	104	1474297856	85	24502

#Closed at: 2026-01-13 10:41:23
#Recorded file [1474 MB]: D:/lorett/data/31004_260113_132702.dat