passes_logs/2026/01/13/R3.2S_Murmansk/R3.2S_Murmansk__20260113_014903_SUOMI_NPP_rec.log

#Pass ID: 20260113_014903_SUOMI NPP
#Satellite: SUOMI NPP
#Configuration: NPP
#almurnet v.1.7.20251203
#Start time: 2026-01-13 01:49:04

#Version: 2.2.20231116
#Station: R3.2S_Murmansk
#Location: 33.079688 lon 68.888172 lat
#TLE: 1 37849U 11061A   26012.28456845  .00000093  00000+0  65163-4 0  9999
#TLE: 2 37849  98.7807 314.3566 0002508  68.3553 291.7890 14.19524725736322

#Time	Az	El	Level	Level2	SNR	BER	BlckErr	Temp	State	Recorded	gain1	gain2
2026-01-13 01:49:04.51	29.33	2.04	-56.9	-72.9	3.8	1.49e+00	0	20	0	0	80	22133
2026-01-13 01:49:08.51	29.24	2.30	-56.9	-72.8	3.8	1.49e+00	0	20	104	0	78	24631
2026-01-13 01:49:12.51	29.15	2.55	-56.9	-72.8	3.8	1.49e+00	0	20	104	0	78	24668
2026-01-13 01:49:16.51	29.05	2.81	-56.8	-72.6	3.8	1.49e+00	0	21	104	0	78	23879
2026-01-13 01:49:20.53	28.95	3.07	-56.8	-72.0	3.8	1.49e+00	0	21	104	0	78	22344
2026-01-13 01:49:24.53	28.86	3.34	-56.8	-72.2	3.8	1.49e+00	0	21	104	0	78	22861
2026-01-13 01:49:28.52	28.76	3.60	-56.8	-71.9	3.8	1.49e+00	0	21	104	0	78	22225
2026-01-13 01:49:32.51	28.65	3.87	-56.7	-69.4	4.2	1.45e+00	0	21	0	0	78	16610
2026-01-13 01:49:36.50	28.55	4.14	-56.3	-64.8	6.5	2.68e-01	0	21	0	6291456	78	9807
2026-01-13 01:49:40.48	28.44	4.41	-55.8	-62.4	8.7	2.06e-02	0	21	0	13631488	78	7453
2026-01-13 01:49:44.49	28.33	4.68	-55.7	-62.3	8.7	2.01e-02	0	21	0	20971520	77	7788
2026-01-13 01:49:48.49	28.22	4.96	-56.1	-64.2	7.0	9.99e-02	0	21	0	28311552	77	9663
2026-01-13 01:49:52.50	28.11	5.24	-56.2	-64.5	7.0	6.74e-03	0	22	0	35651584	77	9952
2026-01-13 01:49:56.49	27.99	5.53	-53.3	-56.4	13.5	0.00e+00	0	21	0	42991616	72	5232
2026-01-13 01:50:00.50	27.87	5.81	-52.9	-55.7	14.0	0.00e+00	0	22	0	50331648	72	4843
2026-01-13 01:50:04.49	27.75	6.10	-52.3	-54.9	14.2	0.00e+00	0	22	0	57671680	70	4950
2026-01-13 01:50:08.48	27.62	6.39	-52.1	-54.6	14.5	0.00e+00	0	22	0	65011712	70	4766
2026-01-13 01:50:12.47	27.50	6.69	-52.0	-54.3	14.7	0.00e+00	0	22	0	72351744	70	4641
2026-01-13 01:50:16.48	27.36	6.99	-52.0	-54.4	14.6	0.00e+00	0	22	0	80740352	70	4665
2026-01-13 01:50:20.47	27.23	7.29	-51.9	-54.1	14.8	0.00e+00	0	22	0	88080384	70	4537
2026-01-13 01:50:24.47	27.09	7.60	-51.9	-54.1	14.8	0.00e+00	0	22	0	95420416	70	4528
2026-01-13 01:50:28.46	26.95	7.90	-51.6	-53.8	14.9	0.00e+00	0	22	0	102760448	69	4603
2026-01-13 01:50:32.46	26.81	8.22	-51.7	-54.0	14.7	0.00e+00	0	22	0	110100480	69	4706
2026-01-13 01:50:36.45	26.66	8.53	-51.7	-53.9	14.8	0.00e+00	0	22	0	117440512	69	4666
2026-01-13 01:50:40.45	26.51	8.85	-51.7	-53.9	14.8	0.00e+00	0	22	0	124780544	69	4655
2026-01-13 01:50:44.43	26.36	9.18	-51.6	-53.7	14.9	0.00e+00	0	22	0	133169152	69	4586
2026-01-13 01:50:48.42	26.20	9.51	-51.6	-53.8	14.9	0.00e+00	0	22	0	140509184	69	4618
2026-01-13 01:50:52.41	26.04	9.84	-51.7	-53.9	14.8	0.00e+00	0	22	0	147849216	69	4692
2026-01-13 01:50:56.41	25.87	10.17	-51.6	-53.8	14.9	0.00e+00	0	22	0	155189248	69	4607
2026-01-13 01:51:00.40	25.70	10.51	-51.5	-53.6	15.0	0.00e+00	0	22	0	162529280	69	4506
2026-01-13 01:51:04.40	25.53	10.86	-51.4	-53.5	15.0	0.00e+00	0	22	0	169869312	69	4460
2026-01-13 01:51:08.39	25.35	11.21	-51.1	-53.1	15.1	0.00e+00	0	22	0	177209344	68	4536
2026-01-13 01:51:12.37	25.16	11.56	-51.2	-53.2	15.0	0.00e+00	0	22	0	185597952	68	4595
2026-01-13 01:51:16.36	24.97	11.92	-51.3	-53.4	14.9	0.00e+00	0	22	0	192937984	68	4685
2026-01-13 01:51:20.36	24.78	12.29	-51.2	-53.2	15.1	0.00e+00	0	22	0	200278016	68	4560
2026-01-13 01:51:24.37	24.58	12.66	-51.0	-52.9	15.2	0.00e+00	0	22	0	207618048	68	4426
2026-01-13 01:51:28.36	24.37	13.03	-50.9	-52.8	15.3	0.00e+00	0	22	0	214958080	68	4366
2026-01-13 01:51:32.35	24.16	13.41	-51.0	-53.0	15.2	0.00e+00	0	22	0	222298112	68	4474
2026-01-13 01:51:36.33	23.95	13.80	-50.8	-52.7	15.4	0.00e+00	0	22	0	229638144	68	4315
2026-01-13 01:51:40.31	23.72	14.19	-50.6	-52.4	15.3	0.00e+00	0	22	0	238026752	67	4435
2026-01-13 01:51:44.29	23.50	14.59	-50.6	-52.5	15.2	0.00e+00	0	22	0	245366784	67	4459
2026-01-13 01:51:48.27	23.26	14.99	-50.4	-52.2	15.4	0.00e+00	0	22	0	252706816	67	4310
2026-01-13 01:51:52.26	23.02	15.40	-50.5	-52.3	15.4	0.00e+00	0	22	0	260046848	67	4356
2026-01-13 01:51:56.27	22.77	15.82	-50.5	-52.3	15.4	0.00e+00	0	22	0	267386880	67	4370
2026-01-13 01:52:00.27	22.51	16.24	-50.5	-52.3	15.3	0.00e+00	0	22	0	274726912	67	4388
2026-01-13 01:52:04.27	22.24	16.67	-50.5	-52.3	15.4	0.00e+00	0	22	0	282066944	67	4374
2026-01-13 01:52:08.27	21.97	17.11	-50.5	-52.4	15.3	0.00e+00	0	22	0	290455552	67	4392
2026-01-13 01:52:12.27	21.68	17.55	-50.6	-52.4	15.3	0.00e+00	0	22	0	297795584	67	4423
2026-01-13 01:52:16.24	21.39	18.00	-50.7	-52.5	15.2	0.00e+00	0	22	0	305135616	67	4479
2026-01-13 01:52:20.24	21.09	18.46	-50.6	-52.5	15.3	0.00e+00	0	22	0	312475648	67	4488
2026-01-13 01:52:24.25	20.78	18.93	-50.5	-52.4	15.3	0.00e+00	0	22	0	319815680	67	4394
2026-01-13 01:52:28.25	20.46	19.41	-50.3	-52.1	15.5	0.00e+00	0	22	0	327155712	67	4285
2026-01-13 01:52:32.25	20.13	19.89	-50.5	-52.3	15.4	0.00e+00	0	22	0	334495744	67	4357
2026-01-13 01:52:36.24	19.78	20.38	-50.8	-52.7	15.2	0.00e+00	0	22	0	342884352	67	4555
2026-01-13 01:52:40.22	19.43	20.88	-50.9	-52.9	15.1	0.00e+00	0	22	0	350224384	67	4659
2026-01-13 01:52:44.21	19.06	21.39	-51.0	-53.0	15.0	0.00e+00	0	22	0	357564416	67	4737
2026-01-13 01:52:48.19	18.69	21.91	-51.3	-53.4	14.8	0.00e+00	0	22	0	364904448	67	4930
2026-01-13 01:52:52.16	18.29	22.43	-51.3	-53.4	14.8	0.00e+00	0	22	0	372244480	67	4935
2026-01-13 01:52:56.15	17.89	22.97	-51.6	-53.6	14.9	0.00e+00	0	22	0	379584512	68	4807
2026-01-13 01:53:00.15	17.47	23.52	-51.6	-53.7	14.8	0.00e+00	0	22	0	386924544	68	4827
2026-01-13 01:53:04.14	17.03	24.07	-52.0	-54.3	14.6	0.00e+00	0	22	0	394264576	69	4900
2026-01-13 01:53:08.12	16.57	24.64	-52.2	-54.4	14.8	0.00e+00	0	22	0	402653184	70	4690
2026-01-13 01:53:12.11	16.10	25.22	-51.8	-53.9	15.1	0.00e+00	0	22	0	409993216	70	4393
2026-01-13 01:53:16.10	15.61	25.80	-51.9	-54.0	14.9	0.00e+00	0	22	0	417333248	69	4709
2026-01-13 01:53:20.10	15.10	26.40	-52.5	-54.8	14.5	0.00e+00	0	22	0	424673280	70	4920
2026-01-13 01:53:24.11	14.57	27.02	-52.4	-54.8	14.6	0.00e+00	0	22	0	432013312	70	4885
2026-01-13 01:53:28.11	14.02	27.64	-51.9	-54.0	15.0	0.00e+00	0	22	0	439353344	70	4489
2026-01-13 01:53:32.10	13.45	28.27	-51.8	-53.9	14.9	0.00e+00	0	22	0	446693376	69	4672
2026-01-13 01:53:36.09	12.85	28.91	-52.2	-54.3	14.8	0.00e+00	0	22	0	455081984	70	4639
2026-01-13 01:53:40.09	12.23	29.57	-52.4	-54.6	14.7	0.00e+00	0	22	0	462422016	70	4760
2026-01-13 01:53:44.08	11.58	30.23	-52.5	-54.7	14.6	0.00e+00	0	22	0	469762048	70	4866
2026-01-13 01:53:48.06	10.90	30.91	-52.9	-55.3	14.4	0.00e+00	0	22	0	477102080	71	4925
2026-01-13 01:53:52.04	10.20	31.59	-53.0	-55.4	14.3	0.00e+00	0	22	0	484442112	71	4974
2026-01-13 01:53:56.02	9.46	32.29	-53.8	-56.6	13.8	0.00e+00	0	22	0	491782144	72	5365
2026-01-13 01:54:00.02	8.69	33.00	-53.9	-56.7	13.8	0.00e+00	0	22	0	499122176	73	5154
2026-01-13 01:54:04.00	7.89	33.72	-54.6	-58.2	13.0	0.00e+00	0	22	0	506462208	74	5772
2026-01-13 01:54:07.98	7.05	34.45	-54.6	-58.6	12.7	2.20e-06	0	22	0	514850816	75	5662
2026-01-13 01:54:11.97	6.16	35.19	-53.2	-56.0	14.3	0.00e+00	0	22	0	522190848	73	4757
2026-01-13 01:54:15.97	5.23	35.94	-53.0	-55.8	14.3	0.00e+00	0	22	0	529530880	72	4903
2026-01-13 01:54:19.97	4.26	36.70	-52.7	-55.2	14.5	0.00e+00	0	22	0	536870912	71	4869
2026-01-13 01:54:23.96	3.25	37.47	-52.9	-55.5	14.4	0.00e+00	0	22	0	544210944	71	5022
2026-01-13 01:54:27.98	2.17	38.24	-53.1	-56.2	13.8	0.00e+00	0	22	0	551550976	71	5432
2026-01-13 01:54:31.97	1.05	39.02	-53.3	-56.3	14.0	0.00e+00	0	22	0	559939584	72	5183
2026-01-13 01:54:35.96	359.88	39.81	-53.0	-55.8	14.1	0.00e+00	0	22	0	567279616	71	5192
2026-01-13 01:54:39.97	358.64	40.60	-53.5	-56.8	13.7	0.00e+00	0	22	0	574619648	73	5207
2026-01-13 01:54:43.95	357.34	41.38	-51.9	-54.1	15.0	0.00e+00	0	22	0	581959680	70	4529
2026-01-13 01:54:47.95	355.98	42.17	-53.1	-56.0	14.0	0.00e+00	0	22	0	589299712	71	5339
2026-01-13 01:54:51.92	354.55	42.96	-53.3	-56.3	14.0	0.00e+00	0	22	0	596639744	72	5218
2026-01-13 01:54:55.90	353.05	43.73	-54.1	-58.3	12.6	1.50e-06	0	22	0	603979776	73	6185
2026-01-13 01:54:59.88	351.48	44.50	-53.9	-57.5	13.5	0.00e+00	0	22	0	611319808	74	5328
2026-01-13 01:55:03.88	349.82	45.27	-54.9	-59.1	12.3	0.00e+00	0	22	0	619708416	74	6375
2026-01-13 01:55:07.89	348.07	46.02	-54.0	-57.5	13.5	0.00e+00	0	22	0	627048448	74	5311
2026-01-13 01:55:11.89	346.24	46.75	-52.7	-55.3	14.7	0.00e+00	0	22	0	634388480	72	4619
2026-01-13 01:55:15.90	344.33	47.47	-51.6	-53.8	14.9	0.00e+00	0	22	0	641728512	68	4902
2026-01-13 01:55:19.88	342.33	48.15	-52.7	-55.3	14.3	0.00e+00	0	22	0	649068544	70	5170
2026-01-13 01:55:23.86	340.25	48.80	-52.6	-55.4	14.2	0.00e+00	0	22	0	656408576	70	5251
2026-01-13 01:55:27.83	338.09	49.42	-51.6	-53.8	15.1	0.00e+00	0	22	0	663748608	69	4625
2026-01-13 01:55:31.83	335.82	50.01	-51.0	-53.1	15.2	0.00e+00	0	22	0	672137216	68	4532
2026-01-13 01:55:35.82	333.47	50.55	-52.0	-54.5	14.6	0.00e+00	0	22	0	679477248	69	4989
2026-01-13 01:55:39.81	331.03	51.04	-53.6	-57.8	13.0	0.00e+00	0	22	0	686817280	72	6185
2026-01-13 01:55:43.80	328.52	51.49	-52.2	-54.9	14.5	0.00e+00	0	22	0	694157312	70	4970
2026-01-13 01:55:47.78	325.95	51.87	-52.8	-56.3	13.6	0.00e+00	0	22	0	701497344	70	5812
2026-01-13 01:55:51.76	323.31	52.20	-51.4	-54.0	14.8	0.00e+00	0	22	0	708837376	69	4728
2026-01-13 01:55:55.75	320.61	52.46	-49.5	-51.4	15.5	0.00e+00	0	22	0	716177408	65	4420
2026-01-13 01:55:59.76	317.86	52.66	-50.0	-52.1	15.1	0.00e+00	0	22	0	724566016	65	4783
2026-01-13 01:56:03.75	315.08	52.79	-49.4	-51.3	15.6	0.00e+00	0	22	0	731906048	65	4374
2026-01-13 01:56:07.75	312.29	52.86	-49.4	-51.3	15.4	0.00e+00	0	22	0	739246080	64	4637
2026-01-13 01:56:11.75	309.48	52.85	-50.5	-52.8	15.0	0.00e+00	0	22	0	746586112	66	4905
2026-01-13 01:56:15.73	306.70	52.77	-51.0	-53.3	15.0	0.00e+00	0	22	0	753926144	67	4899
2026-01-13 01:56:19.72	303.93	52.62	-50.8	-53.1	15.0	0.00e+00	0	22	0	761266176	67	4814
2026-01-13 01:56:23.72	301.19	52.40	-50.7	-52.9	15.1	0.00e+00	0	22	0	768606208	67	4684
2026-01-13 01:56:27.71	298.51	52.12	-49.6	-51.4	15.5	0.00e+00	0	22	0	775946240	65	4416
2026-01-13 01:56:31.72	295.86	51.78	-49.7	-51.6	15.5	0.00e+00	0	22	0	784334848	65	4512
2026-01-13 01:56:35.73	293.28	51.37	-50.8	-53.0	15.1	0.00e+00	0	22	0	791674880	67	4754
2026-01-13 01:56:39.72	290.79	50.92	-50.4	-52.2	15.5	0.00e+00	0	22	0	799014912	67	4328
2026-01-13 01:56:43.70	288.38	50.41	-52.8	-55.6	14.2	0.00e+00	0	22	0	806354944	70	5347
2026-01-13 01:56:47.70	286.05	49.86	-52.9	-55.6	14.3	0.00e+00	0	22	0	813694976	71	5080
2026-01-13 01:56:51.69	283.80	49.26	-52.5	-55.0	14.7	0.00e+00	0	22	0	821035008	71	4722
2026-01-13 01:56:55.67	281.65	48.63	-52.7	-55.5	14.4	0.00e+00	0	22	0	828375040	71	4997
2026-01-13 01:56:59.67	279.58	47.96	-52.7	-55.4	14.2	0.00e+00	0	22	0	836763648	70	5278
2026-01-13 01:57:03.66	277.61	47.27	-52.5	-54.9	14.8	0.00e+00	0	22	0	844103680	71	4690
2026-01-13 01:57:07.66	275.71	46.55	-53.8	-57.0	13.6	0.00e+00	0	22	0	851443712	72	5637
2026-01-13 01:57:11.63	273.92	45.82	-52.4	-54.5	14.8	0.00e+00	0	22	0	858783744	70	4752
2026-01-13 01:57:15.61	272.20	45.07	-52.7	-55.1	14.5	0.00e+00	0	22	0	866123776	70	5061
2026-01-13 01:57:19.62	270.56	44.30	-53.5	-56.5	14.0	0.00e+00	0	22	0	873463808	73	4989
2026-01-13 01:57:23.61	269.00	43.52	-53.3	-56.3	14.0	0.00e+00	0	22	0	880803840	72	5185
2026-01-13 01:57:27.61	267.51	42.73	-54.0	-57.6	13.4	0.00e+00	0	22	0	889192448	74	5354
2026-01-13 01:57:31.61	266.09	41.94	-52.4	-54.9	14.6	0.00e+00	0	22	0	896532480	70	4934
2026-01-13 01:57:35.60	264.74	41.15	-53.9	-57.1	13.4	0.00e+00	0	22	0	903872512	73	5398
2026-01-13 01:57:39.60	263.46	40.36	-53.7	-56.8	13.8	0.00e+00	0	22	0	911212544	73	5206
2026-01-13 01:57:43.59	262.24	39.57	-55.1	-59.8	11.9	0.00e+00	0	22	0	918552576	75	6506
2026-01-13 01:57:47.58	261.08	38.79	-55.1	-59.7	12.1	3.73e-05	0	22	0	925892608	76	6067
2026-01-13 01:57:51.58	259.97	38.01	-54.9	-59.0	12.6	4.50e-06	0	22	0	933232640	76	5636
2026-01-13 01:57:55.55	258.92	37.24	-53.0	-55.6	14.4	0.00e+00	0	22	0	940572672	72	4796
2026-01-13 01:57:59.54	257.91	36.47	-51.8	-53.9	15.0	0.00e+00	0	22	0	948961280	70	4395
2026-01-13 01:58:03.55	256.95	35.71	-53.6	-56.7	13.8	0.00e+00	0	22	0	956301312	72	5406
2026-01-13 01:58:07.55	256.03	34.96	-54.7	-58.5	12.7	0.00e+00	0	22	0	963641344	74	5977
2026-01-13 01:58:11.55	255.15	34.22	-54.0	-57.1	13.8	0.00e+00	0	22	0	970981376	74	5043
2026-01-13 01:58:15.54	254.32	33.49	-53.5	-56.2	14.3	0.00e+00	0	22	0	978321408	73	4835
2026-01-13 01:58:19.53	253.52	32.77	-55.0	-58.7	12.8	1.50e-06	0	22	0	985661440	75	5779
2026-01-13 01:58:23.53	252.75	32.06	-53.1	-55.6	14.6	0.00e+00	0	23	0	994050048	72	4760
2026-01-13 01:58:27.53	252.02	31.36	-52.8	-55.1	14.6	0.00e+00	0	23	0	1001390080	71	4792
2026-01-13 01:58:31.52	251.32	30.68	-54.3	-57.4	13.2	0.00e+00	0	22	0	1008730112	73	5554
2026-01-13 01:58:35.53	250.65	30.00	-53.1	-55.6	14.4	0.00e+00	0	22	0	1016070144	72	4781
2026-01-13 01:58:39.53	250.00	29.33	-53.0	-55.4	14.4	0.00e+00	0	22	0	1023410176	72	4692
2026-01-13 01:58:43.52	249.39	28.68	-51.8	-53.8	15.2	0.00e+00	0	23	0	1030750208	70	4344
2026-01-13 01:58:47.50	248.80	28.04	-52.2	-54.4	14.7	0.00e+00	0	22	0	1038090240	69	4942
2026-01-13 01:58:51.48	248.23	27.41	-53.1	-55.7	14.2	0.00e+00	0	22	0	1046478848	71	5107
2026-01-13 01:58:55.46	247.69	26.80	-54.4	-57.7	13.3	0.00e+00	0	22	0	1053818880	74	5407
2026-01-13 01:58:59.43	247.16	26.19	-53.6	-56.3	14.1	0.00e+00	0	22	0	1061158912	73	4900
2026-01-13 01:59:03.41	246.66	25.60	-53.0	-55.4	14.5	0.00e+00	0	22	0	1068498944	72	4682
2026-01-13 01:59:07.41	246.17	25.01	-52.3	-54.5	14.7	0.00e+00	0	22	0	1075838976	70	4707
2026-01-13 01:59:11.41	245.70	24.43	-53.0	-55.5	14.3	0.00e+00	0	22	0	1083179008	71	5024
2026-01-13 01:59:15.41	245.25	23.87	-53.0	-55.5	14.3	0.00e+00	0	22	0	1090519040	71	5032
2026-01-13 01:59:19.39	244.82	23.31	-52.5	-54.7	14.8	0.00e+00	0	22	0	1097859072	71	4587
2026-01-13 01:59:23.38	244.40	22.77	-52.1	-54.2	14.9	0.00e+00	0	22	0	1106247680	70	4548
2026-01-13 01:59:27.39	243.99	22.23	-52.0	-54.1	15.0	0.00e+00	0	22	0	1113587712	70	4498
2026-01-13 01:59:31.39	243.60	21.70	-52.8	-55.2	14.3	0.00e+00	0	22	0	1120927744	70	5137
2026-01-13 01:59:35.40	243.22	21.18	-53.1	-55.5	14.2	0.00e+00	0	23	0	1128267776	71	5016
2026-01-13 01:59:39.38	242.86	20.68	-52.3	-54.3	14.9	0.00e+00	0	23	0	1135607808	71	4384
2026-01-13 01:59:43.37	242.50	20.18	-52.2	-54.3	14.8	0.00e+00	0	22	0	1142947840	70	4633
2026-01-13 01:59:47.36	242.16	19.69	-52.4	-54.6	14.6	0.00e+00	0	23	0	1150287872	70	4797
2026-01-13 01:59:51.34	241.83	19.21	-52.6	-55.0	14.4	0.00e+00	0	22	0	1158676480	70	5017
2026-01-13 01:59:55.32	241.52	18.74	-52.4	-54.6	14.6	0.00e+00	0	22	0	1166016512	70	4809
2026-01-13 01:59:59.29	241.21	18.27	-51.8	-53.8	15.1	0.00e+00	0	22	0	1173356544	70	4373
2026-01-13 02:00:03.28	240.91	17.82	-51.5	-53.4	15.1	0.00e+00	0	22	0	1180696576	69	4415
2026-01-13 02:00:07.27	240.62	17.37	-51.3	-53.1	15.3	0.00e+00	0	22	0	1188036608	69	4279
2026-01-13 02:00:11.28	240.33	16.92	-51.9	-54.0	14.8	0.00e+00	0	22	0	1195376640	69	4749
2026-01-13 02:00:15.27	240.06	16.48	-53.0	-55.5	14.1	0.00e+00	0	22	0	1202716672	71	5041
2026-01-13 02:00:19.27	239.79	16.06	-53.7	-56.6	13.6	0.00e+00	0	22	0	1211105280	72	5382
2026-01-13 02:00:23.28	239.54	15.63	-53.9	-56.9	13.6	0.00e+00	0	22	0	1218445312	73	5260
2026-01-13 02:00:27.26	239.29	15.22	-53.5	-56.2	14.1	0.00e+00	0	22	0	1225785344	73	4857
2026-01-13 02:00:31.26	239.04	14.81	-53.0	-55.4	14.4	0.00e+00	0	22	0	1233125376	72	4699
2026-01-13 02:00:35.25	238.81	14.40	-52.9	-55.4	14.4	0.00e+00	0	22	0	1240465408	72	4671
2026-01-13 02:00:39.25	238.58	14.01	-53.0	-55.6	14.3	0.00e+00	0	22	0	1247805440	72	4766
2026-01-13 02:00:43.23	238.36	13.62	-53.3	-55.9	14.1	0.00e+00	0	22	0	1255145472	72	4968
2026-01-13 02:00:47.22	238.14	13.23	-53.5	-56.3	13.8	0.00e+00	0	22	0	1262485504	72	5208
2026-01-13 02:00:51.22	237.93	12.85	-53.4	-56.1	13.9	0.00e+00	0	22	0	1270874112	72	5068
2026-01-13 02:00:55.22	237.72	12.48	-53.3	-55.9	14.0	0.00e+00	0	23	0	1278214144	72	4977
2026-01-13 02:00:59.21	237.52	12.11	-53.1	-55.7	14.2	0.00e+00	0	22	0	1285554176	72	4827
2026-01-13 02:01:03.20	237.33	11.75	-53.0	-55.6	14.3	0.00e+00	0	22	0	1292894208	72	4786
2026-01-13 02:01:07.20	237.14	11.39	-53.5	-56.3	13.8	0.00e+00	0	22	0	1300234240	72	5203
2026-01-13 02:01:11.21	236.95	11.03	-53.8	-56.8	13.4	0.00e+00	0	22	0	1307574272	72	5523
2026-01-13 02:01:15.21	236.77	10.68	-54.1	-57.4	13.1	0.00e+00	0	22	0	1314914304	73	5532
2026-01-13 02:01:19.21	236.59	10.34	-54.1	-57.4	13.1	7.00e-07	0	22	0	1323302912	73	5569
2026-01-13 02:01:23.20	236.42	10.00	-54.0	-57.2	13.3	0.00e+00	0	22	0	1330642944	73	5421
2026-01-13 02:01:27.20	236.25	9.66	-53.9	-57.0	13.4	0.00e+00	0	22	0	1337982976	73	5281
2026-01-13 02:01:31.21	236.09	9.33	-53.7	-56.6	13.6	0.00e+00	0	22	0	1345323008	73	5095
2026-01-13 02:01:35.21	235.93	9.00	-53.6	-56.5	13.7	0.00e+00	0	22	0	1352663040	73	5019
2026-01-13 02:01:39.21	235.78	8.68	-53.6	-56.6	13.6	0.00e+00	0	22	0	1360003072	73	5055
2026-01-13 02:01:43.21	235.62	8.36	-53.6	-56.5	13.7	0.00e+00	0	23	0	1368391680	73	5033
2026-01-13 02:01:47.20	235.48	8.04	-53.7	-56.7	13.5	0.00e+00	0	22	0	1375731712	73	5151
2026-01-13 02:01:51.20	235.33	7.73	-53.8	-56.9	13.4	0.00e+00	0	22	0	1383071744	73	5221
2026-01-13 02:01:55.16	235.19	7.42	-53.8	-56.9	13.3	0.00e+00	0	23	0	1390411776	73	5256
2026-01-13 02:01:59.15	235.05	7.12	-53.6	-56.7	13.5	0.00e+00	0	22	0	1397751808	73	5146
2026-01-13 02:02:03.15	234.92	6.82	-53.7	-56.8	13.4	0.00e+00	0	22	0	1405091840	73	5214
2026-01-13 02:02:07.14	234.78	6.52	-53.7	-56.8	13.4	0.00e+00	0	22	0	1412431872	73	5189
2026-01-13 02:02:11.13	234.66	6.22	-53.9	-57.1	13.2	0.00e+00	0	22	0	1420820480	73	5365
2026-01-13 02:02:15.14	234.53	5.93	-54.1	-57.5	12.9	0.00e+00	0	22	0	1428160512	73	5608
2026-01-13 02:02:19.14	234.40	5.64	-54.2	-57.6	12.7	0.00e+00	0	22	0	1435500544	73	5705
2026-01-13 02:02:23.14	234.28	5.36	-54.5	-58.2	12.4	2.20e-06	0	22	0	1442840576	74	5728
2026-01-13 02:02:27.13	234.16	5.07	-54.5	-58.2	12.4	1.50e-06	0	22	0	1450180608	74	5775
2026-01-13 02:02:31.13	234.05	4.79	-58.5	-74.6	3.8	1.49e+00	0	22	104	1453326336	82	23892
2026-01-13 02:02:35.13	233.94	4.51	-58.9	-74.9	3.8	1.49e+00	0	22	104	1453326336	82	24838
2026-01-13 02:02:39.13	233.82	4.24	-59.1	-75.1	3.8	1.49e+00	0	23	104	1453326336	83	24091
2026-01-13 02:02:43.14	233.71	3.97	-59.1	-75.2	3.8	1.49e+00	0	22	104	1453326336	83	24240
2026-01-13 02:02:47.13	233.61	3.70	-59.2	-75.3	3.8	1.49e+00	0	23	104	1453326336	83	24438
2026-01-13 02:02:51.11	233.50	3.43	-59.3	-75.3	3.8	1.49e+00	0	23	104	1453326336	83	24661
2026-01-13 02:02:55.10	233.40	3.17	-59.2	-75.3	3.8	1.49e+00	0	22	104	1453326336	83	24459
2026-01-13 02:02:59.08	233.30	2.91	-59.2	-75.3	3.8	1.49e+00	0	23	104	1453326336	83	24413
2026-01-13 02:03:03.06	233.20	2.65	-59.2	-75.2	3.8	1.49e+00	0	23	104	1453326336	83	24362
2026-01-13 02:03:07.05	233.11	2.39	-59.1	-75.2	3.8	1.49e+00	0	23	104	1453326336	83	24288
2026-01-13 02:03:11.05	233.01	2.14	-59.1	-75.2	3.8	1.49e+00	0	23	104	1453326336	83	24231
2026-01-13 02:03:15.06	232.92	1.88	-59.1	-75.2	3.8	1.49e+00	0	22	104	1453326336	83	24153

#Closed at: 2026-01-13 02:03:15
#Recorded file [1453 MB]: D:/lorett/data/31004_260113_044904.dat