passes_logs/2026/01/13/R3.2S_Murmansk/R3.2S_Murmansk__20260113_073205_AQUA_rec.log

#Pass ID: 20260113_073205_AQUA
#Satellite: AQUA
#Configuration: AQUA
#almurnet v.1.7.20251203
#Start time: 2026-01-13 07:32:05

#Version: 2.2.20231116
#Station: R3.2S_Murmansk
#Location: 33.079688 lon 68.888172 lat
#TLE: 1 27424U 02022A   26012.97247290  .00000860  00000+0  18212-3 0  9996
#TLE: 2 27424  98.4079 339.3658 0002038  80.7891 349.4888 14.61817856260594

#Time	Az	El	Level	Level2	SNR	BER	BlckErr	Temp	State	Recorded	gain1	gain2
2026-01-13 07:32:05.01	69.02	1.99	-57.1	-76.4	3.8	7.43e-01	0	23	0	0	83	32519
2026-01-13 07:32:08.03	68.78	2.16	-57.1	-76.4	3.8	7.48e-01	0	24	104	0	81	36397
2026-01-13 07:32:11.05	68.54	2.33	-57.1	-76.4	3.8	7.48e-01	0	23	104	0	81	36386
2026-01-13 07:32:14.04	68.30	2.51	-57.1	-76.4	3.8	7.44e-01	0	24	104	0	81	36502
2026-01-13 07:32:17.06	68.05	2.68	-57.1	-76.4	3.8	7.47e-01	0	23	104	0	81	36427
2026-01-13 07:32:20.07	67.80	2.85	-57.1	-76.1	3.8	7.44e-01	0	24	104	0	81	35015
2026-01-13 07:32:23.08	67.54	3.03	-57.1	-76.0	3.8	7.44e-01	0	24	104	0	81	34744
2026-01-13 07:32:26.10	67.28	3.21	-57.2	-76.3	3.8	7.46e-01	0	24	104	0	82	33848
2026-01-13 07:32:29.11	67.02	3.38	-57.2	-76.5	3.8	7.50e-01	0	24	104	0	82	34765
2026-01-13 07:32:32.11	66.76	3.56	-57.2	-76.3	3.8	7.47e-01	0	24	104	0	82	33745
2026-01-13 07:32:35.11	66.49	3.74	-57.2	-76.2	3.8	7.45e-01	0	24	104	0	82	33470
2026-01-13 07:32:38.12	66.22	3.91	-57.2	-76.2	3.8	7.48e-01	0	24	104	0	82	33339
2026-01-13 07:32:41.12	65.94	4.09	-57.2	-75.5	3.8	7.49e-01	0	24	104	0	82	30970
2026-01-13 07:32:44.12	65.66	4.27	-57.2	-76.4	3.8	7.46e-01	0	24	104	0	82	34151
2026-01-13 07:32:47.14	65.38	4.45	-57.0	-69.4	5.8	6.88e-01	92	24	0	0	82	15344
2026-01-13 07:32:50.14	65.09	4.64	-56.3	-63.9	10.3	6.13e-01	0	24	0	5767168	81	8618
2026-01-13 07:32:53.16	64.80	4.82	-55.4	-60.8	12.7	6.03e-01	0	24	0	11534336	80	6400
2026-01-13 07:32:56.16	64.50	5.00	-55.1	-60.1	13.0	6.04e-01	0	24	0	17301504	79	6250
2026-01-13 07:32:59.16	64.20	5.18	-52.2	-54.9	15.0	5.99e-01	0	25	0	22544384	72	5111
2026-01-13 07:33:02.14	63.90	5.37	-54.3	-58.1	13.9	6.01e-01	0	24	0	28311552	76	5907
2026-01-13 07:33:05.14	63.60	5.55	-51.1	-53.4	15.4	6.00e-01	0	25	0	33554432	71	4546
2026-01-13 07:33:08.14	63.28	5.74	-50.9	-53.1	15.5	6.01e-01	0	24	0	39321600	71	4407
2026-01-13 07:33:11.15	62.96	5.92	-50.8	-52.9	15.4	6.01e-01	0	25	0	45088768	70	4562
2026-01-13 07:33:14.15	62.64	6.11	-50.9	-53.0	15.4	6.00e-01	0	25	0	50855936	70	4616
2026-01-13 07:33:17.15	62.32	6.30	-50.6	-52.7	15.5	6.00e-01	0	25	0	56098816	70	4451
2026-01-13 07:33:20.15	61.99	6.49	-50.7	-52.7	15.5	6.01e-01	0	24	0	61865984	70	4480
2026-01-13 07:33:23.17	61.65	6.68	-50.7	-52.7	15.5	5.99e-01	0	25	0	67633152	70	4485
2026-01-13 07:33:26.18	61.31	6.87	-50.6	-52.6	15.6	5.99e-01	0	25	0	73400320	70	4400
2026-01-13 07:33:29.19	60.96	7.06	-50.7	-52.7	15.5	6.01e-01	0	25	0	78643200	70	4462
2026-01-13 07:33:32.20	60.61	7.25	-50.9	-52.9	15.4	6.01e-01	0	25	0	84410368	70	4576
2026-01-13 07:33:35.21	60.25	7.44	-50.6	-52.6	15.5	6.00e-01	0	25	0	90177536	70	4424
2026-01-13 07:33:38.21	59.89	7.63	-50.7	-52.8	15.5	5.98e-01	0	25	0	95944704	70	4499
2026-01-13 07:33:41.22	59.52	7.83	-50.6	-52.6	15.5	6.02e-01	0	25	0	101711872	70	4409
2026-01-13 07:33:44.23	59.15	8.02	-50.6	-52.6	15.5	6.01e-01	0	25	0	106954752	70	4403
2026-01-13 07:33:47.24	58.77	8.21	-50.4	-52.3	15.7	6.00e-01	0	25	0	112721920	70	4283
2026-01-13 07:33:50.26	58.38	8.41	-50.2	-52.1	15.5	6.00e-01	0	25	0	118489088	69	4415
2026-01-13 07:33:53.27	57.99	8.60	-50.6	-62.3	3.8	7.48e-01	0	25	104	121634816	69	14284
2026-01-13 07:33:56.28	57.60	8.80	-52.2	-64.5	3.8	7.46e-01	0	25	104	121634816	72	15563
2026-01-13 07:33:59.28	57.20	8.99	-53.0	-65.3	3.8	7.46e-01	0	25	104	121634816	74	15206
2026-01-13 07:34:02.28	56.79	9.19	-51.2	-62.9	3.9	7.42e-01	0	25	104	121634816	71	13571
2026-01-13 07:34:05.31	56.37	9.39	-56.7	-72.4	3.9	7.44e-01	0	25	104	121634816	82	21609
2026-01-13 07:34:08.30	55.95	9.58	-51.1	-62.7	3.8	7.47e-01	0	25	104	121634816	71	13374
2026-01-13 07:34:11.31	55.53	9.78	-52.5	-64.4	3.7	7.51e-01	0	25	104	121634816	73	14416
2026-01-13 07:34:14.32	55.09	9.98	-52.2	-63.9	3.8	7.47e-01	0	25	104	121634816	73	13687
2026-01-13 07:34:17.34	54.65	10.18	-50.5	-62.0	3.8	7.47e-01	0	25	104	121634816	70	13047
2026-01-13 07:34:20.36	54.20	10.38	-52.3	-64.4	3.8	7.47e-01	0	25	104	121634816	72	15265
2026-01-13 07:34:23.37	53.75	10.58	-52.1	-64.1	3.9	7.45e-01	0	25	104	121634816	73	13889
2026-01-13 07:34:26.38	53.29	10.77	-50.3	-61.9	3.8	7.50e-01	0	25	104	121634816	69	13584
2026-01-13 07:34:29.38	52.83	10.97	-55.9	-69.9	3.9	7.45e-01	0	25	104	121634816	81	17181
2026-01-13 07:34:32.39	52.35	11.17	-50.9	-62.5	3.8	7.46e-01	0	25	104	121634816	71	13083
2026-01-13 07:34:35.40	51.87	11.37	-50.5	-62.0	3.8	7.43e-01	0	25	104	121634816	69	13819
2026-01-13 07:34:38.40	51.39	11.57	-51.7	-63.4	3.8	7.39e-01	0	25	104	121634816	72	13601
2026-01-13 07:34:41.41	50.89	11.77	-50.4	-62.0	3.9	7.48e-01	0	25	104	121634816	70	12998
2026-01-13 07:34:44.41	50.39	11.96	-52.9	-65.0	3.8	7.45e-01	0	25	104	121634816	73	15453
2026-01-13 07:34:47.41	49.88	12.16	-51.5	-63.3	3.8	7.47e-01	0	25	104	121634816	72	13535
2026-01-13 07:34:50.41	49.36	12.36	-50.8	-62.3	3.8	7.43e-01	0	25	104	121634816	70	13549
2026-01-13 07:34:53.42	48.84	12.55	-55.4	-68.8	3.9	7.44e-01	0	25	104	121634816	80	15985
2026-01-13 07:34:56.43	48.31	12.75	-50.6	-62.2	3.8	7.49e-01	0	25	104	121634816	70	13340
2026-01-13 07:34:59.44	47.77	12.95	-51.2	-62.9	3.8	7.42e-01	0	25	104	121634816	71	13690
2026-01-13 07:35:02.45	47.22	13.14	-50.9	-62.6	3.9	7.48e-01	0	25	104	121634816	71	13113
2026-01-13 07:35:05.46	46.66	13.34	-50.4	-61.9	3.8	7.46e-01	0	25	104	121634816	70	12951
2026-01-13 07:35:08.47	46.10	13.53	-54.4	-67.1	3.8	7.49e-01	0	25	104	121634816	76	16657
2026-01-13 07:35:11.47	45.53	13.72	-51.0	-62.7	3.8	7.45e-01	0	25	104	121634816	71	13290
2026-01-13 07:35:14.48	44.95	13.91	-50.0	-61.4	3.8	7.49e-01	0	25	104	121634816	69	12824
2026-01-13 07:35:17.49	44.36	14.10	-54.9	-67.9	3.9	7.44e-01	0	25	104	121634816	79	15327
2026-01-13 07:35:20.50	43.76	14.29	-50.3	-61.8	3.8	7.49e-01	0	25	104	121634816	69	13473
2026-01-13 07:35:23.51	43.16	14.48	-50.6	-62.2	3.8	7.45e-01	0	25	104	121634816	69	14102
2026-01-13 07:35:26.53	42.54	14.67	-50.3	-61.6	3.8	7.44e-01	0	25	104	121634816	69	13118
2026-01-13 07:35:29.54	41.92	14.85	-50.3	-61.8	3.9	7.43e-01	0	25	104	121634816	69	13450
2026-01-13 07:35:32.56	41.29	15.03	-55.5	-68.8	3.8	7.45e-01	0	25	104	121634816	78	18042
2026-01-13 07:35:35.58	40.65	15.22	-51.0	-62.6	3.8	7.45e-01	0	25	104	121634816	71	13209
2026-01-13 07:35:38.58	40.00	15.39	-50.7	-62.2	3.8	7.45e-01	0	25	104	121634816	69	14086
2026-01-13 07:35:41.59	39.35	15.57	-54.3	-66.8	3.9	7.46e-01	0	25	104	121634816	77	15104
2026-01-13 07:35:44.60	38.68	15.74	-50.1	-61.5	3.8	7.46e-01	0	25	104	121634816	69	13100
2026-01-13 07:35:47.60	38.01	15.92	-50.9	-62.5	3.8	7.45e-01	0	25	104	121634816	70	13795
2026-01-13 07:35:50.61	37.33	16.09	-50.2	-61.6	3.8	7.46e-01	0	25	104	121634816	69	13231
2026-01-13 07:35:53.61	36.65	16.25	-50.0	-61.4	3.9	7.45e-01	0	25	104	121634816	69	12955
2026-01-13 07:35:56.60	35.95	16.42	-55.6	-68.8	3.8	7.49e-01	0	25	104	121634816	78	18038
2026-01-13 07:35:59.61	35.25	16.58	-50.8	-62.3	3.9	7.50e-01	0	25	104	121634816	70	13446
2026-01-13 07:36:02.62	34.54	16.73	-51.8	-63.5	3.8	7.46e-01	0	25	104	121634816	71	14615
2026-01-13 07:36:05.62	33.82	16.89	-54.6	-67.2	3.9	7.45e-01	0	25	104	121634816	78	14902
2026-01-13 07:36:08.61	33.10	17.04	-50.5	-62.0	3.9	7.44e-01	0	25	104	121634816	70	12991
2026-01-13 07:36:11.62	32.36	17.19	-50.9	-62.5	3.8	7.47e-01	0	25	104	121634816	70	13735
2026-01-13 07:36:14.62	31.62	17.33	-50.1	-61.5	3.8	7.45e-01	0	25	104	121634816	69	13086
2026-01-13 07:36:17.58	30.88	17.47	-50.0	-61.5	3.8	7.44e-01	0	25	104	121634816	69	12968
2026-01-13 07:36:20.58	30.12	17.60	-55.6	-68.8	3.8	7.46e-01	0	25	104	121634816	78	18092
2026-01-13 07:36:23.58	29.36	17.74	-50.8	-62.3	3.9	7.45e-01	0	25	104	121634816	70	13432
2026-01-13 07:36:26.57	28.59	17.86	-50.5	-62.0	3.9	7.41e-01	0	25	104	121634816	69	13758
2026-01-13 07:36:29.59	27.81	17.99	-54.8	-67.5	3.9	7.45e-01	0	25	104	121634816	78	15547
2026-01-13 07:36:32.58	27.03	18.10	-50.5	-62.0	3.9	7.43e-01	0	25	104	121634816	70	13053
2026-01-13 07:36:35.57	26.24	18.22	-51.4	-63.0	3.9	7.46e-01	0	25	104	121634816	72	13054
2026-01-13 07:36:38.57	25.45	18.33	-50.5	-62.0	3.8	7.45e-01	0	25	104	121634816	70	13070
2026-01-13 07:36:41.58	24.64	18.43	-50.6	-62.1	3.9	7.45e-01	0	25	104	121634816	70	13139
2026-01-13 07:36:44.58	23.83	18.53	-55.7	-69.3	3.8	7.48e-01	0	25	104	121634816	79	18062
2026-01-13 07:36:47.58	23.02	18.62	-50.4	-61.8	3.9	7.47e-01	0	25	104	121634816	70	12768
2026-01-13 07:36:50.59	22.20	18.71	-50.7	-62.3	3.9	7.44e-01	0	25	104	121634816	69	14306
2026-01-13 07:36:53.60	21.37	18.79	-55.0	-67.8	3.9	7.44e-01	0	25	104	121634816	79	15158
2026-01-13 07:36:56.60	20.54	18.87	-50.6	-62.1	3.8	7.42e-01	0	25	104	121634816	70	13119
2026-01-13 07:36:59.57	19.72	18.94	-51.4	-63.1	3.9	7.44e-01	0	25	104	121634816	71	13915
2026-01-13 07:37:02.58	18.88	19.01	-50.5	-61.9	3.8	7.45e-01	0	26	104	121634816	70	12937
2026-01-13 07:37:05.58	18.04	19.07	-50.3	-61.8	3.8	7.44e-01	0	26	104	121634816	69	13422
2026-01-13 07:37:08.56	17.20	19.12	-55.5	-68.6	3.9	7.44e-01	0	25	104	121634816	78	17497
2026-01-13 07:37:11.57	16.35	19.17	-50.7	-62.2	3.8	7.48e-01	0	26	104	121634816	70	13367
2026-01-13 07:37:14.56	15.51	19.21	-50.9	-62.3	3.8	7.47e-01	0	25	104	121634816	70	13548
2026-01-13 07:37:17.56	14.66	19.24	-55.2	-68.1	3.9	7.46e-01	0	25	104	121634816	79	15693
2026-01-13 07:37:20.56	13.80	19.27	-50.6	-62.1	3.9	7.45e-01	0	25	104	121634816	70	13138
2026-01-13 07:37:23.56	12.95	19.29	-51.8	-63.4	3.8	7.43e-01	0	26	104	121634816	72	13571
2026-01-13 07:37:26.57	12.09	19.31	-50.7	-62.2	3.9	7.42e-01	0	25	104	121634816	70	13338
2026-01-13 07:37:29.57	11.23	19.32	-50.5	-61.9	3.9	7.46e-01	0	25	104	121634816	70	12915
2026-01-13 07:37:32.56	10.38	19.32	-55.8	-69.3	3.8	7.49e-01	0	25	104	121634816	79	17922
2026-01-13 07:37:35.57	9.52	19.32	-50.6	-62.1	3.8	7.46e-01	0	25	104	121634816	70	13124
2026-01-13 07:37:38.57	8.67	19.31	-51.0	-62.5	3.9	7.50e-01	0	25	104	121634816	69	14678
2026-01-13 07:37:41.56	7.81	19.29	-55.4	-68.5	3.9	7.47e-01	0	25	104	121634816	79	16365
2026-01-13 07:37:44.56	6.96	19.27	-50.5	-62.0	3.9	7.47e-01	0	25	104	121634816	70	13035
2026-01-13 07:37:47.56	6.11	19.24	-51.9	-63.7	3.8	7.48e-01	0	26	104	121634816	72	14106
2026-01-13 07:37:50.56	5.26	19.20	-50.6	-62.0	3.9	7.45e-01	0	26	104	121634816	70	13084
2026-01-13 07:37:53.56	4.41	19.16	-50.5	-62.0	3.9	7.42e-01	0	26	104	121634816	70	13082
2026-01-13 07:37:56.56	3.56	19.12	-55.8	-69.2	3.8	7.46e-01	0	25	104	121634816	79	17794
2026-01-13 07:37:59.56	2.72	19.06	-50.7	-62.2	3.9	7.46e-01	0	26	104	121634816	70	13341
2026-01-13 07:38:02.55	1.88	19.00	-50.6	-62.1	3.8	7.47e-01	0	25	104	121634816	69	14020
2026-01-13 07:38:05.55	1.05	18.94	-55.4	-68.4	3.9	7.47e-01	0	25	104	121634816	80	15284
2026-01-13 07:38:08.56	0.21	18.87	-50.6	-62.2	3.8	7.44e-01	0	25	104	121634816	70	13273
2026-01-13 07:38:11.54	359.39	18.79	-51.3	-62.9	3.9	7.44e-01	0	25	104	121634816	70	14385
2026-01-13 07:38:14.52	358.57	18.71	-51.0	-62.7	3.9	7.47e-01	0	26	104	121634816	71	13359
2026-01-13 07:38:17.51	357.76	18.62	-50.2	-61.6	3.8	7.46e-01	0	26	104	121634816	69	13176
2026-01-13 07:38:20.50	356.95	18.53	-54.5	-67.0	3.8	7.48e-01	0	25	104	121634816	76	16370
2026-01-13 07:38:23.50	356.14	18.43	-50.5	-62.0	3.8	7.43e-01	0	25	104	121634816	70	12975
2026-01-13 07:38:26.49	355.34	18.32	-50.3	-61.7	3.9	7.44e-01	0	25	104	121634816	69	13354
2026-01-13 07:38:29.49	354.54	18.22	-55.5	-68.6	3.8	7.42e-01	0	25	104	121634816	80	15693
2026-01-13 07:38:32.48	353.76	18.10	-50.2	-61.5	3.9	7.49e-01	0	25	104	121634816	69	13065
2026-01-13 07:38:35.47	352.98	17.98	-51.7	-63.3	3.9	7.42e-01	0	26	104	121634816	71	14358
2026-01-13 07:38:38.46	352.20	17.86	-51.4	-63.0	3.9	7.43e-01	0	25	104	121634816	72	12976
2026-01-13 07:38:41.46	351.43	17.73	-50.3	-61.7	3.8	7.44e-01	0	26	104	121634816	69	13269
2026-01-13 07:38:44.45	350.67	17.60	-53.6	-65.6	3.8	7.44e-01	0	26	104	121634816	75	14869
2026-01-13 07:38:47.43	349.92	17.47	-54.6	-67.1	3.9	7.48e-01	0	25	104	121634816	78	14867
2026-01-13 07:38:50.43	349.17	17.33	-52.4	-64.3	3.8	7.47e-01	0	25	104	121634816	72	15223
2026-01-13 07:38:53.42	348.43	17.19	-55.8	-69.3	3.9	7.47e-01	0	26	104	121634816	80	16971
2026-01-13 07:38:56.41	347.70	17.04	-50.5	-62.4	3.9	7.44e-01	0	25	104	121634816	70	13620
2026-01-13 07:38:59.39	346.98	16.89	-51.3	-63.3	3.9	7.45e-01	0	25	104	121634816	70	15194
2026-01-13 07:39:02.37	346.27	16.74	-52.9	-65.3	3.8	7.45e-01	0	26	104	121634816	75	14222
2026-01-13 07:39:05.37	345.56	16.58	-50.7	-62.4	3.8	7.45e-01	0	25	104	121634816	69	14484
2026-01-13 07:39:08.34	344.87	16.42	-53.1	-65.0	3.9	7.44e-01	0	26	104	121634816	74	14587
2026-01-13 07:39:11.33	344.17	16.26	-55.6	-68.7	3.9	7.43e-01	0	26	104	121634816	80	15916
2026-01-13 07:39:14.32	343.49	16.09	-50.4	-61.8	3.8	7.46e-01	0	26	104	121634816	69	13420
2026-01-13 07:39:17.31	342.82	15.92	-56.3	-70.2	3.9	7.46e-01	0	26	104	121634816	81	17868
2026-01-13 07:39:20.28	342.15	15.75	-50.3	-61.6	3.8	7.44e-01	0	25	104	121634816	69	13214
2026-01-13 07:39:23.28	341.49	15.58	-50.0	-61.1	3.9	7.46e-01	0	25	104	121634816	69	12394
2026-01-13 07:39:26.27	340.84	15.40	-50.5	-61.7	3.9	7.47e-01	0	26	104	121634816	69	13263
2026-01-13 07:39:29.25	340.20	15.23	-50.3	-61.6	3.8	7.44e-01	0	26	104	121634816	69	13148
2026-01-13 07:39:32.23	339.57	15.05	-52.9	-64.8	3.9	7.46e-01	0	25	104	121634816	75	13508
2026-01-13 07:39:35.23	338.94	14.87	-56.4	-71.2	3.9	7.42e-01	0	26	104	121634816	81	19991
2026-01-13 07:39:38.23	338.32	14.68	-50.5	-62.6	3.8	7.45e-01	0	26	104	121634816	70	13920
2026-01-13 07:39:41.22	337.71	14.50	-56.6	-70.7	3.8	7.43e-01	0	26	104	121634816	82	17796
2026-01-13 07:39:44.19	337.12	14.31	-50.5	-61.7	3.9	7.46e-01	0	25	104	121634816	70	12598
2026-01-13 07:39:47.18	336.52	14.13	-50.8	-62.9	3.9	7.45e-01	0	26	104	121634816	70	14381
2026-01-13 07:39:50.17	335.94	13.94	-50.3	-61.5	3.9	7.45e-01	0	26	104	121634816	69	12998
2026-01-13 07:39:53.16	335.36	13.75	-50.5	-62.1	3.8	7.43e-01	0	26	104	121634816	69	13917
2026-01-13 07:39:56.15	334.79	13.56	-51.9	-64.2	3.9	7.46e-01	0	26	104	121634816	73	14151
2026-01-13 07:39:59.14	334.23	13.37	-50.6	-61.8	3.8	7.46e-01	0	26	104	121634816	70	12688
2026-01-13 07:40:02.12	333.68	13.17	-50.4	-61.4	3.8	7.45e-01	0	26	104	121634816	70	12174
2026-01-13 07:40:05.12	333.13	12.98	-56.2	-70.4	3.8	7.46e-01	0	26	104	121634816	80	19356
2026-01-13 07:40:08.09	332.60	12.79	-50.5	-62.3	3.8	7.47e-01	0	26	104	121634816	70	13497
2026-01-13 07:40:11.07	332.07	12.59	-56.2	-70.4	3.9	7.47e-01	0	26	104	121634816	80	19170
2026-01-13 07:40:14.05	331.55	12.40	-50.7	-62.2	3.8	7.48e-01	0	25	104	121634816	70	13309
2026-01-13 07:40:17.06	331.03	12.20	-50.5	-62.4	3.8	7.47e-01	0	25	104	121634816	70	13594
2026-01-13 07:40:20.05	330.52	12.00	-52.8	-65.0	3.8	7.46e-01	0	25	104	121634816	74	14555
2026-01-13 07:40:23.03	330.03	11.81	-56.9	-72.4	3.8	7.45e-01	0	26	104	121634816	81	22972
2026-01-13 07:40:26.01	329.53	11.61	-50.0	-51.8	15.6	6.00e-01	0	26	0	124256256	69	4260
2026-01-13 07:40:29.00	329.05	11.42	-50.3	-52.1	15.5	6.01e-01	0	26	0	129499136	69	4398
2026-01-13 07:40:31.99	328.57	11.22	-50.2	-52.0	15.5	6.02e-01	0	26	0	135266304	69	4371
2026-01-13 07:40:34.97	328.10	11.02	-50.6	-52.5	15.3	5.99e-01	0	26	0	141033472	69	4607
2026-01-13 07:40:37.96	327.64	10.83	-50.4	-52.3	15.4	6.03e-01	0	26	0	146800640	69	4494
2026-01-13 07:40:40.95	327.18	10.63	-50.7	-52.7	15.3	6.01e-01	0	26	0	152043520	69	4708
2026-01-13 07:40:43.93	326.73	10.43	-50.5	-52.4	15.4	6.00e-01	0	26	0	157810688	69	4551
2026-01-13 07:40:46.91	326.29	10.24	-50.5	-52.4	15.4	6.00e-01	0	25	0	163577856	69	4557
2026-01-13 07:40:49.90	325.85	10.04	-50.7	-52.7	15.3	6.02e-01	0	25	0	168820736	69	4719
2026-01-13 07:40:52.89	325.42	9.84	-50.4	-52.3	15.4	6.00e-01	0	26	0	174587904	69	4504
2026-01-13 07:40:55.87	324.99	9.65	-50.3	-52.2	15.4	6.01e-01	0	25	0	180355072	69	4462
2026-01-13 07:40:58.87	324.57	9.45	-50.5	-52.4	15.3	6.02e-01	0	26	0	185597952	69	4581
2026-01-13 07:41:01.86	324.16	9.26	-50.6	-52.5	15.4	5.99e-01	0	25	0	191365120	70	4376
2026-01-13 07:41:04.84	323.75	9.06	-51.3	-53.4	15.2	6.01e-01	0	26	0	197132288	70	4845
2026-01-13 07:41:07.82	323.35	8.87	-51.2	-53.3	15.2	6.00e-01	0	25	0	202375168	70	4776
2026-01-13 07:41:10.81	322.96	8.67	-50.9	-52.9	15.3	6.01e-01	0	25	0	208142336	70	4580
2026-01-13 07:41:13.78	322.57	8.48	-51.2	-53.2	15.2	5.98e-01	0	25	0	213909504	70	4747
2026-01-13 07:41:16.76	322.19	8.29	-51.6	-53.8	15.0	6.01e-01	0	26	0	219152384	70	5072
2026-01-13 07:41:19.75	321.81	8.09	-50.9	-52.9	15.4	6.02e-01	0	25	0	224919552	70	4575
2026-01-13 07:41:22.73	321.44	7.90	-50.9	-52.9	15.4	6.04e-01	0	25	0	230686720	70	4546
2026-01-13 07:41:25.72	321.08	7.71	-51.1	-53.2	15.2	5.98e-01	0	25	0	235929600	70	4758
2026-01-13 07:41:28.72	320.71	7.52	-51.1	-53.1	15.3	6.03e-01	0	25	0	241696768	70	4688
2026-01-13 07:41:31.70	320.36	7.33	-51.2	-53.3	15.2	5.99e-01	0	25	0	247463936	70	4787
2026-01-13 07:41:34.69	320.01	7.14	-51.0	-53.0	15.3	5.99e-01	0	25	0	252706816	70	4633
2026-01-13 07:41:37.67	319.66	6.95	-51.1	-53.2	15.2	6.02e-01	0	25	0	258473984	70	4712
2026-01-13 07:41:40.65	319.32	6.76	-51.4	-53.6	15.1	6.00e-01	0	25	0	264241152	70	4970
2026-01-13 07:41:43.63	318.99	6.57	-51.2	-53.4	15.2	5.99e-01	0	25	0	269484032	70	4823
2026-01-13 07:41:46.61	318.66	6.39	-51.3	-53.5	15.1	6.02e-01	0	26	0	275251200	70	4903
2026-01-13 07:41:49.60	318.33	6.20	-51.4	-53.6	15.1	6.00e-01	0	25	0	281018368	70	4963
2026-01-13 07:41:52.57	318.01	6.01	-51.2	-53.4	15.2	6.01e-01	0	25	0	286261248	70	4842
2026-01-13 07:41:55.56	317.69	5.83	-51.4	-53.6	15.1	5.98e-01	0	26	0	292028416	70	4953
2026-01-13 07:41:58.54	317.38	5.64	-51.5	-53.8	15.0	6.00e-01	0	25	0	297795584	70	5095
2026-01-13 07:42:01.52	317.08	5.46	-51.7	-54.0	15.1	6.00e-01	0	25	0	303038464	71	4897
2026-01-13 07:42:04.50	316.77	5.28	-51.5	-53.8	15.1	6.01e-01	0	25	0	308805632	71	4797
2026-01-13 07:42:07.49	316.47	5.10	-51.8	-54.2	15.0	5.99e-01	0	25	0	314572800	71	5012
2026-01-13 07:42:10.48	316.18	4.91	-57.9	-77.3	3.8	7.48e-01	0	25	104	319291392	83	35754
2026-01-13 07:42:13.49	315.88	4.73	-58.8	-78.2	3.8	7.46e-01	0	26	104	319291392	85	35372
2026-01-13 07:42:16.50	315.59	4.55	-59.3	-78.6	3.8	7.45e-01	0	26	104	319291392	86	35222
2026-01-13 07:42:19.53	315.31	4.37	-59.5	-78.8	3.8	7.47e-01	0	26	104	319291392	86	36048
2026-01-13 07:42:22.54	315.03	4.19	-59.6	-79.0	3.8	7.45e-01	0	26	104	319291392	87	34750
2026-01-13 07:42:25.55	314.75	4.01	-59.7	-79.1	3.8	7.48e-01	0	25	104	319291392	87	35016
2026-01-13 07:42:28.57	314.47	3.83	-59.7	-79.1	3.8	7.49e-01	0	26	104	319291392	87	35146
2026-01-13 07:42:31.59	314.20	3.65	-59.7	-79.1	3.8	7.45e-01	0	26	104	319291392	87	35116
2026-01-13 07:42:34.59	313.94	3.47	-59.6	-79.0	3.8	7.44e-01	0	26	104	319291392	87	34734
2026-01-13 07:42:37.57	313.68	3.30	-59.6	-79.0	3.8	7.45e-01	0	26	104	319291392	87	34638
2026-01-13 07:42:40.55	313.42	3.12	-59.6	-79.0	3.8	7.49e-01	0	26	104	319291392	87	34661
2026-01-13 07:42:43.53	313.17	2.95	-59.6	-78.9	3.8	7.46e-01	0	26	104	319291392	87	34441
2026-01-13 07:42:46.52	312.92	2.78	-59.6	-78.9	3.8	7.46e-01	0	26	104	319291392	87	34480
2026-01-13 07:42:49.50	312.67	2.60	-59.6	-78.9	3.8	7.43e-01	0	26	104	319291392	87	34430
2026-01-13 07:42:52.48	312.43	2.43	-59.5	-78.9	3.8	7.49e-01	0	26	104	319291392	87	34349
2026-01-13 07:42:55.48	312.19	2.26	-59.5	-78.9	3.8	7.49e-01	0	26	104	319291392	87	34323
2026-01-13 07:42:58.49	311.95	2.09	-59.5	-78.9	3.8	7.48e-01	0	26	104	319291392	87	34248
2026-01-13 07:43:01.48	311.72	1.92	-59.5	-78.9	3.8	7.47e-01	0	26	104	319291392	87	34262

#Closed at: 2026-01-13 07:43:02
#Recorded file [319 MB]: D:/lorett/data/31004_260113_103204.dat