passes_logs/2026/01/13/R3.2S_Murmansk/R3.2S_Murmansk__20260113_000840_SUOMI_NPP_rec.log

#Pass ID: 20260113_000840_SUOMI NPP
#Satellite: SUOMI NPP
#Configuration: NPP
#almurnet v.1.7.20251203
#Start time: 2026-01-13 00:08:41

#Version: 2.2.20231116
#Station: R3.2S_Murmansk
#Location: 33.079688 lon 68.888172 lat
#TLE: 1 37849U 11061A   26012.28456845  .00000093  00000+0  65163-4 0  9999
#TLE: 2 37849  98.7807 314.3566 0002508  68.3553 291.7890 14.19524725736322

#Time	Az	El	Level	Level2	SNR	BER	BlckErr	Temp	State	Recorded	gain1	gain2
2026-01-13 00:08:41.60	22.49	2.08	-57.1	-72.4	3.8	1.49e+00	0	20	0	0	80	20982
2026-01-13 00:08:45.60	22.57	2.34	-57.1	-72.8	3.8	1.49e+00	0	20	104	0	79	23134
2026-01-13 00:08:49.60	22.65	2.59	-57.1	-72.0	3.8	1.49e+00	0	20	104	0	79	21074
2026-01-13 00:08:53.61	22.74	2.85	-57.0	-70.6	3.8	1.48e+00	0	20	104	0	79	18079
2026-01-13 00:08:57.61	22.83	3.12	-56.9	-68.8	4.4	1.32e+00	53	20	0	0	79	14548
2026-01-13 00:09:01.63	22.92	3.38	-56.7	-66.3	5.7	5.59e-01	0	20	0	6291456	79	10909
2026-01-13 00:09:05.63	23.00	3.65	-56.2	-63.1	8.3	5.28e-02	0	20	0	14680064	79	7624
2026-01-13 00:09:09.61	23.10	3.91	-54.9	-59.4	11.5	3.55e-04	0	21	0	22020096	76	5868
2026-01-13 00:09:13.63	23.19	4.19	-54.2	-57.9	12.5	2.20e-06	0	21	0	29360128	74	5557
2026-01-13 00:09:17.63	23.28	4.46	-54.4	-58.3	12.2	1.75e-05	0	21	0	36700160	74	5812
2026-01-13 00:09:21.64	23.38	4.74	-55.3	-60.5	10.3	1.08e-03	0	21	0	44040192	75	7078
2026-01-13 00:09:25.64	23.47	5.02	-56.2	-63.3	7.9	4.20e-02	0	21	0	51380224	77	8758
2026-01-13 00:09:29.64	23.57	5.30	-56.0	-61.9	9.4	2.50e-01	0	21	0	59768832	78	7037
2026-01-13 00:09:33.64	23.67	5.59	-55.3	-59.9	11.2	9.15e-05	0	21	0	66060288	76	6274
2026-01-13 00:09:37.65	23.77	5.88	-54.3	-57.8	12.9	2.20e-06	0	21	0	74448896	75	5183
2026-01-13 00:09:41.66	23.88	6.17	-53.9	-57.1	13.3	0.00e+00	0	21	0	81788928	74	5048
2026-01-13 00:09:45.66	23.98	6.46	-53.3	-56.0	14.0	0.00e+00	0	21	0	89128960	73	4753
2026-01-13 00:09:49.66	24.09	6.76	-53.1	-55.8	14.0	0.00e+00	0	21	0	96468992	72	4897
2026-01-13 00:09:53.67	24.19	7.06	-53.2	-55.8	14.0	0.00e+00	0	21	0	103809024	72	4924
2026-01-13 00:09:57.67	24.30	7.37	-52.9	-55.4	14.3	0.00e+00	0	21	0	111149056	72	4657
2026-01-13 00:10:01.68	24.42	7.68	-52.8	-55.3	14.4	0.00e+00	0	21	0	118489088	72	4618
2026-01-13 00:10:05.69	24.53	7.99	-52.6	-55.0	14.4	0.00e+00	0	21	0	126877696	71	4747
2026-01-13 00:10:09.69	24.65	8.31	-52.5	-54.9	14.5	0.00e+00	0	21	0	134217728	71	4655
2026-01-13 00:10:13.70	24.77	8.63	-52.4	-54.7	14.6	0.00e+00	0	22	0	141557760	71	4584
2026-01-13 00:10:17.69	24.89	8.96	-52.3	-54.6	14.7	0.00e+00	0	21	0	148897792	71	4500
2026-01-13 00:10:21.69	25.01	9.28	-52.1	-54.2	14.8	0.00e+00	0	22	0	156237824	70	4580
2026-01-13 00:10:25.72	25.14	9.62	-52.1	-54.3	14.8	0.00e+00	0	21	0	163577856	70	4606
2026-01-13 00:10:29.74	25.26	9.96	-52.0	-54.0	15.0	0.00e+00	0	21	0	171966464	70	4478
2026-01-13 00:10:33.73	25.39	10.30	-51.9	-53.9	15.0	0.00e+00	0	21	0	179306496	70	4436
2026-01-13 00:10:37.73	25.53	10.65	-51.9	-53.9	15.0	0.00e+00	0	21	0	186646528	70	4423
2026-01-13 00:10:41.75	25.66	11.00	-51.8	-53.8	15.1	0.00e+00	0	21	0	193986560	70	4343
2026-01-13 00:10:45.75	25.80	11.36	-51.8	-53.8	15.1	0.00e+00	0	22	0	201326592	70	4364
2026-01-13 00:10:49.74	25.94	11.72	-51.6	-53.5	15.1	0.00e+00	0	21	0	208666624	69	4486
2026-01-13 00:10:53.75	26.09	12.09	-51.5	-53.4	15.1	0.00e+00	0	22	0	217055232	69	4436
2026-01-13 00:10:57.76	26.24	12.46	-51.4	-53.3	15.2	0.00e+00	0	21	0	224395264	69	4378
2026-01-13 00:11:01.76	26.39	12.84	-51.5	-53.4	15.2	0.00e+00	0	21	0	231735296	69	4431
2026-01-13 00:11:05.76	26.54	13.23	-51.5	-53.3	15.2	0.00e+00	0	22	0	239075328	69	4380
2026-01-13 00:11:09.75	26.70	13.62	-51.7	-53.7	15.0	0.00e+00	0	21	0	246415360	69	4564
2026-01-13 00:11:13.76	26.86	14.01	-51.4	-53.3	15.2	0.00e+00	0	22	0	253755392	69	4351
2026-01-13 00:11:17.76	27.03	14.42	-51.5	-53.4	15.2	0.00e+00	0	22	0	262144000	69	4427
2026-01-13 00:11:21.75	27.20	14.82	-51.6	-53.5	15.1	0.00e+00	0	22	0	269484032	69	4457
2026-01-13 00:11:25.75	27.37	15.24	-51.5	-53.4	15.2	0.00e+00	0	22	0	276824064	69	4392
2026-01-13 00:11:29.75	27.55	15.66	-51.5	-53.4	15.2	0.00e+00	0	22	0	284164096	69	4400
2026-01-13 00:11:33.76	27.74	16.10	-51.4	-53.2	15.3	0.00e+00	0	22	0	291504128	69	4329
2026-01-13 00:11:37.75	27.93	16.53	-51.5	-53.4	15.2	0.00e+00	0	22	0	298844160	69	4423
2026-01-13 00:11:41.75	28.12	16.98	-51.6	-53.5	15.1	0.00e+00	0	22	0	306184192	69	4490
2026-01-13 00:11:45.76	28.32	17.44	-51.5	-53.3	15.2	0.00e+00	0	22	0	314572800	69	4380
2026-01-13 00:11:49.75	28.52	17.90	-51.5	-53.4	15.2	0.00e+00	0	21	0	321912832	69	4401
2026-01-13 00:11:53.75	28.73	18.37	-51.6	-53.5	15.2	0.00e+00	0	22	0	329252864	69	4474
2026-01-13 00:11:57.75	28.95	18.85	-51.7	-53.6	15.1	0.00e+00	0	22	0	336592896	69	4542
2026-01-13 00:12:01.74	29.17	19.34	-52.0	-54.0	14.9	0.00e+00	0	22	0	343932928	69	4713
2026-01-13 00:12:05.75	29.40	19.84	-52.1	-54.1	14.8	0.00e+00	0	22	0	351272960	69	4770
2026-01-13 00:12:09.75	29.64	20.34	-51.7	-53.6	15.1	0.00e+00	0	22	0	358612992	69	4510
2026-01-13 00:12:13.74	29.88	20.86	-52.1	-54.1	14.8	0.00e+00	0	22	0	367001600	69	4782
2026-01-13 00:12:17.72	30.13	21.39	-52.2	-54.2	14.7	0.00e+00	0	22	0	374341632	69	4856
2026-01-13 00:12:21.70	30.39	21.93	-51.8	-53.7	15.1	0.00e+00	0	22	0	381681664	69	4565
2026-01-13 00:12:25.70	30.66	22.48	-51.3	-53.1	15.4	0.00e+00	0	22	0	389021696	69	4277
2026-01-13 00:12:29.69	30.94	23.04	-50.9	-52.5	15.5	0.00e+00	0	22	0	396361728	68	4241
2026-01-13 00:12:33.70	31.23	23.61	-50.3	-51.9	15.6	0.00e+00	0	22	0	403701760	67	4182
2026-01-13 00:12:37.70	31.52	24.20	-50.1	-51.6	15.6	0.00e+00	0	22	0	411041792	66	4279
2026-01-13 00:12:41.70	31.83	24.80	-50.0	-51.5	15.7	0.00e+00	0	22	0	419430400	66	4209
2026-01-13 00:12:45.71	32.15	25.41	-50.1	-51.6	15.6	0.00e+00	0	22	0	426770432	66	4291
2026-01-13 00:12:49.70	32.48	26.04	-50.0	-51.5	15.7	0.00e+00	0	22	0	434110464	66	4216
2026-01-13 00:12:53.67	32.83	26.67	-50.1	-51.7	15.6	0.00e+00	0	22	0	441450496	66	4302
2026-01-13 00:12:57.65	33.18	27.32	-50.4	-52.1	15.4	0.00e+00	0	22	0	448790528	66	4501
2026-01-13 00:13:01.63	33.55	27.99	-50.3	-51.9	15.5	0.00e+00	0	22	0	456130560	66	4409
2026-01-13 00:13:05.61	33.94	28.67	-50.3	-51.9	15.5	0.00e+00	0	22	0	463470592	66	4423
2026-01-13 00:13:09.58	34.34	29.37	-50.7	-52.4	15.2	0.00e+00	0	22	0	470810624	66	4675
2026-01-13 00:13:13.57	34.76	30.08	-51.2	-52.9	15.1	0.00e+00	0	22	0	479199232	67	4693
2026-01-13 00:13:17.55	35.20	30.81	-52.1	-54.0	15.1	0.00e+00	0	22	0	486539264	70	4488
2026-01-13 00:13:21.55	35.66	31.56	-52.7	-54.8	14.6	0.00e+00	0	22	0	493879296	70	4923
2026-01-13 00:13:25.53	36.14	32.33	-53.2	-55.4	14.4	0.00e+00	0	22	0	501219328	71	4977
2026-01-13 00:13:29.53	36.64	33.11	-53.7	-56.2	14.1	0.00e+00	0	22	0	508559360	72	5107
2026-01-13 00:13:33.53	37.17	33.92	-54.4	-57.3	13.5	0.00e+00	0	22	0	515899392	73	5492
2026-01-13 00:13:37.53	37.72	34.74	-53.2	-55.4	14.6	0.00e+00	0	22	0	523239424	72	4668
2026-01-13 00:13:41.53	38.30	35.58	-52.5	-54.4	15.0	0.00e+00	0	22	0	531628032	71	4422
2026-01-13 00:13:45.51	38.91	36.44	-53.0	-55.2	14.6	0.00e+00	0	22	0	538968064	71	4852
2026-01-13 00:13:49.50	39.55	37.32	-54.1	-56.8	13.9	0.00e+00	0	22	0	546308096	73	5189
2026-01-13 00:13:53.49	40.23	38.22	-53.9	-56.4	14.2	0.00e+00	0	22	0	553648128	74	4679
2026-01-13 00:13:57.48	40.95	39.14	-55.0	-58.2	13.1	0.00e+00	0	22	0	560988160	75	5453
2026-01-13 00:14:01.49	41.71	40.09	-54.5	-57.3	13.8	0.00e+00	0	22	0	568328192	75	4891
2026-01-13 00:14:05.47	42.51	41.05	-53.4	-55.7	14.5	0.00e+00	0	22	0	575668224	72	4815
2026-01-13 00:14:09.45	43.35	42.02	-53.3	-55.6	14.5	0.00e+00	0	22	0	584056832	72	4762
2026-01-13 00:14:13.45	44.26	43.02	-53.0	-55.1	14.8	0.00e+00	0	22	0	591396864	72	4532
2026-01-13 00:14:17.44	45.22	44.04	-53.3	-55.6	14.5	0.00e+00	0	22	0	598736896	72	4761
2026-01-13 00:14:21.42	46.24	45.08	-53.5	-55.9	14.5	0.00e+00	0	22	0	606076928	73	4660
2026-01-13 00:14:25.42	47.33	46.13	-52.9	-55.0	14.7	0.00e+00	0	22	0	613416960	71	4729
2026-01-13 00:14:29.42	48.50	47.21	-51.3	-52.9	15.4	0.00e+00	0	22	0	620756992	68	4428
2026-01-13 00:14:33.40	49.75	48.29	-51.4	-53.1	15.3	0.00e+00	0	22	0	628097024	68	4526
2026-01-13 00:14:37.40	51.09	49.38	-51.7	-53.4	15.3	0.00e+00	0	22	0	636485632	69	4423
2026-01-13 00:14:41.40	52.53	50.49	-51.1	-52.7	15.5	0.00e+00	0	22	0	643825664	68	4312
2026-01-13 00:14:45.40	54.08	51.61	-50.0	-51.5	15.7	0.00e+00	0	22	0	651165696	66	4223
2026-01-13 00:14:49.38	55.74	52.72	-50.1	-51.6	15.6	0.00e+00	0	22	0	658505728	66	4269
2026-01-13 00:14:53.38	57.54	53.84	-49.2	-50.6	16.0	0.00e+00	0	22	0	665845760	65	4010
2026-01-13 00:14:57.37	59.48	54.95	-50.7	-52.3	15.3	0.00e+00	0	22	0	673185792	66	4630
2026-01-13 00:15:01.36	61.57	56.05	-49.6	-51.1	15.7	0.00e+00	0	22	0	680525824	65	4249
2026-01-13 00:15:05.36	63.84	57.13	-49.6	-51.0	15.8	0.00e+00	0	22	0	688914432	65	4231
2026-01-13 00:15:09.35	66.28	58.19	-52.4	-54.3	14.8	0.00e+00	0	22	0	696254464	69	4920
2026-01-13 00:15:13.35	68.93	59.21	-51.0	-52.7	15.5	0.00e+00	0	22	0	703594496	68	4316
2026-01-13 00:15:17.33	71.77	60.19	-52.2	-54.1	14.9	0.00e+00	0	22	0	710934528	69	4788
2026-01-13 00:15:21.32	74.84	61.11	-51.3	-52.9	15.3	0.00e+00	0	22	0	718274560	68	4441
2026-01-13 00:15:25.31	78.13	61.98	-51.3	-52.9	15.4	0.00e+00	0	22	0	725614592	68	4438
2026-01-13 00:15:29.31	81.67	62.77	-49.6	-51.1	15.7	0.00e+00	0	22	0	732954624	65	4246
2026-01-13 00:15:33.29	85.40	63.46	-50.3	-51.8	15.5	0.00e+00	0	22	0	740294656	66	4383
2026-01-13 00:15:37.28	89.36	64.06	-51.5	-53.3	15.2	0.00e+00	0	22	0	748683264	68	4629
2026-01-13 00:15:41.29	93.53	64.55	-50.5	-52.1	15.6	0.00e+00	0	22	0	756023296	67	4243
2026-01-13 00:15:45.28	97.84	64.92	-52.9	-55.0	14.7	0.00e+00	0	22	0	763363328	71	4732
2026-01-13 00:15:49.28	102.28	65.16	-51.1	-52.7	15.5	0.00e+00	0	22	0	770703360	68	4324
2026-01-13 00:15:53.26	106.76	65.27	-51.3	-53.0	15.1	0.00e+00	0	22	0	778043392	67	4731
2026-01-13 00:15:57.27	111.30	65.23	-52.0	-53.9	15.1	0.00e+00	0	22	0	785383424	69	4659
2026-01-13 00:16:01.26	115.77	65.07	-50.7	-52.2	15.7	0.00e+00	0	22	0	792723456	68	4087
2026-01-13 00:16:05.27	120.17	64.76	-49.5	-50.9	15.7	0.00e+00	0	22	0	801112064	64	4403
2026-01-13 00:16:09.26	124.41	64.34	-50.6	-52.2	15.3	0.00e+00	0	22	0	808452096	66	4597
2026-01-13 00:16:13.23	128.46	63.80	-49.5	-50.9	15.8	0.00e+00	0	22	0	815792128	65	4165
2026-01-13 00:16:17.23	132.33	63.15	-51.1	-52.8	15.2	0.00e+00	0	22	0	823132160	67	4605
2026-01-13 00:16:21.22	135.98	62.41	-50.7	-52.3	15.5	0.00e+00	0	22	0	830472192	67	4376
2026-01-13 00:16:25.21	139.40	61.58	-49.6	-51.1	15.7	0.00e+00	0	22	0	837812224	65	4251
2026-01-13 00:16:29.22	142.60	60.68	-49.7	-51.2	15.5	0.00e+00	0	22	0	845152256	64	4554
2026-01-13 00:16:33.23	145.59	59.72	-48.6	-49.9	15.9	0.00e+00	0	22	0	853540864	63	4155
2026-01-13 00:16:37.21	148.33	58.72	-48.8	-50.2	15.8	0.00e+00	0	22	0	860880896	63	4294
2026-01-13 00:16:41.21	150.89	57.68	-49.2	-50.6	15.8	0.00e+00	0	22	0	868220928	64	4281
2026-01-13 00:16:45.22	153.26	56.60	-49.4	-50.8	15.7	0.00e+00	0	22	0	875560960	64	4373
2026-01-13 00:16:49.22	155.44	55.51	-48.7	-50.0	16.0	0.00e+00	0	22	0	882900992	64	3989
2026-01-13 00:16:53.24	157.47	54.39	-49.8	-51.2	15.5	0.00e+00	0	22	0	890241024	64	4594
2026-01-13 00:16:57.23	159.34	53.27	-51.6	-53.3	15.1	0.00e+00	0	22	0	898629632	68	4629
2026-01-13 00:17:01.24	161.08	52.15	-50.6	-52.2	15.5	0.00e+00	0	22	0	905969664	67	4324
2026-01-13 00:17:05.25	162.70	51.03	-51.5	-53.3	15.4	0.00e+00	0	22	0	913309696	69	4347
2026-01-13 00:17:09.26	164.19	49.91	-52.0	-53.8	15.0	0.00e+00	0	22	0	920649728	69	4651
2026-01-13 00:17:13.26	165.59	48.80	-51.9	-53.7	15.3	0.00e+00	0	22	0	927989760	70	4302
2026-01-13 00:17:17.25	166.88	47.71	-52.5	-54.5	15.0	0.00e+00	0	22	0	935329792	71	4459
2026-01-13 00:17:21.24	168.09	46.63	-50.6	-52.2	15.4	0.00e+00	0	22	0	943718400	66	4583
2026-01-13 00:17:25.24	169.22	45.56	-50.1	-51.6	15.7	0.00e+00	0	22	0	951058432	66	4243
2026-01-13 00:17:29.23	170.27	44.51	-52.3	-54.2	14.9	0.00e+00	0	22	0	958398464	69	4848
2026-01-13 00:17:33.22	171.26	43.48	-54.3	-57.0	14.0	0.00e+00	0	22	0	965738496	75	4732
2026-01-13 00:17:37.22	172.20	42.47	-52.1	-54.0	15.0	0.00e+00	0	22	0	973078528	69	4721
2026-01-13 00:17:41.22	173.08	41.47	-50.4	-52.0	15.6	0.00e+00	0	22	0	980418560	67	4220
2026-01-13 00:17:45.22	173.90	40.50	-50.9	-52.5	15.2	0.00e+00	0	22	0	987758592	66	4743
2026-01-13 00:17:49.22	174.68	39.54	-54.2	-57.1	13.7	0.00e+00	0	22	0	995098624	74	5090
2026-01-13 00:17:53.19	175.41	38.61	-51.0	-52.7	15.5	0.00e+00	0	22	0	1003487232	68	4296
2026-01-13 00:17:57.18	176.11	37.70	-50.9	-52.5	15.3	0.00e+00	0	22	0	1010827264	67	4458
2026-01-13 00:18:01.18	176.77	36.81	-52.3	-54.3	14.9	0.00e+00	0	22	0	1018167296	70	4644
2026-01-13 00:18:05.16	177.39	35.94	-51.0	-52.7	15.4	0.00e+00	0	22	0	1025507328	68	4315
2026-01-13 00:18:09.15	177.99	35.08	-50.0	-51.5	15.7	0.00e+00	0	22	0	1032847360	66	4234
2026-01-13 00:18:13.14	178.55	34.25	-52.3	-54.4	14.7	0.00e+00	0	22	0	1040187392	69	4937
2026-01-13 00:18:17.14	179.09	33.43	-54.2	-57.0	13.7	0.00e+00	0	22	0	1047527424	73	5307
2026-01-13 00:18:21.12	179.61	32.64	-53.5	-55.8	14.4	0.00e+00	0	22	0	1055916032	73	4651
2026-01-13 00:18:25.11	180.09	31.86	-51.4	-53.1	15.4	0.00e+00	0	22	0	1063256064	69	4255
2026-01-13 00:18:29.11	180.56	31.10	-52.1	-54.0	14.9	0.00e+00	0	22	0	1070596096	69	4750
2026-01-13 00:18:33.10	181.01	30.36	-53.1	-55.5	14.4	0.00e+00	0	22	0	1077936128	71	4990
2026-01-13 00:18:37.11	181.44	29.63	-53.4	-55.8	14.3	0.00e+00	0	22	0	1085276160	72	4889
2026-01-13 00:18:41.11	181.85	28.92	-53.1	-55.3	14.6	0.00e+00	0	22	0	1092616192	72	4611
2026-01-13 00:18:45.09	182.24	28.23	-51.4	-53.1	15.4	0.00e+00	0	22	0	1099956224	69	4285
2026-01-13 00:18:49.11	182.63	27.55	-50.2	-51.7	15.5	0.00e+00	0	22	0	1108344832	66	4322
2026-01-13 00:18:53.11	182.99	26.88	-50.3	-51.9	15.4	0.00e+00	0	22	0	1115684864	66	4422
2026-01-13 00:18:57.12	183.34	26.23	-51.0	-52.8	15.2	0.00e+00	0	22	0	1123024896	67	4622
2026-01-13 00:19:01.12	183.68	25.60	-50.9	-52.6	15.2	0.00e+00	0	22	0	1130364928	67	4528
2026-01-13 00:19:05.12	184.00	24.98	-51.2	-53.0	15.0	0.00e+00	0	22	0	1137704960	67	4743
2026-01-13 00:19:09.10	184.31	24.37	-51.7	-53.6	14.9	0.00e+00	0	22	0	1145044992	68	4770
2026-01-13 00:19:13.10	184.61	23.78	-51.0	-52.7	15.4	0.00e+00	0	22	0	1153433600	68	4316
2026-01-13 00:19:17.10	184.90	23.20	-50.5	-52.2	15.5	0.00e+00	0	22	0	1160773632	67	4293
2026-01-13 00:19:21.10	185.18	22.63	-49.9	-51.5	15.7	0.00e+00	0	22	0	1168113664	66	4195
2026-01-13 00:19:25.10	185.45	22.07	-49.5	-51.0	15.7	0.00e+00	0	22	0	1175453696	65	4207
2026-01-13 00:19:29.10	185.72	21.52	-49.6	-51.1	15.6	0.00e+00	0	22	0	1182793728	65	4254
2026-01-13 00:19:33.10	185.97	20.99	-50.1	-51.7	15.3	0.00e+00	0	22	0	1190133760	65	4574
2026-01-13 00:19:37.10	186.22	20.46	-50.7	-52.4	15.2	0.00e+00	0	22	0	1197473792	66	4687
2026-01-13 00:19:41.09	186.46	19.95	-50.5	-52.2	15.3	0.00e+00	0	22	0	1205862400	66	4552
2026-01-13 00:19:45.10	186.69	19.45	-50.4	-52.1	15.3	0.00e+00	0	22	0	1213202432	66	4511
2026-01-13 00:19:49.09	186.91	18.95	-50.3	-52.0	15.4	0.00e+00	0	22	0	1220542464	66	4459
2026-01-13 00:19:53.09	187.13	18.47	-50.6	-52.3	15.2	0.00e+00	0	22	0	1227882496	66	4614
2026-01-13 00:19:57.10	187.34	17.99	-50.8	-52.5	15.1	0.00e+00	0	22	0	1235222528	66	4721
2026-01-13 00:20:01.10	187.55	17.52	-50.3	-52.0	15.3	0.00e+00	0	22	0	1242562560	66	4442
2026-01-13 00:20:05.10	187.75	17.06	-50.2	-51.7	15.5	0.00e+00	0	22	0	1249902592	66	4337
2026-01-13 00:20:09.10	187.94	16.61	-50.2	-51.8	15.5	0.00e+00	0	22	0	1258291200	66	4349
2026-01-13 00:20:13.08	188.13	16.17	-50.4	-52.0	15.4	0.00e+00	0	22	0	1265631232	66	4460
2026-01-13 00:20:17.08	188.31	15.74	-50.6	-52.2	15.2	0.00e+00	0	22	0	1272971264	66	4592
2026-01-13 00:20:21.09	188.49	15.31	-50.9	-52.7	15.1	0.00e+00	0	22	0	1280311296	67	4592
2026-01-13 00:20:25.07	188.66	14.89	-51.3	-53.2	14.9	0.00e+00	0	22	0	1287651328	67	4834
2026-01-13 00:20:29.05	188.83	14.48	-52.0	-54.1	14.7	0.00e+00	0	22	0	1294991360	69	4776
2026-01-13 00:20:33.04	189.00	14.07	-52.5	-54.7	14.5	0.00e+00	0	22	0	1302331392	70	4854
2026-01-13 00:20:37.03	189.16	13.67	-53.0	-55.4	14.2	0.00e+00	0	22	0	1310720000	71	4963
2026-01-13 00:20:41.03	189.32	13.28	-53.2	-55.8	14.0	0.00e+00	0	22	0	1318060032	71	5190
2026-01-13 00:20:45.02	189.47	12.89	-53.4	-56.0	14.0	0.00e+00	0	22	0	1325400064	72	4992
2026-01-13 00:20:49.01	189.62	12.51	-53.4	-56.0	13.9	0.00e+00	0	22	0	1332740096	72	5039
2026-01-13 00:20:53.00	189.77	12.13	-53.2	-55.8	14.0	0.00e+00	0	22	0	1340080128	72	4885
2026-01-13 00:20:57.00	189.91	11.76	-53.1	-55.6	14.2	0.00e+00	0	22	0	1347420160	72	4805
2026-01-13 00:21:00.99	190.05	11.40	-52.6	-54.9	14.5	0.00e+00	0	22	0	1354760192	71	4698
2026-01-13 00:21:04.99	190.19	11.04	-52.4	-54.7	14.7	0.00e+00	0	22	0	1363148800	71	4553
2026-01-13 00:21:09.00	190.33	10.68	-52.0	-54.1	14.8	0.00e+00	0	22	0	1370488832	70	4544
2026-01-13 00:21:13.00	190.46	10.33	-51.7	-53.7	15.1	0.00e+00	0	22	0	1377828864	70	4325
2026-01-13 00:21:17.00	190.59	9.99	-51.7	-53.7	14.9	0.00e+00	0	22	0	1385168896	69	4582
2026-01-13 00:21:21.02	190.71	9.64	-51.7	-53.7	14.9	0.00e+00	0	22	0	1392508928	69	4552
2026-01-13 00:21:25.01	190.84	9.31	-51.4	-53.3	15.1	0.00e+00	0	22	0	1399848960	69	4373
2026-01-13 00:21:29.00	190.96	8.98	-51.7	-53.7	14.9	0.00e+00	0	22	0	1408237568	69	4564
2026-01-13 00:21:32.99	191.08	8.65	-51.5	-53.4	15.0	0.00e+00	0	22	0	1415577600	69	4434
2026-01-13 00:21:36.96	191.19	8.33	-51.5	-53.5	15.0	0.00e+00	0	22	0	1422917632	69	4463
2026-01-13 00:21:40.95	191.31	8.01	-51.4	-53.3	15.1	0.00e+00	0	22	0	1430257664	69	4371
2026-01-13 00:21:44.96	191.42	7.70	-51.5	-53.5	14.9	0.00e+00	0	22	0	1437597696	69	4465
2026-01-13 00:21:48.95	191.53	7.38	-51.7	-53.8	14.7	0.00e+00	0	22	0	1444937728	69	4649
2026-01-13 00:21:52.94	191.64	7.08	-52.0	-54.2	14.5	0.00e+00	0	22	0	1452277760	69	4831
2026-01-13 00:21:56.93	191.74	6.77	-51.7	-53.8	14.7	0.00e+00	0	22	0	1459617792	69	4641
2026-01-13 00:22:00.94	191.85	6.47	-52.1	-54.5	14.3	0.00e+00	0	22	0	1468006400	69	4985
2026-01-13 00:22:04.92	191.95	6.18	-52.0	-54.3	14.4	0.00e+00	0	22	0	1475346432	69	4886
2026-01-13 00:22:08.92	192.05	5.88	-52.3	-54.7	14.2	0.00e+00	0	22	0	1482686464	69	5104
2026-01-13 00:22:12.91	192.15	5.59	-52.5	-55.0	14.1	0.00e+00	0	22	0	1490026496	70	5001
2026-01-13 00:22:16.90	192.25	5.30	-52.5	-55.1	14.0	0.00e+00	0	22	0	1497366528	70	5059
2026-01-13 00:22:20.88	192.34	5.02	-52.6	-55.2	13.9	0.00e+00	0	22	0	1504706560	70	5121
2026-01-13 00:22:24.87	192.44	4.74	-58.4	-74.4	3.8	1.49e+00	0	22	104	1506803712	81	24720
2026-01-13 00:22:28.87	192.53	4.46	-58.7	-74.7	3.8	1.49e+00	0	22	104	1506803712	82	24369
2026-01-13 00:22:32.85	192.62	4.19	-58.9	-74.9	3.8	1.49e+00	0	22	104	1506803712	82	24894
2026-01-13 00:22:36.86	192.71	3.91	-59.0	-75.0	3.8	1.49e+00	0	22	104	1506803712	83	23812
2026-01-13 00:22:40.87	192.80	3.64	-59.1	-75.1	3.8	1.49e+00	0	22	104	1506803712	83	24053
2026-01-13 00:22:44.86	192.89	3.37	-59.1	-75.2	3.8	1.49e+00	0	22	104	1506803712	83	24213
2026-01-13 00:22:48.88	192.97	3.11	-59.1	-75.1	3.8	1.49e+00	0	22	104	1506803712	83	23901
2026-01-13 00:22:52.88	193.06	2.84	-59.1	-75.1	3.8	1.49e+00	0	22	104	1506803712	83	23963
2026-01-13 00:22:56.88	193.14	2.58	-59.1	-75.1	3.8	1.49e+00	0	22	104	1506803712	83	24017
2026-01-13 00:23:00.88	193.22	2.32	-59.0	-75.1	3.8	1.49e+00	0	22	104	1506803712	83	23930
2026-01-13 00:23:04.88	193.30	2.07	-59.0	-75.1	3.8	1.49e+00	0	22	104	1506803712	83	23910

#Closed at: 2026-01-13 00:23:07
#Recorded file [1506 MB]: D:/lorett/data/31004_260113_030841.dat