passes_logs/2026/01/13/R3.2S_Murmansk/R3.2S_Murmansk__20260113_234950_SUOMI_NPP_rec.log

#Pass ID: 20260113_234950_SUOMI NPP
#Satellite: SUOMI NPP
#Configuration: NPP
#almurnet v.1.7.20251203
#Start time: 2026-01-13 23:49:53

#Version: 2.2.20231116
#Station: R3.2S_Murmansk
#Location: 33.079688 lon 68.888172 lat
#TLE: 1 37849U 11061A   26013.55331121  .00000059  00000+0  48721-4 0  9992
#TLE: 2 37849  98.7808 315.6144 0002478  66.1553 293.9883 14.19524925736509

#Time	Az	El	Level	Level2	SNR	BER	BlckErr	Temp	State	Recorded	gain1	gain2
2026-01-13 23:49:53.01	21.63	2.14	-58.1	-73.5	3.8	1.49e+00	0	25	0	0	82	21052
2026-01-13 23:49:57.00	21.75	2.39	-58.1	-73.4	3.8	1.49e+00	0	25	104	0	81	22120
2026-01-13 23:50:01.00	21.87	2.65	-58.1	-72.9	3.8	1.49e+00	0	25	104	0	81	20901
2026-01-13 23:50:04.99	21.99	2.90	-58.0	-70.5	4.2	1.41e+00	0	25	0	0	81	15817
2026-01-13 23:50:08.99	22.12	3.16	-57.8	-68.7	4.9	7.44e-01	0	26	0	4194304	81	12952
2026-01-13 23:50:13.02	22.25	3.42	-57.7	-67.7	5.4	5.24e-01	0	26	0	11534336	81	11422
2026-01-13 23:50:17.03	22.38	3.69	-57.3	-64.7	7.6	1.06e-01	0	26	0	18874368	81	8137
2026-01-13 23:50:21.03	22.51	3.95	-56.2	-61.1	10.6	4.26e-04	0	26	0	26214400	78	6389
2026-01-13 23:50:25.03	22.64	4.22	-54.9	-58.3	12.5	0.00e+00	0	26	0	34603008	76	5181
2026-01-13 23:50:29.04	22.78	4.49	-54.7	-58.0	12.6	7.00e-07	0	26	0	41943040	75	5298
2026-01-13 23:50:33.04	22.91	4.76	-55.9	-60.4	10.9	9.15e-05	0	26	0	49283072	76	6630
2026-01-13 23:50:37.04	23.05	5.04	-57.1	-64.1	8.1	2.25e-02	0	26	0	56623104	79	8535
2026-01-13 23:50:41.04	23.20	5.32	-55.7	-59.5	11.9	5.59e-03	0	26	0	63963136	78	5323
2026-01-13 23:50:45.02	23.34	5.60	-55.4	-59.0	12.2	3.80e-06	0	26	0	71303168	77	5293
2026-01-13 23:50:49.02	23.49	5.88	-55.0	-58.3	12.6	0.00e+00	0	26	0	79691776	76	5194
2026-01-13 23:50:53.02	23.64	6.17	-54.5	-57.4	13.1	0.00e+00	0	26	0	87031808	75	4953
2026-01-13 23:50:57.02	23.79	6.46	-54.5	-57.5	13.0	0.00e+00	0	26	0	94371840	75	5015
2026-01-13 23:51:01.02	23.94	6.75	-54.4	-57.2	13.2	0.00e+00	0	26	0	101711872	75	4863
2026-01-13 23:51:05.02	24.10	7.05	-54.4	-57.3	13.2	0.00e+00	0	26	0	109051904	75	4874
2026-01-13 23:51:09.04	24.26	7.35	-54.5	-57.4	13.1	0.00e+00	0	27	0	116391936	75	4968
2026-01-13 23:51:13.05	24.43	7.66	-54.2	-56.9	13.5	0.00e+00	0	27	0	123731968	75	4660
2026-01-13 23:51:17.05	24.59	7.96	-54.2	-56.8	13.4	0.00e+00	0	26	0	132120576	74	4904
2026-01-13 23:51:21.07	24.76	8.28	-53.9	-56.5	13.6	0.00e+00	0	26	0	139460608	74	4707
2026-01-13 23:51:25.07	24.94	8.59	-53.7	-56.1	13.8	0.00e+00	0	27	0	146800640	74	4496
2026-01-13 23:51:29.07	25.11	8.91	-53.6	-55.9	13.8	0.00e+00	0	26	0	154140672	73	4692
2026-01-13 23:51:33.09	25.29	9.23	-53.4	-55.6	14.0	0.00e+00	0	27	0	161480704	73	4525
2026-01-13 23:51:37.09	25.48	9.56	-53.4	-55.6	13.9	0.00e+00	0	27	0	168820736	73	4536
2026-01-13 23:51:41.08	25.66	9.89	-53.3	-55.5	14.0	0.00e+00	0	27	0	177209344	73	4477
2026-01-13 23:51:45.07	25.85	10.22	-53.2	-55.3	14.1	0.00e+00	0	26	0	184549376	73	4387
2026-01-13 23:51:49.07	26.05	10.56	-53.1	-55.2	14.1	0.00e+00	0	27	0	191889408	72	4566
2026-01-13 23:51:53.06	26.25	10.90	-53.1	-55.2	14.1	0.00e+00	0	27	0	199229440	72	4589
2026-01-13 23:51:57.07	26.45	11.25	-53.1	-55.3	14.1	0.00e+00	0	27	0	206569472	72	4603
2026-01-13 23:52:01.05	26.66	11.60	-53.1	-55.2	14.1	0.00e+00	0	27	0	213909504	72	4551
2026-01-13 23:52:05.06	26.87	11.96	-53.1	-55.1	14.1	0.00e+00	0	27	0	222298112	72	4539
2026-01-13 23:52:09.06	27.09	12.32	-53.1	-55.2	14.1	0.00e+00	0	27	0	229638144	72	4559
2026-01-13 23:52:13.06	27.31	12.69	-53.1	-55.2	14.1	0.00e+00	0	27	0	236978176	72	4567
2026-01-13 23:52:17.04	27.54	13.06	-52.9	-54.9	14.3	0.00e+00	0	27	0	244318208	72	4425
2026-01-13 23:52:21.02	27.77	13.44	-52.7	-54.7	14.4	0.00e+00	0	27	0	251658240	72	4316
2026-01-13 23:52:25.01	28.01	13.82	-52.7	-54.7	14.4	0.00e+00	0	27	0	258998272	72	4311
2026-01-13 23:52:29.02	28.25	14.21	-52.5	-54.4	14.4	0.00e+00	0	27	0	266338304	71	4439
2026-01-13 23:52:33.02	28.50	14.61	-52.6	-54.5	14.4	0.00e+00	0	27	0	274726912	71	4472
2026-01-13 23:52:37.02	28.76	15.01	-52.5	-54.3	14.5	0.00e+00	0	27	0	282066944	71	4377
2026-01-13 23:52:41.01	29.02	15.42	-52.2	-54.0	14.6	0.00e+00	0	27	0	289406976	71	4224
2026-01-13 23:52:45.00	29.29	15.83	-52.1	-53.9	14.5	0.00e+00	0	27	0	296747008	70	4408
2026-01-13 23:52:48.98	29.56	16.25	-51.9	-53.7	14.6	0.00e+00	0	27	0	304087040	70	4300
2026-01-13 23:52:52.97	29.85	16.68	-51.8	-53.5	14.5	0.00e+00	0	27	0	311427072	69	4477
2026-01-13 23:52:56.95	30.14	17.11	-51.9	-53.6	14.5	0.00e+00	0	27	0	318767104	69	4533
2026-01-13 23:53:00.95	30.44	17.55	-52.1	-53.8	14.4	0.00e+00	0	27	0	326107136	69	4637
2026-01-13 23:53:04.94	30.75	18.00	-52.1	-53.8	14.4	0.00e+00	0	27	0	334495744	69	4642
2026-01-13 23:53:08.93	31.06	18.45	-51.6	-53.2	14.7	0.00e+00	0	27	0	341835776	69	4330
2026-01-13 23:53:12.92	31.39	18.92	-51.6	-53.2	14.7	0.00e+00	0	27	0	349175808	69	4330
2026-01-13 23:53:16.91	31.72	19.39	-51.7	-53.4	14.6	0.00e+00	0	27	0	356515840	69	4420
2026-01-13 23:53:20.91	32.07	19.87	-51.6	-53.3	14.7	0.00e+00	0	27	0	363855872	69	4361
2026-01-13 23:53:24.90	32.43	20.36	-51.8	-53.5	14.5	0.00e+00	0	27	0	371195904	69	4453
2026-01-13 23:53:28.90	32.79	20.86	-51.7	-53.4	14.6	0.00e+00	0	27	0	378535936	69	4423
2026-01-13 23:53:32.90	33.17	21.36	-51.6	-53.3	14.6	0.00e+00	0	27	0	386924544	69	4382
2026-01-13 23:53:36.89	33.56	21.88	-51.0	-52.6	14.8	0.00e+00	0	27	0	394264576	68	4256
2026-01-13 23:53:40.88	33.97	22.40	-51.1	-52.6	14.8	0.00e+00	0	27	0	401604608	68	4279
2026-01-13 23:53:44.86	34.38	22.93	-51.1	-52.6	14.8	0.00e+00	0	27	0	408944640	68	4269
2026-01-13 23:53:48.87	34.81	23.48	-51.2	-52.8	14.8	0.00e+00	0	27	0	416284672	68	4357
2026-01-13 23:53:52.85	35.26	24.03	-51.2	-52.8	14.7	0.00e+00	0	27	0	423624704	68	4367
2026-01-13 23:53:56.83	35.72	24.59	-51.8	-53.4	14.5	0.00e+00	0	27	0	430964736	68	4695
2026-01-13 23:54:00.82	36.19	25.17	-52.1	-53.8	14.4	0.00e+00	0	27	0	439353344	69	4640
2026-01-13 23:54:04.81	36.69	25.75	-52.2	-54.0	14.5	0.00e+00	0	27	0	446693376	70	4452
2026-01-13 23:54:08.82	37.20	26.35	-52.3	-54.1	14.5	0.00e+00	0	27	0	454033408	70	4500
2026-01-13 23:54:12.80	37.73	26.96	-52.4	-54.2	14.4	0.00e+00	0	27	0	461373440	70	4559
2026-01-13 23:54:16.80	38.28	27.58	-52.7	-54.5	14.3	0.00e+00	0	27	0	468713472	70	4752
2026-01-13 23:54:20.79	38.86	28.21	-52.8	-54.7	14.3	0.00e+00	0	27	0	476053504	70	4815
2026-01-13 23:54:24.78	39.45	28.85	-53.6	-55.7	14.0	0.00e+00	0	27	0	483393536	72	4838
2026-01-13 23:54:28.77	40.07	29.50	-54.1	-56.5	13.7	0.00e+00	0	27	0	490733568	73	4985
2026-01-13 23:54:32.77	40.71	30.17	-54.4	-56.8	13.7	0.00e+00	0	27	0	499122176	74	4879
2026-01-13 23:54:36.75	41.38	30.84	-54.6	-57.1	13.5	0.00e+00	0	27	0	506462208	74	5098
2026-01-13 23:54:40.73	42.08	31.53	-54.7	-57.3	13.5	0.00e+00	0	27	0	513802240	75	4895
2026-01-13 23:54:44.71	42.81	32.23	-54.5	-56.9	13.8	0.00e+00	0	27	0	521142272	75	4659
2026-01-13 23:54:48.70	43.56	32.94	-54.8	-57.3	13.5	0.00e+00	0	27	0	528482304	75	4915
2026-01-13 23:54:52.68	44.35	33.66	-53.4	-55.4	14.3	0.00e+00	0	27	0	535822336	73	4395
2026-01-13 23:54:56.67	45.18	34.40	-53.3	-55.3	14.2	0.00e+00	0	27	0	543162368	72	4625
2026-01-13 23:55:00.65	46.05	35.14	-54.2	-56.6	13.7	0.00e+00	0	27	0	550502400	73	5046
2026-01-13 23:55:04.65	46.95	35.90	-53.5	-55.5	14.2	0.00e+00	0	27	0	558891008	73	4481
2026-01-13 23:55:08.63	47.90	36.66	-52.7	-54.5	14.5	0.00e+00	0	27	0	566231040	71	4468
2026-01-13 23:55:12.61	48.89	37.44	-52.4	-54.1	14.6	0.00e+00	0	27	0	573571072	71	4276
2026-01-13 23:55:16.60	49.93	38.22	-52.0	-53.7	14.7	0.00e+00	0	27	0	580911104	70	4302
2026-01-13 23:55:20.58	51.02	39.01	-51.4	-52.9	14.8	0.00e+00	0	27	0	588251136	69	4184
2026-01-13 23:55:24.57	52.16	39.81	-51.0	-52.4	14.9	0.00e+00	0	27	0	595591168	68	4178
2026-01-13 23:55:28.56	53.36	40.61	-52.0	-53.7	14.5	0.00e+00	0	27	0	602931200	69	4594
2026-01-13 23:55:32.55	54.62	41.42	-52.5	-54.2	14.4	0.00e+00	0	27	0	610271232	70	4596
2026-01-13 23:55:36.54	55.95	42.23	-52.3	-54.0	14.5	0.00e+00	0	27	0	618659840	70	4448
2026-01-13 23:55:40.53	57.34	43.04	-52.5	-54.3	14.4	0.00e+00	0	27	0	625999872	70	4629
2026-01-13 23:55:44.51	58.80	43.84	-53.8	-55.9	14.0	0.00e+00	0	27	0	633339904	73	4694
2026-01-13 23:55:48.50	60.34	44.65	-52.4	-54.1	14.6	0.00e+00	0	27	0	640679936	71	4256
2026-01-13 23:55:52.48	61.95	45.44	-54.3	-56.6	13.7	0.00e+00	0	27	0	648019968	73	5077
2026-01-13 23:55:56.47	63.65	46.23	-53.7	-55.8	14.2	0.00e+00	0	27	0	655360000	74	4384
2026-01-13 23:56:00.46	65.44	47.00	-54.0	-56.2	14.1	0.00e+00	0	27	0	662700032	74	4579
2026-01-13 23:56:04.47	67.32	47.76	-53.8	-55.9	14.1	0.00e+00	0	27	0	671088640	73	4673
2026-01-13 23:56:08.47	69.29	48.50	-53.1	-54.9	14.4	0.00e+00	0	27	0	678428672	72	4429
2026-01-13 23:56:12.47	71.35	49.21	-53.2	-55.2	14.2	0.00e+00	0	27	0	685768704	71	4842
2026-01-13 23:56:16.47	73.51	49.89	-53.8	-55.9	13.9	0.00e+00	0	27	0	693108736	72	4948
2026-01-13 23:56:20.47	75.77	50.54	-53.2	-55.2	14.3	0.00e+00	0	27	0	700448768	72	4546
2026-01-13 23:56:24.47	78.12	51.14	-53.5	-55.5	14.1	0.00e+00	0	27	0	707788800	72	4717
2026-01-13 23:56:28.46	80.55	51.71	-53.0	-54.9	14.5	0.00e+00	0	27	0	716177408	72	4435
2026-01-13 23:56:32.45	83.08	52.22	-53.3	-55.3	14.3	0.00e+00	0	27	0	723517440	72	4602
2026-01-13 23:56:36.45	85.69	52.68	-51.6	-53.2	14.6	0.00e+00	0	27	0	730857472	68	4568
2026-01-13 23:56:40.44	88.38	53.08	-52.8	-54.6	14.3	0.00e+00	0	27	0	738197504	70	4769
2026-01-13 23:56:44.44	91.15	53.42	-53.1	-55.0	14.4	0.00e+00	0	27	0	745537536	72	4467
2026-01-13 23:56:48.42	93.95	53.70	-53.5	-55.4	14.3	0.00e+00	0	27	0	752877568	73	4441
2026-01-13 23:56:52.42	96.82	53.90	-53.9	-56.0	14.1	0.00e+00	0	27	0	760217600	73	4738
2026-01-13 23:56:56.42	99.73	54.04	-54.2	-56.5	14.0	0.00e+00	0	27	0	767557632	75	4452
2026-01-13 23:57:00.40	102.63	54.10	-53.3	-55.2	14.3	0.00e+00	0	27	0	775946240	73	4333
2026-01-13 23:57:04.40	105.56	54.09	-52.8	-54.6	14.4	0.00e+00	0	27	0	783286272	71	4530
2026-01-13 23:57:08.39	108.47	54.00	-53.2	-55.2	14.2	0.00e+00	0	27	0	790626304	71	4824
2026-01-13 23:57:12.40	111.38	53.84	-52.1	-53.7	14.7	0.00e+00	0	27	0	797966336	70	4324
2026-01-13 23:57:16.40	114.23	53.61	-53.0	-54.9	14.3	0.00e+00	0	27	0	805306368	71	4659
2026-01-13 23:57:20.39	117.03	53.32	-53.0	-54.8	14.3	0.00e+00	0	27	0	812646400	71	4650
2026-01-13 23:57:24.40	119.78	52.95	-52.3	-54.0	14.7	0.00e+00	0	27	0	819986432	71	4231
2026-01-13 23:57:28.39	122.44	52.53	-53.2	-55.1	14.2	0.00e+00	0	27	0	828375040	72	4537
2026-01-13 23:57:32.40	125.04	52.05	-52.7	-54.5	14.5	0.00e+00	0	27	0	835715072	71	4457
2026-01-13 23:57:36.39	127.54	51.52	-51.6	-53.1	14.8	0.00e+00	0	27	0	843055104	69	4280
2026-01-13 23:57:40.38	129.95	50.94	-51.4	-53.0	14.8	0.00e+00	0	27	0	850395136	69	4203
2026-01-13 23:57:44.37	132.26	50.31	-52.4	-54.2	14.5	0.00e+00	0	27	0	857735168	70	4546
2026-01-13 23:57:48.37	134.49	49.65	-51.5	-53.0	14.8	0.00e+00	0	27	0	865075200	69	4213
2026-01-13 23:57:52.36	136.61	48.96	-53.0	-54.8	14.3	0.00e+00	0	27	0	873463808	71	4643
2026-01-13 23:57:56.35	138.64	48.24	-55.0	-57.6	13.4	0.00e+00	0	27	0	880803840	75	5100
2026-01-13 23:58:00.35	140.58	47.50	-53.7	-55.8	14.0	0.00e+00	0	27	0	888143872	72	4889
2026-01-13 23:58:04.34	142.43	46.73	-53.5	-55.5	14.1	0.00e+00	0	27	0	895483904	72	4755
2026-01-13 23:58:08.33	144.19	45.95	-56.8	-60.6	11.9	1.50e-06	0	27	0	902823936	78	5997
2026-01-13 23:58:12.33	145.87	45.16	-55.2	-57.8	13.4	0.00e+00	0	27	0	910163968	76	4886
2026-01-13 23:58:16.34	147.47	44.35	-56.3	-59.7	12.5	8.54e-05	0	27	0	917504000	79	5145
2026-01-13 23:58:20.35	148.99	43.54	-56.7	-60.3	12.1	0.00e+00	0	27	0	925892608	78	5806
2026-01-13 23:58:24.36	150.44	42.72	-57.8	-62.9	10.4	1.38e-03	0	27	0	933232640	82	6222
2026-01-13 23:58:28.36	151.81	41.91	-58.9	-67.6	6.3	2.18e-01	0	27	0	940572672	83	10096
2026-01-13 23:58:32.35	153.11	41.10	-54.3	-56.6	13.9	0.00e+00	0	27	0	947912704	75	4515
2026-01-13 23:58:36.35	154.36	40.29	-56.5	-60.1	12.2	0.00e+00	0	27	0	955252736	78	5703
2026-01-13 23:58:40.34	155.54	39.48	-55.2	-57.9	13.3	0.00e+00	0	27	0	962592768	76	4933
2026-01-13 23:58:44.34	156.67	38.68	-55.9	-59.0	12.8	0.00e+00	0	27	0	969932800	77	5290
2026-01-13 23:58:48.33	157.74	37.89	-52.8	-54.6	14.5	0.00e+00	0	27	0	978321408	72	4248
2026-01-13 23:58:52.31	158.76	37.11	-54.5	-56.9	13.6	0.00e+00	0	27	0	985661440	74	4944
2026-01-13 23:58:56.30	159.74	36.33	-52.4	-54.1	14.6	0.00e+00	0	27	0	993001472	71	4249
2026-01-13 23:59:00.29	160.67	35.57	-53.9	-56.0	13.9	0.00e+00	0	27	0	1000341504	72	5027
2026-01-13 23:59:04.29	161.56	34.81	-53.2	-55.1	14.4	0.00e+00	0	27	0	1007681536	73	4259
2026-01-13 23:59:08.30	162.42	34.06	-52.9	-54.8	14.3	0.00e+00	0	27	0	1015021568	71	4610
2026-01-13 23:59:12.30	163.24	33.33	-55.6	-58.6	12.9	0.00e+00	0	27	0	1022361600	76	5391
2026-01-13 23:59:16.29	164.02	32.61	-53.1	-55.1	14.3	0.00e+00	0	27	0	1030750208	72	4504
2026-01-13 23:59:20.29	164.77	31.89	-54.1	-56.4	13.7	0.00e+00	0	27	0	1038090240	73	4956
2026-01-13 23:59:24.29	165.48	31.20	-54.7	-57.2	13.5	0.00e+00	0	27	0	1045430272	75	4844
2026-01-13 23:59:28.28	166.17	30.51	-53.3	-55.3	14.3	0.00e+00	0	27	0	1052770304	73	4358
2026-01-13 23:59:32.28	166.83	29.83	-55.1	-57.8	13.3	0.00e+00	0	27	0	1060110336	75	5162
2026-01-13 23:59:36.29	167.47	29.17	-53.7	-55.8	14.1	0.00e+00	0	27	0	1067450368	73	4624
2026-01-13 23:59:40.29	168.08	28.51	-52.6	-54.4	14.5	0.00e+00	0	27	0	1074790400	71	4412
2026-01-13 23:59:44.30	168.67	27.87	-52.7	-54.6	14.4	0.00e+00	0	27	0	1083179008	71	4515
2026-01-13 23:59:48.29	169.23	27.25	-52.4	-54.3	14.4	0.00e+00	0	27	0	1090519040	70	4614
2026-01-13 23:59:52.30	169.77	26.63	-53.3	-55.4	14.0	0.00e+00	0	27	0	1097859072	71	4952
2026-01-13 23:59:56.30	170.30	26.02	-53.4	-55.5	14.1	0.00e+00	0	27	0	1105199104	72	4715
2026-01-14 00:00:00.30	170.80	25.43	-54.3	-56.7	13.6	0.00e+00	0	27	0	1112539136	73	5113
2026-01-14 00:00:04.29	171.29	24.84	-53.9	-56.1	14.0	0.00e+00	0	27	0	1119879168	74	4522
2026-01-14 00:00:08.29	171.76	24.27	-52.5	-54.3	14.5	0.00e+00	0	27	0	1128267776	71	4353
2026-01-14 00:00:12.29	172.21	23.71	-53.0	-55.0	14.2	0.00e+00	0	27	0	1135607808	71	4711
2026-01-14 00:00:16.31	172.65	23.15	-53.7	-56.0	13.8	0.00e+00	0	27	0	1142947840	72	5008
2026-01-14 00:00:20.32	173.08	22.61	-52.8	-54.8	14.4	0.00e+00	0	27	0	1150287872	72	4354
2026-01-14 00:00:24.31	173.49	22.08	-51.8	-53.5	14.7	0.00e+00	0	27	0	1157627904	70	4221
2026-01-14 00:00:28.32	173.89	21.55	-52.3	-54.1	14.4	0.00e+00	0	27	0	1164967936	70	4534
2026-01-14 00:00:32.32	174.27	21.04	-53.1	-55.1	14.1	0.00e+00	0	27	0	1173356544	71	4778
2026-01-14 00:00:36.32	174.64	20.53	-52.6	-54.5	14.3	0.00e+00	0	27	0	1180696576	71	4475
2026-01-14 00:00:40.33	175.01	20.04	-52.1	-53.8	14.5	0.00e+00	0	27	0	1188036608	70	4372
2026-01-14 00:00:44.32	175.36	19.55	-51.4	-53.1	14.7	0.00e+00	0	27	0	1195376640	69	4250
2026-01-14 00:00:48.31	175.69	19.07	-51.6	-53.3	14.6	0.00e+00	0	27	0	1202716672	69	4362
2026-01-14 00:00:52.33	176.03	18.60	-52.0	-53.7	14.4	0.00e+00	0	27	0	1210056704	69	4597
2026-01-14 00:00:56.32	176.35	18.14	-53.0	-55.0	14.1	0.00e+00	0	27	0	1217396736	71	4740
2026-01-14 00:01:00.31	176.66	17.68	-53.4	-55.5	13.9	0.00e+00	0	27	0	1225785344	71	5038
2026-01-14 00:01:04.30	176.96	17.24	-53.4	-55.6	14.0	0.00e+00	0	27	0	1233125376	72	4766
2026-01-14 00:01:08.30	177.25	16.80	-53.1	-55.2	14.1	0.00e+00	0	27	0	1240465408	72	4588
2026-01-14 00:01:12.28	177.54	16.37	-52.7	-54.6	14.4	0.00e+00	0	27	0	1247805440	72	4272
2026-01-14 00:01:16.27	177.82	15.94	-52.5	-54.4	14.4	0.00e+00	0	27	0	1255145472	71	4435
2026-01-14 00:01:20.26	178.09	15.52	-52.2	-54.0	14.6	0.00e+00	0	27	0	1262485504	71	4231
2026-01-14 00:01:24.25	178.35	15.11	-52.2	-54.0	14.4	0.00e+00	0	27	0	1269825536	70	4484
2026-01-14 00:01:28.26	178.61	14.71	-52.0	-53.8	14.5	0.00e+00	0	27	0	1278214144	70	4354
2026-01-14 00:01:32.24	178.86	14.31	-52.1	-53.9	14.5	0.00e+00	0	27	0	1285554176	70	4392
2026-01-14 00:01:36.24	179.11	13.91	-52.2	-54.0	14.4	0.00e+00	0	27	0	1292894208	70	4458
2026-01-14 00:01:40.23	179.35	13.53	-52.5	-54.4	14.3	0.00e+00	0	27	0	1300234240	70	4659
2026-01-14 00:01:44.23	179.58	13.14	-52.4	-54.3	14.3	0.00e+00	0	27	0	1307574272	70	4646
2026-01-14 00:01:48.23	179.81	12.77	-52.5	-54.4	14.2	0.00e+00	0	27	0	1314914304	70	4673
2026-01-14 00:01:52.24	180.03	12.39	-52.4	-54.3	14.3	0.00e+00	0	27	0	1322254336	70	4603
2026-01-14 00:01:56.24	180.25	12.03	-52.3	-54.1	14.4	0.00e+00	0	27	0	1330642944	70	4539
2026-01-14 00:02:00.22	180.46	11.67	-52.2	-54.0	14.4	0.00e+00	0	27	0	1337982976	70	4477
2026-01-14 00:02:04.21	180.67	11.31	-52.5	-54.5	14.2	0.00e+00	0	27	0	1345323008	70	4708
2026-01-14 00:02:08.19	180.87	10.96	-52.7	-54.7	14.1	0.00e+00	0	27	0	1352663040	70	4852
2026-01-14 00:02:12.19	181.07	10.62	-53.0	-55.2	14.0	0.00e+00	0	27	0	1360003072	71	4821
2026-01-14 00:02:16.19	181.27	10.27	-53.1	-55.3	13.9	0.00e+00	0	27	0	1367343104	71	4905
2026-01-14 00:02:20.19	181.46	9.94	-53.6	-55.9	13.7	0.00e+00	0	27	0	1374683136	72	4979
2026-01-14 00:02:24.19	181.65	9.60	-53.7	-56.1	13.6	0.00e+00	0	27	0	1383071744	72	5090
2026-01-14 00:02:28.18	181.83	9.28	-54.1	-56.7	13.3	0.00e+00	0	27	0	1390411776	73	5151
2026-01-14 00:02:32.16	182.01	8.95	-54.2	-56.9	13.3	0.00e+00	0	27	0	1397751808	73	5222
2026-01-14 00:02:36.16	182.18	8.63	-54.1	-56.8	13.3	0.00e+00	0	27	0	1405091840	73	5190
2026-01-14 00:02:40.16	182.35	8.31	-54.1	-56.7	13.4	0.00e+00	0	27	0	1412431872	73	5131
2026-01-14 00:02:44.16	182.52	8.00	-54.2	-56.9	13.2	0.00e+00	0	27	0	1419771904	73	5234
2026-01-14 00:02:48.16	182.69	7.69	-54.1	-56.8	13.3	0.00e+00	0	27	0	1427111936	73	5182
2026-01-14 00:02:52.16	182.85	7.38	-54.1	-56.8	13.2	0.00e+00	0	27	0	1435500544	73	5216
2026-01-14 00:02:56.17	183.01	7.08	-53.9	-56.6	13.4	0.00e+00	0	27	0	1442840576	73	5044
2026-01-14 00:03:00.17	183.17	6.78	-53.8	-56.3	13.5	0.00e+00	0	27	0	1450180608	73	4916
2026-01-14 00:03:04.15	183.32	6.48	-53.8	-56.3	13.5	0.00e+00	0	27	0	1457520640	73	4923
2026-01-14 00:03:08.13	183.47	6.19	-53.8	-56.4	13.4	0.00e+00	0	27	0	1464860672	73	4976
2026-01-14 00:03:12.13	183.62	5.90	-54.0	-56.6	13.3	0.00e+00	0	27	0	1472200704	73	5089
2026-01-14 00:03:16.12	183.76	5.62	-53.9	-56.5	13.3	0.00e+00	0	27	0	1479540736	73	5041
2026-01-14 00:03:20.12	183.90	5.33	-53.9	-56.6	13.3	0.00e+00	0	27	0	1487929344	73	5051
2026-01-14 00:03:24.11	184.04	5.05	-54.0	-56.7	13.2	0.00e+00	0	27	0	1495269376	73	5129
2026-01-14 00:03:28.11	184.18	4.77	-59.6	-75.7	3.8	1.49e+00	0	27	104	1496317952	84	24189
2026-01-14 00:03:32.11	184.32	4.50	-60.0	-76.1	3.8	1.49e+00	0	27	104	1496317952	85	24021
2026-01-14 00:03:36.10	184.45	4.23	-60.2	-76.3	3.8	1.49e+00	0	27	104	1496317952	85	24455
2026-01-14 00:03:40.11	184.58	3.96	-60.3	-76.4	3.8	1.49e+00	0	27	104	1496317952	85	24733
2026-01-14 00:03:44.11	184.71	3.69	-60.3	-76.4	3.9	1.49e+00	0	27	104	1496317952	85	24887
2026-01-14 00:03:48.10	184.84	3.42	-60.3	-76.4	3.8	1.49e+00	0	27	104	1496317952	85	24846
2026-01-14 00:03:52.10	184.96	3.16	-60.3	-76.4	3.8	1.49e+00	0	27	104	1496317952	85	24721
2026-01-14 00:03:56.07	185.09	2.90	-60.2	-76.3	3.8	1.49e+00	0	27	104	1496317952	85	24672
2026-01-14 00:04:00.08	185.21	2.65	-60.2	-76.3	3.8	1.49e+00	0	27	104	1496317952	85	24552
2026-01-14 00:04:04.07	185.33	2.39	-60.2	-76.3	3.8	1.49e+00	0	27	104	1496317952	85	24519
2026-01-14 00:04:08.05	185.44	2.14	-60.2	-76.3	3.8	1.49e+00	0	27	104	1496317952	85	24469

#Closed at: 2026-01-14 00:04:10
#Recorded file [1496 MB]: D:/lorett/data/31004_260114_024952.dat