passes_logs/2026/01/13/R3.2S_Murmansk/R3.2S_Murmansk__20260113_232008_NOAA_21_JPSS-2_rec.log

#Pass ID: 20260113_232008_NOAA 21 (JPSS-2)
#Satellite: NOAA 21 (JPSS-2)
#Configuration: NOAA-21
#almurnet v.1.7.20251203
#Start time: 2026-01-13 23:20:09

#Version: 2.2.20231116
#Station: R3.2S_Murmansk
#Location: 33.079688 lon 68.888172 lat
#TLE: 1 54234U 22150A   26013.60300550  .00000047  00000+0  43143-4 0  9998
#TLE: 2 54234  98.7496 314.5197 0000681 301.0337  59.0772 14.19534502164617

#Time	Az	El	Level	Level2	SNR	BER	BlckErr	Temp	State	Recorded	gain1	gain2
2026-01-13 23:20:09.85	20.50	2.09	-58.3	-71.7	3.8	1.49e+00	0	27	0	0	83	16149
2026-01-13 23:20:13.84	20.67	2.34	-58.2	-71.0	3.8	1.49e+00	0	27	104	0	81	16756
2026-01-13 23:20:17.85	20.84	2.58	-58.2	-70.9	3.8	1.49e+00	0	27	104	0	81	16515
2026-01-13 23:20:21.87	21.01	2.83	-58.2	-70.8	3.8	1.49e+00	0	27	104	0	81	16389
2026-01-13 23:20:25.86	21.19	3.08	-58.0	-68.3	4.0	1.45e+00	0	27	104	0	81	12271
2026-01-13 23:20:29.87	21.36	3.34	-57.7	-65.8	5.3	5.38e-01	0	27	0	5242880	81	9179
2026-01-13 23:20:33.88	21.55	3.59	-57.3	-64.1	6.4	2.17e-01	0	27	0	17825792	81	7555
2026-01-13 23:20:37.88	21.73	3.85	-56.3	-60.7	9.2	1.01e-02	0	27	0	30408704	79	5777
2026-01-13 23:20:41.87	21.91	4.11	-54.0	-56.6	12.1	7.60e-06	0	27	0	41943040	74	4771
2026-01-13 23:20:45.88	22.10	4.37	-52.5	-54.4	13.2	0.00e+00	0	27	0	54525952	71	4439
2026-01-13 23:20:49.88	22.29	4.63	-53.1	-55.4	12.7	0.00e+00	0	27	0	67108864	71	4965
2026-01-13 23:20:53.88	22.49	4.90	-55.0	-58.4	10.9	7.47e-05	0	27	0	79691776	75	5563
2026-01-13 23:20:57.87	22.69	5.17	-53.1	-55.2	12.9	0.00e+00	0	27	0	92274688	72	4583
2026-01-13 23:21:01.86	22.89	5.44	-53.0	-55.1	13.0	0.00e+00	0	27	0	104857600	72	4497
2026-01-13 23:21:05.86	23.09	5.71	-52.4	-54.3	13.4	0.00e+00	0	27	0	117440512	71	4368
2026-01-13 23:21:09.85	23.30	5.99	-52.0	-53.8	13.6	0.00e+00	0	27	0	130023424	70	4388
2026-01-13 23:21:13.85	23.51	6.27	-52.0	-53.8	13.6	0.00e+00	0	27	0	142606336	70	4391
2026-01-13 23:21:17.84	23.73	6.55	-51.8	-53.6	13.8	0.00e+00	0	27	0	155189248	70	4243
2026-01-13 23:21:21.83	23.95	6.83	-51.9	-53.6	13.7	0.00e+00	0	27	0	167772160	70	4273
2026-01-13 23:21:25.83	24.17	7.12	-51.7	-53.4	13.7	0.00e+00	0	27	0	179306496	69	4433
2026-01-13 23:21:29.81	24.40	7.41	-51.6	-53.3	13.8	0.00e+00	0	27	0	191889408	69	4349
2026-01-13 23:21:33.81	24.63	7.70	-51.4	-53.0	14.0	0.00e+00	0	27	0	204472320	69	4218
2026-01-13 23:21:37.80	24.87	8.00	-51.3	-52.9	14.0	0.00e+00	0	27	0	217055232	69	4180
2026-01-13 23:21:41.79	25.11	8.30	-51.3	-52.9	14.0	0.00e+00	0	27	0	229638144	69	4179
2026-01-13 23:21:45.80	25.35	8.60	-51.3	-52.9	14.1	0.00e+00	0	27	0	242221056	69	4181
2026-01-13 23:21:49.79	25.60	8.91	-51.2	-52.8	14.1	0.00e+00	0	27	0	254803968	69	4101
2026-01-13 23:21:53.77	25.86	9.22	-51.1	-52.7	14.1	0.00e+00	0	27	0	267386880	68	4305
2026-01-13 23:21:57.76	26.12	9.53	-50.9	-52.4	14.2	0.00e+00	0	27	0	279969792	68	4180
2026-01-13 23:22:01.75	26.38	9.84	-50.5	-52.0	14.3	0.00e+00	0	27	0	292552704	67	4203
2026-01-13 23:22:05.73	26.65	10.16	-50.4	-51.8	14.4	0.00e+00	0	27	0	304087040	67	4116
2026-01-13 23:22:09.71	26.92	10.48	-50.3	-51.8	14.4	0.00e+00	0	27	0	316669952	67	4100
2026-01-13 23:22:13.71	27.21	10.81	-50.0	-51.4	14.4	0.00e+00	0	27	0	329252864	66	4164
2026-01-13 23:22:17.70	27.49	11.14	-50.0	-51.3	14.4	0.00e+00	0	27	0	341835776	66	4136
2026-01-13 23:22:21.68	27.79	11.47	-50.2	-51.6	14.4	0.00e+00	0	27	0	354418688	66	4248
2026-01-13 23:22:25.67	28.09	11.81	-49.9	-51.3	14.5	0.00e+00	0	27	0	367001600	66	4102
2026-01-13 23:22:29.66	28.39	12.16	-49.9	-51.2	14.5	0.00e+00	0	27	0	379584512	66	4081
2026-01-13 23:22:33.67	28.71	12.50	-49.6	-50.9	14.5	0.00e+00	0	27	0	392167424	65	4152
2026-01-13 23:22:37.66	29.03	12.85	-49.5	-50.8	14.5	0.00e+00	0	27	0	404750336	65	4143
2026-01-13 23:22:41.63	29.35	13.21	-49.5	-50.9	14.5	0.00e+00	0	27	0	416284672	65	4149
2026-01-13 23:22:45.64	29.69	13.57	-49.6	-50.9	14.5	0.00e+00	0	27	0	428867584	65	4182
2026-01-13 23:22:49.64	30.03	13.93	-49.5	-50.8	14.6	0.00e+00	0	27	0	441450496	65	4132
2026-01-13 23:22:53.62	30.38	14.30	-49.6	-51.0	14.5	0.00e+00	0	27	0	454033408	65	4200
2026-01-13 23:22:57.61	30.74	14.68	-49.4	-50.7	14.6	0.00e+00	0	27	0	466616320	65	4085
2026-01-13 23:23:01.59	31.11	15.05	-49.5	-50.7	14.6	0.00e+00	0	27	0	479199232	65	4096
2026-01-13 23:23:05.58	31.49	15.44	-49.6	-51.0	14.5	0.00e+00	0	27	0	491782144	65	4198
2026-01-13 23:23:09.56	31.87	15.82	-49.8	-51.2	14.5	0.00e+00	0	27	0	504365056	65	4295
2026-01-13 23:23:13.56	32.27	16.22	-49.8	-51.2	14.4	0.00e+00	0	27	0	516947968	65	4310
2026-01-13 23:23:17.55	32.68	16.62	-49.7	-51.0	14.5	0.00e+00	0	27	0	528482304	65	4233
2026-01-13 23:23:21.55	33.09	17.02	-49.8	-51.2	14.5	0.00e+00	0	27	0	541065216	65	4292
2026-01-13 23:23:25.54	33.52	17.43	-50.0	-51.4	14.4	0.00e+00	0	27	0	553648128	65	4395
2026-01-13 23:23:29.54	33.96	17.84	-50.1	-51.5	14.3	0.00e+00	0	27	0	566231040	65	4452
2026-01-13 23:23:33.53	34.41	18.26	-50.0	-51.3	14.4	0.00e+00	0	27	0	578813952	65	4378
2026-01-13 23:23:37.52	34.88	18.69	-49.9	-51.2	14.5	0.00e+00	0	27	0	591396864	65	4329
2026-01-13 23:23:41.53	35.35	19.12	-49.9	-51.3	14.4	0.00e+00	0	27	0	603979776	65	4351
2026-01-13 23:23:45.53	35.84	19.56	-49.9	-51.2	14.4	0.00e+00	0	27	0	616562688	65	4316
2026-01-13 23:23:49.52	36.35	20.00	-49.6	-50.9	14.6	0.00e+00	0	27	0	629145600	65	4174
2026-01-13 23:23:53.51	36.86	20.45	-49.4	-50.7	14.6	0.00e+00	0	27	0	641728512	65	4069
2026-01-13 23:23:57.50	37.39	20.91	-49.4	-50.6	14.7	0.00e+00	0	27	0	654311424	65	4049
2026-01-13 23:24:01.49	37.94	21.37	-49.3	-50.6	14.7	0.00e+00	0	27	0	665845760	65	4007
2026-01-13 23:24:05.47	38.50	21.83	-49.0	-50.3	14.7	0.00e+00	0	27	0	678428672	64	4107
2026-01-13 23:24:09.46	39.08	22.30	-49.0	-50.2	14.7	0.00e+00	0	27	0	691011584	64	4090
2026-01-13 23:24:13.44	39.68	22.78	-48.8	-50.1	14.8	0.00e+00	0	27	0	703594496	64	4010
2026-01-13 23:24:17.44	40.29	23.27	-48.6	-49.8	14.8	0.00e+00	0	27	0	716177408	63	4119
2026-01-13 23:24:21.43	40.93	23.76	-48.7	-49.9	14.7	0.00e+00	0	27	0	728760320	63	4157
2026-01-13 23:24:25.44	41.58	24.25	-48.8	-50.1	14.7	0.00e+00	0	27	0	741343232	63	4243
2026-01-13 23:24:29.44	42.26	24.76	-48.5	-49.7	14.8	0.00e+00	0	27	0	753926144	63	4053
2026-01-13 23:24:33.43	42.96	25.26	-48.8	-50.0	14.7	0.00e+00	0	27	0	766509056	63	4207
2026-01-13 23:24:37.42	43.67	25.77	-48.9	-50.1	14.7	0.00e+00	0	27	0	778043392	63	4290
2026-01-13 23:24:41.41	44.41	26.29	-49.2	-50.5	14.6	0.00e+00	0	27	0	790626304	63	4446
2026-01-13 23:24:45.40	45.18	26.81	-49.9	-51.2	14.4	0.00e+00	0	27	0	803209216	64	4571
2026-01-13 23:24:49.39	45.97	27.34	-49.8	-51.1	14.5	0.00e+00	0	27	0	815792128	65	4270
2026-01-13 23:24:53.40	46.79	27.88	-49.9	-51.3	14.5	0.00e+00	0	27	0	828375040	65	4342
2026-01-13 23:24:57.37	47.62	28.41	-50.2	-51.6	14.3	0.00e+00	0	27	0	840957952	65	4514
2026-01-13 23:25:01.37	48.50	28.95	-49.7	-50.9	14.6	0.00e+00	0	27	0	853540864	65	4193
2026-01-13 23:25:05.35	49.39	29.49	-49.7	-51.0	14.6	0.00e+00	0	27	0	866123776	65	4201
2026-01-13 23:25:09.34	50.32	30.04	-49.5	-50.7	14.7	0.00e+00	0	27	0	878706688	65	4098
2026-01-13 23:25:13.33	51.29	30.58	-49.4	-50.6	14.7	0.00e+00	0	27	0	890241024	65	4043
2026-01-13 23:25:17.33	52.28	31.13	-49.5	-50.8	14.6	0.00e+00	0	27	0	902823936	65	4113
2026-01-13 23:25:21.31	53.31	31.68	-49.4	-50.6	14.7	0.00e+00	0	27	0	915406848	65	4035
2026-01-13 23:25:25.30	54.37	32.23	-50.2	-51.5	14.4	0.00e+00	0	27	0	927989760	65	4484
2026-01-13 23:25:29.30	55.47	32.78	-49.8	-51.1	14.5	0.00e+00	0	27	0	940572672	65	4278
2026-01-13 23:25:33.29	56.61	33.33	-50.0	-51.3	14.5	0.00e+00	0	27	0	953155584	65	4362
2026-01-13 23:25:37.29	57.78	33.88	-50.5	-51.9	14.3	0.00e+00	0	27	0	965738496	66	4412
2026-01-13 23:25:41.28	58.99	34.42	-50.7	-52.1	14.3	0.00e+00	0	27	0	978321408	66	4509
2026-01-13 23:25:45.27	60.25	34.95	-50.8	-52.2	14.3	0.00e+00	0	27	0	990904320	67	4326
2026-01-13 23:25:49.26	61.54	35.48	-50.8	-52.3	14.3	0.00e+00	0	27	0	1003487232	67	4349
2026-01-13 23:25:53.26	62.88	36.01	-51.1	-52.6	14.1	0.00e+00	0	27	0	1016070144	67	4515
2026-01-13 23:25:57.26	64.26	36.52	-50.8	-52.2	14.3	0.00e+00	0	27	0	1027604480	67	4293
2026-01-13 23:26:01.25	65.68	37.02	-51.3	-52.8	14.1	0.00e+00	0	27	0	1040187392	67	4614
2026-01-13 23:26:05.24	67.15	37.51	-51.2	-52.6	14.3	0.00e+00	0	27	0	1052770304	68	4290
2026-01-13 23:26:09.22	68.65	37.98	-51.3	-52.8	14.2	0.00e+00	0	27	0	1065353216	68	4359
2026-01-13 23:26:13.21	70.20	38.44	-51.8	-53.4	13.9	0.00e+00	0	27	0	1077936128	68	4683
2026-01-13 23:26:17.20	71.80	38.89	-51.6	-53.1	14.2	0.00e+00	0	27	0	1090519040	69	4282
2026-01-13 23:26:21.18	73.43	39.31	-52.0	-53.5	14.0	0.00e+00	0	27	0	1103101952	69	4490
2026-01-13 23:26:25.17	75.11	39.71	-52.1	-53.8	13.9	0.00e+00	0	27	0	1115684864	69	4609
2026-01-13 23:26:29.16	76.82	40.09	-52.2	-53.8	13.9	0.00e+00	0	27	0	1127219200	69	4644
2026-01-13 23:26:33.15	78.58	40.44	-51.7	-53.2	14.1	0.00e+00	0	27	0	1139802112	69	4318
2026-01-13 23:26:37.14	80.38	40.76	-52.3	-54.0	13.8	0.00e+00	0	27	0	1152385024	69	4716
2026-01-13 23:26:41.13	82.20	41.06	-52.2	-53.8	13.8	0.00e+00	0	27	0	1164967936	69	4635
2026-01-13 23:26:45.12	84.06	41.33	-51.6	-53.1	14.2	0.00e+00	0	27	0	1177550848	69	4243
2026-01-13 23:26:49.12	85.96	41.56	-51.9	-53.5	14.0	0.00e+00	0	27	0	1190133760	69	4457
2026-01-13 23:26:53.11	87.87	41.76	-52.3	-53.9	13.8	0.00e+00	0	27	0	1202716672	69	4668
2026-01-13 23:26:57.11	89.82	41.93	-51.5	-52.9	14.3	0.00e+00	0	27	0	1215299584	69	4167
2026-01-13 23:27:01.09	91.77	42.06	-52.1	-53.7	13.9	0.00e+00	0	27	0	1227882496	69	4577
2026-01-13 23:27:05.08	93.73	42.16	-52.5	-54.2	13.8	0.00e+00	0	27	0	1239416832	70	4584
2026-01-13 23:27:09.06	95.71	42.21	-52.3	-53.8	14.0	0.00e+00	0	27	0	1251999744	70	4390
2026-01-13 23:27:13.05	97.69	42.23	-51.6	-53.0	14.2	0.00e+00	0	27	0	1264582656	69	4227
2026-01-13 23:27:17.03	99.67	42.22	-52.2	-53.8	13.9	0.00e+00	0	27	0	1277165568	69	4609
2026-01-13 23:27:21.03	101.65	42.16	-53.0	-54.8	13.6	0.00e+00	0	27	0	1289748480	71	4627
2026-01-13 23:27:25.03	103.63	42.07	-52.3	-53.9	14.0	0.00e+00	0	27	0	1302331392	71	4181
2026-01-13 23:27:29.03	105.59	41.94	-52.0	-53.5	14.1	0.00e+00	0	27	0	1314914304	70	4224
2026-01-13 23:27:33.04	107.54	41.77	-52.0	-53.5	14.2	0.00e+00	0	27	0	1327497216	70	4197
2026-01-13 23:27:37.04	109.46	41.57	-52.0	-53.5	14.1	0.00e+00	0	27	0	1340080128	70	4220
2026-01-13 23:27:41.04	111.36	41.34	-51.9	-53.5	14.1	0.00e+00	0	27	0	1352663040	70	4213
2026-01-13 23:27:45.03	113.23	41.08	-52.2	-53.8	14.0	0.00e+00	0	27	0	1365245952	70	4363
2026-01-13 23:27:49.04	115.07	40.78	-52.7	-54.5	13.7	0.00e+00	0	27	0	1376780288	70	4721
2026-01-13 23:27:53.04	116.87	40.45	-52.0	-53.5	14.1	0.00e+00	0	27	0	1389363200	70	4236
2026-01-13 23:27:57.05	118.64	40.10	-51.9	-53.5	14.0	0.00e+00	0	27	0	1401946112	69	4457
2026-01-13 23:28:01.04	120.37	39.72	-51.6	-53.1	14.1	0.00e+00	0	27	0	1414529024	69	4279
2026-01-13 23:28:05.04	122.05	39.32	-51.9	-53.4	14.1	0.00e+00	0	27	0	1427111936	69	4425
2026-01-13 23:28:09.04	123.70	38.90	-52.2	-53.9	13.9	0.00e+00	0	27	0	1439694848	70	4401
2026-01-13 23:28:13.03	125.30	38.45	-51.2	-52.6	14.3	0.00e+00	0	27	0	1452277760	68	4263
2026-01-13 23:28:17.03	126.86	37.99	-51.6	-53.1	14.1	0.00e+00	0	27	0	1464860672	68	4508
2026-01-13 23:28:21.03	128.37	37.51	-51.1	-52.5	14.4	0.00e+00	0	27	0	1477443584	68	4206
2026-01-13 23:28:25.03	129.85	37.02	-51.5	-53.0	14.1	0.00e+00	0	27	0	1490026496	68	4450
2026-01-13 23:28:29.02	131.27	36.52	-50.4	-51.8	14.5	0.00e+00	0	27	0	1502609408	67	4110
2026-01-13 23:28:33.01	132.66	36.00	-50.6	-51.9	14.4	0.00e+00	0	27	0	1515192320	67	4192
2026-01-13 23:28:37.02	134.00	35.48	-51.1	-52.6	14.2	0.00e+00	0	27	0	1527775232	67	4519
2026-01-13 23:28:41.02	135.30	34.95	-51.8	-53.4	14.0	0.00e+00	0	27	0	1539309568	68	4652
2026-01-13 23:28:45.01	136.56	34.41	-51.3	-52.8	14.2	0.00e+00	0	27	0	1551892480	68	4367
2026-01-13 23:28:49.02	137.78	33.86	-51.0	-52.4	14.4	0.00e+00	0	27	0	1564475392	68	4168
2026-01-13 23:28:53.03	138.96	33.31	-50.4	-51.8	14.5	0.00e+00	0	27	0	1577058304	67	4110
2026-01-13 23:28:57.03	140.11	32.76	-50.2	-51.5	14.5	0.00e+00	0	27	0	1589641216	66	4212
2026-01-13 23:29:01.04	141.21	32.21	-49.8	-51.0	14.7	0.00e+00	0	27	0	1602224128	66	3998
2026-01-13 23:29:05.04	142.28	31.65	-49.4	-50.7	14.7	0.00e+00	0	27	0	1614807040	65	4055
2026-01-13 23:29:09.03	143.31	31.10	-49.2	-50.4	14.8	0.00e+00	0	27	0	1627389952	65	3944
2026-01-13 23:29:13.03	144.31	30.54	-48.9	-50.1	14.8	0.00e+00	0	27	0	1639972864	64	4046
2026-01-13 23:29:17.02	145.27	29.99	-49.2	-50.4	14.7	0.00e+00	0	27	0	1652555776	64	4182
2026-01-13 23:29:21.04	146.21	29.44	-49.4	-50.6	14.6	0.00e+00	0	27	0	1665138688	64	4284
2026-01-13 23:29:25.03	147.11	28.90	-49.6	-50.9	14.5	0.00e+00	0	27	0	1677721600	64	4415
2026-01-13 23:29:29.03	147.99	28.35	-49.5	-50.7	14.6	0.00e+00	0	27	0	1689255936	64	4324
2026-01-13 23:29:33.02	148.83	27.82	-49.6	-50.9	14.5	0.00e+00	0	27	0	1701838848	64	4422
2026-01-13 23:29:37.03	149.65	27.28	-49.6	-50.9	14.5	0.00e+00	0	27	0	1714421760	64	4423
2026-01-13 23:29:41.04	150.44	26.75	-49.2	-50.5	14.7	0.00e+00	0	27	0	1727004672	64	4195
2026-01-13 23:29:45.04	151.21	26.22	-49.0	-50.3	14.7	0.00e+00	0	27	0	1739587584	64	4105
2026-01-13 23:29:49.04	151.95	25.70	-48.8	-50.0	14.8	0.00e+00	0	27	0	1752170496	64	3988
2026-01-13 23:29:53.05	152.68	25.18	-49.2	-50.5	14.6	0.00e+00	0	27	0	1764753408	64	4196
2026-01-13 23:29:57.06	153.37	24.67	-49.0	-50.3	14.7	0.00e+00	0	27	0	1777336320	64	4104
2026-01-13 23:30:01.06	154.05	24.16	-49.0	-50.3	14.7	0.00e+00	0	27	0	1789919232	64	4101
2026-01-13 23:30:05.06	154.71	23.67	-49.2	-50.5	14.6	0.00e+00	0	27	0	1802502144	64	4221
2026-01-13 23:30:09.06	155.34	23.17	-49.3	-50.5	14.6	0.00e+00	0	27	0	1815085056	64	4241
2026-01-13 23:30:13.07	155.96	22.68	-49.5	-50.7	14.5	0.00e+00	0	27	0	1827667968	64	4333
2026-01-13 23:30:17.07	156.56	22.20	-49.3	-50.6	14.6	0.00e+00	0	27	0	1840250880	64	4273
2026-01-13 23:30:21.06	157.14	21.73	-49.3	-50.5	14.6	0.00e+00	0	27	0	1852833792	64	4228
2026-01-13 23:30:25.06	157.70	21.26	-49.1	-50.3	14.7	0.00e+00	0	27	0	1865416704	64	4124
2026-01-13 23:30:29.07	158.25	20.79	-49.2	-50.4	14.7	0.00e+00	0	27	0	1876951040	64	4183
2026-01-13 23:30:33.07	158.78	20.34	-49.0	-50.3	14.7	0.00e+00	0	27	0	1889533952	64	4105
2026-01-13 23:30:37.06	159.29	19.89	-48.9	-50.1	14.8	0.00e+00	0	27	0	1902116864	64	4021
2026-01-13 23:30:41.05	159.80	19.44	-48.9	-50.1	14.7	0.00e+00	0	27	0	1914699776	64	4022
2026-01-13 23:30:45.05	160.28	19.00	-49.0	-50.3	14.7	0.00e+00	0	27	0	1927282688	64	4113
2026-01-13 23:30:49.05	160.76	18.57	-49.4	-50.7	14.5	0.00e+00	0	27	0	1939865600	64	4316
2026-01-13 23:30:53.03	161.22	18.14	-49.4	-50.7	14.5	0.00e+00	0	27	0	1952448512	64	4322
2026-01-13 23:30:57.02	161.67	17.72	-49.7	-51.0	14.4	0.00e+00	0	27	0	1965031424	64	4452
2026-01-13 23:31:01.02	162.11	17.30	-49.5	-50.8	14.4	0.00e+00	0	27	0	1977614336	64	4389
2026-01-13 23:31:05.02	162.54	16.89	-49.7	-51.0	14.4	0.00e+00	0	27	0	1990197248	64	4475
2026-01-13 23:31:09.01	162.95	16.49	-49.6	-50.9	14.4	0.00e+00	0	27	0	2002780160	64	4435
2026-01-13 23:31:12.99	163.35	16.09	-49.7	-51.0	14.4	0.00e+00	0	27	0	2014314496	64	4460
2026-01-13 23:31:16.97	163.75	15.69	-49.9	-51.2	14.3	0.00e+00	0	27	0	2026897408	64	4594
2026-01-13 23:31:20.96	164.13	15.30	-50.1	-51.4	14.3	0.00e+00	0	27	0	2039480320	65	4433
2026-01-13 23:31:24.96	164.51	14.92	-50.5	-51.9	14.2	0.00e+00	0	27	0	2052063232	66	4439
2026-01-13 23:31:28.97	164.88	14.54	-50.6	-52.1	14.1	0.00e+00	0	27	0	2064646144	66	4527
2026-01-13 23:31:32.96	165.24	14.16	-50.4	-51.9	14.2	0.00e+00	0	27	0	2077229056	66	4404
2026-01-13 23:31:36.96	165.59	13.79	-50.5	-51.9	14.2	0.00e+00	0	27	0	2089811968	66	4430
2026-01-13 23:31:40.96	165.93	13.42	-50.5	-52.0	14.2	0.00e+00	0	27	0	2102394880	66	4470
2026-01-13 23:31:44.95	166.26	13.06	-50.5	-51.9	14.2	0.00e+00	0	27	0	2114977792	66	4435
2026-01-13 23:31:48.93	166.59	12.71	-50.4	-51.9	14.2	0.00e+00	0	27	0	2126512128	66	4412
2026-01-13 23:31:52.92	166.90	12.35	-50.5	-51.9	14.2	0.00e+00	0	27	0	2139095040	66	4436
2026-01-13 23:31:56.92	167.22	12.01	-50.5	-52.0	14.2	0.00e+00	0	27	0	2151677952	66	4448
2026-01-13 23:32:00.91	167.52	11.66	-50.6	-52.1	14.1	0.00e+00	0	27	0	2164260864	66	4504
2026-01-13 23:32:04.91	167.82	11.32	-50.8	-52.3	14.1	0.00e+00	0	27	0	2176843776	66	4625
2026-01-13 23:32:08.89	168.11	10.99	-50.8	-52.4	14.0	0.00e+00	0	27	0	2189426688	66	4655
2026-01-13 23:32:12.87	168.39	10.66	-50.9	-52.4	14.0	0.00e+00	0	27	0	2202009600	67	4440
2026-01-13 23:32:16.85	168.67	10.33	-50.9	-52.4	14.1	0.00e+00	0	27	0	2214592512	67	4435
2026-01-13 23:32:20.82	168.94	10.01	-50.9	-52.5	14.0	0.00e+00	0	27	0	2226126848	67	4454
2026-01-13 23:32:24.82	169.21	9.69	-51.1	-52.7	13.9	0.00e+00	0	27	0	2238709760	67	4569
2026-01-13 23:32:28.81	169.48	9.37	-51.3	-52.9	13.8	0.00e+00	0	27	0	2251292672	67	4680
2026-01-13 23:32:32.80	169.73	9.06	-51.2	-52.8	13.9	0.00e+00	0	27	0	2263875584	67	4607
2026-01-13 23:32:36.80	169.98	8.75	-51.3	-52.9	13.8	0.00e+00	0	27	0	2276458496	67	4704
2026-01-13 23:32:40.80	170.23	8.44	-51.2	-52.8	13.8	0.00e+00	0	27	0	2289041408	67	4622
2026-01-13 23:32:44.79	170.47	8.14	-51.4	-53.0	13.7	0.00e+00	0	27	0	2301624320	67	4758
2026-01-13 23:32:48.76	170.71	7.84	-51.7	-53.3	13.7	0.00e+00	0	27	0	2314207232	68	4649
2026-01-13 23:32:52.77	170.95	7.54	-51.7	-53.4	13.7	0.00e+00	0	27	0	2326790144	68	4675
2026-01-13 23:32:56.75	171.17	7.25	-51.9	-53.6	13.5	0.00e+00	0	27	0	2339373056	68	4808
2026-01-13 23:33:00.75	171.40	6.95	-51.8	-53.6	13.6	0.00e+00	0	27	0	2351955968	69	4526
2026-01-13 23:33:04.75	171.62	6.67	-52.1	-53.9	13.5	0.00e+00	0	27	0	2363490304	69	4680
2026-01-13 23:33:08.74	171.84	6.38	-52.1	-53.9	13.4	0.00e+00	0	27	0	2376073216	69	4686
2026-01-13 23:33:12.73	172.05	6.10	-52.2	-54.1	13.3	0.00e+00	0	27	0	2388656128	69	4809
2026-01-13 23:33:16.72	172.26	5.82	-52.3	-54.3	13.2	0.00e+00	0	27	0	2401239040	69	4875
2026-01-13 23:33:20.70	172.46	5.54	-52.4	-54.4	13.1	0.00e+00	0	27	0	2413821952	69	4948
2026-01-13 23:33:24.69	172.66	5.27	-52.3	-54.2	13.3	0.00e+00	0	27	0	2426404864	70	4581
2026-01-13 23:33:28.67	172.86	5.00	-58.5	-71.5	3.8	4.60e-04	0	27	104	2438987776	82	16831
2026-01-13 23:33:32.67	173.06	4.73	-59.8	-73.6	3.8	1.49e+00	0	27	104	2438987776	84	19076
2026-01-13 23:33:36.68	173.25	4.46	-60.1	-74.0	3.8	1.49e+00	0	28	104	2438987776	85	18808
2026-01-13 23:33:40.68	173.44	4.19	-60.3	-74.2	3.8	1.49e+00	0	28	104	2438987776	85	19225
2026-01-13 23:33:44.68	173.62	3.93	-60.4	-74.2	3.8	1.49e+00	0	27	104	2438987776	85	19339
2026-01-13 23:33:48.66	173.80	3.67	-60.4	-74.3	3.8	1.49e+00	0	27	104	2438987776	85	19454
2026-01-13 23:33:52.66	173.98	3.41	-60.4	-74.3	3.8	1.49e+00	0	28	104	2438987776	86	18371
2026-01-13 23:33:56.66	174.16	3.16	-60.4	-74.2	3.8	1.49e+00	0	28	104	2438987776	86	18204
2026-01-13 23:34:00.67	174.34	2.90	-60.3	-74.2	3.8	1.49e+00	0	27	104	2438987776	86	18114
2026-01-13 23:34:04.68	174.51	2.65	-60.2	-74.1	3.8	1.49e+00	0	28	104	2438987776	86	17991
2026-01-13 23:34:08.68	174.68	2.40	-60.3	-74.1	3.8	1.49e+00	0	27	104	2438987776	86	17967
2026-01-13 23:34:12.68	174.84	2.15	-60.3	-74.1	3.8	1.49e+00	0	27	104	2438987776	86	18041

#Closed at: 2026-01-13 23:34:15
#Recorded file [2438 MB]: D:/lorett/data/31004_260114_022009.dat