passes_logs/2026/01/13/R3.2S_Murmansk/R3.2S_Murmansk__20260113_084636_NOAA_20_JPSS-1_rec.log

#Pass ID: 20260113_084636_NOAA 20 (JPSS-1)
#Satellite: NOAA 20 (JPSS-1)
#Configuration: NOAA 20
#almurnet v.1.7.20251203
#Start time: 2026-01-13 08:46:38

#Version: 2.2.20231116
#Station: R3.2S_Murmansk
#Location: 33.079688 lon 68.888172 lat
#TLE: 1 43013U 17073A   26012.93351427  .00000071  00000+0  54715-4 0  9997
#TLE: 2 43013  98.7633 313.8947 0001589  42.3281 317.8017 14.19535582422443

#Time	Az	El	Level	Level2	SNR	BER	BlckErr	Temp	State	Recorded	gain1	gain2
2026-01-13 08:46:38.08	134.00	2.08	-58.0	-73.9	3.8	1.49e+00	0	24	0	0	82	22230
2026-01-13 08:46:42.12	133.94	2.34	-57.9	-73.9	3.8	1.49e+00	0	24	104	0	80	24796
2026-01-13 08:46:46.15	133.87	2.60	-57.9	-73.9	3.8	1.49e+00	0	24	104	0	80	24762
2026-01-13 08:46:50.19	133.80	2.87	-57.9	-73.9	3.8	1.49e+00	0	24	104	0	80	24736
2026-01-13 08:46:54.22	133.73	3.13	-57.9	-73.8	3.8	1.49e+00	0	25	104	0	80	24664
2026-01-13 08:46:58.26	133.66	3.40	-57.9	-73.8	3.8	1.49e+00	0	25	104	0	80	24466
2026-01-13 08:47:02.30	133.58	3.67	-57.9	-73.0	3.8	1.49e+00	0	25	104	0	80	22372
2026-01-13 08:47:06.34	133.51	3.95	-57.8	-70.6	4.1	1.46e+00	0	25	0	0	80	17019
2026-01-13 08:47:10.37	133.43	4.22	-57.4	-66.7	5.9	4.19e-01	0	25	0	5242880	80	10799
2026-01-13 08:47:14.40	133.35	4.50	-56.0	-60.8	10.7	2.07e-03	0	25	0	12582912	78	6184
2026-01-13 08:47:18.44	133.27	4.79	-53.9	-56.8	13.3	0.00e+00	0	25	0	19922944	74	4888
2026-01-13 08:47:22.48	133.19	5.07	-53.8	-56.7	13.4	0.00e+00	0	25	0	27262976	73	5108
2026-01-13 08:47:26.51	133.10	5.36	-53.6	-56.3	13.5	0.00e+00	0	25	0	35651584	73	4900
2026-01-13 08:47:30.54	133.02	5.65	-53.1	-55.4	13.9	0.00e+00	0	25	0	42991616	72	4693
2026-01-13 08:47:34.57	132.93	5.95	-53.1	-55.4	14.0	0.00e+00	0	25	0	50331648	72	4697
2026-01-13 08:47:38.59	132.84	6.24	-53.1	-55.4	14.0	0.00e+00	0	25	0	57671680	72	4683
2026-01-13 08:47:42.62	132.75	6.55	-53.2	-55.5	13.9	0.00e+00	0	25	0	65011712	72	4754
2026-01-13 08:47:46.65	132.65	6.85	-53.1	-55.4	14.1	0.00e+00	0	25	0	73400320	72	4658
2026-01-13 08:47:50.68	132.55	7.16	-53.0	-55.2	14.1	0.00e+00	0	25	0	80740352	72	4585
2026-01-13 08:47:54.71	132.45	7.47	-52.9	-55.0	14.3	0.00e+00	0	25	0	88080384	72	4482
2026-01-13 08:47:58.74	132.35	7.79	-52.9	-55.1	14.2	0.00e+00	0	26	0	95420416	72	4496
2026-01-13 08:48:02.78	132.25	8.11	-52.8	-54.9	14.4	0.00e+00	0	25	0	102760448	72	4400
2026-01-13 08:48:06.81	132.14	8.43	-52.8	-54.9	14.2	0.00e+00	0	25	0	111149056	71	4655
2026-01-13 08:48:10.84	132.03	8.76	-52.6	-54.7	14.4	0.00e+00	0	26	0	118489088	71	4552
2026-01-13 08:48:14.88	131.92	9.09	-52.6	-54.6	14.4	0.00e+00	0	26	0	125829120	71	4545
2026-01-13 08:48:18.92	131.80	9.43	-52.5	-54.5	14.4	0.00e+00	0	25	0	133169152	71	4485
2026-01-13 08:48:22.95	131.68	9.77	-52.4	-54.3	14.6	0.00e+00	0	26	0	140509184	71	4369
2026-01-13 08:48:26.98	131.56	10.11	-52.3	-54.3	14.6	0.00e+00	0	25	0	148897792	71	4351
2026-01-13 08:48:31.02	131.44	10.47	-52.2	-54.1	14.7	0.00e+00	0	26	0	156237824	71	4255
2026-01-13 08:48:35.05	131.31	10.82	-52.1	-54.0	14.6	0.00e+00	0	26	0	163577856	70	4475
2026-01-13 08:48:39.08	131.18	11.18	-52.2	-54.1	14.5	0.00e+00	0	26	0	170917888	70	4545
2026-01-13 08:48:43.10	131.04	11.54	-52.1	-54.0	14.6	0.00e+00	0	26	0	178257920	70	4449
2026-01-13 08:48:47.14	130.90	11.92	-52.2	-54.0	14.6	0.00e+00	0	26	0	186646528	70	4487
2026-01-13 08:48:51.17	130.76	12.29	-52.2	-54.0	14.6	0.00e+00	0	26	0	193986560	70	4472
2026-01-13 08:48:55.20	130.61	12.67	-51.9	-53.7	14.7	0.00e+00	0	26	0	201326592	70	4333
2026-01-13 08:48:59.24	130.46	13.06	-52.0	-53.8	14.7	0.00e+00	0	26	0	208666624	70	4361
2026-01-13 08:49:03.26	130.31	13.46	-52.0	-53.8	14.7	0.00e+00	0	26	0	217055232	70	4346
2026-01-13 08:49:07.29	130.15	13.86	-52.0	-53.8	14.7	0.00e+00	0	26	0	224395264	70	4348
2026-01-13 08:49:11.31	129.98	14.26	-52.0	-53.7	14.8	0.00e+00	0	26	0	231735296	70	4329
2026-01-13 08:49:15.34	129.81	14.67	-52.0	-53.7	14.8	0.00e+00	0	26	0	239075328	70	4332
2026-01-13 08:49:19.37	129.64	15.09	-51.9	-53.7	14.8	0.00e+00	0	26	0	246415360	70	4306
2026-01-13 08:49:23.40	129.46	15.52	-51.9	-53.6	14.8	0.00e+00	0	26	0	254803968	70	4268
2026-01-13 08:49:27.43	129.27	15.96	-51.8	-53.6	14.8	0.00e+00	0	26	0	262144000	70	4246
2026-01-13 08:49:31.46	129.08	16.40	-51.9	-53.6	14.8	0.00e+00	0	26	0	269484032	70	4270
2026-01-13 08:49:35.49	128.88	16.85	-51.9	-53.6	14.8	0.00e+00	0	26	0	276824064	70	4277
2026-01-13 08:49:39.52	128.68	17.30	-51.9	-53.6	14.8	0.00e+00	0	26	0	284164096	70	4251
2026-01-13 08:49:43.55	128.46	17.77	-51.8	-53.5	14.9	0.00e+00	0	26	0	292552704	70	4230
2026-01-13 08:49:47.59	128.25	18.25	-51.7	-53.4	14.9	0.00e+00	0	26	0	299892736	70	4168
2026-01-13 08:49:51.63	128.02	18.73	-51.8	-53.4	14.9	0.00e+00	0	26	0	307232768	70	4185
2026-01-13 08:49:55.65	127.79	19.22	-51.7	-53.4	15.0	0.00e+00	0	26	0	314572800	70	4158
2026-01-13 08:49:59.69	127.54	19.72	-51.8	-53.5	14.9	0.00e+00	0	26	0	321912832	70	4195
2026-01-13 08:50:03.72	127.29	20.24	-51.7	-53.4	15.0	0.00e+00	0	26	0	330301440	70	4155
2026-01-13 08:50:07.75	127.03	20.76	-51.7	-53.3	15.0	0.00e+00	0	26	0	337641472	70	4138
2026-01-13 08:50:11.78	126.76	21.29	-51.5	-53.2	14.9	0.00e+00	0	26	0	344981504	69	4293
2026-01-13 08:50:15.82	126.48	21.83	-51.5	-53.1	14.9	0.00e+00	0	26	0	352321536	69	4261
2026-01-13 08:50:19.85	126.20	22.39	-51.7	-53.4	14.8	0.00e+00	0	26	0	360710144	69	4409
2026-01-13 08:50:23.89	125.89	22.95	-51.8	-53.5	14.7	0.00e+00	0	26	0	368050176	69	4474
2026-01-13 08:50:27.92	125.58	23.53	-52.0	-53.7	14.7	0.00e+00	0	26	0	375390208	69	4595
2026-01-13 08:50:31.96	125.26	24.12	-52.0	-53.7	14.7	0.00e+00	0	26	0	382730240	69	4567
2026-01-13 08:50:35.99	124.92	24.72	-52.1	-53.9	14.6	0.00e+00	0	26	0	390070272	69	4675
2026-01-13 08:50:40.01	124.57	25.33	-52.5	-54.4	14.5	0.00e+00	0	26	0	398458880	70	4658
2026-01-13 08:50:44.05	124.20	25.96	-52.8	-54.8	14.3	0.00e+00	0	26	0	405798912	70	4876
2026-01-13 08:50:48.08	123.82	26.60	-53.4	-55.5	14.1	0.00e+00	0	26	0	413138944	71	5036
2026-01-13 08:50:52.10	123.42	27.26	-53.9	-56.1	13.9	0.00e+00	0	26	0	420478976	72	5095
2026-01-13 08:50:56.12	123.01	27.92	-54.1	-56.4	13.9	0.00e+00	0	26	0	427819008	73	4944
2026-01-13 08:51:00.16	122.58	28.61	-54.5	-56.9	13.7	0.00e+00	0	26	0	436207616	74	4965
2026-01-13 08:51:04.20	122.12	29.31	-54.5	-57.0	13.7	0.00e+00	0	26	0	443547648	74	5030
2026-01-13 08:51:08.23	121.65	30.02	-54.7	-57.3	13.5	0.00e+00	0	26	0	450887680	74	5195
2026-01-13 08:51:12.26	121.15	30.76	-54.7	-57.3	13.5	0.00e+00	0	26	0	458227712	74	5195
2026-01-13 08:51:16.29	120.63	31.50	-54.7	-57.3	13.5	0.00e+00	0	26	0	465567744	74	5189
2026-01-13 08:51:20.33	120.09	32.27	-54.6	-57.2	13.6	0.00e+00	0	26	0	473956352	74	5106
2026-01-13 08:51:24.36	119.51	33.05	-54.6	-57.1	13.6	0.00e+00	0	26	0	481296384	74	5044
2026-01-13 08:51:28.39	118.91	33.84	-54.5	-57.0	13.7	0.00e+00	0	26	0	488636416	74	5031
2026-01-13 08:51:32.43	118.28	34.66	-54.6	-57.1	13.6	0.00e+00	0	26	0	495976448	74	5086
2026-01-13 08:51:36.47	117.61	35.49	-54.8	-57.5	13.4	0.00e+00	0	26	0	503316480	74	5305
2026-01-13 08:51:40.50	116.91	36.34	-54.6	-57.1	13.8	0.00e+00	0	26	0	511705088	75	4767
2026-01-13 08:51:44.53	116.17	37.21	-54.7	-57.3	13.7	0.00e+00	0	26	0	519045120	75	4875
2026-01-13 08:51:48.56	115.39	38.09	-54.8	-57.3	13.6	0.00e+00	0	26	0	526385152	75	4920
2026-01-13 08:51:52.59	114.56	38.99	-54.7	-57.3	13.7	0.00e+00	0	26	0	533725184	75	4883
2026-01-13 08:51:56.62	113.69	39.91	-55.1	-57.8	13.4	0.00e+00	0	26	0	542113792	75	5178
2026-01-13 08:52:00.65	112.76	40.84	-54.9	-57.6	13.5	0.00e+00	0	26	0	549453824	75	5062
2026-01-13 08:52:04.68	111.78	41.79	-55.0	-57.7	13.4	0.00e+00	0	26	0	556793856	75	5119
2026-01-13 08:52:08.72	110.73	42.76	-55.1	-57.7	13.4	0.00e+00	0	26	0	564133888	75	5146
2026-01-13 08:52:12.75	109.63	43.73	-53.7	-55.8	14.4	0.00e+00	0	26	0	571473920	74	4361
2026-01-13 08:52:16.78	108.45	44.72	-53.8	-55.9	14.2	0.00e+00	0	26	0	579862528	73	4681
2026-01-13 08:52:20.81	107.19	45.72	-54.2	-56.5	13.9	0.00e+00	0	26	0	587202560	73	4987
2026-01-13 08:52:24.84	105.85	46.73	-54.4	-56.7	13.9	0.00e+00	0	26	0	594542592	74	4861
2026-01-13 08:52:28.87	104.42	47.74	-54.2	-56.4	14.0	0.00e+00	0	26	0	601882624	74	4692
2026-01-13 08:52:32.91	102.89	48.76	-53.4	-55.4	14.4	0.00e+00	0	26	0	609222656	73	4395
2026-01-13 08:52:36.94	101.26	49.78	-54.0	-56.2	14.0	0.00e+00	0	26	0	617611264	73	4820
2026-01-13 08:52:40.98	99.51	50.79	-53.5	-55.5	14.5	0.00e+00	0	26	0	624951296	73	4446
2026-01-13 08:52:45.01	97.64	51.80	-52.2	-53.8	14.9	0.00e+00	0	26	0	632291328	71	4132
2026-01-13 08:52:49.04	95.64	52.79	-52.1	-53.8	14.8	0.00e+00	0	26	0	639631360	70	4350
2026-01-13 08:52:53.08	93.50	53.76	-51.8	-53.4	14.8	0.00e+00	0	26	0	648019968	69	4431
2026-01-13 08:52:57.12	91.21	54.71	-51.8	-53.4	14.8	0.00e+00	0	26	0	655360000	69	4431
2026-01-13 08:53:01.14	88.78	55.62	-53.1	-55.0	14.4	0.00e+00	0	26	0	662700032	71	4724
2026-01-13 08:53:05.17	86.18	56.50	-53.4	-55.4	14.2	0.00e+00	0	26	0	670040064	71	4939
2026-01-13 08:53:09.20	83.41	57.32	-54.3	-56.6	13.9	0.00e+00	0	26	0	677380096	73	5069
2026-01-13 08:53:13.24	80.47	58.09	-54.2	-56.4	14.0	0.00e+00	0	26	0	685768704	74	4691
2026-01-13 08:53:17.27	77.38	58.80	-54.1	-56.2	14.1	0.00e+00	0	26	0	693108736	74	4590
2026-01-13 08:53:21.30	74.12	59.42	-53.0	-54.8	14.6	0.00e+00	0	26	0	700448768	72	4372
2026-01-13 08:53:25.34	70.70	59.97	-52.6	-54.3	14.7	0.00e+00	0	26	0	707788800	71	4383
2026-01-13 08:53:29.37	67.15	60.42	-52.4	-54.0	14.9	0.00e+00	0	26	0	715128832	71	4242
2026-01-13 08:53:33.41	63.49	60.78	-51.5	-53.1	15.0	0.00e+00	0	26	0	723517440	69	4264
2026-01-13 08:53:37.44	59.74	61.03	-50.8	-52.2	15.2	0.00e+00	0	26	0	730857472	68	4083
2026-01-13 08:53:41.47	55.93	61.17	-50.3	-51.7	15.2	0.00e+00	0	26	0	738197504	67	4091
2026-01-13 08:53:45.51	52.09	61.20	-49.6	-50.9	15.2	0.00e+00	0	26	0	745537536	65	4193
2026-01-13 08:53:49.55	48.26	61.11	-49.9	-51.2	15.1	0.00e+00	0	26	0	752877568	65	4334
2026-01-13 08:53:53.58	44.48	60.92	-50.0	-51.4	15.0	0.00e+00	0	26	0	761266176	65	4415
2026-01-13 08:53:57.61	40.77	60.62	-50.8	-52.2	14.9	0.00e+00	0	26	0	768606208	66	4576
2026-01-13 08:54:01.65	37.16	60.21	-51.1	-52.6	14.9	0.00e+00	0	26	0	775946240	67	4536
2026-01-13 08:54:05.68	33.68	59.71	-51.6	-53.2	14.8	0.00e+00	0	26	0	783286272	68	4565
2026-01-13 08:54:09.72	30.34	59.12	-53.4	-55.4	14.4	0.00e+00	0	26	0	791674880	72	4687
2026-01-13 08:54:13.75	27.16	58.46	-52.9	-54.7	14.7	0.00e+00	0	26	0	799014912	72	4334
2026-01-13 08:54:17.79	24.14	57.72	-53.8	-55.8	14.1	0.00e+00	0	26	0	806354944	72	4926
2026-01-13 08:54:21.82	21.30	56.92	-53.2	-55.0	14.5	0.00e+00	0	26	0	813694976	72	4490
2026-01-13 08:54:25.85	18.62	56.07	-52.3	-53.9	14.9	0.00e+00	0	26	0	821035008	71	4183
2026-01-13 08:54:29.88	16.10	55.18	-52.8	-54.6	14.6	0.00e+00	0	26	0	829423616	71	4495
2026-01-13 08:54:33.92	13.74	54.25	-52.4	-54.1	14.7	0.00e+00	0	26	0	836763648	70	4536
2026-01-13 08:54:37.95	11.53	53.29	-51.9	-53.5	14.9	0.00e+00	0	26	0	844103680	70	4233
2026-01-13 08:54:41.98	9.47	52.31	-53.1	-55.0	14.4	0.00e+00	0	26	0	851443712	71	4717
2026-01-13 08:54:46.01	7.54	51.32	-54.0	-56.2	14.1	0.00e+00	0	26	0	858783744	73	4828
2026-01-13 08:54:50.04	5.74	50.31	-54.3	-56.6	13.9	0.00e+00	0	26	0	867172352	73	5045
2026-01-13 08:54:54.07	4.05	49.30	-55.4	-58.2	13.2	0.00e+00	0	26	0	874512384	75	5415
2026-01-13 08:54:58.10	2.48	48.28	-54.9	-57.4	13.8	0.00e+00	0	26	0	881852416	76	4662
2026-01-13 08:55:02.13	1.00	47.27	-54.3	-56.5	14.2	0.00e+00	0	26	0	889192448	75	4454
2026-01-13 08:55:06.16	359.62	46.26	-53.4	-55.3	14.5	0.00e+00	0	26	0	896532480	73	4370
2026-01-13 08:55:10.20	358.32	45.26	-53.7	-55.7	14.4	0.00e+00	0	26	0	904921088	73	4558
2026-01-13 08:55:14.23	357.11	44.27	-53.6	-55.6	14.4	0.00e+00	0	26	0	912261120	73	4525
2026-01-13 08:55:18.26	355.96	43.29	-54.1	-56.3	14.0	0.00e+00	0	26	0	919601152	73	4897
2026-01-13 08:55:22.29	354.89	42.32	-54.5	-56.7	13.9	0.00e+00	0	26	0	926941184	74	4858
2026-01-13 08:55:26.32	353.88	41.37	-55.8	-58.8	13.0	0.00e+00	0	26	0	934281216	76	5496
2026-01-13 08:55:30.35	352.93	40.43	-55.9	-58.9	13.0	0.00e+00	0	26	0	942669824	77	5242
2026-01-13 08:55:34.38	352.03	39.50	-56.3	-59.6	12.5	0.00e+00	0	26	0	950009856	77	5718
2026-01-13 08:55:38.41	351.18	38.60	-56.4	-59.8	12.6	0.00e+00	0	26	0	957349888	78	5511
2026-01-13 08:55:42.43	350.38	37.71	-56.2	-59.4	12.8	0.00e+00	0	26	0	964689920	78	5250
2026-01-13 08:55:46.45	349.62	36.84	-55.4	-58.1	13.5	0.00e+00	0	26	0	973078528	77	4794
2026-01-13 08:55:50.48	348.90	35.99	-55.1	-57.7	13.7	0.00e+00	0	26	0	980418560	76	4826
2026-01-13 08:55:54.52	348.22	35.15	-55.0	-57.5	13.7	0.00e+00	0	26	0	987758592	76	4720
2026-01-13 08:55:58.55	347.57	34.33	-55.0	-57.6	13.7	0.00e+00	0	26	0	995098624	76	4766
2026-01-13 08:56:02.59	346.96	33.52	-54.9	-57.4	13.8	0.00e+00	0	26	0	1002438656	76	4687
2026-01-13 08:56:06.62	346.37	32.73	-54.5	-56.9	13.9	0.00e+00	0	26	0	1010827264	75	4683
2026-01-13 08:56:10.65	345.81	31.96	-55.1	-57.8	13.4	0.00e+00	0	26	0	1018167296	75	5200
2026-01-13 08:56:14.68	345.28	31.21	-55.1	-57.8	13.4	0.00e+00	0	26	0	1025507328	75	5177
2026-01-13 08:56:18.72	344.77	30.47	-54.7	-57.2	13.8	0.00e+00	0	26	0	1032847360	75	4825
2026-01-13 08:56:22.74	344.29	29.75	-54.8	-57.3	13.7	0.00e+00	0	26	0	1040187392	75	4878
2026-01-13 08:56:26.78	343.83	29.05	-55.1	-57.8	13.4	0.00e+00	0	26	0	1048576000	75	5186
2026-01-13 08:56:30.80	343.39	28.36	-55.2	-58.0	13.3	0.00e+00	0	26	0	1055916032	75	5292
2026-01-13 08:56:34.84	342.96	27.68	-55.0	-57.6	13.5	0.00e+00	0	26	0	1063256064	75	5083
2026-01-13 08:56:38.87	342.56	27.02	-54.5	-56.9	13.9	0.00e+00	0	26	0	1070596096	75	4666
2026-01-13 08:56:42.91	342.17	26.37	-54.4	-56.8	13.9	0.00e+00	0	26	0	1077936128	75	4611
2026-01-13 08:56:46.94	341.80	25.74	-54.4	-56.8	14.0	0.00e+00	0	26	0	1086324736	75	4608
2026-01-13 08:56:50.97	341.44	25.12	-54.4	-56.8	14.0	0.00e+00	0	26	0	1093664768	75	4610
2026-01-13 08:56:55.00	341.10	24.52	-54.3	-56.7	14.0	0.00e+00	0	26	0	1101004800	75	4556
2026-01-13 08:56:59.03	340.77	23.92	-54.1	-56.4	14.0	0.00e+00	0	26	0	1108344832	74	4663
2026-01-13 08:57:03.07	340.45	23.34	-53.8	-55.9	14.3	0.00e+00	0	26	0	1115684864	74	4438
2026-01-13 08:57:07.09	340.15	22.77	-53.6	-55.7	14.2	0.00e+00	0	26	0	1124073472	73	4570
2026-01-13 08:57:11.12	339.86	22.21	-53.4	-55.5	14.4	0.00e+00	0	26	0	1131413504	73	4446
2026-01-13 08:57:15.16	339.57	21.67	-53.2	-55.1	14.4	0.00e+00	0	26	0	1138753536	72	4543
2026-01-13 08:57:19.19	339.30	21.13	-53.0	-54.9	14.5	0.00e+00	0	26	0	1146093568	72	4423
2026-01-13 08:57:23.22	339.04	20.60	-53.3	-55.3	14.3	0.00e+00	0	26	0	1154482176	72	4630
2026-01-13 08:57:27.26	338.78	20.09	-53.3	-55.4	14.2	0.00e+00	0	26	0	1161822208	72	4669
2026-01-13 08:57:31.30	338.54	19.58	-53.4	-55.5	14.2	0.00e+00	0	26	0	1169162240	72	4758
2026-01-13 08:57:35.33	338.30	19.08	-53.5	-55.6	14.1	0.00e+00	0	26	0	1176502272	72	4781
2026-01-13 08:57:39.36	338.07	18.60	-53.3	-55.4	14.2	0.00e+00	0	26	0	1183842304	72	4693
2026-01-13 08:57:43.39	337.85	18.12	-53.2	-55.2	14.3	0.00e+00	0	26	0	1192230912	72	4595
2026-01-13 08:57:47.42	337.64	17.65	-53.2	-55.3	14.3	0.00e+00	0	26	0	1199570944	72	4617
2026-01-13 08:57:51.45	337.43	17.19	-53.5	-55.6	14.1	0.00e+00	0	26	0	1206910976	72	4792
2026-01-13 08:57:55.49	337.23	16.74	-53.6	-55.8	14.0	0.00e+00	0	26	0	1214251008	72	4910
2026-01-13 08:57:59.52	337.04	16.29	-53.9	-56.2	13.8	0.00e+00	0	26	0	1221591040	72	5131
2026-01-13 08:58:03.55	336.85	15.85	-54.0	-56.4	13.8	0.00e+00	0	26	0	1229979648	73	4947
2026-01-13 08:58:07.58	336.67	15.42	-54.0	-56.4	13.8	0.00e+00	0	26	0	1237319680	73	4965
2026-01-13 08:58:11.61	336.49	15.00	-53.9	-56.3	13.9	0.00e+00	0	26	0	1244659712	73	4871
2026-01-13 08:58:15.65	336.32	14.59	-53.7	-55.9	14.0	0.00e+00	0	26	0	1251999744	73	4693
2026-01-13 08:58:19.69	336.16	14.18	-53.8	-56.1	13.9	0.00e+00	0	26	0	1260388352	73	4763
2026-01-13 08:58:23.72	336.00	13.77	-53.8	-56.1	13.9	0.00e+00	0	26	0	1267728384	73	4810
2026-01-13 08:58:27.76	335.84	13.38	-53.9	-56.3	13.8	0.00e+00	0	26	0	1275068416	73	4896
2026-01-13 08:58:31.79	335.69	12.99	-54.0	-56.4	13.8	0.00e+00	0	26	0	1282408448	73	4952
2026-01-13 08:58:35.83	335.54	12.60	-54.1	-56.6	13.6	0.00e+00	0	26	0	1289748480	73	5070
2026-01-13 08:58:39.86	335.40	12.22	-54.2	-56.7	13.5	0.00e+00	0	26	0	1298137088	73	5150
2026-01-13 08:58:43.90	335.26	11.85	-54.3	-56.9	13.5	0.00e+00	0	26	0	1305477120	73	5239
2026-01-13 08:58:47.93	335.12	11.48	-54.4	-57.0	13.4	0.00e+00	0	26	0	1312817152	73	5326
2026-01-13 08:58:51.97	334.99	11.12	-54.4	-57.1	13.4	0.00e+00	0	26	0	1320157184	74	5064
2026-01-13 08:58:56.00	334.87	10.76	-54.4	-57.1	13.4	0.00e+00	0	26	0	1327497216	74	5068
2026-01-13 08:59:00.03	334.74	10.41	-54.4	-57.0	13.4	0.00e+00	0	26	0	1335885824	74	5028
2026-01-13 08:59:04.06	334.62	10.06	-54.4	-57.1	13.4	0.00e+00	0	26	0	1343225856	74	5090
2026-01-13 08:59:08.09	334.50	9.72	-54.5	-57.2	13.3	0.00e+00	0	26	0	1350565888	74	5141
2026-01-13 08:59:12.12	334.39	9.38	-54.4	-57.2	13.3	0.00e+00	0	26	0	1357905920	74	5114
2026-01-13 08:59:16.15	334.28	9.05	-54.5	-57.3	13.2	0.00e+00	0	26	0	1365245952	74	5209
2026-01-13 08:59:20.19	334.17	8.72	-54.6	-57.4	13.1	0.00e+00	0	26	0	1373634560	74	5264
2026-01-13 08:59:24.22	334.06	8.39	-54.6	-57.5	13.1	0.00e+00	0	26	0	1380974592	74	5331
2026-01-13 08:59:28.26	333.96	8.07	-54.8	-57.8	12.9	0.00e+00	0	26	0	1388314624	74	5497
2026-01-13 08:59:32.29	333.86	7.75	-54.7	-57.7	12.9	0.00e+00	0	26	0	1395654656	74	5446
2026-01-13 08:59:36.32	333.76	7.44	-54.8	-57.9	12.8	0.00e+00	0	26	0	1404043264	74	5552
2026-01-13 08:59:40.36	333.66	7.13	-54.8	-57.9	12.8	0.00e+00	0	26	0	1411383296	74	5547
2026-01-13 08:59:44.39	333.57	6.82	-54.9	-58.0	12.8	0.00e+00	0	26	0	1418723328	75	5337
2026-01-13 08:59:48.42	333.48	6.52	-54.9	-58.2	12.7	0.00e+00	0	26	0	1426063360	75	5409
2026-01-13 08:59:52.47	333.39	6.22	-55.1	-58.5	12.4	0.00e+00	0	26	0	1433403392	75	5597
2026-01-13 08:59:56.49	333.30	5.93	-55.0	-58.4	12.5	0.00e+00	0	26	0	1441792000	75	5584
2026-01-13 09:00:00.52	333.22	5.63	-55.3	-58.9	12.1	0.00e+00	0	26	0	1449132032	75	5919
2026-01-13 09:00:04.56	333.14	5.34	-55.2	-58.9	12.1	7.00e-07	0	26	0	1456472064	75	5856
2026-01-13 09:00:08.59	333.05	5.06	-55.5	-59.4	11.8	3.80e-06	0	26	0	1463812096	76	5917
2026-01-13 09:00:12.63	332.98	4.77	-59.2	-75.3	3.8	1.49e+00	0	26	104	1466957824	83	24477
2026-01-13 09:00:16.66	332.90	4.49	-59.9	-76.0	3.8	1.49e+00	0	26	104	1466957824	84	25068
2026-01-13 09:00:20.69	332.82	4.22	-60.2	-76.2	3.8	1.49e+00	0	26	104	1466957824	85	24326
2026-01-13 09:00:24.73	332.75	3.94	-60.2	-76.3	3.8	1.49e+00	0	26	104	1466957824	85	24588
2026-01-13 09:00:28.76	332.68	3.67	-60.3	-76.4	3.8	1.49e+00	0	26	104	1466957824	85	24880
2026-01-13 09:00:32.79	332.61	3.40	-60.3	-76.4	3.8	1.49e+00	0	26	104	1466957824	85	24749
2026-01-13 09:00:36.83	332.54	3.13	-60.3	-76.3	3.8	1.49e+00	0	26	104	1466957824	85	24638
2026-01-13 09:00:40.86	332.47	2.87	-60.2	-76.3	3.8	1.49e+00	0	26	104	1466957824	85	24510
2026-01-13 09:00:44.90	332.41	2.60	-60.2	-76.3	3.8	1.49e+00	0	26	104	1466957824	85	24479
2026-01-13 09:00:48.94	332.34	2.34	-60.2	-76.3	3.8	1.49e+00	0	26	104	1466957824	85	24473
2026-01-13 09:00:52.97	332.28	2.09	-60.2	-76.3	3.8	1.49e+00	0	26	104	1466957824	85	24412

#Closed at: 2026-01-13 09:00:56
#Recorded file [1466 MB]: D:/lorett/data/31004_260113_114637.dat