passes_logs/2026/01/15/T1/T1__20260115_004634_AQUA_rec.log

#Pass ID: 20260115_004634_AQUA
#Satellite: AQUA
#Configuration: AQUA
#almurnet v.1.7.20251203
#Start time: 2026-01-15 00:46:35

#Version: 2.0.20230620
#Station: T1
#Location: 37.570604 lon 55.790049 lat
#TLE: 1 27424U 02022A   26014.19338718  .00000717  00000+0  15340-3 0  9998
#TLE: 2 27424  98.4080 340.6072 0002047  79.4950 292.1093 14.61819636260772

#Time	Az	El	Level	Level2	SNR	BER	BlckErr	Temp	State	Recorded	gain1	gain2
2026-01-15 00:46:35.23	21.49	5.05	-51.6	-72.2	3.8	7.47e-01	0	41	0	0	73	41902
2026-01-15 00:46:38.20	21.62	5.27	-51.6	-72.2	3.8	7.46e-01	0	41	104	0	73	41877
2026-01-15 00:46:41.18	21.75	5.48	-51.6	-72.3	3.8	7.46e-01	0	41	104	0	73	41965
2026-01-15 00:46:44.16	21.89	5.70	-51.6	-72.2	3.8	7.46e-01	0	41	104	0	73	41928
2026-01-15 00:46:47.15	22.03	5.93	-51.6	-72.3	3.8	7.48e-01	0	41	104	0	73	41959
2026-01-15 00:46:50.12	22.17	6.15	-51.6	-72.2	3.8	7.47e-01	0	41	104	0	73	41917
2026-01-15 00:46:53.10	22.31	6.37	-51.6	-72.2	3.8	7.45e-01	0	42	104	0	73	41773
2026-01-15 00:46:56.08	22.46	6.60	-51.6	-72.2	3.8	7.43e-01	0	42	104	0	73	41826
2026-01-15 00:46:59.06	22.60	6.83	-51.6	-72.2	3.8	7.48e-01	0	42	104	0	73	41908
2026-01-15 00:47:02.04	22.75	7.07	-51.6	-72.2	3.8	7.43e-01	0	42	104	0	73	41923
2026-01-15 00:47:05.03	22.91	7.30	-51.6	-72.2	3.8	7.49e-01	0	42	104	0	73	41850
2026-01-15 00:47:08.01	23.06	7.54	-51.6	-72.2	3.8	7.44e-01	0	42	104	0	73	41831
2026-01-15 00:47:10.99	23.22	7.78	-51.6	-72.2	3.8	7.46e-01	0	42	104	0	73	41897
2026-01-15 00:47:13.97	23.38	8.02	-51.6	-72.2	3.8	7.45e-01	0	42	104	0	73	41907
2026-01-15 00:47:16.95	23.54	8.26	-51.6	-72.2	3.8	7.43e-01	0	42	104	0	73	41830
2026-01-15 00:47:19.93	23.70	8.51	-51.6	-72.2	3.8	7.47e-01	0	42	104	0	73	41891
2026-01-15 00:47:22.92	23.87	8.76	-51.6	-72.2	3.8	7.46e-01	0	42	104	0	73	41887
2026-01-15 00:47:25.90	24.04	9.01	-51.6	-72.2	3.8	7.48e-01	0	42	104	0	73	41883
2026-01-15 00:47:28.88	24.22	9.26	-51.6	-72.3	3.8	7.48e-01	0	42	104	0	73	41979
2026-01-15 00:47:31.84	24.39	9.52	-51.6	-72.2	3.8	7.45e-01	0	43	104	0	73	41925
2026-01-15 00:47:34.82	24.57	9.78	-51.7	-72.2	3.8	7.46e-01	0	42	104	0	73	41923
2026-01-15 00:47:37.80	24.76	10.04	-51.7	-72.2	3.8	7.47e-01	0	42	104	0	73	41926
2026-01-15 00:47:40.78	24.94	10.31	-51.7	-72.3	3.8	7.42e-01	0	43	104	0	73	41937
2026-01-15 00:47:43.76	25.13	10.58	-51.7	-72.3	3.8	7.44e-01	0	43	104	0	73	41981
2026-01-15 00:47:46.74	25.33	10.85	-51.7	-72.2	3.8	7.45e-01	0	42	104	0	73	41921
2026-01-15 00:47:49.72	25.52	11.12	-51.7	-72.3	3.8	7.45e-01	0	43	104	0	73	41981
2026-01-15 00:47:52.70	25.73	11.40	-51.7	-72.3	3.8	7.48e-01	0	43	104	0	73	41979
2026-01-15 00:47:55.68	25.93	11.68	-51.7	-72.2	3.8	7.47e-01	0	43	104	0	73	41904
2026-01-15 00:47:58.66	26.14	11.97	-51.7	-72.3	3.8	7.49e-01	0	43	104	0	73	41987
2026-01-15 00:48:01.64	26.35	12.26	-51.7	-72.3	3.8	7.46e-01	0	43	104	0	73	41945
2026-01-15 00:48:04.63	26.57	12.55	-51.6	-72.3	3.8	7.46e-01	0	43	104	0	73	42052
2026-01-15 00:48:07.61	26.79	12.84	-51.6	-72.3	3.8	7.47e-01	0	43	104	0	73	42000
2026-01-15 00:48:10.59	27.02	13.14	-51.7	-72.3	3.8	7.44e-01	0	43	104	0	73	41995
2026-01-15 00:48:13.57	27.25	13.45	-51.6	-72.3	3.8	7.43e-01	0	43	104	0	73	41964
2026-01-15 00:48:16.49	27.48	13.75	-51.7	-72.3	3.8	7.47e-01	0	43	104	0	73	41983
2026-01-15 00:48:19.61	27.73	14.07	-51.7	-72.3	3.8	7.48e-01	0	43	104	0	73	41962
2026-01-15 00:48:22.45	27.97	14.37	-51.7	-72.3	3.8	7.45e-01	0	43	104	0	73	42024
2026-01-15 00:48:25.59	28.23	14.71	-51.7	-72.3	3.8	7.46e-01	0	43	104	0	73	42004
2026-01-15 00:48:28.54	28.49	15.03	-51.7	-72.3	3.8	7.45e-01	0	43	104	0	73	42032
2026-01-15 00:48:31.72	28.77	15.38	-51.7	-72.3	3.8	7.44e-01	0	43	104	0	73	41968
2026-01-15 00:48:34.56	29.03	15.69	-51.7	-72.3	3.8	7.46e-01	0	43	104	0	73	41994
2026-01-15 00:48:37.68	29.32	16.05	-51.7	-72.2	3.8	7.49e-01	0	43	104	0	73	41882
2026-01-15 00:48:40.52	29.58	16.37	-51.7	-72.3	3.8	7.49e-01	0	43	104	0	73	41978
2026-01-15 00:48:43.65	29.89	16.73	-51.6	-72.3	3.8	7.43e-01	0	43	104	0	73	41988
2026-01-15 00:48:46.49	30.17	17.07	-51.6	-72.2	3.8	7.44e-01	0	43	104	0	73	41808
2026-01-15 00:48:49.61	30.49	17.44	-51.6	-72.2	3.8	7.46e-01	0	43	104	0	73	41840
2026-01-15 00:48:52.45	30.78	17.79	-51.6	-72.2	3.8	7.45e-01	0	43	104	0	73	41756
2026-01-15 00:48:55.57	31.11	18.17	-51.7	-72.2	3.8	7.48e-01	0	43	104	0	73	41861
2026-01-15 00:48:58.46	31.43	18.53	-51.7	-72.3	3.8	7.48e-01	0	43	104	0	73	41986
2026-01-15 00:49:01.71	31.79	18.94	-51.6	-72.2	3.8	7.43e-01	0	43	104	0	73	41876
2026-01-15 00:49:04.61	32.13	19.31	-51.6	-72.2	3.8	7.48e-01	0	43	104	0	73	41809
2026-01-15 00:49:07.74	32.50	19.72	-51.7	-72.3	3.8	7.45e-01	0	43	104	0	73	41953
2026-01-15 00:49:10.57	32.84	20.09	-51.6	-72.2	3.8	7.45e-01	0	43	104	0	73	41902
2026-01-15 00:49:13.70	33.23	20.52	-51.6	-72.2	3.8	7.46e-01	0	43	104	0	73	41873
2026-01-15 00:49:16.54	33.59	20.90	-51.6	-72.2	3.8	7.48e-01	0	43	104	0	73	41919
2026-01-15 00:49:19.71	34.01	21.34	-51.6	-72.2	3.8	7.45e-01	0	43	104	0	73	41880
2026-01-15 00:49:22.61	34.40	21.75	-51.6	-72.2	3.8	7.44e-01	0	43	104	0	73	41872
2026-01-15 00:49:25.73	34.84	22.19	-51.6	-72.3	3.8	7.46e-01	0	43	104	0	73	41961
2026-01-15 00:49:28.57	35.24	22.60	-51.6	-72.2	3.8	7.47e-01	0	43	104	0	73	41813
2026-01-15 00:49:31.69	35.70	23.06	-51.6	-72.2	3.8	7.44e-01	0	44	104	0	73	41925
2026-01-15 00:49:34.53	36.13	23.49	-51.6	-72.2	3.8	7.45e-01	0	43	104	0	73	41905
2026-01-15 00:49:37.65	36.62	23.96	-51.6	-72.2	3.8	7.45e-01	0	43	104	0	73	41845
2026-01-15 00:49:40.49	37.07	24.39	-51.6	-72.2	3.8	7.47e-01	0	43	104	0	73	41850
2026-01-15 00:49:43.61	37.59	24.88	-51.6	-72.3	3.8	7.44e-01	0	43	104	0	73	41945
2026-01-15 00:49:46.45	38.07	25.33	-51.6	-72.2	3.8	7.45e-01	0	43	104	0	73	41851
2026-01-15 00:49:49.58	38.62	25.83	-51.6	-72.2	3.8	7.53e-01	0	43	104	0	73	41815
2026-01-15 00:49:52.42	39.14	26.30	-51.6	-72.2	3.8	7.44e-01	0	43	104	0	73	41825
2026-01-15 00:49:55.84	39.78	26.86	-51.6	-72.3	3.8	7.44e-01	0	44	104	0	73	41942
2026-01-15 00:49:58.54	40.30	27.32	-51.6	-72.2	3.8	7.49e-01	0	43	104	0	73	41886
2026-01-15 00:50:01.81	40.95	27.87	-51.6	-72.2	3.8	7.46e-01	0	44	104	0	73	41917
2026-01-15 00:50:04.51	41.51	28.34	-51.6	-72.2	3.8	7.46e-01	0	43	104	0	73	41605
2026-01-15 00:50:07.78	42.21	28.91	-51.6	-72.2	3.8	7.44e-01	0	43	104	0	73	41830
2026-01-15 00:50:10.47	42.80	29.39	-51.7	-72.2	3.8	7.43e-01	0	43	104	0	73	41837
2026-01-15 00:50:13.75	43.55	29.98	-51.6	-72.1	3.8	7.47e-01	0	43	104	0	73	41159
2026-01-15 00:50:16.45	44.19	30.47	-51.6	-72.1	3.8	7.43e-01	0	43	104	0	73	41229
2026-01-15 00:50:19.73	44.99	31.07	-51.7	-72.2	3.8	7.47e-01	0	44	104	0	73	41812
2026-01-15 00:50:22.45	45.68	31.58	-51.6	-72.2	3.8	7.41e-01	0	43	104	0	73	41759
2026-01-15 00:50:25.71	46.53	32.19	-51.7	-72.2	3.8	7.47e-01	0	43	104	0	73	41840
2026-01-15 00:50:28.43	47.27	32.70	-51.7	-72.2	3.8	7.47e-01	0	43	104	0	73	41774
2026-01-15 00:50:31.71	48.19	33.33	-51.7	-72.3	3.8	7.47e-01	0	43	104	0	73	41936
2026-01-15 00:50:34.44	48.98	33.86	-51.7	-72.2	3.8	7.46e-01	0	43	104	0	73	41859
2026-01-15 00:50:37.70	49.97	34.50	-51.7	-72.2	3.8	7.48e-01	0	43	104	0	73	41908
2026-01-15 00:50:40.40	50.81	35.03	-51.6	-72.2	3.8	7.48e-01	0	43	104	0	73	41634
2026-01-15 00:50:43.66	51.87	35.67	-51.6	-72.2	3.8	7.46e-01	0	44	104	0	73	41685
2026-01-15 00:50:46.36	52.78	36.20	-51.7	-72.2	3.8	7.45e-01	0	43	104	0	73	41883
2026-01-15 00:50:49.64	53.93	36.85	-51.7	-72.2	3.8	7.46e-01	0	43	104	0	73	41900
2026-01-15 00:50:52.34	54.91	37.39	-51.6	-72.2	3.8	7.46e-01	0	43	104	0	73	41513
2026-01-15 00:50:55.61	56.14	38.04	-51.6	-72.2	3.8	7.47e-01	0	43	104	0	73	41830
2026-01-15 00:50:58.30	57.19	38.57	-51.6	-72.2	3.8	7.46e-01	0	44	104	0	73	41492
2026-01-15 00:51:01.57	58.51	39.22	-51.6	-72.2	3.8	7.44e-01	0	43	104	0	73	41852
2026-01-15 00:51:04.27	59.65	39.75	-51.7	-72.2	3.8	7.45e-01	0	44	104	0	73	41709
2026-01-15 00:51:07.53	61.07	40.38	-51.6	-72.2	3.8	7.44e-01	0	43	104	0	73	41739
2026-01-15 00:51:10.23	62.29	40.90	-51.6	-72.3	3.8	7.43e-01	0	43	104	0	73	41966
2026-01-15 00:51:13.51	63.82	41.52	-51.6	-72.3	3.8	7.48e-01	0	43	104	0	73	42013
2026-01-15 00:51:16.22	65.14	42.03	-51.6	-72.3	3.8	7.45e-01	0	44	104	0	73	41954
2026-01-15 00:51:19.52	66.79	42.63	-51.6	-72.3	3.8	7.43e-01	0	43	104	0	73	41997
2026-01-15 00:51:22.24	68.20	43.11	-51.6	-72.3	3.8	7.45e-01	0	44	104	0	73	41945
2026-01-15 00:51:25.51	69.96	43.68	-51.7	-72.3	3.8	7.50e-01	0	44	104	0	73	41974
2026-01-15 00:51:28.22	71.46	44.13	-51.7	-72.2	3.8	7.48e-01	0	44	104	0	73	41911
2026-01-15 00:51:31.63	73.41	44.67	-51.6	-72.3	3.8	7.46e-01	0	44	104	0	73	41970
2026-01-15 00:51:34.39	75.04	45.09	-51.7	-72.3	3.8	7.44e-01	0	43	104	0	73	42053
2026-01-15 00:51:37.79	77.10	45.58	-51.7	-72.3	3.8	7.45e-01	0	43	104	0	73	41988
2026-01-15 00:51:40.57	78.83	45.95	-51.7	-72.3	3.8	7.43e-01	0	44	104	0	73	42046
2026-01-15 00:51:43.83	80.92	46.36	-51.7	-72.3	3.8	7.46e-01	0	44	104	0	73	41962
2026-01-15 00:51:46.55	82.70	46.66	-51.7	-72.3	3.8	7.49e-01	0	44	104	0	73	42006
2026-01-15 00:51:49.81	84.87	47.00	-51.7	-72.2	3.8	7.47e-01	0	44	104	0	73	41922
2026-01-15 00:51:52.51	86.71	47.24	-51.7	-72.3	3.8	7.48e-01	0	44	104	0	73	41935
2026-01-15 00:51:55.79	88.98	47.50	-51.7	-72.3	3.8	7.47e-01	0	44	104	0	73	41965
2026-01-15 00:51:58.55	90.92	47.68	-51.7	-72.3	3.8	7.44e-01	0	44	104	0	73	41942
2026-01-15 00:52:01.88	93.28	47.85	-51.7	-72.3	3.8	7.45e-01	0	43	104	0	73	41968
2026-01-15 00:52:04.58	95.21	47.95	-51.7	-72.3	3.8	7.46e-01	0	44	104	0	74	39653
2026-01-15 00:52:07.85	97.57	48.02	-51.7	-72.3	3.8	7.46e-01	0	43	104	0	74	39623
2026-01-15 00:52:10.57	99.53	48.04	-51.7	-72.3	3.8	7.44e-01	0	43	104	0	74	39707
2026-01-15 00:52:13.84	101.89	48.03	-51.7	-72.3	3.8	7.50e-01	0	44	104	0	74	39703
2026-01-15 00:52:16.54	103.84	47.97	-51.7	-72.3	3.8	7.46e-01	0	43	104	0	74	39660
2026-01-15 00:52:19.80	106.18	47.86	-51.7	-72.3	3.8	7.45e-01	0	44	104	0	74	39789
2026-01-15 00:52:22.51	108.11	47.73	-51.7	-72.3	3.8	7.51e-01	0	43	104	0	74	39769
2026-01-15 00:52:25.78	110.41	47.53	-51.7	-72.3	3.8	7.44e-01	0	44	104	0	74	39768
2026-01-15 00:52:28.48	112.28	47.33	-51.7	-72.3	3.8	7.45e-01	0	44	104	0	74	39756
2026-01-15 00:52:31.76	114.53	47.04	-51.7	-72.3	3.8	7.46e-01	0	44	104	0	74	39728
2026-01-15 00:52:34.47	116.35	46.77	-51.7	-72.3	3.8	7.45e-01	0	43	104	0	74	39804
2026-01-15 00:52:37.73	118.50	46.41	-51.7	-72.3	3.8	7.49e-01	0	43	104	0	74	39766
2026-01-15 00:52:40.45	120.25	46.08	-51.7	-72.3	3.8	7.44e-01	0	44	104	0	74	39754
2026-01-15 00:52:43.71	122.30	45.65	-51.7	-72.3	3.8	7.47e-01	0	44	104	0	74	39744
2026-01-15 00:52:46.41	123.96	45.27	-51.7	-72.3	3.8	7.44e-01	0	44	104	0	74	39648
2026-01-15 00:52:49.83	126.00	44.76	-51.7	-72.3	3.8	7.45e-01	0	44	104	0	74	39673
2026-01-15 00:52:52.60	127.60	44.32	-51.7	-72.3	3.8	7.48e-01	0	44	104	0	74	39833
2026-01-15 00:52:55.86	129.43	43.78	-51.7	-72.3	3.8	7.45e-01	0	44	104	0	74	39716
2026-01-15 00:52:58.56	130.89	43.32	-51.7	-72.3	3.8	7.50e-01	0	43	104	0	74	39846
2026-01-15 00:53:01.82	132.61	42.74	-51.7	-72.3	3.8	7.47e-01	0	44	104	0	74	39819
2026-01-15 00:53:04.52	133.98	42.25	-51.7	-72.3	3.8	7.45e-01	0	44	104	0	74	39734
2026-01-15 00:53:07.78	135.59	41.65	-51.7	-72.3	3.8	7.43e-01	0	44	104	0	74	39817
2026-01-15 00:53:10.50	136.88	41.13	-51.7	-72.3	3.8	7.44e-01	0	44	104	0	74	39823
2026-01-15 00:53:13.76	138.37	40.50	-51.7	-72.3	3.8	7.48e-01	0	44	104	0	74	39741
2026-01-15 00:53:16.47	139.57	39.98	-51.7	-72.3	3.8	7.46e-01	0	44	104	0	74	39719
2026-01-15 00:53:19.74	140.96	39.33	-51.7	-72.3	3.8	7.43e-01	0	44	104	0	74	39809
2026-01-15 00:53:22.44	142.07	38.80	-51.7	-72.3	3.8	7.47e-01	0	43	104	0	74	39840
2026-01-15 00:53:25.87	143.43	38.11	-51.7	-72.3	3.8	7.47e-01	0	44	104	0	74	39876
2026-01-15 00:53:28.60	144.47	37.57	-51.7	-72.3	3.8	7.50e-01	0	44	104	0	74	39813
2026-01-15 00:53:31.87	145.67	36.92	-51.7	-72.3	3.8	7.44e-01	0	44	104	0	74	39862
2026-01-15 00:53:34.59	146.64	36.37	-51.7	-72.3	3.8	7.45e-01	0	44	104	0	74	39817
2026-01-15 00:53:37.86	147.75	35.72	-51.7	-72.3	3.8	7.43e-01	0	44	104	0	74	39841
2026-01-15 00:53:40.55	148.64	35.19	-51.7	-72.3	3.8	7.48e-01	0	44	104	0	74	39840
2026-01-15 00:53:43.82	149.67	34.54	-51.7	-72.3	3.8	7.47e-01	0	44	104	0	74	39779
2026-01-15 00:53:46.61	150.52	33.99	-51.7	-72.3	3.8	7.45e-01	0	44	104	0	74	39739
2026-01-15 00:53:49.88	151.49	33.36	-51.7	-72.3	3.8	7.45e-01	0	44	104	0	74	39822
2026-01-15 00:53:52.60	152.26	32.83	-51.7	-72.3	3.8	7.45e-01	0	43	104	0	74	39751
2026-01-15 00:53:55.87	153.16	32.21	-51.7	-72.3	3.8	7.44e-01	0	44	104	0	74	39820
2026-01-15 00:53:58.61	153.88	31.69	-51.7	-72.3	3.8	7.47e-01	0	43	104	0	74	39774
2026-01-15 00:54:01.91	154.72	31.07	-51.7	-72.3	3.8	7.49e-01	0	44	104	0	74	39799
2026-01-15 00:54:04.63	155.39	30.56	-51.7	-72.3	3.8	7.46e-01	0	43	104	0	74	39821
2026-01-15 00:54:07.90	156.17	29.96	-51.7	-72.3	3.8	7.41e-01	0	44	104	0	74	39854
2026-01-15 00:54:10.60	156.79	29.48	-51.7	-72.3	3.8	7.46e-01	0	44	104	0	74	39840
2026-01-15 00:54:13.86	157.52	28.89	-51.7	-72.3	3.8	7.45e-01	0	44	104	0	74	39786
2026-01-15 00:54:16.57	158.10	28.41	-51.7	-72.3	3.8	7.47e-01	0	44	104	0	74	39895
2026-01-15 00:54:19.84	158.78	27.84	-51.7	-72.3	3.8	7.43e-01	0	44	104	0	74	39875
2026-01-15 00:54:22.55	159.33	27.38	-51.7	-72.3	3.8	7.43e-01	0	44	104	0	74	39864
2026-01-15 00:54:25.85	159.97	26.82	-51.7	-72.3	3.8	7.44e-01	0	44	104	0	74	39835
2026-01-15 00:54:28.56	160.48	26.37	-51.7	-72.3	3.8	7.49e-01	0	44	104	0	74	39815
2026-01-15 00:54:31.82	161.08	25.83	-51.7	-72.3	3.8	7.49e-01	0	44	104	0	74	39922
2026-01-15 00:54:34.54	161.56	25.39	-51.7	-72.3	3.8	7.46e-01	0	44	104	0	74	39876
2026-01-15 00:54:37.88	162.13	24.86	-51.7	-72.3	3.8	7.44e-01	0	44	104	0	74	39926
2026-01-15 00:54:40.58	162.58	24.43	-51.7	-72.3	3.8	7.44e-01	0	44	104	0	74	39773
2026-01-15 00:54:43.84	163.11	23.93	-51.7	-72.3	3.8	7.48e-01	0	44	104	0	74	39881
2026-01-15 00:54:46.56	163.54	23.51	-51.7	-72.3	3.8	7.49e-01	0	44	104	0	74	39890
2026-01-15 00:54:49.84	164.04	23.02	-51.7	-72.3	3.8	7.44e-01	0	44	104	0	74	39841
2026-01-15 00:54:52.55	164.44	22.62	-51.7	-72.3	3.8	7.47e-01	0	44	104	0	74	39786
2026-01-15 00:54:55.81	164.91	22.14	-51.7	-72.3	3.8	7.46e-01	0	44	104	0	74	39921
2026-01-15 00:54:58.51	165.28	21.75	-51.7	-72.3	3.8	7.44e-01	0	43	104	0	74	39952
2026-01-15 00:55:01.79	165.73	21.29	-51.7	-72.3	3.8	7.45e-01	0	44	104	0	74	39818
2026-01-15 00:55:04.49	166.09	20.91	-51.7	-72.3	3.8	7.46e-01	0	44	104	0	74	39838
2026-01-15 00:55:07.76	166.51	20.46	-51.7	-72.3	3.8	7.46e-01	0	43	104	0	74	39865
2026-01-15 00:55:10.45	166.84	20.09	-51.7	-72.3	3.8	7.50e-01	0	44	104	0	74	39939
2026-01-15 00:55:13.72	167.24	19.66	-51.7	-72.3	3.8	7.46e-01	0	44	104	0	74	39955
2026-01-15 00:55:16.43	167.56	19.30	-51.7	-72.3	3.8	7.45e-01	0	44	104	0	74	39953
2026-01-15 00:55:19.70	167.94	18.88	-51.7	-72.3	3.8	7.45e-01	0	44	104	0	74	39904
2026-01-15 00:55:22.46	168.25	18.53	-51.7	-72.3	3.8	7.47e-01	0	44	104	0	74	39942
2026-01-15 00:55:25.85	168.62	18.10	-51.7	-72.3	3.8	7.47e-01	0	44	104	0	74	39891
2026-01-15 00:55:28.61	168.92	17.76	-51.7	-72.3	3.8	7.44e-01	0	44	104	0	74	39920
2026-01-15 00:55:31.89	169.26	17.36	-51.7	-72.3	3.8	7.47e-01	0	44	104	0	74	39908
2026-01-15 00:55:34.58	169.53	17.03	-51.7	-72.3	3.8	7.46e-01	0	44	104	0	74	39906
2026-01-15 00:55:37.86	169.86	16.64	-51.7	-72.3	3.8	7.42e-01	0	43	104	0	74	39903
2026-01-15 00:55:40.56	170.12	16.33	-51.7	-72.3	3.8	7.46e-01	0	44	104	0	74	39990
2026-01-15 00:55:43.83	170.43	15.95	-51.7	-72.3	3.8	7.46e-01	0	44	104	0	74	39918
2026-01-15 00:55:46.56	170.68	15.64	-51.7	-72.3	3.8	7.43e-01	0	44	104	0	74	39955
2026-01-15 00:55:49.82	170.98	15.27	-51.7	-72.3	3.8	7.45e-01	0	44	104	0	74	40029
2026-01-15 00:55:52.52	171.22	14.97	-51.7	-72.3	3.8	7.47e-01	0	43	104	0	74	39992
2026-01-15 00:55:55.81	171.50	14.61	-51.7	-72.3	3.8	7.48e-01	0	43	104	0	74	39836
2026-01-15 00:55:58.51	171.73	14.32	-51.7	-72.3	3.8	7.47e-01	0	44	104	0	74	40017
2026-01-15 00:56:01.87	172.01	13.96	-51.7	-72.3	3.8	7.43e-01	0	44	104	0	74	39875
2026-01-15 00:56:04.63	172.23	13.67	-51.7	-72.3	3.8	7.44e-01	0	43	104	0	74	39928
2026-01-15 00:56:07.90	172.49	13.34	-51.7	-72.3	3.8	7.46e-01	0	44	104	0	74	39887
2026-01-15 00:56:10.62	172.70	13.06	-51.7	-72.3	3.8	7.47e-01	0	44	104	0	74	39870
2026-01-15 00:56:13.90	172.95	12.73	-51.7	-72.3	3.8	7.48e-01	0	44	104	0	74	39891
2026-01-15 00:56:16.62	173.15	12.45	-51.7	-72.3	3.8	7.46e-01	0	44	104	0	74	39926
2026-01-15 00:56:19.88	173.38	12.13	-51.7	-72.3	3.8	7.46e-01	0	44	104	0	74	39822
2026-01-15 00:56:22.61	173.58	11.87	-51.7	-72.3	3.8	7.47e-01	0	44	104	0	74	39872
2026-01-15 00:56:25.87	173.81	11.55	-51.7	-72.3	3.8	7.47e-01	0	44	104	0	74	39900
2026-01-15 00:56:28.58	173.99	11.30	-51.7	-72.3	3.8	7.48e-01	0	44	104	0	74	39893
2026-01-15 00:56:31.85	174.21	10.99	-51.7	-72.3	3.8	7.47e-01	0	44	104	0	74	39837
2026-01-15 00:56:34.56	174.39	10.74	-51.7	-72.3	3.8	7.45e-01	0	44	104	0	74	39934
2026-01-15 00:56:37.83	174.60	10.44	-51.7	-72.3	3.8	7.45e-01	0	44	104	0	74	39782
2026-01-15 00:56:40.54	174.77	10.19	-51.7	-72.3	3.8	7.45e-01	0	44	104	0	74	39939
2026-01-15 00:56:43.80	174.97	9.90	-51.7	-72.3	3.8	7.47e-01	0	44	104	0	74	39790
2026-01-15 00:56:46.53	175.14	9.66	-51.7	-72.3	3.8	7.46e-01	0	44	104	0	74	39942
2026-01-15 00:56:49.79	175.33	9.37	-51.7	-72.3	3.8	7.48e-01	0	44	104	0	74	39903
2026-01-15 00:56:52.50	175.49	9.13	-51.7	-72.3	3.8	7.48e-01	0	44	104	0	74	39857
2026-01-15 00:56:55.85	175.69	8.85	-51.7	-72.3	3.8	7.44e-01	0	44	104	0	74	39922
2026-01-15 00:56:58.56	175.84	8.62	-51.7	-72.3	3.8	7.46e-01	0	44	104	0	74	39917
2026-01-15 00:57:01.82	176.02	8.34	-51.7	-72.3	3.8	7.44e-01	0	44	104	0	74	39863
2026-01-15 00:57:04.55	176.17	8.12	-51.7	-72.3	3.8	7.45e-01	0	43	104	0	74	39967
2026-01-15 00:57:07.82	176.34	7.85	-51.7	-72.3	3.8	7.45e-01	0	44	104	0	74	39828
2026-01-15 00:57:10.53	176.49	7.63	-51.7	-72.3	3.8	7.48e-01	0	44	104	0	74	39917
2026-01-15 00:57:13.79	176.66	7.36	-51.7	-72.3	3.8	7.46e-01	0	44	104	0	74	39943
2026-01-15 00:57:16.51	176.80	7.15	-51.7	-72.3	3.8	7.49e-01	0	44	104	0	74	39807
2026-01-15 00:57:19.79	176.96	6.89	-51.7	-72.3	3.8	7.43e-01	0	44	104	0	74	40006
2026-01-15 00:57:22.69	177.10	6.66	-51.7	-72.3	3.8	7.48e-01	0	44	104	0	74	39910
2026-01-15 00:57:26.68	177.30	6.35	-51.7	-72.3	3.8	7.46e-01	0	44	104	0	74	39793
2026-01-15 00:57:29.52	177.43	6.13	-51.7	-72.3	3.8	7.43e-01	0	44	104	0	74	39913
2026-01-15 00:57:33.57	177.62	5.82	-51.7	-72.3	3.8	7.49e-01	0	44	104	0	74	39945
2026-01-15 00:57:36.41	177.75	5.61	-51.7	-72.3	3.8	7.48e-01	0	44	104	0	74	39919
2026-01-15 00:57:40.38	177.93	5.32	-51.7	-72.3	3.8	7.50e-01	0	44	104	0	74	39916
2026-01-15 00:57:43.22	178.05	5.11	-51.7	-72.3	3.8	7.44e-01	0	44	104	0	74	39827

#Closed at: 2026-01-15 00:57:45
#Recorded file [0 MB]: D:/Data/31040_260115_034635.dat