passes_logs/2026/01/15/T1/T1__20260115_021430_FENGYUN_3D_rec.log

#Pass ID: 20260115_021430_FENGYUN 3D
#Satellite: FENGYUN 3D
#Configuration: FENGYUN 3D
#almurnet v.1.7.20251203
#Start time: 2026-01-15 02:14:32

#Version: 2.0.20230620
#Station: T1
#Location: 37.570604 lon 55.790049 lat
#TLE: 1 43010U 17072A   26014.65117763 -.00000217  00000+0 -80772-4 0  9993
#TLE: 2 43010  98.9933 346.4618 0002330 108.4699 251.6730 14.19694700423204

#Time	Az	El	Level	Level2	SNR	BER	BlckErr	Temp	State	Recorded	gain1	gain2
2026-01-15 02:14:32.71	13.80	5.08	-48.1	-62.3	3.8	8.47e-01	0	37	0	0	68	17703
2026-01-15 02:14:36.70	13.71	5.37	-47.9	-62.0	3.8	8.48e-01	0	37	104	0	66	19372
2026-01-15 02:14:40.68	13.62	5.65	-47.9	-61.7	3.8	8.47e-01	0	37	104	0	66	18554
2026-01-15 02:14:44.67	13.53	5.94	-47.9	-61.3	3.8	8.48e-01	0	37	104	0	66	17757
2026-01-15 02:14:48.66	13.44	6.24	-47.8	-60.7	3.8	8.46e-01	0	38	104	0	66	16637
2026-01-15 02:14:52.65	13.35	6.53	-47.8	-60.7	3.9	8.47e-01	0	38	104	0	66	16642
2026-01-15 02:14:56.64	13.25	6.83	-48.0	-62.1	3.8	8.47e-01	0	38	104	0	66	19507
2026-01-15 02:15:00.63	13.15	7.13	-47.8	-60.4	3.8	8.46e-01	0	38	104	0	66	15960
2026-01-15 02:15:04.62	13.05	7.44	-47.1	-55.1	6.1	4.64e-01	0	38	0	2097152	66	8694
2026-01-15 02:15:08.61	12.95	7.75	-46.0	-51.5	9.4	2.84e-02	0	38	0	25165824	64	6459
2026-01-15 02:15:12.59	12.84	8.06	-45.0	-49.2	11.9	7.16e-04	0	38	0	47185920	62	5552
2026-01-15 02:15:16.58	12.73	8.38	-44.2	-47.9	13.2	5.72e-05	0	39	0	70254592	60	5370
2026-01-15 02:15:20.58	12.62	8.70	-44.5	-48.4	12.7	9.15e-05	0	39	0	92274688	60	5684
2026-01-15 02:15:24.57	12.51	9.03	-46.4	-52.2	8.7	2.67e-02	0	39	0	114294784	63	7452
2026-01-15 02:15:28.56	12.39	9.36	-43.0	-46.0	15.0	3.54e-04	0	39	0	128974848	58	4826
2026-01-15 02:15:32.55	12.27	9.69	-41.9	-44.5	16.5	0.00e+00	0	39	0	148897792	55	4817
2026-01-15 02:15:36.53	12.15	10.03	-41.5	-44.0	17.0	0.00e+00	0	39	0	170917888	54	4830
2026-01-15 02:15:40.53	12.02	10.37	-41.2	-43.6	17.3	0.00e+00	0	39	0	193986560	54	4641
2026-01-15 02:15:44.53	11.89	10.72	-41.1	-43.5	17.4	0.00e+00	0	39	0	216006656	54	4597
2026-01-15 02:15:48.53	11.75	11.08	-41.2	-43.7	17.3	0.00e+00	0	39	0	239075328	54	4660
2026-01-15 02:15:52.53	11.62	11.43	-41.0	-43.4	17.6	0.00e+00	0	39	0	261095424	54	4505
2026-01-15 02:15:56.53	11.47	11.80	-40.9	-43.2	17.8	0.00e+00	0	39	0	284164096	53	4652
2026-01-15 02:16:00.53	11.33	12.17	-40.8	-43.0	18.0	0.00e+00	0	39	0	306184192	53	4570
2026-01-15 02:16:04.54	11.18	12.54	-40.7	-42.9	18.0	0.00e+00	0	39	0	329252864	53	4524
2026-01-15 02:16:08.54	11.02	12.92	-40.7	-43.0	18.0	0.00e+00	0	39	0	351272960	53	4559
2026-01-15 02:16:12.55	10.86	13.31	-40.7	-43.0	18.0	0.00e+00	0	39	0	374341632	53	4550
2026-01-15 02:16:16.54	10.70	13.70	-40.7	-43.0	18.0	0.00e+00	0	39	0	396361728	53	4561
2026-01-15 02:16:20.54	10.53	14.10	-40.7	-42.9	18.1	0.00e+00	0	39	0	418381824	53	4496
2026-01-15 02:16:24.53	10.36	14.50	-40.6	-42.8	18.2	0.00e+00	0	39	0	441450496	53	4473
2026-01-15 02:16:28.54	10.18	14.91	-40.5	-42.7	18.3	0.00e+00	0	39	0	463470592	52	4679
2026-01-15 02:16:32.55	10.00	15.33	-40.3	-42.5	18.6	0.00e+00	0	39	0	486539264	52	4557
2026-01-15 02:16:36.55	9.81	15.75	-40.2	-42.3	18.7	0.00e+00	0	39	0	508559360	52	4464
2026-01-15 02:16:40.54	9.61	16.18	-40.2	-42.3	18.7	0.00e+00	0	39	0	531628032	52	4481
2026-01-15 02:16:44.55	9.41	16.62	-40.1	-42.1	18.9	0.00e+00	0	39	0	553648128	52	4368
2026-01-15 02:16:48.55	9.20	17.07	-39.9	-41.9	19.2	0.00e+00	0	39	0	576716800	51	4517
2026-01-15 02:16:52.56	8.99	17.53	-39.8	-41.7	19.3	0.00e+00	0	40	0	598736896	51	4421
2026-01-15 02:16:56.56	8.76	17.99	-39.5	-41.4	19.6	0.00e+00	0	40	0	621805568	51	4268
2026-01-15 02:17:00.56	8.53	18.46	-39.5	-41.4	19.7	0.00e+00	0	40	0	643825664	50	4522
2026-01-15 02:17:04.57	8.30	18.94	-39.4	-41.3	19.7	0.00e+00	0	40	0	666894336	50	4493
2026-01-15 02:17:08.57	8.05	19.43	-39.3	-41.2	19.8	0.00e+00	0	40	0	688914432	50	4428
2026-01-15 02:17:12.57	7.80	19.93	-39.2	-41.1	19.9	0.00e+00	0	39	0	711983104	50	4362
2026-01-15 02:17:16.57	7.53	20.44	-39.2	-41.1	19.9	0.00e+00	0	39	0	734003200	50	4371
2026-01-15 02:17:20.57	7.26	20.95	-39.2	-41.1	20.0	0.00e+00	0	40	0	757071872	50	4354
2026-01-15 02:17:24.58	6.98	21.48	-39.2	-41.1	20.0	0.00e+00	0	40	0	779091968	50	4344
2026-01-15 02:17:28.59	6.68	22.02	-39.1	-40.9	20.1	0.00e+00	0	40	0	801112064	50	4282
2026-01-15 02:17:32.57	6.38	22.57	-38.8	-40.6	20.4	0.00e+00	0	39	0	824180736	49	4347
2026-01-15 02:17:36.56	6.07	23.13	-38.6	-40.3	20.7	0.00e+00	0	40	0	846200832	49	4211
2026-01-15 02:17:40.56	5.74	23.70	-38.6	-40.4	20.6	0.00e+00	0	40	0	869269504	49	4244
2026-01-15 02:17:44.56	5.40	24.28	-38.6	-40.4	20.6	0.00e+00	0	39	0	891289600	49	4266
2026-01-15 02:17:48.56	5.04	24.88	-38.6	-40.3	20.7	0.00e+00	0	40	0	914358272	49	4233
2026-01-15 02:17:52.56	4.67	25.48	-38.4	-40.1	20.9	0.00e+00	0	40	0	936378368	48	4387
2026-01-15 02:17:56.57	4.29	26.11	-38.2	-40.0	21.0	0.00e+00	0	40	0	959447040	48	4293
2026-01-15 02:18:00.57	3.89	26.74	-38.3	-40.0	21.0	0.00e+00	0	40	0	981467136	48	4320
2026-01-15 02:18:04.57	3.47	27.39	-38.5	-40.3	20.8	0.00e+00	0	40	0	1004535808	48	4448
2026-01-15 02:18:08.57	3.04	28.05	-38.4	-40.2	20.8	0.00e+00	0	40	0	1026555904	48	4400
2026-01-15 02:18:12.57	2.59	28.72	-38.2	-39.9	21.1	0.00e+00	0	40	0	1049624576	48	4272
2026-01-15 02:18:16.57	2.11	29.41	-38.4	-40.2	20.8	0.00e+00	0	40	0	1071644672	48	4397
2026-01-15 02:18:20.58	1.61	30.12	-38.5	-40.2	20.8	0.00e+00	0	40	0	1093664768	48	4428
2026-01-15 02:18:24.57	1.10	30.84	-38.3	-40.0	21.0	0.00e+00	0	39	0	1116733440	48	4334
2026-01-15 02:18:28.58	0.55	31.58	-37.9	-39.6	21.1	0.00e+00	0	40	0	1138753536	47	4356
2026-01-15 02:18:32.59	359.98	32.33	-38.1	-39.9	20.9	0.00e+00	0	40	0	1161822208	47	4503
2026-01-15 02:18:36.59	359.38	33.10	-37.8	-39.5	21.2	0.00e+00	0	40	0	1183842304	47	4331
2026-01-15 02:18:40.60	358.76	33.88	-37.7	-39.4	21.3	0.00e+00	0	40	0	1206910976	47	4288
2026-01-15 02:18:44.60	358.10	34.68	-38.1	-39.9	20.9	0.00e+00	0	40	0	1228931072	47	4504
2026-01-15 02:18:48.60	357.40	35.50	-38.0	-39.8	21.0	0.00e+00	0	40	0	1251999744	47	4444
2026-01-15 02:18:52.60	356.67	36.33	-37.6	-39.3	21.4	0.00e+00	0	40	0	1274019840	47	4229
2026-01-15 02:18:56.60	355.90	37.18	-37.7	-39.4	21.3	0.00e+00	0	40	0	1297088512	47	4259
2026-01-15 02:19:00.60	355.09	38.04	-37.6	-39.3	21.4	0.00e+00	0	40	0	1319108608	47	4205
2026-01-15 02:19:04.60	354.23	38.92	-37.8	-39.5	21.3	0.00e+00	0	40	0	1342177280	47	4309
2026-01-15 02:19:08.61	353.33	39.82	-38.1	-39.8	21.0	0.00e+00	0	40	0	1364197376	47	4465
2026-01-15 02:19:12.61	352.37	40.73	-38.0	-39.7	21.0	0.00e+00	0	40	0	1387266048	47	4436
2026-01-15 02:19:16.62	351.35	41.66	-38.2	-39.9	20.9	0.00e+00	0	40	0	1409286144	47	4537
2026-01-15 02:19:20.63	350.27	42.59	-38.0	-39.7	21.1	0.00e+00	0	40	0	1432354816	47	4427
2026-01-15 02:19:24.62	349.13	43.54	-38.3	-40.1	20.8	0.00e+00	0	40	0	1454374912	47	4614
2026-01-15 02:19:28.62	347.92	44.50	-38.2	-39.9	20.9	0.00e+00	0	40	0	1476395008	47	4517
2026-01-15 02:19:32.62	346.63	45.47	-38.2	-40.0	20.8	0.00e+00	0	40	0	1499463680	47	4566
2026-01-15 02:19:36.62	345.25	46.44	-38.4	-40.1	20.7	0.00e+00	0	40	0	1521483776	47	4635
2026-01-15 02:19:40.62	343.79	47.42	-38.2	-40.0	20.9	0.00e+00	0	40	0	1544552448	47	4557
2026-01-15 02:19:44.62	342.23	48.39	-38.3	-40.1	20.8	0.00e+00	0	40	0	1566572544	47	4603
2026-01-15 02:19:48.62	340.57	49.37	-38.9	-40.6	20.6	0.00e+00	0	40	0	1589641216	48	4627
2026-01-15 02:19:52.62	338.80	50.34	-39.0	-40.8	20.4	0.00e+00	0	40	0	1611661312	49	4457
2026-01-15 02:19:56.62	336.92	51.30	-39.1	-40.9	20.3	0.00e+00	0	40	0	1634729984	49	4514
2026-01-15 02:20:00.62	334.91	52.24	-39.1	-40.8	20.4	0.00e+00	0	40	0	1656750080	49	4487
2026-01-15 02:20:04.62	332.76	53.16	-39.6	-41.4	19.9	0.00e+00	0	40	0	1679818752	49	4768
2026-01-15 02:20:08.62	330.48	54.05	-39.0	-40.8	20.4	0.00e+00	0	40	0	1701838848	49	4466
2026-01-15 02:20:12.61	328.06	54.91	-38.8	-40.6	20.5	0.00e+00	0	40	0	1724907520	49	4366
2026-01-15 02:20:16.60	325.49	55.73	-38.7	-40.5	20.7	0.00e+00	0	40	0	1746927616	49	4307
2026-01-15 02:20:20.60	322.77	56.50	-38.7	-40.5	20.4	0.00e+00	0	40	0	1768947712	49	4312
2026-01-15 02:20:24.60	319.89	57.21	-38.5	-40.3	20.6	0.00e+00	0	40	0	1792016384	49	4198
2026-01-15 02:20:28.58	316.88	57.86	-38.5	-40.4	20.5	0.00e+00	0	40	0	1814036480	48	4495
2026-01-15 02:20:32.58	313.71	58.44	-39.0	-40.8	20.1	0.00e+00	0	40	0	1837105152	48	4748
2026-01-15 02:20:36.58	310.42	58.93	-39.2	-41.0	19.9	0.00e+00	0	40	0	1859125248	48	4868
2026-01-15 02:20:40.57	307.01	59.34	-38.9	-40.7	20.2	0.00e+00	0	40	0	1881145344	48	4698
2026-01-15 02:20:44.57	303.50	59.66	-38.8	-40.7	20.2	0.00e+00	0	40	0	1904214016	48	4657
2026-01-15 02:20:48.58	299.91	59.88	-38.7	-40.6	20.4	0.00e+00	0	40	0	1926234112	48	4601
2026-01-15 02:20:52.58	296.27	59.99	-38.4	-40.2	20.6	0.00e+00	0	40	0	1949302784	48	4412
2026-01-15 02:20:56.59	292.61	60.00	-38.4	-40.2	20.7	0.00e+00	0	40	0	1971322880	48	4417
2026-01-15 02:21:00.60	288.97	59.91	-38.1	-39.9	20.9	0.00e+00	0	40	0	1994391552	48	4268
2026-01-15 02:21:04.60	285.37	59.71	-38.4	-40.2	20.6	0.00e+00	0	40	0	2016411648	48	4437
2026-01-15 02:21:08.59	281.85	59.41	-37.8	-39.6	20.9	0.00e+00	0	40	0	2039480320	47	4366
2026-01-15 02:21:12.59	278.41	59.02	-38.3	-40.1	20.5	0.00e+00	0	40	0	2061500416	47	4630
2026-01-15 02:21:16.59	275.09	58.54	-38.3	-40.1	20.5	0.00e+00	0	40	0	2084569088	47	4622
2026-01-15 02:21:20.59	271.89	57.97	-38.2	-40.0	20.6	0.00e+00	0	40	0	2106589184	47	4556
2026-01-15 02:21:24.59	268.83	57.34	-38.0	-39.7	20.8	0.00e+00	0	40	0	2128609280	47	4427
2026-01-15 02:21:28.60	265.91	56.63	-37.9	-39.7	20.9	0.00e+00	0	40	0	2151677952	47	4408
2026-01-15 02:21:32.60	263.16	55.87	-38.3	-40.1	20.5	0.00e+00	0	40	0	2174746624	47	4641
2026-01-15 02:21:36.60	260.55	55.06	-38.3	-40.1	20.6	0.00e+00	0	40	0	2196766720	47	4602
2026-01-15 02:21:40.60	258.09	54.20	-38.3	-40.1	20.5	0.00e+00	0	40	0	2219835392	47	4640
2026-01-15 02:21:44.59	255.78	53.31	-38.2	-40.0	20.5	0.00e+00	0	40	0	2241855488	47	4593
2026-01-15 02:21:48.59	253.61	52.39	-38.4	-40.2	20.4	0.00e+00	0	40	0	2263875584	47	4679
2026-01-15 02:21:52.60	251.57	51.45	-38.3	-40.1	20.6	0.00e+00	0	40	0	2286944256	47	4609
2026-01-15 02:21:56.59	249.66	50.49	-38.2	-40.0	20.6	0.00e+00	0	39	0	2308964352	47	4582
2026-01-15 02:22:00.60	247.86	49.52	-38.1	-39.8	20.7	0.00e+00	0	40	0	2332033024	47	4493
2026-01-15 02:22:04.60	246.18	48.54	-37.8	-39.6	20.9	0.00e+00	0	40	0	2354053120	47	4380
2026-01-15 02:22:08.61	244.59	47.56	-38.0	-39.8	20.7	0.00e+00	0	40	0	2377121792	47	4491
2026-01-15 02:22:12.60	243.12	46.58	-37.8	-39.5	21.0	0.00e+00	0	40	0	2399141888	47	4323
2026-01-15 02:22:16.60	241.72	45.60	-37.5	-39.3	21.2	0.00e+00	0	40	0	2422210560	46	4448
2026-01-15 02:22:20.61	240.41	44.63	-37.3	-39.1	21.3	0.00e+00	0	40	0	2444230656	46	4341
2026-01-15 02:22:24.61	239.18	43.66	-37.3	-39.1	21.3	0.00e+00	0	40	0	2467299328	46	4346
2026-01-15 02:22:28.61	238.03	42.71	-37.4	-39.2	21.2	0.00e+00	0	39	0	2489319424	46	4413
2026-01-15 02:22:32.61	236.93	41.77	-37.5	-39.3	21.1	0.00e+00	0	40	0	2512388096	46	4458
2026-01-15 02:22:36.62	235.90	40.83	-37.7	-39.5	20.9	0.00e+00	0	40	0	2534408192	46	4558
2026-01-15 02:22:40.61	234.93	39.92	-37.4	-39.1	21.2	0.00e+00	0	40	0	2556428288	46	4386
2026-01-15 02:22:44.62	234.01	39.02	-37.4	-39.2	21.1	0.00e+00	0	40	0	2579496960	46	4424
2026-01-15 02:22:48.62	233.14	38.13	-37.2	-39.0	21.3	0.00e+00	0	40	0	2601517056	46	4327
2026-01-15 02:22:52.62	232.32	37.26	-37.0	-38.7	21.5	0.00e+00	0	40	0	2624585728	45	4414
2026-01-15 02:22:56.61	231.54	36.41	-37.2	-38.9	21.3	0.00e+00	0	40	0	2646605824	45	4544
2026-01-15 02:23:00.62	230.80	35.57	-37.2	-39.0	21.3	0.00e+00	0	40	0	2669674496	45	4565
2026-01-15 02:23:04.61	230.10	34.75	-37.2	-38.9	21.3	0.00e+00	0	40	0	2691694592	45	4535
2026-01-15 02:23:08.62	229.43	33.94	-37.2	-38.9	21.3	0.00e+00	0	40	0	2714763264	45	4535
2026-01-15 02:23:12.62	228.80	33.15	-37.4	-39.2	21.1	0.00e+00	0	40	0	2736783360	45	4678
2026-01-15 02:23:16.62	228.19	32.38	-37.2	-39.0	21.3	0.00e+00	0	40	0	2759852032	45	4573
2026-01-15 02:23:20.63	227.61	31.62	-37.4	-39.2	21.1	0.00e+00	0	40	0	2781872128	45	4657
2026-01-15 02:23:24.63	227.06	30.88	-37.7	-39.5	20.8	0.00e+00	0	40	0	2803892224	45	4826
2026-01-15 02:23:28.63	226.54	30.15	-37.9	-39.7	20.7	0.00e+00	0	39	0	2826960896	46	4672
2026-01-15 02:23:32.63	226.03	29.44	-37.9	-39.7	20.7	0.00e+00	0	40	0	2848980992	46	4678
2026-01-15 02:23:36.64	225.55	28.74	-37.8	-39.6	20.8	0.00e+00	0	40	0	2872049664	46	4644
2026-01-15 02:23:40.63	225.09	28.06	-37.8	-39.6	20.7	0.00e+00	0	40	0	2894069760	46	4638
2026-01-15 02:23:44.64	224.65	27.40	-37.9	-39.7	20.7	0.00e+00	0	40	0	2917138432	46	4657
2026-01-15 02:23:48.65	224.23	26.74	-37.9	-39.7	20.6	0.00e+00	0	40	0	2939158528	46	4700
2026-01-15 02:23:52.66	223.82	26.10	-38.0	-39.8	20.6	0.00e+00	0	39	0	2962227200	46	4726
2026-01-15 02:23:56.66	223.43	25.48	-38.0	-39.8	20.5	0.00e+00	0	40	0	2984247296	46	4751
2026-01-15 02:24:00.66	223.06	24.86	-38.1	-39.9	20.5	0.00e+00	0	40	0	3007315968	46	4808
2026-01-15 02:24:04.66	222.70	24.27	-38.1	-39.9	20.5	0.00e+00	0	40	0	3029336064	46	4801
2026-01-15 02:24:08.66	222.36	23.68	-38.0	-39.8	20.5	0.00e+00	0	40	0	3052404736	46	4744
2026-01-15 02:24:12.67	222.02	23.10	-37.9	-39.7	20.6	0.00e+00	0	40	0	3074424832	46	4679
2026-01-15 02:24:16.67	221.70	22.54	-38.1	-39.9	20.5	0.00e+00	0	40	0	3097493504	46	4767
2026-01-15 02:24:20.68	221.39	21.98	-38.2	-40.0	20.4	0.00e+00	0	39	0	3119513600	47	4564
2026-01-15 02:24:24.68	221.10	21.44	-38.3	-40.2	20.3	0.00e+00	0	40	0	3142582272	47	4653
2026-01-15 02:24:28.67	220.81	20.91	-38.4	-40.3	20.2	0.00e+00	0	40	0	3164602368	47	4724
2026-01-15 02:24:32.68	220.53	20.39	-38.7	-40.5	19.9	0.00e+00	0	40	0	3187671040	47	4867
2026-01-15 02:24:36.69	220.26	19.88	-39.0	-40.9	19.9	0.00e+00	0	40	0	3209691136	48	4765
2026-01-15 02:24:40.69	220.00	19.38	-39.1	-41.0	19.8	0.00e+00	0	40	0	3231711232	48	4840
2026-01-15 02:24:44.69	219.75	18.88	-39.1	-41.0	19.8	0.00e+00	0	40	0	3254779904	49	4548
2026-01-15 02:24:48.70	219.51	18.40	-39.2	-41.0	19.7	0.00e+00	0	40	0	3277848576	49	4572
2026-01-15 02:24:52.70	219.28	17.93	-39.2	-41.1	19.6	0.00e+00	0	40	0	3299868672	49	4619
2026-01-15 02:24:56.70	219.05	17.46	-39.4	-41.3	19.4	0.00e+00	0	40	0	3322937344	49	4730
2026-01-15 02:25:00.70	218.83	17.00	-39.8	-41.7	19.1	0.00e+00	0	40	0	3344957440	50	4679
2026-01-15 02:25:04.70	218.62	16.55	-39.9	-41.9	19.0	0.00e+00	0	39	0	3366977536	50	4762
2026-01-15 02:25:08.70	218.41	16.11	-40.0	-42.0	18.8	0.00e+00	0	40	0	3390046208	50	4839
2026-01-15 02:25:12.70	218.21	15.68	-40.1	-42.0	18.8	0.00e+00	0	40	0	3412066304	50	4865
2026-01-15 02:25:16.69	218.02	15.25	-40.1	-42.1	18.7	0.00e+00	0	39	0	3435134976	50	4901
2026-01-15 02:25:20.69	217.83	14.83	-40.2	-42.1	18.7	0.00e+00	0	40	0	3457155072	51	4644
2026-01-15 02:25:24.69	217.65	14.42	-40.2	-42.2	18.6	0.00e+00	0	39	0	3479175168	51	4656
2026-01-15 02:25:28.70	217.47	14.01	-40.3	-42.3	18.5	0.00e+00	0	39	0	3502243840	51	4722
2026-01-15 02:25:32.70	217.30	13.61	-40.4	-42.5	18.4	0.00e+00	0	40	0	3525312512	51	4815
2026-01-15 02:25:36.70	217.13	13.22	-40.5	-42.6	18.2	0.00e+00	0	39	0	3547332608	51	4890
2026-01-15 02:25:40.70	216.97	12.83	-40.8	-42.8	17.9	0.00e+00	0	40	0	3570401280	52	4756
2026-01-15 02:25:44.70	216.81	12.45	-40.7	-42.8	18.0	0.00e+00	0	39	0	3592421376	52	4721
2026-01-15 02:25:48.70	216.65	12.07	-40.9	-43.0	17.7	0.00e+00	0	40	0	3614441472	52	4839
2026-01-15 02:25:52.70	216.50	11.70	-40.9	-43.0	17.7	0.00e+00	0	40	0	3637510144	52	4859
2026-01-15 02:25:56.70	216.36	11.34	-41.0	-43.1	17.6	0.00e+00	0	40	0	3659530240	52	4908
2026-01-15 02:26:00.69	216.21	10.98	-41.1	-43.3	17.5	0.00e+00	0	40	0	3682598912	52	4988
2026-01-15 02:26:04.69	216.08	10.62	-41.2	-43.4	17.3	0.00e+00	0	40	0	3704619008	53	4769
2026-01-15 02:26:08.69	215.94	10.27	-41.4	-43.6	17.1	0.00e+00	0	40	0	3726639104	53	4875
2026-01-15 02:26:12.69	215.81	9.93	-41.4	-43.5	17.1	0.00e+00	0	40	0	3749707776	53	4862
2026-01-15 02:26:16.69	215.68	9.59	-41.6	-43.8	16.9	0.00e+00	0	40	0	3771727872	53	5015
2026-01-15 02:26:20.69	215.56	9.25	-41.8	-44.1	16.6	0.00e+00	0	40	0	3794796544	54	4878
2026-01-15 02:26:24.69	215.43	8.92	-50.2	-61.6	3.8	8.48e-01	0	40	104	3812622336	71	13844
2026-01-15 02:26:28.67	215.31	8.59	-50.7	-62.9	3.8	8.47e-01	0	40	104	3812622336	72	15191
2026-01-15 02:26:32.65	215.20	8.27	-50.7	-63.0	3.8	8.48e-01	0	39	104	3812622336	72	15389
2026-01-15 02:26:36.63	215.09	7.95	-50.9	-63.1	3.8	8.46e-01	0	40	104	3812622336	72	15402
2026-01-15 02:26:40.61	214.97	7.64	-50.7	-63.0	3.8	8.47e-01	0	40	104	3812622336	72	15370
2026-01-15 02:26:44.59	214.87	7.33	-50.7	-63.0	3.8	8.47e-01	0	40	104	3812622336	72	15324
2026-01-15 02:26:48.57	214.76	7.02	-50.6	-63.0	3.8	8.47e-01	0	40	104	3812622336	72	15278
2026-01-15 02:26:52.55	214.66	6.72	-50.6	-63.0	3.8	8.47e-01	0	40	104	3812622336	72	15266
2026-01-15 02:26:56.53	214.56	6.42	-50.6	-63.0	3.8	8.47e-01	0	40	104	3812622336	72	15263
2026-01-15 02:27:00.51	214.46	6.12	-50.6	-63.0	3.8	8.46e-01	0	40	104	3812622336	72	15241
2026-01-15 02:27:04.51	214.36	5.83	-50.6	-62.9	3.8	8.47e-01	0	40	104	3812622336	72	15204
2026-01-15 02:27:08.50	214.27	5.54	-50.6	-62.9	3.8	8.47e-01	0	40	104	3812622336	72	15221
2026-01-15 02:27:12.49	214.17	5.25	-50.6	-63.0	3.8	8.47e-01	0	40	104	3812622336	72	15277

#Closed at: 2026-01-15 02:27:16
#Recorded file [3812 MB]: D:/Data/31040_260115_051432.dat