passes_logs/2026/01/15/T1/T1__20260115_102124_AQUA_rec.log

#Pass ID: 20260115_102124_AQUA
#Satellite: AQUA
#Configuration: AQUA
#almurnet v.1.7.20251203
#Start time: 2026-01-15 10:21:26

#Version: 2.0.20230620
#Station: T1
#Location: 37.570604 lon 55.790049 lat
#TLE: 1 27424U 02022A   26014.61231444  .00000653  00000+0  14070-3 0  9991
#TLE: 2 27424  98.4080 341.0332 0002042  78.9336 335.9961 14.61820174260839

#Time	Az	El	Level	Level2	SNR	BER	BlckErr	Temp	State	Recorded	gain1	gain2
2026-01-15 10:21:26.91	115.91	5.13	-53.0	-73.1	3.8	7.46e-01	0	39	0	0	77	36897
2026-01-15 10:21:29.88	115.65	5.33	-52.9	-73.2	3.8	7.43e-01	0	39	104	0	76	39142
2026-01-15 10:21:32.86	115.39	5.53	-53.0	-73.1	3.8	7.49e-01	0	39	104	0	76	39021
2026-01-15 10:21:35.84	115.13	5.73	-53.0	-73.0	3.8	7.45e-01	0	40	104	0	76	38650
2026-01-15 10:21:38.82	114.86	5.93	-53.0	-72.9	3.8	7.46e-01	0	39	104	0	76	38191
2026-01-15 10:21:41.80	114.59	6.13	-53.0	-72.7	3.8	7.47e-01	0	40	104	0	76	37206
2026-01-15 10:21:44.78	114.31	6.33	-53.0	-72.3	3.8	7.47e-01	0	40	104	0	76	35405
2026-01-15 10:21:47.76	114.03	6.53	-53.0	-70.9	3.9	7.49e-01	0	40	104	0	76	30246
2026-01-15 10:21:50.74	113.75	6.74	-52.9	-70.3	4.1	7.38e-01	0	40	104	0	76	28085
2026-01-15 10:21:53.72	113.46	6.94	-52.9	-71.9	3.8	7.46e-01	0	40	104	0	76	33826
2026-01-15 10:21:56.70	113.16	7.15	-52.9	-73.0	3.8	7.46e-01	0	40	104	0	76	38683
2026-01-15 10:21:59.68	112.86	7.36	-53.0	-73.3	3.8	7.47e-01	0	40	104	0	76	39847
2026-01-15 10:22:02.66	112.56	7.57	-53.0	-71.4	3.9	7.43e-01	0	40	104	0	76	32036
2026-01-15 10:22:05.63	112.25	7.78	-52.9	-68.1	4.9	7.16e-01	0	40	0	0	76	21875
2026-01-15 10:22:08.61	111.94	7.99	-53.0	-72.4	3.8	7.43e-01	0	40	104	0	76	35773
2026-01-15 10:22:11.59	111.62	8.20	-51.5	-58.4	13.6	6.08e-01	0	40	0	3670016	75	7617
2026-01-15 10:22:14.57	111.29	8.42	-49.6	-54.0	18.1	6.05e-01	0	40	0	8912896	71	5779
2026-01-15 10:22:17.55	110.96	8.63	-50.3	-55.4	16.9	6.08e-01	0	40	0	14680064	71	6770
2026-01-15 10:22:20.53	110.63	8.85	-52.5	-63.5	8.7	6.38e-01	0	41	0	20447232	75	13651
2026-01-15 10:22:23.51	110.29	9.07	-53.0	-71.0	3.9	7.41e-01	0	40	104	21495808	76	30639
2026-01-15 10:22:26.49	109.94	9.29	-53.1	-73.0	3.6	7.49e-01	0	40	104	22544384	76	38559
2026-01-15 10:22:29.47	109.59	9.51	-50.5	-55.5	16.7	6.08e-01	0	41	0	25165824	73	6078
2026-01-15 10:22:32.45	109.23	9.73	-48.4	-51.7	20.5	6.08e-01	0	41	0	30408704	68	5222
2026-01-15 10:22:35.43	108.87	9.95	-48.2	-51.4	20.8	6.07e-01	0	41	0	36175872	68	5087
2026-01-15 10:22:38.41	108.50	10.18	-48.3	-51.4	20.8	6.08e-01	0	41	0	41943040	68	5094
2026-01-15 10:22:41.38	108.12	10.40	-48.1	-51.2	21.0	6.06e-01	0	41	0	47185920	68	4967
2026-01-15 10:22:44.36	107.74	10.63	-48.1	-51.1	21.1	6.08e-01	0	41	0	52953088	68	4925
2026-01-15 10:22:47.34	107.35	10.86	-47.9	-51.0	21.1	6.06e-01	0	41	0	58720256	67	5119
2026-01-15 10:22:50.32	106.96	11.09	-47.8	-50.9	21.3	6.04e-01	0	41	0	63963136	67	5042
2026-01-15 10:22:53.30	106.55	11.32	-47.8	-50.9	21.3	6.06e-01	0	41	0	69730304	67	5057
2026-01-15 10:22:56.28	106.14	11.55	-47.9	-51.0	21.1	6.08e-01	0	41	0	75497472	67	5153
2026-01-15 10:22:59.26	105.73	11.78	-48.1	-51.2	21.0	6.08e-01	0	41	0	80740352	67	5227
2026-01-15 10:23:02.24	105.30	12.01	-47.9	-51.0	21.2	6.06e-01	0	41	0	86507520	67	5105
2026-01-15 10:23:05.22	104.87	12.24	-47.7	-50.7	21.4	6.06e-01	0	41	0	92274688	67	4982
2026-01-15 10:23:08.20	104.43	12.48	-47.7	-50.7	21.5	6.06e-01	0	41	0	97517568	67	4968
2026-01-15 10:23:11.18	103.98	12.72	-47.8	-50.8	21.4	6.07e-01	0	41	0	103284736	67	5012
2026-01-15 10:23:14.16	103.53	12.95	-47.8	-50.8	21.4	6.08e-01	0	41	0	108527616	67	4995
2026-01-15 10:23:17.13	103.07	13.19	-47.8	-50.8	21.5	6.05e-01	0	41	0	114294784	67	4986
2026-01-15 10:23:20.11	102.60	13.43	-47.8	-50.7	21.5	6.05e-01	0	41	0	120061952	67	4957
2026-01-15 10:23:23.09	102.12	13.67	-47.7	-50.6	21.6	6.08e-01	0	41	0	125304832	67	4907
2026-01-15 10:23:26.07	101.63	13.91	-47.7	-50.6	21.6	6.07e-01	0	41	0	131072000	67	4921
2026-01-15 10:23:29.05	101.13	14.15	-47.7	-50.7	21.6	6.06e-01	0	41	0	136839168	67	4929
2026-01-15 10:23:32.03	100.63	14.39	-47.6	-50.6	21.7	6.05e-01	0	41	0	142082048	67	4876
2026-01-15 10:23:35.01	100.12	14.63	-47.7	-50.7	21.6	6.06e-01	0	41	0	147849216	67	4929
2026-01-15 10:23:37.99	99.59	14.87	-47.5	-50.4	21.8	6.08e-01	0	41	0	153616384	67	4769
2026-01-15 10:23:40.96	99.06	15.11	-47.5	-50.4	21.7	6.06e-01	0	41	0	158859264	67	4766
2026-01-15 10:23:43.94	98.52	15.36	-47.4	-50.3	21.8	6.06e-01	0	41	0	164626432	66	5023
2026-01-15 10:23:46.92	97.97	15.60	-47.5	-50.3	21.9	6.07e-01	0	41	0	170393600	66	5023
2026-01-15 10:23:49.90	97.41	15.84	-47.6	-50.5	21.7	6.07e-01	0	41	0	175636480	66	5143
2026-01-15 10:23:52.88	96.84	16.08	-47.6	-50.5	21.7	6.05e-01	0	41	0	181403648	66	5149
2026-01-15 10:23:55.86	96.26	16.33	-47.5	-50.4	21.8	6.06e-01	0	41	0	186646528	66	5068
2026-01-15 10:23:58.84	95.67	16.57	-47.5	-50.4	21.7	6.08e-01	0	41	0	192413696	66	5086
2026-01-15 10:24:01.82	95.06	16.81	-47.5	-50.4	21.7	6.10e-01	0	41	0	198180864	66	5083
2026-01-15 10:24:04.80	94.45	17.05	-47.4	-50.3	21.8	6.07e-01	0	41	0	203423744	66	5016
2026-01-15 10:24:07.77	93.83	17.29	-47.6	-50.5	21.7	6.08e-01	0	41	0	209190912	66	5155
2026-01-15 10:24:10.75	93.20	17.53	-47.5	-50.4	21.7	6.09e-01	0	41	0	214958080	66	5058
2026-01-15 10:24:13.73	92.56	17.77	-47.3	-50.3	21.5	6.09e-01	0	41	0	220725248	66	5030
2026-01-15 10:24:16.71	91.90	18.01	-47.5	-50.5	21.6	6.07e-01	0	41	0	225968128	66	5159
2026-01-15 10:24:19.69	91.24	18.25	-47.5	-50.5	21.7	6.08e-01	0	41	0	231735296	66	5111
2026-01-15 10:24:22.67	90.56	18.48	-47.5	-50.5	21.8	6.06e-01	0	41	0	237502464	66	5102
2026-01-15 10:24:25.65	89.87	18.72	-47.3	-50.5	21.8	6.07e-01	0	41	0	242745344	66	5116
2026-01-15 10:24:28.62	89.17	18.95	-47.3	-50.4	21.9	6.06e-01	0	41	0	248512512	66	5086
2026-01-15 10:24:31.60	88.46	19.18	-47.4	-50.5	21.8	6.05e-01	0	41	0	253755392	66	5123
2026-01-15 10:24:34.58	87.74	19.41	-47.3	-50.5	21.8	6.09e-01	0	42	0	259522560	66	5135
2026-01-15 10:24:37.56	87.01	19.63	-47.3	-50.5	21.8	6.06e-01	0	41	0	265289728	66	5109
2026-01-15 10:24:40.54	86.26	19.86	-47.3	-50.5	21.8	6.07e-01	0	41	0	270532608	66	5109
2026-01-15 10:24:43.52	85.51	20.08	-47.5	-50.7	21.7	6.05e-01	0	41	0	276299776	66	5226
2026-01-15 10:24:46.50	84.74	20.30	-47.5	-50.7	21.6	6.06e-01	0	42	0	282066944	66	5234
2026-01-15 10:24:49.48	83.96	20.51	-47.4	-50.6	21.7	6.06e-01	0	41	0	287309824	66	5204
2026-01-15 10:24:52.46	83.17	20.72	-47.5	-50.7	21.6	6.06e-01	0	42	0	293076992	66	5222
2026-01-15 10:24:55.43	82.37	20.93	-47.6	-50.8	21.6	6.05e-01	0	41	0	298844160	66	5283
2026-01-15 10:24:58.41	81.56	21.13	-47.7	-50.9	21.5	6.08e-01	0	42	0	304087040	66	5358
2026-01-15 10:25:01.39	80.73	21.33	-47.6	-50.6	21.7	6.05e-01	0	42	0	309854208	66	5178
2026-01-15 10:25:04.37	79.89	21.52	-47.6	-50.6	21.8	6.06e-01	0	42	0	315621376	66	5183
2026-01-15 10:25:07.35	79.05	21.71	-47.8	-50.8	21.6	6.07e-01	0	41	0	320864256	66	5309
2026-01-15 10:25:10.33	78.19	21.90	-47.8	-50.8	21.6	6.07e-01	0	41	0	326631424	66	5288
2026-01-15 10:25:13.30	77.32	22.08	-47.7	-50.8	21.6	6.06e-01	0	41	0	331874304	66	5313
2026-01-15 10:25:16.28	76.45	22.25	-47.8	-51.0	21.4	6.06e-01	0	42	0	337641472	66	5407
2026-01-15 10:25:19.26	75.56	22.42	-47.8	-50.9	21.5	6.09e-01	0	41	0	343408640	66	5352
2026-01-15 10:25:22.24	74.66	22.58	-47.9	-50.9	21.5	6.08e-01	0	42	0	348651520	66	5397
2026-01-15 10:25:25.22	73.75	22.74	-47.9	-50.9	21.5	6.06e-01	0	42	0	354418688	66	5379
2026-01-15 10:25:28.20	72.83	22.89	-47.9	-51.0	21.5	6.05e-01	0	41	0	360185856	66	5403
2026-01-15 10:25:31.18	71.90	23.03	-47.9	-50.9	21.5	6.06e-01	0	42	0	365428736	66	5377
2026-01-15 10:25:34.16	70.97	23.17	-47.9	-50.9	21.5	6.07e-01	0	41	0	371195904	66	5345
2026-01-15 10:25:37.13	70.03	23.30	-47.9	-50.9	21.5	6.07e-01	0	42	0	376963072	66	5362
2026-01-15 10:25:40.11	69.07	23.42	-47.9	-50.9	21.5	6.07e-01	0	42	0	382205952	66	5389
2026-01-15 10:25:43.09	68.11	23.53	-47.9	-50.9	21.6	6.06e-01	0	42	0	387973120	66	5346
2026-01-15 10:25:46.07	67.15	23.64	-47.9	-50.8	21.6	6.07e-01	0	42	0	393740288	66	5335
2026-01-15 10:25:49.05	66.17	23.74	-48.0	-51.0	21.5	6.07e-01	0	41	0	398983168	66	5414
2026-01-15 10:25:52.03	65.19	23.83	-47.8	-50.7	21.7	6.07e-01	0	42	0	404750336	66	5273
2026-01-15 10:25:55.01	64.21	23.91	-47.9	-51.0	21.5	6.07e-01	0	42	0	410517504	66	5411
2026-01-15 10:25:57.99	63.22	23.98	-48.0	-51.1	21.4	6.08e-01	0	42	0	415760384	66	5486
2026-01-15 10:26:00.96	62.23	24.04	-48.1	-51.1	21.3	6.06e-01	0	42	0	421527552	66	5508
2026-01-15 10:26:03.94	61.23	24.10	-48.1	-51.1	21.3	6.05e-01	0	41	0	427294720	67	5167
2026-01-15 10:26:06.92	60.23	24.14	-47.9	-51.0	21.5	6.10e-01	0	42	0	432537600	67	5119
2026-01-15 10:26:09.90	59.23	24.18	-48.0	-51.1	21.3	6.07e-01	0	42	0	438304768	67	5209
2026-01-15 10:26:12.88	58.22	24.21	-47.9	-51.0	21.5	6.06e-01	0	42	0	444071936	67	5109
2026-01-15 10:26:15.86	57.21	24.23	-47.9	-51.1	21.3	6.07e-01	0	41	0	449314816	67	5182
2026-01-15 10:26:18.83	56.21	24.24	-47.9	-50.9	21.5	6.07e-01	0	42	0	455081984	67	5095
2026-01-15 10:26:21.81	55.20	24.24	-48.0	-51.0	21.4	6.07e-01	0	42	0	460849152	67	5147
2026-01-15 10:26:24.79	54.19	24.23	-48.0	-51.1	21.4	6.06e-01	0	42	0	466092032	67	5170
2026-01-15 10:26:27.77	53.18	24.21	-47.9	-51.0	21.4	6.08e-01	0	42	0	471859200	67	5158
2026-01-15 10:26:30.75	52.18	24.18	-48.1	-51.3	21.2	6.05e-01	0	42	0	477102080	67	5283
2026-01-15 10:26:33.73	51.17	24.14	-48.4	-60.8	3.9	7.45e-01	0	42	104	478150656	67	15790
2026-01-15 10:26:36.70	50.18	24.10	-54.0	-73.6	3.8	7.45e-01	0	42	104	478150656	78	36535
2026-01-15 10:26:39.68	49.18	24.04	-50.6	-64.4	3.8	7.46e-01	0	42	104	478150656	73	16924
2026-01-15 10:26:42.66	48.19	23.98	-49.2	-61.9	3.8	7.47e-01	0	42	104	478150656	70	15166
2026-01-15 10:26:45.64	47.20	23.91	-53.5	-73.6	3.8	7.48e-01	0	42	104	478150656	77	38977
2026-01-15 10:26:48.62	46.21	23.83	-51.1	-65.2	3.7	7.49e-01	0	42	104	478150656	74	17500
2026-01-15 10:26:51.60	45.24	23.74	-49.5	-62.2	3.7	7.45e-01	0	42	104	478150656	70	15670
2026-01-15 10:26:54.58	44.27	23.64	-53.6	-73.5	3.7	7.51e-01	0	42	104	478150656	77	38667
2026-01-15 10:26:57.56	43.30	23.53	-51.9	-68.0	4.0	7.42e-01	0	42	104	478150656	76	21605
2026-01-15 10:27:00.54	42.34	23.42	-48.6	-60.9	3.8	7.45e-01	0	42	104	478150656	69	14344
2026-01-15 10:27:03.51	41.40	23.30	-53.7	-72.9	3.7	7.54e-01	0	42	104	478150656	78	33761
2026-01-15 10:27:06.49	40.45	23.17	-52.3	-69.2	4.0	7.42e-01	0	42	104	478150656	76	24910
2026-01-15 10:27:09.47	39.52	23.03	-48.6	-61.5	3.8	7.45e-01	0	42	104	478150656	69	15249
2026-01-15 10:27:12.45	38.60	22.89	-51.1	-70.3	3.7	7.49e-01	0	42	104	478150656	72	35523
2026-01-15 10:27:15.43	37.68	22.74	-52.0	-69.9	3.9	7.43e-01	0	42	104	478150656	75	28375
2026-01-15 10:27:18.41	36.78	22.58	-48.6	-61.8	3.8	7.49e-01	0	42	104	478150656	69	15802
2026-01-15 10:27:21.39	35.88	22.42	-52.2	-69.0	3.8	7.51e-01	0	42	104	478150656	74	27270
2026-01-15 10:27:24.36	35.00	22.25	-52.3	-70.5	3.9	7.41e-01	0	42	104	478150656	75	30682
2026-01-15 10:27:27.34	34.12	22.08	-49.1	-62.3	3.8	7.47e-01	0	42	104	478150656	70	15844
2026-01-15 10:27:30.32	33.25	21.90	-51.6	-67.9	3.8	7.47e-01	0	42	104	478150656	73	25399
2026-01-15 10:27:33.30	32.40	21.72	-52.5	-71.5	3.8	7.43e-01	0	42	104	478150656	75	34129
2026-01-15 10:27:36.28	31.56	21.53	-48.3	-61.2	3.8	7.47e-01	0	42	104	478150656	68	15644
2026-01-15 10:27:39.26	30.72	21.33	-49.7	-66.3	3.8	7.47e-01	0	42	104	478150656	69	26686
2026-01-15 10:27:42.24	29.90	21.14	-52.5	-71.5	3.8	7.45e-01	0	42	104	478150656	75	34374
2026-01-15 10:27:45.22	29.09	20.93	-48.4	-62.0	3.8	7.46e-01	0	42	104	478150656	68	17196
2026-01-15 10:27:48.19	28.30	20.73	-50.4	-67.3	3.8	7.48e-01	0	42	104	478150656	71	26668
2026-01-15 10:27:51.17	27.51	20.52	-51.9	-72.7	3.8	7.46e-01	0	42	104	478150656	74	41465
2026-01-15 10:27:54.15	26.73	20.30	-47.4	-60.7	3.8	7.47e-01	0	42	104	478150656	66	16547
2026-01-15 10:27:57.13	25.97	20.09	-49.6	-64.7	3.8	7.47e-01	0	42	104	478150656	69	22184
2026-01-15 10:28:00.11	25.22	19.87	-52.2	-71.6	3.9	7.46e-01	0	42	104	478150656	75	34518
2026-01-15 10:28:03.09	24.48	19.64	-48.3	-61.1	3.8	7.45e-01	0	42	104	478150656	68	15477
2026-01-15 10:28:06.07	23.75	19.42	-50.2	-64.3	3.8	7.46e-01	0	42	104	478150656	70	19979
2026-01-15 10:28:09.05	23.03	19.19	-52.3	-71.2	3.8	7.51e-01	0	42	104	478150656	75	32961
2026-01-15 10:28:12.02	22.32	18.96	-48.7	-61.3	3.8	7.43e-01	0	42	104	478150656	69	15013
2026-01-15 10:28:15.00	21.63	18.73	-49.9	-63.5	3.8	7.46e-01	0	42	104	478150656	70	18255
2026-01-15 10:28:17.98	20.94	18.50	-52.1	-70.3	3.7	7.48e-01	0	42	104	478150656	74	31695
2026-01-15 10:28:20.96	20.27	18.26	-48.4	-61.2	3.8	7.45e-01	0	42	104	478150656	68	15691
2026-01-15 10:28:23.94	19.61	18.03	-49.5	-62.7	3.8	7.45e-01	0	42	104	478150656	69	17549
2026-01-15 10:28:26.92	18.96	17.79	-51.5	-69.4	3.8	7.49e-01	0	42	104	478150656	73	30160
2026-01-15 10:28:29.90	18.32	17.55	-48.6	-61.8	3.8	7.44e-01	0	42	104	478150656	68	16760
2026-01-15 10:28:32.87	17.69	17.31	-49.4	-62.1	3.8	7.43e-01	0	42	104	478150656	69	16461
2026-01-15 10:28:35.85	17.07	17.08	-52.6	-67.9	3.8	7.48e-01	0	42	104	478150656	75	22586
2026-01-15 10:28:38.83	16.46	16.83	-48.6	-61.1	3.8	7.48e-01	0	42	104	478150656	69	14598
2026-01-15 10:28:41.81	15.87	16.59	-48.6	-61.7	3.8	7.49e-01	0	42	104	478150656	67	17600
2026-01-15 10:28:44.79	15.28	16.35	-51.0	-66.7	3.8	7.47e-01	0	42	104	478150656	72	23330
2026-01-15 10:28:47.77	14.70	16.11	-48.4	-61.7	3.9	7.48e-01	0	42	104	478150656	68	16553
2026-01-15 10:28:50.75	14.14	15.87	-47.7	-61.2	3.8	7.44e-01	0	42	104	478150656	66	17603
2026-01-15 10:28:53.73	13.58	15.63	-50.0	-65.7	3.7	7.45e-01	0	42	104	478150656	70	23351
2026-01-15 10:28:56.71	13.03	15.39	-48.6	-61.8	3.8	7.45e-01	0	42	104	478150656	68	16754
2026-01-15 10:28:59.69	12.49	15.14	-47.7	-60.7	3.8	7.47e-01	0	42	104	478150656	67	15749
2026-01-15 10:29:02.66	11.97	14.90	-49.5	-64.7	3.7	7.47e-01	0	42	104	478150656	69	22246
2026-01-15 10:29:05.64	11.45	14.66	-47.8	-61.4	3.8	7.43e-01	0	42	104	478150656	67	16984
2026-01-15 10:29:08.62	10.94	14.42	-47.2	-60.9	3.8	7.47e-01	0	42	104	478150656	66	16933
2026-01-15 10:29:11.60	10.43	14.18	-47.8	-63.1	3.8	7.47e-01	0	42	104	478150656	66	21993
2026-01-15 10:29:14.58	9.94	13.94	-47.7	-61.6	3.8	7.48e-01	0	42	104	478150656	67	17386
2026-01-15 10:29:17.56	9.46	13.71	-47.8	-60.8	3.8	7.48e-01	0	42	104	478150656	67	15828
2026-01-15 10:29:20.54	8.98	13.47	-48.9	-62.5	3.8	7.47e-01	0	42	104	478150656	68	18206
2026-01-15 10:29:23.52	8.52	13.23	-48.6	-61.9	3.8	7.44e-01	0	42	104	478150656	68	16943
2026-01-15 10:29:26.49	8.06	13.00	-48.2	-61.2	3.8	7.46e-01	0	42	104	478150656	68	15655
2026-01-15 10:29:29.47	7.61	12.76	-48.6	-62.2	3.8	7.46e-01	0	42	104	478150656	69	16623
2026-01-15 10:29:32.45	7.16	12.52	-47.4	-61.4	3.8	7.46e-01	0	42	104	478150656	66	18051
2026-01-15 10:29:35.43	6.73	12.29	-48.1	-61.5	3.8	7.47e-01	0	42	104	478150656	68	16224
2026-01-15 10:29:38.41	6.30	12.06	-48.5	-61.9	3.8	7.47e-01	0	42	104	478150656	69	16067
2026-01-15 10:29:41.39	5.88	11.83	-48.2	-61.9	3.8	7.45e-01	0	42	104	478150656	68	16904
2026-01-15 10:29:44.37	5.46	11.60	-48.1	-61.8	3.8	7.46e-01	0	42	104	478150656	68	16858
2026-01-15 10:29:47.35	5.06	11.37	-48.5	-62.3	3.8	7.43e-01	0	42	104	478150656	69	16819
2026-01-15 10:29:50.32	4.66	11.14	-48.8	-61.9	3.8	7.47e-01	0	42	104	478150656	69	16083
2026-01-15 10:29:53.30	4.27	10.91	-49.4	-62.4	3.9	7.46e-01	0	42	104	478150656	70	16020
2026-01-15 10:29:56.28	3.88	10.68	-49.4	-62.4	3.8	7.48e-01	0	42	104	478150656	70	15965
2026-01-15 10:29:59.26	3.50	10.46	-48.6	-62.3	3.8	7.46e-01	0	42	104	478150656	69	16767
2026-01-15 10:30:02.24	3.13	10.23	-46.8	-61.4	3.8	7.42e-01	0	42	104	478150656	65	19071
2026-01-15 10:30:05.22	2.76	10.01	-47.0	-62.6	3.8	7.48e-01	0	42	104	478150656	66	20550
2026-01-15 10:30:08.19	2.40	9.79	-47.4	-61.8	3.8	7.48e-01	0	42	104	478150656	66	18758
2026-01-15 10:30:11.17	2.05	9.57	-48.7	-64.1	3.8	7.44e-01	0	42	104	478150656	68	21963
2026-01-15 10:30:14.15	1.70	9.35	-48.8	-63.3	3.8	7.45e-01	0	42	104	478150656	69	18754
2026-01-15 10:30:17.13	1.36	9.13	-46.9	-61.8	3.8	7.44e-01	0	42	104	478150656	65	19965
2026-01-15 10:30:20.11	1.02	8.91	-52.0	-73.7	3.8	7.49e-01	0	42	104	478150656	75	44328
2026-01-15 10:30:23.09	0.69	8.70	-52.8	-74.0	3.8	7.50e-01	0	42	104	478150656	77	40758
2026-01-15 10:30:26.07	0.36	8.48	-54.3	-74.2	3.8	7.43e-01	0	42	104	478150656	79	37298
2026-01-15 10:30:29.05	0.04	8.27	-54.2	-74.3	3.8	7.46e-01	0	42	104	478150656	79	37394
2026-01-15 10:30:32.02	359.73	8.06	-54.2	-74.3	3.8	7.48e-01	0	42	104	478150656	79	37478
2026-01-15 10:30:35.00	359.42	7.85	-54.0	-74.3	3.8	7.46e-01	0	42	104	478150656	79	37678
2026-01-15 10:30:37.98	359.11	7.64	-54.3	-74.3	3.8	7.45e-01	0	42	104	478150656	79	37651
2026-01-15 10:30:40.96	358.81	7.43	-54.4	-74.3	3.8	7.44e-01	0	42	104	478150656	79	37617
2026-01-15 10:30:43.94	358.52	7.22	-54.2	-74.3	3.8	7.47e-01	0	42	104	478150656	79	37639
2026-01-15 10:30:46.92	358.22	7.01	-53.8	-74.3	3.8	7.45e-01	0	42	104	478150656	79	37643
2026-01-15 10:30:49.90	357.94	6.81	-53.6	-74.3	3.8	7.45e-01	0	42	104	478150656	79	37380
2026-01-15 10:30:52.88	357.66	6.61	-53.6	-74.3	3.8	7.44e-01	0	42	104	478150656	79	37499
2026-01-15 10:30:55.85	357.38	6.40	-53.6	-74.2	3.8	7.45e-01	0	42	104	478150656	79	37358
2026-01-15 10:30:58.83	357.11	6.20	-53.6	-74.3	3.8	7.46e-01	0	42	104	478150656	79	37416
2026-01-15 10:31:01.81	356.84	6.00	-53.6	-74.3	3.8	7.48e-01	0	42	104	478150656	79	37391
2026-01-15 10:31:04.79	356.57	5.80	-53.6	-74.2	3.8	7.45e-01	0	42	104	478150656	79	37293
2026-01-15 10:31:07.77	356.31	5.60	-53.6	-74.3	3.8	7.48e-01	0	42	104	478150656	79	37387
2026-01-15 10:31:10.75	356.06	5.41	-53.6	-74.2	3.8	7.46e-01	0	42	104	478150656	79	37364
2026-01-15 10:31:13.73	355.80	5.21	-53.6	-74.2	3.8	7.46e-01	0	42	104	478150656	79	37266
2026-01-15 10:31:16.71	355.55	5.02	-53.5	-74.2	3.8	7.45e-01	0	42	104	478150656	79	37272

#Closed at: 2026-01-15 10:31:17
#Recorded file [478 MB]: D:/Data/31040_260115_132126.dat