passes_logs/2026/01/15/T1/T1__20260115_011542_SUOMI_NPP_rec.log

#Pass ID: 20260115_011542_SUOMI NPP
#Satellite: SUOMI NPP
#Configuration: NPP
#almurnet v.1.7.20251203
#Start time: 2026-01-15 01:15:45

#Version: 2.0.20230620
#Station: T1
#Location: 37.570604 lon 55.790049 lat
#TLE: 1 37849U 11061A   26014.11719687  .00000048  00000+0  43625-4 0  9998
#TLE: 2 37849  98.7809 316.1734 0002474  65.2440 294.8994 14.19525043736585

#Time	Az	El	Level	Level2	SNR	BER	BlckErr	Temp	State	Recorded	gain1	gain2
2026-01-15 01:15:45.06	7.41	5.15	-50.7	-66.1	3.8	1.49e+00	0	41	0	0	72	21767
2026-01-15 01:15:48.03	7.19	5.34	-50.7	-66.1	3.8	1.49e+00	0	41	104	0	73	20587
2026-01-15 01:15:51.01	6.97	5.53	-50.7	-66.0	3.8	1.49e+00	0	41	104	0	73	20472
2026-01-15 01:15:53.99	6.75	5.72	-50.7	-66.0	3.8	1.49e+00	0	41	104	0	73	20481
2026-01-15 01:15:56.97	6.52	5.91	-50.7	-66.1	3.8	1.49e+00	0	42	104	0	73	20555
2026-01-15 01:15:59.95	6.29	6.10	-50.7	-66.0	3.8	1.49e+00	0	42	104	0	73	20537
2026-01-15 01:16:02.93	6.06	6.29	-50.7	-66.1	3.8	1.49e+00	0	42	104	0	73	20557
2026-01-15 01:16:05.91	5.82	6.48	-50.7	-66.1	3.8	1.49e+00	0	42	104	0	73	20578
2026-01-15 01:16:08.90	5.58	6.68	-50.7	-66.1	3.8	1.49e+00	0	42	104	0	73	20581
2026-01-15 01:16:11.88	5.34	6.87	-50.7	-66.1	3.8	1.49e+00	0	42	104	0	73	20632
2026-01-15 01:16:14.86	5.09	7.07	-50.7	-66.1	3.8	1.49e+00	0	42	104	0	73	20648
2026-01-15 01:16:17.84	4.84	7.27	-50.7	-66.0	3.8	1.49e+00	0	42	104	0	73	20529
2026-01-15 01:16:20.82	4.59	7.47	-50.7	-66.0	3.8	1.49e+00	0	42	104	0	73	20491
2026-01-15 01:16:23.80	4.33	7.67	-50.7	-66.0	3.8	1.49e+00	0	43	104	0	73	20465
2026-01-15 01:16:26.78	4.07	7.87	-50.7	-66.0	3.8	1.49e+00	0	43	104	0	73	20523
2026-01-15 01:16:29.76	3.81	8.07	-50.7	-66.0	3.8	1.49e+00	0	43	104	0	73	20526
2026-01-15 01:16:32.74	3.54	8.27	-50.7	-66.1	3.8	1.49e+00	0	43	104	0	73	20565
2026-01-15 01:16:35.72	3.27	8.47	-50.7	-66.1	3.8	1.49e+00	0	43	104	0	73	20545
2026-01-15 01:16:38.70	2.99	8.68	-50.7	-66.0	3.8	1.49e+00	0	43	104	0	73	20514
2026-01-15 01:16:41.69	2.71	8.89	-50.7	-66.0	3.8	1.49e+00	0	43	104	0	73	20535
2026-01-15 01:16:44.67	2.43	9.09	-50.7	-66.0	3.8	1.49e+00	0	43	104	0	73	20456
2026-01-15 01:16:47.65	2.14	9.30	-50.7	-66.0	3.8	1.49e+00	0	43	104	0	73	20527
2026-01-15 01:16:50.63	1.85	9.51	-50.7	-66.0	3.8	1.49e+00	0	43	104	0	73	20537
2026-01-15 01:16:53.61	1.55	9.72	-50.7	-66.1	3.8	1.49e+00	0	43	104	0	73	20591
2026-01-15 01:16:56.59	1.25	9.93	-50.6	-66.0	3.8	1.49e+00	0	43	104	0	73	20522
2026-01-15 01:16:59.57	0.94	10.14	-50.7	-66.0	3.8	1.49e+00	0	43	104	0	73	20525
2026-01-15 01:17:02.55	0.63	10.35	-50.7	-66.0	3.8	1.49e+00	0	43	104	0	73	20501
2026-01-15 01:17:05.61	0.31	10.57	-50.7	-66.0	3.8	1.49e+00	0	43	104	0	73	20530
2026-01-15 01:17:08.60	359.99	10.79	-50.6	-66.0	3.8	1.49e+00	0	43	104	0	73	20461
2026-01-15 01:17:11.58	359.66	11.00	-50.6	-66.0	3.8	1.49e+00	0	43	104	0	73	20486
2026-01-15 01:17:14.56	359.33	11.22	-50.7	-66.0	3.8	1.49e+00	0	43	104	0	73	20538
2026-01-15 01:17:17.54	359.00	11.44	-50.7	-66.0	3.8	1.49e+00	0	43	104	0	73	20456
2026-01-15 01:17:20.53	358.66	11.66	-50.7	-66.0	3.8	1.49e+00	0	43	104	0	73	20405
2026-01-15 01:17:23.60	358.30	11.88	-50.6	-66.0	3.8	1.49e+00	0	43	104	0	73	20422
2026-01-15 01:17:26.58	357.95	12.10	-50.6	-66.0	3.8	1.49e+00	0	43	104	0	73	20454
2026-01-15 01:17:29.56	357.59	12.32	-50.6	-66.0	3.8	1.49e+00	0	43	104	0	73	20392
2026-01-15 01:17:32.50	357.23	12.54	-50.7	-66.0	3.8	1.49e+00	0	43	104	0	73	20494
2026-01-15 01:17:35.48	356.87	12.77	-50.6	-66.1	3.8	1.49e+00	0	43	104	0	73	20629
2026-01-15 01:17:38.46	356.49	12.99	-50.6	-66.0	3.8	1.49e+00	0	44	104	0	73	20494
2026-01-15 01:17:41.44	356.11	13.22	-50.6	-66.0	3.8	1.49e+00	0	43	104	0	73	20534
2026-01-15 01:17:44.42	355.73	13.44	-50.6	-66.0	3.8	1.49e+00	0	43	104	0	73	20381
2026-01-15 01:17:47.40	355.34	13.67	-50.6	-66.0	3.8	1.49e+00	0	43	104	0	73	20474
2026-01-15 01:17:50.38	354.94	13.89	-50.6	-66.0	3.8	1.49e+00	0	43	104	0	73	20506
2026-01-15 01:17:53.48	354.52	14.13	-50.7	-66.1	3.8	1.49e+00	0	44	104	0	73	20559
2026-01-15 01:17:56.38	354.12	14.35	-50.6	-66.0	3.8	1.49e+00	0	43	104	0	73	20499
2026-01-15 01:17:59.86	353.63	14.62	-50.6	-66.0	3.8	1.49e+00	0	44	104	0	73	20503
2026-01-15 01:18:02.56	353.25	14.83	-50.6	-66.0	3.8	1.49e+00	0	44	104	0	73	20461
2026-01-15 01:18:05.83	352.77	15.08	-50.6	-66.0	3.8	1.49e+00	0	43	104	0	73	20429
2026-01-15 01:18:08.53	352.37	15.29	-50.6	-66.0	3.8	1.49e+00	0	43	104	0	73	20505
2026-01-15 01:18:11.79	351.89	15.55	-50.6	-66.1	3.8	1.49e+00	0	44	104	0	73	20556
2026-01-15 01:18:14.49	351.48	15.75	-50.7	-66.0	3.8	1.49e+00	0	44	104	0	73	20458
2026-01-15 01:18:17.82	350.96	16.01	-50.6	-66.0	3.8	1.49e+00	0	43	104	0	73	20481
2026-01-15 01:18:20.55	350.54	16.23	-50.7	-66.1	3.8	1.49e+00	0	44	104	0	73	20541
2026-01-15 01:18:23.88	350.00	16.49	-50.6	-66.0	3.8	1.49e+00	0	43	104	0	73	20471
2026-01-15 01:18:26.63	349.56	16.70	-50.7	-66.0	3.8	1.49e+00	0	44	104	0	73	20508
2026-01-15 01:18:29.91	349.02	16.96	-50.6	-66.1	3.8	1.49e+00	0	44	104	0	73	20546
2026-01-15 01:18:32.61	348.57	17.17	-50.7	-66.0	3.8	1.49e+00	0	44	104	0	73	20514
2026-01-15 01:18:35.87	348.01	17.42	-50.6	-66.1	3.8	1.49e+00	0	44	104	0	73	20550
2026-01-15 01:18:38.57	347.55	17.64	-50.7	-66.0	3.8	1.49e+00	0	44	104	0	73	20463
2026-01-15 01:18:41.85	346.97	17.89	-50.7	-66.0	3.8	1.49e+00	0	44	104	0	73	20499
2026-01-15 01:18:44.55	346.49	18.10	-50.7	-66.1	3.8	1.49e+00	0	44	104	0	73	20561
2026-01-15 01:18:47.81	345.90	18.36	-50.7	-66.0	3.8	1.49e+00	0	44	104	0	73	20493
2026-01-15 01:18:50.60	345.39	18.57	-50.7	-66.1	3.8	1.49e+00	0	44	104	0	73	20553
2026-01-15 01:18:53.88	344.78	18.83	-50.7	-66.0	3.8	1.49e+00	0	44	104	0	73	20509
2026-01-15 01:18:56.58	344.27	19.03	-50.7	-66.0	3.8	1.49e+00	0	44	104	0	73	20534
2026-01-15 01:18:59.85	343.64	19.29	-50.7	-66.0	3.8	1.49e+00	0	44	104	0	73	20491
2026-01-15 01:19:02.54	343.11	19.49	-50.7	-66.1	3.8	1.49e+00	0	44	104	0	73	20542
2026-01-15 01:19:05.81	342.46	19.74	-50.7	-66.0	3.8	1.49e+00	0	44	104	0	73	20481
2026-01-15 01:19:08.60	341.90	19.95	-50.7	-66.0	3.8	1.49e+00	0	44	104	0	73	20523
2026-01-15 01:19:11.88	341.23	20.20	-50.7	-66.1	3.8	1.49e+00	0	44	104	0	73	20615
2026-01-15 01:19:14.57	340.67	20.40	-50.7	-66.0	3.8	1.49e+00	0	44	104	0	73	20536
2026-01-15 01:19:17.84	339.98	20.64	-50.7	-66.1	3.8	1.49e+00	0	44	104	0	73	20570
2026-01-15 01:19:20.54	339.41	20.84	-50.7	-66.0	3.8	1.49e+00	0	44	104	0	73	20488
2026-01-15 01:19:23.80	338.70	21.08	-50.7	-66.1	3.8	1.49e+00	0	44	104	0	73	20562
2026-01-15 01:19:26.51	338.10	21.28	-50.7	-66.1	3.8	1.49e+00	0	44	104	0	73	20572
2026-01-15 01:19:29.79	337.37	21.51	-50.7	-66.1	3.8	1.49e+00	0	44	104	0	73	20649
2026-01-15 01:19:32.51	336.76	21.71	-50.7	-66.1	3.8	1.49e+00	0	44	104	0	73	20611
2026-01-15 01:19:35.77	336.01	21.93	-50.7	-66.1	3.8	1.49e+00	0	44	104	0	73	20592
2026-01-15 01:19:38.47	335.38	22.12	-50.7	-66.1	3.8	1.49e+00	0	44	104	0	73	20544
2026-01-15 01:19:41.86	334.58	22.35	-50.7	-66.1	3.8	1.49e+00	0	44	104	0	73	20627
2026-01-15 01:19:44.56	333.94	22.53	-50.7	-66.1	3.8	1.49e+00	0	44	104	0	73	20554
2026-01-15 01:19:47.84	333.14	22.75	-50.7	-66.1	3.8	1.49e+00	0	44	104	0	73	20541
2026-01-15 01:19:50.57	332.47	22.93	-50.7	-66.0	3.8	1.49e+00	0	44	104	0	73	20517
2026-01-15 01:19:53.83	331.66	23.13	-50.7	-66.1	3.8	1.49e+00	0	44	104	0	73	20567
2026-01-15 01:19:56.53	330.99	23.30	-50.7	-66.1	3.8	1.49e+00	0	44	104	0	73	20562
2026-01-15 01:19:59.80	330.15	23.50	-50.7	-66.0	3.8	1.49e+00	0	44	104	0	73	20535
2026-01-15 01:20:02.60	329.43	23.67	-50.6	-66.0	3.8	1.49e+00	0	44	104	0	73	20464
2026-01-15 01:20:05.98	328.55	23.86	-50.7	-66.0	3.8	1.49e+00	0	44	104	0	73	20475
2026-01-15 01:20:08.69	327.84	24.01	-50.7	-66.0	3.8	1.49e+00	0	44	104	0	73	20503
2026-01-15 01:20:11.97	326.97	24.19	-50.7	-66.1	3.8	1.49e+00	0	44	104	0	73	20662
2026-01-15 01:20:14.67	326.24	24.34	-50.7	-66.1	3.8	1.49e+00	0	44	104	0	73	20542
2026-01-15 01:20:17.94	325.35	24.50	-50.7	-66.1	3.8	1.49e+00	0	44	104	0	73	20577
2026-01-15 01:20:20.63	324.62	24.64	-50.7	-66.1	3.8	1.49e+00	0	44	104	0	73	20601
2026-01-15 01:20:23.90	323.71	24.79	-50.7	-66.1	3.8	1.49e+00	0	44	104	0	73	20567
2026-01-15 01:20:26.60	322.96	24.92	-50.7	-66.0	3.8	1.49e+00	0	44	104	0	73	20457
2026-01-15 01:20:29.86	322.04	25.06	-50.7	-66.0	3.8	1.49e+00	0	44	104	0	73	20535
2026-01-15 01:20:32.56	321.27	25.17	-50.7	-66.1	3.8	1.49e+00	0	44	104	0	73	20592
2026-01-15 01:20:35.91	320.31	25.30	-50.7	-66.0	3.8	1.49e+00	0	44	104	0	73	20489
2026-01-15 01:20:38.60	319.54	25.40	-50.7	-66.1	3.8	1.49e+00	0	44	104	0	73	20555
2026-01-15 01:20:41.88	318.58	25.52	-50.7	-66.1	3.8	1.49e+00	0	44	104	0	73	20587
2026-01-15 01:20:44.58	317.79	25.60	-50.7	-66.1	3.8	1.49e+00	0	44	104	0	73	20671
2026-01-15 01:20:47.85	316.83	25.70	-50.7	-66.0	3.8	1.49e+00	0	44	104	0	73	20509
2026-01-15 01:20:50.54	316.04	25.78	-50.7	-66.1	3.8	1.49e+00	0	44	104	0	73	20636
2026-01-15 01:20:53.82	315.06	25.86	-50.7	-66.1	3.8	1.49e+00	0	44	104	0	73	20575
2026-01-15 01:20:56.52	314.26	25.92	-50.7	-66.0	3.8	1.49e+00	0	44	104	0	73	20529
2026-01-15 01:20:59.78	313.28	25.99	-50.7	-66.0	3.8	1.49e+00	0	44	104	0	73	20514
2026-01-15 01:21:02.48	312.47	26.04	-50.7	-66.1	3.8	1.49e+00	0	44	104	0	73	20577
2026-01-15 01:21:05.76	311.48	26.09	-50.7	-66.1	3.8	1.49e+00	0	44	104	0	73	20603
2026-01-15 01:21:08.46	310.66	26.13	-50.7	-66.1	3.8	1.49e+00	0	44	104	0	73	20568
2026-01-15 01:21:11.74	309.66	26.16	-50.7	-66.0	3.8	1.49e+00	0	44	104	0	73	20522
2026-01-15 01:21:14.45	308.84	26.18	-50.7	-66.1	3.8	1.49e+00	0	44	104	0	73	20617
2026-01-15 01:21:17.72	307.84	26.20	-50.7	-66.0	3.8	1.49e+00	0	44	104	0	73	20460
2026-01-15 01:21:20.43	307.02	26.20	-50.7	-66.1	3.8	1.49e+00	0	44	104	0	73	20539
2026-01-15 01:21:23.69	306.03	26.20	-50.7	-66.0	3.8	1.49e+00	0	44	104	0	73	20535
2026-01-15 01:21:26.39	305.20	26.19	-50.7	-66.0	3.8	1.49e+00	0	44	104	0	73	20493
2026-01-15 01:21:29.65	304.21	26.17	-50.7	-66.0	3.8	1.49e+00	0	44	104	0	73	20503
2026-01-15 01:21:32.38	303.38	26.15	-50.7	-66.0	3.8	1.49e+00	0	44	104	0	73	20522
2026-01-15 01:21:35.64	302.39	26.11	-50.7	-66.0	3.8	1.49e+00	0	44	104	0	73	20437
2026-01-15 01:21:38.40	301.56	26.08	-50.7	-66.0	3.8	1.49e+00	0	44	104	0	73	20499
2026-01-15 01:21:41.81	300.53	26.02	-50.7	-66.0	3.8	1.49e+00	0	44	104	0	73	20496
2026-01-15 01:21:44.60	299.69	25.97	-50.7	-66.0	3.8	1.49e+00	0	44	104	0	73	20409
2026-01-15 01:21:47.90	298.70	25.90	-50.7	-66.0	3.8	1.49e+00	0	44	104	0	73	20463
2026-01-15 01:21:50.62	297.89	25.83	-50.7	-66.0	3.8	1.49e+00	0	43	104	0	73	20515
2026-01-15 01:21:53.89	296.92	25.75	-50.7	-66.1	3.8	1.49e+00	0	44	104	0	73	20553
2026-01-15 01:21:56.59	296.12	25.67	-50.7	-66.0	3.8	1.49e+00	0	43	104	0	73	20526
2026-01-15 01:21:59.85	295.16	25.57	-50.7	-66.0	3.8	1.49e+00	0	44	104	0	73	20499
2026-01-15 01:22:02.58	294.36	25.47	-50.6	-66.1	3.8	1.49e+00	0	43	104	0	73	20549
2026-01-15 01:22:05.86	293.41	25.36	-50.7	-66.0	3.8	1.49e+00	0	44	104	0	73	20431
2026-01-15 01:22:08.57	292.63	25.25	-50.7	-66.0	3.8	1.49e+00	0	44	104	0	73	20504
2026-01-15 01:22:11.84	291.70	25.12	-50.7	-66.0	3.8	1.49e+00	0	44	104	0	73	20484
2026-01-15 01:22:14.53	290.93	25.01	-50.7	-66.0	3.8	1.49e+00	0	43	104	0	73	20501
2026-01-15 01:22:17.80	290.01	24.86	-50.6	-66.1	3.8	1.49e+00	0	44	104	0	73	20552
2026-01-15 01:22:20.65	289.22	24.73	-50.7	-66.0	3.8	1.49e+00	0	43	104	0	73	20469
2026-01-15 01:22:23.92	288.32	24.57	-50.7	-66.0	3.8	1.49e+00	0	43	104	0	73	20500
2026-01-15 01:22:26.63	287.57	24.43	-50.7	-66.0	3.8	1.49e+00	0	43	104	0	73	20484
2026-01-15 01:22:29.89	286.69	24.26	-50.7	-66.0	3.8	1.49e+00	0	43	104	0	73	20469
2026-01-15 01:22:32.62	285.96	24.12	-50.7	-66.0	3.8	1.49e+00	0	43	104	0	73	20529
2026-01-15 01:22:35.90	285.09	23.93	-50.7	-66.0	3.8	1.49e+00	0	43	104	0	73	20475
2026-01-15 01:22:38.61	284.37	23.78	-50.7	-66.1	3.8	1.49e+00	0	44	104	0	73	20583
2026-01-15 01:22:41.88	283.53	23.59	-50.7	-66.1	3.8	1.49e+00	0	43	104	0	73	20576
2026-01-15 01:22:44.59	282.83	23.42	-50.7	-66.0	3.8	1.49e+00	0	43	104	0	73	20531
2026-01-15 01:22:47.86	282.00	23.22	-50.7	-66.0	3.8	1.49e+00	0	43	104	0	73	20479
2026-01-15 01:22:50.55	281.32	23.05	-50.7	-66.0	3.8	1.49e+00	0	43	104	0	73	20529
2026-01-15 01:22:53.83	280.51	22.84	-50.7	-66.0	3.8	1.49e+00	0	43	104	0	73	20480
2026-01-15 01:22:56.62	279.83	22.66	-50.6	-66.0	3.8	1.49e+00	0	43	104	0	73	20453
2026-01-15 01:22:59.90	279.04	22.44	-50.6	-66.0	3.8	1.49e+00	0	43	104	0	73	20526
2026-01-15 01:23:02.61	278.39	22.26	-50.6	-66.0	3.8	1.49e+00	0	43	104	0	73	20441
2026-01-15 01:23:05.88	277.62	22.03	-50.6	-66.0	3.8	1.49e+00	0	43	104	0	73	20395
2026-01-15 01:23:08.59	276.99	21.84	-50.6	-66.0	3.8	1.49e+00	0	43	104	0	73	20497
2026-01-15 01:23:11.86	276.24	21.61	-50.6	-66.0	3.8	1.49e+00	0	43	104	0	73	20475
2026-01-15 01:23:14.57	275.63	21.42	-50.6	-66.0	3.8	1.49e+00	0	43	104	0	73	20490
2026-01-15 01:23:17.83	274.90	21.19	-50.6	-66.0	3.8	1.49e+00	0	43	104	0	73	20538
2026-01-15 01:23:20.54	274.31	20.99	-50.6	-66.0	3.8	1.49e+00	0	43	104	0	73	20472
2026-01-15 01:23:23.81	273.60	20.75	-50.6	-66.0	3.8	1.49e+00	0	43	104	0	73	20388
2026-01-15 01:23:26.52	273.02	20.55	-50.6	-66.1	3.8	1.49e+00	0	43	104	0	73	20584
2026-01-15 01:23:29.88	272.31	20.29	-50.6	-66.0	3.8	1.49e+00	0	43	104	0	73	20425
2026-01-15 01:23:32.59	271.75	20.09	-50.6	-66.0	3.8	1.49e+00	0	43	104	0	73	20444
2026-01-15 01:23:36.10	271.04	19.82	-50.6	-66.0	3.8	1.49e+00	0	43	104	0	73	20496
2026-01-15 01:23:38.82	270.49	19.62	-50.6	-66.0	3.8	1.49e+00	0	43	104	0	73	20478
2026-01-15 01:23:42.09	269.84	19.37	-50.6	-66.0	3.8	1.49e+00	0	43	104	0	73	20414
2026-01-15 01:23:44.80	269.31	19.16	-50.6	-66.0	3.8	1.49e+00	0	43	104	0	73	20416
2026-01-15 01:23:48.08	268.69	18.90	-50.6	-66.0	3.8	1.49e+00	0	43	104	0	73	20490
2026-01-15 01:23:50.80	268.17	18.69	-50.6	-66.0	3.8	1.49e+00	0	43	104	0	73	20477
2026-01-15 01:23:54.07	267.56	18.44	-50.6	-66.0	3.8	1.49e+00	0	43	104	0	73	20379
2026-01-15 01:23:56.79	267.06	18.23	-50.6	-66.0	3.8	1.49e+00	0	43	104	0	73	20331
2026-01-15 01:24:00.05	266.48	17.97	-50.6	-66.0	3.8	1.49e+00	0	43	104	0	73	20404
2026-01-15 01:24:02.76	265.99	17.76	-50.6	-66.0	3.8	1.49e+00	0	43	104	0	73	20494
2026-01-15 01:24:06.39	265.36	17.47	-50.6	-66.0	3.8	1.49e+00	0	43	104	0	73	20424
2026-01-15 01:24:09.23	264.87	17.25	-50.6	-66.0	3.8	1.49e+00	0	43	104	0	73	20450
2026-01-15 01:24:13.20	264.20	16.94	-50.6	-66.0	3.8	1.49e+00	0	43	104	0	73	20411
2026-01-15 01:24:16.04	263.73	16.72	-50.6	-66.0	3.8	1.49e+00	0	43	104	0	73	20455
2026-01-15 01:24:20.22	263.05	16.39	-50.6	-66.0	3.8	1.49e+00	0	43	104	0	73	20464
2026-01-15 01:24:23.18	262.58	16.16	-50.6	-66.0	3.8	1.49e+00	0	43	104	0	73	20456
2026-01-15 01:24:26.59	262.04	15.89	-50.6	-66.0	3.8	1.49e+00	0	43	104	0	73	20491
2026-01-15 01:24:29.29	261.62	15.68	-50.6	-66.0	3.8	1.49e+00	0	43	104	0	73	20466
2026-01-15 01:24:32.55	261.13	15.43	-50.6	-66.1	3.8	1.49e+00	0	43	104	0	73	20546
2026-01-15 01:24:35.26	260.72	15.21	-50.6	-66.0	3.8	1.49e+00	0	43	104	0	73	20387
2026-01-15 01:24:38.53	260.24	14.96	-50.6	-66.0	3.8	1.49e+00	0	43	104	0	73	20478
2026-01-15 01:24:41.31	259.84	14.75	-50.6	-66.0	3.8	1.49e+00	0	43	104	0	73	20496
2026-01-15 01:24:44.51	259.38	14.50	-50.6	-66.0	3.8	1.49e+00	0	43	104	0	73	20482
2026-01-15 01:24:47.35	258.98	14.28	-50.6	-66.0	3.8	1.49e+00	0	43	104	0	73	20428
2026-01-15 01:24:50.47	258.55	14.04	-50.6	-66.0	3.8	1.49e+00	0	43	104	0	73	20425
2026-01-15 01:24:53.31	258.16	13.82	-50.6	-66.0	3.8	1.49e+00	0	43	104	0	73	20407
2026-01-15 01:24:56.43	257.75	13.58	-50.6	-66.0	3.8	1.49e+00	0	43	104	0	73	20537
2026-01-15 01:24:59.46	257.35	13.35	-50.6	-66.0	3.8	1.49e+00	0	43	104	0	73	20362
2026-01-15 01:25:02.75	256.92	13.10	-50.6	-66.0	3.8	1.49e+00	0	43	104	0	73	20495
2026-01-15 01:25:05.45	256.57	12.90	-50.6	-66.0	3.8	1.49e+00	0	43	104	0	73	20392
2026-01-15 01:25:08.72	256.16	12.65	-50.6	-66.0	3.8	1.49e+00	0	43	104	0	73	20434
2026-01-15 01:25:11.41	255.83	12.45	-50.6	-66.0	3.8	1.49e+00	0	43	104	0	73	20507
2026-01-15 01:25:14.76	255.42	12.20	-50.6	-66.1	3.8	1.49e+00	0	43	104	0	73	20577
2026-01-15 01:25:17.52	255.09	11.99	-50.7	-66.1	3.8	1.49e+00	0	43	104	0	73	20550
2026-01-15 01:25:20.92	254.69	11.74	-50.6	-66.1	3.8	1.49e+00	0	43	104	0	73	20562
2026-01-15 01:25:23.64	254.37	11.54	-50.6	-66.0	3.8	1.49e+00	0	43	104	0	73	20466
2026-01-15 01:25:26.90	254.00	11.30	-50.6	-66.1	3.8	1.49e+00	0	43	104	0	73	20577
2026-01-15 01:25:29.60	253.69	11.10	-50.6	-66.0	3.8	1.49e+00	0	43	104	0	73	20481
2026-01-15 01:25:32.86	253.33	10.87	-50.7	-66.0	3.8	1.49e+00	0	43	104	0	73	20525
2026-01-15 01:25:35.56	253.03	10.67	-50.6	-66.0	3.8	1.49e+00	0	43	104	0	73	20472
2026-01-15 01:25:38.90	252.67	10.43	-50.6	-66.1	3.8	1.49e+00	0	43	104	0	73	20539
2026-01-15 01:25:41.60	252.39	10.24	-50.7	-66.0	3.8	1.49e+00	0	43	104	0	73	20456
2026-01-15 01:25:44.86	252.05	10.00	-50.7	-66.0	3.8	1.49e+00	0	43	104	0	73	20533
2026-01-15 01:25:47.59	251.76	9.81	-50.7	-66.1	3.8	1.49e+00	0	43	104	0	73	20612
2026-01-15 01:25:50.87	251.43	9.58	-50.7	-66.1	3.8	1.49e+00	0	43	104	0	73	20549
2026-01-15 01:25:53.71	251.15	9.38	-50.7	-66.0	3.8	1.49e+00	0	43	104	0	73	20517
2026-01-15 01:25:56.83	250.84	9.16	-50.6	-66.0	3.8	1.49e+00	0	43	104	0	73	20430
2026-01-15 01:25:59.67	250.56	8.96	-50.6	-66.0	3.8	1.49e+00	0	43	104	0	73	20522
2026-01-15 01:26:02.79	250.26	8.74	-50.6	-66.1	3.8	1.49e+00	0	43	104	0	73	20567
2026-01-15 01:26:05.63	250.00	8.55	-50.7	-66.0	3.8	1.49e+00	0	43	104	0	73	20429
2026-01-15 01:26:08.76	249.71	8.33	-50.6	-66.0	3.8	1.49e+00	0	43	104	0	73	20524
2026-01-15 01:26:11.59	249.45	8.14	-50.7	-66.0	3.8	1.49e+00	0	43	104	0	73	20518
2026-01-15 01:26:14.72	249.16	7.93	-50.7	-66.0	3.8	1.49e+00	0	43	104	0	73	20462
2026-01-15 01:26:17.56	248.91	7.74	-50.6	-66.0	3.8	1.49e+00	0	43	104	0	73	20519
2026-01-15 01:26:20.68	248.64	7.53	-50.7	-66.0	3.8	1.49e+00	0	43	104	0	73	20486
2026-01-15 01:26:23.52	248.39	7.33	-50.7	-66.0	3.8	1.49e+00	0	43	104	0	73	20408
2026-01-15 01:26:26.64	248.12	7.13	-50.7	-66.1	3.8	1.49e+00	0	43	104	0	73	20552
2026-01-15 01:26:29.53	247.88	6.94	-50.7	-66.0	3.8	1.49e+00	0	43	104	0	73	20461
2026-01-15 01:26:32.73	247.61	6.72	-50.6	-66.0	3.8	1.49e+00	0	43	104	0	73	20470
2026-01-15 01:26:35.57	247.38	6.54	-50.7	-66.1	3.8	1.49e+00	0	43	104	0	73	20549
2026-01-15 01:26:38.69	247.13	6.33	-50.7	-66.0	3.8	1.49e+00	0	43	104	0	73	20471
2026-01-15 01:26:41.53	246.90	6.15	-50.7	-66.0	3.8	1.49e+00	0	43	104	0	73	20514
2026-01-15 01:26:44.65	246.66	5.95	-50.6	-66.0	3.8	1.49e+00	0	43	104	0	73	20489
2026-01-15 01:26:47.49	246.44	5.77	-50.6	-66.0	3.8	1.49e+00	0	43	104	0	73	20430
2026-01-15 01:26:50.61	246.20	5.57	-50.6	-66.1	3.8	1.49e+00	0	43	104	0	73	20550
2026-01-15 01:26:53.45	245.98	5.39	-50.7	-66.0	3.8	1.49e+00	0	43	104	0	73	20480
2026-01-15 01:26:56.57	245.75	5.19	-50.7	-66.0	3.8	1.49e+00	0	43	104	0	73	20477
2026-01-15 01:26:59.41	245.54	5.01	-50.6	-66.0	3.8	1.49e+00	0	43	104	0	73	20414

#Closed at: 2026-01-15 01:27:01
#Recorded file [0 MB]: D:/Data/31040_260115_041545.dat