passes_logs/2026/01/15/T1/T1__20260115_120458_FENGYUN_3D_rec.log

#Pass ID: 20260115_120458_FENGYUN 3D
#Satellite: FENGYUN 3D
#Configuration: FENGYUN 3D
#almurnet v.1.7.20251203
#Start time: 2026-01-15 12:05:00

#Version: 2.0.20230620
#Station: T1
#Location: 37.570604 lon 55.790049 lat
#TLE: 1 43010U 17072A   26014.65117763 -.00000217  00000+0 -80772-4 0  9993
#TLE: 2 43010  98.9933 346.4618 0002330 108.4699 251.6730 14.19694700423204

#Time	Az	El	Level	Level2	SNR	BER	BlckErr	Temp	State	Recorded	gain1	gain2
2026-01-15 12:05:00.87	163.57	5.15	-48.5	-62.0	3.8	8.47e-01	0	41	0	0	68	17281
2026-01-15 12:05:04.83	163.61	5.44	-48.5	-62.3	3.8	8.46e-01	0	41	104	0	68	17874
2026-01-15 12:05:08.81	163.64	5.73	-48.6	-62.2	3.8	8.46e-01	0	41	104	0	68	17662
2026-01-15 12:05:12.78	163.67	6.03	-48.5	-61.1	3.8	8.47e-01	0	41	104	0	68	15471
2026-01-15 12:05:16.75	163.71	6.33	-48.3	-59.1	4.1	8.44e-01	0	41	0	0	68	12338
2026-01-15 12:05:20.72	163.74	6.63	-47.7	-56.2	5.2	7.60e-01	0	42	0	0	67	9381
2026-01-15 12:05:24.69	163.78	6.93	-47.0	-53.5	7.4	1.45e-01	0	42	0	17825792	66	7257
2026-01-15 12:05:28.66	163.81	7.24	-46.0	-50.8	10.2	1.14e-02	0	42	0	39845888	63	6285
2026-01-15 12:05:32.63	163.85	7.55	-44.7	-48.4	12.6	1.80e-04	0	42	0	61865984	61	5389
2026-01-15 12:05:36.61	163.89	7.87	-43.7	-46.8	14.1	1.57e-02	0	42	0	83886080	59	5041
2026-01-15 12:05:40.58	163.92	8.19	-43.7	-46.8	14.1	2.20e-06	0	42	0	106954752	59	5028
2026-01-15 12:05:44.55	163.96	8.51	-45.1	-49.1	11.9	4.34e-04	0	42	0	128974848	60	6187
2026-01-15 12:05:48.52	164.00	8.84	-47.4	-54.8	6.2	2.00e-01	0	42	0	150994944	65	8964
2026-01-15 12:05:52.49	164.04	9.18	-45.4	-50.0	11.0	8.68e-03	0	43	0	159383552	62	6113
2026-01-15 12:05:56.46	164.08	9.51	-43.9	-47.0	14.1	1.10e-06	0	42	0	171966464	59	5111
2026-01-15 12:06:00.44	164.12	9.86	-43.0	-45.5	15.6	0.00e+00	0	43	0	193986560	58	4549
2026-01-15 12:06:04.41	164.16	10.20	-41.6	-43.8	17.0	0.00e+00	0	43	0	216006656	55	4476
2026-01-15 12:06:08.38	164.20	10.56	-41.7	-43.9	17.0	0.00e+00	0	43	0	239075328	55	4518
2026-01-15 12:06:12.35	164.25	10.91	-41.5	-43.7	17.2	0.00e+00	0	43	0	261095424	54	4655
2026-01-15 12:06:16.32	164.29	11.28	-41.4	-43.5	17.3	0.00e+00	0	43	0	283115520	54	4572
2026-01-15 12:06:20.30	164.33	11.64	-41.4	-43.6	17.3	0.00e+00	0	43	0	306184192	54	4606
2026-01-15 12:06:24.27	164.38	12.02	-41.2	-43.4	17.5	0.00e+00	0	43	0	328204288	54	4507
2026-01-15 12:06:28.24	164.42	12.40	-41.1	-43.2	17.7	9.06e-03	0	43	0	350224384	54	4420
2026-01-15 12:06:32.21	164.47	12.78	-41.0	-43.1	17.7	0.00e+00	0	43	0	372244480	53	4637
2026-01-15 12:06:36.18	164.52	13.17	-40.8	-42.9	18.0	0.00e+00	0	43	0	395313152	53	4495
2026-01-15 12:06:40.15	164.57	13.57	-40.5	-42.5	18.3	0.00e+00	0	43	0	417333248	52	4572
2026-01-15 12:06:44.13	164.62	13.98	-40.3	-42.3	18.5	0.00e+00	0	43	0	440401920	52	4460
2026-01-15 12:06:48.10	164.67	14.39	-40.3	-42.2	18.6	0.00e+00	0	43	0	462422016	52	4439
2026-01-15 12:06:52.07	164.72	14.81	-40.1	-42.0	18.8	0.00e+00	0	43	0	484442112	52	4335
2026-01-15 12:06:56.04	164.78	15.23	-40.0	-41.9	18.9	0.00e+00	0	43	0	506462208	52	4290
2026-01-15 12:07:00.02	164.83	15.67	-40.0	-41.9	18.9	0.00e+00	0	43	0	529530880	51	4538
2026-01-15 12:07:03.99	164.89	16.11	-39.9	-41.9	19.0	0.00e+00	0	43	0	551550976	51	4504
2026-01-15 12:07:07.96	164.94	16.56	-39.8	-41.7	19.1	0.00e+00	0	43	0	573571072	51	4433
2026-01-15 12:07:11.93	165.00	17.02	-39.8	-41.8	19.0	0.00e+00	0	43	0	596639744	51	4471
2026-01-15 12:07:15.90	165.06	17.48	-39.8	-41.7	19.1	0.00e+00	0	43	0	618659840	51	4430
2026-01-15 12:07:19.88	165.12	17.96	-39.6	-41.5	19.3	0.00e+00	0	43	0	640679936	51	4324
2026-01-15 12:07:23.85	165.19	18.44	-39.7	-41.6	19.3	0.00e+00	0	43	0	663748608	51	4368
2026-01-15 12:07:27.82	165.25	18.94	-39.3	-41.2	19.7	0.00e+00	0	43	0	685768704	50	4393
2026-01-15 12:07:31.79	165.32	19.44	-39.1	-41.0	19.8	0.00e+00	0	43	0	707788800	50	4318
2026-01-15 12:07:35.76	165.39	19.96	-39.0	-40.9	19.9	0.00e+00	0	43	0	729808896	50	4268
2026-01-15 12:07:39.73	165.46	20.49	-39.1	-41.0	19.8	0.00e+00	0	43	0	752877568	50	4296
2026-01-15 12:07:43.70	165.53	21.02	-38.9	-40.8	19.9	0.00e+00	0	43	0	774897664	49	4472
2026-01-15 12:07:47.68	165.61	21.57	-38.9	-40.8	20.0	0.00e+00	0	43	0	796917760	49	4443
2026-01-15 12:07:51.65	165.68	22.14	-38.8	-40.7	20.0	0.00e+00	0	43	0	819986432	49	4409
2026-01-15 12:07:55.62	165.76	22.71	-38.7	-40.5	20.2	0.00e+00	0	43	0	842006528	49	4333
2026-01-15 12:07:59.59	165.85	23.30	-38.5	-40.3	20.4	0.00e+00	0	43	0	864026624	48	4473
2026-01-15 12:08:03.56	165.93	23.90	-38.5	-40.3	20.4	0.00e+00	0	43	0	887095296	48	4490
2026-01-15 12:08:07.53	166.02	24.51	-38.5	-40.3	20.4	0.00e+00	0	43	0	909115392	48	4473
2026-01-15 12:08:11.50	166.11	25.14	-38.5	-40.3	20.4	0.00e+00	0	44	0	931135488	48	4485
2026-01-15 12:08:15.47	166.20	25.79	-38.6	-40.4	20.3	0.00e+00	0	44	0	954204160	48	4533
2026-01-15 12:08:19.44	166.30	26.45	-38.4	-40.2	20.4	0.00e+00	0	44	0	976224256	48	4427
2026-01-15 12:08:23.41	166.40	27.13	-38.3	-40.1	20.5	0.00e+00	0	43	0	998244352	48	4382
2026-01-15 12:08:27.39	166.51	27.82	-38.2	-40.0	20.6	0.00e+00	0	43	0	1020264448	48	4322
2026-01-15 12:08:31.36	166.61	28.54	-38.3	-40.2	20.5	0.00e+00	0	44	0	1043333120	48	4402
2026-01-15 12:08:35.33	166.73	29.27	-38.5	-40.4	20.3	0.00e+00	0	43	0	1065353216	48	4499
2026-01-15 12:08:39.30	166.85	30.02	-38.4	-40.2	20.4	0.00e+00	0	44	0	1087373312	48	4440
2026-01-15 12:08:43.27	166.97	30.79	-38.5	-40.4	20.3	0.00e+00	0	43	0	1110441984	48	4504
2026-01-15 12:08:47.24	167.10	31.58	-38.1	-39.9	20.7	0.00e+00	0	44	0	1132462080	48	4286
2026-01-15 12:08:51.22	167.23	32.40	-37.7	-39.4	20.8	0.00e+00	0	44	0	1154482176	47	4290
2026-01-15 12:08:55.19	167.37	33.23	-37.9	-39.7	20.6	0.00e+00	0	44	0	1177550848	47	4419
2026-01-15 12:08:59.16	167.52	34.09	-38.0	-39.8	20.6	0.00e+00	0	43	0	1199570944	47	4483
2026-01-15 12:09:03.13	167.68	34.98	-37.8	-39.6	20.7	0.00e+00	0	44	0	1221591040	47	4386
2026-01-15 12:09:07.10	167.84	35.89	-37.8	-39.6	20.8	0.00e+00	0	43	0	1243611136	47	4366
2026-01-15 12:09:11.07	168.01	36.82	-37.5	-39.2	21.1	0.00e+00	0	44	0	1266679808	46	4434
2026-01-15 12:09:15.05	168.20	37.79	-37.7	-39.5	20.9	0.00e+00	0	43	0	1288699904	46	4559
2026-01-15 12:09:19.02	168.39	38.78	-37.6	-39.4	20.9	0.00e+00	0	44	0	1311768576	46	4530
2026-01-15 12:09:22.99	168.59	39.80	-37.8	-39.6	20.8	0.00e+00	0	44	0	1333788672	46	4635
2026-01-15 12:09:26.96	168.81	40.85	-38.2	-40.1	20.4	0.00e+00	0	43	0	1355808768	47	4608
2026-01-15 12:09:30.93	169.04	41.93	-38.0	-39.8	20.6	0.00e+00	0	43	0	1377828864	47	4482
2026-01-15 12:09:34.90	169.28	43.04	-38.0	-39.8	20.7	0.00e+00	0	43	0	1400897536	47	4465
2026-01-15 12:09:38.87	169.54	44.19	-38.3	-40.1	20.5	0.00e+00	0	43	0	1422917632	47	4607
2026-01-15 12:09:42.84	169.82	45.37	-38.2	-40.1	20.5	0.00e+00	0	44	0	1444937728	47	4614
2026-01-15 12:09:46.82	170.13	46.59	-38.4	-40.2	20.3	0.00e+00	0	44	0	1466957824	47	4700
2026-01-15 12:09:50.79	170.45	47.84	-38.3	-40.1	20.5	0.00e+00	0	44	0	1490026496	47	4619
2026-01-15 12:09:54.76	170.80	49.13	-37.9	-39.6	20.9	0.00e+00	0	44	0	1512046592	47	4386
2026-01-15 12:09:58.73	171.19	50.46	-38.8	-40.6	20.3	0.00e+00	0	44	0	1534066688	48	4611
2026-01-15 12:10:02.70	171.60	51.82	-39.0	-40.9	20.1	0.00e+00	0	43	0	1557135360	48	4765
2026-01-15 12:10:06.67	172.06	53.23	-39.0	-40.8	20.1	0.00e+00	0	44	0	1579155456	49	4465
2026-01-15 12:10:10.64	172.56	54.67	-39.9	-41.8	19.2	0.00e+00	0	44	0	1601175552	50	4755
2026-01-15 12:10:14.62	173.11	56.15	-39.3	-41.2	19.8	0.00e+00	0	44	0	1624244224	50	4404
2026-01-15 12:10:18.59	173.73	57.66	-39.0	-40.8	20.1	0.00e+00	0	44	0	1646264320	50	4229
2026-01-15 12:10:22.56	174.42	59.22	-38.5	-40.3	20.6	0.00e+00	0	44	0	1668284416	48	4447
2026-01-15 12:10:26.53	175.19	60.81	-38.2	-40.0	20.9	0.00e+00	0	44	0	1691353088	48	4298
2026-01-15 12:10:30.50	176.07	62.43	-37.8	-39.5	21.0	0.00e+00	0	44	0	1713373184	47	4327
2026-01-15 12:10:34.47	177.07	64.09	-37.3	-39.0	21.3	0.00e+00	0	43	0	1735393280	46	4340
2026-01-15 12:10:38.44	178.22	65.78	-37.7	-39.5	20.9	0.00e+00	0	43	0	1757413376	46	4582
2026-01-15 12:10:42.41	179.57	67.49	-37.3	-39.1	21.2	0.00e+00	0	44	0	1780482048	46	4360
2026-01-15 12:10:46.38	181.16	69.23	-37.1	-38.8	21.4	0.00e+00	0	44	0	1802502144	45	4487
2026-01-15 12:10:50.35	183.06	70.98	-37.1	-38.9	21.4	0.00e+00	0	43	0	1824522240	45	4500
2026-01-15 12:10:54.32	185.38	72.73	-36.6	-38.3	21.8	0.00e+00	0	44	0	1847590912	45	4225
2026-01-15 12:10:58.29	188.24	74.49	-36.3	-38.0	22.1	0.00e+00	0	44	0	1869611008	44	4298
2026-01-15 12:11:02.27	191.87	76.22	-36.1	-37.8	22.2	0.00e+00	0	44	0	1891631104	44	4201
2026-01-15 12:11:06.24	196.54	77.90	-35.5	-37.2	22.5	0.00e+00	0	44	0	1914699776	43	4155
2026-01-15 12:11:10.21	202.71	79.49	-35.3	-37.0	22.7	0.00e+00	0	44	0	1936719872	42	4302
2026-01-15 12:11:14.18	211.00	80.94	-35.3	-36.9	22.7	0.00e+00	0	44	0	1958739968	42	4290
2026-01-15 12:11:18.15	222.16	82.14	-34.9	-36.6	22.9	0.00e+00	0	44	0	1980760064	41	4353
2026-01-15 12:11:22.12	236.59	82.95	-35.3	-37.0	22.7	0.00e+00	0	44	0	2003828736	41	4557
2026-01-15 12:11:26.10	253.48	83.23	-35.2	-36.9	22.7	0.00e+00	0	44	0	2025848832	41	4540
2026-01-15 12:11:30.07	270.24	82.92	-34.9	-36.6	22.9	0.00e+00	0	44	0	2048917504	41	4343
2026-01-15 12:11:34.04	284.48	82.07	-35.0	-36.7	22.8	0.00e+00	0	44	0	2070937600	41	4423
2026-01-15 12:11:38.01	295.44	80.86	-35.0	-36.7	22.9	0.00e+00	0	44	0	2092957696	41	4406
2026-01-15 12:11:41.98	303.58	79.40	-35.0	-36.7	22.8	0.00e+00	0	44	0	2114977792	41	4420
2026-01-15 12:11:45.95	309.64	77.81	-35.8	-37.5	22.2	0.00e+00	0	44	0	2138046464	42	4582
2026-01-15 12:11:49.93	314.25	76.12	-36.0	-37.7	22.2	0.00e+00	0	43	0	2160066560	42	4682
2026-01-15 12:11:53.90	317.82	74.39	-36.5	-38.2	21.8	0.00e+00	0	44	0	2182086656	43	4704
2026-01-15 12:11:57.87	320.64	72.64	-36.6	-38.3	21.8	0.00e+00	0	44	0	2205155328	44	4485
2026-01-15 12:12:01.85	322.93	70.88	-36.7	-38.4	21.8	0.00e+00	0	43	0	2227175424	44	4542
2026-01-15 12:12:05.82	324.81	69.14	-36.9	-38.7	21.6	0.00e+00	0	44	0	2249195520	44	4659
2026-01-15 12:12:09.79	326.39	67.41	-37.1	-38.9	21.5	0.00e+00	0	44	0	2272264192	45	4505
2026-01-15 12:12:13.76	327.72	65.70	-36.9	-38.6	21.6	0.00e+00	0	44	0	2294284288	45	4388
2026-01-15 12:12:17.73	328.87	64.02	-37.4	-39.2	21.2	0.00e+00	0	44	0	2316304384	45	4677
2026-01-15 12:12:21.71	329.86	62.36	-37.8	-39.7	20.9	0.00e+00	0	44	0	2338324480	46	4656
2026-01-15 12:12:25.68	330.73	60.74	-37.7	-39.5	21.0	0.00e+00	0	44	0	2361393152	46	4548
2026-01-15 12:12:29.65	331.50	59.16	-38.0	-39.8	20.8	0.00e+00	0	43	0	2383413248	46	4706
2026-01-15 12:12:33.62	332.18	57.61	-38.5	-40.3	20.3	0.00e+00	0	44	0	2405433344	47	4749
2026-01-15 12:12:37.59	332.79	56.11	-38.9	-40.8	20.2	0.00e+00	0	44	0	2428502016	48	4727
2026-01-15 12:12:41.57	333.35	54.63	-38.8	-40.6	20.3	0.00e+00	0	44	0	2450522112	48	4636
2026-01-15 12:12:45.54	333.85	53.20	-38.9	-40.6	20.5	0.00e+00	0	44	0	2472542208	48	4649
2026-01-15 12:12:49.51	334.30	51.80	-39.1	-40.9	20.3	0.00e+00	0	44	0	2494562304	49	4503
2026-01-15 12:12:53.48	334.71	50.44	-38.5	-40.2	20.8	0.00e+00	0	44	0	2517630976	49	4175
2026-01-15 12:12:57.45	335.10	49.13	-38.2	-39.9	21.1	0.00e+00	0	44	0	2539651072	48	4281
2026-01-15 12:13:01.42	335.45	47.84	-37.9	-39.6	21.1	0.00e+00	0	44	0	2562719744	47	4384
2026-01-15 12:13:05.40	335.77	46.59	-38.0	-39.8	21.0	0.00e+00	0	44	0	2584739840	47	4452
2026-01-15 12:13:09.37	336.07	45.38	-37.8	-39.5	21.2	0.00e+00	0	44	0	2606759936	47	4327
2026-01-15 12:13:13.34	336.35	44.21	-37.7	-39.4	21.4	0.00e+00	0	44	0	2628780032	47	4243
2026-01-15 12:13:17.31	336.62	43.07	-37.6	-39.4	21.4	0.00e+00	0	44	0	2651848704	47	4244
2026-01-15 12:13:21.29	336.86	41.96	-37.7	-39.4	21.3	0.00e+00	0	44	0	2673868800	47	4281
2026-01-15 12:13:25.26	337.09	40.88	-37.6	-39.3	21.4	0.00e+00	0	44	0	2695888896	47	4197
2026-01-15 12:13:29.23	337.31	39.84	-37.4	-39.1	21.5	0.00e+00	0	44	0	2718957568	46	4390
2026-01-15 12:13:33.20	337.51	38.82	-37.4	-39.1	21.5	0.00e+00	0	44	0	2740977664	46	4361
2026-01-15 12:13:37.17	337.71	37.83	-37.3	-39.0	21.6	0.00e+00	0	44	0	2762997760	46	4335
2026-01-15 12:13:41.15	337.89	36.87	-37.3	-39.0	21.6	0.00e+00	0	44	0	2786066432	46	4329
2026-01-15 12:13:45.12	338.06	35.94	-37.5	-39.2	21.5	0.00e+00	0	44	0	2808086528	46	4405
2026-01-15 12:13:49.09	338.23	35.04	-37.8	-39.5	21.2	0.00e+00	0	44	0	2830106624	46	4570
2026-01-15 12:13:53.06	338.38	34.16	-37.6	-39.4	21.3	0.00e+00	0	44	0	2852126720	46	4498
2026-01-15 12:13:57.03	338.53	33.30	-37.5	-39.2	21.5	0.00e+00	0	44	0	2875195392	46	4394
2026-01-15 12:14:01.00	338.68	32.47	-37.6	-39.3	21.3	0.00e+00	0	44	0	2897215488	46	4492
2026-01-15 12:14:04.98	338.81	31.66	-37.8	-39.6	21.1	0.00e+00	0	44	0	2919235584	46	4612
2026-01-15 12:14:08.95	338.94	30.87	-38.0	-39.7	21.0	0.00e+00	0	43	0	2942304256	46	4699
2026-01-15 12:14:12.92	339.07	30.10	-38.0	-39.7	21.0	0.00e+00	0	43	0	2964324352	46	4675
2026-01-15 12:14:16.89	339.19	29.36	-37.8	-39.6	21.1	0.00e+00	0	43	0	2986344448	46	4602
2026-01-15 12:14:20.86	339.30	28.63	-37.8	-39.6	21.1	0.00e+00	0	44	0	3008364544	46	4604
2026-01-15 12:14:24.83	339.41	27.92	-37.8	-39.6	21.1	0.00e+00	0	44	0	3031433216	46	4621
2026-01-15 12:14:28.80	339.52	27.23	-37.7	-39.4	21.2	0.00e+00	0	44	0	3053453312	46	4528
2026-01-15 12:14:32.77	339.62	26.55	-37.7	-39.3	21.2	0.00e+00	0	44	0	3076521984	46	4487
2026-01-15 12:14:36.75	339.72	25.89	-37.7	-39.4	21.2	0.00e+00	0	44	0	3098542080	46	4518
2026-01-15 12:14:40.72	339.82	25.25	-37.9	-39.6	21.0	0.00e+00	0	44	0	3120562176	46	4645
2026-01-15 12:14:44.69	339.91	24.63	-38.2	-40.0	20.8	0.00e+00	0	44	0	3142582272	47	4550
2026-01-15 12:14:48.66	340.00	24.01	-38.4	-40.3	20.5	0.00e+00	0	44	0	3165650944	47	4706
2026-01-15 12:14:52.63	340.09	23.41	-38.5	-40.3	20.4	0.00e+00	0	43	0	3187671040	47	4748
2026-01-15 12:14:56.60	340.17	22.83	-38.7	-40.5	20.3	0.00e+00	0	44	0	3209691136	47	4825
2026-01-15 12:15:00.57	340.26	22.26	-38.7	-40.5	20.4	0.00e+00	0	44	0	3232759808	48	4575
2026-01-15 12:15:04.55	340.34	21.70	-38.8	-40.7	20.3	0.00e+00	0	44	0	3254779904	48	4653
2026-01-15 12:15:08.52	340.41	21.15	-38.8	-40.7	20.3	0.00e+00	0	44	0	3276800000	48	4681
2026-01-15 12:15:12.49	340.49	20.62	-38.9	-40.8	20.2	0.00e+00	0	44	0	3299868672	48	4710
2026-01-15 12:15:16.46	340.56	20.09	-39.0	-40.8	20.2	0.00e+00	0	44	0	3321888768	48	4712
2026-01-15 12:15:20.43	340.63	19.58	-39.1	-40.9	20.1	0.00e+00	0	44	0	3343908864	48	4788
2026-01-15 12:15:24.41	340.70	19.07	-39.2	-41.0	20.0	0.00e+00	0	44	0	3365928960	49	4597
2026-01-15 12:15:28.38	340.77	18.58	-39.3	-41.1	19.9	0.00e+00	0	44	0	3388997632	49	4643
2026-01-15 12:15:32.35	340.84	18.10	-39.5	-41.4	19.7	0.00e+00	0	44	0	3411017728	49	4769
2026-01-15 12:15:36.32	340.90	17.62	-39.7	-41.5	19.5	0.00e+00	0	44	0	3434086400	50	4580
2026-01-15 12:15:40.29	340.97	17.16	-39.9	-41.8	19.3	0.00e+00	0	44	0	3456106496	50	4709
2026-01-15 12:15:44.26	341.03	16.70	-40.0	-41.9	19.2	0.00e+00	0	44	0	3478126592	50	4799
2026-01-15 12:15:48.23	341.09	16.25	-40.2	-42.1	19.0	0.00e+00	0	44	0	3500146688	51	4614
2026-01-15 12:15:52.20	341.15	15.82	-40.2	-42.2	18.9	0.00e+00	0	44	0	3523215360	51	4686
2026-01-15 12:15:56.18	341.20	15.38	-40.4	-42.4	18.7	0.00e+00	0	44	0	3545235456	51	4785
2026-01-15 12:16:00.15	341.26	14.96	-40.4	-42.4	18.7	0.00e+00	0	44	0	3567255552	51	4814
2026-01-15 12:16:04.12	341.32	14.54	-40.5	-42.5	18.6	0.00e+00	0	44	0	3590324224	51	4845
2026-01-15 12:16:08.09	341.37	14.13	-40.6	-42.6	18.4	0.00e+00	0	44	0	3612344320	51	4916
2026-01-15 12:16:12.06	341.42	13.73	-40.5	-42.7	18.4	0.00e+00	0	44	0	3634364416	51	4928
2026-01-15 12:16:16.03	341.48	13.33	-40.7	-42.9	18.2	0.00e+00	0	44	0	3656384512	51	5055
2026-01-15 12:16:20.01	341.53	12.94	-40.5	-42.8	18.3	0.00e+00	0	44	0	3679453184	51	4995
2026-01-15 12:16:23.98	341.58	12.56	-40.5	-42.8	18.2	0.00e+00	0	44	0	3701473280	51	5028
2026-01-15 12:16:27.95	341.63	12.18	-40.5	-42.8	18.2	0.00e+00	0	44	0	3723493376	51	5012
2026-01-15 12:16:31.92	341.68	11.81	-40.6	-42.9	18.1	0.00e+00	0	44	0	3746562048	52	4768
2026-01-15 12:16:35.89	341.73	11.44	-40.7	-42.9	18.0	0.00e+00	0	44	0	3768582144	52	4807
2026-01-15 12:16:39.87	341.77	11.08	-40.9	-43.0	17.9	0.00e+00	0	44	0	3790602240	52	4869
2026-01-15 12:16:43.84	341.82	10.72	-41.1	-43.2	17.7	0.00e+00	0	44	0	3813670912	52	4965
2026-01-15 12:16:47.81	341.87	10.37	-41.0	-43.2	17.7	0.00e+00	0	44	0	3835691008	52	4936
2026-01-15 12:16:51.78	341.91	10.02	-41.1	-43.3	17.6	0.00e+00	0	44	0	3857711104	52	5035
2026-01-15 12:16:55.75	341.96	9.68	-41.1	-43.4	17.5	0.00e+00	0	44	0	3879731200	52	5063
2026-01-15 12:16:59.72	342.00	9.35	-41.2	-43.5	17.4	0.00e+00	0	44	0	3902799872	52	5136
2026-01-15 12:17:03.69	342.04	9.01	-43.3	-46.0	15.5	0.00e+00	0	44	0	3924819968	56	5408
2026-01-15 12:17:07.67	342.09	8.69	-49.9	-62.9	3.8	8.47e-01	0	44	104	3925868544	71	15967
2026-01-15 12:17:11.64	342.13	8.36	-50.7	-63.0	3.8	8.46e-01	0	44	104	3925868544	71	16266
2026-01-15 12:17:15.61	342.17	8.04	-51.0	-63.1	3.8	8.47e-01	0	44	104	3925868544	72	15507
2026-01-15 12:17:19.58	342.21	7.73	-51.0	-63.1	3.8	8.47e-01	0	44	104	3925868544	72	15564
2026-01-15 12:17:23.56	342.25	7.42	-51.0	-63.2	3.8	8.47e-01	0	44	104	3925868544	72	15593
2026-01-15 12:17:27.53	342.29	7.11	-50.8	-63.1	3.8	8.47e-01	0	44	104	3925868544	72	15505
2026-01-15 12:17:31.50	342.33	6.80	-50.7	-63.1	3.8	8.48e-01	0	44	104	3925868544	72	15484
2026-01-15 12:17:35.45	342.37	6.51	-50.7	-63.1	3.8	8.47e-01	0	44	104	3925868544	72	15524
2026-01-15 12:17:39.43	342.41	6.21	-50.7	-63.1	3.8	8.48e-01	0	44	104	3925868544	72	15491
2026-01-15 12:17:43.40	342.45	5.91	-50.7	-63.1	3.8	8.47e-01	0	44	104	3925868544	72	15463
2026-01-15 12:17:47.37	342.49	5.62	-50.7	-63.1	3.8	8.48e-01	0	44	104	3925868544	72	15489
2026-01-15 12:17:51.34	342.52	5.34	-50.7	-63.1	3.8	8.46e-01	0	44	104	3925868544	72	15435
2026-01-15 12:17:55.32	342.56	5.05	-50.7	-63.1	3.8	8.47e-01	0	44	104	3925868544	72	15428

#Closed at: 2026-01-15 12:17:57
#Recorded file [3925 MB]: D:/Data/31040_260115_150500.dat