passes_logs/2026/01/15/T1/T1__20260115_134954_FENGYUN_3E_rec.log

#Pass ID: 20260115_134954_FENGYUN 3E
#Satellite: FENGYUN 3E
#Configuration: FENGYUN 3E
#almurnet v.1.7.20251203
#Start time: 2026-01-15 13:49:53

#Version: 2.0.20230620
#Station: T1
#Location: 37.570604 lon 55.790049 lat
#TLE: 1 49008U 21062A   26014.58289545 -.00000120  00000+0 -35876-4 0  9998
#TLE: 2 49008  98.7488  19.7165 0002000 137.1107 223.0226 14.19884293234788

#Time	Az	El	Level	Level2	SNR	BER	BlckErr	Temp	State	Recorded	gain1	gain2
2026-01-15 13:49:53.63	148.48	4.97	-50.5	-61.1	3.8	8.47e-01	0	38	0	0	71	12131
2026-01-15 13:49:57.59	148.40	5.25	-50.5	-61.2	3.8	8.47e-01	0	39	104	0	71	12254
2026-01-15 13:50:01.56	148.33	5.54	-50.5	-61.0	3.8	8.47e-01	0	39	104	0	71	12073
2026-01-15 13:50:05.54	148.25	5.83	-50.3	-59.9	3.8	8.47e-01	0	39	104	0	71	10535
2026-01-15 13:50:09.51	148.17	6.12	-50.2	-58.7	4.0	8.45e-01	0	39	104	0	71	9219
2026-01-15 13:50:13.48	148.08	6.42	-50.0	-57.9	4.2	8.39e-01	0	40	0	0	70	8871
2026-01-15 13:50:17.45	148.00	6.72	-49.5	-55.6	5.1	7.79e-01	0	40	0	0	69	7260
2026-01-15 13:50:21.43	147.91	7.02	-48.2	-52.3	7.6	1.11e-01	0	40	0	19922944	67	5533
2026-01-15 13:50:25.40	147.82	7.33	-46.2	-48.7	11.3	1.39e-03	0	40	0	48234496	63	4628
2026-01-15 13:50:29.37	147.73	7.64	-44.0	-45.7	14.3	2.20e-06	0	40	0	76546048	58	4361
2026-01-15 13:50:33.34	147.64	7.95	-42.6	-44.0	16.0	6.13e-04	0	40	0	105906176	56	4044
2026-01-15 13:50:37.31	147.55	8.27	-43.4	-45.0	15.0	0.00e+00	0	40	0	134217728	56	4509
2026-01-15 13:50:41.29	147.45	8.59	-46.2	-48.7	11.3	6.50e-04	0	40	0	162529280	61	5197
2026-01-15 13:50:45.26	147.35	8.92	-49.8	-56.7	4.5	8.08e-01	0	40	0	186646528	68	8757
2026-01-15 13:50:49.23	147.25	9.25	-47.4	-50.7	9.4	8.18e-04	0	40	0	190840832	64	5483
2026-01-15 13:50:53.20	147.14	9.59	-46.5	-49.1	11.0	2.09e-03	0	40	0	207618048	63	4863
2026-01-15 13:50:57.17	147.03	9.93	-42.7	-44.1	16.0	0.00e+00	0	41	0	235929600	56	4093
2026-01-15 13:51:01.15	146.92	10.27	-41.6	-42.9	17.1	0.00e+00	0	41	0	265289728	53	4213
2026-01-15 13:51:05.12	146.81	10.62	-41.5	-42.7	17.3	1.10e-06	0	41	0	293601280	53	4124
2026-01-15 13:51:09.09	146.69	10.97	-41.3	-42.5	17.3	0.00e+00	0	41	0	322961408	53	4015
2026-01-15 13:51:13.06	146.57	11.33	-41.1	-42.2	17.3	0.00e+00	0	41	0	351272960	52	4142
2026-01-15 13:51:17.03	146.45	11.70	-41.0	-42.2	17.8	0.00e+00	0	41	0	379584512	52	4110
2026-01-15 13:51:21.00	146.33	12.07	-40.9	-42.0	17.9	0.00e+00	0	41	0	408944640	52	4051
2026-01-15 13:51:24.97	146.20	12.44	-40.7	-41.9	18.2	0.00e+00	0	41	0	437256192	52	3962
2026-01-15 13:51:28.95	146.06	12.82	-40.8	-41.9	18.1	0.00e+00	0	41	0	465567744	52	3984
2026-01-15 13:51:32.92	145.93	13.21	-40.7	-41.8	18.4	0.00e+00	0	41	0	494927872	51	4151
2026-01-15 13:51:36.89	145.79	13.60	-40.5	-41.6	18.5	0.00e+00	0	41	0	523239424	51	4084
2026-01-15 13:51:40.86	145.64	14.00	-40.6	-41.7	18.4	0.00e+00	0	41	0	551550976	51	4122
2026-01-15 13:51:44.83	145.49	14.41	-40.3	-41.4	18.7	0.00e+00	0	41	0	580911104	51	3990
2026-01-15 13:51:48.80	145.34	14.82	-40.1	-41.2	18.9	0.00e+00	0	41	0	609222656	51	3890
2026-01-15 13:51:52.78	145.18	15.24	-40.2	-41.3	18.9	0.00e+00	0	41	0	638582784	50	4150
2026-01-15 13:51:56.75	145.02	15.67	-40.0	-41.1	19.1	0.00e+00	0	41	0	666894336	50	4053
2026-01-15 13:52:00.72	144.85	16.10	-40.0	-41.0	19.1	0.00e+00	0	41	0	695205888	50	4020
2026-01-15 13:52:04.69	144.68	16.54	-39.6	-40.6	19.5	0.00e+00	0	41	0	723517440	49	4085
2026-01-15 13:52:08.66	144.50	16.99	-39.5	-40.5	19.6	0.00e+00	0	41	0	752877568	49	4034
2026-01-15 13:52:12.63	144.31	17.45	-39.6	-40.6	19.5	0.00e+00	0	41	0	781189120	49	4057
2026-01-15 13:52:16.60	144.12	17.91	-39.5	-40.5	19.6	0.00e+00	0	41	0	809500672	49	4049
2026-01-15 13:52:20.58	143.93	18.39	-39.4	-40.4	19.7	0.00e+00	0	41	0	838860800	49	3977
2026-01-15 13:52:24.55	143.72	18.87	-39.5	-40.5	19.6	0.00e+00	0	41	0	867172352	49	4046
2026-01-15 13:52:28.52	143.51	19.36	-39.4	-40.4	19.7	0.00e+00	0	41	0	895483904	49	3985
2026-01-15 13:52:32.49	143.29	19.86	-39.5	-40.6	19.6	0.00e+00	0	41	0	924844032	49	4052
2026-01-15 13:52:36.46	143.07	20.37	-39.5	-40.5	19.6	0.00e+00	0	41	0	953155584	49	4025
2026-01-15 13:52:40.43	142.83	20.90	-39.5	-40.5	19.6	0.00e+00	0	41	0	982515712	49	4032
2026-01-15 13:52:44.40	142.59	21.43	-39.1	-40.0	20.1	0.00e+00	0	41	0	1010827264	48	4041
2026-01-15 13:52:48.37	142.34	21.97	-38.8	-39.7	20.3	0.00e+00	0	41	0	1039138816	48	3908
2026-01-15 13:52:52.35	142.08	22.53	-38.6	-39.6	20.5	0.00e+00	0	41	0	1068498944	48	3835
2026-01-15 13:52:56.32	141.81	23.09	-38.5	-39.5	20.3	0.00e+00	0	41	0	1096810496	47	4031
2026-01-15 13:53:00.29	141.53	23.67	-38.5	-39.4	20.4	0.00e+00	0	41	0	1125122048	47	3991
2026-01-15 13:53:04.26	141.24	24.26	-38.3	-39.3	20.5	0.00e+00	0	41	0	1153433600	47	3928
2026-01-15 13:53:08.24	140.93	24.86	-38.4	-39.3	20.5	0.00e+00	0	41	0	1182793728	47	3955
2026-01-15 13:53:12.21	140.62	25.48	-38.5	-39.5	20.4	0.00e+00	0	41	0	1211105280	47	4013
2026-01-15 13:53:16.18	140.29	26.11	-38.4	-39.3	20.5	0.00e+00	0	41	0	1240465408	47	3929
2026-01-15 13:53:20.15	139.95	26.75	-38.5	-39.4	20.4	0.00e+00	0	41	0	1268776960	47	3991
2026-01-15 13:53:24.12	139.59	27.41	-38.5	-39.5	20.4	0.00e+00	0	41	0	1297088512	47	4018
2026-01-15 13:53:28.09	139.22	28.08	-38.4	-39.3	20.6	0.00e+00	0	41	0	1326448640	47	3924
2026-01-15 13:53:32.07	138.83	28.77	-38.2	-39.1	20.8	0.00e+00	0	41	0	1354760192	46	4064
2026-01-15 13:53:36.04	138.42	29.48	-38.0	-38.9	20.9	0.00e+00	0	41	0	1383071744	46	3997
2026-01-15 13:53:40.01	137.99	30.20	-38.0	-39.0	20.9	0.00e+00	0	41	0	1412431872	46	4005
2026-01-15 13:53:43.98	137.55	30.93	-37.9	-38.8	20.9	0.00e+00	0	41	0	1440743424	46	3958
2026-01-15 13:53:47.95	137.08	31.69	-38.0	-38.9	20.9	0.00e+00	0	41	0	1469054976	46	3977
2026-01-15 13:53:51.92	136.59	32.46	-38.0	-38.9	20.9	0.00e+00	0	41	0	1497366528	46	4000
2026-01-15 13:53:55.89	136.07	33.25	-38.4	-39.4	20.5	0.00e+00	0	41	0	1526726656	46	4203
2026-01-15 13:53:59.87	135.53	34.05	-38.3	-39.2	20.6	0.00e+00	0	41	0	1555038208	46	4134
2026-01-15 13:54:03.83	134.96	34.88	-38.3	-39.3	20.6	0.00e+00	0	41	0	1584398336	46	4156
2026-01-15 13:54:07.81	134.36	35.72	-38.2	-39.1	20.7	0.00e+00	0	41	0	1612709888	46	4080
2026-01-15 13:54:11.78	133.73	36.59	-38.1	-39.0	20.8	0.00e+00	0	41	0	1641021440	46	4045
2026-01-15 13:54:15.75	133.06	37.47	-38.0	-38.9	20.9	0.00e+00	0	41	0	1670381568	46	3996
2026-01-15 13:54:19.72	132.35	38.37	-38.1	-39.0	20.9	0.00e+00	0	41	0	1698693120	46	4020
2026-01-15 13:54:23.69	131.60	39.29	-38.4	-39.4	20.5	0.00e+00	0	41	0	1727004672	46	4207
2026-01-15 13:54:27.66	130.81	40.23	-38.8	-39.8	20.2	0.00e+00	0	41	0	1756364800	47	4146
2026-01-15 13:54:31.64	129.97	41.19	-38.4	-39.3	20.6	0.00e+00	0	41	0	1784676352	47	3941
2026-01-15 13:54:35.61	129.08	42.16	-38.0	-38.9	21.0	0.00e+00	0	41	0	1812987904	46	3973
2026-01-15 13:54:39.58	128.13	43.16	-38.3	-39.3	20.6	0.00e+00	0	41	0	1842348032	46	4159
2026-01-15 13:54:43.55	127.12	44.17	-38.7	-39.6	20.3	0.00e+00	0	41	0	1870659584	46	4321
2026-01-15 13:54:47.52	126.04	45.19	-38.6	-39.5	20.4	0.00e+00	0	41	0	1898971136	47	4039
2026-01-15 13:54:51.50	124.88	46.23	-38.5	-39.4	20.5	0.00e+00	0	41	0	1928331264	46	4235
2026-01-15 13:54:55.47	123.65	47.29	-39.2	-40.1	20.1	0.00e+00	0	41	0	1956642816	49	3861
2026-01-15 13:54:59.44	122.33	48.35	-39.5	-40.5	19.8	0.00e+00	0	41	0	1986002944	49	4043
2026-01-15 13:55:03.41	120.91	49.42	-39.3	-40.2	20.1	0.00e+00	0	41	0	2014314496	49	3886
2026-01-15 13:55:07.38	119.40	50.50	-39.5	-40.5	19.9	0.00e+00	0	41	0	2042626048	48	4260
2026-01-15 13:55:11.35	117.76	51.58	-40.4	-41.5	19.0	0.00e+00	0	41	0	2070937600	50	4246
2026-01-15 13:55:15.32	116.01	52.66	-39.2	-40.2	20.1	0.00e+00	0	41	0	2100297728	49	3881
2026-01-15 13:55:19.29	114.12	53.73	-39.3	-40.2	20.1	0.00e+00	0	41	0	2128609280	48	4127
2026-01-15 13:55:23.27	112.08	54.80	-40.0	-41.0	19.5	0.00e+00	0	41	0	2156920832	50	4006
2026-01-15 13:55:27.24	109.89	55.84	-39.3	-40.3	20.1	0.00e+00	0	41	0	2186280960	48	4168
2026-01-15 13:55:31.21	107.53	56.85	-39.4	-40.4	20.0	0.00e+00	0	41	0	2214592512	49	3974
2026-01-15 13:55:35.18	105.00	57.84	-39.1	-40.1	20.2	0.00e+00	0	41	0	2243952640	48	4061
2026-01-15 13:55:39.15	102.27	58.78	-39.7	-40.7	19.7	0.00e+00	0	41	0	2272264192	49	4124
2026-01-15 13:55:43.13	99.34	59.68	-39.7	-40.7	19.7	0.00e+00	0	41	0	2300575744	49	4117
2026-01-15 13:55:47.10	96.22	60.51	-39.8	-40.9	19.5	0.00e+00	0	41	0	2329935872	49	4200
2026-01-15 13:55:51.07	92.89	61.27	-38.8	-39.7	20.6	0.00e+00	0	41	0	2358247424	48	3878
2026-01-15 13:55:55.04	89.36	61.95	-39.4	-40.4	20.0	0.00e+00	0	41	0	2386558976	48	4199
2026-01-15 13:55:59.02	85.64	62.53	-39.0	-40.0	20.3	0.00e+00	0	41	0	2414870528	48	4015
2026-01-15 13:56:02.99	81.76	63.02	-39.4	-40.4	19.9	0.00e+00	0	41	0	2444230656	49	3987
2026-01-15 13:56:06.96	77.74	63.39	-38.9	-39.8	20.2	0.00e+00	0	41	0	2472542208	47	4190
2026-01-15 13:56:10.93	73.61	63.64	-38.4	-39.4	20.6	0.00e+00	0	41	0	2501902336	47	3959
2026-01-15 13:56:14.90	69.42	63.77	-38.7	-39.6	20.7	0.00e+00	0	41	0	2530213888	48	3855
2026-01-15 13:56:18.87	65.20	63.77	-38.4	-39.4	20.5	0.00e+00	0	41	0	2558525440	47	3959
2026-01-15 13:56:22.84	61.00	63.65	-38.6	-39.5	20.5	0.00e+00	0	41	0	2587885568	47	4030
2026-01-15 13:56:26.81	56.87	63.40	-38.9	-39.8	20.2	0.00e+00	0	41	0	2616197120	47	4178
2026-01-15 13:56:30.79	52.83	63.03	-39.0	-40.0	20.1	0.00e+00	0	41	0	2644508672	47	4250
2026-01-15 13:56:34.76	48.95	62.56	-39.2	-40.2	19.9	0.00e+00	0	41	0	2673868800	47	4377
2026-01-15 13:56:38.73	45.23	61.97	-38.8	-39.8	20.3	0.00e+00	0	41	0	2702180352	47	4152
2026-01-15 13:56:42.70	41.70	61.30	-38.9	-39.8	20.2	0.00e+00	0	41	0	2730491904	47	4185
2026-01-15 13:56:46.67	38.37	60.55	-39.3	-40.3	20.0	0.00e+00	0	41	0	2759852032	49	3939
2026-01-15 13:56:50.64	35.24	59.72	-39.8	-40.8	19.6	0.00e+00	0	41	0	2788163584	49	4181
2026-01-15 13:56:54.61	32.32	58.83	-39.6	-40.6	19.8	0.00e+00	0	41	0	2816475136	49	4079
2026-01-15 13:56:58.58	29.59	57.89	-39.7	-40.7	19.7	0.00e+00	0	41	0	2845835264	49	4105
2026-01-15 13:57:02.55	27.04	56.91	-40.0	-41.0	19.4	0.00e+00	0	41	0	2874146816	49	4279
2026-01-15 13:57:06.52	24.68	55.90	-39.8	-40.8	19.7	0.00e+00	0	41	0	2902458368	50	3915
2026-01-15 13:57:10.50	22.48	54.86	-39.7	-40.7	19.7	0.00e+00	0	41	0	2931818496	49	4113
2026-01-15 13:57:14.47	20.45	53.80	-39.1	-40.0	20.3	0.00e+00	0	41	0	2960130048	48	4049
2026-01-15 13:57:18.44	18.55	52.73	-39.8	-40.8	19.6	0.00e+00	0	41	0	2988441600	49	4175
2026-01-15 13:57:22.41	16.80	51.66	-39.8	-40.7	19.7	0.00e+00	0	41	0	3017801728	49	4127
2026-01-15 13:57:26.38	15.16	50.58	-39.6	-40.6	19.8	0.00e+00	0	41	0	3046113280	49	4058
2026-01-15 13:57:30.35	13.64	49.51	-39.7	-40.7	19.7	0.00e+00	0	41	0	3074424832	49	4112
2026-01-15 13:57:34.33	12.22	48.44	-39.7	-40.7	19.7	0.00e+00	0	41	0	3103784960	49	4114
2026-01-15 13:57:38.30	10.90	47.38	-39.1	-40.0	20.3	0.00e+00	0	41	0	3132096512	48	4027
2026-01-15 13:57:42.27	9.67	46.33	-38.7	-39.6	20.6	0.00e+00	0	41	0	3160408064	48	3848
2026-01-15 13:57:46.24	8.52	45.29	-38.7	-39.6	20.6	0.00e+00	0	41	0	3189768192	48	3858
2026-01-15 13:57:50.22	7.43	44.26	-38.5	-39.5	20.5	0.00e+00	0	41	0	3218079744	47	4024
2026-01-15 13:57:54.19	6.42	43.25	-38.3	-39.3	20.7	0.00e+00	0	41	0	3247439872	47	3920
2026-01-15 13:57:58.16	5.47	42.26	-38.6	-39.6	20.2	0.00e+00	0	41	0	3275751424	47	4076
2026-01-15 13:58:02.13	4.58	41.29	-38.5	-39.4	20.5	0.00e+00	0	41	0	3304062976	47	4000
2026-01-15 13:58:06.10	3.74	40.34	-38.6	-39.5	20.4	0.00e+00	0	41	0	3332374528	47	4050
2026-01-15 13:58:10.08	2.94	39.40	-38.5	-39.4	20.5	0.00e+00	0	41	0	3361734656	47	3996
2026-01-15 13:58:14.05	2.20	38.48	-38.1	-39.0	20.9	0.00e+00	0	41	0	3390046208	46	4026
2026-01-15 13:58:18.02	1.49	37.58	-38.3	-39.2	20.7	0.00e+00	0	41	0	3418357760	46	4129
2026-01-15 13:58:21.99	0.82	36.70	-38.1	-39.0	20.8	0.00e+00	0	41	0	3447717888	46	4051
2026-01-15 13:58:25.96	0.19	35.84	-38.3	-39.2	20.7	0.00e+00	0	41	0	3476029440	46	4129
2026-01-15 13:58:29.93	359.59	35.00	-38.0	-39.0	20.9	0.00e+00	0	41	0	3505389568	46	4016
2026-01-15 13:58:33.90	359.02	34.18	-38.0	-38.9	20.8	0.00e+00	0	41	0	3533701120	46	3964
2026-01-15 13:58:37.87	358.48	33.37	-38.3	-39.2	20.6	0.00e+00	0	41	0	3562012672	46	4144
2026-01-15 13:58:41.85	357.96	32.59	-38.3	-39.2	20.7	0.00e+00	0	41	0	3591372800	46	4135
2026-01-15 13:58:45.82	357.47	31.82	-38.1	-39.0	20.8	0.00e+00	0	41	0	3619684352	46	4046
2026-01-15 13:58:49.79	357.01	31.06	-38.1	-39.0	20.9	0.00e+00	0	41	0	3647995904	46	4019
2026-01-15 13:58:53.76	356.56	30.33	-38.3	-39.3	20.6	0.00e+00	0	41	0	3676307456	46	4156
2026-01-15 13:58:57.73	356.14	29.61	-38.5	-39.4	20.5	0.00e+00	0	41	0	3705667584	46	4238
2026-01-15 13:59:01.71	355.73	28.91	-38.4	-39.4	20.5	0.00e+00	0	41	0	3733979136	46	4201
2026-01-15 13:59:05.68	355.34	28.22	-38.5	-39.5	20.5	0.00e+00	0	41	0	3763339264	46	4243
2026-01-15 13:59:09.65	354.97	27.55	-38.6	-39.6	20.4	0.00e+00	0	41	0	3791650816	46	4311
2026-01-15 13:59:13.63	354.62	26.89	-38.7	-39.6	20.3	0.00e+00	0	41	0	3819962368	47	4086
2026-01-15 13:59:17.60	354.28	26.25	-38.7	-39.8	20.2	0.00e+00	0	41	0	3849322496	47	4146
2026-01-15 13:59:21.57	353.95	25.62	-38.7	-39.7	20.2	0.00e+00	0	41	0	3877634048	47	4126
2026-01-15 13:59:25.54	353.64	25.01	-38.5	-39.5	20.4	0.00e+00	0	41	0	3905945600	47	4041
2026-01-15 13:59:29.51	353.33	24.41	-38.3	-39.3	20.6	0.00e+00	0	41	0	3935305728	47	3945
2026-01-15 13:59:33.48	353.04	23.82	-38.3	-39.3	20.6	0.00e+00	0	41	0	3963617280	47	3919
2026-01-15 13:59:37.45	352.77	23.24	-38.5	-39.4	20.4	0.00e+00	0	41	0	3991928832	47	4004
2026-01-15 13:59:41.43	352.50	22.67	-38.6	-39.6	20.2	0.00e+00	0	41	0	4021288960	47	4065
2026-01-15 13:59:45.40	352.24	22.12	-38.7	-39.7	20.2	0.00e+00	0	41	0	4049600512	47	4124
2026-01-15 13:59:49.37	351.99	21.58	-38.7	-39.7	20.2	0.00e+00	0	41	0	4077912064	47	4123
2026-01-15 13:59:53.34	351.75	21.05	-38.8	-39.7	20.1	0.00e+00	0	41	0	4107272192	47	4136
2026-01-15 13:59:57.31	351.52	20.53	-39.0	-39.9	20.0	0.00e+00	0	41	0	4135583744	47	4240
2026-01-15 14:00:01.28	351.30	20.02	-39.2	-40.2	19.7	0.00e+00	0	41	0	4164943872	47	4389
2026-01-15 14:00:05.26	351.08	19.52	-39.5	-40.6	19.6	0.00e+00	0	41	0	4193255424	48	4324
2026-01-15 14:00:09.23	350.87	19.02	-39.7	-40.8	19.5	0.00e+00	0	41	0	4221566976	48	4423
2026-01-15 14:00:13.20	350.67	18.54	-39.7	-40.9	19.4	0.00e+00	0	41	0	4249878528	49	4198
2026-01-15 14:00:17.17	350.48	18.07	-39.7	-40.8	19.5	0.00e+00	0	41	0	4279238656	49	4161
2026-01-15 14:00:21.14	350.29	17.60	-39.7	-40.8	19.5	0.00e+00	0	41	0	4307550208	49	4156
2026-01-15 14:00:25.11	350.11	17.15	-39.8	-40.8	19.4	0.00e+00	0	41	0	4335861760	49	4179
2026-01-15 14:00:29.09	349.93	16.70	-39.7	-40.8	19.5	0.00e+00	0	41	0	4365221888	49	4147
2026-01-15 14:00:33.06	349.76	16.26	-39.8	-40.9	19.3	0.00e+00	0	41	0	4393533440	49	4222
2026-01-15 14:00:37.03	349.60	15.83	-39.9	-41.0	19.2	0.00e+00	0	41	0	4422893568	49	4281
2026-01-15 14:00:41.00	349.44	15.40	-40.1	-41.2	19.0	0.00e+00	0	41	0	4451205120	49	4378
2026-01-15 14:00:44.97	349.28	14.98	-40.3	-41.5	18.8	0.00e+00	0	41	0	4479516672	50	4269
2026-01-15 14:00:48.94	349.13	14.57	-40.5	-41.7	18.6	0.00e+00	0	41	0	4508876800	50	4350
2026-01-15 14:00:52.91	348.99	14.17	-40.7	-41.9	18.4	0.00e+00	0	41	0	4537188352	50	4467
2026-01-15 14:00:56.88	348.84	13.77	-40.8	-42.0	18.2	0.00e+00	0	41	0	4565499904	51	4284
2026-01-15 14:01:00.85	348.71	13.38	-40.9	-42.1	18.2	0.00e+00	0	41	0	4593811456	51	4310
2026-01-15 14:01:04.83	348.57	12.99	-40.7	-42.0	18.2	0.00e+00	0	41	0	4623171584	51	4285
2026-01-15 14:01:08.80	348.44	12.61	-40.6	-42.1	18.2	0.00e+00	0	41	0	4651483136	51	4315
2026-01-15 14:01:12.77	348.32	12.23	-40.8	-42.2	18.0	0.00e+00	0	41	0	4679794688	51	4380
2026-01-15 14:01:16.74	348.20	11.87	-40.6	-42.0	18.1	0.00e+00	0	41	0	4709154816	51	4291
2026-01-15 14:01:20.71	348.08	11.50	-40.7	-42.2	18.0	0.00e+00	0	41	0	4737466368	51	4357
2026-01-15 14:01:24.68	347.96	11.14	-40.6	-42.3	17.9	0.00e+00	0	41	0	4766826496	51	4405
2026-01-15 14:01:28.65	347.85	10.79	-40.6	-42.6	17.6	0.00e+00	0	41	0	4795138048	51	4566
2026-01-15 14:01:32.63	347.74	10.44	-40.4	-42.5	17.7	0.00e+00	0	41	0	4823449600	51	4540
2026-01-15 14:01:36.60	347.63	10.10	-40.6	-42.7	17.5	0.00e+00	0	41	0	4852809728	51	4604
2026-01-15 14:01:40.57	347.53	9.76	-40.8	-42.9	17.3	0.00e+00	0	41	0	4881121280	51	4721
2026-01-15 14:01:44.54	347.43	9.42	-41.2	-43.0	17.2	0.00e+00	0	41	0	4909432832	51	4792
2026-01-15 14:01:48.51	347.33	9.09	-41.3	-43.0	17.0	0.00e+00	0	41	0	4937744384	52	4539
2026-01-15 14:01:52.48	347.23	8.77	-49.5	-61.9	3.8	8.46e-01	0	41	104	4948230144	68	15936
2026-01-15 14:01:56.46	347.14	8.44	-51.1	-62.1	3.8	8.48e-01	0	41	104	4948230144	71	13687
2026-01-15 14:02:00.43	347.05	8.13	-51.3	-62.2	3.8	8.48e-01	0	41	104	4948230144	72	13063
2026-01-15 14:02:04.40	346.96	7.81	-51.4	-62.2	3.8	8.47e-01	0	41	104	4948230144	72	13105
2026-01-15 14:02:08.37	346.87	7.50	-51.5	-62.2	3.8	8.47e-01	0	41	104	4948230144	72	13088
2026-01-15 14:02:12.34	346.79	7.20	-51.3	-62.2	3.8	8.47e-01	0	41	104	4948230144	72	13101
2026-01-15 14:02:16.32	346.71	6.89	-51.3	-62.2	3.8	8.45e-01	0	41	104	4948230144	72	13046
2026-01-15 14:02:20.29	346.63	6.59	-51.1	-62.1	3.8	8.46e-01	0	41	104	4948230144	72	12958
2026-01-15 14:02:24.26	346.55	6.30	-51.1	-62.1	3.8	8.48e-01	0	41	104	4948230144	72	12915
2026-01-15 14:02:28.23	346.47	6.00	-51.1	-62.2	3.8	8.48e-01	0	41	104	4948230144	72	12974
2026-01-15 14:02:32.20	346.40	5.71	-51.1	-62.1	3.8	8.46e-01	0	41	104	4948230144	72	12922
2026-01-15 14:02:36.18	346.33	5.43	-51.1	-62.1	3.8	8.48e-01	0	41	104	4948230144	72	12944
2026-01-15 14:02:40.15	346.25	5.14	-51.1	-62.1	3.8	8.47e-01	0	41	104	4948230144	72	12953

#Closed at: 2026-01-15 14:02:43
#Recorded file [4948 MB]: D:/Data/31040_260115_164953.dat