passes_logs/2026/01/15/T1/T1__20260115_215715_NOAA_20_JPSS-1_rec.log

#Pass ID: 20260115_215715_NOAA 20 (JPSS-1)
#Satellite: NOAA 20 (JPSS-1)
#Configuration: NOAA 20
#almurnet v.1.7.20251203
#Start time: 2026-01-15 21:57:15

#Version: 2.0.20230620
#Station: T1
#Location: 37.570604 lon 55.790049 lat
#TLE: 1 43013U 17073A   26015.47098083  .00000029  00000+0  34851-4 0  9997
#TLE: 2 43013  98.7636 316.4053 0001479  38.6686 321.4595 14.19536048422808

#Time	Az	El	Level	Level2	SNR	BER	BlckErr	Temp	State	Recorded	gain1	gain2
2026-01-15 21:57:15.12	32.59	4.99	-48.7	-64.0	3.8	1.49e+00	0	35	0	0	69	20519
2026-01-15 21:57:18.10	32.88	5.15	-48.7	-64.0	3.8	1.49e+00	0	36	104	0	69	20459
2026-01-15 21:57:21.08	33.18	5.31	-48.7	-64.0	3.8	1.49e+00	0	36	104	0	69	20441
2026-01-15 21:57:24.06	33.49	5.47	-48.7	-64.0	3.8	1.49e+00	0	36	104	0	69	20420
2026-01-15 21:57:27.04	33.79	5.63	-48.7	-64.0	3.8	1.49e+00	0	36	104	0	69	20400
2026-01-15 21:57:30.02	34.10	5.79	-48.7	-64.0	3.8	1.49e+00	0	36	104	0	69	20441
2026-01-15 21:57:32.99	34.41	5.95	-48.7	-64.0	3.8	1.49e+00	0	36	104	0	69	20435
2026-01-15 21:57:35.97	34.73	6.11	-48.7	-64.0	3.8	1.49e+00	0	37	104	0	69	20447
2026-01-15 21:57:38.95	35.05	6.27	-48.7	-64.0	3.8	1.49e+00	0	36	104	0	69	20378
2026-01-15 21:57:41.93	35.37	6.44	-48.7	-64.0	3.8	1.49e+00	0	37	104	0	69	20384
2026-01-15 21:57:44.91	35.70	6.60	-48.7	-64.0	3.8	1.49e+00	0	37	104	0	69	20323
2026-01-15 21:57:47.89	36.02	6.76	-48.7	-63.9	3.8	1.49e+00	0	37	104	0	69	20120
2026-01-15 21:57:50.87	36.36	6.92	-48.7	-63.9	3.8	1.49e+00	0	37	104	0	69	20148
2026-01-15 21:57:53.85	36.69	7.09	-48.7	-63.9	3.8	1.49e+00	0	37	104	0	69	20122
2026-01-15 21:57:56.83	37.03	7.25	-48.7	-63.9	3.8	1.49e+00	0	37	104	0	69	20243
2026-01-15 21:57:59.81	37.38	7.41	-48.7	-64.0	3.8	1.49e+00	0	37	104	0	69	20356
2026-01-15 21:58:02.79	37.73	7.58	-48.7	-64.0	3.8	1.49e+00	0	37	104	0	69	20307
2026-01-15 21:58:05.77	38.08	7.74	-48.7	-64.0	3.8	1.49e+00	0	37	104	0	69	20337
2026-01-15 21:58:08.75	38.43	7.91	-48.6	-63.9	3.8	1.49e+00	0	37	104	0	69	20113
2026-01-15 21:58:11.73	38.79	8.07	-48.6	-63.8	3.8	1.49e+00	0	37	104	0	69	19992
2026-01-15 21:58:14.71	39.16	8.24	-48.7	-63.9	3.8	1.49e+00	0	37	104	0	69	20150
2026-01-15 21:58:17.69	39.52	8.40	-48.6	-63.8	3.8	1.49e+00	0	37	104	0	69	20054
2026-01-15 21:58:20.67	39.89	8.57	-48.7	-63.8	3.8	1.49e+00	0	37	104	0	69	19941
2026-01-15 21:58:23.65	40.27	8.73	-48.6	-63.6	3.8	1.49e+00	0	38	104	0	69	19431
2026-01-15 21:58:26.63	40.65	8.90	-48.6	-62.9	3.8	1.49e+00	0	38	104	0	69	17968
2026-01-15 21:58:29.62	41.03	9.06	-48.6	-61.8	3.8	1.49e+00	0	38	104	0	69	15856
2026-01-15 21:58:32.60	41.42	9.23	-47.8	-56.3	6.5	5.24e-02	0	38	0	1048576	66	9984
2026-01-15 21:58:35.58	41.81	9.39	-46.1	-50.9	11.7	7.37e-04	0	38	0	6291456	64	6049
2026-01-15 21:58:38.57	42.21	9.56	-45.5	-49.7	13.1	6.25e-05	0	38	0	11534336	63	5568
2026-01-15 21:58:41.55	42.61	9.72	-44.7	-48.2	14.7	0.00e+00	0	38	0	17825792	61	5259
2026-01-15 21:58:44.53	43.02	9.89	-44.4	-47.9	15.0	0.00e+00	0	38	0	23068672	60	5345
2026-01-15 21:58:47.55	43.43	10.05	-44.5	-47.9	15.0	0.00e+00	0	38	0	28311552	60	5387
2026-01-15 21:58:50.53	43.85	10.22	-44.3	-47.6	15.4	0.00e+00	0	38	0	34603008	60	5179
2026-01-15 21:58:53.52	44.27	10.38	-44.0	-47.2	15.7	0.00e+00	0	38	0	39845888	60	4973
2026-01-15 21:58:56.50	44.69	10.54	-44.0	-47.1	15.8	0.00e+00	0	38	0	45088768	59	5177
2026-01-15 21:58:59.49	45.12	10.71	-43.9	-47.0	15.9	0.00e+00	0	38	0	51380224	59	5151
2026-01-15 21:59:02.47	45.55	10.87	-43.7	-46.8	16.2	0.00e+00	0	38	0	56623104	59	4994
2026-01-15 21:59:05.46	45.99	11.04	-43.7	-46.7	16.3	0.00e+00	0	38	0	61865984	59	4929
2026-01-15 21:59:08.44	46.43	11.20	-43.7	-46.7	16.2	0.00e+00	0	38	0	68157440	59	4968
2026-01-15 21:59:11.42	46.88	11.36	-43.6	-46.5	16.5	0.00e+00	0	38	0	73400320	59	4849
2026-01-15 21:59:14.41	47.33	11.52	-43.7	-46.7	16.2	0.00e+00	0	38	0	78643200	59	4956
2026-01-15 21:59:17.39	47.79	11.68	-43.7	-46.7	16.3	0.00e+00	0	38	0	84934656	59	4941
2026-01-15 21:59:20.34	48.24	11.84	-43.6	-46.5	16.4	0.00e+00	0	38	0	90177536	59	4859
2026-01-15 21:59:23.71	48.77	12.02	-43.6	-46.5	16.5	0.00e+00	0	38	0	96468992	59	4838
2026-01-15 21:59:26.46	49.21	12.17	-43.6	-46.5	16.5	0.00e+00	0	38	0	101711872	59	4858
2026-01-15 21:59:29.74	49.73	12.34	-43.7	-46.7	16.3	0.00e+00	0	38	0	108003328	59	4929
2026-01-15 21:59:32.56	50.19	12.49	-43.6	-46.5	16.5	0.00e+00	0	38	0	113246208	59	4856
2026-01-15 21:59:35.73	50.70	12.66	-43.6	-46.5	16.3	0.00e+00	0	38	0	118489088	59	4860
2026-01-15 21:59:38.71	51.19	12.82	-43.6	-46.5	16.5	0.00e+00	0	38	0	124780544	59	4842
2026-01-15 21:59:41.70	51.69	12.97	-43.8	-46.8	16.2	0.00e+00	0	38	0	130023424	59	4997
2026-01-15 21:59:44.68	52.20	13.13	-43.8	-46.8	16.2	0.00e+00	0	38	0	135266304	59	5033
2026-01-15 21:59:47.65	52.70	13.28	-43.8	-46.9	16.1	0.00e+00	0	38	0	141557760	59	5065
2026-01-15 21:59:50.99	53.28	13.45	-43.9	-47.0	16.0	0.00e+00	0	38	0	147849216	59	5125
2026-01-15 21:59:53.88	53.78	13.60	-44.1	-47.2	15.8	0.00e+00	0	38	0	153092096	59	5243
2026-01-15 21:59:57.23	54.37	13.76	-44.3	-47.5	15.6	0.00e+00	0	38	0	159383552	59	5409
2026-01-15 22:00:00.26	54.90	13.91	-44.4	-47.7	15.3	0.00e+00	0	38	0	164626432	59	5565
2026-01-15 22:00:03.52	55.49	14.07	-44.5	-47.8	15.2	0.00e+00	0	38	0	170917888	59	5644
2026-01-15 22:00:06.24	55.98	14.21	-44.7	-48.1	15.0	0.00e+00	0	38	0	176160768	60	5504
2026-01-15 22:00:09.50	56.58	14.36	-44.8	-48.3	14.8	0.00e+00	0	38	0	182452224	60	5595
2026-01-15 22:00:12.22	57.08	14.49	-44.9	-48.3	14.8	0.00e+00	0	38	0	187695104	60	5652
2026-01-15 22:00:15.71	57.73	14.66	-45.0	-48.6	14.5	7.00e-07	0	38	0	193986560	60	5796
2026-01-15 22:00:18.48	58.25	14.79	-45.0	-48.6	14.5	7.00e-07	0	38	0	199229440	60	5832
2026-01-15 22:00:21.80	58.88	14.94	-45.2	-48.9	14.2	2.20e-06	0	38	0	205520896	60	5997
2026-01-15 22:00:24.55	59.41	15.06	-45.3	-49.1	14.1	1.50e-06	0	38	0	210763776	61	5804
2026-01-15 22:00:27.82	60.04	15.21	-45.3	-49.0	14.1	1.50e-06	0	38	0	217055232	61	5780
2026-01-15 22:00:30.58	60.58	15.33	-45.2	-49.0	14.2	1.50e-06	0	38	0	222298112	61	5732
2026-01-15 22:00:34.33	61.32	15.49	-45.2	-48.9	14.2	7.00e-07	0	38	0	228589568	61	5702
2026-01-15 22:00:37.04	61.85	15.61	-45.1	-48.6	14.5	1.50e-06	0	38	0	233832448	61	5500
2026-01-15 22:00:40.32	62.51	15.75	-44.9	-48.3	14.8	0.00e+00	0	38	0	240123904	61	5321
2026-01-15 22:00:43.06	63.06	15.86	-44.6	-47.9	15.3	7.00e-07	0	38	0	245366784	61	5050
2026-01-15 22:00:46.56	63.78	16.00	-44.3	-47.5	15.7	0.00e+00	0	38	0	251658240	60	5127
2026-01-15 22:00:49.29	64.34	16.11	-44.2	-47.3	15.8	0.00e+00	0	38	0	256901120	60	5041
2026-01-15 22:00:52.73	65.05	16.24	-44.0	-47.0	16.2	0.00e+00	0	38	0	263192576	59	5108
2026-01-15 22:00:55.44	65.61	16.34	-43.6	-46.5	16.6	0.00e+00	0	38	0	268435456	59	4841
2026-01-15 22:00:58.73	66.30	16.46	-43.6	-46.5	16.6	0.00e+00	0	38	0	274726912	59	4835
2026-01-15 22:01:01.44	66.88	16.55	-43.8	-46.7	16.4	0.00e+00	0	38	0	279969792	59	4958
2026-01-15 22:01:05.02	67.64	16.68	-43.9	-46.8	16.3	0.00e+00	0	38	0	286261248	59	5016
2026-01-15 22:01:07.95	68.27	16.78	-44.0	-47.0	16.1	0.00e+00	0	38	0	291504128	59	5137
2026-01-15 22:01:11.16	68.96	16.88	-44.1	-47.1	16.0	0.00e+00	0	38	0	297795584	59	5183
2026-01-15 22:01:14.30	69.65	16.98	-44.2	-47.2	16.0	0.00e+00	0	38	0	304087040	59	5222
2026-01-15 22:01:17.14	70.27	17.06	-44.2	-47.2	15.9	0.00e+00	0	38	0	309329920	59	5249
2026-01-15 22:01:20.48	71.00	17.16	-44.2	-47.2	15.9	0.00e+00	0	38	0	315621376	59	5254
2026-01-15 22:01:23.19	71.60	17.24	-44.2	-47.3	15.8	0.00e+00	0	38	0	320864256	59	5305
2026-01-15 22:01:26.46	72.33	17.33	-44.2	-47.3	15.8	0.00e+00	0	38	0	327155712	59	5325
2026-01-15 22:01:29.18	72.94	17.40	-44.3	-47.3	15.8	0.00e+00	0	38	0	331350016	59	5338
2026-01-15 22:01:32.46	73.67	17.48	-44.2	-47.3	15.9	0.00e+00	0	38	0	337641472	59	5283
2026-01-15 22:01:35.21	74.30	17.54	-44.1	-47.2	16.0	0.00e+00	0	38	0	342884352	59	5219
2026-01-15 22:01:38.49	75.04	17.61	-44.3	-47.4	15.8	0.00e+00	0	38	0	349175808	59	5346
2026-01-15 22:01:41.19	75.65	17.67	-44.3	-47.4	15.8	0.00e+00	0	38	0	354418688	59	5370
2026-01-15 22:01:44.46	76.40	17.73	-44.0	-47.0	16.2	0.00e+00	0	38	0	360710144	59	5120
2026-01-15 22:01:47.22	77.04	17.78	-44.0	-47.0	16.2	0.00e+00	0	38	0	365953024	59	5126
2026-01-15 22:01:50.53	77.80	17.84	-44.2	-47.3	15.8	0.00e+00	0	38	0	372244480	59	5306
2026-01-15 22:01:53.24	78.43	17.88	-44.5	-47.8	15.4	0.00e+00	0	38	0	376438784	59	5602
2026-01-15 22:01:56.54	79.19	17.93	-44.6	-47.9	15.3	0.00e+00	0	38	0	382730240	60	5352
2026-01-15 22:01:59.35	79.84	17.97	-44.5	-47.7	15.4	0.00e+00	0	38	0	387973120	60	5279
2026-01-15 22:02:02.74	80.63	18.01	-44.1	-47.3	15.9	0.00e+00	0	38	0	394264576	60	5005
2026-01-15 22:02:05.44	81.26	18.03	-44.2	-47.4	15.8	0.00e+00	0	38	0	399507456	60	5069
2026-01-15 22:02:08.73	82.03	18.06	-44.4	-47.8	15.4	0.00e+00	0	38	0	405798912	60	5329
2026-01-15 22:02:11.43	82.67	18.08	-44.4	-47.7	15.5	0.00e+00	0	38	0	411041792	60	5236
2026-01-15 22:02:14.76	83.45	18.10	-44.1	-47.3	15.8	0.00e+00	0	38	0	417333248	60	5029
2026-01-15 22:02:17.57	84.11	18.12	-44.0	-47.3	15.9	0.00e+00	0	38	0	422576128	60	5029
2026-01-15 22:02:20.73	84.85	18.13	-44.1	-47.4	15.8	0.00e+00	0	38	0	428867584	60	5067
2026-01-15 22:02:23.82	85.58	18.13	-44.2	-47.6	15.6	0.00e+00	0	38	0	434110464	60	5170
2026-01-15 22:02:26.95	86.32	18.13	-44.0	-47.3	15.9	0.00e+00	0	38	0	440401920	60	5010
2026-01-15 22:02:29.79	86.99	18.13	-44.0	-47.3	15.9	0.00e+00	0	38	0	445644800	60	5016
2026-01-15 22:02:32.92	87.72	18.12	-44.0	-47.2	16.0	0.00e+00	0	39	0	450887680	60	4964
2026-01-15 22:02:35.85	88.41	18.11	-44.0	-47.1	16.1	0.00e+00	0	38	0	457179136	59	5174
2026-01-15 22:02:39.11	89.18	18.09	-44.2	-47.4	15.7	0.00e+00	0	38	0	462422016	59	5371
2026-01-15 22:02:41.97	89.85	18.07	-44.2	-47.5	15.6	0.00e+00	0	38	0	468713472	59	5416
2026-01-15 22:02:45.09	90.58	18.05	-43.8	-46.8	16.3	0.00e+00	0	38	0	473956352	59	5002
2026-01-15 22:02:48.06	91.28	18.02	-43.7	-46.5	16.6	0.00e+00	0	38	0	479199232	59	4862
2026-01-15 22:02:51.05	91.97	17.99	-43.8	-46.7	16.4	0.00e+00	0	38	0	485490688	59	4977
2026-01-15 22:02:54.03	92.67	17.95	-43.9	-46.9	16.1	0.00e+00	0	38	0	490733568	59	5091
2026-01-15 22:02:57.02	93.36	17.91	-44.0	-46.9	16.2	0.00e+00	0	38	0	495976448	59	5084
2026-01-15 22:03:00.00	94.06	17.87	-43.8	-46.7	16.4	0.00e+00	0	38	0	502267904	59	4964
2026-01-15 22:03:02.98	94.74	17.82	-43.5	-46.3	16.8	0.00e+00	0	38	0	507510784	59	4740
2026-01-15 22:03:05.97	95.43	17.77	-43.4	-46.1	17.0	0.00e+00	0	38	0	512753664	58	4912
2026-01-15 22:03:08.95	96.12	17.71	-43.2	-45.9	17.2	0.00e+00	0	38	0	519045120	58	4806
2026-01-15 22:03:11.93	96.80	17.65	-43.4	-46.1	17.0	0.00e+00	0	38	0	524288000	58	4893
2026-01-15 22:03:14.92	97.48	17.59	-43.6	-46.5	16.6	0.00e+00	0	38	0	529530880	58	5113
2026-01-15 22:03:17.99	98.18	17.52	-43.6	-46.4	16.7	0.00e+00	0	38	0	535822336	58	5072
2026-01-15 22:03:20.82	98.82	17.45	-43.5	-46.3	16.8	0.00e+00	0	38	0	541065216	58	5005
2026-01-15 22:03:23.95	99.52	17.37	-43.1	-45.8	17.3	0.00e+00	0	38	0	547356672	58	4733
2026-01-15 22:03:26.79	100.16	17.30	-43.1	-45.7	17.4	0.00e+00	0	38	0	552599552	58	4695
2026-01-15 22:03:30.00	100.87	17.21	-42.7	-45.2	17.8	0.00e+00	0	38	0	557842432	57	4703
2026-01-15 22:03:32.85	101.51	17.13	-42.9	-45.4	17.6	0.00e+00	0	38	0	563085312	57	4808
2026-01-15 22:03:35.98	102.19	17.03	-43.0	-45.6	17.4	0.00e+00	0	38	0	569376768	57	4896
2026-01-15 22:03:38.81	102.81	16.95	-42.9	-45.5	17.6	0.00e+00	0	38	0	574619648	57	4832
2026-01-15 22:03:41.94	103.50	16.85	-42.5	-44.9	18.1	0.00e+00	0	38	0	580911104	56	4796
2026-01-15 22:03:44.86	104.13	16.75	-42.4	-44.8	18.2	0.00e+00	0	38	0	586153984	56	4753
2026-01-15 22:03:48.12	104.83	16.64	-42.8	-45.3	17.7	0.00e+00	0	38	0	592445440	56	5037
2026-01-15 22:03:50.82	105.40	16.55	-42.8	-45.5	17.6	0.00e+00	0	38	0	597688320	56	5114
2026-01-15 22:03:54.05	106.09	16.43	-42.9	-45.5	17.6	0.00e+00	0	38	0	602931200	56	5148
2026-01-15 22:03:56.90	106.69	16.33	-42.9	-45.5	17.5	0.00e+00	0	38	0	608174080	56	5152
2026-01-15 22:04:00.02	107.34	16.21	-42.8	-45.5	17.6	0.00e+00	0	38	0	614465536	56	5106
2026-01-15 22:04:02.93	107.95	16.10	-43.2	-45.9	17.1	0.00e+00	0	38	0	619708416	57	5091
2026-01-15 22:04:06.06	108.59	15.97	-43.9	-46.8	16.3	0.00e+00	0	38	0	625999872	58	5310
2026-01-15 22:04:08.90	109.17	15.86	-44.2	-47.3	15.8	0.00e+00	0	38	0	631242752	59	5298
2026-01-15 22:04:12.03	109.81	15.73	-44.3	-47.4	15.6	0.00e+00	0	38	0	637534208	59	5400
2026-01-15 22:04:14.87	110.38	15.61	-44.3	-47.5	15.6	0.00e+00	0	38	0	642777088	59	5430
2026-01-15 22:04:17.99	111.00	15.48	-44.0	-47.1	15.9	0.00e+00	0	38	0	648019968	59	5212
2026-01-15 22:04:20.84	111.56	15.35	-44.0	-47.1	15.9	0.00e+00	0	38	0	653262848	59	5185
2026-01-15 22:04:23.97	112.18	15.21	-44.3	-47.6	15.5	0.00e+00	0	38	0	659554304	59	5484
2026-01-15 22:04:26.81	112.73	15.09	-44.6	-47.9	15.1	0.00e+00	0	38	0	664797184	59	5700
2026-01-15 22:04:29.93	113.33	14.94	-44.6	-47.9	15.2	0.00e+00	0	38	0	671088640	60	5373
2026-01-15 22:04:32.81	113.88	14.81	-44.7	-48.1	15.0	0.00e+00	0	38	0	676331520	60	5494
2026-01-15 22:04:36.09	114.50	14.66	-44.5	-47.8	15.3	0.00e+00	0	38	0	682622976	60	5322
2026-01-15 22:04:38.83	115.02	14.53	-44.6	-47.9	15.2	0.00e+00	0	38	0	686817280	60	5358
2026-01-15 22:04:42.09	115.62	14.37	-44.5	-47.8	15.3	0.00e+00	0	38	0	693108736	60	5301
2026-01-15 22:04:44.94	116.15	14.23	-44.2	-47.4	15.7	0.00e+00	0	38	0	698351616	60	5056
2026-01-15 22:04:48.06	116.71	14.08	-43.8	-46.7	16.3	0.00e+00	0	38	0	704643072	59	4957
2026-01-15 22:04:51.20	117.28	13.92	-43.8	-46.8	16.2	0.00e+00	0	38	0	710934528	59	5006
2026-01-15 22:04:54.33	117.84	13.77	-43.9	-46.9	16.1	0.00e+00	0	38	0	716177408	59	5079
2026-01-15 22:04:57.17	118.34	13.62	-44.3	-47.5	15.6	0.00e+00	0	38	0	721420288	59	5404
2026-01-15 22:05:00.39	118.91	13.46	-44.8	-48.3	14.8	0.00e+00	0	38	0	727711744	60	5597
2026-01-15 22:05:03.30	119.41	13.31	-44.4	-47.6	15.5	0.00e+00	0	39	0	732954624	60	5180
2026-01-15 22:05:06.49	119.96	13.15	-44.0	-47.0	16.0	0.00e+00	0	38	0	739246080	60	4852
2026-01-15 22:05:09.39	120.45	13.00	-43.7	-46.7	16.3	0.00e+00	0	38	0	744488960	59	4932
2026-01-15 22:05:12.56	120.98	12.83	-43.9	-47.0	16.1	0.00e+00	0	38	0	750780416	59	5101
2026-01-15 22:05:15.40	121.45	12.68	-43.9	-46.9	16.1	0.00e+00	0	39	0	756023296	59	5054
2026-01-15 22:05:18.53	121.97	12.51	-43.9	-46.9	16.1	0.00e+00	0	38	0	761266176	59	5064
2026-01-15 22:05:21.37	122.43	12.36	-44.1	-47.2	15.8	0.00e+00	0	38	0	767557632	59	5277
2026-01-15 22:05:24.50	122.94	12.19	-43.9	-46.9	16.0	0.00e+00	0	38	0	772800512	59	5100
2026-01-15 22:05:27.34	123.39	12.04	-43.8	-46.8	16.2	0.00e+00	0	39	0	778043392	59	4994
2026-01-15 22:05:30.69	123.92	11.86	-43.8	-46.8	16.2	0.00e+00	0	38	0	784334848	59	5006
2026-01-15 22:05:33.40	124.34	11.71	-44.1	-47.2	15.8	0.00e+00	0	38	0	789577728	59	5242
2026-01-15 22:05:36.70	124.85	11.53	-44.0	-47.1	15.9	0.00e+00	0	38	0	795869184	59	5177
2026-01-15 22:05:39.40	125.26	11.38	-43.9	-46.8	16.1	0.00e+00	0	38	0	801112064	59	5015
2026-01-15 22:05:42.64	125.75	11.21	-44.0	-47.0	15.9	0.00e+00	0	38	0	807403520	59	5155
2026-01-15 22:05:45.48	126.17	11.05	-44.4	-47.6	15.3	0.00e+00	0	38	0	812646400	59	5490
2026-01-15 22:05:48.61	126.64	10.88	-44.3	-47.6	15.3	0.00e+00	0	38	0	817889280	59	5502
2026-01-15 22:05:51.53	127.06	10.72	-44.1	-47.2	15.7	0.00e+00	0	38	0	823132160	59	5247
2026-01-15 22:05:54.66	127.52	10.54	-44.1	-47.3	15.5	0.00e+00	0	38	0	829423616	59	5320
2026-01-15 22:05:57.50	127.92	10.38	-44.4	-47.8	15.1	0.00e+00	0	38	0	834666496	59	5625
2026-01-15 22:06:00.74	128.38	10.20	-44.3	-47.7	15.2	0.00e+00	0	38	0	840957952	59	5567
2026-01-15 22:06:04.09	128.85	10.02	-44.2	-47.5	15.4	0.00e+00	0	38	0	847249408	59	5416
2026-01-15 22:06:07.00	129.25	9.86	-44.5	-47.8	15.1	0.00e+00	0	38	0	852492288	59	5601
2026-01-15 22:06:10.27	129.70	9.67	-44.7	-48.3	14.6	0.00e+00	0	38	0	858783744	60	5599
2026-01-15 22:06:12.99	130.06	9.52	-44.8	-48.4	14.5	7.00e-07	0	38	0	864026624	60	5661
2026-01-15 22:06:16.25	130.50	9.34	-44.7	-48.2	14.6	0.00e+00	0	38	0	870318080	60	5561
2026-01-15 22:06:19.23	130.89	9.17	-44.7	-48.2	14.6	0.00e+00	0	38	0	875560960	60	5563
2026-01-15 22:06:22.80	131.36	8.97	-47.7	-55.2	8.1	7.00e-07	0	38	0	881852416	65	9341
2026-01-15 22:06:25.50	131.71	8.82	-49.3	-64.5	3.8	1.49e+00	0	39	104	882900992	69	21682
2026-01-15 22:06:28.76	132.12	8.64	-49.5	-64.7	3.8	1.49e+00	0	39	104	882900992	69	22117
2026-01-15 22:06:31.49	132.46	8.49	-49.6	-64.7	3.8	1.49e+00	0	38	104	882900992	69	22247
2026-01-15 22:06:34.75	132.87	8.30	-49.7	-64.8	3.9	1.49e+00	0	38	104	882900992	70	21249
2026-01-15 22:06:37.46	133.21	8.15	-49.4	-64.9	3.8	1.49e+00	0	38	104	882900992	70	21323
2026-01-15 22:06:40.77	133.61	7.97	-49.2	-64.8	3.8	1.49e+00	0	39	104	882900992	70	21239
2026-01-15 22:06:43.53	133.94	7.81	-49.4	-64.8	3.8	1.49e+00	0	38	104	882900992	70	21085
2026-01-15 22:06:46.80	134.33	7.63	-49.3	-64.8	3.8	1.49e+00	0	39	104	882900992	70	21036
2026-01-15 22:06:49.53	134.65	7.48	-49.3	-64.8	3.8	1.49e+00	0	39	104	882900992	70	21051
2026-01-15 22:06:52.79	135.03	7.30	-49.3	-64.8	3.8	1.49e+00	0	38	104	882900992	70	21053
2026-01-15 22:06:55.50	135.35	7.15	-49.3	-64.7	3.8	1.49e+00	0	38	104	882900992	70	21015
2026-01-15 22:06:58.78	135.72	6.97	-49.3	-64.7	3.8	1.49e+00	0	38	104	882900992	70	20993
2026-01-15 22:07:01.48	136.02	6.82	-49.3	-64.8	3.8	1.49e+00	0	38	104	882900992	70	21027
2026-01-15 22:07:04.76	136.39	6.63	-49.3	-64.8	3.8	1.49e+00	0	38	104	882900992	70	21021
2026-01-15 22:07:07.45	136.69	6.49	-49.3	-64.8	3.8	1.49e+00	0	38	104	882900992	70	21049
2026-01-15 22:07:10.72	137.04	6.31	-49.3	-64.7	3.8	1.49e+00	0	38	104	882900992	70	20994
2026-01-15 22:07:13.43	137.34	6.16	-49.3	-64.7	3.8	1.49e+00	0	39	104	882900992	70	20970
2026-01-15 22:07:16.71	137.69	5.98	-49.3	-64.8	3.8	1.49e+00	0	38	104	882900992	70	21029
2026-01-15 22:07:19.42	137.97	5.83	-49.3	-64.7	3.8	1.49e+00	0	38	104	882900992	70	20944
2026-01-15 22:07:22.68	138.31	5.65	-49.3	-64.7	3.8	1.49e+00	0	38	104	882900992	70	21012
2026-01-15 22:07:25.40	138.60	5.50	-49.3	-64.7	3.8	1.49e+00	0	39	104	882900992	70	20952
2026-01-15 22:07:28.66	138.93	5.32	-49.3	-64.7	3.8	1.49e+00	0	38	104	882900992	70	20900
2026-01-15 22:07:31.36	139.20	5.17	-49.3	-64.7	3.8	1.49e+00	0	38	104	882900992	70	20946
2026-01-15 22:07:34.62	139.53	5.00	-49.3	-64.7	3.8	1.49e+00	0	38	104	882900992	70	20928

#Closed at: 2026-01-15 22:07:35
#Recorded file [882 MB]: D:/Data/31040_260116_005715.dat