passes_logs/2026/01/15/T1/T1__20260115_074825_SUOMI_NPP_rec.log

#Pass ID: 20260115_074825_SUOMI NPP
#Satellite: SUOMI NPP
#Configuration: NPP
#almurnet v.1.7.20251203
#Start time: 2026-01-15 07:48:24

#Version: 2.0.20230620
#Station: T1
#Location: 37.570604 lon 55.790049 lat
#TLE: 1 37849U 11061A   26014.61059675  .00000037  00000+0  38639-4 0  9994
#TLE: 2 37849  98.7810 316.6625 0002460  64.3781 295.7649 14.19525105736658

#Time	Az	El	Level	Level2	SNR	BER	BlckErr	Temp	State	Recorded	gain1	gain2
2026-01-15 07:48:24.85	89.42	4.99	-50.3	-65.6	3.8	1.49e+00	0	36	0	0	71	22004
2026-01-15 07:48:27.84	89.10	5.15	-50.2	-65.6	3.8	1.49e+00	0	36	104	0	72	20693
2026-01-15 07:48:30.83	88.78	5.30	-50.2	-65.6	3.8	1.49e+00	0	36	104	0	72	20655
2026-01-15 07:48:33.83	88.46	5.46	-50.2	-65.6	3.8	1.49e+00	0	36	104	0	72	20668
2026-01-15 07:48:36.82	88.13	5.61	-50.2	-65.5	3.8	1.49e+00	0	36	104	0	72	20483
2026-01-15 07:48:39.82	87.79	5.76	-50.2	-65.6	3.8	1.49e+00	0	36	104	0	72	20548
2026-01-15 07:48:42.81	87.46	5.92	-50.2	-65.5	3.8	1.49e+00	0	37	104	0	72	20508
2026-01-15 07:48:45.81	87.12	6.07	-50.2	-65.5	3.8	1.49e+00	0	37	104	0	72	20383
2026-01-15 07:48:48.80	86.78	6.23	-50.2	-65.4	3.8	1.49e+00	0	36	104	0	72	20255
2026-01-15 07:48:51.80	86.43	6.38	-50.2	-65.5	3.8	1.49e+00	0	37	104	0	72	20378
2026-01-15 07:48:54.79	86.08	6.53	-50.2	-65.4	3.8	1.49e+00	0	37	104	0	72	20263
2026-01-15 07:48:57.78	85.73	6.69	-50.2	-65.5	3.8	1.49e+00	0	37	104	0	72	20430
2026-01-15 07:49:00.77	85.37	6.84	-50.2	-65.5	3.8	1.49e+00	0	37	104	0	72	20387
2026-01-15 07:49:03.77	85.01	7.00	-50.2	-65.3	3.8	1.49e+00	0	37	104	0	72	20028
2026-01-15 07:49:06.77	84.64	7.15	-50.2	-65.3	3.8	1.49e+00	0	37	104	0	72	20037
2026-01-15 07:49:09.76	84.27	7.30	-50.2	-65.3	3.8	1.49e+00	0	37	104	0	72	19990
2026-01-15 07:49:12.75	83.90	7.46	-50.2	-65.2	3.8	1.49e+00	0	37	104	0	72	19631
2026-01-15 07:49:15.74	83.52	7.61	-50.2	-64.9	3.8	1.49e+00	0	37	104	0	72	19087
2026-01-15 07:49:18.74	83.14	7.76	-50.2	-65.1	3.8	1.49e+00	0	37	104	0	72	19444
2026-01-15 07:49:21.74	82.75	7.91	-50.2	-65.4	3.8	1.49e+00	0	37	104	0	72	20197
2026-01-15 07:49:24.73	82.36	8.07	-50.2	-65.5	3.8	1.49e+00	0	37	104	0	72	20456
2026-01-15 07:49:27.72	81.97	8.22	-50.1	-64.6	3.8	1.49e+00	0	38	104	0	72	18494
2026-01-15 07:49:30.72	81.57	8.37	-50.2	-65.3	3.8	1.49e+00	0	37	104	0	72	19853
2026-01-15 07:49:33.71	81.17	8.52	-49.9	-61.0	4.5	1.41e+00	0	38	0	0	71	12865
2026-01-15 07:49:36.70	80.76	8.67	-48.8	-55.4	8.8	5.45e-02	0	38	0	5242880	69	7571
2026-01-15 07:49:39.70	80.35	8.82	-49.2	-56.8	7.4	6.51e-02	0	38	0	11534336	69	8903
2026-01-15 07:49:42.70	79.93	8.97	-50.2	-63.9	3.8	1.48e+00	0	38	104	15728640	70	19065
2026-01-15 07:49:45.70	79.51	9.12	-49.6	-57.7	6.9	6.18e-02	0	38	0	16777216	70	9298
2026-01-15 07:49:48.70	79.09	9.27	-50.2	-63.6	3.8	1.70e-02	0	38	104	18874368	71	17461
2026-01-15 07:49:51.69	78.66	9.41	-47.2	-51.6	12.6	4.59e-04	0	38	0	20971520	66	5851
2026-01-15 07:49:54.69	78.23	9.56	-46.9	-51.0	13.3	2.51e-05	0	38	0	27262976	65	5743
2026-01-15 07:49:57.69	77.79	9.71	-46.3	-49.9	14.3	1.50e-06	0	38	0	32505856	64	5396
2026-01-15 07:50:00.68	77.35	9.85	-46.2	-49.8	14.5	0.00e+00	0	38	0	37748736	64	5283
2026-01-15 07:50:03.68	76.90	10.00	-46.0	-49.4	14.9	0.00e+00	0	38	0	44040192	63	5379
2026-01-15 07:50:06.68	76.45	10.14	-46.4	-49.9	14.4	7.00e-07	0	38	0	49283072	63	5715
2026-01-15 07:50:09.68	75.99	10.28	-46.5	-50.1	14.2	2.20e-06	0	38	0	55574528	64	5495
2026-01-15 07:50:12.68	75.53	10.43	-46.2	-49.7	14.6	7.00e-07	0	38	0	60817408	64	5252
2026-01-15 07:50:15.69	75.06	10.57	-46.2	-49.6	14.7	0.00e+00	0	38	0	66060288	64	5187
2026-01-15 07:50:18.67	74.60	10.71	-45.9	-49.1	15.3	0.00e+00	0	38	0	72351744	63	5193
2026-01-15 07:50:21.67	74.12	10.85	-45.7	-48.8	15.6	0.00e+00	0	38	0	77594624	63	5010
2026-01-15 07:50:24.67	73.64	10.98	-45.5	-48.4	15.9	0.00e+00	0	38	0	82837504	62	5091
2026-01-15 07:50:27.66	73.16	11.12	-45.8	-49.0	15.4	0.00e+00	0	38	0	89128960	62	5406
2026-01-15 07:50:30.66	72.67	11.26	-45.8	-49.0	15.4	0.00e+00	0	38	0	94371840	62	5421
2026-01-15 07:50:33.65	72.18	11.39	-45.7	-48.8	15.6	0.00e+00	0	38	0	99614720	62	5327
2026-01-15 07:50:36.65	71.69	11.52	-45.4	-48.4	16.0	0.00e+00	0	38	0	105906176	62	5050
2026-01-15 07:50:39.65	71.19	11.65	-45.6	-48.7	15.7	0.00e+00	0	38	0	111149056	62	5271
2026-01-15 07:50:42.64	70.68	11.78	-45.6	-48.7	15.7	0.00e+00	0	38	0	116391936	62	5279
2026-01-15 07:50:45.65	70.17	11.91	-46.0	-49.3	15.2	0.00e+00	0	38	0	122683392	62	5612
2026-01-15 07:50:48.65	69.65	12.04	-45.9	-49.4	15.1	0.00e+00	0	38	0	127926272	62	5665
2026-01-15 07:50:51.64	69.14	12.17	-45.8	-49.2	15.2	0.00e+00	0	38	0	134217728	62	5531
2026-01-15 07:50:54.64	68.61	12.29	-45.8	-49.1	15.3	0.00e+00	0	38	0	139460608	62	5481
2026-01-15 07:50:57.65	68.08	12.41	-46.0	-49.5	14.9	0.00e+00	0	38	0	144703488	62	5767
2026-01-15 07:51:00.65	67.55	12.53	-46.1	-49.8	14.6	0.00e+00	0	38	0	150994944	63	5618
2026-01-15 07:51:03.65	67.01	12.65	-45.8	-49.3	15.1	0.00e+00	0	38	0	156237824	63	5292
2026-01-15 07:51:06.64	66.47	12.77	-45.6	-48.8	15.6	0.00e+00	0	38	0	161480704	63	5004
2026-01-15 07:51:09.63	65.93	12.88	-45.8	-49.1	15.3	0.00e+00	0	38	0	167772160	63	5210
2026-01-15 07:51:12.63	65.38	12.99	-45.9	-49.3	15.1	0.00e+00	0	38	0	173015040	63	5294
2026-01-15 07:51:15.63	64.83	13.10	-45.6	-49.0	15.4	0.00e+00	0	38	0	178257920	63	5118
2026-01-15 07:51:18.63	64.27	13.21	-45.5	-48.6	15.7	0.00e+00	0	38	0	184549376	62	5212
2026-01-15 07:51:21.61	63.71	13.32	-45.9	-49.3	15.1	0.00e+00	0	38	0	189792256	62	5632
2026-01-15 07:51:24.61	63.14	13.42	-46.3	-49.9	14.5	7.00e-07	0	38	0	196083712	63	5695
2026-01-15 07:51:27.61	62.57	13.52	-45.9	-49.4	15.0	0.00e+00	0	38	0	201326592	63	5351
2026-01-15 07:51:30.60	62.00	13.62	-45.6	-48.8	15.6	0.00e+00	0	38	0	206569472	63	5004
2026-01-15 07:51:33.59	61.42	13.72	-45.1	-48.1	16.3	0.00e+00	0	38	0	212860928	62	4873
2026-01-15 07:51:36.58	60.84	13.81	-45.2	-48.2	16.1	0.00e+00	0	38	0	218103808	61	5272
2026-01-15 07:51:39.58	60.26	13.90	-45.3	-48.4	16.0	0.00e+00	0	38	0	223346688	61	5348
2026-01-15 07:51:42.57	59.67	13.99	-45.1	-48.0	16.4	0.00e+00	0	38	0	229638144	61	5123
2026-01-15 07:51:45.57	59.08	14.07	-45.2	-48.2	16.2	0.00e+00	0	38	0	234881024	61	5240
2026-01-15 07:51:48.57	58.48	14.16	-45.5	-48.6	15.8	0.00e+00	0	38	0	240123904	61	5477
2026-01-15 07:51:51.56	57.89	14.24	-45.9	-49.3	15.3	0.00e+00	0	38	0	246415360	62	5605
2026-01-15 07:51:54.56	57.28	14.31	-45.8	-49.2	15.3	0.00e+00	0	38	0	251658240	62	5537
2026-01-15 07:51:57.56	56.68	14.39	-45.8	-49.1	15.3	0.00e+00	0	38	0	256901120	62	5521
2026-01-15 07:52:00.56	56.07	14.46	-45.8	-49.2	15.2	0.00e+00	0	38	0	263192576	62	5554
2026-01-15 07:52:03.55	55.46	14.53	-45.9	-49.2	15.3	0.00e+00	0	38	0	268435456	62	5588
2026-01-15 07:52:06.55	54.85	14.59	-45.7	-49.0	15.5	0.00e+00	0	38	0	274726912	62	5412
2026-01-15 07:52:09.55	54.23	14.66	-45.3	-48.3	16.1	0.00e+00	0	38	0	279969792	62	5019
2026-01-15 07:52:12.55	53.61	14.72	-45.2	-48.3	16.2	0.00e+00	0	38	0	285212672	62	4994
2026-01-15 07:52:15.54	52.99	14.77	-45.4	-48.5	15.8	0.00e+00	0	38	0	291504128	62	5150
2026-01-15 07:52:18.54	52.37	14.82	-45.6	-48.9	15.5	0.00e+00	0	38	0	296747008	62	5384
2026-01-15 07:52:21.53	51.74	14.87	-45.3	-48.5	15.9	0.00e+00	0	38	0	301989888	62	5123
2026-01-15 07:52:24.53	51.12	14.92	-45.5	-48.7	15.8	0.00e+00	0	38	0	308281344	62	5228
2026-01-15 07:52:27.53	50.49	14.96	-45.6	-49.0	15.5	0.00e+00	0	38	0	313524224	62	5404
2026-01-15 07:52:30.53	49.85	15.00	-45.9	-49.3	15.2	0.00e+00	0	38	0	318767104	62	5618
2026-01-15 07:52:33.53	49.22	15.04	-45.8	-49.2	15.3	0.00e+00	0	38	0	325058560	62	5553
2026-01-15 07:52:36.53	48.59	15.07	-45.7	-49.0	15.4	0.00e+00	0	38	0	330301440	62	5438
2026-01-15 07:52:39.53	47.95	15.10	-45.6	-48.9	15.5	0.00e+00	0	38	0	335544320	62	5379
2026-01-15 07:52:42.54	47.31	15.12	-45.4	-48.7	15.7	0.00e+00	0	39	0	341835776	62	5272
2026-01-15 07:52:45.53	46.68	15.15	-45.3	-48.5	16.0	0.00e+00	0	38	0	347078656	62	5110
2026-01-15 07:52:48.54	46.04	15.16	-45.4	-48.7	15.7	0.00e+00	0	38	0	353370112	62	5227
2026-01-15 07:52:51.53	45.40	15.18	-45.5	-48.7	15.7	0.00e+00	0	38	0	358612992	62	5274
2026-01-15 07:52:54.53	44.76	15.19	-45.3	-48.5	15.9	0.00e+00	0	39	0	363855872	62	5108
2026-01-15 07:52:57.54	44.12	15.20	-45.2	-48.3	16.1	0.00e+00	0	38	0	370147328	62	5017
2026-01-15 07:53:00.54	43.48	15.20	-45.2	-48.3	16.1	0.00e+00	0	39	0	375390208	62	5009
2026-01-15 07:53:03.53	42.84	15.20	-45.5	-48.8	15.7	0.00e+00	0	39	0	380633088	62	5287
2026-01-15 07:53:06.54	42.19	15.20	-45.8	-49.1	15.3	7.00e-07	0	38	0	386924544	62	5498
2026-01-15 07:53:09.55	41.55	15.19	-46.0	-49.4	15.0	0.00e+00	0	38	0	392167424	62	5701
2026-01-15 07:53:12.55	40.91	15.18	-46.4	-50.2	14.3	7.00e-07	0	38	0	398458880	63	5887
2026-01-15 07:53:15.55	40.27	15.17	-46.2	-49.9	14.6	0.00e+00	0	38	0	403701760	63	5659
2026-01-15 07:53:18.55	39.63	15.15	-46.0	-49.4	15.0	0.00e+00	0	38	0	408944640	63	5395
2026-01-15 07:53:21.55	39.00	15.13	-46.0	-49.6	14.9	0.00e+00	0	38	0	415236096	63	5477
2026-01-15 07:53:24.56	38.36	15.10	-45.8	-49.3	15.1	0.00e+00	0	38	0	420478976	63	5312
2026-01-15 07:53:27.56	37.72	15.08	-45.7	-49.1	15.2	0.00e+00	0	38	0	425721856	63	5205
2026-01-15 07:53:30.56	37.09	15.05	-45.4	-48.6	15.8	0.00e+00	0	38	0	432013312	62	5180
2026-01-15 07:53:33.56	36.46	15.01	-45.1	-48.2	16.2	0.00e+00	0	38	0	437256192	62	4963
2026-01-15 07:53:36.55	35.83	14.97	-45.1	-48.3	16.1	0.00e+00	0	38	0	442499072	62	5003
2026-01-15 07:53:39.56	35.19	14.93	-45.3	-48.5	15.9	0.00e+00	0	38	0	448790528	62	5140
2026-01-15 07:53:42.56	34.57	14.88	-45.5	-48.8	15.7	0.00e+00	0	38	0	454033408	62	5298
2026-01-15 07:53:45.56	33.94	14.84	-45.5	-48.8	15.6	0.00e+00	0	38	0	460324864	62	5323
2026-01-15 07:53:48.57	33.32	14.78	-45.7	-49.0	15.4	0.00e+00	0	39	0	465567744	62	5463
2026-01-15 07:53:51.57	32.70	14.73	-45.6	-48.9	15.6	0.00e+00	0	38	0	470810624	62	5389
2026-01-15 07:53:54.58	32.07	14.67	-45.3	-48.5	16.0	0.00e+00	0	38	0	477102080	62	5108
2026-01-15 07:53:57.58	31.46	14.61	-45.0	-47.9	16.5	0.00e+00	0	38	0	482344960	61	5072
2026-01-15 07:54:00.58	30.85	14.54	-44.9	-47.8	16.6	0.00e+00	0	38	0	487587840	61	5000
2026-01-15 07:54:03.58	30.23	14.48	-44.7	-47.6	16.8	0.00e+00	0	38	0	493879296	61	4871
2026-01-15 07:54:06.58	29.63	14.41	-45.1	-48.1	16.2	0.00e+00	0	38	0	499122176	61	5202
2026-01-15 07:54:09.57	29.02	14.33	-45.4	-48.8	15.6	0.00e+00	0	38	0	504365056	61	5655
2026-01-15 07:54:12.58	28.42	14.25	-45.3	-48.9	15.6	0.00e+00	0	38	0	510656512	61	5674
2026-01-15 07:54:15.58	27.82	14.17	-45.8	-49.5	15.1	0.00e+00	0	39	0	515899392	62	5727
2026-01-15 07:54:18.59	27.23	14.09	-45.9	-49.6	15.0	0.00e+00	0	39	0	522190848	62	5792
2026-01-15 07:54:21.60	26.63	14.01	-45.7	-49.3	15.2	7.00e-07	0	39	0	527433728	62	5645
2026-01-15 07:54:24.60	26.04	13.92	-45.2	-48.7	15.8	0.00e+00	0	38	0	532676608	62	5222
2026-01-15 07:54:27.61	25.46	13.83	-45.3	-48.5	15.9	0.00e+00	0	38	0	538968064	62	5148
2026-01-15 07:54:30.60	24.88	13.74	-45.2	-48.4	16.0	0.00e+00	0	38	0	544210944	62	5071
2026-01-15 07:54:33.60	24.30	13.64	-45.1	-48.2	16.2	0.00e+00	0	38	0	549453824	62	4978
2026-01-15 07:54:36.60	23.73	13.54	-44.9	-47.9	16.5	0.00e+00	0	39	0	555745280	61	5086
2026-01-15 07:54:39.61	23.16	13.44	-45.2	-48.3	16.1	0.00e+00	0	39	0	560988160	61	5316
2026-01-15 07:54:42.61	22.59	13.34	-45.5	-48.9	15.5	0.00e+00	0	39	0	567279616	61	5698
2026-01-15 07:54:45.61	22.03	13.23	-45.4	-49.0	15.5	0.00e+00	0	38	0	572522496	61	5750
2026-01-15 07:54:48.61	21.48	13.12	-45.8	-49.8	14.7	0.00e+00	0	39	0	577765376	62	5965
2026-01-15 07:54:51.62	20.92	13.01	-45.7	-49.9	14.6	0.00e+00	0	38	0	584056832	62	6018
2026-01-15 07:54:54.62	20.37	12.90	-45.7	-49.6	14.9	0.00e+00	0	38	0	589299712	62	5810
2026-01-15 07:54:57.62	19.83	12.79	-45.9	-49.6	14.9	1.50e-06	0	38	0	594542592	62	5811
2026-01-15 07:55:00.63	19.29	12.67	-46.0	-49.7	14.8	0.00e+00	0	39	0	600834048	62	5864
2026-01-15 07:55:03.64	18.75	12.56	-46.1	-49.6	14.8	1.50e-06	0	38	0	606076928	63	5510
2026-01-15 07:55:06.64	18.22	12.44	-45.9	-49.6	14.9	0.00e+00	0	38	0	612368384	63	5465
2026-01-15 07:55:09.64	17.69	12.31	-46.1	-50.0	14.5	7.00e-07	0	39	0	617611264	63	5729
2026-01-15 07:55:12.63	17.17	12.19	-45.5	-49.2	15.2	0.00e+00	0	39	0	622854144	63	5258
2026-01-15 07:55:15.63	16.65	12.07	-44.8	-48.5	15.8	0.00e+00	0	38	0	629145600	61	5447
2026-01-15 07:55:18.63	16.14	11.94	-45.0	-49.1	15.3	0.00e+00	0	39	0	634388480	61	5800
2026-01-15 07:55:21.64	15.63	11.81	-45.7	-50.2	14.3	7.00e-07	0	38	0	639631360	62	6234
2026-01-15 07:55:24.64	15.12	11.68	-46.2	-50.5	13.9	1.50e-06	0	39	0	645922816	62	6472
2026-01-15 07:55:27.64	14.62	11.55	-46.2	-50.2	14.2	7.00e-07	0	38	0	651165696	63	5858
2026-01-15 07:55:30.65	14.13	11.42	-46.0	-50.1	14.3	7.00e-07	0	38	0	656408576	63	5806
2026-01-15 07:55:33.64	13.64	11.29	-46.7	-51.5	13.0	2.05e-05	0	38	0	662700032	63	6833
2026-01-15 07:55:36.64	13.15	11.15	-47.2	-53.3	11.1	9.91e-04	0	38	0	667942912	65	7510
2026-01-15 07:55:39.63	12.67	11.01	-46.7	-53.4	10.9	2.50e-03	0	39	0	674234368	65	7570
2026-01-15 07:55:42.63	12.19	10.88	-46.2	-52.6	11.8	4.63e-04	0	39	0	679477248	64	7316
2026-01-15 07:55:45.63	11.72	10.74	-46.4	-52.3	12.0	2.02e-04	0	39	0	684720128	64	7076
2026-01-15 07:55:48.62	11.26	10.60	-46.4	-51.7	12.6	8.01e-05	0	38	0	691011584	64	6600
2026-01-15 07:55:51.60	10.80	10.46	-45.9	-50.5	13.8	5.30e-06	0	38	0	696254464	63	6112
2026-01-15 07:55:54.59	10.34	10.32	-45.8	-50.8	13.5	9.10e-06	0	38	0	701497344	63	6335
2026-01-15 07:55:57.60	9.88	10.18	-45.9	-50.6	13.7	9.90e-06	0	39	0	707788800	63	6199
2026-01-15 07:56:00.60	9.43	10.03	-46.0	-50.4	13.9	6.10e-06	0	38	0	713031680	63	6056
2026-01-15 07:56:03.61	8.99	9.89	-45.9	-50.3	14.0	4.50e-06	0	39	0	718274560	63	5969
2026-01-15 07:56:06.62	8.54	9.74	-45.8	-50.2	14.2	2.20e-06	0	38	0	724566016	63	5869
2026-01-15 07:56:09.62	8.11	9.60	-46.0	-50.3	14.0	1.50e-06	0	38	0	729808896	63	5983
2026-01-15 07:56:12.61	7.68	9.45	-45.9	-50.4	13.9	1.50e-06	0	38	0	736100352	63	6032
2026-01-15 07:56:15.61	7.25	9.30	-45.9	-50.7	13.7	5.30e-06	0	38	0	741343232	63	6211
2026-01-15 07:56:18.61	6.83	9.15	-45.7	-50.6	13.8	4.50e-06	0	38	0	746586112	63	6143
2026-01-15 07:56:21.61	6.41	9.01	-46.4	-51.9	12.6	3.00e-06	0	39	0	752877568	63	7173
2026-01-15 07:56:24.60	6.00	8.86	-49.4	-66.1	3.8	1.49e+00	0	39	104	753926144	70	24514
2026-01-15 07:56:27.59	5.59	8.71	-50.6	-66.3	3.8	1.49e+00	0	39	104	753926144	72	22276
2026-01-15 07:56:30.58	5.18	8.56	-51.1	-66.3	3.8	1.49e+00	0	38	104	753926144	72	22465
2026-01-15 07:56:33.57	4.78	8.41	-51.1	-66.4	3.8	1.49e+00	0	39	104	753926144	72	22604
2026-01-15 07:56:36.56	4.39	8.26	-51.2	-66.4	3.8	1.49e+00	0	39	104	753926144	73	21297
2026-01-15 07:56:39.54	4.00	8.11	-51.1	-66.4	3.8	1.49e+00	0	38	104	753926144	73	21411
2026-01-15 07:56:42.53	3.61	7.96	-51.2	-66.4	3.8	1.49e+00	0	39	104	753926144	73	21335
2026-01-15 07:56:45.52	3.23	7.80	-51.1	-66.4	3.8	1.49e+00	0	38	104	753926144	73	21371
2026-01-15 07:56:48.51	2.85	7.65	-50.9	-66.3	3.8	1.49e+00	0	39	104	753926144	73	21247
2026-01-15 07:56:51.50	2.47	7.50	-50.9	-66.3	3.8	1.49e+00	0	39	104	753926144	73	21187
2026-01-15 07:56:54.49	2.10	7.35	-50.9	-66.3	3.8	1.49e+00	0	39	104	753926144	73	21248
2026-01-15 07:56:57.48	1.73	7.20	-50.9	-66.3	3.8	1.49e+00	0	39	104	753926144	73	21183
2026-01-15 07:57:00.46	1.37	7.04	-50.9	-66.3	3.8	1.49e+00	0	38	104	753926144	73	21169
2026-01-15 07:57:03.45	1.01	6.89	-50.9	-66.3	3.8	1.49e+00	0	38	104	753926144	73	21078
2026-01-15 07:57:06.44	0.66	6.74	-50.9	-66.3	3.8	1.49e+00	0	39	104	753926144	73	21111
2026-01-15 07:57:09.43	0.31	6.58	-50.9	-66.3	3.8	1.49e+00	0	38	104	753926144	73	21237
2026-01-15 07:57:12.42	359.96	6.43	-50.9	-66.3	3.8	1.49e+00	0	39	104	753926144	73	21210
2026-01-15 07:57:15.40	359.62	6.28	-50.9	-66.3	3.8	1.49e+00	0	39	104	753926144	73	21143
2026-01-15 07:57:18.39	359.28	6.12	-50.9	-66.3	3.8	1.49e+00	0	39	104	753926144	73	21167
2026-01-15 07:57:21.38	358.94	5.97	-50.9	-66.3	3.8	1.49e+00	0	39	104	753926144	73	21180
2026-01-15 07:57:24.37	358.61	5.82	-50.9	-66.3	3.8	1.49e+00	0	38	104	753926144	73	21147
2026-01-15 07:57:27.36	358.28	5.66	-50.9	-66.3	3.8	1.49e+00	0	38	104	753926144	73	21121
2026-01-15 07:57:30.35	357.95	5.51	-50.9	-66.3	3.8	1.49e+00	0	39	104	753926144	73	21152
2026-01-15 07:57:33.34	357.63	5.36	-50.9	-66.3	3.8	1.49e+00	0	39	104	753926144	73	21132
2026-01-15 07:57:36.33	357.31	5.20	-50.9	-66.3	3.8	1.49e+00	0	39	104	753926144	73	21176
2026-01-15 07:57:39.32	356.99	5.05	-50.9	-66.3	3.8	1.49e+00	0	39	104	753926144	73	21215

#Closed at: 2026-01-15 07:57:41
#Recorded file [753 MB]: D:/Data/31040_260115_104824.dat