passes_logs/2026/01/15/T1/T1__20260115_195542_KHAYYAM_rec.log

#Pass ID: 20260115_195542_KHAYYAM
#Satellite: KHAYYAM
#Configuration: KHAYYAM_480M
#almurnet v.1.7.20251203
#Start time: 2026-01-15 19:55:43

#Version: 2.0.20230620
#Station: T1
#Location: 37.570604 lon 55.790049 lat
#TLE: 1 53370U 22096A   26014.69422851  .00010074  00000+0  41151-3 0  9993
#TLE: 2 53370  97.3560 281.7091 0001556 106.8298 253.3111 15.24576057191198

#Time	Az	El	Level	Level2	SNR	BER	BlckErr	Temp	State	Recorded	gain1	gain2
2026-01-15 19:55:43.66	38.50	5.05	-50.3	-54.1	3.4	0.00e+00	0	44	0	0	71	23277
2026-01-15 19:55:45.65	38.79	5.16	-50.3	-54.1	3.7	0.00e+00	0	45	104	0	71	23212
2026-01-15 19:55:47.63	39.08	5.28	-50.3	-54.1	3.7	0.00e+00	0	45	104	0	71	23310
2026-01-15 19:55:49.63	39.38	5.40	-50.3	-54.1	3.7	0.00e+00	0	45	104	0	71	23214
2026-01-15 19:55:51.62	39.68	5.51	-50.3	-54.1	3.7	0.00e+00	0	45	104	0	71	23252
2026-01-15 19:55:53.62	39.99	5.63	-50.3	-54.1	3.7	0.00e+00	0	46	104	0	71	23263
2026-01-15 19:55:55.61	40.30	5.75	-50.3	-54.1	3.7	0.00e+00	0	46	104	0	71	23271
2026-01-15 19:55:57.60	40.61	5.87	-50.3	-54.1	3.7	0.00e+00	0	46	104	0	71	23291
2026-01-15 19:55:59.59	40.92	5.99	-50.3	-54.1	3.7	0.00e+00	0	46	104	0	71	23334
2026-01-15 19:56:01.59	41.24	6.10	-50.3	-54.1	3.7	0.00e+00	0	46	104	0	71	23255
2026-01-15 19:56:03.57	41.56	6.22	-50.3	-54.1	3.7	0.00e+00	0	46	104	0	71	23210
2026-01-15 19:56:05.57	41.88	6.34	-50.3	-54.1	3.7	0.00e+00	0	46	104	0	71	23262
2026-01-15 19:56:07.56	42.21	6.46	-50.3	-54.1	3.7	0.00e+00	0	46	104	0	71	23273
2026-01-15 19:56:09.55	42.54	6.58	-50.3	-54.1	3.7	0.00e+00	0	47	104	0	71	23251
2026-01-15 19:56:11.54	42.87	6.70	-50.3	-54.1	3.7	0.00e+00	0	47	104	0	71	23289
2026-01-15 19:56:13.54	43.21	6.81	-50.3	-54.1	3.7	0.00e+00	0	47	104	0	71	23216
2026-01-15 19:56:15.53	43.55	6.93	-50.3	-54.1	3.7	0.00e+00	0	47	104	0	71	23276
2026-01-15 19:56:17.52	43.89	7.05	-50.3	-54.1	3.7	0.00e+00	0	47	104	0	71	23267
2026-01-15 19:56:19.52	44.24	7.17	-50.3	-54.1	3.7	0.00e+00	0	47	104	0	71	23187
2026-01-15 19:56:21.51	44.59	7.29	-50.3	-54.1	3.7	0.00e+00	0	47	104	0	71	23280
2026-01-15 19:56:23.51	44.95	7.41	-50.3	-54.1	3.7	0.00e+00	0	47	104	0	71	23213
2026-01-15 19:56:25.50	45.30	7.53	-50.3	-54.1	3.7	0.00e+00	0	47	104	0	71	23217
2026-01-15 19:56:27.49	45.66	7.64	-50.3	-54.1	3.7	0.00e+00	0	48	104	0	71	23180
2026-01-15 19:56:29.49	46.03	7.76	-50.3	-54.1	3.7	0.00e+00	0	48	104	0	71	23191
2026-01-15 19:56:31.48	46.40	7.88	-50.3	-54.0	3.7	0.00e+00	0	47	104	0	71	23150
2026-01-15 19:56:33.47	46.77	8.00	-50.3	-54.1	3.7	0.00e+00	0	48	104	0	71	23182
2026-01-15 19:56:35.47	47.15	8.12	-50.3	-54.1	3.7	0.00e+00	0	48	104	0	71	23213
2026-01-15 19:56:37.46	47.53	8.24	-50.3	-54.1	3.7	0.00e+00	0	48	104	0	71	23223
2026-01-15 19:56:39.45	47.91	8.35	-50.3	-54.1	3.7	0.00e+00	0	48	104	0	71	23238
2026-01-15 19:56:41.44	48.30	8.47	-50.3	-54.1	3.7	0.00e+00	0	48	104	0	71	23211
2026-01-15 19:56:43.44	48.69	8.59	-50.3	-54.1	3.7	0.00e+00	0	48	104	0	71	23214
2026-01-15 19:56:45.43	49.08	8.71	-50.3	-54.1	3.7	0.00e+00	0	48	104	0	71	23179
2026-01-15 19:56:47.43	49.48	8.82	-50.3	-54.1	3.7	0.00e+00	0	48	104	0	71	23199
2026-01-15 19:56:49.42	49.89	8.94	-50.3	-54.1	3.7	0.00e+00	0	48	104	0	71	23221
2026-01-15 19:56:51.42	50.30	9.06	-50.3	-54.0	3.7	0.00e+00	0	48	104	0	71	23006
2026-01-15 19:56:53.42	50.71	9.17	-50.9	-55.2	3.7	0.00e+00	0	48	104	0	72	24945
2026-01-15 19:56:55.42	51.12	9.29	-51.2	-55.5	3.7	0.00e+00	0	48	104	0	73	24321
2026-01-15 19:56:57.42	51.55	9.40	-50.9	-54.6	3.7	0.00e+00	0	48	104	0	73	22051
2026-01-15 19:56:59.42	51.97	9.52	-51.0	-55.0	3.7	0.00e+00	0	49	104	0	73	23061
2026-01-15 19:57:01.42	52.40	9.63	-50.9	-55.1	3.7	0.00e+00	0	49	104	0	73	23209
2026-01-15 19:57:03.42	52.83	9.75	-51.2	-56.0	3.7	0.00e+00	0	49	104	0	73	25879
2026-01-15 19:57:05.42	53.27	9.86	-51.2	-56.0	3.7	0.00e+00	0	49	104	0	73	25763
2026-01-15 19:57:07.43	53.71	9.97	-51.5	-55.9	3.7	0.00e+00	0	49	104	0	73	25627
2026-01-15 19:57:09.43	54.16	10.09	-51.5	-55.8	3.7	0.00e+00	0	49	104	0	73	25160
2026-01-15 19:57:11.43	54.61	10.20	-51.1	-55.2	3.7	0.00e+00	0	49	104	0	73	23623
2026-01-15 19:57:13.43	55.06	10.31	-51.1	-55.3	3.7	0.00e+00	0	49	104	0	73	23895
2026-01-15 19:57:15.43	55.52	10.42	-51.4	-55.9	3.7	0.00e+00	0	48	104	0	73	25469
2026-01-15 19:57:17.44	55.98	10.53	-51.5	-55.8	3.7	0.00e+00	0	49	104	0	73	25125
2026-01-15 19:57:19.44	56.45	10.64	-51.7	-56.0	3.7	0.00e+00	0	49	104	0	74	24319
2026-01-15 19:57:21.44	56.92	10.75	-51.7	-56.1	3.7	0.00e+00	0	49	104	0	74	24554
2026-01-15 19:57:23.44	57.40	10.85	-51.7	-56.3	3.7	0.00e+00	0	49	104	0	74	25240
2026-01-15 19:57:25.44	57.87	10.96	-51.7	-56.1	3.7	0.00e+00	0	49	104	0	74	24712
2026-01-15 19:57:27.44	58.36	11.07	-51.7	-56.2	3.7	0.00e+00	0	49	104	0	74	24964
2026-01-15 19:57:29.43	58.84	11.17	-51.9	-56.6	3.7	0.00e+00	0	49	104	0	74	26005
2026-01-15 19:57:31.44	59.34	11.27	-51.7	-56.1	3.7	0.00e+00	0	49	104	0	74	24612
2026-01-15 19:57:33.44	59.83	11.37	-51.7	-56.3	3.7	0.00e+00	0	49	104	0	74	25379
2026-01-15 19:57:35.44	60.33	11.48	-51.7	-56.4	3.7	0.00e+00	0	49	104	0	74	25506
2026-01-15 19:57:37.45	60.84	11.58	-51.7	-56.3	3.7	0.00e+00	0	49	104	0	74	25239
2026-01-15 19:57:39.45	61.35	11.68	-51.7	-56.0	3.7	0.00e+00	0	49	104	0	74	24434
2026-01-15 19:57:41.46	61.86	11.77	-51.7	-55.9	3.7	0.00e+00	0	49	104	0	74	24210
2026-01-15 19:57:43.46	62.38	11.87	-51.8	-56.3	3.7	0.00e+00	0	49	104	0	74	25304
2026-01-15 19:57:45.47	62.90	11.97	-51.5	-55.8	3.7	0.00e+00	0	49	104	0	74	23785
2026-01-15 19:57:47.47	63.43	12.06	-51.5	-55.8	3.7	0.00e+00	0	49	104	0	74	23809
2026-01-15 19:57:49.47	63.96	12.15	-51.8	-56.2	3.7	0.00e+00	0	49	104	0	74	24995
2026-01-15 19:57:51.47	64.49	12.24	-51.7	-56.2	3.7	0.00e+00	0	49	104	0	74	24841
2026-01-15 19:57:53.47	65.03	12.33	-51.8	-56.2	3.7	0.00e+00	0	49	104	0	74	25065
2026-01-15 19:57:55.48	65.57	12.42	-51.8	-56.2	3.7	0.00e+00	0	49	104	0	74	24943
2026-01-15 19:57:57.48	66.12	12.51	-51.8	-56.1	3.7	0.00e+00	0	49	104	0	74	24799
2026-01-15 19:57:59.48	66.66	12.59	-51.5	-56.0	3.7	0.00e+00	0	49	104	0	74	24455
2026-01-15 19:58:01.49	67.22	12.67	-51.3	-55.8	3.7	0.00e+00	0	49	104	0	74	23729
2026-01-15 19:58:03.49	67.78	12.75	-51.4	-55.7	3.7	0.00e+00	0	49	104	0	74	23441
2026-01-15 19:58:05.48	68.33	12.83	-51.3	-55.5	3.7	0.00e+00	0	49	104	0	74	23110
2026-01-15 19:58:07.49	68.90	12.91	-51.5	-55.8	3.7	0.00e+00	0	49	104	0	74	23771
2026-01-15 19:58:09.48	69.46	12.99	-51.1	-55.2	3.7	0.00e+00	0	49	104	0	74	22144
2026-01-15 19:58:11.48	70.03	13.06	-50.2	-53.8	3.7	0.00e+00	0	49	104	0	72	21126
2026-01-15 19:58:13.48	70.61	13.13	-50.2	-53.7	3.7	0.00e+00	0	49	104	0	72	20886
2026-01-15 19:58:15.48	71.18	13.20	-50.4	-54.0	3.7	0.00e+00	0	49	104	0	72	21697
2026-01-15 19:58:17.49	71.77	13.27	-51.1	-54.8	3.7	0.00e+00	0	49	104	0	72	23702
2026-01-15 19:58:19.49	72.35	13.33	-51.7	-56.0	3.7	0.00e+00	0	49	104	0	74	24470
2026-01-15 19:58:21.50	72.94	13.40	-52.1	-56.6	3.7	0.00e+00	0	49	104	0	75	24665
2026-01-15 19:58:23.49	73.52	13.46	-51.9	-56.4	3.7	0.00e+00	0	49	104	0	75	24183
2026-01-15 19:58:25.50	74.12	13.52	-51.5	-55.7	3.7	0.00e+00	0	49	104	0	75	22127
2026-01-15 19:58:27.50	74.71	13.57	-51.4	-55.5	3.7	0.00e+00	0	49	104	0	74	23125
2026-01-15 19:58:29.50	75.31	13.63	-51.7	-55.9	3.7	0.00e+00	0	49	104	0	74	24128
2026-01-15 19:58:31.51	75.92	13.68	-51.4	-55.5	3.7	0.00e+00	0	49	104	0	74	23121
2026-01-15 19:58:33.51	76.52	13.73	-51.5	-56.0	3.7	0.00e+00	0	49	104	0	74	24522
2026-01-15 19:58:35.51	77.12	13.77	-51.4	-55.8	3.7	0.00e+00	0	49	104	0	74	23951
2026-01-15 19:58:37.52	77.73	13.82	-51.8	-56.0	3.7	0.00e+00	0	49	104	0	74	24502
2026-01-15 19:58:39.52	78.34	13.86	-51.2	-55.6	3.7	0.00e+00	0	49	104	0	74	23200
2026-01-15 19:58:41.52	78.95	13.90	-51.3	-55.5	3.7	0.00e+00	0	49	104	0	74	23095
2026-01-15 19:58:43.52	79.57	13.94	-51.7	-56.1	3.7	0.00e+00	0	50	104	0	74	24695
2026-01-15 19:58:45.52	80.18	13.97	-51.4	-56.1	3.7	0.00e+00	0	49	104	0	74	24661
2026-01-15 19:58:47.53	80.80	14.00	-50.6	-55.1	3.7	0.00e+00	0	49	104	0	73	23152
2026-01-15 19:58:49.53	81.42	14.03	-50.6	-55.2	3.7	0.00e+00	0	49	104	0	73	23575
2026-01-15 19:58:51.53	82.04	14.06	-51.0	-55.4	3.7	0.00e+00	0	49	104	0	73	24047
2026-01-15 19:58:53.53	82.66	14.08	-50.4	-55.5	3.7	0.00e+00	0	49	104	0	72	25843
2026-01-15 19:58:55.54	83.29	14.10	-50.1	-55.1	3.7	0.00e+00	0	49	104	0	72	24698
2026-01-15 19:58:57.54	83.91	14.12	-50.6	-55.7	3.7	0.00e+00	0	49	104	0	72	26429
2026-01-15 19:58:59.54	84.54	14.13	-50.3	-55.5	3.7	0.00e+00	0	49	104	0	72	25780
2026-01-15 19:59:01.55	85.16	14.15	-50.5	-55.7	3.7	0.00e+00	0	49	104	0	72	26484
2026-01-15 19:59:03.55	85.79	14.16	-50.5	-55.4	3.7	0.00e+00	0	50	104	0	72	25429
2026-01-15 19:59:05.55	86.41	14.16	-50.1	-54.5	3.7	0.00e+00	0	49	104	0	72	23110
2026-01-15 19:59:07.56	87.04	14.17	-50.7	-55.0	3.7	0.00e+00	0	49	104	0	72	24420
2026-01-15 19:59:09.57	87.67	14.17	-51.2	-55.8	3.7	0.00e+00	0	49	104	0	73	25195
2026-01-15 19:59:11.57	88.30	14.17	-51.1	-56.1	3.7	0.00e+00	0	49	104	0	73	25988
2026-01-15 19:59:13.57	88.93	14.16	-50.7	-55.5	3.7	0.00e+00	0	49	104	0	73	24452
2026-01-15 19:59:15.57	89.55	14.16	-51.0	-55.7	3.7	0.00e+00	0	50	104	0	73	24962
2026-01-15 19:59:17.57	90.18	14.15	-51.4	-55.9	3.7	0.00e+00	0	49	104	0	73	25649
2026-01-15 19:59:19.57	90.80	14.13	-51.5	-55.9	3.7	0.00e+00	0	49	104	0	73	25676
2026-01-15 19:59:21.58	91.43	14.12	-51.5	-56.2	3.7	0.00e+00	0	49	104	0	73	26282
2026-01-15 19:59:23.58	92.06	14.10	-51.7	-56.2	3.7	0.00e+00	0	49	104	0	74	24926
2026-01-15 19:59:25.58	92.68	14.08	-51.8	-56.1	3.7	0.00e+00	0	49	104	0	74	24638
2026-01-15 19:59:27.59	93.30	14.06	-51.7	-56.0	3.7	0.00e+00	0	49	104	0	74	24456
2026-01-15 19:59:29.58	93.92	14.03	-51.9	-56.4	3.7	0.00e+00	0	49	104	0	74	25530
2026-01-15 19:59:31.59	94.54	14.00	-51.9	-56.4	3.7	0.00e+00	0	49	104	0	74	25549
2026-01-15 19:59:33.59	95.16	13.97	-52.1	-56.7	3.7	0.00e+00	0	49	104	0	74	26420
2026-01-15 19:59:35.59	95.78	13.94	-52.2	-56.7	3.7	0.00e+00	0	49	104	0	75	24984
2026-01-15 19:59:37.59	96.39	13.90	-52.1	-56.5	3.7	0.00e+00	0	49	104	0	75	24476
2026-01-15 19:59:39.59	97.01	13.86	-51.9	-56.3	3.7	0.00e+00	0	49	104	0	75	23731
2026-01-15 19:59:41.59	97.62	13.82	-51.9	-56.3	3.7	0.00e+00	0	49	104	0	75	23862
2026-01-15 19:59:43.59	98.23	13.77	-52.1	-56.5	3.7	0.00e+00	0	49	104	0	75	24269
2026-01-15 19:59:45.60	98.84	13.73	-52.1	-56.6	3.7	0.00e+00	0	50	104	0	75	24531
2026-01-15 19:59:47.60	99.44	13.68	-51.9	-56.4	3.7	0.00e+00	0	49	104	0	75	24049
2026-01-15 19:59:49.60	100.04	13.62	-52.0	-56.4	3.7	0.00e+00	0	49	104	0	75	24100
2026-01-15 19:59:51.60	100.64	13.57	-51.9	-56.2	3.7	0.00e+00	0	49	104	0	75	23562
2026-01-15 19:59:53.60	101.24	13.51	-52.1	-56.6	3.6	0.00e+00	0	49	104	0	75	24668
2026-01-15 19:59:55.61	101.84	13.45	-52.2	-56.7	3.7	0.00e+00	0	49	104	0	75	25029
2026-01-15 19:59:57.61	102.43	13.39	-52.2	-56.7	3.7	0.00e+00	0	49	104	0	75	24901
2026-01-15 19:59:59.61	103.02	13.33	-52.1	-56.5	3.7	0.00e+00	0	49	104	0	75	24511
2026-01-15 20:00:01.61	103.60	13.26	-52.1	-56.6	3.7	0.00e+00	0	49	104	0	75	24610
2026-01-15 20:00:03.61	104.19	13.20	-52.0	-56.6	3.7	0.00e+00	0	49	104	0	75	24569
2026-01-15 20:00:05.61	104.77	13.13	-52.1	-56.6	3.7	0.00e+00	0	50	104	0	75	24793
2026-01-15 20:00:07.61	105.34	13.05	-52.1	-56.7	3.7	0.00e+00	0	49	104	0	75	25012
2026-01-15 20:00:09.62	105.92	12.98	-51.9	-56.5	3.7	0.00e+00	0	49	104	0	75	24509
2026-01-15 20:00:11.62	106.49	12.90	-52.0	-56.5	3.7	0.00e+00	0	49	104	0	75	24463
2026-01-15 20:00:13.63	107.06	12.83	-51.9	-56.5	3.7	0.00e+00	0	49	104	0	75	24411
2026-01-15 20:00:15.63	107.62	12.75	-52.2	-56.6	3.7	0.00e+00	0	49	104	0	75	24693
2026-01-15 20:00:17.63	108.18	12.66	-52.2	-56.6	3.7	0.00e+00	0	50	104	0	75	24536
2026-01-15 20:00:19.64	108.73	12.58	-52.0	-56.6	3.7	0.00e+00	0	49	104	0	75	24698
2026-01-15 20:00:21.63	109.28	12.50	-51.9	-56.4	3.7	0.00e+00	0	49	104	0	75	24138
2026-01-15 20:00:23.63	109.83	12.41	-51.5	-56.3	3.7	0.00e+00	0	49	104	0	75	23768
2026-01-15 20:00:25.63	110.37	12.32	-51.6	-56.3	3.7	0.00e+00	0	49	104	0	75	23783
2026-01-15 20:00:27.64	110.92	12.23	-51.6	-56.3	3.7	0.00e+00	0	49	104	0	74	25140
2026-01-15 20:00:29.64	111.45	12.14	-51.7	-56.4	3.7	0.00e+00	0	49	104	0	74	25467
2026-01-15 20:00:31.65	111.99	12.05	-51.9	-56.5	3.7	0.00e+00	0	49	104	0	74	25766
2026-01-15 20:00:33.66	112.52	11.95	-52.0	-56.5	3.7	0.00e+00	0	50	104	0	74	25804
2026-01-15 20:00:35.66	113.04	11.85	-52.0	-56.5	3.7	0.00e+00	0	49	104	0	74	25807
2026-01-15 20:00:37.66	113.56	11.76	-52.0	-56.4	3.7	0.00e+00	0	49	104	0	74	25629
2026-01-15 20:00:39.67	114.08	11.66	-52.1	-56.5	3.7	0.00e+00	0	49	104	0	74	25799
2026-01-15 20:00:41.67	114.59	11.56	-52.0	-56.5	3.7	0.00e+00	0	49	104	0	74	25784
2026-01-15 20:00:43.67	115.10	11.46	-52.1	-56.5	3.7	0.00e+00	0	49	104	0	74	25828
2026-01-15 20:00:45.67	115.60	11.36	-52.0	-56.5	3.7	0.00e+00	0	49	104	0	74	25693
2026-01-15 20:00:47.67	116.10	11.25	-51.8	-56.3	3.7	0.00e+00	0	49	104	0	74	25222
2026-01-15 20:00:49.67	116.59	11.15	-51.7	-56.2	3.7	0.00e+00	0	49	104	0	74	24941
2026-01-15 20:00:51.67	117.09	11.04	-52.0	-56.5	3.7	0.00e+00	0	50	104	0	74	25891
2026-01-15 20:00:53.68	117.57	10.94	-51.8	-56.4	3.7	0.00e+00	0	49	104	0	74	25472
2026-01-15 20:00:55.68	118.06	10.83	-51.9	-56.4	3.7	0.00e+00	0	49	104	0	74	25614
2026-01-15 20:00:57.68	118.53	10.72	-51.9	-56.4	3.7	0.00e+00	0	49	104	0	74	25649
2026-01-15 20:00:59.68	119.01	10.61	-51.9	-56.4	3.7	0.00e+00	0	49	104	0	74	25477
2026-01-15 20:01:01.69	119.48	10.50	-51.8	-56.3	3.7	0.00e+00	0	50	104	0	74	25333
2026-01-15 20:01:03.69	119.94	10.39	-52.0	-56.6	3.7	0.00e+00	0	49	104	0	74	26029
2026-01-15 20:01:05.69	120.41	10.28	-51.8	-56.4	3.7	0.00e+00	0	49	104	0	74	25629
2026-01-15 20:01:07.69	120.86	10.17	-51.8	-56.2	3.7	0.00e+00	0	49	104	0	74	24968
2026-01-15 20:01:09.69	121.31	10.05	-51.7	-56.0	3.7	0.00e+00	0	50	104	0	74	24317
2026-01-15 20:01:11.69	121.76	9.94	-51.6	-56.0	3.7	0.00e+00	0	49	104	0	74	24361
2026-01-15 20:01:13.70	122.21	9.83	-51.5	-55.8	3.7	0.00e+00	0	50	104	0	74	23883
2026-01-15 20:01:15.70	122.65	9.71	-51.7	-56.2	3.7	0.00e+00	0	50	104	0	74	25000
2026-01-15 20:01:17.70	123.08	9.60	-51.8	-56.3	3.7	0.00e+00	0	49	104	0	74	25177
2026-01-15 20:01:19.70	123.52	9.48	-51.7	-56.0	3.7	0.00e+00	0	50	104	0	74	24464
2026-01-15 20:01:21.70	123.94	9.36	-51.7	-56.1	3.7	0.00e+00	0	49	104	0	74	24778
2026-01-15 20:01:23.70	124.37	9.25	-51.4	-56.0	3.7	0.00e+00	0	49	104	0	74	24349
2026-01-15 20:01:25.71	124.79	9.13	-51.6	-56.2	3.7	0.00e+00	0	49	104	0	74	24883
2026-01-15 20:01:27.71	125.20	9.01	-51.8	-56.3	3.7	0.00e+00	0	49	104	0	74	25253
2026-01-15 20:01:29.70	125.61	8.89	-52.2	-56.7	3.7	0.00e+00	0	49	104	0	75	24874
2026-01-15 20:01:31.69	126.02	8.78	-52.2	-56.8	3.7	0.00e+00	0	49	104	0	75	25189
2026-01-15 20:01:33.69	126.42	8.66	-51.6	-56.5	3.7	0.00e+00	0	49	104	0	75	24340
2026-01-15 20:01:35.68	126.82	8.54	-52.3	-56.6	3.7	0.00e+00	0	50	104	0	75	24581
2026-01-15 20:01:37.68	127.21	8.42	-52.3	-56.9	3.7	0.00e+00	0	49	104	0	75	25641
2026-01-15 20:01:39.67	127.60	8.30	-51.7	-56.7	3.7	0.00e+00	0	49	104	0	75	24959
2026-01-15 20:01:41.66	127.99	8.18	-51.9	-56.6	3.7	0.00e+00	0	49	104	0	75	24805
2026-01-15 20:01:43.66	128.37	8.06	-51.5	-56.6	3.7	0.00e+00	0	50	104	0	74	26148
2026-01-15 20:01:45.65	128.75	7.94	-51.2	-56.1	3.7	0.00e+00	0	49	104	0	74	24639
2026-01-15 20:01:47.65	129.12	7.82	-51.4	-55.7	3.7	0.00e+00	0	49	104	0	74	23677
2026-01-15 20:01:49.64	129.49	7.71	-51.6	-56.1	3.7	0.00e+00	0	50	104	0	74	24702
2026-01-15 20:01:51.63	129.86	7.59	-51.6	-56.1	3.7	0.00e+00	0	49	104	0	74	24603
2026-01-15 20:01:53.62	130.22	7.47	-51.6	-56.1	3.7	0.00e+00	0	49	104	0	74	24588
2026-01-15 20:01:55.62	130.59	7.35	-51.6	-56.0	3.7	0.00e+00	0	49	104	0	74	24501
2026-01-15 20:01:57.61	130.94	7.23	-51.6	-56.1	3.7	0.00e+00	0	49	104	0	74	24584
2026-01-15 20:01:59.60	131.29	7.11	-51.6	-56.1	3.7	0.00e+00	0	50	104	0	74	24525
2026-01-15 20:02:01.59	131.64	6.99	-51.6	-56.0	3.7	0.00e+00	0	49	104	0	74	24470
2026-01-15 20:02:03.58	131.99	6.87	-51.6	-56.1	3.7	0.00e+00	0	49	104	0	74	24578
2026-01-15 20:02:05.58	132.33	6.75	-51.6	-56.1	3.7	0.00e+00	0	49	104	0	74	24550
2026-01-15 20:02:07.57	132.67	6.63	-51.6	-56.0	3.7	0.00e+00	0	49	104	0	74	24467
2026-01-15 20:02:09.56	133.00	6.51	-51.6	-56.0	3.7	0.00e+00	0	49	104	0	74	24414
2026-01-15 20:02:11.56	133.34	6.39	-51.6	-56.0	3.7	0.00e+00	0	49	104	0	74	24480
2026-01-15 20:02:13.55	133.66	6.27	-51.5	-56.0	3.7	0.00e+00	0	49	104	0	74	24437
2026-01-15 20:02:15.55	133.99	6.15	-51.6	-56.0	3.7	0.00e+00	0	49	104	0	74	24465
2026-01-15 20:02:17.54	134.31	6.03	-51.6	-56.0	3.7	0.00e+00	0	49	104	0	74	24435
2026-01-15 20:02:19.54	134.63	5.91	-51.6	-56.0	3.7	0.00e+00	0	49	104	0	74	24400
2026-01-15 20:02:21.53	134.95	5.79	-51.6	-56.0	3.7	0.00e+00	0	49	104	0	74	24456
2026-01-15 20:02:23.52	135.26	5.67	-51.6	-56.0	3.7	0.00e+00	0	49	104	0	74	24429
2026-01-15 20:02:25.52	135.57	5.55	-51.6	-56.0	3.7	0.00e+00	0	49	104	0	74	24461
2026-01-15 20:02:27.51	135.87	5.43	-51.6	-56.0	3.7	0.00e+00	0	49	104	0	74	24369
2026-01-15 20:02:29.50	136.17	5.31	-51.5	-56.0	3.7	0.00e+00	0	49	104	0	74	24409
2026-01-15 20:02:31.49	136.47	5.19	-51.6	-56.0	3.7	0.00e+00	0	49	104	0	74	24358
2026-01-15 20:02:33.48	136.77	5.08	-51.5	-56.0	3.7	0.00e+00	0	49	104	0	74	24465
2026-01-15 20:02:35.47	137.06	4.96	-51.5	-56.0	3.7	0.00e+00	0	49	104	0	74	24483

#Closed at: 2026-01-15 20:02:36
#Recorded file [0 MB]: D:/Data/31040_260115_225543.dat