passes_logs/2026/01/15/T1/T1__20260115_153104_FENGYUN_3E_rec.log

#Pass ID: 20260115_153104_FENGYUN 3E
#Satellite: FENGYUN 3E
#Configuration: FENGYUN 3E
#almurnet v.1.7.20251203
#Start time: 2026-01-15 15:31:03

#Version: 2.0.20230620
#Station: T1
#Location: 37.570604 lon 55.790049 lat
#TLE: 1 49008U 21062A   26014.58289545 -.00000120  00000+0 -35876-4 0  9998
#TLE: 2 49008  98.7488  19.7165 0002000 137.1107 223.0226 14.19884293234788

#Time	Az	El	Level	Level2	SNR	BER	BlckErr	Temp	State	Recorded	gain1	gain2
2026-01-15 15:31:03.86	202.73	4.98	-49.8	-60.7	3.8	8.44e-01	0	36	0	0	70	12351
2026-01-15 15:31:06.84	202.95	5.17	-49.9	-60.9	3.8	8.45e-01	0	36	104	0	70	12615
2026-01-15 15:31:09.82	203.17	5.36	-49.9	-60.7	3.8	8.46e-01	0	36	104	0	70	12303
2026-01-15 15:31:12.80	203.40	5.55	-49.9	-61.0	3.8	8.47e-01	0	37	104	0	70	12777
2026-01-15 15:31:15.77	203.63	5.74	-50.0	-61.2	3.8	8.47e-01	0	37	104	0	70	13065
2026-01-15 15:31:18.75	203.86	5.93	-50.0	-61.3	3.8	8.47e-01	0	37	104	0	70	13227
2026-01-15 15:31:21.73	204.10	6.12	-50.0	-61.1	3.8	8.46e-01	0	37	104	0	70	12902
2026-01-15 15:31:24.71	204.33	6.31	-50.0	-60.5	3.8	8.47e-01	0	37	104	0	70	12045
2026-01-15 15:31:27.69	204.57	6.51	-49.9	-60.5	3.8	8.47e-01	0	37	104	0	70	11972
2026-01-15 15:31:30.67	204.82	6.71	-50.0	-60.7	3.8	8.47e-01	0	37	104	0	70	12266
2026-01-15 15:31:33.65	205.07	6.90	-49.8	-59.7	3.8	8.47e-01	0	37	104	0	70	10944
2026-01-15 15:31:36.63	205.32	7.10	-49.7	-58.6	4.0	8.44e-01	0	37	104	0	70	9638
2026-01-15 15:31:39.61	205.57	7.30	-49.6	-58.5	3.9	8.46e-01	0	37	104	0	70	9525
2026-01-15 15:31:42.58	205.83	7.50	-49.7	-58.8	3.9	8.45e-01	0	38	104	0	70	9921
2026-01-15 15:31:45.56	206.09	7.70	-50.0	-60.8	3.8	8.47e-01	0	38	104	0	70	12502
2026-01-15 15:31:48.54	206.35	7.90	-49.4	-57.1	4.4	8.38e-01	0	38	0	0	69	8629
2026-01-15 15:31:51.52	206.62	8.11	-46.0	-49.0	10.9	4.11e-03	0	38	0	15728640	62	5064
2026-01-15 15:31:54.50	206.89	8.31	-42.6	-44.4	15.4	0.00e+00	0	38	0	36700160	56	4235
2026-01-15 15:31:57.48	207.16	8.52	-41.1	-42.7	16.9	0.00e+00	0	38	0	58720256	53	4140
2026-01-15 15:32:00.46	207.44	8.72	-41.9	-43.6	16.1	0.00e+00	0	38	0	79691776	53	4582
2026-01-15 15:32:03.44	207.73	8.93	-44.5	-46.9	13.1	1.83e-05	0	38	0	101711872	58	4984
2026-01-15 15:32:06.42	208.01	9.14	-44.8	-47.2	12.9	2.47e-04	0	38	0	122683392	60	4613
2026-01-15 15:32:09.40	208.30	9.35	-44.0	-46.2	13.7	6.29e-05	0	38	0	144703488	58	4621
2026-01-15 15:32:12.37	208.60	9.56	-43.1	-45.0	15.0	0.00e+00	0	38	0	165675008	56	4511
2026-01-15 15:32:15.35	208.89	9.78	-41.6	-43.4	16.4	0.00e+00	0	38	0	187695104	54	4208
2026-01-15 15:32:18.33	209.20	9.99	-41.2	-42.9	16.9	0.00e+00	0	38	0	208666624	53	4225
2026-01-15 15:32:21.31	209.51	10.20	-41.1	-42.8	17.0	0.00e+00	0	38	0	229638144	53	4147
2026-01-15 15:32:24.29	209.82	10.42	-40.9	-42.6	17.1	0.00e+00	0	38	0	251658240	52	4312
2026-01-15 15:32:27.27	210.13	10.64	-40.9	-42.6	17.1	0.00e+00	0	38	0	273678336	52	4307
2026-01-15 15:32:30.24	210.45	10.86	-40.9	-42.6	17.1	0.00e+00	0	38	0	294649856	52	4307
2026-01-15 15:32:33.22	210.78	11.07	-41.0	-42.6	17.0	0.00e+00	0	38	0	316669952	52	4329
2026-01-15 15:32:36.20	211.11	11.30	-40.7	-42.3	17.4	0.00e+00	0	38	0	337641472	52	4173
2026-01-15 15:32:39.18	211.44	11.52	-40.6	-42.2	17.5	0.00e+00	0	38	0	359661568	51	4357
2026-01-15 15:32:42.16	211.78	11.74	-40.7	-42.4	17.4	0.00e+00	0	38	0	380633088	51	4444
2026-01-15 15:32:45.14	212.13	11.97	-40.8	-42.5	17.3	0.00e+00	0	38	0	402653184	51	4505
2026-01-15 15:32:48.12	212.48	12.19	-40.7	-42.4	17.4	0.00e+00	0	38	0	423624704	51	4454
2026-01-15 15:32:51.10	212.83	12.42	-40.6	-42.2	17.5	0.00e+00	0	39	0	445644800	51	4386
2026-01-15 15:32:54.07	213.19	12.64	-40.5	-42.1	17.7	0.00e+00	0	39	0	466616320	51	4310
2026-01-15 15:32:57.06	213.56	12.87	-40.5	-42.0	17.7	0.00e+00	0	38	0	488636416	51	4284
2026-01-15 15:33:00.03	213.93	13.10	-40.6	-42.2	17.6	0.00e+00	0	39	0	509607936	51	4349
2026-01-15 15:33:03.01	214.31	13.33	-40.4	-41.9	17.9	0.00e+00	0	38	0	531628032	51	4212
2026-01-15 15:33:05.99	214.69	13.57	-40.3	-41.7	18.1	0.00e+00	0	39	0	552599552	51	4139
2026-01-15 15:33:08.97	215.08	13.80	-40.2	-41.7	18.2	0.00e+00	0	39	0	574619648	51	4105
2026-01-15 15:33:11.95	215.47	14.03	-40.2	-41.7	18.1	0.00e+00	0	39	0	595591168	51	4143
2026-01-15 15:33:14.93	215.88	14.27	-40.2	-41.8	18.1	0.00e+00	0	38	0	617611264	51	4147
2026-01-15 15:33:17.90	216.28	14.50	-40.1	-41.6	18.3	0.00e+00	0	39	0	638582784	50	4301
2026-01-15 15:33:20.88	216.70	14.74	-40.0	-41.5	18.3	0.00e+00	0	39	0	660602880	50	4264
2026-01-15 15:33:23.86	217.12	14.98	-40.0	-41.5	18.3	0.00e+00	0	39	0	681574400	50	4256
2026-01-15 15:33:26.84	217.54	15.22	-39.9	-41.5	18.3	0.00e+00	0	39	0	703594496	50	4265
2026-01-15 15:33:29.82	217.98	15.46	-39.8	-41.3	18.5	0.00e+00	0	39	0	724566016	50	4186
2026-01-15 15:33:32.80	218.42	15.70	-39.5	-41.0	18.7	0.00e+00	0	39	0	746586112	49	4282
2026-01-15 15:33:35.78	218.86	15.94	-39.3	-40.7	18.9	0.00e+00	0	39	0	767557632	49	4144
2026-01-15 15:33:38.76	219.32	16.18	-39.5	-41.0	18.7	0.00e+00	0	39	0	789577728	49	4277
2026-01-15 15:33:41.73	219.78	16.42	-39.5	-41.0	18.6	0.00e+00	0	39	0	810549248	49	4280
2026-01-15 15:33:44.71	220.24	16.67	-39.5	-41.0	18.7	0.00e+00	0	39	0	832569344	49	4248
2026-01-15 15:33:47.69	220.72	16.91	-39.3	-40.7	19.0	0.00e+00	0	39	0	853540864	49	4142
2026-01-15 15:33:50.67	221.20	17.15	-39.2	-40.7	19.0	0.00e+00	0	39	0	875560960	49	4100
2026-01-15 15:33:53.65	221.70	17.40	-39.0	-40.3	19.4	0.00e+00	0	39	0	896532480	48	4190
2026-01-15 15:33:56.63	222.19	17.64	-39.0	-40.3	19.4	0.00e+00	0	39	0	918552576	48	4191
2026-01-15 15:33:59.61	222.70	17.89	-39.0	-40.4	19.4	0.00e+00	0	39	0	939524096	48	4200
2026-01-15 15:34:02.59	223.22	18.14	-39.1	-40.4	19.4	0.00e+00	0	39	0	961544192	48	4219
2026-01-15 15:34:05.57	223.74	18.38	-39.0	-40.3	19.4	0.00e+00	0	39	0	983564288	48	4191
2026-01-15 15:34:08.55	224.27	18.63	-38.9	-40.3	19.5	0.00e+00	0	39	0	1004535808	48	4151
2026-01-15 15:34:11.52	224.81	18.87	-38.7	-40.1	19.6	0.00e+00	0	39	0	1025507328	48	4055
2026-01-15 15:34:14.50	225.36	19.12	-38.6	-40.0	19.7	0.00e+00	0	39	0	1047527424	48	4008
2026-01-15 15:34:17.48	225.92	19.37	-38.6	-40.0	19.7	0.00e+00	0	39	0	1068498944	48	4009
2026-01-15 15:34:20.46	226.48	19.61	-38.5	-39.9	19.5	0.00e+00	0	39	0	1090519040	47	4214
2026-01-15 15:34:23.44	227.06	19.86	-38.6	-40.0	19.4	0.00e+00	0	39	0	1111490560	47	4264
2026-01-15 15:34:26.42	227.64	20.10	-38.5	-39.9	19.5	0.00e+00	0	39	0	1133510656	47	4210
2026-01-15 15:34:29.39	228.23	20.35	-38.3	-39.7	19.7	0.00e+00	0	39	0	1154482176	47	4114
2026-01-15 15:34:32.37	228.84	20.59	-38.4	-39.7	19.6	0.00e+00	0	39	0	1176502272	47	4145
2026-01-15 15:34:35.35	229.45	20.83	-38.2	-39.5	19.8	0.00e+00	0	39	0	1197473792	47	4050
2026-01-15 15:34:38.33	230.07	21.08	-38.1	-39.4	20.0	0.00e+00	0	39	0	1219493888	46	4212
2026-01-15 15:34:41.31	230.70	21.32	-38.2	-39.6	19.9	0.00e+00	0	39	0	1240465408	46	4309
2026-01-15 15:34:44.29	231.34	21.56	-38.1	-39.5	19.9	0.00e+00	0	39	0	1262485504	46	4244
2026-01-15 15:34:47.27	231.99	21.79	-38.0	-39.4	19.9	0.00e+00	0	39	0	1284505600	46	4223
2026-01-15 15:34:50.25	232.65	22.03	-38.0	-39.4	19.9	0.00e+00	0	39	0	1305477120	46	4217
2026-01-15 15:34:53.23	233.32	22.27	-38.0	-39.4	20.0	0.00e+00	0	39	0	1327497216	46	4216
2026-01-15 15:34:56.21	234.00	22.50	-38.0	-39.4	20.0	0.00e+00	0	39	0	1348468736	46	4194
2026-01-15 15:34:59.18	234.69	22.73	-37.9	-39.2	20.2	0.00e+00	0	39	0	1370488832	46	4126
2026-01-15 15:35:02.16	235.39	22.96	-37.8	-39.2	20.1	0.00e+00	0	39	0	1391460352	46	4111
2026-01-15 15:35:05.14	236.10	23.19	-37.8	-39.2	20.2	0.00e+00	0	39	0	1412431872	46	4112
2026-01-15 15:35:08.12	236.82	23.41	-37.9	-39.3	20.1	0.00e+00	0	39	0	1434451968	46	4179
2026-01-15 15:35:11.10	237.55	23.63	-38.1	-39.5	19.9	0.00e+00	0	39	0	1455423488	46	4261
2026-01-15 15:35:14.08	238.29	23.85	-37.9	-39.3	20.1	0.00e+00	0	39	0	1477443584	46	4160
2026-01-15 15:35:17.06	239.04	24.06	-37.9	-39.2	20.1	0.00e+00	0	39	0	1498415104	46	4137
2026-01-15 15:35:20.03	239.80	24.28	-37.8	-39.1	20.2	0.00e+00	0	39	0	1520435200	46	4087
2026-01-15 15:35:23.01	240.57	24.48	-37.6	-38.9	20.4	0.00e+00	0	39	0	1541406720	46	4004
2026-01-15 15:35:25.99	241.35	24.69	-37.5	-38.9	20.4	0.00e+00	0	39	0	1563426816	45	4199
2026-01-15 15:35:28.97	242.14	24.89	-37.6	-38.9	20.4	0.00e+00	0	39	0	1585446912	45	4240
2026-01-15 15:35:31.95	242.94	25.08	-37.5	-38.9	20.5	0.00e+00	0	39	0	1606418432	45	4205
2026-01-15 15:35:34.93	243.74	25.28	-37.6	-39.0	20.4	0.00e+00	0	39	0	1628438528	45	4263
2026-01-15 15:35:37.91	244.56	25.46	-38.2	-39.1	20.7	0.00e+00	0	39	0	1649410048	45	4339
2026-01-15 15:35:40.88	245.39	25.65	-38.3	-39.2	20.6	0.00e+00	0	39	0	1671430144	46	4128
2026-01-15 15:35:43.86	246.23	25.82	-38.0	-39.0	20.9	0.00e+00	0	39	0	1692401664	46	4013
2026-01-15 15:35:46.84	247.07	25.99	-38.0	-39.0	20.8	0.00e+00	0	39	0	1714421760	46	4010
2026-01-15 15:35:49.82	247.93	26.16	-37.8	-38.7	21.1	0.00e+00	0	39	0	1735393280	46	3885
2026-01-15 15:35:52.80	248.79	26.32	-37.7	-38.6	21.1	0.00e+00	0	39	0	1756364800	46	3848
2026-01-15 15:35:55.78	249.66	26.48	-37.6	-38.5	21.3	0.00e+00	0	39	0	1778384896	45	4014
2026-01-15 15:35:58.76	250.55	26.62	-37.7	-38.7	21.1	0.00e+00	0	39	0	1799356416	45	4102
2026-01-15 15:36:01.74	251.43	26.77	-37.9	-38.8	21.0	0.00e+00	0	39	0	1821376512	45	4178
2026-01-15 15:36:04.72	252.33	26.90	-37.7	-38.6	21.1	0.00e+00	0	39	0	1843396608	45	4089
2026-01-15 15:36:07.69	253.23	27.03	-37.9	-38.9	20.9	0.00e+00	0	39	0	1864368128	45	4210
2026-01-15 15:36:10.67	254.14	27.15	-37.9	-38.8	20.9	0.00e+00	0	39	0	1886388224	45	4192
2026-01-15 15:36:13.65	255.06	27.26	-37.9	-38.9	20.9	0.00e+00	0	39	0	1907359744	45	4207
2026-01-15 15:36:16.63	255.98	27.37	-37.9	-38.8	20.9	0.00e+00	0	39	0	1929379840	45	4189
2026-01-15 15:36:19.61	256.91	27.47	-37.7	-38.7	21.1	0.00e+00	0	39	0	1950351360	45	4110
2026-01-15 15:36:22.59	257.84	27.56	-38.0	-39.0	20.8	0.00e+00	0	39	0	1972371456	45	4256
2026-01-15 15:36:25.57	258.78	27.65	-38.1	-39.0	20.8	0.00e+00	0	39	0	1993342976	46	4038
2026-01-15 15:36:28.54	259.72	27.72	-38.0	-38.9	20.9	0.00e+00	0	39	0	2015363072	46	3993
2026-01-15 15:36:31.52	260.67	27.79	-38.1	-39.0	20.8	0.00e+00	0	39	0	2036334592	46	4027
2026-01-15 15:36:34.50	261.62	27.85	-38.0	-38.9	20.9	0.00e+00	0	39	0	2058354688	46	3994
2026-01-15 15:36:37.48	262.58	27.90	-37.9	-38.9	21.0	0.00e+00	0	39	0	2079326208	46	3963
2026-01-15 15:36:40.46	263.53	27.94	-37.7	-38.7	21.1	0.00e+00	0	39	0	2101346304	46	3879
2026-01-15 15:36:43.44	264.49	27.98	-38.1	-39.0	20.9	0.00e+00	0	39	0	2122317824	46	4026
2026-01-15 15:36:46.41	265.45	28.01	-37.9	-38.8	21.0	0.00e+00	0	39	0	2143289344	46	3943
2026-01-15 15:36:49.39	266.41	28.02	-37.8	-38.7	21.1	0.00e+00	0	39	0	2165309440	46	3904
2026-01-15 15:36:52.37	267.38	28.03	-37.8	-38.7	21.1	0.00e+00	0	39	0	2187329536	46	3893
2026-01-15 15:36:55.35	268.34	28.03	-38.0	-38.9	20.9	0.00e+00	0	39	0	2208301056	46	3996
2026-01-15 15:36:58.33	269.30	28.02	-38.0	-38.9	20.9	0.00e+00	0	39	0	2230321152	46	3980
2026-01-15 15:37:01.31	270.27	28.01	-37.7	-38.6	21.2	0.00e+00	0	39	0	2251292672	46	3850
2026-01-15 15:37:04.28	271.23	27.98	-37.9	-38.9	20.9	0.00e+00	0	39	0	2273312768	46	3973
2026-01-15 15:37:07.26	272.18	27.95	-37.7	-38.6	21.2	0.00e+00	0	39	0	2294284288	46	3865
2026-01-15 15:37:10.24	273.14	27.91	-37.7	-38.6	21.2	0.00e+00	0	39	0	2316304384	45	4067
2026-01-15 15:37:13.22	274.10	27.85	-37.8	-38.8	21.0	0.00e+00	0	39	0	2337275904	45	4151
2026-01-15 15:37:16.20	275.05	27.80	-38.0	-39.0	20.8	0.00e+00	0	39	0	2359296000	45	4262
2026-01-15 15:37:19.18	275.99	27.73	-37.9	-38.8	20.9	0.00e+00	0	39	0	2380267520	45	4186
2026-01-15 15:37:22.15	276.93	27.65	-37.9	-38.8	20.9	0.00e+00	0	39	0	2402287616	45	4191
2026-01-15 15:37:25.13	277.87	27.57	-38.0	-38.9	20.9	0.00e+00	0	39	0	2423259136	45	4233
2026-01-15 15:37:28.11	278.80	27.48	-38.0	-38.9	20.9	0.00e+00	0	39	0	2445279232	45	4219
2026-01-15 15:37:31.09	279.73	27.38	-37.9	-38.8	21.0	0.00e+00	0	39	0	2466250752	45	4165
2026-01-15 15:37:34.07	280.65	27.28	-37.8	-38.7	21.1	0.00e+00	0	39	0	2488270848	45	4136
2026-01-15 15:37:37.05	281.57	27.16	-37.9	-38.9	20.9	0.00e+00	0	39	0	2509242368	45	4204
2026-01-15 15:37:40.02	282.48	27.04	-37.9	-38.8	21.0	0.00e+00	0	39	0	2531262464	45	4170
2026-01-15 15:37:43.00	283.38	26.91	-38.0	-38.9	20.9	0.00e+00	0	39	0	2552233984	45	4239
2026-01-15 15:37:45.98	284.27	26.78	-38.1	-39.0	20.8	0.00e+00	0	39	0	2574254080	45	4271
2026-01-15 15:37:48.96	285.16	26.64	-38.1	-39.0	20.7	0.00e+00	0	39	0	2595225600	45	4284
2026-01-15 15:37:51.94	286.04	26.49	-38.0	-38.9	20.9	0.00e+00	0	39	0	2617245696	45	4219
2026-01-15 15:37:54.92	286.91	26.34	-37.8	-38.7	21.1	0.00e+00	0	39	0	2638217216	45	4108
2026-01-15 15:37:57.90	287.77	26.18	-37.9	-38.8	21.0	0.00e+00	0	39	0	2660237312	45	4173
2026-01-15 15:38:00.88	288.62	26.01	-38.2	-39.1	20.7	0.00e+00	0	39	0	2681208832	45	4327
2026-01-15 15:38:03.86	289.47	25.84	-38.0	-39.1	20.7	0.00e+00	0	39	0	2703228928	45	4302
2026-01-15 15:38:06.83	290.30	25.67	-37.9	-39.3	20.5	0.00e+00	0	39	0	2724200448	45	4398
2026-01-15 15:38:09.81	291.13	25.49	-37.5	-39.1	20.6	0.00e+00	0	39	0	2746220544	45	4318
2026-01-15 15:38:12.79	291.95	25.30	-37.6	-38.9	20.8	0.00e+00	0	39	0	2767192064	45	4203
2026-01-15 15:38:15.77	292.75	25.11	-38.0	-39.1	20.6	0.00e+00	0	39	0	2789212160	45	4336
2026-01-15 15:38:18.75	293.55	24.92	-38.3	-39.3	20.5	0.00e+00	0	39	0	2810183680	46	4165
2026-01-15 15:38:21.73	294.34	24.72	-38.4	-39.4	20.4	0.00e+00	0	39	0	2832203776	46	4231
2026-01-15 15:38:24.71	295.12	24.52	-38.3	-39.3	20.5	0.00e+00	0	39	0	2853175296	46	4157
2026-01-15 15:38:27.69	295.89	24.31	-38.4	-39.4	20.5	0.00e+00	0	39	0	2875195392	46	4220
2026-01-15 15:38:30.66	296.64	24.10	-38.4	-39.3	20.5	0.00e+00	0	39	0	2896166912	46	4192
2026-01-15 15:38:33.64	297.39	23.89	-38.4	-39.4	20.4	0.00e+00	0	39	0	2918187008	46	4207
2026-01-15 15:38:36.62	298.13	23.67	-38.6	-39.6	20.3	0.00e+00	0	39	0	2939158528	46	4302
2026-01-15 15:38:39.60	298.86	23.45	-38.5	-39.5	20.3	0.00e+00	0	39	0	2961178624	46	4266
2026-01-15 15:38:42.58	299.58	23.23	-38.6	-39.6	20.3	0.00e+00	0	39	0	2982150144	46	4310
2026-01-15 15:38:45.56	300.28	23.00	-38.7	-39.6	20.2	0.00e+00	0	39	0	3004170240	46	4339
2026-01-15 15:38:48.54	300.98	22.78	-38.7	-39.7	20.2	0.00e+00	0	39	0	3025141760	47	4106
2026-01-15 15:38:51.51	301.67	22.55	-38.7	-39.7	20.0	0.00e+00	0	39	0	3047161856	47	4099
2026-01-15 15:38:54.49	302.35	22.32	-38.7	-39.6	20.2	0.00e+00	0	39	0	3068133376	47	4090
2026-01-15 15:38:57.47	303.01	22.08	-38.6	-39.6	20.2	0.00e+00	0	39	0	3090153472	47	4071
2026-01-15 15:39:00.45	303.67	21.85	-38.8	-39.7	20.1	0.00e+00	0	39	0	3111124992	47	4145
2026-01-15 15:39:03.43	304.32	21.61	-38.9	-39.9	19.9	0.00e+00	0	39	0	3133145088	47	4231
2026-01-15 15:39:06.41	304.96	21.38	-39.0	-40.0	19.9	0.00e+00	0	39	0	3154116608	47	4257
2026-01-15 15:39:09.39	305.59	21.14	-39.1	-40.2	19.7	0.00e+00	0	39	0	3176136704	47	4346
2026-01-15 15:39:12.36	306.21	20.90	-39.0	-40.0	19.9	0.00e+00	0	39	0	3198156800	47	4254
2026-01-15 15:39:15.34	306.82	20.66	-39.1	-40.2	19.7	0.00e+00	0	39	0	3219128320	47	4342
2026-01-15 15:39:18.32	307.42	20.41	-39.0	-40.0	19.8	0.00e+00	0	39	0	3241148416	47	4286
2026-01-15 15:39:21.30	308.01	20.17	-39.1	-40.1	19.7	0.00e+00	0	39	0	3262119936	47	4311
2026-01-15 15:39:24.28	308.60	19.93	-39.5	-40.5	19.6	0.00e+00	0	39	0	3284140032	48	4288
2026-01-15 15:39:27.26	309.17	19.69	-39.7	-40.8	19.4	0.00e+00	0	39	0	3305111552	48	4402
2026-01-15 15:39:30.23	309.73	19.44	-39.6	-40.7	19.5	0.00e+00	0	39	0	3326083072	48	4351
2026-01-15 15:39:33.21	310.29	19.20	-39.5	-40.6	19.6	0.00e+00	0	39	0	3348103168	48	4301
2026-01-15 15:39:36.19	310.84	18.95	-39.3	-40.3	19.8	0.00e+00	0	39	0	3369074688	48	4181
2026-01-15 15:39:39.17	311.38	18.71	-39.3	-40.3	19.8	0.00e+00	0	39	0	3391094784	48	4158
2026-01-15 15:39:42.15	311.91	18.46	-39.6	-40.7	19.5	0.00e+00	0	39	0	3412066304	48	4350
2026-01-15 15:39:45.13	312.43	18.22	-40.1	-41.1	19.0	0.00e+00	0	39	0	3434086400	49	4340
2026-01-15 15:39:48.11	312.95	17.98	-40.1	-41.2	19.0	0.00e+00	0	39	0	3455057920	49	4353
2026-01-15 15:39:51.09	313.45	17.73	-39.7	-40.8	19.4	0.00e+00	0	39	0	3477078016	49	4154
2026-01-15 15:39:54.07	313.95	17.49	-39.6	-40.6	19.4	0.00e+00	0	39	0	3499098112	49	4097
2026-01-15 15:39:57.04	314.44	17.25	-39.5	-40.6	19.6	0.00e+00	0	39	0	3520069632	49	4055
2026-01-15 15:40:00.02	314.92	17.01	-39.5	-40.5	19.6	0.00e+00	0	39	0	3542089728	49	4043
2026-01-15 15:40:03.00	315.40	16.76	-39.8	-40.9	19.2	0.00e+00	0	39	0	3563061248	49	4211
2026-01-15 15:40:05.98	315.87	16.52	-40.3	-41.4	18.8	0.00e+00	0	39	0	3585081344	49	4454
2026-01-15 15:40:08.96	316.33	16.28	-40.5	-41.7	18.5	0.00e+00	0	39	0	3606052864	50	4360
2026-01-15 15:40:11.94	316.78	16.04	-40.6	-41.8	18.3	0.00e+00	0	39	0	3628072960	50	4425
2026-01-15 15:40:14.92	317.23	15.80	-40.4	-41.5	18.6	0.00e+00	0	39	0	3649044480	50	4276
2026-01-15 15:40:17.90	317.67	15.56	-40.0	-41.2	18.9	0.00e+00	0	39	0	3670016000	50	4110
2026-01-15 15:40:20.88	318.11	15.33	-39.9	-41.1	19.0	0.00e+00	0	39	0	3692036096	50	4053
2026-01-15 15:40:23.86	318.53	15.09	-40.1	-41.2	18.9	0.00e+00	0	39	0	3713007616	50	4130
2026-01-15 15:40:26.83	318.95	14.85	-40.3	-41.5	18.7	0.00e+00	0	39	0	3735027712	50	4247
2026-01-15 15:40:29.81	319.37	14.62	-40.6	-41.7	18.4	0.00e+00	0	39	0	3755999232	50	4366
2026-01-15 15:40:32.79	319.77	14.38	-40.7	-41.8	18.3	0.00e+00	0	39	0	3778019328	50	4413
2026-01-15 15:40:35.77	320.17	14.15	-40.8	-41.9	18.2	0.00e+00	0	39	0	3800039424	51	4227
2026-01-15 15:40:38.75	320.57	13.92	-40.7	-41.8	18.3	0.00e+00	0	39	0	3821010944	51	4183
2026-01-15 15:40:41.73	320.96	13.69	-40.6	-41.7	18.3	0.00e+00	0	39	0	3843031040	51	4137
2026-01-15 15:40:44.71	321.34	13.46	-40.6	-41.7	18.4	0.00e+00	0	39	0	3864002560	51	4124
2026-01-15 15:40:47.69	321.72	13.23	-40.6	-41.7	18.3	0.00e+00	0	39	0	3886022656	51	4142
2026-01-15 15:40:50.67	322.09	13.00	-40.7	-41.9	18.2	0.00e+00	0	39	0	3906994176	51	4201
2026-01-15 15:40:53.64	322.46	12.77	-40.9	-42.0	18.0	0.00e+00	0	39	0	3929014272	51	4282
2026-01-15 15:40:56.62	322.82	12.55	-40.7	-41.9	18.2	0.00e+00	0	39	0	3949985792	51	4199
2026-01-15 15:40:59.60	323.18	12.32	-40.8	-42.0	18.0	0.00e+00	0	39	0	3972005888	51	4291
2026-01-15 15:41:02.58	323.53	12.10	-40.7	-42.1	18.0	0.00e+00	0	39	0	3992977408	51	4318
2026-01-15 15:41:05.56	323.88	11.88	-40.8	-42.1	17.9	0.00e+00	0	39	0	4014997504	51	4336
2026-01-15 15:41:08.54	324.22	11.66	-40.9	-42.2	17.8	0.00e+00	0	39	0	4035969024	51	4376
2026-01-15 15:41:11.51	324.55	11.44	-41.0	-42.3	17.7	0.00e+00	0	39	0	4057989120	51	4439
2026-01-15 15:41:14.49	324.88	11.22	-41.2	-42.6	17.4	0.00e+00	0	39	0	4078960640	51	4564
2026-01-15 15:41:17.47	325.21	11.00	-41.4	-42.9	17.1	0.00e+00	0	39	0	4100980736	52	4442
2026-01-15 15:41:20.45	325.53	10.78	-41.4	-42.8	17.1	0.00e+00	0	39	0	4121952256	52	4425
2026-01-15 15:41:23.43	325.85	10.57	-41.4	-42.8	17.2	0.00e+00	0	39	0	4143972352	52	4404
2026-01-15 15:41:26.41	326.16	10.35	-41.5	-42.9	17.1	0.00e+00	0	39	0	4164943872	52	4443
2026-01-15 15:41:29.39	326.47	10.14	-41.6	-43.0	17.0	0.00e+00	0	39	0	4186963968	52	4494
2026-01-15 15:41:32.36	326.77	9.93	-41.6	-43.0	16.9	0.00e+00	0	39	0	4207935488	52	4497
2026-01-15 15:41:35.34	327.07	9.72	-41.5	-42.9	17.0	0.00e+00	0	39	0	4229955584	52	4448
2026-01-15 15:41:38.32	327.37	9.51	-41.6	-42.9	17.0	0.00e+00	0	39	0	4250927104	52	4475
2026-01-15 15:41:41.30	327.66	9.30	-41.5	-42.9	17.0	0.00e+00	0	39	0	4272947200	52	4449
2026-01-15 15:41:44.28	327.95	9.09	-41.7	-43.0	16.8	0.00e+00	0	39	0	4293918720	52	4528
2026-01-15 15:41:47.26	328.24	8.88	-49.5	-61.5	3.8	8.46e-01	0	39	104	4305453056	69	14243
2026-01-15 15:41:50.24	328.52	8.68	-50.7	-61.8	3.8	8.47e-01	0	39	104	4305453056	71	13181
2026-01-15 15:41:53.22	328.79	8.47	-51.1	-61.9	3.8	8.47e-01	0	39	104	4305453056	71	13385
2026-01-15 15:41:56.20	329.07	8.27	-50.8	-62.0	3.8	8.47e-01	0	39	104	4305453056	71	13481
2026-01-15 15:41:59.17	329.34	8.07	-51.2	-62.1	3.8	8.47e-01	0	39	104	4305453056	71	13571
2026-01-15 15:42:02.13	329.60	7.87	-51.3	-62.1	3.8	8.46e-01	0	39	104	4305453056	72	12817
2026-01-15 15:42:05.11	329.86	7.67	-51.0	-62.0	3.8	8.46e-01	0	39	104	4305453056	72	12744
2026-01-15 15:42:08.09	330.12	7.47	-50.9	-61.9	3.8	8.47e-01	0	39	104	4305453056	72	12580
2026-01-15 15:42:11.07	330.38	7.27	-50.8	-61.9	3.8	8.46e-01	0	39	104	4305453056	72	12645
2026-01-15 15:42:14.05	330.63	7.08	-50.8	-62.0	3.8	8.46e-01	0	39	104	4305453056	72	12704
2026-01-15 15:42:17.03	330.88	6.88	-50.8	-61.9	3.8	8.47e-01	0	39	104	4305453056	72	12636
2026-01-15 15:42:20.01	331.13	6.69	-50.8	-61.9	3.8	8.47e-01	0	39	104	4305453056	72	12659
2026-01-15 15:42:22.99	331.37	6.49	-50.8	-61.9	3.8	8.46e-01	0	39	104	4305453056	72	12547
2026-01-15 15:42:25.97	331.61	6.30	-50.8	-61.9	3.8	8.47e-01	0	39	104	4305453056	72	12599
2026-01-15 15:42:28.94	331.85	6.11	-50.8	-61.9	3.8	8.48e-01	0	39	104	4305453056	72	12550
2026-01-15 15:42:31.92	332.08	5.92	-50.8	-61.9	3.8	8.47e-01	0	39	104	4305453056	72	12601
2026-01-15 15:42:34.90	332.31	5.73	-50.8	-61.9	3.8	8.46e-01	0	39	104	4305453056	72	12594
2026-01-15 15:42:37.88	332.54	5.54	-50.8	-61.9	3.8	8.47e-01	0	39	104	4305453056	72	12555
2026-01-15 15:42:40.86	332.77	5.36	-50.8	-61.9	3.8	8.46e-01	0	39	104	4305453056	72	12597
2026-01-15 15:42:43.84	332.99	5.17	-50.8	-61.9	3.8	8.46e-01	0	39	104	4305453056	72	12542
2026-01-15 15:42:46.82	333.21	4.98	-50.8	-61.9	3.8	8.46e-01	0	39	104	4305453056	72	12593

#Closed at: 2026-01-15 15:42:47
#Recorded file [4305 MB]: D:/Data/31040_260115_183103.dat