passes_logs/2026/01/15/T1/T1__20260115_035921_FENGYUN_3E_rec.log

#Pass ID: 20260115_035921_FENGYUN 3E
#Satellite: FENGYUN 3E
#Configuration: FENGYUN 3E
#almurnet v.1.7.20251203
#Start time: 2026-01-15 03:59:23

#Version: 2.0.20230620
#Station: T1
#Location: 37.570604 lon 55.790049 lat
#TLE: 1 49008U 21062A   26014.58289545 -.00000120  00000+0 -35876-4 0  9998
#TLE: 2 49008  98.7488  19.7165 0002000 137.1107 223.0226 14.19884293234788

#Time	Az	El	Level	Level2	SNR	BER	BlckErr	Temp	State	Recorded	gain1	gain2
2026-01-15 03:59:23.74	16.19	5.13	-48.9	-60.7	3.8	8.47e-01	0	41	0	0	68	13848
2026-01-15 03:59:27.71	16.20	5.41	-48.8	-60.4	3.8	8.47e-01	0	41	104	0	67	14111
2026-01-15 03:59:31.68	16.21	5.70	-48.7	-59.7	3.8	8.46e-01	0	41	104	0	67	13075
2026-01-15 03:59:35.65	16.22	5.99	-48.7	-60.1	3.8	8.47e-01	0	41	104	0	67	13706
2026-01-15 03:59:39.63	16.24	6.29	-48.8	-60.3	3.8	8.47e-01	0	41	104	0	67	14011
2026-01-15 03:59:43.60	16.25	6.59	-48.7	-60.0	3.8	8.46e-01	0	42	104	0	67	13481
2026-01-15 03:59:47.57	16.26	6.89	-48.8	-61.0	3.8	8.47e-01	0	42	104	0	67	15196
2026-01-15 03:59:51.54	16.27	7.19	-48.7	-59.5	3.8	8.47e-01	0	42	104	0	67	12665
2026-01-15 03:59:55.52	16.28	7.50	-47.8	-54.0	6.1	3.66e-01	0	42	0	3145728	66	7192
2026-01-15 03:59:59.49	16.29	7.82	-46.7	-51.1	8.8	3.47e-02	0	42	0	31457280	64	5752
2026-01-15 04:00:03.46	16.30	8.13	-46.2	-49.8	10.2	7.16e-03	0	42	0	60817408	63	5275
2026-01-15 04:00:07.44	16.31	8.45	-45.8	-49.2	11.0	1.87e-03	0	42	0	89128960	62	5173
2026-01-15 04:00:11.41	16.31	8.78	-46.2	-49.8	10.2	5.46e-03	0	42	0	117440512	62	5589
2026-01-15 04:00:15.38	16.32	9.11	-46.4	-50.1	9.9	1.11e-01	0	42	0	145752064	63	5448
2026-01-15 04:00:19.36	16.33	9.44	-42.4	-44.1	15.9	0.00e+00	0	43	0	166723584	55	4330
2026-01-15 04:00:23.34	16.34	9.78	-41.7	-43.2	16.8	0.00e+00	0	43	0	195035136	54	4127
2026-01-15 04:00:27.32	16.35	10.13	-41.4	-42.9	17.1	0.00e+00	0	43	0	224395264	53	4196
2026-01-15 04:00:31.30	16.36	10.47	-41.1	-42.5	17.5	0.00e+00	0	43	0	252706816	52	4248
2026-01-15 04:00:35.28	16.37	10.83	-40.8	-42.1	17.9	0.00e+00	0	43	0	281018368	52	4088
2026-01-15 04:00:39.26	16.37	11.19	-40.8	-42.1	17.9	0.00e+00	0	43	0	310378496	52	4090
2026-01-15 04:00:43.23	16.38	11.55	-40.6	-42.0	18.1	0.00e+00	0	43	0	338690048	52	4024
2026-01-15 04:00:47.21	16.39	11.92	-40.8	-42.2	17.9	0.00e+00	0	43	0	368050176	51	4367
2026-01-15 04:00:51.19	16.40	12.30	-40.6	-42.0	18.2	0.00e+00	0	43	0	396361728	51	4251
2026-01-15 04:00:55.17	16.40	12.68	-40.5	-41.8	18.3	0.00e+00	0	43	0	424673280	51	4190
2026-01-15 04:00:59.15	16.41	13.06	-40.4	-41.7	18.5	0.00e+00	0	43	0	454033408	51	4126
2026-01-15 04:01:03.13	16.42	13.46	-40.3	-41.5	18.6	0.00e+00	0	43	0	482344960	51	4032
2026-01-15 04:01:07.11	16.42	13.86	-40.3	-41.5	18.7	0.00e+00	0	43	0	511705088	51	4010
2026-01-15 04:01:11.10	16.43	14.27	-40.1	-41.2	19.0	0.00e+00	0	43	0	540016640	50	4115
2026-01-15 04:01:15.07	16.44	14.68	-40.0	-41.1	19.1	0.00e+00	0	43	0	568328192	50	4092
2026-01-15 04:01:19.05	16.44	15.10	-39.9	-41.0	19.1	0.00e+00	0	43	0	597688320	50	4048
2026-01-15 04:01:23.03	16.45	15.53	-39.9	-41.0	19.2	0.00e+00	0	43	0	625999872	50	4031
2026-01-15 04:01:27.00	16.45	15.97	-39.9	-41.0	19.2	0.00e+00	0	43	0	655360000	50	4008
2026-01-15 04:01:30.98	16.46	16.41	-40.0	-41.0	19.2	0.00e+00	0	43	0	683671552	50	4040
2026-01-15 04:01:34.97	16.46	16.86	-39.9	-40.9	19.3	0.00e+00	0	43	0	711983104	50	3997
2026-01-15 04:01:38.94	16.46	17.32	-39.8	-40.8	19.5	0.00e+00	0	43	0	741343232	50	3920
2026-01-15 04:01:42.92	16.47	17.79	-39.8	-40.8	19.4	0.00e+00	0	43	0	769654784	49	4153
2026-01-15 04:01:46.90	16.47	18.27	-39.7	-40.7	19.5	0.00e+00	0	43	0	797966336	49	4139
2026-01-15 04:01:50.87	16.47	18.76	-39.5	-40.5	19.7	0.00e+00	0	43	0	827326464	49	4019
2026-01-15 04:01:54.85	16.47	19.26	-39.4	-40.4	19.8	0.00e+00	0	43	0	855638016	49	3965
2026-01-15 04:01:58.83	16.48	19.77	-39.3	-40.3	19.9	0.00e+00	0	43	0	883949568	49	3939
2026-01-15 04:02:02.81	16.48	20.29	-39.2	-40.1	20.0	0.00e+00	0	43	0	913309696	48	4094
2026-01-15 04:02:06.79	16.48	20.82	-38.8	-39.8	20.3	0.00e+00	0	43	0	941621248	48	3939
2026-01-15 04:02:10.77	16.48	21.36	-38.8	-39.7	20.4	0.00e+00	0	44	0	970981376	48	3901
2026-01-15 04:02:14.75	16.48	21.92	-38.5	-39.5	20.3	0.00e+00	0	44	0	999292928	47	4035
2026-01-15 04:02:18.73	16.48	22.49	-38.4	-39.4	20.3	0.00e+00	0	44	0	1027604480	47	3974
2026-01-15 04:02:22.70	16.47	23.06	-38.5	-39.5	20.4	0.00e+00	0	43	0	1056964608	47	4013
2026-01-15 04:02:26.68	16.47	23.66	-38.3	-39.3	20.5	0.00e+00	0	43	0	1085276160	47	3923
2026-01-15 04:02:30.66	16.47	24.26	-38.4	-39.3	20.5	0.00e+00	0	43	0	1114636288	47	3954
2026-01-15 04:02:34.64	16.47	24.89	-38.5	-39.4	20.4	0.00e+00	0	43	0	1142947840	47	3991
2026-01-15 04:02:38.62	16.46	25.52	-38.5	-39.4	20.5	0.00e+00	0	43	0	1171259392	47	3998
2026-01-15 04:02:42.60	16.46	26.18	-38.3	-39.3	20.6	0.00e+00	0	44	0	1200619520	47	3926
2026-01-15 04:02:46.59	16.45	26.85	-38.0	-39.0	20.9	0.00e+00	0	43	0	1228931072	46	4009
2026-01-15 04:02:50.57	16.44	27.53	-37.9	-38.8	21.1	0.00e+00	0	43	0	1258291200	46	3936
2026-01-15 04:02:54.54	16.43	28.23	-37.7	-38.6	21.2	0.00e+00	0	43	0	1286602752	46	3862
2026-01-15 04:02:58.52	16.42	28.96	-37.6	-38.5	21.4	0.00e+00	0	43	0	1314914304	45	4015
2026-01-15 04:03:02.50	16.41	29.70	-37.8	-38.7	21.1	0.00e+00	0	43	0	1344274432	45	4132
2026-01-15 04:03:06.48	16.40	30.46	-38.1	-39.1	20.8	0.00e+00	0	43	0	1372585984	45	4311
2026-01-15 04:03:10.46	16.39	31.24	-38.1	-39.0	20.9	0.00e+00	0	43	0	1401946112	46	4042
2026-01-15 04:03:14.44	16.37	32.04	-38.1	-39.0	20.9	0.00e+00	0	44	0	1430257664	46	4042
2026-01-15 04:03:18.42	16.36	32.87	-38.0	-38.9	21.0	0.00e+00	0	44	0	1458569216	46	4001
2026-01-15 04:03:22.40	16.34	33.72	-37.8	-38.7	21.2	0.00e+00	0	43	0	1487929344	46	3912
2026-01-15 04:03:26.37	16.32	34.59	-37.8	-38.7	21.2	0.00e+00	0	43	0	1516240896	46	3894
2026-01-15 04:03:30.35	16.30	35.49	-37.8	-38.7	21.3	0.00e+00	0	43	0	1545601024	46	3875
2026-01-15 04:03:34.33	16.28	36.42	-37.7	-38.6	21.3	0.00e+00	0	43	0	1573912576	46	3848
2026-01-15 04:03:38.31	16.25	37.37	-37.5	-38.4	21.5	0.00e+00	0	44	0	1602224128	45	3988
2026-01-15 04:03:42.29	16.22	38.35	-38.1	-39.0	21.0	0.00e+00	0	43	0	1631584256	45	4278
2026-01-15 04:03:46.27	16.19	39.36	-38.0	-39.0	21.0	0.00e+00	0	43	0	1659895808	45	4263
2026-01-15 04:03:50.25	16.16	40.40	-38.0	-38.9	21.0	0.00e+00	0	43	0	1689255936	45	4239
2026-01-15 04:03:54.23	16.12	41.47	-38.0	-38.9	21.1	0.00e+00	0	44	0	1717567488	45	4236
2026-01-15 04:03:58.21	16.08	42.58	-38.1	-39.0	21.0	0.00e+00	0	44	0	1745879040	45	4259
2026-01-15 04:04:02.19	16.04	43.72	-38.4	-39.4	20.7	0.00e+00	0	44	0	1775239168	46	4206
2026-01-15 04:04:06.16	15.99	44.89	-38.8	-39.8	20.3	0.00e+00	0	43	0	1803550720	47	4173
2026-01-15 04:04:10.14	15.93	46.10	-38.9	-39.9	20.2	0.00e+00	0	43	0	1831862272	47	4216
2026-01-15 04:04:14.12	15.87	47.34	-38.8	-39.7	20.4	0.00e+00	0	43	0	1861222400	47	4125
2026-01-15 04:04:18.09	15.81	48.62	-39.0	-40.0	20.1	0.00e+00	0	44	0	1889533952	47	4268
2026-01-15 04:04:22.07	15.73	49.95	-39.4	-40.4	20.0	0.00e+00	0	43	0	1918894080	48	4227
2026-01-15 04:04:26.05	15.65	51.31	-39.7	-40.6	19.8	0.00e+00	0	44	0	1947205632	49	4096
2026-01-15 04:04:30.03	15.56	52.71	-39.8	-40.8	19.7	0.00e+00	0	44	0	1975517184	49	4149
2026-01-15 04:04:34.02	15.46	54.16	-39.9	-40.9	19.6	0.00e+00	0	44	0	2004877312	49	4221
2026-01-15 04:04:37.99	15.35	55.64	-39.5	-40.4	20.0	0.00e+00	0	43	0	2033188864	49	3999
2026-01-15 04:04:41.97	15.22	57.17	-39.9	-40.9	19.6	0.00e+00	0	43	0	2062548992	49	4237
2026-01-15 04:04:45.95	15.07	58.74	-39.8	-40.8	19.7	0.00e+00	0	44	0	2090860544	49	4155
2026-01-15 04:04:49.93	14.91	60.36	-39.3	-40.2	20.2	0.00e+00	0	44	0	2119172096	49	3902
2026-01-15 04:04:53.91	14.72	62.01	-39.3	-40.2	20.2	0.00e+00	0	44	0	2148532224	48	4142
2026-01-15 04:04:57.89	14.50	63.71	-38.9	-39.9	20.2	0.00e+00	0	44	0	2176843776	47	4206
2026-01-15 04:05:01.86	14.24	65.44	-38.3	-39.2	20.8	0.00e+00	0	43	0	2206203904	47	3890
2026-01-15 04:05:05.84	13.94	67.21	-37.7	-38.6	21.4	0.00e+00	0	44	0	2234515456	46	3851
2026-01-15 04:05:09.82	13.57	69.03	-38.2	-39.1	20.9	0.00e+00	0	44	0	2262827008	46	4067
2026-01-15 04:05:13.80	13.13	70.88	-38.2	-39.1	20.8	0.00e+00	0	43	0	2292187136	46	4082
2026-01-15 04:05:17.78	12.58	72.76	-38.5	-39.4	20.7	0.00e+00	0	44	0	2320498688	46	4215
2026-01-15 04:05:21.75	11.89	74.67	-38.1	-39.0	21.0	0.00e+00	0	43	0	2349858816	46	4024
2026-01-15 04:05:25.73	10.98	76.61	-36.9	-37.8	22.1	0.00e+00	0	43	0	2378170368	44	3920
2026-01-15 04:05:29.71	9.74	78.57	-36.9	-37.7	21.9	0.00e+00	0	44	0	2406481920	44	3904
2026-01-15 04:05:33.69	7.97	80.54	-36.1	-36.9	22.6	0.00e+00	0	43	0	2435842048	42	3981
2026-01-15 04:05:37.67	5.24	82.53	-36.7	-37.6	22.1	0.00e+00	0	43	0	2464153600	43	4053
2026-01-15 04:05:41.65	0.51	84.49	-36.7	-37.6	22.0	0.00e+00	0	44	0	2493513728	43	4072
2026-01-15 04:05:45.63	350.62	86.39	-36.6	-37.5	22.2	0.00e+00	0	44	0	2521825280	43	4005
2026-01-15 04:05:49.60	322.73	87.98	-37.2	-38.1	21.8	0.00e+00	0	44	0	2550136832	44	4068
2026-01-15 04:05:53.59	259.32	88.10	-37.5	-38.4	21.5	0.00e+00	0	44	0	2579496960	45	3991
2026-01-15 04:05:57.57	227.36	86.59	-37.4	-38.3	21.7	0.00e+00	0	43	0	2607808512	44	4161
2026-01-15 04:06:01.54	216.45	84.71	-37.0	-37.9	22.0	0.00e+00	0	44	0	2637168640	44	3959
2026-01-15 04:06:05.52	211.36	82.75	-37.0	-37.9	22.0	0.00e+00	0	44	0	2665480192	44	3964
2026-01-15 04:06:09.50	208.47	80.77	-36.3	-37.1	22.4	0.00e+00	0	44	0	2693791744	42	4075
2026-01-15 04:06:13.48	206.62	78.79	-36.3	-37.2	22.3	0.00e+00	0	44	0	2723151872	42	4111
2026-01-15 04:06:17.45	205.34	76.83	-37.5	-38.4	21.5	0.00e+00	0	44	0	2751463424	44	4232
2026-01-15 04:06:21.43	204.40	74.88	-38.1	-39.0	20.9	0.00e+00	0	44	0	2779774976	45	4284
2026-01-15 04:06:25.41	203.68	72.96	-38.5	-39.4	20.6	0.00e+00	0	44	0	2809135104	46	4229
2026-01-15 04:06:29.39	203.12	71.07	-38.7	-39.6	20.5	0.00e+00	0	44	0	2837446656	46	4324
2026-01-15 04:06:33.37	202.66	69.21	-37.9	-38.8	21.2	0.00e+00	0	43	0	2866806784	46	3939
2026-01-15 04:06:37.35	202.29	67.39	-38.2	-39.1	20.9	0.00e+00	0	44	0	2895118336	46	4081
2026-01-15 04:06:41.32	201.98	65.61	-37.8	-38.6	21.3	0.00e+00	0	44	0	2923429888	46	3863
2026-01-15 04:06:45.30	201.72	63.86	-38.6	-39.6	20.5	0.00e+00	0	44	0	2952790016	47	4062
2026-01-15 04:06:49.28	201.49	62.16	-39.1	-40.0	20.2	0.00e+00	0	44	0	2981101568	47	4278
2026-01-15 04:06:53.26	201.30	60.49	-39.5	-40.5	20.0	0.00e+00	0	44	0	3010461696	49	4007
2026-01-15 04:06:57.24	201.13	58.87	-39.7	-40.7	19.8	0.00e+00	0	44	0	3038773248	49	4135
2026-01-15 04:07:01.22	200.98	57.29	-39.8	-40.8	19.8	0.00e+00	0	44	0	3067084800	49	4156
2026-01-15 04:07:05.20	200.85	55.75	-39.6	-40.6	19.9	0.00e+00	0	44	0	3096444928	49	4087
2026-01-15 04:07:09.18	200.73	54.26	-39.5	-40.5	19.9	0.00e+00	0	44	0	3124756480	49	4031
2026-01-15 04:07:13.16	200.63	52.80	-39.6	-40.6	19.9	0.00e+00	0	44	0	3153068032	49	4068
2026-01-15 04:07:17.14	200.54	51.39	-39.9	-40.9	19.5	0.00e+00	0	44	0	3182428160	49	4240
2026-01-15 04:07:21.11	200.46	50.02	-39.7	-40.7	19.8	0.00e+00	0	44	0	3210739712	49	4107
2026-01-15 04:07:25.09	200.38	48.69	-38.9	-39.9	20.4	0.00e+00	0	44	0	3239051264	48	3961
2026-01-15 04:07:29.07	200.31	47.39	-39.1	-40.0	20.4	0.00e+00	0	44	0	3268411392	48	4038
2026-01-15 04:07:33.05	200.25	46.14	-38.4	-39.3	20.8	0.00e+00	0	44	0	3296722944	47	3928
2026-01-15 04:07:37.03	200.20	44.92	-38.4	-39.3	20.7	0.00e+00	0	44	0	3326083072	47	3951
2026-01-15 04:07:41.00	200.14	43.74	-38.6	-39.5	20.5	0.00e+00	0	44	0	3354394624	47	4028
2026-01-15 04:07:44.98	200.10	42.59	-38.6	-39.6	20.5	0.00e+00	0	44	0	3382706176	47	4058
2026-01-15 04:07:48.96	200.06	41.48	-38.6	-39.5	20.5	0.00e+00	0	44	0	3412066304	47	4049
2026-01-15 04:07:52.94	200.02	40.40	-38.2	-39.1	20.9	0.00e+00	0	44	0	3440377856	47	3838
2026-01-15 04:07:56.92	199.98	39.35	-38.2	-39.1	20.8	0.00e+00	0	44	0	3469737984	46	4064
2026-01-15 04:08:00.89	199.95	38.34	-38.3	-39.3	20.8	0.00e+00	0	44	0	3498049536	46	4155
2026-01-15 04:08:04.87	199.92	37.35	-37.8	-38.7	21.2	0.00e+00	0	44	0	3526361088	46	3910
2026-01-15 04:08:08.85	199.89	36.39	-37.6	-38.5	21.4	0.00e+00	0	44	0	3555721216	45	4019
2026-01-15 04:08:12.83	199.86	35.46	-37.9	-38.8	21.1	0.00e+00	0	44	0	3584032768	45	4185
2026-01-15 04:08:16.81	199.84	34.56	-38.2	-39.1	20.9	0.00e+00	0	44	0	3613392896	45	4306
2026-01-15 04:08:20.79	199.82	33.68	-38.1	-39.1	20.9	0.00e+00	0	44	0	3641704448	45	4300
2026-01-15 04:08:24.77	199.80	32.82	-37.9	-38.8	21.1	0.00e+00	0	44	0	3670016000	45	4177
2026-01-15 04:08:28.75	199.78	31.99	-38.0	-38.9	21.0	0.00e+00	0	44	0	3699376128	45	4233
2026-01-15 04:08:32.72	199.77	31.18	-38.1	-39.0	20.9	0.00e+00	0	44	0	3727687680	45	4289
2026-01-15 04:08:36.70	199.75	30.40	-38.2	-39.2	20.8	0.00e+00	0	44	0	3757047808	46	4109
2026-01-15 04:08:40.68	199.74	29.63	-38.2	-39.2	20.8	0.00e+00	0	44	0	3785359360	46	4099
2026-01-15 04:08:44.66	199.72	28.88	-38.1	-39.1	20.9	0.00e+00	0	44	0	3813670912	46	4055
2026-01-15 04:08:48.63	199.71	28.16	-38.2	-39.2	20.8	0.00e+00	0	44	0	3843031040	46	4099
2026-01-15 04:08:52.61	199.70	27.45	-38.3	-39.2	20.8	0.00e+00	0	44	0	3871342592	46	4123
2026-01-15 04:08:56.59	199.69	26.76	-38.4	-39.4	20.6	0.00e+00	0	44	0	3899654144	46	4195
2026-01-15 04:09:00.57	199.68	26.09	-38.6	-39.5	20.5	0.00e+00	0	44	0	3929014272	46	4272
2026-01-15 04:09:04.55	199.68	25.43	-38.5	-39.5	20.5	0.00e+00	0	44	0	3957325824	46	4262
2026-01-15 04:09:08.53	199.67	24.79	-38.5	-39.5	20.5	0.00e+00	0	44	0	3986685952	46	4246
2026-01-15 04:09:12.51	199.66	24.16	-38.6	-39.5	20.5	0.00e+00	0	44	0	4014997504	46	4272
2026-01-15 04:09:16.48	199.66	23.56	-38.5	-39.5	20.5	0.00e+00	0	44	0	4043309056	46	4250
2026-01-15 04:09:20.46	199.65	22.96	-38.5	-39.4	20.6	0.00e+00	0	44	0	4072669184	46	4234
2026-01-15 04:09:24.44	199.65	22.38	-38.6	-39.5	20.4	0.00e+00	0	44	0	4100980736	46	4276
2026-01-15 04:09:28.42	199.64	21.80	-38.7	-39.6	20.3	0.00e+00	0	44	0	4130340864	46	4318
2026-01-15 04:09:32.40	199.64	21.25	-38.8	-39.7	20.3	0.00e+00	0	44	0	4158652416	47	4128
2026-01-15 04:09:36.38	199.64	20.70	-38.8	-39.8	20.1	0.00e+00	0	44	0	4186963968	47	4183
2026-01-15 04:09:40.35	199.64	20.17	-38.9	-39.9	20.0	0.00e+00	0	44	0	4216324096	47	4226
2026-01-15 04:09:44.33	199.63	19.65	-39.0	-40.0	20.0	0.00e+00	0	44	0	4244635648	47	4281
2026-01-15 04:09:48.31	199.63	19.13	-39.2	-40.2	19.8	0.00e+00	0	44	0	4273995776	47	4362
2026-01-15 04:09:52.29	199.63	18.63	-39.2	-40.2	19.8	0.00e+00	0	44	0	4302307328	47	4362
2026-01-15 04:09:56.26	199.63	18.14	-39.3	-40.3	19.7	0.00e+00	0	44	0	4330618880	47	4403
2026-01-15 04:10:00.24	199.63	17.66	-39.4	-40.4	19.8	0.00e+00	0	44	0	4358930432	48	4240
2026-01-15 04:10:04.22	199.63	17.19	-39.5	-40.5	19.7	0.00e+00	0	44	0	4388290560	48	4282
2026-01-15 04:10:08.20	199.63	16.72	-39.6	-40.6	19.6	0.00e+00	0	44	0	4417650688	48	4335
2026-01-15 04:10:12.18	199.63	16.27	-39.8	-40.8	19.5	0.00e+00	0	44	0	4445962240	49	4169
2026-01-15 04:10:16.16	199.63	15.82	-40.0	-41.0	19.2	0.00e+00	0	44	0	4474273792	49	4268
2026-01-15 04:10:20.14	199.63	15.38	-40.2	-41.2	19.0	0.00e+00	0	44	0	4502585344	49	4384
2026-01-15 04:10:24.11	199.64	14.95	-40.4	-41.4	18.9	0.00e+00	0	44	0	4531945472	50	4226
2026-01-15 04:10:28.09	199.64	14.53	-40.5	-41.5	18.7	0.00e+00	0	44	0	4561305600	50	4289
2026-01-15 04:10:32.07	199.64	14.12	-40.6	-41.6	18.6	0.00e+00	0	44	0	4589617152	50	4336
2026-01-15 04:10:36.05	199.64	13.71	-40.7	-41.8	18.4	0.00e+00	0	44	0	4617928704	51	4193
2026-01-15 04:10:40.02	199.65	13.31	-40.8	-41.9	18.4	0.00e+00	0	44	0	4646240256	51	4202
2026-01-15 04:10:44.00	199.65	12.91	-40.8	-42.0	18.3	0.00e+00	0	44	0	4675600384	51	4253
2026-01-15 04:10:47.98	199.65	12.52	-40.8	-42.0	18.3	0.00e+00	0	44	0	4703911936	51	4250
2026-01-15 04:10:51.96	199.66	12.14	-40.9	-42.0	18.2	0.00e+00	0	44	0	4733272064	51	4277
2026-01-15 04:10:55.94	199.66	11.76	-41.0	-42.2	18.0	0.00e+00	0	44	0	4761583616	51	4347
2026-01-15 04:10:59.92	199.66	11.39	-41.0	-42.2	18.0	0.00e+00	0	44	0	4789895168	51	4367
2026-01-15 04:11:03.90	199.67	11.02	-41.1	-42.3	17.9	0.00e+00	0	44	0	4819255296	51	4421
2026-01-15 04:11:07.88	199.67	10.66	-41.1	-42.3	17.8	0.00e+00	0	44	0	4847566848	52	4172
2026-01-15 04:11:11.85	199.67	10.31	-41.2	-42.4	17.7	0.00e+00	0	44	0	4876926976	52	4223
2026-01-15 04:11:15.83	199.68	9.96	-41.2	-42.4	17.7	0.00e+00	0	44	0	4905238528	52	4201
2026-01-15 04:11:19.81	199.68	9.61	-41.3	-42.6	17.5	0.00e+00	0	43	0	4933550080	52	4302
2026-01-15 04:11:23.79	199.69	9.27	-41.2	-42.5	17.6	0.00e+00	0	44	0	4962910208	52	4251
2026-01-15 04:11:27.77	199.69	8.94	-44.0	-45.8	14.7	0.00e+00	0	44	0	4991221760	57	4673
2026-01-15 04:11:31.74	199.70	8.61	-51.2	-62.0	3.8	8.48e-01	0	44	104	4993318912	71	13543
2026-01-15 04:11:35.71	199.70	8.28	-51.0	-62.2	3.8	8.46e-01	0	44	104	4993318912	72	12974
2026-01-15 04:11:39.69	199.71	7.96	-51.3	-62.2	3.8	8.47e-01	0	44	104	4993318912	72	13010
2026-01-15 04:11:43.66	199.71	7.64	-51.4	-62.2	3.8	8.46e-01	0	44	104	4993318912	72	13016
2026-01-15 04:11:47.63	199.72	7.32	-51.4	-62.1	3.8	8.47e-01	0	44	104	4993318912	72	12928
2026-01-15 04:11:51.61	199.72	7.01	-51.1	-62.1	3.8	8.46e-01	0	44	104	4993318912	72	12869
2026-01-15 04:11:55.58	199.73	6.71	-51.1	-62.1	3.8	8.47e-01	0	44	104	4993318912	72	12870
2026-01-15 04:11:59.55	199.74	6.40	-51.1	-62.1	3.8	8.47e-01	0	44	104	4993318912	72	12957
2026-01-15 04:12:03.52	199.74	6.10	-51.1	-62.1	3.8	8.47e-01	0	44	104	4993318912	72	12912
2026-01-15 04:12:07.50	199.75	5.81	-51.1	-62.1	3.8	8.47e-01	0	44	104	4993318912	72	12843
2026-01-15 04:12:11.47	199.75	5.52	-51.1	-62.1	3.8	8.46e-01	0	44	104	4993318912	72	12924
2026-01-15 04:12:15.44	199.76	5.23	-51.1	-62.1	3.8	8.48e-01	0	44	104	4993318912	72	12845

#Closed at: 2026-01-15 04:12:19
#Recorded file [4993 MB]: D:/Data/31040_260115_065923.dat