passes_logs/2026/01/15/T1/T1__20260115_231619_SUOMI_NPP_rec.log

#Pass ID: 20260115_231619_SUOMI NPP
#Satellite: SUOMI NPP
#Configuration: NPP
#almurnet v.1.7.20251203
#Start time: 2026-01-15 23:16:19

#Version: 2.0.20230620
#Station: T1
#Location: 37.570604 lon 55.790049 lat
#TLE: 1 37849U 11061A   26015.52691075  .00000052  00000+0  45753-4 0  9993
#TLE: 2 37849  98.7811 317.5709 0002448  62.7632 297.3794 14.19525354736784

#Time	Az	El	Level	Level2	SNR	BER	BlckErr	Temp	State	Recorded	gain1	gain2
2026-01-15 23:16:19.40	19.89	4.98	-46.5	-63.7	3.8	1.49e+00	0	39	0	0	65	24843
2026-01-15 23:16:23.37	20.02	5.26	-46.6	-63.7	3.8	1.49e+00	0	39	104	0	63	27851
2026-01-15 23:16:27.34	20.14	5.54	-46.6	-63.7	3.8	1.49e+00	0	40	104	0	63	27804
2026-01-15 23:16:31.31	20.27	5.82	-46.6	-63.6	3.8	1.49e+00	0	40	104	0	63	27496
2026-01-15 23:16:35.29	20.40	6.11	-46.5	-63.6	3.8	1.49e+00	0	40	104	0	63	27537
2026-01-15 23:16:39.26	20.53	6.40	-46.6	-63.8	3.8	1.49e+00	0	40	104	0	63	28065
2026-01-15 23:16:43.23	20.67	6.69	-46.5	-63.1	3.8	1.49e+00	0	40	104	0	63	26126
2026-01-15 23:16:47.20	20.80	6.99	-46.5	-62.1	3.8	1.49e+00	0	40	104	0	63	23116
2026-01-15 23:16:51.18	20.94	7.29	-46.5	-61.9	3.8	1.49e+00	0	40	104	0	63	22762
2026-01-15 23:16:55.15	21.09	7.59	-46.5	-61.8	3.8	1.49e+00	0	41	104	0	63	22421
2026-01-15 23:16:59.12	21.23	7.90	-46.4	-60.5	4.1	1.47e+00	0	41	0	0	63	19369
2026-01-15 23:17:03.09	21.38	8.21	-46.4	-60.2	4.2	1.39e+00	0	41	0	0	63	18612
2026-01-15 23:17:07.07	21.53	8.52	-46.4	-59.3	4.5	1.14e+00	0	41	0	3145728	63	16880
2026-01-15 23:17:11.04	21.68	8.84	-46.3	-58.5	4.8	7.95e-01	0	41	0	10485760	63	15379
2026-01-15 23:17:15.01	21.84	9.16	-46.5	-60.6	4.1	1.39e+00	0	41	0	16777216	63	19460
2026-01-15 23:17:18.99	22.00	9.49	-45.1	-50.9	11.5	5.48e-01	0	41	0	18874368	62	6798
2026-01-15 23:17:22.97	22.16	9.82	-44.7	-49.7	12.9	7.70e-05	0	41	0	26214400	61	6206
2026-01-15 23:17:26.95	22.33	10.15	-44.5	-48.9	13.7	6.80e-06	0	41	0	33554432	60	6059
2026-01-15 23:17:30.99	22.50	10.50	-44.1	-47.9	14.7	0.00e+00	0	41	0	40894464	60	5391
2026-01-15 23:17:34.99	22.67	10.84	-44.1	-47.6	15.1	0.00e+00	0	41	0	49283072	59	5474
2026-01-15 23:17:38.98	22.85	11.19	-43.6	-46.8	15.8	0.00e+00	0	41	0	56623104	59	5021
2026-01-15 23:17:42.96	23.03	11.54	-43.6	-46.7	16.0	0.00e+00	0	41	0	63963136	58	5246
2026-01-15 23:17:46.93	23.21	11.90	-43.4	-46.4	16.2	0.00e+00	0	41	0	71303168	58	5091
2026-01-15 23:17:50.91	23.40	12.27	-43.3	-46.2	16.5	0.00e+00	0	41	0	78643200	58	4962
2026-01-15 23:17:54.89	23.60	12.63	-43.0	-45.8	16.8	0.00e+00	0	41	0	85983232	58	4739
2026-01-15 23:17:58.92	23.80	13.01	-43.0	-45.9	16.7	0.00e+00	0	41	0	93323264	57	5081
2026-01-15 23:18:02.96	24.00	13.40	-43.0	-45.8	16.9	0.00e+00	0	41	0	101711872	57	5026
2026-01-15 23:18:06.94	24.21	13.78	-42.9	-45.7	17.0	0.00e+00	0	41	0	109051904	57	4956
2026-01-15 23:18:10.92	24.42	14.18	-43.1	-45.9	16.8	0.00e+00	0	41	0	116391936	57	5077
2026-01-15 23:18:14.98	24.64	14.58	-42.8	-45.6	17.1	0.00e+00	0	41	0	123731968	57	4880
2026-01-15 23:18:18.96	24.87	14.99	-42.9	-45.7	17.0	0.00e+00	0	41	0	131072000	57	4980
2026-01-15 23:18:22.94	25.10	15.40	-42.7	-45.5	17.2	0.00e+00	0	41	0	138412032	57	4820
2026-01-15 23:18:26.91	25.33	15.81	-42.9	-45.7	17.0	0.00e+00	0	41	0	145752064	57	4967
2026-01-15 23:18:31.02	25.58	16.25	-43.0	-45.9	16.9	0.00e+00	0	41	0	154140672	57	5082
2026-01-15 23:18:35.13	25.84	16.70	-42.9	-45.9	16.9	0.00e+00	0	41	0	161480704	57	5054
2026-01-15 23:18:39.23	26.10	17.15	-42.6	-45.5	17.3	0.00e+00	0	41	0	168820736	57	4837
2026-01-15 23:18:43.22	26.36	17.60	-42.2	-45.0	17.8	0.00e+00	0	41	0	176160768	56	4840
2026-01-15 23:18:47.21	26.63	18.05	-42.1	-44.7	18.0	0.00e+00	0	41	0	184549376	56	4702
2026-01-15 23:18:51.19	26.91	18.51	-42.1	-44.9	17.9	0.00e+00	0	41	0	191889408	56	4766
2026-01-15 23:18:55.19	27.19	18.99	-42.3	-45.0	17.7	0.00e+00	0	41	0	199229440	56	4870
2026-01-15 23:18:59.25	27.49	19.48	-42.4	-45.1	17.7	0.00e+00	0	41	0	206569472	56	4892
2026-01-15 23:19:03.35	27.81	19.98	-42.6	-45.4	17.4	0.00e+00	0	42	0	214958080	56	5077
2026-01-15 23:19:07.69	28.15	20.52	-42.8	-45.5	17.3	0.00e+00	0	41	0	222298112	56	5134
2026-01-15 23:19:11.67	28.47	21.03	-42.5	-45.0	17.8	0.00e+00	0	41	0	229638144	56	4869
2026-01-15 23:19:15.62	28.80	21.54	-42.6	-45.2	17.6	0.00e+00	0	42	0	236978176	56	4978
2026-01-15 23:19:19.64	29.15	22.08	-42.6	-45.2	17.6	0.00e+00	0	42	0	245366784	56	4957
2026-01-15 23:19:24.28	29.57	22.70	-42.2	-44.7	18.1	0.00e+00	0	42	0	253755392	56	4687
2026-01-15 23:19:28.83	29.99	23.33	-41.5	-43.9	18.7	0.00e+00	0	42	0	262144000	55	4511
2026-01-15 23:19:33.53	30.45	24.00	-41.5	-43.9	18.7	0.00e+00	0	42	0	270532608	54	4768
2026-01-15 23:19:38.06	30.91	24.65	-41.3	-43.7	18.9	0.00e+00	0	42	0	279969792	54	4658
2026-01-15 23:19:42.05	31.32	25.24	-41.6	-44.1	18.6	0.00e+00	0	42	0	287309824	54	4878
2026-01-15 23:19:46.08	31.76	25.85	-41.4	-43.8	18.7	0.00e+00	0	42	0	294649856	54	4752
2026-01-15 23:19:50.14	32.22	26.48	-41.8	-44.3	18.3	0.00e+00	0	42	0	301989888	54	5038
2026-01-15 23:19:54.34	32.71	27.14	-42.4	-45.0	17.7	0.00e+00	0	42	0	310378496	55	5141
2026-01-15 23:19:58.67	33.24	27.83	-42.3	-44.8	17.8	0.00e+00	0	42	0	317718528	55	5040
2026-01-15 23:20:02.65	33.75	28.49	-42.7	-45.2	17.7	0.00e+00	0	42	0	326107136	56	4972
2026-01-15 23:20:06.75	34.29	29.17	-43.5	-46.4	16.6	0.00e+00	0	41	0	333447168	57	5361
2026-01-15 23:20:10.87	34.86	29.88	-44.0	-47.1	15.9	0.00e+00	0	42	0	340787200	58	5469
2026-01-15 23:20:14.85	35.44	30.57	-44.8	-48.2	14.8	0.00e+00	0	42	0	348127232	60	5556
2026-01-15 23:20:18.83	36.04	31.28	-45.1	-48.8	14.2	3.80e-06	0	42	0	355467264	61	5639
2026-01-15 23:20:22.81	36.66	32.00	-44.9	-48.5	14.6	7.00e-07	0	41	0	363855872	61	5410
2026-01-15 23:20:27.00	37.35	32.78	-44.3	-47.6	15.5	0.00e+00	0	42	0	371195904	60	5160
2026-01-15 23:20:31.20	38.08	33.57	-44.3	-47.5	15.5	0.00e+00	0	42	0	379584512	60	5109
2026-01-15 23:20:35.19	38.80	34.34	-43.9	-46.8	16.2	0.00e+00	0	42	0	386924544	59	5041
2026-01-15 23:20:39.20	39.55	35.13	-44.4	-47.6	15.5	0.00e+00	0	42	0	394264576	59	5520
2026-01-15 23:20:43.35	40.38	35.96	-44.3	-47.5	15.6	0.00e+00	0	42	0	401604608	60	5102
2026-01-15 23:20:47.45	41.24	36.79	-44.1	-47.2	15.9	0.00e+00	0	42	0	409993216	60	4937
2026-01-15 23:20:51.69	42.17	37.67	-44.0	-47.0	16.0	0.00e+00	0	42	0	417333248	59	5145
2026-01-15 23:20:55.69	43.09	38.51	-44.3	-47.5	15.6	0.00e+00	0	42	0	424673280	60	5104
2026-01-15 23:20:59.62	44.05	39.35	-44.1	-47.3	15.8	0.00e+00	0	42	0	432013312	60	4985
2026-01-15 23:21:03.92	45.16	40.29	-44.2	-47.3	15.8	0.00e+00	0	42	0	440401920	60	5001
2026-01-15 23:21:08.10	46.29	41.21	-42.8	-45.3	17.7	0.00e+00	0	42	0	448790528	57	4753
2026-01-15 23:21:12.12	47.45	42.10	-43.5	-46.3	16.7	0.00e+00	0	41	0	456130560	57	5337
2026-01-15 23:21:16.15	48.67	43.00	-43.5	-46.3	16.8	0.00e+00	0	42	0	463470592	58	4996
2026-01-15 23:21:20.10	49.94	43.90	-44.0	-47.1	15.9	0.00e+00	0	42	0	470810624	58	5505
2026-01-15 23:21:24.08	51.29	44.80	-43.9	-46.8	16.2	0.00e+00	0	42	0	478150656	59	5024
2026-01-15 23:21:28.11	52.74	45.72	-44.6	-47.9	15.2	0.00e+00	0	42	0	485490688	60	5391
2026-01-15 23:21:32.09	54.25	46.63	-45.4	-49.1	14.0	3.00e-06	0	42	0	493879296	61	5830
2026-01-15 23:21:36.04	55.84	47.53	-46.4	-51.2	12.0	9.15e-05	0	42	0	500170752	63	6634
2026-01-15 23:21:40.02	57.54	48.43	-45.9	-50.0	13.1	4.42e-05	0	42	0	508559360	63	5765
2026-01-15 23:21:44.00	59.34	49.32	-45.2	-48.8	14.4	0.00e+00	0	42	0	515899392	61	5616
2026-01-15 23:21:47.98	61.24	50.20	-44.6	-47.8	15.3	0.00e+00	0	42	0	523239424	60	5334
2026-01-15 23:21:51.96	63.25	51.06	-43.4	-46.1	17.0	0.00e+00	0	42	0	530579456	58	4920
2026-01-15 23:21:55.93	65.38	51.89	-43.5	-46.3	16.7	7.00e-07	0	42	0	537919488	58	5032
2026-01-15 23:21:59.94	67.65	52.70	-42.1	-44.5	18.4	0.00e+00	0	42	0	545259520	56	4598
2026-01-15 23:22:03.93	70.03	53.48	-42.2	-44.5	18.4	0.00e+00	0	42	0	552599552	56	4569
2026-01-15 23:22:07.91	72.53	54.21	-42.5	-45.0	18.0	0.00e+00	0	42	0	560988160	56	4863
2026-01-15 23:22:11.89	75.16	54.89	-42.4	-44.9	18.1	0.00e+00	0	42	0	568328192	56	4799
2026-01-15 23:22:15.93	77.96	55.53	-42.2	-44.6	18.2	0.00e+00	0	42	0	575668224	55	4925
2026-01-15 23:22:19.90	80.82	56.10	-41.5	-43.8	19.0	0.00e+00	0	42	0	583008256	54	4715
2026-01-15 23:22:23.88	83.81	56.61	-42.9	-45.7	17.3	0.00e+00	0	42	0	590348288	57	4939
2026-01-15 23:22:27.85	86.89	57.04	-43.2	-45.9	17.2	0.00e+00	0	42	0	597688320	58	4774
2026-01-15 23:22:31.94	90.16	57.40	-44.5	-47.9	15.3	0.00e+00	0	42	0	606076928	60	5348
2026-01-15 23:22:35.86	93.36	57.67	-44.8	-48.2	14.9	0.00e+00	0	42	0	612368384	61	5254
2026-01-15 23:22:39.84	96.67	57.85	-44.8	-48.3	14.8	7.00e-07	0	42	0	620756992	61	5338
2026-01-15 23:22:43.82	100.01	57.94	-44.8	-48.2	15.0	7.00e-07	0	42	0	628097024	60	5548
2026-01-15 23:22:47.81	103.38	57.95	-43.5	-46.2	16.9	0.00e+00	0	42	0	635437056	58	4956
2026-01-15 23:22:51.99	106.89	57.85	-43.5	-46.1	17.0	0.00e+00	0	42	0	642777088	57	5209
2026-01-15 23:22:55.97	110.20	57.67	-44.1	-47.2	15.9	0.00e+00	0	42	0	650117120	59	5278
2026-01-15 23:22:59.95	113.46	57.40	-43.8	-46.7	16.4	0.00e+00	0	42	0	658505728	59	4965
2026-01-15 23:23:03.99	116.69	57.04	-43.3	-46.0	17.2	0.00e+00	0	42	0	665845760	57	5124
2026-01-15 23:23:07.97	119.78	56.61	-42.7	-45.2	17.8	0.00e+00	0	42	0	673185792	57	4672
2026-01-15 23:23:11.95	122.77	56.10	-42.4	-44.9	18.2	0.00e+00	0	42	0	680525824	56	4772
2026-01-15 23:23:15.93	125.65	55.53	-41.2	-43.3	19.3	0.00e+00	0	42	0	687865856	54	4476
2026-01-15 23:23:19.96	128.44	54.89	-40.9	-43.1	19.6	0.00e+00	0	42	0	695205888	52	4899
2026-01-15 23:23:23.94	131.07	54.21	-41.8	-44.2	18.6	0.00e+00	0	42	0	702545920	54	4968
2026-01-15 23:23:27.92	133.58	53.47	-42.8	-45.4	17.6	0.00e+00	0	42	0	710934528	56	5061
2026-01-15 23:23:31.89	135.96	52.70	-45.0	-48.5	14.7	0.00e+00	0	42	0	718274560	60	5783
2026-01-15 23:23:36.03	138.30	51.86	-42.8	-45.4	17.6	0.00e+00	0	42	0	725614592	56	5048
2026-01-15 23:23:40.13	140.50	50.99	-46.2	-50.5	12.7	3.80e-06	0	42	0	732954624	62	6456
2026-01-15 23:23:44.11	142.51	50.13	-44.5	-47.8	15.4	0.00e+00	0	42	0	741343232	60	5287
2026-01-15 23:23:48.09	144.41	49.25	-44.0	-46.9	16.2	0.00e+00	0	42	0	748683264	58	5393
2026-01-15 23:23:52.21	146.27	48.32	-45.8	-49.9	13.4	1.44e-05	0	42	0	756023296	63	5687
2026-01-15 23:23:56.19	147.96	47.42	-43.7	-46.5	16.7	0.00e+00	0	42	0	763363328	58	5141
2026-01-15 23:24:00.22	149.57	46.50	-43.7	-46.5	16.6	0.00e+00	0	42	0	770703360	59	4845
2026-01-15 23:24:04.20	151.08	45.58	-43.7	-46.5	16.6	0.00e+00	0	42	0	778043392	59	4823
2026-01-15 23:24:08.23	152.52	44.66	-43.3	-46.0	17.1	0.00e+00	0	42	0	786432000	57	5128
2026-01-15 23:24:12.33	153.90	43.73	-45.5	-49.3	13.8	6.02e-05	0	42	0	793772032	63	5309
2026-01-15 23:24:16.85	155.34	42.70	-44.8	-48.1	15.0	0.00e+00	0	42	0	802160640	60	5513
2026-01-15 23:24:20.83	156.53	41.80	-43.2	-45.8	17.1	0.00e+00	0	42	0	809500672	58	4724
2026-01-15 23:24:24.81	157.66	40.92	-45.4	-49.0	14.1	7.00e-07	0	42	0	816840704	61	5781
2026-01-15 23:24:28.86	158.75	40.03	-43.4	-46.1	16.8	0.00e+00	0	42	0	825229312	58	4894
2026-01-15 23:24:32.97	159.79	39.13	-45.0	-48.6	14.6	7.00e-07	0	42	0	832569344	61	5475
2026-01-15 23:24:36.94	160.75	38.28	-43.1	-45.7	17.3	0.00e+00	0	42	0	839909376	58	4681
2026-01-15 23:24:40.92	161.66	37.44	-44.4	-47.5	15.7	0.00e+00	0	42	0	847249408	59	5421
2026-01-15 23:24:44.99	162.55	36.60	-45.1	-48.7	14.3	6.80e-06	0	42	0	854589440	62	5270
2026-01-15 23:24:48.98	163.38	35.78	-43.2	-45.9	17.1	0.00e+00	0	42	0	861929472	58	4772
2026-01-15 23:24:52.95	164.16	34.99	-46.0	-50.1	13.0	3.80e-06	0	42	0	870318080	62	6183
2026-01-15 23:24:56.94	164.92	34.20	-44.1	-47.2	15.9	0.00e+00	0	42	0	877658112	60	4954
2026-01-15 23:25:00.98	165.64	33.42	-43.3	-46.1	16.8	0.00e+00	0	42	0	884998144	58	4908
2026-01-15 23:25:04.96	166.33	32.66	-44.6	-47.9	15.2	0.00e+00	0	42	0	892338176	59	5671
2026-01-15 23:25:08.94	166.98	31.92	-44.2	-47.3	15.8	0.00e+00	0	42	0	899678208	60	5009
2026-01-15 23:25:12.92	167.61	31.20	-44.3	-47.5	15.6	0.00e+00	0	42	0	907018240	59	5405
2026-01-15 23:25:16.98	168.22	30.47	-44.2	-47.3	15.7	0.00e+00	0	42	0	915406848	59	5339
2026-01-15 23:25:21.08	168.81	29.75	-43.4	-46.2	16.8	0.00e+00	0	42	0	922746880	58	4935
2026-01-15 23:25:25.13	169.37	29.06	-43.5	-46.3	16.7	0.00e+00	0	42	0	930086912	58	4996
2026-01-15 23:25:29.12	169.89	28.39	-43.8	-46.7	16.3	0.00e+00	0	42	0	937426944	58	5229
2026-01-15 23:25:33.15	170.41	27.72	-43.8	-46.7	16.3	0.00e+00	0	42	0	945815552	58	5222
2026-01-15 23:25:37.17	170.90	27.07	-43.6	-46.5	16.5	0.00e+00	0	42	0	953155584	58	5107
2026-01-15 23:25:41.42	171.40	26.40	-43.7	-46.6	16.3	0.00e+00	0	42	0	960495616	58	5202
2026-01-15 23:25:45.42	171.85	25.78	-43.5	-46.4	16.5	0.00e+00	0	42	0	967835648	58	5067
2026-01-15 23:25:49.42	172.28	25.17	-42.6	-45.1	17.7	0.00e+00	0	42	0	976224256	57	4644
2026-01-15 23:25:53.47	172.71	24.57	-42.2	-44.6	18.2	0.00e+00	0	42	0	983564288	56	4607
2026-01-15 23:25:57.45	173.11	23.99	-42.9	-45.6	17.2	0.00e+00	0	42	0	990904320	56	5218
2026-01-15 23:26:01.49	173.50	23.41	-43.4	-46.3	16.6	0.00e+00	0	42	0	998244352	57	5314
2026-01-15 23:26:05.54	173.89	22.85	-42.8	-45.5	17.3	0.00e+00	0	42	0	1005584384	57	4870
2026-01-15 23:26:09.52	174.25	22.30	-41.4	-43.7	18.9	0.00e+00	0	42	0	1013972992	54	4666
2026-01-15 23:26:13.58	174.60	21.75	-41.3	-43.6	19.0	0.00e+00	0	42	0	1021313024	54	4637
2026-01-15 23:26:17.60	174.95	21.22	-41.8	-44.3	18.3	0.00e+00	0	42	0	1028653056	54	5024
2026-01-15 23:26:21.59	175.28	20.70	-41.7	-44.2	18.4	0.00e+00	0	42	0	1035993088	54	4947
2026-01-15 23:26:25.57	175.59	20.20	-41.7	-44.2	18.4	0.00e+00	0	42	0	1043333120	54	4939
2026-01-15 23:26:29.72	175.91	19.68	-41.8	-44.2	18.3	0.00e+00	0	42	0	1051721728	54	4980
2026-01-15 23:26:33.84	176.22	19.17	-42.2	-44.8	17.9	0.00e+00	0	42	0	1059061760	55	4991
2026-01-15 23:26:37.82	176.51	18.69	-42.3	-44.9	17.7	0.00e+00	0	42	0	1066401792	55	5059
2026-01-15 23:26:41.89	176.80	18.21	-42.8	-45.5	17.3	0.00e+00	0	42	0	1073741824	56	5138
2026-01-15 23:26:45.91	177.07	17.75	-43.0	-45.8	17.0	0.00e+00	0	42	0	1082130432	56	5292
2026-01-15 23:26:49.89	177.34	17.29	-43.1	-45.9	16.9	0.00e+00	0	42	0	1089470464	57	5086
2026-01-15 23:26:53.91	177.60	16.84	-43.0	-45.8	16.9	0.00e+00	0	42	0	1096810496	57	5022
2026-01-15 23:26:57.89	177.85	16.40	-42.4	-45.1	17.6	0.00e+00	0	42	0	1104150528	56	4899
2026-01-15 23:27:01.87	178.09	15.97	-41.9	-44.5	18.1	0.00e+00	0	42	0	1111490560	55	4815
2026-01-15 23:27:05.85	178.33	15.55	-41.6	-44.1	18.4	0.00e+00	0	42	0	1118830592	55	4627
2026-01-15 23:27:09.83	178.56	15.13	-41.7	-44.2	18.2	0.00e+00	0	42	0	1126170624	55	4705
2026-01-15 23:27:13.86	178.78	14.72	-41.9	-44.5	18.0	0.00e+00	0	42	0	1134559232	55	4842
2026-01-15 23:27:17.84	179.00	14.31	-42.2	-44.9	17.6	0.00e+00	0	42	0	1141899264	55	5079
2026-01-15 23:27:21.82	179.22	13.91	-42.5	-45.4	17.1	0.00e+00	0	42	0	1149239296	55	5347
2026-01-15 23:27:25.82	179.42	13.52	-42.6	-45.5	17.0	0.00e+00	0	42	0	1156579328	55	5464
2026-01-15 23:27:29.79	179.63	13.14	-43.1	-46.1	16.4	0.00e+00	0	42	0	1163919360	56	5502
2026-01-15 23:27:33.77	179.82	12.76	-43.1	-46.2	16.5	0.00e+00	0	42	0	1171259392	57	5251
2026-01-15 23:27:37.75	180.02	12.38	-43.3	-46.5	16.2	0.00e+00	0	42	0	1178599424	57	5408
2026-01-15 23:27:41.84	180.21	12.00	-43.4	-46.6	16.1	0.00e+00	0	42	0	1186988032	57	5495
2026-01-15 23:27:45.82	180.40	11.64	-43.5	-46.7	16.0	0.00e+00	0	42	0	1194328064	57	5583
2026-01-15 23:27:49.80	180.58	11.28	-43.7	-47.0	15.7	0.00e+00	0	42	0	1201668096	58	5419
2026-01-15 23:27:53.78	180.75	10.93	-43.4	-46.6	16.0	0.00e+00	0	42	0	1209008128	58	5178
2026-01-15 23:27:57.76	180.92	10.58	-43.4	-46.6	16.1	0.00e+00	0	42	0	1216348160	58	5162
2026-01-15 23:28:01.85	181.10	10.22	-43.3	-46.4	16.2	0.00e+00	0	42	0	1223688192	58	5086
2026-01-15 23:28:05.82	181.26	9.89	-43.2	-46.4	16.2	0.00e+00	0	42	0	1231028224	58	5046
2026-01-15 23:28:09.80	181.42	9.55	-43.1	-46.2	16.3	0.00e+00	0	42	0	1239416832	58	4966
2026-01-15 23:28:13.87	181.58	9.21	-43.3	-46.5	16.0	0.00e+00	0	42	0	1246756864	58	5148
2026-01-15 23:28:17.94	181.74	8.88	-48.0	-63.7	3.8	1.49e+00	0	42	104	1251999744	66	23450
2026-01-15 23:28:21.91	181.89	8.56	-49.2	-64.5	3.8	1.49e+00	0	42	104	1251999744	68	22819
2026-01-15 23:28:25.89	182.04	8.24	-49.3	-64.5	3.8	1.49e+00	0	42	104	1251999744	69	21737
2026-01-15 23:28:29.86	182.19	7.93	-49.4	-64.6	3.8	1.49e+00	0	42	104	1251999744	69	21866
2026-01-15 23:28:33.83	182.33	7.62	-49.5	-64.6	3.8	1.49e+00	0	42	104	1251999744	69	21842
2026-01-15 23:28:37.81	182.47	7.31	-49.5	-64.6	3.8	1.49e+00	0	42	104	1251999744	69	21882
2026-01-15 23:28:41.78	182.61	7.01	-49.5	-64.7	3.8	1.49e+00	0	42	104	1251999744	69	22028
2026-01-15 23:28:45.75	182.74	6.71	-49.1	-64.6	3.8	1.49e+00	0	42	104	1251999744	69	21771
2026-01-15 23:28:49.72	182.87	6.41	-49.1	-64.6	3.8	1.49e+00	0	42	104	1251999744	69	21770
2026-01-15 23:28:53.70	183.00	6.12	-49.1	-64.5	3.8	1.49e+00	0	42	104	1251999744	69	21702
2026-01-15 23:28:57.67	183.13	5.83	-49.1	-64.6	3.8	1.49e+00	0	42	104	1251999744	69	21776
2026-01-15 23:29:01.65	183.25	5.54	-49.1	-64.5	3.8	1.49e+00	0	42	104	1251999744	69	21681
2026-01-15 23:29:05.62	183.38	5.26	-49.1	-64.5	3.8	1.49e+00	0	42	104	1251999744	69	21718
2026-01-15 23:29:09.59	183.50	4.98	-49.1	-64.5	3.8	1.49e+00	0	42	104	1251999744	69	21701

#Closed at: 2026-01-15 23:29:10
#Recorded file [1251 MB]: D:/Data/31040_260116_021619.dat