passes_logs/2026/01/15/T1/T1__20260115_112805_NOAA_20_JPSS-1_rec.log

#Pass ID: 20260115_112805_NOAA 20 (JPSS-1)
#Satellite: NOAA 20 (JPSS-1)
#Configuration: NOAA 20
#almurnet v.1.7.20251203
#Start time: 2026-01-15 11:28:04

#Version: 2.0.20230620
#Station: T1
#Location: 37.570604 lon 55.790049 lat
#TLE: 1 43013U 17073A   26014.55467351  .00000038  00000+0  38801-4 0  9992
#TLE: 2 43013  98.7635 315.4987 0001517  39.9279 320.2008 14.19535859422677

#Time	Az	El	Level	Level2	SNR	BER	BlckErr	Temp	State	Recorded	gain1	gain2
2026-01-15 11:28:04.83	210.86	4.99	-49.7	-65.5	3.8	1.49e+00	0	40	0	0	71	21592
2026-01-15 11:28:07.81	211.11	5.17	-49.7	-65.5	3.8	1.49e+00	0	40	104	0	70	22807
2026-01-15 11:28:10.78	211.37	5.34	-49.7	-65.5	3.8	1.49e+00	0	41	104	0	70	22892
2026-01-15 11:28:13.76	211.64	5.52	-49.7	-65.6	3.8	1.49e+00	0	41	104	0	70	23058
2026-01-15 11:28:16.74	211.90	5.70	-49.7	-65.5	3.8	1.49e+00	0	41	104	0	70	22845
2026-01-15 11:28:19.72	212.17	5.88	-49.7	-65.3	3.8	1.49e+00	0	41	104	0	70	22349
2026-01-15 11:28:22.70	212.45	6.06	-49.7	-65.4	3.8	1.49e+00	0	41	104	0	70	22579
2026-01-15 11:28:25.68	212.72	6.24	-49.7	-65.4	3.8	1.49e+00	0	41	104	0	70	22538
2026-01-15 11:28:28.66	213.00	6.42	-49.7	-65.5	3.8	1.49e+00	0	41	104	0	70	22906
2026-01-15 11:28:31.64	213.29	6.61	-49.7	-65.4	3.8	1.49e+00	0	41	104	0	70	22641
2026-01-15 11:28:34.62	213.58	6.79	-49.7	-65.2	3.8	1.49e+00	0	41	104	0	70	22030
2026-01-15 11:28:37.59	213.86	6.97	-49.7	-65.3	3.8	1.49e+00	0	42	104	0	70	22340
2026-01-15 11:28:40.57	214.16	7.16	-49.7	-65.3	3.8	1.49e+00	0	42	104	0	70	22488
2026-01-15 11:28:43.55	214.46	7.34	-49.7	-64.7	3.8	1.49e+00	0	42	104	0	70	20881
2026-01-15 11:28:46.53	214.76	7.53	-49.6	-64.3	3.8	1.49e+00	0	42	104	0	70	19864
2026-01-15 11:28:49.51	215.06	7.72	-49.6	-64.2	3.8	1.49e+00	0	42	104	0	70	19645
2026-01-15 11:28:52.49	215.37	7.90	-49.6	-64.3	3.8	1.49e+00	0	42	104	0	70	19861
2026-01-15 11:28:55.47	215.68	8.09	-49.6	-64.2	3.8	1.49e+00	0	42	104	0	70	19794
2026-01-15 11:28:58.45	216.00	8.28	-48.2	-54.8	9.3	7.28e-02	0	42	0	3145728	68	7495
2026-01-15 11:29:01.43	216.32	8.47	-46.3	-50.4	13.7	1.60e-05	0	42	0	9437184	64	5690
2026-01-15 11:29:04.41	216.65	8.66	-46.1	-50.1	14.2	7.00e-07	0	42	0	14680064	63	5797
2026-01-15 11:29:07.38	216.97	8.85	-47.2	-52.3	11.8	3.12e-04	0	42	0	19922944	65	6698
2026-01-15 11:29:10.36	217.31	9.04	-48.3	-55.3	8.7	2.21e-02	0	42	0	26214400	67	8412
2026-01-15 11:29:13.34	217.64	9.23	-48.9	-55.8	8.3	6.00e-02	0	42	0	31457280	69	7924
2026-01-15 11:29:16.32	217.99	9.43	-47.1	-51.5	12.7	6.44e-04	0	42	0	36700160	66	5774
2026-01-15 11:29:19.30	218.33	9.62	-46.0	-49.7	14.6	0.00e+00	0	42	0	42991616	63	5579
2026-01-15 11:29:22.28	218.68	9.82	-46.1	-49.8	14.5	0.00e+00	0	42	0	48234496	63	5653
2026-01-15 11:29:25.26	219.04	10.01	-46.2	-49.9	14.5	7.00e-07	0	42	0	53477376	63	5703
2026-01-15 11:29:28.23	219.40	10.20	-46.1	-49.7	14.6	7.00e-07	0	42	0	59768832	63	5587
2026-01-15 11:29:31.21	219.76	10.40	-45.9	-49.6	14.7	0.00e+00	0	42	0	65011712	63	5525
2026-01-15 11:29:34.19	220.13	10.60	-46.0	-49.6	14.8	0.00e+00	0	43	0	70254592	63	5477
2026-01-15 11:29:37.17	220.50	10.79	-45.9	-49.3	15.1	0.00e+00	0	43	0	76546048	63	5328
2026-01-15 11:29:40.15	220.88	10.99	-45.8	-49.3	15.2	0.00e+00	0	43	0	81788928	63	5280
2026-01-15 11:29:43.13	221.27	11.19	-45.8	-49.2	15.3	0.00e+00	0	43	0	87031808	63	5233
2026-01-15 11:29:46.11	221.65	11.39	-45.8	-49.1	15.4	0.00e+00	0	43	0	93323264	63	5161
2026-01-15 11:29:49.09	222.05	11.59	-45.7	-48.9	15.6	0.00e+00	0	43	0	98566144	63	5042
2026-01-15 11:29:52.07	222.45	11.78	-45.6	-48.9	15.5	0.00e+00	0	43	0	103809024	63	5082
2026-01-15 11:29:55.04	222.85	11.98	-45.8	-49.1	15.3	0.00e+00	0	42	0	110100480	63	5203
2026-01-15 11:29:58.02	223.26	12.18	-45.8	-49.0	15.4	0.00e+00	0	43	0	115343360	63	5156
2026-01-15 11:30:01.00	223.67	12.38	-45.7	-48.9	15.6	0.00e+00	0	43	0	120586240	63	5068
2026-01-15 11:30:03.98	224.10	12.58	-45.7	-48.9	15.6	0.00e+00	0	43	0	125829120	63	5063
2026-01-15 11:30:06.96	224.52	12.78	-45.7	-48.9	15.7	0.00e+00	0	43	0	132120576	63	5052
2026-01-15 11:30:09.94	224.95	12.98	-45.6	-48.7	15.8	0.00e+00	0	43	0	137363456	63	4965
2026-01-15 11:30:12.92	225.39	13.19	-45.6	-48.7	15.8	0.00e+00	0	43	0	142606336	63	4971
2026-01-15 11:30:15.90	225.83	13.39	-45.6	-48.7	15.9	0.00e+00	0	43	0	148897792	63	4946
2026-01-15 11:30:18.87	226.28	13.59	-45.8	-48.8	15.7	0.00e+00	0	43	0	154140672	63	5036
2026-01-15 11:30:21.85	226.74	13.79	-45.7	-48.8	15.8	0.00e+00	0	43	0	159383552	63	5001
2026-01-15 11:30:24.83	227.20	13.99	-45.8	-48.9	15.7	0.00e+00	0	42	0	165675008	63	5067
2026-01-15 11:30:27.81	227.67	14.19	-45.8	-48.8	15.8	0.00e+00	0	43	0	170917888	63	5020
2026-01-15 11:30:30.79	228.14	14.39	-45.7	-48.7	15.9	0.00e+00	0	43	0	176160768	63	4981
2026-01-15 11:30:33.77	228.62	14.59	-45.6	-48.6	16.1	0.00e+00	0	43	0	182452224	63	4885
2026-01-15 11:30:36.75	229.10	14.79	-45.7	-48.8	15.8	0.00e+00	0	43	0	187695104	63	5010
2026-01-15 11:30:39.73	229.60	14.99	-45.7	-48.7	15.9	0.00e+00	0	43	0	192937984	63	4982
2026-01-15 11:30:42.71	230.10	15.19	-45.7	-48.8	15.9	0.00e+00	0	43	0	199229440	63	4989
2026-01-15 11:30:45.69	230.60	15.39	-45.7	-48.8	15.8	0.00e+00	0	43	0	204472320	63	5037
2026-01-15 11:30:48.67	231.11	15.59	-45.8	-48.9	15.8	0.00e+00	0	43	0	209715200	63	5077
2026-01-15 11:30:51.64	231.63	15.79	-45.7	-48.8	15.9	0.00e+00	0	43	0	216006656	63	4995
2026-01-15 11:30:54.62	232.16	15.99	-45.7	-48.7	16.0	0.00e+00	0	43	0	221249536	63	4969
2026-01-15 11:30:57.60	232.69	16.18	-45.6	-48.5	16.1	0.00e+00	0	43	0	226492416	63	4869
2026-01-15 11:31:00.58	233.23	16.38	-45.6	-48.6	16.1	0.00e+00	0	43	0	232783872	63	4912
2026-01-15 11:31:03.56	233.77	16.58	-45.6	-48.6	16.0	0.00e+00	0	43	0	238026752	63	4908
2026-01-15 11:31:06.54	234.33	16.77	-45.4	-48.4	16.3	0.00e+00	0	43	0	243269632	62	5077
2026-01-15 11:31:09.52	234.89	16.96	-45.3	-48.2	16.5	0.00e+00	0	43	0	249561088	62	4952
2026-01-15 11:31:12.49	235.45	17.16	-45.4	-48.3	16.4	0.00e+00	0	43	0	254803968	62	5013
2026-01-15 11:31:15.48	236.03	17.35	-45.3	-48.3	16.4	0.00e+00	0	43	0	260046848	62	5010
2026-01-15 11:31:18.45	236.61	17.54	-45.3	-48.1	16.6	0.00e+00	0	43	0	266338304	62	4913
2026-01-15 11:31:21.43	237.19	17.73	-45.1	-47.9	16.8	0.00e+00	0	43	0	271581184	62	4786
2026-01-15 11:31:24.41	237.79	17.91	-45.1	-47.8	16.8	0.00e+00	0	43	0	276824064	62	4755
2026-01-15 11:31:27.39	238.39	18.10	-45.0	-47.8	16.9	0.00e+00	0	43	0	283115520	62	4722
2026-01-15 11:31:30.37	239.00	18.28	-45.1	-47.9	16.8	0.00e+00	0	43	0	288358400	62	4777
2026-01-15 11:31:33.35	239.62	18.46	-44.9	-47.6	17.0	0.00e+00	0	43	0	293601280	61	4924
2026-01-15 11:31:36.33	240.24	18.64	-45.1	-47.9	16.8	0.00e+00	0	43	0	299892736	61	5058
2026-01-15 11:31:39.31	240.87	18.82	-45.0	-47.9	16.8	0.00e+00	0	43	0	305135616	61	5053
2026-01-15 11:31:42.29	241.51	19.00	-45.0	-48.0	16.7	0.00e+00	0	43	0	310378496	61	5101
2026-01-15 11:31:45.27	242.16	19.17	-45.4	-48.5	16.2	0.00e+00	0	43	0	316669952	61	5413
2026-01-15 11:31:48.25	242.81	19.34	-45.8	-48.9	15.8	0.00e+00	0	43	0	321912832	62	5391
2026-01-15 11:31:51.22	243.47	19.51	-45.9	-49.0	15.7	0.00e+00	0	43	0	327155712	62	5435
2026-01-15 11:31:54.20	244.13	19.68	-45.9	-49.0	15.7	0.00e+00	0	43	0	333447168	62	5430
2026-01-15 11:31:57.18	244.81	19.84	-46.3	-49.6	15.2	0.00e+00	0	43	0	338690048	63	5482
2026-01-15 11:32:00.16	245.49	20.00	-46.6	-50.3	14.4	7.00e-07	0	43	0	343932928	64	5594
2026-01-15 11:32:03.14	246.18	20.16	-46.8	-50.5	14.3	3.00e-06	0	43	0	350224384	64	5731
2026-01-15 11:32:06.12	246.87	20.31	-46.5	-49.9	14.8	0.00e+00	0	43	0	355467264	64	5373
2026-01-15 11:32:09.10	247.57	20.46	-46.3	-49.7	15.0	0.00e+00	0	43	0	360710144	64	5244
2026-01-15 11:32:12.08	248.28	20.61	-46.3	-49.8	14.9	0.00e+00	0	43	0	367001600	64	5321
2026-01-15 11:32:15.05	248.99	20.75	-46.2	-49.6	15.0	0.00e+00	0	43	0	372244480	64	5212
2026-01-15 11:32:18.03	249.71	20.89	-46.1	-49.3	15.4	0.00e+00	0	43	0	377487360	64	5009
2026-01-15 11:32:21.01	250.44	21.03	-45.8	-48.8	15.9	0.00e+00	0	43	0	383778816	63	5028
2026-01-15 11:32:23.99	251.17	21.16	-45.8	-48.9	15.9	0.00e+00	0	43	0	389021696	63	5052
2026-01-15 11:32:26.97	251.91	21.29	-46.2	-49.4	15.4	7.00e-07	0	43	0	394264576	63	5391
2026-01-15 11:32:29.95	252.66	21.42	-46.3	-49.5	15.3	0.00e+00	0	43	0	400556032	63	5456
2026-01-15 11:32:32.93	253.41	21.54	-46.2	-49.4	15.4	0.00e+00	0	43	0	405798912	63	5375
2026-01-15 11:32:35.90	254.16	21.65	-46.1	-49.3	15.5	0.00e+00	0	43	0	411041792	63	5322
2026-01-15 11:32:38.88	254.92	21.76	-46.0	-49.2	15.5	0.00e+00	0	43	0	417333248	63	5267
2026-01-15 11:32:41.86	255.69	21.87	-46.1	-49.4	15.4	0.00e+00	0	43	0	422576128	63	5341
2026-01-15 11:32:44.84	256.46	21.97	-45.8	-48.9	15.9	0.00e+00	0	43	0	427819008	63	5057
2026-01-15 11:32:47.82	257.24	22.07	-45.5	-48.6	16.2	0.00e+00	0	43	0	433061888	63	4882
2026-01-15 11:32:50.80	258.02	22.16	-45.5	-48.5	16.3	0.00e+00	0	43	0	439353344	63	4853
2026-01-15 11:32:53.78	258.81	22.24	-45.5	-48.4	16.4	0.00e+00	0	43	0	444596224	62	5075
2026-01-15 11:32:56.76	259.60	22.33	-45.5	-48.4	16.4	0.00e+00	0	43	0	449839104	62	5071
2026-01-15 11:32:59.74	260.39	22.40	-45.7	-48.7	16.1	0.00e+00	0	43	0	456130560	62	5268
2026-01-15 11:33:02.72	261.19	22.47	-45.9	-49.0	15.8	0.00e+00	0	43	0	461373440	62	5409
2026-01-15 11:33:05.69	261.99	22.54	-45.9	-49.1	15.7	0.00e+00	0	43	0	466616320	62	5469
2026-01-15 11:33:08.67	262.79	22.60	-46.1	-49.3	15.5	0.00e+00	0	43	0	472907776	62	5620
2026-01-15 11:33:11.65	263.60	22.65	-46.2	-49.5	15.3	0.00e+00	0	43	0	478150656	63	5442
2026-01-15 11:33:14.63	264.41	22.70	-46.2	-49.3	15.5	0.00e+00	0	43	0	483393536	63	5332
2026-01-15 11:33:17.61	265.22	22.74	-46.1	-49.2	15.6	0.00e+00	0	43	0	489684992	63	5260
2026-01-15 11:33:20.59	266.03	22.78	-45.8	-48.8	15.9	0.00e+00	0	43	0	494927872	63	5036
2026-01-15 11:33:23.56	266.84	22.81	-45.6	-48.6	16.2	0.00e+00	0	43	0	500170752	63	4879
2026-01-15 11:33:26.54	267.66	22.83	-45.9	-49.0	15.8	0.00e+00	0	43	0	506462208	63	5122
2026-01-15 11:33:29.52	268.48	22.85	-45.9	-49.0	15.8	0.00e+00	0	43	0	511705088	63	5132
2026-01-15 11:33:32.50	269.29	22.87	-45.6	-48.6	16.1	0.00e+00	0	43	0	516947968	63	4902
2026-01-15 11:33:35.48	270.11	22.87	-45.4	-48.4	16.4	0.00e+00	0	43	0	523239424	62	5073
2026-01-15 11:33:38.45	270.93	22.87	-45.8	-48.8	15.9	0.00e+00	0	43	0	528482304	62	5324
2026-01-15 11:33:41.43	271.75	22.87	-45.8	-48.9	15.9	0.00e+00	0	43	0	533725184	62	5360
2026-01-15 11:33:44.41	272.57	22.86	-45.6	-48.6	16.2	0.00e+00	0	43	0	540016640	62	5168
2026-01-15 11:33:47.39	273.38	22.84	-45.3	-48.2	16.6	0.00e+00	0	43	0	545259520	62	4931
2026-01-15 11:33:50.37	274.20	22.82	-45.7	-48.7	16.0	0.00e+00	0	43	0	550502400	62	5273
2026-01-15 11:33:53.35	275.01	22.79	-46.1	-49.4	15.4	0.00e+00	0	43	0	556793856	62	5661
2026-01-15 11:33:56.33	275.83	22.76	-46.3	-49.5	15.2	0.00e+00	0	43	0	562036736	63	5457
2026-01-15 11:33:59.31	276.64	22.72	-46.0	-49.2	15.6	0.00e+00	0	43	0	567279616	63	5235
2026-01-15 11:34:02.28	277.45	22.67	-45.8	-48.8	16.0	0.00e+00	0	43	0	573571072	63	5026
2026-01-15 11:34:05.26	278.25	22.62	-45.6	-48.6	16.2	0.00e+00	0	43	0	578813952	63	4890
2026-01-15 11:34:08.24	279.06	22.57	-46.1	-49.3	15.5	0.00e+00	0	43	0	584056832	63	5284
2026-01-15 11:34:11.22	279.86	22.50	-46.1	-49.3	15.5	0.00e+00	0	43	0	590348288	63	5299
2026-01-15 11:34:14.20	280.65	22.43	-45.8	-48.8	16.0	0.00e+00	0	43	0	595591168	63	5031
2026-01-15 11:34:17.18	281.45	22.36	-45.7	-48.7	16.1	0.00e+00	0	43	0	600834048	63	4930
2026-01-15 11:34:20.15	282.24	22.28	-45.4	-48.3	16.5	0.00e+00	0	43	0	607125504	62	4993
2026-01-15 11:34:23.13	283.02	22.20	-45.6	-48.6	16.2	0.00e+00	0	43	0	612368384	62	5176
2026-01-15 11:34:26.11	283.80	22.11	-45.6	-48.5	16.3	0.00e+00	0	43	0	617611264	62	5101
2026-01-15 11:34:29.09	284.58	22.02	-45.4	-48.3	16.4	0.00e+00	0	43	0	623902720	62	5027
2026-01-15 11:34:32.07	285.35	21.92	-45.5	-48.4	16.3	0.00e+00	0	43	0	629145600	62	5090
2026-01-15 11:34:35.05	286.12	21.81	-45.5	-48.4	16.3	0.00e+00	0	43	0	634388480	62	5100
2026-01-15 11:34:38.03	286.88	21.71	-45.2	-48.0	16.7	0.00e+00	0	43	0	639631360	62	4868
2026-01-15 11:34:41.01	287.64	21.59	-45.1	-47.9	16.8	0.00e+00	0	43	0	645922816	62	4778
2026-01-15 11:34:43.98	288.39	21.48	-44.5	-47.2	17.5	0.00e+00	0	43	0	651165696	61	4657
2026-01-15 11:34:46.96	289.13	21.35	-44.6	-47.2	17.5	0.00e+00	0	43	0	656408576	60	4939
2026-01-15 11:34:49.94	289.87	21.23	-44.9	-47.7	17.0	0.00e+00	0	43	0	662700032	60	5259
2026-01-15 11:34:52.92	290.60	21.10	-44.9	-47.6	17.1	0.00e+00	0	43	0	667942912	60	5210
2026-01-15 11:34:55.90	291.33	20.97	-44.7	-47.3	17.3	0.00e+00	0	43	0	673185792	60	5038
2026-01-15 11:34:58.88	292.05	20.83	-44.3	-46.8	17.8	0.00e+00	0	43	0	679477248	60	4756
2026-01-15 11:35:01.86	292.77	20.69	-44.2	-46.7	17.9	0.00e+00	0	43	0	684720128	60	4678
2026-01-15 11:35:04.84	293.47	20.54	-44.1	-46.6	18.0	0.00e+00	0	43	0	689963008	60	4620
2026-01-15 11:35:07.81	294.17	20.39	-44.3	-46.8	17.8	0.00e+00	0	43	0	696254464	60	4747
2026-01-15 11:35:10.79	294.87	20.24	-44.7	-47.3	17.3	0.00e+00	0	43	0	701497344	60	5041
2026-01-15 11:35:13.77	295.56	20.09	-45.0	-47.8	16.9	0.00e+00	0	43	0	706740224	60	5319
2026-01-15 11:35:16.75	296.24	19.93	-45.0	-47.7	17.0	0.00e+00	0	43	0	713031680	61	4962
2026-01-15 11:35:19.73	296.91	19.77	-44.9	-47.6	17.1	0.00e+00	0	43	0	718274560	61	4909
2026-01-15 11:35:22.71	297.58	19.61	-44.6	-47.3	17.3	0.00e+00	0	43	0	723517440	61	4750
2026-01-15 11:35:25.69	298.24	19.44	-44.9	-47.7	17.0	0.00e+00	0	43	0	729808896	61	4947
2026-01-15 11:35:28.66	298.89	19.27	-45.7	-48.7	16.1	0.00e+00	0	43	0	735051776	62	5249
2026-01-15 11:35:31.64	299.54	19.10	-45.9	-49.0	15.7	0.00e+00	0	43	0	740294656	62	5438
2026-01-15 11:35:34.62	300.17	18.93	-46.1	-49.3	15.5	0.00e+00	0	43	0	746586112	62	5613
2026-01-15 11:35:37.60	300.81	18.75	-46.0	-49.2	15.6	0.00e+00	0	43	0	751828992	63	5224
2026-01-15 11:35:40.58	301.43	18.57	-45.7	-48.7	16.0	0.00e+00	0	43	0	757071872	63	4971
2026-01-15 11:35:43.56	302.05	18.40	-45.6	-48.5	16.2	0.00e+00	0	43	0	763363328	63	4853
2026-01-15 11:35:46.54	302.66	18.21	-45.8	-48.9	15.9	0.00e+00	0	43	0	768606208	63	5045
2026-01-15 11:35:49.51	303.26	18.03	-46.0	-49.2	15.5	7.00e-07	0	43	0	773849088	63	5248
2026-01-15 11:35:52.49	303.85	17.85	-46.2	-49.5	15.3	0.00e+00	0	43	0	780140544	63	5416
2026-01-15 11:35:55.47	304.44	17.66	-46.1	-49.3	15.5	0.00e+00	0	43	0	785383424	63	5303
2026-01-15 11:35:58.45	305.03	17.47	-45.6	-48.6	16.1	0.00e+00	0	43	0	790626304	63	4922
2026-01-15 11:36:01.43	305.60	17.28	-45.5	-48.5	16.2	0.00e+00	0	43	0	796917760	62	5152
2026-01-15 11:36:04.41	306.17	17.09	-45.6	-48.6	16.1	0.00e+00	0	43	0	802160640	62	5190
2026-01-15 11:36:07.39	306.73	16.90	-45.5	-48.4	16.3	0.00e+00	0	43	0	807403520	62	5093
2026-01-15 11:36:10.37	307.28	16.71	-45.7	-48.8	16.0	0.00e+00	0	43	0	813694976	62	5305
2026-01-15 11:36:13.35	307.83	16.52	-46.1	-49.4	15.3	0.00e+00	0	43	0	818937856	62	5687
2026-01-15 11:36:16.33	308.37	16.32	-46.0	-49.2	15.5	0.00e+00	0	43	0	824180736	62	5586
2026-01-15 11:36:19.30	308.90	16.13	-45.9	-49.0	15.8	0.00e+00	0	43	0	830472192	62	5429
2026-01-15 11:36:22.28	309.43	15.93	-45.9	-49.1	15.6	0.00e+00	0	43	0	835715072	62	5522
2026-01-15 11:36:25.26	309.95	15.74	-45.7	-48.9	15.9	0.00e+00	0	43	0	840957952	62	5345
2026-01-15 11:36:28.24	310.46	15.54	-45.5	-48.5	16.3	0.00e+00	0	43	0	847249408	62	5103
2026-01-15 11:36:31.22	310.97	15.34	-45.8	-48.9	15.9	0.00e+00	0	43	0	852492288	62	5342
2026-01-15 11:36:34.20	311.47	15.14	-46.0	-49.3	15.5	0.00e+00	0	43	0	857735168	62	5610
2026-01-15 11:36:37.18	311.96	14.95	-45.7	-48.7	16.0	0.00e+00	0	43	0	864026624	62	5256
2026-01-15 11:36:40.15	312.45	14.75	-45.5	-48.6	16.2	0.00e+00	0	43	0	869269504	62	5172
2026-01-15 11:36:43.13	312.93	14.55	-45.9	-49.2	15.6	0.00e+00	0	43	0	874512384	62	5571
2026-01-15 11:36:46.11	313.40	14.35	-45.9	-49.2	15.5	0.00e+00	0	43	0	880803840	62	5586
2026-01-15 11:36:49.09	313.87	14.15	-45.7	-48.8	15.9	0.00e+00	0	43	0	886046720	62	5311
2026-01-15 11:36:52.07	314.33	13.95	-45.8	-48.9	15.9	0.00e+00	0	43	0	891289600	62	5343
2026-01-15 11:36:55.05	314.79	13.75	-46.1	-49.4	15.4	0.00e+00	0	43	0	897581056	62	5664
2026-01-15 11:36:58.03	315.24	13.55	-46.3	-49.6	15.2	0.00e+00	0	43	0	902823936	63	5467
2026-01-15 11:37:01.00	315.68	13.36	-46.2	-49.5	15.3	0.00e+00	0	43	0	908066816	63	5455
2026-01-15 11:37:03.98	316.12	13.16	-46.1	-49.4	15.4	0.00e+00	0	43	0	913309696	63	5379
2026-01-15 11:37:06.96	316.56	12.96	-46.2	-49.8	15.1	0.00e+00	0	43	0	919601152	63	5598
2026-01-15 11:37:09.94	316.98	12.76	-46.1	-49.7	15.1	0.00e+00	0	43	0	924844032	63	5565
2026-01-15 11:37:12.92	317.41	12.56	-45.6	-49.2	15.7	0.00e+00	0	43	0	930086912	63	5223
2026-01-15 11:37:15.90	317.82	12.36	-45.7	-49.1	15.8	0.00e+00	0	43	0	936378368	63	5164
2026-01-15 11:37:18.88	318.23	12.17	-46.2	-49.6	15.3	0.00e+00	0	43	0	941621248	63	5490
2026-01-15 11:37:21.86	318.64	11.97	-46.6	-50.1	14.8	7.00e-07	0	43	0	946864128	63	5812
2026-01-15 11:37:24.84	319.04	11.77	-46.6	-50.1	14.8	0.00e+00	0	43	0	953155584	63	5849
2026-01-15 11:37:27.81	319.44	11.58	-46.3	-50.1	14.8	0.00e+00	0	43	0	958398464	63	5831
2026-01-15 11:37:30.79	319.83	11.38	-46.2	-49.9	15.0	0.00e+00	0	43	0	963641344	63	5707
2026-01-15 11:37:33.77	320.21	11.18	-46.5	-50.3	14.7	0.00e+00	0	43	0	969932800	63	5950
2026-01-15 11:37:36.75	320.59	10.99	-46.7	-50.3	14.6	0.00e+00	0	43	0	975175680	64	5599
2026-01-15 11:37:39.73	320.97	10.79	-46.6	-50.1	14.7	7.00e-07	0	43	0	980418560	64	5499
2026-01-15 11:37:42.71	321.34	10.60	-46.6	-50.2	14.6	0.00e+00	0	43	0	986710016	64	5566
2026-01-15 11:37:45.68	321.70	10.40	-47.0	-50.8	14.0	0.00e+00	0	43	0	991952896	64	5991
2026-01-15 11:37:48.66	322.07	10.21	-47.2	-51.2	13.6	7.60e-06	0	43	0	997195776	65	5891
2026-01-15 11:37:51.64	322.42	10.02	-47.0	-51.0	13.8	6.10e-06	0	43	0	1003487232	65	5760
2026-01-15 11:37:54.62	322.78	9.83	-46.5	-50.6	14.2	0.00e+00	0	43	0	1008730112	65	5474
2026-01-15 11:37:57.60	323.12	9.63	-46.0	-50.2	14.6	0.00e+00	0	43	0	1013972992	64	5540
2026-01-15 11:38:00.58	323.47	9.44	-46.3	-50.4	14.4	0.00e+00	0	43	0	1020264448	64	5663
2026-01-15 11:38:03.56	323.81	9.25	-46.3	-50.5	14.3	7.00e-07	0	43	0	1025507328	64	5732
2026-01-15 11:38:06.53	324.14	9.06	-46.3	-50.6	14.1	1.50e-06	0	43	0	1030750208	64	5843
2026-01-15 11:38:09.51	324.47	8.87	-50.8	-66.4	3.8	1.49e+00	0	43	104	1033895936	72	22591
2026-01-15 11:38:12.49	324.80	8.69	-51.2	-66.6	3.8	1.49e+00	0	43	104	1033895936	73	21913
2026-01-15 11:38:15.47	325.12	8.50	-51.4	-66.7	3.8	1.49e+00	0	43	104	1033895936	73	22213
2026-01-15 11:38:18.45	325.44	8.31	-51.5	-66.8	3.8	1.49e+00	0	43	104	1033895936	73	22358
2026-01-15 11:38:21.43	325.76	8.12	-51.6	-66.9	3.8	1.49e+00	0	43	104	1033895936	73	22533
2026-01-15 11:38:24.41	326.07	7.94	-51.6	-66.8	3.8	1.49e+00	0	43	104	1033895936	74	21190
2026-01-15 11:38:27.39	326.38	7.75	-51.5	-66.8	3.8	1.49e+00	0	43	104	1033895936	74	21189
2026-01-15 11:38:30.37	326.68	7.57	-51.4	-66.8	3.8	1.49e+00	0	43	104	1033895936	74	21066
2026-01-15 11:38:33.35	326.98	7.38	-51.4	-66.8	3.8	1.49e+00	0	43	104	1033895936	74	21066
2026-01-15 11:38:36.33	327.28	7.20	-51.4	-66.8	3.8	1.49e+00	0	43	104	1033895936	74	21072
2026-01-15 11:38:39.31	327.57	7.02	-51.4	-66.8	3.8	1.49e+00	0	43	104	1033895936	74	21112
2026-01-15 11:38:42.29	327.86	6.84	-51.4	-66.8	3.8	1.49e+00	0	43	104	1033895936	74	21055
2026-01-15 11:38:45.27	328.14	6.66	-51.4	-66.8	3.8	1.49e+00	0	43	104	1033895936	74	21100
2026-01-15 11:38:48.25	328.43	6.48	-51.4	-66.8	3.8	1.49e+00	0	43	104	1033895936	74	21071
2026-01-15 11:38:51.22	328.71	6.30	-51.4	-66.7	3.8	1.49e+00	0	43	104	1033895936	74	20997
2026-01-15 11:38:54.20	328.98	6.12	-51.4	-66.7	3.8	1.49e+00	0	43	104	1033895936	74	20993
2026-01-15 11:38:57.18	329.26	5.94	-51.4	-66.8	3.8	1.49e+00	0	43	104	1033895936	74	21072
2026-01-15 11:39:00.16	329.53	5.76	-51.4	-66.7	3.8	1.49e+00	0	43	104	1033895936	74	20990
2026-01-15 11:39:03.14	329.79	5.58	-51.3	-66.7	3.8	1.49e+00	0	43	104	1033895936	74	20986
2026-01-15 11:39:06.12	330.06	5.41	-51.3	-66.7	3.8	1.49e+00	0	43	104	1033895936	74	20943
2026-01-15 11:39:09.10	330.32	5.23	-51.3	-66.8	3.8	1.49e+00	0	43	104	1033895936	74	21036
2026-01-15 11:39:12.08	330.58	5.06	-51.3	-66.7	3.8	1.49e+00	0	43	104	1033895936	74	21015

#Closed at: 2026-01-15 11:39:14
#Recorded file [1033 MB]: D:/Data/31040_260115_142804.dat