passes_logs/2026/01/15/T1/T1__20260115_224645_NOAA_21_JPSS-2_rec.log

#Pass ID: 20260115_224645_NOAA 21 (JPSS-2)
#Satellite: NOAA 21 (JPSS-2)
#Configuration: NOAA 21
#almurnet v.1.7.20251203
#Start time: 2026-01-15 22:46:46

#Version: 2.0.20230620
#Station: T1
#Location: 37.570604 lon 55.790049 lat
#TLE: 1 54234U 22150A   26015.43562254  .00000028  00000+0  34201-4 0  9996
#TLE: 2 54234  98.7498 316.3301 0000635 288.4972  71.6135 14.19534768164873

#Time	Az	El	Level	Level2	SNR	BER	BlckErr	Temp	State	Recorded	gain1	gain2
2026-01-15 22:46:46.18	23.29	5.06	-47.7	-61.4	3.8	1.49e+00	0	37	0	0	67	16922
2026-01-15 22:46:49.15	23.45	5.26	-47.6	-61.3	3.8	1.49e+00	0	37	104	0	65	18845
2026-01-15 22:46:52.13	23.62	5.46	-47.6	-61.2	3.8	1.49e+00	0	37	104	0	65	18635
2026-01-15 22:46:55.11	23.78	5.66	-47.6	-61.1	3.8	1.49e+00	0	37	104	0	65	18505
2026-01-15 22:46:58.09	23.95	5.87	-47.6	-61.1	3.8	1.49e+00	0	37	104	0	65	18509
2026-01-15 22:47:01.07	24.12	6.07	-47.6	-61.2	3.8	1.49e+00	0	38	104	0	65	18678
2026-01-15 22:47:04.05	24.29	6.28	-47.7	-61.3	3.8	1.49e+00	0	38	104	0	65	18784
2026-01-15 22:47:07.03	24.47	6.49	-47.7	-61.2	3.8	1.49e+00	0	38	104	0	65	18715
2026-01-15 22:47:10.00	24.64	6.69	-47.6	-61.2	3.8	1.49e+00	0	38	104	0	65	18687
2026-01-15 22:47:12.98	24.82	6.90	-47.6	-61.2	3.8	1.49e+00	0	38	104	0	65	18719
2026-01-15 22:47:15.96	25.00	7.12	-47.6	-61.1	3.8	1.49e+00	0	38	104	0	65	18398
2026-01-15 22:47:18.94	25.19	7.33	-47.6	-60.5	3.8	1.49e+00	0	38	104	0	65	17142
2026-01-15 22:47:21.92	25.37	7.54	-47.6	-60.3	3.8	1.49e+00	0	38	104	0	65	16777
2026-01-15 22:47:24.90	25.56	7.76	-47.6	-60.7	3.8	1.49e+00	0	38	104	0	65	17498
2026-01-15 22:47:27.88	25.75	7.98	-47.6	-60.7	3.8	1.49e+00	0	38	104	0	65	17534
2026-01-15 22:47:30.86	25.95	8.20	-47.6	-60.6	3.8	1.49e+00	0	38	104	0	65	17293
2026-01-15 22:47:33.82	26.14	8.42	-47.6	-60.5	3.8	1.49e+00	0	39	104	0	65	17240
2026-01-15 22:47:36.80	26.34	8.64	-47.4	-58.8	3.9	1.48e+00	0	39	104	0	65	14090
2026-01-15 22:47:39.78	26.54	8.87	-47.2	-56.9	4.5	1.41e+00	0	39	104	0	65	11368
2026-01-15 22:47:42.76	26.75	9.09	-47.4	-58.0	4.1	1.46e+00	0	39	104	0	65	12867
2026-01-15 22:47:45.84	26.97	9.33	-45.8	-50.9	9.3	1.61e-03	0	39	0	0	62	6797
2026-01-15 22:47:48.76	27.17	9.55	-43.6	-46.7	13.5	1.52e-05	0	39	0	0	59	4947
2026-01-15 22:47:52.04	27.41	9.81	-42.1	-44.6	15.6	0.00e+00	0	39	0	0	56	4651
2026-01-15 22:47:54.82	27.61	10.03	-41.3	-43.6	16.5	0.00e+00	0	39	0	0	54	4634
2026-01-15 22:47:58.11	27.86	10.29	-41.3	-43.6	16.5	0.00e+00	0	39	0	0	54	4651
2026-01-15 22:48:00.82	28.06	10.51	-41.4	-43.8	16.4	0.00e+00	0	39	0	0	54	4714
2026-01-15 22:48:04.12	28.32	10.77	-41.2	-43.6	16.6	0.00e+00	0	39	0	0	54	4612
2026-01-15 22:48:07.09	28.55	11.01	-41.2	-43.5	16.6	0.00e+00	0	39	0	0	54	4578
2026-01-15 22:48:10.18	28.79	11.27	-41.1	-43.3	16.8	0.00e+00	0	39	0	0	54	4483
2026-01-15 22:48:13.46	29.06	11.54	-40.9	-43.1	17.0	0.00e+00	0	39	0	0	53	4644
2026-01-15 22:48:16.17	29.28	11.76	-40.9	-43.2	17.0	0.00e+00	0	39	0	0	53	4653
2026-01-15 22:48:19.51	29.56	12.04	-41.0	-43.2	17.0	0.00e+00	0	39	0	0	53	4666
2026-01-15 22:48:22.32	29.79	12.28	-40.9	-43.0	17.1	0.00e+00	0	39	0	0	53	4597
2026-01-15 22:48:25.71	30.09	12.57	-40.8	-43.0	17.2	0.00e+00	0	39	0	0	53	4557
2026-01-15 22:48:28.43	30.32	12.81	-40.8	-42.8	17.3	0.00e+00	0	39	0	0	53	4493
2026-01-15 22:48:31.72	30.62	13.09	-40.8	-42.9	17.4	0.00e+00	0	39	0	0	53	4495
2026-01-15 22:48:34.46	30.86	13.33	-40.8	-42.8	17.4	0.00e+00	0	39	0	0	53	4456
2026-01-15 22:48:37.73	31.17	13.62	-40.7	-42.7	17.5	0.00e+00	0	39	0	0	53	4424
2026-01-15 22:48:40.52	31.43	13.87	-40.7	-42.7	17.5	0.00e+00	0	39	0	0	53	4414
2026-01-15 22:48:44.18	31.78	14.20	-40.5	-42.6	17.6	0.00e+00	0	39	0	0	53	4348
2026-01-15 22:48:47.03	32.05	14.46	-40.5	-42.5	17.6	0.00e+00	0	39	0	0	53	4337
2026-01-15 22:48:51.01	32.45	14.83	-40.7	-42.8	17.4	0.00e+00	0	39	0	0	53	4461
2026-01-15 22:48:53.85	32.74	15.09	-40.6	-42.6	17.6	0.00e+00	0	40	0	0	53	4384
2026-01-15 22:48:57.82	33.15	15.46	-40.6	-42.6	17.6	0.00e+00	0	40	0	0	53	4366
2026-01-15 22:49:00.68	33.45	15.74	-40.7	-42.8	17.4	0.00e+00	0	39	0	0	53	4464
2026-01-15 22:49:03.95	33.80	16.05	-40.7	-42.8	17.5	0.00e+00	0	39	0	0	53	4469
2026-01-15 22:49:06.68	34.10	16.31	-40.7	-42.8	17.5	0.00e+00	0	40	0	0	53	4466
2026-01-15 22:49:09.95	34.46	16.63	-40.7	-42.9	17.3	0.00e+00	0	39	0	0	53	4527
2026-01-15 22:49:12.65	34.77	16.90	-40.9	-43.0	17.2	0.00e+00	0	40	0	0	53	4577
2026-01-15 22:49:16.00	35.16	17.23	-40.9	-43.0	17.2	0.00e+00	0	40	0	0	53	4593
2026-01-15 22:49:18.70	35.48	17.50	-40.9	-43.0	17.4	0.00e+00	0	40	0	0	53	4554
2026-01-15 22:49:21.98	35.87	17.83	-40.9	-43.1	17.3	0.00e+00	0	40	0	0	53	4610
2026-01-15 22:49:24.71	36.21	18.11	-40.9	-43.0	17.3	0.00e+00	0	40	0	0	53	4583
2026-01-15 22:49:28.01	36.62	18.45	-40.8	-42.8	17.5	0.00e+00	0	40	0	0	53	4476
2026-01-15 22:49:30.72	36.97	18.73	-40.7	-42.7	17.6	0.00e+00	0	40	0	0	53	4436
2026-01-15 22:49:34.15	37.42	19.09	-40.6	-42.6	17.8	0.00e+00	0	40	0	0	53	4349
2026-01-15 22:49:37.16	37.82	19.41	-40.6	-42.6	17.8	0.00e+00	0	39	0	0	53	4357
2026-01-15 22:49:40.73	38.30	19.79	-40.6	-42.6	17.7	0.00e+00	0	40	0	0	53	4358
2026-01-15 22:49:43.54	38.69	20.09	-40.4	-42.4	18.0	0.00e+00	0	40	0	0	52	4499
2026-01-15 22:49:46.82	39.16	20.45	-40.2	-42.2	18.2	0.00e+00	0	40	0	0	52	4396
2026-01-15 22:49:49.54	39.55	20.75	-40.2	-42.1	18.2	0.00e+00	0	40	0	0	52	4379
2026-01-15 22:49:52.84	40.04	21.11	-40.1	-42.1	18.3	0.00e+00	0	40	0	0	52	4341
2026-01-15 22:49:55.76	40.48	21.44	-40.0	-41.9	18.4	0.00e+00	0	40	0	0	52	4271
2026-01-15 22:49:59.74	41.10	21.88	-40.1	-42.0	18.4	0.00e+00	0	40	0	0	51	4572
2026-01-15 22:50:02.58	41.55	22.21	-40.0	-41.9	18.4	0.00e+00	0	40	0	0	51	4526
2026-01-15 22:50:06.55	42.20	22.66	-39.7	-41.5	18.9	0.00e+00	0	40	0	0	51	4298
2026-01-15 22:50:09.41	42.67	22.99	-39.7	-41.6	18.8	0.00e+00	0	40	0	0	51	4345
2026-01-15 22:50:13.20	43.32	23.43	-39.7	-41.5	18.9	0.00e+00	0	40	0	0	51	4311
2026-01-15 22:50:15.94	43.80	23.75	-39.6	-41.4	19.0	0.00e+00	0	40	0	0	51	4250
2026-01-15 22:50:19.21	44.39	24.14	-39.7	-41.5	18.9	0.00e+00	0	40	0	0	51	4295
2026-01-15 22:50:21.92	44.88	24.46	-39.8	-41.7	18.7	0.00e+00	0	40	0	0	51	4416
2026-01-15 22:50:25.20	45.49	24.85	-39.8	-41.6	18.8	0.00e+00	0	40	0	0	51	4367
2026-01-15 22:50:27.91	46.01	25.17	-39.6	-41.4	19.0	0.00e+00	0	40	0	0	51	4264
2026-01-15 22:50:31.20	46.65	25.57	-39.8	-41.6	18.8	0.00e+00	0	40	0	0	51	4390
2026-01-15 22:50:33.93	47.20	25.90	-39.8	-41.7	18.8	0.00e+00	0	40	0	0	51	4397
2026-01-15 22:50:37.23	47.87	26.31	-39.9	-41.8	18.7	0.00e+00	0	40	0	0	51	4455
2026-01-15 22:50:39.94	48.44	26.64	-40.1	-41.9	18.5	0.00e+00	0	40	0	0	51	4541
2026-01-15 22:50:43.24	49.15	27.04	-40.3	-42.2	18.3	0.00e+00	0	40	0	0	51	4687
2026-01-15 22:50:45.96	49.74	27.38	-40.5	-42.4	18.1	0.00e+00	0	40	0	0	51	4774
2026-01-15 22:50:49.24	50.48	27.78	-40.5	-42.4	18.0	0.00e+00	0	40	0	0	51	4808
2026-01-15 22:50:52.19	51.15	28.15	-40.4	-42.3	18.1	0.00e+00	0	40	0	0	51	4755
2026-01-15 22:50:55.73	51.98	28.59	-40.3	-42.2	18.3	0.00e+00	0	40	0	0	51	4668
2026-01-15 22:50:58.67	52.69	28.95	-40.1	-42.0	18.5	0.00e+00	0	40	0	0	51	4569
2026-01-15 22:51:01.66	53.43	29.33	-39.9	-41.7	18.7	0.00e+00	0	40	0	0	51	4430
2026-01-15 22:51:04.71	54.20	29.70	-40.1	-41.9	18.5	0.00e+00	0	40	0	0	51	4539
2026-01-15 22:51:07.79	54.99	30.09	-39.9	-41.8	18.7	0.00e+00	0	40	0	0	51	4450
2026-01-15 22:51:10.69	55.76	30.45	-40.0	-41.8	18.7	0.00e+00	0	40	0	0	51	4472
2026-01-15 22:51:13.68	56.56	30.81	-40.1	-41.9	18.5	0.00e+00	0	40	0	0	51	4544
2026-01-15 22:51:16.66	57.39	31.18	-40.1	-42.0	18.5	0.00e+00	0	40	0	0	51	4548
2026-01-15 22:51:19.64	58.23	31.54	-40.3	-42.3	18.2	0.00e+00	0	40	0	0	51	4709
2026-01-15 22:51:22.66	59.10	31.91	-40.4	-42.4	18.1	0.00e+00	0	40	0	0	51	4760
2026-01-15 22:51:25.76	60.01	32.28	-40.6	-42.6	17.9	0.00e+00	0	40	0	0	51	4886
2026-01-15 22:51:28.66	60.89	32.63	-40.7	-42.7	17.8	0.00e+00	0	40	0	0	52	4680
2026-01-15 22:51:32.21	61.98	33.05	-41.2	-43.3	17.3	0.00e+00	0	40	0	0	53	4721
2026-01-15 22:51:34.93	62.84	33.37	-41.2	-43.2	17.3	0.00e+00	0	40	0	0	53	4704
2026-01-15 22:51:38.22	63.90	33.75	-41.3	-43.3	17.2	0.00e+00	0	40	0	0	53	4752
2026-01-15 22:51:40.93	64.79	34.05	-41.5	-43.6	16.9	0.00e+00	0	40	0	0	53	4914
2026-01-15 22:51:44.21	65.89	34.42	-41.3	-43.3	17.2	0.00e+00	0	40	0	0	53	4759
2026-01-15 22:51:47.18	66.91	34.74	-41.3	-43.4	17.1	0.00e+00	0	40	0	0	53	4778
2026-01-15 22:51:50.46	68.06	35.09	-41.4	-43.4	17.0	0.00e+00	0	40	0	0	53	4814
2026-01-15 22:51:53.21	69.04	35.38	-41.1	-43.1	17.3	0.00e+00	0	40	0	0	53	4635
2026-01-15 22:51:56.95	70.41	35.76	-41.1	-43.2	17.3	0.00e+00	0	40	0	0	53	4675
2026-01-15 22:51:59.90	71.50	36.05	-41.2	-43.2	17.2	0.00e+00	0	40	0	0	53	4678
2026-01-15 22:52:02.97	72.66	36.34	-41.6	-43.7	16.7	0.00e+00	0	40	0	0	53	4940
2026-01-15 22:52:06.21	73.91	36.64	-41.1	-43.2	17.3	0.00e+00	0	40	0	0	53	4676
2026-01-15 22:52:09.19	75.08	36.90	-41.5	-43.7	16.8	0.00e+00	0	40	0	0	53	4930
2026-01-15 22:52:12.18	76.27	37.15	-41.3	-43.3	17.2	0.00e+00	0	40	0	0	53	4743
2026-01-15 22:52:15.16	77.47	37.39	-41.9	-44.1	16.5	0.00e+00	0	40	0	0	54	4898
2026-01-15 22:52:18.14	78.69	37.61	-42.1	-44.4	16.2	0.00e+00	0	40	0	0	54	5061
2026-01-15 22:52:21.09	79.92	37.82	-42.3	-44.7	15.9	0.00e+00	0	40	0	0	55	4945
2026-01-15 22:52:24.22	81.23	38.03	-42.2	-44.5	16.0	0.00e+00	0	40	0	0	55	4866
2026-01-15 22:52:27.06	82.44	38.21	-42.0	-44.3	16.2	0.00e+00	0	40	0	0	55	4749
2026-01-15 22:52:30.19	83.79	38.38	-41.7	-44.0	16.5	0.00e+00	0	40	0	0	55	4566
2026-01-15 22:52:33.40	85.18	38.55	-41.8	-44.0	16.6	0.00e+00	0	40	0	0	55	4567
2026-01-15 22:52:36.24	86.43	38.68	-41.9	-44.2	16.4	0.00e+00	0	40	0	0	55	4665
2026-01-15 22:52:39.37	87.81	38.81	-41.8	-44.0	16.6	0.00e+00	0	40	0	0	55	4587
2026-01-15 22:52:42.21	89.08	38.91	-41.7	-43.9	16.6	0.00e+00	0	40	0	0	55	4524
2026-01-15 22:52:45.34	90.48	39.00	-41.6	-43.7	16.9	0.00e+00	0	40	0	0	55	4400
2026-01-15 22:52:48.26	91.79	39.07	-41.7	-43.9	16.7	0.00e+00	0	40	0	0	55	4532
2026-01-15 22:52:51.56	93.28	39.13	-42.0	-44.2	16.3	0.00e+00	0	40	0	0	55	4699
2026-01-15 22:52:54.34	94.54	39.16	-42.2	-44.4	16.1	0.00e+00	0	40	0	0	55	4804
2026-01-15 22:52:57.62	96.03	39.18	-42.4	-44.7	15.9	0.00e+00	0	40	0	0	55	4960
2026-01-15 22:53:00.62	97.39	39.18	-41.8	-44.0	16.5	0.00e+00	0	40	0	0	55	4585
2026-01-15 22:53:03.60	98.75	39.16	-42.1	-44.3	16.2	0.00e+00	0	40	0	0	55	4726
2026-01-15 22:53:06.63	100.12	39.12	-41.9	-44.2	16.4	0.00e+00	0	40	0	0	55	4673
2026-01-15 22:53:10.39	101.82	39.05	-41.9	-44.1	16.4	0.00e+00	0	40	0	0	55	4622
2026-01-15 22:53:13.26	103.11	38.98	-41.8	-44.0	16.6	0.00e+00	0	40	0	0	55	4565
2026-01-15 22:53:16.39	104.51	38.88	-42.0	-44.2	16.3	0.00e+00	0	40	0	0	55	4686
2026-01-15 22:53:19.24	105.78	38.78	-41.5	-43.6	16.9	0.00e+00	0	40	0	0	55	4355
2026-01-15 22:53:22.37	107.16	38.64	-41.8	-44.0	16.6	0.00e+00	0	40	0	0	54	4856
2026-01-15 22:53:25.21	108.41	38.51	-42.1	-44.3	16.2	0.00e+00	0	40	0	0	54	5021
2026-01-15 22:53:28.76	109.95	38.32	-41.7	-43.8	16.7	0.00e+00	0	40	0	0	54	4726
2026-01-15 22:53:31.47	111.11	38.16	-41.6	-43.8	16.8	0.00e+00	0	40	0	0	54	4730
2026-01-15 22:53:34.75	112.50	37.95	-41.5	-43.6	16.9	0.00e+00	0	40	0	0	54	4625
2026-01-15 22:53:37.46	113.64	37.77	-41.4	-43.4	17.1	0.00e+00	0	40	0	0	54	4545
2026-01-15 22:53:40.73	115.00	37.53	-42.4	-44.8	15.8	0.00e+00	0	40	0	0	55	5036
2026-01-15 22:53:43.43	116.10	37.32	-41.8	-44.0	16.6	0.00e+00	0	40	0	0	55	4556
2026-01-15 22:53:46.71	117.42	37.05	-41.6	-43.7	16.8	0.00e+00	0	40	0	0	55	4438
2026-01-15 22:53:49.65	118.59	36.80	-41.3	-43.4	17.1	0.00e+00	0	40	0	0	54	4520
2026-01-15 22:53:52.63	119.75	36.54	-40.9	-42.9	17.6	0.00e+00	0	40	0	0	53	4496
2026-01-15 22:53:55.62	120.90	36.26	-41.5	-43.6	16.9	0.00e+00	0	40	0	0	53	4918
2026-01-15 22:53:58.60	122.03	35.97	-41.2	-43.3	17.2	0.00e+00	0	40	0	0	53	4718
2026-01-15 22:54:01.81	123.22	35.65	-40.9	-43.0	17.5	0.00e+00	0	40	0	0	53	4549
2026-01-15 22:54:04.71	124.28	35.36	-41.3	-43.4	17.1	0.00e+00	0	40	0	0	53	4784
2026-01-15 22:54:08.25	125.54	34.98	-41.1	-43.1	17.3	0.00e+00	0	40	0	0	53	4644
2026-01-15 22:54:10.97	126.49	34.69	-41.0	-43.0	17.5	0.00e+00	0	40	0	0	53	4576
2026-01-15 22:54:14.25	127.61	34.33	-41.0	-43.0	17.6	0.00e+00	0	40	0	0	53	4574
2026-01-15 22:54:16.95	128.52	34.02	-41.4	-43.5	17.1	0.00e+00	0	40	0	0	53	4821
2026-01-15 22:54:20.23	129.60	33.65	-40.7	-42.7	17.8	0.00e+00	0	40	0	0	53	4395
2026-01-15 22:54:22.95	130.48	33.33	-40.8	-42.8	17.8	0.00e+00	0	40	0	0	53	4442
2026-01-15 22:54:26.22	131.51	32.95	-40.7	-42.6	17.8	0.00e+00	0	41	0	0	53	4385
2026-01-15 22:54:28.95	132.36	32.62	-40.7	-42.7	17.8	0.00e+00	0	40	0	0	53	4417
2026-01-15 22:54:32.23	133.35	32.23	-40.4	-42.4	18.1	0.00e+00	0	40	0	0	52	4504
2026-01-15 22:54:34.96	134.16	31.90	-40.8	-42.8	17.7	0.00e+00	0	40	0	0	52	4731
2026-01-15 22:54:38.23	135.10	31.50	-40.8	-42.8	17.6	0.00e+00	0	40	0	0	52	4722
2026-01-15 22:54:40.96	135.88	31.16	-40.8	-42.8	17.6	0.00e+00	0	40	0	0	52	4728
2026-01-15 22:54:44.24	136.78	30.76	-40.9	-42.9	17.5	0.00e+00	0	40	0	0	52	4788
2026-01-15 22:54:46.97	137.52	30.42	-40.8	-42.8	17.6	0.00e+00	0	40	0	0	52	4757
2026-01-15 22:54:50.24	138.39	30.01	-40.9	-43.0	17.5	0.00e+00	0	40	0	0	52	4816
2026-01-15 22:54:52.94	139.09	29.67	-40.7	-42.6	17.8	0.00e+00	0	40	0	0	52	4642
2026-01-15 22:54:56.21	139.91	29.27	-40.4	-42.3	18.1	0.00e+00	0	40	0	0	52	4465
2026-01-15 22:54:58.93	140.59	28.92	-40.3	-42.2	18.2	0.00e+00	0	40	0	0	52	4440
2026-01-15 22:55:02.21	141.38	28.51	-39.9	-41.7	18.8	0.00e+00	0	40	0	0	51	4439
2026-01-15 22:55:05.16	142.07	28.15	-39.9	-41.7	18.7	0.00e+00	0	40	0	0	51	4422
2026-01-15 22:55:08.14	142.76	27.77	-39.8	-41.6	18.8	0.00e+00	0	40	0	0	51	4370
2026-01-15 22:55:11.14	143.44	27.40	-39.6	-41.4	19.0	0.00e+00	0	40	0	0	51	4249
2026-01-15 22:55:14.25	144.12	27.01	-39.7	-41.5	18.9	0.00e+00	0	40	0	0	51	4327
2026-01-15 22:55:17.17	144.75	26.65	-39.7	-41.5	18.9	0.00e+00	0	40	0	0	51	4337
2026-01-15 22:55:20.45	145.44	26.25	-39.8	-41.6	18.8	0.00e+00	0	40	0	0	51	4363
2026-01-15 22:55:23.15	145.99	25.91	-39.6	-41.4	18.9	0.00e+00	0	40	0	0	51	4291
2026-01-15 22:55:26.44	146.66	25.51	-39.8	-41.6	18.8	0.00e+00	0	40	0	0	51	4369
2026-01-15 22:55:29.15	147.19	25.18	-39.6	-41.4	19.0	0.00e+00	0	40	0	0	51	4275
2026-01-15 22:55:32.45	147.82	24.78	-39.4	-41.2	19.2	0.00e+00	0	41	0	0	50	4406
2026-01-15 22:55:35.19	148.34	24.45	-39.5	-41.4	19.0	0.00e+00	0	40	0	0	50	4527
2026-01-15 22:55:38.49	148.94	24.06	-39.8	-41.7	18.7	0.00e+00	0	40	0	0	50	4654
2026-01-15 22:55:41.22	149.43	23.73	-40.1	-42.0	18.4	0.00e+00	0	41	0	0	50	4841
2026-01-15 22:55:44.50	150.01	23.35	-40.3	-42.3	18.2	0.00e+00	0	40	0	0	51	4722
2026-01-15 22:55:47.23	150.48	23.03	-40.3	-42.2	18.2	0.00e+00	0	41	0	0	51	4688
2026-01-15 22:55:50.52	151.03	22.64	-40.3	-42.3	18.1	0.00e+00	0	40	0	0	51	4710
2026-01-15 22:55:53.23	151.48	22.33	-40.2	-42.1	18.3	0.00e+00	0	41	0	0	51	4628
2026-01-15 22:55:56.53	152.01	21.95	-40.2	-42.1	18.3	0.00e+00	0	40	0	0	51	4611
2026-01-15 22:55:59.40	152.46	21.62	-40.1	-41.9	18.4	0.00e+00	0	40	0	0	51	4544
2026-01-15 22:56:02.74	152.97	21.25	-40.1	-42.0	18.4	0.00e+00	0	40	0	0	51	4550
2026-01-15 22:56:05.72	153.42	20.91	-40.1	-42.0	18.4	0.00e+00	0	40	0	0	51	4586
2026-01-15 22:56:08.71	153.86	20.58	-40.1	-42.1	18.3	0.00e+00	0	40	0	0	51	4602
2026-01-15 22:56:11.70	154.29	20.25	-40.2	-42.1	18.3	0.00e+00	0	40	0	0	51	4627
2026-01-15 22:56:14.68	154.71	19.93	-40.0	-41.9	18.4	0.00e+00	0	40	0	0	51	4534
2026-01-15 22:56:17.66	155.13	19.60	-39.9	-41.9	18.5	0.00e+00	0	41	0	0	51	4500
2026-01-15 22:56:20.65	155.53	19.28	-40.1	-42.0	18.3	0.00e+00	0	40	0	0	51	4583
2026-01-15 22:56:23.60	155.93	18.97	-40.2	-42.2	18.2	0.00e+00	0	41	0	0	51	4654
2026-01-15 22:56:27.10	156.38	18.60	-40.2	-42.1	18.3	0.00e+00	0	41	0	0	51	4618
2026-01-15 22:56:29.85	156.73	18.31	-39.9	-41.8	18.5	0.00e+00	0	41	0	0	51	4474
2026-01-15 22:56:33.45	157.18	17.94	-40.0	-41.9	18.4	0.00e+00	0	41	0	0	51	4520
2026-01-15 22:56:36.15	157.51	17.66	-40.1	-42.1	18.2	0.00e+00	0	41	0	0	51	4612
2026-01-15 22:56:39.44	157.91	17.33	-40.3	-42.3	18.0	0.00e+00	0	41	0	0	51	4738
2026-01-15 22:56:42.16	158.23	17.05	-40.4	-42.5	17.8	0.00e+00	0	40	0	0	51	4837
2026-01-15 22:56:45.43	158.60	16.73	-40.6	-42.7	17.7	0.00e+00	0	41	0	0	51	4950
2026-01-15 22:56:48.17	158.91	16.45	-40.6	-42.7	17.5	0.00e+00	0	41	0	0	52	4691
2026-01-15 22:56:51.44	159.28	16.13	-40.8	-43.0	17.3	0.00e+00	0	40	0	0	52	4815
2026-01-15 22:56:54.17	159.57	15.87	-40.9	-43.0	17.3	0.00e+00	0	40	0	0	52	4845
2026-01-15 22:56:57.44	159.92	15.55	-40.8	-42.9	17.4	0.00e+00	0	41	0	0	52	4761
2026-01-15 22:57:00.16	160.21	15.29	-40.8	-42.8	17.3	0.00e+00	0	41	0	0	52	4757
2026-01-15 22:57:03.45	160.55	14.98	-40.7	-42.8	17.4	0.00e+00	0	41	0	0	52	4707
2026-01-15 22:57:06.17	160.82	14.73	-40.8	-42.9	17.4	0.00e+00	0	41	0	0	52	4763
2026-01-15 22:57:09.64	161.17	14.41	-40.7	-42.8	17.4	0.00e+00	0	41	0	0	52	4745
2026-01-15 22:57:12.45	161.44	14.15	-40.8	-42.9	17.3	0.00e+00	0	40	0	0	52	4803
2026-01-15 22:57:15.74	161.76	13.85	-41.0	-43.1	17.2	0.00e+00	0	41	0	0	52	4889
2026-01-15 22:57:18.47	162.01	13.60	-41.1	-43.3	17.0	0.00e+00	0	41	0	0	52	4990
2026-01-15 22:57:21.75	162.32	13.31	-41.3	-43.4	16.8	0.00e+00	0	41	0	0	53	4809
2026-01-15 22:57:24.48	162.56	13.06	-41.3	-43.5	16.6	0.00e+00	0	41	0	0	53	4860
2026-01-15 22:57:28.08	162.89	12.75	-41.3	-43.5	16.6	0.00e+00	0	41	0	0	53	4856
2026-01-15 22:57:30.80	163.12	12.51	-41.4	-43.6	16.5	0.00e+00	0	41	0	0	53	4926
2026-01-15 22:57:34.06	163.40	12.23	-41.4	-43.6	16.5	6.39e-03	0	41	0	0	53	4923
2026-01-15 22:57:36.90	163.65	11.98	-41.4	-43.6	16.5	4.78e-04	0	41	0	0	53	4891
2026-01-15 22:57:40.03	163.91	11.72	-41.4	-43.6	16.5	0.00e+00	0	40	0	0	53	4920
2026-01-15 22:57:42.88	164.14	11.48	-41.4	-43.6	16.5	0.00e+00	0	41	0	0	53	4921
2026-01-15 22:57:46.18	164.40	11.20	-41.4	-43.6	16.5	0.00e+00	0	41	0	0	53	4878
2026-01-15 22:57:49.68	164.68	10.91	-41.3	-43.5	16.6	0.00e+00	0	41	0	0	53	4859
2026-01-15 22:57:52.40	164.89	10.69	-41.4	-43.6	16.5	0.00e+00	0	41	0	0	53	4903
2026-01-15 22:57:55.68	165.14	10.42	-41.4	-43.6	16.5	0.00e+00	0	41	0	0	53	4915
2026-01-15 22:57:58.48	165.35	10.20	-41.4	-43.8	16.3	0.00e+00	0	41	0	0	53	5000
2026-01-15 22:58:01.60	165.59	9.95	-41.2	-43.9	16.2	0.00e+00	0	41	0	0	53	5072
2026-01-15 22:58:04.44	165.79	9.72	-41.4	-44.2	15.9	0.00e+00	0	41	0	0	53	5256
2026-01-15 22:58:07.60	166.02	9.47	-41.3	-44.1	16.0	0.00e+00	0	41	0	0	53	5168
2026-01-15 22:58:10.47	166.22	9.25	-41.4	-44.0	16.0	0.00e+00	0	41	0	0	54	4866
2026-01-15 22:58:13.54	166.44	9.01	-41.7	-44.4	15.7	0.00e+00	0	41	0	0	54	5058
2026-01-15 22:58:16.53	166.64	8.78	-48.6	-61.7	3.8	1.49e+00	0	41	104	0	67	17569
2026-01-15 22:58:19.51	166.84	8.56	-49.0	-62.1	3.8	1.49e+00	0	41	104	0	68	17439
2026-01-15 22:58:22.49	167.04	8.33	-49.1	-62.2	3.8	1.49e+00	0	41	104	0	69	16604
2026-01-15 22:58:25.47	167.24	8.11	-49.2	-62.2	3.8	1.49e+00	0	41	104	0	69	16669
2026-01-15 22:58:28.53	167.44	7.88	-49.1	-62.3	3.8	1.49e+00	0	41	104	0	69	16771
2026-01-15 22:58:31.54	167.63	7.66	-49.3	-62.3	3.8	1.49e+00	0	41	104	0	69	16743
2026-01-15 22:58:34.52	167.82	7.44	-49.4	-62.3	3.8	1.49e+00	0	41	104	0	69	16755
2026-01-15 22:58:37.50	168.00	7.22	-49.4	-62.3	3.8	1.49e+00	0	41	104	0	69	16791
2026-01-15 22:58:40.48	168.18	7.01	-48.9	-62.3	3.8	1.49e+00	0	41	104	0	69	16703
2026-01-15 22:58:43.46	168.36	6.79	-49.0	-62.2	3.8	1.49e+00	0	41	104	0	69	16632
2026-01-15 22:58:46.44	168.54	6.58	-49.0	-62.2	3.8	1.49e+00	0	41	104	0	69	16579
2026-01-15 22:58:49.42	168.71	6.37	-49.0	-62.2	3.8	1.49e+00	0	41	104	0	69	16646
2026-01-15 22:58:52.40	168.89	6.16	-49.0	-62.2	3.8	1.49e+00	0	41	104	0	69	16591
2026-01-15 22:58:55.38	169.06	5.95	-49.0	-62.2	3.8	1.49e+00	0	41	104	0	69	16628
2026-01-15 22:58:58.36	169.22	5.75	-49.0	-62.2	3.8	1.49e+00	0	41	104	0	69	16619
2026-01-15 22:59:01.34	169.39	5.54	-49.0	-62.2	3.8	1.49e+00	0	41	104	0	69	16583
2026-01-15 22:59:04.32	169.55	5.34	-48.9	-62.2	3.8	1.49e+00	0	41	104	0	69	16591
2026-01-15 22:59:07.30	169.71	5.14	-49.0	-62.2	3.8	1.49e+00	0	41	104	0	69	16557

#Closed at: 2026-01-15 22:59:10
#Recorded file [0 MB]: D:/Data/31040_260116_014646.dat