passes_logs/2026/01/15/T1/T1__20260115_133752_AQUA_rec.log

#Pass ID: 20260115_133752_AQUA
#Satellite: AQUA
#Configuration: AQUA
#almurnet v.1.7.20251203
#Start time: 2026-01-15 13:37:52

#Version: 2.0.20230620
#Station: T1
#Location: 37.570604 lon 55.790049 lat
#TLE: 1 27424U 02022A   26014.61231444  .00000653  00000+0  14070-3 0  9991
#TLE: 2 27424  98.4080 341.0332 0002042  78.9336 335.9961 14.61820174260839

#Time	Az	El	Level	Level2	SNR	BER	BlckErr	Temp	State	Recorded	gain1	gain2
2026-01-15 13:37:52.65	233.51	5.01	-51.6	-71.7	3.8	7.45e-01	0	39	0	0	74	37276
2026-01-15 13:37:54.63	233.78	5.10	-51.6	-71.7	3.8	7.44e-01	0	39	104	0	73	39269
2026-01-15 13:37:56.62	234.05	5.20	-51.6	-71.7	3.8	7.50e-01	0	39	104	0	73	39290
2026-01-15 13:37:58.60	234.31	5.29	-51.6	-71.7	3.8	7.41e-01	0	39	104	0	73	39378
2026-01-15 13:38:00.59	234.58	5.39	-51.6	-71.7	3.8	7.43e-01	0	39	104	0	73	39243
2026-01-15 13:38:02.57	234.85	5.48	-51.6	-71.7	3.8	7.50e-01	0	40	104	0	73	39302
2026-01-15 13:38:04.56	235.13	5.58	-51.6	-71.7	3.8	7.50e-01	0	40	104	0	73	39332
2026-01-15 13:38:06.55	235.40	5.67	-51.6	-71.7	3.8	7.44e-01	0	40	104	0	73	39147
2026-01-15 13:38:08.53	235.68	5.77	-51.6	-71.7	3.8	7.46e-01	0	40	104	0	73	39187
2026-01-15 13:38:10.52	235.96	5.86	-51.6	-71.6	3.8	7.45e-01	0	40	104	0	73	39121
2026-01-15 13:38:12.51	236.24	5.95	-51.6	-71.7	3.8	7.46e-01	0	40	104	0	73	39301
2026-01-15 13:38:14.49	236.53	6.05	-51.6	-71.7	3.8	7.49e-01	0	40	104	0	73	39170
2026-01-15 13:38:16.48	236.81	6.14	-51.6	-71.6	3.8	7.44e-01	0	40	104	0	73	38882
2026-01-15 13:38:18.46	237.10	6.23	-51.6	-71.5	3.8	7.45e-01	0	40	104	0	73	38615
2026-01-15 13:38:20.45	237.39	6.33	-51.6	-71.6	3.8	7.45e-01	0	40	104	0	73	38732
2026-01-15 13:38:22.44	237.68	6.42	-51.6	-71.5	3.8	7.43e-01	0	40	104	0	73	38643
2026-01-15 13:38:24.42	237.97	6.51	-51.6	-71.5	3.8	7.45e-01	0	40	104	0	73	38546
2026-01-15 13:38:26.41	238.27	6.61	-51.6	-71.6	3.8	7.47e-01	0	41	104	0	73	38782
2026-01-15 13:38:28.40	238.56	6.70	-51.6	-71.7	3.8	7.48e-01	0	40	104	0	73	39245
2026-01-15 13:38:30.38	238.86	6.79	-51.6	-71.6	3.8	7.43e-01	0	41	104	0	73	39027
2026-01-15 13:38:32.37	239.16	6.88	-51.6	-71.4	3.8	7.46e-01	0	40	104	0	73	38020
2026-01-15 13:38:34.35	239.47	6.97	-51.6	-71.4	3.8	7.45e-01	0	41	104	0	73	38124
2026-01-15 13:38:36.34	239.77	7.06	-51.6	-71.6	3.8	7.45e-01	0	41	104	0	73	38853
2026-01-15 13:38:38.33	240.08	7.16	-51.6	-71.7	3.8	7.43e-01	0	41	104	0	73	39235
2026-01-15 13:38:40.31	240.39	7.25	-51.6	-71.6	3.8	7.45e-01	0	41	104	0	73	39016
2026-01-15 13:38:42.30	240.70	7.34	-51.6	-71.3	3.8	7.42e-01	0	41	104	0	73	37649
2026-01-15 13:38:44.28	241.01	7.43	-51.6	-71.1	3.8	7.45e-01	0	41	104	0	73	36868
2026-01-15 13:38:46.27	241.33	7.52	-51.6	-70.9	3.8	7.48e-01	0	41	104	0	73	35855
2026-01-15 13:38:48.26	241.64	7.61	-51.6	-70.8	3.8	7.45e-01	0	41	104	0	73	35668
2026-01-15 13:38:50.24	241.96	7.69	-51.6	-71.2	3.8	7.47e-01	0	41	104	0	73	37232
2026-01-15 13:38:52.23	242.29	7.78	-51.6	-71.0	3.8	7.47e-01	0	41	104	0	73	36318
2026-01-15 13:38:54.21	242.61	7.87	-51.6	-71.4	3.8	7.46e-01	0	41	104	0	73	38013
2026-01-15 13:38:56.20	242.93	7.96	-51.6	-70.7	3.8	7.45e-01	0	41	104	0	73	34910
2026-01-15 13:38:58.18	243.26	8.05	-51.6	-70.0	3.8	7.45e-01	0	41	104	0	73	32312
2026-01-15 13:39:00.17	243.59	8.13	-51.6	-70.8	3.8	7.47e-01	0	41	104	0	73	35517
2026-01-15 13:39:02.15	243.92	8.22	-51.6	-70.7	3.8	7.44e-01	0	41	104	0	73	35046
2026-01-15 13:39:04.14	244.26	8.31	-51.6	-69.8	3.8	7.44e-01	0	41	104	0	73	31477
2026-01-15 13:39:06.13	244.59	8.39	-51.6	-70.7	3.8	7.46e-01	0	41	104	0	73	35201
2026-01-15 13:39:08.11	244.93	8.48	-51.5	-68.8	3.8	7.40e-01	0	41	104	0	73	28285
2026-01-15 13:39:10.10	245.27	8.56	-51.5	-67.9	3.9	7.37e-01	0	41	104	0	73	25473
2026-01-15 13:39:12.09	245.61	8.64	-51.5	-67.0	4.5	7.23e-01	0	41	104	0	73	23008
2026-01-15 13:39:14.07	245.95	8.73	-49.7	-55.8	14.6	6.08e-01	0	41	0	3145728	71	7103
2026-01-15 13:39:16.06	246.30	8.81	-47.6	-51.6	18.8	6.08e-01	0	41	0	6815744	67	5466
2026-01-15 13:39:18.04	246.65	8.89	-47.4	-51.3	19.1	6.08e-01	0	41	0	10485760	66	5621
2026-01-15 13:39:20.03	247.00	8.98	-48.9	-53.8	16.8	6.07e-01	0	41	0	14155776	68	6700
2026-01-15 13:39:22.01	247.35	9.06	-50.1	-56.8	13.9	6.10e-01	0	41	0	17825792	70	8394
2026-01-15 13:39:24.00	247.71	9.14	-50.4	-58.3	12.4	6.11e-01	0	41	0	21495808	71	9428
2026-01-15 13:39:25.99	248.06	9.22	-47.8	-52.2	18.3	6.07e-01	0	41	0	25165824	66	6238
2026-01-15 13:39:27.97	248.42	9.30	-47.5	-51.6	18.8	6.07e-01	0	41	0	28835840	66	5804
2026-01-15 13:39:29.96	248.78	9.37	-46.8	-50.3	20.0	6.05e-01	0	41	0	32505856	65	5330
2026-01-15 13:39:31.94	249.14	9.45	-46.6	-50.1	20.3	6.05e-01	0	41	0	36175872	65	5160
2026-01-15 13:39:33.93	249.51	9.53	-46.4	-50.0	20.4	6.09e-01	0	41	0	40370176	64	5415
2026-01-15 13:39:35.92	249.88	9.61	-46.4	-50.0	20.4	6.05e-01	0	41	0	44040192	64	5427
2026-01-15 13:39:37.90	250.24	9.68	-46.4	-49.9	20.4	6.10e-01	0	41	0	47710208	64	5366
2026-01-15 13:39:39.89	250.61	9.76	-46.4	-49.9	20.5	6.05e-01	0	41	0	51380224	64	5369
2026-01-15 13:39:41.87	250.99	9.83	-46.5	-49.9	20.5	6.09e-01	0	41	0	55050240	64	5362
2026-01-15 13:39:43.86	251.36	9.91	-46.5	-49.8	20.5	6.05e-01	0	41	0	58720256	64	5326
2026-01-15 13:39:45.84	251.74	9.98	-46.6	-50.0	20.4	6.05e-01	0	41	0	62390272	64	5425
2026-01-15 13:39:47.83	252.12	10.05	-46.5	-50.0	20.4	6.05e-01	0	42	0	66060288	64	5452
2026-01-15 13:39:49.82	252.50	10.12	-46.3	-49.9	20.5	6.07e-01	0	41	0	69730304	64	5362
2026-01-15 13:39:51.80	252.88	10.19	-46.6	-50.2	20.2	6.06e-01	0	41	0	73924608	64	5560
2026-01-15 13:39:53.79	253.26	10.26	-46.5	-49.9	20.5	6.07e-01	0	41	0	77594624	64	5352
2026-01-15 13:39:55.77	253.65	10.33	-46.2	-49.5	20.8	6.09e-01	0	41	0	81264640	64	5141
2026-01-15 13:39:57.76	254.04	10.40	-46.3	-49.8	20.6	6.07e-01	0	41	0	84934656	64	5284
2026-01-15 13:39:59.75	254.43	10.47	-46.1	-49.6	20.8	6.08e-01	0	41	0	88604672	64	5171
2026-01-15 13:40:01.73	254.82	10.53	-46.1	-49.7	20.7	6.07e-01	0	41	0	92274688	64	5248
2026-01-15 13:40:03.72	255.21	10.60	-46.2	-49.6	20.7	6.05e-01	0	41	0	95944704	64	5195
2026-01-15 13:40:05.70	255.61	10.66	-46.2	-49.4	21.0	6.06e-01	0	41	0	99614720	64	5085
2026-01-15 13:40:07.69	256.00	10.72	-46.2	-49.6	20.8	6.09e-01	0	41	0	103284736	64	5162
2026-01-15 13:40:09.67	256.40	10.79	-46.2	-49.5	20.9	6.08e-01	0	41	0	106954752	64	5134
2026-01-15 13:40:11.66	256.80	10.85	-46.2	-49.5	20.9	6.08e-01	0	41	0	111149056	64	5139
2026-01-15 13:40:13.64	257.21	10.91	-46.2	-49.6	20.8	6.07e-01	0	42	0	114819072	64	5170
2026-01-15 13:40:15.63	257.61	10.97	-46.2	-49.6	20.8	6.07e-01	0	41	0	118489088	64	5178
2026-01-15 13:40:17.61	258.01	11.02	-46.2	-49.4	21.0	6.07e-01	0	41	0	122159104	64	5082
2026-01-15 13:40:19.60	258.42	11.08	-46.2	-49.5	20.9	6.06e-01	0	41	0	125829120	64	5136
2026-01-15 13:40:21.58	258.83	11.14	-46.0	-49.4	20.9	6.07e-01	0	41	0	129499136	64	5079
2026-01-15 13:40:23.57	259.24	11.19	-45.9	-49.4	21.0	6.10e-01	0	41	0	133169152	63	5393
2026-01-15 13:40:25.56	259.66	11.24	-46.0	-49.6	20.8	6.05e-01	0	41	0	136839168	63	5479
2026-01-15 13:40:27.54	260.07	11.30	-46.1	-49.5	20.9	6.06e-01	0	41	0	140509184	63	5444
2026-01-15 13:40:29.53	260.48	11.35	-46.0	-49.3	21.1	6.08e-01	0	41	0	144179200	63	5339
2026-01-15 13:40:31.51	260.90	11.40	-46.2	-49.5	21.0	6.07e-01	0	41	0	148373504	63	5414
2026-01-15 13:40:33.50	261.32	11.45	-46.3	-49.5	20.9	6.05e-01	0	41	0	152043520	63	5437
2026-01-15 13:40:35.48	261.74	11.50	-46.2	-49.4	21.1	6.07e-01	0	41	0	155713536	63	5351
2026-01-15 13:40:37.47	262.16	11.54	-46.3	-49.5	21.0	6.08e-01	0	41	0	159383552	63	5409
2026-01-15 13:40:39.45	262.58	11.59	-46.2	-49.4	21.0	6.07e-01	0	41	0	163053568	63	5386
2026-01-15 13:40:41.44	263.01	11.63	-46.1	-49.4	21.1	6.06e-01	0	41	0	166723584	63	5376
2026-01-15 13:40:43.43	263.43	11.67	-46.2	-49.5	21.0	6.07e-01	0	41	0	170393600	63	5443
2026-01-15 13:40:45.41	263.86	11.72	-46.2	-49.4	21.0	6.08e-01	0	41	0	174063616	63	5401
2026-01-15 13:40:47.40	264.29	11.76	-46.3	-49.4	21.1	6.05e-01	0	41	0	177733632	63	5377
2026-01-15 13:40:49.38	264.71	11.79	-46.3	-49.4	21.1	6.07e-01	0	41	0	181403648	63	5349
2026-01-15 13:40:51.37	265.15	11.83	-46.3	-49.4	21.1	6.06e-01	0	42	0	185597952	63	5390
2026-01-15 13:40:53.35	265.58	11.87	-49.5	-55.6	15.4	6.08e-01	0	41	0	189267968	69	7792
2026-01-15 13:40:55.34	266.01	11.90	-49.1	-54.7	15.8	6.07e-01	0	41	0	192937984	69	6990
2026-01-15 13:40:57.33	266.44	11.94	-49.0	-54.2	16.5	6.08e-01	0	41	0	196608000	69	6580
2026-01-15 13:40:59.31	266.88	11.97	-48.6	-53.4	17.2	6.06e-01	0	41	0	200278016	69	6022
2026-01-15 13:41:01.30	267.31	12.00	-48.5	-53.2	17.4	6.05e-01	0	41	0	203948032	69	5890
2026-01-15 13:41:03.28	267.75	12.03	-48.3	-52.8	17.8	6.08e-01	0	42	0	207618048	68	5977
2026-01-15 13:41:05.27	268.18	12.06	-47.7	-51.9	18.6	6.07e-01	0	42	0	211288064	67	5690
2026-01-15 13:41:07.25	268.62	12.08	-46.8	-50.5	19.9	6.08e-01	0	41	0	214958080	65	5413
2026-01-15 13:41:09.24	269.06	12.11	-46.2	-49.4	21.0	6.08e-01	0	41	0	218628096	64	5069
2026-01-15 13:41:11.23	269.50	12.13	-46.2	-49.3	21.0	6.06e-01	0	41	0	222822400	64	5039
2026-01-15 13:41:13.21	269.94	12.16	-46.2	-49.3	21.1	6.08e-01	0	42	0	226492416	64	5008
2026-01-15 13:41:15.20	270.38	12.18	-46.1	-49.2	21.2	6.07e-01	0	41	0	230162432	64	4944
2026-01-15 13:41:17.18	270.82	12.20	-46.0	-49.1	21.3	6.06e-01	0	41	0	233832448	64	4901
2026-01-15 13:41:19.17	271.26	12.21	-46.1	-49.2	21.2	6.08e-01	0	41	0	237502464	63	5270
2026-01-15 13:41:21.15	271.71	12.23	-46.0	-49.1	21.4	6.07e-01	0	41	0	241172480	63	5175
2026-01-15 13:41:23.14	272.15	12.25	-46.2	-49.3	21.2	6.05e-01	0	41	0	244842496	63	5314
2026-01-15 13:41:25.13	272.59	12.26	-46.1	-49.2	21.2	6.07e-01	0	41	0	248512512	63	5267
2026-01-15 13:41:27.11	273.04	12.27	-46.2	-49.4	21.1	6.08e-01	0	41	0	252182528	63	5364
2026-01-15 13:41:29.10	273.48	12.28	-46.0	-49.1	21.4	6.07e-01	0	41	0	255852544	63	5197
2026-01-15 13:41:31.08	273.92	12.29	-46.0	-49.1	21.3	6.07e-01	0	41	0	260046848	63	5201
2026-01-15 13:41:33.07	274.37	12.30	-46.0	-49.1	21.3	6.05e-01	0	41	0	263716864	63	5208
2026-01-15 13:41:35.06	274.82	12.31	-46.2	-49.3	21.1	6.07e-01	0	41	0	267386880	63	5329
2026-01-15 13:41:37.04	275.26	12.31	-46.0	-49.2	21.3	6.08e-01	0	41	0	271056896	63	5227
2026-01-15 13:41:39.03	275.71	12.32	-46.1	-49.2	21.3	6.06e-01	0	41	0	274726912	63	5263
2026-01-15 13:41:41.01	276.15	12.32	-46.1	-49.1	21.4	6.06e-01	0	41	0	278396928	63	5186
2026-01-15 13:41:43.00	276.60	12.32	-46.1	-49.2	21.3	6.06e-01	0	41	0	282066944	63	5241
2026-01-15 13:41:44.99	277.04	12.32	-46.1	-49.3	21.2	6.05e-01	0	41	0	285736960	63	5291
2026-01-15 13:41:46.97	277.49	12.31	-45.9	-49.1	21.3	6.08e-01	0	41	0	289406976	63	5192
2026-01-15 13:41:48.96	277.93	12.31	-45.9	-49.1	21.4	6.07e-01	0	41	0	293601280	63	5175
2026-01-15 13:41:50.94	278.37	12.30	-46.1	-49.2	21.3	6.05e-01	0	42	0	297271296	63	5237
2026-01-15 13:41:52.93	278.82	12.30	-46.1	-49.2	21.3	6.07e-01	0	41	0	300941312	63	5273
2026-01-15 13:41:54.92	279.27	12.29	-46.0	-49.2	21.3	6.08e-01	0	41	0	304611328	63	5243
2026-01-15 13:41:56.90	279.71	12.28	-46.0	-49.1	21.4	6.09e-01	0	42	0	308281344	63	5203
2026-01-15 13:41:58.89	280.15	12.27	-46.0	-49.2	21.3	6.08e-01	0	41	0	311951360	63	5246
2026-01-15 13:42:00.86	280.59	12.25	-46.1	-49.2	21.3	6.05e-01	0	41	0	315621376	63	5233
2026-01-15 13:42:02.84	281.03	12.24	-46.1	-49.3	21.2	6.06e-01	0	41	0	319291392	63	5291
2026-01-15 13:42:04.83	281.48	12.22	-46.1	-49.2	21.3	6.06e-01	0	41	0	322961408	63	5253
2026-01-15 13:42:06.81	281.92	12.21	-46.1	-49.1	21.3	6.06e-01	0	41	0	326631424	63	5207
2026-01-15 13:42:08.80	282.36	12.19	-46.2	-49.2	21.3	6.08e-01	0	41	0	330301440	63	5256
2026-01-15 13:42:10.78	282.80	12.17	-46.3	-49.4	21.1	6.06e-01	0	41	0	334495744	63	5356
2026-01-15 13:42:12.77	283.24	12.15	-46.2	-49.3	21.2	6.06e-01	0	41	0	338165760	63	5304
2026-01-15 13:42:14.76	283.68	12.12	-46.1	-49.3	21.2	6.06e-01	0	41	0	341835776	63	5301
2026-01-15 13:42:16.74	284.12	12.10	-46.1	-49.3	21.2	6.08e-01	0	41	0	345505792	63	5315
2026-01-15 13:42:18.73	284.55	12.07	-46.3	-49.5	21.0	6.07e-01	0	41	0	349175808	63	5421
2026-01-15 13:42:20.71	284.99	12.05	-46.1	-49.3	21.2	6.07e-01	0	41	0	352845824	63	5287
2026-01-15 13:42:22.70	285.43	12.02	-46.1	-49.3	21.2	6.07e-01	0	41	0	356515840	63	5288
2026-01-15 13:42:24.68	285.86	11.99	-46.3	-49.4	21.1	6.06e-01	0	41	0	360185856	63	5347
2026-01-15 13:42:26.67	286.29	11.96	-46.3	-49.4	21.0	6.08e-01	0	41	0	363855872	63	5397
2026-01-15 13:42:28.65	286.73	11.92	-46.3	-49.5	21.0	6.07e-01	0	41	0	368050176	63	5427
2026-01-15 13:42:30.64	287.16	11.89	-46.3	-49.5	20.7	6.05e-01	0	41	0	371720192	63	5427
2026-01-15 13:42:32.63	287.59	11.85	-46.3	-49.4	21.1	6.09e-01	0	41	0	375390208	63	5386
2026-01-15 13:42:34.61	288.02	11.82	-46.3	-49.5	20.9	6.07e-01	0	41	0	379060224	63	5440
2026-01-15 13:42:36.60	288.45	11.78	-46.3	-49.6	20.9	6.08e-01	0	41	0	382730240	63	5466
2026-01-15 13:42:38.58	288.87	11.74	-46.2	-49.6	20.9	6.07e-01	0	41	0	386400256	63	5492
2026-01-15 13:42:40.57	289.30	11.70	-46.0	-49.5	21.0	6.05e-01	0	41	0	390070272	63	5438
2026-01-15 13:42:42.55	289.72	11.66	-46.1	-49.6	20.9	6.07e-01	0	41	0	393740288	63	5496
2026-01-15 13:42:44.54	290.15	11.61	-46.4	-49.7	20.8	6.06e-01	0	41	0	397410304	63	5586
2026-01-15 13:42:46.53	290.57	11.57	-46.4	-49.6	20.8	6.05e-01	0	41	0	401080320	63	5523
2026-01-15 13:42:48.51	290.99	11.52	-46.5	-49.8	20.7	6.08e-01	0	41	0	405274624	63	5635
2026-01-15 13:42:50.50	291.41	11.48	-46.4	-49.7	20.7	6.07e-01	0	41	0	408944640	63	5567
2026-01-15 13:42:52.49	291.83	11.43	-46.5	-49.9	20.6	6.09e-01	0	41	0	412614656	63	5693
2026-01-15 13:42:54.47	292.24	11.38	-46.6	-50.0	20.4	6.05e-01	0	41	0	416284672	64	5420
2026-01-15 13:42:56.46	292.66	11.33	-46.7	-50.0	20.4	6.07e-01	0	41	0	419954688	64	5452
2026-01-15 13:42:58.44	293.07	11.28	-46.5	-49.7	20.6	6.08e-01	0	41	0	423624704	64	5269
2026-01-15 13:43:00.43	293.48	11.22	-46.6	-49.9	20.5	6.04e-01	0	41	0	427294720	64	5346
2026-01-15 13:43:02.42	293.89	11.17	-46.6	-50.0	20.4	6.07e-01	0	41	0	430964736	64	5407
2026-01-15 13:43:04.40	294.30	11.12	-46.6	-49.9	20.5	6.08e-01	0	41	0	434634752	64	5377
2026-01-15 13:43:06.39	294.71	11.06	-46.7	-50.0	20.4	6.08e-01	0	41	0	438304768	64	5430
2026-01-15 13:43:08.37	295.11	11.00	-46.7	-50.0	20.3	6.07e-01	0	41	0	442499072	64	5463
2026-01-15 13:43:10.36	295.52	10.94	-46.5	-50.0	20.3	6.07e-01	0	42	0	446169088	64	5445
2026-01-15 13:43:12.34	295.92	10.89	-46.5	-50.2	20.3	6.08e-01	0	41	0	449839104	64	5533
2026-01-15 13:43:14.33	296.32	10.83	-46.7	-50.3	20.1	6.06e-01	0	41	0	453509120	64	5612
2026-01-15 13:43:16.31	296.72	10.76	-47.0	-50.5	19.9	6.08e-01	0	41	0	457179136	64	5744
2026-01-15 13:43:18.30	297.11	10.70	-46.8	-50.3	20.1	6.07e-01	0	41	0	460849152	64	5593
2026-01-15 13:43:20.28	297.51	10.64	-46.8	-50.3	20.1	6.06e-01	0	41	0	464519168	64	5610
2026-01-15 13:43:22.27	297.90	10.58	-46.8	-50.4	20.0	6.07e-01	0	41	0	468189184	64	5692
2026-01-15 13:43:24.26	298.29	10.51	-46.7	-50.3	20.0	6.06e-01	0	41	0	471859200	64	5651
2026-01-15 13:43:26.24	298.68	10.44	-46.7	-50.4	20.0	6.07e-01	0	41	0	475529216	64	5662
2026-01-15 13:43:28.23	299.07	10.38	-46.7	-50.4	20.0	6.08e-01	0	41	0	479723520	64	5674
2026-01-15 13:43:30.21	299.45	10.31	-46.8	-50.5	19.9	6.08e-01	0	41	0	483393536	64	5775
2026-01-15 13:43:32.20	299.84	10.24	-46.8	-50.4	20.0	6.09e-01	0	41	0	487063552	64	5659
2026-01-15 13:43:34.18	300.22	10.17	-46.8	-50.4	20.0	6.08e-01	0	41	0	490733568	64	5663
2026-01-15 13:43:36.17	300.60	10.10	-47.0	-50.6	19.8	6.07e-01	0	41	0	494403584	64	5820
2026-01-15 13:43:38.16	300.97	10.03	-46.9	-50.6	19.8	6.05e-01	0	41	0	498073600	64	5797
2026-01-15 13:43:40.14	301.35	9.96	-46.9	-50.6	19.7	6.07e-01	0	41	0	501743616	64	5810
2026-01-15 13:43:42.13	301.72	9.89	-46.9	-50.6	19.8	6.06e-01	0	41	0	505413632	64	5805
2026-01-15 13:43:44.11	302.09	9.81	-46.8	-50.4	19.9	6.08e-01	0	41	0	509083648	64	5706
2026-01-15 13:43:46.10	302.46	9.74	-46.7	-50.5	19.9	6.05e-01	0	41	0	512753664	64	5737
2026-01-15 13:43:48.08	302.83	9.66	-46.7	-50.6	19.8	6.06e-01	0	41	0	516947968	64	5793
2026-01-15 13:43:50.07	303.20	9.59	-47.0	-50.7	19.7	6.06e-01	0	41	0	520617984	64	5868
2026-01-15 13:43:52.06	303.56	9.51	-47.1	-50.8	19.5	6.05e-01	0	41	0	524288000	64	5971
2026-01-15 13:43:54.04	303.92	9.44	-46.7	-50.5	19.8	6.05e-01	0	41	0	527958016	64	5745
2026-01-15 13:43:56.03	304.28	9.36	-47.0	-50.8	19.5	6.08e-01	0	41	0	531628032	64	5948
2026-01-15 13:43:58.01	304.64	9.28	-46.9	-50.7	19.6	6.09e-01	0	41	0	535298048	64	5899
2026-01-15 13:44:00.00	305.00	9.20	-46.6	-50.7	19.7	6.07e-01	0	41	0	538968064	64	5857
2026-01-15 13:44:01.98	305.35	9.12	-46.7	-50.7	19.6	6.08e-01	0	41	0	542638080	64	5885
2026-01-15 13:44:03.97	305.70	9.04	-46.5	-50.7	19.7	6.07e-01	0	41	0	546308096	64	5861
2026-01-15 13:44:05.96	306.05	8.96	-51.8	-72.1	3.8	7.48e-01	0	41	104	548405248	74	39092
2026-01-15 13:44:07.94	306.40	8.88	-51.9	-72.2	3.8	7.47e-01	0	41	104	548405248	74	39203
2026-01-15 13:44:09.93	306.74	8.80	-52.3	-72.3	3.8	7.48e-01	0	41	104	548405248	75	37677
2026-01-15 13:44:11.91	307.09	8.72	-52.5	-72.4	3.8	7.47e-01	0	41	104	548405248	75	37986
2026-01-15 13:44:13.90	307.43	8.63	-52.1	-72.4	3.8	7.46e-01	0	41	104	548405248	75	38062
2026-01-15 13:44:15.89	307.77	8.55	-52.3	-72.5	3.8	7.44e-01	0	41	104	548405248	75	38282
2026-01-15 13:44:17.87	308.10	8.46	-52.5	-72.4	3.8	7.48e-01	0	41	104	548405248	75	38217
2026-01-15 13:44:19.86	308.44	8.38	-52.3	-72.5	3.8	7.50e-01	0	41	104	548405248	75	38410
2026-01-15 13:44:21.84	308.77	8.30	-52.3	-72.5	3.8	7.47e-01	0	41	104	548405248	75	38275
2026-01-15 13:44:23.83	309.10	8.21	-52.2	-72.5	3.8	7.46e-01	0	41	104	548405248	75	38358
2026-01-15 13:44:25.82	309.43	8.12	-51.9	-72.4	3.8	7.47e-01	0	41	104	548405248	75	38122
2026-01-15 13:44:27.80	309.76	8.04	-51.9	-72.4	3.8	7.48e-01	0	42	104	548405248	75	38034
2026-01-15 13:44:29.79	310.08	7.95	-51.9	-72.4	3.8	7.44e-01	0	41	104	548405248	75	38005
2026-01-15 13:44:31.77	310.41	7.86	-51.7	-72.4	3.8	7.45e-01	0	41	104	548405248	75	37987
2026-01-15 13:44:33.76	310.73	7.78	-51.6	-72.4	3.8	7.44e-01	0	41	104	548405248	75	38008
2026-01-15 13:44:35.75	311.05	7.69	-51.6	-72.4	3.8	7.47e-01	0	41	104	548405248	75	37946
2026-01-15 13:44:37.73	311.36	7.60	-51.6	-72.4	3.8	7.47e-01	0	41	104	548405248	75	38005
2026-01-15 13:44:39.72	311.68	7.51	-51.6	-72.4	3.8	7.48e-01	0	41	104	548405248	75	37989
2026-01-15 13:44:41.71	311.99	7.42	-51.6	-72.4	3.8	7.39e-01	0	41	104	548405248	75	37906
2026-01-15 13:44:43.69	312.30	7.34	-51.6	-72.4	3.8	7.45e-01	0	41	104	548405248	75	37921
2026-01-15 13:44:45.68	312.61	7.25	-51.6	-72.4	3.8	7.45e-01	0	41	104	548405248	75	38009
2026-01-15 13:44:47.67	312.92	7.16	-51.6	-72.4	3.8	7.49e-01	0	41	104	548405248	75	37858
2026-01-15 13:44:49.65	313.22	7.07	-51.6	-72.4	3.8	7.48e-01	0	41	104	548405248	75	37931
2026-01-15 13:44:51.64	313.52	6.98	-51.6	-72.4	3.8	7.43e-01	0	41	104	548405248	75	37924
2026-01-15 13:44:53.62	313.82	6.88	-51.6	-72.4	3.8	7.46e-01	0	42	104	548405248	75	37953
2026-01-15 13:44:55.61	314.12	6.79	-51.6	-72.3	3.8	7.45e-01	0	41	104	548405248	74	39996
2026-01-15 13:44:57.59	314.42	6.70	-51.6	-72.4	3.8	7.47e-01	0	41	104	548405248	74	40111
2026-01-15 13:44:59.58	314.71	6.61	-51.6	-72.3	3.8	7.45e-01	0	41	104	548405248	74	40044
2026-01-15 13:45:01.57	315.01	6.52	-51.6	-72.4	3.8	7.44e-01	0	41	104	548405248	74	40120
2026-01-15 13:45:03.55	315.30	6.43	-51.6	-72.4	3.8	7.44e-01	0	41	104	548405248	74	40087
2026-01-15 13:45:05.54	315.59	6.34	-51.6	-72.4	3.8	7.47e-01	0	41	104	548405248	74	40121
2026-01-15 13:45:07.52	315.87	6.24	-51.6	-72.4	3.8	7.46e-01	0	41	104	548405248	74	40128
2026-01-15 13:45:09.51	316.16	6.15	-51.6	-72.3	3.8	7.44e-01	0	41	104	548405248	74	39959
2026-01-15 13:45:11.50	316.44	6.06	-51.6	-72.4	3.8	7.45e-01	0	41	104	548405248	74	40073
2026-01-15 13:45:13.48	316.72	5.97	-51.6	-72.4	3.8	7.49e-01	0	41	104	548405248	74	40154
2026-01-15 13:45:15.47	317.00	5.87	-51.6	-72.3	3.8	7.44e-01	0	41	104	548405248	74	40007
2026-01-15 13:45:17.45	317.28	5.78	-51.6	-72.4	3.8	7.45e-01	0	41	104	548405248	74	40048
2026-01-15 13:45:19.44	317.56	5.69	-51.6	-72.4	3.8	7.51e-01	0	41	104	548405248	74	40072
2026-01-15 13:45:21.43	317.83	5.59	-51.6	-72.3	3.8	7.45e-01	0	41	104	548405248	74	39989
2026-01-15 13:45:23.41	318.10	5.50	-51.6	-72.4	3.8	7.48e-01	0	41	104	548405248	74	40063
2026-01-15 13:45:25.40	318.37	5.41	-51.6	-72.3	3.8	7.46e-01	0	41	104	548405248	74	39969
2026-01-15 13:45:27.38	318.64	5.31	-51.6	-72.3	3.8	7.46e-01	0	41	104	548405248	74	40013
2026-01-15 13:45:29.37	318.91	5.22	-51.6	-72.3	3.8	7.46e-01	0	41	104	548405248	74	39957
2026-01-15 13:45:31.36	319.17	5.12	-51.6	-72.3	3.8	7.47e-01	0	41	104	548405248	74	40028
2026-01-15 13:45:33.34	319.43	5.03	-51.5	-72.3	3.8	7.47e-01	0	41	104	548405248	74	40025

#Closed at: 2026-01-15 13:45:35
#Recorded file [548 MB]: D:/Data/31040_260115_163752.dat