passes_logs/2026/01/15/T1/T1__20260115_085640_NOAA_21_JPSS-2_rec.log

#Pass ID: 20260115_085640_NOAA 21 (JPSS-2)
#Satellite: NOAA 21 (JPSS-2)
#Configuration: NOAA 21
#almurnet v.1.7.20251203
#Start time: 2026-01-15 08:56:41

#Version: 2.0.20230620
#Station: T1
#Location: 37.570604 lon 55.790049 lat
#TLE: 1 54234U 22150A   26014.58979933  .00000039  00000+0  39403-4 0  9998
#TLE: 2 54234  98.7497 315.4945 0000653 294.6373  65.4735 14.19534652164756

#Time	Az	El	Level	Level2	SNR	BER	BlckErr	Temp	State	Recorded	gain1	gain2
2026-01-15 08:56:41.84	129.38	5.10	-50.2	-63.2	3.8	1.49e+00	0	36	0	0	71	16527
2026-01-15 08:56:44.83	129.23	5.30	-50.1	-63.2	3.8	1.49e+00	0	36	104	0	72	15739
2026-01-15 08:56:47.83	129.07	5.51	-50.1	-63.3	3.8	1.49e+00	0	36	104	0	72	15774
2026-01-15 08:56:50.83	128.92	5.72	-50.0	-63.2	3.8	1.49e+00	0	36	104	0	72	15667
2026-01-15 08:56:53.82	128.76	5.93	-50.0	-62.9	3.8	1.49e+00	0	37	104	0	72	15159
2026-01-15 08:56:56.82	128.60	6.14	-50.0	-62.6	3.8	1.49e+00	0	36	104	0	72	14587
2026-01-15 08:56:59.81	128.43	6.35	-50.0	-62.4	3.8	1.49e+00	0	37	104	0	71	15114
2026-01-15 08:57:02.81	128.26	6.56	-50.0	-62.5	3.8	1.49e+00	0	37	104	0	71	15284
2026-01-15 08:57:05.81	128.09	6.77	-50.2	-62.8	3.8	1.49e+00	0	37	104	0	71	15888
2026-01-15 08:57:08.80	127.92	6.99	-50.2	-62.8	3.8	1.49e+00	0	37	104	0	71	15943
2026-01-15 08:57:11.79	127.75	7.21	-50.2	-63.2	3.8	1.49e+00	0	37	104	0	71	16592
2026-01-15 08:57:14.79	127.57	7.43	-50.0	-61.6	3.8	1.49e+00	0	37	104	0	71	13804
2026-01-15 08:57:17.78	127.39	7.65	-48.6	-54.5	7.5	1.49e-01	0	37	0	0	69	6829
2026-01-15 08:57:20.78	127.20	7.87	-46.2	-49.5	12.3	3.87e-04	0	37	0	0	64	5139
2026-01-15 08:57:23.78	127.02	8.09	-44.7	-47.3	14.6	0.00e+00	0	37	0	0	61	4740
2026-01-15 08:57:26.78	126.83	8.32	-44.6	-47.3	14.7	7.00e-07	0	37	0	0	60	4997
2026-01-15 08:57:29.78	126.63	8.55	-46.3	-49.6	12.3	1.20e-04	0	37	0	0	63	5525
2026-01-15 08:57:32.78	126.44	8.78	-48.9	-55.1	6.9	1.04e-01	0	37	0	0	68	7787
2026-01-15 08:57:35.77	126.24	9.01	-50.1	-62.5	3.8	1.49e+00	0	37	104	0	70	16284
2026-01-15 08:57:38.76	126.04	9.24	-49.9	-62.8	3.8	1.49e+00	0	37	104	0	71	15896
2026-01-15 08:57:41.76	125.83	9.48	-47.6	-52.2	9.6	1.49e+00	0	38	104	0	67	5874
2026-01-15 08:57:44.75	125.62	9.71	-44.2	-46.6	15.5	0.00e+00	0	37	0	0	60	4609
2026-01-15 08:57:47.74	125.41	9.95	-44.0	-46.3	15.8	0.00e+00	0	38	0	0	59	4715
2026-01-15 08:57:50.73	125.20	10.19	-43.7	-46.0	16.1	0.00e+00	0	38	0	0	59	4554
2026-01-15 08:57:53.73	124.98	10.43	-43.6	-45.9	16.2	0.00e+00	0	38	0	0	58	4767
2026-01-15 08:57:56.72	124.75	10.68	-43.5	-45.7	16.4	0.00e+00	0	38	0	0	58	4688
2026-01-15 08:57:59.71	124.53	10.92	-43.5	-45.6	16.5	0.00e+00	0	38	0	0	58	4637
2026-01-15 08:58:02.69	124.30	11.17	-43.2	-45.5	16.6	0.00e+00	0	38	0	0	58	4560
2026-01-15 08:58:05.68	124.06	11.42	-42.9	-45.1	16.9	0.00e+00	0	38	0	0	57	4651
2026-01-15 08:58:08.67	123.82	11.67	-42.9	-45.1	17.0	0.00e+00	0	38	0	0	57	4618
2026-01-15 08:58:11.67	123.58	11.93	-42.9	-45.0	17.1	0.00e+00	0	38	0	0	57	4588
2026-01-15 08:58:14.67	123.33	12.18	-43.0	-45.1	17.0	0.00e+00	0	38	0	0	57	4602
2026-01-15 08:58:17.66	123.07	12.44	-42.9	-45.0	17.1	0.00e+00	0	38	0	0	57	4573
2026-01-15 08:58:20.65	122.82	12.70	-43.0	-45.0	17.1	0.00e+00	0	38	0	0	57	4570
2026-01-15 08:58:23.65	122.55	12.97	-42.9	-44.9	17.2	0.00e+00	0	38	0	0	57	4534
2026-01-15 08:58:26.64	122.29	13.23	-42.6	-44.7	17.4	0.00e+00	0	38	0	0	57	4396
2026-01-15 08:58:29.64	122.02	13.50	-42.8	-44.9	17.2	0.00e+00	0	38	0	0	57	4501
2026-01-15 08:58:32.63	121.74	13.77	-42.8	-44.8	17.3	0.00e+00	0	38	0	0	57	4489
2026-01-15 08:58:35.62	121.46	14.04	-42.7	-45.1	17.1	0.00e+00	0	38	0	0	57	4603
2026-01-15 08:58:38.61	121.17	14.32	-42.9	-45.0	17.2	0.00e+00	0	38	0	0	57	4557
2026-01-15 08:58:41.60	120.88	14.59	-42.9	-45.0	17.1	0.00e+00	0	38	0	0	57	4582
2026-01-15 08:58:44.60	120.58	14.87	-42.9	-45.0	17.2	0.00e+00	0	38	0	0	57	4585
2026-01-15 08:58:47.59	120.27	15.16	-43.0	-45.0	17.1	0.00e+00	0	38	0	0	57	4584
2026-01-15 08:58:50.58	119.96	15.44	-43.0	-45.0	17.1	0.00e+00	0	38	0	0	57	4585
2026-01-15 08:58:53.58	119.64	15.73	-43.1	-45.2	17.0	0.00e+00	0	38	0	0	57	4671
2026-01-15 08:58:56.57	119.32	16.02	-43.2	-45.3	17.0	0.00e+00	0	38	0	0	57	4716
2026-01-15 08:58:59.57	118.99	16.31	-43.1	-45.1	17.1	0.00e+00	0	38	0	0	57	4647
2026-01-15 08:59:02.57	118.66	16.60	-43.0	-45.0	17.2	0.00e+00	0	38	0	0	57	4595
2026-01-15 08:59:05.57	118.31	16.90	-43.0	-45.0	17.2	0.00e+00	0	38	0	0	57	4563
2026-01-15 08:59:08.56	117.96	17.20	-42.8	-44.8	17.4	0.00e+00	0	38	0	0	57	4464
2026-01-15 08:59:11.57	117.60	17.50	-42.8	-44.8	17.4	0.00e+00	0	38	0	0	57	4474
2026-01-15 08:59:14.56	117.24	17.81	-43.1	-45.1	17.1	0.00e+00	0	38	0	0	57	4630
2026-01-15 08:59:17.55	116.87	18.12	-43.2	-45.3	17.0	0.00e+00	0	38	0	0	57	4707
2026-01-15 08:59:20.55	116.49	18.43	-43.2	-45.3	17.0	0.00e+00	0	38	0	0	57	4721
2026-01-15 08:59:23.54	116.10	18.74	-43.1	-45.1	17.2	0.00e+00	0	38	0	0	57	4627
2026-01-15 08:59:26.52	115.71	19.05	-43.0	-45.1	17.2	0.00e+00	0	38	0	0	57	4608
2026-01-15 08:59:29.52	115.30	19.37	-43.0	-45.0	17.2	0.00e+00	0	38	0	0	57	4589
2026-01-15 08:59:32.51	114.89	19.69	-42.9	-45.0	17.3	0.00e+00	0	38	0	0	57	4548
2026-01-15 08:59:35.51	114.46	20.01	-42.9	-44.9	17.3	0.00e+00	0	38	0	0	57	4530
2026-01-15 08:59:38.51	114.03	20.34	-42.7	-44.7	17.5	0.00e+00	0	38	0	0	57	4437
2026-01-15 08:59:41.50	113.59	20.67	-42.7	-44.7	17.6	0.00e+00	0	38	0	0	57	4395
2026-01-15 08:59:44.50	113.14	21.00	-42.3	-44.2	17.9	0.00e+00	0	38	0	0	56	4435
2026-01-15 08:59:47.50	112.68	21.33	-42.2	-44.1	18.0	0.00e+00	0	38	0	0	56	4379
2026-01-15 08:59:50.50	112.21	21.67	-42.3	-44.2	18.0	0.00e+00	0	38	0	0	56	4413
2026-01-15 08:59:53.49	111.73	22.00	-41.8	-43.7	18.3	0.00e+00	0	38	0	0	55	4423
2026-01-15 08:59:56.49	111.24	22.34	-41.7	-43.5	18.5	0.00e+00	0	38	0	0	55	4338
2026-01-15 08:59:59.49	110.73	22.68	-41.6	-43.4	18.6	0.00e+00	0	38	0	0	55	4267
2026-01-15 09:00:02.48	110.22	23.03	-41.6	-43.4	18.6	0.00e+00	0	38	0	0	55	4257
2026-01-15 09:00:05.48	109.70	23.37	-41.7	-43.5	18.5	0.00e+00	0	38	0	0	55	4322
2026-01-15 09:00:08.47	109.16	23.72	-41.7	-43.6	18.4	0.00e+00	0	38	0	0	55	4369
2026-01-15 09:00:11.46	108.61	24.07	-41.8	-43.7	18.4	0.00e+00	0	38	0	0	55	4399
2026-01-15 09:00:14.45	108.05	24.42	-41.8	-43.7	18.3	0.00e+00	0	38	0	0	55	4424
2026-01-15 09:00:17.45	107.47	24.78	-42.0	-44.0	18.1	0.00e+00	0	38	0	0	55	4552
2026-01-15 09:00:20.45	106.88	25.13	-42.0	-43.9	18.2	0.00e+00	0	38	0	0	55	4515
2026-01-15 09:00:23.44	106.28	25.49	-41.9	-43.8	18.2	0.00e+00	0	39	0	0	55	4478
2026-01-15 09:00:26.44	105.67	25.85	-42.1	-44.0	18.0	0.00e+00	0	38	0	0	55	4593
2026-01-15 09:00:29.43	105.04	26.20	-42.0	-44.0	18.1	0.00e+00	0	38	0	0	55	4547
2026-01-15 09:00:32.44	104.39	26.56	-41.9	-43.8	18.3	0.00e+00	0	38	0	0	55	4442
2026-01-15 09:00:35.43	103.73	26.92	-42.2	-44.1	18.0	0.00e+00	0	38	0	0	55	4629
2026-01-15 09:00:38.42	103.06	27.28	-42.5	-44.5	17.6	0.00e+00	0	38	0	0	55	4824
2026-01-15 09:00:41.42	102.37	27.65	-42.5	-44.5	17.7	0.00e+00	0	38	0	0	55	4816
2026-01-15 09:00:44.41	101.67	28.01	-42.8	-44.8	17.6	0.00e+00	0	38	0	0	56	4733
2026-01-15 09:00:47.41	100.94	28.37	-43.0	-45.0	17.4	0.00e+00	0	38	0	0	56	4853
2026-01-15 09:00:50.41	100.20	28.73	-42.7	-44.6	17.7	0.00e+00	0	38	0	0	56	4646
2026-01-15 09:00:53.40	99.45	29.09	-42.6	-44.5	17.8	0.00e+00	0	39	0	0	56	4569
2026-01-15 09:00:56.37	98.69	29.44	-42.6	-44.5	17.8	0.00e+00	0	38	0	0	56	4575
2026-01-15 09:00:59.33	97.91	29.79	-42.7	-44.6	17.7	0.00e+00	0	38	0	0	56	4644
2026-01-15 09:01:02.30	97.11	30.15	-42.4	-44.4	18.0	0.00e+00	0	38	0	0	56	4500
2026-01-15 09:01:05.29	96.28	30.50	-42.4	-44.3	18.0	0.00e+00	0	38	0	0	56	4460
2026-01-15 09:01:08.27	95.44	30.85	-42.2	-44.1	18.2	0.00e+00	0	39	0	0	56	4355
2026-01-15 09:01:11.27	94.58	31.19	-42.5	-44.4	17.8	0.00e+00	0	38	0	0	56	4537
2026-01-15 09:01:14.26	93.70	31.54	-42.4	-44.4	17.9	0.00e+00	0	38	0	0	56	4515
2026-01-15 09:01:17.24	92.81	31.87	-42.9	-45.0	17.3	0.00e+00	0	38	0	0	56	4834
2026-01-15 09:01:20.24	91.89	32.21	-43.1	-45.2	17.2	0.00e+00	0	38	0	0	57	4685
2026-01-15 09:01:23.24	90.95	32.54	-43.1	-45.1	17.2	0.00e+00	0	39	0	0	57	4650
2026-01-15 09:01:26.23	90.00	32.87	-43.3	-45.3	17.1	0.00e+00	0	38	0	0	57	4753
2026-01-15 09:01:29.22	89.03	33.19	-43.1	-45.2	17.2	0.00e+00	0	38	0	0	57	4703
2026-01-15 09:01:32.21	88.03	33.50	-43.2	-45.3	17.1	0.00e+00	0	39	0	0	57	4733
2026-01-15 09:01:35.21	87.02	33.81	-43.4	-45.6	16.8	0.00e+00	0	38	0	0	57	4892
2026-01-15 09:01:38.20	85.99	34.10	-43.4	-45.6	16.8	0.00e+00	0	39	0	0	57	4926
2026-01-15 09:01:41.19	84.94	34.40	-43.6	-45.9	16.6	0.00e+00	0	38	0	0	57	5043
2026-01-15 09:01:44.19	83.87	34.68	-43.2	-45.4	17.1	0.00e+00	0	38	0	0	57	4762
2026-01-15 09:01:47.18	82.78	34.95	-43.5	-45.7	16.8	0.00e+00	0	39	0	0	57	4947
2026-01-15 09:01:50.17	81.68	35.22	-43.5	-45.7	16.8	0.00e+00	0	38	0	0	57	4927
2026-01-15 09:01:53.17	80.55	35.47	-43.2	-45.3	17.1	0.00e+00	0	38	0	0	57	4729
2026-01-15 09:01:56.17	79.41	35.71	-43.4	-45.5	16.9	0.00e+00	0	39	0	0	57	4841
2026-01-15 09:01:59.17	78.25	35.94	-43.7	-45.9	16.4	0.00e+00	0	38	0	0	58	4796
2026-01-15 09:02:02.16	77.08	36.16	-44.0	-46.3	16.1	0.00e+00	0	38	0	0	58	5000
2026-01-15 09:02:05.16	75.89	36.37	-43.8	-46.0	16.4	0.00e+00	0	38	0	0	59	4554
2026-01-15 09:02:08.16	74.68	36.57	-44.1	-46.3	16.2	0.00e+00	0	38	0	0	59	4739
2026-01-15 09:02:11.15	73.47	36.75	-44.0	-46.2	16.3	0.00e+00	0	38	0	0	59	4691
2026-01-15 09:02:14.15	72.23	36.91	-44.0	-46.2	16.3	0.00e+00	0	39	0	0	59	4688
2026-01-15 09:02:17.15	70.99	37.06	-44.0	-46.1	16.3	0.00e+00	0	38	0	0	59	4649
2026-01-15 09:02:20.14	69.74	37.20	-44.0	-46.2	16.3	0.00e+00	0	39	0	0	59	4686
2026-01-15 09:02:23.13	68.47	37.32	-43.8	-46.0	16.5	0.00e+00	0	39	0	0	59	4565
2026-01-15 09:02:26.13	67.20	37.43	-43.6	-45.7	16.8	0.00e+00	0	38	0	0	59	4421
2026-01-15 09:02:29.11	65.93	37.52	-44.0	-46.2	16.4	0.00e+00	0	38	0	0	59	4654
2026-01-15 09:02:32.10	64.64	37.59	-43.8	-46.0	16.5	0.00e+00	0	38	0	0	59	4582
2026-01-15 09:02:35.09	63.35	37.65	-43.9	-46.1	16.4	0.00e+00	0	39	0	0	59	4629
2026-01-15 09:02:38.07	62.06	37.69	-44.2	-46.5	16.1	0.00e+00	0	39	0	0	59	4847
2026-01-15 09:02:41.06	60.77	37.72	-44.0	-46.2	16.3	0.00e+00	0	39	0	0	59	4676
2026-01-15 09:02:44.05	59.47	37.72	-44.2	-46.6	15.9	0.00e+00	0	38	0	0	59	4874
2026-01-15 09:02:47.03	58.18	37.72	-44.3	-46.6	15.8	0.00e+00	0	38	0	0	59	4905
2026-01-15 09:02:50.02	56.88	37.69	-43.7	-45.9	16.6	0.00e+00	0	38	0	0	59	4519
2026-01-15 09:02:53.01	55.59	37.65	-44.1	-46.4	16.1	0.00e+00	0	39	0	0	59	4800
2026-01-15 09:02:55.99	54.30	37.59	-44.2	-46.5	16.0	0.00e+00	0	39	0	0	59	4867
2026-01-15 09:02:58.98	53.02	37.52	-44.1	-46.4	16.1	0.00e+00	0	38	0	0	59	4780
2026-01-15 09:03:01.97	51.74	37.43	-43.5	-45.6	16.9	0.00e+00	0	39	0	0	59	4355
2026-01-15 09:03:04.96	50.47	37.32	-43.9	-46.0	16.4	0.00e+00	0	38	0	0	59	4595
2026-01-15 09:03:07.94	49.22	37.20	-43.7	-45.9	16.6	0.00e+00	0	39	0	0	59	4506
2026-01-15 09:03:10.94	47.97	37.06	-43.7	-45.9	16.6	0.00e+00	0	39	0	0	59	4497
2026-01-15 09:03:13.93	46.73	36.91	-43.9	-46.1	16.4	0.00e+00	0	38	0	0	59	4634
2026-01-15 09:03:16.91	45.50	36.74	-43.6	-45.8	16.7	0.00e+00	0	38	0	0	59	4442
2026-01-15 09:03:19.89	44.30	36.56	-43.5	-45.6	16.8	0.00e+00	0	38	0	0	59	4382
2026-01-15 09:03:22.89	43.09	36.37	-43.9	-46.1	16.4	0.00e+00	0	39	0	0	59	4618
2026-01-15 09:03:25.88	41.91	36.16	-44.1	-46.3	16.2	0.00e+00	0	39	0	0	59	4745
2026-01-15 09:03:28.86	40.74	35.94	-43.5	-45.6	16.7	0.00e+00	0	39	0	0	59	4377
2026-01-15 09:03:31.85	39.59	35.71	-43.2	-45.3	17.1	0.00e+00	0	39	0	0	58	4444
2026-01-15 09:03:34.84	38.45	35.47	-43.8	-45.9	16.6	0.00e+00	0	39	0	0	58	4798
2026-01-15 09:03:37.83	37.33	35.22	-43.6	-45.7	16.7	0.00e+00	0	39	0	0	58	4692
2026-01-15 09:03:40.82	36.23	34.96	-43.2	-45.3	17.1	0.00e+00	0	38	0	0	58	4443
2026-01-15 09:03:43.81	35.15	34.68	-43.2	-45.3	17.1	0.00e+00	0	38	0	0	57	4741
2026-01-15 09:03:46.80	34.09	34.40	-43.3	-45.4	17.1	0.00e+00	0	38	0	0	57	4768
2026-01-15 09:03:49.80	33.04	34.11	-43.4	-45.5	16.9	0.00e+00	0	38	0	0	57	4840
2026-01-15 09:03:52.79	32.01	33.81	-43.6	-45.8	16.7	0.00e+00	0	39	0	0	58	4711
2026-01-15 09:03:55.78	31.00	33.51	-42.7	-44.7	17.8	0.00e+00	0	38	0	0	57	4394
2026-01-15 09:03:58.76	30.02	33.20	-43.2	-45.3	17.1	0.00e+00	0	39	0	0	57	4741
2026-01-15 09:04:01.75	29.05	32.88	-43.9	-46.1	16.3	0.00e+00	0	39	0	0	58	4911
2026-01-15 09:04:04.74	28.10	32.56	-42.8	-44.8	17.6	0.00e+00	0	39	0	0	57	4462
2026-01-15 09:04:07.72	27.17	32.23	-42.5	-44.5	17.9	0.00e+00	0	39	0	0	57	4296
2026-01-15 09:04:10.70	26.26	31.90	-42.2	-44.2	18.0	0.00e+00	0	39	0	0	56	4405
2026-01-15 09:04:13.69	25.37	31.56	-41.6	-43.5	18.5	0.00e+00	0	39	0	0	55	4307
2026-01-15 09:04:16.67	24.49	31.22	-42.3	-44.3	17.8	0.00e+00	0	39	0	0	55	4721
2026-01-15 09:04:19.67	23.63	30.87	-42.9	-44.9	17.3	0.00e+00	0	39	0	0	56	4808
2026-01-15 09:04:22.66	22.80	30.52	-42.8	-44.8	17.5	0.00e+00	0	39	0	0	56	4750
2026-01-15 09:04:25.64	21.98	30.17	-43.0	-45.0	17.4	0.00e+00	0	39	0	0	56	4866
2026-01-15 09:04:28.64	21.17	29.82	-42.6	-44.6	17.8	0.00e+00	0	39	0	0	56	4613
2026-01-15 09:04:31.62	20.39	29.47	-42.5	-44.5	17.9	0.00e+00	0	38	0	0	56	4566
2026-01-15 09:04:34.62	19.62	29.11	-42.7	-44.7	17.7	0.00e+00	0	39	0	0	56	4681
2026-01-15 09:04:37.60	18.88	28.76	-42.7	-44.7	17.6	0.00e+00	0	38	0	0	56	4691
2026-01-15 09:04:40.60	18.14	28.40	-42.4	-44.4	18.0	0.00e+00	0	39	0	0	56	4505
2026-01-15 09:04:43.59	17.42	28.04	-42.4	-44.4	17.9	0.00e+00	0	39	0	0	56	4496
2026-01-15 09:04:46.58	16.72	27.68	-42.3	-44.3	18.0	0.00e+00	0	39	0	0	56	4463
2026-01-15 09:04:49.57	16.04	27.32	-42.0	-43.9	18.3	0.00e+00	0	39	0	0	56	4272
2026-01-15 09:04:52.55	15.37	26.96	-41.9	-43.8	18.3	0.00e+00	0	39	0	0	55	4454
2026-01-15 09:04:55.54	14.72	26.61	-42.4	-44.3	17.8	0.00e+00	0	38	0	0	55	4749
2026-01-15 09:04:58.53	14.08	26.25	-42.2	-44.1	18.0	0.00e+00	0	38	0	0	55	4637
2026-01-15 09:05:01.52	13.45	25.89	-42.0	-43.9	18.2	0.00e+00	0	39	0	0	55	4523
2026-01-15 09:05:04.51	12.84	25.54	-42.2	-44.2	18.0	0.00e+00	0	38	0	0	55	4669
2026-01-15 09:05:07.50	12.24	25.18	-42.7	-44.7	17.5	0.00e+00	0	38	0	0	55	4979
2026-01-15 09:05:10.48	11.66	24.83	-43.1	-45.2	17.2	0.00e+00	0	38	0	0	56	4956
2026-01-15 09:05:13.46	11.09	24.48	-42.9	-44.9	17.5	0.00e+00	0	39	0	0	56	4793
2026-01-15 09:05:16.44	10.53	24.14	-42.6	-44.5	17.8	0.00e+00	0	38	0	0	56	4572
2026-01-15 09:05:19.43	9.99	23.79	-42.4	-44.3	18.0	0.00e+00	0	38	0	0	56	4473
2026-01-15 09:05:22.41	9.46	23.44	-42.4	-44.3	18.0	0.00e+00	0	39	0	0	56	4471
2026-01-15 09:05:25.39	8.94	23.10	-42.4	-44.3	17.9	0.00e+00	0	38	0	0	56	4486
2026-01-15 09:05:28.38	8.43	22.76	-42.2	-44.2	18.1	0.00e+00	0	39	0	0	56	4409
2026-01-15 09:05:31.36	7.93	22.42	-42.3	-44.3	18.0	0.00e+00	0	38	0	0	56	4467
2026-01-15 09:05:34.34	7.44	22.08	-42.5	-44.4	17.9	0.00e+00	0	39	0	0	56	4539
2026-01-15 09:05:37.34	6.96	21.75	-42.4	-44.4	17.9	0.00e+00	0	39	0	0	56	4501
2026-01-15 09:05:40.32	6.50	21.41	-42.2	-44.2	18.0	0.00e+00	0	39	0	0	56	4409
2026-01-15 09:05:43.30	6.04	21.09	-42.2	-44.3	17.9	0.00e+00	0	39	0	0	56	4448
2026-01-15 09:05:46.29	5.59	20.76	-42.4	-44.5	17.7	0.00e+00	0	39	0	0	56	4561
2026-01-15 09:05:49.28	5.16	20.43	-42.6	-44.7	17.5	0.00e+00	0	39	0	0	56	4699
2026-01-15 09:05:52.26	4.73	20.11	-42.6	-44.7	17.5	0.00e+00	0	39	0	0	56	4658
2026-01-15 09:05:55.25	4.31	19.79	-42.7	-44.7	17.4	0.00e+00	0	39	0	0	56	4700
2026-01-15 09:05:58.23	3.90	19.47	-42.6	-44.6	17.6	0.00e+00	0	38	0	0	56	4641
2026-01-15 09:06:01.23	3.50	19.15	-42.8	-44.9	17.4	0.00e+00	0	38	0	0	56	4767
2026-01-15 09:06:04.23	3.10	18.84	-42.8	-44.9	17.4	0.00e+00	0	38	0	0	56	4806
2026-01-15 09:06:07.22	2.72	18.53	-42.8	-44.9	17.4	0.00e+00	0	39	0	0	56	4772
2026-01-15 09:06:10.20	2.34	18.22	-42.6	-44.7	17.6	0.00e+00	0	39	0	0	56	4665
2026-01-15 09:06:13.19	1.97	17.92	-42.7	-44.9	17.5	0.00e+00	0	39	0	0	56	4760
2026-01-15 09:06:16.18	1.61	17.61	-42.6	-44.8	17.6	0.00e+00	0	38	0	0	56	4707
2026-01-15 09:06:19.17	1.26	17.31	-42.7	-44.9	17.4	0.00e+00	0	39	0	0	56	4806
2026-01-15 09:06:22.17	0.91	17.01	-42.8	-45.0	17.4	0.00e+00	0	39	0	0	56	4841
2026-01-15 09:06:25.15	0.57	16.72	-43.0	-45.3	17.1	0.00e+00	0	39	0	0	56	4992
2026-01-15 09:06:28.14	0.24	16.43	-43.1	-45.3	17.0	0.00e+00	0	39	0	0	56	5022
2026-01-15 09:06:31.12	359.91	16.14	-43.1	-45.3	17.0	0.00e+00	0	39	0	0	56	5003
2026-01-15 09:06:34.10	359.59	15.85	-42.6	-44.7	17.5	0.00e+00	0	39	0	0	56	4666
2026-01-15 09:06:37.10	359.28	15.56	-42.3	-44.4	17.8	0.00e+00	0	39	0	0	56	4516
2026-01-15 09:06:40.08	358.97	15.28	-42.4	-44.6	17.7	0.00e+00	0	39	0	0	56	4612
2026-01-15 09:06:43.07	358.67	15.00	-42.7	-44.8	17.5	0.00e+00	0	39	0	0	56	4740
2026-01-15 09:06:46.06	358.37	14.72	-42.9	-45.1	17.3	0.00e+00	0	38	0	0	56	4874
2026-01-15 09:06:49.04	358.08	14.45	-43.0	-45.2	17.1	0.00e+00	0	39	0	0	56	4982
2026-01-15 09:06:52.03	357.80	14.17	-43.1	-45.3	17.0	0.00e+00	0	39	0	0	57	4741
2026-01-15 09:06:55.02	357.52	13.90	-43.1	-45.3	17.0	0.00e+00	0	39	0	0	57	4715
2026-01-15 09:06:58.01	357.24	13.63	-43.1	-45.2	17.1	0.00e+00	0	39	0	0	57	4653
2026-01-15 09:07:01.00	356.97	13.37	-43.1	-45.3	17.0	0.00e+00	0	39	0	0	57	4716
2026-01-15 09:07:04.00	356.71	13.10	-43.0	-45.2	17.1	0.00e+00	0	39	0	0	57	4652
2026-01-15 09:07:06.98	356.45	12.84	-42.9	-45.2	17.1	0.00e+00	0	39	0	0	57	4672
2026-01-15 09:07:09.97	356.19	12.58	-42.8	-45.3	17.0	0.00e+00	0	38	0	0	57	4729
2026-01-15 09:07:12.96	355.94	12.32	-42.8	-45.5	16.8	0.00e+00	0	39	0	0	57	4845
2026-01-15 09:07:15.95	355.70	12.07	-42.9	-45.6	16.7	0.00e+00	0	38	0	0	57	4926
2026-01-15 09:07:18.94	355.46	11.81	-43.2	-45.9	16.5	0.00e+00	0	38	0	0	57	5056
2026-01-15 09:07:21.94	355.22	11.56	-43.6	-46.1	16.3	0.00e+00	0	38	0	0	57	5211
2026-01-15 09:07:24.93	354.99	11.31	-43.7	-46.3	16.2	0.00e+00	0	38	0	0	58	4992
2026-01-15 09:07:27.93	354.76	11.06	-43.7	-46.5	16.0	0.00e+00	0	39	0	0	58	5116
2026-01-15 09:07:30.92	354.53	10.82	-43.8	-46.8	15.7	0.00e+00	0	39	0	0	58	5282
2026-01-15 09:07:33.91	354.31	10.57	-43.9	-46.7	15.8	0.00e+00	0	39	0	0	58	5249
2026-01-15 09:07:36.90	354.10	10.33	-44.0	-46.9	15.6	0.00e+00	0	39	0	0	58	5366
2026-01-15 09:07:39.88	353.88	10.09	-43.8	-46.9	15.6	0.00e+00	0	39	0	0	58	5365
2026-01-15 09:07:42.87	353.67	9.86	-43.5	-47.0	15.5	0.00e+00	0	38	0	0	58	5429
2026-01-15 09:07:45.86	353.47	9.62	-43.4	-47.1	15.4	0.00e+00	0	38	0	0	58	5496
2026-01-15 09:07:48.86	353.26	9.39	-43.7	-47.3	15.2	0.00e+00	0	39	0	0	58	5621
2026-01-15 09:07:51.85	353.07	9.15	-44.2	-47.4	15.2	0.00e+00	0	39	0	0	59	5356
2026-01-15 09:07:54.83	352.87	8.93	-49.0	-63.8	3.8	1.49e+00	0	39	104	0	69	19939
2026-01-15 09:07:57.83	352.68	8.70	-51.0	-64.4	3.8	1.49e+00	0	39	104	0	72	17912
2026-01-15 09:08:00.82	352.49	8.47	-51.3	-64.5	3.8	1.49e+00	0	39	104	0	73	17183
2026-01-15 09:08:03.81	352.30	8.24	-51.0	-64.5	3.8	1.49e+00	0	39	104	0	73	17249
2026-01-15 09:08:06.81	352.12	8.02	-51.6	-64.6	3.8	1.49e+00	0	39	104	0	73	17338
2026-01-15 09:08:09.80	351.94	7.80	-51.6	-64.6	3.8	1.49e+00	0	38	104	0	73	17458
2026-01-15 09:08:12.78	351.76	7.58	-51.6	-64.7	3.8	1.49e+00	0	39	104	0	73	17525
2026-01-15 09:08:15.76	351.59	7.36	-51.7	-64.7	3.8	1.49e+00	0	39	104	0	74	16591
2026-01-15 09:08:18.75	351.41	7.15	-51.6	-64.7	3.8	1.49e+00	0	39	104	0	74	16562
2026-01-15 09:08:21.75	351.24	6.93	-51.5	-64.7	3.8	1.49e+00	0	39	104	0	74	16602
2026-01-15 09:08:24.74	351.08	6.72	-51.5	-64.7	3.8	1.49e+00	0	39	104	0	74	16547
2026-01-15 09:08:27.73	350.91	6.50	-51.5	-64.7	3.8	1.49e+00	0	39	104	0	74	16587
2026-01-15 09:08:30.72	350.75	6.29	-51.5	-64.7	3.8	1.49e+00	0	39	104	0	74	16572
2026-01-15 09:08:33.71	350.59	6.08	-51.5	-64.7	3.8	1.49e+00	0	39	104	0	74	16537
2026-01-15 09:08:36.71	350.44	5.88	-51.5	-64.7	3.8	1.49e+00	0	39	104	0	74	16620
2026-01-15 09:08:39.71	350.28	5.67	-51.5	-64.7	3.8	1.49e+00	0	39	104	0	74	16609
2026-01-15 09:08:42.70	350.13	5.46	-51.5	-64.7	3.8	1.49e+00	0	39	104	0	74	16629
2026-01-15 09:08:45.68	349.98	5.26	-51.5	-64.8	3.8	1.49e+00	0	39	104	0	74	16704
2026-01-15 09:08:48.67	349.83	5.06	-51.6	-64.8	3.8	1.49e+00	0	39	104	0	74	16742

#Closed at: 2026-01-15 09:08:50
#Recorded file [0 MB]: D:/Data/31040_260115_115641.dat