passes_logs/2026/01/15/T1/T1__20260115_092555_SUOMI_NPP_rec.log

#Pass ID: 20260115_092555_SUOMI NPP
#Satellite: SUOMI NPP
#Configuration: NPP
#almurnet v.1.7.20251203
#Start time: 2026-01-15 09:25:55

#Version: 2.0.20230620
#Station: T1
#Location: 37.570604 lon 55.790049 lat
#TLE: 1 37849U 11061A   26014.61059675  .00000037  00000+0  38639-4 0  9994
#TLE: 2 37849  98.7810 316.6625 0002460  64.3781 295.7649 14.19525105736658

#Time	Az	El	Level	Level2	SNR	BER	BlckErr	Temp	State	Recorded	gain1	gain2
2026-01-15 09:25:55.64	142.41	5.04	-51.7	-66.9	3.8	1.49e+00	0	35	0	0	75	20112
2026-01-15 09:25:59.61	142.29	5.32	-51.7	-66.5	3.8	1.49e+00	0	36	104	0	75	19389
2026-01-15 09:26:03.59	142.17	5.61	-51.6	-66.0	3.8	1.49e+00	0	36	104	0	75	18096
2026-01-15 09:26:07.57	142.05	5.90	-51.6	-64.8	3.8	1.49e+00	0	36	104	0	75	15914
2026-01-15 09:26:11.54	141.93	6.19	-51.5	-64.6	4.0	1.48e+00	0	36	104	0	75	15420
2026-01-15 09:26:15.52	141.80	6.48	-51.6	-65.4	3.8	1.49e+00	0	36	104	0	75	16946
2026-01-15 09:26:19.49	141.67	6.78	-51.5	-64.7	3.8	1.49e+00	0	37	104	0	75	15751
2026-01-15 09:26:23.47	141.54	7.08	-51.3	-61.7	4.9	9.35e-01	0	37	0	2097152	74	11691
2026-01-15 09:26:27.45	141.40	7.39	-50.3	-57.1	8.5	7.82e-02	0	37	0	9437184	72	7740
2026-01-15 09:26:31.42	141.26	7.69	-48.7	-53.0	12.7	2.04e-04	0	37	0	16777216	69	5738
2026-01-15 09:26:35.40	141.12	8.01	-47.3	-50.7	14.8	0.00e+00	0	37	0	24117248	66	5247
2026-01-15 09:26:39.37	140.97	8.32	-47.9	-51.7	13.8	3.00e-06	0	37	0	32505856	66	5904
2026-01-15 09:26:43.35	140.82	8.64	-50.1	-56.3	9.3	9.39e-03	0	37	0	39845888	70	7954
2026-01-15 09:26:47.32	140.67	8.96	-51.6	-64.9	3.8	1.45e+00	0	37	104	45088768	73	17986
2026-01-15 09:26:51.30	140.51	9.29	-51.6	-66.8	3.8	1.49e+00	0	37	104	46137344	74	21018
2026-01-15 09:26:55.27	140.35	9.62	-50.2	-56.4	9.2	1.96e-02	0	37	0	48234496	72	7196
2026-01-15 09:26:59.25	140.19	9.96	-48.5	-52.5	13.3	7.01e-05	0	37	0	55574528	69	5431
2026-01-15 09:27:03.22	140.02	10.29	-46.8	-49.7	15.9	0.00e+00	0	38	0	62914560	65	4973
2026-01-15 09:27:07.20	139.85	10.64	-47.2	-50.5	15.2	0.00e+00	0	38	0	70254592	65	5437
2026-01-15 09:27:11.17	139.67	10.99	-48.1	-52.0	13.8	3.80e-06	0	38	0	77594624	66	6118
2026-01-15 09:27:15.16	139.49	11.34	-47.1	-50.3	15.4	0.00e+00	0	38	0	84934656	66	5011
2026-01-15 09:27:19.13	139.31	11.70	-46.0	-48.6	17.0	0.00e+00	0	38	0	93323264	64	4640
2026-01-15 09:27:23.10	139.11	12.06	-46.7	-49.7	16.0	0.00e+00	0	38	0	100663296	64	5256
2026-01-15 09:27:27.08	138.92	12.43	-47.7	-51.3	14.5	0.00e+00	0	38	0	108003328	66	5648
2026-01-15 09:27:31.05	138.72	12.81	-46.4	-49.2	16.5	0.00e+00	0	38	0	115343360	64	4937
2026-01-15 09:27:35.02	138.51	13.18	-45.7	-48.2	17.5	0.00e+00	0	38	0	122683392	63	4696
2026-01-15 09:27:38.99	138.30	13.57	-46.8	-49.8	15.9	0.00e+00	0	38	0	130023424	64	5331
2026-01-15 09:27:42.96	138.08	13.96	-47.0	-50.2	15.6	0.00e+00	0	38	0	137363456	65	5258
2026-01-15 09:27:46.94	137.86	14.36	-46.0	-48.6	17.0	0.00e+00	0	38	0	144703488	64	4649
2026-01-15 09:27:50.91	137.63	14.76	-46.6	-49.5	16.4	0.00e+00	0	38	0	152043520	63	5428
2026-01-15 09:27:54.88	137.39	15.17	-47.1	-50.3	15.5	0.00e+00	0	38	0	159383552	65	5340
2026-01-15 09:27:58.85	137.15	15.58	-46.3	-49.1	16.6	0.00e+00	0	38	0	167772160	64	4920
2026-01-15 09:28:02.83	136.89	16.00	-46.5	-49.4	16.4	0.00e+00	0	38	0	175112192	64	5057
2026-01-15 09:28:06.80	136.64	16.43	-46.9	-49.9	16.0	0.00e+00	0	38	0	182452224	64	5368
2026-01-15 09:28:10.78	136.37	16.87	-46.4	-49.2	16.6	0.00e+00	0	38	0	189792256	64	4952
2026-01-15 09:28:14.75	136.09	17.31	-46.9	-49.9	16.0	0.00e+00	0	38	0	197132288	64	5344
2026-01-15 09:28:18.72	135.81	17.76	-47.0	-50.1	15.8	0.00e+00	0	38	0	204472320	65	5171
2026-01-15 09:28:22.70	135.52	18.22	-46.2	-48.8	17.0	0.00e+00	0	38	0	211812352	64	4751
2026-01-15 09:28:26.67	135.22	18.69	-46.5	-49.3	16.5	0.00e+00	0	38	0	219152384	64	5032
2026-01-15 09:28:30.64	134.91	19.16	-46.6	-49.4	16.4	0.00e+00	0	38	0	226492416	64	5083
2026-01-15 09:28:34.62	134.58	19.64	-46.5	-49.3	16.5	0.00e+00	0	38	0	234881024	64	5006
2026-01-15 09:28:38.59	134.25	20.13	-47.3	-50.7	15.3	0.00e+00	0	38	0	242221056	65	5538
2026-01-15 09:28:42.57	133.91	20.63	-46.8	-49.8	16.1	0.00e+00	0	38	0	249561088	65	4988
2026-01-15 09:28:46.54	133.55	21.14	-46.5	-49.4	16.5	0.00e+00	0	38	0	256901120	64	5048
2026-01-15 09:28:50.52	133.19	21.66	-47.3	-50.6	15.4	0.00e+00	0	38	0	264241152	65	5491
2026-01-15 09:28:54.49	132.81	22.19	-46.7	-49.6	16.3	0.00e+00	0	38	0	271581184	65	4919
2026-01-15 09:28:58.47	132.41	22.73	-46.8	-49.8	16.1	0.00e+00	0	38	0	278921216	65	5003
2026-01-15 09:29:02.44	132.00	23.27	-47.1	-50.1	15.8	0.00e+00	0	38	0	286261248	65	5175
2026-01-15 09:29:06.41	131.58	23.83	-47.6	-50.8	15.2	0.00e+00	0	38	0	293601280	65	5643
2026-01-15 09:29:10.39	131.14	24.40	-47.5	-50.7	15.3	0.00e+00	0	38	0	300941312	66	5248
2026-01-15 09:29:14.36	130.69	24.97	-47.4	-50.6	15.5	0.00e+00	0	38	0	309329920	66	5161
2026-01-15 09:29:18.34	130.21	25.56	-47.7	-51.1	15.0	0.00e+00	0	38	0	316669952	66	5466
2026-01-15 09:29:22.31	129.72	26.16	-47.9	-51.4	14.7	0.00e+00	0	38	0	324009984	66	5682
2026-01-15 09:29:26.29	129.21	26.78	-47.5	-50.8	15.3	0.00e+00	0	38	0	331350016	67	4994
2026-01-15 09:29:30.26	128.68	27.40	-46.9	-49.9	16.1	0.00e+00	0	38	0	338690048	65	5055
2026-01-15 09:29:34.23	128.12	28.03	-47.2	-50.4	15.8	0.00e+00	0	38	0	346030080	65	5342
2026-01-15 09:29:38.21	127.55	28.68	-47.3	-50.4	15.6	0.00e+00	0	38	0	353370112	65	5341
2026-01-15 09:29:42.18	126.95	29.33	-47.2	-50.4	15.7	0.00e+00	0	38	0	360710144	66	5046
2026-01-15 09:29:46.16	126.32	30.00	-47.8	-51.1	15.1	7.00e-07	0	38	0	368050176	66	5466
2026-01-15 09:29:50.14	125.67	30.69	-48.0	-51.4	14.7	0.00e+00	0	38	0	376438784	67	5373
2026-01-15 09:29:54.11	124.98	31.38	-48.4	-52.1	14.0	2.20e-06	0	38	0	383778816	67	5837
2026-01-15 09:29:58.09	124.27	32.08	-49.0	-53.0	13.4	9.90e-06	0	38	0	391118848	68	6098
2026-01-15 09:30:02.06	123.53	32.80	-48.8	-52.6	13.7	1.22e-05	0	38	0	398458880	68	5825
2026-01-15 09:30:06.04	122.75	33.53	-49.3	-53.7	12.7	1.19e-04	0	38	0	405798912	69	6212
2026-01-15 09:30:10.01	121.93	34.27	-48.3	-51.8	14.5	7.00e-07	0	38	0	413138944	68	5316
2026-01-15 09:30:13.99	121.08	35.02	-48.3	-51.8	14.5	1.52e-05	0	38	0	420478976	68	5298
2026-01-15 09:30:17.95	120.19	35.78	-48.7	-52.5	13.8	7.00e-07	0	38	0	427819008	68	5782
2026-01-15 09:30:21.93	119.25	36.55	-48.0	-51.2	15.0	7.00e-07	0	38	0	435159040	68	4979
2026-01-15 09:30:25.91	118.26	37.33	-48.5	-52.2	14.1	2.20e-06	0	38	0	443547648	68	5550
2026-01-15 09:30:29.88	117.23	38.11	-49.0	-53.0	13.5	3.80e-06	0	38	0	450887680	68	6078
2026-01-15 09:30:33.86	116.14	38.91	-48.4	-52.0	14.2	3.00e-06	0	38	0	458227712	68	5460
2026-01-15 09:30:37.83	115.00	39.71	-48.5	-52.2	14.1	4.50e-06	0	38	0	465567744	69	5235
2026-01-15 09:30:41.80	113.81	40.52	-47.5	-50.5	15.6	0.00e+00	0	38	0	472907776	67	4869
2026-01-15 09:30:45.78	112.55	41.33	-48.0	-51.3	14.8	0.00e+00	0	38	0	480247808	66	5640
2026-01-15 09:30:49.75	111.22	42.14	-49.6	-54.0	12.4	2.07e-04	0	38	0	487587840	70	6119
2026-01-15 09:30:53.73	109.83	42.95	-49.0	-52.8	13.4	1.44e-05	0	38	0	494927872	69	5614
2026-01-15 09:30:57.70	108.36	43.76	-50.0	-55.0	11.5	8.70e-04	0	38	0	502267904	70	6871
2026-01-15 09:31:01.68	106.82	44.56	-49.9	-54.7	11.5	7.50e-04	0	38	0	509607936	71	6242
2026-01-15 09:31:05.65	105.20	45.35	-49.9	-54.8	11.6	7.64e-04	0	38	0	517996544	71	6318
2026-01-15 09:31:09.62	103.50	46.13	-49.6	-54.2	12.0	2.01e-04	0	38	0	525336576	70	6265
2026-01-15 09:31:13.60	101.71	46.90	-46.5	-49.3	16.7	0.00e+00	0	38	0	532676608	64	5033
2026-01-15 09:31:17.57	99.83	47.65	-48.0	-51.7	14.3	0.00e+00	0	38	0	540016640	66	5920
2026-01-15 09:31:21.54	97.86	48.38	-47.0	-50.1	15.8	0.00e+00	0	38	0	547356672	65	5182
2026-01-15 09:31:25.51	95.80	49.07	-46.7	-49.7	16.2	0.00e+00	0	38	0	554696704	65	4961
2026-01-15 09:31:29.49	93.63	49.74	-46.6	-49.7	16.2	0.00e+00	0	38	0	562036736	64	5243
2026-01-15 09:31:33.46	91.38	50.37	-46.6	-49.7	16.3	0.00e+00	0	38	0	569376768	64	5259
2026-01-15 09:31:37.44	89.03	50.97	-47.6	-51.5	14.4	7.00e-07	0	38	0	576716800	65	6078
2026-01-15 09:31:41.41	86.60	51.51	-48.0	-52.2	13.8	4.65e-05	0	38	0	585105408	67	5905
2026-01-15 09:31:45.38	84.08	52.01	-47.6	-51.7	14.4	7.00e-07	0	38	0	592445440	66	5900
2026-01-15 09:31:49.36	81.47	52.45	-47.3	-51.1	14.8	1.50e-06	0	38	0	599785472	66	5486
2026-01-15 09:31:53.32	78.80	52.82	-45.3	-48.0	17.8	0.00e+00	0	38	0	607125504	62	4841
2026-01-15 09:31:57.30	76.06	53.14	-44.2	-46.5	19.0	0.00e+00	0	38	0	614465536	59	4856
2026-01-15 09:32:01.27	73.26	53.39	-45.0	-47.7	18.0	0.00e+00	0	38	0	621805568	61	4959
2026-01-15 09:32:05.25	70.42	53.57	-44.5	-47.0	18.6	0.00e+00	0	38	0	629145600	61	4583
2026-01-15 09:32:09.23	67.55	53.68	-46.5	-49.8	16.2	0.00e+00	0	38	0	636485632	63	5607
2026-01-15 09:32:13.20	64.68	53.71	-45.6	-48.3	17.6	0.00e+00	0	38	0	643825664	63	4737
2026-01-15 09:32:17.18	61.80	53.68	-45.9	-48.8	17.1	0.00e+00	0	38	0	651165696	63	5002
2026-01-15 09:32:21.15	58.94	53.56	-45.7	-48.6	17.3	0.00e+00	0	38	0	659554304	62	5170
2026-01-15 09:32:25.12	56.11	53.38	-44.5	-47.0	18.7	0.00e+00	0	38	0	666894336	61	4575
2026-01-15 09:32:29.10	53.31	53.13	-43.8	-46.1	19.4	0.00e+00	0	38	0	674234368	59	4627
2026-01-15 09:32:33.08	50.57	52.81	-44.0	-46.2	19.3	0.00e+00	0	38	0	681574400	59	4689
2026-01-15 09:32:37.05	47.90	52.43	-44.9	-47.3	18.5	0.00e+00	0	38	0	688914432	61	4747
2026-01-15 09:32:41.03	45.30	51.99	-45.9	-48.6	17.4	0.00e+00	0	38	0	696254464	62	5178
2026-01-15 09:32:45.00	42.79	51.49	-47.1	-50.2	15.8	0.00e+00	0	38	0	703594496	65	5271
2026-01-15 09:32:48.97	40.36	50.94	-47.7	-51.1	15.0	0.00e+00	0	38	0	710934528	66	5522
2026-01-15 09:32:52.95	38.02	50.35	-46.9	-50.0	15.9	0.00e+00	0	38	0	719323136	65	5127
2026-01-15 09:32:56.92	35.78	49.72	-47.5	-50.9	15.1	0.00e+00	0	38	0	726663168	65	5720
2026-01-15 09:33:00.90	33.63	49.05	-46.3	-49.2	16.9	0.00e+00	0	38	0	734003200	64	4951
2026-01-15 09:33:04.87	31.57	48.35	-47.1	-50.4	15.6	0.00e+00	0	38	0	741343232	64	5694
2026-01-15 09:33:08.84	29.61	47.63	-47.0	-50.2	16.0	0.00e+00	0	38	0	748683264	66	4940
2026-01-15 09:33:12.82	27.74	46.88	-49.5	-54.2	12.2	4.80e-05	0	38	0	756023296	69	6622
2026-01-15 09:33:16.80	25.95	46.11	-50.4	-56.5	9.9	1.29e-02	0	38	0	763363328	72	7232
2026-01-15 09:33:20.77	24.26	45.34	-49.1	-53.8	12.6	4.78e-04	0	38	0	770703360	70	5957
2026-01-15 09:33:24.74	22.65	44.54	-47.1	-50.2	15.8	0.00e+00	0	38	0	778043392	66	4946
2026-01-15 09:33:28.72	21.11	43.74	-48.0	-51.5	14.6	0.00e+00	0	38	0	785383424	66	5768
2026-01-15 09:33:32.69	19.66	42.94	-48.7	-52.9	13.4	1.06e-05	0	38	0	792723456	68	6009
2026-01-15 09:33:36.67	18.27	42.13	-48.9	-53.3	12.9	1.40e-04	0	38	0	801112064	69	5977
2026-01-15 09:33:40.64	16.95	41.33	-47.6	-51.0	15.0	0.00e+00	0	38	0	808452096	67	5151
2026-01-15 09:33:44.62	15.70	40.52	-48.9	-53.6	12.7	5.79e-05	0	38	0	815792128	68	6520
2026-01-15 09:33:48.59	14.51	39.72	-48.8	-53.6	12.7	9.38e-05	0	38	0	823132160	68	6500
2026-01-15 09:33:52.57	13.37	38.92	-48.7	-52.9	13.4	3.50e-05	0	38	0	830472192	68	6003
2026-01-15 09:33:56.54	12.30	38.13	-48.4	-52.3	14.1	7.00e-07	0	38	0	837812224	68	5594
2026-01-15 09:34:00.52	11.27	37.34	-48.7	-52.9	13.4	6.10e-06	0	38	0	845152256	68	6012
2026-01-15 09:34:04.49	10.29	36.57	-48.6	-52.7	13.6	3.00e-06	0	38	0	852492288	68	5882
2026-01-15 09:34:08.47	9.36	35.80	-48.6	-52.7	13.6	3.80e-06	0	38	0	860880896	68	5887
2026-01-15 09:34:12.44	8.47	35.05	-49.3	-54.0	12.4	1.62e-04	0	38	0	868220928	69	6462
2026-01-15 09:34:16.42	7.62	34.30	-47.5	-50.9	15.2	7.00e-07	0	38	0	875560960	67	5096
2026-01-15 09:34:20.40	6.81	33.56	-48.4	-52.5	13.6	1.67e-05	0	38	0	882900992	67	6069
2026-01-15 09:34:24.37	6.03	32.84	-48.1	-51.9	14.3	7.00e-07	0	38	0	890241024	67	5684
2026-01-15 09:34:28.34	5.30	32.13	-48.5	-52.5	13.7	2.20e-06	0	38	0	897581056	67	6092
2026-01-15 09:34:32.32	4.59	31.42	-48.7	-52.8	13.5	7.60e-06	0	38	0	904921088	69	5597
2026-01-15 09:34:36.29	3.91	30.74	-47.5	-50.8	15.3	0.00e+00	0	38	0	912261120	66	5317
2026-01-15 09:34:40.26	3.26	30.06	-47.7	-51.1	15.0	0.00e+00	0	38	0	919601152	67	5187
2026-01-15 09:34:44.24	2.64	29.39	-47.8	-51.3	14.9	0.00e+00	0	38	0	926941184	67	5284
2026-01-15 09:34:48.21	2.04	28.74	-46.8	-49.8	16.2	2.28e-05	0	38	0	935329792	65	4999
2026-01-15 09:34:52.18	1.47	28.10	-46.8	-49.8	16.2	0.00e+00	0	38	0	942669824	64	5295
2026-01-15 09:34:56.16	0.92	27.46	-47.5	-50.7	15.4	0.00e+00	0	38	0	950009856	65	5580
2026-01-15 09:35:00.13	0.39	26.85	-48.0	-51.6	14.5	7.00e-07	0	38	0	957349888	66	5847
2026-01-15 09:35:04.11	359.88	26.24	-47.6	-50.9	15.1	7.00e-07	0	38	0	964689920	67	5081
2026-01-15 09:35:08.09	359.40	25.64	-46.9	-50.0	16.0	0.00e+00	0	38	0	972029952	65	5149
2026-01-15 09:35:12.06	358.93	25.05	-47.8	-51.9	14.3	7.00e-07	0	38	0	979369984	66	6033
2026-01-15 09:35:16.03	358.48	24.48	-48.0	-52.3	13.8	6.10e-06	0	38	0	986710016	66	6293
2026-01-15 09:35:20.00	358.04	23.91	-48.5	-52.9	13.2	7.60e-06	0	38	0	994050048	67	6365
2026-01-15 09:35:23.98	357.62	23.36	-48.5	-52.6	13.6	8.30e-06	0	38	0	1002438656	67	6161
2026-01-15 09:35:27.95	357.22	22.82	-47.7	-51.3	14.8	7.00e-07	0	38	0	1009778688	67	5282
2026-01-15 09:35:31.93	356.82	22.28	-47.8	-51.3	14.7	0.00e+00	0	38	0	1017118720	67	5322
2026-01-15 09:35:35.90	356.45	21.76	-47.6	-51.0	15.1	0.00e+00	0	38	0	1024458752	67	5155
2026-01-15 09:35:39.87	356.08	21.24	-47.0	-50.1	15.8	0.00e+00	0	38	0	1031798784	66	4923
2026-01-15 09:35:43.84	355.73	20.73	-47.3	-50.6	15.4	0.00e+00	0	38	0	1039138816	65	5494
2026-01-15 09:35:47.81	355.39	20.24	-48.3	-52.5	13.6	3.00e-06	0	38	0	1046478848	67	6101
2026-01-15 09:35:51.79	355.06	19.75	-48.8	-53.9	12.3	1.81e-04	0	38	0	1053818880	68	6730
2026-01-15 09:35:55.76	354.75	19.27	-47.8	-52.4	13.6	3.12e-05	0	38	0	1061158912	67	6041
2026-01-15 09:35:59.74	354.44	18.79	-47.4	-51.2	14.8	0.00e+00	0	38	0	1068498944	66	5543
2026-01-15 09:36:03.72	354.14	18.33	-46.9	-50.4	15.6	0.00e+00	0	38	0	1076887552	65	5374
2026-01-15 09:36:07.69	353.85	17.87	-46.6	-49.8	16.1	0.00e+00	0	38	0	1084227584	64	5332
2026-01-15 09:36:11.67	353.57	17.42	-46.9	-50.1	15.9	0.00e+00	0	38	0	1091567616	64	5468
2026-01-15 09:36:15.64	353.30	16.98	-47.2	-50.7	15.3	0.00e+00	0	38	0	1098907648	65	5552
2026-01-15 09:36:19.61	353.04	16.55	-47.3	-51.3	14.7	0.00e+00	0	38	0	1106247680	65	5951
2026-01-15 09:36:23.59	352.78	16.12	-47.4	-51.5	14.4	7.00e-07	0	38	0	1113587712	65	6123
2026-01-15 09:36:27.56	352.53	15.70	-47.3	-51.2	14.8	7.00e-07	0	38	0	1120927744	65	5873
2026-01-15 09:36:31.54	352.29	15.29	-47.4	-51.3	14.5	0.00e+00	0	38	0	1128267776	65	5958
2026-01-15 09:36:35.51	352.06	14.88	-47.6	-51.8	14.1	1.50e-06	0	38	0	1135607808	66	5961
2026-01-15 09:36:39.48	351.83	14.48	-48.1	-52.1	13.8	3.00e-06	0	38	0	1143996416	67	5852
2026-01-15 09:36:43.46	351.61	14.08	-47.8	-52.0	13.9	3.00e-06	0	38	0	1151336448	67	5763
2026-01-15 09:36:47.43	351.40	13.70	-47.4	-51.3	14.7	7.00e-07	0	39	0	1158676480	66	5604
2026-01-15 09:36:51.40	351.19	13.31	-46.8	-50.8	15.1	0.00e+00	0	38	0	1166016512	65	5617
2026-01-15 09:36:55.38	350.99	12.93	-46.3	-50.5	15.4	0.00e+00	0	38	0	1173356544	64	5746
2026-01-15 09:36:59.35	350.79	12.56	-46.5	-50.6	15.3	0.00e+00	0	39	0	1180696576	64	5817
2026-01-15 09:37:03.33	350.60	12.19	-46.9	-51.2	14.7	0.00e+00	0	39	0	1188036608	64	6218
2026-01-15 09:37:07.31	350.41	11.83	-47.3	-51.8	14.0	2.20e-06	0	38	0	1195376640	65	6334
2026-01-15 09:37:11.28	350.23	11.48	-47.1	-52.2	13.7	4.50e-06	0	39	0	1202716672	65	6601
2026-01-15 09:37:15.25	350.05	11.12	-46.6	-52.3	13.6	1.50e-06	0	39	0	1211105280	65	6647
2026-01-15 09:37:19.23	349.88	10.78	-46.4	-52.3	13.5	3.00e-06	0	38	0	1218445312	64	7098
2026-01-15 09:37:23.20	349.71	10.43	-46.5	-52.0	13.8	7.60e-06	0	39	0	1225785344	64	6853
2026-01-15 09:37:27.18	349.55	10.09	-46.9	-52.0	13.8	3.00e-06	0	38	0	1233125376	64	6827
2026-01-15 09:37:31.15	349.39	9.76	-47.3	-52.0	13.8	3.00e-06	0	38	0	1240465408	65	6426
2026-01-15 09:37:35.13	349.23	9.43	-47.9	-52.2	13.6	1.22e-05	0	39	0	1247805440	66	6247
2026-01-15 09:37:39.11	349.08	9.10	-48.3	-52.9	12.9	5.03e-05	0	38	0	1255145472	67	6374
2026-01-15 09:37:43.08	348.93	8.78	-51.4	-67.5	3.8	1.49e+00	0	39	104	1259339776	74	22984
2026-01-15 09:37:47.06	348.79	8.46	-52.6	-67.7	3.8	1.49e+00	0	38	104	1259339776	75	22222
2026-01-15 09:37:51.03	348.64	8.15	-52.5	-67.8	3.8	1.49e+00	0	39	104	1259339776	75	22446
2026-01-15 09:37:55.01	348.51	7.84	-52.7	-67.9	3.8	1.49e+00	0	39	104	1259339776	76	21303
2026-01-15 09:37:58.98	348.37	7.53	-52.7	-67.9	3.8	1.49e+00	0	38	104	1259339776	76	21316
2026-01-15 09:38:02.96	348.24	7.23	-52.6	-67.9	3.8	1.49e+00	0	39	104	1259339776	76	21276
2026-01-15 09:38:06.94	348.11	6.93	-52.6	-67.9	3.8	1.49e+00	0	39	104	1259339776	76	21288
2026-01-15 09:38:10.91	347.99	6.63	-52.5	-67.8	3.8	1.49e+00	0	39	104	1259339776	76	21131
2026-01-15 09:38:14.89	347.86	6.34	-52.5	-67.8	3.8	1.49e+00	0	39	104	1259339776	76	21143
2026-01-15 09:38:18.86	347.74	6.05	-52.5	-67.8	3.8	1.49e+00	0	39	104	1259339776	76	21076
2026-01-15 09:38:22.84	347.62	5.76	-52.5	-67.8	3.8	1.49e+00	0	38	104	1259339776	76	21125
2026-01-15 09:38:26.81	347.51	5.48	-52.4	-67.7	3.8	1.49e+00	0	39	104	1259339776	76	21007
2026-01-15 09:38:30.78	347.40	5.20	-52.4	-67.8	3.8	1.49e+00	0	39	104	1259339776	76	21089

#Closed at: 2026-01-15 09:38:34
#Recorded file [1259 MB]: D:/Data/31040_260115_122555.dat