passes_logs/2026/01/15/T1/T1__20260115_103633_NOAA_21_JPSS-2_rec.log

#Pass ID: 20260115_103633_NOAA 21 (JPSS-2)
#Satellite: NOAA 21 (JPSS-2)
#Configuration: NOAA 21
#almurnet v.1.7.20251203
#Start time: 2026-01-15 10:36:34

#Version: 2.0.20230620
#Station: T1
#Location: 37.570604 lon 55.790049 lat
#TLE: 1 54234U 22150A   26014.58979933  .00000039  00000+0  39403-4 0  9998
#TLE: 2 54234  98.7497 315.4945 0000653 294.6373  65.4735 14.19534652164756

#Time	Az	El	Level	Level2	SNR	BER	BlckErr	Temp	State	Recorded	gain1	gain2
2026-01-15 10:36:34.78	181.95	5.12	-49.9	-63.5	3.8	1.49e+00	0	39	0	0	71	17171
2026-01-15 10:36:37.75	182.07	5.33	-49.8	-63.1	3.8	1.49e+00	0	40	104	0	70	17431
2026-01-15 10:36:40.73	182.19	5.54	-49.9	-63.4	3.8	1.49e+00	0	40	104	0	70	17960
2026-01-15 10:36:43.71	182.31	5.75	-49.9	-63.5	3.8	1.49e+00	0	40	104	0	70	18159
2026-01-15 10:36:46.69	182.44	5.96	-49.8	-63.1	3.8	1.49e+00	0	40	104	0	70	17341
2026-01-15 10:36:49.67	182.56	6.18	-49.8	-62.7	3.8	1.49e+00	0	40	104	0	70	16509
2026-01-15 10:36:52.65	182.69	6.39	-49.8	-62.6	3.8	1.49e+00	0	40	104	0	70	16436
2026-01-15 10:36:55.63	182.82	6.61	-49.8	-62.5	3.8	1.49e+00	0	41	104	0	70	16235
2026-01-15 10:36:58.61	182.95	6.83	-49.8	-62.3	3.8	1.49e+00	0	41	104	0	70	15807
2026-01-15 10:37:01.58	183.08	7.05	-49.8	-63.2	3.8	1.49e+00	0	40	104	0	70	17644
2026-01-15 10:37:04.56	183.22	7.28	-49.7	-61.9	3.8	1.49e+00	0	41	104	0	70	15116
2026-01-15 10:37:07.54	183.35	7.50	-48.4	-54.4	7.8	1.03e-01	0	41	0	0	68	7165
2026-01-15 10:37:10.52	183.49	7.73	-46.1	-49.7	12.5	2.23e-04	0	41	0	0	64	5269
2026-01-15 10:37:13.50	183.63	7.96	-44.7	-47.4	14.8	0.00e+00	0	41	0	0	61	4803
2026-01-15 10:37:16.48	183.77	8.19	-44.2	-46.8	15.4	0.00e+00	0	41	0	0	60	4754
2026-01-15 10:37:19.46	183.92	8.42	-44.9	-47.8	14.5	7.00e-07	0	41	0	0	60	5318
2026-01-15 10:37:22.44	184.06	8.66	-46.5	-50.2	12.1	1.85e-04	0	41	0	0	63	5877
2026-01-15 10:37:25.42	184.21	8.90	-47.9	-53.2	9.0	1.99e-02	0	41	0	0	66	6972
2026-01-15 10:37:28.39	184.36	9.13	-48.7	-55.1	7.1	3.21e-01	0	41	0	0	68	7770
2026-01-15 10:37:31.37	184.52	9.38	-47.5	-52.3	10.0	1.86e-04	0	41	0	0	65	6720
2026-01-15 10:37:34.35	184.67	9.62	-46.0	-49.5	12.9	9.76e-05	0	41	0	0	63	5444
2026-01-15 10:37:37.33	184.83	9.87	-46.1	-49.6	12.9	6.79e-05	0	42	0	0	63	5501
2026-01-15 10:37:40.31	184.99	10.11	-45.5	-48.7	13.7	9.10e-06	0	41	0	0	62	5223
2026-01-15 10:37:43.29	185.16	10.37	-45.5	-48.6	13.8	7.00e-07	0	41	0	0	62	5211
2026-01-15 10:37:46.27	185.32	10.62	-45.1	-48.0	14.4	7.00e-07	0	41	0	0	62	4834
2026-01-15 10:37:49.25	185.49	10.87	-44.9	-47.7	14.7	0.00e+00	0	41	0	0	61	4963
2026-01-15 10:37:52.22	185.66	11.13	-44.9	-47.6	14.8	2.20e-06	0	42	0	0	61	4906
2026-01-15 10:37:55.20	185.84	11.39	-44.6	-47.3	15.2	0.00e+00	0	42	0	0	61	4707
2026-01-15 10:37:58.18	186.02	11.66	-44.1	-46.5	15.9	0.00e+00	0	42	0	0	60	4597
2026-01-15 10:38:01.16	186.20	11.92	-43.5	-45.6	16.8	0.00e+00	0	42	0	0	58	4647
2026-01-15 10:38:04.14	186.38	12.19	-43.5	-45.6	16.8	0.00e+00	0	42	0	0	58	4634
2026-01-15 10:38:07.12	186.57	12.46	-43.6	-45.7	16.7	0.00e+00	0	42	0	0	58	4682
2026-01-15 10:38:10.10	186.76	12.74	-43.3	-45.5	17.0	0.00e+00	0	42	0	0	58	4555
2026-01-15 10:38:13.07	186.95	13.01	-43.3	-45.5	17.0	0.00e+00	0	42	0	0	58	4557
2026-01-15 10:38:16.05	187.15	13.29	-43.3	-45.5	16.9	0.00e+00	0	42	0	0	58	4583
2026-01-15 10:38:19.03	187.35	13.57	-43.2	-45.3	17.1	0.00e+00	0	42	0	0	58	4483
2026-01-15 10:38:22.01	187.56	13.86	-43.3	-45.5	16.9	0.00e+00	0	42	0	0	58	4597
2026-01-15 10:38:24.99	187.77	14.15	-43.2	-45.4	17.1	0.00e+00	0	42	0	0	58	4535
2026-01-15 10:38:27.97	187.98	14.44	-43.2	-45.4	17.1	0.00e+00	0	42	0	0	58	4516
2026-01-15 10:38:30.95	188.20	14.74	-43.4	-45.6	16.9	0.00e+00	0	42	0	0	58	4622
2026-01-15 10:38:33.92	188.42	15.03	-43.3	-45.5	17.1	0.00e+00	0	42	0	0	58	4558
2026-01-15 10:38:36.90	188.64	15.33	-43.4	-45.6	16.9	0.00e+00	0	42	0	0	58	4642
2026-01-15 10:38:39.88	188.87	15.64	-43.4	-45.6	17.0	0.00e+00	0	42	0	0	58	4615
2026-01-15 10:38:42.86	189.10	15.95	-43.5	-45.6	17.0	0.00e+00	0	42	0	0	58	4648
2026-01-15 10:38:45.84	189.34	16.26	-43.6	-45.8	16.8	0.00e+00	0	42	0	0	58	4730
2026-01-15 10:38:48.82	189.59	16.58	-43.6	-45.8	16.9	0.00e+00	0	42	0	0	58	4719
2026-01-15 10:38:51.80	189.83	16.89	-43.7	-45.9	16.8	0.00e+00	0	42	0	0	58	4769
2026-01-15 10:38:54.77	190.09	17.22	-43.8	-45.9	16.8	0.00e+00	0	42	0	0	58	4801
2026-01-15 10:38:57.75	190.35	17.54	-43.7	-45.9	16.9	0.00e+00	0	42	0	0	58	4768
2026-01-15 10:39:00.73	190.61	17.87	-43.8	-45.9	16.8	0.00e+00	0	42	0	0	58	4805
2026-01-15 10:39:03.71	190.88	18.21	-43.7	-45.8	17.0	0.00e+00	0	42	0	0	58	4757
2026-01-15 10:39:06.69	191.16	18.55	-43.7	-45.8	17.1	0.00e+00	0	42	0	0	58	4719
2026-01-15 10:39:09.67	191.44	18.89	-43.5	-45.5	17.3	0.00e+00	0	42	0	0	58	4595
2026-01-15 10:39:12.65	191.73	19.24	-43.5	-45.6	17.2	0.00e+00	0	42	0	0	58	4609
2026-01-15 10:39:15.63	192.02	19.59	-43.4	-45.5	17.2	0.00e+00	0	42	0	0	58	4573
2026-01-15 10:39:18.60	192.32	19.94	-43.3	-45.3	17.5	0.00e+00	0	42	0	0	58	4470
2026-01-15 10:39:21.58	192.63	20.30	-43.2	-45.2	17.6	0.00e+00	0	42	0	0	58	4420
2026-01-15 10:39:24.56	192.94	20.66	-43.2	-45.2	17.5	0.00e+00	0	42	0	0	58	4418
2026-01-15 10:39:27.54	193.27	21.03	-42.9	-44.9	17.8	0.00e+00	0	42	0	0	57	4536
2026-01-15 10:39:30.52	193.60	21.41	-43.0	-45.0	17.7	0.00e+00	0	42	0	0	57	4578
2026-01-15 10:39:33.50	193.93	21.78	-42.9	-44.8	17.8	0.00e+00	0	42	0	0	57	4483
2026-01-15 10:39:36.48	194.28	22.17	-42.6	-44.5	18.1	0.00e+00	0	42	0	0	57	4330
2026-01-15 10:39:39.45	194.63	22.55	-42.4	-44.3	18.2	0.00e+00	0	42	0	0	56	4467
2026-01-15 10:39:42.43	194.99	22.94	-42.3	-44.2	18.3	0.00e+00	0	42	0	0	56	4405
2026-01-15 10:39:45.41	195.37	23.34	-42.1	-44.0	18.4	0.00e+00	0	42	0	0	56	4314
2026-01-15 10:39:48.39	195.75	23.74	-42.0	-43.9	18.5	0.00e+00	0	42	0	0	56	4247
2026-01-15 10:39:51.37	196.14	24.15	-42.0	-43.8	18.6	0.00e+00	0	42	0	0	56	4240
2026-01-15 10:39:54.35	196.54	24.56	-41.9	-43.7	18.5	0.00e+00	0	42	0	0	55	4415
2026-01-15 10:39:57.33	196.95	24.98	-41.8	-43.6	18.6	0.00e+00	0	42	0	0	55	4376
2026-01-15 10:40:00.31	197.37	25.40	-41.8	-43.7	18.6	0.00e+00	0	42	0	0	55	4396
2026-01-15 10:40:03.29	197.80	25.83	-42.1	-43.9	18.3	0.00e+00	0	42	0	0	55	4525
2026-01-15 10:40:06.26	198.25	26.26	-42.2	-44.0	18.2	0.00e+00	0	42	0	0	55	4584
2026-01-15 10:40:09.24	198.70	26.69	-42.4	-44.3	17.9	0.00e+00	0	42	0	0	55	4757
2026-01-15 10:40:12.22	199.17	27.14	-42.6	-44.5	17.8	0.00e+00	0	42	0	0	55	4853
2026-01-15 10:40:15.20	199.65	27.58	-42.9	-44.9	17.6	0.00e+00	0	42	0	0	56	4769
2026-01-15 10:40:18.18	200.15	28.04	-43.0	-45.0	17.5	0.00e+00	0	42	0	0	56	4858
2026-01-15 10:40:21.16	200.66	28.50	-43.1	-45.2	17.3	0.00e+00	0	42	0	0	57	4662
2026-01-15 10:40:24.13	201.18	28.96	-43.2	-45.3	17.2	0.00e+00	0	42	0	0	57	4709
2026-01-15 10:40:27.11	201.72	29.43	-43.3	-45.3	17.2	0.00e+00	0	42	0	0	57	4727
2026-01-15 10:40:30.09	202.27	29.90	-43.4	-45.5	17.0	0.00e+00	0	42	0	0	57	4820
2026-01-15 10:40:33.07	202.84	30.38	-43.3	-45.3	17.2	0.00e+00	0	42	0	0	57	4744
2026-01-15 10:40:36.05	203.43	30.86	-43.2	-45.2	17.3	0.00e+00	0	42	0	0	57	4673
2026-01-15 10:40:39.03	204.03	31.35	-43.0	-45.0	17.6	0.00e+00	0	42	0	0	57	4561
2026-01-15 10:40:42.01	204.65	31.84	-42.9	-44.9	17.7	0.00e+00	0	42	0	0	57	4499
2026-01-15 10:40:44.99	205.30	32.34	-42.7	-44.6	17.8	0.00e+00	0	42	0	0	57	4383
2026-01-15 10:40:47.97	205.96	32.84	-42.9	-44.9	17.6	0.00e+00	0	42	0	0	57	4534
2026-01-15 10:40:50.95	206.64	33.35	-43.3	-45.3	17.2	0.00e+00	0	42	0	0	57	4754
2026-01-15 10:40:53.93	207.34	33.86	-43.3	-45.4	17.2	0.00e+00	0	42	0	0	57	4767
2026-01-15 10:40:56.91	208.07	34.37	-43.4	-45.4	17.2	0.00e+00	0	42	0	0	57	4785
2026-01-15 10:40:59.89	208.81	34.89	-43.9	-46.0	16.6	0.00e+00	0	42	0	0	58	4853
2026-01-15 10:41:02.86	209.58	35.41	-44.1	-46.3	16.3	0.00e+00	0	42	0	0	58	5008
2026-01-15 10:41:05.84	210.38	35.93	-43.8	-45.9	16.7	0.00e+00	0	42	0	0	58	4813
2026-01-15 10:41:08.82	211.20	36.46	-44.2	-46.5	16.2	0.00e+00	0	42	0	0	59	4815
2026-01-15 10:41:11.80	212.05	36.98	-44.3	-46.5	16.2	0.00e+00	0	42	0	0	59	4823
2026-01-15 10:41:14.78	212.92	37.51	-44.5	-46.7	15.9	0.00e+00	0	42	0	0	59	4975
2026-01-15 10:41:17.76	213.83	38.04	-44.8	-47.2	15.6	0.00e+00	0	42	0	0	60	4944
2026-01-15 10:41:20.74	214.76	38.57	-44.6	-47.0	15.8	0.00e+00	0	42	0	0	60	4816
2026-01-15 10:41:23.72	215.72	39.10	-44.7	-47.1	15.8	0.00e+00	0	42	0	0	60	4876
2026-01-15 10:41:26.70	216.72	39.63	-44.8	-47.2	15.6	0.00e+00	0	42	0	0	60	4952
2026-01-15 10:41:29.68	217.74	40.15	-44.6	-46.9	15.9	0.00e+00	0	42	0	0	60	4794
2026-01-15 10:41:32.66	218.80	40.68	-44.8	-47.2	15.7	0.00e+00	0	42	0	0	60	4943
2026-01-15 10:41:35.63	219.89	41.19	-45.0	-47.4	15.5	0.00e+00	0	42	0	0	60	5057
2026-01-15 10:41:38.61	221.02	41.71	-45.3	-47.7	15.1	7.00e-07	0	42	0	0	61	4982
2026-01-15 10:41:41.59	222.19	42.22	-45.6	-48.1	14.6	0.00e+00	0	42	0	0	61	5216
2026-01-15 10:41:44.57	223.39	42.72	-45.5	-48.1	14.7	0.00e+00	0	42	0	0	61	5160
2026-01-15 10:41:47.55	224.63	43.22	-45.5	-48.0	14.8	0.00e+00	0	42	0	0	61	5152
2026-01-15 10:41:50.53	225.90	43.71	-44.9	-47.3	15.6	0.00e+00	0	42	0	0	61	4721
2026-01-15 10:41:53.51	227.22	44.18	-45.3	-47.9	15.0	0.00e+00	0	42	0	0	61	5066
2026-01-15 10:41:56.48	228.57	44.65	-45.5	-48.1	14.7	0.00e+00	0	42	0	0	61	5212
2026-01-15 10:41:59.46	229.96	45.10	-45.2	-47.7	15.1	0.00e+00	0	42	0	0	61	4945
2026-01-15 10:42:02.43	231.39	45.54	-45.4	-47.9	14.9	0.00e+00	0	42	0	0	61	5078
2026-01-15 10:42:05.41	232.86	45.96	-45.3	-47.8	15.0	0.00e+00	0	42	0	0	61	5026
2026-01-15 10:42:08.38	234.37	46.37	-45.1	-47.5	15.2	0.00e+00	0	42	0	0	61	4863
2026-01-15 10:42:11.36	235.92	46.76	-44.6	-46.9	15.8	0.00e+00	0	42	0	0	61	4521
2026-01-15 10:42:14.34	237.51	47.13	-44.7	-47.0	15.7	0.00e+00	0	43	0	0	61	4572
2026-01-15 10:42:17.32	239.13	47.48	-44.5	-46.8	15.8	0.00e+00	0	42	0	0	60	4715
2026-01-15 10:42:20.30	240.79	47.81	-44.6	-46.9	15.8	0.00e+00	0	43	0	0	60	4805
2026-01-15 10:42:23.28	242.48	48.11	-44.9	-47.4	15.4	7.00e-07	0	43	0	0	60	5048
2026-01-15 10:42:26.26	244.20	48.39	-44.8	-47.2	15.6	0.00e+00	0	42	0	0	60	4932
2026-01-15 10:42:29.24	245.96	48.64	-45.0	-47.5	15.4	7.00e-07	0	42	0	0	60	5105
2026-01-15 10:42:32.21	247.73	48.86	-44.7	-47.0	15.8	0.00e+00	0	43	0	0	61	4563
2026-01-15 10:42:35.19	249.54	49.06	-44.9	-47.3	15.5	0.00e+00	0	42	0	0	60	5005
2026-01-15 10:42:38.17	251.36	49.22	-44.6	-46.9	15.9	0.00e+00	0	42	0	0	60	4794
2026-01-15 10:42:41.15	253.20	49.36	-44.4	-46.7	16.0	0.00e+00	0	42	0	0	60	4682
2026-01-15 10:42:44.13	255.06	49.46	-44.6	-46.9	15.9	0.00e+00	0	42	0	0	60	4781
2026-01-15 10:42:47.11	256.93	49.54	-44.6	-47.0	15.8	0.00e+00	0	42	0	0	60	4831
2026-01-15 10:42:50.09	258.80	49.58	-44.6	-46.8	15.9	0.00e+00	0	43	0	0	60	4757
2026-01-15 10:42:53.07	260.68	49.59	-44.4	-46.7	16.1	0.00e+00	0	42	0	0	60	4657
2026-01-15 10:42:56.04	262.55	49.57	-44.5	-46.8	16.0	0.00e+00	0	42	0	0	60	4735
2026-01-15 10:42:59.02	264.42	49.51	-44.3	-46.5	16.2	0.00e+00	0	42	0	0	60	4586
2026-01-15 10:43:02.00	266.29	49.42	-44.5	-46.9	15.9	0.00e+00	0	42	0	0	60	4763
2026-01-15 10:43:04.98	268.14	49.31	-44.2	-46.5	16.2	0.00e+00	0	42	0	0	60	4579
2026-01-15 10:43:07.96	269.97	49.16	-44.5	-46.8	15.9	0.00e+00	0	42	0	0	59	4998
2026-01-15 10:43:10.94	271.79	48.98	-44.6	-47.0	15.7	0.00e+00	0	42	0	0	60	4822
2026-01-15 10:43:13.92	273.58	48.77	-44.7	-47.1	15.6	0.00e+00	0	42	0	0	60	4904
2026-01-15 10:43:16.90	275.34	48.54	-45.6	-48.3	14.5	7.00e-07	0	42	0	0	61	5331
2026-01-15 10:43:19.88	277.08	48.27	-44.8	-47.3	15.5	0.00e+00	0	42	0	0	61	4716
2026-01-15 10:43:22.85	278.79	47.99	-44.7	-47.2	15.5	0.00e+00	0	42	0	0	60	4958
2026-01-15 10:43:25.83	280.46	47.68	-44.4	-46.8	15.9	0.00e+00	0	43	0	0	60	4706
2026-01-15 10:43:28.81	282.10	47.34	-44.1	-46.3	16.2	0.00e+00	0	43	0	0	59	4726
2026-01-15 10:43:31.79	283.71	46.98	-44.6	-47.0	15.6	0.00e+00	0	42	0	0	60	4850
2026-01-15 10:43:34.77	285.27	46.61	-44.5	-46.8	15.9	0.00e+00	0	43	0	0	60	4710
2026-01-15 10:43:37.75	286.80	46.21	-44.2	-46.4	16.3	0.00e+00	0	43	0	0	60	4514
2026-01-15 10:43:40.73	288.30	45.80	-44.2	-46.4	16.3	0.00e+00	0	42	0	0	60	4518
2026-01-15 10:43:43.71	289.75	45.37	-43.8	-45.9	16.7	0.00e+00	0	43	0	0	59	4506
2026-01-15 10:43:46.68	291.16	44.93	-44.5	-46.8	15.8	0.00e+00	0	43	0	0	59	5025
2026-01-15 10:43:49.66	292.53	44.47	-44.5	-46.8	15.7	0.00e+00	0	43	0	0	59	5004
2026-01-15 10:43:52.64	293.87	44.00	-44.9	-47.3	15.3	0.00e+00	0	42	0	0	60	4998
2026-01-15 10:43:55.62	295.16	43.52	-45.6	-48.2	14.4	0.00e+00	0	43	0	0	61	5278
2026-01-15 10:43:58.60	296.42	43.03	-45.5	-48.2	14.4	1.50e-06	0	43	0	0	61	5247
2026-01-15 10:44:01.57	297.64	42.54	-45.1	-47.6	15.0	0.00e+00	0	42	0	0	61	4887
2026-01-15 10:44:04.55	298.82	42.03	-45.0	-47.5	15.2	0.00e+00	0	43	0	0	61	4861
2026-01-15 10:44:07.53	299.97	41.52	-44.6	-47.0	15.6	0.00e+00	0	42	0	0	61	4551
2026-01-15 10:44:10.51	301.08	41.01	-44.1	-46.3	16.4	0.00e+00	0	42	0	0	60	4444
2026-01-15 10:44:13.49	302.15	40.49	-44.3	-46.6	16.0	0.00e+00	0	43	0	0	60	4630
2026-01-15 10:44:16.47	303.20	39.97	-44.4	-46.7	15.9	0.00e+00	0	42	0	0	60	4677
2026-01-15 10:44:19.45	304.21	39.45	-44.4	-46.8	15.8	0.00e+00	0	42	0	0	60	4727
2026-01-15 10:44:22.43	305.19	38.92	-45.0	-47.7	15.1	0.00e+00	0	43	0	0	60	5222
2026-01-15 10:44:25.41	306.13	38.39	-44.3	-46.7	16.0	0.00e+00	0	42	0	0	60	4695
2026-01-15 10:44:28.38	307.05	37.87	-43.5	-45.6	16.8	0.00e+00	0	43	0	0	59	4359
2026-01-15 10:44:31.36	307.94	37.34	-43.5	-45.7	16.9	0.00e+00	0	42	0	0	58	4661
2026-01-15 10:44:34.34	308.80	36.82	-43.6	-45.7	16.9	0.00e+00	0	43	0	0	58	4675
2026-01-15 10:44:37.32	309.64	36.30	-43.5	-45.6	17.0	0.00e+00	0	43	0	0	58	4603
2026-01-15 10:44:40.30	310.44	35.78	-43.3	-45.3	17.2	0.00e+00	0	43	0	0	58	4486
2026-01-15 10:44:43.28	311.23	35.26	-43.3	-45.4	17.2	0.00e+00	0	43	0	0	58	4509
2026-01-15 10:44:46.26	311.99	34.74	-43.8	-46.0	16.6	0.00e+00	0	43	0	0	58	4844
2026-01-15 10:44:49.23	312.72	34.23	-43.8	-45.9	16.6	0.00e+00	0	43	0	0	58	4813
2026-01-15 10:44:52.21	313.44	33.72	-43.6	-45.7	16.8	0.00e+00	0	42	0	0	58	4681
2026-01-15 10:44:55.19	314.13	33.22	-43.7	-45.9	16.6	0.00e+00	0	42	0	0	58	4763
2026-01-15 10:44:58.17	314.80	32.72	-43.7	-45.8	16.8	0.00e+00	0	42	0	0	58	4733
2026-01-15 10:45:01.15	315.45	32.22	-43.4	-45.5	17.0	0.00e+00	0	42	0	0	58	4558
2026-01-15 10:45:04.13	316.09	31.73	-43.0	-45.1	17.3	0.00e+00	0	42	0	0	58	4371
2026-01-15 10:45:07.11	316.70	31.24	-42.7	-44.7	17.6	0.00e+00	0	43	0	0	57	4439
2026-01-15 10:45:10.09	317.30	30.76	-42.8	-44.9	17.5	0.00e+00	0	42	0	0	57	4514
2026-01-15 10:45:13.07	317.88	30.28	-42.9	-45.0	17.4	0.00e+00	0	42	0	0	57	4595
2026-01-15 10:45:16.04	318.44	29.80	-42.7	-44.8	17.6	0.00e+00	0	43	0	0	57	4452
2026-01-15 10:45:19.02	318.98	29.34	-42.5	-44.4	17.9	0.00e+00	0	42	0	0	56	4539
2026-01-15 10:45:22.00	319.52	28.87	-42.5	-44.5	17.8	0.00e+00	0	42	0	0	56	4563
2026-01-15 10:45:24.98	320.03	28.41	-42.5	-44.5	17.8	0.00e+00	0	43	0	0	56	4576
2026-01-15 10:45:27.96	320.54	27.96	-42.5	-44.5	17.8	0.00e+00	0	43	0	0	56	4580
2026-01-15 10:45:30.94	321.03	27.51	-42.3	-44.3	18.1	0.00e+00	0	43	0	0	56	4448
2026-01-15 10:45:33.92	321.50	27.07	-42.3	-44.3	18.0	0.00e+00	0	42	0	0	56	4486
2026-01-15 10:45:36.90	321.97	26.63	-42.4	-44.4	17.9	0.00e+00	0	43	0	0	56	4536
2026-01-15 10:45:39.88	322.42	26.20	-42.5	-44.4	17.9	0.00e+00	0	43	0	0	56	4543
2026-01-15 10:45:42.86	322.86	25.77	-42.0	-43.9	18.4	0.00e+00	0	42	0	0	56	4258
2026-01-15 10:45:45.83	323.29	25.35	-41.7	-43.5	18.4	0.00e+00	0	43	0	0	55	4340
2026-01-15 10:45:48.81	323.70	24.93	-41.5	-43.4	18.6	0.00e+00	0	43	0	0	55	4268
2026-01-15 10:45:51.79	324.11	24.52	-41.8	-43.7	18.3	0.00e+00	0	42	0	0	55	4409
2026-01-15 10:45:54.77	324.51	24.12	-41.9	-43.8	18.3	0.00e+00	0	43	0	0	55	4459
2026-01-15 10:45:57.75	324.89	23.71	-41.9	-43.8	18.3	0.00e+00	0	43	0	0	55	4447
2026-01-15 10:46:00.73	325.27	23.32	-41.9	-43.8	18.2	0.00e+00	0	42	0	0	55	4480
2026-01-15 10:46:03.71	325.64	22.92	-42.1	-44.0	17.9	0.00e+00	0	43	0	0	55	4587
2026-01-15 10:46:06.69	326.00	22.54	-42.1	-44.1	17.9	0.00e+00	0	43	0	0	55	4637
2026-01-15 10:46:09.67	326.35	22.15	-42.2	-44.2	17.9	0.00e+00	0	42	0	0	55	4664
2026-01-15 10:46:12.64	326.69	21.78	-42.4	-44.4	17.8	0.00e+00	0	42	0	0	55	4764
2026-01-15 10:46:15.62	327.03	21.40	-42.6	-44.6	17.6	0.00e+00	0	43	0	0	55	4907
2026-01-15 10:46:18.60	327.36	21.03	-42.9	-45.1	17.3	0.00e+00	0	43	0	0	56	4872
2026-01-15 10:46:21.58	327.68	20.67	-42.9	-45.0	17.3	0.00e+00	0	42	0	0	56	4868
2026-01-15 10:46:24.56	327.99	20.31	-42.9	-45.0	17.3	0.00e+00	0	42	0	0	56	4847
2026-01-15 10:46:27.53	328.30	19.95	-42.5	-44.6	17.7	0.00e+00	0	43	0	0	56	4632
2026-01-15 10:46:30.51	328.60	19.60	-42.4	-44.4	17.8	0.00e+00	0	43	0	0	56	4515
2026-01-15 10:46:33.49	328.89	19.26	-42.4	-44.4	17.7	0.00e+00	0	43	0	0	56	4528
2026-01-15 10:46:36.47	329.18	18.91	-42.4	-44.4	17.8	0.00e+00	0	43	0	0	56	4522
2026-01-15 10:46:39.45	329.46	18.57	-42.3	-44.3	17.9	0.00e+00	0	42	0	0	56	4458
2026-01-15 10:46:42.42	329.73	18.24	-42.2	-44.1	18.1	0.00e+00	0	42	0	0	56	4367
2026-01-15 10:46:45.40	330.00	17.91	-42.3	-44.2	18.0	0.00e+00	0	42	0	0	56	4424
2026-01-15 10:46:48.38	330.26	17.58	-42.5	-44.5	17.8	0.00e+00	0	42	0	0	56	4571
2026-01-15 10:46:51.36	330.52	17.26	-42.8	-44.9	17.4	0.00e+00	0	43	0	0	56	4760
2026-01-15 10:46:54.34	330.78	16.94	-43.0	-45.1	17.2	0.00e+00	0	43	0	0	56	4915
2026-01-15 10:46:57.32	331.02	16.62	-43.2	-45.4	16.9	0.00e+00	0	42	0	0	57	4798
2026-01-15 10:47:00.29	331.27	16.31	-43.3	-45.6	16.7	0.00e+00	0	42	0	0	57	4873
2026-01-15 10:47:03.27	331.50	16.00	-43.3	-45.5	16.7	0.00e+00	0	42	0	0	57	4867
2026-01-15 10:47:06.25	331.74	15.70	-43.1	-45.4	16.8	0.00e+00	0	43	0	0	57	4788
2026-01-15 10:47:09.23	331.97	15.39	-42.9	-45.3	16.9	0.00e+00	0	43	0	0	57	4727
2026-01-15 10:47:12.21	332.19	15.10	-43.0	-45.4	16.8	0.00e+00	0	43	0	0	57	4773
2026-01-15 10:47:15.19	332.42	14.80	-43.3	-45.6	16.6	0.00e+00	0	42	0	0	57	4894
2026-01-15 10:47:18.17	332.63	14.51	-43.3	-45.5	16.7	0.00e+00	0	43	0	0	57	4833
2026-01-15 10:47:21.15	332.85	14.22	-43.2	-45.4	16.9	0.00e+00	0	43	0	0	57	4767
2026-01-15 10:47:24.12	333.05	13.93	-43.2	-45.4	16.9	0.00e+00	0	43	0	0	57	4766
2026-01-15 10:47:27.10	333.26	13.65	-43.0	-45.2	17.0	0.00e+00	0	42	0	0	57	4695
2026-01-15 10:47:30.08	333.46	13.37	-43.1	-45.3	16.9	0.00e+00	0	43	0	0	57	4724
2026-01-15 10:47:33.04	333.66	13.10	-43.3	-45.6	16.6	0.00e+00	0	43	0	0	57	4872
2026-01-15 10:47:36.02	333.85	12.82	-43.4	-45.7	16.5	0.00e+00	0	43	0	0	57	4940
2026-01-15 10:47:39.00	334.05	12.55	-43.5	-45.8	16.3	0.00e+00	0	42	0	0	57	5021
2026-01-15 10:47:41.98	334.23	12.28	-43.5	-45.8	16.3	0.00e+00	0	43	0	0	57	5041
2026-01-15 10:47:44.96	334.42	12.01	-43.6	-45.9	16.2	0.00e+00	0	43	0	0	57	5097
2026-01-15 10:47:47.94	334.60	11.75	-43.5	-45.9	16.2	0.00e+00	0	43	0	0	57	5057
2026-01-15 10:47:50.92	334.78	11.49	-43.5	-45.9	16.3	0.00e+00	0	43	0	0	57	5055
2026-01-15 10:47:53.89	334.96	11.23	-43.4	-45.9	16.2	0.00e+00	0	43	0	0	57	5080
2026-01-15 10:47:56.87	335.13	10.98	-43.4	-46.0	16.1	0.00e+00	0	43	0	0	57	5101
2026-01-15 10:47:59.85	335.30	10.72	-43.4	-46.0	16.0	0.00e+00	0	43	0	0	57	5154
2026-01-15 10:48:02.83	335.47	10.47	-43.6	-46.3	15.8	0.00e+00	0	43	0	0	57	5291
2026-01-15 10:48:05.81	335.63	10.22	-43.7	-46.5	15.6	0.00e+00	0	43	0	0	58	5101
2026-01-15 10:48:08.79	335.80	9.98	-43.7	-46.4	15.6	0.00e+00	0	42	0	0	58	5100
2026-01-15 10:48:11.77	335.96	9.73	-43.6	-46.3	15.8	0.00e+00	0	43	0	0	58	4991
2026-01-15 10:48:14.75	336.12	9.49	-43.7	-46.4	15.6	0.00e+00	0	43	0	0	58	5080
2026-01-15 10:48:17.73	336.27	9.25	-43.7	-46.5	15.5	0.00e+00	0	42	0	0	58	5153
2026-01-15 10:48:20.70	336.42	9.02	-45.9	-49.9	12.4	0.00e+00	0	42	0	0	62	6047
2026-01-15 10:48:23.68	336.57	8.78	-50.0	-63.8	3.8	1.49e+00	0	43	104	0	71	17696
2026-01-15 10:48:26.66	336.72	8.55	-50.5	-64.0	3.8	1.49e+00	0	43	104	0	71	18212
2026-01-15 10:48:29.64	336.87	8.32	-50.3	-64.0	3.8	1.49e+00	0	43	104	0	72	17258
2026-01-15 10:48:32.62	337.01	8.09	-50.9	-64.0	3.8	1.49e+00	0	43	104	0	72	17261
2026-01-15 10:48:35.60	337.16	7.86	-51.0	-64.1	3.8	1.49e+00	0	43	104	0	72	17318
2026-01-15 10:48:38.58	337.30	7.63	-51.1	-64.1	3.8	1.49e+00	0	43	104	0	72	17301
2026-01-15 10:48:41.56	337.44	7.41	-51.0	-64.0	3.8	1.49e+00	0	43	104	0	72	17257
2026-01-15 10:48:44.54	337.57	7.19	-50.8	-64.0	3.8	1.49e+00	0	42	104	0	72	17269
2026-01-15 10:48:47.52	337.71	6.97	-50.8	-64.0	3.8	1.49e+00	0	43	104	0	72	17251
2026-01-15 10:48:50.49	337.84	6.75	-50.8	-64.0	3.8	1.49e+00	0	43	104	0	72	17211
2026-01-15 10:48:53.47	337.97	6.53	-50.8	-64.0	3.8	1.49e+00	0	43	104	0	72	17138
2026-01-15 10:48:56.45	338.10	6.32	-50.8	-64.0	3.8	1.49e+00	0	43	104	0	72	17142
2026-01-15 10:48:59.43	338.23	6.10	-50.8	-64.0	3.8	1.49e+00	0	43	104	0	72	17164
2026-01-15 10:49:02.41	338.36	5.89	-50.7	-64.0	3.8	1.49e+00	0	43	104	0	72	17172
2026-01-15 10:49:05.39	338.48	5.68	-50.8	-64.0	3.8	1.49e+00	0	43	104	0	72	17155
2026-01-15 10:49:08.37	338.60	5.47	-50.8	-64.0	3.8	1.49e+00	0	43	104	0	72	17201
2026-01-15 10:49:11.35	338.72	5.27	-50.7	-64.0	3.8	1.49e+00	0	43	104	0	72	17132
2026-01-15 10:49:14.33	338.84	5.06	-50.7	-63.9	3.8	1.49e+00	0	43	104	0	72	17066

#Closed at: 2026-01-15 10:49:16
#Recorded file [0 MB]: D:/Data/31040_260115_133634.dat