passes_logs/2026/01/15/T1/T1__20260115_080805_NOAA_20_JPSS-1_rec.log

#Pass ID: 20260115_080805_NOAA 20 (JPSS-1)
#Satellite: NOAA 20 (JPSS-1)
#Configuration: NOAA 20
#almurnet v.1.7.20251203
#Start time: 2026-01-15 08:08:06

#Version: 2.0.20230620
#Station: T1
#Location: 37.570604 lon 55.790049 lat
#TLE: 1 43013U 17073A   26014.55467351  .00000038  00000+0  38801-4 0  9992
#TLE: 2 43013  98.7635 315.4987 0001517  39.9279 320.2008 14.19535859422677

#Time	Az	El	Level	Level2	SNR	BER	BlckErr	Temp	State	Recorded	gain1	gain2
2026-01-15 08:08:06.01	103.04	5.03	-50.2	-65.5	3.8	1.49e+00	0	36	0	0	72	20424
2026-01-15 08:08:09.00	102.77	5.20	-50.3	-65.5	3.8	1.49e+00	0	36	104	0	72	20308
2026-01-15 08:08:11.99	102.50	5.38	-50.3	-65.5	3.8	1.49e+00	0	36	104	0	72	20317
2026-01-15 08:08:14.98	102.23	5.55	-50.2	-65.5	3.8	1.49e+00	0	36	104	0	72	20358
2026-01-15 08:08:17.97	101.95	5.73	-50.2	-65.5	3.8	1.49e+00	0	36	104	0	72	20414
2026-01-15 08:08:20.96	101.67	5.90	-50.2	-65.4	3.8	1.49e+00	0	36	104	0	72	20285
2026-01-15 08:08:23.95	101.38	6.08	-50.2	-65.4	3.8	1.49e+00	0	37	104	0	72	20259
2026-01-15 08:08:26.94	101.09	6.26	-50.2	-65.3	3.8	1.49e+00	0	37	104	0	72	20049
2026-01-15 08:08:29.93	100.80	6.44	-50.2	-65.3	3.8	1.49e+00	0	37	104	0	72	19948
2026-01-15 08:08:32.93	100.51	6.62	-50.2	-65.3	3.8	1.49e+00	0	37	104	0	72	19871
2026-01-15 08:08:35.93	100.20	6.80	-50.2	-65.1	3.8	1.49e+00	0	37	104	0	72	19568
2026-01-15 08:08:38.91	99.90	6.98	-50.2	-65.0	3.8	1.49e+00	0	37	104	0	72	19265
2026-01-15 08:08:41.90	99.60	7.16	-50.2	-65.0	3.8	1.49e+00	0	37	104	0	72	19317
2026-01-15 08:08:44.90	99.28	7.34	-50.2	-65.3	3.8	1.49e+00	0	37	104	0	72	20071
2026-01-15 08:08:47.89	98.97	7.52	-50.2	-65.5	3.8	1.49e+00	0	37	104	0	72	20305
2026-01-15 08:08:50.88	98.65	7.70	-50.2	-65.4	3.8	1.49e+00	0	37	104	0	72	20191
2026-01-15 08:08:53.88	98.33	7.88	-50.1	-64.5	3.8	1.49e+00	0	37	104	0	72	18222
2026-01-15 08:08:56.88	98.00	8.06	-50.2	-65.1	3.8	1.49e+00	0	37	104	0	72	19498
2026-01-15 08:08:59.87	97.67	8.25	-50.0	-62.3	3.9	1.48e+00	0	37	104	0	72	14205
2026-01-15 08:09:02.86	97.33	8.43	-48.9	-55.6	8.5	5.80e-02	0	38	0	4194304	69	7739
2026-01-15 08:09:05.86	96.99	8.62	-48.5	-54.5	9.7	1.15e-02	0	38	0	9437184	69	6848
2026-01-15 08:09:08.84	96.65	8.80	-49.3	-57.3	7.0	7.71e-02	0	38	0	15728640	69	9403
2026-01-15 08:09:11.84	96.30	8.98	-50.2	-64.8	3.8	1.49e+00	0	38	104	18874368	71	19851
2026-01-15 08:09:14.83	95.94	9.17	-49.9	-60.0	5.0	5.73e-01	0	38	0	19922944	71	11471
2026-01-15 08:09:17.82	95.58	9.35	-50.3	-64.7	3.8	6.83e-01	0	38	104	19922944	71	19797
2026-01-15 08:09:20.82	95.22	9.54	-48.9	-55.4	9.0	1.94e-02	0	38	0	23068672	69	7551
2026-01-15 08:09:23.81	94.85	9.73	-48.4	-53.8	10.5	4.90e-03	0	38	0	28311552	68	6722
2026-01-15 08:09:26.81	94.48	9.91	-47.3	-51.7	12.6	2.49e-04	0	38	0	33554432	66	5864
2026-01-15 08:09:29.79	94.10	10.10	-47.0	-51.0	13.3	9.90e-06	0	38	0	39845888	65	5750
2026-01-15 08:09:32.78	93.72	10.28	-46.8	-50.7	13.7	6.80e-06	0	38	0	45088768	65	5529
2026-01-15 08:09:35.77	93.34	10.47	-46.8	-50.7	13.6	7.60e-06	0	38	0	50331648	65	5571
2026-01-15 08:09:38.75	92.95	10.66	-47.0	-51.0	13.3	1.90e-05	0	38	0	56623104	65	5780
2026-01-15 08:09:41.74	92.55	10.84	-46.9	-50.9	13.4	1.52e-05	0	38	0	61865984	65	5705
2026-01-15 08:09:44.73	92.15	11.03	-46.9	-51.1	13.3	1.75e-05	0	38	0	67108864	65	5790
2026-01-15 08:09:47.72	91.74	11.22	-46.9	-50.9	13.5	9.10e-06	0	38	0	73400320	65	5681
2026-01-15 08:09:50.72	91.32	11.40	-46.9	-50.8	13.6	7.60e-06	0	38	0	78643200	65	5647
2026-01-15 08:09:53.72	90.91	11.59	-46.7	-50.5	13.9	4.50e-06	0	38	0	84934656	65	5425
2026-01-15 08:09:56.71	90.48	11.78	-46.8	-50.6	13.8	7.60e-06	0	38	0	90177536	65	5496
2026-01-15 08:09:59.71	90.05	11.96	-46.6	-50.5	13.9	4.50e-06	0	38	0	95420416	65	5429
2026-01-15 08:10:02.70	89.62	12.15	-46.6	-50.5	13.9	2.20e-06	0	38	0	101711872	65	5449
2026-01-15 08:10:05.70	89.18	12.34	-46.8	-50.8	13.6	4.50e-06	0	38	0	106954752	65	5656
2026-01-15 08:10:08.69	88.73	12.52	-46.7	-50.7	13.7	6.80e-06	0	38	0	112197632	65	5579
2026-01-15 08:10:11.68	88.28	12.71	-47.0	-51.1	13.4	1.22e-05	0	38	0	118489088	65	5791
2026-01-15 08:10:14.68	87.82	12.89	-46.8	-50.9	13.5	4.50e-06	0	38	0	123731968	65	5698
2026-01-15 08:10:17.67	87.36	13.08	-46.7	-50.7	13.7	4.50e-06	0	38	0	128974848	65	5586
2026-01-15 08:10:20.66	86.89	13.26	-46.6	-50.6	13.8	2.20e-06	0	38	0	135266304	65	5512
2026-01-15 08:10:23.66	86.41	13.45	-46.7	-50.8	13.7	6.10e-06	0	38	0	140509184	65	5605
2026-01-15 08:10:26.66	85.93	13.63	-46.6	-50.7	13.7	5.30e-06	0	38	0	145752064	65	5564
2026-01-15 08:10:29.66	85.44	13.81	-46.4	-50.3	14.1	3.00e-06	0	38	0	152043520	64	5641
2026-01-15 08:10:32.65	84.95	14.00	-46.4	-50.3	14.1	7.00e-07	0	38	0	157286400	64	5621
2026-01-15 08:10:35.64	84.45	14.18	-46.1	-49.8	14.7	0.00e+00	0	38	0	162529280	64	5308
2026-01-15 08:10:38.64	83.94	14.36	-46.0	-49.6	14.9	0.00e+00	0	38	0	168820736	64	5161
2026-01-15 08:10:41.64	83.43	14.54	-46.0	-49.4	15.0	0.00e+00	0	38	0	174063616	64	5084
2026-01-15 08:10:44.63	82.91	14.72	-46.0	-49.4	15.2	0.00e+00	0	38	0	180355072	63	5369
2026-01-15 08:10:47.63	82.38	14.89	-45.8	-49.2	15.4	7.00e-07	0	38	0	185597952	63	5219
2026-01-15 08:10:50.62	81.85	15.07	-45.6	-48.9	15.6	0.00e+00	0	38	0	190840832	63	5074
2026-01-15 08:10:53.61	81.32	15.24	-45.6	-48.8	15.8	0.00e+00	0	38	0	197132288	63	5004
2026-01-15 08:10:56.60	80.77	15.42	-45.5	-48.6	15.9	0.00e+00	0	39	0	202375168	63	4914
2026-01-15 08:10:59.60	80.22	15.59	-45.6	-48.6	15.9	0.00e+00	0	38	0	207618048	63	4900
2026-01-15 08:11:02.59	79.66	15.76	-45.3	-48.2	16.3	0.00e+00	0	39	0	213909504	62	4954
2026-01-15 08:11:05.59	79.10	15.93	-45.2	-48.1	16.5	0.00e+00	0	39	0	219152384	62	4886
2026-01-15 08:11:08.58	78.53	16.10	-45.2	-48.1	16.5	0.00e+00	0	38	0	224395264	62	4890
2026-01-15 08:11:11.57	77.96	16.26	-45.2	-48.1	16.5	0.00e+00	0	38	0	230686720	62	4884
2026-01-15 08:11:14.56	77.38	16.43	-45.1	-48.0	16.5	0.00e+00	0	39	0	235929600	62	4850
2026-01-15 08:11:17.56	76.79	16.59	-45.2	-48.2	16.3	0.00e+00	0	38	0	241172480	62	4947
2026-01-15 08:11:20.56	76.19	16.75	-45.3	-48.2	16.3	0.00e+00	0	39	0	247463936	62	4980
2026-01-15 08:11:23.56	75.59	16.91	-45.4	-48.4	16.2	0.00e+00	0	39	0	252706816	62	5084
2026-01-15 08:11:26.54	74.98	17.06	-45.4	-48.4	16.2	0.00e+00	0	39	0	257949696	62	5065
2026-01-15 08:11:29.54	74.37	17.22	-45.5	-48.5	16.1	0.00e+00	0	39	0	264241152	62	5120
2026-01-15 08:11:32.53	73.75	17.37	-45.3	-48.2	16.4	0.00e+00	0	39	0	269484032	62	4961
2026-01-15 08:11:35.52	73.12	17.51	-45.3	-48.2	16.4	0.00e+00	0	38	0	275775488	62	4933
2026-01-15 08:11:38.52	72.49	17.66	-45.0	-47.8	16.7	0.00e+00	0	38	0	281018368	62	4751
2026-01-15 08:11:41.52	71.85	17.80	-44.8	-47.5	17.0	0.00e+00	0	38	0	286261248	61	4847
2026-01-15 08:11:44.51	71.20	17.94	-44.8	-47.5	17.0	0.00e+00	0	38	0	292552704	61	4861
2026-01-15 08:11:47.50	70.55	18.08	-44.8	-47.5	17.0	0.00e+00	0	38	0	297795584	61	4859
2026-01-15 08:11:50.49	69.90	18.21	-44.8	-47.5	17.0	0.00e+00	0	38	0	303038464	61	4864
2026-01-15 08:11:53.49	69.24	18.34	-45.0	-47.8	16.8	0.00e+00	0	39	0	309329920	61	5012
2026-01-15 08:11:56.49	68.57	18.47	-44.7	-47.4	17.1	0.00e+00	0	39	0	314572800	61	4784
2026-01-15 08:11:59.47	67.90	18.59	-44.7	-47.4	17.2	0.00e+00	0	38	0	319815680	61	4768
2026-01-15 08:12:02.47	67.22	18.71	-44.7	-47.4	17.2	0.00e+00	0	38	0	326107136	61	4771
2026-01-15 08:12:05.46	66.53	18.83	-44.7	-47.5	17.1	0.00e+00	0	39	0	331350016	61	4823
2026-01-15 08:12:08.46	65.84	18.94	-44.9	-47.7	16.9	0.00e+00	0	39	0	336592896	61	4951
2026-01-15 08:12:11.45	65.15	19.05	-44.9	-47.7	16.9	0.00e+00	0	38	0	342884352	61	4963
2026-01-15 08:12:14.45	64.45	19.16	-45.0	-47.8	16.8	0.00e+00	0	39	0	348127232	61	5002
2026-01-15 08:12:17.43	63.75	19.26	-44.9	-47.7	16.9	0.00e+00	0	39	0	353370112	61	4954
2026-01-15 08:12:20.43	63.04	19.36	-45.1	-47.9	16.7	0.00e+00	0	39	0	359661568	61	5068
2026-01-15 08:12:23.42	62.33	19.45	-45.3	-48.2	16.4	0.00e+00	0	38	0	364904448	61	5234
2026-01-15 08:12:26.41	61.61	19.54	-45.6	-48.5	16.1	0.00e+00	0	39	0	370147328	61	5455
2026-01-15 08:12:29.41	60.89	19.62	-45.7	-48.7	15.9	0.00e+00	0	38	0	376438784	62	5272
2026-01-15 08:12:32.40	60.16	19.70	-45.6	-48.6	16.0	0.00e+00	0	38	0	381681664	62	5203
2026-01-15 08:12:35.39	59.44	19.77	-45.8	-48.8	15.8	0.00e+00	0	38	0	387973120	62	5328
2026-01-15 08:12:38.39	58.70	19.84	-45.8	-48.9	15.7	0.00e+00	0	38	0	393216000	62	5374
2026-01-15 08:12:41.39	57.96	19.91	-46.0	-49.2	15.5	0.00e+00	0	38	0	398458880	62	5543
2026-01-15 08:12:44.38	57.23	19.97	-46.2	-49.5	15.2	0.00e+00	0	38	0	404750336	63	5439
2026-01-15 08:12:47.38	56.48	20.03	-46.1	-49.3	15.4	0.00e+00	0	39	0	409993216	63	5312
2026-01-15 08:12:50.38	55.74	20.08	-46.0	-49.1	15.6	0.00e+00	0	39	0	415236096	63	5179
2026-01-15 08:12:53.37	54.99	20.12	-45.9	-49.0	15.7	0.00e+00	0	38	0	421527552	63	5108
2026-01-15 08:12:56.37	54.24	20.16	-46.1	-49.4	15.3	0.00e+00	0	39	0	426770432	63	5363
2026-01-15 08:12:59.36	53.50	20.20	-46.0	-49.2	15.5	0.00e+00	0	39	0	432013312	63	5255
2026-01-15 08:13:02.35	52.75	20.23	-46.0	-49.2	15.5	0.00e+00	0	39	0	438304768	63	5264
2026-01-15 08:13:05.34	51.99	20.26	-46.1	-49.3	15.5	0.00e+00	0	38	0	443547648	63	5281
2026-01-15 08:13:08.34	51.24	20.28	-45.9	-49.1	15.6	0.00e+00	0	38	0	449839104	63	5202
2026-01-15 08:13:11.32	50.49	20.29	-46.0	-49.2	15.5	0.00e+00	0	38	0	455081984	63	5227
2026-01-15 08:13:14.32	49.73	20.30	-45.8	-48.9	15.8	0.00e+00	0	38	0	460324864	63	5052
2026-01-15 08:13:17.32	48.97	20.31	-45.4	-48.4	16.3	0.00e+00	0	38	0	466616320	62	5072
2026-01-15 08:13:20.32	48.22	20.31	-45.5	-48.5	16.2	0.00e+00	0	38	0	471859200	62	5134
2026-01-15 08:13:23.31	47.46	20.30	-45.4	-48.3	16.4	0.00e+00	0	38	0	477102080	62	4993
2026-01-15 08:13:26.30	46.71	20.29	-45.3	-48.1	16.5	0.00e+00	0	38	0	483393536	62	4919
2026-01-15 08:13:29.29	45.95	20.27	-45.0	-47.9	16.8	0.00e+00	0	38	0	488636416	62	4760
2026-01-15 08:13:32.29	45.20	20.25	-44.9	-47.6	17.0	0.00e+00	0	39	0	493879296	61	4923
2026-01-15 08:13:35.28	44.45	20.22	-44.8	-47.6	17.1	0.00e+00	0	39	0	500170752	61	4878
2026-01-15 08:13:38.27	43.70	20.19	-44.7	-47.3	17.3	0.00e+00	0	39	0	505413632	61	4749
2026-01-15 08:13:41.26	42.95	20.16	-44.6	-47.2	17.4	0.00e+00	0	39	0	510656512	61	4696
2026-01-15 08:13:44.26	42.20	20.11	-44.5	-47.1	17.4	0.00e+00	0	38	0	516947968	61	4646
2026-01-15 08:13:47.25	41.46	20.07	-44.4	-47.0	17.6	0.00e+00	0	39	0	522190848	60	4830
2026-01-15 08:13:50.24	40.72	20.01	-44.4	-47.0	17.6	0.00e+00	0	38	0	527433728	60	4822
2026-01-15 08:13:53.24	39.98	19.96	-44.3	-46.9	17.6	0.00e+00	0	39	0	533725184	60	4803
2026-01-15 08:13:56.23	39.24	19.90	-44.6	-47.2	17.4	0.00e+00	0	39	0	538968064	60	4969
2026-01-15 08:13:59.22	38.51	19.83	-44.4	-47.0	17.5	0.00e+00	0	39	0	545259520	60	4862
2026-01-15 08:14:02.22	37.78	19.76	-44.4	-47.1	17.5	0.00e+00	0	39	0	550502400	60	4910
2026-01-15 08:14:05.21	37.05	19.68	-44.8	-47.6	17.0	0.00e+00	0	39	0	555745280	60	5206
2026-01-15 08:14:08.21	36.33	19.60	-45.0	-48.0	16.7	0.00e+00	0	39	0	562036736	60	5407
2026-01-15 08:14:11.20	35.61	19.52	-45.0	-48.0	16.7	0.00e+00	0	39	0	567279616	60	5414
2026-01-15 08:14:14.19	34.90	19.43	-45.3	-48.3	16.3	0.00e+00	0	39	0	572522496	61	5313
2026-01-15 08:14:17.18	34.19	19.34	-45.3	-48.3	16.4	0.00e+00	0	39	0	578813952	61	5328
2026-01-15 08:14:20.18	33.48	19.24	-45.5	-48.6	16.0	0.00e+00	0	39	0	584056832	61	5502
2026-01-15 08:14:23.17	32.78	19.14	-45.4	-48.5	16.2	0.00e+00	0	39	0	589299712	61	5428
2026-01-15 08:14:26.16	32.08	19.03	-45.6	-48.6	16.0	0.00e+00	0	39	0	595591168	61	5521
2026-01-15 08:14:29.15	31.39	18.92	-45.7	-48.8	15.8	0.00e+00	0	39	0	600834048	62	5333
2026-01-15 08:14:32.15	30.71	18.81	-45.6	-48.7	16.0	0.00e+00	0	39	0	606076928	62	5248
2026-01-15 08:14:35.14	30.03	18.69	-45.8	-48.9	15.8	0.00e+00	0	39	0	612368384	62	5377
2026-01-15 08:14:38.14	29.35	18.57	-46.0	-49.1	15.5	0.00e+00	0	39	0	617611264	62	5528
2026-01-15 08:14:41.13	28.68	18.45	-45.8	-48.9	15.7	0.00e+00	0	39	0	622854144	62	5371
2026-01-15 08:14:44.13	28.01	18.32	-45.4	-48.7	16.0	0.00e+00	0	39	0	629145600	62	5221
2026-01-15 08:14:47.12	27.36	18.19	-45.5	-49.0	15.7	0.00e+00	0	39	0	634388480	62	5439
2026-01-15 08:14:50.11	26.70	18.05	-45.6	-49.1	15.6	0.00e+00	0	38	0	639631360	62	5492
2026-01-15 08:14:53.09	26.06	17.92	-45.7	-49.1	15.6	0.00e+00	0	39	0	645922816	62	5499
2026-01-15 08:14:56.09	25.42	17.78	-45.7	-49.1	15.6	0.00e+00	0	39	0	651165696	62	5495
2026-01-15 08:14:59.09	24.78	17.64	-45.9	-49.3	15.4	0.00e+00	0	39	0	657457152	62	5650
2026-01-15 08:15:02.08	24.15	17.49	-45.8	-49.2	15.5	7.00e-07	0	39	0	662700032	62	5542
2026-01-15 08:15:05.07	23.53	17.34	-45.8	-49.0	15.7	0.00e+00	0	39	0	667942912	62	5430
2026-01-15 08:15:08.07	22.91	17.19	-45.9	-49.2	15.5	0.00e+00	0	39	0	674234368	62	5534
2026-01-15 08:15:11.07	22.30	17.04	-45.8	-49.2	15.6	0.00e+00	0	39	0	679477248	62	5531
2026-01-15 08:15:14.06	21.70	16.88	-45.9	-49.3	15.4	0.00e+00	0	39	0	684720128	62	5601
2026-01-15 08:15:17.05	21.10	16.72	-45.8	-49.1	15.5	0.00e+00	0	39	0	691011584	62	5521
2026-01-15 08:15:20.05	20.51	16.56	-45.8	-49.2	15.5	0.00e+00	0	39	0	696254464	62	5532
2026-01-15 08:15:23.04	19.93	16.40	-45.5	-48.9	15.8	0.00e+00	0	39	0	701497344	62	5353
2026-01-15 08:15:26.04	19.35	16.24	-45.6	-49.0	15.7	0.00e+00	0	39	0	707788800	62	5457
2026-01-15 08:15:29.03	18.78	16.07	-46.0	-49.4	15.2	0.00e+00	0	39	0	713031680	62	5705
2026-01-15 08:15:32.03	18.21	15.91	-46.1	-49.5	15.2	0.00e+00	0	39	0	718274560	62	5730
2026-01-15 08:15:35.02	17.65	15.74	-46.3	-49.8	14.9	0.00e+00	0	39	0	724566016	63	5595
2026-01-15 08:15:38.01	17.10	15.57	-46.3	-49.9	14.8	0.00e+00	0	39	0	729808896	63	5663
2026-01-15 08:15:41.01	16.55	15.40	-46.0	-49.6	15.0	0.00e+00	0	39	0	735051776	63	5528
2026-01-15 08:15:44.00	16.02	15.22	-46.0	-49.7	15.0	0.00e+00	0	38	0	741343232	63	5557
2026-01-15 08:15:47.00	15.48	15.05	-46.0	-49.9	14.7	0.00e+00	0	39	0	746586112	63	5715
2026-01-15 08:15:49.99	14.96	14.87	-45.8	-50.0	14.7	0.00e+00	0	39	0	752877568	63	5738
2026-01-15 08:15:52.98	14.44	14.70	-45.7	-49.7	14.9	0.00e+00	0	39	0	758120448	63	5591
2026-01-15 08:15:55.97	13.92	14.52	-45.8	-49.4	15.3	0.00e+00	0	39	0	763363328	63	5385
2026-01-15 08:15:58.96	13.41	14.34	-45.9	-49.4	15.2	0.00e+00	0	39	0	769654784	63	5374
2026-01-15 08:16:01.95	12.91	14.16	-45.6	-49.2	15.4	0.00e+00	0	39	0	774897664	63	5248
2026-01-15 08:16:04.95	12.42	13.98	-45.4	-49.1	15.5	0.00e+00	0	39	0	780140544	62	5483
2026-01-15 08:16:07.95	11.93	13.80	-45.4	-49.0	15.7	0.00e+00	0	39	0	786432000	62	5421
2026-01-15 08:16:10.95	11.44	13.61	-45.1	-48.9	15.8	0.00e+00	0	39	0	791674880	62	5378
2026-01-15 08:16:13.95	10.96	13.43	-45.0	-48.9	15.8	0.00e+00	0	39	0	796917760	61	5669
2026-01-15 08:16:16.95	10.49	13.25	-44.8	-48.3	16.3	0.00e+00	0	39	0	803209216	61	5298
2026-01-15 08:16:19.94	10.03	13.06	-45.1	-48.4	16.2	0.00e+00	0	39	0	808452096	61	5376
2026-01-15 08:16:22.94	9.57	12.88	-45.1	-48.4	16.2	0.00e+00	0	39	0	813694976	61	5375
2026-01-15 08:16:25.94	9.11	12.69	-45.0	-48.1	16.5	0.00e+00	0	38	0	819986432	61	5210
2026-01-15 08:16:28.93	8.66	12.51	-44.9	-48.0	16.6	0.00e+00	0	39	0	825229312	61	5148
2026-01-15 08:16:31.91	8.22	12.32	-44.8	-48.1	16.5	0.00e+00	0	39	0	831520768	61	5206
2026-01-15 08:16:34.90	7.79	12.14	-44.7	-48.2	16.4	0.00e+00	0	39	0	836763648	61	5254
2026-01-15 08:16:37.90	7.36	11.95	-44.8	-48.2	16.3	0.00e+00	0	38	0	842006528	61	5277
2026-01-15 08:16:40.90	6.93	11.77	-45.1	-48.4	16.2	0.00e+00	0	39	0	848297984	61	5383
2026-01-15 08:16:43.89	6.51	11.58	-45.3	-48.7	15.9	0.00e+00	0	39	0	853540864	61	5565
2026-01-15 08:16:46.89	6.10	11.39	-45.2	-48.9	15.7	0.00e+00	0	39	0	858783744	61	5671
2026-01-15 08:16:49.88	5.69	11.21	-45.3	-49.0	15.6	0.00e+00	0	39	0	865075200	61	5745
2026-01-15 08:16:52.88	5.28	11.02	-45.5	-48.9	15.7	0.00e+00	0	38	0	870318080	61	5717
2026-01-15 08:16:55.87	4.89	10.84	-45.5	-48.8	15.8	0.00e+00	0	39	0	875560960	61	5606
2026-01-15 08:16:58.87	4.49	10.65	-45.6	-48.8	15.7	0.00e+00	0	39	0	881852416	61	5652
2026-01-15 08:17:01.87	4.10	10.46	-45.6	-49.0	15.6	0.00e+00	0	39	0	887095296	61	5755
2026-01-15 08:17:04.87	3.72	10.28	-45.6	-49.2	15.4	0.00e+00	0	39	0	892338176	61	5872
2026-01-15 08:17:07.86	3.34	10.09	-45.3	-49.4	15.2	0.00e+00	0	39	0	898629632	61	6008
2026-01-15 08:17:10.85	2.97	9.91	-45.1	-49.5	15.0	0.00e+00	0	38	0	903872512	61	6108
2026-01-15 08:17:13.85	2.60	9.72	-45.7	-49.8	14.8	0.00e+00	0	39	0	909115392	61	6286
2026-01-15 08:17:16.84	2.24	9.53	-45.9	-49.8	14.7	0.00e+00	0	39	0	915406848	62	5983
2026-01-15 08:17:19.84	1.88	9.35	-45.6	-49.8	14.8	0.00e+00	0	39	0	920649728	62	5937
2026-01-15 08:17:22.84	1.52	9.16	-45.1	-50.0	14.5	1.50e-06	0	38	0	926941184	62	6118
2026-01-15 08:17:25.83	1.17	8.98	-47.1	-53.6	11.2	0.00e+00	0	39	0	932184064	64	8258
2026-01-15 08:17:28.82	0.83	8.80	-50.6	-66.2	3.8	1.49e+00	0	39	104	933232640	71	23454
2026-01-15 08:17:31.82	0.49	8.61	-51.0	-66.3	3.8	1.49e+00	0	39	104	933232640	72	22363
2026-01-15 08:17:34.79	0.15	8.43	-50.6	-66.4	3.8	1.49e+00	0	39	104	933232640	72	22634
2026-01-15 08:17:37.79	359.82	8.25	-50.7	-66.5	3.8	1.49e+00	0	39	104	933232640	73	21542
2026-01-15 08:17:40.78	359.49	8.07	-50.8	-66.4	3.8	1.49e+00	0	39	104	933232640	73	21390
2026-01-15 08:17:43.78	359.17	7.88	-51.2	-66.4	3.8	1.49e+00	0	39	104	933232640	73	21368
2026-01-15 08:17:46.78	358.85	7.70	-51.1	-66.4	3.8	1.49e+00	0	39	104	933232640	73	21422
2026-01-15 08:17:49.78	358.53	7.52	-51.1	-66.4	3.8	1.49e+00	0	39	104	933232640	73	21365
2026-01-15 08:17:52.77	358.22	7.34	-51.2	-66.4	3.8	1.49e+00	0	39	104	933232640	73	21340
2026-01-15 08:17:55.76	357.92	7.16	-51.0	-66.4	3.8	1.49e+00	0	39	104	933232640	73	21288
2026-01-15 08:17:58.76	357.61	6.98	-51.0	-66.4	3.8	1.49e+00	0	39	104	933232640	73	21335
2026-01-15 08:18:01.75	357.31	6.80	-51.0	-66.3	3.8	1.49e+00	0	39	104	933232640	73	21216
2026-01-15 08:18:04.74	357.02	6.62	-51.0	-66.4	3.8	1.49e+00	0	39	104	933232640	73	21280
2026-01-15 08:18:07.75	356.72	6.44	-51.0	-66.4	3.8	1.49e+00	0	38	104	933232640	73	21414
2026-01-15 08:18:10.74	356.44	6.27	-51.0	-66.3	3.8	1.49e+00	0	39	104	933232640	73	21206
2026-01-15 08:18:13.73	356.15	6.09	-51.0	-66.3	3.8	1.49e+00	0	39	104	933232640	73	21225
2026-01-15 08:18:16.73	355.87	5.91	-51.0	-66.4	3.8	1.49e+00	0	39	104	933232640	73	21301
2026-01-15 08:18:19.73	355.59	5.74	-51.0	-66.4	3.8	1.49e+00	0	39	104	933232640	73	21266
2026-01-15 08:18:22.72	355.32	5.56	-51.0	-66.3	3.8	1.49e+00	0	39	104	933232640	73	21157
2026-01-15 08:18:25.71	355.05	5.39	-50.9	-66.3	3.8	1.49e+00	0	39	104	933232640	73	21197
2026-01-15 08:18:28.70	354.78	5.21	-51.0	-66.3	3.8	1.49e+00	0	39	104	933232640	73	21175
2026-01-15 08:18:31.70	354.52	5.04	-51.0	-66.3	3.8	1.49e+00	0	39	104	933232640	73	21170

#Closed at: 2026-01-15 08:18:33
#Recorded file [933 MB]: D:/Data/31040_260115_110805.dat