passes_logs/2026/01/15/T1/T1__20260115_013632_NOAA_20_JPSS-1_rec.log

#Pass ID: 20260115_013632_NOAA 20 (JPSS-1)
#Satellite: NOAA 20 (JPSS-1)
#Configuration: NOAA 20
#almurnet v.1.7.20251203
#Start time: 2026-01-15 01:36:34

#Version: 2.0.20230620
#Station: T1
#Location: 37.570604 lon 55.790049 lat
#TLE: 1 43013U 17073A   26014.13176244  .00000049  00000+0  44136-4 0  9994
#TLE: 2 43013  98.7634 315.0803 0001538  40.6488 319.4803 14.19535812422619

#Time	Az	El	Level	Level2	SNR	BER	BlckErr	Temp	State	Recorded	gain1	gain2
2026-01-15 01:36:34.29	5.05	5.08	-50.6	-66.0	3.8	1.49e+00	0	39	0	0	72	21662
2026-01-15 01:36:37.26	4.78	5.25	-50.6	-66.0	3.8	1.49e+00	0	39	104	0	73	20409
2026-01-15 01:36:40.24	4.51	5.42	-50.6	-66.0	3.8	1.49e+00	0	39	104	0	73	20436
2026-01-15 01:36:43.23	4.23	5.60	-50.6	-66.0	3.8	1.49e+00	0	39	104	0	73	20418
2026-01-15 01:36:46.21	3.95	5.77	-50.6	-66.0	3.8	1.49e+00	0	40	104	0	73	20421
2026-01-15 01:36:49.31	3.65	5.95	-50.6	-66.0	3.8	1.49e+00	0	40	104	0	73	20432
2026-01-15 01:36:52.37	3.35	6.12	-50.6	-66.0	3.8	1.49e+00	0	40	104	0	73	20501
2026-01-15 01:36:55.49	3.05	6.31	-50.6	-66.0	3.8	1.49e+00	0	40	104	0	73	20460
2026-01-15 01:36:58.40	2.76	6.48	-50.6	-66.0	3.8	1.49e+00	0	40	104	0	73	20449
2026-01-15 01:37:01.87	2.41	6.68	-50.6	-66.0	3.8	1.49e+00	0	40	104	0	73	20492
2026-01-15 01:37:04.58	2.13	6.84	-50.6	-66.0	3.8	1.49e+00	0	40	104	0	73	20444
2026-01-15 01:37:07.86	1.79	7.03	-50.6	-66.0	3.8	1.49e+00	0	40	104	0	73	20454
2026-01-15 01:37:10.56	1.51	7.19	-50.6	-66.0	3.8	1.49e+00	0	40	104	0	73	20525
2026-01-15 01:37:13.83	1.16	7.38	-50.6	-66.0	3.8	1.49e+00	0	40	104	0	73	20475
2026-01-15 01:37:16.52	0.88	7.54	-50.6	-66.0	3.8	1.49e+00	0	40	104	0	73	20426
2026-01-15 01:37:19.90	0.51	7.74	-50.6	-66.0	3.8	1.49e+00	0	40	104	0	73	20456
2026-01-15 01:37:22.60	0.21	7.90	-50.6	-66.0	3.8	1.49e+00	0	40	104	0	73	20378
2026-01-15 01:37:25.88	359.85	8.10	-50.6	-66.0	3.8	1.49e+00	0	41	104	0	73	20442
2026-01-15 01:37:28.57	359.54	8.26	-50.6	-66.0	3.8	1.49e+00	0	40	104	0	73	20422
2026-01-15 01:37:31.84	359.17	8.45	-50.6	-66.0	3.8	1.49e+00	0	41	104	0	73	20448
2026-01-15 01:37:34.53	358.86	8.61	-50.6	-66.0	3.8	1.49e+00	0	41	104	0	73	20473
2026-01-15 01:37:37.80	358.47	8.81	-50.6	-66.0	3.8	1.49e+00	0	41	104	0	73	20455
2026-01-15 01:37:40.50	358.15	8.97	-50.6	-66.0	3.8	1.49e+00	0	40	104	0	73	20369
2026-01-15 01:37:43.76	357.76	9.16	-50.6	-66.0	3.8	1.49e+00	0	41	104	0	73	20429
2026-01-15 01:37:46.46	357.43	9.33	-50.6	-66.0	3.8	1.49e+00	0	41	104	0	73	20485
2026-01-15 01:37:49.72	357.03	9.52	-50.6	-66.0	3.8	1.49e+00	0	41	104	0	73	20477
2026-01-15 01:37:52.42	356.69	9.68	-50.6	-66.0	3.8	1.49e+00	0	41	104	0	73	20473
2026-01-15 01:37:55.70	356.28	9.88	-50.6	-66.0	3.8	1.49e+00	0	41	104	0	73	20441
2026-01-15 01:37:58.42	355.93	10.05	-50.6	-66.0	3.8	1.49e+00	0	41	104	0	73	20392
2026-01-15 01:38:01.68	355.51	10.24	-50.6	-66.0	3.8	1.49e+00	0	41	104	0	73	20462
2026-01-15 01:38:04.40	355.15	10.41	-50.6	-66.0	3.8	1.49e+00	0	41	104	0	73	20490
2026-01-15 01:38:07.66	354.72	10.60	-50.6	-66.0	3.8	1.49e+00	0	41	104	0	73	20506
2026-01-15 01:38:10.38	354.35	10.77	-50.6	-66.0	3.8	1.49e+00	0	41	104	0	73	20410
2026-01-15 01:38:13.64	353.91	10.96	-50.6	-66.0	3.8	1.49e+00	0	41	104	0	73	20487
2026-01-15 01:38:16.34	353.53	11.12	-50.6	-66.0	3.8	1.49e+00	0	41	104	0	73	20488
2026-01-15 01:38:19.60	353.08	11.32	-50.6	-66.0	3.8	1.49e+00	0	41	104	0	73	20479
2026-01-15 01:38:22.30	352.69	11.48	-50.6	-66.0	3.8	1.49e+00	0	41	104	0	73	20502
2026-01-15 01:38:25.56	352.23	11.68	-50.6	-66.0	3.8	1.49e+00	0	41	104	0	73	20436
2026-01-15 01:38:28.32	351.83	11.84	-50.6	-66.0	3.8	1.49e+00	0	41	104	0	73	20465
2026-01-15 01:38:31.59	351.35	12.04	-50.6	-66.0	3.8	1.49e+00	0	41	104	0	73	20408
2026-01-15 01:38:34.29	350.94	12.20	-50.6	-66.0	3.8	1.49e+00	0	41	104	0	73	20461
2026-01-15 01:38:37.64	350.44	12.40	-50.6	-66.0	3.8	1.49e+00	0	41	104	0	73	20399
2026-01-15 01:38:40.40	350.02	12.56	-50.6	-66.0	3.8	1.49e+00	0	41	104	0	73	20378
2026-01-15 01:38:43.81	349.49	12.76	-50.6	-66.0	3.8	1.49e+00	0	41	104	0	73	20482
2026-01-15 01:38:46.56	349.06	12.92	-50.6	-66.0	3.8	1.49e+00	0	41	104	0	73	20523
2026-01-15 01:38:49.89	348.53	13.12	-50.6	-66.0	3.8	1.49e+00	0	41	104	0	73	20515
2026-01-15 01:38:52.61	348.10	13.28	-50.6	-66.0	3.8	1.49e+00	0	41	104	0	73	20454
2026-01-15 01:38:55.87	347.57	13.47	-50.6	-66.0	3.8	1.49e+00	0	41	104	0	73	20444
2026-01-15 01:38:58.58	347.12	13.62	-50.6	-66.0	3.8	1.49e+00	0	41	104	0	73	20443
2026-01-15 01:39:01.85	346.58	13.81	-50.6	-66.0	3.8	1.49e+00	0	41	104	0	73	20443
2026-01-15 01:39:04.56	346.12	13.97	-50.6	-66.0	3.8	1.49e+00	0	41	104	0	73	20405
2026-01-15 01:39:07.83	345.56	14.15	-50.6	-66.0	3.8	1.49e+00	0	41	104	0	73	20438
2026-01-15 01:39:10.54	345.10	14.31	-50.6	-66.0	3.8	1.49e+00	0	41	104	0	73	20433
2026-01-15 01:39:13.82	344.53	14.49	-50.6	-66.0	3.8	1.49e+00	0	41	104	0	73	20474
2026-01-15 01:39:16.54	344.05	14.64	-50.6	-66.0	3.8	1.49e+00	0	41	104	0	73	20442
2026-01-15 01:39:19.80	343.46	14.82	-50.6	-66.0	3.8	1.49e+00	0	41	104	0	73	20424
2026-01-15 01:39:22.49	342.98	14.97	-50.6	-66.0	3.8	1.49e+00	0	41	104	0	73	20495
2026-01-15 01:39:25.77	342.38	15.15	-50.6	-66.1	3.8	1.49e+00	0	41	104	0	73	20559
2026-01-15 01:39:28.47	341.88	15.29	-50.6	-66.0	3.8	1.49e+00	0	41	104	0	73	20406
2026-01-15 01:39:31.74	341.27	15.47	-50.6	-66.0	3.8	1.49e+00	0	41	104	0	73	20464
2026-01-15 01:39:34.45	340.76	15.61	-50.6	-66.0	3.8	1.49e+00	0	41	104	0	73	20537
2026-01-15 01:39:37.72	340.14	15.78	-50.6	-66.0	3.8	1.49e+00	0	41	104	0	73	20442
2026-01-15 01:39:40.52	339.60	15.92	-50.6	-66.0	3.8	1.49e+00	0	41	104	0	73	20461
2026-01-15 01:39:43.85	338.95	16.09	-50.6	-66.0	3.8	1.49e+00	0	41	104	0	73	20463
2026-01-15 01:39:46.56	338.42	16.23	-50.6	-66.0	3.8	1.49e+00	0	41	104	0	73	20512
2026-01-15 01:39:49.83	337.77	16.39	-50.7	-66.0	3.8	1.49e+00	0	41	104	0	73	20443
2026-01-15 01:39:52.54	337.23	16.52	-50.6	-66.0	3.8	1.49e+00	0	41	104	0	73	20456
2026-01-15 01:39:55.80	336.57	16.67	-50.7	-66.0	3.8	1.49e+00	0	41	104	0	73	20394
2026-01-15 01:39:58.53	336.01	16.80	-50.7	-66.0	3.8	1.49e+00	0	41	104	0	73	20392
2026-01-15 01:40:01.86	335.32	16.96	-50.6	-66.0	3.8	1.49e+00	0	41	104	0	73	20458
2026-01-15 01:40:04.56	334.76	17.08	-50.7	-66.0	3.8	1.49e+00	0	41	104	0	73	20412
2026-01-15 01:40:07.82	334.08	17.22	-50.7	-66.0	3.8	1.49e+00	0	41	104	0	73	20523
2026-01-15 01:40:10.54	333.50	17.34	-50.6	-66.0	3.8	1.49e+00	0	41	104	0	73	20511
2026-01-15 01:40:13.80	332.80	17.48	-50.6	-66.0	3.8	1.49e+00	0	41	104	0	73	20435
2026-01-15 01:40:16.51	332.22	17.59	-50.7	-66.0	3.8	1.49e+00	0	41	104	0	73	20509
2026-01-15 01:40:19.88	331.49	17.72	-50.6	-66.0	3.8	1.49e+00	0	41	104	0	73	20425
2026-01-15 01:40:22.60	330.89	17.83	-50.7	-66.1	3.8	1.49e+00	0	41	104	0	73	20541
2026-01-15 01:40:25.86	330.17	17.95	-50.7	-66.0	3.8	1.49e+00	0	42	104	0	73	20463
2026-01-15 01:40:28.56	329.57	18.05	-50.7	-66.0	3.8	1.49e+00	0	41	104	0	73	20492
2026-01-15 01:40:31.83	328.84	18.17	-50.7	-66.0	3.8	1.49e+00	0	41	104	0	73	20523
2026-01-15 01:40:34.54	328.22	18.26	-50.6	-66.0	3.8	1.49e+00	0	41	104	0	73	20467
2026-01-15 01:40:37.82	327.48	18.37	-50.7	-66.0	3.8	1.49e+00	0	41	104	0	73	20513
2026-01-15 01:40:40.53	326.86	18.46	-50.6	-66.0	3.8	1.49e+00	0	41	104	0	73	20537
2026-01-15 01:40:43.81	326.10	18.56	-50.7	-66.0	3.8	1.49e+00	0	41	104	0	73	20435
2026-01-15 01:40:46.52	325.48	18.63	-50.7	-66.0	3.8	1.49e+00	0	41	104	0	73	20474
2026-01-15 01:40:49.80	324.71	18.73	-50.6	-66.0	3.8	1.49e+00	0	41	104	0	73	20510
2026-01-15 01:40:52.58	324.06	18.80	-50.7	-66.0	3.8	1.49e+00	0	41	104	0	73	20508
2026-01-15 01:40:55.84	323.29	18.88	-50.7	-66.0	3.8	1.49e+00	0	41	104	0	73	20396
2026-01-15 01:40:58.55	322.65	18.94	-50.6	-66.0	3.8	1.49e+00	0	41	104	0	73	20454
2026-01-15 01:41:01.83	321.87	19.02	-50.7	-66.0	3.8	1.49e+00	0	41	104	0	73	20426
2026-01-15 01:41:04.53	321.23	19.07	-50.6	-66.1	3.8	1.49e+00	0	42	104	0	73	20609
2026-01-15 01:41:07.81	320.44	19.13	-50.6	-66.0	3.8	1.49e+00	0	41	104	0	73	20457
2026-01-15 01:41:10.52	319.79	19.18	-50.6	-66.0	3.8	1.49e+00	0	41	104	0	73	20490
2026-01-15 01:41:13.79	319.00	19.23	-50.6	-66.0	3.8	1.49e+00	0	41	104	0	73	20416
2026-01-15 01:41:16.49	318.35	19.27	-50.6	-66.0	3.8	1.49e+00	0	42	104	0	73	20509
2026-01-15 01:41:19.77	317.55	19.32	-50.6	-66.1	3.8	1.49e+00	0	41	104	0	73	20568
2026-01-15 01:41:22.47	316.90	19.35	-50.6	-66.0	3.8	1.49e+00	0	41	104	0	73	20467
2026-01-15 01:41:25.73	316.10	19.38	-50.6	-66.0	3.8	1.49e+00	0	41	104	0	73	20522
2026-01-15 01:41:28.52	315.42	19.40	-50.6	-66.0	3.8	1.49e+00	0	41	104	0	73	20520
2026-01-15 01:41:31.85	314.61	19.42	-50.6	-66.0	3.8	1.49e+00	0	41	104	0	73	20390
2026-01-15 01:41:34.54	313.95	19.43	-50.6	-66.0	3.8	1.49e+00	0	41	104	0	73	20502
2026-01-15 01:41:37.82	313.14	19.44	-50.6	-66.0	3.8	1.49e+00	0	41	104	0	73	20466
2026-01-15 01:41:40.52	312.48	19.45	-50.6	-66.0	3.8	1.49e+00	0	41	104	0	73	20407
2026-01-15 01:41:43.79	311.68	19.45	-50.6	-66.0	3.8	1.49e+00	0	41	104	0	73	20517
2026-01-15 01:41:46.50	311.01	19.44	-50.6	-66.0	3.8	1.49e+00	0	41	104	0	73	20459
2026-01-15 01:41:49.77	310.21	19.43	-50.6	-66.0	3.8	1.49e+00	0	41	104	0	73	20485
2026-01-15 01:41:52.46	309.55	19.42	-50.6	-66.0	3.8	1.49e+00	0	41	104	0	73	20493
2026-01-15 01:41:55.76	308.75	19.40	-50.6	-66.0	3.8	1.49e+00	0	41	104	0	73	20445
2026-01-15 01:41:58.46	308.09	19.37	-50.6	-66.0	3.8	1.49e+00	0	41	104	0	73	20420
2026-01-15 01:42:01.66	307.31	19.34	-50.6	-66.0	3.8	1.49e+00	0	41	104	0	73	20376
2026-01-15 01:42:04.50	306.62	19.31	-50.6	-66.0	3.8	1.49e+00	0	41	104	0	73	20404
2026-01-15 01:42:07.62	305.86	19.27	-50.6	-66.0	3.8	1.49e+00	0	41	104	0	73	20398
2026-01-15 01:42:10.46	305.17	19.23	-50.6	-66.0	3.8	1.49e+00	0	41	104	0	73	20386
2026-01-15 01:42:13.59	304.41	19.18	-50.6	-66.0	3.8	1.49e+00	0	41	104	0	73	20423
2026-01-15 01:42:16.43	303.73	19.13	-50.6	-66.0	3.8	1.49e+00	0	41	104	0	73	20464
2026-01-15 01:42:19.62	302.97	19.07	-50.6	-66.0	3.8	1.49e+00	0	41	104	0	73	20488
2026-01-15 01:42:22.52	302.27	19.01	-50.6	-66.0	3.8	1.49e+00	0	41	104	0	73	20406
2026-01-15 01:42:25.72	301.51	18.93	-50.6	-66.0	3.8	1.49e+00	0	41	104	0	73	20428
2026-01-15 01:42:28.56	300.84	18.87	-50.6	-66.0	3.8	1.49e+00	0	41	104	0	73	20466
2026-01-15 01:42:31.68	300.11	18.79	-50.6	-66.0	3.8	1.49e+00	0	41	104	0	73	20501
2026-01-15 01:42:34.52	299.44	18.71	-50.6	-66.0	3.8	1.49e+00	0	41	104	0	73	20405
2026-01-15 01:42:37.65	298.71	18.62	-50.6	-66.0	3.8	1.49e+00	0	41	104	0	73	20414
2026-01-15 01:42:40.53	298.04	18.54	-50.6	-66.0	3.8	1.49e+00	0	41	104	0	73	20457
2026-01-15 01:42:43.78	297.29	18.44	-50.6	-66.0	3.8	1.49e+00	0	41	104	0	73	20387
2026-01-15 01:42:46.72	296.62	18.35	-50.6	-66.0	3.8	1.49e+00	0	41	104	0	73	20407
2026-01-15 01:42:49.84	295.91	18.24	-50.6	-66.0	3.8	1.49e+00	0	41	104	0	73	20411
2026-01-15 01:42:52.68	295.27	18.14	-50.6	-66.0	3.8	1.49e+00	0	41	104	0	73	20358
2026-01-15 01:42:55.80	294.57	18.03	-50.6	-66.0	3.8	1.49e+00	0	41	104	0	73	20441
2026-01-15 01:42:58.64	293.94	17.93	-50.6	-66.0	3.8	1.49e+00	0	41	104	0	73	20339
2026-01-15 01:43:01.76	293.25	17.81	-50.6	-66.0	3.8	1.49e+00	0	41	104	0	73	20347
2026-01-15 01:43:04.60	292.62	17.70	-50.6	-66.0	3.8	1.49e+00	0	41	104	0	73	20370
2026-01-15 01:43:07.72	291.94	17.57	-50.6	-66.0	3.8	1.49e+00	0	41	104	0	73	20411
2026-01-15 01:43:10.56	291.33	17.45	-50.6	-66.0	3.8	1.49e+00	0	41	104	0	73	20420
2026-01-15 01:43:13.68	290.66	17.32	-50.6	-66.0	3.8	1.49e+00	0	41	104	0	73	20328
2026-01-15 01:43:16.52	290.06	17.20	-50.6	-66.0	3.8	1.49e+00	0	41	104	0	73	20399
2026-01-15 01:43:19.74	289.38	17.05	-50.6	-66.0	3.8	1.49e+00	0	41	104	0	73	20435
2026-01-15 01:43:22.58	288.79	16.92	-50.6	-66.0	3.8	1.49e+00	0	41	104	0	73	20386
2026-01-15 01:43:25.70	288.14	16.78	-50.6	-66.0	3.8	1.49e+00	0	41	104	0	73	20418
2026-01-15 01:43:28.54	287.56	16.65	-50.6	-66.0	3.8	1.49e+00	0	41	104	0	73	20369
2026-01-15 01:43:31.67	286.93	16.50	-50.6	-66.0	3.8	1.49e+00	0	41	104	0	73	20410
2026-01-15 01:43:34.62	286.33	16.35	-50.6	-66.0	3.8	1.49e+00	0	41	104	0	73	20428
2026-01-15 01:43:37.75	285.71	16.20	-50.6	-66.0	3.8	1.49e+00	0	41	104	0	73	20356
2026-01-15 01:43:40.58	285.15	16.06	-50.6	-66.0	3.8	1.49e+00	0	41	104	0	73	20349
2026-01-15 01:43:43.71	284.54	15.90	-50.6	-66.0	3.8	1.49e+00	0	41	104	0	73	20368
2026-01-15 01:43:46.54	284.00	15.75	-50.6	-66.0	3.8	1.49e+00	0	41	104	0	73	20471
2026-01-15 01:43:49.66	283.40	15.59	-50.6	-66.0	3.8	1.49e+00	0	41	104	0	73	20406
2026-01-15 01:43:52.50	282.86	15.44	-50.6	-66.0	3.8	1.49e+00	0	41	104	0	73	20357
2026-01-15 01:43:55.63	282.28	15.27	-50.6	-66.0	3.8	1.49e+00	0	41	104	0	73	20375
2026-01-15 01:43:58.47	281.75	15.12	-50.6	-66.0	3.8	1.49e+00	0	41	104	0	73	20399
2026-01-15 01:44:01.59	281.18	14.95	-50.6	-66.0	3.8	1.49e+00	0	41	104	0	73	20388
2026-01-15 01:44:04.46	280.66	14.79	-50.6	-66.0	3.8	1.49e+00	0	41	104	0	73	20382
2026-01-15 01:44:07.71	280.08	14.61	-50.6	-66.0	3.8	1.49e+00	0	41	104	0	73	20343
2026-01-15 01:44:10.55	279.58	14.45	-50.6	-66.0	3.8	1.49e+00	0	41	104	0	73	20397
2026-01-15 01:44:13.67	279.04	14.27	-50.6	-66.0	3.8	1.49e+00	0	41	104	0	73	20427
2026-01-15 01:44:16.51	278.54	14.11	-50.6	-66.0	3.8	1.49e+00	0	41	104	0	73	20374
2026-01-15 01:44:19.63	278.01	13.93	-50.6	-66.0	3.8	1.49e+00	0	41	104	0	73	20352
2026-01-15 01:44:22.47	277.53	13.77	-50.6	-66.0	3.8	1.49e+00	0	41	104	0	73	20324
2026-01-15 01:44:25.59	277.01	13.59	-50.6	-66.0	3.8	1.49e+00	0	41	104	0	73	20405
2026-01-15 01:44:28.43	276.54	13.43	-50.6	-66.0	3.8	1.49e+00	0	41	104	0	73	20467
2026-01-15 01:44:31.56	276.03	13.24	-50.6	-66.0	3.8	1.49e+00	0	41	104	0	73	20383
2026-01-15 01:44:34.39	275.58	13.08	-50.6	-66.0	3.8	1.49e+00	0	41	104	0	73	20325
2026-01-15 01:44:37.52	275.08	12.89	-50.6	-66.0	3.8	1.49e+00	0	41	104	0	73	20339
2026-01-15 01:44:40.35	274.63	12.73	-50.6	-66.0	3.8	1.49e+00	0	41	104	0	73	20405
2026-01-15 01:44:43.48	274.15	12.54	-50.6	-65.9	3.8	1.49e+00	0	41	104	0	73	20292
2026-01-15 01:44:46.31	273.71	12.37	-50.6	-65.9	3.8	1.49e+00	0	41	104	0	73	20257
2026-01-15 01:44:49.44	273.24	12.19	-50.6	-66.0	3.8	1.49e+00	0	41	104	0	73	20324
2026-01-15 01:44:52.28	272.81	12.02	-50.6	-66.0	3.8	1.49e+00	0	41	104	0	73	20481
2026-01-15 01:44:55.55	272.33	11.82	-50.6	-66.0	3.8	1.49e+00	0	41	104	0	73	20356
2026-01-15 01:44:58.46	271.90	11.65	-50.6	-66.0	3.8	1.49e+00	0	41	104	0	73	20403
2026-01-15 01:45:01.71	271.44	11.45	-50.6	-65.9	3.8	1.49e+00	0	41	104	0	73	20246
2026-01-15 01:45:04.61	271.02	11.28	-50.6	-66.0	3.8	1.49e+00	0	41	104	0	73	20308
2026-01-15 01:45:07.73	270.58	11.09	-50.6	-66.0	3.8	1.49e+00	0	41	104	0	73	20384
2026-01-15 01:45:10.57	270.19	10.92	-50.6	-65.9	3.8	1.49e+00	0	41	104	0	73	20251
2026-01-15 01:45:13.70	269.76	10.73	-50.6	-65.9	3.8	1.49e+00	0	41	104	0	73	20273
2026-01-15 01:45:16.53	269.38	10.56	-50.6	-66.0	3.8	1.49e+00	0	41	104	0	73	20312
2026-01-15 01:45:19.77	268.94	10.36	-50.6	-66.0	3.8	1.49e+00	0	41	104	0	73	20322
2026-01-15 01:45:22.61	268.57	10.19	-50.6	-66.0	3.8	1.49e+00	0	41	104	0	73	20352
2026-01-15 01:45:25.73	268.16	10.00	-50.6	-65.9	3.8	1.49e+00	0	41	104	0	73	20297
2026-01-15 01:45:28.57	267.80	9.83	-50.6	-65.9	3.8	1.49e+00	0	41	104	0	73	20270
2026-01-15 01:45:31.70	267.40	9.64	-50.6	-66.0	3.8	1.49e+00	0	41	104	0	73	20384
2026-01-15 01:45:34.54	267.04	9.47	-50.6	-66.0	3.8	1.49e+00	0	41	104	0	73	20522
2026-01-15 01:45:37.66	266.65	9.28	-50.6	-66.0	3.8	1.49e+00	0	41	104	0	73	20400
2026-01-15 01:45:40.50	266.31	9.11	-50.6	-65.9	3.8	1.49e+00	0	41	104	0	73	20268
2026-01-15 01:45:43.62	265.93	8.92	-50.6	-65.9	3.8	1.49e+00	0	41	104	0	73	20292
2026-01-15 01:45:46.46	265.59	8.75	-50.6	-66.0	3.8	1.49e+00	0	41	104	0	73	20322
2026-01-15 01:45:49.58	265.22	8.57	-50.6	-65.9	3.8	1.49e+00	0	41	104	0	73	20264
2026-01-15 01:45:52.42	264.89	8.40	-50.6	-66.0	3.8	1.49e+00	0	41	104	0	73	20311
2026-01-15 01:45:55.54	264.53	8.21	-50.6	-66.0	3.8	1.49e+00	0	41	104	0	73	20335
2026-01-15 01:45:58.38	264.21	8.04	-50.6	-66.0	3.8	1.49e+00	0	41	104	0	73	20384
2026-01-15 01:46:01.50	263.86	7.85	-50.6	-65.9	3.8	1.49e+00	0	41	104	0	73	20269
2026-01-15 01:46:04.34	263.54	7.69	-50.6	-65.9	3.8	1.49e+00	0	41	104	0	73	20266
2026-01-15 01:46:07.46	263.20	7.50	-50.6	-65.9	3.8	1.49e+00	0	41	104	0	73	20265
2026-01-15 01:46:10.41	262.88	7.33	-50.6	-66.0	3.8	1.49e+00	0	41	104	0	73	20388
2026-01-15 01:46:13.39	262.56	7.15	-50.6	-66.0	3.8	1.49e+00	0	41	104	0	73	20371
2026-01-15 01:46:16.37	262.25	6.97	-50.6	-66.0	3.8	1.49e+00	0	41	104	0	73	20322
2026-01-15 01:46:19.36	261.94	6.80	-50.6	-66.0	3.8	1.49e+00	0	41	104	0	73	20373
2026-01-15 01:46:22.34	261.63	6.62	-50.6	-66.0	3.8	1.49e+00	0	41	104	0	73	20342
2026-01-15 01:46:25.32	261.33	6.45	-50.6	-66.0	3.8	1.49e+00	0	41	104	0	73	20408
2026-01-15 01:46:28.30	261.03	6.27	-50.6	-66.0	3.8	1.49e+00	0	41	104	0	73	20357
2026-01-15 01:46:31.28	260.73	6.10	-50.6	-66.0	3.8	1.49e+00	0	41	104	0	73	20355
2026-01-15 01:46:34.26	260.44	5.93	-50.6	-65.9	3.8	1.49e+00	0	41	104	0	73	20293
2026-01-15 01:46:37.29	260.15	5.75	-50.6	-65.9	3.8	1.49e+00	0	41	104	0	73	20288
2026-01-15 01:46:40.27	259.86	5.58	-50.6	-65.9	3.8	1.49e+00	0	41	104	0	73	20264
2026-01-15 01:46:43.61	259.55	5.39	-50.6	-66.0	3.8	1.49e+00	0	41	104	0	73	20306
2026-01-15 01:46:46.54	259.27	5.22	-50.6	-66.0	3.8	1.49e+00	0	41	104	0	73	20330
2026-01-15 01:46:49.87	258.97	5.03	-50.6	-66.0	3.8	1.49e+00	0	41	104	0	73	20332

#Closed at: 2026-01-15 01:46:51
#Recorded file [0 MB]: D:/Data/31040_260115_043634.dat