passes_logs/2026/01/15/T1/T1__20260115_110640_SUOMI_NPP_rec.log

#Pass ID: 20260115_110640_SUOMI NPP
#Satellite: SUOMI NPP
#Configuration: NPP
#almurnet v.1.7.20251203
#Start time: 2026-01-15 11:06:40

#Version: 2.0.20230620
#Station: T1
#Location: 37.570604 lon 55.790049 lat
#TLE: 1 37849U 11061A   26014.61059675  .00000037  00000+0  38639-4 0  9994
#TLE: 2 37849  98.7810 316.6625 0002460  64.3781 295.7649 14.19525105736658

#Time	Az	El	Level	Level2	SNR	BER	BlckErr	Temp	State	Recorded	gain1	gain2
2026-01-15 11:06:40.31	195.94	4.99	-49.4	-64.9	3.8	1.49e+00	0	40	0	0	70	21293
2026-01-15 11:06:43.28	196.12	5.18	-49.4	-65.0	3.8	1.49e+00	0	40	104	0	70	21540
2026-01-15 11:06:46.26	196.31	5.38	-49.4	-65.0	3.8	1.49e+00	0	40	104	0	70	21623
2026-01-15 11:06:49.24	196.51	5.58	-49.5	-65.0	3.8	1.49e+00	0	40	104	0	70	21546
2026-01-15 11:06:52.21	196.70	5.78	-49.5	-64.8	3.8	1.49e+00	0	40	104	0	70	21127
2026-01-15 11:06:55.19	196.90	5.98	-49.4	-64.7	3.8	1.49e+00	0	41	104	0	70	20922
2026-01-15 11:06:58.17	197.10	6.18	-49.5	-64.8	3.8	1.49e+00	0	41	104	0	70	21144
2026-01-15 11:07:01.15	197.31	6.38	-49.4	-64.7	3.8	1.49e+00	0	41	104	0	70	20853
2026-01-15 11:07:04.13	197.51	6.59	-49.4	-64.2	3.8	1.49e+00	0	41	104	0	70	19649
2026-01-15 11:07:07.11	197.72	6.79	-49.4	-63.7	3.8	1.49e+00	0	41	104	0	70	18582
2026-01-15 11:07:10.09	197.94	7.00	-49.4	-63.5	3.8	1.49e+00	0	41	104	0	70	18221
2026-01-15 11:07:13.07	198.15	7.21	-49.4	-63.6	3.8	1.49e+00	0	41	104	0	70	18512
2026-01-15 11:07:16.05	198.37	7.42	-49.5	-64.5	3.8	1.49e+00	0	41	104	0	70	20364
2026-01-15 11:07:19.03	198.59	7.63	-49.4	-64.1	3.8	1.49e+00	0	41	104	0	70	19532
2026-01-15 11:07:22.01	198.82	7.84	-48.8	-57.7	6.1	4.39e-01	0	42	0	2097152	69	9929
2026-01-15 11:07:24.99	199.04	8.05	-47.4	-52.9	10.5	5.62e-03	0	42	0	7340032	66	6791
2026-01-15 11:07:27.96	199.27	8.27	-46.6	-51.1	12.4	1.56e-04	0	42	0	13631488	65	5842
2026-01-15 11:07:30.94	199.51	8.49	-46.6	-51.0	12.7	6.56e-05	0	42	0	18874368	63	6465
2026-01-15 11:07:33.92	199.74	8.70	-47.2	-52.6	11.0	8.79e-04	0	42	0	24117248	65	6883
2026-01-15 11:07:36.90	199.99	8.92	-48.2	-55.2	8.3	3.50e-02	0	42	0	30408704	66	8850
2026-01-15 11:07:39.88	200.23	9.15	-48.5	-56.9	6.7	3.22e-02	0	42	0	35651584	67	10157
2026-01-15 11:07:42.86	200.48	9.37	-49.2	-59.2	5.3	2.07e-01	0	42	0	40894464	69	11752
2026-01-15 11:07:45.84	200.73	9.59	-46.0	-51.0	11.3	4.68e-04	0	42	0	47185920	63	6471
2026-01-15 11:07:48.82	200.99	9.82	-43.3	-49.7	8.8	2.70e-02	0	42	0	52428800	58	7399
2026-01-15 11:07:51.80	201.25	10.05	-41.6	-49.1	7.0	1.16e-01	0	42	0	57671680	55	8257
2026-01-15 11:07:54.78	201.51	10.28	-47.4	-57.7	4.9	3.95e-01	0	42	0	63963136	65	12396
2026-01-15 11:07:57.76	201.78	10.51	-40.5	-51.0	4.5	1.31e+00	0	42	0	68157440	51	12851
2026-01-15 11:08:00.73	202.05	10.74	-41.9	-50.3	5.9	4.51e-01	0	42	0	73400320	54	10042
2026-01-15 11:08:03.71	202.32	10.97	-42.7	-55.2	4.0	8.50e-02	0	42	0	78643200	57	14800
2026-01-15 11:08:06.69	202.60	11.21	-46.9	-52.3	10.6	4.54e-02	0	42	0	81788928	64	7081
2026-01-15 11:08:09.67	202.89	11.45	-46.5	-51.2	12.2	2.46e-04	0	42	0	88080384	64	6226
2026-01-15 11:08:12.65	203.17	11.69	-46.6	-51.0	13.0	4.88e-05	0	42	0	93323264	64	6087
2026-01-15 11:08:15.63	203.47	11.93	-46.1	-49.8	14.3	2.20e-06	0	42	0	98566144	63	5645
2026-01-15 11:08:18.61	203.77	12.17	-45.8	-49.2	15.1	0.00e+00	0	42	0	104857600	63	5251
2026-01-15 11:08:21.59	204.07	12.41	-45.8	-49.2	15.1	0.00e+00	0	42	0	110100480	63	5256
2026-01-15 11:08:24.57	204.38	12.66	-45.5	-48.8	15.3	0.00e+00	0	42	0	115343360	62	5337
2026-01-15 11:08:27.55	204.69	12.91	-45.4	-48.5	15.8	0.00e+00	0	42	0	120586240	62	5121
2026-01-15 11:08:30.52	205.01	13.16	-45.3	-48.3	16.0	0.00e+00	0	42	0	126877696	62	5013
2026-01-15 11:08:33.50	205.33	13.41	-45.1	-48.0	16.2	0.00e+00	0	43	0	132120576	62	4870
2026-01-15 11:08:36.48	205.66	13.66	-45.2	-48.2	16.1	0.00e+00	0	42	0	137363456	62	4927
2026-01-15 11:08:39.46	205.99	13.92	-45.4	-48.5	15.9	0.00e+00	0	43	0	143654912	62	5109
2026-01-15 11:08:42.44	206.33	14.17	-45.6	-48.7	15.7	0.00e+00	0	42	0	148897792	62	5261
2026-01-15 11:08:45.42	206.68	14.43	-45.6	-48.8	15.8	7.00e-07	0	42	0	154140672	62	5295
2026-01-15 11:08:48.40	207.03	14.69	-45.6	-48.7	15.9	0.00e+00	0	42	0	160432128	62	5221
2026-01-15 11:08:51.38	207.38	14.96	-45.2	-48.1	16.3	0.00e+00	0	43	0	165675008	62	4889
2026-01-15 11:08:54.36	207.75	15.22	-45.1	-47.9	16.5	0.00e+00	0	42	0	170917888	61	5055
2026-01-15 11:08:57.34	208.12	15.49	-45.2	-48.1	16.3	0.00e+00	0	43	0	177209344	61	5185
2026-01-15 11:09:00.31	208.49	15.75	-45.4	-48.4	16.1	0.00e+00	0	42	0	182452224	61	5364
2026-01-15 11:09:03.29	208.88	16.02	-45.5	-48.6	15.9	0.00e+00	0	42	0	187695104	62	5165
2026-01-15 11:09:06.27	209.26	16.29	-45.7	-48.8	15.8	0.00e+00	0	43	0	193986560	62	5281
2026-01-15 11:09:09.25	209.66	16.57	-45.9	-49.0	15.5	0.00e+00	0	43	0	199229440	62	5462
2026-01-15 11:09:12.23	210.06	16.84	-45.8	-49.0	15.6	0.00e+00	0	42	0	204472320	62	5403
2026-01-15 11:09:15.21	210.48	17.12	-45.7	-48.7	15.8	0.00e+00	0	43	0	210763776	62	5265
2026-01-15 11:09:18.19	210.89	17.40	-45.7	-48.8	15.8	0.00e+00	0	43	0	216006656	62	5293
2026-01-15 11:09:21.17	211.32	17.68	-45.8	-48.9	15.7	0.00e+00	0	43	0	221249536	62	5350
2026-01-15 11:09:24.15	211.75	17.96	-46.0	-49.2	15.4	0.00e+00	0	43	0	227540992	62	5591
2026-01-15 11:09:27.13	212.19	18.24	-46.0	-49.2	15.4	0.00e+00	0	43	0	232783872	62	5582
2026-01-15 11:09:30.10	212.64	18.53	-45.8	-48.9	15.6	0.00e+00	0	42	0	238026752	62	5398
2026-01-15 11:09:33.08	213.10	18.81	-46.0	-49.2	15.4	0.00e+00	0	42	0	244318208	62	5543
2026-01-15 11:09:36.06	213.57	19.10	-45.9	-49.0	15.6	0.00e+00	0	43	0	249561088	62	5463
2026-01-15 11:09:39.04	214.04	19.39	-46.1	-49.4	15.3	0.00e+00	0	43	0	254803968	62	5667
2026-01-15 11:09:42.02	214.52	19.68	-46.1	-49.4	15.2	0.00e+00	0	43	0	261095424	62	5713
2026-01-15 11:09:45.00	215.02	19.98	-46.3	-49.7	15.0	0.00e+00	0	43	0	266338304	63	5569
2026-01-15 11:09:47.98	215.52	20.27	-46.5	-49.9	14.8	0.00e+00	0	43	0	271581184	63	5683
2026-01-15 11:09:50.95	216.03	20.56	-46.3	-49.6	15.1	0.00e+00	0	43	0	277872640	63	5487
2026-01-15 11:09:53.93	216.55	20.86	-45.7	-48.7	16.0	0.00e+00	0	43	0	283115520	63	4941
2026-01-15 11:09:56.91	217.08	21.16	-45.4	-48.3	16.3	0.00e+00	0	43	0	288358400	62	5007
2026-01-15 11:09:59.89	217.62	21.46	-45.5	-48.5	16.2	0.00e+00	0	43	0	294649856	62	5123
2026-01-15 11:10:02.87	218.17	21.76	-45.0	-47.8	16.9	0.00e+00	0	43	0	299892736	62	4724
2026-01-15 11:10:05.85	218.74	22.06	-44.5	-47.1	17.5	0.00e+00	0	43	0	305135616	60	4906
2026-01-15 11:10:08.82	219.31	22.36	-44.2	-46.7	17.8	0.00e+00	0	43	0	311427072	60	4704
2026-01-15 11:10:11.80	219.89	22.66	-44.5	-47.0	17.6	0.00e+00	0	42	0	316669952	60	4839
2026-01-15 11:10:14.78	220.48	22.96	-44.6	-47.2	17.4	0.00e+00	0	43	0	321912832	60	4954
2026-01-15 11:10:17.76	221.09	23.26	-44.9	-47.5	17.1	0.00e+00	0	43	0	328204288	60	5147
2026-01-15 11:10:20.74	221.71	23.57	-44.9	-47.6	17.2	0.00e+00	0	43	0	333447168	60	5170
2026-01-15 11:10:23.72	222.34	23.87	-44.9	-47.5	17.2	0.00e+00	0	43	0	338690048	60	5138
2026-01-15 11:10:26.69	222.98	24.17	-44.8	-47.4	17.3	0.00e+00	0	43	0	343932928	60	5056
2026-01-15 11:10:29.67	223.63	24.47	-44.6	-47.2	17.5	0.00e+00	0	43	0	350224384	60	4960
2026-01-15 11:10:32.65	224.30	24.78	-44.8	-47.4	17.3	0.00e+00	0	43	0	355467264	60	5072
2026-01-15 11:10:35.63	224.98	25.08	-45.1	-47.7	17.1	0.00e+00	0	43	0	360710144	60	5270
2026-01-15 11:10:38.61	225.67	25.38	-45.1	-47.8	17.1	0.00e+00	0	43	0	367001600	60	5283
2026-01-15 11:10:41.59	226.37	25.68	-44.9	-47.6	17.3	0.00e+00	0	43	0	372244480	60	5165
2026-01-15 11:10:44.57	227.09	25.98	-45.0	-47.6	17.3	0.00e+00	0	43	0	377487360	60	5162
2026-01-15 11:10:47.55	227.82	26.27	-45.3	-48.0	17.0	0.00e+00	0	43	0	383778816	61	5112
2026-01-15 11:10:50.53	228.56	26.57	-45.2	-47.8	17.1	0.00e+00	0	43	0	389021696	61	5031
2026-01-15 11:10:53.51	229.32	26.86	-45.6	-48.4	16.5	0.00e+00	0	43	0	394264576	61	5395
2026-01-15 11:10:56.48	230.09	27.15	-46.1	-49.1	16.0	0.00e+00	0	43	0	400556032	62	5481
2026-01-15 11:10:59.46	230.88	27.44	-46.3	-49.4	15.7	0.00e+00	0	43	0	405798912	63	5374
2026-01-15 11:11:02.44	231.67	27.73	-46.7	-50.1	15.0	0.00e+00	0	43	0	411041792	64	5467
2026-01-15 11:11:05.42	232.49	28.01	-46.8	-50.3	14.8	0.00e+00	0	43	0	417333248	64	5608
2026-01-15 11:11:08.40	233.32	28.29	-47.0	-50.6	14.5	0.00e+00	0	43	0	422576128	64	5794
2026-01-15 11:11:11.38	234.16	28.57	-47.5	-51.3	13.9	3.00e-06	0	43	0	427819008	65	5929
2026-01-15 11:11:14.36	235.01	28.84	-47.6	-51.4	13.7	5.30e-06	0	43	0	434110464	66	5697
2026-01-15 11:11:17.33	235.88	29.10	-47.6	-51.5	13.6	3.00e-06	0	43	0	439353344	66	5754
2026-01-15 11:11:20.31	236.76	29.37	-47.6	-51.5	13.6	9.90e-06	0	43	0	444596224	66	5748
2026-01-15 11:11:23.29	237.66	29.63	-48.2	-52.5	12.5	6.48e-05	0	43	0	450887680	67	6129
2026-01-15 11:11:26.27	238.57	29.88	-48.6	-53.1	12.1	2.00e-04	0	43	0	456130560	68	6187
2026-01-15 11:11:29.25	239.50	30.12	-48.1	-52.2	13.1	3.58e-05	0	43	0	461373440	68	5553
2026-01-15 11:11:32.23	240.44	30.37	-48.3	-52.5	12.8	9.23e-05	0	43	0	467664896	68	5772
2026-01-15 11:11:35.21	241.39	30.60	-49.0	-53.9	11.4	3.90e-04	0	43	0	472907776	68	6745
2026-01-15 11:11:38.19	242.36	30.83	-47.8	-51.7	13.3	5.72e-05	0	43	0	478150656	67	5562
2026-01-15 11:11:41.17	243.34	31.05	-47.6	-51.4	13.8	3.00e-06	0	43	0	484442112	66	5678
2026-01-15 11:11:44.14	244.33	31.26	-48.0	-52.1	13.0	5.87e-05	0	43	0	489684992	66	6202
2026-01-15 11:11:47.12	245.34	31.46	-47.5	-51.3	13.8	1.98e-05	0	43	0	494927872	67	5309
2026-01-15 11:11:50.10	246.36	31.66	-46.5	-49.7	15.3	0.00e+00	0	43	0	501219328	64	5235
2026-01-15 11:11:53.08	247.39	31.85	-47.7	-51.7	13.4	1.14e-05	0	43	0	506462208	66	5911
2026-01-15 11:11:56.06	248.43	32.03	-47.6	-51.5	13.6	1.22e-05	0	43	0	511705088	66	5731
2026-01-15 11:11:59.04	249.48	32.19	-46.7	-50.0	15.0	0.00e+00	0	43	0	517996544	65	5134
2026-01-15 11:12:02.02	250.54	32.35	-46.4	-49.6	15.5	0.00e+00	0	43	0	523239424	63	5486
2026-01-15 11:12:05.00	251.62	32.50	-47.8	-51.7	13.3	2.59e-05	0	43	0	528482304	66	5921
2026-01-15 11:12:07.97	252.69	32.64	-47.7	-51.6	13.4	3.80e-06	0	43	0	534773760	66	5832
2026-01-15 11:12:10.95	253.78	32.77	-47.4	-51.2	13.8	3.80e-06	0	43	0	540016640	66	5551
2026-01-15 11:12:13.93	254.88	32.89	-47.9	-52.0	13.0	3.35e-05	0	43	0	545259520	66	6091
2026-01-15 11:12:16.91	255.99	32.99	-49.1	-54.7	10.5	3.78e-03	0	43	0	551550976	69	6992
2026-01-15 11:12:19.89	257.10	33.09	-48.2	-52.6	12.6	3.91e-04	0	43	0	556793856	68	5838
2026-01-15 11:12:22.87	258.22	33.17	-47.5	-51.4	13.6	1.29e-05	0	43	0	562036736	67	5368
2026-01-15 11:12:25.85	259.35	33.25	-47.5	-51.3	13.7	5.30e-06	0	43	0	568328192	66	5610
2026-01-15 11:12:28.82	260.47	33.30	-47.5	-51.4	13.6	1.06e-05	0	43	0	573571072	66	5705
2026-01-15 11:12:31.80	261.60	33.35	-46.9	-50.3	14.7	7.00e-07	0	43	0	578813952	65	5340
2026-01-15 11:12:34.78	262.74	33.39	-47.1	-50.6	14.3	7.00e-07	0	43	0	585105408	65	5528
2026-01-15 11:12:37.76	263.88	33.41	-47.6	-51.6	13.5	1.83e-05	0	43	0	590348288	66	5797
2026-01-15 11:12:40.74	265.01	33.42	-47.8	-51.7	13.2	1.98e-05	0	43	0	595591168	66	5920
2026-01-15 11:12:43.72	266.15	33.42	-47.2	-50.8	14.1	7.00e-07	0	43	0	601882624	66	5329
2026-01-15 11:12:46.70	267.29	33.41	-47.2	-50.8	14.2	1.50e-06	0	43	0	607125504	66	5334
2026-01-15 11:12:49.68	268.42	33.38	-47.1	-50.6	14.3	7.00e-07	0	43	0	612368384	65	5495
2026-01-15 11:12:52.66	269.56	33.34	-47.8	-52.0	13.0	3.58e-05	0	43	0	618659840	66	6083
2026-01-15 11:12:55.64	270.69	33.29	-47.4	-51.2	13.8	1.06e-05	0	43	0	623902720	66	5532
2026-01-15 11:12:58.62	271.82	33.23	-45.9	-48.9	16.0	0.00e+00	0	43	0	629145600	63	5079
2026-01-15 11:13:01.59	272.93	33.15	-45.6	-48.5	16.4	0.00e+00	0	43	0	634388480	62	5117
2026-01-15 11:13:04.57	274.05	33.07	-46.6	-50.0	14.9	0.00e+00	0	43	0	640679936	64	5454
2026-01-15 11:13:07.55	275.16	32.97	-47.5	-51.5	13.4	2.20e-06	0	43	0	645922816	65	6116
2026-01-15 11:13:10.53	276.26	32.86	-46.6	-50.0	14.9	7.00e-07	0	43	0	651165696	65	5130
2026-01-15 11:13:13.51	277.36	32.74	-46.8	-50.3	14.7	0.00e+00	0	43	0	657457152	64	5614
2026-01-15 11:13:16.49	278.44	32.61	-46.3	-49.5	15.3	0.00e+00	0	43	0	662700032	64	5154
2026-01-15 11:13:19.47	279.52	32.47	-46.5	-49.9	15.0	0.00e+00	0	43	0	667942912	64	5344
2026-01-15 11:13:22.45	280.59	32.32	-46.0	-49.0	15.9	0.00e+00	0	43	0	674234368	63	5125
2026-01-15 11:13:25.43	281.65	32.16	-47.5	-51.4	13.5	7.00e-07	0	43	0	679477248	65	6020
2026-01-15 11:13:28.41	282.70	31.99	-47.1	-50.7	14.3	3.80e-06	0	43	0	684720128	66	5223
2026-01-15 11:13:31.38	283.73	31.81	-47.1	-50.8	14.2	0.00e+00	0	43	0	691011584	65	5615
2026-01-15 11:13:34.36	284.75	31.62	-46.2	-49.3	15.6	0.00e+00	0	43	0	696254464	64	5022
2026-01-15 11:13:37.34	285.77	31.42	-46.5	-49.6	15.4	0.00e+00	0	43	0	701497344	63	5510
2026-01-15 11:13:40.32	286.77	31.21	-46.3	-49.6	15.3	7.00e-07	0	43	0	707788800	64	5161
2026-01-15 11:13:43.30	287.75	31.00	-46.1	-49.1	15.9	0.00e+00	0	43	0	713031680	63	5186
2026-01-15 11:13:46.28	288.73	30.78	-45.9	-48.8	16.0	0.00e+00	0	43	0	718274560	63	5036
2026-01-15 11:13:49.26	289.69	30.55	-45.8	-48.7	16.2	0.00e+00	0	43	0	724566016	62	5265
2026-01-15 11:13:52.24	290.63	30.32	-46.5	-49.8	15.2	0.00e+00	0	43	0	729808896	63	5607
2026-01-15 11:13:55.22	291.57	30.08	-45.7	-48.6	16.3	0.00e+00	0	43	0	735051776	63	4905
2026-01-15 11:13:58.19	292.49	29.83	-46.5	-49.8	15.1	0.00e+00	0	43	0	741343232	64	5328
2026-01-15 11:14:01.17	293.39	29.58	-46.4	-49.7	15.3	0.00e+00	0	43	0	746586112	64	5219
2026-01-15 11:14:04.15	294.28	29.32	-47.0	-50.5	14.5	0.00e+00	0	43	0	751828992	64	5754
2026-01-15 11:14:07.13	295.16	29.06	-47.3	-51.1	14.0	0.00e+00	0	43	0	758120448	65	5807
2026-01-15 11:14:10.11	296.02	28.79	-46.6	-49.9	15.0	7.00e-07	0	43	0	763363328	65	5097
2026-01-15 11:14:13.09	296.87	28.52	-47.5	-51.3	13.7	5.30e-06	0	43	0	768606208	65	5989
2026-01-15 11:14:16.07	297.71	28.25	-47.9	-52.2	12.7	1.20e-04	0	43	0	774897664	67	5903
2026-01-15 11:14:19.05	298.53	27.97	-47.5	-51.5	13.5	1.52e-05	0	43	0	780140544	67	5418
2026-01-15 11:14:22.03	299.34	27.69	-47.3	-51.3	13.7	2.20e-06	0	43	0	785383424	66	5615
2026-01-15 11:14:25.01	300.13	27.40	-47.7	-51.9	13.0	2.59e-05	0	43	0	791674880	66	6052
2026-01-15 11:14:27.98	300.91	27.11	-48.2	-52.9	12.1	1.38e-04	0	43	0	796917760	67	6374
2026-01-15 11:14:30.96	301.67	26.82	-47.8	-52.1	12.9	2.19e-04	0	43	0	802160640	67	5795
2026-01-15 11:14:33.94	302.42	26.53	-47.1	-50.7	14.2	0.00e+00	0	43	0	808452096	65	5574
2026-01-15 11:14:36.92	303.16	26.24	-48.6	-53.6	11.5	4.36e-04	0	43	0	813694976	67	6891
2026-01-15 11:14:39.90	303.89	25.94	-47.4	-51.1	13.7	1.14e-05	0	43	0	818937856	66	5521
2026-01-15 11:14:42.88	304.60	25.65	-47.5	-51.3	13.6	6.80e-06	0	43	0	825229312	66	5603
2026-01-15 11:14:45.86	305.30	25.35	-48.3	-52.9	12.0	7.03e-04	0	43	0	830472192	67	6359
2026-01-15 11:14:48.83	305.98	25.05	-47.5	-51.5	13.4	8.30e-06	0	43	0	835715072	66	5749
2026-01-15 11:14:51.81	306.65	24.75	-47.2	-50.9	14.0	1.50e-06	0	43	0	842006528	65	5679
2026-01-15 11:14:54.79	307.31	24.45	-47.5	-51.5	13.4	1.60e-05	0	43	0	847249408	66	5753
2026-01-15 11:14:57.77	307.96	24.15	-46.4	-49.7	15.2	0.00e+00	0	43	0	852492288	64	5219
2026-01-15 11:15:00.75	308.60	23.85	-47.0	-50.8	14.1	1.50e-06	0	43	0	858783744	64	5933
2026-01-15 11:15:03.73	309.22	23.55	-46.1	-49.4	15.4	0.00e+00	0	43	0	864026624	64	5061
2026-01-15 11:15:06.71	309.84	23.25	-46.2	-49.4	15.5	0.00e+00	0	43	0	869269504	63	5395
2026-01-15 11:15:09.69	310.44	22.95	-47.0	-50.8	14.0	7.00e-07	0	43	0	875560960	64	5985
2026-01-15 11:15:12.67	311.03	22.65	-46.7	-50.3	14.5	1.50e-06	0	43	0	880803840	64	5623
2026-01-15 11:15:15.64	311.61	22.35	-46.4	-49.8	15.0	0.00e+00	0	43	0	886046720	64	5315
2026-01-15 11:15:18.62	312.18	22.05	-46.6	-50.1	14.8	7.00e-07	0	43	0	892338176	64	5505
2026-01-15 11:15:21.60	312.73	21.76	-46.1	-49.4	15.4	0.00e+00	0	43	0	897581056	64	5072
2026-01-15 11:15:24.58	313.28	21.46	-45.7	-48.7	16.1	0.00e+00	0	43	0	902823936	63	4981
2026-01-15 11:15:27.56	313.82	21.16	-46.3	-49.7	15.3	0.00e+00	0	43	0	909115392	63	5555
2026-01-15 11:15:30.54	314.35	20.87	-46.0	-49.1	15.7	0.00e+00	0	43	0	914358272	63	5212
2026-01-15 11:15:33.52	314.86	20.57	-45.1	-47.9	16.8	0.00e+00	0	43	0	919601152	62	4799
2026-01-15 11:15:36.50	315.37	20.28	-45.1	-47.9	16.8	0.00e+00	0	43	0	924844032	62	4792
2026-01-15 11:15:39.48	315.87	19.99	-45.9	-48.9	15.9	0.00e+00	0	43	0	931135488	62	5397
2026-01-15 11:15:42.45	316.36	19.70	-45.7	-48.8	16.1	0.00e+00	0	43	0	936378368	62	5280
2026-01-15 11:15:45.43	316.84	19.41	-45.5	-48.4	16.4	0.00e+00	0	43	0	941621248	62	5091
2026-01-15 11:15:48.41	317.31	19.13	-45.4	-48.3	16.4	0.00e+00	0	43	0	947912704	62	5034
2026-01-15 11:15:51.39	317.78	18.84	-45.4	-48.5	16.3	0.00e+00	0	43	0	953155584	62	5134
2026-01-15 11:15:54.37	318.23	18.56	-45.3	-48.3	16.5	0.00e+00	0	43	0	958398464	62	5030
2026-01-15 11:15:57.35	318.68	18.27	-45.0	-47.9	16.9	0.00e+00	0	43	0	964689920	61	5099
2026-01-15 11:16:00.33	319.12	17.99	-45.1	-48.0	16.8	0.00e+00	0	43	0	969932800	61	5108
2026-01-15 11:16:03.30	319.55	17.72	-45.2	-48.0	16.8	0.00e+00	0	43	0	975175680	61	5137
2026-01-15 11:16:06.28	319.97	17.44	-45.4	-48.3	16.5	0.00e+00	0	43	0	981467136	61	5333
2026-01-15 11:16:09.26	320.39	17.16	-45.2	-48.1	16.8	0.00e+00	0	43	0	986710016	61	5170
2026-01-15 11:16:12.24	320.80	16.89	-44.7	-47.3	17.4	0.00e+00	0	43	0	991952896	61	4758
2026-01-15 11:16:15.22	321.20	16.62	-44.9	-47.6	17.2	0.00e+00	0	43	0	998244352	61	4901
2026-01-15 11:16:18.20	321.59	16.35	-45.6	-48.7	16.2	0.00e+00	0	43	0	1003487232	61	5552
2026-01-15 11:16:21.18	321.98	16.08	-46.3	-49.7	15.3	0.00e+00	0	43	0	1008730112	63	5570
2026-01-15 11:16:24.16	322.36	15.81	-46.4	-49.8	15.2	0.00e+00	0	43	0	1015021568	63	5632
2026-01-15 11:16:27.14	322.74	15.54	-46.2	-49.4	15.6	0.00e+00	0	43	0	1020264448	63	5352
2026-01-15 11:16:30.12	323.11	15.28	-46.0	-49.0	15.9	0.00e+00	0	43	0	1025507328	63	5140
2026-01-15 11:16:33.09	323.47	15.02	-46.1	-49.1	15.8	0.00e+00	0	43	0	1031798784	63	5191
2026-01-15 11:16:36.07	323.82	14.76	-46.3	-49.6	15.4	0.00e+00	0	43	0	1037041664	63	5477
2026-01-15 11:16:39.05	324.17	14.50	-46.4	-50.1	14.8	7.00e-07	0	43	0	1042284544	64	5474
2026-01-15 11:16:42.03	324.52	14.25	-46.2	-50.4	14.5	7.00e-07	0	43	0	1048576000	64	5670
2026-01-15 11:16:45.01	324.86	13.99	-46.2	-50.3	14.5	0.00e+00	0	43	0	1053818880	64	5633
2026-01-15 11:16:47.99	325.19	13.74	-46.6	-50.7	14.1	1.50e-06	0	43	0	1059061760	64	5903
2026-01-15 11:16:50.97	325.52	13.49	-46.4	-50.5	14.2	2.20e-06	0	43	0	1065353216	64	5765
2026-01-15 11:16:53.95	325.84	13.24	-46.2	-50.1	14.6	7.00e-07	0	43	0	1070596096	64	5492
2026-01-15 11:16:56.93	326.16	12.99	-46.0	-49.4	15.3	0.00e+00	0	43	0	1075838976	63	5395
2026-01-15 11:16:59.91	326.47	12.75	-45.7	-48.9	15.8	0.00e+00	0	43	0	1082130432	63	5073
2026-01-15 11:17:02.89	326.78	12.50	-45.4	-48.5	16.2	0.00e+00	0	43	0	1087373312	62	5114
2026-01-15 11:17:05.87	327.08	12.26	-45.4	-48.5	16.1	0.00e+00	0	43	0	1092616192	62	5132
2026-01-15 11:17:08.85	327.38	12.02	-45.5	-48.7	15.9	0.00e+00	0	43	0	1098907648	62	5246
2026-01-15 11:17:11.82	327.67	11.78	-46.0	-49.3	15.4	0.00e+00	0	43	0	1104150528	62	5605
2026-01-15 11:17:14.80	327.96	11.54	-46.3	-49.9	14.7	7.00e-07	0	43	0	1109393408	63	5685
2026-01-15 11:17:17.78	328.25	11.31	-46.5	-50.2	14.3	7.00e-07	0	43	0	1115684864	63	5921
2026-01-15 11:17:20.76	328.53	11.07	-46.5	-50.2	14.4	7.00e-07	0	43	0	1120927744	63	5875
2026-01-15 11:17:23.74	328.80	10.84	-46.2	-49.7	14.8	0.00e+00	0	43	0	1126170624	63	5572
2026-01-15 11:17:26.72	329.08	10.61	-46.1	-49.6	14.9	0.00e+00	0	43	0	1132462080	63	5487
2026-01-15 11:17:29.70	329.34	10.38	-45.9	-49.4	15.1	7.00e-07	0	43	0	1137704960	63	5359
2026-01-15 11:17:32.66	329.61	10.16	-46.0	-49.6	14.9	0.00e+00	0	43	0	1142947840	63	5518
2026-01-15 11:17:35.64	329.87	9.93	-46.2	-49.8	14.7	0.00e+00	0	43	0	1148190720	63	5598
2026-01-15 11:17:38.62	330.12	9.71	-46.4	-50.1	14.4	0.00e+00	0	43	0	1154482176	63	5802
2026-01-15 11:17:41.60	330.38	9.49	-46.5	-50.1	14.3	2.20e-06	0	43	0	1159725056	63	5835
2026-01-15 11:17:44.58	330.62	9.26	-46.3	-50.0	14.5	0.00e+00	0	43	0	1164967936	63	5733
2026-01-15 11:17:47.55	330.87	9.05	-45.8	-49.2	15.2	0.00e+00	0	43	0	1171259392	63	5252
2026-01-15 11:17:50.53	331.11	8.83	-50.4	-66.0	3.8	1.49e+00	0	43	104	1173356544	71	22906
2026-01-15 11:17:53.51	331.35	8.61	-50.6	-66.3	3.8	1.49e+00	0	43	104	1173356544	72	22373
2026-01-15 11:17:56.49	331.59	8.40	-50.8	-66.4	3.8	1.49e+00	0	43	104	1173356544	72	22696
2026-01-15 11:17:59.47	331.82	8.18	-51.2	-66.5	3.8	1.49e+00	0	43	104	1173356544	73	21543
2026-01-15 11:18:02.45	332.05	7.97	-51.3	-66.5	3.8	1.49e+00	0	43	104	1173356544	73	21527
2026-01-15 11:18:05.43	332.27	7.76	-51.4	-66.5	3.8	1.49e+00	0	43	104	1173356544	73	21695
2026-01-15 11:18:08.40	332.50	7.55	-51.3	-66.5	3.8	1.49e+00	0	43	104	1173356544	73	21588
2026-01-15 11:18:11.38	332.72	7.34	-51.1	-66.5	3.8	1.49e+00	0	43	104	1173356544	73	21558
2026-01-15 11:18:14.36	332.93	7.14	-51.0	-66.5	3.8	1.49e+00	0	43	104	1173356544	73	21538
2026-01-15 11:18:17.34	333.15	6.93	-51.0	-66.4	3.8	1.49e+00	0	43	104	1173356544	73	21457
2026-01-15 11:18:20.32	333.36	6.73	-51.0	-66.4	3.8	1.49e+00	0	43	104	1173356544	73	21501
2026-01-15 11:18:23.30	333.57	6.53	-51.0	-66.4	3.8	1.49e+00	0	43	104	1173356544	73	21467
2026-01-15 11:18:26.28	333.77	6.32	-51.0	-66.4	3.8	1.49e+00	0	43	104	1173356544	73	21467
2026-01-15 11:18:29.26	333.98	6.12	-51.0	-66.4	3.8	1.49e+00	0	43	104	1173356544	73	21500
2026-01-15 11:18:32.24	334.18	5.93	-51.0	-66.4	3.8	1.49e+00	0	43	104	1173356544	73	21489
2026-01-15 11:18:35.22	334.38	5.73	-51.0	-66.4	3.8	1.49e+00	0	43	104	1173356544	73	21487
2026-01-15 11:18:38.20	334.57	5.53	-51.0	-66.4	3.8	1.49e+00	0	43	104	1173356544	73	21502
2026-01-15 11:18:41.17	334.76	5.34	-51.0	-66.4	3.8	1.49e+00	0	43	104	1173356544	73	21497
2026-01-15 11:18:44.15	334.95	5.14	-51.0	-66.4	3.8	1.49e+00	0	43	104	1173356544	73	21490
2026-01-15 11:18:47.13	335.14	4.95	-51.0	-66.4	3.8	1.49e+00	0	43	104	1173356544	73	21443

#Closed at: 2026-01-15 11:18:48
#Recorded file [1173 MB]: D:/Data/31040_260115_140640.dat