passes_logs/2026/01/15/T1/T1__20260115_054001_FENGYUN_3E_rec.log

#Pass ID: 20260115_054001_FENGYUN 3E
#Satellite: FENGYUN 3E
#Configuration: FENGYUN 3E
#almurnet v.1.7.20251203
#Start time: 2026-01-15 05:40:03

#Version: 2.0.20230620
#Station: T1
#Location: 37.570604 lon 55.790049 lat
#TLE: 1 49008U 21062A   26014.30102361 -.00000015  00000+0  13743-4 0  9999
#TLE: 2 49008  98.7489  19.4380 0001989 137.7844 222.3486 14.19884630234745

#Time	Az	El	Level	Level2	SNR	BER	BlckErr	Temp	State	Recorded	gain1	gain2
2026-01-15 05:40:03.25	6.26	5.07	-49.3	-61.6	3.8	8.47e-01	0	40	0	0	69	14529
2026-01-15 05:40:06.22	6.02	5.25	-49.1	-61.2	3.8	8.47e-01	0	40	104	0	68	14664
2026-01-15 05:40:09.20	5.77	5.43	-49.1	-61.3	3.8	8.48e-01	0	41	104	0	68	14729
2026-01-15 05:40:12.18	5.52	5.61	-49.1	-61.2	3.8	8.46e-01	0	41	104	0	68	14693
2026-01-15 05:40:15.16	5.27	5.79	-49.2	-61.3	3.8	8.47e-01	0	41	104	0	68	14813
2026-01-15 05:40:18.14	5.01	5.97	-49.1	-61.4	3.8	8.47e-01	0	41	104	0	68	14907
2026-01-15 05:40:21.12	4.75	6.15	-49.1	-61.3	3.8	8.48e-01	0	41	104	0	68	14816
2026-01-15 05:40:24.10	4.49	6.34	-49.1	-61.2	3.8	8.48e-01	0	41	104	0	68	14609
2026-01-15 05:40:27.08	4.22	6.52	-48.9	-61.2	3.8	8.47e-01	0	41	104	0	68	14616
2026-01-15 05:40:30.06	3.95	6.71	-49.1	-61.4	3.8	8.48e-01	0	41	104	0	68	14919
2026-01-15 05:40:33.04	3.68	6.89	-49.2	-61.5	3.8	8.46e-01	0	41	104	0	68	15162
2026-01-15 05:40:36.02	3.40	7.08	-49.1	-61.2	3.8	8.47e-01	0	42	104	0	68	14572
2026-01-15 05:40:39.00	3.12	7.27	-49.1	-60.6	3.8	8.46e-01	0	42	104	0	68	13721
2026-01-15 05:40:41.98	2.83	7.46	-49.0	-59.8	3.8	8.46e-01	0	42	104	0	68	12398
2026-01-15 05:40:44.96	2.54	7.65	-48.9	-59.1	4.0	8.45e-01	0	42	104	0	68	11451
2026-01-15 05:40:47.93	2.25	7.83	-49.1	-60.8	3.8	8.47e-01	0	42	104	0	68	13999
2026-01-15 05:40:50.92	1.95	8.03	-49.0	-59.8	3.8	8.45e-01	0	42	104	0	68	12477
2026-01-15 05:40:53.89	1.65	8.22	-47.9	-54.0	6.3	3.34e-01	0	42	0	3145728	66	7130
2026-01-15 05:40:56.87	1.35	8.41	-46.6	-50.4	9.9	1.40e-02	0	42	0	25165824	63	5609
2026-01-15 05:40:59.85	1.04	8.60	-45.0	-47.6	12.8	8.01e-05	0	42	0	47185920	60	4832
2026-01-15 05:41:02.83	0.72	8.79	-43.9	-46.0	14.3	1.10e-06	0	42	0	68157440	58	4524
2026-01-15 05:41:05.81	0.40	8.99	-44.6	-47.0	13.3	1.25e-05	0	42	0	90177536	58	5053
2026-01-15 05:41:08.79	0.08	9.18	-44.2	-46.2	14.1	4.34e-05	0	42	0	111149056	59	4357
2026-01-15 05:41:11.77	359.75	9.38	-43.2	-44.9	15.3	1.48e-04	0	42	0	131072000	57	4219
2026-01-15 05:41:14.76	359.42	9.57	-42.2	-43.7	16.3	0.00e+00	0	42	0	153092096	55	4136
2026-01-15 05:41:17.74	359.09	9.77	-41.7	-43.1	17.0	0.00e+00	0	42	0	174063616	54	4098
2026-01-15 05:41:20.73	358.74	9.97	-41.8	-43.2	16.9	0.00e+00	0	42	0	196083712	54	4144
2026-01-15 05:41:23.71	358.40	10.16	-41.6	-43.2	16.9	0.00e+00	0	42	0	218103808	53	4342
2026-01-15 05:41:26.69	358.05	10.36	-41.6	-43.2	17.0	0.00e+00	0	42	0	239075328	53	4349
2026-01-15 05:41:29.68	357.69	10.56	-41.7	-43.2	16.9	0.00e+00	0	43	0	261095424	53	4373
2026-01-15 05:41:32.67	357.33	10.76	-41.7	-43.2	17.0	0.00e+00	0	42	0	282066944	53	4358
2026-01-15 05:41:35.65	356.96	10.96	-41.6	-43.1	17.1	0.00e+00	0	43	0	304087040	53	4334
2026-01-15 05:41:38.63	356.59	11.16	-41.5	-43.1	17.1	0.00e+00	0	42	0	325058560	53	4303
2026-01-15 05:41:41.62	356.21	11.36	-41.4	-42.9	17.2	0.00e+00	0	43	0	347078656	53	4231
2026-01-15 05:41:44.61	355.83	11.56	-41.3	-42.8	17.4	0.00e+00	0	42	0	369098752	53	4190
2026-01-15 05:41:47.59	355.45	11.76	-41.4	-43.0	17.2	0.00e+00	0	42	0	390070272	53	4270
2026-01-15 05:41:50.58	355.05	11.96	-41.2	-42.9	17.4	0.00e+00	0	42	0	412090368	53	4197
2026-01-15 05:41:53.56	354.65	12.16	-41.1	-42.7	17.6	0.00e+00	0	42	0	433061888	52	4363
2026-01-15 05:41:56.55	354.25	12.37	-40.9	-42.4	17.8	0.00e+00	0	43	0	455081984	52	4231
2026-01-15 05:41:59.53	353.84	12.57	-41.0	-42.4	17.8	0.00e+00	0	43	0	476053504	52	4228
2026-01-15 05:42:02.49	353.43	12.77	-41.1	-42.5	17.7	0.00e+00	0	43	0	498073600	52	4289
2026-01-15 05:42:05.47	353.01	12.97	-41.3	-42.8	17.5	0.00e+00	0	42	0	519045120	52	4427
2026-01-15 05:42:08.46	352.58	13.18	-41.3	-42.8	17.6	0.00e+00	0	42	0	541065216	52	4392
2026-01-15 05:42:11.44	352.14	13.38	-41.4	-42.9	17.4	0.00e+00	0	42	0	562036736	52	4460
2026-01-15 05:42:14.42	351.71	13.58	-41.3	-42.7	17.6	0.00e+00	0	43	0	584056832	52	4359
2026-01-15 05:42:17.41	351.26	13.79	-41.0	-42.3	18.0	0.00e+00	0	43	0	605028352	52	4146
2026-01-15 05:42:20.39	350.81	13.99	-40.9	-42.1	18.2	0.00e+00	0	43	0	627048448	52	4063
2026-01-15 05:42:23.37	350.35	14.19	-40.8	-42.0	18.3	0.00e+00	0	42	0	648019968	52	4025
2026-01-15 05:42:26.36	349.88	14.39	-40.9	-42.1	18.2	0.00e+00	0	43	0	670040064	52	4065
2026-01-15 05:42:29.34	349.41	14.60	-40.7	-41.9	18.4	0.00e+00	0	43	0	691011584	52	3986
2026-01-15 05:42:32.33	348.93	14.80	-40.8	-42.0	18.3	0.00e+00	0	43	0	713031680	52	4030
2026-01-15 05:42:35.31	348.45	15.00	-40.8	-42.0	18.3	0.00e+00	0	43	0	735051776	52	4051
2026-01-15 05:42:38.30	347.96	15.20	-40.8	-42.1	18.3	0.00e+00	0	43	0	756023296	52	4064
2026-01-15 05:42:41.28	347.46	15.40	-40.8	-42.0	18.3	0.00e+00	0	43	0	778043392	52	4040
2026-01-15 05:42:44.27	346.95	15.60	-40.8	-42.0	18.3	0.00e+00	0	43	0	799014912	52	4040
2026-01-15 05:42:47.25	346.44	15.80	-40.6	-41.8	18.5	0.00e+00	0	43	0	821035008	51	4192
2026-01-15 05:42:50.24	345.92	16.00	-40.4	-41.6	18.7	0.00e+00	0	43	0	842006528	51	4089
2026-01-15 05:42:53.22	345.39	16.20	-40.4	-41.6	18.8	0.00e+00	0	43	0	864026624	51	4059
2026-01-15 05:42:56.21	344.86	16.40	-40.2	-41.4	19.0	0.00e+00	0	43	0	886046720	51	3989
2026-01-15 05:42:59.19	344.32	16.59	-40.1	-41.3	19.1	0.00e+00	0	43	0	907018240	50	4167
2026-01-15 05:43:02.18	343.77	16.79	-40.2	-41.4	19.0	0.00e+00	0	43	0	929038336	50	4220
2026-01-15 05:43:05.16	343.22	16.98	-40.4	-41.5	18.9	0.00e+00	0	43	0	950009856	50	4284
2026-01-15 05:43:08.14	342.65	17.18	-40.4	-41.5	18.9	0.00e+00	0	43	0	970981376	50	4287
2026-01-15 05:43:11.13	342.08	17.37	-40.3	-41.3	19.1	0.00e+00	0	43	0	993001472	50	4174
2026-01-15 05:43:14.11	341.51	17.56	-39.9	-41.0	19.4	0.00e+00	0	43	0	1015021568	50	4016
2026-01-15 05:43:17.10	340.92	17.75	-39.8	-40.8	19.6	0.00e+00	0	43	0	1035993088	50	3929
2026-01-15 05:43:20.08	340.33	17.93	-39.6	-40.7	19.7	0.00e+00	0	43	0	1058013184	50	3869
2026-01-15 05:43:23.07	339.73	18.12	-39.8	-40.9	19.5	0.00e+00	0	43	0	1078984704	50	3968
2026-01-15 05:43:26.05	339.12	18.30	-40.0	-41.1	19.3	0.00e+00	0	43	0	1101004800	50	4066
2026-01-15 05:43:29.04	338.51	18.48	-39.9	-41.0	19.4	0.00e+00	0	43	0	1121976320	50	4023
2026-01-15 05:43:32.02	337.89	18.66	-39.9	-41.0	19.4	0.00e+00	0	42	0	1143996416	50	4042
2026-01-15 05:43:35.00	337.26	18.84	-39.6	-40.8	19.6	0.00e+00	0	43	0	1166016512	50	3914
2026-01-15 05:43:37.99	336.62	19.01	-39.6	-40.6	19.7	0.00e+00	0	43	0	1186988032	49	4095
2026-01-15 05:43:40.97	335.98	19.18	-39.7	-40.7	19.7	0.00e+00	0	43	0	1209008128	49	4104
2026-01-15 05:43:43.96	335.32	19.35	-39.8	-40.9	19.4	0.00e+00	0	43	0	1229979648	49	4235
2026-01-15 05:43:46.94	334.67	19.52	-39.9	-41.0	19.4	0.00e+00	0	43	0	1251999744	49	4282
2026-01-15 05:43:49.92	334.00	19.68	-40.0	-41.1	19.4	0.00e+00	0	43	0	1272971264	49	4292
2026-01-15 05:43:52.91	333.33	19.84	-39.6	-40.7	19.7	0.00e+00	0	43	0	1294991360	49	4126
2026-01-15 05:43:55.90	332.64	20.00	-39.5	-40.5	19.8	0.00e+00	0	42	0	1315962880	49	4029
2026-01-15 05:43:58.88	331.96	20.15	-39.2	-40.2	20.1	0.00e+00	0	43	0	1337982976	49	3898
2026-01-15 05:44:01.86	331.26	20.30	-39.3	-40.3	20.1	0.00e+00	0	43	0	1360003072	49	3914
2026-01-15 05:44:04.84	330.56	20.45	-39.3	-40.4	20.0	0.00e+00	0	43	0	1380974592	49	3965
2026-01-15 05:44:07.83	329.86	20.59	-39.4	-40.5	19.9	0.00e+00	0	43	0	1401946112	49	4013
2026-01-15 05:44:10.81	329.14	20.73	-39.4	-40.4	19.9	0.00e+00	0	42	0	1423966208	49	4001
2026-01-15 05:44:13.80	328.42	20.87	-39.4	-40.4	20.0	0.00e+00	0	42	0	1444937728	49	3973
2026-01-15 05:44:16.78	327.69	21.00	-39.2	-40.2	20.1	0.00e+00	0	43	0	1466957824	49	3893
2026-01-15 05:44:19.77	326.96	21.12	-39.1	-40.0	20.2	0.00e+00	0	43	0	1488977920	48	4051
2026-01-15 05:44:22.75	326.22	21.25	-39.1	-40.0	20.3	0.00e+00	0	42	0	1509949440	48	4038
2026-01-15 05:44:25.74	325.47	21.36	-39.1	-40.0	20.3	0.00e+00	0	43	0	1531969536	48	4048
2026-01-15 05:44:28.72	324.72	21.48	-39.2	-40.2	20.1	0.00e+00	0	42	0	1552941056	48	4130
2026-01-15 05:44:31.71	323.96	21.59	-39.2	-40.1	20.2	0.00e+00	0	42	0	1574961152	48	4094
2026-01-15 05:44:34.69	323.20	21.69	-39.1	-40.0	20.3	0.00e+00	0	42	0	1595932672	48	4048
2026-01-15 05:44:37.68	322.43	21.79	-38.8	-39.8	20.5	0.00e+00	0	42	0	1617952768	48	3926
2026-01-15 05:44:40.66	321.66	21.88	-38.8	-39.8	20.5	0.00e+00	0	43	0	1639972864	48	3915
2026-01-15 05:44:43.65	320.88	21.97	-38.7	-39.7	20.6	0.00e+00	0	42	0	1660944384	48	3897
2026-01-15 05:44:46.63	320.10	22.05	-38.8	-39.8	20.5	0.00e+00	0	42	0	1682964480	48	3922
2026-01-15 05:44:49.62	319.32	22.13	-38.9	-39.9	20.4	0.00e+00	0	43	0	1703936000	48	3987
2026-01-15 05:44:52.60	318.53	22.20	-39.0	-40.0	20.4	0.00e+00	0	42	0	1725956096	48	4006
2026-01-15 05:44:55.58	317.74	22.27	-39.1	-40.1	20.2	0.00e+00	0	42	0	1746927616	48	4066
2026-01-15 05:44:58.57	316.94	22.33	-39.0	-39.9	20.4	0.00e+00	0	42	0	1768947712	48	3996
2026-01-15 05:45:01.55	316.14	22.38	-38.9	-39.8	20.4	0.00e+00	0	42	0	1790967808	48	3956
2026-01-15 05:45:04.54	315.34	22.43	-39.0	-39.9	20.4	0.00e+00	0	42	0	1811939328	48	3991
2026-01-15 05:45:07.52	314.54	22.47	-38.9	-39.8	20.5	0.00e+00	0	43	0	1832910848	48	3935
2026-01-15 05:45:10.51	313.73	22.51	-38.8	-39.8	20.5	0.00e+00	0	42	0	1854930944	48	3921
2026-01-15 05:45:13.49	312.92	22.54	-38.8	-39.8	20.5	0.00e+00	0	42	0	1875902464	48	3941
2026-01-15 05:45:16.47	312.11	22.57	-38.9	-39.9	20.4	0.00e+00	0	42	0	1897922560	48	3969
2026-01-15 05:45:19.45	311.30	22.58	-38.9	-39.9	20.4	0.00e+00	0	42	0	1919942656	48	3964
2026-01-15 05:45:22.44	310.49	22.60	-39.0	-39.9	20.3	0.00e+00	0	42	0	1940914176	48	4001
2026-01-15 05:45:25.42	309.68	22.60	-38.9	-39.9	20.4	0.00e+00	0	43	0	1962934272	48	3965
2026-01-15 05:45:28.40	308.87	22.60	-38.7	-39.7	20.6	0.00e+00	0	42	0	1983905792	48	3876
2026-01-15 05:45:31.39	308.05	22.60	-38.7	-39.6	20.6	0.00e+00	0	42	0	2005925888	48	3865
2026-01-15 05:45:34.37	307.24	22.59	-38.6	-39.6	20.7	0.00e+00	0	43	0	2026897408	48	3836
2026-01-15 05:45:37.36	306.43	22.57	-38.8	-39.8	20.5	0.00e+00	0	42	0	2048917504	48	3915
2026-01-15 05:45:40.35	305.62	22.54	-39.0	-39.9	20.4	0.00e+00	0	42	0	2069889024	48	3991
2026-01-15 05:45:43.34	304.81	22.51	-38.8	-39.7	20.6	0.00e+00	0	42	0	2091909120	48	3894
2026-01-15 05:45:46.32	304.00	22.48	-38.9	-39.8	20.5	0.00e+00	0	42	0	2113929216	48	3932
2026-01-15 05:45:49.30	303.20	22.43	-39.1	-40.0	20.3	0.00e+00	0	42	0	2134900736	48	4037
2026-01-15 05:45:52.29	302.39	22.38	-38.9	-39.9	20.4	0.00e+00	0	42	0	2156920832	48	3968
2026-01-15 05:45:55.27	301.59	22.33	-38.9	-39.8	20.5	0.00e+00	0	42	0	2177892352	48	3942
2026-01-15 05:45:58.26	300.79	22.27	-39.0	-39.9	20.4	0.00e+00	0	42	0	2199912448	48	4004
2026-01-15 05:46:01.24	300.00	22.20	-39.1	-40.0	20.3	0.00e+00	0	42	0	2220883968	48	4036
2026-01-15 05:46:04.23	299.21	22.13	-39.1	-40.1	20.3	0.00e+00	0	42	0	2242904064	48	4053
2026-01-15 05:46:07.21	298.42	22.06	-38.9	-39.9	20.4	0.00e+00	0	42	0	2263875584	48	3963
2026-01-15 05:46:10.20	297.64	21.97	-38.9	-39.9	20.4	0.00e+00	0	43	0	2285895680	48	3975
2026-01-15 05:46:13.19	296.86	21.88	-38.9	-39.9	20.4	0.00e+00	0	42	0	2306867200	48	3963
2026-01-15 05:46:16.17	296.09	21.79	-38.9	-39.9	20.4	0.00e+00	0	42	0	2328887296	48	3966
2026-01-15 05:46:19.16	295.32	21.69	-39.0	-39.9	20.4	0.00e+00	0	42	0	2350907392	48	3984
2026-01-15 05:46:22.14	294.55	21.59	-39.0	-40.0	20.3	0.00e+00	0	42	0	2371878912	48	4021
2026-01-15 05:46:25.12	293.79	21.48	-38.8	-39.8	20.5	0.00e+00	0	42	0	2393899008	48	3931
2026-01-15 05:46:28.11	293.04	21.37	-38.8	-39.8	20.5	0.00e+00	0	42	0	2414870528	48	3930
2026-01-15 05:46:31.09	292.29	21.25	-38.9	-39.8	20.4	0.00e+00	0	42	0	2436890624	48	3954
2026-01-15 05:46:34.08	291.55	21.13	-38.8	-39.7	20.5	0.00e+00	0	42	0	2457862144	48	3907
2026-01-15 05:46:37.06	290.81	21.00	-38.8	-39.8	20.5	0.00e+00	0	42	0	2479882240	48	3923
2026-01-15 05:46:40.05	290.08	20.87	-38.9	-39.9	20.4	0.00e+00	0	42	0	2500853760	48	3968
2026-01-15 05:46:43.03	289.36	20.73	-38.7	-39.6	20.6	0.00e+00	0	42	0	2522873856	48	3863
2026-01-15 05:46:46.02	288.64	20.59	-38.6	-39.6	20.4	0.00e+00	0	42	0	2544893952	47	4054
2026-01-15 05:46:49.01	287.93	20.45	-38.7	-39.7	20.3	0.00e+00	0	42	0	2565865472	47	4119
2026-01-15 05:46:51.99	287.23	20.30	-38.8	-39.7	20.2	0.00e+00	0	42	0	2587885568	47	4140
2026-01-15 05:46:54.97	286.53	20.15	-39.0	-39.9	20.0	0.00e+00	0	42	0	2608857088	47	4238
2026-01-15 05:46:57.96	285.84	20.00	-39.1	-40.1	19.9	0.00e+00	0	42	0	2630877184	47	4295
2026-01-15 05:47:00.94	285.16	19.84	-38.9	-39.9	20.1	0.00e+00	0	42	0	2651848704	47	4207
2026-01-15 05:47:03.93	284.48	19.68	-38.9	-39.9	20.1	0.00e+00	0	42	0	2673868800	47	4194
2026-01-15 05:47:06.91	283.81	19.52	-39.1	-40.1	19.9	0.00e+00	0	43	0	2694840320	47	4292
2026-01-15 05:47:09.90	283.15	19.35	-39.2	-40.2	19.8	0.00e+00	0	42	0	2716860416	47	4346
2026-01-15 05:47:12.88	282.49	19.18	-39.1	-40.1	19.9	0.00e+00	0	42	0	2737831936	47	4316
2026-01-15 05:47:15.86	281.85	19.01	-39.1	-40.1	19.9	0.00e+00	0	42	0	2759852032	47	4305
2026-01-15 05:47:18.85	281.21	18.83	-39.4	-40.4	19.9	0.00e+00	0	42	0	2780823552	48	4195
2026-01-15 05:47:21.83	280.57	18.66	-39.6	-40.6	19.7	0.00e+00	0	42	0	2802843648	48	4311
2026-01-15 05:47:24.82	279.95	18.48	-39.6	-40.5	19.7	0.00e+00	0	42	0	2824863744	48	4291
2026-01-15 05:47:27.81	279.33	18.29	-39.6	-40.6	19.7	0.00e+00	0	42	0	2845835264	48	4319
2026-01-15 05:47:30.79	278.72	18.11	-39.7	-40.7	19.6	0.00e+00	0	42	0	2867855360	49	4133
2026-01-15 05:47:33.76	278.12	17.93	-39.7	-40.7	19.6	0.00e+00	0	42	0	2888826880	49	4099
2026-01-15 05:47:36.75	277.52	17.74	-39.5	-40.5	19.8	0.00e+00	0	42	0	2910846976	49	4026
2026-01-15 05:47:39.73	276.94	17.55	-39.6	-40.6	19.7	0.00e+00	0	42	0	2931818496	49	4054
2026-01-15 05:47:42.71	276.36	17.36	-39.8	-40.8	19.4	0.00e+00	0	42	0	2953838592	49	4190
2026-01-15 05:47:45.70	275.78	17.17	-39.8	-40.8	19.5	0.00e+00	0	42	0	2975858688	49	4170
2026-01-15 05:47:48.68	275.22	16.97	-39.9	-41.0	19.3	0.00e+00	0	42	0	2996830208	49	4253
2026-01-15 05:47:51.67	274.66	16.78	-40.0	-41.1	19.2	0.00e+00	0	42	0	3018850304	49	4301
2026-01-15 05:47:54.66	274.11	16.58	-40.1	-41.1	19.2	0.00e+00	0	42	0	3039821824	49	4331
2026-01-15 05:47:57.64	273.56	16.39	-40.0	-41.1	19.2	0.00e+00	0	42	0	3061841920	49	4310
2026-01-15 05:48:00.63	273.02	16.19	-40.0	-41.0	19.2	0.00e+00	0	42	0	3082813440	49	4285
2026-01-15 05:48:03.61	272.50	15.99	-40.1	-41.1	19.1	0.00e+00	0	42	0	3104833536	49	4331
2026-01-15 05:48:06.59	271.97	15.79	-40.1	-41.2	19.1	0.00e+00	0	42	0	3125805056	49	4358
2026-01-15 05:48:09.58	271.46	15.59	-40.2	-41.2	19.1	0.00e+00	0	42	0	3147825152	50	4135
2026-01-15 05:48:12.56	270.95	15.39	-40.2	-41.2	19.1	0.00e+00	0	42	0	3168796672	50	4134
2026-01-15 05:48:15.55	270.45	15.18	-40.3	-41.3	19.0	0.00e+00	0	42	0	3190816768	50	4192
2026-01-15 05:48:18.53	269.95	14.98	-40.5	-41.6	18.6	0.00e+00	0	42	0	3211788288	50	4319
2026-01-15 05:48:21.52	269.46	14.78	-40.6	-41.7	18.6	0.00e+00	0	42	0	3233808384	50	4376
2026-01-15 05:48:24.51	268.98	14.58	-40.6	-41.7	18.6	0.00e+00	0	42	0	3255828480	51	4130
2026-01-15 05:48:27.49	268.51	14.37	-40.8	-41.9	18.4	0.00e+00	0	42	0	3276800000	51	4206
2026-01-15 05:48:30.47	268.04	14.17	-40.8	-41.9	18.3	0.00e+00	0	42	0	3298820096	51	4238
2026-01-15 05:48:33.46	267.57	13.97	-40.8	-41.9	18.4	0.00e+00	0	42	0	3319791616	51	4229
2026-01-15 05:48:36.44	267.12	13.76	-40.7	-41.8	18.5	0.00e+00	0	42	0	3341811712	51	4159
2026-01-15 05:48:39.42	266.67	13.56	-40.6	-41.7	18.5	0.00e+00	0	42	0	3362783232	51	4138
2026-01-15 05:48:42.41	266.23	13.35	-40.7	-41.8	18.5	0.00e+00	0	42	0	3384803328	51	4148
2026-01-15 05:48:45.39	265.79	13.15	-40.7	-41.8	18.4	0.00e+00	0	42	0	3406823424	51	4177
2026-01-15 05:48:48.38	265.36	12.95	-40.7	-41.8	18.4	0.00e+00	0	42	0	3427794944	51	4177
2026-01-15 05:48:51.36	264.93	12.74	-40.7	-41.8	18.5	0.00e+00	0	42	0	3448766464	51	4152
2026-01-15 05:48:54.35	264.51	12.54	-40.9	-42.0	18.2	0.00e+00	0	42	0	3470786560	51	4264
2026-01-15 05:48:57.33	264.10	12.34	-41.1	-42.3	17.9	0.00e+00	0	42	0	3491758080	51	4417
2026-01-15 05:49:00.32	263.69	12.13	-41.3	-42.5	17.7	0.00e+00	0	42	0	3513778176	52	4258
2026-01-15 05:49:03.31	263.29	11.93	-41.1	-42.3	17.8	0.00e+00	0	42	0	3535798272	52	4177
2026-01-15 05:49:06.29	262.90	11.73	-41.1	-42.3	17.8	0.00e+00	0	42	0	3556769792	52	4163
2026-01-15 05:49:09.27	262.51	11.53	-41.1	-42.3	17.8	0.00e+00	0	42	0	3578789888	52	4184
2026-01-15 05:49:12.26	262.12	11.32	-41.3	-42.5	17.7	0.00e+00	0	42	0	3599761408	52	4251
2026-01-15 05:49:15.24	261.74	11.12	-41.4	-42.6	17.6	0.00e+00	0	42	0	3621781504	52	4295
2026-01-15 05:49:18.23	261.36	10.92	-41.2	-42.4	17.7	0.00e+00	0	42	0	3642753024	52	4231
2026-01-15 05:49:21.21	261.00	10.72	-41.1	-42.3	17.7	0.00e+00	0	42	0	3664773120	52	4184
2026-01-15 05:49:24.19	260.63	10.52	-41.3	-42.5	17.6	0.00e+00	0	42	0	3686793216	52	4281
2026-01-15 05:49:27.18	260.27	10.32	-41.6	-42.9	17.2	0.00e+00	0	42	0	3707764736	52	4460
2026-01-15 05:49:30.17	259.92	10.12	-41.7	-43.0	17.1	0.00e+00	0	42	0	3729784832	52	4522
2026-01-15 05:49:33.15	259.57	9.92	-41.6	-42.9	17.2	0.00e+00	0	42	0	3750756352	52	4453
2026-01-15 05:49:36.14	259.22	9.73	-41.5	-42.8	17.3	0.00e+00	0	42	0	3772776448	52	4422
2026-01-15 05:49:39.12	258.88	9.53	-41.5	-42.8	17.3	0.00e+00	0	42	0	3793747968	52	4402
2026-01-15 05:49:42.11	258.55	9.33	-41.9	-43.1	16.9	0.00e+00	0	42	0	3815768064	53	4331
2026-01-15 05:49:45.09	258.22	9.14	-42.2	-43.6	16.5	0.00e+00	0	42	0	3837788160	53	4557
2026-01-15 05:49:48.07	257.89	8.94	-49.9	-57.9	4.0	8.08e-01	0	42	104	3856662528	69	9435
2026-01-15 05:49:51.05	257.57	8.75	-51.1	-62.0	3.8	8.47e-01	0	42	104	3856662528	71	13429
2026-01-15 05:49:54.03	257.25	8.55	-51.3	-62.1	3.8	8.47e-01	0	42	104	3856662528	72	12957
2026-01-15 05:49:57.01	256.94	8.36	-51.4	-62.2	3.8	8.47e-01	0	42	104	3856662528	72	12995
2026-01-15 05:49:59.99	256.63	8.17	-51.3	-62.3	3.8	8.47e-01	0	42	104	3856662528	72	13122
2026-01-15 05:50:02.97	256.33	7.98	-51.3	-62.2	3.8	8.47e-01	0	42	104	3856662528	72	13042
2026-01-15 05:50:05.95	256.03	7.78	-51.4	-62.3	3.8	8.46e-01	0	42	104	3856662528	72	13125
2026-01-15 05:50:08.93	255.73	7.59	-51.2	-62.2	3.8	8.48e-01	0	42	104	3856662528	72	13001
2026-01-15 05:50:11.91	255.44	7.41	-51.2	-62.2	3.8	8.47e-01	0	42	104	3856662528	72	13009
2026-01-15 05:50:14.88	255.15	7.22	-51.1	-62.1	3.8	8.47e-01	0	42	104	3856662528	72	12955
2026-01-15 05:50:17.86	254.86	7.03	-51.1	-62.1	3.8	8.47e-01	0	42	104	3856662528	72	12903
2026-01-15 05:50:20.84	254.58	6.84	-51.1	-62.1	3.8	8.46e-01	0	42	104	3856662528	72	12875
2026-01-15 05:50:23.82	254.31	6.65	-51.1	-62.1	3.8	8.48e-01	0	42	104	3856662528	72	12876
2026-01-15 05:50:26.80	254.03	6.47	-51.1	-62.1	3.8	8.47e-01	0	42	104	3856662528	72	12841
2026-01-15 05:50:29.78	253.76	6.28	-51.1	-62.1	3.8	8.46e-01	0	42	104	3856662528	72	12885
2026-01-15 05:50:32.75	253.49	6.10	-51.1	-62.1	3.8	8.46e-01	0	42	104	3856662528	72	12817
2026-01-15 05:50:35.73	253.23	5.92	-51.1	-62.1	3.8	8.46e-01	0	42	104	3856662528	72	12947
2026-01-15 05:50:38.71	252.97	5.73	-51.1	-62.1	3.8	8.47e-01	0	42	104	3856662528	72	12847
2026-01-15 05:50:41.69	252.71	5.55	-51.1	-62.1	3.8	8.48e-01	0	42	104	3856662528	72	12859
2026-01-15 05:50:44.67	252.46	5.37	-51.1	-62.1	3.8	8.47e-01	0	42	104	3856662528	72	12882
2026-01-15 05:50:47.65	252.21	5.19	-51.1	-62.1	3.8	8.48e-01	0	42	104	3856662528	72	12845
2026-01-15 05:50:50.63	251.96	5.01	-51.1	-62.1	3.8	8.46e-01	0	42	104	3856662528	72	12863

#Closed at: 2026-01-15 05:50:51
#Recorded file [3856 MB]: D:/Data/31040_260115_084003.dat