passes_logs/2026/01/15/T1/T1__20260115_230633_FENGYUN_3G_rec.log

#Pass ID: 20260115_230633_FENGYUN 3G
#Satellite: FENGYUN 3G
#Configuration: FENGYUN 3G
#almurnet v.1.7.20251203
#Start time: 2026-01-15 23:06:34

#Version: 2.0.20230620
#Station: T1
#Location: 37.570604 lon 55.790049 lat
#TLE: 1 56232U 23055A   26015.17772624  .00018907  00000+0  29824-3 0  9995
#TLE: 2 56232  49.9942  55.0157 0004230  27.8148 332.3045 15.53505157156222

#Time	Az	El	Level	Level2	SNR	BER	BlckErr	Temp	State	Recorded	gain1	gain2
2026-01-15 23:06:34.23	248.21	5.05	-48.2	-67.5	3.8	8.37e-01	0	38	0	0	68	32450
2026-01-15 23:06:36.21	248.05	5.20	-48.2	-67.6	3.8	8.47e-01	0	39	104	0	68	32622
2026-01-15 23:06:38.20	247.88	5.35	-48.2	-67.6	3.8	8.47e-01	0	38	104	0	68	32701
2026-01-15 23:06:40.18	247.71	5.50	-48.2	-67.6	3.8	8.46e-01	0	39	104	0	68	32706
2026-01-15 23:06:42.17	247.54	5.66	-48.2	-67.5	3.8	8.47e-01	0	39	104	0	68	32375
2026-01-15 23:06:44.16	247.37	5.82	-48.2	-67.3	3.8	8.48e-01	0	39	104	0	68	31796
2026-01-15 23:06:46.14	247.19	5.97	-48.2	-67.1	3.8	8.46e-01	0	39	104	0	68	30849
2026-01-15 23:06:48.13	247.01	6.13	-48.2	-66.9	3.8	8.47e-01	0	39	104	0	68	30191
2026-01-15 23:06:50.12	246.83	6.29	-48.2	-67.1	3.8	8.47e-01	0	39	104	0	68	30862
2026-01-15 23:06:52.10	246.64	6.45	-48.2	-67.3	3.8	8.47e-01	0	39	104	0	68	31805
2026-01-15 23:06:54.09	246.45	6.62	-48.2	-67.4	3.8	8.46e-01	0	39	104	0	68	32155
2026-01-15 23:06:56.07	246.26	6.78	-48.2	-67.5	3.8	8.48e-01	0	39	104	0	68	32530
2026-01-15 23:06:58.06	246.07	6.94	-48.1	-67.6	3.8	8.47e-01	0	39	104	0	68	32627
2026-01-15 23:07:00.05	245.87	7.11	-48.2	-67.3	3.8	8.48e-01	0	39	104	0	68	31758
2026-01-15 23:07:02.03	245.67	7.28	-48.1	-67.1	3.8	8.47e-01	0	40	104	0	68	31050
2026-01-15 23:07:04.02	245.46	7.45	-48.1	-67.0	3.8	8.47e-01	0	39	104	0	68	30586
2026-01-15 23:07:06.01	245.25	7.62	-48.2	-66.9	3.8	8.47e-01	0	40	104	0	68	30289
2026-01-15 23:07:07.99	245.04	7.79	-48.2	-67.0	3.8	8.47e-01	0	39	104	0	68	30584
2026-01-15 23:07:09.98	244.83	7.97	-48.1	-66.2	3.8	8.48e-01	0	39	104	0	68	27900
2026-01-15 23:07:11.97	244.61	8.14	-48.1	-64.9	3.9	8.46e-01	0	40	104	0	68	23937
2026-01-15 23:07:13.95	244.39	8.32	-48.1	-65.8	3.8	8.45e-01	0	40	104	0	68	26624
2026-01-15 23:07:15.94	244.16	8.50	-48.1	-66.9	3.8	8.47e-01	0	40	104	0	68	30319
2026-01-15 23:07:17.93	243.93	8.68	-47.5	-58.4	7.5	6.47e-01	0	40	0	0	67	12092
2026-01-15 23:07:19.91	243.70	8.86	-46.3	-52.8	13.4	3.59e-02	0	40	0	0	64	7470
2026-01-15 23:07:21.90	243.46	9.04	-45.0	-49.5	16.9	1.07e-04	0	40	0	0	62	5734
2026-01-15 23:07:23.89	243.22	9.23	-43.9	-47.4	19.1	0.00e+00	0	40	0	0	59	5353
2026-01-15 23:07:25.88	242.97	9.42	-46.1	-51.8	14.8	0.00e+00	0	40	0	0	63	7115
2026-01-15 23:07:27.87	242.72	9.61	-42.2	-45.0	21.4	1.10e-06	0	40	0	0	56	4869
2026-01-15 23:07:29.86	242.46	9.80	-41.9	-44.7	21.5	0.00e+00	0	40	0	0	55	4937
2026-01-15 23:07:31.85	242.20	9.99	-41.3	-44.0	22.3	0.00e+00	0	40	0	0	54	4865
2026-01-15 23:07:33.85	241.94	10.18	-41.0	-43.6	22.6	0.00e+00	0	40	0	0	54	4636
2026-01-15 23:07:35.84	241.67	10.38	-41.0	-43.5	22.8	0.00e+00	0	40	0	0	53	4850
2026-01-15 23:07:37.83	241.39	10.58	-40.6	-43.1	23.2	0.00e+00	0	40	0	0	53	4607
2026-01-15 23:07:39.82	241.11	10.78	-40.6	-43.0	23.2	0.00e+00	0	40	0	0	53	4580
2026-01-15 23:07:41.81	240.82	10.98	-40.3	-42.6	23.6	0.00e+00	0	40	0	0	52	4630
2026-01-15 23:07:43.80	240.53	11.18	-40.5	-42.9	23.4	0.00e+00	0	40	0	0	52	4779
2026-01-15 23:07:45.79	240.24	11.39	-40.4	-42.8	23.5	0.00e+00	0	40	0	0	52	4708
2026-01-15 23:07:47.78	239.93	11.60	-40.4	-42.7	23.5	0.00e+00	0	40	0	0	52	4676
2026-01-15 23:07:49.77	239.63	11.81	-40.4	-42.7	23.6	0.00e+00	0	40	0	0	52	4684
2026-01-15 23:07:51.76	239.31	12.02	-40.2	-42.5	23.8	0.00e+00	0	40	0	0	52	4588
2026-01-15 23:07:53.75	238.99	12.23	-40.2	-42.5	23.8	0.00e+00	0	40	0	0	52	4568
2026-01-15 23:07:55.74	238.67	12.45	-40.0	-42.3	24.0	0.00e+00	0	40	0	0	52	4471
2026-01-15 23:07:57.72	238.34	12.67	-40.0	-42.3	24.1	0.00e+00	0	40	0	0	51	4731
2026-01-15 23:07:59.72	237.99	12.89	-39.8	-42.0	24.4	0.00e+00	0	40	0	0	51	4562
2026-01-15 23:08:01.71	237.65	13.11	-40.0	-42.2	24.1	0.00e+00	0	40	0	0	51	4701
2026-01-15 23:08:03.70	237.30	13.33	-40.0	-42.3	24.1	0.00e+00	0	40	0	0	51	4734
2026-01-15 23:08:05.69	236.94	13.56	-40.0	-42.3	24.1	0.00e+00	0	40	0	0	51	4710
2026-01-15 23:08:07.67	236.57	13.79	-39.8	-42.0	24.3	0.00e+00	0	40	0	0	51	4593
2026-01-15 23:08:09.82	236.16	14.04	-39.5	-41.6	24.5	0.00e+00	0	40	0	0	50	4650
2026-01-15 23:08:11.85	235.77	14.28	-39.5	-41.7	24.6	0.00e+00	0	40	0	0	50	4662
2026-01-15 23:08:13.83	235.38	14.51	-39.6	-41.8	24.6	0.00e+00	0	41	0	0	50	4733
2026-01-15 23:08:15.83	234.98	14.75	-39.6	-41.8	24.6	0.00e+00	0	40	0	0	50	4747
2026-01-15 23:08:17.82	234.58	14.99	-39.5	-41.7	24.6	0.00e+00	0	41	0	0	50	4688
2026-01-15 23:08:19.81	234.16	15.23	-39.6	-41.9	24.6	0.00e+00	0	40	0	0	50	4770
2026-01-15 23:08:21.80	233.73	15.48	-39.2	-41.4	25.0	0.00e+00	0	40	0	0	50	4523
2026-01-15 23:08:23.78	233.30	15.73	-38.9	-41.1	25.3	0.00e+00	0	40	0	0	49	4603
2026-01-15 23:08:25.99	232.81	16.00	-39.0	-41.2	25.2	0.00e+00	0	41	0	0	49	4656
2026-01-15 23:08:28.22	232.30	16.28	-38.8	-40.9	25.5	0.00e+00	0	40	0	0	49	4510
2026-01-15 23:08:30.27	231.82	16.55	-38.8	-40.9	25.5	0.00e+00	0	41	0	0	49	4507
2026-01-15 23:08:32.25	231.35	16.80	-38.6	-40.7	25.6	0.00e+00	0	40	0	0	49	4415
2026-01-15 23:08:34.24	230.86	17.06	-38.3	-40.4	25.9	0.00e+00	0	40	0	0	48	4515
2026-01-15 23:08:36.23	230.37	17.32	-38.6	-40.7	25.6	0.00e+00	0	41	0	0	48	4665
2026-01-15 23:08:38.22	229.86	17.58	-38.5	-40.5	25.8	0.00e+00	0	41	0	0	48	4598
2026-01-15 23:08:40.22	229.34	17.85	-38.5	-40.6	25.8	0.00e+00	0	41	0	0	48	4616
2026-01-15 23:08:42.21	228.81	18.12	-38.6	-40.7	25.7	0.00e+00	0	41	0	0	48	4673
2026-01-15 23:08:44.19	228.27	18.38	-38.7	-40.8	25.5	0.00e+00	0	41	0	0	48	4734
2026-01-15 23:08:46.22	227.71	18.66	-38.5	-40.5	25.8	0.00e+00	0	41	0	0	48	4583
2026-01-15 23:08:48.21	227.14	18.93	-38.1	-40.2	26.1	0.00e+00	0	41	0	0	48	4400
2026-01-15 23:08:50.23	226.55	19.21	-37.8	-39.8	26.4	0.00e+00	0	41	0	0	47	4491
2026-01-15 23:08:52.21	225.97	19.49	-38.2	-40.2	26.0	0.00e+00	0	41	0	0	47	4692
2026-01-15 23:08:54.25	225.35	19.77	-38.2	-40.2	26.0	0.00e+00	0	41	0	0	47	4702
2026-01-15 23:08:56.32	224.70	20.06	-38.3	-40.4	25.9	0.00e+00	0	41	0	0	47	4798
2026-01-15 23:08:58.36	224.05	20.35	-38.0	-40.0	26.2	0.00e+00	0	41	0	0	47	4585
2026-01-15 23:09:00.71	223.29	20.68	-37.4	-39.4	26.9	0.00e+00	0	41	0	0	46	4494
2026-01-15 23:09:02.70	222.62	20.96	-37.5	-39.4	26.8	0.00e+00	0	41	0	0	46	4543
2026-01-15 23:09:04.69	221.95	21.25	-37.6	-39.6	26.7	0.00e+00	0	41	0	0	46	4604
2026-01-15 23:09:06.68	221.25	21.53	-37.9	-39.9	26.3	0.00e+00	0	41	0	0	46	4779
2026-01-15 23:09:08.67	220.54	21.81	-37.5	-39.5	26.7	0.00e+00	0	41	0	0	46	4571
2026-01-15 23:09:10.66	219.82	22.10	-37.3	-39.3	26.9	0.00e+00	0	41	0	0	46	4459
2026-01-15 23:09:12.75	219.04	22.40	-37.1	-39.1	27.0	0.00e+00	0	41	0	0	46	4382
2026-01-15 23:09:14.82	218.25	22.69	-37.3	-39.3	26.9	0.00e+00	0	41	0	0	46	4443
2026-01-15 23:09:16.81	217.47	22.97	-37.6	-39.6	26.7	0.00e+00	0	41	0	0	46	4604
2026-01-15 23:09:18.80	216.68	23.26	-37.5	-39.5	26.8	0.00e+00	0	41	0	0	46	4574
2026-01-15 23:09:20.79	215.87	23.54	-37.3	-39.3	26.9	0.00e+00	0	41	0	0	46	4445
2026-01-15 23:09:22.78	215.05	23.82	-37.0	-39.0	27.1	0.00e+00	0	41	0	0	46	4323
2026-01-15 23:09:24.77	214.20	24.10	-36.5	-38.5	27.1	0.00e+00	0	41	0	0	45	4322
2026-01-15 23:09:26.75	213.35	24.37	-36.9	-38.8	27.3	0.00e+00	0	41	0	0	45	4478
2026-01-15 23:09:28.75	212.47	24.65	-37.1	-39.1	27.1	0.00e+00	0	41	0	0	45	4638
2026-01-15 23:09:30.74	211.57	24.92	-37.3	-39.2	27.0	0.00e+00	0	41	0	0	45	4693
2026-01-15 23:09:32.72	210.66	25.18	-37.1	-39.1	27.0	0.00e+00	0	41	0	0	45	4599
2026-01-15 23:09:34.78	209.69	25.46	-36.8	-38.8	27.3	0.00e+00	0	41	0	0	45	4465
2026-01-15 23:09:37.27	208.50	25.78	-37.0	-39.0	27.2	0.00e+00	0	41	0	0	45	4552
2026-01-15 23:09:39.26	207.53	26.03	-37.0	-38.9	27.2	0.00e+00	0	41	0	0	45	4527
2026-01-15 23:09:41.25	206.54	26.28	-37.0	-39.0	27.2	0.00e+00	0	41	0	0	45	4550
2026-01-15 23:09:43.24	205.53	26.53	-36.5	-38.4	27.6	0.00e+00	0	41	0	0	44	4511
2026-01-15 23:09:45.24	204.50	26.77	-36.8	-38.8	27.4	0.00e+00	0	41	0	0	44	4708
2026-01-15 23:09:47.19	203.47	26.99	-36.8	-38.7	27.4	0.00e+00	0	41	0	0	44	4690
2026-01-15 23:09:49.19	202.41	27.22	-36.5	-38.5	27.6	0.00e+00	0	41	0	0	44	4560
2026-01-15 23:09:51.18	201.33	27.43	-36.5	-38.4	27.7	0.00e+00	0	41	0	0	44	4537
2026-01-15 23:09:53.17	200.23	27.64	-36.7	-38.6	27.6	0.00e+00	0	41	0	0	44	4631
2026-01-15 23:09:55.16	199.12	27.84	-36.4	-38.4	27.7	0.00e+00	0	41	0	0	44	4500
2026-01-15 23:09:57.15	198.00	28.03	-36.6	-38.6	27.6	0.00e+00	0	41	0	0	44	4615
2026-01-15 23:09:59.14	196.86	28.21	-36.8	-38.7	27.4	0.00e+00	0	41	0	0	44	4678
2026-01-15 23:10:01.13	195.70	28.38	-36.7	-38.6	27.5	0.00e+00	0	41	0	0	44	4616
2026-01-15 23:10:03.18	194.50	28.55	-36.8	-38.7	27.2	0.00e+00	0	41	0	0	44	4676
2026-01-15 23:10:05.38	193.19	28.71	-36.8	-38.7	27.4	0.00e+00	0	41	0	0	44	4676
2026-01-15 23:10:07.43	191.96	28.86	-36.6	-38.6	27.6	0.00e+00	0	41	0	0	44	4599
2026-01-15 23:10:09.42	190.76	28.98	-36.9	-38.8	27.3	0.00e+00	0	41	0	0	44	4748
2026-01-15 23:10:11.41	189.54	29.09	-37.2	-39.2	27.0	0.00e+00	0	41	0	0	45	4670
2026-01-15 23:10:13.40	188.32	29.19	-37.1	-39.1	27.1	0.00e+00	0	41	0	0	45	4611
2026-01-15 23:10:15.41	187.07	29.28	-37.1	-39.0	27.2	0.00e+00	0	41	0	0	45	4580
2026-01-15 23:10:17.51	185.76	29.36	-36.8	-38.8	27.4	0.00e+00	0	41	0	0	45	4442
2026-01-15 23:10:19.66	184.41	29.42	-36.6	-38.6	27.6	0.00e+00	0	41	0	0	45	4343
2026-01-15 23:10:21.71	183.13	29.47	-36.8	-38.7	27.4	0.00e+00	0	41	0	0	45	4439
2026-01-15 23:10:23.70	181.87	29.50	-36.9	-38.8	27.3	0.00e+00	0	41	0	0	45	4492
2026-01-15 23:10:25.69	180.62	29.52	-36.8	-38.8	27.4	0.00e+00	0	41	0	0	45	4442
2026-01-15 23:10:27.68	179.36	29.52	-36.7	-38.7	27.5	0.00e+00	0	41	0	0	45	4401
2026-01-15 23:10:29.67	178.10	29.51	-37.1	-39.0	27.1	0.00e+00	0	41	0	0	45	4582
2026-01-15 23:10:31.66	176.85	29.49	-36.8	-38.7	27.4	0.00e+00	0	41	0	0	45	4420
2026-01-15 23:10:33.65	175.59	29.45	-36.9	-38.8	27.4	0.00e+00	0	41	0	0	45	4460
2026-01-15 23:10:35.64	174.34	29.40	-37.1	-39.1	27.1	0.00e+00	0	41	0	0	45	4613
2026-01-15 23:10:37.70	173.06	29.33	-37.0	-39.0	27.2	0.00e+00	0	41	0	0	45	4548
2026-01-15 23:10:39.68	171.83	29.25	-36.8	-38.8	26.0	0.00e+00	0	41	0	0	45	4446
2026-01-15 23:10:41.69	170.58	29.16	-36.6	-38.6	27.5	0.00e+00	0	41	0	0	45	4344
2026-01-15 23:10:43.68	169.36	29.05	-36.9	-38.9	27.3	0.00e+00	0	41	0	0	44	4760
2026-01-15 23:10:45.67	168.15	28.93	-37.3	-39.3	26.9	0.00e+00	0	41	0	0	45	4722
2026-01-15 23:10:47.74	166.90	28.80	-37.1	-39.1	27.1	0.00e+00	0	41	0	0	45	4611
2026-01-15 23:10:49.74	165.71	28.66	-36.5	-38.4	27.7	0.00e+00	0	41	0	0	44	4509
2026-01-15 23:10:51.84	164.46	28.50	-36.7	-38.7	27.5	0.00e+00	0	41	0	0	44	4664
2026-01-15 23:10:53.88	163.27	28.33	-36.8	-38.7	27.4	0.00e+00	0	41	0	0	44	4698
2026-01-15 23:10:55.95	162.08	28.15	-36.4	-38.4	27.6	0.00e+00	0	41	0	0	44	4512
2026-01-15 23:10:57.96	160.93	27.96	-36.4	-38.3	27.7	0.00e+00	0	41	0	0	44	4489
2026-01-15 23:10:59.95	159.81	27.76	-36.1	-38.0	28.0	0.00e+00	0	41	0	0	44	4332
2026-01-15 23:11:01.94	158.71	27.56	-36.7	-38.6	27.5	0.00e+00	0	41	0	0	44	4639
2026-01-15 23:11:03.93	157.62	27.35	-37.1	-39.0	27.1	0.00e+00	0	41	0	0	44	4870
2026-01-15 23:11:05.95	156.54	27.13	-36.3	-38.3	27.8	0.00e+00	0	41	0	0	44	4446
2026-01-15 23:11:07.94	155.48	26.90	-36.1	-38.1	27.9	0.00e+00	0	41	0	0	44	4346
2026-01-15 23:11:09.94	154.44	26.67	-36.4	-38.4	27.7	0.00e+00	0	41	0	0	44	4508
2026-01-15 23:11:12.27	153.25	26.39	-37.1	-39.1	27.1	0.00e+00	0	41	0	0	44	4899
2026-01-15 23:11:14.19	152.29	26.15	-37.1	-39.2	27.0	0.00e+00	0	41	0	0	45	4656
2026-01-15 23:11:16.18	151.31	25.90	-37.0	-39.0	27.2	0.00e+00	0	41	0	0	45	4549
2026-01-15 23:11:18.18	150.34	25.64	-36.6	-38.6	27.5	0.00e+00	0	41	0	0	45	4355
2026-01-15 23:11:20.10	149.43	25.39	-36.9	-38.9	27.2	0.00e+00	0	41	0	0	45	4525
2026-01-15 23:11:22.20	148.45	25.11	-37.0	-39.0	27.1	0.00e+00	0	41	0	0	45	4548
2026-01-15 23:11:24.22	147.53	24.84	-36.7	-38.7	27.4	0.00e+00	0	41	0	0	45	4412
2026-01-15 23:11:26.21	146.64	24.56	-36.8	-38.8	27.4	0.00e+00	0	41	0	0	45	4447
2026-01-15 23:11:28.21	145.77	24.29	-37.2	-39.2	27.0	0.00e+00	0	41	0	0	45	4680
2026-01-15 23:11:30.20	144.91	24.01	-37.5	-39.5	26.8	0.00e+00	0	41	0	0	45	4826
2026-01-15 23:11:32.19	144.08	23.73	-37.2	-39.2	27.0	0.00e+00	0	41	0	0	45	4686
2026-01-15 23:11:34.18	143.26	23.45	-37.3	-39.3	26.9	0.00e+00	0	41	0	0	45	4711
2026-01-15 23:11:36.17	142.45	23.17	-37.4	-39.4	26.7	0.00e+00	0	41	0	0	45	4812
2026-01-15 23:11:38.25	141.63	22.88	-37.2	-39.2	26.9	0.00e+00	0	41	0	0	45	4702
2026-01-15 23:11:40.32	140.83	22.58	-37.3	-39.3	26.9	0.00e+00	0	41	0	0	45	4727
2026-01-15 23:11:42.38	140.06	22.29	-37.5	-39.5	26.7	0.00e+00	0	41	0	0	45	4870
2026-01-15 23:11:44.43	139.30	22.00	-37.4	-39.5	26.7	0.00e+00	0	41	0	0	45	4820
2026-01-15 23:11:46.42	138.58	21.71	-37.8	-39.8	26.4	0.00e+00	0	41	0	0	46	4759
2026-01-15 23:11:48.41	137.88	21.43	-37.9	-39.9	26.3	0.00e+00	0	41	0	0	46	4809
2026-01-15 23:11:50.40	137.19	21.15	-37.7	-39.7	26.5	0.00e+00	0	41	0	0	46	4663
2026-01-15 23:11:52.39	136.52	20.86	-37.8	-39.8	26.4	0.00e+00	0	41	0	0	46	4757
2026-01-15 23:11:54.38	135.86	20.58	-38.0	-40.1	26.1	0.00e+00	0	41	0	0	46	4888
2026-01-15 23:11:56.37	135.22	20.30	-37.8	-39.9	26.3	0.00e+00	0	41	0	0	46	4775
2026-01-15 23:11:58.36	134.59	20.02	-38.1	-40.2	26.1	0.00e+00	0	41	0	0	46	4952
2026-01-15 23:12:00.35	133.98	19.74	-38.2	-40.3	26.0	0.00e+00	0	41	0	0	46	4991
2026-01-15 23:12:02.40	133.36	19.46	-38.2	-40.2	26.0	0.00e+00	0	41	0	0	47	4699
2026-01-15 23:12:04.45	132.75	19.18	-38.1	-40.1	26.1	0.00e+00	0	41	0	0	47	4645
2026-01-15 23:12:06.48	132.16	18.90	-38.4	-40.5	25.8	0.00e+00	0	41	0	0	47	4834
2026-01-15 23:12:08.58	131.57	18.61	-38.6	-40.7	25.6	0.00e+00	0	41	0	0	47	4957
2026-01-15 23:12:10.63	131.00	18.33	-38.3	-40.4	25.8	0.00e+00	0	41	0	0	47	4811
2026-01-15 23:12:12.69	130.45	18.06	-38.5	-40.6	25.7	0.00e+00	0	41	0	0	47	4899
2026-01-15 23:12:14.74	129.91	17.78	-38.5	-40.6	25.6	0.00e+00	0	41	0	0	47	4920
2026-01-15 23:12:16.79	129.38	17.51	-38.6	-40.7	25.6	0.00e+00	0	41	0	0	47	4950
2026-01-15 23:12:18.82	128.86	17.24	-38.8	-40.9	25.5	0.00e+00	0	41	0	0	48	4794
2026-01-15 23:12:20.81	128.37	16.98	-38.8	-41.0	25.4	0.00e+00	0	41	0	0	48	4820
2026-01-15 23:12:22.80	127.89	16.73	-38.8	-40.9	25.4	0.00e+00	0	41	0	0	48	4784
2026-01-15 23:12:24.78	127.42	16.47	-38.8	-40.9	25.4	0.00e+00	0	41	0	0	48	4796
2026-01-15 23:12:26.77	126.96	16.22	-39.0	-41.1	25.2	0.00e+00	0	41	0	0	48	4905
2026-01-15 23:12:28.76	126.51	15.97	-39.1	-41.2	25.1	0.00e+00	0	41	0	0	48	4968
2026-01-15 23:12:30.75	126.07	15.72	-39.4	-41.6	24.8	0.00e+00	0	41	0	0	49	4881
2026-01-15 23:12:32.80	125.62	15.47	-39.7	-42.0	24.4	0.00e+00	0	41	0	0	50	4823
2026-01-15 23:12:34.81	125.20	15.22	-39.8	-42.0	24.3	0.00e+00	0	41	0	0	50	4862
2026-01-15 23:12:36.80	124.78	14.98	-39.6	-41.8	24.6	0.00e+00	0	41	0	0	50	4719
2026-01-15 23:12:38.79	124.37	14.74	-39.6	-41.8	24.6	0.00e+00	0	41	0	0	50	4717
2026-01-15 23:12:40.78	123.98	14.50	-40.0	-42.3	24.1	0.00e+00	0	41	0	0	50	4996
2026-01-15 23:12:42.80	123.58	14.26	-40.1	-42.4	24.0	0.00e+00	0	41	0	0	50	5042
2026-01-15 23:12:45.14	123.13	13.99	-40.2	-42.4	24.0	0.00e+00	0	41	0	0	51	4811
2026-01-15 23:12:47.19	122.75	13.75	-39.9	-42.1	24.2	0.00e+00	0	41	0	0	51	4651
2026-01-15 23:12:49.18	122.38	13.52	-40.1	-42.4	24.0	0.00e+00	0	41	0	0	51	4787
2026-01-15 23:12:51.20	122.02	13.29	-40.3	-42.6	23.8	0.00e+00	0	41	0	0	51	4907
2026-01-15 23:12:53.21	121.67	13.07	-40.4	-42.7	23.6	0.00e+00	0	41	0	0	51	4981
2026-01-15 23:12:55.19	121.33	12.85	-40.4	-42.7	23.7	0.00e+00	0	41	0	0	51	4966
2026-01-15 23:12:57.20	120.99	12.63	-40.4	-42.8	23.6	0.00e+00	0	41	0	0	51	4993
2026-01-15 23:12:59.24	120.65	12.40	-40.7	-43.1	23.3	0.00e+00	0	41	0	0	51	5176
2026-01-15 23:13:01.29	120.31	12.18	-40.7	-43.1	23.2	0.00e+00	0	41	0	0	52	4888
2026-01-15 23:13:03.34	119.99	11.96	-40.7	-43.1	23.2	0.00e+00	0	41	0	0	52	4898
2026-01-15 23:13:05.64	119.63	11.72	-40.8	-43.3	23.0	0.00e+00	0	41	0	0	52	4990
2026-01-15 23:13:07.67	119.32	11.51	-41.0	-43.5	22.8	0.00e+00	0	41	0	0	52	5119
2026-01-15 23:13:09.65	119.02	11.30	-41.2	-43.7	22.6	0.00e+00	0	41	0	0	53	4973
2026-01-15 23:13:11.65	118.73	11.10	-41.3	-43.8	22.4	0.00e+00	0	41	0	0	53	5023
2026-01-15 23:13:13.64	118.44	10.89	-41.0	-43.4	22.8	0.00e+00	0	41	0	0	53	4797
2026-01-15 23:13:15.63	118.16	10.69	-41.0	-43.6	22.7	0.00e+00	0	41	0	0	53	4873
2026-01-15 23:13:17.65	117.87	10.49	-41.0	-43.5	22.7	0.00e+00	0	41	0	0	53	4851
2026-01-15 23:13:19.65	117.60	10.29	-41.3	-43.9	22.3	0.00e+00	0	41	0	0	53	5068
2026-01-15 23:13:21.64	117.33	10.10	-41.6	-44.3	22.0	0.00e+00	0	41	0	0	53	5294
2026-01-15 23:13:23.83	117.05	9.89	-41.9	-44.6	21.7	0.00e+00	0	42	0	0	54	5175
2026-01-15 23:13:26.10	116.75	9.67	-41.9	-44.6	21.6	0.00e+00	0	41	0	0	54	5194
2026-01-15 23:13:28.38	116.46	9.45	-41.9	-44.7	21.6	0.00e+00	0	41	0	0	54	5232
2026-01-15 23:13:30.84	116.16	9.22	-41.9	-44.6	21.6	0.00e+00	0	41	0	0	54	5192
2026-01-15 23:13:32.85	115.92	9.03	-41.9	-44.6	21.6	0.00e+00	0	41	0	0	54	5187
2026-01-15 23:13:34.83	115.68	8.85	-48.8	-67.5	3.8	0.00e+00	0	41	104	0	68	32429
2026-01-15 23:13:36.82	115.45	8.67	-49.2	-68.0	3.8	8.46e-01	0	41	104	0	69	32244
2026-01-15 23:13:38.81	115.22	8.49	-49.3	-68.1	3.8	8.46e-01	0	41	104	0	69	32792
2026-01-15 23:13:40.79	114.99	8.31	-49.3	-68.2	3.8	8.47e-01	0	41	104	0	69	33017
2026-01-15 23:13:42.78	114.77	8.13	-49.3	-68.2	3.8	8.47e-01	0	41	104	0	69	33192
2026-01-15 23:13:44.77	114.55	7.96	-49.1	-68.3	3.8	8.48e-01	0	41	104	0	69	33358
2026-01-15 23:13:46.75	114.34	7.79	-49.2	-68.3	3.8	8.46e-01	0	41	104	0	69	33581
2026-01-15 23:13:48.74	114.13	7.61	-49.2	-68.3	3.8	8.47e-01	0	41	104	0	69	33653
2026-01-15 23:13:50.74	113.92	7.44	-49.1	-68.3	3.8	8.47e-01	0	41	104	0	69	33685
2026-01-15 23:13:52.73	113.72	7.27	-49.1	-68.4	3.8	8.47e-01	0	41	104	0	69	33748
2026-01-15 23:13:54.73	113.52	7.10	-49.2	-68.3	3.8	8.47e-01	0	41	104	0	69	33670
2026-01-15 23:13:56.72	113.32	6.94	-49.2	-68.3	3.8	8.46e-01	0	41	104	0	69	33402
2026-01-15 23:13:58.70	113.13	6.77	-49.2	-68.3	3.8	8.46e-01	0	41	104	0	69	33441
2026-01-15 23:14:00.69	112.93	6.61	-49.2	-68.3	3.8	8.47e-01	0	42	104	0	69	33425
2026-01-15 23:14:02.68	112.75	6.45	-49.2	-68.3	3.8	8.47e-01	0	41	104	0	69	33336
2026-01-15 23:14:04.68	112.56	6.29	-49.2	-68.3	3.8	8.46e-01	0	41	104	0	69	33396
2026-01-15 23:14:06.68	112.38	6.13	-49.2	-68.3	3.8	8.46e-01	0	41	104	0	69	33439
2026-01-15 23:14:08.67	112.20	5.97	-49.2	-68.3	3.8	8.46e-01	0	41	104	0	69	33368
2026-01-15 23:14:10.65	112.02	5.81	-49.2	-68.3	3.8	8.47e-01	0	41	104	0	69	33312
2026-01-15 23:14:12.64	111.85	5.65	-49.2	-68.3	3.8	8.46e-01	0	41	104	0	69	33370
2026-01-15 23:14:14.63	111.68	5.50	-49.2	-68.3	3.8	8.47e-01	0	42	104	0	69	33357
2026-01-15 23:14:16.61	111.51	5.35	-49.2	-68.2	3.8	8.47e-01	0	41	104	0	69	33269
2026-01-15 23:14:18.60	111.34	5.19	-49.2	-68.2	3.8	8.47e-01	0	41	104	0	69	33170
2026-01-15 23:14:20.62	111.18	5.04	-49.2	-68.2	3.8	8.46e-01	0	41	104	0	69	33258

#Closed at: 2026-01-15 23:14:22
#Recorded file [0 MB]: D:/Data/31040_260116_020634.dat