passes_logs/2026/01/15/T1/T1__20260115_083428_KHAYYAM_rec.log

#Pass ID: 20260115_083428_KHAYYAM
#Satellite: KHAYYAM
#Configuration: KHAYYAM_480M
#almurnet v.1.7.20251203
#Start time: 2026-01-15 08:34:30

#Version: 2.0.20230620
#Station: T1
#Location: 37.570604 lon 55.790049 lat
#TLE: 1 53370U 22096A   26014.69422851  .00010074  00000+0  41151-3 0  9993
#TLE: 2 53370  97.3560 281.7091 0001556 106.8298 253.3111 15.24576057191198

#Time	Az	El	Level	Level2	SNR	BER	BlckErr	Temp	State	Recorded	gain1	gain2
2026-01-15 08:34:30.38	190.16	2.87	-53.2	-58.1	3.5	0.00e+00	0	41	0	0	78	24649
2026-01-15 08:34:33.36	190.36	3.08	-53.2	-58.0	3.7	0.00e+00	0	41	104	0	77	25974
2026-01-15 08:34:36.34	190.55	3.29	-53.1	-58.0	3.7	0.00e+00	0	41	104	0	77	25902
2026-01-15 08:34:39.33	190.75	3.50	-53.2	-58.1	3.7	0.00e+00	0	42	104	0	77	26010
2026-01-15 08:34:42.32	190.96	3.71	-53.1	-58.0	3.7	0.00e+00	0	42	104	0	77	25924
2026-01-15 08:34:45.31	191.17	3.93	-53.1	-58.1	3.7	0.00e+00	0	42	104	0	77	25977
2026-01-15 08:34:48.30	191.38	4.15	-53.1	-58.0	3.7	0.00e+00	0	42	104	0	77	25753
2026-01-15 08:34:51.29	191.59	4.37	-53.1	-58.0	3.7	0.00e+00	0	42	104	0	77	25779
2026-01-15 08:34:54.28	191.81	4.59	-53.1	-58.0	3.7	0.00e+00	0	43	104	0	77	25802
2026-01-15 08:34:57.26	192.04	4.82	-53.1	-58.0	3.7	0.00e+00	0	43	104	0	77	25796
2026-01-15 08:35:00.26	192.27	5.05	-53.1	-58.0	3.7	0.00e+00	0	43	104	0	77	25734
2026-01-15 08:35:03.25	192.50	5.27	-53.1	-58.0	3.7	0.00e+00	0	43	104	0	77	25684
2026-01-15 08:35:06.24	192.74	5.51	-53.1	-58.0	3.7	0.00e+00	0	43	104	0	77	25702
2026-01-15 08:35:09.23	192.98	5.74	-53.1	-57.9	3.7	0.00e+00	0	43	104	0	77	25611
2026-01-15 08:35:12.22	193.22	5.98	-53.1	-58.0	3.7	0.00e+00	0	44	104	0	77	25731
2026-01-15 08:35:15.21	193.48	6.22	-53.1	-58.0	3.7	0.00e+00	0	44	104	0	77	25772
2026-01-15 08:35:18.21	193.73	6.46	-53.1	-57.9	3.7	0.00e+00	0	44	104	0	77	25648
2026-01-15 08:35:21.20	194.00	6.71	-53.1	-58.0	3.7	0.00e+00	0	44	104	0	77	25755
2026-01-15 08:35:24.19	194.26	6.95	-53.1	-57.9	3.7	0.00e+00	0	44	104	0	77	25668
2026-01-15 08:35:27.18	194.54	7.21	-53.1	-58.0	3.7	0.00e+00	0	44	104	0	77	25732
2026-01-15 08:35:30.19	194.82	7.46	-53.1	-58.0	3.7	0.00e+00	0	44	104	0	77	25693
2026-01-15 08:35:33.18	195.10	7.72	-53.0	-58.0	3.7	0.00e+00	0	44	104	0	77	25707
2026-01-15 08:35:36.17	195.39	7.98	-53.1	-58.0	3.7	0.00e+00	0	44	104	0	77	25754
2026-01-15 08:35:39.17	195.69	8.24	-53.1	-58.0	3.7	0.00e+00	0	44	104	0	77	25732
2026-01-15 08:35:42.17	196.00	8.51	-53.1	-57.9	3.7	0.00e+00	0	45	104	0	77	25623
2026-01-15 08:35:45.17	196.31	8.78	-53.1	-57.9	3.7	0.00e+00	0	45	104	0	77	25671
2026-01-15 08:35:48.16	196.63	9.05	-53.1	-58.0	3.7	0.00e+00	0	45	104	0	77	25736
2026-01-15 08:35:51.16	196.96	9.33	-53.3	-58.1	3.7	0.00e+00	0	45	104	0	77	26131
2026-01-15 08:35:54.17	197.29	9.61	-52.9	-57.7	3.7	0.00e+00	0	45	104	0	77	24923
2026-01-15 08:35:57.16	197.63	9.89	-52.9	-57.7	3.7	0.00e+00	0	45	104	0	77	24977
2026-01-15 08:36:00.15	197.98	10.18	-53.0	-57.4	3.7	0.00e+00	0	45	104	0	77	24101
2026-01-15 08:36:03.15	198.34	10.47	-53.0	-57.6	3.7	0.00e+00	0	45	104	0	77	24738
2026-01-15 08:36:06.14	198.71	10.76	-52.9	-57.3	3.7	0.00e+00	0	45	104	0	77	23909
2026-01-15 08:36:09.14	199.08	11.06	-52.9	-57.4	3.7	0.00e+00	0	45	104	0	77	24173
2026-01-15 08:36:12.13	199.47	11.37	-53.0	-57.6	3.7	0.00e+00	0	45	104	0	77	24760
2026-01-15 08:36:15.12	199.86	11.67	-53.6	-58.2	3.7	0.00e+00	0	45	104	0	77	26447
2026-01-15 08:36:18.12	200.27	11.98	-53.6	-58.4	3.7	0.00e+00	0	45	104	0	77	27020
2026-01-15 08:36:21.13	200.68	12.30	-53.8	-58.5	3.7	0.00e+00	0	45	104	0	78	25766
2026-01-15 08:36:24.12	201.11	12.62	-44.7	-45.9	10.8	5.56e-03	0	46	0	100663296	61	16098
2026-01-15 08:36:27.11	201.55	12.94	-42.8	-43.9	12.3	3.81e-04	0	46	0	276824064	57	16044
2026-01-15 08:36:30.10	201.99	13.27	-42.5	-43.6	12.1	3.47e-04	0	46	0	461373440	56	16409
2026-01-15 08:36:33.11	202.46	13.61	-40.8	-41.8	13.5	3.39e-05	0	46	0	637534208	53	15912
2026-01-15 08:36:36.11	202.93	13.94	-39.2	-40.1	15.1	0.00e+00	0	46	0	822083584	50	15649
2026-01-15 08:36:39.10	203.41	14.29	-38.2	-39.2	15.8	0.00e+00	0	46	0	998244352	48	15665
2026-01-15 08:36:42.09	203.91	14.63	-37.0	-38.0	16.1	0.00e+00	0	46	0	1182793728	46	15338
2026-01-15 08:36:45.08	204.42	14.98	-36.1	-37.0	16.9	0.00e+00	0	46	0	1358954496	44	15436
2026-01-15 08:36:48.07	204.95	15.34	-35.3	-36.2	17.3	0.00e+00	0	46	0	1535115264	42	15685
2026-01-15 08:36:51.05	205.49	15.70	-35.1	-35.9	17.5	0.00e+00	0	46	0	1719664640	42	15286
2026-01-15 08:36:54.05	206.05	16.07	-34.8	-35.7	17.6	0.00e+00	0	47	0	1895825408	41	15791
2026-01-15 08:36:57.06	206.63	16.44	-34.6	-35.5	17.7	0.00e+00	0	47	0	2080374784	41	15384
2026-01-15 08:37:00.05	207.21	16.82	-34.5	-35.4	17.9	0.00e+00	0	47	0	2256535552	41	15162
2026-01-15 08:37:03.04	207.82	17.20	-34.3	-35.2	17.7	0.00e+00	0	47	0	2441084928	40	15777
2026-01-15 08:37:06.04	208.45	17.58	-34.2	-35.0	17.9	0.00e+00	0	47	0	2617245696	40	15444
2026-01-15 08:37:09.03	209.09	17.97	-34.0	-34.9	18.0	0.00e+00	0	47	0	2793406464	40	15245
2026-01-15 08:37:12.03	209.76	18.37	-34.0	-34.9	18.0	0.00e+00	0	47	0	2977955840	39	16167
2026-01-15 08:37:15.04	210.44	18.77	-33.8	-34.6	18.3	0.00e+00	0	47	0	3154116608	39	15636
2026-01-15 08:37:18.03	211.15	19.18	-33.4	-34.3	18.4	0.00e+00	0	47	0	3338665984	38	15888
2026-01-15 08:37:21.03	211.87	19.59	-33.4	-34.3	18.1	0.00e+00	0	47	0	3514826752	38	15907
2026-01-15 08:37:24.03	212.62	20.01	-33.2	-34.1	18.6	0.00e+00	0	47	0	3690987520	38	15494
2026-01-15 08:37:27.01	213.39	20.42	-33.0	-33.9	18.6	0.00e+00	0	47	0	3875536896	38	15175
2026-01-15 08:37:30.01	214.19	20.85	-33.0	-33.8	18.6	0.00e+00	0	47	0	4051697664	37	16006
2026-01-15 08:37:33.01	215.01	21.28	-32.9	-33.7	18.4	0.00e+00	0	47	0	4236247040	37	15825
2026-01-15 08:37:36.01	215.86	21.71	-32.6	-33.4	18.6	0.00e+00	0	47	0	4412407808	37	15264
2026-01-15 08:37:38.99	216.73	22.14	-32.4	-33.3	18.6	0.00e+00	0	47	0	4596957184	36	15919
2026-01-15 08:37:41.99	217.64	22.58	-32.1	-33.0	18.9	0.00e+00	0	47	0	4773117952	36	15319
2026-01-15 08:37:44.99	218.57	23.02	-30.7	-31.5	18.6	0.00e+00	0	47	0	4957667328	33	15449
2026-01-15 08:37:47.99	219.53	23.46	-30.5	-31.4	18.9	0.00e+00	0	47	0	5133828096	33	15183
2026-01-15 08:37:50.98	220.52	23.91	-30.4	-31.3	18.9	0.00e+00	0	47	0	5309988864	32	15858
2026-01-15 08:37:53.97	221.54	24.35	-30.3	-31.1	18.9	0.00e+00	0	47	0	5494538240	32	15610
2026-01-15 08:37:56.97	222.60	24.80	-30.0	-30.8	19.2	0.00e+00	0	47	0	5670699008	32	15088
2026-01-15 08:37:59.96	223.68	25.24	-30.2	-31.1	18.9	0.00e+00	0	47	0	5855248384	32	15501
2026-01-15 08:38:02.96	224.81	25.69	-29.8	-30.7	19.0	0.00e+00	0	47	0	6031409152	31	15667
2026-01-15 08:38:05.96	225.97	26.13	-29.7	-30.5	19.0	0.00e+00	0	47	0	6207569920	31	15433
2026-01-15 08:38:08.95	227.16	26.57	-29.7	-30.6	19.0	0.00e+00	0	47	0	6392119296	30	16426
2026-01-15 08:38:11.95	228.39	27.01	-29.4	-30.2	19.2	0.00e+00	0	47	0	6568280064	30	15753
2026-01-15 08:38:14.95	229.65	27.44	-29.1	-29.9	19.4	0.00e+00	0	48	0	6752829440	30	15261
2026-01-15 08:38:17.95	230.96	27.86	-29.1	-30.0	19.3	0.00e+00	0	47	0	6928990208	30	15354
2026-01-15 08:38:20.95	232.30	28.28	-28.8	-29.7	19.4	0.00e+00	0	47	0	7113539584	29	15720
2026-01-15 08:38:23.95	233.68	28.69	-28.8	-29.7	19.5	0.00e+00	0	47	0	7289700352	29	15729
2026-01-15 08:38:26.94	235.10	29.09	-28.8	-29.6	19.6	0.00e+00	0	48	0	7474249728	29	15639
2026-01-15 08:38:29.94	236.55	29.47	-28.7	-29.5	19.6	0.00e+00	0	48	0	7650410496	29	15422
2026-01-15 08:38:32.94	238.05	29.85	-28.5	-29.3	19.6	0.00e+00	0	47	0	7834959872	28	15985
2026-01-15 08:38:35.94	239.58	30.21	-28.2	-29.0	19.8	0.00e+00	0	47	0	8011120640	28	15457
2026-01-15 08:38:38.94	241.14	30.55	-28.2	-29.0	20.0	0.00e+00	0	48	0	8187281408	28	15425
2026-01-15 08:38:41.94	242.75	30.88	-28.1	-28.9	20.1	0.00e+00	0	47	0	8371830784	28	15284
2026-01-15 08:38:44.94	244.38	31.18	-28.3	-29.2	19.8	0.00e+00	0	48	0	8547991552	28	15721
2026-01-15 08:38:47.93	246.04	31.47	-28.1	-28.9	20.1	0.00e+00	0	48	0	8732540928	28	15283
2026-01-15 08:38:50.92	247.73	31.73	-28.2	-29.0	20.2	0.00e+00	0	48	0	8908701696	27	16292
2026-01-15 08:38:53.92	249.46	31.97	-28.0	-28.9	20.2	0.00e+00	0	48	0	9084862464	27	16074
2026-01-15 08:38:56.92	251.21	32.19	-27.9	-28.7	20.3	0.00e+00	0	48	0	9269411840	27	15832
2026-01-15 08:38:59.92	252.99	32.37	-28.0	-28.9	20.1	0.00e+00	0	47	0	9445572608	27	16068
2026-01-15 08:39:02.91	254.78	32.53	-27.9	-28.7	20.2	0.00e+00	0	47	0	9630121984	27	15793
2026-01-15 08:39:05.90	256.58	32.67	-27.9	-28.8	20.1	0.00e+00	0	47	0	9806282752	27	15911
2026-01-15 08:39:08.90	258.41	32.77	-27.9	-28.8	20.2	0.00e+00	0	47	0	9990832128	27	15924
2026-01-15 08:39:11.90	260.24	32.84	-27.9	-28.7	20.3	0.00e+00	0	47	0	10166992896	27	15805
2026-01-15 08:39:14.90	262.09	32.89	-27.9	-28.8	20.5	0.00e+00	0	48	0	10351542272	27	15838
2026-01-15 08:39:17.89	263.93	32.90	-28.0	-28.8	20.6	0.00e+00	0	48	0	10527703040	27	16001
2026-01-15 08:39:20.88	265.76	32.88	-28.0	-28.8	20.6	0.00e+00	0	47	0	10712252416	27	15988
2026-01-15 08:39:23.87	267.60	32.83	-28.1	-28.9	20.5	0.00e+00	0	48	0	10888413184	27	16083
2026-01-15 08:39:26.87	269.43	32.75	-54.6	-59.1	3.7	0.00e+00	0	47	104	10980687872	79	26121
2026-01-15 08:39:29.86	271.25	32.64	-54.5	-59.2	3.7	0.00e+00	0	47	104	10980687872	79	26381
2026-01-15 08:39:32.85	273.05	32.50	-54.6	-59.1	3.7	0.00e+00	0	47	104	10980687872	79	26146
2026-01-15 08:39:35.84	274.83	32.34	-54.1	-58.6	3.7	0.00e+00	0	47	104	10980687872	79	24670
2026-01-15 08:39:38.83	276.59	32.15	-54.5	-59.1	3.7	0.00e+00	0	47	104	10980687872	80	24704
2026-01-15 08:39:41.82	278.33	31.93	-54.7	-59.2	3.7	0.00e+00	0	47	104	10980687872	80	24823
2026-01-15 08:39:44.82	280.04	31.68	-54.3	-58.9	3.7	0.00e+00	0	47	104	10980687872	80	24145
2026-01-15 08:39:47.81	281.72	31.42	-54.6	-59.0	3.7	0.00e+00	0	47	104	10980687872	80	24359
2026-01-15 08:39:50.81	283.38	31.13	-54.5	-59.0	3.7	0.00e+00	0	47	104	10980687872	80	24373
2026-01-15 08:39:53.81	285.00	30.82	-54.5	-58.9	3.7	0.00e+00	0	47	104	10980687872	80	24229
2026-01-15 08:39:56.80	286.59	30.49	-54.7	-59.1	3.7	0.00e+00	0	47	104	10980687872	80	24782
2026-01-15 08:39:59.79	288.14	30.15	-54.6	-59.1	3.7	0.00e+00	0	47	104	10980687872	80	24750
2026-01-15 08:40:02.79	289.66	29.79	-54.3	-58.9	3.7	0.00e+00	0	47	104	10980687872	80	24089
2026-01-15 08:40:05.78	291.13	29.41	-54.5	-58.9	3.7	0.00e+00	0	47	104	10980687872	80	24166
2026-01-15 08:40:08.77	292.57	29.03	-54.1	-58.6	3.7	0.00e+00	0	47	104	10980687872	80	23251
2026-01-15 08:40:11.76	293.97	28.63	-54.4	-58.9	3.7	0.00e+00	0	47	104	10980687872	79	25565
2026-01-15 08:40:14.75	295.33	28.22	-54.5	-58.8	3.7	0.00e+00	0	47	104	10980687872	79	25321
2026-01-15 08:40:17.75	296.66	27.81	-54.2	-58.7	3.7	0.00e+00	0	47	104	10980687872	79	24859
2026-01-15 08:40:20.75	297.96	27.38	-54.3	-58.7	3.7	0.00e+00	0	47	104	10980687872	79	25014
2026-01-15 08:40:23.75	299.21	26.95	-54.2	-58.8	3.7	0.00e+00	0	47	104	10980687872	79	25245
2026-01-15 08:40:26.75	300.43	26.52	-53.7	-58.4	3.7	0.00e+00	0	47	104	10980687872	79	24163
2026-01-15 08:40:29.74	301.61	26.08	-54.3	-58.7	3.7	0.00e+00	0	47	104	10980687872	79	25033
2026-01-15 08:40:32.74	302.76	25.64	-54.4	-58.8	3.7	0.00e+00	0	46	104	10980687872	79	25373
2026-01-15 08:40:35.73	303.87	25.20	-54.2	-58.5	3.7	0.00e+00	0	47	104	10980687872	79	24361
2026-01-15 08:40:38.72	304.94	24.76	-54.5	-58.7	3.7	0.00e+00	0	46	104	10980687872	79	24870
2026-01-15 08:40:41.72	305.99	24.32	-54.5	-59.1	3.7	0.00e+00	0	47	104	10980687872	79	26097
2026-01-15 08:40:44.72	307.00	23.88	-54.4	-58.7	3.7	0.00e+00	0	47	104	10980687872	79	25062
2026-01-15 08:40:47.71	307.98	23.44	-54.3	-58.5	3.7	0.00e+00	0	46	104	10980687872	79	24382
2026-01-15 08:40:50.71	308.93	23.00	-54.2	-58.6	3.7	0.00e+00	0	47	104	10980687872	79	24709
2026-01-15 08:40:53.71	309.86	22.56	-53.9	-58.7	3.7	0.00e+00	0	47	104	10980687872	79	24820
2026-01-15 08:40:56.71	310.75	22.13	-53.5	-58.1	3.7	0.00e+00	0	46	104	10980687872	79	23357
2026-01-15 08:40:59.71	311.62	21.69	-53.6	-58.2	3.7	0.00e+00	0	46	104	10980687872	79	23613
2026-01-15 08:41:02.69	312.46	21.27	-53.7	-58.0	3.7	0.00e+00	0	46	104	10980687872	79	23108
2026-01-15 08:41:05.69	313.27	20.84	-53.6	-58.1	3.7	0.00e+00	0	47	104	10980687872	79	23418
2026-01-15 08:41:08.69	314.06	20.42	-53.9	-58.5	3.7	0.00e+00	0	46	104	10980687872	79	24261
2026-01-15 08:41:11.69	314.83	20.01	-53.9	-58.6	3.7	0.00e+00	0	47	104	10980687872	79	24656
2026-01-15 08:41:14.68	315.57	19.60	-53.7	-58.4	3.7	0.00e+00	0	47	104	10980687872	79	24150
2026-01-15 08:41:17.68	316.29	19.19	-54.0	-58.7	3.7	0.00e+00	0	47	104	10980687872	79	24815
2026-01-15 08:41:20.67	316.99	18.79	-54.2	-58.8	3.7	0.00e+00	0	47	104	10980687872	79	25101
2026-01-15 08:41:23.68	317.67	18.39	-53.8	-58.6	3.7	0.00e+00	0	47	104	10980687872	79	24770
2026-01-15 08:41:26.69	318.33	18.00	-52.7	-58.0	3.7	0.00e+00	0	46	104	10980687872	77	25689
2026-01-15 08:41:29.69	318.97	17.61	-52.7	-58.1	3.7	0.00e+00	0	46	104	10980687872	77	25986
2026-01-15 08:41:32.70	319.59	17.22	-53.7	-58.4	3.7	0.00e+00	0	47	104	10980687872	78	25518
2026-01-15 08:41:35.70	320.20	16.84	-53.8	-58.4	3.7	0.00e+00	0	47	104	10980687872	78	25572
2026-01-15 08:41:38.70	320.78	16.47	-54.2	-58.9	3.7	0.00e+00	0	47	104	10980687872	79	25389
2026-01-15 08:41:41.70	321.35	16.10	-54.2	-58.9	3.7	0.00e+00	0	46	104	10980687872	79	25396
2026-01-15 08:41:44.70	321.91	15.74	-53.2	-58.1	3.7	0.00e+00	0	46	104	10980687872	78	24748
2026-01-15 08:41:47.70	322.45	15.38	-53.4	-58.3	3.7	0.00e+00	0	46	104	10980687872	78	25195
2026-01-15 08:41:50.69	322.97	15.03	-54.1	-58.6	3.7	0.00e+00	0	46	104	10980687872	78	26038
2026-01-15 08:41:53.70	323.48	14.68	-53.9	-58.5	3.7	0.00e+00	0	47	104	10980687872	79	24438
2026-01-15 08:41:56.70	323.98	14.33	-53.6	-58.5	3.7	0.00e+00	0	46	104	10980687872	79	24379
2026-01-15 08:41:59.69	324.46	13.99	-51.2	-56.9	3.7	0.00e+00	0	47	104	10980687872	74	27124
2026-01-15 08:42:02.66	324.92	13.66	-51.9	-57.5	3.7	0.00e+00	0	46	104	10980687872	74	28901
2026-01-15 08:42:05.66	325.38	13.33	-51.6	-57.2	3.7	0.00e+00	0	47	104	10980687872	74	27896
2026-01-15 08:42:08.66	325.83	13.01	-52.0	-57.5	3.7	0.00e+00	0	46	104	10980687872	74	28956
2026-01-15 08:42:11.67	326.27	12.68	-52.9	-58.1	3.7	0.00e+00	0	46	104	10980687872	76	27786
2026-01-15 08:42:14.67	326.69	12.37	-52.7	-58.0	3.7	0.00e+00	0	47	104	10980687872	76	27401
2026-01-15 08:42:17.67	327.10	12.05	-53.4	-58.4	3.7	0.00e+00	0	46	104	10980687872	77	26946
2026-01-15 08:42:20.67	327.51	11.75	-53.5	-58.5	3.7	0.00e+00	0	47	104	10980687872	77	27329
2026-01-15 08:42:23.67	327.90	11.44	-54.0	-58.8	3.7	0.00e+00	0	47	104	10980687872	78	26728
2026-01-15 08:42:26.68	328.29	11.14	-53.3	-58.2	3.7	0.00e+00	0	46	104	10980687872	78	25084
2026-01-15 08:42:29.68	328.66	10.84	-53.4	-58.3	3.7	0.00e+00	0	47	104	10980687872	77	26651
2026-01-15 08:42:32.68	329.03	10.55	-53.9	-58.7	3.7	0.00e+00	0	46	104	10980687872	78	26367
2026-01-15 08:42:35.68	329.39	10.26	-53.9	-58.7	3.7	0.00e+00	0	47	104	10980687872	78	26462
2026-01-15 08:42:38.68	329.73	9.98	-53.6	-58.5	3.7	0.00e+00	0	47	104	10980687872	78	25735
2026-01-15 08:42:41.69	330.08	9.69	-53.4	-58.4	3.7	0.00e+00	0	47	104	10980687872	78	25503
2026-01-15 08:42:44.69	330.41	9.42	-53.6	-58.6	3.7	0.00e+00	0	47	104	10980687872	78	26165
2026-01-15 08:42:47.69	330.74	9.14	-53.7	-58.6	3.7	0.00e+00	0	47	104	10980687872	78	26015
2026-01-15 08:42:50.69	331.06	8.87	-53.7	-58.8	3.7	0.00e+00	0	47	104	10980687872	79	25212
2026-01-15 08:42:53.67	331.36	8.60	-54.4	-58.9	3.7	0.00e+00	0	47	104	10980687872	79	25624
2026-01-15 08:42:56.66	331.67	8.34	-53.4	-58.7	3.7	0.00e+00	0	47	104	10980687872	78	26534
2026-01-15 08:42:59.65	331.97	8.08	-54.3	-59.1	3.7	0.00e+00	0	47	104	10980687872	80	24638
2026-01-15 08:43:02.65	332.26	7.82	-55.0	-59.5	3.7	0.00e+00	0	47	104	10980687872	80	25721
2026-01-15 08:43:05.64	332.54	7.57	-55.1	-59.7	3.7	0.00e+00	0	47	104	10980687872	81	24809

#Closed at: 2026-01-15 08:43:07
#Recorded file [10980 MB]: D:/Data/31040_260115_113430.dat