passes_logs/2026/01/15/T1/T1__20260115_094621_NOAA_20_JPSS-1_rec.log

#Pass ID: 20260115_094621_NOAA 20 (JPSS-1)
#Satellite: NOAA 20 (JPSS-1)
#Configuration: NOAA 20
#almurnet v.1.7.20251203
#Start time: 2026-01-15 09:46:23

#Version: 2.0.20230620
#Station: T1
#Location: 37.570604 lon 55.790049 lat
#TLE: 1 43013U 17073A   26014.55467351  .00000038  00000+0  38801-4 0  9992
#TLE: 2 43013  98.7635 315.4987 0001517  39.9279 320.2008 14.19535859422677

#Time	Az	El	Level	Level2	SNR	BER	BlckErr	Temp	State	Recorded	gain1	gain2
2026-01-15 09:46:23.54	155.36	5.13	-51.6	-66.9	3.8	1.49e+00	0	37	0	0	74	21324
2026-01-15 09:46:27.50	155.34	5.42	-51.6	-67.1	3.8	1.49e+00	0	37	104	0	75	20639
2026-01-15 09:46:31.48	155.31	5.71	-51.6	-66.8	3.8	1.49e+00	0	37	104	0	75	20065
2026-01-15 09:46:35.45	155.28	6.00	-51.6	-66.2	3.8	1.49e+00	0	37	104	0	75	18724
2026-01-15 09:46:39.42	155.25	6.30	-51.5	-65.3	3.8	1.49e+00	0	38	104	0	75	16873
2026-01-15 09:46:43.39	155.22	6.60	-51.4	-63.4	4.2	1.41e+00	0	38	0	0	74	14268
2026-01-15 09:46:47.36	155.18	6.90	-51.1	-60.8	5.4	6.02e-01	0	38	0	6291456	74	10629
2026-01-15 09:46:51.33	155.15	7.21	-50.6	-58.1	7.6	1.16e-01	0	38	0	13631488	73	8199
2026-01-15 09:46:55.31	155.12	7.53	-49.8	-55.5	10.2	8.21e-03	0	38	0	20971520	71	6810
2026-01-15 09:46:59.28	155.08	7.84	-49.1	-53.8	12.0	4.41e-04	0	38	0	28311552	70	5986
2026-01-15 09:47:03.25	155.05	8.16	-49.1	-53.8	12.0	2.91e-04	0	38	0	35651584	70	5966
2026-01-15 09:47:07.22	155.01	8.49	-50.1	-56.3	9.5	5.72e-03	0	38	0	42991616	70	7908
2026-01-15 09:47:11.19	154.97	8.81	-51.2	-61.4	5.1	5.62e-01	0	38	0	50331648	72	12741
2026-01-15 09:47:15.17	154.93	9.15	-50.2	-56.6	9.2	3.02e-02	0	39	0	52428800	72	7330
2026-01-15 09:47:19.14	154.89	9.48	-50.1	-56.2	9.7	1.04e-02	0	39	0	55574528	71	7374
2026-01-15 09:47:23.11	154.85	9.83	-48.7	-52.9	13.1	5.11e-05	0	39	0	62914560	69	5676
2026-01-15 09:47:27.08	154.81	10.17	-48.0	-51.6	14.4	2.20e-06	0	39	0	70254592	68	5209
2026-01-15 09:47:31.05	154.76	10.52	-47.8	-51.3	14.5	1.30e-04	0	39	0	78643200	67	5331
2026-01-15 09:47:35.01	154.72	10.88	-47.7	-51.2	14.7	0.00e+00	0	39	0	85983232	67	5220
2026-01-15 09:47:38.98	154.67	11.24	-47.7	-51.3	14.6	0.00e+00	0	39	0	93323264	67	5282
2026-01-15 09:47:42.95	154.62	11.61	-47.5	-51.1	14.8	7.00e-07	0	39	0	100663296	67	5163
2026-01-15 09:47:46.92	154.57	11.98	-47.4	-50.9	15.0	0.00e+00	0	39	0	108003328	66	5395
2026-01-15 09:47:50.90	154.52	12.36	-47.3	-50.8	15.1	0.00e+00	0	39	0	115343360	66	5302
2026-01-15 09:47:54.87	154.47	12.75	-47.4	-50.8	15.1	0.00e+00	0	39	0	122683392	66	5312
2026-01-15 09:47:58.84	154.42	13.14	-47.4	-50.8	15.2	0.00e+00	0	39	0	130023424	66	5285
2026-01-15 09:48:02.81	154.36	13.53	-47.1	-50.4	15.5	0.00e+00	0	39	0	137363456	66	5064
2026-01-15 09:48:06.78	154.30	13.94	-47.1	-50.3	15.6	0.00e+00	0	39	0	144703488	66	5016
2026-01-15 09:48:10.75	154.24	14.35	-47.1	-50.3	15.7	0.00e+00	0	39	0	153092096	66	4995
2026-01-15 09:48:14.72	154.18	14.76	-47.0	-50.2	15.8	0.00e+00	0	39	0	160432128	66	4934
2026-01-15 09:48:18.70	154.12	15.19	-46.9	-50.0	15.9	0.00e+00	0	39	0	167772160	65	5147
2026-01-15 09:48:22.67	154.05	15.62	-46.7	-49.7	16.2	0.00e+00	0	39	0	175112192	65	4938
2026-01-15 09:48:26.64	153.98	16.06	-46.8	-49.7	16.2	0.00e+00	0	39	0	182452224	65	4983
2026-01-15 09:48:30.61	153.91	16.51	-46.7	-49.7	16.3	0.00e+00	0	39	0	189792256	65	4933
2026-01-15 09:48:34.58	153.84	16.97	-46.5	-49.5	16.5	1.50e-03	0	39	0	197132288	65	4830
2026-01-15 09:48:38.55	153.76	17.43	-46.3	-49.2	16.7	0.00e+00	0	39	0	204472320	64	4961
2026-01-15 09:48:42.52	153.68	17.91	-46.2	-49.1	16.9	0.00e+00	0	39	0	211812352	64	4878
2026-01-15 09:48:46.49	153.60	18.39	-46.3	-49.0	16.9	0.00e+00	0	39	0	219152384	64	4869
2026-01-15 09:48:50.47	153.52	18.88	-46.2	-48.9	17.0	0.00e+00	0	39	0	227540992	64	4798
2026-01-15 09:48:54.44	153.43	19.39	-46.0	-48.7	17.3	2.36e-05	0	39	0	234881024	64	4674
2026-01-15 09:48:58.41	153.34	19.90	-46.0	-48.6	17.4	0.00e+00	0	40	0	242221056	63	4911
2026-01-15 09:49:02.38	153.24	20.42	-45.8	-48.5	17.6	0.00e+00	0	39	0	249561088	63	4822
2026-01-15 09:49:06.35	153.15	20.96	-45.7	-48.3	17.8	0.00e+00	0	40	0	256901120	63	4726
2026-01-15 09:49:10.32	153.04	21.50	-45.8	-48.3	17.8	0.00e+00	0	39	0	264241152	63	4729
2026-01-15 09:49:14.29	152.94	22.06	-46.0	-48.6	17.5	0.00e+00	0	40	0	271581184	63	4898
2026-01-15 09:49:18.27	152.83	22.63	-45.9	-48.5	17.6	0.00e+00	0	40	0	278921216	63	4860
2026-01-15 09:49:22.24	152.71	23.22	-46.0	-48.7	17.4	0.00e+00	0	40	0	286261248	63	4935
2026-01-15 09:49:26.21	152.59	23.81	-46.2	-48.9	17.2	0.00e+00	0	39	0	293601280	63	5059
2026-01-15 09:49:30.18	152.47	24.43	-46.4	-49.1	17.0	0.00e+00	0	39	0	301989888	63	5215
2026-01-15 09:49:34.15	152.34	25.05	-46.3	-49.1	17.1	0.00e+00	0	40	0	309329920	63	5179
2026-01-15 09:49:38.13	152.20	25.69	-46.5	-49.3	16.9	0.00e+00	0	40	0	316669952	63	5302
2026-01-15 09:49:42.10	152.06	26.35	-46.7	-49.7	16.4	0.00e+00	0	40	0	324009984	64	5229
2026-01-15 09:49:46.07	151.91	27.02	-46.7	-49.7	16.4	0.00e+00	0	40	0	331350016	64	5238
2026-01-15 09:49:50.04	151.75	27.71	-46.8	-49.9	16.2	0.00e+00	0	40	0	338690048	64	5398
2026-01-15 09:49:54.01	151.59	28.42	-47.2	-50.4	15.7	0.00e+00	0	40	0	346030080	65	5392
2026-01-15 09:49:57.98	151.42	29.14	-47.8	-51.2	15.0	7.00e-07	0	40	0	353370112	66	5561
2026-01-15 09:50:01.96	151.24	29.88	-48.2	-51.7	14.5	2.20e-06	0	40	0	360710144	67	5555
2026-01-15 09:50:05.93	151.05	30.65	-48.4	-52.1	14.1	2.20e-06	0	40	0	369098752	67	5839
2026-01-15 09:50:09.90	150.85	31.43	-49.0	-53.0	13.4	1.75e-05	0	40	0	376438784	68	6078
2026-01-15 09:50:13.87	150.64	32.23	-49.2	-53.4	13.0	2.59e-05	0	40	0	383778816	69	6052
2026-01-15 09:50:17.84	150.42	33.06	-49.3	-53.5	12.9	4.73e-05	0	40	0	391118848	69	6078
2026-01-15 09:50:21.81	150.19	33.91	-49.0	-53.1	13.3	1.22e-05	0	40	0	398458880	69	5808
2026-01-15 09:50:25.78	149.94	34.78	-48.8	-52.6	13.8	6.80e-06	0	40	0	405798912	69	5509
2026-01-15 09:50:29.76	149.68	35.68	-48.2	-51.6	14.8	7.00e-07	0	40	0	413138944	68	5193
2026-01-15 09:50:33.73	149.40	36.60	-47.5	-50.6	15.7	0.00e+00	0	40	0	420478976	66	5169
2026-01-15 09:50:37.70	149.11	37.54	-47.4	-50.5	15.8	0.00e+00	0	40	0	427819008	66	5105
2026-01-15 09:50:41.67	148.80	38.52	-47.5	-50.6	15.7	0.00e+00	0	40	0	435159040	66	5166
2026-01-15 09:50:45.64	148.47	39.52	-48.1	-51.4	14.8	0.00e+00	0	40	0	443547648	67	5385
2026-01-15 09:50:49.61	148.11	40.55	-48.4	-52.0	14.3	1.50e-06	0	40	0	450887680	67	5724
2026-01-15 09:50:53.58	147.74	41.60	-48.3	-51.9	14.4	3.80e-06	0	40	0	458227712	67	5695
2026-01-15 09:50:57.55	147.33	42.69	-48.4	-52.1	14.2	0.00e+00	0	40	0	465567744	67	5800
2026-01-15 09:51:01.53	146.90	43.81	-48.6	-52.3	14.0	2.20e-06	0	40	0	472907776	67	5970
2026-01-15 09:51:05.50	146.43	44.96	-48.7	-52.4	14.1	3.80e-06	0	40	0	480247808	68	5665
2026-01-15 09:51:09.47	145.93	46.15	-48.3	-51.7	14.7	1.50e-06	0	40	0	487587840	68	5254
2026-01-15 09:51:13.44	145.38	47.36	-49.2	-53.1	13.3	8.30e-06	0	40	0	494927872	68	6184
2026-01-15 09:51:17.41	144.79	48.61	-49.4	-53.6	12.9	7.70e-05	0	40	0	502267904	69	6139
2026-01-15 09:51:21.39	144.15	49.89	-48.5	-52.1	14.4	7.00e-07	0	40	0	509607936	69	5167
2026-01-15 09:51:25.36	143.45	51.20	-46.9	-49.7	16.6	0.00e+00	0	40	0	517996544	65	4949
2026-01-15 09:51:29.33	142.68	52.54	-46.0	-48.5	17.8	0.00e+00	0	40	0	525336576	63	4828
2026-01-15 09:51:33.30	141.84	53.92	-46.3	-48.9	17.4	0.00e+00	0	40	0	532676608	63	5089
2026-01-15 09:51:37.27	140.92	55.33	-46.8	-49.6	16.6	0.00e+00	0	40	0	540016640	64	5189
2026-01-15 09:51:41.24	139.89	56.76	-47.4	-50.4	15.8	0.00e+00	0	40	0	547356672	65	5393
2026-01-15 09:51:45.22	138.75	58.23	-48.2	-51.8	14.5	7.00e-07	0	40	0	554696704	67	5606
2026-01-15 09:51:49.19	137.47	59.72	-47.4	-50.6	15.7	0.00e+00	0	40	0	562036736	66	5181
2026-01-15 09:51:53.16	136.04	61.22	-46.5	-49.2	17.1	0.00e+00	0	40	0	569376768	65	4672
2026-01-15 09:51:57.13	134.42	62.75	-45.7	-48.1	18.1	0.00e+00	0	40	0	576716800	63	4648
2026-01-15 09:52:01.10	132.58	64.29	-46.1	-48.6	17.7	0.00e+00	0	40	0	584056832	63	4915
2026-01-15 09:52:05.07	130.47	65.83	-47.5	-50.6	15.8	0.00e+00	0	40	0	592445440	65	5476
2026-01-15 09:52:09.04	128.04	67.37	-49.1	-52.9	13.5	1.83e-05	0	40	0	599785472	69	5722
2026-01-15 09:52:13.01	125.22	68.89	-47.6	-50.7	15.5	0.00e+00	0	40	0	607125504	67	4972
2026-01-15 09:52:16.99	121.93	70.38	-46.7	-49.5	16.8	0.00e+00	0	40	0	614465536	65	4818
2026-01-15 09:52:20.96	118.07	71.82	-46.3	-48.9	17.3	0.00e+00	0	40	0	621805568	64	4774
2026-01-15 09:52:24.93	113.52	73.18	-46.9	-49.7	16.6	0.00e+00	0	40	0	629145600	65	4955
2026-01-15 09:52:28.90	108.16	74.44	-48.3	-51.8	14.5	0.00e+00	0	40	0	636485632	67	5647
2026-01-15 09:52:32.87	101.87	75.56	-48.7	-52.3	14.2	3.80e-06	0	40	0	643825664	68	5656
2026-01-15 09:52:36.84	94.59	76.49	-49.2	-53.3	13.1	1.14e-05	0	40	0	651165696	69	5987
2026-01-15 09:52:40.81	86.35	77.18	-49.1	-53.3	13.3	6.10e-06	0	40	0	658505728	68	6282
2026-01-15 09:52:44.79	77.33	77.59	-49.2	-53.1	13.3	1.60e-05	0	40	0	666894336	70	5516
2026-01-15 09:52:48.76	67.96	77.68	-48.4	-51.9	14.5	1.50e-06	0	40	0	674234368	68	5390
2026-01-15 09:52:52.73	58.69	77.45	-48.8	-52.4	14.0	1.50e-06	0	40	0	681574400	68	5712
2026-01-15 09:52:56.70	49.98	76.92	-49.4	-53.5	13.0	2.67e-05	0	40	0	688914432	69	6093
2026-01-15 09:53:00.68	42.12	76.12	-49.3	-53.5	13.0	2.67e-05	0	40	0	696254464	69	6077
2026-01-15 09:53:04.65	35.27	75.11	-49.8	-54.5	12.0	1.59e-03	0	40	0	703594496	71	6074
2026-01-15 09:53:08.62	29.39	73.93	-49.6	-53.7	12.8	6.48e-05	0	40	0	710934528	70	5914
2026-01-15 09:53:12.59	24.39	72.62	-47.8	-50.9	15.4	0.00e+00	0	40	0	718274560	67	5092
2026-01-15 09:53:16.56	20.16	71.22	-47.0	-49.8	16.4	0.00e+00	0	40	0	725614592	65	5035
2026-01-15 09:53:20.53	16.56	69.76	-48.1	-51.5	14.9	0.00e+00	0	40	0	734003200	66	5729
2026-01-15 09:53:24.50	13.48	68.26	-48.7	-52.3	14.2	2.20e-06	0	40	0	741343232	68	5635
2026-01-15 09:53:28.47	10.84	66.74	-49.3	-53.3	13.3	2.28e-05	0	40	0	748683264	69	5967
2026-01-15 09:53:32.45	8.55	65.20	-46.8	-49.7	16.7	0.00e+00	0	40	0	756023296	65	4942
2026-01-15 09:53:36.42	6.56	63.66	-45.8	-48.3	18.0	0.00e+00	0	40	0	763363328	63	4724
2026-01-15 09:53:40.39	4.82	62.13	-45.9	-48.4	17.9	0.00e+00	0	40	0	770703360	63	4805
2026-01-15 09:53:44.36	3.28	60.62	-47.7	-50.8	15.5	0.00e+00	0	40	0	778043392	65	5627
2026-01-15 09:53:48.33	1.92	59.12	-49.0	-52.9	13.6	8.30e-06	0	40	0	785383424	68	6023
2026-01-15 09:53:52.30	0.71	57.65	-50.0	-54.7	11.8	5.13e-04	0	40	0	792723456	70	6586
2026-01-15 09:53:56.27	359.62	56.20	-48.7	-52.4	14.2	4.50e-06	0	40	0	800063488	69	5341
2026-01-15 09:54:00.25	358.64	54.78	-47.3	-50.3	16.0	0.00e+00	0	40	0	808452096	66	4997
2026-01-15 09:54:04.22	357.75	53.39	-46.1	-48.7	17.6	0.00e+00	0	40	0	815792128	63	4941
2026-01-15 09:54:08.19	356.94	52.04	-46.8	-49.6	16.7	0.00e+00	0	40	0	823132160	64	5185
2026-01-15 09:54:12.16	356.21	50.71	-47.6	-50.6	15.7	0.00e+00	0	40	0	830472192	65	5518
2026-01-15 09:54:16.13	355.54	49.42	-49.3	-53.4	13.1	3.89e-05	0	40	0	837812224	69	6014
2026-01-15 09:54:20.11	354.92	48.15	-49.4	-53.6	12.9	5.56e-05	0	40	0	845152256	69	6198
2026-01-15 09:54:24.08	354.35	46.93	-50.0	-54.8	11.7	8.08e-04	0	40	0	852492288	70	6674
2026-01-15 09:54:28.05	353.83	45.73	-48.6	-52.2	14.2	4.50e-06	0	40	0	859832320	69	5263
2026-01-15 09:54:32.02	353.34	44.57	-48.5	-52.3	14.2	0.00e+00	0	40	0	867172352	68	5619
2026-01-15 09:54:35.99	352.89	43.43	-49.6	-54.0	12.4	1.18e-04	0	40	0	874512384	69	6476
2026-01-15 09:54:39.97	352.47	42.33	-49.3	-53.3	13.2	2.74e-05	0	40	0	881852416	69	5960
2026-01-15 09:54:43.94	352.08	41.26	-49.3	-53.3	13.2	2.36e-05	0	40	0	890241024	69	5979
2026-01-15 09:54:47.91	351.71	40.22	-49.8	-54.4	12.1	1.88e-04	0	40	0	897581056	70	6371
2026-01-15 09:54:51.88	351.37	39.20	-49.2	-53.2	13.3	1.83e-05	0	40	0	904921088	70	5581
2026-01-15 09:54:55.85	351.05	38.22	-48.5	-52.2	14.3	7.00e-07	0	40	0	912261120	68	5535
2026-01-15 09:54:59.82	350.74	37.26	-48.9	-52.9	13.6	1.22e-05	0	40	0	919601152	68	6026
2026-01-15 09:55:03.79	350.46	36.33	-48.5	-52.5	14.0	3.00e-06	0	40	0	926941184	68	5757
2026-01-15 09:55:07.77	350.19	35.42	-48.6	-52.4	14.1	2.20e-06	0	40	0	934281216	68	5669
2026-01-15 09:55:11.74	349.94	34.54	-48.5	-52.1	14.4	0.00e+00	0	40	0	941621248	68	5473
2026-01-15 09:55:15.71	349.70	33.68	-48.2	-51.6	14.8	7.00e-07	0	40	0	948961280	68	5213
2026-01-15 09:55:19.68	349.48	32.84	-48.8	-52.8	13.6	2.20e-06	0	40	0	957349888	68	5951
2026-01-15 09:55:23.65	349.26	32.03	-49.2	-53.6	12.9	4.95e-05	0	40	0	964689920	69	6150
2026-01-15 09:55:27.62	349.06	31.24	-49.0	-52.9	13.6	1.22e-05	0	40	0	972029952	69	5680
2026-01-15 09:55:31.59	348.87	30.47	-48.8	-52.6	13.8	4.50e-06	0	40	0	979369984	69	5518
2026-01-15 09:55:35.57	348.68	29.71	-48.5	-52.1	14.3	2.20e-06	0	40	0	986710016	68	5495
2026-01-15 09:55:39.54	348.51	28.98	-48.6	-52.3	14.2	0.00e+00	0	40	0	994050048	68	5597
2026-01-15 09:55:43.51	348.34	28.27	-48.7	-52.4	14.1	0.00e+00	0	40	0	1001390080	68	5657
2026-01-15 09:55:47.48	348.18	27.57	-48.3	-51.9	14.6	7.00e-07	0	40	0	1008730112	68	5360
2026-01-15 09:55:51.45	348.03	26.89	-48.0	-51.7	14.7	1.50e-06	0	40	0	1016070144	68	5262
2026-01-15 09:55:55.42	347.89	26.23	-47.8	-51.3	14.9	0.00e+00	0	41	0	1023410176	67	5324
2026-01-15 09:55:59.39	347.75	25.58	-47.5	-50.8	15.4	0.00e+00	0	40	0	1031798784	67	5038
2026-01-15 09:56:03.37	347.62	24.95	-47.1	-50.8	15.4	0.00e+00	0	40	0	1039138816	66	5330
2026-01-15 09:56:07.34	347.50	24.33	-47.0	-50.9	15.3	0.00e+00	0	40	0	1046478848	66	5384
2026-01-15 09:56:11.31	347.37	23.73	-47.4	-50.9	15.3	0.00e+00	0	40	0	1053818880	66	5358
2026-01-15 09:56:15.28	347.26	23.14	-47.4	-50.7	15.4	0.00e+00	0	40	0	1061158912	66	5272
2026-01-15 09:56:19.25	347.15	22.56	-47.5	-50.8	15.4	0.00e+00	0	41	0	1068498944	66	5326
2026-01-15 09:56:23.22	347.04	22.00	-47.4	-50.7	15.4	0.00e+00	0	40	0	1075838976	66	5279
2026-01-15 09:56:27.20	346.94	21.44	-47.5	-50.8	15.4	0.00e+00	0	41	0	1083179008	66	5300
2026-01-15 09:56:31.17	346.84	20.90	-47.6	-50.8	15.4	0.00e+00	0	40	0	1090519040	66	5340
2026-01-15 09:56:35.14	346.75	20.37	-47.6	-51.0	15.2	0.00e+00	0	41	0	1097859072	66	5447
2026-01-15 09:56:39.11	346.66	19.86	-47.8	-51.3	14.9	0.00e+00	0	40	0	1106247680	66	5631
2026-01-15 09:56:43.08	346.57	19.35	-47.8	-51.5	14.7	7.00e-07	0	40	0	1113587712	66	5756
2026-01-15 09:56:47.06	346.49	18.85	-47.3	-51.4	14.8	0.00e+00	0	40	0	1120927744	66	5694
2026-01-15 09:56:51.03	346.41	18.36	-47.4	-51.6	14.5	0.00e+00	0	40	0	1128267776	66	5829
2026-01-15 09:56:55.00	346.33	17.89	-47.4	-51.5	14.6	0.00e+00	0	40	0	1135607808	66	5746
2026-01-15 09:56:58.97	346.26	17.42	-47.6	-51.7	14.4	0.00e+00	0	40	0	1142947840	66	5886
2026-01-15 09:57:02.94	346.19	16.96	-47.7	-51.9	14.3	1.50e-06	0	40	0	1150287872	66	6004
2026-01-15 09:57:06.91	346.12	16.51	-47.9	-51.9	14.2	3.80e-06	0	40	0	1157627904	66	6047
2026-01-15 09:57:10.88	346.05	16.06	-47.9	-52.1	14.0	0.00e+00	0	40	0	1164967936	66	6139
2026-01-15 09:57:14.85	345.99	15.63	-47.8	-52.1	14.0	3.80e-06	0	41	0	1172307968	66	6202
2026-01-15 09:57:18.82	345.92	15.20	-47.8	-52.1	14.0	3.80e-06	0	41	0	1180696576	66	6154
2026-01-15 09:57:22.79	345.86	14.78	-48.0	-52.1	13.9	7.00e-07	0	41	0	1188036608	66	6196
2026-01-15 09:57:26.77	345.81	14.36	-48.0	-52.0	14.1	3.00e-06	0	41	0	1195376640	66	6081
2026-01-15 09:57:30.74	345.75	13.96	-48.0	-52.0	14.1	5.30e-06	0	40	0	1202716672	66	6064
2026-01-15 09:57:34.71	345.70	13.56	-48.0	-51.9	14.1	7.00e-07	0	41	0	1210056704	66	6044
2026-01-15 09:57:38.68	345.65	13.17	-48.2	-52.1	13.9	2.20e-06	0	41	0	1217396736	67	5820
2026-01-15 09:57:42.65	345.60	12.78	-48.2	-52.1	13.9	2.20e-06	0	41	0	1224736768	67	5805
2026-01-15 09:57:46.62	345.55	12.40	-48.3	-52.2	13.8	3.80e-06	0	40	0	1232076800	67	5909
2026-01-15 09:57:50.60	345.50	12.02	-48.4	-52.5	13.5	8.30e-06	0	41	0	1239416832	67	6074
2026-01-15 09:57:54.57	345.45	11.65	-48.2	-52.7	13.3	1.52e-05	0	41	0	1246756864	67	6209
2026-01-15 09:57:58.54	345.41	11.29	-47.9	-52.7	13.3	1.90e-05	0	41	0	1255145472	67	6221
2026-01-15 09:58:02.51	345.37	10.93	-47.5	-52.9	13.0	3.20e-05	0	41	0	1262485504	67	6403
2026-01-15 09:58:06.48	345.33	10.58	-47.3	-53.0	12.9	4.27e-05	0	41	0	1269825536	66	6808
2026-01-15 09:58:10.45	345.29	10.23	-47.3	-53.2	12.7	6.25e-05	0	41	0	1277165568	66	6970
2026-01-15 09:58:14.42	345.25	9.88	-46.9	-53.1	12.8	4.19e-05	0	41	0	1284505600	65	7290
2026-01-15 09:58:18.39	345.21	9.54	-46.5	-53.1	12.7	6.10e-05	0	41	0	1291845632	64	7768
2026-01-15 09:58:22.37	345.18	9.21	-46.0	-53.0	12.8	4.88e-05	0	41	0	1299185664	64	7701
2026-01-15 09:58:26.34	345.14	8.88	-49.5	-67.4	3.8	1.49e+00	0	41	104	1304428544	71	27055
2026-01-15 09:58:30.31	345.11	8.55	-52.3	-67.7	3.8	1.49e+00	0	41	104	1304428544	75	22070
2026-01-15 09:58:34.28	345.08	8.23	-52.4	-67.8	3.8	1.49e+00	0	41	104	1304428544	75	22308
2026-01-15 09:58:38.26	345.05	7.91	-52.5	-67.8	3.8	1.49e+00	0	40	104	1304428544	76	21121
2026-01-15 09:58:42.23	345.02	7.60	-52.6	-67.8	3.8	1.49e+00	0	41	104	1304428544	76	21200
2026-01-15 09:58:46.20	344.99	7.29	-52.7	-67.9	3.8	1.49e+00	0	41	104	1304428544	76	21332
2026-01-15 09:58:50.17	344.96	6.98	-52.7	-67.8	3.8	1.49e+00	0	40	104	1304428544	76	21196
2026-01-15 09:58:54.14	344.93	6.68	-52.5	-67.8	3.8	1.49e+00	0	41	104	1304428544	76	21109
2026-01-15 09:58:58.11	344.91	6.38	-52.5	-67.7	3.8	1.49e+00	0	41	104	1304428544	76	21007
2026-01-15 09:59:02.09	344.88	6.09	-52.4	-67.8	3.8	1.49e+00	0	41	104	1304428544	76	21061
2026-01-15 09:59:06.06	344.86	5.79	-52.4	-67.8	3.8	1.49e+00	0	41	104	1304428544	76	21019
2026-01-15 09:59:10.03	344.83	5.50	-52.4	-67.8	3.8	1.49e+00	0	41	104	1304428544	76	21019
2026-01-15 09:59:14.00	344.81	5.22	-52.4	-67.7	3.8	1.49e+00	0	41	104	1304428544	76	20972

#Closed at: 2026-01-15 09:59:17
#Recorded file [1304 MB]: D:/Data/31040_260115_124623.dat