passes_logs/2026/01/15/T1/T1__20260115_233657_NOAA_20_JPSS-1_rec.log

#Pass ID: 20260115_233657_NOAA 20 (JPSS-1)
#Satellite: NOAA 20 (JPSS-1)
#Configuration: NOAA 20
#almurnet v.1.7.20251203
#Start time: 2026-01-15 23:36:58

#Version: 2.0.20230620
#Station: T1
#Location: 37.570604 lon 55.790049 lat
#TLE: 1 43013U 17073A   26015.47098083  .00000029  00000+0  34851-4 0  9997
#TLE: 2 43013  98.7636 316.4053 0001479  38.6686 321.4595 14.19536048422808

#Time	Az	El	Level	Level2	SNR	BER	BlckErr	Temp	State	Recorded	gain1	gain2
2026-01-15 23:36:58.71	16.86	5.05	-47.4	-63.8	3.8	1.49e+00	0	39	0	0	66	23586
2026-01-15 23:37:02.68	16.89	5.34	-47.4	-63.6	3.8	1.49e+00	0	40	104	0	65	24463
2026-01-15 23:37:06.65	16.92	5.62	-47.4	-63.2	3.8	1.49e+00	0	40	104	0	65	23370
2026-01-15 23:37:10.63	16.95	5.92	-47.4	-63.2	3.8	1.49e+00	0	40	104	0	65	23402
2026-01-15 23:37:14.60	16.99	6.21	-47.4	-63.4	3.8	1.49e+00	0	40	104	0	65	23918
2026-01-15 23:37:18.58	17.02	6.51	-47.4	-63.0	3.8	1.49e+00	0	40	104	0	65	22946
2026-01-15 23:37:22.55	17.05	6.81	-47.4	-63.4	3.8	1.49e+00	0	40	104	0	65	23892
2026-01-15 23:37:26.53	17.09	7.11	-47.4	-63.5	3.8	1.49e+00	0	41	104	0	65	24227
2026-01-15 23:37:30.50	17.12	7.42	-47.2	-60.4	4.2	1.45e+00	0	41	0	0	65	17025
2026-01-15 23:37:34.47	17.15	7.73	-47.0	-57.5	5.5	5.70e-01	0	41	0	6291456	65	12176
2026-01-15 23:37:38.45	17.19	8.05	-46.8	-56.2	6.4	2.62e-01	0	41	0	13631488	65	10498
2026-01-15 23:37:42.42	17.22	8.37	-46.6	-55.3	7.2	1.36e-01	0	41	0	20971520	65	9476
2026-01-15 23:37:46.39	17.26	8.69	-46.7	-55.5	7.1	1.42e-01	0	41	0	28311552	65	9632
2026-01-15 23:37:50.37	17.30	9.02	-47.0	-57.9	5.2	5.16e-01	0	41	0	35651584	65	12761
2026-01-15 23:37:54.42	17.33	9.36	-47.6	-63.8	3.8	1.49e+00	0	41	104	41943040	65	25230
2026-01-15 23:37:58.46	17.37	9.70	-44.4	-48.6	14.3	1.50e-06	0	41	0	46137344	60	5793
2026-01-15 23:38:02.44	17.41	10.04	-44.0	-47.9	15.0	7.00e-07	0	42	0	54525952	59	5690
2026-01-15 23:38:06.42	17.45	10.39	-43.9	-47.7	15.2	0.00e+00	0	42	0	61865984	59	5553
2026-01-15 23:38:10.40	17.48	10.74	-43.9	-47.7	15.3	0.00e+00	0	41	0	69206016	59	5535
2026-01-15 23:38:14.38	17.52	11.10	-43.9	-47.4	15.5	0.00e+00	0	42	0	76546048	59	5372
2026-01-15 23:38:18.37	17.56	11.46	-43.9	-47.4	15.5	0.00e+00	0	42	0	83886080	59	5393
2026-01-15 23:38:22.37	17.60	11.83	-43.9	-47.2	15.7	0.00e+00	0	42	0	91226112	59	5269
2026-01-15 23:38:26.50	17.64	12.22	-43.9	-47.1	15.8	0.00e+00	0	42	0	99614720	59	5205
2026-01-15 23:38:30.70	17.69	12.62	-43.8	-46.9	16.0	0.00e+00	0	42	0	106954752	59	5097
2026-01-15 23:38:34.80	17.73	13.01	-43.7	-46.8	16.1	0.00e+00	0	42	0	114294784	59	5040
2026-01-15 23:38:38.79	17.77	13.41	-43.7	-46.7	16.3	0.00e+00	0	42	0	122683392	59	4966
2026-01-15 23:38:42.76	17.82	13.81	-43.7	-46.7	16.3	0.00e+00	0	42	0	130023424	59	4973
2026-01-15 23:38:46.72	17.86	14.21	-43.7	-46.7	16.3	0.00e+00	0	42	0	137363456	59	4959
2026-01-15 23:38:50.78	17.91	14.63	-43.7	-46.6	16.4	0.00e+00	0	42	0	144703488	59	4916
2026-01-15 23:38:54.80	17.95	15.05	-43.7	-46.7	16.4	0.00e+00	0	42	0	152043520	59	4941
2026-01-15 23:38:58.78	18.00	15.48	-43.7	-46.7	16.4	0.00e+00	0	42	0	159383552	59	4947
2026-01-15 23:39:02.76	18.05	15.91	-43.7	-46.7	16.4	0.00e+00	0	42	0	166723584	59	4934
2026-01-15 23:39:06.74	18.09	16.36	-43.6	-46.5	16.6	0.00e+00	0	42	0	175112192	59	4849
2026-01-15 23:39:10.78	18.14	16.81	-43.8	-46.7	16.4	0.00e+00	0	42	0	182452224	59	4966
2026-01-15 23:39:14.87	18.20	17.29	-43.7	-46.6	16.5	0.00e+00	0	42	0	189792256	59	4915
2026-01-15 23:39:18.85	18.25	17.75	-43.6	-46.6	16.5	0.00e+00	0	42	0	197132288	59	4894
2026-01-15 23:39:22.83	18.30	18.23	-43.5	-46.5	16.6	0.00e+00	0	42	0	204472320	59	4863
2026-01-15 23:39:26.92	18.36	18.73	-43.7	-46.8	16.4	0.00e+00	0	42	0	212860928	59	4992
2026-01-15 23:39:30.90	18.41	19.23	-43.7	-46.7	16.5	0.00e+00	0	42	0	220200960	59	4954
2026-01-15 23:39:34.88	18.47	19.74	-43.9	-47.0	16.2	0.00e+00	0	42	0	227540992	59	5103
2026-01-15 23:39:38.86	18.52	20.25	-43.9	-46.8	16.3	0.00e+00	0	42	0	234881024	59	5039
2026-01-15 23:39:42.84	18.58	20.78	-44.0	-47.0	16.1	0.00e+00	0	42	0	242221056	59	5126
2026-01-15 23:39:46.81	18.64	21.32	-44.0	-47.0	16.1	0.00e+00	0	42	0	249561088	59	5156
2026-01-15 23:39:50.79	18.71	21.87	-44.1	-47.2	16.0	0.00e+00	0	42	0	256901120	59	5233
2026-01-15 23:39:54.79	18.77	22.44	-44.1	-47.2	16.0	0.00e+00	0	42	0	264241152	59	5252
2026-01-15 23:39:58.88	18.84	23.03	-44.0	-47.1	16.1	0.00e+00	0	42	0	272629760	59	5196
2026-01-15 23:40:02.94	18.91	23.64	-44.0	-47.1	16.1	0.00e+00	0	42	0	279969792	59	5181
2026-01-15 23:40:06.95	18.98	24.24	-44.0	-47.0	16.2	0.00e+00	0	42	0	287309824	59	5149
2026-01-15 23:40:11.04	19.05	24.88	-44.1	-47.3	15.9	0.00e+00	0	42	0	295698432	59	5318
2026-01-15 23:40:15.01	19.12	25.51	-44.1	-47.2	16.0	0.00e+00	0	42	0	303038464	59	5279
2026-01-15 23:40:19.00	19.20	26.17	-44.2	-47.4	15.8	0.00e+00	0	42	0	310378496	59	5386
2026-01-15 23:40:22.97	19.28	26.83	-44.2	-47.4	15.8	0.00e+00	0	42	0	317718528	59	5374
2026-01-15 23:40:26.95	19.36	27.51	-44.3	-47.4	15.8	0.00e+00	0	42	0	325058560	59	5392
2026-01-15 23:40:30.93	19.45	28.21	-44.4	-47.7	15.6	0.00e+00	0	42	0	332398592	59	5545
2026-01-15 23:40:34.91	19.53	28.93	-44.6	-48.0	15.3	0.00e+00	0	42	0	339738624	59	5729
2026-01-15 23:40:38.89	19.62	29.67	-45.0	-48.6	14.7	7.00e-07	0	42	0	347078656	60	5848
2026-01-15 23:40:42.87	19.72	30.43	-45.1	-48.7	14.6	0.00e+00	0	42	0	354418688	61	5540
2026-01-15 23:40:46.85	19.82	31.20	-45.2	-49.0	14.4	3.00e-06	0	42	0	362807296	61	5729
2026-01-15 23:40:50.83	19.92	32.00	-45.5	-49.3	14.0	1.50e-06	0	42	0	370147328	61	5950
2026-01-15 23:40:54.80	20.03	32.82	-45.6	-49.4	13.9	2.20e-06	0	42	0	377487360	62	5695
2026-01-15 23:40:58.93	20.14	33.70	-45.3	-48.9	14.5	1.50e-06	0	42	0	384827392	62	5358
2026-01-15 23:41:03.08	20.27	34.60	-44.5	-47.8	15.6	0.00e+00	0	42	0	393216000	61	5001
2026-01-15 23:41:07.08	20.39	35.50	-43.8	-46.7	16.6	0.00e+00	0	42	0	400556032	59	4960
2026-01-15 23:41:11.07	20.52	36.43	-43.2	-46.1	17.3	0.00e+00	0	42	0	407896064	58	4881
2026-01-15 23:41:15.26	20.67	37.43	-42.9	-45.6	17.7	0.00e+00	0	42	0	415236096	57	4894
2026-01-15 23:41:19.57	20.82	38.48	-43.0	-45.7	17.7	0.00e+00	0	42	0	423624704	57	4929
2026-01-15 23:41:23.58	20.98	39.50	-43.4	-46.1	17.2	0.00e+00	0	42	0	430964736	57	5203
2026-01-15 23:41:27.59	21.14	40.55	-43.5	-46.3	17.0	0.00e+00	0	42	0	438304768	57	5305
2026-01-15 23:41:31.60	21.31	41.63	-44.2	-47.1	16.3	0.00e+00	0	42	0	446693376	59	5167
2026-01-15 23:41:35.97	21.51	42.84	-44.3	-47.3	16.1	0.00e+00	0	42	0	454033408	59	5321
2026-01-15 23:41:40.16	21.72	44.04	-44.0	-46.9	16.5	0.00e+00	0	43	0	462422016	59	5057
2026-01-15 23:41:44.47	21.95	45.31	-44.3	-47.3	15.9	0.00e+00	0	42	0	470810624	59	5337
2026-01-15 23:41:48.46	22.18	46.53	-45.3	-49.1	14.3	1.50e-06	0	42	0	478150656	61	5808
2026-01-15 23:41:52.55	22.43	47.81	-45.6	-49.4	14.1	2.20e-06	0	43	0	485490688	61	6001
2026-01-15 23:41:56.64	22.70	49.14	-45.6	-49.4	14.2	7.00e-07	0	42	0	492830720	62	5664
2026-01-15 23:42:00.98	23.02	50.58	-44.2	-47.3	16.2	0.00e+00	0	42	0	501219328	60	4991
2026-01-15 23:42:04.98	23.34	51.96	-42.8	-45.3	18.0	0.00e+00	0	42	0	508559360	57	4730
2026-01-15 23:42:08.95	23.68	53.37	-42.3	-44.7	18.6	0.00e+00	0	42	0	515899392	56	4690
2026-01-15 23:42:13.14	24.08	54.89	-41.6	-43.8	19.3	0.00e+00	0	43	0	524288000	55	4482
2026-01-15 23:42:17.26	24.52	56.43	-42.6	-45.0	18.1	0.00e+00	0	42	0	531628032	55	5148
2026-01-15 23:42:21.25	24.99	57.97	-43.9	-46.8	16.6	0.00e+00	0	42	0	538968064	58	5287
2026-01-15 23:42:25.27	25.52	59.56	-42.3	-44.6	18.7	0.00e+00	0	43	0	547356672	56	4643
2026-01-15 23:42:29.25	26.12	61.17	-41.9	-44.2	18.9	0.00e+00	0	42	0	554696704	55	4687
2026-01-15 23:42:33.23	26.79	62.81	-41.8	-44.1	19.0	0.00e+00	0	42	0	562036736	55	4625
2026-01-15 23:42:37.21	27.56	64.50	-43.3	-45.9	17.4	0.00e+00	0	42	0	569376768	57	5095
2026-01-15 23:42:41.24	28.47	66.24	-44.4	-47.5	15.9	0.00e+00	0	42	0	576716800	60	5115
2026-01-15 23:42:45.34	29.56	68.04	-44.2	-47.2	16.2	0.00e+00	0	42	0	584056832	59	5228
2026-01-15 23:42:49.59	30.91	69.94	-43.3	-45.9	17.6	0.00e+00	0	43	0	592445440	58	4760
2026-01-15 23:42:53.58	32.45	71.75	-43.7	-46.5	16.9	0.00e+00	0	42	0	599785472	58	5121
2026-01-15 23:42:57.57	34.35	73.57	-44.8	-48.0	15.5	0.00e+00	0	42	0	607125504	60	5441
2026-01-15 23:43:01.58	36.76	75.41	-44.7	-47.9	15.5	0.00e+00	0	42	0	614465536	60	5387
2026-01-15 23:43:05.54	39.85	77.22	-44.9	-48.2	15.2	0.00e+00	0	43	0	622854144	60	5583
2026-01-15 23:43:09.52	44.00	79.01	-44.6	-47.8	15.8	0.00e+00	0	42	0	630194176	61	5002
2026-01-15 23:43:13.50	49.77	80.74	-45.2	-48.7	14.9	0.00e+00	0	42	0	637534208	60	5889
2026-01-15 23:43:17.48	58.12	82.36	-44.6	-47.7	15.8	0.00e+00	0	42	0	644874240	61	4937
2026-01-15 23:43:21.45	70.51	83.73	-42.5	-45.0	18.3	0.00e+00	0	43	0	652214272	57	4575
2026-01-15 23:43:25.55	89.19	84.70	-42.1	-44.5	18.7	0.00e+00	0	42	0	659554304	55	4852
2026-01-15 23:43:29.53	111.82	84.93	-43.4	-46.1	17.3	0.00e+00	0	42	0	666894336	57	5179
2026-01-15 23:43:33.51	133.09	84.38	-45.2	-48.8	14.7	0.00e+00	0	42	0	675282944	60	5938
2026-01-15 23:43:37.49	148.84	83.23	-45.8	-49.7	13.7	3.80e-06	0	42	0	682622976	62	5885
2026-01-15 23:43:41.57	159.67	81.70	-45.8	-49.5	13.9	3.81e-05	0	42	0	689963008	63	5460
2026-01-15 23:43:45.55	166.79	80.03	-44.1	-47.0	16.4	0.00e+00	0	42	0	697303040	59	5124
2026-01-15 23:43:49.52	171.79	78.27	-45.5	-49.2	14.2	2.20e-06	0	43	0	704643072	61	5901
2026-01-15 23:43:53.50	175.45	76.46	-47.7	-53.6	9.5	4.84e-02	0	42	0	711983104	67	6952
2026-01-15 23:43:57.48	178.22	74.63	-47.2	-52.2	10.9	1.06e-03	0	43	0	719323136	65	6646
2026-01-15 23:44:01.89	180.60	72.61	-44.8	-47.9	15.6	0.00e+00	0	43	0	727711744	61	5076
2026-01-15 23:44:05.87	182.29	70.79	-43.5	-46.2	17.2	0.00e+00	0	43	0	735051776	59	4659
2026-01-15 23:44:09.84	183.68	69.00	-43.6	-46.2	17.2	0.00e+00	0	42	0	743440384	58	4980
2026-01-15 23:44:14.17	184.93	67.08	-45.8	-49.6	13.8	9.10e-06	0	42	0	750780416	63	5487
2026-01-15 23:44:18.21	185.92	65.31	-46.0	-50.0	13.4	1.83e-05	0	43	0	758120448	62	6119
2026-01-15 23:44:22.13	186.74	63.63	-42.6	-45.1	18.2	0.00e+00	0	43	0	766509056	57	4646
2026-01-15 23:44:26.16	187.47	61.94	-41.6	-43.9	19.2	0.00e+00	0	43	0	773849088	55	4501
2026-01-15 23:44:30.37	188.13	60.21	-44.7	-47.9	15.5	7.00e-07	0	43	0	781189120	60	5380
2026-01-15 23:44:34.45	188.70	58.58	-45.7	-49.5	14.0	1.50e-06	0	43	0	789577728	62	5748
2026-01-15 23:44:38.43	189.19	57.03	-45.4	-48.9	14.5	9.10e-06	0	43	0	796917760	62	5392
2026-01-15 23:44:42.42	189.63	55.51	-43.9	-46.7	16.7	0.00e+00	0	43	0	804257792	59	4973
2026-01-15 23:44:46.51	190.04	54.00	-43.8	-46.6	16.8	0.00e+00	0	43	0	811597824	58	5190
2026-01-15 23:44:50.56	190.41	52.54	-43.3	-46.0	17.4	0.00e+00	0	42	0	818937856	57	5136
2026-01-15 23:44:54.55	190.74	51.15	-45.8	-49.6	13.8	3.80e-06	0	42	0	826277888	62	5855
2026-01-15 23:44:58.53	191.04	49.79	-45.0	-48.2	15.2	0.00e+00	0	43	0	834666496	62	4975
2026-01-15 23:45:02.51	191.32	48.48	-48.4	-56.4	6.8	4.81e-02	0	43	0	842006528	67	9571
2026-01-15 23:45:06.69	191.58	47.14	-43.9	-46.7	16.7	0.00e+00	0	43	0	849346560	59	4965
2026-01-15 23:45:10.69	191.82	45.90	-45.4	-49.2	14.2	7.00e-07	0	42	0	856686592	61	5872
2026-01-15 23:45:14.65	192.04	44.70	-43.9	-46.8	16.5	0.00e+00	0	43	0	864026624	59	5012
2026-01-15 23:45:18.74	192.25	43.50	-42.7	-45.1	18.2	0.00e+00	0	42	0	872415232	57	4634
2026-01-15 23:45:23.13	192.46	42.26	-45.9	-50.0	13.4	0.00e+00	0	43	0	880803840	62	6094
2026-01-15 23:45:27.11	192.64	41.16	-44.6	-47.7	15.6	0.00e+00	0	43	0	888143872	61	4959
2026-01-15 23:45:31.19	192.81	40.07	-43.9	-46.7	16.7	0.00e+00	0	43	0	895483904	59	4935
2026-01-15 23:45:35.15	192.96	39.05	-46.8	-51.8	11.4	4.09e-04	0	43	0	902823936	64	6675
2026-01-15 23:45:39.43	193.12	37.97	-46.9	-51.9	11.3	3.11e-03	0	43	0	911212544	65	6383
2026-01-15 23:45:43.83	193.28	36.90	-45.6	-49.3	14.1	3.80e-06	0	43	0	919601152	63	5293
2026-01-15 23:45:47.82	193.41	35.95	-46.1	-50.0	13.3	6.80e-06	0	43	0	926941184	63	5775
2026-01-15 23:45:51.80	193.54	35.04	-47.0	-52.1	11.1	8.36e-04	0	43	0	934281216	64	6937
2026-01-15 23:45:56.04	193.66	34.10	-47.8	-54.3	8.8	3.03e-02	0	42	0	941621248	66	7916
2026-01-15 23:46:00.27	193.78	33.18	-46.9	-51.9	11.3	1.44e-03	0	43	0	950009856	65	6382
2026-01-15 23:46:04.27	193.89	32.34	-46.3	-50.8	12.4	1.35e-04	0	43	0	957349888	64	5936
2026-01-15 23:46:08.25	194.00	31.52	-46.1	-50.2	13.1	1.52e-05	0	43	0	964689920	63	5880
2026-01-15 23:46:12.71	194.11	30.64	-46.6	-51.2	11.9	3.36e-04	0	43	0	973078528	64	6262
2026-01-15 23:46:16.70	194.20	29.87	-46.5	-51.1	12.1	2.68e-04	0	43	0	980418560	64	6179
2026-01-15 23:46:20.68	194.29	29.12	-46.1	-50.3	12.9	7.17e-05	0	43	0	987758592	64	5618
2026-01-15 23:46:24.68	194.38	28.39	-45.3	-48.8	14.5	7.00e-07	0	43	0	996147200	62	5320
2026-01-15 23:46:29.24	194.48	27.57	-44.4	-47.6	15.7	0.00e+00	0	43	0	1004535808	60	5167
2026-01-15 23:46:33.77	194.57	26.79	-43.9	-46.8	16.4	0.00e+00	0	42	0	1012924416	59	5022
2026-01-15 23:46:38.32	194.65	26.02	-44.0	-46.9	16.3	0.00e+00	0	43	0	1021313024	59	5069
2026-01-15 23:46:42.65	194.74	25.32	-44.0	-47.0	16.2	0.00e+00	0	43	0	1029701632	59	5110
2026-01-15 23:46:46.64	194.81	24.68	-43.9	-46.8	16.4	0.00e+00	0	43	0	1037041664	59	5033
2026-01-15 23:46:50.73	194.88	24.04	-43.5	-46.4	16.8	0.00e+00	0	42	0	1044381696	59	4768
2026-01-15 23:46:54.84	194.95	23.42	-43.1	-45.7	17.5	0.00e+00	0	43	0	1052770304	58	4682
2026-01-15 23:46:58.84	195.01	22.82	-42.8	-45.4	17.7	0.00e+00	0	43	0	1060110336	57	4812
2026-01-15 23:47:02.82	195.07	22.24	-42.9	-45.5	17.6	0.00e+00	0	42	0	1067450368	57	4861
2026-01-15 23:47:07.13	195.14	21.63	-43.0	-45.6	17.5	0.00e+00	0	43	0	1075838976	57	4909
2026-01-15 23:47:11.11	195.20	21.08	-43.1	-45.8	17.4	0.00e+00	0	43	0	1083179008	57	4995
2026-01-15 23:47:15.10	195.26	20.54	-43.2	-45.9	17.2	0.00e+00	0	43	0	1090519040	57	5096
2026-01-15 23:47:19.08	195.31	20.01	-43.3	-46.1	17.0	0.00e+00	0	42	0	1097859072	57	5170
2026-01-15 23:47:23.06	195.37	19.49	-43.5	-46.4	16.7	0.00e+00	0	43	0	1105199104	57	5390
2026-01-15 23:47:27.05	195.42	18.99	-43.4	-46.3	16.8	0.00e+00	0	43	0	1112539136	57	5310
2026-01-15 23:47:31.03	195.47	18.49	-43.4	-46.3	16.8	0.00e+00	0	43	0	1119879168	57	5306
2026-01-15 23:47:34.99	195.52	18.00	-43.4	-46.4	16.7	0.00e+00	0	42	0	1127219200	57	5366
2026-01-15 23:47:38.97	195.57	17.53	-43.4	-46.3	16.8	0.00e+00	0	42	0	1135607808	57	5321
2026-01-15 23:47:42.94	195.62	17.06	-43.5	-46.5	16.6	0.00e+00	0	43	0	1142947840	57	5428
2026-01-15 23:47:47.08	195.67	16.58	-43.7	-46.7	16.4	0.00e+00	0	42	0	1150287872	58	5241
2026-01-15 23:47:51.08	195.72	16.13	-43.8	-46.9	16.2	0.00e+00	0	42	0	1157627904	58	5361
2026-01-15 23:47:55.04	195.76	15.69	-43.7	-46.7	16.4	0.00e+00	0	43	0	1164967936	58	5241
2026-01-15 23:47:59.02	195.80	15.25	-43.7	-46.8	16.3	0.00e+00	0	43	0	1172307968	58	5281
2026-01-15 23:48:03.06	195.85	14.82	-43.8	-46.9	16.2	0.00e+00	0	43	0	1180696576	58	5361
2026-01-15 23:48:07.04	195.89	14.40	-43.8	-46.9	16.1	0.00e+00	0	42	0	1188036608	58	5385
2026-01-15 23:48:11.02	195.93	13.99	-43.9	-47.0	16.0	0.00e+00	0	43	0	1195376640	58	5453
2026-01-15 23:48:14.99	195.97	13.58	-44.1	-47.3	15.6	0.00e+00	0	43	0	1202716672	58	5635
2026-01-15 23:48:19.01	196.01	13.18	-44.2	-47.6	15.4	0.00e+00	0	42	0	1210056704	59	5476
2026-01-15 23:48:22.99	196.05	12.79	-44.4	-47.9	15.1	0.00e+00	0	43	0	1217396736	59	5673
2026-01-15 23:48:26.97	196.09	12.40	-44.6	-48.2	14.8	0.00e+00	0	43	0	1224736768	59	5862
2026-01-15 23:48:30.95	196.13	12.02	-44.6	-48.3	14.6	1.50e-06	0	43	0	1232076800	60	5623
2026-01-15 23:48:34.93	196.16	11.65	-44.8	-48.6	14.3	7.00e-07	0	43	0	1240465408	60	5844
2026-01-15 23:48:39.05	196.20	11.27	-44.7	-48.5	14.4	7.00e-07	0	43	0	1247805440	60	5786
2026-01-15 23:48:43.04	196.24	10.90	-44.8	-48.7	14.3	0.00e+00	0	43	0	1255145472	60	5861
2026-01-15 23:48:47.01	196.27	10.55	-44.7	-48.5	14.3	0.00e+00	0	42	0	1262485504	60	5776
2026-01-15 23:48:51.02	196.30	10.19	-44.7	-48.5	14.4	1.50e-06	0	43	0	1269825536	60	5762
2026-01-15 23:48:55.12	196.34	9.83	-44.7	-48.5	14.3	0.00e+00	0	43	0	1278214144	60	5754
2026-01-15 23:48:59.10	196.37	9.49	-44.6	-48.4	14.4	7.00e-07	0	43	0	1285554176	60	5668
2026-01-15 23:49:03.02	196.40	9.16	-44.6	-48.3	14.5	7.00e-07	0	43	0	1292894208	60	5628
2026-01-15 23:49:07.00	196.44	8.82	-49.0	-64.4	3.8	1.49e+00	0	43	104	1296039936	68	22605
2026-01-15 23:49:10.97	196.47	8.49	-49.5	-64.7	3.8	1.49e+00	0	43	104	1296039936	69	22093
2026-01-15 23:49:14.94	196.50	8.17	-49.7	-64.8	3.8	1.49e+00	0	43	104	1296039936	70	21048
2026-01-15 23:49:18.91	196.53	7.85	-49.6	-64.8	3.8	1.49e+00	0	42	104	1296039936	70	21080
2026-01-15 23:49:22.89	196.56	7.53	-49.7	-64.8	3.8	1.49e+00	0	43	104	1296039936	70	21096
2026-01-15 23:49:26.86	196.59	7.22	-49.6	-64.8	3.8	1.49e+00	0	43	104	1296039936	70	21069
2026-01-15 23:49:30.83	196.62	6.91	-49.3	-64.7	3.8	1.49e+00	0	43	104	1296039936	70	20838
2026-01-15 23:49:34.80	196.65	6.61	-49.3	-64.7	3.8	1.49e+00	0	43	104	1296039936	70	20940
2026-01-15 23:49:38.78	196.68	6.31	-49.3	-64.7	3.8	1.49e+00	0	43	104	1296039936	70	20961
2026-01-15 23:49:42.75	196.71	6.01	-49.3	-64.7	3.8	1.49e+00	0	43	104	1296039936	70	20896
2026-01-15 23:49:46.72	196.73	5.72	-49.2	-64.7	3.8	1.49e+00	0	43	104	1296039936	70	20932
2026-01-15 23:49:50.70	196.76	5.42	-49.3	-64.7	3.8	1.49e+00	0	43	104	1296039936	70	20940
2026-01-15 23:49:54.67	196.79	5.14	-49.3	-64.7	3.8	1.49e+00	0	43	104	1296039936	70	20961

#Closed at: 2026-01-15 23:49:57
#Recorded file [1296 MB]: D:/Data/31040_260116_023658.dat