passes_logs/2025/01/17/PPK-1/PPK-1__20250117_114858_TY-41_rec.log

#Pass ID: 20250117_114858_TY-41
#Satellite: TY-41
#Configuration: TY-39
#almurnet v.1.7.20230919.trace
#Start time: 2025-01-17 11:48:57

#Version: 2.2.20231116
#Station: PPK-1
#Location: 158.6 lon 53.06666 lat
#TLE: 1 61231U 24173E   25016.89259489  .00004094  00000+0  19796-3 0  9999
#TLE: 2 61231  97.4124  93.7459 0001682  90.6216 269.5211 15.19164254 17372

#Time	Az	El	Level	Level2	SNR	BER	BlckErr	Temp	State
2025-01-17 11:48:57.53	193.03	7.90	-66.7	-71.9	3.5	0.00e+00	0	45	0
2025-01-17 11:48:59.43	193.20	8.06	-66.9	-72.7	3.5	0.00e+00	0	46	104
2025-01-17 11:49:01.33	193.38	8.23	-67.0	-72.9	3.6	0.00e+00	0	46	104
2025-01-17 11:49:03.23	193.55	8.40	-67.0	-73.0	3.7	0.00e+00	0	47	104
2025-01-17 11:49:05.13	193.73	8.57	-66.7	-72.6	3.7	0.00e+00	0	47	104
2025-01-17 11:49:07.03	193.91	8.74	-66.6	-72.4	3.6	0.00e+00	0	47	104
2025-01-17 11:49:08.93	194.10	8.91	-66.9	-73.0	3.6	0.00e+00	0	47	104
2025-01-17 11:49:10.83	194.28	9.09	-67.1	-73.3	3.6	0.00e+00	0	48	104
2025-01-17 11:49:12.72	194.47	9.26	-67.3	-73.0	3.6	0.00e+00	0	48	104
2025-01-17 11:49:14.62	194.66	9.44	-67.3	-72.7	3.7	0.00e+00	0	48	104
2025-01-17 11:49:16.52	194.85	9.62	-67.0	-71.9	3.7	0.00e+00	0	49	104
2025-01-17 11:49:18.41	195.05	9.80	-66.9	-71.8	3.5	0.00e+00	0	49	104
2025-01-17 11:49:20.31	195.25	9.98	-66.9	-72.0	3.5	0.00e+00	0	49	104
2025-01-17 11:49:22.21	195.45	10.16	-66.9	-72.2	3.5	0.00e+00	0	50	104
2025-01-17 11:49:24.11	195.66	10.35	-67.0	-72.2	3.5	0.00e+00	0	50	104
2025-01-17 11:49:26.01	195.87	10.54	-67.2	-72.7	3.7	0.00e+00	0	50	104
2025-01-17 11:49:27.91	196.08	10.72	-67.3	-73.0	3.7	0.00e+00	0	51	104
2025-01-17 11:49:29.81	196.30	10.91	-67.5	-73.2	3.7	0.00e+00	0	51	104
2025-01-17 11:49:31.71	196.51	11.10	-67.5	-73.4	3.6	0.00e+00	0	51	104
2025-01-17 11:49:33.61	196.74	11.30	-67.5	-73.4	3.6	0.00e+00	0	51	104
2025-01-17 11:49:35.51	196.96	11.49	-67.5	-73.5	3.6	0.00e+00	0	52	104
2025-01-17 11:49:37.41	197.19	11.69	-67.4	-73.4	3.7	0.00e+00	0	52	104
2025-01-17 11:49:39.30	197.42	11.88	-67.3	-73.2	3.7	0.00e+00	0	52	104
2025-01-17 11:49:41.20	197.66	12.08	-67.3	-73.1	3.6	0.00e+00	0	52	104
2025-01-17 11:49:43.10	197.90	12.29	-67.4	-73.2	3.6	0.00e+00	0	53	104
2025-01-17 11:49:45.00	198.14	12.49	-55.1	-57.5	12.9	0.00e+00	0	53	0
2025-01-17 11:49:46.90	198.39	12.69	-54.5	-57.2	13.1	6.90e-06	0	53	0
2025-01-17 11:49:48.80	198.65	12.90	-54.3	-56.8	13.2	6.90e-06	0	54	0
2025-01-17 11:49:50.70	198.90	13.11	-54.1	-56.4	13.4	6.90e-06	0	54	0
2025-01-17 11:49:52.59	199.16	13.32	-53.8	-56.3	13.5	6.90e-06	0	55	0
2025-01-17 11:49:54.49	199.43	13.53	-53.6	-55.9	13.5	0.00e+00	0	55	0
2025-01-17 11:49:56.39	199.70	13.75	-53.7	-56.2	13.5	6.90e-06	0	55	0
2025-01-17 11:49:58.29	199.97	13.96	-53.8	-56.3	13.4	0.00e+00	0	55	0
2025-01-17 11:50:00.19	200.25	14.18	-53.9	-56.5	13.4	0.00e+00	0	55	0
2025-01-17 11:50:02.08	200.53	14.40	-53.9	-56.5	13.5	0.00e+00	0	56	0
2025-01-17 11:50:03.98	200.82	14.62	-53.8	-56.4	13.6	0.00e+00	0	56	0
2025-01-17 11:50:05.88	201.11	14.85	-53.7	-56.1	13.6	6.90e-06	0	56	0
2025-01-17 11:50:07.78	201.41	15.08	-53.4	-56.0	13.8	0.00e+00	0	56	0
2025-01-17 11:50:09.67	201.71	15.30	-53.3	-55.7	13.9	0.00e+00	0	56	0
2025-01-17 11:50:11.57	202.02	15.53	-53.0	-55.6	14.1	0.00e+00	0	57	0
2025-01-17 11:50:13.47	202.34	15.77	-52.8	-55.3	14.2	0.00e+00	0	57	0
2025-01-17 11:50:15.37	202.66	16.00	-52.7	-55.2	14.2	0.00e+00	0	57	0
2025-01-17 11:50:17.27	202.99	16.24	-52.8	-55.3	14.2	0.00e+00	0	57	0
2025-01-17 11:50:19.17	203.32	16.48	-52.9	-55.4	14.2	0.00e+00	0	58	0
2025-01-17 11:50:21.07	203.66	16.72	-52.8	-55.4	14.2	0.00e+00	0	58	0
2025-01-17 11:50:22.97	204.00	16.97	-52.9	-55.5	14.2	0.00e+00	0	58	0
2025-01-17 11:50:24.87	204.35	17.21	-52.8	-55.3	14.2	0.00e+00	0	58	0
2025-01-17 11:50:26.77	204.71	17.46	-52.7	-55.0	14.3	0.00e+00	0	58	0
2025-01-17 11:50:28.67	205.08	17.71	-52.4	-54.9	14.5	0.00e+00	0	59	0
2025-01-17 11:50:30.56	205.45	17.96	-52.1	-54.4	14.6	0.00e+00	0	59	0
2025-01-17 11:50:32.46	205.83	18.22	-51.8	-54.3	14.7	0.00e+00	0	59	0
2025-01-17 11:50:34.36	206.21	18.48	-51.8	-54.2	14.8	0.00e+00	0	59	0
2025-01-17 11:50:36.26	206.60	18.74	-51.9	-54.4	14.7	0.00e+00	0	59	0
2025-01-17 11:50:38.16	207.01	19.00	-52.0	-54.6	14.6	0.00e+00	0	60	0
2025-01-17 11:50:40.06	207.42	19.26	-52.1	-54.9	14.5	0.00e+00	0	60	0
2025-01-17 11:50:41.96	207.83	19.53	-52.0	-54.7	14.5	0.00e+00	0	60	0
2025-01-17 11:50:43.86	208.26	19.80	-51.9	-54.5	14.7	0.00e+00	0	60	0
2025-01-17 11:50:45.76	208.69	20.07	-51.8	-54.3	14.7	0.00e+00	0	60	0
2025-01-17 11:50:47.66	209.13	20.35	-51.4	-54.0	14.9	0.00e+00	0	60	0
2025-01-17 11:50:49.56	209.59	20.62	-51.1	-53.4	15.1	0.00e+00	0	61	0
2025-01-17 11:50:51.45	210.04	20.90	-51.1	-53.8	15.2	0.00e+00	0	61	0
2025-01-17 11:50:53.35	210.51	21.18	-51.1	-53.9	15.3	0.00e+00	0	61	0
2025-01-17 11:50:55.25	210.99	21.46	-51.4	-54.5	15.0	0.00e+00	0	61	0
2025-01-17 11:50:57.15	211.48	21.74	-51.4	-54.5	15.1	0.00e+00	0	61	0
2025-01-17 11:50:59.05	211.98	22.03	-51.3	-54.3	15.1	0.00e+00	0	61	0
2025-01-17 11:51:00.95	212.49	22.32	-51.2	-54.1	15.1	0.00e+00	0	62	0
2025-01-17 11:51:02.84	213.01	22.61	-51.1	-53.8	15.2	0.00e+00	0	62	0
2025-01-17 11:51:04.74	213.54	22.90	-50.6	-52.8	15.5	0.00e+00	0	62	0
2025-01-17 11:51:06.64	214.09	23.19	-50.4	-53.0	15.5	0.00e+00	0	62	0
2025-01-17 11:51:08.54	214.64	23.49	-50.4	-53.0	15.5	0.00e+00	0	62	0
2025-01-17 11:51:10.44	215.20	23.79	-50.6	-53.3	14.8	0.00e+00	0	62	0
2025-01-17 11:51:12.34	215.78	24.08	-50.5	-53.2	13.6	0.00e+00	0	62	0
2025-01-17 11:51:14.24	216.37	24.38	-50.5	-53.2	14.9	0.00e+00	0	62	0
2025-01-17 11:51:16.13	216.97	24.68	-50.6	-53.4	15.4	0.00e+00	0	63	0
2025-01-17 11:51:18.03	217.58	24.99	-50.5	-53.2	15.4	0.00e+00	0	62	0
2025-01-17 11:51:19.92	218.21	25.29	-50.2	-52.5	15.5	0.00e+00	0	63	0
2025-01-17 11:51:21.82	218.85	25.59	-49.9	-52.4	15.7	0.00e+00	0	63	0
2025-01-17 11:51:23.72	219.50	25.90	-49.8	-52.3	15.8	0.00e+00	0	63	0
2025-01-17 11:51:25.62	220.17	26.20	-49.9	-52.5	15.7	0.00e+00	0	63	0
2025-01-17 11:51:27.52	220.85	26.51	-50.1	-52.8	15.7	0.00e+00	0	63	0
2025-01-17 11:51:29.42	221.55	26.81	-50.1	-52.9	15.7	0.00e+00	0	63	0
2025-01-17 11:51:31.32	222.26	27.12	-50.2	-53.1	15.6	0.00e+00	0	63	0
2025-01-17 11:51:33.22	222.99	27.42	-50.1	-52.9	15.7	0.00e+00	0	63	0
2025-01-17 11:51:35.12	223.73	27.73	-49.8	-52.3	15.8	0.00e+00	0	63	0
2025-01-17 11:51:37.01	224.48	28.03	-49.6	-51.9	15.8	0.00e+00	0	64	0
2025-01-17 11:51:38.91	225.25	28.33	-49.7	-52.5	15.8	0.00e+00	0	64	0
2025-01-17 11:51:40.81	226.04	28.63	-49.8	-52.7	15.8	0.00e+00	0	64	0
2025-01-17 11:51:42.70	226.84	28.93	-49.9	-53.0	15.7	0.00e+00	0	64	0
2025-01-17 11:51:44.60	227.66	29.23	-50.1	-53.3	15.5	0.00e+00	0	64	0
2025-01-17 11:51:46.50	228.49	29.52	-49.9	-53.0	15.6	0.00e+00	0	65	0
2025-01-17 11:51:48.40	229.35	29.82	-50.0	-53.1	15.6	0.00e+00	0	65	0
2025-01-17 11:51:50.30	230.22	30.11	-49.8	-52.8	15.6	0.00e+00	0	65	0
2025-01-17 11:51:52.20	231.10	30.39	-49.5	-52.1	15.8	0.00e+00	0	65	0
2025-01-17 11:51:54.10	232.00	30.67	-49.3	-51.8	15.7	0.00e+00	0	65	0
2025-01-17 11:51:56.00	232.92	30.95	-49.5	-52.2	15.6	0.00e+00	0	65	0
2025-01-17 11:51:57.90	233.86	31.22	-49.6	-52.4	15.7	0.00e+00	0	65	0
2025-01-17 11:51:59.80	234.81	31.49	-49.7	-52.5	15.5	0.00e+00	0	65	0
2025-01-17 11:52:01.70	235.78	31.76	-49.8	-52.7	15.7	0.00e+00	0	65	0
2025-01-17 11:52:03.60	236.77	32.01	-49.9	-52.9	15.6	0.00e+00	0	65	0
2025-01-17 11:52:05.49	237.76	32.26	-49.9	-53.0	15.7	0.00e+00	0	65	0
2025-01-17 11:52:07.39	238.78	32.51	-49.8	-52.8	15.6	0.00e+00	0	66	0
2025-01-17 11:52:09.29	239.82	32.74	-49.6	-52.4	15.7	0.00e+00	0	66	0
2025-01-17 11:52:11.19	240.87	32.97	-49.4	-52.0	15.8	0.00e+00	0	66	0
2025-01-17 11:52:13.09	241.93	33.19	-49.5	-52.1	15.9	0.00e+00	0	66	0
2025-01-17 11:52:14.99	243.01	33.40	-49.9	-53.0	15.6	0.00e+00	0	66	0
2025-01-17 11:52:16.89	244.11	33.60	-49.7	-52.6	15.8	0.00e+00	0	66	0
2025-01-17 11:52:18.79	245.22	33.80	-50.0	-53.1	15.7	0.00e+00	0	66	0
2025-01-17 11:52:20.69	246.34	33.98	-50.0	-53.1	15.7	0.00e+00	0	66	0
2025-01-17 11:52:22.59	247.48	34.15	-49.9	-52.9	15.6	0.00e+00	0	66	0
2025-01-17 11:52:24.49	248.63	34.31	-50.0	-53.1	15.6	0.00e+00	0	66	0
2025-01-17 11:52:26.38	249.78	34.46	-50.2	-53.5	15.7	0.00e+00	0	66	0
2025-01-17 11:52:28.28	250.95	34.60	-50.3	-53.3	15.6	0.00e+00	0	67	0
2025-01-17 11:52:30.17	252.12	34.73	-50.3	-53.2	15.7	0.00e+00	0	67	0
2025-01-17 11:52:32.07	253.31	34.84	-50.4	-53.5	15.6	0.00e+00	0	67	0
2025-01-17 11:52:33.97	254.51	34.94	-50.4	-53.4	15.6	0.00e+00	0	67	0
2025-01-17 11:52:35.87	255.71	35.03	-50.3	-53.3	15.6	0.00e+00	0	67	0
2025-01-17 11:52:37.77	256.93	35.11	-50.3	-53.3	15.6	0.00e+00	0	67	0
2025-01-17 11:52:39.67	258.14	35.17	-50.2	-53.1	15.7	0.00e+00	0	67	0
2025-01-17 11:52:41.57	259.36	35.22	-50.0	-52.7	15.7	0.00e+00	0	67	0
2025-01-17 11:52:43.47	260.59	35.25	-50.1	-52.8	15.6	0.00e+00	0	67	0
2025-01-17 11:52:45.37	261.81	35.28	-50.0	-52.7	15.6	0.00e+00	0	67	0
2025-01-17 11:52:47.26	263.03	35.28	-50.0	-52.5	15.7	0.00e+00	0	67	0
2025-01-17 11:52:49.16	264.26	35.28	-50.0	-52.7	15.8	0.00e+00	0	67	0
2025-01-17 11:52:51.06	265.49	35.26	-50.2	-53.0	15.6	0.00e+00	0	68	0
2025-01-17 11:52:52.95	266.70	35.22	-50.1	-52.9	15.6	0.00e+00	0	68	0
2025-01-17 11:52:54.85	267.92	35.17	-50.2	-53.1	15.7	0.00e+00	0	68	0
2025-01-17 11:52:56.75	269.14	35.11	-50.4	-53.5	15.6	0.00e+00	0	68	0
2025-01-17 11:52:58.65	270.35	35.04	-50.4	-53.4	15.6	0.00e+00	0	68	0
2025-01-17 11:53:00.55	271.55	34.95	-50.4	-53.5	15.6	0.00e+00	0	68	0
2025-01-17 11:53:02.45	272.75	34.85	-50.6	-53.9	15.4	0.00e+00	0	68	0
2025-01-17 11:53:04.35	273.94	34.74	-50.8	-54.2	15.3	0.00e+00	0	68	0
2025-01-17 11:53:06.25	275.12	34.61	-50.9	-54.0	15.1	0.00e+00	0	68	0
2025-01-17 11:53:08.15	276.29	34.47	-50.9	-53.9	15.3	0.00e+00	0	68	0
2025-01-17 11:53:10.05	277.44	34.33	-51.0	-54.1	15.4	0.00e+00	0	68	0
2025-01-17 11:53:11.95	278.59	34.16	-50.5	-53.2	15.4	0.00e+00	0	68	0
2025-01-17 11:53:13.84	279.72	33.99	-50.7	-53.6	15.2	0.00e+00	0	68	0
2025-01-17 11:53:15.74	280.84	33.81	-50.7	-53.6	15.3	0.00e+00	0	69	0
2025-01-17 11:53:17.64	281.95	33.62	-50.6	-53.4	15.5	0.00e+00	0	68	0
2025-01-17 11:53:19.54	283.04	33.42	-50.7	-53.5	15.4	0.00e+00	0	68	0
2025-01-17 11:53:21.44	284.12	33.21	-50.3	-52.7	15.4	0.00e+00	0	68	0
2025-01-17 11:53:23.34	285.18	32.99	-50.2	-52.5	15.5	0.00e+00	0	68	0
2025-01-17 11:53:25.24	286.23	32.76	-50.3	-52.7	15.5	0.00e+00	0	69	0
2025-01-17 11:53:27.14	287.26	32.53	-50.3	-52.7	15.5	0.00e+00	0	69	0
2025-01-17 11:53:29.04	288.28	32.29	-50.5	-53.1	15.3	0.00e+00	0	69	0
2025-01-17 11:53:30.94	289.28	32.04	-50.7	-53.5	15.4	0.00e+00	0	69	0
2025-01-17 11:53:32.84	290.26	31.78	-50.6	-53.3	15.3	0.00e+00	0	69	0
2025-01-17 11:53:34.73	291.22	31.52	-50.6	-53.3	15.5	0.00e+00	0	69	0
2025-01-17 11:53:36.63	292.17	31.26	-67.7	-73.6	3.6	0.00e+00	0	69	104
2025-01-17 11:53:38.53	293.11	30.99	-67.8	-73.3	3.6	0.00e+00	0	69	104
2025-01-17 11:53:40.43	294.02	30.71	-67.9	-73.5	3.6	0.00e+00	0	69	104
2025-01-17 11:53:42.33	294.92	30.43	-67.8	-73.2	3.6	0.00e+00	0	69	104
2025-01-17 11:53:44.23	295.81	30.15	-67.7	-73.1	3.6	0.00e+00	0	69	104
2025-01-17 11:53:46.13	296.67	29.86	-67.7	-73.5	3.7	0.00e+00	0	69	104
2025-01-17 11:53:48.03	297.52	29.57	-67.6	-73.4	3.7	0.00e+00	0	69	104
2025-01-17 11:53:49.93	298.36	29.28	-67.6	-73.2	3.6	0.00e+00	0	69	104
2025-01-17 11:53:51.83	299.18	28.98	-67.4	-72.9	3.6	0.00e+00	0	69	104
2025-01-17 11:53:53.73	299.98	28.68	-67.4	-72.9	3.6	0.00e+00	0	69	104
2025-01-17 11:53:55.62	300.76	28.39	-67.5	-72.8	3.6	0.00e+00	0	69	104
2025-01-17 11:53:57.52	301.53	28.09	-67.5	-72.4	3.7	0.00e+00	0	69	104
2025-01-17 11:53:59.41	302.28	27.79	-67.7	-73.1	3.7	0.00e+00	0	69	104
2025-01-17 11:54:01.31	303.02	27.48	-67.6	-73.2	3.7	0.00e+00	0	69	104
2025-01-17 11:54:03.21	303.74	27.18	-67.8	-73.5	3.6	0.00e+00	0	69	104
2025-01-17 11:54:05.11	304.45	26.88	-67.6	-73.1	3.6	0.00e+00	0	69	104
2025-01-17 11:54:07.01	305.14	26.57	-67.7	-73.2	3.6	0.00e+00	0	69	104
2025-01-17 11:54:08.91	305.82	26.27	-67.7	-73.3	3.7	0.00e+00	0	69	104
2025-01-17 11:54:10.81	306.49	25.97	-67.6	-73.2	3.7	0.00e+00	0	69	104
2025-01-17 11:54:12.71	307.14	25.67	-67.7	-73.2	3.7	0.00e+00	0	69	104
2025-01-17 11:54:14.60	307.78	25.37	-67.9	-73.7	3.6	0.00e+00	0	69	104
2025-01-17 11:54:16.50	308.41	25.07	-67.8	-73.6	3.6	0.00e+00	0	69	104
2025-01-17 11:54:18.40	309.02	24.77	-67.8	-73.5	3.6	0.00e+00	0	69	104
2025-01-17 11:54:20.30	309.62	24.47	-67.9	-73.7	3.7	0.00e+00	0	69	104
2025-01-17 11:54:22.19	310.20	24.17	-67.9	-73.5	3.7	0.00e+00	0	69	104
2025-01-17 11:54:24.09	310.78	23.87	-67.9	-73.6	3.7	0.00e+00	0	69	104
2025-01-17 11:54:25.99	311.34	23.58	-67.9	-73.7	3.6	0.00e+00	0	69	104
2025-01-17 11:54:27.89	311.90	23.29	-67.8	-73.6	3.6	0.00e+00	0	69	104
2025-01-17 11:54:29.79	312.44	22.99	-67.7	-73.5	3.6	0.00e+00	0	69	104
2025-01-17 11:54:31.69	312.97	22.70	-67.9	-73.7	3.7	0.00e+00	0	69	104
2025-01-17 11:54:33.59	313.49	22.42	-68.0	-73.9	3.7	0.00e+00	0	69	104
2025-01-17 11:54:35.49	314.00	22.13	-68.0	-73.9	3.7	0.00e+00	0	69	104
2025-01-17 11:54:37.39	314.50	21.85	-68.0	-73.8	3.6	0.00e+00	0	69	104
2025-01-17 11:54:39.29	314.98	21.56	-68.0	-73.9	3.6	0.00e+00	0	69	104
2025-01-17 11:54:41.19	315.46	21.28	-68.0	-73.9	3.6	0.00e+00	0	69	104
2025-01-17 11:54:43.08	315.93	21.01	-67.7	-73.0	3.7	0.00e+00	0	69	104
2025-01-17 11:54:44.98	316.39	20.73	-67.5	-72.6	3.7	0.00e+00	0	69	104
2025-01-17 11:54:46.88	316.84	20.46	-67.6	-72.8	3.6	0.00e+00	0	69	104
2025-01-17 11:54:48.78	317.28	20.18	-67.8	-73.3	3.6	0.00e+00	0	69	104
2025-01-17 11:54:50.68	317.72	19.92	-67.9	-73.5	3.6	0.00e+00	0	69	104
2025-01-17 11:54:52.58	318.14	19.65	-67.6	-72.9	3.6	0.00e+00	0	70	104
2025-01-17 11:54:54.48	318.56	19.38	-67.5	-72.6	3.7	0.00e+00	0	69	104
2025-01-17 11:54:56.38	318.97	19.12	-67.6	-72.8	3.7	0.00e+00	0	69	104
2025-01-17 11:54:58.28	319.37	18.86	-67.6	-72.8	3.6	0.00e+00	0	70	104
2025-01-17 11:55:00.18	319.76	18.60	-67.4	-72.4	3.6	0.00e+00	0	70	104
2025-01-17 11:55:02.08	320.15	18.35	-67.2	-71.7	3.5	0.00e+00	0	69	104
2025-01-17 11:55:03.97	320.52	18.09	-67.2	-71.7	3.5	0.00e+00	0	70	104
2025-01-17 11:55:05.87	320.90	17.84	-67.2	-71.6	3.7	0.00e+00	0	70	104
2025-01-17 11:55:07.77	321.26	17.59	-67.2	-71.8	3.7	0.00e+00	0	70	104
2025-01-17 11:55:09.67	321.62	17.34	-67.4	-72.1	3.6	0.00e+00	0	70	104
2025-01-17 11:55:11.57	321.97	17.10	-67.3	-72.0	3.5	0.00e+00	0	70	104
2025-01-17 11:55:13.47	322.31	16.86	-67.1	-71.6	3.5	0.00e+00	0	70	104
2025-01-17 11:55:15.37	322.65	16.62	-67.0	-71.8	3.4	0.00e+00	0	70	104
2025-01-17 11:55:17.27	322.99	16.38	-67.0	-71.9	3.7	0.00e+00	0	70	104
2025-01-17 11:55:19.17	323.31	16.14	-67.3	-72.5	3.7	0.00e+00	0	70	104
2025-01-17 11:55:21.07	323.63	15.91	-67.4	-72.7	3.6	0.00e+00	0	70	104
2025-01-17 11:55:22.97	323.95	15.68	-67.4	-72.8	3.6	0.00e+00	0	70	104
2025-01-17 11:55:24.86	324.26	15.45	-67.5	-73.1	3.6	0.00e+00	0	70	104
2025-01-17 11:55:26.76	324.56	15.22	-67.5	-73.3	3.6	0.00e+00	0	70	104
2025-01-17 11:55:28.65	324.86	15.00	-67.4	-73.1	3.7	0.00e+00	0	70	104
2025-01-17 11:55:30.55	325.15	14.77	-67.4	-72.9	3.7	0.00e+00	0	70	104
2025-01-17 11:55:32.45	325.44	14.55	-67.5	-72.9	3.6	0.00e+00	0	70	104
2025-01-17 11:55:34.35	325.72	14.33	-67.6	-73.3	3.6	0.00e+00	0	70	104
2025-01-17 11:55:36.25	326.00	14.12	-67.8	-73.3	3.6	0.00e+00	0	70	104
2025-01-17 11:55:38.15	326.28	13.90	-67.9	-73.6	3.6	0.00e+00	0	70	104
2025-01-17 11:55:40.05	326.55	13.69	-67.8	-73.5	3.7	0.00e+00	0	70	104
2025-01-17 11:55:41.94	326.81	13.48	-67.6	-73.2	3.7	0.00e+00	0	70	104
2025-01-17 11:55:43.84	327.07	13.27	-67.4	-72.9	3.7	0.00e+00	0	70	104
2025-01-17 11:55:45.74	327.33	13.06	-67.4	-72.8	3.6	0.00e+00	0	70	104
2025-01-17 11:55:47.64	327.58	12.85	-67.5	-72.9	3.6	0.00e+00	0	70	104
2025-01-17 11:55:49.54	327.83	12.65	-67.4	-72.8	3.6	0.00e+00	0	70	104
2025-01-17 11:55:51.44	328.08	12.45	-67.3	-72.7	3.7	0.00e+00	0	70	104
2025-01-17 11:55:53.33	328.32	12.25	-67.3	-72.6	3.7	0.00e+00	0	70	104
2025-01-17 11:55:55.23	328.55	12.05	-67.3	-72.5	3.7	0.00e+00	0	70	104
2025-01-17 11:55:57.13	328.79	11.85	-67.3	-72.4	3.6	0.00e+00	0	70	104
2025-01-17 11:55:59.03	329.02	11.66	-67.3	-72.5	3.6	0.00e+00	0	70	104
2025-01-17 11:56:00.93	329.24	11.46	-67.6	-72.9	3.6	0.00e+00	0	70	104
2025-01-17 11:56:02.83	329.47	11.27	-67.6	-73.2	3.6	0.00e+00	0	70	104
2025-01-17 11:56:04.73	329.69	11.08	-67.7	-73.3	3.7	0.00e+00	0	70	104
2025-01-17 11:56:06.63	329.90	10.89	-67.7	-73.2	3.7	0.00e+00	0	70	104
2025-01-17 11:56:08.53	330.12	10.71	-67.6	-73.1	3.7	0.00e+00	0	70	104
2025-01-17 11:56:10.43	330.33	10.52	-67.6	-72.9	3.7	0.00e+00	0	70	104
2025-01-17 11:56:12.33	330.53	10.34	-67.6	-72.9	3.6	0.00e+00	0	70	104
2025-01-17 11:56:14.22	330.74	10.16	-67.6	-73.1	3.6	0.00e+00	0	70	104
2025-01-17 11:56:16.12	330.94	9.98	-67.6	-73.1	3.6	0.00e+00	0	70	104
2025-01-17 11:56:18.02	331.13	9.80	-67.6	-73.0	3.7	0.00e+00	0	70	104
2025-01-17 11:56:19.92	331.33	9.62	-67.6	-73.0	3.7	0.00e+00	0	70	104
2025-01-17 11:56:21.82	331.52	9.44	-67.5	-72.8	3.7	0.00e+00	0	70	104
2025-01-17 11:56:23.72	331.71	9.27	-67.4	-72.4	3.6	0.00e+00	0	70	104
2025-01-17 11:56:25.62	331.90	9.09	-67.3	-72.3	3.6	0.00e+00	0	70	104
2025-01-17 11:56:27.52	332.08	8.92	-67.4	-72.4	3.6	0.00e+00	0	70	104
2025-01-17 11:56:29.42	332.27	8.75	-67.4	-72.5	3.7	0.00e+00	0	70	104
2025-01-17 11:56:31.32	332.44	8.58	-67.3	-72.5	3.7	0.00e+00	0	70	104
2025-01-17 11:56:33.22	332.62	8.41	-67.1	-72.4	3.7	0.00e+00	0	71	104
2025-01-17 11:56:35.12	332.80	8.25	-67.1	-72.3	3.6	0.00e+00	0	70	104
2025-01-17 11:56:37.01	332.97	8.08	-67.3	-72.4	3.6	0.00e+00	0	70	104
2025-01-17 11:56:38.91	333.14	7.92	-66.9	-72.3	3.5	0.00e+00	0	70	104

#Closed at: 2025-01-17 11:56:40
#Recorded file [17339 MB]: D:/data/31015_250117_235335.dat