passes_logs/2025/01/19/Planum_Noyabrsk/Planum_Noyabrsk__20250119_063207_NOAA_19_rec.log

#Pass ID: 20250119_063207_NOAA 19
#Satellite: NOAA 19
#Configuration: NOAA 19
#Start time: 2025-01-19 06:32:12.360064

#LorettStation: 1.0.0 05.05.2024
#Station: Planum_Noyabrsk
#Location: 75.446886 lon 63.207202 lat
#TLE: 1 33591U 09005A   25018.40239338  .00000331  00000+0  20061-3 0  9991
#TLE: 2 33591  99.0190  82.1910 0014361  48.4617 311.7784 14.13262306822020

#Time	Az	El	Level	SNR
2025-01-19 06:32:18.556950	3.1	31.0	-58.4	0.8
2025-01-19 06:32:19.696913	3.0	31.2	-59.5	1.8
2025-01-19 06:32:20.838873	2.8	31.4	-60.1	1.0
2025-01-19 06:32:21.981827	2.6	31.6	-59.3	0.8
2025-01-19 06:32:23.124784	2.4	31.8	-61.5	4.8
2025-01-19 06:32:24.264747	2.2	32.0	-60.0	1.8
2025-01-19 06:32:25.406706	2.0	32.2	-60.0	3.7
2025-01-19 06:32:26.550660	1.8	32.4	-59.4	1.1
2025-01-19 06:32:27.692617	1.6	32.6	-60.0	2.4
2025-01-19 06:32:28.835083	1.4	32.8	-60.0	2.2
2025-01-19 06:32:29.976553	1.1	33.0	-60.3	1.9
2025-01-19 06:32:31.117514	0.9	33.3	-60.9	3.9
2025-01-19 06:32:32.259472	0.7	33.5	-60.2	2.3
2025-01-19 06:32:33.400434	0.5	33.7	-60.0	0.3
2025-01-19 06:32:34.542392	0.3	33.9	-60.2	1.2
2025-01-19 06:32:35.684351	0.0	34.1	-60.1	2.7
2025-01-19 06:32:36.825312	359.8	34.3	-59.9	0.8
2025-01-19 06:32:37.967271	359.6	34.5	-59.8	2.7
2025-01-19 06:32:39.112221	359.3	34.7	-59.5	2.0
2025-01-19 06:32:40.253690	359.1	34.9	-59.5	1.3
2025-01-19 06:32:41.395648	358.9	35.1	-59.4	0.5
2025-01-19 06:32:42.537606	358.6	35.4	-59.1	0.4
2025-01-19 06:32:43.680071	358.4	35.6	-59.7	4.1
2025-01-19 06:32:44.825528	358.1	35.8	-59.5	0.0
2025-01-19 06:32:45.967486	357.9	36.0	-59.0	1.8
2025-01-19 06:32:47.107472	357.6	36.2	-58.6	1.5
2025-01-19 06:32:48.249430	357.3	36.4	-59.5	0.0
2025-01-19 06:32:49.391389	357.1	36.7	-59.6	0.0
2025-01-19 06:32:50.532350	356.8	36.9	-58.2	0.0
2025-01-19 06:32:51.675306	356.5	37.1	-59.8	2.2
2025-01-19 06:32:52.816266	356.2	37.3	-58.3	0.0
2025-01-19 06:32:53.958225	356.0	37.5	-59.5	0.3
2025-01-19 06:32:55.100185	355.7	37.8	-59.3	0.0
2025-01-19 06:32:56.243140	355.4	38.0	-57.0	0.0
2025-01-19 06:32:57.386095	355.1	38.2	-57.3	0.0
2025-01-19 06:32:58.528561	354.8	38.4	-57.0	0.0
2025-01-19 06:32:59.670520	354.5	38.6	-59.2	3.9
2025-01-19 06:33:00.810990	354.2	38.9	-56.2	0.0
2025-01-19 06:33:01.951463	353.9	39.1	-58.0	0.0
2025-01-19 06:33:03.094419	353.6	39.3	-57.5	0.0
2025-01-19 06:33:04.239369	353.3	39.6	-56.3	0.0
2025-01-19 06:33:05.381840	352.9	39.8	-56.4	0.0
2025-01-19 06:33:06.522801	352.6	40.0	-56.8	0.0
2025-01-19 06:33:07.669746	352.3	40.2	-57.3	0.0
2025-01-19 06:33:08.812212	351.9	40.5	-57.7	0.0
2025-01-19 06:33:09.954679	351.6	40.7	-55.4	0.0
2025-01-19 06:33:11.098143	351.2	40.9	-56.6	0.0
2025-01-19 06:33:12.242637	350.9	41.1	-55.5	0.0
2025-01-19 06:33:13.386590	350.5	41.4	-57.2	0.0
2025-01-19 06:33:14.528548	350.2	41.6	-56.2	0.0
2025-01-19 06:33:15.672010	349.8	41.8	-55.5	0.0
2025-01-19 06:33:16.816961	349.4	42.1	-56.3	0.0
2025-01-19 06:33:17.957922	349.1	42.3	-54.9	0.0
2025-01-19 06:33:19.099391	348.7	42.5	-56.9	0.0
2025-01-19 06:33:20.242854	348.3	42.8	-53.2	0.0
2025-01-19 06:33:21.387805	347.9	43.0	-53.4	0.0
2025-01-19 06:33:22.532755	347.5	43.2	-56.7	0.0
2025-01-19 06:33:23.676709	347.1	43.4	-56.8	0.0
2025-01-19 06:33:24.820661	346.7	43.7	-52.4	0.0
2025-01-19 06:33:25.964127	346.3	43.9	-54.9	0.0
2025-01-19 06:33:27.108080	345.8	44.1	-53.1	0.0
2025-01-19 06:33:28.253031	345.4	44.4	-54.1	0.0
2025-01-19 06:33:29.394990	345.0	44.6	-54.5	0.0
2025-01-19 06:33:30.536948	344.5	44.8	-55.4	0.0
2025-01-19 06:33:31.679905	344.1	45.0	-57.7	2.6
2025-01-19 06:33:32.820376	343.6	45.3	-53.8	0.0
2025-01-19 06:33:33.961336	343.2	45.5	-52.4	0.0
2025-01-19 06:33:35.103296	342.7	45.7	-54.7	0.0
2025-01-19 06:33:36.247249	342.2	45.9	-53.5	0.0
2025-01-19 06:33:37.389207	341.7	46.1	-56.4	0.7
2025-01-19 06:33:38.532162	341.2	46.4	-56.2	0.0
2025-01-19 06:33:39.673631	340.8	46.6	-53.5	0.0
2025-01-19 06:33:40.815590	340.2	46.8	-52.8	0.0
2025-01-19 06:33:41.956551	339.7	47.0	-53.5	0.0
2025-01-19 06:33:43.098018	339.2	47.2	-53.4	0.0
2025-01-19 06:33:44.239977	338.7	47.5	-54.2	0.0
2025-01-19 06:33:45.380448	338.2	47.7	-56.7	3.6
2025-01-19 06:33:46.521919	337.6	47.9	-55.2	0.0
2025-01-19 06:33:47.663877	337.1	48.1	-56.3	0.0
2025-01-19 06:33:48.804839	336.5	48.3	-54.1	0.0
2025-01-19 06:33:49.947303	336.0	48.5	-54.8	0.0
2025-01-19 06:33:51.089262	335.4	48.7	-58.4	2.5
2025-01-19 06:33:52.232230	334.8	48.9	-54.9	0.0
2025-01-19 06:33:53.375190	334.3	49.1	-57.3	0.0
2025-01-19 06:33:54.516151	333.7	49.3	-54.7	0.0
2025-01-19 06:33:55.659107	333.1	49.5	-57.8	0.3
2025-01-19 06:33:56.800576	332.5	49.7	-56.2	0.0
2025-01-19 06:33:57.943532	331.8	49.9	-54.7	0.0
2025-01-19 06:33:59.089480	331.2	50.0	-54.5	0.0
2025-01-19 06:34:00.231946	330.6	50.2	-54.8	0.0
2025-01-19 06:34:01.372906	330.0	50.4	-56.5	0.9
2025-01-19 06:34:02.515863	329.3	50.6	-57.6	3.2
2025-01-19 06:34:03.658818	328.7	50.8	-57.2	3.7
2025-01-19 06:34:04.800776	328.0	50.9	-56.6	4.5
2025-01-19 06:34:05.942735	327.3	51.1	-57.9	1.1
2025-01-19 06:34:07.087685	326.7	51.3	-58.2	3.9
2025-01-19 06:34:08.227649	326.0	51.4	-57.3	4.5
2025-01-19 06:34:09.372600	325.3	51.6	-57.1	2.5
2025-01-19 06:34:10.515579	324.6	51.7	-56.5	1.5
2025-01-19 06:34:11.661527	323.9	51.9	-58.7	5.9
2025-01-19 06:34:12.805481	323.2	52.0	-57.5	0.3
2025-01-19 06:34:13.949434	322.5	52.1	-57.7	1.4
2025-01-19 06:34:15.092390	321.8	52.3	-59.3	7.8
2025-01-19 06:34:16.233351	321.0	52.4	-58.1	3.4
2025-01-19 06:34:17.379805	320.3	52.5	-58.6	4.0
2025-01-19 06:34:18.521763	319.5	52.7	-59.1	3.3
2025-01-19 06:34:19.666714	318.8	52.8	-59.7	3.3
2025-01-19 06:34:20.808181	318.0	52.9	-59.9	3.3
2025-01-19 06:34:21.951136	317.3	53.0	-59.0	0.6
2025-01-19 06:34:23.093095	316.5	53.1	-60.0	1.6
2025-01-19 06:34:24.233564	315.8	53.2	-59.9	2.5
2025-01-19 06:34:25.377518	315.0	53.3	-61.0	5.2
2025-01-19 06:34:26.516484	314.2	53.4	-60.4	2.3
2025-01-19 06:34:27.657952	313.4	53.4	-60.2	1.9
2025-01-19 06:34:28.799910	312.6	53.5	-60.6	4.8
2025-01-19 06:34:29.940873	311.8	53.6	-60.8	2.7
2025-01-19 06:34:31.083828	311.0	53.7	-61.4	4.4
2025-01-19 06:34:32.226783	310.2	53.7	-60.8	2.8
2025-01-19 06:34:33.372240	309.4	53.8	-61.1	3.1
2025-01-19 06:34:34.514198	308.6	53.8	-61.5	1.8
2025-01-19 06:34:35.661143	307.8	53.9	-61.2	4.9
2025-01-19 06:34:36.804099	307.0	53.9	-61.4	3.4
2025-01-19 06:34:37.945060	306.2	53.9	-63.1	5.0
2025-01-19 06:34:39.088016	305.4	53.9	-64.9	8.9
2025-01-19 06:34:40.228977	304.6	54.0	-60.8	3.6
2025-01-19 06:34:41.369957	303.8	54.0	-62.0	4.8
2025-01-19 06:34:42.511916	303.0	54.0	-61.3	4.4
2025-01-19 06:34:43.652877	302.1	54.0	-61.1	4.4
2025-01-19 06:34:44.794349	301.3	54.0	-61.7	4.7
2025-01-19 06:34:45.935310	300.5	54.0	-62.1	4.0
2025-01-19 06:34:47.075274	299.7	54.0	-61.9	4.4
2025-01-19 06:34:48.218230	298.9	53.9	-62.5	5.9
2025-01-19 06:34:49.360188	298.1	53.9	-62.5	5.7
2025-01-19 06:34:50.502147	297.3	53.9	-62.3	4.4
2025-01-19 06:34:51.646101	296.5	53.8	-62.4	5.6
2025-01-19 06:34:52.789056	295.7	53.8	-63.1	5.8
2025-01-19 06:34:53.932012	294.8	53.7	-61.9	4.0
2025-01-19 06:34:55.072485	294.1	53.7	-61.6	4.4
2025-01-19 06:34:56.214443	293.3	53.6	-61.6	2.9
2025-01-19 06:34:57.354407	292.5	53.5	-62.5	3.9
2025-01-19 06:34:58.497363	291.7	53.5	-61.5	1.0
2025-01-19 06:34:59.637833	290.9	53.4	-61.9	2.0
2025-01-19 06:35:00.779791	290.1	53.3	-61.9	2.3
2025-01-19 06:35:01.922748	289.3	53.2	-61.3	3.3
2025-01-19 06:35:03.065703	288.6	53.1	-62.4	4.3
2025-01-19 06:35:04.208659	287.8	53.0	-61.4	2.8
2025-01-19 06:35:05.349620	287.0	52.9	-62.1	2.3
2025-01-19 06:35:06.492087	286.3	52.8	-61.1	2.4
2025-01-19 06:35:07.634046	285.5	52.7	-62.0	0.4
2025-01-19 06:35:08.776004	284.8	52.6	-62.1	0.0
2025-01-19 06:35:09.920463	284.1	52.5	-61.8	4.2
2025-01-19 06:35:11.062421	283.3	52.3	-62.1	5.2
2025-01-19 06:35:12.204380	282.6	52.2	-61.9	2.5
2025-01-19 06:35:13.345369	281.9	52.1	-62.1	2.6
2025-01-19 06:35:14.487328	281.2	51.9	-62.6	3.5
2025-01-19 06:35:15.629286	280.5	51.8	-62.9	3.6
2025-01-19 06:35:16.770247	279.8	51.6	-62.2	4.1
2025-01-19 06:35:17.917193	279.1	51.5	-61.8	4.6
2025-01-19 06:35:19.060148	278.4	51.3	-62.7	5.7
2025-01-19 06:35:20.202125	277.7	51.1	-63.0	5.9
2025-01-19 06:35:21.345587	277.0	51.0	-63.5	7.5
2025-01-19 06:35:22.487545	276.4	50.8	-63.0	5.6
2025-01-19 06:35:23.629503	275.7	50.6	-63.2	4.8
2025-01-19 06:35:24.770464	275.1	50.5	-63.7	5.8
2025-01-19 06:35:25.912423	274.5	50.3	-64.1	7.7
2025-01-19 06:35:27.053893	273.8	50.1	-64.0	8.0
2025-01-19 06:35:28.202833	273.2	49.9	-63.7	7.8
2025-01-19 06:35:29.343793	272.6	49.7	-63.2	8.1
2025-01-19 06:35:30.487748	272.0	49.5	-66.4	11.9
2025-01-19 06:35:31.629705	271.4	49.4	-63.9	7.1
2025-01-19 06:35:32.772661	270.8	49.2	-65.0	10.7
2025-01-19 06:35:33.913622	270.2	49.0	-64.1	8.7
2025-01-19 06:35:35.059570	269.6	48.8	-64.5	9.7
2025-01-19 06:35:36.201528	269.0	48.6	-65.3	11.9
2025-01-19 06:35:37.342489	268.5	48.4	-63.9	10.7
2025-01-19 06:35:38.485445	267.9	48.2	-63.9	9.7
2025-01-19 06:35:39.628401	267.4	47.9	-64.4	10.2
2025-01-19 06:35:40.770359	266.8	47.7	-64.2	10.4
2025-01-19 06:35:41.912319	266.3	47.5	-64.7	11.0
2025-01-19 06:35:43.054785	265.8	47.3	-64.2	9.8
2025-01-19 06:35:44.197250	265.3	47.1	-63.6	10.0
2025-01-19 06:35:45.338211	264.7	46.9	-64.3	11.4
2025-01-19 06:35:46.482164	264.2	46.7	-64.8	11.8
2025-01-19 06:35:47.623636	263.7	46.4	-64.6	12.2
2025-01-19 06:35:48.766589	263.2	46.2	-65.1	11.2
2025-01-19 06:35:49.908547	262.8	46.0	-64.7	10.7
2025-01-19 06:35:51.050506	262.3	45.8	-64.5	12.1
2025-01-19 06:35:52.192465	261.8	45.6	-64.3	9.1
2025-01-19 06:35:53.333435	261.4	45.3	-64.8	11.7
2025-01-19 06:35:54.475384	260.9	45.1	-64.6	10.5
2025-01-19 06:35:55.615853	260.4	44.9	-65.0	12.2
2025-01-19 06:35:56.756815	260.0	44.7	-65.2	11.8
2025-01-19 06:35:57.898773	259.6	44.4	-65.2	11.4
2025-01-19 06:35:59.040243	259.1	44.2	-63.9	9.0
2025-01-19 06:36:00.181204	258.7	44.0	-65.2	11.1
2025-01-19 06:36:01.324160	258.3	43.8	-65.2	13.2
2025-01-19 06:36:02.465630	257.9	43.5	-65.4	12.2
2025-01-19 06:36:03.611578	257.5	43.3	-65.2	10.9
2025-01-19 06:36:04.753537	257.1	43.1	-65.7	11.5
2025-01-19 06:36:05.897997	256.7	42.8	-65.8	13.3
2025-01-19 06:36:07.039955	256.3	42.6	-66.1	13.3
2025-01-19 06:36:08.182911	255.9	42.4	-66.3	13.9
2025-01-19 06:36:09.323383	255.5	42.2	-65.3	10.3
2025-01-19 06:36:10.465341	255.1	41.9	-65.5	11.6
2025-01-19 06:36:11.609295	254.8	41.7	-65.5	11.7
2025-01-19 06:36:12.750771	254.4	41.5	-65.4	11.9
2025-01-19 06:36:13.893727	254.0	41.2	-65.1	11.0
2025-01-19 06:36:15.035684	253.7	41.0	-65.1	12.0
2025-01-19 06:36:16.179658	253.3	40.8	-64.9	9.9
2025-01-19 06:36:17.323612	253.0	40.5	-64.9	9.8
2025-01-19 06:36:18.465569	252.7	40.3	-65.5	10.9
2025-01-19 06:36:19.607039	252.3	40.1	-65.7	10.5
2025-01-19 06:36:20.748999	252.0	39.9	-64.9	8.8
2025-01-19 06:36:21.890956	251.7	39.6	-65.5	10.8
2025-01-19 06:36:23.031936	251.4	39.4	-64.9	10.5
2025-01-19 06:36:24.173895	251.0	39.2	-65.3	12.3
2025-01-19 06:36:25.314856	250.7	39.0	-66.1	11.5
2025-01-19 06:36:26.457320	250.4	38.7	-64.8	8.8
2025-01-19 06:36:27.598281	250.1	38.5	-64.4	7.5
2025-01-19 06:36:28.741238	249.8	38.3	-65.5	10.0
2025-01-19 06:36:29.881709	249.5	38.1	-64.5	8.2
2025-01-19 06:36:31.022670	249.2	37.8	-64.8	8.0
2025-01-19 06:36:32.164144	248.9	37.6	-64.3	9.5
2025-01-19 06:36:33.307607	248.7	37.4	-64.2	7.8
2025-01-19 06:36:34.449566	248.4	37.2	-63.7	8.0
2025-01-19 06:36:35.592521	248.1	37.0	-64.3	7.7
2025-01-19 06:36:36.734479	247.8	36.7	-64.3	8.1
2025-01-19 06:36:37.877435	247.6	36.5	-64.2	7.2
2025-01-19 06:36:39.019394	247.3	36.3	-64.8	7.7
2025-01-19 06:36:40.160865	247.0	36.1	-64.1	7.7
2025-01-19 06:36:41.305815	246.8	35.9	-63.6	6.5
2025-01-19 06:36:42.449768	246.5	35.6	-64.6	7.9
2025-01-19 06:36:43.592724	246.3	35.4	-64.9	9.0
2025-01-19 06:36:44.733685	246.0	35.2	-64.7	6.9
2025-01-19 06:36:45.876641	245.8	35.0	-64.5	5.7
2025-01-19 06:36:47.018599	245.6	34.8	-64.1	6.4
2025-01-19 06:36:48.165081	245.3	34.6	-63.2	3.1
2025-01-19 06:36:49.308037	245.1	34.4	-64.0	5.2
2025-01-19 06:36:50.452007	244.8	34.2	-64.4	7.0
2025-01-19 06:36:51.592477	244.6	34.0	-65.4	7.4
2025-01-19 06:36:52.735432	244.4	33.7	-66.2	8.6
2025-01-19 06:36:53.877391	244.2	33.5	-67.6	9.7
2025-01-19 06:36:55.018858	244.0	33.3	-66.0	6.0
2025-01-19 06:36:56.159819	243.7	33.1	-65.9	6.9
2025-01-19 06:36:57.301778	243.5	32.9	-66.0	8.3
2025-01-19 06:36:58.443245	243.3	32.7	-66.3	6.6
2025-01-19 06:36:59.584206	243.1	32.5	-66.9	7.3
2025-01-19 06:37:00.727163	242.9	32.3	-66.5	6.7
2025-01-19 06:37:01.868123	242.7	32.1	-66.4	8.0
2025-01-19 06:37:03.011079	242.5	31.9	-66.6	7.1
2025-01-19 06:37:04.151042	242.3	31.7	-66.9	8.7
2025-01-19 06:37:05.292511	242.1	31.5	-66.0	7.3
2025-01-19 06:37:06.435467	241.9	31.3	-65.5	7.3
2025-01-19 06:37:07.579421	241.7	31.1	-68.0	10.2
2025-01-19 06:37:08.721887	241.5	30.9	-67.7	8.3
2025-01-19 06:37:09.863845	241.3	30.7	-66.4	7.8
2025-01-19 06:37:11.006801	241.2	30.5	-66.2	6.8
2025-01-19 06:37:12.148761	241.0	30.3	-66.8	8.2
2025-01-19 06:37:13.291715	240.8	30.2	-66.6	3.8
#Closed at: 2025-01-19 06:32:07.363777