passes_logs/2025/01/19/Planum_Noyabrsk/Planum_Noyabrsk__20250119_163013_NOAA_19_rec.log

#Pass ID: 20250119_163013_NOAA 19
#Satellite: NOAA 19
#Configuration: NOAA 19
#Start time: 2025-01-19 16:30:18.566493

#LorettStation: 1.0.0 05.05.2024
#Station: Planum_Noyabrsk
#Location: 75.446886 lon 63.207202 lat
#TLE: 1 33591U 09005A   25018.40239338  .00000331  00000+0  20061-3 0  9991
#TLE: 2 33591  99.0190  82.1910 0014361  48.4617 311.7784 14.13262306822020

#Time	Az	El	Level	SNR
2025-01-19 16:30:30.812392	225.7	31.5	-64.4	12.1
2025-01-19 16:30:31.950867	226.0	31.6	-64.7	13.4
2025-01-19 16:30:33.095335	226.3	31.8	-64.6	12.9
2025-01-19 16:30:34.236297	226.7	31.9	-64.1	11.8
2025-01-19 16:30:35.378255	227.0	32.0	-64.4	13.3
2025-01-19 16:30:36.518219	227.3	32.2	-64.9	12.2
2025-01-19 16:30:37.659688	227.7	32.3	-65.1	12.7
2025-01-19 16:30:38.801644	228.0	32.4	-65.1	12.8
2025-01-19 16:30:39.944601	228.4	32.6	-65.5	14.7
2025-01-19 16:30:41.087069	228.7	32.7	-65.2	13.3
2025-01-19 16:30:42.229027	229.1	32.8	-65.3	13.5
2025-01-19 16:30:43.368991	229.4	33.0	-65.2	12.8
2025-01-19 16:30:44.509952	229.8	33.1	-65.5	12.5
2025-01-19 16:30:45.651421	230.1	33.2	-65.7	12.5
2025-01-19 16:30:46.793379	230.5	33.3	-65.6	12.0
2025-01-19 16:30:47.933851	230.9	33.5	-65.8	12.6
2025-01-19 16:30:49.074812	231.2	33.6	-65.9	11.7
2025-01-19 16:30:50.217768	231.6	33.7	-66.2	11.7
2025-01-19 16:30:51.358730	232.0	33.9	-66.0	12.9
2025-01-19 16:30:52.502683	232.3	34.0	-66.2	12.3
2025-01-19 16:30:53.643645	232.7	34.1	-65.7	11.1
2025-01-19 16:30:54.787111	233.1	34.2	-65.8	9.9
2025-01-19 16:30:55.928071	233.5	34.3	-66.1	11.2
2025-01-19 16:30:57.070536	233.9	34.5	-66.3	11.4
2025-01-19 16:30:58.211010	234.3	34.6	-66.5	11.6
2025-01-19 16:30:59.354963	234.7	34.7	-66.4	13.0
2025-01-19 16:31:00.498916	235.1	34.8	-65.6	10.7
2025-01-19 16:31:01.649359	235.5	34.9	-66.3	12.5
2025-01-19 16:31:02.791318	235.9	35.1	-66.3	11.9
2025-01-19 16:31:03.932279	236.3	35.2	-66.2	12.3
2025-01-19 16:31:05.073241	236.7	35.3	-66.6	12.5
2025-01-19 16:31:06.218191	237.1	35.4	-66.8	13.2
2025-01-19 16:31:07.359152	237.5	35.5	-66.5	13.5
2025-01-19 16:31:08.503105	237.9	35.6	-66.5	12.7
2025-01-19 16:31:09.644066	238.3	35.7	-66.3	13.1
2025-01-19 16:31:10.788021	238.8	35.8	-66.0	10.8
2025-01-19 16:31:11.929978	239.2	36.0	-66.7	12.4
2025-01-19 16:31:13.071936	239.6	36.1	-66.7	12.7
2025-01-19 16:31:14.212898	240.0	36.2	-66.7	12.1
2025-01-19 16:31:15.354366	240.5	36.3	-66.5	10.5
2025-01-19 16:31:16.494841	240.9	36.4	-66.6	12.6
2025-01-19 16:31:17.637797	241.3	36.5	-65.4	11.1
2025-01-19 16:31:18.778267	241.8	36.6	-65.7	12.1
2025-01-19 16:31:19.919229	242.2	36.7	-65.7	11.1
2025-01-19 16:31:21.060190	242.7	36.8	-66.1	13.4
2025-01-19 16:31:22.203653	243.1	36.8	-63.7	9.6
2025-01-19 16:31:23.347606	243.6	36.9	-65.3	13.0
2025-01-19 16:31:24.489564	244.0	37.0	-66.0	12.6
2025-01-19 16:31:25.631048	244.5	37.1	-65.6	12.2
2025-01-19 16:31:26.778974	244.9	37.2	-64.0	9.4
2025-01-19 16:31:27.919445	245.4	37.3	-64.6	10.0
2025-01-19 16:31:29.061912	245.8	37.4	-65.3	11.2
2025-01-19 16:31:30.203870	246.3	37.4	-65.4	11.9
2025-01-19 16:31:31.345828	246.8	37.5	-65.4	11.3
2025-01-19 16:31:32.486810	247.2	37.6	-65.8	8.8
2025-01-19 16:31:33.629766	247.7	37.7	-66.4	11.1
2025-01-19 16:31:34.780701	248.2	37.8	-65.9	11.6
2025-01-19 16:31:35.924678	248.7	37.8	-66.0	11.1
2025-01-19 16:31:37.068631	249.1	37.9	-65.6	11.1
2025-01-19 16:31:38.209592	249.6	38.0	-66.1	11.6
2025-01-19 16:31:39.351063	250.1	38.0	-66.0	11.1
2025-01-19 16:31:40.494017	250.6	38.1	-66.1	11.0
2025-01-19 16:31:41.635976	251.1	38.1	-66.1	11.6
2025-01-19 16:31:42.775450	251.6	38.2	-64.6	10.7
2025-01-19 16:31:43.917409	252.0	38.3	-65.8	11.1
2025-01-19 16:31:45.059367	252.5	38.3	-65.5	10.9
2025-01-19 16:31:46.200328	253.0	38.4	-65.7	11.9
2025-01-19 16:31:47.341297	253.5	38.4	-65.8	11.7
2025-01-19 16:31:48.483248	254.0	38.5	-66.0	12.0
2025-01-19 16:31:49.624719	254.5	38.5	-66.0	11.9
2025-01-19 16:31:50.766678	255.0	38.5	-64.9	10.0
2025-01-19 16:31:51.913623	255.5	38.6	-66.0	11.3
2025-01-19 16:31:53.053587	256.0	38.6	-65.6	11.9
2025-01-19 16:31:54.195549	256.5	38.7	-65.7	10.8
2025-01-19 16:31:55.336507	257.0	38.7	-65.6	12.1
2025-01-19 16:31:56.478466	257.5	38.7	-65.5	11.3
2025-01-19 16:31:57.619427	258.0	38.8	-65.5	12.2
2025-01-19 16:31:58.761385	258.5	38.8	-64.4	11.0
2025-01-19 16:31:59.901349	259.0	38.8	-65.6	11.9
2025-01-19 16:32:01.043815	259.5	38.8	-64.9	12.2
2025-01-19 16:32:02.184776	260.0	38.8	-65.0	11.7
2025-01-19 16:32:03.325738	260.5	38.9	-65.1	12.3
2025-01-19 16:32:04.471685	261.0	38.9	-65.0	11.5
2025-01-19 16:32:05.613644	261.5	38.9	-64.6	11.1
2025-01-19 16:32:06.756600	262.0	38.9	-64.5	10.8
2025-01-19 16:32:07.900066	262.5	38.9	-64.7	10.8
2025-01-19 16:32:09.041024	263.1	38.9	-64.9	11.3
2025-01-19 16:32:10.180987	263.6	38.9	-64.7	10.6
2025-01-19 16:32:11.323454	264.1	38.9	-64.4	11.6
2025-01-19 16:32:12.466410	264.6	38.9	-64.5	10.3
2025-01-19 16:32:13.615351	265.1	38.9	-64.3	10.0
2025-01-19 16:32:14.762295	265.6	38.9	-64.4	9.2
2025-01-19 16:32:15.905252	266.1	38.9	-63.8	9.3
2025-01-19 16:32:17.046722	266.6	38.9	-63.9	9.8
2025-01-19 16:32:18.187684	267.1	38.8	-64.2	10.1
2025-01-19 16:32:19.329642	267.6	38.8	-64.1	10.2
2025-01-19 16:32:20.471110	268.1	38.8	-63.8	8.9
2025-01-19 16:32:21.612071	268.6	38.8	-64.4	9.9
2025-01-19 16:32:22.754030	269.1	38.8	-64.2	9.7
2025-01-19 16:32:23.898981	269.6	38.7	-64.9	9.6
2025-01-19 16:32:25.041448	270.1	38.7	-64.1	8.7
2025-01-19 16:32:26.185401	270.6	38.7	-64.5	8.6
2025-01-19 16:32:27.328862	271.1	38.6	-64.6	9.2
2025-01-19 16:32:28.471817	271.6	38.6	-63.8	9.1
2025-01-19 16:32:29.615280	272.1	38.6	-64.1	8.5
2025-01-19 16:32:30.756256	272.6	38.5	-64.2	7.9
2025-01-19 16:32:31.898215	273.1	38.5	-64.5	8.7
2025-01-19 16:32:33.037182	273.6	38.4	-64.3	9.5
2025-01-19 16:32:34.177145	274.1	38.4	-64.3	8.6
2025-01-19 16:32:35.320101	274.6	38.3	-64.0	7.6
2025-01-19 16:32:36.462060	275.1	38.3	-64.1	9.1
2025-01-19 16:32:37.604019	275.6	38.2	-64.6	8.6
2025-01-19 16:32:38.747973	276.1	38.1	-64.4	8.2
2025-01-19 16:32:39.889930	276.5	38.1	-64.7	7.1
2025-01-19 16:32:41.030892	277.0	38.0	-64.5	7.5
2025-01-19 16:32:42.172380	277.5	38.0	-65.1	7.4
2025-01-19 16:32:43.314338	278.0	37.9	-64.4	4.9
2025-01-19 16:32:44.456297	278.5	37.8	-64.3	7.5
2025-01-19 16:32:45.597766	278.9	37.8	-65.0	7.1
2025-01-19 16:32:46.739725	279.4	37.7	-64.5	6.3
2025-01-19 16:32:47.882682	279.9	37.6	-65.4	6.6
2025-01-19 16:32:49.027140	280.3	37.5	-64.4	5.2
2025-01-19 16:32:50.168616	280.8	37.5	-64.1	6.2
2025-01-19 16:32:51.311567	281.3	37.4	-64.6	5.7
2025-01-19 16:32:52.454032	281.7	37.3	-66.2	8.0
2025-01-19 16:32:53.596987	282.2	37.2	-64.7	1.7
2025-01-19 16:32:54.738946	282.6	37.1	-65.6	7.7
2025-01-19 16:32:55.887396	283.1	37.0	-65.7	6.5
2025-01-19 16:32:57.029355	283.5	36.9	-65.3	8.6
2025-01-19 16:32:58.169319	284.0	36.9	-65.6	7.6
2025-01-19 16:32:59.311277	284.4	36.8	-65.7	6.8
2025-01-19 16:33:00.454233	284.9	36.7	-64.8	7.4
2025-01-19 16:33:01.594197	285.3	36.6	-64.5	4.5
2025-01-19 16:33:02.736664	285.8	36.5	-64.1	7.6
2025-01-19 16:33:03.880618	286.2	36.4	-65.3	6.3
2025-01-19 16:33:05.022582	286.6	36.3	-64.5	6.4
2025-01-19 16:33:06.165040	287.1	36.2	-64.3	7.3
2025-01-19 16:33:07.305509	287.5	36.1	-63.9	5.2
2025-01-19 16:33:08.446977	287.9	36.0	-64.2	7.0
2025-01-19 16:33:09.588450	288.3	35.9	-62.6	3.8
2025-01-19 16:33:10.729920	288.8	35.8	-63.9	8.5
2025-01-19 16:33:11.871878	289.2	35.6	-64.5	8.3
2025-01-19 16:33:13.012352	289.6	35.5	-64.1	9.6
2025-01-19 16:33:14.154311	290.0	35.4	-64.3	7.9
2025-01-19 16:33:15.297266	290.4	35.3	-64.3	9.3
2025-01-19 16:33:16.437250	290.8	35.2	-63.9	9.5
2025-01-19 16:33:17.580206	291.2	35.1	-64.3	11.0
2025-01-19 16:33:18.723163	291.6	35.0	-63.8	9.9
2025-01-19 16:33:19.866118	292.0	34.9	-64.3	8.7
2025-01-19 16:33:21.009075	292.4	34.7	-63.3	8.4
2025-01-19 16:33:22.151033	292.8	34.6	-63.4	8.7
2025-01-19 16:33:23.294986	293.2	34.5	-64.9	10.9
2025-01-19 16:33:24.437453	293.6	34.4	-64.3	10.2
2025-01-19 16:33:25.579413	294.0	34.3	-64.4	11.5
2025-01-19 16:33:26.725359	294.3	34.1	-63.4	9.9
2025-01-19 16:33:27.868315	294.7	34.0	-64.1	9.8
2025-01-19 16:33:29.009276	295.1	33.9	-64.2	10.9
2025-01-19 16:33:30.151743	295.5	33.8	-63.7	8.9
2025-01-19 16:33:31.292704	295.8	33.6	-63.3	9.9
2025-01-19 16:33:32.435660	296.2	33.5	-64.3	8.3
2025-01-19 16:33:33.575132	296.6	33.4	-64.6	12.4
2025-01-19 16:33:34.716599	296.9	33.2	-63.0	10.2
2025-01-19 16:33:35.857069	297.3	33.1	-64.7	11.9
2025-01-19 16:33:36.998054	297.6	33.0	-65.2	13.2
2025-01-19 16:33:38.140013	298.0	32.9	-64.4	12.1
2025-01-19 16:33:39.282968	298.3	32.7	-64.7	11.9
2025-01-19 16:33:40.424928	298.7	32.6	-64.4	12.0
2025-01-19 16:33:41.565888	299.0	32.5	-64.9	11.6
2025-01-19 16:33:42.707848	299.4	32.3	-63.6	10.1
2025-01-19 16:33:43.847811	299.7	32.2	-65.3	12.1
2025-01-19 16:33:44.991765	300.1	32.1	-65.0	13.3
2025-01-19 16:33:46.133723	300.4	31.9	-64.1	10.7
2025-01-19 16:33:47.276679	300.7	31.8	-64.9	12.3
2025-01-19 16:33:48.418637	301.0	31.7	-64.3	9.7
2025-01-19 16:33:49.559598	301.4	31.5	-64.4	11.0
2025-01-19 16:33:50.703552	301.7	31.4	-63.1	7.8
2025-01-19 16:33:51.846508	302.0	31.3	-63.6	10.1
2025-01-19 16:33:52.989463	302.3	31.1	-65.1	10.7
2025-01-19 16:33:54.131422	302.6	31.0	-64.7	10.5
2025-01-19 16:33:55.273381	303.0	30.8	-64.4	9.3
2025-01-19 16:33:56.413345	303.3	30.7	-64.7	9.8
2025-01-19 16:33:57.556300	303.6	30.6	-65.0	9.6
2025-01-19 16:33:58.696281	303.9	30.4	-62.0	3.7
2025-01-19 16:33:59.839237	304.2	30.3	-64.5	8.9
2025-01-19 16:34:00.982195	304.5	30.2	-65.5	8.8
2025-01-19 16:34:02.123154	304.8	30.0	-63.1	0.0
#Closed at: 2025-01-19 16:30:13.568794