passes_logs/2025/01/19/Planum_Noyabrsk/Planum_Noyabrsk__20250119_003253_METEOR-M2_2_rec.log

#Pass ID: 20250119_003253_METEOR-M2 2
#Satellite: METEOR-M2 2
#Configuration: METEOR-M2 2
#Start time: 2025-01-19 00:32:58.069269

#LorettStation: 1.0.0 05.05.2024
#Station: Planum_Noyabrsk
#Location: 75.446886 lon 63.207202 lat
#TLE: 1 44387U 19038A   25018.44043631  .00000303  00000+0  15136-3 0  9992
#TLE: 2 44387  98.8572 354.8644 0002262  73.6671 286.4756 14.24119310288027

#Time	Az	El	Level	SNR
2025-01-19 00:33:12.309997	4.0	32.6	-60.6	0.0
2025-01-19 00:33:13.448964	3.8	32.8	-64.5	0.0
2025-01-19 00:33:14.590921	3.6	33.1	-68.8	0.0
2025-01-19 00:33:15.732880	3.4	33.3	-69.2	0.0
2025-01-19 00:33:16.873841	3.2	33.5	-64.7	0.0
2025-01-19 00:33:18.015800	3.0	33.7	-67.5	0.0
2025-01-19 00:33:19.155763	2.8	34.0	-66.4	0.0
2025-01-19 00:33:20.300222	2.6	34.2	-66.7	0.0
2025-01-19 00:33:21.439189	2.4	34.4	-65.6	0.0
2025-01-19 00:33:22.580150	2.2	34.6	-61.6	0.0
2025-01-19 00:33:23.722622	2.0	34.9	-67.1	0.0
2025-01-19 00:33:24.863584	1.8	35.1	-65.8	0.0
2025-01-19 00:33:26.004545	1.6	35.3	-67.6	0.0
2025-01-19 00:33:27.144022	1.4	35.6	-67.2	0.0
2025-01-19 00:33:28.284983	1.1	35.8	-66.7	0.0
2025-01-19 00:33:29.425944	0.9	36.0	-62.5	0.0
2025-01-19 00:33:30.565908	0.7	36.3	-68.6	0.0
2025-01-19 00:33:31.706869	0.4	36.5	-66.6	0.0
2025-01-19 00:33:32.848827	0.2	36.8	-66.3	0.0
2025-01-19 00:33:33.990786	360.0	37.0	-69.2	0.0
2025-01-19 00:33:35.130750	359.7	37.2	-69.5	0.0
2025-01-19 00:33:36.270713	359.5	37.5	-66.5	0.0
2025-01-19 00:33:37.412196	359.2	37.7	-68.5	0.0
2025-01-19 00:33:38.555151	359.0	38.0	-69.8	0.0
2025-01-19 00:33:39.697110	358.7	38.2	-69.5	0.0
2025-01-19 00:33:40.838592	358.4	38.5	-67.6	0.0
2025-01-19 00:33:41.979544	358.2	38.7	-72.3	0.0
2025-01-19 00:33:43.122501	357.9	39.0	-72.0	0.0
2025-01-19 00:33:44.262465	357.6	39.2	-70.2	0.0
2025-01-19 00:33:45.403931	357.3	39.5	-65.9	0.0
2025-01-19 00:33:46.545889	357.0	39.7	-59.9	0.0
2025-01-19 00:33:47.686850	356.8	40.0	-69.7	0.0
2025-01-19 00:33:48.828317	356.5	40.2	-68.0	0.0
2025-01-19 00:33:49.968281	356.2	40.5	-70.4	0.0
2025-01-19 00:33:51.109751	355.9	40.7	-69.2	0.0
2025-01-19 00:33:52.251726	355.5	41.0	-68.3	0.0
2025-01-19 00:33:53.393684	355.2	41.3	-65.4	0.0
2025-01-19 00:33:54.535642	354.9	41.5	-67.7	0.0
2025-01-19 00:33:55.676603	354.6	41.8	-67.1	0.0
2025-01-19 00:33:56.816567	354.3	42.1	-65.1	0.0
2025-01-19 00:33:57.958526	353.9	42.3	-59.1	0.0
2025-01-19 00:33:59.103007	353.6	42.6	-67.8	0.0
2025-01-19 00:34:00.248954	353.2	42.8	-67.8	0.0
2025-01-19 00:34:01.389916	352.9	43.1	-59.3	0.0
2025-01-19 00:34:02.532873	352.5	43.4	-66.2	0.0
2025-01-19 00:34:03.676825	352.2	43.6	-65.5	0.0
2025-01-19 00:34:04.818783	351.8	43.9	-61.9	0.0
2025-01-19 00:34:05.958256	351.4	44.2	-56.9	0.0
2025-01-19 00:34:07.099725	351.0	44.4	-64.8	0.0
2025-01-19 00:34:08.241683	350.6	44.7	-64.4	0.0
2025-01-19 00:34:09.388139	350.2	45.0	-62.5	0.0
2025-01-19 00:34:10.532092	349.8	45.2	-63.8	0.0
2025-01-19 00:34:11.673053	349.4	45.5	-61.7	0.0
2025-01-19 00:34:12.814523	349.0	45.8	-62.6	0.0
2025-01-19 00:34:13.954486	348.6	46.1	-66.6	0.0
2025-01-19 00:34:15.096445	348.1	46.3	-64.2	0.0
2025-01-19 00:34:16.239908	347.7	46.6	-58.7	0.0
2025-01-19 00:34:17.382377	347.2	46.9	-67.5	0.0
2025-01-19 00:34:18.523339	346.8	47.1	-67.5	0.0
2025-01-19 00:34:19.665296	346.3	47.4	-66.7	0.0
2025-01-19 00:34:20.807255	345.8	47.7	-67.5	0.0
2025-01-19 00:34:21.949214	345.4	47.9	-67.5	0.0
2025-01-19 00:34:23.093167	344.9	48.2	-68.2	0.0
2025-01-19 00:34:24.234128	344.4	48.5	-67.3	0.0
2025-01-19 00:34:25.375089	343.9	48.7	-63.9	0.0
2025-01-19 00:34:26.515053	343.4	49.0	-69.2	0.0
2025-01-19 00:34:27.658009	342.8	49.3	-68.0	0.0
2025-01-19 00:34:28.798970	342.3	49.5	-64.4	0.0
2025-01-19 00:34:29.941926	341.7	49.8	-65.7	0.0
2025-01-19 00:34:31.083884	341.2	50.0	-71.2	0.0
2025-01-19 00:34:32.224845	340.6	50.3	-71.1	0.0
2025-01-19 00:34:33.364809	340.1	50.6	-70.0	0.0
2025-01-19 00:34:34.506768	339.5	50.8	-68.5	0.0
2025-01-19 00:34:35.646731	338.9	51.1	-67.6	0.0
2025-01-19 00:34:36.789196	338.3	51.3	-67.8	0.0
2025-01-19 00:34:37.930157	337.7	51.6	-68.0	0.0
2025-01-19 00:34:39.072116	337.1	51.8	-65.3	0.0
2025-01-19 00:34:40.214074	336.4	52.1	-68.0	0.0
2025-01-19 00:34:41.354545	335.8	52.3	-58.5	0.0
2025-01-19 00:34:42.495505	335.1	52.5	-67.0	0.0
2025-01-19 00:34:43.637465	334.5	52.8	-65.2	0.0
2025-01-19 00:34:44.778425	333.8	53.0	-65.2	0.0
2025-01-19 00:34:45.923375	333.1	53.2	-63.2	0.0
2025-01-19 00:34:47.064353	332.4	53.5	-66.6	0.0
2025-01-19 00:34:48.208307	331.7	53.7	-66.6	0.0
2025-01-19 00:34:49.350264	331.0	53.9	-62.0	0.0
2025-01-19 00:34:50.491225	330.2	54.1	-64.5	0.0
2025-01-19 00:34:51.631189	329.5	54.3	-63.4	0.0
2025-01-19 00:34:52.774145	328.7	54.6	-64.1	0.0
2025-01-19 00:34:53.915106	328.0	54.8	-64.7	0.0
2025-01-19 00:34:55.057573	327.2	55.0	-64.4	0.0
2025-01-19 00:34:56.199531	326.4	55.2	-64.5	0.0
2025-01-19 00:34:57.339495	325.6	55.3	-65.1	0.0
2025-01-19 00:34:58.481472	324.8	55.5	-65.6	0.0
2025-01-19 00:34:59.623431	324.0	55.7	-65.1	0.0
2025-01-19 00:35:00.764392	323.2	55.9	-67.0	0.0
2025-01-19 00:35:01.905353	322.3	56.1	-66.9	0.0
2025-01-19 00:35:03.045824	321.5	56.2	-66.5	0.0
2025-01-19 00:35:04.187782	320.6	56.4	-66.7	0.0
2025-01-19 00:35:05.330738	319.7	56.5	-68.1	0.0
2025-01-19 00:35:06.470701	318.9	56.7	-68.0	0.0
2025-01-19 00:35:07.616649	318.0	56.8	-67.8	0.0
2025-01-19 00:35:08.761600	317.1	57.0	-68.6	0.0
2025-01-19 00:35:09.903559	316.2	57.1	-68.2	0.0
2025-01-19 00:35:11.047511	315.2	57.2	-61.2	0.0
2025-01-19 00:35:12.193966	314.3	57.3	-69.6	0.0
2025-01-19 00:35:13.336922	313.4	57.4	-69.4	0.0
2025-01-19 00:35:14.477882	312.4	57.5	-70.6	0.0
2025-01-19 00:35:15.619841	311.5	57.6	-71.1	0.0
2025-01-19 00:35:16.759805	310.5	57.7	-62.2	0.0
2025-01-19 00:35:17.902761	309.6	57.8	-71.5	0.0
2025-01-19 00:35:19.043237	308.6	57.9	-71.4	0.0
2025-01-19 00:35:20.187696	307.7	57.9	-71.6	0.0
2025-01-19 00:35:21.332647	306.7	58.0	-65.1	0.0
2025-01-19 00:35:22.473608	305.7	58.0	-71.5	0.0
2025-01-19 00:35:23.614569	304.7	58.1	-70.6	0.0
2025-01-19 00:35:24.755530	303.7	58.1	-70.0	0.0
2025-01-19 00:35:25.897994	302.8	58.1	-68.3	0.0
2025-01-19 00:35:27.038955	301.8	58.2	-69.5	0.0
2025-01-19 00:35:28.180914	300.8	58.2	-70.8	0.0
2025-01-19 00:35:29.322872	299.8	58.2	-69.9	0.0
2025-01-19 00:35:30.464831	298.8	58.2	-71.5	0.0
2025-01-19 00:35:31.605792	297.8	58.1	-71.0	0.0
2025-01-19 00:35:32.747261	296.8	58.1	-70.8	0.0
2025-01-19 00:35:33.888222	295.9	58.1	-70.9	0.0
2025-01-19 00:35:35.029183	294.9	58.0	-70.4	0.0
2025-01-19 00:35:36.169656	293.9	58.0	-70.3	0.0
2025-01-19 00:35:37.311615	292.9	57.9	-70.3	0.0
2025-01-19 00:35:38.452575	292.0	57.9	-70.2	0.0
2025-01-19 00:35:39.594534	291.0	57.8	-69.9	0.0
2025-01-19 00:35:40.735502	290.0	57.7	-69.7	0.0
2025-01-19 00:35:41.877454	289.1	57.7	-67.3	0.0
2025-01-19 00:35:43.016929	288.1	57.6	-70.0	0.0
2025-01-19 00:35:44.160882	287.2	57.5	-70.5	0.0
2025-01-19 00:35:45.300846	286.3	57.4	-70.3	0.0
2025-01-19 00:35:46.442804	285.3	57.2	-71.1	0.0
2025-01-19 00:35:47.584272	284.4	57.1	-71.4	0.0
2025-01-19 00:35:48.726230	283.5	57.0	-71.5	0.0
2025-01-19 00:35:49.868189	282.6	56.9	-71.2	0.0
2025-01-19 00:35:51.016131	281.7	56.7	-70.2	0.0
2025-01-19 00:35:52.158091	280.8	56.6	-67.2	0.0
2025-01-19 00:35:53.303040	280.0	56.4	-70.5	0.0
2025-01-19 00:35:54.444002	279.1	56.3	-71.3	0.0
2025-01-19 00:35:55.585960	278.2	56.1	-70.9	0.0
2025-01-19 00:35:56.725924	277.4	55.9	-71.3	0.0
2025-01-19 00:35:57.868879	276.6	55.8	-71.2	0.0
2025-01-19 00:35:59.008844	275.7	55.6	-72.0	0.0
2025-01-19 00:36:00.150802	274.9	55.4	-69.5	0.0
2025-01-19 00:36:01.291763	274.1	55.2	-67.2	0.0
2025-01-19 00:36:02.433722	273.3	55.0	-73.3	0.0
2025-01-19 00:36:03.573195	272.6	54.8	-73.2	0.0
2025-01-19 00:36:04.715663	271.8	54.6	-73.0	0.0
2025-01-19 00:36:05.856621	271.0	54.4	-73.2	0.0
2025-01-19 00:36:06.999090	270.3	54.2	-70.1	0.0
2025-01-19 00:36:08.140051	269.6	54.0	-73.2	0.0
2025-01-19 00:36:09.282010	268.8	53.7	-72.0	0.0
2025-01-19 00:36:10.422971	268.1	53.5	-71.1	0.0
2025-01-19 00:36:11.565927	267.4	53.3	-67.6	0.0
2025-01-19 00:36:12.706888	266.7	53.1	-71.9	0.0
2025-01-19 00:36:13.847849	266.0	52.8	-70.9	0.0
2025-01-19 00:36:14.989316	265.4	52.6	-71.8	0.0
2025-01-19 00:36:16.129281	264.7	52.3	-68.1	0.0
2025-01-19 00:36:17.270748	264.1	52.1	-71.3	0.0
2025-01-19 00:36:18.416210	263.4	51.9	-71.6	0.0
2025-01-19 00:36:19.560211	262.8	51.6	-71.8	0.0
2025-01-19 00:36:20.701632	262.2	51.4	-70.8	0.0
2025-01-19 00:36:21.848092	261.6	51.1	-72.1	0.0
2025-01-19 00:36:22.995037	261.0	50.9	-71.8	0.0
2025-01-19 00:36:24.135999	260.4	50.6	-71.3	0.0
2025-01-19 00:36:25.277956	259.8	50.3	-71.7	0.0
2025-01-19 00:36:26.418918	259.3	50.1	-69.5	0.0
2025-01-19 00:36:27.560877	258.7	49.8	-71.4	0.0
2025-01-19 00:36:28.703849	258.2	49.6	-71.2	0.0
2025-01-19 00:36:29.849796	257.6	49.3	-71.8	0.0
2025-01-19 00:36:30.989270	257.1	49.0	-71.7	0.0
2025-01-19 00:36:32.131229	256.6	48.8	-71.1	0.0
2025-01-19 00:36:33.273187	256.1	48.5	-71.2	0.0
2025-01-19 00:36:34.415145	255.6	48.2	-71.2	0.0
2025-01-19 00:36:35.562091	255.1	48.0	-71.6	0.0
2025-01-19 00:36:36.704049	254.6	47.7	-71.5	0.0
2025-01-19 00:36:37.845010	254.1	47.4	-70.9	0.0
2025-01-19 00:36:38.990958	253.6	47.2	-72.0	0.0
2025-01-19 00:36:40.132916	253.2	46.9	-71.8	0.0
2025-01-19 00:36:41.274876	252.7	46.6	-68.9	0.0
2025-01-19 00:36:42.419825	252.3	46.4	-72.1	0.0
2025-01-19 00:36:43.561785	251.8	46.1	-72.4	0.0
2025-01-19 00:36:44.705248	251.4	45.8	-72.6	0.0
2025-01-19 00:36:45.850706	251.0	45.5	-72.9	0.0
2025-01-19 00:36:46.993662	250.6	45.3	-72.8	0.0
2025-01-19 00:36:48.133645	250.2	45.0	-73.0	0.0
2025-01-19 00:36:49.279594	249.8	44.7	-72.8	0.0
2025-01-19 00:36:50.421551	249.4	44.5	-73.1	0.0
2025-01-19 00:36:51.563024	249.0	44.2	-73.1	0.0
2025-01-19 00:36:52.703985	248.6	43.9	-69.1	0.0
2025-01-19 00:36:53.846941	248.2	43.7	-72.5	0.0
2025-01-19 00:36:54.986905	247.9	43.4	-73.0	0.0
2025-01-19 00:36:56.128866	247.5	43.1	-73.0	0.0
2025-01-19 00:36:57.270822	247.1	42.9	-72.4	0.0
2025-01-19 00:36:58.417767	246.8	42.6	-73.0	0.0
2025-01-19 00:36:59.558728	246.5	42.3	-72.9	0.0
2025-01-19 00:37:00.699689	246.1	42.1	-72.5	0.0
2025-01-19 00:37:01.842154	245.8	41.8	-72.7	0.0
2025-01-19 00:37:02.982118	245.5	41.5	-72.6	0.0
2025-01-19 00:37:04.124078	245.1	41.3	-72.7	0.0
2025-01-19 00:37:05.266035	244.8	41.0	-71.8	0.0
2025-01-19 00:37:06.410985	244.5	40.8	-72.7	0.0
2025-01-19 00:37:07.553941	244.2	40.5	-70.2	0.0
2025-01-19 00:37:08.694414	243.9	40.2	-69.7	0.0
2025-01-19 00:37:09.836373	243.6	40.0	-72.0	0.0
2025-01-19 00:37:10.978332	243.3	39.7	-71.8	0.0
2025-01-19 00:37:12.118295	243.0	39.5	-72.1	0.0
2025-01-19 00:37:13.260254	242.7	39.2	-71.6	0.0
2025-01-19 00:37:14.402212	242.5	39.0	-71.9	0.0
2025-01-19 00:37:15.544171	242.2	38.7	-72.2	0.0
2025-01-19 00:37:16.684642	241.9	38.5	-72.5	0.0
2025-01-19 00:37:17.826600	241.6	38.2	-71.9	0.0
2025-01-19 00:37:18.967562	241.4	38.0	-70.2	0.0
2025-01-19 00:37:20.111540	241.1	37.7	-72.4	0.0
2025-01-19 00:37:21.270448	240.9	37.5	-72.0	0.0
2025-01-19 00:37:22.414417	240.6	37.2	-70.7	0.0
2025-01-19 00:37:23.555378	240.4	37.0	-72.1	0.0
2025-01-19 00:37:24.695342	240.1	36.7	-72.6	0.0
2025-01-19 00:37:25.837810	239.9	36.5	-72.6	0.0
2025-01-19 00:37:26.982761	239.7	36.3	-72.0	0.0
2025-01-19 00:37:28.120729	239.4	36.0	-72.8	0.0
2025-01-19 00:37:29.261199	239.2	35.8	-70.9	0.0
2025-01-19 00:37:30.406150	239.0	35.5	-72.9	0.0
2025-01-19 00:37:31.550104	238.8	35.3	-73.2	0.0
2025-01-19 00:37:32.690067	238.5	35.1	-73.0	0.0
2025-01-19 00:37:33.829033	238.3	34.8	-71.5	0.0
2025-01-19 00:37:34.969994	238.1	34.6	-73.5	0.0
2025-01-19 00:37:36.110955	237.9	34.4	-73.3	0.0
2025-01-19 00:37:37.253420	237.7	34.2	-72.6	0.0
2025-01-19 00:37:38.395379	237.5	33.9	-73.7	0.0
2025-01-19 00:37:39.536340	237.3	33.7	-73.7	0.0
2025-01-19 00:37:40.677301	237.1	33.5	-73.7	0.0
2025-01-19 00:37:41.818262	236.9	33.3	-73.7	0.0
2025-01-19 00:37:42.959227	236.7	33.0	-73.8	0.0
2025-01-19 00:37:44.104175	236.5	32.8	-71.7	0.0
2025-01-19 00:37:45.246132	236.3	32.6	-72.7	0.0
2025-01-19 00:37:46.388601	236.1	32.4	-72.0	0.0
2025-01-19 00:37:47.532075	236.0	32.2	-71.9	0.0
2025-01-19 00:37:48.672029	235.8	31.9	-72.1	0.0
2025-01-19 00:37:49.812990	235.6	31.7	-72.6	0.0
2025-01-19 00:37:50.953951	235.4	31.5	-73.0	0.0
2025-01-19 00:37:52.095911	235.3	31.3	-71.7	0.0
2025-01-19 00:37:53.237868	235.1	31.1	-72.6	0.0
2025-01-19 00:37:54.379845	234.9	30.9	-71.6	0.0
2025-01-19 00:37:55.519810	234.7	30.7	-72.9	0.0
2025-01-19 00:37:56.662765	234.6	30.5	-72.9	0.0
2025-01-19 00:37:57.804233	234.4	30.3	-72.9	0.0
2025-01-19 00:37:58.948697	234.3	30.1	-71.7	0.0
#Closed at: 2025-01-19 00:32:53.072745