passes_logs/2025/01/19/Planum_Noyabrsk/Planum_Noyabrsk__20250119_151338_NOAA_18_rec.log

#Pass ID: 20250119_151338_NOAA 18
#Satellite: NOAA 18
#Configuration: NOAA 18
#Start time: 2025-01-19 15:13:43.473177

#LorettStation: 1.0.0 05.05.2024
#Station: Planum_Noyabrsk
#Location: 75.446886 lon 63.207202 lat
#TLE: 1 28654U 05018A   25018.41896649  .00000393  00000+0  23205-3 0  9991
#TLE: 2 28654  98.8560  99.4394 0014513 169.6343 190.5131 14.13489610 13660

#Time	Az	El	Level	SNR
2025-01-19 15:13:55.741876	90.5	31.5	-47.9	0.0
2025-01-19 15:13:56.889336	90.1	31.7	-46.6	0.0
2025-01-19 15:13:58.040271	89.8	31.8	-50.4	0.0
2025-01-19 15:13:59.193200	89.5	32.0	-50.5	0.0
2025-01-19 15:14:00.358098	89.2	32.1	-49.3	0.0
2025-01-19 15:14:01.513022	88.9	32.3	-47.0	0.0
2025-01-19 15:14:02.665465	88.5	32.4	-48.7	0.0
2025-01-19 15:14:03.821387	88.2	32.6	-51.8	0.0
2025-01-19 15:14:04.971324	87.9	32.7	-49.2	0.0
2025-01-19 15:14:06.147192	87.5	32.8	-52.5	0.0
2025-01-19 15:14:07.304112	87.2	33.0	-50.3	0.0
2025-01-19 15:14:08.458547	86.8	33.1	-51.9	0.0
2025-01-19 15:14:09.619456	86.5	33.3	-52.0	0.0
2025-01-19 15:14:10.784374	86.1	33.4	-50.3	0.0
2025-01-19 15:14:11.939299	85.8	33.5	-50.1	0.0
2025-01-19 15:14:13.100207	85.4	33.7	-50.3	0.0
2025-01-19 15:14:14.255132	85.1	33.8	-50.2	0.0
2025-01-19 15:14:15.410565	84.7	34.0	-50.0	0.0
2025-01-19 15:14:16.579451	84.4	34.1	-48.0	0.0
2025-01-19 15:14:17.733379	84.0	34.2	-50.6	0.0
2025-01-19 15:14:18.888304	83.6	34.4	-50.3	0.0
2025-01-19 15:14:20.046220	83.2	34.5	-51.8	0.0
2025-01-19 15:14:21.199171	82.9	34.6	-51.4	0.0
2025-01-19 15:14:22.356601	82.5	34.8	-51.7	0.0
2025-01-19 15:14:23.512035	82.1	34.9	-50.9	0.0
2025-01-19 15:14:24.672942	81.7	35.0	-51.8	0.0
2025-01-19 15:14:25.826869	81.3	35.2	-51.3	0.0
2025-01-19 15:14:26.978802	80.9	35.3	-48.9	0.0
2025-01-19 15:14:28.135721	80.6	35.4	-52.0	0.0
2025-01-19 15:14:29.286655	80.2	35.5	-53.9	0.0
2025-01-19 15:14:30.432603	79.8	35.7	-52.8	0.0
2025-01-19 15:14:31.577554	79.4	35.8	-50.9	0.0
2025-01-19 15:14:32.726495	79.0	35.9	-49.0	0.0
2025-01-19 15:14:33.869450	78.6	36.0	-50.0	0.0
2025-01-19 15:14:35.018903	78.1	36.2	-48.8	0.0
2025-01-19 15:14:36.163853	77.7	36.3	-52.0	0.0
2025-01-19 15:14:37.308804	77.3	36.4	-50.5	0.0
2025-01-19 15:14:38.454770	76.9	36.5	-54.2	0.0
2025-01-19 15:14:39.602713	76.5	36.6	-53.4	0.0
2025-01-19 15:14:40.748661	76.1	36.7	-52.7	0.0
2025-01-19 15:14:41.895607	75.6	36.8	-54.9	0.0
2025-01-19 15:14:43.042552	75.2	37.0	-50.1	0.0
2025-01-19 15:14:44.192489	74.8	37.1	-49.0	0.0
2025-01-19 15:14:45.340433	74.3	37.2	-54.7	0.0
2025-01-19 15:14:46.483389	73.9	37.3	-54.7	0.0
2025-01-19 15:14:47.631333	73.4	37.4	-56.6	0.0
2025-01-19 15:14:48.783265	73.0	37.5	-53.2	0.0
2025-01-19 15:14:49.928215	72.5	37.6	-53.1	0.0
2025-01-19 15:14:51.086133	72.1	37.7	-54.0	0.0
2025-01-19 15:14:52.230085	71.6	37.8	-54.9	0.0
2025-01-19 15:14:53.375543	71.2	37.9	-56.4	0.0
2025-01-19 15:14:54.527476	70.7	38.0	-56.2	0.0
2025-01-19 15:14:55.670432	70.3	38.1	-58.4	0.0
2025-01-19 15:14:56.815383	69.8	38.2	-55.4	0.0
2025-01-19 15:14:57.959337	69.3	38.2	-57.2	0.0
2025-01-19 15:14:59.103290	68.9	38.3	-55.5	0.0
2025-01-19 15:15:00.249259	68.4	38.4	-57.0	0.0
2025-01-19 15:15:01.392215	67.9	38.5	-53.7	0.0
2025-01-19 15:15:02.537166	67.5	38.6	-55.2	0.0
2025-01-19 15:15:03.680122	67.0	38.6	-56.9	0.0
2025-01-19 15:15:04.826070	66.5	38.7	-53.8	0.0
2025-01-19 15:15:05.969026	66.0	38.8	-55.7	0.0
2025-01-19 15:15:07.113997	65.5	38.9	-53.8	0.0
2025-01-19 15:15:08.256953	65.0	38.9	-53.6	0.0
2025-01-19 15:15:09.401904	64.6	39.0	-50.8	0.0
2025-01-19 15:15:10.549847	64.1	39.1	-52.2	0.0
2025-01-19 15:15:11.694797	63.6	39.1	-50.8	0.0
2025-01-19 15:15:12.838263	63.1	39.2	-50.6	0.0
2025-01-19 15:15:13.982723	62.6	39.2	-51.9	0.0
2025-01-19 15:15:15.125679	62.1	39.3	-51.5	0.0
2025-01-19 15:15:16.267640	61.6	39.4	-52.9	0.0
2025-01-19 15:15:17.411101	61.1	39.4	-50.7	0.0
2025-01-19 15:15:18.554057	60.6	39.5	-54.5	0.0
2025-01-19 15:15:19.697013	60.1	39.5	-53.3	0.0
2025-01-19 15:15:20.843961	59.6	39.5	-54.4	0.0
2025-01-19 15:15:21.990904	59.1	39.6	-53.6	0.0
2025-01-19 15:15:23.137849	58.6	39.6	-56.5	0.0
2025-01-19 15:15:24.283797	58.1	39.7	-53.2	0.0
2025-01-19 15:15:25.425757	57.5	39.7	-50.4	0.0
2025-01-19 15:15:26.568222	57.0	39.7	-51.6	0.0
2025-01-19 15:15:27.716165	56.5	39.8	-53.7	0.0
2025-01-19 15:15:28.861115	56.0	39.8	-52.0	0.0
2025-01-19 15:15:30.002587	55.5	39.8	-54.7	0.0
2025-01-19 15:15:31.147538	55.0	39.8	-52.7	0.0
2025-01-19 15:15:32.289496	54.5	39.8	-53.6	0.0
2025-01-19 15:15:33.432453	54.0	39.9	-56.1	0.0
2025-01-19 15:15:34.575915	53.4	39.9	-56.0	0.0
2025-01-19 15:15:35.719869	52.9	39.9	-57.7	0.0
2025-01-19 15:15:36.867811	52.4	39.9	-60.0	3.8
2025-01-19 15:15:38.011765	51.9	39.9	-59.8	0.0
2025-01-19 15:15:39.155231	51.4	39.9	-53.9	0.0
2025-01-19 15:15:40.303173	50.9	39.9	-53.0	0.0
2025-01-19 15:15:41.447126	50.3	39.9	-56.3	0.0
2025-01-19 15:15:42.592096	49.8	39.9	-54.5	0.0
2025-01-19 15:15:43.737047	49.3	39.9	-52.8	0.0
2025-01-19 15:15:44.882995	48.8	39.9	-50.8	0.0
2025-01-19 15:15:46.025952	48.3	39.8	-55.8	0.0
2025-01-19 15:15:47.168907	47.8	39.8	-58.9	0.0
2025-01-19 15:15:48.312861	47.3	39.8	-56.5	0.0
2025-01-19 15:15:49.454329	46.7	39.8	-54.5	0.0
2025-01-19 15:15:50.597288	46.2	39.8	-55.4	0.0
2025-01-19 15:15:51.739244	45.7	39.7	-58.5	0.0
2025-01-19 15:15:52.883198	45.2	39.7	-60.1	2.9
2025-01-19 15:15:54.026154	44.7	39.7	-58.4	0.0
2025-01-19 15:15:55.169110	44.2	39.6	-57.3	0.0
2025-01-19 15:15:56.313064	43.7	39.6	-55.9	0.0
2025-01-19 15:15:57.455022	43.2	39.6	-57.6	0.0
2025-01-19 15:15:58.599974	42.7	39.5	-54.1	0.0
2025-01-19 15:15:59.743927	42.2	39.5	-52.0	0.0
2025-01-19 15:16:00.887881	41.7	39.4	-52.8	0.0
2025-01-19 15:16:02.031834	41.2	39.4	-53.9	0.0
2025-01-19 15:16:03.173308	40.7	39.3	-54.9	0.0
2025-01-19 15:16:04.317261	40.2	39.3	-54.7	0.0
2025-01-19 15:16:05.460217	39.7	39.2	-53.1	0.0
2025-01-19 15:16:06.603705	39.2	39.2	-54.6	0.0
2025-01-19 15:16:07.746170	38.7	39.1	-53.5	0.0
2025-01-19 15:16:08.889127	38.2	39.0	-55.6	0.0
2025-01-19 15:16:10.032082	37.7	39.0	-57.0	0.0
2025-01-19 15:16:11.176036	37.2	38.9	-56.9	0.0
2025-01-19 15:16:12.321984	36.7	38.8	-56.7	0.0
2025-01-19 15:16:13.463943	36.3	38.7	-56.9	0.0
2025-01-19 15:16:14.605902	35.8	38.7	-56.2	0.0
2025-01-19 15:16:15.748858	35.3	38.6	-56.5	0.0
2025-01-19 15:16:16.890817	34.8	38.5	-56.2	0.0
2025-01-19 15:16:18.033773	34.4	38.4	-56.3	0.0
2025-01-19 15:16:19.176729	33.9	38.4	-56.4	0.0
2025-01-19 15:16:20.320682	33.4	38.3	-56.3	0.0
2025-01-19 15:16:21.463639	33.0	38.2	-57.3	0.0
2025-01-19 15:16:22.604112	32.5	38.1	-56.9	0.0
2025-01-19 15:16:23.746581	32.0	38.0	-57.6	0.0
2025-01-19 15:16:24.888540	31.6	37.9	-57.6	0.0
2025-01-19 15:16:26.034504	31.1	37.8	-56.3	0.0
2025-01-19 15:16:27.176463	30.7	37.7	-56.6	0.0
2025-01-19 15:16:28.318422	30.2	37.6	-55.2	0.0
2025-01-19 15:16:29.462392	29.8	37.5	-54.8	0.0
2025-01-19 15:16:30.606345	29.3	37.4	-54.9	0.0
2025-01-19 15:16:31.751297	28.9	37.3	-56.6	0.0
2025-01-19 15:16:32.894761	28.4	37.2	-55.7	0.0
2025-01-19 15:16:34.036720	28.0	37.1	-56.9	0.0
2025-01-19 15:16:35.179679	27.6	37.0	-54.4	0.0
2025-01-19 15:16:36.323630	27.1	36.9	-56.9	0.0
2025-01-19 15:16:37.466586	26.7	36.8	-56.4	0.0
2025-01-19 15:16:38.612534	26.3	36.7	-55.7	0.0
2025-01-19 15:16:39.755491	25.9	36.5	-55.3	0.0
2025-01-19 15:16:40.900442	25.4	36.4	-56.8	0.0
2025-01-19 15:16:42.043397	25.0	36.3	-55.0	0.0
2025-01-19 15:16:43.195330	24.6	36.2	-54.8	0.0
2025-01-19 15:16:44.337289	24.2	36.1	-55.2	0.0
2025-01-19 15:16:45.482239	23.8	36.0	-56.4	0.0
2025-01-19 15:16:46.625196	23.4	35.8	-56.3	0.0
2025-01-19 15:16:47.784110	23.0	35.7	-55.3	0.0
2025-01-19 15:16:48.930057	22.6	35.6	-55.4	0.0
2025-01-19 15:16:50.078001	22.2	35.5	-55.7	0.0
2025-01-19 15:16:51.220957	21.8	35.3	-55.3	0.0
2025-01-19 15:16:52.370404	21.4	35.2	-54.0	0.0
2025-01-19 15:16:53.517350	21.0	35.1	-54.3	0.0
2025-01-19 15:16:54.660322	20.6	35.0	-55.4	0.0
2025-01-19 15:16:55.809262	20.3	34.8	-54.1	0.0
2025-01-19 15:16:56.954214	19.9	34.7	-55.5	0.0
2025-01-19 15:16:58.102178	19.5	34.6	-55.1	0.0
2025-01-19 15:16:59.246129	19.1	34.4	-55.1	0.0
2025-01-19 15:17:00.391588	18.8	34.3	-57.1	0.0
2025-01-19 15:17:01.538044	18.4	34.2	-56.7	0.0
2025-01-19 15:17:02.681000	18.0	34.0	-55.9	0.0
2025-01-19 15:17:03.826948	17.7	33.9	-57.3	0.0
2025-01-19 15:17:04.973894	17.3	33.8	-56.1	0.0
2025-01-19 15:17:06.117357	17.0	33.6	-57.0	0.0
2025-01-19 15:17:07.264303	16.6	33.5	-56.6	0.0
2025-01-19 15:17:08.424214	16.3	33.3	-57.0	0.0
2025-01-19 15:17:09.569165	15.9	33.2	-58.7	0.0
2025-01-19 15:17:10.717107	15.6	33.1	-56.7	0.0
2025-01-19 15:17:11.862058	15.3	32.9	-57.3	0.0
2025-01-19 15:17:13.006012	14.9	32.8	-56.7	0.0
2025-01-19 15:17:14.150980	14.6	32.6	-56.3	0.0
2025-01-19 15:17:15.296928	14.3	32.5	-57.6	0.0
2025-01-19 15:17:16.444872	13.9	32.4	-56.7	0.0
2025-01-19 15:17:17.588825	13.6	32.2	-57.7	0.0
2025-01-19 15:17:18.736767	13.3	32.1	-58.6	0.0
2025-01-19 15:17:19.887703	13.0	31.9	-58.6	0.0
2025-01-19 15:17:21.031656	12.7	31.8	-58.6	0.0
2025-01-19 15:17:22.175609	12.3	31.6	-58.6	0.0
2025-01-19 15:17:23.332528	12.0	31.5	-58.1	0.0
2025-01-19 15:17:24.482466	11.7	31.3	-59.3	0.0
2025-01-19 15:17:25.627435	11.4	31.2	-60.0	0.0
2025-01-19 15:17:26.775379	11.1	31.1	-60.1	0.0
2025-01-19 15:17:27.922324	10.8	30.9	-60.2	0.0
2025-01-19 15:17:29.070266	10.5	30.8	-58.9	0.0
2025-01-19 15:17:30.214220	10.2	30.6	-59.0	0.0
2025-01-19 15:17:31.358173	9.9	30.5	-60.9	1.5
2025-01-19 15:17:32.507113	9.7	30.3	-60.6	1.1
2025-01-19 15:17:33.657579	9.4	30.2	-59.7	0.0
2025-01-19 15:17:34.804524	9.1	30.0	-63.0	1.3
#Closed at: 2025-01-19 15:13:38.476838