passes_logs/2025/01/19/Planum_Noyabrsk/Planum_Noyabrsk__20250119_065612_NOAA_18_rec.log

#Pass ID: 20250119_065612_NOAA 18
#Satellite: NOAA 18
#Configuration: NOAA 18
#Start time: 2025-01-19 06:56:17.621910

#LorettStation: 1.0.0 05.05.2024
#Station: Planum_Noyabrsk
#Location: 75.446886 lon 63.207202 lat
#TLE: 1 28654U 05018A   25018.41896649  .00000393  00000+0  23205-3 0  9991
#TLE: 2 28654  98.8560  99.4394 0014513 169.6343 190.5131 14.13489610 13660

#Time	Az	El	Level	SNR
2025-01-19 06:56:23.827847	19.4	31.2	-52.6	0.0
2025-01-19 06:56:24.970803	19.4	31.4	-50.5	0.0
2025-01-19 06:56:26.117747	19.4	31.6	-49.9	0.0
2025-01-19 06:56:27.261211	19.4	31.9	-53.9	0.0
2025-01-19 06:56:28.400688	19.4	32.1	-54.9	0.0
2025-01-19 06:56:29.543640	19.4	32.3	-50.8	0.0
2025-01-19 06:56:30.683604	19.3	32.6	-50.5	0.0
2025-01-19 06:56:31.826560	19.3	32.8	-56.4	0.0
2025-01-19 06:56:32.969515	19.3	33.0	-51.3	0.0
2025-01-19 06:56:34.110476	19.3	33.3	-53.1	0.0
2025-01-19 06:56:35.253938	19.3	33.5	-53.5	0.0
2025-01-19 06:56:36.396893	19.3	33.7	-58.6	0.0
2025-01-19 06:56:37.538851	19.2	34.0	-51.8	0.0
2025-01-19 06:56:38.678324	19.2	34.2	-52.1	0.0
2025-01-19 06:56:39.821280	19.2	34.5	-53.6	0.0
2025-01-19 06:56:40.962241	19.2	34.7	-52.6	0.0
2025-01-19 06:56:42.106709	19.2	35.0	-53.1	0.0
2025-01-19 06:56:43.251659	19.2	35.2	-54.7	0.0
2025-01-19 06:56:44.397607	19.1	35.5	-54.3	0.0
2025-01-19 06:56:45.538081	19.1	35.7	-54.1	0.0
2025-01-19 06:56:46.680547	19.1	36.0	-53.2	0.0
2025-01-19 06:56:47.827001	19.1	36.3	-54.2	0.0
2025-01-19 06:56:48.969977	19.1	36.5	-53.3	0.0
2025-01-19 06:56:50.111935	19.1	36.8	-56.7	0.0
2025-01-19 06:56:51.252896	19.0	37.1	-55.9	0.0
2025-01-19 06:56:52.396361	19.0	37.3	-54.8	0.0
2025-01-19 06:56:53.537321	19.0	37.6	-55.6	0.0
2025-01-19 06:56:54.680277	19.0	37.9	-55.8	0.0
2025-01-19 06:56:55.822744	19.0	38.2	-56.3	0.0
2025-01-19 06:56:56.963704	18.9	38.4	-54.4	0.0
2025-01-19 06:56:58.106660	18.9	38.7	-56.7	0.0
2025-01-19 06:56:59.249652	18.9	39.0	-55.0	0.0
2025-01-19 06:57:00.396560	18.9	39.3	-57.4	0.0
2025-01-19 06:57:01.538519	18.8	39.6	-56.9	0.0
2025-01-19 06:57:02.680985	18.8	39.9	-57.6	0.0
2025-01-19 06:57:03.824938	18.8	40.2	-57.8	0.0
2025-01-19 06:57:04.965897	18.8	40.5	-58.1	0.0
2025-01-19 06:57:06.110848	18.7	40.8	-58.0	0.0
2025-01-19 06:57:07.257793	18.7	41.1	-58.5	0.0
2025-01-19 06:57:08.399751	18.7	41.4	-58.2	0.0
2025-01-19 06:57:09.542224	18.7	41.7	-59.4	0.0
2025-01-19 06:57:10.682188	18.6	42.0	-59.0	0.2
2025-01-19 06:57:11.825649	18.6	42.3	-59.5	1.3
2025-01-19 06:57:12.967117	18.6	42.6	-58.6	0.0
2025-01-19 06:57:14.110073	18.5	42.9	-61.8	5.4
2025-01-19 06:57:15.250546	18.5	43.2	-61.8	4.4
2025-01-19 06:57:16.394523	18.5	43.6	-61.4	6.2
2025-01-19 06:57:17.537478	18.4	43.9	-60.0	1.6
2025-01-19 06:57:18.679437	18.4	44.2	-60.1	3.5
2025-01-19 06:57:19.823390	18.4	44.5	-60.4	2.1
2025-01-19 06:57:20.966345	18.3	44.9	-61.0	4.8
2025-01-19 06:57:22.108307	18.3	45.2	-60.4	3.1
2025-01-19 06:57:23.250262	18.3	45.5	-60.8	3.0
2025-01-19 06:57:24.396718	18.2	45.9	-61.3	4.3
2025-01-19 06:57:25.541669	18.2	46.2	-62.3	6.3
2025-01-19 06:57:26.683135	18.2	46.6	-61.3	4.2
2025-01-19 06:57:27.826091	18.1	46.9	-61.2	4.9
2025-01-19 06:57:28.969047	18.1	47.3	-61.2	4.0
2025-01-19 06:57:30.110007	18.0	47.6	-61.4	4.1
2025-01-19 06:57:31.249971	18.0	48.0	-61.7	5.0
2025-01-19 06:57:32.391929	18.0	48.4	-61.3	2.7
2025-01-19 06:57:33.533399	17.9	48.7	-61.7	3.8
2025-01-19 06:57:34.678349	17.9	49.1	-62.2	5.1
2025-01-19 06:57:35.823300	17.8	49.5	-61.2	3.4
2025-01-19 06:57:36.968250	17.8	49.8	-62.3	4.5
2025-01-19 06:57:38.109211	17.7	50.2	-62.7	4.7
2025-01-19 06:57:39.251169	17.7	50.6	-63.2	4.8
2025-01-19 06:57:40.391642	17.6	51.0	-63.8	5.4
2025-01-19 06:57:41.533600	17.6	51.4	-65.3	5.0
2025-01-19 06:57:42.675558	17.5	51.8	-63.0	2.3
2025-01-19 06:57:43.817026	17.4	52.1	-64.2	4.1
2025-01-19 06:57:44.959982	17.4	52.5	-62.3	1.7
2025-01-19 06:57:46.100942	17.3	52.9	-64.4	5.3
2025-01-19 06:57:47.242410	17.3	53.3	-63.3	4.6
2025-01-19 06:57:48.384368	17.2	53.7	-62.7	4.0
2025-01-19 06:57:49.526326	17.1	54.2	-61.3	1.3
2025-01-19 06:57:50.670279	17.1	54.6	-62.7	2.6
2025-01-19 06:57:51.810242	17.0	55.0	-61.5	1.8
2025-01-19 06:57:52.953198	16.9	55.4	-61.1	0.8
2025-01-19 06:57:54.097663	16.8	55.8	-61.0	1.4
2025-01-19 06:57:55.238624	16.8	56.2	-61.2	1.8
2025-01-19 06:57:56.380582	16.7	56.7	-61.6	1.8
2025-01-19 06:57:57.524535	16.6	57.1	-61.9	3.6
2025-01-19 06:57:58.666004	16.5	57.5	-64.0	5.9
2025-01-19 06:57:59.807962	16.4	58.0	-64.2	5.3
2025-01-19 06:58:00.947926	16.3	58.4	-62.7	4.2
2025-01-19 06:58:02.093385	16.2	58.9	-62.4	4.6
2025-01-19 06:58:03.234853	16.1	59.3	-61.4	4.1
2025-01-19 06:58:04.376811	16.0	59.8	-61.5	6.0
2025-01-19 06:58:05.520764	15.9	60.2	-62.7	7.6
2025-01-19 06:58:06.662723	15.8	60.7	-61.2	4.0
2025-01-19 06:58:07.804681	15.7	61.1	-60.1	4.1
2025-01-19 06:58:08.947636	15.6	61.6	-63.4	9.7
2025-01-19 06:58:10.089594	15.4	62.1	-59.4	4.7
2025-01-19 06:58:11.230556	15.3	62.5	-58.9	2.4
2025-01-19 06:58:12.373511	15.2	63.0	-62.1	9.9
2025-01-19 06:58:13.515469	15.0	63.5	-61.5	8.7
2025-01-19 06:58:14.656430	14.9	64.0	-59.8	4.1
2025-01-19 06:58:15.797901	14.7	64.4	-60.9	5.3
2025-01-19 06:58:16.942851	14.6	64.9	-62.6	9.9
2025-01-19 06:58:18.084809	14.4	65.4	-62.7	8.2
2025-01-19 06:58:19.233749	14.2	65.9	-60.5	3.1
2025-01-19 06:58:20.374709	14.1	66.4	-61.2	5.6
2025-01-19 06:58:21.516668	13.9	66.9	-64.3	4.7
2025-01-19 06:58:22.658626	13.7	67.4	-60.3	4.6
2025-01-19 06:58:23.803577	13.5	67.9	-63.7	8.6
2025-01-19 06:58:24.944537	13.2	68.4	-63.4	7.3
2025-01-19 06:58:26.087001	13.0	68.9	-62.4	7.8
2025-01-19 06:58:27.229467	12.7	69.4	-64.1	8.9
2025-01-19 06:58:28.372423	12.5	69.9	-61.9	7.0
2025-01-19 06:58:29.518877	12.2	70.5	-61.7	7.4
2025-01-19 06:58:30.663827	11.9	71.0	-61.0	3.0
2025-01-19 06:58:31.804788	11.6	71.5	-62.8	7.5
2025-01-19 06:58:32.946746	11.3	72.0	-64.2	5.7
2025-01-19 06:58:34.087707	10.9	72.5	-64.4	5.6
2025-01-19 06:58:35.228668	10.6	73.1	-65.3	5.6
2025-01-19 06:58:36.370626	10.2	73.6	-64.3	5.3
2025-01-19 06:58:37.519567	9.7	74.1	-64.5	6.2
2025-01-19 06:58:38.662541	9.3	74.6	-65.8	7.0
2025-01-19 06:58:39.806493	8.8	75.2	-64.9	5.5
2025-01-19 06:58:40.947454	8.3	75.7	-66.1	5.6
2025-01-19 06:58:42.088924	7.7	76.2	-64.4	1.9
2025-01-19 06:58:43.231390	7.1	76.8	-63.1	0.0
2025-01-19 06:58:44.372351	6.4	77.3	-64.9	0.8
2025-01-19 06:58:45.515307	5.7	77.8	-64.4	1.6
2025-01-19 06:58:46.656774	4.9	78.4	-63.6	0.0
2025-01-19 06:58:47.798749	4.0	78.9	-66.1	4.7
2025-01-19 06:58:48.940707	3.0	79.4	-64.7	5.6
2025-01-19 06:58:50.083663	1.9	80.0	-65.9	4.7
2025-01-19 06:58:51.224623	0.7	80.5	-64.9	1.5
2025-01-19 06:58:52.367088	359.4	81.0	-65.0	0.5
2025-01-19 06:58:53.509046	357.8	81.5	-65.3	4.5
2025-01-19 06:58:54.651005	356.1	82.0	-64.2	4.2
2025-01-19 06:58:55.793470	354.2	82.5	-63.9	3.3
2025-01-19 06:58:56.934937	351.9	83.0	-63.2	3.5
2025-01-19 06:58:58.077893	349.4	83.5	-63.8	3.4
2025-01-19 06:58:59.219851	346.4	84.0	-64.9	4.9
2025-01-19 06:59:00.361319	342.9	84.4	-65.2	3.7
2025-01-19 06:59:01.503276	338.8	84.9	-62.3	1.1
2025-01-19 06:59:02.645234	334.0	85.3	-63.7	2.5
2025-01-19 06:59:03.785705	328.3	85.6	-63.2	0.4
2025-01-19 06:59:04.928661	321.7	85.9	-63.9	2.8
2025-01-19 06:59:06.069621	314.1	86.2	-65.0	5.2
2025-01-19 06:59:07.211580	305.6	86.4	-64.9	4.8
2025-01-19 06:59:08.352541	296.5	86.4	-64.7	4.4
2025-01-19 06:59:09.496494	287.2	86.4	-65.9	7.1
2025-01-19 06:59:10.639468	278.1	86.3	-64.9	5.4
2025-01-19 06:59:11.781426	269.8	86.2	-65.2	8.1
2025-01-19 06:59:12.922895	262.3	85.9	-65.4	8.0
2025-01-19 06:59:14.064854	255.8	85.6	-65.2	7.5
2025-01-19 06:59:15.205814	250.3	85.2	-65.6	9.4
2025-01-19 06:59:16.346775	245.5	84.8	-64.7	6.4
2025-01-19 06:59:17.490237	241.5	84.4	-65.6	3.9
2025-01-19 06:59:18.634193	238.1	83.9	-65.7	5.8
2025-01-19 06:59:19.774153	235.2	83.5	-64.5	5.0
2025-01-19 06:59:20.916617	232.6	83.0	-63.9	1.4
2025-01-19 06:59:22.058575	230.4	82.5	-65.5	5.4
2025-01-19 06:59:23.201531	228.5	82.0	-65.7	7.3
2025-01-19 06:59:24.342998	226.8	81.4	-65.5	5.2
2025-01-19 06:59:25.484956	225.4	80.9	-65.6	4.6
2025-01-19 06:59:26.624919	224.0	80.4	-65.0	0.0
2025-01-19 06:59:27.765395	222.9	79.9	-65.0	2.4
2025-01-19 06:59:28.908351	221.8	79.3	-65.4	2.6
2025-01-19 06:59:30.048314	220.8	78.8	-67.1	4.8
2025-01-19 06:59:31.190779	220.0	78.3	-66.7	3.5
2025-01-19 06:59:32.334732	219.2	77.7	-67.2	5.5
2025-01-19 06:59:33.477692	218.4	77.2	-66.1	5.0
2025-01-19 06:59:34.620643	217.8	76.7	-66.7	6.8
2025-01-19 06:59:35.762602	217.1	76.1	-67.3	7.3
2025-01-19 06:59:36.907553	216.6	75.6	-67.4	6.3
2025-01-19 06:59:38.048512	216.1	75.1	-68.1	6.4
2025-01-19 06:59:39.192465	215.6	74.5	-67.3	7.0
2025-01-19 06:59:40.333427	215.1	74.0	-67.4	0.0
2025-01-19 06:59:41.474894	214.7	73.5	-65.0	0.0
2025-01-19 06:59:42.616853	214.3	73.0	-68.0	4.9
2025-01-19 06:59:43.757813	213.9	72.4	-65.4	0.0
2025-01-19 06:59:44.898774	213.6	71.9	-67.5	2.0
2025-01-19 06:59:46.040733	213.3	71.4	-65.2	0.0
2025-01-19 06:59:47.181693	213.0	70.9	-67.9	4.7
2025-01-19 06:59:48.323652	212.7	70.4	-66.3	1.9
2025-01-19 06:59:49.467605	212.4	69.8	-64.9	0.5
2025-01-19 06:59:50.611558	212.1	69.3	-67.1	6.0
2025-01-19 06:59:51.753028	211.9	68.8	-66.2	4.5
2025-01-19 06:59:52.893988	211.7	68.3	-63.9	0.0
2025-01-19 06:59:54.035459	211.4	67.8	-66.3	4.6
2025-01-19 06:59:55.176436	211.2	67.3	-65.7	3.6
2025-01-19 06:59:56.319391	211.0	66.8	-66.6	8.1
2025-01-19 06:59:57.461350	210.8	66.3	-68.1	9.0
2025-01-19 06:59:58.605303	210.6	65.8	-65.3	5.0
2025-01-19 06:59:59.750253	210.5	65.3	-66.7	9.3
2025-01-19 07:00:00.891215	210.3	64.8	-66.9	9.8
2025-01-19 07:00:02.031686	210.2	64.3	-67.3	8.9
2025-01-19 07:00:03.176637	210.0	63.8	-65.4	9.1
2025-01-19 07:00:04.317597	209.9	63.4	-66.7	10.4
2025-01-19 07:00:05.461550	209.7	62.9	-66.7	10.8
2025-01-19 07:00:06.602511	209.6	62.4	-65.8	6.8
2025-01-19 07:00:07.744469	209.5	61.9	-66.5	9.4
2025-01-19 07:00:08.884942	209.3	61.5	-66.8	9.9
2025-01-19 07:00:10.026900	209.2	61.0	-66.3	7.9
2025-01-19 07:00:11.168858	209.1	60.6	-65.1	5.8
2025-01-19 07:00:12.309819	209.0	60.1	-66.8	7.4
2025-01-19 07:00:13.456278	208.9	59.6	-66.7	5.2
2025-01-19 07:00:14.602230	208.8	59.2	-65.7	3.5
2025-01-19 07:00:15.743693	208.7	58.7	-67.0	7.2
2025-01-19 07:00:16.884655	208.6	58.3	-67.0	7.4
2025-01-19 07:00:18.029604	208.5	57.8	-66.4	6.1
2025-01-19 07:00:19.172069	208.4	57.4	-66.4	6.3
2025-01-19 07:00:20.316021	208.3	57.0	-66.5	7.6
2025-01-19 07:00:21.457979	208.2	56.5	-67.1	8.2
2025-01-19 07:00:22.598940	208.1	56.1	-66.5	7.4
2025-01-19 07:00:23.739412	208.1	55.7	-66.1	8.3
2025-01-19 07:00:24.880373	208.0	55.3	-67.1	9.9
2025-01-19 07:00:26.022331	207.9	54.8	-66.2	8.3
2025-01-19 07:00:27.164289	207.8	54.4	-66.7	9.6
2025-01-19 07:00:28.306248	207.8	54.0	-66.1	9.4
2025-01-19 07:00:29.447717	207.7	53.6	-66.0	10.1
2025-01-19 07:00:30.597655	207.6	53.2	-66.3	10.8
2025-01-19 07:00:31.739612	207.6	52.8	-66.6	10.3
2025-01-19 07:00:32.881571	207.5	52.4	-66.0	9.1
2025-01-19 07:00:34.024526	207.5	52.0	-66.0	9.5
2025-01-19 07:00:35.166484	207.4	51.6	-66.1	11.3
2025-01-19 07:00:36.307952	207.3	51.2	-66.0	11.2
2025-01-19 07:00:37.450907	207.3	50.8	-65.8	10.1
2025-01-19 07:00:38.593862	207.2	50.4	-66.3	11.4
2025-01-19 07:00:39.736818	207.2	50.0	-66.3	10.8
2025-01-19 07:00:40.883763	207.1	49.7	-66.6	11.1
2025-01-19 07:00:42.024724	207.1	49.3	-66.4	10.8
2025-01-19 07:00:43.166191	207.0	48.9	-66.2	11.2
2025-01-19 07:00:44.309147	207.0	48.5	-65.9	8.5
2025-01-19 07:00:45.449115	206.9	48.2	-66.6	12.1
2025-01-19 07:00:46.590577	206.9	47.8	-65.7	10.2
2025-01-19 07:00:47.731538	206.9	47.5	-66.2	10.5
2025-01-19 07:00:48.876491	206.8	47.1	-66.9	12.6
2025-01-19 07:00:50.017449	206.8	46.7	-67.1	13.6
2025-01-19 07:00:51.160405	206.7	46.4	-66.7	13.3
2025-01-19 07:00:52.301366	206.7	46.0	-66.3	13.4
2025-01-19 07:00:53.443325	206.7	45.7	-65.2	10.3
2025-01-19 07:00:54.584286	206.6	45.4	-66.4	12.7
2025-01-19 07:00:55.727241	206.6	45.0	-66.4	13.5
2025-01-19 07:00:56.868202	206.5	44.7	-66.7	13.2
2025-01-19 07:00:58.009669	206.5	44.3	-66.1	12.0
2025-01-19 07:00:59.151627	206.5	44.0	-66.7	12.7
2025-01-19 07:01:00.293586	206.4	43.7	-66.4	13.3
2025-01-19 07:01:01.435563	206.4	43.4	-66.5	11.0
2025-01-19 07:01:02.577521	206.4	43.0	-67.2	12.9
2025-01-19 07:01:03.720478	206.4	42.7	-66.6	12.9
2025-01-19 07:01:04.867422	206.3	42.4	-66.7	11.4
2025-01-19 07:01:06.009380	206.3	42.1	-66.1	9.9
2025-01-19 07:01:07.153333	206.3	41.8	-67.6	13.8
2025-01-19 07:01:08.295292	206.2	41.5	-66.3	8.6
2025-01-19 07:01:09.439244	206.2	41.2	-67.2	11.2
2025-01-19 07:01:10.581203	206.2	40.9	-67.3	11.8
2025-01-19 07:01:11.723161	206.2	40.5	-66.1	9.7
2025-01-19 07:01:12.864121	206.1	40.3	-66.7	10.3
2025-01-19 07:01:14.007077	206.1	40.0	-66.6	10.7
2025-01-19 07:01:15.148038	206.1	39.7	-66.6	9.5
2025-01-19 07:01:16.291992	206.0	39.4	-65.8	9.3
2025-01-19 07:01:17.434456	206.0	39.1	-66.2	8.2
2025-01-19 07:01:18.577411	206.0	38.8	-67.2	11.5
2025-01-19 07:01:19.724356	206.0	38.5	-66.4	8.6
2025-01-19 07:01:20.865317	206.0	38.2	-66.3	8.0
2025-01-19 07:01:22.006786	205.9	37.9	-67.3	10.7
2025-01-19 07:01:23.148744	205.9	37.7	-65.9	8.2
2025-01-19 07:01:24.290212	205.9	37.4	-65.9	8.3
2025-01-19 07:01:25.431173	205.9	37.1	-66.2	8.2
2025-01-19 07:01:26.577120	205.9	36.8	-65.6	7.9
2025-01-19 07:01:27.718083	205.8	36.6	-66.4	10.0
2025-01-19 07:01:28.860040	205.8	36.3	-65.3	7.6
2025-01-19 07:01:30.001998	205.8	36.0	-66.3	10.4
2025-01-19 07:01:31.147947	205.8	35.8	-66.3	9.5
2025-01-19 07:01:32.290409	205.8	35.5	-66.0	9.4
2025-01-19 07:01:33.431370	205.7	35.3	-66.1	8.7
2025-01-19 07:01:34.571334	205.7	35.0	-67.3	10.4
2025-01-19 07:01:35.713801	205.7	34.7	-66.2	9.0
2025-01-19 07:01:36.855759	205.7	34.5	-66.5	10.2
2025-01-19 07:01:37.997227	205.7	34.2	-66.9	10.2
2025-01-19 07:01:39.142176	205.7	34.0	-66.9	10.4
2025-01-19 07:01:40.284134	205.6	33.7	-66.8	11.1
2025-01-19 07:01:41.427090	205.6	33.5	-66.2	10.3
2025-01-19 07:01:42.567069	205.6	33.3	-67.1	11.3
2025-01-19 07:01:43.709027	205.6	33.0	-66.8	10.6
2025-01-19 07:01:44.849988	205.6	32.8	-66.3	8.3
2025-01-19 07:01:45.997442	205.6	32.5	-66.3	9.6
2025-01-19 07:01:47.139400	205.5	32.3	-65.9	8.9
2025-01-19 07:01:48.281358	205.5	32.1	-66.3	9.9
2025-01-19 07:01:49.424821	205.5	31.8	-66.6	9.3
2025-01-19 07:01:50.566780	205.5	31.6	-67.3	11.8
2025-01-19 07:01:51.709735	205.5	31.4	-66.3	9.6
2025-01-19 07:01:52.852205	205.5	31.2	-67.0	9.1
2025-01-19 07:01:53.992168	205.5	30.9	-66.3	9.6
2025-01-19 07:01:55.135123	205.4	30.7	-67.0	10.5
2025-01-19 07:01:56.275596	205.4	30.5	-66.3	9.0
2025-01-19 07:01:57.418551	205.4	30.3	-67.0	10.1
2025-01-19 07:01:58.560510	205.4	30.1	-68.6	11.4
#Closed at: 2025-01-19 06:56:12.624688