passes_logs/2025/01/19/Planum_Noyabrsk/Planum_Noyabrsk__20250119_165314_NOAA_18_rec.log

#Pass ID: 20250119_165314_NOAA 18
#Satellite: NOAA 18
#Configuration: NOAA 18
#Start time: 2025-01-19 16:53:19.427011

#LorettStation: 1.0.0 05.05.2024
#Station: Planum_Noyabrsk
#Location: 75.446886 lon 63.207202 lat
#TLE: 1 28654U 05018A   25018.41896649  .00000393  00000+0  23205-3 0  9991
#TLE: 2 28654  98.8560  99.4394 0014513 169.6343 190.5131 14.13489610 13660

#Time	Az	El	Level	SNR
2025-01-19 16:53:27.637872	178.2	31.5	-66.0	10.0
2025-01-19 16:53:28.778834	178.3	31.7	-66.6	11.5
2025-01-19 16:53:29.920792	178.4	32.0	-66.4	11.2
2025-01-19 16:53:31.064746	178.6	32.2	-66.5	11.7
2025-01-19 16:53:32.206704	178.7	32.4	-66.2	10.0
2025-01-19 16:53:33.352652	178.8	32.6	-65.7	10.1
2025-01-19 16:53:34.496605	178.9	32.8	-66.2	10.1
2025-01-19 16:53:35.642554	179.0	33.1	-65.5	8.6
2025-01-19 16:53:36.782030	179.1	33.3	-66.4	10.8
2025-01-19 16:53:37.923989	179.3	33.5	-65.8	9.0
2025-01-19 16:53:39.065948	179.4	33.8	-66.4	8.3
2025-01-19 16:53:40.207415	179.5	34.0	-65.3	8.1
2025-01-19 16:53:41.348376	179.6	34.2	-67.0	9.7
2025-01-19 16:53:42.490334	179.8	34.5	-66.4	9.7
2025-01-19 16:53:43.631802	179.9	34.7	-66.1	7.2
2025-01-19 16:53:44.773761	180.0	34.9	-65.4	11.2
2025-01-19 16:53:45.916717	180.2	35.2	-65.4	6.8
2025-01-19 16:53:47.056190	180.3	35.4	-66.8	10.2
2025-01-19 16:53:48.197151	180.4	35.7	-67.5	10.8
2025-01-19 16:53:49.339109	180.6	35.9	-66.1	9.8
2025-01-19 16:53:50.479580	180.7	36.2	-66.1	9.5
2025-01-19 16:53:51.621538	180.9	36.4	-65.9	8.3
2025-01-19 16:53:52.761013	181.0	36.7	-64.6	7.1
2025-01-19 16:53:53.903479	181.2	36.9	-66.4	9.3
2025-01-19 16:53:55.044439	181.3	37.2	-67.0	11.4
2025-01-19 16:53:56.188392	181.5	37.4	-65.5	8.3
2025-01-19 16:53:57.330351	181.6	37.7	-65.6	9.4
2025-01-19 16:53:58.474305	181.8	37.9	-66.0	9.2
2025-01-19 16:53:59.616263	182.0	38.2	-65.4	6.7
2025-01-19 16:54:00.758221	182.1	38.5	-66.5	12.0
2025-01-19 16:54:01.899183	182.3	38.7	-66.6	12.0
2025-01-19 16:54:03.041141	182.5	39.0	-65.5	9.1
2025-01-19 16:54:04.183099	182.6	39.3	-64.9	9.4
2025-01-19 16:54:05.324061	182.8	39.5	-64.6	7.9
2025-01-19 16:54:06.465022	183.0	39.8	-64.6	7.8
2025-01-19 16:54:07.611971	183.2	40.1	-65.0	9.1
2025-01-19 16:54:08.752438	183.3	40.3	-65.0	9.5
2025-01-19 16:54:09.895393	183.5	40.6	-64.3	8.1
2025-01-19 16:54:11.036354	183.7	40.9	-65.2	8.8
2025-01-19 16:54:12.178819	183.9	41.2	-64.7	7.9
2025-01-19 16:54:13.320777	184.1	41.5	-65.6	9.9
2025-01-19 16:54:14.462243	184.3	41.7	-64.6	7.3
2025-01-19 16:54:15.604710	184.5	42.0	-64.6	9.5
2025-01-19 16:54:16.745670	184.7	42.3	-64.3	9.4
2025-01-19 16:54:17.886632	184.9	42.6	-64.4	9.2
2025-01-19 16:54:19.031092	185.1	42.9	-64.6	8.8
2025-01-19 16:54:20.173050	185.3	43.2	-64.9	9.3
2025-01-19 16:54:21.315008	185.6	43.5	-64.9	9.4
2025-01-19 16:54:22.456478	185.8	43.8	-64.9	9.7
2025-01-19 16:54:23.596441	186.0	44.1	-65.2	9.7
2025-01-19 16:54:24.740395	186.3	44.4	-65.3	9.2
2025-01-19 16:54:25.881356	186.5	44.7	-65.0	9.0
2025-01-19 16:54:27.022317	186.7	45.0	-65.0	8.3
2025-01-19 16:54:28.164276	187.0	45.3	-65.2	10.1
2025-01-19 16:54:29.305745	187.2	45.6	-65.6	9.2
2025-01-19 16:54:30.448701	187.5	45.9	-65.3	8.9
2025-01-19 16:54:31.590660	187.8	46.2	-65.7	9.4
2025-01-19 16:54:32.733617	188.0	46.5	-66.1	10.0
2025-01-19 16:54:33.875575	188.3	46.9	-66.2	9.2
2025-01-19 16:54:35.017534	188.6	47.2	-65.4	7.6
2025-01-19 16:54:36.158010	188.9	47.5	-65.9	8.6
2025-01-19 16:54:37.299482	189.1	47.8	-65.5	8.5
2025-01-19 16:54:38.440443	189.4	48.1	-66.3	10.7
2025-01-19 16:54:39.583908	189.7	48.5	-66.4	9.8
2025-01-19 16:54:40.724869	190.0	48.8	-66.2	10.1
2025-01-19 16:54:41.867825	190.4	49.1	-66.2	10.8
2025-01-19 16:54:43.007789	190.7	49.4	-65.6	9.8
2025-01-19 16:54:44.148751	191.0	49.8	-66.0	10.7
2025-01-19 16:54:45.289712	191.3	50.1	-66.5	11.3
2025-01-19 16:54:46.433176	191.7	50.4	-66.2	10.9
2025-01-19 16:54:47.575135	192.0	50.8	-66.0	10.7
2025-01-19 16:54:48.726069	192.4	51.1	-66.1	11.1
2025-01-19 16:54:49.866033	192.8	51.4	-66.1	11.0
2025-01-19 16:54:51.012978	193.1	51.8	-65.5	10.5
2025-01-19 16:54:52.154941	193.5	52.1	-66.2	11.0
2025-01-19 16:54:53.295898	193.9	52.4	-65.8	10.8
2025-01-19 16:54:54.436859	194.3	52.8	-66.4	11.5
2025-01-19 16:54:55.578818	194.7	53.1	-66.2	10.6
2025-01-19 16:54:56.720286	195.1	53.5	-66.2	10.2
2025-01-19 16:54:57.867232	195.6	53.8	-65.7	10.0
2025-01-19 16:54:59.008193	196.0	54.2	-66.2	10.7
2025-01-19 16:55:00.149155	196.4	54.5	-66.6	11.5
2025-01-19 16:55:01.291113	196.9	54.8	-65.6	10.8
2025-01-19 16:55:02.432074	197.4	55.2	-65.7	11.7
2025-01-19 16:55:03.573035	197.8	55.5	-65.2	9.9
2025-01-19 16:55:04.716989	198.3	55.9	-65.2	11.4
2025-01-19 16:55:05.857950	198.8	56.2	-64.6	10.6
2025-01-19 16:55:07.000906	199.4	56.6	-64.6	10.7
2025-01-19 16:55:08.142864	199.9	56.9	-64.7	9.6
2025-01-19 16:55:09.286818	200.4	57.3	-65.1	10.3
2025-01-19 16:55:10.428776	201.0	57.6	-64.8	10.2
2025-01-19 16:55:11.570244	201.6	57.9	-65.0	8.8
2025-01-19 16:55:12.715195	202.2	58.3	-64.5	7.3
2025-01-19 16:55:13.858150	202.8	58.6	-64.6	6.4
2025-01-19 16:55:14.999619	203.4	59.0	-64.8	8.5
2025-01-19 16:55:16.141578	204.0	59.3	-63.9	5.2
2025-01-19 16:55:17.282539	204.7	59.6	-64.8	9.1
2025-01-19 16:55:18.424498	205.3	60.0	-64.1	6.4
2025-01-19 16:55:19.565459	206.0	60.3	-64.4	8.3
2025-01-19 16:55:20.707418	206.7	60.7	-63.8	4.1
2025-01-19 16:55:21.847889	207.4	61.0	-64.3	7.2
2025-01-19 16:55:22.989847	208.2	61.3	-63.8	7.7
2025-01-19 16:55:24.130808	208.9	61.6	-63.8	9.0
2025-01-19 16:55:25.272277	209.7	62.0	-63.1	8.6
2025-01-19 16:55:26.413238	210.5	62.3	-63.1	6.9
2025-01-19 16:55:27.554705	211.3	62.6	-62.9	9.0
2025-01-19 16:55:28.696174	212.2	62.9	-63.9	9.8
2025-01-19 16:55:29.838132	213.0	63.2	-62.6	7.2
2025-01-19 16:55:30.979094	213.9	63.5	-62.4	7.0
2025-01-19 16:55:32.120563	214.8	63.8	-63.3	8.8
2025-01-19 16:55:33.261524	215.8	64.1	-62.3	6.6
2025-01-19 16:55:34.402486	216.7	64.4	-63.3	9.7
2025-01-19 16:55:35.544446	217.7	64.7	-63.4	10.8
2025-01-19 16:55:36.685911	218.7	65.0	-63.7	11.7
2025-01-19 16:55:37.829865	219.8	65.3	-61.4	8.3
2025-01-19 16:55:38.970334	220.8	65.5	-62.7	9.2
2025-01-19 16:55:40.112293	221.9	65.8	-64.6	13.8
2025-01-19 16:55:41.255249	223.0	66.0	-63.5	9.1
2025-01-19 16:55:42.398205	224.1	66.3	-62.2	7.1
2025-01-19 16:55:43.540163	225.3	66.5	-62.8	8.2
2025-01-19 16:55:44.682122	226.5	66.7	-62.9	8.4
2025-01-19 16:55:45.824081	227.7	67.0	-64.1	10.0
2025-01-19 16:55:46.965042	228.9	67.2	-64.3	10.8
2025-01-19 16:55:48.108996	230.2	67.4	-64.3	10.7
2025-01-19 16:55:49.251463	231.5	67.6	-64.0	10.9
2025-01-19 16:55:50.393421	232.8	67.8	-64.2	12.6
2025-01-19 16:55:51.535379	234.1	67.9	-64.1	11.7
2025-01-19 16:55:52.676341	235.5	68.1	-64.4	11.3
2025-01-19 16:55:53.819313	236.8	68.2	-64.3	14.0
2025-01-19 16:55:54.962270	238.2	68.4	-63.5	12.6
2025-01-19 16:55:56.103231	239.6	68.5	-64.0	11.4
2025-01-19 16:55:57.247184	241.1	68.6	-62.9	10.5
2025-01-19 16:55:58.390139	242.5	68.7	-64.5	11.8
2025-01-19 16:55:59.534094	244.0	68.8	-64.2	10.9
2025-01-19 16:56:00.678046	245.5	68.9	-64.1	10.6
2025-01-19 16:56:01.821002	246.9	69.0	-61.8	5.9
2025-01-19 16:56:02.967478	248.4	69.0	-63.7	9.1
2025-01-19 16:56:04.111431	250.0	69.1	-63.1	9.0
2025-01-19 16:56:05.253389	251.5	69.1	-61.7	6.9
2025-01-19 16:56:06.395348	253.0	69.1	-63.7	11.0
2025-01-19 16:56:07.537306	254.5	69.1	-63.4	9.4
2025-01-19 16:56:08.682257	256.0	69.1	-62.7	6.3
2025-01-19 16:56:09.823732	257.5	69.1	-61.2	8.6
2025-01-19 16:56:10.966687	259.0	69.0	-61.5	5.4
2025-01-19 16:56:12.110149	260.5	69.0	-64.0	9.1
2025-01-19 16:56:13.254608	262.0	68.9	-60.2	6.2
2025-01-19 16:56:14.395569	263.4	68.8	-62.5	4.8
2025-01-19 16:56:15.537527	264.9	68.7	-63.0	10.9
2025-01-19 16:56:16.678998	266.3	68.6	-62.5	8.3
2025-01-19 16:56:17.821954	267.8	68.5	-62.9	9.1
2025-01-19 16:56:18.964910	269.2	68.4	-63.0	7.2
2025-01-19 16:56:20.107374	270.6	68.2	-63.0	10.0
2025-01-19 16:56:21.249333	272.0	68.1	-62.6	9.7
2025-01-19 16:56:22.391292	273.3	67.9	-64.5	10.5
2025-01-19 16:56:23.533250	274.6	67.7	-63.3	12.6
2025-01-19 16:56:24.676207	275.9	67.6	-63.8	10.7
2025-01-19 16:56:25.821157	277.2	67.4	-63.9	12.2
2025-01-19 16:56:26.963133	278.5	67.2	-62.4	10.4
2025-01-19 16:56:28.107087	279.7	67.0	-62.6	9.6
2025-01-19 16:56:29.249047	280.9	66.7	-60.6	5.0
2025-01-19 16:56:30.391020	282.1	66.5	-63.4	10.9
2025-01-19 16:56:31.532978	283.3	66.3	-61.4	9.3
2025-01-19 16:56:32.675934	284.4	66.0	-62.3	11.1
2025-01-19 16:56:33.816896	285.5	65.8	-60.9	6.8
2025-01-19 16:56:34.959852	286.6	65.5	-61.5	5.8
2025-01-19 16:56:36.103805	287.7	65.2	-61.8	7.0
2025-01-19 16:56:37.245764	288.7	65.0	-61.9	5.9
2025-01-19 16:56:38.389717	289.7	64.7	-61.0	5.4
2025-01-19 16:56:39.529681	290.7	64.4	-60.4	4.4
2025-01-19 16:56:40.671659	291.6	64.1	-62.0	9.1
2025-01-19 16:56:41.817606	292.6	63.8	-62.2	7.3
2025-01-19 16:56:42.960562	293.5	63.5	-63.9	10.0
2025-01-19 16:56:44.102030	294.4	63.2	-63.1	9.3
2025-01-19 16:56:45.243988	295.2	62.9	-64.0	10.2
2025-01-19 16:56:46.384949	296.1	62.6	-64.1	8.6
2025-01-19 16:56:47.528903	296.9	62.3	-63.3	7.9
2025-01-19 16:56:48.670861	297.7	61.9	-64.6	9.7
2025-01-19 16:56:49.812841	298.5	61.6	-64.6	8.3
2025-01-19 16:56:50.953781	299.2	61.3	-65.0	8.3
2025-01-19 16:56:52.095740	300.0	61.0	-63.1	2.5
2025-01-19 16:56:53.236701	300.7	60.6	-66.1	12.3
2025-01-19 16:56:54.378175	301.4	60.3	-65.3	9.1
2025-01-19 16:56:55.519136	302.1	60.0	-64.0	7.7
2025-01-19 16:56:56.662092	302.7	59.6	-65.2	5.4
2025-01-19 16:56:57.803053	303.4	59.3	-65.5	8.2
2025-01-19 16:56:58.944522	304.0	58.9	-65.5	6.9
2025-01-19 16:57:00.085483	304.6	58.6	-64.5	5.2
2025-01-19 16:57:01.227442	305.2	58.3	-65.7	8.8
2025-01-19 16:57:02.369401	305.8	57.9	-65.7	6.6
2025-01-19 16:57:03.511359	306.4	57.6	-63.1	2.4
2025-01-19 16:57:04.653318	306.9	57.2	-64.0	3.7
2025-01-19 16:57:05.794786	307.5	56.9	-64.4	5.7
2025-01-19 16:57:06.937743	308.0	56.5	-63.8	2.5
2025-01-19 16:57:08.080698	308.5	56.2	-63.8	1.4
2025-01-19 16:57:09.224652	309.0	55.9	-64.7	5.2
2025-01-19 16:57:10.367607	309.5	55.5	-63.6	5.7
2025-01-19 16:57:11.510563	310.0	55.2	-65.4	7.3
2025-01-19 16:57:12.652522	310.5	54.8	-65.6	7.5
2025-01-19 16:57:13.794481	310.9	54.5	-64.7	5.6
2025-01-19 16:57:14.935442	311.4	54.1	-64.7	5.5
2025-01-19 16:57:16.076917	311.8	53.8	-63.6	0.9
2025-01-19 16:57:17.222865	312.2	53.4	-61.7	1.5
2025-01-19 16:57:18.364823	312.7	53.1	-64.7	6.3
2025-01-19 16:57:19.508777	313.1	52.8	-63.0	6.8
2025-01-19 16:57:20.651242	313.5	52.4	-63.7	6.2
2025-01-19 16:57:21.793201	313.9	52.1	-62.8	3.9
2025-01-19 16:57:22.935673	314.2	51.7	-64.0	7.2
2025-01-19 16:57:24.077631	314.6	51.4	-63.4	6.9
2025-01-19 16:57:25.222582	315.0	51.1	-63.4	7.6
2025-01-19 16:57:26.364540	315.3	50.7	-63.1	7.0
2025-01-19 16:57:27.508494	315.7	50.4	-63.2	7.8
2025-01-19 16:57:28.650452	316.0	50.1	-63.5	8.2
2025-01-19 16:57:29.790922	316.4	49.7	-63.2	6.1
2025-01-19 16:57:30.933878	316.7	49.4	-62.7	6.0
2025-01-19 16:57:32.075837	317.0	49.1	-63.4	7.1
2025-01-19 16:57:33.218793	317.3	48.8	-62.0	2.1
2025-01-19 16:57:34.359754	317.6	48.4	-63.2	6.6
2025-01-19 16:57:35.501712	317.9	48.1	-63.9	7.1
2025-01-19 16:57:36.648166	318.2	47.8	-62.7	4.3
2025-01-19 16:57:37.789127	318.5	47.5	-63.5	6.7
2025-01-19 16:57:38.931086	318.8	47.2	-63.0	5.2
2025-01-19 16:57:40.073044	319.1	46.8	-63.5	5.8
2025-01-19 16:57:41.216000	319.3	46.5	-63.3	5.5
2025-01-19 16:57:42.360951	319.6	46.2	-61.6	3.9
2025-01-19 16:57:43.501422	319.9	45.9	-62.1	1.9
2025-01-19 16:57:44.644378	320.1	45.6	-64.6	5.3
2025-01-19 16:57:45.785340	320.4	45.3	-64.0	4.5
2025-01-19 16:57:46.927298	320.6	45.0	-63.1	3.5
2025-01-19 16:57:48.068259	320.9	44.7	-63.1	4.7
2025-01-19 16:57:49.211215	321.1	44.4	-64.2	6.0
2025-01-19 16:57:50.355192	321.3	44.1	-62.1	1.0
2025-01-19 16:57:51.497150	321.6	43.8	-62.7	2.6
2025-01-19 16:57:52.640105	321.8	43.5	-64.1	4.2
2025-01-19 16:57:53.784567	322.0	43.2	-63.3	0.6
2025-01-19 16:57:54.926526	322.2	42.9	-64.7	5.2
2025-01-19 16:57:56.069482	322.4	42.6	-62.8	0.6
2025-01-19 16:57:57.210949	322.7	42.3	-62.8	0.0
2025-01-19 16:57:58.352907	322.9	42.0	-62.5	0.0
2025-01-19 16:57:59.493377	323.1	41.7	-63.0	0.0
2025-01-19 16:58:00.638836	323.3	41.4	-62.0	0.0
2025-01-19 16:58:01.782789	323.5	41.2	-58.9	0.0
2025-01-19 16:58:02.922753	323.7	40.9	-61.9	0.0
2025-01-19 16:58:04.065709	323.8	40.6	-61.6	0.0
2025-01-19 16:58:05.207668	324.0	40.3	-59.7	0.0
2025-01-19 16:58:06.348629	324.2	40.1	-60.6	0.0
2025-01-19 16:58:07.490602	324.4	39.8	-61.5	0.0
2025-01-19 16:58:08.632071	324.6	39.5	-60.0	0.0
2025-01-19 16:58:09.776026	324.7	39.2	-56.7	0.0
2025-01-19 16:58:10.919000	324.9	39.0	-60.0	0.0
2025-01-19 16:58:12.061956	325.1	38.7	-59.9	0.0
2025-01-19 16:58:13.204912	325.2	38.4	-59.7	0.0
2025-01-19 16:58:14.346871	325.4	38.2	-59.8	0.0
2025-01-19 16:58:15.489826	325.6	37.9	-59.2	0.0
2025-01-19 16:58:16.630788	325.7	37.7	-59.1	0.0
2025-01-19 16:58:17.773252	325.9	37.4	-59.1	0.0
2025-01-19 16:58:18.915211	326.0	37.1	-59.9	0.0
2025-01-19 16:58:20.056172	326.2	36.9	-58.5	0.0
2025-01-19 16:58:21.199146	326.3	36.6	-57.9	0.0
2025-01-19 16:58:22.340107	326.5	36.4	-59.1	0.0
2025-01-19 16:58:23.483063	326.6	36.1	-58.9	0.0
2025-01-19 16:58:24.626020	326.8	35.9	-58.6	0.0
2025-01-19 16:58:25.771967	326.9	35.7	-58.9	0.0
2025-01-19 16:58:26.915920	327.1	35.4	-58.7	0.0
2025-01-19 16:58:28.058397	327.2	35.2	-59.4	0.0
2025-01-19 16:58:29.201847	327.3	34.9	-59.6	0.0
2025-01-19 16:58:30.343806	327.5	34.7	-58.7	0.0
2025-01-19 16:58:31.485278	327.6	34.4	-58.6	0.0
2025-01-19 16:58:32.628234	327.7	34.2	-57.2	0.0
2025-01-19 16:58:33.768198	327.9	34.0	-57.8	0.0
2025-01-19 16:58:34.911154	328.0	33.7	-59.0	0.0
2025-01-19 16:58:36.052115	328.1	33.5	-58.3	0.0
2025-01-19 16:58:37.195577	328.2	33.3	-59.4	0.0
2025-01-19 16:58:38.338533	328.3	33.1	-57.3	0.0
2025-01-19 16:58:39.482486	328.5	32.8	-58.7	0.0
2025-01-19 16:58:40.623447	328.6	32.6	-58.8	0.0
2025-01-19 16:58:41.765916	328.7	32.4	-58.7	0.0
2025-01-19 16:58:42.910866	328.8	32.2	-57.4	0.0
2025-01-19 16:58:44.052825	328.9	31.9	-59.4	0.0
2025-01-19 16:58:45.193294	329.0	31.7	-59.1	0.0
2025-01-19 16:58:46.336249	329.2	31.5	-58.5	0.0
2025-01-19 16:58:47.478208	329.3	31.3	-58.5	0.0
2025-01-19 16:58:48.620167	329.4	31.1	-58.2	0.0
2025-01-19 16:58:49.769107	329.5	30.9	-59.6	0.0
2025-01-19 16:58:50.911065	329.6	30.7	-58.0	0.0
2025-01-19 16:58:52.052026	329.7	30.4	-58.1	0.0
2025-01-19 16:58:53.196977	329.8	30.2	-58.5	0.0
2025-01-19 16:58:54.338936	329.9	30.0	-58.3	0.0
#Closed at: 2025-01-19 16:53:14.429549