passes_logs/2025/01/19/Planum_Noyabrsk/Planum_Noyabrsk__20250119_045129_NOAA_19_rec.log

#Pass ID: 20250119_045129_NOAA 19
#Satellite: NOAA 19
#Configuration: NOAA 19
#Start time: 2025-01-19 04:51:34.580619

#LorettStation: 1.0.0 05.05.2024
#Station: Planum_Noyabrsk
#Location: 75.446886 lon 63.207202 lat
#TLE: 1 33591U 09005A   25018.40239338  .00000331  00000+0  20061-3 0  9991
#TLE: 2 33591  99.0190  82.1910 0014361  48.4617 311.7784 14.13262306822020

#Time	Az	El	Level	SNR
2025-01-19 04:51:40.774205	45.7	31.0	-59.4	0.8
2025-01-19 04:51:41.915678	45.9	31.1	-60.5	0.0
2025-01-19 04:51:43.057640	46.2	31.3	-60.6	3.7
2025-01-19 04:51:44.198605	46.4	31.5	-59.5	0.0
2025-01-19 04:51:45.340079	46.7	31.7	-60.0	1.2
2025-01-19 04:51:46.480553	46.9	31.8	-60.7	0.0
2025-01-19 04:51:47.625506	47.2	32.0	-59.2	0.0
2025-01-19 04:51:48.766471	47.4	32.2	-58.9	0.0
2025-01-19 04:51:49.907455	47.7	32.4	-60.6	0.0
2025-01-19 04:51:51.048416	47.9	32.6	-60.7	2.1
2025-01-19 04:51:52.190378	48.2	32.7	-58.4	0.0
2025-01-19 04:51:53.336330	48.5	32.9	-59.8	2.1
2025-01-19 04:51:54.477800	48.7	33.1	-59.1	1.0
2025-01-19 04:51:55.623262	49.0	33.3	-56.1	0.0
2025-01-19 04:51:56.764733	49.3	33.5	-57.0	0.0
2025-01-19 04:51:57.906695	49.6	33.7	-58.4	0.0
2025-01-19 04:51:59.048168	49.9	33.8	-56.3	0.0
2025-01-19 04:52:00.188651	50.1	34.0	-54.2	0.0
2025-01-19 04:52:01.329615	50.4	34.2	-56.1	0.0
2025-01-19 04:52:02.472090	50.7	34.4	-55.4	0.0
2025-01-19 04:52:03.619040	51.0	34.6	-57.4	0.0
2025-01-19 04:52:04.761001	51.3	34.8	-58.0	0.3
2025-01-19 04:52:05.900970	51.6	35.0	-59.1	0.0
2025-01-19 04:52:07.043446	51.9	35.1	-58.2	0.0
2025-01-19 04:52:08.185408	52.2	35.3	-57.5	0.0
2025-01-19 04:52:09.328369	52.5	35.5	-57.1	0.0
2025-01-19 04:52:10.471327	52.8	35.7	-58.2	0.0
2025-01-19 04:52:11.615284	53.2	35.9	-57.9	0.0
2025-01-19 04:52:12.758244	53.5	36.1	-59.0	0.0
2025-01-19 04:52:13.902201	53.8	36.3	-57.1	0.0
2025-01-19 04:52:15.044164	54.1	36.4	-58.9	0.0
2025-01-19 04:52:16.185635	54.5	36.6	-58.4	0.0
2025-01-19 04:52:17.325604	54.8	36.8	-59.4	0.0
2025-01-19 04:52:18.473549	55.1	37.0	-59.3	0.0
2025-01-19 04:52:19.615025	55.5	37.2	-60.6	0.0
2025-01-19 04:52:20.760975	55.8	37.4	-60.7	0.0
2025-01-19 04:52:21.902937	56.2	37.6	-61.1	0.0
2025-01-19 04:52:23.044900	56.5	37.8	-58.6	0.0
2025-01-19 04:52:24.192847	56.9	37.9	-59.1	0.0
2025-01-19 04:52:25.334809	57.3	38.1	-58.8	0.0
2025-01-19 04:52:26.474777	57.6	38.3	-57.2	0.0
2025-01-19 04:52:27.616739	58.0	38.5	-56.3	0.0
2025-01-19 04:52:28.760696	58.4	38.7	-60.6	0.0
2025-01-19 04:52:29.901661	58.8	38.9	-56.7	0.0
2025-01-19 04:52:31.046615	59.2	39.1	-59.0	0.0
2025-01-19 04:52:32.188577	59.5	39.2	-59.1	0.0
2025-01-19 04:52:33.328545	59.9	39.4	-59.8	0.0
2025-01-19 04:52:34.469510	60.3	39.6	-59.2	0.0
2025-01-19 04:52:35.610476	60.7	39.8	-57.5	0.0
2025-01-19 04:52:36.751445	61.1	40.0	-56.7	0.0
2025-01-19 04:52:37.896395	61.5	40.2	-54.5	0.0
2025-01-19 04:52:39.041349	62.0	40.3	-56.1	0.0
2025-01-19 04:52:40.181824	62.4	40.5	-54.9	0.0
2025-01-19 04:52:41.326778	62.8	40.7	-54.3	0.0
2025-01-19 04:52:42.469251	63.2	40.9	-54.1	0.0
2025-01-19 04:52:43.613207	63.7	41.0	-53.2	0.0
2025-01-19 04:52:44.756675	64.1	41.2	-54.7	0.0
2025-01-19 04:52:45.899635	64.6	41.4	-54.3	0.0
2025-01-19 04:52:47.041106	65.0	41.6	-54.2	0.0
2025-01-19 04:52:48.184066	65.5	41.7	-54.8	0.0
2025-01-19 04:52:49.326028	65.9	41.9	-55.7	0.0
2025-01-19 04:52:50.467990	66.4	42.1	-55.7	0.0
2025-01-19 04:52:51.607958	66.8	42.3	-53.9	0.0
2025-01-19 04:52:52.750918	67.3	42.4	-55.5	0.0
2025-01-19 04:52:53.891883	67.8	42.6	-54.3	0.0
2025-01-19 04:52:55.037343	68.3	42.8	-56.2	0.0
2025-01-19 04:52:56.179306	68.8	42.9	-56.6	0.0
2025-01-19 04:52:57.320778	69.3	43.1	-53.6	0.0
2025-01-19 04:52:58.462740	69.8	43.2	-52.9	0.0
2025-01-19 04:52:59.607695	70.3	43.4	-54.2	0.0
2025-01-19 04:53:00.749657	70.8	43.6	-56.3	0.0
2025-01-19 04:53:01.891130	71.3	43.7	-55.1	0.0
2025-01-19 04:53:03.032095	71.8	43.9	-52.3	0.0
2025-01-19 04:53:04.175054	72.3	44.0	-53.1	0.0
2025-01-19 04:53:05.315530	72.8	44.2	-53.2	0.0
2025-01-19 04:53:06.458489	73.4	44.3	-52.9	0.0
2025-01-19 04:53:07.599454	73.9	44.5	-54.3	0.0
2025-01-19 04:53:08.739932	74.4	44.6	-51.8	0.0
2025-01-19 04:53:09.885886	75.0	44.7	-50.6	0.0
2025-01-19 04:53:11.031348	75.5	44.9	-51.9	0.0
2025-01-19 04:53:12.174815	76.1	45.0	-51.0	0.0
2025-01-19 04:53:13.316777	76.7	45.1	-55.6	0.0
2025-01-19 04:53:14.459737	77.2	45.3	-51.4	0.0
2025-01-19 04:53:15.602207	77.8	45.4	-54.7	0.0
2025-01-19 04:53:16.749156	78.4	45.5	-56.3	0.0
2025-01-19 04:53:17.891119	78.9	45.7	-53.5	0.0
2025-01-19 04:53:19.034078	79.5	45.8	-52.8	0.0
2025-01-19 04:53:20.176548	80.1	45.9	-51.6	0.0
2025-01-19 04:53:21.318511	80.7	46.0	-52.6	0.0
2025-01-19 04:53:22.460978	81.3	46.1	-53.0	0.0
2025-01-19 04:53:23.604936	81.9	46.2	-52.4	0.0
2025-01-19 04:53:24.745900	82.5	46.3	-56.2	0.0
2025-01-19 04:53:25.887373	83.1	46.4	-53.9	0.0
2025-01-19 04:53:27.027850	83.7	46.5	-52.7	0.0
2025-01-19 04:53:28.171807	84.3	46.6	-53.1	0.0
2025-01-19 04:53:29.311287	84.9	46.7	-52.7	0.0
2025-01-19 04:53:30.453250	85.6	46.8	-52.6	0.0
2025-01-19 04:53:31.596209	86.2	46.9	-52.4	0.0
2025-01-19 04:53:32.737193	86.8	47.0	-53.9	0.0
2025-01-19 04:53:33.878159	87.5	47.0	-52.5	0.0
2025-01-19 04:53:35.020121	88.1	47.1	-53.8	0.0
2025-01-19 04:53:36.161086	88.7	47.2	-54.4	0.0
2025-01-19 04:53:37.304046	89.4	47.3	-54.0	0.0
2025-01-19 04:53:38.447006	90.0	47.3	-52.5	0.0
2025-01-19 04:53:39.589986	90.7	47.4	-54.8	0.0
2025-01-19 04:53:40.731948	91.3	47.4	-55.5	0.0
2025-01-19 04:53:41.872913	91.9	47.5	-55.6	0.0
2025-01-19 04:53:43.015381	92.6	47.5	-56.2	0.0
2025-01-19 04:53:44.155349	93.3	47.6	-55.0	0.0
2025-01-19 04:53:45.300303	93.9	47.6	-55.9	0.0
2025-01-19 04:53:46.441289	94.6	47.7	-54.8	0.0
2025-01-19 04:53:47.587240	95.2	47.7	-57.0	0.0
2025-01-19 04:53:48.728205	95.9	47.7	-58.4	0.4
2025-01-19 04:53:49.868173	96.5	47.7	-56.2	0.0
2025-01-19 04:53:51.011132	97.2	47.8	-57.9	0.0
2025-01-19 04:53:52.151607	97.9	47.8	-58.1	0.0
2025-01-19 04:53:53.294075	98.5	47.8	-59.8	3.2
2025-01-19 04:53:54.438034	99.2	47.8	-60.7	5.0
2025-01-19 04:53:55.578997	99.9	47.8	-61.3	6.1
2025-01-19 04:53:56.721957	100.5	47.8	-61.1	4.6
2025-01-19 04:53:57.863919	101.2	47.8	-59.5	1.3
2025-01-19 04:53:59.006879	101.9	47.8	-59.3	2.3
2025-01-19 04:54:00.149347	102.5	47.8	-59.1	3.2
2025-01-19 04:54:01.293305	103.2	47.8	-60.0	5.8
2025-01-19 04:54:02.435267	103.8	47.7	-58.7	2.2
2025-01-19 04:54:03.576248	104.5	47.7	-50.6	0.0
2025-01-19 04:54:04.719207	105.2	47.7	-59.6	0.0
2025-01-19 04:54:05.862169	105.8	47.7	-59.5	4.9
2025-01-19 04:54:07.002642	106.5	47.6	-58.8	4.1
2025-01-19 04:54:08.147597	107.1	47.6	-58.8	0.0
2025-01-19 04:54:09.288561	107.8	47.5	-57.1	0.0
2025-01-19 04:54:10.430541	108.4	47.5	-56.1	0.0
2025-01-19 04:54:11.571507	109.1	47.4	-58.8	2.5
2025-01-19 04:54:12.713469	109.7	47.4	-59.9	4.9
2025-01-19 04:54:13.854434	110.4	47.3	-59.3	0.0
2025-01-19 04:54:14.996397	111.0	47.2	-59.4	4.5
2025-01-19 04:54:16.137362	111.7	47.2	-55.9	0.0
2025-01-19 04:54:17.278327	112.3	47.1	-58.7	0.3
2025-01-19 04:54:18.419292	112.9	47.0	-56.7	0.0
2025-01-19 04:54:19.562252	113.6	47.0	-55.9	0.0
2025-01-19 04:54:20.708203	114.2	46.9	-59.6	0.0
2025-01-19 04:54:21.849168	114.8	46.8	-60.9	0.0
2025-01-19 04:54:22.992128	115.4	46.7	-58.7	0.0
2025-01-19 04:54:24.134105	116.1	46.6	-62.0	3.7
2025-01-19 04:54:25.276068	116.7	46.5	-59.9	0.0
2025-01-19 04:54:26.420025	117.3	46.4	-59.2	0.0
2025-01-19 04:54:27.561987	117.9	46.3	-63.6	6.1
2025-01-19 04:54:28.706941	118.5	46.2	-63.2	8.8
2025-01-19 04:54:29.849902	119.1	46.1	-61.3	0.0
2025-01-19 04:54:30.991376	119.7	46.0	-64.2	8.1
2025-01-19 04:54:32.133339	120.3	45.9	-61.6	2.1
2025-01-19 04:54:33.275301	120.9	45.8	-63.5	9.9
2025-01-19 04:54:34.417263	121.4	45.6	-62.1	0.0
2025-01-19 04:54:35.559226	122.0	45.5	-62.6	6.6
2025-01-19 04:54:36.703183	122.6	45.4	-64.7	0.5
2025-01-19 04:54:37.845653	123.2	45.3	-62.5	0.0
2025-01-19 04:54:38.992602	123.7	45.1	-64.4	7.7
2025-01-19 04:54:40.135072	124.3	45.0	-64.1	1.1
2025-01-19 04:54:41.277034	124.8	44.9	-64.7	8.2
2025-01-19 04:54:42.419013	125.4	44.7	-63.3	3.8
2025-01-19 04:54:43.563951	125.9	44.6	-63.6	0.0
2025-01-19 04:54:44.707417	126.5	44.4	-63.7	5.2
2025-01-19 04:54:45.846387	127.0	44.3	-62.5	1.7
2025-01-19 04:54:46.993336	127.5	44.1	-63.3	8.1
2025-01-19 04:54:48.136296	128.1	44.0	-64.5	6.6
2025-01-19 04:54:49.276771	128.6	43.8	-65.2	10.6
2025-01-19 04:54:50.418733	129.1	43.7	-64.8	6.8
2025-01-19 04:54:51.559698	129.6	43.5	-64.8	7.3
2025-01-19 04:54:52.700174	130.1	43.4	-61.3	0.5
2025-01-19 04:54:53.843134	130.6	43.2	-64.1	8.0
2025-01-19 04:54:54.984608	131.1	43.0	-63.3	8.4
2025-01-19 04:54:56.125573	131.6	42.9	-65.3	9.0
2025-01-19 04:54:57.267536	132.1	42.7	-62.7	6.4
2025-01-19 04:54:58.412999	132.6	42.6	-63.1	7.8
2025-01-19 04:54:59.553963	133.0	42.4	-59.3	0.0
2025-01-19 04:55:00.697921	133.5	42.2	-60.2	0.0
2025-01-19 04:55:01.839883	134.0	42.1	-60.1	1.0
2025-01-19 04:55:02.985835	134.4	41.9	-59.5	2.2
2025-01-19 04:55:04.127797	134.9	41.7	-60.6	1.0
2025-01-19 04:55:05.270284	135.4	41.5	-60.9	5.4
2025-01-19 04:55:06.414241	135.8	41.4	-61.3	3.2
2025-01-19 04:55:07.557708	136.2	41.2	-61.7	5.1
2025-01-19 04:55:08.701177	136.7	41.0	-62.0	6.3
2025-01-19 04:55:09.842139	137.1	40.8	-62.4	7.5
2025-01-19 04:55:10.987094	137.5	40.7	-62.4	3.9
2025-01-19 04:55:12.127569	138.0	40.5	-61.2	5.3
2025-01-19 04:55:13.269531	138.4	40.3	-63.6	9.8
2025-01-19 04:55:14.410496	138.8	40.1	-63.4	7.8
2025-01-19 04:55:15.554453	139.2	39.9	-62.7	7.5
2025-01-19 04:55:16.697413	139.6	39.7	-62.0	7.9
2025-01-19 04:55:17.838378	140.0	39.6	-61.8	6.2
2025-01-19 04:55:18.983850	140.4	39.4	-62.0	5.8
2025-01-19 04:55:20.125811	140.8	39.2	-63.1	8.7
2025-01-19 04:55:21.268771	141.2	39.0	-63.3	7.8
2025-01-19 04:55:22.410250	141.6	38.8	-63.4	5.6
2025-01-19 04:55:23.551214	142.0	38.6	-64.1	9.2
2025-01-19 04:55:24.694174	142.3	38.5	-64.0	7.0
2025-01-19 04:55:25.834142	142.7	38.3	-64.1	6.5
2025-01-19 04:55:26.976104	143.1	38.1	-64.1	6.2
2025-01-19 04:55:28.117069	143.4	37.9	-63.4	6.0
2025-01-19 04:55:29.258035	143.8	37.7	-64.3	7.2
2025-01-19 04:55:30.399996	144.1	37.5	-65.0	8.4
2025-01-19 04:55:31.541959	144.5	37.3	-65.2	9.9
2025-01-19 04:55:32.683921	144.8	37.2	-64.0	9.6
2025-01-19 04:55:33.832865	145.2	37.0	-65.8	8.9
2025-01-19 04:55:34.973830	145.5	36.8	-66.1	12.3
2025-01-19 04:55:36.180168	145.9	36.6	-65.6	8.8
2025-01-19 04:55:37.322129	146.2	36.4	-65.4	11.4
2025-01-19 04:55:38.463094	146.5	36.2	-65.5	10.2
2025-01-19 04:55:39.605562	146.9	36.0	-64.6	10.2
2025-01-19 04:55:40.748522	147.2	35.8	-65.2	10.3
2025-01-19 04:55:41.889486	147.5	35.6	-64.4	8.9
2025-01-19 04:55:43.032446	147.8	35.5	-65.1	11.5
2025-01-19 04:55:44.174408	148.1	35.3	-65.2	12.3
2025-01-19 04:55:45.316370	148.4	35.1	-65.2	12.0
2025-01-19 04:55:46.458861	148.7	34.9	-64.6	12.6
2025-01-19 04:55:47.599806	149.0	34.7	-64.8	12.5
2025-01-19 04:55:48.741768	149.3	34.5	-66.1	13.1
2025-01-19 04:55:49.882734	149.6	34.3	-65.2	10.3
2025-01-19 04:55:51.022701	149.9	34.2	-65.3	12.0
2025-01-19 04:55:52.164664	150.2	34.0	-65.3	11.4
2025-01-19 04:55:53.306135	150.5	33.8	-65.6	11.9
2025-01-19 04:55:54.448098	150.8	33.6	-65.2	12.8
2025-01-19 04:55:55.592055	151.0	33.4	-66.8	12.8
2025-01-19 04:55:56.735015	151.3	33.2	-66.7	13.5
2025-01-19 04:55:57.877974	151.6	33.1	-64.1	5.7
2025-01-19 04:55:59.018939	151.9	32.9	-66.7	13.2
2025-01-19 04:56:00.160410	152.1	32.7	-66.6	12.5
2025-01-19 04:56:01.302373	152.4	32.5	-67.1	13.2
2025-01-19 04:56:02.444336	152.6	32.3	-67.2	12.4
2025-01-19 04:56:03.587310	152.9	32.1	-67.1	14.1
2025-01-19 04:56:04.733753	153.2	32.0	-66.9	11.7
2025-01-19 04:56:05.876712	153.4	31.8	-67.7	12.8
2025-01-19 04:56:07.021667	153.7	31.6	-66.8	12.0
2025-01-19 04:56:08.163630	153.9	31.4	-67.0	12.3
2025-01-19 04:56:09.303597	154.1	31.2	-66.4	11.0
2025-01-19 04:56:10.448551	154.4	31.1	-67.8	13.4
2025-01-19 04:56:11.590513	154.6	30.9	-68.3	13.6
2025-01-19 04:56:12.731478	154.9	30.7	-67.9	13.3
2025-01-19 04:56:13.870958	155.1	30.5	-67.7	11.5
2025-01-19 04:56:15.012921	155.3	30.4	-68.3	12.4
2025-01-19 04:56:16.154882	155.5	30.2	-67.0	11.0
2025-01-19 04:56:17.296845	155.8	30.0	-69.6	0.0
#Closed at: 2025-01-19 04:51:29.584019