passes_logs/2025/01/19/Planum_Noyabrsk/Planum_Noyabrsk__20250119_144825_NOAA_19_rec.log

#Pass ID: 20250119_144825_NOAA 19
#Satellite: NOAA 19
#Configuration: NOAA 19
#Start time: 2025-01-19 14:48:30.611468

#LorettStation: 1.0.0 05.05.2024
#Station: Planum_Noyabrsk
#Location: 75.446886 lon 63.207202 lat
#TLE: 1 33591U 09005A   25018.40239338  .00000331  00000+0  20061-3 0  9991
#TLE: 2 33591  99.0190  82.1910 0014361  48.4617 311.7784 14.13262306822020

#Time	Az	El	Level	SNR
2025-01-19 14:48:35.492077	132.0	30.9	-59.4	0.0
2025-01-19 14:48:36.634035	131.8	31.1	-60.1	0.0
2025-01-19 14:48:37.775995	131.7	31.3	-57.1	0.0
2025-01-19 14:48:38.922451	131.6	31.5	-58.9	0.0
2025-01-19 14:48:40.063413	131.5	31.8	-56.2	0.0
2025-01-19 14:48:41.209871	131.3	32.0	-55.8	0.0
2025-01-19 14:48:42.351831	131.2	32.2	-61.4	0.0
2025-01-19 14:48:43.493790	131.1	32.4	-60.7	0.0
2025-01-19 14:48:44.635267	130.9	32.6	-60.0	0.0
2025-01-19 14:48:45.778223	130.8	32.9	-60.9	0.0
2025-01-19 14:48:46.919185	130.6	33.1	-57.5	0.0
2025-01-19 14:48:48.060653	130.5	33.3	-61.6	0.0
2025-01-19 14:48:49.204608	130.3	33.5	-59.3	0.0
2025-01-19 14:48:50.347564	130.2	33.8	-50.6	0.0
2025-01-19 14:48:51.489035	130.0	34.0	-57.0	0.0
2025-01-19 14:48:52.630993	129.9	34.2	-48.0	0.0
2025-01-19 14:48:53.771955	129.7	34.5	-59.0	0.0
2025-01-19 14:48:54.914475	129.6	34.7	-54.2	0.0
2025-01-19 14:48:56.053442	129.4	34.9	-55.5	0.0
2025-01-19 14:48:57.196400	129.2	35.2	-55.1	0.0
2025-01-19 14:48:58.338362	129.1	35.4	-60.0	0.0
2025-01-19 14:48:59.480318	128.9	35.7	-61.1	0.0
2025-01-19 14:49:00.621788	128.7	35.9	-58.2	0.0
2025-01-19 14:49:01.764745	128.6	36.2	-56.9	0.0
2025-01-19 14:49:02.904709	128.4	36.4	-54.5	0.0
2025-01-19 14:49:04.045672	128.2	36.6	-58.2	0.0
2025-01-19 14:49:05.189626	128.0	36.9	-57.0	0.0
2025-01-19 14:49:06.332091	127.9	37.1	-56.0	0.0
2025-01-19 14:49:07.475047	127.7	37.4	-50.0	0.0
2025-01-19 14:49:08.618005	127.5	37.7	-57.1	0.0
2025-01-19 14:49:09.758479	127.3	37.9	-56.8	0.0
2025-01-19 14:49:10.901437	127.1	38.2	-55.7	0.0
2025-01-19 14:49:12.041400	126.9	38.4	-56.1	0.0
2025-01-19 14:49:13.181874	126.7	38.7	-54.4	0.0
2025-01-19 14:49:14.323834	126.5	39.0	-51.1	0.0
2025-01-19 14:49:15.464795	126.3	39.2	-51.3	0.0
2025-01-19 14:49:16.610808	126.1	39.5	-51.6	0.0
2025-01-19 14:49:17.752768	125.8	39.8	-49.9	0.0
2025-01-19 14:49:18.894726	125.6	40.0	-58.2	0.0
2025-01-19 14:49:20.037192	125.4	40.3	-49.8	0.0
2025-01-19 14:49:21.177664	125.2	40.6	-58.3	0.0
2025-01-19 14:49:22.318626	124.9	40.8	-60.0	0.0
2025-01-19 14:49:23.460100	124.7	41.1	-57.5	0.0
2025-01-19 14:49:24.605051	124.5	41.4	-52.0	0.0
2025-01-19 14:49:25.748518	124.2	41.7	-53.4	0.0
2025-01-19 14:49:26.889499	124.0	41.9	-57.8	0.0
2025-01-19 14:49:28.031458	123.7	42.2	-57.9	0.0
2025-01-19 14:49:29.172420	123.5	42.5	-60.5	6.2
2025-01-19 14:49:30.313897	123.2	42.8	-57.0	0.0
2025-01-19 14:49:31.457360	122.9	43.1	-57.2	2.6
2025-01-19 14:49:32.599319	122.7	43.4	-52.9	0.0
2025-01-19 14:49:33.739284	122.4	43.6	-59.9	3.6
2025-01-19 14:49:34.881243	122.1	43.9	-60.4	0.0
2025-01-19 14:49:36.023203	121.8	44.2	-60.6	2.8
2025-01-19 14:49:37.166159	121.5	44.5	-62.2	2.1
2025-01-19 14:49:38.309116	121.2	44.8	-59.5	0.0
2025-01-19 14:49:39.450078	120.9	45.1	-52.5	0.0
2025-01-19 14:49:40.605003	120.6	45.4	-55.1	0.0
2025-01-19 14:49:41.747961	120.3	45.7	-60.5	0.0
2025-01-19 14:49:42.890917	120.0	46.0	-60.2	5.7
2025-01-19 14:49:44.032876	119.7	46.3	-58.1	0.0
2025-01-19 14:49:45.175342	119.3	46.6	-55.8	0.0
2025-01-19 14:49:46.319296	119.0	46.9	-58.0	0.0
2025-01-19 14:49:47.461761	118.6	47.2	-56.7	0.0
2025-01-19 14:49:48.602724	118.3	47.5	-55.4	0.0
2025-01-19 14:49:49.745680	117.9	47.8	-54.9	0.0
2025-01-19 14:49:50.886642	117.6	48.1	-50.3	0.0
2025-01-19 14:49:52.028110	117.2	48.4	-54.3	0.0
2025-01-19 14:49:53.169071	116.8	48.7	-54.8	0.0
2025-01-19 14:49:54.312028	116.4	49.0	-55.5	0.0
2025-01-19 14:49:55.452503	116.0	49.4	-54.8	0.0
2025-01-19 14:49:56.594463	115.6	49.7	-58.6	4.1
2025-01-19 14:49:57.737927	115.2	50.0	-55.0	0.0
2025-01-19 14:49:58.879394	114.8	50.3	-56.3	0.0
2025-01-19 14:50:00.024345	114.3	50.6	-54.7	0.0
2025-01-19 14:50:01.164309	113.9	50.9	-53.9	0.0
2025-01-19 14:50:02.306269	113.5	51.2	-58.4	4.1
2025-01-19 14:50:03.447738	113.0	51.5	-55.6	0.0
2025-01-19 14:50:04.590694	112.5	51.8	-54.9	0.0
2025-01-19 14:50:05.732164	112.1	52.1	-50.5	0.0
2025-01-19 14:50:06.877115	111.6	52.5	-51.9	0.0
2025-01-19 14:50:08.019074	111.1	52.8	-60.1	3.0
2025-01-19 14:50:09.162541	110.6	53.1	-57.9	0.8
2025-01-19 14:50:10.305498	110.0	53.4	-55.0	0.0
2025-01-19 14:50:11.447458	109.5	53.7	-59.8	5.3
2025-01-19 14:50:12.589927	109.0	54.0	-59.3	6.0
2025-01-19 14:50:13.731887	108.4	54.3	-59.5	5.6
2025-01-19 14:50:14.872848	107.8	54.6	-59.0	5.9
2025-01-19 14:50:16.016803	107.2	54.9	-56.0	0.0
2025-01-19 14:50:17.159763	106.7	55.2	-57.4	1.6
2025-01-19 14:50:18.300721	106.0	55.5	-54.6	0.0
2025-01-19 14:50:19.447667	105.4	55.8	-52.7	0.0
2025-01-19 14:50:20.590133	104.8	56.1	-57.3	3.8
2025-01-19 14:50:21.732092	104.1	56.4	-59.8	5.3
2025-01-19 14:50:22.874052	103.5	56.7	-57.7	2.0
2025-01-19 14:50:24.017009	102.8	57.0	-54.3	0.0
2025-01-19 14:50:25.159965	102.1	57.3	-55.7	0.0
2025-01-19 14:50:26.301942	101.4	57.6	-58.8	3.0
2025-01-19 14:50:27.443900	100.7	57.9	-59.2	3.9
2025-01-19 14:50:28.585860	100.0	58.2	-58.1	0.0
2025-01-19 14:50:29.726821	99.2	58.4	-58.3	2.1
2025-01-19 14:50:30.870284	98.5	58.7	-58.8	1.9
2025-01-19 14:50:32.011246	97.7	59.0	-59.9	4.9
2025-01-19 14:50:33.152722	96.9	59.3	-59.2	3.1
2025-01-19 14:50:34.293683	96.1	59.5	-58.9	1.6
2025-01-19 14:50:35.434154	95.2	59.8	-56.8	0.0
2025-01-19 14:50:36.576130	94.4	60.0	-58.0	0.1
2025-01-19 14:50:37.717092	93.5	60.3	-58.9	0.0
2025-01-19 14:50:38.859052	92.6	60.5	-58.6	0.0
2025-01-19 14:50:40.001011	91.7	60.8	-59.0	1.7
2025-01-19 14:50:41.144967	90.8	61.0	-59.2	4.3
2025-01-19 14:50:42.284930	89.9	61.2	-59.9	3.8
2025-01-19 14:50:43.428884	88.9	61.5	-60.0	1.1
2025-01-19 14:50:44.569358	88.0	61.7	-57.7	0.0
2025-01-19 14:50:45.712821	87.0	61.9	-60.4	0.0
2025-01-19 14:50:46.853783	86.0	62.1	-58.4	0.0
2025-01-19 14:50:47.994257	85.0	62.3	-58.2	1.1
2025-01-19 14:50:49.136215	83.9	62.5	-57.8	0.0
2025-01-19 14:50:50.279172	82.9	62.7	-58.3	0.0
2025-01-19 14:50:51.419642	81.8	62.8	-60.2	0.0
2025-01-19 14:50:52.565591	80.7	63.0	-58.5	0.0
2025-01-19 14:50:53.708548	79.6	63.2	-57.2	0.0
2025-01-19 14:50:54.850034	78.5	63.3	-59.1	0.0
2025-01-19 14:50:55.989999	77.4	63.5	-59.5	0.0
2025-01-19 14:50:57.132465	76.3	63.6	-59.9	0.0
2025-01-19 14:50:58.274424	75.1	63.7	-54.8	0.0
2025-01-19 14:50:59.415386	74.0	63.8	-57.8	0.0
2025-01-19 14:51:00.560338	72.8	63.9	-57.0	0.0
2025-01-19 14:51:01.703295	71.6	64.0	-59.6	0.0
2025-01-19 14:51:02.845761	70.4	64.1	-58.5	2.4
2025-01-19 14:51:03.989715	69.2	64.2	-57.2	0.0
2025-01-19 14:51:05.131185	68.0	64.2	-56.7	0.0
2025-01-19 14:51:06.274141	66.8	64.3	-55.7	0.0
2025-01-19 14:51:07.417097	65.6	64.3	-55.1	0.0
2025-01-19 14:51:08.561563	64.4	64.4	-55.0	0.0
2025-01-19 14:51:09.703522	63.1	64.4	-59.1	0.0
2025-01-19 14:51:10.844484	61.9	64.4	-58.0	0.0
2025-01-19 14:51:11.986443	60.7	64.4	-60.3	3.0
2025-01-19 14:51:13.129906	59.5	64.4	-59.2	0.0
2025-01-19 14:51:14.272862	58.2	64.4	-60.0	3.2
2025-01-19 14:51:15.417814	57.0	64.3	-59.1	0.0
2025-01-19 14:51:16.559773	55.8	64.3	-57.1	0.0
2025-01-19 14:51:17.701733	54.6	64.3	-58.8	2.0
2025-01-19 14:51:18.843204	53.4	64.2	-59.2	3.5
2025-01-19 14:51:19.986161	52.2	64.1	-56.5	0.0
2025-01-19 14:51:21.129117	51.0	64.0	-56.3	0.0
2025-01-19 14:51:22.270589	49.8	63.9	-58.7	0.0
2025-01-19 14:51:23.414543	48.6	63.8	-59.0	0.8
2025-01-19 14:51:24.554507	47.5	63.7	-60.8	0.5
2025-01-19 14:51:25.697464	46.3	63.6	-60.7	3.5
2025-01-19 14:51:26.840927	45.2	63.5	-60.7	4.2
2025-01-19 14:51:27.981889	44.0	63.3	-61.1	4.7
2025-01-19 14:51:29.122851	42.9	63.2	-60.3	2.5
2025-01-19 14:51:30.264810	41.8	63.0	-59.5	2.3
2025-01-19 14:51:31.405772	40.8	62.9	-59.4	0.0
2025-01-19 14:51:32.548892	39.7	62.7	-58.3	2.7
2025-01-19 14:51:33.690851	38.6	62.5	-59.8	5.9
2025-01-19 14:51:34.832810	37.6	62.3	-60.1	6.1
2025-01-19 14:51:35.976275	36.6	62.1	-57.0	0.0
2025-01-19 14:51:37.117742	35.6	61.9	-60.9	5.5
2025-01-19 14:51:38.260699	34.6	61.7	-59.0	3.0
2025-01-19 14:51:39.402167	33.6	61.5	-60.3	6.0
2025-01-19 14:51:40.543635	32.7	61.3	-61.2	6.0
2025-01-19 14:51:41.684108	31.7	61.1	-58.1	2.0
2025-01-19 14:51:42.827065	30.8	60.8	-60.3	4.9
2025-01-19 14:51:43.967535	29.9	60.6	-61.6	7.3
2025-01-19 14:51:45.111489	29.0	60.4	-61.6	6.9
2025-01-19 14:51:46.256441	28.2	60.1	-60.8	5.9
2025-01-19 14:51:47.401392	27.3	59.8	-60.9	6.2
2025-01-19 14:51:48.547341	26.5	59.6	-63.1	10.9
2025-01-19 14:51:49.689301	25.7	59.3	-60.9	7.5
2025-01-19 14:51:50.835249	24.9	59.1	-61.1	7.0
2025-01-19 14:51:51.976211	24.1	58.8	-62.6	9.1
2025-01-19 14:51:53.118678	23.3	58.5	-62.3	8.1
2025-01-19 14:51:54.260149	22.6	58.2	-63.2	9.1
2025-01-19 14:51:55.402107	21.8	58.0	-63.5	9.5
2025-01-19 14:51:56.544573	21.1	57.7	-62.0	8.0
2025-01-19 14:51:57.686532	20.4	57.4	-62.9	7.8
2025-01-19 14:51:58.828004	19.7	57.1	-63.2	9.2
2025-01-19 14:51:59.969963	19.0	56.8	-62.8	7.1
2025-01-19 14:52:01.112920	18.4	56.5	-62.6	6.5
2025-01-19 14:52:02.255385	17.7	56.2	-63.7	8.8
2025-01-19 14:52:03.396855	17.1	55.9	-62.6	3.8
2025-01-19 14:52:04.539812	16.5	55.6	-62.8	7.0
2025-01-19 14:52:05.681770	15.9	55.3	-62.6	8.1
2025-01-19 14:52:06.828735	15.3	55.0	-61.6	7.8
2025-01-19 14:52:07.970695	14.7	54.7	-62.0	6.8
2025-01-19 14:52:09.113652	14.1	54.4	-62.2	8.4
2025-01-19 14:52:10.257605	13.6	54.1	-63.2	8.8
2025-01-19 14:52:11.400562	13.0	53.8	-63.3	8.6
2025-01-19 14:52:12.540527	12.5	53.5	-62.9	7.4
2025-01-19 14:52:13.683484	12.0	53.2	-63.7	8.9
2025-01-19 14:52:14.823448	11.4	52.9	-64.0	8.2
2025-01-19 14:52:15.966406	10.9	52.6	-64.4	7.9
2025-01-19 14:52:17.107367	10.4	52.2	-64.8	8.9
2025-01-19 14:52:18.252825	10.0	51.9	-65.0	10.5
2025-01-19 14:52:19.395781	9.5	51.6	-64.8	10.0
2025-01-19 14:52:20.536743	9.0	51.3	-64.4	9.1
2025-01-19 14:52:21.678212	8.6	51.0	-64.0	8.7
2025-01-19 14:52:22.819174	8.1	50.7	-64.5	8.9
2025-01-19 14:52:23.961133	7.7	50.4	-64.2	9.6
2025-01-19 14:52:25.108080	7.3	50.1	-63.8	8.1
2025-01-19 14:52:26.252034	6.9	49.8	-64.9	10.4
2025-01-19 14:52:27.393994	6.5	49.5	-63.7	7.4
2025-01-19 14:52:28.537947	6.1	49.1	-65.2	8.8
2025-01-19 14:52:29.679907	5.7	48.8	-65.3	7.8
2025-01-19 14:52:30.821866	5.3	48.5	-65.0	9.2
2025-01-19 14:52:31.964332	4.9	48.2	-64.7	9.3
2025-01-19 14:52:33.109285	4.6	47.9	-65.0	8.9
2025-01-19 14:52:34.251243	4.2	47.6	-64.5	9.1
2025-01-19 14:52:35.396211	3.8	47.3	-64.8	8.8
2025-01-19 14:52:36.536175	3.5	47.0	-64.6	6.1
2025-01-19 14:52:37.679133	3.2	46.7	-64.4	7.3
2025-01-19 14:52:38.820600	2.8	46.4	-64.9	7.8
2025-01-19 14:52:39.963557	2.5	46.1	-65.3	9.8
2025-01-19 14:52:41.105517	2.2	45.8	-64.6	8.0
2025-01-19 14:52:42.249490	1.9	45.5	-64.3	9.3
2025-01-19 14:52:43.391449	1.6	45.2	-64.1	7.6
2025-01-19 14:52:44.533408	1.3	44.9	-63.6	6.5
2025-01-19 14:52:45.675873	1.0	44.6	-63.8	6.8
2025-01-19 14:52:46.816835	0.7	44.4	-63.1	7.8
2025-01-19 14:52:47.958795	0.4	44.1	-63.6	7.5
2025-01-19 14:52:49.100263	0.1	43.8	-63.5	7.5
2025-01-19 14:52:50.245215	359.8	43.5	-62.2	7.4
2025-01-19 14:52:51.388171	359.5	43.2	-60.7	3.8
2025-01-19 14:52:52.527646	359.3	42.9	-62.8	7.7
2025-01-19 14:52:53.671600	359.0	42.6	-61.8	6.0
2025-01-19 14:52:54.811564	358.8	42.4	-62.2	4.0
2025-01-19 14:52:55.953524	358.5	42.1	-61.6	4.6
2025-01-19 14:52:57.093998	358.3	41.8	-62.8	6.1
2025-01-19 14:52:58.235957	358.0	41.5	-62.3	6.0
2025-01-19 14:52:59.378914	357.8	41.2	-60.7	1.3
2025-01-19 14:53:00.519876	357.5	41.0	-60.4	2.1
2025-01-19 14:53:01.661836	357.3	40.7	-61.7	5.6
2025-01-19 14:53:02.801800	357.1	40.4	-61.4	5.0
2025-01-19 14:53:03.943269	356.9	40.2	-61.7	4.6
2025-01-19 14:53:05.084231	356.6	39.9	-61.4	4.1
2025-01-19 14:53:06.225699	356.4	39.6	-61.8	2.6
2025-01-19 14:53:07.368165	356.2	39.4	-61.6	3.9
2025-01-19 14:53:08.510125	356.0	39.1	-61.6	4.2
2025-01-19 14:53:09.652083	355.8	38.8	-62.0	4.7
2025-01-19 14:53:10.793555	355.6	38.6	-61.8	2.1
2025-01-19 14:53:11.935514	355.4	38.3	-61.1	0.7
2025-01-19 14:53:13.077474	355.2	38.1	-61.1	1.4
2025-01-19 14:53:14.221427	355.0	37.8	-60.8	3.2
2025-01-19 14:53:15.363387	354.8	37.6	-61.8	1.8
2025-01-19 14:53:16.504349	354.6	37.3	-61.5	0.6
2025-01-19 14:53:17.649806	354.4	37.1	-59.9	0.0
2025-01-19 14:53:18.792763	354.3	36.8	-60.2	2.0
2025-01-19 14:53:19.933725	354.1	36.6	-59.3	0.0
2025-01-19 14:53:21.076192	353.9	36.3	-60.9	1.1
2025-01-19 14:53:22.217154	353.7	36.1	-61.0	0.0
2025-01-19 14:53:23.359113	353.6	35.8	-60.1	0.0
2025-01-19 14:53:24.499600	353.4	35.6	-60.8	0.0
2025-01-19 14:53:25.641560	353.2	35.3	-59.6	0.0
2025-01-19 14:53:26.782522	353.1	35.1	-59.1	0.0
2025-01-19 14:53:27.926478	352.9	34.9	-58.6	0.0
2025-01-19 14:53:29.069434	352.8	34.6	-59.8	0.0
2025-01-19 14:53:30.211392	352.6	34.4	-59.0	0.0
2025-01-19 14:53:31.355346	352.4	34.2	-60.0	0.0
2025-01-19 14:53:32.499301	352.3	33.9	-58.9	0.0
2025-01-19 14:53:33.641260	352.1	33.7	-59.5	0.0
2025-01-19 14:53:34.782731	352.0	33.5	-59.0	0.0
2025-01-19 14:53:35.924690	351.9	33.3	-57.6	0.0
2025-01-19 14:53:37.067647	351.7	33.0	-57.2	0.0
2025-01-19 14:53:38.208117	351.6	32.8	-58.6	0.0
2025-01-19 14:53:39.352071	351.4	32.6	-58.5	0.0
2025-01-19 14:53:40.494032	351.3	32.4	-58.1	0.0
2025-01-19 14:53:41.638005	351.2	32.1	-57.2	0.0
2025-01-19 14:53:42.779965	351.0	31.9	-57.9	0.0
2025-01-19 14:53:43.920927	350.9	31.7	-56.8	0.0
2025-01-19 14:53:45.062395	350.8	31.5	-54.5	0.0
2025-01-19 14:53:46.205352	350.6	31.3	-57.3	0.0
2025-01-19 14:53:47.348308	350.5	31.1	-55.7	0.0
2025-01-19 14:53:48.491771	350.4	30.9	-56.0	0.0
2025-01-19 14:53:49.638717	350.3	30.6	-57.1	0.0
2025-01-19 14:53:50.780677	350.1	30.4	-54.4	0.0
2025-01-19 14:53:51.924631	350.0	30.2	-57.8	0.0
2025-01-19 14:53:53.067587	349.9	30.0	-62.8	0.0
#Closed at: 2025-01-19 14:48:25.615386