passes_logs/2026/01/24/R2M6_AANII_01/R2M6_AANII_01__20260124_231753_NOAA_21_JPSS-2_rec.log

#Pass ID: 20260124_231753_NOAA 21 (JPSS-2)
#Satellite: NOAA 21 (JPSS-2)
#Configuration: NOAA 21
#almurnet v.1.7.20240730
#Start time: 2026-01-24 23:17:55

#Version: 2.2.20231116
#Station: R2M6_AANII_01
#Location: 30.233357 lon 59.946436 lat
#TLE: 1 54234U 22150A   26024.45772595  .00000201  00000+0  11607-3 0  9996
#TLE: 2 54234  98.7508 325.2435 0000728 220.7365 139.3757 14.19538765166156

#Time	Az	El	Level	Level2	SNR	BER	BlckErr	Temp	State	Recorded	gain1	gain2
2026-01-24 23:17:55.08	24.83	7.14	-30.8	-36.3	4.5	1.41e+00	0	41	0	0	21	6759
2026-01-24 23:17:58.09	25.02	7.35	-31.3	-36.5	7.2	1.47e-01	0	42	102	1048576	22	6579
2026-01-24 23:18:01.08	25.21	7.57	-30.4	-33.9	9.5	2.30e-02	0	42	102	1048576	21	5387
2026-01-24 23:18:04.10	25.41	7.79	-29.8	-32.9	11.0	1.85e-03	0	42	102	1048576	19	5193
2026-01-24 23:18:07.11	25.60	8.01	-29.3	-31.9	11.7	7.25e-04	0	42	102	1048576	19	4811
2026-01-24 23:18:10.13	25.80	8.23	-29.2	-32.0	12.0	2.86e-04	0	42	102	1048576	18	4951
2026-01-24 23:18:13.13	26.01	8.45	-28.8	-31.1	12.6	1.36e-04	0	42	102	1048576	18	4645
2026-01-24 23:18:16.15	26.21	8.68	-28.5	-31.0	12.7	6.40e-05	0	42	102	1048576	17	4814
2026-01-24 23:18:19.17	26.42	8.90	-28.8	-31.4	12.7	8.16e-05	0	42	102	1048576	17	4844
2026-01-24 23:18:22.17	26.63	9.13	-28.7	-31.1	12.9	4.19e-05	0	42	102	1048576	17	4767
2026-01-24 23:18:25.18	26.85	9.36	-28.8	-31.3	12.8	5.49e-05	0	42	102	1048576	17	4822
2026-01-24 23:18:28.19	27.07	9.59	-28.6	-30.9	13.1	3.76e-04	0	42	102	1048576	17	4679
2026-01-24 23:18:31.20	27.29	9.83	-28.5	-30.5	13.4	1.22e-05	0	42	102	1048576	17	4568
2026-01-24 23:18:34.22	27.52	10.06	-28.3	-30.6	13.7	6.33e-05	0	42	102	1048576	16	4693
2026-01-24 23:18:37.24	27.75	10.30	-28.3	-30.6	13.7	3.20e-05	0	42	102	1048576	16	4705
2026-01-24 23:18:40.24	27.98	10.54	-28.5	-30.6	13.4	1.35e-04	0	43	102	1048576	17	4591
2026-01-24 23:18:43.25	28.21	10.78	-28.6	-30.8	13.2	3.21e-04	0	43	102	1048576	17	4647
2026-01-24 23:18:46.24	28.45	11.02	-28.5	-30.7	13.4	4.67e-04	0	43	102	1048576	17	4601
2026-01-24 23:18:49.27	28.70	11.27	-28.3	-30.5	13.8	6.90e-04	0	43	102	1048576	16	4652
2026-01-24 23:18:52.29	28.94	11.52	-28.1	-30.1	14.0	1.50e-06	0	43	102	1048576	16	4530
2026-01-24 23:18:55.29	29.19	11.77	-28.2	-30.4	13.9	8.26e-04	0	43	102	1048576	16	4628
2026-01-24 23:18:58.29	29.45	12.02	-28.3	-30.6	13.8	5.30e-06	0	43	102	1048576	16	4679
2026-01-24 23:19:01.29	29.71	12.27	-28.0	-30.0	14.2	3.00e-06	0	43	102	1048576	16	4493
2026-01-24 23:19:04.31	29.97	12.53	-28.2	-30.3	14.0	4.50e-06	0	43	102	1048576	16	4589
2026-01-24 23:19:07.31	30.24	12.79	-28.0	-29.8	14.3	2.20e-06	0	43	102	1048576	16	4456
2026-01-24 23:19:10.32	30.51	13.05	-27.8	-30.0	14.3	9.53e-05	0	43	102	1048576	15	4623
2026-01-24 23:19:13.34	30.79	13.31	-27.8	-29.9	14.5	0.00e+00	0	43	102	1048576	15	4579
2026-01-24 23:19:16.34	31.07	13.57	-27.6	-29.6	14.6	0.00e+00	0	43	102	1048576	15	4497
2026-01-24 23:19:19.36	31.36	13.84	-27.7	-29.6	14.6	0.00e+00	0	43	102	1048576	15	4504
2026-01-24 23:19:22.36	31.65	14.11	-27.6	-29.4	14.7	0.00e+00	0	43	102	1048576	15	4440
2026-01-24 23:19:25.37	31.94	14.38	-27.7	-29.7	14.6	0.00e+00	0	43	102	1048576	15	4529
2026-01-24 23:19:28.39	32.25	14.66	-27.6	-29.4	14.8	0.00e+00	0	43	102	1048576	15	4434
2026-01-24 23:19:31.41	32.56	14.94	-27.6	-29.5	14.7	0.00e+00	0	43	102	1048576	15	4456
2026-01-24 23:19:34.42	32.87	15.21	-27.6	-29.4	14.8	7.00e-07	0	43	102	1048576	15	4442
2026-01-24 23:19:37.44	33.19	15.50	-27.7	-29.7	14.7	7.00e-07	0	43	102	1048576	15	4509
2026-01-24 23:19:40.45	33.51	15.78	-27.7	-29.7	14.6	0.00e+00	0	43	102	1048576	15	4509
2026-01-24 23:19:43.46	33.84	16.07	-27.8	-29.9	14.6	1.50e-06	0	43	102	1048576	15	4585
2026-01-24 23:19:46.47	34.18	16.36	-27.9	-30.2	14.4	0.00e+00	0	43	102	1048576	15	4655
2026-01-24 23:19:49.47	34.52	16.65	-28.4	-30.7	14.0	0.00e+00	0	43	102	1048576	16	4700
2026-01-24 23:19:52.49	34.87	16.94	-28.1	-29.6	14.4	7.00e-07	0	43	102	1048576	17	4265
2026-01-24 23:19:55.50	35.23	17.24	-28.2	-30.2	14.3	0.00e+00	0	43	102	1048576	16	4546
2026-01-24 23:19:58.50	35.59	17.54	-28.2	-30.2	14.3	7.00e-07	0	44	102	1048576	16	4547
2026-01-24 23:20:01.51	35.96	17.84	-28.3	-30.6	14.1	0.00e+00	0	43	102	1048576	16	4654
2026-01-24 23:20:04.53	36.34	18.15	-27.9	-29.1	14.7	7.00e-07	0	43	102	1048576	17	4126
2026-01-24 23:20:07.55	36.72	18.45	-27.9	-29.4	14.9	0.00e+00	0	43	102	1048576	16	4320
2026-01-24 23:20:10.55	37.11	18.76	-27.8	-29.3	14.9	0.00e+00	0	43	102	1048576	16	4276
2026-01-24 23:20:13.55	37.51	19.07	-27.9	-29.5	14.9	0.00e+00	0	44	102	1048576	16	4325
2026-01-24 23:20:16.57	37.92	19.39	-27.8	-29.4	14.9	7.00e-07	0	43	102	1048576	16	4304
2026-01-24 23:20:19.59	38.34	19.71	-27.6	-28.8	15.2	0.00e+00	0	44	102	1048576	16	4139
2026-01-24 23:20:22.60	38.76	20.03	-27.6	-28.9	15.2	0.00e+00	0	43	102	1048576	16	4159
2026-01-24 23:20:25.62	39.20	20.35	-27.9	-29.4	14.9	8.23e-05	0	44	102	1048576	16	4310
2026-01-24 23:20:28.64	39.64	20.68	-27.5	-28.5	15.4	0.00e+00	0	43	102	1048576	16	4062
2026-01-24 23:20:31.66	40.10	21.01	-27.1	-28.2	15.7	0.00e+00	0	44	102	1048576	15	4105
2026-01-24 23:20:34.67	40.56	21.34	-26.9	-28.4	15.9	0.00e+00	0	44	102	1048576	14	4237
2026-01-24 23:20:37.68	41.03	21.68	-26.9	-28.3	16.0	0.00e+00	0	44	102	1048576	14	4221
2026-01-24 23:20:40.69	41.51	22.01	-26.9	-28.2	16.0	0.00e+00	0	44	102	1048576	14	4183
2026-01-24 23:20:43.69	42.00	22.35	-26.7	-27.8	16.3	0.00e+00	0	44	102	1048576	14	4087
2026-01-24 23:20:46.71	42.50	22.69	-26.8	-27.9	16.2	0.00e+00	0	44	102	1048576	14	4123
2026-01-24 23:20:49.72	43.02	23.03	-26.7	-27.8	16.3	0.00e+00	0	43	102	1048576	14	4096
2026-01-24 23:20:52.74	43.54	23.38	-26.7	-27.9	16.3	0.00e+00	0	43	102	1048576	14	4099
2026-01-24 23:20:55.76	44.08	23.73	-26.7	-27.7	16.4	0.00e+00	0	44	102	1048576	14	4066
2026-01-24 23:20:58.77	44.62	24.08	-26.9	-28.3	16.1	0.00e+00	0	43	102	1048576	14	4205
2026-01-24 23:21:01.78	45.18	24.43	-26.9	-28.3	16.1	0.00e+00	0	44	102	1048576	14	4213
2026-01-24 23:21:04.79	45.75	24.79	-26.9	-28.2	16.2	0.00e+00	0	44	102	1048576	14	4180
2026-01-24 23:21:07.80	46.34	25.14	-26.7	-27.8	16.4	0.00e+00	0	44	102	1048576	14	4068
2026-01-24 23:21:10.81	46.94	25.50	-26.7	-27.9	16.4	0.00e+00	0	44	102	1048576	14	4095
2026-01-24 23:21:13.82	47.55	25.86	-26.8	-28.1	16.2	0.00e+00	0	44	102	1048576	14	4160
2026-01-24 23:21:16.83	48.17	26.22	-27.1	-28.6	16.0	0.00e+00	0	44	102	1048576	14	4309
2026-01-24 23:21:19.83	48.81	26.58	-27.5	-29.5	15.5	0.00e+00	0	44	102	1048576	14	4533
2026-01-24 23:21:22.85	49.46	26.94	-27.5	-29.1	15.4	0.00e+00	0	44	102	1048576	15	4306
2026-01-24 23:21:25.87	50.13	27.31	-27.7	-29.5	15.2	0.00e+00	0	44	102	1048576	15	4443
2026-01-24 23:21:28.88	50.81	27.67	-27.8	-29.8	15.0	0.00e+00	0	44	102	1048576	15	4507
2026-01-24 23:21:31.88	51.51	28.04	-27.3	-28.6	15.7	0.00e+00	0	44	102	1048576	15	4186
2026-01-24 23:21:34.89	52.22	28.40	-27.1	-28.3	15.9	0.00e+00	0	44	102	1048576	15	4099
2026-01-24 23:21:37.89	52.95	28.77	-27.1	-28.7	15.9	0.00e+00	0	44	102	1048576	14	4334
2026-01-24 23:21:40.91	53.70	29.13	-27.2	-28.9	15.8	0.00e+00	0	44	102	1048576	14	4372
2026-01-24 23:21:43.92	54.46	29.50	-27.2	-28.9	15.9	0.00e+00	0	44	102	1048576	14	4368
2026-01-24 23:21:46.92	55.24	29.86	-27.0	-28.4	16.1	0.00e+00	0	44	102	1048576	14	4238
2026-01-24 23:21:49.93	56.04	30.22	-27.3	-29.1	15.7	0.00e+00	0	44	102	1048576	14	4433
2026-01-24 23:21:52.94	56.85	30.59	-27.0	-28.5	16.0	4.04e-05	0	44	102	1048576	14	4277
2026-01-24 23:21:55.95	57.69	30.95	-27.2	-28.9	15.9	1.90e-05	0	44	102	1048576	14	4373
2026-01-24 23:21:58.96	58.54	31.30	-27.3	-29.1	15.8	4.24e-04	0	44	102	1048576	14	4427
2026-01-24 23:22:01.97	59.41	31.66	-27.4	-28.8	15.7	6.79e-04	0	44	102	1048576	15	4240
2026-01-24 23:22:04.97	60.30	32.01	-27.5	-29.0	15.5	0.00e+00	0	44	102	1048576	15	4291
2026-01-24 23:22:07.97	61.20	32.35	-27.7	-29.6	15.2	3.97e-04	0	44	102	1048576	15	4448
2026-01-24 23:22:10.98	62.13	32.70	-28.1	-30.0	14.9	0.00e+00	0	44	102	1048576	16	4449
2026-01-24 23:22:14.00	63.08	33.04	-28.1	-30.0	14.8	0.00e+00	0	44	102	1048576	16	4452
2026-01-24 23:22:17.00	64.05	33.37	-28.3	-30.3	14.7	0.00e+00	0	44	102	1048576	16	4550
2026-01-24 23:22:20.02	65.04	33.71	-28.4	-30.6	14.6	1.50e-06	0	44	102	1048576	16	4631
2026-01-24 23:22:23.04	66.05	34.03	-28.4	-30.5	14.6	0.00e+00	0	44	102	1048576	16	4616
2026-01-24 23:22:26.06	67.08	34.35	-28.5	-30.2	14.5	7.00e-07	0	44	102	1048576	17	4416
2026-01-24 23:22:29.08	68.13	34.66	-28.4	-30.0	14.6	0.00e+00	0	44	102	1048576	17	4350
2026-01-24 23:22:32.10	69.20	34.96	-28.3	-29.8	14.8	0.00e+00	0	44	102	1048576	17	4282
2026-01-24 23:22:35.12	70.29	35.26	-28.3	-29.9	14.7	0.00e+00	0	44	102	1048576	17	4315
2026-01-24 23:22:38.14	71.40	35.54	-28.3	-29.9	14.7	7.00e-07	0	44	102	1048576	17	4320
2026-01-24 23:22:41.15	72.52	35.82	-28.6	-30.7	14.3	1.50e-06	0	44	102	1048576	17	4544
2026-01-24 23:22:44.16	73.66	36.09	-28.8	-31.0	14.0	2.20e-06	0	44	102	1048576	17	4644
2026-01-24 23:22:47.17	74.82	36.34	-28.7	-30.8	14.2	3.80e-06	0	44	102	1048576	17	4582
2026-01-24 23:22:50.18	76.00	36.59	-28.6	-30.4	14.4	7.00e-07	0	44	102	1048576	17	4476
2026-01-24 23:22:53.20	77.20	36.82	-28.7	-30.7	14.3	2.20e-06	0	44	102	1048576	17	4549
2026-01-24 23:22:56.20	78.41	37.04	-28.7	-30.8	14.2	1.50e-06	0	44	102	1048576	17	4566
2026-01-24 23:22:59.21	79.64	37.25	-29.1	-31.2	13.7	5.30e-06	0	44	102	1048576	18	4588
2026-01-24 23:23:02.22	80.88	37.44	-29.3	-31.7	13.4	9.90e-06	0	44	102	1048576	18	4749
2026-01-24 23:23:05.22	82.14	37.62	-29.4	-31.9	13.3	1.60e-05	0	44	102	1048576	18	4815
2026-01-24 23:23:08.23	83.41	37.78	-29.2	-31.5	13.4	1.29e-05	0	44	102	1048576	18	4679
2026-01-24 23:23:11.22	84.68	37.93	-28.1	-30.2	13.6	9.24e-04	0	44	102	1048576	17	4627
2026-01-24 23:23:14.23	85.98	38.07	-28.1	-30.5	13.4	1.52e-02	0	44	102	1048576	17	4740
2026-01-24 23:23:17.22	87.28	38.19	-28.4	-31.1	13.1	1.59e-02	0	44	102	1048576	17	4888
2026-01-24 23:23:20.23	88.59	38.29	-28.1	-30.4	13.5	1.26e-02	0	44	102	1048576	17	4684
2026-01-24 23:23:23.24	89.91	38.38	-28.1	-29.8	14.3	4.55e-04	0	44	102	1048576	17	4409
2026-01-24 23:23:26.25	91.24	38.45	-28.1	-29.8	14.4	6.05e-04	0	44	102	1048576	17	4358
2026-01-24 23:23:29.27	92.58	38.50	-28.2	-29.9	14.4	1.70e-04	0	44	102	1048576	17	4381
2026-01-24 23:23:32.28	93.91	38.54	-28.8	-31.4	13.6	5.11e-05	0	44	102	1048576	17	4842
2026-01-24 23:23:35.29	95.25	38.56	-29.0	-31.3	13.3	2.94e-03	0	44	102	1048576	18	4684
2026-01-24 23:23:38.31	96.60	38.56	-28.8	-30.7	13.5	3.75e-03	0	44	102	1048576	18	4501
2026-01-24 23:23:41.32	97.94	38.54	-28.6	-30.3	14.0	4.32e-04	0	44	102	1048576	18	4348
2026-01-24 23:23:44.34	99.28	38.51	-28.6	-30.1	14.2	1.22e-05	0	44	102	1048576	18	4282
2026-01-24 23:23:47.35	100.62	38.46	-28.8	-30.5	14.1	2.82e-04	0	44	102	1048576	18	4370
2026-01-24 23:23:50.36	101.95	38.39	-28.8	-30.4	14.2	1.14e-05	0	44	102	1048576	18	4349
2026-01-24 23:23:53.37	103.27	38.31	-28.8	-30.5	14.0	2.20e-06	0	44	102	1048576	18	4389
2026-01-24 23:23:56.38	104.59	38.21	-28.6	-30.1	14.2	2.20e-06	0	44	102	1048576	18	4272
2026-01-24 23:23:59.39	105.90	38.09	-28.6	-30.1	14.2	0.00e+00	0	44	102	1048576	18	4272
2026-01-24 23:24:02.40	107.20	37.96	-28.7	-30.3	14.1	7.00e-07	0	44	102	1048576	18	4330
2026-01-24 23:24:05.41	108.48	37.81	-29.0	-30.9	13.8	5.30e-06	0	44	102	1048576	18	4508
2026-01-24 23:24:08.42	109.76	37.65	-28.7	-30.4	14.1	2.20e-06	0	44	102	1048576	18	4355
2026-01-24 23:24:11.43	111.02	37.47	-29.0	-30.9	13.7	5.30e-06	0	44	102	1048576	18	4513
2026-01-24 23:24:14.44	112.27	37.28	-28.8	-30.6	13.9	6.80e-06	0	44	102	1048576	18	4409
2026-01-24 23:24:17.45	113.51	37.08	-28.6	-30.0	14.2	1.50e-06	0	44	102	1048576	18	4250
2026-01-24 23:24:20.46	114.73	36.86	-29.2	-31.4	13.3	1.37e-05	0	44	102	1048576	18	4675
2026-01-24 23:24:23.49	115.94	36.63	-28.3	-29.8	14.6	0.00e+00	0	44	102	1048576	17	4277
2026-01-24 23:24:26.50	117.12	36.38	-27.9	-28.9	15.1	0.00e+00	0	44	102	1048576	17	4049
2026-01-24 23:24:29.50	118.28	36.13	-27.9	-29.0	15.1	0.00e+00	0	44	102	1048576	17	4065
2026-01-24 23:24:32.52	119.44	35.86	-28.0	-29.3	14.9	0.00e+00	0	44	102	1048576	17	4139
2026-01-24 23:24:35.52	120.56	35.59	-28.5	-30.3	14.3	1.50e-06	0	44	102	1048576	17	4444
2026-01-24 23:24:38.53	121.68	35.30	-28.4	-30.1	14.4	7.00e-07	0	44	102	1048576	17	4384
2026-01-24 23:24:41.54	122.77	35.01	-28.1	-29.4	14.8	0.00e+00	0	44	102	1048576	17	4182
2026-01-24 23:24:44.56	123.85	34.71	-28.3	-29.8	14.6	7.00e-07	0	44	102	1048576	17	4290
2026-01-24 23:24:47.56	124.90	34.40	-27.8	-29.2	15.2	0.00e+00	0	44	102	1048576	16	4233
2026-01-24 23:24:50.57	125.93	34.08	-27.6	-28.9	15.3	0.00e+00	0	44	102	1048576	16	4148
2026-01-24 23:24:53.57	126.94	33.76	-27.6	-28.7	15.4	0.00e+00	0	44	102	1048576	16	4112
2026-01-24 23:24:56.59	127.94	33.42	-27.9	-29.6	14.9	0.00e+00	0	44	102	1048576	16	4335
2026-01-24 23:24:59.61	128.92	33.09	-27.8	-29.2	15.1	0.00e+00	0	44	102	1048576	16	4253
2026-01-24 23:25:02.63	129.87	32.75	-27.6	-28.9	15.3	0.00e+00	0	44	102	1048576	16	4157
2026-01-24 23:25:05.64	130.81	32.40	-27.3	-28.1	15.7	0.00e+00	0	44	102	1048576	16	3946
2026-01-24 23:25:08.66	131.73	32.05	-27.6	-28.8	15.3	0.00e+00	0	44	102	1048576	16	4133
2026-01-24 23:25:11.66	132.62	31.70	-27.1	-28.2	15.8	0.00e+00	0	44	102	1048576	15	4089
2026-01-24 23:25:14.69	133.51	31.34	-27.3	-28.6	15.5	0.00e+00	0	44	102	1048576	15	4220
2026-01-24 23:25:17.70	134.36	30.98	-27.6	-29.4	15.1	0.00e+00	0	44	102	1048576	15	4449
2026-01-24 23:25:20.72	135.21	30.62	-27.8	-29.8	14.8	0.00e+00	0	44	102	1048576	15	4557
2026-01-24 23:25:23.73	136.03	30.25	-27.8	-29.8	14.8	7.00e-07	0	44	102	1048576	15	4558
2026-01-24 23:25:26.73	136.83	29.89	-27.8	-29.8	14.8	0.00e+00	0	44	102	1048576	15	4552
2026-01-24 23:25:29.73	137.61	29.52	-27.6	-29.5	15.0	1.50e-06	0	44	102	1048576	15	4455
2026-01-24 23:25:32.75	138.38	29.15	-27.4	-29.0	15.3	0.00e+00	0	44	102	1048576	15	4315
2026-01-24 23:25:35.76	139.14	28.79	-27.1	-28.2	15.7	0.00e+00	0	44	102	1048576	15	4086
2026-01-24 23:25:38.77	139.87	28.42	-27.3	-29.1	15.4	0.00e+00	0	44	102	1048576	14	4459
2026-01-24 23:25:41.78	140.59	28.05	-26.9	-28.2	15.9	0.00e+00	0	44	102	1048576	14	4204
2026-01-24 23:25:44.80	141.30	27.68	-26.8	-28.1	16.0	0.00e+00	0	44	102	1048576	14	4168
2026-01-24 23:25:47.82	141.98	27.31	-26.8	-28.7	15.9	0.00e+00	0	44	102	1048576	13	4453
2026-01-24 23:25:50.83	142.66	26.95	-27.3	-29.3	15.2	0.00e+00	0	44	102	1048576	14	4515
2026-01-24 23:25:53.85	143.32	26.58	-26.9	-28.4	15.7	0.00e+00	0	44	102	1048576	14	4265
2026-01-24 23:25:56.87	143.96	26.21	-26.9	-28.7	15.8	0.00e+00	0	44	102	1048576	13	4455
2026-01-24 23:25:59.89	144.59	25.85	-27.2	-28.9	15.4	0.00e+00	0	44	102	1048576	14	4400
2026-01-24 23:26:02.91	145.21	25.49	-26.8	-28.6	15.8	0.00e+00	0	44	102	1048576	13	4417
2026-01-24 23:26:05.92	145.81	25.13	-27.1	-28.8	15.4	0.00e+00	0	44	102	1048576	14	4374
2026-01-24 23:26:08.95	146.40	24.76	-26.9	-28.9	15.6	0.00e+00	0	44	102	1048576	13	4517
2026-01-24 23:26:11.96	146.97	24.41	-26.5	-27.9	13.8	0.00e+00	0	44	102	1048576	13	4241
2026-01-24 23:26:14.98	147.54	24.05	-26.5	-28.4	16.0	0.00e+00	0	44	102	1048576	12	4501
2026-01-24 23:26:17.98	148.08	23.70	-26.7	-28.4	15.9	0.00e+00	0	44	102	1048576	13	4371
2026-01-24 23:26:20.99	148.62	23.35	-26.9	-28.8	15.6	0.00e+00	0	44	102	1048576	13	4497
2026-01-24 23:26:24.01	149.15	23.00	-27.0	-28.7	15.4	3.89e-03	0	44	102	1048576	14	4360
2026-01-24 23:26:27.03	149.67	22.65	-27.2	-29.1	15.2	0.00e+00	0	44	102	1048576	14	4485
2026-01-24 23:26:30.03	150.17	22.31	-27.0	-28.6	15.4	3.75e-03	0	44	102	1048576	14	4338
2026-01-24 23:26:33.05	150.66	21.97	-27.1	-28.9	15.3	4.03e-03	0	44	102	1048576	14	4402
2026-01-24 23:26:36.05	151.15	21.63	-27.3	-29.2	15.1	3.78e-03	0	44	102	1048576	14	4499
2026-01-24 23:26:39.07	151.62	21.29	-26.8	-28.6	15.6	3.48e-03	0	44	102	1048576	13	4427
2026-01-24 23:26:42.08	152.08	20.96	-26.9	-28.8	15.5	3.91e-03	0	44	102	1048576	13	4506
2026-01-24 23:26:45.08	152.54	20.63	-26.8	-28.6	15.6	3.82e-03	0	44	102	1048576	13	4439
2026-01-24 23:26:48.09	152.98	20.30	-26.9	-28.8	15.4	0.00e+00	0	44	102	1048576	13	4508
2026-01-24 23:26:51.10	153.41	19.97	-26.9	-29.0	15.4	3.91e-03	0	44	102	1048576	13	4569
2026-01-24 23:26:54.11	153.84	19.65	-26.9	-29.0	15.3	0.00e+00	0	44	102	1048576	13	4558
2026-01-24 23:26:57.13	154.26	19.33	-26.8	-28.9	15.4	0.00e+00	0	44	102	1048576	13	4535
2026-01-24 23:27:00.13	154.67	19.01	-27.0	-29.1	15.2	0.00e+00	0	44	102	1048576	13	4629
2026-01-24 23:27:03.13	155.07	18.70	-26.8	-28.7	15.4	0.00e+00	0	44	102	1048576	13	4511
2026-01-24 23:27:06.15	155.46	18.38	-27.1	-28.9	15.1	3.80e-06	0	44	102	1048576	14	4437
2026-01-24 23:27:09.15	155.85	18.07	-26.8	-28.3	15.4	0.00e+00	0	44	102	1048576	14	4258
2026-01-24 23:27:12.16	156.22	17.77	-26.9	-28.9	15.3	9.90e-06	0	44	102	1048576	13	4547
2026-01-24 23:27:15.17	156.59	17.46	-26.9	-29.1	15.2	0.00e+00	0	44	102	1048576	13	4602
2026-01-24 23:27:18.18	156.96	17.16	-27.2	-29.1	14.9	0.00e+00	0	44	102	1048576	14	4500
2026-01-24 23:27:21.19	157.32	16.86	-27.4	-29.5	14.7	9.53e-05	0	44	102	1048576	14	4590
2026-01-24 23:27:24.20	157.67	16.56	-27.5	-29.3	14.5	8.54e-05	0	44	102	1048576	15	4436
2026-01-24 23:27:27.21	158.01	16.27	-27.9	-29.7	14.1	2.44e-05	0	44	102	1048576	16	4422
2026-01-24 23:27:30.23	158.35	15.98	-27.5	-29.7	14.5	1.75e-05	0	44	102	1048576	14	4668
2026-01-24 23:27:33.25	158.68	15.69	-27.6	-29.6	14.2	1.52e-05	0	44	102	1048576	15	4541
2026-01-24 23:27:36.25	159.00	15.40	-27.6	-29.7	14.2	3.73e-05	0	44	102	1048576	15	4541
2026-01-24 23:27:39.26	159.32	15.12	-27.8	-30.1	13.9	5.30e-06	0	44	102	1048576	15	4676
2026-01-24 23:27:42.27	159.63	14.84	-27.7	-29.8	14.1	1.29e-05	0	44	102	1048576	15	4573
2026-01-24 23:27:45.27	159.94	14.56	-27.9	-30.2	13.8	1.50e-06	0	44	102	1048576	15	4715
2026-01-24 23:27:48.29	160.24	14.28	-27.5	-29.4	14.3	7.00e-07	0	44	102	1048576	15	4473
2026-01-24 23:27:51.30	160.54	14.01	-27.5	-30.0	12.3	2.20e-06	0	44	102	1048576	14	4800
2026-01-24 23:27:54.30	160.83	13.74	-27.4	-29.7	14.2	7.00e-07	0	44	102	1048576	14	4717
2026-01-24 23:27:57.31	161.12	13.47	-27.5	-29.6	14.1	7.00e-07	0	44	102	1048576	15	4551
2026-01-24 23:28:00.32	161.40	13.20	-27.7	-29.8	13.9	3.00e-06	0	44	102	1048576	15	4618
2026-01-24 23:28:03.35	161.68	12.93	-27.8	-30.1	13.8	3.81e-03	0	44	102	1048576	15	4693
2026-01-24 23:28:06.36	161.95	12.67	-27.9	-30.3	13.7	6.80e-06	0	44	102	1048576	15	4743
2026-01-24 23:28:09.37	162.21	12.41	-28.1	-30.4	13.4	3.88e-03	0	44	102	1048576	16	4681
2026-01-24 23:28:12.39	162.48	12.15	-28.1	-30.4	13.4	3.78e-03	0	44	102	1048576	16	4674
2026-01-24 23:28:15.40	162.74	11.90	-28.2	-30.5	13.3	3.58e-03	0	44	102	1048576	16	4709
2026-01-24 23:28:18.41	162.99	11.64	-28.1	-30.3	13.4	3.85e-03	0	44	102	1048576	16	4668
2026-01-24 23:28:21.42	163.24	11.39	-27.8	-30.4	13.4	3.79e-03	0	44	102	1048576	15	4820
2026-01-24 23:28:24.43	163.49	11.14	-27.8	-30.4	13.3	3.46e-03	0	44	102	1048576	15	4856
2026-01-24 23:28:27.43	163.73	10.89	-27.8	-30.5	13.3	2.21e-05	0	44	102	1048576	15	4890
2026-01-24 23:28:30.44	163.97	10.65	-27.9	-30.7	13.1	3.79e-03	0	44	102	1048576	15	4978
2026-01-24 23:28:33.45	164.20	10.41	-27.9	-30.6	13.2	2.36e-05	0	44	102	1048576	15	4932
2026-01-24 23:28:36.46	164.43	10.16	-27.8	-30.5	13.3	1.90e-05	0	44	102	1048576	15	4881
2026-01-24 23:28:39.47	164.66	9.93	-28.0	-30.7	13.2	2.13e-05	0	44	102	1048576	15	4917
2026-01-24 23:28:42.48	164.88	9.69	-28.2	-30.6	13.1	2.74e-05	0	44	102	1048576	16	4742
2026-01-24 23:28:45.48	165.10	9.45	-28.2	-30.7	13.0	3.86e-03	0	44	102	1048576	16	4787
2026-01-24 23:28:48.48	165.32	9.22	-28.3	-31.0	12.8	4.42e-05	0	44	102	1048576	16	4913
2026-01-24 23:28:51.49	165.53	8.99	-28.3	-30.9	12.8	7.40e-05	0	44	102	1048576	16	4883
2026-01-24 23:28:54.50	165.74	8.76	-28.3	-31.0	12.8	4.80e-05	0	44	102	1048576	16	4899
2026-01-24 23:28:57.52	165.95	8.53	-28.4	-31.3	12.6	1.27e-04	0	44	102	1048576	16	4997
2026-01-24 23:29:00.53	166.16	8.30	-28.4	-31.3	12.5	1.11e-04	0	44	102	1048576	16	4993
2026-01-24 23:29:03.54	166.36	8.08	-28.5	-31.3	12.5	1.07e-04	0	44	102	1048576	16	5017
2026-01-24 23:29:06.55	166.56	7.86	-28.6	-31.2	12.2	2.14e-04	0	44	102	1048576	17	4857
2026-01-24 23:29:09.57	166.75	7.63	-28.6	-31.1	12.3	1.70e-04	0	44	102	1048576	17	4812
2026-01-24 23:29:12.58	166.94	7.41	-28.7	-31.5	12.0	2.71e-04	0	44	102	1048576	17	4945
2026-01-24 23:29:15.59	167.13	7.20	-32.2	-44.3	3.8	1.49e+00	0	44	104	1048576	24	14535
2026-01-24 23:29:18.59	167.32	6.98	-31.7	-44.3	3.8	1.49e+00	0	44	104	1048576	24	15368

#Closed at: 2026-01-24 23:29:20
#Recorded file [1 MB]: D:/data/31010_260125_021756.dat