passes_logs/2026/01/24/R2M6_AANII_01/R2M6_AANII_01__20260124_024409_FENGYUN_3D_rec.log

#Pass ID: 20260124_024409_FENGYUN 3D
#Satellite: FENGYUN 3D
#Configuration: FENGYUN 3D
#almurnet v.1.7.20240730
#Start time: 2026-01-24 02:44:11

#Version: 2.2.20231116
#Station: R2M6_AANII_01
#Location: 30.233357 lon 59.946436 lat
#TLE: 1 43010U 17072A   26022.96745493  .00000490  00000+0  25355-3 0  9999
#TLE: 2 43010  98.9955 354.9072 0002484  95.6139 264.5320 14.19700039424383

#Time	Az	El	Level	Level2	SNR	BER	BlckErr	Temp	State	Recorded	gain1	gain2
2026-01-24 02:44:11.13	17.17	7.15	-30.8	-34.9	5.1	8.00e-01	0	41	0	0	21	5788
2026-01-24 02:44:14.14	17.13	7.38	-30.6	-34.4	8.7	5.40e-02	0	41	102	1048576	21	5529
2026-01-24 02:44:17.15	17.09	7.62	-29.7	-32.6	10.7	5.53e-03	0	42	102	1048576	19	5042
2026-01-24 02:44:20.17	17.06	7.86	-29.0	-31.2	12.1	3.88e-04	0	42	102	1048576	18	4653
2026-01-24 02:44:23.18	17.02	8.10	-28.7	-31.1	12.4	2.67e-04	0	42	102	1048576	17	4733
2026-01-24 02:44:26.19	16.98	8.34	-28.0	-30.0	13.4	9.21e-04	0	42	102	1048576	16	4491
2026-01-24 02:44:29.21	16.94	8.58	-27.4	-29.4	14.2	3.40e-06	0	42	102	1048576	14	4575
2026-01-24 02:44:32.21	16.90	8.83	-27.5	-29.6	14.0	2.20e-06	0	42	102	1048576	14	4630
2026-01-24 02:44:35.22	16.86	9.08	-27.2	-28.9	14.5	0.00e+00	0	42	102	1048576	14	4426
2026-01-24 02:44:38.24	16.81	9.33	-27.0	-28.5	14.8	0.00e+00	0	42	102	1048576	14	4304
2026-01-24 02:44:41.26	16.77	9.59	-27.2	-29.0	14.5	0.00e+00	0	42	102	1048576	14	4443
2026-01-24 02:44:44.26	16.73	9.84	-26.9	-28.8	14.9	0.00e+00	0	43	102	1048576	13	4486
2026-01-24 02:44:47.26	16.68	10.10	-26.7	-28.5	15.1	0.00e+00	0	43	102	1048576	13	4402
2026-01-24 02:44:50.27	16.63	10.36	-26.6	-28.1	15.3	0.00e+00	0	43	102	1048576	13	4302
2026-01-24 02:44:53.29	16.58	10.63	-26.6	-28.2	15.3	0.00e+00	0	43	102	1048576	13	4334
2026-01-24 02:44:56.30	16.54	10.90	-26.5	-27.9	15.5	0.00e+00	0	43	102	1048576	13	4249
2026-01-24 02:44:59.31	16.49	11.17	-26.5	-28.0	15.4	0.00e+00	0	43	102	1048576	13	4282
2026-01-24 02:45:02.32	16.43	11.44	-26.4	-28.2	15.6	0.00e+00	0	43	102	1048576	12	4433
2026-01-24 02:45:05.33	16.38	11.72	-26.4	-28.3	15.6	0.00e+00	0	43	102	1048576	12	4447
2026-01-24 02:45:08.34	16.33	12.00	-26.3	-28.1	15.7	0.00e+00	0	43	102	1048576	12	4397
2026-01-24 02:45:11.35	16.27	12.28	-26.4	-28.3	15.6	0.00e+00	0	43	102	1048576	12	4445
2026-01-24 02:45:14.37	16.22	12.57	-26.4	-27.7	15.6	0.00e+00	0	43	102	1048576	13	4198
2026-01-24 02:45:17.38	16.16	12.86	-26.3	-28.0	15.8	0.00e+00	0	43	102	1048576	12	4385
2026-01-24 02:45:20.39	16.10	13.15	-26.3	-28.0	15.8	0.00e+00	0	43	102	1048576	12	4377
2026-01-24 02:45:23.39	16.04	13.45	-26.3	-27.9	15.8	0.00e+00	0	43	102	1048576	12	4360
2026-01-24 02:45:26.40	15.98	13.75	-26.2	-27.8	15.9	0.00e+00	0	43	102	1048576	12	4334
2026-01-24 02:45:29.42	15.92	14.05	-26.1	-27.6	16.1	0.00e+00	0	43	102	1048576	12	4264
2026-01-24 02:45:32.44	15.85	14.36	-26.2	-27.8	16.0	0.00e+00	0	43	102	1048576	12	4316
2026-01-24 02:45:35.45	15.78	14.68	-26.2	-27.8	16.0	0.00e+00	0	43	102	1048576	12	4325
2026-01-24 02:45:38.46	15.72	14.99	-26.2	-27.7	16.0	0.00e+00	0	43	102	1048576	12	4293
2026-01-24 02:45:41.48	15.64	15.31	-25.9	-27.5	16.5	0.00e+00	0	43	102	1048576	11	4344
2026-01-24 02:45:44.48	15.57	15.64	-25.7	-27.1	16.7	0.00e+00	0	43	102	1048576	11	4243
2026-01-24 02:45:47.50	15.50	15.97	-25.6	-27.0	16.8	0.00e+00	0	43	102	1048576	11	4201
2026-01-24 02:45:50.51	15.42	16.30	-25.5	-26.7	17.0	0.00e+00	0	43	102	1048576	11	4142
2026-01-24 02:45:53.52	15.35	16.64	-25.4	-26.5	17.1	0.00e+00	0	44	102	1048576	11	4079
2026-01-24 02:45:56.52	15.27	16.98	-25.2	-26.6	17.3	0.00e+00	0	43	102	1048576	10	4228
2026-01-24 02:45:59.53	15.18	17.33	-25.2	-26.5	17.4	0.00e+00	0	43	102	1048576	10	4202
2026-01-24 02:46:02.54	15.10	17.68	-25.1	-26.4	17.5	0.00e+00	0	43	102	1048576	10	4169
2026-01-24 02:46:05.54	15.01	18.03	-25.1	-26.3	17.5	0.00e+00	0	44	102	1048576	10	4149
2026-01-24 02:46:08.56	14.93	18.40	-25.1	-26.3	17.6	0.00e+00	0	43	102	1048576	10	4126
2026-01-24 02:46:11.56	14.84	18.76	-25.1	-26.3	17.6	0.00e+00	0	43	102	1048576	10	4128
2026-01-24 02:46:14.58	14.74	19.14	-24.9	-25.9	17.8	0.00e+00	0	44	102	1048576	10	4029
2026-01-24 02:46:17.58	14.65	19.52	-24.9	-26.4	17.8	0.00e+00	0	43	102	1048576	9	4278
2026-01-24 02:46:20.60	14.55	19.90	-25.1	-26.3	17.6	0.00e+00	0	44	102	1048576	10	4149
2026-01-24 02:46:23.60	14.44	20.29	-25.2	-26.0	17.5	0.00e+00	0	43	102	1048576	11	3955
2026-01-24 02:46:26.62	14.34	20.69	-25.0	-26.1	17.7	0.00e+00	0	43	102	1048576	10	4101
2026-01-24 02:46:29.63	14.23	21.09	-24.7	-25.6	18.0	0.00e+00	0	44	102	1048576	10	3960
2026-01-24 02:46:32.63	14.12	21.50	-24.4	-25.4	18.3	0.00e+00	0	44	102	1048576	9	4033
2026-01-24 02:46:35.65	14.01	21.92	-24.3	-25.2	18.4	0.00e+00	0	43	102	1048576	9	3984
2026-01-24 02:46:38.67	13.89	22.34	-24.2	-25.5	18.5	0.00e+00	0	44	102	1048576	8	4165
2026-01-24 02:46:41.68	13.77	22.77	-24.1	-25.3	18.7	0.00e+00	0	44	102	1048576	8	4102
2026-01-24 02:46:44.69	13.64	23.21	-24.0	-25.0	18.9	0.00e+00	0	44	102	1048576	8	4029
2026-01-24 02:46:47.70	13.51	23.66	-23.9	-24.9	18.9	0.00e+00	0	44	102	1048576	8	4010
2026-01-24 02:46:50.72	13.38	24.11	-24.2	-25.5	18.6	6.69e-04	0	44	102	1048576	8	4169
2026-01-24 02:46:53.73	13.24	24.57	-24.3	-25.6	18.5	6.81e-04	0	44	102	1048576	8	4193
2026-01-24 02:46:56.75	13.10	25.04	-24.4	-25.3	18.4	0.00e+00	0	44	102	1048576	9	4013
2026-01-24 02:46:59.76	12.95	25.51	-24.1	-25.3	18.7	6.87e-04	0	44	102	1048576	8	4116
2026-01-24 02:47:02.76	12.80	26.00	-24.0	-25.1	18.9	6.42e-04	0	44	102	1048576	8	4062
2026-01-24 02:47:05.77	12.64	26.49	-23.9	-24.8	19.0	6.12e-04	0	44	102	1048576	8	3991
2026-01-24 02:47:08.79	12.48	27.00	-23.9	-24.7	19.1	6.02e-04	0	44	102	1048576	8	3973
2026-01-24 02:47:11.80	12.31	27.51	-23.8	-25.0	19.2	5.37e-04	0	44	102	1048576	7	4162
2026-01-24 02:47:14.82	12.14	28.03	-23.8	-25.0	19.1	4.26e-04	0	44	102	1048576	7	4162
2026-01-24 02:47:17.83	11.96	28.56	-23.9	-25.3	19.1	0.00e+00	0	44	102	1048576	7	4230
2026-01-24 02:47:20.84	11.78	29.10	-23.9	-25.3	19.0	0.00e+00	0	44	102	1048576	7	4218
2026-01-24 02:47:23.84	11.58	29.65	-24.3	-25.5	18.7	5.78e-04	0	44	102	1048576	8	4169
2026-01-24 02:47:26.86	11.38	30.21	-24.1	-25.1	18.9	0.00e+00	0	44	102	1048576	8	4069
2026-01-24 02:47:29.88	11.17	30.79	-23.8	-24.6	19.2	0.00e+00	0	44	102	1048576	8	3956
2026-01-24 02:47:32.87	10.96	31.37	-23.4	-24.3	19.6	0.00e+00	0	44	102	1048576	7	3966
2026-01-24 02:47:35.88	10.74	31.96	-23.1	-24.1	19.9	0.00e+00	0	44	102	1048576	6	4044
2026-01-24 02:47:38.89	10.50	32.57	-23.1	-24.0	20.0	0.00e+00	0	44	102	1048576	6	4025
2026-01-24 02:47:41.91	10.26	33.19	-23.1	-24.1	20.0	0.00e+00	0	44	102	1048576	6	4038
2026-01-24 02:47:44.92	10.01	33.82	-23.3	-24.5	19.8	0.00e+00	0	44	102	1048576	6	4136
2026-01-24 02:47:47.93	9.74	34.47	-23.2	-24.4	19.8	0.00e+00	0	44	102	1048576	6	4111
2026-01-24 02:47:50.94	9.47	35.12	-22.6	-23.6	20.5	0.00e+00	0	44	102	1048576	5	4029
2026-01-24 02:47:53.94	9.19	35.79	-22.6	-23.6	20.5	0.00e+00	0	44	102	1048576	5	4021
2026-01-24 02:47:56.96	8.89	36.47	-23.1	-24.1	20.0	0.00e+00	0	44	102	1048576	6	4038
2026-01-24 02:47:59.98	8.57	37.17	-23.1	-24.1	20.0	0.00e+00	0	44	102	1048576	6	4032
2026-01-24 02:48:02.99	8.25	37.88	-23.0	-23.8	20.2	0.00e+00	0	44	102	1048576	6	3969
2026-01-24 02:48:06.01	7.91	38.61	-23.4	-24.7	19.7	0.00e+00	0	44	102	1048576	6	4182
2026-01-24 02:48:09.02	7.55	39.35	-22.5	-23.5	19.9	0.00e+00	0	44	102	1048576	6	4042
2026-01-24 02:48:12.02	7.18	40.10	-23.2	-24.3	19.9	0.00e+00	0	44	102	1048576	6	4078
2026-01-24 02:48:15.03	6.78	40.87	-23.6	-24.7	19.5	0.00e+00	0	44	102	1048576	7	4074
2026-01-24 02:48:18.04	6.37	41.65	-23.7	-24.8	19.5	0.00e+00	0	44	102	1048576	7	4097
2026-01-24 02:48:21.06	5.93	42.46	-23.7	-24.8	19.5	6.00e-04	0	44	102	1048576	7	4095
2026-01-24 02:48:24.07	5.48	43.27	-23.7	-24.9	19.4	5.55e-04	0	44	102	1048576	7	4124
2026-01-24 02:48:27.08	4.99	44.10	-23.9	-25.2	19.3	0.00e+00	0	44	102	1048576	7	4186
2026-01-24 02:48:30.08	4.49	44.95	-24.1	-25.1	19.1	1.90e-04	0	44	102	1048576	8	4054
2026-01-24 02:48:33.09	3.95	45.81	-23.8	-24.6	19.4	9.95e-05	0	44	102	1048576	8	3943
2026-01-24 02:48:36.10	3.38	46.69	-23.5	-24.0	19.7	2.97e-05	0	44	102	1048576	8	3791
2026-01-24 02:48:39.11	2.78	47.58	-23.7	-24.4	19.5	7.66e-05	0	44	102	1048576	8	3895
2026-01-24 02:48:42.11	2.14	48.49	-23.7	-24.4	19.5	1.37e-04	0	44	102	1048576	8	3886
2026-01-24 02:48:45.12	1.47	49.41	-23.7	-24.4	19.5	1.17e-04	0	44	102	1048576	8	3888
2026-01-24 02:48:48.13	0.74	50.35	-24.1	-25.1	19.2	0.00e+00	0	44	102	1048576	8	4058
2026-01-24 02:48:51.15	359.97	51.31	-24.7	-26.0	18.5	0.00e+00	0	44	102	1048576	9	4177
2026-01-24 02:48:54.17	359.15	52.28	-24.5	-25.5	18.8	6.06e-05	0	44	102	1048576	9	4029
2026-01-24 02:48:57.18	358.27	53.26	-24.6	-25.8	18.6	0.00e+00	0	44	102	1048576	9	4119
2026-01-24 02:49:00.18	357.34	54.25	-24.5	-25.5	18.7	0.00e+00	0	44	102	1048576	9	4041
2026-01-24 02:49:03.18	356.33	55.24	-24.4	-25.4	18.8	0.00e+00	0	44	102	1048576	9	4015
2026-01-24 02:49:06.20	355.24	56.26	-24.0	-24.4	19.3	0.00e+00	0	44	102	1048576	9	3774
2026-01-24 02:49:09.22	354.07	57.28	-24.1	-24.6	19.2	0.00e+00	0	44	102	1048576	9	3834
2026-01-24 02:49:12.24	352.81	58.31	-23.5	-24.0	19.8	0.00e+00	0	44	102	1048576	8	3792
2026-01-24 02:49:15.24	351.46	59.34	-23.6	-24.1	19.6	0.00e+00	0	44	102	1048576	8	3828
2026-01-24 02:49:18.25	349.98	60.37	-23.7	-24.3	19.6	0.00e+00	0	44	102	1048576	8	3873
2026-01-24 02:49:21.26	348.38	61.40	-23.6	-24.0	19.8	0.00e+00	0	44	102	1048576	8	3797
2026-01-24 02:49:24.27	346.65	62.43	-23.7	-24.4	19.6	0.00e+00	0	44	102	1048576	8	3893
2026-01-24 02:49:27.29	344.75	63.45	-23.5	-24.5	19.8	0.00e+00	0	44	102	1048576	7	4026
2026-01-24 02:49:30.30	342.69	64.45	-23.4	-24.2	19.9	0.00e+00	0	44	102	1048576	7	3959
2026-01-24 02:49:33.31	340.44	65.43	-23.1	-23.5	20.3	0.00e+00	0	44	102	1048576	7	3790
2026-01-24 02:49:36.31	337.99	66.38	-22.6	-23.0	20.7	0.00e+00	0	44	102	1048576	6	3791
2026-01-24 02:49:39.33	335.30	67.31	-22.4	-23.2	20.9	0.00e+00	0	44	102	1048576	5	3932
2026-01-24 02:49:42.34	332.38	68.19	-22.1	-22.5	21.2	0.00e+00	0	44	102	1048576	5	3783
2026-01-24 02:49:45.35	329.19	69.03	-22.1	-22.6	21.2	0.00e+00	0	44	102	1048576	5	3793
2026-01-24 02:49:48.36	325.72	69.80	-22.3	-23.0	21.0	0.00e+00	0	44	102	1048576	5	3894
2026-01-24 02:49:51.35	322.00	70.51	-22.3	-22.9	21.1	0.00e+00	0	44	102	1048576	5	3855
2026-01-24 02:49:54.37	317.95	71.14	-22.3	-23.0	21.0	0.00e+00	0	44	102	1048576	5	3885
2026-01-24 02:49:57.37	313.66	71.67	-22.1	-22.5	21.3	0.00e+00	0	44	102	1048576	5	3777
2026-01-24 02:50:00.38	309.10	72.10	-22.0	-22.3	21.4	0.00e+00	0	44	102	1048576	5	3724
2026-01-24 02:50:03.38	304.35	72.43	-22.3	-22.9	21.0	0.00e+00	0	44	102	1048576	5	3872
2026-01-24 02:50:06.38	299.45	72.63	-22.3	-23.6	20.9	0.00e+00	0	44	102	1048576	4	4137
2026-01-24 02:50:09.38	294.46	72.71	-22.3	-23.3	21.0	0.00e+00	0	44	102	1048576	4	4081
2026-01-24 02:50:12.39	289.45	72.66	-22.3	-23.4	21.0	0.00e+00	0	44	102	1048576	4	4106
2026-01-24 02:50:15.41	284.48	72.49	-22.3	-23.0	20.9	0.00e+00	0	44	102	1048576	5	3894
2026-01-24 02:50:18.43	279.66	72.20	-22.4	-23.1	20.8	0.00e+00	0	44	102	1048576	5	3911
2026-01-24 02:50:21.43	275.05	71.79	-22.1	-22.6	21.1	0.00e+00	0	44	102	1048576	5	3796
2026-01-24 02:50:24.44	270.68	71.28	-22.4	-23.6	20.8	0.00e+00	0	44	102	1048576	4	4139
2026-01-24 02:50:27.44	266.58	70.68	-22.0	-22.8	21.2	0.00e+00	0	44	102	1048576	4	3944
2026-01-24 02:50:30.45	262.75	69.99	-22.0	-22.9	21.1	0.00e+00	0	44	102	1048576	4	3975
2026-01-24 02:50:33.47	259.20	69.23	-22.0	-22.8	21.2	0.00e+00	0	44	102	1048576	4	3953
2026-01-24 02:50:36.48	255.94	68.40	-22.0	-22.8	21.1	0.00e+00	0	44	102	1048576	4	3956
2026-01-24 02:50:39.48	252.96	67.53	-22.3	-23.5	20.8	0.00e+00	0	44	102	1048576	4	4113
2026-01-24 02:50:42.49	250.21	66.62	-21.9	-22.5	21.3	0.00e+00	0	44	102	1048576	4	3879
2026-01-24 02:50:45.51	247.69	65.66	-22.8	-24.0	20.3	0.00e+00	0	44	102	1048576	5	4137
2026-01-24 02:50:48.52	245.39	64.68	-23.1	-24.2	20.0	0.00e+00	0	44	102	1048576	6	4067
2026-01-24 02:50:51.53	243.28	63.68	-23.7	-24.9	19.3	0.00e+00	0	44	102	1048576	7	4112
2026-01-24 02:50:54.54	241.35	62.67	-22.6	-23.1	20.5	0.00e+00	0	44	102	1048576	6	3808
2026-01-24 02:50:57.55	239.57	61.64	-22.7	-23.9	20.3	0.00e+00	0	44	102	1048576	5	4096
2026-01-24 02:51:00.57	237.93	60.61	-23.3	-24.5	19.7	0.00e+00	0	44	102	1048576	6	4148
2026-01-24 02:51:03.58	236.43	59.57	-23.8	-25.2	19.1	0.00e+00	0	44	102	1048576	7	4197
2026-01-24 02:51:06.59	235.04	58.54	-23.4	-24.2	19.6	0.00e+00	0	44	102	1048576	7	3957
2026-01-24 02:51:09.61	233.75	57.51	-23.1	-24.1	19.9	0.00e+00	0	44	102	1048576	6	4050
2026-01-24 02:51:12.62	232.56	56.48	-23.3	-24.6	19.7	0.00e+00	0	44	102	1048576	6	4149
2026-01-24 02:51:15.64	231.45	55.46	-23.8	-25.1	19.1	0.00e+00	0	44	102	1048576	7	4183
2026-01-24 02:51:18.65	230.42	54.45	-24.3	-25.7	18.6	0.00e+00	0	44	102	1048576	8	4197
2026-01-24 02:51:21.66	229.47	53.46	-23.6	-24.7	19.3	6.42e-04	0	44	102	1048576	7	4080
2026-01-24 02:51:24.68	228.57	52.47	-23.6	-24.6	19.3	0.00e+00	0	44	102	1048576	7	4057
2026-01-24 02:51:27.69	227.73	51.49	-23.7	-24.9	19.2	5.54e-04	0	44	102	1048576	7	4118
2026-01-24 02:51:30.70	226.95	50.53	-23.9	-25.3	19.0	3.18e-04	0	44	102	1048576	7	4233
2026-01-24 02:51:33.71	226.22	49.59	-23.0	-23.8	20.0	2.71e-04	0	44	102	1048576	6	3965
2026-01-24 02:51:36.71	225.53	48.66	-23.2	-24.3	19.7	0.00e+00	0	44	102	1048576	6	4082
2026-01-24 02:51:39.72	224.88	47.75	-22.9	-23.8	20.0	2.52e-04	0	44	102	1048576	6	3963
2026-01-24 02:51:42.74	224.27	46.84	-23.0	-23.8	20.0	1.89e-04	0	44	102	1048576	6	3986
2026-01-24 02:51:45.75	223.69	45.96	-22.9	-23.7	20.0	1.26e-04	0	44	102	1048576	6	3936
2026-01-24 02:51:48.76	223.14	45.09	-22.8	-23.5	20.1	2.32e-04	0	44	102	1048576	6	3893
2026-01-24 02:51:51.77	222.63	44.24	-23.1	-24.1	19.8	2.37e-04	0	44	102	1048576	6	4053
2026-01-24 02:51:54.79	222.14	43.39	-23.1	-24.1	19.8	0.00e+00	0	44	102	1048576	6	4037
2026-01-24 02:51:57.80	221.67	42.57	-23.3	-24.5	19.6	0.00e+00	0	44	102	1048576	6	4145
2026-01-24 02:52:00.81	221.23	41.77	-22.8	-24.0	20.0	0.00e+00	0	44	102	1048576	5	4143
2026-01-24 02:52:03.82	220.81	40.98	-22.7	-23.8	20.1	2.85e-04	0	44	102	1048576	5	4086
2026-01-24 02:52:06.82	220.42	40.20	-22.3	-22.9	20.6	0.00e+00	0	44	102	1048576	5	3875
2026-01-24 02:52:09.83	220.04	39.44	-22.3	-23.0	20.5	0.00e+00	0	44	102	1048576	5	3894
2026-01-24 02:52:12.84	219.67	38.70	-22.7	-23.9	20.1	0.00e+00	0	44	102	1048576	5	4112
2026-01-24 02:52:15.85	219.33	37.97	-22.1	-22.7	20.7	0.00e+00	0	44	102	1048576	5	3817
2026-01-24 02:52:18.86	219.00	37.25	-22.2	-22.7	20.7	0.00e+00	0	44	102	1048576	5	3828
2026-01-24 02:52:21.86	218.68	36.55	-22.3	-23.0	20.5	0.00e+00	0	44	102	1048576	5	3903
2026-01-24 02:52:24.88	218.38	35.86	-22.6	-23.6	20.2	0.00e+00	0	44	102	1048576	5	4025
2026-01-24 02:52:27.90	218.09	35.18	-22.7	-23.7	20.1	0.00e+00	0	44	102	1048576	5	4063
2026-01-24 02:52:30.91	217.81	34.52	-22.8	-24.1	20.0	0.00e+00	0	44	102	1048576	5	4155
2026-01-24 02:52:33.92	217.54	33.87	-23.0	-24.3	19.8	0.00e+00	0	44	102	1048576	5	4218
2026-01-24 02:52:36.93	217.29	33.24	-23.2	-24.3	19.6	0.00e+00	0	44	102	1048576	6	4087
2026-01-24 02:52:39.94	217.04	32.61	-23.1	-24.0	19.7	0.00e+00	0	44	102	1048576	6	4033
2026-01-24 02:52:42.95	216.80	32.00	-23.0	-24.0	19.8	0.00e+00	0	44	102	1048576	6	4022
2026-01-24 02:52:45.96	216.58	31.40	-23.2	-24.3	19.5	0.00e+00	0	44	102	1048576	6	4103
2026-01-24 02:52:48.97	216.36	30.82	-23.2	-24.4	19.5	0.00e+00	0	44	102	1048576	6	4118
2026-01-24 02:52:51.97	216.15	30.24	-23.2	-24.3	19.6	0.00e+00	0	44	102	1048576	6	4088
2026-01-24 02:52:54.98	215.94	29.67	-22.9	-23.7	19.8	0.00e+00	0	44	102	1048576	6	3956
2026-01-24 02:52:58.00	215.75	29.12	-22.9	-23.7	19.8	3.10e-04	0	44	102	1048576	6	3938
2026-01-24 02:53:01.01	215.56	28.57	-23.1	-24.0	19.7	6.33e-04	0	44	102	1048576	6	4028
2026-01-24 02:53:04.03	215.37	28.04	-23.1	-24.2	19.6	0.00e+00	0	44	102	1048576	6	4073
2026-01-24 02:53:07.04	215.20	27.51	-23.2	-24.4	19.5	8.17e-04	0	44	102	1048576	6	4115
2026-01-24 02:53:10.05	215.03	27.00	-23.0	-23.9	19.7	8.59e-04	0	44	102	1048576	6	4002
2026-01-24 02:53:13.07	214.86	26.49	-22.8	-24.1	19.8	8.80e-04	0	44	102	1048576	5	4151
2026-01-24 02:53:16.09	214.70	25.99	-22.9	-24.1	19.8	7.78e-05	0	44	102	1048576	5	4167
2026-01-24 02:53:19.09	214.55	25.50	-23.0	-24.0	19.6	8.39e-04	0	44	102	1048576	6	4019
2026-01-24 02:53:22.11	214.40	25.02	-23.3	-24.6	19.3	7.19e-04	0	44	102	1048576	6	4171
2026-01-24 02:53:25.11	214.25	24.55	-23.5	-24.9	19.1	0.00e+00	0	44	102	1048576	6	4261
2026-01-24 02:53:28.11	214.12	24.09	-23.6	-24.8	18.9	0.00e+00	0	44	102	1048576	7	4110
2026-01-24 02:53:31.13	213.98	23.63	-23.6	-24.7	19.0	7.62e-04	0	44	102	1048576	7	4083
2026-01-24 02:53:34.15	213.85	23.18	-23.5	-24.4	19.1	0.00e+00	0	44	102	1048576	7	4021
2026-01-24 02:53:37.17	213.72	22.74	-23.4	-24.3	19.2	0.00e+00	0	44	102	1048576	7	3987
2026-01-24 02:53:40.19	213.59	22.31	-23.6	-24.6	19.0	0.00e+00	0	44	102	1048576	7	4065
2026-01-24 02:53:43.20	213.47	21.88	-23.6	-24.7	18.9	0.00e+00	0	44	102	1048576	7	4096
2026-01-24 02:53:46.21	213.36	21.46	-23.8	-25.1	18.7	0.00e+00	0	44	102	1048576	7	4177
2026-01-24 02:53:49.22	213.24	21.05	-23.7	-25.0	18.7	0.00e+00	0	44	102	1048576	7	4164
2026-01-24 02:53:52.23	213.13	20.65	-23.8	-25.2	18.6	0.00e+00	0	44	102	1048576	7	4212
2026-01-24 02:53:55.24	213.03	20.25	-24.4	-25.8	18.1	0.00e+00	0	44	102	1048576	8	4237
2026-01-24 02:53:58.25	212.92	19.85	-24.1	-25.3	18.3	0.00e+00	0	44	102	1048576	8	4119
2026-01-24 02:54:01.27	212.82	19.46	-24.2	-25.5	18.2	0.00e+00	0	44	102	1048576	8	4174
2026-01-24 02:54:04.28	212.72	19.08	-24.4	-25.8	18.0	0.00e+00	0	44	102	1048576	8	4249
2026-01-24 02:54:07.30	212.62	18.71	-24.5	-25.6	17.9	0.00e+00	0	44	102	1048576	9	4093
2026-01-24 02:54:10.33	212.53	18.33	-24.6	-25.7	17.8	0.00e+00	0	44	102	1048576	9	4123
2026-01-24 02:54:13.33	212.44	17.97	-24.8	-26.2	17.5	0.00e+00	0	44	102	1048576	9	4235
2026-01-24 02:54:16.33	212.35	17.61	-24.8	-26.2	17.5	0.00e+00	0	44	102	1048576	9	4245
2026-01-24 02:54:19.34	212.26	17.26	-24.9	-26.4	17.4	0.00e+00	0	44	102	1048576	9	4298
2026-01-24 02:54:22.36	212.18	16.91	-25.1	-26.4	17.2	0.00e+00	0	44	102	1048576	10	4169
2026-01-24 02:54:25.37	212.10	16.56	-25.2	-26.1	17.0	0.00e+00	0	44	102	1048576	11	4007
2026-01-24 02:54:28.38	212.02	16.22	-25.1	-25.8	17.1	0.00e+00	0	44	102	1048576	11	3935
2026-01-24 02:54:31.38	211.94	15.89	-25.2	-26.1	17.0	0.00e+00	0	44	102	1048576	11	4007
2026-01-24 02:54:34.40	211.86	15.56	-25.2	-26.7	16.9	0.00e+00	0	44	102	1048576	10	4277
2026-01-24 02:54:37.41	211.79	15.23	-25.6	-27.1	16.4	0.00e+00	0	44	102	1048576	11	4248
2026-01-24 02:54:40.42	211.72	14.91	-25.5	-26.9	16.5	0.00e+00	0	44	102	1048576	11	4198
2026-01-24 02:54:43.44	211.64	14.59	-25.7	-27.2	16.3	0.00e+00	0	44	102	1048576	11	4282
2026-01-24 02:54:46.45	211.57	14.28	-25.5	-26.9	16.5	0.00e+00	0	44	102	1048576	11	4198
2026-01-24 02:54:49.47	211.51	13.97	-25.6	-27.0	16.4	0.00e+00	0	44	102	1048576	11	4244
2026-01-24 02:54:52.47	211.44	13.66	-25.6	-26.9	16.4	0.00e+00	0	44	102	1048576	11	4206
2026-01-24 02:54:55.49	211.38	13.36	-25.6	-27.0	16.3	0.00e+00	0	44	102	1048576	11	4239
2026-01-24 02:54:58.51	211.31	13.06	-25.6	-26.9	16.4	0.00e+00	0	44	102	1048576	11	4202
2026-01-24 02:55:01.53	211.25	12.76	-25.6	-26.9	16.4	0.00e+00	0	44	102	1048576	11	4209
2026-01-24 02:55:04.53	211.19	12.47	-25.5	-26.9	16.4	0.00e+00	0	44	102	1048576	11	4190
2026-01-24 02:55:07.55	211.13	12.19	-25.7	-27.1	16.2	0.00e+00	0	44	102	1048576	11	4264
2026-01-24 02:55:10.57	211.07	11.90	-25.8	-27.4	16.1	0.00e+00	0	44	102	1048576	11	4336
2026-01-24 02:55:13.59	211.02	11.62	-25.8	-27.4	16.0	0.00e+00	0	44	102	1048576	11	4324
2026-01-24 02:55:16.61	210.96	11.34	-25.8	-27.3	16.0	0.00e+00	0	44	102	1048576	11	4323
2026-01-24 02:55:19.62	210.91	11.06	-25.9	-27.7	15.8	0.00e+00	0	44	102	1048576	11	4426
2026-01-24 02:55:22.63	210.86	10.79	-25.8	-27.0	15.8	0.00e+00	0	44	102	1048576	12	4136
2026-01-24 02:55:25.65	210.80	10.52	-25.9	-27.2	15.7	0.00e+00	0	44	102	1048576	12	4180
2026-01-24 02:55:28.67	210.75	10.25	-26.0	-27.4	15.6	0.00e+00	0	44	102	1048576	12	4241
2026-01-24 02:55:31.68	210.70	9.99	-26.2	-27.8	15.4	0.00e+00	0	44	102	1048576	12	4335
2026-01-24 02:55:34.69	210.66	9.73	-26.2	-27.9	15.3	0.00e+00	0	44	102	1048576	12	4367
2026-01-24 02:55:37.69	210.61	9.47	-26.3	-28.1	15.2	0.00e+00	0	44	102	1048576	12	4439
2026-01-24 02:55:40.70	210.56	9.22	-26.4	-28.2	15.1	0.00e+00	0	44	102	1048576	12	4474
2026-01-24 02:55:43.71	210.52	8.97	-26.4	-28.3	15.0	1.10e-06	0	44	102	1048576	12	4499
2026-01-24 02:55:46.73	210.47	8.72	-26.7	-28.4	14.6	0.00e+00	0	44	102	1048576	13	4417
2026-01-24 02:55:49.74	210.43	8.47	-26.8	-28.7	14.4	2.20e-06	0	44	102	1048576	13	4494
2026-01-24 02:55:52.74	210.38	8.22	-26.9	-28.9	14.3	0.00e+00	0	44	102	1048576	13	4545
2026-01-24 02:55:55.75	210.34	7.98	-26.8	-28.7	14.4	2.20e-06	0	44	102	1048576	13	4503
2026-01-24 02:55:58.77	210.30	7.74	-27.0	-29.2	14.1	1.10e-06	0	44	102	1048576	13	4651
2026-01-24 02:56:01.79	210.26	7.50	-26.9	-28.4	14.3	3.40e-06	0	44	102	1048576	14	4297
2026-01-24 02:56:04.79	210.22	7.26	-26.9	-28.6	14.1	3.40e-06	0	44	102	1048576	14	4357
2026-01-24 02:56:07.81	210.18	7.03	-32.9	-43.3	3.8	6.47e-01	0	44	104	1048576	25	11879

#Closed at: 2026-01-24 02:56:09
#Recorded file [1 MB]: D:/data/31010_260124_054413.dat