passes_logs/2026/01/24/R2M6_AANII_01/R2M6_AANII_01__20260124_114019_SUOMI_NPP_rec.log

#Pass ID: 20260124_114019_SUOMI NPP
#Satellite: SUOMI NPP
#Configuration: NPP
#almurnet v.1.7.20240730
#Start time: 2026-01-24 11:40:20

#Version: 2.2.20231116
#Station: R2M6_AANII_01
#Location: 30.233357 lon 59.946436 lat
#TLE: 1 37849U 11061A   26023.63275593  .00000212  00000+0  12133-3 0  9990
#TLE: 2 37849  98.7820 325.6074 0002234  48.9695 311.1673 14.19528901737937

#Time	Az	El	Level	Level2	SNR	BER	BlckErr	Temp	State	Recorded	gain1	gain2
2026-01-24 11:40:20.74	201.31	7.08	-31.5	-35.4	5.1	1.22e+00	0	41	0	0	23	5654
2026-01-24 11:40:23.74	201.54	7.29	-31.9	-37.1	6.6	1.76e-01	0	41	102	1048576	24	6596
2026-01-24 11:40:26.75	201.78	7.50	-31.0	-34.8	7.8	1.03e-01	0	41	102	1048576	23	5584
2026-01-24 11:40:29.76	202.02	7.71	-30.8	-35.1	7.5	1.06e-01	0	41	102	1048576	22	5908
2026-01-24 11:40:32.79	202.26	7.92	-29.8	-34.5	7.1	1.25e-01	0	41	102	1048576	20	6184
2026-01-24 11:40:35.80	202.51	8.13	-30.1	-34.7	7.5	1.20e-01	0	42	102	1048576	20	6140
2026-01-24 11:40:38.80	202.75	8.35	-30.3	-33.7	9.9	1.39e-02	0	41	102	1048576	20	5315
2026-01-24 11:40:41.82	203.01	8.56	-30.8	-34.0	10.3	4.77e-03	0	42	102	1048576	21	5210
2026-01-24 11:40:44.84	203.26	8.78	-30.6	-33.3	11.0	1.90e-03	0	42	102	1048576	21	4872
2026-01-24 11:40:47.87	203.53	9.00	-30.5	-33.0	11.0	1.50e-03	0	42	102	1048576	21	4806
2026-01-24 11:40:50.86	203.79	9.22	-30.4	-32.8	11.2	1.33e-03	0	42	102	1048576	21	4708
2026-01-24 11:40:53.88	204.06	9.44	-30.4	-32.7	11.3	9.35e-04	0	42	102	1048576	21	4673
2026-01-24 11:40:56.88	204.33	9.66	-30.5	-32.7	11.6	8.48e-04	0	42	102	1048576	21	4640
2026-01-24 11:40:59.89	204.60	9.89	-30.4	-32.5	11.5	7.04e-04	0	42	102	1048576	21	4604
2026-01-24 11:41:02.90	204.88	10.11	-30.1	-31.9	11.9	4.18e-04	0	42	102	1048576	21	4407
2026-01-24 11:41:05.91	205.17	10.34	-29.9	-31.2	12.2	3.71e-04	0	42	102	1048576	21	4190
2026-01-24 11:41:08.91	205.45	10.57	-30.0	-31.6	11.9	3.33e-04	0	42	102	1048576	21	4334
2026-01-24 11:41:11.93	205.75	10.80	-29.6	-30.8	12.7	6.86e-05	0	42	102	1048576	20	4150
2026-01-24 11:41:14.95	206.04	11.03	-29.4	-30.3	13.1	4.57e-05	0	42	102	1048576	20	3991
2026-01-24 11:41:17.97	206.35	11.27	-29.6	-30.6	13.1	2.28e-05	0	42	102	1048576	20	4056
2026-01-24 11:41:20.98	206.65	11.50	-29.9	-31.4	12.9	4.19e-05	0	42	102	1048576	20	4276
2026-01-24 11:41:23.99	206.96	11.74	-30.2	-32.2	12.6	8.01e-05	0	42	102	1048576	20	4529
2026-01-24 11:41:27.01	207.28	11.98	-30.5	-32.5	12.1	1.82e-04	0	42	102	1048576	21	4554
2026-01-24 11:41:30.02	207.60	12.21	-30.2	-31.5	12.8	6.79e-05	0	43	102	1048576	21	4196
2026-01-24 11:41:33.02	207.93	12.45	-30.1	-31.4	12.9	5.49e-05	0	42	102	1048576	21	4170
2026-01-24 11:41:36.03	208.26	12.70	-30.2	-31.6	12.8	5.11e-05	0	42	102	1048576	21	4227
2026-01-24 11:41:39.05	208.59	12.94	-29.6	-30.5	13.8	9.90e-06	0	42	102	1048576	20	3994
2026-01-24 11:41:42.06	208.94	13.19	-29.6	-30.3	13.9	2.20e-06	0	43	102	1048576	20	3926
2026-01-24 11:41:45.06	209.28	13.43	-29.8	-31.0	13.6	9.90e-06	0	43	102	1048576	20	4112
2026-01-24 11:41:48.08	209.64	13.68	-29.7	-30.8	13.6	9.10e-06	0	43	102	1048576	20	4075
2026-01-24 11:41:51.09	209.99	13.93	-29.9	-31.3	13.3	1.83e-05	0	43	102	1048576	20	4207
2026-01-24 11:41:54.11	210.36	14.19	-30.0	-31.4	13.4	1.75e-05	0	43	102	1048576	20	4245
2026-01-24 11:41:57.13	210.73	14.44	-30.1	-31.9	13.1	3.43e-05	0	43	102	1048576	20	4386
2026-01-24 11:42:00.14	211.11	14.70	-30.2	-32.1	12.9	3.28e-05	0	43	102	1048576	20	4446
2026-01-24 11:42:03.14	211.49	14.95	-30.1	-31.7	13.2	3.12e-05	0	43	102	1048576	20	4335
2026-01-24 11:42:06.16	211.88	15.21	-30.1	-31.6	13.3	3.12e-05	0	43	102	1048576	20	4295
2026-01-24 11:42:09.18	212.28	15.47	-30.2	-32.0	13.1	3.35e-05	0	43	102	1048576	20	4422
2026-01-24 11:42:12.20	212.68	15.73	-30.3	-31.8	12.9	4.73e-05	0	43	102	1048576	21	4283
2026-01-24 11:42:15.21	213.09	16.00	-30.4	-32.0	12.7	5.64e-05	0	43	102	1048576	21	4328
2026-01-24 11:42:18.21	213.51	16.26	-30.2	-31.4	13.1	4.57e-05	0	43	102	1048576	21	4145
2026-01-24 11:42:21.22	213.93	16.53	-30.1	-31.2	13.3	1.90e-05	0	43	102	1048576	21	4095
2026-01-24 11:42:24.23	214.36	16.79	-30.1	-31.2	13.3	2.74e-05	0	43	102	1048576	21	4105
2026-01-24 11:42:27.23	214.80	17.06	-30.3	-31.7	13.0	3.66e-05	0	43	102	1048576	21	4250
2026-01-24 11:42:30.23	215.25	17.33	-30.4	-32.1	12.8	8.92e-05	0	43	102	1048576	21	4341
2026-01-24 11:42:33.25	215.70	17.60	-30.5	-32.4	12.5	1.20e-04	0	43	102	1048576	21	4471
2026-01-24 11:42:36.26	216.16	17.87	-30.5	-32.2	12.7	8.62e-05	0	43	102	1048576	21	4411
2026-01-24 11:42:39.26	216.63	18.15	-30.6	-32.5	12.5	1.27e-04	0	43	102	1048576	21	4482
2026-01-24 11:42:42.28	217.11	18.42	-30.3	-31.8	13.1	3.73e-05	0	43	102	1048576	21	4240
2026-01-24 11:42:45.28	217.60	18.70	-30.1	-31.1	13.5	1.83e-05	0	43	102	1048576	21	4044
2026-01-24 11:42:48.29	218.09	18.97	-29.8	-30.8	14.0	1.50e-06	0	43	102	1048576	20	4044
2026-01-24 11:42:51.30	218.60	19.25	-30.0	-31.4	13.7	5.30e-06	0	43	102	1048576	20	4204
2026-01-24 11:42:54.32	219.12	19.53	-29.7	-30.5	14.3	2.20e-06	0	43	102	1048576	20	3956
2026-01-24 11:42:57.34	219.64	19.81	-29.5	-30.1	14.5	7.00e-07	0	43	102	1048576	20	3855
2026-01-24 11:43:00.35	220.17	20.09	-29.7	-30.5	14.3	2.20e-06	0	43	102	1048576	20	3947
2026-01-24 11:43:03.37	220.72	20.37	-29.8	-30.6	14.2	7.00e-07	0	43	102	1048576	20	3988
2026-01-24 11:43:06.37	221.27	20.65	-29.7	-30.4	14.3	7.00e-07	0	43	102	1048576	20	3923
2026-01-24 11:43:09.39	221.83	20.94	-29.6	-30.3	14.4	0.00e+00	0	44	102	1048576	20	3893
2026-01-24 11:43:12.41	222.40	21.22	-29.8	-30.8	14.2	2.20e-06	0	43	102	1048576	20	4025
2026-01-24 11:43:15.42	222.99	21.50	-29.3	-29.9	15.0	0.00e+00	0	43	102	1048576	19	3866
2026-01-24 11:43:18.41	223.57	21.78	-29.2	-29.6	15.2	0.00e+00	0	43	102	1048576	19	3787
2026-01-24 11:43:21.43	224.18	22.07	-28.8	-28.7	15.8	0.00e+00	0	43	102	1048576	19	3559
2026-01-24 11:43:24.44	224.79	22.35	-28.3	-28.1	16.4	0.00e+00	0	43	102	1048576	18	3509
2026-01-24 11:43:27.45	225.42	22.63	-28.3	-28.6	16.5	0.00e+00	0	43	102	1048576	17	3706
2026-01-24 11:43:30.47	226.06	22.92	-28.8	-29.6	15.9	0.00e+00	0	43	102	1048576	17	3978
2026-01-24 11:43:33.48	226.70	23.20	-29.2	-30.2	15.2	8.30e-06	0	43	102	1048576	18	4048
2026-01-24 11:43:36.48	227.36	23.48	-29.7	-30.9	14.6	4.50e-06	0	43	102	1048576	19	4125
2026-01-24 11:43:39.48	228.03	23.76	-29.8	-31.2	14.4	7.60e-06	0	43	102	1048576	19	4226
2026-01-24 11:43:42.50	228.71	24.04	-29.4	-30.2	15.0	6.10e-06	0	43	102	1048576	19	3932
2026-01-24 11:43:45.51	229.41	24.32	-29.4	-30.1	15.0	3.80e-06	0	43	102	1048576	19	3909
2026-01-24 11:43:48.53	230.12	24.59	-29.6	-30.6	14.8	6.80e-06	0	43	102	1048576	19	4053
2026-01-24 11:43:51.53	230.83	24.87	-29.6	-30.6	14.9	6.80e-06	0	43	102	1048576	19	4036
2026-01-24 11:43:54.54	231.56	25.14	-29.5	-30.4	14.9	6.10e-06	0	43	102	1048576	19	3995
2026-01-24 11:43:57.56	232.31	25.41	-29.2	-29.5	15.4	0.00e+00	0	43	102	1048576	19	3743
2026-01-24 11:44:00.58	233.07	25.68	-29.6	-30.6	14.9	0.00e+00	0	43	102	1048576	19	4026
2026-01-24 11:44:03.60	233.84	25.95	-30.3	-31.8	13.7	1.06e-05	0	43	102	1048576	20	4314
2026-01-24 11:44:06.62	234.62	26.21	-29.7	-30.3	14.7	0.00e+00	0	43	102	1048576	20	3876
2026-01-24 11:44:09.62	235.41	26.47	-29.6	-30.2	14.8	7.00e-07	0	43	102	1048576	20	3827
2026-01-24 11:44:12.63	236.22	26.73	-29.5	-29.9	14.9	0.00e+00	0	43	102	1048576	20	3769
2026-01-24 11:44:15.63	237.03	26.98	-29.7	-30.4	14.7	0.00e+00	0	43	102	1048576	20	3883
2026-01-24 11:44:18.64	237.86	27.23	-29.2	-30.9	13.7	1.47e-02	0	43	102	1048576	19	4376
2026-01-24 11:44:21.66	238.71	27.47	-29.0	-30.8	14.2	7.78e-03	0	43	102	1048576	18	4426
2026-01-24 11:44:24.67	239.57	27.71	-30.0	-31.0	14.3	3.00e-06	0	43	102	1048576	20	4059
2026-01-24 11:44:27.68	240.44	27.95	-30.1	-31.4	14.1	5.30e-06	0	43	102	1048576	20	4153
2026-01-24 11:44:30.69	241.32	28.18	-29.9	-30.9	14.4	0.00e+00	0	43	102	1048576	20	4006
2026-01-24 11:44:33.70	242.21	28.40	-29.9	-30.8	14.4	0.00e+00	0	43	102	1048576	20	3998
2026-01-24 11:44:36.72	243.12	28.62	-29.8	-30.6	14.6	0.00e+00	0	43	102	1048576	20	3929
2026-01-24 11:44:39.73	244.04	28.84	-30.3	-31.8	13.9	7.00e-07	0	43	102	1048576	20	4281
2026-01-24 11:44:42.74	244.97	29.04	-30.5	-31.9	13.5	1.14e-05	0	43	102	1048576	21	4235
2026-01-24 11:44:45.74	245.91	29.24	-30.2	-31.1	14.0	0.00e+00	0	43	102	1048576	21	3998
2026-01-24 11:44:48.75	246.86	29.43	-30.7	-32.3	13.2	2.21e-05	0	43	102	1048576	21	4360
2026-01-24 11:44:51.76	247.83	29.62	-30.5	-31.8	13.6	1.14e-05	0	43	102	1048576	21	4183
2026-01-24 11:44:54.77	248.80	29.80	-30.8	-32.8	12.9	4.11e-05	0	43	102	1048576	21	4527
2026-01-24 11:44:57.77	249.78	29.97	-31.5	-34.1	11.8	3.02e-04	0	43	102	1048576	22	4867
2026-01-24 11:45:00.79	250.78	30.13	-31.6	-34.0	11.3	1.18e-03	0	43	102	1048576	23	4741
2026-01-24 11:45:03.80	251.79	30.28	-31.4	-33.3	12.0	2.20e-04	0	43	102	1048576	23	4495
2026-01-24 11:45:06.80	252.80	30.43	-31.7	-34.2	11.2	9.22e-04	0	43	102	1048576	23	4831
2026-01-24 11:45:09.82	253.82	30.56	-31.4	-33.5	11.8	8.81e-04	0	43	102	1048576	23	4573
2026-01-24 11:45:12.83	254.85	30.69	-30.9	-31.8	13.0	4.65e-05	0	44	102	1048576	23	4015
2026-01-24 11:45:15.84	255.89	30.80	-31.7	-34.2	11.3	7.47e-04	0	43	102	1048576	23	4817
2026-01-24 11:45:18.85	256.94	30.91	-30.8	-32.0	13.2	3.89e-05	0	43	102	1048576	22	4159
2026-01-24 11:45:21.87	257.99	31.01	-30.5	-31.2	13.6	1.06e-05	0	43	102	1048576	22	3932
2026-01-24 11:45:24.88	259.05	31.09	-30.1	-30.9	14.2	7.00e-07	0	43	102	1048576	21	3911
2026-01-24 11:45:27.89	260.11	31.17	-30.9	-32.9	12.9	6.33e-05	0	43	102	1048576	21	4546
2026-01-24 11:45:30.91	261.18	31.23	-30.8	-32.1	13.1	3.12e-05	0	43	102	1048576	22	4200
2026-01-24 11:45:33.91	262.25	31.29	-30.1	-30.8	14.2	1.50e-06	0	43	102	1048576	21	3893
2026-01-24 11:45:36.91	263.32	31.33	-30.3	-31.4	13.8	1.50e-06	0	43	102	1048576	21	4060
2026-01-24 11:45:39.92	264.39	31.37	-31.1	-32.8	12.7	7.40e-05	0	43	102	1048576	22	4413
2026-01-24 11:45:42.94	265.47	31.39	-31.0	-32.7	12.7	1.07e-04	0	43	102	1048576	22	4367
2026-01-24 11:45:45.96	266.56	31.40	-31.1	-32.9	12.6	5.72e-05	0	43	102	1048576	22	4452
2026-01-24 11:45:48.97	267.63	31.40	-30.7	-31.9	13.3	1.90e-05	0	43	102	1048576	22	4112
2026-01-24 11:45:51.98	268.71	31.39	-30.4	-30.9	13.9	6.10e-06	0	43	102	1048576	22	3842
2026-01-24 11:45:54.99	269.79	31.37	-30.4	-31.0	13.8	5.30e-06	0	43	102	1048576	22	3862
2026-01-24 11:45:58.01	270.87	31.33	-30.5	-31.2	13.7	6.80e-06	0	43	102	1048576	22	3905
2026-01-24 11:46:01.03	271.95	31.29	-31.4	-33.3	12.0	3.20e-04	0	43	102	1048576	23	4497
2026-01-24 11:46:04.04	273.02	31.24	-31.4	-33.2	11.9	2.92e-04	0	43	102	1048576	23	4462
2026-01-24 11:46:07.05	274.08	31.17	-31.5	-33.5	11.8	3.23e-04	0	43	102	1048576	23	4571
2026-01-24 11:46:10.06	275.14	31.10	-30.4	-31.2	13.7	9.10e-06	0	44	102	1048576	22	3911
2026-01-24 11:46:13.08	276.20	31.01	-30.5	-31.3	13.6	7.60e-06	0	43	102	1048576	22	3948
2026-01-24 11:46:16.09	277.25	30.91	-30.3	-31.2	14.1	0.00e+00	0	43	102	1048576	21	3993
2026-01-24 11:46:19.09	278.29	30.81	-31.5	-34.0	11.8	1.99e-04	0	43	102	1048576	22	4832
2026-01-24 11:46:22.11	279.33	30.69	-31.9	-34.8	11.0	1.67e-03	0	43	102	1048576	23	5051
2026-01-24 11:46:25.12	280.36	30.57	-31.6	-33.9	11.6	9.29e-04	0	43	102	1048576	23	4675
2026-01-24 11:46:28.12	281.38	30.43	-31.7	-34.2	11.4	1.27e-03	0	43	102	1048576	23	4805
2026-01-24 11:46:31.14	282.39	30.29	-32.4	-35.7	9.5	1.62e-02	0	43	102	1048576	25	5240
2026-01-24 11:46:34.16	283.40	30.14	-31.9	-33.9	10.8	2.05e-03	0	43	102	1048576	25	4519
2026-01-24 11:46:37.17	284.39	29.98	-31.9	-33.8	11.0	5.51e-03	0	43	102	1048576	25	4477
2026-01-24 11:46:40.18	285.37	29.81	-31.6	-33.9	11.6	3.81e-04	0	43	102	1048576	23	4708
2026-01-24 11:46:43.18	286.34	29.63	-31.6	-34.0	11.5	9.67e-04	0	43	102	1048576	23	4724
2026-01-24 11:46:46.18	287.30	29.45	-31.2	-32.8	12.4	2.53e-04	0	43	102	1048576	23	4316
2026-01-24 11:46:49.20	288.25	29.26	-31.4	-33.3	12.0	3.06e-04	0	43	102	1048576	23	4494
2026-01-24 11:46:52.20	289.19	29.06	-30.5	-31.2	13.7	1.98e-05	0	43	102	1048576	22	3918
2026-01-24 11:46:55.21	290.12	28.85	-31.0	-32.6	12.8	5.11e-05	0	44	102	1048576	22	4352
2026-01-24 11:46:58.22	291.03	28.64	-31.5	-33.6	11.7	3.17e-04	0	43	102	1048576	23	4598
2026-01-24 11:47:01.23	291.94	28.42	-32.1	-35.1	10.4	2.48e-03	0	44	102	1048576	24	5055
2026-01-24 11:47:04.24	292.83	28.20	-31.9	-34.3	10.9	4.02e-03	0	44	102	1048576	24	4755
2026-01-24 11:47:07.26	293.71	27.97	-31.2	-32.8	12.4	1.34e-04	0	43	102	1048576	23	4310
2026-01-24 11:47:10.27	294.58	27.74	-32.2	-35.5	10.0	5.56e-03	0	43	102	1048576	24	5223
2026-01-24 11:47:13.29	295.44	27.50	-32.3	-35.9	9.8	9.40e-03	0	44	102	1048576	24	5409
2026-01-24 11:47:16.29	296.28	27.26	-32.5	-35.9	9.4	1.44e-02	0	43	102	1048576	25	5314
2026-01-24 11:47:19.30	297.10	27.01	-32.3	-35.4	9.8	1.10e-02	0	43	102	1048576	25	5092
2026-01-24 11:47:22.31	297.92	26.76	-31.9	-34.3	10.9	1.84e-03	0	43	102	1048576	24	4749
2026-01-24 11:47:25.33	298.73	26.50	-32.0	-34.7	10.6	2.92e-03	0	43	102	1048576	24	4914
2026-01-24 11:47:28.34	299.52	26.25	-32.2	-35.3	10.2	6.35e-03	0	43	102	1048576	24	5168
2026-01-24 11:47:31.35	300.30	25.99	-31.8	-34.2	11.0	2.40e-03	0	44	102	1048576	24	4732
2026-01-24 11:47:34.36	301.06	25.72	-31.7	-33.8	11.4	1.96e-03	0	43	102	1048576	24	4561
2026-01-24 11:47:37.37	301.82	25.46	-31.4	-32.9	11.9	6.67e-04	0	43	102	1048576	24	4265
2026-01-24 11:47:40.40	302.56	25.18	-31.2	-32.8	12.2	2.00e-04	0	43	102	1048576	23	4324
2026-01-24 11:47:43.41	303.29	24.91	-31.3	-33.0	12.1	4.01e-04	0	43	102	1048576	23	4384
2026-01-24 11:47:46.43	304.01	24.64	-31.1	-32.4	12.5	1.87e-04	0	43	102	1048576	23	4188
2026-01-24 11:47:49.45	304.72	24.37	-31.4	-33.8	11.9	2.68e-04	0	44	102	1048576	22	4758
2026-01-24 11:47:52.45	305.41	24.09	-31.5	-33.7	11.7	7.48e-04	0	43	102	1048576	23	4621
2026-01-24 11:47:55.45	306.08	23.81	-31.4	-33.4	11.9	4.48e-04	0	43	102	1048576	23	4520
2026-01-24 11:47:58.47	306.75	23.54	-32.0	-34.9	10.4	3.27e-03	0	44	102	1048576	24	5012
2026-01-24 11:48:01.48	307.41	23.26	-31.6	-33.5	11.4	3.72e-03	0	44	102	1048576	24	4468
2026-01-24 11:48:04.49	308.06	22.98	-30.4	-31.1	13.7	3.80e-06	0	43	102	1048576	22	3886
2026-01-24 11:48:07.50	308.69	22.70	-30.0	-30.6	14.3	2.20e-06	0	44	102	1048576	21	3847
2026-01-24 11:48:10.51	309.31	22.42	-29.2	-29.5	15.6	0.00e+00	0	43	102	1048576	19	3717
2026-01-24 11:48:13.54	309.93	22.13	-30.5	-32.2	13.6	3.00e-06	0	43	102	1048576	20	4423
2026-01-24 11:48:16.55	310.53	21.85	-31.8	-34.7	10.9	1.79e-03	0	44	102	1048576	23	5008
2026-01-24 11:48:19.57	311.13	21.57	-30.9	-31.8	12.9	8.46e-05	0	43	102	1048576	23	4030
2026-01-24 11:48:22.57	311.70	21.29	-30.7	-32.0	13.1	2.97e-05	0	43	102	1048576	22	4152
2026-01-24 11:48:25.58	312.28	21.01	-30.6	-31.6	13.4	1.67e-05	0	43	102	1048576	22	4036
2026-01-24 11:48:28.60	312.84	20.73	-29.7	-30.2	14.8	1.50e-06	0	43	102	1048576	20	3828
2026-01-24 11:48:31.60	313.39	20.45	-29.4	-30.1	15.2	0.00e+00	0	43	102	1048576	19	3889
2026-01-24 11:48:34.62	313.93	20.17	-29.9	-30.9	14.4	2.20e-06	0	44	102	1048576	20	4023
2026-01-24 11:48:37.63	314.46	19.90	-29.8	-30.5	14.6	7.00e-07	0	43	102	1048576	20	3922
2026-01-24 11:48:40.63	314.98	19.62	-30.1	-31.3	14.1	0.00e+00	0	44	102	1048576	20	4141
2026-01-24 11:48:43.64	315.49	19.34	-30.8	-32.7	12.9	3.05e-05	0	43	102	1048576	21	4490
2026-01-24 11:48:46.66	316.00	19.07	-30.1	-31.0	14.0	6.10e-06	0	44	102	1048576	21	3962
2026-01-24 11:48:49.67	316.49	18.79	-29.7	-30.5	14.6	0.00e+00	0	44	102	1048576	20	3908
2026-01-24 11:48:52.67	316.98	18.52	-29.6	-30.1	14.8	0.00e+00	0	44	102	1048576	20	3803
2026-01-24 11:48:55.68	317.46	18.25	-29.7	-30.4	14.6	7.00e-07	0	43	102	1048576	20	3886
2026-01-24 11:48:58.69	317.93	17.97	-29.3	-29.8	15.3	0.00e+00	0	43	102	1048576	19	3817
2026-01-24 11:49:01.71	318.39	17.70	-29.4	-30.2	15.1	0.00e+00	0	43	102	1048576	19	3913
2026-01-24 11:49:04.73	318.85	17.43	-29.8	-31.0	14.6	0.00e+00	0	43	102	1048576	19	4131
2026-01-24 11:49:07.74	319.29	17.17	-29.8	-31.0	14.5	7.00e-07	0	43	102	1048576	19	4153
2026-01-24 11:49:10.75	319.73	16.90	-29.7	-30.7	14.7	0.00e+00	0	43	102	1048576	19	4079
2026-01-24 11:49:13.76	320.16	16.64	-29.7	-31.0	14.6	0.00e+00	0	43	102	1048576	19	4135
2026-01-24 11:49:16.77	320.59	16.37	-29.7	-30.7	14.7	0.00e+00	0	44	102	1048576	19	4072
2026-01-24 11:49:19.79	321.00	16.11	-29.8	-31.1	14.5	0.00e+00	0	43	102	1048576	19	4177
2026-01-24 11:49:22.80	321.41	15.85	-30.0	-31.1	14.1	7.00e-07	0	43	102	1048576	20	4096
2026-01-24 11:49:25.80	321.82	15.59	-29.9	-30.8	14.2	2.20e-06	0	43	102	1048576	20	4018
2026-01-24 11:49:28.81	322.21	15.33	-30.0	-31.1	14.0	2.20e-06	0	43	102	1048576	20	4096
2026-01-24 11:49:31.82	322.60	15.08	-30.2	-31.7	13.6	6.10e-06	0	43	102	1048576	20	4280
2026-01-24 11:49:34.83	322.99	14.82	-30.5	-32.4	13.2	1.75e-05	0	43	102	1048576	20	4501
2026-01-24 11:49:37.85	323.36	14.57	-30.5	-32.0	13.1	2.05e-05	0	43	102	1048576	21	4283
2026-01-24 11:49:40.86	323.74	14.32	-30.7	-32.6	12.7	8.23e-05	0	43	102	1048576	21	4476
2026-01-24 11:49:43.87	324.10	14.07	-30.7	-32.5	12.7	8.31e-05	0	44	102	1048576	21	4439
2026-01-24 11:49:46.88	324.46	13.82	-30.3	-31.6	13.3	7.60e-06	0	44	102	1048576	21	4164
2026-01-24 11:49:49.89	324.81	13.57	-30.5	-32.1	12.9	3.43e-05	0	43	102	1048576	21	4319
2026-01-24 11:49:52.91	325.16	13.33	-30.9	-33.3	12.2	1.95e-04	0	43	102	1048576	21	4712
2026-01-24 11:49:55.93	325.51	13.08	-31.1	-33.4	11.7	6.23e-04	0	43	102	1048576	22	4679
2026-01-24 11:49:58.94	325.84	12.84	-31.3	-34.0	11.2	8.56e-04	0	43	102	1048576	22	4919
2026-01-24 11:50:01.95	326.17	12.60	-31.0	-33.0	12.0	3.62e-04	0	43	102	1048576	22	4535
2026-01-24 11:50:04.95	326.50	12.36	-31.0	-33.0	12.0	3.58e-04	0	44	102	1048576	22	4524
2026-01-24 11:50:07.96	326.82	12.12	-31.2	-33.6	11.5	9.80e-04	0	43	102	1048576	22	4745
2026-01-24 11:50:10.98	327.14	11.89	-31.4	-34.3	11.0	1.62e-03	0	43	102	1048576	22	5023
2026-01-24 11:50:13.99	327.45	11.65	-31.4	-34.3	11.0	2.26e-03	0	43	102	1048576	22	5023
2026-01-24 11:50:17.00	327.76	11.42	-30.8	-32.6	12.2	4.26e-04	0	43	102	1048576	22	4396
2026-01-24 11:50:20.01	328.06	11.19	-30.6	-32.0	12.5	1.21e-04	0	44	102	1048576	22	4230
2026-01-24 11:50:23.02	328.36	10.96	-30.4	-31.3	13.0	4.42e-05	0	43	102	1048576	22	3996
2026-01-24 11:50:26.03	328.65	10.73	-30.5	-31.6	12.8	5.56e-05	0	43	102	1048576	22	4089
2026-01-24 11:50:29.05	328.94	10.50	-30.7	-32.2	12.3	1.19e-04	0	44	102	1048576	22	4301
2026-01-24 11:50:32.07	329.23	10.27	-31.0	-33.1	11.7	4.94e-04	0	43	102	1048576	22	4612
2026-01-24 11:50:35.07	329.51	10.05	-31.2	-33.9	11.1	1.16e-03	0	43	102	1048576	22	4886
2026-01-24 11:50:38.09	329.79	9.83	-31.2	-33.7	11.3	1.65e-03	0	43	102	1048576	22	4818
2026-01-24 11:50:41.10	330.06	9.61	-31.1	-33.7	11.3	9.90e-04	0	43	102	1048576	22	4811
2026-01-24 11:50:44.11	330.33	9.39	-31.0	-33.4	11.4	7.26e-04	0	44	102	1048576	22	4718
2026-01-24 11:50:47.13	330.59	9.17	-30.8	-32.7	11.9	5.52e-04	0	43	102	1048576	22	4471
2026-01-24 11:50:50.13	330.86	8.95	-30.8	-32.7	11.9	5.17e-04	0	43	102	1048576	22	4456
2026-01-24 11:50:53.15	331.11	8.74	-30.6	-32.0	12.3	3.35e-04	0	43	102	1048576	22	4235
2026-01-24 11:50:56.15	331.37	8.52	-30.9	-32.9	11.7	4.19e-04	0	43	102	1048576	22	4545
2026-01-24 11:50:59.17	331.62	8.31	-30.7	-32.5	12.0	3.36e-04	0	44	102	1048576	22	4405
2026-01-24 11:51:02.17	331.87	8.10	-30.7	-32.3	12.1	2.53e-04	0	43	102	1048576	22	4341
2026-01-24 11:51:05.18	332.11	7.89	-30.6	-32.3	12.0	3.77e-04	0	43	102	1048576	22	4341
2026-01-24 11:51:08.18	332.35	7.68	-30.7	-32.5	11.9	4.16e-04	0	44	102	1048576	22	4417
2026-01-24 11:51:11.19	332.59	7.47	-30.7	-32.6	11.7	5.99e-04	0	44	102	1048576	22	4472
2026-01-24 11:51:14.21	332.82	7.27	-30.7	-32.6	11.7	5.83e-04	0	44	102	1048576	22	4460
2026-01-24 11:51:17.22	333.05	7.06	-30.7	-32.4	11.9	7.16e-04	0	44	102	1048576	22	4414

#Closed at: 2026-01-24 11:51:19
#Recorded file [1 MB]: D:/data/31010_260124_144022.dat