passes_logs/2026/01/24/R2M6_AANII_01/R2M6_AANII_01__20260124_000619_SUOMI_NPP_rec.log

#Pass ID: 20260124_000619_SUOMI NPP
#Satellite: SUOMI NPP
#Configuration: NPP
#almurnet v.1.7.20240730
#Start time: 2026-01-24 00:06:21

#Version: 2.2.20231116
#Station: R2M6_AANII_01
#Location: 30.233357 lon 59.946436 lat
#TLE: 1 37849U 11061A   26022.92790088  .00000200  00000+0  11571-3 0  9994
#TLE: 2 37849  98.7820 324.9085 0002258  50.1112 310.0263 14.19528452737839

#Time	Az	El	Level	Level2	SNR	BER	BlckErr	Temp	State	Recorded	gain1	gain2
2026-01-24 00:06:21.07	19.96	7.15	-31.2	-35.4	5.1	1.27e+00	0	42	0	0	22	5837
2026-01-24 00:06:24.07	20.02	7.38	-31.4	-36.1	7.9	6.43e-02	0	42	102	1048576	22	6219
2026-01-24 00:06:27.07	20.09	7.62	-31.6	-36.4	7.4	1.01e-01	0	42	102	1048576	23	6309
2026-01-24 00:06:30.08	20.15	7.85	-31.5	-36.0	7.7	1.10e-01	0	42	102	1048576	23	6018
2026-01-24 00:06:33.09	20.22	8.09	-31.0	-34.3	9.4	2.26e-02	0	42	102	1048576	22	5314
2026-01-24 00:06:36.11	20.29	8.33	-31.1	-34.7	9.1	1.69e-02	0	42	102	1048576	22	5483
2026-01-24 00:06:39.12	20.36	8.57	-31.0	-34.8	9.5	1.07e-02	0	42	102	1048576	21	5573
2026-01-24 00:06:42.13	20.43	8.82	-30.6	-33.3	10.6	4.00e-03	0	42	102	1048576	21	4941
2026-01-24 00:06:45.14	20.50	9.06	-30.5	-33.5	10.5	2.55e-03	0	42	102	1048576	20	5113
2026-01-24 00:06:48.16	20.58	9.32	-30.4	-33.2	11.0	1.69e-03	0	42	102	1048576	20	4989
2026-01-24 00:06:51.17	20.65	9.57	-29.7	-31.7	12.6	2.25e-03	0	42	102	1048576	19	4519
2026-01-24 00:06:54.18	20.73	9.82	-29.9	-32.2	12.3	2.15e-03	0	42	102	1048576	19	4679
2026-01-24 00:06:57.19	20.80	10.08	-29.8	-31.9	12.5	1.14e-04	0	42	102	1048576	19	4581
2026-01-24 00:07:00.20	20.88	10.34	-29.8	-31.9	12.5	1.06e-04	0	42	102	1048576	19	4573
2026-01-24 00:07:03.21	20.96	10.60	-29.5	-31.0	13.2	3.50e-05	0	42	102	1048576	19	4277
2026-01-24 00:07:06.23	21.04	10.87	-29.4	-31.2	13.4	2.03e-03	0	43	102	1048576	18	4446
2026-01-24 00:07:09.24	21.12	11.14	-29.4	-31.1	13.5	2.07e-03	0	43	102	1048576	18	4397
2026-01-24 00:07:12.25	21.20	11.41	-29.5	-31.4	13.3	2.02e-03	0	43	102	1048576	18	4481
2026-01-24 00:07:15.26	21.28	11.68	-29.4	-31.1	13.5	2.09e-03	0	43	102	1048576	18	4394
2026-01-24 00:07:18.28	21.37	11.96	-29.4	-31.2	13.5	2.07e-03	0	43	102	1048576	18	4427
2026-01-24 00:07:21.30	21.45	12.24	-29.6	-31.4	13.0	2.09e-03	0	43	102	1048576	19	4414
2026-01-24 00:07:24.30	21.54	12.53	-29.5	-30.8	13.4	2.06e-03	0	43	102	1048576	19	4214
2026-01-24 00:07:27.31	21.63	12.81	-29.5	-31.3	13.4	2.06e-03	0	43	102	1048576	18	4449
2026-01-24 00:07:30.33	21.72	13.10	-29.5	-31.0	13.4	2.05e-03	0	43	102	1048576	19	4252
2026-01-24 00:07:33.34	21.81	13.40	-29.5	-30.9	13.4	2.04e-03	0	43	102	1048576	19	4238
2026-01-24 00:07:36.35	21.90	13.70	-29.4	-31.2	13.6	1.91e-03	0	43	102	1048576	18	4408
2026-01-24 00:07:39.37	22.00	14.00	-29.5	-30.9	13.5	1.75e-05	0	43	102	1048576	19	4218
2026-01-24 00:07:42.39	22.10	14.30	-29.5	-30.9	13.5	1.44e-05	0	43	102	1048576	19	4232
2026-01-24 00:07:45.41	22.19	14.61	-29.7	-31.4	13.2	3.89e-05	0	43	102	1048576	19	4385
2026-01-24 00:07:48.42	22.29	14.93	-29.6	-31.0	13.4	1.14e-05	0	43	102	1048576	19	4253
2026-01-24 00:07:51.44	22.40	15.25	-29.7	-31.4	13.1	3.35e-05	0	43	102	1048576	19	4388
2026-01-24 00:07:54.45	22.50	15.57	-29.7	-31.5	13.1	2.13e-05	0	43	102	1048576	19	4400
2026-01-24 00:07:57.45	22.61	15.89	-29.9	-32.0	12.9	3.50e-05	0	43	102	1048576	19	4555
2026-01-24 00:08:00.47	22.72	16.22	-30.0	-31.7	12.6	6.10e-05	0	43	102	1048576	20	4390
2026-01-24 00:08:03.49	22.83	16.56	-30.2	-32.4	12.2	1.40e-04	0	44	102	1048576	20	4610
2026-01-24 00:08:06.51	22.94	16.90	-30.2	-32.2	12.2	4.26e-04	0	43	102	1048576	20	4562
2026-01-24 00:08:09.52	23.05	17.24	-30.2	-31.9	12.1	4.87e-04	0	43	102	1048576	21	4348
2026-01-24 00:08:12.53	23.17	17.59	-30.3	-32.7	12.0	2.86e-04	0	43	102	1048576	20	4731
2026-01-24 00:08:15.54	23.29	17.94	-30.8	-33.5	11.1	2.82e-03	0	44	102	1048576	21	4941
2026-01-24 00:08:18.56	23.41	18.30	-30.7	-33.3	10.7	1.22e-03	0	43	102	1048576	21	4866
2026-01-24 00:08:21.56	23.54	18.66	-30.7	-33.2	11.3	9.00e-04	0	43	102	1048576	21	4811
2026-01-24 00:08:24.58	23.66	19.03	-30.8	-33.4	11.2	1.81e-03	0	43	102	1048576	21	4880
2026-01-24 00:08:27.59	23.79	19.41	-30.3	-32.4	12.3	1.91e-04	0	44	102	1048576	20	4622
2026-01-24 00:08:30.60	23.93	19.79	-30.2	-32.3	12.4	9.91e-05	0	43	102	1048576	20	4584
2026-01-24 00:08:33.61	24.06	20.17	-30.4	-32.9	12.0	2.27e-04	0	43	102	1048576	20	4768
2026-01-24 00:08:36.63	24.20	20.56	-29.4	-32.2	12.0	1.54e-02	0	44	102	1048576	19	4931
2026-01-24 00:08:39.65	24.35	20.96	-29.6	-32.1	11.6	1.72e-02	0	44	102	1048576	20	4823
2026-01-24 00:08:42.65	24.49	21.36	-29.2	-31.5	13.1	1.35e-02	0	43	102	1048576	18	4661
2026-01-24 00:08:45.66	24.64	21.77	-28.7	-30.3	13.5	1.40e-02	0	44	102	1048576	18	4362
2026-01-24 00:08:48.67	24.79	22.19	-28.9	-30.5	13.8	8.82e-03	0	43	102	1048576	18	4320
2026-01-24 00:08:51.68	24.95	22.61	-28.8	-30.4	13.6	8.41e-03	0	44	102	1048576	18	4369
2026-01-24 00:08:54.69	25.11	23.04	-28.7	-30.7	13.9	1.19e-02	0	44	102	1048576	17	4517
2026-01-24 00:08:57.70	25.28	23.48	-28.9	-31.0	13.8	4.60e-03	0	44	102	1048576	17	4547
2026-01-24 00:09:00.72	25.45	23.93	-29.0	-30.5	13.8	6.05e-03	0	44	102	1048576	18	4294
2026-01-24 00:09:03.73	25.62	24.38	-28.9	-30.5	13.7	5.39e-03	0	44	102	1048576	18	4335
2026-01-24 00:09:06.74	25.80	24.84	-29.0	-30.9	13.4	5.33e-03	0	44	102	1048576	18	4485
2026-01-24 00:09:09.75	25.98	25.31	-29.7	-31.1	13.7	1.86e-03	0	44	102	1048576	19	4269
2026-01-24 00:09:12.77	26.17	25.79	-29.5	-30.7	14.0	2.20e-06	0	44	102	1048576	19	4120
2026-01-24 00:09:15.77	26.37	26.27	-29.5	-30.8	13.9	0.00e+00	0	44	102	1048576	19	4149
2026-01-24 00:09:18.78	26.57	26.76	-29.3	-30.8	14.3	1.23e-03	0	44	102	1048576	18	4233
2026-01-24 00:09:21.78	26.77	27.26	-29.1	-30.0	14.8	6.05e-04	0	44	102	1048576	18	4002
2026-01-24 00:09:24.80	26.99	27.78	-28.8	-29.8	15.3	3.55e-04	0	43	102	1048576	17	4062
2026-01-24 00:09:27.80	27.21	28.30	-28.7	-29.6	15.3	0.00e+00	0	44	102	1048576	17	3999
2026-01-24 00:09:30.81	27.43	28.83	-28.7	-29.6	15.4	0.00e+00	0	44	102	1048576	17	4005
2026-01-24 00:09:33.81	27.66	29.36	-29.4	-30.9	13.8	0.00e+00	0	44	102	1048576	18	4273
2026-01-24 00:09:36.82	27.90	29.91	-29.9	-31.7	13.5	5.30e-06	0	44	102	1048576	19	4410
2026-01-24 00:09:39.83	28.15	30.47	-30.6	-32.7	12.0	2.75e-04	0	44	102	1048576	21	4598
2026-01-24 00:09:42.85	28.41	31.05	-30.6	-32.6	12.2	8.53e-04	0	44	102	1048576	21	4533
2026-01-24 00:09:45.86	28.68	31.63	-30.6	-32.2	12.1	1.02e-03	0	44	102	1048576	22	4325
2026-01-24 00:09:48.88	28.95	32.22	-30.8	-33.2	11.8	4.08e-04	0	44	102	1048576	21	4735
2026-01-24 00:09:51.91	29.24	32.83	-30.6	-32.6	12.1	5.33e-04	0	44	102	1048576	21	4557
2026-01-24 00:09:54.93	29.54	33.45	-30.5	-32.2	12.5	5.48e-04	0	44	102	1048576	21	4402
2026-01-24 00:09:57.93	29.84	34.07	-30.8	-33.4	11.7	7.78e-04	0	44	102	1048576	21	4825
2026-01-24 00:10:00.94	30.16	34.71	-31.0	-33.2	11.5	1.03e-03	0	44	102	1048576	22	4643
2026-01-24 00:10:03.96	30.49	35.37	-30.8	-33.3	11.8	1.74e-03	0	44	102	1048576	21	4776
2026-01-24 00:10:06.97	30.83	36.03	-31.2	-34.0	11.0	2.73e-03	0	44	102	1048576	22	4957
2026-01-24 00:10:09.98	31.19	36.71	-31.1	-33.5	11.3	2.16e-03	0	44	102	1048576	22	4760
2026-01-24 00:10:12.98	31.56	37.40	-31.4	-34.6	10.6	2.92e-03	0	44	102	1048576	22	5189
2026-01-24 00:10:16.00	31.95	38.11	-31.7	-35.1	9.8	1.19e-02	0	44	102	1048576	23	5311
2026-01-24 00:10:19.01	32.36	38.82	-31.4	-34.0	10.4	7.67e-03	0	44	102	1048576	23	4850
2026-01-24 00:10:22.03	32.78	39.56	-31.8	-35.2	9.8	7.40e-03	0	44	102	1048576	23	5369
2026-01-24 00:10:25.05	33.23	40.31	-32.1	-36.2	8.6	3.87e-02	0	44	102	1048576	24	5748
2026-01-24 00:10:28.06	33.69	41.07	-32.1	-35.8	8.9	3.04e-02	0	44	102	1048576	24	5562
2026-01-24 00:10:31.06	34.17	41.84	-31.5	-34.3	10.5	6.50e-03	0	44	102	1048576	23	4975
2026-01-24 00:10:34.07	34.68	42.63	-31.7	-35.1	9.9	6.39e-03	0	44	102	1048576	23	5305
2026-01-24 00:10:37.09	35.21	43.43	-31.3	-34.3	10.9	2.27e-03	0	44	102	1048576	22	5036
2026-01-24 00:10:40.09	35.77	44.25	-30.8	-33.2	12.1	3.72e-04	0	44	102	1048576	21	4717
2026-01-24 00:10:43.09	36.36	45.08	-30.3	-32.0	13.2	1.11e-03	0	44	102	1048576	20	4401
2026-01-24 00:10:46.10	36.98	45.92	-30.3	-32.2	13.1	1.03e-03	0	44	102	1048576	20	4472
2026-01-24 00:10:49.11	37.63	46.78	-30.8	-32.9	12.3	1.23e-03	0	44	102	1048576	21	4599
2026-01-24 00:10:52.14	38.33	47.67	-30.9	-33.3	11.9	1.43e-03	0	44	102	1048576	21	4766
2026-01-24 00:10:55.14	39.06	48.55	-31.2	-33.6	11.4	1.13e-03	0	44	102	1048576	22	4777
2026-01-24 00:10:58.15	39.83	49.45	-30.6	-32.4	12.8	1.01e-04	0	44	102	1048576	21	4438
2026-01-24 00:11:01.16	40.65	50.37	-30.2	-31.8	13.3	2.51e-05	0	44	102	1048576	20	4344
2026-01-24 00:11:04.18	41.53	51.30	-30.0	-31.4	13.7	7.00e-07	0	44	102	1048576	20	4200
2026-01-24 00:11:07.19	42.45	52.24	-29.8	-30.8	14.1	1.98e-05	0	44	102	1048576	20	4032
2026-01-24 00:11:10.20	43.44	53.18	-29.4	-30.6	14.8	4.31e-04	0	44	102	1048576	18	4143
2026-01-24 00:11:13.22	44.49	54.14	-28.8	-29.2	15.6	7.00e-07	0	44	102	1048576	18	3771
2026-01-24 00:11:16.22	45.62	55.11	-28.2	-28.4	16.5	0.00e+00	0	44	102	1048576	17	3661
2026-01-24 00:11:19.22	46.81	56.08	-27.7	-28.2	17.0	0.00e+00	0	44	102	1048576	15	3799
2026-01-24 00:11:22.23	48.10	57.05	-28.1	-28.5	16.7	0.00e+00	0	44	102	1048576	16	3766
2026-01-24 00:11:25.24	49.49	58.03	-28.2	-28.9	16.5	4.07e-04	0	44	102	1048576	16	3866
2026-01-24 00:11:28.26	50.98	59.01	-27.8	-28.4	16.9	9.42e-04	0	44	102	1048576	15	3863
2026-01-24 00:11:31.27	52.58	59.99	-29.5	-30.5	14.7	6.45e-04	0	44	102	1048576	19	4025
2026-01-24 00:11:34.28	54.31	60.96	-29.6	-30.7	14.6	4.94e-04	0	44	102	1048576	19	4072
2026-01-24 00:11:37.30	56.18	61.92	-29.6	-30.8	14.5	0.00e+00	0	44	102	1048576	19	4098
2026-01-24 00:11:40.30	58.19	62.86	-28.3	-28.4	16.5	9.57e-04	0	44	102	1048576	17	3659
2026-01-24 00:11:43.32	60.37	63.79	-28.7	-29.5	15.9	1.07e-03	0	44	102	1048576	17	3924
2026-01-24 00:11:46.33	62.73	64.70	-28.7	-29.5	16.0	1.28e-03	0	44	102	1048576	17	3927
2026-01-24 00:11:49.35	65.28	65.57	-28.9	-29.4	15.8	1.02e-03	0	44	102	1048576	18	3814
2026-01-24 00:11:52.35	68.02	66.40	-29.4	-30.2	15.1	2.23e-04	0	44	102	1048576	19	3917
2026-01-24 00:11:55.36	70.99	67.19	-31.3	-33.7	11.8	4.00e-04	0	44	102	1048576	22	4764
2026-01-24 00:11:58.37	74.18	67.93	-31.0	-32.4	12.3	6.01e-04	0	44	102	1048576	23	4209
2026-01-24 00:12:01.39	77.61	68.61	-31.8	-35.0	10.5	5.85e-03	0	44	102	1048576	23	5179
2026-01-24 00:12:04.39	81.24	69.21	-30.9	-32.6	12.5	1.59e-04	0	44	102	1048576	22	4361
2026-01-24 00:12:07.42	85.13	69.74	-30.4	-31.6	13.6	1.75e-03	0	44	102	1048576	21	4143
2026-01-24 00:12:10.42	89.19	70.18	-30.6	-32.2	13.0	8.77e-05	0	44	102	1048576	21	4324
2026-01-24 00:12:13.43	93.43	70.52	-30.4	-32.1	13.6	1.45e-04	0	44	102	1048576	20	4378
2026-01-24 00:12:16.46	97.84	70.76	-29.5	-30.7	15.1	1.46e-04	0	44	102	1048576	18	4143
2026-01-24 00:12:19.47	102.32	70.90	-30.4	-31.7	13.5	1.14e-05	0	44	102	1048576	21	4178
2026-01-24 00:12:22.49	106.85	70.92	-31.7	-34.5	10.9	1.10e-03	0	44	102	1048576	23	4957
2026-01-24 00:12:25.50	111.35	70.83	-30.5	-31.9	13.4	1.22e-05	0	44	102	1048576	21	4240
2026-01-24 00:12:28.51	115.78	70.64	-31.7	-34.3	11.1	1.20e-03	0	44	102	1048576	23	4877
2026-01-24 00:12:31.52	120.09	70.34	-32.0	-34.8	10.4	4.41e-03	0	44	102	1048576	24	4999
2026-01-24 00:12:34.50	124.20	69.94	-31.6	-33.5	11.3	4.75e-03	0	44	102	1048576	24	4492
2026-01-24 00:12:37.51	128.16	69.45	-31.6	-34.2	11.1	1.19e-03	0	44	102	1048576	23	4848
2026-01-24 00:12:40.51	131.89	68.88	-30.8	-32.3	12.8	1.35e-04	0	44	102	1048576	22	4269
2026-01-24 00:12:43.52	135.42	68.24	-31.1	-33.0	12.4	9.61e-05	0	44	102	1048576	22	4501
2026-01-24 00:12:46.52	138.70	67.53	-29.7	-30.4	14.6	1.83e-05	0	44	102	1048576	20	3898
2026-01-24 00:12:49.54	141.78	66.76	-29.9	-31.3	14.6	0.00e+00	0	44	102	1048576	19	4242
2026-01-24 00:12:52.54	144.61	65.94	-28.7	-28.9	16.2	0.00e+00	0	44	102	1048576	18	3682
2026-01-24 00:12:55.56	147.26	65.08	-27.2	-26.9	18.1	0.00e+00	0	44	102	1048576	15	3484
2026-01-24 00:12:58.56	149.69	64.19	-29.1	-29.9	15.6	0.00e+00	0	44	102	1048576	18	3930
2026-01-24 00:13:01.58	151.96	63.27	-28.0	-27.7	17.1	0.00e+00	0	44	102	1048576	17	3492
2026-01-24 00:13:04.60	154.05	62.33	-27.8	-27.4	17.2	0.00e+00	0	44	102	1048576	17	3411
2026-01-24 00:13:07.60	155.98	61.37	-28.3	-28.4	16.7	0.00e+00	0	44	102	1048576	17	3639
2026-01-24 00:13:10.61	157.76	60.41	-29.0	-29.1	15.7	0.00e+00	0	44	102	1048576	19	3640
2026-01-24 00:13:13.62	159.42	59.43	-29.7	-30.8	14.8	0.00e+00	0	44	102	1048576	19	4085
2026-01-24 00:13:16.63	160.96	58.45	-29.1	-29.3	15.6	0.00e+00	0	44	102	1048576	19	3700
2026-01-24 00:13:19.63	162.39	57.47	-29.2	-30.2	14.6	0.00e+00	0	44	102	1048576	18	4004
2026-01-24 00:13:22.65	163.73	56.49	-28.1	-28.5	15.7	0.00e+00	0	44	102	1048576	16	3763
2026-01-24 00:13:25.67	164.97	55.51	-28.9	-29.8	15.8	5.12e-04	0	44	102	1048576	17	4018
2026-01-24 00:13:28.67	166.13	54.54	-27.3	-27.1	17.7	0.00e+00	0	44	102	1048576	15	3552
2026-01-24 00:13:31.68	167.21	53.57	-29.8	-31.1	14.4	0.00e+00	0	44	102	1048576	19	4182
2026-01-24 00:13:34.69	168.23	52.62	-28.9	-28.9	15.7	0.00e+00	0	44	102	1048576	19	3607
2026-01-24 00:13:37.70	169.18	51.67	-28.4	-28.2	16.4	0.00e+00	0	44	102	1048576	18	3522
2026-01-24 00:13:40.73	170.08	50.73	-30.1	-31.5	13.8	7.00e-07	0	44	102	1048576	20	4230
2026-01-24 00:13:43.75	170.93	49.80	-28.6	-28.6	16.2	0.00e+00	0	44	102	1048576	18	3618
2026-01-24 00:13:46.76	171.72	48.89	-30.8	-32.9	12.6	9.15e-05	0	44	102	1048576	21	4576
2026-01-24 00:13:49.77	172.47	48.00	-31.3	-33.4	11.5	1.16e-03	0	44	102	1048576	23	4580
2026-01-24 00:13:52.78	173.18	47.11	-31.3	-33.2	11.7	1.06e-03	0	44	102	1048576	23	4505
2026-01-24 00:13:55.79	173.85	46.24	-30.7	-32.1	12.7	7.85e-05	0	44	102	1048576	22	4236
2026-01-24 00:13:58.80	174.48	45.38	-30.7	-32.2	12.5	7.35e-04	0	44	102	1048576	22	4265
2026-01-24 00:14:01.80	175.08	44.55	-29.8	-31.2	14.2	2.37e-04	0	44	102	1048576	19	4230
2026-01-24 00:14:04.80	175.65	43.72	-30.7	-32.6	12.5	1.65e-04	0	44	102	1048576	21	4476
2026-01-24 00:14:07.81	176.20	42.91	-30.3	-31.6	13.2	8.01e-05	0	44	102	1048576	21	4165
2026-01-24 00:14:10.82	176.72	42.11	-29.0	-29.2	15.5	2.13e-05	0	44	102	1048576	19	3673
2026-01-24 00:14:13.84	177.21	41.32	-29.2	-30.1	15.2	3.02e-04	0	44	102	1048576	18	3994
2026-01-24 00:14:16.85	177.68	40.56	-30.2	-31.7	13.5	3.00e-04	0	44	102	1048576	20	4303
2026-01-24 00:14:19.86	178.13	39.80	-29.4	-30.2	14.8	3.07e-04	0	44	102	1048576	19	3950
2026-01-24 00:14:22.88	178.56	39.06	-29.5	-30.4	14.7	4.02e-04	0	44	102	1048576	19	3994
2026-01-24 00:14:25.89	178.98	38.33	-31.2	-33.7	11.6	9.70e-04	0	44	102	1048576	22	4781
2026-01-24 00:14:28.90	179.37	37.62	-30.4	-31.8	12.9	1.14e-03	0	44	102	1048576	21	4252
2026-01-24 00:14:31.91	179.75	36.92	-29.2	-30.2	15.1	2.94e-04	0	44	102	1048576	18	4034
2026-01-24 00:14:34.92	180.11	36.23	-29.5	-30.4	14.6	4.35e-04	0	44	102	1048576	19	4004
2026-01-24 00:14:37.93	180.46	35.56	-29.9	-30.9	14.0	6.79e-04	0	44	102	1048576	20	4064
2026-01-24 00:14:40.94	180.80	34.90	-30.6	-32.5	12.6	9.12e-04	0	44	102	1048576	21	4481
2026-01-24 00:14:43.96	181.12	34.25	-32.1	-35.9	9.1	1.08e-02	0	44	102	1048576	24	5577
2026-01-24 00:14:46.96	181.43	33.62	-31.8	-35.2	10.0	1.24e-02	0	44	102	1048576	23	5307
2026-01-24 00:14:49.98	181.73	32.99	-30.8	-33.0	12.2	2.94e-04	0	44	102	1048576	21	4629
2026-01-24 00:14:52.99	182.02	32.38	-29.9	-31.0	13.8	1.08e-03	0	44	102	1048576	20	4102
2026-01-24 00:14:56.00	182.30	31.78	-30.0	-31.4	13.6	8.01e-04	0	44	102	1048576	20	4210
2026-01-24 00:14:59.01	182.57	31.19	-31.2	-33.9	11.3	1.60e-03	0	44	102	1048576	22	4869
2026-01-24 00:15:02.04	182.83	30.61	-31.3	-34.2	11.0	4.86e-03	0	44	102	1048576	22	5012
2026-01-24 00:15:05.06	183.08	30.04	-30.8	-33.2	12.1	4.51e-04	0	44	102	1048576	21	4710
2026-01-24 00:15:08.07	183.32	29.49	-30.4	-32.0	12.8	6.63e-05	0	44	102	1048576	21	4309
2026-01-24 00:15:11.09	183.56	28.94	-30.5	-32.2	12.6	1.52e-03	0	44	102	1048576	21	4387
2026-01-24 00:15:14.11	183.79	28.40	-30.3	-32.1	13.1	1.91e-03	0	44	102	1048576	20	4425
2026-01-24 00:15:17.12	184.01	27.87	-30.0	-31.3	13.6	2.08e-03	0	44	102	1048576	20	4185
2026-01-24 00:15:20.13	184.22	27.36	-30.3	-32.3	13.0	2.14e-03	0	44	102	1048576	20	4505
2026-01-24 00:15:23.15	184.43	26.85	-30.0	-31.4	13.5	7.60e-06	0	44	102	1048576	20	4213
2026-01-24 00:15:26.17	184.63	26.35	-29.8	-31.3	13.9	1.50e-06	0	44	102	1048576	19	4293
2026-01-24 00:15:29.18	184.83	25.86	-30.0	-31.3	13.6	2.09e-03	0	44	102	1048576	20	4188
2026-01-24 00:15:32.20	185.02	25.38	-29.1	-30.1	15.0	2.15e-03	0	44	102	1048576	18	4016
2026-01-24 00:15:35.21	185.20	24.90	-28.5	-29.0	15.8	1.86e-03	0	44	102	1048576	17	3822
2026-01-24 00:15:38.23	185.38	24.44	-28.3	-29.2	16.1	1.79e-03	0	44	102	1048576	16	3960
2026-01-24 00:15:41.24	185.56	23.98	-28.3	-29.1	16.1	3.33e-03	0	44	102	1048576	16	3953
2026-01-24 00:15:44.25	185.73	23.53	-28.2	-28.9	16.2	3.22e-03	0	44	102	1048576	16	3902
2026-01-24 00:15:47.25	185.89	23.09	-28.2	-28.9	16.1	1.67e-03	0	44	102	1048576	16	3905
2026-01-24 00:15:50.26	186.05	22.65	-28.4	-29.3	16.0	1.58e-03	0	44	102	1048576	16	3994
2026-01-24 00:15:53.27	186.21	22.23	-28.9	-30.1	15.2	1.78e-03	0	44	102	1048576	17	4116
2026-01-24 00:15:56.29	186.36	21.80	-29.2	-30.3	14.7	3.17e-03	0	44	102	1048576	18	4101
2026-01-24 00:15:59.30	186.51	21.39	-29.4	-30.9	14.4	3.40e-03	0	44	102	1048576	18	4275
2026-01-24 00:16:02.29	186.66	20.99	-29.4	-30.4	14.4	3.35e-03	0	44	102	1048576	19	4042
2026-01-24 00:16:05.30	186.80	20.58	-29.4	-30.9	14.4	1.80e-03	0	44	102	1048576	18	4271
2026-01-24 00:16:08.32	186.94	20.19	-29.5	-30.6	14.2	1.73e-03	0	44	102	1048576	19	4098
2026-01-24 00:16:11.33	187.07	19.80	-29.1	-30.0	14.9	1.52e-03	0	44	102	1048576	18	4008
2026-01-24 00:16:14.34	187.21	19.42	-29.4	-30.9	14.3	1.50e-06	0	44	102	1048576	18	4269
2026-01-24 00:16:17.36	187.34	19.04	-29.1	-30.1	14.8	0.00e+00	0	44	102	1048576	18	4041
2026-01-24 00:16:20.36	187.46	18.67	-29.1	-30.0	14.8	1.81e-03	0	44	102	1048576	18	4022
2026-01-24 00:16:23.38	187.59	18.30	-29.3	-30.7	14.4	1.24e-03	0	44	102	1048576	18	4231
2026-01-24 00:16:26.39	187.71	17.94	-29.9	-31.7	13.5	1.34e-03	0	44	102	1048576	19	4419
2026-01-24 00:16:29.39	187.83	17.58	-29.6	-31.0	13.9	5.30e-06	0	44	102	1048576	19	4218
2026-01-24 00:16:32.40	187.94	17.23	-30.0	-31.5	13.1	1.67e-05	0	44	102	1048576	20	4295
2026-01-24 00:16:35.42	188.06	16.88	-29.9	-31.8	13.4	1.98e-05	0	44	102	1048576	19	4449
2026-01-24 00:16:38.43	188.17	16.54	-29.7	-31.3	13.6	5.30e-06	0	44	102	1048576	19	4305
2026-01-24 00:16:41.44	188.28	16.21	-29.9	-31.2	13.2	3.12e-05	0	44	102	1048576	20	4198
2026-01-24 00:16:44.45	188.38	15.87	-30.2	-32.1	12.7	1.62e-03	0	44	102	1048576	20	4472
2026-01-24 00:16:47.45	188.49	15.55	-29.9	-31.3	13.2	2.97e-05	0	44	102	1048576	20	4237
2026-01-24 00:16:50.46	188.59	15.22	-29.8	-31.4	13.5	1.14e-05	0	44	102	1048576	19	4333
2026-01-24 00:16:53.47	188.69	14.90	-29.9	-31.8	13.2	8.30e-06	0	44	102	1048576	19	4464
2026-01-24 00:16:56.49	188.79	14.59	-29.9	-31.7	13.3	1.83e-05	0	44	102	1048576	19	4425
2026-01-24 00:16:59.50	188.89	14.28	-29.9	-31.4	13.1	3.89e-05	0	44	102	1048576	20	4252
2026-01-24 00:17:02.51	188.98	13.97	-30.0	-31.8	12.8	3.58e-05	0	44	102	1048576	20	4382
2026-01-24 00:17:05.52	189.08	13.66	-30.1	-32.0	12.6	7.78e-05	0	44	102	1048576	20	4474
2026-01-24 00:17:08.52	189.17	13.36	-30.3	-32.5	12.3	1.72e-04	0	44	102	1048576	20	4630
2026-01-24 00:17:11.53	189.26	13.07	-30.3	-32.6	12.1	3.13e-04	0	44	102	1048576	20	4685
2026-01-24 00:17:14.54	189.35	12.78	-30.4	-32.8	12.0	3.21e-04	0	44	102	1048576	20	4749
2026-01-24 00:17:17.55	189.43	12.49	-30.7	-33.3	11.4	1.24e-03	0	44	102	1048576	21	4841
2026-01-24 00:17:20.56	189.52	12.20	-30.5	-32.5	11.8	4.97e-04	0	44	102	1048576	21	4561
2026-01-24 00:17:23.56	189.60	11.92	-30.6	-32.9	11.5	9.41e-04	0	44	102	1048576	21	4713
2026-01-24 00:17:26.58	189.68	11.64	-30.4	-33.0	11.8	3.97e-04	0	44	102	1048576	20	4837
2026-01-24 00:17:29.59	189.77	11.36	-30.5	-32.6	11.7	5.72e-04	0	44	102	1048576	21	4607
2026-01-24 00:17:32.60	189.84	11.09	-30.4	-33.0	11.7	4.90e-04	0	44	102	1048576	20	4849
2026-01-24 00:17:35.62	189.92	10.82	-30.4	-32.5	11.7	8.59e-04	0	44	102	1048576	21	4583
2026-01-24 00:17:38.62	190.00	10.55	-30.6	-33.0	11.4	9.28e-04	0	44	102	1048576	21	4748
2026-01-24 00:17:41.63	190.08	10.28	-30.7	-33.3	11.2	1.49e-03	0	44	102	1048576	21	4854
2026-01-24 00:17:44.63	190.15	10.02	-30.6	-33.1	11.2	1.57e-03	0	44	102	1048576	21	4809
2026-01-24 00:17:47.64	190.22	9.76	-30.4	-33.1	11.6	4.16e-04	0	44	102	1048576	20	4915
2026-01-24 00:17:50.66	190.30	9.51	-30.7	-33.4	11.0	2.17e-03	0	44	102	1048576	21	4914
2026-01-24 00:17:53.68	190.37	9.25	-30.4	-32.5	11.6	1.19e-03	0	44	102	1048576	21	4604
2026-01-24 00:17:56.69	190.44	9.00	-29.7	-31.1	12.9	6.86e-05	0	44	102	1048576	20	4203
2026-01-24 00:17:59.71	190.51	8.75	-29.7	-31.5	13.0	3.35e-05	0	44	102	1048576	19	4418
2026-01-24 00:18:02.72	190.58	8.50	-29.8	-31.7	12.9	4.27e-05	0	44	102	1048576	19	4479
2026-01-24 00:18:05.75	190.65	8.26	-29.8	-31.7	12.8	5.26e-05	0	44	102	1048576	19	4500
2026-01-24 00:18:08.76	190.71	8.02	-30.0	-31.8	12.4	1.14e-04	0	44	102	1048576	20	4447
2026-01-24 00:18:11.77	190.78	7.78	-29.7	-31.2	12.8	5.41e-05	0	44	102	1048576	20	4238
2026-01-24 00:18:14.78	190.84	7.54	-29.9	-32.1	12.5	7.93e-05	0	44	102	1048576	19	4643
2026-01-24 00:18:17.79	190.91	7.30	-29.6	-31.3	13.0	2.67e-05	0	44	102	1048576	19	4380
2026-01-24 00:18:20.80	190.97	7.07	-33.1	-45.3	3.8	7.32e-01	0	44	104	1048576	26	14811

#Closed at: 2026-01-24 00:18:22
#Recorded file [1 MB]: D:/data/31010_260124_030622.dat