passes_logs/2026/01/24/R2M6_AANII_01/R2M6_AANII_01__20260124_084043_NOAA_20_JPSS-1_rec.log

#Pass ID: 20260124_084043_NOAA 20 (JPSS-1)
#Satellite: NOAA 20 (JPSS-1)
#Configuration: NOAA 20
#almurnet v.1.7.20240730
#Start time: 2026-01-24 08:40:44

#Version: 2.2.20231116
#Station: R2M6_AANII_01
#Location: 30.233357 lon 59.946436 lat
#TLE: 1 43013U 17073A   26023.57676825  .00000205  00000+0  11821-3 0  9990
#TLE: 2 43013  98.7645 324.4259 0001147  27.0566 333.0670 14.19539368423954

#Time	Az	El	Level	Level2	SNR	BER	BlckErr	Temp	State	Recorded	gain1	gain2
2026-01-24 08:40:44.13	109.27	7.07	-32.4	-39.5	4.6	1.37e+00	0	41	0	0	26	8162
2026-01-24 08:40:47.13	109.03	7.27	-32.1	-38.5	7.1	1.40e-01	0	41	102	1048576	25	7464
2026-01-24 08:40:50.14	108.79	7.48	-32.3	-39.2	6.6	1.95e-01	0	41	102	1048576	25	7986
2026-01-24 08:40:53.16	108.54	7.68	-32.1	-38.0	7.5	1.49e-01	0	41	102	1048576	25	7163
2026-01-24 08:40:56.18	108.29	7.89	-31.4	-35.8	9.7	1.50e-02	0	41	102	1048576	24	5923
2026-01-24 08:40:59.20	108.03	8.10	-31.5	-36.5	9.6	1.01e-02	0	42	102	1048576	23	6388
2026-01-24 08:41:02.21	107.77	8.31	-31.5	-36.2	10.0	7.50e-03	0	42	102	1048576	23	6195
2026-01-24 08:41:05.23	107.50	8.52	-31.5	-36.4	9.8	8.54e-03	0	41	102	1048576	23	6335
2026-01-24 08:41:08.24	107.24	8.73	-31.7	-37.2	9.2	1.85e-02	0	42	102	1048576	23	6745
2026-01-24 08:41:11.26	106.96	8.95	-31.2	-35.1	10.9	2.44e-03	0	42	102	1048576	23	5663
2026-01-24 08:41:14.27	106.69	9.16	-31.1	-34.9	11.0	1.73e-03	0	42	102	1048576	23	5571
2026-01-24 08:41:17.28	106.41	9.38	-31.3	-35.3	10.8	2.19e-03	0	42	102	1048576	23	5745
2026-01-24 08:41:20.29	106.12	9.60	-31.3	-35.4	10.8	2.41e-03	0	42	102	1048576	23	5777
2026-01-24 08:41:23.31	105.83	9.82	-31.5	-36.2	10.2	4.42e-03	0	42	102	1048576	23	6154
2026-01-24 08:41:26.33	105.54	10.04	-31.4	-35.7	10.6	1.84e-03	0	42	102	1048576	23	5901
2026-01-24 08:41:29.35	105.24	10.26	-31.3	-35.5	10.8	2.77e-03	0	42	102	1048576	23	5804
2026-01-24 08:41:32.36	104.94	10.48	-31.3	-35.3	10.9	2.28e-03	0	42	102	1048576	23	5709
2026-01-24 08:41:35.38	104.63	10.71	-31.4	-35.6	10.7	3.86e-03	0	42	102	1048576	23	5839
2026-01-24 08:41:38.40	104.32	10.93	-31.2	-34.9	11.3	1.24e-03	0	42	102	1048576	23	5507
2026-01-24 08:41:41.41	104.00	11.16	-31.1	-34.6	11.5	9.01e-04	0	42	102	1048576	23	5375
2026-01-24 08:41:44.42	103.68	11.38	-31.1	-34.7	11.4	8.44e-04	0	42	102	1048576	23	5414
2026-01-24 08:41:47.43	103.35	11.61	-31.0	-34.2	11.8	4.61e-04	0	42	102	1048576	23	5239
2026-01-24 08:41:50.43	103.02	11.84	-31.3	-35.3	11.0	1.58e-03	0	43	102	1048576	23	5697
2026-01-24 08:41:53.45	102.68	12.07	-31.0	-34.3	11.7	8.38e-04	0	42	102	1048576	23	5276
2026-01-24 08:41:56.46	102.34	12.30	-31.1	-34.4	11.7	6.43e-04	0	43	102	1048576	23	5321
2026-01-24 08:41:59.48	101.99	12.54	-31.1	-34.7	11.5	9.12e-04	0	42	102	1048576	23	5424
2026-01-24 08:42:02.48	101.63	12.77	-31.0	-34.3	11.8	3.76e-04	0	43	102	1048576	23	5251
2026-01-24 08:42:05.50	101.27	13.01	-31.0	-34.2	11.9	3.83e-04	0	43	102	1048576	23	5235
2026-01-24 08:42:08.50	100.91	13.24	-31.1	-34.4	11.7	4.65e-04	0	43	102	1048576	23	5303
2026-01-24 08:42:11.52	100.53	13.48	-30.9	-33.8	12.2	2.46e-04	0	43	102	1048576	23	5043
2026-01-24 08:42:14.53	100.15	13.72	-30.9	-34.0	12.1	2.83e-04	0	43	102	1048576	23	5123
2026-01-24 08:42:17.55	99.77	13.96	-31.0	-34.3	11.9	4.07e-04	0	43	102	1048576	23	5229
2026-01-24 08:42:20.55	99.38	14.20	-30.9	-34.0	12.2	2.47e-04	0	43	102	1048576	23	5097
2026-01-24 08:42:23.56	98.98	14.44	-31.1	-34.3	12.0	3.13e-04	0	43	102	1048576	23	5218
2026-01-24 08:42:26.57	98.58	14.68	-30.9	-33.8	12.3	1.70e-04	0	43	102	1048576	23	5023
2026-01-24 08:42:29.58	98.16	14.93	-31.0	-34.0	12.2	2.10e-04	0	43	102	1048576	23	5095
2026-01-24 08:42:32.59	97.75	15.17	-30.8	-33.5	12.6	8.31e-05	0	43	102	1048576	23	4904
2026-01-24 08:42:35.60	97.32	15.42	-30.8	-33.9	12.7	9.30e-05	0	43	102	1048576	22	5178
2026-01-24 08:42:38.62	96.89	15.67	-30.7	-33.8	12.8	6.02e-05	0	43	102	1048576	22	5099
2026-01-24 08:42:41.62	96.45	15.91	-30.8	-34.0	12.6	8.01e-05	0	43	102	1048576	22	5193
2026-01-24 08:42:44.64	96.00	16.16	-31.0	-34.6	12.2	2.60e-04	0	43	102	1048576	22	5435
2026-01-24 08:42:47.66	95.55	16.41	-30.8	-33.8	12.8	6.86e-05	0	43	102	1048576	22	5120
2026-01-24 08:42:50.68	95.08	16.66	-30.8	-34.1	12.7	6.10e-05	0	43	102	1048576	22	5209
2026-01-24 08:42:53.68	94.61	16.91	-30.8	-33.9	12.8	7.24e-05	0	43	102	1048576	22	5144
2026-01-24 08:42:56.69	94.14	17.16	-31.0	-34.5	12.4	1.09e-04	0	43	102	1048576	22	5381
2026-01-24 08:42:59.70	93.65	17.41	-31.0	-34.3	12.5	1.03e-04	0	43	102	1048576	22	5310
2026-01-24 08:43:02.71	93.16	17.66	-31.1	-34.6	12.3	1.41e-04	0	43	102	1048576	22	5440
2026-01-24 08:43:05.72	92.65	17.91	-30.9	-34.2	12.7	8.39e-05	0	43	102	1048576	22	5265
2026-01-24 08:43:08.73	92.14	18.17	-31.0	-34.5	12.5	9.76e-05	0	43	102	1048576	22	5360
2026-01-24 08:43:11.74	91.62	18.42	-30.9	-34.0	12.8	6.79e-05	0	43	102	1048576	22	5180
2026-01-24 08:43:14.75	91.09	18.67	-30.8	-33.8	13.0	4.11e-05	0	43	102	1048576	22	5077
2026-01-24 08:43:17.77	90.55	18.92	-30.9	-34.2	12.7	6.17e-05	0	43	102	1048576	22	5243
2026-01-24 08:43:20.79	90.00	19.18	-30.9	-34.1	12.8	4.50e-05	0	43	102	1048576	22	5190
2026-01-24 08:43:23.80	89.45	19.43	-31.1	-34.6	12.5	1.29e-04	0	43	102	1048576	22	5397
2026-01-24 08:43:26.81	88.88	19.68	-30.9	-34.0	12.9	6.02e-05	0	43	102	1048576	22	5171
2026-01-24 08:43:29.82	88.31	19.93	-30.7	-33.5	13.2	2.21e-05	0	43	102	1048576	22	4971
2026-01-24 08:43:32.82	87.73	20.18	-30.7	-33.5	13.3	1.60e-05	0	43	102	1048576	22	4964
2026-01-24 08:43:35.84	87.13	20.43	-30.8	-33.8	13.1	2.36e-05	0	43	102	1048576	22	5078
2026-01-24 08:43:38.86	86.53	20.68	-30.7	-33.5	13.2	1.67e-05	0	43	102	1048576	22	4968
2026-01-24 08:43:41.86	85.91	20.93	-30.5	-33.0	13.6	1.44e-05	0	43	102	1048576	22	4783
2026-01-24 08:43:44.87	85.29	21.18	-30.6	-33.1	13.6	6.10e-06	0	43	102	1048576	22	4810
2026-01-24 08:43:47.88	84.66	21.42	-30.2	-32.7	14.1	7.00e-07	0	43	102	1048576	21	4794
2026-01-24 08:43:50.88	84.01	21.67	-30.1	-32.3	14.4	1.50e-06	0	43	102	1048576	21	4641
2026-01-24 08:43:53.89	83.36	21.91	-29.9	-31.9	14.7	1.50e-06	0	43	102	1048576	21	4508
2026-01-24 08:43:56.91	82.69	22.15	-29.7	-31.8	15.1	0.00e+00	0	43	102	1048576	20	4586
2026-01-24 08:43:59.92	82.02	22.39	-29.8	-32.0	14.9	0.00e+00	0	43	102	1048576	20	4658
2026-01-24 08:44:02.92	81.34	22.62	-29.7	-31.9	14.9	0.00e+00	0	43	102	1048576	20	4635
2026-01-24 08:44:05.93	80.64	22.86	-29.7	-31.8	15.0	0.00e+00	0	43	102	1048576	20	4583
2026-01-24 08:44:08.95	79.93	23.09	-29.7	-31.9	15.0	0.00e+00	0	43	102	1048576	20	4621
2026-01-24 08:44:11.97	79.21	23.32	-29.8	-32.2	14.9	0.00e+00	0	43	102	1048576	20	4703
2026-01-24 08:44:14.98	78.48	23.55	-29.8	-32.0	15.1	0.00e+00	0	43	102	1048576	20	4627
2026-01-24 08:44:17.99	77.75	23.77	-29.8	-32.0	15.0	0.00e+00	0	43	102	1048576	20	4641
2026-01-24 08:44:21.01	76.99	23.99	-29.9	-32.4	14.8	0.00e+00	0	43	102	1048576	20	4767
2026-01-24 08:44:24.02	76.24	24.21	-30.0	-32.6	14.7	0.00e+00	0	43	102	1048576	20	4827
2026-01-24 08:44:27.04	75.46	24.42	-30.3	-33.3	14.3	1.50e-06	0	43	102	1048576	20	5083
2026-01-24 08:44:30.05	74.68	24.63	-30.0	-32.4	14.8	0.00e+00	0	43	102	1048576	20	4759
2026-01-24 08:44:33.05	73.89	24.83	-29.8	-32.0	15.0	0.00e+00	0	43	102	1048576	20	4650
2026-01-24 08:44:36.04	73.10	25.03	-29.9	-32.2	14.9	0.00e+00	0	43	102	1048576	20	4719
2026-01-24 08:44:39.06	72.29	25.23	-29.9	-32.2	14.9	0.00e+00	0	43	102	1048576	20	4711
2026-01-24 08:44:42.08	71.46	25.42	-29.7	-31.8	15.2	0.00e+00	0	43	102	1048576	20	4587
2026-01-24 08:44:45.09	70.63	25.60	-29.7	-31.6	15.3	0.00e+00	0	43	102	1048576	20	4524
2026-01-24 08:44:48.10	69.79	25.78	-29.7	-31.7	15.3	0.00e+00	0	43	102	1048576	20	4530
2026-01-24 08:44:51.11	68.94	25.96	-29.7	-31.7	15.3	0.00e+00	0	43	102	1048576	20	4528
2026-01-24 08:44:54.12	68.08	26.12	-29.9	-32.1	15.0	7.00e-07	0	43	102	1048576	20	4671
2026-01-24 08:44:57.14	67.21	26.29	-30.0	-32.5	14.8	7.00e-07	0	43	102	1048576	20	4794
2026-01-24 08:45:00.16	66.33	26.44	-30.2	-32.9	14.5	1.50e-06	0	43	102	1048576	20	4953
2026-01-24 08:45:03.18	65.44	26.59	-30.3	-33.2	14.3	7.00e-07	0	43	102	1048576	20	5051
2026-01-24 08:45:06.19	64.55	26.73	-30.5	-33.3	13.9	2.20e-06	0	43	102	1048576	21	4975
2026-01-24 08:45:09.21	63.65	26.87	-30.6	-33.6	13.8	4.50e-06	0	43	102	1048576	21	5081
2026-01-24 08:45:12.21	62.74	27.00	-30.7	-33.7	13.8	6.10e-06	0	43	102	1048576	21	5111
2026-01-24 08:45:15.24	61.82	27.12	-31.1	-34.4	13.1	2.36e-05	0	43	102	1048576	22	5241
2026-01-24 08:45:18.25	60.90	27.23	-31.0	-34.1	13.2	2.74e-05	0	43	102	1048576	22	5152
2026-01-24 08:45:21.26	59.97	27.33	-31.2	-34.6	12.9	3.58e-05	0	43	102	1048576	22	5338
2026-01-24 08:45:24.27	59.04	27.43	-31.1	-34.5	13.0	3.58e-05	0	43	102	1048576	22	5290
2026-01-24 08:45:27.28	58.10	27.52	-31.1	-34.3	13.1	2.67e-05	0	43	102	1048576	22	5197
2026-01-24 08:45:30.29	57.15	27.60	-31.4	-35.2	12.5	1.02e-04	0	43	102	1048576	22	5574
2026-01-24 08:45:33.31	56.20	27.67	-31.8	-35.8	11.7	5.89e-04	0	43	102	1048576	23	5722
2026-01-24 08:45:36.33	55.24	27.73	-31.2	-34.1	12.9	5.26e-05	0	43	102	1048576	23	5026
2026-01-24 08:45:39.34	54.29	27.79	-31.3	-34.5	12.7	6.63e-05	0	43	102	1048576	23	5192
2026-01-24 08:45:42.34	53.33	27.83	-31.4	-34.6	12.6	1.05e-04	0	43	102	1048576	23	5202
2026-01-24 08:45:45.35	52.37	27.87	-31.2	-34.2	12.9	4.42e-05	0	43	102	1048576	23	5061
2026-01-24 08:45:48.36	51.40	27.90	-31.1	-33.9	13.0	3.20e-05	0	43	102	1048576	23	4975
2026-01-24 08:45:51.37	50.44	27.92	-31.0	-33.5	13.4	1.44e-05	0	43	102	1048576	23	4798
2026-01-24 08:45:54.39	49.47	27.93	-30.9	-33.3	13.5	1.29e-05	0	43	102	1048576	23	4752
2026-01-24 08:45:57.39	48.51	27.93	-31.0	-33.4	13.4	1.75e-05	0	43	102	1048576	23	4780
2026-01-24 08:46:00.40	47.54	27.92	-30.9	-33.2	13.6	9.90e-06	0	43	102	1048576	23	4697
2026-01-24 08:46:03.40	46.58	27.90	-30.9	-33.2	13.5	7.60e-06	0	43	102	1048576	23	4719
2026-01-24 08:46:06.42	45.61	27.87	-30.9	-33.2	13.5	1.52e-05	0	44	102	1048576	23	4694
2026-01-24 08:46:09.44	44.65	27.84	-30.8	-33.6	13.7	4.50e-06	0	43	102	1048576	22	4937
2026-01-24 08:46:12.45	43.69	27.79	-30.6	-32.9	14.0	3.00e-06	0	43	102	1048576	22	4705
2026-01-24 08:46:15.45	42.74	27.74	-30.5	-32.8	14.1	3.80e-06	0	43	102	1048576	22	4666
2026-01-24 08:46:18.47	41.78	27.68	-30.2	-32.5	14.6	1.50e-06	0	43	102	1048576	21	4673
2026-01-24 08:46:21.48	40.83	27.61	-30.0	-31.9	15.0	0.00e+00	0	43	102	1048576	21	4477
2026-01-24 08:46:24.49	39.89	27.53	-30.0	-31.9	15.0	0.00e+00	0	43	102	1048576	21	4496
2026-01-24 08:46:27.50	38.95	27.44	-30.0	-31.9	15.0	0.00e+00	0	43	102	1048576	21	4478
2026-01-24 08:46:30.51	38.01	27.35	-29.9	-31.7	15.1	0.00e+00	0	43	102	1048576	21	4415
2026-01-24 08:46:33.52	37.09	27.24	-30.0	-32.0	14.9	0.00e+00	0	43	102	1048576	21	4510
2026-01-24 08:46:36.51	36.17	27.13	-30.3	-32.7	14.4	7.00e-07	0	43	102	1048576	21	4756
2026-01-24 08:46:39.53	35.25	27.01	-30.5	-33.3	14.0	0.00e+00	0	43	102	1048576	21	4972
2026-01-24 08:46:42.56	34.34	26.89	-30.5	-33.3	14.0	5.30e-06	0	43	102	1048576	21	4965
2026-01-24 08:46:45.57	33.44	26.75	-30.7	-33.8	13.7	2.20e-06	0	43	102	1048576	21	5147
2026-01-24 08:46:48.58	32.55	26.61	-30.9	-34.2	13.4	2.13e-05	0	43	102	1048576	21	5309
2026-01-24 08:46:51.58	31.67	26.46	-31.0	-34.2	13.2	2.28e-05	0	43	102	1048576	22	5173
2026-01-24 08:46:54.59	30.79	26.31	-31.0	-34.2	13.2	3.35e-05	0	43	102	1048576	22	5184
2026-01-24 08:46:57.61	29.92	26.15	-31.1	-34.4	13.0	2.74e-05	0	43	102	1048576	22	5265
2026-01-24 08:47:00.62	29.06	25.98	-31.4	-35.2	12.5	8.77e-05	0	43	102	1048576	22	5563
2026-01-24 08:47:03.63	28.21	25.81	-31.2	-34.6	12.8	5.18e-05	0	43	102	1048576	22	5340
2026-01-24 08:47:06.65	27.37	25.63	-31.1	-34.5	13.0	4.11e-05	0	44	102	1048576	22	5288
2026-01-24 08:47:09.66	26.54	25.45	-31.3	-34.9	12.7	5.64e-05	0	43	102	1048576	22	5455
2026-01-24 08:47:12.68	25.72	25.26	-31.2	-34.7	12.8	5.87e-05	0	43	102	1048576	22	5380
2026-01-24 08:47:15.70	24.91	25.06	-30.9	-33.9	13.3	2.05e-05	0	43	102	1048576	22	5076
2026-01-24 08:47:18.72	24.11	24.86	-30.9	-33.8	13.3	2.13e-05	0	43	102	1048576	22	5043
2026-01-24 08:47:21.73	23.32	24.66	-30.8	-33.6	13.5	8.30e-06	0	43	102	1048576	22	4969
2026-01-24 08:47:24.75	22.54	24.45	-30.8	-33.6	13.6	1.06e-05	0	43	102	1048576	22	4955
2026-01-24 08:47:27.75	21.77	24.24	-30.9	-33.9	13.3	1.44e-05	0	43	102	1048576	22	5059
2026-01-24 08:47:30.76	21.01	24.03	-30.5	-32.8	13.9	6.10e-06	0	44	102	1048576	22	4701
2026-01-24 08:47:33.78	20.26	23.81	-30.3	-32.2	14.4	7.00e-07	0	43	102	1048576	22	4486
2026-01-24 08:47:36.77	19.53	23.59	-30.2	-32.4	14.5	7.00e-07	0	44	102	1048576	21	4649
2026-01-24 08:47:39.78	18.81	23.36	-30.2	-32.4	14.5	7.00e-07	0	43	102	1048576	21	4663
2026-01-24 08:47:42.79	18.09	23.13	-29.9	-31.8	14.8	0.00e+00	0	43	102	1048576	21	4476
2026-01-24 08:47:45.81	17.38	22.90	-30.0	-32.0	14.7	7.00e-07	0	43	102	1048576	21	4543
2026-01-24 08:47:48.83	16.69	22.67	-29.9	-31.7	14.9	0.00e+00	0	43	102	1048576	21	4438
2026-01-24 08:47:51.84	16.00	22.43	-29.8	-31.9	15.0	0.00e+00	0	43	102	1048576	20	4611
2026-01-24 08:47:54.85	15.33	22.19	-29.6	-31.5	15.3	0.00e+00	0	43	102	1048576	20	4476
2026-01-24 08:47:57.85	14.67	21.96	-29.6	-31.4	15.3	0.00e+00	0	43	102	1048576	20	4463
2026-01-24 08:48:00.87	14.01	21.71	-29.5	-31.3	15.4	0.00e+00	0	44	102	1048576	20	4430
2026-01-24 08:48:03.89	13.37	21.47	-29.2	-31.1	15.8	0.00e+00	0	44	102	1048576	19	4465
2026-01-24 08:48:06.91	12.74	21.22	-29.1	-30.7	16.1	0.00e+00	0	43	102	1048576	19	4331
2026-01-24 08:48:09.91	12.12	20.98	-28.9	-30.2	16.3	0.00e+00	0	43	102	1048576	19	4191
2026-01-24 08:48:12.92	11.50	20.73	-29.1	-30.8	15.9	0.00e+00	0	43	102	1048576	19	4388
2026-01-24 08:48:15.94	10.90	20.48	-29.1	-30.7	16.0	0.00e+00	0	43	102	1048576	19	4340
2026-01-24 08:48:18.95	10.31	20.23	-29.0	-30.7	16.0	0.00e+00	0	43	102	1048576	19	4339
2026-01-24 08:48:21.98	9.72	19.98	-29.1	-30.9	15.9	0.00e+00	0	43	102	1048576	19	4414
2026-01-24 08:48:24.99	9.15	19.73	-29.1	-30.8	15.9	0.00e+00	0	43	102	1048576	19	4387
2026-01-24 08:48:28.00	8.59	19.48	-29.0	-30.7	16.0	0.00e+00	0	44	102	1048576	19	4335
2026-01-24 08:48:31.01	8.03	19.23	-29.2	-31.0	15.8	0.00e+00	0	43	102	1048576	19	4445
2026-01-24 08:48:34.00	7.49	18.98	-29.5	-31.8	15.3	0.00e+00	0	43	102	1048576	19	4688
2026-01-24 08:48:37.01	6.95	18.73	-29.5	-31.9	15.2	0.00e+00	0	43	102	1048576	19	4712
2026-01-24 08:48:40.03	6.43	18.48	-29.5	-31.8	15.3	0.00e+00	0	43	102	1048576	19	4707
2026-01-24 08:48:43.04	5.91	18.23	-29.7	-32.2	15.0	0.00e+00	0	43	102	1048576	19	4843
2026-01-24 08:48:46.05	5.40	17.98	-29.9	-32.9	14.6	1.50e-06	0	43	102	1048576	19	5084
2026-01-24 08:48:49.06	4.90	17.73	-30.0	-32.7	14.3	3.80e-06	0	43	102	1048576	20	4897
2026-01-24 08:48:52.07	4.40	17.48	-30.1	-32.8	14.2	0.00e+00	0	43	102	1048576	20	4949
2026-01-24 08:48:55.08	3.92	17.23	-30.0	-32.6	14.4	7.00e-07	0	43	102	1048576	20	4861
2026-01-24 08:48:58.09	3.44	16.98	-29.9	-32.3	14.5	0.00e+00	0	43	102	1048576	20	4778
2026-01-24 08:49:01.10	2.98	16.73	-30.1	-33.0	14.1	0.00e+00	0	43	102	1048576	20	5027
2026-01-24 08:49:04.12	2.51	16.48	-30.1	-33.0	14.0	3.00e-06	0	43	102	1048576	20	5023
2026-01-24 08:49:07.13	2.06	16.23	-30.1	-33.0	14.1	4.50e-06	0	43	102	1048576	20	5001
2026-01-24 08:49:10.14	1.62	15.98	-30.3	-33.5	13.8	2.20e-06	0	43	102	1048576	20	5189
2026-01-24 08:49:13.16	1.18	15.74	-30.4	-33.8	13.5	9.90e-06	0	43	102	1048576	20	5329
2026-01-24 08:49:16.17	0.75	15.49	-30.5	-33.4	13.4	9.90e-06	0	43	102	1048576	21	5051
2026-01-24 08:49:19.19	0.32	15.25	-30.5	-33.6	13.3	1.83e-05	0	43	102	1048576	21	5131
2026-01-24 08:49:22.20	359.91	15.00	-30.4	-33.4	13.4	1.52e-05	0	43	102	1048576	21	5060
2026-01-24 08:49:25.22	359.50	14.76	-30.5	-33.6	13.2	1.98e-05	0	43	102	1048576	21	5153
2026-01-24 08:49:28.24	359.09	14.52	-30.6	-33.8	13.1	3.28e-05	0	43	102	1048576	21	5228
2026-01-24 08:49:31.25	358.70	14.28	-30.7	-34.2	12.8	5.11e-05	0	44	102	1048576	21	5394
2026-01-24 08:49:34.25	358.31	14.04	-30.8	-34.6	12.6	1.17e-04	0	43	102	1048576	21	5536
2026-01-24 08:49:37.26	357.93	13.80	-31.1	-34.9	12.0	2.30e-04	0	43	102	1048576	22	5564
2026-01-24 08:49:40.27	357.55	13.56	-31.3	-35.6	11.5	8.75e-04	0	43	102	1048576	22	5874
2026-01-24 08:49:43.29	357.18	13.32	-31.2	-35.1	11.8	6.26e-04	0	44	102	1048576	22	5667
2026-01-24 08:49:46.31	356.81	13.09	-31.1	-34.8	12.0	3.13e-04	0	43	102	1048576	22	5528
2026-01-24 08:49:49.32	356.46	12.85	-30.9	-34.3	12.3	2.05e-04	0	43	102	1048576	22	5304
2026-01-24 08:49:52.33	356.10	12.62	-30.9	-34.3	12.3	1.94e-04	0	43	102	1048576	22	5330
2026-01-24 08:49:55.33	355.76	12.39	-31.0	-34.7	12.0	3.47e-04	0	44	102	1048576	22	5492
2026-01-24 08:49:58.35	355.42	12.15	-31.0	-34.8	11.9	3.24e-04	0	43	102	1048576	22	5532
2026-01-24 08:50:01.36	355.08	11.92	-30.9	-34.5	12.1	3.08e-04	0	44	102	1048576	22	5399
2026-01-24 08:50:04.36	354.75	11.70	-31.2	-35.1	11.6	5.08e-04	0	43	102	1048576	22	5694
2026-01-24 08:50:07.37	354.43	11.47	-31.2	-35.3	11.5	7.64e-04	0	43	102	1048576	22	5768
2026-01-24 08:50:10.39	354.10	11.24	-31.3	-35.6	11.2	1.10e-03	0	43	102	1048576	22	5917
2026-01-24 08:50:13.40	353.79	11.02	-31.2	-35.4	11.4	9.60e-04	0	43	102	1048576	22	5816
2026-01-24 08:50:16.41	353.48	10.79	-31.3	-35.8	11.1	1.66e-03	0	43	102	1048576	22	6004
2026-01-24 08:50:19.42	353.17	10.57	-31.3	-35.8	11.0	1.79e-03	0	44	102	1048576	22	6030
2026-01-24 08:50:22.44	352.87	10.35	-31.4	-36.1	10.8	2.49e-03	0	43	102	1048576	22	6173
2026-01-24 08:50:25.44	352.58	10.13	-31.3	-35.8	10.9	1.93e-03	0	43	102	1048576	22	6054
2026-01-24 08:50:28.45	352.29	9.91	-31.5	-36.0	10.5	4.33e-03	0	43	102	1048576	23	6020
2026-01-24 08:50:31.47	352.00	9.69	-31.4	-35.5	10.7	3.08e-03	0	43	102	1048576	23	5814
2026-01-24 08:50:34.48	351.72	9.47	-31.3	-35.2	10.9	1.82e-03	0	43	102	1048576	23	5679
2026-01-24 08:50:37.49	351.44	9.26	-31.1	-34.8	11.3	1.17e-03	0	43	102	1048576	23	5481
2026-01-24 08:50:40.49	351.17	9.04	-31.1	-34.7	11.3	1.12e-03	0	43	102	1048576	23	5442
2026-01-24 08:50:43.50	350.90	8.83	-31.2	-34.9	11.1	1.52e-03	0	43	102	1048576	23	5537
2026-01-24 08:50:46.52	350.63	8.62	-31.3	-35.2	10.8	2.70e-03	0	44	102	1048576	23	5691
2026-01-24 08:50:49.54	350.37	8.41	-31.4	-35.6	10.5	3.31e-03	0	43	102	1048576	23	5858
2026-01-24 08:50:52.55	350.11	8.20	-31.4	-35.8	10.4	4.74e-03	0	44	102	1048576	23	5961
2026-01-24 08:50:55.54	349.86	7.99	-31.6	-36.5	9.8	1.01e-02	0	43	102	1048576	23	6347
2026-01-24 08:50:58.54	349.61	7.78	-31.6	-36.7	9.6	1.77e-02	0	44	102	1048576	23	6476
2026-01-24 08:51:01.55	349.36	7.58	-31.7	-37.0	9.3	1.98e-02	0	43	102	1048576	23	6616
2026-01-24 08:51:04.56	349.12	7.37	-31.5	-36.4	9.7	9.63e-03	0	43	102	1048576	23	6289
2026-01-24 08:51:07.59	348.88	7.17	-31.6	-36.6	9.5	1.33e-02	0	43	102	1048576	23	6438
2026-01-24 08:51:10.59	348.64	6.97	-33.7	-47.9	3.8	1.49e+00	0	43	104	1048576	27	18423

#Closed at: 2026-01-24 08:51:12
#Recorded file [1 MB]: D:/data/31010_260124_114046.dat