passes_logs/2026/01/24/R2M6_AANII_01/R2M6_AANII_01__20260124_014649_SUOMI_NPP_rec.log

#Pass ID: 20260124_014649_SUOMI NPP
#Satellite: SUOMI NPP
#Configuration: NPP
#almurnet v.1.7.20240730
#Start time: 2026-01-24 01:46:52

#Version: 2.2.20231116
#Station: R2M6_AANII_01
#Location: 30.233357 lon 59.946436 lat
#TLE: 1 37849U 11061A   26022.92790088  .00000200  00000+0  11571-3 0  9994
#TLE: 2 37849  98.7820 324.9085 0002258  50.1112 310.0263 14.19528452737839

#Time	Az	El	Level	Level2	SNR	BER	BlckErr	Temp	State	Recorded	gain1	gain2
2026-01-24 01:46:52.22	12.16	7.18	-34.1	-46.6	3.7	1.50e+00	0	44	0	0	28	15106
2026-01-24 01:46:55.23	11.96	7.39	-34.4	-47.0	3.8	1.49e+00	0	44	104	0	28	15393
2026-01-24 01:46:58.24	11.76	7.61	-34.4	-47.0	3.8	1.49e+00	0	44	104	0	28	15376
2026-01-24 01:47:01.26	11.55	7.83	-34.4	-47.0	3.8	1.49e+00	0	44	104	0	28	15355
2026-01-24 01:47:04.26	11.34	8.04	-34.4	-47.0	3.8	1.49e+00	0	44	104	0	28	15383
2026-01-24 01:47:07.27	11.13	8.26	-34.4	-46.9	3.8	1.49e+00	0	44	104	0	28	15302
2026-01-24 01:47:10.29	10.91	8.48	-34.4	-46.9	3.8	1.49e+00	0	44	104	0	28	15332
2026-01-24 01:47:13.30	10.69	8.71	-34.5	-47.2	3.8	1.49e+00	0	44	104	0	28	15528
2026-01-24 01:47:16.31	10.46	8.93	-34.4	-47.0	3.8	1.49e+00	0	44	104	0	28	15437
2026-01-24 01:47:19.32	10.24	9.16	-34.3	-46.8	3.8	1.49e+00	0	44	104	0	28	15230
2026-01-24 01:47:22.32	10.01	9.38	-34.2	-46.6	3.8	1.49e+00	0	44	104	0	28	15063
2026-01-24 01:47:25.34	9.77	9.61	-34.0	-46.2	3.8	1.49e+00	0	44	104	0	28	14728
2026-01-24 01:47:28.37	9.53	9.84	-33.4	-42.9	3.9	1.49e+00	0	44	104	0	27	10784
2026-01-24 01:47:31.38	9.29	10.07	-33.6	-45.8	3.8	1.49e+00	0	44	104	0	27	14756
2026-01-24 01:47:34.40	9.04	10.31	-33.4	-43.9	3.8	1.49e+00	0	44	104	0	27	11987
2026-01-24 01:47:37.42	8.78	10.54	-32.9	-39.6	5.3	1.43e+00	0	44	104	0	26	7734
2026-01-24 01:47:40.43	8.53	10.78	-32.3	-37.0	7.7	1.06e-01	0	44	102	1048576	24	6233
2026-01-24 01:47:43.44	8.27	11.02	-32.0	-35.9	8.6	4.10e-02	0	44	102	1048576	24	5656
2026-01-24 01:47:46.45	8.00	11.26	-31.8	-35.5	9.3	1.96e-02	0	44	102	1048576	23	5529
2026-01-24 01:47:49.47	7.73	11.50	-31.8	-35.6	9.3	1.71e-02	0	44	102	1048576	23	5571
2026-01-24 01:47:52.48	7.46	11.75	-31.7	-34.8	9.5	1.75e-02	0	44	102	1048576	24	5134
2026-01-24 01:47:55.50	7.18	11.99	-30.9	-33.1	11.5	9.05e-04	0	44	102	1048576	22	4643
2026-01-24 01:47:58.51	6.90	12.24	-31.0	-33.2	11.5	1.09e-03	0	44	102	1048576	22	4680
2026-01-24 01:48:01.53	6.61	12.49	-31.2	-33.8	11.1	1.85e-03	0	44	102	1048576	22	4889
2026-01-24 01:48:04.54	6.31	12.74	-31.2	-33.9	10.9	1.30e-03	0	44	102	1048576	22	4942
2026-01-24 01:48:07.56	6.01	13.00	-31.0	-33.2	11.5	6.13e-04	0	44	102	1048576	22	4672
2026-01-24 01:48:10.58	5.71	13.25	-30.5	-32.3	12.5	1.93e-04	0	44	102	1048576	21	4446
2026-01-24 01:48:13.59	5.40	13.51	-30.6	-32.7	12.2	1.95e-04	0	44	102	1048576	21	4571
2026-01-24 01:48:16.59	5.08	13.77	-29.6	-31.5	12.5	1.19e-04	0	44	102	1048576	21	4490
2026-01-24 01:48:19.60	4.76	14.03	-30.5	-32.7	11.3	1.06e-04	0	44	102	1048576	20	4673
2026-01-24 01:48:22.62	4.43	14.29	-30.6	-32.7	12.2	2.65e-03	0	44	102	1048576	21	4561
2026-01-24 01:48:25.61	4.10	14.55	-30.6	-32.7	12.3	1.93e-04	0	44	102	1048576	21	4546
2026-01-24 01:48:28.62	3.76	14.82	-30.4	-32.5	12.8	8.31e-05	0	44	102	1048576	20	4574
2026-01-24 01:48:31.63	3.42	15.09	-30.3	-32.1	13.1	2.89e-05	0	44	102	1048576	20	4450
2026-01-24 01:48:34.64	3.07	15.36	-29.8	-31.3	13.8	4.50e-06	0	44	102	1048576	19	4280
2026-01-24 01:48:37.65	2.71	15.63	-30.0	-31.5	13.6	4.50e-06	0	44	102	1048576	20	4231
2026-01-24 01:48:40.66	2.34	15.90	-30.2	-31.8	13.3	2.31e-03	0	44	102	1048576	20	4357
2026-01-24 01:48:43.66	1.97	16.18	-30.2	-31.7	13.4	2.58e-03	0	44	102	1048576	20	4324
2026-01-24 01:48:46.66	1.59	16.45	-30.4	-32.3	13.0	2.99e-03	0	44	102	1048576	20	4517
2026-01-24 01:48:49.67	1.20	16.73	-30.2	-32.0	13.2	2.97e-05	0	44	102	1048576	20	4394
2026-01-24 01:48:52.68	0.81	17.01	-30.3	-32.2	13.1	4.65e-05	0	44	102	1048576	20	4467
2026-01-24 01:48:55.71	0.40	17.30	-30.2	-32.0	13.2	8.68e-04	0	44	102	1048576	20	4422
2026-01-24 01:48:58.71	360.00	17.58	-30.3	-32.1	13.2	2.44e-03	0	44	102	1048576	20	4443
2026-01-24 01:49:01.72	359.58	17.87	-30.4	-32.3	13.1	4.07e-03	0	44	102	1048576	20	4506
2026-01-24 01:49:04.73	359.15	18.15	-30.6	-32.5	12.7	3.84e-03	0	44	102	1048576	21	4459
2026-01-24 01:49:07.75	358.72	18.44	-30.7	-32.7	12.6	4.14e-03	0	44	102	1048576	21	4520
2026-01-24 01:49:10.76	358.27	18.74	-30.7	-32.6	12.6	4.47e-03	0	44	102	1048576	21	4499
2026-01-24 01:49:13.78	357.82	19.03	-30.6	-32.5	12.7	1.68e-03	0	44	102	1048576	21	4450
2026-01-24 01:49:16.79	357.36	19.32	-30.9	-33.2	12.1	2.10e-03	0	44	102	1048576	21	4715
2026-01-24 01:49:19.80	356.89	19.62	-31.0	-33.1	11.9	4.71e-03	0	44	102	1048576	22	4581
2026-01-24 01:49:22.82	356.41	19.92	-30.5	-32.2	12.9	4.57e-03	0	44	102	1048576	21	4366
2026-01-24 01:49:25.84	355.92	20.22	-30.4	-32.2	13.2	4.06e-03	0	44	102	1048576	20	4472
2026-01-24 01:49:28.84	355.42	20.52	-30.7	-32.6	12.6	4.49e-03	0	44	102	1048576	21	4504
2026-01-24 01:49:31.85	354.91	20.82	-30.6	-32.5	12.7	2.17e-03	0	44	102	1048576	21	4452
2026-01-24 01:49:34.86	354.39	21.12	-30.6	-32.4	12.8	4.50e-05	0	44	102	1048576	21	4417
2026-01-24 01:49:37.86	353.86	21.42	-30.5	-32.2	12.9	3.81e-05	0	44	102	1048576	21	4355
2026-01-24 01:49:40.87	353.32	21.73	-30.7	-32.7	12.8	4.04e-05	0	44	102	1048576	21	4543
2026-01-24 01:49:43.89	352.77	22.03	-30.7	-32.2	12.6	1.95e-04	0	44	102	1048576	22	4272
2026-01-24 01:49:46.90	352.21	22.34	-30.8	-32.3	12.6	2.42e-03	0	44	102	1048576	22	4306
2026-01-24 01:49:49.92	351.63	22.65	-30.9	-32.7	12.3	1.18e-03	0	44	102	1048576	22	4439
2026-01-24 01:49:52.94	351.04	22.96	-31.1	-33.5	11.8	3.58e-04	0	44	102	1048576	22	4728
2026-01-24 01:49:55.96	350.44	23.27	-31.0	-33.1	12.0	5.26e-04	0	44	102	1048576	22	4580
2026-01-24 01:49:58.97	349.83	23.57	-30.7	-32.8	12.0	1.90e-04	0	44	102	1048576	21	4577
2026-01-24 01:50:01.98	349.21	23.88	-29.7	-31.4	13.5	1.75e-05	0	44	102	1048576	20	4369
2026-01-24 01:50:04.99	348.58	24.19	-30.9	-33.1	12.2	3.81e-05	0	44	102	1048576	21	4672
2026-01-24 01:50:08.01	347.93	24.50	-30.8	-32.9	12.5	1.31e-04	0	44	102	1048576	21	4589
2026-01-24 01:50:11.01	347.27	24.80	-30.4	-32.4	13.2	1.75e-04	0	44	102	1048576	20	4506
2026-01-24 01:50:14.03	346.59	25.11	-30.7	-32.7	12.7	1.11e-04	0	44	102	1048576	21	4529
2026-01-24 01:50:17.04	345.91	25.42	-30.8	-32.8	12.6	1.52e-03	0	44	102	1048576	21	4554
2026-01-24 01:50:20.05	345.21	25.72	-30.4	-32.3	13.3	2.59e-05	0	44	102	1048576	20	4464
2026-01-24 01:50:23.07	344.49	26.02	-31.0	-33.0	12.2	1.15e-04	0	44	102	1048576	22	4532
2026-01-24 01:50:26.08	343.76	26.33	-30.8	-32.9	12.6	2.05e-03	0	44	102	1048576	21	4588
2026-01-24 01:50:29.08	343.02	26.62	-30.9	-32.6	12.6	4.64e-03	0	44	102	1048576	22	4380
2026-01-24 01:50:32.10	342.26	26.92	-31.0	-32.9	12.3	4.44e-03	0	44	102	1048576	22	4492
2026-01-24 01:50:35.11	341.49	27.22	-30.3	-31.9	13.5	4.16e-03	0	44	102	1048576	20	4346
2026-01-24 01:50:38.11	340.71	27.51	-29.7	-30.8	14.6	4.37e-03	0	44	102	1048576	19	4101
2026-01-24 01:50:41.12	339.91	27.80	-29.8	-31.2	14.3	3.99e-03	0	44	102	1048576	19	4241
2026-01-24 01:50:44.13	339.10	28.09	-30.6	-32.5	12.9	4.80e-05	0	44	102	1048576	21	4454
2026-01-24 01:50:47.14	338.27	28.37	-30.4	-31.9	13.2	3.84e-03	0	44	102	1048576	21	4269
2026-01-24 01:50:50.15	337.42	28.65	-31.3	-33.9	11.5	3.36e-03	0	44	102	1048576	22	4862
2026-01-24 01:50:53.16	336.56	28.92	-31.6	-34.3	10.9	4.34e-03	0	44	102	1048576	23	4945
2026-01-24 01:50:56.18	335.69	29.19	-30.9	-32.6	12.5	2.34e-03	0	44	102	1048576	22	4405
2026-01-24 01:50:59.19	334.80	29.45	-31.1	-33.3	11.9	2.51e-03	0	44	102	1048576	22	4653
2026-01-24 01:51:02.21	333.89	29.71	-31.9	-35.5	10.0	8.66e-03	0	44	102	1048576	23	5429
2026-01-24 01:51:05.23	332.97	29.97	-31.7	-34.7	10.6	3.22e-03	0	44	102	1048576	23	5089
2026-01-24 01:51:08.25	332.04	30.22	-32.3	-36.5	8.9	2.32e-02	0	44	102	1048576	24	5807
2026-01-24 01:51:11.25	331.09	30.46	-32.4	-36.9	8.5	3.38e-02	0	44	102	1048576	24	6047
2026-01-24 01:51:14.26	330.13	30.69	-31.6	-34.5	10.9	9.20e-03	0	44	102	1048576	23	4982
2026-01-24 01:51:17.27	329.16	30.91	-32.0	-35.6	9.9	2.90e-03	0	44	102	1048576	23	5479
2026-01-24 01:51:20.30	328.16	31.13	-31.6	-34.4	10.7	6.77e-03	0	44	102	1048576	23	4994
2026-01-24 01:51:23.32	327.16	31.34	-31.5	-34.2	11.0	6.83e-04	0	44	102	1048576	23	4906
2026-01-24 01:51:26.34	326.14	31.55	-32.1	-35.8	9.3	1.97e-02	0	44	102	1048576	24	5537
2026-01-24 01:51:29.35	325.11	31.74	-31.3	-33.9	11.5	1.30e-03	0	44	102	1048576	22	4903
2026-01-24 01:51:32.36	324.07	31.92	-31.4	-33.8	11.3	1.53e-03	0	44	102	1048576	23	4752
2026-01-24 01:51:35.37	323.02	32.09	-31.5	-34.2	10.9	2.75e-03	0	44	102	1048576	23	4883
2026-01-24 01:51:38.38	321.96	32.26	-30.8	-32.3	12.6	1.85e-04	0	44	102	1048576	22	4319
2026-01-24 01:51:41.40	320.88	32.41	-31.3	-34.0	11.5	1.18e-03	0	44	102	1048576	22	4901
2026-01-24 01:51:44.41	319.80	32.55	-30.5	-32.0	13.1	1.81e-04	0	44	102	1048576	21	4308
2026-01-24 01:51:47.42	318.71	32.68	-30.8	-33.0	12.6	1.28e-04	0	44	102	1048576	21	4610
2026-01-24 01:51:50.43	317.61	32.80	-31.2	-33.7	11.7	6.20e-04	0	44	102	1048576	22	4795
2026-01-24 01:51:53.45	316.50	32.91	-30.3	-32.1	13.4	2.01e-04	0	44	102	1048576	20	4418
2026-01-24 01:51:56.46	315.38	33.01	-30.0	-31.3	14.0	3.00e-06	0	44	102	1048576	20	4171
2026-01-24 01:51:59.48	314.26	33.09	-30.6	-32.5	12.9	1.90e-04	0	44	102	1048576	21	4464
2026-01-24 01:52:02.50	313.12	33.16	-31.3	-33.4	11.6	1.38e-03	0	44	102	1048576	23	4576
2026-01-24 01:52:05.50	312.00	33.22	-30.5	-32.1	13.2	9.23e-05	0	44	102	1048576	21	4307
2026-01-24 01:52:08.52	310.86	33.27	-31.2	-33.5	12.1	3.43e-04	0	44	102	1048576	22	4679
2026-01-24 01:52:11.54	309.72	33.30	-30.3	-31.5	13.6	1.29e-05	0	44	102	1048576	21	4112
2026-01-24 01:52:14.54	308.58	33.32	-30.3	-31.9	13.7	1.59e-04	0	44	102	1048576	20	4342
2026-01-24 01:52:17.55	307.44	33.33	-31.5	-34.4	11.3	8.86e-04	0	44	102	1048576	22	5036
2026-01-24 01:52:20.56	306.30	33.32	-31.7	-34.7	10.7	3.75e-03	0	44	102	1048576	23	5093
2026-01-24 01:52:23.57	305.16	33.30	-31.5	-34.0	11.1	1.03e-03	0	44	102	1048576	23	4801
2026-01-24 01:52:26.59	304.01	33.27	-31.2	-33.6	11.8	4.02e-04	0	44	102	1048576	22	4749
2026-01-24 01:52:29.60	302.88	33.23	-30.5	-32.2	13.0	6.02e-05	0	44	102	1048576	21	4358
2026-01-24 01:52:32.62	301.74	33.17	-31.1	-33.2	12.0	2.34e-04	0	44	102	1048576	22	4598
2026-01-24 01:52:35.63	300.61	33.10	-31.0	-32.9	12.3	2.59e-04	0	44	102	1048576	22	4492
2026-01-24 01:52:38.65	299.48	33.02	-31.4	-34.4	11.2	1.20e-03	0	44	102	1048576	22	5043
2026-01-24 01:52:41.65	298.37	32.93	-31.8	-35.0	10.4	5.70e-03	0	44	102	1048576	23	5224
2026-01-24 01:52:44.67	297.26	32.82	-31.0	-33.2	12.0	1.00e-03	0	44	102	1048576	22	4597
2026-01-24 01:52:47.68	296.15	32.71	-30.1	-32.2	12.1	1.42e-04	0	44	102	1048576	22	4612
2026-01-24 01:52:50.70	295.05	32.58	-31.3	-33.9	10.9	5.49e-04	0	44	102	1048576	22	4868
2026-01-24 01:52:53.70	293.97	32.44	-31.4	-34.2	11.1	2.14e-03	0	44	102	1048576	22	4978
2026-01-24 01:52:56.72	292.89	32.29	-31.4	-34.2	11.3	1.11e-03	0	44	102	1048576	22	5003
2026-01-24 01:52:59.73	291.83	32.12	-31.9	-35.3	10.2	4.61e-03	0	44	102	1048576	23	5322
2026-01-24 01:53:02.75	290.77	31.95	-31.3	-34.1	11.3	5.19e-03	0	44	102	1048576	22	4943
2026-01-24 01:53:05.77	289.72	31.77	-31.5	-34.3	10.9	6.17e-03	0	44	102	1048576	23	4960
2026-01-24 01:53:08.79	288.69	31.58	-30.5	-31.8	13.4	2.70e-03	0	44	102	1048576	21	4216
2026-01-24 01:53:11.80	287.67	31.38	-30.8	-32.8	12.7	7.62e-05	0	44	102	1048576	21	4535
2026-01-24 01:53:14.81	286.66	31.17	-30.6	-32.2	13.1	3.66e-05	0	44	102	1048576	21	4328
2026-01-24 01:53:17.83	285.67	30.95	-31.1	-33.1	12.2	2.31e-04	0	44	102	1048576	22	4534
2026-01-24 01:53:20.85	284.68	30.73	-31.4	-33.6	11.5	2.53e-03	0	44	102	1048576	23	4630
2026-01-24 01:53:23.87	283.71	30.49	-31.7	-34.4	10.9	5.54e-03	0	44	102	1048576	23	4926
2026-01-24 01:53:26.87	282.76	30.26	-31.4	-33.6	11.5	3.37e-03	0	44	102	1048576	23	4623
2026-01-24 01:53:29.87	281.83	30.01	-31.0	-32.8	12.3	1.69e-03	0	44	102	1048576	22	4452
2026-01-24 01:53:32.88	280.91	29.76	-31.4	-33.9	11.5	3.01e-03	0	44	102	1048576	22	4851
2026-01-24 01:53:35.89	280.00	29.50	-31.2	-32.9	11.9	7.94e-04	0	44	102	1048576	23	4397
2026-01-24 01:53:38.90	279.10	29.24	-29.8	-30.6	14.4	2.27e-03	0	44	102	1048576	20	3939
2026-01-24 01:53:41.91	278.23	28.97	-30.1	-31.3	13.9	2.17e-03	0	44	102	1048576	20	4158
2026-01-24 01:53:44.92	277.36	28.69	-30.9	-33.0	12.4	2.16e-03	0	44	102	1048576	21	4614
2026-01-24 01:53:47.91	276.52	28.42	-31.0	-33.0	12.1	2.96e-03	0	44	102	1048576	22	4531
2026-01-24 01:53:50.92	275.68	28.13	-30.2	-31.6	13.7	1.54e-03	0	44	102	1048576	20	4261
2026-01-24 01:53:53.93	274.86	27.85	-32.0	-35.5	9.9	4.60e-03	0	44	102	1048576	23	5438
2026-01-24 01:53:56.95	274.05	27.56	-31.8	-34.4	10.4	8.67e-03	0	44	102	1048576	24	4882
2026-01-24 01:53:59.96	273.26	27.26	-31.3	-33.9	11.5	9.17e-04	0	44	102	1048576	22	4841
2026-01-24 01:54:02.97	272.49	26.97	-30.8	-32.9	12.4	1.45e-04	0	44	102	1048576	21	4586
2026-01-24 01:54:05.98	271.73	26.67	-30.3	-31.9	13.5	1.83e-05	0	44	102	1048576	20	4340
2026-01-24 01:54:09.01	270.97	26.37	-30.0	-31.1	14.0	3.00e-06	0	44	102	1048576	20	4099
2026-01-24 01:54:12.02	270.24	26.07	-30.2	-31.7	13.6	7.60e-06	0	44	102	1048576	20	4290
2026-01-24 01:54:15.03	269.52	25.76	-30.3	-31.9	13.5	6.10e-06	0	44	102	1048576	20	4356
2026-01-24 01:54:18.05	268.81	25.46	-30.4	-31.9	13.1	5.26e-05	0	44	102	1048576	21	4265
2026-01-24 01:54:21.05	268.12	25.15	-30.0	-31.8	13.4	9.90e-06	0	44	102	1048576	19	4412
2026-01-24 01:54:24.07	267.44	24.84	-30.1	-31.4	12.9	8.30e-06	0	44	102	1048576	20	4203
2026-01-24 01:54:27.10	266.77	24.53	-29.8	-31.3	14.2	3.80e-06	0	44	102	1048576	19	4248
2026-01-24 01:54:30.12	266.12	24.22	-29.1	-30.0	15.2	3.18e-03	0	44	102	1048576	18	3982
2026-01-24 01:54:33.13	265.48	23.91	-28.3	-29.1	16.4	2.65e-03	0	44	102	1048576	16	3916
2026-01-24 01:54:36.13	264.85	23.61	-29.1	-30.0	15.3	3.78e-03	0	44	102	1048576	18	3981
2026-01-24 01:54:39.15	264.24	23.30	-29.5	-30.5	14.6	3.80e-06	0	44	102	1048576	19	4042
2026-01-24 01:54:42.17	263.63	22.99	-29.3	-30.3	15.0	0.00e+00	0	44	102	1048576	18	4080
2026-01-24 01:54:45.19	263.04	22.68	-29.4	-30.8	14.7	2.03e-03	0	44	102	1048576	18	4199
2026-01-24 01:54:48.19	262.46	22.37	-29.3	-30.5	14.9	3.79e-03	0	44	102	1048576	18	4122
2026-01-24 01:54:51.20	261.90	22.06	-29.4	-30.6	14.8	3.53e-03	0	44	102	1048576	18	4164
2026-01-24 01:54:54.21	261.34	21.76	-29.2	-30.3	15.0	3.95e-03	0	44	102	1048576	18	4060
2026-01-24 01:54:57.22	260.80	21.45	-28.9	-30.0	15.4	3.56e-03	0	44	102	1048576	17	4078
2026-01-24 01:55:00.23	260.26	21.15	-29.1	-29.9	15.2	2.81e-03	0	44	102	1048576	18	3968
2026-01-24 01:55:03.24	259.74	20.84	-29.7	-30.9	14.3	0.00e+00	0	44	102	1048576	19	4138
2026-01-24 01:55:06.25	259.22	20.54	-29.4	-30.1	14.8	4.07e-03	0	44	102	1048576	19	3921
2026-01-24 01:55:09.26	258.72	20.24	-29.0	-29.7	15.3	4.17e-03	0	44	102	1048576	18	3902
2026-01-24 01:55:12.28	258.23	19.94	-28.8	-29.8	15.5	4.02e-03	0	44	102	1048576	17	4027
2026-01-24 01:55:15.29	257.74	19.64	-29.4	-30.8	14.6	4.43e-03	0	44	102	1048576	18	4216
2026-01-24 01:55:18.32	257.26	19.34	-30.0	-31.3	13.6	2.48e-03	0	44	102	1048576	20	4183
2026-01-24 01:55:21.32	256.80	19.04	-30.2	-31.9	13.2	3.20e-05	0	44	102	1048576	20	4375
2026-01-24 01:55:24.32	256.35	18.75	-29.7	-31.1	14.1	4.50e-06	0	44	102	1048576	19	4206
2026-01-24 01:55:27.34	255.90	18.46	-29.6	-30.8	14.2	0.00e+00	0	44	102	1048576	19	4138
2026-01-24 01:55:30.35	255.46	18.17	-30.0	-31.3	13.5	3.80e-06	0	44	102	1048576	20	4197
2026-01-24 01:55:33.38	255.03	17.88	-30.1	-31.6	13.3	2.89e-05	0	44	102	1048576	20	4290
2026-01-24 01:55:36.39	254.60	17.59	-30.0	-31.4	13.4	1.06e-05	0	44	102	1048576	20	4219
2026-01-24 01:55:39.41	254.19	17.30	-29.7	-31.2	13.9	3.00e-06	0	44	102	1048576	19	4250
2026-01-24 01:55:42.41	253.78	17.02	-29.6	-30.8	14.2	1.50e-06	0	44	102	1048576	19	4143
2026-01-24 01:55:45.42	253.39	16.74	-29.7	-31.1	14.0	1.50e-06	0	44	102	1048576	19	4220
2026-01-24 01:55:48.44	252.99	16.46	-29.8	-31.4	13.8	2.20e-06	0	44	102	1048576	19	4312
2026-01-24 01:55:51.45	252.61	16.18	-29.8	-30.9	13.3	2.20e-06	0	44	102	1048576	20	4094
2026-01-24 01:55:54.47	252.23	15.90	-29.5	-30.7	14.0	2.20e-06	0	44	102	1048576	19	4101
2026-01-24 01:55:57.48	251.86	15.62	-29.8	-31.5	13.6	2.51e-05	0	44	102	1048576	19	4354
2026-01-24 01:56:00.49	251.50	15.35	-30.1	-31.7	13.1	2.28e-03	0	44	102	1048576	20	4340
2026-01-24 01:56:03.51	251.14	15.08	-30.7	-33.1	11.7	3.63e-04	0	44	102	1048576	21	4718
2026-01-24 01:56:06.53	250.79	14.81	-30.8	-33.3	11.6	1.61e-03	0	44	102	1048576	21	4795
2026-01-24 01:56:09.55	250.45	14.54	-30.0	-31.4	13.2	5.03e-05	0	44	102	1048576	20	4243
2026-01-24 01:56:12.55	250.11	14.28	-29.4	-30.8	14.2	3.00e-06	0	44	102	1048576	18	4256
2026-01-24 01:56:15.56	249.78	14.01	-29.3	-30.6	14.4	1.41e-03	0	44	102	1048576	18	4189
2026-01-24 01:56:18.57	249.46	13.75	-29.9	-31.8	13.3	6.06e-04	0	44	102	1048576	19	4465
2026-01-24 01:56:21.58	249.14	13.49	-30.4	-32.3	12.1	8.56e-04	0	44	102	1048576	21	4470
2026-01-24 01:56:24.60	248.83	13.23	-30.8	-33.5	11.3	1.79e-03	0	44	102	1048576	21	4892
2026-01-24 01:56:27.62	248.52	12.98	-30.9	-33.8	11.0	3.07e-03	0	44	102	1048576	21	5028
2026-01-24 01:56:30.63	248.21	12.72	-31.0	-33.9	10.9	3.41e-03	0	44	102	1048576	21	5072
2026-01-24 01:56:33.63	247.92	12.47	-30.8	-33.4	11.3	3.47e-03	0	44	102	1048576	21	4884
2026-01-24 01:56:36.65	247.63	12.22	-30.8	-33.4	11.2	2.17e-03	0	44	102	1048576	21	4881
2026-01-24 01:56:39.65	247.34	11.97	-31.0	-33.6	10.8	4.04e-03	0	44	102	1048576	22	4848
2026-01-24 01:56:42.66	247.06	11.73	-30.9	-34.0	10.8	2.74e-03	0	44	102	1048576	21	5095
2026-01-24 01:56:45.67	246.78	11.48	-30.8	-33.4	11.2	3.24e-03	0	44	102	1048576	21	4889
2026-01-24 01:56:48.67	246.51	11.24	-30.6	-32.8	11.6	6.96e-04	0	44	102	1048576	21	4656
2026-01-24 01:56:51.68	246.24	11.00	-30.4	-32.5	11.8	6.48e-04	0	44	102	1048576	21	4544
2026-01-24 01:56:54.69	245.98	10.76	-30.1	-31.9	12.6	1.20e-04	0	44	102	1048576	20	4448
2026-01-24 01:56:57.70	245.72	10.52	-29.9	-31.5	12.8	6.86e-05	0	44	102	1048576	20	4300
2026-01-24 01:57:00.72	245.46	10.28	-30.0	-32.1	12.8	1.93e-04	0	44	102	1048576	19	4584
2026-01-24 01:57:03.74	245.21	10.05	-30.2	-32.3	12.3	1.47e-04	0	44	102	1048576	20	4572
2026-01-24 01:57:06.74	244.96	9.82	-30.5	-32.7	11.6	7.75e-04	0	44	102	1048576	21	4628
2026-01-24 01:57:09.76	244.72	9.59	-30.8	-33.8	10.7	2.40e-03	0	44	102	1048576	21	5078
2026-01-24 01:57:12.77	244.48	9.36	-31.0	-33.8	10.4	5.25e-03	0	44	102	1048576	22	4970
2026-01-24 01:57:15.79	244.25	9.13	-31.1	-34.2	10.0	7.75e-03	0	44	102	1048576	22	5159
2026-01-24 01:57:18.79	244.02	8.90	-31.1	-34.2	10.0	8.00e-03	0	44	102	1048576	22	5146
2026-01-24 01:57:21.79	243.79	8.68	-31.0	-34.2	10.0	7.96e-03	0	44	102	1048576	22	5169
2026-01-24 01:57:24.79	243.57	8.45	-31.0	-34.5	10.0	8.05e-03	0	44	102	1048576	21	5402
2026-01-24 01:57:27.81	243.35	8.23	-30.8	-34.1	9.9	4.99e-03	0	44	102	1048576	21	5218
2026-01-24 01:57:30.81	243.13	8.01	-30.7	-33.6	10.4	3.80e-03	0	44	102	1048576	21	5012
2026-01-24 01:57:33.82	242.92	7.79	-30.6	-33.3	10.8	2.86e-03	0	44	102	1048576	21	4926
2026-01-24 01:57:36.83	242.71	7.58	-30.6	-33.2	10.9	2.42e-03	0	44	102	1048576	21	4890
2026-01-24 01:57:39.84	242.50	7.36	-30.7	-33.6	10.5	3.65e-03	0	44	102	1048576	21	5068
2026-01-24 01:57:42.84	242.30	7.15	-30.8	-34.2	10.1	8.96e-03	0	44	102	1048576	21	5300
2026-01-24 01:57:45.86	242.09	6.94	-33.8	-46.3	3.8	1.49e+00	0	44	104	1048576	27	15175

#Closed at: 2026-01-24 01:57:47
#Recorded file [1 MB]: D:/data/31010_260124_044738.dat