passes_logs/2026/01/24/R2M6_AANII_01/R2M6_AANII_01__20260124_124947_AQUA_rec.log

#Pass ID: 20260124_124947_AQUA
#Satellite: AQUA
#Configuration: AQUA
#almurnet v.1.7.20240730
#Start time: 2026-01-24 12:51:34

#Version: 2.2.20231116
#Station: R2M6_AANII_01
#Location: 30.233357 lon 59.946436 lat
#TLE: 1 27424U 02022A   26023.58972979  .00001888  00000+0  38753-3 0  9997
#TLE: 2 27424  98.4100 350.1620 0001948  68.5331  43.0280 14.61852003262140

#Time	Az	El	Level	Level2	SNR	BER	BlckErr	Temp	State	Recorded	gain1	gain2
2026-01-24 12:51:34.14	194.77	17.20	-34.2	-43.7	3.8	8.45e-01	0	43	0	0	28	10745
2026-01-24 12:51:36.14	195.00	17.44	-35.0	-53.9	3.8	7.43e-01	0	43	104	0	31	32070
2026-01-24 12:51:38.14	195.24	17.67	-35.0	-54.0	3.8	7.44e-01	0	43	104	0	31	32190
2026-01-24 12:51:40.15	195.49	17.92	-35.0	-54.0	3.8	7.45e-01	0	44	104	0	31	32156
2026-01-24 12:51:42.17	195.73	18.16	-34.9	-53.9	3.8	7.46e-01	0	44	104	0	31	32085
2026-01-24 12:51:44.18	195.99	18.41	-34.9	-53.9	3.8	7.41e-01	0	43	104	0	31	32077
2026-01-24 12:51:46.19	196.24	18.65	-34.9	-53.8	3.8	7.45e-01	0	44	104	0	31	31872
2026-01-24 12:51:48.20	196.50	18.90	-34.9	-53.9	3.8	7.47e-01	0	44	104	0	31	31983
2026-01-24 12:51:50.21	196.76	19.15	-34.9	-53.9	3.8	7.47e-01	0	44	104	0	31	32106
2026-01-24 12:51:52.23	197.03	19.41	-34.8	-53.6	3.8	7.45e-01	0	43	104	0	31	31527
2026-01-24 12:51:54.24	197.31	19.67	-34.7	-53.4	3.8	7.45e-01	0	43	104	0	31	31112
2026-01-24 12:51:56.25	197.59	19.93	-34.5	-53.1	3.8	7.45e-01	0	43	104	0	31	30545
2026-01-24 12:51:58.24	197.87	20.18	-34.4	-53.4	3.8	7.42e-01	0	43	104	0	30	31960
2026-01-24 12:52:00.25	198.15	20.45	-34.4	-53.3	3.8	7.43e-01	0	43	104	0	30	31895
2026-01-24 12:52:02.26	198.45	20.71	-34.1	-52.8	3.8	7.45e-01	0	44	104	0	30	30861
2026-01-24 12:52:04.27	198.74	20.98	-33.9	-51.4	3.8	7.49e-01	0	43	104	0	30	27085
2026-01-24 12:52:06.28	199.05	21.25	-33.9	-50.3	3.9	7.40e-01	0	43	104	0	30	23973
2026-01-24 12:52:08.28	199.36	21.52	-33.8	-49.5	3.9	7.42e-01	0	43	104	0	29	21909
2026-01-24 12:52:10.29	199.67	21.80	-33.9	-49.6	3.9	7.42e-01	0	43	104	0	29	22014
2026-01-24 12:52:12.29	199.99	22.08	-33.9	-50.0	4.1	7.37e-01	0	43	104	0	29	23112
2026-01-24 12:52:14.31	200.32	22.36	-33.8	-49.2	4.2	7.30e-01	0	43	104	0	29	21260
2026-01-24 12:52:16.31	200.65	22.64	-33.7	-46.7	5.4	6.97e-01	0	43	104	0	29	16023
2026-01-24 12:52:18.33	200.99	22.93	-33.6	-45.1	6.5	6.75e-01	0	43	102	524288	29	13534
2026-01-24 12:52:20.34	201.33	23.22	-33.7	-46.2	5.7	6.93e-01	0	43	102	524288	29	15266
2026-01-24 12:52:22.35	201.69	23.51	-32.7	-38.6	13.0	6.08e-01	0	43	102	524288	27	7128
2026-01-24 12:52:24.35	202.04	23.80	-30.5	-33.3	18.3	6.06e-01	0	43	102	524288	23	4943
2026-01-24 12:52:26.36	202.41	24.09	-29.7	-32.2	19.7	6.07e-01	0	43	102	524288	21	4768
2026-01-24 12:52:28.37	202.78	24.39	-30.8	-34.7	17.8	6.08e-01	0	43	102	524288	22	5627
2026-01-24 12:52:30.37	203.16	24.69	-30.6	-34.1	18.2	6.05e-01	0	44	102	524288	22	5366
2026-01-24 12:52:32.37	203.54	24.99	-30.3	-33.3	18.8	6.05e-01	0	43	102	524288	22	5032
2026-01-24 12:52:34.39	203.94	25.30	-29.8	-32.3	19.7	6.05e-01	0	44	102	524288	21	4813
2026-01-24 12:52:36.39	204.34	25.60	-29.9	-32.5	19.5	6.06e-01	0	43	102	524288	21	4889
2026-01-24 12:52:38.41	204.75	25.92	-29.5	-31.5	20.1	6.07e-01	0	43	102	524288	21	4562
2026-01-24 12:52:40.41	205.17	26.23	-29.6	-31.9	19.9	6.07e-01	0	43	102	524288	21	4680
2026-01-24 12:52:42.42	205.60	26.54	-29.7	-32.1	19.8	6.04e-01	0	43	102	524288	21	4726
2026-01-24 12:52:44.42	206.03	26.86	-29.3	-31.5	20.5	6.07e-01	0	43	102	524288	20	4638
2026-01-24 12:52:46.44	206.48	27.18	-29.5	-32.1	20.1	6.07e-01	0	43	102	524288	20	4867
2026-01-24 12:52:48.46	206.94	27.50	-29.3	-31.6	20.4	6.06e-01	0	43	102	524288	20	4690
2026-01-24 12:52:50.46	207.40	27.82	-29.5	-32.1	20.2	6.06e-01	0	43	102	524288	20	4859
2026-01-24 12:52:52.47	207.87	28.15	-29.5	-32.0	20.2	6.06e-01	0	43	102	524288	20	4823
2026-01-24 12:52:54.48	208.35	28.48	-29.5	-31.9	20.3	6.06e-01	0	43	102	524288	20	4776
2026-01-24 12:52:56.49	208.85	28.81	-29.4	-31.7	20.4	6.07e-01	0	43	102	524288	20	4720
2026-01-24 12:52:58.49	209.35	29.14	-29.5	-32.0	20.3	6.03e-01	0	43	102	524288	20	4798
2026-01-24 12:53:00.51	209.87	29.48	-29.4	-31.8	20.4	6.07e-01	0	43	102	524288	20	4752
2026-01-24 12:53:02.50	210.39	29.81	-29.3	-31.6	20.6	6.07e-01	0	43	102	524288	20	4654
2026-01-24 12:53:04.51	210.92	30.15	-29.5	-31.9	20.4	6.07e-01	0	43	102	524288	20	4775
2026-01-24 12:53:06.53	211.47	30.49	-29.5	-32.0	20.4	6.06e-01	0	43	102	524288	20	4780
2026-01-24 12:53:08.54	212.03	30.83	-29.5	-31.9	20.5	6.06e-01	0	43	102	524288	20	4740
2026-01-24 12:53:10.54	212.60	31.17	-29.4	-31.8	20.5	6.05e-01	0	43	102	524288	20	4702
2026-01-24 12:53:12.55	213.19	31.51	-29.6	-32.3	20.2	6.08e-01	0	43	102	524288	20	4880
2026-01-24 12:53:14.56	213.79	31.86	-29.5	-31.8	20.5	6.06e-01	0	43	102	524288	20	4713
2026-01-24 12:53:16.57	214.40	32.20	-29.8	-32.7	20.0	6.06e-01	0	43	102	524288	20	5002
2026-01-24 12:53:18.57	215.02	32.55	-29.6	-32.2	20.3	6.07e-01	0	43	102	524288	20	4855
2026-01-24 12:53:20.57	215.65	32.89	-29.8	-32.7	20.0	6.04e-01	0	43	102	524288	20	5011
2026-01-24 12:53:22.58	216.30	33.24	-30.0	-33.2	19.7	6.07e-01	0	43	102	524288	20	5192
2026-01-24 12:53:24.58	216.96	33.58	-30.2	-33.2	19.4	6.05e-01	0	43	102	524288	21	5091
2026-01-24 12:53:26.58	217.64	33.93	-30.3	-33.5	19.2	6.05e-01	0	43	102	524288	21	5185
2026-01-24 12:53:28.59	218.33	34.27	-30.4	-33.7	19.1	6.06e-01	0	43	102	524288	21	5267
2026-01-24 12:53:30.61	219.05	34.62	-30.4	-33.7	19.1	6.07e-01	0	43	102	524288	21	5272
2026-01-24 12:53:32.61	219.77	34.97	-30.2	-32.6	19.4	6.06e-01	0	43	102	524288	22	4774
2026-01-24 12:53:34.63	220.51	35.31	-30.2	-32.6	19.5	6.04e-01	0	43	102	524288	22	4743
2026-01-24 12:53:36.63	221.26	35.65	-30.6	-33.8	18.8	6.06e-01	0	43	102	524288	22	5191
2026-01-24 12:53:38.64	222.04	36.00	-30.4	-33.1	19.1	6.05e-01	0	43	102	524288	22	4946
2026-01-24 12:53:40.65	222.82	36.34	-30.5	-33.5	18.9	6.04e-01	0	43	102	524288	22	5092
2026-01-24 12:53:42.65	223.63	36.67	-30.7	-33.9	18.7	6.07e-01	0	43	102	524288	22	5242
2026-01-24 12:53:44.66	224.45	37.01	-30.3	-33.0	19.2	6.05e-01	0	43	102	524288	22	4889
2026-01-24 12:53:46.68	225.29	37.34	-29.8	-32.2	20.0	6.05e-01	0	43	102	524288	21	4737
2026-01-24 12:53:48.68	226.14	37.67	-29.8	-32.1	20.0	6.07e-01	0	43	102	524288	21	4718
2026-01-24 12:53:50.68	227.01	37.99	-29.9	-32.5	19.9	6.03e-01	0	43	102	524288	21	4826
2026-01-24 12:53:52.69	227.91	38.31	-29.8	-32.3	20.0	6.05e-01	0	43	102	524288	21	4770
2026-01-24 12:53:54.70	228.82	38.63	-30.0	-32.7	19.7	6.06e-01	0	43	102	524288	21	4912
2026-01-24 12:53:56.70	229.74	38.94	-30.3	-33.5	19.3	6.07e-01	0	43	102	524288	21	5187
2026-01-24 12:53:58.72	230.69	39.25	-29.9	-32.5	19.9	6.06e-01	0	43	102	524288	21	4841
2026-01-24 12:54:00.73	231.65	39.55	-29.9	-32.5	19.9	6.04e-01	0	43	102	524288	21	4837
2026-01-24 12:54:02.73	232.63	39.84	-30.2	-33.3	19.4	6.06e-01	0	43	102	524288	21	5112
2026-01-24 12:54:04.74	233.63	40.13	-29.9	-32.5	19.9	6.06e-01	0	43	102	524288	21	4825
2026-01-24 12:54:06.75	234.64	40.41	-29.6	-31.6	20.5	6.06e-01	0	43	102	524288	21	4533
2026-01-24 12:54:08.76	235.68	40.68	-29.6	-31.6	20.5	6.04e-01	0	43	102	524288	21	4517
2026-01-24 12:54:10.76	236.72	40.94	-29.6	-31.6	20.5	6.07e-01	0	43	102	524288	21	4524
2026-01-24 12:54:12.77	237.79	41.20	-29.4	-31.6	20.8	6.07e-01	0	43	102	524288	20	4633
2026-01-24 12:54:14.78	238.88	41.44	-29.3	-31.3	20.9	6.07e-01	0	43	102	524288	20	4548
2026-01-24 12:54:16.80	239.98	41.68	-29.5	-31.8	20.6	6.04e-01	0	43	102	524288	20	4702
2026-01-24 12:54:18.80	241.10	41.91	-29.5	-31.8	20.6	6.05e-01	0	43	102	524288	20	4699
2026-01-24 12:54:20.81	242.23	42.12	-29.4	-31.7	20.7	6.05e-01	0	43	102	524288	20	4661
2026-01-24 12:54:22.82	243.38	42.33	-29.5	-31.9	20.6	6.07e-01	0	43	102	524288	20	4731
2026-01-24 12:54:24.82	244.53	42.52	-29.6	-32.0	20.5	6.08e-01	0	43	102	524288	20	4756
2026-01-24 12:54:26.83	245.71	42.70	-29.8	-32.6	20.2	6.09e-01	0	43	102	524288	20	4966
2026-01-24 12:54:28.83	246.89	42.87	-29.6	-32.2	20.4	6.08e-01	0	43	102	524288	20	4817
2026-01-24 12:54:30.84	248.09	43.03	-29.7	-32.2	20.4	6.06e-01	0	43	102	524288	20	4837
2026-01-24 12:54:32.86	249.31	43.17	-29.9	-32.8	20.1	6.04e-01	0	43	102	524288	20	5050
2026-01-24 12:54:34.88	250.54	43.30	-29.9	-32.7	20.1	6.05e-01	0	43	102	524288	20	5012
2026-01-24 12:54:36.89	251.77	43.42	-29.5	-31.9	20.6	6.05e-01	0	43	102	524288	20	4726
2026-01-24 12:54:38.89	253.01	43.52	-29.6	-32.0	20.6	6.06e-01	0	43	102	524288	20	4744
2026-01-24 12:54:40.90	254.25	43.60	-29.5	-31.8	20.7	6.07e-01	0	43	102	524288	20	4696
2026-01-24 12:54:42.90	255.50	43.68	-29.7	-32.2	20.5	6.06e-01	0	43	102	524288	20	4820
2026-01-24 12:54:44.92	256.77	43.74	-29.6	-32.1	20.5	6.05e-01	0	43	102	524288	20	4795
2026-01-24 12:54:46.94	258.04	43.78	-29.9	-32.8	20.1	6.08e-01	0	43	102	524288	20	5023
2026-01-24 12:54:48.94	259.30	43.81	-30.0	-32.9	20.0	6.06e-01	0	43	102	524288	20	5072
2026-01-24 12:54:50.94	260.56	43.82	-29.9	-32.7	20.2	6.07e-01	0	43	102	524288	20	4992
2026-01-24 12:54:52.96	261.83	43.82	-29.8	-32.1	20.2	6.05e-01	0	43	102	524288	21	4681
2026-01-24 12:54:54.97	263.10	43.80	-29.9	-32.3	20.1	6.05e-01	0	43	102	524288	21	4742
2026-01-24 12:54:56.98	264.36	43.77	-30.1	-32.8	19.8	6.06e-01	0	43	102	524288	21	4903
2026-01-24 12:54:58.98	265.62	43.72	-29.9	-32.4	20.0	6.06e-01	0	43	102	524288	21	4762
2026-01-24 12:55:00.98	266.87	43.66	-29.8	-32.1	20.1	6.07e-01	0	43	102	524288	21	4686
2026-01-24 12:55:03.00	268.13	43.58	-29.7	-31.8	20.4	6.08e-01	0	43	102	524288	21	4576
2026-01-24 12:55:05.01	269.37	43.49	-29.7	-31.8	20.5	6.07e-01	0	43	102	524288	21	4567
2026-01-24 12:55:07.01	270.60	43.39	-29.8	-32.1	20.3	6.04e-01	0	43	102	524288	21	4680
2026-01-24 12:55:09.03	271.84	43.27	-29.9	-32.3	20.2	6.05e-01	0	43	102	524288	21	4725
2026-01-24 12:55:11.04	273.06	43.14	-29.8	-32.1	20.3	6.05e-01	0	43	102	524288	21	4680
2026-01-24 12:55:13.05	274.26	42.99	-29.9	-32.3	20.2	6.07e-01	0	43	102	524288	21	4745
2026-01-24 12:55:15.06	275.46	42.83	-30.0	-32.5	20.1	6.06e-01	0	43	102	524288	21	4805
2026-01-24 12:55:17.07	276.64	42.66	-30.1	-32.8	19.9	6.06e-01	0	43	102	524288	21	4909
2026-01-24 12:55:19.08	277.82	42.48	-30.1	-32.7	20.0	6.05e-01	0	43	102	524288	21	4875
2026-01-24 12:55:21.08	278.97	42.28	-30.2	-32.9	19.8	6.07e-01	0	43	102	524288	21	4948
2026-01-24 12:55:23.10	280.11	42.07	-30.2	-33.1	19.7	6.06e-01	0	43	102	524288	21	5003
2026-01-24 12:55:25.11	281.24	41.86	-30.3	-33.1	19.7	6.06e-01	0	43	102	524288	21	5021
2026-01-24 12:55:27.12	282.35	41.63	-30.3	-33.4	19.5	6.07e-01	0	43	102	524288	21	5110
2026-01-24 12:55:29.13	283.45	41.39	-30.2	-32.9	19.8	6.04e-01	0	43	102	524288	21	4944
2026-01-24 12:55:31.15	284.53	41.14	-30.1	-32.8	19.9	6.07e-01	0	43	102	524288	21	4893
2026-01-24 12:55:33.15	285.59	40.88	-30.2	-33.1	19.7	6.09e-01	0	43	102	524288	21	4988
2026-01-24 12:55:35.16	286.63	40.62	-30.4	-33.5	19.5	6.05e-01	0	43	102	524288	21	5162
2026-01-24 12:55:37.16	287.65	40.35	-30.3	-33.2	19.7	6.04e-01	0	43	102	524288	21	5044
2026-01-24 12:55:39.18	288.67	40.07	-30.3	-33.2	19.7	6.07e-01	0	43	102	524288	21	5031
2026-01-24 12:55:41.19	289.66	39.78	-30.3	-33.2	19.6	6.05e-01	0	43	102	524288	21	5055
2026-01-24 12:55:43.20	290.63	39.48	-30.6	-33.6	19.1	6.08e-01	0	43	102	524288	22	5081
2026-01-24 12:55:45.21	291.59	39.18	-30.2	-32.5	19.8	6.07e-01	0	43	102	524288	22	4676
2026-01-24 12:55:47.22	292.53	38.88	-30.3	-32.6	19.7	6.05e-01	0	43	102	524288	22	4732
2026-01-24 12:55:49.23	293.45	38.57	-30.4	-32.9	19.5	6.07e-01	0	43	102	524288	22	4816
2026-01-24 12:55:51.23	294.35	38.25	-30.1	-32.2	19.9	6.05e-01	0	43	102	524288	22	4594
2026-01-24 12:55:53.23	295.23	37.93	-30.4	-33.0	19.4	6.04e-01	0	43	102	524288	22	4864
2026-01-24 12:55:55.25	296.10	37.61	-30.4	-33.0	19.4	6.06e-01	0	43	102	524288	22	4864
2026-01-24 12:55:57.26	296.95	37.28	-30.1	-32.3	19.8	6.08e-01	0	43	102	524288	22	4623
2026-01-24 12:55:59.27	297.78	36.95	-30.2	-32.4	19.7	6.06e-01	0	43	102	524288	22	4668
2026-01-24 12:56:01.28	298.60	36.61	-30.2	-32.5	19.7	6.06e-01	0	43	102	524288	22	4683
2026-01-24 12:56:03.30	299.40	36.28	-29.9	-31.8	20.1	6.03e-01	0	43	102	524288	22	4466
2026-01-24 12:56:05.31	300.18	35.94	-29.9	-32.3	20.1	6.06e-01	0	43	102	524288	21	4737
2026-01-24 12:56:07.31	300.95	35.60	-29.9	-32.3	20.1	6.05e-01	0	43	102	524288	21	4731
2026-01-24 12:56:09.31	301.69	35.26	-29.7	-31.6	20.6	6.04e-01	0	43	102	524288	21	4524
2026-01-24 12:56:11.32	302.43	34.92	-29.6	-31.5	20.6	6.04e-01	0	43	102	524288	21	4493
2026-01-24 12:56:13.33	303.14	34.57	-29.7	-31.7	20.5	6.06e-01	0	43	102	524288	21	4546
2026-01-24 12:56:15.33	303.84	34.23	-29.6	-31.6	20.6	6.06e-01	0	43	102	524288	21	4499
2026-01-24 12:56:17.34	304.53	33.88	-29.6	-31.5	20.6	6.06e-01	0	43	102	524288	21	4487
2026-01-24 12:56:19.35	305.21	33.54	-29.8	-31.9	20.3	6.08e-01	0	43	102	524288	21	4615
2026-01-24 12:56:21.36	305.87	33.19	-29.4	-31.4	20.8	6.06e-01	0	43	102	524288	20	4571
2026-01-24 12:56:23.37	306.51	32.85	-29.4	-31.5	20.8	6.05e-01	0	43	102	524288	20	4596
2026-01-24 12:56:25.38	307.14	32.50	-29.3	-31.2	20.9	6.07e-01	0	43	102	524288	20	4510
2026-01-24 12:56:27.38	307.76	32.16	-29.0	-30.6	21.3	6.04e-01	0	43	102	524288	20	4330
2026-01-24 12:56:29.40	308.37	31.82	-29.3	-31.3	21.0	6.05e-01	0	43	102	524288	20	4527
2026-01-24 12:56:31.41	308.96	31.48	-29.2	-31.1	21.1	6.05e-01	0	43	102	524288	20	4470
2026-01-24 12:56:33.41	309.54	31.14	-29.3	-31.3	21.0	6.07e-01	0	43	102	524288	20	4523
2026-01-24 12:56:35.42	310.10	30.80	-29.4	-31.5	20.9	6.06e-01	0	43	102	524288	20	4593
2026-01-24 12:56:37.42	310.66	30.46	-29.3	-31.4	20.9	6.06e-01	0	43	102	524288	20	4572
2026-01-24 12:56:39.43	311.20	30.12	-29.4	-31.5	20.9	6.05e-01	0	43	102	524288	20	4581
2026-01-24 12:56:41.45	311.74	29.79	-29.3	-31.4	20.9	6.05e-01	0	43	102	524288	20	4581
2026-01-24 12:56:43.45	312.25	29.46	-29.3	-31.3	20.9	6.05e-01	0	43	102	524288	20	4545
2026-01-24 12:56:45.46	312.76	29.12	-29.5	-31.8	20.7	6.08e-01	0	43	102	524288	20	4677
2026-01-24 12:56:47.47	313.27	28.79	-29.5	-31.8	20.7	6.07e-01	0	43	102	524288	20	4707
2026-01-24 12:56:49.47	313.75	28.47	-29.6	-32.1	20.5	6.06e-01	0	43	102	524288	20	4801
2026-01-24 12:56:51.48	314.23	28.14	-29.7	-32.3	20.3	6.05e-01	0	43	102	524288	20	4865
2026-01-24 12:56:53.49	314.70	27.82	-29.8	-32.7	20.2	6.08e-01	0	43	102	524288	20	4983
2026-01-24 12:56:55.50	315.16	27.50	-29.5	-31.9	20.6	6.07e-01	0	43	102	524288	20	4715
2026-01-24 12:56:57.51	315.61	27.18	-29.7	-32.3	20.3	6.05e-01	0	43	102	524288	20	4864
2026-01-24 12:56:59.51	316.05	26.86	-29.8	-32.7	20.1	6.05e-01	0	43	102	524288	20	4995
2026-01-24 12:57:01.51	316.48	26.55	-29.9	-32.8	19.9	6.06e-01	0	43	102	524288	20	5053
2026-01-24 12:57:03.53	316.91	26.24	-29.7	-32.4	20.2	6.06e-01	0	43	102	524288	20	4893
2026-01-24 12:57:05.54	317.33	25.93	-29.6	-32.0	20.4	6.07e-01	0	43	102	524288	20	4747
2026-01-24 12:57:07.55	317.74	25.62	-29.7	-32.4	20.1	6.05e-01	0	43	102	524288	20	4905
2026-01-24 12:57:09.55	318.13	25.31	-29.9	-33.0	19.7	6.06e-01	0	43	102	524288	20	5098
2026-01-24 12:57:11.56	318.53	25.01	-30.1	-32.9	19.4	6.05e-01	0	43	102	524288	21	4960
2026-01-24 12:57:13.56	318.91	24.71	-30.1	-32.8	19.4	6.05e-01	0	43	102	524288	21	4920
2026-01-24 12:57:15.58	319.29	24.41	-30.0	-32.7	19.4	6.08e-01	0	43	102	524288	21	4908
2026-01-24 12:57:17.60	319.66	24.12	-29.9	-32.3	19.7	6.07e-01	0	43	102	524288	21	4754
2026-01-24 12:57:19.60	320.02	23.82	-29.9	-32.5	19.6	6.05e-01	0	43	102	524288	21	4814
2026-01-24 12:57:21.61	320.38	23.53	-29.9	-32.4	19.6	6.05e-01	0	43	102	524288	21	4778
2026-01-24 12:57:23.62	320.73	23.25	-29.7	-31.9	19.8	6.07e-01	0	43	102	524288	21	4631
2026-01-24 12:57:25.63	321.07	22.96	-29.8	-32.0	19.8	6.05e-01	0	43	102	524288	21	4660
2026-01-24 12:57:27.63	321.41	22.68	-30.0	-32.5	19.5	6.05e-01	0	43	102	524288	21	4842
2026-01-24 12:57:29.64	321.74	22.40	-30.0	-32.7	19.4	6.06e-01	0	43	102	524288	21	4895
2026-01-24 12:57:31.65	322.06	22.12	-29.9	-32.3	19.6	6.05e-01	0	43	102	524288	21	4770
2026-01-24 12:57:33.64	322.38	21.85	-29.9	-32.4	19.6	6.08e-01	0	43	102	524288	21	4807
2026-01-24 12:57:35.64	322.69	21.58	-29.8	-32.1	19.7	6.05e-01	0	43	102	524288	21	4716
2026-01-24 12:57:37.65	323.00	21.30	-29.7	-32.0	19.8	6.06e-01	0	43	102	524288	21	4663
2026-01-24 12:57:39.67	323.30	21.03	-29.7	-31.9	19.9	6.06e-01	0	43	102	524288	21	4626
2026-01-24 12:57:41.67	323.60	20.77	-29.8	-32.1	19.8	6.06e-01	0	43	102	524288	21	4698
2026-01-24 12:57:43.68	323.89	20.51	-29.8	-32.2	19.7	6.06e-01	0	43	102	524288	21	4733
2026-01-24 12:57:45.69	324.17	20.24	-29.7	-31.9	19.8	6.05e-01	0	43	102	524288	21	4654
2026-01-24 12:57:47.70	324.46	19.99	-29.7	-32.0	19.9	6.04e-01	0	43	102	524288	21	4677
2026-01-24 12:57:49.70	324.73	19.73	-29.6	-31.6	20.1	6.07e-01	0	43	102	524288	21	4557
2026-01-24 12:57:51.71	325.00	19.48	-29.6	-31.8	20.0	6.07e-01	0	43	102	524288	21	4602
2026-01-24 12:57:53.71	325.27	19.22	-29.7	-31.8	19.9	6.04e-01	0	43	102	524288	21	4620
2026-01-24 12:57:55.73	325.54	18.97	-29.6	-31.7	20.0	6.05e-01	0	43	102	524288	21	4575
2026-01-24 12:57:57.73	325.79	18.73	-29.7	-31.9	19.9	6.06e-01	0	43	102	524288	21	4653
2026-01-24 12:57:59.74	326.05	18.48	-29.7	-31.9	19.9	6.06e-01	0	43	102	524288	21	4633
2026-01-24 12:58:01.75	326.30	18.24	-29.8	-32.1	19.8	6.06e-01	0	43	102	524288	21	4725
2026-01-24 12:58:03.75	326.54	18.00	-29.7	-31.9	19.9	6.04e-01	0	43	102	524288	21	4645
2026-01-24 12:58:05.75	326.79	17.76	-29.6	-31.7	20.0	6.07e-01	0	43	102	524288	21	4590
2026-01-24 12:58:07.75	327.02	17.52	-29.6	-31.8	19.9	6.05e-01	0	43	102	524288	21	4621
2026-01-24 12:58:09.76	327.26	17.29	-29.6	-31.8	20.0	6.07e-01	0	43	102	524288	21	4606
2026-01-24 12:58:11.77	327.49	17.05	-29.6	-31.8	19.9	6.04e-01	0	43	102	524288	21	4622
2026-01-24 12:58:13.77	327.72	16.83	-29.7	-32.0	19.8	6.00e-01	0	43	102	524288	21	4697
2026-01-24 12:58:15.77	327.94	16.60	-29.6	-31.6	20.1	6.00e-01	0	43	102	524288	21	4556
2026-01-24 12:58:17.79	328.16	16.37	-29.6	-31.7	20.0	6.02e-01	0	43	102	524288	21	4594
2026-01-24 12:58:19.79	328.38	16.15	-29.7	-31.9	20.0	6.03e-01	0	43	102	524288	21	4638
2026-01-24 12:58:21.80	328.59	15.92	-29.6	-31.7	20.0	5.99e-01	0	43	102	524288	21	4603
2026-01-24 12:58:23.81	328.80	15.70	-29.7	-31.9	20.0	6.03e-01	0	43	102	524288	21	4652
2026-01-24 12:58:25.83	329.01	15.48	-29.7	-31.9	20.0	6.00e-01	0	43	102	524288	21	4640
2026-01-24 12:58:27.84	329.22	15.26	-29.7	-32.0	19.8	5.99e-01	0	43	102	524288	21	4700
2026-01-24 12:58:29.84	329.42	15.05	-29.7	-32.0	19.8	6.00e-01	0	43	102	524288	21	4685
2026-01-24 12:58:31.85	329.62	14.83	-29.8	-32.4	19.6	5.99e-01	0	43	102	524288	21	4816
2026-01-24 12:58:33.86	329.81	14.62	-29.7	-32.1	19.7	6.02e-01	0	43	102	524288	21	4741
2026-01-24 12:58:35.87	330.00	14.41	-29.7	-32.1	19.7	5.99e-01	0	43	102	524288	21	4752
2026-01-24 12:58:37.88	330.19	14.20	-29.8	-32.3	19.5	6.01e-01	0	43	102	524288	21	4804
2026-01-24 12:58:39.89	330.38	14.00	-29.7	-32.1	19.7	6.00e-01	0	43	102	524288	21	4744
2026-01-24 12:58:41.90	330.57	13.79	-29.8	-32.4	19.4	6.02e-01	0	43	102	524288	21	4842
2026-01-24 12:58:43.91	330.75	13.59	-29.7	-32.1	19.6	6.01e-01	0	43	102	524288	21	4725
2026-01-24 12:58:45.91	330.93	13.39	-29.7	-32.1	19.6	6.00e-01	0	43	102	524288	21	4745
2026-01-24 12:58:47.93	331.11	13.19	-30.0	-32.8	19.1	6.03e-01	0	43	102	524288	21	4984
2026-01-24 12:58:49.94	331.28	12.99	-29.8	-32.4	19.4	6.01e-01	0	43	102	524288	21	4845
2026-01-24 12:58:51.95	331.45	12.79	-30.0	-32.8	19.1	6.02e-01	0	43	102	524288	21	4988
2026-01-24 12:58:53.96	331.62	12.60	-29.8	-32.5	19.3	6.01e-01	0	43	102	524288	21	4864
2026-01-24 12:58:55.97	331.79	12.40	-29.8	-32.4	19.3	6.01e-01	0	43	102	524288	21	4853
2026-01-24 12:58:57.99	331.96	12.21	-29.9	-32.6	19.3	6.01e-01	0	43	102	524288	21	4902
2026-01-24 12:59:00.00	332.12	12.02	-29.8	-32.5	19.3	5.98e-01	0	43	102	524288	21	4873
2026-01-24 12:59:02.01	332.28	11.83	-30.1	-33.1	18.9	6.02e-01	0	43	102	524288	21	5115
2026-01-24 12:59:04.02	332.44	11.64	-29.9	-32.7	19.1	6.00e-01	0	43	102	524288	21	4951
2026-01-24 12:59:06.02	332.60	11.45	-30.0	-32.8	19.0	6.00e-01	0	43	102	524288	21	4997
2026-01-24 12:59:08.03	332.76	11.27	-30.0	-33.0	18.9	5.99e-01	0	43	102	524288	21	5066
2026-01-24 12:59:10.04	332.91	11.09	-30.0	-32.9	18.9	6.03e-01	0	43	102	524288	21	5048
2026-01-24 12:59:12.05	333.06	10.90	-30.1	-33.2	18.7	6.03e-01	0	43	102	524288	21	5132
2026-01-24 12:59:14.05	333.21	10.72	-30.2	-33.4	18.6	6.03e-01	0	43	102	524288	21	5220
2026-01-24 12:59:16.06	333.36	10.54	-30.4	-33.9	18.2	6.01e-01	0	43	102	524288	21	5431
2026-01-24 12:59:18.06	333.50	10.37	-30.4	-34.0	18.1	6.02e-01	0	43	102	524288	21	5470
2026-01-24 12:59:20.07	333.65	10.19	-30.1	-33.2	18.5	6.02e-01	0	43	102	524288	21	5172
2026-01-24 12:59:22.08	333.79	10.01	-30.2	-33.4	18.5	6.01e-01	0	43	102	524288	21	5245
2026-01-24 12:59:24.09	333.93	9.84	-30.1	-33.3	18.5	6.00e-01	0	43	102	524288	21	5203
2026-01-24 12:59:26.09	334.07	9.66	-30.1	-33.3	18.5	6.00e-01	0	43	102	524288	21	5212
2026-01-24 12:59:28.10	334.20	9.49	-30.3	-33.7	18.2	6.01e-01	0	43	102	524288	21	5358
2026-01-24 12:59:30.12	334.34	9.32	-30.2	-33.6	18.3	5.99e-01	0	43	102	524288	21	5300
2026-01-24 12:59:32.12	334.47	9.15	-30.3	-33.7	18.1	6.00e-01	0	43	102	524288	21	5370
2026-01-24 12:59:34.14	334.61	8.98	-30.3	-33.9	18.0	6.03e-01	0	43	102	524288	21	5442
2026-01-24 12:59:36.14	334.74	8.82	-30.4	-34.0	18.0	6.00e-01	0	43	102	524288	21	5495
2026-01-24 12:59:38.15	334.87	8.65	-30.4	-34.1	17.9	6.03e-01	0	43	102	524288	21	5544
2026-01-24 12:59:40.16	334.99	8.48	-30.6	-34.7	17.5	6.02e-01	0	43	102	524288	21	5798
2026-01-24 12:59:42.15	335.12	8.32	-30.3	-34.0	18.0	5.99e-01	0	43	102	524288	21	5496
2026-01-24 12:59:44.15	335.24	8.16	-30.4	-34.2	17.8	6.00e-01	0	43	102	524288	21	5583
2026-01-24 12:59:46.15	335.37	8.00	-30.3	-34.0	18.0	6.02e-01	0	43	102	524288	21	5501
2026-01-24 12:59:48.16	335.49	7.84	-30.3	-34.0	17.9	6.00e-01	0	43	102	524288	21	5508
2026-01-24 12:59:50.17	335.61	7.68	-30.4	-34.2	17.8	6.01e-01	0	43	102	524288	21	5604
2026-01-24 12:59:52.17	335.73	7.52	-30.4	-34.4	17.7	6.01e-01	0	43	102	524288	21	5652
2026-01-24 12:59:54.17	335.85	7.36	-30.4	-34.3	17.7	5.99e-01	0	43	102	524288	21	5638
2026-01-24 12:59:56.18	335.97	7.20	-30.5	-34.5	17.5	6.01e-01	0	43	102	524288	21	5735
2026-01-24 12:59:58.19	336.08	7.05	-33.9	-53.1	3.7	7.48e-01	0	43	104	524288	28	32722

#Closed at: 2026-01-24 12:59:59
#Recorded file [0 MB]: D:/data/31010_260124_155216.dat