passes_logs/2026/01/24/R2M6_AANII_01/R2M6_AANII_01__20260124_120141_NOAA_20_JPSS-1_rec.log

#Pass ID: 20260124_120141_NOAA 20 (JPSS-1)
#Satellite: NOAA 20 (JPSS-1)
#Configuration: NOAA 20
#almurnet v.1.7.20240730
#Start time: 2026-01-24 12:01:42

#Version: 2.2.20231116
#Station: R2M6_AANII_01
#Location: 30.233357 lon 59.946436 lat
#TLE: 1 43013U 17073A   26023.57676825  .00000205  00000+0  11821-3 0  9990
#TLE: 2 43013  98.7645 324.4259 0001147  27.0566 333.0670 14.19539368423954

#Time	Az	El	Level	Level2	SNR	BER	BlckErr	Temp	State	Recorded	gain1	gain2
2026-01-24 12:01:42.54	216.48	7.05	-31.3	-36.3	5.3	1.16e+00	0	41	0	0	23	6361
2026-01-24 12:01:45.54	216.78	7.24	-31.9	-37.8	7.8	8.86e-02	0	41	102	1048576	24	7164
2026-01-24 12:01:48.55	217.09	7.42	-31.3	-35.5	9.7	1.92e-02	0	41	102	1048576	24	5835
2026-01-24 12:01:51.56	217.40	7.61	-31.2	-35.4	10.3	8.03e-03	0	41	102	1048576	23	5845
2026-01-24 12:01:54.57	217.72	7.80	-30.8	-34.3	11.2	1.29e-03	0	41	102	1048576	23	5328
2026-01-24 12:01:57.58	218.03	7.98	-31.0	-35.1	11.0	2.12e-03	0	41	102	1048576	22	5795
2026-01-24 12:02:00.58	218.35	8.17	-30.9	-34.9	11.1	1.77e-03	0	41	102	1048576	22	5711
2026-01-24 12:02:03.60	218.68	8.36	-31.2	-35.8	10.5	3.24e-03	0	41	102	1048576	22	6128
2026-01-24 12:02:06.62	219.01	8.55	-31.0	-35.3	10.8	2.33e-03	0	42	102	1048576	22	5905
2026-01-24 12:02:09.63	219.35	8.74	-31.1	-35.5	10.7	2.85e-03	0	42	102	1048576	22	5973
2026-01-24 12:02:12.63	219.68	8.93	-31.1	-35.6	10.6	4.33e-03	0	42	102	1048576	22	6012
2026-01-24 12:02:15.65	220.03	9.12	-30.8	-34.4	11.5	7.80e-04	0	42	102	1048576	22	5484
2026-01-24 12:02:18.66	220.38	9.32	-30.8	-34.6	11.4	7.80e-04	0	42	102	1048576	22	5543
2026-01-24 12:02:21.68	220.73	9.51	-30.8	-34.4	11.6	5.62e-04	0	42	102	1048576	22	5481
2026-01-24 12:02:24.70	221.09	9.70	-30.7	-34.2	11.7	6.77e-04	0	42	102	1048576	22	5390
2026-01-24 12:02:27.72	221.45	9.90	-30.6	-33.8	12.1	2.57e-04	0	42	102	1048576	22	5209
2026-01-24 12:02:30.73	221.81	10.09	-30.5	-33.5	12.3	2.39e-04	0	42	102	1048576	22	5097
2026-01-24 12:02:33.73	222.18	10.29	-30.7	-34.0	12.0	2.86e-04	0	42	102	1048576	22	5299
2026-01-24 12:02:36.74	222.56	10.48	-30.4	-33.1	12.6	1.24e-04	0	42	102	1048576	22	4948
2026-01-24 12:02:39.76	222.94	10.68	-30.4	-33.2	12.5	1.26e-04	0	42	102	1048576	22	4972
2026-01-24 12:02:42.77	223.32	10.87	-30.3	-33.5	12.7	8.08e-05	0	42	102	1048576	21	5170
2026-01-24 12:02:45.78	223.71	11.07	-30.2	-33.2	12.9	4.80e-05	0	42	102	1048576	21	5055
2026-01-24 12:02:48.79	224.11	11.27	-30.2	-33.0	13.0	4.34e-05	0	42	102	1048576	21	4986
2026-01-24 12:02:51.80	224.51	11.46	-30.1	-32.9	13.0	4.88e-05	0	42	102	1048576	21	4974
2026-01-24 12:02:54.82	224.91	11.66	-30.2	-33.1	12.9	4.04e-05	0	42	102	1048576	21	5044
2026-01-24 12:02:57.84	225.33	11.86	-30.1	-32.9	13.1	3.12e-05	0	42	102	1048576	21	4957
2026-01-24 12:03:00.85	225.74	12.06	-30.2	-33.1	13.0	2.74e-05	0	42	102	1048576	21	5010
2026-01-24 12:03:03.86	226.16	12.26	-30.3	-33.3	12.9	5.34e-05	0	42	102	1048576	21	5108
2026-01-24 12:03:06.87	226.59	12.46	-30.5	-33.9	12.5	7.70e-05	0	43	102	1048576	21	5352
2026-01-24 12:03:09.89	227.02	12.66	-30.3	-33.2	13.0	3.89e-05	0	42	102	1048576	21	5065
2026-01-24 12:03:12.91	227.46	12.86	-30.4	-33.6	12.7	5.11e-05	0	43	102	1048576	21	5203
2026-01-24 12:03:15.92	227.91	13.05	-30.3	-33.4	12.9	9.76e-05	0	43	102	1048576	21	5134
2026-01-24 12:03:18.93	228.36	13.25	-30.0	-32.3	13.6	1.06e-05	0	43	102	1048576	21	4742
2026-01-24 12:03:21.94	228.81	13.45	-30.2	-32.9	13.2	1.29e-05	0	43	102	1048576	21	4950
2026-01-24 12:03:24.95	229.27	13.65	-30.0	-32.6	13.5	1.06e-05	0	43	102	1048576	21	4814
2026-01-24 12:03:27.96	229.74	13.85	-30.2	-32.9	13.2	1.29e-05	0	42	102	1048576	21	4947
2026-01-24 12:03:30.98	230.22	14.05	-30.0	-32.4	13.6	5.30e-06	0	43	102	1048576	21	4764
2026-01-24 12:03:34.00	230.70	14.25	-30.1	-32.8	13.4	1.06e-05	0	43	102	1048576	21	4888
2026-01-24 12:03:37.02	231.19	14.45	-30.1	-32.7	13.5	1.29e-05	0	43	102	1048576	21	4840
2026-01-24 12:03:40.02	231.68	14.65	-30.2	-33.0	13.2	1.75e-05	0	43	102	1048576	21	4971
2026-01-24 12:03:43.04	232.18	14.85	-30.2	-32.9	13.4	6.80e-06	0	43	102	1048576	21	4911
2026-01-24 12:03:46.07	232.69	15.04	-30.0	-32.5	13.6	1.22e-05	0	43	102	1048576	21	4790
2026-01-24 12:03:49.08	233.20	15.24	-30.1	-32.8	13.5	5.30e-06	0	43	102	1048576	21	4874
2026-01-24 12:03:52.09	233.72	15.44	-30.3	-33.2	13.2	1.60e-05	0	43	102	1048576	21	5024
2026-01-24 12:03:55.10	234.25	15.63	-30.2	-32.9	13.4	1.75e-05	0	43	102	1048576	21	4912
2026-01-24 12:03:58.11	234.78	15.83	-30.3	-33.1	13.3	1.14e-05	0	43	102	1048576	21	4993
2026-01-24 12:04:01.12	235.32	16.02	-30.3	-33.1	13.3	1.98e-05	0	43	102	1048576	21	4987
2026-01-24 12:04:04.14	235.86	16.22	-30.3	-33.3	13.2	3.35e-05	0	43	102	1048576	21	5050
2026-01-24 12:04:07.16	236.42	16.41	-30.0	-32.3	13.9	1.50e-06	0	43	102	1048576	21	4683
2026-01-24 12:04:10.17	236.98	16.60	-30.1	-32.5	13.8	2.20e-06	0	43	102	1048576	21	4759
2026-01-24 12:04:13.18	237.54	16.79	-30.2	-32.9	13.5	5.30e-06	0	43	102	1048576	21	4902
2026-01-24 12:04:16.20	238.12	16.98	-29.9	-32.0	14.1	3.00e-06	0	43	102	1048576	21	4599
2026-01-24 12:04:19.22	238.70	17.17	-29.7	-32.0	14.4	7.00e-07	0	43	102	1048576	20	4688
2026-01-24 12:04:22.24	239.29	17.36	-29.7	-32.0	14.5	2.20e-06	0	43	102	1048576	20	4690
2026-01-24 12:04:25.25	239.89	17.54	-29.6	-31.6	14.7	0.00e+00	0	43	102	1048576	20	4572
2026-01-24 12:04:28.26	240.49	17.72	-29.5	-31.4	14.8	0.00e+00	0	43	102	1048576	20	4510
2026-01-24 12:04:31.27	241.10	17.90	-29.5	-31.6	14.7	7.00e-07	0	43	102	1048576	20	4554
2026-01-24 12:04:34.28	241.71	18.08	-29.6	-31.8	14.6	7.00e-07	0	43	102	1048576	20	4625
2026-01-24 12:04:37.30	242.34	18.26	-29.6	-31.9	14.5	1.50e-06	0	43	102	1048576	20	4644
2026-01-24 12:04:40.30	242.96	18.44	-29.7	-31.9	14.5	0.00e+00	0	43	102	1048576	20	4665
2026-01-24 12:04:43.31	243.60	18.61	-29.9	-32.6	14.1	7.00e-07	0	43	102	1048576	20	4876
2026-01-24 12:04:46.32	244.24	18.78	-30.2	-33.3	13.7	4.50e-06	0	43	102	1048576	20	5145
2026-01-24 12:04:49.33	244.90	18.95	-30.2	-33.4	13.6	1.06e-05	0	43	102	1048576	20	5185
2026-01-24 12:04:52.35	245.56	19.12	-30.4	-33.8	13.4	1.98e-05	0	43	102	1048576	20	5329
2026-01-24 12:04:55.36	246.22	19.28	-30.5	-33.7	13.1	1.98e-05	0	43	102	1048576	21	5189
2026-01-24 12:04:58.37	246.89	19.44	-30.7	-34.3	12.7	6.33e-05	0	43	102	1048576	21	5417
2026-01-24 12:05:01.37	247.57	19.60	-31.0	-35.0	12.2	2.00e-04	0	43	102	1048576	21	5731
2026-01-24 12:05:04.39	248.26	19.75	-31.0	-34.6	12.2	2.87e-04	0	43	102	1048576	22	5438
2026-01-24 12:05:07.41	248.95	19.91	-31.0	-34.6	12.2	2.68e-04	0	43	102	1048576	22	5449
2026-01-24 12:05:10.42	249.65	20.05	-31.0	-34.6	12.2	2.41e-04	0	43	102	1048576	22	5453
2026-01-24 12:05:13.45	250.36	20.20	-31.1	-34.9	12.0	3.94e-04	0	43	102	1048576	22	5576
2026-01-24 12:05:16.47	251.07	20.34	-31.0	-34.5	12.3	2.11e-04	0	43	102	1048576	22	5383
2026-01-24 12:05:19.47	251.79	20.48	-30.6	-33.3	13.1	3.96e-05	0	43	102	1048576	22	4913
2026-01-24 12:05:22.48	252.51	20.61	-30.5	-33.0	13.3	1.06e-05	0	43	102	1048576	22	4803
2026-01-24 12:05:25.50	253.25	20.74	-30.7	-33.7	12.8	5.56e-05	0	43	102	1048576	22	5064
2026-01-24 12:05:28.52	253.98	20.87	-30.8	-33.9	12.7	8.01e-05	0	43	102	1048576	22	5135
2026-01-24 12:05:31.53	254.73	20.99	-30.7	-33.5	13.0	3.81e-05	0	43	102	1048576	22	5016
2026-01-24 12:05:34.53	255.47	21.11	-30.5	-33.2	13.2	2.97e-05	0	43	102	1048576	22	4872
2026-01-24 12:05:37.54	256.22	21.22	-30.5	-33.2	13.2	2.21e-05	0	43	102	1048576	22	4871
2026-01-24 12:05:40.55	256.98	21.33	-30.6	-33.4	13.1	2.36e-05	0	43	102	1048576	22	4952
2026-01-24 12:05:43.56	257.75	21.44	-30.7	-33.6	13.0	5.03e-05	0	43	102	1048576	22	5018
2026-01-24 12:05:46.56	258.51	21.54	-30.4	-32.9	13.4	1.22e-05	0	43	102	1048576	22	4775
2026-01-24 12:05:49.57	259.29	21.63	-30.4	-32.8	13.5	1.06e-05	0	43	102	1048576	22	4739
2026-01-24 12:05:52.57	260.06	21.72	-30.1	-32.6	14.0	3.80e-06	0	43	102	1048576	21	4756
2026-01-24 12:05:55.59	260.84	21.81	-30.4	-33.2	13.6	1.22e-05	0	43	102	1048576	21	4980
2026-01-24 12:05:58.60	261.63	21.89	-30.1	-32.5	14.0	7.00e-07	0	43	102	1048576	21	4749
2026-01-24 12:06:01.61	262.42	21.96	-30.1	-32.6	14.0	3.00e-06	0	43	102	1048576	21	4759
2026-01-24 12:06:04.62	263.21	22.03	-30.2	-32.8	13.8	6.10e-06	0	43	102	1048576	21	4853
2026-01-24 12:06:07.65	264.01	22.09	-30.3	-33.1	13.6	1.06e-05	0	43	102	1048576	21	4962
2026-01-24 12:06:10.66	264.81	22.15	-30.5	-33.5	13.4	1.06e-05	0	43	102	1048576	21	5086
2026-01-24 12:06:13.67	265.62	22.21	-30.8	-34.3	12.8	3.96e-05	0	43	102	1048576	21	5393
2026-01-24 12:06:16.68	266.42	22.25	-30.6	-33.8	13.2	3.28e-05	0	43	102	1048576	21	5208
2026-01-24 12:06:19.70	267.23	22.29	-30.6	-33.7	13.2	1.83e-05	0	43	102	1048576	21	5177
2026-01-24 12:06:22.71	268.04	22.33	-30.7	-34.0	13.0	3.12e-05	0	43	102	1048576	21	5299
2026-01-24 12:06:25.72	268.85	22.36	-30.3	-33.1	13.6	5.30e-06	0	43	102	1048576	21	4934
2026-01-24 12:06:28.73	269.66	22.38	-30.7	-34.0	13.0	2.82e-05	0	43	102	1048576	21	5288
2026-01-24 12:06:31.75	270.48	22.40	-30.5	-33.6	13.3	2.97e-05	0	43	102	1048576	21	5133
2026-01-24 12:06:34.77	271.29	22.42	-30.4	-33.2	13.5	7.60e-06	0	43	102	1048576	21	4971
2026-01-24 12:06:37.78	272.11	22.42	-29.9	-31.9	14.3	0.00e+00	0	43	102	1048576	21	4551
2026-01-24 12:06:40.80	272.92	22.42	-30.3	-33.1	13.6	5.30e-06	0	43	102	1048576	21	4932
2026-01-24 12:06:43.79	273.73	22.42	-30.4	-33.3	13.4	5.30e-06	0	43	102	1048576	21	5012
2026-01-24 12:06:46.80	274.54	22.41	-30.0	-32.1	14.3	1.50e-06	0	43	102	1048576	21	4605
2026-01-24 12:06:49.82	275.36	22.39	-29.9	-31.9	14.4	3.00e-06	0	43	102	1048576	21	4539
2026-01-24 12:06:52.82	276.17	22.37	-30.4	-33.2	13.5	6.10e-06	0	43	102	1048576	21	4985
2026-01-24 12:06:55.83	276.98	22.34	-30.6	-33.8	13.1	2.82e-05	0	43	102	1048576	21	5192
2026-01-24 12:06:58.84	277.79	22.31	-30.6	-33.9	13.1	2.82e-05	0	43	102	1048576	21	5266
2026-01-24 12:07:01.85	278.59	22.27	-30.6	-33.9	13.1	2.21e-05	0	43	102	1048576	21	5227
2026-01-24 12:07:04.86	279.40	22.22	-30.2	-32.8	13.8	6.80e-06	0	43	102	1048576	21	4839
2026-01-24 12:07:07.87	280.20	22.17	-30.2	-32.7	13.9	3.00e-06	0	43	102	1048576	21	4813
2026-01-24 12:07:10.88	281.00	22.12	-30.7	-34.0	13.0	2.97e-05	0	43	102	1048576	21	5309
2026-01-24 12:07:13.89	281.79	22.05	-30.5	-33.6	13.3	1.98e-05	0	43	102	1048576	21	5131
2026-01-24 12:07:16.88	282.58	21.99	-30.5	-33.6	13.3	1.37e-05	0	43	102	1048576	21	5139
2026-01-24 12:07:19.89	283.37	21.91	-30.3	-32.9	13.7	8.30e-06	0	43	102	1048576	21	4887
2026-01-24 12:07:22.91	284.16	21.84	-30.6	-33.8	13.2	1.06e-05	0	43	102	1048576	21	5209
2026-01-24 12:07:25.92	284.94	21.75	-30.6	-33.7	13.2	2.44e-05	0	43	102	1048576	21	5173
2026-01-24 12:07:28.93	285.72	21.67	-30.4	-33.2	13.6	7.60e-06	0	43	102	1048576	21	4964
2026-01-24 12:07:31.95	286.49	21.57	-30.2	-32.7	13.9	8.30e-06	0	43	102	1048576	21	4787
2026-01-24 12:07:34.96	287.26	21.48	-30.2	-32.8	13.9	7.00e-07	0	43	102	1048576	21	4834
2026-01-24 12:07:37.98	288.03	21.37	-30.3	-33.0	13.7	8.30e-06	0	43	102	1048576	21	4922
2026-01-24 12:07:40.99	288.78	21.27	-30.0	-32.1	14.3	1.50e-06	0	43	102	1048576	21	4590
2026-01-24 12:07:44.01	289.54	21.15	-29.8	-31.8	14.5	0.00e+00	0	43	102	1048576	21	4494
2026-01-24 12:07:47.01	290.28	21.04	-29.4	-31.1	15.2	0.00e+00	0	43	102	1048576	20	4396
2026-01-24 12:07:50.03	291.03	20.92	-30.0	-33.1	14.3	0.00e+00	0	43	102	1048576	19	5169
2026-01-24 12:07:53.04	291.76	20.79	-29.8	-32.2	14.5	1.50e-06	0	43	102	1048576	20	4735
2026-01-24 12:07:56.06	292.50	20.67	-29.9	-32.4	14.4	0.00e+00	0	43	102	1048576	20	4815
2026-01-24 12:07:59.07	293.22	20.53	-29.7	-32.0	14.6	0.00e+00	0	43	102	1048576	20	4667
2026-01-24 12:08:02.08	293.94	20.40	-29.5	-31.5	14.9	0.00e+00	0	43	102	1048576	20	4525
2026-01-24 12:08:05.09	294.65	20.26	-29.2	-31.2	15.4	0.00e+00	0	43	102	1048576	19	4522
2026-01-24 12:08:08.09	295.35	20.12	-29.2	-31.1	15.6	0.00e+00	0	43	102	1048576	19	4473
2026-01-24 12:08:11.10	296.05	19.97	-29.2	-31.2	15.4	0.00e+00	0	43	102	1048576	19	4522
2026-01-24 12:08:14.12	296.74	19.82	-29.5	-31.8	15.1	0.00e+00	0	43	102	1048576	19	4722
2026-01-24 12:08:17.13	297.43	19.67	-29.7	-32.5	14.7	0.00e+00	0	43	102	1048576	19	4948
2026-01-24 12:08:20.14	298.11	19.51	-29.7	-32.4	14.7	0.00e+00	0	43	102	1048576	19	4899
2026-01-24 12:08:23.15	298.78	19.35	-29.6	-32.0	15.0	0.00e+00	0	44	102	1048576	19	4785
2026-01-24 12:08:26.18	299.45	19.19	-29.4	-31.7	15.2	0.00e+00	0	43	102	1048576	19	4668
2026-01-24 12:08:29.19	300.11	19.03	-29.8	-32.6	14.6	0.00e+00	0	43	102	1048576	19	4983
2026-01-24 12:08:32.19	300.75	18.86	-30.2	-33.3	13.7	3.00e-06	0	43	102	1048576	20	5153
2026-01-24 12:08:35.21	301.40	18.69	-30.3	-33.6	13.5	1.52e-05	0	43	102	1048576	20	5258
2026-01-24 12:08:38.22	302.04	18.52	-30.4	-33.9	13.3	1.83e-05	0	43	102	1048576	20	5384
2026-01-24 12:08:41.23	302.67	18.35	-30.4	-33.4	13.3	2.44e-05	0	43	102	1048576	21	5083
2026-01-24 12:08:44.24	303.29	18.17	-30.2	-32.9	13.7	5.30e-06	0	43	102	1048576	21	4869
2026-01-24 12:08:47.25	303.90	17.99	-30.2	-32.7	13.8	3.80e-06	0	43	102	1048576	21	4796
2026-01-24 12:08:50.26	304.51	17.81	-30.3	-33.0	13.5	4.50e-06	0	43	102	1048576	21	4928
2026-01-24 12:08:53.27	305.11	17.63	-30.4	-33.5	13.2	2.28e-05	0	43	102	1048576	21	5102
2026-01-24 12:08:56.29	305.71	17.45	-30.5	-33.7	13.1	3.05e-05	0	43	102	1048576	21	5168
2026-01-24 12:08:59.31	306.30	17.27	-30.5	-33.6	13.1	3.66e-05	0	43	102	1048576	21	5155
2026-01-24 12:09:02.32	306.88	17.08	-30.3	-33.0	13.6	1.60e-05	0	43	102	1048576	21	4912
2026-01-24 12:09:05.34	307.46	16.89	-30.3	-33.0	13.5	6.10e-06	0	43	102	1048576	21	4922
2026-01-24 12:09:08.35	308.02	16.71	-30.4	-33.5	13.2	2.67e-05	0	43	102	1048576	21	5102
2026-01-24 12:09:11.36	308.58	16.52	-30.2	-32.7	13.7	7.60e-06	0	43	102	1048576	21	4833
2026-01-24 12:09:14.37	309.13	16.33	-30.4	-33.5	13.2	1.29e-05	0	43	102	1048576	21	5100
2026-01-24 12:09:17.39	309.68	16.13	-30.7	-34.3	12.6	8.46e-05	0	43	102	1048576	21	5415
2026-01-24 12:09:20.40	310.22	15.94	-30.4	-33.3	13.2	1.67e-05	0	43	102	1048576	21	5055
2026-01-24 12:09:23.41	310.75	15.75	-30.3	-33.1	13.4	9.10e-06	0	43	102	1048576	21	4974
2026-01-24 12:09:26.42	311.28	15.56	-30.4	-33.5	13.2	4.19e-05	0	43	102	1048576	21	5104
2026-01-24 12:09:29.42	311.80	15.36	-30.2	-33.0	13.5	1.60e-05	0	43	102	1048576	21	4925
2026-01-24 12:09:32.43	312.31	15.17	-30.3	-33.2	13.3	1.06e-05	0	43	102	1048576	21	5013
2026-01-24 12:09:35.45	312.82	14.97	-30.7	-34.2	12.6	6.79e-05	0	43	102	1048576	21	5408
2026-01-24 12:09:38.46	313.32	14.78	-30.8	-34.5	12.5	1.67e-04	0	43	102	1048576	21	5518
2026-01-24 12:09:41.47	313.81	14.58	-30.5	-33.6	13.0	3.12e-05	0	43	102	1048576	21	5168
2026-01-24 12:09:44.48	314.30	14.38	-30.6	-34.1	12.7	1.12e-04	0	43	102	1048576	21	5375
2026-01-24 12:09:47.48	314.78	14.19	-30.4	-33.5	13.1	2.67e-05	0	43	102	1048576	21	5138
2026-01-24 12:09:50.49	315.25	13.99	-30.3	-33.2	13.3	2.36e-05	0	43	102	1048576	21	5001
2026-01-24 12:09:53.50	315.72	13.79	-30.2	-33.0	13.4	9.90e-06	0	43	102	1048576	21	4937
2026-01-24 12:09:56.52	316.18	13.60	-30.2	-32.9	13.4	4.50e-06	0	43	102	1048576	21	4913
2026-01-24 12:09:59.53	316.64	13.40	-30.7	-34.2	12.6	9.46e-05	0	43	102	1048576	21	5419
2026-01-24 12:10:02.54	317.09	13.20	-30.8	-34.6	12.3	1.67e-04	0	43	102	1048576	21	5569
2026-01-24 12:10:05.56	317.54	13.00	-30.6	-34.1	12.5	1.38e-04	0	43	102	1048576	21	5394
2026-01-24 12:10:08.57	317.98	12.81	-30.7	-34.4	12.3	1.22e-04	0	43	102	1048576	21	5521
2026-01-24 12:10:11.58	318.41	12.61	-30.7	-34.5	12.3	1.58e-04	0	43	102	1048576	21	5542
2026-01-24 12:10:14.60	318.84	12.41	-30.6	-34.2	12.5	1.33e-04	0	43	102	1048576	21	5410
2026-01-24 12:10:17.61	319.26	12.21	-30.4	-33.4	13.1	3.35e-05	0	44	102	1048576	21	5079
2026-01-24 12:10:20.61	319.68	12.02	-30.3	-33.3	13.1	1.60e-05	0	43	102	1048576	21	5064
2026-01-24 12:10:23.63	320.09	11.82	-30.8	-34.6	12.2	1.69e-04	0	43	102	1048576	21	5574
2026-01-24 12:10:26.65	320.50	11.63	-30.9	-35.1	11.8	5.52e-04	0	43	102	1048576	21	5820
2026-01-24 12:10:29.67	320.90	11.43	-30.8	-34.8	12.0	4.29e-04	0	43	102	1048576	21	5676
2026-01-24 12:10:32.69	321.30	11.23	-30.7	-34.4	12.3	1.80e-04	0	43	102	1048576	21	5525
2026-01-24 12:10:35.69	321.69	11.04	-30.7	-34.5	12.1	3.19e-04	0	43	102	1048576	21	5583
2026-01-24 12:10:38.69	322.07	10.85	-30.7	-34.5	12.1	2.72e-04	0	43	102	1048576	21	5562
2026-01-24 12:10:41.70	322.45	10.65	-30.6	-34.1	12.4	1.82e-04	0	43	102	1048576	21	5417
2026-01-24 12:10:44.71	322.83	10.46	-30.7	-34.6	12.1	2.44e-04	0	43	102	1048576	21	5593
2026-01-24 12:10:47.72	323.20	10.27	-30.8	-34.8	11.9	4.06e-04	0	43	102	1048576	21	5723
2026-01-24 12:10:50.75	323.57	10.07	-31.1	-35.2	11.3	1.18e-03	0	43	102	1048576	22	5766
2026-01-24 12:10:53.75	323.93	9.88	-31.2	-35.4	11.1	1.54e-03	0	43	102	1048576	22	5878
2026-01-24 12:10:56.77	324.29	9.69	-31.1	-35.1	11.3	1.12e-03	0	43	102	1048576	22	5711
2026-01-24 12:10:59.79	324.64	9.50	-31.0	-34.9	11.4	1.61e-03	0	43	102	1048576	22	5634
2026-01-24 12:11:02.81	324.99	9.31	-30.8	-34.4	11.8	4.95e-04	0	43	102	1048576	22	5437
2026-01-24 12:11:05.83	325.34	9.11	-31.0	-35.0	11.3	1.27e-03	0	43	102	1048576	22	5708
2026-01-24 12:11:08.84	325.68	8.93	-31.1	-35.4	11.0	1.74e-03	0	43	102	1048576	22	5865
2026-01-24 12:11:11.85	326.02	8.74	-31.1	-35.4	11.0	2.00e-03	0	43	102	1048576	22	5857
2026-01-24 12:11:14.87	326.35	8.55	-31.2	-35.7	10.8	3.02e-03	0	43	102	1048576	22	6035
2026-01-24 12:11:17.88	326.68	8.36	-31.4	-36.4	10.2	5.20e-03	0	43	102	1048576	22	6375
2026-01-24 12:11:20.90	327.00	8.17	-31.8	-37.3	9.1	1.92e-02	0	43	102	1048576	23	6814
2026-01-24 12:11:23.92	327.32	7.99	-31.7	-37.0	9.3	2.11e-02	0	43	102	1048576	23	6651
2026-01-24 12:11:26.93	327.64	7.80	-31.5	-36.3	9.8	1.15e-02	0	43	102	1048576	23	6240
2026-01-24 12:11:29.94	327.95	7.62	-31.4	-36.0	10.0	8.81e-03	0	43	102	1048576	23	6123
2026-01-24 12:11:32.96	328.26	7.43	-31.2	-35.3	10.5	3.65e-03	0	43	102	1048576	23	5779
2026-01-24 12:11:35.97	328.57	7.25	-31.3	-35.8	10.1	7.11e-03	0	43	102	1048576	23	6014
2026-01-24 12:11:38.99	328.87	7.06	-31.4	-35.9	10.1	6.60e-03	0	43	102	1048576	23	6045

#Closed at: 2026-01-24 12:11:41
#Recorded file [1 MB]: D:/data/31010_260124_150144.dat