passes_logs/2026/01/24/R2M6_AANII_01/R2M6_AANII_01__20260124_234732_SUOMI_NPP_rec.log

#Pass ID: 20260124_234732_SUOMI NPP
#Satellite: SUOMI NPP
#Configuration: NPP
#almurnet v.1.7.20240730
#Start time: 2026-01-24 23:47:33

#Version: 2.2.20231116
#Station: R2M6_AANII_01
#Location: 30.233357 lon 59.946436 lat
#TLE: 1 37849U 11061A   26024.54906732  .00000185  00000+0  10878-3 0  9990
#TLE: 2 37849  98.7821 326.5159 0002200  47.3746 312.7615 14.19529340738061

#Time	Az	El	Level	Level2	SNR	BER	BlckErr	Temp	State	Recorded	gain1	gain2
2026-01-24 23:47:33.10	21.85	7.02	-31.2	-36.2	4.9	1.30e+00	0	41	0	0	22	6336
2026-01-24 23:47:36.10	21.97	7.25	-31.4	-36.9	7.1	1.31e-01	0	41	102	1048576	22	6737
2026-01-24 23:47:39.11	22.09	7.47	-31.5	-36.8	6.8	1.42e-01	0	41	102	1048576	23	6618
2026-01-24 23:47:42.12	22.21	7.70	-31.2	-35.6	8.1	8.04e-02	0	42	102	1048576	22	6015
2026-01-24 23:47:45.13	22.33	7.93	-30.8	-34.6	9.3	2.34e-02	0	42	102	1048576	21	5578
2026-01-24 23:47:48.14	22.46	8.17	-30.7	-34.1	9.7	1.07e-02	0	42	102	1048576	21	5322
2026-01-24 23:47:51.15	22.58	8.40	-30.1	-32.7	11.2	1.86e-03	0	42	102	1048576	20	4825
2026-01-24 23:47:54.15	22.71	8.64	-30.0	-32.3	11.5	6.09e-04	0	42	102	1048576	20	4670
2026-01-24 23:47:57.16	22.84	8.88	-30.0	-32.3	11.5	5.52e-04	0	42	102	1048576	20	4680
2026-01-24 23:48:00.17	22.97	9.12	-29.8	-31.6	12.0	3.66e-04	0	42	102	1048576	20	4421
2026-01-24 23:48:03.18	23.11	9.36	-29.9	-32.5	11.6	7.10e-04	0	42	102	1048576	19	4820
2026-01-24 23:48:06.19	23.25	9.61	-30.0	-32.2	11.5	7.32e-04	0	42	102	1048576	20	4641
2026-01-24 23:48:09.20	23.38	9.86	-29.8	-32.2	12.1	2.47e-04	0	42	102	1048576	19	4701
2026-01-24 23:48:12.20	23.52	10.11	-29.8	-31.9	12.3	2.22e-04	0	42	102	1048576	19	4610
2026-01-24 23:48:15.22	23.67	10.36	-29.8	-32.1	12.2	1.87e-04	0	43	102	1048576	19	4661
2026-01-24 23:48:18.23	23.81	10.62	-29.8	-32.0	12.3	1.83e-04	0	42	102	1048576	19	4640
2026-01-24 23:48:21.24	23.96	10.88	-29.7	-31.7	12.5	5.31e-04	0	43	102	1048576	19	4532
2026-01-24 23:48:24.26	24.11	11.14	-29.8	-32.0	12.3	5.15e-04	0	43	102	1048576	19	4626
2026-01-24 23:48:27.27	24.26	11.41	-29.8	-31.8	12.5	5.61e-04	0	43	102	1048576	19	4565
2026-01-24 23:48:30.28	24.42	11.67	-29.8	-31.9	12.4	5.58e-04	0	43	102	1048576	19	4584
2026-01-24 23:48:33.30	24.58	11.94	-30.1	-32.3	11.8	1.02e-03	0	43	102	1048576	20	4641
2026-01-24 23:48:36.33	24.74	12.22	-30.0	-32.4	12.2	1.78e-04	0	43	102	1048576	19	4759
2026-01-24 23:48:39.33	24.90	12.49	-30.1	-32.3	11.8	9.35e-04	0	43	102	1048576	20	4648
2026-01-24 23:48:42.34	25.06	12.77	-29.9	-32.2	12.3	6.06e-04	0	43	102	1048576	19	4689
2026-01-24 23:48:45.35	25.23	13.05	-29.7	-31.7	12.7	6.19e-04	0	43	102	1048576	19	4489
2026-01-24 23:48:48.34	25.40	13.33	-29.5	-31.1	13.1	4.69e-04	0	43	102	1048576	19	4302
2026-01-24 23:48:51.35	25.58	13.62	-29.5	-31.5	13.2	5.91e-04	0	43	102	1048576	18	4520
2026-01-24 23:48:54.36	25.76	13.91	-29.5	-31.3	13.1	6.01e-04	0	43	102	1048576	18	4478
2026-01-24 23:48:57.37	25.94	14.21	-29.3	-31.0	13.6	3.55e-04	0	43	102	1048576	18	4371
2026-01-24 23:49:00.38	26.12	14.50	-29.2	-30.7	13.7	1.00e-03	0	43	102	1048576	18	4286
2026-01-24 23:49:03.38	26.31	14.80	-29.2	-30.5	13.9	1.06e-03	0	43	102	1048576	18	4222
2026-01-24 23:49:06.38	26.50	15.11	-29.0	-30.5	14.2	9.06e-04	0	43	102	1048576	17	4304
2026-01-24 23:49:09.40	26.70	15.42	-29.3	-30.9	13.7	9.95e-04	0	43	102	1048576	18	4321
2026-01-24 23:49:12.41	26.89	15.73	-28.8	-30.0	14.5	7.00e-07	0	43	102	1048576	17	4164
2026-01-24 23:49:15.42	27.10	16.04	-28.8	-30.1	14.5	9.26e-04	0	43	102	1048576	17	4180
2026-01-24 23:49:18.43	27.30	16.36	-28.8	-30.1	14.5	5.91e-04	0	43	102	1048576	17	4179
2026-01-24 23:49:21.44	27.52	16.69	-28.9	-30.4	14.3	1.54e-04	0	43	102	1048576	17	4265
2026-01-24 23:49:24.45	27.73	17.01	-28.9	-29.8	14.5	8.30e-06	0	44	102	1048576	18	4002
2026-01-24 23:49:27.46	27.95	17.34	-28.9	-29.9	14.4	3.59e-04	0	43	102	1048576	18	4035
2026-01-24 23:49:30.47	28.18	17.68	-28.9	-29.7	14.5	7.00e-07	0	43	102	1048576	18	3970
2026-01-24 23:49:33.48	28.41	18.02	-28.7	-29.7	14.8	1.98e-05	0	43	102	1048576	17	4063
2026-01-24 23:49:36.49	28.64	18.36	-28.5	-29.3	15.1	3.73e-05	0	43	102	1048576	17	3948
2026-01-24 23:49:39.49	28.88	18.71	-28.5	-29.4	15.0	3.39e-04	0	43	102	1048576	17	3964
2026-01-24 23:49:42.50	29.12	19.06	-28.6	-29.5	14.9	5.17e-04	0	44	102	1048576	17	4013
2026-01-24 23:49:45.51	29.37	19.42	-28.7	-29.8	14.0	4.38e-04	0	43	102	1048576	17	4083
2026-01-24 23:49:48.53	29.63	19.78	-28.7	-29.7	14.8	0.00e+00	0	43	102	1048576	17	4046
2026-01-24 23:49:51.54	29.89	20.15	-28.7	-29.8	14.8	3.79e-04	0	43	102	1048576	17	4067
2026-01-24 23:49:54.55	30.16	20.52	-28.6	-29.6	15.0	2.43e-04	0	43	102	1048576	17	4024
2026-01-24 23:49:57.56	30.43	20.90	-28.6	-29.5	15.1	1.50e-06	0	44	102	1048576	17	3982
2026-01-24 23:50:00.57	30.71	21.28	-28.5	-29.3	15.2	4.27e-05	0	43	102	1048576	17	3927
2026-01-24 23:50:03.59	31.00	21.67	-28.4	-29.0	15.4	3.56e-04	0	44	102	1048576	17	3861
2026-01-24 23:50:06.60	31.30	22.06	-28.4	-29.4	15.4	0.00e+00	0	44	102	1048576	16	4067
2026-01-24 23:50:09.61	31.60	22.46	-28.3	-29.2	15.6	3.36e-04	0	44	102	1048576	16	3991
2026-01-24 23:50:12.63	31.91	22.87	-28.6	-29.4	15.2	2.21e-04	0	43	102	1048576	17	3964
2026-01-24 23:50:15.63	32.22	23.28	-28.0	-28.6	16.0	1.87e-04	0	44	102	1048576	16	3841
2026-01-24 23:50:18.64	32.55	23.69	-28.4	-29.6	15.4	1.52e-04	0	44	102	1048576	16	4106
2026-01-24 23:50:21.65	32.88	24.11	-28.8	-30.0	14.8	1.94e-04	0	44	102	1048576	17	4137
2026-01-24 23:50:24.65	33.22	24.54	-29.0	-29.8	14.7	2.10e-04	0	43	102	1048576	18	3977
2026-01-24 23:50:27.66	33.57	24.97	-29.3	-30.6	14.3	2.32e-04	0	43	102	1048576	18	4203
2026-01-24 23:50:30.67	33.93	25.41	-29.2	-30.5	14.3	1.58e-04	0	44	102	1048576	18	4182
2026-01-24 23:50:33.69	34.30	25.86	-29.2	-30.4	14.4	1.57e-04	0	44	102	1048576	18	4142
2026-01-24 23:50:36.70	34.68	26.31	-29.1	-30.1	13.7	1.46e-04	0	44	102	1048576	18	4040
2026-01-24 23:50:39.71	35.08	26.77	-29.0	-29.8	14.7	8.16e-05	0	44	102	1048576	18	3971
2026-01-24 23:50:42.72	35.48	27.23	-29.1	-30.2	14.5	7.00e-07	0	44	102	1048576	18	4086
2026-01-24 23:50:45.72	35.89	27.70	-29.2	-30.3	14.5	7.00e-07	0	44	102	1048576	18	4104
2026-01-24 23:50:48.75	36.32	28.18	-29.4	-30.9	14.2	1.83e-04	0	44	102	1048576	18	4272
2026-01-24 23:50:51.76	36.76	28.67	-29.8	-31.6	13.4	1.33e-04	0	44	102	1048576	19	4395
2026-01-24 23:50:54.76	37.21	29.15	-30.1	-31.9	12.8	8.08e-05	0	44	102	1048576	20	4408
2026-01-24 23:50:57.77	37.67	29.65	-30.5	-32.3	12.2	2.44e-04	0	44	102	1048576	21	4479
2026-01-24 23:51:00.78	38.15	30.16	-30.6	-32.7	11.8	3.39e-04	0	44	102	1048576	21	4611
2026-01-24 23:51:03.79	38.65	30.67	-31.1	-33.7	10.9	1.33e-03	0	44	102	1048576	22	4888
2026-01-24 23:51:06.80	39.16	31.19	-30.6	-32.8	11.9	1.07e-03	0	44	102	1048576	21	4636
2026-01-24 23:51:09.82	39.69	31.72	-30.7	-33.0	11.7	3.57e-04	0	44	102	1048576	21	4686
2026-01-24 23:51:12.82	40.23	32.25	-30.6	-32.8	11.9	6.07e-04	0	43	102	1048576	21	4624
2026-01-24 23:51:15.83	40.79	32.79	-30.8	-33.4	11.5	8.94e-04	0	43	102	1048576	21	4837
2026-01-24 23:51:18.85	41.37	33.33	-30.6	-32.6	12.0	3.75e-04	0	44	102	1048576	21	4563
2026-01-24 23:51:21.86	41.97	33.89	-29.8	-30.9	13.6	4.50e-06	0	43	102	1048576	20	4081
2026-01-24 23:51:24.89	42.60	34.45	-29.9	-31.3	13.4	1.52e-05	0	44	102	1048576	20	4217
2026-01-24 23:51:27.89	43.24	35.01	-30.4	-32.6	12.5	1.47e-04	0	44	102	1048576	20	4633
2026-01-24 23:51:30.90	43.90	35.59	-30.6	-32.6	12.2	3.11e-04	0	44	102	1048576	21	4544
2026-01-24 23:51:33.90	44.59	36.16	-29.5	-30.2	14.0	2.82e-04	0	44	102	1048576	20	3888
2026-01-24 23:51:36.90	45.29	36.74	-29.5	-30.6	14.4	7.00e-07	0	44	102	1048576	19	4074
2026-01-24 23:51:39.92	46.03	37.34	-29.3	-30.1	14.5	0.00e+00	0	44	102	1048576	19	3955
2026-01-24 23:51:42.93	46.80	37.93	-29.0	-29.4	15.0	0.00e+00	0	43	102	1048576	19	3763
2026-01-24 23:51:45.93	47.59	38.53	-29.1	-30.0	14.9	5.34e-05	0	44	102	1048576	18	4010
2026-01-24 23:51:48.96	48.41	39.14	-28.5	-29.0	15.8	2.92e-04	0	44	102	1048576	17	3842
2026-01-24 23:51:51.96	49.26	39.75	-28.6	-29.3	15.6	3.81e-05	0	44	102	1048576	17	3900
2026-01-24 23:51:54.98	50.15	40.36	-29.2	-30.4	14.7	0.00e+00	0	44	102	1048576	18	4109
2026-01-24 23:51:57.99	51.07	40.97	-29.1	-30.0	15.0	0.00e+00	0	44	102	1048576	18	3993
2026-01-24 23:52:01.00	52.02	41.59	-29.8	-31.2	13.9	4.50e-06	0	44	102	1048576	19	4265
2026-01-24 23:52:04.01	53.01	42.21	-29.0	-29.3	15.1	0.00e+00	0	44	102	1048576	19	3721
2026-01-24 23:52:07.02	54.04	42.83	-28.8	-28.8	15.4	0.00e+00	0	44	102	1048576	19	3588
2026-01-24 23:52:10.03	55.11	43.45	-30.1	-31.8	13.2	9.90e-06	0	44	102	1048576	20	4355
2026-01-24 23:52:13.05	56.22	44.07	-30.5	-32.2	12.6	1.01e-04	0	44	102	1048576	21	4387
2026-01-24 23:52:16.07	57.38	44.69	-30.6	-32.4	12.5	6.10e-05	0	44	102	1048576	21	4470
2026-01-24 23:52:19.07	58.58	45.30	-30.8	-33.0	12.1	1.65e-04	0	44	102	1048576	21	4669
2026-01-24 23:52:22.07	59.82	45.91	-31.4	-34.1	10.6	4.74e-03	0	44	102	1048576	23	4874
2026-01-24 23:52:25.07	61.10	46.51	-31.1	-33.4	11.5	1.47e-03	0	44	102	1048576	22	4726
2026-01-24 23:52:28.09	62.45	47.10	-31.1	-33.1	11.4	1.76e-03	0	44	102	1048576	23	4513
2026-01-24 23:52:31.10	63.85	47.69	-29.9	-30.7	13.7	4.50e-06	0	44	102	1048576	21	3919
2026-01-24 23:52:34.12	65.30	48.27	-30.3	-32.3	13.1	1.44e-05	0	44	102	1048576	20	4518
2026-01-24 23:52:37.12	66.79	48.83	-29.7	-30.5	14.1	2.20e-06	0	44	102	1048576	20	3953
2026-01-24 23:52:40.14	68.35	49.38	-30.1	-31.6	13.5	7.00e-07	0	44	102	1048576	20	4270
2026-01-24 23:52:43.13	69.96	49.91	-30.2	-31.8	13.3	2.05e-05	0	44	102	1048576	20	4336
2026-01-24 23:52:46.15	71.63	50.42	-29.6	-30.3	14.3	2.20e-06	0	44	102	1048576	20	3887
2026-01-24 23:52:49.17	73.36	50.92	-30.0	-31.2	13.7	2.20e-06	0	44	102	1048576	20	4165
2026-01-24 23:52:52.19	75.14	51.39	-29.6	-30.2	14.4	1.50e-06	0	44	102	1048576	20	3878
2026-01-24 23:52:55.20	76.98	51.83	-29.1	-29.5	15.2	0.00e+00	0	44	102	1048576	19	3762
2026-01-24 23:52:58.22	78.87	52.25	-30.1	-31.5	13.7	2.20e-06	0	44	102	1048576	20	4235
2026-01-24 23:53:01.23	80.81	52.64	-29.7	-30.5	14.3	1.50e-06	0	44	102	1048576	20	3939
2026-01-24 23:53:04.24	82.80	53.00	-29.4	-30.2	14.7	0.00e+00	0	44	102	1048576	19	3957
2026-01-24 23:53:07.24	84.83	53.33	-30.1	-31.5	13.6	1.75e-05	0	44	102	1048576	20	4241
2026-01-24 23:53:10.25	86.91	53.62	-30.6	-32.4	12.6	5.56e-05	0	44	102	1048576	21	4442
2026-01-24 23:53:13.27	89.04	53.87	-29.4	-29.6	14.8	0.00e+00	0	44	102	1048576	20	3711
2026-01-24 23:53:16.28	91.20	54.09	-29.8	-30.9	14.0	1.37e-05	0	44	102	1048576	20	4049
2026-01-24 23:53:19.30	93.39	54.26	-30.2	-31.8	13.4	4.50e-06	0	44	102	1048576	20	4331
2026-01-24 23:53:22.30	95.59	54.40	-30.2	-31.8	13.4	1.06e-05	0	44	102	1048576	20	4334
2026-01-24 23:53:25.30	97.81	54.49	-30.4	-32.0	12.9	8.92e-05	0	44	102	1048576	21	4304
2026-01-24 23:53:28.31	100.04	54.54	-30.4	-32.0	13.1	2.51e-05	0	44	102	1048576	21	4293
2026-01-24 23:53:31.32	102.28	54.54	-29.4	-30.1	14.9	0.00e+00	0	44	102	1048576	19	3929
2026-01-24 23:53:34.33	104.52	54.51	-29.9	-31.5	14.1	2.20e-06	0	44	102	1048576	19	4323
2026-01-24 23:53:37.35	106.76	54.43	-30.0	-31.3	13.7	6.10e-06	0	44	102	1048576	20	4177
2026-01-24 23:53:40.36	108.97	54.31	-28.8	-28.8	15.7	0.00e+00	0	44	102	1048576	19	3581
2026-01-24 23:53:43.37	111.17	54.14	-29.9	-31.4	14.2	7.00e-07	0	44	102	1048576	19	4299
2026-01-24 23:53:46.37	113.32	53.94	-29.9	-31.1	14.0	1.22e-05	0	44	102	1048576	20	4107
2026-01-24 23:53:49.38	115.46	53.70	-29.6	-30.1	14.5	0.00e+00	0	44	102	1048576	20	3843
2026-01-24 23:53:52.40	117.56	53.42	-29.9	-31.0	14.0	3.00e-06	0	44	102	1048576	20	4094
2026-01-24 23:53:55.41	119.61	53.10	-30.1	-31.4	13.7	1.14e-05	0	44	102	1048576	20	4212
2026-01-24 23:53:58.43	121.62	52.75	-29.6	-30.1	14.5	0.00e+00	0	44	102	1048576	20	3837
2026-01-24 23:54:01.43	123.58	52.37	-30.6	-32.5	12.8	2.74e-05	0	44	102	1048576	21	4461
2026-01-24 23:54:04.45	125.49	51.95	-29.0	-29.2	15.5	0.00e+00	0	44	102	1048576	19	3675
2026-01-24 23:54:07.47	127.35	51.51	-29.3	-29.4	14.9	1.50e-06	0	44	102	1048576	20	3650
2026-01-24 23:54:10.49	129.15	51.05	-29.6	-30.6	14.6	0.00e+00	0	44	102	1048576	19	4050
2026-01-24 23:54:13.50	130.89	50.56	-29.6	-30.8	14.4	7.00e-07	0	44	102	1048576	19	4112
2026-01-24 23:54:16.52	132.59	50.05	-30.2	-32.0	13.2	1.44e-05	0	44	102	1048576	20	4417
2026-01-24 23:54:19.52	134.21	49.52	-29.9	-31.0	13.8	3.04e-04	0	44	102	1048576	20	4104
2026-01-24 23:54:22.54	135.79	48.97	-31.1	-33.3	11.7	1.58e-03	0	44	102	1048576	22	4654
2026-01-24 23:54:25.54	137.30	48.41	-30.1	-31.6	13.5	1.34e-03	0	44	102	1048576	20	4270
2026-01-24 23:54:28.54	138.76	47.84	-30.5	-32.3	12.7	9.31e-04	0	44	102	1048576	21	4395
2026-01-24 23:54:31.55	140.18	47.26	-30.0	-31.3	13.8	0.00e+00	0	44	102	1048576	20	4177
2026-01-24 23:54:34.56	141.54	46.66	-30.8	-33.2	12.1	2.21e-03	0	44	102	1048576	21	4729
2026-01-24 23:54:37.57	142.85	46.06	-30.7	-32.2	12.5	2.11e-03	0	44	102	1048576	22	4294
2026-01-24 23:54:40.59	144.11	45.45	-32.4	-37.4	7.8	2.18e-02	0	44	102	1048576	24	6364
2026-01-24 23:54:43.60	145.32	44.83	-31.6	-33.9	10.5	1.16e-02	0	44	102	1048576	24	4713
2026-01-24 23:54:46.61	146.49	44.22	-33.1	-39.6	5.6	1.63e-01	0	44	102	1048576	26	7602
2026-01-24 23:54:49.61	147.61	43.60	-32.5	-37.1	7.5	1.11e-01	0	44	102	1048576	25	6112
2026-01-24 23:54:52.60	148.69	42.98	-33.3	-41.3	4.8	7.17e-01	0	44	102	1048576	26	9061
2026-01-24 23:54:55.61	149.73	42.36	-32.2	-35.9	8.5	3.83e-02	0	44	102	1048576	25	5503
2026-01-24 23:54:58.62	150.73	41.74	-32.9	-38.6	6.1	4.67e-01	0	44	102	1048576	26	6978
2026-01-24 23:55:01.63	151.70	41.11	-32.3	-36.1	8.4	3.36e-02	0	44	102	1048576	25	5615
2026-01-24 23:55:04.64	152.63	40.50	-32.2	-36.5	8.5	4.58e-02	0	44	102	1048576	24	5864
2026-01-24 23:55:07.64	153.52	39.88	-32.1	-35.9	8.9	4.26e-02	0	44	102	1048576	24	5588
2026-01-24 23:55:10.65	154.38	39.27	-31.9	-35.3	9.5	7.62e-03	0	44	102	1048576	24	5312
2026-01-24 23:55:13.65	155.21	38.66	-31.4	-33.6	10.6	1.43e-02	0	44	102	1048576	24	4629
2026-01-24 23:55:16.67	156.02	38.06	-30.6	-32.6	12.4	4.04e-05	0	44	102	1048576	21	4532
2026-01-24 23:55:19.68	156.79	37.46	-31.6	-34.3	10.0	1.20e-02	0	44	102	1048576	24	4908
2026-01-24 23:55:22.69	157.53	36.86	-29.4	-30.2	14.6	4.11e-05	0	44	102	1048576	19	3948
2026-01-24 23:55:25.70	158.25	36.27	-30.7	-33.0	12.1	5.79e-05	0	44	102	1048576	21	4661
2026-01-24 23:55:28.72	158.95	35.69	-30.5	-32.2	12.6	2.17e-04	0	44	102	1048576	21	4392
2026-01-24 23:55:31.73	159.62	35.11	-30.3	-32.1	13.0	2.13e-05	0	44	102	1048576	20	4454
2026-01-24 23:55:34.74	160.27	34.54	-31.3	-34.3	10.9	9.96e-04	0	44	102	1048576	22	5069
2026-01-24 23:55:37.75	160.90	33.98	-32.4	-37.3	7.7	7.76e-02	0	44	102	1048576	24	6317
2026-01-24 23:55:40.76	161.50	33.42	-30.4	-33.1	10.9	2.26e-03	0	44	102	1048576	22	4905
2026-01-24 23:55:43.78	162.09	32.87	-30.5	-32.4	11.9	2.33e-04	0	44	102	1048576	21	4444
2026-01-24 23:55:46.80	162.66	32.32	-31.9	-35.9	9.2	1.95e-02	0	44	102	1048576	23	5696
2026-01-24 23:55:49.82	163.21	31.78	-32.5	-37.6	7.1	1.35e-01	0	44	102	1048576	25	6458
2026-01-24 23:55:52.83	163.74	31.25	-31.9	-35.7	9.2	2.90e-02	0	44	102	1048576	23	5623
2026-01-24 23:55:55.84	164.26	30.73	-30.8	-33.3	11.7	5.54e-04	0	44	102	1048576	21	4805
2026-01-24 23:55:58.83	164.75	30.22	-32.0	-36.5	8.7	7.72e-03	0	44	102	1048576	23	6045
2026-01-24 23:56:01.85	165.24	29.71	-32.2	-37.1	7.7	9.30e-02	0	44	102	1048576	24	6335
2026-01-24 23:56:04.86	165.71	29.20	-32.0	-36.1	8.6	4.20e-02	0	44	102	1048576	24	5745
2026-01-24 23:56:07.87	166.16	28.71	-31.7	-35.4	9.4	2.73e-02	0	44	102	1048576	23	5496
2026-01-24 23:56:10.88	166.60	28.22	-30.7	-33.0	11.8	2.73e-03	0	44	102	1048576	21	4725
2026-01-24 23:56:13.90	167.03	27.74	-30.8	-33.3	11.7	2.41e-03	0	44	102	1048576	21	4821
2026-01-24 23:56:16.91	167.45	27.26	-31.5	-34.7	9.9	9.59e-03	0	44	102	1048576	23	5215
2026-01-24 23:56:19.92	167.86	26.79	-31.0	-33.5	11.2	1.57e-03	0	44	102	1048576	22	4795
2026-01-24 23:56:22.93	168.25	26.33	-30.9	-33.8	11.3	2.77e-03	0	44	102	1048576	21	4996
2026-01-24 23:56:25.95	168.63	25.87	-31.4	-34.7	10.3	5.15e-03	0	44	102	1048576	22	5301
2026-01-24 23:56:28.96	169.01	25.42	-31.6	-34.9	9.7	1.75e-02	0	44	102	1048576	23	5266
2026-01-24 23:56:31.98	169.37	24.98	-31.0	-33.3	11.3	3.86e-03	0	44	102	1048576	22	4705
2026-01-24 23:56:34.99	169.72	24.54	-30.5	-32.8	12.4	1.59e-03	0	44	102	1048576	20	4694
2026-01-24 23:56:38.00	170.07	24.11	-30.4	-32.0	12.4	1.79e-03	0	44	102	1048576	21	4354
2026-01-24 23:56:41.02	170.40	23.69	-29.6	-31.0	13.8	6.80e-06	0	44	102	1048576	19	4223
2026-01-24 23:56:44.03	170.73	23.27	-29.2	-30.5	14.5	7.00e-07	0	44	102	1048576	18	4157
2026-01-24 23:56:47.04	171.05	22.85	-29.2	-30.4	14.6	7.00e-07	0	44	102	1048576	18	4131
2026-01-24 23:56:50.05	171.36	22.45	-28.9	-30.1	15.0	0.00e+00	0	44	102	1048576	17	4142
2026-01-24 23:56:53.07	171.66	22.04	-29.5	-30.7	14.0	1.21e-03	0	44	102	1048576	19	4130
2026-01-24 23:56:56.09	171.95	21.65	-29.9	-31.8	13.3	1.37e-05	0	44	102	1048576	19	4459
2026-01-24 23:56:59.11	172.24	21.26	-30.2	-32.2	12.6	6.79e-05	0	44	102	1048576	20	4514
2026-01-24 23:57:02.12	172.52	20.87	-29.6	-30.8	13.9	4.50e-06	0	44	102	1048576	19	4169
2026-01-24 23:57:05.13	172.80	20.49	-28.9	-29.7	14.9	7.00e-07	0	44	102	1048576	18	3932
2026-01-24 23:57:08.14	173.07	20.12	-28.6	-29.3	15.4	0.00e+00	0	44	102	1048576	17	3939
2026-01-24 23:57:11.16	173.33	19.74	-28.0	-28.5	16.1	9.10e-06	0	44	102	1048576	16	3809
2026-01-24 23:57:14.18	173.59	19.38	-28.0	-28.5	16.1	6.80e-06	0	44	102	1048576	16	3808
2026-01-24 23:57:17.19	173.84	19.02	-28.4	-29.4	15.6	6.80e-06	0	44	102	1048576	16	4037
2026-01-24 23:57:20.21	174.08	18.66	-29.0	-30.4	14.7	6.10e-06	0	44	102	1048576	17	4247
2026-01-24 23:57:23.22	174.32	18.31	-29.7	-31.2	13.5	8.30e-06	0	44	102	1048576	19	4307
2026-01-24 23:57:26.22	174.55	17.96	-29.9	-31.9	13.1	4.04e-05	0	44	102	1048576	19	4534
2026-01-24 23:57:29.24	174.78	17.62	-29.9	-31.6	12.9	6.86e-05	0	44	102	1048576	20	4351
2026-01-24 23:57:32.25	175.01	17.28	-29.7	-31.5	13.3	3.81e-05	0	44	102	1048576	19	4410
2026-01-24 23:57:35.27	175.23	16.95	-29.5	-30.9	13.6	2.67e-05	0	44	102	1048576	19	4238
2026-01-24 23:57:38.28	175.44	16.62	-29.3	-30.5	13.9	1.22e-05	0	44	102	1048576	19	4100
2026-01-24 23:57:41.28	175.65	16.30	-29.3	-30.8	14.0	1.50e-06	0	44	102	1048576	18	4305
2026-01-24 23:57:44.28	175.86	15.97	-29.2	-30.7	14.1	3.80e-06	0	44	102	1048576	18	4267
2026-01-24 23:57:47.28	176.06	15.66	-29.1	-30.4	14.2	1.44e-05	0	44	102	1048576	18	4180
2026-01-24 23:57:50.29	176.26	15.34	-29.2	-30.5	14.2	8.30e-06	0	44	102	1048576	18	4191
2026-01-24 23:57:53.29	176.45	15.04	-29.1	-30.4	14.2	9.46e-05	0	44	102	1048576	18	4159
2026-01-24 23:57:56.30	176.64	14.73	-29.2	-30.5	14.1	8.16e-05	0	44	102	1048576	18	4197
2026-01-24 23:57:59.31	176.83	14.43	-29.3	-30.8	13.9	9.99e-05	0	44	102	1048576	18	4295
2026-01-24 23:58:02.32	177.01	14.13	-29.3	-30.8	13.9	1.11e-04	0	44	102	1048576	18	4287
2026-01-24 23:58:05.33	177.19	13.83	-29.3	-30.9	13.8	8.31e-05	0	44	102	1048576	18	4329
2026-01-24 23:58:08.34	177.37	13.54	-29.2	-30.6	14.0	2.20e-06	0	44	102	1048576	18	4238
2026-01-24 23:58:11.36	177.54	13.25	-29.2	-30.6	14.0	7.00e-07	0	44	102	1048576	18	4226
2026-01-24 23:58:14.37	177.71	12.96	-29.1	-30.3	14.2	0.00e+00	0	44	102	1048576	18	4126
2026-01-24 23:58:17.38	177.88	12.68	-29.1	-30.4	14.1	1.50e-06	0	44	102	1048576	18	4156
2026-01-24 23:58:20.40	178.04	12.40	-29.5	-31.3	13.5	7.60e-06	0	44	102	1048576	18	4452
2026-01-24 23:58:23.42	178.20	12.12	-29.6	-31.1	13.2	1.37e-05	0	44	102	1048576	19	4305
2026-01-24 23:58:26.43	178.36	11.84	-29.8	-31.9	12.8	7.55e-05	0	44	102	1048576	19	4540
2026-01-24 23:58:29.44	178.52	11.57	-30.0	-31.7	12.4	1.44e-04	0	44	102	1048576	20	4416
2026-01-24 23:58:32.45	178.67	11.30	-30.1	-32.3	12.0	2.79e-04	0	44	102	1048576	20	4599
2026-01-24 23:58:35.47	178.82	11.04	-30.5	-33.3	11.2	8.50e-04	0	44	102	1048576	20	5001
2026-01-24 23:58:38.48	178.97	10.78	-30.8	-34.0	10.4	3.60e-03	0	44	102	1048576	21	5185
2026-01-24 23:58:41.49	179.12	10.51	-31.1	-34.4	9.7	8.35e-03	0	44	102	1048576	22	5266
2026-01-24 23:58:44.50	179.26	10.26	-31.1	-34.6	9.5	1.24e-02	0	44	102	1048576	22	5378
2026-01-24 23:58:47.52	179.40	10.00	-30.9	-33.8	10.0	1.09e-02	0	44	102	1048576	22	5026
2026-01-24 23:58:50.53	179.54	9.75	-30.6	-33.4	10.7	3.42e-03	0	44	102	1048576	21	4966
2026-01-24 23:58:53.56	179.68	9.50	-30.5	-33.1	10.9	3.07e-03	0	44	102	1048576	21	4862
2026-01-24 23:58:56.57	179.81	9.25	-30.4	-33.2	11.2	1.48e-03	0	44	102	1048576	20	4999
2026-01-24 23:58:59.58	179.94	9.00	-30.4	-33.1	11.2	1.55e-03	0	44	102	1048576	20	4956
2026-01-24 23:59:02.59	180.07	8.76	-30.5	-33.5	10.9	2.35e-03	0	44	102	1048576	20	5097
2026-01-24 23:59:05.60	180.20	8.52	-30.1	-32.4	11.7	1.09e-03	0	44	102	1048576	20	4665
2026-01-24 23:59:08.61	180.33	8.28	-30.0	-32.0	12.0	8.30e-04	0	44	102	1048576	20	4527
2026-01-24 23:59:11.62	180.45	8.04	-29.9	-32.3	12.1	2.88e-04	0	44	102	1048576	19	4727
2026-01-24 23:59:14.63	180.57	7.81	-30.2	-32.7	11.4	5.77e-04	0	44	102	1048576	20	4819
2026-01-24 23:59:17.64	180.69	7.58	-30.0	-32.3	11.7	5.11e-04	0	44	102	1048576	20	4653
2026-01-24 23:59:20.65	180.81	7.34	-30.0	-32.2	11.6	1.94e-03	0	44	102	1048576	20	4626
2026-01-24 23:59:23.66	180.93	7.12	-30.5	-33.7	10.6	3.75e-03	0	44	102	1048576	20	5204

#Closed at: 2026-01-24 23:59:25
#Recorded file [1 MB]: D:/data/31010_260125_024734.dat