passes_logs/2026/01/24/R2M6_AANII_01/R2M6_AANII_01__20260124_010403_FENGYUN_3D_rec.log

#Pass ID: 20260124_010403_FENGYUN 3D
#Satellite: FENGYUN 3D
#Configuration: FENGYUN 3D
#almurnet v.1.7.20240730
#Start time: 2026-01-24 01:04:04

#Version: 2.2.20231116
#Station: R2M6_AANII_01
#Location: 30.233357 lon 59.946436 lat
#TLE: 1 43010U 17072A   26022.96745493  .00000490  00000+0  25355-3 0  9999
#TLE: 2 43010  98.9955 354.9072 0002484  95.6139 264.5320 14.19700039424383

#Time	Az	El	Level	Level2	SNR	BER	BlckErr	Temp	State	Recorded	gain1	gain2
2026-01-24 01:04:04.07	28.17	7.03	-29.1	-31.8	5.6	7.70e-01	0	41	0	0	18	4894
2026-01-24 01:04:07.08	28.42	7.23	-30.3	-33.9	9.2	1.40e-02	0	42	102	1048576	20	5446
2026-01-24 01:04:10.09	28.67	7.43	-29.4	-32.1	10.9	1.86e-03	0	42	102	1048576	19	4865
2026-01-24 01:04:13.10	28.92	7.63	-28.8	-31.4	12.0	2.52e-04	0	42	102	1048576	17	4858
2026-01-24 01:04:16.12	29.18	7.84	-28.0	-29.9	13.2	1.71e-05	0	42	102	1048576	16	4505
2026-01-24 01:04:19.12	29.44	8.04	-27.2	-29.2	14.1	0.00e+00	0	42	102	1048576	14	4514
2026-01-24 01:04:22.12	29.70	8.25	-26.4	-28.2	13.7	0.00e+00	0	42	102	1048576	14	4445
2026-01-24 01:04:25.15	29.97	8.46	-27.0	-28.6	14.4	0.00e+00	0	42	102	1048576	14	4349
2026-01-24 01:04:28.16	30.24	8.66	-26.9	-28.9	14.6	0.00e+00	0	42	102	1048576	13	4549
2026-01-24 01:04:31.18	30.51	8.88	-26.8	-28.7	14.7	1.01e-03	0	42	102	1048576	13	4489
2026-01-24 01:04:34.18	30.79	9.09	-26.9	-29.0	14.6	0.00e+00	0	42	102	1048576	13	4557
2026-01-24 01:04:37.19	31.07	9.30	-26.8	-28.7	14.8	0.00e+00	0	43	102	1048576	13	4471
2026-01-24 01:04:40.21	31.36	9.51	-26.7	-28.5	14.9	1.11e-03	0	43	102	1048576	13	4419
2026-01-24 01:04:43.23	31.65	9.73	-26.5	-27.9	15.2	1.12e-03	0	43	102	1048576	13	4259
2026-01-24 01:04:46.24	31.94	9.95	-25.7	-27.4	14.9	0.00e+00	0	43	102	1048576	12	4357
2026-01-24 01:04:49.26	32.24	10.16	-26.3	-28.1	15.4	1.13e-03	0	43	102	1048576	12	4413
2026-01-24 01:04:52.26	32.54	10.38	-26.3	-28.1	15.5	1.10e-03	0	43	102	1048576	12	4409
2026-01-24 01:04:55.27	32.85	10.60	-26.7	-28.4	15.1	1.13e-03	0	43	102	1048576	13	4379
2026-01-24 01:04:58.29	33.16	10.83	-26.4	-28.2	15.4	1.23e-04	0	43	102	1048576	12	4454
2026-01-24 01:05:01.29	33.48	11.05	-26.3	-28.1	15.6	8.40e-04	0	43	102	1048576	12	4407
2026-01-24 01:05:04.30	33.80	11.27	-26.5	-28.0	15.3	8.62e-04	0	43	102	1048576	13	4277
2026-01-24 01:05:07.32	34.12	11.50	-26.4	-28.3	15.4	1.35e-04	0	43	102	1048576	12	4480
2026-01-24 01:05:10.33	34.45	11.73	-26.2	-27.7	15.7	1.45e-04	0	43	102	1048576	12	4311
2026-01-24 01:05:13.34	34.79	11.95	-26.1	-27.6	15.8	7.88e-04	0	43	102	1048576	12	4276
2026-01-24 01:05:16.35	35.13	12.18	-26.1	-27.5	15.9	6.40e-05	0	43	102	1048576	12	4257
2026-01-24 01:05:19.35	35.47	12.41	-26.0	-27.5	15.9	0.00e+00	0	43	102	1048576	12	4245
2026-01-24 01:05:22.36	35.82	12.64	-26.0	-27.5	15.9	0.00e+00	0	43	102	1048576	12	4238
2026-01-24 01:05:25.36	36.18	12.88	-25.9	-27.7	16.2	9.15e-05	0	43	102	1048576	11	4404
2026-01-24 01:05:28.37	36.54	13.11	-25.7	-27.2	16.5	3.77e-05	0	43	102	1048576	11	4275
2026-01-24 01:05:31.37	36.90	13.35	-25.7	-27.2	16.5	0.00e+00	0	43	102	1048576	11	4268
2026-01-24 01:05:34.38	37.28	13.58	-25.9	-27.7	16.2	0.00e+00	0	43	102	1048576	11	4404
2026-01-24 01:05:37.38	37.65	13.82	-25.9	-27.6	16.3	0.00e+00	0	43	102	1048576	11	4376
2026-01-24 01:05:40.40	38.04	14.06	-26.2	-27.7	15.9	1.99e-04	0	43	102	1048576	12	4301
2026-01-24 01:05:43.42	38.43	14.30	-25.7	-26.8	16.4	0.00e+00	0	43	102	1048576	12	4059
2026-01-24 01:05:46.43	38.82	14.55	-25.7	-26.7	16.5	0.00e+00	0	43	102	1048576	12	4044
2026-01-24 01:05:49.44	39.23	14.79	-25.6	-26.9	16.7	0.00e+00	0	43	102	1048576	11	4194
2026-01-24 01:05:52.45	39.64	15.03	-25.3	-26.7	17.1	0.00e+00	0	43	102	1048576	10	4259
2026-01-24 01:05:55.46	40.05	15.28	-25.3	-26.8	17.0	0.00e+00	0	43	102	1048576	10	4279
2026-01-24 01:05:58.48	40.47	15.53	-25.3	-26.9	17.0	0.00e+00	0	44	102	1048576	10	4300
2026-01-24 01:06:01.49	40.90	15.77	-25.3	-26.8	17.1	0.00e+00	0	43	102	1048576	10	4265
2026-01-24 01:06:04.51	41.34	16.02	-25.7	-27.1	16.8	0.00e+00	0	43	102	1048576	11	4236
2026-01-24 01:06:07.53	41.79	16.27	-25.4	-26.4	17.2	0.00e+00	0	44	102	1048576	11	4046
2026-01-24 01:06:10.54	42.24	16.52	-25.4	-26.4	17.2	0.00e+00	0	43	102	1048576	11	4055
2026-01-24 01:06:13.54	42.69	16.77	-25.0	-25.6	17.7	0.00e+00	0	44	102	1048576	11	3859
2026-01-24 01:06:16.55	43.16	17.03	-25.1	-25.9	17.5	0.00e+00	0	44	102	1048576	11	3937
2026-01-24 01:06:19.56	43.63	17.28	-25.2	-26.0	17.5	0.00e+00	0	43	102	1048576	11	3960
2026-01-24 01:06:22.57	44.11	17.53	-25.1	-25.9	17.5	0.00e+00	0	44	102	1048576	11	3945
2026-01-24 01:06:25.59	44.60	17.79	-25.2	-26.5	17.5	0.00e+00	0	44	102	1048576	10	4179
2026-01-24 01:06:28.60	45.10	18.05	-25.0	-26.1	17.7	0.00e+00	0	44	102	1048576	10	4099
2026-01-24 01:06:31.61	45.60	18.30	-25.0	-26.1	17.7	0.00e+00	0	44	102	1048576	10	4084
2026-01-24 01:06:34.62	46.11	18.56	-24.7	-25.5	18.1	0.00e+00	0	44	102	1048576	10	3940
2026-01-24 01:06:37.63	46.64	18.82	-24.6	-25.3	18.1	0.00e+00	0	44	102	1048576	10	3896
2026-01-24 01:06:40.65	47.17	19.07	-24.7	-25.4	18.1	0.00e+00	0	44	102	1048576	10	3915
2026-01-24 01:06:43.66	47.71	19.33	-24.6	-25.3	18.1	0.00e+00	0	44	102	1048576	10	3897
2026-01-24 01:06:46.67	48.26	19.59	-24.5	-25.0	18.3	0.00e+00	0	44	102	1048576	10	3821
2026-01-24 01:06:49.70	48.82	19.85	-24.4	-25.4	18.4	0.00e+00	0	44	102	1048576	9	4021
2026-01-24 01:06:52.70	49.38	20.11	-24.3	-25.1	18.5	0.00e+00	0	44	102	1048576	9	3955
2026-01-24 01:06:55.72	49.96	20.37	-24.4	-25.3	18.4	0.00e+00	0	44	102	1048576	9	4001
2026-01-24 01:06:58.74	50.55	20.62	-24.5	-25.6	18.2	0.00e+00	0	44	102	1048576	9	4090
2026-01-24 01:07:01.75	51.14	20.88	-24.7	-25.9	18.1	0.00e+00	0	44	102	1048576	9	4156
2026-01-24 01:07:04.77	51.75	21.14	-24.2	-25.0	18.6	0.00e+00	0	44	102	1048576	9	3918
2026-01-24 01:07:07.79	52.36	21.40	-24.3	-25.1	18.5	0.00e+00	0	44	102	1048576	9	3956
2026-01-24 01:07:10.80	52.99	21.65	-24.4	-25.3	18.5	0.00e+00	0	44	102	1048576	9	4002
2026-01-24 01:07:13.82	53.63	21.91	-24.4	-25.3	18.4	0.00e+00	0	44	102	1048576	9	4001
2026-01-24 01:07:16.83	54.27	22.16	-24.0	-25.0	18.9	0.00e+00	0	44	102	1048576	8	4038
2026-01-24 01:07:19.84	54.93	22.41	-24.0	-25.0	18.9	0.00e+00	0	44	102	1048576	8	4032
2026-01-24 01:07:22.85	55.59	22.67	-24.0	-25.1	18.8	0.00e+00	0	44	102	1048576	8	4050
2026-01-24 01:07:25.85	56.27	22.91	-24.0	-24.9	18.9	0.00e+00	0	44	102	1048576	8	4020
2026-01-24 01:07:28.88	56.96	23.16	-24.0	-25.0	18.9	0.00e+00	0	44	102	1048576	8	4030
2026-01-24 01:07:31.90	57.66	23.41	-24.1	-25.2	18.8	0.00e+00	0	44	102	1048576	8	4082
2026-01-24 01:07:34.91	58.37	23.66	-23.8	-24.5	19.1	0.00e+00	0	44	102	1048576	8	3928
2026-01-24 01:07:37.92	59.09	23.90	-23.8	-24.5	19.1	2.20e-06	0	44	102	1048576	8	3911
2026-01-24 01:07:40.94	59.82	24.14	-23.9	-24.7	19.0	0.00e+00	0	44	102	1048576	8	3960
2026-01-24 01:07:43.94	60.56	24.38	-23.8	-24.5	19.2	0.00e+00	0	44	102	1048576	8	3925
2026-01-24 01:07:46.95	61.32	24.61	-23.4	-23.8	19.5	0.00e+00	0	44	102	1048576	8	3745
2026-01-24 01:07:49.96	62.08	24.84	-23.5	-24.4	19.4	1.37e-05	0	44	102	1048576	7	4013
2026-01-24 01:07:52.98	62.86	25.07	-23.2	-23.9	19.7	0.00e+00	0	44	102	1048576	7	3876
2026-01-24 01:07:55.99	63.65	25.29	-23.5	-24.4	19.4	0.00e+00	0	44	102	1048576	7	3989
2026-01-24 01:07:59.00	64.44	25.51	-23.5	-24.5	19.4	0.00e+00	0	44	102	1048576	7	4018
2026-01-24 01:08:02.02	65.25	25.73	-23.2	-23.7	19.8	0.00e+00	0	44	102	1048576	7	3844
2026-01-24 01:08:05.04	66.08	25.94	-23.2	-23.8	19.8	0.00e+00	0	44	102	1048576	7	3854
2026-01-24 01:08:08.05	66.91	26.15	-23.4	-24.1	19.6	0.00e+00	0	44	102	1048576	7	3942
2026-01-24 01:08:11.06	67.75	26.35	-23.4	-24.2	19.6	1.02e-04	0	44	102	1048576	7	3947
2026-01-24 01:08:14.07	68.60	26.55	-23.2	-23.8	19.8	0.00e+00	0	44	102	1048576	7	3856
2026-01-24 01:08:17.08	69.46	26.75	-23.1	-23.7	19.9	0.00e+00	0	44	102	1048576	7	3829
2026-01-24 01:08:20.09	70.33	26.93	-23.0	-23.3	20.0	2.33e-04	0	44	102	1048576	7	3740
2026-01-24 01:08:23.10	71.21	27.11	-23.1	-23.7	19.6	6.98e-05	0	44	102	1048576	7	3866
2026-01-24 01:08:26.11	72.10	27.29	-23.3	-24.2	19.4	2.05e-05	0	44	102	1048576	7	3961
2026-01-24 01:08:29.12	73.00	27.46	-23.1	-23.7	19.7	1.37e-05	0	44	102	1048576	7	3847
2026-01-24 01:08:32.14	73.92	27.62	-23.1	-23.7	19.6	0.00e+00	0	44	102	1048576	7	3850
2026-01-24 01:08:35.15	74.84	27.78	-23.2	-23.8	19.6	1.37e-05	0	44	102	1048576	7	3882
2026-01-24 01:08:38.16	75.77	27.93	-22.9	-23.3	19.9	0.00e+00	0	44	102	1048576	7	3752
2026-01-24 01:08:41.17	76.70	28.07	-22.9	-23.3	19.8	9.10e-06	0	44	102	1048576	7	3762
2026-01-24 01:08:44.18	77.65	28.20	-22.8	-23.1	20.0	1.10e-06	0	44	102	1048576	7	3709
2026-01-24 01:08:47.18	78.60	28.33	-22.8	-23.5	20.0	0.00e+00	0	44	102	1048576	6	3915
2026-01-24 01:08:50.19	79.55	28.44	-22.8	-23.6	19.9	0.00e+00	0	44	102	1048576	6	3940
2026-01-24 01:08:53.19	80.52	28.55	-22.8	-23.5	20.0	0.00e+00	0	44	102	1048576	6	3921
2026-01-24 01:08:56.20	81.49	28.66	-22.8	-23.6	19.9	0.00e+00	0	44	102	1048576	6	3927
2026-01-24 01:08:59.22	82.47	28.75	-23.0	-24.0	19.7	0.00e+00	0	44	102	1048576	6	4034
2026-01-24 01:09:02.23	83.46	28.84	-23.3	-24.5	19.5	0.00e+00	0	44	102	1048576	6	4149
2026-01-24 01:09:05.24	84.45	28.91	-23.2	-24.3	19.6	0.00e+00	0	44	102	1048576	6	4110
2026-01-24 01:09:08.25	85.44	28.98	-23.1	-24.1	19.7	3.54e-05	0	44	102	1048576	6	4059
2026-01-24 01:09:11.26	86.44	29.04	-22.7	-23.3	20.1	1.83e-05	0	44	102	1048576	6	3856
2026-01-24 01:09:14.28	87.44	29.09	-22.8	-23.6	19.9	5.70e-06	0	44	102	1048576	6	3925
2026-01-24 01:09:17.30	88.45	29.12	-22.6	-23.2	20.1	0.00e+00	0	44	102	1048576	6	3847
2026-01-24 01:09:20.31	89.45	29.15	-22.7	-23.4	20.0	0.00e+00	0	44	102	1048576	6	3897
2026-01-24 01:09:23.32	90.46	29.18	-22.9	-23.7	19.8	0.00e+00	0	44	102	1048576	6	3973
2026-01-24 01:09:26.34	91.47	29.19	-22.8	-23.6	19.9	0.00e+00	0	44	102	1048576	6	3925
2026-01-24 01:09:29.34	92.48	29.19	-22.8	-23.6	19.9	0.00e+00	0	44	102	1048576	6	3926
2026-01-24 01:09:32.34	93.48	29.18	-23.0	-23.9	19.7	0.00e+00	0	44	102	1048576	6	4024
2026-01-24 01:09:35.35	94.49	29.16	-22.9	-23.9	19.8	0.00e+00	0	44	102	1048576	6	4003
2026-01-24 01:09:38.36	95.50	29.14	-23.1	-24.1	19.6	0.00e+00	0	44	102	1048576	6	4071
2026-01-24 01:09:41.38	96.50	29.10	-23.0	-23.9	19.8	0.00e+00	0	44	102	1048576	6	4012
2026-01-24 01:09:44.39	97.51	29.05	-23.0	-24.0	19.7	0.00e+00	0	44	102	1048576	6	4047
2026-01-24 01:09:47.40	98.51	29.00	-23.1	-24.2	19.6	0.00e+00	0	44	102	1048576	6	4078
2026-01-24 01:09:50.41	99.50	28.94	-22.9	-23.8	19.8	6.98e-05	0	44	102	1048576	6	3991
2026-01-24 01:09:53.42	100.49	28.86	-22.9	-23.8	19.8	0.00e+00	0	44	102	1048576	6	3989
2026-01-24 01:09:56.43	101.48	28.78	-22.9	-23.7	19.8	0.00e+00	0	44	102	1048576	6	3962
2026-01-24 01:09:59.45	102.47	28.69	-23.0	-24.1	19.7	2.43e-04	0	44	102	1048576	6	4050
2026-01-24 01:10:02.47	103.45	28.59	-22.8	-23.6	19.9	2.02e-04	0	44	102	1048576	6	3942
2026-01-24 01:10:05.49	104.42	28.48	-23.1	-24.2	19.5	0.00e+00	0	44	102	1048576	6	4088
2026-01-24 01:10:08.50	105.38	28.37	-23.1	-24.1	19.6	1.18e-04	0	44	102	1048576	6	4054
2026-01-24 01:10:11.51	106.34	28.24	-23.2	-24.4	19.5	2.17e-04	0	44	102	1048576	6	4125
2026-01-24 01:10:14.53	107.29	28.11	-23.3	-24.5	19.4	0.00e+00	0	44	102	1048576	6	4168
2026-01-24 01:10:17.55	108.24	27.97	-23.0	-24.1	19.6	0.00e+00	0	44	102	1048576	6	4053
2026-01-24 01:10:20.57	109.17	27.82	-22.9	-23.7	19.8	0.00e+00	0	44	102	1048576	6	3966
2026-01-24 01:10:23.57	110.09	27.67	-22.9	-23.8	19.7	0.00e+00	0	44	102	1048576	6	3998
2026-01-24 01:10:26.58	111.01	27.51	-23.2	-24.4	19.4	0.00e+00	0	44	102	1048576	6	4149
2026-01-24 01:10:29.59	111.92	27.34	-23.2	-24.3	19.4	0.00e+00	0	44	102	1048576	6	4115
2026-01-24 01:10:32.61	112.82	27.17	-22.9	-23.8	19.7	0.00e+00	0	44	102	1048576	6	3986
2026-01-24 01:10:35.61	113.70	26.99	-23.4	-24.8	19.2	0.00e+00	0	44	102	1048576	6	4232
2026-01-24 01:10:38.62	114.58	26.80	-23.2	-24.3	19.4	0.00e+00	0	44	102	1048576	6	4121
2026-01-24 01:10:41.63	115.45	26.61	-23.2	-24.4	19.3	0.00e+00	0	44	102	1048576	6	4135
2026-01-24 01:10:44.63	116.30	26.41	-23.2	-24.3	19.4	0.00e+00	0	44	102	1048576	6	4119
2026-01-24 01:10:47.64	117.15	26.21	-23.5	-24.6	19.0	0.00e+00	0	44	102	1048576	7	4071
2026-01-24 01:10:50.65	117.98	26.00	-23.4	-24.4	19.1	0.00e+00	0	44	102	1048576	7	4021
2026-01-24 01:10:53.67	118.81	25.79	-23.3	-24.1	19.3	0.00e+00	0	44	102	1048576	7	3949
2026-01-24 01:10:56.68	119.63	25.57	-23.5	-24.6	19.0	0.00e+00	0	44	102	1048576	7	4077
2026-01-24 01:10:59.69	120.43	25.35	-23.4	-24.3	19.1	0.00e+00	0	44	102	1048576	7	3991
2026-01-24 01:11:02.71	121.22	25.13	-23.4	-24.3	19.1	0.00e+00	0	44	102	1048576	7	4016
2026-01-24 01:11:05.71	122.00	24.90	-23.4	-24.3	19.1	0.00e+00	0	44	102	1048576	7	3990
2026-01-24 01:11:08.72	122.77	24.67	-23.7	-24.9	18.8	0.00e+00	0	44	102	1048576	7	4159
2026-01-24 01:11:11.73	123.53	24.43	-23.6	-24.8	18.9	0.00e+00	0	44	102	1048576	7	4116
2026-01-24 01:11:14.73	124.28	24.20	-23.5	-24.6	18.9	0.00e+00	0	44	102	1048576	7	4078
2026-01-24 01:11:17.74	125.02	23.96	-23.4	-24.4	19.0	0.00e+00	0	44	102	1048576	7	4020
2026-01-24 01:11:20.75	125.74	23.71	-23.6	-24.7	18.9	0.00e+00	0	44	102	1048576	7	4111
2026-01-24 01:11:23.77	126.46	23.47	-23.5	-24.5	19.0	1.10e-06	0	44	102	1048576	7	4041
2026-01-24 01:11:26.79	127.17	23.22	-23.7	-24.9	18.7	0.00e+00	0	44	102	1048576	7	4155
2026-01-24 01:11:29.79	127.86	22.97	-24.0	-25.0	18.5	0.00e+00	0	44	102	1048576	8	4078
2026-01-24 01:11:32.81	128.55	22.72	-23.9	-25.0	18.5	3.40e-06	0	44	102	1048576	8	4060
2026-01-24 01:11:35.82	129.22	22.47	-24.1	-25.4	18.3	0.00e+00	0	44	102	1048576	8	4156
2026-01-24 01:11:38.84	129.88	22.21	-24.1	-25.2	18.3	0.00e+00	0	44	102	1048576	8	4110
2026-01-24 01:11:41.85	130.53	21.96	-24.5	-26.1	17.9	0.00e+00	0	44	102	1048576	8	4345
2026-01-24 01:11:44.87	131.18	21.70	-24.0	-24.6	18.4	0.00e+00	0	44	102	1048576	9	3865
2026-01-24 01:11:47.88	131.81	21.44	-24.0	-24.5	18.4	0.00e+00	0	44	102	1048576	9	3841
2026-01-24 01:11:50.89	132.43	21.18	-24.1	-24.7	18.3	0.00e+00	0	44	102	1048576	9	3890
2026-01-24 01:11:53.90	133.04	20.92	-24.4	-25.4	17.9	1.83e-05	0	44	102	1048576	9	4068
2026-01-24 01:11:56.90	133.63	20.67	-24.5	-25.7	17.7	1.37e-05	0	44	102	1048576	9	4142
2026-01-24 01:11:59.93	134.23	20.40	-24.6	-26.0	17.6	0.00e+00	0	44	102	1048576	9	4207
2026-01-24 01:12:02.95	134.81	20.14	-24.6	-25.9	17.6	3.77e-05	0	44	102	1048576	9	4178
2026-01-24 01:12:05.96	135.38	19.88	-24.6	-26.0	17.6	1.25e-05	0	44	102	1048576	9	4191
2026-01-24 01:12:08.97	135.94	19.62	-25.1	-26.6	17.0	0.00e+00	0	44	102	1048576	10	4252
2026-01-24 01:12:11.97	136.50	19.36	-25.1	-26.5	17.0	5.26e-05	0	44	102	1048576	10	4226
2026-01-24 01:12:14.99	137.04	19.10	-24.9	-26.0	17.2	1.25e-05	0	44	102	1048576	10	4093
2026-01-24 01:12:17.99	137.57	18.85	-24.8	-25.9	17.3	4.57e-05	0	44	102	1048576	10	4065
2026-01-24 01:12:21.00	138.10	18.59	-24.8	-25.9	17.3	0.00e+00	0	44	102	1048576	10	4082
2026-01-24 01:12:24.02	138.62	18.33	-24.8	-25.8	17.3	0.00e+00	0	44	102	1048576	10	4047
2026-01-24 01:12:27.02	139.13	18.07	-25.1	-26.4	16.9	4.11e-05	0	44	102	1048576	10	4219
2026-01-24 01:12:30.03	139.63	17.81	-25.2	-26.8	16.7	0.00e+00	0	44	102	1048576	10	4312
2026-01-24 01:12:33.04	140.12	17.55	-25.1	-26.5	16.9	0.00e+00	0	44	102	1048576	10	4232
2026-01-24 01:12:36.05	140.60	17.30	-25.2	-26.8	16.7	0.00e+00	0	44	102	1048576	10	4317
2026-01-24 01:12:39.05	141.08	17.04	-25.3	-26.9	16.5	0.00e+00	0	44	102	1048576	10	4355
2026-01-24 01:12:42.05	141.55	16.79	-25.5	-26.9	16.3	0.00e+00	0	44	102	1048576	11	4223
2026-01-24 01:12:45.08	142.01	16.53	-25.7	-27.4	16.0	0.00e+00	0	44	102	1048576	11	4371
2026-01-24 01:12:48.09	142.46	16.28	-25.8	-27.6	15.8	0.00e+00	0	44	102	1048576	11	4432
2026-01-24 01:12:51.09	142.91	16.03	-25.9	-27.3	15.6	0.00e+00	0	44	102	1048576	12	4229
2026-01-24 01:12:54.10	143.35	15.78	-25.7	-27.3	15.9	0.00e+00	0	44	102	1048576	11	4338
2026-01-24 01:12:57.11	143.78	15.53	-25.7	-27.3	15.9	0.00e+00	0	44	102	1048576	11	4337
2026-01-24 01:13:00.12	144.20	15.28	-25.7	-27.3	13.4	0.00e+00	0	44	102	1048576	11	4336
2026-01-24 01:13:03.14	144.62	15.03	-25.7	-27.4	15.9	0.00e+00	0	44	102	1048576	11	4362
2026-01-24 01:13:06.15	145.03	14.78	-25.8	-27.5	15.8	0.00e+00	0	44	102	1048576	11	4404
2026-01-24 01:13:09.16	145.44	14.54	-25.8	-27.6	15.8	0.00e+00	0	44	102	1048576	11	4415
2026-01-24 01:13:12.16	145.84	14.29	-25.8	-27.6	15.7	0.00e+00	0	44	102	1048576	11	4433
2026-01-24 01:13:15.18	146.23	14.05	-25.7	-27.4	15.9	1.18e-03	0	44	102	1048576	11	4379
2026-01-24 01:13:18.18	146.61	13.81	-25.7	-27.4	15.8	0.00e+00	0	44	102	1048576	11	4398
2026-01-24 01:13:21.19	146.99	13.57	-25.7	-27.5	15.7	0.00e+00	0	44	102	1048576	11	4402
2026-01-24 01:13:24.20	147.37	13.33	-25.7	-27.5	15.7	1.58e-03	0	44	102	1048576	11	4409
2026-01-24 01:13:27.22	147.74	13.09	-25.8	-27.6	15.7	1.33e-03	0	44	102	1048576	11	4431
2026-01-24 01:13:30.23	148.10	12.85	-25.9	-27.8	15.6	1.26e-03	0	44	102	1048576	11	4477
2026-01-24 01:13:33.24	148.46	12.62	-26.2	-27.9	15.2	1.75e-03	0	44	102	1048576	12	4404
2026-01-24 01:13:36.25	148.81	12.38	-26.1	-27.9	15.2	1.67e-03	0	44	102	1048576	12	4392
2026-01-24 01:13:39.26	149.16	12.15	-26.1	-27.9	15.1	0.00e+00	0	44	102	1048576	12	4411
2026-01-24 01:13:42.28	149.50	11.92	-26.3	-28.3	14.9	2.22e-04	0	44	102	1048576	12	4527
2026-01-24 01:13:45.29	149.83	11.69	-26.6	-28.5	14.5	1.62e-03	0	44	102	1048576	13	4473
2026-01-24 01:13:48.29	150.16	11.46	-26.4	-28.0	14.7	1.56e-03	0	44	102	1048576	13	4347
2026-01-24 01:13:51.31	150.49	11.23	-26.4	-28.6	14.6	0.00e+00	0	44	102	1048576	12	4648
2026-01-24 01:13:54.32	150.81	11.00	-26.5	-28.4	14.4	6.63e-05	0	44	102	1048576	13	4482
2026-01-24 01:13:57.33	151.13	10.78	-26.8	-28.9	14.1	2.20e-06	0	44	102	1048576	13	4608
2026-01-24 01:14:00.33	151.44	10.56	-26.7	-28.9	14.1	0.00e+00	0	44	102	1048576	13	4592
2026-01-24 01:14:03.34	151.75	10.33	-27.0	-29.4	13.7	1.10e-06	0	44	102	1048576	13	4770
2026-01-24 01:14:06.35	152.05	10.11	-26.8	-28.9	14.0	1.02e-05	0	44	102	1048576	13	4620
2026-01-24 01:14:09.37	152.35	9.89	-26.7	-28.9	14.0	9.10e-06	0	44	102	1048576	13	4622
2026-01-24 01:14:12.38	152.64	9.67	-26.7	-28.8	14.0	9.10e-06	0	44	102	1048576	13	4602
2026-01-24 01:14:15.39	152.93	9.46	-26.8	-29.0	13.9	5.70e-06	0	44	102	1048576	13	4644
2026-01-24 01:14:18.39	153.22	9.24	-26.9	-28.8	13.8	1.60e-05	0	44	102	1048576	14	4444
2026-01-24 01:14:21.41	153.50	9.03	-26.8	-29.1	13.8	8.00e-06	0	44	102	1048576	13	4685
2026-01-24 01:14:24.42	153.78	8.81	-26.9	-29.2	13.7	6.80e-06	0	44	102	1048576	13	4721
2026-01-24 01:14:27.44	154.05	8.60	-27.0	-29.0	13.7	2.20e-06	0	44	102	1048576	14	4518
2026-01-24 01:14:30.45	154.32	8.39	-27.0	-29.0	13.6	2.20e-06	0	44	102	1048576	14	4533
2026-01-24 01:14:33.46	154.59	8.18	-27.2	-29.6	13.2	1.02e-05	0	44	102	1048576	14	4725
2026-01-24 01:14:36.46	154.85	7.97	-27.0	-29.0	13.5	9.10e-06	0	44	102	1048576	14	4557
2026-01-24 01:14:39.47	155.11	7.76	-26.9	-29.4	13.6	4.50e-06	0	44	102	1048576	13	4803
2026-01-24 01:14:42.49	155.37	7.56	-27.0	-28.9	13.6	6.80e-06	0	44	102	1048576	14	4510
2026-01-24 01:14:45.51	155.62	7.35	-27.1	-29.1	13.5	3.40e-06	0	44	102	1048576	14	4548
2026-01-24 01:14:48.51	155.87	7.15	-27.3	-29.5	13.3	8.00e-06	0	44	102	1048576	14	4662
2026-01-24 01:14:51.52	156.12	6.94	-33.7	-45.0	3.8	8.46e-01	0	44	104	1048576	27	13223

#Closed at: 2026-01-24 01:14:53
#Recorded file [1 MB]: D:/data/31010_260124_040405.dat