passes_logs/2026/01/24/R2M6_AANII_01/R2M6_AANII_01__20260124_082052_SUOMI_NPP_rec.log

#Pass ID: 20260124_082052_SUOMI NPP
#Satellite: SUOMI NPP
#Configuration: NPP
#almurnet v.1.7.20240730
#Start time: 2026-01-24 08:20:52

#Version: 2.2.20231116
#Station: R2M6_AANII_01
#Location: 30.233357 lon 59.946436 lat
#TLE: 1 37849U 11061A   26023.63275593  .00000212  00000+0  12133-3 0  9990
#TLE: 2 37849  98.7820 325.6074 0002234  48.9695 311.1673 14.19528901737937

#Time	Az	El	Level	Level2	SNR	BER	BlckErr	Temp	State	Recorded	gain1	gain2
2026-01-24 08:20:52.60	96.63	7.01	-31.1	-42.9	3.7	1.50e+00	0	41	0	0	23	14034
2026-01-24 08:20:55.61	96.34	7.20	-30.9	-42.5	3.8	1.49e+00	0	41	104	0	23	13745
2026-01-24 08:20:58.61	96.04	7.38	-30.8	-42.3	3.8	1.49e+00	0	41	104	0	23	13586
2026-01-24 08:21:01.62	95.74	7.57	-30.8	-42.4	3.8	1.49e+00	0	41	104	0	23	13638
2026-01-24 08:21:04.64	95.43	7.76	-30.9	-42.6	3.8	1.49e+00	0	41	104	0	23	13780
2026-01-24 08:21:07.64	95.13	7.95	-31.1	-42.9	3.8	1.49e+00	0	41	104	0	23	14017
2026-01-24 08:21:10.64	94.81	8.14	-31.1	-43.0	3.8	1.49e+00	0	41	104	0	23	14122
2026-01-24 08:21:13.65	94.50	8.33	-31.3	-43.2	3.8	1.49e+00	0	42	104	0	23	14216
2026-01-24 08:21:16.66	94.17	8.53	-31.4	-43.2	3.8	1.49e+00	0	41	104	0	23	13934
2026-01-24 08:21:19.67	93.85	8.72	-31.6	-43.3	3.8	1.49e+00	0	41	104	0	23	13881
2026-01-24 08:21:22.69	93.52	8.91	-31.6	-42.3	3.8	1.49e+00	0	42	104	0	23	12250
2026-01-24 08:21:25.70	93.18	9.11	-31.7	-40.5	4.3	1.34e+00	0	42	104	0	23	9906
2026-01-24 08:21:28.71	92.84	9.30	-31.9	-40.1	4.1	1.14e+00	0	42	104	0	23	9281
2026-01-24 08:21:31.72	92.50	9.49	-32.4	-41.7	4.2	1.43e+00	0	42	104	0	24	10475
2026-01-24 08:21:34.73	92.15	9.69	-32.4	-40.3	5.0	7.42e-01	0	42	102	1048576	24	8885
2026-01-24 08:21:37.73	91.79	9.88	-32.4	-39.6	5.4	5.05e-01	0	42	102	1048576	24	8229
2026-01-24 08:21:40.75	91.43	10.08	-32.1	-37.1	7.2	1.61e-01	0	42	102	1048576	24	6395
2026-01-24 08:21:43.77	91.07	10.28	-31.3	-34.1	10.0	9.09e-03	0	42	102	1048576	23	4981
2026-01-24 08:21:46.78	90.70	10.48	-30.7	-32.6	11.6	6.65e-04	0	42	102	1048576	22	4492
2026-01-24 08:21:49.80	90.33	10.67	-31.0	-33.6	10.9	2.18e-03	0	42	102	1048576	22	4874
2026-01-24 08:21:52.80	89.95	10.87	-30.7	-32.6	11.7	8.97e-04	0	42	102	1048576	22	4482
2026-01-24 08:21:55.81	89.56	11.07	-30.9	-33.3	11.3	7.32e-04	0	43	102	1048576	22	4721
2026-01-24 08:21:58.84	89.17	11.27	-31.2	-34.1	10.7	2.69e-03	0	42	102	1048576	22	5025
2026-01-24 08:22:01.86	88.77	11.47	-31.1	-33.9	10.8	1.99e-03	0	43	102	1048576	22	4951
2026-01-24 08:22:04.88	88.37	11.67	-31.2	-34.1	10.8	2.50e-03	0	43	102	1048576	22	5006
2026-01-24 08:22:07.89	87.97	11.87	-31.0	-33.5	11.2	2.10e-03	0	43	102	1048576	22	4799
2026-01-24 08:22:10.91	87.55	12.07	-30.9	-33.2	11.5	9.59e-04	0	43	102	1048576	22	4669
2026-01-24 08:22:13.92	87.14	12.27	-31.2	-34.0	10.9	1.53e-03	0	43	102	1048576	22	4977
2026-01-24 08:22:16.94	86.71	12.47	-31.0	-33.2	11.5	7.38e-04	0	43	102	1048576	22	4669
2026-01-24 08:22:19.95	86.28	12.67	-30.7	-32.7	11.7	4.73e-04	0	43	102	1048576	22	4532
2026-01-24 08:22:22.96	85.85	12.87	-30.7	-32.7	11.8	4.62e-04	0	43	102	1048576	22	4516
2026-01-24 08:22:25.97	85.40	13.07	-30.9	-33.3	11.4	1.12e-03	0	43	102	1048576	22	4738
2026-01-24 08:22:28.98	84.96	13.27	-31.0	-33.6	11.1	9.88e-04	0	43	102	1048576	22	4863
2026-01-24 08:22:31.99	84.50	13.47	-30.9	-33.2	11.5	8.27e-04	0	43	102	1048576	22	4691
2026-01-24 08:22:35.01	84.04	13.67	-30.9	-33.3	11.4	1.11e-03	0	43	102	1048576	22	4751
2026-01-24 08:22:38.02	83.58	13.87	-30.8	-32.8	11.8	3.49e-04	0	43	102	1048576	22	4562
2026-01-24 08:22:41.04	83.10	14.07	-31.1	-33.9	11.0	1.70e-03	0	43	102	1048576	22	4968
2026-01-24 08:22:44.05	82.62	14.26	-31.0	-33.4	11.4	1.07e-03	0	43	102	1048576	22	4765
2026-01-24 08:22:47.07	82.14	14.46	-30.9	-33.3	11.5	7.32e-04	0	43	102	1048576	22	4717
2026-01-24 08:22:50.08	81.64	14.66	-31.0	-33.4	11.4	9.38e-04	0	43	102	1048576	22	4775
2026-01-24 08:22:53.10	81.14	14.86	-30.9	-33.2	11.7	7.05e-04	0	43	102	1048576	22	4672
2026-01-24 08:22:56.11	80.64	15.05	-31.0	-33.6	11.3	1.24e-03	0	43	102	1048576	22	4848
2026-01-24 08:22:59.13	80.13	15.25	-31.2	-34.0	11.0	1.84e-03	0	43	102	1048576	22	5017
2026-01-24 08:23:02.14	79.61	15.45	-31.1	-33.9	11.0	1.52e-03	0	43	102	1048576	22	4969
2026-01-24 08:23:05.15	79.08	15.64	-31.1	-33.8	11.2	1.51e-03	0	43	102	1048576	22	4895
2026-01-24 08:23:08.16	78.55	15.83	-30.9	-33.0	11.8	4.90e-04	0	43	102	1048576	22	4607
2026-01-24 08:23:11.16	78.01	16.03	-30.7	-32.6	12.1	3.37e-04	0	43	102	1048576	22	4485
2026-01-24 08:23:14.17	77.46	16.22	-30.7	-32.6	12.1	2.24e-04	0	43	102	1048576	22	4475
2026-01-24 08:23:17.19	76.91	16.41	-30.5	-32.0	12.5	1.60e-04	0	43	102	1048576	22	4290
2026-01-24 08:23:20.20	76.35	16.60	-30.6	-32.1	12.4	1.14e-04	0	43	102	1048576	22	4321
2026-01-24 08:23:23.21	75.78	16.78	-30.3	-32.0	12.8	5.56e-05	0	43	102	1048576	21	4349
2026-01-24 08:23:26.22	75.20	16.97	-30.0	-31.0	13.5	1.14e-05	0	43	102	1048576	21	4036
2026-01-24 08:23:29.23	74.62	17.15	-30.1	-31.2	13.4	1.22e-05	0	43	102	1048576	21	4103
2026-01-24 08:23:32.23	74.03	17.33	-29.9	-30.7	13.7	6.80e-06	0	43	102	1048576	21	3953
2026-01-24 08:23:35.24	73.44	17.52	-29.9	-31.3	13.6	3.00e-06	0	43	102	1048576	20	4226
2026-01-24 08:23:38.26	72.83	17.69	-29.8	-30.9	14.0	7.00e-07	0	43	102	1048576	20	4088
2026-01-24 08:23:41.28	72.22	17.87	-29.9	-31.1	13.8	6.80e-06	0	43	102	1048576	20	4166
2026-01-24 08:23:44.29	71.60	18.05	-29.8	-31.1	13.7	6.80e-06	0	43	102	1048576	20	4168
2026-01-24 08:23:47.31	70.97	18.22	-30.1	-31.8	13.4	1.22e-05	0	43	102	1048576	20	4373
2026-01-24 08:23:50.31	70.34	18.39	-29.9	-31.4	13.7	6.80e-06	0	43	102	1048576	20	4245
2026-01-24 08:23:53.32	69.70	18.56	-29.8	-31.0	13.9	6.80e-06	0	43	102	1048576	20	4116
2026-01-24 08:23:56.34	69.05	18.72	-29.8	-30.8	14.0	3.80e-06	0	43	102	1048576	20	4060
2026-01-24 08:23:59.34	68.40	18.88	-29.5	-30.2	14.5	2.20e-06	0	43	102	1048576	20	3890
2026-01-24 08:24:02.35	67.74	19.04	-29.1	-29.5	15.3	0.00e+00	0	43	102	1048576	19	3774
2026-01-24 08:24:05.38	67.07	19.20	-29.2	-29.8	15.1	0.00e+00	0	43	102	1048576	19	3848
2026-01-24 08:24:08.39	66.39	19.35	-29.3	-30.0	15.0	0.00e+00	0	43	102	1048576	19	3917
2026-01-24 08:24:11.41	65.71	19.50	-29.7	-30.9	14.5	1.50e-06	0	43	102	1048576	19	4159
2026-01-24 08:24:14.42	65.02	19.65	-29.6	-30.6	14.7	0.00e+00	0	43	102	1048576	19	4073
2026-01-24 08:24:17.43	64.33	19.79	-29.7	-31.1	14.4	7.00e-07	0	43	102	1048576	19	4196
2026-01-24 08:24:20.44	63.63	19.93	-29.6	-30.8	14.5	7.00e-07	0	43	102	1048576	19	4129
2026-01-24 08:24:23.44	62.92	20.06	-29.3	-30.0	15.1	0.00e+00	0	43	102	1048576	19	3885
2026-01-24 08:24:26.46	62.21	20.20	-29.1	-29.4	15.4	0.00e+00	0	43	102	1048576	19	3745
2026-01-24 08:24:29.47	61.49	20.32	-28.9	-29.0	15.7	0.00e+00	0	43	102	1048576	19	3648
2026-01-24 08:24:32.48	60.76	20.45	-29.2	-29.7	15.3	0.00e+00	0	43	102	1048576	19	3822
2026-01-24 08:24:35.48	60.03	20.56	-29.0	-29.1	15.6	0.00e+00	0	43	102	1048576	19	3663
2026-01-24 08:24:38.48	59.30	20.68	-29.6	-30.7	14.7	0.00e+00	0	43	102	1048576	19	4096
2026-01-24 08:24:41.49	58.56	20.79	-29.7	-31.0	14.5	0.00e+00	0	43	102	1048576	19	4180
2026-01-24 08:24:44.50	57.81	20.89	-30.2	-31.8	13.7	1.50e-06	0	43	102	1048576	20	4328
2026-01-24 08:24:47.52	57.05	20.99	-30.3	-32.1	13.6	9.10e-06	0	43	102	1048576	20	4429
2026-01-24 08:24:50.53	56.30	21.09	-30.4	-32.5	13.1	1.98e-05	0	43	102	1048576	20	4578
2026-01-24 08:24:53.54	55.54	21.18	-30.2	-31.8	13.7	6.80e-06	0	43	102	1048576	20	4331
2026-01-24 08:24:56.53	54.77	21.27	-30.2	-31.8	13.6	3.80e-06	0	43	102	1048576	20	4326
2026-01-24 08:24:59.54	54.00	21.35	-30.9	-33.3	12.3	1.11e-04	0	43	102	1048576	21	4736
2026-01-24 08:25:02.56	53.23	21.42	-30.8	-32.6	12.4	1.43e-04	0	43	102	1048576	22	4414
2026-01-24 08:25:05.57	52.45	21.49	-30.6	-31.9	12.9	4.34e-05	0	43	102	1048576	22	4191
2026-01-24 08:25:08.59	51.67	21.56	-30.7	-32.3	12.7	5.79e-05	0	43	102	1048576	22	4301
2026-01-24 08:25:11.60	50.88	21.61	-30.5	-31.8	12.9	5.64e-05	0	43	102	1048576	22	4153
2026-01-24 08:25:14.61	50.10	21.67	-30.1	-31.2	13.7	6.80e-06	0	43	102	1048576	21	4066
2026-01-24 08:25:17.62	49.31	21.72	-30.4	-32.1	13.0	3.73e-05	0	43	102	1048576	21	4376
2026-01-24 08:25:20.64	48.51	21.76	-30.8	-33.3	12.2	1.20e-04	0	43	102	1048576	21	4782
2026-01-24 08:25:23.65	47.72	21.79	-31.1	-33.7	11.7	5.18e-04	0	43	102	1048576	22	4816
2026-01-24 08:25:26.66	46.92	21.82	-31.0	-33.3	12.0	2.71e-04	0	43	102	1048576	22	4662
2026-01-24 08:25:29.68	46.12	21.85	-30.9	-32.8	12.3	1.43e-04	0	43	102	1048576	22	4483
2026-01-24 08:25:32.69	45.33	21.87	-30.1	-31.1	13.7	3.80e-06	0	43	102	1048576	21	4053
2026-01-24 08:25:35.71	44.53	21.88	-30.1	-31.1	13.7	1.37e-05	0	43	102	1048576	21	4038
2026-01-24 08:25:38.72	43.73	21.88	-30.0	-30.9	13.8	2.20e-06	0	43	102	1048576	21	3982
2026-01-24 08:25:41.72	42.93	21.89	-30.4	-32.0	13.1	1.22e-05	0	43	102	1048576	21	4315
2026-01-24 08:25:44.73	42.13	21.88	-30.4	-31.9	13.2	1.83e-05	0	43	102	1048576	21	4287
2026-01-24 08:25:47.74	41.33	21.87	-30.4	-31.9	13.2	2.05e-05	0	43	102	1048576	21	4280
2026-01-24 08:25:50.74	40.54	21.85	-29.5	-30.0	14.7	0.00e+00	0	43	102	1048576	20	3806
2026-01-24 08:25:53.75	39.74	21.83	-29.7	-30.5	14.4	0.00e+00	0	43	102	1048576	20	3959
2026-01-24 08:25:56.77	38.94	21.80	-29.4	-29.8	14.8	0.00e+00	0	43	102	1048576	20	3746
2026-01-24 08:25:59.77	38.15	21.76	-29.7	-30.9	14.6	0.00e+00	0	44	102	1048576	19	4132
2026-01-24 08:26:02.78	37.36	21.72	-29.6	-30.6	14.8	0.00e+00	0	43	102	1048576	19	4046
2026-01-24 08:26:05.80	36.57	21.68	-29.6	-30.7	14.7	7.00e-07	0	43	102	1048576	19	4083
2026-01-24 08:26:08.81	35.78	21.63	-29.2	-29.8	15.2	0.00e+00	0	43	102	1048576	19	3836
2026-01-24 08:26:11.82	35.00	21.57	-29.4	-30.3	14.9	0.00e+00	0	43	102	1048576	19	3966
2026-01-24 08:26:14.84	34.22	21.50	-29.6	-30.6	14.7	7.00e-07	0	43	102	1048576	19	4067
2026-01-24 08:26:17.85	33.44	21.44	-29.2	-29.8	15.3	0.00e+00	0	43	102	1048576	19	3822
2026-01-24 08:26:20.86	32.67	21.36	-29.0	-29.1	15.6	0.00e+00	0	43	102	1048576	19	3654
2026-01-24 08:26:23.88	31.89	21.28	-28.9	-29.0	15.7	0.00e+00	0	43	102	1048576	19	3622
2026-01-24 08:26:26.90	31.13	21.20	-29.8	-31.1	14.4	2.20e-06	0	43	102	1048576	19	4210
2026-01-24 08:26:29.90	30.37	21.11	-29.8	-31.2	14.3	0.00e+00	0	43	102	1048576	19	4220
2026-01-24 08:26:32.91	29.61	21.01	-29.7	-31.0	14.5	7.00e-07	0	43	102	1048576	19	4168
2026-01-24 08:26:35.93	28.86	20.91	-29.8	-31.3	14.3	3.00e-06	0	43	102	1048576	19	4264
2026-01-24 08:26:38.95	28.11	20.81	-30.6	-32.3	13.0	2.44e-05	0	43	102	1048576	21	4400
2026-01-24 08:26:41.96	27.37	20.70	-30.7	-32.8	12.6	1.04e-04	0	43	102	1048576	21	4550
2026-01-24 08:26:44.97	26.63	20.59	-30.6	-32.3	12.9	7.55e-05	0	43	102	1048576	21	4404
2026-01-24 08:26:47.97	25.90	20.47	-30.7	-32.7	12.6	6.94e-05	0	43	102	1048576	21	4546
2026-01-24 08:26:50.99	25.18	20.35	-30.3	-31.7	13.2	2.21e-05	0	43	102	1048576	21	4225
2026-01-24 08:26:53.99	24.46	20.22	-30.6	-32.4	12.7	5.11e-05	0	43	102	1048576	21	4446
2026-01-24 08:26:57.00	23.75	20.09	-30.1	-31.1	13.6	5.30e-06	0	43	102	1048576	21	4041
2026-01-24 08:27:00.01	23.04	19.96	-30.0	-30.7	13.9	3.00e-06	0	43	102	1048576	21	3908
2026-01-24 08:27:03.02	22.34	19.82	-30.0	-30.7	13.9	7.00e-07	0	43	102	1048576	21	3930
2026-01-24 08:27:06.03	21.65	19.68	-30.1	-31.2	13.5	9.10e-06	0	43	102	1048576	21	4062
2026-01-24 08:27:09.04	20.96	19.53	-30.9	-32.8	12.2	2.14e-04	0	43	102	1048576	22	4492
2026-01-24 08:27:12.06	20.28	19.38	-31.0	-33.2	11.8	7.09e-04	0	43	102	1048576	22	4645
2026-01-24 08:27:15.07	19.60	19.23	-30.8	-32.5	12.3	1.50e-04	0	43	102	1048576	22	4391
2026-01-24 08:27:18.07	18.94	19.08	-31.5	-34.5	10.5	2.96e-03	0	43	102	1048576	23	5073
2026-01-24 08:27:21.09	18.28	18.92	-31.6	-34.6	10.4	5.82e-03	0	43	102	1048576	23	5105
2026-01-24 08:27:24.11	17.62	18.76	-30.7	-32.2	12.4	1.85e-04	0	43	102	1048576	22	4312
2026-01-24 08:27:27.12	16.98	18.59	-30.6	-31.9	12.7	8.39e-05	0	43	102	1048576	22	4202
2026-01-24 08:27:30.12	16.34	18.43	-30.2	-31.3	13.4	1.06e-05	0	43	102	1048576	21	4104
2026-01-24 08:27:33.13	15.71	18.26	-30.2	-31.5	13.2	2.05e-05	0	43	102	1048576	21	4166
2026-01-24 08:27:36.13	15.09	18.09	-30.4	-32.1	12.8	3.50e-05	0	43	102	1048576	21	4365
2026-01-24 08:27:39.14	14.47	17.91	-29.8	-30.8	14.0	1.06e-05	0	43	102	1048576	20	4039
2026-01-24 08:27:42.16	13.86	17.74	-29.6	-30.5	14.0	1.50e-06	0	43	102	1048576	20	3969
2026-01-24 08:27:45.17	13.26	17.56	-30.3	-32.4	12.9	4.27e-05	0	43	102	1048576	20	4556
2026-01-24 08:27:48.17	12.66	17.38	-30.9	-33.5	11.7	4.45e-04	0	43	102	1048576	21	4874
2026-01-24 08:27:51.18	12.07	17.20	-30.6	-32.7	12.4	1.52e-04	0	43	102	1048576	21	4564
2026-01-24 08:27:54.19	11.49	17.02	-30.6	-32.5	12.4	1.16e-04	0	43	102	1048576	21	4498
2026-01-24 08:27:57.19	10.92	16.83	-30.1	-31.1	13.3	3.05e-05	0	43	102	1048576	21	4061
2026-01-24 08:28:00.20	10.35	16.65	-29.8	-30.9	13.8	3.80e-06	0	43	102	1048576	20	4088
2026-01-24 08:28:03.22	9.79	16.46	-30.3	-32.4	12.9	2.21e-05	0	44	102	1048576	20	4543
2026-01-24 08:28:06.23	9.24	16.27	-30.6	-32.8	12.4	1.62e-04	0	43	102	1048576	21	4604
2026-01-24 08:28:09.25	8.69	16.08	-30.4	-32.0	12.8	6.79e-05	0	43	102	1048576	21	4333
2026-01-24 08:28:12.26	8.15	15.89	-30.4	-32.2	12.7	6.10e-05	0	43	102	1048576	21	4390
2026-01-24 08:28:15.25	7.63	15.70	-30.6	-32.8	12.2	1.83e-04	0	43	102	1048576	21	4607
2026-01-24 08:28:18.26	7.10	15.50	-30.8	-33.3	11.8	4.56e-04	0	44	102	1048576	21	4795
2026-01-24 08:28:21.28	6.58	15.31	-30.7	-32.8	12.2	1.85e-04	0	44	102	1048576	21	4619
2026-01-24 08:28:24.28	6.07	15.11	-30.8	-33.1	12.0	4.38e-04	0	44	102	1048576	21	4709
2026-01-24 08:28:27.30	5.57	14.92	-30.3	-31.8	12.8	5.87e-05	0	43	102	1048576	21	4285
2026-01-24 08:28:30.31	5.07	14.72	-30.3	-31.6	13.0	4.04e-05	0	43	102	1048576	21	4216
2026-01-24 08:28:33.32	4.58	14.52	-29.5	-30.0	14.4	1.50e-06	0	44	102	1048576	20	3825
2026-01-24 08:28:36.33	4.09	14.33	-29.5	-30.0	14.4	0.00e+00	0	43	102	1048576	20	3829
2026-01-24 08:28:39.35	3.61	14.13	-29.6	-30.3	14.1	2.20e-06	0	44	102	1048576	20	3918
2026-01-24 08:28:42.36	3.14	13.93	-29.8	-30.9	13.7	5.30e-06	0	44	102	1048576	20	4097
2026-01-24 08:28:45.38	2.68	13.73	-30.1	-31.7	13.2	1.75e-05	0	44	102	1048576	20	4340
2026-01-24 08:28:48.39	2.22	13.53	-29.9	-31.2	13.4	1.83e-05	0	44	102	1048576	20	4189
2026-01-24 08:28:51.40	1.77	13.33	-29.2	-29.8	14.7	0.00e+00	0	44	102	1048576	19	3868
2026-01-24 08:28:54.41	1.32	13.13	-29.6	-30.8	14.1	7.00e-07	0	44	102	1048576	19	4157
2026-01-24 08:28:57.43	0.88	12.93	-30.2	-31.9	13.0	2.89e-05	0	44	102	1048576	20	4418
2026-01-24 08:29:00.43	0.45	12.74	-30.4	-32.5	12.7	7.93e-05	0	43	102	1048576	20	4595
2026-01-24 08:29:03.44	0.02	12.54	-30.3	-32.3	12.8	7.47e-05	0	44	102	1048576	20	4539
2026-01-24 08:29:06.44	359.60	12.34	-30.7	-33.1	11.9	2.17e-04	0	43	102	1048576	21	4723
2026-01-24 08:29:09.46	359.18	12.14	-29.8	-30.4	13.6	2.36e-05	0	44	102	1048576	21	3864
2026-01-24 08:29:12.47	358.77	11.94	-29.3	-30.1	14.5	7.00e-07	0	44	102	1048576	19	3954
2026-01-24 08:29:15.49	358.37	11.74	-29.9	-31.7	13.5	6.80e-06	0	44	102	1048576	19	4425
2026-01-24 08:29:18.49	357.97	11.54	-30.4	-32.6	12.5	1.27e-04	0	43	102	1048576	20	4637
2026-01-24 08:29:21.49	357.58	11.35	-30.5	-32.5	12.2	2.62e-04	0	43	102	1048576	21	4527
2026-01-24 08:29:24.51	357.19	11.15	-30.3	-31.7	12.7	7.85e-05	0	44	102	1048576	21	4262
2026-01-24 08:29:27.52	356.80	10.95	-30.0	-31.1	13.1	3.20e-05	0	44	102	1048576	21	4079
2026-01-24 08:29:30.54	356.42	10.75	-30.1	-31.4	12.9	5.03e-05	0	43	102	1048576	21	4164
2026-01-24 08:29:33.54	356.05	10.56	-30.2	-31.7	12.7	6.33e-05	0	44	102	1048576	21	4257
2026-01-24 08:29:36.55	355.69	10.36	-30.3	-32.0	12.4	1.75e-04	0	43	102	1048576	21	4365
2026-01-24 08:29:39.56	355.32	10.16	-30.4	-32.1	12.4	1.68e-04	0	44	102	1048576	21	4405
2026-01-24 08:29:42.58	354.97	9.97	-30.6	-32.8	11.9	3.97e-04	0	44	102	1048576	21	4626
2026-01-24 08:29:45.60	354.61	9.77	-30.6	-32.9	11.7	5.38e-04	0	44	102	1048576	21	4692
2026-01-24 08:29:48.61	354.26	9.58	-30.7	-33.3	11.5	9.71e-04	0	44	102	1048576	21	4820
2026-01-24 08:29:51.61	353.92	9.38	-30.8	-33.5	11.3	1.38e-03	0	44	102	1048576	21	4909
2026-01-24 08:29:54.64	353.58	9.19	-31.1	-34.1	10.5	2.75e-03	0	43	102	1048576	22	5052
2026-01-24 08:29:57.66	353.25	8.99	-31.1	-34.1	10.5	4.73e-03	0	44	102	1048576	22	5058
2026-01-24 08:30:00.67	352.92	8.80	-31.0	-33.6	10.8	2.81e-03	0	44	102	1048576	22	4875
2026-01-24 08:30:03.68	352.59	8.61	-30.7	-32.7	11.5	1.40e-03	0	44	102	1048576	22	4526
2026-01-24 08:30:06.68	352.27	8.42	-30.6	-32.3	11.7	4.84e-04	0	43	102	1048576	22	4394
2026-01-24 08:30:09.69	351.96	8.23	-30.5	-32.1	11.8	5.21e-04	0	44	102	1048576	22	4326
2026-01-24 08:30:12.70	351.65	8.04	-30.8	-33.0	11.2	1.47e-03	0	44	102	1048576	22	4660
2026-01-24 08:30:15.72	351.34	7.85	-30.9	-33.3	10.9	1.99e-03	0	44	102	1048576	22	4747
2026-01-24 08:30:18.73	351.04	7.66	-30.9	-33.5	10.8	2.59e-03	0	44	102	1048576	22	4823
2026-01-24 08:30:21.75	350.74	7.47	-30.7	-32.9	11.2	2.10e-03	0	44	102	1048576	22	4627
2026-01-24 08:30:24.76	350.44	7.28	-30.6	-32.4	11.5	1.03e-03	0	44	102	1048576	22	4463
2026-01-24 08:30:27.77	350.15	7.10	-30.7	-32.7	11.3	1.05e-03	0	43	102	1048576	22	4551

#Closed at: 2026-01-24 08:30:30
#Recorded file [1 MB]: D:/data/31010_260124_112133.dat