passes_logs/2026/01/24/R2M6_AANII_01/R2M6_AANII_01__20260124_020730_NOAA_20_JPSS-1_rec.log

#Pass ID: 20260124_020730_NOAA 20 (JPSS-1)
#Satellite: NOAA 20 (JPSS-1)
#Configuration: NOAA 20
#almurnet v.1.7.20240730
#Start time: 2026-01-24 02:07:32

#Version: 2.2.20231116
#Station: R2M6_AANII_01
#Location: 30.233357 lon 59.946436 lat
#TLE: 1 43013U 17073A   26022.94240312  .00000200  00000+0  11574-3 0  9998
#TLE: 2 43013  98.7645 323.7982 0001179  28.0279 332.0961 14.19539020423863

#Time	Az	El	Level	Level2	SNR	BER	BlckErr	Temp	State	Recorded	gain1	gain2
2026-01-24 02:07:32.01	10.69	7.12	-32.7	-42.1	4.2	1.43e+00	0	41	0	0	25	10599
2026-01-24 02:07:35.02	10.44	7.32	-32.7	-41.8	5.3	5.49e-01	0	42	102	1048576	24	10326
2026-01-24 02:07:38.02	10.18	7.52	-32.7	-41.2	5.4	4.86e-01	0	42	102	1048576	25	9623
2026-01-24 02:07:41.03	9.91	7.72	-32.7	-41.1	5.6	5.88e-01	0	42	102	1048576	25	9455
2026-01-24 02:07:44.04	9.65	7.92	-32.2	-38.5	7.7	1.29e-01	0	42	102	1048576	24	7481
2026-01-24 02:07:47.05	9.37	8.12	-31.6	-36.7	9.6	1.62e-02	0	42	102	1048576	23	6444
2026-01-24 02:07:50.06	9.10	8.33	-31.4	-36.3	10.4	4.77e-03	0	42	102	1048576	22	6315
2026-01-24 02:07:53.07	8.82	8.53	-31.3	-35.9	10.7	3.48e-03	0	42	102	1048576	22	6098
2026-01-24 02:07:56.08	8.53	8.74	-31.3	-36.0	10.7	3.30e-03	0	42	102	1048576	22	6146
2026-01-24 02:07:59.10	8.24	8.94	-31.4	-36.1	10.5	3.99e-03	0	42	102	1048576	22	6233
2026-01-24 02:08:02.12	7.95	9.15	-31.2	-35.6	11.0	2.42e-03	0	42	102	1048576	22	5938
2026-01-24 02:08:05.13	7.65	9.36	-31.1	-35.3	11.3	1.80e-03	0	42	102	1048576	22	5796
2026-01-24 02:08:08.13	7.35	9.57	-31.2	-35.5	11.1	1.90e-03	0	43	102	1048576	22	5914
2026-01-24 02:08:11.13	7.05	9.78	-31.2	-35.6	11.1	1.94e-03	0	43	102	1048576	22	5920
2026-01-24 02:08:14.14	6.74	9.99	-31.3	-35.8	10.9	2.02e-03	0	43	102	1048576	22	6044
2026-01-24 02:08:17.16	6.42	10.20	-31.2	-35.5	11.2	1.66e-03	0	43	102	1048576	22	5879
2026-01-24 02:08:20.18	6.10	10.42	-31.3	-35.6	11.1	2.42e-03	0	43	102	1048576	22	5939
2026-01-24 02:08:23.19	5.78	10.63	-31.3	-35.8	10.9	2.91e-03	0	43	102	1048576	22	6037
2026-01-24 02:08:26.19	5.45	10.85	-31.3	-35.6	11.1	1.60e-03	0	43	102	1048576	22	5933
2026-01-24 02:08:29.21	5.11	11.06	-31.3	-35.8	11.0	1.98e-03	0	43	102	1048576	22	6031
2026-01-24 02:08:32.22	4.77	11.28	-31.3	-35.5	11.2	1.48e-03	0	43	102	1048576	22	5900
2026-01-24 02:08:35.24	4.43	11.50	-31.2	-35.3	11.4	1.59e-03	0	43	102	1048576	22	5789
2026-01-24 02:08:38.25	4.07	11.72	-31.1	-35.1	11.6	1.00e-03	0	43	102	1048576	22	5673
2026-01-24 02:08:41.26	3.72	11.94	-31.2	-35.3	11.5	9.75e-04	0	43	102	1048576	22	5781
2026-01-24 02:08:44.26	3.36	12.15	-31.2	-35.3	11.4	8.78e-04	0	43	102	1048576	22	5782
2026-01-24 02:08:47.25	2.99	12.37	-31.2	-35.4	11.3	1.06e-03	0	43	102	1048576	22	5831
2026-01-24 02:08:50.27	2.62	12.60	-31.2	-35.2	11.5	7.64e-04	0	43	102	1048576	22	5729
2026-01-24 02:08:53.26	2.24	12.82	-31.1	-35.0	11.7	5.39e-04	0	43	102	1048576	22	5651
2026-01-24 02:08:56.28	1.86	13.04	-31.1	-35.1	11.7	6.86e-04	0	43	102	1048576	22	5677
2026-01-24 02:08:59.29	1.47	13.27	-30.9	-34.8	12.2	2.34e-04	0	43	102	1048576	21	5637
2026-01-24 02:09:02.30	1.07	13.49	-30.8	-34.6	12.3	1.80e-04	0	43	102	1048576	21	5558
2026-01-24 02:09:05.30	0.67	13.72	-30.8	-34.5	12.4	1.59e-04	0	43	102	1048576	21	5536
2026-01-24 02:09:08.32	0.26	13.94	-30.8	-34.6	12.3	1.27e-04	0	43	102	1048576	21	5557
2026-01-24 02:09:11.33	359.84	14.17	-30.8	-34.5	12.5	1.38e-04	0	43	102	1048576	21	5521
2026-01-24 02:09:14.35	359.42	14.40	-30.8	-34.4	12.6	1.26e-04	0	43	102	1048576	21	5478
2026-01-24 02:09:17.35	358.99	14.63	-30.6	-34.0	12.8	5.18e-05	0	43	102	1048576	21	5304
2026-01-24 02:09:20.35	358.56	14.86	-30.7	-34.2	12.7	1.39e-03	0	43	102	1048576	21	5368
2026-01-24 02:09:23.36	358.11	15.08	-30.9	-34.7	12.4	1.39e-03	0	43	102	1048576	21	5576
2026-01-24 02:09:26.38	357.66	15.31	-30.8	-34.4	12.6	9.61e-05	0	43	102	1048576	21	5451
2026-01-24 02:09:29.40	357.20	15.54	-30.8	-34.5	12.6	1.23e-04	0	43	102	1048576	21	5488
2026-01-24 02:09:32.41	356.74	15.77	-30.7	-34.3	12.7	8.01e-05	0	44	102	1048576	21	5407
2026-01-24 02:09:35.43	356.27	16.01	-30.7	-34.2	12.8	1.82e-03	0	44	102	1048576	21	5381
2026-01-24 02:09:38.42	355.79	16.23	-30.7	-34.2	12.8	1.78e-03	0	43	102	1048576	21	5372
2026-01-24 02:09:41.44	355.30	16.47	-30.8	-34.5	12.6	1.91e-03	0	44	102	1048576	21	5498
2026-01-24 02:09:44.46	354.81	16.70	-30.9	-34.6	12.5	1.77e-03	0	44	102	1048576	21	5559
2026-01-24 02:09:47.48	354.30	16.93	-31.1	-34.7	12.2	2.03e-03	0	44	102	1048576	22	5469
2026-01-24 02:09:50.47	353.80	17.16	-30.7	-34.2	12.8	1.70e-03	0	43	102	1048576	21	5376
2026-01-24 02:09:53.48	353.28	17.39	-30.8	-34.5	12.6	7.40e-05	0	44	102	1048576	21	5512
2026-01-24 02:09:56.50	352.75	17.62	-30.9	-34.7	12.5	1.30e-04	0	44	102	1048576	21	5569
2026-01-24 02:09:59.51	352.22	17.85	-30.9	-34.7	12.6	1.43e-03	0	44	102	1048576	21	5552
2026-01-24 02:10:02.53	351.67	18.08	-30.8	-34.4	12.7	1.34e-03	0	44	102	1048576	21	5464
2026-01-24 02:10:05.54	351.12	18.31	-30.8	-34.5	12.8	1.05e-03	0	44	102	1048576	21	5482
2026-01-24 02:10:08.55	350.56	18.53	-31.0	-34.5	12.4	1.51e-04	0	44	102	1048576	22	5380
2026-01-24 02:10:11.55	350.00	18.76	-31.0	-34.4	12.4	1.43e-04	0	44	102	1048576	22	5360
2026-01-24 02:10:14.56	349.42	18.98	-30.8	-34.4	12.8	6.10e-05	0	44	102	1048576	21	5432
2026-01-24 02:10:17.57	348.84	19.21	-30.8	-34.2	12.9	4.42e-05	0	44	102	1048576	21	5383
2026-01-24 02:10:20.58	348.24	19.43	-30.8	-34.3	12.7	7.85e-05	0	44	102	1048576	21	5426
2026-01-24 02:10:23.60	347.64	19.66	-30.7	-34.0	13.0	3.81e-05	0	44	102	1048576	21	5285
2026-01-24 02:10:26.61	347.03	19.88	-30.5	-33.6	13.3	2.28e-05	0	44	102	1048576	21	5143
2026-01-24 02:10:29.62	346.40	20.10	-30.5	-33.4	13.5	9.10e-06	0	44	102	1048576	21	5053
2026-01-24 02:10:32.63	345.77	20.31	-30.4	-33.3	13.5	1.52e-05	0	44	102	1048576	21	5030
2026-01-24 02:10:35.63	345.14	20.53	-30.3	-33.1	13.6	7.60e-06	0	44	102	1048576	21	4950
2026-01-24 02:10:38.64	344.49	20.74	-30.3	-32.9	13.8	4.50e-06	0	44	102	1048576	21	4883
2026-01-24 02:10:41.65	343.83	20.96	-29.6	-31.8	14.8	0.00e+00	0	44	102	1048576	20	4594
2026-01-24 02:10:44.66	343.17	21.17	-29.9	-32.4	14.4	1.50e-06	0	44	102	1048576	20	4798
2026-01-24 02:10:47.68	342.49	21.37	-29.7	-31.9	14.7	7.00e-07	0	44	102	1048576	20	4651
2026-01-24 02:10:50.68	341.81	21.58	-29.7	-31.9	14.7	7.00e-07	0	44	102	1048576	20	4650
2026-01-24 02:10:53.70	341.11	21.78	-29.5	-31.3	15.2	0.00e+00	0	44	102	1048576	20	4432
2026-01-24 02:10:56.71	340.41	21.98	-29.4	-31.7	15.3	0.00e+00	0	44	102	1048576	19	4676
2026-01-24 02:10:59.72	339.69	22.17	-29.6	-32.1	15.0	0.00e+00	0	44	102	1048576	19	4811
2026-01-24 02:11:02.74	338.97	22.37	-29.6	-32.0	15.1	0.00e+00	0	44	102	1048576	19	4763
2026-01-24 02:11:05.75	338.24	22.56	-29.5	-31.8	15.3	0.00e+00	0	44	102	1048576	19	4704
2026-01-24 02:11:08.77	337.50	22.74	-29.8	-32.5	14.8	0.00e+00	0	44	102	1048576	19	4939
2026-01-24 02:11:11.78	336.75	22.92	-29.7	-32.3	14.9	7.00e-07	0	44	102	1048576	19	4874
2026-01-24 02:11:14.79	335.99	23.10	-29.7	-32.2	15.0	0.00e+00	0	44	102	1048576	19	4845
2026-01-24 02:11:17.81	335.22	23.27	-29.8	-32.7	14.7	0.00e+00	0	44	102	1048576	19	5009
2026-01-24 02:11:20.81	334.45	23.44	-30.0	-33.1	14.5	0.00e+00	0	44	102	1048576	19	5129
2026-01-24 02:11:23.83	333.67	23.60	-29.8	-32.5	14.8	0.00e+00	0	44	102	1048576	19	4923
2026-01-24 02:11:26.84	332.88	23.76	-29.7	-32.4	14.9	0.00e+00	0	44	102	1048576	19	4893
2026-01-24 02:11:29.84	332.08	23.92	-29.5	-31.8	15.2	0.00e+00	0	44	102	1048576	19	4700
2026-01-24 02:11:32.85	331.27	24.06	-29.3	-31.7	15.6	0.00e+00	0	44	102	1048576	18	4778
2026-01-24 02:11:35.85	330.46	24.21	-29.1	-31.4	15.8	0.00e+00	0	44	102	1048576	18	4693
2026-01-24 02:11:38.86	329.64	24.34	-28.9	-31.3	16.1	0.00e+00	0	44	102	1048576	17	4772
2026-01-24 02:11:41.86	328.82	24.48	-29.4	-32.0	15.4	0.00e+00	0	44	102	1048576	18	4882
2026-01-24 02:11:44.87	327.98	24.60	-29.7	-32.3	15.0	0.00e+00	0	44	102	1048576	19	4854
2026-01-24 02:11:47.89	327.13	24.72	-29.8	-32.6	14.8	7.00e-07	0	44	102	1048576	19	4958
2026-01-24 02:11:50.88	326.29	24.83	-29.6	-32.2	15.0	0.00e+00	0	44	102	1048576	19	4823
2026-01-24 02:11:53.90	325.43	24.94	-29.8	-32.5	14.8	0.00e+00	0	44	102	1048576	19	4939
2026-01-24 02:11:56.91	324.57	25.04	-30.3	-33.5	13.8	3.00e-06	0	44	102	1048576	20	5177
2026-01-24 02:11:59.92	323.71	25.14	-30.2	-33.2	14.0	0.00e+00	0	44	102	1048576	20	5067
2026-01-24 02:12:02.92	322.84	25.22	-30.2	-33.3	13.9	3.80e-06	0	44	102	1048576	20	5097
2026-01-24 02:12:05.94	321.96	25.30	-30.3	-33.4	13.9	3.00e-06	0	44	102	1048576	20	5160
2026-01-24 02:12:08.94	321.08	25.38	-30.4	-33.6	13.5	3.80e-06	0	44	102	1048576	20	5230
2026-01-24 02:12:11.95	320.20	25.44	-30.2	-33.1	14.1	2.06e-03	0	44	102	1048576	20	5040
2026-01-24 02:12:14.98	319.31	25.50	-30.4	-33.8	13.6	2.20e-06	0	44	102	1048576	20	5297
2026-01-24 02:12:17.99	318.42	25.55	-30.7	-34.1	13.1	1.37e-05	0	44	102	1048576	21	5315
2026-01-24 02:12:20.99	317.53	25.59	-30.9	-34.6	12.7	5.03e-05	0	44	102	1048576	21	5500
2026-01-24 02:12:24.01	316.63	25.63	-30.8	-33.9	12.9	5.26e-05	0	44	102	1048576	22	5103
2026-01-24 02:12:27.01	315.73	25.66	-30.8	-34.4	12.9	3.78e-04	0	44	102	1048576	21	5432
2026-01-24 02:12:30.01	314.84	25.68	-30.7	-33.9	13.2	1.24e-03	0	44	102	1048576	21	5240
2026-01-24 02:12:33.02	313.94	25.69	-30.6	-33.6	13.4	1.02e-03	0	44	102	1048576	21	5116
2026-01-24 02:12:36.04	313.04	25.69	-30.4	-33.8	13.6	1.53e-03	0	44	102	1048576	20	5295
2026-01-24 02:12:39.05	312.14	25.69	-30.3	-33.0	13.8	3.41e-04	0	44	102	1048576	21	4888
2026-01-24 02:12:42.06	311.24	25.68	-30.5	-33.4	13.5	1.61e-04	0	44	102	1048576	21	5059
2026-01-24 02:12:45.07	310.34	25.66	-30.1	-32.5	14.1	4.28e-04	0	44	102	1048576	21	4708
2026-01-24 02:12:48.08	309.44	25.64	-29.8	-32.1	14.6	0.00e+00	0	44	102	1048576	20	4703
2026-01-24 02:12:51.11	308.54	25.60	-29.9	-32.8	14.6	2.86e-04	0	44	102	1048576	19	5039
2026-01-24 02:12:54.12	307.64	25.56	-29.6	-32.0	15.1	4.94e-04	0	44	102	1048576	19	4761
2026-01-24 02:12:57.12	306.75	25.51	-29.5	-31.9	15.0	0.00e+00	0	44	102	1048576	19	4731
2026-01-24 02:13:00.14	305.86	25.45	-29.3	-31.7	15.5	0.00e+00	0	44	102	1048576	18	4788
2026-01-24 02:13:03.15	304.98	25.39	-29.1	-31.3	15.8	0.00e+00	0	44	102	1048576	18	4643
2026-01-24 02:13:06.15	304.10	25.32	-29.0	-31.1	15.8	0.00e+00	0	44	102	1048576	18	4591
2026-01-24 02:13:09.16	303.22	25.24	-29.3	-31.9	15.4	1.92e-03	0	44	102	1048576	18	4839
2026-01-24 02:13:12.16	302.35	25.16	-29.0	-31.1	15.8	1.58e-03	0	44	102	1048576	18	4603
2026-01-24 02:13:15.19	301.48	25.06	-29.0	-31.1	15.9	0.00e+00	0	44	102	1048576	18	4583
2026-01-24 02:13:18.20	300.61	24.96	-28.9	-31.0	15.9	0.00e+00	0	44	102	1048576	18	4556
2026-01-24 02:13:21.20	299.76	24.86	-29.1	-31.3	15.7	0.00e+00	0	44	102	1048576	18	4649
2026-01-24 02:13:24.21	298.91	24.75	-29.2	-31.6	15.5	0.00e+00	0	44	102	1048576	18	4761
2026-01-24 02:13:27.22	298.06	24.63	-29.4	-32.1	15.2	0.00e+00	0	44	102	1048576	18	4928
2026-01-24 02:13:30.24	297.22	24.50	-29.8	-32.5	14.6	0.00e+00	0	44	102	1048576	19	4956
2026-01-24 02:13:33.26	296.39	24.37	-29.4	-31.6	15.2	0.00e+00	0	44	102	1048576	19	4658
2026-01-24 02:13:36.27	295.56	24.23	-30.2	-33.4	14.7	7.00e-07	0	44	102	1048576	19	5187
2026-01-24 02:13:39.29	294.74	24.09	-30.2	-33.2	13.8	1.50e-06	0	44	102	1048576	20	5096
2026-01-24 02:13:42.30	293.93	23.94	-30.3	-33.5	13.6	2.20e-06	0	44	102	1048576	20	5203
2026-01-24 02:13:45.32	293.13	23.79	-30.1	-33.0	13.9	1.50e-06	0	44	102	1048576	20	5016
2026-01-24 02:13:48.32	292.33	23.63	-30.3	-33.6	13.6	8.30e-06	0	44	102	1048576	20	5249
2026-01-24 02:13:51.34	291.55	23.47	-30.3	-33.5	13.6	3.00e-06	0	44	102	1048576	20	5211
2026-01-24 02:13:54.35	290.77	23.30	-30.3	-33.7	13.5	1.35e-03	0	44	102	1048576	20	5269
2026-01-24 02:13:57.36	290.00	23.13	-30.3	-33.5	13.5	1.69e-03	0	44	102	1048576	20	5222
2026-01-24 02:14:00.34	289.25	22.95	-30.3	-33.5	13.6	1.58e-03	0	44	102	1048576	20	5228
2026-01-24 02:14:03.34	288.50	22.77	-30.3	-33.6	13.5	9.90e-06	0	44	102	1048576	20	5259
2026-01-24 02:14:06.35	287.75	22.59	-30.6	-34.0	12.9	3.12e-05	0	44	102	1048576	21	5301
2026-01-24 02:14:09.37	287.02	22.40	-30.5	-33.6	13.2	1.36e-03	0	44	102	1048576	21	5137
2026-01-24 02:14:12.39	286.29	22.21	-30.3	-33.6	13.5	1.33e-03	0	44	102	1048576	20	5240
2026-01-24 02:14:15.40	285.57	22.01	-30.4	-33.9	13.3	4.72e-04	0	44	102	1048576	20	5384
2026-01-24 02:14:18.41	284.86	21.81	-30.2	-33.4	13.6	4.67e-04	0	44	102	1048576	20	5195
2026-01-24 02:14:21.42	284.17	21.61	-29.9	-33.0	14.2	1.74e-03	0	44	102	1048576	19	5145
2026-01-24 02:14:24.44	283.47	21.41	-29.9	-33.1	14.2	2.02e-03	0	44	102	1048576	19	5168
2026-01-24 02:14:27.45	282.79	21.20	-29.8	-32.8	14.4	7.00e-07	0	44	102	1048576	19	5066
2026-01-24 02:14:30.45	282.13	20.99	-29.7	-32.4	14.6	7.00e-07	0	44	102	1048576	19	4932
2026-01-24 02:14:33.46	281.46	20.78	-29.8	-32.8	14.3	2.11e-03	0	44	102	1048576	19	5061
2026-01-24 02:14:36.48	280.81	20.56	-30.0	-32.7	13.9	2.05e-03	0	44	102	1048576	20	4946
2026-01-24 02:14:39.50	280.16	20.35	-29.9	-32.5	14.0	3.54e-04	0	44	102	1048576	20	4883
2026-01-24 02:14:42.51	279.53	20.13	-29.9	-33.0	14.1	7.00e-07	0	44	102	1048576	19	5145
2026-01-24 02:14:45.51	278.91	19.91	-29.9	-33.0	14.1	0.00e+00	0	44	102	1048576	19	5148
2026-01-24 02:14:48.52	278.29	19.69	-29.9	-32.5	14.0	6.10e-06	0	44	102	1048576	20	4869
2026-01-24 02:14:51.52	277.69	19.47	-29.8	-32.9	14.2	2.20e-06	0	44	102	1048576	19	5104
2026-01-24 02:14:54.54	277.09	19.24	-29.9	-33.1	14.0	2.20e-06	0	44	102	1048576	19	5187
2026-01-24 02:14:57.55	276.50	19.02	-29.8	-32.7	14.3	7.00e-07	0	44	102	1048576	19	5042
2026-01-24 02:15:00.56	275.91	18.79	-29.6	-32.4	14.5	3.00e-06	0	44	102	1048576	19	4927
2026-01-24 02:15:03.58	275.34	18.56	-29.7	-32.5	14.4	7.00e-07	0	44	102	1048576	19	4978
2026-01-24 02:15:06.60	274.78	18.33	-29.6	-32.2	14.5	7.00e-07	0	44	102	1048576	19	4866
2026-01-24 02:15:09.61	274.22	18.10	-29.5	-32.0	14.6	1.50e-06	0	44	102	1048576	19	4817
2026-01-24 02:15:12.62	273.67	17.87	-29.3	-32.1	14.9	2.20e-06	0	44	102	1048576	18	4962
2026-01-24 02:15:15.64	273.13	17.64	-29.9	-33.1	13.9	4.50e-06	0	44	102	1048576	19	5196
2026-01-24 02:15:18.65	272.60	17.41	-29.8	-32.9	14.1	0.00e+00	0	44	102	1048576	19	5122
2026-01-24 02:15:21.65	272.08	17.18	-29.8	-32.5	13.9	3.80e-06	0	44	102	1048576	20	4879
2026-01-24 02:15:24.67	271.57	16.95	-29.7	-32.6	14.2	0.00e+00	0	44	102	1048576	19	5017
2026-01-24 02:15:27.69	271.06	16.72	-29.3	-32.2	14.8	7.00e-07	0	44	102	1048576	18	4982
2026-01-24 02:15:30.71	270.56	16.49	-29.8	-33.0	13.9	0.00e+00	0	44	102	1048576	19	5179
2026-01-24 02:15:33.73	270.07	16.25	-30.2	-33.5	13.2	1.44e-05	0	44	102	1048576	20	5271
2026-01-24 02:15:36.73	269.59	16.02	-29.6	-32.3	14.3	2.20e-06	0	44	102	1048576	19	4922
2026-01-24 02:15:39.75	269.11	15.79	-29.3	-32.2	14.7	0.00e+00	0	44	102	1048576	18	4991
2026-01-24 02:15:42.76	268.64	15.56	-29.7	-32.7	14.1	2.00e-04	0	44	102	1048576	19	5054
2026-01-24 02:15:45.77	268.18	15.33	-29.5	-32.6	14.5	2.26e-04	0	44	102	1048576	18	5131
2026-01-24 02:15:48.78	267.73	15.10	-29.5	-32.1	14.4	1.96e-04	0	44	102	1048576	19	4859
2026-01-24 02:15:51.79	267.28	14.87	-29.6	-32.5	14.2	2.20e-06	0	44	102	1048576	19	4988
2026-01-24 02:15:54.80	266.84	14.64	-29.8	-32.9	13.9	3.00e-06	0	44	102	1048576	19	5164
2026-01-24 02:15:57.81	266.41	14.41	-30.0	-33.4	13.6	8.30e-06	0	44	102	1048576	19	5320
2026-01-24 02:16:00.82	265.98	14.18	-30.1	-33.3	13.2	1.90e-05	0	44	102	1048576	20	5221
2026-01-24 02:16:03.83	265.56	13.96	-29.7	-32.1	13.9	6.10e-06	0	44	102	1048576	20	4773
2026-01-24 02:16:06.85	265.15	13.73	-29.8	-32.4	13.8	1.50e-06	0	44	102	1048576	20	4871
2026-01-24 02:16:09.87	264.74	13.50	-29.8	-32.5	13.7	4.50e-06	0	44	102	1048576	20	4924
2026-01-24 02:16:12.87	264.34	13.28	-30.0	-33.4	13.5	1.14e-05	0	44	102	1048576	19	5341
2026-01-24 02:16:15.89	263.95	13.05	-30.0	-33.1	13.3	1.67e-05	0	44	102	1048576	20	5135
2026-01-24 02:16:18.90	263.56	12.82	-30.1	-33.4	13.0	2.97e-05	0	44	102	1048576	20	5271
2026-01-24 02:16:21.92	263.17	12.60	-30.2	-33.7	12.8	5.56e-05	0	44	102	1048576	20	5366
2026-01-24 02:16:24.94	262.80	12.38	-30.4	-34.1	12.5	7.78e-05	0	44	102	1048576	20	5552
2026-01-24 02:16:27.95	262.43	12.15	-29.5	-32.9	12.5	7.93e-05	0	44	102	1048576	20	5293
2026-01-24 02:16:30.95	262.06	11.93	-30.0	-33.2	12.0	2.67e-05	0	44	102	1048576	20	5181
2026-01-24 02:16:33.96	261.70	11.71	-30.2	-33.7	12.7	9.30e-05	0	44	102	1048576	20	5385
2026-01-24 02:16:36.99	261.35	11.49	-30.5	-34.5	12.2	1.65e-04	0	44	102	1048576	20	5716
2026-01-24 02:16:40.00	261.00	11.27	-30.4	-34.2	12.4	1.53e-04	0	44	102	1048576	20	5605
2026-01-24 02:16:43.01	260.66	11.06	-30.4	-34.4	12.2	2.14e-04	0	44	102	1048576	20	5694
2026-01-24 02:16:46.02	260.32	10.84	-30.2	-33.7	12.7	2.45e-03	0	44	102	1048576	20	5374
2026-01-24 02:16:49.03	259.98	10.62	-30.4	-34.5	12.1	2.50e-03	0	44	102	1048576	20	5729
2026-01-24 02:16:52.03	259.66	10.41	-30.4	-34.2	12.3	1.18e-03	0	44	102	1048576	20	5613
2026-01-24 02:16:55.05	259.33	10.20	-30.8	-35.1	11.2	6.96e-04	0	44	102	1048576	21	5918
2026-01-24 02:16:58.05	259.01	9.98	-30.7	-34.9	11.4	1.39e-03	0	44	102	1048576	21	5835
2026-01-24 02:17:01.07	258.70	9.77	-30.9	-35.4	11.0	3.69e-03	0	44	102	1048576	21	6043
2026-01-24 02:17:04.08	258.39	9.56	-31.2	-36.1	10.0	7.81e-03	0	44	102	1048576	22	6340
2026-01-24 02:17:07.09	258.09	9.35	-31.2	-36.1	10.1	9.10e-03	0	44	102	1048576	22	6314
2026-01-24 02:17:10.11	257.78	9.14	-31.0	-35.8	10.6	5.06e-03	0	44	102	1048576	21	6257
2026-01-24 02:17:13.13	257.49	8.93	-31.1	-35.9	10.2	8.76e-03	0	44	102	1048576	22	6202
2026-01-24 02:17:16.14	257.20	8.72	-30.9	-35.7	10.6	5.17e-03	0	44	102	1048576	21	6225
2026-01-24 02:17:19.16	256.91	8.52	-30.8	-35.3	10.9	2.36e-03	0	44	102	1048576	21	6038
2026-01-24 02:17:22.18	256.62	8.31	-30.7	-34.8	11.2	1.31e-03	0	44	102	1048576	21	5817
2026-01-24 02:17:25.19	256.34	8.11	-30.7	-34.9	11.2	3.67e-03	0	44	102	1048576	21	5844
2026-01-24 02:17:28.21	256.07	7.90	-30.8	-35.3	10.8	4.42e-03	0	44	102	1048576	21	6042
2026-01-24 02:17:31.22	255.80	7.70	-30.8	-35.4	10.7	5.47e-03	0	44	102	1048576	21	6129
2026-01-24 02:17:34.23	255.53	7.50	-30.9	-35.6	10.6	3.82e-03	0	44	102	1048576	21	6204
2026-01-24 02:17:37.24	255.27	7.30	-30.8	-35.6	10.5	3.49e-03	0	44	102	1048576	21	6196
2026-01-24 02:17:40.26	255.01	7.10	-31.7	-37.7	8.6	3.64e-03	0	44	102	1048576	23	7185

#Closed at: 2026-01-24 02:17:42
#Recorded file [1 MB]: D:/data/31010_260124_050733.dat