passes_logs/2026/01/24/R2M6_AANII_01/R2M6_AANII_01__20260124_031352_AQUA_rec.log

#Pass ID: 20260124_031352_AQUA
#Satellite: AQUA
#Configuration: AQUA
#almurnet v.1.7.20240730
#Start time: 2026-01-24 03:13:53

#Version: 2.2.20231116
#Station: R2M6_AANII_01
#Location: 30.233357 lon 59.946436 lat
#TLE: 1 27424U 02022A   26022.96978264  .00001879  00000+0  38593-3 0  9993
#TLE: 2 27424  98.4100 349.5315 0001958  69.4371  21.4765 14.61848807262053

#Time	Az	El	Level	Level2	SNR	BER	BlckErr	Temp	State	Recorded	gain1	gain2
2026-01-24 03:13:53.33	9.41	7.07	-32.7	-49.0	3.8	7.47e-01	0	41	0	0	26	23382
2026-01-24 03:13:56.33	9.18	7.29	-32.7	-48.6	3.8	7.44e-01	0	42	104	0	26	22515
2026-01-24 03:13:59.35	8.95	7.52	-32.7	-48.5	3.8	7.46e-01	0	42	104	0	26	22154
2026-01-24 03:14:02.34	8.72	7.75	-31.9	-46.0	3.8	7.46e-01	0	42	104	0	25	18158
2026-01-24 03:14:05.35	8.48	7.98	-31.4	-44.7	3.9	7.43e-01	0	42	104	0	24	16617
2026-01-24 03:14:08.35	8.24	8.21	-31.5	-45.0	3.8	7.42e-01	0	42	104	0	24	17032
2026-01-24 03:14:11.36	7.99	8.45	-31.3	-44.8	3.8	7.44e-01	0	42	104	0	23	17122
2026-01-24 03:14:14.38	7.73	8.68	-31.9	-46.5	3.8	7.44e-01	0	42	104	0	24	19259
2026-01-24 03:14:17.40	7.48	8.92	-32.8	-48.4	3.8	7.46e-01	0	42	104	0	26	21842
2026-01-24 03:14:20.41	7.21	9.16	-32.9	-49.3	3.8	7.45e-01	0	42	104	0	26	23575
2026-01-24 03:14:23.42	6.95	9.40	-33.2	-49.8	3.8	7.42e-01	0	42	104	0	27	24501
2026-01-24 03:14:26.44	6.67	9.65	-33.4	-51.1	3.8	7.45e-01	0	43	104	0	27	27645
2026-01-24 03:14:29.45	6.40	9.90	-33.5	-51.7	3.8	7.44e-01	0	43	104	0	27	29264
2026-01-24 03:14:32.46	6.11	10.14	-33.5	-51.5	3.8	7.42e-01	0	43	104	0	27	28650
2026-01-24 03:14:35.46	5.83	10.39	-33.3	-50.5	3.8	7.44e-01	0	43	104	0	27	25901
2026-01-24 03:14:38.47	5.53	10.65	-33.1	-49.4	3.8	7.44e-01	0	43	104	0	27	23393
2026-01-24 03:14:41.49	5.23	10.90	-32.6	-47.5	3.8	7.44e-01	0	43	104	0	26	19990
2026-01-24 03:14:44.51	4.93	11.16	-32.0	-46.5	3.8	7.45e-01	0	43	104	0	24	19066
2026-01-24 03:14:47.51	4.62	11.42	-32.0	-46.3	3.8	7.43e-01	0	43	104	0	24	18649
2026-01-24 03:14:50.53	4.30	11.68	-31.7	-45.4	3.8	7.43e-01	0	43	104	0	24	17355
2026-01-24 03:14:53.54	3.97	11.95	-31.2	-44.4	3.8	7.46e-01	0	43	104	0	23	16381
2026-01-24 03:14:56.55	3.64	12.21	-32.0	-46.3	3.8	7.45e-01	0	43	104	0	24	18635
2026-01-24 03:14:59.56	3.31	12.48	-31.7	-45.5	3.8	7.46e-01	0	43	104	0	24	17523
2026-01-24 03:15:02.57	2.96	12.75	-31.8	-45.7	3.8	7.45e-01	0	43	104	0	24	17822
2026-01-24 03:15:05.57	2.61	13.03	-32.7	-47.8	3.8	7.46e-01	0	43	104	0	26	20497
2026-01-24 03:15:08.57	2.25	13.30	-33.2	-49.2	3.8	7.43e-01	0	43	104	0	27	22802
2026-01-24 03:15:11.58	1.89	13.58	-33.3	-49.8	3.8	7.45e-01	0	43	104	0	27	24084
2026-01-24 03:15:14.59	1.51	13.86	-33.5	-51.0	3.8	7.48e-01	0	43	104	0	27	26912
2026-01-24 03:15:17.61	1.13	14.15	-33.6	-51.1	3.8	7.42e-01	0	43	104	0	28	27062
2026-01-24 03:15:20.62	0.74	14.43	-33.5	-50.5	3.8	7.43e-01	0	43	104	0	27	25583
2026-01-24 03:15:23.62	0.34	14.72	-33.4	-49.9	3.8	7.48e-01	0	43	104	0	27	24197
2026-01-24 03:15:26.64	359.94	15.01	-33.1	-48.6	3.8	7.44e-01	0	43	104	0	27	21515
2026-01-24 03:15:29.66	359.52	15.30	-32.4	-46.5	3.8	7.43e-01	0	43	104	0	26	18262
2026-01-24 03:15:32.68	359.09	15.60	-31.4	-44.3	3.8	7.46e-01	0	43	104	0	24	15893
2026-01-24 03:15:35.70	358.66	15.90	-31.0	-44.3	3.8	7.46e-01	0	43	104	0	22	16568
2026-01-24 03:15:38.70	358.22	16.20	-31.3	-44.5	3.8	7.47e-01	0	43	104	0	23	16462
2026-01-24 03:15:41.71	357.76	16.50	-31.0	-44.1	3.8	7.44e-01	0	43	104	0	22	16293
2026-01-24 03:15:44.73	357.30	16.81	-32.0	-45.9	3.8	7.46e-01	0	43	104	0	24	17989
2026-01-24 03:15:47.74	356.82	17.11	-32.5	-47.1	3.8	7.45e-01	0	43	104	0	25	19325
2026-01-24 03:15:50.75	356.34	17.42	-32.2	-46.1	3.8	7.43e-01	0	43	104	0	25	17975
2026-01-24 03:15:53.76	355.84	17.74	-32.8	-47.7	3.8	7.47e-01	0	43	104	0	26	20096
2026-01-24 03:15:56.77	355.34	18.05	-33.4	-49.4	3.8	7.43e-01	0	44	104	0	27	22858
2026-01-24 03:15:59.79	354.82	18.37	-33.5	-50.2	3.8	7.46e-01	0	44	104	0	27	24539
2026-01-24 03:16:02.80	354.29	18.68	-33.7	-50.8	3.8	7.48e-01	0	43	104	0	28	25763
2026-01-24 03:16:05.82	353.74	19.01	-33.8	-51.5	3.8	7.46e-01	0	43	104	0	28	27591
2026-01-24 03:16:08.83	353.19	19.33	-33.5	-49.8	3.8	7.43e-01	0	44	104	0	28	23427
2026-01-24 03:16:11.84	352.62	19.65	-33.3	-49.1	3.8	7.46e-01	0	44	104	0	27	22209
2026-01-24 03:16:14.85	352.04	19.98	-32.9	-48.1	3.8	7.43e-01	0	43	104	0	26	20644
2026-01-24 03:16:17.86	351.45	20.31	-32.4	-46.8	3.8	7.46e-01	0	44	104	0	25	18856
2026-01-24 03:16:20.87	350.84	20.64	-31.2	-44.2	3.8	7.43e-01	0	44	104	0	23	16036
2026-01-24 03:16:23.88	350.22	20.97	-30.5	-43.2	3.8	7.44e-01	0	43	104	0	21	15559
2026-01-24 03:16:26.89	349.58	21.30	-30.7	-43.2	3.8	7.44e-01	0	44	104	0	22	15300
2026-01-24 03:16:29.91	348.93	21.63	-31.3	-44.5	3.8	7.43e-01	0	43	104	0	23	16426
2026-01-24 03:16:32.92	348.26	21.97	-32.3	-46.2	3.8	7.47e-01	0	44	104	0	25	17950
2026-01-24 03:16:35.93	347.58	22.30	-33.2	-48.4	3.8	7.47e-01	0	43	104	0	27	20801
2026-01-24 03:16:38.94	346.88	22.64	-33.1	-48.3	3.8	7.44e-01	0	44	104	0	27	20587
2026-01-24 03:16:41.95	346.17	22.97	-33.0	-47.7	3.8	7.44e-01	0	44	104	0	27	19552
2026-01-24 03:16:44.96	345.44	23.31	-33.5	-49.8	3.8	7.44e-01	0	44	104	0	27	23545
2026-01-24 03:16:47.97	344.69	23.64	-33.5	-49.5	3.8	7.44e-01	0	44	104	0	28	22752
2026-01-24 03:16:50.98	343.93	23.98	-33.7	-50.4	3.8	7.45e-01	0	44	104	0	28	24556
2026-01-24 03:16:54.00	343.15	24.31	-33.9	-51.5	3.8	7.44e-01	0	44	104	0	28	27237
2026-01-24 03:16:57.01	342.35	24.64	-33.6	-49.8	3.8	7.44e-01	0	44	104	0	28	23348
2026-01-24 03:17:00.02	341.53	24.97	-32.9	-47.3	3.8	7.49e-01	0	44	104	0	27	18816
2026-01-24 03:17:03.02	340.70	25.30	-32.5	-46.5	3.8	7.48e-01	0	44	104	0	26	17920
2026-01-24 03:17:06.03	339.84	25.63	-31.9	-45.6	3.8	7.44e-01	0	44	104	0	24	17318
2026-01-24 03:17:09.04	338.97	25.95	-31.0	-43.4	3.8	7.43e-01	0	44	104	0	23	15095
2026-01-24 03:17:12.05	338.08	26.28	-30.6	-43.0	3.8	7.42e-01	0	44	104	0	22	15065
2026-01-24 03:17:15.06	337.17	26.59	-30.8	-43.6	3.8	7.44e-01	0	44	104	0	22	15597
2026-01-24 03:17:18.07	336.24	26.91	-31.3	-44.2	3.8	7.46e-01	0	44	104	0	23	15930
2026-01-24 03:17:21.09	335.29	27.22	-32.3	-46.3	3.8	7.49e-01	0	44	104	0	25	18031
2026-01-24 03:17:24.10	334.32	27.52	-33.2	-48.4	3.8	7.43e-01	0	44	104	0	27	20628
2026-01-24 03:17:27.12	333.33	27.82	-33.6	-49.8	3.8	7.47e-01	0	44	104	0	27	23374
2026-01-24 03:17:30.12	332.33	28.12	-33.3	-48.7	3.8	7.44e-01	0	44	104	0	27	21160
2026-01-24 03:17:33.13	331.30	28.40	-33.5	-49.3	3.8	7.46e-01	0	44	104	0	27	22230
2026-01-24 03:17:36.14	330.25	28.68	-33.5	-49.0	3.8	7.44e-01	0	44	104	0	28	21599
2026-01-24 03:17:39.15	329.19	28.96	-33.3	-48.5	3.8	7.46e-01	0	44	104	0	27	20816
2026-01-24 03:17:42.16	328.11	29.22	-33.4	-49.0	3.8	7.46e-01	0	44	104	0	27	21757
2026-01-24 03:17:45.18	327.00	29.48	-33.3	-48.7	3.8	7.47e-01	0	44	104	0	27	21180
2026-01-24 03:17:48.20	325.88	29.73	-32.2	-45.5	3.8	7.43e-01	0	44	104	0	26	16514
2026-01-24 03:17:51.20	324.74	29.96	-31.2	-44.0	3.8	7.45e-01	0	44	104	0	23	15641
2026-01-24 03:17:54.20	323.59	30.19	-30.7	-42.6	3.8	7.44e-01	0	44	104	0	23	14177
2026-01-24 03:17:57.21	322.42	30.40	-30.3	-42.7	3.8	7.46e-01	0	44	104	0	21	14995
2026-01-24 03:18:00.22	321.23	30.60	-30.0	-42.4	3.8	7.42e-01	0	44	104	0	20	15056
2026-01-24 03:18:03.24	320.03	30.80	-31.0	-44.0	3.8	7.46e-01	0	44	104	0	22	16118
2026-01-24 03:18:06.26	318.81	30.98	-31.3	-44.4	3.8	7.44e-01	0	44	104	0	23	16119
2026-01-24 03:18:09.28	317.57	31.14	-32.3	-46.1	3.8	7.46e-01	0	44	104	0	25	17664
2026-01-24 03:18:12.29	316.33	31.29	-33.1	-48.0	3.8	7.46e-01	0	44	104	0	27	19813
2026-01-24 03:18:15.31	315.07	31.43	-33.5	-49.3	3.8	7.44e-01	0	44	104	0	27	22131
2026-01-24 03:18:18.33	313.80	31.55	-33.5	-48.9	3.8	7.43e-01	0	44	104	0	28	21390
2026-01-24 03:18:21.33	312.53	31.66	-33.6	-49.7	3.8	7.44e-01	0	44	104	0	27	23169
2026-01-24 03:18:24.35	311.24	31.75	-33.4	-48.8	3.8	7.44e-01	0	44	104	0	28	21039
2026-01-24 03:18:27.36	309.95	31.83	-32.7	-46.4	3.8	7.41e-01	0	44	104	0	27	17296
2026-01-24 03:18:30.37	308.65	31.89	-32.3	-46.4	3.8	7.42e-01	0	44	104	0	25	18221
2026-01-24 03:18:33.39	307.35	31.93	-32.5	-46.8	3.8	7.45e-01	0	44	104	0	25	18494
2026-01-24 03:18:36.40	306.05	31.96	-31.7	-44.4	3.8	7.48e-01	0	44	104	0	25	15628
2026-01-24 03:18:39.41	304.74	31.97	-30.5	-42.1	3.8	7.42e-01	0	44	104	0	22	13713
2026-01-24 03:18:42.41	303.44	31.97	-30.5	-43.2	3.8	7.45e-01	0	44	104	0	21	15634
2026-01-24 03:18:45.43	302.13	31.95	-29.8	-41.8	3.8	7.41e-01	0	44	104	0	20	14368
2026-01-24 03:18:48.44	300.83	31.91	-29.9	-42.0	3.8	7.46e-01	0	44	104	0	20	14465
2026-01-24 03:18:51.45	299.53	31.86	-31.1	-44.3	3.8	7.46e-01	0	44	104	0	23	16399
2026-01-24 03:18:54.46	298.24	31.79	-31.8	-44.8	3.8	7.45e-01	0	44	104	0	24	16005
2026-01-24 03:18:57.48	296.94	31.70	-32.5	-46.9	3.8	7.43e-01	0	44	104	0	25	18789
2026-01-24 03:19:00.49	295.66	31.60	-33.2	-48.6	3.8	7.45e-01	0	44	104	0	27	21167
2026-01-24 03:19:03.51	294.39	31.49	-33.6	-49.9	3.8	7.46e-01	0	44	104	0	27	23566
2026-01-24 03:19:06.52	293.13	31.35	-33.5	-49.5	3.8	7.46e-01	0	44	104	0	28	22586
2026-01-24 03:19:09.54	291.87	31.21	-33.4	-49.0	3.8	7.47e-01	0	44	104	0	28	21528
2026-01-24 03:19:12.55	290.63	31.05	-33.4	-48.9	3.8	7.40e-01	0	44	104	0	27	21368
2026-01-24 03:19:15.55	289.41	30.88	-32.5	-46.9	3.8	7.43e-01	0	44	104	0	26	18901
2026-01-24 03:19:18.56	288.20	30.69	-31.4	-44.6	3.8	7.43e-01	0	44	104	0	25	16355
2026-01-24 03:19:21.56	287.01	30.49	-31.1	-44.3	3.8	7.42e-01	0	44	104	0	23	16526
2026-01-24 03:19:24.57	285.83	30.28	-30.9	-43.6	3.8	7.47e-01	0	44	104	0	23	15572
2026-01-24 03:19:27.58	284.66	30.06	-30.2	-42.2	3.8	7.46e-01	0	44	104	0	21	14425
2026-01-24 03:19:30.59	283.51	29.83	-30.1	-42.6	3.9	7.44e-01	0	44	104	0	21	15143
2026-01-24 03:19:33.60	282.38	29.59	-30.1	-42.5	3.8	7.47e-01	0	44	104	0	21	14978
2026-01-24 03:19:36.61	281.27	29.33	-30.1	-42.1	3.8	7.44e-01	0	44	104	0	21	14309
2026-01-24 03:19:39.62	280.18	29.07	-31.0	-44.4	3.8	7.45e-01	0	44	104	0	22	16779
2026-01-24 03:19:42.64	279.10	28.80	-32.3	-45.8	3.8	7.43e-01	0	44	104	0	25	17144
2026-01-24 03:19:45.65	278.04	28.53	-32.8	-47.3	3.8	7.44e-01	0	44	104	0	26	19108
2026-01-24 03:19:48.64	277.01	28.24	-33.2	-48.3	3.8	7.44e-01	0	44	104	0	27	20520
2026-01-24 03:19:51.65	275.99	27.95	-33.5	-49.9	3.8	7.44e-01	0	44	104	0	27	23815
2026-01-24 03:19:54.67	274.99	27.65	-33.4	-49.3	3.8	7.48e-01	0	44	104	0	28	22496
2026-01-24 03:19:57.68	274.01	27.35	-33.4	-49.5	3.8	7.44e-01	0	44	104	0	27	23058
2026-01-24 03:20:00.70	273.04	27.04	-33.1	-48.3	3.8	7.43e-01	0	44	104	0	27	20840
2026-01-24 03:20:03.70	272.10	26.73	-32.4	-46.5	3.8	7.46e-01	0	44	104	0	26	18167
2026-01-24 03:20:06.72	271.18	26.41	-31.5	-44.5	3.8	7.45e-01	0	44	104	0	25	15908
2026-01-24 03:20:09.73	270.27	26.09	-30.6	-43.1	3.8	7.42e-01	0	44	104	0	23	15107
2026-01-24 03:20:12.74	269.39	25.76	-30.3	-43.2	3.8	7.42e-01	0	44	104	0	21	15958
2026-01-24 03:20:15.76	268.52	25.43	-30.1	-42.9	3.8	7.44e-01	0	44	104	0	21	15619
2026-01-24 03:20:18.78	267.67	25.10	-30.1	-42.8	3.8	7.47e-01	0	44	104	0	20	15463
2026-01-24 03:20:21.78	266.85	24.77	-30.7	-42.7	3.8	7.44e-01	0	44	104	0	22	14471
2026-01-24 03:20:24.80	266.03	24.44	-30.5	-43.5	3.8	7.46e-01	0	44	104	0	21	16048
2026-01-24 03:20:27.82	265.24	24.10	-31.0	-35.6	5.3	7.05e-01	0	44	0	0	22	6120
2026-01-24 03:20:30.83	264.46	23.76	-30.6	-33.9	18.1	6.03e-01	0	44	104	0	22	5234
2026-01-24 03:20:33.84	263.71	23.43	-30.6	-34.0	18.3	6.05e-01	0	44	102	1048576	22	5294
2026-01-24 03:20:36.84	262.97	23.09	-29.8	-32.7	19.7	6.03e-01	0	44	102	1048576	20	5030
2026-01-24 03:20:39.85	262.24	22.76	-30.1	-33.5	19.2	6.03e-01	0	44	102	1048576	20	5333
2026-01-24 03:20:42.85	261.54	22.42	-29.7	-32.5	19.7	6.02e-01	0	44	102	1048576	20	4973
2026-01-24 03:20:45.86	260.85	22.08	-29.7	-32.6	19.7	6.03e-01	0	44	102	1048576	20	5019
2026-01-24 03:20:48.87	260.17	21.75	-30.0	-33.2	19.3	6.02e-01	0	44	102	1048576	20	5222
2026-01-24 03:20:51.88	259.51	21.41	-29.6	-32.3	19.8	6.01e-01	0	44	102	1048576	20	4909
2026-01-24 03:20:54.89	258.86	21.08	-29.7	-32.6	19.6	6.04e-01	0	44	102	1048576	20	5007
2026-01-24 03:20:57.89	258.24	20.75	-29.6	-32.3	19.8	6.01e-01	0	44	102	1048576	20	4927
2026-01-24 03:21:00.90	257.62	20.42	-29.6	-32.4	19.7	6.01e-01	0	44	102	1048576	20	4945
2026-01-24 03:21:03.91	257.02	20.09	-29.6	-32.3	19.8	6.03e-01	0	44	102	1048576	20	4906
2026-01-24 03:21:06.92	256.43	19.76	-29.8	-32.9	19.4	6.03e-01	0	44	102	1048576	20	5134
2026-01-24 03:21:09.93	255.85	19.43	-29.8	-32.9	19.4	6.02e-01	0	44	102	1048576	20	5129
2026-01-24 03:21:12.94	255.29	19.11	-29.7	-32.5	19.6	6.05e-01	0	44	102	1048576	20	4976
2026-01-24 03:21:15.95	254.74	18.79	-29.6	-32.3	19.8	6.03e-01	0	44	102	1048576	20	4916
2026-01-24 03:21:18.97	254.20	18.46	-29.6	-32.4	19.7	6.01e-01	0	44	102	1048576	20	4952
2026-01-24 03:21:21.97	253.67	18.15	-29.7	-32.5	19.6	6.00e-01	0	44	102	1048576	20	4995
2026-01-24 03:21:24.98	253.16	17.83	-29.8	-32.8	19.3	6.04e-01	0	44	102	1048576	20	5109
2026-01-24 03:21:27.98	252.65	17.52	-29.9	-33.0	19.2	6.04e-01	0	44	102	1048576	20	5188
2026-01-24 03:21:30.99	252.16	17.21	-29.9	-33.1	19.1	6.02e-01	0	44	102	1048576	20	5218
2026-01-24 03:21:34.00	251.68	16.90	-29.6	-32.3	19.6	6.03e-01	0	44	102	1048576	20	4916
2026-01-24 03:21:37.01	251.21	16.59	-29.5	-32.2	19.6	6.03e-01	0	44	102	1048576	20	4892
2026-01-24 03:21:40.04	250.75	16.28	-29.7	-32.6	19.3	6.02e-01	0	44	102	1048576	20	5044
2026-01-24 03:21:43.05	250.29	15.98	-29.9	-33.2	19.0	6.03e-01	0	44	102	1048576	20	5246
2026-01-24 03:21:46.07	249.85	15.68	-29.5	-32.5	19.7	6.05e-01	0	44	102	1048576	19	5119
2026-01-24 03:21:49.08	249.42	15.38	-29.7	-32.6	19.3	6.02e-01	0	44	102	1048576	20	5055
2026-01-24 03:21:52.09	249.00	15.08	-29.7	-32.7	19.2	6.03e-01	0	44	102	1048576	20	5079
2026-01-24 03:21:55.10	248.58	14.79	-29.6	-32.4	19.4	6.03e-01	0	44	102	1048576	20	4968
2026-01-24 03:21:58.09	248.18	14.50	-29.6	-32.5	19.4	6.01e-01	0	44	102	1048576	20	5008
2026-01-24 03:22:01.09	247.79	14.22	-29.6	-32.4	19.3	6.02e-01	0	44	102	1048576	20	4984
2026-01-24 03:22:04.10	247.40	13.93	-29.6	-32.5	19.3	6.01e-01	0	44	102	1048576	20	5029
2026-01-24 03:22:07.11	247.02	13.65	-29.7	-32.7	19.2	6.01e-01	0	44	102	1048576	20	5096
2026-01-24 03:22:10.12	246.65	13.37	-29.7	-32.6	19.1	6.02e-01	0	44	102	1048576	20	5075
2026-01-24 03:22:13.13	246.28	13.09	-29.9	-33.2	18.8	6.02e-01	0	44	102	1048576	20	5281
2026-01-24 03:22:16.15	245.92	12.81	-29.7	-32.8	19.1	6.02e-01	0	44	102	1048576	20	5122
2026-01-24 03:22:19.16	245.57	12.54	-29.8	-33.1	18.9	6.02e-01	0	44	102	1048576	20	5241
2026-01-24 03:22:22.17	245.23	12.27	-29.8	-33.1	18.9	6.02e-01	0	44	102	1048576	20	5268
2026-01-24 03:22:25.19	244.89	12.00	-30.1	-33.8	18.4	6.00e-01	0	44	102	1048576	20	5522
2026-01-24 03:22:28.21	244.56	11.73	-30.1	-33.4	18.3	6.05e-01	0	44	102	1048576	21	5260
2026-01-24 03:22:31.22	244.24	11.47	-30.0	-33.7	18.4	6.02e-01	0	44	102	1048576	20	5502
2026-01-24 03:22:34.23	243.92	11.21	-30.2	-33.8	18.0	6.01e-01	0	44	102	1048576	21	5421
2026-01-24 03:22:37.23	243.61	10.95	-30.1	-33.3	18.3	6.02e-01	0	44	102	1048576	21	5238
2026-01-24 03:22:40.25	243.31	10.69	-29.9	-33.5	18.5	6.04e-01	0	44	102	1048576	20	5432
2026-01-24 03:22:43.27	243.01	10.43	-30.0	-33.6	18.4	6.03e-01	0	44	102	1048576	20	5460
2026-01-24 03:22:46.29	242.71	10.18	-29.9	-33.4	18.5	6.01e-01	0	44	102	1048576	20	5393
2026-01-24 03:22:49.31	242.42	9.93	-30.0	-33.6	18.3	6.01e-01	0	44	102	1048576	20	5488
2026-01-24 03:22:52.32	242.14	9.68	-30.1	-33.5	18.1	6.02e-01	0	44	102	1048576	21	5344
2026-01-24 03:22:55.32	241.86	9.44	-30.0	-33.7	18.2	6.03e-01	0	44	102	1048576	20	5536
2026-01-24 03:22:58.34	241.59	9.19	-30.0	-33.7	18.2	6.03e-01	0	44	102	1048576	20	5519
2026-01-24 03:23:01.34	241.33	8.95	-30.1	-33.7	17.9	6.02e-01	0	44	102	1048576	21	5418
2026-01-24 03:23:04.36	241.06	8.71	-30.2	-33.9	17.7	6.02e-01	0	44	102	1048576	21	5528
2026-01-24 03:23:07.37	240.81	8.47	-30.3	-34.5	17.5	6.02e-01	0	44	102	1048576	20	5875
2026-01-24 03:23:10.37	240.55	8.24	-30.2	-33.9	17.0	6.03e-01	0	44	102	1048576	21	5505
2026-01-24 03:23:13.39	240.30	8.00	-30.2	-33.9	17.6	6.03e-01	0	44	102	1048576	21	5528
2026-01-24 03:23:16.41	240.06	7.77	-30.3	-34.3	17.3	6.01e-01	0	44	102	1048576	21	5706
2026-01-24 03:23:19.42	239.82	7.54	-30.4	-34.8	16.9	6.01e-01	0	44	102	1048576	21	5920
2026-01-24 03:23:22.42	239.59	7.31	-30.2	-33.9	17.5	6.01e-01	0	44	102	1048576	21	5535
2026-01-24 03:23:25.43	239.36	7.08	-33.3	-50.0	5.2	7.49e-01	0	44	102	1048576	27	24645

#Closed at: 2026-01-24 03:23:27
#Recorded file [1 MB]: D:/data/31010_260124_062030.dat