passes_logs/2026/01/24/R2M6_AANII_01/R2M6_AANII_01__20260124_092942_NOAA_21_JPSS-2_rec.log

#Pass ID: 20260124_092942_NOAA 21 (JPSS-2)
#Satellite: NOAA 21 (JPSS-2)
#Configuration: NOAA 21
#almurnet v.1.7.20240730
#Start time: 2026-01-24 09:29:42

#Version: 2.2.20231116
#Station: R2M6_AANII_01
#Location: 30.233357 lon 59.946436 lat
#TLE: 1 54234U 22150A   26023.61190495  .00000215  00000+0  12293-3 0  9993
#TLE: 2 54234  98.7508 324.4078 0000700 226.6110 133.5008 14.19538339166032

#Time	Az	El	Level	Level2	SNR	BER	BlckErr	Temp	State	Recorded	gain1	gain2
2026-01-24 09:29:42.64	134.70	7.02	-30.7	-34.9	4.7	1.39e+00	0	41	0	0	22	5861
2026-01-24 09:29:45.64	134.58	7.24	-30.6	-34.1	9.2	1.83e-02	0	41	102	1048576	22	5332
2026-01-24 09:29:48.66	134.46	7.47	-30.2	-33.4	10.0	8.95e-03	0	41	102	1048576	21	5208
2026-01-24 09:29:51.67	134.34	7.70	-30.3	-33.8	9.7	1.25e-02	0	41	102	1048576	21	5366
2026-01-24 09:29:54.69	134.21	7.94	-29.4	-31.6	11.6	7.19e-04	0	41	102	1048576	20	4637
2026-01-24 09:29:57.71	134.08	8.17	-29.3	-31.8	11.9	3.43e-04	0	41	102	1048576	19	4778
2026-01-24 09:30:00.72	133.95	8.41	-29.0	-31.0	12.5	1.65e-04	0	42	102	1048576	19	4530
2026-01-24 09:30:03.74	133.82	8.65	-29.2	-31.4	12.3	1.24e-04	0	42	102	1048576	19	4625
2026-01-24 09:30:06.74	133.68	8.89	-29.2	-31.4	12.3	2.51e-04	0	42	102	1048576	19	4637
2026-01-24 09:30:09.76	133.54	9.13	-28.9	-31.2	12.8	6.33e-05	0	42	102	1048576	18	4676
2026-01-24 09:30:12.78	133.40	9.38	-28.9	-31.1	12.9	3.81e-05	0	42	102	1048576	18	4655
2026-01-24 09:30:15.79	133.26	9.63	-28.7	-30.6	13.3	2.05e-05	0	42	102	1048576	18	4467
2026-01-24 09:30:18.81	133.11	9.88	-28.6	-30.4	13.4	2.44e-05	0	42	102	1048576	18	4417
2026-01-24 09:30:21.83	132.96	10.13	-28.6	-30.2	13.6	8.30e-06	0	42	102	1048576	18	4332
2026-01-24 09:30:24.84	132.81	10.39	-28.7	-30.4	13.6	1.22e-05	0	42	102	1048576	18	4382
2026-01-24 09:30:27.86	132.66	10.65	-28.4	-29.9	13.9	3.80e-06	0	42	102	1048576	18	4245
2026-01-24 09:30:30.87	132.50	10.91	-28.5	-30.1	13.7	3.80e-06	0	42	102	1048576	18	4318
2026-01-24 09:30:33.88	132.34	11.17	-28.4	-29.7	14.0	2.20e-06	0	42	102	1048576	18	4205
2026-01-24 09:30:36.89	132.18	11.44	-28.3	-30.0	14.1	3.80e-06	0	42	102	1048576	17	4410
2026-01-24 09:30:39.89	132.02	11.70	-28.1	-29.6	14.4	1.50e-06	0	42	102	1048576	17	4272
2026-01-24 09:30:42.90	131.85	11.97	-28.1	-29.6	14.4	7.00e-07	0	42	102	1048576	17	4283
2026-01-24 09:30:45.90	131.68	12.25	-28.3	-29.9	14.2	2.20e-06	0	43	102	1048576	17	4367
2026-01-24 09:30:48.93	131.50	12.52	-28.1	-29.5	14.5	7.00e-07	0	43	102	1048576	17	4234
2026-01-24 09:30:51.94	131.32	12.80	-28.1	-29.5	14.5	1.50e-06	0	43	102	1048576	17	4220
2026-01-24 09:30:54.95	131.14	13.08	-28.1	-29.6	14.4	3.80e-06	0	42	102	1048576	17	4259
2026-01-24 09:30:57.96	130.95	13.37	-28.4	-30.1	14.2	1.50e-06	0	43	102	1048576	17	4401
2026-01-24 09:31:00.98	130.76	13.66	-28.3	-30.1	14.2	3.00e-06	0	43	102	1048576	17	4406
2026-01-24 09:31:04.00	130.57	13.95	-28.3	-30.1	14.2	7.00e-07	0	43	102	1048576	17	4406
2026-01-24 09:31:07.01	130.37	14.24	-28.1	-29.5	14.6	1.50e-06	0	43	102	1048576	17	4251
2026-01-24 09:31:10.03	130.17	14.54	-27.9	-29.1	14.8	0.00e+00	0	43	102	1048576	17	4135
2026-01-24 09:31:13.05	129.96	14.85	-28.0	-29.2	14.8	7.00e-07	0	43	102	1048576	17	4140
2026-01-24 09:31:16.06	129.75	15.15	-28.0	-29.1	14.9	0.00e+00	0	43	102	1048576	17	4122
2026-01-24 09:31:19.07	129.53	15.46	-28.3	-29.8	14.5	7.00e-07	0	43	102	1048576	17	4317
2026-01-24 09:31:22.08	129.31	15.77	-28.4	-30.2	14.3	1.50e-06	0	43	102	1048576	17	4426
2026-01-24 09:31:25.10	129.09	16.08	-28.2	-29.8	14.6	0.00e+00	0	43	102	1048576	17	4297
2026-01-24 09:31:28.11	128.86	16.40	-28.3	-30.0	14.5	1.50e-06	0	43	102	1048576	17	4373
2026-01-24 09:31:31.12	128.62	16.72	-28.2	-29.7	14.7	0.00e+00	0	43	102	1048576	17	4289
2026-01-24 09:31:34.14	128.38	17.05	-28.2	-29.7	14.7	0.00e+00	0	43	102	1048576	17	4281
2026-01-24 09:31:37.15	128.14	17.38	-28.2	-29.8	14.6	0.00e+00	0	43	102	1048576	17	4317
2026-01-24 09:31:40.17	127.88	17.72	-28.4	-30.3	14.3	0.00e+00	0	43	102	1048576	17	4461
2026-01-24 09:31:43.18	127.63	18.05	-28.0	-29.3	15.0	0.00e+00	0	43	102	1048576	17	4167
2026-01-24 09:31:46.19	127.36	18.40	-28.1	-29.5	14.9	0.00e+00	0	43	102	1048576	17	4209
2026-01-24 09:31:49.20	127.09	18.74	-28.2	-29.6	14.9	0.00e+00	0	43	102	1048576	17	4219
2026-01-24 09:31:52.21	126.82	19.09	-28.2	-29.6	14.9	7.00e-07	0	43	102	1048576	17	4235
2026-01-24 09:31:55.23	126.54	19.45	-28.4	-30.2	14.5	7.00e-07	0	43	102	1048576	17	4404
2026-01-24 09:31:58.24	126.25	19.81	-28.1	-29.3	15.1	0.00e+00	0	43	102	1048576	17	4164
2026-01-24 09:32:01.26	125.95	20.17	-28.0	-29.1	15.2	0.00e+00	0	43	102	1048576	17	4102
2026-01-24 09:32:04.26	125.65	20.54	-27.9	-28.8	15.4	0.00e+00	0	43	102	1048576	17	4024
2026-01-24 09:32:07.26	125.34	20.91	-27.9	-28.9	15.4	3.00e-06	0	43	102	1048576	17	4039
2026-01-24 09:32:10.27	125.02	21.28	-27.8	-29.1	15.6	0.00e+00	0	43	102	1048576	16	4203
2026-01-24 09:32:13.28	124.69	21.67	-27.5	-28.4	15.9	0.00e+00	0	43	102	1048576	16	4026
2026-01-24 09:32:16.29	124.36	22.05	-27.6	-28.7	15.8	0.00e+00	0	43	102	1048576	16	4085
2026-01-24 09:32:19.30	124.01	22.44	-27.3	-28.0	16.2	0.00e+00	0	43	102	1048576	16	3921
2026-01-24 09:32:22.31	123.66	22.84	-27.2	-28.4	16.1	0.00e+00	0	43	102	1048576	15	4133
2026-01-24 09:32:25.32	123.30	23.24	-27.1	-28.1	16.3	0.00e+00	0	43	102	1048576	15	4036
2026-01-24 09:32:28.33	122.93	23.65	-27.2	-28.3	16.2	0.00e+00	0	43	102	1048576	15	4094
2026-01-24 09:32:31.34	122.54	24.06	-26.9	-27.7	16.5	0.00e+00	0	43	102	1048576	15	3945
2026-01-24 09:32:34.35	122.15	24.47	-26.9	-27.7	16.5	0.00e+00	0	43	102	1048576	15	3935
2026-01-24 09:32:37.35	121.75	24.89	-26.9	-27.6	16.6	0.00e+00	0	43	102	1048576	15	3915
2026-01-24 09:32:40.35	121.34	25.32	-27.0	-28.0	16.4	0.00e+00	0	43	102	1048576	15	4017
2026-01-24 09:32:43.36	120.91	25.75	-27.2	-28.3	16.2	0.00e+00	0	43	102	1048576	15	4092
2026-01-24 09:32:46.37	120.47	26.19	-27.3	-28.7	16.0	0.00e+00	0	43	102	1048576	15	4189
2026-01-24 09:32:49.38	120.02	26.63	-27.6	-29.2	15.7	0.00e+00	0	43	102	1048576	15	4331
2026-01-24 09:32:52.40	119.56	27.08	-27.7	-29.4	15.6	0.00e+00	0	43	102	1048576	15	4390
2026-01-24 09:32:55.41	119.08	27.53	-27.6	-29.2	15.8	0.00e+00	0	43	102	1048576	15	4319
2026-01-24 09:32:58.43	118.59	27.99	-27.5	-29.0	15.8	0.00e+00	0	43	102	1048576	15	4277
2026-01-24 09:33:01.44	118.09	28.45	-27.9	-30.0	15.3	0.00e+00	0	43	102	1048576	15	4570
2026-01-24 09:33:04.45	117.57	28.92	-27.9	-29.4	15.5	0.00e+00	0	43	102	1048576	16	4287
2026-01-24 09:33:07.46	117.03	29.39	-27.8	-29.2	15.6	9.10e-06	0	43	102	1048576	16	4221
2026-01-24 09:33:10.46	116.48	29.87	-28.0	-29.5	15.5	0.00e+00	0	43	102	1048576	16	4299
2026-01-24 09:33:13.46	115.91	30.35	-28.1	-29.8	15.3	6.80e-06	0	43	102	1048576	16	4373
2026-01-24 09:33:16.47	115.33	30.84	-28.1	-29.9	15.3	1.29e-05	0	43	102	1048576	16	4418
2026-01-24 09:33:19.48	114.72	31.33	-28.2	-30.0	15.3	0.00e+00	0	44	102	1048576	16	4423
2026-01-24 09:33:22.49	114.10	31.83	-28.2	-30.1	15.2	9.90e-06	0	43	102	1048576	16	4451
2026-01-24 09:33:25.50	113.45	32.33	-28.2	-29.9	15.3	7.00e-07	0	43	102	1048576	16	4408
2026-01-24 09:33:28.52	112.79	32.84	-28.2	-30.1	15.2	0.00e+00	0	43	102	1048576	16	4467
2026-01-24 09:33:31.53	112.10	33.35	-28.2	-29.9	15.4	0.00e+00	0	43	102	1048576	16	4394
2026-01-24 09:33:34.55	111.39	33.87	-28.3	-30.2	15.2	0.00e+00	0	43	102	1048576	16	4487
2026-01-24 09:33:37.56	110.66	34.38	-28.5	-30.6	15.0	0.00e+00	0	43	102	1048576	16	4608
2026-01-24 09:33:40.58	109.91	34.90	-28.9	-31.1	14.4	7.00e-07	0	44	102	1048576	17	4652
2026-01-24 09:33:43.60	109.13	35.43	-28.9	-30.6	14.4	1.50e-06	0	43	102	1048576	18	4384
2026-01-24 09:33:46.62	108.32	35.96	-29.0	-30.8	14.4	0.00e+00	0	44	102	1048576	18	4427
2026-01-24 09:33:49.62	107.49	36.48	-29.3	-31.7	13.9	7.00e-07	0	44	102	1048576	18	4705
2026-01-24 09:33:52.64	106.63	37.01	-29.3	-31.6	13.9	1.50e-06	0	43	102	1048576	18	4686
2026-01-24 09:33:55.65	105.74	37.54	-29.3	-31.5	14.0	1.50e-06	0	44	102	1048576	18	4638
2026-01-24 09:33:58.66	104.82	38.07	-29.3	-31.6	13.9	3.80e-06	0	44	102	1048576	18	4671
2026-01-24 09:34:01.67	103.88	38.60	-29.1	-31.0	14.3	0.00e+00	0	44	102	1048576	18	4504
2026-01-24 09:34:04.69	102.90	39.13	-29.0	-30.8	14.4	1.50e-06	0	43	102	1048576	18	4431
2026-01-24 09:34:07.71	101.88	39.66	-29.2	-31.2	14.2	1.50e-06	0	43	102	1048576	18	4534
2026-01-24 09:34:10.72	100.84	40.19	-29.3	-31.5	14.0	1.50e-06	0	44	102	1048576	18	4654
2026-01-24 09:34:13.73	99.76	40.71	-29.8	-32.3	13.3	1.60e-05	0	44	102	1048576	19	4794
2026-01-24 09:34:16.74	98.64	41.22	-30.2	-32.7	12.7	7.55e-05	0	43	102	1048576	20	4795
2026-01-24 09:34:19.75	97.49	41.73	-30.4	-32.8	12.3	2.03e-04	0	44	102	1048576	21	4754
2026-01-24 09:34:22.77	96.30	42.24	-30.3	-32.5	12.5	1.46e-04	0	44	102	1048576	21	4653
2026-01-24 09:34:25.78	95.08	42.74	-30.5	-33.1	12.1	1.90e-04	0	44	102	1048576	21	4826
2026-01-24 09:34:28.80	93.81	43.23	-30.1	-31.9	12.9	6.02e-05	0	44	102	1048576	21	4449
2026-01-24 09:34:31.79	92.51	43.70	-29.8	-31.2	13.3	1.44e-05	0	44	102	1048576	21	4235
2026-01-24 09:34:34.80	91.17	44.17	-30.2	-32.7	12.7	7.70e-05	0	44	102	1048576	20	4793
2026-01-24 09:34:37.81	89.79	44.62	-30.4	-33.3	12.3	1.69e-04	0	44	102	1048576	20	5012
2026-01-24 09:34:40.82	88.37	45.06	-30.6	-33.2	12.1	2.89e-04	0	44	102	1048576	21	4870
2026-01-24 09:34:43.84	86.91	45.48	-30.1	-32.0	12.9	5.41e-05	0	43	102	1048576	21	4464
2026-01-24 09:34:46.85	85.41	45.89	-29.4	-30.6	14.0	5.30e-06	0	43	102	1048576	20	4165
2026-01-24 09:34:49.86	83.87	46.28	-30.0	-32.1	13.0	2.21e-05	0	43	102	1048576	20	4616
2026-01-24 09:34:52.86	82.31	46.65	-30.0	-32.1	13.1	2.21e-05	0	44	102	1048576	20	4604
2026-01-24 09:34:55.88	80.69	47.00	-30.5	-33.1	12.2	1.75e-04	0	43	102	1048576	21	4821
2026-01-24 09:34:58.89	79.04	47.32	-30.1	-32.5	12.9	2.05e-05	0	43	102	1048576	20	4738
2026-01-24 09:35:01.91	77.36	47.62	-30.4	-32.6	12.4	2.10e-04	0	43	102	1048576	21	4667
2026-01-24 09:35:04.92	75.65	47.90	-30.1	-31.8	13.0	4.65e-05	0	44	102	1048576	21	4412
2026-01-24 09:35:07.92	73.92	48.15	-29.3	-30.6	14.0	2.20e-06	0	44	102	1048576	20	4153
2026-01-24 09:35:10.93	72.15	48.37	-29.6	-31.1	13.7	6.80e-06	0	44	102	1048576	20	4313
2026-01-24 09:35:13.94	70.36	48.56	-29.8	-32.1	13.5	7.60e-06	0	44	102	1048576	19	4721
2026-01-24 09:35:16.95	68.55	48.72	-29.9	-32.1	13.2	3.43e-05	0	44	102	1048576	20	4595
2026-01-24 09:35:19.96	66.72	48.85	-29.9	-31.8	13.3	1.98e-05	0	44	102	1048576	20	4525
2026-01-24 09:35:22.96	64.89	48.95	-29.7	-31.6	13.4	1.22e-05	0	44	102	1048576	20	4447
2026-01-24 09:35:25.97	63.04	49.02	-29.5	-31.0	13.8	4.50e-06	0	44	102	1048576	20	4281
2026-01-24 09:35:28.98	61.18	49.06	-29.9	-31.9	13.3	2.51e-05	0	44	102	1048576	20	4543
2026-01-24 09:35:31.99	59.32	49.06	-29.0	-30.3	14.6	0.00e+00	0	44	102	1048576	19	4158
2026-01-24 09:35:35.00	57.46	49.03	-29.3	-30.9	14.2	1.50e-06	0	43	102	1048576	19	4348
2026-01-24 09:35:38.01	55.61	48.97	-29.7	-31.9	13.7	5.30e-06	0	44	102	1048576	19	4634
2026-01-24 09:35:41.02	53.77	48.88	-29.7	-31.9	13.7	4.50e-06	0	44	102	1048576	19	4636
2026-01-24 09:35:44.03	51.94	48.75	-30.1	-32.4	13.0	2.82e-05	0	43	102	1048576	20	4697
2026-01-24 09:35:47.05	50.12	48.60	-29.9	-32.0	13.2	1.60e-05	0	43	102	1048576	20	4576
2026-01-24 09:35:50.07	48.32	48.41	-29.7	-31.4	13.6	1.29e-05	0	44	102	1048576	20	4378
2026-01-24 09:35:53.08	46.55	48.20	-29.9	-32.1	13.2	2.28e-05	0	44	102	1048576	20	4592
2026-01-24 09:35:56.10	44.80	47.95	-30.6	-33.1	12.1	2.05e-04	0	44	102	1048576	21	4831
2026-01-24 09:35:59.11	43.09	47.68	-29.7	-31.4	13.6	9.90e-06	0	43	102	1048576	20	4382
2026-01-24 09:36:02.11	41.41	47.39	-29.9	-32.0	13.2	2.67e-05	0	44	102	1048576	20	4563
2026-01-24 09:36:05.12	39.76	47.07	-29.7	-31.5	13.5	1.29e-05	0	44	102	1048576	20	4425
2026-01-24 09:36:08.13	38.15	46.73	-30.4	-33.1	12.3	1.56e-04	0	44	102	1048576	20	4957
2026-01-24 09:36:11.13	36.57	46.36	-29.6	-31.3	13.6	1.06e-05	0	44	102	1048576	20	4353
2026-01-24 09:36:14.14	35.03	45.98	-29.8	-31.7	13.4	3.80e-06	0	44	102	1048576	20	4497
2026-01-24 09:36:17.14	33.53	45.58	-30.3	-32.0	12.5	3.40e-04	0	44	102	1048576	22	4363
2026-01-24 09:36:20.16	32.06	45.16	-29.9	-31.9	13.2	1.29e-05	0	43	102	1048576	20	4547
2026-01-24 09:36:23.18	30.63	44.72	-31.7	-35.1	10.1	7.34e-03	0	44	102	1048576	23	5358
2026-01-24 09:36:26.19	29.25	44.27	-28.7	-30.0	14.9	0.00e+00	0	44	102	1048576	18	4183
2026-01-24 09:36:29.21	27.90	43.81	-30.5	-33.4	12.2	6.71e-05	0	44	102	1048576	20	5054
2026-01-24 09:36:32.22	26.59	43.34	-30.7	-32.9	11.5	1.82e-03	0	44	102	1048576	22	4662
2026-01-24 09:36:35.23	25.32	42.85	-29.7	-31.6	13.2	1.37e-05	0	44	102	1048576	20	4470
2026-01-24 09:36:38.24	24.09	42.36	-30.5	-33.0	12.1	2.12e-04	0	44	102	1048576	21	4790
2026-01-24 09:36:41.26	22.90	41.86	-29.4	-30.8	13.8	1.06e-05	0	44	102	1048576	20	4232
2026-01-24 09:36:44.28	21.74	41.35	-30.1	-32.4	12.8	5.26e-05	0	44	102	1048576	20	4725
2026-01-24 09:36:47.28	20.62	40.83	-31.3	-34.5	10.8	2.97e-03	0	44	102	1048576	22	5245
2026-01-24 09:36:50.29	19.54	40.32	-30.3	-32.3	12.5	1.17e-04	0	44	102	1048576	21	4582
2026-01-24 09:36:53.30	18.49	39.80	-30.1	-32.1	12.7	7.55e-05	0	44	102	1048576	21	4493
2026-01-24 09:36:56.33	17.47	39.27	-30.8	-33.7	11.7	5.56e-04	0	44	102	1048576	21	5056
2026-01-24 09:36:59.33	16.49	38.74	-30.4	-32.7	12.3	1.69e-04	0	44	102	1048576	21	4689
2026-01-24 09:37:02.33	15.54	38.22	-30.1	-32.1	12.7	8.01e-05	0	44	102	1048576	21	4497
2026-01-24 09:37:05.34	14.62	37.69	-30.5	-33.1	12.0	2.87e-04	0	44	102	1048576	21	4828
2026-01-24 09:37:08.35	13.73	37.16	-30.3	-32.5	12.4	1.93e-04	0	44	102	1048576	21	4640
2026-01-24 09:37:11.37	12.87	36.63	-28.8	-30.2	14.7	7.00e-07	0	44	102	1048576	18	4262
2026-01-24 09:37:14.39	12.03	36.11	-28.9	-30.6	14.5	7.00e-07	0	44	102	1048576	18	4365
2026-01-24 09:37:17.40	11.22	35.58	-28.5	-29.7	15.0	7.00e-07	0	44	102	1048576	18	4111
2026-01-24 09:37:20.41	10.44	35.06	-28.2	-29.4	15.4	0.00e+00	0	44	102	1048576	17	4140
2026-01-24 09:37:23.42	9.68	34.54	-28.4	-29.8	15.2	0.00e+00	0	44	102	1048576	17	4274
2026-01-24 09:37:26.43	8.95	34.02	-28.5	-30.1	15.0	0.00e+00	0	44	102	1048576	17	4334
2026-01-24 09:37:29.44	8.24	33.51	-28.8	-30.9	14.5	7.00e-07	0	44	102	1048576	17	4587
2026-01-24 09:37:32.46	7.55	33.00	-28.6	-30.4	14.8	0.00e+00	0	44	102	1048576	17	4425
2026-01-24 09:37:35.48	6.88	32.49	-28.4	-29.9	15.1	0.00e+00	0	44	102	1048576	17	4291
2026-01-24 09:37:38.49	6.24	31.99	-28.5	-30.2	14.8	0.00e+00	0	44	102	1048576	17	4386
2026-01-24 09:37:41.50	5.61	31.50	-28.3	-29.6	15.2	0.00e+00	0	44	102	1048576	17	4223
2026-01-24 09:37:44.51	5.01	31.01	-28.0	-29.1	15.4	0.00e+00	0	44	102	1048576	17	4072
2026-01-24 09:37:47.53	4.42	30.52	-28.2	-29.4	15.3	0.00e+00	0	44	102	1048576	17	4167
2026-01-24 09:37:50.54	3.85	30.03	-28.2	-29.6	15.2	0.00e+00	0	44	102	1048576	17	4213
2026-01-24 09:37:53.54	3.29	29.56	-28.2	-29.5	15.2	0.00e+00	0	44	102	1048576	17	4192
2026-01-24 09:37:56.55	2.76	29.09	-28.2	-29.6	15.2	0.00e+00	0	44	102	1048576	17	4218
2026-01-24 09:37:59.56	2.24	28.62	-27.8	-28.7	15.7	0.00e+00	0	44	102	1048576	17	3971
2026-01-24 09:38:02.57	1.73	28.16	-27.7	-29.0	15.8	0.00e+00	0	44	102	1048576	16	4145
2026-01-24 09:38:05.59	1.24	27.70	-27.6	-28.8	15.9	0.00e+00	0	44	102	1048576	16	4094
2026-01-24 09:38:08.60	0.76	27.25	-27.8	-29.0	15.7	0.00e+00	0	44	102	1048576	16	4171
2026-01-24 09:38:11.61	0.30	26.80	-27.7	-28.8	15.9	0.00e+00	0	44	102	1048576	16	4111
2026-01-24 09:38:14.62	359.84	26.36	-27.4	-28.3	16.1	0.00e+00	0	44	102	1048576	16	3982
2026-01-24 09:38:17.64	359.41	25.92	-27.0	-27.9	16.4	0.00e+00	0	44	102	1048576	15	3971
2026-01-24 09:38:20.65	358.98	25.49	-27.0	-27.9	16.4	0.00e+00	0	44	102	1048576	15	3986
2026-01-24 09:38:23.66	358.56	25.06	-27.2	-28.3	16.2	0.00e+00	0	44	102	1048576	15	4075
2026-01-24 09:38:26.66	358.16	24.64	-27.6	-29.2	15.7	0.00e+00	0	44	102	1048576	15	4330
2026-01-24 09:38:29.67	357.77	24.23	-27.8	-29.7	15.4	0.00e+00	0	44	102	1048576	15	4475
2026-01-24 09:38:32.69	357.39	23.82	-27.9	-30.0	15.2	0.00e+00	0	44	102	1048576	15	4559
2026-01-24 09:38:35.70	357.02	23.41	-28.1	-29.9	15.2	0.00e+00	0	44	102	1048576	16	4423
2026-01-24 09:38:38.71	356.65	23.01	-28.1	-29.8	15.1	0.00e+00	0	44	102	1048576	16	4394
2026-01-24 09:38:41.73	356.30	22.62	-28.0	-29.5	15.5	0.00e+00	0	44	102	1048576	16	4295
2026-01-24 09:38:44.74	355.96	22.22	-27.8	-29.0	15.7	0.00e+00	0	44	102	1048576	16	4167
2026-01-24 09:38:47.75	355.62	21.84	-27.6	-28.7	15.9	0.00e+00	0	44	102	1048576	16	4071
2026-01-24 09:38:50.77	355.29	21.46	-27.6	-28.7	15.8	0.00e+00	0	44	102	1048576	16	4083
2026-01-24 09:38:53.79	354.97	21.08	-27.6	-28.8	15.8	0.00e+00	0	44	102	1048576	16	4102
2026-01-24 09:38:56.80	354.66	20.71	-28.0	-29.5	15.4	0.00e+00	0	44	102	1048576	16	4302
2026-01-24 09:38:59.79	354.36	20.34	-27.8	-29.1	15.5	0.00e+00	0	44	102	1048576	16	4197
2026-01-24 09:39:02.80	354.07	19.98	-27.7	-29.0	15.6	0.00e+00	0	44	102	1048576	16	4173
2026-01-24 09:39:05.81	353.78	19.62	-27.6	-28.8	15.7	0.00e+00	0	44	102	1048576	16	4119
2026-01-24 09:39:08.83	353.50	19.27	-27.6	-28.7	15.7	0.00e+00	0	44	102	1048576	16	4096
2026-01-24 09:39:11.84	353.22	18.92	-27.5	-28.5	15.8	0.00e+00	0	44	102	1048576	16	4036
2026-01-24 09:39:14.86	352.95	18.57	-27.5	-28.5	15.8	0.00e+00	0	44	102	1048576	16	4036
2026-01-24 09:39:17.87	352.69	18.23	-27.6	-28.8	15.7	0.00e+00	0	44	102	1048576	16	4104
2026-01-24 09:39:20.87	352.44	17.89	-27.6	-28.7	15.7	0.00e+00	0	43	102	1048576	16	4100
2026-01-24 09:39:23.89	352.18	17.56	-27.8	-29.2	15.4	0.00e+00	0	44	102	1048576	16	4226
2026-01-24 09:39:26.91	351.94	17.23	-28.0	-29.7	15.1	0.00e+00	0	44	102	1048576	16	4367
2026-01-24 09:39:29.93	351.70	16.90	-28.2	-30.2	14.8	0.00e+00	0	44	102	1048576	16	4503
2026-01-24 09:39:32.94	351.47	16.58	-28.4	-30.5	14.6	0.00e+00	0	43	102	1048576	16	4608
2026-01-24 09:39:35.96	351.24	16.26	-28.4	-30.2	14.5	7.00e-07	0	44	102	1048576	17	4396
2026-01-24 09:39:38.98	351.01	15.94	-28.4	-30.2	14.5	0.00e+00	0	44	102	1048576	17	4407
2026-01-24 09:39:42.00	350.79	15.63	-28.5	-30.4	14.3	7.00e-07	0	44	102	1048576	17	4479
2026-01-24 09:39:45.01	350.58	15.32	-28.4	-30.2	14.5	7.00e-07	0	44	102	1048576	17	4403
2026-01-24 09:39:48.03	350.37	15.02	-28.4	-30.0	14.5	7.00e-07	0	44	102	1048576	17	4355
2026-01-24 09:39:51.05	350.16	14.72	-28.3	-30.0	14.6	7.00e-07	0	44	102	1048576	17	4340
2026-01-24 09:39:54.06	349.96	14.42	-28.4	-30.1	14.4	0.00e+00	0	44	102	1048576	17	4379
2026-01-24 09:39:57.07	349.77	14.13	-28.3	-29.9	14.5	1.50e-06	0	44	102	1048576	17	4332
2026-01-24 09:40:00.08	349.57	13.84	-28.3	-29.8	14.6	7.00e-07	0	44	102	1048576	17	4288
2026-01-24 09:40:03.08	349.39	13.55	-28.3	-29.8	14.6	0.00e+00	0	44	102	1048576	17	4285
2026-01-24 09:40:06.10	349.20	13.26	-28.3	-29.9	14.5	7.00e-07	0	44	102	1048576	17	4314
2026-01-24 09:40:09.11	349.02	12.98	-28.3	-29.9	14.5	7.00e-07	0	43	102	1048576	17	4338
2026-01-24 09:40:12.12	348.84	12.70	-28.3	-29.8	14.5	0.00e+00	0	44	102	1048576	17	4296
2026-01-24 09:40:15.13	348.67	12.43	-28.4	-30.2	14.3	1.50e-06	0	44	102	1048576	17	4408
2026-01-24 09:40:18.15	348.50	12.15	-28.4	-30.2	14.2	1.50e-06	0	44	102	1048576	17	4410
2026-01-24 09:40:21.16	348.33	11.88	-28.5	-30.3	14.2	4.50e-06	0	44	102	1048576	17	4443
2026-01-24 09:40:24.17	348.17	11.61	-28.5	-30.5	14.0	1.50e-06	0	44	102	1048576	17	4510
2026-01-24 09:40:27.18	348.01	11.35	-28.6	-30.7	13.9	5.30e-06	0	44	102	1048576	17	4567
2026-01-24 09:40:30.19	347.85	11.09	-28.7	-30.9	13.7	6.10e-06	0	44	102	1048576	17	4624
2026-01-24 09:40:33.21	347.69	10.83	-28.6	-30.7	13.9	5.30e-06	0	44	102	1048576	17	4566
2026-01-24 09:40:36.23	347.54	10.57	-28.8	-31.1	13.6	1.06e-05	0	44	102	1048576	17	4689
2026-01-24 09:40:39.24	347.39	10.31	-28.8	-31.1	13.6	8.30e-06	0	44	102	1048576	17	4708
2026-01-24 09:40:42.26	347.25	10.06	-28.7	-31.0	13.6	7.60e-06	0	44	102	1048576	17	4658
2026-01-24 09:40:45.27	347.10	9.81	-28.7	-30.9	13.6	6.80e-06	0	43	102	1048576	17	4636
2026-01-24 09:40:48.29	346.96	9.56	-28.8	-31.2	13.4	1.29e-05	0	44	102	1048576	17	4738
2026-01-24 09:40:51.29	346.83	9.32	-28.9	-31.3	13.3	2.05e-05	0	44	102	1048576	17	4786
2026-01-24 09:40:54.31	346.69	9.07	-28.9	-31.6	13.2	3.12e-05	0	44	102	1048576	17	4860
2026-01-24 09:40:57.33	346.56	8.83	-29.0	-31.2	13.1	3.96e-05	0	44	102	1048576	18	4645
2026-01-24 09:41:00.34	346.42	8.59	-29.0	-31.3	13.0	3.58e-05	0	43	102	1048576	18	4655
2026-01-24 09:41:03.36	346.30	8.35	-29.1	-31.6	12.8	5.18e-05	0	43	102	1048576	18	4758
2026-01-24 09:41:06.38	346.17	8.12	-29.3	-32.0	12.5	1.17e-04	0	44	102	1048576	18	4901
2026-01-24 09:41:09.39	346.05	7.89	-29.3	-32.0	12.5	1.46e-04	0	43	102	1048576	18	4909
2026-01-24 09:41:12.39	345.92	7.66	-29.4	-32.3	12.2	1.72e-04	0	44	102	1048576	18	5019
2026-01-24 09:41:15.41	345.80	7.43	-29.5	-32.0	12.1	2.94e-04	0	44	102	1048576	19	4800
2026-01-24 09:41:18.42	345.69	7.20	-29.7	-32.6	11.7	6.42e-04	0	44	102	1048576	19	5012
2026-01-24 09:41:21.44	345.57	6.97	-33.7	-45.4	3.8	1.49e+00	0	44	104	1048576	27	13889

#Closed at: 2026-01-24 09:41:23
#Recorded file [1 MB]: D:/data/31010_260124_122944.dat