passes_logs/2026/01/24/R2M6_AANII_01/R2M6_AANII_01__20260124_111003_NOAA_21_JPSS-2_rec.log

#Pass ID: 20260124_111003_NOAA 21 (JPSS-2)
#Satellite: NOAA 21 (JPSS-2)
#Configuration: NOAA 21
#almurnet v.1.7.20240730
#Start time: 2026-01-24 11:10:03

#Version: 2.2.20231116
#Station: R2M6_AANII_01
#Location: 30.233357 lon 59.946436 lat
#TLE: 1 54234U 22150A   26023.61190495  .00000215  00000+0  12293-3 0  9993
#TLE: 2 54234  98.7508 324.4078 0000700 226.6110 133.5008 14.19538339166032

#Time	Az	El	Level	Level2	SNR	BER	BlckErr	Temp	State	Recorded	gain1	gain2
2026-01-24 11:10:03.62	186.98	7.03	-29.6	-33.1	5.0	1.34e+00	0	42	0	0	19	5432
2026-01-24 11:10:06.64	187.14	7.25	-30.4	-33.8	9.7	9.82e-03	0	42	102	1048576	21	5342
2026-01-24 11:10:09.66	187.30	7.47	-30.4	-33.8	9.8	1.59e-02	0	42	102	1048576	21	5303
2026-01-24 11:10:12.68	187.46	7.70	-29.4	-31.5	11.7	7.86e-04	0	42	102	1048576	20	4584
2026-01-24 11:10:15.69	187.63	7.93	-29.4	-31.9	12.0	3.47e-04	0	42	102	1048576	19	4779
2026-01-24 11:10:18.70	187.80	8.16	-29.3	-31.5	12.2	2.68e-04	0	42	102	1048576	19	4646
2026-01-24 11:10:21.71	187.97	8.39	-29.7	-32.5	11.6	3.82e-04	0	42	102	1048576	19	5010
2026-01-24 11:10:24.72	188.14	8.62	-28.9	-30.5	12.8	5.95e-05	0	43	102	1048576	19	4339
2026-01-24 11:10:27.74	188.31	8.86	-28.9	-31.0	12.8	3.66e-05	0	43	102	1048576	18	4603
2026-01-24 11:10:30.76	188.49	9.09	-28.9	-31.0	12.9	4.34e-05	0	43	102	1048576	18	4594
2026-01-24 11:10:33.77	188.67	9.33	-29.0	-31.2	12.8	4.11e-05	0	43	102	1048576	18	4653
2026-01-24 11:10:36.78	188.86	9.58	-28.7	-30.4	13.3	1.06e-05	0	43	102	1048576	18	4410
2026-01-24 11:10:39.79	189.04	9.82	-28.5	-30.0	13.6	9.10e-06	0	43	102	1048576	18	4288
2026-01-24 11:10:42.80	189.23	10.06	-28.4	-29.8	13.5	1.67e-05	0	43	102	1048576	18	4248
2026-01-24 11:10:45.81	189.43	10.31	-28.4	-29.9	13.3	1.98e-05	0	43	102	1048576	18	4294
2026-01-24 11:10:48.83	189.62	10.56	-28.3	-30.2	13.4	1.52e-05	0	43	102	1048576	17	4470
2026-01-24 11:10:51.83	189.82	10.81	-28.2	-29.9	13.7	3.00e-06	0	43	102	1048576	17	4370
2026-01-24 11:10:54.82	190.02	11.07	-28.1	-29.7	13.8	3.00e-06	0	43	102	1048576	17	4321
2026-01-24 11:10:57.85	190.23	11.33	-28.2	-29.9	13.8	5.30e-06	0	43	102	1048576	17	4354
2026-01-24 11:11:00.86	190.44	11.59	-28.1	-29.7	14.0	3.00e-06	0	43	102	1048576	17	4307
2026-01-24 11:11:03.87	190.65	11.85	-27.9	-29.2	14.3	2.20e-06	0	43	102	1048576	17	4175
2026-01-24 11:11:06.87	190.87	12.11	-28.0	-29.4	14.2	1.50e-06	0	43	102	1048576	17	4227
2026-01-24 11:11:09.89	191.09	12.38	-27.9	-29.1	14.4	7.00e-07	0	43	102	1048576	17	4145
2026-01-24 11:11:12.91	191.31	12.65	-27.8	-28.9	14.4	0.00e+00	0	43	102	1048576	17	4103
2026-01-24 11:11:15.93	191.54	12.92	-28.0	-30.0	14.1	0.00e+00	0	43	102	1048576	16	4521
2026-01-24 11:11:18.95	191.77	13.20	-27.6	-29.0	14.6	1.06e-05	0	43	102	1048576	16	4236
2026-01-24 11:11:21.97	192.01	13.48	-27.7	-29.2	14.5	7.00e-07	0	43	102	1048576	16	4285
2026-01-24 11:11:24.97	192.25	13.76	-27.6	-29.0	14.6	5.30e-06	0	43	102	1048576	16	4216
2026-01-24 11:11:27.98	192.49	14.04	-27.7	-29.1	14.4	9.10e-06	0	43	102	1048576	16	4264
2026-01-24 11:11:30.99	192.74	14.33	-27.7	-29.2	14.3	9.10e-06	0	43	102	1048576	16	4279
2026-01-24 11:11:34.01	193.00	14.62	-27.9	-29.5	14.3	9.10e-06	0	43	102	1048576	16	4367
2026-01-24 11:11:37.02	193.26	14.91	-27.9	-29.5	14.5	1.50e-06	0	43	102	1048576	16	4340
2026-01-24 11:11:40.03	193.52	15.20	-28.0	-29.7	14.5	1.50e-06	0	43	102	1048576	16	4396
2026-01-24 11:11:43.05	193.79	15.50	-27.7	-29.2	14.8	1.50e-06	0	43	102	1048576	16	4248
2026-01-24 11:11:46.06	194.06	15.80	-28.0	-29.9	14.4	0.00e+00	0	43	102	1048576	16	4459
2026-01-24 11:11:49.07	194.34	16.11	-28.1	-30.1	14.3	2.20e-06	0	43	102	1048576	16	4519
2026-01-24 11:11:52.09	194.63	16.41	-28.2	-30.2	14.3	7.00e-07	0	43	102	1048576	16	4544
2026-01-24 11:11:55.10	194.92	16.73	-28.0	-29.8	14.5	7.00e-07	0	43	102	1048576	16	4428
2026-01-24 11:11:58.11	195.22	17.04	-27.9	-29.6	14.7	7.00e-07	0	43	102	1048576	16	4365
2026-01-24 11:12:01.14	195.52	17.36	-28.0	-29.7	14.7	7.00e-07	0	43	102	1048576	16	4403
2026-01-24 11:12:04.14	195.83	17.68	-28.0	-29.7	14.7	0.00e+00	0	43	102	1048576	16	4394
2026-01-24 11:12:07.16	196.14	18.00	-28.0	-29.7	14.8	0.00e+00	0	43	102	1048576	16	4384
2026-01-24 11:12:10.17	196.47	18.33	-27.9	-29.6	14.8	0.00e+00	0	43	102	1048576	16	4374
2026-01-24 11:12:13.18	196.79	18.66	-27.8	-29.4	14.9	0.00e+00	0	43	102	1048576	16	4300
2026-01-24 11:12:16.21	197.13	19.00	-27.7	-29.0	15.2	7.00e-07	0	43	102	1048576	16	4185
2026-01-24 11:12:19.22	197.47	19.34	-27.6	-28.8	15.3	7.00e-07	0	43	102	1048576	16	4137
2026-01-24 11:12:22.23	197.82	19.68	-27.5	-28.6	15.5	7.00e-07	0	43	102	1048576	16	4070
2026-01-24 11:12:25.26	198.18	20.03	-27.5	-28.7	15.4	0.00e+00	0	43	102	1048576	16	4097
2026-01-24 11:12:28.28	198.55	20.38	-27.6	-28.9	15.2	0.00e+00	0	43	102	1048576	16	4159
2026-01-24 11:12:31.28	198.92	20.73	-27.5	-28.6	15.4	0.00e+00	0	43	102	1048576	16	4086
2026-01-24 11:12:34.28	199.31	21.09	-27.3	-28.2	15.7	0.00e+00	0	43	102	1048576	16	3978
2026-01-24 11:12:37.28	199.69	21.45	-27.0	-27.9	16.0	0.00e+00	0	43	102	1048576	15	4014
2026-01-24 11:12:40.30	200.10	21.81	-26.9	-27.8	16.0	0.00e+00	0	43	102	1048576	15	3981
2026-01-24 11:12:43.30	200.50	22.18	-26.8	-27.6	16.1	0.00e+00	0	43	102	1048576	15	3932
2026-01-24 11:12:46.31	200.92	22.55	-26.9	-27.7	16.1	0.00e+00	0	43	102	1048576	15	3971
2026-01-24 11:12:49.32	201.35	22.93	-26.9	-27.8	16.0	0.00e+00	0	43	102	1048576	15	3980
2026-01-24 11:12:52.33	201.79	23.31	-26.7	-27.8	16.3	0.00e+00	0	43	102	1048576	14	4100
2026-01-24 11:12:55.33	202.24	23.69	-26.5	-27.5	16.5	0.00e+00	0	43	102	1048576	14	4003
2026-01-24 11:12:58.35	202.70	24.08	-26.5	-27.5	16.5	0.00e+00	0	43	102	1048576	14	4001
2026-01-24 11:13:01.36	203.17	24.48	-26.5	-27.4	16.6	0.00e+00	0	43	102	1048576	14	3994
2026-01-24 11:13:04.37	203.65	24.87	-26.6	-27.6	16.5	0.00e+00	0	43	102	1048576	14	4028
2026-01-24 11:13:07.39	204.15	25.27	-26.8	-28.0	16.3	0.00e+00	0	43	102	1048576	14	4138
2026-01-24 11:13:10.39	204.66	25.68	-26.8	-27.9	16.3	0.00e+00	0	43	102	1048576	14	4125
2026-01-24 11:13:13.41	205.18	26.08	-27.2	-28.8	15.9	0.00e+00	0	43	102	1048576	14	4358
2026-01-24 11:13:16.42	205.71	26.50	-27.3	-29.2	15.7	0.00e+00	0	43	102	1048576	14	4453
2026-01-24 11:13:19.42	206.26	26.91	-27.4	-29.4	15.6	0.00e+00	0	43	102	1048576	14	4522
2026-01-24 11:13:22.43	206.82	27.33	-27.1	-28.8	15.9	0.00e+00	0	43	102	1048576	14	4352
2026-01-24 11:13:25.43	207.39	27.75	-27.3	-29.1	15.8	0.00e+00	0	43	102	1048576	14	4445
2026-01-24 11:13:28.44	207.98	28.18	-27.3	-29.1	15.7	0.00e+00	0	43	102	1048576	14	4450
2026-01-24 11:13:31.46	208.59	28.61	-27.3	-29.2	15.7	0.00e+00	0	43	102	1048576	14	4457
2026-01-24 11:13:34.47	209.21	29.04	-27.3	-29.2	15.8	0.00e+00	0	43	102	1048576	14	4456
2026-01-24 11:13:37.48	209.85	29.47	-27.3	-29.1	15.8	0.00e+00	0	43	102	1048576	14	4423
2026-01-24 11:13:40.48	210.51	29.91	-27.2	-28.9	15.9	0.00e+00	0	43	102	1048576	14	4387
2026-01-24 11:13:43.49	211.18	30.35	-27.3	-29.0	15.9	0.00e+00	0	43	102	1048576	14	4406
2026-01-24 11:13:46.50	211.87	30.79	-27.4	-29.4	15.7	0.00e+00	0	43	102	1048576	14	4504
2026-01-24 11:13:49.51	212.59	31.24	-27.5	-29.0	15.7	0.00e+00	0	43	102	1048576	15	4273
2026-01-24 11:13:52.52	213.32	31.68	-27.7	-29.5	15.4	0.00e+00	0	43	102	1048576	15	4434
2026-01-24 11:13:55.53	214.07	32.13	-28.0	-30.1	15.0	0.00e+00	0	43	102	1048576	15	4615
2026-01-24 11:13:58.53	214.84	32.58	-28.4	-30.1	14.7	0.00e+00	0	43	102	1048576	17	4376
2026-01-24 11:14:01.54	215.63	33.03	-28.6	-30.5	14.4	0.00e+00	0	43	102	1048576	17	4499
2026-01-24 11:14:04.54	216.44	33.48	-28.6	-30.6	14.4	3.00e-06	0	43	102	1048576	17	4532
2026-01-24 11:14:07.56	217.28	33.94	-28.8	-30.8	14.2	1.50e-06	0	43	102	1048576	17	4583
2026-01-24 11:14:10.57	218.14	34.39	-28.4	-30.1	14.7	6.10e-06	0	44	102	1048576	17	4362
2026-01-24 11:14:13.58	219.02	34.84	-28.3	-29.8	14.9	7.00e-07	0	43	102	1048576	17	4295
2026-01-24 11:14:16.60	219.93	35.29	-28.5	-30.2	14.8	2.20e-06	0	44	102	1048576	17	4386
2026-01-24 11:14:19.62	220.87	35.74	-28.8	-31.1	14.2	4.50e-06	0	43	102	1048576	17	4665
2026-01-24 11:14:22.64	221.83	36.19	-29.1	-31.1	13.9	4.50e-06	0	43	102	1048576	18	4551
2026-01-24 11:14:25.66	222.82	36.63	-28.9	-30.8	14.2	1.50e-06	0	43	102	1048576	18	4446
2026-01-24 11:14:28.67	223.83	37.07	-29.2	-31.5	13.7	4.50e-06	0	43	102	1048576	18	4688
2026-01-24 11:14:31.68	224.87	37.50	-29.2	-31.4	13.8	2.20e-06	0	43	102	1048576	18	4659
2026-01-24 11:14:34.70	225.94	37.94	-29.2	-31.5	13.7	4.50e-06	0	43	102	1048576	18	4660
2026-01-24 11:14:37.72	227.04	38.36	-28.9	-30.7	14.1	3.00e-06	0	43	102	1048576	18	4438
2026-01-24 11:14:40.73	228.16	38.78	-28.9	-30.8	14.3	1.50e-06	0	43	102	1048576	18	4440
2026-01-24 11:14:43.74	229.31	39.19	-29.2	-31.3	13.9	2.20e-06	0	43	102	1048576	18	4608
2026-01-24 11:14:46.75	230.49	39.59	-29.1	-31.3	13.9	4.50e-06	0	43	102	1048576	18	4601
2026-01-24 11:14:49.75	231.69	39.98	-29.2	-31.4	13.9	7.00e-07	0	43	102	1048576	18	4637
2026-01-24 11:14:52.77	232.93	40.36	-29.5	-31.6	13.5	9.90e-06	0	43	102	1048576	19	4577
2026-01-24 11:14:55.79	234.20	40.74	-29.7	-32.0	13.2	2.21e-05	0	43	102	1048576	19	4718
2026-01-24 11:14:58.80	235.49	41.10	-29.6	-31.8	13.3	1.90e-05	0	43	102	1048576	19	4647
2026-01-24 11:15:01.81	236.81	41.44	-29.8	-32.3	13.0	2.97e-05	0	43	102	1048576	19	4813
2026-01-24 11:15:04.82	238.16	41.78	-30.1	-32.6	12.5	1.11e-04	0	43	102	1048576	20	4796
2026-01-24 11:15:07.82	239.53	42.09	-30.3	-32.6	12.2	3.30e-04	0	43	102	1048576	21	4701
2026-01-24 11:15:10.85	240.94	42.40	-30.3	-32.5	12.2	1.60e-04	0	43	102	1048576	21	4669
2026-01-24 11:15:13.87	242.38	42.68	-30.1	-32.0	12.6	1.23e-04	0	43	102	1048576	21	4516
2026-01-24 11:15:16.89	243.83	42.95	-29.8	-31.4	13.0	3.81e-05	0	44	102	1048576	21	4305
2026-01-24 11:15:19.89	245.31	43.20	-30.4	-32.8	12.0	2.16e-04	0	43	102	1048576	21	4765
2026-01-24 11:15:22.91	246.81	43.43	-30.0	-31.9	12.7	9.23e-05	0	43	102	1048576	21	4462
2026-01-24 11:15:25.92	248.32	43.64	-30.7	-33.8	11.5	5.77e-04	0	43	102	1048576	21	5101
2026-01-24 11:15:28.93	249.86	43.82	-29.8	-31.2	13.1	6.10e-05	0	43	102	1048576	21	4237
2026-01-24 11:15:31.94	251.41	43.99	-29.7	-31.6	13.3	2.44e-05	0	43	102	1048576	20	4455
2026-01-24 11:15:34.96	252.99	44.13	-29.7	-31.5	13.2	1.75e-05	0	43	102	1048576	20	4434
2026-01-24 11:15:37.97	254.57	44.25	-29.7	-31.6	13.3	2.82e-05	0	43	102	1048576	20	4476
2026-01-24 11:15:40.97	256.15	44.35	-29.6	-31.4	13.3	1.67e-05	0	43	102	1048576	20	4405
2026-01-24 11:15:43.98	257.75	44.42	-29.8	-31.8	13.1	3.43e-05	0	43	102	1048576	20	4531
2026-01-24 11:15:46.99	259.36	44.47	-30.2	-32.8	12.5	1.02e-04	0	43	102	1048576	20	4841
2026-01-24 11:15:49.99	260.96	44.49	-29.9	-31.9	13.0	4.34e-05	0	43	102	1048576	20	4548
2026-01-24 11:15:53.00	262.57	44.49	-29.9	-32.1	12.9	4.95e-05	0	43	102	1048576	20	4637
2026-01-24 11:15:56.00	264.17	44.46	-30.0	-32.3	12.9	2.97e-05	0	43	102	1048576	20	4681
2026-01-24 11:15:59.01	265.77	44.41	-30.0	-32.2	12.9	6.63e-05	0	43	102	1048576	20	4656
2026-01-24 11:16:02.01	267.37	44.34	-29.6	-31.3	13.4	4.50e-06	0	43	102	1048576	20	4369
2026-01-24 11:16:05.02	268.96	44.24	-29.4	-30.7	13.8	5.30e-06	0	43	102	1048576	20	4200
2026-01-24 11:16:08.03	270.53	44.12	-29.5	-31.4	13.7	6.80e-06	0	43	102	1048576	19	4508
2026-01-24 11:16:11.03	272.09	43.98	-29.6	-31.6	13.7	6.10e-06	0	43	102	1048576	19	4548
2026-01-24 11:16:14.05	273.65	43.81	-30.4	-33.3	12.3	1.99e-04	0	43	102	1048576	20	5020
2026-01-24 11:16:17.07	275.19	43.62	-30.4	-32.7	12.3	2.04e-04	0	43	102	1048576	21	4710
2026-01-24 11:16:20.08	276.70	43.41	-30.1	-32.0	12.8	6.63e-05	0	43	102	1048576	21	4462
2026-01-24 11:16:23.09	278.19	43.18	-30.3	-32.5	12.5	1.15e-04	0	43	102	1048576	21	4630
2026-01-24 11:16:26.09	279.66	42.93	-29.8	-31.2	13.2	2.28e-05	0	43	102	1048576	21	4235
2026-01-24 11:16:29.10	281.11	42.67	-29.3	-31.0	14.1	0.00e+00	0	43	102	1048576	19	4373
2026-01-24 11:16:32.11	282.53	42.38	-30.5	-33.1	12.1	1.93e-04	0	43	102	1048576	21	4828
2026-01-24 11:16:35.13	283.93	42.08	-29.9	-31.4	13.2	2.74e-05	0	44	102	1048576	21	4277
2026-01-24 11:16:38.15	285.31	41.76	-29.6	-31.3	13.6	1.22e-05	0	43	102	1048576	20	4355
2026-01-24 11:16:41.15	286.65	41.43	-30.6	-33.3	11.9	3.52e-04	0	43	102	1048576	21	4917
2026-01-24 11:16:44.16	287.97	41.08	-29.8	-31.3	13.2	2.89e-05	0	43	102	1048576	21	4263
2026-01-24 11:16:47.17	289.25	40.72	-30.3	-33.1	12.4	1.05e-04	0	43	102	1048576	20	4920
2026-01-24 11:16:50.18	290.51	40.35	-30.5	-33.1	12.1	3.71e-04	0	43	102	1048576	21	4846
2026-01-24 11:16:53.20	291.75	39.97	-30.1	-31.9	12.9	6.48e-05	0	43	102	1048576	21	4436
2026-01-24 11:16:56.20	292.95	39.58	-29.9	-32.0	13.1	1.83e-05	0	43	102	1048576	20	4579
2026-01-24 11:16:59.22	294.13	39.18	-29.8	-31.7	13.3	2.13e-05	0	43	102	1048576	20	4489
2026-01-24 11:17:02.24	295.27	38.77	-29.9	-31.9	13.2	9.10e-06	0	43	102	1048576	20	4546
2026-01-24 11:17:05.26	296.39	38.35	-29.5	-31.0	13.7	8.30e-06	0	43	102	1048576	20	4279
2026-01-24 11:17:08.27	297.48	37.93	-29.7	-31.5	13.4	1.44e-05	0	43	102	1048576	20	4441
2026-01-24 11:17:11.27	298.54	37.50	-29.6	-31.2	13.6	3.80e-06	0	44	102	1048576	20	4318
2026-01-24 11:17:14.28	299.57	37.07	-29.4	-30.6	13.9	2.20e-06	0	44	102	1048576	20	4166
2026-01-24 11:17:17.30	300.58	36.63	-29.4	-31.2	14.0	3.00e-06	0	43	102	1048576	19	4444
2026-01-24 11:17:20.31	301.56	36.19	-29.8	-32.1	13.4	1.83e-05	0	43	102	1048576	19	4713
2026-01-24 11:17:23.33	302.52	35.75	-29.2	-30.8	14.2	7.00e-07	0	44	102	1048576	19	4316
2026-01-24 11:17:26.33	303.45	35.30	-29.5	-31.4	13.8	6.10e-06	0	43	102	1048576	19	4507
2026-01-24 11:17:29.34	304.35	34.86	-29.3	-31.1	14.0	1.50e-06	0	44	102	1048576	19	4400
2026-01-24 11:17:32.35	305.23	34.41	-29.0	-30.3	14.4	2.20e-06	0	43	102	1048576	19	4180
2026-01-24 11:17:35.36	306.09	33.96	-28.9	-30.5	14.7	0.00e+00	0	43	102	1048576	18	4339
2026-01-24 11:17:38.38	306.93	33.51	-28.7	-30.2	14.9	0.00e+00	0	43	102	1048576	18	4246
2026-01-24 11:17:41.39	307.74	33.06	-28.5	-29.7	15.1	0.00e+00	0	43	102	1048576	18	4126
2026-01-24 11:17:44.40	308.53	32.61	-28.2	-29.4	15.5	0.00e+00	0	43	102	1048576	17	4144
2026-01-24 11:17:47.42	309.30	32.16	-28.2	-29.4	15.5	0.00e+00	0	43	102	1048576	17	4145
2026-01-24 11:17:50.44	310.05	31.72	-28.2	-29.6	15.5	0.00e+00	0	43	102	1048576	17	4191
2026-01-24 11:17:53.45	310.78	31.27	-28.1	-29.1	15.6	0.00e+00	0	43	102	1048576	17	4075
2026-01-24 11:17:56.46	311.48	30.83	-27.9	-28.9	15.8	0.00e+00	0	43	102	1048576	17	4004
2026-01-24 11:17:59.48	312.18	30.39	-28.0	-29.4	15.8	0.00e+00	0	43	102	1048576	16	4264
2026-01-24 11:18:02.49	312.85	29.95	-27.9	-29.4	15.8	0.00e+00	0	43	102	1048576	16	4251
2026-01-24 11:18:05.49	313.50	29.52	-27.9	-29.3	15.8	0.00e+00	0	43	102	1048576	16	4233
2026-01-24 11:18:08.49	314.13	29.09	-28.0	-29.6	15.6	0.00e+00	0	43	102	1048576	16	4319
2026-01-24 11:18:11.50	314.76	28.66	-28.0	-29.6	15.6	0.00e+00	0	43	102	1048576	16	4301
2026-01-24 11:18:14.52	315.36	28.23	-28.0	-29.4	15.7	0.00e+00	0	43	102	1048576	16	4264
2026-01-24 11:18:17.53	315.95	27.81	-28.0	-29.4	15.7	0.00e+00	0	43	102	1048576	16	4257
2026-01-24 11:18:20.54	316.53	27.39	-28.0	-29.6	15.6	0.00e+00	0	43	102	1048576	16	4310
2026-01-24 11:18:23.54	317.08	26.97	-28.1	-29.7	15.5	0.00e+00	0	43	102	1048576	16	4342
2026-01-24 11:18:26.56	317.63	26.56	-27.7	-28.7	16.1	0.00e+00	0	43	102	1048576	16	4083
2026-01-24 11:18:29.57	318.16	26.15	-27.6	-28.5	16.2	0.00e+00	0	43	102	1048576	16	4030
2026-01-24 11:18:32.59	318.68	25.74	-27.4	-28.2	16.3	0.00e+00	0	43	102	1048576	16	3946
2026-01-24 11:18:35.60	319.19	25.34	-27.4	-28.3	16.3	0.00e+00	0	43	102	1048576	16	3955
2026-01-24 11:18:38.60	319.68	24.95	-27.8	-29.0	15.8	0.00e+00	0	43	102	1048576	16	4170
2026-01-24 11:18:41.60	320.16	24.55	-27.9	-29.2	15.7	0.00e+00	0	43	102	1048576	16	4221
2026-01-24 11:18:44.62	320.64	24.16	-27.6	-28.7	16.0	0.00e+00	0	43	102	1048576	16	4079
2026-01-24 11:18:47.64	321.10	23.78	-27.7	-28.8	16.0	7.00e-07	0	43	102	1048576	16	4098
2026-01-24 11:18:50.64	321.54	23.40	-27.9	-29.2	15.7	0.00e+00	0	43	102	1048576	16	4220
2026-01-24 11:18:53.66	321.98	23.02	-27.8	-29.2	15.7	0.00e+00	0	43	102	1048576	16	4210
2026-01-24 11:18:56.68	322.41	22.64	-28.0	-29.5	15.5	0.00e+00	0	43	102	1048576	16	4292
2026-01-24 11:18:59.69	322.83	22.27	-27.8	-29.2	15.7	0.00e+00	0	44	102	1048576	16	4206
2026-01-24 11:19:02.71	323.24	21.90	-28.0	-29.5	15.5	0.00e+00	0	43	102	1048576	16	4302
2026-01-24 11:19:05.72	323.64	21.54	-28.0	-29.6	15.4	0.00e+00	0	43	102	1048576	16	4328
2026-01-24 11:19:08.73	324.03	21.18	-28.1	-29.7	15.4	0.00e+00	0	43	102	1048576	16	4348
2026-01-24 11:19:11.74	324.42	20.83	-27.7	-29.0	15.7	0.00e+00	0	43	102	1048576	16	4158
2026-01-24 11:19:14.75	324.79	20.48	-27.9	-29.3	15.6	0.00e+00	0	43	102	1048576	16	4248
2026-01-24 11:19:17.76	325.15	20.13	-27.8	-29.1	15.7	0.00e+00	0	43	102	1048576	16	4183
2026-01-24 11:19:20.78	325.51	19.79	-27.7	-29.0	15.7	0.00e+00	0	43	102	1048576	16	4155
2026-01-24 11:19:23.79	325.86	19.45	-27.6	-28.8	15.9	0.00e+00	0	43	102	1048576	16	4094
2026-01-24 11:19:26.80	326.21	19.11	-27.5	-28.6	16.0	0.00e+00	0	43	102	1048576	16	4047
2026-01-24 11:19:29.81	326.54	18.78	-27.7	-28.9	15.7	0.00e+00	0	43	102	1048576	16	4135
2026-01-24 11:19:32.82	326.87	18.45	-27.7	-28.9	15.7	0.00e+00	0	44	102	1048576	16	4143
2026-01-24 11:19:35.83	327.19	18.12	-27.9	-29.3	15.5	0.00e+00	0	43	102	1048576	16	4241
2026-01-24 11:19:38.86	327.51	17.80	-28.1	-29.8	15.2	0.00e+00	0	43	102	1048576	16	4391
2026-01-24 11:19:41.87	327.82	17.48	-28.4	-30.6	14.8	0.00e+00	0	43	102	1048576	16	4612
2026-01-24 11:19:44.89	328.13	17.16	-28.4	-30.5	14.8	0.00e+00	0	43	102	1048576	16	4603
2026-01-24 11:19:47.91	328.42	16.85	-28.8	-30.9	14.2	1.50e-06	0	43	102	1048576	17	4607
2026-01-24 11:19:50.92	328.71	16.54	-28.5	-30.2	14.6	0.00e+00	0	43	102	1048576	17	4388
2026-01-24 11:19:53.92	329.00	16.24	-28.6	-30.5	14.4	0.00e+00	0	44	102	1048576	17	4484
2026-01-24 11:19:56.94	329.28	15.93	-28.5	-30.3	14.6	7.00e-07	0	43	102	1048576	17	4405
2026-01-24 11:19:59.95	329.56	15.63	-28.5	-30.2	14.6	0.00e+00	0	43	102	1048576	17	4396
2026-01-24 11:20:02.96	329.83	15.34	-28.6	-30.5	14.4	0.00e+00	0	43	102	1048576	17	4479
2026-01-24 11:20:05.96	330.09	15.05	-28.5	-30.2	14.6	0.00e+00	0	43	102	1048576	17	4404
2026-01-24 11:20:08.98	330.35	14.75	-28.5	-30.2	14.6	0.00e+00	0	43	102	1048576	17	4397
2026-01-24 11:20:11.99	330.61	14.47	-28.5	-30.3	14.5	1.50e-06	0	43	102	1048576	17	4430
2026-01-24 11:20:15.01	330.86	14.18	-28.7	-30.8	14.2	0.00e+00	0	43	102	1048576	17	4572
2026-01-24 11:20:18.02	331.10	13.90	-28.7	-30.8	14.1	7.00e-07	0	43	102	1048576	17	4588
2026-01-24 11:20:21.02	331.34	13.62	-28.8	-31.1	14.0	3.80e-06	0	43	102	1048576	17	4656
2026-01-24 11:20:24.04	331.58	13.35	-28.9	-31.3	13.8	3.00e-06	0	43	102	1048576	17	4743
2026-01-24 11:20:27.06	331.82	13.07	-29.1	-31.2	13.6	8.30e-06	0	43	102	1048576	18	4593
2026-01-24 11:20:30.08	332.05	12.80	-29.1	-31.2	13.6	7.60e-06	0	43	102	1048576	18	4604
2026-01-24 11:20:33.08	332.27	12.53	-29.1	-31.3	13.5	1.14e-05	0	43	102	1048576	18	4610
2026-01-24 11:20:36.08	332.49	12.27	-29.1	-31.3	13.5	3.80e-06	0	43	102	1048576	18	4632
2026-01-24 11:20:39.10	332.71	12.01	-29.3	-31.7	13.3	2.36e-05	0	43	102	1048576	18	4757
2026-01-24 11:20:42.11	332.93	11.75	-29.2	-31.6	13.3	1.83e-05	0	43	102	1048576	18	4717
2026-01-24 11:20:45.12	333.14	11.49	-29.2	-31.5	13.3	8.30e-06	0	43	102	1048576	18	4691
2026-01-24 11:20:48.12	333.34	11.23	-29.3	-31.8	13.1	3.05e-05	0	43	102	1048576	18	4783
2026-01-24 11:20:51.14	333.55	10.98	-29.3	-31.8	13.1	2.97e-05	0	43	102	1048576	18	4788
2026-01-24 11:20:54.15	333.75	10.73	-29.3	-31.8	13.2	2.59e-05	0	43	102	1048576	18	4781
2026-01-24 11:20:57.16	333.95	10.48	-29.3	-31.7	13.1	3.28e-05	0	43	102	1048576	18	4778
2026-01-24 11:21:00.17	334.14	10.23	-29.2	-31.6	13.2	2.67e-05	0	43	102	1048576	18	4724
2026-01-24 11:21:03.18	334.33	9.99	-29.3	-31.9	13.0	3.89e-05	0	43	102	1048576	18	4842
2026-01-24 11:21:06.19	334.52	9.75	-29.3	-31.8	13.0	3.28e-05	0	43	102	1048576	18	4786
2026-01-24 11:21:09.20	334.71	9.51	-29.3	-31.9	13.0	5.87e-05	0	43	102	1048576	18	4834
2026-01-24 11:21:12.22	334.89	9.27	-29.4	-31.7	12.8	6.86e-05	0	43	102	1048576	19	4646
2026-01-24 11:21:15.24	335.07	9.03	-29.5	-31.7	12.7	6.10e-05	0	43	102	1048576	19	4665
2026-01-24 11:21:18.26	335.25	8.80	-29.6	-32.1	12.5	1.18e-04	0	43	102	1048576	19	4787
2026-01-24 11:21:21.27	335.43	8.56	-29.7	-32.4	12.2	2.05e-04	0	43	102	1048576	19	4911
2026-01-24 11:21:24.27	335.60	8.33	-29.8	-32.6	12.1	3.42e-04	0	43	102	1048576	19	4973
2026-01-24 11:21:27.29	335.77	8.11	-29.8	-32.7	11.9	3.06e-04	0	43	102	1048576	19	5026
2026-01-24 11:21:30.31	335.94	7.88	-29.7	-31.9	12.1	2.84e-04	0	43	102	1048576	20	4632
2026-01-24 11:21:33.33	336.10	7.65	-29.6	-31.6	12.3	1.94e-04	0	43	102	1048576	20	4558
2026-01-24 11:21:36.34	336.27	7.43	-29.7	-31.8	12.1	3.12e-04	0	43	102	1048576	20	4617
2026-01-24 11:21:39.36	336.43	7.21	-29.8	-32.1	11.9	3.49e-04	0	43	102	1048576	20	4710
2026-01-24 11:21:42.37	336.59	6.99	-34.0	-46.3	3.8	1.49e+00	0	43	104	1048576	27	14890

#Closed at: 2026-01-24 11:21:44
#Recorded file [1 MB]: D:/data/31010_260124_141005.dat