passes_logs/2026/01/24/R2M6_AANII_01/R2M6_AANII_01__20260124_222818_NOAA_20_JPSS-1_rec.log

#Pass ID: 20260124_222818_NOAA 20 (JPSS-1)
#Satellite: NOAA 20 (JPSS-1)
#Configuration: NOAA 20
#almurnet v.1.7.20240730
#Start time: 2026-01-24 22:28:17

#Version: 2.2.20231116
#Station: R2M6_AANII_01
#Location: 30.233357 lon 59.946436 lat
#TLE: 1 43013U 17073A   26024.42258823  .00000183  00000+0  10747-3 0  9990
#TLE: 2 43013  98.7646 325.2629 0001105  25.8644 334.2587 14.19539754424075

#Time	Az	El	Level	Level2	SNR	BER	BlckErr	Temp	State	Recorded	gain1	gain2
2026-01-24 22:28:17.36	33.07	6.96	-31.8	-39.8	4.6	1.31e+00	0	41	0	0	23	9054
2026-01-24 22:28:20.37	33.39	7.13	-31.8	-39.7	6.2	3.15e-01	0	41	102	1048576	23	8946
2026-01-24 22:28:23.37	33.72	7.30	-31.9	-39.9	6.1	3.11e-01	0	42	102	1048576	23	9024
2026-01-24 22:28:26.38	34.06	7.47	-31.8	-38.8	7.1	1.66e-01	0	42	102	1048576	23	8071
2026-01-24 22:28:29.39	34.40	7.64	-31.7	-38.1	7.6	9.62e-02	0	42	102	1048576	23	7522
2026-01-24 22:28:32.41	34.74	7.82	-31.8	-38.8	7.1	1.76e-01	0	42	102	1048576	23	8062
2026-01-24 22:28:35.42	35.09	7.99	-31.3	-36.4	9.3	2.71e-02	0	42	102	1048576	23	6439
2026-01-24 22:28:38.44	35.44	8.16	-30.5	-34.1	11.3	1.60e-03	0	42	102	1048576	22	5416
2026-01-24 22:28:41.45	35.79	8.34	-30.4	-34.3	11.5	7.65e-04	0	42	102	1048576	21	5601
2026-01-24 22:28:44.46	36.15	8.51	-30.5	-34.3	11.5	8.69e-04	0	42	102	1048576	21	5628
2026-01-24 22:28:47.47	36.51	8.68	-30.5	-34.5	11.4	7.79e-04	0	42	102	1048576	21	5691
2026-01-24 22:28:50.48	36.88	8.86	-30.4	-34.5	11.3	1.27e-03	0	42	102	1048576	21	5737
2026-01-24 22:28:53.50	37.25	9.03	-30.5	-34.5	11.4	1.04e-03	0	42	102	1048576	21	5674
2026-01-24 22:28:56.52	37.63	9.21	-30.5	-34.4	11.5	8.76e-04	0	43	102	1048576	21	5644
2026-01-24 22:28:59.54	38.01	9.38	-30.4	-34.1	11.8	6.17e-04	0	43	102	1048576	21	5494
2026-01-24 22:29:02.55	38.39	9.56	-30.5	-34.5	11.5	6.45e-04	0	42	102	1048576	21	5684
2026-01-24 22:29:05.56	38.78	9.73	-30.5	-34.5	11.5	7.74e-04	0	43	102	1048576	21	5691
2026-01-24 22:29:08.57	39.18	9.91	-30.5	-34.4	11.6	8.77e-04	0	43	102	1048576	21	5626
2026-01-24 22:29:11.59	39.57	10.08	-30.4	-34.0	12.0	3.96e-04	0	43	102	1048576	21	5440
2026-01-24 22:29:14.59	39.98	10.26	-30.4	-34.0	11.9	5.42e-04	0	43	102	1048576	21	5462
2026-01-24 22:29:17.60	40.38	10.43	-30.3	-33.6	12.2	1.69e-04	0	43	102	1048576	21	5309
2026-01-24 22:29:20.61	40.79	10.61	-30.2	-33.5	12.2	2.04e-04	0	43	102	1048576	21	5263
2026-01-24 22:29:23.61	41.21	10.78	-30.3	-33.7	12.1	2.82e-04	0	43	102	1048576	21	5358
2026-01-24 22:29:26.63	41.63	10.96	-30.2	-33.6	12.2	2.82e-04	0	43	102	1048576	21	5281
2026-01-24 22:29:29.65	42.06	11.13	-30.2	-33.4	12.3	1.61e-04	0	43	102	1048576	21	5209
2026-01-24 22:29:32.67	42.49	11.31	-30.2	-33.5	12.3	2.25e-04	0	43	102	1048576	21	5248
2026-01-24 22:29:35.69	42.93	11.48	-30.2	-33.5	12.3	1.59e-04	0	43	102	1048576	21	5256
2026-01-24 22:29:38.71	43.37	11.66	-30.2	-33.4	12.4	1.34e-04	0	43	102	1048576	21	5187
2026-01-24 22:29:41.72	43.82	11.83	-30.0	-32.8	12.7	9.38e-05	0	43	102	1048576	21	4989
2026-01-24 22:29:44.74	44.27	12.01	-30.0	-32.7	12.8	5.49e-05	0	43	102	1048576	21	4925
2026-01-24 22:29:47.76	44.73	12.18	-29.7	-32.6	13.3	2.05e-05	0	43	102	1048576	20	4998
2026-01-24 22:29:50.76	45.19	12.35	-29.8	-32.7	13.2	2.74e-05	0	43	102	1048576	20	5020
2026-01-24 22:29:53.76	45.65	12.53	-29.9	-33.4	13.2	2.21e-05	0	43	102	1048576	19	5380
2026-01-24 22:29:56.77	46.13	12.70	-29.9	-33.5	13.1	2.82e-05	0	43	102	1048576	19	5443
2026-01-24 22:29:59.79	46.61	12.87	-29.8	-32.8	13.2	3.28e-05	0	43	102	1048576	20	5061
2026-01-24 22:30:02.79	47.09	13.04	-29.7	-32.5	13.4	1.37e-05	0	43	102	1048576	20	4936
2026-01-24 22:30:05.80	47.58	13.21	-30.0	-33.3	12.9	3.73e-05	0	43	102	1048576	20	5256
2026-01-24 22:30:08.82	48.07	13.38	-29.6	-32.0	13.6	6.80e-06	0	43	102	1048576	20	4770
2026-01-24 22:30:11.83	48.57	13.55	-29.6	-32.7	13.8	6.10e-06	0	43	102	1048576	19	5104
2026-01-24 22:30:14.85	49.08	13.72	-29.7	-32.9	13.6	9.10e-06	0	43	102	1048576	19	5196
2026-01-24 22:30:17.86	49.59	13.89	-29.8	-33.2	13.5	1.29e-05	0	43	102	1048576	19	5290
2026-01-24 22:30:20.88	50.11	14.05	-29.8	-32.9	13.6	4.50e-06	0	43	102	1048576	19	5201
2026-01-24 22:30:23.89	50.63	14.22	-29.6	-32.5	13.8	2.20e-06	0	44	102	1048576	19	5051
2026-01-24 22:30:26.90	51.16	14.38	-29.9	-33.3	13.4	5.30e-06	0	43	102	1048576	19	5324
2026-01-24 22:30:29.91	51.69	14.55	-30.0	-33.1	13.1	1.75e-05	0	43	102	1048576	20	5171
2026-01-24 22:30:32.91	52.23	14.71	-30.0	-33.2	13.1	2.74e-05	0	44	102	1048576	20	5190
2026-01-24 22:30:35.93	52.78	14.87	-30.1	-33.4	13.0	3.12e-05	0	43	102	1048576	20	5255
2026-01-24 22:30:38.94	53.33	15.03	-30.2	-33.8	12.7	7.32e-05	0	43	102	1048576	20	5421
2026-01-24 22:30:41.95	53.88	15.19	-30.2	-33.8	12.7	8.92e-05	0	43	102	1048576	20	5414
2026-01-24 22:30:44.95	54.44	15.34	-30.7	-34.6	11.8	3.58e-04	0	43	102	1048576	21	5646
2026-01-24 22:30:47.94	55.01	15.49	-30.8	-34.9	11.6	6.95e-04	0	43	102	1048576	21	5773
2026-01-24 22:30:50.96	55.58	15.65	-30.9	-35.2	11.3	1.09e-03	0	44	102	1048576	21	5938
2026-01-24 22:30:53.97	56.16	15.80	-30.5	-33.9	12.3	2.30e-04	0	44	102	1048576	21	5372
2026-01-24 22:30:56.98	56.75	15.95	-30.4	-34.2	12.4	1.20e-04	0	43	102	1048576	20	5570
2026-01-24 22:30:59.98	57.34	16.10	-30.6	-34.3	12.1	2.85e-04	0	43	102	1048576	21	5516
2026-01-24 22:31:02.99	57.93	16.24	-30.9	-35.2	11.5	6.29e-04	0	44	102	1048576	21	5916
2026-01-24 22:31:06.01	58.54	16.39	-30.9	-35.3	11.4	9.00e-04	0	44	102	1048576	21	5960
2026-01-24 22:31:09.02	59.15	16.53	-30.6	-34.4	12.0	3.23e-04	0	43	102	1048576	21	5575
2026-01-24 22:31:12.04	59.76	16.67	-30.6	-34.3	12.1	3.95e-04	0	44	102	1048576	21	5505
2026-01-24 22:31:15.06	60.38	16.80	-30.1	-33.6	12.4	1.36e-04	0	44	102	1048576	21	5370
2026-01-24 22:31:18.06	61.00	16.94	-30.3	-33.5	12.7	8.69e-05	0	44	102	1048576	21	5175
2026-01-24 22:31:21.06	61.63	17.07	-30.4	-33.5	12.6	7.62e-05	0	44	102	1048576	21	5200
2026-01-24 22:31:24.08	62.27	17.20	-30.3	-33.9	12.8	8.54e-05	0	44	102	1048576	20	5448
2026-01-24 22:31:27.10	62.91	17.32	-30.4	-34.1	12.6	7.24e-05	0	44	102	1048576	20	5527
2026-01-24 22:31:30.12	63.56	17.45	-30.1	-33.3	13.2	7.44e-04	0	44	102	1048576	20	5189
2026-01-24 22:31:33.15	64.22	17.57	-30.2	-33.7	13.1	6.33e-04	0	44	102	1048576	20	5348
2026-01-24 22:31:36.15	64.87	17.69	-29.9	-32.7	13.6	8.96e-04	0	44	102	1048576	20	4993
2026-01-24 22:31:39.17	65.53	17.80	-30.2	-33.5	13.0	6.81e-04	0	44	102	1048576	20	5288
2026-01-24 22:31:42.19	66.20	17.91	-30.3	-33.9	12.8	5.26e-05	0	44	102	1048576	20	5446
2026-01-24 22:31:45.20	66.87	18.02	-30.2	-33.6	13.0	3.05e-05	0	44	102	1048576	20	5318
2026-01-24 22:31:48.22	67.55	18.13	-30.3	-33.4	12.7	4.93e-04	0	44	102	1048576	21	5151
2026-01-24 22:31:51.23	68.23	18.23	-30.2	-33.6	13.0	2.50e-04	0	44	102	1048576	20	5326
2026-01-24 22:31:54.23	68.91	18.33	-30.2	-33.5	13.0	4.95e-05	0	44	102	1048576	20	5298
2026-01-24 22:31:57.24	69.60	18.42	-30.3	-33.7	13.0	9.53e-05	0	44	102	1048576	20	5359
2026-01-24 22:32:00.25	70.29	18.51	-30.2	-33.5	13.2	1.82e-04	0	44	102	1048576	20	5268
2026-01-24 22:32:03.27	70.99	18.60	-30.0	-32.9	13.5	1.29e-05	0	44	102	1048576	20	5052
2026-01-24 22:32:06.29	71.69	18.68	-30.1	-33.2	13.3	1.75e-05	0	44	102	1048576	20	5170
2026-01-24 22:32:09.31	72.40	18.76	-30.1	-33.3	13.3	1.83e-05	0	44	102	1048576	20	5213
2026-01-24 22:32:12.32	73.11	18.84	-30.0	-33.0	13.4	1.67e-05	0	44	102	1048576	20	5093
2026-01-24 22:32:15.34	73.82	18.91	-29.9	-32.7	13.7	2.97e-05	0	44	102	1048576	20	4963
2026-01-24 22:32:18.36	74.54	18.97	-30.3	-34.0	12.8	5.79e-05	0	44	102	1048576	20	5464
2026-01-24 22:32:21.37	75.26	19.04	-30.4	-33.7	12.7	9.68e-05	0	44	102	1048576	21	5252
2026-01-24 22:32:24.40	75.98	19.09	-30.5	-33.8	12.6	8.01e-05	0	44	102	1048576	21	5293
2026-01-24 22:32:27.41	76.70	19.15	-30.1	-32.9	13.2	2.44e-05	0	44	102	1048576	21	4942
2026-01-24 22:32:30.42	77.43	19.20	-30.3	-33.2	13.0	3.96e-05	0	44	102	1048576	21	5074
2026-01-24 22:32:33.43	78.16	19.24	-30.4	-33.5	12.8	6.33e-05	0	44	102	1048576	21	5182
2026-01-24 22:32:36.45	78.89	19.28	-30.2	-33.2	13.0	4.11e-05	0	44	102	1048576	21	5057
2026-01-24 22:32:39.45	79.62	19.32	-30.1	-32.7	13.3	1.83e-05	0	44	102	1048576	21	4878
2026-01-24 22:32:42.46	80.35	19.35	-30.3	-33.4	12.9	5.03e-05	0	44	102	1048576	21	5137
2026-01-24 22:32:45.46	81.08	19.38	-30.6	-34.1	12.4	1.32e-04	0	44	102	1048576	21	5409
2026-01-24 22:32:48.47	81.82	19.40	-30.4	-34.0	12.8	7.32e-05	0	44	102	1048576	20	5495
2026-01-24 22:32:51.49	82.56	19.42	-30.3	-33.9	12.9	3.89e-05	0	44	102	1048576	20	5449
2026-01-24 22:32:54.50	83.30	19.43	-30.3	-33.9	12.8	5.26e-05	0	44	102	1048576	20	5437
2026-01-24 22:32:57.52	84.04	19.44	-30.2	-33.6	13.0	3.05e-05	0	44	102	1048576	20	5329
2026-01-24 22:33:00.54	84.78	19.45	-30.1	-33.3	13.3	2.05e-05	0	44	102	1048576	20	5187
2026-01-24 22:33:03.56	85.52	19.45	-30.2	-33.5	13.1	1.37e-05	0	44	102	1048576	20	5269
2026-01-24 22:33:06.57	86.26	19.44	-30.2	-33.4	13.2	1.09e-04	0	44	102	1048576	20	5249
2026-01-24 22:33:09.58	87.00	19.43	-30.3	-34.0	12.8	1.21e-04	0	44	102	1048576	20	5468
2026-01-24 22:33:12.59	87.74	19.42	-30.5	-33.9	12.5	1.01e-04	0	44	102	1048576	21	5332
2026-01-24 22:33:15.61	88.48	19.40	-30.7	-34.6	12.1	3.31e-04	0	44	102	1048576	21	5614
2026-01-24 22:33:18.61	89.21	19.37	-30.4	-33.7	12.7	1.81e-04	0	44	102	1048576	21	5245
2026-01-24 22:33:21.62	89.94	19.34	-30.3	-33.3	12.9	1.35e-04	0	44	102	1048576	21	5088
2026-01-24 22:33:24.62	90.67	19.31	-30.0	-32.6	13.4	6.17e-05	0	44	102	1048576	21	4836
2026-01-24 22:33:27.64	91.41	19.27	-30.0	-32.5	13.5	1.14e-05	0	44	102	1048576	21	4808
2026-01-24 22:33:30.65	92.14	19.23	-30.2	-33.2	13.0	3.96e-05	0	44	102	1048576	21	5057
2026-01-24 22:33:33.68	92.87	19.18	-30.1	-32.8	13.3	1.83e-05	0	44	102	1048576	21	4893
2026-01-24 22:33:36.69	93.60	19.13	-29.9	-32.1	13.7	9.10e-06	0	44	102	1048576	21	4668
2026-01-24 22:33:39.71	94.32	19.08	-29.6	-31.9	14.2	1.50e-06	0	44	102	1048576	20	4692
2026-01-24 22:33:42.71	95.04	19.02	-29.5	-31.6	14.4	7.00e-07	0	44	102	1048576	20	4587
2026-01-24 22:33:45.72	95.76	18.95	-29.5	-31.6	14.3	2.20e-06	0	44	102	1048576	20	4608
2026-01-24 22:33:48.73	96.48	18.89	-29.8	-32.6	13.7	4.50e-06	0	44	102	1048576	20	4933
2026-01-24 22:33:51.73	97.19	18.81	-29.8	-32.4	13.8	9.90e-06	0	44	102	1048576	20	4879
2026-01-24 22:33:54.74	97.89	18.74	-29.6	-32.0	14.0	4.50e-06	0	44	102	1048576	20	4756
2026-01-24 22:33:57.76	98.60	18.66	-29.5	-31.7	14.2	4.50e-06	0	44	102	1048576	20	4653
2026-01-24 22:34:00.76	99.30	18.57	-29.1	-31.2	14.9	0.00e+00	0	44	102	1048576	19	4588
2026-01-24 22:34:03.77	100.00	18.48	-29.2	-31.5	14.8	6.10e-06	0	44	102	1048576	19	4659
2026-01-24 22:34:06.79	100.69	18.39	-29.4	-31.8	14.5	0.00e+00	0	44	102	1048576	19	4781
2026-01-24 22:34:09.80	101.38	18.30	-29.3	-31.7	14.6	7.00e-07	0	44	102	1048576	19	4749
2026-01-24 22:34:12.82	102.07	18.20	-29.1	-31.2	14.9	0.00e+00	0	44	102	1048576	19	4572
2026-01-24 22:34:15.85	102.76	18.09	-28.9	-30.6	15.3	7.00e-07	0	44	102	1048576	19	4393
2026-01-24 22:34:18.86	103.43	17.99	-28.8	-31.0	15.3	0.00e+00	0	44	102	1048576	18	4619
2026-01-24 22:34:21.88	104.10	17.88	-28.8	-30.9	15.4	0.00e+00	0	44	102	1048576	18	4572
2026-01-24 22:34:24.89	104.77	17.76	-28.9	-31.1	15.2	0.00e+00	0	44	102	1048576	18	4666
2026-01-24 22:34:27.91	105.44	17.65	-29.3	-32.1	14.7	0.00e+00	0	44	102	1048576	18	4976
2026-01-24 22:34:30.92	106.09	17.53	-29.2	-31.8	14.8	0.00e+00	0	44	102	1048576	18	4879
2026-01-24 22:34:33.93	106.74	17.41	-29.2	-31.9	14.8	0.00e+00	0	44	102	1048576	18	4924
2026-01-24 22:34:36.94	107.39	17.28	-29.6	-32.5	14.1	2.20e-06	0	44	102	1048576	19	4994
2026-01-24 22:34:39.95	108.03	17.15	-29.7	-32.7	13.9	3.00e-06	0	44	102	1048576	19	5068
2026-01-24 22:34:42.96	108.67	17.02	-29.8	-33.0	13.8	1.50e-06	0	44	102	1048576	19	5187
2026-01-24 22:34:45.97	109.30	16.89	-29.9	-33.2	13.5	1.75e-05	0	44	102	1048576	19	5293
2026-01-24 22:34:48.98	109.92	16.75	-29.8	-33.0	13.7	6.10e-06	0	44	102	1048576	19	5204
2026-01-24 22:34:51.98	110.54	16.62	-29.8	-33.1	13.6	4.50e-06	0	44	102	1048576	19	5234
2026-01-24 22:34:54.99	111.16	16.48	-30.1	-33.4	13.0	3.20e-05	0	44	102	1048576	20	5277
2026-01-24 22:34:57.99	111.76	16.33	-30.5	-34.5	12.3	1.56e-04	0	44	102	1048576	20	5728
2026-01-24 22:35:01.00	112.37	16.19	-30.0	-33.2	13.1	2.89e-05	0	44	102	1048576	20	5188
2026-01-24 22:35:04.01	112.96	16.04	-30.0	-33.2	13.1	3.73e-05	0	44	102	1048576	20	5196
2026-01-24 22:35:07.02	113.56	15.89	-30.1	-33.4	12.9	5.11e-05	0	44	102	1048576	20	5288
2026-01-24 22:35:10.03	114.14	15.74	-30.3	-33.9	12.6	6.86e-05	0	44	102	1048576	20	5471
2026-01-24 22:35:13.04	114.72	15.59	-30.3	-34.0	12.5	1.04e-04	0	44	102	1048576	20	5512
2026-01-24 22:35:16.04	115.29	15.43	-30.3	-34.0	12.5	1.03e-04	0	44	102	1048576	20	5515
2026-01-24 22:35:19.05	115.86	15.28	-30.0	-33.2	12.9	4.80e-05	0	44	102	1048576	20	5224
2026-01-24 22:35:22.06	116.43	15.12	-29.9	-33.0	13.1	2.51e-05	0	44	102	1048576	20	5126
2026-01-24 22:35:25.08	116.98	14.96	-29.9	-32.9	13.2	3.35e-05	0	44	102	1048576	20	5090
2026-01-24 22:35:28.09	117.54	14.80	-30.3	-34.0	12.4	1.21e-04	0	44	102	1048576	20	5528
2026-01-24 22:35:31.10	118.08	14.64	-30.7	-34.7	11.5	8.48e-04	0	44	102	1048576	21	5749
2026-01-24 22:35:34.11	118.62	14.47	-30.3	-33.5	12.4	2.94e-04	0	44	102	1048576	21	5202
2026-01-24 22:35:37.13	119.16	14.31	-29.9	-32.4	13.1	2.82e-05	0	44	102	1048576	21	4821
2026-01-24 22:35:40.14	119.69	14.14	-30.1	-33.6	12.6	6.33e-05	0	44	102	1048576	20	5399
2026-01-24 22:35:43.16	120.21	13.97	-29.9	-33.2	12.8	8.08e-05	0	44	102	1048576	20	5242
2026-01-24 22:35:46.18	120.73	13.80	-29.7	-33.0	13.4	1.83e-05	0	44	102	1048576	19	5235
2026-01-24 22:35:49.19	121.24	13.64	-29.8	-33.2	13.3	1.67e-05	0	44	102	1048576	19	5318
2026-01-24 22:35:52.21	121.75	13.47	-30.1	-33.5	12.6	8.92e-05	0	44	102	1048576	20	5327
2026-01-24 22:35:55.24	122.25	13.29	-29.5	-31.8	13.7	9.10e-06	0	44	102	1048576	20	4727
2026-01-24 22:35:58.26	122.75	13.12	-29.4	-31.6	13.8	6.10e-06	0	44	102	1048576	20	4667
2026-01-24 22:36:01.27	123.24	12.95	-29.7	-32.5	13.3	2.28e-05	0	44	102	1048576	20	4974
2026-01-24 22:36:04.28	123.72	12.78	-29.8	-32.9	13.0	5.03e-05	0	44	102	1048576	20	5136
2026-01-24 22:36:07.29	124.20	12.60	-29.5	-32.0	13.5	1.67e-05	0	44	102	1048576	20	4793
2026-01-24 22:36:10.31	124.67	12.43	-29.6	-32.3	13.3	2.67e-05	0	44	102	1048576	20	4916
2026-01-24 22:36:13.34	125.14	12.25	-30.1	-33.7	12.4	1.43e-04	0	44	102	1048576	20	5421
2026-01-24 22:36:16.34	125.60	12.08	-30.0	-33.6	12.4	2.07e-04	0	44	102	1048576	20	5425
2026-01-24 22:36:19.34	126.06	11.90	-29.9	-33.4	12.5	3.99e-04	0	44	102	1048576	20	5374
2026-01-24 22:36:22.35	126.51	11.73	-30.0	-34.0	12.5	1.28e-03	0	44	102	1048576	19	5692
2026-01-24 22:36:25.37	126.96	11.55	-30.1	-33.7	12.2	1.34e-03	0	44	102	1048576	20	5466
2026-01-24 22:36:28.39	127.40	11.37	-30.0	-33.5	12.4	1.30e-04	0	44	102	1048576	20	5376
2026-01-24 22:36:31.41	127.83	11.20	-29.8	-33.1	12.6	9.15e-05	0	44	102	1048576	20	5253
2026-01-24 22:36:34.43	128.27	11.02	-29.9	-33.2	12.5	8.46e-05	0	44	102	1048576	20	5274
2026-01-24 22:36:37.44	128.69	10.84	-30.2	-34.1	11.9	4.42e-04	0	44	102	1048576	20	5654
2026-01-24 22:36:40.45	129.11	10.67	-30.2	-34.3	11.8	5.71e-04	0	44	102	1048576	20	5715
2026-01-24 22:36:43.47	129.53	10.49	-30.0	-33.7	12.1	3.00e-04	0	44	102	1048576	20	5490
2026-01-24 22:36:46.49	129.94	10.31	-30.0	-33.7	12.1	2.32e-04	0	44	102	1048576	20	5498
2026-01-24 22:36:49.49	130.35	10.14	-30.1	-34.0	11.9	4.10e-04	0	44	102	1048576	20	5602
2026-01-24 22:36:52.51	130.75	9.96	-30.2	-34.3	11.6	5.39e-04	0	44	102	1048576	20	5729
2026-01-24 22:36:55.52	131.15	9.78	-30.1	-33.9	11.9	3.75e-04	0	44	102	1048576	20	5573
2026-01-24 22:36:58.53	131.54	9.60	-30.1	-34.0	11.7	5.91e-04	0	44	102	1048576	20	5634
2026-01-24 22:37:01.55	131.93	9.43	-30.3	-34.6	11.3	9.54e-04	0	44	102	1048576	20	5924
2026-01-24 22:37:04.57	132.31	9.25	-30.6	-35.0	10.6	3.02e-03	0	44	102	1048576	21	6029
2026-01-24 22:37:07.57	132.69	9.07	-30.5	-34.9	10.7	3.47e-03	0	44	102	1048576	21	5943
2026-01-24 22:37:10.58	133.07	8.90	-30.4	-35.2	10.7	2.45e-03	0	44	102	1048576	20	6241
2026-01-24 22:37:13.60	133.44	8.72	-30.1	-34.4	11.3	1.30e-03	0	44	102	1048576	20	5861
2026-01-24 22:37:16.60	133.80	8.55	-30.2	-34.5	11.2	1.60e-03	0	44	102	1048576	20	5921
2026-01-24 22:37:19.62	134.16	8.37	-30.2	-34.7	11.0	1.92e-03	0	44	102	1048576	20	6014
2026-01-24 22:37:22.63	134.52	8.19	-30.1	-34.5	11.0	2.63e-03	0	44	102	1048576	20	6005
2026-01-24 22:37:25.63	134.87	8.02	-30.1	-34.9	10.7	2.75e-03	0	44	102	1048576	20	6189
2026-01-24 22:37:28.64	135.22	7.85	-30.3	-35.4	10.3	5.69e-03	0	44	102	1048576	20	6455
2026-01-24 22:37:31.66	135.57	7.67	-30.5	-35.4	9.9	6.97e-03	0	44	102	1048576	21	6346
2026-01-24 22:37:34.67	135.91	7.50	-30.2	-35.4	9.6	1.06e-02	0	44	102	1048576	21	6539
2026-01-24 22:37:37.69	136.25	7.32	-30.6	-36.0	9.3	2.19e-02	0	44	102	1048576	21	6675
2026-01-24 22:37:40.70	136.58	7.15	-30.1	-35.2	10.1	7.16e-03	0	44	102	1048576	20	6468
2026-01-24 22:37:43.70	136.91	6.98	-33.2	-47.4	3.8	1.49e+00	0	44	104	1048576	26	18470

#Closed at: 2026-01-24 22:37:45
#Recorded file [1 MB]: D:/data/31010_260125_012819.dat