passes_logs/2026/01/24/R2M6_AANII_01/R2M6_AANII_01__20260124_105733_FENGYUN_3D_rec.log

#Pass ID: 20260124_105733_FENGYUN 3D
#Satellite: FENGYUN 3D
#Configuration: FENGYUN 3D
#almurnet v.1.7.20240730
#Start time: 2026-01-24 10:57:33

#Version: 2.2.20231116
#Station: R2M6_AANII_01
#Location: 30.233357 lon 59.946436 lat
#TLE: 1 43010U 17072A   26023.60174628  .00000324  00000+0  17481-3 0  9994
#TLE: 2 43010  98.9958 355.5514 0002482  93.7422 266.4037 14.19699955424476

#Time	Az	El	Level	Level2	SNR	BER	BlckErr	Temp	State	Recorded	gain1	gain2
2026-01-24 10:57:33.98	116.22	7.03	-30.8	-34.0	5.1	7.99e-01	0	41	0	0	23	5198
2026-01-24 10:57:36.98	116.01	7.24	-30.2	-33.0	9.6	1.02e-02	0	41	102	1048576	21	5009
2026-01-24 10:57:39.99	115.80	7.46	-30.1	-32.9	9.7	7.97e-03	0	41	102	1048576	21	4947
2026-01-24 10:57:43.00	115.59	7.67	-29.6	-32.0	10.7	3.39e-03	0	41	102	1048576	20	4718
2026-01-24 10:57:46.01	115.37	7.89	-28.4	-29.9	12.8	5.60e-05	0	41	102	1048576	18	4271
2026-01-24 10:57:49.02	115.15	8.11	-27.9	-29.1	13.6	1.02e-05	0	41	102	1048576	17	4157
2026-01-24 10:57:52.03	114.92	8.33	-27.8	-29.6	13.6	5.70e-06	0	41	102	1048576	16	4392
2026-01-24 10:57:55.04	114.70	8.55	-27.7	-29.3	13.8	3.40e-06	0	42	102	1048576	16	4315
2026-01-24 10:57:58.06	114.46	8.77	-27.5	-28.8	14.1	0.00e+00	0	42	102	1048576	16	4181
2026-01-24 10:58:01.07	114.23	8.99	-27.4	-28.5	14.3	0.00e+00	0	42	102	1048576	16	4099
2026-01-24 10:58:04.09	113.99	9.22	-27.3	-28.4	14.4	0.00e+00	0	42	102	1048576	16	4065
2026-01-24 10:58:07.10	113.75	9.45	-27.2	-28.7	14.4	0.00e+00	0	42	102	1048576	15	4249
2026-01-24 10:58:10.11	113.50	9.68	-27.2	-28.6	14.4	0.00e+00	0	42	102	1048576	15	4225
2026-01-24 10:58:13.12	113.25	9.91	-27.1	-28.3	14.6	0.00e+00	0	42	102	1048576	15	4157
2026-01-24 10:58:16.14	112.99	10.14	-27.2	-28.6	14.5	0.00e+00	0	42	102	1048576	15	4220
2026-01-24 10:58:19.16	112.73	10.38	-27.1	-28.4	14.6	0.00e+00	0	42	102	1048576	15	4165
2026-01-24 10:58:22.17	112.47	10.61	-27.2	-28.5	14.5	1.10e-06	0	42	102	1048576	15	4205
2026-01-24 10:58:25.19	112.20	10.85	-26.9	-28.0	14.8	0.00e+00	0	42	102	1048576	15	4075
2026-01-24 10:58:28.21	111.93	11.09	-27.3	-28.9	14.3	0.00e+00	0	42	102	1048576	15	4304
2026-01-24 10:58:31.21	111.65	11.33	-26.7	-28.0	15.1	0.00e+00	0	42	102	1048576	14	4181
2026-01-24 10:58:34.23	111.37	11.57	-26.7	-28.0	15.2	0.00e+00	0	42	102	1048576	14	4176
2026-01-24 10:58:37.22	111.09	11.81	-26.8	-28.1	15.2	0.00e+00	0	42	102	1048576	14	4190
2026-01-24 10:58:40.23	110.79	12.06	-26.7	-27.8	15.3	0.00e+00	0	42	102	1048576	14	4121
2026-01-24 10:58:43.24	110.50	12.31	-26.7	-28.0	15.2	0.00e+00	0	42	102	1048576	14	4176
2026-01-24 10:58:46.24	110.20	12.55	-26.4	-27.3	15.6	0.00e+00	0	42	102	1048576	14	3996
2026-01-24 10:58:49.25	109.89	12.81	-26.4	-27.3	15.6	0.00e+00	0	43	102	1048576	14	3994
2026-01-24 10:58:52.26	109.58	13.06	-26.4	-27.3	15.7	0.00e+00	0	43	102	1048576	14	3998
2026-01-24 10:58:55.27	109.26	13.31	-26.2	-27.4	15.9	0.00e+00	0	43	102	1048576	13	4120
2026-01-24 10:58:58.28	108.94	13.57	-26.1	-27.2	16.0	0.00e+00	0	42	102	1048576	13	4059
2026-01-24 10:59:01.29	108.61	13.83	-26.1	-27.2	16.0	0.00e+00	0	43	102	1048576	13	4066
2026-01-24 10:59:04.31	108.27	14.09	-26.1	-27.0	16.2	0.00e+00	0	43	102	1048576	13	4013
2026-01-24 10:59:07.33	107.93	14.35	-26.0	-26.8	16.2	0.00e+00	0	43	102	1048576	13	3972
2026-01-24 10:59:10.34	107.58	14.61	-26.0	-27.0	16.2	0.00e+00	0	43	102	1048576	13	4009
2026-01-24 10:59:13.35	107.23	14.88	-26.0	-26.9	16.3	0.00e+00	0	43	102	1048576	13	3985
2026-01-24 10:59:16.35	106.87	15.14	-25.9	-26.6	16.5	0.00e+00	0	43	102	1048576	13	3906
2026-01-24 10:59:19.36	106.50	15.41	-25.6	-26.5	16.8	0.00e+00	0	43	102	1048576	12	4000
2026-01-24 10:59:22.37	106.13	15.68	-25.7	-26.7	16.7	0.00e+00	0	43	102	1048576	12	4045
2026-01-24 10:59:25.38	105.75	15.96	-25.7	-26.8	16.7	0.00e+00	0	43	102	1048576	12	4065
2026-01-24 10:59:28.39	105.36	16.23	-25.7	-26.8	16.7	0.00e+00	0	43	102	1048576	12	4068
2026-01-24 10:59:31.40	104.96	16.50	-25.9	-27.1	16.6	0.00e+00	0	43	102	1048576	12	4138
2026-01-24 10:59:34.41	104.56	16.78	-25.6	-26.5	16.9	0.00e+00	0	43	102	1048576	12	3982
2026-01-24 10:59:37.42	104.15	17.06	-25.5	-26.2	17.1	0.00e+00	0	43	102	1048576	12	3919
2026-01-24 10:59:40.43	103.73	17.34	-25.3	-26.4	17.3	0.00e+00	0	43	102	1048576	11	4063
2026-01-24 10:59:43.45	103.30	17.63	-25.2	-26.2	17.4	0.00e+00	0	43	102	1048576	11	4017
2026-01-24 10:59:46.45	102.87	17.91	-25.4	-26.7	17.2	0.00e+00	0	43	102	1048576	11	4136
2026-01-24 10:59:49.47	102.43	18.19	-25.5	-26.7	17.2	0.00e+00	0	43	102	1048576	11	4153
2026-01-24 10:59:52.48	101.98	18.48	-25.2	-26.2	17.5	0.00e+00	0	43	102	1048576	11	4016
2026-01-24 10:59:55.50	101.51	18.77	-25.3	-26.3	17.5	0.00e+00	0	43	102	1048576	11	4035
2026-01-24 10:59:58.51	101.05	19.06	-24.9	-25.4	17.9	0.00e+00	0	43	102	1048576	11	3829
2026-01-24 11:00:01.51	100.57	19.35	-24.8	-25.3	18.0	0.00e+00	0	43	102	1048576	11	3808
2026-01-24 11:00:04.52	100.08	19.64	-24.8	-25.3	18.0	0.00e+00	0	43	102	1048576	11	3799
2026-01-24 11:00:07.53	99.58	19.94	-25.0	-25.6	17.9	0.00e+00	0	43	102	1048576	11	3863
2026-01-24 11:00:10.54	99.08	20.23	-24.8	-25.3	18.0	0.00e+00	0	43	102	1048576	11	3803
2026-01-24 11:00:13.57	98.56	20.53	-24.7	-25.5	18.2	0.00e+00	0	43	102	1048576	10	3950
2026-01-24 11:00:16.58	98.03	20.83	-24.8	-25.8	18.0	0.00e+00	0	43	102	1048576	10	4042
2026-01-24 11:00:19.59	97.49	21.12	-25.0	-26.1	17.9	0.00e+00	0	43	102	1048576	10	4096
2026-01-24 11:00:22.60	96.95	21.42	-24.8	-25.7	18.1	0.00e+00	0	43	102	1048576	10	4015
2026-01-24 11:00:25.61	96.39	21.72	-24.8	-25.7	18.1	0.00e+00	0	43	102	1048576	10	3996
2026-01-24 11:00:28.63	95.82	22.02	-24.7	-25.5	18.3	0.00e+00	0	43	102	1048576	10	3941
2026-01-24 11:00:31.65	95.23	22.32	-24.7	-25.5	18.2	0.00e+00	0	43	102	1048576	10	3966
2026-01-24 11:00:34.66	94.64	22.62	-24.7	-25.6	18.2	0.00e+00	0	43	102	1048576	10	3976
2026-01-24 11:00:37.68	94.03	22.93	-24.6	-25.4	18.3	0.00e+00	0	43	102	1048576	10	3928
2026-01-24 11:00:40.69	93.42	23.23	-24.6	-25.4	18.3	0.00e+00	0	43	102	1048576	10	3932
2026-01-24 11:00:43.71	92.79	23.53	-24.4	-24.9	18.6	0.00e+00	0	43	102	1048576	10	3811
2026-01-24 11:00:46.71	92.15	23.83	-24.1	-24.8	18.9	0.00e+00	0	43	102	1048576	9	3898
2026-01-24 11:00:49.73	91.49	24.13	-24.2	-24.9	18.8	0.00e+00	0	43	102	1048576	9	3926
2026-01-24 11:00:52.73	90.83	24.43	-24.3	-25.1	18.8	0.00e+00	0	43	102	1048576	9	3972
2026-01-24 11:00:55.73	90.16	24.72	-24.0	-24.6	19.0	0.00e+00	0	43	102	1048576	9	3853
2026-01-24 11:00:58.76	89.46	25.02	-23.9	-24.3	19.2	0.00e+00	0	43	102	1048576	9	3771
2026-01-24 11:01:01.77	88.75	25.32	-23.9	-24.3	19.2	0.00e+00	0	43	102	1048576	9	3783
2026-01-24 11:01:04.79	88.03	25.61	-23.8	-24.6	19.3	0.00e+00	0	43	102	1048576	8	3959
2026-01-24 11:01:07.81	87.30	25.91	-23.9	-24.9	19.2	0.00e+00	0	43	102	1048576	8	4015
2026-01-24 11:01:10.83	86.55	26.20	-24.2	-25.5	18.8	0.00e+00	0	43	102	1048576	8	4167
2026-01-24 11:01:13.84	85.79	26.49	-24.1	-25.3	19.0	0.00e+00	0	44	102	1048576	8	4117
2026-01-24 11:01:16.84	85.02	26.77	-24.0	-25.1	19.1	0.00e+00	0	43	102	1048576	8	4063
2026-01-24 11:01:19.86	84.23	27.05	-23.8	-24.7	19.3	0.00e+00	0	43	102	1048576	8	3972
2026-01-24 11:01:22.87	83.43	27.33	-24.0	-25.1	19.1	0.00e+00	0	43	102	1048576	8	4078
2026-01-24 11:01:25.87	82.62	27.61	-23.7	-24.3	19.5	0.00e+00	0	43	102	1048576	8	3877
2026-01-24 11:01:28.89	81.79	27.88	-23.6	-24.1	19.6	0.00e+00	0	43	102	1048576	8	3843
2026-01-24 11:01:31.91	80.94	28.15	-23.8	-24.5	19.4	0.00e+00	0	43	102	1048576	8	3935
2026-01-24 11:01:34.93	80.08	28.41	-23.9	-24.8	19.2	0.00e+00	0	43	102	1048576	8	4004
2026-01-24 11:01:37.94	79.21	28.67	-23.8	-24.6	19.4	0.00e+00	0	43	102	1048576	8	3953
2026-01-24 11:01:40.96	78.32	28.92	-24.0	-25.0	19.2	0.00e+00	0	43	102	1048576	8	4050
2026-01-24 11:01:43.98	77.42	29.17	-23.7	-24.3	19.5	0.00e+00	0	43	102	1048576	8	3882
2026-01-24 11:01:46.99	76.50	29.41	-23.6	-24.3	19.6	0.00e+00	0	43	102	1048576	8	3869
2026-01-24 11:01:50.01	75.57	29.65	-23.8	-24.5	19.5	0.00e+00	0	43	102	1048576	8	3922
2026-01-24 11:01:53.02	74.63	29.88	-23.6	-24.2	19.6	0.00e+00	0	43	102	1048576	8	3863
2026-01-24 11:01:56.03	73.68	30.10	-23.3	-24.1	19.9	0.00e+00	0	43	102	1048576	7	3942
2026-01-24 11:01:59.05	72.71	30.32	-23.4	-24.3	19.8	0.00e+00	0	43	102	1048576	7	3986
2026-01-24 11:02:02.06	71.73	30.52	-23.1	-23.6	20.1	0.00e+00	0	43	102	1048576	7	3818
2026-01-24 11:02:05.07	70.74	30.72	-23.3	-24.0	20.0	0.00e+00	0	43	102	1048576	7	3908
2026-01-24 11:02:08.10	69.73	30.91	-23.3	-24.0	19.9	0.00e+00	0	43	102	1048576	7	3916
2026-01-24 11:02:11.10	68.71	31.09	-23.2	-23.9	20.0	0.00e+00	0	43	102	1048576	7	3879
2026-01-24 11:02:14.11	67.69	31.26	-23.4	-24.2	19.8	0.00e+00	0	43	102	1048576	7	3968
2026-01-24 11:02:17.12	66.65	31.42	-23.3	-24.1	20.1	0.00e+00	0	43	102	1048576	7	3915
2026-01-24 11:02:20.13	65.60	31.58	-23.4	-24.1	20.1	0.00e+00	0	43	102	1048576	7	3925
2026-01-24 11:02:23.15	64.54	31.72	-23.1	-23.6	20.4	0.00e+00	0	43	102	1048576	7	3806
2026-01-24 11:02:26.15	63.48	31.85	-23.2	-23.8	20.2	0.00e+00	0	43	102	1048576	7	3853
2026-01-24 11:02:29.17	62.40	31.97	-23.1	-23.6	20.3	0.00e+00	0	43	102	1048576	7	3801
2026-01-24 11:02:32.18	61.32	32.08	-23.1	-23.6	20.3	0.00e+00	0	43	102	1048576	7	3812
2026-01-24 11:02:35.19	60.23	32.18	-23.1	-23.5	20.4	0.00e+00	0	43	102	1048576	7	3785
2026-01-24 11:02:38.20	59.13	32.27	-23.0	-23.3	20.4	0.00e+00	0	43	102	1048576	7	3744
2026-01-24 11:02:41.23	58.02	32.34	-23.3	-23.9	20.2	0.00e+00	0	43	102	1048576	7	3883
2026-01-24 11:02:44.25	56.91	32.41	-23.1	-23.5	20.4	0.00e+00	0	44	102	1048576	7	3779
2026-01-24 11:02:47.26	55.80	32.46	-23.1	-23.5	20.4	0.00e+00	0	43	102	1048576	7	3781
2026-01-24 11:02:50.26	54.70	32.50	-22.8	-23.0	20.6	0.00e+00	0	43	102	1048576	7	3684
2026-01-24 11:02:53.28	53.58	32.52	-22.9	-23.7	20.5	0.00e+00	0	43	102	1048576	6	3936
2026-01-24 11:02:56.28	52.47	32.54	-22.9	-23.7	20.5	0.00e+00	0	43	102	1048576	6	3949
2026-01-24 11:02:59.30	51.34	32.54	-23.2	-24.3	20.2	0.00e+00	0	43	102	1048576	6	4092
2026-01-24 11:03:02.31	50.23	32.53	-23.1	-23.5	20.4	0.00e+00	0	43	102	1048576	7	3783
2026-01-24 11:03:05.32	49.11	32.51	-23.0	-23.4	20.4	0.00e+00	0	43	102	1048576	7	3765
2026-01-24 11:03:08.33	48.00	32.47	-22.7	-23.2	20.8	0.00e+00	0	43	102	1048576	6	3815
2026-01-24 11:03:11.34	46.89	32.43	-23.0	-23.9	20.4	0.00e+00	0	43	102	1048576	6	3993
2026-01-24 11:03:14.36	45.78	32.37	-23.1	-24.0	20.4	0.00e+00	0	43	102	1048576	6	4014
2026-01-24 11:03:17.37	44.68	32.30	-23.3	-24.5	20.1	0.00e+00	0	43	102	1048576	6	4132
2026-01-24 11:03:20.39	43.58	32.22	-23.1	-24.0	20.4	0.00e+00	0	43	102	1048576	6	4018
2026-01-24 11:03:23.41	42.48	32.12	-23.0	-23.9	20.4	0.00e+00	0	43	102	1048576	6	3990
2026-01-24 11:03:26.41	41.40	32.02	-22.9	-23.7	20.5	0.00e+00	0	44	102	1048576	6	3928
2026-01-24 11:03:29.43	40.32	31.90	-23.0	-23.9	20.4	0.00e+00	0	44	102	1048576	6	3977
2026-01-24 11:03:32.44	39.25	31.77	-22.9	-23.6	20.5	0.00e+00	0	43	102	1048576	6	3926
2026-01-24 11:03:35.45	38.20	31.63	-23.1	-24.1	20.3	0.00e+00	0	43	102	1048576	6	4029
2026-01-24 11:03:38.46	37.15	31.49	-23.2	-24.3	20.2	0.00e+00	0	44	102	1048576	6	4080
2026-01-24 11:03:41.47	36.11	31.33	-22.9	-23.6	20.6	0.00e+00	0	43	102	1048576	6	3905
2026-01-24 11:03:44.47	35.08	31.16	-23.3	-24.5	20.1	0.00e+00	0	43	102	1048576	6	4124
2026-01-24 11:03:47.49	34.06	30.98	-23.2	-24.2	20.2	0.00e+00	0	43	102	1048576	6	4059
2026-01-24 11:03:50.50	33.05	30.80	-23.5	-24.8	19.9	0.00e+00	0	43	102	1048576	6	4214
2026-01-24 11:03:53.53	32.05	30.60	-23.5	-24.5	19.9	0.00e+00	0	43	102	1048576	7	4023
2026-01-24 11:03:56.53	31.07	30.40	-23.4	-24.3	19.9	0.00e+00	0	43	102	1048576	7	3966
2026-01-24 11:03:59.54	30.10	30.19	-23.3	-24.1	20.1	0.00e+00	0	43	102	1048576	7	3911
2026-01-24 11:04:02.55	29.14	29.97	-23.6	-24.6	19.8	0.00e+00	0	43	102	1048576	7	4048
2026-01-24 11:04:05.56	28.20	29.75	-23.4	-24.3	19.9	0.00e+00	0	44	102	1048576	7	3972
2026-01-24 11:04:08.57	27.27	29.51	-23.3	-24.1	20.0	0.00e+00	0	43	102	1048576	7	3917
2026-01-24 11:04:11.57	26.36	29.28	-23.5	-24.3	19.9	0.00e+00	0	43	102	1048576	7	3979
2026-01-24 11:04:14.58	25.45	29.03	-23.3	-23.9	20.1	0.00e+00	0	43	102	1048576	7	3876
2026-01-24 11:04:17.60	24.56	28.78	-23.5	-24.5	19.8	0.00e+00	0	43	102	1048576	7	4014
2026-01-24 11:04:20.61	23.69	28.52	-23.6	-24.6	19.7	0.00e+00	0	43	102	1048576	7	4033
2026-01-24 11:04:23.63	22.82	28.26	-23.3	-24.1	20.0	0.00e+00	0	43	102	1048576	7	3924
2026-01-24 11:04:26.65	21.97	28.00	-23.3	-24.1	20.0	0.00e+00	0	43	102	1048576	7	3920
2026-01-24 11:04:29.66	21.14	27.73	-23.4	-24.3	19.8	0.00e+00	0	44	102	1048576	7	3973
2026-01-24 11:04:32.67	20.32	27.45	-23.5	-24.3	19.8	0.00e+00	0	43	102	1048576	7	3979
2026-01-24 11:04:35.69	19.52	27.18	-23.7	-24.8	19.6	0.00e+00	0	43	102	1048576	7	4094
2026-01-24 11:04:38.72	18.72	26.90	-23.7	-24.8	19.6	0.00e+00	0	43	102	1048576	7	4098
2026-01-24 11:04:41.72	17.95	26.61	-23.7	-24.9	19.5	0.00e+00	0	43	102	1048576	7	4114
2026-01-24 11:04:44.72	17.19	26.33	-23.4	-24.3	19.8	0.00e+00	0	43	102	1048576	7	3968
2026-01-24 11:04:47.73	16.44	26.04	-23.4	-24.3	19.8	0.00e+00	0	44	102	1048576	7	3968
2026-01-24 11:04:50.74	15.71	25.75	-23.9	-25.2	19.3	0.00e+00	0	43	102	1048576	7	4199
2026-01-24 11:04:53.75	14.99	25.46	-23.9	-25.3	19.2	0.00e+00	0	43	102	1048576	7	4231
2026-01-24 11:04:56.76	14.28	25.16	-23.9	-25.1	19.3	0.00e+00	0	44	102	1048576	7	4175
2026-01-24 11:04:59.76	13.59	24.87	-24.4	-25.7	18.8	0.00e+00	0	43	102	1048576	8	4218
2026-01-24 11:05:02.77	12.91	24.57	-24.1	-24.7	19.1	0.00e+00	0	43	102	1048576	9	3852
2026-01-24 11:05:05.79	12.23	24.27	-24.3	-25.0	18.9	0.00e+00	0	43	102	1048576	9	3916
2026-01-24 11:05:08.79	11.58	23.98	-24.0	-24.5	19.1	0.00e+00	0	44	102	1048576	9	3813
2026-01-24 11:05:11.81	10.94	23.68	-24.1	-24.7	19.0	0.00e+00	0	43	102	1048576	9	3853
2026-01-24 11:05:14.82	10.31	23.38	-24.1	-24.7	19.0	0.00e+00	0	43	102	1048576	9	3843
2026-01-24 11:05:17.83	9.69	23.08	-24.0	-24.4	19.1	0.00e+00	0	43	102	1048576	9	3787
2026-01-24 11:05:20.85	9.08	22.78	-24.0	-24.4	19.1	0.00e+00	0	43	102	1048576	9	3780
2026-01-24 11:05:23.86	8.48	22.48	-24.2	-24.8	18.9	0.00e+00	0	44	102	1048576	9	3877
2026-01-24 11:05:26.88	7.90	22.18	-24.1	-24.6	19.0	0.00e+00	0	43	102	1048576	9	3833
2026-01-24 11:05:29.90	7.33	21.88	-24.2	-24.8	18.9	0.00e+00	0	43	102	1048576	9	3875
2026-01-24 11:05:32.91	6.77	21.58	-24.1	-24.8	18.9	0.00e+00	0	43	102	1048576	9	3871
2026-01-24 11:05:35.93	6.21	21.28	-24.1	-24.8	18.9	0.00e+00	0	43	102	1048576	9	3870
2026-01-24 11:05:38.95	5.67	20.98	-24.0	-24.5	19.0	0.00e+00	0	44	102	1048576	9	3805
2026-01-24 11:05:41.96	5.14	20.69	-24.3	-25.1	18.7	0.00e+00	0	44	102	1048576	9	3946
2026-01-24 11:05:44.98	4.62	20.39	-24.3	-25.1	18.7	0.00e+00	0	43	102	1048576	9	3954
2026-01-24 11:05:48.00	4.12	20.10	-24.4	-25.3	18.6	0.00e+00	0	44	102	1048576	9	4003
2026-01-24 11:05:51.01	3.62	19.80	-24.5	-25.6	18.4	0.00e+00	0	43	102	1048576	9	4068
2026-01-24 11:05:54.01	3.13	19.51	-24.5	-25.6	18.4	0.00e+00	0	43	102	1048576	9	4080
2026-01-24 11:05:57.02	2.65	19.22	-24.7	-25.9	18.3	0.00e+00	0	43	102	1048576	9	4142
2026-01-24 11:06:00.04	2.18	18.93	-24.8	-26.3	18.1	0.00e+00	0	43	102	1048576	9	4236
2026-01-24 11:06:03.05	1.72	18.64	-25.0	-26.2	17.9	0.00e+00	0	43	102	1048576	10	4101
2026-01-24 11:06:06.06	1.27	18.36	-25.0	-26.0	17.9	0.00e+00	0	43	102	1048576	10	4064
2026-01-24 11:06:09.07	0.82	18.07	-25.2	-26.5	17.7	0.00e+00	0	44	102	1048576	10	4187
2026-01-24 11:06:12.08	0.39	17.79	-25.4	-26.9	17.5	0.00e+00	0	43	102	1048576	10	4277
2026-01-24 11:06:15.09	359.96	17.51	-25.3	-26.8	17.5	0.00e+00	0	43	102	1048576	10	4261
2026-01-24 11:06:18.11	359.54	17.22	-25.3	-26.2	17.6	0.00e+00	0	44	102	1048576	11	4002
2026-01-24 11:06:21.12	359.13	16.95	-25.4	-26.3	17.4	0.00e+00	0	43	102	1048576	11	4038
2026-01-24 11:06:24.13	358.73	16.67	-25.5	-26.7	17.2	0.00e+00	0	43	102	1048576	11	4128
2026-01-24 11:06:27.14	358.33	16.39	-25.7	-27.0	17.1	0.00e+00	0	43	102	1048576	11	4207
2026-01-24 11:06:30.16	357.94	16.12	-25.8	-27.4	16.8	0.00e+00	0	44	102	1048576	11	4300
2026-01-24 11:06:33.16	357.56	15.85	-25.8	-27.3	16.9	0.00e+00	0	43	102	1048576	11	4280
2026-01-24 11:06:36.18	357.18	15.58	-26.0	-27.4	16.5	0.00e+00	0	44	102	1048576	12	4191
2026-01-24 11:06:39.19	356.82	15.31	-25.9	-26.9	16.7	0.00e+00	0	44	102	1048576	12	4083
2026-01-24 11:06:42.21	356.46	15.04	-25.9	-27.1	16.6	0.00e+00	0	44	102	1048576	12	4117
2026-01-24 11:06:45.22	356.10	14.78	-25.9	-27.1	16.6	0.00e+00	0	44	102	1048576	12	4123
2026-01-24 11:06:48.23	355.75	14.51	-26.0	-27.3	16.5	0.00e+00	0	43	102	1048576	12	4175
2026-01-24 11:06:51.24	355.41	14.25	-25.9	-27.1	16.5	0.00e+00	0	44	102	1048576	12	4129
2026-01-24 11:06:54.25	355.08	13.99	-25.9	-27.2	16.5	0.00e+00	0	44	102	1048576	12	4145
2026-01-24 11:06:57.26	354.75	13.73	-26.1	-27.5	16.3	0.00e+00	0	43	102	1048576	12	4225
2026-01-24 11:07:00.27	354.43	13.48	-26.1	-27.5	16.3	0.00e+00	0	44	102	1048576	12	4223
2026-01-24 11:07:03.28	354.11	13.22	-26.2	-27.7	16.1	0.00e+00	0	44	102	1048576	12	4295
2026-01-24 11:07:06.30	353.79	12.97	-26.3	-28.0	16.0	0.00e+00	0	43	102	1048576	12	4368
2026-01-24 11:07:09.30	353.49	12.72	-26.5	-28.3	15.8	0.00e+00	0	43	102	1048576	12	4461
2026-01-24 11:07:12.32	353.19	12.47	-26.6	-28.1	15.6	0.00e+00	0	44	102	1048576	13	4277
2026-01-24 11:07:15.33	352.89	12.22	-26.5	-27.9	15.7	1.10e-06	0	43	102	1048576	13	4243
2026-01-24 11:07:18.33	352.60	11.98	-26.5	-27.9	15.7	0.00e+00	0	43	102	1048576	13	4226
2026-01-24 11:07:21.34	352.32	11.73	-26.5	-27.8	15.7	0.00e+00	0	43	102	1048576	13	4204
2026-01-24 11:07:24.36	352.03	11.49	-26.6	-28.1	15.6	0.00e+00	0	44	102	1048576	13	4290
2026-01-24 11:07:27.38	351.76	11.25	-26.6	-28.0	15.6	0.00e+00	0	44	102	1048576	13	4271
2026-01-24 11:07:30.38	351.49	11.01	-26.5	-28.0	15.6	0.00e+00	0	43	102	1048576	13	4248
2026-01-24 11:07:33.39	351.22	10.78	-26.6	-28.1	15.5	0.00e+00	0	44	102	1048576	13	4302
2026-01-24 11:07:36.40	350.96	10.54	-26.6	-28.1	15.5	0.00e+00	0	43	102	1048576	13	4277
2026-01-24 11:07:39.42	350.70	10.31	-26.8	-28.5	15.2	0.00e+00	0	43	102	1048576	13	4415
2026-01-24 11:07:42.43	350.44	10.07	-27.2	-29.0	14.7	1.10e-06	0	43	102	1048576	14	4438
2026-01-24 11:07:45.45	350.19	9.84	-27.1	-28.9	14.8	0.00e+00	0	43	102	1048576	14	4395
2026-01-24 11:07:48.46	349.95	9.61	-27.3	-29.3	14.5	0.00e+00	0	43	102	1048576	14	4522
2026-01-24 11:07:51.47	349.70	9.39	-27.4	-29.4	14.4	0.00e+00	0	43	102	1048576	14	4556
2026-01-24 11:07:54.48	349.47	9.16	-27.1	-28.3	14.7	0.00e+00	0	43	102	1048576	15	4136
2026-01-24 11:07:57.50	349.23	8.93	-27.0	-28.1	14.8	0.00e+00	0	43	102	1048576	15	4087
2026-01-24 11:08:00.52	349.00	8.71	-27.0	-28.1	14.8	0.00e+00	0	44	102	1048576	15	4085
2026-01-24 11:08:03.54	348.77	8.49	-27.1	-28.4	14.6	0.00e+00	0	43	102	1048576	15	4146
2026-01-24 11:08:06.54	348.55	8.27	-27.1	-28.3	14.6	0.00e+00	0	43	102	1048576	15	4130
2026-01-24 11:08:09.55	348.33	8.05	-27.3	-28.7	14.4	0.00e+00	0	43	102	1048576	15	4239
2026-01-24 11:08:12.56	348.12	7.84	-27.5	-29.1	14.1	0.00e+00	0	43	102	1048576	15	4368
2026-01-24 11:08:15.58	347.90	7.62	-27.4	-29.1	14.1	0.00e+00	0	43	102	1048576	15	4351
2026-01-24 11:08:18.59	347.69	7.41	-27.5	-29.3	13.9	0.00e+00	0	44	102	1048576	15	4421
2026-01-24 11:08:21.60	347.49	7.19	-27.6	-29.4	13.9	0.00e+00	0	44	102	1048576	15	4446
2026-01-24 11:08:24.61	347.28	6.98	-33.7	-44.7	3.8	8.46e-01	0	43	104	1048576	27	12808

#Closed at: 2026-01-24 11:08:26
#Recorded file [1 MB]: D:/data/31010_260124_135735.dat