passes_logs/2026/01/24/R2M6_AANII_01/R2M6_AANII_01__20260124_002654_NOAA_20_JPSS-1_rec.log

#Pass ID: 20260124_002654_NOAA 20 (JPSS-1)
#Satellite: NOAA 20 (JPSS-1)
#Configuration: NOAA 20
#almurnet v.1.7.20240730
#Start time: 2026-01-24 00:26:54

#Version: 2.2.20231116
#Station: R2M6_AANII_01
#Location: 30.233357 lon 59.946436 lat
#TLE: 1 43013U 17073A   26022.94240312  .00000200  00000+0  11574-3 0  9998
#TLE: 2 43013  98.7645 323.7982 0001179  28.0279 332.0961 14.19539020423863

#Time	Az	El	Level	Level2	SNR	BER	BlckErr	Temp	State	Recorded	gain1	gain2
2026-01-24 00:26:54.95	17.61	7.05	-32.4	-40.9	4.4	1.39e+00	0	41	0	0	24	9611
2026-01-24 00:26:57.97	17.60	7.28	-32.6	-41.8	5.0	6.71e-01	0	41	102	1048576	25	10330
2026-01-24 00:27:00.98	17.60	7.51	-32.3	-40.2	6.2	3.50e-01	0	42	102	1048576	24	8854
2026-01-24 00:27:03.98	17.59	7.75	-32.1	-38.4	7.6	1.18e-01	0	42	102	1048576	24	7462
2026-01-24 00:27:07.00	17.59	7.99	-32.0	-38.4	8.0	6.85e-02	0	42	102	1048576	23	7586
2026-01-24 00:27:10.01	17.58	8.23	-31.8	-37.8	8.5	3.97e-02	0	42	102	1048576	23	7155
2026-01-24 00:27:13.01	17.57	8.47	-31.7	-37.4	8.9	4.08e-02	0	42	102	1048576	23	6878
2026-01-24 00:27:16.02	17.57	8.72	-31.5	-36.4	9.7	1.51e-02	0	42	102	1048576	23	6334
2026-01-24 00:27:19.04	17.56	8.97	-31.7	-37.1	9.2	2.09e-02	0	42	102	1048576	23	6715
2026-01-24 00:27:22.05	17.55	9.22	-31.5	-36.2	9.9	8.74e-03	0	42	102	1048576	23	6218
2026-01-24 00:27:25.07	17.54	9.47	-31.5	-36.6	10.0	8.22e-03	0	43	102	1048576	22	6534
2026-01-24 00:27:28.08	17.53	9.73	-31.7	-37.0	9.4	1.53e-02	0	43	102	1048576	23	6605
2026-01-24 00:27:31.09	17.53	9.99	-31.7	-37.0	9.3	1.95e-02	0	43	102	1048576	23	6638
2026-01-24 00:27:34.10	17.52	10.25	-31.7	-36.7	9.6	1.51e-02	0	43	102	1048576	23	6456
2026-01-24 00:27:37.11	17.51	10.52	-31.8	-37.1	9.3	1.43e-02	0	43	102	1048576	23	6654
2026-01-24 00:27:40.12	17.50	10.78	-31.7	-36.7	9.7	1.29e-02	0	43	102	1048576	23	6438
2026-01-24 00:27:43.13	17.49	11.05	-31.5	-36.5	10.2	5.48e-03	0	43	102	1048576	22	6451
2026-01-24 00:27:46.15	17.48	11.33	-31.7	-36.9	9.5	1.38e-02	0	43	102	1048576	23	6564
2026-01-24 00:27:49.15	17.46	11.60	-31.4	-36.0	10.6	3.88e-03	0	43	102	1048576	22	6181
2026-01-24 00:27:52.16	17.45	11.88	-31.4	-36.2	10.5	4.20e-03	0	43	102	1048576	22	6259
2026-01-24 00:27:55.17	17.44	12.16	-31.1	-35.1	11.3	1.14e-03	0	43	102	1048576	22	5741
2026-01-24 00:27:58.18	17.43	12.45	-31.0	-35.2	11.6	7.39e-04	0	43	102	1048576	21	5889
2026-01-24 00:28:01.19	17.41	12.74	-31.1	-35.1	11.4	1.49e-03	0	43	102	1048576	22	5720
2026-01-24 00:28:04.21	17.40	13.03	-31.2	-35.3	11.1	1.33e-03	0	43	102	1048576	22	5829
2026-01-24 00:28:07.23	17.39	13.33	-31.1	-35.0	11.4	8.33e-04	0	43	102	1048576	22	5688
2026-01-24 00:28:10.23	17.37	13.63	-31.2	-35.3	11.3	1.32e-03	0	43	102	1048576	22	5809
2026-01-24 00:28:13.23	17.36	13.93	-30.9	-35.1	11.8	5.19e-04	0	43	102	1048576	21	5815
2026-01-24 00:28:16.25	17.34	14.24	-31.1	-34.9	11.6	8.40e-04	0	43	102	1048576	22	5617
2026-01-24 00:28:19.27	17.32	14.55	-31.0	-34.8	11.8	8.43e-04	0	43	102	1048576	22	5541
2026-01-24 00:28:22.29	17.31	14.87	-31.1	-35.1	11.5	9.90e-04	0	43	102	1048576	22	5706
2026-01-24 00:28:25.31	17.29	15.19	-31.2	-35.2	11.5	1.05e-03	0	43	102	1048576	22	5743
2026-01-24 00:28:28.31	17.27	15.52	-31.0	-34.7	11.8	4.87e-04	0	43	102	1048576	22	5536
2026-01-24 00:28:31.32	17.25	15.84	-30.8	-34.7	12.1	3.34e-04	0	43	102	1048576	21	5635
2026-01-24 00:28:34.32	17.23	16.18	-30.6	-34.1	12.0	4.00e-04	0	43	102	1048576	21	5380
2026-01-24 00:28:37.34	17.21	16.51	-30.4	-33.8	13.1	2.54e-04	0	43	102	1048576	20	5370
2026-01-24 00:28:40.36	17.19	16.86	-30.6	-34.1	12.7	3.04e-04	0	43	102	1048576	21	5355
2026-01-24 00:28:43.38	17.17	17.21	-30.3	-33.8	13.2	2.77e-04	0	43	102	1048576	20	5339
2026-01-24 00:28:46.38	17.14	17.56	-30.5	-33.8	12.9	2.09e-03	0	43	102	1048576	21	5236
2026-01-24 00:28:49.39	17.12	17.92	-30.7	-34.2	12.6	2.17e-03	0	43	102	1048576	21	5406
2026-01-24 00:28:52.41	17.09	18.28	-30.7	-34.3	12.5	2.00e-03	0	43	102	1048576	21	5447
2026-01-24 00:28:55.43	17.07	18.65	-30.3	-33.7	13.4	2.61e-04	0	44	102	1048576	20	5296
2026-01-24 00:28:58.43	17.04	19.02	-30.7	-34.3	12.6	3.07e-04	0	44	102	1048576	21	5442
2026-01-24 00:29:01.44	17.01	19.40	-30.4	-33.5	13.1	2.19e-03	0	44	102	1048576	21	5118
2026-01-24 00:29:04.44	16.99	19.78	-30.2	-33.4	13.6	2.04e-03	0	43	102	1048576	20	5174
2026-01-24 00:29:07.44	16.96	20.17	-30.0	-32.8	14.0	2.07e-03	0	44	102	1048576	20	4966
2026-01-24 00:29:10.46	16.93	20.57	-30.0	-32.8	14.0	1.79e-03	0	44	102	1048576	20	4955
2026-01-24 00:29:13.47	16.89	20.98	-29.9	-32.9	14.3	1.80e-03	0	43	102	1048576	19	5113
2026-01-24 00:29:16.49	16.86	21.39	-29.9	-33.1	14.2	1.14e-05	0	44	102	1048576	19	5148
2026-01-24 00:29:19.50	16.83	21.81	-29.9	-32.9	14.3	7.00e-07	0	44	102	1048576	19	5099
2026-01-24 00:29:22.51	16.79	22.23	-30.0	-33.2	14.2	1.84e-03	0	44	102	1048576	19	5179
2026-01-24 00:29:25.52	16.75	22.66	-30.2	-33.2	13.7	1.51e-03	0	44	102	1048576	20	5108
2026-01-24 00:29:28.53	16.72	23.10	-30.3	-33.6	13.5	1.52e-03	0	43	102	1048576	20	5267
2026-01-24 00:29:31.55	16.68	23.55	-30.1	-33.1	13.9	1.43e-03	0	44	102	1048576	20	5056
2026-01-24 00:29:34.55	16.64	24.00	-30.1	-32.9	14.1	1.50e-06	0	44	102	1048576	20	4975
2026-01-24 00:29:37.56	16.59	24.47	-30.1	-32.8	14.1	2.20e-06	0	44	102	1048576	20	4956
2026-01-24 00:29:40.56	16.55	24.94	-30.3	-33.4	13.8	6.10e-06	0	44	102	1048576	20	5158
2026-01-24 00:29:43.58	16.50	25.42	-30.3	-33.4	13.7	7.60e-06	0	44	102	1048576	20	5172
2026-01-24 00:29:46.59	16.45	25.90	-30.5	-34.0	12.5	2.29e-03	0	44	102	1048576	20	5407
2026-01-24 00:29:49.60	16.41	26.40	-30.5	-33.6	13.2	9.10e-06	0	44	102	1048576	21	5111
2026-01-24 00:29:52.62	16.35	26.91	-30.8	-34.2	12.9	3.58e-05	0	44	102	1048576	21	5354
2026-01-24 00:29:55.63	16.30	27.43	-30.9	-34.7	12.5	9.15e-05	0	44	102	1048576	21	5575
2026-01-24 00:29:58.65	16.24	27.95	-31.1	-34.5	12.5	1.42e-04	0	44	102	1048576	22	5370
2026-01-24 00:30:01.66	16.19	28.49	-31.4	-35.5	11.7	4.55e-04	0	44	102	1048576	22	5801
2026-01-24 00:30:04.68	16.12	29.04	-31.8	-36.3	10.8	4.02e-03	0	44	102	1048576	23	6063
2026-01-24 00:30:07.69	16.06	29.60	-31.9	-36.7	10.6	4.91e-03	0	44	102	1048576	23	6242
2026-01-24 00:30:10.70	16.00	30.17	-32.0	-36.5	10.4	8.24e-03	0	44	102	1048576	24	6062
2026-01-24 00:30:13.71	15.93	30.75	-32.0	-36.8	10.5	7.29e-03	0	44	102	1048576	23	6315
2026-01-24 00:30:16.72	15.86	31.34	-32.0	-36.8	10.5	6.73e-03	0	44	102	1048576	23	6300
2026-01-24 00:30:19.74	15.78	31.95	-32.1	-36.7	10.2	7.23e-03	0	44	102	1048576	24	6145
2026-01-24 00:30:22.76	15.70	32.56	-31.8	-36.4	10.9	4.30e-03	0	44	102	1048576	23	6074
2026-01-24 00:30:25.77	15.62	33.20	-32.0	-36.8	10.6	4.95e-03	0	44	102	1048576	23	6260
2026-01-24 00:30:28.77	15.54	33.84	-31.2	-34.9	12.3	3.64e-03	0	44	102	1048576	22	5509
2026-01-24 00:30:31.77	15.45	34.49	-30.8	-34.1	13.1	2.95e-03	0	44	102	1048576	21	5303
2026-01-24 00:30:34.79	15.35	35.16	-30.7	-33.9	13.3	2.85e-03	0	44	102	1048576	21	5236
2026-01-24 00:30:37.80	15.26	35.85	-29.8	-32.6	14.8	1.22e-03	0	44	102	1048576	19	4963
2026-01-24 00:30:40.81	15.15	36.55	-29.3	-31.9	15.6	1.23e-03	0	44	102	1048576	18	4838
2026-01-24 00:30:43.83	15.04	37.27	-29.3	-31.9	15.6	0.00e+00	0	44	102	1048576	18	4835
2026-01-24 00:30:46.84	14.93	38.00	-29.3	-31.9	15.6	2.41e-03	0	44	102	1048576	18	4818
2026-01-24 00:30:49.85	14.81	38.75	-29.4	-32.1	15.5	1.98e-03	0	44	102	1048576	18	4894
2026-01-24 00:30:52.86	14.69	39.51	-29.7	-32.3	15.1	1.96e-03	0	44	102	1048576	19	4834
2026-01-24 00:30:55.86	14.56	40.29	-29.8	-32.4	15.0	1.46e-03	0	44	102	1048576	19	4884
2026-01-24 00:30:58.87	14.42	41.09	-29.8	-32.6	14.8	1.49e-03	0	44	102	1048576	19	4947
2026-01-24 00:31:01.87	14.27	41.91	-29.9	-32.7	14.8	0.00e+00	0	44	102	1048576	19	4988
2026-01-24 00:31:04.89	14.12	42.74	-29.9	-32.8	14.8	0.00e+00	0	44	102	1048576	19	5017
2026-01-24 00:31:07.91	13.95	43.60	-30.0	-32.5	14.6	0.00e+00	0	44	102	1048576	20	4813
2026-01-24 00:31:10.92	13.78	44.47	-30.4	-33.6	13.8	6.80e-06	0	44	102	1048576	20	5222
2026-01-24 00:31:13.94	13.59	45.37	-31.2	-35.0	12.3	9.89e-04	0	44	102	1048576	22	5533
2026-01-24 00:31:16.93	13.40	46.28	-31.6	-35.4	11.7	3.56e-04	0	44	102	1048576	23	5603
2026-01-24 00:31:19.94	13.19	47.21	-32.0	-36.4	10.7	2.67e-03	0	44	102	1048576	24	5970
2026-01-24 00:31:22.95	12.97	48.16	-31.9	-35.9	11.0	2.53e-03	0	44	102	1048576	24	5725
2026-01-24 00:31:25.97	12.73	49.14	-31.3	-35.2	12.2	1.59e-04	0	44	102	1048576	22	5616
2026-01-24 00:31:28.98	12.48	50.14	-30.8	-34.3	13.1	4.19e-05	0	44	102	1048576	21	5377
2026-01-24 00:31:32.00	12.21	51.16	-29.9	-32.4	14.6	0.00e+00	0	44	102	1048576	20	4786
2026-01-24 00:31:35.00	11.92	52.19	-29.4	-31.5	15.5	0.00e+00	0	44	102	1048576	19	4600
2026-01-24 00:31:38.01	11.60	53.26	-29.4	-32.0	15.5	1.14e-04	0	44	102	1048576	18	4864
2026-01-24 00:31:41.04	11.26	54.35	-29.5	-32.2	15.4	0.00e+00	0	44	102	1048576	18	4924
2026-01-24 00:31:44.05	10.90	55.45	-29.7	-32.3	15.0	0.00e+00	0	44	102	1048576	19	4867
2026-01-24 00:31:47.06	10.50	56.58	-31.3	-35.0	12.3	3.58e-05	0	44	102	1048576	22	5545
2026-01-24 00:31:50.08	10.06	57.73	-31.9	-36.5	10.9	1.62e-03	0	44	102	1048576	23	6130
2026-01-24 00:31:53.08	9.59	58.90	-32.2	-37.1	10.1	8.95e-03	0	44	102	1048576	24	6309
2026-01-24 00:31:56.09	9.08	60.09	-31.2	-34.8	12.4	9.41e-04	0	44	102	1048576	22	5446
2026-01-24 00:31:59.10	8.51	61.31	-30.2	-32.7	14.2	2.14e-04	0	44	102	1048576	21	4782
2026-01-24 00:32:02.12	7.87	62.54	-30.5	-33.3	13.9	3.00e-06	0	44	102	1048576	21	4968
2026-01-24 00:32:05.13	7.17	63.79	-29.6	-31.7	15.2	0.00e+00	0	44	102	1048576	20	4539
2026-01-24 00:32:08.14	6.39	65.06	-30.1	-32.9	14.5	0.00e+00	0	44	102	1048576	20	4934
2026-01-24 00:32:11.14	5.52	66.35	-30.7	-33.9	13.4	2.13e-04	0	44	102	1048576	21	5216
2026-01-24 00:32:14.15	4.53	67.65	-30.4	-33.5	14.1	3.33e-04	0	44	102	1048576	20	5141
2026-01-24 00:32:17.16	3.40	68.96	-31.0	-34.6	13.0	4.37e-04	0	44	102	1048576	21	5469
2026-01-24 00:32:20.18	2.11	70.29	-31.3	-35.0	12.5	7.84e-04	0	44	102	1048576	22	5513
2026-01-24 00:32:23.19	0.61	71.62	-30.9	-34.4	13.2	1.54e-03	0	44	102	1048576	21	5379
2026-01-24 00:32:26.20	358.87	72.96	-30.0	-32.6	14.7	0.00e+00	0	44	102	1048576	20	4833
2026-01-24 00:32:29.21	356.81	74.29	-31.2	-34.7	12.7	5.79e-05	0	44	102	1048576	22	5402
2026-01-24 00:32:32.22	354.35	75.61	-30.5	-32.8	14.1	3.00e-06	0	44	102	1048576	22	4670
2026-01-24 00:32:35.23	351.38	76.92	-31.3	-35.0	12.6	7.78e-05	0	44	102	1048576	22	5482
2026-01-24 00:32:38.23	347.74	78.19	-31.5	-35.2	12.1	9.92e-04	0	44	102	1048576	23	5471
2026-01-24 00:32:41.25	343.19	79.42	-30.7	-33.3	13.6	4.20e-04	0	44	102	1048576	22	4853
2026-01-24 00:32:44.25	337.49	80.56	-31.0	-34.5	13.2	5.30e-06	0	44	102	1048576	21	5430
2026-01-24 00:32:47.27	330.23	81.61	-31.8	-35.8	11.7	4.43e-04	0	44	102	1048576	23	5761
2026-01-24 00:32:50.28	321.11	82.48	-31.7	-35.7	11.9	3.88e-04	0	44	102	1048576	23	5657
2026-01-24 00:32:53.29	309.93	83.12	-30.8	-33.1	13.6	1.37e-05	0	44	102	1048576	23	4675
2026-01-24 00:32:56.30	297.05	83.46	-31.6	-35.2	12.1	1.36e-04	0	44	102	1048576	23	5475
2026-01-24 00:32:59.30	283.56	83.44	-32.1	-36.4	10.9	2.56e-03	0	44	102	1048576	24	5895
2026-01-24 00:33:02.31	270.79	83.07	-31.3	-36.0	10.3	3.79e-03	0	44	102	1048576	24	6161
2026-01-24 00:33:05.33	259.76	82.40	-33.0	-38.9	8.0	5.42e-02	0	44	102	1048576	26	7140
2026-01-24 00:33:08.35	250.81	81.51	-31.9	-36.1	11.0	2.70e-03	0	44	102	1048576	24	5788
2026-01-24 00:33:11.36	243.73	80.46	-31.7	-35.4	11.4	1.96e-03	0	44	102	1048576	24	5486
2026-01-24 00:33:14.37	238.15	79.30	-30.4	-33.2	13.9	1.50e-06	0	44	102	1048576	21	4941
2026-01-24 00:33:17.38	233.71	78.06	-31.4	-35.5	12.0	3.49e-04	0	44	102	1048576	22	5740
2026-01-24 00:33:20.40	230.12	76.78	-31.3	-35.2	12.3	2.30e-04	0	44	102	1048576	22	5597
2026-01-24 00:33:23.42	227.20	75.47	-31.5	-35.3	11.8	1.30e-03	0	44	102	1048576	23	5550
2026-01-24 00:33:26.43	224.78	74.14	-29.8	-32.0	14.8	1.17e-04	0	44	102	1048576	20	4661
2026-01-24 00:33:29.43	222.77	72.81	-29.4	-31.6	15.4	1.86e-04	0	44	102	1048576	19	4625
2026-01-24 00:33:32.45	221.05	71.47	-28.7	-30.9	16.5	0.00e+00	0	44	102	1048576	17	4615
2026-01-24 00:33:35.46	219.58	70.13	-28.7	-30.8	16.4	0.00e+00	0	44	102	1048576	17	4608
2026-01-24 00:33:38.48	218.30	68.80	-31.0	-34.7	12.8	1.86e-04	0	44	102	1048576	21	5535
2026-01-24 00:33:41.49	217.19	67.49	-32.2	-37.0	10.1	4.56e-03	0	44	102	1048576	24	6294
2026-01-24 00:33:44.50	216.21	66.18	-31.9	-36.0	10.8	6.31e-03	0	44	102	1048576	24	5815
2026-01-24 00:33:47.49	215.35	64.90	-30.8	-33.6	13.2	1.38e-04	0	44	102	1048576	22	5000
2026-01-24 00:33:50.51	214.57	63.63	-29.8	-32.1	14.7	2.47e-04	0	44	102	1048576	20	4675
2026-01-24 00:33:53.52	213.88	62.38	-29.7	-32.2	15.1	0.00e+00	0	44	102	1048576	19	4830
2026-01-24 00:33:56.53	213.26	61.14	-30.0	-32.6	14.6	0.00e+00	0	44	102	1048576	20	4853
2026-01-24 00:33:59.54	212.69	59.93	-31.7	-36.1	11.1	8.01e-04	0	44	102	1048576	23	5969
2026-01-24 00:34:02.55	212.18	58.74	-32.0	-36.6	10.2	9.05e-03	0	44	102	1048576	24	6122
2026-01-24 00:34:05.55	211.71	57.57	-31.9	-36.0	10.6	7.03e-03	0	44	102	1048576	24	5794
2026-01-24 00:34:08.57	211.28	56.41	-30.8	-33.7	13.0	3.91e-04	0	44	102	1048576	22	5047
2026-01-24 00:34:11.60	210.88	55.28	-29.7	-32.3	14.9	3.96e-05	0	44	102	1048576	19	4871
2026-01-24 00:34:14.62	210.52	54.17	-29.3	-31.7	15.6	0.00e+00	0	44	102	1048576	18	4784
2026-01-24 00:34:17.63	210.18	53.08	-28.6	-30.6	16.5	0.00e+00	0	44	102	1048576	17	4549
2026-01-24 00:34:20.64	209.87	52.02	-28.5	-30.5	16.5	0.00e+00	0	44	102	1048576	17	4512
2026-01-24 00:34:23.63	209.58	50.99	-30.3	-33.5	13.8	1.50e-06	0	44	102	1048576	20	5194
2026-01-24 00:34:26.65	209.31	49.97	-31.8	-36.5	10.7	2.12e-03	0	44	102	1048576	23	6170
2026-01-24 00:34:29.67	209.06	48.97	-30.8	-34.8	10.9	3.91e-03	0	44	102	1048576	24	5658
2026-01-24 00:34:32.68	208.82	47.99	-31.9	-36.7	10.4	1.40e-03	0	44	102	1048576	23	6271
2026-01-24 00:34:35.70	208.60	47.03	-31.6	-35.9	11.0	3.31e-03	0	44	102	1048576	23	5885
2026-01-24 00:34:38.69	208.40	46.10	-31.6	-35.8	11.2	9.44e-04	0	44	102	1048576	23	5823
2026-01-24 00:34:41.70	208.20	45.19	-31.5	-35.9	11.4	7.10e-04	0	44	102	1048576	22	6003
2026-01-24 00:34:44.71	208.02	44.30	-32.1	-37.1	9.8	6.86e-03	0	44	102	1048576	24	6378
2026-01-24 00:34:47.72	207.84	43.42	-31.6	-35.8	11.1	3.40e-03	0	44	102	1048576	23	5847
2026-01-24 00:34:50.72	207.68	42.57	-31.0	-34.5	12.4	9.86e-04	0	44	102	1048576	22	5364
2026-01-24 00:34:53.73	207.53	41.74	-31.5	-35.9	11.4	1.91e-03	0	44	102	1048576	22	5998
2026-01-24 00:34:56.73	207.38	40.92	-31.9	-36.7	10.4	3.73e-03	0	44	102	1048576	23	6272
2026-01-24 00:34:59.75	207.24	40.12	-31.7	-36.2	10.8	3.67e-03	0	44	102	1048576	23	6042
2026-01-24 00:35:02.76	207.11	39.34	-31.5	-35.7	11.2	4.13e-03	0	44	102	1048576	23	5790
2026-01-24 00:35:05.77	206.98	38.57	-30.9	-34.3	12.4	2.88e-04	0	44	102	1048576	22	5324
2026-01-24 00:35:08.77	206.86	37.82	-31.3	-35.3	11.8	6.31e-04	0	44	102	1048576	22	5720
2026-01-24 00:35:11.79	206.75	37.09	-31.1	-34.8	12.1	9.09e-04	0	44	102	1048576	22	5532
2026-01-24 00:35:14.79	206.64	36.38	-30.9	-34.8	12.4	1.53e-03	0	44	102	1048576	21	5636
2026-01-24 00:35:17.81	206.54	35.67	-30.7	-34.2	12.9	2.13e-03	0	44	102	1048576	21	5368
2026-01-24 00:35:20.82	206.44	34.99	-30.6	-33.8	13.1	2.14e-03	0	44	102	1048576	21	5220
2026-01-24 00:35:23.83	206.35	34.31	-30.5	-33.6	13.2	2.16e-04	0	44	102	1048576	21	5144
2026-01-24 00:35:26.84	206.26	33.66	-30.5	-33.6	13.2	2.77e-03	0	44	102	1048576	21	5133
2026-01-24 00:35:29.86	206.17	33.01	-31.2	-35.3	11.7	3.78e-03	0	44	102	1048576	22	5719
2026-01-24 00:35:32.87	206.09	32.38	-31.7	-36.3	10.7	7.21e-03	0	44	102	1048576	23	6094
2026-01-24 00:35:35.87	206.01	31.76	-31.7	-36.1	10.7	6.02e-03	0	44	102	1048576	23	6029
2026-01-24 00:35:38.88	205.93	31.16	-31.5	-35.9	11.2	3.25e-03	0	44	102	1048576	22	6031
2026-01-24 00:35:41.90	205.86	30.56	-31.2	-35.3	11.7	1.44e-03	0	44	102	1048576	22	5737
2026-01-24 00:35:44.91	205.79	29.98	-31.0	-34.5	12.2	2.23e-04	0	44	102	1048576	22	5408
2026-01-24 00:35:47.92	205.72	29.41	-31.0	-35.0	12.2	2.08e-04	0	44	102	1048576	21	5719
2026-01-24 00:35:50.95	205.66	28.85	-31.2	-35.2	11.7	1.14e-03	0	44	102	1048576	22	5736
2026-01-24 00:35:53.96	205.60	28.30	-31.3	-35.7	11.3	2.26e-03	0	44	102	1048576	22	5966
2026-01-24 00:35:56.97	205.54	27.77	-31.2	-35.2	11.7	2.37e-03	0	44	102	1048576	22	5732
2026-01-24 00:35:59.98	205.48	27.24	-31.0	-34.8	11.9	3.04e-04	0	44	102	1048576	22	5547
2026-01-24 00:36:02.97	205.42	26.73	-31.1	-35.1	11.7	5.93e-04	0	44	102	1048576	22	5669
2026-01-24 00:36:05.98	205.37	26.22	-30.8	-34.6	12.3	1.79e-04	0	44	102	1048576	21	5580
2026-01-24 00:36:08.99	205.32	25.72	-30.7	-34.3	12.5	1.03e-04	0	44	102	1048576	21	5463
2026-01-24 00:36:11.99	205.27	25.24	-30.5	-33.9	12.8	7.62e-05	0	44	102	1048576	21	5289
2026-01-24 00:36:15.00	205.22	24.76	-30.4	-34.0	13.1	3.58e-05	0	44	102	1048576	20	5444
2026-01-24 00:36:18.01	205.18	24.28	-30.3	-33.6	13.3	1.29e-05	0	44	102	1048576	20	5296
2026-01-24 00:36:21.02	205.13	23.82	-30.4	-34.0	13.0	2.67e-05	0	44	102	1048576	20	5450
2026-01-24 00:36:24.03	205.09	23.37	-30.3	-33.7	13.2	1.67e-05	0	44	102	1048576	20	5332
2026-01-24 00:36:27.05	205.05	22.92	-30.4	-33.4	13.1	3.50e-05	0	44	102	1048576	21	5119
2026-01-24 00:36:30.06	205.01	22.48	-30.5	-33.9	12.7	5.79e-05	0	44	102	1048576	21	5309
2026-01-24 00:36:33.07	204.97	22.05	-30.5	-33.8	12.8	7.40e-05	0	44	102	1048576	21	5264
2026-01-24 00:36:36.09	204.94	21.62	-30.6	-34.1	12.6	9.61e-05	0	44	102	1048576	21	5367
2026-01-24 00:36:39.10	204.90	21.20	-30.8	-34.7	12.2	2.38e-03	0	44	102	1048576	21	5620
2026-01-24 00:36:42.11	204.86	20.79	-31.2	-35.5	11.2	3.55e-03	0	44	102	1048576	22	5898
2026-01-24 00:36:45.12	204.83	20.39	-31.3	-35.6	11.1	4.08e-03	0	44	102	1048576	22	5948
2026-01-24 00:36:48.14	204.80	19.99	-31.2	-35.5	11.2	1.28e-03	0	44	102	1048576	22	5891
2026-01-24 00:36:51.15	204.77	19.60	-30.9	-35.0	11.8	8.03e-04	0	44	102	1048576	21	5792
2026-01-24 00:36:54.15	204.74	19.21	-30.6	-34.1	12.4	1.06e-03	0	44	102	1048576	21	5406
2026-01-24 00:36:57.17	204.71	18.83	-30.7	-34.4	12.2	2.24e-03	0	44	102	1048576	21	5523
2026-01-24 00:37:00.18	204.68	18.46	-30.9	-35.0	11.8	2.71e-03	0	44	102	1048576	21	5802
2026-01-24 00:37:03.20	204.65	18.09	-31.1	-35.2	11.3	3.42e-03	0	44	102	1048576	22	5788
2026-01-24 00:37:06.20	204.62	17.72	-31.2	-35.7	11.0	4.04e-03	0	44	102	1048576	22	5989
2026-01-24 00:37:09.22	204.60	17.37	-31.3	-35.9	10.7	5.10e-03	0	44	102	1048576	22	6110
2026-01-24 00:37:12.23	204.57	17.01	-31.2	-35.6	11.0	1.87e-03	0	44	102	1048576	22	5963
2026-01-24 00:37:15.25	204.55	16.66	-31.4	-36.1	10.5	3.74e-03	0	44	102	1048576	22	6231
2026-01-24 00:37:18.27	204.53	16.32	-31.5	-36.1	10.2	8.72e-03	0	44	102	1048576	23	6105
2026-01-24 00:37:21.29	204.50	15.98	-31.4	-36.2	10.4	7.82e-03	0	44	102	1048576	22	6257
2026-01-24 00:37:24.30	204.48	15.65	-31.3	-36.1	10.5	6.36e-03	0	44	102	1048576	22	6229
2026-01-24 00:37:27.32	204.46	15.32	-31.3	-36.0	10.5	6.46e-03	0	44	102	1048576	22	6164
2026-01-24 00:37:30.33	204.44	14.99	-31.2	-35.8	10.6	2.97e-03	0	44	102	1048576	22	6089
2026-01-24 00:37:33.34	204.42	14.67	-31.3	-35.9	10.6	3.46e-03	0	44	102	1048576	22	6118
2026-01-24 00:37:36.34	204.40	14.36	-31.2	-35.8	10.7	3.20e-03	0	44	102	1048576	22	6090
2026-01-24 00:37:39.34	204.38	14.05	-31.3	-35.9	10.5	4.49e-03	0	44	102	1048576	22	6171
2026-01-24 00:37:42.35	204.36	13.74	-31.2	-35.8	10.5	4.46e-03	0	44	102	1048576	22	6118
2026-01-24 00:37:45.36	204.34	13.43	-31.2	-35.6	10.7	4.00e-03	0	44	102	1048576	22	6016
2026-01-24 00:37:48.38	204.33	13.13	-31.0	-35.2	11.0	2.11e-03	0	44	102	1048576	22	5820
2026-01-24 00:37:51.39	204.31	12.84	-30.9	-35.3	11.2	1.48e-03	0	44	102	1048576	21	6003
2026-01-24 00:37:54.40	204.29	12.54	-31.0	-35.2	11.0	2.54e-03	0	44	102	1048576	22	5809
2026-01-24 00:37:57.42	204.28	12.25	-31.1	-35.6	10.7	3.98e-03	0	44	102	1048576	22	6027
2026-01-24 00:38:00.42	204.26	11.97	-31.2	-35.8	10.5	4.85e-03	0	44	102	1048576	22	6103
2026-01-24 00:38:03.44	204.25	11.68	-31.2	-35.9	10.4	5.50e-03	0	44	102	1048576	22	6180
2026-01-24 00:38:06.46	204.23	11.40	-31.3	-36.4	10.0	9.68e-03	0	44	102	1048576	22	6436
2026-01-24 00:38:09.46	204.22	11.13	-31.1	-35.6	10.5	5.06e-03	0	44	102	1048576	22	6038
2026-01-24 00:38:12.45	204.21	10.86	-31.1	-35.7	10.4	4.26e-03	0	44	102	1048576	22	6081
2026-01-24 00:38:15.47	204.19	10.58	-31.0	-35.4	10.6	4.44e-03	0	44	102	1048576	22	5958
2026-01-24 00:38:18.48	204.18	10.32	-31.1	-35.8	10.3	5.72e-03	0	44	102	1048576	22	6171
2026-01-24 00:38:21.49	204.17	10.05	-31.3	-36.2	10.0	7.45e-03	0	44	102	1048576	22	6375
2026-01-24 00:38:24.51	204.16	9.79	-31.4	-36.7	9.6	1.17e-02	0	44	102	1048576	22	6645
2026-01-24 00:38:27.51	204.15	9.53	-31.6	-37.1	8.8	3.33e-02	0	44	102	1048576	23	6781
2026-01-24 00:38:30.53	204.14	9.27	-31.5	-36.8	9.1	2.50e-02	0	44	102	1048576	23	6598
2026-01-24 00:38:33.55	204.12	9.02	-31.4	-37.0	9.3	2.13e-02	0	44	102	1048576	22	6825
2026-01-24 00:38:36.56	204.11	8.77	-31.3	-36.7	9.5	1.40e-02	0	44	102	1048576	22	6648
2026-01-24 00:38:39.58	204.10	8.52	-31.4	-36.8	9.4	1.63e-02	0	44	102	1048576	22	6744
2026-01-24 00:38:42.59	204.09	8.27	-31.5	-37.3	8.9	1.94e-02	0	44	102	1048576	22	7055
2026-01-24 00:38:45.59	204.08	8.03	-31.4	-36.9	9.2	1.86e-02	0	44	102	1048576	22	6828
2026-01-24 00:38:48.59	204.08	7.79	-31.6	-37.4	8.4	3.92e-02	0	44	102	1048576	23	6996
2026-01-24 00:38:51.60	204.07	7.55	-31.6	-37.6	8.2	5.69e-02	0	44	102	1048576	23	7158
2026-01-24 00:38:54.62	204.06	7.31	-31.5	-37.3	8.3	5.43e-02	0	44	102	1048576	23	7014
2026-01-24 00:38:57.64	204.05	7.07	-32.9	-47.2	3.8	3.12e-01	0	44	104	1048576	25	18484

#Closed at: 2026-01-24 00:38:59
#Recorded file [1 MB]: D:/data/31010_260124_032656.dat