passes_logs/2026/01/24/R2M6_AANII_01/R2M6_AANII_01__20260124_141925_FENGYUN_3D_rec.log

#Pass ID: 20260124_141925_FENGYUN 3D
#Satellite: FENGYUN 3D
#Configuration: FENGYUN 3D
#almurnet v.1.7.20240730
#Start time: 2026-01-24 14:19:26

#Version: 2.2.20231116
#Station: R2M6_AANII_01
#Location: 30.233357 lon 59.946436 lat
#TLE: 1 43010U 17072A   26024.16556041  .00000326  00000+0  17587-3 0  9998
#TLE: 2 43010  98.9960 356.1242 0002491  92.2506 267.8955 14.19700380424559

#Time	Az	El	Level	Level2	SNR	BER	BlckErr	Temp	State	Recorded	gain1	gain2
2026-01-24 14:19:26.22	225.40	7.06	-28.1	-29.8	5.7	7.49e-01	0	40	0	0	17	4401
2026-01-24 14:19:29.22	225.74	7.23	-29.2	-32.1	10.8	3.95e-03	0	41	102	1048576	18	5042
2026-01-24 14:19:32.24	226.09	7.40	-28.3	-29.9	12.3	3.51e-04	0	41	102	1048576	18	4298
2026-01-24 14:19:35.26	226.44	7.57	-27.8	-29.5	13.1	6.63e-05	0	41	102	1048576	16	4400
2026-01-24 14:19:38.27	226.80	7.74	-27.0	-28.3	14.0	5.70e-06	0	41	102	1048576	15	4162
2026-01-24 14:19:41.28	227.16	7.90	-27.0	-28.3	13.9	1.48e-05	0	41	102	1048576	15	4184
2026-01-24 14:19:44.30	227.52	8.07	-27.0	-28.3	14.0	2.20e-06	0	41	102	1048576	15	4172
2026-01-24 14:19:47.31	227.89	8.24	-26.5	-27.7	14.7	0.00e+00	0	41	102	1048576	14	4113
2026-01-24 14:19:50.32	228.26	8.41	-26.5	-27.5	14.8	0.00e+00	0	41	102	1048576	14	4060
2026-01-24 14:19:53.33	228.63	8.58	-26.2	-27.3	15.2	0.00e+00	0	41	102	1048576	13	4108
2026-01-24 14:19:56.33	229.01	8.75	-26.2	-27.4	15.2	0.00e+00	0	41	102	1048576	13	4128
2026-01-24 14:19:59.34	229.40	8.92	-26.4	-27.7	15.0	0.00e+00	0	41	102	1048576	13	4224
2026-01-24 14:20:02.37	229.79	9.09	-26.5	-28.2	14.8	0.00e+00	0	41	102	1048576	13	4346
2026-01-24 14:20:05.38	230.18	9.26	-26.4	-27.8	15.0	0.00e+00	0	42	102	1048576	13	4244
2026-01-24 14:20:08.39	230.58	9.43	-26.3	-27.7	15.1	0.00e+00	0	42	102	1048576	13	4205
2026-01-24 14:20:11.41	230.98	9.61	-26.2	-27.4	15.2	0.00e+00	0	42	102	1048576	13	4147
2026-01-24 14:20:14.42	231.39	9.78	-26.3	-27.6	15.1	0.00e+00	0	42	102	1048576	13	4175
2026-01-24 14:20:17.43	231.80	9.95	-26.3	-27.6	15.1	1.10e-06	0	42	102	1048576	13	4191
2026-01-24 14:20:20.45	232.21	10.12	-26.2	-27.3	15.3	0.00e+00	0	42	102	1048576	13	4097
2026-01-24 14:20:23.46	232.63	10.29	-26.0	-26.9	15.6	0.00e+00	0	42	102	1048576	13	4005
2026-01-24 14:20:26.48	233.06	10.45	-25.9	-26.7	15.7	2.20e-06	0	42	102	1048576	13	3953
2026-01-24 14:20:29.48	233.49	10.62	-25.6	-26.6	16.0	2.20e-06	0	42	102	1048576	12	4022
2026-01-24 14:20:32.49	233.92	10.79	-25.5	-26.3	16.2	0.00e+00	0	42	102	1048576	12	3954
2026-01-24 14:20:35.50	234.36	10.96	-25.7	-26.8	16.0	0.00e+00	0	42	102	1048576	12	4079
2026-01-24 14:20:38.51	234.81	11.13	-25.8	-26.9	15.9	0.00e+00	0	42	102	1048576	12	4105
2026-01-24 14:20:41.53	235.26	11.30	-25.9	-27.1	15.8	1.10e-06	0	42	102	1048576	12	4153
2026-01-24 14:20:44.52	235.71	11.46	-25.7	-26.8	16.0	0.00e+00	0	42	102	1048576	12	4068
2026-01-24 14:20:47.54	236.17	11.63	-25.8	-27.0	15.9	0.00e+00	0	42	102	1048576	12	4135
2026-01-24 14:20:50.55	236.63	11.80	-25.9	-27.2	15.8	0.00e+00	0	42	102	1048576	12	4187
2026-01-24 14:20:53.57	237.10	11.96	-25.9	-27.2	15.8	0.00e+00	0	42	102	1048576	12	4171
2026-01-24 14:20:56.58	237.58	12.13	-26.0	-27.3	15.8	0.00e+00	0	42	102	1048576	12	4205
2026-01-24 14:20:59.59	238.06	12.29	-25.8	-26.9	16.0	0.00e+00	0	42	102	1048576	12	4105
2026-01-24 14:21:02.60	238.54	12.46	-25.5	-26.3	16.3	0.00e+00	0	42	102	1048576	12	3957
2026-01-24 14:21:05.62	239.03	12.62	-25.4	-26.1	16.5	0.00e+00	0	42	102	1048576	12	3898
2026-01-24 14:21:08.62	239.53	12.78	-25.4	-26.2	16.4	0.00e+00	0	42	102	1048576	12	3909
2026-01-24 14:21:11.64	240.03	12.94	-25.4	-26.1	16.4	0.00e+00	0	42	102	1048576	12	3903
2026-01-24 14:21:14.65	240.54	13.10	-25.5	-26.2	16.4	0.00e+00	0	42	102	1048576	12	3922
2026-01-24 14:21:17.66	241.05	13.26	-25.4	-26.0	16.5	0.00e+00	0	42	102	1048576	12	3872
2026-01-24 14:21:20.68	241.57	13.42	-25.3	-25.9	16.6	0.00e+00	0	43	102	1048576	12	3845
2026-01-24 14:21:23.68	242.09	13.58	-25.4	-26.6	16.6	0.00e+00	0	42	102	1048576	11	4124
2026-01-24 14:21:26.69	242.61	13.74	-25.5	-26.8	16.5	0.00e+00	0	43	102	1048576	11	4171
2026-01-24 14:21:29.71	243.15	13.89	-25.4	-26.5	16.7	0.00e+00	0	43	102	1048576	11	4090
2026-01-24 14:21:32.73	243.69	14.04	-25.5	-26.7	16.5	0.00e+00	0	42	102	1048576	11	4157
2026-01-24 14:21:35.72	244.23	14.20	-25.5	-26.7	16.6	0.00e+00	0	43	102	1048576	11	4153
2026-01-24 14:21:38.73	244.78	14.35	-25.2	-26.1	16.9	0.00e+00	0	43	102	1048576	11	4003
2026-01-24 14:21:41.74	245.33	14.50	-25.2	-26.1	17.0	0.00e+00	0	43	102	1048576	11	3983
2026-01-24 14:21:44.76	245.89	14.64	-25.1	-25.9	17.1	0.00e+00	0	43	102	1048576	11	3945
2026-01-24 14:21:47.77	246.46	14.79	-25.4	-26.5	16.7	0.00e+00	0	42	102	1048576	11	4105
2026-01-24 14:21:50.77	247.03	14.93	-25.5	-26.8	16.6	0.00e+00	0	42	102	1048576	11	4176
2026-01-24 14:21:53.78	247.60	15.08	-25.5	-26.7	16.7	0.00e+00	0	43	102	1048576	11	4139
2026-01-24 14:21:56.78	248.18	15.21	-25.3	-26.4	16.8	0.00e+00	0	43	102	1048576	11	4065
2026-01-24 14:21:59.79	248.77	15.35	-24.9	-25.4	17.4	0.00e+00	0	42	102	1048576	11	3824
2026-01-24 14:22:02.79	249.36	15.49	-24.9	-25.5	17.3	0.00e+00	0	43	102	1048576	11	3836
2026-01-24 14:22:05.81	249.96	15.62	-24.9	-25.5	17.3	0.00e+00	0	43	102	1048576	11	3845
2026-01-24 14:22:08.81	250.56	15.76	-24.9	-25.5	17.3	0.00e+00	0	42	102	1048576	11	3853
2026-01-24 14:22:11.83	251.17	15.89	-24.9	-25.4	17.4	0.00e+00	0	43	102	1048576	11	3827
2026-01-24 14:22:14.84	251.78	16.01	-24.9	-25.4	17.4	0.00e+00	0	43	102	1048576	11	3828
2026-01-24 14:22:17.85	252.40	16.14	-24.9	-25.5	17.3	0.00e+00	0	43	102	1048576	11	3861
2026-01-24 14:22:20.86	253.02	16.26	-24.9	-25.5	17.3	0.00e+00	0	43	102	1048576	11	3854
2026-01-24 14:22:23.86	253.64	16.38	-24.7	-25.5	17.6	0.00e+00	0	43	102	1048576	10	3947
2026-01-24 14:22:26.86	254.27	16.50	-24.8	-25.7	17.5	0.00e+00	0	43	102	1048576	10	3991
2026-01-24 14:22:29.86	254.91	16.61	-24.8	-25.8	17.4	0.00e+00	0	43	102	1048576	10	4021
2026-01-24 14:22:32.88	255.55	16.72	-24.7	-25.4	17.5	0.00e+00	0	43	102	1048576	10	3937
2026-01-24 14:22:35.89	256.20	16.83	-24.6	-25.4	17.5	0.00e+00	0	43	102	1048576	10	3932
2026-01-24 14:22:38.90	256.85	16.93	-24.7	-25.5	17.5	0.00e+00	0	43	102	1048576	10	3952
2026-01-24 14:22:41.91	257.50	17.04	-24.7	-25.5	17.5	0.00e+00	0	43	102	1048576	10	3960
2026-01-24 14:22:44.92	258.16	17.14	-24.6	-25.3	17.8	0.00e+00	0	43	102	1048576	10	3895
2026-01-24 14:22:47.94	258.83	17.23	-24.5	-25.1	17.9	0.00e+00	0	43	102	1048576	10	3849
2026-01-24 14:22:50.94	259.49	17.32	-24.4	-24.9	17.9	0.00e+00	0	43	102	1048576	10	3821
2026-01-24 14:22:53.96	260.16	17.41	-24.7	-25.6	17.6	0.00e+00	0	43	102	1048576	10	3967
2026-01-24 14:22:56.96	260.84	17.50	-24.9	-25.9	17.4	0.00e+00	0	43	102	1048576	10	4058
2026-01-24 14:22:59.98	261.52	17.58	-24.7	-25.6	17.6	0.00e+00	0	43	102	1048576	10	3975
2026-01-24 14:23:03.00	262.20	17.66	-24.5	-25.2	17.9	0.00e+00	0	43	102	1048576	10	3873
2026-01-24 14:23:06.02	262.89	17.73	-24.5	-25.1	17.9	0.00e+00	0	43	102	1048576	10	3862
2026-01-24 14:23:09.02	263.57	17.80	-24.5	-25.1	17.9	0.00e+00	0	43	102	1048576	10	3855
2026-01-24 14:23:12.03	264.27	17.87	-24.7	-25.5	17.7	0.00e+00	0	43	102	1048576	10	3946
2026-01-24 14:23:15.04	264.96	17.94	-24.6	-25.4	17.7	0.00e+00	0	43	102	1048576	10	3922
2026-01-24 14:23:18.05	265.66	17.99	-24.5	-25.1	17.9	0.00e+00	0	43	102	1048576	10	3841
2026-01-24 14:23:21.06	266.36	18.05	-24.5	-25.1	17.9	0.00e+00	0	43	102	1048576	10	3849
2026-01-24 14:23:24.08	267.06	18.10	-24.4	-24.8	18.0	0.00e+00	0	43	102	1048576	10	3791
2026-01-24 14:23:27.10	267.77	18.15	-24.4	-25.5	18.0	0.00e+00	0	43	102	1048576	9	4049
2026-01-24 14:23:30.12	268.48	18.19	-24.3	-25.2	18.1	0.00e+00	0	43	102	1048576	9	3992
2026-01-24 14:23:33.12	269.18	18.23	-24.4	-25.3	18.1	0.00e+00	0	43	102	1048576	9	4005
2026-01-24 14:23:36.14	269.89	18.27	-24.4	-25.4	18.0	0.00e+00	0	43	102	1048576	9	4022
2026-01-24 14:23:39.15	270.60	18.30	-24.5	-25.7	17.9	0.00e+00	0	43	102	1048576	9	4104
2026-01-24 14:23:42.17	271.32	18.32	-24.2	-25.0	18.2	0.00e+00	0	43	102	1048576	9	3949
2026-01-24 14:23:45.18	272.03	18.35	-24.2	-24.9	18.3	2.20e-06	0	43	102	1048576	9	3910
2026-01-24 14:23:48.19	272.75	18.36	-24.3	-25.1	18.2	1.10e-06	0	43	102	1048576	9	3960
2026-01-24 14:23:51.19	273.46	18.38	-24.4	-25.3	18.1	0.00e+00	0	43	102	1048576	9	4006
2026-01-24 14:23:54.21	274.18	18.39	-24.4	-25.4	18.0	2.20e-06	0	43	102	1048576	9	4037
2026-01-24 14:23:57.21	274.89	18.39	-24.6	-25.9	17.8	0.00e+00	0	43	102	1048576	9	4143
2026-01-24 14:24:00.22	275.61	18.39	-24.5	-25.5	18.0	0.00e+00	0	43	102	1048576	9	4055
2026-01-24 14:24:03.23	276.32	18.39	-24.6	-25.9	17.7	0.00e+00	0	43	102	1048576	9	4165
2026-01-24 14:24:06.24	277.04	18.38	-24.5	-25.5	17.9	0.00e+00	0	43	102	1048576	9	4065
2026-01-24 14:24:09.25	277.75	18.37	-24.3	-25.2	18.1	0.00e+00	0	43	102	1048576	9	3997
2026-01-24 14:24:12.26	278.46	18.35	-24.5	-25.6	17.9	0.00e+00	0	43	102	1048576	9	4075
2026-01-24 14:24:15.27	279.18	18.33	-24.4	-25.3	18.1	0.00e+00	0	43	102	1048576	9	4008
2026-01-24 14:24:18.27	279.89	18.30	-24.4	-25.4	18.0	0.00e+00	0	43	102	1048576	9	4037
2026-01-24 14:24:21.29	280.60	18.27	-24.5	-25.5	17.9	0.00e+00	0	43	102	1048576	9	4070
2026-01-24 14:24:24.30	281.31	18.24	-24.3	-25.2	18.1	0.00e+00	0	43	102	1048576	9	3989
2026-01-24 14:24:27.31	282.02	18.20	-24.3	-25.2	18.1	0.00e+00	0	43	102	1048576	9	3975
2026-01-24 14:24:30.32	282.72	18.16	-24.3	-25.2	18.1	0.00e+00	0	43	102	1048576	9	3988
2026-01-24 14:24:33.33	283.43	18.11	-24.4	-25.4	18.0	0.00e+00	0	43	102	1048576	9	4039
2026-01-24 14:24:36.35	284.13	18.06	-24.5	-25.6	17.9	0.00e+00	0	43	102	1048576	9	4085
2026-01-24 14:24:39.36	284.83	18.01	-24.7	-26.0	17.7	0.00e+00	0	43	102	1048576	9	4178
2026-01-24 14:24:42.37	285.52	17.95	-24.9	-26.5	17.4	0.00e+00	0	43	102	1048576	9	4316
2026-01-24 14:24:45.39	286.22	17.89	-25.1	-26.3	17.3	0.00e+00	0	43	102	1048576	10	4152
2026-01-24 14:24:48.40	286.91	17.82	-25.0	-26.2	17.3	0.00e+00	0	43	102	1048576	10	4138
2026-01-24 14:24:51.41	287.60	17.75	-24.9	-26.0	17.4	0.00e+00	0	43	102	1048576	10	4088
2026-01-24 14:24:54.42	288.28	17.68	-24.9	-25.9	17.5	0.00e+00	0	43	102	1048576	10	4046
2026-01-24 14:24:57.41	288.96	17.60	-24.8	-25.7	17.6	0.00e+00	0	43	102	1048576	10	3998
2026-01-24 14:25:00.43	289.64	17.52	-24.9	-25.9	17.5	0.00e+00	0	43	102	1048576	10	4044
2026-01-24 14:25:03.45	290.31	17.44	-24.8	-25.7	17.6	0.00e+00	0	43	102	1048576	10	3994
2026-01-24 14:25:06.47	290.99	17.35	-25.1	-26.4	17.2	0.00e+00	0	43	102	1048576	10	4173
2026-01-24 14:25:09.48	291.65	17.26	-25.0	-26.2	17.3	0.00e+00	0	43	102	1048576	10	4132
2026-01-24 14:25:12.49	292.32	17.16	-25.1	-26.4	17.2	0.00e+00	0	43	102	1048576	10	4167
2026-01-24 14:25:15.50	292.97	17.06	-24.9	-25.9	17.5	0.00e+00	0	43	102	1048576	10	4052
2026-01-24 14:25:18.50	293.62	16.96	-24.8	-25.8	17.5	0.00e+00	0	43	102	1048576	10	4032
2026-01-24 14:25:21.52	294.28	16.86	-25.0	-26.1	17.4	0.00e+00	0	43	102	1048576	10	4092
2026-01-24 14:25:24.54	294.92	16.75	-24.9	-26.0	17.4	0.00e+00	0	43	102	1048576	10	4078
2026-01-24 14:25:27.53	295.56	16.64	-24.9	-26.0	17.4	0.00e+00	0	43	102	1048576	10	4069
2026-01-24 14:25:30.54	296.19	16.53	-24.9	-26.0	17.4	0.00e+00	0	43	102	1048576	10	4078
2026-01-24 14:25:33.55	296.83	16.41	-25.0	-26.3	17.3	0.00e+00	0	43	102	1048576	10	4146
2026-01-24 14:25:36.56	297.45	16.30	-25.1	-26.4	17.2	0.00e+00	0	43	102	1048576	10	4175
2026-01-24 14:25:39.57	298.07	16.18	-25.1	-26.5	17.1	0.00e+00	0	43	102	1048576	10	4195
2026-01-24 14:25:42.58	298.69	16.05	-25.4	-27.0	16.9	0.00e+00	0	43	102	1048576	10	4325
2026-01-24 14:25:45.59	299.30	15.93	-25.3	-26.8	16.9	0.00e+00	0	43	102	1048576	10	4285
2026-01-24 14:25:48.60	299.91	15.80	-25.3	-26.8	17.0	0.00e+00	0	43	102	1048576	10	4272
2026-01-24 14:25:51.61	300.51	15.67	-25.4	-27.0	16.8	0.00e+00	0	43	102	1048576	10	4331
2026-01-24 14:25:54.63	301.11	15.53	-25.4	-27.0	16.8	0.00e+00	0	43	102	1048576	10	4342
2026-01-24 14:25:57.64	301.70	15.40	-25.4	-26.9	16.9	0.00e+00	0	43	102	1048576	10	4316
2026-01-24 14:26:00.65	302.28	15.26	-25.5	-26.8	16.7	0.00e+00	0	43	102	1048576	11	4159
2026-01-24 14:26:03.64	302.86	15.13	-25.4	-26.5	16.8	0.00e+00	0	43	102	1048576	11	4098
2026-01-24 14:26:06.66	303.43	14.98	-25.6	-26.9	16.6	0.00e+00	0	43	102	1048576	11	4185
2026-01-24 14:26:09.66	304.00	14.84	-25.4	-26.5	16.8	0.00e+00	0	43	102	1048576	11	4090
2026-01-24 14:26:12.68	304.57	14.70	-25.5	-26.7	16.7	0.00e+00	0	43	102	1048576	11	4141
2026-01-24 14:26:15.69	305.13	14.55	-25.3	-26.4	16.8	0.00e+00	0	43	102	1048576	11	4073
2026-01-24 14:26:18.69	305.68	14.40	-25.6	-27.0	16.5	0.00e+00	0	43	102	1048576	11	4220
2026-01-24 14:26:21.69	306.22	14.26	-25.8	-27.5	16.2	0.00e+00	0	43	102	1048576	11	4366
2026-01-24 14:26:24.70	306.77	14.11	-25.8	-27.5	16.2	0.00e+00	0	43	102	1048576	11	4357
2026-01-24 14:26:27.71	307.30	13.95	-25.8	-27.4	16.3	0.00e+00	0	43	102	1048576	11	4317
2026-01-24 14:26:30.72	307.84	13.80	-25.7	-27.3	16.3	0.00e+00	0	43	102	1048576	11	4301
2026-01-24 14:26:33.72	308.36	13.65	-25.9	-27.6	16.1	0.00e+00	0	43	102	1048576	11	4377
2026-01-24 14:26:36.73	308.88	13.49	-25.7	-27.3	16.3	0.00e+00	0	43	102	1048576	11	4305
2026-01-24 14:26:39.74	309.40	13.33	-26.2	-27.9	15.6	1.10e-06	0	43	102	1048576	12	4367
2026-01-24 14:26:42.76	309.91	13.18	-26.1	-27.7	15.7	0.00e+00	0	43	102	1048576	12	4292
2026-01-24 14:26:45.76	310.42	13.02	-26.4	-28.3	15.4	0.00e+00	0	43	102	1048576	12	4480
2026-01-24 14:26:48.78	310.92	12.86	-26.0	-27.0	15.8	0.00e+00	0	43	102	1048576	13	4000
2026-01-24 14:26:51.78	311.41	12.70	-26.3	-27.5	15.5	0.00e+00	0	43	102	1048576	13	4138
2026-01-24 14:26:54.79	311.90	12.54	-26.0	-26.9	15.9	0.00e+00	0	43	102	1048576	13	3981
2026-01-24 14:26:57.80	312.38	12.37	-25.9	-26.6	16.0	0.00e+00	0	43	102	1048576	13	3925
2026-01-24 14:27:00.81	312.86	12.21	-25.9	-26.6	16.0	0.00e+00	0	43	102	1048576	13	3907
2026-01-24 14:27:03.82	313.34	12.05	-26.0	-26.8	15.9	0.00e+00	0	43	102	1048576	13	3969
2026-01-24 14:27:06.84	313.81	11.88	-26.1	-27.1	15.7	0.00e+00	0	43	102	1048576	13	4036
2026-01-24 14:27:09.84	314.27	11.72	-26.1	-27.0	15.7	0.00e+00	0	43	102	1048576	13	4028
2026-01-24 14:27:12.86	314.73	11.55	-26.2	-27.3	15.5	0.00e+00	0	43	102	1048576	13	4103
2026-01-24 14:27:15.88	315.19	11.39	-26.0	-27.0	15.7	0.00e+00	0	43	102	1048576	13	4008
2026-01-24 14:27:18.89	315.64	11.22	-26.3	-27.6	15.3	0.00e+00	0	43	102	1048576	13	4181
2026-01-24 14:27:21.90	316.08	11.06	-26.4	-27.7	15.3	0.00e+00	0	43	102	1048576	13	4206
2026-01-24 14:27:24.90	316.52	10.89	-26.5	-28.1	15.1	1.10e-06	0	43	102	1048576	13	4298
2026-01-24 14:27:27.89	316.95	10.72	-26.3	-27.7	15.3	0.00e+00	0	43	102	1048576	13	4199
2026-01-24 14:27:30.90	317.38	10.56	-26.4	-27.8	15.2	0.00e+00	0	43	102	1048576	13	4222
2026-01-24 14:27:33.91	317.80	10.39	-26.4	-27.8	15.2	0.00e+00	0	43	102	1048576	13	4225
2026-01-24 14:27:36.92	318.22	10.22	-26.5	-28.1	15.0	1.10e-06	0	43	102	1048576	13	4298
2026-01-24 14:27:39.94	318.64	10.05	-26.5	-28.1	15.0	0.00e+00	0	43	102	1048576	13	4316
2026-01-24 14:27:42.94	319.05	9.88	-26.5	-28.1	15.0	1.10e-06	0	43	102	1048576	13	4300
2026-01-24 14:27:45.97	319.46	9.71	-26.4	-27.8	15.1	0.00e+00	0	43	102	1048576	13	4232
2026-01-24 14:27:48.99	319.86	9.55	-26.5	-28.0	15.0	0.00e+00	0	43	102	1048576	13	4280
2026-01-24 14:27:52.01	320.26	9.38	-26.6	-28.2	14.9	2.20e-06	0	43	102	1048576	13	4331
2026-01-24 14:27:55.03	320.66	9.21	-26.6	-28.3	14.8	0.00e+00	0	43	102	1048576	13	4369
2026-01-24 14:27:58.04	321.04	9.04	-26.6	-28.4	14.8	2.20e-06	0	43	102	1048576	13	4390
2026-01-24 14:28:01.05	321.43	8.87	-26.8	-28.7	14.5	0.00e+00	0	43	102	1048576	13	4498
2026-01-24 14:28:04.06	321.81	8.70	-26.9	-29.0	14.4	3.40e-06	0	43	102	1048576	13	4568
2026-01-24 14:28:07.09	322.19	8.53	-27.4	-29.6	13.7	1.14e-05	0	43	102	1048576	14	4633
2026-01-24 14:28:10.10	322.56	8.37	-27.2	-29.1	14.0	4.50e-06	0	43	102	1048576	14	4494
2026-01-24 14:28:13.10	322.92	8.20	-27.4	-29.6	13.7	1.14e-05	0	43	102	1048576	14	4628
2026-01-24 14:28:16.10	323.29	8.03	-27.0	-28.8	14.2	1.10e-06	0	43	102	1048576	14	4393
2026-01-24 14:28:19.11	323.65	7.86	-27.2	-29.2	13.9	3.40e-06	0	43	102	1048576	14	4514
2026-01-24 14:28:22.13	324.00	7.70	-27.3	-29.3	13.8	6.80e-06	0	43	102	1048576	14	4554
2026-01-24 14:28:25.14	324.36	7.53	-27.3	-29.3	13.8	2.20e-06	0	43	102	1048576	14	4559
2026-01-24 14:28:28.16	324.70	7.36	-27.4	-29.7	13.6	1.71e-05	0	43	102	1048576	14	4686
2026-01-24 14:28:31.17	325.05	7.19	-27.5	-29.3	13.5	2.40e-05	0	43	102	1048576	15	4431
2026-01-24 14:28:34.18	325.39	7.03	-33.4	-44.8	3.8	8.45e-01	0	43	104	1048576	26	13386

#Closed at: 2026-01-24 14:28:36
#Recorded file [1 MB]: D:/data/31010_260124_171928.dat