passes_logs/2026/01/24/R2M6_AANII_01/R2M6_AANII_01__20260124_013611_AQUA_rec.log

#Pass ID: 20260124_013611_AQUA
#Satellite: AQUA
#Configuration: AQUA
#almurnet v.1.7.20240730
#Start time: 2026-01-24 01:36:10

#Version: 2.2.20231116
#Station: R2M6_AANII_01
#Location: 30.233357 lon 59.946436 lat
#TLE: 1 27424U 02022A   26022.96978264  .00001879  00000+0  38593-3 0  9993
#TLE: 2 27424  98.4100 349.5315 0001958  69.4371  21.4765 14.61848807262053

#Time	Az	El	Level	Level2	SNR	BER	BlckErr	Temp	State	Recorded	gain1	gain2
2026-01-24 01:36:10.95	20.89	6.97	-31.4	-46.0	3.8	7.42e-01	0	41	0	0	23	19347
2026-01-24 01:36:13.96	20.99	7.21	-31.0	-45.2	3.8	7.47e-01	0	41	104	0	23	18608
2026-01-24 01:36:16.96	21.10	7.45	-31.6	-46.6	3.8	7.45e-01	0	41	104	0	23	20295
2026-01-24 01:36:19.97	21.20	7.70	-31.1	-45.1	3.8	7.45e-01	0	42	104	0	23	18038
2026-01-24 01:36:22.99	21.31	7.95	-30.4	-44.0	3.8	7.44e-01	0	42	104	0	21	17100
2026-01-24 01:36:26.00	21.42	8.20	-30.2	-43.2	3.8	7.44e-01	0	42	104	0	21	16185
2026-01-24 01:36:29.02	21.53	8.46	-30.3	-43.7	3.8	7.44e-01	0	42	104	0	21	16770
2026-01-24 01:36:32.04	21.64	8.71	-30.6	-44.0	3.8	7.44e-01	0	42	104	0	22	16842
2026-01-24 01:36:35.05	21.76	8.98	-31.1	-45.0	3.8	7.48e-01	0	42	104	0	23	17757
2026-01-24 01:36:38.06	21.87	9.24	-31.7	-46.3	3.8	7.44e-01	0	42	104	0	24	19322
2026-01-24 01:36:41.08	21.99	9.51	-32.2	-48.0	3.8	7.44e-01	0	42	104	0	25	21993
2026-01-24 01:36:44.10	22.11	9.78	-32.7	-49.7	3.8	7.47e-01	0	42	104	0	26	25443
2026-01-24 01:36:47.10	22.23	10.05	-33.1	-51.4	3.8	7.44e-01	0	43	104	0	26	29595
2026-01-24 01:36:50.10	22.36	10.32	-33.2	-51.8	3.8	7.48e-01	0	42	104	0	27	30702
2026-01-24 01:36:53.11	22.48	10.60	-33.1	-51.0	3.8	7.46e-01	0	43	104	0	27	28182
2026-01-24 01:36:56.13	22.61	10.89	-32.8	-49.8	3.8	7.46e-01	0	43	104	0	26	25334
2026-01-24 01:36:59.14	22.75	11.17	-32.1	-47.2	3.8	7.42e-01	0	43	104	0	25	20423
2026-01-24 01:37:02.15	22.88	11.46	-31.3	-45.3	3.8	7.45e-01	0	43	104	0	23	18042
2026-01-24 01:37:05.16	23.02	11.76	-30.8	-44.1	3.8	7.43e-01	0	43	104	0	22	16732
2026-01-24 01:37:08.17	23.16	12.05	-30.8	-44.3	3.8	7.43e-01	0	43	104	0	22	16926
2026-01-24 01:37:11.19	23.30	12.36	-30.0	-42.5	3.8	7.46e-01	0	43	104	0	21	15161
2026-01-24 01:37:14.20	23.45	12.66	-30.2	-43.1	3.8	7.45e-01	0	43	104	0	21	15890
2026-01-24 01:37:17.19	23.59	12.97	-30.2	-43.1	3.8	7.42e-01	0	43	104	0	21	15849
2026-01-24 01:37:20.20	23.74	13.28	-30.4	-43.6	3.8	7.47e-01	0	43	104	0	21	16435
2026-01-24 01:37:23.22	23.90	13.60	-31.1	-44.7	3.8	7.45e-01	0	43	104	0	23	17189
2026-01-24 01:37:26.23	24.06	13.93	-32.1	-47.3	3.8	7.47e-01	0	43	104	0	24	20750
2026-01-24 01:37:29.24	24.22	14.26	-32.6	-48.8	3.8	7.44e-01	0	43	104	0	25	23248
2026-01-24 01:37:32.26	24.38	14.59	-33.1	-50.7	3.8	7.43e-01	0	43	104	0	26	27250
2026-01-24 01:37:35.28	24.55	14.93	-33.4	-52.2	3.8	7.46e-01	0	43	104	0	27	31279
2026-01-24 01:37:38.29	24.73	15.27	-33.3	-51.5	3.8	7.45e-01	0	43	104	0	27	29177
2026-01-24 01:37:41.31	24.90	15.62	-33.2	-50.9	3.8	7.45e-01	0	43	104	0	27	27413
2026-01-24 01:37:44.33	25.09	15.97	-32.9	-49.3	3.8	7.46e-01	0	43	104	0	26	23826
2026-01-24 01:37:47.34	25.27	16.33	-32.1	-46.5	3.8	7.46e-01	0	43	104	0	25	19038
2026-01-24 01:37:50.34	25.46	16.70	-31.1	-44.5	3.8	7.45e-01	0	43	104	0	23	16875
2026-01-24 01:37:53.36	25.65	17.07	-30.4	-42.9	3.8	7.47e-01	0	43	104	0	22	15282
2026-01-24 01:37:56.37	25.85	17.44	-29.8	-33.0	18.9	6.03e-01	0	43	102	524288	20	5210
2026-01-24 01:37:59.39	26.06	17.83	-29.4	-32.1	19.5	6.03e-01	0	43	102	524288	20	4900
2026-01-24 01:38:02.42	26.27	18.22	-29.7	-32.9	19.0	6.04e-01	0	43	102	524288	20	5178
2026-01-24 01:38:05.44	26.48	18.62	-29.7	-32.8	19.0	6.03e-01	0	43	102	524288	20	5150
2026-01-24 01:38:08.45	26.70	19.02	-29.6	-32.5	19.3	6.03e-01	0	43	102	524288	20	5038
2026-01-24 01:38:11.47	26.93	19.43	-29.4	-31.9	19.7	6.02e-01	0	43	102	524288	20	4802
2026-01-24 01:38:14.47	27.16	19.85	-29.2	-32.0	20.0	6.04e-01	0	44	102	524288	19	4944
2026-01-24 01:38:17.47	27.40	20.27	-29.2	-32.0	19.9	6.04e-01	0	44	102	524288	19	4947
2026-01-24 01:38:20.48	27.65	20.70	-29.5	-32.6	19.6	6.02e-01	0	43	102	524288	19	5148
2026-01-24 01:38:23.48	27.90	21.14	-29.4	-32.5	19.8	6.02e-01	0	43	102	524288	19	5119
2026-01-24 01:38:26.49	28.16	21.58	-29.3	-31.7	19.9	6.04e-01	0	43	102	524288	20	4729
2026-01-24 01:38:29.50	28.43	22.04	-29.3	-32.0	20.0	6.02e-01	0	43	102	524288	19	4957
2026-01-24 01:38:32.51	28.70	22.50	-29.4	-32.4	19.9	6.01e-01	0	43	102	524288	19	5064
2026-01-24 01:38:35.53	28.99	22.98	-29.4	-32.3	20.0	6.04e-01	0	43	102	524288	19	5024
2026-01-24 01:38:38.54	29.28	23.46	-29.4	-32.5	19.8	6.03e-01	0	43	102	524288	19	5104
2026-01-24 01:38:41.55	29.58	23.95	-29.4	-32.4	19.9	6.01e-01	0	43	102	524288	19	5078
2026-01-24 01:38:44.55	29.90	24.45	-29.6	-32.5	19.5	6.02e-01	0	43	102	524288	20	5007
2026-01-24 01:38:47.56	30.22	24.96	-29.5	-32.1	19.7	6.03e-01	0	43	102	524288	20	4868
2026-01-24 01:38:50.57	30.55	25.48	-29.5	-32.0	19.8	6.02e-01	0	44	102	524288	20	4829
2026-01-24 01:38:53.59	30.90	26.01	-29.4	-32.2	20.1	6.04e-01	0	44	102	524288	19	5005
2026-01-24 01:38:56.60	31.25	26.55	-29.5	-32.5	19.9	6.03e-01	0	43	102	524288	19	5114
2026-01-24 01:38:59.60	31.62	27.10	-29.3	-32.1	20.2	6.04e-01	0	44	102	524288	19	4948
2026-01-24 01:39:02.61	32.00	27.67	-29.4	-32.2	20.1	6.03e-01	0	44	102	524288	19	5002
2026-01-24 01:39:05.63	32.40	28.24	-29.2	-31.7	20.5	6.05e-01	0	43	102	524288	19	4812
2026-01-24 01:39:08.66	32.81	28.83	-29.2	-32.2	19.9	6.03e-01	0	44	102	524288	18	5091
2026-01-24 01:39:11.67	33.24	29.43	-29.1	-32.0	18.6	6.06e-01	0	43	102	524288	18	5046
2026-01-24 01:39:14.68	33.68	30.04	-29.1	-31.9	19.4	6.04e-01	0	44	102	524288	18	5014
2026-01-24 01:39:17.69	34.14	30.67	-29.0	-31.8	20.6	6.05e-01	0	44	102	524288	18	4951
2026-01-24 01:39:20.71	34.62	31.30	-29.2	-31.7	20.5	6.03e-01	0	44	102	524288	19	4821
2026-01-24 01:39:23.72	35.12	31.95	-29.3	-31.9	20.5	6.00e-01	0	44	102	524288	19	4871
2026-01-24 01:39:26.74	35.64	32.62	-29.4	-32.1	20.3	6.02e-01	0	44	102	524288	19	4959
2026-01-24 01:39:29.76	36.18	33.30	-29.5	-32.5	20.1	6.01e-01	0	44	102	524288	19	5091
2026-01-24 01:39:32.76	36.74	33.98	-29.8	-32.7	19.6	6.02e-01	0	44	102	524288	20	5057
2026-01-24 01:39:35.77	37.33	34.69	-29.9	-33.0	19.5	6.05e-01	0	44	102	524288	20	5166
2026-01-24 01:39:38.78	37.94	35.40	-30.4	-33.7	18.8	6.01e-01	0	44	102	524288	21	5312
2026-01-24 01:39:41.79	38.58	36.13	-30.2	-33.3	19.0	6.04e-01	0	44	102	524288	21	5162
2026-01-24 01:39:44.79	39.25	36.88	-30.5	-34.0	18.6	6.00e-01	0	44	102	524288	21	5429
2026-01-24 01:39:47.80	39.96	37.63	-31.0	-35.0	17.8	6.04e-01	0	44	102	524288	22	5694
2026-01-24 01:39:50.81	40.70	38.41	-30.5	-34.0	18.6	6.01e-01	0	44	102	524288	21	5412
2026-01-24 01:39:53.82	41.47	39.19	-30.5	-33.7	18.5	6.00e-01	0	44	102	524288	22	5176
2026-01-24 01:39:56.83	42.28	39.99	-30.1	-32.5	19.3	6.04e-01	0	44	102	524288	22	4742
2026-01-24 01:39:59.84	43.14	40.81	-30.2	-33.4	19.1	6.02e-01	0	44	102	524288	21	5162
2026-01-24 01:40:02.83	44.03	41.62	-29.9	-32.9	19.6	6.02e-01	0	44	102	524288	20	5105
2026-01-24 01:40:05.84	44.98	42.46	-29.4	-31.8	20.2	6.04e-01	0	44	102	524288	20	4716
2026-01-24 01:40:08.85	45.98	43.31	-29.2	-31.2	20.7	6.04e-01	0	44	102	524288	20	4539
2026-01-24 01:40:11.86	47.03	44.17	-29.2	-31.2	20.7	6.02e-01	0	44	102	524288	20	4543
2026-01-24 01:40:14.87	48.14	45.04	-29.1	-31.8	21.0	6.02e-01	0	44	102	524288	18	4951
2026-01-24 01:40:17.89	49.32	45.92	-28.9	-31.4	21.2	6.03e-01	0	44	102	524288	18	4824
2026-01-24 01:40:20.90	50.56	46.80	-29.0	-31.6	21.1	6.02e-01	0	44	102	524288	18	4862
2026-01-24 01:40:23.90	51.87	47.68	-29.2	-31.6	20.8	6.03e-01	0	44	102	524288	19	4758
2026-01-24 01:40:26.90	53.26	48.57	-29.2	-31.7	20.8	6.03e-01	0	44	102	524288	19	4775
2026-01-24 01:40:29.92	54.74	49.46	-29.3	-31.8	20.7	6.01e-01	0	44	102	524288	19	4818
2026-01-24 01:40:32.93	56.30	50.35	-30.0	-33.1	19.7	6.04e-01	0	44	102	524288	20	5174
2026-01-24 01:40:35.96	57.97	51.24	-29.1	-31.5	20.8	6.04e-01	0	44	102	524288	19	4716
2026-01-24 01:40:38.97	59.73	52.11	-28.9	-31.0	21.3	6.03e-01	0	44	102	524288	19	4572
2026-01-24 01:40:41.98	61.60	52.98	-28.9	-31.4	21.3	6.02e-01	0	44	102	524288	18	4790
2026-01-24 01:40:44.99	63.58	53.82	-29.0	-31.2	21.2	6.03e-01	0	44	102	524288	19	4634
2026-01-24 01:40:48.00	65.67	54.64	-29.5	-32.4	20.5	6.01e-01	0	44	102	524288	19	5021
2026-01-24 01:40:51.02	67.90	55.44	-30.1	-33.3	19.6	6.04e-01	0	44	102	524288	20	5248
2026-01-24 01:40:54.03	70.25	56.21	-30.0	-32.6	19.8	6.03e-01	0	44	102	524288	21	4846
2026-01-24 01:40:57.05	72.73	56.94	-30.3	-33.3	19.3	6.02e-01	0	44	102	524288	21	5112
2026-01-24 01:41:00.06	75.34	57.62	-30.5	-33.9	19.1	6.04e-01	0	44	102	524288	21	5319
2026-01-24 01:41:03.07	78.08	58.25	-30.6	-33.7	18.8	6.02e-01	0	44	102	524288	22	5137
2026-01-24 01:41:06.08	80.95	58.83	-30.9	-34.4	18.4	6.02e-01	0	44	102	524288	22	5421
2026-01-24 01:41:09.10	83.94	59.34	-30.8	-34.2	18.5	6.00e-01	0	44	102	524288	22	5317
2026-01-24 01:41:12.10	87.03	59.79	-30.8	-34.2	18.6	6.02e-01	0	44	102	524288	22	5310
2026-01-24 01:41:15.11	90.23	60.16	-31.2	-34.9	17.8	6.01e-01	0	44	102	524288	23	5481
2026-01-24 01:41:18.11	93.50	60.45	-31.1	-34.6	18.0	6.01e-01	0	44	102	524288	23	5367
2026-01-24 01:41:21.11	96.84	60.65	-31.9	-36.3	16.6	6.01e-01	0	44	102	524288	24	5975
2026-01-24 01:41:24.12	100.23	60.78	-31.9	-36.3	16.6	6.03e-01	0	44	102	524288	24	5983
2026-01-24 01:41:27.13	103.65	60.81	-31.9	-36.5	16.4	6.03e-01	0	44	102	524288	24	6118
2026-01-24 01:41:30.14	107.06	60.76	-31.3	-35.1	17.7	6.04e-01	0	44	102	524288	23	5591
2026-01-24 01:41:33.15	110.45	60.62	-31.1	-34.4	18.2	6.03e-01	0	44	102	524288	23	5280
2026-01-24 01:41:36.17	113.80	60.39	-30.9	-34.4	18.5	6.02e-01	0	44	102	524288	22	5401
2026-01-24 01:41:39.18	117.07	60.08	-31.0	-34.3	18.2	6.02e-01	0	44	102	524288	23	5241
2026-01-24 01:41:42.20	120.26	59.69	-31.0	-34.6	18.5	6.01e-01	0	44	102	524288	22	5473
2026-01-24 01:41:45.21	123.33	59.23	-30.8	-34.1	18.8	6.03e-01	0	44	102	524288	22	5280
2026-01-24 01:41:48.21	126.29	58.70	-30.9	-34.3	18.6	6.01e-01	0	44	102	524288	22	5356
2026-01-24 01:41:51.22	129.13	58.11	-31.0	-34.4	18.2	6.01e-01	0	44	102	524288	23	5272
2026-01-24 01:41:54.23	131.84	57.47	-31.0	-34.7	18.3	6.01e-01	0	44	102	524288	22	5524
2026-01-24 01:41:57.25	134.44	56.77	-30.3	-33.4	19.4	6.02e-01	0	44	102	524288	21	5126
2026-01-24 01:42:00.25	136.88	56.03	-30.1	-32.8	19.7	6.05e-01	0	44	102	524288	21	4927
2026-01-24 01:42:03.26	139.20	55.26	-30.0	-33.1	19.9	6.04e-01	0	44	102	524288	20	5160
2026-01-24 01:42:06.27	141.40	54.45	-29.9	-32.8	20.0	6.03e-01	0	44	102	524288	20	5060
2026-01-24 01:42:09.28	143.47	53.62	-30.1	-32.9	19.8	6.01e-01	0	44	102	524288	21	4946
2026-01-24 01:42:12.29	145.43	52.77	-29.6	-32.1	20.5	6.03e-01	0	44	102	524288	20	4809
2026-01-24 01:42:15.31	147.28	51.90	-30.2	-33.2	19.5	6.03e-01	0	44	102	524288	21	5078
2026-01-24 01:42:18.32	149.02	51.02	-30.1	-32.7	19.8	6.00e-01	0	44	102	524288	21	4887
2026-01-24 01:42:21.34	150.67	50.13	-30.9	-34.4	18.5	6.02e-01	0	44	102	524288	22	5405
2026-01-24 01:42:24.35	152.21	49.24	-30.7	-34.0	18.7	6.01e-01	0	44	102	524288	22	5251
2026-01-24 01:42:27.35	153.67	48.35	-31.0	-34.7	18.2	6.03e-01	0	44	102	524288	22	5522
2026-01-24 01:42:30.36	155.04	47.46	-30.8	-34.2	18.6	6.03e-01	0	44	102	524288	22	5341
2026-01-24 01:42:33.37	156.35	46.57	-30.6	-33.6	18.9	6.02e-01	0	44	102	524288	22	5100
2026-01-24 01:42:36.37	157.57	45.68	-30.3	-33.0	19.3	6.01e-01	0	44	102	524288	22	4899
2026-01-24 01:42:39.37	158.73	44.81	-30.4	-33.6	19.2	6.00e-01	0	44	102	524288	21	5226
2026-01-24 01:42:42.37	159.82	43.94	-30.2	-33.1	19.4	6.02e-01	0	44	102	524288	21	5051
2026-01-24 01:42:45.38	160.87	43.08	-30.3	-33.6	19.1	6.05e-01	0	44	102	524288	21	5241
2026-01-24 01:42:48.39	161.85	42.23	-30.4	-33.7	19.1	6.04e-01	0	44	102	524288	21	5284
2026-01-24 01:42:51.39	162.79	41.40	-30.5	-33.9	18.9	6.01e-01	0	44	102	524288	21	5355
2026-01-24 01:42:54.40	163.68	40.57	-30.5	-33.9	19.0	6.02e-01	0	44	102	524288	21	5348
2026-01-24 01:42:57.40	164.52	39.76	-30.4	-33.7	19.0	6.02e-01	0	44	102	524288	21	5263
2026-01-24 01:43:00.40	165.33	38.96	-30.4	-33.6	19.1	6.04e-01	0	44	102	524288	21	5243
2026-01-24 01:43:03.41	166.09	38.17	-30.4	-33.9	18.9	6.02e-01	0	44	102	524288	21	5364
2026-01-24 01:43:06.43	166.83	37.40	-30.1	-33.0	19.4	6.00e-01	0	44	102	524288	21	5028
2026-01-24 01:43:09.45	167.53	36.64	-30.0	-33.2	19.6	6.03e-01	0	44	102	524288	20	5222
2026-01-24 01:43:12.45	168.19	35.89	-29.8	-32.6	20.0	6.04e-01	0	44	102	524288	20	4994
2026-01-24 01:43:15.46	168.83	35.16	-29.6	-32.2	20.1	6.01e-01	0	44	102	524288	20	4869
2026-01-24 01:43:18.48	169.44	34.44	-29.8	-32.7	19.8	6.05e-01	0	44	102	524288	20	5041
2026-01-24 01:43:21.50	170.02	33.74	-29.9	-33.0	19.7	6.02e-01	0	44	102	524288	20	5124
2026-01-24 01:43:24.51	170.58	33.05	-29.8	-32.7	19.8	6.04e-01	0	44	102	524288	20	5022
2026-01-24 01:43:27.52	171.11	32.37	-29.1	-31.9	20.9	6.02e-01	0	44	102	524288	18	4979
2026-01-24 01:43:30.54	171.63	31.71	-29.3	-31.9	19.5	6.03e-01	0	44	102	524288	19	4881
2026-01-24 01:43:33.54	172.12	31.06	-29.1	-31.4	20.9	6.03e-01	0	44	102	524288	19	4702
2026-01-24 01:43:36.55	172.59	30.43	-29.4	-32.1	20.6	6.01e-01	0	44	102	524288	19	4918
2026-01-24 01:43:39.57	173.05	29.80	-29.3	-31.8	20.7	6.03e-01	0	44	102	524288	19	4842
2026-01-24 01:43:42.59	173.49	29.19	-29.3	-31.8	20.7	6.00e-01	0	44	102	524288	19	4844
2026-01-24 01:43:45.60	173.91	28.59	-29.9	-33.1	19.5	6.01e-01	0	44	102	524288	20	5187
2026-01-24 01:43:48.61	174.32	28.01	-29.5	-32.1	20.1	6.03e-01	0	44	102	524288	20	4834
2026-01-24 01:43:51.63	174.71	27.43	-29.9	-32.9	19.6	6.04e-01	0	44	102	524288	20	5127
2026-01-24 01:43:54.64	175.09	26.87	-29.7	-32.4	19.9	6.01e-01	0	44	102	524288	20	4944
2026-01-24 01:43:57.64	175.45	26.32	-29.8	-32.7	19.7	6.00e-01	0	44	102	524288	20	5053
2026-01-24 01:44:00.65	175.81	25.77	-29.7	-32.5	19.0	6.04e-01	0	44	102	524288	20	4957
2026-01-24 01:44:03.66	176.15	25.24	-29.9	-32.9	19.5	6.02e-01	0	44	102	524288	20	5129
2026-01-24 01:44:06.68	176.48	24.72	-29.7	-32.6	19.7	6.00e-01	0	44	102	524288	20	5026
2026-01-24 01:44:09.68	176.80	24.21	-29.9	-33.0	19.5	6.03e-01	0	44	102	524288	20	5153
2026-01-24 01:44:12.70	177.11	23.71	-30.0	-33.4	19.2	6.02e-01	0	44	102	524288	20	5314
2026-01-24 01:44:15.70	177.40	23.22	-29.9	-33.2	19.3	6.01e-01	0	44	102	524288	20	5238
2026-01-24 01:44:18.71	177.69	22.74	-29.8	-32.9	19.5	6.01e-01	0	44	102	524288	20	5144
2026-01-24 01:44:21.72	177.98	22.27	-29.9	-33.0	19.4	6.04e-01	0	44	102	524288	20	5164
2026-01-24 01:44:24.73	178.25	21.80	-30.0	-33.5	19.2	6.03e-01	0	44	102	524288	20	5337
2026-01-24 01:44:27.76	178.52	21.35	-30.2	-33.5	18.8	6.03e-01	0	44	102	524288	21	5225
2026-01-24 01:44:30.76	178.77	20.90	-30.1	-33.2	19.0	6.02e-01	0	44	102	524288	21	5121
2026-01-24 01:44:33.76	179.02	20.46	-30.0	-33.4	19.1	6.04e-01	0	44	102	524288	20	5341
2026-01-24 01:44:36.77	179.26	20.03	-29.9	-33.3	19.1	6.03e-01	0	44	102	524288	20	5297
2026-01-24 01:44:39.79	179.50	19.61	-29.5	-32.6	19.9	6.05e-01	0	44	102	524288	19	5141
2026-01-24 01:44:42.80	179.73	19.19	-29.5	-32.6	19.9	6.03e-01	0	44	102	524288	19	5154
2026-01-24 01:44:45.82	179.95	18.78	-29.5	-32.7	19.8	6.04e-01	0	44	102	524288	19	5202
2026-01-24 01:44:48.84	180.17	18.38	-29.7	-32.7	19.5	6.01e-01	0	44	102	524288	20	5110
2026-01-24 01:44:51.86	180.39	17.98	-29.8	-32.9	19.3	6.04e-01	0	44	102	524288	20	5155
2026-01-24 01:44:54.88	180.59	17.59	-29.7	-32.7	19.4	6.05e-01	0	44	102	524288	20	5102
2026-01-24 01:44:57.89	180.79	17.21	-28.1	-31.1	19.0	6.02e-01	0	44	102	524288	19	5089
2026-01-24 01:45:00.91	180.99	16.83	-29.7	-32.6	19.2	6.05e-01	0	44	102	524288	20	5066
2026-01-24 01:45:03.92	181.18	16.46	-29.9	-33.3	17.8	6.03e-01	0	44	102	524288	20	5320
2026-01-24 01:45:06.94	181.37	16.09	-29.6	-32.4	19.5	6.03e-01	0	44	102	524288	20	4990
2026-01-24 01:45:09.96	181.55	15.73	-29.8	-33.0	19.2	6.01e-01	0	44	102	524288	20	5203
2026-01-24 01:45:12.96	181.73	15.38	-29.5	-32.7	19.7	6.02e-01	0	44	102	524288	19	5178
2026-01-24 01:45:15.97	181.90	15.03	-29.5	-32.6	19.7	6.04e-01	0	44	102	524288	19	5170
2026-01-24 01:45:18.98	182.07	14.69	-29.6	-32.3	19.4	6.01e-01	0	44	102	524288	20	4958
2026-01-24 01:45:21.98	182.24	14.35	-29.7	-32.7	19.2	6.02e-01	0	44	102	524288	20	5086
2026-01-24 01:45:25.00	182.40	14.02	-29.6	-32.5	19.3	6.03e-01	0	44	102	524288	20	5019
2026-01-24 01:45:28.00	182.56	13.69	-29.7	-33.0	18.2	6.02e-01	0	44	102	524288	20	5246
2026-01-24 01:45:31.02	182.72	13.37	-29.6	-32.4	18.0	6.02e-01	0	44	102	524288	20	4979
2026-01-24 01:45:34.04	182.87	13.05	-29.6	-32.9	18.1	6.03e-01	0	44	102	524288	19	5259
2026-01-24 01:45:37.05	183.02	12.73	-29.9	-33.1	18.9	6.01e-01	0	44	102	524288	20	5262
2026-01-24 01:45:40.05	183.16	12.43	-29.5	-32.6	19.6	6.03e-01	0	44	102	524288	19	5172
2026-01-24 01:45:43.06	183.31	12.12	-29.6	-32.4	19.3	5.99e-01	0	44	102	524288	20	4990
2026-01-24 01:45:46.07	183.45	11.82	-29.7	-32.8	19.1	6.01e-01	0	44	102	524288	20	5148
2026-01-24 01:45:49.09	183.58	11.52	-29.7	-32.7	19.1	6.04e-01	0	44	102	524288	20	5113
2026-01-24 01:45:52.10	183.72	11.22	-29.6	-32.7	19.1	6.01e-01	0	44	102	524288	20	5094
2026-01-24 01:45:55.11	183.85	10.93	-29.7	-32.9	19.0	6.00e-01	0	44	102	524288	20	5192
2026-01-24 01:45:58.12	183.98	10.65	-29.7	-32.8	19.0	6.01e-01	0	44	102	524288	20	5154
2026-01-24 01:46:01.12	184.10	10.37	-29.7	-32.7	19.0	6.03e-01	0	44	102	524288	20	5115
2026-01-24 01:46:04.14	184.23	10.09	-29.7	-32.9	18.9	6.02e-01	0	44	102	524288	20	5172
2026-01-24 01:46:07.16	184.35	9.81	-29.8	-33.1	18.7	6.04e-01	0	44	102	524288	20	5274
2026-01-24 01:46:10.17	184.47	9.54	-30.0	-33.8	18.2	6.02e-01	0	44	102	524288	20	5553
2026-01-24 01:46:13.18	184.59	9.27	-30.0	-33.6	18.4	6.04e-01	0	44	102	524288	20	5455
2026-01-24 01:46:16.19	184.70	9.00	-30.1	-33.9	18.2	6.03e-01	0	44	102	524288	20	5585
2026-01-24 01:46:19.20	184.82	8.74	-30.2	-33.8	17.9	6.04e-01	0	44	102	524288	21	5466
2026-01-24 01:46:22.21	184.93	8.48	-30.3	-34.1	17.7	6.02e-01	0	44	102	524288	21	5562
2026-01-24 01:46:25.22	185.04	8.22	-30.3	-34.1	17.6	6.03e-01	0	44	102	524288	21	5595
2026-01-24 01:46:28.24	185.14	7.96	-30.2	-33.8	17.8	6.02e-01	0	44	102	524288	21	5451
2026-01-24 01:46:31.26	185.25	7.71	-30.2	-33.9	17.8	6.02e-01	0	44	102	524288	21	5492
2026-01-24 01:46:34.27	185.35	7.46	-30.3	-34.2	17.5	6.02e-01	0	44	102	524288	21	5631
2026-01-24 01:46:37.29	185.46	7.21	-30.2	-33.8	17.7	6.03e-01	0	44	102	524288	21	5485
2026-01-24 01:46:40.30	185.56	6.97	-33.6	-52.9	3.8	7.44e-01	0	44	104	524288	28	33363

#Closed at: 2026-01-24 01:46:42
#Recorded file [0 MB]: D:/data/31010_260124_043755.dat