passes_logs/2026/01/24/R2M6_AANII_01/R2M6_AANII_01__20260124_160125_FENGYUN_3E_rec.log

#Pass ID: 20260124_160125_FENGYUN 3E
#Satellite: FENGYUN 3E
#Configuration: FENGYUN 3E
#almurnet v.1.7.20240730
#Start time: 2026-01-24 16:01:27

#Version: 2.2.20231116
#Station: R2M6_AANII_01
#Location: 30.233357 lon 59.946436 lat
#TLE: 1 49008U 21062A   26024.23699167 -.00000179  00000+0 -63840-4 0  9992
#TLE: 2 49008  98.7493  29.2570 0002404 119.1229 241.0188 14.19886095236155

#Time	Az	El	Level	Level2	SNR	BER	BlckErr	Temp	State	Recorded	gain1	gain2
2026-01-24 16:01:27.15	206.44	7.14	-28.3	-30.1	5.6	7.54e-01	0	42	0	0	16	4436
2026-01-24 16:01:30.16	206.70	7.34	-28.9	-30.6	10.4	5.59e-03	0	42	0	7340032	18	4365
2026-01-24 16:01:33.16	206.96	7.54	-27.9	-28.6	12.0	3.90e-04	0	42	102	25165824	17	3899
2026-01-24 16:01:36.17	207.23	7.74	-27.2	-27.9	12.9	4.80e-05	0	42	102	25165824	15	3923
2026-01-24 16:01:39.18	207.49	7.95	-27.1	-27.7	13.0	2.17e-05	0	42	102	25165824	15	3867
2026-01-24 16:01:42.18	207.76	8.15	-26.9	-27.8	13.3	1.60e-05	0	42	102	25165824	14	3978
2026-01-24 16:01:45.18	208.04	8.36	-26.4	-27.0	14.1	1.10e-06	0	42	102	25165824	13	3885
2026-01-24 16:01:48.19	208.32	8.57	-26.3	-26.9	14.1	1.10e-06	0	42	102	25165824	13	3852
2026-01-24 16:01:51.19	208.60	8.78	-26.4	-27.2	14.0	1.10e-06	0	42	102	25165824	13	3921
2026-01-24 16:01:54.20	208.89	8.99	-26.3	-26.9	14.2	1.10e-06	0	43	102	25165824	13	3860
2026-01-24 16:01:57.22	209.18	9.20	-26.3	-26.8	14.3	0.00e+00	0	43	102	25165824	13	3836
2026-01-24 16:02:00.23	209.47	9.41	-26.4	-27.1	14.1	0.00e+00	0	43	102	25165824	13	3893
2026-01-24 16:02:03.25	209.77	9.62	-26.3	-26.8	14.3	0.00e+00	0	43	102	25165824	13	3831
2026-01-24 16:02:06.25	210.08	9.84	-26.3	-26.7	14.4	1.10e-06	0	43	102	25165824	13	3808
2026-01-24 16:02:09.25	210.38	10.05	-26.2	-26.7	14.3	1.10e-06	0	43	102	25165824	13	3814
2026-01-24 16:02:12.26	210.70	10.27	-26.1	-26.4	14.5	1.10e-06	0	43	102	25165824	13	3738
2026-01-24 16:02:15.27	211.01	10.49	-26.2	-26.5	14.5	1.10e-06	0	43	102	25165824	13	3758
2026-01-24 16:02:18.29	211.34	10.71	-26.1	-26.4	14.6	0.00e+00	0	43	102	25165824	13	3723
2026-01-24 16:02:21.30	211.66	10.93	-26.1	-26.4	14.6	0.00e+00	0	43	102	25165824	13	3732
2026-01-24 16:02:24.32	211.99	11.15	-25.9	-26.5	14.9	0.00e+00	0	43	102	25165824	12	3842
2026-01-24 16:02:27.33	212.33	11.38	-26.0	-26.6	14.8	0.00e+00	0	43	102	25165824	12	3878
2026-01-24 16:02:30.34	212.67	11.60	-26.0	-26.6	14.8	0.00e+00	0	43	102	25165824	12	3878
2026-01-24 16:02:33.36	213.02	11.83	-26.1	-26.8	14.7	1.10e-06	0	43	102	25165824	12	3931
2026-01-24 16:02:36.36	213.37	12.05	-26.0	-26.7	14.8	0.00e+00	0	43	102	25165824	12	3893
2026-01-24 16:02:39.37	213.72	12.28	-25.8	-26.2	15.1	0.00e+00	0	43	102	25165824	12	3782
2026-01-24 16:02:42.39	214.09	12.51	-25.8	-26.2	15.1	0.00e+00	0	43	102	25165824	12	3774
2026-01-24 16:02:45.39	214.45	12.74	-25.8	-26.2	15.2	0.00e+00	0	43	102	25165824	12	3764
2026-01-24 16:02:48.41	214.83	12.97	-25.8	-26.2	15.2	0.00e+00	0	43	102	25165824	12	3772
2026-01-24 16:02:51.42	215.20	13.20	-25.6	-25.7	15.4	0.00e+00	0	43	102	25165824	12	3653
2026-01-24 16:02:54.43	215.59	13.44	-25.4	-25.9	15.7	0.00e+00	0	44	102	25165824	11	3790
2026-01-24 16:02:57.44	215.98	13.67	-25.4	-25.8	15.8	0.00e+00	0	43	102	25165824	11	3768
2026-01-24 16:03:00.45	216.37	13.91	-25.6	-26.3	15.5	0.00e+00	0	43	102	25165824	11	3889
2026-01-24 16:03:03.46	216.78	14.14	-25.9	-26.9	15.2	1.10e-06	0	44	102	25165824	11	4044
2026-01-24 16:03:06.47	217.18	14.38	-25.9	-26.9	15.2	0.00e+00	0	43	102	25165824	11	4040
2026-01-24 16:03:09.47	217.60	14.62	-25.6	-26.3	15.5	0.00e+00	0	44	102	25165824	11	3899
2026-01-24 16:03:12.48	218.02	14.86	-25.5	-26.1	15.6	0.00e+00	0	43	102	25165824	11	3853
2026-01-24 16:03:15.48	218.45	15.10	-25.3	-25.6	16.0	0.00e+00	0	44	102	25165824	11	3721
2026-01-24 16:03:18.49	218.88	15.34	-25.2	-25.4	16.0	0.00e+00	0	44	102	25165824	11	3687
2026-01-24 16:03:21.49	219.32	15.58	-24.9	-24.7	16.4	0.00e+00	0	44	102	25165824	11	3519
2026-01-24 16:03:24.51	219.77	15.82	-25.2	-25.9	16.1	0.00e+00	0	44	102	25165824	10	3889
2026-01-24 16:03:27.51	220.22	16.07	-25.3	-26.1	16.0	0.00e+00	0	44	102	25165824	10	3951
2026-01-24 16:03:30.52	220.69	16.31	-25.6	-26.8	15.6	0.00e+00	0	44	102	25165824	10	4113
2026-01-24 16:03:33.53	221.16	16.55	-24.9	-24.8	16.5	0.00e+00	0	44	102	25165824	11	3545
2026-01-24 16:03:36.54	221.64	16.80	-24.7	-24.9	16.7	0.00e+00	0	44	102	25165824	10	3655
2026-01-24 16:03:39.56	222.12	17.05	-24.6	-24.5	16.9	0.00e+00	0	44	102	25165824	10	3580
2026-01-24 16:03:42.58	222.62	17.29	-24.3	-24.4	17.2	0.00e+00	0	44	102	25165824	9	3648
2026-01-24 16:03:45.58	223.12	17.54	-24.4	-24.6	17.1	0.00e+00	0	44	102	25165824	9	3690
2026-01-24 16:03:48.60	223.63	17.79	-24.4	-24.6	17.1	0.00e+00	0	44	102	25165824	9	3694
2026-01-24 16:03:51.62	224.15	18.04	-24.4	-24.7	17.0	0.00e+00	0	44	102	25165824	9	3723
2026-01-24 16:03:54.64	224.68	18.29	-24.3	-24.5	17.2	0.00e+00	0	44	102	25165824	9	3675
2026-01-24 16:03:57.65	225.21	18.54	-24.3	-24.5	17.2	0.00e+00	0	44	102	25165824	9	3662
2026-01-24 16:04:00.67	225.75	18.78	-24.2	-24.2	17.4	0.00e+00	0	44	102	25165824	9	3614
2026-01-24 16:04:03.67	226.30	19.03	-24.1	-24.0	17.5	0.00e+00	0	44	102	25165824	9	3557
2026-01-24 16:04:06.69	226.87	19.28	-24.1	-24.1	17.4	0.00e+00	0	44	102	25165824	9	3579
2026-01-24 16:04:09.71	227.44	19.53	-24.1	-24.0	17.5	0.00e+00	0	44	102	25165824	9	3568
2026-01-24 16:04:12.73	228.02	19.78	-24.1	-24.1	17.5	0.00e+00	0	44	102	25165824	9	3584
2026-01-24 16:04:15.74	228.60	20.03	-24.0	-23.8	17.7	0.00e+00	0	44	102	25165824	9	3513
2026-01-24 16:04:18.75	229.20	20.27	-23.9	-24.0	17.7	0.00e+00	0	44	102	25165824	8	3668
2026-01-24 16:04:21.77	229.81	20.52	-23.9	-24.2	17.7	0.00e+00	0	44	102	25165824	8	3696
2026-01-24 16:04:24.79	230.43	20.76	-23.7	-23.8	17.9	0.00e+00	0	44	102	25165824	8	3605
2026-01-24 16:04:27.81	231.05	21.01	-23.7	-23.7	18.0	0.00e+00	0	44	102	25165824	8	3588
2026-01-24 16:04:30.81	231.69	21.25	-23.6	-23.6	18.0	0.00e+00	0	44	102	25165824	8	3565
2026-01-24 16:04:33.83	232.33	21.49	-23.4	-23.1	18.3	0.00e+00	0	44	102	25165824	8	3465
2026-01-24 16:04:36.84	232.99	21.73	-23.5	-23.2	18.2	0.00e+00	0	44	102	25165824	8	3493
2026-01-24 16:04:39.85	233.65	21.97	-23.6	-23.5	18.1	0.00e+00	0	44	102	25165824	8	3557
2026-01-24 16:04:42.86	234.33	22.21	-23.6	-23.5	18.1	0.00e+00	0	44	102	25165824	8	3544
2026-01-24 16:04:45.87	235.01	22.45	-23.5	-23.1	18.3	0.00e+00	0	44	102	25165824	8	3470
2026-01-24 16:04:48.88	235.71	22.68	-23.4	-23.4	18.3	0.00e+00	0	44	102	25165824	7	3634
2026-01-24 16:04:51.89	236.41	22.91	-23.4	-23.5	18.3	0.00e+00	0	44	102	25165824	7	3649
2026-01-24 16:04:54.90	237.13	23.14	-23.3	-23.3	18.4	0.00e+00	0	44	102	25165824	7	3598
2026-01-24 16:04:57.91	237.85	23.36	-23.7	-24.2	18.0	0.00e+00	0	44	102	25165824	7	3811
2026-01-24 16:05:00.91	238.59	23.59	-23.6	-24.0	18.1	0.00e+00	0	44	102	25165824	7	3747
2026-01-24 16:05:03.93	239.33	23.81	-23.5	-23.7	18.3	0.00e+00	0	44	102	25165824	7	3695
2026-01-24 16:05:06.94	240.09	24.02	-23.4	-23.5	18.4	0.00e+00	0	44	102	25165824	7	3648
2026-01-24 16:05:09.95	240.86	24.24	-23.4	-23.4	18.4	0.00e+00	0	44	102	25165824	7	3628
2026-01-24 16:05:12.97	241.64	24.45	-23.4	-23.5	18.4	0.00e+00	0	44	102	25165824	7	3646
2026-01-24 16:05:15.99	242.43	24.66	-23.3	-23.3	18.5	0.00e+00	0	44	102	25165824	7	3602
2026-01-24 16:05:19.01	243.23	24.86	-23.3	-23.2	18.5	0.00e+00	0	44	102	25165824	7	3583
2026-01-24 16:05:22.03	244.03	25.06	-23.2	-23.0	18.6	0.00e+00	0	44	102	25165824	7	3546
2026-01-24 16:05:25.04	244.85	25.25	-23.2	-23.2	18.6	0.00e+00	0	44	102	25165824	7	3578
2026-01-24 16:05:28.05	245.68	25.44	-23.4	-23.5	18.4	0.00e+00	0	44	102	25165824	7	3649
2026-01-24 16:05:31.08	246.52	25.62	-23.4	-23.4	18.4	0.00e+00	0	44	102	25165824	7	3626
2026-01-24 16:05:34.11	247.37	25.80	-23.3	-23.3	18.5	0.00e+00	0	44	102	25165824	7	3596
2026-01-24 16:05:37.12	248.22	25.97	-23.4	-23.6	18.4	0.00e+00	0	44	102	25165824	7	3666
2026-01-24 16:05:40.14	249.09	26.14	-23.3	-23.2	18.6	0.00e+00	0	44	102	25165824	7	3583
2026-01-24 16:05:43.16	249.97	26.30	-23.0	-22.8	18.8	0.00e+00	0	44	102	25165824	7	3485
2026-01-24 16:05:46.16	250.84	26.46	-23.2	-23.1	18.6	0.00e+00	0	44	102	25165824	7	3553
2026-01-24 16:05:49.17	251.73	26.61	-23.2	-23.2	18.6	0.00e+00	0	44	102	25165824	7	3571
2026-01-24 16:05:52.19	252.63	26.75	-23.0	-22.6	18.9	0.00e+00	0	44	102	25165824	7	3461
2026-01-24 16:05:55.21	253.54	26.89	-23.0	-23.2	18.9	0.00e+00	0	44	102	25165824	6	3676
2026-01-24 16:05:58.21	254.45	27.02	-23.1	-23.5	18.7	0.00e+00	0	44	102	25165824	6	3740
2026-01-24 16:06:01.23	255.37	27.14	-23.1	-23.3	18.8	0.00e+00	0	44	102	25165824	6	3708
2026-01-24 16:06:04.24	256.30	27.25	-23.2	-23.7	18.6	0.00e+00	0	44	102	25165824	6	3780
2026-01-24 16:06:07.25	257.23	27.36	-23.2	-23.6	18.7	0.00e+00	0	44	102	25165824	6	3780
2026-01-24 16:06:10.25	258.16	27.46	-23.1	-23.4	18.8	0.00e+00	0	44	102	25165824	6	3728
2026-01-24 16:06:13.25	259.10	27.55	-23.4	-24.0	18.5	0.00e+00	0	44	102	25165824	6	3854
2026-01-24 16:06:16.26	260.05	27.63	-23.3	-23.7	18.6	0.00e+00	0	44	102	25165824	6	3798
2026-01-24 16:06:19.27	261.00	27.71	-23.4	-24.0	18.5	0.00e+00	0	44	102	25165824	6	3858
2026-01-24 16:06:22.28	261.96	27.77	-23.2	-23.7	18.6	0.00e+00	0	44	102	25165824	6	3790
2026-01-24 16:06:25.30	262.92	27.83	-23.2	-23.7	18.6	0.00e+00	0	44	102	25165824	6	3795
2026-01-24 16:06:28.31	263.89	27.88	-23.1	-23.3	18.8	0.00e+00	0	44	102	25165824	6	3711
2026-01-24 16:06:31.31	264.85	27.92	-23.0	-23.2	18.9	0.00e+00	0	44	102	25165824	6	3683
2026-01-24 16:06:34.32	265.82	27.96	-23.2	-23.6	18.7	0.00e+00	0	44	102	25165824	6	3759
2026-01-24 16:06:37.33	266.79	27.98	-23.1	-23.5	18.8	0.00e+00	0	44	102	25165824	6	3735
2026-01-24 16:06:40.34	267.76	28.00	-23.1	-23.5	18.7	0.00e+00	0	44	102	25165824	6	3736
2026-01-24 16:06:43.36	268.74	28.00	-23.2	-23.6	18.7	0.00e+00	0	44	102	25165824	6	3760
2026-01-24 16:06:46.37	269.71	28.00	-23.2	-23.6	18.7	0.00e+00	0	44	102	25165824	6	3766
2026-01-24 16:06:49.38	270.68	27.99	-23.0	-23.1	18.9	0.00e+00	0	44	102	25165824	6	3660
2026-01-24 16:06:52.38	271.65	27.97	-23.2	-23.6	18.7	0.00e+00	0	44	102	25165824	6	3777
2026-01-24 16:06:55.40	272.62	27.94	-23.2	-23.7	18.6	0.00e+00	0	44	102	25165824	6	3787
2026-01-24 16:06:58.42	273.59	27.91	-23.1	-23.3	18.8	0.00e+00	0	44	102	25165824	6	3702
2026-01-24 16:07:01.42	274.55	27.86	-23.3	-23.7	18.6	0.00e+00	0	44	102	25165824	6	3797
2026-01-24 16:07:04.44	275.51	27.81	-23.2	-23.6	18.6	0.00e+00	0	44	102	25165824	6	3768
2026-01-24 16:07:07.46	276.48	27.74	-23.1	-23.5	18.7	0.00e+00	0	44	102	25165824	6	3739
2026-01-24 16:07:10.47	277.43	27.67	-23.1	-23.4	18.8	0.00e+00	0	44	102	25165824	6	3715
2026-01-24 16:07:13.49	278.38	27.60	-23.2	-23.6	18.6	0.00e+00	0	44	102	25165824	6	3780
2026-01-24 16:07:16.51	279.33	27.51	-23.4	-24.0	18.5	0.00e+00	0	44	102	25165824	6	3849
2026-01-24 16:07:19.51	280.27	27.41	-23.2	-23.5	18.7	0.00e+00	0	44	102	25165824	6	3751
2026-01-24 16:07:22.53	281.20	27.31	-23.0	-23.1	18.9	0.00e+00	0	44	102	25165824	6	3664
2026-01-24 16:07:25.53	282.13	27.20	-23.1	-23.3	18.8	0.00e+00	0	44	102	25165824	6	3710
2026-01-24 16:07:28.55	283.05	27.09	-23.1	-23.4	18.7	0.00e+00	0	44	102	25165824	6	3735
2026-01-24 16:07:31.57	283.97	26.96	-23.3	-23.8	18.5	0.00e+00	0	44	102	25165824	6	3819
2026-01-24 16:07:34.58	284.88	26.83	-23.2	-23.6	18.7	0.00e+00	0	44	102	25165824	6	3772
2026-01-24 16:07:37.58	285.77	26.69	-23.5	-23.6	18.4	0.00e+00	0	44	102	25165824	7	3667
2026-01-24 16:07:40.60	286.67	26.55	-23.4	-23.5	18.5	0.00e+00	0	44	102	25165824	7	3635
2026-01-24 16:07:43.61	287.55	26.40	-23.2	-23.1	18.7	0.00e+00	0	44	102	25165824	7	3551
2026-01-24 16:07:46.61	288.42	26.24	-23.1	-22.9	18.8	0.00e+00	0	44	102	25165824	7	3521
2026-01-24 16:07:49.63	289.29	26.07	-23.4	-23.6	18.4	0.00e+00	0	44	102	25165824	7	3666
2026-01-24 16:07:52.65	290.15	25.91	-23.4	-23.4	18.5	0.00e+00	0	44	102	25165824	7	3626
2026-01-24 16:07:55.67	291.00	25.73	-23.5	-23.8	18.3	0.00e+00	0	44	102	25165824	7	3717
2026-01-24 16:07:58.69	291.84	25.55	-23.5	-23.7	18.3	0.00e+00	0	44	102	25165824	7	3695
2026-01-24 16:08:01.70	292.67	25.37	-23.2	-23.0	18.7	0.00e+00	0	44	102	25165824	7	3543
2026-01-24 16:08:04.72	293.49	25.17	-23.3	-23.4	18.5	0.00e+00	0	44	102	25165824	7	3626
2026-01-24 16:08:07.73	294.30	24.98	-23.6	-23.9	18.3	0.00e+00	0	44	102	25165824	7	3728
2026-01-24 16:08:10.75	295.11	24.78	-23.7	-24.1	18.2	0.00e+00	0	44	102	25165824	7	3767
2026-01-24 16:08:13.76	295.90	24.58	-23.6	-24.0	18.1	0.00e+00	0	44	102	25165824	7	3763
2026-01-24 16:08:16.76	296.67	24.37	-23.6	-23.9	18.3	0.00e+00	0	44	102	25165824	7	3739
2026-01-24 16:08:19.77	297.44	24.16	-23.6	-23.9	18.2	0.00e+00	0	44	102	25165824	7	3738
2026-01-24 16:08:22.78	298.20	23.95	-23.5	-23.8	18.3	0.00e+00	0	44	102	25165824	7	3709
2026-01-24 16:08:25.79	298.95	23.73	-23.8	-24.4	18.0	0.00e+00	0	44	102	25165824	7	3836
2026-01-24 16:08:28.81	299.69	23.51	-23.9	-24.5	17.9	0.00e+00	0	44	102	25165824	7	3868
2026-01-24 16:08:31.82	300.42	23.29	-24.1	-24.9	17.7	0.00e+00	0	44	102	25165824	7	3960
2026-01-24 16:08:34.83	301.14	23.06	-24.0	-24.7	17.8	0.00e+00	0	44	102	25165824	7	3925
2026-01-24 16:08:37.84	301.85	22.83	-24.3	-24.9	17.5	0.00e+00	0	44	102	25165824	8	3855
2026-01-24 16:08:40.86	302.55	22.60	-24.2	-24.7	17.5	0.00e+00	0	44	102	25165824	8	3814
2026-01-24 16:08:43.86	303.24	22.37	-24.1	-24.5	17.6	0.00e+00	0	44	102	25165824	8	3775
2026-01-24 16:08:46.87	303.91	22.14	-23.9	-24.0	17.9	0.00e+00	0	44	102	25165824	8	3658
2026-01-24 16:08:49.89	304.58	21.90	-24.0	-24.2	17.8	0.00e+00	0	44	102	25165824	8	3702
2026-01-24 16:08:52.91	305.24	21.66	-24.2	-24.8	17.5	0.00e+00	0	44	102	25165824	8	3828
2026-01-24 16:08:55.93	305.89	21.42	-24.3	-25.0	17.4	0.00e+00	0	44	102	25165824	8	3884
2026-01-24 16:08:58.93	306.53	21.18	-24.4	-25.2	17.3	0.00e+00	0	44	102	25165824	8	3935
2026-01-24 16:09:01.94	307.16	20.94	-24.3	-24.8	17.4	0.00e+00	0	44	102	25165824	8	3840
2026-01-24 16:09:04.95	307.78	20.70	-24.5	-25.3	17.2	0.00e+00	0	44	102	25165824	8	3950
2026-01-24 16:09:07.97	308.39	20.45	-24.5	-25.4	17.1	0.00e+00	0	44	102	25165824	8	3972
2026-01-24 16:09:10.99	308.99	20.21	-24.9	-25.6	16.8	0.00e+00	0	44	102	25165824	9	3925
2026-01-24 16:09:14.00	309.58	19.96	-25.0	-25.4	16.7	0.00e+00	0	44	102	25165824	10	3757
2026-01-24 16:09:17.01	310.17	19.72	-25.0	-25.3	16.6	0.00e+00	0	44	102	25165824	10	3754
2026-01-24 16:09:20.02	310.74	19.47	-25.0	-25.5	16.6	0.00e+00	0	44	102	25165824	10	3786
2026-01-24 16:09:23.04	311.30	19.22	-24.7	-24.8	16.9	0.00e+00	0	44	102	25165824	10	3624
2026-01-24 16:09:26.06	311.86	18.98	-24.6	-24.6	17.0	0.00e+00	0	44	102	25165824	10	3591
2026-01-24 16:09:29.07	312.41	18.73	-24.7	-24.8	16.9	0.00e+00	0	44	102	25165824	10	3631
2026-01-24 16:09:32.07	312.94	18.49	-25.0	-25.3	16.6	0.00e+00	0	44	102	25165824	10	3752
2026-01-24 16:09:35.09	313.47	18.24	-25.2	-25.8	16.3	0.00e+00	0	44	102	25165824	10	3867
2026-01-24 16:09:38.09	313.99	17.99	-25.1	-25.6	16.4	1.10e-06	0	44	102	25165824	10	3822
2026-01-24 16:09:41.10	314.51	17.75	-25.0	-25.3	16.6	0.00e+00	0	44	102	25165824	10	3751
2026-01-24 16:09:44.11	315.01	17.50	-24.7	-24.8	16.8	0.00e+00	0	44	102	25165824	10	3642
2026-01-24 16:09:47.14	315.51	17.26	-25.0	-25.5	16.5	0.00e+00	0	44	102	25165824	10	3784
2026-01-24 16:09:50.15	316.00	17.01	-24.8	-24.9	16.8	0.00e+00	0	44	102	25165824	10	3663
2026-01-24 16:09:53.17	316.48	16.77	-25.2	-25.8	16.3	0.00e+00	0	44	102	25165824	10	3860
2026-01-24 16:09:56.17	316.96	16.52	-25.6	-26.1	15.8	0.00e+00	0	44	102	25165824	11	3836
2026-01-24 16:09:59.18	317.42	16.28	-25.6	-26.3	15.7	0.00e+00	0	44	102	25165824	11	3881
2026-01-24 16:10:02.18	317.88	16.04	-25.7	-26.4	15.6	0.00e+00	0	44	102	25165824	11	3916
2026-01-24 16:10:05.18	318.33	15.80	-25.5	-26.1	15.8	0.00e+00	0	44	102	25165824	11	3827
2026-01-24 16:10:08.19	318.78	15.56	-25.3	-25.6	16.1	0.00e+00	0	44	102	25165824	11	3715
2026-01-24 16:10:11.20	319.21	15.32	-25.2	-25.3	16.2	0.00e+00	0	44	102	25165824	11	3659
2026-01-24 16:10:14.21	319.65	15.08	-25.3	-25.5	16.1	0.00e+00	0	44	102	25165824	11	3695
2026-01-24 16:10:17.21	320.07	14.84	-25.6	-26.1	15.8	0.00e+00	0	44	102	25165824	11	3848
2026-01-24 16:10:20.22	320.49	14.60	-25.7	-26.5	15.5	0.00e+00	0	44	102	25165824	11	3938
2026-01-24 16:10:23.23	320.90	14.37	-25.8	-26.7	15.4	0.00e+00	0	44	102	25165824	11	3983
2026-01-24 16:10:26.24	321.31	14.13	-26.1	-26.9	14.9	0.00e+00	0	44	102	25165824	12	3932
2026-01-24 16:10:29.24	321.70	13.90	-26.1	-26.8	14.9	0.00e+00	0	44	102	25165824	12	3916
2026-01-24 16:10:32.26	322.10	13.67	-25.9	-26.4	15.2	0.00e+00	0	44	102	25165824	12	3821
2026-01-24 16:10:35.26	322.49	13.43	-25.9	-26.3	15.2	0.00e+00	0	44	102	25165824	12	3791
2026-01-24 16:10:38.27	322.87	13.20	-25.6	-25.8	15.5	0.00e+00	0	44	102	25165824	12	3665
2026-01-24 16:10:41.27	323.24	12.97	-25.7	-25.9	15.4	0.00e+00	0	44	102	25165824	12	3694
2026-01-24 16:10:44.29	323.61	12.74	-25.7	-26.0	15.4	0.00e+00	0	44	102	25165824	12	3718
2026-01-24 16:10:47.31	323.98	12.52	-25.9	-26.4	15.2	0.00e+00	0	44	102	25165824	12	3806
2026-01-24 16:10:50.31	324.34	12.29	-25.8	-26.3	15.2	0.00e+00	0	44	102	25165824	12	3788
2026-01-24 16:10:53.34	324.70	12.06	-25.9	-26.4	15.1	0.00e+00	0	44	102	25165824	12	3811
2026-01-24 16:10:56.35	325.04	11.84	-25.9	-26.5	15.0	0.00e+00	0	44	102	25165824	12	3849
2026-01-24 16:10:59.36	325.39	11.62	-26.1	-26.9	14.8	0.00e+00	0	44	102	25165824	12	3934
2026-01-24 16:11:02.38	325.73	11.39	-26.2	-27.1	14.7	0.00e+00	0	44	102	25165824	12	3999
2026-01-24 16:11:05.39	326.06	11.17	-26.3	-27.2	14.6	0.00e+00	0	44	102	25165824	12	4019
2026-01-24 16:11:08.40	326.39	10.95	-26.4	-27.6	14.4	0.00e+00	0	44	102	25165824	12	4111
2026-01-24 16:11:11.41	326.72	10.73	-26.5	-27.7	14.3	1.10e-06	0	44	102	25165824	12	4154
2026-01-24 16:11:14.42	327.04	10.52	-26.6	-27.6	14.1	2.20e-06	0	44	102	25165824	13	4002
2026-01-24 16:11:17.42	327.35	10.30	-26.7	-27.8	13.9	4.50e-06	0	44	102	25165824	13	4066
2026-01-24 16:11:20.44	327.67	10.09	-26.6	-27.5	14.1	3.40e-06	0	44	102	25165824	13	3987
2026-01-24 16:11:23.45	327.97	9.87	-26.5	-27.3	14.2	1.10e-06	0	44	102	25165824	13	3935
2026-01-24 16:11:26.46	328.28	9.66	-26.6	-27.4	14.1	2.20e-06	0	44	102	25165824	13	3964
2026-01-24 16:11:29.46	328.57	9.45	-26.6	-27.4	14.1	2.20e-06	0	44	102	25165824	13	3962
2026-01-24 16:11:32.47	328.87	9.24	-26.8	-28.0	13.8	2.20e-06	0	44	102	25165824	13	4114
2026-01-24 16:11:35.48	329.16	9.03	-26.8	-27.9	13.8	2.20e-06	0	44	102	25165824	13	4096
2026-01-24 16:11:38.50	329.45	8.82	-26.9	-28.3	13.5	9.10e-06	0	44	102	25165824	13	4199
2026-01-24 16:11:41.50	329.73	8.61	-26.8	-27.9	13.7	6.80e-06	0	45	102	25165824	13	4093
2026-01-24 16:11:44.50	330.01	8.41	-26.7	-27.7	13.9	6.80e-06	0	44	102	25165824	13	4035
2026-01-24 16:11:47.52	330.28	8.20	-26.6	-27.5	13.9	3.40e-06	0	44	102	25165824	13	3998
2026-01-24 16:11:50.53	330.55	8.00	-26.5	-27.4	14.0	1.10e-06	0	44	102	25165824	13	3969
2026-01-24 16:11:53.54	330.82	7.80	-26.6	-27.5	13.9	2.20e-06	0	44	102	25165824	13	3989
2026-01-24 16:11:56.56	331.09	7.59	-26.7	-27.8	13.7	3.40e-06	0	44	102	25165824	13	4085
2026-01-24 16:11:59.58	331.35	7.39	-26.6	-27.6	13.8	2.20e-06	0	44	102	25165824	13	4024
2026-01-24 16:12:02.60	331.61	7.19	-26.8	-28.1	13.5	5.70e-06	0	44	102	25165824	13	4155
2026-01-24 16:12:05.61	331.86	7.00	-33.6	-43.6	3.8	8.47e-01	0	44	104	25165824	26	11379

#Closed at: 2026-01-24 16:12:07
#Recorded file [25 MB]: D:/data/31010_260124_190129.dat