passes_logs/2026/01/24/R2M6_AANII_01/R2M6_AANII_01__20260124_060752_FENGYUN_3E_rec.log

#Pass ID: 20260124_060752_FENGYUN 3E
#Satellite: FENGYUN 3E
#Configuration: FENGYUN 3E
#almurnet v.1.7.20240730
#Start time: 2026-01-24 06:07:53

#Version: 2.2.20231116
#Station: R2M6_AANII_01
#Location: 30.233357 lon 59.946436 lat
#TLE: 1 49008U 21062A   26023.60278097 -.00000097  00000+0 -24964-4 0  9990
#TLE: 2 49008  98.7490  28.6300 0002358 120.0933 240.0477 14.19886577236062

#Time	Az	El	Level	Level2	SNR	BER	BlckErr	Temp	State	Recorded	gain1	gain2
2026-01-24 06:07:53.14	11.62	7.06	-31.0	-34.4	4.8	8.03e-01	0	41	0	0	22	5285
2026-01-24 06:07:56.15	11.40	7.26	-30.8	-34.1	7.5	1.04e-01	0	41	102	1048576	21	5259
2026-01-24 06:07:59.16	11.17	7.47	-30.8	-34.1	7.5	8.58e-02	0	41	102	1048576	21	5258
2026-01-24 06:08:02.17	10.95	7.68	-30.0	-32.2	9.2	3.34e-02	0	41	102	1048576	20	4636
2026-01-24 06:08:05.18	10.72	7.89	-28.4	-29.6	11.9	8.69e-04	0	41	102	1048576	17	4123
2026-01-24 06:08:08.20	10.48	8.11	-27.1	-28.0	13.6	4.31e-04	0	42	102	1048576	14	4006
2026-01-24 06:08:11.21	10.24	8.32	-26.7	-27.8	14.0	4.19e-04	0	42	102	1048576	13	4064
2026-01-24 06:08:14.22	10.00	8.54	-26.8	-27.8	14.0	0.00e+00	0	41	102	1048576	13	4061
2026-01-24 06:08:17.23	9.76	8.75	-26.6	-27.5	14.2	1.10e-06	0	42	102	1048576	13	3990
2026-01-24 06:08:20.23	9.51	8.97	-26.6	-27.5	14.2	1.10e-06	0	42	102	1048576	13	3993
2026-01-24 06:08:23.24	9.25	9.19	-26.7	-27.8	14.1	2.38e-04	0	42	102	1048576	13	4051
2026-01-24 06:08:26.25	9.00	9.41	-26.8	-27.8	14.1	1.10e-06	0	42	102	1048576	13	4056
2026-01-24 06:08:29.25	8.74	9.63	-26.9	-27.5	14.0	5.70e-06	0	42	102	1048576	14	3883
2026-01-24 06:08:32.26	8.47	9.86	-26.8	-27.9	14.1	2.20e-06	0	42	102	1048576	13	4075
2026-01-24 06:08:35.27	8.20	10.08	-26.9	-28.1	14.0	5.70e-06	0	42	102	1048576	13	4129
2026-01-24 06:08:38.29	7.93	10.31	-26.4	-27.6	14.6	0.00e+00	0	42	102	1048576	12	4105
2026-01-24 06:08:41.30	7.65	10.54	-26.3	-27.3	14.8	0.00e+00	0	42	102	1048576	12	4026
2026-01-24 06:08:44.31	7.36	10.77	-26.3	-27.2	14.9	0.00e+00	0	42	102	1048576	12	3999
2026-01-24 06:08:47.32	7.08	11.00	-26.3	-27.4	14.8	0.00e+00	0	43	102	1048576	12	4044
2026-01-24 06:08:50.32	6.78	11.23	-26.3	-27.1	14.9	0.00e+00	0	43	102	1048576	12	3989
2026-01-24 06:08:53.34	6.49	11.47	-26.4	-27.4	14.7	0.00e+00	0	43	102	1048576	12	4059
2026-01-24 06:08:56.35	6.18	11.70	-26.5	-27.3	14.6	0.00e+00	0	43	102	1048576	13	3918
2026-01-24 06:08:59.37	5.87	11.94	-26.5	-27.3	14.6	0.00e+00	0	43	102	1048576	13	3916
2026-01-24 06:09:02.38	5.56	12.18	-26.4	-26.9	14.8	0.00e+00	0	43	102	1048576	13	3836
2026-01-24 06:09:05.39	5.24	12.42	-26.4	-26.9	14.8	0.00e+00	0	43	102	1048576	13	3819
2026-01-24 06:09:08.40	4.92	12.66	-26.2	-26.6	15.0	1.10e-06	0	43	102	1048576	13	3756
2026-01-24 06:09:11.41	4.59	12.90	-26.1	-26.2	15.2	0.00e+00	0	43	102	1048576	13	3662
2026-01-24 06:09:14.43	4.25	13.15	-26.0	-26.0	15.4	0.00e+00	0	43	102	1048576	13	3608
2026-01-24 06:09:17.45	3.91	13.39	-26.1	-26.2	15.3	0.00e+00	0	43	102	1048576	13	3665
2026-01-24 06:09:20.46	3.57	13.64	-26.1	-26.3	15.2	0.00e+00	0	43	102	1048576	13	3672
2026-01-24 06:09:23.47	3.21	13.89	-26.1	-26.4	15.2	0.00e+00	0	43	102	1048576	13	3694
2026-01-24 06:09:26.49	2.85	14.14	-26.1	-26.2	15.3	0.00e+00	0	43	102	1048576	13	3656
2026-01-24 06:09:29.49	2.49	14.39	-25.6	-25.7	15.9	0.00e+00	0	43	102	1048576	12	3642
2026-01-24 06:09:32.52	2.11	14.64	-25.7	-25.9	15.8	0.00e+00	0	43	102	1048576	12	3675
2026-01-24 06:09:35.53	1.74	14.90	-25.6	-25.6	15.9	0.00e+00	0	43	102	1048576	12	3615
2026-01-24 06:09:38.54	1.35	15.15	-25.5	-25.6	16.0	0.00e+00	0	43	102	1048576	12	3612
2026-01-24 06:09:41.55	0.96	15.41	-25.6	-26.2	16.0	0.00e+00	0	43	102	1048576	11	3858
2026-01-24 06:09:44.56	0.56	15.67	-25.4	-25.8	16.2	0.00e+00	0	43	102	1048576	11	3754
2026-01-24 06:09:47.58	0.15	15.93	-25.4	-25.8	16.3	0.00e+00	0	43	102	1048576	11	3748
2026-01-24 06:09:50.59	359.74	16.19	-25.3	-26.0	16.4	0.00e+00	0	43	102	1048576	10	3914
2026-01-24 06:09:53.61	359.32	16.45	-25.4	-26.2	16.3	0.00e+00	0	43	102	1048576	10	3962
2026-01-24 06:09:56.62	358.89	16.72	-25.6	-26.2	16.1	0.00e+00	0	43	102	1048576	11	3842
2026-01-24 06:09:59.63	358.45	16.98	-25.5	-26.0	16.2	0.00e+00	0	43	102	1048576	11	3798
2026-01-24 06:10:02.64	358.01	17.25	-25.3	-26.1	16.4	0.00e+00	0	43	102	1048576	10	3924
2026-01-24 06:10:05.66	357.56	17.51	-25.2	-25.7	16.6	0.00e+00	0	43	102	1048576	10	3842
2026-01-24 06:10:08.67	357.10	17.78	-24.9	-25.6	16.9	0.00e+00	0	43	102	1048576	9	3905
2026-01-24 06:10:11.68	356.63	18.05	-24.9	-25.6	16.9	0.00e+00	0	43	102	1048576	9	3923
2026-01-24 06:10:14.70	356.15	18.32	-25.0	-25.9	16.8	0.00e+00	0	43	102	1048576	9	3986
2026-01-24 06:10:17.72	355.66	18.59	-24.9	-25.6	16.9	0.00e+00	0	43	102	1048576	9	3927
2026-01-24 06:10:20.74	355.16	18.86	-25.3	-26.0	16.5	0.00e+00	0	43	102	1048576	10	3894
2026-01-24 06:10:23.75	354.66	19.14	-25.2	-25.8	16.6	0.00e+00	0	43	102	1048576	10	3845
2026-01-24 06:10:26.77	354.14	19.41	-24.9	-25.7	16.9	0.00e+00	0	43	102	1048576	9	3929
2026-01-24 06:10:29.79	353.62	19.68	-25.4	-25.7	16.4	0.00e+00	0	43	102	1048576	11	3723
2026-01-24 06:10:32.80	353.09	19.96	-25.0	-25.4	16.9	0.00e+00	0	43	102	1048576	10	3753
2026-01-24 06:10:35.81	352.54	20.23	-24.9	-25.8	16.9	0.00e+00	0	43	102	1048576	9	3961
2026-01-24 06:10:38.81	351.99	20.50	-25.0	-25.9	16.7	0.00e+00	0	43	102	1048576	9	3984
2026-01-24 06:10:41.83	351.43	20.78	-25.2	-25.8	16.6	0.00e+00	0	43	102	1048576	10	3870
2026-01-24 06:10:44.85	350.86	21.05	-25.0	-25.4	16.9	0.00e+00	0	43	102	1048576	10	3769
2026-01-24 06:10:47.85	350.27	21.33	-25.0	-25.4	16.9	1.85e-04	0	43	102	1048576	10	3767
2026-01-24 06:10:50.86	349.68	21.60	-25.3	-26.1	16.5	2.36e-04	0	43	102	1048576	10	3918
2026-01-24 06:10:53.87	349.08	21.87	-24.6	-25.0	17.4	1.12e-04	0	43	102	1048576	9	3767
2026-01-24 06:10:56.89	348.46	22.15	-24.9	-25.7	17.0	0.00e+00	0	43	102	1048576	9	3934
2026-01-24 06:10:59.90	347.83	22.42	-25.0	-25.9	16.8	0.00e+00	0	43	102	1048576	9	3999
2026-01-24 06:11:02.90	347.20	22.69	-24.8	-25.5	17.1	0.00e+00	0	43	102	1048576	9	3892
2026-01-24 06:11:05.91	346.55	22.96	-24.5	-24.2	17.5	0.00e+00	0	43	102	1048576	10	3507
2026-01-24 06:11:08.92	345.89	23.23	-24.4	-24.5	17.6	0.00e+00	0	43	102	1048576	9	3670
2026-01-24 06:11:11.93	345.21	23.50	-24.3	-24.3	17.7	0.00e+00	0	43	102	1048576	9	3625
2026-01-24 06:11:14.94	344.53	23.76	-24.3	-24.3	17.7	0.00e+00	0	44	102	1048576	9	3619
2026-01-24 06:11:17.95	343.83	24.03	-24.0	-23.8	18.0	0.00e+00	0	43	102	1048576	9	3507
2026-01-24 06:11:20.96	343.12	24.29	-24.0	-24.2	18.0	0.00e+00	0	43	102	1048576	8	3691
2026-01-24 06:11:23.97	342.40	24.55	-24.0	-24.2	18.0	0.00e+00	0	43	102	1048576	8	3695
2026-01-24 06:11:26.97	341.68	24.81	-24.0	-24.3	18.0	0.00e+00	0	43	102	1048576	8	3707
2026-01-24 06:11:29.99	340.93	25.06	-24.0	-24.2	18.0	0.00e+00	0	43	102	1048576	8	3700
2026-01-24 06:11:33.00	340.17	25.32	-23.7	-24.1	18.3	0.00e+00	0	44	102	1048576	7	3767
2026-01-24 06:11:36.01	339.40	25.56	-23.7	-24.1	18.3	0.00e+00	0	43	102	1048576	7	3785
2026-01-24 06:11:39.02	338.62	25.81	-23.9	-24.5	18.1	0.00e+00	0	43	102	1048576	7	3859
2026-01-24 06:11:42.03	337.83	26.05	-23.9	-24.5	18.2	0.00e+00	0	44	102	1048576	7	3860
2026-01-24 06:11:45.05	337.02	26.29	-23.8	-24.3	18.3	0.00e+00	0	44	102	1048576	7	3809
2026-01-24 06:11:48.06	336.20	26.52	-23.8	-24.3	18.2	0.00e+00	0	43	102	1048576	7	3823
2026-01-24 06:11:51.08	335.37	26.75	-24.0	-24.8	18.0	0.00e+00	0	43	102	1048576	7	3944
2026-01-24 06:11:54.08	334.53	26.98	-24.0	-24.3	18.0	0.00e+00	0	44	102	1048576	8	3715
2026-01-24 06:11:57.08	333.68	27.19	-23.8	-24.4	18.2	0.00e+00	0	43	102	1048576	7	3837
2026-01-24 06:12:00.10	332.81	27.41	-23.6	-24.0	18.4	0.00e+00	0	43	102	1048576	7	3740
2026-01-24 06:12:03.11	331.93	27.62	-22.9	-23.4	17.9	0.00e+00	0	44	102	1048576	7	3809
2026-01-24 06:12:06.11	331.05	27.82	-24.2	-24.7	17.9	0.00e+00	0	44	102	1048576	8	3803
2026-01-24 06:12:09.12	330.15	28.01	-24.1	-24.5	18.0	0.00e+00	0	44	102	1048576	8	3757
2026-01-24 06:12:12.13	329.24	28.20	-24.3	-24.8	17.8	0.00e+00	0	43	102	1048576	8	3830
2026-01-24 06:12:15.16	328.31	28.38	-23.6	-23.5	18.5	0.00e+00	0	43	102	1048576	8	3541
2026-01-24 06:12:18.18	327.37	28.56	-23.5	-23.7	18.5	0.00e+00	0	44	102	1048576	7	3688
2026-01-24 06:12:21.18	326.43	28.73	-23.6	-24.3	18.5	8.56e-04	0	44	102	1048576	6	3931
2026-01-24 06:12:24.19	325.48	28.89	-23.4	-24.0	18.7	3.81e-04	0	44	102	1048576	6	3862
2026-01-24 06:12:27.18	324.53	29.04	-23.5	-24.3	18.6	3.71e-04	0	44	102	1048576	6	3926
2026-01-24 06:12:30.20	323.55	29.18	-23.9	-24.5	18.2	2.97e-04	0	44	102	1048576	7	3855
2026-01-24 06:12:33.20	322.58	29.31	-23.5	-23.8	18.6	0.00e+00	0	43	102	1048576	7	3697
2026-01-24 06:12:36.21	321.59	29.44	-23.2	-23.6	18.9	0.00e+00	0	43	102	1048576	6	3765
2026-01-24 06:12:39.22	320.60	29.55	-23.4	-24.1	18.7	0.00e+00	0	44	102	1048576	6	3868
2026-01-24 06:12:42.24	319.59	29.66	-23.2	-23.5	18.9	0.00e+00	0	44	102	1048576	6	3742
2026-01-24 06:12:45.24	318.59	29.76	-23.1	-23.4	19.0	0.00e+00	0	43	102	1048576	6	3716
2026-01-24 06:12:48.25	317.57	29.85	-23.2	-23.7	18.9	0.00e+00	0	44	102	1048576	6	3786
2026-01-24 06:12:51.28	316.55	29.93	-23.2	-23.6	18.9	0.00e+00	0	43	102	1048576	6	3772
2026-01-24 06:12:54.29	315.52	29.99	-23.3	-23.3	18.8	0.00e+00	0	44	102	1048576	7	3602
2026-01-24 06:12:57.31	314.49	30.05	-23.2	-23.6	18.9	0.00e+00	0	43	102	1048576	6	3767
2026-01-24 06:13:00.31	313.46	30.10	-23.2	-23.6	18.9	0.00e+00	0	44	102	1048576	6	3764
2026-01-24 06:13:03.32	312.43	30.14	-23.3	-23.8	18.8	0.00e+00	0	44	102	1048576	6	3801
2026-01-24 06:13:06.33	311.39	30.16	-23.5	-24.1	18.7	0.00e+00	0	44	102	1048576	6	3874
2026-01-24 06:13:09.35	310.35	30.18	-23.4	-24.1	18.7	0.00e+00	0	43	102	1048576	6	3880
2026-01-24 06:13:12.37	309.31	30.19	-23.5	-23.6	18.6	0.00e+00	0	44	102	1048576	7	3658
2026-01-24 06:13:15.37	308.27	30.18	-23.4	-23.9	18.7	0.00e+00	0	44	102	1048576	6	3835
2026-01-24 06:13:18.38	307.23	30.16	-23.2	-23.7	18.9	0.00e+00	0	44	102	1048576	6	3787
2026-01-24 06:13:21.39	306.20	30.14	-23.2	-23.5	19.0	0.00e+00	0	43	102	1048576	6	3757
2026-01-24 06:13:24.41	305.16	30.10	-23.4	-24.0	18.7	0.00e+00	0	44	102	1048576	6	3857
2026-01-24 06:13:27.41	304.13	30.05	-23.4	-24.1	18.6	0.00e+00	0	44	102	1048576	6	3872
2026-01-24 06:13:30.42	303.10	30.00	-23.4	-24.0	18.6	0.00e+00	0	44	102	1048576	6	3861
2026-01-24 06:13:33.43	302.07	29.93	-23.1	-22.9	19.0	0.00e+00	0	44	102	1048576	7	3516
2026-01-24 06:13:36.44	301.05	29.85	-23.4	-23.4	18.7	0.00e+00	0	44	102	1048576	7	3627
2026-01-24 06:13:39.46	300.03	29.76	-23.0	-22.6	19.1	0.00e+00	0	43	102	1048576	7	3461
2026-01-24 06:13:42.48	299.02	29.67	-23.1	-23.3	19.0	0.00e+00	0	44	102	1048576	6	3707
2026-01-24 06:13:45.50	298.01	29.56	-23.2	-23.6	18.9	0.00e+00	0	44	102	1048576	6	3754
2026-01-24 06:13:48.51	297.02	29.44	-23.0	-23.2	19.0	0.00e+00	0	43	102	1048576	6	3690
2026-01-24 06:13:51.51	296.03	29.32	-23.3	-23.7	18.8	0.00e+00	0	44	102	1048576	6	3799
2026-01-24 06:13:54.51	295.05	29.19	-23.3	-23.8	18.7	0.00e+00	0	43	102	1048576	6	3816
2026-01-24 06:13:57.53	294.08	29.04	-23.1	-23.4	18.9	0.00e+00	0	44	102	1048576	6	3714
2026-01-24 06:14:00.54	293.11	28.89	-23.2	-23.6	18.8	0.00e+00	0	43	102	1048576	6	3760
2026-01-24 06:14:03.55	292.16	28.73	-23.5	-24.2	18.5	0.00e+00	0	44	102	1048576	6	3896
2026-01-24 06:14:06.56	291.22	28.56	-23.4	-23.6	18.6	0.00e+00	0	43	102	1048576	7	3655
2026-01-24 06:14:09.56	290.28	28.39	-23.3	-23.3	18.7	0.00e+00	0	44	102	1048576	7	3588
2026-01-24 06:14:12.58	289.36	28.21	-23.3	-23.3	18.7	0.00e+00	0	44	102	1048576	7	3600
2026-01-24 06:14:15.59	288.44	28.02	-23.2	-23.0	18.8	0.00e+00	0	43	102	1048576	7	3538
2026-01-24 06:14:18.60	287.54	27.82	-23.4	-23.5	18.5	0.00e+00	0	44	102	1048576	7	3640
2026-01-24 06:14:21.61	286.65	27.62	-23.4	-23.4	18.6	0.00e+00	0	43	102	1048576	7	3630
2026-01-24 06:14:24.63	285.76	27.41	-23.3	-23.7	18.7	0.00e+00	0	43	102	1048576	6	3793
2026-01-24 06:14:27.63	284.90	27.20	-23.5	-24.3	18.4	0.00e+00	0	44	102	1048576	6	3924
2026-01-24 06:14:30.64	284.04	26.98	-23.5	-23.6	18.5	0.00e+00	0	44	102	1048576	7	3675
2026-01-24 06:14:33.65	283.20	26.76	-23.3	-23.9	18.6	0.00e+00	0	44	102	1048576	6	3832
2026-01-24 06:14:36.65	282.37	26.53	-23.2	-23.5	18.8	0.00e+00	0	44	102	1048576	6	3751
2026-01-24 06:14:39.66	281.54	26.29	-23.3	-23.8	18.5	0.00e+00	0	44	102	1048576	6	3824
2026-01-24 06:14:42.66	280.74	26.06	-23.5	-24.3	18.3	0.00e+00	0	44	102	1048576	6	3921
2026-01-24 06:14:45.67	279.94	25.81	-23.6	-23.8	18.3	0.00e+00	0	43	102	1048576	7	3715
2026-01-24 06:14:48.70	279.15	25.57	-23.5	-23.7	18.4	0.00e+00	0	44	102	1048576	7	3685
2026-01-24 06:14:51.71	278.38	25.32	-23.5	-23.6	18.4	0.00e+00	0	44	102	1048576	7	3672
2026-01-24 06:14:54.71	277.62	25.06	-23.4	-23.5	18.5	0.00e+00	0	43	102	1048576	7	3641
2026-01-24 06:14:57.72	276.87	24.81	-23.4	-23.5	18.4	0.00e+00	0	43	102	1048576	7	3653
2026-01-24 06:15:00.73	276.14	24.55	-23.6	-23.9	18.2	0.00e+00	0	43	102	1048576	7	3741
2026-01-24 06:15:03.74	275.42	24.29	-23.6	-23.9	18.2	0.00e+00	0	44	102	1048576	7	3743
2026-01-24 06:15:06.75	274.70	24.03	-23.7	-24.1	18.1	0.00e+00	0	44	102	1048576	7	3769
2026-01-24 06:15:09.77	274.00	23.76	-23.7	-24.1	18.1	0.00e+00	0	43	102	1048576	7	3783
2026-01-24 06:15:12.77	273.32	23.49	-23.6	-24.0	18.1	3.27e-04	0	44	102	1048576	7	3756
2026-01-24 06:15:15.78	272.64	23.22	-23.8	-24.4	17.9	5.06e-04	0	44	102	1048576	7	3857
2026-01-24 06:15:18.80	271.97	22.95	-23.6	-24.0	18.1	1.85e-04	0	44	102	1048576	7	3761
2026-01-24 06:15:21.80	271.32	22.68	-23.8	-24.3	18.0	0.00e+00	0	44	102	1048576	7	3825
2026-01-24 06:15:24.82	270.68	22.41	-23.5	-23.7	18.3	2.39e-04	0	43	102	1048576	7	3696
2026-01-24 06:15:27.84	270.05	22.14	-23.8	-24.4	17.9	4.04e-04	0	44	102	1048576	7	3852
2026-01-24 06:15:30.85	269.43	21.86	-24.5	-25.4	17.2	8.43e-04	0	44	102	1048576	8	3982
2026-01-24 06:15:33.84	268.82	21.59	-23.8	-24.4	17.9	0.00e+00	0	43	102	1048576	7	3841
2026-01-24 06:15:36.86	268.23	21.31	-23.9	-24.7	17.7	0.00e+00	0	44	102	1048576	7	3911
2026-01-24 06:15:39.88	267.64	21.04	-23.8	-24.4	17.9	0.00e+00	0	43	102	1048576	7	3840
2026-01-24 06:15:42.89	267.06	20.76	-23.9	-24.5	17.8	0.00e+00	0	43	102	1048576	7	3881
2026-01-24 06:15:45.89	266.50	20.49	-23.6	-23.9	18.1	0.00e+00	0	43	102	1048576	7	3742
2026-01-24 06:15:48.91	265.94	20.21	-23.7	-24.2	17.9	0.00e+00	0	43	102	1048576	7	3801
2026-01-24 06:15:51.91	265.40	19.94	-24.1	-25.0	17.5	0.00e+00	0	44	102	1048576	7	3980
2026-01-24 06:15:54.93	264.86	19.66	-24.2	-24.7	17.4	0.00e+00	0	44	102	1048576	8	3815
2026-01-24 06:15:57.95	264.33	19.39	-24.5	-25.4	17.1	0.00e+00	0	44	102	1048576	8	3984
2026-01-24 06:16:00.96	263.81	19.11	-24.3	-25.0	17.2	0.00e+00	0	43	102	1048576	8	3898
2026-01-24 06:16:03.97	263.31	18.84	-24.4	-25.2	17.1	0.00e+00	0	44	102	1048576	8	3940
2026-01-24 06:16:06.98	262.81	18.57	-24.5	-25.3	17.1	0.00e+00	0	43	102	1048576	8	3965
2026-01-24 06:16:10.00	262.32	18.29	-24.5	-24.9	17.0	0.00e+00	0	43	102	1048576	9	3763
2026-01-24 06:16:13.00	261.84	18.02	-24.4	-24.7	17.1	0.00e+00	0	43	102	1048576	9	3710
2026-01-24 06:16:15.99	261.37	17.76	-24.4	-24.5	17.2	0.00e+00	0	43	102	1048576	9	3679
2026-01-24 06:16:19.00	260.90	17.49	-24.5	-25.3	17.0	0.00e+00	0	44	102	1048576	8	3962
2026-01-24 06:16:22.00	260.45	17.22	-24.8	-25.5	16.7	0.00e+00	0	44	102	1048576	9	3891
2026-01-24 06:16:25.00	260.00	16.95	-24.8	-25.6	16.6	0.00e+00	0	44	102	1048576	9	3931
2026-01-24 06:16:28.01	259.57	16.69	-25.0	-25.5	16.4	0.00e+00	0	44	102	1048576	10	3800
2026-01-24 06:16:31.01	259.14	16.43	-25.2	-25.9	16.2	0.00e+00	0	44	102	1048576	10	3891
2026-01-24 06:16:34.04	258.71	16.16	-25.3	-26.0	16.1	2.20e-06	0	44	102	1048576	10	3931
2026-01-24 06:16:37.05	258.29	15.90	-25.2	-25.8	16.2	4.50e-06	0	43	102	1048576	10	3879
2026-01-24 06:16:40.06	257.88	15.64	-25.1	-26.1	16.3	1.10e-06	0	44	102	1048576	9	4047
2026-01-24 06:16:43.07	257.48	15.38	-25.2	-25.9	16.1	5.70e-06	0	44	102	1048576	10	3884
2026-01-24 06:16:46.09	257.08	15.12	-25.3	-26.1	16.0	1.47e-03	0	44	102	1048576	10	3949
2026-01-24 06:16:49.10	256.70	14.86	-25.6	-26.7	15.6	1.60e-03	0	44	102	1048576	10	4085
2026-01-24 06:16:52.12	256.31	14.61	-25.6	-26.3	15.6	1.57e-03	0	44	102	1048576	11	3890
2026-01-24 06:16:55.12	255.94	14.35	-25.6	-26.3	15.6	0.00e+00	0	44	102	1048576	11	3896
2026-01-24 06:16:58.13	255.57	14.10	-25.6	-26.3	15.5	1.02e-03	0	44	102	1048576	11	3893
2026-01-24 06:17:01.16	255.21	13.85	-25.8	-26.6	15.4	9.28e-04	0	44	102	1048576	11	3963
2026-01-24 06:17:04.16	254.85	13.60	-25.5	-26.0	15.7	3.71e-04	0	43	102	1048576	11	3821
2026-01-24 06:17:07.17	254.50	13.35	-25.6	-26.2	15.6	0.00e+00	0	44	102	1048576	11	3854
2026-01-24 06:17:10.18	254.16	13.10	-25.6	-26.2	15.5	0.00e+00	0	44	102	1048576	11	3875
2026-01-24 06:17:13.18	253.82	12.86	-25.9	-26.9	15.1	0.00e+00	0	43	102	1048576	11	4044
2026-01-24 06:17:16.20	253.49	12.62	-25.9	-26.9	15.1	0.00e+00	0	44	102	1048576	11	4030
2026-01-24 06:17:19.21	253.16	12.37	-25.9	-27.0	15.1	0.00e+00	0	44	102	1048576	11	4057
2026-01-24 06:17:22.23	252.84	12.13	-25.8	-26.6	15.3	0.00e+00	0	44	102	1048576	11	3974
2026-01-24 06:17:25.24	252.52	11.89	-25.7	-26.4	15.4	0.00e+00	0	44	102	1048576	11	3927
2026-01-24 06:17:28.24	252.21	11.66	-25.9	-27.0	15.0	0.00e+00	0	44	102	1048576	11	4068
2026-01-24 06:17:31.25	251.91	11.42	-26.1	-27.0	14.7	0.00e+00	0	43	102	1048576	12	3962
2026-01-24 06:17:34.27	251.61	11.18	-26.3	-27.3	14.5	0.00e+00	0	44	102	1048576	12	4042
2026-01-24 06:17:37.28	251.31	10.95	-26.3	-27.3	14.4	0.00e+00	0	44	102	1048576	12	4055
2026-01-24 06:17:40.29	251.02	10.72	-26.2	-27.1	14.5	1.10e-06	0	44	102	1048576	12	3993
2026-01-24 06:17:43.30	250.73	10.49	-26.3	-27.2	14.5	1.10e-06	0	44	102	1048576	12	4019
2026-01-24 06:17:46.31	250.45	10.26	-26.3	-27.3	14.4	0.00e+00	0	44	102	1048576	12	4052
2026-01-24 06:17:49.31	250.18	10.03	-26.6	-27.9	14.0	1.10e-06	0	44	102	1048576	12	4212
2026-01-24 06:17:52.34	249.90	9.80	-26.8	-27.9	13.7	6.80e-06	0	44	102	1048576	13	4105
2026-01-24 06:17:55.35	249.63	9.58	-26.8	-28.1	13.6	1.14e-05	0	44	102	1048576	13	4147
2026-01-24 06:17:58.36	249.37	9.36	-26.7	-27.7	13.8	3.40e-06	0	44	102	1048576	13	4054
2026-01-24 06:18:01.36	249.11	9.14	-26.7	-27.8	13.7	2.20e-06	0	44	102	1048576	13	4070
2026-01-24 06:18:04.38	248.85	8.91	-26.6	-27.7	13.8	2.20e-06	0	44	102	1048576	13	4042
2026-01-24 06:18:07.40	248.60	8.69	-26.6	-27.5	13.9	2.20e-06	0	44	102	1048576	13	3993
2026-01-24 06:18:10.41	248.35	8.48	-26.6	-27.6	13.8	4.50e-06	0	44	102	1048576	13	4027
2026-01-24 06:18:13.41	248.11	8.26	-26.7	-27.7	13.7	3.40e-06	0	44	102	1048576	13	4058
2026-01-24 06:18:16.44	247.86	8.04	-26.8	-27.9	13.5	4.50e-06	0	44	102	1048576	13	4107
2026-01-24 06:18:19.46	247.63	7.83	-26.8	-27.9	13.5	1.37e-05	0	44	102	1048576	13	4120
2026-01-24 06:18:22.46	247.39	7.62	-27.0	-28.5	13.1	1.71e-05	0	43	102	1048576	13	4270
2026-01-24 06:18:25.49	247.16	7.41	-27.0	-28.0	13.1	3.31e-05	0	44	102	1048576	14	4050
2026-01-24 06:18:28.51	246.93	7.20	-27.3	-28.6	12.7	6.06e-05	0	44	102	1048576	14	4203
2026-01-24 06:18:31.51	246.71	6.99	-33.3	-43.1	3.8	8.45e-01	0	44	104	1048576	26	11100

#Closed at: 2026-01-24 06:18:33
#Recorded file [1 MB]: D:/data/31010_260124_090755.dat