passes_logs/2026/01/24/R2M6_AANII_01/R2M6_AANII_01__20260124_042444_FENGYUN_3D_rec.log

#Pass ID: 20260124_042444_FENGYUN 3D
#Satellite: FENGYUN 3D
#Configuration: FENGYUN 3D
#almurnet v.1.7.20240730
#Start time: 2026-01-24 04:24:45

#Version: 2.2.20231116
#Station: R2M6_AANII_01
#Location: 30.233357 lon 59.946436 lat
#TLE: 1 43010U 17072A   26022.96745493  .00000490  00000+0  25355-3 0  9999
#TLE: 2 43010  98.9955 354.9072 0002484  95.6139 264.5320 14.19700039424383

#Time	Az	El	Level	Level2	SNR	BER	BlckErr	Temp	State	Recorded	gain1	gain2
2026-01-24 04:24:45.95	10.70	7.12	-30.7	-34.8	5.1	7.93e-01	0	42	0	0	21	5765
2026-01-24 04:24:48.95	10.42	7.31	-30.9	-35.3	8.0	7.04e-02	0	42	102	1048576	21	5946
2026-01-24 04:24:51.96	10.13	7.51	-30.4	-33.8	9.0	4.49e-02	0	42	102	1048576	21	5301
2026-01-24 04:24:54.98	9.85	7.70	-30.0	-32.9	10.0	1.34e-02	0	42	102	1048576	20	5055
2026-01-24 04:24:57.99	9.55	7.89	-28.7	-30.5	12.3	1.39e-03	0	42	102	1048576	18	4455
2026-01-24 04:25:01.00	9.26	8.09	-27.9	-29.7	13.5	6.52e-04	0	42	102	1048576	16	4423
2026-01-24 04:25:04.01	8.96	8.28	-27.4	-29.0	14.0	4.10e-04	0	42	102	1048576	15	4341
2026-01-24 04:25:07.02	8.65	8.48	-27.5	-29.7	13.9	5.37e-04	0	42	102	1048576	14	4656
2026-01-24 04:25:10.03	8.35	8.68	-27.8	-29.9	13.5	3.74e-04	0	42	102	1048576	15	4605
2026-01-24 04:25:13.03	8.03	8.87	-27.1	-28.9	14.4	1.10e-06	0	42	102	1048576	14	4431
2026-01-24 04:25:16.04	7.72	9.07	-27.2	-29.2	14.3	3.07e-04	0	42	102	1048576	14	4490
2026-01-24 04:25:19.05	7.40	9.27	-27.3	-28.9	14.1	2.02e-04	0	42	102	1048576	15	4299
2026-01-24 04:25:22.07	7.07	9.47	-27.2	-29.0	14.4	0.00e+00	0	43	102	1048576	14	4450
2026-01-24 04:25:25.09	6.74	9.67	-27.0	-28.6	14.7	0.00e+00	0	43	102	1048576	14	4334
2026-01-24 04:25:28.10	6.40	9.87	-27.2	-29.0	14.5	1.77e-04	0	43	102	1048576	14	4430
2026-01-24 04:25:31.11	6.06	10.08	-27.2	-29.0	14.4	3.40e-06	0	43	102	1048576	14	4433
2026-01-24 04:25:34.11	5.72	10.28	-27.2	-29.1	14.4	2.20e-06	0	43	102	1048576	14	4477
2026-01-24 04:25:37.12	5.37	10.48	-27.0	-28.6	14.7	2.20e-06	0	43	102	1048576	14	4333
2026-01-24 04:25:40.14	5.01	10.68	-26.8	-28.6	14.9	0.00e+00	0	43	102	1048576	13	4444
2026-01-24 04:25:43.15	4.65	10.89	-26.8	-28.6	15.0	0.00e+00	0	43	102	1048576	13	4433
2026-01-24 04:25:46.16	4.28	11.09	-26.7	-28.5	15.0	0.00e+00	0	43	102	1048576	13	4407
2026-01-24 04:25:49.17	3.91	11.30	-26.6	-28.2	15.2	0.00e+00	0	43	102	1048576	13	4337
2026-01-24 04:25:52.17	3.54	11.50	-26.8	-28.5	15.0	0.00e+00	0	43	102	1048576	13	4423
2026-01-24 04:25:55.18	3.16	11.71	-26.5	-28.1	15.3	0.00e+00	0	43	102	1048576	13	4285
2026-01-24 04:25:58.20	2.77	11.92	-26.4	-27.8	15.5	0.00e+00	0	43	102	1048576	13	4217
2026-01-24 04:26:01.21	2.38	12.13	-26.5	-27.9	15.5	0.00e+00	0	43	102	1048576	13	4229
2026-01-24 04:26:04.20	1.98	12.33	-26.4	-27.7	15.6	0.00e+00	0	43	102	1048576	13	4183
2026-01-24 04:26:07.22	1.57	12.54	-26.5	-28.0	15.4	0.00e+00	0	43	102	1048576	13	4257
2026-01-24 04:26:10.23	1.16	12.75	-26.5	-27.9	15.5	0.00e+00	0	43	102	1048576	13	4232
2026-01-24 04:26:13.25	0.75	12.96	-26.3	-28.0	15.7	0.00e+00	0	43	102	1048576	12	4376
2026-01-24 04:26:16.27	0.32	13.17	-26.1	-27.6	16.0	0.00e+00	0	43	102	1048576	12	4262
2026-01-24 04:26:19.28	359.89	13.38	-26.0	-27.4	16.1	0.00e+00	0	43	102	1048576	12	4222
2026-01-24 04:26:22.29	359.46	13.59	-26.0	-27.3	16.1	0.00e+00	0	43	102	1048576	12	4182
2026-01-24 04:26:25.30	359.02	13.80	-26.0	-27.2	16.2	3.12e-04	0	43	102	1048576	12	4170
2026-01-24 04:26:28.31	358.57	14.01	-26.0	-27.4	16.1	5.60e-04	0	44	102	1048576	12	4202
2026-01-24 04:26:31.33	358.11	14.22	-26.0	-27.4	16.2	0.00e+00	0	44	102	1048576	12	4204
2026-01-24 04:26:34.35	357.65	14.43	-26.0	-27.3	16.2	6.14e-04	0	43	102	1048576	12	4184
2026-01-24 04:26:37.36	357.18	14.64	-25.9	-27.5	16.4	6.06e-04	0	44	102	1048576	11	4354
2026-01-24 04:26:40.38	356.71	14.85	-25.7	-27.2	16.6	6.37e-04	0	44	102	1048576	11	4271
2026-01-24 04:26:43.38	356.23	15.05	-25.8	-27.3	16.6	7.28e-04	0	44	102	1048576	11	4302
2026-01-24 04:26:46.40	355.74	15.26	-25.7	-27.1	16.7	7.16e-04	0	44	102	1048576	11	4249
2026-01-24 04:26:49.41	355.24	15.47	-25.8	-27.5	16.5	0.00e+00	0	44	102	1048576	11	4340
2026-01-24 04:26:52.43	354.74	15.68	-25.6	-27.0	16.7	0.00e+00	0	44	102	1048576	11	4227
2026-01-24 04:26:55.44	354.23	15.89	-25.7	-27.1	16.7	0.00e+00	0	44	102	1048576	11	4236
2026-01-24 04:26:58.46	353.71	16.10	-25.6	-26.9	16.8	0.00e+00	0	44	102	1048576	11	4180
2026-01-24 04:27:01.47	353.19	16.30	-25.5	-26.7	16.9	0.00e+00	0	44	102	1048576	11	4141
2026-01-24 04:27:04.49	352.65	16.51	-25.6	-26.8	16.9	0.00e+00	0	44	102	1048576	11	4171
2026-01-24 04:27:07.51	352.11	16.71	-25.6	-26.9	16.9	0.00e+00	0	44	102	1048576	11	4184
2026-01-24 04:27:10.53	351.56	16.92	-25.6	-26.9	16.9	0.00e+00	0	44	102	1048576	11	4187
2026-01-24 04:27:13.53	351.01	17.12	-25.3	-26.8	17.1	0.00e+00	0	44	102	1048576	10	4283
2026-01-24 04:27:16.54	350.45	17.32	-25.4	-26.9	17.1	0.00e+00	0	44	102	1048576	10	4300
2026-01-24 04:27:19.55	349.88	17.52	-25.3	-26.8	17.2	0.00e+00	0	44	102	1048576	10	4281
2026-01-24 04:27:22.57	349.30	17.72	-24.9	-26.0	17.6	0.00e+00	0	44	102	1048576	10	4069
2026-01-24 04:27:25.59	348.71	17.92	-25.0	-26.1	17.6	0.00e+00	0	44	102	1048576	10	4091
2026-01-24 04:27:28.61	348.12	18.12	-25.1	-26.3	17.5	0.00e+00	0	44	102	1048576	10	4143
2026-01-24 04:27:31.61	347.52	18.31	-25.0	-26.0	17.6	0.00e+00	0	44	102	1048576	10	4077
2026-01-24 04:27:34.62	346.91	18.50	-24.9	-25.9	17.7	0.00e+00	0	44	102	1048576	10	4035
2026-01-24 04:27:37.62	346.30	18.69	-24.9	-26.0	17.6	0.00e+00	0	44	102	1048576	10	4066
2026-01-24 04:27:40.63	345.68	18.88	-24.9	-25.8	17.7	0.00e+00	0	44	102	1048576	10	4026
2026-01-24 04:27:43.64	345.04	19.07	-24.7	-25.5	17.9	0.00e+00	0	44	102	1048576	10	3942
2026-01-24 04:27:46.66	344.40	19.25	-24.6	-25.4	18.0	0.00e+00	0	44	102	1048576	10	3914
2026-01-24 04:27:49.66	343.76	19.43	-24.8	-25.6	17.9	0.00e+00	0	44	102	1048576	10	3970
2026-01-24 04:27:52.67	343.10	19.61	-24.8	-25.7	17.8	0.00e+00	0	44	102	1048576	10	3994
2026-01-24 04:27:55.69	342.44	19.79	-24.9	-25.9	17.7	0.00e+00	0	44	102	1048576	10	4044
2026-01-24 04:27:58.69	341.77	19.96	-24.5	-25.1	18.1	0.00e+00	0	44	102	1048576	10	3848
2026-01-24 04:28:01.69	341.09	20.13	-24.7	-25.4	18.0	0.00e+00	0	44	102	1048576	10	3921
2026-01-24 04:28:04.69	340.41	20.30	-24.6	-25.2	18.1	0.00e+00	0	44	102	1048576	10	3881
2026-01-24 04:28:07.69	339.72	20.46	-24.5	-25.1	18.2	0.00e+00	0	44	102	1048576	10	3846
2026-01-24 04:28:10.71	339.01	20.63	-24.3	-24.7	18.4	0.00e+00	0	44	102	1048576	10	3756
2026-01-24 04:28:13.73	338.30	20.78	-24.3	-25.1	18.4	0.00e+00	0	44	102	1048576	9	3951
2026-01-24 04:28:16.73	337.59	20.94	-24.1	-25.1	18.6	0.00e+00	0	44	102	1048576	8	4070
2026-01-24 04:28:19.74	336.86	21.09	-24.1	-25.3	18.6	0.00e+00	0	44	102	1048576	8	4111
2026-01-24 04:28:22.75	336.13	21.23	-24.3	-25.7	18.4	0.00e+00	0	44	102	1048576	8	4211
2026-01-24 04:28:25.76	335.40	21.37	-24.1	-25.1	18.6	0.00e+00	0	44	102	1048576	8	4079
2026-01-24 04:28:28.78	334.65	21.51	-24.0	-25.0	18.7	0.00e+00	0	44	102	1048576	8	4040
2026-01-24 04:28:31.79	333.90	21.64	-23.9	-24.8	18.8	0.00e+00	0	44	102	1048576	8	3985
2026-01-24 04:28:34.80	333.14	21.77	-24.0	-25.4	18.7	0.00e+00	0	44	102	1048576	7	4255
2026-01-24 04:28:37.81	332.38	21.90	-23.9	-25.2	18.9	0.00e+00	0	44	102	1048576	7	4210
2026-01-24 04:28:40.82	331.61	22.01	-24.0	-25.5	18.7	0.00e+00	0	44	102	1048576	7	4285
2026-01-24 04:28:43.83	330.84	22.13	-23.9	-24.7	18.9	0.00e+00	0	44	102	1048576	8	3969
2026-01-24 04:28:46.85	330.05	22.24	-24.0	-25.4	18.7	0.00e+00	0	44	102	1048576	7	4260
2026-01-24 04:28:49.87	329.26	22.34	-23.8	-24.7	18.9	0.00e+00	0	44	102	1048576	8	3963
2026-01-24 04:28:52.87	328.47	22.44	-23.8	-25.0	19.0	0.00e+00	0	44	102	1048576	7	4153
2026-01-24 04:28:55.89	327.68	22.53	-23.8	-25.0	19.0	0.00e+00	0	44	102	1048576	7	4153
2026-01-24 04:28:58.89	326.88	22.62	-23.8	-25.1	18.9	0.00e+00	0	44	102	1048576	7	4167
2026-01-24 04:29:01.91	326.07	22.70	-23.7	-24.9	19.0	0.00e+00	0	44	102	1048576	7	4128
2026-01-24 04:29:04.93	325.26	22.77	-23.7	-24.8	17.4	0.00e+00	0	44	102	1048576	7	4110
2026-01-24 04:29:07.93	324.45	22.84	-23.7	-24.8	19.1	0.00e+00	0	44	102	1048576	7	4093
2026-01-24 04:29:10.95	323.63	22.90	-23.4	-24.4	19.3	0.00e+00	0	44	102	1048576	7	3997
2026-01-24 04:29:13.96	322.81	22.96	-23.2	-23.8	19.6	3.07e-04	0	44	102	1048576	7	3865
2026-01-24 04:29:16.97	321.98	23.01	-23.4	-24.7	19.4	0.00e+00	0	44	102	1048576	6	4190
2026-01-24 04:29:19.98	321.16	23.05	-23.5	-24.9	19.2	0.00e+00	0	44	102	1048576	6	4238
2026-01-24 04:29:22.99	320.33	23.09	-23.5	-24.5	19.2	7.38e-04	0	44	102	1048576	7	4033
2026-01-24 04:29:25.99	319.50	23.12	-23.2	-24.4	19.5	8.26e-04	0	44	102	1048576	6	4112
2026-01-24 04:29:29.00	318.67	23.15	-23.3	-24.6	19.4	3.54e-05	0	44	102	1048576	6	4169
2026-01-24 04:29:32.01	317.84	23.17	-23.5	-24.6	19.2	7.26e-04	0	44	102	1048576	7	4046
2026-01-24 04:29:35.02	317.01	23.18	-23.3	-24.1	19.4	7.07e-04	0	44	102	1048576	7	3933
2026-01-24 04:29:38.04	316.17	23.18	-23.3	-24.6	19.4	6.87e-04	0	44	102	1048576	6	4179
2026-01-24 04:29:41.04	315.34	23.18	-23.2	-24.3	19.5	0.00e+00	0	44	102	1048576	6	4087
2026-01-24 04:29:44.03	314.51	23.17	-23.5	-24.9	19.3	3.16e-04	0	44	102	1048576	6	4242
2026-01-24 04:29:47.04	313.68	23.16	-23.4	-24.8	19.3	0.00e+00	0	44	102	1048576	6	4208
2026-01-24 04:29:50.05	312.85	23.14	-23.4	-24.7	19.3	0.00e+00	0	44	102	1048576	6	4204
2026-01-24 04:29:53.07	312.01	23.11	-23.6	-24.6	19.2	0.00e+00	0	44	102	1048576	7	4047
2026-01-24 04:29:56.08	311.18	23.08	-23.4	-24.2	19.3	0.00e+00	0	44	102	1048576	7	3971
2026-01-24 04:29:59.09	310.36	23.04	-23.1	-23.7	19.6	0.00e+00	0	44	102	1048576	7	3840
2026-01-24 04:30:02.10	309.53	22.99	-23.2	-23.9	19.5	0.00e+00	0	44	102	1048576	7	3881
2026-01-24 04:30:05.12	308.71	22.94	-23.3	-24.0	19.4	0.00e+00	0	44	102	1048576	7	3922
2026-01-24 04:30:08.13	307.89	22.88	-23.5	-24.4	19.2	0.00e+00	0	44	102	1048576	7	4019
2026-01-24 04:30:11.14	307.07	22.82	-23.8	-25.0	18.9	0.00e+00	0	44	102	1048576	7	4146
2026-01-24 04:30:14.15	306.26	22.74	-23.4	-24.2	19.3	0.00e+00	0	44	102	1048576	7	3972
2026-01-24 04:30:17.16	305.45	22.67	-23.4	-24.3	19.3	0.00e+00	0	44	102	1048576	7	3974
2026-01-24 04:30:20.18	304.64	22.58	-23.3	-24.1	19.3	0.00e+00	0	44	102	1048576	7	3942
2026-01-24 04:30:23.20	303.84	22.50	-23.4	-24.3	19.2	0.00e+00	0	44	102	1048576	7	3990
2026-01-24 04:30:26.22	303.04	22.40	-23.5	-24.4	19.2	0.00e+00	0	44	102	1048576	7	3994
2026-01-24 04:30:29.23	302.25	22.30	-23.5	-24.4	19.2	0.00e+00	0	44	102	1048576	7	4015
2026-01-24 04:30:32.24	301.46	22.20	-23.3	-24.1	19.3	0.00e+00	0	44	102	1048576	7	3937
2026-01-24 04:30:35.25	300.68	22.09	-23.9	-25.3	18.7	0.00e+00	0	44	102	1048576	7	4227
2026-01-24 04:30:38.25	299.91	21.97	-23.7	-25.0	18.9	0.00e+00	0	44	102	1048576	7	4151
2026-01-24 04:30:41.25	299.14	21.85	-23.7	-25.0	18.9	6.46e-04	0	44	102	1048576	7	4147
2026-01-24 04:30:44.26	298.38	21.73	-23.8	-25.0	18.8	2.84e-04	0	44	102	1048576	7	4168
2026-01-24 04:30:47.28	297.62	21.60	-23.5	-24.4	19.1	0.00e+00	0	44	102	1048576	7	4020
2026-01-24 04:30:50.29	296.87	21.46	-23.5	-24.5	19.1	0.00e+00	0	44	102	1048576	7	4029
2026-01-24 04:30:53.30	296.13	21.32	-23.6	-24.6	19.0	1.43e-04	0	44	102	1048576	7	4056
2026-01-24 04:30:56.31	295.39	21.18	-23.6	-24.7	19.0	5.83e-05	0	44	102	1048576	7	4083
2026-01-24 04:30:59.33	294.66	21.03	-23.7	-24.8	18.9	1.60e-05	0	44	102	1048576	7	4114
2026-01-24 04:31:02.35	293.94	20.88	-23.7	-24.9	18.9	2.43e-04	0	44	102	1048576	7	4124
2026-01-24 04:31:05.34	293.23	20.72	-23.9	-25.3	18.6	5.74e-04	0	44	102	1048576	7	4233
2026-01-24 04:31:08.35	292.52	20.57	-23.9	-24.7	18.7	0.00e+00	0	44	102	1048576	8	3976
2026-01-24 04:31:11.35	291.82	20.40	-23.7	-25.0	18.8	0.00e+00	0	44	102	1048576	7	4143
2026-01-24 04:31:14.37	291.12	20.24	-23.7	-24.8	18.8	6.99e-04	0	44	102	1048576	7	4106
2026-01-24 04:31:17.39	290.44	20.07	-23.8	-24.7	18.6	9.30e-04	0	44	102	1048576	8	3974
2026-01-24 04:31:20.40	289.76	19.90	-24.0	-25.1	18.4	0.00e+00	0	44	102	1048576	8	4063
2026-01-24 04:31:23.40	289.09	19.72	-24.2	-25.5	18.2	0.00e+00	0	44	102	1048576	8	4179
2026-01-24 04:31:26.42	288.43	19.54	-24.1	-25.2	18.4	0.00e+00	0	44	102	1048576	8	4088
2026-01-24 04:31:29.43	287.77	19.36	-24.1	-25.2	18.3	0.00e+00	0	44	102	1048576	8	4094
2026-01-24 04:31:32.45	287.12	19.18	-24.3	-25.7	18.1	0.00e+00	0	44	102	1048576	8	4235
2026-01-24 04:31:35.46	286.48	18.99	-24.1	-25.2	18.3	0.00e+00	0	44	102	1048576	8	4107
2026-01-24 04:31:38.46	285.85	18.81	-24.1	-25.3	18.3	0.00e+00	0	44	102	1048576	8	4117
2026-01-24 04:31:41.47	285.23	18.62	-24.3	-25.6	18.1	0.00e+00	0	44	102	1048576	8	4205
2026-01-24 04:31:44.48	284.61	18.42	-24.4	-25.8	18.0	0.00e+00	0	44	102	1048576	8	4264
2026-01-24 04:31:47.49	284.01	18.23	-24.4	-25.4	18.0	0.00e+00	0	44	102	1048576	9	4031
2026-01-24 04:31:50.49	283.41	18.03	-24.7	-26.0	17.7	0.00e+00	0	44	102	1048576	9	4182
2026-01-24 04:31:53.50	282.82	17.84	-24.7	-26.0	17.6	0.00e+00	0	44	102	1048576	9	4182
2026-01-24 04:31:56.51	282.23	17.64	-24.6	-25.7	17.7	0.00e+00	0	44	102	1048576	9	4120
2026-01-24 04:31:59.51	281.66	17.44	-24.7	-25.9	17.6	0.00e+00	0	44	102	1048576	9	4177
2026-01-24 04:32:02.52	281.09	17.24	-24.3	-25.2	18.0	0.00e+00	0	44	102	1048576	9	3999
2026-01-24 04:32:05.54	280.52	17.03	-24.4	-25.4	17.9	0.00e+00	0	44	102	1048576	9	4041
2026-01-24 04:32:08.54	279.97	16.83	-24.5	-25.7	17.7	0.00e+00	0	44	102	1048576	9	4106
2026-01-24 04:32:11.55	279.43	16.63	-24.6	-25.8	17.7	0.00e+00	0	44	102	1048576	9	4146
2026-01-24 04:32:14.56	278.89	16.42	-24.8	-26.3	17.4	0.00e+00	0	44	102	1048576	9	4270
2026-01-24 04:32:17.56	278.36	16.21	-24.7	-26.0	17.5	0.00e+00	0	44	102	1048576	9	4181
2026-01-24 04:32:20.58	277.83	16.01	-24.6	-25.9	17.6	0.00e+00	0	44	102	1048576	9	4160
2026-01-24 04:32:23.59	277.32	15.80	-24.7	-26.0	17.5	0.00e+00	0	44	102	1048576	9	4201
2026-01-24 04:32:26.60	276.81	15.59	-24.6	-25.8	17.6	0.00e+00	0	44	102	1048576	9	4132
2026-01-24 04:32:29.60	276.31	15.38	-24.8	-26.2	17.4	0.00e+00	0	44	102	1048576	9	4233
2026-01-24 04:32:32.60	275.81	15.17	-25.0	-26.6	17.2	0.00e+00	0	44	102	1048576	9	4355
2026-01-24 04:32:35.61	275.32	14.96	-25.3	-26.9	16.8	0.00e+00	0	44	102	1048576	10	4299
2026-01-24 04:32:38.63	274.84	14.75	-25.4	-27.1	16.6	5.95e-05	0	44	102	1048576	10	4376
2026-01-24 04:32:41.63	274.37	14.54	-25.4	-26.5	16.7	0.00e+00	0	44	102	1048576	11	4111
2026-01-24 04:32:44.64	273.90	14.33	-25.4	-27.1	16.6	1.10e-06	0	44	102	1048576	10	4361
2026-01-24 04:32:47.65	273.44	14.12	-25.2	-26.7	16.8	0.00e+00	0	44	102	1048576	10	4252
2026-01-24 04:32:50.66	272.98	13.91	-25.4	-27.1	16.6	0.00e+00	0	44	102	1048576	10	4359
2026-01-24 04:32:53.67	272.54	13.70	-25.1	-26.5	16.9	0.00e+00	0	44	102	1048576	10	4196
2026-01-24 04:32:56.68	272.09	13.49	-25.4	-27.1	16.6	0.00e+00	0	44	102	1048576	10	4361
2026-01-24 04:32:59.70	271.66	13.28	-25.6	-26.9	16.4	0.00e+00	0	44	102	1048576	11	4210
2026-01-24 04:33:02.70	271.23	13.07	-25.6	-26.9	16.4	0.00e+00	0	44	102	1048576	11	4215
2026-01-24 04:33:05.70	270.81	12.86	-25.7	-27.2	16.2	0.00e+00	0	44	102	1048576	11	4275
2026-01-24 04:33:08.72	270.39	12.65	-25.6	-27.1	16.3	0.00e+00	0	44	102	1048576	11	4252
2026-01-24 04:33:11.73	269.98	12.45	-25.8	-27.5	16.0	0.00e+00	0	44	102	1048576	11	4354
2026-01-24 04:33:14.75	269.57	12.24	-25.8	-27.4	16.1	0.00e+00	0	44	102	1048576	11	4331
2026-01-24 04:33:17.76	269.17	12.03	-25.9	-27.7	15.9	4.50e-06	0	44	102	1048576	11	4408
2026-01-24 04:33:20.79	268.78	11.82	-25.8	-27.5	16.0	1.10e-06	0	44	102	1048576	11	4364
2026-01-24 04:33:23.79	268.39	11.61	-25.9	-27.3	15.7	1.10e-06	0	44	102	1048576	12	4198
2026-01-24 04:33:26.81	268.01	11.41	-26.0	-27.5	15.6	0.00e+00	0	44	102	1048576	12	4262
2026-01-24 04:33:29.83	267.63	11.20	-25.9	-27.1	15.8	0.00e+00	0	44	102	1048576	12	4158
2026-01-24 04:33:32.83	267.26	10.99	-26.0	-27.4	15.6	0.00e+00	0	44	102	1048576	12	4235
2026-01-24 04:33:35.84	266.89	10.79	-26.1	-27.7	15.5	0.00e+00	0	44	102	1048576	12	4321
2026-01-24 04:33:38.85	266.53	10.58	-26.2	-27.9	15.3	0.00e+00	0	44	102	1048576	12	4378
2026-01-24 04:33:41.87	266.17	10.38	-26.2	-27.9	15.3	1.27e-03	0	44	102	1048576	12	4366
2026-01-24 04:33:44.88	265.82	10.17	-26.3	-28.1	15.1	0.00e+00	0	44	102	1048576	12	4438
2026-01-24 04:33:47.89	265.48	9.97	-26.4	-28.3	15.1	0.00e+00	0	44	102	1048576	12	4477
2026-01-24 04:33:50.91	265.13	9.77	-26.3	-28.1	15.1	1.08e-03	0	44	102	1048576	12	4436
2026-01-24 04:33:53.92	264.80	9.57	-26.4	-28.4	14.9	1.37e-03	0	44	102	1048576	12	4526
2026-01-24 04:33:56.92	264.47	9.37	-26.5	-28.5	14.9	1.22e-03	0	44	102	1048576	12	4543
2026-01-24 04:33:59.93	264.14	9.17	-26.7	-28.5	14.5	1.77e-03	0	44	102	1048576	13	4434
2026-01-24 04:34:02.94	263.82	8.97	-26.8	-28.6	14.5	1.70e-03	0	44	102	1048576	13	4478
2026-01-24 04:34:05.95	263.50	8.77	-26.6	-28.4	14.6	1.63e-03	0	44	102	1048576	13	4405
2026-01-24 04:34:08.95	263.19	8.57	-26.7	-28.6	14.4	0.00e+00	0	44	102	1048576	13	4474
2026-01-24 04:34:11.95	262.88	8.38	-26.7	-28.5	14.5	8.94e-04	0	44	102	1048576	13	4433
2026-01-24 04:34:14.96	262.57	8.18	-26.7	-28.6	14.4	3.33e-04	0	44	102	1048576	13	4457
2026-01-24 04:34:17.97	262.27	7.98	-27.0	-29.2	14.1	4.50e-06	0	44	102	1048576	13	4635
2026-01-24 04:34:20.99	261.97	7.79	-26.8	-28.8	14.3	1.10e-06	0	44	102	1048576	13	4519
2026-01-24 04:34:23.99	261.68	7.59	-26.8	-28.8	14.2	0.00e+00	0	44	102	1048576	13	4527
2026-01-24 04:34:26.99	261.39	7.40	-27.0	-29.2	14.0	7.78e-05	0	44	102	1048576	13	4658
2026-01-24 04:34:30.00	261.11	7.21	-27.1	-29.1	13.7	9.10e-06	0	44	102	1048576	14	4508
2026-01-24 04:34:33.02	260.83	7.02	-33.0	-43.6	3.8	8.46e-01	0	44	104	1048576	26	12209

#Closed at: 2026-01-24 04:34:35
#Recorded file [1 MB]: D:/data/31010_260124_072447.dat