passes_logs/2026/01/24/R2M6_AANII_01/R2M6_AANII_01__20260124_101939_NOAA_20_JPSS-1_rec.log

#Pass ID: 20260124_101939_NOAA 20 (JPSS-1)
#Satellite: NOAA 20 (JPSS-1)
#Configuration: NOAA 20
#almurnet v.1.7.20240730
#Start time: 2026-01-24 10:19:39

#Version: 2.2.20231116
#Station: R2M6_AANII_01
#Location: 30.233357 lon 59.946436 lat
#TLE: 1 43013U 17073A   26023.57676825  .00000205  00000+0  11821-3 0  9990
#TLE: 2 43013  98.7645 324.4259 0001147  27.0566 333.0670 14.19539368423954

#Time	Az	El	Level	Level2	SNR	BER	BlckErr	Temp	State	Recorded	gain1	gain2
2026-01-24 10:19:39.45	160.28	7.00	-32.2	-40.7	4.3	1.42e+00	0	41	0	0	25	9595
2026-01-24 10:19:42.47	160.30	7.24	-32.0	-39.6	5.9	3.68e-01	0	41	102	1048576	25	8593
2026-01-24 10:19:45.48	160.31	7.47	-32.0	-39.3	6.1	3.01e-01	0	41	102	1048576	25	8387
2026-01-24 10:19:48.49	160.33	7.71	-32.0	-39.6	5.9	3.64e-01	0	41	102	1048576	25	8690
2026-01-24 10:19:51.50	160.34	7.95	-31.7	-39.0	6.6	2.53e-01	0	42	102	1048576	24	8312
2026-01-24 10:19:54.51	160.36	8.20	-31.2	-37.3	8.3	6.99e-02	0	42	102	1048576	23	7210
2026-01-24 10:19:57.52	160.37	8.44	-30.9	-35.7	9.6	1.80e-02	0	42	102	1048576	23	6253
2026-01-24 10:20:00.55	160.39	8.69	-30.9	-35.9	9.8	9.88e-03	0	42	102	1048576	22	6465
2026-01-24 10:20:03.56	160.40	8.94	-30.9	-35.9	9.9	9.75e-03	0	42	102	1048576	22	6415
2026-01-24 10:20:06.58	160.42	9.20	-31.0	-36.0	9.9	1.00e-02	0	42	102	1048576	22	6452
2026-01-24 10:20:09.59	160.44	9.45	-30.8	-35.5	10.2	5.76e-03	0	42	102	1048576	22	6201
2026-01-24 10:20:12.61	160.45	9.71	-30.8	-35.4	10.4	4.66e-03	0	42	102	1048576	22	6137
2026-01-24 10:20:15.62	160.47	9.97	-30.9	-35.6	10.3	5.57e-03	0	42	102	1048576	22	6208
2026-01-24 10:20:18.63	160.48	10.24	-30.7	-35.3	10.5	5.01e-03	0	42	102	1048576	22	6091
2026-01-24 10:20:21.64	160.50	10.50	-30.7	-35.1	10.6	3.06e-03	0	42	102	1048576	22	5999
2026-01-24 10:20:24.65	160.52	10.77	-30.5	-34.5	11.1	2.33e-03	0	42	102	1048576	22	5701
2026-01-24 10:20:27.66	160.54	11.05	-30.6	-34.5	11.2	1.27e-03	0	42	102	1048576	22	5654
2026-01-24 10:20:30.69	160.55	11.32	-30.7	-34.8	11.0	2.59e-03	0	43	102	1048576	22	5795
2026-01-24 10:20:33.71	160.57	11.60	-30.8	-34.8	11.2	1.46e-03	0	43	102	1048576	22	5702
2026-01-24 10:20:36.72	160.59	11.89	-30.7	-34.5	11.4	9.79e-04	0	43	102	1048576	22	5562
2026-01-24 10:20:39.73	160.60	12.17	-30.8	-34.6	11.4	1.07e-03	0	43	102	1048576	22	5611
2026-01-24 10:20:42.74	160.62	12.46	-30.9	-35.0	11.1	1.64e-03	0	43	102	1048576	22	5790
2026-01-24 10:20:45.76	160.64	12.75	-30.7	-34.5	11.5	7.85e-04	0	43	102	1048576	22	5546
2026-01-24 10:20:48.78	160.66	13.05	-30.7	-34.4	11.6	9.14e-04	0	43	102	1048576	22	5508
2026-01-24 10:20:51.79	160.68	13.35	-30.8	-34.4	11.6	7.78e-04	0	43	102	1048576	22	5488
2026-01-24 10:20:54.81	160.69	13.66	-30.6	-34.0	11.9	5.03e-04	0	43	102	1048576	22	5332
2026-01-24 10:20:57.83	160.71	13.96	-30.6	-34.1	11.8	4.94e-04	0	43	102	1048576	22	5370
2026-01-24 10:21:00.83	160.73	14.27	-30.4	-33.6	12.2	2.15e-04	0	43	102	1048576	22	5181
2026-01-24 10:21:03.84	160.75	14.59	-30.4	-33.6	12.2	2.22e-04	0	43	102	1048576	22	5182
2026-01-24 10:21:06.85	160.77	14.91	-30.5	-33.5	12.3	1.97e-04	0	43	102	1048576	22	5137
2026-01-24 10:21:09.86	160.79	15.23	-30.5	-33.5	12.4	1.30e-04	0	43	102	1048576	22	5110
2026-01-24 10:21:12.86	160.81	15.56	-30.7	-34.0	12.1	2.25e-04	0	43	102	1048576	22	5277
2026-01-24 10:21:15.88	160.83	15.89	-30.8	-34.2	12.0	4.07e-04	0	43	102	1048576	22	5349
2026-01-24 10:21:18.89	160.85	16.23	-30.8	-34.3	12.0	6.07e-04	0	43	102	1048576	22	5369
2026-01-24 10:21:21.90	160.87	16.57	-30.4	-33.2	12.7	8.77e-05	0	43	102	1048576	22	4956
2026-01-24 10:21:24.90	160.89	16.92	-30.6	-33.6	12.5	1.07e-04	0	43	102	1048576	22	5091
2026-01-24 10:21:27.91	160.91	17.27	-30.7	-34.1	12.2	1.51e-04	0	43	102	1048576	22	5304
2026-01-24 10:21:30.91	160.93	17.62	-30.9	-34.5	11.9	2.75e-04	0	43	102	1048576	22	5447
2026-01-24 10:21:33.92	160.95	17.99	-30.7	-34.1	12.2	2.35e-04	0	43	102	1048576	22	5308
2026-01-24 10:21:36.94	160.98	18.36	-30.7	-34.0	12.3	2.39e-04	0	43	102	1048576	22	5244
2026-01-24 10:21:39.95	161.00	18.73	-30.8	-34.3	12.1	2.26e-04	0	43	102	1048576	22	5354
2026-01-24 10:21:42.97	161.02	19.11	-31.1	-35.0	11.6	5.18e-04	0	43	102	1048576	22	5658
2026-01-24 10:21:45.97	161.04	19.49	-31.1	-35.2	11.5	9.67e-04	0	43	102	1048576	22	5725
2026-01-24 10:21:48.99	161.07	19.88	-31.4	-35.8	11.1	1.20e-03	0	43	102	1048576	22	6023
2026-01-24 10:21:52.00	161.09	20.28	-30.6	-33.5	12.7	1.27e-04	0	43	102	1048576	22	5037
2026-01-24 10:21:55.02	161.11	20.69	-30.0	-32.3	13.9	3.80e-06	0	43	102	1048576	21	4714
2026-01-24 10:21:58.03	161.14	21.10	-29.9	-32.2	14.0	2.20e-06	0	43	102	1048576	21	4663
2026-01-24 10:22:01.04	161.16	21.51	-29.8	-32.4	14.2	0.00e+00	0	43	102	1048576	20	4840
2026-01-24 10:22:04.06	161.19	21.94	-29.7	-32.2	14.3	7.00e-07	0	43	102	1048576	20	4768
2026-01-24 10:22:07.08	161.21	22.37	-29.7	-32.0	14.4	1.50e-06	0	43	102	1048576	20	4698
2026-01-24 10:22:10.09	161.24	22.81	-29.8	-32.2	14.3	7.00e-07	0	43	102	1048576	20	4774
2026-01-24 10:22:13.11	161.26	23.26	-29.9	-32.6	14.1	2.20e-06	0	43	102	1048576	20	4895
2026-01-24 10:22:16.12	161.29	23.71	-29.9	-32.7	14.1	1.50e-06	0	43	102	1048576	20	4920
2026-01-24 10:22:19.12	161.32	24.17	-29.9	-32.6	14.1	3.80e-06	0	44	102	1048576	20	4879
2026-01-24 10:22:22.13	161.35	24.64	-30.1	-33.1	13.8	5.30e-06	0	44	102	1048576	20	5085
2026-01-24 10:22:25.16	161.38	25.12	-30.3	-33.6	13.5	1.52e-05	0	43	102	1048576	20	5254
2026-01-24 10:22:28.18	161.40	25.61	-30.5	-34.1	13.2	2.13e-05	0	43	102	1048576	20	5473
2026-01-24 10:22:31.19	161.43	26.11	-30.7	-34.3	12.7	5.41e-05	0	43	102	1048576	21	5431
2026-01-24 10:22:34.20	161.46	26.62	-31.1	-34.9	12.0	2.47e-04	0	44	102	1048576	22	5548
2026-01-24 10:22:37.21	161.49	27.13	-30.9	-34.2	12.5	1.27e-04	0	43	102	1048576	22	5262
2026-01-24 10:22:40.23	161.53	27.66	-31.1	-34.9	12.1	1.88e-04	0	43	102	1048576	22	5550
2026-01-24 10:22:43.23	161.56	28.19	-31.4	-35.6	11.5	6.87e-04	0	43	102	1048576	22	5883
2026-01-24 10:22:46.25	161.59	28.74	-31.4	-35.8	11.5	9.92e-04	0	43	102	1048576	22	5936
2026-01-24 10:22:49.26	161.63	29.30	-31.6	-35.9	11.0	1.66e-03	0	43	102	1048576	23	5918
2026-01-24 10:22:52.26	161.66	29.87	-31.7	-36.3	10.8	2.57e-03	0	43	102	1048576	23	6079
2026-01-24 10:22:55.27	161.70	30.45	-31.9	-36.9	10.3	4.91e-03	0	43	102	1048576	23	6389
2026-01-24 10:22:58.30	161.73	31.04	-32.0	-36.7	10.1	6.38e-03	0	43	102	1048576	24	6176
2026-01-24 10:23:01.31	161.77	31.65	-32.1	-36.8	10.0	7.92e-03	0	43	102	1048576	24	6240
2026-01-24 10:23:04.33	161.81	32.27	-31.9	-36.3	10.4	4.50e-03	0	43	102	1048576	24	5981
2026-01-24 10:23:07.35	161.85	32.90	-32.0	-36.6	10.2	6.16e-03	0	43	102	1048576	24	6100
2026-01-24 10:23:10.36	161.89	33.54	-31.2	-34.6	12.0	5.97e-04	0	44	102	1048576	23	5317
2026-01-24 10:23:13.36	161.93	34.20	-30.9	-33.5	12.8	1.07e-04	0	43	102	1048576	23	4890
2026-01-24 10:23:16.39	161.98	34.88	-30.3	-32.5	13.8	9.90e-06	0	43	102	1048576	22	4633
2026-01-24 10:23:19.41	162.02	35.56	-29.9	-32.0	14.5	2.20e-06	0	43	102	1048576	21	4550
2026-01-24 10:23:22.42	162.07	36.27	-30.0	-32.2	14.4	7.00e-07	0	44	102	1048576	21	4614
2026-01-24 10:23:25.43	162.12	36.98	-30.1	-32.4	14.2	1.50e-06	0	43	102	1048576	21	4692
2026-01-24 10:23:28.44	162.17	37.72	-29.9	-31.8	14.6	2.20e-06	0	43	102	1048576	21	4499
2026-01-24 10:23:31.46	162.22	38.47	-29.4	-31.1	15.4	0.00e+00	0	44	102	1048576	20	4387
2026-01-24 10:23:34.47	162.27	39.24	-29.6	-31.6	15.1	0.00e+00	0	43	102	1048576	20	4534
2026-01-24 10:23:37.48	162.33	40.02	-29.3	-31.3	15.6	0.00e+00	0	44	102	1048576	19	4529
2026-01-24 10:23:40.49	162.38	40.82	-29.2	-31.1	15.8	0.00e+00	0	43	102	1048576	19	4472
2026-01-24 10:23:43.50	162.44	41.64	-29.3	-31.5	15.5	7.00e-07	0	44	102	1048576	19	4600
2026-01-24 10:23:46.51	162.51	42.48	-29.3	-31.5	15.5	0.00e+00	0	44	102	1048576	19	4602
2026-01-24 10:23:49.53	162.57	43.34	-29.3	-31.3	15.7	0.00e+00	0	44	102	1048576	19	4549
2026-01-24 10:23:52.54	162.64	44.22	-30.1	-32.8	14.4	7.00e-07	0	44	102	1048576	20	4931
2026-01-24 10:23:55.55	162.72	45.12	-30.9	-34.5	13.0	4.11e-05	0	44	102	1048576	21	5456
2026-01-24 10:23:58.56	162.79	46.03	-31.0	-34.4	12.7	1.08e-04	0	44	102	1048576	22	5329
2026-01-24 10:24:01.58	162.87	46.98	-31.1	-34.5	12.7	7.17e-05	0	43	102	1048576	22	5343
2026-01-24 10:24:04.59	162.96	47.94	-31.4	-35.4	12.1	2.96e-04	0	44	102	1048576	22	5714
2026-01-24 10:24:07.60	163.05	48.92	-31.3	-35.3	12.1	3.07e-04	0	44	102	1048576	22	5666
2026-01-24 10:24:10.62	163.14	49.93	-31.2	-35.0	12.3	2.43e-04	0	44	102	1048576	22	5555
2026-01-24 10:24:13.63	163.24	50.96	-30.3	-32.3	14.0	7.60e-06	0	44	102	1048576	22	4544
2026-01-24 10:24:16.64	163.35	52.01	-29.4	-31.4	15.6	0.00e+00	0	44	102	1048576	19	4564
2026-01-24 10:24:19.65	163.46	53.08	-28.9	-30.4	16.3	0.00e+00	0	44	102	1048576	19	4247
2026-01-24 10:24:22.67	163.58	54.18	-29.0	-30.5	16.2	0.00e+00	0	44	102	1048576	19	4300
2026-01-24 10:24:25.68	163.71	55.30	-29.6	-32.1	15.3	0.00e+00	0	44	102	1048576	19	4777
2026-01-24 10:24:28.69	163.86	56.45	-29.5	-31.8	15.5	0.00e+00	0	44	102	1048576	19	4666
2026-01-24 10:24:31.70	164.01	57.62	-30.3	-33.4	14.2	1.50e-06	0	44	102	1048576	20	5134
2026-01-24 10:24:34.71	164.17	58.81	-30.5	-33.4	13.8	8.30e-06	0	44	102	1048576	21	5028
2026-01-24 10:24:37.72	164.35	60.03	-29.7	-31.8	15.2	0.00e+00	0	44	102	1048576	20	4567
2026-01-24 10:24:40.74	164.55	61.27	-29.3	-31.2	15.9	0.00e+00	0	44	102	1048576	19	4489
2026-01-24 10:24:43.74	164.77	62.53	-28.4	-29.6	17.0	0.00e+00	0	44	102	1048576	18	4138
2026-01-24 10:24:46.74	165.00	63.81	-28.9	-30.8	16.4	0.00e+00	0	44	102	1048576	18	4486
2026-01-24 10:24:49.74	165.27	65.12	-30.1	-32.8	14.5	0.00e+00	0	44	102	1048576	20	4917
2026-01-24 10:24:52.75	165.57	66.45	-31.2	-34.7	12.8	4.34e-05	0	44	102	1048576	22	5401
2026-01-24 10:24:55.77	165.90	67.80	-30.6	-33.1	13.8	3.00e-06	0	44	102	1048576	22	4789
2026-01-24 10:24:58.78	166.29	69.18	-30.9	-33.8	13.4	2.44e-05	0	44	102	1048576	22	5043
2026-01-24 10:25:01.78	166.73	70.57	-30.6	-33.0	13.8	7.00e-07	0	44	102	1048576	22	4768
2026-01-24 10:25:04.80	167.24	71.98	-31.5	-35.2	12.1	4.27e-05	0	44	102	1048576	23	5471
2026-01-24 10:25:07.80	167.84	73.40	-31.9	-35.8	11.3	1.16e-03	0	44	102	1048576	24	5633
2026-01-24 10:25:10.82	168.56	74.85	-32.4	-37.6	10.0	4.83e-03	0	44	102	1048576	24	6507
2026-01-24 10:25:13.84	169.44	76.31	-31.3	-33.9	12.7	1.96e-04	0	44	102	1048576	24	4860
2026-01-24 10:25:16.84	170.53	77.78	-31.0	-33.7	13.2	2.44e-05	0	44	102	1048576	23	4876
2026-01-24 10:25:19.86	171.94	79.26	-30.2	-32.5	14.6	0.00e+00	0	43	102	1048576	21	4682
2026-01-24 10:25:22.86	173.78	80.73	-29.7	-31.7	15.6	0.00e+00	0	44	102	1048576	20	4517
2026-01-24 10:25:25.87	176.34	82.21	-31.9	-36.2	11.7	2.39e-04	0	44	102	1048576	23	5862
2026-01-24 10:25:28.89	180.12	83.68	-31.8	-35.3	12.1	4.47e-04	0	44	102	1048576	24	5358
2026-01-24 10:25:31.91	186.15	85.11	-32.1	-36.2	11.5	1.50e-04	0	44	102	1048576	24	5729
2026-01-24 10:25:34.92	196.90	86.44	-32.4	-36.9	11.0	1.06e-03	0	44	102	1048576	24	6057
2026-01-24 10:25:37.93	218.52	87.52	-31.8	-35.0	12.3	4.65e-04	0	44	102	1048576	24	5241
2026-01-24 10:25:40.94	257.01	87.89	-30.2	-32.2	15.1	7.00e-07	0	44	102	1048576	21	4541
2026-01-24 10:25:43.94	291.11	87.26	-31.2	-34.5	13.3	8.30e-06	0	44	102	1048576	22	5241
2026-01-24 10:25:46.96	308.72	86.07	-30.7	-33.2	14.0	3.00e-06	0	43	102	1048576	22	4784
2026-01-24 10:25:49.97	317.68	84.70	-29.8	-31.8	15.4	0.00e+00	0	44	102	1048576	20	4563
2026-01-24 10:25:52.98	322.88	83.27	-31.5	-34.9	12.3	1.12e-04	0	44	102	1048576	23	5361
2026-01-24 10:25:55.99	326.23	81.80	-32.2	-36.7	10.7	4.56e-03	0	44	102	1048576	24	6040
2026-01-24 10:25:59.00	328.56	80.32	-30.0	-32.0	14.7	7.00e-07	0	44	102	1048576	21	4521
2026-01-24 10:26:02.01	330.26	78.84	-30.9	-34.3	13.3	3.80e-06	0	44	102	1048576	21	5362
2026-01-24 10:26:05.03	331.56	77.37	-32.8	-38.7	8.7	1.06e-02	0	44	102	1048576	25	7095
2026-01-24 10:26:08.04	332.59	75.90	-31.7	-35.1	11.7	1.97e-03	0	44	102	1048576	24	5356
2026-01-24 10:26:11.05	333.41	74.45	-32.5	-37.3	9.7	1.81e-02	0	44	102	1048576	25	6283
2026-01-24 10:26:14.06	334.10	73.01	-30.2	-32.6	14.5	0.00e+00	0	44	102	1048576	21	4716
2026-01-24 10:26:17.07	334.67	71.59	-29.6	-31.4	15.4	0.00e+00	0	44	102	1048576	20	4454
2026-01-24 10:26:20.09	335.16	70.19	-31.6	-35.5	11.9	2.27e-04	0	44	102	1048576	23	5626
2026-01-24 10:26:23.10	335.59	68.80	-31.6	-35.4	11.9	2.11e-04	0	44	102	1048576	23	5604
2026-01-24 10:26:26.12	335.96	67.43	-32.5	-36.9	9.7	2.03e-02	0	44	102	1048576	26	6002
2026-01-24 10:26:29.14	336.28	66.09	-32.0	-36.1	11.0	7.03e-04	0	43	102	1048576	24	5788
2026-01-24 10:26:32.14	336.57	64.77	-30.6	-33.0	13.8	2.12e-04	0	44	102	1048576	22	4768
2026-01-24 10:26:35.16	336.83	63.47	-28.9	-30.4	16.3	0.00e+00	0	44	102	1048576	19	4246
2026-01-24 10:26:38.17	337.06	62.19	-28.4	-29.7	17.0	0.00e+00	0	44	102	1048576	18	4151
2026-01-24 10:26:41.18	337.27	60.94	-30.0	-32.9	14.9	0.00e+00	0	44	102	1048576	19	5064
2026-01-24 10:26:44.18	337.46	59.71	-30.4	-33.1	14.0	6.80e-06	0	44	102	1048576	21	4888
2026-01-24 10:26:47.20	337.64	58.50	-31.8	-36.1	11.3	6.37e-04	0	44	102	1048576	23	5909
2026-01-24 10:26:50.21	337.80	57.32	-31.9	-35.9	11.1	2.40e-03	0	44	102	1048576	24	5721
2026-01-24 10:26:53.23	337.95	56.16	-30.7	-33.4	13.4	9.90e-06	0	44	102	1048576	22	4924
2026-01-24 10:26:56.24	338.09	55.03	-29.8	-31.6	14.8	7.00e-07	0	44	102	1048576	21	4427
2026-01-24 10:26:59.25	338.22	53.92	-30.9	-34.5	13.0	1.90e-05	0	44	102	1048576	21	5451
2026-01-24 10:27:02.26	338.34	52.83	-29.6	-31.6	15.1	7.00e-07	0	44	102	1048576	20	4526
2026-01-24 10:27:05.28	338.45	51.76	-31.1	-34.4	12.7	2.67e-05	0	44	102	1048576	22	5291
2026-01-24 10:27:08.29	338.56	50.72	-32.2	-36.9	10.1	3.98e-03	0	44	102	1048576	24	6227
2026-01-24 10:27:11.31	338.66	49.70	-31.6	-35.1	11.5	1.42e-03	0	44	102	1048576	24	5377
2026-01-24 10:27:14.32	338.75	48.71	-33.2	-40.6	6.6	7.28e-02	0	44	102	1048576	26	8436
2026-01-24 10:27:17.34	338.84	47.73	-31.5	-34.9	11.5	3.28e-03	0	44	102	1048576	24	5330
2026-01-24 10:27:20.34	338.92	46.78	-30.5	-32.8	13.7	2.20e-06	0	43	102	1048576	22	4723
2026-01-24 10:27:23.35	339.00	45.85	-31.3	-35.2	12.2	1.71e-04	0	44	102	1048576	22	5624
2026-01-24 10:27:26.35	339.08	44.95	-31.1	-34.6	12.4	2.56e-04	0	44	102	1048576	22	5412
2026-01-24 10:27:29.36	339.15	44.06	-30.0	-32.1	14.4	7.00e-07	0	44	102	1048576	21	4601
2026-01-24 10:27:32.37	339.22	43.19	-29.5	-31.3	15.2	0.00e+00	0	44	102	1048576	20	4417
2026-01-24 10:27:35.38	339.28	42.34	-30.9	-34.5	12.9	1.44e-05	0	44	102	1048576	21	5483
2026-01-24 10:27:38.38	339.35	41.51	-31.7	-35.9	11.1	2.37e-03	0	44	102	1048576	23	5887
2026-01-24 10:27:41.41	339.41	40.69	-30.0	-32.1	14.4	2.20e-06	0	44	102	1048576	21	4578
2026-01-24 10:27:44.41	339.47	39.90	-29.9	-32.3	14.5	0.00e+00	0	44	102	1048576	20	4757
2026-01-24 10:27:47.43	339.52	39.13	-31.3	-35.2	12.0	1.82e-04	0	44	102	1048576	22	5652
2026-01-24 10:27:50.44	339.58	38.37	-32.6	-38.4	8.5	2.36e-02	0	44	102	1048576	25	7002
2026-01-24 10:27:53.44	339.63	37.63	-32.2	-36.9	9.6	2.31e-02	0	44	102	1048576	25	6149
2026-01-24 10:27:56.46	339.68	36.90	-31.6	-35.2	11.2	2.16e-03	0	44	102	1048576	24	5467
2026-01-24 10:27:59.48	339.73	36.19	-31.2	-34.5	12.1	2.09e-04	0	44	102	1048576	23	5227
2026-01-24 10:28:02.49	339.78	35.49	-31.3	-34.7	12.0	2.54e-04	0	44	102	1048576	23	5340
2026-01-24 10:28:05.50	339.82	34.81	-32.3	-37.9	9.2	1.15e-02	0	43	102	1048576	24	6815
2026-01-24 10:28:08.51	339.87	34.15	-33.2	-40.6	6.4	2.29e-01	0	43	102	1048576	26	8522
2026-01-24 10:28:11.53	339.91	33.49	-33.0	-39.7	7.1	1.70e-01	0	44	102	1048576	26	7831
2026-01-24 10:28:14.54	339.95	32.85	-32.5	-37.4	8.8	3.23e-02	0	44	102	1048576	26	6363
2026-01-24 10:28:17.55	339.99	32.23	-31.9	-35.8	10.4	5.32e-03	0	44	102	1048576	25	5628
2026-01-24 10:28:20.56	340.03	31.62	-31.9	-35.7	10.5	3.98e-03	0	44	102	1048576	25	5574
2026-01-24 10:28:23.58	340.07	31.02	-32.2	-37.2	9.8	7.46e-03	0	44	102	1048576	24	6414
2026-01-24 10:28:26.59	340.11	30.43	-32.2	-37.3	9.6	1.28e-02	0	44	102	1048576	24	6497
2026-01-24 10:28:29.60	340.14	29.85	-32.3	-37.7	9.3	1.83e-02	0	44	102	1048576	24	6717
2026-01-24 10:28:32.61	340.18	29.29	-32.1	-37.0	9.8	9.96e-03	0	44	102	1048576	24	6327
2026-01-24 10:28:35.64	340.22	28.73	-31.7	-35.6	10.8	2.53e-03	0	44	102	1048576	24	5661
2026-01-24 10:28:38.64	340.25	28.19	-31.4	-34.6	11.6	6.27e-04	0	44	102	1048576	24	5237
2026-01-24 10:28:41.65	340.28	27.66	-31.1	-34.1	12.3	2.38e-04	0	44	102	1048576	23	5132
2026-01-24 10:28:44.66	340.32	27.14	-30.9	-33.6	12.6	8.54e-05	0	44	102	1048576	23	4925
2026-01-24 10:28:47.68	340.35	26.63	-30.7	-33.6	12.9	6.40e-05	0	44	102	1048576	22	5043
2026-01-24 10:28:50.69	340.38	26.13	-30.9	-34.2	12.5	1.23e-04	0	44	102	1048576	22	5263
2026-01-24 10:28:53.70	340.41	25.63	-31.1	-34.9	12.0	3.79e-04	0	44	102	1048576	22	5571
2026-01-24 10:28:56.71	340.44	25.15	-31.0	-34.4	12.3	1.66e-04	0	44	102	1048576	22	5368
2026-01-24 10:28:59.72	340.47	24.67	-30.9	-34.2	12.4	2.51e-04	0	44	102	1048576	22	5282
2026-01-24 10:29:02.74	340.50	24.21	-30.0	-32.4	13.9	5.30e-06	0	44	102	1048576	21	4710
2026-01-24 10:29:05.76	340.53	23.75	-29.7	-31.9	14.5	0.00e+00	0	44	102	1048576	20	4663
2026-01-24 10:29:08.77	340.56	23.30	-29.5	-31.6	14.7	7.00e-07	0	44	102	1048576	20	4563
2026-01-24 10:29:11.78	340.59	22.85	-29.5	-31.6	14.7	0.00e+00	0	44	102	1048576	20	4555
2026-01-24 10:29:14.79	340.61	22.42	-29.6	-31.7	14.7	0.00e+00	0	44	102	1048576	20	4587
2026-01-24 10:29:17.80	340.64	21.99	-29.8	-32.3	14.3	7.00e-07	0	44	102	1048576	20	4783
2026-01-24 10:29:20.82	340.67	21.57	-29.9	-32.5	14.1	7.60e-06	0	44	102	1048576	20	4883
2026-01-24 10:29:23.84	340.69	21.15	-29.7	-32.0	14.4	1.50e-06	0	44	102	1048576	20	4686
2026-01-24 10:29:26.85	340.72	20.75	-29.9	-32.5	14.1	4.50e-06	0	44	102	1048576	20	4872
2026-01-24 10:29:29.86	340.75	20.35	-29.8	-32.3	14.2	7.00e-07	0	44	102	1048576	20	4802
2026-01-24 10:29:32.87	340.77	19.95	-29.9	-32.5	14.0	2.20e-06	0	44	102	1048576	20	4884
2026-01-24 10:29:35.89	340.80	19.56	-30.0	-32.9	13.8	3.00e-06	0	44	102	1048576	20	5014
2026-01-24 10:29:38.91	340.82	19.18	-30.2	-33.4	13.4	1.67e-05	0	44	102	1048576	20	5214
2026-01-24 10:29:41.92	340.84	18.80	-30.2	-33.4	13.4	1.37e-05	0	44	102	1048576	20	5223
2026-01-24 10:29:44.94	340.87	18.43	-30.2	-33.3	13.4	1.60e-05	0	44	102	1048576	20	5187
2026-01-24 10:29:47.95	340.89	18.07	-30.3	-33.8	13.1	2.05e-05	0	44	102	1048576	20	5372
2026-01-24 10:29:50.97	340.92	17.71	-30.6	-34.1	12.6	8.31e-05	0	44	102	1048576	21	5361
2026-01-24 10:29:53.98	340.94	17.35	-30.5	-33.8	12.7	9.68e-05	0	44	102	1048576	21	5280
2026-01-24 10:29:57.01	340.96	17.00	-30.8	-34.8	12.0	1.40e-04	0	44	102	1048576	21	5669
2026-01-24 10:30:00.03	340.98	16.65	-31.1	-35.2	11.4	9.33e-04	0	43	102	1048576	22	5742
2026-01-24 10:30:03.04	341.01	16.31	-30.8	-34.1	12.2	3.36e-04	0	44	102	1048576	22	5283
2026-01-24 10:30:06.06	341.03	15.98	-30.6	-33.5	12.6	1.12e-04	0	44	102	1048576	22	5040
2026-01-24 10:30:09.07	341.05	15.65	-30.6	-33.5	12.5	1.58e-04	0	44	102	1048576	22	5047
2026-01-24 10:30:12.09	341.07	15.32	-29.9	-32.2	13.7	9.10e-06	0	44	102	1048576	21	4695
2026-01-24 10:30:15.10	341.10	15.00	-30.0	-32.5	13.5	8.30e-06	0	44	102	1048576	21	4787
2026-01-24 10:30:18.11	341.12	14.68	-30.0	-32.6	13.4	1.44e-05	0	44	102	1048576	21	4827
2026-01-24 10:30:21.12	341.14	14.37	-30.2	-32.9	13.2	1.60e-05	0	44	102	1048576	21	4947
2026-01-24 10:30:24.13	341.16	14.06	-30.2	-32.9	13.2	2.67e-05	0	44	102	1048576	21	4942
2026-01-24 10:30:27.13	341.18	13.76	-30.2	-33.0	13.1	3.35e-05	0	43	102	1048576	21	4970
2026-01-24 10:30:30.15	341.20	13.45	-30.2	-33.1	13.0	3.66e-05	0	44	102	1048576	21	5029
2026-01-24 10:30:33.16	341.22	13.16	-30.4	-33.8	12.5	9.15e-05	0	44	102	1048576	21	5278
2026-01-24 10:30:36.17	341.24	12.86	-30.6	-34.2	12.2	1.86e-04	0	44	102	1048576	21	5479
2026-01-24 10:30:39.16	341.26	12.57	-30.4	-33.6	12.6	1.12e-04	0	44	102	1048576	21	5237
2026-01-24 10:30:42.18	341.28	12.28	-30.4	-33.7	12.5	1.27e-04	0	44	102	1048576	21	5246
2026-01-24 10:30:45.19	341.30	12.00	-30.5	-34.0	12.3	1.30e-04	0	43	102	1048576	21	5392
2026-01-24 10:30:48.20	341.32	11.72	-30.7	-34.5	12.0	2.73e-04	0	44	102	1048576	21	5586
2026-01-24 10:30:51.21	341.34	11.44	-30.9	-35.1	11.5	6.60e-04	0	44	102	1048576	21	5889
2026-01-24 10:30:54.22	341.36	11.17	-30.8	-35.1	11.5	5.51e-04	0	44	102	1048576	21	5850
2026-01-24 10:30:57.23	341.38	10.90	-31.0	-35.4	11.2	1.18e-03	0	43	102	1048576	21	6034
2026-01-24 10:31:00.23	341.40	10.63	-31.1	-35.3	11.0	2.13e-03	0	43	102	1048576	22	5860
2026-01-24 10:31:03.24	341.42	10.36	-31.1	-35.4	10.8	2.53e-03	0	44	102	1048576	22	5911
2026-01-24 10:31:06.26	341.44	10.10	-31.2	-35.9	10.5	3.65e-03	0	44	102	1048576	22	6166
2026-01-24 10:31:09.28	341.46	9.84	-31.4	-36.4	10.1	6.65e-03	0	43	102	1048576	22	6410
2026-01-24 10:31:12.29	341.48	9.58	-31.3	-35.6	10.3	8.18e-03	0	44	102	1048576	23	5924
2026-01-24 10:31:15.29	341.50	9.33	-30.7	-34.3	11.5	9.15e-04	0	44	102	1048576	22	5450
2026-01-24 10:31:18.32	341.51	9.08	-30.5	-33.7	11.9	2.84e-04	0	44	102	1048576	22	5192
2026-01-24 10:31:21.33	341.53	8.83	-30.6	-33.9	11.8	4.76e-04	0	43	102	1048576	22	5273
2026-01-24 10:31:24.35	341.55	8.58	-30.5	-33.8	11.9	3.52e-04	0	44	102	1048576	22	5226
2026-01-24 10:31:27.36	341.57	8.33	-30.5	-33.7	11.9	4.70e-04	0	43	102	1048576	22	5195
2026-01-24 10:31:30.37	341.59	8.09	-30.6	-33.9	11.7	6.46e-04	0	44	102	1048576	22	5291
2026-01-24 10:31:33.38	341.61	7.85	-30.7	-34.4	11.3	1.54e-03	0	44	102	1048576	22	5524
2026-01-24 10:31:36.40	341.62	7.61	-30.7	-34.3	11.3	1.01e-03	0	44	102	1048576	22	5493
2026-01-24 10:31:39.41	341.64	7.38	-30.8	-34.6	11.1	1.76e-03	0	44	102	1048576	22	5614
2026-01-24 10:31:42.41	341.66	7.15	-30.6	-34.1	11.4	1.03e-03	0	44	102	1048576	22	5376

#Closed at: 2026-01-24 10:31:44
#Recorded file [1 MB]: D:/data/31010_260124_131941.dat