passes_logs/2026/01/24/R2M6_AANII_01/R2M6_AANII_01__20260124_123650_FENGYUN_3D_rec.log

#Pass ID: 20260124_123650_FENGYUN 3D
#Satellite: FENGYUN 3D
#Configuration: FENGYUN 3D
#almurnet v.1.7.20240730
#Start time: 2026-01-24 12:36:51

#Version: 2.2.20231116
#Station: R2M6_AANII_01
#Location: 30.233357 lon 59.946436 lat
#TLE: 1 43010U 17072A   26023.60174628  .00000324  00000+0  17481-3 0  9994
#TLE: 2 43010  98.9958 355.5514 0002482  93.7422 266.4037 14.19699955424476

#Time	Az	El	Level	Level2	SNR	BER	BlckErr	Temp	State	Recorded	gain1	gain2
2026-01-24 12:36:51.25	167.28	7.02	-29.8	-32.9	5.3	7.89e-01	0	41	0	0	20	5109
2026-01-24 12:36:54.25	167.33	7.26	-29.6	-32.3	10.1	4.98e-03	0	41	102	1048576	20	4874
2026-01-24 12:36:57.25	167.39	7.49	-29.9	-33.1	9.5	8.33e-03	0	41	102	1048576	20	5203
2026-01-24 12:37:00.26	167.44	7.73	-29.2	-31.6	10.9	2.07e-03	0	41	102	1048576	19	4760
2026-01-24 12:37:03.28	167.50	7.97	-28.1	-29.8	12.7	5.95e-05	0	41	102	1048576	17	4384
2026-01-24 12:37:06.28	167.56	8.21	-27.1	-28.5	13.9	3.40e-06	0	41	102	1048576	15	4245
2026-01-24 12:37:09.29	167.62	8.46	-27.4	-29.2	13.5	3.40e-06	0	41	102	1048576	15	4441
2026-01-24 12:37:12.30	167.68	8.70	-27.5	-29.4	13.4	1.71e-05	0	41	102	1048576	15	4502
2026-01-24 12:37:15.31	167.74	8.95	-26.8	-28.0	14.3	0.00e+00	0	41	102	1048576	15	4093
2026-01-24 12:37:18.34	167.80	9.21	-26.7	-28.2	14.4	0.00e+00	0	42	102	1048576	14	4259
2026-01-24 12:37:21.35	167.87	9.46	-26.8	-28.4	14.3	2.20e-06	0	42	102	1048576	14	4332
2026-01-24 12:37:24.37	167.93	9.72	-26.7	-28.1	14.5	0.00e+00	0	42	102	1048576	14	4246
2026-01-24 12:37:27.39	168.00	9.98	-26.6	-28.0	14.6	0.00e+00	0	42	102	1048576	14	4194
2026-01-24 12:37:30.39	168.06	10.24	-26.6	-27.9	14.7	0.00e+00	0	42	102	1048576	14	4172
2026-01-24 12:37:33.40	168.13	10.50	-26.5	-27.6	14.8	0.00e+00	0	42	102	1048576	14	4108
2026-01-24 12:37:36.42	168.20	10.77	-26.7	-28.2	14.6	0.00e+00	0	42	102	1048576	14	4252
2026-01-24 12:37:39.45	168.27	11.05	-26.7	-28.1	14.6	0.00e+00	0	42	102	1048576	14	4227
2026-01-24 12:37:42.46	168.34	11.32	-26.4	-27.5	15.0	0.00e+00	0	42	102	1048576	14	4059
2026-01-24 12:37:45.46	168.41	11.60	-26.6	-27.9	14.7	1.10e-06	0	42	102	1048576	14	4191
2026-01-24 12:37:48.47	168.48	11.88	-26.8	-28.4	14.5	0.00e+00	0	42	102	1048576	14	4313
2026-01-24 12:37:51.48	168.56	12.16	-26.8	-28.4	14.5	0.00e+00	0	42	102	1048576	14	4327
2026-01-24 12:37:54.49	168.63	12.45	-26.6	-28.1	14.5	1.03e-04	0	42	102	1048576	14	4252
2026-01-24 12:37:57.50	168.71	12.74	-26.6	-28.1	14.6	5.83e-05	0	42	102	1048576	14	4240
2026-01-24 12:38:00.50	168.79	13.03	-25.8	-27.1	15.7	4.50e-06	0	42	102	1048576	12	4191
2026-01-24 12:38:03.52	168.87	13.33	-25.6	-26.7	15.9	4.50e-06	0	42	102	1048576	12	4073
2026-01-24 12:38:06.52	168.95	13.63	-25.6	-26.7	16.0	8.00e-06	0	42	102	1048576	12	4072
2026-01-24 12:38:09.54	169.03	13.93	-25.6	-26.7	16.1	9.10e-06	0	42	102	1048576	12	4063
2026-01-24 12:38:12.55	169.11	14.24	-25.4	-26.2	16.3	0.00e+00	0	42	102	1048576	12	3941
2026-01-24 12:38:15.56	169.20	14.55	-25.4	-26.1	16.4	0.00e+00	0	42	102	1048576	12	3912
2026-01-24 12:38:18.57	169.28	14.87	-25.3	-26.4	16.6	0.00e+00	0	42	102	1048576	11	4097
2026-01-24 12:38:21.58	169.37	15.19	-25.2	-26.1	16.8	0.00e+00	0	42	102	1048576	11	4028
2026-01-24 12:38:24.59	169.46	15.52	-25.3	-26.5	16.6	0.00e+00	0	43	102	1048576	11	4116
2026-01-24 12:38:27.61	169.56	15.85	-25.1	-25.9	16.9	0.00e+00	0	43	102	1048576	11	3972
2026-01-24 12:38:30.63	169.65	16.18	-25.1	-26.1	16.8	0.00e+00	0	43	102	1048576	11	4014
2026-01-24 12:38:33.63	169.74	16.52	-24.8	-25.4	17.2	0.00e+00	0	43	102	1048576	11	3843
2026-01-24 12:38:36.64	169.84	16.86	-24.8	-25.5	17.2	0.00e+00	0	43	102	1048576	11	3859
2026-01-24 12:38:39.65	169.94	17.21	-24.9	-25.6	17.2	0.00e+00	0	43	102	1048576	11	3878
2026-01-24 12:38:42.66	170.04	17.56	-24.8	-25.4	17.2	0.00e+00	0	43	102	1048576	11	3845
2026-01-24 12:38:45.66	170.15	17.92	-24.8	-25.7	17.3	0.00e+00	0	43	102	1048576	10	4034
2026-01-24 12:38:48.67	170.25	18.28	-24.7	-25.6	17.4	0.00e+00	0	42	102	1048576	10	3985
2026-01-24 12:38:51.69	170.36	18.65	-24.5	-25.1	17.7	0.00e+00	0	43	102	1048576	10	3886
2026-01-24 12:38:54.70	170.47	19.02	-24.3	-24.8	17.4	1.02e-05	0	43	102	1048576	10	3816
2026-01-24 12:38:57.71	170.59	19.40	-24.5	-25.2	17.0	3.60e-04	0	43	102	1048576	10	3910
2026-01-24 12:39:00.73	170.70	19.79	-24.5	-25.2	17.2	1.36e-04	0	43	102	1048576	10	3896
2026-01-24 12:39:03.74	170.82	20.18	-24.4	-25.4	17.3	5.60e-05	0	43	102	1048576	9	4073
2026-01-24 12:39:06.76	170.95	20.58	-23.8	-24.6	17.9	2.05e-05	0	43	102	1048576	8	3981
2026-01-24 12:39:09.77	171.07	20.98	-23.9	-24.9	18.1	1.25e-05	0	43	102	1048576	8	4043
2026-01-24 12:39:12.77	171.20	21.39	-23.8	-24.8	18.0	3.40e-06	0	43	102	1048576	8	4030
2026-01-24 12:39:15.78	171.33	21.81	-24.0	-25.1	18.3	0.00e+00	0	43	102	1048576	8	4089
2026-01-24 12:39:18.78	171.46	22.23	-24.0	-25.1	18.3	0.00e+00	0	43	102	1048576	8	4088
2026-01-24 12:39:21.80	171.60	22.66	-23.9	-25.0	17.8	1.25e-05	0	43	102	1048576	8	4096
2026-01-24 12:39:24.81	171.74	23.10	-23.7	-24.6	17.9	1.94e-05	0	43	102	1048576	8	3976
2026-01-24 12:39:27.81	171.89	23.54	-23.6	-24.2	18.3	6.80e-06	0	43	102	1048576	8	3893
2026-01-24 12:39:30.83	172.04	23.99	-23.4	-23.8	18.6	0.00e+00	0	43	102	1048576	8	3792
2026-01-24 12:39:33.85	172.19	24.46	-23.2	-24.0	18.9	0.00e+00	0	43	102	1048576	7	3924
2026-01-24 12:39:36.87	172.35	24.93	-23.2	-23.8	19.0	0.00e+00	0	43	102	1048576	7	3897
2026-01-24 12:39:39.87	172.51	25.40	-23.2	-23.9	19.1	0.00e+00	0	43	102	1048576	7	3899
2026-01-24 12:39:42.88	172.68	25.89	-23.2	-23.9	19.2	0.00e+00	0	43	102	1048576	7	3899
2026-01-24 12:39:45.89	172.85	26.38	-23.4	-24.3	19.0	0.00e+00	0	43	102	1048576	7	4002
2026-01-24 12:39:48.89	173.02	26.88	-23.5	-24.5	18.9	0.00e+00	0	43	102	1048576	7	4063
2026-01-24 12:39:51.91	173.21	27.40	-23.3	-24.2	19.0	0.00e+00	0	43	102	1048576	7	3982
2026-01-24 12:39:54.91	173.39	27.92	-23.2	-24.0	19.1	0.00e+00	0	43	102	1048576	7	3920
2026-01-24 12:39:57.93	173.59	28.45	-23.2	-24.0	19.1	0.00e+00	0	43	102	1048576	7	3926
2026-01-24 12:40:00.94	173.79	28.99	-23.0	-23.5	19.4	0.00e+00	0	43	102	1048576	7	3821
2026-01-24 12:40:03.95	173.99	29.54	-23.3	-24.1	19.1	0.00e+00	0	43	102	1048576	7	3961
2026-01-24 12:40:06.97	174.21	30.11	-23.4	-24.4	18.9	0.00e+00	0	43	102	1048576	7	4020
2026-01-24 12:40:09.99	174.43	30.68	-23.4	-24.3	19.0	0.00e+00	0	43	102	1048576	7	4005
2026-01-24 12:40:13.01	174.66	31.27	-23.3	-24.1	19.1	0.00e+00	0	43	102	1048576	7	3956
2026-01-24 12:40:16.03	174.89	31.87	-23.1	-23.8	19.3	0.00e+00	0	43	102	1048576	7	3876
2026-01-24 12:40:19.03	175.14	32.47	-23.0	-23.6	19.4	0.00e+00	0	43	102	1048576	7	3833
2026-01-24 12:40:22.04	175.39	33.09	-23.2	-23.9	19.2	0.00e+00	0	43	102	1048576	7	3920
2026-01-24 12:40:25.06	175.65	33.73	-23.1	-23.7	19.4	0.00e+00	0	43	102	1048576	7	3867
2026-01-24 12:40:28.08	175.93	34.37	-23.4	-24.2	19.2	0.00e+00	0	43	102	1048576	7	3982
2026-01-24 12:40:31.09	176.21	35.03	-23.2	-23.8	19.4	0.00e+00	0	43	102	1048576	7	3878
2026-01-24 12:40:34.10	176.51	35.70	-23.6	-24.7	18.9	0.00e+00	0	43	102	1048576	7	4098
2026-01-24 12:40:37.10	176.81	36.38	-22.7	-23.4	19.8	0.00e+00	0	43	102	1048576	6	3889
2026-01-24 12:40:40.11	177.13	37.08	-22.7	-23.4	19.8	0.00e+00	0	43	102	1048576	6	3891
2026-01-24 12:40:43.12	177.47	37.79	-22.8	-23.5	19.8	2.20e-06	0	43	102	1048576	6	3909
2026-01-24 12:40:46.13	177.81	38.52	-22.9	-23.7	19.7	0.00e+00	0	43	102	1048576	6	3975
2026-01-24 12:40:49.13	178.18	39.26	-22.7	-23.3	19.9	0.00e+00	0	43	102	1048576	6	3881
2026-01-24 12:40:52.13	178.56	40.01	-22.8	-23.6	19.7	0.00e+00	0	43	102	1048576	6	3937
2026-01-24 12:40:55.15	178.96	40.79	-22.9	-23.8	19.7	0.00e+00	0	43	102	1048576	6	3990
2026-01-24 12:40:58.17	179.37	41.58	-23.0	-23.9	19.6	0.00e+00	0	43	102	1048576	6	4021
2026-01-24 12:41:01.19	179.81	42.38	-23.3	-24.5	19.3	0.00e+00	0	43	102	1048576	6	4170
2026-01-24 12:41:04.19	180.27	43.20	-23.2	-24.5	19.4	0.00e+00	0	43	102	1048576	6	4150
2026-01-24 12:41:07.20	180.75	44.03	-23.3	-24.6	19.4	0.00e+00	0	43	102	1048576	6	4174
2026-01-24 12:41:10.22	181.26	44.88	-23.3	-24.5	19.4	0.00e+00	0	43	102	1048576	6	4166
2026-01-24 12:41:13.23	181.80	45.75	-23.3	-24.6	19.4	0.00e+00	0	43	102	1048576	6	4172
2026-01-24 12:41:16.24	182.37	46.63	-23.2	-24.3	19.5	0.00e+00	0	43	102	1048576	6	4110
2026-01-24 12:41:19.25	182.96	47.53	-23.2	-24.4	19.5	0.00e+00	0	43	102	1048576	6	4128
2026-01-24 12:41:22.26	183.60	48.44	-22.9	-23.8	19.8	0.00e+00	0	43	102	1048576	6	3972
2026-01-24 12:41:25.27	184.27	49.37	-23.3	-24.5	19.4	0.00e+00	0	43	102	1048576	6	4167
2026-01-24 12:41:28.28	184.98	50.32	-23.4	-24.9	19.3	0.00e+00	0	43	102	1048576	6	4245
2026-01-24 12:41:31.30	185.74	51.28	-24.1	-25.3	18.6	0.00e+00	0	43	102	1048576	8	4125
2026-01-24 12:41:34.32	186.56	52.26	-24.0	-25.0	18.8	0.00e+00	0	43	102	1048576	8	4042
2026-01-24 12:41:37.34	187.42	53.25	-24.3	-25.6	18.5	0.00e+00	0	43	102	1048576	8	4202
2026-01-24 12:41:40.34	188.34	54.24	-23.9	-24.9	18.9	0.00e+00	0	43	102	1048576	8	4016
2026-01-24 12:41:43.33	189.33	55.25	-23.9	-24.8	18.9	0.00e+00	0	43	102	1048576	8	4007
2026-01-24 12:41:46.35	190.39	56.28	-23.9	-24.9	18.8	0.00e+00	0	43	102	1048576	8	4033
2026-01-24 12:41:49.37	191.54	57.31	-24.1	-25.3	18.6	0.00e+00	0	43	102	1048576	8	4138
2026-01-24 12:41:52.37	192.77	58.35	-23.8	-24.7	19.0	0.00e+00	0	43	102	1048576	8	3965
2026-01-24 12:41:55.38	194.10	59.39	-23.3	-23.6	19.6	0.00e+00	0	43	102	1048576	8	3713
2026-01-24 12:41:58.39	195.54	60.44	-23.4	-24.2	19.5	0.00e+00	0	43	102	1048576	7	3961
2026-01-24 12:42:01.39	197.10	61.48	-22.8	-23.0	20.1	0.00e+00	0	43	102	1048576	7	3701
2026-01-24 12:42:04.42	198.82	62.53	-22.7	-23.2	20.3	0.00e+00	0	43	102	1048576	6	3839
2026-01-24 12:42:07.43	200.67	63.57	-22.8	-23.5	20.1	0.00e+00	0	43	102	1048576	6	3910
2026-01-24 12:42:10.43	202.68	64.59	-22.7	-23.4	20.2	0.00e+00	0	43	102	1048576	6	3877
2026-01-24 12:42:13.43	204.89	65.59	-22.7	-23.2	20.5	0.00e+00	0	43	102	1048576	6	3820
2026-01-24 12:42:16.45	207.31	66.58	-22.4	-22.7	20.7	0.00e+00	0	43	102	1048576	6	3708
2026-01-24 12:42:19.47	209.96	67.54	-22.5	-22.9	20.6	0.00e+00	0	43	102	1048576	6	3752
2026-01-24 12:42:22.47	212.85	68.45	-22.4	-22.7	20.7	0.00e+00	0	43	102	1048576	6	3705
2026-01-24 12:42:25.49	216.03	69.32	-23.0	-23.5	20.1	0.00e+00	0	43	102	1048576	7	3799
2026-01-24 12:42:28.50	219.48	70.14	-23.0	-23.4	20.1	0.00e+00	0	43	102	1048576	7	3781
2026-01-24 12:42:31.50	223.23	70.88	-22.9	-23.2	20.2	0.00e+00	0	43	102	1048576	7	3727
2026-01-24 12:42:34.50	227.28	71.55	-21.6	-22.0	21.4	0.00e+00	0	43	102	1048576	4	3779
2026-01-24 12:42:37.52	231.66	72.13	-21.8	-22.4	21.3	0.00e+00	0	43	102	1048576	4	3854
2026-01-24 12:42:40.53	236.30	72.61	-21.6	-22.0	21.4	0.00e+00	0	43	102	1048576	4	3776
2026-01-24 12:42:43.54	241.19	72.98	-21.7	-22.3	21.3	0.00e+00	0	43	102	1048576	4	3843
2026-01-24 12:42:46.55	246.26	73.22	-21.3	-21.8	21.8	0.00e+00	0	43	102	1048576	3	3830
2026-01-24 12:42:49.56	251.45	73.34	-21.8	-23.0	21.4	0.00e+00	0	43	102	1048576	3	4113
2026-01-24 12:42:52.57	256.67	73.32	-21.8	-22.4	21.4	0.00e+00	0	43	102	1048576	4	3869
2026-01-24 12:42:55.58	261.84	73.18	-21.4	-21.5	21.8	0.00e+00	0	43	102	1048576	4	3656
2026-01-24 12:42:58.59	266.88	72.91	-21.7	-22.1	21.5	0.00e+00	0	43	102	1048576	4	3794
2026-01-24 12:43:01.59	271.70	72.52	-21.9	-22.6	21.2	0.00e+00	0	43	102	1048576	4	3904
2026-01-24 12:43:04.61	276.30	72.01	-21.8	-22.4	21.3	0.00e+00	0	43	102	1048576	4	3865
2026-01-24 12:43:07.61	280.58	71.42	-21.8	-22.5	21.3	0.00e+00	0	43	102	1048576	4	3882
2026-01-24 12:43:10.63	284.59	70.73	-22.0	-22.8	21.1	0.00e+00	0	43	102	1048576	4	3951
2026-01-24 12:43:13.64	288.28	69.97	-22.0	-22.7	21.1	0.00e+00	0	43	102	1048576	4	3940
2026-01-24 12:43:16.65	291.67	69.14	-22.2	-23.2	20.9	0.00e+00	0	43	102	1048576	4	4045
2026-01-24 12:43:19.66	294.77	68.26	-22.3	-23.5	20.7	0.00e+00	0	43	102	1048576	4	4127
2026-01-24 12:43:22.68	297.61	67.33	-22.1	-23.1	20.9	0.00e+00	0	43	102	1048576	4	4026
2026-01-24 12:43:25.70	300.21	66.37	-22.6	-23.6	20.4	0.00e+00	0	43	102	1048576	5	4046
2026-01-24 12:43:28.71	302.58	65.38	-22.5	-23.4	20.5	0.00e+00	0	43	102	1048576	5	3977
2026-01-24 12:43:31.73	304.75	64.37	-22.6	-23.6	20.4	0.00e+00	0	43	102	1048576	5	4028
2026-01-24 12:43:34.73	306.72	63.35	-22.7	-23.8	20.3	0.00e+00	0	43	102	1048576	5	4091
2026-01-24 12:43:37.75	308.54	62.31	-22.9	-24.2	20.1	0.00e+00	0	43	102	1048576	5	4177
2026-01-24 12:43:40.77	310.22	61.26	-23.1	-24.1	19.9	0.00e+00	0	43	102	1048576	6	4033
2026-01-24 12:43:43.79	311.76	60.22	-23.5	-24.9	19.5	0.00e+00	0	43	102	1048576	6	4240
2026-01-24 12:43:46.81	313.18	59.17	-23.0	-23.5	19.9	0.00e+00	0	43	102	1048576	7	3789
2026-01-24 12:43:49.82	314.48	58.13	-23.4	-24.2	19.5	0.00e+00	0	43	102	1048576	7	3959
2026-01-24 12:43:52.83	315.69	57.10	-24.1	-25.2	18.8	0.00e+00	0	43	102	1048576	8	4099
2026-01-24 12:43:55.84	316.82	56.07	-24.1	-25.3	18.7	0.00e+00	0	43	102	1048576	8	4110
2026-01-24 12:43:58.85	317.86	55.05	-24.3	-25.6	18.5	0.00e+00	0	43	102	1048576	8	4193
2026-01-24 12:44:01.86	318.83	54.05	-23.7	-24.5	19.1	0.00e+00	0	43	102	1048576	8	3906
2026-01-24 12:44:04.87	319.74	53.05	-23.7	-24.5	19.1	0.00e+00	0	43	102	1048576	8	3919
2026-01-24 12:44:07.88	320.59	52.07	-23.4	-23.7	19.4	0.00e+00	0	43	102	1048576	8	3739
2026-01-24 12:44:10.89	321.39	51.11	-23.5	-23.9	19.4	0.00e+00	0	43	102	1048576	8	3783
2026-01-24 12:44:13.90	322.14	50.15	-22.7	-23.3	20.1	0.00e+00	0	43	102	1048576	6	3851
2026-01-24 12:44:16.91	322.84	49.22	-22.9	-23.7	19.9	0.00e+00	0	43	102	1048576	6	3958
2026-01-24 12:44:19.93	323.51	48.29	-23.3	-24.6	19.4	0.00e+00	0	43	102	1048576	6	4172
2026-01-24 12:44:22.95	324.13	47.38	-23.8	-25.2	18.9	0.00e+00	0	43	102	1048576	7	4208
2026-01-24 12:44:25.95	324.72	46.49	-23.2	-23.9	19.5	0.00e+00	0	43	102	1048576	7	3888
2026-01-24 12:44:28.97	325.28	45.61	-23.1	-23.7	19.6	0.00e+00	0	43	102	1048576	7	3847
2026-01-24 12:44:31.98	325.81	44.75	-23.0	-23.5	19.7	0.00e+00	0	43	102	1048576	7	3802
2026-01-24 12:44:35.00	326.32	43.91	-22.6	-23.1	20.2	0.00e+00	0	43	102	1048576	6	3799
2026-01-24 12:44:38.01	326.80	43.08	-22.7	-23.4	20.0	0.00e+00	0	43	102	1048576	6	3873
2026-01-24 12:44:41.03	327.25	42.27	-22.6	-23.1	20.2	0.00e+00	0	43	102	1048576	6	3806
2026-01-24 12:44:44.04	327.68	41.47	-22.5	-23.0	20.2	0.00e+00	0	43	102	1048576	6	3784
2026-01-24 12:44:47.05	328.10	40.69	-22.6	-23.1	20.1	0.00e+00	0	43	102	1048576	6	3807
2026-01-24 12:44:50.06	328.49	39.93	-22.6	-23.1	20.1	0.00e+00	0	43	102	1048576	6	3817
2026-01-24 12:44:53.08	328.87	39.17	-22.6	-23.0	20.2	0.00e+00	0	43	102	1048576	6	3797
2026-01-24 12:44:56.09	329.23	38.44	-22.6	-23.1	20.1	0.00e+00	0	43	102	1048576	6	3814
2026-01-24 12:44:59.11	329.58	37.72	-22.7	-23.2	20.0	0.00e+00	0	43	102	1048576	6	3843
2026-01-24 12:45:02.11	329.91	37.01	-22.7	-23.2	20.0	0.00e+00	0	43	102	1048576	6	3842
2026-01-24 12:45:05.13	330.23	36.32	-22.4	-22.7	20.3	0.00e+00	0	43	102	1048576	6	3721
2026-01-24 12:45:08.13	330.53	35.64	-22.5	-22.8	20.2	0.00e+00	0	43	102	1048576	6	3749
2026-01-24 12:45:11.14	330.82	34.98	-22.6	-23.1	20.0	0.00e+00	0	43	102	1048576	6	3827
2026-01-24 12:45:14.15	331.10	34.33	-22.8	-23.4	19.9	0.00e+00	0	43	102	1048576	6	3892
2026-01-24 12:45:17.16	331.38	33.69	-22.6	-23.2	20.0	0.00e+00	0	43	102	1048576	6	3828
2026-01-24 12:45:20.17	331.64	33.06	-22.8	-23.5	19.8	0.00e+00	0	43	102	1048576	6	3908
2026-01-24 12:45:23.18	331.89	32.44	-22.7	-23.4	19.9	0.00e+00	0	43	102	1048576	6	3874
2026-01-24 12:45:26.21	332.14	31.84	-22.9	-23.6	19.7	0.00e+00	0	43	102	1048576	6	3940
2026-01-24 12:45:29.22	332.37	31.25	-22.8	-23.6	19.7	0.00e+00	0	43	102	1048576	6	3938
2026-01-24 12:45:32.23	332.60	30.67	-22.8	-23.5	19.8	0.00e+00	0	43	102	1048576	6	3906
2026-01-24 12:45:35.24	332.82	30.10	-22.6	-23.1	19.9	0.00e+00	0	43	102	1048576	6	3819
2026-01-24 12:45:38.25	333.03	29.54	-22.7	-23.2	19.9	0.00e+00	0	43	102	1048576	6	3839
2026-01-24 12:45:41.25	333.24	28.99	-22.9	-23.6	19.7	0.00e+00	0	43	102	1048576	6	3935
2026-01-24 12:45:44.26	333.44	28.46	-23.0	-24.0	19.5	0.00e+00	0	43	102	1048576	6	4035
2026-01-24 12:45:47.27	333.63	27.93	-23.2	-24.4	19.3	0.00e+00	0	43	102	1048576	6	4138
2026-01-24 12:45:50.28	333.82	27.41	-22.8	-23.6	19.7	0.00e+00	0	43	102	1048576	6	3940
2026-01-24 12:45:53.29	334.00	26.90	-22.8	-23.6	19.6	0.00e+00	0	43	102	1048576	6	3935
2026-01-24 12:45:56.29	334.17	26.41	-22.7	-23.4	19.7	0.00e+00	0	43	102	1048576	6	3881
2026-01-24 12:45:59.31	334.35	25.91	-22.9	-23.7	19.6	0.00e+00	0	43	102	1048576	6	3943
2026-01-24 12:46:02.32	334.51	25.43	-23.2	-24.3	19.3	0.00e+00	0	43	102	1048576	6	4108
2026-01-24 12:46:05.33	334.68	24.96	-23.3	-24.5	19.1	0.00e+00	0	43	102	1048576	6	4162
2026-01-24 12:46:08.34	334.83	24.49	-23.5	-24.5	18.9	0.00e+00	0	43	102	1048576	7	4053
2026-01-24 12:46:11.36	334.99	24.04	-23.8	-25.0	18.6	0.00e+00	0	43	102	1048576	7	4169
2026-01-24 12:46:14.36	335.14	23.59	-23.8	-25.0	18.6	0.00e+00	0	43	102	1048576	7	4176
2026-01-24 12:46:17.37	335.28	23.15	-23.9	-25.4	18.4	0.00e+00	0	43	102	1048576	7	4274
2026-01-24 12:46:20.39	335.43	22.71	-24.1	-24.9	18.2	0.00e+00	0	43	102	1048576	9	3908
2026-01-24 12:46:23.40	335.56	22.28	-23.8	-24.1	18.6	0.00e+00	0	43	102	1048576	9	3733
2026-01-24 12:46:26.42	335.70	21.86	-23.9	-24.4	18.4	0.00e+00	0	43	102	1048576	9	3812
2026-01-24 12:46:29.44	335.83	21.44	-24.0	-24.5	18.4	0.00e+00	0	43	102	1048576	9	3815
2026-01-24 12:46:32.45	335.96	21.04	-24.0	-24.6	18.3	0.00e+00	0	43	102	1048576	9	3857
2026-01-24 12:46:35.46	336.09	20.64	-24.0	-24.6	18.3	0.00e+00	0	43	102	1048576	9	3863
2026-01-24 12:46:38.46	336.21	20.24	-24.2	-24.9	18.1	0.00e+00	0	43	102	1048576	9	3930
2026-01-24 12:46:41.47	336.33	19.86	-24.3	-25.2	17.9	0.00e+00	0	43	102	1048576	9	4002
2026-01-24 12:46:44.48	336.45	19.47	-24.5	-25.7	17.7	0.00e+00	0	43	102	1048576	9	4126
2026-01-24 12:46:47.49	336.56	19.10	-24.9	-26.4	17.3	0.00e+00	0	43	102	1048576	9	4300
2026-01-24 12:46:50.51	336.68	18.72	-24.6	-25.9	17.5	0.00e+00	0	43	102	1048576	9	4171
2026-01-24 12:46:53.52	336.79	18.36	-24.8	-26.3	17.3	0.00e+00	0	43	102	1048576	9	4276
2026-01-24 12:46:56.54	336.89	18.00	-24.7	-26.0	17.5	0.00e+00	0	43	102	1048576	9	4189
2026-01-24 12:46:59.55	337.00	17.64	-24.5	-25.7	17.6	0.00e+00	0	43	102	1048576	9	4110
2026-01-24 12:47:02.56	337.10	17.29	-24.7	-26.0	17.4	0.00e+00	0	43	102	1048576	9	4205
2026-01-24 12:47:05.57	337.20	16.94	-24.9	-26.4	17.2	0.00e+00	0	43	102	1048576	9	4305
2026-01-24 12:47:08.58	337.30	16.60	-24.9	-26.6	17.1	0.00e+00	0	43	102	1048576	9	4349
2026-01-24 12:47:11.60	337.40	16.27	-25.0	-26.3	17.0	0.00e+00	0	43	102	1048576	10	4157
2026-01-24 12:47:14.61	337.50	15.94	-25.3	-26.9	16.7	0.00e+00	0	43	102	1048576	10	4319
2026-01-24 12:47:17.62	337.59	15.61	-25.5	-26.8	16.5	0.00e+00	0	43	102	1048576	11	4182
2026-01-24 12:47:20.64	337.68	15.28	-25.4	-26.6	16.6	0.00e+00	0	43	102	1048576	11	4124
2026-01-24 12:47:23.65	337.77	14.97	-25.4	-26.6	16.5	0.00e+00	0	43	102	1048576	11	4119
2026-01-24 12:47:26.67	337.86	14.65	-25.3	-26.3	16.7	0.00e+00	0	43	102	1048576	11	4037
2026-01-24 12:47:29.67	337.95	14.34	-25.3	-26.3	16.7	0.00e+00	0	43	102	1048576	11	4057
2026-01-24 12:47:32.69	338.04	14.03	-25.5	-26.7	16.5	0.00e+00	0	43	102	1048576	11	4150
2026-01-24 12:47:35.70	338.12	13.73	-25.6	-27.0	16.3	0.00e+00	0	43	102	1048576	11	4223
2026-01-24 12:47:38.71	338.20	13.43	-25.7	-27.2	16.2	0.00e+00	0	43	102	1048576	11	4270
2026-01-24 12:47:41.73	338.28	13.13	-25.7	-27.2	16.1	0.00e+00	0	43	102	1048576	11	4288
2026-01-24 12:47:44.74	338.36	12.84	-25.7	-27.2	16.1	0.00e+00	0	43	102	1048576	11	4288
2026-01-24 12:47:47.76	338.44	12.55	-25.9	-27.6	15.9	0.00e+00	0	43	102	1048576	11	4382
2026-01-24 12:47:50.76	338.52	12.27	-26.1	-27.7	15.5	0.00e+00	0	43	102	1048576	12	4304
2026-01-24 12:47:53.78	338.60	11.99	-26.3	-28.2	15.2	0.00e+00	0	43	102	1048576	12	4447
2026-01-24 12:47:56.79	338.67	11.71	-26.1	-27.7	15.4	0.00e+00	0	43	102	1048576	12	4329
2026-01-24 12:47:59.80	338.75	11.43	-26.3	-28.1	15.2	0.00e+00	0	43	102	1048576	12	4438
2026-01-24 12:48:02.80	338.82	11.16	-26.3	-27.5	15.2	0.00e+00	0	43	102	1048576	13	4156
2026-01-24 12:48:05.80	338.89	10.89	-26.3	-27.7	15.1	0.00e+00	0	43	102	1048576	13	4204
2026-01-24 12:48:08.82	338.96	10.62	-26.4	-27.8	15.0	0.00e+00	0	43	102	1048576	13	4250
2026-01-24 12:48:11.83	339.03	10.36	-26.3	-27.7	15.1	0.00e+00	0	43	102	1048576	13	4203
2026-01-24 12:48:14.85	339.10	10.10	-26.5	-28.2	14.8	0.00e+00	0	43	102	1048576	13	4341
2026-01-24 12:48:17.86	339.17	9.84	-26.9	-28.9	14.3	0.00e+00	0	43	102	1048576	13	4557
2026-01-24 12:48:20.86	339.23	9.59	-27.4	-29.6	13.6	5.70e-06	0	43	102	1048576	14	4660
2026-01-24 12:48:23.87	339.30	9.33	-27.7	-29.8	13.2	1.60e-05	0	43	102	1048576	15	4604
2026-01-24 12:48:26.88	339.36	9.08	-27.9	-30.5	12.8	3.77e-05	0	43	102	1048576	15	4809
2026-01-24 12:48:29.89	339.43	8.83	-27.3	-28.4	13.9	4.50e-06	0	43	102	1048576	16	4080
2026-01-24 12:48:32.90	339.49	8.59	-26.7	-28.1	14.4	1.10e-06	0	43	102	1048576	14	4226
2026-01-24 12:48:35.91	339.55	8.35	-26.8	-28.3	14.3	0.00e+00	0	43	102	1048576	14	4277
2026-01-24 12:48:38.92	339.61	8.10	-26.9	-28.6	14.1	0.00e+00	0	43	102	1048576	14	4366
2026-01-24 12:48:41.92	339.67	7.87	-26.9	-28.4	14.2	0.00e+00	0	43	102	1048576	14	4317
2026-01-24 12:48:44.94	339.73	7.63	-26.8	-28.4	14.1	1.10e-06	0	43	102	1048576	14	4318
2026-01-24 12:48:47.95	339.79	7.39	-26.9	-28.5	14.1	1.10e-06	0	43	102	1048576	14	4334
2026-01-24 12:48:50.97	339.85	7.16	-27.0	-28.8	13.9	2.20e-06	0	43	102	1048576	14	4424
2026-01-24 12:48:53.98	339.91	6.93	-33.4	-44.8	3.8	8.46e-01	0	44	104	1048576	26	13458

#Closed at: 2026-01-24 12:48:56
#Recorded file [1 MB]: D:/data/31010_260124_153653.dat