passes_logs/2026/01/24/R2M6_AANII_01/R2M6_AANII_01__20260124_095910_SUOMI_NPP_rec.log

#Pass ID: 20260124_095910_SUOMI NPP
#Satellite: SUOMI NPP
#Configuration: NPP
#almurnet v.1.7.20240730
#Start time: 2026-01-24 09:59:11

#Version: 2.2.20231116
#Station: R2M6_AANII_01
#Location: 30.233357 lon 59.946436 lat
#TLE: 1 37849U 11061A   26023.63275593  .00000212  00000+0  12133-3 0  9990
#TLE: 2 37849  98.7820 325.6074 0002234  48.9695 311.1673 14.19528901737937

#Time	Az	El	Level	Level2	SNR	BER	BlckErr	Temp	State	Recorded	gain1	gain2
2026-01-24 09:59:11.61	147.42	7.07	-29.9	-36.1	5.0	1.30e+00	0	41	0	0	20	7332
2026-01-24 09:59:14.63	147.37	7.30	-30.2	-35.9	7.8	9.19e-02	0	41	102	1048576	21	6897
2026-01-24 09:59:17.64	147.31	7.54	-30.2	-34.3	9.5	1.85e-02	0	41	102	1048576	21	5753
2026-01-24 09:59:20.65	147.26	7.78	-30.2	-33.8	10.0	1.15e-02	0	41	102	1048576	21	5454
2026-01-24 09:59:23.67	147.20	8.02	-30.0	-32.3	11.4	1.64e-03	0	42	102	1048576	21	4722
2026-01-24 09:59:26.68	147.14	8.26	-29.8	-31.8	12.3	2.55e-04	0	41	102	1048576	20	4521
2026-01-24 09:59:29.70	147.08	8.51	-30.2	-32.6	11.9	2.11e-04	0	42	102	1048576	20	4774
2026-01-24 09:59:32.71	147.02	8.75	-30.0	-32.2	12.2	1.61e-04	0	42	102	1048576	20	4626
2026-01-24 09:59:35.72	146.96	9.00	-30.1	-32.3	12.3	1.19e-04	0	42	102	1048576	20	4626
2026-01-24 09:59:38.74	146.89	9.26	-30.2	-32.4	12.2	1.89e-04	0	42	102	1048576	20	4641
2026-01-24 09:59:41.76	146.83	9.51	-30.2	-32.3	12.3	1.90e-04	0	42	102	1048576	20	4615
2026-01-24 09:59:44.77	146.77	9.77	-29.9	-31.8	12.7	8.85e-05	0	42	102	1048576	20	4446
2026-01-24 09:59:47.78	146.70	10.03	-29.9	-31.6	12.8	7.17e-05	0	42	102	1048576	20	4384
2026-01-24 09:59:50.79	146.63	10.29	-29.7	-31.1	13.2	3.20e-05	0	42	102	1048576	20	4214
2026-01-24 09:59:53.80	146.56	10.56	-29.7	-31.0	13.3	2.05e-05	0	42	102	1048576	20	4189
2026-01-24 09:59:56.82	146.49	10.83	-29.6	-30.7	13.5	6.80e-06	0	42	102	1048576	20	4115
2026-01-24 09:59:59.83	146.42	11.10	-29.7	-31.2	13.2	1.60e-05	0	42	102	1048576	20	4247
2026-01-24 10:00:02.85	146.34	11.37	-29.9	-31.5	12.9	3.73e-05	0	42	102	1048576	20	4347
2026-01-24 10:00:05.87	146.27	11.65	-29.6	-30.9	13.4	1.37e-05	0	42	102	1048576	20	4161
2026-01-24 10:00:08.88	146.19	11.93	-29.6	-30.7	13.5	7.60e-06	0	42	102	1048576	20	4113
2026-01-24 10:00:11.90	146.11	12.21	-29.6	-30.8	13.5	1.14e-05	0	43	102	1048576	20	4140
2026-01-24 10:00:14.92	146.03	12.50	-29.3	-30.2	14.4	0.00e+00	0	42	102	1048576	19	4017
2026-01-24 10:00:17.93	145.95	12.79	-29.5	-30.8	14.0	7.00e-07	0	43	102	1048576	19	4165
2026-01-24 10:00:20.95	145.86	13.09	-29.7	-31.2	13.8	6.80e-06	0	43	102	1048576	19	4281
2026-01-24 10:00:23.97	145.78	13.39	-29.8	-31.5	13.6	5.30e-06	0	43	102	1048576	19	4384
2026-01-24 10:00:26.98	145.69	13.69	-29.5	-30.8	14.1	2.20e-06	0	43	102	1048576	19	4206
2026-01-24 10:00:30.00	145.60	13.99	-29.4	-30.6	14.2	7.00e-07	0	43	102	1048576	19	4140
2026-01-24 10:00:33.02	145.51	14.30	-29.6	-31.2	13.9	2.20e-06	0	43	102	1048576	19	4293
2026-01-24 10:00:36.03	145.41	14.61	-29.9	-31.5	13.3	1.98e-05	0	43	102	1048576	20	4286
2026-01-24 10:00:39.04	145.32	14.93	-30.2	-32.0	13.0	3.05e-05	0	43	102	1048576	20	4442
2026-01-24 10:00:42.05	145.22	15.25	-30.1	-31.6	13.3	2.74e-05	0	43	102	1048576	20	4311
2026-01-24 10:00:45.06	145.12	15.57	-29.6	-30.4	14.1	1.06e-05	0	43	102	1048576	20	3930
2026-01-24 10:00:48.07	145.01	15.90	-29.4	-29.7	14.6	1.50e-06	0	43	102	1048576	20	3742
2026-01-24 10:00:51.08	144.91	16.24	-29.8	-30.7	13.9	5.30e-06	0	43	102	1048576	20	4032
2026-01-24 10:00:54.09	144.80	16.57	-29.5	-30.1	14.4	4.50e-06	0	43	102	1048576	20	3852
2026-01-24 10:00:57.09	144.69	16.92	-29.7	-30.6	14.0	6.80e-06	0	43	102	1048576	20	3997
2026-01-24 10:01:00.11	144.57	17.26	-29.4	-29.8	14.6	6.10e-06	0	43	102	1048576	20	3773
2026-01-24 10:01:03.12	144.46	17.62	-29.7	-30.6	14.1	1.50e-06	0	43	102	1048576	20	3991
2026-01-24 10:01:06.14	144.34	17.97	-29.7	-30.6	14.1	2.20e-06	0	43	102	1048576	20	3988
2026-01-24 10:01:09.14	144.21	18.33	-29.8	-30.8	14.1	1.50e-06	0	43	102	1048576	20	4040
2026-01-24 10:01:12.15	144.09	18.70	-29.9	-30.9	14.0	0.00e+00	0	43	102	1048576	20	4077
2026-01-24 10:01:15.15	143.96	19.07	-29.9	-31.0	14.0	0.00e+00	0	43	102	1048576	20	4093
2026-01-24 10:01:18.16	143.83	19.45	-29.9	-30.9	14.2	0.00e+00	0	43	102	1048576	20	4058
2026-01-24 10:01:21.18	143.69	19.84	-30.1	-31.5	13.8	2.20e-06	0	43	102	1048576	20	4232
2026-01-24 10:01:24.20	143.55	20.23	-29.9	-30.8	14.3	7.00e-07	0	43	102	1048576	20	4024
2026-01-24 10:01:27.21	143.41	20.62	-29.8	-30.7	14.4	7.00e-07	0	43	102	1048576	20	3983
2026-01-24 10:01:30.22	143.26	21.02	-29.6	-30.1	14.7	1.50e-06	0	43	102	1048576	20	3825
2026-01-24 10:01:33.24	143.11	21.43	-29.6	-30.3	14.6	7.00e-07	0	43	102	1048576	20	3874
2026-01-24 10:01:36.25	142.95	21.85	-30.1	-31.3	14.0	1.50e-06	0	43	102	1048576	20	4169
2026-01-24 10:01:39.25	142.79	22.27	-30.1	-31.4	14.0	0.00e+00	0	43	102	1048576	20	4174
2026-01-24 10:01:42.27	142.62	22.70	-30.0	-31.0	14.3	3.00e-06	0	43	102	1048576	20	4072
2026-01-24 10:01:45.28	142.45	23.13	-29.8	-30.5	14.6	1.50e-06	0	43	102	1048576	20	3930
2026-01-24 10:01:48.29	142.28	23.57	-29.8	-30.7	14.5	0.00e+00	0	43	102	1048576	20	3967
2026-01-24 10:01:51.30	142.10	24.02	-30.1	-31.4	14.1	0.00e+00	0	43	102	1048576	20	4178
2026-01-24 10:01:54.32	141.91	24.48	-30.7	-32.3	13.2	1.67e-05	0	43	102	1048576	21	4374
2026-01-24 10:01:57.33	141.72	24.95	-30.6	-32.1	13.3	4.34e-05	0	43	102	1048576	21	4296
2026-01-24 10:02:00.34	141.52	25.42	-30.8	-32.8	12.9	3.89e-05	0	43	102	1048576	21	4529
2026-01-24 10:02:03.34	141.32	25.90	-31.2	-33.3	12.3	1.79e-04	0	43	102	1048576	22	4601
2026-01-24 10:02:06.36	141.11	26.39	-31.2	-33.4	12.3	2.98e-04	0	43	102	1048576	22	4614
2026-01-24 10:02:09.38	140.89	26.89	-31.3	-33.6	12.2	3.11e-04	0	43	102	1048576	22	4686
2026-01-24 10:02:12.39	140.66	27.40	-31.0	-32.5	12.9	5.49e-05	0	43	102	1048576	22	4322
2026-01-24 10:02:15.40	140.43	27.91	-31.5	-33.5	11.9	4.03e-04	0	43	102	1048576	23	4564
2026-01-24 10:02:18.41	140.19	28.44	-31.3	-32.9	12.3	2.04e-04	0	43	102	1048576	23	4342
2026-01-24 10:02:21.42	139.94	28.97	-30.8	-32.0	13.3	2.82e-05	0	43	102	1048576	22	4139
2026-01-24 10:02:24.43	139.68	29.51	-31.0	-32.7	12.9	1.98e-05	0	44	102	1048576	22	4358
2026-01-24 10:02:27.45	139.41	30.07	-31.1	-32.8	12.8	7.01e-05	0	44	102	1048576	22	4393
2026-01-24 10:02:30.45	139.14	30.63	-31.2	-33.1	12.7	6.33e-05	0	43	102	1048576	22	4507
2026-01-24 10:02:33.47	138.85	31.21	-31.4	-33.2	12.3	1.58e-04	0	43	102	1048576	23	4426
2026-01-24 10:02:36.49	138.55	31.80	-32.3	-35.7	10.2	4.49e-03	0	43	102	1048576	24	5285
2026-01-24 10:02:39.49	138.24	32.39	-32.6	-36.2	9.4	1.41e-02	0	44	102	1048576	25	5427
2026-01-24 10:02:42.52	137.92	33.00	-32.9	-37.2	8.7	3.02e-02	0	44	102	1048576	25	5919
2026-01-24 10:02:45.53	137.58	33.62	-33.1	-37.7	7.9	8.11e-02	0	44	102	1048576	26	6114
2026-01-24 10:02:48.53	137.24	34.25	-33.5	-39.2	6.5	1.72e-01	0	43	102	1048576	27	6920
2026-01-24 10:02:51.54	136.88	34.89	-33.3	-38.1	7.2	1.69e-01	0	43	102	1048576	27	6251
2026-01-24 10:02:54.55	136.50	35.54	-33.2	-37.7	7.4	1.21e-01	0	44	102	1048576	27	6037
2026-01-24 10:02:57.56	136.11	36.21	-33.2	-37.5	7.7	8.36e-02	0	44	102	1048576	27	5914
2026-01-24 10:03:00.58	135.70	36.89	-32.6	-35.5	9.6	1.70e-02	0	43	102	1048576	26	5054
2026-01-24 10:03:03.59	135.27	37.58	-31.7	-33.5	11.7	4.17e-04	0	44	102	1048576	24	4466
2026-01-24 10:03:06.60	134.83	38.28	-32.3	-35.4	10.6	1.39e-03	0	44	102	1048576	24	5154
2026-01-24 10:03:09.61	134.36	39.00	-31.6	-33.3	12.1	5.28e-04	0	44	102	1048576	24	4372
2026-01-24 10:03:12.62	133.87	39.73	-32.1	-34.8	11.0	1.27e-03	0	44	102	1048576	24	4939
2026-01-24 10:03:15.63	133.36	40.47	-32.0	-34.5	11.1	2.98e-03	0	44	102	1048576	24	4807
2026-01-24 10:03:18.65	132.82	41.22	-31.7	-33.7	11.8	3.80e-04	0	44	102	1048576	24	4522
2026-01-24 10:03:21.66	132.26	41.99	-31.3	-32.7	12.8	5.49e-05	0	43	102	1048576	23	4264
2026-01-24 10:03:24.67	131.67	42.77	-30.8	-32.0	13.5	6.80e-06	0	43	102	1048576	22	4127
2026-01-24 10:03:27.68	131.05	43.56	-30.5	-31.0	14.3	5.30e-06	0	44	102	1048576	22	3822
2026-01-24 10:03:30.70	130.40	44.37	-30.7	-31.7	13.8	7.60e-06	0	44	102	1048576	22	4027
2026-01-24 10:03:33.72	129.71	45.19	-30.5	-31.0	14.4	7.60e-06	0	44	102	1048576	22	3827
2026-01-24 10:03:36.74	128.99	46.03	-30.8	-31.9	13.8	6.10e-06	0	44	102	1048576	22	4079
2026-01-24 10:03:39.75	128.22	46.87	-30.4	-31.3	14.4	1.50e-06	0	43	102	1048576	21	3990
2026-01-24 10:03:42.76	127.42	47.72	-31.2	-32.8	13.2	4.65e-05	0	43	102	1048576	22	4361
2026-01-24 10:03:45.78	126.56	48.59	-30.7	-31.5	13.9	6.80e-06	0	44	102	1048576	22	3970
2026-01-24 10:03:48.79	125.66	49.46	-30.3	-30.6	14.5	7.00e-07	0	43	102	1048576	22	3723
2026-01-24 10:03:51.80	124.70	50.34	-29.7	-30.0	15.5	1.50e-06	0	44	102	1048576	20	3732
2026-01-24 10:03:54.82	123.69	51.24	-30.4	-31.2	14.5	7.00e-07	0	44	102	1048576	21	3977
2026-01-24 10:03:57.83	122.61	52.13	-30.1	-30.5	14.9	0.00e+00	0	44	102	1048576	21	3791
2026-01-24 10:04:00.84	121.46	53.04	-31.1	-32.8	13.2	1.37e-05	0	44	102	1048576	22	4369
2026-01-24 10:04:03.85	120.25	53.94	-30.5	-31.2	14.2	1.50e-06	0	44	102	1048576	22	3888
2026-01-24 10:04:06.86	118.95	54.85	-30.4	-30.8	14.5	7.00e-07	0	44	102	1048576	22	3777
2026-01-24 10:04:09.86	117.57	55.76	-30.6	-31.9	14.2	7.00e-07	0	44	102	1048576	21	4174
2026-01-24 10:04:12.87	116.09	56.66	-30.8	-32.5	13.9	1.50e-06	0	44	102	1048576	21	4340
2026-01-24 10:04:15.88	114.51	57.56	-30.7	-32.1	14.0	3.00e-06	0	44	102	1048576	21	4228
2026-01-24 10:04:18.90	112.82	58.46	-30.8	-31.3	14.0	3.00e-06	0	44	102	1048576	23	3829
2026-01-24 10:04:21.92	111.01	59.34	-31.0	-32.3	13.7	2.20e-06	0	44	102	1048576	22	4187
2026-01-24 10:04:24.94	109.08	60.21	-30.1	-30.4	15.1	0.00e+00	0	44	102	1048576	21	3743
2026-01-24 10:04:27.95	107.01	61.05	-29.0	-28.8	16.6	0.00e+00	0	44	102	1048576	19	3530
2026-01-24 10:04:30.96	104.81	61.87	-29.9	-30.6	15.2	0.00e+00	0	44	102	1048576	20	3891
2026-01-24 10:04:33.98	102.44	62.67	-30.0	-30.7	15.3	0.00e+00	0	44	102	1048576	20	3910
2026-01-24 10:04:36.98	99.94	63.42	-30.0	-30.8	15.2	0.00e+00	0	44	102	1048576	20	3942
2026-01-24 10:04:40.00	97.26	64.14	-30.0	-30.1	15.2	1.50e-06	0	44	102	1048576	21	3677
2026-01-24 10:04:43.02	94.41	64.81	-29.2	-29.9	16.4	0.00e+00	0	44	102	1048576	18	3881
2026-01-24 10:04:46.03	91.40	65.42	-30.8	-31.7	14.2	3.80e-06	0	44	102	1048576	22	3992
2026-01-24 10:04:49.03	88.24	65.97	-31.4	-32.8	13.0	7.55e-05	0	44	102	1048576	23	4235
2026-01-24 10:04:52.03	84.93	66.46	-30.6	-31.9	14.3	0.00e+00	0	44	102	1048576	21	4180
2026-01-24 10:04:55.05	81.45	66.87	-30.3	-30.5	14.8	0.00e+00	0	44	102	1048576	22	3692
2026-01-24 10:04:58.07	77.85	67.21	-30.2	-30.7	14.9	0.00e+00	0	44	102	1048576	21	3830
2026-01-24 10:05:01.08	74.16	67.46	-30.7	-32.0	14.2	2.20e-06	0	44	102	1048576	21	4178
2026-01-24 10:05:04.09	70.39	67.62	-31.1	-32.5	13.6	1.50e-06	0	44	102	1048576	22	4237
2026-01-24 10:05:07.10	66.58	67.69	-31.0	-32.4	13.6	5.30e-06	0	43	102	1048576	22	4195
2026-01-24 10:05:10.11	62.76	67.67	-30.9	-31.9	14.0	3.80e-06	0	44	102	1048576	22	4073
2026-01-24 10:05:13.13	58.95	67.56	-32.0	-34.0	11.9	3.17e-04	0	44	102	1048576	24	4579
2026-01-24 10:05:16.14	55.21	67.36	-32.1	-34.6	11.5	2.39e-04	0	43	102	1048576	24	4754
2026-01-24 10:05:19.15	51.56	67.08	-32.4	-35.0	10.7	1.22e-03	0	44	102	1048576	25	4821
2026-01-24 10:05:22.15	48.03	66.71	-32.4	-35.0	10.9	1.19e-03	0	44	102	1048576	25	4841
2026-01-24 10:05:25.16	44.63	66.27	-30.3	-31.0	14.7	7.00e-07	0	44	102	1048576	21	3915
2026-01-24 10:05:28.17	41.37	65.76	-31.5	-33.1	12.7	4.19e-05	0	44	102	1048576	23	4371
2026-01-24 10:05:31.20	38.25	65.17	-29.2	-29.3	16.4	0.00e+00	0	44	102	1048576	19	3643
2026-01-24 10:05:34.22	35.31	64.54	-29.9	-30.6	15.3	0.00e+00	0	44	102	1048576	20	3874
2026-01-24 10:05:37.23	32.54	63.85	-29.6	-29.8	15.9	0.00e+00	0	44	102	1048576	20	3683
2026-01-24 10:05:40.24	29.94	63.12	-30.2	-30.6	15.1	7.00e-07	0	43	102	1048576	21	3787
2026-01-24 10:05:43.24	27.51	62.35	-30.8	-31.9	14.0	9.90e-06	0	44	102	1048576	22	4052
2026-01-24 10:05:46.26	25.21	61.55	-31.7	-33.6	12.5	1.98e-04	0	44	102	1048576	23	4500
2026-01-24 10:05:49.26	23.07	60.72	-31.5	-32.8	12.7	9.30e-05	0	44	102	1048576	24	4180
2026-01-24 10:05:52.26	21.08	59.87	-31.0	-31.9	13.5	1.58e-04	0	44	102	1048576	23	3982
2026-01-24 10:05:55.27	19.20	59.00	-30.9	-32.1	13.8	9.90e-06	0	44	102	1048576	22	4132
2026-01-24 10:05:58.29	17.45	58.12	-29.4	-29.4	15.9	0.00e+00	0	44	102	1048576	20	3578
2026-01-24 10:06:01.30	15.81	57.22	-29.7	-30.6	15.6	0.00e+00	0	44	102	1048576	19	3980
2026-01-24 10:06:04.31	14.27	56.32	-31.0	-32.4	13.6	2.20e-06	0	44	102	1048576	22	4236
2026-01-24 10:06:07.32	12.84	55.42	-31.2	-32.9	13.2	1.98e-05	0	44	102	1048576	22	4380
2026-01-24 10:06:10.33	11.49	54.51	-30.1	-31.0	15.0	0.00e+00	0	44	102	1048576	20	3999
2026-01-24 10:06:13.35	10.22	53.61	-29.9	-30.6	15.2	0.00e+00	0	44	102	1048576	20	3899
2026-01-24 10:06:16.36	9.04	52.70	-31.3	-33.2	12.9	2.51e-05	0	44	102	1048576	22	4495
2026-01-24 10:06:19.38	7.92	51.80	-31.3	-32.8	12.9	9.30e-05	0	44	102	1048576	23	4253
2026-01-24 10:06:22.39	6.87	50.91	-31.5	-33.4	12.5	1.01e-04	0	44	102	1048576	23	4438
2026-01-24 10:06:25.41	5.88	50.02	-32.2	-34.8	11.1	7.37e-04	0	44	102	1048576	24	4891
2026-01-24 10:06:28.41	4.95	49.15	-33.0	-36.7	8.9	3.65e-02	0	44	102	1048576	26	5485
2026-01-24 10:06:31.43	4.07	48.28	-33.0	-36.7	8.9	6.24e-02	0	44	102	1048576	26	5529
2026-01-24 10:06:34.45	3.23	47.42	-32.8	-36.0	9.4	1.94e-02	0	44	102	1048576	26	5183
2026-01-24 10:06:37.47	2.45	46.57	-30.9	-31.6	13.6	1.44e-05	0	44	102	1048576	23	3898
2026-01-24 10:06:40.48	1.70	45.74	-31.8	-33.8	11.8	3.68e-04	0	44	102	1048576	24	4499
2026-01-24 10:06:43.49	0.99	44.92	-32.8	-36.6	9.4	9.55e-03	0	44	102	1048576	25	5560
2026-01-24 10:06:46.49	0.33	44.11	-32.7	-35.5	9.7	1.51e-02	0	44	102	1048576	26	4989
2026-01-24 10:06:49.50	359.69	43.31	-32.4	-35.2	10.4	3.40e-03	0	44	102	1048576	25	4964
2026-01-24 10:06:52.51	359.08	42.53	-31.5	-32.9	12.3	3.04e-04	0	44	102	1048576	24	4221
2026-01-24 10:06:55.51	358.51	41.76	-32.8	-36.7	9.5	5.84e-03	0	44	102	1048576	25	5620
2026-01-24 10:06:58.53	357.96	41.00	-32.7	-35.6	9.5	4.94e-02	0	44	102	1048576	26	5061
2026-01-24 10:07:01.54	357.44	40.25	-32.0	-34.4	11.0	1.37e-03	0	44	102	1048576	24	4766
2026-01-24 10:07:04.54	356.94	39.52	-31.6	-33.1	12.1	2.85e-04	0	44	102	1048576	24	4292
2026-01-24 10:07:07.55	356.46	38.80	-32.1	-34.8	10.9	1.19e-03	0	44	102	1048576	24	4915
2026-01-24 10:07:10.56	356.00	38.09	-31.7	-33.3	11.9	8.42e-04	0	44	102	1048576	24	4375
2026-01-24 10:07:13.59	355.56	37.39	-31.1	-32.3	12.9	7.70e-05	0	44	102	1048576	23	4128
2026-01-24 10:07:16.60	355.15	36.71	-30.9	-31.7	13.3	3.05e-05	0	44	102	1048576	23	3951
2026-01-24 10:07:19.60	354.75	36.04	-30.7	-31.8	13.5	1.14e-05	0	44	102	1048576	22	4063
2026-01-24 10:07:22.61	354.36	35.38	-29.8	-30.5	15.0	0.00e+00	0	44	102	1048576	20	3880
2026-01-24 10:07:25.62	353.99	34.74	-31.1	-32.9	12.8	1.90e-05	0	44	102	1048576	22	4432
2026-01-24 10:07:28.63	353.64	34.10	-32.4	-35.5	9.9	6.97e-03	0	44	102	1048576	25	5126
2026-01-24 10:07:31.64	353.30	33.48	-31.7	-33.6	11.6	1.06e-03	0	44	102	1048576	24	4462
2026-01-24 10:07:34.64	352.97	32.87	-31.7	-33.7	11.6	6.92e-04	0	44	102	1048576	24	4508
2026-01-24 10:07:37.64	352.66	32.27	-31.6	-33.6	12.0	2.59e-04	0	44	102	1048576	23	4575
2026-01-24 10:07:40.66	352.35	31.68	-31.3	-32.9	12.4	1.05e-04	0	44	102	1048576	23	4324
2026-01-24 10:07:43.66	352.06	31.10	-31.8	-33.9	11.4	1.11e-03	0	44	102	1048576	24	4592
2026-01-24 10:07:46.68	351.78	30.53	-32.3	-35.6	10.1	7.47e-03	0	44	102	1048576	24	5267
2026-01-24 10:07:49.70	351.51	29.97	-32.8	-37.1	8.5	2.04e-02	0	44	102	1048576	25	5905
2026-01-24 10:07:52.70	351.25	29.43	-32.7	-36.6	8.9	4.03e-02	0	44	102	1048576	25	5645
2026-01-24 10:07:55.71	350.99	28.89	-32.7	-36.5	9.0	2.65e-02	0	44	102	1048576	25	5618
2026-01-24 10:07:58.72	350.75	28.36	-32.5	-35.9	9.5	1.61e-02	0	44	102	1048576	25	5302
2026-01-24 10:08:01.73	350.51	27.84	-32.1	-34.3	10.6	4.07e-03	0	44	102	1048576	25	4681
2026-01-24 10:08:04.75	350.28	27.33	-31.8	-33.8	11.4	1.08e-03	0	44	102	1048576	24	4569
2026-01-24 10:08:07.77	350.06	26.82	-31.2	-32.6	12.5	1.33e-04	0	44	102	1048576	23	4239
2026-01-24 10:08:10.78	349.85	26.33	-30.9	-32.0	12.9	3.58e-05	0	44	102	1048576	23	4056
2026-01-24 10:08:13.79	349.64	25.85	-31.9	-34.9	10.9	1.19e-03	0	44	102	1048576	23	5076
2026-01-24 10:08:16.81	349.44	25.37	-32.6	-36.3	9.1	8.08e-03	0	44	102	1048576	25	5539
2026-01-24 10:08:19.82	349.25	24.90	-33.0	-37.4	7.9	9.00e-02	0	44	102	1048576	26	5951
2026-01-24 10:08:22.84	349.06	24.44	-32.8	-36.6	8.5	5.42e-02	0	44	102	1048576	26	5574
2026-01-24 10:08:25.85	348.88	23.99	-32.6	-35.7	9.2	2.47e-02	0	44	102	1048576	26	5161
2026-01-24 10:08:28.87	348.70	23.54	-32.3	-34.9	9.8	1.40e-02	0	44	102	1048576	26	4823
2026-01-24 10:08:31.89	348.53	23.10	-32.0	-34.2	10.6	3.89e-03	0	44	102	1048576	25	4658
2026-01-24 10:08:34.90	348.36	22.67	-32.2	-34.8	10.2	4.69e-03	0	44	102	1048576	25	4869
2026-01-24 10:08:37.92	348.20	22.24	-31.0	-32.3	12.6	2.40e-04	0	44	102	1048576	23	4167
2026-01-24 10:08:40.94	348.04	21.83	-30.3	-30.9	13.8	1.50e-06	0	44	102	1048576	22	3835
2026-01-24 10:08:43.94	347.89	21.42	-30.3	-31.3	13.9	5.30e-06	0	44	102	1048576	21	4047
2026-01-24 10:08:46.95	347.74	21.01	-30.5	-31.7	13.5	9.10e-06	0	44	102	1048576	21	4177
2026-01-24 10:08:49.96	347.59	20.61	-30.8	-32.6	13.0	3.20e-05	0	44	102	1048576	21	4440
2026-01-24 10:08:52.98	347.45	20.22	-31.0	-32.9	12.5	9.99e-05	0	44	102	1048576	22	4440
2026-01-24 10:08:56.00	347.32	19.83	-31.1	-33.1	12.4	1.40e-04	0	44	102	1048576	22	4536
2026-01-24 10:08:59.01	347.18	19.45	-31.1	-33.1	12.3	1.96e-04	0	44	102	1048576	22	4515
2026-01-24 10:09:02.02	347.05	19.08	-31.3	-33.6	11.9	3.62e-04	0	44	102	1048576	22	4697
2026-01-24 10:09:05.03	346.93	18.71	-31.4	-33.5	11.6	8.41e-04	0	44	102	1048576	23	4602
2026-01-24 10:09:08.04	346.81	18.34	-31.5	-33.9	11.3	1.16e-03	0	44	102	1048576	23	4746
2026-01-24 10:09:11.05	346.69	17.99	-31.6	-34.2	11.1	1.66e-03	0	44	102	1048576	23	4836
2026-01-24 10:09:14.07	346.57	17.63	-31.4	-33.4	11.6	7.00e-04	0	44	102	1048576	23	4571
2026-01-24 10:09:17.08	346.46	17.28	-31.2	-32.8	12.0	3.42e-04	0	44	102	1048576	23	4350
2026-01-24 10:09:20.09	346.35	16.94	-30.7	-32.2	12.8	3.73e-05	0	44	102	1048576	22	4231
2026-01-24 10:09:23.11	346.24	16.60	-30.7	-31.9	13.0	5.95e-05	0	44	102	1048576	22	4154
2026-01-24 10:09:26.13	346.13	16.26	-30.9	-32.7	12.4	7.32e-05	0	44	102	1048576	22	4401
2026-01-24 10:09:29.15	346.03	15.93	-31.4	-34.0	11.4	5.79e-04	0	44	102	1048576	22	4886
2026-01-24 10:09:32.17	345.93	15.60	-31.6	-34.3	10.8	2.22e-03	0	44	102	1048576	23	4913
2026-01-24 10:09:35.19	345.83	15.28	-31.7	-34.6	10.6	4.22e-03	0	44	102	1048576	23	5044
2026-01-24 10:09:38.19	345.74	14.96	-31.9	-35.4	10.1	6.23e-03	0	44	102	1048576	23	5383
2026-01-24 10:09:41.20	345.64	14.65	-31.8	-35.0	10.2	6.23e-03	0	44	102	1048576	23	5209
2026-01-24 10:09:44.22	345.55	14.34	-31.7	-34.6	10.6	2.30e-03	0	44	102	1048576	23	5032
2026-01-24 10:09:47.22	345.46	14.03	-31.4	-33.6	11.3	1.72e-03	0	44	102	1048576	23	4654
2026-01-24 10:09:50.24	345.38	13.73	-31.3	-33.5	11.3	1.19e-03	0	44	102	1048576	23	4625
2026-01-24 10:09:53.25	345.29	13.43	-31.3	-33.3	11.4	1.04e-03	0	44	102	1048576	23	4566
2026-01-24 10:09:56.28	345.21	13.13	-31.3	-33.3	11.4	1.37e-03	0	44	102	1048576	23	4550
2026-01-24 10:09:59.29	345.13	12.84	-31.5	-34.0	10.9	2.44e-03	0	44	102	1048576	23	4825
2026-01-24 10:10:02.29	345.05	12.56	-31.6	-34.3	10.6	4.85e-03	0	44	102	1048576	23	4948
2026-01-24 10:10:05.31	344.97	12.27	-31.8	-35.2	9.9	7.95e-03	0	44	102	1048576	23	5340
2026-01-24 10:10:08.32	344.89	11.99	-31.6	-34.7	10.3	6.18e-03	0	44	102	1048576	23	5112
2026-01-24 10:10:11.34	344.82	11.71	-31.7	-34.9	10.2	4.71e-03	0	44	102	1048576	23	5181
2026-01-24 10:10:14.36	344.75	11.43	-31.6	-34.7	10.3	5.78e-03	0	44	102	1048576	23	5104
2026-01-24 10:10:17.37	344.68	11.16	-31.6	-34.7	10.2	5.90e-03	0	44	102	1048576	23	5105
2026-01-24 10:10:20.39	344.61	10.89	-31.7	-34.8	10.1	6.05e-03	0	44	102	1048576	23	5182
2026-01-24 10:10:23.40	344.54	10.62	-31.6	-34.5	10.3	6.49e-03	0	44	102	1048576	23	5047
2026-01-24 10:10:26.41	344.47	10.36	-31.6	-34.9	10.0	7.56e-03	0	44	102	1048576	23	5206
2026-01-24 10:10:29.42	344.41	10.10	-31.8	-35.3	9.7	1.07e-02	0	44	102	1048576	23	5399
2026-01-24 10:10:32.44	344.34	9.84	-31.6	-34.9	9.9	8.62e-03	0	44	102	1048576	23	5238
2026-01-24 10:10:35.47	344.28	9.58	-31.8	-35.3	9.5	1.19e-02	0	44	102	1048576	23	5438
2026-01-24 10:10:38.48	344.22	9.33	-31.7	-35.0	9.7	1.06e-02	0	44	102	1048576	23	5297
2026-01-24 10:10:41.48	344.16	9.08	-31.5	-34.5	10.0	9.86e-03	0	44	102	1048576	23	5089
2026-01-24 10:10:44.50	344.10	8.83	-31.5	-34.6	10.0	7.68e-03	0	44	102	1048576	23	5136
2026-01-24 10:10:47.52	344.04	8.58	-31.6	-34.9	9.7	1.11e-02	0	44	102	1048576	23	5245
2026-01-24 10:10:50.54	343.99	8.34	-31.5	-34.7	9.9	1.12e-02	0	44	102	1048576	23	5189
2026-01-24 10:10:53.54	343.93	8.10	-31.5	-34.7	9.8	9.14e-03	0	44	102	1048576	23	5185
2026-01-24 10:10:56.54	343.88	7.86	-31.5	-34.6	9.8	1.04e-02	0	44	102	1048576	23	5173
2026-01-24 10:10:59.54	343.83	7.63	-31.5	-34.7	9.7	1.04e-02	0	44	102	1048576	23	5217
2026-01-24 10:11:02.56	343.77	7.39	-31.5	-34.7	9.7	9.94e-03	0	44	102	1048576	23	5224
2026-01-24 10:11:05.58	343.72	7.16	-31.4	-34.6	9.8	8.39e-03	0	44	102	1048576	23	5158
2026-01-24 10:11:08.59	343.67	6.93	-34.0	-46.1	3.8	1.49e+00	0	44	104	1048576	28	14607

#Closed at: 2026-01-24 10:11:10
#Recorded file [1 MB]: D:/data/31010_260124_125913.dat