passes_logs/2026/01/24/R2M6_AANII_01/R2M6_AANII_01__20260124_075159_NOAA_21_JPSS-2_rec.log

#Pass ID: 20260124_075159_NOAA 21 (JPSS-2)
#Satellite: NOAA 21 (JPSS-2)
#Configuration: NOAA 21
#almurnet v.1.7.20240730
#Start time: 2026-01-24 07:51:59

#Version: 2.2.20231116
#Station: R2M6_AANII_01
#Location: 30.233357 lon 59.946436 lat
#TLE: 1 54234U 22150A   26023.61190495  .00000215  00000+0  12293-3 0  9993
#TLE: 2 54234  98.7508 324.4078 0000700 226.6110 133.5008 14.19538339166032

#Time	Az	El	Level	Level2	SNR	BER	BlckErr	Temp	State	Recorded	gain1	gain2
2026-01-24 07:51:59.62	83.91	6.98	-32.0	-38.2	4.2	1.45e+00	0	41	0	0	25	7402
2026-01-24 07:52:02.62	83.57	7.15	-31.0	-34.7	8.5	4.55e-02	0	41	102	1048576	23	5519
2026-01-24 07:52:05.63	83.22	7.32	-31.0	-34.7	8.5	4.46e-02	0	41	102	1048576	23	5476
2026-01-24 07:52:08.65	82.88	7.48	-30.8	-34.0	9.0	2.92e-02	0	41	102	1048576	23	5194
2026-01-24 07:52:11.66	82.53	7.65	-29.6	-32.0	11.4	1.50e-03	0	41	102	1048576	20	4758
2026-01-24 07:52:14.68	82.17	7.82	-28.9	-30.6	12.7	7.85e-05	0	41	102	1048576	19	4385
2026-01-24 07:52:17.69	81.81	7.99	-28.9	-30.7	12.7	7.24e-05	0	41	102	1048576	19	4410
2026-01-24 07:52:20.71	81.44	8.16	-29.0	-30.8	12.7	7.40e-05	0	41	102	1048576	19	4446
2026-01-24 07:52:23.71	81.08	8.33	-28.8	-30.4	13.0	4.65e-05	0	41	102	1048576	19	4305
2026-01-24 07:52:26.73	80.70	8.50	-28.7	-30.6	13.1	3.28e-05	0	41	102	1048576	18	4482
2026-01-24 07:52:29.74	80.33	8.66	-28.9	-31.1	12.9	4.65e-05	0	42	102	1048576	18	4641
2026-01-24 07:52:32.76	79.94	8.83	-28.6	-30.4	13.3	2.21e-05	0	42	102	1048576	18	4417
2026-01-24 07:52:35.75	79.56	9.00	-28.7	-30.4	13.3	1.83e-05	0	42	102	1048576	18	4423
2026-01-24 07:52:38.76	79.17	9.17	-28.7	-30.4	13.4	2.13e-05	0	42	102	1048576	18	4414
2026-01-24 07:52:41.76	78.78	9.33	-28.5	-30.2	13.5	1.83e-05	0	42	102	1048576	18	4338
2026-01-24 07:52:44.78	78.38	9.50	-28.5	-30.1	13.6	7.60e-06	0	42	102	1048576	18	4311
2026-01-24 07:52:47.79	77.97	9.67	-28.6	-30.3	13.5	1.52e-05	0	42	102	1048576	18	4368
2026-01-24 07:52:50.79	77.56	9.84	-28.3	-29.7	13.9	4.50e-06	0	42	102	1048576	18	4191
2026-01-24 07:52:53.81	77.15	10.00	-28.4	-29.8	13.8	1.50e-06	0	42	102	1048576	18	4229
2026-01-24 07:52:56.82	76.73	10.17	-28.4	-29.9	13.7	6.10e-06	0	42	102	1048576	18	4258
2026-01-24 07:52:59.83	76.31	10.34	-28.4	-29.8	13.8	1.50e-06	0	42	102	1048576	18	4226
2026-01-24 07:53:02.84	75.88	10.50	-28.4	-29.8	13.8	6.80e-06	0	42	102	1048576	18	4235
2026-01-24 07:53:05.86	75.44	10.67	-28.5	-30.6	13.7	6.80e-06	0	42	102	1048576	17	4554
2026-01-24 07:53:08.89	75.00	10.83	-28.6	-30.8	13.5	1.29e-05	0	42	102	1048576	17	4641
2026-01-24 07:53:11.90	74.56	11.00	-28.8	-31.2	13.3	1.29e-05	0	42	102	1048576	17	4750
2026-01-24 07:53:14.90	74.11	11.16	-28.8	-31.3	13.3	2.36e-05	0	42	102	1048576	17	4780
2026-01-24 07:53:17.91	73.66	11.32	-28.6	-30.8	13.6	5.30e-06	0	42	102	1048576	17	4627
2026-01-24 07:53:20.93	73.20	11.49	-28.8	-31.3	13.3	1.52e-05	0	42	102	1048576	17	4793
2026-01-24 07:53:23.94	72.74	11.65	-28.9	-31.4	13.2	2.44e-05	0	42	102	1048576	17	4827
2026-01-24 07:53:26.96	72.27	11.81	-28.7	-31.0	13.5	9.10e-06	0	42	102	1048576	17	4692
2026-01-24 07:53:29.95	71.79	11.97	-28.5	-30.5	13.9	5.30e-06	0	43	102	1048576	17	4514
2026-01-24 07:53:32.96	71.32	12.13	-28.5	-30.4	13.9	2.20e-06	0	42	102	1048576	17	4479
2026-01-24 07:53:35.97	70.83	12.28	-28.3	-30.1	14.1	7.00e-07	0	42	102	1048576	17	4392
2026-01-24 07:53:38.99	70.34	12.44	-28.1	-29.6	14.4	0.00e+00	0	43	102	1048576	17	4268
2026-01-24 07:53:42.00	69.84	12.60	-28.2	-29.7	14.3	7.00e-07	0	43	102	1048576	17	4298
2026-01-24 07:53:45.01	69.34	12.75	-28.5	-30.5	13.9	3.00e-06	0	43	102	1048576	17	4520
2026-01-24 07:53:48.03	68.84	12.91	-28.5	-30.4	14.0	1.50e-06	0	43	102	1048576	17	4482
2026-01-24 07:53:51.03	68.33	13.06	-28.5	-30.4	14.0	3.00e-06	0	43	102	1048576	17	4486
2026-01-24 07:53:54.04	67.81	13.21	-28.5	-30.6	13.9	3.80e-06	0	43	102	1048576	17	4545
2026-01-24 07:53:57.05	67.29	13.36	-28.5	-30.4	14.0	7.00e-07	0	43	102	1048576	17	4489
2026-01-24 07:54:00.06	66.76	13.51	-28.4	-30.1	14.2	2.20e-06	0	43	102	1048576	17	4403
2026-01-24 07:54:03.06	66.23	13.65	-28.3	-29.9	14.3	0.00e+00	0	43	102	1048576	17	4330
2026-01-24 07:54:06.07	65.70	13.80	-28.2	-29.7	14.4	1.50e-06	0	43	102	1048576	17	4286
2026-01-24 07:54:09.09	65.15	13.94	-28.2	-29.7	14.4	7.00e-07	0	43	102	1048576	17	4272
2026-01-24 07:54:12.11	64.60	14.08	-28.1	-29.5	14.6	0.00e+00	0	43	102	1048576	17	4235
2026-01-24 07:54:15.11	64.05	14.22	-28.2	-29.6	14.5	7.00e-07	0	43	102	1048576	17	4263
2026-01-24 07:54:18.13	63.49	14.36	-28.0	-29.3	14.7	0.00e+00	0	43	102	1048576	17	4166
2026-01-24 07:54:21.15	62.92	14.49	-28.2	-29.6	14.5	7.00e-07	0	43	102	1048576	17	4263
2026-01-24 07:54:24.15	62.36	14.63	-28.3	-30.0	14.3	7.00e-07	0	43	102	1048576	17	4365
2026-01-24 07:54:27.16	61.78	14.76	-28.3	-29.8	14.4	7.00e-07	0	43	102	1048576	17	4319
2026-01-24 07:54:30.17	61.20	14.89	-28.0	-29.2	14.8	0.00e+00	0	43	102	1048576	17	4140
2026-01-24 07:54:33.18	60.62	15.02	-28.1	-29.5	14.6	0.00e+00	0	43	102	1048576	17	4224
2026-01-24 07:54:36.20	60.03	15.14	-28.2	-29.6	14.6	7.00e-07	0	43	102	1048576	17	4254
2026-01-24 07:54:39.20	59.43	15.26	-28.1	-29.4	14.7	0.00e+00	0	43	102	1048576	17	4187
2026-01-24 07:54:42.21	58.84	15.38	-28.2	-29.7	14.6	7.00e-07	0	43	102	1048576	17	4280
2026-01-24 07:54:45.22	58.23	15.50	-28.2	-29.8	14.5	0.00e+00	0	43	102	1048576	17	4295
2026-01-24 07:54:48.22	57.63	15.61	-28.1	-29.5	14.7	0.00e+00	0	43	102	1048576	17	4222
2026-01-24 07:54:51.24	57.01	15.72	-28.2	-29.7	14.6	7.00e-07	0	43	102	1048576	17	4285
2026-01-24 07:54:54.25	56.39	15.83	-28.3	-29.8	14.5	7.00e-07	0	43	102	1048576	17	4310
2026-01-24 07:54:57.27	55.77	15.94	-28.2	-29.7	14.6	0.00e+00	0	43	102	1048576	17	4278
2026-01-24 07:55:00.28	55.14	16.04	-28.4	-30.1	14.3	7.00e-07	0	43	102	1048576	17	4399
2026-01-24 07:55:03.30	54.51	16.14	-28.2	-29.8	14.5	0.00e+00	0	43	102	1048576	17	4287
2026-01-24 07:55:06.32	53.87	16.24	-28.2	-29.6	14.6	0.00e+00	0	43	102	1048576	17	4252
2026-01-24 07:55:09.32	53.23	16.33	-28.2	-29.8	14.6	7.00e-07	0	43	102	1048576	17	4287
2026-01-24 07:55:12.33	52.59	16.42	-28.1	-29.4	14.8	0.00e+00	0	43	102	1048576	17	4174
2026-01-24 07:55:15.33	51.95	16.51	-28.0	-29.2	14.9	0.00e+00	0	43	102	1048576	17	4141
2026-01-24 07:55:18.36	51.29	16.59	-28.2	-29.6	14.7	2.20e-06	0	43	102	1048576	17	4251
2026-01-24 07:55:21.37	50.64	16.67	-27.9	-28.9	15.1	0.00e+00	0	43	102	1048576	17	4052
2026-01-24 07:55:24.38	49.98	16.75	-27.8	-29.1	15.3	0.00e+00	0	43	102	1048576	16	4218
2026-01-24 07:55:27.38	49.32	16.82	-27.8	-29.2	15.2	0.00e+00	0	43	102	1048576	16	4241
2026-01-24 07:55:30.39	48.66	16.89	-27.9	-29.3	15.2	0.00e+00	0	43	102	1048576	16	4272
2026-01-24 07:55:33.41	47.99	16.95	-27.9	-29.4	15.1	0.00e+00	0	43	102	1048576	16	4274
2026-01-24 07:55:36.42	47.32	17.02	-28.1	-30.0	14.8	0.00e+00	0	43	102	1048576	16	4451
2026-01-24 07:55:39.43	46.65	17.07	-28.2	-30.1	14.7	0.00e+00	0	43	102	1048576	16	4485
2026-01-24 07:55:42.44	45.97	17.13	-28.1	-29.9	14.8	0.00e+00	0	43	102	1048576	16	4443
2026-01-24 07:55:45.46	45.29	17.18	-28.1	-29.9	14.8	0.00e+00	0	43	102	1048576	16	4423
2026-01-24 07:55:48.47	44.62	17.22	-28.1	-29.9	14.9	0.00e+00	0	43	102	1048576	16	4423
2026-01-24 07:55:51.47	43.94	17.26	-28.0	-29.7	14.9	0.00e+00	0	43	102	1048576	16	4388
2026-01-24 07:55:54.48	43.25	17.30	-28.1	-30.0	14.8	0.00e+00	0	43	102	1048576	16	4445
2026-01-24 07:55:57.49	42.57	17.33	-28.1	-29.9	14.8	0.00e+00	0	43	102	1048576	16	4443
2026-01-24 07:56:00.50	41.88	17.36	-28.1	-29.9	14.9	0.00e+00	0	43	102	1048576	16	4432
2026-01-24 07:56:03.51	41.20	17.39	-28.3	-30.4	14.6	7.00e-07	0	43	102	1048576	16	4578
2026-01-24 07:56:06.53	40.51	17.41	-28.5	-30.7	14.4	0.00e+00	0	43	102	1048576	16	4686
2026-01-24 07:56:09.55	39.82	17.42	-28.1	-29.5	14.8	0.00e+00	0	43	102	1048576	17	4213
2026-01-24 07:56:12.56	39.13	17.43	-27.7	-29.0	15.3	0.00e+00	0	43	102	1048576	16	4180
2026-01-24 07:56:15.59	38.43	17.44	-27.8	-29.3	15.1	0.00e+00	0	43	102	1048576	16	4266
2026-01-24 07:56:18.61	37.74	17.45	-27.7	-28.9	15.4	0.00e+00	0	43	102	1048576	16	4168
2026-01-24 07:56:21.62	37.05	17.45	-27.8	-29.2	15.2	0.00e+00	0	43	102	1048576	16	4232
2026-01-24 07:56:24.63	36.36	17.44	-27.8	-29.1	15.3	0.00e+00	0	43	102	1048576	16	4215
2026-01-24 07:56:27.64	35.67	17.43	-27.8	-29.2	15.2	7.00e-07	0	43	102	1048576	16	4250
2026-01-24 07:56:30.65	34.98	17.42	-27.0	-29.5	14.4	1.50e-06	0	43	102	1048576	15	4828
2026-01-24 07:56:33.66	34.29	17.40	-27.1	-29.3	15.2	0.00e+00	0	43	102	1048576	14	4632
2026-01-24 07:56:36.66	33.61	17.38	-27.8	-29.9	14.9	0.00e+00	0	43	102	1048576	15	4554
2026-01-24 07:56:39.67	32.92	17.35	-28.0	-29.8	14.8	0.00e+00	0	43	102	1048576	16	4413
2026-01-24 07:56:42.69	32.24	17.32	-28.0	-29.7	14.9	0.00e+00	0	43	102	1048576	16	4366
2026-01-24 07:56:45.71	31.55	17.29	-28.0	-29.7	14.9	0.00e+00	0	43	102	1048576	16	4379
2026-01-24 07:56:48.73	30.87	17.25	-28.0	-29.8	14.9	7.00e-07	0	43	102	1048576	16	4397
2026-01-24 07:56:51.73	30.19	17.20	-28.3	-30.3	14.6	0.00e+00	0	43	102	1048576	16	4559
2026-01-24 07:56:54.74	29.51	17.16	-27.9	-29.4	15.1	0.00e+00	0	43	102	1048576	16	4293
2026-01-24 07:56:57.76	28.84	17.11	-27.8	-29.2	15.2	0.00e+00	0	43	102	1048576	16	4241
2026-01-24 07:57:00.78	28.16	17.05	-27.9	-29.4	15.1	0.00e+00	0	43	102	1048576	16	4292
2026-01-24 07:57:03.79	27.49	16.99	-27.9	-29.4	15.1	7.00e-07	0	43	102	1048576	16	4292
2026-01-24 07:57:06.79	26.82	16.93	-28.0	-29.6	15.0	0.00e+00	0	43	102	1048576	16	4353
2026-01-24 07:57:09.81	26.16	16.86	-27.7	-28.9	15.4	0.00e+00	0	43	102	1048576	16	4163
2026-01-24 07:57:12.81	25.50	16.79	-27.7	-29.0	15.3	0.00e+00	0	43	102	1048576	16	4185
2026-01-24 07:57:15.83	24.84	16.72	-27.8	-29.3	15.1	0.00e+00	0	43	102	1048576	16	4263
2026-01-24 07:57:18.84	24.18	16.64	-27.8	-29.2	15.2	0.00e+00	0	43	102	1048576	16	4227
2026-01-24 07:57:21.85	23.53	16.56	-27.7	-29.0	15.3	0.00e+00	0	43	102	1048576	16	4179
2026-01-24 07:57:24.85	22.89	16.48	-27.7	-28.9	15.4	7.00e-07	0	43	102	1048576	16	4148
2026-01-24 07:57:27.86	22.24	16.39	-27.7	-29.1	15.3	0.00e+00	0	43	102	1048576	16	4198
2026-01-24 07:57:30.87	21.60	16.30	-27.7	-29.0	15.3	0.00e+00	0	43	102	1048576	16	4175
2026-01-24 07:57:33.88	20.96	16.21	-27.9	-29.4	15.1	0.00e+00	0	43	102	1048576	16	4280
2026-01-24 07:57:36.90	20.33	16.11	-28.0	-29.7	14.8	0.00e+00	0	43	102	1048576	16	4383
2026-01-24 07:57:39.90	19.70	16.01	-28.3	-30.3	14.5	0.00e+00	0	43	102	1048576	16	4544
2026-01-24 07:57:42.91	19.08	15.90	-27.9	-29.5	15.0	0.00e+00	0	43	102	1048576	16	4333
2026-01-24 07:57:45.92	18.46	15.80	-28.0	-29.7	14.8	0.00e+00	0	43	102	1048576	16	4386
2026-01-24 07:57:48.93	17.85	15.69	-27.7	-29.1	15.2	0.00e+00	0	43	102	1048576	16	4201
2026-01-24 07:57:51.95	17.24	15.57	-27.7	-28.9	15.3	0.00e+00	0	43	102	1048576	16	4149
2026-01-24 07:57:54.96	16.63	15.46	-27.8	-29.4	15.1	0.00e+00	0	43	102	1048576	16	4284
2026-01-24 07:57:57.98	16.03	15.34	-28.0	-29.7	14.9	0.00e+00	0	43	102	1048576	16	4379
2026-01-24 07:58:00.98	15.43	15.22	-27.9	-29.6	14.9	7.00e-07	0	43	102	1048576	16	4335
2026-01-24 07:58:03.99	14.84	15.10	-27.9	-29.5	15.0	0.00e+00	0	43	102	1048576	16	4317
2026-01-24 07:58:07.00	14.26	14.97	-27.9	-29.4	15.0	7.00e-07	0	43	102	1048576	16	4305
2026-01-24 07:58:10.00	13.68	14.85	-28.3	-30.4	14.5	1.50e-06	0	43	102	1048576	16	4582
2026-01-24 07:58:13.02	13.10	14.72	-28.3	-30.5	14.4	1.50e-06	0	43	102	1048576	16	4606
2026-01-24 07:58:16.03	12.53	14.58	-28.0	-29.7	14.8	0.00e+00	0	43	102	1048576	16	4382
2026-01-24 07:58:19.03	11.97	14.45	-28.0	-29.7	14.8	0.00e+00	0	43	102	1048576	16	4390
2026-01-24 07:58:22.05	11.41	14.31	-28.2	-30.3	14.5	0.00e+00	0	43	102	1048576	16	4543
2026-01-24 07:58:25.07	10.85	14.18	-28.2	-30.1	14.5	7.00e-07	0	43	102	1048576	16	4504
2026-01-24 07:58:28.08	10.30	14.04	-28.1	-30.0	14.7	0.00e+00	0	43	102	1048576	16	4456
2026-01-24 07:58:31.09	9.75	13.89	-28.2	-30.2	14.5	4.50e-06	0	43	102	1048576	16	4517
2026-01-24 07:58:34.10	9.22	13.75	-28.4	-30.6	14.2	2.20e-06	0	43	102	1048576	16	4655
2026-01-24 07:58:37.12	8.68	13.61	-28.4	-30.3	14.1	7.00e-07	0	43	102	1048576	17	4440
2026-01-24 07:58:40.14	8.15	13.46	-28.3	-29.9	14.3	0.00e+00	0	43	102	1048576	17	4335
2026-01-24 07:58:43.14	7.63	13.31	-28.2	-29.7	14.4	2.20e-06	0	43	102	1048576	17	4278
2026-01-24 07:58:46.16	7.11	13.16	-28.2	-29.7	14.5	7.00e-07	0	43	102	1048576	17	4275
2026-01-24 07:58:49.17	6.60	13.01	-28.1	-29.5	14.5	0.00e+00	0	43	102	1048576	17	4224
2026-01-24 07:58:52.18	6.09	12.86	-28.0	-29.2	14.7	7.00e-07	0	43	102	1048576	17	4147
2026-01-24 07:58:55.19	5.59	12.70	-28.1	-29.4	14.6	0.00e+00	0	43	102	1048576	17	4187
2026-01-24 07:58:58.20	5.09	12.55	-28.2	-29.7	14.4	7.00e-07	0	43	102	1048576	17	4280
2026-01-24 07:59:01.22	4.60	12.39	-28.2	-29.8	14.3	7.00e-07	0	43	102	1048576	17	4312
2026-01-24 07:59:04.23	4.11	12.24	-28.3	-30.1	14.2	2.20e-06	0	43	102	1048576	17	4386
2026-01-24 07:59:07.24	3.63	12.08	-28.6	-30.7	13.8	4.50e-06	0	43	102	1048576	17	4582
2026-01-24 07:59:10.25	3.16	11.92	-28.7	-30.8	13.7	3.00e-06	0	43	102	1048576	17	4613
2026-01-24 07:59:13.26	2.69	11.76	-28.7	-31.0	13.6	7.60e-06	0	43	102	1048576	17	4666
2026-01-24 07:59:16.27	2.22	11.60	-28.6	-30.7	13.7	6.10e-06	0	43	102	1048576	17	4596
2026-01-24 07:59:19.28	1.76	11.44	-28.8	-31.1	13.5	1.37e-05	0	43	102	1048576	17	4694
2026-01-24 07:59:22.28	1.31	11.28	-28.8	-31.1	13.5	8.30e-06	0	43	102	1048576	17	4713
2026-01-24 07:59:25.29	0.86	11.11	-28.7	-31.0	13.5	9.90e-06	0	43	102	1048576	17	4694
2026-01-24 07:59:28.31	0.42	10.95	-28.7	-30.9	13.6	7.60e-06	0	43	102	1048576	17	4644
2026-01-24 07:59:31.33	359.97	10.79	-28.6	-30.6	13.7	1.50e-06	0	43	102	1048576	17	4559
2026-01-24 07:59:34.35	359.54	10.62	-28.5	-30.4	13.8	3.80e-06	0	43	102	1048576	17	4494
2026-01-24 07:59:37.36	359.11	10.46	-28.6	-30.8	13.6	8.30e-06	0	43	102	1048576	17	4604
2026-01-24 07:59:40.37	358.69	10.29	-28.7	-30.9	13.5	1.06e-05	0	43	102	1048576	17	4647
2026-01-24 07:59:43.39	358.26	10.12	-28.7	-31.0	13.4	9.90e-06	0	43	102	1048576	17	4687
2026-01-24 07:59:46.40	357.85	9.96	-28.5	-30.6	13.6	7.60e-06	0	43	102	1048576	17	4571
2026-01-24 07:59:49.40	357.44	9.79	-28.7	-30.9	13.4	2.05e-05	0	43	102	1048576	17	4667
2026-01-24 07:59:52.41	357.04	9.63	-28.7	-31.0	13.4	1.14e-05	0	43	102	1048576	17	4691
2026-01-24 07:59:55.41	356.64	9.46	-28.7	-31.0	13.4	1.75e-05	0	43	102	1048576	17	4686
2026-01-24 07:59:58.42	356.24	9.29	-28.8	-31.1	13.3	1.83e-05	0	44	102	1048576	17	4738
2026-01-24 08:00:01.43	355.85	9.12	-28.8	-31.3	13.2	2.97e-05	0	43	102	1048576	17	4790
2026-01-24 08:00:04.45	355.46	8.96	-29.0	-31.6	12.9	4.04e-05	0	43	102	1048576	17	4907
2026-01-24 08:00:07.47	355.08	8.79	-28.9	-31.6	12.9	2.89e-05	0	43	102	1048576	17	4891
2026-01-24 08:00:10.49	354.70	8.62	-29.1	-31.5	12.7	8.16e-05	0	43	102	1048576	18	4740
2026-01-24 08:00:13.51	354.33	8.45	-29.0	-31.4	12.8	5.79e-05	0	43	102	1048576	18	4706
2026-01-24 08:00:16.52	353.96	8.28	-29.1	-31.5	12.7	8.08e-05	0	43	102	1048576	18	4747
2026-01-24 08:00:19.53	353.59	8.12	-29.2	-31.7	12.6	1.06e-04	0	43	102	1048576	18	4810
2026-01-24 08:00:22.54	353.23	7.95	-29.3	-32.0	12.3	1.59e-04	0	43	102	1048576	18	4922
2026-01-24 08:00:25.55	352.88	7.78	-29.2	-31.8	12.4	1.79e-04	0	43	102	1048576	18	4866
2026-01-24 08:00:28.56	352.53	7.61	-29.1	-31.4	12.6	7.93e-05	0	43	102	1048576	18	4741
2026-01-24 08:00:31.57	352.18	7.44	-28.8	-30.9	12.9	6.33e-05	0	43	102	1048576	18	4558
2026-01-24 08:00:34.59	351.84	7.28	-29.0	-31.2	12.7	8.62e-05	0	43	102	1048576	18	4659
2026-01-24 08:00:37.61	351.50	7.11	-29.3	-32.1	12.2	1.47e-04	0	43	102	1048576	18	4956

#Closed at: 2026-01-24 08:00:39
#Recorded file [1 MB]: D:/data/31010_260124_105201.dat