passes_logs/2026/01/24/R2M6_AANII_01/R2M6_AANII_01__20260124_011701_NOAA_21_JPSS-2_rec.log

#Pass ID: 20260124_011701_NOAA 21 (JPSS-2)
#Satellite: NOAA 21 (JPSS-2)
#Configuration: NOAA 21
#almurnet v.1.7.20240730
#Start time: 2026-01-24 01:17:01

#Version: 2.2.20231116
#Station: R2M6_AANII_01
#Location: 30.233357 lon 59.946436 lat
#TLE: 1 54234U 22150A   26022.90705406  .00000208  00000+0  11937-3 0  9994
#TLE: 2 54234  98.7507 323.7115 0000669 231.3756 128.7360 14.19537879165931

#Time	Az	El	Level	Level2	SNR	BER	BlckErr	Temp	State	Recorded	gain1	gain2
2026-01-24 01:17:01.00	13.86	6.97	-31.5	-37.1	4.4	1.42e+00	0	43	0	0	23	6828
2026-01-24 01:17:04.00	13.72	7.19	-31.5	-36.0	7.7	9.35e-02	0	43	102	1048576	23	6059
2026-01-24 01:17:07.02	13.58	7.42	-31.3	-36.0	8.1	6.91e-02	0	43	102	1048576	22	6163
2026-01-24 01:17:10.03	13.44	7.64	-31.4	-35.7	8.0	8.11e-02	0	43	102	1048576	23	5884
2026-01-24 01:17:13.06	13.29	7.87	-30.4	-33.4	10.4	6.14e-03	0	43	102	1048576	21	5098
2026-01-24 01:17:16.07	13.15	8.10	-29.5	-31.9	12.2	2.67e-04	0	43	102	1048576	19	4775
2026-01-24 01:17:19.08	13.00	8.33	-29.2	-31.6	12.7	1.08e-04	0	43	102	1048576	18	4783
2026-01-24 01:17:22.09	12.84	8.57	-29.1	-31.5	12.8	4.04e-05	0	43	102	1048576	18	4733
2026-01-24 01:17:25.10	12.69	8.80	-29.0	-31.1	13.1	2.51e-05	0	43	102	1048576	18	4606
2026-01-24 01:17:28.11	12.53	9.04	-29.1	-31.4	12.9	4.11e-05	0	43	102	1048576	18	4710
2026-01-24 01:17:31.12	12.37	9.28	-28.9	-30.9	13.2	2.36e-05	0	43	102	1048576	18	4551
2026-01-24 01:17:34.13	12.21	9.52	-28.5	-30.5	13.8	4.50e-06	0	43	102	1048576	17	4532
2026-01-24 01:17:37.14	12.04	9.76	-28.5	-30.5	13.8	3.00e-06	0	43	102	1048576	17	4513
2026-01-24 01:17:40.16	11.87	10.01	-28.5	-30.8	14.0	3.00e-06	0	43	102	1048576	16	4723
2026-01-24 01:17:43.17	11.70	10.26	-28.7	-30.9	13.6	2.20e-06	0	43	102	1048576	17	4630
2026-01-24 01:17:46.18	11.53	10.51	-28.4	-30.8	14.0	1.52e-03	0	43	102	1048576	16	4715
2026-01-24 01:17:49.20	11.35	10.76	-28.5	-30.4	13.9	3.80e-06	0	43	102	1048576	17	4494
2026-01-24 01:17:52.21	11.17	11.02	-28.2	-30.3	14.3	1.92e-03	0	43	102	1048576	16	4557
2026-01-24 01:17:55.22	10.98	11.28	-28.3	-30.4	14.3	1.87e-03	0	43	102	1048576	16	4580
2026-01-24 01:17:58.23	10.79	11.53	-27.9	-30.1	14.5	1.86e-03	0	43	102	1048576	15	4636
2026-01-24 01:18:01.24	10.60	11.80	-28.2	-30.2	14.4	1.99e-03	0	43	102	1048576	16	4546
2026-01-24 01:18:04.25	10.40	12.06	-27.8	-29.9	12.7	1.93e-03	0	44	102	1048576	15	4564
2026-01-24 01:18:07.26	10.21	12.33	-28.0	-30.2	14.5	2.16e-03	0	43	102	1048576	15	4653
2026-01-24 01:18:10.27	10.00	12.60	-27.8	-29.9	14.8	4.16e-03	0	44	102	1048576	15	4555
2026-01-24 01:18:13.27	9.79	12.87	-27.9	-30.1	14.6	1.72e-03	0	43	102	1048576	15	4622
2026-01-24 01:18:16.29	9.58	13.15	-27.8	-29.9	14.8	3.69e-03	0	44	102	1048576	15	4564
2026-01-24 01:18:19.30	9.37	13.42	-27.8	-29.9	14.8	4.09e-03	0	43	102	1048576	15	4562
2026-01-24 01:18:22.31	9.15	13.70	-28.1	-29.9	14.7	4.02e-03	0	44	102	1048576	16	4444
2026-01-24 01:18:25.33	8.92	13.99	-27.8	-29.9	14.9	3.70e-03	0	43	102	1048576	15	4558
2026-01-24 01:18:28.34	8.69	14.27	-27.8	-29.9	14.9	4.21e-03	0	44	102	1048576	15	4559
2026-01-24 01:18:31.35	8.46	14.56	-27.8	-29.7	15.0	4.08e-03	0	44	102	1048576	15	4487
2026-01-24 01:18:34.36	8.22	14.86	-27.9	-29.9	14.8	0.00e+00	0	44	102	1048576	15	4565
2026-01-24 01:18:37.39	7.97	15.15	-27.7	-29.6	15.1	4.12e-03	0	43	102	1048576	15	4462
2026-01-24 01:18:40.40	7.73	15.45	-27.9	-30.0	14.8	0.00e+00	0	44	102	1048576	15	4596
2026-01-24 01:18:43.41	7.47	15.75	-28.2	-30.1	14.7	7.00e-07	0	44	102	1048576	16	4499
2026-01-24 01:18:46.42	7.21	16.06	-28.3	-30.3	14.6	0.00e+00	0	44	102	1048576	16	4541
2026-01-24 01:18:49.43	6.95	16.36	-28.1	-30.0	14.8	0.00e+00	0	44	102	1048576	16	4455
2026-01-24 01:18:52.44	6.68	16.67	-28.1	-30.0	14.8	7.00e-07	0	44	102	1048576	16	4456
2026-01-24 01:18:55.45	6.40	16.99	-27.9	-30.0	14.9	0.00e+00	0	44	102	1048576	15	4567
2026-01-24 01:18:58.46	6.12	17.31	-27.8	-29.7	15.1	0.00e+00	0	44	102	1048576	15	4477
2026-01-24 01:19:01.47	5.83	17.63	-27.8	-29.7	15.1	0.00e+00	0	44	102	1048576	15	4487
2026-01-24 01:19:04.48	5.53	17.95	-27.9	-29.9	15.0	0.00e+00	0	44	102	1048576	15	4549
2026-01-24 01:19:07.48	5.23	18.28	-28.2	-30.0	14.8	0.00e+00	0	44	102	1048576	16	4464
2026-01-24 01:19:10.51	4.92	18.61	-28.3	-30.4	14.7	0.00e+00	0	44	102	1048576	16	4565
2026-01-24 01:19:13.52	4.60	18.95	-28.4	-30.6	14.6	0.00e+00	0	44	102	1048576	16	4632
2026-01-24 01:19:16.53	4.28	19.29	-28.3	-30.3	14.8	0.00e+00	0	44	102	1048576	16	4537
2026-01-24 01:19:19.53	3.95	19.63	-28.2	-30.1	14.9	0.00e+00	0	44	102	1048576	16	4496
2026-01-24 01:19:22.55	3.61	19.97	-28.1	-29.9	15.0	0.00e+00	0	43	102	1048576	16	4409
2026-01-24 01:19:25.56	3.26	20.32	-27.7	-29.6	15.3	0.00e+00	0	44	102	1048576	15	4443
2026-01-24 01:19:28.57	2.91	20.68	-27.6	-29.3	15.5	0.00e+00	0	43	102	1048576	15	4364
2026-01-24 01:19:31.57	2.54	21.03	-27.5	-29.1	15.6	0.00e+00	0	44	102	1048576	15	4310
2026-01-24 01:19:34.57	2.17	21.39	-27.5	-29.2	15.5	0.00e+00	0	44	102	1048576	15	4334
2026-01-24 01:19:37.58	1.79	21.76	-27.2	-28.8	16.1	0.00e+00	0	43	102	1048576	14	4335
2026-01-24 01:19:40.59	1.40	22.13	-26.8	-28.5	16.4	0.00e+00	0	43	102	1048576	13	4375
2026-01-24 01:19:43.61	1.00	22.50	-26.8	-28.4	16.5	0.00e+00	0	44	102	1048576	13	4354
2026-01-24 01:19:46.62	0.59	22.88	-26.8	-28.4	16.5	0.00e+00	0	44	102	1048576	13	4337
2026-01-24 01:19:49.64	0.16	23.26	-26.6	-28.0	16.7	3.91e-03	0	44	102	1048576	13	4245
2026-01-24 01:19:52.65	359.73	23.65	-26.7	-28.3	16.6	0.00e+00	0	44	102	1048576	13	4324
2026-01-24 01:19:55.65	359.29	24.03	-26.8	-28.5	16.5	3.88e-03	0	44	102	1048576	13	4380
2026-01-24 01:19:58.67	358.84	24.43	-26.9	-28.6	16.4	3.68e-03	0	44	102	1048576	13	4402
2026-01-24 01:20:01.68	358.37	24.82	-27.1	-28.6	16.1	3.44e-03	0	44	102	1048576	14	4293
2026-01-24 01:20:04.70	357.89	25.22	-26.9	-28.6	16.5	3.97e-03	0	44	102	1048576	13	4389
2026-01-24 01:20:07.70	357.40	25.63	-27.3	-29.0	16.0	3.75e-03	0	44	102	1048576	14	4385
2026-01-24 01:20:10.71	356.90	26.04	-27.0	-28.5	16.3	3.41e-03	0	44	102	1048576	14	4243
2026-01-24 01:20:13.72	356.38	26.45	-27.2	-28.9	16.1	0.00e+00	0	44	102	1048576	14	4355
2026-01-24 01:20:16.74	355.85	26.86	-27.3	-28.9	16.1	3.06e-03	0	44	102	1048576	14	4369
2026-01-24 01:20:19.75	355.30	27.28	-27.2	-28.9	16.1	0.00e+00	0	44	102	1048576	14	4354
2026-01-24 01:20:22.76	354.74	27.71	-27.3	-29.0	16.0	0.00e+00	0	44	102	1048576	14	4391
2026-01-24 01:20:25.77	354.16	28.13	-27.5	-29.4	15.8	0.00e+00	0	44	102	1048576	14	4515
2026-01-24 01:20:28.78	353.57	28.56	-27.4	-29.3	15.9	0.00e+00	0	44	102	1048576	14	4458
2026-01-24 01:20:31.79	352.96	28.99	-27.3	-29.0	16.0	2.25e-03	0	44	102	1048576	14	4397
2026-01-24 01:20:34.81	352.34	29.43	-27.7	-29.3	15.6	0.00e+00	0	44	102	1048576	15	4374
2026-01-24 01:20:37.82	351.69	29.87	-27.8	-29.7	15.4	5.68e-04	0	44	102	1048576	15	4473
2026-01-24 01:20:40.83	351.03	30.31	-28.0	-30.1	15.2	0.00e+00	0	44	102	1048576	15	4602
2026-01-24 01:20:43.84	350.35	30.75	-27.8	-29.8	15.4	0.00e+00	0	44	102	1048576	15	4505
2026-01-24 01:20:46.84	349.66	31.19	-27.9	-29.9	15.3	9.12e-04	0	44	102	1048576	15	4546
2026-01-24 01:20:49.85	348.94	31.64	-27.9	-29.9	15.3	1.31e-03	0	44	102	1048576	15	4535
2026-01-24 01:20:52.88	348.20	32.09	-27.7	-29.3	15.6	1.91e-03	0	44	102	1048576	15	4372
2026-01-24 01:20:55.89	347.44	32.54	-27.7	-29.5	15.5	0.00e+00	0	44	102	1048576	15	4424
2026-01-24 01:20:58.90	346.66	32.99	-27.7	-29.5	15.5	7.15e-04	0	44	102	1048576	15	4427
2026-01-24 01:21:01.91	345.85	33.44	-27.6	-29.1	15.8	7.73e-04	0	44	102	1048576	15	4305
2026-01-24 01:21:04.93	345.02	33.90	-27.9	-29.8	15.4	6.53e-04	0	44	102	1048576	15	4509
2026-01-24 01:21:07.94	344.17	34.35	-28.7	-30.6	14.5	2.18e-04	0	44	102	1048576	17	4503
2026-01-24 01:21:10.95	343.30	34.80	-28.9	-31.2	14.1	1.50e-06	0	44	102	1048576	17	4696
2026-01-24 01:21:13.97	342.40	35.25	-29.0	-30.9	14.1	3.33e-04	0	44	102	1048576	18	4471
2026-01-24 01:21:16.98	341.47	35.69	-28.8	-30.6	14.3	7.00e-07	0	44	102	1048576	18	4386
2026-01-24 01:21:19.98	340.53	36.13	-28.8	-30.9	14.4	0.00e+00	0	44	102	1048576	17	4586
2026-01-24 01:21:23.00	339.55	36.58	-28.8	-30.8	14.4	7.00e-07	0	44	102	1048576	17	4559
2026-01-24 01:21:26.02	338.54	37.01	-29.2	-31.3	13.9	3.80e-06	0	44	102	1048576	18	4594
2026-01-24 01:21:29.03	337.51	37.45	-29.3	-31.6	13.7	6.10e-06	0	44	102	1048576	18	4698
2026-01-24 01:21:32.05	336.45	37.88	-29.3	-31.6	13.7	8.30e-06	0	44	102	1048576	18	4703
2026-01-24 01:21:35.06	335.36	38.30	-29.5	-31.6	13.4	1.29e-05	0	44	102	1048576	19	4571
2026-01-24 01:21:38.06	334.25	38.71	-29.1	-30.7	14.0	4.50e-06	0	44	102	1048576	19	4305
2026-01-24 01:21:41.08	333.10	39.12	-28.8	-31.0	14.2	2.20e-06	0	44	102	1048576	17	4632
2026-01-24 01:21:44.09	331.93	39.51	-29.0	-31.3	14.1	7.00e-07	0	44	102	1048576	17	4705
2026-01-24 01:21:47.10	330.73	39.90	-29.6	-31.7	13.3	6.40e-05	0	44	102	1048576	19	4625
2026-01-24 01:21:50.10	329.50	40.28	-29.7	-32.0	13.2	3.58e-05	0	44	102	1048576	19	4709
2026-01-24 01:21:53.11	328.24	40.64	-29.6	-31.8	13.2	2.59e-05	0	44	102	1048576	19	4660
2026-01-24 01:21:56.12	326.95	41.00	-29.2	-31.3	13.9	5.30e-06	0	44	102	1048576	18	4592
2026-01-24 01:21:59.14	325.63	41.34	-29.2	-31.3	13.8	6.10e-06	0	44	102	1048576	18	4604
2026-01-24 01:22:02.14	324.29	41.66	-29.0	-31.3	14.1	3.00e-06	0	44	102	1048576	17	4721
2026-01-24 01:22:05.15	322.92	41.97	-29.6	-31.8	13.2	1.98e-05	0	44	102	1048576	19	4639
2026-01-24 01:22:08.17	321.52	42.27	-29.5	-31.7	13.2	1.22e-05	0	44	102	1048576	19	4622
2026-01-24 01:22:11.19	320.09	42.54	-29.9	-32.7	12.7	6.81e-04	0	44	102	1048576	19	4937
2026-01-24 01:22:14.20	318.65	42.80	-29.7	-32.0	13.1	3.05e-05	0	44	102	1048576	19	4702
2026-01-24 01:22:17.21	317.18	43.04	-29.2	-31.4	13.8	6.80e-06	0	44	102	1048576	18	4630
2026-01-24 01:22:20.22	315.69	43.26	-29.9	-32.5	12.8	3.13e-04	0	44	102	1048576	19	4881
2026-01-24 01:22:23.24	314.17	43.46	-29.7	-32.1	13.1	5.68e-04	0	44	102	1048576	19	4730
2026-01-24 01:22:26.25	312.65	43.63	-29.7	-32.1	13.0	5.82e-04	0	44	102	1048576	19	4757
2026-01-24 01:22:29.25	311.11	43.79	-29.8	-32.3	13.0	3.17e-04	0	44	102	1048576	19	4806
2026-01-24 01:22:32.26	309.55	43.92	-29.3	-31.6	13.7	3.04e-04	0	44	102	1048576	18	4697
2026-01-24 01:22:35.27	307.98	44.02	-29.7	-32.2	13.0	4.27e-05	0	44	102	1048576	19	4776
2026-01-24 01:22:38.29	306.40	44.11	-30.2	-32.8	12.2	2.84e-04	0	44	102	1048576	20	4888
2026-01-24 01:22:41.30	304.81	44.16	-29.8	-32.2	12.9	4.80e-05	0	44	102	1048576	19	4786
2026-01-24 01:22:44.30	303.22	44.20	-29.2	-31.0	13.7	1.60e-05	0	44	102	1048576	19	4387
2026-01-24 01:22:47.32	301.62	44.21	-29.1	-31.2	13.8	1.91e-04	0	44	102	1048576	18	4573
2026-01-24 01:22:50.33	300.03	44.19	-29.0	-30.9	14.1	3.80e-06	0	44	102	1048576	18	4462
2026-01-24 01:22:53.35	298.44	44.15	-29.4	-31.8	13.5	1.29e-05	0	44	102	1048576	18	4755
2026-01-24 01:22:56.35	296.86	44.09	-29.8	-32.2	12.0	3.66e-05	0	44	102	1048576	19	4793
2026-01-24 01:22:59.37	295.27	44.00	-29.7	-32.1	13.0	1.64e-03	0	44	102	1048576	19	4750
2026-01-24 01:23:02.38	293.70	43.89	-29.8	-32.5	12.8	6.40e-05	0	44	102	1048576	19	4864
2026-01-24 01:23:05.39	292.15	43.75	-29.9	-32.7	12.6	5.49e-05	0	44	102	1048576	19	4955
2026-01-24 01:23:08.39	290.61	43.59	-30.2	-32.9	12.1	2.75e-04	0	44	102	1048576	20	4920
2026-01-24 01:23:11.40	289.09	43.41	-29.3	-31.2	13.5	1.37e-05	0	44	102	1048576	19	4476
2026-01-24 01:23:14.40	287.58	43.21	-30.2	-32.9	12.2	3.97e-04	0	44	102	1048576	20	4918
2026-01-24 01:23:17.40	286.10	42.98	-29.9	-32.7	12.6	2.88e-04	0	44	102	1048576	19	4939
2026-01-24 01:23:20.42	284.63	42.74	-29.4	-32.0	13.4	2.74e-03	0	44	102	1048576	18	4827
2026-01-24 01:23:23.43	283.19	42.48	-29.9	-32.2	12.5	3.94e-04	0	44	102	1048576	20	4695
2026-01-24 01:23:26.43	281.77	42.20	-29.2	-31.3	13.7	2.52e-03	0	44	102	1048576	18	4612
2026-01-24 01:23:29.45	280.37	41.90	-29.8	-32.3	12.8	3.13e-03	0	44	102	1048576	19	4828
2026-01-24 01:23:32.46	279.01	41.58	-30.3	-33.3	11.8	6.68e-04	0	44	102	1048576	20	5056
2026-01-24 01:23:35.48	277.66	41.25	-30.1	-32.7	12.2	4.05e-03	0	44	102	1048576	20	4844
2026-01-24 01:23:38.50	276.35	40.91	-30.0	-32.3	12.4	1.55e-04	0	44	102	1048576	20	4722
2026-01-24 01:23:41.52	275.06	40.55	-29.3	-31.5	13.5	3.58e-03	0	44	102	1048576	18	4688
2026-01-24 01:23:44.54	273.80	40.18	-29.7	-32.2	12.8	1.38e-04	0	44	102	1048576	19	4789
2026-01-24 01:23:47.54	272.58	39.80	-29.6	-32.0	12.9	1.01e-04	0	44	102	1048576	19	4723
2026-01-24 01:23:50.56	271.37	39.40	-28.7	-30.8	14.2	3.00e-06	0	44	102	1048576	17	4571
2026-01-24 01:23:53.57	270.21	39.00	-30.6	-33.6	11.2	6.19e-04	0	44	102	1048576	21	5073
2026-01-24 01:23:56.58	269.07	38.59	-29.8	-31.9	12.5	2.06e-04	0	44	102	1048576	20	4597
2026-01-24 01:23:59.59	267.95	38.18	-28.7	-30.8	14.1	7.00e-07	0	44	102	1048576	17	4582
2026-01-24 01:24:02.60	266.87	37.75	-30.1	-32.7	12.0	2.52e-04	0	44	102	1048576	20	4869
2026-01-24 01:24:05.61	265.82	37.32	-28.1	-29.2	15.1	0.00e+00	0	44	102	1048576	17	4121
2026-01-24 01:24:08.63	264.79	36.89	-27.7	-29.6	15.1	0.00e+00	0	44	102	1048576	15	4447
2026-01-24 01:24:11.65	263.78	36.44	-29.8	-32.4	12.6	6.86e-05	0	44	102	1048576	19	4860
2026-01-24 01:24:14.66	262.81	36.00	-26.9	-27.8	16.1	0.00e+00	0	44	102	1048576	15	3961
2026-01-24 01:24:17.67	261.86	35.55	-27.4	-29.4	15.6	0.00e+00	0	44	102	1048576	14	4503
2026-01-24 01:24:20.68	260.94	35.11	-29.2	-31.4	13.5	1.06e-05	0	44	102	1048576	18	4681
2026-01-24 01:24:23.69	260.05	34.66	-28.6	-30.0	14.3	1.50e-06	0	44	102	1048576	18	4254
2026-01-24 01:24:26.72	259.17	34.20	-27.9	-29.4	15.2	0.00e+00	0	44	102	1048576	16	4285
2026-01-24 01:24:29.73	258.32	33.75	-28.9	-31.4	13.8	1.75e-05	0	44	102	1048576	17	4778
2026-01-24 01:24:32.74	257.50	33.29	-27.7	-28.9	15.4	0.00e+00	0	44	102	1048576	16	4160
2026-01-24 01:24:35.75	256.70	32.84	-26.3	-28.3	14.9	0.00e+00	0	44	102	1048576	14	4492
2026-01-24 01:24:38.75	255.92	32.39	-27.9	-30.0	14.9	2.68e-03	0	44	102	1048576	15	4584
2026-01-24 01:24:41.76	255.17	31.94	-27.8	-29.8	15.0	0.00e+00	0	44	102	1048576	15	4536
2026-01-24 01:24:44.77	254.43	31.49	-27.5	-29.1	15.4	2.52e-03	0	44	102	1048576	15	4326
2026-01-24 01:24:47.77	253.72	31.04	-27.9	-30.1	14.9	0.00e+00	0	44	102	1048576	15	4612
2026-01-24 01:24:50.77	253.02	30.60	-28.7	-30.8	14.0	1.50e-06	0	44	102	1048576	17	4592
2026-01-24 01:24:53.78	252.34	30.15	-27.1	-28.7	15.9	3.79e-03	0	44	102	1048576	14	4307
2026-01-24 01:24:56.79	251.69	29.71	-26.2	-27.6	17.0	0.00e+00	0	44	102	1048576	12	4247
2026-01-24 01:24:59.81	251.04	29.27	-26.7	-28.4	16.3	2.32e-03	0	44	102	1048576	13	4342
2026-01-24 01:25:02.82	250.42	28.83	-26.9	-28.5	15.6	3.80e-03	0	44	102	1048576	14	4330
2026-01-24 01:25:05.82	249.81	28.40	-27.0	-28.5	16.0	3.44e-03	0	44	102	1048576	14	4260
2026-01-24 01:25:08.83	249.22	27.97	-27.1	-28.7	15.9	4.12e-03	0	44	102	1048576	14	4315
2026-01-24 01:25:11.85	248.65	27.54	-27.3	-29.2	15.6	1.72e-03	0	44	102	1048576	14	4474
2026-01-24 01:25:14.86	248.09	27.12	-27.8	-29.8	14.9	4.38e-03	0	44	102	1048576	15	4537
2026-01-24 01:25:17.88	247.54	26.70	-27.1	-28.7	15.8	1.67e-04	0	44	102	1048576	14	4331
2026-01-24 01:25:20.89	247.01	26.28	-26.8	-28.5	16.1	4.73e-03	0	44	102	1048576	13	4395
2026-01-24 01:25:23.92	246.49	25.87	-26.3	-28.0	16.7	9.09e-04	0	44	102	1048576	12	4362
2026-01-24 01:25:26.93	245.99	25.46	-26.5	-28.4	16.5	2.56e-03	0	44	102	1048576	12	4458
2026-01-24 01:25:29.95	245.50	25.05	-27.0	-28.9	15.9	3.33e-03	0	44	102	1048576	13	4504
2026-01-24 01:25:32.97	245.02	24.65	-27.0	-28.6	15.8	3.25e-03	0	44	102	1048576	14	4299
2026-01-24 01:25:35.98	244.55	24.25	-27.1	-28.7	15.8	4.86e-04	0	44	102	1048576	14	4324
2026-01-24 01:25:39.00	244.10	23.86	-27.3	-29.1	15.5	0.00e+00	0	44	102	1048576	14	4457
2026-01-24 01:25:42.02	243.65	23.47	-27.4	-29.5	15.3	0.00e+00	0	44	102	1048576	14	4567
2026-01-24 01:25:45.03	243.22	23.08	-27.3	-28.8	15.4	1.75e-05	0	44	102	1048576	15	4245
2026-01-24 01:25:48.05	242.80	22.70	-27.3	-29.2	15.4	0.00e+00	0	44	102	1048576	14	4491
2026-01-24 01:25:51.06	242.39	22.32	-27.3	-29.1	15.5	0.00e+00	0	44	102	1048576	14	4457
2026-01-24 01:25:54.08	241.99	21.95	-27.1	-28.7	15.7	0.00e+00	0	44	102	1048576	14	4326
2026-01-24 01:25:57.08	241.60	21.58	-27.1	-28.8	15.6	3.11e-04	0	44	102	1048576	14	4364
2026-01-24 01:26:00.09	241.21	21.21	-27.0	-28.9	15.8	0.00e+00	0	44	102	1048576	13	4516
2026-01-24 01:26:03.10	240.84	20.85	-26.8	-28.4	16.0	0.00e+00	0	44	102	1048576	13	4376
2026-01-24 01:26:06.11	240.48	20.49	-26.0	-27.7	16.0	3.62e-04	0	44	102	1048576	13	4360
2026-01-24 01:26:09.12	240.12	20.14	-26.5	-28.0	16.2	0.00e+00	0	44	102	1048576	13	4247
2026-01-24 01:26:12.13	239.78	19.79	-26.6	-28.2	16.2	0.00e+00	0	44	102	1048576	13	4311
2026-01-24 01:26:15.13	239.44	19.44	-26.7	-28.4	16.0	0.00e+00	0	44	102	1048576	13	4354
2026-01-24 01:26:18.14	239.11	19.10	-27.1	-28.7	15.6	1.50e-04	0	44	102	1048576	14	4340
2026-01-24 01:26:21.17	238.78	18.76	-27.2	-29.0	15.3	0.00e+00	0	44	102	1048576	14	4441
2026-01-24 01:26:24.17	238.46	18.43	-27.1	-28.8	15.5	5.74e-04	0	44	102	1048576	14	4377
2026-01-24 01:26:27.19	238.15	18.09	-26.7	-28.4	14.3	1.85e-03	0	44	102	1048576	13	4385
2026-01-24 01:26:30.20	237.85	17.76	-26.8	-28.7	15.7	2.14e-03	0	44	102	1048576	13	4449
2026-01-24 01:26:33.21	237.55	17.44	-26.9	-28.7	15.7	2.55e-03	0	44	102	1048576	13	4460
2026-01-24 01:26:36.23	237.26	17.12	-27.1	-28.7	15.5	5.94e-03	0	44	102	1048576	14	4347
2026-01-24 01:26:39.25	236.98	16.80	-27.2	-29.0	15.3	2.01e-03	0	44	102	1048576	14	4443
2026-01-24 01:26:42.26	236.70	16.48	-27.5	-29.6	14.9	3.28e-03	0	44	102	1048576	14	4608
2026-01-24 01:26:45.27	236.43	16.17	-27.6	-29.5	14.7	3.53e-03	0	44	102	1048576	15	4480
2026-01-24 01:26:48.28	236.16	15.87	-27.6	-29.4	14.8	3.30e-03	0	44	102	1048576	15	4427
2026-01-24 01:26:51.29	235.90	15.56	-27.5	-29.3	14.8	3.07e-03	0	44	102	1048576	15	4409
2026-01-24 01:26:54.31	235.65	15.26	-27.3	-29.2	15.1	1.30e-04	0	44	102	1048576	14	4504
2026-01-24 01:26:57.33	235.40	14.96	-27.2	-29.1	15.2	3.09e-03	0	44	102	1048576	14	4448
2026-01-24 01:27:00.33	235.15	14.67	-27.2	-29.0	15.2	3.14e-04	0	44	102	1048576	14	4430
2026-01-24 01:27:03.35	234.91	14.37	-27.3	-29.2	15.1	0.00e+00	0	44	102	1048576	14	4493
2026-01-24 01:27:06.36	234.68	14.08	-27.5	-29.6	14.8	0.00e+00	0	44	102	1048576	14	4620
2026-01-24 01:27:09.37	234.45	13.80	-27.4	-29.5	14.9	0.00e+00	0	44	102	1048576	14	4569
2026-01-24 01:27:12.39	234.22	13.51	-27.7	-29.8	14.4	1.50e-06	0	44	102	1048576	15	4558
2026-01-24 01:27:15.41	234.00	13.23	-27.5	-29.3	14.6	7.00e-07	0	44	102	1048576	15	4429
2026-01-24 01:27:18.43	233.78	12.95	-27.6	-29.6	14.4	1.72e-04	0	44	102	1048576	15	4527
2026-01-24 01:27:21.45	233.57	12.68	-27.6	-29.6	14.4	7.00e-07	0	44	102	1048576	15	4513
2026-01-24 01:27:24.45	233.36	12.40	-27.8	-30.0	14.2	1.50e-06	0	44	102	1048576	15	4643
2026-01-24 01:27:27.46	233.15	12.13	-27.7	-29.7	14.3	1.29e-05	0	44	102	1048576	15	4556
2026-01-24 01:27:30.47	232.95	11.87	-27.8	-30.0	14.1	2.95e-04	0	44	102	1048576	15	4651
2026-01-24 01:27:33.49	232.75	11.60	-27.9	-30.2	14.0	1.50e-06	0	44	102	1048576	15	4687
2026-01-24 01:27:36.49	232.56	11.34	-27.9	-30.3	13.9	1.06e-04	0	44	102	1048576	15	4720
2026-01-24 01:27:39.51	232.37	11.08	-27.6	-30.0	13.5	1.23e-04	0	44	102	1048576	16	4772
2026-01-24 01:27:42.51	232.18	10.82	-28.2	-30.4	13.6	3.80e-06	0	44	102	1048576	16	4627
2026-01-24 01:27:45.52	232.00	10.57	-28.4	-30.9	13.4	1.52e-05	0	44	102	1048576	16	4800
2026-01-24 01:27:48.53	231.82	10.32	-28.3	-30.7	13.4	3.63e-03	0	44	102	1048576	16	4750
2026-01-24 01:27:51.54	231.64	10.06	-28.4	-30.9	13.3	2.28e-05	0	44	102	1048576	16	4799
2026-01-24 01:27:54.55	231.47	9.82	-28.5	-30.6	13.2	3.18e-03	0	44	102	1048576	17	4611
2026-01-24 01:27:57.56	231.30	9.57	-28.6	-31.0	12.9	3.56e-03	0	44	102	1048576	17	4734
2026-01-24 01:28:00.56	231.13	9.33	-28.7	-31.1	12.9	3.90e-03	0	44	102	1048576	17	4762
2026-01-24 01:28:03.58	230.97	9.09	-28.7	-31.2	12.8	4.01e-03	0	44	102	1048576	17	4787
2026-01-24 01:28:06.59	230.81	8.85	-28.9	-31.7	12.5	1.82e-04	0	44	102	1048576	17	4955
2026-01-24 01:28:09.61	230.65	8.61	-29.2	-31.9	11.9	4.56e-03	0	44	102	1048576	18	4938
2026-01-24 01:28:12.62	230.49	8.37	-29.3	-32.1	11.8	4.50e-03	0	44	102	1048576	18	5020
2026-01-24 01:28:15.63	230.34	8.14	-29.4	-32.5	11.5	4.28e-03	0	44	102	1048576	18	5155
2026-01-24 01:28:18.64	230.18	7.91	-29.7	-32.9	10.9	6.01e-03	0	44	102	1048576	19	5226
2026-01-24 01:28:21.65	230.04	7.68	-29.3	-32.3	11.6	6.64e-04	0	44	102	1048576	18	5076
2026-01-24 01:28:24.67	229.89	7.45	-29.4	-32.6	11.4	4.94e-03	0	44	102	1048576	18	5200
2026-01-24 01:28:27.67	229.74	7.22	-29.7	-33.0	10.7	2.79e-03	0	44	102	1048576	19	5251
2026-01-24 01:28:30.69	229.60	7.00	-33.4	-45.6	3.8	1.49e+00	0	44	104	1048576	26	14627

#Closed at: 2026-01-24 01:28:32
#Recorded file [1 MB]: D:/data/31010_260124_041702.dat