passes_logs/2026/01/24/R2M6_AANII_01/R2M6_AANII_01__20260124_025743_NOAA_21_JPSS-2_rec.log

#Pass ID: 20260124_025743_NOAA 21 (JPSS-2)
#Satellite: NOAA 21 (JPSS-2)
#Configuration: NOAA 21
#almurnet v.1.7.20240730
#Start time: 2026-01-24 02:57:44

#Version: 2.2.20231116
#Station: R2M6_AANII_01
#Location: 30.233357 lon 59.946436 lat
#TLE: 1 54234U 22150A   26022.90705406  .00000208  00000+0  11937-3 0  9994
#TLE: 2 54234  98.7507 323.7115 0000669 231.3756 128.7360 14.19537879165931

#Time	Az	El	Level	Level2	SNR	BER	BlckErr	Temp	State	Recorded	gain1	gain2
2026-01-24 02:57:44.06	8.29	7.02	-32.3	-40.0	4.1	1.46e+00	0	43	0	0	24	8759
2026-01-24 02:57:47.07	7.94	7.18	-31.7	-37.0	7.0	1.63e-01	0	43	0	3145728	23	6606
2026-01-24 02:57:50.08	7.58	7.34	-31.7	-37.0	6.9	1.54e-01	0	43	0	12582912	23	6615
2026-01-24 02:57:53.08	7.22	7.50	-30.7	-33.8	9.6	1.61e-02	0	43	102	14680064	22	5198
2026-01-24 02:57:56.08	6.86	7.66	-29.7	-32.0	11.6	1.32e-03	0	43	102	14680064	20	4727
2026-01-24 02:57:59.09	6.49	7.82	-29.9	-32.6	11.2	1.52e-03	0	43	102	14680064	20	4935
2026-01-24 02:58:02.10	6.12	7.98	-29.8	-32.8	11.5	1.84e-03	0	43	102	14680064	19	5084
2026-01-24 02:58:05.10	5.74	8.14	-29.8	-32.9	11.4	1.06e-03	0	43	102	14680064	19	5136
2026-01-24 02:58:08.11	5.36	8.30	-29.3	-31.5	12.3	2.37e-04	0	43	102	14680064	19	4649
2026-01-24 02:58:11.12	4.98	8.46	-29.0	-31.3	12.8	6.40e-05	0	44	102	14680064	18	4672
2026-01-24 02:58:14.13	4.59	8.62	-29.1	-31.4	12.8	5.49e-05	0	43	102	14680064	18	4712
2026-01-24 02:58:17.14	4.20	8.77	-28.9	-31.0	13.1	3.20e-05	0	44	102	14680064	18	4589
2026-01-24 02:58:20.15	3.80	8.93	-28.8	-31.2	13.3	3.50e-05	0	44	102	14680064	17	4742
2026-01-24 02:58:23.16	3.40	9.09	-29.4	-32.1	12.4	1.74e-04	0	44	102	14680064	18	4955
2026-01-24 02:58:26.16	2.99	9.25	-28.5	-30.5	13.6	9.10e-06	0	44	102	14680064	17	4547
2026-01-24 02:58:29.16	2.58	9.40	-28.5	-30.6	13.7	4.50e-06	0	44	102	14680064	17	4558
2026-01-24 02:58:32.17	2.16	9.56	-28.6	-30.8	13.5	1.22e-05	0	44	102	14680064	17	4638
2026-01-24 02:58:35.18	1.74	9.72	-28.5	-30.5	13.7	4.50e-06	0	44	102	14680064	17	4523
2026-01-24 02:58:38.19	1.32	9.87	-28.4	-30.7	13.9	3.00e-06	0	44	102	14680064	16	4692
2026-01-24 02:58:41.21	0.89	10.03	-28.4	-30.8	13.9	7.60e-06	0	44	102	14680064	16	4734
2026-01-24 02:58:44.21	0.45	10.18	-28.6	-30.6	13.7	4.50e-06	0	44	102	14680064	17	4573
2026-01-24 02:58:47.22	0.01	10.34	-28.5	-30.5	13.7	1.06e-05	0	44	102	14680064	17	4536
2026-01-24 02:58:50.24	359.57	10.49	-28.5	-30.5	13.7	7.60e-06	0	44	102	14680064	17	4515
2026-01-24 02:58:53.24	359.12	10.64	-28.7	-30.9	13.6	3.80e-06	0	44	102	14680064	17	4636
2026-01-24 02:58:56.25	358.67	10.79	-28.8	-31.1	13.4	1.90e-05	0	44	102	14680064	17	4720
2026-01-24 02:58:59.25	358.21	10.94	-28.7	-31.0	13.5	1.29e-05	0	44	102	14680064	17	4672
2026-01-24 02:59:02.26	357.75	11.09	-28.7	-30.9	13.6	7.60e-06	0	44	102	14680064	17	4636
2026-01-24 02:59:05.27	357.28	11.24	-28.6	-30.6	13.7	3.00e-06	0	44	102	14680064	17	4548
2026-01-24 02:59:08.29	356.80	11.39	-28.7	-30.9	13.6	9.10e-06	0	44	102	14680064	17	4666
2026-01-24 02:59:11.31	356.32	11.54	-28.6	-30.6	13.8	1.06e-05	0	44	102	14680064	17	4558
2026-01-24 02:59:14.32	355.84	11.68	-28.5	-30.6	13.8	3.80e-06	0	44	102	14680064	17	4543
2026-01-24 02:59:17.33	355.35	11.83	-28.3	-30.6	14.1	3.80e-06	0	44	102	14680064	16	4657
2026-01-24 02:59:20.34	354.86	11.97	-28.6	-30.7	13.8	1.50e-06	0	44	102	14680064	17	4567
2026-01-24 02:59:23.35	354.36	12.12	-28.3	-30.5	14.1	7.00e-07	0	44	102	14680064	16	4641
2026-01-24 02:59:26.36	353.86	12.26	-28.5	-30.5	13.8	5.30e-06	0	44	102	14680064	17	4531
2026-01-24 02:59:29.36	353.35	12.40	-28.9	-31.4	13.3	1.83e-05	0	44	102	14680064	17	4809
2026-01-24 02:59:32.37	352.84	12.53	-28.4	-30.6	14.1	1.50e-06	0	44	102	14680064	16	4671
2026-01-24 02:59:35.37	352.33	12.67	-28.7	-31.0	13.6	7.60e-06	0	44	102	14680064	17	4662
2026-01-24 02:59:38.38	351.80	12.80	-28.7	-31.0	13.6	6.80e-06	0	44	102	14680064	17	4668
2026-01-24 02:59:41.39	351.28	12.94	-28.5	-30.4	13.9	3.80e-06	0	44	102	14680064	17	4487
2026-01-24 02:59:44.41	350.74	13.07	-28.3	-30.5	14.2	1.50e-06	0	44	102	14680064	16	4620
2026-01-24 02:59:47.42	350.21	13.20	-28.3	-30.5	14.3	3.00e-06	0	44	102	14680064	16	4618
2026-01-24 02:59:50.43	349.67	13.33	-28.3	-30.6	14.2	2.20e-06	0	44	102	14680064	16	4646
2026-01-24 02:59:53.43	349.12	13.45	-28.1	-30.1	14.5	7.00e-07	0	44	102	14680064	16	4498
2026-01-24 02:59:56.44	348.57	13.58	-28.1	-30.1	14.5	0.00e+00	0	44	102	14680064	16	4503
2026-01-24 02:59:59.46	348.01	13.70	-28.4	-30.2	14.2	4.50e-06	0	44	102	14680064	17	4417
2026-01-24 03:00:02.46	347.45	13.82	-28.3	-30.4	14.3	7.00e-07	0	44	102	14680064	16	4587
2026-01-24 03:00:05.48	346.89	13.94	-28.3	-30.5	14.2	7.00e-07	0	44	102	14680064	16	4632
2026-01-24 03:00:08.48	346.32	14.05	-28.2	-30.3	14.4	2.20e-06	0	44	102	14680064	16	4551
2026-01-24 03:00:11.48	345.75	14.17	-28.0	-29.8	14.7	0.00e+00	0	44	102	14680064	16	4428
2026-01-24 03:00:14.50	345.17	14.28	-27.9	-30.1	14.6	0.00e+00	0	44	102	14680064	15	4627
2026-01-24 03:00:17.51	344.59	14.39	-28.2	-30.2	14.5	7.00e-07	0	44	102	14680064	16	4535
2026-01-24 03:00:20.52	344.00	14.49	-28.3	-30.4	14.3	1.50e-06	0	44	102	14680064	16	4593
2026-01-24 03:00:23.53	343.41	14.60	-28.4	-30.7	14.2	1.50e-06	0	44	102	14680064	16	4690
2026-01-24 03:00:26.54	342.81	14.70	-28.4	-30.6	14.2	1.50e-06	0	44	102	14680064	16	4647
2026-01-24 03:00:29.55	342.21	14.79	-28.2	-30.1	14.5	7.00e-07	0	44	102	14680064	16	4507
2026-01-24 03:00:32.57	341.61	14.89	-27.0	-29.2	14.4	1.50e-06	0	44	102	14680064	15	4646
2026-01-24 03:00:35.59	341.00	14.98	-28.2	-30.1	14.5	7.00e-07	0	44	102	14680064	16	4510
2026-01-24 03:00:38.60	340.39	15.07	-27.9	-29.4	14.9	0.00e+00	0	44	102	14680064	16	4302
2026-01-24 03:00:41.60	339.78	15.16	-27.9	-29.5	14.9	5.95e-05	0	44	102	14680064	16	4323
2026-01-24 03:00:44.61	339.16	15.24	-27.8	-29.8	14.7	1.50e-06	0	44	102	14680064	15	4548
2026-01-24 03:00:47.62	338.54	15.32	-27.8	-29.8	14.8	1.53e-03	0	44	102	14680064	15	4546
2026-01-24 03:00:50.62	337.91	15.40	-27.9	-30.0	14.7	3.84e-04	0	44	102	14680064	15	4599
2026-01-24 03:00:53.62	337.29	15.47	-28.0	-29.8	14.7	0.00e+00	0	44	102	14680064	16	4419
2026-01-24 03:00:56.64	336.65	15.54	-28.0	-29.8	14.7	3.69e-04	0	44	102	14680064	16	4417
2026-01-24 03:00:59.65	336.02	15.61	-27.7	-29.6	14.9	1.90e-03	0	44	102	14680064	15	4467
2026-01-24 03:01:02.66	335.38	15.67	-27.8	-29.8	14.8	1.99e-03	0	44	102	14680064	15	4521
2026-01-24 03:01:05.67	334.74	15.73	-27.7	-29.7	14.9	0.00e+00	0	44	102	14680064	15	4499
2026-01-24 03:01:08.67	334.10	15.79	-27.8	-29.7	14.9	3.75e-04	0	44	102	14680064	15	4505
2026-01-24 03:01:11.68	333.46	15.85	-27.8	-29.8	14.8	1.27e-03	0	44	102	14680064	15	4546
2026-01-24 03:01:14.68	332.81	15.90	-27.6	-29.3	15.1	0.00e+00	0	44	102	14680064	15	4384
2026-01-24 03:01:17.71	332.16	15.94	-27.8	-29.8	14.8	5.25e-04	0	44	102	14680064	15	4528
2026-01-24 03:01:20.72	331.51	15.98	-27.9	-30.1	14.6	7.00e-07	0	44	102	14680064	15	4639
2026-01-24 03:01:23.74	330.85	16.02	-27.7	-29.6	14.9	0.00e+00	0	44	102	14680064	15	4484
2026-01-24 03:01:26.74	330.20	16.06	-27.6	-29.3	15.1	0.00e+00	0	44	102	14680064	15	4391
2026-01-24 03:01:29.75	329.54	16.09	-27.4	-29.0	15.3	0.00e+00	0	44	102	14680064	15	4290
2026-01-24 03:01:32.75	328.89	16.12	-27.5	-29.1	15.2	0.00e+00	0	44	102	14680064	15	4340
2026-01-24 03:01:35.77	328.22	16.14	-27.8	-29.8	14.8	0.00e+00	0	44	102	14680064	15	4530
2026-01-24 03:01:38.78	327.56	16.16	-28.0	-30.2	14.6	7.00e-07	0	44	102	14680064	15	4653
2026-01-24 03:01:41.78	326.91	16.18	-28.0	-30.2	14.6	0.00e+00	0	44	102	14680064	15	4647
2026-01-24 03:01:44.78	326.25	16.19	-27.8	-29.8	14.8	0.00e+00	0	44	102	14680064	15	4548
2026-01-24 03:01:47.80	325.58	16.20	-27.9	-30.0	14.7	0.00e+00	0	44	102	14680064	15	4602
2026-01-24 03:01:50.82	324.92	16.20	-27.9	-29.9	14.7	7.00e-07	0	44	102	14680064	15	4573
2026-01-24 03:01:53.84	324.25	16.20	-28.2	-30.1	14.5	0.00e+00	0	44	102	14680064	16	4514
2026-01-24 03:01:56.85	323.59	16.20	-28.1	-30.0	14.5	7.00e-07	0	44	102	14680064	16	4487
2026-01-24 03:01:59.86	322.93	16.19	-28.5	-30.8	14.1	1.50e-06	0	44	102	14680064	16	4728
2026-01-24 03:02:02.88	322.27	16.18	-28.1	-30.1	14.5	0.00e+00	0	44	102	14680064	16	4496
2026-01-24 03:02:05.88	321.61	16.17	-28.1	-30.0	14.5	0.00e+00	0	44	102	14680064	16	4482
2026-01-24 03:02:08.90	320.94	16.15	-28.0	-29.7	14.7	0.00e+00	0	44	102	14680064	16	4377
2026-01-24 03:02:11.90	320.29	16.13	-27.9	-30.0	14.7	0.00e+00	0	44	102	14680064	15	4596
2026-01-24 03:02:14.91	319.63	16.10	-27.8	-29.9	14.7	1.45e-03	0	44	102	14680064	15	4555
2026-01-24 03:02:17.93	318.97	16.07	-27.8	-29.8	14.8	0.00e+00	0	44	102	14680064	15	4538
2026-01-24 03:02:20.94	318.31	16.04	-27.8	-29.7	14.8	5.12e-04	0	44	102	14680064	15	4521
2026-01-24 03:02:23.95	317.66	16.00	-27.9	-30.0	14.6	8.30e-06	0	44	102	14680064	15	4601
2026-01-24 03:02:26.97	317.00	15.96	-27.7	-29.5	14.9	0.00e+00	0	44	102	14680064	15	4461
2026-01-24 03:02:29.98	316.35	15.91	-27.6	-29.4	15.0	4.11e-05	0	44	102	14680064	15	4413
2026-01-24 03:02:32.97	315.71	15.86	-27.5	-29.2	15.1	0.00e+00	0	44	102	14680064	15	4356
2026-01-24 03:02:35.98	315.06	15.81	-27.9	-30.0	14.6	2.37e-04	0	44	102	14680064	15	4595
2026-01-24 03:02:38.98	314.42	15.76	-27.8	-29.9	14.7	0.00e+00	0	44	102	14680064	15	4581
2026-01-24 03:02:41.99	313.78	15.70	-27.9	-30.0	14.6	3.80e-06	0	44	102	14680064	15	4611
2026-01-24 03:02:45.00	313.14	15.63	-27.7	-29.7	14.8	1.85e-03	0	44	102	14680064	15	4513
2026-01-24 03:02:48.00	312.50	15.57	-28.2	-30.3	14.4	1.50e-06	0	44	102	14680064	16	4554
2026-01-24 03:02:51.00	311.87	15.50	-27.9	-29.6	14.7	4.28e-04	0	44	102	14680064	16	4352
2026-01-24 03:02:54.01	311.24	15.43	-27.6	-29.5	14.9	0.00e+00	0	44	102	14680064	15	4452
2026-01-24 03:02:57.02	310.61	15.35	-27.7	-29.5	14.8	1.50e-06	0	44	102	14680064	15	4462
2026-01-24 03:03:00.03	309.99	15.27	-27.6	-29.3	15.0	0.00e+00	0	44	102	14680064	15	4391
2026-01-24 03:03:03.04	309.37	15.19	-27.6	-29.4	14.9	0.00e+00	0	44	102	14680064	15	4423
2026-01-24 03:03:06.05	308.75	15.10	-27.8	-29.9	14.6	0.00e+00	0	44	102	14680064	15	4583
2026-01-24 03:03:09.05	308.14	15.01	-27.6	-29.4	14.9	7.00e-07	0	44	102	14680064	15	4422
2026-01-24 03:03:12.06	307.53	14.92	-27.8	-29.8	14.7	0.00e+00	0	44	102	14680064	15	4533
2026-01-24 03:03:15.08	306.92	14.83	-27.6	-29.5	14.8	0.00e+00	0	44	102	14680064	15	4459
2026-01-24 03:03:18.10	306.32	14.73	-27.7	-29.6	14.7	7.00e-07	0	44	102	14680064	15	4482
2026-01-24 03:03:21.10	305.72	14.63	-27.7	-29.6	14.8	0.00e+00	0	44	102	14680064	15	4478
2026-01-24 03:03:24.11	305.13	14.53	-27.8	-29.9	14.6	1.50e-06	0	44	102	14680064	15	4582
2026-01-24 03:03:27.13	304.54	14.42	-27.8	-29.9	14.5	7.00e-07	0	44	102	14680064	15	4587
2026-01-24 03:03:30.14	303.95	14.31	-27.8	-29.8	14.6	7.00e-07	0	44	102	14680064	15	4560
2026-01-24 03:03:33.15	303.37	14.20	-27.7	-29.5	14.8	7.00e-07	0	44	102	14680064	15	4476
2026-01-24 03:03:36.17	302.79	14.09	-27.7	-29.5	14.8	0.00e+00	0	44	102	14680064	15	4466
2026-01-24 03:03:39.18	302.22	13.98	-27.8	-30.0	14.5	7.00e-07	0	44	102	14680064	15	4600
2026-01-24 03:03:42.19	301.65	13.86	-27.7	-29.6	14.7	0.00e+00	0	44	102	14680064	15	4495
2026-01-24 03:03:45.21	301.08	13.74	-27.8	-29.8	14.6	7.00e-07	0	44	102	14680064	15	4535
2026-01-24 03:03:48.22	300.52	13.62	-27.9	-30.2	14.3	0.00e+00	0	44	102	14680064	15	4673
2026-01-24 03:03:51.23	299.97	13.49	-28.4	-30.7	13.9	5.30e-06	0	44	102	14680064	16	4706
2026-01-24 03:03:54.24	299.42	13.37	-28.4	-30.8	13.8	6.10e-06	0	44	102	14680064	16	4742
2026-01-24 03:03:57.25	298.88	13.24	-28.4	-30.2	13.8	4.50e-06	0	44	102	14680064	17	4450
2026-01-24 03:04:00.27	298.33	13.11	-28.3	-30.5	14.0	0.00e+00	0	44	102	14680064	16	4632
2026-01-24 03:04:03.28	297.80	12.98	-28.1	-30.0	14.3	7.00e-07	0	44	102	14680064	16	4479
2026-01-24 03:04:06.29	297.27	12.85	-27.9	-30.2	14.3	7.00e-07	0	44	102	14680064	15	4688
2026-01-24 03:04:09.30	296.74	12.71	-27.9	-29.7	14.5	1.50e-06	0	44	102	14680064	16	4397
2026-01-24 03:04:12.32	296.22	12.57	-27.9	-30.2	14.3	2.20e-06	0	44	102	14680064	15	4680
2026-01-24 03:04:15.33	295.70	12.44	-28.1	-30.2	14.1	3.00e-06	0	44	102	14680064	16	4550
2026-01-24 03:04:18.34	295.19	12.30	-28.3	-30.6	13.9	0.00e+00	0	44	102	14680064	16	4666
2026-01-24 03:04:21.35	294.69	12.16	-28.4	-30.8	13.8	6.10e-06	0	44	102	14680064	16	4730
2026-01-24 03:04:24.36	294.18	12.01	-28.4	-30.8	13.8	3.80e-06	0	44	102	14680064	16	4746
2026-01-24 03:04:27.36	293.69	11.87	-28.5	-30.7	13.5	1.06e-05	0	44	102	14680064	17	4605
2026-01-24 03:04:30.37	293.20	11.73	-28.5	-30.6	13.5	1.22e-05	0	44	102	14680064	17	4566
2026-01-24 03:04:33.37	292.71	11.58	-28.4	-30.7	13.7	8.30e-06	0	44	102	14680064	16	4722
2026-01-24 03:04:36.38	292.23	11.43	-28.1	-30.0	14.2	2.20e-06	0	44	102	14680064	16	4496
2026-01-24 03:04:39.39	291.75	11.29	-27.9	-30.1	14.2	2.20e-06	0	44	102	14680064	15	4652
2026-01-24 03:04:42.40	291.28	11.14	-28.2	-30.3	13.9	2.20e-06	0	44	102	14680064	16	4597
2026-01-24 03:04:45.40	290.82	10.99	-28.5	-31.0	13.6	9.10e-06	0	44	102	14680064	16	4800
2026-01-24 03:04:48.41	290.35	10.84	-28.7	-31.1	13.2	2.97e-05	0	44	102	14680064	17	4734
2026-01-24 03:04:51.42	289.90	10.68	-28.9	-31.7	12.8	5.79e-05	0	44	102	14680064	17	4940
2026-01-24 03:04:54.44	289.44	10.53	-29.4	-31.9	12.0	4.91e-04	0	44	102	14680064	19	4803
2026-01-24 03:04:57.46	288.99	10.38	-29.2	-31.8	12.3	2.05e-04	0	44	102	14680064	18	4880
2026-01-24 03:05:00.47	288.55	10.22	-29.2	-31.9	12.3	1.33e-04	0	44	102	14680064	18	4890
2026-01-24 03:05:03.48	288.11	10.07	-28.8	-30.8	13.0	5.03e-05	0	44	102	14680064	18	4530
2026-01-24 03:05:06.50	287.68	9.91	-28.5	-30.7	13.3	2.13e-05	0	44	102	14680064	17	4617
2026-01-24 03:05:09.49	287.25	9.76	-28.4	-30.4	13.5	9.90e-06	0	44	102	14680064	17	4521
2026-01-24 03:05:12.51	286.82	9.60	-28.6	-30.8	13.1	2.89e-05	0	44	102	14680064	17	4675
2026-01-24 03:05:15.53	286.40	9.44	-28.0	-30.6	12.0	4.88e-05	0	44	102	14680064	17	4836
2026-01-24 03:05:18.55	285.99	9.29	-28.7	-31.1	12.9	6.33e-05	0	44	102	14680064	17	4746
2026-01-24 03:05:21.56	285.57	9.13	-28.5	-30.6	13.3	3.49e-03	0	44	102	14680064	17	4587
2026-01-24 03:05:24.56	285.17	8.97	-28.6	-30.9	13.0	3.35e-05	0	44	102	14680064	17	4682
2026-01-24 03:05:27.57	284.77	8.81	-28.4	-31.0	13.2	4.08e-03	0	44	102	14680064	16	4848
2026-01-24 03:05:30.59	284.37	8.65	-28.5	-30.6	13.2	1.24e-03	0	44	102	14680064	17	4609
2026-01-24 03:05:33.58	283.98	8.49	-28.6	-30.9	13.0	4.32e-03	0	44	102	14680064	17	4689
2026-01-24 03:05:36.59	283.59	8.33	-28.9	-31.8	12.4	4.35e-03	0	44	102	14680064	17	5007
2026-01-24 03:05:39.60	283.20	8.17	-29.0	-31.6	12.2	2.20e-04	0	44	102	14680064	18	4813
2026-01-24 03:05:42.62	282.82	8.01	-28.9	-31.8	12.3	3.94e-03	0	44	102	14680064	17	5027
2026-01-24 03:05:45.63	282.45	7.85	-29.1	-31.8	12.0	3.65e-04	0	44	102	14680064	18	4924
2026-01-24 03:05:48.64	282.08	7.69	-28.8	-31.5	12.5	1.18e-03	0	44	102	14680064	17	4894
2026-01-24 03:05:51.64	281.71	7.53	-28.8	-31.6	12.4	3.44e-03	0	44	102	14680064	17	4945
2026-01-24 03:05:54.66	281.34	7.37	-29.0	-31.4	12.2	2.59e-04	0	44	102	14680064	18	4775
2026-01-24 03:05:57.68	280.98	7.21	-29.2	-31.9	11.9	1.61e-03	0	44	102	14680064	18	4946
2026-01-24 03:06:00.68	280.63	7.05	-32.9	-45.0	3.8	1.08e+00	0	44	104	14680064	25	14477

#Closed at: 2026-01-24 03:06:03
#Recorded file [14 MB]: D:/data/31010_260124_055745.dat