passes_logs/2026/01/30/Regia/Regia__20260130_021133_AQUA_rec.log

#Pass ID: 20260130_021133_AQUA
#Satellite: AQUA
#Configuration: AQUA
#Start time: 2026-01-30 02:11:38.977971

#LorettStation: 1.0.0 05.05.2024
#Station: Regia
#Location: 37.494653 lon 55.929028 lat
#TLE: 1 27424U 02022A   26027.96263068  .00001625  00000+0  33481-3 0  9997
#TLE: 2 27424  98.4102 354.6095 0001839  63.4368   7.7786 14.61867353262782

#Time	Az	El	Level	SNR
2026-01-30 02:11:41.622402	1.6	15.3	-69.4	0.0
2026-01-30 02:11:42.736853	1.5	15.4	-69.3	0.0
2026-01-30 02:11:43.851224	1.4	15.5	-69.4	0.0
2026-01-30 02:11:44.965379	1.3	15.6	-69.4	0.0
2026-01-30 02:11:46.080572	1.1	15.8	-68.9	0.0
2026-01-30 02:11:47.194418	1.0	15.9	-69.3	0.0
2026-01-30 02:11:48.307945	0.9	16.0	-69.4	0.0
2026-01-30 02:11:49.421917	0.8	16.1	-69.2	0.0
2026-01-30 02:11:50.536078	0.7	16.3	-69.5	0.0
2026-01-30 02:11:51.650680	0.5	16.4	-69.6	0.0
2026-01-30 02:11:52.765072	0.4	16.5	-69.6	0.0
2026-01-30 02:11:53.879918	0.3	16.6	-69.3	0.0
2026-01-30 02:11:54.994118	0.2	16.8	-69.3	0.0
2026-01-30 02:11:56.107745	0.0	16.9	-69.5	0.0
2026-01-30 02:11:57.221943	359.9	17.0	-69.6	0.0
2026-01-30 02:11:58.336222	359.8	17.2	-69.6	0.0
2026-01-30 02:11:59.450328	359.7	17.3	-69.4	0.0
2026-01-30 02:12:00.564991	359.5	17.4	-69.5	0.0
2026-01-30 02:12:01.678818	359.4	17.5	-69.5	0.0
2026-01-30 02:12:02.793812	359.3	17.7	-69.5	0.0
2026-01-30 02:12:03.907263	359.1	17.8	-69.7	0.0
2026-01-30 02:12:05.020970	359.0	17.9	-69.7	0.0
2026-01-30 02:12:06.134174	358.9	18.1	-69.2	0.0
2026-01-30 02:12:07.248725	358.7	18.2	-69.6	0.0
2026-01-30 02:12:08.363346	358.6	18.3	-69.7	0.0
2026-01-30 02:12:09.477138	358.4	18.5	-69.6	0.0
2026-01-30 02:12:10.591406	358.3	18.6	-69.6	0.0
2026-01-30 02:12:11.705626	358.1	18.7	-69.5	0.0
2026-01-30 02:12:12.820308	358.0	18.9	-69.6	0.0
2026-01-30 02:12:13.949794	357.9	19.0	-69.4	0.0
2026-01-30 02:12:15.064286	357.7	19.2	-69.4	0.0
2026-01-30 02:12:16.177614	357.6	19.3	-69.5	0.0
2026-01-30 02:12:17.291961	357.4	19.4	-69.1	0.0
2026-01-30 02:12:18.405250	357.3	19.6	-69.5	0.0
2026-01-30 02:12:19.520625	357.1	19.7	-69.6	0.0
2026-01-30 02:12:20.635053	356.9	19.9	-69.4	0.0
2026-01-30 02:12:21.749081	356.8	20.0	-69.4	0.0
2026-01-30 02:12:22.863975	356.6	20.1	-69.7	0.0
2026-01-30 02:12:23.977698	356.5	20.3	-69.6	0.0
2026-01-30 02:12:25.091198	356.3	20.4	-69.5	0.0
2026-01-30 02:12:26.204846	356.1	20.6	-69.6	0.0
2026-01-30 02:12:27.318928	356.0	20.7	-69.5	0.0
2026-01-30 02:12:28.433493	355.8	20.9	-69.5	0.0
2026-01-30 02:12:29.549589	355.6	21.0	-69.5	0.0
2026-01-30 02:12:30.664010	355.5	21.2	-69.5	0.0
2026-01-30 02:12:31.778129	355.3	21.3	-69.5	0.0
2026-01-30 02:12:32.892150	355.1	21.5	-69.4	0.0
2026-01-30 02:12:34.005227	354.9	21.6	-69.5	0.0
2026-01-30 02:12:35.118338	354.8	21.7	-69.5	0.0
2026-01-30 02:12:36.247861	354.6	21.9	-69.5	0.0
2026-01-30 02:12:37.362280	354.4	22.1	-69.5	0.0
2026-01-30 02:12:38.475779	354.2	22.2	-69.4	0.0
2026-01-30 02:12:39.591117	354.0	22.4	-69.7	0.0
2026-01-30 02:12:40.705152	353.8	22.5	-69.6	0.0
2026-01-30 02:12:41.819196	353.7	22.7	-69.4	0.0
2026-01-30 02:12:42.933470	353.5	22.8	-69.3	0.0
2026-01-30 02:12:44.046362	353.3	23.0	-69.3	0.0
2026-01-30 02:12:45.159802	353.1	23.1	-69.1	0.0
2026-01-30 02:12:46.274372	352.9	23.3	-69.4	0.0
2026-01-30 02:12:47.388463	352.7	23.4	-69.3	0.0
2026-01-30 02:12:48.502762	352.5	23.6	-69.4	0.0
2026-01-30 02:12:49.617334	352.3	23.8	-69.5	0.0
2026-01-30 02:12:50.731164	352.1	23.9	-69.5	0.0
2026-01-30 02:12:51.850153	351.9	24.1	-69.7	0.0
2026-01-30 02:12:52.964161	351.6	24.2	-69.5	0.0
2026-01-30 02:12:54.077753	351.4	24.4	-69.4	0.0
2026-01-30 02:12:55.192095	351.2	24.6	-69.3	0.0
2026-01-30 02:12:56.306085	351.0	24.7	-69.5	0.0
2026-01-30 02:12:57.420552	350.8	24.9	-69.5	0.0
2026-01-30 02:12:58.533985	350.6	25.1	-69.5	0.0
2026-01-30 02:12:59.647845	350.3	25.2	-69.2	0.0
2026-01-30 02:13:00.762372	350.1	25.4	-69.5	0.0
2026-01-30 02:13:01.876757	349.9	25.6	-69.6	0.0
2026-01-30 02:13:02.991446	349.6	25.7	-69.6	0.0
2026-01-30 02:13:04.105272	349.4	25.9	-69.5	0.0
2026-01-30 02:13:05.220001	349.2	26.1	-69.6	0.0
2026-01-30 02:13:06.333704	348.9	26.2	-69.7	0.0
2026-01-30 02:13:07.447713	348.7	26.4	-69.6	0.0
2026-01-30 02:13:08.561213	348.4	26.6	-69.6	0.0
2026-01-30 02:13:09.675524	348.2	26.7	-69.7	0.0
2026-01-30 02:13:10.788882	347.9	26.9	-69.6	0.0
2026-01-30 02:13:11.904158	347.7	27.1	-69.6	0.0
2026-01-30 02:13:13.017456	347.4	27.2	-69.0	0.0
2026-01-30 02:13:14.131055	347.2	27.4	-69.4	0.0
2026-01-30 02:13:15.245356	346.9	27.6	-69.5	0.0
2026-01-30 02:13:16.359365	346.6	27.8	-69.6	0.0
2026-01-30 02:13:17.473397	346.4	27.9	-69.5	0.0
2026-01-30 02:13:18.587872	346.1	28.1	-69.6	0.0
2026-01-30 02:13:19.703025	345.8	28.3	-69.6	0.0
2026-01-30 02:13:20.816382	345.5	28.5	-69.5	0.0
2026-01-30 02:13:21.931237	345.2	28.6	-69.5	0.0
2026-01-30 02:13:23.045892	345.0	28.8	-69.6	0.0
2026-01-30 02:13:24.161483	344.7	29.0	-69.6	0.0
2026-01-30 02:13:25.275107	344.4	29.2	-69.6	0.0
2026-01-30 02:13:26.389210	344.1	29.3	-69.7	0.0
2026-01-30 02:13:27.503376	343.8	29.5	-69.6	0.0
2026-01-30 02:13:28.632408	343.5	29.7	-69.7	0.0
2026-01-30 02:13:29.746044	343.2	29.9	-69.6	0.0
2026-01-30 02:13:30.859514	342.9	30.1	-69.5	0.0
2026-01-30 02:13:31.973005	342.5	30.2	-69.6	0.0
2026-01-30 02:13:33.087285	342.2	30.4	-69.5	0.0
2026-01-30 02:13:34.202328	341.9	30.6	-69.7	0.0
2026-01-30 02:13:35.317259	341.6	30.8	-69.7	0.0
2026-01-30 02:13:36.431695	341.2	31.0	-69.4	0.0
2026-01-30 02:13:37.545116	340.9	31.1	-69.6	0.0
2026-01-30 02:13:38.659748	340.6	31.3	-69.3	0.0
2026-01-30 02:13:39.773559	340.2	31.5	-69.6	0.0
2026-01-30 02:13:40.888198	339.9	31.7	-69.4	0.0
2026-01-30 02:13:42.001719	339.5	31.9	-69.3	0.0
2026-01-30 02:13:43.116075	339.2	32.0	-69.5	0.0
2026-01-30 02:13:44.230322	338.8	32.2	-69.6	0.0
2026-01-30 02:13:45.352494	338.5	32.4	-69.6	0.0
2026-01-30 02:13:46.467676	338.1	32.6	-69.5	0.0
2026-01-30 02:13:47.582199	337.7	32.8	-69.5	0.0
2026-01-30 02:13:48.695841	337.4	32.9	-69.5	0.0
2026-01-30 02:13:49.810061	337.0	33.1	-69.6	0.0
2026-01-30 02:13:50.924845	336.6	33.3	-69.5	0.0
2026-01-30 02:13:52.037987	336.2	33.5	-69.6	0.0
2026-01-30 02:13:53.152563	335.8	33.7	-69.2	0.0
2026-01-30 02:13:54.265583	335.4	33.8	-69.8	0.0
2026-01-30 02:13:55.379688	335.0	34.0	-69.4	0.0
2026-01-30 02:13:56.494216	334.6	34.2	-69.6	0.0
2026-01-30 02:13:57.609327	334.2	34.4	-69.6	0.0
2026-01-30 02:13:58.723947	333.8	34.5	-69.5	0.0
2026-01-30 02:13:59.837024	333.4	34.7	-69.8	0.0
2026-01-30 02:14:00.952229	333.0	34.9	-69.7	0.0
2026-01-30 02:14:02.065739	332.5	35.1	-69.8	0.0
2026-01-30 02:14:03.180057	332.1	35.2	-69.6	0.0
2026-01-30 02:14:04.293289	331.7	35.4	-69.0	0.0
2026-01-30 02:14:05.408756	331.2	35.6	-69.7	0.0
2026-01-30 02:14:06.523219	330.8	35.8	-69.6	0.0
2026-01-30 02:14:07.637449	330.3	35.9	-69.6	0.0
2026-01-30 02:14:08.752715	329.9	36.1	-69.5	0.0
2026-01-30 02:14:09.866354	329.4	36.3	-69.7	0.0
2026-01-30 02:14:10.979794	329.0	36.4	-69.6	0.0
2026-01-30 02:14:12.095024	328.5	36.6	-69.7	0.0
2026-01-30 02:14:13.207829	328.0	36.8	-69.5	0.0
2026-01-30 02:14:14.321740	327.5	36.9	-69.4	0.0
2026-01-30 02:14:15.437274	327.0	37.1	-69.6	0.0
2026-01-30 02:14:16.551518	326.6	37.2	-69.6	0.0
2026-01-30 02:14:17.665644	326.1	37.4	-69.7	0.0
2026-01-30 02:14:18.779563	325.6	37.6	-69.4	0.0
2026-01-30 02:14:19.894801	325.0	37.7	-69.4	0.0
2026-01-30 02:14:21.008694	324.5	37.9	-69.5	0.0
2026-01-30 02:14:22.123358	324.0	38.0	-69.6	0.0
2026-01-30 02:14:23.238946	323.5	38.2	-69.6	0.0
2026-01-30 02:14:24.352112	323.0	38.3	-69.6	0.0
2026-01-30 02:14:25.466786	322.4	38.5	-69.5	0.0
2026-01-30 02:14:26.579725	321.9	38.6	-69.6	0.0
2026-01-30 02:14:27.693003	321.4	38.7	-69.8	0.0
2026-01-30 02:14:28.807775	320.8	38.9	-69.7	0.0
2026-01-30 02:14:29.921271	320.3	39.0	-69.7	0.0
2026-01-30 02:14:31.035905	319.7	39.2	-69.6	0.0
2026-01-30 02:14:32.149776	319.2	39.3	-69.3	0.0
2026-01-30 02:14:33.263884	318.6	39.4	-69.8	0.0
2026-01-30 02:14:34.377546	318.0	39.5	-69.5	0.0
2026-01-30 02:14:35.492108	317.5	39.7	-69.5	0.0
2026-01-30 02:14:36.606703	316.9	39.8	-69.4	0.0
2026-01-30 02:14:37.720403	316.3	39.9	-69.6	0.0
2026-01-30 02:14:38.834360	315.7	40.0	-69.6	0.0
2026-01-30 02:14:39.948158	315.1	40.1	-69.6	0.0
2026-01-30 02:14:41.060721	314.5	40.2	-69.4	0.0
2026-01-30 02:14:42.174332	313.9	40.3	-69.4	0.0
2026-01-30 02:14:43.289142	313.3	40.4	-69.5	0.0
2026-01-30 02:14:44.402650	312.7	40.5	-69.4	0.0
2026-01-30 02:14:45.517170	312.1	40.6	-69.0	0.0
2026-01-30 02:14:46.630641	311.5	40.7	-69.5	0.0
2026-01-30 02:14:47.744788	310.9	40.8	-69.6	0.0
2026-01-30 02:14:48.858309	310.3	40.9	-69.6	0.0
2026-01-30 02:14:49.971496	309.6	41.0	-69.4	0.0
2026-01-30 02:14:51.085733	309.0	41.1	-69.5	0.0
2026-01-30 02:14:52.199979	308.4	41.1	-69.5	0.0
2026-01-30 02:14:53.319054	307.8	41.2	-69.5	0.0
2026-01-30 02:14:54.433089	307.1	41.3	-69.6	0.0
2026-01-30 02:14:55.547361	306.5	41.4	-69.6	0.0
2026-01-30 02:14:56.661883	305.8	41.4	-69.5	0.0
2026-01-30 02:14:57.776246	305.2	41.5	-69.7	0.0
2026-01-30 02:14:58.890438	304.6	41.5	-69.6	0.0
2026-01-30 02:15:00.004098	303.9	41.6	-69.5	0.0
2026-01-30 02:15:01.118403	303.3	41.6	-69.5	0.0
2026-01-30 02:15:02.232932	302.6	41.7	-69.7	0.0
2026-01-30 02:15:03.347499	302.0	41.7	-69.5	0.0
2026-01-30 02:15:04.463002	301.3	41.7	-69.7	0.0
2026-01-30 02:15:05.576604	300.6	41.7	-69.5	0.0
2026-01-30 02:15:06.691240	300.0	41.8	-69.7	0.0
2026-01-30 02:15:07.805408	299.3	41.8	-69.7	0.0
2026-01-30 02:15:08.920268	298.7	41.8	-69.7	0.0
2026-01-30 02:15:10.034699	298.0	41.8	-69.5	0.0
2026-01-30 02:15:11.148377	297.4	41.8	-69.3	0.0
2026-01-30 02:15:12.261680	296.7	41.8	-69.5	0.0
2026-01-30 02:15:13.375292	296.0	41.8	-69.6	0.0
2026-01-30 02:15:14.489915	295.4	41.8	-69.5	0.0
2026-01-30 02:15:15.604526	294.7	41.8	-69.5	0.0
2026-01-30 02:15:16.719411	294.1	41.8	-69.3	0.0
2026-01-30 02:15:17.833316	293.4	41.8	-69.5	0.0
2026-01-30 02:15:18.947995	292.7	41.8	-69.6	0.0
2026-01-30 02:15:20.061988	292.1	41.7	-69.7	0.0
2026-01-30 02:15:21.175525	291.4	41.7	-69.7	0.0
2026-01-30 02:15:22.290297	290.8	41.7	-69.5	0.0
2026-01-30 02:15:23.403720	290.1	41.6	-69.6	0.0
2026-01-30 02:15:24.516998	289.5	41.6	-69.8	0.0
2026-01-30 02:15:25.631254	288.8	41.5	-69.6	0.0
2026-01-30 02:15:26.744506	288.2	41.5	-69.6	0.0
2026-01-30 02:15:27.858228	287.5	41.4	-69.6	0.0
2026-01-30 02:15:28.974456	286.9	41.4	-69.6	0.0
2026-01-30 02:15:30.087778	286.3	41.3	-69.7	0.0
2026-01-30 02:15:31.202185	285.6	41.2	-69.3	0.0
2026-01-30 02:15:32.316436	285.0	41.2	-69.6	0.0
2026-01-30 02:15:33.431940	284.4	41.1	-69.5	0.0
2026-01-30 02:15:34.545633	283.7	41.0	-69.7	0.0
2026-01-30 02:15:35.660236	283.1	40.9	-69.5	0.0
2026-01-30 02:15:36.773254	282.5	40.8	-69.5	0.0
2026-01-30 02:15:37.887292	281.9	40.8	-69.5	0.0
2026-01-30 02:15:39.000533	281.2	40.7	-69.5	0.0
2026-01-30 02:15:40.118320	280.6	40.6	-69.5	0.0
2026-01-30 02:15:41.232902	280.0	40.5	-69.5	0.0
2026-01-30 02:15:42.346540	279.4	40.4	-69.2	0.0
2026-01-30 02:15:43.461741	278.8	40.3	-69.3	0.0
2026-01-30 02:15:44.575707	278.2	40.2	-69.4	0.0
2026-01-30 02:15:45.689899	277.6	40.0	-69.5	0.0
2026-01-30 02:15:46.804601	277.0	39.9	-69.4	0.0
2026-01-30 02:15:47.917747	276.5	39.8	-69.5	0.0
2026-01-30 02:15:49.032658	275.9	39.7	-69.7	0.0
2026-01-30 02:15:50.145766	275.3	39.6	-69.5	0.0
2026-01-30 02:15:51.262870	274.7	39.4	-69.6	0.0
2026-01-30 02:15:52.376150	274.2	39.3	-69.5	0.0
2026-01-30 02:15:53.490639	273.6	39.2	-69.6	0.0
2026-01-30 02:15:54.604482	273.1	39.0	-69.9	0.0
2026-01-30 02:15:55.718496	272.5	38.9	-69.5	0.0
2026-01-30 02:15:56.831797	272.0	38.8	-69.5	0.0
2026-01-30 02:15:57.945119	271.4	38.6	-69.5	0.0
2026-01-30 02:15:59.059943	270.9	38.5	-69.6	0.0
2026-01-30 02:16:00.174903	270.3	38.3	-69.7	0.0
2026-01-30 02:16:01.288718	269.8	38.2	-69.5	0.0
2026-01-30 02:16:02.407104	269.3	38.0	-69.4	0.0
2026-01-30 02:16:03.520810	268.8	37.9	-69.7	0.0
2026-01-30 02:16:04.634272	268.3	37.7	-69.8	0.0
2026-01-30 02:16:05.748530	267.8	37.6	-69.6	0.0
2026-01-30 02:16:06.862529	267.2	37.4	-69.7	0.0
2026-01-30 02:16:07.977434	266.8	37.3	-69.7	0.0
2026-01-30 02:16:09.092372	266.3	37.1	-69.6	0.0
2026-01-30 02:16:10.207102	265.8	37.0	-69.7	0.0
2026-01-30 02:16:11.321261	265.3	36.8	-69.7	0.0
2026-01-30 02:16:12.436079	264.8	36.6	-69.6	0.0
2026-01-30 02:16:13.550759	264.3	36.5	-69.7	0.0
2026-01-30 02:16:14.665024	263.9	36.3	-69.7	0.0
2026-01-30 02:16:15.778993	263.4	36.1	-69.7	0.0
2026-01-30 02:16:16.891966	262.9	36.0	-69.8	0.0
2026-01-30 02:16:18.005625	262.5	35.8	-69.7	0.0
2026-01-30 02:16:19.118310	262.0	35.6	-69.7	0.0
2026-01-30 02:16:20.232940	261.6	35.4	-69.8	0.0
2026-01-30 02:16:21.346316	261.2	35.3	-69.8	0.0
2026-01-30 02:16:22.461589	260.7	35.1	-69.6	0.0
2026-01-30 02:16:23.575473	260.3	34.9	-69.8	0.0
2026-01-30 02:16:24.688883	259.9	34.7	-69.1	0.0
2026-01-30 02:16:25.802508	259.4	34.6	-69.7	0.0
2026-01-30 02:16:26.916861	259.0	34.4	-69.7	0.0
2026-01-30 02:16:28.030257	258.6	34.2	-69.7	0.0
2026-01-30 02:16:29.143826	258.2	34.0	-69.5	0.0
2026-01-30 02:16:30.256917	257.8	33.9	-69.5	0.0
2026-01-30 02:16:31.371823	257.4	33.7	-69.7	0.0
2026-01-30 02:16:32.484902	257.0	33.5	-69.7	0.0
2026-01-30 02:16:33.599672	256.6	33.3	-69.6	0.0
2026-01-30 02:16:34.714248	256.3	33.1	-69.6	0.0
2026-01-30 02:16:35.827450	255.9	33.0	-69.6	0.0
2026-01-30 02:16:36.943294	255.5	32.8	-69.4	0.0
2026-01-30 02:16:38.057527	255.1	32.6	-69.6	0.0
2026-01-30 02:16:39.171292	254.8	32.4	-69.5	0.0
2026-01-30 02:16:40.285040	254.4	32.2	-69.6	0.0
2026-01-30 02:16:41.398427	254.0	32.1	-69.5	0.0
2026-01-30 02:16:42.513394	253.7	31.9	-69.7	0.0
2026-01-30 02:16:43.627352	253.3	31.7	-69.5	0.0
2026-01-30 02:16:44.740856	253.0	31.5	-69.6	0.0
2026-01-30 02:16:45.855447	252.6	31.3	-69.6	0.0
2026-01-30 02:16:46.970093	252.3	31.1	-69.4	0.0
2026-01-30 02:16:48.084512	252.0	31.0	-69.6	0.0
2026-01-30 02:16:49.198797	251.6	30.8	-69.4	0.0
2026-01-30 02:16:50.312435	251.3	30.6	-69.5	0.0
2026-01-30 02:16:51.426915	251.0	30.4	-69.5	0.0
2026-01-30 02:16:52.540927	250.7	30.2	-69.1	0.0
2026-01-30 02:16:53.655698	250.4	30.1	-69.4	0.0
2026-01-30 02:16:54.767943	250.0	29.9	-69.7	0.0
2026-01-30 02:16:55.882369	249.7	29.7	-69.6	0.0
2026-01-30 02:16:56.996833	249.4	29.5	-69.6	0.0
2026-01-30 02:16:58.111058	249.1	29.3	-69.3	0.0
2026-01-30 02:16:59.225004	248.8	29.2	-69.5	0.0
2026-01-30 02:17:00.339314	248.5	29.0	-69.8	0.0
2026-01-30 02:17:01.453223	248.2	28.8	-69.8	0.0
2026-01-30 02:17:02.567090	248.0	28.6	-69.6	0.0
2026-01-30 02:17:03.680869	247.7	28.5	-69.6	0.0
2026-01-30 02:17:04.794789	247.4	28.3	-69.6	0.0
2026-01-30 02:17:05.908805	247.1	28.1	-69.8	0.0
2026-01-30 02:17:07.022220	246.8	27.9	-69.5	0.0
2026-01-30 02:17:08.135947	246.6	27.8	-69.7	0.0
2026-01-30 02:17:09.249902	246.3	27.6	-69.7	0.0
2026-01-30 02:17:10.362592	246.0	27.4	-69.4	0.0
2026-01-30 02:17:11.476309	245.8	27.2	-69.8	0.0
2026-01-30 02:17:12.590639	245.5	27.1	-69.7	0.0
2026-01-30 02:17:13.708637	245.3	26.9	-69.7	0.0
2026-01-30 02:17:14.821552	245.0	26.7	-69.7	0.0
2026-01-30 02:17:15.937485	244.7	26.5	-69.6	0.0
2026-01-30 02:17:17.050948	244.5	26.4	-69.6	0.0
2026-01-30 02:17:18.164503	244.3	26.2	-69.7	0.0
2026-01-30 02:17:19.277600	244.0	26.0	-69.6	0.0
2026-01-30 02:17:20.391871	243.8	25.9	-69.6	0.0
2026-01-30 02:17:21.505732	243.5	25.7	-69.7	0.0
2026-01-30 02:17:22.620215	243.3	25.5	-69.7	0.0
2026-01-30 02:17:23.733589	243.1	25.4	-69.8	0.0
2026-01-30 02:17:24.849740	242.8	25.2	-69.6	0.0
2026-01-30 02:17:25.963325	242.6	25.0	-69.6	0.0
2026-01-30 02:17:27.077299	242.4	24.9	-69.7	0.0
2026-01-30 02:17:28.191989	242.2	24.7	-69.7	0.0
2026-01-30 02:17:29.305433	241.9	24.5	-69.4	0.0
2026-01-30 02:17:30.419408	241.7	24.4	-69.5	0.0
2026-01-30 02:17:31.533029	241.5	24.2	-69.6	0.0
2026-01-30 02:17:32.647285	241.3	24.1	-69.8	0.0
2026-01-30 02:17:33.760867	241.1	23.9	-69.6	0.0
2026-01-30 02:17:34.875190	240.9	23.7	-69.7	0.0
2026-01-30 02:17:35.989720	240.7	23.6	-69.7	0.0
2026-01-30 02:17:37.104232	240.5	23.4	-69.7	0.0
2026-01-30 02:17:38.218398	240.3	23.3	-69.3	0.0
2026-01-30 02:17:39.332053	240.1	23.1	-69.5	0.0
2026-01-30 02:17:40.446777	239.9	22.9	-69.6	0.0
2026-01-30 02:17:41.560507	239.7	22.8	-69.4	0.0
2026-01-30 02:17:42.673908	239.5	22.6	-69.7	0.0
2026-01-30 02:17:43.789253	239.3	22.5	-69.5	0.0
2026-01-30 02:17:44.903527	239.1	22.3	-69.5	0.0
2026-01-30 02:17:46.017724	238.9	22.2	-69.5	0.0
2026-01-30 02:17:47.135522	238.7	22.0	-69.6	0.0
2026-01-30 02:17:48.249265	238.5	21.9	-69.6	0.0
2026-01-30 02:17:49.362768	238.4	21.7	-69.5	0.0
2026-01-30 02:17:50.477382	238.2	21.6	-69.6	0.0
2026-01-30 02:17:51.591946	238.0	21.4	-69.6	0.0
2026-01-30 02:17:52.706878	237.8	21.3	-69.6	0.0
2026-01-30 02:17:53.820718	237.7	21.1	-69.4	0.0
2026-01-30 02:17:54.934968	237.5	21.0	-69.6	0.0
2026-01-30 02:17:56.049296	237.3	20.8	-69.6	0.0
2026-01-30 02:17:57.163075	237.1	20.7	-69.3	0.0
2026-01-30 02:17:58.276716	237.0	20.5	-69.5	0.0
2026-01-30 02:17:59.392134	236.8	20.4	-69.3	0.0
2026-01-30 02:18:00.506720	236.6	20.2	-69.7	0.0
2026-01-30 02:18:01.620232	236.5	20.1	-69.7	0.0
2026-01-30 02:18:02.735118	236.3	19.9	-69.7	0.0
2026-01-30 02:18:03.849077	236.2	19.8	-69.6	0.0
2026-01-30 02:18:04.963263	236.0	19.7	-69.7	0.0
2026-01-30 02:18:06.077175	235.9	19.5	-69.6	0.0
2026-01-30 02:18:07.191959	235.7	19.4	-69.6	0.0
2026-01-30 02:18:08.306739	235.5	19.2	-69.7	0.0
2026-01-30 02:18:09.422666	235.4	19.1	-69.6	0.0
2026-01-30 02:18:10.535915	235.2	19.0	-69.8	0.0
2026-01-30 02:18:11.649522	235.1	18.8	-69.5	0.0
2026-01-30 02:18:12.763158	234.9	18.7	-69.5	0.0
2026-01-30 02:18:13.876824	234.8	18.6	-69.6	0.0
2026-01-30 02:18:14.990986	234.7	18.4	-69.7	0.0
2026-01-30 02:18:16.104769	234.5	18.3	-69.8	0.0
2026-01-30 02:18:17.218366	234.4	18.1	-69.7	0.0
2026-01-30 02:18:18.332933	234.2	18.0	-69.8	0.0
2026-01-30 02:18:19.447553	234.1	17.9	-69.6	0.0
2026-01-30 02:18:20.563053	234.0	17.7	-69.6	0.0
2026-01-30 02:18:21.676280	233.8	17.6	-69.5	0.0
2026-01-30 02:18:22.789794	233.7	17.5	-69.7	0.0
2026-01-30 02:18:23.903918	233.6	17.3	-69.7	0.0
2026-01-30 02:18:25.017936	233.4	17.2	-69.5	0.0
2026-01-30 02:18:26.132053	233.3	17.1	-69.6	0.0
2026-01-30 02:18:27.245650	233.2	17.0	-69.5	0.0
2026-01-30 02:18:28.360037	233.0	16.8	-69.6	0.0
2026-01-30 02:18:29.474729	232.9	16.7	-69.7	0.0
2026-01-30 02:18:30.588662	232.8	16.6	-69.7	0.0
2026-01-30 02:18:31.705345	232.7	16.4	-69.5	0.0
2026-01-30 02:18:32.820313	232.5	16.3	-69.7	0.0
2026-01-30 02:18:33.933866	232.4	16.2	-69.7	0.0
2026-01-30 02:18:35.048159	232.3	16.1	-69.6	0.0
2026-01-30 02:18:36.162526	232.2	15.9	-69.7	0.0
2026-01-30 02:18:37.276387	232.0	15.8	-69.4	0.0
2026-01-30 02:18:38.405814	231.9	15.7	-69.5	0.0
2026-01-30 02:18:39.519309	231.8	15.6	-69.0	0.0
2026-01-30 02:18:40.633942	231.7	15.5	-70.0	0.0
2026-01-30 02:18:41.758468	231.6	15.3	-69.7	0.0
2026-01-30 02:18:42.871581	231.5	15.2	-69.6	0.0
2026-01-30 02:18:43.986792	231.3	15.1	-69.6	0.0
#Closed at: 2026-01-30 02:11:33.979652