passes_logs/2025/01/03/XPeterburg/XPeterburg__20250103_090951_FENGYUN_3F_rec.log

#Pass ID: 20250103_090951_FENGYUN 3F
#Satellite: FENGYUN 3F
#Configuration: FENGYUN 3F
#Start time: 2025-01-03 09:09:45

#Version: 1.5.20200625
#Station: XPeterburg
#Location: 30.318091 lon 59.932769 lat
#TLE: 1 57490U 23111A   24362.10123181  .00000257  00000+0  14143-3 0  9996
#TLE: 2 57490  98.7496  69.2589 0000397 146.4022 213.7180 14.19963369 72649

#Time	Az	El	Level	Level2	SNR	BER	Gain	Gain2
2025-01-03 09:09:45.46	24.90	67.61	-38.7	-41.1	3.3	8385601	94	6555
2025-01-03 09:09:45.86	24.96	67.79	-38.3	-51.7	3.5	8311740	73	23008
2025-01-03 09:09:46.27	25.02	67.97	-38.7	-41.1	3.3	8402709	94	6551
2025-01-03 09:09:46.67	25.07	68.16	-38.7	-42.7	3.6	8425769	94	7819
2025-01-03 09:09:47.07	25.13	68.34	-38.7	-41.2	3.3	8397216	94	6589
2025-01-03 09:09:47.47	25.19	68.52	-38.9	-42.6	3.6	8374820	95	7550
2025-01-03 09:09:47.87	25.25	68.70	-38.9	-41.1	3.3	8422050	95	6362
2025-01-03 09:09:48.28	25.32	68.89	-38.9	-42.6	3.6	8403133	95	7585
2025-01-03 09:09:48.68	25.38	69.07	-38.9	-41.1	3.3	8425231	95	6334
2025-01-03 09:09:49.08	25.44	69.25	-38.9	-42.6	3.6	8400238	95	7578
2025-01-03 09:09:49.48	25.51	69.44	-38.9	-41.2	3.3	8408214	95	6440
2025-01-03 09:09:49.88	25.57	69.62	-38.9	-42.5	3.6	8395534	95	7469
2025-01-03 09:09:50.29	25.64	69.81	-39.0	-41.1	3.4	8387157	96	6312
2025-01-03 09:09:50.69	25.71	69.99	-38.9	-42.6	3.6	8388015	95	7538
2025-01-03 09:09:51.09	25.78	70.18	-38.9	-41.6	3.4	8431022	95	6738
2025-01-03 09:09:51.49	25.85	70.36	-38.9	-41.1	3.3	8399402	95	6347
2025-01-03 09:09:51.90	25.93	70.55	-38.8	-41.7	3.4	8437374	95	6835
2025-01-03 09:09:52.30	26.00	70.74	-38.9	-41.1	3.3	8395442	95	6340
2025-01-03 09:09:52.70	26.08	70.93	-38.9	-42.0	3.5	8447811	95	7022
2025-01-03 09:09:53.10	26.16	71.11	-38.9	-41.1	3.3	8418354	95	6320
2025-01-03 09:09:53.50	26.24	71.30	-38.9	-42.3	3.6	8423274	95	7279
2025-01-03 09:09:53.91	26.32	71.49	-38.9	-41.1	3.3	8402286	95	6357
2025-01-03 09:09:54.31	26.40	71.68	-38.9	-42.3	3.6	8437397	95	7278
2025-01-03 09:09:54.71	26.49	71.87	-38.9	-41.1	3.3	8402538	95	6351
2025-01-03 09:09:55.11	26.57	72.06	-38.9	-42.6	3.6	8399036	95	7523
2025-01-03 09:09:55.51	26.66	72.24	-38.9	-41.1	3.3	8414382	95	6333
2025-01-03 09:09:55.91	26.75	72.43	-38.9	-42.6	3.6	8405158	95	7543
2025-01-03 09:09:56.32	26.85	72.63	-38.9	-41.2	3.3	8414646	95	6399
2025-01-03 09:09:56.72	26.94	72.81	-38.9	-42.5	3.6	8384971	95	7477
2025-01-03 09:09:57.12	27.04	73.00	-38.9	-41.1	3.3	8448017	95	6388
2025-01-03 09:09:57.52	27.14	73.19	-38.9	-42.6	3.6	8381927	95	7530
2025-01-03 09:09:57.93	27.24	73.39	-38.9	-41.3	3.3	8423995	95	6515
2025-01-03 09:09:58.33	27.34	73.58	-38.9	-42.6	3.6	8396381	95	7517
2025-01-03 09:09:58.73	27.45	73.77	-39.0	-41.3	3.4	8375095	96	6425
2025-01-03 09:09:59.13	27.56	73.96	-39.0	-40.8	3.3	8393016	96	6090
2025-01-03 09:09:59.53	27.67	74.15	-38.9	-41.8	3.5	8434375	95	6886
2025-01-03 09:09:59.94	27.79	74.35	-38.9	-41.1	3.3	8394996	95	6358
2025-01-03 09:10:00.34	27.90	74.54	-38.8	-42.0	3.5	8425209	95	7114
2025-01-03 09:10:00.74	28.02	74.73	-38.8	-41.0	3.3	8397628	95	6341
2025-01-03 09:10:01.14	28.15	74.92	-38.8	-41.8	3.6	8375896	96	6965
2025-01-03 09:10:01.54	28.28	75.11	-38.8	-40.5	3.3	8393405	96	5984
2025-01-03 09:10:01.95	28.41	75.31	-38.8	-41.9	3.6	8399024	96	7046
2025-01-03 09:10:02.35	28.54	75.50	-38.8	-40.5	3.3	8418411	96	5981
2025-01-03 09:10:02.75	28.68	75.70	-38.8	-42.0	3.6	8427154	96	7062
2025-01-03 09:10:03.15	28.82	75.89	-38.8	-40.6	3.3	8413570	96	6020
2025-01-03 09:10:03.55	28.97	76.08	-38.8	-41.9	3.6	8383586	96	7021
2025-01-03 09:10:03.96	29.12	76.28	-38.8	-40.5	3.3	8433883	96	5967
2025-01-03 09:10:04.36	29.27	76.48	-38.8	-42.0	3.6	8396392	96	7072
2025-01-03 09:10:04.76	29.43	76.67	-38.8	-40.5	3.3	8437969	96	5971
2025-01-03 09:10:05.16	29.60	76.86	-38.8	-42.0	3.6	8403648	96	7070
2025-01-03 09:10:05.56	29.76	77.06	-38.8	-40.7	3.4	8441928	96	6124
2025-01-03 09:10:05.96	29.94	77.25	-38.8	-41.9	3.6	8386928	96	7017
2025-01-03 09:10:06.37	30.12	77.45	-38.8	-40.9	3.4	8444515	96	6272
2025-01-03 09:10:06.77	30.31	77.64	-38.8	-40.5	3.3	8404472	96	5930
2025-01-03 09:10:07.17	30.50	77.84	-38.8	-41.1	3.4	8425964	96	6369
2025-01-03 09:10:07.57	30.70	78.03	-38.8	-40.5	3.3	8402812	96	5949
2025-01-03 09:10:07.97	30.90	78.23	-38.8	-41.4	3.5	8438438	96	6632
2025-01-03 09:10:08.38	31.12	78.43	-38.8	-40.5	3.3	8398429	96	5958
2025-01-03 09:10:08.78	31.33	78.62	-38.8	-41.7	3.6	8446117	96	6849
2025-01-03 09:10:09.18	31.56	78.82	-38.8	-40.4	3.3	8415241	96	5931
2025-01-03 09:10:09.58	31.79	79.01	-38.8	-41.9	3.6	8417507	96	6995
2025-01-03 09:10:09.98	32.04	79.21	-38.8	-40.5	3.3	8409748	96	5952
2025-01-03 09:10:10.39	32.30	79.41	-38.8	-41.9	3.6	8435943	96	7028
2025-01-03 09:10:10.79	32.56	79.60	-38.8	-40.5	3.3	8440086	96	5975
2025-01-03 09:10:11.19	32.83	79.80	-38.8	-41.9	3.6	8384937	96	7041
2025-01-03 09:10:11.59	33.11	79.99	-38.8	-40.5	3.3	8422519	96	6011
2025-01-03 09:10:11.99	33.41	80.19	-38.8	-41.9	3.6	8405525	96	7018
2025-01-03 09:10:12.40	33.72	80.39	-38.8	-40.7	3.4	8435634	96	6128
2025-01-03 09:10:12.80	34.04	80.58	-38.8	-41.9	3.6	8387008	96	7009
2025-01-03 09:10:13.20	34.37	80.78	-38.8	-41.0	3.4	8442581	96	6295
2025-01-03 09:10:13.60	34.72	80.97	-38.8	-40.5	3.3	8394104	96	5951
2025-01-03 09:10:14.00	35.08	81.17	-38.8	-41.2	3.5	8435714	96	6442
2025-01-03 09:10:14.40	35.46	81.36	-38.9	-40.5	3.3	8408729	96	5927
2025-01-03 09:10:14.81	35.87	81.56	-38.9	-41.5	3.5	8402732	96	6604
2025-01-03 09:10:15.21	36.29	81.75	-38.9	-40.7	3.3	8382133	96	6033
2025-01-03 09:10:15.61	36.72	81.95	-38.8	-41.9	3.6	8455032	96	6998
2025-01-03 09:10:16.01	37.18	82.14	-38.8	-40.5	3.3	8432006	96	6015
2025-01-03 09:10:16.41	37.66	82.33	-38.8	-42.0	3.6	8415229	96	7054
2025-01-03 09:10:16.82	38.18	82.53	-38.8	-40.5	3.3	8406246	96	5992
2025-01-03 09:10:17.22	38.72	82.72	-38.8	-41.9	3.6	8430164	96	7041
2025-01-03 09:10:17.62	39.28	82.91	-38.8	-40.5	3.3	8408226	96	5960
2025-01-03 09:10:18.02	39.87	83.10	-38.8	-41.9	3.6	8397525	96	7029
2025-01-03 09:10:18.42	40.50	83.29	-38.8	-40.5	3.3	8427429	96	6014
2025-01-03 09:10:18.82	41.17	83.48	-38.8	-42.0	3.6	8385841	96	7082
2025-01-03 09:10:19.23	41.89	83.68	-38.8	-40.7	3.4	8431961	96	6105
2025-01-03 09:10:19.63	42.64	83.86	-38.8	-41.9	3.6	8402355	96	7008
2025-01-03 09:10:20.03	43.44	84.05	-38.8	-40.9	3.4	8448692	96	6252
2025-01-03 09:10:20.43	44.29	84.24	-38.8	-40.5	3.3	8388164	96	5951
2025-01-03 09:10:20.84	45.22	84.42	-38.8	-41.0	3.4	8435623	96	6365
2025-01-03 09:10:21.24	46.18	84.61	-38.8	-40.5	3.3	8398166	96	5981
2025-01-03 09:10:21.64	47.22	84.79	-38.9	-41.7	3.5	8435920	96	6767
2025-01-03 09:10:22.04	48.33	84.97	-38.9	-40.8	3.3	8389011	96	6075
2025-01-03 09:10:22.44	49.53	85.15	-38.8	-41.9	3.6	8434478	96	7018
2025-01-03 09:10:22.85	50.84	85.33	-38.8	-40.5	3.3	8435371	96	5965
2025-01-03 09:10:23.25	52.23	85.50	-38.8	-41.9	3.6	8412860	96	7042
2025-01-03 09:10:23.65	53.73	85.67	-38.8	-40.4	3.3	8417015	96	5930
2025-01-03 09:10:24.05	55.34	85.84	-38.8	-41.9	3.6	8427738	96	7032
2025-01-03 09:10:24.45	57.10	86.00	-38.8	-40.5	3.3	8441825	96	5961
2025-01-03 09:10:24.86	59.04	86.16	-38.8	-41.8	3.6	8382488	96	6976
2025-01-03 09:10:25.26	61.11	86.32	-38.8	-40.5	3.3	8431308	96	5968
2025-01-03 09:10:25.66	63.36	86.47	-38.8	-41.9	3.6	8395133	96	7015
2025-01-03 09:10:26.06	65.80	86.61	-38.8	-40.5	3.3	8411304	96	5989
2025-01-03 09:10:26.46	68.45	86.75	-38.8	-41.9	3.6	8390785	96	7014
2025-01-03 09:10:26.87	71.40	86.88	-38.8	-40.7	3.3	8449745	96	6098
2025-01-03 09:10:27.27	74.53	87.00	-38.8	-41.8	3.6	8403179	96	6979
2025-01-03 09:10:27.67	77.91	87.12	-38.8	-40.9	3.4	8432556	96	6251
2025-01-03 09:10:28.07	81.55	87.22	-38.8	-40.4	3.3	8402023	96	5902
2025-01-03 09:10:28.48	85.55	87.31	-38.8	-41.1	3.4	8440372	96	6398
2025-01-03 09:10:28.88	89.70	87.38	-38.8	-40.5	3.3	8394756	96	5945
2025-01-03 09:10:29.28	94.06	87.44	-39.0	-41.7	3.5	8383312	96	6785
2025-01-03 09:10:29.68	98.62	87.49	-38.9	-40.7	3.3	8401817	96	6049
2025-01-03 09:10:30.08	103.30	87.52	-38.8	-41.8	3.6	8348522	96	6973
2025-01-03 09:10:30.48	108.07	87.53	-38.8	-40.4	3.3	8413204	96	5941
2025-01-03 09:10:30.89	112.97	87.52	-38.8	-41.9	3.6	8431503	96	7044
2025-01-03 09:10:31.29	117.69	87.50	-38.8	-40.5	3.3	8414257	96	5964
2025-01-03 09:10:31.69	122.30	87.46	-38.8	-41.9	3.6	8397674	96	7051
2025-01-03 09:10:32.09	126.74	87.41	-38.8	-40.5	3.3	8423950	96	5952
2025-01-03 09:10:32.49	130.97	87.34	-38.8	-41.9	3.6	8404037	96	7010
2025-01-03 09:10:32.90	135.06	87.25	-38.8	-40.5	3.3	8420734	96	5971
2025-01-03 09:10:33.30	138.80	87.15	-38.8	-41.9	3.6	8390739	96	7040
2025-01-03 09:10:33.70	142.27	87.05	-38.8	-41.3	3.4	8379959	95	6564
2025-01-03 09:10:34.10	145.49	86.93	-38.8	-42.0	3.6	8402057	96	7067
2025-01-03 09:10:34.50	148.46	86.80	-38.8	-40.9	3.4	8431068	96	6301
2025-01-03 09:10:34.91	151.27	86.66	-38.8	-40.5	3.3	8403751	96	5984
2025-01-03 09:10:35.31	153.79	86.52	-38.8	-41.1	3.4	8421592	96	6380
2025-01-03 09:10:35.71	156.10	86.37	-38.8	-40.5	3.3	8392559	96	5959
2025-01-03 09:10:36.11	158.23	86.22	-38.8	-42.0	3.5	8442272	95	7126
2025-01-03 09:10:36.51	160.19	86.06	-38.8	-41.1	3.3	8395751	95	6381
2025-01-03 09:10:36.92	162.05	85.90	-38.8	-41.8	3.6	8440109	96	6983
2025-01-03 09:10:37.32	163.71	85.73	-38.8	-40.5	3.3	8418331	96	5950
2025-01-03 09:10:37.72	165.25	85.56	-38.8	-41.9	3.6	8410469	96	7007
2025-01-03 09:10:38.12	166.68	85.39	-38.8	-40.5	3.3	8406200	96	5956
2025-01-03 09:10:38.53	168.03	85.21	-38.8	-41.9	3.6	8447937	96	7057
2025-01-03 09:10:38.93	169.25	85.03	-38.8	-40.4	3.3	8438987	96	5928
2025-01-03 09:10:39.33	170.40	84.85	-38.8	-41.9	3.6	8398612	96	7004
2025-01-03 09:10:39.73	171.46	84.67	-38.8	-40.5	3.3	8428070	96	5983
2025-01-03 09:10:40.13	172.45	84.49	-38.8	-41.9	3.6	8413478	96	7050
2025-01-03 09:10:40.54	173.40	84.30	-38.8	-40.6	3.4	8437477	96	6079
2025-01-03 09:10:40.94	174.27	84.12	-38.8	-42.0	3.6	8398647	96	7081
2025-01-03 09:10:41.34	175.09	83.93	-38.8	-40.8	3.4	8448635	96	6226
2025-01-03 09:10:41.74	175.85	83.74	-38.8	-40.5	3.3	8390167	96	5988
2025-01-03 09:10:42.14	176.58	83.55	-38.8	-41.0	3.4	8440784	96	6358
2025-01-03 09:10:42.55	177.27	83.36	-38.8	-40.4	3.3	8403350	96	5918
2025-01-03 09:10:42.95	177.91	83.17	-38.8	-41.9	3.5	8444606	95	6968
2025-01-03 09:10:43.35	178.52	82.98	-38.8	-40.9	3.3	8388587	95	6278
2025-01-03 09:10:43.75	179.09	82.79	-38.8	-42.2	3.6	8404552	95	7270
2025-01-03 09:10:44.15	179.64	82.60	-38.8	-41.0	3.3	8414428	95	6305
2025-01-03 09:10:44.56	180.17	82.40	-38.8	-42.2	3.6	8413192	95	7260
2025-01-03 09:10:44.96	180.66	82.21	-38.9	-41.0	3.3	8411235	95	6307
2025-01-03 09:10:45.36	181.13	82.01	-38.9	-42.5	3.6	8425266	95	7489
2025-01-03 09:10:45.76	181.57	81.82	-38.8	-41.1	3.3	8392364	95	6353
2025-01-03 09:10:46.17	182.00	81.62	-38.9	-42.6	3.6	8394790	95	7548
2025-01-03 09:10:46.57	182.41	81.43	-38.9	-41.0	3.3	8422393	95	6332
2025-01-03 09:10:46.97	182.79	81.23	-38.8	-42.5	3.6	8396747	95	7530
2025-01-03 09:10:47.37	183.16	81.04	-38.8	-41.1	3.3	8405731	95	6413
2025-01-03 09:10:47.77	183.51	80.84	-38.9	-42.5	3.6	8390029	95	7449
2025-01-03 09:10:48.18	183.86	80.64	-38.9	-41.3	3.3	8441837	95	6480
2025-01-03 09:10:48.58	184.19	80.45	-38.8	-42.5	3.6	8390819	95	7466
2025-01-03 09:10:48.98	184.50	80.25	-38.8	-41.4	3.4	8426033	95	6591
2025-01-03 09:10:49.38	184.79	80.06	-38.8	-41.0	3.3	8385131	95	6349
2025-01-03 09:10:49.78	185.08	79.86	-38.8	-41.6	3.4	8435794	95	6747
2025-01-03 09:10:50.19	185.36	79.66	-38.8	-41.0	3.3	8385520	95	6293
2025-01-03 09:10:50.59	185.63	79.47	-38.8	-41.8	3.5	8449104	95	6960
2025-01-03 09:10:50.99	185.89	79.27	-38.8	-41.0	3.3	8411167	95	6315
2025-01-03 09:10:51.39	186.13	79.08	-38.9	-42.3	3.6	8425884	95	7331
2025-01-03 09:10:51.79	186.37	78.88	-38.8	-41.0	3.3	8412551	95	6335
2025-01-03 09:10:52.20	186.60	78.68	-38.9	-42.4	3.6	8434444	95	7436
2025-01-03 09:10:52.60	186.82	78.49	-38.8	-40.9	3.3	8376789	95	6307
2025-01-03 09:10:53.00	187.04	78.29	-38.8	-41.8	3.6	8321170	96	6995
2025-01-03 09:10:53.40	187.24	78.10	-38.8	-40.5	3.3	8416889	96	5981
2025-01-03 09:10:53.80	187.44	77.90	-38.8	-41.8	3.6	8413730	96	7010
2025-01-03 09:10:54.21	187.64	77.70	-38.8	-40.4	3.3	8423332	96	5934
2025-01-03 09:10:54.61	187.83	77.51	-38.8	-41.8	3.6	8417392	96	6994
2025-01-03 09:10:55.01	188.01	77.31	-38.8	-40.5	3.3	8445545	96	6015
2025-01-03 09:10:55.41	188.19	77.12	-38.8	-41.9	3.6	8380268	96	7072
2025-01-03 09:10:55.82	188.36	76.92	-38.8	-40.6	3.3	8421535	96	6095
2025-01-03 09:10:56.22	188.53	76.73	-38.8	-41.9	3.6	8390636	96	7062
2025-01-03 09:10:56.62	188.69	76.53	-38.8	-40.9	3.4	8438301	96	6288
2025-01-03 09:10:57.02	188.84	76.34	-38.8	-40.5	3.3	8399768	96	5946
2025-01-03 09:10:57.42	188.99	76.14	-38.8	-41.1	3.4	8438598	96	6388
2025-01-03 09:10:57.83	189.14	75.95	-38.8	-40.4	3.3	8390384	96	5925
2025-01-03 09:10:58.23	189.29	75.75	-38.8	-41.8	3.5	8428550	95	6960
2025-01-03 09:10:58.63	189.42	75.56	-38.8	-40.9	3.3	8394618	95	6250
2025-01-03 09:10:59.03	189.56	75.37	-38.8	-42.0	3.6	8420127	95	7176
2025-01-03 09:10:59.44	189.69	75.17	-38.8	-40.8	3.3	8403144	95	6241
2025-01-03 09:10:59.84	189.82	74.98	-38.7	-42.1	3.6	8402870	95	7259
2025-01-03 09:11:00.24	189.95	74.78	-38.8	-40.9	3.3	8377738	95	6238
2025-01-03 09:11:00.64	190.07	74.59	-38.8	-42.2	3.6	8354324	95	7336
2025-01-03 09:11:01.04	190.19	74.40	-38.8	-41.0	3.3	8410926	95	6324
2025-01-03 09:11:01.45	190.30	74.20	-38.8	-42.4	3.6	8390819	95	7436
2025-01-03 09:11:01.85	190.42	74.01	-38.8	-41.1	3.3	8437889	95	6384
2025-01-03 09:11:02.25	190.53	73.82	-38.8	-42.5	3.6	8389698	95	7467
2025-01-03 09:11:02.65	190.63	73.63	-38.8	-41.2	3.3	8434295	95	6456
2025-01-03 09:11:03.05	190.74	73.44	-38.8	-42.3	3.6	8410629	95	7389
2025-01-03 09:11:03.46	190.84	73.24	-38.9	-41.4	3.4	8390682	95	6513
2025-01-03 09:11:03.86	190.94	73.05	-38.7	-42.2	3.6	8389766	95	7335
2025-01-03 09:11:04.26	191.04	72.86	-38.7	-41.1	3.4	8451255	95	6461
2025-01-03 09:11:04.66	191.14	72.67	-38.7	-40.6	3.3	8384571	95	6118
2025-01-03 09:11:05.06	191.23	72.48	-38.7	-41.2	3.4	8426605	95	6582
2025-01-03 09:11:05.47	191.32	72.29	-38.7	-40.6	3.3	8390693	95	6124
2025-01-03 09:11:05.87	191.41	72.10	-38.7	-41.5	3.5	8428459	95	6772
2025-01-03 09:11:06.27	191.50	71.91	-38.7	-40.6	3.3	8398326	95	6131
2025-01-03 09:11:06.67	191.58	71.73	-38.7	-42.0	3.6	8439949	95	7133
2025-01-03 09:11:07.07	191.67	71.54	-38.7	-40.7	3.3	8420162	95	6159
2025-01-03 09:11:07.48	191.75	71.35	-38.8	-42.2	3.6	8411796	95	7330
2025-01-03 09:11:07.88	191.83	71.16	-38.8	-40.7	3.3	8405353	95	6182
2025-01-03 09:11:08.28	191.91	70.97	-38.8	-42.3	3.6	8431789	95	7418
2025-01-03 09:11:08.68	191.98	70.78	-38.8	-40.8	3.3	8436275	95	6228
2025-01-03 09:11:09.08	192.06	70.60	-38.8	-42.3	3.6	8396598	95	7392
2025-01-03 09:11:09.49	192.13	70.41	-38.8	-41.0	3.3	8438095	95	6318
2025-01-03 09:11:09.89	192.21	70.22	-38.8	-42.3	3.6	8399814	95	7411

#Closed at: 2025-01-03 09:11:10