passes_logs/2025/01/03/XPeterburg/XPeterburg__20250103_103653_SUOMI_NPP_rec.log

#Pass ID: 20250103_103653_SUOMI NPP
#Satellite: SUOMI NPP
#Configuration: NPP
#Start time: 2025-01-03 10:36:46

#Version: 1.5.20200625
#Station: XPeterburg
#Location: 30.318091 lon 59.932769 lat
#TLE: 1 37849U 11061A   24362.17075939  .00000286  00000+0  15639-3 0  9990
#TLE: 2 37849  98.7425 297.4002 0002189  69.4164 290.7247 14.19524990682249

#Time	Az	El	Level	Level2	SNR	BER	Gain	Gain2
2025-01-03 10:36:46.22	205.55	67.90	-38.3	-45.5	3.3	15336814	93	2825
2025-01-03 10:36:46.42	205.72	67.97	-36.9	-67.8	3.6	0	46	43381
2025-01-03 10:36:46.62	205.90	68.04	-37.9	-56.1	3.6	15267715	73	9973
2025-01-03 10:36:46.82	206.07	68.10	-38.4	-46.6	3.4	15267715	93	3186
2025-01-03 10:36:47.03	206.26	68.17	-38.4	-46.2	3.4	15219062	93	3027
2025-01-03 10:36:47.23	206.44	68.24	-38.4	-47.5	3.6	15219062	93	3502
2025-01-03 10:36:47.43	206.62	68.31	-38.4	-47.1	3.0	15219062	94	3342
2025-01-03 10:36:47.63	206.80	68.37	-38.4	-46.5	3.4	15114280	94	3105
2025-01-03 10:36:47.83	206.98	68.44	-38.4	-46.0	3.4	15114280	94	2939
2025-01-03 10:36:48.03	207.16	68.51	-38.3	-46.7	3.0	15219726	94	3232
2025-01-03 10:36:48.23	207.34	68.57	-38.3	-46.6	3.6	15219726	94	3224
2025-01-03 10:36:48.43	207.53	68.64	-38.3	-46.1	3.5	15104354	94	3031
2025-01-03 10:36:48.63	207.71	68.71	-38.3	-45.5	3.4	15104354	94	2841
2025-01-03 10:36:48.83	207.90	68.77	-38.3	-45.2	3.3	15236160	94	2729
2025-01-03 10:36:49.04	208.10	68.84	-38.3	-46.6	3.6	15236160	94	3212
2025-01-03 10:36:49.24	208.29	68.91	-38.6	-46.4	3.5	15091453	95	3020
2025-01-03 10:36:49.44	208.48	68.97	-38.7	-46.0	3.4	15091453	95	2864
2025-01-03 10:36:49.64	208.67	69.04	-38.7	-45.6	3.3	15091453	95	2741
2025-01-03 10:36:49.84	208.87	69.10	-38.5	-46.5	3.6	15258285	95	3095
2025-01-03 10:36:50.04	209.06	69.17	-38.6	-46.8	3.6	15258285	95	3158
2025-01-03 10:36:50.24	209.26	69.23	-38.6	-46.2	3.4	15054275	95	2933
2025-01-03 10:36:50.44	209.45	69.29	-38.6	-45.8	3.4	15054275	95	2799
2025-01-03 10:36:50.64	209.65	69.36	-38.5	-46.6	2.6	15254226	95	3142
2025-01-03 10:36:50.84	209.85	69.42	-38.5	-46.7	3.6	15254226	95	3144
2025-01-03 10:36:51.05	210.07	69.49	-38.5	-46.1	3.5	15085388	95	2967
2025-01-03 10:36:51.25	210.27	69.55	-38.5	-45.6	3.4	15085388	95	2787
2025-01-03 10:36:51.45	210.47	69.62	-38.5	-45.3	3.3	15247360	95	2697
2025-01-03 10:36:51.65	210.68	69.68	-38.5	-46.8	3.6	15247360	95	3194
2025-01-03 10:36:51.85	210.89	69.74	-38.5	-46.3	3.5	15126289	95	3021
2025-01-03 10:36:52.05	211.09	69.81	-38.5	-45.8	3.4	15126289	95	2848
2025-01-03 10:36:52.25	211.30	69.87	-38.5	-45.5	3.4	15126289	95	2739
2025-01-03 10:36:52.45	211.52	69.93	-38.5	-46.8	3.6	15273811	95	3195
2025-01-03 10:36:52.65	211.73	69.99	-38.5	-46.5	3.6	15273811	95	3077
2025-01-03 10:36:52.86	211.95	70.06	-38.5	-46.0	3.4	15109901	95	2910
2025-01-03 10:36:53.06	212.17	70.12	-38.5	-45.7	3.4	15109901	95	2796
2025-01-03 10:36:53.26	212.39	70.18	-38.5	-46.8	3.6	15282241	95	3181
2025-01-03 10:36:53.46	212.60	70.24	-38.5	-46.7	3.6	15282241	95	3172
2025-01-03 10:36:53.66	212.82	70.30	-38.5	-46.1	3.5	15098731	95	2948
2025-01-03 10:36:53.86	213.04	70.36	-38.5	-45.7	3.4	15098731	95	2796
2025-01-03 10:36:54.06	213.27	70.43	-38.5	-46.9	3.3	15276931	95	3212
2025-01-03 10:36:54.26	213.49	70.49	-38.5	-46.9	3.6	15276931	95	3219
2025-01-03 10:36:54.46	213.72	70.55	-38.5	-46.3	3.5	15276931	95	2999
2025-01-03 10:36:54.66	213.94	70.61	-38.5	-45.8	3.4	15100875	95	2848
2025-01-03 10:36:54.86	214.17	70.66	-38.5	-45.5	3.3	15100875	95	2756
2025-01-03 10:36:55.06	214.40	70.72	-38.5	-46.9	3.6	15268920	95	3223
2025-01-03 10:36:55.27	214.65	70.79	-38.5	-46.3	3.5	15268920	95	3015
2025-01-03 10:36:55.47	214.88	70.85	-38.5	-45.8	3.4	15098258	95	2837
2025-01-03 10:36:55.67	215.11	70.90	-38.5	-45.4	3.3	15098258	95	2726
2025-01-03 10:36:55.87	215.35	70.96	-38.5	-46.9	3.6	15261505	95	3227
2025-01-03 10:36:56.07	215.59	71.02	-38.5	-46.5	3.5	15261505	95	3063
2025-01-03 10:36:56.27	215.83	71.08	-38.5	-45.9	3.4	15131752	95	2872
2025-01-03 10:36:56.47	216.07	71.14	-38.5	-45.5	3.3	15131752	95	2763
2025-01-03 10:36:56.67	216.31	71.19	-38.5	-47.0	3.6	15260818	95	3244
2025-01-03 10:36:56.87	216.56	71.25	-38.7	-47.2	3.6	15260818	95	3283
2025-01-03 10:36:57.07	216.80	71.31	-38.7	-46.6	3.4	15091407	95	3060
2025-01-03 10:36:57.28	217.06	71.36	-38.7	-46.2	3.4	15091407	95	2909
2025-01-03 10:36:57.48	217.31	71.42	-38.6	-47.0	3.6	15091407	95	3239
2025-01-03 10:36:57.68	217.56	71.48	-38.6	-47.1	3.6	15204284	95	3288
2025-01-03 10:36:57.88	217.81	71.53	-38.5	-46.3	3.5	15204284	95	2998
2025-01-03 10:36:58.08	218.07	71.59	-38.5	-45.9	3.4	15131607	95	2879
2025-01-03 10:36:58.28	218.32	71.64	-38.6	-47.1	3.3	15131607	95	3271
2025-01-03 10:36:58.48	218.58	71.70	-38.6	-47.0	3.6	15215408	95	3268
2025-01-03 10:36:58.68	218.84	71.75	-38.6	-46.3	3.5	15215408	95	3014
2025-01-03 10:36:58.88	219.10	71.80	-38.5	-45.8	3.4	15138938	95	2858
2025-01-03 10:36:59.08	219.36	71.86	-38.5	-45.4	3.3	15138938	95	2718
2025-01-03 10:36:59.29	219.63	71.91	-38.5	-46.8	3.6	15233619	95	3202
2025-01-03 10:36:59.49	219.90	71.97	-38.7	-46.8	3.5	15233619	95	3138
2025-01-03 10:36:59.69	220.17	72.02	-38.7	-46.3	3.4	15233619	95	2956
2025-01-03 10:36:59.89	220.43	72.07	-38.7	-45.9	3.4	15115386	95	2820
2025-01-03 10:37:00.09	220.70	72.12	-38.5	-46.8	3.6	15115386	95	3199
2025-01-03 10:37:00.29	220.98	72.17	-38.5	-46.6	3.6	15174957	95	3116
2025-01-03 10:37:00.49	221.25	72.22	-38.5	-46.0	3.4	15174957	95	2911
2025-01-03 10:37:00.69	221.52	72.28	-38.5	-45.7	3.4	15170082	95	2795
2025-01-03 10:37:00.89	221.80	72.33	-38.5	-47.0	3.6	15170082	95	3257
2025-01-03 10:37:01.09	222.08	72.38	-38.5	-46.9	3.6	15202674	95	3212
2025-01-03 10:37:01.30	222.37	72.43	-38.5	-46.3	3.4	15202674	95	2989
2025-01-03 10:37:01.50	222.65	72.48	-38.5	-45.9	3.4	15191841	95	2856
2025-01-03 10:37:01.70	222.94	72.53	-38.6	-47.1	3.3	15191841	95	3276
2025-01-03 10:37:01.90	223.22	72.57	-38.6	-47.1	3.6	15197189	95	3287
2025-01-03 10:37:02.10	223.51	72.62	-38.6	-46.5	3.5	15197189	95	3056
2025-01-03 10:37:02.30	223.80	72.67	-38.6	-46.0	3.4	15197189	95	2893
2025-01-03 10:37:02.50	224.09	72.72	-38.5	-45.6	3.3	15185363	95	2764
2025-01-03 10:37:02.70	224.38	72.76	-38.5	-47.0	3.6	15185363	95	3259
2025-01-03 10:37:02.90	224.67	72.81	-38.5	-46.5	3.5	15173133	95	3084
2025-01-03 10:37:03.10	224.97	72.86	-38.5	-46.1	3.4	15173133	95	2932
2025-01-03 10:37:03.31	225.28	72.90	-38.6	-45.7	3.4	15199775	95	2794
2025-01-03 10:37:03.51	225.57	72.95	-38.6	-47.0	3.6	15199775	95	3259
2025-01-03 10:37:03.71	225.87	72.99	-38.7	-47.2	3.6	15123344	95	3268
2025-01-03 10:37:03.91	226.18	73.04	-38.7	-46.6	3.4	15123344	95	3056
2025-01-03 10:37:04.11	226.48	73.08	-38.7	-46.3	3.4	15203529	95	2923
2025-01-03 10:37:04.31	226.78	73.13	-38.6	-47.0	3.6	15203529	95	3260
2025-01-03 10:37:04.51	227.09	73.17	-38.5	-46.9	3.6	15203529	95	3224
2025-01-03 10:37:04.71	227.40	73.21	-38.6	-46.3	3.5	15120643	95	3015
2025-01-03 10:37:04.91	227.71	73.25	-38.6	-45.9	3.4	15120643	95	2860
2025-01-03 10:37:05.11	228.02	73.30	-38.6	-47.1	3.3	15205917	95	3279
2025-01-03 10:37:05.31	228.33	73.34	-38.5	-47.1	3.6	15205917	95	3299
2025-01-03 10:37:05.52	228.66	73.38	-38.7	-47.0	3.5	15134712	95	3193
2025-01-03 10:37:05.72	228.98	73.42	-38.7	-46.4	3.4	15134712	95	2985
2025-01-03 10:37:05.92	229.30	73.46	-38.7	-46.2	3.3	15209732	95	2896
2025-01-03 10:37:06.12	229.62	73.50	-38.6	-47.1	3.6	15209732	95	3301
2025-01-03 10:37:06.32	229.94	73.54	-38.5	-46.7	3.5	15108093	95	3143
2025-01-03 10:37:06.52	230.26	73.58	-38.6	-46.1	3.4	15108093	95	2934
2025-01-03 10:37:06.72	230.58	73.61	-38.6	-45.8	3.3	15224861	95	2823
2025-01-03 10:37:06.92	230.91	73.65	-38.6	-47.0	3.6	15224861	95	3265
2025-01-03 10:37:07.12	231.24	73.69	-38.5	-46.9	3.6	15179100	95	3230
2025-01-03 10:37:07.33	231.58	73.73	-38.5	-46.3	3.5	15179100	95	3002
2025-01-03 10:37:07.53	231.91	73.76	-38.5	-45.9	3.4	15179100	95	2852
2025-01-03 10:37:07.73	232.24	73.80	-38.6	-47.0	3.4	15209892	95	3252
2025-01-03 10:37:07.93	232.58	73.83	-38.5	-47.0	3.6	15209892	95	3266
2025-01-03 10:37:08.13	232.91	73.87	-38.6	-46.4	3.5	15154624	95	3029
2025-01-03 10:37:08.33	233.25	73.90	-38.5	-45.9	3.4	15154624	95	2860
2025-01-03 10:37:08.53	233.59	73.93	-38.5	-45.5	3.3	15221000	95	2754
2025-01-03 10:37:08.73	233.93	73.97	-38.5	-47.0	3.6	15221000	95	3277
2025-01-03 10:37:08.93	234.27	74.00	-38.5	-46.6	3.5	15152671	95	3099
2025-01-03 10:37:09.13	234.61	74.03	-38.5	-46.1	3.4	15152671	95	2933
2025-01-03 10:37:09.34	234.97	74.06	-38.6	-45.7	3.4	15237396	95	2793
2025-01-03 10:37:09.54	235.31	74.09	-38.5	-47.0	3.6	15237396	95	3278
2025-01-03 10:37:09.74	235.66	74.13	-38.6	-46.7	3.6	15237396	95	3158
2025-01-03 10:37:09.94	236.01	74.15	-38.6	-46.2	3.4	15137985	95	2961
2025-01-03 10:37:10.14	236.36	74.18	-38.6	-45.8	3.4	15137985	95	2820
2025-01-03 10:37:10.34	236.71	74.21	-38.6	-47.1	3.6	15257904	95	3277
2025-01-03 10:37:10.54	237.06	74.24	-38.6	-46.9	3.6	15257904	95	3230
2025-01-03 10:37:10.74	237.41	74.27	-38.6	-46.2	3.4	15121833	95	2985
2025-01-03 10:37:10.94	237.77	74.29	-38.5	-45.9	3.4	15121833	95	2868
2025-01-03 10:37:11.15	238.14	74.32	-38.5	-47.1	3.1	15262260	95	3304
2025-01-03 10:37:11.35	238.50	74.35	-38.5	-47.0	3.6	15262260	95	3272
2025-01-03 10:37:11.55	238.85	74.37	-38.7	-46.9	3.5	15071052	95	3160
2025-01-03 10:37:11.75	239.21	74.40	-38.7	-46.4	3.4	15071052	95	2986
2025-01-03 10:37:11.95	239.57	74.42	-38.7	-46.0	3.3	15265205	95	2874
2025-01-03 10:37:12.15	239.94	74.44	-38.5	-47.0	3.6	15265205	95	3256
2025-01-03 10:37:12.35	240.30	74.47	-38.7	-47.2	3.6	15265205	95	3260
2025-01-03 10:37:12.55	240.66	74.49	-38.7	-46.7	3.4	15022758	95	3062
2025-01-03 10:37:12.75	241.03	74.51	-38.7	-46.2	3.4	15022758	95	2910
2025-01-03 10:37:12.95	241.39	74.53	-38.6	-47.0	3.6	15258148	95	3270
2025-01-03 10:37:13.16	241.78	74.55	-38.6	-47.0	3.6	15258148	95	3252
2025-01-03 10:37:13.36	242.14	74.57	-38.6	-46.4	3.5	15087539	95	3019
2025-01-03 10:37:13.56	242.51	74.59	-38.6	-46.0	3.4	15087539	95	2897
2025-01-03 10:37:13.76	242.88	74.61	-38.5	-47.0	3.1	15270454	95	3275
2025-01-03 10:37:13.96	243.25	74.63	-38.6	-47.1	3.6	15270454	95	3298
2025-01-03 10:37:14.16	243.63	74.64	-38.5	-46.4	3.5	15101112	95	3057
2025-01-03 10:37:14.36	244.00	74.66	-38.6	-46.0	3.4	15101112	95	2882
2025-01-03 10:37:14.56	244.37	74.68	-38.5	-45.6	3.3	15101112	95	2780
2025-01-03 10:37:14.76	244.74	74.69	-38.6	-47.0	3.6	15277679	95	3259
2025-01-03 10:37:14.96	245.12	74.71	-38.7	-47.2	3.5	15277679	95	3256
2025-01-03 10:37:15.16	245.49	74.72	-38.7	-46.5	3.4	15075401	95	3005
2025-01-03 10:37:15.37	245.89	74.73	-38.8	-46.2	3.3	15075401	95	2915
2025-01-03 10:37:15.57	246.27	74.75	-38.6	-47.1	3.6	15273834	95	3290
2025-01-03 10:37:15.77	246.64	74.76	-38.6	-46.8	3.6	15273834	95	3181
2025-01-03 10:37:15.97	247.02	74.77	-38.6	-46.2	3.4	15065750	95	2979
2025-01-03 10:37:16.17	247.40	74.78	-38.6	-45.9	3.3	15065750	95	2851
2025-01-03 10:37:16.37	247.78	74.79	-38.5	-47.1	3.6	15272514	95	3281
2025-01-03 10:37:16.57	248.16	74.80	-38.6	-46.9	3.6	15272514	95	3209
2025-01-03 10:37:16.77	248.54	74.81	-38.6	-46.3	3.5	15097640	95	3006
2025-01-03 10:37:16.97	248.92	74.82	-38.6	-45.8	3.4	15097640	95	2844
2025-01-03 10:37:17.17	249.30	74.83	-38.6	-47.0	3.4	15268394	95	3265
2025-01-03 10:37:17.38	249.70	74.83	-38.5	-47.0	3.6	15268394	95	3248
2025-01-03 10:37:17.58	250.08	74.84	-38.5	-46.4	3.5	15268394	95	3037
2025-01-03 10:37:17.78	250.46	74.85	-38.5	-45.9	3.4	15110473	95	2868
2025-01-03 10:37:17.98	250.85	74.85	-38.6	-45.7	3.3	15110473	95	2796
2025-01-03 10:37:18.18	251.23	74.86	-38.6	-47.0	3.6	15275413	95	3267
2025-01-03 10:37:18.38	251.61	74.86	-38.5	-46.6	3.5	15275413	95	3100
2025-01-03 10:37:18.58	252.00	74.86	-38.6	-46.1	3.4	15113311	95	2925
2025-01-03 10:37:18.78	252.38	74.87	-38.5	-45.8	3.3	15113311	95	2825
2025-01-03 10:37:18.98	252.76	74.87	-38.5	-47.1	3.6	15263626	95	3285
2025-01-03 10:37:19.18	253.14	74.87	-38.7	-47.3	3.6	15263626	95	3304
2025-01-03 10:37:19.38	253.53	74.87	-38.7	-46.7	3.4	15084030	95	3087
2025-01-03 10:37:19.59	253.93	74.87	-38.7	-46.3	3.4	15084030	95	2932
2025-01-03 10:37:19.79	254.31	74.87	-38.5	-47.0	3.6	15084030	95	3253
2025-01-03 10:37:19.99	254.70	74.87	-38.6	-47.1	3.6	15198265	95	3275
2025-01-03 10:37:20.19	255.08	74.87	-38.5	-46.3	3.5	15198265	95	3018
2025-01-03 10:37:20.39	255.46	74.86	-38.6	-45.9	3.4	15123664	95	2865
2025-01-03 10:37:20.59	255.85	74.86	-38.5	-47.0	3.5	15123664	95	3273
2025-01-03 10:37:20.79	256.23	74.86	-38.5	-47.1	3.6	15232124	95	3286
2025-01-03 10:37:20.99	256.61	74.85	-38.5	-46.3	3.5	15232124	95	3010
2025-01-03 10:37:21.19	256.99	74.85	-38.5	-46.0	3.4	15139160	95	2891
2025-01-03 10:37:21.40	257.40	74.84	-38.6	-45.7	3.3	15139160	95	2790
2025-01-03 10:37:21.60	257.78	74.83	-38.5	-47.0	3.6	15224037	95	3263
2025-01-03 10:37:21.80	258.16	74.83	-38.5	-46.6	3.5	15224037	95	3101
2025-01-03 10:37:22.00	258.54	74.82	-38.6	-46.0	3.4	15156280	95	2899
2025-01-03 10:37:22.20	258.92	74.81	-38.5	-45.7	3.3	15156280	95	2796
2025-01-03 10:37:22.40	259.30	74.80	-38.5	-47.0	3.6	15156280	95	3253
2025-01-03 10:37:22.60	259.68	74.79	-38.6	-46.8	3.6	15222915	95	3171
2025-01-03 10:37:22.80	260.06	74.78	-38.6	-46.1	3.4	15222915	95	2949
2025-01-03 10:37:23.00	260.44	74.77	-38.6	-45.8	3.4	15154579	95	2817
2025-01-03 10:37:23.20	260.81	74.76	-38.5	-47.0	3.6	15154579	95	3263
2025-01-03 10:37:23.41	261.21	74.74	-38.7	-47.5	3.1	15206100	95	3383
2025-01-03 10:37:23.61	261.59	74.73	-38.7	-46.8	3.5	15206100	95	3132
2025-01-03 10:37:23.81	261.96	74.72	-38.7	-46.4	3.4	15127037	95	2965
2025-01-03 10:37:24.01	262.34	74.70	-38.7	-46.1	3.3	15127037	95	2866
2025-01-03 10:37:24.21	262.71	74.69	-38.6	-47.1	3.6	15201354	95	3280
2025-01-03 10:37:24.41	263.08	74.67	-38.6	-46.6	3.5	15201354	95	3118
2025-01-03 10:37:24.61	263.46	74.66	-38.5	-46.1	3.4	15201354	95	2932
2025-01-03 10:37:24.81	263.83	74.64	-38.5	-45.7	3.3	15148193	95	2809
2025-01-03 10:37:25.01	264.20	74.62	-38.5	-47.0	3.6	15148193	95	3264
2025-01-03 10:37:25.21	264.57	74.60	-38.5	-46.7	3.6	15233451	95	3163
2025-01-03 10:37:25.41	264.94	74.59	-38.6	-46.1	3.4	15233451	95	2935
2025-01-03 10:37:25.62	265.33	74.57	-38.5	-45.8	3.3	15148376	95	2832
2025-01-03 10:37:25.82	265.69	74.55	-38.5	-47.0	3.6	15148376	95	3262
2025-01-03 10:37:26.02	266.06	74.53	-38.7	-47.5	2.8	15236610	95	3364
2025-01-03 10:37:26.22	266.43	74.50	-38.7	-46.9	3.5	15236610	95	3129
2025-01-03 10:37:26.42	266.79	74.48	-38.7	-46.4	3.4	15121047	95	2954
2025-01-03 10:37:26.62	267.15	74.46	-38.8	-46.2	3.3	15121047	95	2887
2025-01-03 10:37:26.82	267.51	74.44	-38.6	-47.0	3.6	15211509	95	3259
2025-01-03 10:37:27.02	267.88	74.41	-38.6	-46.7	3.5	15211509	95	3140
2025-01-03 10:37:27.22	268.24	74.39	-38.6	-46.1	3.4	15138565	95	2919
2025-01-03 10:37:27.43	268.61	74.36	-38.5	-45.7	3.4	15138565	95	2819
2025-01-03 10:37:27.63	268.97	74.34	-38.6	-47.0	3.6	15138565	95	3266
2025-01-03 10:37:27.83	269.33	74.31	-38.5	-46.8	3.6	15218940	95	3193
2025-01-03 10:37:28.03	269.68	74.29	-38.5	-46.1	3.4	15218940	95	2950
2025-01-03 10:37:28.23	270.03	74.26	-38.6	-45.8	3.4	15156555	95	2834
2025-01-03 10:37:28.43	270.39	74.23	-38.5	-47.1	3.6	15156555	95	3292
2025-01-03 10:37:28.63	270.74	74.20	-38.6	-46.9	3.6	15216300	95	3217
2025-01-03 10:37:28.83	271.09	74.18	-38.6	-46.3	3.4	15216300	95	2987
2025-01-03 10:37:29.03	271.44	74.15	-38.6	-45.9	3.4	15162712	95	2859
2025-01-03 10:37:29.23	271.78	74.12	-38.5	-47.1	3.4	15162712	95	3294
2025-01-03 10:37:29.43	272.13	74.09	-38.5	-47.1	3.6	15206130	95	3279
2025-01-03 10:37:29.63	272.47	74.06	-38.5	-46.5	3.5	15206130	95	3057
2025-01-03 10:37:29.83	272.82	74.03	-38.5	-45.9	3.4	15206130	95	2874
2025-01-03 10:37:30.04	273.18	73.99	-38.5	-45.6	3.3	15167678	95	2773
2025-01-03 10:37:30.24	273.52	73.96	-38.5	-47.1	3.6	15167678	95	3287
2025-01-03 10:37:30.44	273.85	73.93	-38.7	-47.1	3.5	15195579	95	3224
2025-01-03 10:37:30.64	274.19	73.89	-38.7	-46.6	3.4	15195579	95	3038
2025-01-03 10:37:30.84	274.53	73.86	-38.7	-46.3	3.3	15154891	95	2927
2025-01-03 10:37:31.04	274.86	73.82	-38.6	-47.1	3.6	15154891	95	3284
2025-01-03 10:37:31.24	275.19	73.79	-38.5	-46.8	3.6	15142364	95	3191
2025-01-03 10:37:31.44	275.53	73.75	-38.5	-46.2	3.4	15142364	95	2982
2025-01-03 10:37:31.64	275.86	73.72	-38.5	-45.9	3.4	15191246	95	2858
2025-01-03 10:37:31.84	276.18	73.68	-38.5	-47.1	3.6	15191246	95	3287
2025-01-03 10:37:32.05	276.53	73.64	-38.7	-47.5	3.0	15125839	95	3393
2025-01-03 10:37:32.25	276.85	73.61	-38.7	-46.8	3.5	15125839	95	3113
2025-01-03 10:37:32.45	277.18	73.57	-38.7	-46.4	3.4	15125839	95	2972
2025-01-03 10:37:32.65	277.50	73.53	-38.5	-47.0	3.0	15212791	95	3275
2025-01-03 10:37:32.85	277.82	73.49	-38.5	-47.0	3.6	15212791	95	3254
2025-01-03 10:37:33.05	278.14	73.45	-38.6	-46.6	3.5	15114669	95	3093
2025-01-03 10:37:33.25	278.45	73.41	-38.6	-46.0	3.4	15114669	95	2913
2025-01-03 10:37:33.45	278.77	73.37	-38.6	-45.7	3.3	15219017	95	2792
2025-01-03 10:37:33.65	279.08	73.33	-38.5	-47.0	3.6	15219017	95	3262
2025-01-03 10:37:33.85	279.40	73.29	-38.5	-46.7	3.5	15146827	95	3138
2025-01-03 10:37:34.06	279.72	73.24	-38.6	-46.1	3.4	15146827	95	2916
2025-01-03 10:37:34.26	280.03	73.20	-38.5	-45.7	3.4	15243522	95	2808
2025-01-03 10:37:34.46	280.34	73.16	-38.5	-47.1	3.6	15243522	95	3282
2025-01-03 10:37:34.66	280.64	73.12	-38.6	-46.8	3.6	15243522	95	3183
2025-01-03 10:37:34.86	280.95	73.07	-38.5	-46.1	3.4	15123260	95	2952
2025-01-03 10:37:35.06	281.25	73.03	-38.5	-45.7	3.4	15123260	95	2820
2025-01-03 10:37:35.26	281.55	72.98	-38.5	-47.0	3.6	15259086	95	3272
2025-01-03 10:37:35.46	281.85	72.94	-38.5	-46.9	3.6	15259086	95	3221
2025-01-03 10:37:35.66	282.15	72.89	-38.5	-46.2	3.5	15110244	95	2976
2025-01-03 10:37:35.86	282.44	72.85	-38.5	-45.8	3.4	15110244	95	2848
2025-01-03 10:37:36.06	282.74	72.80	-38.5	-47.1	3.6	15268882	95	3276
2025-01-03 10:37:36.27	283.05	72.75	-38.5	-46.9	3.6	15268882	95	3219
2025-01-03 10:37:36.47	283.34	72.71	-38.5	-46.2	3.5	15110794	95	2989
2025-01-03 10:37:36.67	283.62	72.66	-38.5	-45.8	3.4	15110794	95	2850
2025-01-03 10:37:36.87	283.91	72.61	-38.5	-47.1	3.4	15283843	95	3278
2025-01-03 10:37:37.07	284.20	72.56	-38.5	-47.0	3.6	15283843	95	3274
2025-01-03 10:37:37.27	284.48	72.52	-38.5	-46.4	3.5	15105308	95	3045
2025-01-03 10:37:37.47	284.77	72.47	-38.5	-45.9	3.4	15105308	95	2889
2025-01-03 10:37:37.67	285.05	72.42	-38.5	-45.6	3.3	15105308	95	2771
2025-01-03 10:37:37.87	285.33	72.37	-38.5	-47.0	3.6	15279800	95	3262
2025-01-03 10:37:38.07	285.60	72.32	-38.5	-46.5	3.5	15279800	95	3090
2025-01-03 10:37:38.28	285.89	72.27	-38.5	-46.0	3.4	15095298	95	2904
2025-01-03 10:37:38.48	286.17	72.21	-38.5	-45.7	3.3	15095298	95	2801
2025-01-03 10:37:38.68	286.44	72.16	-38.5	-46.9	3.6	15272918	95	3240
2025-01-03 10:37:38.88	286.71	72.11	-38.5	-46.7	3.6	15272918	95	3141
2025-01-03 10:37:39.08	286.98	72.06	-38.5	-46.1	3.4	15106132	95	2933
2025-01-03 10:37:39.28	287.25	72.01	-38.5	-45.8	3.4	15106132	95	2832
2025-01-03 10:37:39.48	287.51	71.96	-38.6	-47.1	3.6	15268547	95	3277
2025-01-03 10:37:39.68	287.78	71.90	-38.7	-47.5	2.8	15268547	95	3362
2025-01-03 10:37:39.88	288.04	71.85	-38.7	-46.8	3.5	15268547	95	3109
2025-01-03 10:37:40.08	288.30	71.80	-38.7	-46.4	3.4	15079376	95	2957
2025-01-03 10:37:40.29	288.57	71.74	-38.5	-47.1	2.8	15079376	95	3289
2025-01-03 10:37:40.49	288.83	71.69	-38.5	-47.1	3.6	15212623	95	3289
2025-01-03 10:37:40.69	289.09	71.63	-38.5	-46.4	3.5	15212623	95	3044
2025-01-03 10:37:40.89	289.34	71.58	-38.6	-45.9	3.4	15104721	95	2882
2025-01-03 10:37:41.09	289.59	71.52	-38.6	-45.6	3.3	15104721	95	2780
2025-01-03 10:37:41.29	289.85	71.47	-38.5	-47.0	3.6	15242683	95	3265
2025-01-03 10:37:41.49	290.10	71.41	-38.7	-47.0	3.5	15242683	95	3206
2025-01-03 10:37:41.69	290.34	71.35	-38.7	-46.5	3.4	15087265	95	3023
2025-01-03 10:37:41.90	290.60	71.30	-38.7	-46.2	3.4	15087265	95	2913
2025-01-03 10:37:42.10	290.85	71.24	-38.6	-47.0	3.6	15198066	95	3272
2025-01-03 10:37:42.30	291.09	71.18	-38.6	-46.9	3.6	15198066	95	3200
2025-01-03 10:37:42.50	291.33	71.12	-38.6	-46.2	3.4	15198066	95	2977
2025-01-03 10:37:42.70	291.57	71.07	-38.5	-45.8	3.4	15125724	95	2832
2025-01-03 10:37:42.90	291.81	71.01	-38.6	-47.0	3.4	15125724	95	3248
2025-01-03 10:37:43.10	292.05	70.95	-38.6	-47.0	3.6	15252204	95	3260
2025-01-03 10:37:43.30	292.29	70.89	-38.5	-46.4	3.5	15252204	95	3040
2025-01-03 10:37:43.50	292.52	70.83	-38.6	-46.0	3.4	15131378	95	2893
2025-01-03 10:37:43.70	292.75	70.78	-38.6	-45.6	3.3	15131378	95	2786
2025-01-03 10:37:43.91	292.99	70.71	-38.5	-47.0	3.6	15239517	95	3269
2025-01-03 10:37:44.11	293.22	70.65	-38.6	-46.6	3.5	15239517	95	3116
2025-01-03 10:37:44.31	293.45	70.60	-38.6	-46.0	3.4	15148376	95	2915
2025-01-03 10:37:44.51	293.68	70.54	-38.6	-45.7	3.3	15148376	95	2795
2025-01-03 10:37:44.71	293.90	70.48	-38.5	-47.0	3.6	15148376	95	3262
2025-01-03 10:37:44.91	294.13	70.42	-38.7	-47.3	3.6	15234985	95	3311
2025-01-03 10:37:45.11	294.35	70.35	-38.7	-46.7	3.4	15234985	95	3071

#Closed at: 2025-01-03 10:37:45