passes_logs/2026/01/06/T1/T1__20260106_093304_AQUA_rec.log

#Pass ID: 20260106_093304_AQUA
#Satellite: AQUA
#Configuration: AQUA
#almurnet v.1.7.20251203
#Start time: 2026-01-06 09:33:04

#Version: 2.0.20230620
#Station: T1
#Location: 37.570604 lon 55.790049 lat
#TLE: 1 27424U 02022A   26004.96787593  .00001598  00000+0  32997-3 0  9996
#TLE: 2 27424  98.4069 331.2279 0002002  90.2377   0.6092 14.61798176259425

#Time	Az	El	Level	Level2	SNR	BER	BlckErr	Temp	State	Recorded	gain1	gain2
2026-01-06 09:33:04.80	86.76	5.00	-53.9	-74.4	3.8	7.44e-01	0	41	0	0	79	38239
2026-01-06 09:33:06.80	86.50	5.10	-53.9	-74.4	3.8	7.44e-01	0	41	104	0	78	40190
2026-01-06 09:33:08.80	86.24	5.20	-53.9	-74.4	3.8	7.47e-01	0	41	104	0	78	40488
2026-01-06 09:33:10.81	85.97	5.30	-53.9	-74.4	3.8	7.47e-01	0	41	104	0	78	40401
2026-01-06 09:33:12.81	85.71	5.40	-53.9	-74.4	3.8	7.48e-01	0	41	104	0	78	40227
2026-01-06 09:33:14.81	85.44	5.50	-53.9	-74.3	3.8	7.45e-01	0	41	104	0	78	39828
2026-01-06 09:33:16.82	85.18	5.60	-53.9	-74.4	3.8	7.44e-01	0	41	104	0	78	40264
2026-01-06 09:33:18.82	84.91	5.70	-53.9	-74.5	3.8	7.45e-01	0	42	104	0	78	40560
2026-01-06 09:33:20.82	84.63	5.80	-53.9	-74.5	3.8	7.47e-01	0	41	104	0	78	40658
2026-01-06 09:33:22.83	84.36	5.90	-53.9	-74.4	3.8	7.44e-01	0	41	104	0	78	40465
2026-01-06 09:33:24.83	84.08	5.99	-53.9	-74.4	3.8	7.44e-01	0	42	104	0	78	40113
2026-01-06 09:33:26.83	83.80	6.09	-53.9	-74.2	3.8	7.45e-01	0	42	104	0	78	39376
2026-01-06 09:33:28.84	83.52	6.19	-53.9	-74.3	3.8	7.46e-01	0	42	104	0	78	39634
2026-01-06 09:33:30.84	83.24	6.29	-53.9	-74.4	3.8	7.48e-01	0	42	104	0	78	40070
2026-01-06 09:33:32.84	82.96	6.39	-53.8	-74.4	3.8	7.45e-01	0	42	104	0	78	40206
2026-01-06 09:33:34.84	82.67	6.48	-53.8	-74.3	3.8	7.48e-01	0	42	104	0	78	39957
2026-01-06 09:33:36.85	82.38	6.58	-53.8	-74.3	3.8	7.46e-01	0	42	104	0	78	39974
2026-01-06 09:33:38.85	82.09	6.68	-53.8	-74.4	3.8	7.44e-01	0	42	104	0	78	40187
2026-01-06 09:33:40.85	81.80	6.77	-53.8	-74.4	3.8	7.45e-01	0	42	104	0	78	40079
2026-01-06 09:33:42.86	81.50	6.87	-53.8	-74.2	3.8	7.46e-01	0	42	104	0	78	39411
2026-01-06 09:33:44.85	81.20	6.97	-53.8	-73.8	3.8	7.48e-01	0	42	104	0	78	37728
2026-01-06 09:33:46.86	80.90	7.06	-53.8	-73.5	3.8	7.45e-01	0	42	104	0	78	36518
2026-01-06 09:33:48.86	80.60	7.16	-53.8	-73.7	3.8	7.42e-01	0	42	104	0	78	37152
2026-01-06 09:33:50.87	80.30	7.25	-53.8	-74.0	3.8	7.46e-01	0	42	104	0	78	38537
2026-01-06 09:33:52.87	79.99	7.35	-53.8	-74.2	3.8	7.49e-01	0	43	104	0	78	39179
2026-01-06 09:33:54.87	79.68	7.44	-53.8	-74.1	3.8	7.45e-01	0	42	104	0	78	39012
2026-01-06 09:33:56.87	79.37	7.54	-53.8	-73.8	3.8	7.45e-01	0	42	104	0	78	37438
2026-01-06 09:33:58.88	79.06	7.63	-53.8	-73.0	3.8	7.48e-01	0	42	104	0	78	34461
2026-01-06 09:34:00.88	78.74	7.73	-53.8	-72.8	3.8	7.46e-01	0	43	104	0	78	33543
2026-01-06 09:34:02.89	78.42	7.82	-53.8	-73.1	3.8	7.47e-01	0	42	104	0	78	34860
2026-01-06 09:34:04.89	78.10	7.91	-53.8	-72.8	3.8	7.43e-01	0	43	104	0	78	33593
2026-01-06 09:34:06.89	77.78	8.00	-53.8	-71.8	3.9	7.45e-01	0	43	104	0	78	30028
2026-01-06 09:34:08.89	77.46	8.10	-53.7	-70.9	4.2	7.34e-01	0	43	104	0	78	26826
2026-01-06 09:34:10.90	77.13	8.19	-53.8	-71.9	3.8	7.46e-01	0	42	104	0	78	30208
2026-01-06 09:34:12.90	76.80	8.28	-53.8	-73.4	3.8	7.47e-01	0	43	104	0	78	35807
2026-01-06 09:34:14.91	76.47	8.37	-53.8	-72.8	3.8	7.43e-01	0	43	104	0	78	33595
2026-01-06 09:34:16.91	76.14	8.46	-53.6	-68.0	5.5	6.98e-01	0	43	0	0	78	19293
2026-01-06 09:34:18.91	75.80	8.55	-53.7	-71.1	4.1	7.46e-01	0	43	104	524288	78	27432
2026-01-06 09:34:20.91	75.47	8.64	-52.7	-60.6	12.4	6.12e-01	0	43	0	2097152	77	8758
2026-01-06 09:34:22.92	75.13	8.73	-49.8	-53.6	19.5	6.07e-01	0	43	0	5767168	71	5527
2026-01-06 09:34:24.92	74.78	8.81	-48.5	-51.7	21.4	6.07e-01	0	43	0	9437184	68	5224
2026-01-06 09:34:26.93	74.44	8.90	-49.8	-53.6	19.6	6.07e-01	0	43	0	13107200	70	5827
2026-01-06 09:34:28.93	74.09	8.99	-52.5	-59.9	13.4	6.11e-01	0	43	0	17301504	75	9004
2026-01-06 09:34:30.93	73.74	9.07	-51.5	-56.7	16.7	6.08e-01	0	43	0	20971520	74	6592
2026-01-06 09:34:32.93	73.39	9.16	-53.6	-68.5	5.2	7.03e-01	0	43	0	24117248	77	21588
2026-01-06 09:34:34.92	73.04	9.24	-53.5	-63.3	10.2	6.26e-01	0	43	0	27262976	77	11939
2026-01-06 09:34:36.93	72.68	9.33	-51.2	-56.0	17.3	6.09e-01	0	43	0	30932992	74	6092
2026-01-06 09:34:38.93	72.33	9.41	-49.8	-53.6	19.7	6.04e-01	0	43	0	34603008	71	5475
2026-01-06 09:34:40.93	71.97	9.50	-48.8	-52.2	21.0	6.07e-01	0	43	0	38797312	69	5224
2026-01-06 09:34:42.93	71.61	9.58	-48.3	-51.3	21.9	6.06e-01	0	43	0	42467328	68	5009
2026-01-06 09:34:44.94	71.24	9.66	-48.1	-51.0	22.2	6.10e-01	0	43	0	46137344	68	4815
2026-01-06 09:34:46.94	70.87	9.74	-48.1	-51.0	22.2	6.04e-01	0	43	0	49807360	68	4831
2026-01-06 09:34:48.95	70.50	9.82	-48.2	-51.0	22.1	6.06e-01	0	43	0	53477376	68	4863
2026-01-06 09:34:50.94	70.13	9.90	-48.1	-51.0	22.2	6.07e-01	0	43	0	57147392	68	4865
2026-01-06 09:34:52.95	69.76	9.98	-48.1	-51.1	22.1	6.06e-01	0	43	0	61341696	68	4891
2026-01-06 09:34:54.95	69.38	10.05	-48.0	-51.0	22.1	6.09e-01	0	43	0	65011712	67	5106
2026-01-06 09:34:56.96	69.01	10.13	-48.1	-51.0	22.0	6.06e-01	0	43	0	68681728	67	5157
2026-01-06 09:34:58.96	68.63	10.21	-48.0	-50.9	22.1	6.07e-01	0	43	0	72351744	67	5086
2026-01-06 09:35:00.97	68.24	10.28	-47.9	-50.9	22.2	6.08e-01	0	43	0	76021760	67	5060
2026-01-06 09:35:02.97	67.86	10.36	-47.8	-50.9	22.2	6.08e-01	0	43	0	79691776	67	5043
2026-01-06 09:35:04.97	67.47	10.43	-47.8	-50.8	22.3	6.06e-01	0	43	0	83886080	67	5008
2026-01-06 09:35:06.98	67.08	10.50	-47.9	-50.8	22.3	6.08e-01	0	43	0	87556096	67	5030
2026-01-06 09:35:08.98	66.69	10.57	-47.9	-50.8	22.3	6.08e-01	0	43	0	91226112	67	4999
2026-01-06 09:35:10.98	66.30	10.64	-47.9	-50.7	22.3	6.08e-01	0	43	0	94896128	67	4978
2026-01-06 09:35:12.98	65.91	10.71	-47.9	-50.8	22.3	6.09e-01	0	43	0	98566144	67	5004
2026-01-06 09:35:14.98	65.51	10.78	-47.9	-50.7	22.4	6.07e-01	0	43	0	102236160	67	4961
2026-01-06 09:35:16.98	65.11	10.85	-47.9	-50.8	22.3	6.07e-01	0	43	0	106430464	67	5041
2026-01-06 09:35:18.96	64.72	10.91	-47.8	-50.6	22.1	6.05e-01	0	43	0	110100480	67	4926
2026-01-06 09:35:20.96	64.32	10.98	-47.8	-50.7	22.5	6.07e-01	0	43	0	113770496	67	4927
2026-01-06 09:35:22.97	63.91	11.04	-47.9	-50.7	22.4	6.06e-01	0	43	0	117440512	67	4945
2026-01-06 09:35:24.96	63.51	11.10	-47.9	-50.7	22.4	6.09e-01	0	43	0	121110528	67	4958
2026-01-06 09:35:26.96	63.10	11.17	-47.8	-50.7	22.4	6.07e-01	0	43	0	124780544	67	4969
2026-01-06 09:35:28.95	62.69	11.23	-47.7	-50.7	22.5	6.08e-01	0	43	0	128450560	67	4960
2026-01-06 09:35:30.95	62.28	11.28	-47.7	-50.7	22.5	6.08e-01	0	43	0	132120576	67	4928
2026-01-06 09:35:32.94	61.87	11.34	-47.7	-50.6	22.6	6.07e-01	0	43	0	136314880	67	4891
2026-01-06 09:35:34.93	61.46	11.40	-47.7	-50.6	21.0	6.08e-01	0	43	0	139984896	67	4903
2026-01-06 09:35:36.93	61.04	11.45	-47.8	-50.7	22.4	6.08e-01	0	43	0	143654912	67	4961
2026-01-06 09:35:38.94	60.62	11.51	-47.8	-50.7	22.4	6.07e-01	0	43	0	147324928	67	4970
2026-01-06 09:35:40.94	60.20	11.56	-47.8	-50.6	22.5	6.06e-01	0	43	0	150994944	67	4896
2026-01-06 09:35:42.94	59.78	11.61	-47.8	-50.5	22.6	6.07e-01	0	43	0	154664960	67	4857
2026-01-06 09:35:44.95	59.36	11.66	-47.7	-50.5	22.6	6.07e-01	0	43	0	158334976	67	4831
2026-01-06 09:35:46.95	58.93	11.71	-47.8	-50.7	22.5	6.06e-01	0	43	0	162529280	67	4934
2026-01-06 09:35:48.95	58.51	11.76	-47.8	-50.6	22.5	6.08e-01	0	43	0	166199296	67	4910
2026-01-06 09:35:50.95	58.08	11.81	-47.8	-50.6	22.5	6.10e-01	0	43	0	169869312	67	4906
2026-01-06 09:35:52.95	57.65	11.85	-47.8	-50.6	22.5	6.08e-01	0	43	0	173539328	67	4921
2026-01-06 09:35:54.95	57.22	11.90	-47.8	-50.6	22.5	6.08e-01	0	43	0	177209344	67	4912
2026-01-06 09:35:56.96	56.78	11.94	-47.8	-50.7	22.5	6.07e-01	0	43	0	181403648	67	4929
2026-01-06 09:35:58.97	56.35	11.98	-47.9	-50.8	22.4	6.07e-01	0	43	0	185073664	67	4997
2026-01-06 09:36:00.96	55.92	12.02	-47.8	-50.6	22.5	6.05e-01	0	43	0	188743680	67	4912
2026-01-06 09:36:02.97	55.48	12.06	-47.8	-50.5	22.6	6.09e-01	0	43	0	192413696	67	4870
2026-01-06 09:36:04.97	55.04	12.09	-47.8	-50.6	22.6	6.07e-01	0	43	0	196083712	67	4899
2026-01-06 09:36:06.97	54.61	12.13	-47.7	-50.7	22.5	6.07e-01	0	43	0	199753728	67	4929
2026-01-06 09:36:08.97	54.17	12.16	-47.7	-50.5	22.7	6.07e-01	0	43	0	203948032	67	4843
2026-01-06 09:36:10.97	53.73	12.19	-47.8	-50.6	22.6	6.08e-01	0	43	0	207618048	67	4908
2026-01-06 09:36:12.98	53.28	12.22	-47.8	-50.6	22.6	6.06e-01	0	43	0	211288064	67	4921
2026-01-06 09:36:14.98	52.84	12.25	-47.8	-50.6	22.6	6.08e-01	0	43	0	214958080	67	4908
2026-01-06 09:36:16.99	52.40	12.28	-47.7	-50.5	22.7	6.07e-01	0	43	0	218628096	67	4824
2026-01-06 09:36:18.99	51.95	12.31	-47.8	-50.6	22.5	6.09e-01	0	43	0	222298112	67	4921
2026-01-06 09:36:20.99	51.51	12.33	-47.7	-50.5	22.6	6.09e-01	0	43	0	225968128	67	4866
2026-01-06 09:36:22.99	51.06	12.35	-47.7	-50.6	22.6	6.07e-01	0	43	0	230162432	67	4891
2026-01-06 09:36:24.99	50.62	12.38	-47.7	-50.6	22.6	6.07e-01	0	43	0	233832448	67	4885
2026-01-06 09:36:26.99	50.17	12.40	-47.6	-50.5	22.7	6.09e-01	0	43	0	237502464	67	4838
2026-01-06 09:36:28.99	49.73	12.41	-47.8	-50.5	22.6	6.08e-01	0	43	0	241172480	67	4869
2026-01-06 09:36:30.99	49.28	12.43	-47.7	-50.5	22.6	6.06e-01	0	43	0	244842496	67	4860
2026-01-06 09:36:33.00	48.83	12.44	-48.0	-60.3	3.7	7.49e-01	0	43	104	245366784	67	14959
2026-01-06 09:36:35.00	48.38	12.46	-48.8	-61.4	3.8	7.47e-01	0	43	104	245366784	68	16068
2026-01-06 09:36:37.00	47.93	12.47	-54.0	-73.1	3.8	7.49e-01	0	43	104	245366784	78	34789
2026-01-06 09:36:39.00	47.48	12.48	-52.7	-70.2	3.7	7.44e-01	0	43	104	245366784	76	27999
2026-01-06 09:36:41.01	47.03	12.49	-50.1	-63.4	3.8	7.47e-01	0	43	104	245366784	72	16025
2026-01-06 09:36:43.01	46.58	12.49	-49.8	-63.3	3.8	7.45e-01	0	43	104	245366784	71	16709
2026-01-06 09:36:45.01	46.13	12.50	-50.6	-64.3	3.9	7.43e-01	0	43	104	245366784	73	16756
2026-01-06 09:36:47.02	45.68	12.50	-50.2	-64.8	3.6	7.54e-01	0	43	104	245366784	72	18760
2026-01-06 09:36:49.01	45.23	12.50	-50.2	-64.3	4.1	7.34e-01	0	43	104	245366784	71	18845
2026-01-06 09:36:51.02	44.78	12.51	-49.5	-63.6	4.0	7.53e-01	0	43	104	245366784	70	18444
2026-01-06 09:36:53.02	44.33	12.50	-50.9	-68.2	3.8	7.47e-01	0	43	104	245366784	72	27945
2026-01-06 09:36:55.02	43.88	12.50	-51.7	-73.1	3.8	7.46e-01	0	43	104	245366784	74	43674
2026-01-06 09:36:57.02	43.43	12.50	-52.6	-69.5	3.8	7.40e-01	0	43	104	245366784	75	27342
2026-01-06 09:36:59.03	42.97	12.49	-49.5	-63.1	3.8	7.45e-01	0	43	104	245366784	71	16317
2026-01-06 09:37:01.01	42.53	12.48	-49.5	-62.5	3.8	7.47e-01	0	43	104	245366784	70	16265
2026-01-06 09:37:03.01	42.08	12.47	-50.8	-64.2	3.8	7.38e-01	0	43	104	245366784	72	17610
2026-01-06 09:37:05.01	41.63	12.46	-50.7	-64.7	3.8	7.46e-01	0	43	104	245366784	73	17622
2026-01-06 09:37:07.01	41.18	12.45	-49.8	-63.6	3.8	7.45e-01	0	43	104	245366784	71	17428
2026-01-06 09:37:09.01	40.73	12.43	-49.5	-63.0	3.9	7.47e-01	0	43	104	245366784	70	17206
2026-01-06 09:37:11.02	40.28	12.42	-49.6	-63.1	3.8	7.43e-01	0	43	104	245366784	69	18462
2026-01-06 09:37:13.02	39.84	12.40	-53.3	-73.1	3.8	7.44e-01	0	43	104	245366784	77	36874
2026-01-06 09:37:15.02	39.39	12.38	-52.0	-69.1	3.8	7.44e-01	0	43	104	245366784	74	27657
2026-01-06 09:37:17.03	38.94	12.36	-48.7	-63.2	3.8	7.45e-01	0	43	104	245366784	69	18727
2026-01-06 09:37:19.03	38.50	12.34	-46.4	-61.0	3.8	7.46e-01	0	43	104	245366784	64	19364
2026-01-06 09:37:21.03	38.05	12.31	-46.6	-64.1	3.8	7.48e-01	0	43	104	245366784	64	27425
2026-01-06 09:37:23.04	37.61	12.29	-46.7	-64.7	3.8	7.44e-01	0	43	104	245366784	65	27982
2026-01-06 09:37:25.04	37.17	12.26	-47.6	-64.1	3.8	7.47e-01	0	43	104	245366784	65	26105
2026-01-06 09:37:27.05	36.72	12.23	-49.0	-63.1	3.8	7.44e-01	0	43	104	245366784	68	19507
2026-01-06 09:37:29.05	36.28	12.20	-48.8	-61.9	3.8	7.44e-01	0	43	104	245366784	68	16913
2026-01-06 09:37:31.06	35.84	12.17	-52.0	-73.1	3.8	7.47e-01	0	43	104	245366784	75	41369
2026-01-06 09:37:33.06	35.40	12.14	-52.3	-69.1	3.9	7.45e-01	0	43	104	245366784	75	26090
2026-01-06 09:37:35.07	34.96	12.10	-50.5	-63.6	3.8	7.45e-01	0	43	104	245366784	72	16444
2026-01-06 09:37:37.07	34.53	12.07	-49.8	-63.3	3.8	7.47e-01	0	43	104	245366784	71	16775
2026-01-06 09:37:39.07	34.09	12.03	-49.0	-64.1	3.8	7.47e-01	0	43	104	245366784	69	20725
2026-01-06 09:37:41.08	33.66	11.99	-50.3	-64.6	3.8	7.47e-01	0	43	104	245366784	72	18478
2026-01-06 09:37:43.09	33.22	11.95	-50.6	-63.9	3.8	7.45e-01	0	43	104	245366784	71	18065
2026-01-06 09:37:45.09	32.79	11.91	-49.1	-62.2	3.8	7.43e-01	0	43	104	245366784	70	15610
2026-01-06 09:37:47.09	32.36	11.86	-50.0	-63.6	3.8	7.46e-01	0	43	104	245366784	70	18407
2026-01-06 09:37:49.09	31.93	11.82	-52.7	-73.1	3.8	7.42e-01	0	43	104	245366784	76	39018
2026-01-06 09:37:51.10	31.51	11.77	-51.8	-68.7	3.9	7.46e-01	0	43	104	245366784	74	26424
2026-01-06 09:37:53.11	31.08	11.72	-49.5	-62.9	3.8	7.42e-01	0	43	104	245366784	70	16893
2026-01-06 09:37:55.11	30.65	11.68	-49.0	-61.6	3.8	7.42e-01	0	43	104	245366784	70	14596
2026-01-06 09:37:57.11	30.23	11.63	-50.5	-64.2	3.8	7.45e-01	0	43	104	245366784	71	18574
2026-01-06 09:37:59.12	29.81	11.57	-50.7	-64.7	3.8	7.47e-01	0	43	104	245366784	73	17584
2026-01-06 09:38:01.12	29.39	11.52	-50.3	-63.8	3.8	7.43e-01	0	43	104	245366784	72	16832
2026-01-06 09:38:03.12	28.97	11.47	-49.5	-62.6	3.8	7.46e-01	0	43	104	245366784	71	15428
2026-01-06 09:38:05.13	28.56	11.41	-48.4	-61.4	3.8	7.45e-01	0	43	104	245366784	68	16126
2026-01-06 09:38:07.13	28.14	11.36	-53.5	-73.1	3.8	7.43e-01	0	44	104	245366784	77	36915
2026-01-06 09:38:09.14	27.73	11.30	-52.5	-68.3	3.8	7.43e-01	0	43	104	245366784	75	23586
2026-01-06 09:38:11.15	27.32	11.24	-49.9	-62.9	3.8	7.43e-01	0	43	104	245366784	71	15992
2026-01-06 09:38:13.15	26.91	11.18	-49.1	-61.7	3.8	7.43e-01	0	43	104	245366784	70	14719
2026-01-06 09:38:15.16	26.50	11.12	-50.7	-64.2	3.8	7.45e-01	0	43	104	245366784	71	18593
2026-01-06 09:38:17.17	26.09	11.05	-50.6	-64.9	3.8	7.47e-01	0	43	104	245366784	73	18006
2026-01-06 09:38:19.17	25.69	10.99	-49.7	-63.7	3.8	7.47e-01	0	43	104	245366784	71	17614
2026-01-06 09:38:21.17	25.29	10.93	-48.4	-62.3	3.8	7.44e-01	0	43	104	245366784	68	17699
2026-01-06 09:38:23.18	24.89	10.86	-49.1	-63.1	3.8	7.46e-01	0	43	104	245366784	69	18448
2026-01-06 09:38:25.18	24.49	10.79	-51.2	-73.2	3.8	7.48e-01	0	44	104	245366784	73	46619
2026-01-06 09:38:27.18	24.10	10.73	-51.6	-68.0	3.9	7.45e-01	0	43	104	245366784	74	24216
2026-01-06 09:38:29.18	23.70	10.66	-49.6	-62.9	3.8	7.45e-01	0	44	104	245366784	71	16050
2026-01-06 09:38:31.19	23.31	10.59	-49.0	-61.7	3.8	7.44e-01	0	43	104	245366784	70	14744
2026-01-06 09:38:33.19	22.92	10.52	-50.7	-64.3	3.8	7.45e-01	0	44	104	245366784	71	18883
2026-01-06 09:38:35.20	22.53	10.44	-50.9	-64.9	3.9	7.47e-01	0	43	104	245366784	73	17945
2026-01-06 09:38:37.20	22.15	10.37	-49.8	-63.8	3.8	7.44e-01	0	43	104	245366784	71	17869
2026-01-06 09:38:39.20	21.77	10.30	-48.4	-62.4	3.8	7.44e-01	0	44	104	245366784	68	17967
2026-01-06 09:38:41.20	21.39	10.22	-47.4	-62.3	3.8	7.51e-01	0	43	104	245366784	66	19970
2026-01-06 09:38:43.20	21.01	10.15	-51.0	-73.2	3.8	7.45e-01	0	43	104	245366784	73	46760
2026-01-06 09:38:45.21	20.63	10.07	-48.9	-67.5	3.8	7.44e-01	0	43	104	245366784	68	32273
2026-01-06 09:38:47.21	20.26	9.99	-48.0	-62.8	3.8	7.43e-01	0	43	104	245366784	68	18932
2026-01-06 09:38:49.21	19.89	9.92	-48.1	-62.6	3.8	7.43e-01	0	43	104	245366784	67	19606
2026-01-06 09:38:51.21	19.52	9.84	-49.3	-65.0	3.8	7.44e-01	0	43	104	245366784	69	22800
2026-01-06 09:38:53.21	19.15	9.76	-49.7	-65.2	3.8	7.45e-01	0	43	104	245366784	71	21005
2026-01-06 09:38:55.21	18.78	9.68	-49.5	-64.1	3.8	7.48e-01	0	44	104	245366784	70	19586
2026-01-06 09:38:57.21	18.42	9.60	-48.8	-62.3	3.8	7.44e-01	0	43	104	245366784	69	16746
2026-01-06 09:38:59.22	18.06	9.52	-49.1	-61.9	3.8	7.45e-01	0	43	104	245366784	69	16085
2026-01-06 09:39:01.21	17.70	9.43	-52.0	-73.2	3.8	7.46e-01	0	43	104	245366784	74	43936
2026-01-06 09:39:03.22	17.34	9.35	-50.9	-67.2	3.8	7.47e-01	0	43	104	245366784	72	24881
2026-01-06 09:39:05.22	16.99	9.27	-49.9	-63.9	3.8	7.48e-01	0	43	104	245366784	71	17941
2026-01-06 09:39:07.23	16.64	9.18	-49.4	-63.5	3.8	7.43e-01	0	43	104	245366784	70	18110
2026-01-06 09:39:09.23	16.29	9.10	-49.8	-64.6	3.8	7.43e-01	0	43	104	245366784	70	20758
2026-01-06 09:39:11.24	15.94	9.01	-50.4	-66.1	3.8	7.45e-01	0	43	104	245366784	72	21977
2026-01-06 09:39:13.24	15.59	8.92	-52.6	-74.8	3.8	7.48e-01	0	43	104	245366784	77	44475
2026-01-06 09:39:15.25	15.25	8.84	-54.0	-74.9	3.8	7.42e-01	0	44	104	245366784	78	42874
2026-01-06 09:39:17.25	14.91	8.75	-54.7	-75.0	3.8	7.43e-01	0	43	104	245366784	79	40954
2026-01-06 09:39:19.26	14.57	8.66	-54.0	-75.1	3.8	7.47e-01	0	43	104	245366784	79	41320
2026-01-06 09:39:21.26	14.23	8.57	-54.7	-75.1	3.8	7.48e-01	0	44	104	245366784	80	39059
2026-01-06 09:39:23.27	13.90	8.48	-54.3	-75.1	3.8	7.47e-01	0	43	104	245366784	80	39092
2026-01-06 09:39:25.27	13.57	8.39	-55.2	-75.2	3.8	7.43e-01	0	43	104	245366784	80	39408
2026-01-06 09:39:27.27	13.24	8.30	-54.8	-75.2	3.8	7.48e-01	0	43	104	245366784	81	37251
2026-01-06 09:39:29.28	12.91	8.21	-55.1	-75.2	3.8	7.46e-01	0	43	104	245366784	81	37084
2026-01-06 09:39:31.28	12.59	8.12	-55.1	-75.2	3.8	7.44e-01	0	44	104	245366784	81	37112
2026-01-06 09:39:33.29	12.26	8.03	-54.9	-75.2	3.8	7.48e-01	0	44	104	245366784	81	37064
2026-01-06 09:39:35.29	11.94	7.94	-54.8	-75.2	3.8	7.49e-01	0	44	104	245366784	80	39313
2026-01-06 09:39:37.30	11.62	7.84	-54.2	-75.1	3.8	7.47e-01	0	44	104	245366784	80	39049
2026-01-06 09:39:39.30	11.31	7.75	-54.2	-75.1	3.8	7.46e-01	0	43	104	245366784	80	39090
2026-01-06 09:39:41.31	10.99	7.66	-54.2	-75.1	3.8	7.44e-01	0	43	104	245366784	80	39013
2026-01-06 09:39:43.31	10.68	7.56	-54.2	-75.1	3.8	7.44e-01	0	44	104	245366784	80	39037
2026-01-06 09:39:45.32	10.37	7.47	-54.2	-75.1	3.8	7.46e-01	0	43	104	245366784	80	38962
2026-01-06 09:39:47.33	10.06	7.37	-54.2	-75.1	3.8	7.46e-01	0	44	104	245366784	80	38900
2026-01-06 09:39:49.33	9.76	7.28	-54.2	-75.1	3.8	7.46e-01	0	43	104	245366784	80	39051
2026-01-06 09:39:51.33	9.46	7.19	-54.2	-75.1	3.8	7.46e-01	0	43	104	245366784	80	39024
2026-01-06 09:39:53.34	9.16	7.09	-54.2	-75.1	3.8	7.45e-01	0	43	104	245366784	80	38972
2026-01-06 09:39:55.34	8.86	6.99	-54.2	-75.1	3.8	7.47e-01	0	43	104	245366784	80	38878
2026-01-06 09:39:57.35	8.56	6.90	-54.2	-75.1	3.8	7.49e-01	0	44	104	245366784	80	38885
2026-01-06 09:39:59.36	8.27	6.80	-54.2	-75.1	3.8	7.47e-01	0	44	104	245366784	80	38791
2026-01-06 09:40:01.36	7.98	6.71	-54.2	-75.1	3.8	7.46e-01	0	43	104	245366784	80	38736
2026-01-06 09:40:03.37	7.69	6.61	-54.2	-75.1	3.8	7.47e-01	0	44	104	245366784	80	38978
2026-01-06 09:40:05.37	7.40	6.51	-54.2	-75.1	3.8	7.43e-01	0	44	104	245366784	80	38821
2026-01-06 09:40:07.38	7.11	6.41	-54.2	-75.1	3.8	7.47e-01	0	44	104	245366784	80	38853
2026-01-06 09:40:09.38	6.83	6.32	-54.2	-75.1	3.8	7.47e-01	0	44	104	245366784	80	38791
2026-01-06 09:40:11.38	6.55	6.22	-54.2	-75.1	3.8	7.44e-01	0	43	104	245366784	80	38708
2026-01-06 09:40:13.39	6.27	6.12	-54.2	-75.1	3.8	7.48e-01	0	44	104	245366784	80	38764
2026-01-06 09:40:15.39	5.99	6.02	-54.2	-75.1	3.8	7.47e-01	0	43	104	245366784	80	38725
2026-01-06 09:40:17.40	5.72	5.93	-54.2	-75.1	3.8	7.46e-01	0	44	104	245366784	80	38825
2026-01-06 09:40:19.40	5.44	5.83	-54.2	-75.1	3.8	7.43e-01	0	43	104	245366784	80	38753
2026-01-06 09:40:21.40	5.17	5.73	-54.2	-75.1	3.8	7.45e-01	0	43	104	245366784	80	38695
2026-01-06 09:40:23.41	4.91	5.63	-54.2	-75.1	3.8	7.45e-01	0	44	104	245366784	80	38803
2026-01-06 09:40:25.41	4.64	5.53	-54.2	-75.1	3.8	7.46e-01	0	44	104	245366784	80	38802
2026-01-06 09:40:27.42	4.37	5.43	-54.1	-75.1	3.8	7.47e-01	0	44	104	245366784	80	38725
2026-01-06 09:40:29.42	4.11	5.33	-54.1	-75.1	3.8	7.42e-01	0	43	104	245366784	80	38694
2026-01-06 09:40:31.43	3.85	5.23	-54.1	-75.1	3.8	7.48e-01	0	44	104	245366784	80	38721
2026-01-06 09:40:33.43	3.59	5.14	-54.1	-75.1	3.8	7.47e-01	0	44	104	245366784	80	38804
2026-01-06 09:40:35.43	3.34	5.04	-54.1	-75.1	3.8	7.46e-01	0	44	104	245366784	80	38746

#Closed at: 2026-01-06 09:40:37
#Recorded file [245 MB]: D:/Data/31040_260106_123304.dat