passes_logs/2026/01/06/T1/T1__20260106_004359_SUOMI_NPP_rec.log

#Pass ID: 20260106_004359_SUOMI NPP
#Satellite: SUOMI NPP
#Configuration: NPP
#almurnet v.1.7.20251203
#Start time: 2026-01-06 00:44:00

#Version: 2.0.20230620
#Station: T1
#Location: 37.570604 lon 55.790049 lat
#TLE: 1 37849U 11061A   26004.95404768  .00000136  00000+0  85334-4 0  9991
#TLE: 2 37849  98.7801 307.0898 0002575  80.6707 279.4760 14.19522289735281

#Time	Az	El	Level	Level2	SNR	BER	BlckErr	Temp	State	Recorded	gain1	gain2
2026-01-06 00:44:00.87	10.44	5.09	-50.7	-66.3	3.8	1.49e+00	0	38	0	0	72	22290
2026-01-06 00:44:03.88	10.30	5.29	-50.7	-66.2	3.8	1.49e+00	0	39	104	0	73	20984
2026-01-06 00:44:06.90	10.15	5.50	-50.7	-66.2	3.8	1.49e+00	0	39	104	0	73	20976
2026-01-06 00:44:09.91	10.01	5.71	-50.7	-66.2	3.8	1.49e+00	0	39	104	0	73	20987
2026-01-06 00:44:12.92	9.86	5.92	-50.7	-66.2	3.8	1.49e+00	0	39	104	0	73	20913
2026-01-06 00:44:15.93	9.71	6.13	-50.7	-66.3	3.8	1.49e+00	0	39	104	0	73	21022
2026-01-06 00:44:18.95	9.55	6.34	-50.7	-66.2	3.8	1.49e+00	0	39	104	0	73	21010
2026-01-06 00:44:21.96	9.40	6.55	-50.7	-66.2	3.8	1.49e+00	0	39	104	0	73	20953
2026-01-06 00:44:24.97	9.24	6.77	-50.7	-66.2	3.8	1.49e+00	0	40	104	0	73	20959
2026-01-06 00:44:27.98	9.08	6.99	-50.7	-66.2	3.8	1.49e+00	0	40	104	0	73	21007
2026-01-06 00:44:31.00	8.91	7.20	-50.7	-66.2	3.8	1.49e+00	0	40	104	0	73	20966
2026-01-06 00:44:34.01	8.75	7.43	-50.7	-66.2	3.8	1.49e+00	0	40	104	0	73	20935
2026-01-06 00:44:37.02	8.58	7.65	-50.7	-66.2	3.8	1.49e+00	0	40	104	0	73	20944
2026-01-06 00:44:40.04	8.41	7.87	-50.7	-66.2	3.8	1.49e+00	0	40	104	0	73	20942
2026-01-06 00:44:43.05	8.23	8.10	-50.7	-66.2	3.8	1.49e+00	0	40	104	0	73	20974
2026-01-06 00:44:46.06	8.05	8.32	-50.7	-66.2	3.8	1.49e+00	0	40	104	0	73	20902
2026-01-06 00:44:49.07	7.87	8.55	-50.7	-66.2	3.8	1.49e+00	0	40	104	0	73	20967
2026-01-06 00:44:52.09	7.69	8.78	-50.7	-66.2	3.8	1.49e+00	0	40	104	0	73	20963
2026-01-06 00:44:55.10	7.50	9.02	-50.7	-66.2	3.8	1.49e+00	0	40	104	0	72	22244
2026-01-06 00:44:58.11	7.31	9.25	-50.7	-66.2	3.8	1.49e+00	0	40	104	0	72	22234
2026-01-06 00:45:01.12	7.12	9.49	-50.7	-66.3	3.8	1.49e+00	0	41	104	0	72	22345
2026-01-06 00:45:04.13	6.92	9.73	-50.7	-66.2	3.8	1.49e+00	0	40	104	0	72	22215
2026-01-06 00:45:07.15	6.72	9.97	-50.7	-66.3	3.8	1.49e+00	0	40	104	0	72	22308
2026-01-06 00:45:10.16	6.52	10.21	-50.7	-66.2	3.8	1.49e+00	0	41	104	0	72	22148
2026-01-06 00:45:13.17	6.31	10.45	-50.7	-66.2	3.8	1.49e+00	0	40	104	0	72	22257
2026-01-06 00:45:16.18	6.10	10.70	-50.7	-66.2	3.8	1.49e+00	0	41	104	0	72	22163
2026-01-06 00:45:19.20	5.88	10.95	-50.7	-66.2	3.8	1.49e+00	0	41	104	0	72	22220
2026-01-06 00:45:22.21	5.66	11.20	-50.7	-66.3	3.8	1.49e+00	0	41	104	0	72	22336
2026-01-06 00:45:25.22	5.44	11.45	-50.7	-66.2	3.8	1.49e+00	0	41	104	0	72	22162
2026-01-06 00:45:28.23	5.21	11.71	-50.7	-66.2	3.8	1.49e+00	0	41	104	0	72	22255
2026-01-06 00:45:31.24	4.98	11.96	-50.7	-66.2	3.8	1.49e+00	0	41	104	0	72	22247
2026-01-06 00:45:34.30	4.74	12.23	-50.7	-66.2	3.8	1.49e+00	0	41	104	0	72	22230
2026-01-06 00:45:37.22	4.51	12.48	-50.7	-66.2	3.8	1.49e+00	0	41	104	0	72	22238
2026-01-06 00:45:40.23	4.27	12.74	-50.7	-66.2	3.8	1.49e+00	0	41	104	0	72	22249
2026-01-06 00:45:43.24	4.02	13.01	-50.7	-66.2	3.8	1.49e+00	0	41	104	0	72	22151
2026-01-06 00:45:46.25	3.76	13.28	-50.7	-66.3	3.8	1.49e+00	0	41	104	0	72	22329
2026-01-06 00:45:49.27	3.50	13.55	-50.7	-66.2	3.8	1.49e+00	0	41	104	0	72	22215
2026-01-06 00:45:52.28	3.24	13.82	-50.7	-66.3	3.8	1.49e+00	0	41	104	0	72	22337
2026-01-06 00:45:55.29	2.97	14.10	-50.7	-66.2	3.8	1.49e+00	0	41	104	0	72	22204
2026-01-06 00:45:58.30	2.70	14.38	-50.7	-66.2	3.8	1.49e+00	0	41	104	0	72	22198
2026-01-06 00:46:01.36	2.41	14.66	-50.7	-66.2	3.8	1.49e+00	0	41	104	0	72	22130
2026-01-06 00:46:04.52	2.11	14.96	-50.7	-66.2	3.8	1.49e+00	0	41	104	0	72	22205
2026-01-06 00:46:07.48	1.83	15.24	-50.7	-66.2	3.8	1.49e+00	0	41	104	0	72	22215
2026-01-06 00:46:10.78	1.50	15.56	-50.7	-66.2	3.8	1.49e+00	0	41	104	0	72	22196
2026-01-06 00:46:13.51	1.23	15.82	-50.7	-66.2	3.8	1.49e+00	0	41	104	0	72	22122
2026-01-06 00:46:16.80	0.89	16.15	-50.7	-66.2	3.8	1.49e+00	0	41	104	0	72	22238
2026-01-06 00:46:19.53	0.60	16.42	-50.7	-66.2	3.8	1.49e+00	0	41	104	0	72	22109
2026-01-06 00:46:22.83	0.25	16.74	-50.7	-66.2	3.8	1.49e+00	0	41	104	0	72	22114
2026-01-06 00:46:25.56	359.95	17.02	-50.7	-66.2	3.8	1.49e+00	0	41	104	0	72	22220
2026-01-06 00:46:28.85	359.58	17.35	-50.7	-66.3	3.8	1.49e+00	0	41	104	0	72	22275
2026-01-06 00:46:31.58	359.27	17.63	-50.7	-66.2	3.8	1.49e+00	0	41	104	0	72	22191
2026-01-06 00:46:34.88	358.89	17.97	-50.7	-66.2	3.8	1.49e+00	0	41	104	0	72	22165
2026-01-06 00:46:37.60	358.57	18.26	-50.7	-66.2	3.8	1.49e+00	0	41	104	0	72	22201
2026-01-06 00:46:40.90	358.16	18.60	-50.7	-66.2	3.8	1.49e+00	0	41	104	0	72	22222
2026-01-06 00:46:43.63	357.83	18.89	-50.7	-66.2	3.8	1.49e+00	0	41	104	0	72	22143
2026-01-06 00:46:46.93	357.41	19.25	-50.7	-66.2	3.8	1.49e+00	0	41	104	0	72	22174
2026-01-06 00:46:49.64	357.06	19.54	-50.7	-66.2	3.8	1.49e+00	0	41	104	0	72	22091
2026-01-06 00:46:52.94	356.62	19.90	-50.7	-66.2	3.8	1.49e+00	0	41	104	0	72	22139
2026-01-06 00:46:55.66	356.25	20.20	-50.7	-66.2	3.8	1.49e+00	0	41	104	0	72	22141
2026-01-06 00:46:58.96	355.79	20.56	-50.7	-66.2	3.8	1.49e+00	0	41	104	0	72	22241
2026-01-06 00:47:01.69	355.41	20.87	-50.7	-66.2	3.8	1.49e+00	0	42	104	0	72	22173
2026-01-06 00:47:04.99	354.93	21.24	-50.7	-66.2	3.8	1.49e+00	0	41	104	0	72	22176
2026-01-06 00:47:07.71	354.53	21.55	-50.7	-66.2	3.8	1.49e+00	0	41	104	0	72	22190
2026-01-06 00:47:11.01	354.03	21.93	-50.7	-66.2	3.8	1.49e+00	0	41	104	0	72	22191
2026-01-06 00:47:13.74	353.60	22.24	-50.7	-66.2	3.8	1.49e+00	0	41	104	0	72	22217
2026-01-06 00:47:17.15	353.06	22.64	-50.7	-66.2	3.8	1.49e+00	0	41	104	0	72	22191
2026-01-06 00:47:19.87	352.62	22.96	-50.7	-66.2	3.8	1.49e+00	0	41	104	0	72	22184
2026-01-06 00:47:23.17	352.07	23.35	-50.7	-66.2	3.8	1.49e+00	0	41	104	0	72	22179
2026-01-06 00:47:25.90	351.61	23.67	-50.6	-66.2	3.8	1.49e+00	0	41	104	0	72	22114
2026-01-06 00:47:29.20	351.03	24.07	-50.7	-66.2	3.8	1.49e+00	0	42	104	0	72	22163
2026-01-06 00:47:31.92	350.55	24.39	-50.7	-66.2	3.8	1.49e+00	0	41	104	0	72	22156
2026-01-06 00:47:35.22	349.94	24.79	-50.7	-66.2	3.8	1.49e+00	0	42	104	0	72	22183
2026-01-06 00:47:37.95	349.43	25.13	-50.7	-66.2	3.8	1.49e+00	0	41	104	0	72	22098
2026-01-06 00:47:41.19	348.81	25.52	-50.6	-66.2	3.8	1.49e+00	0	41	104	0	72	22153
2026-01-06 00:47:44.06	348.25	25.88	-50.6	-66.2	3.8	1.49e+00	0	42	104	0	72	22192
2026-01-06 00:47:47.21	347.62	26.27	-50.6	-66.2	3.8	1.49e+00	0	41	104	0	72	22102
2026-01-06 00:47:50.08	347.03	26.62	-50.6	-66.2	3.8	1.49e+00	0	42	104	0	72	22096
2026-01-06 00:47:53.23	346.36	27.02	-50.6	-66.2	3.8	1.49e+00	0	41	104	0	72	22020
2026-01-06 00:47:56.11	345.74	27.38	-50.6	-66.2	3.8	1.49e+00	0	41	104	0	72	22171
2026-01-06 00:47:59.26	345.05	27.77	-50.6	-66.2	3.8	1.49e+00	0	41	104	0	72	22121
2026-01-06 00:48:02.13	344.40	28.13	-50.6	-66.2	3.8	1.49e+00	0	41	104	0	72	22023
2026-01-06 00:48:05.28	343.67	28.53	-50.6	-66.2	3.8	1.49e+00	0	41	104	0	72	22050
2026-01-06 00:48:08.22	342.97	28.90	-50.6	-66.2	3.8	1.49e+00	0	42	104	0	72	22115
2026-01-06 00:48:11.23	342.24	29.28	-50.6	-66.1	3.8	1.49e+00	0	42	104	0	72	21974
2026-01-06 00:48:14.24	341.49	29.66	-50.6	-66.1	3.8	1.49e+00	0	42	104	0	72	21985
2026-01-06 00:48:17.25	340.72	30.04	-50.6	-66.1	3.8	1.49e+00	0	42	104	0	72	22007
2026-01-06 00:48:20.26	339.93	30.41	-50.6	-66.2	3.8	1.49e+00	0	42	104	0	72	22093
2026-01-06 00:48:23.28	339.12	30.79	-50.6	-66.2	3.8	1.49e+00	0	42	104	0	72	22016
2026-01-06 00:48:26.29	338.30	31.17	-50.6	-66.1	3.8	1.49e+00	0	42	104	0	72	21989
2026-01-06 00:48:29.30	337.46	31.54	-50.6	-66.1	3.8	1.49e+00	0	42	104	0	72	21986
2026-01-06 00:48:32.33	336.59	31.91	-50.6	-66.1	3.8	1.49e+00	0	41	104	0	72	21987
2026-01-06 00:48:35.43	335.68	32.29	-50.6	-66.2	3.8	1.49e+00	0	42	104	0	72	22090
2026-01-06 00:48:38.52	334.75	32.66	-50.6	-66.1	3.8	1.49e+00	0	41	104	0	72	21953
2026-01-06 00:48:41.62	333.79	33.03	-50.6	-66.1	3.8	1.49e+00	0	42	104	0	72	21971
2026-01-06 00:48:44.66	332.83	33.39	-50.6	-66.1	3.8	1.49e+00	0	42	104	0	72	21954
2026-01-06 00:48:47.67	331.87	33.74	-50.6	-66.1	3.8	1.49e+00	0	42	104	0	72	22005
2026-01-06 00:48:50.68	330.88	34.09	-50.6	-66.2	3.8	1.49e+00	0	42	104	0	72	22038
2026-01-06 00:48:53.70	329.86	34.43	-50.6	-66.1	3.8	1.49e+00	0	42	104	0	72	21915
2026-01-06 00:48:56.71	328.83	34.76	-50.6	-66.1	3.8	1.49e+00	0	42	104	0	72	21998
2026-01-06 00:48:59.72	327.78	35.08	-50.6	-66.2	3.8	1.49e+00	0	41	104	0	72	22030
2026-01-06 00:49:02.74	326.70	35.40	-50.6	-66.1	3.8	1.49e+00	0	41	104	0	72	22005
2026-01-06 00:49:05.75	325.60	35.70	-50.6	-66.1	3.8	1.49e+00	0	42	104	0	72	21945
2026-01-06 00:49:08.76	324.49	36.00	-50.6	-66.1	3.8	1.49e+00	0	42	104	0	72	21923
2026-01-06 00:49:11.78	323.35	36.29	-50.6	-66.2	3.8	1.49e+00	0	42	104	0	72	22010
2026-01-06 00:49:14.79	322.19	36.57	-50.6	-66.2	3.8	1.49e+00	0	42	104	0	72	22008
2026-01-06 00:49:17.80	321.01	36.84	-50.6	-66.1	3.8	1.49e+00	0	42	104	0	72	21918
2026-01-06 00:49:20.81	319.82	37.09	-50.6	-66.1	3.8	1.49e+00	0	42	104	0	72	21997
2026-01-06 00:49:23.83	318.60	37.33	-50.6	-66.1	3.8	1.49e+00	0	42	104	0	72	21980
2026-01-06 00:49:26.84	317.37	37.56	-50.6	-66.1	3.8	1.49e+00	0	42	104	0	72	21970
2026-01-06 00:49:29.85	316.12	37.77	-50.6	-66.2	3.8	1.49e+00	0	42	104	0	72	22026
2026-01-06 00:49:33.09	314.76	37.99	-50.6	-66.2	3.8	1.49e+00	0	42	104	0	72	22036
2026-01-06 00:49:35.96	313.53	38.17	-50.6	-66.2	3.8	1.49e+00	0	42	104	0	72	22027
2026-01-06 00:49:39.12	312.17	38.34	-50.6	-66.1	3.8	1.49e+00	0	42	104	0	72	21981
2026-01-06 00:49:41.99	310.93	38.49	-50.6	-66.2	3.8	1.49e+00	0	42	104	0	72	22022
2026-01-06 00:49:45.14	309.55	38.63	-50.6	-66.2	3.8	1.49e+00	0	42	104	0	72	22064
2026-01-06 00:49:48.01	308.28	38.74	-50.6	-66.1	3.8	1.49e+00	0	42	104	0	72	21996
2026-01-06 00:49:51.17	306.87	38.85	-50.6	-66.2	3.8	1.49e+00	0	42	104	0	72	22033
2026-01-06 00:49:54.04	305.58	38.93	-50.6	-66.1	3.8	1.49e+00	0	42	104	0	72	21994
2026-01-06 00:49:57.19	304.17	39.00	-50.6	-66.1	3.8	1.49e+00	0	42	104	0	72	21942
2026-01-06 00:50:00.06	302.87	39.05	-50.6	-66.2	3.8	1.49e+00	0	42	104	0	72	22031
2026-01-06 00:50:03.44	301.34	39.08	-50.6	-66.2	3.8	1.49e+00	0	42	104	0	72	22032
2026-01-06 00:50:06.17	300.10	39.09	-50.6	-66.1	3.8	1.49e+00	0	42	104	0	72	21926
2026-01-06 00:50:09.47	298.61	39.08	-50.6	-66.1	3.8	1.49e+00	0	42	104	0	72	21912
2026-01-06 00:50:12.19	297.38	39.05	-50.6	-66.2	3.8	1.49e+00	0	42	104	0	72	22053
2026-01-06 00:50:15.59	295.84	39.00	-50.6	-66.1	3.8	1.49e+00	0	42	104	0	72	22001
2026-01-06 00:50:18.36	294.59	38.94	-50.6	-66.1	3.8	1.49e+00	0	42	104	0	72	22007
2026-01-06 00:50:21.81	293.05	38.85	-50.6	-66.2	3.8	1.49e+00	0	42	104	0	72	22016
2026-01-06 00:50:24.60	291.80	38.76	-50.6	-66.1	3.8	1.49e+00	0	42	104	0	72	22005
2026-01-06 00:50:27.90	290.34	38.63	-50.6	-66.2	3.8	1.49e+00	0	42	104	0	72	22053
2026-01-06 00:50:30.62	289.15	38.50	-50.6	-66.1	3.8	1.49e+00	0	42	104	0	72	21983
2026-01-06 00:50:33.92	287.71	38.34	-50.6	-66.2	3.8	1.49e+00	0	42	104	0	72	22017
2026-01-06 00:50:36.65	286.54	38.18	-50.6	-66.1	3.8	1.49e+00	0	42	104	0	72	21965
2026-01-06 00:50:39.95	285.13	37.98	-50.6	-66.2	3.8	1.49e+00	0	42	104	0	72	22031
2026-01-06 00:50:42.67	283.98	37.80	-50.6	-66.2	3.8	1.49e+00	0	42	104	0	72	22132
2026-01-06 00:50:45.97	282.61	37.57	-50.6	-66.2	3.8	1.49e+00	0	42	104	0	72	22041
2026-01-06 00:50:48.70	281.49	37.36	-50.6	-66.2	3.8	1.49e+00	0	42	104	0	72	22055
2026-01-06 00:50:52.00	280.15	37.10	-50.6	-66.2	3.8	1.49e+00	0	42	104	0	72	22052
2026-01-06 00:50:54.73	279.06	36.87	-50.6	-66.2	3.8	1.49e+00	0	42	104	0	72	22018
2026-01-06 00:50:58.02	277.77	36.58	-50.6	-66.2	3.8	1.49e+00	0	42	104	0	72	22072
2026-01-06 00:51:00.74	276.72	36.33	-50.6	-66.2	3.8	1.49e+00	0	42	104	0	72	22043
2026-01-06 00:51:04.04	275.47	36.01	-50.6	-66.2	3.8	1.49e+00	0	42	104	0	72	22127
2026-01-06 00:51:06.77	274.46	35.74	-50.6	-66.2	3.8	1.49e+00	0	42	104	0	72	22032
2026-01-06 00:51:10.07	273.25	35.40	-50.6	-66.1	3.8	1.49e+00	0	42	104	0	72	21986
2026-01-06 00:51:12.79	272.27	35.12	-50.6	-66.1	3.8	1.49e+00	0	42	104	0	72	22006
2026-01-06 00:51:16.09	271.11	34.76	-50.6	-66.1	3.8	1.49e+00	0	42	104	0	72	22005
2026-01-06 00:51:18.82	270.17	34.46	-50.6	-66.1	3.8	1.49e+00	0	42	104	0	72	21959
2026-01-06 00:51:22.12	269.06	34.09	-50.6	-66.2	3.8	1.49e+00	0	42	104	0	72	22067
2026-01-06 00:51:24.85	268.16	33.78	-50.6	-66.1	3.8	1.49e+00	0	42	104	0	72	21982
2026-01-06 00:51:28.14	267.09	33.39	-50.6	-66.2	3.8	1.49e+00	0	42	104	0	72	22050
2026-01-06 00:51:30.87	266.23	33.07	-50.6	-66.1	3.8	1.49e+00	0	42	104	0	72	21967
2026-01-06 00:51:34.17	265.21	32.68	-50.6	-66.1	3.8	1.49e+00	0	42	104	0	72	21970
2026-01-06 00:51:36.89	264.39	32.35	-50.6	-66.1	3.8	1.49e+00	0	42	104	0	72	21977
2026-01-06 00:51:40.20	263.41	31.94	-50.6	-66.2	3.8	1.49e+00	0	42	104	0	72	22081
2026-01-06 00:51:42.92	262.62	31.61	-50.6	-66.1	3.8	1.49e+00	0	42	104	0	72	21970
2026-01-06 00:51:46.22	261.69	31.20	-50.6	-66.1	3.8	1.49e+00	0	42	104	0	72	21931
2026-01-06 00:51:48.95	260.93	30.86	-50.6	-66.2	3.8	1.49e+00	0	42	104	0	72	22021
2026-01-06 00:51:52.25	260.04	30.44	-50.6	-66.2	3.8	1.49e+00	0	42	104	0	72	22021
2026-01-06 00:51:54.97	259.33	30.10	-50.6	-66.1	3.8	1.49e+00	0	42	104	0	72	21968
2026-01-06 00:51:58.27	258.48	29.68	-50.6	-66.2	3.8	1.49e+00	0	42	104	0	72	22040
2026-01-06 00:52:01.00	257.79	29.34	-50.6	-66.1	3.8	1.49e+00	0	42	104	0	72	21972
2026-01-06 00:52:04.30	256.98	28.92	-50.6	-66.1	3.8	1.49e+00	0	42	104	0	72	21994
2026-01-06 00:52:07.02	256.33	28.58	-50.6	-66.2	3.8	1.49e+00	0	42	104	0	72	22034
2026-01-06 00:52:10.32	255.56	28.16	-50.6	-66.2	3.8	1.49e+00	0	42	104	0	72	22026
2026-01-06 00:52:13.05	254.94	27.81	-50.6	-66.2	3.8	1.49e+00	0	42	104	0	72	22040
2026-01-06 00:52:16.35	254.20	27.40	-50.6	-66.1	3.8	1.49e+00	0	42	104	0	72	22001
2026-01-06 00:52:19.33	253.55	27.02	-50.6	-66.1	3.8	1.49e+00	0	42	104	0	72	21965
2026-01-06 00:52:22.73	252.83	26.60	-50.6	-66.2	3.8	1.49e+00	0	42	104	0	72	22090
2026-01-06 00:52:25.46	252.27	26.26	-50.6	-66.1	3.8	1.49e+00	0	42	104	0	72	21961
2026-01-06 00:52:28.76	251.60	25.85	-50.6	-66.2	3.8	1.49e+00	0	42	104	0	72	22017
2026-01-06 00:52:31.48	251.06	25.51	-50.6	-66.2	3.8	1.49e+00	0	42	104	0	72	22042
2026-01-06 00:52:34.86	250.41	25.09	-50.6	-66.2	3.8	1.49e+00	0	42	104	0	72	22036
2026-01-06 00:52:37.59	249.90	24.76	-50.6	-66.2	3.8	1.49e+00	0	42	104	0	72	22048
2026-01-06 00:52:40.89	249.29	24.36	-50.6	-66.2	3.8	1.49e+00	0	42	104	0	72	22021
2026-01-06 00:52:43.61	248.80	24.03	-50.6	-66.1	3.8	1.49e+00	0	42	104	0	72	21946
2026-01-06 00:52:46.91	248.23	23.63	-50.6	-66.1	3.8	1.49e+00	0	42	104	0	72	21922
2026-01-06 00:52:49.64	247.76	23.30	-50.6	-66.1	3.8	1.49e+00	0	42	104	0	72	21955
2026-01-06 00:52:52.94	247.21	22.91	-50.6	-66.1	3.8	1.49e+00	0	42	104	0	72	21930
2026-01-06 00:52:55.66	246.76	22.59	-50.6	-66.2	3.8	1.49e+00	0	42	104	0	72	22044
2026-01-06 00:52:58.96	246.23	22.21	-50.6	-66.1	3.8	1.49e+00	0	42	104	0	72	21985
2026-01-06 00:53:01.69	245.81	21.89	-50.6	-66.2	3.8	1.49e+00	0	42	104	0	72	22014
2026-01-06 00:53:04.99	245.30	21.51	-50.6	-66.1	3.8	1.49e+00	0	42	104	0	72	21998
2026-01-06 00:53:07.71	244.90	21.20	-50.6	-66.2	3.8	1.49e+00	0	42	104	0	72	22015
2026-01-06 00:53:11.01	244.42	20.83	-50.6	-66.2	3.8	1.49e+00	0	42	104	0	72	22014
2026-01-06 00:53:13.74	244.03	20.52	-50.6	-66.2	3.8	1.49e+00	0	42	104	0	72	22064
2026-01-06 00:53:17.03	243.57	20.16	-50.6	-66.1	3.8	1.49e+00	0	42	104	0	72	22005
2026-01-06 00:53:19.75	243.20	19.86	-50.6	-66.2	3.8	1.49e+00	0	42	104	0	72	22047
2026-01-06 00:53:23.05	242.76	19.49	-50.6	-66.2	3.8	1.49e+00	0	42	104	0	72	22008
2026-01-06 00:53:25.78	242.40	19.20	-50.6	-66.1	3.8	1.49e+00	0	42	104	0	72	21980
2026-01-06 00:53:29.08	241.98	18.84	-50.6	-66.1	3.8	1.49e+00	0	42	104	0	72	21996
2026-01-06 00:53:31.80	241.64	18.55	-50.6	-66.2	3.8	1.49e+00	0	42	104	0	72	22013
2026-01-06 00:53:35.10	241.23	18.20	-50.6	-66.2	3.8	1.49e+00	0	42	104	0	72	22046
2026-01-06 00:53:37.83	240.90	17.92	-50.6	-66.1	3.8	1.49e+00	0	42	104	0	72	21956
2026-01-06 00:53:41.12	240.52	17.58	-50.6	-66.1	3.8	1.49e+00	0	42	104	0	72	21999
2026-01-06 00:53:43.85	240.20	17.30	-50.6	-66.2	3.8	1.49e+00	0	42	104	0	72	22049
2026-01-06 00:53:47.15	239.83	16.96	-50.6	-66.2	3.8	1.49e+00	0	42	104	0	72	22018
2026-01-06 00:53:49.87	239.53	16.69	-50.6	-66.2	3.8	1.49e+00	0	42	104	0	72	22034
2026-01-06 00:53:53.17	239.18	16.36	-50.6	-66.2	3.8	1.49e+00	0	42	104	0	72	22046
2026-01-06 00:53:55.90	238.89	16.09	-50.6	-66.2	3.8	1.49e+00	0	42	104	0	72	22026
2026-01-06 00:53:59.20	238.54	15.76	-50.6	-66.1	3.8	1.49e+00	0	42	104	0	72	21955
2026-01-06 00:54:02.13	238.25	15.48	-50.6	-66.1	3.8	1.49e+00	0	42	104	0	72	21980
2026-01-06 00:54:05.15	237.94	15.19	-50.6	-66.1	3.8	1.49e+00	0	42	104	0	72	21955
2026-01-06 00:54:08.16	237.65	14.90	-50.6	-66.1	3.8	1.49e+00	0	42	104	0	72	21997
2026-01-06 00:54:11.17	237.36	14.61	-50.6	-66.1	3.8	1.49e+00	0	42	104	0	72	21959
2026-01-06 00:54:14.18	237.08	14.33	-50.6	-66.1	3.8	1.49e+00	0	42	104	0	72	21958
2026-01-06 00:54:17.19	236.80	14.05	-50.6	-66.1	3.8	1.49e+00	0	42	104	0	72	21866
2026-01-06 00:54:20.52	236.50	13.75	-50.6	-66.1	3.8	1.49e+00	0	42	104	0	72	21925
2026-01-06 00:54:23.25	236.26	13.50	-50.6	-66.1	3.8	1.49e+00	0	42	104	0	72	21939
2026-01-06 00:54:26.55	235.97	13.20	-50.6	-66.1	3.8	1.49e+00	0	42	104	0	72	21884
2026-01-06 00:54:29.44	235.73	12.94	-50.6	-66.1	3.8	1.49e+00	0	42	104	0	72	21870
2026-01-06 00:54:32.89	235.44	12.63	-50.6	-66.2	3.8	1.49e+00	0	42	104	0	72	22012
2026-01-06 00:54:35.62	235.21	12.39	-50.6	-66.1	3.8	1.49e+00	0	42	104	0	72	21955
2026-01-06 00:54:38.92	234.95	12.11	-50.6	-66.1	3.8	1.49e+00	0	42	104	0	72	21868
2026-01-06 00:54:41.65	234.73	11.87	-50.6	-66.1	3.8	1.49e+00	0	42	104	0	72	21988
2026-01-06 00:54:44.95	234.48	11.59	-50.6	-66.1	3.8	1.49e+00	0	42	104	0	72	21860
2026-01-06 00:54:47.67	234.27	11.36	-50.6	-66.1	3.8	1.49e+00	0	42	104	0	72	21913
2026-01-06 00:54:51.10	234.01	11.07	-50.6	-66.1	3.8	1.49e+00	0	42	104	0	72	21909
2026-01-06 00:54:53.82	233.81	10.84	-50.6	-66.1	3.8	1.49e+00	0	42	104	0	72	21948
2026-01-06 00:54:57.12	233.57	10.57	-50.6	-66.1	3.8	1.49e+00	0	42	104	0	72	21935
2026-01-06 00:54:59.85	233.38	10.35	-50.6	-66.1	3.8	1.49e+00	0	42	104	0	72	21878
2026-01-06 00:55:03.15	233.15	10.08	-50.6	-66.1	3.8	1.49e+00	0	42	104	0	72	21837
2026-01-06 00:55:05.87	232.96	9.86	-50.6	-66.1	3.8	1.49e+00	0	42	104	0	72	21916
2026-01-06 00:55:09.17	232.74	9.59	-50.6	-66.1	3.8	1.49e+00	0	42	104	0	72	21948
2026-01-06 00:55:11.89	232.56	9.38	-50.6	-66.1	3.8	1.49e+00	0	42	104	0	72	21861
2026-01-06 00:55:15.19	232.34	9.12	-50.6	-66.1	3.8	1.49e+00	0	42	104	0	72	21964
2026-01-06 00:55:18.12	232.16	8.89	-50.6	-66.1	3.8	1.49e+00	0	42	104	0	72	21916
2026-01-06 00:55:21.14	231.97	8.66	-50.6	-66.1	3.8	1.49e+00	0	42	104	0	72	22005
2026-01-06 00:55:24.15	231.78	8.43	-50.6	-66.1	3.8	1.49e+00	0	42	104	0	72	21913
2026-01-06 00:55:27.16	231.60	8.20	-50.6	-66.2	3.8	1.49e+00	0	42	104	0	72	22013
2026-01-06 00:55:30.17	231.41	7.97	-50.6	-66.1	3.8	1.49e+00	0	42	104	0	72	21977
2026-01-06 00:55:33.19	231.24	7.74	-50.6	-66.1	3.8	1.49e+00	0	42	104	0	72	21972
2026-01-06 00:55:36.20	231.06	7.52	-50.6	-66.1	3.8	1.49e+00	0	42	104	0	72	22005
2026-01-06 00:55:39.21	230.89	7.30	-50.6	-66.1	3.8	1.49e+00	0	42	104	0	72	21908
2026-01-06 00:55:42.22	230.72	7.08	-50.6	-66.1	3.8	1.49e+00	0	42	104	0	72	21996
2026-01-06 00:55:45.28	230.55	6.85	-50.6	-66.1	3.8	1.49e+00	0	42	104	0	72	21966
2026-01-06 00:55:48.69	230.36	6.61	-50.6	-66.1	3.8	1.49e+00	0	42	104	0	72	21933
2026-01-06 00:55:51.62	230.21	6.40	-50.6	-66.1	3.8	1.49e+00	0	42	104	0	72	21919
2026-01-06 00:55:54.91	230.03	6.16	-50.6	-66.1	3.8	1.49e+00	0	42	104	0	72	21976
2026-01-06 00:55:57.64	229.89	5.97	-50.6	-66.1	3.8	1.49e+00	0	42	104	0	72	21931
2026-01-06 00:56:00.94	229.72	5.74	-50.6	-66.1	3.8	1.49e+00	0	42	104	0	72	21993
2026-01-06 00:56:03.66	229.59	5.55	-50.6	-66.1	3.8	1.49e+00	0	42	104	0	72	21935
2026-01-06 00:56:06.96	229.42	5.32	-50.6	-66.1	3.8	1.49e+00	0	42	104	0	72	21952
2026-01-06 00:56:09.69	229.29	5.13	-50.6	-66.1	3.8	1.49e+00	0	42	104	0	72	21981

#Closed at: 2026-01-06 00:56:12
#Recorded file [0 MB]: D:/Data/31040_260106_034400.dat