passes_logs/2026/01/06/T1/T1__20260106_224453_SUOMI_NPP_rec.log

#Pass ID: 20260106_224453_SUOMI NPP
#Satellite: SUOMI NPP
#Configuration: NPP
#almurnet v.1.7.20251203
#Start time: 2026-01-06 22:44:54

#Version: 2.0.20230620
#Station: T1
#Location: 37.570604 lon 55.790049 lat
#TLE: 1 37849U 11061A   26005.94084933  .00000134  00000+0  84554-4 0  9990
#TLE: 2 37849  98.7803 308.0679 0002567  79.1029 281.0436 14.19522657735426

#Time	Az	El	Level	Level2	SNR	BER	BlckErr	Temp	State	Recorded	gain1	gain2
2026-01-06 22:44:54.87	24.40	5.09	-48.8	-64.5	3.8	1.49e+00	0	37	0	0	69	21724
2026-01-06 22:44:57.87	24.58	5.29	-48.8	-64.6	3.8	1.49e+00	0	37	104	0	68	23113
2026-01-06 22:45:00.89	24.76	5.49	-48.8	-64.6	3.8	1.49e+00	0	37	104	0	68	23097
2026-01-06 22:45:03.90	24.95	5.69	-48.8	-64.5	3.8	1.49e+00	0	37	104	0	68	22965
2026-01-06 22:45:06.91	25.14	5.89	-48.8	-64.5	3.8	1.49e+00	0	38	104	0	68	22991
2026-01-06 22:45:09.93	25.33	6.09	-48.8	-64.5	3.8	1.49e+00	0	38	104	0	68	22866
2026-01-06 22:45:12.94	25.52	6.30	-48.8	-64.6	3.8	1.49e+00	0	38	104	0	68	23085
2026-01-06 22:45:15.95	25.72	6.50	-48.8	-64.6	3.8	1.49e+00	0	38	104	0	68	23137
2026-01-06 22:45:18.96	25.92	6.71	-48.8	-64.6	3.8	1.49e+00	0	38	104	0	68	23124
2026-01-06 22:45:21.98	26.12	6.92	-48.8	-64.5	3.8	1.49e+00	0	38	104	0	68	22794
2026-01-06 22:45:24.99	26.33	7.13	-48.8	-64.4	3.8	1.49e+00	0	38	104	0	68	22593
2026-01-06 22:45:28.01	26.53	7.34	-48.8	-64.5	3.8	1.49e+00	0	38	104	0	68	22924
2026-01-06 22:45:31.02	26.74	7.56	-48.8	-64.5	3.8	1.49e+00	0	38	104	0	68	22982
2026-01-06 22:45:34.03	26.96	7.77	-48.8	-64.2	3.8	1.49e+00	0	38	104	0	68	22262
2026-01-06 22:45:37.04	27.17	7.99	-48.8	-64.3	3.8	1.49e+00	0	38	104	0	68	22295
2026-01-06 22:45:40.06	27.39	8.20	-48.8	-64.2	3.8	1.49e+00	0	39	104	0	68	22185
2026-01-06 22:45:43.07	27.61	8.42	-48.8	-63.6	3.8	1.49e+00	0	39	104	0	68	20697
2026-01-06 22:45:46.08	27.84	8.64	-48.7	-62.9	3.8	1.49e+00	0	39	104	0	68	19082
2026-01-06 22:45:49.09	28.07	8.87	-48.6	-60.4	4.4	1.34e+00	0	39	0	0	68	14243
2026-01-06 22:45:52.11	28.30	9.09	-48.3	-57.5	6.0	3.21e-01	0	39	0	5242880	68	10257
2026-01-06 22:45:55.17	28.54	9.32	-48.7	-61.2	3.9	5.83e-01	0	39	104	8388608	68	15582
2026-01-06 22:45:58.29	28.79	9.55	-44.9	-48.6	14.8	0.00e+00	0	39	0	12582912	61	5477
2026-01-06 22:46:01.16	29.02	9.77	-44.6	-48.0	15.3	0.00e+00	0	39	0	17825792	61	5140
2026-01-06 22:46:04.31	29.28	10.01	-44.5	-47.8	15.5	0.00e+00	0	39	0	24117248	60	5331
2026-01-06 22:46:07.18	29.51	10.24	-44.0	-47.1	16.3	0.00e+00	0	39	0	29360128	59	5169
2026-01-06 22:46:10.33	29.78	10.48	-43.7	-46.6	16.7	0.00e+00	0	39	0	35651584	59	4907
2026-01-06 22:46:13.20	30.02	10.71	-43.5	-46.2	17.1	0.00e+00	0	39	0	40894464	58	4955
2026-01-06 22:46:16.35	30.30	10.95	-43.2	-45.8	17.5	0.00e+00	0	39	0	47185920	58	4735
2026-01-06 22:46:19.21	30.55	11.18	-43.4	-46.1	17.2	0.00e+00	0	39	0	52428800	58	4923
2026-01-06 22:46:22.36	30.83	11.43	-43.5	-46.2	17.2	0.00e+00	0	39	0	57671680	58	4956
2026-01-06 22:46:25.22	31.09	11.67	-43.6	-46.5	16.9	0.00e+00	0	39	0	63963136	58	5116
2026-01-06 22:46:28.38	31.38	11.92	-43.7	-46.6	16.8	0.00e+00	0	39	0	69206016	58	5165
2026-01-06 22:46:31.25	31.65	12.16	-43.6	-46.6	16.8	0.00e+00	0	39	0	74448896	58	5162
2026-01-06 22:46:34.40	31.95	12.42	-43.4	-46.2	17.2	0.00e+00	0	39	0	80740352	58	4975
2026-01-06 22:46:37.26	32.23	12.66	-43.2	-45.9	17.5	0.00e+00	0	39	0	85983232	58	4795
2026-01-06 22:46:40.40	32.54	12.92	-43.2	-45.8	17.6	0.00e+00	0	39	0	92274688	58	4752
2026-01-06 22:46:43.27	32.83	13.16	-43.0	-45.6	17.8	0.00e+00	0	39	0	97517568	57	4887
2026-01-06 22:46:46.53	33.16	13.44	-43.1	-45.6	17.8	0.00e+00	0	39	0	103809024	57	4916
2026-01-06 22:46:49.38	33.45	13.69	-42.9	-45.4	18.0	0.00e+00	0	39	0	109051904	57	4782
2026-01-06 22:46:52.53	33.79	13.96	-43.1	-45.6	17.8	0.00e+00	0	39	0	114294784	57	4909
2026-01-06 22:46:55.39	34.09	14.21	-43.2	-45.8	17.6	0.00e+00	0	39	0	119537664	57	5032
2026-01-06 22:46:58.54	34.44	14.49	-43.5	-46.2	17.2	0.00e+00	0	40	0	125829120	57	5276
2026-01-06 22:47:01.41	34.75	14.74	-43.7	-46.5	17.1	0.00e+00	0	40	0	131072000	58	5120
2026-01-06 22:47:04.56	35.11	15.02	-43.6	-46.4	17.1	0.00e+00	0	40	0	137363456	58	5050
2026-01-06 22:47:07.42	35.44	15.28	-43.4	-46.1	17.4	0.00e+00	0	39	0	142606336	58	4920
2026-01-06 22:47:10.58	35.81	15.57	-43.5	-46.3	17.2	0.00e+00	0	40	0	148897792	58	5011
2026-01-06 22:47:13.44	36.15	15.83	-43.6	-46.4	17.2	0.00e+00	0	40	0	154140672	58	5044
2026-01-06 22:47:16.59	36.53	16.12	-43.8	-46.6	17.0	0.00e+00	0	40	0	159383552	58	5172
2026-01-06 22:47:19.45	36.88	16.39	-43.9	-46.6	16.9	0.00e+00	0	40	0	165675008	58	5210
2026-01-06 22:47:22.60	37.28	16.68	-43.9	-46.7	16.9	0.00e+00	0	40	0	170917888	58	5221
2026-01-06 22:47:25.72	37.67	16.98	-43.7	-46.4	17.2	0.00e+00	0	40	0	177209344	58	5061
2026-01-06 22:47:28.79	38.07	17.27	-43.8	-46.6	17.0	0.00e+00	0	40	0	182452224	58	5178
2026-01-06 22:47:32.30	38.54	17.60	-43.8	-46.5	17.1	0.00e+00	0	40	0	188743680	58	5117
2026-01-06 22:47:35.02	38.91	17.87	-43.9	-46.7	17.0	0.00e+00	0	40	0	193986560	58	5221
2026-01-06 22:47:38.31	39.36	18.19	-44.1	-46.8	16.8	0.00e+00	0	40	0	200278016	58	5331
2026-01-06 22:47:41.04	39.75	18.45	-44.0	-46.8	16.8	0.00e+00	0	40	0	205520896	58	5313
2026-01-06 22:47:44.36	40.22	18.78	-43.9	-46.7	17.0	0.00e+00	0	40	0	211812352	59	4929
2026-01-06 22:47:47.14	40.63	19.06	-44.1	-46.9	16.8	0.00e+00	0	40	0	217055232	59	5058
2026-01-06 22:47:50.57	41.14	19.40	-44.2	-47.0	16.7	0.00e+00	0	40	0	223346688	59	5117
2026-01-06 22:47:53.90	41.65	19.74	-43.7	-46.4	17.2	0.00e+00	0	40	0	229638144	59	4768
2026-01-06 22:47:56.85	42.11	20.04	-43.4	-45.9	17.7	0.00e+00	0	40	0	234881024	58	4814
2026-01-06 22:48:00.60	42.70	20.42	-43.4	-45.9	17.7	0.00e+00	0	40	0	242221056	58	4805
2026-01-06 22:48:03.41	43.16	20.71	-43.6	-46.2	17.4	0.00e+00	0	40	0	247463936	58	4952
2026-01-06 22:48:07.52	43.84	21.13	-42.8	-45.2	18.4	0.00e+00	0	40	0	255852544	57	4685
2026-01-06 22:48:10.26	44.30	21.42	-42.6	-45.0	18.6	0.00e+00	0	40	0	260046848	57	4552
2026-01-06 22:48:14.02	44.96	21.81	-42.8	-45.2	18.4	0.00e+00	0	40	0	267386880	56	4963
2026-01-06 22:48:16.92	45.47	22.12	-42.6	-45.0	18.6	0.00e+00	0	40	0	272629760	56	4827
2026-01-06 22:48:20.67	46.15	22.51	-42.6	-44.9	18.7	0.00e+00	0	40	0	279969792	56	4808
2026-01-06 22:48:23.52	46.68	22.82	-42.5	-44.8	18.8	0.00e+00	0	40	0	285212672	56	4727
2026-01-06 22:48:26.67	47.27	23.15	-42.3	-44.6	19.0	0.00e+00	0	40	0	291504128	56	4608
2026-01-06 22:48:29.62	47.84	23.47	-42.4	-44.6	19.0	0.00e+00	0	40	0	296747008	56	4648
2026-01-06 22:48:32.63	48.43	23.79	-41.7	-43.9	19.5	0.00e+00	0	40	0	301989888	55	4528
2026-01-06 22:48:36.27	49.17	24.19	-41.5	-43.6	19.7	0.00e+00	0	40	0	309329920	54	4630
2026-01-06 22:48:39.03	49.73	24.48	-41.8	-44.0	19.4	0.00e+00	0	40	0	314572800	54	4835
2026-01-06 22:48:42.80	50.52	24.89	-42.3	-44.6	18.9	0.00e+00	0	40	0	321912832	55	4884
2026-01-06 22:48:45.55	51.12	25.19	-42.2	-44.5	18.9	0.00e+00	0	40	0	327155712	55	4834
2026-01-06 22:48:49.18	51.91	25.59	-42.3	-44.6	18.9	0.00e+00	0	40	0	333447168	55	4895
2026-01-06 22:48:52.05	52.56	25.90	-42.2	-44.5	19.0	0.00e+00	0	40	0	338690048	55	4856
2026-01-06 22:48:55.20	53.28	26.24	-42.4	-44.7	18.8	0.00e+00	0	40	0	344981504	55	4978
2026-01-06 22:48:58.07	53.95	26.55	-42.7	-45.1	18.6	0.00e+00	0	40	0	350224384	56	4911
2026-01-06 22:49:01.22	54.70	26.89	-42.9	-45.3	18.4	0.00e+00	0	40	0	356515840	56	5019
2026-01-06 22:49:04.28	55.44	27.22	-43.4	-45.9	17.8	0.00e+00	0	40	0	361758720	57	5088
2026-01-06 22:49:07.58	56.26	27.58	-43.7	-46.2	17.6	0.00e+00	0	40	0	368050176	58	4982
2026-01-06 22:49:10.30	56.95	27.87	-43.9	-46.5	17.3	0.00e+00	0	40	0	373293056	58	5150
2026-01-06 22:49:13.49	57.78	28.21	-44.0	-46.7	17.1	0.00e+00	0	40	0	378535936	58	5267
2026-01-06 22:49:16.50	58.57	28.52	-44.6	-47.5	16.4	0.00e+00	0	40	0	384827392	59	5443
2026-01-06 22:49:19.51	59.38	28.84	-45.2	-48.3	15.5	0.00e+00	0	40	0	390070272	61	5335
2026-01-06 22:49:22.52	60.20	29.15	-45.5	-48.8	15.1	0.00e+00	0	40	0	396361728	61	5600
2026-01-06 22:49:25.53	61.04	29.46	-45.2	-48.5	15.4	0.00e+00	0	40	0	401604608	61	5432
2026-01-06 22:49:28.53	61.90	29.77	-45.5	-48.9	15.1	0.00e+00	0	40	0	406847488	62	5373
2026-01-06 22:49:31.54	62.77	30.07	-46.0	-49.5	14.4	0.00e+00	0	40	0	413138944	62	5785
2026-01-06 22:49:34.55	63.66	30.37	-46.5	-50.5	13.4	1.29e-05	0	40	0	418381824	63	6100
2026-01-06 22:49:37.56	64.57	30.67	-46.2	-49.9	14.0	2.20e-06	0	40	0	424673280	63	5714
2026-01-06 22:49:40.57	65.49	30.96	-46.5	-50.5	13.6	8.30e-06	0	40	0	429916160	63	6096
2026-01-06 22:49:43.93	66.54	31.28	-46.5	-50.6	13.3	1.67e-05	0	40	0	436207616	64	5795
2026-01-06 22:49:46.68	67.41	31.53	-46.2	-49.9	14.0	7.00e-07	0	40	0	441450496	64	5387
2026-01-06 22:49:49.97	68.47	31.83	-44.8	-47.8	16.2	7.00e-07	0	40	0	447741952	61	5020
2026-01-06 22:49:52.69	69.37	32.07	-45.9	-49.5	14.5	0.00e+00	0	40	0	452984832	62	5746
2026-01-06 22:49:56.15	70.52	32.37	-46.2	-49.8	14.3	4.50e-06	0	40	0	459276288	63	5656
2026-01-06 22:49:58.94	71.47	32.60	-44.8	-47.8	16.1	0.00e+00	0	40	0	464519168	61	5030
2026-01-06 22:50:02.23	72.60	32.86	-45.8	-49.2	14.8	0.00e+00	0	40	0	470810624	62	5531
2026-01-06 22:50:04.95	73.55	33.08	-46.6	-50.7	13.2	4.50e-06	0	40	0	476053504	64	5876
2026-01-06 22:50:08.24	74.72	33.32	-46.2	-50.0	13.9	3.80e-06	0	40	0	481296384	63	5775
2026-01-06 22:50:11.10	75.74	33.53	-46.3	-50.2	13.8	2.20e-06	0	40	0	486539264	63	5867
2026-01-06 22:50:14.71	77.06	33.77	-47.9	-53.4	10.4	3.66e-03	0	40	0	493879296	66	7160
2026-01-06 22:50:17.50	78.09	33.96	-47.0	-51.3	12.6	1.82e-04	0	40	0	499122176	65	5929
2026-01-06 22:50:21.05	79.42	34.17	-47.4	-52.3	11.4	6.62e-04	0	40	0	505413632	65	6703
2026-01-06 22:50:23.84	80.47	34.33	-46.0	-49.6	14.4	7.00e-07	0	40	0	510656512	63	5511
2026-01-06 22:50:27.05	81.69	34.50	-46.9	-51.5	12.4	7.01e-05	0	40	0	516947968	64	6457
2026-01-06 22:50:30.20	82.91	34.65	-45.5	-49.0	15.0	0.00e+00	0	40	0	523239424	62	5452
2026-01-06 22:50:33.05	84.02	34.78	-45.7	-49.3	14.7	7.00e-07	0	40	0	528482304	62	5614
2026-01-06 22:50:36.53	85.38	34.92	-45.9	-49.6	14.4	0.00e+00	0	40	0	534773760	62	5837
2026-01-06 22:50:39.38	86.51	35.03	-46.3	-50.4	13.6	6.10e-06	0	40	0	540016640	63	6008
2026-01-06 22:50:42.74	87.84	35.13	-46.8	-51.5	12.4	2.72e-04	0	40	0	546308096	64	6429
2026-01-06 22:50:45.46	88.93	35.20	-46.3	-50.3	13.7	4.50e-06	0	40	0	551550976	64	5615
2026-01-06 22:50:48.75	90.25	35.28	-46.8	-51.0	13.0	4.04e-05	0	40	0	557842432	64	6074
2026-01-06 22:50:51.62	91.41	35.33	-46.8	-51.2	12.8	8.23e-05	0	40	0	563085312	64	6225
2026-01-06 22:50:55.10	92.81	35.37	-47.9	-53.7	10.3	6.09e-03	0	40	0	569376768	66	7391
2026-01-06 22:50:57.86	93.93	35.39	-47.1	-51.8	12.2	7.09e-04	0	40	0	574619648	66	5927
2026-01-06 22:51:01.09	95.24	35.40	-45.5	-48.8	15.2	0.00e+00	0	40	0	580911104	63	5020
2026-01-06 22:51:04.58	96.65	35.39	-45.5	-48.7	15.3	0.00e+00	0	40	0	587202560	62	5269
2026-01-06 22:51:07.31	97.76	35.37	-47.7	-53.1	10.8	9.31e-04	0	41	0	592445440	66	6904
2026-01-06 22:51:10.60	99.09	35.33	-46.2	-50.0	13.9	2.59e-05	0	40	0	598736896	64	5446
2026-01-06 22:51:13.49	100.26	35.28	-46.1	-49.8	14.2	0.00e+00	0	40	0	603979776	63	5599
2026-01-06 22:51:16.74	101.56	35.21	-46.0	-49.5	14.5	0.00e+00	0	41	0	610271232	63	5444
2026-01-06 22:51:19.82	102.80	35.13	-48.2	-54.2	9.6	8.27e-03	0	40	0	615514112	66	7879
2026-01-06 22:51:22.82	103.99	35.04	-46.7	-50.7	13.2	4.34e-05	0	41	0	621805568	65	5548
2026-01-06 22:51:25.83	105.18	34.93	-47.5	-52.4	11.4	9.79e-04	0	40	0	627048448	66	6361
2026-01-06 22:51:28.93	106.40	34.81	-46.9	-51.3	12.5	1.67e-05	0	41	0	633339904	65	5931
2026-01-06 22:51:31.84	107.53	34.68	-47.0	-51.4	12.4	3.95e-04	0	40	0	638582784	66	5719
2026-01-06 22:51:34.85	108.70	34.54	-47.4	-52.2	11.7	1.56e-04	0	40	0	643825664	65	6584
2026-01-06 22:51:37.85	109.85	34.38	-47.5	-52.3	11.6	2.92e-03	0	40	0	650117120	66	6347
2026-01-06 22:51:40.94	111.02	34.21	-47.5	-52.3	11.6	2.90e-04	0	40	0	655360000	65	6682
2026-01-06 22:51:43.84	112.11	34.03	-45.8	-49.3	14.7	7.00e-07	0	40	0	660602880	63	5281
2026-01-06 22:51:46.98	113.28	33.84	-45.3	-48.5	15.5	0.00e+00	0	40	0	666894336	62	5134
2026-01-06 22:51:49.85	114.33	33.64	-44.6	-47.5	16.4	0.00e+00	0	40	0	672137216	61	4845
2026-01-06 22:51:53.00	115.47	33.42	-45.8	-49.3	14.6	0.00e+00	0	41	0	678428672	62	5640
2026-01-06 22:51:56.37	116.68	33.17	-45.1	-48.2	15.8	0.00e+00	0	40	0	684720128	62	4969
2026-01-06 22:51:59.09	117.64	32.96	-46.3	-50.1	13.8	3.00e-06	0	40	0	689963008	63	5809
2026-01-06 22:52:02.47	118.81	32.69	-44.3	-47.1	16.9	0.00e+00	0	40	0	696254464	60	4880
2026-01-06 22:52:05.32	119.79	32.46	-45.0	-48.0	15.9	0.00e+00	0	41	0	701497344	60	5460
2026-01-06 22:52:08.72	120.93	32.17	-44.4	-47.3	16.7	0.00e+00	0	40	0	707788800	60	4987
2026-01-06 22:52:11.45	121.84	31.93	-46.0	-49.9	14.1	7.00e-07	0	40	0	713031680	62	6026
2026-01-06 22:52:14.74	122.91	31.63	-43.2	-45.6	18.2	0.00e+00	0	41	0	719323136	58	4630
2026-01-06 22:52:17.51	123.80	31.37	-44.2	-47.0	16.8	0.00e+00	0	40	0	724566016	59	5132
2026-01-06 22:52:20.74	124.82	31.07	-43.4	-45.9	17.8	0.00e+00	0	41	0	729808896	58	4809
2026-01-06 22:52:23.89	125.79	30.77	-43.7	-46.2	17.6	0.00e+00	0	41	0	736100352	58	4981
2026-01-06 22:52:26.77	126.67	30.49	-43.4	-45.9	17.9	0.00e+00	0	41	0	741343232	58	4811
2026-01-06 22:52:29.93	127.61	30.17	-43.3	-45.8	17.9	0.00e+00	0	40	0	747634688	57	5031
2026-01-06 22:52:32.79	128.45	29.88	-44.5	-47.4	16.5	0.00e+00	0	40	0	752877568	60	5080
2026-01-06 22:52:36.09	129.40	29.55	-43.0	-45.5	18.3	0.00e+00	0	41	0	759169024	57	4828
2026-01-06 22:52:38.82	130.17	29.26	-44.6	-47.6	16.3	0.00e+00	0	40	0	764411904	60	5184
2026-01-06 22:52:42.11	131.08	28.92	-42.5	-44.9	18.8	0.00e+00	0	41	0	770703360	57	4530
2026-01-06 22:52:44.83	131.82	28.63	-44.6	-47.5	16.3	0.00e+00	0	40	0	774897664	59	5433
2026-01-06 22:52:48.05	132.68	28.29	-43.3	-45.8	17.9	0.00e+00	0	40	0	781189120	58	4749
2026-01-06 22:52:51.20	133.50	27.95	-43.2	-45.7	18.1	0.00e+00	0	40	0	787480576	57	4940
2026-01-06 22:52:54.07	134.24	27.65	-42.4	-44.7	19.0	0.00e+00	0	41	0	792723456	56	4652
2026-01-06 22:52:57.39	135.07	27.29	-42.6	-45.0	18.6	0.00e+00	0	41	0	799014912	55	5119
2026-01-06 22:53:00.11	135.74	26.99	-44.6	-47.6	16.3	0.00e+00	0	41	0	804257792	60	5203
2026-01-06 22:53:04.16	136.71	26.55	-42.8	-45.2	18.5	0.00e+00	0	40	0	811597824	57	4663
2026-01-06 22:53:06.92	137.36	26.25	-43.2	-45.7	18.0	0.00e+00	0	41	0	816840704	57	4982
2026-01-06 22:53:10.92	138.28	25.81	-41.3	-43.4	20.0	0.00e+00	0	40	0	824180736	54	4496
2026-01-06 22:53:13.67	138.90	25.51	-41.9	-44.1	19.3	0.00e+00	0	41	0	829423616	54	4921
2026-01-06 22:53:17.43	139.72	25.10	-42.8	-45.2	18.4	0.00e+00	0	40	0	836763648	56	4975
2026-01-06 22:53:20.24	140.33	24.79	-42.6	-44.9	18.7	0.00e+00	0	40	0	842006528	56	4799
2026-01-06 22:53:24.00	141.12	24.38	-43.2	-45.7	18.0	0.00e+00	0	41	0	848297984	57	4954
2026-01-06 22:53:26.77	141.69	24.08	-41.7	-44.0	19.4	0.00e+00	0	41	0	853540864	55	4546
2026-01-06 22:53:30.42	142.42	23.69	-40.9	-43.0	20.3	0.00e+00	0	41	0	860880896	53	4556
2026-01-06 22:53:33.28	142.98	23.38	-41.8	-44.1	19.4	0.00e+00	0	41	0	866123776	54	4872
2026-01-06 22:53:36.58	143.62	23.02	-41.7	-44.0	19.4	0.00e+00	0	41	0	872415232	54	4821
2026-01-06 22:53:39.69	144.20	22.69	-41.3	-43.4	19.9	0.00e+00	0	41	0	877658112	54	4510
2026-01-06 22:53:42.55	144.73	22.38	-41.7	-43.9	19.5	0.00e+00	0	41	0	883949568	54	4790
2026-01-06 22:53:45.70	145.30	22.04	-42.0	-44.3	19.1	0.00e+00	0	40	0	889192448	54	5040
2026-01-06 22:53:48.69	145.83	21.73	-41.8	-44.1	19.3	0.00e+00	0	41	0	895483904	54	4902
2026-01-06 22:53:52.08	146.42	21.37	-41.6	-43.9	19.5	0.00e+00	0	40	0	901775360	54	4771
2026-01-06 22:53:54.81	146.89	21.08	-41.9	-44.2	19.2	0.00e+00	0	41	0	907018240	54	4971
2026-01-06 22:53:58.10	147.44	20.74	-42.2	-44.6	18.8	0.00e+00	0	40	0	912261120	55	4903
2026-01-06 22:54:01.01	147.91	20.44	-42.0	-44.3	19.0	0.00e+00	0	41	0	918552576	55	4751
2026-01-06 22:54:04.01	148.39	20.13	-42.0	-44.3	19.1	0.00e+00	0	41	0	923795456	55	4716
2026-01-06 22:54:07.02	148.87	19.82	-42.0	-44.3	19.1	0.00e+00	0	40	0	929038336	55	4730
2026-01-06 22:54:10.02	149.33	19.51	-42.2	-44.5	18.9	0.00e+00	0	40	0	935329792	55	4842
2026-01-06 22:54:13.03	149.78	19.21	-43.1	-45.5	18.1	0.00e+00	0	41	0	940572672	56	5147
2026-01-06 22:54:16.04	150.23	18.91	-43.9	-46.6	17.1	0.00e+00	0	41	0	945815552	58	5206
2026-01-06 22:54:19.04	150.67	18.61	-43.7	-46.4	17.2	0.00e+00	0	41	0	952107008	58	5072
2026-01-06 22:54:22.05	151.10	18.31	-43.9	-46.6	17.1	0.00e+00	0	41	0	957349888	58	5187
2026-01-06 22:54:25.38	151.56	17.98	-44.4	-47.4	16.3	0.00e+00	0	41	0	963641344	59	5389
2026-01-06 22:54:28.34	151.97	17.69	-44.4	-47.5	16.2	0.00e+00	0	41	0	968884224	59	5406
2026-01-06 22:54:32.11	152.47	17.32	-43.7	-46.4	17.2	0.00e+00	0	40	0	976224256	59	4773
2026-01-06 22:54:34.92	152.84	17.05	-43.2	-45.8	17.7	0.00e+00	0	40	0	981467136	58	4756
2026-01-06 22:54:38.21	153.27	16.74	-43.2	-45.8	17.8	0.00e+00	0	41	0	987758592	58	4714
2026-01-06 22:54:40.93	153.61	16.48	-43.5	-46.2	17.4	0.00e+00	0	41	0	993001472	58	4956
2026-01-06 22:54:44.23	154.02	16.17	-43.6	-46.4	17.2	0.00e+00	0	41	0	999292928	58	5060
2026-01-06 22:54:46.98	154.36	15.92	-43.4	-46.0	17.5	0.00e+00	0	41	0	1004535808	58	4870
2026-01-06 22:54:50.34	154.76	15.60	-43.1	-45.7	17.8	0.00e+00	0	41	0	1010827264	58	4693
2026-01-06 22:54:53.73	155.16	15.29	-43.5	-46.2	17.4	0.00e+00	0	41	0	1017118720	58	4948
2026-01-06 22:54:56.91	155.53	15.00	-43.4	-46.2	17.4	0.00e+00	0	41	0	1023410176	58	4952
2026-01-06 22:54:59.78	155.86	14.74	-43.6	-46.3	17.3	0.00e+00	0	41	0	1028653056	58	5014
2026-01-06 22:55:02.99	156.21	14.46	-43.4	-46.1	17.4	0.00e+00	0	41	0	1033895936	58	4903
2026-01-06 22:55:05.85	156.53	14.20	-43.3	-45.9	17.6	0.00e+00	0	41	0	1040187392	58	4796
2026-01-06 22:55:09.12	156.88	13.91	-43.4	-46.0	17.4	0.00e+00	0	41	0	1045430272	58	4867
2026-01-06 22:55:11.87	157.17	13.67	-44.0	-46.8	16.7	0.00e+00	0	41	0	1050673152	58	5305
2026-01-06 22:55:15.09	157.50	13.39	-44.5	-47.5	16.0	0.00e+00	0	41	0	1056964608	59	5431
2026-01-06 22:55:18.22	157.82	13.12	-45.2	-48.7	14.9	0.00e+00	0	41	0	1063256064	61	5541
2026-01-06 22:55:21.09	158.11	12.88	-45.0	-48.4	15.2	0.00e+00	0	41	0	1068498944	61	5347
2026-01-06 22:55:24.30	158.43	12.61	-44.7	-47.9	15.6	0.00e+00	0	41	0	1074790400	61	5080
2026-01-06 22:55:27.17	158.70	12.36	-44.5	-47.6	16.0	0.00e+00	0	41	0	1080033280	60	5170
2026-01-06 22:55:30.69	159.04	12.07	-43.7	-46.4	17.0	0.00e+00	0	41	0	1086324736	59	4775
2026-01-06 22:55:33.46	159.30	11.84	-43.7	-46.4	17.0	0.00e+00	0	41	0	1091567616	59	4798
2026-01-06 22:55:36.75	159.60	11.57	-43.7	-46.4	17.0	0.00e+00	0	41	0	1097859072	59	4799
2026-01-06 22:55:39.48	159.85	11.35	-43.7	-46.5	16.9	0.00e+00	0	41	0	1103101952	59	4870
2026-01-06 22:55:42.74	160.14	11.09	-43.7	-46.5	17.0	0.00e+00	0	41	0	1108344832	59	4820
2026-01-06 22:55:46.00	160.43	10.82	-43.9	-46.8	16.6	0.00e+00	0	41	0	1114636288	59	5003
2026-01-06 22:55:48.86	160.67	10.60	-44.0	-46.9	16.5	0.00e+00	0	41	0	1119879168	59	5046
2026-01-06 22:55:52.01	160.94	10.35	-44.2	-47.2	16.2	0.00e+00	0	41	0	1126170624	59	5254
2026-01-06 22:55:54.86	161.18	10.12	-44.4	-47.4	16.0	0.00e+00	0	41	0	1131413504	59	5376
2026-01-06 22:55:58.11	161.45	9.87	-44.6	-47.7	15.7	0.00e+00	0	41	0	1137704960	59	5579
2026-01-06 22:56:00.97	161.68	9.65	-44.6	-47.8	15.6	0.00e+00	0	41	0	1142947840	60	5338
2026-01-06 22:56:04.12	161.93	9.41	-44.8	-48.1	15.3	0.00e+00	0	41	0	1149239296	60	5502
2026-01-06 22:56:06.98	162.16	9.19	-45.0	-48.4	15.0	7.00e-07	0	41	0	1154482176	60	5677
2026-01-06 22:56:10.14	162.40	8.95	-49.3	-62.7	3.9	1.04e-04	0	41	104	1159725056	69	17505
2026-01-06 22:56:13.02	162.62	8.74	-49.8	-65.2	3.8	1.49e+00	0	41	104	1159725056	70	22026
2026-01-06 22:56:16.08	162.85	8.51	-49.9	-65.4	3.8	1.49e+00	0	41	104	1159725056	70	22661
2026-01-06 22:56:19.10	163.08	8.29	-50.2	-65.5	3.8	1.49e+00	0	41	104	1159725056	71	21539
2026-01-06 22:56:22.11	163.30	8.07	-50.3	-65.5	3.8	1.49e+00	0	41	104	1159725056	71	21638
2026-01-06 22:56:25.12	163.51	7.85	-50.3	-65.5	3.8	1.49e+00	0	41	104	1159725056	71	21638
2026-01-06 22:56:28.21	163.73	7.62	-50.0	-65.5	3.8	1.49e+00	0	41	104	1159725056	71	21671
2026-01-06 22:56:31.13	163.94	7.41	-50.2	-65.5	3.8	1.49e+00	0	41	104	1159725056	71	21573
2026-01-06 22:56:34.59	164.18	7.17	-50.1	-65.5	3.8	1.49e+00	0	41	104	1159725056	71	21552
2026-01-06 22:56:37.52	164.38	6.96	-49.9	-65.5	3.8	1.49e+00	0	41	104	1159725056	71	21538
2026-01-06 22:56:40.82	164.60	6.73	-49.9	-65.4	3.8	1.49e+00	0	41	104	1159725056	71	21471
2026-01-06 22:56:43.55	164.78	6.54	-49.9	-65.4	3.8	1.49e+00	0	41	104	1159725056	71	21494
2026-01-06 22:56:46.85	164.99	6.31	-49.9	-65.4	3.8	1.49e+00	0	41	104	1159725056	71	21394
2026-01-06 22:56:49.57	165.17	6.12	-49.9	-65.5	3.8	1.49e+00	0	41	104	1159725056	71	21545
2026-01-06 22:56:52.87	165.38	5.90	-49.9	-65.5	3.8	1.49e+00	0	41	104	1159725056	71	21524
2026-01-06 22:56:55.60	165.55	5.71	-49.9	-65.4	3.8	1.49e+00	0	41	104	1159725056	71	21443
2026-01-06 22:56:58.90	165.75	5.49	-49.8	-65.4	3.8	1.49e+00	0	41	104	1159725056	71	21484
2026-01-06 22:57:01.62	165.92	5.31	-49.9	-65.4	3.8	1.49e+00	0	41	104	1159725056	71	21465
2026-01-06 22:57:04.92	166.12	5.09	-49.9	-65.4	3.8	1.49e+00	0	41	104	1159725056	71	21495

#Closed at: 2026-01-06 22:57:07
#Recorded file [1159 MB]: D:/Data/31040_260107_014454.dat