passes_logs/2026/01/06/T1/T1__20260106_033103_FENGYUN_3E_rec.log

#Pass ID: 20260106_033103_FENGYUN 3E
#Satellite: FENGYUN 3E
#Configuration: FENGYUN 3E
#almurnet v.1.7.20251203
#Start time: 2026-01-06 03:31:05

#Version: 2.0.20230620
#Station: T1
#Location: 37.570604 lon 55.790049 lat
#TLE: 1 49008U 21062A   26005.56299987  .00000339  00000+0  18069-3 0  9991
#TLE: 2 49008  98.7472  10.8019 0001562 158.0357 202.0886 14.19884907233502

#Time	Az	El	Level	Level2	SNR	BER	BlckErr	Temp	State	Recorded	gain1	gain2
2026-01-06 03:31:05.75	19.56	5.14	-50.9	-62.0	3.8	8.46e-01	0	37	0	0	71	13490
2026-01-06 03:31:08.76	19.64	5.35	-50.9	-61.9	3.8	8.47e-01	0	37	104	0	72	12664
2026-01-06 03:31:11.77	19.73	5.57	-50.9	-62.0	3.8	8.47e-01	0	37	104	0	72	12714
2026-01-06 03:31:14.78	19.82	5.78	-50.9	-61.9	3.8	8.47e-01	0	37	104	0	72	12636
2026-01-06 03:31:17.79	19.91	6.00	-50.9	-62.0	3.8	8.47e-01	0	37	104	0	72	12695
2026-01-06 03:31:20.80	20.00	6.22	-50.9	-62.0	3.8	8.46e-01	0	37	104	0	72	12703
2026-01-06 03:31:23.82	20.09	6.44	-50.9	-62.0	3.8	8.46e-01	0	37	104	0	72	12669
2026-01-06 03:31:26.83	20.19	6.66	-50.9	-62.0	3.8	8.47e-01	0	37	104	0	72	12765
2026-01-06 03:31:29.84	20.28	6.89	-50.9	-62.0	3.8	8.46e-01	0	38	104	0	72	12697
2026-01-06 03:31:32.85	20.38	7.11	-50.9	-62.0	3.8	8.46e-01	0	38	104	0	72	12731
2026-01-06 03:31:35.86	20.48	7.34	-50.9	-62.0	3.8	8.48e-01	0	38	104	0	72	12708
2026-01-06 03:31:38.88	20.58	7.57	-50.9	-62.0	3.8	8.47e-01	0	38	104	0	72	12755
2026-01-06 03:31:41.89	20.68	7.81	-50.9	-62.0	3.8	8.46e-01	0	38	104	0	72	12677
2026-01-06 03:31:44.90	20.78	8.04	-50.9	-62.0	3.8	8.46e-01	0	38	104	0	72	12722
2026-01-06 03:31:47.91	20.88	8.28	-50.9	-62.0	3.8	8.46e-01	0	38	104	0	72	12740
2026-01-06 03:31:50.93	20.99	8.52	-50.9	-62.0	3.8	8.47e-01	0	38	104	0	72	12762
2026-01-06 03:31:53.94	21.09	8.76	-50.9	-62.0	3.8	8.46e-01	0	38	104	0	72	12737
2026-01-06 03:31:56.95	21.20	9.00	-50.9	-62.0	3.8	8.47e-01	0	38	104	0	72	12747
2026-01-06 03:31:59.97	21.31	9.25	-50.9	-62.0	3.8	8.47e-01	0	38	104	0	72	12753
2026-01-06 03:32:02.98	21.42	9.50	-50.9	-62.1	3.8	8.47e-01	0	39	104	0	72	12824
2026-01-06 03:32:05.99	21.53	9.75	-50.9	-62.0	3.8	8.46e-01	0	38	104	0	72	12769
2026-01-06 03:32:09.01	21.65	10.00	-50.9	-62.0	3.8	8.46e-01	0	39	104	0	72	12771
2026-01-06 03:32:12.02	21.76	10.26	-50.9	-62.1	3.8	8.47e-01	0	39	104	0	72	12859
2026-01-06 03:32:15.03	21.88	10.51	-50.9	-62.0	3.8	8.45e-01	0	39	104	0	72	12788
2026-01-06 03:32:18.04	22.00	10.78	-50.9	-62.0	3.8	8.47e-01	0	39	104	0	72	12759
2026-01-06 03:32:21.06	22.12	11.04	-50.9	-62.0	3.8	8.48e-01	0	39	104	0	72	12758
2026-01-06 03:32:24.07	22.25	11.31	-50.9	-62.0	3.8	8.48e-01	0	39	104	0	72	12739
2026-01-06 03:32:27.11	22.37	11.58	-50.9	-62.0	3.8	8.47e-01	0	39	104	0	72	12700
2026-01-06 03:32:30.12	22.50	11.85	-50.9	-62.0	3.8	8.47e-01	0	39	104	0	72	12780
2026-01-06 03:32:33.13	22.63	12.13	-50.9	-62.0	3.8	8.48e-01	0	39	104	0	72	12739
2026-01-06 03:32:36.15	22.76	12.41	-50.9	-62.0	3.8	8.46e-01	0	39	104	0	72	12762
2026-01-06 03:32:39.16	22.90	12.69	-50.9	-62.0	3.8	8.46e-01	0	39	104	0	72	12772
2026-01-06 03:32:42.17	23.04	12.97	-50.9	-62.0	3.8	8.47e-01	0	39	104	0	72	12776
2026-01-06 03:32:45.18	23.17	13.26	-50.9	-62.0	3.8	8.48e-01	0	39	104	0	72	12751
2026-01-06 03:32:48.20	23.32	13.55	-50.9	-62.0	3.8	8.46e-01	0	39	104	0	72	12752
2026-01-06 03:32:51.83	23.49	13.91	-50.9	-62.0	3.8	8.47e-01	0	39	104	0	72	12747
2026-01-06 03:32:54.79	23.64	14.20	-50.9	-62.0	3.8	8.48e-01	0	39	104	0	72	12719
2026-01-06 03:32:58.55	23.82	14.58	-50.9	-62.0	3.8	8.47e-01	0	39	104	0	72	12773
2026-01-06 03:33:01.29	23.96	14.86	-50.9	-62.0	3.8	8.47e-01	0	39	104	0	72	12779
2026-01-06 03:33:05.03	24.16	15.24	-50.9	-62.0	3.8	8.47e-01	0	39	104	0	72	12703
2026-01-06 03:33:07.77	24.31	15.53	-50.9	-62.0	3.8	8.47e-01	0	39	104	0	72	12723
2026-01-06 03:33:11.51	24.51	15.93	-50.9	-62.0	3.8	8.46e-01	0	39	104	0	72	12712
2026-01-06 03:33:14.26	24.66	16.22	-50.9	-62.0	3.8	8.46e-01	0	39	104	0	72	12758
2026-01-06 03:33:18.10	24.88	16.64	-50.9	-62.0	3.8	8.46e-01	0	39	104	0	72	12743
2026-01-06 03:33:20.84	25.04	16.95	-50.9	-62.0	3.8	8.47e-01	0	39	104	0	72	12773
2026-01-06 03:33:24.57	25.26	17.36	-50.9	-62.0	3.8	8.47e-01	0	40	104	0	72	12698
2026-01-06 03:33:27.32	25.43	17.68	-50.9	-62.1	3.8	8.46e-01	0	39	104	0	72	12828
2026-01-06 03:33:31.07	25.66	18.11	-50.9	-62.1	3.8	8.47e-01	0	40	104	0	72	12812
2026-01-06 03:33:33.81	25.83	18.43	-50.9	-62.0	3.8	8.46e-01	0	39	104	0	72	12730
2026-01-06 03:33:37.54	26.08	18.87	-50.9	-62.0	3.8	8.46e-01	0	39	104	0	72	12778
2026-01-06 03:33:40.30	26.26	19.21	-50.9	-62.0	3.8	8.47e-01	0	40	104	0	72	12713
2026-01-06 03:33:44.19	26.53	19.68	-50.9	-62.0	3.8	8.47e-01	0	40	104	0	72	12689
2026-01-06 03:33:46.91	26.72	20.02	-50.9	-61.9	3.8	8.47e-01	0	40	104	0	72	12655
2026-01-06 03:33:50.66	26.99	20.49	-50.9	-62.0	3.8	8.46e-01	0	40	104	0	72	12692
2026-01-06 03:33:53.40	27.19	20.85	-50.9	-62.0	3.8	8.47e-01	0	39	104	0	72	12721
2026-01-06 03:33:57.15	27.47	21.34	-50.9	-62.0	3.8	8.47e-01	0	39	104	0	72	12676
2026-01-06 03:33:59.92	27.69	21.70	-50.9	-62.1	3.8	8.47e-01	0	40	104	0	72	12831
2026-01-06 03:34:03.65	27.98	22.20	-50.9	-62.0	3.8	8.47e-01	0	40	104	0	72	12693
2026-01-06 03:34:06.39	28.21	22.58	-50.9	-62.0	3.8	8.46e-01	0	40	104	0	72	12724
2026-01-06 03:34:10.19	28.53	23.11	-50.9	-62.0	3.8	8.46e-01	0	40	104	0	72	12666
2026-01-06 03:34:12.95	28.77	23.50	-50.9	-62.0	3.8	8.47e-01	0	40	104	0	72	12719
2026-01-06 03:34:16.68	29.10	24.03	-50.9	-62.0	3.8	8.47e-01	0	40	104	0	72	12792
2026-01-06 03:34:19.43	29.35	24.43	-50.9	-62.0	3.8	8.46e-01	0	40	104	0	72	12704
2026-01-06 03:34:23.29	29.71	25.01	-50.9	-62.0	3.8	8.46e-01	0	40	104	0	72	12740
2026-01-06 03:34:26.04	29.98	25.42	-50.9	-62.0	3.8	8.47e-01	0	40	104	0	72	12709
2026-01-06 03:34:29.80	30.36	26.00	-50.9	-62.0	3.8	8.47e-01	0	40	104	0	72	12744
2026-01-06 03:34:32.59	30.65	26.44	-50.9	-62.0	3.8	8.47e-01	0	40	104	0	72	12754
2026-01-06 03:34:36.32	31.04	27.03	-50.9	-61.9	3.8	8.47e-01	0	40	104	0	72	12649
2026-01-06 03:34:39.06	31.34	27.47	-50.9	-61.9	3.8	8.47e-01	0	40	104	0	72	12607
2026-01-06 03:34:42.81	31.77	28.09	-50.9	-61.9	3.8	8.47e-01	0	40	104	0	72	12663
2026-01-06 03:34:45.66	32.10	28.57	-50.9	-61.9	3.8	8.47e-01	0	40	104	0	72	12660
2026-01-06 03:34:49.39	32.56	29.21	-50.9	-62.0	3.8	8.46e-01	0	40	104	0	72	12726
2026-01-06 03:34:52.13	32.90	29.68	-50.8	-61.9	3.8	8.46e-01	0	40	104	0	72	12636
2026-01-06 03:34:55.88	33.39	30.34	-50.9	-61.9	3.8	8.47e-01	0	40	104	0	72	12649
2026-01-06 03:34:58.63	33.76	30.84	-50.9	-61.9	3.8	8.47e-01	0	40	104	0	72	12653
2026-01-06 03:35:02.38	34.28	31.52	-50.8	-61.9	3.8	8.46e-01	0	40	104	0	72	12658
2026-01-06 03:35:05.12	34.67	32.03	-50.8	-62.0	3.8	8.47e-01	0	40	104	0	72	12685
2026-01-06 03:35:08.87	35.24	32.74	-50.8	-62.0	3.8	8.47e-01	0	40	104	0	72	12667
2026-01-06 03:35:11.67	35.67	33.28	-50.8	-61.9	3.8	8.46e-01	0	40	104	0	72	12592
2026-01-06 03:35:15.40	36.27	34.01	-50.8	-61.9	3.8	8.47e-01	0	40	104	0	72	12636
2026-01-06 03:35:18.13	36.73	34.55	-50.8	-61.9	3.8	8.47e-01	0	40	104	0	72	12612
2026-01-06 03:35:21.86	37.38	35.31	-50.8	-62.0	3.8	8.47e-01	0	40	104	0	72	12670
2026-01-06 03:35:24.62	37.88	35.88	-50.8	-61.9	3.8	8.48e-01	0	40	104	0	72	12634
2026-01-06 03:35:28.36	38.59	36.66	-50.8	-61.8	3.8	8.46e-01	0	40	104	0	72	12513
2026-01-06 03:35:31.10	39.13	37.24	-50.8	-61.9	3.8	8.46e-01	0	40	104	0	72	12596
2026-01-06 03:35:34.83	39.89	38.05	-50.8	-61.8	3.8	8.46e-01	0	40	104	0	72	12519
2026-01-06 03:35:37.60	40.48	38.65	-50.8	-61.9	3.8	8.47e-01	0	40	104	0	72	12552
2026-01-06 03:35:41.35	41.32	39.48	-50.8	-61.9	3.8	8.47e-01	0	40	104	0	72	12528
2026-01-06 03:35:44.10	41.97	40.10	-50.8	-61.9	3.8	8.46e-01	0	40	104	0	72	12659
2026-01-06 03:35:47.85	42.88	40.96	-50.8	-61.9	3.8	8.46e-01	0	40	104	0	72	12602
2026-01-06 03:35:50.70	43.61	41.62	-50.8	-61.9	3.8	8.46e-01	0	40	104	0	72	12616
2026-01-06 03:35:54.45	44.62	42.50	-50.8	-61.9	3.8	8.46e-01	0	40	104	0	72	12625
2026-01-06 03:35:57.20	45.39	43.15	-50.8	-61.9	3.8	8.48e-01	0	40	104	0	72	12633
2026-01-06 03:36:00.93	46.49	44.04	-50.8	-61.9	3.8	8.48e-01	0	40	104	0	72	12548
2026-01-06 03:36:03.68	47.34	44.70	-50.8	-61.9	3.8	8.48e-01	0	40	104	0	72	12617
2026-01-06 03:36:07.41	48.55	45.60	-50.8	-61.9	3.8	8.48e-01	0	40	104	0	72	12660
2026-01-06 03:36:10.16	49.48	46.28	-50.8	-61.9	3.8	8.47e-01	0	40	104	0	72	12528
2026-01-06 03:36:14.11	50.90	47.24	-50.8	-61.9	3.8	8.48e-01	0	40	104	0	72	12595
2026-01-06 03:36:17.27	52.10	48.02	-50.8	-61.9	3.8	8.46e-01	0	40	104	0	72	12561
2026-01-06 03:36:20.27	53.30	48.76	-50.8	-61.9	3.8	8.45e-01	0	40	104	0	72	12591
2026-01-06 03:36:23.29	54.56	49.50	-50.8	-61.9	3.8	8.48e-01	0	40	104	0	72	12607
2026-01-06 03:36:26.30	55.88	50.24	-50.8	-61.9	3.8	8.47e-01	0	40	104	0	72	12553
2026-01-06 03:36:29.31	57.26	50.97	-50.8	-61.9	3.8	8.48e-01	0	40	104	0	72	12588
2026-01-06 03:36:32.32	58.71	51.69	-50.8	-61.9	3.8	8.46e-01	0	40	104	0	72	12597
2026-01-06 03:36:35.34	60.24	52.41	-50.8	-62.0	3.8	8.48e-01	0	40	104	0	72	12674
2026-01-06 03:36:38.35	61.84	53.11	-50.8	-61.9	3.8	8.47e-01	0	40	104	0	72	12569
2026-01-06 03:36:41.44	63.56	53.82	-50.8	-61.9	3.8	8.45e-01	0	40	104	0	72	12598
2026-01-06 03:36:44.77	65.51	54.57	-50.8	-61.9	3.8	8.46e-01	0	40	104	0	72	12642
2026-01-06 03:36:47.49	67.18	55.16	-50.8	-61.9	3.8	8.46e-01	0	40	104	0	72	12629
2026-01-06 03:36:50.80	69.31	55.86	-50.8	-61.9	3.8	8.47e-01	0	40	104	0	72	12549
2026-01-06 03:36:53.52	71.13	56.40	-50.8	-62.0	3.8	8.47e-01	0	40	104	0	72	12679
2026-01-06 03:36:56.82	73.44	57.04	-50.8	-61.9	3.8	8.47e-01	0	40	104	0	72	12614
2026-01-06 03:36:59.55	75.44	57.53	-50.8	-61.9	3.8	8.48e-01	0	40	104	0	72	12604
2026-01-06 03:37:02.86	77.95	58.09	-50.8	-62.0	3.8	8.47e-01	0	40	104	0	72	12694
2026-01-06 03:37:05.59	80.09	58.51	-50.8	-61.9	3.8	8.46e-01	0	40	104	0	72	12560
2026-01-06 03:37:08.90	82.79	58.98	-50.8	-61.9	3.8	8.47e-01	0	40	104	0	72	12656
2026-01-06 03:37:11.62	85.07	59.32	-50.8	-61.9	3.8	8.47e-01	0	40	104	0	72	12605
2026-01-06 03:37:14.92	87.91	59.68	-50.8	-61.8	3.8	8.46e-01	0	40	104	0	72	12487
2026-01-06 03:37:17.64	90.31	59.94	-50.8	-61.9	3.8	8.46e-01	0	40	104	0	72	12616
2026-01-06 03:37:20.94	93.28	60.18	-50.8	-62.0	3.8	8.47e-01	0	40	104	0	72	12671
2026-01-06 03:37:23.67	95.77	60.33	-50.8	-61.9	3.8	8.46e-01	0	40	104	0	72	12568
2026-01-06 03:37:26.97	98.82	60.45	-50.8	-61.9	3.8	8.46e-01	0	40	104	0	72	12620
2026-01-06 03:37:29.70	101.36	60.49	-50.8	-61.9	3.8	8.46e-01	0	40	104	0	72	12546
2026-01-06 03:37:33.00	104.43	60.48	-50.8	-62.0	3.8	8.47e-01	0	40	104	0	72	12694
2026-01-06 03:37:35.73	106.96	60.41	-50.8	-61.9	3.8	8.47e-01	0	40	104	0	72	12620
2026-01-06 03:37:39.03	109.99	60.26	-50.8	-61.9	3.8	8.47e-01	0	40	104	0	72	12529
2026-01-06 03:37:41.75	112.47	60.09	-50.8	-62.0	3.8	8.47e-01	0	40	104	0	72	12697
2026-01-06 03:37:45.05	115.41	59.82	-50.8	-62.0	3.8	8.47e-01	0	40	104	0	72	12669
2026-01-06 03:37:47.78	117.80	59.55	-50.8	-61.9	3.8	8.46e-01	0	40	104	0	72	12553
2026-01-06 03:37:51.08	120.62	59.16	-50.8	-61.9	3.8	8.46e-01	0	40	104	0	72	12647
2026-01-06 03:37:53.80	122.87	58.80	-50.8	-61.9	3.8	8.47e-01	0	40	104	0	72	12595
2026-01-06 03:37:57.10	125.53	58.31	-50.8	-61.9	3.8	8.47e-01	0	40	104	0	72	12622
2026-01-06 03:37:59.83	127.64	57.87	-50.8	-61.9	3.8	8.45e-01	0	40	104	0	72	12653
2026-01-06 03:38:03.13	130.11	57.30	-50.8	-61.9	3.8	8.47e-01	0	40	104	0	72	12608
2026-01-06 03:38:05.86	132.07	56.79	-50.8	-61.9	3.8	8.48e-01	0	40	104	0	72	12596
2026-01-06 03:38:09.15	134.34	56.14	-50.8	-61.9	3.8	8.46e-01	0	40	104	0	72	12571
2026-01-06 03:38:11.88	136.14	55.58	-50.8	-61.9	3.8	8.46e-01	0	40	104	0	72	12567
2026-01-06 03:38:15.18	138.23	54.87	-50.8	-62.0	3.8	8.46e-01	0	40	104	0	72	12680
2026-01-06 03:38:17.90	139.87	54.27	-50.8	-61.8	3.8	8.46e-01	0	40	104	0	72	12519
2026-01-06 03:38:21.20	141.77	53.52	-50.8	-61.9	3.8	8.47e-01	0	40	104	0	72	12574
2026-01-06 03:38:23.93	143.27	52.89	-50.8	-61.9	3.8	8.47e-01	0	41	104	0	72	12569
2026-01-06 03:38:27.23	144.99	52.11	-50.8	-61.9	3.8	8.46e-01	0	41	104	0	72	12577
2026-01-06 03:38:29.99	146.37	51.45	-50.8	-61.8	3.8	8.47e-01	0	40	104	0	72	12497
2026-01-06 03:38:33.29	147.94	50.65	-50.8	-61.9	3.8	8.46e-01	0	40	104	0	72	12562
2026-01-06 03:38:36.01	149.17	49.98	-50.8	-61.9	3.8	8.46e-01	0	40	104	0	72	12570
2026-01-06 03:38:39.31	150.59	49.17	-50.8	-61.9	3.8	8.46e-01	0	41	104	0	72	12580
2026-01-06 03:38:42.04	151.72	48.50	-50.8	-61.9	3.8	8.46e-01	0	40	104	0	72	12638
2026-01-06 03:38:45.34	153.01	47.68	-50.8	-61.9	3.8	8.46e-01	0	40	104	0	72	12537
2026-01-06 03:38:48.06	154.03	47.01	-50.8	-61.8	3.8	8.47e-01	0	41	104	0	72	12508
2026-01-06 03:38:51.36	155.21	46.20	-50.8	-61.9	3.8	8.47e-01	0	41	104	0	72	12568
2026-01-06 03:38:54.09	156.14	45.53	-50.8	-61.9	3.8	8.45e-01	0	41	104	0	72	12523
2026-01-06 03:38:57.39	157.21	44.72	-50.8	-61.9	3.8	8.46e-01	0	40	104	0	72	12556
2026-01-06 03:39:00.22	158.09	44.04	-50.8	-61.9	3.8	8.46e-01	0	41	104	0	72	12590
2026-01-06 03:39:03.46	159.06	43.26	-50.8	-61.8	3.8	8.47e-01	0	40	104	0	72	12448
2026-01-06 03:39:06.33	159.87	42.57	-50.8	-61.9	3.8	8.47e-01	0	41	104	0	72	12533
2026-01-06 03:39:09.48	160.73	41.83	-50.8	-61.8	3.8	8.48e-01	0	40	104	0	72	12517
2026-01-06 03:39:12.35	161.47	41.16	-50.8	-61.9	3.8	8.47e-01	0	41	104	0	72	12560
2026-01-06 03:39:15.72	162.31	40.38	-50.8	-61.8	3.8	8.47e-01	0	40	104	0	72	12505
2026-01-06 03:39:18.65	163.01	39.72	-50.8	-61.8	3.8	8.46e-01	0	40	104	0	72	12514
2026-01-06 03:39:21.95	163.77	38.97	-50.8	-61.9	3.8	8.47e-01	0	40	104	0	72	12551
2026-01-06 03:39:24.67	164.36	38.37	-50.8	-61.9	3.8	8.46e-01	0	41	104	0	72	12566
2026-01-06 03:39:27.97	165.06	37.65	-50.8	-61.8	3.8	8.47e-01	0	41	104	0	72	12467
2026-01-06 03:39:30.70	165.61	37.06	-50.8	-61.9	3.8	8.47e-01	0	41	104	0	72	12547
2026-01-06 03:39:34.00	166.26	36.36	-50.8	-61.8	3.8	8.46e-01	0	41	104	0	72	12490
2026-01-06 03:39:36.73	166.77	35.78	-50.8	-61.9	3.8	8.47e-01	0	41	104	0	72	12605
2026-01-06 03:39:40.03	167.37	35.10	-50.8	-61.9	3.8	8.47e-01	0	41	104	0	72	12520
2026-01-06 03:39:42.75	167.84	34.55	-50.8	-61.9	3.8	8.46e-01	0	41	104	0	72	12645
2026-01-06 03:39:46.05	168.39	33.89	-50.8	-61.9	3.8	8.45e-01	0	41	104	0	72	12547
2026-01-06 03:39:48.78	168.84	33.35	-50.8	-61.9	3.8	8.46e-01	0	41	104	0	72	12654
2026-01-06 03:39:52.08	169.35	32.71	-50.8	-61.9	3.8	8.46e-01	0	41	104	0	72	12535
2026-01-06 03:39:54.80	169.76	32.19	-50.8	-61.9	3.8	8.46e-01	0	41	104	0	72	12538
2026-01-06 03:39:58.10	170.25	31.57	-50.8	-61.9	3.8	8.47e-01	0	41	104	0	72	12585
2026-01-06 03:40:00.83	170.63	31.06	-50.8	-61.8	3.8	8.47e-01	0	41	104	0	72	12496
2026-01-06 03:40:04.13	171.08	30.46	-50.8	-61.8	3.8	8.47e-01	0	40	104	0	72	12494
2026-01-06 03:40:06.85	171.44	29.97	-50.8	-61.9	3.8	8.47e-01	0	41	104	0	72	12556
2026-01-06 03:40:10.15	171.86	29.39	-50.8	-61.9	3.8	8.47e-01	0	41	104	0	72	12595
2026-01-06 03:40:12.88	172.20	28.92	-50.8	-61.9	3.8	8.47e-01	0	41	104	0	72	12577
2026-01-06 03:40:16.18	172.60	28.35	-50.8	-61.9	3.8	8.47e-01	0	41	104	0	72	12579
2026-01-06 03:40:18.90	172.92	27.89	-50.8	-61.9	3.8	8.47e-01	0	41	104	0	72	12550
2026-01-06 03:40:22.20	173.29	27.35	-50.8	-61.9	3.8	8.47e-01	0	41	104	0	72	12588
2026-01-06 03:40:24.92	173.59	26.91	-50.8	-61.9	3.8	8.47e-01	0	41	104	0	72	12561
2026-01-06 03:40:28.22	173.94	26.38	-50.8	-61.9	3.8	8.48e-01	0	41	104	0	72	12530
2026-01-06 03:40:30.95	174.22	25.95	-50.8	-61.9	3.8	8.47e-01	0	40	104	0	72	12521
2026-01-06 03:40:34.25	174.55	25.43	-50.8	-61.9	3.8	8.47e-01	0	41	104	0	72	12522
2026-01-06 03:40:36.97	174.82	25.02	-50.8	-61.9	3.8	8.47e-01	0	41	104	0	72	12550
2026-01-06 03:40:40.27	175.13	24.52	-50.8	-61.9	3.8	8.48e-01	0	41	104	0	72	12542
2026-01-06 03:40:42.99	175.38	24.12	-50.8	-61.9	3.8	8.47e-01	0	41	104	0	72	12551
2026-01-06 03:40:46.31	175.68	23.64	-50.7	-61.9	3.8	8.48e-01	0	41	104	0	72	12520
2026-01-06 03:40:49.04	175.92	23.24	-50.8	-61.9	3.8	8.46e-01	0	41	104	0	72	12564
2026-01-06 03:40:52.34	176.20	22.78	-50.7	-61.8	3.8	8.46e-01	0	41	104	0	72	12491
2026-01-06 03:40:55.08	176.43	22.40	-50.8	-61.9	3.8	8.47e-01	0	41	104	0	72	12554
2026-01-06 03:40:58.43	176.70	21.94	-50.8	-61.8	3.8	8.46e-01	0	41	104	0	72	12479
2026-01-06 03:41:01.44	176.94	21.53	-50.7	-61.9	3.8	8.48e-01	0	41	104	0	72	12541
2026-01-06 03:41:04.48	177.17	21.13	-50.7	-61.8	3.8	8.47e-01	0	41	104	0	72	12505
2026-01-06 03:41:07.49	177.40	20.73	-50.7	-61.9	3.8	8.46e-01	0	41	104	0	72	12531
2026-01-06 03:41:10.50	177.62	20.34	-50.7	-61.9	3.8	8.46e-01	0	41	104	0	72	12552
2026-01-06 03:41:13.52	177.84	19.96	-50.7	-61.8	3.8	8.45e-01	0	41	104	0	72	12502
2026-01-06 03:41:16.53	178.05	19.58	-50.7	-61.8	3.8	8.48e-01	0	41	104	0	72	12404
2026-01-06 03:41:19.54	178.25	19.21	-50.7	-61.8	3.8	8.46e-01	0	41	104	0	72	12512
2026-01-06 03:41:22.56	178.45	18.84	-50.7	-61.8	3.8	8.47e-01	0	41	104	0	72	12450
2026-01-06 03:41:25.57	178.65	18.48	-50.7	-61.9	3.8	8.46e-01	0	41	104	0	72	12546
2026-01-06 03:41:28.58	178.84	18.12	-50.7	-61.9	3.8	8.48e-01	0	41	104	0	72	12523
2026-01-06 03:41:31.59	179.03	17.77	-50.7	-61.8	3.8	8.47e-01	0	41	104	0	72	12456
2026-01-06 03:41:34.60	179.21	17.42	-50.7	-61.8	3.8	8.47e-01	0	41	104	0	72	12483
2026-01-06 03:41:37.62	179.39	17.08	-50.7	-61.9	3.8	8.47e-01	0	41	104	0	72	12527
2026-01-06 03:41:40.63	179.57	16.74	-50.7	-61.8	3.8	8.47e-01	0	41	104	0	72	12442
2026-01-06 03:41:43.64	179.74	16.41	-50.7	-61.8	3.8	8.46e-01	0	41	104	0	72	12503
2026-01-06 03:41:46.66	179.91	16.08	-50.7	-61.8	3.8	8.47e-01	0	41	104	0	72	12469
2026-01-06 03:41:49.67	180.08	15.75	-50.7	-61.8	3.8	8.47e-01	0	41	104	0	72	12447
2026-01-06 03:41:52.68	180.24	15.43	-50.7	-61.9	3.8	8.47e-01	0	41	104	0	72	12528
2026-01-06 03:41:55.70	180.40	15.11	-50.7	-61.8	3.8	8.46e-01	0	41	104	0	72	12414
2026-01-06 03:41:58.71	180.55	14.80	-50.7	-61.8	3.8	8.47e-01	0	41	104	0	72	12492
2026-01-06 03:42:01.94	180.72	14.47	-50.7	-61.8	3.8	8.47e-01	0	41	104	0	72	12516
2026-01-06 03:42:04.81	180.86	14.18	-50.7	-61.9	3.8	8.46e-01	0	41	104	0	72	12539
2026-01-06 03:42:07.97	181.01	13.86	-50.7	-61.8	3.8	8.47e-01	0	41	104	0	72	12433
2026-01-06 03:42:10.84	181.15	13.57	-50.7	-61.8	3.8	8.47e-01	0	41	104	0	72	12410
2026-01-06 03:42:13.99	181.30	13.26	-50.7	-61.8	3.8	8.47e-01	0	41	104	0	72	12484
2026-01-06 03:42:16.94	181.43	12.98	-50.7	-61.8	3.8	8.46e-01	0	41	104	0	72	12499
2026-01-06 03:42:19.95	181.57	12.69	-50.7	-61.8	3.8	8.47e-01	0	41	104	0	72	12423
2026-01-06 03:42:22.96	181.70	12.41	-50.7	-61.8	3.8	8.47e-01	0	41	104	0	72	12470
2026-01-06 03:42:25.97	181.83	12.12	-50.7	-61.8	3.8	8.46e-01	0	41	104	0	72	12486
2026-01-06 03:42:28.99	181.96	11.84	-50.7	-61.8	3.8	8.45e-01	0	41	104	0	72	12461
2026-01-06 03:42:32.00	182.09	11.57	-50.7	-61.8	3.8	8.47e-01	0	41	104	0	72	12451
2026-01-06 03:42:35.01	182.22	11.30	-50.7	-61.8	3.8	8.47e-01	0	41	104	0	72	12480
2026-01-06 03:42:38.02	182.34	11.03	-50.7	-61.8	3.8	8.47e-01	0	41	104	0	72	12469
2026-01-06 03:42:41.04	182.46	10.76	-50.7	-61.8	3.8	8.47e-01	0	41	104	0	72	12483
2026-01-06 03:42:44.05	182.58	10.50	-50.8	-61.9	3.8	8.47e-01	0	41	104	0	72	12520
2026-01-06 03:42:47.06	182.69	10.23	-50.7	-61.8	3.8	8.48e-01	0	41	104	0	72	12435
2026-01-06 03:42:50.08	182.81	9.97	-50.8	-61.8	3.8	8.47e-01	0	41	104	0	72	12489
2026-01-06 03:42:53.09	182.92	9.72	-50.8	-61.9	3.8	8.47e-01	0	41	104	0	72	12602
2026-01-06 03:42:56.10	183.03	9.46	-50.8	-61.9	3.8	8.47e-01	0	41	104	0	72	12531
2026-01-06 03:42:59.11	183.14	9.21	-50.8	-61.9	3.8	8.48e-01	0	41	104	0	72	12542
2026-01-06 03:43:02.12	183.25	8.96	-50.8	-61.8	3.8	8.46e-01	0	41	104	0	72	12496
2026-01-06 03:43:05.13	183.35	8.72	-50.8	-61.8	3.8	8.48e-01	0	41	104	0	72	12466
2026-01-06 03:43:08.15	183.46	8.47	-50.8	-61.9	3.8	8.47e-01	0	41	104	0	72	12527
2026-01-06 03:43:11.16	183.56	8.23	-50.8	-61.9	3.8	8.48e-01	0	41	104	0	72	12544
2026-01-06 03:43:14.17	183.66	7.99	-50.8	-61.8	3.8	8.46e-01	0	41	104	0	72	12507
2026-01-06 03:43:17.18	183.76	7.76	-50.8	-61.9	3.8	8.47e-01	0	41	104	0	72	12604
2026-01-06 03:43:20.19	183.86	7.52	-50.8	-61.8	3.8	8.47e-01	0	41	104	0	72	12464
2026-01-06 03:43:23.20	183.96	7.29	-50.8	-61.9	3.8	8.48e-01	0	41	104	0	72	12534
2026-01-06 03:43:26.21	184.05	7.06	-50.8	-61.9	3.8	8.46e-01	0	41	104	0	72	12526
2026-01-06 03:43:29.31	184.15	6.82	-50.8	-61.9	3.8	8.47e-01	0	41	104	0	72	12574
2026-01-06 03:43:32.28	184.24	6.60	-50.8	-61.9	3.8	8.47e-01	0	41	104	0	72	12608
2026-01-06 03:43:35.68	184.34	6.34	-50.8	-61.9	3.8	8.46e-01	0	41	104	0	72	12521
2026-01-06 03:43:38.61	184.43	6.13	-50.8	-61.8	3.8	8.47e-01	0	41	104	0	72	12465
2026-01-06 03:43:41.91	184.53	5.88	-50.8	-61.9	3.8	8.47e-01	0	41	104	0	72	12539
2026-01-06 03:43:44.64	184.61	5.69	-50.8	-61.9	3.8	8.47e-01	0	41	104	0	72	12557
2026-01-06 03:43:47.94	184.70	5.45	-50.8	-61.9	3.8	8.47e-01	0	41	104	0	72	12545
2026-01-06 03:43:50.66	184.78	5.25	-50.8	-61.9	3.8	8.46e-01	0	41	104	0	72	12533
2026-01-06 03:43:53.96	184.87	5.02	-50.8	-61.9	3.8	8.47e-01	0	41	104	0	72	12556

#Closed at: 2026-01-06 03:43:55
#Recorded file [0 MB]: D:/Data/31040_260106_063105.dat