passes_logs/2026/01/06/T1/T1__20260106_051133_FENGYUN_3E_rec.log

#Pass ID: 20260106_051133_FENGYUN 3E
#Satellite: FENGYUN 3E
#Configuration: FENGYUN 3E
#almurnet v.1.7.20251203
#Start time: 2026-01-06 05:11:34

#Version: 2.0.20230620
#Station: T1
#Location: 37.570604 lon 55.790049 lat
#TLE: 1 49008U 21062A   26005.56299987  .00000339  00000+0  18069-3 0  9991
#TLE: 2 49008  98.7472  10.8019 0001562 158.0357 202.0886 14.19884907233502

#Time	Az	El	Level	Level2	SNR	BER	BlckErr	Temp	State	Recorded	gain1	gain2
2026-01-06 05:11:34.33	8.94	5.06	-50.9	-61.9	3.8	8.47e-01	0	41	0	0	71	13377
2026-01-06 05:11:37.34	8.76	5.26	-50.8	-61.9	3.8	8.47e-01	0	41	104	0	72	12555
2026-01-06 05:11:40.35	8.58	5.46	-50.8	-61.9	3.8	8.47e-01	0	41	104	0	72	12595
2026-01-06 05:11:43.35	8.39	5.66	-50.8	-61.9	3.8	8.47e-01	0	41	104	0	72	12585
2026-01-06 05:11:46.42	8.20	5.87	-50.8	-61.8	3.8	8.46e-01	0	41	104	0	72	12476
2026-01-06 05:11:49.29	8.02	6.06	-50.8	-61.9	3.8	8.48e-01	0	41	104	0	72	12566
2026-01-06 05:11:52.44	7.82	6.27	-50.8	-61.9	3.8	8.46e-01	0	42	104	0	72	12547
2026-01-06 05:11:55.31	7.63	6.47	-50.8	-61.9	3.8	8.47e-01	0	42	104	0	72	12607
2026-01-06 05:11:58.66	7.41	6.70	-50.8	-61.9	3.8	8.47e-01	0	42	104	0	72	12551
2026-01-06 05:12:01.59	7.21	6.90	-50.8	-61.9	3.8	8.46e-01	0	42	104	0	72	12620
2026-01-06 05:12:05.02	6.97	7.14	-50.8	-61.8	3.8	8.47e-01	0	42	104	0	72	12518
2026-01-06 05:12:07.74	6.79	7.33	-50.8	-61.9	3.8	8.47e-01	0	42	104	0	72	12528
2026-01-06 05:12:11.04	6.55	7.56	-50.8	-61.9	3.8	8.47e-01	0	42	104	0	72	12581
2026-01-06 05:12:13.77	6.36	7.76	-50.8	-61.9	3.8	8.48e-01	0	42	104	0	72	12639
2026-01-06 05:12:17.07	6.12	7.99	-50.8	-61.9	3.8	8.46e-01	0	42	104	0	72	12571
2026-01-06 05:12:19.80	5.91	8.19	-50.8	-61.9	3.8	8.48e-01	0	42	104	0	72	12607
2026-01-06 05:12:23.10	5.67	8.43	-50.8	-61.9	3.8	8.47e-01	0	42	104	0	72	12553
2026-01-06 05:12:25.82	5.46	8.63	-50.8	-61.9	3.8	8.47e-01	0	43	104	0	72	12571
2026-01-06 05:12:29.12	5.20	8.87	-50.8	-61.8	3.8	8.47e-01	0	43	104	0	72	12512
2026-01-06 05:12:31.85	4.99	9.07	-50.8	-61.9	3.8	8.47e-01	0	43	104	0	72	12550
2026-01-06 05:12:35.15	4.72	9.32	-50.8	-61.9	3.8	8.47e-01	0	43	104	0	72	12525
2026-01-06 05:12:37.87	4.50	9.52	-50.8	-61.9	3.8	8.47e-01	0	43	104	0	72	12544
2026-01-06 05:12:41.17	4.23	9.77	-50.8	-61.9	3.8	8.47e-01	0	43	104	0	72	12587
2026-01-06 05:12:43.90	4.00	9.98	-50.8	-61.9	3.8	8.47e-01	0	43	104	0	72	12579
2026-01-06 05:12:47.21	3.72	10.23	-50.8	-61.9	3.8	8.46e-01	0	43	104	0	72	12554
2026-01-06 05:12:50.53	3.43	10.49	-50.8	-61.9	3.8	8.47e-01	0	43	104	0	72	12655
2026-01-06 05:12:53.49	3.17	10.71	-50.8	-61.9	3.8	8.47e-01	0	43	104	0	72	12662
2026-01-06 05:12:56.82	2.87	10.97	-50.8	-61.9	3.8	8.47e-01	0	43	104	0	72	12521
2026-01-06 05:12:59.55	2.62	11.19	-50.8	-61.8	3.8	8.47e-01	0	43	104	0	72	12487
2026-01-06 05:13:02.85	2.31	11.45	-50.8	-61.9	3.8	8.46e-01	0	43	104	0	72	12558
2026-01-06 05:13:05.57	2.05	11.67	-50.8	-61.9	3.8	8.47e-01	0	43	104	0	72	12564
2026-01-06 05:13:08.87	1.73	11.93	-50.8	-61.9	3.8	8.47e-01	0	43	104	0	72	12591
2026-01-06 05:13:11.60	1.46	12.15	-50.8	-61.9	3.8	8.45e-01	0	43	104	0	72	12571
2026-01-06 05:13:14.90	1.14	12.42	-50.8	-61.9	3.8	8.46e-01	0	43	104	0	72	12600
2026-01-06 05:13:17.62	0.86	12.64	-50.8	-61.9	3.8	8.46e-01	0	43	104	0	72	12573
2026-01-06 05:13:20.92	0.52	12.92	-50.8	-61.9	3.8	8.47e-01	0	43	104	0	72	12647
2026-01-06 05:13:23.66	0.23	13.14	-50.8	-61.9	3.8	8.47e-01	0	43	104	0	72	12558
2026-01-06 05:13:26.96	359.88	13.42	-50.8	-61.9	3.8	8.46e-01	0	43	104	0	72	12589
2026-01-06 05:13:29.69	359.58	13.65	-50.8	-61.9	3.8	8.47e-01	0	43	104	0	72	12617
2026-01-06 05:13:32.99	359.21	13.93	-50.8	-61.9	3.8	8.46e-01	0	43	104	0	72	12634
2026-01-06 05:13:35.71	358.91	14.16	-50.8	-61.9	3.8	8.47e-01	0	43	104	0	72	12656
2026-01-06 05:13:39.01	358.53	14.45	-50.8	-61.9	3.8	8.45e-01	0	43	104	0	72	12611
2026-01-06 05:13:41.74	358.21	14.68	-50.8	-61.9	3.8	8.47e-01	0	43	104	0	72	12618
2026-01-06 05:13:45.04	357.82	14.97	-50.8	-61.9	3.8	8.47e-01	0	43	104	0	72	12598
2026-01-06 05:13:47.76	357.49	15.21	-50.8	-62.0	3.8	8.47e-01	0	43	104	0	72	12712
2026-01-06 05:13:51.07	357.08	15.50	-50.8	-61.9	3.8	8.47e-01	0	43	104	0	72	12586
2026-01-06 05:13:53.79	356.73	15.74	-50.8	-62.0	3.8	8.46e-01	0	44	104	0	72	12769
2026-01-06 05:13:57.09	356.31	16.03	-50.8	-61.9	3.8	8.47e-01	0	44	104	0	72	12603
2026-01-06 05:13:59.82	355.95	16.28	-50.8	-61.9	3.8	8.47e-01	0	44	104	0	72	12579
2026-01-06 05:14:03.12	355.52	16.58	-50.9	-61.9	3.8	8.46e-01	0	43	104	0	72	12652
2026-01-06 05:14:05.84	355.15	16.82	-50.9	-61.9	3.8	8.48e-01	0	43	104	0	72	12622
2026-01-06 05:14:09.14	354.69	17.12	-50.9	-62.0	3.8	8.46e-01	0	44	104	0	72	12678
2026-01-06 05:14:11.87	354.31	17.38	-50.8	-61.9	3.8	8.48e-01	0	43	104	0	72	12628
2026-01-06 05:14:15.17	353.83	17.68	-50.8	-61.9	3.8	8.46e-01	0	44	104	0	72	12600
2026-01-06 05:14:17.89	353.44	17.93	-50.8	-61.9	3.8	8.46e-01	0	43	104	0	72	12563
2026-01-06 05:14:21.19	352.95	18.24	-50.8	-61.9	3.8	8.47e-01	0	44	104	0	72	12617
2026-01-06 05:14:23.92	352.53	18.50	-50.8	-62.0	3.8	8.47e-01	0	44	104	0	72	12718
2026-01-06 05:14:27.22	352.02	18.81	-50.9	-61.9	3.8	8.46e-01	0	43	104	0	72	12632
2026-01-06 05:14:30.11	351.57	19.08	-50.8	-61.9	3.8	8.46e-01	0	43	104	0	72	12584
2026-01-06 05:14:33.39	351.04	19.39	-50.9	-61.9	3.8	8.47e-01	0	44	104	0	72	12645
2026-01-06 05:14:36.48	350.53	19.69	-50.8	-61.9	3.8	8.47e-01	0	44	104	0	72	12580
2026-01-06 05:14:39.51	350.02	19.98	-50.8	-62.0	3.8	8.47e-01	0	44	104	0	72	12669
2026-01-06 05:14:42.52	349.51	20.26	-50.8	-62.0	3.8	8.47e-01	0	44	104	0	72	12703
2026-01-06 05:14:45.53	348.99	20.55	-50.8	-61.9	3.8	8.47e-01	0	43	104	0	72	12597
2026-01-06 05:14:48.63	348.44	20.85	-50.8	-61.9	3.8	8.46e-01	0	43	104	0	72	12633
2026-01-06 05:14:51.49	347.92	21.13	-50.8	-61.9	3.8	8.46e-01	0	44	104	0	72	12606
2026-01-06 05:14:54.65	347.34	21.44	-50.8	-61.9	3.8	8.47e-01	0	44	104	0	72	12634
2026-01-06 05:14:57.52	346.80	21.72	-50.8	-61.9	3.8	8.47e-01	0	44	104	0	72	12592
2026-01-06 05:15:00.68	346.19	22.02	-50.8	-61.9	3.8	8.48e-01	0	43	104	0	72	12584
2026-01-06 05:15:03.55	345.63	22.30	-50.8	-62.0	3.8	8.46e-01	0	44	104	0	72	12675
2026-01-06 05:15:06.70	345.00	22.61	-50.8	-61.9	3.8	8.46e-01	0	44	104	0	72	12658
2026-01-06 05:15:09.57	344.42	22.89	-50.8	-61.9	3.8	8.46e-01	0	44	104	0	72	12616
2026-01-06 05:15:12.73	343.77	23.20	-50.8	-61.9	3.8	8.47e-01	0	44	104	0	72	12625
2026-01-06 05:15:15.59	343.17	23.47	-50.8	-61.9	3.8	8.47e-01	0	44	104	0	72	12557
2026-01-06 05:15:18.75	342.49	23.78	-50.8	-61.9	3.8	8.45e-01	0	44	104	0	72	12664
2026-01-06 05:15:21.62	341.86	24.06	-50.8	-61.9	3.8	8.48e-01	0	44	104	0	72	12647
2026-01-06 05:15:24.78	341.15	24.36	-50.8	-61.9	3.8	8.48e-01	0	43	104	0	72	12601
2026-01-06 05:15:27.65	340.50	24.64	-50.8	-61.9	3.8	8.47e-01	0	44	104	0	72	12609
2026-01-06 05:15:30.80	339.77	24.94	-50.8	-61.9	3.8	8.48e-01	0	44	104	0	72	12600
2026-01-06 05:15:33.67	339.10	25.21	-50.8	-61.9	3.8	8.46e-01	0	44	104	0	72	12594
2026-01-06 05:15:36.83	338.34	25.51	-50.8	-61.9	3.8	8.46e-01	0	44	104	0	72	12548
2026-01-06 05:15:39.70	337.63	25.78	-50.8	-61.9	3.8	8.48e-01	0	43	104	0	72	12593
2026-01-06 05:15:42.85	336.85	26.07	-50.8	-61.9	3.8	8.47e-01	0	43	104	0	72	12622
2026-01-06 05:15:45.72	336.12	26.33	-50.8	-61.9	3.8	8.47e-01	0	44	104	0	72	12646
2026-01-06 05:15:48.88	335.31	26.62	-50.8	-61.8	3.8	8.47e-01	0	44	104	0	72	12519
2026-01-06 05:15:51.75	334.55	26.88	-50.8	-61.9	3.8	8.47e-01	0	44	104	0	72	12635
2026-01-06 05:15:54.91	333.71	27.16	-50.8	-61.9	3.8	8.47e-01	0	44	104	0	72	12598
2026-01-06 05:15:57.78	332.93	27.41	-50.8	-61.9	3.8	8.47e-01	0	44	104	0	72	12613
2026-01-06 05:16:00.93	332.06	27.68	-50.8	-61.9	3.8	8.46e-01	0	44	104	0	72	12526
2026-01-06 05:16:03.80	331.25	27.93	-50.8	-61.9	3.8	8.47e-01	0	44	104	0	72	12603
2026-01-06 05:16:06.96	330.35	28.19	-50.8	-61.9	3.8	8.47e-01	0	44	104	0	72	12551
2026-01-06 05:16:09.83	329.52	28.42	-50.8	-61.9	3.8	8.47e-01	0	44	104	0	72	12577
2026-01-06 05:16:12.99	328.59	28.67	-50.8	-61.9	3.8	8.47e-01	0	44	104	0	72	12537
2026-01-06 05:16:15.86	327.73	28.90	-50.8	-61.9	3.8	8.47e-01	0	44	104	0	72	12546
2026-01-06 05:16:19.01	326.78	29.14	-50.8	-61.8	3.8	8.48e-01	0	44	104	0	72	12481
2026-01-06 05:16:21.88	325.90	29.35	-50.8	-61.9	3.8	8.47e-01	0	44	104	0	72	12623
2026-01-06 05:16:25.04	324.91	29.57	-50.8	-61.9	3.8	8.47e-01	0	44	104	0	72	12568
2026-01-06 05:16:27.91	324.01	29.77	-50.8	-61.9	3.8	8.47e-01	0	44	104	0	72	12598
2026-01-06 05:16:31.06	323.00	29.98	-50.8	-61.9	3.8	8.46e-01	0	44	104	0	72	12626
2026-01-06 05:16:33.94	322.07	30.17	-50.8	-61.9	3.8	8.47e-01	0	44	104	0	72	12601
2026-01-06 05:16:37.09	321.03	30.36	-50.8	-61.9	3.8	8.47e-01	0	44	104	0	72	12613
2026-01-06 05:16:39.96	320.08	30.53	-50.8	-61.9	3.8	8.46e-01	0	44	104	0	72	12585
2026-01-06 05:16:43.12	319.02	30.70	-50.8	-61.9	3.8	8.47e-01	0	44	104	0	72	12538
2026-01-06 05:16:45.98	318.05	30.85	-50.8	-61.9	3.8	8.47e-01	0	44	104	0	72	12538
2026-01-06 05:16:49.12	316.98	31.01	-50.8	-61.9	3.8	8.47e-01	0	44	104	0	72	12598
2026-01-06 05:16:52.21	315.91	31.15	-50.8	-61.9	3.8	8.47e-01	0	44	104	0	72	12534
2026-01-06 05:16:55.08	314.92	31.27	-50.8	-61.9	3.8	8.47e-01	0	44	104	0	72	12562
2026-01-06 05:16:58.24	313.81	31.39	-50.8	-61.9	3.8	8.47e-01	0	44	104	0	72	12545
2026-01-06 05:17:01.10	312.80	31.49	-50.8	-61.8	3.8	8.46e-01	0	44	104	0	72	12500
2026-01-06 05:17:04.18	311.71	31.59	-50.8	-61.8	3.8	8.48e-01	0	43	104	0	72	12454
2026-01-06 05:17:07.19	310.63	31.68	-50.8	-61.9	3.8	8.47e-01	0	44	104	0	72	12574
2026-01-06 05:17:10.20	309.55	31.75	-50.8	-61.9	3.8	8.45e-01	0	44	104	0	72	12601
2026-01-06 05:17:13.22	308.46	31.82	-50.8	-61.9	3.8	8.47e-01	0	44	104	0	72	12609
2026-01-06 05:17:16.23	307.37	31.87	-50.8	-61.9	3.8	8.48e-01	0	44	104	0	72	12635
2026-01-06 05:17:19.24	306.28	31.91	-50.8	-61.8	3.8	8.47e-01	0	44	104	0	72	12485
2026-01-06 05:17:22.26	305.18	31.93	-50.8	-61.9	3.8	8.46e-01	0	44	104	0	72	12542
2026-01-06 05:17:25.27	304.08	31.95	-50.8	-61.9	3.8	8.47e-01	0	44	104	0	72	12622
2026-01-06 05:17:28.28	302.98	31.95	-50.8	-61.9	3.8	8.45e-01	0	44	104	0	72	12621
2026-01-06 05:17:31.26	301.90	31.95	-50.8	-61.9	3.8	8.47e-01	0	44	104	0	72	12530
2026-01-06 05:17:34.64	300.67	31.92	-50.8	-61.8	3.8	8.47e-01	0	44	104	0	72	12486
2026-01-06 05:17:37.57	299.60	31.89	-50.8	-61.9	3.8	8.47e-01	0	44	104	0	72	12553
2026-01-06 05:17:40.93	298.38	31.84	-50.8	-61.9	3.8	8.47e-01	0	44	104	0	72	12660
2026-01-06 05:17:43.66	297.39	31.79	-50.8	-61.9	3.8	8.48e-01	0	44	104	0	72	12635
2026-01-06 05:17:46.96	296.21	31.71	-50.8	-61.9	3.8	8.46e-01	0	44	104	0	72	12540
2026-01-06 05:17:49.68	295.23	31.64	-50.8	-61.8	3.8	8.48e-01	0	44	104	0	72	12517
2026-01-06 05:17:53.01	294.04	31.54	-50.8	-61.9	3.8	8.47e-01	0	44	104	0	72	12599
2026-01-06 05:17:55.73	293.08	31.45	-50.8	-61.9	3.8	8.46e-01	0	44	104	0	72	12540
2026-01-06 05:17:59.04	291.91	31.33	-50.8	-61.9	3.8	8.46e-01	0	44	104	0	72	12568
2026-01-06 05:18:01.76	290.96	31.22	-50.8	-61.9	3.8	8.46e-01	0	44	104	0	72	12624
2026-01-06 05:18:05.06	289.81	31.07	-50.8	-61.9	3.8	8.47e-01	0	44	104	0	72	12560
2026-01-06 05:18:07.79	288.87	30.94	-50.8	-61.9	3.8	8.48e-01	0	44	104	0	72	12587
2026-01-06 05:18:11.09	287.75	30.77	-50.8	-61.9	3.8	8.46e-01	0	44	104	0	72	12538
2026-01-06 05:18:13.81	286.83	30.62	-50.8	-61.9	3.8	8.47e-01	0	44	104	0	72	12610
2026-01-06 05:18:17.11	285.73	30.44	-50.8	-61.9	3.8	8.47e-01	0	44	104	0	72	12552
2026-01-06 05:18:19.84	284.83	30.27	-50.8	-61.9	3.8	8.47e-01	0	44	104	0	72	12601
2026-01-06 05:18:23.15	283.74	30.06	-50.8	-61.9	3.8	8.47e-01	0	44	104	0	72	12608
2026-01-06 05:18:25.88	282.86	29.89	-50.8	-61.9	3.8	8.47e-01	0	44	104	0	72	12599
2026-01-06 05:18:29.18	281.81	29.66	-50.8	-61.9	3.8	8.46e-01	0	44	104	0	72	12569
2026-01-06 05:18:31.90	280.95	29.47	-50.8	-61.9	3.8	8.47e-01	0	44	104	0	72	12603
2026-01-06 05:18:35.20	279.93	29.23	-50.8	-61.9	3.8	8.47e-01	0	44	104	0	72	12627
2026-01-06 05:18:37.93	279.09	29.03	-50.8	-61.9	3.8	8.47e-01	0	44	104	0	72	12541
2026-01-06 05:18:41.23	278.10	28.77	-50.8	-61.9	3.8	8.46e-01	0	44	104	0	72	12605
2026-01-06 05:18:43.96	277.28	28.56	-50.8	-61.9	3.8	8.45e-01	0	44	104	0	72	12585
2026-01-06 05:18:47.26	276.32	28.29	-50.8	-61.9	3.8	8.47e-01	0	44	104	0	72	12642
2026-01-06 05:18:50.06	275.51	28.06	-50.8	-61.9	3.8	8.47e-01	0	44	104	0	72	12646
2026-01-06 05:18:53.22	274.61	27.79	-50.8	-61.9	3.8	8.47e-01	0	44	104	0	72	12585
2026-01-06 05:18:56.08	273.81	27.54	-50.8	-61.9	3.8	8.48e-01	0	44	104	0	72	12569
2026-01-06 05:18:59.24	272.94	27.27	-50.8	-61.9	3.8	8.48e-01	0	44	104	0	72	12591
2026-01-06 05:19:02.11	272.16	27.01	-50.8	-61.9	3.8	8.46e-01	0	44	104	0	72	12589
2026-01-06 05:19:05.27	271.32	26.73	-50.8	-61.9	3.8	8.48e-01	0	44	104	0	72	12605
2026-01-06 05:19:08.33	270.52	26.45	-50.8	-62.0	3.8	8.46e-01	0	44	104	0	72	12702
2026-01-06 05:19:12.07	269.56	26.11	-50.8	-61.9	3.8	8.48e-01	0	44	104	0	72	12605
2026-01-06 05:19:14.81	268.88	25.85	-50.8	-61.9	3.8	8.47e-01	0	44	104	0	72	12617
2026-01-06 05:19:18.51	267.96	25.51	-50.8	-62.0	3.8	8.46e-01	0	44	104	0	72	12670
2026-01-06 05:19:21.28	267.29	25.24	-50.8	-62.0	3.8	8.47e-01	0	44	104	0	72	12712
2026-01-06 05:19:24.58	266.51	24.93	-50.8	-61.9	3.8	8.47e-01	0	44	104	0	72	12584
2026-01-06 05:19:27.31	265.87	24.67	-50.8	-61.9	3.8	8.47e-01	0	44	104	0	72	12640
2026-01-06 05:19:30.61	265.12	24.35	-50.8	-61.9	3.8	8.47e-01	0	44	104	0	72	12652
2026-01-06 05:19:33.33	264.51	24.09	-50.8	-61.9	3.8	8.47e-01	0	44	104	0	72	12562
2026-01-06 05:19:36.63	263.78	23.77	-50.8	-61.9	3.8	8.47e-01	0	44	104	0	72	12639
2026-01-06 05:19:39.36	263.19	23.50	-50.8	-61.9	3.8	8.47e-01	0	44	104	0	72	12613
2026-01-06 05:19:42.75	262.47	23.17	-50.8	-61.9	3.8	8.47e-01	0	44	104	0	72	12608
2026-01-06 05:19:45.56	261.88	22.90	-50.8	-61.8	3.8	8.47e-01	0	44	104	0	72	12481
2026-01-06 05:19:48.92	261.20	22.57	-50.8	-61.9	3.8	8.47e-01	0	44	104	0	72	12656
2026-01-06 05:19:51.65	260.65	22.30	-50.8	-61.9	3.8	8.46e-01	0	44	104	0	72	12628
2026-01-06 05:19:54.95	260.00	21.98	-50.8	-61.9	3.8	8.46e-01	0	44	104	0	72	12639
2026-01-06 05:19:57.67	259.48	21.71	-50.8	-61.9	3.8	8.46e-01	0	44	104	0	72	12625
2026-01-06 05:20:00.97	258.85	21.39	-50.8	-61.9	3.8	8.47e-01	0	44	104	0	72	12521
2026-01-06 05:20:03.70	258.34	21.12	-50.8	-61.9	3.8	8.47e-01	0	44	104	0	72	12574
2026-01-06 05:20:07.00	257.74	20.80	-50.8	-61.9	3.8	8.45e-01	0	44	104	0	72	12656
2026-01-06 05:20:09.72	257.26	20.54	-50.8	-61.9	3.8	8.46e-01	0	44	104	0	72	12605
2026-01-06 05:20:13.02	256.68	20.22	-50.8	-61.9	3.8	8.47e-01	0	44	104	0	72	12578
2026-01-06 05:20:15.75	256.21	19.96	-50.8	-61.9	3.8	8.46e-01	0	44	104	0	72	12575
2026-01-06 05:20:19.05	255.65	19.64	-50.8	-61.9	3.8	8.46e-01	0	44	104	0	72	12561
2026-01-06 05:20:21.77	255.20	19.38	-50.8	-61.9	3.8	8.48e-01	0	44	104	0	72	12602
2026-01-06 05:20:25.07	254.67	19.06	-50.8	-61.9	3.8	8.46e-01	0	44	104	0	72	12549
2026-01-06 05:20:27.80	254.23	18.80	-50.8	-61.9	3.8	8.48e-01	0	44	104	0	72	12612
2026-01-06 05:20:31.10	253.72	18.49	-50.8	-61.9	3.8	8.48e-01	0	44	104	0	72	12559
2026-01-06 05:20:33.83	253.30	18.23	-50.8	-61.9	3.8	8.47e-01	0	44	104	0	72	12523
2026-01-06 05:20:37.12	252.80	17.92	-50.8	-61.9	3.8	8.47e-01	0	44	104	0	72	12615
2026-01-06 05:20:39.85	252.40	17.67	-50.8	-61.9	3.8	8.47e-01	0	44	104	0	72	12620
2026-01-06 05:20:43.15	251.92	17.36	-50.8	-61.9	3.8	8.47e-01	0	44	104	0	72	12619
2026-01-06 05:20:45.88	251.54	17.11	-50.8	-61.9	3.8	8.47e-01	0	44	104	0	72	12579
2026-01-06 05:20:49.18	251.07	16.81	-50.8	-61.9	3.8	8.48e-01	0	44	104	0	72	12560
2026-01-06 05:20:51.91	250.70	16.56	-50.8	-61.9	3.8	8.47e-01	0	44	104	0	72	12604
2026-01-06 05:20:55.21	250.26	16.26	-50.8	-61.9	3.8	8.47e-01	0	44	104	0	72	12545
2026-01-06 05:20:57.93	249.90	16.01	-50.8	-61.9	3.8	8.47e-01	0	44	104	0	72	12531
2026-01-06 05:21:01.23	249.47	15.72	-50.8	-61.9	3.8	8.46e-01	0	44	104	0	72	12610
2026-01-06 05:21:03.96	249.12	15.47	-50.8	-61.9	3.8	8.47e-01	0	44	104	0	72	12595
2026-01-06 05:21:07.26	248.71	15.18	-50.8	-61.9	3.8	8.46e-01	0	44	104	0	72	12588
2026-01-06 05:21:09.99	248.37	14.94	-50.8	-61.9	3.8	8.46e-01	0	44	104	0	72	12555
2026-01-06 05:21:13.29	247.98	14.65	-50.8	-61.9	3.8	8.47e-01	0	44	104	0	72	12619
2026-01-06 05:21:16.39	247.61	14.38	-50.8	-61.9	3.8	8.48e-01	0	44	104	0	72	12637
2026-01-06 05:21:19.46	247.25	14.12	-50.8	-61.8	3.8	8.45e-01	0	44	104	0	72	12516
2026-01-06 05:21:22.62	246.89	13.85	-50.8	-61.9	3.8	8.48e-01	0	44	104	0	72	12591
2026-01-06 05:21:25.48	246.57	13.60	-50.8	-61.9	3.8	8.47e-01	0	44	104	0	72	12548
2026-01-06 05:21:28.64	246.23	13.34	-50.8	-61.9	3.8	8.47e-01	0	44	104	0	72	12588
2026-01-06 05:21:31.51	245.91	13.10	-50.8	-61.9	3.8	8.47e-01	0	44	104	0	72	12581
2026-01-06 05:21:34.67	245.58	12.83	-50.8	-61.9	3.8	8.48e-01	0	44	104	0	72	12593
2026-01-06 05:21:37.54	245.28	12.59	-50.8	-62.0	3.8	8.46e-01	0	44	104	0	72	12683
2026-01-06 05:21:40.69	244.96	12.33	-50.8	-61.9	3.8	8.46e-01	0	44	104	0	72	12614
2026-01-06 05:21:43.56	244.67	12.10	-50.8	-61.9	3.8	8.47e-01	0	44	104	0	72	12545
2026-01-06 05:21:46.72	244.35	11.84	-50.8	-61.9	3.8	8.48e-01	0	44	104	0	72	12553
2026-01-06 05:21:49.59	244.07	11.61	-50.8	-61.9	3.8	8.46e-01	0	44	104	0	72	12600
2026-01-06 05:21:52.74	243.77	11.36	-50.8	-61.9	3.8	8.47e-01	0	44	104	0	72	12611
2026-01-06 05:21:55.61	243.50	11.13	-50.8	-61.9	3.8	8.46e-01	0	44	104	0	72	12598
2026-01-06 05:21:58.77	243.21	10.88	-50.8	-61.9	3.8	8.46e-01	0	44	104	0	72	12550
2026-01-06 05:22:01.64	242.95	10.66	-50.8	-61.9	3.8	8.47e-01	0	44	104	0	72	12605
2026-01-06 05:22:04.79	242.66	10.41	-50.8	-61.9	3.8	8.48e-01	0	44	104	0	72	12615
2026-01-06 05:22:07.66	242.41	10.19	-50.8	-61.9	3.8	8.47e-01	0	44	104	0	72	12564
2026-01-06 05:22:10.72	242.14	9.95	-50.8	-61.9	3.8	8.47e-01	0	44	104	0	72	12577
2026-01-06 05:22:13.88	241.87	9.71	-50.8	-61.9	3.8	8.48e-01	0	44	104	0	72	12642
2026-01-06 05:22:16.75	241.63	9.49	-50.8	-61.9	3.8	8.48e-01	0	44	104	0	72	12595
2026-01-06 05:22:19.90	241.37	9.26	-50.8	-61.9	3.8	8.46e-01	0	44	104	0	72	12586
2026-01-06 05:22:22.77	241.14	9.04	-50.8	-61.9	3.8	8.47e-01	0	44	104	0	72	12593
2026-01-06 05:22:25.93	240.88	8.81	-50.8	-61.9	3.8	8.48e-01	0	44	104	0	72	12598
2026-01-06 05:22:28.80	240.66	8.60	-50.8	-61.9	3.8	8.47e-01	0	44	104	0	72	12627
2026-01-06 05:22:31.96	240.41	8.37	-50.8	-61.9	3.8	8.47e-01	0	44	104	0	72	12588
2026-01-06 05:22:34.82	240.19	8.16	-50.8	-61.9	3.8	8.46e-01	0	44	104	0	72	12621
2026-01-06 05:22:37.98	239.96	7.93	-50.8	-62.0	3.8	8.46e-01	0	44	104	0	72	12666
2026-01-06 05:22:41.03	239.73	7.71	-50.8	-61.9	3.8	8.46e-01	0	44	104	0	72	12610
2026-01-06 05:22:44.33	239.49	7.47	-50.8	-61.9	3.8	8.46e-01	0	44	104	0	72	12651
2026-01-06 05:22:47.05	239.29	7.28	-50.8	-61.9	3.8	8.47e-01	0	44	104	0	72	12648
2026-01-06 05:22:50.35	239.06	7.05	-50.8	-61.9	3.8	8.47e-01	0	44	104	0	72	12526
2026-01-06 05:22:53.08	238.87	6.86	-50.8	-61.9	3.8	8.47e-01	0	44	104	0	72	12596
2026-01-06 05:22:56.38	238.64	6.63	-50.8	-61.9	3.8	8.46e-01	0	44	104	0	72	12609
2026-01-06 05:22:59.10	238.46	6.44	-50.8	-61.9	3.8	8.46e-01	0	44	104	0	72	12600
2026-01-06 05:23:02.38	238.24	6.22	-50.8	-61.9	3.8	8.47e-01	0	44	104	0	72	12606
2026-01-06 05:23:05.48	238.04	6.01	-50.8	-62.0	3.8	8.46e-01	0	44	104	0	72	12691
2026-01-06 05:23:08.49	237.84	5.80	-50.8	-62.0	3.8	8.46e-01	0	44	104	0	72	12690
2026-01-06 05:23:11.50	237.65	5.60	-50.8	-61.9	3.8	8.45e-01	0	44	104	0	72	12621
2026-01-06 05:23:14.53	237.46	5.40	-50.8	-61.9	3.8	8.47e-01	0	44	104	0	72	12623
2026-01-06 05:23:17.51	237.28	5.20	-50.8	-61.9	3.8	8.46e-01	0	44	104	0	72	12628
2026-01-06 05:23:20.53	237.09	5.00	-50.8	-61.9	3.8	8.47e-01	0	44	104	0	72	12623

#Closed at: 2026-01-06 05:23:21
#Recorded file [0 MB]: D:/Data/31040_260106_081134.dat