passes_logs/2026/01/06/T1/T1__20260106_221530_NOAA_21_JPSS-2_rec.log

#Pass ID: 20260106_221530_NOAA 21 (JPSS-2)
#Satellite: NOAA 21 (JPSS-2)
#Configuration: NOAA 21
#almurnet v.1.7.20251203
#Start time: 2026-01-06 22:15:30

#Version: 2.0.20230620
#Station: T1
#Location: 37.570604 lon 55.790049 lat
#TLE: 1 54234U 22150A   26005.56767909  .00000152  00000+0  92756-4 0  9990
#TLE: 2 54234  98.7490 306.5820 0001036 340.2747  19.8389 14.19532370163472

#Time	Az	El	Level	Level2	SNR	BER	BlckErr	Temp	State	Recorded	gain1	gain2
2026-01-06 22:15:30.25	28.49	4.97	-48.1	-62.1	3.8	1.49e+00	0	36	0	0	68	17366
2026-01-06 22:15:33.25	28.74	5.15	-47.9	-61.9	3.8	1.49e+00	0	36	104	0	66	19040
2026-01-06 22:15:36.27	28.99	5.33	-48.0	-61.9	3.8	1.49e+00	0	36	104	0	66	19078
2026-01-06 22:15:39.28	29.24	5.51	-48.0	-62.0	3.8	1.49e+00	0	36	104	0	66	19208
2026-01-06 22:15:42.29	29.50	5.70	-47.9	-61.8	3.8	1.49e+00	0	37	104	0	66	18835
2026-01-06 22:15:45.31	29.76	5.88	-47.9	-61.9	3.8	1.49e+00	0	36	104	0	66	19016
2026-01-06 22:15:48.32	30.02	6.06	-47.9	-61.8	3.8	1.49e+00	0	37	104	0	66	18806
2026-01-06 22:15:51.33	30.29	6.25	-47.9	-61.7	3.8	1.49e+00	0	37	104	0	66	18681
2026-01-06 22:15:54.34	30.56	6.43	-47.8	-61.7	3.8	1.49e+00	0	37	104	0	66	18619
2026-01-06 22:15:57.36	30.83	6.62	-47.9	-61.7	3.9	1.49e+00	0	37	104	0	66	18574
2026-01-06 22:16:00.37	31.11	6.81	-47.9	-61.8	3.8	1.49e+00	0	37	104	0	66	18890
2026-01-06 22:16:03.38	31.39	6.99	-47.9	-61.6	3.8	1.49e+00	0	37	104	0	66	18361
2026-01-06 22:16:06.40	31.67	7.18	-47.8	-61.6	3.8	1.49e+00	0	37	104	0	66	18504
2026-01-06 22:16:09.41	31.96	7.37	-47.9	-61.7	3.8	1.49e+00	0	37	104	0	66	18721
2026-01-06 22:16:12.42	32.25	7.56	-47.9	-61.5	3.8	1.49e+00	0	37	104	0	66	18241
2026-01-06 22:16:15.43	32.54	7.75	-47.9	-61.5	3.8	1.49e+00	0	37	104	0	66	18199
2026-01-06 22:16:18.45	32.84	7.94	-47.8	-61.8	3.8	1.49e+00	0	37	104	0	66	18805
2026-01-06 22:16:21.46	33.14	8.14	-47.9	-61.7	3.8	1.49e+00	0	38	104	0	66	18704
2026-01-06 22:16:24.48	33.45	8.33	-47.9	-61.7	3.8	1.49e+00	0	38	104	0	66	18544
2026-01-06 22:16:27.49	33.76	8.53	-47.9	-61.0	3.8	1.49e+00	0	38	104	0	66	17277
2026-01-06 22:16:30.50	34.07	8.72	-47.7	-60.3	3.8	1.49e+00	0	38	104	0	66	15835
2026-01-06 22:16:33.51	34.39	8.92	-47.5	-57.6	4.3	1.45e+00	0	38	104	0	66	11663
2026-01-06 22:16:36.52	34.71	9.11	-48.2	-59.4	3.9	1.48e+00	0	38	104	0	67	13501
2026-01-06 22:16:39.55	35.04	9.31	-46.1	-50.5	10.2	4.43e-01	0	38	0	0	64	5764
2026-01-06 22:16:42.56	35.37	9.51	-42.3	-44.5	16.5	0.00e+00	0	38	0	0	56	4562
2026-01-06 22:16:45.57	35.70	9.71	-41.5	-43.7	17.0	0.00e+00	0	38	0	0	55	4425
2026-01-06 22:16:48.56	36.04	9.91	-41.5	-43.7	17.0	0.00e+00	0	38	0	0	55	4413
2026-01-06 22:16:51.56	36.38	10.11	-41.4	-43.6	17.2	0.00e+00	0	38	0	0	54	4623
2026-01-06 22:16:55.00	36.78	10.34	-41.3	-43.4	17.3	0.00e+00	0	38	0	0	54	4528
2026-01-06 22:16:57.72	37.09	10.52	-41.3	-43.4	17.4	0.00e+00	0	38	0	0	54	4507
2026-01-06 22:17:01.02	37.49	10.74	-41.3	-43.3	17.5	0.00e+00	0	38	0	0	54	4484
2026-01-06 22:17:03.93	37.84	10.94	-41.2	-43.3	17.5	0.00e+00	0	38	0	0	54	4473
2026-01-06 22:17:07.23	38.24	11.16	-41.0	-43.0	17.7	0.00e+00	0	38	0	0	54	4339
2026-01-06 22:17:09.96	38.58	11.35	-40.8	-42.9	17.9	0.00e+00	0	38	0	0	53	4519
2026-01-06 22:17:13.28	38.99	11.58	-40.9	-42.9	18.0	0.00e+00	0	38	0	0	53	4518
2026-01-06 22:17:16.29	39.37	11.78	-40.8	-42.8	18.1	0.00e+00	0	38	0	0	53	4454
2026-01-06 22:17:19.58	39.80	12.01	-40.7	-42.6	18.3	0.00e+00	0	38	0	0	53	4364
2026-01-06 22:17:22.34	40.16	12.20	-40.5	-42.3	18.6	0.00e+00	0	38	0	0	53	4234
2026-01-06 22:17:25.60	40.59	12.43	-40.4	-42.3	18.7	0.00e+00	0	38	0	0	52	4444
2026-01-06 22:17:28.47	40.98	12.62	-40.5	-42.4	18.6	0.00e+00	0	38	0	0	52	4495
2026-01-06 22:17:31.62	41.40	12.84	-40.6	-42.5	18.4	0.00e+00	0	38	0	0	52	4568
2026-01-06 22:17:34.55	41.81	13.05	-40.5	-42.4	18.5	0.00e+00	0	38	0	0	52	4532
2026-01-06 22:17:37.71	42.25	13.27	-40.5	-42.4	18.5	0.00e+00	0	38	0	0	52	4513
2026-01-06 22:17:40.68	42.67	13.48	-40.5	-42.4	18.5	0.00e+00	0	38	0	0	52	4517
2026-01-06 22:17:44.07	43.16	13.71	-40.6	-42.5	18.5	0.00e+00	0	38	0	0	52	4567
2026-01-06 22:17:46.79	43.56	13.90	-40.7	-42.6	18.4	0.00e+00	0	38	0	0	52	4609
2026-01-06 22:17:50.08	44.05	14.14	-40.7	-42.6	18.4	0.00e+00	0	38	0	0	52	4612
2026-01-06 22:17:52.80	44.46	14.33	-40.4	-42.3	18.7	0.00e+00	0	39	0	0	52	4466
2026-01-06 22:17:56.17	44.97	14.57	-40.4	-42.2	18.7	0.00e+00	0	38	0	0	52	4418
2026-01-06 22:17:58.96	45.40	14.76	-40.3	-42.1	18.8	0.00e+00	0	38	0	0	52	4362
2026-01-06 22:18:02.29	45.92	15.00	-40.5	-42.4	18.6	0.00e+00	0	38	0	0	52	4501
2026-01-06 22:18:05.01	46.35	15.19	-40.5	-42.4	18.6	0.00e+00	0	38	0	0	52	4503
2026-01-06 22:18:08.31	46.88	15.42	-40.5	-42.3	18.7	0.00e+00	0	38	0	0	52	4469
2026-01-06 22:18:11.19	47.36	15.63	-40.4	-42.2	18.8	0.00e+00	0	38	0	0	52	4415
2026-01-06 22:18:14.34	47.88	15.85	-40.3	-42.1	18.9	0.00e+00	0	38	0	0	52	4355
2026-01-06 22:18:17.20	48.36	16.05	-40.3	-42.1	18.9	0.00e+00	0	38	0	0	52	4348
2026-01-06 22:18:20.35	48.89	16.27	-40.0	-41.8	19.1	0.00e+00	0	38	0	0	52	4215
2026-01-06 22:18:23.22	49.39	16.47	-40.1	-41.9	19.1	0.00e+00	0	38	0	0	52	4279
2026-01-06 22:18:26.56	49.97	16.71	-40.1	-41.9	19.1	0.00e+00	0	38	0	0	52	4272
2026-01-06 22:18:29.47	50.49	16.91	-40.0	-41.8	19.2	0.00e+00	0	38	0	0	52	4222
2026-01-06 22:18:32.83	51.10	17.15	-40.1	-41.9	19.1	0.00e+00	0	38	0	0	52	4272
2026-01-06 22:18:35.55	51.59	17.33	-40.1	-41.9	19.1	0.00e+00	0	38	0	0	52	4268
2026-01-06 22:18:39.13	52.26	17.58	-40.1	-41.9	19.1	0.00e+00	0	38	0	0	52	4276
2026-01-06 22:18:42.08	52.81	17.79	-40.2	-42.0	19.0	0.00e+00	0	38	0	0	52	4314
2026-01-06 22:18:45.23	53.41	18.00	-40.2	-42.0	19.1	0.00e+00	0	38	0	0	52	4317
2026-01-06 22:18:48.16	53.98	18.20	-40.2	-42.1	19.0	0.00e+00	0	39	0	0	52	4341
2026-01-06 22:18:51.44	54.62	18.43	-40.1	-41.8	19.2	0.00e+00	0	38	0	0	52	4232
2026-01-06 22:18:54.36	55.20	18.62	-40.2	-42.0	19.2	0.00e+00	0	38	0	0	51	4550
2026-01-06 22:18:57.58	55.85	18.84	-40.3	-42.1	19.1	0.00e+00	0	39	0	0	51	4621
2026-01-06 22:19:00.45	56.43	19.03	-40.5	-42.3	18.8	0.00e+00	0	38	0	0	51	4752
2026-01-06 22:19:03.56	57.07	19.24	-40.5	-42.3	18.9	0.00e+00	0	38	0	0	51	4728
2026-01-06 22:19:06.63	57.72	19.44	-40.6	-42.4	18.8	0.00e+00	0	38	0	0	51	4785
2026-01-06 22:19:09.99	58.43	19.65	-40.6	-42.4	18.8	0.00e+00	0	38	0	0	51	4789
2026-01-06 22:19:12.71	59.01	19.83	-40.6	-42.4	18.6	0.00e+00	0	39	0	0	52	4545
2026-01-06 22:19:16.01	59.73	20.04	-40.4	-42.3	18.8	0.00e+00	0	39	0	0	52	4443
2026-01-06 22:19:18.73	60.33	20.21	-40.1	-41.9	19.2	0.00e+00	0	38	0	0	52	4259
2026-01-06 22:19:22.12	61.08	20.42	-40.1	-41.9	19.2	0.00e+00	0	38	0	0	52	4251
2026-01-06 22:19:24.96	61.72	20.59	-40.1	-41.9	19.1	0.00e+00	0	38	0	0	52	4290
2026-01-06 22:19:28.26	62.47	20.79	-40.1	-41.9	19.2	0.00e+00	0	38	0	0	52	4251
2026-01-06 22:19:30.98	63.10	20.95	-40.1	-41.8	19.3	0.00e+00	0	39	0	0	52	4237
2026-01-06 22:19:34.55	63.93	21.16	-39.9	-41.7	19.5	0.00e+00	0	38	0	0	51	4400
2026-01-06 22:19:37.44	64.62	21.32	-39.9	-41.6	19.5	0.00e+00	0	38	0	0	51	4368
2026-01-06 22:19:40.74	65.40	21.51	-39.7	-41.4	19.7	0.00e+00	0	39	0	0	51	4262
2026-01-06 22:19:43.46	66.06	21.66	-39.7	-41.5	19.6	0.00e+00	0	39	0	0	51	4294
2026-01-06 22:19:46.69	66.85	21.83	-39.9	-41.6	19.5	0.00e+00	0	38	0	0	51	4386
2026-01-06 22:19:49.76	67.60	21.99	-39.7	-41.4	19.7	0.00e+00	0	38	0	0	51	4284
2026-01-06 22:19:52.63	68.32	22.13	-39.6	-41.3	19.8	0.00e+00	0	38	0	0	51	4213
2026-01-06 22:19:55.78	69.11	22.29	-40.1	-41.9	19.2	0.00e+00	0	38	0	0	51	4542
2026-01-06 22:19:58.65	69.84	22.43	-39.8	-41.6	19.6	0.00e+00	0	38	0	0	51	4346
2026-01-06 22:20:02.02	70.70	22.59	-39.6	-41.3	19.8	0.00e+00	0	39	0	0	51	4229
2026-01-06 22:20:04.77	71.41	22.71	-39.9	-41.7	19.5	0.00e+00	0	38	0	0	51	4406
2026-01-06 22:20:08.12	72.28	22.86	-39.7	-41.5	19.7	0.00e+00	0	38	0	0	51	4293
2026-01-06 22:20:11.00	73.04	22.98	-39.7	-41.4	19.7	0.00e+00	0	39	0	0	51	4267
2026-01-06 22:20:14.16	73.88	23.10	-39.7	-41.4	19.7	0.00e+00	0	38	0	0	51	4273
2026-01-06 22:20:17.03	74.64	23.21	-39.7	-41.4	19.8	0.00e+00	0	39	0	0	51	4280
2026-01-06 22:20:20.17	75.49	23.33	-39.7	-41.4	19.6	0.00e+00	0	39	0	0	51	4271
2026-01-06 22:20:23.03	76.26	23.43	-39.6	-41.3	19.8	0.00e+00	0	38	0	0	51	4237
2026-01-06 22:20:26.49	77.20	23.54	-39.6	-41.4	19.8	0.00e+00	0	39	0	0	51	4249
2026-01-06 22:20:29.21	77.95	23.63	-39.6	-41.3	19.8	0.00e+00	0	38	0	0	51	4238
2026-01-06 22:20:32.50	78.86	23.73	-39.5	-41.2	19.9	0.00e+00	0	39	0	0	51	4170
2026-01-06 22:20:35.22	79.61	23.80	-39.4	-41.1	20.0	0.00e+00	0	38	0	0	50	4367
2026-01-06 22:20:38.52	80.53	23.88	-39.4	-41.1	19.9	0.00e+00	0	39	0	0	50	4384
2026-01-06 22:20:41.24	81.29	23.95	-39.4	-41.1	19.9	0.00e+00	0	38	0	0	50	4353
2026-01-06 22:20:44.53	82.22	24.02	-39.4	-41.2	19.9	0.00e+00	0	39	0	0	50	4401
2026-01-06 22:20:47.52	83.06	24.07	-39.4	-41.1	19.9	0.00e+00	0	39	0	0	50	4348
2026-01-06 22:20:50.81	83.99	24.13	-39.7	-41.4	19.7	0.00e+00	0	39	0	0	50	4533
2026-01-06 22:20:53.53	84.76	24.17	-39.6	-41.4	19.7	0.00e+00	0	38	0	0	50	4520
2026-01-06 22:20:57.10	85.78	24.21	-39.8	-41.6	19.6	0.00e+00	0	38	0	0	50	4641
2026-01-06 22:21:00.22	86.67	24.24	-39.5	-41.2	19.9	0.00e+00	0	39	0	0	50	4424
2026-01-06 22:21:03.08	87.49	24.26	-39.6	-41.4	19.7	0.00e+00	0	38	0	0	50	4504
2026-01-06 22:21:06.41	88.44	24.28	-39.6	-41.3	19.8	0.00e+00	0	39	0	0	50	4465
2026-01-06 22:21:09.32	89.28	24.29	-39.7	-41.5	19.6	0.00e+00	0	38	0	0	50	4558
2026-01-06 22:21:12.73	90.26	24.29	-39.7	-41.4	19.7	0.00e+00	0	39	0	0	50	4536
2026-01-06 22:21:15.45	91.04	24.29	-39.4	-41.1	20.0	0.00e+00	0	39	0	0	50	4368
2026-01-06 22:21:18.74	91.98	24.28	-39.5	-41.3	19.9	0.00e+00	0	38	0	0	50	4443
2026-01-06 22:21:21.56	92.79	24.26	-39.2	-40.9	20.2	0.00e+00	0	38	0	0	50	4273
2026-01-06 22:21:25.24	93.84	24.23	-39.3	-41.0	20.1	0.00e+00	0	39	0	0	50	4302
2026-01-06 22:21:27.96	94.62	24.20	-39.3	-41.0	20.1	0.00e+00	0	39	0	0	50	4323
2026-01-06 22:21:31.73	95.69	24.15	-39.2	-40.9	20.2	0.00e+00	0	38	0	0	50	4274
2026-01-06 22:21:34.51	96.48	24.11	-39.2	-40.9	20.2	0.00e+00	0	38	0	0	50	4245
2026-01-06 22:21:38.02	97.48	24.05	-39.2	-40.8	20.2	0.00e+00	0	39	0	0	50	4231
2026-01-06 22:21:41.02	98.32	23.99	-39.2	-40.9	20.3	0.00e+00	0	39	0	0	50	4255
2026-01-06 22:21:44.03	99.17	23.92	-39.5	-41.2	19.9	0.00e+00	0	38	0	0	50	4406
2026-01-06 22:21:47.04	100.01	23.85	-39.6	-41.3	19.9	0.00e+00	0	39	0	0	50	4442
2026-01-06 22:21:50.48	100.97	23.76	-39.6	-41.3	19.9	0.00e+00	0	39	0	0	50	4459
2026-01-06 22:21:53.28	101.75	23.68	-39.8	-41.5	19.6	0.00e+00	0	38	0	0	50	4579
2026-01-06 22:21:56.43	102.61	23.58	-39.6	-41.3	19.9	0.00e+00	0	38	0	0	50	4463
2026-01-06 22:21:59.29	103.40	23.49	-39.5	-41.2	20.0	0.00e+00	0	38	0	0	50	4412
2026-01-06 22:22:02.57	104.29	23.38	-39.5	-41.2	20.0	0.00e+00	0	38	0	0	50	4410
2026-01-06 22:22:05.31	105.03	23.28	-39.7	-41.5	19.7	0.00e+00	0	38	0	0	50	4559
2026-01-06 22:22:08.61	105.92	23.16	-39.6	-41.3	19.9	0.00e+00	0	39	0	0	50	4461
2026-01-06 22:22:11.33	106.64	23.05	-39.6	-41.3	19.9	0.00e+00	0	38	0	0	50	4469
2026-01-06 22:22:14.62	107.51	22.91	-39.7	-41.4	19.8	0.00e+00	0	39	0	0	50	4517
2026-01-06 22:22:17.68	108.32	22.78	-39.7	-41.5	19.7	0.00e+00	0	39	0	0	50	4566
2026-01-06 22:22:20.54	109.06	22.66	-39.9	-41.7	19.5	0.00e+00	0	39	0	0	50	4656
2026-01-06 22:22:23.70	109.88	22.51	-39.8	-41.6	19.6	0.00e+00	0	38	0	0	50	4615
2026-01-06 22:22:26.64	110.63	22.37	-40.0	-41.8	19.4	0.00e+00	0	38	0	0	50	4709
2026-01-06 22:22:29.65	111.39	22.22	-39.8	-41.6	19.5	0.00e+00	0	38	0	0	50	4617
2026-01-06 22:22:32.66	112.15	22.07	-39.8	-41.5	19.6	0.00e+00	0	38	0	0	50	4583
2026-01-06 22:22:35.67	112.90	21.92	-39.9	-41.6	19.5	0.00e+00	0	38	0	0	50	4626
2026-01-06 22:22:38.68	113.64	21.76	-39.8	-41.5	19.6	0.00e+00	0	39	0	0	50	4594
2026-01-06 22:22:41.97	114.44	21.58	-39.8	-41.5	19.6	0.00e+00	0	39	0	0	50	4586
2026-01-06 22:22:44.69	115.10	21.43	-39.7	-41.4	19.7	0.00e+00	0	39	0	0	50	4534
2026-01-06 22:22:48.25	115.95	21.22	-40.0	-41.7	19.4	0.00e+00	0	39	0	0	50	4701
2026-01-06 22:22:50.97	116.59	21.07	-39.9	-41.6	19.5	0.00e+00	0	38	0	0	50	4645
2026-01-06 22:22:54.26	117.36	20.87	-39.7	-41.4	19.7	0.00e+00	0	39	0	0	50	4512
2026-01-06 22:22:57.24	118.04	20.69	-39.8	-41.5	19.6	0.00e+00	0	39	0	0	50	4580
2026-01-06 22:23:00.54	118.80	20.49	-40.0	-41.8	19.4	0.00e+00	0	39	0	0	50	4733
2026-01-06 22:23:03.26	119.41	20.32	-40.1	-41.9	19.2	0.00e+00	0	39	0	0	51	4536
2026-01-06 22:23:06.55	120.14	20.12	-39.9	-41.7	19.3	0.00e+00	0	39	0	0	51	4409
2026-01-06 22:23:09.28	120.74	19.95	-39.8	-41.5	19.4	0.00e+00	0	39	0	0	51	4314
2026-01-06 22:23:12.72	121.49	19.72	-39.6	-41.4	19.7	0.00e+00	0	39	0	0	51	4247
2026-01-06 22:23:15.44	122.07	19.55	-39.9	-41.6	19.5	0.00e+00	0	38	0	0	51	4374
2026-01-06 22:23:18.74	122.77	19.33	-39.8	-41.5	19.5	0.00e+00	0	38	0	0	51	4321
2026-01-06 22:23:21.46	123.34	19.15	-39.7	-41.5	19.6	0.00e+00	0	39	0	0	51	4292
2026-01-06 22:23:24.73	124.01	18.93	-39.8	-41.5	19.6	0.00e+00	0	39	0	0	51	4329
2026-01-06 22:23:27.83	124.64	18.72	-39.7	-41.4	19.7	0.00e+00	0	39	0	0	51	4277
2026-01-06 22:23:30.84	125.25	18.52	-39.9	-41.7	19.4	0.00e+00	0	39	0	0	51	4413
2026-01-06 22:23:33.85	125.85	18.31	-40.1	-41.9	19.3	0.00e+00	0	39	0	0	51	4499
2026-01-06 22:23:36.85	126.43	18.11	-40.1	-41.9	19.3	0.00e+00	0	38	0	0	51	4526
2026-01-06 22:23:39.86	127.01	17.90	-40.1	-41.8	19.2	0.00e+00	0	38	0	0	51	4488
2026-01-06 22:23:42.87	127.59	17.69	-40.0	-41.8	19.3	0.00e+00	0	39	0	0	51	4442
2026-01-06 22:23:45.88	128.15	17.48	-40.0	-41.8	19.3	0.00e+00	0	38	0	0	51	4465
2026-01-06 22:23:48.89	128.71	17.27	-40.1	-41.9	19.2	0.00e+00	0	38	0	0	51	4499
2026-01-06 22:23:51.93	129.27	17.06	-40.1	-41.9	19.2	0.00e+00	0	38	0	0	51	4515
2026-01-06 22:23:54.96	129.82	16.84	-40.1	-41.9	19.1	0.00e+00	0	38	0	0	51	4538
2026-01-06 22:23:57.97	130.35	16.63	-40.2	-42.0	19.0	0.00e+00	0	39	0	0	51	4589
2026-01-06 22:24:00.98	130.88	16.42	-40.5	-42.3	18.7	0.00e+00	0	39	0	0	51	4754
2026-01-06 22:24:03.98	131.40	16.21	-40.6	-42.5	18.5	0.00e+00	0	38	0	0	51	4827
2026-01-06 22:24:06.99	131.91	15.99	-40.7	-42.6	18.4	0.00e+00	0	39	0	0	52	4600
2026-01-06 22:24:10.00	132.42	15.78	-40.6	-42.5	18.5	0.00e+00	0	39	0	0	52	4569
2026-01-06 22:24:13.01	132.92	15.56	-40.7	-42.6	18.3	0.00e+00	0	39	0	0	52	4617
2026-01-06 22:24:16.02	133.41	15.35	-40.7	-42.6	18.4	0.00e+00	0	38	0	0	52	4628
2026-01-06 22:24:19.03	133.90	15.13	-40.5	-42.3	18.7	0.00e+00	0	38	0	0	52	4470
2026-01-06 22:24:22.03	134.38	14.92	-40.5	-42.3	18.7	0.00e+00	0	39	0	0	52	4464
2026-01-06 22:24:25.04	134.85	14.71	-40.7	-42.5	18.4	0.00e+00	0	39	0	0	52	4587
2026-01-06 22:24:28.03	135.31	14.49	-41.1	-43.1	17.9	0.00e+00	0	39	0	0	52	4871
2026-01-06 22:24:31.33	135.82	14.26	-41.1	-43.0	17.9	0.00e+00	0	39	0	0	52	4850
2026-01-06 22:24:34.20	136.25	14.05	-40.9	-42.9	18.0	0.00e+00	0	39	0	0	52	4771
2026-01-06 22:24:37.38	136.72	13.83	-40.8	-42.8	18.2	0.00e+00	0	38	0	0	52	4707
2026-01-06 22:24:40.25	137.14	13.62	-40.8	-42.6	18.3	0.00e+00	0	39	0	0	52	4649
2026-01-06 22:24:43.53	137.62	13.39	-40.9	-42.8	18.1	0.00e+00	0	38	0	0	52	4718
2026-01-06 22:24:46.26	138.00	13.20	-41.1	-43.1	17.8	0.00e+00	0	38	0	0	52	4908
2026-01-06 22:24:49.55	138.47	12.97	-41.2	-43.2	17.8	0.00e+00	0	39	0	0	53	4671
2026-01-06 22:24:52.55	138.88	12.76	-41.2	-43.2	17.7	0.00e+00	0	39	0	0	53	4655
2026-01-06 22:24:55.56	139.29	12.54	-41.3	-43.2	17.6	0.00e+00	0	38	0	0	53	4703
2026-01-06 22:24:58.57	139.70	12.33	-41.1	-43.1	17.7	0.00e+00	0	39	0	0	53	4631
2026-01-06 22:25:01.58	140.10	12.12	-41.2	-43.2	17.6	0.00e+00	0	38	0	0	53	4659
2026-01-06 22:25:04.63	140.50	11.91	-41.3	-43.3	17.5	0.00e+00	0	39	0	0	53	4747
2026-01-06 22:25:07.78	140.90	11.69	-41.3	-43.4	17.5	0.00e+00	0	39	0	0	53	4761
2026-01-06 22:25:10.84	141.29	11.48	-41.4	-43.5	17.4	0.00e+00	0	39	0	0	53	4824
2026-01-06 22:25:13.99	141.69	11.26	-41.4	-43.5	17.4	0.00e+00	0	38	0	0	53	4832
2026-01-06 22:25:16.85	142.04	11.07	-41.4	-43.5	17.3	0.00e+00	0	39	0	0	53	4840
2026-01-06 22:25:20.01	142.43	10.85	-41.5	-43.6	17.3	0.00e+00	0	39	0	0	53	4887
2026-01-06 22:25:22.87	142.77	10.65	-41.4	-43.5	17.4	0.00e+00	0	39	0	0	53	4820
2026-01-06 22:25:26.02	143.14	10.44	-41.3	-43.4	17.4	0.00e+00	0	39	0	0	53	4771
2026-01-06 22:25:28.89	143.48	10.24	-41.5	-43.6	17.1	0.00e+00	0	39	0	0	53	4896
2026-01-06 22:25:32.04	143.84	10.03	-41.7	-43.9	16.9	0.00e+00	0	39	0	0	54	4771
2026-01-06 22:25:34.94	144.17	9.84	-41.9	-44.1	16.7	0.00e+00	0	39	0	0	54	4879
2026-01-06 22:25:38.09	144.53	9.62	-42.0	-44.2	16.6	0.00e+00	0	38	0	0	54	4953
2026-01-06 22:25:41.02	144.85	9.43	-41.9	-44.1	16.7	0.00e+00	0	38	0	0	54	4887
2026-01-06 22:25:44.02	145.18	9.23	-41.9	-44.2	16.5	0.00e+00	0	38	0	0	54	4935
2026-01-06 22:25:47.03	145.51	9.03	-41.9	-44.1	16.6	0.00e+00	0	39	0	0	54	4907
2026-01-06 22:25:50.04	145.83	8.83	-49.7	-62.8	3.8	1.49e+00	0	39	104	0	69	17714
2026-01-06 22:25:53.06	146.15	8.63	-50.0	-63.0	3.8	1.49e+00	0	39	104	0	70	17246
2026-01-06 22:25:56.07	146.46	8.44	-50.0	-63.1	3.8	1.49e+00	0	39	104	0	70	17455
2026-01-06 22:25:59.08	146.77	8.24	-50.2	-63.2	3.8	1.49e+00	0	39	104	0	70	17550
2026-01-06 22:26:02.09	147.08	8.04	-50.2	-63.2	3.8	1.49e+00	0	39	104	0	71	16536
2026-01-06 22:26:05.11	147.38	7.85	-50.1	-63.2	3.8	1.49e+00	0	39	104	0	71	16555
2026-01-06 22:26:08.12	147.67	7.65	-49.6	-63.2	3.8	1.49e+00	0	39	104	0	71	16572
2026-01-06 22:26:11.25	147.98	7.45	-49.8	-63.1	3.8	1.49e+00	0	39	104	0	71	16493
2026-01-06 22:26:14.26	148.27	7.26	-49.8	-63.1	3.8	1.49e+00	0	39	104	0	71	16471
2026-01-06 22:26:17.27	148.56	7.07	-49.8	-63.1	3.8	1.49e+00	0	39	104	0	71	16480
2026-01-06 22:26:20.28	148.84	6.88	-49.7	-63.1	3.8	1.49e+00	0	39	104	0	71	16499
2026-01-06 22:26:23.29	149.12	6.69	-49.7	-63.1	3.8	1.49e+00	0	38	104	0	71	16467
2026-01-06 22:26:26.30	149.39	6.50	-49.7	-63.1	3.8	1.49e+00	0	38	104	0	71	16433
2026-01-06 22:26:29.31	149.66	6.31	-49.7	-63.2	3.8	1.49e+00	0	39	104	0	71	16527
2026-01-06 22:26:32.33	149.93	6.13	-49.8	-63.2	3.8	1.49e+00	0	39	104	0	71	16504
2026-01-06 22:26:35.34	150.20	5.94	-49.7	-63.1	3.8	1.49e+00	0	38	104	0	71	16438
2026-01-06 22:26:38.35	150.46	5.75	-49.8	-63.2	3.8	1.49e+00	0	39	104	0	71	16527
2026-01-06 22:26:41.36	150.72	5.57	-49.8	-63.1	3.8	1.49e+00	0	39	104	0	71	16501
2026-01-06 22:26:44.37	150.98	5.39	-49.7	-63.1	3.8	1.49e+00	0	39	104	0	71	16490
2026-01-06 22:26:47.38	151.23	5.20	-49.7	-63.1	3.8	1.49e+00	0	39	104	0	71	16480
2026-01-06 22:26:50.40	151.48	5.02	-49.8	-63.1	3.8	1.49e+00	0	39	104	0	71	16499

#Closed at: 2026-01-06 22:26:52
#Recorded file [0 MB]: D:/Data/31040_260107_011530.dat