passes_logs/2026/01/06/T1/T1__20260106_212634_NOAA_20_JPSS-1_rec.log

#Pass ID: 20260106_212634_NOAA 20 (JPSS-1)
#Satellite: NOAA 20 (JPSS-1)
#Configuration: NOAA 20
#almurnet v.1.7.20251203
#Start time: 2026-01-06 21:26:36

#Version: 2.0.20230620
#Station: T1
#Location: 37.570604 lon 55.790049 lat
#TLE: 1 43013U 17073A   26006.30790171  .00000126  00000+0  80695-4 0  9991
#TLE: 2 43013  98.7629 307.3394 0001808  51.8724 308.2615 14.19533762421505

#Time	Az	El	Level	Level2	SNR	BER	BlckErr	Temp	State	Recorded	gain1	gain2
2026-01-06 21:26:36.78	42.52	5.09	-49.1	-64.5	3.8	1.49e+00	0	39	0	0	70	20372
2026-01-06 21:26:38.79	42.77	5.17	-49.1	-64.4	3.8	1.49e+00	0	40	104	0	69	21437
2026-01-06 21:26:40.79	43.03	5.24	-49.1	-64.4	3.8	1.49e+00	0	40	104	0	69	21446
2026-01-06 21:26:42.79	43.29	5.32	-49.1	-64.4	3.8	1.49e+00	0	40	104	0	69	21484
2026-01-06 21:26:44.80	43.55	5.40	-49.0	-64.4	3.8	1.49e+00	0	40	104	0	69	21484
2026-01-06 21:26:46.80	43.81	5.47	-49.1	-64.5	3.8	1.49e+00	0	40	104	0	69	21507
2026-01-06 21:26:48.81	44.07	5.55	-49.1	-64.4	3.8	1.49e+00	0	40	104	0	69	21496
2026-01-06 21:26:50.82	44.33	5.63	-49.0	-64.4	3.8	1.49e+00	0	40	104	0	69	21433
2026-01-06 21:26:52.82	44.60	5.70	-49.0	-64.4	3.8	1.49e+00	0	40	104	0	69	21491
2026-01-06 21:26:54.83	44.86	5.78	-49.0	-64.4	3.8	1.49e+00	0	40	104	0	69	21405
2026-01-06 21:26:56.83	45.13	5.85	-49.0	-64.5	3.8	1.49e+00	0	40	104	0	69	21528
2026-01-06 21:26:58.84	45.40	5.93	-49.0	-64.5	3.8	1.49e+00	0	40	104	0	69	21553
2026-01-06 21:27:00.84	45.67	6.00	-49.0	-64.4	3.8	1.49e+00	0	40	104	0	69	21500
2026-01-06 21:27:02.85	45.94	6.08	-49.0	-64.4	3.8	1.49e+00	0	40	104	0	69	21482
2026-01-06 21:27:04.85	46.21	6.15	-49.1	-64.4	3.8	1.49e+00	0	40	104	0	69	21466
2026-01-06 21:27:06.86	46.49	6.22	-49.1	-64.4	3.8	1.49e+00	0	41	104	0	69	21431
2026-01-06 21:27:08.86	46.76	6.30	-49.0	-64.5	3.8	1.49e+00	0	40	104	0	69	21525
2026-01-06 21:27:10.87	47.04	6.37	-49.0	-64.4	3.8	1.49e+00	0	41	104	0	69	21429
2026-01-06 21:27:12.87	47.32	6.44	-49.1	-64.4	3.8	1.49e+00	0	40	104	0	69	21482
2026-01-06 21:27:14.88	47.59	6.52	-49.0	-64.4	3.8	1.49e+00	0	41	104	0	69	21504
2026-01-06 21:27:16.89	47.88	6.59	-49.1	-64.4	3.8	1.49e+00	0	41	104	0	69	21477
2026-01-06 21:27:18.89	48.16	6.66	-49.1	-64.4	3.8	1.49e+00	0	41	104	0	69	21448
2026-01-06 21:27:20.90	48.44	6.73	-49.1	-64.4	3.8	1.49e+00	0	41	104	0	69	21418
2026-01-06 21:27:22.90	48.73	6.80	-49.0	-64.4	3.8	1.49e+00	0	41	104	0	69	21457
2026-01-06 21:27:24.91	49.01	6.87	-49.1	-64.4	3.8	1.49e+00	0	41	104	0	69	21498
2026-01-06 21:27:26.91	49.30	6.94	-49.1	-64.5	3.8	1.49e+00	0	41	104	0	69	21588
2026-01-06 21:27:28.92	49.59	7.01	-49.1	-64.5	3.8	1.49e+00	0	41	104	0	69	21510
2026-01-06 21:27:30.92	49.88	7.08	-49.1	-64.4	3.8	1.49e+00	0	41	104	0	69	21489
2026-01-06 21:27:32.93	50.17	7.15	-49.1	-64.4	3.8	1.49e+00	0	41	104	0	69	21423
2026-01-06 21:27:34.93	50.46	7.22	-49.1	-64.4	3.8	1.49e+00	0	41	104	0	69	21439
2026-01-06 21:27:36.94	50.76	7.28	-49.1	-64.4	3.8	1.49e+00	0	41	104	0	69	21464
2026-01-06 21:27:38.95	51.05	7.35	-49.0	-64.4	3.8	1.49e+00	0	41	104	0	69	21466
2026-01-06 21:27:40.95	51.35	7.42	-49.0	-64.4	3.8	1.49e+00	0	41	104	0	69	21494
2026-01-06 21:27:42.96	51.65	7.48	-49.0	-64.4	3.8	1.49e+00	0	41	104	0	69	21439
2026-01-06 21:27:44.96	51.94	7.55	-49.0	-64.5	3.8	1.49e+00	0	41	104	0	69	21511
2026-01-06 21:27:46.96	52.24	7.62	-49.0	-64.4	3.8	1.49e+00	0	41	104	0	69	21434
2026-01-06 21:27:48.97	52.55	7.68	-49.0	-64.4	3.8	1.49e+00	0	41	104	0	69	21333
2026-01-06 21:27:50.98	52.85	7.75	-49.0	-64.4	3.8	1.49e+00	0	41	104	0	69	21341
2026-01-06 21:27:52.98	53.15	7.81	-49.0	-64.4	3.8	1.49e+00	0	41	104	0	69	21320
2026-01-06 21:27:54.99	53.46	7.87	-49.0	-64.4	3.8	1.49e+00	0	41	104	0	69	21348
2026-01-06 21:27:56.99	53.77	7.94	-49.0	-64.3	3.8	1.49e+00	0	41	104	0	69	21246
2026-01-06 21:27:59.00	54.08	8.00	-49.0	-64.4	3.8	1.49e+00	0	41	104	0	69	21403
2026-01-06 21:28:01.01	54.39	8.06	-49.0	-64.4	3.8	1.49e+00	0	41	104	0	69	21337
2026-01-06 21:28:03.01	54.70	8.12	-49.0	-64.4	3.8	1.49e+00	0	41	104	0	69	21436
2026-01-06 21:28:05.01	55.01	8.18	-49.0	-64.4	3.8	1.49e+00	0	41	104	0	69	21388
2026-01-06 21:28:07.02	55.32	8.24	-49.0	-64.4	3.8	1.49e+00	0	41	104	0	69	21331
2026-01-06 21:28:09.03	55.64	8.30	-49.0	-64.4	3.8	1.49e+00	0	42	104	0	69	21308
2026-01-06 21:28:11.03	55.95	8.36	-49.0	-64.3	3.8	1.49e+00	0	41	104	0	69	21209
2026-01-06 21:28:13.04	56.27	8.42	-49.0	-64.3	3.8	1.49e+00	0	41	104	0	69	21056
2026-01-06 21:28:15.04	56.59	8.48	-49.0	-64.2	3.8	1.49e+00	0	41	104	0	69	20948
2026-01-06 21:28:17.04	56.91	8.53	-49.0	-64.3	3.8	1.49e+00	0	41	104	0	69	21113
2026-01-06 21:28:19.05	57.23	8.59	-49.0	-64.3	3.8	1.49e+00	0	42	104	0	69	21249
2026-01-06 21:28:21.06	57.55	8.64	-49.0	-64.3	3.8	1.49e+00	0	41	104	0	69	21216
2026-01-06 21:28:23.07	57.88	8.70	-49.0	-64.4	3.8	1.49e+00	0	42	104	0	69	21325
2026-01-06 21:28:25.07	58.20	8.75	-49.0	-64.3	3.8	1.49e+00	0	41	104	0	69	21228
2026-01-06 21:28:27.08	58.53	8.81	-49.0	-64.3	3.8	1.49e+00	0	41	104	0	69	21218
2026-01-06 21:28:29.09	58.85	8.86	-49.0	-64.0	3.8	1.49e+00	0	41	104	0	69	20394
2026-01-06 21:28:31.09	59.18	8.91	-49.0	-63.4	3.8	1.49e+00	0	41	104	0	69	19022
2026-01-06 21:28:33.10	59.51	8.96	-48.9	-63.0	3.8	1.49e+00	0	42	104	0	69	18190
2026-01-06 21:28:35.11	59.84	9.02	-48.6	-59.3	4.7	1.33e+00	0	41	0	0	69	11892
2026-01-06 21:28:37.11	60.17	9.07	-48.9	-63.0	3.8	1.49e+00	0	41	104	1048576	69	18299
2026-01-06 21:28:39.12	60.51	9.12	-48.6	-61.5	3.8	3.79e-01	0	42	104	2097152	67	17235
2026-01-06 21:28:41.12	60.84	9.16	-46.4	-51.3	11.9	5.53e-04	0	41	0	4194304	64	6328
2026-01-06 21:28:43.12	61.17	9.21	-45.7	-49.8	13.5	4.80e-05	0	42	0	8388608	63	5635
2026-01-06 21:28:45.12	61.51	9.26	-45.8	-49.9	13.4	1.37e-05	0	42	0	11534336	63	5678
2026-01-06 21:28:47.12	61.84	9.30	-45.8	-49.8	13.5	1.44e-05	0	41	0	15728640	63	5632
2026-01-06 21:28:49.13	62.18	9.35	-45.1	-48.8	14.6	7.00e-07	0	42	0	19922944	62	5286
2026-01-06 21:28:51.12	62.52	9.40	-45.0	-48.5	14.7	0.00e+00	0	42	0	23068672	62	5156
2026-01-06 21:28:53.12	62.86	9.44	-44.9	-48.4	14.9	0.00e+00	0	42	0	27262976	61	5360
2026-01-06 21:28:55.12	63.20	9.48	-45.0	-48.5	14.7	0.00e+00	0	42	0	30408704	61	5458
2026-01-06 21:28:57.12	63.54	9.52	-44.9	-48.4	14.9	0.00e+00	0	42	0	34603008	61	5346
2026-01-06 21:28:59.12	63.88	9.57	-44.9	-48.3	14.9	0.00e+00	0	42	0	37748736	61	5339
2026-01-06 21:29:01.13	64.23	9.61	-44.9	-48.4	14.9	0.00e+00	0	42	0	41943040	61	5350
2026-01-06 21:29:03.13	64.57	9.65	-44.9	-48.4	14.9	0.00e+00	0	42	0	46137344	61	5375
2026-01-06 21:29:05.13	64.91	9.69	-45.0	-48.5	14.7	0.00e+00	0	42	0	49283072	61	5464
2026-01-06 21:29:07.13	65.26	9.72	-44.9	-48.4	14.9	7.00e-07	0	42	0	53477376	61	5342
2026-01-06 21:29:09.13	65.61	9.76	-45.1	-48.5	14.7	0.00e+00	0	42	0	56623104	61	5459
2026-01-06 21:29:11.13	65.95	9.80	-45.2	-48.7	14.7	7.00e-07	0	42	0	60817408	61	5569
2026-01-06 21:29:13.14	66.30	9.83	-45.2	-48.7	14.6	0.00e+00	0	41	0	65011712	61	5588
2026-01-06 21:29:15.14	66.65	9.87	-45.3	-48.9	14.4	0.00e+00	0	41	0	68157440	61	5683
2026-01-06 21:29:17.14	67.00	9.90	-45.2	-48.7	14.5	7.00e-07	0	41	0	72351744	61	5589
2026-01-06 21:29:19.14	67.35	9.94	-45.2	-48.8	14.5	7.00e-07	0	41	0	75497472	61	5653
2026-01-06 21:29:21.14	67.71	9.97	-45.3	-49.0	14.4	0.00e+00	0	41	0	79691776	61	5733
2026-01-06 21:29:23.13	68.06	10.00	-45.4	-49.1	14.2	3.80e-06	0	42	0	82837504	61	5848
2026-01-06 21:29:25.13	68.41	10.03	-45.5	-49.3	14.0	3.80e-06	0	42	0	87031808	61	5949
2026-01-06 21:29:27.13	68.76	10.06	-45.6	-49.4	13.9	4.50e-06	0	41	0	91226112	61	6014
2026-01-06 21:29:29.13	69.12	10.09	-45.6	-49.4	14.0	7.00e-07	0	42	0	94371840	61	5996
2026-01-06 21:29:31.13	69.47	10.11	-45.6	-49.4	14.0	1.50e-06	0	41	0	98566144	61	6018
2026-01-06 21:29:33.13	69.83	10.14	-45.6	-49.4	13.9	3.80e-06	0	42	0	101711872	61	6045
2026-01-06 21:29:35.13	70.18	10.17	-45.5	-49.2	14.1	2.20e-06	0	41	0	105906176	61	5887
2026-01-06 21:29:37.13	70.54	10.19	-45.4	-49.0	14.3	1.50e-06	0	41	0	109051904	61	5782
2026-01-06 21:29:39.13	70.90	10.21	-45.3	-48.9	14.4	1.50e-06	0	42	0	113246208	61	5691
2026-01-06 21:29:41.13	71.26	10.24	-45.4	-49.0	14.3	1.50e-06	0	42	0	117440512	61	5788
2026-01-06 21:29:43.14	71.62	10.26	-45.5	-49.3	14.1	3.80e-06	0	41	0	120586240	61	5945
2026-01-06 21:29:45.15	71.98	10.28	-45.5	-49.2	14.1	3.80e-06	0	41	0	124780544	61	5923
2026-01-06 21:29:47.15	72.34	10.30	-45.6	-49.3	14.1	7.00e-07	0	42	0	127926272	61	5952
2026-01-06 21:29:49.15	72.70	10.32	-45.4	-49.0	14.4	0.00e+00	0	42	0	132120576	61	5727
2026-01-06 21:29:51.15	73.06	10.34	-45.2	-48.6	14.7	0.00e+00	0	41	0	136314880	61	5528
2026-01-06 21:29:53.15	73.42	10.35	-45.1	-48.6	14.8	0.00e+00	0	42	0	139460608	61	5487
2026-01-06 21:29:55.14	73.78	10.37	-45.0	-48.4	15.0	0.00e+00	0	42	0	143654912	61	5386
2026-01-06 21:29:57.14	74.14	10.38	-45.0	-48.5	15.0	0.00e+00	0	42	0	146800640	61	5417
2026-01-06 21:29:59.36	74.54	10.40	-45.0	-48.4	15.0	0.00e+00	0	42	0	150994944	61	5397
2026-01-06 21:30:01.36	74.91	10.41	-45.0	-48.4	15.0	0.00e+00	0	41	0	155189248	61	5368
2026-01-06 21:30:03.36	75.27	10.42	-45.1	-48.6	14.8	0.00e+00	0	41	0	158334976	61	5510
2026-01-06 21:30:05.36	75.63	10.44	-45.2	-48.7	14.6	0.00e+00	0	41	0	162529280	61	5586
2026-01-06 21:30:07.36	75.99	10.45	-45.2	-48.7	14.6	0.00e+00	0	41	0	165675008	61	5590
2026-01-06 21:30:09.43	76.37	10.45	-45.1	-48.5	14.9	0.00e+00	0	41	0	169869312	61	5457
2026-01-06 21:30:11.54	76.75	10.46	-44.9	-48.3	15.0	0.00e+00	0	41	0	174063616	61	5338
2026-01-06 21:30:13.58	77.13	10.47	-44.6	-47.8	15.6	0.00e+00	0	42	0	178257920	61	5029
2026-01-06 21:30:15.59	77.49	10.47	-44.5	-47.8	15.6	0.00e+00	0	41	0	181403648	60	5314
2026-01-06 21:30:17.60	77.86	10.48	-44.4	-47.6	15.8	0.00e+00	0	42	0	185597952	60	5167
2026-01-06 21:30:19.60	78.22	10.48	-44.4	-47.5	15.9	0.00e+00	0	41	0	188743680	60	5143
2026-01-06 21:30:21.61	78.59	10.49	-44.4	-47.5	16.0	0.00e+00	0	41	0	192937984	60	5112
2026-01-06 21:30:23.61	78.95	10.49	-44.3	-47.4	16.0	0.00e+00	0	41	0	197132288	60	5071
2026-01-06 21:30:25.61	79.32	10.49	-44.1	-47.0	16.4	0.00e+00	0	41	0	200278016	60	4870
2026-01-06 21:30:27.56	79.67	10.49	-43.9	-46.8	16.6	0.00e+00	0	41	0	204472320	59	5020
2026-01-06 21:30:29.55	80.04	10.49	-43.8	-46.7	16.7	0.00e+00	0	42	0	207618048	59	4965
2026-01-06 21:30:31.56	80.40	10.48	-43.9	-46.9	16.5	0.00e+00	0	42	0	211812352	59	5052
2026-01-06 21:30:33.57	80.77	10.48	-44.0	-46.9	16.5	0.00e+00	0	41	0	214958080	59	5059
2026-01-06 21:30:35.57	81.13	10.47	-44.0	-47.0	16.4	0.00e+00	0	41	0	219152384	59	5119
2026-01-06 21:30:37.57	81.50	10.47	-44.1	-47.2	16.2	0.00e+00	0	42	0	222298112	59	5241
2026-01-06 21:30:39.57	81.86	10.46	-44.1	-47.2	16.2	0.00e+00	0	41	0	226492416	59	5243
2026-01-06 21:30:41.58	82.23	10.45	-44.1	-47.1	16.3	0.00e+00	0	41	0	230686720	59	5188
2026-01-06 21:30:43.58	82.59	10.45	-44.1	-47.0	16.3	0.00e+00	0	42	0	233832448	59	5150
2026-01-06 21:30:45.58	82.96	10.44	-44.1	-47.1	16.3	0.00e+00	0	41	0	238026752	59	5162
2026-01-06 21:30:47.59	83.32	10.43	-44.2	-47.3	16.1	0.00e+00	0	42	0	241172480	59	5293
2026-01-06 21:30:49.67	83.70	10.41	-44.3	-47.4	16.0	0.00e+00	0	42	0	245366784	59	5346
2026-01-06 21:30:51.67	84.06	10.40	-44.2	-47.3	16.1	0.00e+00	0	41	0	249561088	59	5288
2026-01-06 21:30:53.68	84.43	10.39	-44.1	-47.1	16.3	0.00e+00	0	42	0	252706816	59	5188
2026-01-06 21:30:55.68	84.79	10.37	-44.1	-47.1	16.3	0.00e+00	0	41	0	256901120	59	5193
2026-01-06 21:30:57.68	85.15	10.36	-44.0	-47.0	16.4	0.00e+00	0	41	0	260046848	59	5124
2026-01-06 21:30:59.85	85.54	10.34	-44.1	-47.1	16.3	0.00e+00	0	41	0	264241152	59	5188
2026-01-06 21:31:01.85	85.90	10.32	-44.1	-47.2	16.2	0.00e+00	0	41	0	268435456	59	5239
2026-01-06 21:31:03.86	86.27	10.30	-44.2	-47.3	16.1	0.00e+00	0	41	0	272629760	59	5322
2026-01-06 21:31:05.86	86.63	10.28	-44.2	-47.3	16.1	0.00e+00	0	41	0	275775488	59	5318
2026-01-06 21:31:07.86	86.99	10.26	-44.4	-47.5	16.0	0.00e+00	0	42	0	279969792	59	5431
2026-01-06 21:31:09.93	87.36	10.24	-44.4	-47.5	15.8	0.00e+00	0	41	0	283115520	59	5451
2026-01-06 21:31:11.95	87.72	10.21	-44.4	-47.5	15.8	0.00e+00	0	41	0	287309824	59	5463
2026-01-06 21:31:13.95	88.08	10.19	-44.3	-47.3	16.0	0.00e+00	0	41	0	291504128	59	5340
2026-01-06 21:31:15.95	88.44	10.17	-44.2	-47.3	16.1	0.00e+00	0	41	0	294649856	59	5282
2026-01-06 21:31:17.96	88.80	10.14	-44.1	-47.0	16.4	0.00e+00	0	41	0	298844160	59	5127
2026-01-06 21:31:19.99	89.16	10.11	-44.1	-47.1	16.3	0.00e+00	0	41	0	301989888	59	5173
2026-01-06 21:31:22.00	89.52	10.08	-44.2	-47.2	16.2	0.00e+00	0	41	0	306184192	59	5227
2026-01-06 21:31:24.00	89.87	10.06	-44.3	-47.4	16.0	0.00e+00	0	42	0	310378496	59	5348
2026-01-06 21:31:26.00	90.22	10.03	-44.3	-47.3	16.0	0.00e+00	0	42	0	313524224	59	5318
2026-01-06 21:31:28.00	90.58	10.00	-44.3	-47.3	16.0	0.00e+00	0	42	0	317718528	59	5320
2026-01-06 21:31:30.00	90.93	9.96	-44.2	-47.2	16.1	0.00e+00	0	41	0	320864256	59	5243
2026-01-06 21:31:32.01	91.29	9.93	-44.1	-47.1	16.2	0.00e+00	0	41	0	325058560	59	5194
2026-01-06 21:31:34.11	91.65	9.90	-44.1	-47.2	16.2	0.00e+00	0	41	0	329252864	59	5222
2026-01-06 21:31:36.16	92.01	9.86	-44.1	-47.1	16.3	0.00e+00	0	41	0	332398592	59	5165
2026-01-06 21:31:38.18	92.37	9.83	-44.0	-47.0	16.4	0.00e+00	0	41	0	336592896	59	5104
2026-01-06 21:31:40.18	92.72	9.79	-44.0	-47.0	16.3	0.00e+00	0	41	0	339738624	59	5131
2026-01-06 21:31:42.18	93.06	9.75	-44.0	-47.0	16.3	0.00e+00	0	41	0	343932928	59	5104
2026-01-06 21:31:44.18	93.41	9.72	-44.0	-47.0	16.3	0.00e+00	0	41	0	348127232	59	5117
2026-01-06 21:31:46.19	93.76	9.68	-44.2	-47.2	16.1	0.00e+00	0	42	0	351272960	59	5233
2026-01-06 21:31:48.38	94.14	9.63	-44.3	-47.4	15.9	0.00e+00	0	41	0	355467264	59	5348
2026-01-06 21:31:50.45	94.50	9.59	-44.3	-47.3	16.0	0.00e+00	0	41	0	359661568	59	5305
2026-01-06 21:31:52.45	94.84	9.55	-44.2	-47.3	16.1	0.00e+00	0	41	0	362807296	59	5280
2026-01-06 21:31:54.46	95.18	9.51	-44.3	-47.3	15.9	0.00e+00	0	41	0	367001600	59	5331
2026-01-06 21:31:56.46	95.53	9.47	-44.3	-47.4	15.9	0.00e+00	0	41	0	371195904	59	5351
2026-01-06 21:31:58.48	95.87	9.42	-44.3	-47.3	15.9	0.00e+00	0	41	0	374341632	59	5322
2026-01-06 21:32:00.48	96.21	9.38	-44.2	-47.3	16.0	0.00e+00	0	41	0	378535936	59	5304
2026-01-06 21:32:02.61	96.57	9.33	-44.0	-47.0	16.2	0.00e+00	0	41	0	382730240	59	5117
2026-01-06 21:32:04.80	96.94	9.28	-44.0	-47.0	16.2	0.00e+00	0	41	0	385875968	59	5141
2026-01-06 21:32:06.81	97.28	9.23	-44.2	-47.2	16.0	0.00e+00	0	41	0	390070272	59	5264
2026-01-06 21:32:09.07	97.66	9.18	-44.4	-47.6	15.6	0.00e+00	0	41	0	394264576	59	5491
2026-01-06 21:32:11.18	98.01	9.13	-44.5	-47.7	15.5	0.00e+00	0	41	0	398458880	59	5574
2026-01-06 21:32:13.24	98.35	9.08	-44.5	-47.7	15.5	0.00e+00	0	41	0	402653184	59	5553
2026-01-06 21:32:15.25	98.69	9.03	-44.4	-47.6	15.6	0.00e+00	0	41	0	405798912	59	5469
2026-01-06 21:32:17.26	99.02	8.97	-49.4	-64.1	3.8	2.73e-01	0	41	104	408944640	69	20692
2026-01-06 21:32:19.51	99.39	8.92	-49.8	-65.1	3.8	1.49e+00	0	41	104	408944640	70	21938
2026-01-06 21:32:21.59	99.73	8.86	-49.5	-65.2	3.8	1.49e+00	0	41	104	408944640	70	22180
2026-01-06 21:32:23.60	100.06	8.81	-49.7	-65.3	3.8	1.49e+00	0	41	104	408944640	70	22328
2026-01-06 21:32:25.61	100.39	8.75	-49.8	-65.3	3.8	1.49e+00	0	41	104	408944640	70	22331
2026-01-06 21:32:27.62	100.72	8.70	-49.9	-65.3	3.8	1.49e+00	0	41	104	408944640	70	22504
2026-01-06 21:32:29.62	101.04	8.64	-49.9	-65.4	3.8	1.49e+00	0	41	104	408944640	70	22547
2026-01-06 21:32:31.63	101.37	8.59	-49.8	-65.3	3.8	1.49e+00	0	41	104	408944640	70	22482
2026-01-06 21:32:33.64	101.69	8.53	-49.9	-65.4	3.8	1.49e+00	0	41	104	408944640	70	22591
2026-01-06 21:32:35.65	102.01	8.47	-49.8	-65.4	3.8	1.49e+00	0	41	104	408944640	70	22549
2026-01-06 21:32:37.66	102.33	8.42	-49.8	-65.3	3.8	1.49e+00	0	41	104	408944640	70	22509
2026-01-06 21:32:39.66	102.65	8.36	-49.8	-65.3	3.8	1.49e+00	0	42	104	408944640	70	22419
2026-01-06 21:32:41.67	102.97	8.30	-49.8	-65.3	3.8	1.49e+00	0	41	104	408944640	70	22380
2026-01-06 21:32:43.68	103.28	8.24	-49.7	-65.3	3.8	1.49e+00	0	41	104	408944640	70	22506
2026-01-06 21:32:45.69	103.60	8.18	-49.7	-65.3	3.8	1.49e+00	0	41	104	408944640	70	22344
2026-01-06 21:32:47.70	103.91	8.12	-49.7	-65.3	3.8	1.49e+00	0	41	104	408944640	70	22379
2026-01-06 21:32:49.71	104.23	8.05	-49.7	-65.3	3.8	1.49e+00	0	41	104	408944640	70	22337
2026-01-06 21:32:51.71	104.54	7.99	-49.7	-65.3	3.8	1.49e+00	0	41	104	408944640	70	22452
2026-01-06 21:32:53.72	104.85	7.93	-49.7	-65.3	3.8	1.49e+00	0	41	104	408944640	70	22303
2026-01-06 21:32:55.73	105.16	7.87	-49.7	-65.3	3.8	1.49e+00	0	41	104	408944640	70	22305
2026-01-06 21:32:57.74	105.47	7.80	-49.7	-65.3	3.8	1.49e+00	0	41	104	408944640	70	22337
2026-01-06 21:32:59.74	105.77	7.74	-49.7	-65.3	3.8	1.49e+00	0	41	104	408944640	70	22361
2026-01-06 21:33:01.75	106.08	7.67	-49.7	-65.3	3.8	1.49e+00	0	41	104	408944640	70	22430
2026-01-06 21:33:03.76	106.38	7.61	-49.7	-65.3	3.8	1.49e+00	0	41	104	408944640	70	22362
2026-01-06 21:33:05.77	106.68	7.54	-49.7	-65.3	3.8	1.49e+00	0	41	104	408944640	70	22338
2026-01-06 21:33:07.79	106.99	7.47	-49.7	-65.3	3.8	1.49e+00	0	41	104	408944640	70	22284
2026-01-06 21:33:09.80	107.29	7.41	-49.7	-65.3	3.8	1.49e+00	0	42	104	408944640	70	22329
2026-01-06 21:33:11.80	107.58	7.34	-49.7	-65.3	3.8	1.49e+00	0	41	104	408944640	70	22305
2026-01-06 21:33:13.81	107.88	7.27	-49.7	-65.3	3.8	1.49e+00	0	41	104	408944640	70	22361
2026-01-06 21:33:15.82	108.18	7.20	-49.7	-65.3	3.8	1.49e+00	0	42	104	408944640	70	22273
2026-01-06 21:33:17.83	108.47	7.13	-49.7	-65.3	3.8	1.49e+00	0	41	104	408944640	70	22333
2026-01-06 21:33:19.84	108.77	7.06	-49.7	-65.3	3.8	1.49e+00	0	41	104	408944640	70	22420
2026-01-06 21:33:21.85	109.06	6.99	-49.7	-65.3	3.8	1.49e+00	0	41	104	408944640	70	22327
2026-01-06 21:33:23.86	109.35	6.92	-49.7	-65.3	3.8	1.49e+00	0	41	104	408944640	70	22325
2026-01-06 21:33:25.87	109.64	6.85	-49.7	-65.3	3.8	1.49e+00	0	41	104	408944640	70	22325
2026-01-06 21:33:27.88	109.93	6.78	-49.7	-65.3	3.8	1.49e+00	0	42	104	408944640	70	22345
2026-01-06 21:33:29.88	110.21	6.71	-49.7	-65.3	3.8	1.49e+00	0	41	104	408944640	70	22357
2026-01-06 21:33:31.89	110.50	6.64	-49.7	-65.3	3.8	1.49e+00	0	41	104	408944640	70	22270
2026-01-06 21:33:33.90	110.78	6.57	-49.7	-65.3	3.8	1.49e+00	0	41	104	408944640	70	22330
2026-01-06 21:33:35.91	111.06	6.49	-49.8	-65.3	3.8	1.49e+00	0	41	104	408944640	70	22470
2026-01-06 21:33:37.92	111.34	6.42	-49.7	-65.3	3.8	1.49e+00	0	41	104	408944640	70	22355
2026-01-06 21:33:39.93	111.62	6.35	-49.7	-65.3	3.8	1.49e+00	0	42	104	408944640	70	22397
2026-01-06 21:33:41.94	111.90	6.27	-49.7	-65.3	3.8	1.49e+00	0	41	104	408944640	70	22373
2026-01-06 21:33:43.95	112.18	6.20	-49.8	-65.3	3.8	1.49e+00	0	41	104	408944640	70	22449
2026-01-06 21:33:45.96	112.45	6.12	-49.8	-65.3	3.8	1.49e+00	0	41	104	408944640	70	22430
2026-01-06 21:33:47.96	112.73	6.05	-49.8	-65.3	3.8	1.49e+00	0	41	104	408944640	70	22351
2026-01-06 21:33:49.98	113.00	5.97	-49.7	-65.3	3.8	1.49e+00	0	41	104	408944640	70	22366
2026-01-06 21:33:51.98	113.27	5.90	-49.8	-65.3	3.8	1.49e+00	0	41	104	408944640	70	22415
2026-01-06 21:33:53.99	113.54	5.82	-49.7	-65.3	3.8	1.49e+00	0	41	104	408944640	70	22413
2026-01-06 21:33:56.00	113.81	5.75	-49.8	-65.3	3.8	1.49e+00	0	41	104	408944640	70	22455
2026-01-06 21:33:58.01	114.08	5.67	-49.7	-65.3	3.8	1.49e+00	0	41	104	408944640	70	22424
2026-01-06 21:34:00.02	114.34	5.59	-49.8	-65.3	3.8	1.49e+00	0	41	104	408944640	70	22331
2026-01-06 21:34:02.03	114.61	5.51	-49.8	-65.3	3.8	1.49e+00	0	41	104	408944640	70	22503
2026-01-06 21:34:04.03	114.87	5.44	-49.8	-65.3	3.8	1.49e+00	0	41	104	408944640	70	22483
2026-01-06 21:34:06.04	115.13	5.36	-49.8	-65.3	3.8	1.49e+00	0	41	104	408944640	70	22485
2026-01-06 21:34:08.05	115.40	5.28	-49.8	-65.3	3.8	1.49e+00	0	41	104	408944640	70	22400
2026-01-06 21:34:10.06	115.65	5.20	-49.8	-65.3	3.8	1.49e+00	0	41	104	408944640	70	22447
2026-01-06 21:34:12.07	115.91	5.13	-49.7	-65.3	3.8	1.49e+00	0	41	104	408944640	70	22338
2026-01-06 21:34:14.07	116.17	5.05	-49.7	-65.3	3.8	1.49e+00	0	41	104	408944640	70	22291

#Closed at: 2026-01-06 21:34:16
#Recorded file [408 MB]: D:/Data/31040_260107_002636.dat