passes_logs/2026/01/06/T1/T1__20260106_200815_KHAYYAM_rec.log

#Pass ID: 20260106_200815_KHAYYAM
#Satellite: KHAYYAM
#Configuration: KHAYYAM_480M
#almurnet v.1.7.20251203
#Start time: 2026-01-06 20:08:15

#Version: 2.0.20230620
#Station: T1
#Location: 37.570604 lon 55.790049 lat
#TLE: 1 53370U 22096A   26005.63766736  .00008095  00000+0  32978-3 0  9997
#TLE: 2 53370  97.3565 272.8146 0001238  87.7645 272.3734 15.24731212189819

#Time	Az	El	Level	Level2	SNR	BER	BlckErr	Temp	State	Recorded	gain1	gain2
2026-01-06 20:08:15.17	33.56	5.02	-49.4	-51.9	3.9	0.00e+00	0	45	0	0	70	19052
2026-01-06 20:08:17.17	33.81	5.15	-49.3	-51.7	3.8	0.00e+00	0	45	104	0	69	19872
2026-01-06 20:08:19.18	34.07	5.28	-49.3	-51.7	3.8	0.00e+00	0	45	104	0	69	19811
2026-01-06 20:08:21.19	34.33	5.42	-49.4	-51.8	3.8	0.00e+00	0	45	104	0	69	20108
2026-01-06 20:08:23.20	34.59	5.55	-49.3	-51.7	3.8	0.00e+00	0	45	104	0	69	19841
2026-01-06 20:08:25.21	34.85	5.68	-49.4	-51.9	3.8	0.00e+00	0	46	104	0	69	20245
2026-01-06 20:08:27.22	35.12	5.82	-49.4	-51.8	3.8	0.00e+00	0	46	104	0	69	20056
2026-01-06 20:08:29.23	35.39	5.95	-49.4	-51.8	3.8	0.00e+00	0	46	104	0	69	20019
2026-01-06 20:08:31.23	35.66	6.09	-49.4	-51.8	3.8	0.00e+00	0	46	104	0	69	20080
2026-01-06 20:08:33.24	35.93	6.22	-49.3	-51.7	3.8	0.00e+00	0	46	104	0	69	19839
2026-01-06 20:08:35.25	36.21	6.36	-49.4	-51.8	3.8	0.00e+00	0	46	104	0	69	19999
2026-01-06 20:08:37.26	36.49	6.49	-49.3	-51.8	3.8	0.00e+00	0	46	104	0	69	19958
2026-01-06 20:08:39.27	36.78	6.63	-49.4	-51.8	3.8	0.00e+00	0	47	104	0	69	20040
2026-01-06 20:08:41.28	37.07	6.77	-49.4	-51.8	3.8	0.00e+00	0	47	104	0	69	20141
2026-01-06 20:08:43.28	37.36	6.91	-49.4	-51.8	3.8	0.00e+00	0	47	104	0	69	20044
2026-01-06 20:08:45.29	37.66	7.05	-49.4	-51.8	3.8	0.00e+00	0	47	104	0	69	20078
2026-01-06 20:08:47.30	37.95	7.18	-49.4	-51.8	3.8	0.00e+00	0	47	104	0	69	20026
2026-01-06 20:08:49.31	38.26	7.32	-49.4	-51.8	3.8	0.00e+00	0	47	104	0	69	20100
2026-01-06 20:08:51.32	38.56	7.46	-49.4	-51.8	3.8	0.00e+00	0	47	104	0	69	20016
2026-01-06 20:08:53.33	38.87	7.60	-49.5	-52.0	3.8	0.00e+00	0	48	104	0	69	20476
2026-01-06 20:08:55.33	39.18	7.74	-49.4	-51.9	3.8	0.00e+00	0	48	104	0	69	20228
2026-01-06 20:08:57.34	39.50	7.89	-49.4	-51.8	3.8	0.00e+00	0	48	104	0	69	20086
2026-01-06 20:08:59.35	39.82	8.03	-49.3	-51.8	3.8	0.00e+00	0	48	104	0	69	19987
2026-01-06 20:09:01.36	40.15	8.17	-49.4	-51.8	3.8	0.00e+00	0	48	104	0	69	20149
2026-01-06 20:09:03.37	40.48	8.31	-49.4	-51.8	3.8	0.00e+00	0	48	104	0	69	20085
2026-01-06 20:09:05.38	40.81	8.45	-49.3	-51.7	3.8	0.00e+00	0	48	104	0	69	19722
2026-01-06 20:09:07.38	41.14	8.60	-49.3	-51.7	3.9	0.00e+00	0	48	104	0	69	19873
2026-01-06 20:09:09.39	41.49	8.74	-49.3	-51.8	3.8	0.00e+00	0	48	104	0	69	19937
2026-01-06 20:09:11.40	41.83	8.89	-49.2	-51.6	3.9	0.00e+00	0	48	104	0	69	19543
2026-01-06 20:09:13.41	42.18	9.03	-49.9	-52.5	3.8	0.00e+00	0	48	104	0	70	20569
2026-01-06 20:09:15.47	42.54	9.18	-48.4	-50.7	3.7	0.00e+00	0	48	104	0	67	19823
2026-01-06 20:09:17.66	42.93	9.34	-48.4	-50.6	3.7	0.00e+00	0	48	104	0	68	18457
2026-01-06 20:09:19.66	43.29	9.48	-48.9	-51.1	3.9	0.00e+00	0	48	104	0	69	18450
2026-01-06 20:09:21.67	43.66	9.63	-48.6	-50.8	4.0	0.00e+00	0	49	104	0	68	18958
2026-01-06 20:09:23.67	44.03	9.77	-50.6	-53.7	3.7	0.00e+00	0	49	104	0	72	20992
2026-01-06 20:09:25.63	44.40	9.91	-48.9	-51.2	4.0	0.00e+00	0	49	104	0	69	18630
2026-01-06 20:09:27.74	44.80	10.07	-50.7	-53.7	3.7	0.00e+00	0	49	104	0	72	21055
2026-01-06 20:09:29.74	45.18	10.21	-51.5	-55.0	3.7	0.00e+00	0	49	104	0	73	22994
2026-01-06 20:09:31.75	45.57	10.36	-51.2	-54.3	3.7	0.00e+00	0	49	104	0	73	21125
2026-01-06 20:09:33.75	45.96	10.51	-52.3	-56.2	3.7	0.00e+00	0	49	104	0	75	23597
2026-01-06 20:09:35.76	46.36	10.66	-52.3	-56.3	3.7	0.00e+00	0	49	104	0	76	22514
2026-01-06 20:09:37.76	46.76	10.80	-51.0	-54.3	3.7	0.00e+00	0	49	104	0	73	21260
2026-01-06 20:09:39.77	47.17	10.95	-52.0	-55.7	3.7	0.00e+00	0	49	104	0	74	23675
2026-01-06 20:09:41.85	47.60	11.10	-51.8	-55.7	3.7	0.00e+00	0	49	104	0	74	23547
2026-01-06 20:09:44.08	48.07	11.27	-52.0	-55.9	3.7	0.00e+00	0	49	104	0	74	24199
2026-01-06 20:09:46.26	48.53	11.43	-52.1	-56.0	3.7	0.00e+00	0	49	104	0	74	24346
2026-01-06 20:09:48.26	48.96	11.57	-50.9	-54.0	3.7	0.00e+00	0	49	104	0	73	20547
2026-01-06 20:09:50.27	49.39	11.72	-51.8	-55.5	3.7	0.00e+00	0	49	104	0	74	22996
2026-01-06 20:09:52.28	49.84	11.87	-52.2	-56.2	3.7	0.00e+00	0	50	104	0	75	23524
2026-01-06 20:09:54.28	50.28	12.01	-52.1	-55.9	3.7	0.00e+00	0	50	104	0	75	22829
2026-01-06 20:09:56.29	50.73	12.16	-52.6	-56.7	3.7	0.00e+00	0	50	104	0	75	24839
2026-01-06 20:09:58.29	51.19	12.31	-52.7	-56.8	3.7	0.00e+00	0	49	104	0	76	23918
2026-01-06 20:10:00.30	51.65	12.45	-52.7	-56.8	3.7	0.00e+00	0	50	104	0	76	23816
2026-01-06 20:10:02.31	52.12	12.60	-52.5	-56.6	3.7	0.00e+00	0	49	104	0	76	23208
2026-01-06 20:10:04.31	52.59	12.75	-52.5	-56.7	3.7	0.00e+00	0	50	104	0	76	23530
2026-01-06 20:10:06.32	53.07	12.89	-52.3	-56.5	3.7	0.00e+00	0	50	104	0	76	23081
2026-01-06 20:10:08.32	53.56	13.04	-52.3	-56.4	3.7	0.00e+00	0	50	104	0	76	22846
2026-01-06 20:10:10.33	54.05	13.18	-52.4	-56.4	3.7	0.00e+00	0	50	104	0	76	22723
2026-01-06 20:10:12.34	54.54	13.32	-52.5	-56.4	3.7	0.00e+00	0	50	104	0	76	22824
2026-01-06 20:10:14.35	55.05	13.47	-52.7	-57.3	3.7	0.00e+00	0	50	104	0	76	25172
2026-01-06 20:10:16.48	55.59	13.62	-52.7	-57.3	3.7	0.00e+00	0	50	104	0	76	25335
2026-01-06 20:10:18.49	56.10	13.76	-53.1	-57.6	3.7	0.00e+00	0	50	104	0	76	26085
2026-01-06 20:10:20.49	56.62	13.90	-53.0	-57.4	3.7	0.00e+00	0	50	104	0	76	25559
2026-01-06 20:10:22.50	57.15	14.04	-52.6	-57.4	3.7	0.00e+00	0	50	104	0	76	25394
2026-01-06 20:10:24.50	57.68	14.18	-52.6	-57.3	3.7	0.00e+00	0	50	104	0	76	25248
2026-01-06 20:10:26.51	58.21	14.32	-53.1	-57.6	3.7	0.00e+00	0	50	104	0	76	26238
2026-01-06 20:10:28.52	58.76	14.46	-53.2	-57.7	3.7	0.00e+00	0	50	104	0	77	24968
2026-01-06 20:10:30.52	59.31	14.59	-52.5	-56.6	3.7	0.00e+00	0	50	104	0	76	23227
2026-01-06 20:10:32.53	59.86	14.73	-52.3	-56.6	3.7	0.00e+00	0	50	104	0	76	23409
2026-01-06 20:10:34.68	60.46	14.87	-52.9	-57.4	3.7	0.00e+00	0	50	104	0	76	25401
2026-01-06 20:10:36.77	61.06	15.01	-52.9	-57.5	3.7	0.00e+00	0	50	104	0	76	25938
2026-01-06 20:10:38.77	61.63	15.14	-52.5	-57.2	3.7	0.00e+00	0	50	104	0	76	24982
2026-01-06 20:10:40.77	62.21	15.27	-52.6	-57.4	3.7	0.00e+00	0	50	104	0	76	25578
2026-01-06 20:10:42.78	62.79	15.40	-53.0	-57.7	3.7	0.00e+00	0	50	104	0	76	26342
2026-01-06 20:10:44.79	63.39	15.52	-52.9	-57.4	3.7	0.00e+00	0	50	104	0	76	25627
2026-01-06 20:10:46.80	63.98	15.65	-52.8	-57.2	3.7	0.00e+00	0	50	104	0	76	25044
2026-01-06 20:10:48.81	64.59	15.77	-52.7	-57.0	3.7	0.00e+00	0	50	104	0	76	24453
2026-01-06 20:10:50.81	65.20	15.89	-52.9	-57.2	3.7	0.00e+00	0	50	104	0	77	23662
2026-01-06 20:10:52.82	65.81	16.01	-52.8	-57.0	3.7	0.00e+00	0	50	104	0	77	22968
2026-01-06 20:10:54.82	66.43	16.13	-52.9	-57.3	3.7	0.00e+00	0	50	104	0	77	23859
2026-01-06 20:10:56.83	67.06	16.24	-53.1	-57.6	3.7	0.00e+00	0	50	104	0	77	24742
2026-01-06 20:10:59.18	67.80	16.38	-53.1	-57.5	3.7	0.00e+00	0	50	104	0	77	24395
2026-01-06 20:11:01.16	68.43	16.48	-52.8	-56.8	3.7	0.00e+00	0	50	104	0	77	22384
2026-01-06 20:11:03.23	69.09	16.59	-52.7	-56.7	3.7	0.00e+00	0	50	104	0	77	22231
2026-01-06 20:11:05.23	69.74	16.70	-53.0	-57.5	3.7	0.00e+00	0	51	104	0	77	24427
2026-01-06 20:11:07.24	70.40	16.80	-52.7	-57.0	3.7	0.00e+00	0	50	104	0	77	22993
2026-01-06 20:11:09.25	71.06	16.90	-53.1	-57.6	3.7	0.00e+00	0	50	104	0	77	24595
2026-01-06 20:11:11.28	71.73	17.00	-53.2	-57.6	3.7	0.00e+00	0	50	104	0	77	24721
2026-01-06 20:11:13.35	72.42	17.10	-53.2	-57.7	3.7	0.00e+00	0	50	104	0	77	24918
2026-01-06 20:11:15.36	73.10	17.19	-52.9	-57.2	3.7	0.00e+00	0	50	104	0	77	23550
2026-01-06 20:11:17.36	73.77	17.28	-53.1	-57.5	3.7	0.00e+00	0	50	104	0	77	24243
2026-01-06 20:11:19.37	74.46	17.36	-53.1	-57.7	3.7	0.00e+00	0	50	104	0	77	24808
2026-01-06 20:11:21.38	75.15	17.44	-53.1	-57.6	3.7	0.00e+00	0	50	104	0	77	24738
2026-01-06 20:11:23.39	75.84	17.52	-52.8	-57.5	3.7	0.00e+00	0	50	104	0	77	24328
2026-01-06 20:11:25.39	76.54	17.60	-52.7	-57.3	3.7	0.00e+00	0	50	104	0	77	23780
2026-01-06 20:11:27.40	77.24	17.67	-53.2	-57.7	3.7	0.00e+00	0	50	104	0	77	24896
2026-01-06 20:11:29.41	77.95	17.74	-53.0	-57.5	3.7	0.00e+00	0	50	104	0	77	24262
2026-01-06 20:11:31.42	78.66	17.81	-53.0	-57.5	3.7	0.00e+00	0	50	104	0	77	24356
2026-01-06 20:11:33.42	79.37	17.87	-53.0	-57.6	3.7	0.00e+00	0	51	104	0	77	24616
2026-01-06 20:11:35.43	80.08	17.93	-52.5	-57.1	3.7	0.00e+00	0	50	104	0	77	23301
2026-01-06 20:11:37.43	80.80	17.98	-52.2	-57.0	3.7	0.00e+00	0	50	104	0	76	24245
2026-01-06 20:11:39.44	81.52	18.03	-52.7	-57.5	3.7	0.00e+00	0	50	104	0	76	25761
2026-01-06 20:11:41.44	82.25	18.08	-52.8	-57.5	3.7	0.00e+00	0	50	104	0	76	25805
2026-01-06 20:11:43.48	82.98	18.12	-52.3	-57.0	3.7	0.00e+00	0	51	104	0	76	24498
2026-01-06 20:11:45.48	83.71	18.16	-52.3	-56.9	3.7	0.00e+00	0	51	104	0	76	24240
2026-01-06 20:11:47.49	84.44	18.19	-52.1	-56.7	3.7	0.00e+00	0	50	104	0	76	23636
2026-01-06 20:11:49.60	85.21	18.23	-52.0	-56.4	3.7	0.00e+00	0	51	104	0	75	24049
2026-01-06 20:11:51.65	85.96	18.25	-52.2	-57.0	3.7	0.00e+00	0	51	104	0	75	25883
2026-01-06 20:11:53.69	86.71	18.28	-52.2	-56.3	3.7	0.00e+00	0	51	104	0	75	23922
2026-01-06 20:11:55.95	87.54	18.30	-52.3	-56.3	3.7	0.00e+00	0	50	104	0	75	23741
2026-01-06 20:11:57.95	88.28	18.31	-52.4	-56.8	3.7	0.00e+00	0	50	104	0	75	25128
2026-01-06 20:11:59.96	89.02	18.32	-52.2	-56.6	3.7	0.00e+00	0	50	104	0	75	24579
2026-01-06 20:12:01.96	89.76	18.32	-52.8	-57.1	3.7	0.00e+00	0	50	104	0	76	24699
2026-01-06 20:12:03.97	90.50	18.33	-53.0	-57.6	3.7	0.00e+00	0	50	104	0	76	26036
2026-01-06 20:12:05.98	91.24	18.32	-52.8	-57.1	3.7	0.00e+00	0	50	104	0	76	24723
2026-01-06 20:12:07.98	91.98	18.32	-52.9	-57.3	3.7	0.00e+00	0	51	104	0	76	25156
2026-01-06 20:12:09.99	92.72	18.30	-53.2	-57.6	3.7	0.00e+00	0	50	104	0	76	26050
2026-01-06 20:12:12.00	93.46	18.29	-53.1	-57.6	3.7	0.00e+00	0	51	104	0	77	24733
2026-01-06 20:12:14.00	94.19	18.27	-53.0	-57.4	3.7	0.00e+00	0	50	104	0	77	23981
2026-01-06 20:12:16.06	94.95	18.24	-53.2	-57.7	3.7	0.00e+00	0	51	104	0	77	24908
2026-01-06 20:12:18.24	95.75	18.21	-53.2	-57.8	3.7	0.00e+00	0	50	104	0	77	25232
2026-01-06 20:12:20.58	96.60	18.18	-53.2	-57.7	3.7	0.00e+00	0	51	104	0	77	25037
2026-01-06 20:12:22.75	97.40	18.14	-53.3	-57.7	3.7	0.00e+00	0	50	104	0	77	25088
2026-01-06 20:12:24.92	98.18	18.09	-53.3	-57.8	3.7	0.00e+00	0	51	104	0	77	25238
2026-01-06 20:12:27.09	98.97	18.04	-53.2	-57.7	3.7	0.00e+00	0	51	104	0	77	25006
2026-01-06 20:12:29.24	99.75	17.99	-53.3	-57.7	3.7	0.00e+00	0	51	104	0	77	25082
2026-01-06 20:12:31.52	100.56	17.93	-53.4	-57.8	3.7	0.00e+00	0	51	104	0	77	25376
2026-01-06 20:12:33.68	101.34	17.87	-53.3	-57.8	3.7	0.00e+00	0	51	104	0	77	25207
2026-01-06 20:12:35.83	102.10	17.80	-53.3	-57.9	3.7	0.00e+00	0	51	104	0	77	25459
2026-01-06 20:12:38.04	102.88	17.73	-53.2	-57.7	3.7	0.00e+00	0	50	104	0	77	24883
2026-01-06 20:12:40.20	103.64	17.65	-53.3	-57.9	3.7	0.00e+00	0	50	104	0	77	25491
2026-01-06 20:12:42.21	104.35	17.58	-53.3	-57.9	3.7	0.00e+00	0	51	104	0	77	25440
2026-01-06 20:12:44.33	105.09	17.50	-53.2	-57.7	3.7	0.00e+00	0	51	104	0	77	24939
2026-01-06 20:12:46.34	105.78	17.42	-53.1	-57.6	3.7	0.00e+00	0	51	104	0	77	24541
2026-01-06 20:12:48.50	106.52	17.33	-53.0	-57.6	3.7	0.00e+00	0	50	104	0	77	24767
2026-01-06 20:12:50.50	107.21	17.24	-52.9	-57.6	3.7	0.00e+00	0	51	104	0	77	24711
2026-01-06 20:12:52.51	107.89	17.15	-53.2	-57.7	3.7	0.00e+00	0	51	104	0	77	25086
2026-01-06 20:12:54.52	108.56	17.06	-53.2	-57.8	3.7	0.00e+00	0	51	104	0	77	25125
2026-01-06 20:12:56.52	109.23	16.96	-53.1	-57.5	3.7	0.00e+00	0	51	104	0	77	24432
2026-01-06 20:12:58.53	109.90	16.86	-53.2	-57.7	3.7	0.00e+00	0	51	104	0	77	24856
2026-01-06 20:13:00.54	110.56	16.76	-53.1	-57.7	3.7	0.00e+00	0	51	104	0	77	25048
2026-01-06 20:13:02.54	111.22	16.66	-53.0	-57.7	3.7	0.00e+00	0	51	104	0	77	24941
2026-01-06 20:13:04.55	111.87	16.55	-52.9	-57.6	3.7	0.00e+00	0	51	104	0	77	24564
2026-01-06 20:13:06.55	112.51	16.44	-53.1	-57.7	3.7	0.00e+00	0	51	104	0	77	24833
2026-01-06 20:13:08.56	113.15	16.33	-53.3	-57.7	3.7	0.00e+00	0	51	104	0	77	24886
2026-01-06 20:13:10.58	113.79	16.21	-53.4	-57.8	3.7	0.00e+00	0	51	104	0	77	25283
2026-01-06 20:13:13.01	114.55	16.07	-53.4	-57.8	3.7	0.00e+00	0	51	104	0	77	25277
2026-01-06 20:13:15.37	115.28	15.93	-53.2	-57.6	3.7	0.00e+00	0	51	104	0	77	24632
2026-01-06 20:13:17.37	115.89	15.81	-53.2	-57.6	3.7	0.00e+00	0	51	104	0	77	24656
2026-01-06 20:13:19.38	116.50	15.69	-53.2	-57.7	3.7	0.00e+00	0	51	104	0	77	24860
2026-01-06 20:13:21.39	117.11	15.56	-53.0	-57.5	3.7	0.00e+00	0	51	104	0	77	24365
2026-01-06 20:13:23.40	117.71	15.44	-52.8	-57.4	3.7	0.00e+00	0	51	104	0	77	24164
2026-01-06 20:13:25.53	118.34	15.30	-53.0	-57.6	3.7	0.00e+00	0	51	104	0	77	24604
2026-01-06 20:13:27.55	118.92	15.17	-53.1	-57.6	3.7	0.00e+00	0	51	104	0	77	24713
2026-01-06 20:13:29.56	119.51	15.04	-53.1	-57.5	3.7	0.00e+00	0	51	104	0	77	24501
2026-01-06 20:13:31.56	120.08	14.91	-53.0	-57.4	3.7	0.00e+00	0	51	104	0	77	24235
2026-01-06 20:13:33.57	120.65	14.77	-53.0	-57.5	3.7	0.00e+00	0	51	104	0	77	24387
2026-01-06 20:13:35.58	121.21	14.64	-53.0	-57.5	3.7	0.00e+00	0	51	104	0	77	24448
2026-01-06 20:13:37.58	121.76	14.50	-52.9	-57.3	3.7	0.00e+00	0	51	104	0	77	23902
2026-01-06 20:13:39.70	122.34	14.35	-53.1	-57.6	3.7	0.00e+00	0	51	104	0	77	24547
2026-01-06 20:13:41.79	122.91	14.21	-53.1	-57.6	3.7	0.00e+00	0	51	104	0	77	24567
2026-01-06 20:13:43.79	123.44	14.07	-53.1	-57.4	3.7	0.00e+00	0	51	104	0	77	24199
2026-01-06 20:13:45.80	123.98	13.93	-53.1	-57.5	3.7	0.00e+00	0	51	104	0	77	24440
2026-01-06 20:13:47.80	124.50	13.78	-53.1	-57.5	3.7	0.00e+00	0	51	104	0	77	24405
2026-01-06 20:13:49.81	125.02	13.64	-53.0	-57.5	3.7	0.00e+00	0	51	104	0	77	24284
2026-01-06 20:13:51.82	125.53	13.50	-53.0	-57.3	3.7	0.00e+00	0	51	104	0	77	23805
2026-01-06 20:13:54.12	126.11	13.33	-52.9	-57.2	3.7	0.00e+00	0	51	104	0	77	23433
2026-01-06 20:13:56.13	126.62	13.19	-52.6	-56.9	3.7	0.00e+00	0	51	104	0	77	22761
2026-01-06 20:13:58.14	127.11	13.04	-52.6	-57.0	3.7	0.00e+00	0	51	104	0	77	23039
2026-01-06 20:14:00.19	127.61	12.89	-52.3	-57.0	3.7	0.00e+00	0	51	104	0	76	24248
2026-01-06 20:14:02.14	128.08	12.75	-52.3	-57.0	3.7	0.00e+00	0	51	104	0	76	24368
2026-01-06 20:14:04.15	128.56	12.60	-52.7	-57.0	3.7	0.00e+00	0	51	104	0	76	24297
2026-01-06 20:14:06.16	129.03	12.45	-52.7	-57.0	3.7	0.00e+00	0	51	104	0	76	24267
2026-01-06 20:14:08.16	129.50	12.31	-52.7	-57.0	3.7	0.00e+00	0	51	104	0	76	24489
2026-01-06 20:14:10.17	129.96	12.16	-52.6	-57.1	3.7	0.00e+00	0	51	104	0	76	24689
2026-01-06 20:14:12.18	130.42	12.01	-52.5	-57.1	3.7	0.00e+00	0	51	104	0	76	24708
2026-01-06 20:14:14.29	130.89	11.85	-52.5	-57.0	3.7	0.00e+00	0	51	104	0	76	24513
2026-01-06 20:14:16.51	131.38	11.69	-52.4	-57.0	3.7	0.00e+00	0	51	104	0	76	24389
2026-01-06 20:14:18.51	131.82	11.54	-52.6	-57.2	3.7	0.00e+00	0	51	104	0	76	24835
2026-01-06 20:14:20.52	132.25	11.39	-52.8	-57.2	3.7	0.00e+00	0	51	104	0	76	25051
2026-01-06 20:14:22.53	132.68	11.24	-52.8	-57.2	3.7	0.00e+00	0	51	104	0	76	24993
2026-01-06 20:14:24.53	133.11	11.09	-52.7	-57.3	3.7	0.00e+00	0	51	104	0	76	25165
2026-01-06 20:14:26.53	133.52	10.95	-52.9	-57.3	3.7	0.00e+00	0	51	104	0	76	25312
2026-01-06 20:14:28.55	133.94	10.80	-52.9	-57.3	3.7	0.00e+00	0	51	104	0	76	25368
2026-01-06 20:14:30.55	134.34	10.65	-52.8	-57.3	3.7	0.00e+00	0	51	104	0	76	25175
2026-01-06 20:14:32.67	134.77	10.49	-52.7	-57.2	3.7	0.00e+00	0	51	104	0	76	25028
2026-01-06 20:14:34.75	135.18	10.34	-52.8	-57.2	3.7	0.00e+00	0	51	104	0	76	24937
2026-01-06 20:14:36.75	135.57	10.19	-52.8	-57.3	3.7	0.00e+00	0	51	104	0	76	25261
2026-01-06 20:14:38.76	135.96	10.04	-52.8	-57.3	3.7	0.00e+00	0	50	104	0	76	25249
2026-01-06 20:14:40.76	136.34	9.89	-52.7	-57.2	3.7	0.00e+00	0	51	104	0	76	25058
2026-01-06 20:14:42.77	136.72	9.75	-52.9	-57.4	3.7	0.00e+00	0	51	104	0	76	25545
2026-01-06 20:14:44.84	137.11	9.59	-52.7	-57.2	3.6	0.00e+00	0	51	104	0	76	24978
2026-01-06 20:14:47.18	137.54	9.42	-52.9	-57.4	3.7	0.00e+00	0	51	104	0	76	25444
2026-01-06 20:14:49.35	137.93	9.26	-52.7	-57.1	3.7	0.00e+00	0	51	104	0	76	24668
2026-01-06 20:14:51.35	138.29	9.12	-52.5	-57.1	3.7	0.00e+00	0	51	104	0	76	24617
2026-01-06 20:14:53.36	138.65	8.97	-52.9	-57.4	3.7	0.00e+00	0	51	104	0	76	25548
2026-01-06 20:14:55.37	139.00	8.83	-52.9	-57.0	3.7	0.00e+00	0	51	104	0	76	24443
2026-01-06 20:14:57.38	139.34	8.68	-53.4	-57.8	3.7	0.00e+00	0	51	104	0	77	25189
2026-01-06 20:14:59.39	139.69	8.53	-53.6	-58.0	3.7	0.00e+00	0	50	104	0	77	25927
2026-01-06 20:15:01.40	140.03	8.39	-53.5	-57.8	3.7	0.00e+00	0	51	104	0	77	25353
2026-01-06 20:15:03.41	140.36	8.25	-53.2	-57.7	3.7	0.00e+00	0	51	104	0	77	25023
2026-01-06 20:15:05.56	140.71	8.09	-53.3	-57.4	3.7	0.00e+00	0	51	104	0	78	22655
2026-01-06 20:15:07.64	141.05	7.94	-53.5	-58.0	3.7	0.00e+00	0	51	104	0	78	24515
2026-01-06 20:15:09.71	141.38	7.79	-53.4	-57.9	3.7	0.00e+00	0	51	104	0	78	24122
2026-01-06 20:15:11.79	141.71	7.65	-52.2	-56.8	3.7	0.00e+00	0	51	104	0	76	23840
2026-01-06 20:15:13.86	142.04	7.50	-52.6	-57.3	3.7	0.00e+00	0	51	104	0	76	25207
2026-01-06 20:15:15.87	142.35	7.36	-52.6	-57.3	3.7	0.00e+00	0	51	104	0	76	25233
2026-01-06 20:15:17.87	142.65	7.22	-52.5	-57.2	3.7	0.00e+00	0	51	104	0	76	25092
2026-01-06 20:15:19.89	142.96	7.08	-52.6	-57.3	3.7	0.00e+00	0	51	104	0	76	25124
2026-01-06 20:15:21.89	143.26	6.94	-52.5	-57.2	3.7	0.00e+00	0	51	104	0	76	25057
2026-01-06 20:15:23.90	143.55	6.80	-52.5	-57.3	3.7	0.00e+00	0	51	104	0	76	25127
2026-01-06 20:15:25.91	143.85	6.66	-52.5	-57.2	3.7	0.00e+00	0	51	104	0	76	25093
2026-01-06 20:15:27.92	144.14	6.52	-52.5	-57.3	3.7	0.00e+00	0	51	104	0	76	25111
2026-01-06 20:15:29.93	144.42	6.38	-52.5	-57.2	3.7	0.00e+00	0	51	104	0	76	25092
2026-01-06 20:15:31.94	144.70	6.24	-52.5	-57.2	3.7	0.00e+00	0	51	104	0	76	24976
2026-01-06 20:15:33.95	144.98	6.11	-52.5	-57.3	3.7	0.00e+00	0	51	104	0	76	25174
2026-01-06 20:15:35.95	145.26	5.97	-52.5	-57.3	3.7	0.00e+00	0	51	104	0	76	25117
2026-01-06 20:15:37.97	145.53	5.83	-52.5	-57.2	3.7	0.00e+00	0	51	104	0	76	25033
2026-01-06 20:15:39.97	145.80	5.70	-52.5	-57.3	3.7	0.00e+00	0	51	104	0	76	25162
2026-01-06 20:15:41.98	146.07	5.56	-52.5	-57.3	3.7	0.00e+00	0	51	104	0	76	25113
2026-01-06 20:15:43.98	146.33	5.43	-52.5	-57.2	3.7	0.00e+00	0	51	104	0	76	25085
2026-01-06 20:15:45.99	146.59	5.29	-52.5	-57.2	3.7	0.00e+00	0	51	104	0	76	25069
2026-01-06 20:15:48.00	146.85	5.16	-52.5	-57.2	3.7	0.00e+00	0	51	104	0	76	24972
2026-01-06 20:15:50.00	147.10	5.03	-52.5	-57.2	3.7	0.00e+00	0	51	104	0	76	25090

#Closed at: 2026-01-06 20:15:52
#Recorded file [0 MB]: D:/Data/31040_260106_230815.dat