passes_logs/2026/01/06/T1/T1__20260106_230532_NOAA_20_JPSS-1_rec.log

#Pass ID: 20260106_230532_NOAA 20 (JPSS-1)
#Satellite: NOAA 20 (JPSS-1)
#Configuration: NOAA 20
#almurnet v.1.7.20251203
#Start time: 2026-01-06 23:05:32

#Version: 2.0.20230620
#Station: T1
#Location: 37.570604 lon 55.790049 lat
#TLE: 1 43013U 17073A   26006.30790171  .00000126  00000+0  80695-4 0  9991
#TLE: 2 43013  98.7629 307.3394 0001808  51.8724 308.2615 14.19533762421505

#Time	Az	El	Level	Level2	SNR	BER	BlckErr	Temp	State	Recorded	gain1	gain2
2026-01-06 23:05:32.71	20.68	5.04	-48.9	-64.7	3.8	1.49e+00	0	39	0	0	69	22223
2026-01-06 23:05:35.72	20.79	5.25	-48.9	-64.7	3.8	1.49e+00	0	39	104	0	68	23528
2026-01-06 23:05:38.73	20.90	5.46	-48.9	-64.7	3.8	1.49e+00	0	40	104	0	68	23521
2026-01-06 23:05:41.74	21.02	5.67	-48.9	-64.7	3.8	1.49e+00	0	39	104	0	68	23380
2026-01-06 23:05:44.75	21.13	5.88	-48.9	-64.7	3.8	1.49e+00	0	40	104	0	68	23347
2026-01-06 23:05:47.76	21.25	6.10	-48.9	-64.7	3.8	1.49e+00	0	40	104	0	68	23575
2026-01-06 23:05:50.77	21.37	6.32	-48.9	-64.6	3.8	1.49e+00	0	40	104	0	68	23291
2026-01-06 23:05:53.79	21.49	6.54	-48.9	-64.6	3.8	1.49e+00	0	40	104	0	68	23214
2026-01-06 23:05:56.80	21.61	6.76	-48.9	-64.6	3.8	1.49e+00	0	40	104	0	68	23182
2026-01-06 23:05:59.82	21.73	6.98	-48.9	-64.6	3.8	1.49e+00	0	40	104	0	68	23242
2026-01-06 23:06:02.83	21.86	7.20	-48.8	-64.2	3.8	1.49e+00	0	40	104	0	68	22132
2026-01-06 23:06:05.84	21.98	7.43	-48.8	-63.5	3.8	1.49e+00	0	40	104	0	68	20339
2026-01-06 23:06:08.85	22.11	7.66	-48.8	-63.2	3.8	1.49e+00	0	40	104	0	68	19629
2026-01-06 23:06:11.86	22.24	7.89	-48.8	-63.2	3.8	1.49e+00	0	40	104	0	68	19663
2026-01-06 23:06:14.87	22.37	8.12	-48.8	-63.5	3.8	1.49e+00	0	40	104	0	68	20353
2026-01-06 23:06:17.88	22.51	8.35	-48.8	-63.3	3.8	1.49e+00	0	41	104	0	68	19890
2026-01-06 23:06:20.90	22.64	8.59	-48.7	-62.5	3.8	1.49e+00	0	41	104	0	68	18197
2026-01-06 23:06:23.91	22.78	8.83	-48.5	-60.0	4.6	1.11e+00	0	41	0	1048576	68	13692
2026-01-06 23:06:26.92	22.92	9.07	-48.1	-56.8	6.6	2.52e-01	0	41	0	6291456	68	9428
2026-01-06 23:06:29.93	23.06	9.31	-47.5	-54.8	8.2	9.46e-01	0	41	0	10485760	67	7972
2026-01-06 23:06:32.94	23.21	9.56	-48.1	-56.2	7.1	1.28e-01	0	41	0	14680064	67	9328
2026-01-06 23:06:35.95	23.35	9.81	-47.3	-53.5	9.8	2.28e-02	0	41	0	19922944	66	7236
2026-01-06 23:06:38.95	23.50	10.05	-46.4	-51.3	12.2	3.42e-04	0	41	0	25165824	64	6281
2026-01-06 23:06:41.96	23.65	10.31	-46.2	-50.8	12.6	8.62e-05	0	41	0	31457280	64	5928
2026-01-06 23:06:44.97	23.81	10.56	-45.6	-49.6	13.9	4.50e-06	0	41	0	36700160	63	5512
2026-01-06 23:06:47.98	23.96	10.82	-45.0	-48.6	15.0	0.00e+00	0	41	0	42991616	62	5178
2026-01-06 23:06:50.98	24.12	11.08	-44.8	-48.2	15.4	0.00e+00	0	41	0	48234496	61	5243
2026-01-06 23:06:53.99	24.28	11.34	-44.1	-47.2	16.5	0.00e+00	0	41	0	53477376	60	4934
2026-01-06 23:06:57.00	24.44	11.60	-43.8	-46.7	16.9	0.00e+00	0	41	0	59768832	59	4980
2026-01-06 23:07:00.00	24.61	11.87	-43.7	-46.7	17.0	0.00e+00	0	41	0	65011712	59	4930
2026-01-06 23:07:03.01	24.78	12.14	-43.6	-46.5	17.1	0.00e+00	0	41	0	70254592	59	4860
2026-01-06 23:07:06.02	24.95	12.41	-43.5	-46.4	17.3	0.00e+00	0	41	0	76546048	59	4767
2026-01-06 23:07:09.03	25.13	12.69	-43.3	-46.2	17.5	0.00e+00	0	41	0	81788928	58	4940
2026-01-06 23:07:12.04	25.30	12.97	-43.2	-46.0	17.6	0.00e+00	0	41	0	88080384	58	4847
2026-01-06 23:07:15.04	25.49	13.25	-43.0	-45.7	18.0	0.00e+00	0	41	0	93323264	58	4668
2026-01-06 23:07:18.09	25.67	13.54	-43.1	-45.8	17.9	0.00e+00	0	41	0	98566144	58	4715
2026-01-06 23:07:21.04	25.86	13.82	-43.2	-45.8	17.8	0.00e+00	0	41	0	104857600	58	4742
2026-01-06 23:07:24.19	26.06	14.12	-43.2	-45.8	17.9	0.00e+00	0	41	0	110100480	58	4730
2026-01-06 23:07:27.06	26.24	14.40	-43.1	-45.7	18.0	0.00e+00	0	41	0	115343360	58	4653
2026-01-06 23:07:30.21	26.45	14.72	-43.1	-45.7	17.9	0.00e+00	0	41	0	121634816	58	4705
2026-01-06 23:07:33.08	26.64	15.00	-42.9	-45.5	18.2	0.00e+00	0	41	0	126877696	57	4827
2026-01-06 23:07:36.34	26.87	15.33	-42.9	-45.6	18.1	0.00e+00	0	41	0	133169152	57	4892
2026-01-06 23:07:39.09	27.06	15.62	-42.8	-45.4	18.2	0.00e+00	0	41	0	138412032	57	4806
2026-01-06 23:07:42.38	27.29	15.96	-42.7	-45.3	18.4	0.00e+00	0	41	0	144703488	57	4755
2026-01-06 23:07:45.10	27.49	16.24	-42.8	-45.4	18.3	0.00e+00	0	41	0	149946368	57	4800
2026-01-06 23:07:48.40	27.74	16.59	-42.7	-45.3	18.4	0.00e+00	0	41	0	156237824	57	4743
2026-01-06 23:07:51.12	27.94	16.88	-42.8	-45.3	18.5	0.00e+00	0	42	0	161480704	57	4723
2026-01-06 23:07:54.42	28.20	17.24	-42.7	-45.1	18.6	0.00e+00	0	41	0	166723584	57	4642
2026-01-06 23:07:57.14	28.41	17.54	-42.7	-45.1	18.6	0.00e+00	0	41	0	171966464	57	4636
2026-01-06 23:08:00.96	28.72	17.97	-42.7	-45.0	18.7	0.00e+00	0	42	0	179306496	57	4596
2026-01-06 23:08:03.76	28.95	18.29	-42.6	-45.0	18.8	0.00e+00	0	42	0	184549376	57	4549
2026-01-06 23:08:07.50	29.27	18.72	-42.8	-45.2	18.6	0.00e+00	0	41	0	191889408	57	4658
2026-01-06 23:08:10.50	29.53	19.06	-42.7	-45.1	18.7	0.00e+00	0	41	0	197132288	57	4649
2026-01-06 23:08:14.25	29.86	19.51	-42.8	-45.2	18.6	0.00e+00	0	41	0	204472320	57	4681
2026-01-06 23:08:17.05	30.11	19.84	-42.7	-45.2	18.6	0.00e+00	0	42	0	209715200	57	4664
2026-01-06 23:08:20.85	30.47	20.30	-42.8	-45.1	18.7	0.00e+00	0	41	0	217055232	57	4649
2026-01-06 23:08:23.61	30.73	20.64	-43.0	-45.4	18.5	0.00e+00	0	42	0	222298112	57	4780
2026-01-06 23:08:27.46	31.11	21.12	-43.1	-45.5	18.3	0.00e+00	0	42	0	228589568	57	4851
2026-01-06 23:08:30.24	31.39	21.47	-42.9	-45.3	18.5	0.00e+00	0	42	0	233832448	57	4726
2026-01-06 23:08:34.00	31.78	21.96	-42.8	-45.2	18.7	0.00e+00	0	42	0	241172480	57	4676
2026-01-06 23:08:37.03	32.10	22.35	-42.8	-45.2	18.6	0.00e+00	0	42	0	247463936	57	4697
2026-01-06 23:08:40.57	32.48	22.82	-42.7	-45.2	18.7	0.00e+00	0	41	0	253755392	57	4657
2026-01-06 23:08:43.58	32.82	23.23	-42.9	-45.4	18.5	0.00e+00	0	42	0	258998272	57	4790
2026-01-06 23:08:46.80	33.19	23.66	-42.8	-45.2	18.7	0.00e+00	0	42	0	265289728	57	4675
2026-01-06 23:08:49.73	33.53	24.07	-42.7	-45.1	18.8	0.00e+00	0	42	0	270532608	57	4603
2026-01-06 23:08:53.02	33.93	24.53	-42.7	-45.1	18.7	0.00e+00	0	42	0	276824064	57	4631
2026-01-06 23:08:55.74	34.27	24.91	-42.9	-45.3	18.6	0.00e+00	0	42	0	282066944	57	4745
2026-01-06 23:08:59.04	34.69	25.39	-43.2	-45.6	18.3	0.00e+00	0	41	0	288358400	57	4926
2026-01-06 23:09:01.77	35.05	25.79	-43.2	-45.7	18.2	0.00e+00	0	42	0	293601280	57	4948
2026-01-06 23:09:05.27	35.52	26.30	-43.1	-45.5	18.3	0.00e+00	0	42	0	299892736	57	4869
2026-01-06 23:09:07.99	35.90	26.71	-43.3	-45.8	18.1	0.00e+00	0	42	0	305135616	57	5015
2026-01-06 23:09:11.29	36.37	27.21	-44.2	-46.4	17.7	0.00e+00	0	42	0	311427072	58	5090
2026-01-06 23:09:14.25	36.80	27.67	-43.8	-46.4	17.6	0.00e+00	0	42	0	316669952	58	5062
2026-01-06 23:09:18.28	37.41	28.30	-43.7	-46.3	17.6	0.00e+00	0	42	0	324009984	58	5024
2026-01-06 23:09:21.03	37.84	28.73	-44.0	-46.8	17.2	0.00e+00	0	42	0	329252864	58	5280
2026-01-06 23:09:24.94	38.47	29.36	-44.5	-47.4	16.6	0.00e+00	0	42	0	336592896	59	5376
2026-01-06 23:09:27.69	38.93	29.81	-44.9	-47.9	16.2	0.00e+00	0	42	0	341835776	60	5385
2026-01-06 23:09:31.47	39.58	30.44	-45.2	-48.3	15.8	0.00e+00	0	42	0	349175808	60	5632
2026-01-06 23:09:34.23	40.08	30.90	-45.1	-48.3	15.7	0.00e+00	0	42	0	354418688	61	5314
2026-01-06 23:09:38.12	40.79	31.56	-45.0	-48.0	16.1	0.00e+00	0	42	0	361758720	61	5130
2026-01-06 23:09:41.14	41.37	32.08	-45.3	-48.4	15.7	0.00e+00	0	42	0	367001600	61	5389
2026-01-06 23:09:44.20	41.97	32.62	-44.9	-47.9	16.2	0.00e+00	0	42	0	373293056	61	5086
2026-01-06 23:09:47.29	42.60	33.16	-44.4	-47.3	16.8	0.00e+00	0	42	0	378535936	60	4984
2026-01-06 23:09:50.15	43.21	33.67	-44.2	-46.9	17.2	0.00e+00	0	42	0	383778816	60	4787
2026-01-06 23:09:53.31	43.89	34.24	-44.2	-46.9	17.1	0.00e+00	0	42	0	390070272	60	4811
2026-01-06 23:09:56.21	44.54	34.77	-43.8	-46.4	17.6	0.00e+00	0	42	0	395313152	59	4809
2026-01-06 23:09:59.36	45.27	35.35	-43.8	-46.4	17.6	0.00e+00	0	42	0	401604608	59	4772
2026-01-06 23:10:02.22	45.96	35.88	-43.5	-46.0	18.0	0.00e+00	0	42	0	406847488	59	4557
2026-01-06 23:10:05.37	46.74	36.47	-42.7	-45.1	18.9	0.00e+00	0	42	0	413138944	57	4609
2026-01-06 23:10:08.23	47.48	37.00	-43.0	-45.3	18.6	0.00e+00	0	42	0	418381824	57	4745
2026-01-06 23:10:11.38	48.32	37.60	-43.2	-45.7	18.2	0.00e+00	0	42	0	423624704	57	4960
2026-01-06 23:10:14.25	49.11	38.15	-42.6	-44.9	19.0	0.00e+00	0	42	0	428867584	57	4540
2026-01-06 23:10:17.61	50.07	38.80	-42.8	-45.2	18.8	0.00e+00	0	42	0	435159040	57	4674
2026-01-06 23:10:20.33	50.87	39.32	-43.1	-45.5	18.5	0.00e+00	0	42	0	440401920	57	4849
2026-01-06 23:10:23.61	51.87	39.96	-43.5	-46.0	18.0	0.00e+00	0	42	0	446693376	57	5123
2026-01-06 23:10:26.47	52.78	40.51	-43.3	-45.8	18.2	0.00e+00	0	42	0	451936256	57	5016
2026-01-06 23:10:29.83	53.89	41.16	-43.4	-45.9	18.2	0.00e+00	0	42	0	458227712	57	5045
2026-01-06 23:10:32.84	54.92	41.75	-43.6	-46.1	17.9	0.00e+00	0	42	0	464519168	58	4914
2026-01-06 23:10:35.85	55.99	42.33	-43.6	-46.2	17.9	0.00e+00	0	42	0	469762048	58	4929
2026-01-06 23:10:38.86	57.09	42.91	-43.8	-46.3	17.7	0.00e+00	0	42	0	475004928	58	5030
2026-01-06 23:10:41.86	58.24	43.49	-43.9	-46.5	17.6	0.00e+00	0	42	0	481296384	58	5116
2026-01-06 23:10:44.87	59.42	44.06	-43.2	-45.6	18.4	0.00e+00	0	42	0	486539264	58	4642
2026-01-06 23:10:47.88	60.66	44.63	-44.5	-47.2	16.8	0.00e+00	0	42	0	492830720	59	5276
2026-01-06 23:10:50.89	61.93	45.19	-44.5	-47.4	16.8	0.00e+00	0	42	0	498073600	60	5047
2026-01-06 23:10:53.95	63.27	45.75	-44.3	-47.1	17.1	0.00e+00	0	42	0	503316480	60	4875
2026-01-06 23:10:57.26	64.78	46.35	-44.8	-47.8	16.4	0.00e+00	0	42	0	509607936	60	5304
2026-01-06 23:11:00.15	66.14	46.86	-44.3	-47.1	17.0	0.00e+00	0	42	0	515899392	60	4880
2026-01-06 23:11:03.42	67.74	47.43	-44.2	-46.8	17.3	0.00e+00	0	42	0	521142272	59	5034
2026-01-06 23:11:06.34	69.21	47.92	-44.5	-47.2	16.8	0.00e+00	0	42	0	527433728	59	5273
2026-01-06 23:11:09.62	70.92	48.45	-43.9	-46.5	17.6	0.00e+00	0	42	0	533725184	59	4824
2026-01-06 23:11:12.34	72.38	48.87	-43.9	-46.5	17.6	0.00e+00	0	42	0	537919488	59	4831
2026-01-06 23:11:15.64	74.21	49.37	-43.2	-45.6	18.5	0.00e+00	0	42	0	544210944	58	4610
2026-01-06 23:11:18.71	75.96	49.80	-44.0	-46.6	17.5	0.00e+00	0	42	0	550502400	58	5181
2026-01-06 23:11:21.95	77.86	50.23	-43.8	-46.3	17.7	0.00e+00	0	42	0	555745280	58	5013
2026-01-06 23:11:24.85	79.61	50.60	-44.0	-46.7	17.4	0.00e+00	0	42	0	562036736	58	5230
2026-01-06 23:11:28.00	81.55	50.96	-43.8	-46.4	17.7	0.00e+00	0	42	0	567279616	59	4777
2026-01-06 23:11:30.87	83.36	51.26	-43.3	-45.8	18.2	0.00e+00	0	42	0	572522496	58	4746
2026-01-06 23:11:34.04	85.40	51.57	-43.3	-45.9	18.2	0.00e+00	0	42	0	578813952	58	4776
2026-01-06 23:11:36.90	87.28	51.81	-43.6	-46.1	17.9	0.00e+00	0	42	0	584056832	58	4901
2026-01-06 23:11:40.06	89.38	52.04	-42.8	-45.3	18.7	0.00e+00	0	42	0	590348288	57	4718
2026-01-06 23:11:43.05	91.40	52.22	-42.9	-45.3	18.7	0.00e+00	0	42	0	595591168	56	5012
2026-01-06 23:11:46.05	93.45	52.37	-42.1	-44.3	19.6	0.00e+00	0	42	0	601882624	56	4488
2026-01-06 23:11:49.06	95.53	52.48	-42.5	-44.9	19.0	0.00e+00	0	42	0	607125504	55	5057
2026-01-06 23:11:52.07	97.61	52.55	-42.2	-44.4	19.4	0.00e+00	0	42	0	612368384	55	4783
2026-01-06 23:11:55.03	99.68	52.59	-42.0	-44.2	19.5	0.00e+00	0	42	0	618659840	55	4690
2026-01-06 23:11:58.18	101.87	52.58	-42.0	-44.3	19.5	0.00e+00	0	42	0	623902720	55	4710
2026-01-06 23:12:01.05	103.87	52.54	-42.3	-44.6	19.2	0.00e+00	0	42	0	629145600	55	4890
2026-01-06 23:12:04.26	106.09	52.45	-42.2	-44.4	19.4	0.00e+00	0	42	0	635437056	55	4810
2026-01-06 23:12:07.41	108.26	52.32	-41.9	-44.2	19.7	0.00e+00	0	42	0	641728512	55	4661
2026-01-06 23:12:10.27	110.21	52.17	-41.7	-43.9	19.9	0.00e+00	0	42	0	646971392	55	4523
2026-01-06 23:12:13.52	112.39	51.96	-43.0	-45.4	18.6	0.00e+00	0	42	0	653262848	56	5057
2026-01-06 23:12:16.44	114.33	51.74	-42.3	-44.6	19.4	0.00e+00	0	42	0	658505728	56	4600
2026-01-06 23:12:19.60	116.39	51.46	-43.5	-46.0	18.0	0.00e+00	0	42	0	664797184	58	4849
2026-01-06 23:12:22.46	118.23	51.17	-44.5	-47.3	16.8	0.00e+00	0	42	0	670040064	59	5299
2026-01-06 23:12:25.64	120.22	50.82	-43.9	-46.5	17.6	0.00e+00	0	42	0	675282944	59	4830
2026-01-06 23:12:28.89	122.21	50.43	-45.0	-48.1	16.1	0.00e+00	0	42	0	681574400	60	5491
2026-01-06 23:12:31.85	123.98	50.05	-44.2	-46.9	17.2	0.00e+00	0	42	0	686817280	60	4790
2026-01-06 23:12:35.00	125.81	49.62	-45.9	-49.3	14.8	0.00e+00	0	42	0	693108736	62	5639
2026-01-06 23:12:37.87	127.43	49.20	-46.5	-50.3	13.8	4.50e-06	0	42	0	698351616	63	5990
2026-01-06 23:12:41.05	129.18	48.72	-46.0	-49.5	14.6	7.00e-07	0	42	0	704643072	63	5458
2026-01-06 23:12:43.92	130.71	48.26	-46.4	-50.2	13.9	7.00e-07	0	42	0	709885952	63	5917
2026-01-06 23:12:47.07	132.33	47.75	-45.9	-49.4	14.8	7.00e-07	0	42	0	716177408	63	5345
2026-01-06 23:12:49.94	133.77	47.26	-46.6	-50.6	13.5	5.30e-06	0	42	0	721420288	63	6184
2026-01-06 23:12:53.09	135.29	46.71	-45.8	-49.2	14.9	7.00e-07	0	42	0	726663168	63	5238
2026-01-06 23:12:55.96	136.64	46.20	-45.7	-49.1	15.0	0.00e+00	0	42	0	732954624	62	5466
2026-01-06 23:12:59.02	138.02	45.64	-44.3	-47.1	17.0	0.00e+00	0	42	0	738197504	60	4886
2026-01-06 23:13:02.03	139.34	45.08	-44.7	-47.6	16.5	0.00e+00	0	42	0	743440384	60	5193
2026-01-06 23:13:05.04	140.61	44.52	-44.7	-47.7	16.4	0.00e+00	0	42	0	749731840	61	4941
2026-01-06 23:13:08.04	141.83	43.95	-44.5	-47.4	16.8	0.00e+00	0	42	0	754974720	60	5081
2026-01-06 23:13:11.05	143.02	43.37	-45.7	-49.2	14.9	0.00e+00	0	42	0	761266176	62	5536
2026-01-06 23:13:14.43	144.30	42.72	-44.1	-46.8	17.3	0.00e+00	0	42	0	767557632	60	4733
2026-01-06 23:13:17.36	145.37	42.15	-47.5	-52.5	11.5	7.70e-05	0	42	0	772800512	65	6807
2026-01-06 23:13:21.12	146.68	41.41	-45.9	-49.3	14.9	0.00e+00	0	42	0	780140544	63	5309
2026-01-06 23:13:23.91	147.63	40.87	-48.1	-54.0	9.8	6.53e-03	0	42	0	785383424	66	7692
2026-01-06 23:13:27.64	148.84	40.14	-44.7	-47.9	15.7	0.00e+00	0	42	0	791674880	61	5076
2026-01-06 23:13:30.57	149.75	39.57	-48.2	-54.1	9.7	2.16e-03	0	42	0	797966336	66	7783
2026-01-06 23:13:33.58	150.65	38.99	-46.0	-49.7	14.3	1.50e-06	0	42	0	803209216	64	5223
2026-01-06 23:13:36.59	151.53	38.40	-46.0	-49.5	14.6	7.00e-07	0	42	0	808452096	62	5771
2026-01-06 23:13:39.63	152.38	37.82	-46.8	-51.0	13.1	1.29e-05	0	42	0	814743552	64	6064
2026-01-06 23:13:43.41	153.40	37.10	-44.9	-47.9	16.2	0.00e+00	0	42	0	821035008	61	5095
2026-01-06 23:13:46.16	154.12	36.57	-45.4	-48.7	15.5	0.00e+00	0	42	0	826277888	61	5559
2026-01-06 23:13:49.81	155.03	35.89	-45.4	-48.7	15.4	0.00e+00	0	42	0	833617920	62	5243
2026-01-06 23:13:52.53	155.69	35.38	-44.8	-47.7	16.3	0.00e+00	0	42	0	838860800	61	4968
2026-01-06 23:13:56.15	156.53	34.71	-45.2	-48.3	15.8	0.00e+00	0	42	0	845152256	60	5634
2026-01-06 23:13:58.89	157.15	34.21	-45.9	-49.5	14.6	7.00e-07	0	42	0	850395136	62	5783
2026-01-06 23:14:02.14	157.86	33.62	-44.5	-47.3	16.7	0.00e+00	0	42	0	856686592	60	5010
2026-01-06 23:14:05.59	158.58	33.00	-45.7	-49.2	14.8	0.00e+00	0	42	0	862978048	62	5579
2026-01-06 23:14:08.31	159.14	32.52	-46.7	-51.3	12.6	1.68e-04	0	42	0	868220928	64	6315
2026-01-06 23:14:11.60	159.78	31.94	-44.5	-47.5	16.6	0.00e+00	0	42	0	874512384	61	4825
2026-01-06 23:14:14.33	160.31	31.47	-44.4	-47.3	16.7	0.00e+00	0	42	0	879755264	60	5027
2026-01-06 23:14:17.78	160.94	30.88	-45.8	-49.3	14.7	0.00e+00	0	42	0	886046720	62	5652
2026-01-06 23:14:20.50	161.43	30.42	-45.8	-49.4	14.6	7.00e-07	0	42	0	891289600	62	5693
2026-01-06 23:14:23.80	162.00	29.87	-44.9	-48.0	16.1	0.00e+00	0	42	0	897581056	61	5126
2026-01-06 23:14:26.52	162.46	29.42	-44.6	-47.5	16.6	0.00e+00	0	42	0	902823936	61	4844
2026-01-06 23:14:29.77	162.99	28.89	-44.3	-47.1	16.9	0.00e+00	0	42	0	908066816	60	4904
2026-01-06 23:14:32.64	163.45	28.43	-44.4	-47.3	16.8	0.00e+00	0	42	0	913309696	60	4987
2026-01-06 23:14:35.82	163.94	27.93	-45.3	-48.5	15.5	0.00e+00	0	42	0	919601152	61	5451
2026-01-06 23:14:38.75	164.38	27.47	-44.9	-48.1	15.9	0.00e+00	0	42	0	924844032	61	5176
2026-01-06 23:14:42.03	164.85	26.97	-44.2	-47.0	17.0	0.00e+00	0	42	0	931135488	60	4820
2026-01-06 23:14:44.76	165.24	26.55	-44.4	-47.2	16.7	0.00e+00	0	42	0	936378368	59	5261
2026-01-06 23:14:48.05	165.69	26.06	-44.8	-47.9	16.1	0.00e+00	0	42	0	942669824	60	5364
2026-01-06 23:14:50.78	166.06	25.65	-45.0	-48.2	15.8	0.00e+00	0	42	0	947912704	60	5549
2026-01-06 23:14:54.09	166.49	25.17	-44.7	-47.7	16.3	0.00e+00	0	42	0	954204160	60	5262
2026-01-06 23:14:56.98	166.85	24.75	-44.6	-47.6	16.3	0.00e+00	0	42	0	959447040	60	5209
2026-01-06 23:15:00.27	167.26	24.28	-44.2	-47.1	16.9	0.00e+00	0	42	0	965738496	60	4889
2026-01-06 23:15:02.98	167.58	23.90	-43.7	-46.4	17.5	0.00e+00	0	42	0	970981376	59	4775
2026-01-06 23:15:06.56	168.00	23.41	-44.0	-46.8	17.1	0.00e+00	0	42	0	977272832	59	4994
2026-01-06 23:15:09.52	168.34	23.00	-44.6	-47.5	16.4	0.00e+00	0	42	0	982515712	59	5450
2026-01-06 23:15:12.86	168.71	22.55	-44.8	-47.9	16.0	0.00e+00	0	42	0	988807168	60	5386
2026-01-06 23:15:15.58	169.00	22.19	-44.3	-47.3	16.6	0.00e+00	0	42	0	994050048	60	5002
2026-01-06 23:15:19.24	169.39	21.72	-43.8	-46.5	17.3	0.00e+00	0	42	0	1001390080	59	4860
2026-01-06 23:15:21.99	169.67	21.36	-43.5	-46.2	17.6	0.00e+00	0	42	0	1006632960	59	4659
2026-01-06 23:15:25.76	170.05	20.88	-43.8	-46.5	17.3	0.00e+00	0	42	0	1013972992	59	4832
2026-01-06 23:15:28.50	170.31	20.54	-44.0	-46.8	17.1	0.00e+00	0	42	0	1018167296	59	4998
2026-01-06 23:15:32.25	170.67	20.07	-43.7	-46.5	17.2	0.00e+00	0	42	0	1025507328	59	4848
2026-01-06 23:15:35.14	170.93	19.72	-43.4	-46.1	17.7	0.00e+00	0	42	0	1030750208	58	4888
2026-01-06 23:15:38.36	171.23	19.34	-43.1	-45.7	18.1	0.00e+00	0	42	0	1037041664	58	4657
2026-01-06 23:15:41.22	171.48	19.00	-42.9	-45.4	18.3	0.00e+00	0	42	0	1042284544	57	4781
2026-01-06 23:15:44.74	171.78	18.58	-42.8	-45.2	18.5	0.00e+00	0	42	0	1048576000	57	4685
2026-01-06 23:15:47.46	172.01	18.27	-42.8	-45.2	18.4	0.00e+00	0	42	0	1053818880	57	4690
2026-01-06 23:15:50.75	172.28	17.89	-42.9	-45.3	18.3	0.00e+00	0	42	0	1060110336	57	4754
2026-01-06 23:15:53.57	172.51	17.58	-43.1	-45.6	18.1	0.00e+00	0	42	0	1065353216	57	4922
2026-01-06 23:15:56.72	172.76	17.23	-43.5	-46.1	17.6	0.00e+00	0	42	0	1071644672	57	5181
2026-01-06 23:15:59.58	172.98	16.91	-43.6	-46.3	17.4	0.00e+00	0	42	0	1076887552	57	5296
2026-01-06 23:16:02.73	173.22	16.57	-43.5	-46.1	17.6	0.00e+00	0	42	0	1083179008	57	5208
2026-01-06 23:16:05.63	173.43	16.26	-43.3	-46.0	17.7	0.00e+00	0	42	0	1088421888	57	5113
2026-01-06 23:16:09.01	173.68	15.90	-43.0	-45.6	18.1	0.00e+00	0	42	0	1094713344	57	4879
2026-01-06 23:16:11.73	173.87	15.62	-43.0	-45.6	18.0	0.00e+00	0	42	0	1099956224	57	4901
2026-01-06 23:16:15.02	174.10	15.28	-42.9	-45.5	18.1	0.00e+00	0	42	0	1106247680	57	4839
2026-01-06 23:16:17.75	174.29	15.00	-42.9	-45.5	18.1	0.00e+00	0	42	0	1110441984	57	4841
2026-01-06 23:16:21.14	174.52	14.65	-43.2	-45.9	17.7	0.00e+00	0	42	0	1117782016	57	5046
2026-01-06 23:16:23.86	174.70	14.38	-43.5	-46.2	17.4	0.00e+00	0	42	0	1121976320	57	5256
2026-01-06 23:16:27.28	174.92	14.04	-43.7	-46.4	17.2	0.00e+00	0	42	0	1128267776	57	5400
2026-01-06 23:16:30.00	175.09	13.78	-43.8	-46.6	17.0	0.00e+00	0	42	0	1133510656	58	5169
2026-01-06 23:16:33.29	175.29	13.46	-43.9	-46.7	16.9	0.00e+00	0	42	0	1139802112	58	5255
2026-01-06 23:16:36.02	175.46	13.20	-43.9	-46.7	16.9	0.00e+00	0	42	0	1145044992	58	5263
2026-01-06 23:16:39.31	175.66	12.89	-43.9	-46.7	16.9	0.00e+00	0	42	0	1151336448	58	5254
2026-01-06 23:16:42.28	175.83	12.61	-43.8	-46.6	16.9	0.00e+00	0	42	0	1156579328	58	5197
2026-01-06 23:16:45.30	176.01	12.33	-43.8	-46.6	16.9	0.00e+00	0	42	0	1162870784	58	5206
2026-01-06 23:16:48.36	176.18	12.05	-43.7	-46.6	16.9	0.00e+00	0	42	0	1168113664	58	5178
2026-01-06 23:16:51.28	176.34	11.79	-43.5	-46.3	17.2	0.00e+00	0	42	0	1173356544	58	5040
2026-01-06 23:16:54.29	176.51	11.52	-43.5	-46.3	17.1	0.00e+00	0	42	0	1179648000	58	5034
2026-01-06 23:16:57.30	176.67	11.25	-43.6	-46.5	16.9	0.00e+00	0	42	0	1184890880	58	5141
2026-01-06 23:17:00.30	176.83	10.99	-43.4	-46.5	16.9	0.00e+00	0	42	0	1191182336	58	5102
2026-01-06 23:17:03.34	176.99	10.73	-43.4	-46.5	17.0	0.00e+00	0	42	0	1196425216	58	5125
2026-01-06 23:17:06.40	177.14	10.46	-43.5	-46.7	16.7	0.00e+00	0	42	0	1202716672	58	5264
2026-01-06 23:17:09.41	177.29	10.21	-43.8	-47.1	16.4	0.00e+00	0	42	0	1207959552	58	5484
2026-01-06 23:17:12.42	177.44	9.95	-43.8	-47.2	16.3	0.00e+00	0	42	0	1213202432	58	5534
2026-01-06 23:17:15.43	177.59	9.70	-44.0	-47.4	16.0	0.00e+00	0	42	0	1219493888	58	5672
2026-01-06 23:17:18.43	177.73	9.45	-44.1	-47.5	15.9	0.00e+00	0	42	0	1224736768	58	5768
2026-01-06 23:17:21.43	177.87	9.21	-44.2	-47.6	15.8	0.00e+00	0	42	0	1229979648	59	5466
2026-01-06 23:17:24.57	178.02	8.95	-49.3	-64.6	3.8	1.43e+00	0	42	104	1235222528	69	21767
2026-01-06 23:17:27.44	178.15	8.72	-49.5	-65.1	3.8	1.49e+00	0	42	104	1235222528	69	23159
2026-01-06 23:17:30.60	178.29	8.47	-50.1	-65.2	3.8	1.49e+00	0	42	104	1235222528	70	22172
2026-01-06 23:17:33.47	178.42	8.24	-49.9	-65.3	3.8	1.49e+00	0	42	104	1235222528	70	22434
2026-01-06 23:17:36.71	178.56	7.99	-50.1	-65.3	3.8	1.49e+00	0	42	104	1235222528	71	21188
2026-01-06 23:17:39.58	178.69	7.77	-50.1	-65.4	3.8	1.49e+00	0	42	104	1235222528	71	21262
2026-01-06 23:17:42.73	178.82	7.52	-50.3	-65.4	3.8	1.49e+00	0	42	104	1235222528	71	21269
2026-01-06 23:17:45.60	178.94	7.30	-50.2	-65.4	3.8	1.49e+00	0	42	104	1235222528	71	21308
2026-01-06 23:17:48.76	179.07	7.07	-50.1	-65.4	3.8	1.49e+00	0	42	104	1235222528	71	21337
