passes_logs/2026/01/06/T1/T1__20260106_082559_NOAA_21_JPSS-2_rec.log

#Pass ID: 20260106_082559_NOAA 21 (JPSS-2)
#Satellite: NOAA 21 (JPSS-2)
#Configuration: NOAA 21
#almurnet v.1.7.20251203
#Start time: 2026-01-06 08:25:59

#Version: 2.0.20230620
#Station: T1
#Location: 37.570604 lon 55.790049 lat
#TLE: 1 54234U 22150A   26005.21525222  .00000150  00000+0  91957-4 0  9992
#TLE: 2 54234  98.7490 306.2339 0001053 341.6032  18.5106 14.19532220163427

#Time	Az	El	Level	Level2	SNR	BER	BlckErr	Temp	State	Recorded	gain1	gain2
2026-01-06 08:25:59.16	113.05	5.00	-52.2	-65.2	3.8	1.49e+00	0	40	0	0	76	15753
2026-01-06 08:26:02.16	112.82	5.19	-52.2	-65.2	3.8	1.49e+00	0	40	104	0	76	15730
2026-01-06 08:26:05.16	112.59	5.38	-52.2	-65.3	3.8	1.49e+00	0	40	104	0	76	15820
2026-01-06 08:26:08.16	112.36	5.56	-52.2	-65.2	3.8	1.49e+00	0	40	104	0	76	15702
2026-01-06 08:26:11.17	112.12	5.76	-52.2	-65.1	3.8	1.49e+00	0	40	104	0	76	15571
2026-01-06 08:26:14.18	111.88	5.95	-52.2	-65.1	3.8	1.49e+00	0	40	104	0	76	15577
2026-01-06 08:26:17.18	111.64	6.14	-52.2	-65.1	3.8	1.49e+00	0	40	104	0	76	15510
2026-01-06 08:26:20.19	111.40	6.33	-52.2	-65.1	3.8	1.49e+00	0	40	104	0	76	15484
2026-01-06 08:26:23.19	111.15	6.53	-52.2	-65.2	3.8	1.49e+00	0	40	104	0	76	15613
2026-01-06 08:26:26.20	110.89	6.72	-52.2	-65.1	3.8	1.49e+00	0	41	104	0	76	15519
2026-01-06 08:26:29.20	110.64	6.92	-52.1	-64.9	3.8	1.49e+00	0	41	104	0	76	15094
2026-01-06 08:26:32.21	110.38	7.12	-52.1	-64.8	3.8	1.49e+00	0	41	104	0	76	14981
2026-01-06 08:26:35.22	110.11	7.31	-52.1	-64.8	3.8	1.49e+00	0	41	104	0	76	15047
2026-01-06 08:26:38.23	109.84	7.51	-52.0	-64.2	3.8	1.49e+00	0	41	104	0	76	14015
2026-01-06 08:26:41.24	109.57	7.71	-51.9	-63.5	3.8	1.49e+00	0	41	104	0	75	13694
2026-01-06 08:26:44.24	109.30	7.91	-51.6	-60.9	4.4	1.46e+00	0	41	104	0	75	10136
2026-01-06 08:26:47.25	109.02	8.12	-49.1	-53.2	10.6	7.23e-03	0	41	0	0	70	5543
2026-01-06 08:26:50.26	108.73	8.32	-45.8	-48.2	15.5	0.00e+00	0	41	0	0	63	4698
2026-01-06 08:26:53.27	108.45	8.52	-45.0	-47.2	16.6	0.00e+00	0	41	0	0	62	4419
2026-01-06 08:26:56.27	108.15	8.73	-46.5	-49.1	14.7	0.00e+00	0	41	0	0	63	5185
2026-01-06 08:26:59.28	107.86	8.93	-49.8	-54.5	9.3	9.20e-03	0	41	0	0	70	6485
2026-01-06 08:27:02.29	107.56	9.14	-51.1	-58.2	5.9	2.65e-01	0	41	0	0	73	8291
2026-01-06 08:27:05.29	107.25	9.35	-48.9	-52.7	11.3	1.61e-04	0	42	0	0	68	5921
2026-01-06 08:27:08.30	106.95	9.56	-47.3	-50.5	13.3	7.24e-05	0	42	0	0	66	5152
2026-01-06 08:27:11.30	106.63	9.77	-45.7	-48.1	15.7	0.00e+00	0	42	0	0	63	4648
2026-01-06 08:27:14.30	106.32	9.98	-44.4	-46.5	17.3	0.00e+00	0	42	0	0	60	4548
2026-01-06 08:27:17.30	105.99	10.19	-44.3	-46.3	17.5	0.00e+00	0	42	0	0	60	4478
2026-01-06 08:27:20.30	105.67	10.40	-44.2	-46.2	17.6	0.00e+00	0	42	0	0	60	4395
2026-01-06 08:27:23.30	105.33	10.61	-44.1	-46.1	17.7	0.00e+00	0	42	0	0	60	4349
2026-01-06 08:27:26.31	105.00	10.83	-44.2	-46.2	17.6	0.00e+00	0	42	0	0	60	4412
2026-01-06 08:27:29.31	104.66	11.04	-44.1	-46.1	17.8	0.00e+00	0	42	0	0	60	4350
2026-01-06 08:27:32.31	104.31	11.26	-44.0	-46.0	17.8	0.00e+00	0	42	0	0	59	4551
2026-01-06 08:27:35.31	103.96	11.47	-43.8	-45.7	18.1	0.00e+00	0	42	0	0	59	4425
2026-01-06 08:27:38.31	103.60	11.69	-43.7	-45.6	18.1	0.00e+00	0	42	0	0	59	4366
2026-01-06 08:27:41.31	103.24	11.91	-43.7	-45.6	18.1	0.00e+00	0	42	0	0	59	4386
2026-01-06 08:27:44.32	102.87	12.13	-43.8	-45.7	18.1	0.00e+00	0	42	0	0	59	4401
2026-01-06 08:27:47.32	102.49	12.35	-43.9	-45.8	18.0	0.00e+00	0	42	0	0	59	4481
2026-01-06 08:27:50.33	102.11	12.57	-43.7	-45.6	18.2	0.00e+00	0	42	0	0	59	4373
2026-01-06 08:27:53.33	101.73	12.79	-43.7	-45.5	18.2	0.00e+00	0	42	0	0	59	4330
2026-01-06 08:27:56.33	101.33	13.01	-43.5	-45.4	18.4	0.00e+00	0	42	0	0	58	4501
2026-01-06 08:27:59.33	100.94	13.24	-43.5	-45.3	18.4	0.00e+00	0	42	0	0	58	4478
2026-01-06 08:28:02.33	100.53	13.46	-43.5	-45.4	18.4	0.00e+00	0	42	0	0	58	4513
2026-01-06 08:28:05.33	100.12	13.68	-43.5	-45.4	18.4	0.00e+00	0	42	0	0	58	4500
2026-01-06 08:28:08.34	99.71	13.91	-43.5	-45.4	18.4	0.00e+00	0	42	0	0	58	4509
2026-01-06 08:28:11.34	99.28	14.13	-43.6	-45.5	18.3	0.00e+00	0	42	0	0	58	4556
2026-01-06 08:28:14.34	98.85	14.36	-43.6	-45.5	18.3	0.00e+00	0	42	0	0	58	4580
2026-01-06 08:28:17.35	98.42	14.59	-43.7	-45.6	18.3	0.00e+00	0	42	0	0	58	4601
2026-01-06 08:28:20.35	97.97	14.81	-43.7	-45.6	18.2	0.00e+00	0	42	0	0	58	4627
2026-01-06 08:28:23.35	97.52	15.04	-43.8	-45.7	18.2	0.00e+00	0	42	0	0	58	4652
2026-01-06 08:28:26.35	97.07	15.27	-43.8	-45.7	18.2	0.00e+00	0	42	0	0	58	4668
2026-01-06 08:28:29.35	96.60	15.49	-43.8	-45.7	18.2	0.00e+00	0	42	0	0	58	4672
2026-01-06 08:28:32.35	96.13	15.72	-43.7	-45.6	18.3	0.00e+00	0	42	0	0	58	4621
2026-01-06 08:28:35.36	95.65	15.95	-43.8	-45.7	18.1	0.00e+00	0	42	0	0	58	4696
2026-01-06 08:28:38.36	95.17	16.18	-43.8	-45.7	18.2	0.00e+00	0	42	0	0	58	4676
2026-01-06 08:28:41.37	94.67	16.41	-43.6	-45.4	18.4	0.00e+00	0	42	0	0	58	4539
2026-01-06 08:28:44.37	94.17	16.63	-43.5	-45.3	18.5	0.00e+00	0	42	0	0	58	4474
2026-01-06 08:28:47.38	93.66	16.86	-43.5	-45.4	18.4	0.00e+00	0	42	0	0	58	4503
2026-01-06 08:28:50.38	93.15	17.09	-43.4	-45.2	18.6	0.00e+00	0	43	0	0	58	4404
2026-01-06 08:28:53.38	92.62	17.32	-43.2	-45.0	18.8	0.00e+00	0	42	0	0	58	4325
2026-01-06 08:28:56.39	92.09	17.54	-43.3	-45.1	18.7	0.00e+00	0	42	0	0	58	4382
2026-01-06 08:28:59.38	91.55	17.77	-43.3	-45.1	18.7	0.00e+00	0	42	0	0	58	4389
2026-01-06 08:29:02.39	91.00	17.99	-43.2	-45.0	18.9	0.00e+00	0	42	0	0	58	4336
2026-01-06 08:29:05.38	90.45	18.22	-42.9	-44.7	19.1	0.00e+00	0	42	0	0	57	4417
2026-01-06 08:29:08.38	89.88	18.44	-42.9	-44.7	19.1	0.00e+00	0	42	0	0	57	4415
2026-01-06 08:29:11.39	89.31	18.67	-43.0	-44.8	19.0	0.00e+00	0	42	0	0	57	4484
2026-01-06 08:29:14.39	88.73	18.89	-43.0	-44.8	19.0	0.00e+00	0	42	0	0	57	4460
2026-01-06 08:29:17.40	88.13	19.11	-43.0	-44.8	18.9	0.00e+00	0	42	0	0	57	4491
2026-01-06 08:29:20.40	87.53	19.33	-43.1	-45.0	18.9	0.00e+00	0	42	0	0	57	4547
2026-01-06 08:29:23.40	86.93	19.55	-43.0	-44.9	18.9	0.00e+00	0	42	0	0	57	4508
2026-01-06 08:29:26.40	86.31	19.76	-43.1	-44.9	18.9	0.00e+00	0	42	0	0	57	4529
2026-01-06 08:29:29.41	85.68	19.98	-42.9	-44.7	19.1	0.00e+00	0	42	0	0	57	4439
2026-01-06 08:29:32.41	85.05	20.19	-42.9	-44.7	19.1	0.00e+00	0	42	0	0	57	4437
2026-01-06 08:29:35.41	84.40	20.40	-43.1	-45.0	18.8	0.00e+00	0	42	0	0	57	4548
2026-01-06 08:29:38.41	83.75	20.61	-42.9	-44.7	19.1	0.00e+00	0	42	0	0	57	4426
2026-01-06 08:29:41.41	83.09	20.82	-42.8	-44.6	19.2	0.00e+00	0	42	0	0	57	4380
2026-01-06 08:29:44.41	82.42	21.02	-42.9	-44.7	19.0	0.00e+00	0	42	0	0	57	4441
2026-01-06 08:29:47.41	81.74	21.23	-43.0	-44.8	19.0	0.00e+00	0	42	0	0	57	4461
2026-01-06 08:29:50.41	81.06	21.43	-43.0	-44.8	19.1	0.00e+00	0	42	0	0	57	4459
2026-01-06 08:29:53.42	80.36	21.62	-42.9	-44.6	19.2	0.00e+00	0	42	0	0	57	4373
2026-01-06 08:29:56.42	79.65	21.82	-42.6	-44.3	19.5	0.00e+00	0	42	0	0	57	4217
2026-01-06 08:29:59.42	78.94	22.01	-42.5	-44.2	19.5	0.00e+00	0	42	0	0	56	4435
2026-01-06 08:30:02.42	78.22	22.19	-42.7	-44.4	19.3	0.00e+00	0	43	0	0	56	4537
2026-01-06 08:30:05.43	77.48	22.38	-42.7	-44.4	19.3	0.00e+00	0	42	0	0	56	4535
2026-01-06 08:30:08.43	76.74	22.55	-42.9	-44.6	19.2	0.00e+00	0	43	0	0	56	4642
2026-01-06 08:30:11.43	75.99	22.73	-42.7	-44.4	19.4	0.00e+00	0	43	0	0	56	4521
2026-01-06 08:30:14.43	75.24	22.90	-42.8	-44.5	19.4	0.00e+00	0	43	0	0	56	4573
2026-01-06 08:30:17.43	74.47	23.07	-42.5	-44.2	19.6	0.00e+00	0	42	0	0	56	4415
2026-01-06 08:30:20.43	73.70	23.23	-42.5	-44.2	19.6	0.00e+00	0	43	0	0	56	4403
2026-01-06 08:30:23.44	72.91	23.39	-42.6	-44.3	19.5	0.00e+00	0	43	0	0	56	4467
2026-01-06 08:30:26.43	72.13	23.54	-42.9	-44.6	19.2	0.00e+00	0	42	0	0	56	4644
2026-01-06 08:30:29.44	71.33	23.69	-43.0	-44.7	19.1	0.00e+00	0	42	0	0	56	4699
2026-01-06 08:30:32.44	70.52	23.83	-42.7	-44.4	19.4	0.00e+00	0	42	0	0	56	4541
2026-01-06 08:30:35.44	69.71	23.97	-42.8	-44.6	19.3	0.00e+00	0	43	0	0	56	4604
2026-01-06 08:30:38.44	68.89	24.10	-42.7	-44.4	19.4	0.00e+00	0	43	0	0	56	4521
2026-01-06 08:30:41.44	68.07	24.23	-42.7	-44.4	19.5	0.00e+00	0	43	0	0	56	4515
2026-01-06 08:30:44.44	67.24	24.34	-42.6	-44.3	19.5	0.00e+00	0	43	0	0	56	4453
2026-01-06 08:30:47.45	66.40	24.46	-42.6	-44.3	19.4	0.00e+00	0	42	0	0	56	4491
2026-01-06 08:30:50.45	65.55	24.57	-42.8	-44.5	19.3	0.00e+00	0	42	0	0	56	4598
2026-01-06 08:30:53.45	64.70	24.67	-42.7	-44.4	19.4	0.00e+00	0	43	0	0	56	4545
2026-01-06 08:30:56.46	63.85	24.76	-42.7	-44.4	19.4	0.00e+00	0	43	0	0	56	4542
2026-01-06 08:30:59.46	62.99	24.85	-42.6	-44.4	19.5	0.00e+00	0	43	0	0	56	4494
2026-01-06 08:31:02.47	62.12	24.93	-42.3	-44.0	19.8	0.00e+00	0	43	0	0	56	4336
2026-01-06 08:31:05.47	61.25	25.01	-42.2	-43.9	20.0	0.00e+00	0	42	0	0	56	4262
2026-01-06 08:31:08.46	60.38	25.07	-42.3	-44.0	19.8	0.00e+00	0	43	0	0	56	4325
2026-01-06 08:31:11.46	59.51	25.13	-42.5	-44.2	19.7	0.00e+00	0	43	0	0	56	4414
2026-01-06 08:31:14.46	58.63	25.19	-42.6	-44.3	19.6	0.00e+00	0	43	0	0	56	4485
2026-01-06 08:31:17.46	57.75	25.23	-42.4	-44.1	19.7	0.00e+00	0	43	0	0	56	4342
2026-01-06 08:31:20.46	56.86	25.27	-42.5	-44.3	19.6	0.00e+00	0	43	0	0	56	4447
2026-01-06 08:31:23.45	55.98	25.30	-42.6	-44.4	19.5	0.00e+00	0	43	0	0	56	4495
2026-01-06 08:31:26.45	55.10	25.32	-42.6	-44.3	19.6	0.00e+00	0	43	0	0	56	4468
2026-01-06 08:31:29.46	54.20	25.34	-42.5	-44.2	19.7	0.00e+00	0	43	0	0	56	4424
2026-01-06 08:31:32.46	53.32	25.35	-42.6	-44.3	19.6	0.00e+00	0	42	0	0	56	4471
2026-01-06 08:31:35.47	52.42	25.35	-42.8	-44.5	19.4	0.00e+00	0	43	0	0	56	4592
2026-01-06 08:31:38.47	51.54	25.34	-42.6	-44.3	19.6	0.00e+00	0	43	0	0	56	4465
2026-01-06 08:31:41.47	50.65	25.33	-42.4	-44.1	19.7	0.00e+00	0	43	0	0	56	4383
2026-01-06 08:31:44.47	49.76	25.31	-42.5	-44.2	19.6	0.00e+00	0	42	0	0	56	4421
2026-01-06 08:31:47.47	48.88	25.28	-42.6	-44.3	19.6	0.00e+00	0	42	0	0	56	4463
2026-01-06 08:31:50.48	47.99	25.24	-42.6	-44.4	19.5	0.00e+00	0	42	0	0	56	4497
2026-01-06 08:31:53.48	47.11	25.20	-42.4	-44.1	19.7	0.00e+00	0	43	0	0	56	4387
2026-01-06 08:31:56.48	46.23	25.14	-42.8	-44.5	19.4	0.00e+00	0	43	0	0	56	4578
2026-01-06 08:31:59.47	45.36	25.09	-42.7	-44.5	19.4	0.00e+00	0	42	0	0	56	4566
2026-01-06 08:32:02.47	44.49	25.02	-42.5	-44.3	19.6	0.00e+00	0	43	0	0	56	4448
2026-01-06 08:32:05.48	43.62	24.95	-42.5	-44.3	19.6	0.00e+00	0	43	0	0	56	4449
2026-01-06 08:32:08.48	42.75	24.87	-42.8	-44.5	19.4	0.00e+00	0	43	0	0	56	4597
2026-01-06 08:32:11.49	41.89	24.78	-43.1	-44.9	18.9	0.00e+00	0	42	0	0	56	4779
2026-01-06 08:32:14.49	41.04	24.69	-43.0	-44.8	19.1	0.00e+00	0	43	0	0	57	4465
2026-01-06 08:32:17.54	40.17	24.59	-42.7	-44.4	19.4	0.00e+00	0	43	0	0	57	4283
2026-01-06 08:32:20.68	39.29	24.48	-42.6	-44.3	19.4	0.00e+00	0	42	0	0	57	4227
2026-01-06 08:32:23.55	38.49	24.37	-42.6	-44.4	19.4	0.00e+00	0	42	0	0	57	4250
2026-01-06 08:32:26.70	37.62	24.24	-42.6	-44.4	19.5	0.00e+00	0	43	0	0	57	4249
2026-01-06 08:32:29.57	36.83	24.13	-42.6	-44.3	19.4	0.00e+00	0	43	0	0	57	4233
2026-01-06 08:32:32.72	35.97	23.99	-42.5	-44.2	19.4	0.00e+00	0	43	0	0	56	4439
2026-01-06 08:32:35.59	35.20	23.86	-42.4	-44.1	19.5	0.00e+00	0	43	0	0	56	4371
2026-01-06 08:32:39.10	34.26	23.69	-42.8	-44.6	19.4	0.00e+00	0	43	0	0	56	4603
2026-01-06 08:32:41.83	33.54	23.56	-42.9	-44.7	19.2	0.00e+00	0	43	0	0	56	4656
2026-01-06 08:32:45.12	32.67	23.39	-42.7	-44.4	19.4	0.00e+00	0	43	0	0	56	4532
2026-01-06 08:32:48.21	31.87	23.23	-42.8	-44.6	19.2	0.00e+00	0	43	0	0	56	4612
2026-01-06 08:32:51.45	31.04	23.06	-42.6	-44.3	19.5	0.00e+00	0	43	0	0	56	4470
2026-01-06 08:32:54.34	30.31	22.90	-42.6	-44.3	19.5	0.00e+00	0	43	0	0	56	4468
2026-01-06 08:32:57.49	29.51	22.72	-42.5	-44.2	19.5	0.00e+00	0	43	0	0	56	4414
2026-01-06 08:33:00.36	28.80	22.55	-42.7	-44.5	19.2	0.00e+00	0	43	0	0	56	4553
2026-01-06 08:33:03.54	28.02	22.36	-42.8	-44.6	19.2	0.00e+00	0	43	0	0	56	4636
2026-01-06 08:33:06.41	27.32	22.18	-42.8	-44.6	19.3	0.00e+00	0	43	0	0	56	4636
2026-01-06 08:33:09.56	26.57	21.99	-42.7	-44.5	19.3	0.00e+00	0	43	0	0	56	4562
2026-01-06 08:33:12.43	25.89	21.81	-42.2	-43.9	19.8	0.00e+00	0	42	0	0	56	4275
2026-01-06 08:33:15.58	25.15	21.60	-42.1	-43.9	19.8	0.00e+00	0	43	0	0	56	4266
2026-01-06 08:33:18.45	24.49	21.42	-42.6	-44.4	19.4	0.00e+00	0	42	0	0	56	4520
2026-01-06 08:33:21.60	23.77	21.21	-42.5	-44.3	19.5	0.00e+00	0	42	0	0	56	4465
2026-01-06 08:33:24.60	23.10	21.01	-42.3	-44.1	19.7	0.00e+00	0	43	0	0	56	4379
2026-01-06 08:33:27.77	22.40	20.79	-42.4	-44.1	19.6	0.00e+00	0	43	0	0	56	4376
2026-01-06 08:33:30.81	21.73	20.58	-42.3	-44.1	19.6	0.00e+00	0	43	0	0	56	4354
2026-01-06 08:33:34.10	21.02	20.35	-42.4	-44.1	19.7	0.00e+00	0	43	0	0	56	4371
2026-01-06 08:33:36.82	20.45	20.16	-42.9	-44.7	19.2	0.00e+00	0	43	0	0	56	4668
2026-01-06 08:33:40.11	19.76	19.93	-43.0	-44.9	19.0	0.00e+00	0	43	0	0	56	4779
2026-01-06 08:33:42.86	19.19	19.73	-42.8	-44.6	19.2	0.00e+00	0	43	0	0	56	4610
2026-01-06 08:33:46.08	18.53	19.50	-42.9	-44.7	19.1	0.00e+00	0	43	0	0	56	4671
2026-01-06 08:33:49.29	17.89	19.27	-42.8	-44.6	19.1	0.00e+00	0	43	0	0	56	4646
2026-01-06 08:33:52.16	17.32	19.06	-42.8	-44.6	19.2	0.00e+00	0	42	0	0	56	4623
2026-01-06 08:33:55.44	16.68	18.82	-43.0	-44.8	19.1	0.00e+00	0	43	0	0	56	4750
2026-01-06 08:33:58.16	16.16	18.62	-43.5	-45.3	18.7	0.00e+00	0	42	0	0	57	4731
2026-01-06 08:34:01.45	15.54	18.37	-43.7	-45.6	18.4	0.00e+00	0	43	0	0	58	4620
2026-01-06 08:34:04.18	15.03	18.17	-43.6	-45.5	18.5	0.00e+00	0	43	0	0	58	4572
2026-01-06 08:34:07.48	14.43	17.92	-43.5	-45.4	18.6	0.00e+00	0	43	0	0	58	4519
2026-01-06 08:34:10.20	13.94	17.72	-43.6	-45.6	18.4	0.00e+00	0	43	0	0	58	4622
2026-01-06 08:34:13.85	13.29	17.45	-43.6	-45.6	18.4	0.00e+00	0	43	0	0	58	4602
2026-01-06 08:34:16.58	12.81	17.24	-43.4	-45.4	18.6	0.00e+00	0	43	0	0	58	4503
2026-01-06 08:34:20.35	12.16	16.96	-43.3	-45.4	18.6	0.00e+00	0	43	0	0	58	4532
2026-01-06 08:34:23.12	11.69	16.75	-43.2	-45.2	18.9	0.00e+00	0	43	0	0	58	4412
2026-01-06 08:34:26.67	11.10	16.48	-43.2	-45.1	18.9	0.00e+00	0	43	0	0	58	4374
2026-01-06 08:34:29.55	10.63	16.26	-43.3	-45.3	18.9	0.00e+00	0	43	0	0	58	4461
2026-01-06 08:34:32.70	10.12	16.02	-43.7	-45.7	18.4	0.00e+00	0	43	0	0	58	4671
2026-01-06 08:34:35.67	9.65	15.80	-43.8	-45.8	18.3	0.00e+00	0	42	0	0	58	4742
2026-01-06 08:34:39.01	9.13	15.55	-43.7	-45.6	18.5	0.00e+00	0	43	0	0	58	4601
2026-01-06 08:34:41.74	8.71	15.34	-43.5	-45.5	18.6	0.00e+00	0	42	0	0	58	4572
2026-01-06 08:34:45.02	8.21	15.09	-43.9	-46.0	18.2	0.00e+00	0	43	0	0	58	4854
2026-01-06 08:34:47.75	7.81	14.89	-44.2	-46.3	17.9	0.00e+00	0	43	0	0	59	4719
2026-01-06 08:34:51.04	7.32	14.64	-44.1	-46.2	17.8	0.00e+00	0	43	0	0	59	4672
2026-01-06 08:34:53.76	6.93	14.44	-43.5	-45.8	18.2	0.00e+00	0	43	0	0	59	4457
2026-01-06 08:34:57.06	6.46	14.19	-43.7	-45.8	18.3	0.00e+00	0	43	0	0	59	4466
2026-01-06 08:34:59.78	6.08	13.99	-44.2	-46.3	17.9	0.00e+00	0	43	0	0	59	4729
2026-01-06 08:35:03.17	5.61	13.74	-44.6	-46.8	17.4	0.00e+00	0	43	0	0	59	5034
2026-01-06 08:35:06.00	5.23	13.53	-44.6	-46.9	17.4	0.00e+00	0	43	0	0	60	4766
2026-01-06 08:35:09.30	4.79	13.28	-44.2	-46.5	17.7	0.00e+00	0	43	0	0	60	4584
2026-01-06 08:35:12.02	4.43	13.08	-43.9	-46.0	18.0	0.00e+00	0	43	0	0	59	4589
2026-01-06 08:35:15.32	4.00	12.84	-44.2	-46.3	17.9	0.00e+00	0	43	0	0	59	4726
2026-01-06 08:35:18.04	3.66	12.64	-44.6	-46.7	17.5	0.00e+00	0	43	0	0	59	4965
2026-01-06 08:35:21.33	3.24	12.40	-44.5	-46.7	17.5	0.00e+00	0	43	0	0	60	4666
2026-01-06 08:35:24.05	2.91	12.20	-44.3	-46.5	17.6	0.00e+00	0	43	0	0	60	4589
2026-01-06 08:35:27.35	2.51	11.96	-44.0	-46.2	17.9	0.00e+00	0	43	0	0	59	4663
2026-01-06 08:35:30.07	2.18	11.76	-43.6	-45.5	18.5	0.00e+00	0	43	0	0	59	4323
2026-01-06 08:35:33.36	1.79	11.52	-43.8	-45.9	18.2	0.00e+00	0	43	0	0	59	4495
2026-01-06 08:35:36.30	1.45	11.31	-44.0	-46.4	17.7	0.00e+00	0	43	0	0	59	4801
2026-01-06 08:35:39.65	1.07	11.07	-44.6	-46.9	17.2	0.00e+00	0	43	0	0	59	5098
2026-01-06 08:35:42.37	0.76	10.88	-44.8	-47.2	16.9	0.00e+00	0	43	0	0	60	4938
2026-01-06 08:35:45.67	0.39	10.65	-44.2	-46.4	17.5	0.00e+00	0	43	0	0	60	4520
2026-01-06 08:35:48.39	0.10	10.45	-44.2	-46.4	17.6	0.00e+00	0	43	0	0	60	4518
2026-01-06 08:35:51.61	359.75	10.23	-44.2	-46.3	17.8	0.00e+00	0	43	0	0	60	4443
2026-01-06 08:35:55.27	359.36	9.97	-44.4	-46.5	17.6	0.00e+00	0	43	0	0	60	4596
2026-01-06 08:35:58.04	359.07	9.78	-44.8	-46.9	17.2	0.00e+00	0	43	0	0	60	4814
2026-01-06 08:36:01.78	358.69	9.52	-45.2	-47.4	16.8	0.00e+00	0	43	0	0	60	5062
2026-01-06 08:36:04.52	358.41	9.33	-45.1	-47.4	16.7	0.00e+00	0	43	0	0	60	5052
2026-01-06 08:36:08.56	358.01	9.05	-44.7	-47.1	16.9	0.00e+00	0	42	0	0	61	4621
2026-01-06 08:36:11.30	357.74	8.86	-52.0	-65.7	3.8	1.49e+00	0	43	104	0	75	17570
2026-01-06 08:36:15.05	357.38	8.61	-52.0	-65.9	3.8	1.49e+00	0	43	104	0	75	18062
2026-01-06 08:36:17.98	357.11	8.41	-52.7	-66.0	3.8	1.49e+00	0	43	104	0	76	17247
2026-01-06 08:36:21.50	356.78	8.17	-52.6	-66.1	3.8	1.49e+00	0	43	104	0	76	17314
2026-01-06 08:36:24.42	356.51	7.98	-52.9	-66.1	3.8	1.49e+00	0	43	104	0	76	17366
2026-01-06 08:36:28.15	356.17	7.73	-53.1	-66.1	3.8	1.49e+00	0	43	104	0	76	17355
2026-01-06 08:36:31.04	355.92	7.54	-53.0	-66.1	3.8	1.49e+00	0	43	104	0	76	17348
2026-01-06 08:36:34.23	355.64	7.33	-53.0	-66.1	3.8	1.49e+00	0	43	104	0	76	17353
2026-01-06 08:36:37.25	355.38	7.13	-53.0	-66.1	3.8	1.49e+00	0	43	104	0	76	17385
2026-01-06 08:36:40.36	355.11	6.93	-52.7	-66.0	3.8	1.49e+00	0	43	104	0	76	17226
2026-01-06 08:36:43.23	354.87	6.74	-52.7	-66.1	3.8	1.49e+00	0	43	104	0	76	17318
2026-01-06 08:36:46.39	354.61	6.54	-52.7	-66.1	3.8	1.49e+00	0	43	104	0	76	17331
2026-01-06 08:36:49.26	354.38	6.35	-52.7	-66.1	3.8	1.49e+00	0	43	104	0	76	17328
2026-01-06 08:36:52.41	354.12	6.15	-52.7	-66.1	3.8	1.49e+00	0	43	104	0	76	17295
2026-01-06 08:36:55.28	353.89	5.97	-52.7	-66.0	3.8	1.49e+00	0	43	104	0	76	17269
2026-01-06 08:36:58.44	353.65	5.77	-52.7	-66.1	3.8	1.49e+00	0	43	104	0	76	17306
2026-01-06 08:37:01.28	353.43	5.59	-52.7	-66.1	3.8	1.49e+00	0	43	104	0	76	17340
2026-01-06 08:37:04.44	353.19	5.39	-52.8	-66.1	3.8	1.49e+00	0	43	104	0	76	17305
2026-01-06 08:37:07.31	352.97	5.21	-52.8	-66.1	3.8	1.49e+00	0	43	104	0	76	17329
2026-01-06 08:37:10.46	352.74	5.02	-52.8	-66.1	3.8	1.49e+00	0	43	104	0	76	17330

#Closed at: 2026-01-06 08:37:12
#Recorded file [0 MB]: D:/Data/31040_260106_112559.dat