passes_logs/2026/01/06/T1/T1__20260106_073753_NOAA_20_JPSS-1_rec.log

#Pass ID: 20260106_073753_NOAA 20 (JPSS-1)
#Satellite: NOAA 20 (JPSS-1)
#Configuration: NOAA 20
#almurnet v.1.7.20251203
#Start time: 2026-01-06 07:37:54

#Version: 2.0.20230620
#Station: T1
#Location: 37.570604 lon 55.790049 lat
#TLE: 1 43013U 17073A   26005.46207808  .00000128  00000+0  81791-4 0  9997
#TLE: 2 43013  98.7627 306.5027 0001826  53.0458 307.0885 14.19533487421381

#Time	Az	El	Level	Level2	SNR	BER	BlckErr	Temp	State	Recorded	gain1	gain2
2026-01-06 07:37:54.09	85.84	5.03	-52.4	-67.5	3.8	1.49e+00	0	37	0	0	76	20347
2026-01-06 07:37:57.08	85.51	5.17	-52.3	-67.5	3.8	1.49e+00	0	37	104	0	76	20430
2026-01-06 07:38:00.08	85.18	5.32	-52.3	-67.5	3.8	1.49e+00	0	37	104	0	76	20324
2026-01-06 07:38:03.08	84.84	5.47	-52.3	-67.5	3.8	1.49e+00	0	38	104	0	76	20304
2026-01-06 07:38:06.08	84.50	5.62	-52.3	-67.5	3.8	1.49e+00	0	38	104	0	76	20417
2026-01-06 07:38:09.08	84.15	5.77	-52.3	-67.5	3.8	1.49e+00	0	38	104	0	76	20369
2026-01-06 07:38:12.08	83.80	5.91	-52.3	-67.5	3.8	1.49e+00	0	38	104	0	76	20407
2026-01-06 07:38:15.08	83.45	6.06	-52.3	-67.5	3.8	1.49e+00	0	38	104	0	76	20392
2026-01-06 07:38:18.07	83.09	6.21	-52.3	-67.4	3.8	1.49e+00	0	38	104	0	76	20265
2026-01-06 07:38:21.06	82.74	6.36	-52.3	-67.4	3.8	1.49e+00	0	38	104	0	76	20123
2026-01-06 07:38:24.07	82.37	6.50	-52.3	-67.4	3.8	1.49e+00	0	38	104	0	76	20161
2026-01-06 07:38:27.07	82.00	6.65	-52.3	-67.3	3.8	1.49e+00	0	38	104	0	76	20058
2026-01-06 07:38:30.06	81.63	6.80	-52.3	-67.4	3.8	1.49e+00	0	38	104	0	76	20151
2026-01-06 07:38:33.06	81.26	6.94	-52.3	-67.4	3.8	1.49e+00	0	39	104	0	76	20219
2026-01-06 07:38:36.06	80.88	7.09	-52.3	-67.4	3.8	1.49e+00	0	38	104	0	76	20180
2026-01-06 07:38:39.05	80.50	7.23	-52.3	-67.0	3.8	1.49e+00	0	39	104	0	76	19311
2026-01-06 07:38:42.04	80.11	7.38	-52.3	-66.9	3.8	1.49e+00	0	39	104	0	76	18978
2026-01-06 07:38:45.03	79.73	7.52	-52.3	-67.3	3.8	1.49e+00	0	39	104	0	76	19897
2026-01-06 07:38:48.03	79.33	7.67	-52.3	-67.3	3.8	1.49e+00	0	39	104	0	76	19906
2026-01-06 07:38:51.02	78.93	7.81	-52.3	-66.7	3.8	1.49e+00	0	39	104	0	76	18725
2026-01-06 07:38:54.01	78.53	7.95	-52.3	-66.9	3.8	1.49e+00	0	39	104	0	76	18989
2026-01-06 07:38:57.01	78.13	8.10	-52.3	-67.3	3.8	1.49e+00	0	39	104	0	76	19858
2026-01-06 07:39:00.00	77.72	8.24	-52.2	-66.0	3.8	1.49e+00	0	39	104	0	76	17242
2026-01-06 07:39:02.98	77.31	8.38	-52.2	-66.2	3.8	1.49e+00	0	39	104	0	76	17496
2026-01-06 07:39:05.98	76.89	8.52	-51.6	-60.7	5.7	8.26e-01	0	39	0	1048576	75	9833
2026-01-06 07:39:08.97	76.47	8.66	-48.8	-52.8	13.5	4.88e-05	0	39	0	6291456	69	5597
2026-01-06 07:39:11.96	76.04	8.80	-47.9	-51.4	14.8	0.00e+00	0	39	0	11534336	67	5346
2026-01-06 07:39:14.95	75.61	8.94	-50.3	-55.7	10.6	5.20e-04	0	39	0	17825792	71	6963
2026-01-06 07:39:17.95	75.18	9.08	-52.4	-65.7	3.8	3.07e-01	0	39	104	23068672	75	17590
2026-01-06 07:39:20.94	74.74	9.21	-50.3	-55.7	10.5	1.09e+00	0	39	0	25165824	72	6571
2026-01-06 07:39:23.93	74.30	9.35	-49.9	-54.8	11.4	1.65e-03	0	40	0	30408704	71	6330
2026-01-06 07:39:26.92	73.85	9.48	-48.3	-51.8	14.6	0.00e+00	0	39	0	36700160	68	5295
2026-01-06 07:39:29.91	73.40	9.62	-47.2	-50.2	16.0	0.00e+00	0	40	0	41943040	66	4964
2026-01-06 07:39:32.90	72.95	9.75	-46.9	-49.8	16.3	0.00e+00	0	39	0	47185920	65	5011
2026-01-06 07:39:35.89	72.49	9.88	-46.9	-49.9	16.3	0.00e+00	0	39	0	53477376	65	5055
2026-01-06 07:39:38.88	72.03	10.01	-46.8	-49.7	16.5	0.00e+00	0	39	0	58720256	65	4961
2026-01-06 07:39:41.88	71.56	10.14	-46.9	-49.8	16.4	0.00e+00	0	40	0	63963136	65	5026
2026-01-06 07:39:44.87	71.09	10.27	-46.8	-49.7	16.5	0.00e+00	0	40	0	70254592	65	4929
2026-01-06 07:39:47.87	70.61	10.40	-46.6	-49.4	16.8	0.00e+00	0	39	0	75497472	65	4791
2026-01-06 07:39:50.85	70.13	10.53	-46.5	-49.3	17.0	0.00e+00	0	40	0	80740352	65	4716
2026-01-06 07:39:53.85	69.65	10.65	-46.5	-49.3	16.9	0.00e+00	0	39	0	87031808	64	4986
2026-01-06 07:39:56.84	69.16	10.78	-46.5	-49.3	16.9	0.00e+00	0	40	0	92274688	64	4992
2026-01-06 07:39:59.83	68.67	10.90	-46.8	-49.6	16.7	0.00e+00	0	40	0	97517568	64	5190
2026-01-06 07:40:02.82	68.17	11.02	-46.7	-49.5	16.7	0.00e+00	0	40	0	103809024	64	5145
2026-01-06 07:40:05.81	67.67	11.14	-46.9	-49.9	16.4	0.00e+00	0	40	0	109051904	64	5342
2026-01-06 07:40:08.79	67.17	11.26	-46.9	-49.8	16.5	0.00e+00	0	40	0	114294784	64	5321
2026-01-06 07:40:11.78	66.66	11.37	-47.0	-49.9	16.3	0.00e+00	0	40	0	120586240	64	5393
2026-01-06 07:40:14.78	66.14	11.49	-47.0	-49.9	16.4	0.00e+00	0	40	0	125829120	64	5352
2026-01-06 07:40:17.77	65.63	11.60	-46.9	-49.8	16.5	0.00e+00	0	40	0	131072000	64	5305
2026-01-06 07:40:20.76	65.11	11.71	-46.7	-49.5	16.7	0.00e+00	0	40	0	137363456	64	5142
2026-01-06 07:40:23.75	64.58	11.82	-46.9	-49.8	16.5	0.00e+00	0	40	0	142606336	64	5291
2026-01-06 07:40:26.73	64.06	11.93	-46.8	-49.6	16.6	0.00e+00	0	40	0	147849216	64	5208
2026-01-06 07:40:29.73	63.52	12.03	-46.8	-49.7	16.6	0.00e+00	0	40	0	154140672	64	5259
2026-01-06 07:40:32.72	62.99	12.14	-46.7	-49.5	16.7	0.00e+00	0	40	0	159383552	64	5146
2026-01-06 07:40:35.71	62.45	12.24	-46.7	-49.5	16.8	0.00e+00	0	40	0	165675008	64	5129
2026-01-06 07:40:38.70	61.90	12.34	-46.7	-49.5	16.8	0.00e+00	0	40	0	170917888	64	5124
2026-01-06 07:40:41.70	61.35	12.43	-46.7	-49.5	16.8	0.00e+00	0	40	0	176160768	64	5116
2026-01-06 07:40:44.69	60.80	12.53	-46.5	-49.3	17.0	0.00e+00	0	40	0	182452224	64	5007
2026-01-06 07:40:47.68	60.25	12.62	-46.6	-49.4	17.0	0.00e+00	0	40	0	187695104	64	5053
2026-01-06 07:40:50.67	59.69	12.71	-46.6	-49.3	17.0	0.00e+00	0	40	0	192937984	64	5013
2026-01-06 07:40:53.67	59.13	12.80	-46.7	-49.4	16.9	0.00e+00	0	40	0	199229440	64	5091
2026-01-06 07:40:56.67	58.56	12.89	-46.5	-49.2	17.1	0.00e+00	0	40	0	204472320	64	4956
2026-01-06 07:40:59.66	57.99	12.97	-46.5	-49.2	17.1	0.00e+00	0	40	0	209715200	64	4982
2026-01-06 07:41:02.65	57.42	13.05	-46.7	-49.4	16.9	0.00e+00	0	40	0	216006656	64	5086
2026-01-06 07:41:05.65	56.85	13.13	-46.8	-49.5	16.8	0.00e+00	0	40	0	221249536	64	5157
2026-01-06 07:41:08.63	56.27	13.20	-46.8	-49.6	16.7	0.00e+00	0	40	0	226492416	64	5216
2026-01-06 07:41:11.63	55.69	13.28	-46.9	-49.7	16.7	0.00e+00	0	40	0	232783872	64	5243
2026-01-06 07:41:14.63	55.10	13.35	-47.0	-49.9	16.5	0.00e+00	0	40	0	238026752	64	5342
2026-01-06 07:41:17.62	54.52	13.41	-46.9	-49.8	16.5	0.00e+00	0	40	0	244318208	64	5315
2026-01-06 07:41:20.61	53.93	13.48	-47.0	-49.9	16.5	0.00e+00	0	40	0	249561088	64	5353
2026-01-06 07:41:23.61	53.34	13.54	-47.0	-49.9	16.5	0.00e+00	0	40	0	254803968	64	5365
2026-01-06 07:41:26.60	52.74	13.60	-46.8	-49.6	16.7	0.00e+00	0	40	0	261095424	64	5207
2026-01-06 07:41:29.60	52.15	13.66	-46.8	-49.6	16.7	0.00e+00	0	40	0	266338304	64	5205
2026-01-06 07:41:32.60	51.55	13.71	-46.7	-49.5	16.8	0.00e+00	0	40	0	271581184	64	5141
2026-01-06 07:41:35.59	50.95	13.76	-46.5	-49.2	17.1	0.00e+00	0	40	0	277872640	64	4959
2026-01-06 07:41:38.58	50.35	13.81	-46.4	-49.1	17.2	0.00e+00	0	40	0	283115520	64	4905
2026-01-06 07:41:41.57	49.74	13.85	-46.6	-49.3	17.1	0.00e+00	0	40	0	288358400	64	5000
2026-01-06 07:41:44.56	49.14	13.89	-46.6	-49.4	17.0	0.00e+00	0	40	0	294649856	64	5051
2026-01-06 07:41:47.55	48.53	13.93	-46.7	-49.5	16.8	0.00e+00	0	40	0	299892736	64	5140
2026-01-06 07:41:50.53	47.92	13.96	-46.6	-49.3	17.1	0.00e+00	0	40	0	305135616	64	4989
2026-01-06 07:41:53.52	47.31	14.00	-46.7	-49.4	17.0	0.00e+00	0	40	0	311427072	64	5071
2026-01-06 07:41:56.52	46.70	14.02	-46.6	-49.4	17.0	0.00e+00	0	40	0	316669952	64	5050
2026-01-06 07:41:59.51	46.09	14.05	-46.5	-49.2	17.2	0.00e+00	0	40	0	321912832	64	4960
2026-01-06 07:42:02.50	45.48	14.07	-46.4	-49.1	17.2	0.00e+00	0	40	0	328204288	64	4903
2026-01-06 07:42:05.49	44.86	14.09	-46.4	-49.1	17.3	0.00e+00	0	40	0	333447168	64	4871
2026-01-06 07:42:08.48	44.25	14.10	-46.5	-49.2	17.1	0.00e+00	0	40	0	338690048	64	4955
2026-01-06 07:42:11.48	43.63	14.12	-46.5	-49.2	17.1	0.00e+00	0	40	0	344981504	64	4978
2026-01-06 07:42:14.47	43.02	14.13	-46.5	-49.1	17.2	0.00e+00	0	40	0	350224384	64	4911
2026-01-06 07:42:17.46	42.40	14.13	-46.6	-49.3	17.1	0.00e+00	0	40	0	356515840	64	5012
2026-01-06 07:42:20.45	41.79	14.13	-46.4	-49.1	17.2	0.00e+00	0	40	0	361758720	64	4908
2026-01-06 07:42:23.46	41.17	14.13	-46.4	-49.1	17.2	0.00e+00	0	40	0	367001600	64	4912
2026-01-06 07:42:26.45	40.55	14.13	-46.8	-49.6	16.8	0.00e+00	0	40	0	373293056	64	5179
2026-01-06 07:42:29.44	39.94	14.12	-46.6	-49.4	16.9	0.00e+00	0	40	0	378535936	64	5082
2026-01-06 07:42:32.44	39.32	14.11	-46.9	-49.8	16.6	0.00e+00	0	40	0	383778816	64	5286
2026-01-06 07:42:35.43	38.70	14.09	-47.0	-49.9	16.5	0.00e+00	0	40	0	390070272	64	5397
2026-01-06 07:42:38.43	38.09	14.08	-46.8	-49.6	16.7	0.00e+00	0	40	0	395313152	64	5180
2026-01-06 07:42:41.42	37.48	14.06	-46.8	-49.7	16.7	0.00e+00	0	40	0	400556032	64	5244
2026-01-06 07:42:44.42	36.86	14.03	-46.9	-50.0	16.4	0.00e+00	0	40	0	406847488	64	5417
2026-01-06 07:42:47.41	36.25	14.01	-46.7	-49.7	16.7	0.00e+00	0	40	0	412090368	64	5224
2026-01-06 07:42:50.40	35.64	13.97	-46.6	-49.5	16.8	0.00e+00	0	40	0	417333248	64	5130
2026-01-06 07:42:53.39	35.03	13.94	-46.6	-49.5	16.8	0.00e+00	0	40	0	423624704	64	5152
2026-01-06 07:42:56.39	34.43	13.90	-46.8	-49.7	16.7	0.00e+00	0	40	0	428867584	64	5241
2026-01-06 07:42:59.39	33.82	13.86	-46.6	-49.4	17.0	0.00e+00	0	40	0	435159040	64	5076
2026-01-06 07:43:02.38	33.22	13.82	-46.5	-49.3	17.1	0.00e+00	0	40	0	440401920	64	4997
2026-01-06 07:43:05.37	32.61	13.78	-46.5	-49.2	17.1	0.00e+00	0	40	0	445644800	64	4963
2026-01-06 07:43:08.37	32.01	13.73	-46.6	-49.5	16.9	0.00e+00	0	40	0	451936256	64	5125
2026-01-06 07:43:11.36	31.42	13.67	-46.5	-49.3	17.0	0.00e+00	0	40	0	457179136	64	5023
2026-01-06 07:43:14.35	30.82	13.62	-46.7	-49.5	16.9	0.00e+00	0	40	0	462422016	64	5110
2026-01-06 07:43:17.35	30.23	13.56	-46.8	-49.7	16.7	0.00e+00	0	40	0	468713472	64	5233
2026-01-06 07:43:20.35	29.63	13.50	-46.8	-49.7	16.6	0.00e+00	0	40	0	473956352	64	5241
2026-01-06 07:43:23.34	29.05	13.44	-46.6	-49.5	16.8	0.00e+00	0	40	0	479199232	64	5122
2026-01-06 07:43:26.34	28.46	13.37	-46.6	-49.6	16.7	0.00e+00	0	40	0	485490688	64	5189
2026-01-06 07:43:29.34	27.87	13.30	-46.8	-49.8	16.6	0.00e+00	0	40	0	490733568	64	5285
2026-01-06 07:43:32.32	27.30	13.23	-46.7	-49.6	16.7	0.00e+00	0	40	0	495976448	64	5215
2026-01-06 07:43:35.32	26.72	13.15	-46.6	-49.5	16.9	0.00e+00	0	40	0	502267904	64	5107
2026-01-06 07:43:38.31	26.14	13.08	-46.7	-49.6	16.7	0.00e+00	0	40	0	507510784	64	5192
2026-01-06 07:43:41.31	25.57	13.00	-46.6	-49.7	16.6	0.00e+00	0	40	0	512753664	64	5240
2026-01-06 07:43:44.30	25.00	12.92	-46.4	-49.4	16.9	0.00e+00	0	40	0	519045120	64	5056
2026-01-06 07:43:47.29	24.44	12.83	-46.4	-49.4	16.9	0.00e+00	0	41	0	524288000	64	5045
2026-01-06 07:43:50.29	23.88	12.74	-46.5	-49.3	16.9	0.00e+00	0	40	0	529530880	64	5030
2026-01-06 07:43:53.28	23.32	12.65	-46.5	-49.3	17.1	0.00e+00	0	40	0	535822336	64	4984
2026-01-06 07:43:56.27	22.77	12.56	-46.2	-48.9	17.3	0.00e+00	0	41	0	541065216	64	4795
2026-01-06 07:43:59.26	22.22	12.47	-46.3	-49.1	17.2	0.00e+00	0	40	0	547356672	64	4893
2026-01-06 07:44:02.26	21.67	12.37	-46.3	-49.3	17.0	0.00e+00	0	41	0	552599552	64	4997
2026-01-06 07:44:05.24	21.13	12.27	-46.1	-49.2	17.0	0.00e+00	0	40	0	557842432	64	4980
2026-01-06 07:44:08.23	20.59	12.17	-45.9	-49.2	17.2	0.00e+00	0	40	0	564133888	63	5252
2026-01-06 07:44:11.22	20.05	12.07	-45.8	-48.9	17.4	0.00e+00	0	41	0	569376768	63	5083
2026-01-06 07:44:14.21	19.52	11.97	-46.0	-49.1	17.3	0.00e+00	0	41	0	574619648	63	5183
2026-01-06 07:44:17.21	18.99	11.86	-46.3	-49.3	17.1	0.00e+00	0	40	0	580911104	63	5282
2026-01-06 07:44:20.20	18.47	11.75	-46.5	-49.4	17.0	0.00e+00	0	41	0	586153984	63	5359
2026-01-06 07:44:23.19	17.95	11.64	-46.7	-49.7	16.6	0.00e+00	0	40	0	591396864	64	5224
2026-01-06 07:44:26.19	17.43	11.53	-47.0	-50.0	16.3	0.00e+00	0	41	0	597688320	64	5462
2026-01-06 07:44:29.17	16.92	11.42	-46.9	-50.2	16.2	0.00e+00	0	41	0	602931200	64	5537
2026-01-06 07:44:32.17	16.41	11.30	-46.9	-50.4	15.9	0.00e+00	0	40	0	608174080	64	5657
2026-01-06 07:44:35.16	15.91	11.18	-46.9	-50.6	15.8	0.00e+00	0	41	0	614465536	64	5797
2026-01-06 07:44:38.15	15.41	11.06	-47.0	-50.7	15.6	0.00e+00	0	40	0	619708416	64	5879
2026-01-06 07:44:41.14	14.91	10.94	-47.2	-51.1	15.2	0.00e+00	0	41	0	624951296	65	5813
2026-01-06 07:44:44.14	14.42	10.82	-47.4	-51.2	15.1	0.00e+00	0	40	0	631242752	65	5910
2026-01-06 07:44:47.13	13.93	10.70	-47.8	-51.5	14.8	0.00e+00	0	40	0	636485632	66	5745
2026-01-06 07:44:50.12	13.45	10.58	-47.9	-51.6	14.8	0.00e+00	0	41	0	641728512	66	5798
2026-01-06 07:44:53.11	12.97	10.45	-48.0	-51.8	14.5	1.50e-06	0	41	0	648019968	66	5959
2026-01-06 07:44:56.11	12.50	10.32	-48.1	-52.0	14.3	7.00e-07	0	41	0	653262848	66	6118
2026-01-06 07:44:59.10	12.03	10.19	-48.2	-52.6	13.7	7.60e-06	0	40	0	659554304	67	6144
2026-01-06 07:45:02.09	11.56	10.07	-47.9	-52.6	13.7	7.60e-06	0	41	0	664797184	67	6159
2026-01-06 07:45:05.09	11.10	9.93	-47.5	-52.5	13.8	3.80e-06	0	41	0	670040064	67	6124
2026-01-06 07:45:08.08	10.64	9.80	-47.3	-52.7	13.6	5.30e-06	0	41	0	676331520	66	6580
2026-01-06 07:45:11.08	10.18	9.67	-46.9	-52.7	13.6	1.37e-05	0	41	0	681574400	65	7008
2026-01-06 07:45:14.07	9.73	9.54	-47.0	-52.8	13.5	9.10e-06	0	41	0	686817280	65	7052
2026-01-06 07:45:17.06	9.29	9.40	-47.3	-52.9	13.4	9.90e-06	0	41	0	693108736	65	7161
2026-01-06 07:45:20.06	8.85	9.27	-47.6	-52.8	13.5	1.37e-05	0	41	0	698351616	65	7048
2026-01-06 07:45:23.06	8.41	9.13	-47.8	-52.7	13.6	8.30e-06	0	41	0	703594496	66	6601
2026-01-06 07:45:26.05	7.98	8.99	-50.2	-64.8	4.1	1.44e-05	0	41	0	709885952	71	19914
2026-01-06 07:45:29.04	7.55	8.85	-51.9	-68.0	3.8	1.49e+00	0	41	104	709885952	74	24180
2026-01-06 07:45:32.04	7.12	8.72	-52.8	-68.2	3.8	1.49e+00	0	41	104	709885952	76	22060
2026-01-06 07:45:35.03	6.70	8.58	-52.5	-68.2	3.8	1.49e+00	0	41	104	709885952	76	22149
2026-01-06 07:45:38.03	6.29	8.44	-52.9	-68.3	3.8	1.49e+00	0	41	104	709885952	76	22298
2026-01-06 07:45:41.02	5.88	8.30	-53.0	-68.3	3.8	1.49e+00	0	41	104	709885952	76	22328
2026-01-06 07:45:44.02	5.47	8.15	-52.9	-68.3	3.8	1.49e+00	0	41	104	709885952	77	21045
2026-01-06 07:45:47.01	5.06	8.01	-53.1	-68.2	3.8	1.49e+00	0	41	104	709885952	77	21017
2026-01-06 07:45:50.00	4.66	7.87	-53.0	-68.2	3.8	1.49e+00	0	41	104	709885952	77	20976
2026-01-06 07:45:53.00	4.27	7.73	-52.7	-68.2	3.8	1.49e+00	0	41	104	709885952	77	20866
2026-01-06 07:45:55.99	3.88	7.58	-52.8	-68.2	3.8	1.49e+00	0	41	104	709885952	77	20939
2026-01-06 07:45:58.99	3.49	7.44	-52.7	-68.2	3.8	1.49e+00	0	41	104	709885952	77	20841
2026-01-06 07:46:01.98	3.10	7.29	-52.7	-68.2	3.8	1.49e+00	0	41	104	709885952	77	20809
2026-01-06 07:46:04.97	2.72	7.15	-52.7	-68.2	3.8	1.49e+00	0	41	104	709885952	77	20843
2026-01-06 07:46:07.97	2.35	7.00	-52.7	-68.2	3.8	1.49e+00	0	41	104	709885952	77	20820
2026-01-06 07:46:10.96	1.97	6.86	-52.7	-68.2	3.8	1.49e+00	0	41	104	709885952	77	20885
2026-01-06 07:46:13.95	1.61	6.71	-52.7	-68.2	3.8	1.49e+00	0	41	104	709885952	77	20897
2026-01-06 07:46:16.94	1.24	6.57	-52.7	-68.2	3.8	1.49e+00	0	41	104	709885952	77	20883
2026-01-06 07:46:19.94	0.88	6.42	-52.7	-68.2	3.8	1.49e+00	0	41	104	709885952	77	20800
2026-01-06 07:46:22.93	0.52	6.27	-52.7	-68.2	3.8	1.49e+00	0	41	104	709885952	77	20790
2026-01-06 07:46:25.92	0.17	6.13	-52.7	-68.1	3.8	1.49e+00	0	41	104	709885952	77	20723
2026-01-06 07:46:28.92	359.82	5.98	-52.7	-68.2	3.8	1.49e+00	0	41	104	709885952	77	20809
2026-01-06 07:46:31.91	359.47	5.83	-52.7	-68.2	3.8	1.49e+00	0	41	104	709885952	77	20874
2026-01-06 07:46:34.91	359.13	5.69	-52.7	-68.2	3.8	1.49e+00	0	41	104	709885952	77	20842
2026-01-06 07:46:37.90	358.79	5.54	-52.7	-68.2	3.8	1.49e+00	0	41	104	709885952	77	20819
2026-01-06 07:46:40.89	358.45	5.39	-52.7	-68.2	3.8	1.49e+00	0	41	104	709885952	77	20822
2026-01-06 07:46:43.89	358.12	5.24	-52.7	-68.2	3.8	1.49e+00	0	41	104	709885952	77	20865
2026-01-06 07:46:46.88	357.79	5.10	-52.8	-68.2	3.8	1.49e+00	0	41	104	709885952	77	20881

#Closed at: 2026-01-06 07:46:49
#Recorded file [709 MB]: D:/Data/31040_260106_103754.dat