passes_logs/2026/01/06/T1/T1__20260106_031155_AQUA_rec.log

#Pass ID: 20260106_031155_AQUA
#Satellite: AQUA
#Configuration: AQUA
#almurnet v.1.7.20251203
#Start time: 2026-01-06 03:11:56

#Version: 2.0.20230620
#Station: T1
#Location: 37.570604 lon 55.790049 lat
#TLE: 1 27424U 02022A   26004.96787593  .00001598  00000+0  32997-3 0  9996
#TLE: 2 27424  98.4069 331.2279 0002002  90.2377   0.6092 14.61798176259425

#Time	Az	El	Level	Level2	SNR	BER	BlckErr	Temp	State	Recorded	gain1	gain2
2026-01-06 03:11:56.93	0.06	5.07	-51.1	-72.1	3.8	7.46e-01	0	36	0	0	72	43623
2026-01-06 03:11:58.93	359.83	5.18	-51.1	-72.1	3.8	7.46e-01	0	37	104	0	72	43607
2026-01-06 03:12:01.03	359.60	5.30	-51.1	-72.1	3.8	7.44e-01	0	37	104	0	72	43629
2026-01-06 03:12:03.04	359.37	5.42	-51.1	-72.1	3.8	7.46e-01	0	37	104	0	72	43523
2026-01-06 03:12:05.05	359.14	5.53	-51.1	-72.1	3.8	7.44e-01	0	37	104	0	72	43681
2026-01-06 03:12:07.06	358.91	5.65	-51.1	-72.1	3.8	7.44e-01	0	37	104	0	72	43600
2026-01-06 03:12:09.07	358.68	5.77	-51.1	-72.1	3.8	7.43e-01	0	37	104	0	72	43737
2026-01-06 03:12:11.07	358.44	5.88	-51.2	-72.1	3.8	7.45e-01	0	37	104	0	72	43673
2026-01-06 03:12:13.08	358.21	6.00	-51.1	-72.1	3.8	7.47e-01	0	37	104	0	72	43620
2026-01-06 03:12:15.09	357.97	6.11	-51.1	-72.1	3.8	7.45e-01	0	37	104	0	72	43573
2026-01-06 03:12:17.10	357.73	6.23	-51.1	-72.1	3.8	7.44e-01	0	37	104	0	72	43619
2026-01-06 03:12:19.10	357.48	6.34	-51.1	-72.1	3.8	7.42e-01	0	37	104	0	72	43618
2026-01-06 03:12:21.11	357.24	6.46	-51.2	-72.1	3.8	7.44e-01	0	37	104	0	72	43623
2026-01-06 03:12:23.12	356.99	6.58	-51.1	-72.1	3.8	7.46e-01	0	37	104	0	72	43655
2026-01-06 03:12:25.13	356.74	6.69	-51.1	-72.1	3.8	7.45e-01	0	38	104	0	72	43674
2026-01-06 03:12:27.14	356.49	6.81	-51.1	-72.1	3.8	7.44e-01	0	37	104	0	72	43568
2026-01-06 03:12:29.15	356.23	6.93	-51.1	-72.1	3.8	7.44e-01	0	37	104	0	72	43571
2026-01-06 03:12:31.16	355.97	7.04	-51.1	-72.1	3.8	7.46e-01	0	38	104	0	72	43533
2026-01-06 03:12:33.17	355.71	7.16	-51.1	-72.1	3.8	7.48e-01	0	38	104	0	72	43593
2026-01-06 03:12:35.18	355.45	7.28	-51.1	-72.1	3.8	7.43e-01	0	38	104	0	72	43572
2026-01-06 03:12:37.18	355.19	7.40	-51.1	-72.1	3.8	7.45e-01	0	38	104	0	72	43654
2026-01-06 03:12:39.19	354.92	7.51	-51.2	-72.1	3.8	7.46e-01	0	38	104	0	72	43650
2026-01-06 03:12:41.35	354.63	7.64	-51.1	-72.1	3.8	7.47e-01	0	38	104	0	72	43613
2026-01-06 03:12:43.38	354.36	7.76	-51.1	-72.1	3.8	7.43e-01	0	38	104	0	72	43586
2026-01-06 03:12:45.39	354.09	7.87	-51.1	-72.1	3.8	7.44e-01	0	38	104	0	72	43561
2026-01-06 03:12:47.40	353.81	7.99	-51.1	-72.1	3.8	7.47e-01	0	38	104	0	72	43543
2026-01-06 03:12:49.41	353.53	8.11	-51.1	-72.1	3.8	7.47e-01	0	38	104	0	72	43602
2026-01-06 03:12:51.37	353.26	8.22	-51.1	-72.1	3.8	7.49e-01	0	38	104	0	72	43694
2026-01-06 03:12:53.43	352.96	8.34	-51.1	-72.1	3.8	7.45e-01	0	38	104	0	72	43604
2026-01-06 03:12:55.46	352.67	8.46	-51.2	-72.1	3.8	7.45e-01	0	38	104	0	72	43709
2026-01-06 03:12:57.47	352.39	8.58	-51.2	-72.1	3.8	7.47e-01	0	38	104	0	72	43612
2026-01-06 03:12:59.48	352.09	8.70	-51.2	-72.1	3.8	7.48e-01	0	38	104	0	72	43657
2026-01-06 03:13:01.48	351.80	8.81	-51.2	-72.1	3.8	7.47e-01	0	38	104	0	72	43661
2026-01-06 03:13:03.49	351.50	8.93	-51.1	-72.1	3.8	7.47e-01	0	38	104	0	72	43641
2026-01-06 03:13:05.50	351.20	9.05	-51.1	-72.1	3.8	7.44e-01	0	38	104	0	72	43520
2026-01-06 03:13:07.51	350.90	9.16	-51.2	-72.1	3.8	7.49e-01	0	38	104	0	72	43672
2026-01-06 03:13:09.52	350.60	9.28	-51.2	-72.1	3.8	7.46e-01	0	38	104	0	72	43705
2026-01-06 03:13:11.53	350.29	9.40	-51.1	-72.1	3.8	7.46e-01	0	38	104	0	72	43529
2026-01-06 03:13:13.53	349.98	9.51	-51.2	-72.1	3.8	7.48e-01	0	38	104	0	72	43681
2026-01-06 03:13:15.54	349.67	9.63	-51.1	-72.1	3.8	7.48e-01	0	38	104	0	72	43718
2026-01-06 03:13:17.55	349.35	9.74	-51.2	-72.1	3.8	7.48e-01	0	38	104	0	72	43657
2026-01-06 03:13:19.64	349.02	9.86	-51.1	-72.1	3.8	7.43e-01	0	38	104	0	72	43611
2026-01-06 03:13:21.65	348.70	9.98	-51.2	-72.1	3.8	7.44e-01	0	39	104	0	72	43652
2026-01-06 03:13:23.66	348.37	10.10	-51.1	-72.1	3.8	7.47e-01	0	38	104	0	72	43702
2026-01-06 03:13:25.66	348.05	10.21	-51.2	-72.1	3.8	7.45e-01	0	38	104	0	73	41207
2026-01-06 03:13:27.67	347.71	10.32	-51.2	-72.1	3.8	7.47e-01	0	38	104	0	73	41232
2026-01-06 03:13:29.68	347.38	10.44	-51.2	-72.1	3.8	7.47e-01	0	38	104	0	73	41252
2026-01-06 03:13:31.69	347.05	10.55	-51.2	-72.1	3.8	7.45e-01	0	38	104	0	73	41205
2026-01-06 03:13:33.70	346.71	10.67	-51.2	-72.1	3.8	7.46e-01	0	38	104	0	73	41207
2026-01-06 03:13:35.71	346.36	10.78	-51.2	-72.1	3.8	7.45e-01	0	38	104	0	73	41250
2026-01-06 03:13:37.71	346.02	10.89	-51.1	-72.1	3.8	7.47e-01	0	39	104	0	73	41275
2026-01-06 03:13:39.72	345.67	11.01	-51.2	-72.1	3.8	7.44e-01	0	38	104	0	73	41225
2026-01-06 03:13:41.73	345.32	11.12	-51.1	-72.1	3.8	7.48e-01	0	38	104	0	73	41195
2026-01-06 03:13:43.74	344.97	11.23	-51.2	-72.1	3.8	7.46e-01	0	39	104	0	73	41244
2026-01-06 03:13:45.75	344.61	11.34	-51.2	-72.1	3.8	7.46e-01	0	39	104	0	73	41264
2026-01-06 03:13:47.76	344.25	11.45	-51.2	-72.1	3.8	7.48e-01	0	39	104	0	73	41265
2026-01-06 03:13:49.76	343.89	11.56	-51.2	-72.1	3.8	7.43e-01	0	39	104	0	73	41301
2026-01-06 03:13:51.77	343.53	11.67	-51.2	-72.1	3.8	7.49e-01	0	39	104	0	73	41230
2026-01-06 03:13:53.78	343.16	11.78	-51.2	-72.1	3.8	7.48e-01	0	39	104	0	73	41242
2026-01-06 03:13:55.79	342.79	11.89	-51.2	-72.1	3.8	7.46e-01	0	39	104	0	73	41308
2026-01-06 03:13:57.79	342.41	12.00	-51.2	-72.1	3.8	7.47e-01	0	38	104	0	73	41231
2026-01-06 03:13:59.80	342.04	12.11	-51.2	-72.1	3.8	7.46e-01	0	38	104	0	73	41211
2026-01-06 03:14:01.81	341.65	12.22	-51.2	-72.1	3.8	7.43e-01	0	38	104	0	73	41292
2026-01-06 03:14:03.82	341.27	12.32	-51.2	-72.1	3.8	7.45e-01	0	39	104	0	73	41236
2026-01-06 03:14:05.83	340.88	12.43	-51.2	-72.1	3.8	7.44e-01	0	39	104	0	73	41258
2026-01-06 03:14:07.84	340.49	12.53	-51.2	-72.1	3.8	7.46e-01	0	39	104	0	73	41332
2026-01-06 03:14:09.84	340.10	12.64	-51.2	-72.1	3.8	7.47e-01	0	39	104	0	73	41297
2026-01-06 03:14:11.85	339.71	12.74	-51.2	-72.1	3.8	7.47e-01	0	39	104	0	73	41375
2026-01-06 03:14:13.86	339.31	12.84	-51.2	-72.1	3.8	7.44e-01	0	39	104	0	73	41331
2026-01-06 03:14:15.87	338.91	12.95	-51.2	-72.1	3.8	7.44e-01	0	39	104	0	73	41298
2026-01-06 03:14:17.88	338.50	13.05	-51.2	-72.1	3.8	7.46e-01	0	39	104	0	73	41258
2026-01-06 03:14:19.88	338.09	13.15	-51.2	-72.1	3.8	7.49e-01	0	39	104	0	73	41239
2026-01-06 03:14:21.89	337.68	13.25	-51.2	-72.1	3.8	7.45e-01	0	39	104	0	73	41289
2026-01-06 03:14:23.90	337.27	13.35	-51.2	-72.1	3.8	7.45e-01	0	39	104	0	73	41306
2026-01-06 03:14:25.91	336.85	13.44	-51.2	-72.1	3.8	7.45e-01	0	39	104	0	73	41202
2026-01-06 03:14:27.92	336.43	13.54	-51.2	-72.1	3.8	7.46e-01	0	39	104	0	73	41296
2026-01-06 03:14:29.93	336.01	13.64	-51.2	-72.1	3.8	7.47e-01	0	39	104	0	73	41343
2026-01-06 03:14:31.94	335.58	13.73	-51.2	-72.1	3.8	7.44e-01	0	39	104	0	73	41314
2026-01-06 03:14:33.94	335.16	13.82	-51.2	-72.1	3.8	7.46e-01	0	39	104	0	73	41401
2026-01-06 03:14:35.95	334.72	13.91	-51.2	-72.1	3.8	7.44e-01	0	39	104	0	73	41358
2026-01-06 03:14:37.96	334.29	14.01	-51.2	-72.1	3.8	7.41e-01	0	39	104	0	73	41344
2026-01-06 03:14:39.97	333.85	14.10	-51.2	-72.1	3.8	7.48e-01	0	39	104	0	73	41440
2026-01-06 03:14:41.98	333.41	14.18	-51.2	-72.1	3.8	7.45e-01	0	39	104	0	73	41327
2026-01-06 03:14:43.99	332.97	14.27	-51.2	-72.1	3.8	7.46e-01	0	39	104	0	73	41421
2026-01-06 03:14:45.99	332.52	14.36	-51.2	-72.1	3.8	7.43e-01	0	39	104	0	73	41316
2026-01-06 03:14:48.00	332.07	14.44	-51.2	-72.1	3.8	7.47e-01	0	39	104	0	73	41363
2026-01-06 03:14:50.01	331.62	14.53	-51.2	-72.1	3.8	7.47e-01	0	39	104	0	73	41379
2026-01-06 03:14:52.02	331.17	14.61	-51.2	-72.1	3.8	7.47e-01	0	39	104	0	73	41427
2026-01-06 03:14:54.03	330.71	14.69	-51.2	-72.1	3.8	7.45e-01	0	39	104	0	73	41325
2026-01-06 03:14:56.03	330.25	14.77	-51.2	-72.1	3.8	7.46e-01	0	39	104	0	73	41362
2026-01-06 03:14:58.04	329.79	14.84	-51.2	-72.1	3.8	7.45e-01	0	39	104	0	73	41406
2026-01-06 03:15:00.05	329.32	14.92	-51.2	-72.1	3.8	7.47e-01	0	39	104	0	73	41432
2026-01-06 03:15:02.05	328.86	14.99	-51.2	-72.1	3.8	7.48e-01	0	39	104	0	73	41338
2026-01-06 03:15:04.06	328.39	15.07	-51.2	-72.1	3.8	7.43e-01	0	39	104	0	73	41424
2026-01-06 03:15:06.07	327.91	15.14	-51.2	-72.1	3.8	7.49e-01	0	39	104	0	73	41344
2026-01-06 03:15:08.08	327.44	15.21	-51.2	-72.1	3.8	7.46e-01	0	39	104	0	73	41411
2026-01-06 03:15:10.09	326.96	15.28	-51.2	-72.1	3.8	7.45e-01	0	39	104	0	73	41391
2026-01-06 03:15:12.10	326.48	15.34	-51.2	-72.1	3.8	7.42e-01	0	39	104	0	73	41353
2026-01-06 03:15:14.10	326.00	15.41	-51.2	-72.1	3.8	7.45e-01	0	39	104	0	73	41356
2026-01-06 03:15:16.11	325.52	15.47	-51.2	-72.1	3.8	7.46e-01	0	39	104	0	73	41356
2026-01-06 03:15:18.17	325.02	15.53	-51.2	-72.1	3.8	7.48e-01	0	39	104	0	73	41426
2026-01-06 03:15:20.17	324.53	15.59	-51.2	-72.1	3.8	7.46e-01	0	39	104	0	73	41418
2026-01-06 03:15:22.18	324.04	15.65	-51.2	-72.1	3.8	7.43e-01	0	39	104	0	73	41436
2026-01-06 03:15:24.19	323.55	15.71	-51.2	-72.1	3.8	7.47e-01	0	39	104	0	73	41398
2026-01-06 03:15:26.20	323.05	15.76	-51.2	-72.1	3.8	7.45e-01	0	39	104	0	73	41333
2026-01-06 03:15:28.21	322.56	15.81	-51.2	-72.1	3.8	7.48e-01	0	39	104	0	73	41436
2026-01-06 03:15:30.22	322.06	15.86	-51.2	-72.1	3.8	7.49e-01	0	39	104	0	73	41449
2026-01-06 03:15:32.22	321.56	15.91	-51.2	-72.1	3.8	7.47e-01	0	39	104	0	73	41431
2026-01-06 03:15:34.23	321.06	15.95	-51.2	-72.2	3.8	7.46e-01	0	39	104	0	73	41528
2026-01-06 03:15:36.24	320.55	16.00	-51.2	-72.1	3.8	7.48e-01	0	39	104	0	73	41384
2026-01-06 03:15:38.25	320.05	16.04	-51.2	-72.2	3.8	7.43e-01	0	39	104	0	73	41529
2026-01-06 03:15:40.25	319.54	16.08	-51.2	-72.2	3.8	7.46e-01	0	39	104	0	73	41463
2026-01-06 03:15:42.26	319.03	16.12	-51.2	-72.2	3.8	7.44e-01	0	39	104	0	73	41472
2026-01-06 03:15:44.35	318.50	16.15	-51.2	-72.1	3.8	7.45e-01	0	39	104	0	73	41425
2026-01-06 03:15:46.42	317.98	16.19	-51.2	-72.2	3.8	7.46e-01	0	39	104	0	73	41504
2026-01-06 03:15:48.31	317.50	16.22	-51.2	-72.2	3.8	7.44e-01	0	39	104	0	73	41473
2026-01-06 03:15:50.32	316.98	16.25	-51.2	-72.2	3.8	7.48e-01	0	39	104	0	73	41474
2026-01-06 03:15:52.33	316.47	16.27	-51.2	-72.1	3.8	7.45e-01	0	39	104	0	73	41400
2026-01-06 03:15:54.34	315.95	16.30	-51.2	-72.2	3.8	7.43e-01	0	39	104	0	73	41499
2026-01-06 03:15:56.35	315.44	16.32	-51.2	-72.2	3.8	7.47e-01	0	39	104	0	73	41480
2026-01-06 03:15:58.35	314.92	16.34	-51.2	-72.2	3.8	7.44e-01	0	39	104	0	73	41458
2026-01-06 03:16:00.36	314.40	16.36	-51.2	-72.2	3.8	7.45e-01	0	39	104	0	73	41534
2026-01-06 03:16:02.37	313.89	16.37	-51.2	-72.2	3.8	7.45e-01	0	39	104	0	73	41477
2026-01-06 03:16:04.38	313.37	16.39	-51.2	-72.2	3.8	7.47e-01	0	39	104	0	73	41540
2026-01-06 03:16:06.39	312.85	16.40	-51.2	-72.2	3.8	7.45e-01	0	39	104	0	73	41518
2026-01-06 03:16:08.39	312.33	16.41	-51.2	-72.2	3.8	7.44e-01	0	39	104	0	73	41528
2026-01-06 03:16:10.40	311.81	16.41	-51.2	-72.2	3.8	7.44e-01	0	39	104	0	73	41538
2026-01-06 03:16:12.41	311.29	16.42	-51.2	-72.2	3.8	7.45e-01	0	39	104	0	73	41479
2026-01-06 03:16:14.37	310.78	16.42	-51.2	-72.1	3.8	7.43e-01	0	39	104	0	73	41414
2026-01-06 03:16:16.44	310.25	16.42	-51.2	-72.2	3.8	7.44e-01	0	39	104	0	73	41461
2026-01-06 03:16:18.48	309.72	16.42	-51.2	-72.1	3.8	7.45e-01	0	39	104	0	73	41444
2026-01-06 03:16:20.49	309.20	16.41	-51.2	-72.2	3.8	7.46e-01	0	39	104	0	73	41491
2026-01-06 03:16:22.49	308.68	16.41	-51.2	-72.2	3.8	7.47e-01	0	39	104	0	73	41515
2026-01-06 03:16:24.50	308.16	16.40	-51.2	-72.1	3.8	7.46e-01	0	39	104	0	73	41430
2026-01-06 03:16:26.51	307.64	16.38	-51.2	-72.2	3.8	7.46e-01	0	39	104	0	73	41458
2026-01-06 03:16:28.52	307.12	16.37	-51.2	-72.2	3.8	7.46e-01	0	39	104	0	73	41522
2026-01-06 03:16:30.53	306.60	16.35	-51.2	-72.2	3.8	7.45e-01	0	39	104	0	73	41517
2026-01-06 03:16:32.53	306.09	16.34	-51.2	-72.2	3.8	7.46e-01	0	39	104	0	73	41470
2026-01-06 03:16:34.54	305.57	16.32	-51.2	-72.1	3.8	7.47e-01	0	39	104	0	73	41428
2026-01-06 03:16:36.55	305.05	16.29	-51.2	-72.2	3.8	7.46e-01	0	39	104	0	73	41518
2026-01-06 03:16:38.56	304.54	16.27	-51.2	-72.1	3.8	7.48e-01	0	39	104	0	73	41391
2026-01-06 03:16:40.57	304.02	16.24	-51.2	-72.2	3.8	7.49e-01	0	39	104	0	73	41487
2026-01-06 03:16:42.57	303.51	16.21	-51.2	-72.1	3.8	7.46e-01	0	39	104	0	73	41442
2026-01-06 03:16:44.58	303.00	16.18	-51.2	-72.2	3.8	7.48e-01	0	39	104	0	73	41466
2026-01-06 03:16:46.59	302.49	16.15	-51.2	-72.1	3.8	7.47e-01	0	39	104	0	73	41416
2026-01-06 03:16:48.58	301.98	16.11	-51.2	-72.2	3.8	7.45e-01	0	39	104	0	73	41457
2026-01-06 03:16:50.59	301.47	16.07	-51.2	-72.1	3.8	7.47e-01	0	39	104	0	73	41445
2026-01-06 03:16:52.60	300.97	16.03	-51.2	-72.2	3.8	7.46e-01	0	39	104	0	73	41488
2026-01-06 03:16:54.61	300.46	15.99	-51.2	-72.1	3.8	7.47e-01	0	39	104	0	73	41433
2026-01-06 03:16:56.62	299.95	15.95	-51.2	-72.2	3.8	7.47e-01	0	39	104	0	73	41480
2026-01-06 03:16:58.62	299.45	15.90	-51.2	-72.2	3.8	7.48e-01	0	39	104	0	73	41518
2026-01-06 03:17:00.63	298.95	15.85	-51.2	-72.1	3.8	7.47e-01	0	39	104	0	73	41402
2026-01-06 03:17:02.64	298.45	15.80	-51.2	-72.1	3.8	7.47e-01	0	39	104	0	73	41412
2026-01-06 03:17:04.65	297.96	15.75	-51.2	-72.2	3.8	7.48e-01	0	39	104	0	73	41485
2026-01-06 03:17:06.66	297.46	15.70	-51.2	-72.2	3.8	7.46e-01	0	39	104	0	73	41484
2026-01-06 03:17:08.67	296.97	15.64	-51.2	-72.1	3.8	7.45e-01	0	39	104	0	73	41435
2026-01-06 03:17:10.67	296.48	15.58	-51.2	-72.1	3.8	7.48e-01	0	39	104	0	73	41365
2026-01-06 03:17:12.68	295.99	15.52	-51.2	-72.1	3.8	7.45e-01	0	39	104	0	73	41310
2026-01-06 03:17:14.69	295.50	15.46	-51.2	-72.1	3.8	7.45e-01	0	39	104	0	73	41362
2026-01-06 03:17:16.70	295.01	15.40	-51.2	-72.1	3.8	7.47e-01	0	39	104	0	73	41385
2026-01-06 03:17:18.73	294.53	15.33	-51.2	-72.2	3.8	7.49e-01	0	39	104	0	73	41490
2026-01-06 03:17:20.73	294.05	15.27	-51.2	-72.1	3.8	7.45e-01	0	39	104	0	73	41379
2026-01-06 03:17:22.74	293.57	15.20	-51.2	-72.1	3.8	7.46e-01	0	39	104	0	73	41364
2026-01-06 03:17:24.75	293.09	15.13	-51.2	-72.1	3.8	7.46e-01	0	39	104	0	73	41403
2026-01-06 03:17:26.76	292.62	15.06	-51.2	-72.1	3.8	7.42e-01	0	39	104	0	73	41375
2026-01-06 03:17:28.77	292.15	14.98	-51.2	-72.1	3.8	7.44e-01	0	39	104	0	73	41395
2026-01-06 03:17:30.78	291.68	14.91	-51.2	-72.1	3.8	7.46e-01	0	39	104	0	73	41358
2026-01-06 03:17:32.78	291.21	14.83	-51.2	-72.1	3.8	7.40e-01	0	39	104	0	73	41258
2026-01-06 03:17:34.79	290.75	14.75	-51.2	-72.1	3.8	7.48e-01	0	39	104	0	73	41359
2026-01-06 03:17:36.80	290.29	14.67	-51.2	-72.1	3.8	7.49e-01	0	39	104	0	73	41356
2026-01-06 03:17:38.81	289.83	14.59	-51.2	-72.1	3.8	7.46e-01	0	39	104	0	73	41390
2026-01-06 03:17:40.82	289.37	14.51	-51.2	-72.1	3.8	7.47e-01	0	39	104	0	73	41327
2026-01-06 03:17:42.82	288.92	14.43	-51.2	-72.1	3.8	7.46e-01	0	39	104	0	73	41320
2026-01-06 03:17:44.83	288.47	14.34	-51.2	-72.1	3.8	7.44e-01	0	39	104	0	73	41317
2026-01-06 03:17:46.84	288.02	14.25	-51.2	-72.1	3.8	7.45e-01	0	39	104	0	73	41228
2026-01-06 03:17:48.91	287.57	14.16	-51.2	-72.1	3.8	7.46e-01	0	39	104	0	73	41269
2026-01-06 03:17:50.92	287.12	14.07	-51.2	-72.1	3.8	7.42e-01	0	39	104	0	73	41308
2026-01-06 03:17:52.92	286.69	13.98	-51.2	-72.1	3.8	7.46e-01	0	39	104	0	73	41301
2026-01-06 03:17:54.93	286.25	13.89	-51.2	-72.1	3.8	7.48e-01	0	39	104	0	73	41269
2026-01-06 03:17:56.94	285.82	13.80	-51.2	-72.1	3.8	7.44e-01	0	39	104	0	73	41331
2026-01-06 03:17:58.95	285.39	13.71	-51.2	-72.1	3.8	7.44e-01	0	39	104	0	73	41248
2026-01-06 03:18:00.96	284.96	13.61	-51.2	-72.1	3.8	7.48e-01	0	39	104	0	73	41257
2026-01-06 03:18:02.97	284.54	13.52	-51.2	-72.1	3.8	7.46e-01	0	39	104	0	73	41323
2026-01-06 03:18:05.13	284.08	13.41	-51.2	-72.1	3.8	7.45e-01	0	39	104	0	73	41284
2026-01-06 03:18:07.29	283.63	13.31	-51.2	-72.1	3.8	7.44e-01	0	39	104	0	73	41187
2026-01-06 03:18:09.46	283.19	13.20	-51.2	-72.1	3.8	7.46e-01	0	39	104	0	73	41214
2026-01-06 03:18:11.61	282.74	13.09	-51.2	-72.1	3.8	7.48e-01	0	39	104	0	73	41214
2026-01-06 03:18:13.84	282.29	12.98	-51.2	-72.1	3.8	7.46e-01	0	39	104	0	73	41254
2026-01-06 03:18:16.02	281.85	12.87	-51.2	-72.1	3.8	7.49e-01	0	39	104	0	73	41284
2026-01-06 03:18:18.12	281.43	12.76	-51.2	-72.1	3.8	7.48e-01	0	39	104	0	73	41250
2026-01-06 03:18:20.13	281.03	12.66	-51.2	-72.1	3.8	7.49e-01	0	39	104	0	73	41268
2026-01-06 03:18:22.14	280.64	12.55	-51.2	-72.1	3.8	7.46e-01	0	39	104	0	73	41182
2026-01-06 03:18:24.15	280.24	12.45	-51.2	-72.1	3.8	7.46e-01	0	39	104	0	73	41189
2026-01-06 03:18:26.16	279.86	12.34	-51.2	-72.1	3.8	7.45e-01	0	39	104	0	73	41287
2026-01-06 03:18:28.16	279.47	12.23	-51.2	-72.1	3.8	7.47e-01	0	39	104	0	73	41341
2026-01-06 03:18:30.17	279.09	12.13	-51.2	-72.1	3.8	7.48e-01	0	39	104	0	73	41348
2026-01-06 03:18:32.18	278.71	12.02	-51.2	-72.1	3.8	7.45e-01	0	39	104	0	73	41247
2026-01-06 03:18:34.40	278.29	11.90	-51.2	-72.1	3.8	7.48e-01	0	39	104	0	73	41302
2026-01-06 03:18:36.41	277.92	11.79	-51.2	-72.1	3.8	7.44e-01	0	39	104	0	73	41271
2026-01-06 03:18:38.42	277.54	11.68	-51.2	-72.1	3.8	7.48e-01	0	39	104	0	73	41228
2026-01-06 03:18:40.44	277.17	11.57	-51.2	-72.1	3.8	7.45e-01	0	39	104	0	73	41300
2026-01-06 03:18:42.53	276.79	11.45	-51.2	-72.1	3.8	7.48e-01	0	39	104	0	73	41252
2026-01-06 03:18:44.61	276.42	11.34	-51.2	-72.1	3.8	7.47e-01	0	39	104	0	73	41273
2026-01-06 03:18:46.69	276.05	11.22	-51.2	-72.1	3.8	7.49e-01	0	39	104	0	73	41220
2026-01-06 03:18:48.76	275.68	11.11	-51.2	-72.1	3.8	7.47e-01	0	39	104	0	73	41240
2026-01-06 03:18:50.77	275.33	10.99	-51.2	-72.1	3.8	7.42e-01	0	39	104	0	73	41251
2026-01-06 03:18:52.78	274.98	10.88	-51.2	-72.1	3.8	7.47e-01	0	39	104	0	73	41266
2026-01-06 03:18:54.78	274.63	10.77	-51.2	-72.1	3.8	7.45e-01	0	39	104	0	73	41266
2026-01-06 03:18:56.79	274.29	10.65	-51.2	-72.1	3.8	7.44e-01	0	39	104	0	73	41341
2026-01-06 03:18:58.80	273.95	10.54	-51.2	-72.1	3.8	7.46e-01	0	39	104	0	73	41329
2026-01-06 03:19:00.81	273.61	10.42	-51.2	-72.1	3.8	7.45e-01	0	39	104	0	73	41268
2026-01-06 03:19:02.82	273.27	10.31	-51.2	-72.1	3.8	7.45e-01	0	39	104	0	73	41314
2026-01-06 03:19:04.83	272.94	10.19	-51.2	-72.1	3.8	7.47e-01	0	39	104	0	73	41338
2026-01-06 03:19:06.83	272.61	10.08	-51.2	-72.1	3.8	7.48e-01	0	39	104	0	73	41351
2026-01-06 03:19:08.84	272.29	9.96	-51.2	-72.1	3.8	7.46e-01	0	39	104	0	73	41352
2026-01-06 03:19:10.85	271.96	9.85	-51.2	-72.1	3.8	7.45e-01	0	39	104	0	73	41256
2026-01-06 03:19:12.86	271.64	9.73	-51.2	-72.1	3.8	7.46e-01	0	39	104	0	73	41271
2026-01-06 03:19:14.87	271.32	9.61	-51.2	-72.1	3.8	7.51e-01	0	39	104	0	73	41388
2026-01-06 03:19:16.88	271.01	9.50	-51.2	-72.2	3.8	7.48e-01	0	39	104	0	73	41464
2026-01-06 03:19:18.88	270.70	9.38	-51.2	-72.1	3.8	7.48e-01	0	39	104	0	73	41383
2026-01-06 03:19:20.89	270.39	9.26	-51.2	-72.1	3.8	7.45e-01	0	39	104	0	73	41417
2026-01-06 03:19:22.90	270.08	9.15	-51.2	-72.1	3.8	7.43e-01	0	39	104	0	73	41361
2026-01-06 03:19:24.91	269.77	9.03	-51.2	-72.1	3.8	7.48e-01	0	39	104	0	73	41249
2026-01-06 03:19:26.92	269.47	8.91	-51.2	-72.1	3.8	7.45e-01	0	39	104	0	73	41354
2026-01-06 03:19:28.93	269.17	8.79	-51.2	-72.1	3.8	7.47e-01	0	39	104	0	73	41394
2026-01-06 03:19:30.93	268.88	8.68	-51.2	-72.1	3.8	7.42e-01	0	39	104	0	73	41321
2026-01-06 03:19:32.94	268.58	8.56	-51.2	-72.1	3.8	7.49e-01	0	39	104	0	73	41386
2026-01-06 03:19:34.95	268.29	8.44	-51.2	-72.1	3.8	7.45e-01	0	39	104	0	73	41382
2026-01-06 03:19:36.96	268.00	8.32	-51.2	-72.1	3.8	7.49e-01	0	39	104	0	73	41358
2026-01-06 03:19:38.97	267.72	8.21	-51.2	-72.1	3.8	7.48e-01	0	39	104	0	73	41421
2026-01-06 03:19:40.98	267.43	8.09	-51.2	-72.1	3.8	7.48e-01	0	39	104	0	73	41381
2026-01-06 03:19:42.98	267.15	7.97	-51.2	-72.1	3.8	7.46e-01	0	39	104	0	73	41369
2026-01-06 03:19:44.99	266.87	7.85	-51.2	-72.1	3.8	7.46e-01	0	39	104	0	73	41374
2026-01-06 03:19:47.00	266.60	7.74	-51.2	-72.1	3.8	7.45e-01	0	39	104	0	73	41410
2026-01-06 03:19:49.01	266.32	7.62	-51.2	-72.1	3.8	7.45e-01	0	39	104	0	73	41414
2026-01-06 03:19:51.02	266.05	7.50	-51.2	-72.1	3.8	7.45e-01	0	39	104	0	73	41356
2026-01-06 03:19:53.02	265.78	7.38	-51.2	-72.1	3.8	7.45e-01	0	39	104	0	73	41418
2026-01-06 03:19:55.03	265.52	7.27	-51.2	-72.1	3.8	7.47e-01	0	39	104	0	73	41438
2026-01-06 03:19:57.04	265.25	7.15	-51.2	-72.1	3.8	7.47e-01	0	39	104	0	73	41380
2026-01-06 03:19:59.05	264.99	7.03	-51.2	-72.1	3.8	7.49e-01	0	39	104	0	73	41393
202