passes_logs/2026/01/06/T1/T1__20260106_113506_FENGYUN_3D_rec.log

#Pass ID: 20260106_113506_FENGYUN 3D
#Satellite: FENGYUN 3D
#Configuration: FENGYUN 3D
#almurnet v.1.7.20251203
#Start time: 2026-01-06 11:35:07

#Version: 2.0.20230620
#Station: T1
#Location: 37.570604 lon 55.790049 lat
#TLE: 1 43010U 17072A   26005.48915933 -.00000051  00000+0 -21983-5 0  9995
#TLE: 2 43010  98.9919 337.1582 0002001 124.6377 235.4988 14.19691925421909

#Time	Az	El	Level	Level2	SNR	BER	BlckErr	Temp	State	Recorded	gain1	gain2
2026-01-06 11:35:07.23	148.55	5.04	-50.8	-62.8	3.8	8.47e-01	0	38	0	0	73	14155
2026-01-06 11:35:11.24	148.48	5.33	-50.8	-62.8	3.8	8.47e-01	0	38	104	0	73	14154
2026-01-06 11:35:15.26	148.41	5.62	-50.8	-63.0	3.8	8.46e-01	0	38	104	0	73	14526
2026-01-06 11:35:19.28	148.33	5.91	-50.7	-62.0	3.8	8.47e-01	0	38	104	0	73	12894
2026-01-06 11:35:23.30	148.25	6.21	-50.6	-61.3	3.8	8.46e-01	0	39	104	0	73	11837
2026-01-06 11:35:27.31	148.17	6.51	-50.7	-62.3	3.8	8.46e-01	0	39	104	0	73	13301
2026-01-06 11:35:31.33	148.09	6.82	-50.7	-62.1	3.8	8.47e-01	0	39	104	0	73	13021
2026-01-06 11:35:35.35	148.01	7.13	-50.3	-59.1	4.3	8.36e-01	0	39	0	0	72	9744
2026-01-06 11:35:39.37	147.92	7.44	-49.6	-56.1	5.9	5.39e-01	0	39	0	2097152	71	7369
2026-01-06 11:35:43.38	147.83	7.76	-48.0	-52.3	9.4	2.63e-02	0	39	0	24117248	68	5654
2026-01-06 11:35:47.39	147.74	8.08	-46.3	-49.5	12.1	5.21e-04	0	40	0	47185920	64	5157
2026-01-06 11:35:51.41	147.65	8.40	-46.3	-49.5	12.2	2.59e-04	0	39	0	70254592	63	5439
2026-01-06 11:35:55.42	147.55	8.73	-47.8	-52.0	9.5	1.40e-02	0	40	0	92274688	66	6126
2026-01-06 11:35:59.43	147.46	9.06	-48.7	-53.7	7.8	6.15e-01	0	40	0	113246208	69	6229
2026-01-06 11:36:03.43	147.36	9.39	-47.4	-51.4	10.1	8.30e-02	0	40	0	127926272	67	5366
2026-01-06 11:36:07.44	147.26	9.74	-43.5	-45.8	15.8	0.00e+00	0	40	0	150994944	58	4755
2026-01-06 11:36:11.44	147.15	10.08	-41.4	-43.5	17.9	0.00e+00	0	40	0	174063616	54	4585
2026-01-06 11:36:15.45	147.05	10.43	-41.2	-43.3	18.1	0.00e+00	0	40	0	196083712	54	4468
2026-01-06 11:36:19.46	146.93	10.79	-41.0	-43.1	18.3	0.00e+00	0	40	0	219152384	54	4360
2026-01-06 11:36:23.48	146.82	11.15	-40.9	-42.9	18.5	0.00e+00	0	40	0	241172480	53	4529
2026-01-06 11:36:27.49	146.71	11.51	-40.8	-42.8	18.6	0.00e+00	0	40	0	264241152	53	4451
2026-01-06 11:36:31.50	146.59	11.88	-40.6	-42.6	18.8	0.00e+00	0	40	0	286261248	53	4366
2026-01-06 11:36:35.51	146.46	12.26	-40.5	-42.4	18.9	0.00e+00	0	40	0	309329920	53	4291
2026-01-06 11:36:39.52	146.34	12.64	-40.4	-42.4	19.0	0.00e+00	0	40	0	331350016	52	4524
2026-01-06 11:36:43.53	146.21	13.03	-40.4	-42.4	19.1	0.00e+00	0	40	0	354418688	52	4508
2026-01-06 11:36:47.53	146.07	13.42	-40.1	-42.0	19.3	0.00e+00	0	40	0	376438784	52	4331
2026-01-06 11:36:51.55	145.94	13.83	-40.0	-41.9	19.4	0.00e+00	0	40	0	399507456	52	4278
2026-01-06 11:36:55.56	145.79	14.23	-39.8	-41.7	19.7	0.00e+00	0	40	0	421527552	51	4405
2026-01-06 11:36:59.57	145.65	14.65	-39.6	-41.5	19.9	0.00e+00	0	41	0	444596224	51	4305
2026-01-06 11:37:03.55	145.50	15.07	-39.5	-41.4	20.0	0.00e+00	0	41	0	466616320	50	4504
2026-01-06 11:37:07.56	145.34	15.49	-39.3	-41.1	20.2	0.00e+00	0	40	0	489684992	50	4371
2026-01-06 11:37:11.56	145.18	15.93	-39.2	-41.1	20.3	0.00e+00	0	41	0	511705088	50	4361
2026-01-06 11:37:15.58	145.02	16.37	-38.9	-40.8	20.5	0.00e+00	0	41	0	534773760	49	4456
2026-01-06 11:37:19.59	144.85	16.82	-38.9	-40.7	20.6	0.00e+00	0	41	0	556793856	49	4415
2026-01-06 11:37:23.60	144.67	17.28	-38.8	-40.6	20.6	0.00e+00	0	41	0	579862528	49	4381
2026-01-06 11:37:27.61	144.49	17.75	-38.9	-40.7	20.6	0.00e+00	0	41	0	601882624	49	4423
2026-01-06 11:37:31.62	144.30	18.23	-39.0	-40.8	20.4	0.00e+00	0	41	0	624951296	49	4484
2026-01-06 11:37:35.63	144.11	18.71	-38.9	-40.8	20.5	0.00e+00	0	41	0	646971392	49	4462
2026-01-06 11:37:39.65	143.91	19.21	-38.8	-40.7	20.6	0.00e+00	0	41	0	670040064	49	4422
2026-01-06 11:37:43.65	143.70	19.71	-38.8	-40.6	20.7	0.00e+00	0	41	0	692060160	49	4375
2026-01-06 11:37:47.66	143.49	20.23	-38.7	-40.5	20.7	0.00e+00	0	41	0	715128832	49	4332
2026-01-06 11:37:51.67	143.26	20.75	-38.6	-40.4	20.8	0.00e+00	0	41	0	737148928	49	4286
2026-01-06 11:37:55.68	143.03	21.29	-38.6	-40.4	20.9	0.00e+00	0	41	0	760217600	48	4517
2026-01-06 11:37:59.69	142.79	21.84	-38.1	-39.9	21.2	0.00e+00	0	41	0	782237696	48	4283
2026-01-06 11:38:03.70	142.54	22.40	-38.0	-39.8	21.4	0.00e+00	0	41	0	805306368	48	4205
2026-01-06 11:38:07.70	142.29	22.96	-37.9	-39.7	21.2	0.00e+00	0	41	0	827326464	47	4426
2026-01-06 11:38:11.70	142.02	23.55	-37.6	-39.3	21.5	0.00e+00	0	41	0	850395136	47	4238
2026-01-06 11:38:15.71	141.74	24.14	-37.7	-39.5	21.4	0.00e+00	0	41	0	872415232	47	4314
2026-01-06 11:38:19.72	141.45	24.75	-37.5	-39.3	21.6	0.00e+00	0	41	0	895483904	47	4203
2026-01-06 11:38:23.72	141.15	25.37	-37.3	-39.1	21.8	0.00e+00	0	41	0	917504000	46	4373
2026-01-06 11:38:27.73	140.83	26.01	-37.3	-39.0	21.8	0.00e+00	0	41	0	940572672	46	4332
2026-01-06 11:38:31.74	140.50	26.66	-37.4	-39.2	21.7	0.00e+00	0	41	0	962592768	46	4398
2026-01-06 11:38:35.75	140.16	27.32	-37.4	-39.1	21.7	0.00e+00	0	41	0	985661440	46	4391
2026-01-06 11:38:39.75	139.80	28.00	-37.1	-38.9	21.9	0.00e+00	0	41	0	1007681536	46	4269
2026-01-06 11:38:43.75	139.43	28.69	-37.3	-39.1	21.8	0.00e+00	0	41	0	1030750208	46	4357
2026-01-06 11:38:47.76	139.04	29.41	-37.4	-39.2	21.7	0.00e+00	0	41	0	1052770304	46	4419
2026-01-06 11:38:51.77	138.63	30.13	-37.3	-39.1	21.8	0.00e+00	0	41	0	1075838976	46	4350
2026-01-06 11:38:55.78	138.20	30.88	-36.9	-38.6	22.1	0.00e+00	0	41	0	1097859072	45	4388
2026-01-06 11:38:59.79	137.75	31.64	-37.0	-38.8	22.0	0.00e+00	0	41	0	1120927744	45	4480
2026-01-06 11:39:03.80	137.28	32.43	-36.9	-38.7	22.0	0.00e+00	0	41	0	1142947840	45	4412
2026-01-06 11:39:07.81	136.78	33.23	-36.7	-38.5	22.2	0.00e+00	0	41	0	1166016512	45	4295
2026-01-06 11:39:11.82	136.26	34.05	-36.8	-38.6	22.1	0.00e+00	0	41	0	1188036608	45	4374
2026-01-06 11:39:15.83	135.71	34.89	-36.9	-38.7	22.1	0.00e+00	0	41	0	1211105280	45	4405
2026-01-06 11:39:19.84	135.13	35.74	-36.8	-38.5	22.2	0.00e+00	0	41	0	1233125376	45	4328
2026-01-06 11:39:23.85	134.52	36.62	-36.8	-38.5	22.2	0.00e+00	0	41	0	1256194048	45	4338
2026-01-06 11:39:27.86	133.87	37.52	-36.7	-38.4	22.3	0.00e+00	0	41	0	1278214144	45	4290
2026-01-06 11:39:31.86	133.19	38.44	-37.0	-38.7	22.0	0.00e+00	0	41	0	1301282816	45	4434
2026-01-06 11:39:35.87	132.46	39.38	-37.1	-38.8	22.0	0.00e+00	0	41	0	1323302912	45	4475
2026-01-06 11:39:39.89	131.69	40.34	-37.1	-38.8	22.0	0.00e+00	0	41	0	1346371584	45	4484
2026-01-06 11:39:43.90	130.87	41.32	-37.2	-39.0	21.9	0.00e+00	0	41	0	1368391680	45	4562
2026-01-06 11:39:47.91	130.00	42.32	-37.3	-39.1	21.8	0.00e+00	0	41	0	1391460352	45	4601
2026-01-06 11:39:51.93	129.07	43.34	-37.3	-39.1	21.8	0.00e+00	0	41	0	1413480448	45	4603
2026-01-06 11:39:55.93	128.08	44.37	-37.4	-39.1	21.8	0.00e+00	0	41	0	1436549120	45	4640
2026-01-06 11:39:59.94	127.03	45.43	-37.4	-39.2	21.8	0.00e+00	0	41	0	1458569216	45	4655
2026-01-06 11:40:03.95	125.90	46.50	-37.4	-39.1	21.9	0.00e+00	0	41	0	1481637888	45	4635
2026-01-06 11:40:07.95	124.69	47.58	-37.8	-39.6	21.5	0.00e+00	0	41	0	1503657984	46	4604
2026-01-06 11:40:11.95	123.39	48.68	-37.5	-39.2	21.8	0.00e+00	0	41	0	1526726656	46	4414
2026-01-06 11:40:15.96	121.99	49.79	-38.1	-39.9	21.2	0.00e+00	0	41	0	1548746752	47	4529
2026-01-06 11:40:19.98	120.48	50.91	-38.3	-40.1	21.1	0.00e+00	0	41	0	1571815424	47	4616
2026-01-06 11:40:23.98	118.87	52.02	-38.3	-40.1	21.0	0.00e+00	0	41	0	1593835520	47	4611
2026-01-06 11:40:27.99	117.12	53.14	-38.5	-40.3	20.7	0.00e+00	0	41	0	1616904192	47	4728
2026-01-06 11:40:32.00	115.23	54.26	-37.9	-39.6	21.5	0.00e+00	0	41	0	1638924288	47	4385
2026-01-06 11:40:36.01	113.19	55.37	-37.6	-39.4	21.7	0.00e+00	0	41	0	1661992960	47	4255
2026-01-06 11:40:40.02	110.98	56.46	-37.9	-39.7	21.4	0.00e+00	0	41	0	1684013056	47	4393
2026-01-06 11:40:44.03	108.59	57.52	-37.9	-39.7	21.3	0.00e+00	0	41	0	1707081728	47	4433
2026-01-06 11:40:48.04	106.01	58.55	-37.8	-39.6	21.5	0.00e+00	0	41	0	1730150400	47	4386
2026-01-06 11:40:52.05	103.22	59.55	-37.7	-39.5	21.6	0.00e+00	0	41	0	1752170496	47	4308
2026-01-06 11:40:56.06	100.22	60.49	-37.5	-39.2	21.8	0.00e+00	0	41	0	1774190592	46	4422
2026-01-06 11:41:00.06	97.01	61.36	-37.6	-39.4	21.6	0.00e+00	0	41	0	1797259264	46	4510
2026-01-06 11:41:04.07	93.56	62.16	-37.3	-39.1	21.9	0.00e+00	0	41	0	1819279360	46	4347
2026-01-06 11:41:08.08	89.89	62.88	-36.7	-38.4	22.4	0.00e+00	0	41	0	1842348032	45	4279
2026-01-06 11:41:12.09	86.00	63.50	-36.5	-38.3	22.5	0.00e+00	0	41	0	1865416704	44	4445
2026-01-06 11:41:16.10	81.93	64.01	-36.5	-38.2	22.6	0.00e+00	0	41	0	1887436800	44	4441
2026-01-06 11:41:20.11	77.70	64.40	-36.6	-38.4	22.4	0.00e+00	0	41	0	1909456896	44	4506
2026-01-06 11:41:24.12	73.34	64.66	-36.5	-38.2	22.6	0.00e+00	0	41	0	1932525568	44	4403
2026-01-06 11:41:28.13	68.91	64.79	-35.5	-37.1	23.3	0.00e+00	0	41	0	1954545664	43	4132
2026-01-06 11:41:32.13	64.47	64.78	-35.6	-37.3	23.2	0.00e+00	0	41	0	1977614336	42	4464
2026-01-06 11:41:36.13	60.05	64.63	-35.8	-37.5	23.0	0.00e+00	0	41	0	2000683008	42	4553
2026-01-06 11:41:40.14	55.71	64.35	-35.9	-37.6	23.0	0.00e+00	0	41	0	2022703104	43	4366
2026-01-06 11:41:44.16	51.49	63.95	-36.4	-38.1	22.5	0.00e+00	0	41	0	2044723200	43	4641
2026-01-06 11:41:48.16	47.45	63.43	-36.5	-38.2	22.5	0.00e+00	0	41	0	2067791872	43	4672
2026-01-06 11:41:52.16	43.61	62.80	-37.2	-39.0	21.9	0.00e+00	0	41	0	2089811968	45	4579
2026-01-06 11:41:56.18	39.96	62.07	-37.0	-38.8	22.2	0.00e+00	0	41	0	2112880640	45	4455
2026-01-06 11:42:00.18	36.56	61.26	-36.9	-38.6	22.4	0.00e+00	0	41	0	2135949312	45	4349
2026-01-06 11:42:04.19	33.37	60.37	-37.0	-38.8	22.2	0.00e+00	0	41	0	2157969408	45	4449
2026-01-06 11:42:08.20	30.40	59.43	-37.2	-39.0	21.9	0.00e+00	0	41	0	2179989504	45	4549
2026-01-06 11:42:12.21	27.64	58.43	-37.9	-39.7	21.4	0.00e+00	0	41	0	2203058176	46	4676
2026-01-06 11:42:16.21	25.10	57.40	-37.6	-39.3	21.8	0.00e+00	0	41	0	2225078272	46	4489
2026-01-06 11:42:20.22	22.74	56.33	-38.0	-39.8	21.3	0.00e+00	0	41	0	2248146944	46	4745
2026-01-06 11:42:24.23	20.56	55.25	-37.7	-39.5	21.6	0.00e+00	0	41	0	2270167040	46	4563
2026-01-06 11:42:28.24	18.54	54.14	-37.8	-39.6	21.6	0.00e+00	0	42	0	2293235712	46	4615
2026-01-06 11:42:32.25	16.67	53.03	-37.7	-39.5	21.7	0.00e+00	0	41	0	2315255808	46	4552
2026-01-06 11:42:36.27	14.94	51.91	-37.9	-39.7	21.5	0.00e+00	0	41	0	2338324480	46	4699
2026-01-06 11:42:40.28	13.33	50.79	-37.5	-39.2	21.9	0.00e+00	0	41	0	2360344576	46	4406
2026-01-06 11:42:44.29	11.85	49.68	-37.4	-39.2	21.8	0.00e+00	0	41	0	2383413248	46	4403
2026-01-06 11:42:48.30	10.46	48.57	-37.1	-38.8	22.2	0.00e+00	0	41	0	2406481920	46	4209
2026-01-06 11:42:52.31	9.18	47.48	-37.1	-38.8	22.6	0.00e+00	0	41	0	2428502016	46	4203
2026-01-06 11:42:56.32	7.98	46.40	-36.9	-38.6	22.8	0.00e+00	0	41	0	2450522112	45	4354
2026-01-06 11:43:00.34	6.86	45.33	-36.7	-38.4	22.9	0.00e+00	0	41	0	2473590784	45	4253
2026-01-06 11:43:04.36	5.81	44.28	-37.0	-38.7	22.6	0.00e+00	0	41	0	2496659456	45	4420
2026-01-06 11:43:08.37	4.83	43.25	-37.0	-38.6	22.7	0.00e+00	0	41	0	2518679552	45	4384
2026-01-06 11:43:12.38	3.92	42.24	-37.0	-38.6	22.7	0.00e+00	0	41	0	2541748224	45	4384
2026-01-06 11:43:16.40	3.06	41.24	-36.6	-38.2	23.0	0.00e+00	0	41	0	2563768320	45	4182
2026-01-06 11:43:20.41	2.25	40.27	-36.6	-38.3	23.0	0.00e+00	0	41	0	2586836992	45	4209
2026-01-06 11:43:24.42	1.49	39.32	-36.9	-38.6	22.7	0.00e+00	0	42	0	2608857088	45	4377
2026-01-06 11:43:28.43	0.77	38.38	-36.9	-38.6	22.7	0.00e+00	0	42	0	2631925760	45	4369
2026-01-06 11:43:32.44	0.09	37.47	-36.7	-38.4	22.9	0.00e+00	0	41	0	2653945856	45	4262
2026-01-06 11:43:36.45	359.45	36.58	-36.6	-38.2	23.0	0.00e+00	0	42	0	2677014528	45	4180
2026-01-06 11:43:40.46	358.85	35.71	-36.8	-38.5	22.8	0.00e+00	0	41	0	2699034624	45	4316
2026-01-06 11:43:44.48	358.27	34.85	-36.7	-38.3	22.9	0.00e+00	0	41	0	2722103296	45	4213
2026-01-06 11:43:48.49	357.73	34.02	-36.9	-38.6	22.7	0.00e+00	0	41	0	2744123392	45	4350
2026-01-06 11:43:52.50	357.21	33.20	-36.9	-38.6	22.7	0.00e+00	0	42	0	2767192064	45	4371
2026-01-06 11:43:56.51	356.72	32.41	-36.9	-38.5	22.7	0.00e+00	0	42	0	2789212160	45	4322
2026-01-06 11:44:00.52	356.25	31.63	-37.0	-38.6	22.6	0.00e+00	0	42	0	2812280832	45	4381
2026-01-06 11:44:04.54	355.81	30.87	-37.0	-38.7	22.6	0.00e+00	0	42	0	2835349504	45	4409
2026-01-06 11:44:08.55	355.38	30.13	-37.2	-38.9	22.4	0.00e+00	0	41	0	2857369600	45	4544
2026-01-06 11:44:12.56	354.98	29.41	-37.4	-39.1	22.3	0.00e+00	0	41	0	2880438272	45	4607
2026-01-06 11:44:16.57	354.59	28.70	-37.1	-38.8	22.5	0.00e+00	0	42	0	2902458368	45	4456
2026-01-06 11:44:20.58	354.22	28.01	-37.0	-38.7	22.6	0.00e+00	0	42	0	2925527040	45	4406
2026-01-06 11:44:24.60	353.87	27.33	-37.2	-38.9	22.4	0.00e+00	0	42	0	2947547136	45	4502
2026-01-06 11:44:28.61	353.53	26.67	-37.4	-39.1	22.2	0.00e+00	0	42	0	2970615808	45	4640
2026-01-06 11:44:32.62	353.21	26.02	-37.4	-39.1	22.2	0.00e+00	0	42	0	2992635904	45	4623
2026-01-06 11:44:36.63	352.90	25.39	-37.3	-38.9	22.3	0.00e+00	0	41	0	3015704576	45	4544
2026-01-06 11:44:40.64	352.60	24.77	-37.6	-39.3	22.1	0.00e+00	0	42	0	3037724672	45	4724
2026-01-06 11:44:44.66	352.31	24.17	-37.9	-39.7	21.8	0.00e+00	0	42	0	3060793344	46	4668
2026-01-06 11:44:48.67	352.04	23.58	-38.0	-39.8	21.7	0.00e+00	0	42	0	3082813440	46	4709
2026-01-06 11:44:52.69	351.77	23.00	-37.9	-39.6	21.8	0.00e+00	0	42	0	3105882112	46	4647
2026-01-06 11:44:56.70	351.52	22.43	-37.7	-39.4	21.9	0.00e+00	0	42	0	3127902208	46	4533
2026-01-06 11:45:00.71	351.27	21.88	-37.8	-39.6	21.8	0.00e+00	0	42	0	3150970880	46	4602
2026-01-06 11:45:04.72	351.04	21.33	-38.1	-39.9	21.6	0.00e+00	0	41	0	3172990976	46	4765
2026-01-06 11:45:08.74	350.81	20.80	-38.3	-40.0	21.4	0.00e+00	0	42	0	3196059648	47	4598
2026-01-06 11:45:12.75	350.59	20.28	-38.4	-40.1	21.3	0.00e+00	0	42	0	3218079744	47	4623
2026-01-06 11:45:16.76	350.38	19.76	-38.5	-40.2	21.2	0.00e+00	0	42	0	3241148416	47	4695
2026-01-06 11:45:20.77	350.18	19.26	-38.6	-40.5	21.0	0.00e+00	0	42	0	3263168512	47	4819
2026-01-06 11:45:24.79	349.98	18.77	-38.8	-40.7	21.1	0.00e+00	0	42	0	3286237184	48	4669
2026-01-06 11:45:28.80	349.79	18.29	-39.0	-41.0	20.8	0.00e+00	0	42	0	3309305856	48	4821
2026-01-06 11:45:32.82	349.61	17.81	-39.1	-41.0	20.8	0.00e+00	0	42	0	3331325952	49	4587
2026-01-06 11:45:36.83	349.43	17.34	-39.3	-41.2	20.6	0.00e+00	0	41	0	3353346048	49	4670
2026-01-06 11:45:40.84	349.26	16.89	-39.4	-41.2	20.6	0.00e+00	0	42	0	3376414720	49	4688
2026-01-06 11:45:44.86	349.09	16.44	-39.5	-41.4	20.5	0.00e+00	0	42	0	3399483392	49	4770
2026-01-06 11:45:48.87	348.93	16.00	-39.6	-41.5	20.4	0.00e+00	0	41	0	3421503488	49	4842
2026-01-06 11:45:52.88	348.77	15.56	-39.7	-41.6	20.3	0.00e+00	0	42	0	3444572160	50	4643
2026-01-06 11:45:56.90	348.62	15.14	-39.8	-41.7	20.2	0.00e+00	0	42	0	3466592256	50	4687
2026-01-06 11:46:00.91	348.48	14.72	-39.8	-41.7	20.2	0.00e+00	0	42	0	3489660928	50	4676
2026-01-06 11:46:04.92	348.33	14.31	-39.8	-41.7	20.2	0.00e+00	0	41	0	3511681024	50	4679
2026-01-06 11:46:08.94	348.20	13.90	-39.9	-41.8	20.1	0.00e+00	0	42	0	3534749696	50	4730
2026-01-06 11:46:12.96	348.06	13.50	-39.9	-41.8	20.1	0.00e+00	0	42	0	3556769792	50	4719
2026-01-06 11:46:16.97	347.93	13.11	-40.2	-42.0	19.9	0.00e+00	0	42	0	3579838464	51	4586
2026-01-06 11:46:20.98	347.81	12.72	-40.3	-42.2	19.8	0.00e+00	0	42	0	3601858560	51	4655
2026-01-06 11:46:24.99	347.69	12.34	-40.4	-42.4	19.6	0.00e+00	0	42	0	3624927232	51	4785
2026-01-06 11:46:29.01	347.57	11.97	-40.4	-42.6	19.4	0.00e+00	0	42	0	3646947328	51	4905
2026-01-06 11:46:33.02	347.45	11.60	-40.4	-42.7	19.4	0.00e+00	0	42	0	3670016000	51	4929
2026-01-06 11:46:37.03	347.34	11.23	-40.6	-42.8	19.3	0.00e+00	0	42	0	3692036096	51	5002
2026-01-06 11:46:41.04	347.23	10.87	-40.5	-42.8	19.1	0.00e+00	0	42	0	3715104768	52	4759
2026-01-06 11:46:45.05	347.12	10.52	-40.5	-42.9	19.0	0.00e+00	0	42	0	3738173440	52	4813
2026-01-06 11:46:49.04	347.02	10.17	-40.8	-43.3	18.8	0.00e+00	0	42	0	3760193536	52	5004
2026-01-06 11:46:53.06	346.92	9.83	-40.7	-43.2	18.9	0.00e+00	0	42	0	3782213632	52	4944
2026-01-06 11:46:57.08	346.82	9.49	-40.7	-43.2	18.8	0.00e+00	0	42	0	3805282304	52	4981
2026-01-06 11:47:01.09	346.73	9.15	-40.9	-43.5	18.6	0.00e+00	0	42	0	3828350976	52	5105
2026-01-06 11:47:05.10	346.64	8.82	-49.5	-64.0	3.8	8.48e-01	0	42	104	3838836736	71	18229
2026-01-06 11:47:09.12	346.55	8.50	-51.6	-64.2	3.8	8.47e-01	0	42	104	3838836736	74	15655
2026-01-06 11:47:13.14	346.46	8.17	-51.7	-64.3	3.8	8.48e-01	0	42	104	3838836736	74	15920
2026-01-06 11:47:17.15	346.37	7.86	-52.0	-64.4	3.8	8.47e-01	0	42	104	3838836736	75	15133
2026-01-06 11:47:21.17	346.29	7.54	-52.2	-64.4	3.8	8.48e-01	0	42	104	3838836736	75	15129
2026-01-06 11:47:25.19	346.21	7.23	-52.3	-64.5	3.8	8.47e-01	0	42	104	3838836736	75	15232
2026-01-06 11:47:29.21	346.13	6.92	-52.1	-64.4	3.8	8.48e-01	0	42	104	3838836736	75	15212
2026-01-06 11:47:33.22	346.05	6.62	-52.0	-64.5	3.8	8.47e-01	0	42	104	3838836736	75	15275
2026-01-06 11:47:37.24	345.98	6.32	-52.0	-64.4	3.8	8.46e-01	0	42	104	3838836736	75	15216
2026-01-06 11:47:41.26	345.91	6.02	-52.0	-64.5	3.8	8.47e-01	0	42	104	3838836736	75	15242
2026-01-06 11:47:45.28	345.83	5.73	-52.0	-64.5	3.8	8.48e-01	0	42	104	3838836736	75	15274
2026-01-06 11:47:49.29	345.76	5.44	-52.0	-64.5	3.8	8.47e-01	0	42	104	3838836736	75	15322
2026-01-06 11:47:53.31	345.70	5.15	-52.0	-64.5	3.8	8.47e-01	0	42	104	3838836736	75	15301

#Closed at: 2026-01-06 11:47:57
#Recorded file [3838 MB]: D:/Data/31040_260106_143507.dat