passes_logs/2026/01/06/T1/T1__20260106_025245_FENGYUN_3G_rec.log

#Pass ID: 20260106_025245_FENGYUN 3G
#Satellite: FENGYUN 3G
#Configuration: FENGYUN 3G
#almurnet v.1.7.20251203
#Start time: 2026-01-06 02:52:47

#Version: 2.0.20230620
#Station: T1
#Location: 37.570604 lon 55.790049 lat
#TLE: 1 56232U 23055A   26005.27063903  .00035143  00000+0  55802-3 0  9994
#TLE: 2 56232  49.9940 106.1098 0004225 341.8364  18.2452 15.52952562154680

#Time	Az	El	Level	Level2	SNR	BER	BlckErr	Temp	State	Recorded	gain1	gain2
2026-01-06 02:52:47.73	245.15	4.85	-50.3	-69.5	3.8	8.48e-01	0	37	0	0	71	34212
2026-01-06 02:52:49.73	244.98	5.00	-50.2	-69.4	3.8	8.47e-01	0	37	104	0	72	32103
2026-01-06 02:52:51.74	244.82	5.16	-50.2	-69.4	3.8	8.47e-01	0	37	104	0	72	32090
2026-01-06 02:52:53.75	244.65	5.31	-50.2	-69.4	3.8	8.46e-01	0	37	104	0	72	31971
2026-01-06 02:52:55.75	244.48	5.47	-50.2	-69.4	3.8	8.46e-01	0	37	104	0	72	32078
2026-01-06 02:52:57.76	244.31	5.62	-50.2	-69.4	3.8	8.47e-01	0	37	104	0	72	32138
2026-01-06 02:52:59.77	244.13	5.78	-50.2	-69.4	3.8	8.46e-01	0	38	104	0	72	32045
2026-01-06 02:53:01.78	243.95	5.94	-50.2	-69.4	3.8	8.49e-01	0	38	104	0	72	32021
2026-01-06 02:53:03.78	243.77	6.10	-50.2	-69.4	3.8	8.46e-01	0	38	104	0	72	32080
2026-01-06 02:53:05.79	243.59	6.26	-50.2	-69.4	3.8	8.46e-01	0	38	104	0	72	32078
2026-01-06 02:53:07.80	243.40	6.42	-50.2	-69.4	3.8	8.47e-01	0	38	104	0	72	32000
2026-01-06 02:53:09.81	243.21	6.58	-50.3	-69.4	3.8	8.47e-01	0	38	104	0	72	32102
2026-01-06 02:53:11.82	243.02	6.75	-50.2	-69.4	3.8	8.47e-01	0	38	104	0	72	32045
2026-01-06 02:53:13.83	242.82	6.92	-50.3	-69.4	3.8	8.47e-01	0	38	104	0	72	32056
2026-01-06 02:53:15.84	242.62	7.08	-50.2	-69.4	3.8	8.47e-01	0	38	104	0	72	32144
2026-01-06 02:53:17.85	242.42	7.25	-50.3	-69.4	3.8	8.47e-01	0	38	104	0	72	32097
2026-01-06 02:53:19.85	242.21	7.42	-50.2	-69.4	3.8	8.46e-01	0	38	104	0	72	32017
2026-01-06 02:53:21.86	242.00	7.60	-50.2	-69.4	3.8	8.47e-01	0	38	104	0	72	32076
2026-01-06 02:53:23.87	241.79	7.77	-50.2	-69.4	3.8	8.47e-01	0	38	104	0	72	32156
2026-01-06 02:53:25.88	241.57	7.94	-50.2	-69.4	3.8	8.47e-01	0	38	104	0	72	32063
2026-01-06 02:53:27.88	241.35	8.12	-50.3	-69.4	3.8	8.47e-01	0	38	104	0	72	32070
2026-01-06 02:53:29.89	241.13	8.30	-50.2	-69.4	3.8	8.47e-01	0	38	104	0	72	32072
2026-01-06 02:53:31.90	240.90	8.48	-50.3	-69.4	3.8	8.47e-01	0	38	104	0	72	32031
2026-01-06 02:53:33.91	240.66	8.66	-50.3	-69.4	3.8	8.47e-01	0	39	104	0	72	32062
2026-01-06 02:53:35.92	240.43	8.84	-50.2	-69.4	3.8	8.47e-01	0	39	104	0	72	32038
2026-01-06 02:53:37.93	240.19	9.03	-50.3	-69.4	3.8	8.47e-01	0	39	104	0	72	32174
2026-01-06 02:53:39.93	239.94	9.21	-50.3	-69.4	3.8	8.47e-01	0	38	104	0	72	32089
2026-01-06 02:53:41.94	239.69	9.40	-50.2	-69.4	3.8	8.47e-01	0	38	104	0	72	32052
2026-01-06 02:53:43.95	239.44	9.59	-50.3	-69.4	3.8	8.47e-01	0	39	104	0	72	32097
2026-01-06 02:53:45.96	239.18	9.78	-50.3	-69.4	3.8	8.47e-01	0	39	104	0	72	32094
2026-01-06 02:53:47.97	238.92	9.98	-50.2	-69.4	3.8	8.47e-01	0	39	104	0	72	32175
2026-01-06 02:53:49.98	238.65	10.17	-50.3	-69.4	3.8	8.48e-01	0	39	104	0	72	32131
2026-01-06 02:53:51.99	238.38	10.37	-50.3	-69.4	3.8	8.46e-01	0	39	104	0	72	32093
2026-01-06 02:53:53.99	238.10	10.57	-50.3	-69.4	3.8	8.48e-01	0	39	104	0	72	32113
2026-01-06 02:53:56.00	237.82	10.77	-50.2	-69.4	3.8	8.47e-01	0	39	104	0	72	32099
2026-01-06 02:53:58.01	237.53	10.97	-50.3	-69.4	3.8	8.48e-01	0	39	104	0	72	32058
2026-01-06 02:54:00.02	237.24	11.18	-50.3	-69.4	3.8	8.47e-01	0	39	104	0	72	32131
2026-01-06 02:54:02.03	236.94	11.38	-50.3	-69.5	3.8	8.47e-01	0	39	104	0	72	32227
2026-01-06 02:54:04.03	236.64	11.59	-50.3	-69.4	3.8	8.47e-01	0	39	104	0	72	32164
2026-01-06 02:54:06.05	236.32	11.80	-50.2	-69.4	3.8	8.47e-01	0	39	104	0	72	32076
2026-01-06 02:54:08.05	236.01	12.01	-50.3	-69.4	3.8	8.47e-01	0	39	104	0	72	32063
2026-01-06 02:54:10.06	235.69	12.23	-50.3	-69.4	3.8	8.47e-01	0	39	104	0	72	32116
2026-01-06 02:54:12.07	235.36	12.45	-50.3	-69.4	3.8	8.47e-01	0	39	104	0	72	32068
2026-01-06 02:54:14.08	235.02	12.66	-50.3	-69.4	3.8	8.47e-01	0	39	104	0	72	32132
2026-01-06 02:54:16.09	234.68	12.89	-50.3	-69.4	3.8	8.48e-01	0	39	104	0	72	32035
2026-01-06 02:54:18.09	234.33	13.11	-50.3	-69.4	3.8	8.46e-01	0	39	104	0	72	32101
2026-01-06 02:54:20.10	233.97	13.33	-50.3	-69.4	3.8	8.48e-01	0	39	104	0	72	32092
2026-01-06 02:54:22.11	233.61	13.56	-50.3	-69.4	3.8	8.46e-01	0	39	104	0	72	32179
2026-01-06 02:54:24.12	233.24	13.79	-50.3	-69.4	3.8	8.47e-01	0	39	104	0	72	32120
2026-01-06 02:54:26.13	232.86	14.02	-50.3	-69.4	3.8	8.45e-01	0	39	104	0	72	32145
2026-01-06 02:54:28.13	232.48	14.26	-50.3	-69.4	3.8	8.47e-01	0	39	104	0	72	32169
2026-01-06 02:54:30.14	232.08	14.49	-50.3	-69.4	3.8	8.48e-01	0	39	104	0	72	32143
2026-01-06 02:54:32.15	231.68	14.73	-50.3	-69.5	3.8	8.46e-01	0	39	104	0	72	32183
2026-01-06 02:54:34.16	231.27	14.97	-50.3	-69.4	3.8	8.47e-01	0	39	104	0	72	32168
2026-01-06 02:54:36.17	230.85	15.21	-50.3	-69.4	3.8	8.47e-01	0	39	104	0	72	32071
2026-01-06 02:54:38.18	230.42	15.46	-50.3	-69.4	3.8	8.47e-01	0	39	104	0	72	32089
2026-01-06 02:54:40.19	229.99	15.71	-50.3	-69.4	3.8	8.47e-01	0	39	104	0	72	32091
2026-01-06 02:54:42.20	229.54	15.96	-50.3	-69.4	3.8	8.47e-01	0	39	104	0	72	32129
2026-01-06 02:54:44.20	229.09	16.21	-50.3	-69.4	3.8	8.48e-01	0	39	104	0	72	32088
2026-01-06 02:54:46.21	228.62	16.46	-50.3	-69.4	3.8	8.47e-01	0	39	104	0	72	32130
2026-01-06 02:54:48.22	228.15	16.72	-50.3	-69.4	3.8	8.47e-01	0	39	104	0	72	32080
2026-01-06 02:54:50.23	227.66	16.98	-50.3	-69.5	3.8	8.47e-01	0	39	104	0	72	32224
2026-01-06 02:54:52.23	227.17	17.24	-50.3	-69.4	3.8	8.47e-01	0	39	104	0	72	32144
2026-01-06 02:54:54.24	226.66	17.50	-50.3	-69.4	3.8	8.47e-01	0	39	104	0	72	32000
2026-01-06 02:54:56.25	226.14	17.76	-50.3	-69.4	3.8	8.48e-01	0	39	104	0	72	32148
2026-01-06 02:54:58.26	225.61	18.03	-50.3	-69.4	3.8	8.47e-01	0	39	104	0	72	32161
2026-01-06 02:55:00.27	225.07	18.30	-50.3	-69.4	3.8	8.47e-01	0	39	104	0	72	32163
2026-01-06 02:55:02.28	224.52	18.57	-50.3	-69.4	3.8	8.47e-01	0	39	104	0	72	32179
2026-01-06 02:55:04.35	223.93	18.85	-50.3	-69.4	3.8	8.46e-01	0	39	104	0	72	32125
2026-01-06 02:55:06.36	223.35	19.12	-50.3	-69.4	3.8	8.46e-01	0	39	104	0	72	32137
2026-01-06 02:55:08.37	222.76	19.40	-50.3	-69.4	3.8	8.47e-01	0	39	104	0	72	32143
2026-01-06 02:55:10.38	222.16	19.67	-50.3	-69.4	3.8	8.47e-01	0	39	104	0	72	32116
2026-01-06 02:55:12.42	221.53	19.96	-50.3	-69.4	3.8	8.47e-01	0	39	104	0	72	32137
2026-01-06 02:55:14.47	220.89	20.24	-50.3	-69.4	3.8	8.46e-01	0	39	104	0	72	32156
2026-01-06 02:55:16.56	220.21	20.53	-50.3	-69.4	3.8	8.47e-01	0	39	104	0	72	32141
2026-01-06 02:55:18.63	219.53	20.82	-50.3	-69.5	3.8	8.47e-01	0	39	104	0	72	32242
2026-01-06 02:55:20.64	218.86	21.11	-50.3	-69.4	3.8	8.46e-01	0	39	104	0	72	32174
2026-01-06 02:55:22.65	218.16	21.39	-50.3	-69.5	3.8	8.47e-01	0	39	104	0	72	32186
2026-01-06 02:55:24.66	217.46	21.67	-50.3	-69.4	3.8	8.47e-01	0	39	104	0	72	32117
2026-01-06 02:55:26.67	216.74	21.96	-50.3	-69.5	3.8	8.47e-01	0	40	104	0	72	32200
2026-01-06 02:55:28.68	216.00	22.24	-50.3	-69.4	3.8	8.47e-01	0	39	104	0	72	32067
2026-01-06 02:55:30.68	215.25	22.52	-50.3	-69.4	3.8	8.45e-01	0	40	104	0	72	32031
2026-01-06 02:55:32.69	214.48	22.80	-50.3	-69.4	3.8	8.47e-01	0	39	104	0	72	31911
2026-01-06 02:55:34.70	213.69	23.08	-50.3	-69.4	3.8	8.47e-01	0	39	104	0	72	32176
2026-01-06 02:55:36.71	212.89	23.37	-50.3	-69.4	3.8	8.47e-01	0	39	104	0	72	32058
2026-01-06 02:55:38.72	212.06	23.65	-50.3	-69.4	3.8	8.48e-01	0	39	104	0	72	32165
2026-01-06 02:55:40.73	211.23	23.92	-50.3	-69.4	3.8	8.47e-01	0	39	104	0	72	32070
2026-01-06 02:55:42.73	210.38	24.20	-50.3	-69.4	3.8	8.45e-01	0	40	104	0	72	32136
2026-01-06 02:55:44.75	209.50	24.47	-50.3	-69.4	3.8	8.47e-01	0	39	104	0	72	32126
2026-01-06 02:55:46.75	208.61	24.74	-50.3	-69.4	3.8	8.46e-01	0	39	104	0	72	32154
2026-01-06 02:55:48.76	207.70	25.01	-50.3	-69.4	3.8	8.47e-01	0	39	104	0	72	32119
2026-01-06 02:55:50.77	206.78	25.27	-50.3	-69.5	3.8	8.47e-01	0	39	104	0	72	32220
2026-01-06 02:55:52.78	205.83	25.53	-50.3	-69.4	3.8	8.47e-01	0	39	104	0	72	32126
2026-01-06 02:55:54.78	204.88	25.79	-50.3	-69.4	3.8	8.47e-01	0	40	104	0	72	32154
2026-01-06 02:55:56.79	203.90	26.04	-50.3	-69.4	3.8	8.47e-01	0	39	104	0	72	32113
2026-01-06 02:55:58.80	202.90	26.28	-50.3	-69.4	3.8	8.48e-01	0	40	104	0	72	32108
2026-01-06 02:56:00.81	201.88	26.52	-50.3	-69.4	3.8	8.46e-01	0	40	104	0	72	32148
2026-01-06 02:56:02.82	200.85	26.76	-50.3	-69.5	3.8	8.47e-01	0	40	104	0	72	32188
2026-01-06 02:56:04.83	199.80	26.98	-50.3	-69.4	3.8	8.47e-01	0	39	104	0	72	32077
2026-01-06 02:56:06.84	198.73	27.20	-50.3	-69.4	3.8	8.47e-01	0	39	104	0	72	32060
2026-01-06 02:56:08.84	197.66	27.41	-50.3	-69.4	3.8	8.47e-01	0	39	104	0	72	32150
2026-01-06 02:56:10.85	196.56	27.62	-50.3	-69.4	3.8	8.45e-01	0	39	104	0	72	32150
2026-01-06 02:56:12.86	195.44	27.81	-50.3	-69.4	3.8	8.47e-01	0	39	104	0	72	32036
2026-01-06 02:56:14.87	194.31	28.00	-50.3	-69.4	3.8	8.47e-01	0	39	104	0	72	32089
2026-01-06 02:56:16.88	193.17	28.17	-50.3	-69.4	3.8	8.45e-01	0	39	104	0	72	32048
2026-01-06 02:56:18.89	192.01	28.34	-50.3	-69.5	3.8	8.46e-01	0	39	104	0	72	32193
2026-01-06 02:56:20.90	190.84	28.49	-50.3	-69.4	3.8	8.46e-01	0	40	104	0	72	31932
2026-01-06 02:56:22.90	189.66	28.64	-50.3	-69.5	3.8	8.46e-01	0	40	104	0	72	32192
2026-01-06 02:56:24.91	188.47	28.77	-50.3	-69.4	3.8	8.47e-01	0	39	104	0	72	32114
2026-01-06 02:56:26.92	187.26	28.89	-50.3	-69.4	3.8	8.46e-01	0	40	104	0	72	32078
2026-01-06 02:56:28.93	186.04	29.00	-50.3	-69.4	3.8	8.47e-01	0	39	104	0	72	32131
2026-01-06 02:56:30.93	184.83	29.09	-50.3	-69.4	3.8	8.48e-01	0	39	104	0	72	32144
2026-01-06 02:56:32.94	183.60	29.18	-50.3	-69.5	3.8	8.48e-01	0	39	104	0	72	32196
2026-01-06 02:56:34.95	182.36	29.25	-50.3	-69.4	3.8	8.47e-01	0	39	104	0	72	32119
2026-01-06 02:56:36.96	181.11	29.30	-50.3	-69.5	3.8	8.48e-01	0	39	104	0	72	32180
2026-01-06 02:56:38.97	179.87	29.35	-50.3	-69.4	3.8	8.47e-01	0	39	104	0	72	32168
2026-01-06 02:56:40.97	178.62	29.38	-50.3	-69.5	3.8	8.48e-01	0	39	104	0	72	32197
2026-01-06 02:56:42.98	177.37	29.39	-50.3	-69.4	3.8	8.46e-01	0	39	104	0	72	32159
2026-01-06 02:56:44.99	176.11	29.39	-50.3	-69.4	3.8	8.46e-01	0	39	104	0	72	32163
2026-01-06 02:56:47.00	174.86	29.38	-50.3	-69.4	3.8	8.47e-01	0	39	104	0	72	32107
2026-01-06 02:56:49.01	173.61	29.36	-50.3	-69.4	3.8	8.47e-01	0	39	104	0	72	32168
2026-01-06 02:56:51.01	172.37	29.32	-50.3	-69.5	3.8	8.46e-01	0	39	104	0	72	32248
2026-01-06 02:56:53.02	171.12	29.26	-50.3	-69.5	3.8	8.47e-01	0	39	104	0	72	32256
2026-01-06 02:56:55.03	169.88	29.20	-50.3	-69.4	3.8	8.47e-01	0	39	104	0	72	32141
2026-01-06 02:56:57.04	168.65	29.12	-50.3	-69.5	3.8	8.47e-01	0	40	104	0	72	32254
2026-01-06 02:56:59.05	167.42	29.03	-50.3	-69.4	3.8	8.46e-01	0	39	104	0	72	32144
2026-01-06 02:57:01.06	166.21	28.92	-50.3	-69.4	3.8	8.47e-01	0	39	104	0	72	32067
2026-01-06 02:57:03.06	165.00	28.81	-50.3	-69.5	3.8	8.48e-01	0	40	104	0	72	32199
2026-01-06 02:57:05.07	163.81	28.68	-50.3	-69.5	3.8	8.46e-01	0	39	104	0	72	32192
2026-01-06 02:57:07.08	162.62	28.54	-50.3	-69.5	3.8	8.47e-01	0	39	104	0	72	32247
2026-01-06 02:57:09.09	161.45	28.38	-50.3	-69.5	3.8	8.48e-01	0	39	104	0	72	32191
2026-01-06 02:57:11.21	160.22	28.21	-50.3	-69.5	3.8	8.46e-01	0	39	104	0	72	32276
2026-01-06 02:57:13.39	158.98	28.02	-50.3	-69.5	3.8	8.47e-01	0	39	104	0	72	32236
2026-01-06 02:57:15.60	157.74	27.82	-50.3	-69.4	3.8	8.47e-01	0	40	104	0	72	32142
2026-01-06 02:57:17.61	156.62	27.63	-50.3	-69.4	3.8	8.46e-01	0	39	104	0	72	32135
2026-01-06 02:57:19.61	155.53	27.43	-50.3	-69.5	3.8	8.47e-01	0	39	104	0	72	32216
2026-01-06 02:57:21.63	154.44	27.21	-50.3	-69.5	3.8	8.45e-01	0	39	104	0	72	32183
2026-01-06 02:57:23.63	153.38	27.00	-50.3	-69.5	3.8	8.47e-01	0	39	104	0	72	32202
2026-01-06 02:57:25.64	152.33	26.77	-50.3	-69.5	3.8	8.47e-01	0	39	104	0	72	32305
2026-01-06 02:57:27.65	151.30	26.54	-50.3	-69.5	3.8	8.47e-01	0	40	104	0	72	32196
2026-01-06 02:57:29.66	150.29	26.30	-50.3	-69.5	3.8	8.49e-01	0	40	104	0	72	32221
2026-01-06 02:57:31.67	149.29	26.05	-50.3	-69.5	3.8	8.46e-01	0	39	104	0	72	32236
2026-01-06 02:57:33.68	148.31	25.80	-50.3	-69.4	3.8	8.47e-01	0	39	104	0	72	32161
2026-01-06 02:57:35.69	147.35	25.55	-50.3	-69.5	3.8	8.46e-01	0	39	104	0	72	32294
2026-01-06 02:57:37.69	146.41	25.29	-50.3	-69.5	3.8	8.46e-01	0	39	104	0	72	32216
2026-01-06 02:57:39.70	145.48	25.03	-50.3	-69.5	3.8	8.47e-01	0	39	104	0	72	32201
2026-01-06 02:57:41.71	144.58	24.76	-50.3	-69.5	3.8	8.48e-01	0	39	104	0	72	32192
2026-01-06 02:57:43.72	143.69	24.49	-50.3	-69.4	3.8	8.46e-01	0	40	104	0	72	32163
2026-01-06 02:57:45.72	142.82	24.22	-50.3	-69.4	3.8	8.47e-01	0	39	104	0	72	32133
2026-01-06 02:57:47.73	141.96	23.94	-50.3	-69.5	3.8	8.46e-01	0	39	104	0	72	32252
2026-01-06 02:57:49.74	141.12	23.67	-50.3	-69.5	3.8	8.47e-01	0	39	104	0	72	32219
2026-01-06 02:57:51.75	140.30	23.39	-50.3	-69.5	3.8	8.47e-01	0	40	104	0	72	32214
2026-01-06 02:57:53.76	139.50	23.11	-50.3	-69.5	3.8	8.47e-01	0	39	104	0	72	32192
2026-01-06 02:57:55.76	138.72	22.83	-50.3	-69.5	3.8	8.47e-01	0	39	104	0	72	32266
2026-01-06 02:57:57.77	137.95	22.55	-50.3	-69.5	3.8	8.47e-01	0	39	104	0	72	32273
2026-01-06 02:57:59.78	137.19	22.26	-50.3	-69.5	3.8	8.47e-01	0	40	104	0	72	32246
2026-01-06 02:58:01.79	136.46	21.98	-50.3	-69.4	3.8	8.48e-01	0	39	104	0	72	32135
2026-01-06 02:58:03.80	135.74	21.70	-50.3	-69.5	3.8	8.46e-01	0	40	104	0	72	32240
2026-01-06 02:58:05.81	135.03	21.42	-50.3	-69.5	3.8	8.46e-01	0	40	104	0	72	32189
2026-01-06 02:58:07.81	134.34	21.13	-50.3	-69.5	3.8	8.47e-01	0	40	104	0	72	32261
2026-01-06 02:58:09.82	133.67	20.85	-50.3	-69.5	3.8	8.48e-01	0	40	104	0	72	32202
2026-01-06 02:58:11.83	133.00	20.57	-50.3	-69.5	3.8	8.46e-01	0	40	104	0	72	32237
2026-01-06 02:58:13.84	132.36	20.29	-50.3	-69.5	3.8	8.47e-01	0	40	104	0	72	32240
2026-01-06 02:58:15.85	131.72	20.01	-50.3	-69.5	3.8	8.46e-01	0	39	104	0	72	32337
2026-01-06 02:58:17.85	131.11	19.74	-50.3	-69.5	3.8	8.48e-01	0	39	104	0	72	32270
2026-01-06 02:58:19.86	130.50	19.46	-50.3	-69.5	3.8	8.48e-01	0	40	104	0	72	32196
2026-01-06 02:58:21.87	129.91	19.19	-50.3	-69.5	3.8	8.46e-01	0	39	104	0	72	32221
2026-01-06 02:58:24.02	129.29	18.89	-50.3	-69.4	3.8	8.47e-01	0	39	104	0	72	32166
2026-01-06 02:58:26.03	128.72	18.62	-50.3	-69.5	3.8	8.47e-01	0	39	104	0	72	32216
2026-01-06 02:58:28.30	128.10	18.32	-50.3	-69.5	3.8	8.46e-01	0	40	104	0	72	32291
2026-01-06 02:58:30.40	127.53	18.04	-50.3	-69.5	3.8	8.46e-01	0	40	104	0	72	32223
2026-01-06 02:58:32.45	127.00	17.77	-50.3	-69.5	3.8	8.47e-01	0	39	104	0	72	32294
2026-01-06 02:58:34.49	126.47	17.50	-50.3	-69.5	3.8	8.47e-01	0	40	104	0	72	32260
2026-01-06 02:58:36.50	125.97	17.24	-50.3	-69.5	3.8	8.46e-01	0	39	104	0	72	32190
2026-01-06 02:58:38.51	125.47	16.98	-50.3	-69.5	3.8	8.47e-01	0	39	104	0	72	32220
2026-01-06 02:58:40.52	124.99	16.72	-50.3	-69.5	3.8	8.46e-01	0	39	104	0	72	32202
2026-01-06 02:58:42.53	124.51	16.46	-50.3	-69.5	3.8	8.47e-01	0	39	104	0	72	32290
2026-01-06 02:58:44.54	124.05	16.21	-50.3	-69.5	3.8	8.47e-01	0	39	104	0	72	32248
2026-01-06 02:58:46.55	123.60	15.96	-50.3	-69.5	3.8	8.47e-01	0	39	104	0	72	32267
2026-01-06 02:58:48.56	123.15	15.71	-50.3	-69.5	3.8	8.47e-01	0	39	104	0	72	32258
2026-01-06 02:58:50.56	122.72	15.47	-50.3	-69.4	3.8	8.47e-01	0	39	104	0	72	32095
2026-01-06 02:58:52.57	122.29	15.22	-50.3	-69.5	3.8	8.47e-01	0	40	104	0	72	32232
2026-01-06 02:58:54.58	121.87	14.98	-50.3	-69.5	3.8	8.48e-01	0	39	104	0	72	32401
2026-01-06 02:58:56.59	121.46	14.74	-50.3	-69.4	3.8	8.47e-01	0	39	104	0	72	32171
2026-01-06 02:58:58.60	121.06	14.50	-50.3	-69.5	3.8	8.47e-01	0	39	104	0	72	32295
2026-01-06 02:59:00.62	120.67	14.26	-50.3	-69.5	3.8	8.48e-01	0	39	104	0	72	32273
2026-01-06 02:59:02.63	120.28	14.03	-50.3	-69.4	3.8	8.47e-01	0	40	104	0	72	32159
2026-01-06 02:59:04.64	119.91	13.80	-50.3	-69.5	3.8	8.48e-01	0	39	104	0	72	32237
2026-01-06 02:59:06.65	119.54	13.57	-50.3	-69.5	3.8	8.48e-01	0	39	104	0	72	32237
2026-01-06 02:59:08.66	119.18	13.34	-50.3	-69.5	3.8	8.46e-01	0	39	104	0	72	32238
2026-01-06 02:59:10.66	118.82	13.12	-50.3	-69.5	3.8	8.46e-01	0	39	104	0	72	32231
2026-01-06 02:59:12.67	118.48	12.90	-50.3	-69.5	3.8	8.48e-01	0	39	104	0	72	32201
2026-01-06 02:59:14.68	118.13	12.68	-50.3	-69.4	3.8	8.48e-01	0	39	104	0	72	32176
2026-01-06 02:59:16.69	117.80	12.46	-50.3	-69.4	3.8	8.47e-01	0	39	104	0	72	32164
2026-01-06 02:59:18.70	117.47	12.24	-50.3	-69.4	3.8	8.48e-01	0	40	104	0	72	32177
2026-01-06 02:59:20.71	117.15	12.03	-50.3	-69.5	3.8	8.46e-01	0	39	104	0	72	32213
2026-01-06 02:59:22.71	116.84	11.82	-50.3	-69.5	3.8	8.46e-01	0	39	104	0	72	32228
2026-01-06 02:59:24.72	116.53	11.61	-50.3	-69.5	3.8	8.46e-01	0	39	104	0	72	32231
2026-01-06 02:59:26.73	116.22	11.40	-50.3	-69.5	3.8	8.47e-01	0	39	104	0	72	32316
2026-01-06 02:59:28.74	115.92	11.19	-50.3	-69.5	3.8	8.47e-01	0	40	104	0	72	32184
2026-01-06 02:59:30.75	115.63	10.99	-50.3	-69.5	3.8	8.46e-01	0	39	104	0	72	32282
2026-01-06 02:59:32.76	115.35	10.79	-50.3	-69.5	3.8	8.48e-01	0	40	104	0	72	32186
2026-01-06 02:59:34.76	115.06	10.59	-50.3	-69.5	3.8	8.48e-01	0	39	104	0	72	32270
2026-01-06 02:59:36.77	114.79	10.39	-50.3	-69.5	3.8	8.46e-01	0	39	104	0	72	32203
2026-01-06 02:59:38.78	114.52	10.19	-50.3	-69.5	3.8	8.47e-01	0	39	104	0	72	32260
2026-01-06 02:59:40.78	114.25	10.00	-50.3	-69.4	3.8	8.48e-01	0	39	104	0	72	32069
2026-01-06 02:59:42.79	113.99	9.80	-50.3	-69.5	3.8	8.47e-01	0	39	104	0	72	32224
2026-01-06 02:59:44.80	113.73	9.61	-50.3	-69.4	3.8	8.47e-01	0	40	104	0	72	32140
2026-01-06 02:59:46.81	113.48	9.42	-50.3	-69.5	3.8	8.48e-01	0	39	104	0	72	32182
2026-01-06 02:59:48.82	113.23	9.24	-50.3	-69.4	3.8	8.47e-01	0	40	104	0	72	32133
2026-01-06 02:59:50.83	112.99	9.05	-50.3	-69.5	3.8	8.46e-01	0	39	104	0	72	32187
2026-01-06 02:59:52.84	112.75	8.87	-50.3	-69.4	3.8	8.47e-01	0	39	104	0	72	32178
2026-01-06 02:59:54.84	112.51	8.68	-50.3	-69.4	3.8	8.47e-01	0	39	104	0	72	32112
2026-01-06 02:59:56.85	112.28	8.50	-50.3	-69.4	3.8	8.47e-01	0	39	104	0	72	32163
2026-01-06 02:59:58.86	112.05	8.32	-50.3	-69.5	3.8	8.47e-01	0	39	104	0	72	32218
2026-01-06 03:00:00.87	111.83	8.15	-50.3	-69.4	3.8	8.48e-01	0	39	104	0	72	32178
2026-01-06 03:00:02.88	111.61	7.97	-50.3	-69.4	3.8	8.46e-01	0	39	104	0	72	32151
2026-01-06 03:00:04.89	111.39	7.79	-50.3	-69.5	3.8	8.48e-01	0	39	104	0	72	32195
2026-01-06 03:00:06.90	111.18	7.62	-50.3	-69.4	3.8	8.46e-01	0	40	104	0	72	32114
2026-01-06 03:00:08.90	110.97	7.45	-50.3	-69.5	3.8	8.48e-01	0	39	104	0	72	32188
2026-01-06 03:00:10.91	110.77	7.28	-50.3	-69.4	3.8	8.47e-01	0	39	104	0	72	32082
2026-01-06 03:00:12.92	110.56	7.11	-50.3	-69.5	3.8	8.47e-01	0	39	104	0	72	32255
2026-01-06 03:00:14.93	110.36	6.94	-50.3	-69.5	3.8	8.47e-01	0	39	104	0	72	32212
2026-01-06 03:00:16.94	110.17	6.78	-50.3	-69.4	3.8	8.47e-01	0	40	104	0	72	32168
2026-01-06 03:00:18.95	109.97	6.61	-50.3	-69.4	3.8	8.47e-01	0	39	104	0	72	32148
2026-01-06 03:00:20.95	109.79	6.45	-50.3	-69.5	3.8	8.47e-01	0	39	104	0	72	32204
2026-01-06 03:00:22.96	109.60	6.29	-50.3	-69.5	3.8	8.47e-01	0	39	104	0	72	32189
2026-01-06 03:00:24.97	109.41	6.13	-50.3	-69.5	3.8	8.46e-01	0	40	104	0	72	32182
2026-01-06 03:00:26.98	109.23	5.97	-50.3	-69.4	3.8	8.47e-01	0	40	104	0	72	32174
2026-01-06 03:00:28.99	109.06	5.81	-50.3	-69.5	3.8	8.47e-01	0	39	104	0	72	32240
2026-01-06 03:00:31.00	108.88	5.65	-50.3	-69.4	3.8	8.46e-01	0	40	104	0	72	32159
2026-01-06 03:00:33.00	108.71	5.50	-50.3	-69.4	3.8	8.47e-01	0	40	104	0	72	32144
2026-01-06 03:00:35.01	108.54	5.34	-50.3	-69.5	3.8	8.47e-01	0	39	104	0	72	32202

#Closed at: 2026-01-06 03:00:37
#Recorded file [0 MB]: D:/Data/31040_260106_055247.dat