passes_logs/2026/01/06/T1/T1__20260106_110745_AQUA_rec.log

#Pass ID: 20260106_110745_AQUA
#Satellite: AQUA
#Configuration: AQUA
#almurnet v.1.7.20251203
#Start time: 2026-01-06 11:07:47

#Version: 2.0.20230620
#Station: T1
#Location: 37.570604 lon 55.790049 lat
#TLE: 1 27424U 02022A   26004.96787593  .00001598  00000+0  32997-3 0  9996
#TLE: 2 27424  98.4069 331.2279 0002002  90.2377   0.6092 14.61798176259425

#Time	Az	El	Level	Level2	SNR	BER	BlckErr	Temp	State	Recorded	gain1	gain2
2026-01-06 11:07:47.08	143.17	5.15	-53.7	-73.9	3.8	7.46e-01	0	36	0	0	79	35695
2026-01-06 11:07:50.09	143.07	5.38	-53.6	-73.0	3.8	7.42e-01	0	36	104	0	77	36207
2026-01-06 11:07:53.10	142.96	5.60	-53.6	-72.1	3.8	7.47e-01	0	36	104	0	77	32920
2026-01-06 11:07:56.11	142.85	5.83	-53.6	-70.6	4.0	7.32e-01	0	36	104	0	77	27638
2026-01-06 11:07:59.12	142.74	6.06	-53.5	-69.8	4.3	7.40e-01	0	37	104	0	77	25030
2026-01-06 11:08:02.14	142.63	6.30	-53.5	-69.5	4.3	7.39e-01	0	37	104	0	77	24382
2026-01-06 11:08:05.15	142.51	6.53	-53.6	-71.1	3.9	7.41e-01	0	37	104	0	77	29093
2026-01-06 11:08:08.16	142.39	6.77	-53.6	-73.3	3.8	7.44e-01	0	37	104	0	77	37590
2026-01-06 11:08:11.18	142.27	7.01	-53.5	-68.3	5.0	7.12e-01	0	37	0	0	77	21205
2026-01-06 11:08:14.19	142.15	7.26	-53.2	-64.2	8.4	6.44e-01	0	37	0	4718592	77	13188
2026-01-06 11:08:17.20	142.02	7.50	-52.7	-61.0	11.7	6.16e-01	0	37	0	9961472	77	9161
2026-01-06 11:08:20.21	141.90	7.75	-51.6	-57.5	15.4	6.07e-01	0	37	0	15728640	75	6823
2026-01-06 11:08:23.23	141.77	8.00	-50.2	-54.6	18.2	6.05e-01	0	37	0	21495808	72	5808
2026-01-06 11:08:26.24	141.63	8.25	-49.8	-53.8	19.1	6.05e-01	0	37	0	27262976	71	5614
2026-01-06 11:08:29.25	141.50	8.51	-50.6	-55.2	17.7	6.08e-01	0	37	0	32505856	71	6628
2026-01-06 11:08:32.27	141.36	8.77	-52.1	-58.9	14.0	6.09e-01	0	37	0	38273024	74	8503
2026-01-06 11:08:35.28	141.22	9.03	-53.2	-64.0	8.8	6.38e-01	0	38	0	44040192	76	13596
2026-01-06 11:08:38.29	141.08	9.29	-53.0	-62.1	10.2	6.20e-01	0	37	0	49807360	77	10388
2026-01-06 11:08:41.30	140.93	9.56	-50.3	-54.7	18.3	6.07e-01	0	38	0	53477376	72	5867
2026-01-06 11:08:44.31	140.78	9.83	-49.6	-53.3	19.6	6.07e-01	0	38	0	59244544	71	5311
2026-01-06 11:08:47.32	140.63	10.10	-48.4	-51.6	21.2	6.08e-01	0	38	0	64487424	68	5201
2026-01-06 11:08:50.33	140.47	10.38	-47.5	-50.4	22.3	6.06e-01	0	38	0	70254592	67	4803
2026-01-06 11:08:53.34	140.31	10.66	-47.2	-50.0	22.6	6.09e-01	0	38	0	76021760	66	4834
2026-01-06 11:08:56.35	140.15	10.94	-47.2	-49.9	22.8	6.09e-01	0	38	0	81788928	66	4779
2026-01-06 11:08:59.35	139.98	11.23	-46.9	-49.6	23.1	6.07e-01	0	38	0	87556096	65	4885
2026-01-06 11:09:02.36	139.81	11.52	-46.9	-49.5	23.1	6.04e-01	0	38	0	92798976	65	4856
2026-01-06 11:09:05.37	139.64	11.81	-46.8	-49.4	23.3	6.06e-01	0	38	0	98566144	65	4804
2026-01-06 11:09:08.38	139.46	12.11	-46.6	-49.2	23.5	6.06e-01	0	38	0	104333312	65	4678
2026-01-06 11:09:11.39	139.28	12.41	-46.7	-49.3	23.3	6.05e-01	0	38	0	110100480	65	4737
2026-01-06 11:09:14.40	139.09	12.71	-46.7	-49.4	23.3	6.05e-01	0	38	0	115343360	65	4774
2026-01-06 11:09:17.41	138.90	13.02	-46.7	-49.3	23.3	6.07e-01	0	38	0	121110528	65	4743
2026-01-06 11:09:20.41	138.71	13.33	-46.6	-49.2	23.5	6.06e-01	0	38	0	126877696	65	4679
2026-01-06 11:09:23.43	138.51	13.65	-46.6	-49.2	23.5	6.07e-01	0	38	0	132644864	65	4667
2026-01-06 11:09:26.44	138.30	13.97	-46.7	-49.3	23.3	6.06e-01	0	38	0	137887744	65	4746
2026-01-06 11:09:29.45	138.09	14.30	-46.5	-49.1	23.5	6.08e-01	0	38	0	143654912	64	4908
2026-01-06 11:09:32.46	137.88	14.63	-46.3	-48.8	23.8	6.08e-01	0	38	0	149422080	64	4730
2026-01-06 11:09:35.47	137.66	14.97	-46.3	-48.8	23.9	6.08e-01	0	38	0	155189248	64	4721
2026-01-06 11:09:38.48	137.43	15.31	-46.4	-49.0	23.7	6.06e-01	0	38	0	160432128	64	4849
2026-01-06 11:09:41.49	137.20	15.65	-46.3	-48.9	23.8	6.07e-01	0	38	0	166199296	64	4777
2026-01-06 11:09:44.50	136.96	16.00	-46.4	-49.0	23.7	6.05e-01	0	38	0	171966464	64	4845
2026-01-06 11:09:47.51	136.72	16.36	-46.4	-49.0	23.7	6.04e-01	0	38	0	177733632	64	4849
2026-01-06 11:09:50.52	136.46	16.72	-46.5	-49.0	23.7	6.07e-01	0	38	0	182976512	64	4865
2026-01-06 11:09:53.53	136.21	17.08	-46.4	-48.9	23.8	6.08e-01	0	38	0	188743680	64	4793
2026-01-06 11:09:56.54	135.94	17.45	-46.3	-48.7	24.0	6.09e-01	0	38	0	194510848	64	4698
2026-01-06 11:09:59.55	135.67	17.83	-46.2	-48.7	24.0	6.07e-01	0	38	0	200278016	64	4655
2026-01-06 11:10:02.55	135.39	18.21	-46.2	-48.7	23.9	6.05e-01	0	38	0	206045184	64	4701
2026-01-06 11:10:05.57	135.11	18.60	-46.4	-48.9	23.9	6.06e-01	0	38	0	211288064	64	4784
2026-01-06 11:10:08.58	134.81	19.00	-46.4	-48.9	23.8	6.07e-01	0	38	0	217055232	64	4782
2026-01-06 11:10:11.59	134.51	19.40	-46.3	-48.9	23.9	6.06e-01	0	38	0	222822400	64	4770
2026-01-06 11:10:14.60	134.20	19.81	-46.5	-49.1	23.7	6.08e-01	0	38	0	228589568	64	4905
2026-01-06 11:10:17.61	133.87	20.22	-46.7	-49.2	23.5	6.06e-01	0	38	0	233832448	64	4980
2026-01-06 11:10:20.62	133.54	20.64	-46.6	-49.1	23.7	6.08e-01	0	38	0	239599616	64	4919
2026-01-06 11:10:23.63	133.20	21.07	-46.8	-49.3	23.5	6.08e-01	0	38	0	245366784	64	5021
2026-01-06 11:10:26.64	132.85	21.50	-46.8	-49.4	23.5	6.06e-01	0	38	0	251133952	64	5052
2026-01-06 11:10:29.65	132.49	21.94	-46.7	-49.3	23.6	6.07e-01	0	38	0	256376832	64	5024
2026-01-06 11:10:32.66	132.12	22.39	-46.6	-49.2	23.7	6.08e-01	0	38	0	262144000	64	4963
2026-01-06 11:10:35.67	131.73	22.85	-46.7	-49.3	23.6	6.06e-01	0	38	0	267911168	64	4998
2026-01-06 11:10:38.68	131.34	23.31	-46.6	-49.2	23.6	6.08e-01	0	38	0	273678336	64	4982
2026-01-06 11:10:41.69	130.93	23.78	-46.8	-49.3	23.6	6.07e-01	0	38	0	279445504	64	5022
2026-01-06 11:10:44.69	130.50	24.26	-47.0	-49.6	23.4	6.04e-01	0	38	0	284688384	64	5170
2026-01-06 11:10:47.70	130.07	24.75	-46.8	-49.4	23.6	6.07e-01	0	38	0	290455552	64	5051
2026-01-06 11:10:50.71	129.61	25.24	-46.5	-49.0	23.9	6.07e-01	0	38	0	296222720	64	4850
2026-01-06 11:10:53.72	129.15	25.75	-46.7	-49.4	23.6	6.09e-01	0	38	0	301465600	64	5065
2026-01-06 11:10:56.73	128.66	26.26	-46.9	-49.5	23.5	6.07e-01	0	38	0	307232768	64	5148
2026-01-06 11:10:59.73	128.17	26.78	-46.6	-49.1	23.9	6.08e-01	0	38	0	312999936	64	4886
2026-01-06 11:11:02.74	127.65	27.31	-46.7	-49.2	23.8	6.06e-01	0	38	0	318767104	64	4975
2026-01-06 11:11:05.75	127.11	27.84	-46.5	-49.0	24.0	6.06e-01	0	38	0	324534272	64	4837
2026-01-06 11:11:08.76	126.56	28.39	-46.5	-49.0	24.0	6.08e-01	0	39	0	329777152	64	4854
2026-01-06 11:11:11.77	125.98	28.94	-46.3	-48.7	24.4	6.05e-01	0	38	0	335544320	64	4662
2026-01-06 11:11:14.79	125.38	29.51	-46.2	-48.6	24.4	6.07e-01	0	38	0	341311488	64	4622
2026-01-06 11:11:17.80	124.76	30.08	-46.4	-48.8	24.2	6.06e-01	0	38	0	347078656	64	4734
2026-01-06 11:11:20.80	124.12	30.66	-46.3	-48.8	24.3	6.07e-01	0	38	0	352321536	64	4706
2026-01-06 11:11:23.82	123.45	31.25	-46.2	-48.6	24.4	6.06e-01	0	38	0	358088704	64	4634
2026-01-06 11:11:26.83	122.76	31.84	-46.5	-49.0	24.0	6.05e-01	0	38	0	363855872	64	4849
2026-01-06 11:11:29.84	122.04	32.45	-46.1	-48.6	24.4	6.06e-01	0	38	0	369623040	64	4599
2026-01-06 11:11:32.85	121.29	33.06	-46.6	-49.2	24.0	6.07e-01	0	38	0	374865920	64	4936
2026-01-06 11:11:35.86	120.51	33.68	-46.7	-49.2	23.9	6.07e-01	0	38	0	380633088	64	4949
2026-01-06 11:11:38.87	119.70	34.31	-46.9	-49.4	23.8	6.06e-01	0	38	0	386400256	64	5072
2026-01-06 11:11:41.88	118.85	34.95	-47.2	-49.8	23.4	6.07e-01	0	38	0	392167424	65	5023
2026-01-06 11:11:44.89	117.97	35.59	-47.6	-50.2	23.0	6.06e-01	0	38	0	397934592	65	5271
2026-01-06 11:11:47.90	117.06	36.24	-47.3	-50.0	23.2	6.06e-01	0	38	0	403177472	65	5123
2026-01-06 11:11:50.91	116.10	36.89	-48.2	-51.0	22.3	6.07e-01	0	38	0	408944640	67	5137
2026-01-06 11:11:53.92	115.11	37.55	-47.5	-50.3	23.0	6.11e-01	0	38	0	414711808	67	4710
2026-01-06 11:11:56.93	114.07	38.21	-48.4	-51.4	22.0	6.06e-01	0	39	0	419954688	67	5341
2026-01-06 11:11:59.94	112.99	38.87	-48.1	-50.9	22.4	6.09e-01	0	38	0	425721856	67	5076
2026-01-06 11:12:02.95	111.87	39.54	-48.5	-51.5	21.8	6.07e-01	0	38	0	431489024	67	5428
2026-01-06 11:12:05.95	110.70	40.20	-47.9	-50.6	22.7	6.06e-01	0	38	0	437256192	67	4893
2026-01-06 11:12:08.97	109.47	40.87	-48.1	-50.9	22.4	6.06e-01	0	38	0	443023360	67	5090
2026-01-06 11:12:11.98	108.19	41.53	-47.7	-50.4	22.9	6.08e-01	0	38	0	448266240	67	4783
2026-01-06 11:12:14.98	106.86	42.19	-47.6	-50.3	22.9	6.07e-01	0	38	0	454033408	67	4741
2026-01-06 11:12:17.99	105.47	42.84	-47.5	-50.2	23.0	6.06e-01	0	38	0	459800576	66	4940
2026-01-06 11:12:21.00	104.03	43.48	-47.5	-50.2	23.0	6.08e-01	0	38	0	465567744	66	4978
2026-01-06 11:12:24.02	102.52	44.12	-47.7	-50.4	22.7	6.09e-01	0	38	0	470810624	66	5090
2026-01-06 11:12:27.03	100.95	44.74	-47.4	-50.0	23.2	6.06e-01	0	38	0	476577792	66	4854
2026-01-06 11:12:30.04	99.32	45.35	-47.2	-49.9	23.3	6.09e-01	0	38	0	482344960	66	4778
2026-01-06 11:12:33.05	97.62	45.94	-47.3	-49.9	23.3	6.05e-01	0	38	0	488112128	66	4781
2026-01-06 11:12:36.06	95.86	46.51	-47.6	-50.3	22.9	6.04e-01	0	38	0	493879296	66	5014
2026-01-06 11:12:39.07	94.03	47.06	-47.7	-50.6	22.7	6.06e-01	0	38	0	499122176	66	5179
2026-01-06 11:12:42.08	92.14	47.59	-47.6	-50.3	23.0	6.08e-01	0	38	0	504889344	66	5001
2026-01-06 11:12:45.09	90.19	48.08	-47.3	-50.0	23.3	6.06e-01	0	38	0	510656512	66	4816
2026-01-06 11:12:48.10	88.18	48.55	-47.4	-50.2	23.0	6.07e-01	0	39	0	516423680	66	4976
2026-01-06 11:12:51.11	86.10	48.97	-47.5	-50.4	22.9	6.10e-01	0	38	0	521666560	66	5043
2026-01-06 11:12:54.12	83.97	49.37	-47.6	-50.4	22.9	6.07e-01	0	38	0	527433728	66	5092
2026-01-06 11:12:57.13	81.78	49.72	-47.3	-49.9	23.3	6.04e-01	0	38	0	533200896	66	4812
2026-01-06 11:13:00.14	79.55	50.03	-47.3	-49.9	23.3	6.07e-01	0	38	0	538968064	66	4799
2026-01-06 11:13:03.15	77.27	50.29	-47.2	-49.7	23.4	6.07e-01	0	38	0	544210944	66	4701
2026-01-06 11:13:06.17	74.95	50.51	-47.3	-49.9	23.3	6.07e-01	0	38	0	549978112	65	5084
2026-01-06 11:13:09.18	72.61	50.68	-47.2	-49.7	23.5	6.07e-01	0	38	0	555745280	65	4968
2026-01-06 11:13:12.19	70.24	50.80	-47.1	-49.7	23.5	6.07e-01	0	38	0	561512448	65	4943
2026-01-06 11:13:15.20	67.86	50.87	-47.3	-49.9	23.2	6.07e-01	0	38	0	567279616	65	5065
2026-01-06 11:13:18.21	65.47	50.88	-47.3	-49.9	23.3	6.05e-01	0	38	0	572522496	65	5068
2026-01-06 11:13:21.22	63.09	50.85	-47.1	-49.6	23.6	6.09e-01	0	38	0	578289664	65	4901
2026-01-06 11:13:24.22	60.72	50.76	-47.2	-49.8	23.4	6.07e-01	0	39	0	584056832	65	5017
2026-01-06 11:13:27.23	58.36	50.62	-47.0	-49.5	23.7	6.08e-01	0	39	0	589824000	65	4833
2026-01-06 11:13:30.24	56.03	50.43	-46.9	-49.4	23.7	6.07e-01	0	38	0	595066880	65	4786
2026-01-06 11:13:33.25	53.73	50.19	-47.1	-49.6	23.6	6.07e-01	0	38	0	600834048	65	4914
2026-01-06 11:13:36.26	51.47	49.91	-46.9	-49.4	23.8	6.06e-01	0	38	0	606601216	65	4774
2026-01-06 11:13:39.27	49.26	49.59	-47.1	-49.6	23.6	6.06e-01	0	38	0	612368384	65	4890
2026-01-06 11:13:42.28	47.10	49.22	-47.2	-49.8	23.5	6.07e-01	0	38	0	617611264	65	5017
2026-01-06 11:13:45.29	44.99	48.81	-47.1	-49.7	23.6	6.06e-01	0	38	0	623378432	65	4931
2026-01-06 11:13:48.30	42.94	48.37	-46.9	-49.5	23.8	6.07e-01	0	38	0	629145600	65	4824
2026-01-06 11:13:51.32	40.95	47.89	-46.7	-49.2	24.0	6.08e-01	0	38	0	634912768	65	4664
2026-01-06 11:13:54.32	39.03	47.39	-46.6	-49.1	24.1	6.07e-01	0	38	0	640155648	65	4604
2026-01-06 11:13:57.34	37.17	46.86	-46.7	-49.3	23.9	6.06e-01	0	39	0	645922816	65	4706
2026-01-06 11:14:00.35	35.37	46.30	-46.6	-49.1	24.0	6.07e-01	0	39	0	651689984	65	4648
2026-01-06 11:14:03.35	33.65	45.72	-46.5	-49.1	24.1	6.08e-01	0	39	0	657457152	65	4599
2026-01-06 11:14:06.36	31.98	45.13	-46.7	-49.4	23.8	6.09e-01	0	38	0	662700032	64	5051
2026-01-06 11:14:09.38	30.37	44.51	-46.6	-49.2	23.9	6.06e-01	0	38	0	668467200	64	4983
2026-01-06 11:14:12.38	28.84	43.89	-46.7	-49.3	23.9	6.07e-01	0	39	0	674234368	64	5031
2026-01-06 11:14:15.40	27.35	43.25	-46.8	-49.4	23.8	6.07e-01	0	38	0	680001536	64	5076
2026-01-06 11:14:18.40	25.94	42.61	-47.0	-49.7	23.3	6.09e-01	0	39	0	685768704	64	5255
2026-01-06 11:14:21.41	24.58	41.95	-47.4	-50.1	23.1	6.05e-01	0	39	0	691011584	65	5191
2026-01-06 11:14:24.42	23.27	41.30	-47.5	-50.2	23.0	6.06e-01	0	38	0	696778752	65	5245
2026-01-06 11:14:27.43	22.02	40.64	-47.9	-50.7	22.6	6.08e-01	0	39	0	702545920	66	5230
2026-01-06 11:14:30.45	20.81	39.97	-47.6	-50.4	22.6	6.07e-01	0	38	0	708313088	66	5099
2026-01-06 11:14:33.45	19.66	39.31	-48.3	-51.4	21.9	6.08e-01	0	38	0	713555968	67	5360
2026-01-06 11:14:36.46	18.56	38.65	-48.0	-51.0	22.4	6.08e-01	0	38	0	719323136	67	5110
2026-01-06 11:14:39.47	17.50	37.99	-48.3	-51.3	22.0	6.08e-01	0	39	0	725090304	67	5311
2026-01-06 11:14:42.48	16.48	37.33	-48.1	-51.5	21.8	6.07e-01	0	38	0	730857472	67	5432
2026-01-06 11:14:45.50	15.51	36.68	-47.8	-51.1	22.1	6.07e-01	0	39	0	736100352	67	5187
2026-01-06 11:14:48.51	14.57	36.03	-47.4	-50.3	23.0	6.06e-01	0	38	0	741867520	66	4995
2026-01-06 11:14:51.51	13.68	35.39	-47.5	-50.2	23.0	6.07e-01	0	38	0	747634688	66	4963
2026-01-06 11:14:54.52	12.81	34.75	-47.9	-50.8	22.4	6.05e-01	0	39	0	753401856	66	5312
2026-01-06 11:14:57.53	11.99	34.12	-46.8	-49.6	23.5	6.07e-01	0	39	0	759169024	65	4874
2026-01-06 11:15:00.54	11.19	33.50	-46.6	-49.5	23.5	6.08e-01	0	39	0	764411904	65	4864
2026-01-06 11:15:03.55	10.43	32.89	-46.7	-49.3	23.7	6.05e-01	0	38	0	770179072	65	4755
2026-01-06 11:15:06.56	9.69	32.28	-46.7	-49.3	23.7	6.06e-01	0	39	0	775946240	65	4735
2026-01-06 11:15:09.57	8.98	31.68	-46.7	-49.3	23.7	6.09e-01	0	38	0	781189120	65	4729
2026-01-06 11:15:12.58	8.30	31.09	-46.8	-49.4	23.6	6.06e-01	0	39	0	786956288	65	4797
2026-01-06 11:15:15.59	7.65	30.51	-46.3	-48.9	23.8	6.06e-01	0	39	0	792723456	64	4810
2026-01-06 11:15:18.60	7.01	29.93	-46.4	-49.0	23.3	6.06e-01	0	39	0	798490624	64	4849
2026-01-06 11:15:21.61	6.41	29.37	-46.4	-48.9	23.9	6.09e-01	0	38	0	804257792	64	4794
2026-01-06 11:15:24.62	5.82	28.81	-46.5	-49.1	23.9	6.09e-01	0	38	0	809500672	64	4876
2026-01-06 11:15:27.63	5.25	28.26	-46.5	-49.0	24.0	6.07e-01	0	38	0	815267840	64	4816
2026-01-06 11:15:30.64	4.71	27.72	-46.8	-49.4	23.6	6.07e-01	0	39	0	821035008	64	5071
2026-01-06 11:15:33.65	4.18	27.19	-46.7	-49.2	23.9	6.09e-01	0	39	0	826802176	64	4940
2026-01-06 11:15:36.65	3.68	26.67	-46.7	-49.4	23.6	6.08e-01	0	38	0	832045056	64	5079
2026-01-06 11:15:39.67	3.18	26.15	-46.9	-49.7	23.4	6.04e-01	0	39	0	837812224	64	5227
2026-01-06 11:15:42.67	2.71	25.65	-46.9	-49.6	23.5	6.03e-01	0	39	0	843579392	64	5179
2026-01-06 11:15:45.69	2.25	25.15	-46.7	-49.6	23.5	6.04e-01	0	39	0	849346560	64	5163
2026-01-06 11:15:48.70	1.81	24.66	-46.9	-49.9	23.2	6.01e-01	0	38	0	854589440	64	5378
2026-01-06 11:15:51.71	1.38	24.17	-47.0	-49.8	23.3	6.04e-01	0	39	0	860356608	64	5301
2026-01-06 11:15:54.72	0.96	23.70	-46.8	-49.4	23.6	6.04e-01	0	38	0	866123776	64	5092
2026-01-06 11:15:57.73	0.56	23.23	-46.8	-49.7	23.4	6.05e-01	0	39	0	871890944	64	5251
2026-01-06 11:16:00.74	0.17	22.78	-46.7	-49.7	23.4	6.02e-01	0	39	0	877658112	64	5269
2026-01-06 11:16:03.75	359.79	22.32	-47.1	-50.0	23.2	6.01e-01	0	38	0	882900992	64	5403
2026-01-06 11:16:06.76	359.42	21.88	-47.3	-50.0	23.2	6.01e-01	0	39	0	888668160	65	5117
2026-01-06 11:16:09.77	359.07	21.44	-46.8	-49.7	23.4	6.03e-01	0	38	0	894435328	65	4981
2026-01-06 11:16:12.78	358.72	21.01	-47.0	-49.9	23.2	6.02e-01	0	38	0	900202496	65	5067
2026-01-06 11:16:15.80	358.39	20.59	-46.9	-49.7	23.4	6.04e-01	0	39	0	905445376	65	4939
2026-01-06 11:16:18.81	358.06	20.17	-46.7	-49.6	23.5	6.03e-01	0	39	0	911212544	65	4883
2026-01-06 11:16:21.82	357.75	19.76	-46.9	-49.6	23.4	6.04e-01	0	38	0	916979712	65	4898
2026-01-06 11:16:24.83	357.44	19.36	-47.0	-49.8	23.3	6.04e-01	0	38	0	922746880	65	5040
2026-01-06 11:16:27.84	357.14	18.96	-46.5	-49.8	23.2	6.03e-01	0	39	0	927989760	65	5036
2026-01-06 11:16:30.85	356.85	18.57	-46.5	-49.8	23.2	6.05e-01	0	38	0	933756928	64	5287
2026-01-06 11:16:33.86	356.57	18.19	-46.5	-49.6	23.3	6.02e-01	0	39	0	939524096	64	5203
2026-01-06 11:16:36.87	356.30	17.81	-46.3	-49.5	23.5	6.02e-01	0	38	0	945291264	64	5108
2026-01-06 11:16:39.88	356.03	17.43	-46.1	-49.5	23.5	6.04e-01	0	39	0	951058432	64	5115
2026-01-06 11:16:42.89	355.77	17.07	-46.5	-49.5	23.4	6.01e-01	0	38	0	956301312	64	5110
2026-01-06 11:16:45.91	355.52	16.70	-46.8	-49.5	23.4	6.03e-01	0	38	0	962068480	64	5130
2026-01-06 11:16:48.90	355.28	16.35	-46.8	-49.4	23.4	6.03e-01	0	39	0	967835648	64	5087
2026-01-06 11:16:51.91	355.04	16.00	-46.7	-49.6	23.3	6.01e-01	0	38	0	973602816	64	5187
2026-01-06 11:16:54.92	354.80	15.65	-46.7	-49.7	23.3	6.03e-01	0	39	0	978845696	64	5235
2026-01-06 11:16:57.93	354.58	15.31	-47.0	-49.8	23.1	6.05e-01	0	38	0	984612864	64	5334
2026-01-06 11:17:00.94	354.36	14.97	-47.0	-49.8	23.0	6.02e-01	0	39	0	990380032	64	5332
2026-01-06 11:17:03.95	354.14	14.64	-46.7	-49.7	23.2	6.03e-01	0	39	0	996147200	64	5231
2026-01-06 11:17:06.96	353.93	14.31	-46.9	-49.7	23.2	6.02e-01	0	39	0	1001390080	64	5220
2026-01-06 11:17:09.97	353.72	13.99	-47.0	-49.8	23.1	6.04e-01	0	39	0	1007157248	64	5293
2026-01-06 11:17:12.99	353.52	13.67	-46.9	-49.7	23.1	5.99e-01	0	39	0	1012924416	64	5248
2026-01-06 11:17:16.00	353.33	13.35	-46.2	-49.8	22.9	6.05e-01	0	39	0	1018691584	64	5329
2026-01-06 11:17:19.01	353.14	13.04	-45.6	-49.8	23.0	6.05e-01	0	39	0	1023934464	63	5628
2026-01-06 11:17:22.02	352.95	12.73	-46.0	-50.1	22.9	6.03e-01	0	39	0	1029701632	63	5793
2026-01-06 11:17:25.03	352.77	12.43	-46.2	-50.0	22.9	6.05e-01	0	39	0	1035468800	63	5749
2026-01-06 11:17:28.05	352.59	12.13	-46.4	-50.0	23.0	6.03e-01	0	39	0	1041235968	63	5741
2026-01-06 11:17:31.06	352.41	11.84	-46.5	-50.2	22.8	6.06e-01	0	39	0	1046478848	63	5870
2026-01-06 11:17:34.07	352.24	11.55	-46.2	-50.3	22.6	6.03e-01	0	39	0	1052246016	63	5967
2026-01-06 11:17:37.08	352.08	11.26	-45.9	-50.5	22.4	6.03e-01	0	39	0	1058013184	63	6128
2026-01-06 11:17:40.09	351.92	10.97	-45.6	-50.5	22.4	6.04e-01	0	39	0	1063780352	63	6105
2026-01-06 11:17:43.09	351.76	10.69	-45.5	-50.5	22.3	6.03e-01	0	39	0	1069547520	63	6120
2026-01-06 11:17:46.10	351.60	10.42	-45.7	-50.4	22.5	6.02e-01	0	39	0	1074790400	63	6026
2026-01-06 11:17:49.11	351.45	10.14	-46.4	-50.5	22.4	6.03e-01	0	39	0	1080557568	63	6077
2026-01-06 11:17:52.12	351.30	9.87	-46.7	-50.6	22.3	6.06e-01	0	39	0	1086324736	64	5802
2026-01-06 11:17:55.13	351.16	9.60	-46.9	-50.7	22.1	6.06e-01	0	39	0	1092091904	64	5874
2026-01-06 11:17:58.14	351.01	9.34	-47.1	-50.7	22.1	6.03e-01	0	39	0	1097334784	64	5907
2026-01-06 11:18:01.15	350.87	9.07	-47.4	-50.8	22.0	6.03e-01	0	39	0	1103101952	65	5655
2026-01-06 11:18:04.16	350.74	8.81	-53.4	-75.5	4.0	7.37e-01	0	38	104	1106771968	77	48592
2026-01-06 11:18:07.17	350.60	8.56	-54.0	-74.6	3.8	7.46e-01	0	39	104	1106771968	78	41453
2026-01-06 11:18:10.19	350.47	8.30	-54.2	-74.7	3.8	7.43e-01	0	39	104	1106771968	80	37358
2026-01-06 11:18:13.20	350.34	8.05	-54.3	-74.9	3.8	7.44e-01	0	39	104	1106771968	79	40201
2026-01-06 11:18:16.21	350.22	7.80	-54.0	-74.8	3.8	7.48e-01	0	39	104	1106771968	80	37795
2026-01-06 11:18:19.23	350.09	7.56	-54.8	-74.9	3.8	7.47e-01	0	39	104	1106771968	80	37965
2026-01-06 11:18:22.24	349.97	7.31	-54.5	-74.8	3.8	7.48e-01	0	39	104	1106771968	80	37775
2026-01-06 11:18:25.25	349.85	7.07	-54.9	-74.9	3.8	7.47e-01	0	39	104	1106771968	80	37922
2026-01-06 11:18:28.27	349.74	6.83	-54.7	-74.8	3.8	7.46e-01	0	39	104	1106771968	80	37733
2026-01-06 11:18:31.28	349.62	6.60	-54.1	-74.8	3.8	7.46e-01	0	39	104	1106771968	80	37758
2026-01-06 11:18:34.29	349.51	6.36	-53.9	-74.9	3.8	7.48e-01	0	39	104	1106771968	79	40092
2026-01-06 11:18:37.31	349.40	6.13	-53.9	-74.8	3.8	7.44e-01	0	39	104	1106771968	79	39996
2026-01-06 11:18:40.32	349.29	5.90	-53.9	-74.8	3.8	7.47e-01	0	39	104	1106771968	79	39951
2026-01-06 11:18:43.33	349.19	5.67	-53.9	-74.8	3.8	7.46e-01	0	39	104	1106771968	79	39898
2026-01-06 11:18:46.34	349.09	5.45	-53.9	-74.8	3.8	7.48e-01	0	39	104	1106771968	79	39976
2026-01-06 11:18:49.36	348.98	5.22	-53.9	-74.8	3.8	7.47e-01	0	39	104	1106771968	79	39989
2026-01-06 11:18:52.37	348.88	5.00	-53.9	-74.8	3.8	7.47e-01	0	39	104	1106771968	79	39945

#Closed at: 2026-01-06 11:18:53
#Recorded file [1106 MB]: D:/Data/31040_260106_140747.dat