passes_logs/2026/01/06/T1/T1__20260106_065241_FENGYUN_3E_rec.log

#Pass ID: 20260106_065241_FENGYUN 3E
#Satellite: FENGYUN 3E
#Configuration: FENGYUN 3E
#almurnet v.1.7.20251203
#Start time: 2026-01-06 06:52:40

#Version: 2.0.20230620
#Station: T1
#Location: 37.570604 lon 55.790049 lat
#TLE: 1 49008U 21062A   26005.56299987  .00000339  00000+0  18069-3 0  9991
#TLE: 2 49008  98.7472  10.8019 0001562 158.0357 202.0886 14.19884907233502

#Time	Az	El	Level	Level2	SNR	BER	BlckErr	Temp	State	Recorded	gain1	gain2
2026-01-06 06:52:40.72	358.68	4.99	-51.6	-63.1	3.8	8.47e-01	0	37	0	0	73	13626
2026-01-06 06:52:42.72	358.43	5.06	-51.1	-63.1	3.8	8.46e-01	0	37	104	0	72	14431
2026-01-06 06:52:44.71	358.17	5.14	-51.2	-63.1	3.8	8.47e-01	0	37	104	0	72	14384
2026-01-06 06:52:46.71	357.92	5.22	-51.2	-63.1	3.8	8.47e-01	0	37	104	0	72	14496
2026-01-06 06:52:48.71	357.66	5.29	-51.2	-63.2	3.8	8.47e-01	0	38	104	0	72	14543
2026-01-06 06:52:50.71	357.40	5.37	-51.2	-63.1	3.8	8.47e-01	0	38	104	0	72	14495
2026-01-06 06:52:52.70	357.14	5.44	-51.3	-63.2	3.8	8.47e-01	0	37	104	0	72	14638
2026-01-06 06:52:54.69	356.88	5.52	-51.3	-63.2	3.8	8.48e-01	0	38	104	0	72	14577
2026-01-06 06:52:56.68	356.62	5.59	-51.2	-63.2	3.8	8.47e-01	0	38	104	0	72	14588
2026-01-06 06:52:58.68	356.35	5.66	-51.3	-63.2	3.8	8.46e-01	0	38	104	0	72	14588
2026-01-06 06:53:00.67	356.09	5.74	-51.3	-63.2	3.8	8.47e-01	0	38	104	0	72	14685
2026-01-06 06:53:02.66	355.82	5.81	-51.3	-63.3	3.8	8.46e-01	0	38	104	0	72	14736
2026-01-06 06:53:04.66	355.55	5.88	-51.3	-63.2	3.8	8.47e-01	0	38	104	0	72	14546
2026-01-06 06:53:06.66	355.28	5.96	-51.3	-63.2	3.8	8.45e-01	0	38	104	0	72	14645
2026-01-06 06:53:08.65	355.01	6.03	-51.3	-63.2	3.8	8.47e-01	0	38	104	0	72	14582
2026-01-06 06:53:10.65	354.73	6.10	-51.3	-63.2	3.8	8.47e-01	0	38	104	0	72	14632
2026-01-06 06:53:12.64	354.46	6.17	-51.2	-63.2	3.8	8.46e-01	0	38	104	0	72	14543
2026-01-06 06:53:14.64	354.18	6.24	-51.3	-63.1	3.8	8.46e-01	0	38	104	0	72	14524
2026-01-06 06:53:16.63	353.91	6.31	-51.2	-63.1	3.8	8.47e-01	0	38	104	0	72	14539
2026-01-06 06:53:18.63	353.63	6.38	-51.3	-63.1	3.8	8.46e-01	0	39	104	0	72	14536
2026-01-06 06:53:20.62	353.35	6.45	-51.3	-63.1	3.8	8.47e-01	0	39	104	0	72	14493
2026-01-06 06:53:22.62	353.07	6.52	-51.3	-63.1	3.8	8.47e-01	0	39	104	0	72	14404
2026-01-06 06:53:24.61	352.79	6.59	-51.2	-63.2	3.8	8.46e-01	0	38	104	0	72	14571
2026-01-06 06:53:26.61	352.50	6.66	-51.2	-63.1	3.8	8.46e-01	0	39	104	0	72	14486
2026-01-06 06:53:28.61	352.21	6.72	-51.3	-63.2	3.8	8.46e-01	0	39	104	0	72	14548
2026-01-06 06:53:30.61	351.93	6.79	-51.3	-63.1	3.8	8.46e-01	0	39	104	0	72	14474
2026-01-06 06:53:32.60	351.64	6.86	-51.2	-63.1	3.8	8.46e-01	0	39	104	0	72	14474
2026-01-06 06:53:34.60	351.35	6.92	-51.2	-63.1	3.8	8.45e-01	0	39	104	0	72	14435
2026-01-06 06:53:36.59	351.06	6.99	-51.2	-63.0	3.8	8.47e-01	0	39	104	0	72	14363
2026-01-06 06:53:38.59	350.77	7.05	-51.2	-63.1	3.8	8.47e-01	0	39	104	0	72	14453
2026-01-06 06:53:40.58	350.47	7.12	-51.2	-63.1	3.8	8.46e-01	0	39	104	0	72	14474
2026-01-06 06:53:42.58	350.18	7.18	-51.1	-63.1	3.8	8.48e-01	0	39	104	0	72	14419
2026-01-06 06:53:44.57	349.88	7.25	-51.2	-63.1	3.8	8.47e-01	0	39	104	0	72	14393
2026-01-06 06:53:46.57	349.59	7.31	-51.2	-63.0	3.8	8.47e-01	0	39	104	0	72	14372
2026-01-06 06:53:48.56	349.29	7.37	-51.2	-63.1	3.8	8.46e-01	0	39	104	0	72	14419
2026-01-06 06:53:50.56	348.99	7.43	-51.1	-63.0	3.8	8.49e-01	0	39	104	0	72	14300
2026-01-06 06:53:52.56	348.69	7.49	-51.1	-63.0	3.8	8.47e-01	0	39	104	0	72	14307
2026-01-06 06:53:54.55	348.38	7.55	-51.1	-63.0	3.8	8.47e-01	0	39	104	0	72	14310
2026-01-06 06:53:56.54	348.08	7.61	-51.2	-63.0	3.8	8.46e-01	0	39	104	0	72	14323
2026-01-06 06:53:58.54	347.78	7.67	-51.1	-63.0	3.8	8.46e-01	0	39	104	0	72	14356
2026-01-06 06:54:00.53	347.47	7.73	-51.1	-63.0	3.8	8.47e-01	0	39	104	0	72	14349
2026-01-06 06:54:02.53	347.16	7.79	-51.2	-63.0	3.8	8.48e-01	0	39	104	0	72	14279
2026-01-06 06:54:04.52	346.85	7.85	-51.1	-63.1	3.8	8.46e-01	0	39	104	0	72	14425
2026-01-06 06:54:06.52	346.54	7.90	-51.1	-63.0	3.8	8.47e-01	0	39	104	0	72	14302
2026-01-06 06:54:08.52	346.23	7.96	-51.1	-63.0	3.8	8.46e-01	0	39	104	0	72	14339
2026-01-06 06:54:10.51	345.92	8.02	-51.1	-63.0	3.8	8.47e-01	0	39	104	0	72	14336
2026-01-06 06:54:12.51	345.60	8.07	-51.2	-63.0	3.8	8.47e-01	0	39	104	0	72	14261
2026-01-06 06:54:14.50	345.29	8.12	-51.1	-63.0	3.8	8.47e-01	0	40	104	0	72	14342
2026-01-06 06:54:16.49	344.97	8.18	-51.1	-63.0	3.8	8.46e-01	0	39	104	0	72	14306
2026-01-06 06:54:18.48	344.66	8.23	-51.2	-63.1	3.8	8.47e-01	0	39	104	0	72	14374
2026-01-06 06:54:20.48	344.34	8.28	-51.1	-62.9	3.8	8.47e-01	0	40	104	0	72	14155
2026-01-06 06:54:22.48	344.02	8.33	-51.1	-62.8	3.8	8.47e-01	0	39	104	0	72	13903
2026-01-06 06:54:24.47	343.70	8.38	-51.1	-62.8	3.8	8.48e-01	0	40	104	0	72	13961
2026-01-06 06:54:26.47	343.38	8.43	-51.1	-62.8	3.8	8.47e-01	0	39	104	0	72	14031
2026-01-06 06:54:28.46	343.05	8.48	-51.1	-62.9	3.8	8.47e-01	0	40	104	0	72	14090
2026-01-06 06:54:30.46	342.73	8.53	-51.2	-63.0	3.8	8.47e-01	0	39	104	0	72	14279
2026-01-06 06:54:32.46	342.40	8.58	-51.2	-63.0	3.8	8.46e-01	0	40	104	0	72	14241
2026-01-06 06:54:34.45	342.08	8.62	-51.1	-63.1	3.8	8.47e-01	0	40	104	0	72	14394
2026-01-06 06:54:36.45	341.75	8.67	-51.1	-62.6	3.8	8.48e-01	0	40	104	0	72	13644
2026-01-06 06:54:38.45	341.42	8.71	-51.0	-62.1	3.8	8.46e-01	0	40	104	0	72	12833
2026-01-06 06:54:40.44	341.09	8.76	-51.1	-62.9	3.8	8.46e-01	0	40	104	0	72	14167
2026-01-06 06:54:42.44	340.76	8.80	-51.0	-62.1	3.8	8.47e-01	0	40	104	0	72	12841
2026-01-06 06:54:44.43	340.43	8.84	-50.9	-60.4	3.9	8.45e-01	0	40	104	0	72	10638
2026-01-06 06:54:46.43	340.10	8.88	-50.8	-60.2	3.9	8.43e-01	0	40	104	0	72	10330
2026-01-06 06:54:48.43	339.76	8.92	-50.7	-59.3	4.2	8.37e-01	0	40	0	0	72	9346
2026-01-06 06:54:50.42	339.43	8.96	-50.4	-57.3	5.2	7.80e-01	0	40	0	0	71	7863
2026-01-06 06:54:52.42	339.09	9.00	-48.9	-52.9	8.9	5.45e-02	0	40	0	10485760	68	5630
2026-01-06 06:54:54.42	338.76	9.04	-48.7	-53.2	8.5	1.66e-02	0	40	0	25165824	66	6550
2026-01-06 06:54:56.41	338.42	9.08	-48.5	-52.7	9.0	1.65e-02	0	40	0	35651584	66	6161
2026-01-06 06:54:58.41	338.08	9.11	-44.3	-46.0	15.9	0.00e+00	0	40	0	50331648	59	4244
2026-01-06 06:55:00.40	337.74	9.15	-43.0	-44.4	17.4	0.00e+00	0	40	0	65011712	56	4199
2026-01-06 06:55:02.40	337.40	9.18	-42.2	-43.5	18.1	0.00e+00	0	40	0	79691776	55	4027
2026-01-06 06:55:04.40	337.06	9.22	-42.1	-43.3	18.3	0.00e+00	0	40	0	93323264	55	3945
2026-01-06 06:55:06.39	336.72	9.25	-42.1	-43.4	18.3	0.00e+00	0	40	0	108003328	54	4194
2026-01-06 06:55:08.39	336.38	9.28	-42.0	-43.3	18.4	0.00e+00	0	40	0	122683392	54	4146
2026-01-06 06:55:10.39	336.03	9.31	-42.1	-43.5	18.2	0.00e+00	0	40	0	137363456	54	4261
2026-01-06 06:55:12.38	335.69	9.34	-42.3	-43.6	18.1	0.00e+00	0	40	0	150994944	54	4303
2026-01-06 06:55:14.38	335.35	9.37	-42.5	-43.8	17.9	0.00e+00	0	40	0	165675008	54	4422
2026-01-06 06:55:16.38	335.00	9.40	-42.5	-43.8	17.9	0.00e+00	0	40	0	180355072	54	4414
2026-01-06 06:55:18.37	334.66	9.43	-42.6	-43.8	17.9	0.00e+00	0	40	0	193986560	54	4427
2026-01-06 06:55:20.37	334.31	9.45	-42.6	-43.8	17.9	0.00e+00	0	40	0	208666624	54	4407
2026-01-06 06:55:22.36	333.96	9.48	-42.6	-43.8	17.9	0.00e+00	0	40	0	223346688	54	4417
2026-01-06 06:55:24.36	333.61	9.50	-42.4	-43.6	18.2	0.00e+00	0	40	0	238026752	54	4304
2026-01-06 06:55:26.36	333.27	9.52	-42.5	-43.7	18.0	0.00e+00	0	40	0	251658240	54	4344
2026-01-06 06:55:28.35	332.92	9.55	-42.6	-43.7	18.0	0.00e+00	0	40	0	266338304	54	4386
2026-01-06 06:55:30.35	332.57	9.57	-42.4	-43.5	18.2	0.00e+00	0	40	0	281018368	54	4279
2026-01-06 06:55:32.35	332.22	9.59	-42.4	-43.6	18.1	0.00e+00	0	40	0	295698432	54	4315
2026-01-06 06:55:34.35	331.87	9.61	-42.3	-43.5	18.2	0.00e+00	0	40	0	309329920	54	4272
2026-01-06 06:55:36.34	331.52	9.62	-42.1	-43.2	18.5	0.00e+00	0	39	0	324009984	54	4144
2026-01-06 06:55:38.33	331.17	9.64	-42.1	-43.2	18.6	0.00e+00	0	40	0	338690048	54	4117
2026-01-06 06:55:40.33	330.81	9.66	-42.0	-43.1	18.7	0.00e+00	0	40	0	353370112	54	4065
2026-01-06 06:55:42.32	330.46	9.67	-42.1	-43.2	18.6	0.00e+00	0	40	0	367001600	54	4139
2026-01-06 06:55:44.31	330.11	9.69	-42.2	-43.3	18.5	0.00e+00	0	40	0	381681664	54	4174
2026-01-06 06:55:46.31	329.76	9.70	-42.3	-43.5	18.3	0.00e+00	0	40	0	396361728	54	4253
2026-01-06 06:55:48.30	329.41	9.71	-42.4	-43.6	18.3	0.00e+00	0	40	0	411041792	54	4292
2026-01-06 06:55:50.31	329.05	9.72	-42.5	-43.6	18.2	0.00e+00	0	40	0	424673280	54	4323
2026-01-06 06:55:52.31	328.70	9.73	-42.5	-43.7	18.2	0.00e+00	0	40	0	439353344	54	4348
2026-01-06 06:55:54.31	328.34	9.74	-42.4	-43.5	18.3	0.00e+00	0	40	0	454033408	54	4278
2026-01-06 06:55:56.31	327.99	9.75	-42.2	-43.4	18.5	0.00e+00	0	40	0	468713472	54	4212
2026-01-06 06:55:58.31	327.63	9.75	-42.2	-43.3	18.5	0.00e+00	0	40	0	482344960	54	4179
2026-01-06 06:56:00.30	327.28	9.76	-42.2	-43.4	18.5	0.00e+00	0	40	0	497025024	54	4197
2026-01-06 06:56:02.31	326.92	9.77	-42.4	-43.5	18.4	0.00e+00	0	40	0	511705088	54	4267
2026-01-06 06:56:04.31	326.57	9.77	-42.4	-43.6	18.3	0.00e+00	0	40	0	526385152	54	4300
2026-01-06 06:56:06.31	326.21	9.77	-42.4	-43.6	18.3	0.00e+00	0	40	0	540016640	54	4304
2026-01-06 06:56:08.30	325.86	9.77	-42.4	-43.7	18.2	0.00e+00	0	40	0	554696704	54	4363
2026-01-06 06:56:10.29	325.51	9.77	-42.2	-43.5	18.5	0.00e+00	0	40	0	569376768	54	4246
2026-01-06 06:56:12.30	325.15	9.77	-42.2	-43.4	18.5	0.00e+00	0	40	0	584056832	54	4227
2026-01-06 06:56:14.30	324.79	9.77	-42.3	-43.5	18.5	0.00e+00	0	40	0	598736896	54	4278
2026-01-06 06:56:16.29	324.44	9.77	-42.3	-43.5	18.4	0.00e+00	0	40	0	612368384	54	4290
2026-01-06 06:56:18.29	324.08	9.76	-42.4	-43.6	18.4	0.00e+00	0	40	0	627048448	54	4320
2026-01-06 06:56:20.30	323.73	9.76	-42.4	-43.6	18.4	0.00e+00	0	40	0	641728512	54	4307
2026-01-06 06:56:22.30	323.37	9.75	-42.5	-43.7	18.3	0.00e+00	0	40	0	656408576	54	4356
2026-01-06 06:56:24.30	323.02	9.75	-42.4	-43.6	18.4	0.00e+00	0	40	0	670040064	54	4338
2026-01-06 06:56:26.29	322.66	9.74	-42.5	-43.7	18.3	0.00e+00	0	40	0	684720128	54	4351
2026-01-06 06:56:28.29	322.31	9.73	-42.4	-43.6	18.5	0.00e+00	0	40	0	699400192	54	4299
2026-01-06 06:56:30.29	321.95	9.72	-42.7	-43.8	18.3	0.00e+00	0	40	0	714080256	54	4423
2026-01-06 06:56:32.30	321.60	9.71	-42.7	-43.8	18.2	0.00e+00	0	40	0	727711744	54	4433
2026-01-06 06:56:34.30	321.24	9.70	-42.7	-43.9	18.1	0.00e+00	0	40	0	742391808	54	4490
2026-01-06 06:56:36.30	320.89	9.68	-42.9	-44.1	17.9	0.00e+00	0	40	0	757071872	55	4328
2026-01-06 06:56:38.29	320.54	9.67	-43.0	-44.2	17.8	0.00e+00	0	40	0	771751936	55	4386
2026-01-06 06:56:40.29	320.19	9.65	-42.8	-44.0	18.0	0.00e+00	0	40	0	786432000	55	4289
2026-01-06 06:56:42.29	319.83	9.64	-42.7	-43.9	18.1	0.00e+00	0	40	0	800063488	55	4242
2026-01-06 06:56:44.29	319.48	9.62	-42.8	-44.0	18.1	0.00e+00	0	40	0	814743552	55	4263
2026-01-06 06:56:46.29	319.13	9.60	-42.8	-44.0	18.1	0.00e+00	0	40	0	829423616	55	4255
2026-01-06 06:56:48.29	318.78	9.58	-42.8	-44.0	18.0	0.00e+00	0	40	0	844103680	55	4249
2026-01-06 06:56:50.29	318.43	9.56	-42.8	-44.0	18.0	0.00e+00	0	40	0	857735168	55	4278
2026-01-06 06:56:52.29	318.08	9.54	-42.9	-44.0	18.0	0.00e+00	0	40	0	872415232	55	4285
2026-01-06 06:56:54.28	317.73	9.52	-42.9	-44.0	18.0	0.00e+00	0	40	0	887095296	55	4270
2026-01-06 06:56:56.28	317.38	9.50	-42.9	-44.0	18.0	0.00e+00	0	40	0	901775360	55	4283
2026-01-06 06:56:58.28	317.03	9.47	-42.8	-44.0	18.1	0.00e+00	0	40	0	915406848	55	4245
2026-01-06 06:57:00.28	316.68	9.45	-42.8	-43.9	18.1	0.00e+00	0	40	0	930086912	55	4234
2026-01-06 06:57:02.29	316.34	9.42	-42.8	-43.9	18.1	0.00e+00	0	40	0	944766976	55	4234
2026-01-06 06:57:04.28	315.99	9.39	-42.7	-43.9	18.2	0.00e+00	0	40	0	959447040	55	4194
2026-01-06 06:57:06.28	315.64	9.36	-42.7	-43.9	18.1	0.00e+00	0	40	0	973078528	55	4198
2026-01-06 06:57:08.28	315.30	9.33	-42.9	-44.0	18.0	0.00e+00	0	40	0	987758592	55	4277
2026-01-06 06:57:10.29	314.95	9.30	-42.7	-43.8	18.2	0.00e+00	0	40	0	1002438656	55	4173
2026-01-06 06:57:12.29	314.61	9.27	-42.8	-43.9	18.1	0.00e+00	0	40	0	1017118720	55	4230
2026-01-06 06:57:14.29	314.27	9.24	-42.7	-43.8	18.2	0.00e+00	0	40	0	1031798784	55	4189
2026-01-06 06:57:16.29	313.92	9.21	-42.7	-43.9	18.2	0.00e+00	0	40	0	1045430272	55	4199
2026-01-06 06:57:18.29	313.58	9.17	-42.7	-43.8	18.2	0.00e+00	0	40	0	1060110336	55	4190
2026-01-06 06:57:20.29	313.24	9.14	-43.0	-44.1	17.9	0.00e+00	0	40	0	1074790400	55	4319
2026-01-06 06:57:22.28	312.90	9.10	-43.1	-44.3	17.8	0.00e+00	0	40	0	1089470464	55	4394
2026-01-06 06:57:24.28	312.56	9.07	-43.2	-44.4	17.7	0.00e+00	0	40	0	1103101952	55	4457
2026-01-06 06:57:26.28	312.22	9.03	-43.4	-44.6	17.6	0.00e+00	0	40	0	1117782016	56	4316
2026-01-06 06:57:28.28	311.89	8.99	-52.5	-62.0	3.8	8.46e-01	0	40	104	1129316352	74	11325
2026-01-06 06:57:30.29	311.55	8.95	-52.9	-63.9	3.8	8.47e-01	0	40	104	1129316352	75	13394
2026-01-06 06:57:32.29	311.21	8.91	-53.1	-64.1	3.8	8.47e-01	0	40	104	1129316352	76	12909
2026-01-06 06:57:34.29	310.88	8.87	-53.3	-64.1	3.8	8.48e-01	0	40	104	1129316352	76	12941
2026-01-06 06:57:36.29	310.54	8.83	-53.4	-64.2	3.8	8.47e-01	0	40	104	1129316352	76	13026
2026-01-06 06:57:38.30	310.21	8.79	-53.5	-64.2	3.8	8.47e-01	0	40	104	1129316352	76	12999
2026-01-06 06:57:40.30	309.88	8.74	-53.2	-64.2	3.8	8.47e-01	0	40	104	1129316352	76	13025
2026-01-06 06:57:42.30	309.55	8.70	-53.4	-64.2	3.8	8.47e-01	0	40	104	1129316352	76	13018
2026-01-06 06:57:44.30	309.22	8.65	-53.4	-64.2	3.8	8.47e-01	0	40	104	1129316352	76	12969
2026-01-06 06:57:46.30	308.89	8.61	-53.3	-64.2	3.8	8.47e-01	0	40	104	1129316352	76	13065
2026-01-06 06:57:48.30	308.56	8.56	-53.1	-64.2	3.8	8.47e-01	0	40	104	1129316352	76	12981
2026-01-06 06:57:50.30	308.23	8.51	-53.1	-64.1	3.8	8.47e-01	0	40	104	1129316352	76	12915
2026-01-06 06:57:52.30	307.91	8.46	-53.1	-64.1	3.8	8.48e-01	0	40	104	1129316352	76	12929
2026-01-06 06:57:54.31	307.58	8.41	-53.1	-64.1	3.8	8.47e-01	0	40	104	1129316352	76	12940
2026-01-06 06:57:56.31	307.26	8.37	-53.1	-64.1	3.8	8.46e-01	0	40	104	1129316352	76	12937
2026-01-06 06:57:58.31	306.94	8.31	-53.1	-64.1	3.8	8.46e-01	0	40	104	1129316352	76	12915
2026-01-06 06:58:00.31	306.62	8.26	-53.1	-64.2	3.8	8.47e-01	0	40	104	1129316352	76	13025
2026-01-06 06:58:02.32	306.29	8.21	-53.1	-64.1	3.8	8.48e-01	0	40	104	1129316352	76	12909
2026-01-06 06:58:04.32	305.98	8.16	-53.1	-64.1	3.8	8.47e-01	0	40	104	1129316352	76	12855
2026-01-06 06:58:06.32	305.66	8.10	-53.1	-64.1	3.8	8.48e-01	0	40	104	1129316352	76	12903
2026-01-06 06:58:08.32	305.34	8.05	-53.1	-64.1	3.8	8.47e-01	0	40	104	1129316352	76	12882
2026-01-06 06:58:10.32	305.03	7.99	-53.1	-64.1	3.8	8.46e-01	0	40	104	1129316352	76	12904
2026-01-06 06:58:12.32	304.71	7.94	-53.1	-64.1	3.8	8.46e-01	0	40	104	1129316352	76	12959
2026-01-06 06:58:14.32	304.40	7.88	-53.1	-64.1	3.8	8.47e-01	0	40	104	1129316352	76	12816
2026-01-06 06:58:16.32	304.09	7.83	-53.1	-64.1	3.8	8.47e-01	0	40	104	1129316352	76	12816
2026-01-06 06:58:18.32	303.78	7.77	-53.1	-64.1	3.8	8.47e-01	0	40	104	1129316352	76	12828
2026-01-06 06:58:20.32	303.47	7.71	-53.0	-64.1	3.8	8.47e-01	0	40	104	1129316352	76	12846
2026-01-06 06:58:22.33	303.16	7.65	-53.1	-64.1	3.8	8.47e-01	0	40	104	1129316352	76	12874
2026-01-06 06:58:24.33	302.85	7.59	-53.0	-64.1	3.8	8.47e-01	0	40	104	1129316352	76	12858
2026-01-06 06:58:26.34	302.55	7.53	-53.1	-64.1	3.8	8.47e-01	0	40	104	1129316352	76	12900
2026-01-06 06:58:28.34	302.24	7.47	-53.1	-64.1	3.8	8.47e-01	0	40	104	1129316352	76	12916
2026-01-06 06:58:30.34	301.94	7.41	-53.0	-64.1	3.8	8.46e-01	0	40	104	1129316352	76	12857
2026-01-06 06:58:32.34	301.64	7.35	-53.0	-64.1	3.8	8.46e-01	0	40	104	1129316352	76	12889
2026-01-06 06:58:34.34	301.34	7.28	-53.0	-64.1	3.8	8.47e-01	0	40	104	1129316352	76	12835
2026-01-06 06:58:36.35	301.04	7.22	-53.1	-64.1	3.8	8.47e-01	0	40	104	1129316352	76	12958
2026-01-06 06:58:38.35	300.74	7.16	-53.0	-64.1	3.8	8.46e-01	0	40	104	1129316352	76	12850
2026-01-06 06:58:40.36	300.44	7.09	-53.0	-64.1	3.8	8.46e-01	0	40	104	1129316352	76	12853
2026-01-06 06:58:42.36	300.15	7.03	-53.0	-64.0	3.8	8.47e-01	0	40	104	1129316352	76	12793
2026-01-06 06:58:44.37	299.85	6.96	-53.0	-64.1	3.8	8.46e-01	0	40	104	1129316352	76	12836
2026-01-06 06:58:46.37	299.56	6.89	-53.0	-64.1	3.8	8.49e-01	0	40	104	1129316352	76	12851
2026-01-06 06:58:48.37	299.27	6.83	-53.0	-64.1	3.8	8.46e-01	0	40	104	1129316352	76	12895
2026-01-06 06:58:50.38	298.98	6.76	-53.0	-64.1	3.8	8.47e-01	0	40	104	1129316352	76	12824
2026-01-06 06:58:52.38	298.69	6.69	-53.0	-64.1	3.8	8.47e-01	0	40	104	1129316352	76	12837
2026-01-06 06:58:54.38	298.40	6.62	-53.0	-64.1	3.8	8.47e-01	0	40	104	1129316352	76	12835
2026-01-06 06:58:56.39	298.12	6.56	-53.0	-64.0	3.8	8.47e-01	0	40	104	1129316352	76	12783
2026-01-06 06:58:58.38	297.84	6.49	-52.9	-64.0	3.8	8.47e-01	0	40	104	1129316352	76	12674
2026-01-06 06:59:00.39	297.55	6.42	-52.9	-64.0	3.8	8.47e-01	0	40	104	1129316352	76	12724
2026-01-06 06:59:02.39	297.27	6.35	-52.9	-63.9	3.8	8.48e-01	0	40	104	1129316352	76	12626
2026-01-06 06:59:04.40	296.99	6.28	-52.9	-63.9	3.8	8.47e-01	0	40	104	1129316352	76	12577
2026-01-06 06:59:06.40	296.71	6.21	-52.7	-63.7	3.8	8.47e-01	0	40	104	1129316352	76	12293
2026-01-06 06:59:08.40	296.43	6.13	-52.7	-63.8	3.8	8.47e-01	0	40	104	1129316352	76	12415
2026-01-06 06:59:10.40	296.16	6.06	-52.7	-63.7	3.8	8.46e-01	0	40	104	1129316352	76	12319
2026-01-06 06:59:12.40	295.88	5.99	-52.7	-63.7	3.8	8.46e-01	0	40	104	1129316352	76	12293
2026-01-06 06:59:14.41	295.61	5.92	-52.7	-63.7	3.8	8.48e-01	0	40	104	1129316352	76	12273
2026-01-06 06:59:16.41	295.34	5.84	-52.7	-63.7	3.8	8.46e-01	0	40	104	1129316352	76	12349
2026-01-06 06:59:18.41	295.07	5.77	-52.7	-63.8	3.8	8.46e-01	0	40	104	1129316352	76	12402
2026-01-06 06:59:20.42	294.80	5.70	-52.7	-63.7	3.8	8.47e-01	0	40	104	1129316352	76	12277
2026-01-06 06:59:22.43	294.53	5.62	-52.7	-63.8	3.8	8.47e-01	0	40	104	1129316352	76	12418
2026-01-06 06:59:24.44	294.26	5.55	-52.7	-63.7	3.8	8.46e-01	0	40	104	1129316352	76	12332
2026-01-06 06:59:26.45	293.99	5.47	-52.7	-63.7	3.8	8.46e-01	0	40	104	1129316352	76	12360
2026-01-06 06:59:28.46	293.73	5.40	-52.7	-63.7	3.8	8.46e-01	0	40	104	1129316352	76	12303
2026-01-06 06:59:30.46	293.47	5.32	-52.7	-63.7	3.8	8.46e-01	0	40	104	1129316352	76	12359
2026-01-06 06:59:32.47	293.21	5.25	-52.7	-63.7	3.8	8.47e-01	0	40	104	1129316352	76	12291
2026-01-06 06:59:34.48	292.95	5.17	-52.7	-63.8	3.8	8.47e-01	0	40	104	1129316352	76	12464
2026-01-06 06:59:36.48	292.69	5.09	-52.7	-63.8	3.8	8.46e-01	0	40	104	1129316352	76	12383
2026-01-06 06:59:38.49	292.43	5.02	-52.7	-63.8	3.8	8.46e-01	0	40	104	1129316352	76	12402

#Closed at: 2026-01-06 06:59:40
#Recorded file [1129 MB]: D:/Data/31040_260106_095240.dat