passes_logs/2026/01/06/T1/T1__20260106_235529_NOAA_21_JPSS-2_rec.log

#Pass ID: 20260106_235529_NOAA 21 (JPSS-2)
#Satellite: NOAA 21 (JPSS-2)
#Configuration: NOAA 21
#almurnet v.1.7.20251203
#Start time: 2026-01-06 23:55:29

#Version: 2.0.20230620
#Station: T1
#Location: 37.570604 lon 55.790049 lat
#TLE: 1 54234U 22150A   26005.56767909  .00000152  00000+0  92756-4 0  9990
#TLE: 2 54234  98.7490 306.5820 0001036 340.2747  19.8389 14.19532370163472

#Time	Az	El	Level	Level2	SNR	BER	BlckErr	Temp	State	Recorded	gain1	gain2
2026-01-06 23:55:29.57	14.78	4.98	-48.1	-62.5	3.8	1.49e+00	0	40	0	0	68	18153
2026-01-06 23:55:32.58	14.76	5.19	-47.9	-62.1	3.8	1.49e+00	0	40	104	0	66	19574
2026-01-06 23:55:35.60	14.73	5.41	-47.9	-62.2	3.8	1.49e+00	0	40	104	0	66	19740
2026-01-06 23:55:38.61	14.70	5.63	-47.9	-62.3	3.8	1.49e+00	0	41	104	0	66	19920
2026-01-06 23:55:41.62	14.67	5.85	-47.9	-62.2	3.8	1.49e+00	0	40	104	0	66	19721
2026-01-06 23:55:44.63	14.64	6.07	-47.9	-62.2	3.8	1.49e+00	0	41	104	0	66	19653
2026-01-06 23:55:47.65	14.61	6.29	-47.9	-62.2	3.8	1.49e+00	0	41	104	0	66	19701
2026-01-06 23:55:50.66	14.58	6.52	-47.9	-62.2	3.8	1.49e+00	0	41	104	0	66	19618
2026-01-06 23:55:53.66	14.55	6.74	-47.9	-61.9	3.8	1.49e+00	0	41	104	0	66	19067
2026-01-06 23:55:56.68	14.52	6.97	-47.8	-61.5	3.8	1.49e+00	0	41	104	0	66	18198
2026-01-06 23:55:59.69	14.48	7.21	-47.8	-61.2	3.8	1.49e+00	0	41	104	0	66	17570
2026-01-06 23:56:02.70	14.45	7.44	-47.8	-60.7	3.8	1.49e+00	0	41	104	0	66	16629
2026-01-06 23:56:05.71	14.41	7.67	-47.6	-59.3	4.1	1.48e+00	0	41	104	0	66	14121
2026-01-06 23:56:08.73	14.38	7.91	-47.5	-57.5	4.6	1.12e+00	0	41	104	0	66	11504
2026-01-06 23:56:11.74	14.34	8.15	-47.2	-55.8	5.5	5.02e-01	0	41	0	0	66	9485
2026-01-06 23:56:14.75	14.31	8.40	-46.7	-53.7	7.2	1.40e-01	0	42	0	0	65	7892
2026-01-06 23:56:17.76	14.27	8.64	-46.3	-52.3	8.6	4.09e-02	0	42	0	0	64	7099
2026-01-06 23:56:20.78	14.23	8.89	-46.0	-51.5	9.4	1.55e-02	0	42	0	0	64	6470
2026-01-06 23:56:23.79	14.19	9.14	-46.5	-52.7	8.3	2.25e-02	0	42	0	0	63	7886
2026-01-06 23:56:26.80	14.15	9.39	-44.0	-47.1	14.1	7.00e-07	0	42	0	0	58	5505
2026-01-06 23:56:30.00	14.11	9.66	-43.0	-45.6	15.5	0.00e+00	0	42	0	0	57	4888
2026-01-06 23:56:32.86	14.07	9.90	-42.4	-44.8	16.3	0.00e+00	0	42	0	0	56	4723
2026-01-06 23:56:36.01	14.02	10.18	-41.6	-43.9	17.1	0.00e+00	0	42	0	0	55	4498
2026-01-06 23:56:38.87	13.98	10.43	-41.3	-43.5	17.5	0.00e+00	0	42	0	0	54	4557
2026-01-06 23:56:42.12	13.93	10.71	-40.9	-43.0	17.9	0.00e+00	0	42	0	0	53	4586
2026-01-06 23:56:44.97	13.89	10.97	-40.8	-42.8	18.1	0.00e+00	0	42	0	0	53	4472
2026-01-06 23:56:48.12	13.84	11.25	-40.8	-42.8	18.1	0.00e+00	0	42	0	0	53	4483
2026-01-06 23:56:50.99	13.79	11.51	-40.7	-42.8	18.2	0.00e+00	0	42	0	0	53	4448
2026-01-06 23:56:54.30	13.74	11.82	-40.7	-42.7	18.3	0.00e+00	0	42	0	0	53	4424
2026-01-06 23:56:57.69	13.68	12.13	-40.6	-42.6	18.4	0.00e+00	0	42	0	0	53	4383
2026-01-06 23:57:00.41	13.63	12.39	-40.7	-42.7	18.4	0.00e+00	0	42	0	0	53	4409
2026-01-06 23:57:03.71	13.57	12.71	-40.5	-42.5	18.5	0.00e+00	0	42	0	0	53	4323
2026-01-06 23:57:06.57	13.52	12.98	-40.5	-42.5	18.4	0.00e+00	0	42	0	0	53	4335
2026-01-06 23:57:09.85	13.46	13.30	-40.6	-42.7	18.4	0.00e+00	0	42	0	0	52	4654
2026-01-06 23:57:12.85	13.40	13.60	-40.4	-42.4	18.6	0.00e+00	0	42	0	0	52	4528
2026-01-06 23:57:15.85	13.34	13.90	-40.3	-42.3	18.7	0.00e+00	0	42	0	0	52	4482
2026-01-06 23:57:18.87	13.28	14.21	-40.3	-42.4	18.7	0.00e+00	0	42	0	0	52	4516
2026-01-06 23:57:22.13	13.22	14.54	-40.2	-42.3	18.8	0.00e+00	0	42	0	0	52	4450
2026-01-06 23:57:24.85	13.16	14.83	-40.0	-42.1	18.9	0.00e+00	0	42	0	0	52	4347
2026-01-06 23:57:28.14	13.09	15.18	-40.1	-42.1	18.9	0.00e+00	0	42	0	0	52	4385
2026-01-06 23:57:30.86	13.03	15.47	-40.2	-42.2	18.8	0.00e+00	0	43	0	0	52	4431
2026-01-06 23:57:34.24	12.95	15.83	-40.3	-42.4	18.7	0.00e+00	0	42	0	0	52	4515
2026-01-06 23:57:36.96	12.88	16.13	-40.1	-42.2	18.8	0.00e+00	0	42	0	0	52	4421
2026-01-06 23:57:40.25	12.81	16.50	-40.4	-42.4	18.6	0.00e+00	0	42	0	0	52	4545
2026-01-06 23:57:42.97	12.74	16.81	-40.5	-42.5	18.6	0.00e+00	0	42	0	0	52	4597
2026-01-06 23:57:46.27	12.65	17.18	-40.4	-42.5	18.6	0.00e+00	0	42	0	0	52	4548
2026-01-06 23:57:49.26	12.58	17.53	-40.6	-42.7	18.4	0.00e+00	0	42	0	0	52	4663
2026-01-06 23:57:52.55	12.49	17.92	-40.6	-42.6	18.5	0.00e+00	0	42	0	0	52	4639
2026-01-06 23:57:55.27	12.41	18.24	-40.7	-42.7	18.4	0.00e+00	0	42	0	0	52	4667
2026-01-06 23:57:58.58	12.32	18.65	-40.7	-42.7	18.5	0.00e+00	0	42	0	0	52	4652
2026-01-06 23:58:01.30	12.24	18.98	-40.8	-42.8	18.3	0.00e+00	0	43	0	0	52	4726
2026-01-06 23:58:04.74	12.14	19.41	-40.5	-42.5	18.6	0.00e+00	0	42	0	0	52	4562
2026-01-06 23:58:07.46	12.05	19.76	-40.5	-42.5	18.6	0.00e+00	0	42	0	0	52	4573
2026-01-06 23:58:10.75	11.95	20.18	-40.2	-42.2	18.9	0.00e+00	0	42	0	0	52	4407
2026-01-06 23:58:13.48	11.86	20.54	-40.2	-42.1	19.0	0.00e+00	0	43	0	0	52	4363
2026-01-06 23:58:16.72	11.75	20.97	-39.9	-41.8	19.3	0.00e+00	0	43	0	0	51	4447
2026-01-06 23:58:20.00	11.64	21.41	-39.8	-41.6	19.5	0.00e+00	0	42	0	0	51	4353
2026-01-06 23:58:22.86	11.54	21.81	-39.6	-41.3	19.7	0.00e+00	0	42	0	0	51	4236
2026-01-06 23:58:26.01	11.42	22.25	-39.5	-41.2	19.8	0.00e+00	0	43	0	0	50	4431
2026-01-06 23:58:28.87	11.31	22.65	-39.5	-41.2	19.9	0.00e+00	0	43	0	0	50	4411
2026-01-06 23:58:32.08	11.19	23.12	-39.2	-40.8	20.2	0.00e+00	0	43	0	0	50	4238
2026-01-06 23:58:34.95	11.07	23.54	-39.2	-40.9	20.1	0.00e+00	0	43	0	0	50	4266
2026-01-06 23:58:38.09	10.94	24.01	-39.1	-40.8	20.3	0.00e+00	0	43	0	0	50	4222
2026-01-06 23:58:41.15	10.81	24.47	-39.1	-40.8	20.3	0.00e+00	0	43	0	0	50	4199
2026-01-06 23:58:44.51	10.66	25.00	-39.3	-41.0	20.2	0.00e+00	0	43	0	0	50	4292
2026-01-06 23:58:47.23	10.54	25.42	-39.5	-41.2	20.0	0.00e+00	0	43	0	0	50	4407
2026-01-06 23:58:50.52	10.38	25.95	-39.8	-41.5	19.7	0.00e+00	0	43	0	0	50	4572
2026-01-06 23:58:53.26	10.25	26.40	-40.2	-42.0	19.3	0.00e+00	0	43	0	0	50	4818
2026-01-06 23:58:56.56	10.08	26.95	-40.5	-42.3	19.0	0.00e+00	0	43	0	0	51	4747
2026-01-06 23:58:59.51	9.92	27.45	-40.8	-42.7	18.5	0.00e+00	0	42	0	0	52	4661
2026-01-06 23:59:02.80	9.75	28.02	-41.1	-43.0	18.2	0.00e+00	0	43	0	0	52	4869
2026-01-06 23:59:05.52	9.59	28.50	-41.1	-43.1	18.0	0.00e+00	0	43	0	0	53	4634
2026-01-06 23:59:08.88	9.40	29.10	-41.1	-43.1	18.1	0.00e+00	0	43	0	0	53	4609
2026-01-06 23:59:11.60	9.23	29.60	-40.7	-42.6	18.5	0.00e+00	0	43	0	0	53	4389
2026-01-06 23:59:14.94	9.02	30.22	-40.6	-42.5	18.6	0.00e+00	0	43	0	0	53	4338
2026-01-06 23:59:17.66	8.84	30.74	-40.1	-41.9	19.3	0.00e+00	0	42	0	0	52	4265
2026-01-06 23:59:21.15	8.61	31.41	-40.2	-42.0	19.4	0.00e+00	0	43	0	0	51	4547
2026-01-06 23:59:23.87	8.42	31.95	-39.6	-41.3	20.0	0.00e+00	0	43	0	0	51	4218
2026-01-06 23:59:27.29	8.16	32.64	-39.9	-41.6	19.7	0.00e+00	0	43	0	0	51	4378
2026-01-06 23:59:30.01	7.96	33.20	-40.3	-42.1	19.3	0.00e+00	0	43	0	0	51	4619
2026-01-06 23:59:33.69	7.66	33.97	-40.6	-42.5	19.0	0.00e+00	0	43	0	0	51	4824
2026-01-06 23:59:36.53	7.43	34.58	-40.8	-42.7	18.7	0.00e+00	0	43	0	0	52	4676
2026-01-06 23:59:39.69	7.15	35.27	-41.3	-43.3	18.0	0.00e+00	0	43	0	0	53	4743
2026-01-06 23:59:42.55	6.89	35.91	-41.6	-43.7	17.6	0.00e+00	0	43	0	0	54	4675
2026-01-06 23:59:45.88	6.58	36.67	-41.7	-43.7	17.7	0.00e+00	0	43	0	0	54	4667
2026-01-06 23:59:48.82	6.29	37.35	-41.7	-43.7	17.6	0.00e+00	0	43	0	0	54	4682
2026-01-06 23:59:52.11	5.94	38.14	-41.8	-43.9	17.6	0.00e+00	0	43	0	0	54	4761
2026-01-06 23:59:54.92	5.64	38.82	-41.7	-43.7	17.8	0.00e+00	0	43	0	0	54	4678
2026-01-06 23:59:58.22	5.26	39.64	-41.4	-43.3	18.0	0.00e+00	0	43	0	0	54	4467
2026-01-07 00:00:00.94	4.94	40.32	-41.3	-43.2	18.1	0.00e+00	0	43	0	0	54	4438
2026-01-07 00:00:04.23	4.52	41.17	-41.6	-43.6	17.8	0.00e+00	0	43	0	0	54	4651
2026-01-07 00:00:06.96	4.16	41.89	-42.1	-44.2	17.2	0.00e+00	0	43	0	0	54	4970
2026-01-07 00:00:10.25	3.70	42.77	-42.5	-44.7	16.7	0.00e+00	0	43	0	0	55	4948
2026-01-07 00:00:12.98	3.30	43.51	-43.3	-45.6	16.1	0.00e+00	0	43	0	0	57	4891
2026-01-07 00:00:16.27	2.80	44.43	-43.0	-45.3	16.5	0.00e+00	0	43	0	0	57	4726
2026-01-07 00:00:19.07	2.34	45.23	-43.2	-45.5	16.2	0.00e+00	0	43	0	0	57	4838
2026-01-07 00:00:22.54	1.74	46.23	-42.9	-45.0	16.6	0.00e+00	0	43	0	0	57	4595
2026-01-07 00:00:25.26	1.24	47.03	-42.3	-44.4	17.3	0.00e+00	0	43	0	0	56	4498
2026-01-07 00:00:28.55	0.60	48.02	-41.6	-43.5	17.8	0.00e+00	0	43	0	0	55	4320
2026-01-07 00:00:31.28	0.04	48.86	-41.5	-43.4	17.8	0.00e+00	0	43	0	0	55	4283
2026-01-07 00:00:34.68	359.29	49.91	-41.5	-43.4	18.0	0.00e+00	0	43	0	0	54	4505
2026-01-07 00:00:37.47	358.64	50.79	-41.7	-43.6	17.8	0.00e+00	0	43	0	0	54	4628
2026-01-07 00:00:40.77	357.81	51.85	-41.4	-43.3	18.1	0.00e+00	0	43	0	0	54	4450
2026-01-07 00:00:43.49	357.09	52.74	-41.5	-43.4	18.1	0.00e+00	0	43	0	0	54	4532
2026-01-07 00:00:46.83	356.13	53.84	-41.2	-43.1	18.5	0.00e+00	0	43	0	0	54	4342
2026-01-07 00:00:49.84	355.20	54.85	-40.4	-42.2	19.1	0.00e+00	0	43	0	0	52	4427
2026-01-07 00:00:53.14	354.10	55.97	-40.1	-41.9	19.5	0.00e+00	0	43	0	0	52	4248
2026-01-07 00:00:55.97	353.09	56.94	-39.2	-40.8	20.4	0.00e+00	0	43	0	0	50	4214
2026-01-07 00:00:59.25	351.82	58.07	-39.8	-41.5	19.8	0.00e+00	0	43	0	0	50	4558
2026-01-07 00:01:02.13	350.61	59.07	-39.9	-41.7	19.7	0.00e+00	0	43	0	0	50	4684
2026-01-07 00:01:05.28	349.18	60.16	-39.7	-41.4	20.0	0.00e+00	0	43	0	0	50	4505
2026-01-07 00:01:08.16	347.75	61.17	-39.3	-41.0	20.4	0.00e+00	0	43	0	0	50	4329
2026-01-07 00:01:11.32	346.05	62.27	-39.1	-40.8	20.5	0.00e+00	0	43	0	0	50	4207
2026-01-07 00:01:14.28	344.31	63.29	-38.8	-40.5	20.7	0.00e+00	0	43	0	0	49	4312
2026-01-07 00:01:17.43	342.29	64.38	-39.1	-40.8	20.5	0.00e+00	0	43	0	0	49	4462
2026-01-07 00:01:20.30	340.27	65.35	-38.8	-40.5	20.8	0.00e+00	0	43	0	0	49	4292
2026-01-07 00:01:23.45	337.85	66.39	-38.7	-40.2	21.1	0.00e+00	0	43	0	0	49	4191
2026-01-07 00:01:26.38	335.37	67.34	-38.8	-40.4	20.9	0.00e+00	0	43	0	0	49	4265
2026-01-07 00:01:29.60	332.38	68.34	-39.3	-41.0	20.4	0.00e+00	0	43	0	0	49	4570
2026-01-07 00:01:32.46	329.46	69.19	-38.7	-40.3	20.9	0.00e+00	0	43	0	0	49	4213
2026-01-07 00:01:35.61	325.95	70.06	-38.6	-40.2	20.9	0.00e+00	0	43	0	0	49	4150
2026-01-07 00:01:38.66	322.23	70.85	-38.8	-40.4	20.7	0.00e+00	0	43	0	0	49	4275
2026-01-07 00:01:42.17	317.55	71.65	-39.0	-40.7	20.5	0.00e+00	0	43	0	0	49	4401
2026-01-07 00:01:45.21	313.16	72.26	-38.8	-40.4	20.8	0.00e+00	0	43	0	0	49	4280
2026-01-07 00:01:48.51	308.05	72.79	-39.5	-41.2	19.9	0.00e+00	0	43	0	0	49	4652
2026-01-07 00:01:51.25	303.58	73.13	-39.6	-41.3	20.1	0.00e+00	0	43	0	0	50	4482
2026-01-07 00:01:54.66	297.79	73.41	-38.8	-40.4	20.8	0.00e+00	0	43	0	0	49	4256
2026-01-07 00:01:57.45	292.94	73.52	-38.6	-40.2	20.9	0.00e+00	0	43	0	0	48	4411
2026-01-07 00:02:00.75	287.17	73.50	-38.5	-40.1	21.0	0.00e+00	0	43	0	0	48	4379
2026-01-07 00:02:03.47	282.46	73.36	-38.4	-40.0	21.2	0.00e+00	0	43	0	0	48	4324
2026-01-07 00:02:06.80	276.85	73.05	-38.5	-40.1	21.1	0.00e+00	0	43	0	0	48	4343
2026-01-07 00:02:09.80	272.02	72.65	-38.7	-40.2	21.0	0.00e+00	0	43	0	0	48	4441
2026-01-07 00:02:13.27	266.76	72.04	-38.3	-39.8	21.3	0.00e+00	0	43	0	0	48	4233
2026-01-07 00:02:15.99	262.91	71.47	-39.0	-40.7	20.5	0.00e+00	0	43	0	0	48	4674
2026-01-07 00:02:19.29	258.59	70.69	-38.8	-40.4	20.8	0.00e+00	0	43	0	0	49	4266
2026-01-07 00:02:22.01	255.32	69.98	-39.0	-40.6	20.8	0.00e+00	0	43	0	0	49	4369
2026-01-07 00:02:25.31	251.67	69.05	-38.2	-39.8	21.1	0.00e+00	0	43	0	0	48	4212
2026-01-07 00:02:28.03	248.93	68.24	-39.8	-41.4	20.0	0.00e+00	0	43	0	0	50	4542
2026-01-07 00:02:31.32	245.90	67.21	-38.6	-40.2	21.0	0.00e+00	0	43	0	0	49	4153
2026-01-07 00:02:34.04	243.61	66.33	-38.9	-40.5	20.8	0.00e+00	0	43	0	0	48	4586
2026-01-07 00:02:37.34	241.09	65.23	-39.4	-41.1	19.8	0.00e+00	0	43	0	0	50	4359
2026-01-07 00:02:40.06	239.19	64.31	-39.2	-40.9	20.5	0.00e+00	0	43	0	0	49	4517
2026-01-07 00:02:43.36	237.08	63.17	-39.6	-41.3	19.6	0.00e+00	0	43	0	0	50	4480
2026-01-07 00:02:46.09	235.48	62.22	-38.2	-39.8	21.3	0.00e+00	0	43	0	0	48	4216
2026-01-07 00:02:49.75	233.53	60.94	-40.2	-42.0	19.4	0.00e+00	0	43	0	0	51	4571
2026-01-07 00:02:52.67	232.11	59.92	-39.1	-40.8	20.5	0.00e+00	0	43	0	0	50	4207
2026-01-07 00:02:55.96	230.64	58.77	-39.5	-41.2	20.2	0.00e+00	0	43	0	0	49	4679
2026-01-07 00:02:58.68	229.51	57.83	-40.0	-41.7	19.3	0.00e+00	0	43	0	0	52	4191
2026-01-07 00:03:02.14	228.19	56.63	-39.1	-40.7	20.5	0.00e+00	0	43	0	0	49	4411
2026-01-07 00:03:04.98	227.19	55.66	-40.1	-41.8	19.6	0.00e+00	0	43	0	0	50	4757
2026-01-07 00:03:08.28	226.12	54.54	-41.6	-43.5	17.5	0.00e+00	0	43	0	0	53	4870
2026-01-07 00:03:11.01	225.28	53.63	-40.8	-42.7	18.5	0.00e+00	0	43	0	0	53	4398
2026-01-07 00:03:14.30	224.35	52.54	-41.2	-43.0	18.4	0.00e+00	0	43	0	0	53	4598
2026-01-07 00:03:17.03	223.63	51.65	-41.0	-42.9	18.6	0.00e+00	0	43	0	0	53	4525
2026-01-07 00:03:20.33	222.81	50.59	-41.1	-42.9	18.1	0.00e+00	0	43	0	0	53	4544
2026-01-07 00:03:23.05	222.18	49.73	-41.6	-43.5	17.9	0.00e+00	0	43	0	0	53	4868
2026-01-07 00:03:26.34	221.46	48.70	-42.6	-44.8	16.8	0.00e+00	0	42	0	0	55	4984
2026-01-07 00:03:29.06	220.90	47.87	-42.9	-45.1	16.6	0.00e+00	0	43	0	0	56	4899
2026-01-07 00:03:32.90	220.16	46.72	-42.6	-44.7	16.8	0.00e+00	0	43	0	0	57	4436
2026-01-07 00:03:35.64	219.66	45.91	-41.3	-43.2	18.2	0.00e+00	0	43	0	0	54	4393
2026-01-07 00:03:39.38	219.03	44.83	-42.6	-44.7	16.9	0.00e+00	0	43	0	0	55	4944
2026-01-07 00:03:42.14	218.58	44.05	-44.1	-46.6	15.0	0.00e+00	0	43	0	0	58	5218
2026-01-07 00:03:45.72	218.04	43.06	-42.8	-44.9	16.8	0.00e+00	0	43	0	0	57	4519
2026-01-07 00:03:48.59	217.63	42.28	-42.1	-44.1	17.5	0.00e+00	0	43	0	0	56	4352
2026-01-07 00:03:51.74	217.20	41.44	-41.0	-42.9	18.4	0.00e+00	0	43	0	0	54	4256
2026-01-07 00:03:54.75	216.81	40.65	-41.1	-42.9	18.5	0.00e+00	0	43	0	0	53	4525
2026-01-07 00:03:57.90	216.43	39.84	-42.9	-45.1	16.5	0.00e+00	0	43	0	0	56	4904
2026-01-07 00:04:00.76	216.09	39.13	-43.3	-45.7	16.0	0.00e+00	0	43	0	0	57	4937
2026-01-07 00:04:03.91	215.74	38.35	-41.6	-43.5	17.8	0.00e+00	0	43	0	0	55	4330
2026-01-07 00:04:06.87	215.42	37.64	-41.0	-42.8	18.5	0.00e+00	0	43	0	0	53	4492
2026-01-07 00:04:10.02	215.10	36.90	-40.8	-42.6	18.7	0.00e+00	0	43	0	0	53	4391
2026-01-07 00:04:12.89	214.82	36.23	-40.6	-42.4	18.9	0.00e+00	0	43	0	0	53	4285
2026-01-07 00:04:16.03	214.53	35.52	-40.6	-42.4	18.9	0.00e+00	0	43	0	0	53	4274
2026-01-07 00:04:18.90	214.27	34.88	-40.8	-42.6	18.7	0.00e+00	0	43	0	0	53	4390
2026-01-07 00:04:22.05	214.00	34.20	-40.7	-42.5	18.8	0.00e+00	0	43	0	0	53	4326
2026-01-07 00:04:24.91	213.77	33.59	-40.4	-42.2	18.9	0.00e+00	0	43	0	0	52	4441
2026-01-07 00:04:28.06	213.52	32.93	-40.9	-42.7	18.6	0.00e+00	0	43	0	0	52	4685
2026-01-07 00:04:30.93	213.30	32.34	-40.4	-42.1	19.2	0.00e+00	0	43	0	0	52	4389
2026-01-07 00:04:34.14	213.06	31.69	-40.2	-42.0	19.3	0.00e+00	0	43	0	0	52	4318
2026-01-07 00:04:37.01	212.86	31.12	-40.3	-42.1	19.2	0.00e+00	0	43	0	0	52	4351
2026-01-07 00:04:40.16	212.65	30.51	-40.5	-42.3	18.9	0.00e+00	0	43	0	0	52	4466
2026-01-07 00:04:43.25	212.45	29.93	-40.8	-42.7	18.5	0.00e+00	0	43	0	0	52	4669
2026-01-07 00:04:46.11	212.27	29.39	-40.5	-42.3	18.9	0.00e+00	0	43	0	0	52	4481
2026-01-07 00:04:49.27	212.08	28.82	-40.0	-41.7	19.5	0.00e+00	0	43	0	0	51	4400
2026-01-07 00:04:52.13	211.91	28.30	-39.5	-41.2	19.9	0.00e+00	0	43	0	0	51	4162
2026-01-07 00:04:55.40	211.72	27.73	-39.2	-40.9	20.2	0.00e+00	0	43	0	0	50	4253
2026-01-07 00:04:58.32	211.56	27.23	-38.9	-40.5	20.6	0.00e+00	0	43	0	0	49	4305
2026-01-07 00:05:01.61	211.39	26.67	-38.9	-40.6	20.5	0.00e+00	0	43	0	0	49	4345
2026-01-07 00:05:04.33	211.25	26.22	-39.1	-40.8	20.3	0.00e+00	0	43	0	0	49	4447
2026-01-07 00:05:07.61	211.09	25.68	-39.5	-41.2	19.9	0.00e+00	0	43	0	0	49	4704
2026-01-07 00:05:10.73	210.94	25.18	-39.8	-41.5	19.6	0.00e+00	0	43	0	0	50	4592
2026-01-07 00:05:13.60	210.81	24.73	-40.1	-41.8	19.4	0.00e+00	0	43	0	0	50	4748
2026-01-07 00:05:16.74	210.67	24.24	-40.4	-42.2	19.1	0.00e+00	0	43	0	0	51	4681
2026-01-07 00:05:19.61	210.54	23.80	-40.3	-42.1	19.2	0.00e+00	0	43	0	0	51	4615
2026-01-07 00:05:22.89	210.41	23.31	-40.3	-42.0	19.3	0.00e+00	0	43	0	0	51	4587
2026-01-07 00:05:25.85	210.29	22.88	-40.4	-42.2	19.1	0.00e+00	0	43	0	0	51	4661
2026-01-07 00:05:29.00	210.16	22.42	-40.0	-41.8	19.5	0.00e+00	0	43	0	0	51	4443
2026-01-07 00:05:31.87	210.05	22.02	-39.9	-41.6	19.6	0.00e+00	0	43	0	0	51	4368
2026-01-07 00:05:35.02	209.94	21.58	-39.9	-41.6	19.6	0.00e+00	0	43	0	0	51	4367
2026-01-07 00:05:37.89	209.83	21.18	-39.8	-41.5	19.6	0.00e+00	0	43	0	0	51	4332
2026-01-07 00:05:41.04	209.72	20.75	-39.9	-41.7	19.4	0.00e+00	0	43	0	0	51	4409
2026-01-07 00:05:43.90	209.62	20.37	-39.8	-41.5	19.6	0.00e+00	0	43	0	0	51	4319
2026-01-07 00:05:47.07	209.52	19.96	-39.7	-41.5	19.6	0.00e+00	0	43	0	0	51	4300
2026-01-07 00:05:50.00	209.42	19.58	-39.7	-41.5	19.6	0.00e+00	0	43	0	0	51	4292
2026-01-07 00:05:53.16	209.32	19.18	-39.8	-41.5	19.5	0.00e+00	0	43	0	0	51	4339
2026-01-07 00:05:56.02	209.24	18.82	-40.0	-41.8	19.3	0.00e+00	0	43	0	0	51	4453
2026-01-07 00:05:59.17	209.14	18.43	-40.0	-41.7	19.3	0.00e+00	0	43	0	0	51	4440
2026-01-07 00:06:02.03	209.06	18.08	-40.2	-41.9	19.1	0.00e+00	0	43	0	0	51	4539
2026-01-07 00:06:05.18	208.97	17.71	-40.4	-42.2	18.9	0.00e+00	0	43	0	0	51	4657
2026-01-07 00:06:08.22	208.89	17.35	-40.4	-42.2	18.9	0.00e+00	0	43	0	0	51	4676
2026-01-07 00:06:11.61	208.80	16.95	-40.5	-42.3	18.8	0.00e+00	0	43	0	0	51	4748
2026-01-07 00:06:14.34	208.73	16.64	-40.6	-42.4	18.7	0.00e+00	0	43	0	0	51	4777
2026-01-07 00:06:17.63	208.64	16.27	-40.6	-42.5	18.7	0.00e+00	0	43	0	0	51	4833
2026-01-07 00:06:20.44	208.57	15.95	-40.7	-42.5	18.6	0.00e+00	0	43	0	0	52	4583
2026-01-07 00:06:23.59	208.50	15.61	-40.5	-42.4	18.7	0.00e+00	0	43	0	0	52	4508
2026-01-07 00:06:26.47	208.43	15.29	-40.6	-42.4	18.6	0.00e+00	0	43	0	0	52	4536
2026-01-07 00:06:29.62	208.36	14.96	-40.7	-42.6	18.5	0.00e+00	0	43	0	0	52	4613
2026-01-07 00:06:32.55	208.29	14.65	-40.8	-42.7	18.4	0.00e+00	0	43	0	0	52	4681
2026-01-07 00:06:35.56	208.22	14.33	-40.9	-42.8	18.3	0.00e+00	0	43	0	0	52	4721
2026-01-07 00:06:38.56	208.16	14.02	-40.9	-42.8	18.2	0.00e+00	0	43	0	0	52	4759
2026-01-07 00:06:41.57	208.10	13.72	-41.0	-42.9	18.1	0.00e+00	0	43	0	0	52	4801
2026-01-07 00:06:44.58	208.03	13.41	-41.2	-43.2	17.8	0.00e+00	0	43	0	0	53	4669
2026-01-07 00:06:47.59	207.97	13.12	-41.0	-42.9	18.1	0.00e+00	0	43	0	0	53	4524
2026-01-07 00:06:51.03	207.91	12.78	-41.1	-43.1	17.9	0.00e+00	0	43	0	0	53	4625
2026-01-07 00:06:53.94	207.85	12.50	-41.1	-43.0	17.9	0.00e+00	0	43	0	0	53	4582
2026-01-07 00:06:57.15	207.79	12.19	-41.1	-43.0	17.9	0.00e+00	0	43	0	0	53	4588
2026-01-07 00:07:00.34	207.73	11.89	-41.1	-43.0	17.9	0.00e+00	0	43	0	0	53	4592
2026-01-07 00:07:03.21	207.68	11.62	-41.1	-43.1	17.8	0.00e+00	0	43	0	0	53	4611
2026-01-07 00:07:06.60	207.62	11.31	-41.2	-43.1	17.7	0.00e+00	0	43	0	0	53	4650
2026-01-07 00:07:09.32	207.58	11.06	-41.1	-43.1	17.7	0.00e+00	0	43	0	0	53	4622
2026-01-07 00:07:12.62	207.52	10.76	-41.2	-43.2	17.6	0.00e+00	0	43	0	0	53	4702
2026-01-07 00:07:15.34	207.48	10.52	-41.1	-43.2	17.6	0.00e+00	0	43	0	0	53	4660
2026-01-07 00:07:18.68	207.42	10.22	-41.2	-43.2	17.6	0.00e+00	0	43	0	0	53	4669
2026-01-07 00:07:21.47	207.38	9.98	-41.3	-43.4	17.4	0.00e+00	0	43	0	0	53	4761
2026-01-07 00:07:24.77	207.33	9.69	-41.3	-43.3	17.4	0.00e+00	0	43	0	0	53	4735
2026-01-07 00:07:27.49	207.29	9.46	-41.2	-43.2	17.5	0.00e+00	0	43	0	0	53	4683
2026-01-07 00:07:30.82	207.24	9.18	-41.5	-43.6	17.2	0.00e+00	0	43	0	0	53	4876
2026-01-07 00:07:33.60	207.20	8.95	-49.6	-62.3	3.8	1.49e+00	0	43	104	0	69	16795
2026-01-07 00:07:36.90	207.15	8.67	-49.9	-62.9	3.8	1.49e+00	0	43	104	0	70	17022
2026-01-07 00:07:39.63	207.11	8.45	-50.1	-63.1	3.8	1.49e+00	0	43	104	0	70	17334
2026-01-07 00:07:42.93	207.07	8.18	-50.1	-63.1	3.8	1.49e+00	0	43	104	0	71	16474
2026-01-07 00:07:45.66	207.03	7.96	-50.2	-63.1	3.8	1.49e+00	0	43	104	0	71	16492
2026-01-07 00:07:48.95	206.99	7.70	-50.2	-63.1	3.8	1.49e+00	0	43	104	0	71	16472
2026-01-07 00:07:51.68	206.96	7.48	-49.9	-63.1	3.8	1.49e+00	0	43	104	0	71	16472
2026-01-07 00:07:54.97	206.91	7.22	-49.8	-63.1	3.8	1.49e+00	0	43	104	0	71	16387
2026-01-07 00:07:57.70	206.88	7.01	-49.8	-63.1	3.8	1.49e+00	0	43	104	0	71	16407
2026-01-07 00:08:01.00	206.84	6.76	-49.8	-63.1	3.8	1.49e+00	0	43	104	0	71	16374
2026-01-07 00:08:03.73	206.81	6.55	-49.8	-63.1	3.8	1.49e+00	0	43	104	0	71	16446
2026-01-07 00:08:07.03	206.77	6.30	-49.8	-63.1	3.8	1.49e+00	0	43	104	0	71	16405
2026-01-07 00:08:09.75	206.74	6.10	-49.8	-63.1	3.8	1.49e+00	0	43	104	0	71	16446
2026-01-07 00:08:13.05	206.70	5.85	-49.8	-63.1	3.8	1.49e+00	0	43	104	0	71	16414
2026-01-07 00:08:15.77	206.67	5.65	-49.8	-63.1	3.8	1.49e+00	0	43	104	0	71	16415
2026-01-07 00:08:19.07	206.64	5.41	-49.8	-63.1	3.8	1.49e+00	0	43	104	0	71	16369
2026-01-07 00:08:21.80	206.61	5.21	-49.7	-63.1	3.8	1.49e+00	0	43	104	0	71	16356
2026-01-07 00:08:25.10	206.57	4.97	-49.8	-63.1	3.8	1.49e+00	0	43	104	0	71	16341

#Closed at: 2026-01-07 00:08:25
#Recorded file [0 MB]: D:/Data/31040_260107_025529.dat