passes_logs/2026/01/06/T1/T1__20260106_132157_FENGYUN_3E_rec.log

#Pass ID: 20260106_132157_FENGYUN 3E
#Satellite: FENGYUN 3E
#Configuration: FENGYUN 3E
#almurnet v.1.7.20251203
#Start time: 2026-01-06 13:21:58

#Version: 2.0.20230620
#Station: T1
#Location: 37.570604 lon 55.790049 lat
#TLE: 1 49008U 21062A   26005.63346808  .00000216  00000+0  12264-3 0  9999
#TLE: 2 49008  98.7472  10.8714 0001569 158.0856 202.0387 14.19884439233512

#Time	Az	El	Level	Level2	SNR	BER	BlckErr	Temp	State	Recorded	gain1	gain2
2026-01-06 13:21:58.32	133.89	5.03	-50.2	-60.9	3.8	8.48e-01	0	41	0	0	71	11948
2026-01-06 13:22:01.33	133.76	5.24	-50.2	-61.0	3.8	8.47e-01	0	41	104	0	71	11981
2026-01-06 13:22:04.35	133.62	5.45	-50.2	-61.0	3.8	8.47e-01	0	41	104	0	71	12017
2026-01-06 13:22:07.36	133.49	5.66	-50.2	-60.7	3.8	8.47e-01	0	41	104	0	71	11648
2026-01-06 13:22:10.37	133.35	5.87	-50.1	-60.1	3.8	8.47e-01	0	41	104	0	71	10822
2026-01-06 13:22:13.39	133.21	6.09	-50.0	-59.2	3.8	8.45e-01	0	42	104	0	70	10349
2026-01-06 13:22:16.40	133.07	6.30	-49.9	-58.6	3.8	8.44e-01	0	42	104	0	70	9668
2026-01-06 13:22:19.41	132.93	6.52	-49.8	-58.6	3.8	8.45e-01	0	42	104	0	70	9714
2026-01-06 13:22:22.43	132.78	6.74	-50.1	-60.0	3.8	8.47e-01	0	42	104	0	70	11401
2026-01-06 13:22:25.44	132.63	6.96	-50.2	-60.8	3.8	8.46e-01	0	42	104	0	70	12473
2026-01-06 13:22:28.45	132.48	7.19	-49.7	-57.9	3.9	8.43e-01	0	42	104	0	70	8882
2026-01-06 13:22:31.46	132.33	7.41	-49.0	-54.8	5.4	7.45e-01	0	42	0	0	68	7026
2026-01-06 13:22:34.48	132.17	7.64	-47.4	-51.4	8.2	8.74e-02	0	42	0	18874368	65	5604
2026-01-06 13:22:37.49	132.01	7.86	-45.1	-47.7	12.1	3.78e-04	0	43	0	39845888	61	4611
2026-01-06 13:22:40.50	131.85	8.09	-42.8	-44.7	15.0	0.00e+00	0	42	0	61865984	56	4352
2026-01-06 13:22:43.51	131.69	8.33	-41.8	-43.6	15.9	0.00e+00	0	43	0	83886080	54	4301
2026-01-06 13:22:46.53	131.52	8.56	-42.3	-44.1	15.4	0.00e+00	0	42	0	105906176	54	4575
2026-01-06 13:22:49.54	131.35	8.80	-44.7	-47.0	12.6	5.60e-05	0	43	0	126877696	58	5096
2026-01-06 13:22:52.55	131.18	9.03	-47.5	-51.5	8.1	5.56e-02	0	43	0	148897792	64	5994
2026-01-06 13:22:55.56	131.00	9.27	-48.1	-52.7	6.9	4.69e-01	0	43	0	168820736	67	5838
2026-01-06 13:22:58.57	130.82	9.51	-48.0	-52.5	6.9	8.44e-01	0	43	104	183500800	67	5664
2026-01-06 13:23:01.58	130.64	9.76	-40.7	-42.2	17.3	0.00e+00	0	43	0	203423744	52	4142
2026-01-06 13:23:04.59	130.46	10.00	-40.2	-41.7	17.9	0.00e+00	0	43	0	225443840	51	4101
2026-01-06 13:23:07.60	130.27	10.25	-39.8	-41.3	18.2	0.00e+00	0	43	0	246415360	50	4176
2026-01-06 13:23:10.61	130.08	10.50	-39.6	-41.1	18.4	0.00e+00	0	43	0	268435456	49	4313
2026-01-06 13:23:13.62	129.88	10.75	-39.6	-41.1	18.5	0.00e+00	0	43	0	290455552	49	4293
2026-01-06 13:23:16.63	129.69	11.01	-39.4	-40.9	18.6	0.00e+00	0	43	0	312475648	49	4225
2026-01-06 13:23:19.63	129.48	11.27	-39.5	-41.0	18.5	0.00e+00	0	43	0	333447168	49	4254
2026-01-06 13:23:22.65	129.28	11.53	-39.3	-40.9	18.6	0.00e+00	0	43	0	355467264	49	4197
2026-01-06 13:23:25.66	129.07	11.79	-39.3	-40.8	18.7	0.00e+00	0	43	0	377487360	49	4165
2026-01-06 13:23:28.67	128.86	12.05	-39.2	-40.7	18.8	0.00e+00	0	43	0	398458880	48	4374
2026-01-06 13:23:31.68	128.64	12.32	-38.9	-40.3	19.2	0.00e+00	0	43	0	420478976	48	4175
2026-01-06 13:23:34.69	128.42	12.59	-38.9	-40.4	19.2	0.00e+00	0	43	0	442499072	48	4207
2026-01-06 13:23:37.69	128.19	12.86	-38.7	-40.1	19.4	0.00e+00	0	43	0	464519168	48	4072
2026-01-06 13:23:40.71	127.96	13.13	-38.3	-39.8	19.4	0.00e+00	0	43	0	485490688	47	4174
2026-01-06 13:23:43.71	127.73	13.41	-38.4	-39.9	19.4	0.00e+00	0	43	0	507510784	47	4205
2026-01-06 13:23:46.72	127.49	13.69	-38.6	-40.1	19.1	0.00e+00	0	43	0	529530880	47	4311
2026-01-06 13:23:49.73	127.25	13.97	-38.6	-40.1	19.1	0.00e+00	0	44	0	551550976	46	4555
2026-01-06 13:23:52.74	127.00	14.26	-38.5	-40.0	19.2	0.00e+00	0	43	0	572522496	46	4539
2026-01-06 13:23:55.75	126.74	14.55	-38.5	-40.0	19.2	0.00e+00	0	43	0	594542592	47	4259
2026-01-06 13:23:58.77	126.48	14.84	-38.5	-40.1	19.1	0.00e+00	0	43	0	615514112	47	4335
2026-01-06 13:24:01.78	126.22	15.13	-38.4	-39.9	19.3	0.00e+00	0	43	0	637534208	46	4471
2026-01-06 13:24:04.78	125.95	15.43	-38.2	-39.7	19.5	0.00e+00	0	44	0	659554304	46	4361
2026-01-06 13:24:07.79	125.68	15.73	-38.1	-39.5	19.7	0.00e+00	0	43	0	681574400	46	4285
2026-01-06 13:24:10.80	125.40	16.03	-38.0	-39.5	19.7	0.00e+00	0	44	0	702545920	46	4259
2026-01-06 13:24:13.81	125.11	16.34	-38.0	-39.4	19.7	0.00e+00	0	44	0	724566016	46	4240
2026-01-06 13:24:16.82	124.82	16.65	-37.9	-39.4	19.8	0.00e+00	0	44	0	746586112	46	4199
2026-01-06 13:24:19.83	124.52	16.96	-37.8	-39.3	19.9	0.00e+00	0	43	0	768606208	46	4158
2026-01-06 13:24:22.84	124.21	17.27	-37.7	-39.2	20.0	0.00e+00	0	43	0	789577728	46	4103
2026-01-06 13:24:25.85	123.90	17.59	-37.7	-39.1	20.1	0.00e+00	0	44	0	811597824	45	4321
2026-01-06 13:24:28.86	123.58	17.92	-37.7	-39.2	20.0	0.00e+00	0	44	0	833617920	45	4353
2026-01-06 13:24:31.87	123.26	18.24	-37.4	-38.8	20.3	0.00e+00	0	44	0	854589440	45	4158
2026-01-06 13:24:34.88	122.93	18.57	-37.2	-38.6	20.5	0.00e+00	0	44	0	876609536	45	4077
2026-01-06 13:24:37.89	122.59	18.90	-37.2	-38.5	20.6	0.00e+00	0	44	0	898629632	44	4281
2026-01-06 13:24:40.90	122.24	19.24	-37.0	-38.4	20.7	0.00e+00	0	44	0	920649728	44	4208
2026-01-06 13:24:43.91	121.88	19.58	-36.8	-38.1	20.9	0.00e+00	0	43	0	941621248	44	4093
2026-01-06 13:24:46.93	121.52	19.92	-36.8	-38.2	20.9	0.00e+00	0	43	0	963641344	44	4120
2026-01-06 13:24:49.93	121.14	20.26	-36.9	-38.2	20.8	0.00e+00	0	43	0	985661440	44	4135
2026-01-06 13:24:52.95	120.76	20.61	-36.9	-38.3	20.7	0.00e+00	0	43	0	1007681536	44	4191
2026-01-06 13:24:55.96	120.37	20.97	-36.8	-38.2	20.9	0.00e+00	0	44	0	1028653056	44	4102
2026-01-06 13:24:58.97	119.97	21.32	-36.4	-37.8	21.1	0.00e+00	0	44	0	1050673152	43	4158
2026-01-06 13:25:01.98	119.56	21.68	-35.9	-37.2	21.7	0.00e+00	0	44	0	1072693248	42	4102
2026-01-06 13:25:04.99	119.15	22.05	-36.3	-37.6	21.4	0.00e+00	0	44	0	1094713344	42	4293
2026-01-06 13:25:07.99	118.72	22.41	-36.0	-37.3	21.5	0.00e+00	0	44	0	1115684864	42	4177
2026-01-06 13:25:11.00	118.28	22.78	-36.1	-37.4	21.4	0.00e+00	0	44	0	1137704960	42	4229
2026-01-06 13:25:14.01	117.83	23.16	-36.2	-37.6	21.3	0.00e+00	0	44	0	1159725056	42	4308
2026-01-06 13:25:17.02	117.37	23.54	-36.3	-37.7	21.2	0.00e+00	0	44	0	1180696576	42	4341
2026-01-06 13:25:20.03	116.90	23.92	-36.5	-37.8	21.1	0.00e+00	0	44	0	1202716672	42	4439
2026-01-06 13:25:23.04	116.41	24.30	-36.1	-37.5	21.4	0.00e+00	0	44	0	1224736768	42	4245
2026-01-06 13:25:26.05	115.91	24.69	-36.3	-37.7	21.2	0.00e+00	0	44	0	1245708288	42	4343
2026-01-06 13:25:29.06	115.41	25.08	-36.1	-37.5	21.4	0.00e+00	0	44	0	1267728384	42	4257
2026-01-06 13:25:32.07	114.88	25.48	-36.0	-37.3	21.5	0.00e+00	0	44	0	1289748480	42	4187
2026-01-06 13:25:35.08	114.35	25.87	-36.0	-37.4	21.5	0.00e+00	0	44	0	1311768576	42	4205
2026-01-06 13:25:38.09	113.80	26.27	-36.2	-37.6	21.3	0.00e+00	0	44	0	1332740096	42	4313
2026-01-06 13:25:41.10	113.24	26.68	-36.5	-37.9	21.1	0.00e+00	0	44	0	1354760192	42	4453
2026-01-06 13:25:44.11	112.66	27.09	-36.9	-37.8	21.8	0.00e+00	0	44	0	1376780288	43	4152
2026-01-06 13:25:47.12	112.06	27.50	-36.8	-37.7	21.9	0.00e+00	0	44	0	1397751808	43	4109
2026-01-06 13:25:50.13	111.45	27.91	-36.7	-37.6	22.0	0.00e+00	0	44	0	1419771904	43	4052
2026-01-06 13:25:53.14	110.83	28.32	-36.6	-37.5	22.1	0.00e+00	0	44	0	1441792000	43	4009
2026-01-06 13:25:56.15	110.19	28.74	-36.4	-37.3	22.3	0.00e+00	0	44	0	1463812096	43	3926
2026-01-06 13:25:59.15	109.53	29.16	-36.1	-37.0	22.5	0.00e+00	0	44	0	1484783616	43	3787
2026-01-06 13:26:02.16	108.86	29.58	-36.2	-37.0	22.5	0.00e+00	0	44	0	1506803712	42	4031
2026-01-06 13:26:05.17	108.16	30.00	-35.9	-36.7	22.7	0.00e+00	0	44	0	1528823808	42	3913
2026-01-06 13:26:08.18	107.45	30.43	-35.9	-36.7	22.7	0.00e+00	0	44	0	1550843904	42	3907
2026-01-06 13:26:11.19	106.72	30.85	-36.0	-36.8	22.7	0.00e+00	0	44	0	1571815424	42	3945
2026-01-06 13:26:14.20	105.97	31.28	-36.0	-36.9	22.6	0.00e+00	0	44	0	1593835520	42	3963
2026-01-06 13:26:17.20	105.20	31.70	-36.3	-37.2	22.4	0.00e+00	0	44	0	1615855616	42	4108
2026-01-06 13:26:20.21	104.40	32.13	-36.3	-37.2	22.4	0.00e+00	0	44	0	1636827136	42	4124
2026-01-06 13:26:23.22	103.59	32.55	-36.5	-37.3	22.3	0.00e+00	0	44	0	1658847232	42	4186
2026-01-06 13:26:26.23	102.75	32.98	-36.2	-37.0	22.5	0.00e+00	0	44	0	1680867328	42	4034
2026-01-06 13:26:29.24	101.90	33.40	-35.8	-36.7	22.9	0.00e+00	0	44	0	1702887424	42	3884
2026-01-06 13:26:32.25	101.02	33.83	-35.9	-36.8	22.7	0.00e+00	0	44	0	1723858944	42	3925
2026-01-06 13:26:35.26	100.11	34.25	-36.2	-37.0	22.5	0.00e+00	0	44	0	1745879040	42	4043
2026-01-06 13:26:38.27	99.19	34.67	-36.1	-36.9	22.7	0.00e+00	0	44	0	1767899136	42	3981
2026-01-06 13:26:41.29	98.23	35.08	-36.0	-36.9	22.7	0.00e+00	0	44	0	1789919232	42	3965
2026-01-06 13:26:44.30	97.26	35.49	-36.1	-37.0	22.6	0.00e+00	0	44	0	1810890752	42	4009
2026-01-06 13:26:47.31	96.26	35.90	-36.2	-37.1	22.5	0.00e+00	0	44	0	1832910848	42	4077
2026-01-06 13:26:50.32	95.23	36.30	-36.3	-37.1	22.5	0.00e+00	0	44	0	1853882368	42	4092
2026-01-06 13:26:53.33	94.18	36.70	-36.2	-37.1	22.5	0.00e+00	0	44	0	1875902464	42	4052
2026-01-06 13:26:56.34	93.10	37.09	-36.2	-37.0	22.6	0.00e+00	0	44	0	1897922560	42	4035
2026-01-06 13:26:59.35	92.00	37.47	-35.9	-36.7	22.8	0.00e+00	0	44	0	1919942656	42	3905
2026-01-06 13:27:02.36	90.87	37.84	-36.2	-37.1	22.4	0.00e+00	0	44	0	1940914176	42	4054
2026-01-06 13:27:05.37	89.71	38.20	-36.7	-37.6	22.1	0.00e+00	0	44	0	1962934272	43	4068
2026-01-06 13:27:08.38	88.53	38.56	-36.4	-37.3	22.4	0.00e+00	0	44	0	1984954368	43	3915
2026-01-06 13:27:11.39	87.33	38.90	-36.2	-37.1	22.5	0.00e+00	0	44	0	2006974464	43	3839
2026-01-06 13:27:14.40	86.10	39.24	-36.2	-37.1	22.5	0.00e+00	0	44	0	2027945984	43	3834
2026-01-06 13:27:17.41	84.84	39.56	-36.5	-37.4	22.3	0.00e+00	0	44	0	2049966080	43	3972
2026-01-06 13:27:20.42	83.56	39.86	-36.7	-37.6	22.0	0.00e+00	0	44	0	2071986176	43	4096
2026-01-06 13:27:23.43	82.25	40.16	-36.7	-37.6	22.1	0.00e+00	0	44	0	2094006272	43	4063
2026-01-06 13:27:26.44	80.93	40.44	-36.3	-37.2	22.4	0.00e+00	0	44	0	2114977792	43	3878
2026-01-06 13:27:29.45	79.58	40.70	-36.2	-37.0	22.6	0.00e+00	0	44	0	2136997888	42	4036
2026-01-06 13:27:32.45	78.21	40.94	-36.2	-37.1	22.5	0.00e+00	0	44	0	2159017984	42	4068
2026-01-06 13:27:35.46	76.82	41.17	-36.4	-37.3	22.4	0.00e+00	0	44	0	2179989504	42	4148
2026-01-06 13:27:38.47	75.40	41.38	-36.3	-37.2	22.5	0.00e+00	0	44	0	2202009600	42	4102
2026-01-06 13:27:41.48	73.98	41.57	-36.5	-37.4	22.3	0.00e+00	0	44	0	2224029696	42	4202
2026-01-06 13:27:44.49	72.53	41.75	-36.5	-37.4	22.3	0.00e+00	0	44	0	2246049792	42	4201
2026-01-06 13:27:47.50	71.07	41.90	-36.5	-37.4	22.3	0.00e+00	0	44	0	2267021312	42	4229
2026-01-06 13:27:50.51	69.60	42.03	-36.0	-36.8	22.8	0.00e+00	0	44	0	2289041408	42	3938
2026-01-06 13:27:53.52	68.12	42.14	-36.0	-36.9	22.7	0.00e+00	0	44	0	2311061504	42	3960
2026-01-06 13:27:56.53	66.62	42.23	-36.2	-37.0	22.6	0.00e+00	0	44	0	2333081600	42	4041
2026-01-06 13:27:59.54	65.12	42.30	-36.2	-37.0	22.6	0.00e+00	0	44	0	2354053120	42	4033
2026-01-06 13:28:02.55	63.62	42.34	-36.1	-37.0	22.7	0.00e+00	0	44	0	2376073216	42	4014
2026-01-06 13:28:05.56	62.11	42.37	-36.3	-37.1	22.5	0.00e+00	0	44	0	2398093312	42	4084
2026-01-06 13:28:08.57	60.60	42.37	-36.1	-37.0	22.6	0.00e+00	0	44	0	2419064832	42	4009
2026-01-06 13:28:11.58	59.09	42.34	-35.9	-36.8	22.8	0.00e+00	0	44	0	2441084928	42	3921
2026-01-06 13:28:14.59	57.59	42.30	-36.1	-36.9	22.7	0.00e+00	0	44	0	2463105024	42	3989
2026-01-06 13:28:17.60	56.09	42.23	-36.3	-37.1	22.5	0.00e+00	0	44	0	2484076544	42	4095
2026-01-06 13:28:20.61	54.60	42.14	-36.5	-37.4	22.3	0.00e+00	0	44	0	2506096640	42	4204
2026-01-06 13:28:23.61	53.12	42.04	-36.3	-37.1	22.6	0.00e+00	0	44	0	2528116736	42	4070
2026-01-06 13:28:26.62	51.65	41.90	-36.5	-37.4	22.3	0.00e+00	0	44	0	2550136832	42	4214
2026-01-06 13:28:29.63	50.19	41.75	-36.2	-37.0	22.6	0.00e+00	0	44	0	2571108352	42	4027
2026-01-06 13:28:32.64	48.74	41.58	-36.3	-37.1	22.5	0.00e+00	0	44	0	2593128448	42	4082
2026-01-06 13:28:35.64	47.32	41.39	-36.0	-36.8	22.7	0.00e+00	0	44	0	2615148544	42	3955
2026-01-06 13:28:38.65	45.91	41.18	-35.9	-36.7	22.9	0.00e+00	0	44	0	2636120064	42	3913
2026-01-06 13:28:41.66	44.52	40.95	-36.1	-36.9	22.7	0.00e+00	0	44	0	2658140160	42	3993
2026-01-06 13:28:44.67	43.15	40.71	-36.0	-36.8	22.8	0.00e+00	0	44	0	2680160256	42	3930
2026-01-06 13:28:47.68	41.80	40.45	-35.7	-36.5	23.0	0.00e+00	0	44	0	2702180352	42	3823
2026-01-06 13:28:50.69	40.47	40.17	-36.1	-37.0	22.7	0.00e+00	0	44	0	2723151872	42	4015
2026-01-06 13:28:53.70	39.17	39.88	-36.0	-36.9	22.7	0.00e+00	0	44	0	2745171968	42	3970
2026-01-06 13:28:56.71	37.89	39.57	-36.2	-37.1	22.5	0.00e+00	0	44	0	2767192064	42	4065
2026-01-06 13:28:59.72	36.64	39.25	-36.4	-37.3	22.3	0.00e+00	0	44	0	2788163584	42	4170
2026-01-06 13:29:02.73	35.41	38.92	-36.1	-36.9	22.7	0.00e+00	0	44	0	2810183680	42	3982
2026-01-06 13:29:05.74	34.20	38.58	-36.4	-37.2	22.3	0.00e+00	0	44	0	2832203776	42	4143
2026-01-06 13:29:08.75	33.03	38.23	-36.1	-37.0	22.6	0.00e+00	0	44	0	2854223872	42	4008
2026-01-06 13:29:11.77	31.87	37.86	-36.0	-36.9	22.7	0.00e+00	0	44	0	2875195392	42	3972
2026-01-06 13:29:14.78	30.74	37.49	-36.4	-37.2	22.4	0.00e+00	0	44	0	2897215488	42	4134
2026-01-06 13:29:17.78	29.65	37.11	-35.9	-36.8	22.7	0.00e+00	0	44	0	2919235584	42	3922
2026-01-06 13:29:20.79	28.57	36.73	-35.9	-36.7	22.8	0.00e+00	0	44	0	2941255680	42	3906
2026-01-06 13:29:23.80	27.52	36.33	-35.8	-36.6	22.9	0.00e+00	0	44	0	2962227200	42	3859
2026-01-06 13:29:26.82	26.49	35.93	-36.1	-36.9	22.7	0.00e+00	0	44	0	2984247296	42	3985
2026-01-06 13:29:29.83	25.50	35.53	-36.1	-36.9	22.7	0.00e+00	0	44	0	3006267392	42	3989
2026-01-06 13:29:32.84	24.52	35.12	-35.8	-36.6	22.9	0.00e+00	0	44	0	3028287488	42	3857
2026-01-06 13:29:35.85	23.57	34.70	-35.8	-36.6	23.0	0.00e+00	0	44	0	3049259008	42	3844
2026-01-06 13:29:38.86	22.65	34.29	-35.9	-36.7	22.8	0.00e+00	0	44	0	3071279104	42	3912
2026-01-06 13:29:41.87	21.75	33.87	-36.0	-36.8	22.7	0.00e+00	0	44	0	3092250624	42	3943
2026-01-06 13:29:44.88	20.87	33.45	-35.9	-36.7	22.8	0.00e+00	0	44	0	3114270720	42	3909
2026-01-06 13:29:47.89	20.01	33.02	-36.0	-36.9	22.7	0.00e+00	0	44	0	3136290816	42	3970
2026-01-06 13:29:50.90	19.18	32.60	-35.8	-36.7	22.9	0.00e+00	0	44	0	3158310912	42	3885
2026-01-06 13:29:53.91	18.37	32.18	-35.6	-36.5	23.0	0.00e+00	0	44	0	3179282432	42	3785
2026-01-06 13:29:56.92	17.58	31.75	-35.9	-36.8	22.7	0.00e+00	0	44	0	3201302528	41	4161
2026-01-06 13:29:59.93	16.81	31.33	-36.2	-37.0	22.5	0.00e+00	0	44	0	3223322624	41	4270
2026-01-06 13:30:02.94	16.06	30.90	-36.5	-37.4	22.3	0.00e+00	0	44	0	3245342720	42	4227
2026-01-06 13:30:05.95	15.33	30.48	-36.3	-37.1	22.5	0.00e+00	0	44	0	3266314240	42	4094
2026-01-06 13:30:08.96	14.62	30.06	-36.1	-36.9	22.7	0.00e+00	0	44	0	3288334336	42	3995
2026-01-06 13:30:11.97	13.93	29.64	-36.0	-36.9	22.7	0.00e+00	0	44	0	3310354432	42	3969
2026-01-06 13:30:14.98	13.25	29.22	-36.1	-37.0	22.6	0.00e+00	0	44	0	3332374528	42	4019
2026-01-06 13:30:18.00	12.59	28.80	-36.4	-37.2	22.4	0.00e+00	0	44	0	3353346048	42	4127
2026-01-06 13:30:21.01	11.96	28.38	-36.4	-37.3	22.3	0.00e+00	0	44	0	3375366144	42	4165
2026-01-06 13:30:24.02	11.33	27.97	-36.5	-37.3	22.3	0.00e+00	0	44	0	3397386240	42	4188
2026-01-06 13:30:27.03	10.73	27.56	-36.7	-37.5	22.1	0.00e+00	0	44	0	3419406336	42	4285
2026-01-06 13:30:30.04	10.14	27.15	-36.5	-37.4	22.2	0.00e+00	0	44	0	3440377856	42	4225
2026-01-06 13:30:33.05	9.56	26.74	-36.5	-37.4	22.3	0.00e+00	0	44	0	3462397952	42	4197
2026-01-06 13:30:36.06	9.00	26.34	-36.6	-37.4	22.2	0.00e+00	0	44	0	3484418048	42	4234
2026-01-06 13:30:39.07	8.45	25.94	-36.6	-37.5	22.2	0.00e+00	0	44	0	3505389568	42	4258
2026-01-06 13:30:42.08	7.92	25.55	-36.8	-37.7	22.0	0.00e+00	0	44	0	3527409664	43	4111
2026-01-06 13:30:45.09	7.40	25.15	-36.4	-37.2	22.3	0.00e+00	0	44	0	3549429760	43	3902
2026-01-06 13:30:48.10	6.89	24.76	-36.2	-37.1	22.5	0.00e+00	0	44	0	3571449856	43	3833
2026-01-06 13:30:51.11	6.40	24.38	-36.5	-37.3	22.2	0.00e+00	0	44	0	3592421376	43	3952
2026-01-06 13:30:54.12	5.91	23.99	-36.7	-37.6	22.0	0.00e+00	0	44	0	3614441472	43	4087
2026-01-06 13:30:57.13	5.44	23.61	-36.7	-37.6	22.0	0.00e+00	0	44	0	3636461568	43	4097
2026-01-06 13:31:00.14	4.99	23.24	-36.7	-37.6	22.0	0.00e+00	0	44	0	3658481664	43	4057
2026-01-06 13:31:03.15	4.54	22.86	-36.6	-37.5	22.0	0.00e+00	0	44	0	3679453184	43	4031
2026-01-06 13:31:06.16	4.10	22.50	-36.5	-37.4	22.1	0.00e+00	0	44	0	3701473280	43	3977
2026-01-06 13:31:09.17	3.67	22.13	-36.6	-37.5	22.1	0.00e+00	0	44	0	3722444800	43	4010
2026-01-06 13:31:12.17	3.26	21.77	-36.8	-37.8	21.8	0.00e+00	0	44	0	3744464896	43	4156
2026-01-06 13:31:15.18	2.85	21.41	-37.1	-38.0	21.6	0.00e+00	0	44	0	3766484992	43	4270
2026-01-06 13:31:18.19	2.46	21.05	-37.4	-38.3	21.5	0.00e+00	0	44	0	3788505088	44	4160
2026-01-06 13:31:21.20	2.07	20.70	-37.5	-38.4	21.3	0.00e+00	0	44	0	3809476608	44	4227
2026-01-06 13:31:24.21	1.69	20.35	-37.7	-38.7	21.1	0.00e+00	0	44	0	3831496704	44	4347
2026-01-06 13:31:27.22	1.32	20.01	-37.7	-38.7	21.1	0.00e+00	0	44	0	3853516800	45	4109
2026-01-06 13:31:30.23	0.96	19.67	-37.6	-38.6	21.2	0.00e+00	0	44	0	3875536896	45	4056
2026-01-06 13:31:33.23	0.60	19.33	-37.4	-38.3	21.4	0.00e+00	0	44	0	3896508416	45	3942
2026-01-06 13:31:36.24	0.26	19.00	-37.2	-38.1	21.7	0.00e+00	0	44	0	3918528512	45	3830
2026-01-06 13:31:39.25	359.92	18.67	-37.2	-38.1	21.6	0.00e+00	0	44	0	3940548608	45	3857
2026-01-06 13:31:42.26	359.59	18.34	-37.4	-38.4	21.3	0.00e+00	0	44	0	3961520128	45	3959
2026-01-06 13:31:45.27	359.27	18.01	-37.6	-38.6	21.1	0.00e+00	0	44	0	3983540224	45	4088
2026-01-06 13:31:48.28	358.95	17.69	-37.9	-38.9	20.9	0.00e+00	0	44	0	4005560320	45	4232
2026-01-06 13:31:51.29	358.64	17.38	-37.9	-38.9	20.9	0.00e+00	0	44	0	4027580416	45	4214
2026-01-06 13:31:54.30	358.34	17.06	-37.8	-38.9	20.9	0.00e+00	0	44	0	4048551936	45	4218
2026-01-06 13:31:57.31	358.04	16.75	-37.8	-38.8	20.9	0.00e+00	0	44	0	4070572032	45	4180
2026-01-06 13:32:00.32	357.75	16.44	-38.1	-39.1	20.7	0.00e+00	0	44	0	4092592128	45	4302
2026-01-06 13:32:03.33	357.47	16.14	-38.2	-39.1	20.6	0.00e+00	0	44	0	4114612224	45	4340
2026-01-06 13:32:06.34	357.19	15.84	-38.4	-39.4	20.4	0.00e+00	0	44	0	4135583744	46	4196
2026-01-06 13:32:09.35	356.92	15.54	-38.5	-39.6	20.2	0.00e+00	0	44	0	4157603840	46	4300
2026-01-06 13:32:12.36	356.65	15.24	-38.7	-39.7	20.0	0.00e+00	0	44	0	4179623936	46	4375
2026-01-06 13:32:15.37	356.39	14.95	-38.9	-39.9	19.8	0.00e+00	0	44	0	4200595456	47	4236
2026-01-06 13:32:18.39	356.13	14.66	-38.8	-39.9	19.9	0.00e+00	0	44	0	4222615552	47	4207
2026-01-06 13:32:21.40	355.88	14.37	-38.9	-40.0	19.8	0.00e+00	0	44	0	4244635648	47	4252
2026-01-06 13:32:24.41	355.64	14.08	-39.1	-40.2	19.6	0.00e+00	0	44	0	4265607168	47	4352
2026-01-06 13:32:27.42	355.39	13.80	-39.2	-40.3	19.5	0.00e+00	0	44	0	4287627264	47	4402
2026-01-06 13:32:30.43	355.16	13.52	-39.2	-40.3	19.5	0.00e+00	0	44	0	4309647360	47	4409
2026-01-06 13:32:33.44	354.93	13.25	-39.3	-40.5	19.6	0.00e+00	0	44	0	4331667456	48	4252
2026-01-06 13:32:36.45	354.70	12.97	-39.2	-40.5	19.6	0.00e+00	0	44	0	4352638976	48	4247
2026-01-06 13:32:39.45	354.48	12.70	-39.2	-40.5	19.5	0.00e+00	0	44	0	4374659072	48	4284
2026-01-06 13:32:42.46	354.26	12.43	-39.3	-40.5	19.5	0.00e+00	0	44	0	4396679168	48	4270
2026-01-06 13:32:45.47	354.04	12.17	-39.4	-40.6	19.4	0.00e+00	0	44	0	4417650688	48	4308
2026-01-06 13:32:48.48	353.83	11.90	-39.7	-40.9	19.2	0.00e+00	0	44	0	4439670784	48	4445
2026-01-06 13:32:51.49	353.63	11.64	-39.6	-40.8	19.2	0.00e+00	0	44	0	4461690880	48	4417
2026-01-06 13:32:54.50	353.42	11.38	-39.7	-41.0	19.0	0.00e+00	0	44	0	4483710976	48	4500
2026-01-06 13:32:57.51	353.22	11.13	-39.6	-41.0	19.0	0.00e+00	0	44	0	4504682496	48	4532
2026-01-06 13:33:00.52	353.03	10.87	-39.7	-41.2	18.8	0.00e+00	0	44	0	4526702592	48	4634
2026-01-06 13:33:03.53	352.84	10.62	-39.7	-41.2	18.7	0.00e+00	0	44	0	4548722688	49	4381
2026-01-06 13:33:06.54	352.65	10.37	-39.9	-41.3	18.7	0.00e+00	0	44	0	4570742784	49	4435
2026-01-06 13:33:09.55	352.46	10.12	-40.2	-41.7	18.3	0.00e+00	0	44	0	4591714304	49	4606
2026-01-06 13:33:12.56	352.28	9.88	-40.2	-41.5	18.5	0.00e+00	0	44	0	4613734400	50	4269
2026-01-06 13:33:15.57	352.10	9.64	-40.3	-41.6	18.4	0.00e+00	0	44	0	4635754496	50	4317
2026-01-06 13:33:18.58	351.93	9.40	-40.4	-41.7	18.3	0.00e+00	0	44	0	4657774592	50	4342
2026-01-06 13:33:21.59	351.76	9.16	-40.4	-41.7	18.2	0.00e+00	0	44	0	4678746112	50	4389
2026-01-06 13:33:24.61	351.59	8.92	-47.7	-60.4	3.8	8.44e-01	0	44	104	4696571904	64	16876
2026-01-06 13:33:27.62	351.42	8.68	-50.6	-61.6	3.8	8.46e-01	0	44	104	4696571904	70	13588
2026-01-06 13:33:30.63	351.26	8.45	-50.9	-61.8	3.8	8.47e-01	0	44	104	4696571904	71	13188
2026-01-06 13:33:33.64	351.10	8.22	-50.1	-61.8	3.8	8.47e-01	0	44	104	4696571904	70	14018
2026-01-06 13:33:36.65	350.94	7.99	-51.0	-61.8	3.8	8.47e-01	0	44	104	4696571904	71	13237
2026-01-06 13:33:39.67	350.78	7.76	-50.9	-61.8	3.8	8.48e-01	0	44	104	4696571904	71	13260
2026-01-06 13:33:42.68	350.63	7.54	-51.0	-61.8	3.8	8.47e-01	0	44	104	4696571904	71	13225
2026-01-06 13:33:45.69	350.48	7.31	-51.1	-61.8	3.8	8.47e-01	0	44	104	4696571904	71	13247
2026-01-06 13:33:48.70	350.33	7.09	-51.1	-61.8	3.8	8.47e-01	0	44	104	4696571904	71	13170
2026-01-06 13:33:51.72	350.18	6.87	-51.0	-61.8	3.8	8.46e-01	0	44	104	4696571904	71	132
