passes_logs/2026/01/06/T1/T1__20260106_091512_NOAA_20_JPSS-1_rec.log

#Pass ID: 20260106_091512_NOAA 20 (JPSS-1)
#Satellite: NOAA 20 (JPSS-1)
#Configuration: NOAA 20
#almurnet v.1.7.20251203
#Start time: 2026-01-06 09:15:12

#Version: 2.0.20230620
#Station: T1
#Location: 37.570604 lon 55.790049 lat
#TLE: 1 43013U 17073A   26005.46207808  .00000128  00000+0  81791-4 0  9997
#TLE: 2 43013  98.7627 306.5027 0001826  53.0458 307.0885 14.19533487421381

#Time	Az	El	Level	Level2	SNR	BER	BlckErr	Temp	State	Recorded	gain1	gain2
2026-01-06 09:15:12.28	139.18	5.02	-52.5	-67.7	3.8	1.49e+00	0	41	0	0	77	19773
2026-01-06 09:15:15.25	139.08	5.23	-52.5	-67.6	3.8	1.49e+00	0	41	104	0	77	19407
2026-01-06 09:15:18.22	138.97	5.44	-52.5	-67.4	3.8	1.49e+00	0	41	104	0	77	19117
2026-01-06 09:15:21.22	138.87	5.65	-52.5	-67.3	3.8	1.49e+00	0	41	104	0	76	19886
2026-01-06 09:15:24.21	138.76	5.86	-52.5	-66.8	3.8	1.49e+00	0	41	104	0	76	18841
2026-01-06 09:15:27.21	138.65	6.08	-52.4	-66.2	3.8	1.49e+00	0	41	104	0	76	17508
2026-01-06 09:15:30.21	138.53	6.30	-52.4	-66.1	3.8	1.49e+00	0	41	104	0	76	17377
2026-01-06 09:15:33.20	138.42	6.52	-52.5	-66.9	3.8	1.49e+00	0	42	104	0	76	19144
2026-01-06 09:15:36.20	138.30	6.74	-52.5	-67.7	3.8	1.49e+00	0	41	104	0	76	20844
2026-01-06 09:15:39.19	138.18	6.97	-52.4	-66.7	3.8	1.49e+00	0	42	104	0	76	18634
2026-01-06 09:15:42.18	138.06	7.19	-52.3	-64.4	4.1	1.44e+00	0	42	0	0	76	14361
2026-01-06 09:15:45.18	137.94	7.42	-52.1	-62.3	4.9	7.93e-01	0	42	0	3145728	76	11266
2026-01-06 09:15:48.17	137.82	7.65	-51.6	-59.4	7.0	1.89e-01	0	42	0	8388608	75	8504
2026-01-06 09:15:51.17	137.69	7.88	-50.7	-56.4	10.0	1.38e-02	0	42	0	14680064	73	6746
2026-01-06 09:15:54.16	137.56	8.11	-49.9	-54.5	12.0	4.55e-04	0	42	0	19922944	71	6068
2026-01-06 09:15:57.16	137.43	8.35	-49.7	-54.2	12.3	1.65e-04	0	42	0	25165824	71	5900
2026-01-06 09:16:00.16	137.30	8.59	-50.4	-55.6	10.9	1.64e-03	0	42	0	31457280	71	6915
2026-01-06 09:16:03.15	137.16	8.83	-51.3	-58.6	7.8	5.22e-02	0	42	0	36700160	73	8691
2026-01-06 09:16:06.14	137.03	9.07	-52.1	-62.6	4.8	7.17e-01	0	42	0	42991616	74	12974
2026-01-06 09:16:09.14	136.88	9.31	-51.9	-61.8	5.1	5.83e-01	0	42	0	47185920	75	11221
2026-01-06 09:16:12.13	136.74	9.56	-50.0	-54.9	11.6	7.62e-01	0	42	0	50331648	71	6364
2026-01-06 09:16:15.12	136.60	9.81	-47.6	-50.7	15.8	0.00e+00	0	42	0	56623104	67	4962
2026-01-06 09:16:18.11	136.45	10.06	-47.7	-50.8	15.7	0.00e+00	0	42	0	61865984	67	5031
2026-01-06 09:16:21.10	136.30	10.31	-47.5	-50.5	16.1	0.00e+00	0	42	0	67108864	66	5124
2026-01-06 09:16:24.10	136.15	10.57	-47.2	-50.2	16.4	0.00e+00	0	42	0	73400320	66	4931
2026-01-06 09:16:27.11	135.99	10.83	-47.2	-50.0	16.5	0.00e+00	0	42	0	78643200	66	4854
2026-01-06 09:16:30.11	135.83	11.09	-47.1	-49.9	16.6	0.00e+00	0	43	0	83886080	66	4793
2026-01-06 09:16:33.11	135.67	11.35	-46.9	-49.6	16.9	0.00e+00	0	43	0	90177536	65	4905
2026-01-06 09:16:36.11	135.50	11.62	-46.9	-49.7	16.9	0.00e+00	0	43	0	95420416	65	4929
2026-01-06 09:16:39.11	135.33	11.89	-47.0	-49.8	16.8	0.00e+00	0	43	0	100663296	65	5016
2026-01-06 09:16:42.11	135.16	12.16	-47.0	-49.9	16.7	0.00e+00	0	43	0	106954752	65	5047
2026-01-06 09:16:45.11	134.99	12.44	-46.8	-49.6	17.0	0.00e+00	0	43	0	112197632	65	4880
2026-01-06 09:16:48.09	134.81	12.71	-46.7	-49.4	17.2	0.00e+00	0	43	0	118489088	65	4769
2026-01-06 09:16:51.09	134.63	12.99	-46.6	-49.2	17.4	0.00e+00	0	43	0	123731968	65	4682
2026-01-06 09:16:54.08	134.44	13.28	-46.7	-49.4	17.3	0.00e+00	0	43	0	128974848	65	4764
2026-01-06 09:16:57.08	134.25	13.56	-46.7	-49.3	17.3	0.00e+00	0	43	0	135266304	65	4759
2026-01-06 09:17:00.08	134.06	13.85	-46.6	-49.2	17.5	0.00e+00	0	43	0	140509184	65	4679
2026-01-06 09:17:03.06	133.86	14.14	-46.6	-49.3	17.4	0.00e+00	0	43	0	145752064	65	4712
2026-01-06 09:17:06.06	133.66	14.44	-46.5	-49.1	17.5	0.00e+00	0	43	0	152043520	65	4650
2026-01-06 09:17:09.05	133.45	14.74	-46.5	-49.1	17.5	0.00e+00	0	43	0	157286400	64	4924
2026-01-06 09:17:12.05	133.24	15.04	-46.7	-49.3	17.4	0.00e+00	0	43	0	162529280	64	5026
2026-01-06 09:17:15.04	133.03	15.34	-46.4	-49.0	17.7	0.00e+00	0	43	0	168820736	64	4842
2026-01-06 09:17:18.04	132.81	15.65	-46.3	-48.8	17.8	0.00e+00	0	43	0	174063616	64	4749
2026-01-06 09:17:21.03	132.59	15.97	-46.5	-49.2	17.6	0.00e+00	0	43	0	179306496	64	4928
2026-01-06 09:17:24.02	132.36	16.28	-46.5	-49.1	17.6	0.00e+00	0	43	0	185597952	64	4879
2026-01-06 09:17:27.02	132.13	16.60	-46.2	-48.7	17.9	0.00e+00	0	43	0	190840832	64	4700
2026-01-06 09:17:30.01	131.89	16.92	-46.4	-48.9	17.8	0.00e+00	0	43	0	196083712	64	4799
2026-01-06 09:17:33.01	131.64	17.25	-46.5	-49.1	17.7	0.00e+00	0	43	0	202375168	64	4876
2026-01-06 09:17:36.00	131.39	17.58	-46.4	-48.9	17.8	0.00e+00	0	43	0	207618048	64	4790
2026-01-06 09:17:38.99	131.14	17.92	-46.6	-49.2	17.6	0.00e+00	0	43	0	213909504	64	4931
2026-01-06 09:17:41.98	130.88	18.25	-46.8	-49.5	17.3	0.00e+00	0	43	0	219152384	64	5102
2026-01-06 09:17:44.98	130.61	18.60	-46.6	-49.3	17.5	0.00e+00	0	43	0	224395264	64	4987
2026-01-06 09:17:47.98	130.34	18.95	-46.9	-49.6	17.2	0.00e+00	0	43	0	230686720	64	5174
2026-01-06 09:17:50.97	130.06	19.30	-47.1	-49.9	16.9	0.00e+00	0	43	0	235929600	64	5346
2026-01-06 09:17:53.96	129.77	19.65	-47.0	-49.7	17.1	0.00e+00	0	43	0	241172480	65	4938
2026-01-06 09:17:56.94	129.48	20.01	-47.1	-49.9	16.9	0.00e+00	0	43	0	247463936	65	5054
2026-01-06 09:17:59.93	129.18	20.37	-47.2	-50.0	16.8	0.00e+00	0	43	0	252706816	65	5120
2026-01-06 09:18:02.91	128.87	20.74	-47.3	-50.1	16.7	0.00e+00	0	43	0	257949696	65	5182
2026-01-06 09:18:05.90	128.56	21.11	-47.4	-50.1	16.6	0.00e+00	0	43	0	264241152	65	5217
2026-01-06 09:18:08.90	128.23	21.49	-47.2	-49.9	16.9	0.00e+00	0	43	0	269484032	65	5058
2026-01-06 09:18:11.88	127.90	21.87	-47.4	-50.3	16.5	0.00e+00	0	43	0	274726912	65	5316
2026-01-06 09:18:14.87	127.56	22.26	-47.4	-50.2	16.6	0.00e+00	0	43	0	281018368	65	5271
2026-01-06 09:18:17.86	127.21	22.65	-47.1	-49.9	16.9	0.00e+00	0	43	0	286261248	65	5061
2026-01-06 09:18:20.86	126.85	23.05	-47.2	-50.2	16.6	0.00e+00	0	43	0	291504128	65	5246
2026-01-06 09:18:23.85	126.49	23.45	-47.2	-50.1	16.8	0.00e+00	0	43	0	297795584	65	5178
2026-01-06 09:18:26.84	126.11	23.86	-47.3	-50.1	16.7	0.00e+00	0	43	0	303038464	65	5173
2026-01-06 09:18:29.83	125.72	24.27	-47.4	-50.3	16.6	0.00e+00	0	43	0	309329920	65	5282
2026-01-06 09:18:32.82	125.32	24.69	-47.2	-50.0	16.8	0.00e+00	0	43	0	314572800	65	5110
2026-01-06 09:18:35.81	124.91	25.11	-47.2	-50.0	16.8	0.00e+00	0	43	0	319815680	65	5153
2026-01-06 09:18:38.80	124.49	25.54	-47.3	-50.0	16.8	0.00e+00	0	43	0	326107136	65	5150
2026-01-06 09:18:41.79	124.06	25.97	-47.3	-50.2	16.7	0.00e+00	0	43	0	331350016	65	5223
2026-01-06 09:18:44.77	123.62	26.40	-47.4	-50.3	16.6	0.00e+00	0	43	0	336592896	65	5283
2026-01-06 09:18:47.76	123.16	26.85	-47.4	-50.2	16.7	0.00e+00	0	43	0	342884352	65	5258
2026-01-06 09:18:50.75	122.69	27.29	-47.3	-50.0	16.8	0.00e+00	0	43	0	348127232	65	5157
2026-01-06 09:18:53.74	122.21	27.75	-47.5	-50.3	16.6	0.00e+00	0	43	0	353370112	65	5310
2026-01-06 09:18:56.73	121.71	28.21	-47.5	-50.4	16.5	0.00e+00	0	43	0	359661568	65	5368
2026-01-06 09:18:59.72	121.20	28.67	-47.6	-50.5	16.4	0.00e+00	0	43	0	364904448	66	5121
2026-01-06 09:19:02.71	120.67	29.14	-47.3	-50.1	16.8	0.00e+00	0	43	0	370147328	66	4919
2026-01-06 09:19:05.69	120.13	29.61	-47.3	-50.2	16.7	0.00e+00	0	43	0	376438784	66	4935
2026-01-06 09:19:08.68	119.57	30.09	-47.6	-50.5	16.4	0.00e+00	0	43	0	381681664	66	5150
2026-01-06 09:19:11.68	119.00	30.57	-48.3	-51.4	15.5	0.00e+00	0	43	0	386924544	67	5389
2026-01-06 09:19:14.66	118.40	31.06	-48.6	-51.9	15.2	0.00e+00	0	43	0	393216000	67	5659
2026-01-06 09:19:17.65	117.79	31.55	-48.9	-52.4	14.8	0.00e+00	0	43	0	398458880	68	5657
2026-01-06 09:19:20.63	117.16	32.05	-48.9	-52.3	14.8	7.00e-07	0	43	0	403701760	68	5650
2026-01-06 09:19:23.63	116.51	32.55	-48.9	-52.3	14.8	0.00e+00	0	43	0	409993216	68	5623
2026-01-06 09:19:26.62	115.83	33.05	-48.9	-52.4	14.7	7.00e-07	0	43	0	415236096	68	5698
2026-01-06 09:19:29.60	115.14	33.56	-49.0	-52.5	14.6	7.00e-07	0	43	0	420478976	68	5751
2026-01-06 09:19:32.59	114.43	34.08	-49.1	-52.6	14.5	0.00e+00	0	43	0	426770432	68	5797
2026-01-06 09:19:35.58	113.69	34.59	-48.8	-52.2	15.0	0.00e+00	0	43	0	432013312	68	5545
2026-01-06 09:19:38.57	112.92	35.11	-48.8	-52.1	15.1	0.00e+00	0	43	0	437256192	68	5505
2026-01-06 09:19:41.56	112.13	35.63	-48.7	-52.0	15.2	0.00e+00	0	43	0	443547648	68	5446
2026-01-06 09:19:44.55	111.32	36.16	-48.3	-51.4	15.7	0.00e+00	0	43	0	448790528	68	5076
2026-01-06 09:19:47.53	110.48	36.68	-48.3	-51.4	15.8	0.00e+00	0	43	0	454033408	68	5074
2026-01-06 09:19:50.52	109.61	37.20	-48.1	-51.0	16.1	0.00e+00	0	43	0	460324864	68	4864
2026-01-06 09:19:53.51	108.72	37.73	-48.2	-51.3	15.8	0.00e+00	0	43	0	465567744	68	5026
2026-01-06 09:19:56.49	107.79	38.26	-47.7	-50.6	16.4	0.00e+00	0	43	0	470810624	67	4904
2026-01-06 09:19:59.48	106.83	38.78	-48.1	-51.2	15.8	0.00e+00	0	43	0	477102080	67	5258
2026-01-06 09:20:02.47	105.85	39.31	-48.1	-51.2	15.9	0.00e+00	0	43	0	482344960	67	5223
2026-01-06 09:20:05.46	104.82	39.83	-48.4	-51.5	15.4	0.00e+00	0	43	0	487587840	67	5453
2026-01-06 09:20:08.45	103.77	40.35	-47.9	-51.0	16.0	0.00e+00	0	44	0	493879296	67	5107
2026-01-06 09:20:11.44	102.68	40.87	-48.8	-52.1	15.1	0.00e+00	0	43	0	499122176	68	5504
2026-01-06 09:20:14.43	101.55	41.38	-48.8	-52.1	15.1	7.00e-07	0	43	0	505413632	68	5506
2026-01-06 09:20:17.41	100.40	41.88	-49.0	-52.4	14.8	7.00e-07	0	43	0	510656512	68	5680
2026-01-06 09:20:20.39	99.20	42.38	-48.6	-51.8	15.4	0.00e+00	0	43	0	515899392	68	5286
2026-01-06 09:20:23.38	97.97	42.87	-47.5	-50.3	16.7	0.00e+00	0	43	0	522190848	67	4741
2026-01-06 09:20:26.37	96.70	43.35	-46.7	-49.3	17.7	0.00e+00	0	43	0	527433728	65	4725
2026-01-06 09:20:29.36	95.39	43.82	-46.3	-48.7	18.2	0.00e+00	0	43	0	532676608	64	4682
2026-01-06 09:20:32.35	94.04	44.28	-46.5	-49.0	17.9	0.00e+00	0	43	0	538968064	64	4862
2026-01-06 09:20:35.34	92.65	44.72	-46.8	-49.5	17.5	0.00e+00	0	44	0	544210944	64	5112
2026-01-06 09:20:38.33	91.22	45.16	-46.2	-48.7	18.2	0.00e+00	0	43	0	549453824	64	4653
2026-01-06 09:20:41.32	89.75	45.57	-47.0	-49.7	17.3	0.00e+00	0	43	0	555745280	64	5264
2026-01-06 09:20:44.31	88.25	45.97	-47.9	-51.0	16.1	0.00e+00	0	43	0	560988160	66	5446
2026-01-06 09:20:47.30	86.70	46.35	-48.0	-51.1	15.9	0.00e+00	0	43	0	566231040	67	5201
2026-01-06 09:20:50.29	85.13	46.71	-48.1	-51.3	15.8	0.00e+00	0	43	0	572522496	67	5288
2026-01-06 09:20:53.29	83.51	47.05	-49.1	-52.8	14.4	0.00e+00	0	43	0	577765376	68	5927
2026-01-06 09:20:56.29	81.85	47.36	-49.4	-53.1	14.2	0.00e+00	0	44	0	583008256	69	5807
2026-01-06 09:20:59.28	80.17	47.65	-49.4	-53.2	14.1	5.30e-06	0	43	0	589299712	70	5540
2026-01-06 09:21:02.27	78.46	47.92	-49.8	-53.7	13.6	2.36e-05	0	43	0	594542592	70	5872
2026-01-06 09:21:05.26	76.72	48.16	-49.3	-52.9	14.3	7.00e-07	0	43	0	599785472	70	5365
2026-01-06 09:21:08.25	74.95	48.37	-49.3	-52.8	14.5	7.00e-07	0	43	0	606076928	69	5611
2026-01-06 09:21:11.24	73.17	48.55	-48.8	-52.1	15.1	0.00e+00	0	43	0	611319808	69	5214
2026-01-06 09:21:14.23	71.36	48.70	-48.6	-51.8	15.4	0.00e+00	0	43	0	616562688	69	5024
2026-01-06 09:21:17.22	69.54	48.82	-48.3	-51.4	15.9	0.00e+00	0	43	0	622854144	68	5086
2026-01-06 09:21:20.21	67.70	48.91	-48.4	-51.4	15.8	0.00e+00	0	43	0	628097024	68	5060
2026-01-06 09:21:23.20	65.86	48.97	-48.2	-51.3	16.0	0.00e+00	0	43	0	633339904	68	5000
2026-01-06 09:21:26.20	64.00	48.99	-48.4	-51.5	15.7	0.00e+00	0	43	0	639631360	68	5139
2026-01-06 09:21:29.19	62.15	48.99	-48.5	-51.6	15.6	0.00e+00	0	43	0	644874240	68	5182
2026-01-06 09:21:32.19	60.30	48.95	-48.3	-51.3	16.0	0.00e+00	0	43	0	651165696	68	5024
2026-01-06 09:21:35.18	58.46	48.88	-48.3	-51.3	16.0	0.00e+00	0	43	0	656408576	68	5030
2026-01-06 09:21:38.18	56.63	48.77	-48.1	-51.0	16.2	0.00e+00	0	43	0	661651456	68	4828
2026-01-06 09:21:41.18	54.80	48.64	-48.1	-51.0	16.2	0.00e+00	0	43	0	667942912	68	4847
2026-01-06 09:21:44.16	53.01	48.48	-48.6	-51.7	15.6	0.00e+00	0	43	0	673185792	68	5246
2026-01-06 09:21:47.16	51.23	48.28	-48.4	-51.4	15.9	0.00e+00	0	43	0	678428672	68	5085
2026-01-06 09:21:50.14	49.48	48.06	-48.3	-51.3	16.0	0.00e+00	0	43	0	684720128	68	5027
2026-01-06 09:21:53.14	47.75	47.81	-48.4	-51.4	15.8	0.00e+00	0	43	0	689963008	68	5089
2026-01-06 09:21:56.13	46.05	47.54	-48.7	-51.9	15.4	0.00e+00	0	43	0	695205888	68	5373
2026-01-06 09:21:59.12	44.39	47.24	-48.7	-51.9	15.3	0.00e+00	0	43	0	701497344	68	5401
2026-01-06 09:22:02.12	42.75	46.91	-48.8	-52.0	15.2	0.00e+00	0	44	0	706740224	68	5463
2026-01-06 09:22:05.11	41.15	46.57	-48.3	-51.4	15.9	0.00e+00	0	43	0	711983104	68	5060
2026-01-06 09:22:08.11	39.59	46.20	-48.1	-51.0	16.2	0.00e+00	0	43	0	718274560	68	4825
2026-01-06 09:22:11.11	38.06	45.81	-47.5	-50.3	16.8	0.00e+00	0	43	0	723517440	66	5000
2026-01-06 09:22:14.11	36.57	45.41	-47.4	-50.2	16.9	0.00e+00	0	43	0	729808896	66	4948
2026-01-06 09:22:17.11	35.12	44.99	-47.2	-49.9	17.1	0.00e+00	0	43	0	735051776	66	4786
2026-01-06 09:22:20.10	33.71	44.55	-46.9	-49.6	17.5	0.00e+00	0	44	0	740294656	65	4877
2026-01-06 09:22:23.10	32.33	44.10	-46.9	-49.6	17.5	0.00e+00	0	43	0	746586112	65	4871
2026-01-06 09:22:26.09	31.00	43.64	-47.0	-49.6	17.4	0.00e+00	0	43	0	751828992	65	4891
2026-01-06 09:22:29.09	29.71	43.16	-47.3	-50.1	17.0	0.00e+00	0	44	0	757071872	65	5182
2026-01-06 09:22:32.09	28.45	42.68	-47.3	-50.1	16.9	0.00e+00	0	44	0	763363328	65	5188
2026-01-06 09:22:35.08	27.24	42.18	-47.0	-49.7	17.3	0.00e+00	0	43	0	768606208	65	4976
2026-01-06 09:22:38.08	26.05	41.68	-46.9	-49.5	17.5	0.00e+00	0	43	0	773849088	65	4836
2026-01-06 09:22:41.08	24.91	41.18	-47.2	-49.9	17.1	0.00e+00	0	43	0	780140544	65	5078
2026-01-06 09:22:44.08	23.80	40.66	-47.1	-49.7	17.3	0.00e+00	0	44	0	785383424	65	4978
2026-01-06 09:22:47.08	22.73	40.15	-47.8	-50.7	16.4	0.00e+00	0	43	0	791674880	66	5256
2026-01-06 09:22:50.07	21.69	39.63	-48.2	-51.4	15.7	0.00e+00	0	44	0	796917760	67	5344
2026-01-06 09:22:53.07	20.68	39.10	-48.5	-51.8	15.2	0.00e+00	0	43	0	802160640	67	5633
2026-01-06 09:22:56.06	19.71	38.58	-48.6	-52.1	15.2	0.00e+00	0	43	0	808452096	68	5477
2026-01-06 09:22:59.07	18.76	38.05	-49.0	-52.6	14.7	0.00e+00	0	44	0	813694976	68	5790
2026-01-06 09:23:02.06	17.85	37.53	-48.8	-52.3	14.9	0.00e+00	0	43	0	818937856	68	5601
2026-01-06 09:23:05.05	16.97	37.00	-49.0	-52.9	14.3	0.00e+00	0	43	0	825229312	68	6028
2026-01-06 09:23:08.05	16.12	36.48	-49.3	-53.4	13.8	3.80e-06	0	43	0	830472192	69	6028
2026-01-06 09:23:11.05	15.29	35.95	-49.0	-52.6	14.6	0.00e+00	0	43	0	835715072	69	5518
2026-01-06 09:23:14.04	14.49	35.43	-49.2	-52.7	14.5	1.50e-06	0	43	0	842006528	69	5583
2026-01-06 09:23:17.04	13.71	34.91	-49.3	-53.0	14.2	7.00e-07	0	43	0	847249408	69	5760
2026-01-06 09:23:20.03	12.96	34.40	-48.9	-52.3	14.9	0.00e+00	0	43	0	852492288	69	5337
2026-01-06 09:23:23.03	12.24	33.88	-48.9	-52.5	14.7	0.00e+00	0	43	0	858783744	69	5458
2026-01-06 09:23:26.02	11.53	33.38	-48.5	-52.0	15.3	0.00e+00	0	43	0	864026624	69	5110
2026-01-06 09:23:29.01	10.85	32.87	-48.6	-52.0	15.2	0.00e+00	0	44	0	869269504	69	5114
2026-01-06 09:23:32.00	10.19	32.37	-48.6	-51.8	15.4	0.00e+00	0	44	0	875560960	68	5297
2026-01-06 09:23:34.99	9.55	31.87	-48.9	-52.3	14.9	0.00e+00	0	43	0	880803840	68	5636
2026-01-06 09:23:37.99	8.93	31.38	-49.0	-52.4	14.8	0.00e+00	0	43	0	887095296	68	5712
2026-01-06 09:23:40.99	8.33	30.89	-48.8	-52.3	14.9	0.00e+00	0	43	0	892338176	68	5610
2026-01-06 09:23:43.97	7.75	30.41	-48.8	-52.3	14.9	7.00e-07	0	44	0	897581056	68	5653
2026-01-06 09:23:46.97	7.18	29.93	-48.6	-52.0	15.2	0.00e+00	0	43	0	903872512	68	5438
2026-01-06 09:23:49.97	6.63	29.45	-48.9	-52.5	14.7	0.00e+00	0	44	0	909115392	68	5738
2026-01-06 09:23:52.97	6.09	28.98	-48.6	-51.9	15.3	0.00e+00	0	43	0	914358272	68	5349
2026-01-06 09:23:55.97	5.57	28.52	-48.2	-51.2	16.0	0.00e+00	0	43	0	920649728	68	4970
2026-01-06 09:23:58.95	5.07	28.06	-48.1	-51.2	16.1	0.00e+00	0	43	0	925892608	68	4934
2026-01-06 09:24:01.94	4.59	27.61	-48.0	-51.0	16.2	0.00e+00	0	44	0	931135488	68	4851
2026-01-06 09:24:04.93	4.11	27.16	-47.6	-50.5	16.6	0.00e+00	0	44	0	937426944	67	4829
2026-01-06 09:24:07.92	3.65	26.71	-47.7	-50.7	16.3	0.00e+00	0	44	0	942669824	67	4966
2026-01-06 09:24:10.91	3.20	26.28	-47.6	-50.6	16.5	0.00e+00	0	43	0	947912704	67	4878
2026-01-06 09:24:13.91	2.77	25.84	-47.6	-50.5	16.5	0.00e+00	0	43	0	954204160	67	4862
2026-01-06 09:24:16.90	2.34	25.41	-47.3	-50.2	16.8	0.00e+00	0	44	0	959447040	66	4967
2026-01-06 09:24:19.90	1.93	24.99	-47.0	-49.9	17.1	0.00e+00	0	43	0	964689920	66	4811
2026-01-06 09:24:22.89	1.53	24.57	-47.3	-50.3	16.8	0.00e+00	0	43	0	970981376	66	4988
2026-01-06 09:24:25.89	1.14	24.16	-47.5	-50.6	16.5	0.00e+00	0	43	0	976224256	66	5166
2026-01-06 09:24:28.88	0.76	23.75	-47.5	-50.5	16.5	0.00e+00	0	43	0	982515712	66	5116
2026-01-06 09:24:31.88	0.39	23.35	-47.3	-50.3	16.7	0.00e+00	0	44	0	987758592	66	5014
2026-01-06 09:24:34.87	0.03	22.95	-47.1	-50.2	16.8	0.00e+00	0	43	0	993001472	66	4939
2026-01-06 09:24:37.86	359.68	22.56	-47.1	-50.1	16.9	0.00e+00	0	43	0	999292928	66	4878
2026-01-06 09:24:40.86	359.33	22.17	-47.4	-50.2	16.8	0.00e+00	0	43	0	1004535808	66	4948
2026-01-06 09:24:43.85	359.00	21.79	-47.4	-50.3	16.7	0.00e+00	0	43	0	1009778688	66	5007
2026-01-06 09:24:46.83	358.68	21.41	-47.2	-50.3	16.7	0.00e+00	0	43	0	1016070144	66	4985
2026-01-06 09:24:49.83	358.36	21.03	-47.3	-50.3	16.7	0.00e+00	0	43	0	1021313024	66	5007
2026-01-06 09:24:52.82	358.05	20.66	-47.4	-50.3	16.7	0.00e+00	0	44	0	1026555904	66	4998
2026-01-06 09:24:55.82	357.75	20.30	-47.4	-50.4	16.6	0.00e+00	0	43	0	1032847360	66	5076
2026-01-06 09:24:58.82	357.45	19.94	-47.6	-50.6	16.3	0.00e+00	0	43	0	1038090240	66	5208
2026-01-06 09:25:01.82	357.16	19.58	-47.8	-50.9	16.1	0.00e+00	0	44	0	1043333120	66	5369
2026-01-06 09:25:04.81	356.88	19.23	-47.7	-51.0	16.0	0.00e+00	0	43	0	1049624576	66	5442
2026-01-06 09:25:07.81	356.61	18.88	-47.4	-50.8	16.2	0.00e+00	0	43	0	1054867456	66	5299
2026-01-06 09:25:10.81	356.34	18.54	-47.2	-50.4	16.5	0.00e+00	0	44	0	1060110336	66	5085
2026-01-06 09:25:13.81	356.08	18.20	-47.0	-50.1	16.8	0.00e+00	0	43	0	1066401792	66	4893
2026-01-06 09:25:16.81	355.82	17.86	-46.9	-50.1	16.8	0.00e+00	0	44	0	1071644672	65	5170
2026-01-06 09:25:19.82	355.57	17.53	-47.0	-50.3	16.6	0.00e+00	0	43	0	1077936128	65	5309
2026-01-06 09:25:22.82	355.33	17.20	-47.3	-50.5	16.4	0.00e+00	0	44	0	1083179008	65	5407
2026-01-06 09:25:25.82	355.09	16.87	-47.6	-50.7	16.2	0.00e+00	0	44	0	1088421888	65	5585
2026-01-06 09:25:28.81	354.86	16.55	-47.8	-50.9	16.0	0.00e+00	0	44	0	1094713344	66	5364
2026-01-06 09:25:31.80	354.63	16.24	-47.9	-51.2	15.7	0.00e+00	0	44	0	1099956224	66	5565
2026-01-06 09:25:34.80	354.40	15.92	-47.8	-51.3	15.6	0.00e+00	0	43	0	1105199104	66	5624
2026-01-06 09:25:37.80	354.19	15.61	-47.8	-51.2	15.7	0.00e+00	0	44	0	1111490560	66	5564
2026-01-06 09:25:40.79	353.97	15.31	-47.9	-51.3	15.6	0.00e+00	0	43	0	1116733440	66	5598
2026-01-06 09:25:43.80	353.76	15.01	-47.8	-51.2	15.7	0.00e+00	0	43	0	1121976320	66	5537
2026-01-06 09:25:46.79	353.56	14.71	-47.9	-51.4	15.5	0.00e+00	0	43	0	1128267776	66	5661
2026-01-06 09:25:49.78	353.36	14.41	-48.0	-51.4	15.5	0.00e+00	0	43	0	1133510656	66	5671
2026-01-06 09:25:52.78	353.16	14.12	-48.2	-51.6	15.3	0.00e+00	0	43	0	1139802112	67	5484
2026-01-06 09:25:55.78	352.97	13.83	-47.9	-51.3	15.6	0.00e+00	0	43	0	1145044992	67	5323
2026-01-06 09:25:58.78	352.78	13.54	-47.7	-51.2	15.6	0.00e+00	0	43	0	1150287872	67	5275
2026-01-06 09:26:01.77	352.59	13.26	-47.1	-51.0	15.8	0.00e+00	0	43	0	1156579328	66	5440
2026-01-06 09:26:04.77	352.41	12.98	-46.7	-50.8	16.0	0.00e+00	0	44	0	1161822208	65	5617
2026-01-06 09:26:07.77	352.24	12.70	-46.9	-51.0	15.8	0.00e+00	0	43	0	1167065088	65	5729
2026-01-06 09:26:10.77	352.06	12.42	-47.2	-51.0	15.8	0.00e+00	0	44	0	1173356544	65	5775
2026-01-06 09:26:13.77	351.89	12.15	-47.5	-51.2	15.6	0.00e+00	0	43	0	1178599424	65	5894
2026-01-06 09:26:16.76	351.72	11.88	-47.5	-51.3	15.5	0.00e+00	0	44	0	1183842304	65	5981
2026-01-06 09:26:19.76	351.56	11.62	-47.5	-51.7	15.1	0.00e+00	0	43	0	1190133760	66	5861
2026-01-06 09:26:22.76	351.40	11.35	-47.2	-51.9	14.9	0.00e+00	0	43	0	1195376640	66	6039
2026-01-06 09:26:25.75	351.24	11.09	-47.1	-52.0	14.8	0.00e+00	0	44	0	1200619520	66	6067
2026-01-06 09:26:28.75	351.09	10.83	-46.8	-51.7	15.1	0.00e+00	0	44	0	1206910976	65	6205
2026-01-06 09:26:31.75	350.94	10.57	-47.0	-51.6	15.1	0.00e+00	0	43	0	1212153856	65	6183
2026-01-06 09:26:34.76	350.79	10.32	-47.0	-51.4	15.3	0.00e+00	0	43	0	1218445312	65	6038
2026-01-06 09:26:37.75	350.64	10.07	-47.4	-51.5	15.2	0.00e+00	0	44	0	1223688192	65	6130
2026-01-06 09:26:40.75	350.50	9.82	-47.7	-51.7	15.0	0.00e+00	0	43	0	1228931072	66	5896
2026-01-06 09:26:43.75	350.36	9.57	-47.9	-51.8	14.9	0.00e+00	0	44	0	1235222528	66	5944
2026-01-06 09:26:46.74	350.22	9.33	-48.1	-51.9	14.8	0.00e+00	0	44	0	1240465408	66	6033
2026-01-06 09:26:49.73	350.08	9.09	-48.3	-52.1	14.6	0.00e+00	0	44	0	1245708288	67	5807
2026-01-06 09:26:52.72	349.95	8.85	-52.3	-68.2	3.8	1.49e+00	0	43	104	1248854016	75	23479
2026-01-06 09:26:55.72	349.82	8.61	-52.6	-68.4	3.8	1.49e+00	0	43	104	1248854016	75	23964
2026-01-06 09:26:58.71	349.69	8.37	-52.9	-68.5	3.8	1.49e+00	0	43	104	1248854016	77	21714
2026-01-06 09:27:01.70	349.56	8.14	-52.9	-68.6	3.8	1.49e+00	0	44	104	1248854016	77	21783
2026-01-06 09:27:04.69	349.44	7.91	-53.3	-68.6	3.8	1.49e+00	0	44	104	1248854016	77	21785
2026-01-06 09:27:07.69	349.32	7.68	-53.3	-68.6	3.8	1.49e+00	0	43	104	1248854016	77	21756
2026-01-06 09:27:10.69	349.20	7.45	-53.3	-68.6	3.8	1.49e+00	0	43	104	1248854016	77	21763
2026-01-06 09:27:13.69	349.08	7.22	-53.4	-68.6	3.8	1.49e+00	0	44	104	1248854016	77	21808
2026-01-06 09:27:16.69	348.96	7.00	-53.3	-68.5	3.8	1.49e+00	0	44	104	1248854016	77	21708
2026-01-06 09:27:19.68	348.85	6.78	-53.1	-68.5	3.8	1.49e+00	0	44	104	1248854016	77	21596
2026-01-06 09:27:22.68	348.74	6.55	-53.1	-68.5	3.8	1.49e+00	0	44	104	1248854016	77	21617
2026-01-06 09:27:25.67	348.63	6.34	-53.1	-68.5	3.8	1.49e+00	0	44	104	1248854016	77	21719
2026-01-06 09:27:28.68	348.52	6.12	-53.1	-68.5	3.8	1.49e+00	0	43	104	1248854016	77	21644
2026-01-06 09:27:31.68	348.41	5.90	-53.1	-68.5	3.8	1.49e+00	0	44	104	1248854016	77	21598
2026-01-06 09:27:34.67	348.31	5.69	-53.0	-68.5	3.8	1.49e+00	0	43	104	1248854016	77	21628
2026-01-06 09:27:37.68	348.20	5.48	-53.0	-68.5	3.8	1.49e+00	0	43	104	1248854016	77	21651
2026-01-06 09:27:40.67	348.10	5.26	-53.0	-68.5	3.8	1.49e+00	0	44	104	1248854016	77	21545
2026-01-06 09:27:43.67	348.00	5.06	-53.0	-68.5	3.8	1.49e+00	0	43	104	1248854016	77	21669

#Closed at: 2026-01-06 09:27:45
#Recorded file [1248 MB]: D:/Data/31040_260106_121512.dat