passes_logs/2026/01/06/T1/T1__20260106_100450_NOAA_21_JPSS-2_rec.log

#Pass ID: 20260106_100450_NOAA 21 (JPSS-2)
#Satellite: NOAA 21 (JPSS-2)
#Configuration: NOAA 21
#almurnet v.1.7.20251203
#Start time: 2026-01-06 10:04:50

#Version: 2.0.20230620
#Station: T1
#Location: 37.570604 lon 55.790049 lat
#TLE: 1 54234U 22150A   26005.21525222  .00000150  00000+0  91957-4 0  9992
#TLE: 2 54234  98.7490 306.2339 0001053 341.6032  18.5106 14.19532220163427

#Time	Az	El	Level	Level2	SNR	BER	BlckErr	Temp	State	Recorded	gain1	gain2
2026-01-06 10:04:50.41	165.13	4.99	-52.6	-65.9	3.8	1.49e+00	0	40	0	0	77	16108
2026-01-06 10:04:53.41	165.16	5.21	-51.7	-65.5	3.8	1.49e+00	0	41	104	0	74	18140
2026-01-06 10:04:56.42	165.19	5.42	-51.7	-65.4	3.8	1.49e+00	0	40	104	0	74	18049
2026-01-06 10:04:59.43	165.22	5.64	-51.7	-65.6	3.8	1.49e+00	0	41	104	0	74	18322
2026-01-06 10:05:02.43	165.25	5.87	-51.7	-65.5	3.8	1.49e+00	0	41	104	0	74	18203
2026-01-06 10:05:05.44	165.29	6.09	-51.6	-64.8	3.8	1.49e+00	0	41	104	0	74	16867
2026-01-06 10:05:08.44	165.32	6.31	-51.5	-64.0	3.8	1.49e+00	0	41	104	0	74	15364
2026-01-06 10:05:11.45	165.35	6.54	-51.5	-63.9	3.8	1.49e+00	0	41	104	0	74	15153
2026-01-06 10:05:14.45	165.39	6.77	-51.6	-64.6	3.8	1.49e+00	0	41	104	0	74	16391
2026-01-06 10:05:17.46	165.42	7.00	-51.6	-65.3	3.8	1.49e+00	0	41	104	0	74	17737
2026-01-06 10:05:20.46	165.45	7.24	-51.6	-64.9	3.8	1.49e+00	0	41	104	0	74	16986
2026-01-06 10:05:23.47	165.49	7.47	-51.5	-62.9	4.0	1.49e+00	0	41	104	0	74	13552
2026-01-06 10:05:26.48	165.52	7.71	-51.1	-60.1	5.0	1.13e+00	0	42	0	0	74	9813
2026-01-06 10:05:29.48	165.56	7.95	-50.6	-57.6	6.7	2.05e-01	0	42	0	0	73	7803
2026-01-06 10:05:32.49	165.59	8.19	-50.1	-56.0	8.3	5.19e-02	0	42	0	0	72	6819
2026-01-06 10:05:35.50	165.63	8.44	-50.1	-56.1	8.2	5.43e-02	0	42	0	0	72	6903
2026-01-06 10:05:38.50	165.67	8.69	-50.6	-57.9	6.5	1.99e-01	0	42	0	0	72	8538
2026-01-06 10:05:41.51	165.70	8.94	-51.2	-61.3	4.4	1.29e+00	0	42	104	0	73	11903
2026-01-06 10:05:44.53	165.74	9.19	-51.0	-61.0	4.6	2.26e-02	0	42	0	0	72	12232
2026-01-06 10:05:47.54	165.78	9.45	-50.1	-57.4	7.3	1.74e-02	0	42	0	0	70	9000
2026-01-06 10:05:50.55	165.82	9.70	-47.0	-50.6	13.7	4.50e-06	0	42	0	0	65	5503
2026-01-06 10:05:53.56	165.86	9.96	-46.8	-50.1	14.3	0.00e+00	0	42	0	0	64	5490
2026-01-06 10:05:56.56	165.90	10.23	-46.2	-49.2	15.2	0.00e+00	0	42	0	0	64	4938
2026-01-06 10:05:59.57	165.94	10.49	-46.1	-48.9	15.6	0.00e+00	0	42	0	0	63	5052
2026-01-06 10:06:02.58	165.98	10.76	-46.0	-48.7	15.7	0.00e+00	0	42	0	0	63	4943
2026-01-06 10:06:05.59	166.02	11.04	-45.6	-48.0	16.4	0.00e+00	0	42	0	0	62	4865
2026-01-06 10:06:08.60	166.06	11.31	-45.1	-47.3	17.1	0.00e+00	0	42	0	0	61	4727
2026-01-06 10:06:11.61	166.11	11.59	-44.7	-46.8	17.6	0.00e+00	0	42	0	0	61	4447
2026-01-06 10:06:14.62	166.15	11.87	-44.4	-46.4	18.0	0.00e+00	0	42	0	0	60	4513
2026-01-06 10:06:17.63	166.19	12.16	-44.4	-46.4	18.0	0.00e+00	0	42	0	0	60	4501
2026-01-06 10:06:20.64	166.24	12.44	-44.2	-46.1	18.2	0.00e+00	0	42	0	0	60	4390
2026-01-06 10:06:23.64	166.28	12.73	-44.1	-46.1	18.3	0.00e+00	0	42	0	0	60	4359
2026-01-06 10:06:26.65	166.33	13.03	-44.1	-46.0	18.4	0.00e+00	0	42	0	0	60	4329
2026-01-06 10:06:29.66	166.38	13.33	-44.0	-45.9	18.3	0.00e+00	0	42	0	0	59	4545
2026-01-06 10:06:32.67	166.43	13.63	-44.1	-46.0	18.3	0.00e+00	0	42	0	0	59	4559
2026-01-06 10:06:35.68	166.47	13.94	-44.1	-46.0	18.3	0.00e+00	0	43	0	0	59	4569
2026-01-06 10:06:38.68	166.52	14.25	-44.0	-45.9	18.4	0.00e+00	0	42	0	0	59	4498
2026-01-06 10:06:41.69	166.57	14.56	-44.0	-46.0	18.3	0.00e+00	0	42	0	0	59	4552
2026-01-06 10:06:44.70	166.63	14.88	-44.1	-46.0	18.3	0.00e+00	0	42	0	0	59	4549
2026-01-06 10:06:47.71	166.68	15.20	-44.0	-45.9	18.4	0.00e+00	0	42	0	0	59	4495
2026-01-06 10:06:50.72	166.73	15.53	-44.1	-46.0	18.3	0.00e+00	0	42	0	0	59	4589
2026-01-06 10:06:53.74	166.79	15.86	-43.9	-45.8	18.6	0.00e+00	0	42	0	0	59	4462
2026-01-06 10:06:56.74	166.84	16.20	-43.9	-45.8	18.6	0.00e+00	0	42	0	0	59	4472
2026-01-06 10:06:59.75	166.90	16.54	-44.1	-45.9	18.5	0.00e+00	0	42	0	0	59	4537
2026-01-06 10:07:02.76	166.95	16.88	-44.0	-45.9	18.5	0.00e+00	0	42	0	0	59	4515
2026-01-06 10:07:05.77	167.01	17.23	-44.1	-46.0	18.4	0.00e+00	0	42	0	0	59	4575
2026-01-06 10:07:08.78	167.07	17.59	-44.1	-46.0	18.4	0.00e+00	0	42	0	0	59	4558
2026-01-06 10:07:11.79	167.13	17.95	-44.3	-46.2	18.3	0.00e+00	0	42	0	0	59	4654
2026-01-06 10:07:14.80	167.20	18.31	-44.3	-46.2	18.2	0.00e+00	0	42	0	0	59	4705
2026-01-06 10:07:17.81	167.26	18.69	-44.3	-46.2	18.3	0.00e+00	0	42	0	0	59	4653
2026-01-06 10:07:20.82	167.32	19.06	-44.2	-46.1	18.4	0.00e+00	0	42	0	0	59	4611
2026-01-06 10:07:23.83	167.39	19.45	-44.1	-45.9	18.5	0.00e+00	0	42	0	0	59	4543
2026-01-06 10:07:26.84	167.46	19.84	-43.8	-45.7	18.7	0.00e+00	0	42	0	0	59	4396
2026-01-06 10:07:29.85	167.53	20.23	-43.8	-45.6	18.8	0.00e+00	0	42	0	0	59	4366
2026-01-06 10:07:32.86	167.60	20.63	-43.5	-45.3	19.0	0.00e+00	0	42	0	0	59	4233
2026-01-06 10:07:35.87	167.67	21.04	-43.3	-45.1	19.2	0.00e+00	0	42	0	0	58	4359
2026-01-06 10:07:38.88	167.75	21.45	-43.1	-44.8	19.5	0.00e+00	0	42	0	0	58	4229
2026-01-06 10:07:41.89	167.82	21.88	-42.9	-44.6	19.7	0.00e+00	0	42	0	0	57	4371
2026-01-06 10:07:44.89	167.90	22.30	-42.6	-44.3	19.9	0.00e+00	0	42	0	0	57	4230
2026-01-06 10:07:47.90	167.98	22.74	-42.6	-44.3	19.9	0.00e+00	0	42	0	0	57	4212
2026-01-06 10:07:50.91	168.06	23.18	-42.5	-44.2	20.0	0.00e+00	0	42	0	0	57	4147
2026-01-06 10:07:53.92	168.15	23.63	-42.5	-44.2	20.0	0.00e+00	0	42	0	0	56	4392
2026-01-06 10:07:56.93	168.23	24.09	-42.5	-44.1	20.0	0.00e+00	0	42	0	0	56	4389
2026-01-06 10:07:59.94	168.32	24.56	-42.5	-44.1	20.1	0.00e+00	0	42	0	0	56	4387
2026-01-06 10:08:02.95	168.41	25.03	-42.7	-44.4	19.8	0.00e+00	0	42	0	0	56	4521
2026-01-06 10:08:05.95	168.50	25.52	-42.9	-44.6	19.7	0.00e+00	0	42	0	0	56	4619
2026-01-06 10:08:08.96	168.60	26.01	-43.1	-44.8	19.5	0.00e+00	0	42	0	0	56	4758
2026-01-06 10:08:11.97	168.70	26.51	-43.5	-45.2	19.2	0.00e+00	0	42	0	0	57	4689
2026-01-06 10:08:14.98	168.80	27.02	-43.9	-45.7	18.8	0.00e+00	0	42	0	0	58	4698
2026-01-06 10:08:17.99	168.90	27.54	-44.3	-46.2	18.4	0.00e+00	0	42	0	0	59	4653
2026-01-06 10:08:21.00	169.01	28.08	-44.1	-46.0	18.5	0.00e+00	0	42	0	0	59	4570
2026-01-06 10:08:24.01	169.12	28.62	-44.1	-46.0	18.5	0.00e+00	0	42	0	0	59	4551
2026-01-06 10:08:27.02	169.24	29.17	-44.1	-45.9	18.6	0.00e+00	0	42	0	0	59	4518
2026-01-06 10:08:30.03	169.36	29.73	-43.9	-45.7	18.8	0.00e+00	0	42	0	0	59	4401
2026-01-06 10:08:33.04	169.48	30.31	-43.6	-45.4	19.1	0.00e+00	0	42	0	0	59	4247
2026-01-06 10:08:36.05	169.61	30.89	-43.5	-45.3	19.1	0.00e+00	0	42	0	0	59	4228
2026-01-06 10:08:39.06	169.74	31.49	-43.5	-45.3	19.2	0.00e+00	0	42	0	0	59	4205
2026-01-06 10:08:42.07	169.87	32.10	-43.3	-45.0	19.4	0.00e+00	0	42	0	0	58	4334
2026-01-06 10:08:45.08	170.01	32.72	-43.2	-45.0	19.4	0.00e+00	0	42	0	0	58	4300
2026-01-06 10:08:48.08	170.16	33.36	-43.5	-45.2	19.2	0.00e+00	0	42	0	0	58	4427
2026-01-06 10:08:51.09	170.31	34.01	-43.7	-45.5	19.0	0.00e+00	0	42	0	0	58	4566
2026-01-06 10:08:54.10	170.46	34.67	-44.1	-45.9	18.6	0.00e+00	0	42	0	0	58	4803
2026-01-06 10:08:57.12	170.63	35.35	-44.6	-46.4	18.1	0.00e+00	0	42	0	0	59	4800
2026-01-06 10:09:00.13	170.80	36.04	-44.6	-46.5	18.1	0.00e+00	0	42	0	0	60	4597
2026-01-06 10:09:03.13	170.97	36.74	-45.1	-47.1	17.6	0.00e+00	0	42	0	0	60	4903
2026-01-06 10:09:06.14	171.15	37.47	-45.3	-47.3	17.4	0.00e+00	0	42	0	0	61	4735
2026-01-06 10:09:09.15	171.35	38.20	-45.4	-47.5	17.3	0.00e+00	0	42	0	0	61	4819
2026-01-06 10:09:12.16	171.55	38.96	-45.3	-47.3	17.5	0.00e+00	0	42	0	0	61	4735
2026-01-06 10:09:15.17	171.75	39.73	-45.1	-47.1	17.6	0.00e+00	0	42	0	0	61	4636
2026-01-06 10:09:18.18	171.97	40.51	-45.2	-47.2	17.6	0.00e+00	0	42	0	0	61	4662
2026-01-06 10:09:21.19	172.20	41.32	-45.4	-47.4	17.3	0.00e+00	0	42	0	0	61	4791
2026-01-06 10:09:24.21	172.44	42.14	-45.6	-47.7	16.9	0.00e+00	0	42	0	0	61	4946
2026-01-06 10:09:27.21	172.70	42.98	-46.4	-48.7	16.1	0.00e+00	0	42	0	0	63	4955
2026-01-06 10:09:30.22	172.96	43.84	-46.6	-48.9	15.8	0.00e+00	0	42	0	0	64	4800
2026-01-06 10:09:33.23	173.24	44.71	-46.6	-48.9	15.8	0.00e+00	0	42	0	0	64	4775
2026-01-06 10:09:36.24	173.54	45.61	-46.7	-49.1	15.7	0.00e+00	0	42	0	0	64	4910
2026-01-06 10:09:39.25	173.85	46.52	-46.9	-49.4	15.4	0.00e+00	0	42	0	0	64	5060
2026-01-06 10:09:42.26	174.18	47.46	-46.7	-49.1	15.7	0.00e+00	0	42	0	0	64	4874
2026-01-06 10:09:45.27	174.53	48.41	-46.0	-48.1	16.6	0.00e+00	0	42	0	0	63	4645
2026-01-06 10:09:48.28	174.90	49.39	-45.6	-47.7	17.1	0.00e+00	0	42	0	0	63	4412
2026-01-06 10:09:51.29	175.30	50.38	-45.3	-47.3	17.6	0.00e+00	0	42	0	0	62	4444
2026-01-06 10:09:54.30	175.72	51.40	-45.2	-47.2	17.7	0.00e+00	0	42	0	0	62	4394
2026-01-06 10:09:57.30	176.17	52.43	-45.0	-47.0	17.9	0.00e+00	0	42	0	0	62	4299
2026-01-06 10:10:00.31	176.66	53.49	-44.3	-46.1	18.6	0.00e+00	0	42	0	0	60	4374
2026-01-06 10:10:03.32	177.18	54.57	-44.2	-46.1	18.7	0.00e+00	0	42	0	0	60	4342
2026-01-06 10:10:06.33	177.74	55.66	-43.7	-45.6	19.0	0.00e+00	0	42	0	0	59	4345
2026-01-06 10:10:09.34	178.35	56.78	-44.1	-46.0	18.6	0.00e+00	0	42	0	0	59	4564
2026-01-06 10:10:12.35	179.00	57.92	-43.8	-45.6	19.0	0.00e+00	0	42	0	0	59	4363
2026-01-06 10:10:15.36	179.72	59.07	-43.4	-45.1	19.3	0.00e+00	0	42	0	0	58	4361
2026-01-06 10:10:18.37	180.50	60.25	-42.8	-44.5	19.9	0.00e+00	0	42	0	0	57	4299
2026-01-06 10:10:21.38	181.35	61.43	-42.7	-44.4	20.0	0.00e+00	0	42	0	0	57	4247
2026-01-06 10:10:24.39	182.29	62.64	-42.5	-44.2	20.0	0.00e+00	0	42	0	0	57	4157
2026-01-06 10:10:27.40	183.33	63.86	-42.3	-43.9	20.3	0.00e+00	0	42	0	0	56	4264
2026-01-06 10:10:30.40	184.48	65.09	-41.7	-43.3	20.7	0.00e+00	0	42	0	0	55	4221
2026-01-06 10:10:33.41	185.76	66.33	-42.3	-44.0	20.2	0.00e+00	0	42	0	0	55	4569
2026-01-06 10:10:36.42	187.20	67.58	-41.7	-43.3	20.5	0.00e+00	0	42	0	0	55	4242
2026-01-06 10:10:39.43	188.83	68.83	-41.9	-43.5	20.2	0.00e+00	0	42	0	0	55	4328
2026-01-06 10:10:42.44	190.67	70.08	-41.9	-43.5	20.5	0.00e+00	0	42	0	0	55	4318
2026-01-06 10:10:45.45	192.78	71.33	-42.0	-43.6	20.2	0.00e+00	0	42	0	0	55	4364
2026-01-06 10:10:48.45	195.20	72.56	-42.6	-44.3	19.9	0.00e+00	0	42	0	0	55	4738
2026-01-06 10:10:51.46	198.01	73.77	-42.1	-43.7	20.4	0.00e+00	0	42	0	0	55	4429
2026-01-06 10:10:54.47	201.29	74.95	-42.0	-43.6	20.6	0.00e+00	0	42	0	0	55	4356
2026-01-06 10:10:57.48	205.13	76.09	-41.9	-43.5	20.6	0.00e+00	0	42	0	0	55	4337
2026-01-06 10:11:00.49	209.66	77.16	-42.2	-43.8	20.4	0.00e+00	0	42	0	0	55	4479
2026-01-06 10:11:03.50	215.01	78.15	-41.6	-43.1	21.0	0.00e+00	0	42	0	0	55	4136
2026-01-06 10:11:06.50	221.26	79.02	-41.5	-43.1	20.8	0.00e+00	0	42	0	0	55	4141
2026-01-06 10:11:09.51	228.54	79.75	-42.0	-43.6	20.3	0.00e+00	0	42	0	0	54	4631
2026-01-06 10:11:12.52	236.80	80.30	-42.0	-43.6	20.4	0.00e+00	0	42	0	0	55	4365
2026-01-06 10:11:15.53	245.85	80.63	-41.9	-43.5	20.6	0.00e+00	0	42	0	0	55	4323
2026-01-06 10:11:18.54	255.31	80.71	-42.2	-43.8	20.3	0.00e+00	0	42	0	0	55	4486
2026-01-06 10:11:21.55	264.69	80.55	-42.2	-43.8	20.4	0.00e+00	0	42	0	0	55	4464
2026-01-06 10:11:24.56	273.53	80.15	-41.9	-43.5	20.6	0.00e+00	0	42	0	0	55	4303
2026-01-06 10:11:27.57	281.49	79.54	-42.1	-43.8	20.5	0.00e+00	0	42	0	0	55	4447
2026-01-06 10:11:30.58	288.45	78.77	-42.8	-44.5	19.9	0.00e+00	0	42	0	0	57	4339
2026-01-06 10:11:33.59	294.41	77.85	-41.7	-43.3	20.7	0.00e+00	0	42	0	0	54	4474
2026-01-06 10:11:36.60	299.48	76.84	-41.8	-43.4	20.4	0.00e+00	0	42	0	0	54	4544
2026-01-06 10:11:39.61	303.78	75.74	-42.2	-43.9	20.3	0.00e+00	0	42	0	0	55	4516
2026-01-06 10:11:42.62	307.44	74.59	-41.8	-43.4	20.7	0.00e+00	0	42	0	0	55	4271
2026-01-06 10:11:45.62	310.55	73.41	-42.4	-44.0	20.2	0.00e+00	0	42	0	0	55	4596
2026-01-06 10:11:48.63	313.23	72.19	-42.2	-43.9	20.4	0.00e+00	0	42	0	0	55	4507
2026-01-06 10:11:51.64	315.55	70.95	-41.1	-42.6	21.4	0.00e+00	0	42	0	0	54	4130
2026-01-06 10:11:54.65	317.57	69.71	-42.6	-44.3	19.7	0.00e+00	0	42	0	0	55	4729
2026-01-06 10:11:57.66	319.34	68.46	-41.5	-43.1	20.8	0.00e+00	0	42	0	0	55	4122
2026-01-06 10:12:00.66	320.90	67.21	-42.3	-44.0	20.3	0.00e+00	0	42	0	0	55	4554
2026-01-06 10:12:03.67	322.29	65.97	-42.3	-43.9	20.2	0.00e+00	0	42	0	0	56	4276
2026-01-06 10:12:06.68	323.53	64.73	-41.6	-43.2	20.9	0.00e+00	0	42	0	0	55	4157
2026-01-06 10:12:09.69	324.64	63.51	-44.4	-46.4	18.2	0.00e+00	0	42	0	0	59	4764
2026-01-06 10:12:12.70	325.65	62.30	-43.2	-44.9	19.5	0.00e+00	0	42	0	0	58	4258
2026-01-06 10:12:15.71	326.56	61.10	-43.0	-44.7	19.8	0.00e+00	0	42	0	0	56	4668
2026-01-06 10:12:18.72	327.39	59.92	-44.3	-46.2	18.5	0.00e+00	0	42	0	0	60	4423
2026-01-06 10:12:21.73	328.15	58.76	-42.2	-43.9	20.2	0.00e+00	0	42	0	0	56	4244
2026-01-06 10:12:24.74	328.84	57.61	-43.9	-45.7	18.8	0.00e+00	0	42	0	0	58	4697
2026-01-06 10:12:27.75	329.48	56.49	-46.3	-48.6	16.2	0.00e+00	0	42	0	0	63	4913
2026-01-06 10:12:30.76	330.07	55.38	-44.1	-46.0	18.3	0.00e+00	0	42	0	0	60	4295
2026-01-06 10:12:33.76	330.62	54.30	-43.5	-45.2	19.3	0.00e+00	0	42	0	0	58	4437
2026-01-06 10:12:36.77	331.13	53.23	-44.7	-46.7	18.2	0.00e+00	0	42	0	0	60	4659
2026-01-06 10:12:39.78	331.61	52.18	-45.9	-48.1	16.9	0.00e+00	0	42	0	0	62	4887
2026-01-06 10:12:42.79	332.05	51.16	-44.9	-46.9	17.9	0.00e+00	0	42	0	0	61	4494
2026-01-06 10:12:45.80	332.46	50.15	-44.9	-46.8	18.0	0.00e+00	0	42	0	0	61	4467
2026-01-06 10:12:48.81	332.85	49.17	-45.6	-47.6	17.3	0.00e+00	0	42	0	0	61	4915
2026-01-06 10:12:51.82	333.22	48.20	-45.6	-47.6	17.2	0.00e+00	0	42	0	0	61	4924
2026-01-06 10:12:54.83	333.56	47.26	-46.0	-48.2	16.8	0.00e+00	0	42	0	0	62	4946
2026-01-06 10:12:57.83	333.89	46.33	-45.3	-47.4	17.4	0.00e+00	0	42	0	0	62	4533
2026-01-06 10:13:00.84	334.20	45.43	-46.4	-48.7	16.3	0.00e+00	0	42	0	0	63	4968
2026-01-06 10:13:03.85	334.49	44.54	-47.2	-49.7	14.8	0.00e+00	0	42	0	0	65	4973
2026-01-06 10:13:06.87	334.76	43.67	-46.5	-48.9	15.8	0.00e+00	0	42	0	0	65	4521
2026-01-06 10:13:09.87	335.03	42.83	-45.2	-47.4	17.5	0.00e+00	0	42	0	0	62	4519
2026-01-06 10:13:12.89	335.28	41.99	-45.5	-47.6	17.3	0.00e+00	0	42	0	0	62	4607
2026-01-06 10:13:15.90	335.51	41.18	-45.2	-47.2	17.6	0.00e+00	0	42	0	0	62	4411
2026-01-06 10:13:18.90	335.74	40.39	-46.0	-48.2	16.8	0.00e+00	0	42	0	0	62	4947
2026-01-06 10:13:21.91	335.96	39.61	-46.5	-49.0	16.0	0.00e+00	0	42	0	0	63	5148
2026-01-06 10:13:24.92	336.16	38.85	-46.1	-48.5	16.5	0.00e+00	0	42	0	0	63	4817
2026-01-06 10:13:27.93	336.36	38.10	-45.9	-48.0	16.9	0.00e+00	0	42	0	0	63	4570
2026-01-06 10:13:30.94	336.55	37.37	-44.9	-46.8	18.0	0.00e+00	0	42	0	0	61	4488
2026-01-06 10:13:33.95	336.74	36.66	-44.8	-46.7	18.1	0.00e+00	0	42	0	0	61	4422
2026-01-06 10:13:36.95	336.91	35.96	-44.4	-46.4	18.3	0.00e+00	0	41	0	0	60	4532
2026-01-06 10:13:39.96	337.08	35.28	-44.4	-46.4	18.2	0.00e+00	0	42	0	0	60	4543
2026-01-06 10:13:42.97	337.24	34.61	-44.7	-46.8	18.0	0.00e+00	0	42	0	0	60	4714
2026-01-06 10:13:45.99	337.40	33.95	-44.8	-46.7	18.1	0.00e+00	0	42	0	0	60	4700
2026-01-06 10:13:49.00	337.55	33.31	-44.7	-46.6	18.2	0.00e+00	0	42	0	0	60	4627
2026-01-06 10:13:52.01	337.69	32.68	-44.3	-46.2	18.5	0.00e+00	0	42	0	0	60	4404
2026-01-06 10:13:55.02	337.83	32.06	-43.9	-45.8	18.7	0.00e+00	0	42	0	0	59	4457
2026-01-06 10:13:58.04	337.97	31.46	-43.5	-45.4	19.1	0.00e+00	0	42	0	0	59	4262
2026-01-06 10:14:01.05	338.10	30.86	-43.3	-45.1	19.3	0.00e+00	0	42	0	0	58	4353
2026-01-06 10:14:04.06	338.23	30.28	-43.3	-45.1	19.3	0.00e+00	0	42	0	0	58	4368
2026-01-06 10:14:07.07	338.35	29.72	-43.5	-45.4	19.2	0.00e+00	0	42	0	0	58	4494
2026-01-06 10:14:10.08	338.47	29.16	-43.7	-45.6	19.0	0.00e+00	0	42	0	0	58	4610
2026-01-06 10:14:13.09	338.58	28.61	-44.1	-46.0	18.7	0.00e+00	0	42	0	0	58	4842
2026-01-06 10:14:16.10	338.69	28.08	-44.3	-46.3	18.4	0.00e+00	0	42	0	0	59	4711
2026-01-06 10:14:19.10	338.80	27.55	-44.2	-46.1	18.6	0.00e+00	0	42	0	0	59	4632
2026-01-06 10:14:22.11	338.91	27.03	-43.9	-45.8	18.8	0.00e+00	0	42	0	0	59	4458
2026-01-06 10:14:25.12	339.01	26.53	-43.7	-45.6	18.9	0.00e+00	0	42	0	0	59	4346
2026-01-06 10:14:28.13	339.11	26.03	-43.6	-45.4	19.0	0.00e+00	0	42	0	0	59	4279
2026-01-06 10:14:31.14	339.21	25.54	-43.8	-45.7	18.8	0.00e+00	0	42	0	0	59	4404
2026-01-06 10:14:34.14	339.30	25.06	-43.6	-45.5	18.8	0.00e+00	0	41	0	0	59	4333
2026-01-06 10:14:37.16	339.39	24.59	-43.6	-45.5	18.8	0.00e+00	0	42	0	0	59	4335
2026-01-06 10:14:40.17	339.48	24.13	-43.5	-45.4	19.0	0.00e+00	0	41	0	0	59	4270
2026-01-06 10:14:43.18	339.57	23.67	-43.6	-45.4	18.9	0.00e+00	0	42	0	0	59	4270
2026-01-06 10:14:46.19	339.65	23.23	-43.4	-45.2	19.0	0.00e+00	0	41	0	0	58	4413
2026-01-06 10:14:49.20	339.74	22.79	-43.3	-45.2	19.1	0.00e+00	0	42	0	0	58	4396
2026-01-06 10:14:52.21	339.82	22.35	-43.1	-45.1	19.2	0.00e+00	0	42	0	0	58	4356
2026-01-06 10:14:55.22	339.90	21.93	-43.1	-45.0	19.3	0.00e+00	0	42	0	0	58	4338
2026-01-06 10:14:58.23	339.98	21.51	-43.2	-45.1	19.3	0.00e+00	0	41	0	0	58	4346
2026-01-06 10:15:01.24	340.05	21.10	-43.4	-45.2	19.3	0.00e+00	0	42	0	0	58	4418
2026-01-06 10:15:04.24	340.12	20.70	-43.3	-45.1	19.3	0.00e+00	0	41	0	0	58	4374
2026-01-06 10:15:07.25	340.20	20.30	-43.2	-45.1	19.4	0.00e+00	0	41	0	0	58	4357
2026-01-06 10:15:10.26	340.27	19.91	-43.4	-45.3	19.2	0.00e+00	0	42	0	0	58	4456
2026-01-06 10:15:13.27	340.34	19.52	-43.7	-45.5	19.0	0.00e+00	0	42	0	0	58	4582
2026-01-06 10:15:16.28	340.41	19.14	-43.9	-45.8	18.7	0.00e+00	0	41	0	0	58	4742
2026-01-06 10:15:19.29	340.47	18.77	-44.2	-46.1	18.5	0.00e+00	0	41	0	0	59	4608
2026-01-06 10:15:22.30	340.54	18.40	-44.4	-46.3	18.3	0.00e+00	0	41	0	0	59	4733
2026-01-06 10:15:25.30	340.60	18.04	-44.2	-46.2	18.4	0.00e+00	0	41	0	0	59	4662
2026-01-06 10:15:28.31	340.67	17.68	-44.2	-46.3	18.3	0.00e+00	0	41	0	0	59	4712
2026-01-06 10:15:31.32	340.73	17.33	-44.4	-46.4	18.1	0.00e+00	0	41	0	0	59	4810
2026-01-06 10:15:34.33	340.79	16.98	-44.4	-46.4	18.1	0.00e+00	0	41	0	0	59	4783
2026-01-06 10:15:37.34	340.85	16.64	-44.4	-46.5	17.9	0.00e+00	0	41	0	0	59	4857
2026-01-06 10:15:40.35	340.91	16.30	-44.5	-46.7	17.8	0.00e+00	0	42	0	0	59	4953
2026-01-06 10:15:43.36	340.96	15.96	-44.3	-46.5	17.9	0.00e+00	0	41	0	0	59	4839
2026-01-06 10:15:46.37	341.02	15.64	-44.3	-46.5	17.9	0.00e+00	0	42	0	0	59	4851
2026-01-06 10:15:49.38	341.08	15.31	-44.4	-46.6	17.8	0.00e+00	0	41	0	0	59	4897
2026-01-06 10:15:52.39	341.13	14.99	-44.4	-46.5	17.8	0.00e+00	0	41	0	0	59	4850
2026-01-06 10:15:55.40	341.18	14.67	-44.6	-46.6	17.7	0.00e+00	0	41	0	0	59	4922
2026-01-06 10:15:58.41	341.24	14.36	-44.5	-46.6	17.7	0.00e+00	0	41	0	0	59	4908
2026-01-06 10:16:01.43	341.29	14.05	-44.6	-46.7	17.6	0.00e+00	0	41	0	0	59	4963
2026-01-06 10:16:04.43	341.34	13.75	-44.5	-46.8	17.6	0.00e+00	0	41	0	0	59	5008
2026-01-06 10:16:07.44	341.39	13.45	-44.4	-46.8	17.6	0.00e+00	0	41	0	0	59	4985
2026-01-06 10:16:10.45	341.44	13.15	-44.5	-46.9	17.6	0.00e+00	0	42	0	0	59	5054
2026-01-06 10:16:13.46	341.49	12.86	-44.5	-46.8	17.6	0.00e+00	0	42	0	0	59	5005
2026-01-06 10:16:16.47	341.54	12.57	-44.6	-46.7	17.7	0.00e+00	0	42	0	0	59	4979
2026-01-06 10:16:19.48	341.59	12.28	-44.7	-46.8	17.6	0.00e+00	0	41	0	0	59	5010
2026-01-06 10:16:22.49	341.63	12.00	-44.5	-46.6	17.7	0.00e+00	0	41	0	0	59	4921
2026-01-06 10:16:25.49	341.68	11.72	-44.4	-46.6	17.8	0.00e+00	0	41	0	0	59	4879
2026-01-06 10:16:28.50	341.72	11.44	-44.5	-46.7	17.6	0.00e+00	0	41	0	0	59	4949
2026-01-06 10:16:31.51	341.77	11.17	-44.6	-46.9	17.5	0.00e+00	0	41	0	0	59	5066
2026-01-06 10:16:34.52	341.81	10.90	-44.5	-46.7	17.6	0.00e+00	0	41	0	0	59	4958
2026-01-06 10:16:37.53	341.86	10.63	-44.6	-46.9	17.5	0.00e+00	0	41	0	0	60	4792
2026-01-06 10:16:40.54	341.90	10.37	-44.7	-47.1	17.4	0.00e+00	0	41	0	0	60	4879
2026-01-06 10:16:43.55	341.94	10.11	-44.6	-47.0	17.5	0.00e+00	0	41	0	0	60	4821
2026-01-06 10:16:46.56	341.99	9.85	-44.6	-47.1	17.3	0.00e+00	0	42	0	0	60	4892
2026-01-06 10:16:49.55	342.03	9.59	-44.6	-47.2	17.2	0.00e+00	0	41	0	0	60	4943
2026-01-06 10:16:52.56	342.07	9.34	-44.8	-47.5	16.9	0.00e+00	0	41	0	0	60	5156
2026-01-06 10:16:55.57	342.11	9.09	-44.8	-47.7	16.7	0.00e+00	0	41	0	0	60	5230
2026-01-06 10:16:58.58	342.15	8.84	-50.5	-66.0	3.8	1.49e+00	0	41	104	0	72	21639
2026-01-06 10:17:01.59	342.19	8.59	-52.7	-66.2	3.8	1.49e+00	0	41	104	0	75	18638
2026-01-06 10:17:04.61	342.23	8.35	-52.4	-66.4	3.8	1.49e+00	0	41	104	0	76	17899
2026-01-06 10:17:07.62	342.27	8.10	-53.2	-66.4	3.8	1.49e+00	0	41	104	0	77	16996
2026-01-06 10:17:10.63	342.31	7.87	-53.1	-66.4	3.8	1.49e+00	0	41	104	0	77	17053
