passes_logs/2026/01/06/T1/T1__20260106_084806_KHAYYAM_rec.log

#Pass ID: 20260106_084806_KHAYYAM
#Satellite: KHAYYAM
#Configuration: KHAYYAM_480M
#almurnet v.1.7.20251203
#Start time: 2026-01-06 08:48:07

#Version: 2.0.20230620
#Station: T1
#Location: 37.570604 lon 55.790049 lat
#TLE: 1 53370U 22096A   26005.50641227  .00007567  00000+0  30852-3 0  9992
#TLE: 2 53370  97.3566 272.6856 0001238  87.7352 272.4028 15.24728297189794

#Time	Az	El	Level	Level2	SNR	BER	BlckErr	Temp	State	Recorded	gain1	gain2
2026-01-06 08:48:07.72	201.33	5.11	-54.6	-59.4	3.5	0.00e+00	0	45	0	0	81	24074
2026-01-06 08:48:10.72	201.63	5.33	-54.6	-59.4	3.7	0.00e+00	0	46	104	0	80	25420
2026-01-06 08:48:13.72	201.94	5.55	-54.6	-59.3	3.7	0.00e+00	0	46	104	0	80	25375
2026-01-06 08:48:16.73	202.25	5.77	-54.6	-59.4	3.6	0.00e+00	0	46	104	0	80	25489
2026-01-06 08:48:19.73	202.57	6.00	-54.6	-59.4	3.7	0.00e+00	0	46	104	0	80	25458
2026-01-06 08:48:22.74	202.90	6.23	-54.6	-59.4	3.7	0.00e+00	0	47	104	0	80	25545
2026-01-06 08:48:25.75	203.23	6.46	-54.6	-59.4	3.7	0.00e+00	0	47	104	0	80	25571
2026-01-06 08:48:28.76	203.57	6.69	-54.6	-59.4	3.7	0.00e+00	0	47	104	0	80	25534
2026-01-06 08:48:31.77	203.92	6.92	-54.6	-59.4	3.7	0.00e+00	0	47	104	0	80	25547
2026-01-06 08:48:34.77	204.27	7.16	-54.6	-59.4	3.7	0.00e+00	0	47	104	0	80	25467
2026-01-06 08:48:37.76	204.63	7.40	-54.6	-59.4	3.7	0.00e+00	0	47	104	0	80	25440
2026-01-06 08:48:40.76	205.00	7.64	-54.6	-59.4	3.7	0.00e+00	0	48	104	0	80	25565
2026-01-06 08:48:43.77	205.38	7.88	-54.6	-59.4	3.7	0.00e+00	0	48	104	0	80	25526
2026-01-06 08:48:46.76	205.76	8.13	-54.6	-59.4	3.7	0.00e+00	0	48	104	0	80	25588
2026-01-06 08:48:49.76	206.15	8.37	-54.6	-59.4	3.7	0.00e+00	0	48	104	0	80	25517
2026-01-06 08:48:52.76	206.54	8.62	-54.6	-59.4	3.7	0.00e+00	0	48	104	0	80	25455
2026-01-06 08:48:55.76	206.95	8.87	-54.6	-59.4	3.7	0.00e+00	0	48	104	0	80	25533
2026-01-06 08:48:58.77	207.37	9.13	-54.8	-59.5	3.7	0.00e+00	0	48	104	0	80	25940
2026-01-06 08:49:01.77	207.79	9.39	-54.7	-59.4	3.7	0.00e+00	0	49	104	0	80	25575
2026-01-06 08:49:04.76	208.22	9.64	-55.2	-59.8	3.7	0.00e+00	0	49	104	0	81	25242
2026-01-06 08:49:07.77	208.67	9.91	-55.6	-60.2	3.7	0.00e+00	0	49	104	0	81	26317
2026-01-06 08:49:10.77	209.12	10.17	-44.0	-45.0	13.0	1.23e-01	0	50	0	25165824	60	15426
2026-01-06 08:49:13.77	209.58	10.44	-42.5	-43.6	14.3	4.23e-05	0	50	0	192937984	57	15475
2026-01-06 08:49:16.78	210.06	10.71	-37.5	-38.4	17.0	0.00e+00	0	50	0	369098752	47	15212
2026-01-06 08:49:19.78	210.54	10.98	-37.2	-38.1	17.1	0.00e+00	0	50	0	553648128	46	15605
2026-01-06 08:49:22.78	211.04	11.25	-36.9	-37.8	17.3	0.00e+00	0	50	0	729808896	45	15995
2026-01-06 08:49:25.78	211.54	11.53	-36.8	-37.7	17.6	0.00e+00	0	50	0	914358272	45	15701
2026-01-06 08:49:28.78	212.06	11.81	-36.7	-37.6	17.6	0.00e+00	0	50	0	1090519040	45	15547
2026-01-06 08:49:31.77	212.59	12.09	-36.6	-37.5	17.6	0.00e+00	0	50	0	1275068416	45	15363
2026-01-06 08:49:34.77	213.13	12.37	-36.5	-37.4	17.3	0.00e+00	0	50	0	1451229184	45	15152
2026-01-06 08:49:37.77	213.68	12.66	-36.4	-37.3	17.6	0.00e+00	0	50	0	1627389952	44	15897
2026-01-06 08:49:40.77	214.25	12.95	-36.2	-37.1	17.8	0.00e+00	0	50	0	1811939328	44	15504
2026-01-06 08:49:43.77	214.83	13.24	-36.0	-36.9	17.7	0.00e+00	0	51	0	1996488704	44	15204
2026-01-06 08:49:46.77	215.42	13.53	-35.9	-36.8	17.6	0.00e+00	0	51	0	2172649472	43	15876
2026-01-06 08:49:49.77	216.03	13.83	-35.6	-36.5	17.8	0.00e+00	0	51	0	2348810240	43	15428
2026-01-06 08:49:52.78	216.65	14.12	-35.6	-36.5	17.9	0.00e+00	0	51	0	2533359616	43	15435
2026-01-06 08:49:55.77	217.29	14.42	-35.5	-36.4	17.9	0.00e+00	0	51	0	2709520384	42	16103
2026-01-06 08:49:58.77	217.94	14.72	-35.2	-36.1	18.1	0.00e+00	0	51	0	2885681152	42	15540
2026-01-06 08:50:01.76	218.61	15.03	-35.2	-36.1	18.1	0.00e+00	0	51	0	3070230528	42	15490
2026-01-06 08:50:04.76	219.29	15.33	-35.0	-35.9	18.2	0.00e+00	0	51	0	3246391296	42	15145
2026-01-06 08:50:07.75	219.99	15.64	-34.9	-35.7	18.4	0.00e+00	0	51	0	3430940672	41	15821
2026-01-06 08:50:10.75	220.70	15.94	-34.9	-35.8	18.2	0.00e+00	0	51	0	3607101440	41	15846
2026-01-06 08:50:13.74	221.44	16.25	-34.5	-35.4	18.6	0.00e+00	0	51	0	3791650816	41	15269
2026-01-06 08:50:16.73	222.19	16.56	-34.5	-35.4	18.4	0.00e+00	0	51	0	3967811584	41	15147
2026-01-06 08:50:19.72	222.95	16.87	-34.4	-35.3	18.6	0.00e+00	0	51	0	4152360960	40	15886
2026-01-06 08:50:22.72	223.74	17.18	-34.4	-35.3	18.5	0.00e+00	0	51	0	4328521728	40	15875
2026-01-06 08:50:25.72	224.55	17.50	-34.1	-35.0	18.8	0.00e+00	0	51	0	4504682496	40	15307
2026-01-06 08:50:28.72	225.38	17.81	-34.0	-34.9	18.8	0.00e+00	0	51	0	4689231872	39	16069
2026-01-06 08:50:31.72	226.22	18.12	-33.9	-34.8	18.9	0.00e+00	0	51	0	4873781248	39	15974
2026-01-06 08:50:34.72	227.09	18.43	-33.8	-34.7	18.9	0.00e+00	0	52	0	5049942016	39	15720
2026-01-06 08:50:37.72	227.98	18.74	-33.8	-34.7	18.8	0.00e+00	0	52	0	5226102784	39	15719
2026-01-06 08:50:40.72	228.89	19.05	-33.5	-34.4	19.1	0.00e+00	0	52	0	5410652160	39	15176
2026-01-06 08:50:43.71	229.81	19.36	-33.5	-34.4	18.9	0.00e+00	0	52	0	5586812928	38	16162
2026-01-06 08:50:46.71	230.76	19.67	-33.4	-34.3	19.2	0.00e+00	0	52	0	5762973696	38	15872
2026-01-06 08:50:49.71	231.74	19.97	-33.2	-34.1	19.3	0.00e+00	0	52	0	5947523072	38	15568
2026-01-06 08:50:52.71	232.73	20.27	-33.1	-33.9	19.4	0.00e+00	0	52	0	6123683840	38	15293
2026-01-06 08:50:55.70	233.74	20.57	-33.2	-34.1	19.1	0.00e+00	0	52	0	6308233216	38	15514
2026-01-06 08:50:58.70	234.78	20.86	-32.9	-33.7	19.4	0.00e+00	0	52	0	6484393984	37	15815
2026-01-06 08:51:01.70	235.84	21.15	-32.8	-33.6	19.4	0.00e+00	0	52	0	6668943360	37	15611
2026-01-06 08:51:04.70	236.93	21.43	-32.7	-33.5	19.5	0.00e+00	0	52	0	6845104128	37	15441
2026-01-06 08:51:07.69	238.03	21.71	-32.5	-33.4	19.4	0.00e+00	0	52	0	7029653504	37	15231
2026-01-06 08:51:10.69	239.15	21.98	-32.5	-33.3	19.4	0.00e+00	0	52	0	7205814272	36	15973
2026-01-06 08:51:13.69	240.30	22.25	-32.4	-33.3	19.5	0.00e+00	0	52	0	7390363648	36	15883
2026-01-06 08:51:16.68	241.47	22.51	-32.3	-33.2	19.6	0.00e+00	0	52	0	7566524416	36	15726
2026-01-06 08:51:19.67	242.66	22.76	-32.3	-33.2	19.7	0.00e+00	0	52	0	7742685184	36	15696
2026-01-06 08:51:22.67	243.87	23.00	-32.4	-33.2	19.7	0.00e+00	0	52	0	7927234560	36	15828
2026-01-06 08:51:25.67	245.11	23.23	-32.1	-33.0	19.9	0.00e+00	0	52	0	8103395328	36	15365
2026-01-06 08:51:28.66	246.35	23.45	-30.8	-31.6	19.5	0.00e+00	0	52	0	8279556096	33	15625
2026-01-06 08:51:31.65	247.62	23.66	-30.6	-31.5	19.5	0.00e+00	0	52	0	8464105472	33	15389
2026-01-06 08:51:34.64	248.91	23.86	-30.7	-31.6	19.3	0.00e+00	0	52	0	8640266240	33	15579
2026-01-06 08:51:37.64	250.22	24.04	-30.8	-31.6	19.5	0.00e+00	0	52	0	8824815616	33	15598
2026-01-06 08:51:40.64	251.54	24.22	-30.7	-31.5	19.6	0.00e+00	0	52	0	9000976384	33	15412
2026-01-06 08:51:43.64	252.88	24.38	-30.3	-31.2	19.7	0.00e+00	0	52	0	9185525760	32	15690
2026-01-06 08:51:46.64	254.24	24.53	-30.5	-31.4	19.4	0.00e+00	0	52	0	9361686528	32	16084
2026-01-06 08:51:49.63	255.60	24.66	-30.6	-31.4	19.5	0.00e+00	0	52	0	9546235904	32	16101
2026-01-06 08:51:52.63	256.98	24.78	-30.6	-31.5	19.5	0.00e+00	0	52	0	9722396672	32	16211
2026-01-06 08:51:55.62	258.37	24.88	-30.5	-31.4	19.5	0.00e+00	0	52	0	9906946048	32	16119
2026-01-06 08:51:58.62	259.77	24.96	-30.4	-31.3	19.7	0.00e+00	0	52	0	10083106816	32	15892
2026-01-06 08:52:01.62	261.18	25.03	-30.4	-31.2	19.6	0.00e+00	0	52	0	10267656192	32	15823
2026-01-06 08:52:04.61	262.58	25.09	-56.0	-60.7	3.7	0.00e+00	0	52	104	10317987840	83	24990
2026-01-06 08:52:07.60	264.00	25.12	-55.7	-60.5	3.7	0.00e+00	0	51	104	10317987840	83	24390
2026-01-06 08:52:10.60	265.42	25.14	-56.1	-60.6	3.7	0.00e+00	0	51	104	10317987840	83	24723
2026-01-06 08:52:13.61	266.84	25.15	-56.0	-60.8	3.7	0.00e+00	0	52	104	10317987840	83	25255
2026-01-06 08:52:16.60	268.26	25.13	-56.1	-60.8	3.7	0.00e+00	0	51	104	10317987840	83	25299
2026-01-06 08:52:19.59	269.67	25.10	-55.8	-60.6	3.7	0.00e+00	0	52	104	10317987840	83	24795
2026-01-06 08:52:22.59	271.08	25.05	-56.1	-60.8	3.7	0.00e+00	0	52	104	10317987840	83	25202
2026-01-06 08:52:25.58	272.48	24.99	-56.1	-60.8	3.7	0.00e+00	0	51	104	10317987840	83	25330
2026-01-06 08:52:28.58	273.88	24.91	-56.2	-60.9	3.7	0.00e+00	0	51	104	10317987840	83	25396
2026-01-06 08:52:31.57	275.27	24.81	-56.3	-61.0	3.7	0.00e+00	0	51	104	10317987840	83	25680
2026-01-06 08:52:34.57	276.65	24.70	-56.3	-61.0	3.7	0.00e+00	0	51	104	10317987840	83	25719
2026-01-06 08:52:37.57	278.02	24.58	-56.3	-60.8	3.7	0.00e+00	0	51	104	10317987840	83	25095
2026-01-06 08:52:40.56	279.37	24.44	-56.0	-60.7	3.7	0.00e+00	0	51	104	10317987840	83	24946
2026-01-06 08:52:43.56	280.72	24.28	-56.5	-61.0	3.7	0.00e+00	0	51	104	10317987840	83	25952
2026-01-06 08:52:46.56	282.04	24.11	-56.5	-61.1	3.7	0.00e+00	0	51	104	10317987840	83	26196
2026-01-06 08:52:49.56	283.35	23.93	-56.5	-61.1	3.7	0.00e+00	0	51	104	10317987840	83	26048
2026-01-06 08:52:52.56	284.65	23.74	-56.3	-60.9	3.7	0.00e+00	0	51	104	10317987840	83	25555
2026-01-06 08:52:55.55	285.92	23.53	-56.3	-60.7	3.7	0.00e+00	0	51	104	10317987840	83	24934
2026-01-06 08:52:58.55	287.17	23.31	-56.2	-60.9	3.7	0.00e+00	0	51	104	10317987840	83	25624
2026-01-06 08:53:01.54	288.41	23.09	-56.2	-60.7	3.7	0.00e+00	0	51	104	10317987840	83	25037
2026-01-06 08:53:04.54	289.62	22.85	-56.4	-60.8	3.7	0.00e+00	0	51	104	10317987840	83	25328
2026-01-06 08:53:07.53	290.81	22.61	-56.0	-60.5	3.7	0.00e+00	0	51	104	10317987840	83	24274
2026-01-06 08:53:10.52	291.98	22.36	-56.1	-60.6	3.7	0.00e+00	0	51	104	10317987840	83	24777
2026-01-06 08:53:13.52	293.13	22.09	-56.2	-60.5	3.7	0.00e+00	0	51	104	10317987840	83	24286
2026-01-06 08:53:16.52	294.26	21.83	-56.1	-60.5	3.7	0.00e+00	0	51	104	10317987840	83	24317
2026-01-06 08:53:19.52	295.37	21.55	-56.3	-60.7	3.7	0.00e+00	0	51	104	10317987840	83	24948
2026-01-06 08:53:22.51	296.45	21.27	-56.4	-60.9	3.7	0.00e+00	0	51	104	10317987840	83	25442
2026-01-06 08:53:25.50	297.51	20.99	-56.1	-60.7	3.7	0.00e+00	0	51	104	10317987840	83	24865
2026-01-06 08:53:28.49	298.55	20.70	-56.2	-60.6	3.7	0.00e+00	0	51	104	10317987840	83	24711
2026-01-06 08:53:31.48	299.56	20.41	-56.3	-60.7	3.7	0.00e+00	0	51	104	10317987840	83	24900
2026-01-06 08:53:34.48	300.56	20.11	-56.2	-60.6	3.7	0.00e+00	0	51	104	10317987840	83	24582
2026-01-06 08:53:37.48	301.54	19.81	-56.1	-60.3	3.7	0.00e+00	0	51	104	10317987840	83	23900
2026-01-06 08:53:40.47	302.49	19.51	-56.0	-60.2	3.7	0.00e+00	0	51	104	10317987840	83	23578
2026-01-06 08:53:43.46	303.42	19.20	-55.8	-59.7	3.7	0.00e+00	0	51	104	10317987840	83	22311
2026-01-06 08:53:46.45	304.32	18.90	-56.3	-60.7	3.7	0.00e+00	0	51	104	10317987840	83	25006
2026-01-06 08:53:49.44	305.21	18.59	-55.9	-60.1	3.7	0.00e+00	0	51	104	10317987840	83	23300
2026-01-06 08:53:52.44	306.08	18.28	-56.0	-60.6	3.7	0.00e+00	0	51	104	10317987840	83	24608
2026-01-06 08:53:55.45	306.93	17.97	-56.0	-60.5	3.7	0.00e+00	0	51	104	10317987840	83	24424
2026-01-06 08:53:58.44	307.76	17.66	-56.2	-60.8	3.7	0.00e+00	0	51	104	10317987840	83	25330
2026-01-06 08:54:01.43	308.57	17.36	-56.1	-60.5	3.7	0.00e+00	0	51	104	10317987840	83	24441
2026-01-06 08:54:04.43	309.36	17.05	-55.9	-60.4	3.7	0.00e+00	0	51	104	10317987840	83	24233
2026-01-06 08:54:07.42	310.13	16.74	-55.3	-60.2	3.7	0.00e+00	0	51	104	10317987840	82	24856
2026-01-06 08:54:10.42	310.89	16.43	-55.1	-59.9	3.7	0.00e+00	0	51	104	10317987840	81	25622
2026-01-06 08:54:13.41	311.62	16.12	-55.5	-60.1	3.7	0.00e+00	0	51	104	10317987840	81	26051
2026-01-06 08:54:16.41	312.34	15.82	-56.1	-60.7	3.7	0.00e+00	0	51	104	10317987840	83	24909
2026-01-06 08:54:19.42	313.05	15.51	-56.1	-60.8	3.7	0.00e+00	0	51	104	10317987840	83	25209
2026-01-06 08:54:22.41	313.73	15.21	-55.5	-60.4	3.7	0.00e+00	0	51	104	10317987840	82	25652
2026-01-06 08:54:25.41	314.40	14.91	-54.9	-60.0	3.7	0.00e+00	0	51	104	10317987840	81	25784
2026-01-06 08:54:28.40	315.06	14.61	-54.6	-59.8	3.7	0.00e+00	0	51	104	10317987840	80	26792
2026-01-06 08:54:31.40	315.70	14.32	-55.1	-60.1	3.7	0.00e+00	0	51	104	10317987840	81	26078
2026-01-06 08:54:34.40	316.32	14.02	-55.4	-60.4	3.7	0.00e+00	0	51	104	10317987840	82	25551
2026-01-06 08:54:37.40	316.93	13.73	-55.1	-60.2	3.7	0.00e+00	0	51	104	10317987840	82	25052
2026-01-06 08:54:40.39	317.53	13.44	-55.9	-60.5	3.7	0.00e+00	0	51	104	10317987840	82	25684
2026-01-06 08:54:43.39	318.11	13.15	-56.1	-60.7	3.7	0.00e+00	0	51	104	10317987840	83	25061
2026-01-06 08:54:46.38	318.68	12.86	-55.9	-60.6	3.7	0.00e+00	0	51	104	10317987840	83	24623
2026-01-06 08:54:49.37	319.23	12.58	-55.6	-60.5	3.7	0.00e+00	0	51	104	10317987840	83	24475
2026-01-06 08:54:52.36	319.77	12.30	-55.1	-60.2	3.6	0.00e+00	0	51	104	10317987840	82	24893
2026-01-06 08:54:55.36	320.31	12.02	-54.6	-59.8	3.7	0.00e+00	0	51	104	10317987840	80	26742
2026-01-06 08:54:58.36	320.83	11.74	-53.9	-59.5	3.7	0.00e+00	0	51	104	10317987840	79	27273
2026-01-06 08:55:01.36	321.33	11.47	-54.2	-59.7	3.7	0.00e+00	0	51	104	10317987840	79	27993
2026-01-06 08:55:04.35	321.83	11.19	-54.0	-59.6	3.7	0.00e+00	0	51	104	10317987840	79	27529
2026-01-06 08:55:07.35	322.32	10.92	-53.6	-59.2	3.7	0.00e+00	0	51	104	10317987840	79	26490
2026-01-06 08:55:10.34	322.79	10.66	-55.6	-60.4	3.7	0.00e+00	0	51	104	10317987840	81	27007
2026-01-06 08:55:13.34	323.26	10.39	-55.3	-60.2	3.7	0.00e+00	0	51	104	10317987840	81	26455
2026-01-06 08:55:16.33	323.71	10.13	-55.2	-60.2	3.7	0.00e+00	0	51	104	10317987840	81	26517
2026-01-06 08:55:19.33	324.16	9.87	-54.0	-59.6	3.7	0.00e+00	0	51	104	10317987840	79	27567
2026-01-06 08:55:22.32	324.59	9.61	-53.9	-59.4	3.7	0.00e+00	0	51	104	10317987840	78	28778
2026-01-06 08:55:25.33	325.02	9.36	-53.2	-59.0	3.7	0.00e+00	0	51	104	10317987840	78	27283
2026-01-06 08:55:28.32	325.44	9.10	-53.6	-59.3	3.7	0.00e+00	0	51	104	10317987840	77	29945
2026-01-06 08:55:31.33	325.85	8.85	-54.3	-59.6	3.7	0.00e+00	0	51	104	10317987840	80	26022
2026-01-06 08:55:34.32	326.25	8.60	-55.5	-60.1	3.7	0.00e+00	0	51	104	10317987840	82	24665
2026-01-06 08:55:37.31	326.64	8.36	-56.5	-61.0	3.7	0.00e+00	0	51	104	10317987840	83	25750
2026-01-06 08:55:40.31	327.03	8.12	-56.1	-60.6	3.7	0.00e+00	0	51	104	10317987840	83	24565
2026-01-06 08:55:43.31	327.40	7.87	-56.7	-61.2	3.7	0.00e+00	0	51	104	10317987840	84	25040
2026-01-06 08:55:46.31	327.77	7.63	-56.3	-60.7	3.7	0.00e+00	0	51	104	10317987840	84	23429
2026-01-06 08:55:49.31	328.14	7.40	-56.0	-60.4	3.7	0.00e+00	0	51	104	10317987840	84	22785
2026-01-06 08:55:52.31	328.49	7.16	-55.8	-60.4	3.7	0.00e+00	0	51	104	10317987840	83	24160
2026-01-06 08:55:55.31	328.84	6.93	-55.7	-60.4	3.7	0.00e+00	0	51	104	10317987840	83	24171
2026-01-06 08:55:58.32	329.19	6.70	-55.7	-60.4	3.7	0.00e+00	0	51	104	10317987840	83	24118
2026-01-06 08:56:01.31	329.52	6.47	-55.8	-60.4	3.7	0.00e+00	0	51	104	10317987840	83	24166
2026-01-06 08:56:04.31	329.85	6.24	-55.8	-60.4	3.7	0.00e+00	0	51	104	10317987840	83	24221
2026-01-06 08:56:07.31	330.17	6.02	-55.7	-60.4	3.7	0.00e+00	0	51	104	10317987840	83	24166
2026-01-06 08:56:10.30	330.49	5.80	-55.7	-60.4	3.7	0.00e+00	0	51	104	10317987840	83	24075
2026-01-06 08:56:13.30	330.80	5.58	-55.8	-60.4	3.7	0.00e+00	0	51	104	10317987840	83	24081
2026-01-06 08:56:16.29	331.10	5.36	-55.8	-60.4	3.7	0.00e+00	0	51	104	10317987840	83	24104
2026-01-06 08:56:19.28	331.40	5.14	-55.7	-60.4	3.7	0.00e+00	0	51	104	10317987840	83	24196

#Closed at: 2026-01-06 08:56:22
#Recorded file [10317 MB]: D:/Data/31040_260106_114807.dat