passes_logs/2026/01/06/T1/T1__20260106_214127_KHAYYAM_rec.log

#Pass ID: 20260106_214127_KHAYYAM
#Satellite: KHAYYAM
#Configuration: KHAYYAM_480M
#almurnet v.1.7.20251203
#Start time: 2026-01-06 21:41:29

#Version: 2.0.20230620
#Station: T1
#Location: 37.570604 lon 55.790049 lat
#TLE: 1 53370U 22096A   26005.63766736  .00008095  00000+0  32978-3 0  9997
#TLE: 2 53370  97.3565 272.8146 0001238  87.7645 272.3734 15.24731212189819

#Time	Az	El	Level	Level2	SNR	BER	BlckErr	Temp	State	Recorded	gain1	gain2
2026-01-06 21:41:29.39	9.06	5.14	-49.7	-55.5	3.4	0.00e+00	0	43	0	0	70	29112
2026-01-06 21:41:31.40	8.99	5.31	-49.7	-55.5	3.7	0.00e+00	0	43	104	0	70	29108
2026-01-06 21:41:33.40	8.92	5.47	-49.7	-55.5	3.7	0.00e+00	0	43	104	0	70	28999
2026-01-06 21:41:35.41	8.85	5.63	-49.7	-55.5	3.7	0.00e+00	0	43	104	0	70	29026
2026-01-06 21:41:37.42	8.78	5.80	-49.7	-55.5	3.7	0.00e+00	0	44	104	0	70	29035
2026-01-06 21:41:39.43	8.70	5.97	-49.6	-55.5	3.7	0.00e+00	0	44	104	0	70	28914
2026-01-06 21:41:41.44	8.63	6.14	-49.7	-55.5	3.7	0.00e+00	0	44	104	0	70	28949
2026-01-06 21:41:43.45	8.55	6.31	-49.6	-55.5	3.7	0.00e+00	0	44	104	0	70	28889
2026-01-06 21:41:45.45	8.48	6.48	-49.7	-55.5	3.7	0.00e+00	0	44	104	0	70	29010
2026-01-06 21:41:47.47	8.40	6.65	-49.7	-55.5	3.7	0.00e+00	0	44	104	0	70	28843
2026-01-06 21:41:49.47	8.32	6.82	-49.7	-55.5	3.7	0.00e+00	0	45	104	0	70	29031
2026-01-06 21:41:51.48	8.24	7.00	-49.6	-55.5	3.7	0.00e+00	0	45	104	0	70	28873
2026-01-06 21:41:53.49	8.16	7.18	-49.6	-55.5	3.7	0.00e+00	0	45	104	0	70	28933
2026-01-06 21:41:55.50	8.07	7.36	-49.7	-55.5	3.7	0.00e+00	0	45	104	0	70	28967
2026-01-06 21:41:57.51	7.99	7.54	-49.7	-55.6	3.7	0.00e+00	0	45	104	0	70	29200
2026-01-06 21:41:59.52	7.90	7.72	-49.7	-55.5	3.7	0.00e+00	0	45	104	0	70	29035
2026-01-06 21:42:01.52	7.82	7.91	-49.7	-55.5	3.7	0.00e+00	0	45	104	0	70	29034
2026-01-06 21:42:03.53	7.73	8.09	-49.7	-55.5	3.7	0.00e+00	0	45	104	0	70	28861
2026-01-06 21:42:05.54	7.64	8.28	-49.7	-55.5	3.7	0.00e+00	0	45	104	0	70	29015
2026-01-06 21:42:07.55	7.54	8.47	-49.7	-55.5	3.7	0.00e+00	0	45	104	0	70	29043
2026-01-06 21:42:09.56	7.45	8.67	-49.7	-55.5	3.7	0.00e+00	0	46	104	0	70	29028
2026-01-06 21:42:11.56	7.35	8.86	-49.7	-55.5	3.7	0.00e+00	0	46	104	0	70	29083
2026-01-06 21:42:13.57	7.25	9.05	-49.7	-55.6	3.7	0.00e+00	0	46	104	0	70	29247
2026-01-06 21:42:15.58	7.16	9.25	-49.6	-55.3	3.7	0.00e+00	0	46	104	0	70	28245
2026-01-06 21:42:17.63	7.05	9.46	-49.9	-55.5	3.7	0.00e+00	0	46	104	0	70	28880
2026-01-06 21:42:19.70	6.95	9.67	-49.2	-54.9	3.7	0.00e+00	0	46	104	0	70	27161
2026-01-06 21:42:21.74	6.84	9.87	-49.5	-55.3	3.7	0.00e+00	0	46	104	0	70	28330
2026-01-06 21:42:24.22	6.71	10.13	-49.9	-55.8	3.7	0.00e+00	0	46	104	0	70	30022
2026-01-06 21:42:26.23	6.60	10.34	-50.1	-55.4	3.7	0.00e+00	0	46	104	0	70	28608
2026-01-06 21:42:28.24	6.48	10.55	-50.0	-55.7	3.7	0.00e+00	0	46	104	0	71	27915
2026-01-06 21:42:30.32	6.37	10.77	-50.2	-55.7	3.7	0.00e+00	0	46	104	0	71	28076
2026-01-06 21:42:32.33	6.25	10.99	-50.3	-56.1	3.7	0.00e+00	0	46	104	0	71	29217
2026-01-06 21:42:34.48	6.12	11.22	-50.7	-56.3	3.7	0.00e+00	0	46	104	0	72	28464
2026-01-06 21:42:36.49	6.00	11.45	-50.7	-56.2	3.7	0.00e+00	0	47	104	0	72	27942
2026-01-06 21:42:38.50	5.88	11.67	-50.7	-56.1	3.7	0.00e+00	0	47	104	0	71	29467
2026-01-06 21:42:40.52	5.75	11.90	-50.5	-56.2	3.7	0.00e+00	0	47	104	0	72	27867
2026-01-06 21:42:42.52	5.62	12.13	-50.7	-56.3	3.7	0.00e+00	0	47	104	0	72	28244
2026-01-06 21:42:44.53	5.49	12.36	-50.5	-56.2	3.7	0.00e+00	0	47	104	0	72	27969
2026-01-06 21:42:46.54	5.36	12.60	-50.7	-56.1	3.7	0.00e+00	0	47	104	0	72	27560
2026-01-06 21:42:48.54	5.22	12.84	-50.0	-55.7	3.7	0.00e+00	0	47	104	0	72	26315
2026-01-06 21:42:50.55	5.08	13.08	-50.2	-55.5	3.7	0.00e+00	0	47	104	0	72	25792
2026-01-06 21:42:52.55	4.94	13.32	-50.1	-55.6	3.7	0.00e+00	0	47	104	0	71	27605
2026-01-06 21:42:54.56	4.79	13.57	-50.6	-55.9	3.7	0.00e+00	0	47	104	0	71	28535
2026-01-06 21:42:56.56	4.65	13.82	-50.0	-55.2	3.7	0.00e+00	0	47	104	0	72	25090
2026-01-06 21:42:58.57	4.49	14.07	-50.0	-55.3	3.7	0.00e+00	0	47	104	0	72	25123
2026-01-06 21:43:00.57	4.34	14.33	-50.2	-55.7	3.7	0.00e+00	0	47	104	0	71	27880
2026-01-06 21:43:02.68	4.17	14.61	-50.3	-55.7	3.7	0.00e+00	0	47	104	0	72	26399
2026-01-06 21:43:04.75	4.00	14.88	-50.3	-55.7	3.7	0.00e+00	0	47	104	0	72	26333
2026-01-06 21:43:06.75	3.84	15.15	-50.7	-56.0	3.7	0.00e+00	0	47	104	0	72	27388
2026-01-06 21:43:08.76	3.67	15.42	-50.4	-56.0	3.7	0.00e+00	0	47	104	0	72	27270
2026-01-06 21:43:10.77	3.49	15.69	-51.0	-55.5	3.7	0.00e+00	0	47	104	0	72	25785
2026-01-06 21:43:12.77	3.32	15.97	-51.6	-56.4	3.7	0.00e+00	0	47	104	0	73	27006
2026-01-06 21:43:14.78	3.13	16.26	-50.8	-55.2	3.7	0.00e+00	0	47	104	0	73	23629
2026-01-06 21:43:16.78	2.95	16.55	-51.8	-56.7	3.7	0.00e+00	0	47	104	0	74	26355
2026-01-06 21:43:18.79	2.76	16.84	-51.6	-56.2	3.7	0.00e+00	0	47	104	0	74	25084
2026-01-06 21:43:20.79	2.56	17.13	-50.5	-55.5	3.7	0.00e+00	0	47	104	0	73	24312
2026-01-06 21:43:22.80	2.36	17.44	-51.3	-55.2	3.7	0.00e+00	0	47	104	0	73	23445
2026-01-06 21:43:24.81	2.16	17.74	-50.6	-55.0	3.7	0.00e+00	0	47	104	0	73	23140
2026-01-06 21:43:26.81	1.95	18.05	-51.1	-56.1	3.7	0.00e+00	0	47	104	0	73	26113
2026-01-06 21:43:29.09	1.70	18.41	-50.9	-55.9	3.7	0.00e+00	0	47	104	0	73	25552
2026-01-06 21:43:31.09	1.48	18.73	-51.2	-56.4	3.7	0.00e+00	0	47	104	0	73	26906
2026-01-06 21:43:33.10	1.25	19.05	-52.2	-56.8	3.7	0.00e+00	0	47	104	0	75	25176
2026-01-06 21:43:35.11	1.02	19.38	-52.1	-57.0	3.7	0.00e+00	0	48	104	0	74	27495
2026-01-06 21:43:37.17	0.77	19.73	-52.3	-57.3	3.7	0.00e+00	0	47	104	0	75	26638
2026-01-06 21:43:39.12	0.53	20.06	-51.9	-56.9	3.7	0.00e+00	0	47	104	0	75	25640
2026-01-06 21:43:41.25	0.26	20.43	-52.0	-56.8	3.7	0.00e+00	0	47	104	0	75	25102
2026-01-06 21:43:43.46	359.98	20.82	-51.7	-56.6	3.7	0.00e+00	0	47	104	0	75	24705
2026-01-06 21:43:45.43	359.71	21.17	-52.5	-57.1	3.7	0.00e+00	0	47	104	0	75	26190
2026-01-06 21:43:47.44	359.44	21.54	-52.4	-57.1	3.7	0.00e+00	0	47	104	0	75	26070
2026-01-06 21:43:49.45	359.16	21.91	-52.1	-57.1	3.7	0.00e+00	0	47	104	0	75	26071
2026-01-06 21:43:51.45	358.87	22.28	-51.5	-56.4	3.7	0.00e+00	0	47	104	0	74	25424
2026-01-06 21:43:53.46	358.57	22.67	-52.0	-56.7	3.7	0.00e+00	0	47	104	0	74	26553
2026-01-06 21:43:55.46	358.26	23.06	-52.6	-57.3	3.7	0.00e+00	0	47	104	0	75	26880
2026-01-06 21:43:57.58	357.92	23.48	-52.7	-57.3	3.7	0.00e+00	0	47	104	0	75	26642
2026-01-06 21:43:59.64	357.59	23.89	-52.9	-57.5	3.7	0.00e+00	0	47	104	0	76	25939
2026-01-06 21:44:01.64	357.25	24.30	-52.8	-57.6	3.7	0.00e+00	0	47	104	0	76	26067
2026-01-06 21:44:03.64	356.91	24.72	-52.2	-57.1	3.7	0.00e+00	0	47	104	0	76	24644
2026-01-06 21:44:05.65	356.55	25.14	-52.2	-57.0	3.7	0.00e+00	0	47	104	0	76	24459
2026-01-06 21:44:07.66	356.18	25.58	-52.4	-57.0	3.7	0.00e+00	0	47	104	0	76	24292
2026-01-06 21:44:09.90	355.75	26.07	-52.8	-57.3	3.7	0.00e+00	0	48	104	0	76	25361
2026-01-06 21:44:12.26	355.28	26.60	-52.7	-57.3	3.7	0.00e+00	0	47	104	0	76	25212
2026-01-06 21:44:14.41	354.84	27.09	-52.4	-57.3	3.7	0.00e+00	0	47	104	0	76	25098
2026-01-06 21:44:16.56	354.39	27.59	-52.4	-57.2	3.7	0.00e+00	0	47	104	0	76	24985
2026-01-06 21:44:18.80	353.90	28.12	-52.5	-57.1	3.7	0.00e+00	0	48	104	0	76	24616
2026-01-06 21:44:20.95	353.41	28.64	-53.0	-57.4	3.7	0.00e+00	0	48	104	0	76	25623
2026-01-06 21:44:23.14	352.89	29.18	-52.9	-57.5	3.7	0.00e+00	0	47	104	0	76	25761
2026-01-06 21:44:25.30	352.36	29.72	-52.4	-57.1	3.7	0.00e+00	0	48	104	0	76	24764
2026-01-06 21:44:27.36	351.84	30.25	-52.5	-56.9	3.7	0.00e+00	0	48	104	0	76	24177
2026-01-06 21:44:29.37	351.31	30.77	-52.7	-56.9	3.7	0.00e+00	0	47	104	0	76	24085
2026-01-06 21:44:31.37	350.76	31.30	-52.6	-57.4	3.7	0.00e+00	0	48	104	0	76	25574
2026-01-06 21:44:33.47	350.16	31.86	-52.3	-57.0	3.7	0.00e+00	0	48	104	0	76	24364
2026-01-06 21:44:35.48	349.57	32.41	-51.6	-56.6	3.7	0.00e+00	0	48	104	0	75	24587
2026-01-06 21:44:37.49	348.96	32.97	-51.6	-56.6	3.7	0.00e+00	0	48	104	0	74	26184
2026-01-06 21:44:39.67	348.27	33.58	-52.4	-57.2	3.7	0.00e+00	0	47	104	0	75	26313
2026-01-06 21:44:41.74	347.58	34.17	-52.5	-57.4	3.7	0.00e+00	0	48	104	0	75	26914
2026-01-06 21:44:43.74	346.89	34.76	-52.5	-57.3	3.7	0.00e+00	0	48	104	0	75	26751
2026-01-06 21:44:45.75	346.18	35.35	-52.4	-57.4	3.7	0.00e+00	0	48	104	0	75	27072
2026-01-06 21:44:47.75	345.43	35.94	-51.8	-57.1	3.7	0.00e+00	0	48	104	0	75	26008
2026-01-06 21:44:49.77	344.65	36.56	-51.1	-56.6	3.7	0.00e+00	0	48	104	0	74	26147
2026-01-06 21:44:51.77	343.85	37.17	-51.0	-56.5	3.7	0.00e+00	0	48	104	0	74	25883
2026-01-06 21:44:53.78	343.00	37.79	-51.9	-56.9	3.7	0.00e+00	0	48	104	0	74	27106
2026-01-06 21:44:56.11	341.98	38.52	-53.0	-57.6	3.7	0.00e+00	0	48	104	0	76	26161
2026-01-06 21:44:58.10	341.07	39.15	-52.0	-57.1	3.7	0.00e+00	0	48	104	0	76	24692
2026-01-06 21:45:00.12	340.11	39.79	-51.7	-56.9	3.7	0.00e+00	0	48	104	0	75	25613
2026-01-06 21:45:02.19	339.08	40.46	-52.5	-57.5	3.7	0.00e+00	0	48	104	0	75	27225
2026-01-06 21:45:04.19	338.04	41.10	-52.3	-57.1	3.7	0.00e+00	0	47	104	0	75	26248
2026-01-06 21:45:06.20	336.95	41.75	-52.1	-57.3	3.7	0.00e+00	0	48	104	0	75	26661
2026-01-06 21:45:08.20	335.82	42.40	-52.3	-57.3	3.7	0.00e+00	0	47	104	0	75	26858
2026-01-06 21:45:10.21	334.63	43.06	-52.8	-57.5	3.7	0.00e+00	0	48	104	0	76	25789
2026-01-06 21:45:12.22	333.39	43.71	-53.2	-57.8	3.7	0.00e+00	0	48	104	0	76	26622
2026-01-06 21:45:14.23	332.10	44.36	-52.7	-57.4	3.7	0.00e+00	0	48	104	0	77	24160
2026-01-06 21:45:16.30	330.71	45.02	-52.6	-57.5	3.7	0.00e+00	0	48	104	0	76	25913
2026-01-06 21:45:18.30	329.31	45.66	-53.0	-57.5	3.7	0.00e+00	0	48	104	0	76	25908
2026-01-06 21:45:20.31	327.84	46.29	-52.6	-57.4	3.7	0.00e+00	0	48	104	0	76	25562
2026-01-06 21:45:22.32	326.31	46.91	-52.4	-57.3	3.7	0.00e+00	0	48	104	0	76	25210
2026-01-06 21:45:24.32	324.73	47.51	-53.2	-57.7	3.7	0.00e+00	0	48	104	0	77	24945
2026-01-06 21:45:26.33	323.07	48.11	-53.0	-57.5	3.7	0.00e+00	0	48	104	0	77	24486
2026-01-06 21:45:28.34	321.35	48.68	-52.8	-57.4	3.7	0.00e+00	0	48	104	0	77	24008
2026-01-06 21:45:30.34	319.56	49.23	-52.5	-57.1	3.7	0.00e+00	0	48	104	0	76	24625
2026-01-06 21:45:32.43	317.63	49.79	-52.4	-56.9	3.7	0.00e+00	0	48	104	0	76	24201
2026-01-06 21:45:34.44	315.70	50.29	-52.3	-56.9	3.7	0.00e+00	0	48	104	0	76	23965
2026-01-06 21:45:36.51	313.65	50.78	-52.1	-56.9	3.7	0.00e+00	0	48	104	0	76	24085
2026-01-06 21:45:38.51	311.60	51.23	-53.0	-57.7	3.7	0.00e+00	0	48	104	0	76	26318
2026-01-06 21:45:40.52	309.48	51.64	-52.5	-57.2	3.7	0.00e+00	0	47	104	0	76	24925
2026-01-06 21:45:42.53	307.31	52.01	-53.0	-57.4	3.7	0.00e+00	0	47	104	0	76	25657
2026-01-06 21:45:44.54	305.07	52.34	-53.0	-57.5	3.7	0.00e+00	0	48	104	0	76	25775
2026-01-06 21:45:46.54	302.81	52.63	-52.8	-57.2	3.7	0.00e+00	0	48	104	0	76	24991
2026-01-06 21:45:48.55	300.48	52.87	-53.0	-57.4	3.7	0.00e+00	0	48	104	0	76	25645
2026-01-06 21:45:50.56	298.12	53.07	-53.1	-57.5	3.7	0.00e+00	0	48	104	0	76	25701
2026-01-06 21:45:52.57	295.73	53.22	-52.9	-57.0	3.7	0.00e+00	0	48	104	0	76	24372
2026-01-06 21:45:54.58	293.32	53.32	-53.3	-57.5	3.7	0.00e+00	0	48	104	0	77	24258
2026-01-06 21:45:56.58	290.91	53.37	-53.1	-57.5	3.7	0.00e+00	0	48	104	0	77	24476
2026-01-06 21:45:58.59	288.49	53.37	-53.3	-57.8	3.7	0.00e+00	0	48	104	0	77	25166
2026-01-06 21:46:00.59	286.08	53.31	-53.3	-57.6	3.7	0.00e+00	0	48	104	0	77	24733
2026-01-06 21:46:02.60	283.67	53.21	-52.9	-57.6	3.7	0.00e+00	0	48	104	0	77	24633
2026-01-06 21:46:04.69	281.19	53.05	-53.1	-57.7	3.7	0.00e+00	0	48	104	0	77	24980
2026-01-06 21:46:06.69	278.84	52.84	-53.2	-57.7	3.7	0.00e+00	0	48	104	0	77	25046
2026-01-06 21:46:08.84	276.36	52.57	-53.2	-57.7	3.7	0.00e+00	0	48	104	0	77	25062
2026-01-06 21:46:10.88	274.05	52.27	-53.1	-57.7	3.7	0.00e+00	0	48	104	0	77	24949
2026-01-06 21:46:12.98	271.73	51.91	-52.9	-57.5	3.7	0.00e+00	0	48	104	0	77	24445
2026-01-06 21:46:14.99	269.57	51.52	-53.3	-57.7	3.7	0.00e+00	0	48	104	0	77	25005
2026-01-06 21:46:16.99	267.47	51.11	-53.0	-57.6	3.7	0.00e+00	0	48	104	0	77	24614
2026-01-06 21:46:19.00	265.43	50.65	-53.0	-57.7	3.7	0.00e+00	0	48	104	0	77	24965
2026-01-06 21:46:21.00	263.46	50.17	-53.2	-57.7	3.7	0.00e+00	0	48	104	0	77	25019
2026-01-06 21:46:23.00	261.55	49.66	-52.1	-57.2	3.7	0.00e+00	0	48	104	0	76	25019
2026-01-06 21:46:25.01	259.70	49.12	-52.8	-57.6	3.7	0.00e+00	0	48	104	0	76	26117
2026-01-06 21:46:27.02	257.92	48.56	-52.8	-57.4	3.7	0.00e+00	0	48	104	0	77	24121
2026-01-06 21:46:29.03	256.21	47.97	-53.0	-57.5	3.7	0.00e+00	0	48	104	0	77	24311
2026-01-06 21:46:31.03	254.57	47.38	-53.2	-57.6	3.7	0.00e+00	0	48	104	0	77	24792
2026-01-06 21:46:33.04	252.98	46.77	-53.1	-57.5	3.7	0.00e+00	0	48	104	0	77	24349
2026-01-06 21:46:35.12	251.41	46.12	-53.2	-57.5	3.7	0.00e+00	0	48	104	0	77	24361
2026-01-06 21:46:37.13	249.95	45.48	-53.0	-57.7	3.7	0.00e+00	0	47	104	0	77	24990
2026-01-06 21:46:39.14	248.56	44.84	-53.0	-57.6	3.7	0.00e+00	0	48	104	0	77	24613
2026-01-06 21:46:41.19	247.19	44.18	-52.9	-57.5	3.7	0.00e+00	0	48	104	0	77	24483
2026-01-06 21:46:43.20	245.91	43.53	-53.1	-57.7	3.7	0.00e+00	0	48	104	0	77	24822
2026-01-06 21:46:45.35	244.59	42.82	-53.0	-57.6	3.7	0.00e+00	0	48	104	0	77	24589
2026-01-06 21:46:47.36	243.42	42.17	-52.8	-57.6	3.7	0.00e+00	0	48	104	0	77	24560
2026-01-06 21:46:49.47	242.24	41.48	-53.0	-57.6	3.7	0.00e+00	0	48	104	0	77	24685
2026-01-06 21:46:51.48	241.16	40.83	-53.2	-57.6	3.7	0.00e+00	0	48	104	0	77	24758
2026-01-06 21:46:53.49	240.13	40.18	-53.2	-57.7	3.7	0.00e+00	0	48	104	0	77	25053
2026-01-06 21:46:55.49	239.15	39.53	-53.2	-57.7	3.7	0.00e+00	0	48	104	0	77	24896
2026-01-06 21:46:57.50	238.20	38.89	-53.2	-57.7	3.7	0.00e+00	0	48	104	0	77	24954
2026-01-06 21:46:59.50	237.29	38.26	-53.0	-57.2	3.7	0.00e+00	0	48	104	0	77	23679
2026-01-06 21:47:01.51	236.42	37.63	-52.9	-57.3	3.7	0.00e+00	0	48	104	0	77	23853
2026-01-06 21:47:03.52	235.58	37.00	-52.4	-57.3	3.7	0.00e+00	0	48	104	0	76	25098
2026-01-06 21:47:05.52	234.78	36.39	-52.4	-57.3	3.7	0.00e+00	0	48	104	0	76	25353
2026-01-06 21:47:07.53	234.00	35.78	-52.4	-57.5	3.7	0.00e+00	0	48	104	0	76	25705
2026-01-06 21:47:09.54	233.26	35.18	-52.5	-57.1	3.7	0.00e+00	0	48	104	0	76	24606
2026-01-06 21:47:11.62	232.52	34.56	-52.9	-57.3	3.7	0.00e+00	0	48	104	0	76	25332
2026-01-06 21:47:13.80	231.77	33.93	-52.6	-57.3	3.7	0.00e+00	0	48	104	0	76	25235
2026-01-06 21:47:15.81	231.11	33.35	-52.7	-57.3	3.7	0.00e+00	0	48	104	0	76	25349
2026-01-06 21:47:17.81	230.48	32.79	-53.0	-57.7	3.7	0.00e+00	0	48	104	0	76	26302
2026-01-06 21:47:19.82	229.87	32.23	-53.0	-57.7	3.7	0.00e+00	0	48	104	0	76	26343
2026-01-06 21:47:22.00	229.23	31.64	-52.8	-57.6	3.7	0.00e+00	0	48	104	0	76	26017
2026-01-06 21:47:24.24	228.60	31.03	-52.8	-57.6	3.7	0.00e+00	0	48	104	0	76	26014
2026-01-06 21:47:26.36	228.03	30.47	-53.0	-57.6	3.7	0.00e+00	0	48	104	0	76	26080
2026-01-06 21:47:28.68	227.42	29.87	-53.1	-57.6	3.7	0.00e+00	0	48	104	0	76	26231
2026-01-06 21:47:30.69	226.92	29.36	-53.1	-57.6	3.7	0.00e+00	0	48	104	0	76	26138
2026-01-06 21:47:32.69	226.43	28.86	-53.0	-57.4	3.7	0.00e+00	0	48	104	0	76	25441
2026-01-06 21:47:34.70	225.96	28.37	-52.8	-57.3	3.7	0.00e+00	0	48	104	0	76	25108
2026-01-06 21:47:36.71	225.51	27.88	-52.9	-57.3	3.7	0.00e+00	0	48	104	0	76	25168
2026-01-06 21:47:38.72	225.07	27.41	-53.0	-57.4	3.7	0.00e+00	0	48	104	0	76	25435
2026-01-06 21:47:40.72	224.65	26.94	-52.8	-57.2	3.7	0.00e+00	0	48	104	0	76	25060
2026-01-06 21:47:42.73	224.23	26.48	-52.8	-57.2	3.7	0.00e+00	0	48	104	0	76	24896
2026-01-06 21:47:44.74	223.84	26.03	-52.5	-57.3	3.7	0.00e+00	0	48	104	0	76	25129
2026-01-06 21:47:46.74	223.45	25.58	-52.7	-57.4	3.7	0.00e+00	0	48	104	0	76	25441
2026-01-06 21:47:48.99	223.03	25.09	-53.0	-57.6	3.7	0.00e+00	0	48	104	0	76	26249
2026-01-06 21:47:50.99	222.67	24.67	-53.0	-57.7	3.7	0.00e+00	0	48	104	0	76	26390
2026-01-06 21:47:53.00	222.32	24.25	-53.0	-57.5	3.7	0.00e+00	0	48	104	0	76	25960
2026-01-06 21:47:55.00	221.98	23.83	-53.0	-57.5	3.7	0.00e+00	0	48	104	0	76	25706
2026-01-06 21:47:57.01	221.65	23.42	-52.9	-57.4	3.7	0.00e+00	0	48	104	0	76	25599
2026-01-06 21:47:59.01	221.33	23.03	-52.8	-57.2	3.7	0.00e+00	0	48	104	0	76	24918
2026-01-06 21:48:01.02	221.02	22.63	-52.7	-57.1	3.7	0.00e+00	0	48	104	0	76	24526
2026-01-06 21:48:03.21	220.69	22.21	-52.7	-57.1	3.7	0.00e+00	0	48	104	0	76	24527
2026-01-06 21:48:05.27	220.39	21.82	-52.9	-57.3	3.7	0.00e+00	0	48	104	0	76	25195
2026-01-06 21:48:07.25	220.11	21.45	-52.8	-57.3	3.7	0.00e+00	0	48	104	0	76	25131
2026-01-06 21:48:09.26	219.83	21.08	-52.6	-57.1	3.7	0.00e+00	0	48	104	0	76	24757
2026-01-06 21:48:11.27	219.56	20.72	-52.6	-57.1	3.7	0.00e+00	0	48	104	0	76	24782
2026-01-06 21:48:13.27	219.30	20.37	-52.5	-57.1	3.7	0.00e+00	0	48	104	0	76	24792
2026-01-06 21:48:15.34	219.03	20.01	-52.6	-57.2	3.7	0.00e+00	0	48	104	0	76	24911
2026-01-06 21:48:17.53	218.76	19.63	-52.7	-57.0	3.7	0.00e+00	0	48	104	0	76	24447
2026-01-06 21:48:19.53	218.52	19.30	-52.8	-57.2	3.7	0.00e+00	0	48	104	0	76	24845
2026-01-06 21:48:21.54	218.29	18.96	-52.7	-57.3	3.7	0.00e+00	0	48	104	0	76	25096
2026-01-06 21:48:23.54	218.06	18.64	-52.5	-57.0	3.7	0.00e+00	0	48	104	0	76	24398
2026-01-06 21:48:25.55	217.83	18.31	-52.4	-57.0	3.7	0.00e+00	0	48	104	0	76	24503
2026-01-06 21:48:27.56	217.61	18.00	-52.4	-57.1	3.7	0.00e+00	0	48	104	0	76	24536
2026-01-06 21:48:29.56	217.40	17.69	-52.4	-57.1	3.7	0.00e+00	0	48	104	0	76	24796
2026-01-06 21:48:31.56	217.19	17.38	-52.5	-57.1	3.7	0.00e+00	0	48	104	0	76	24683
2026-01-06 21:48:33.57	216.99	17.07	-52.3	-57.2	3.7	0.00e+00	0	48	104	0	76	24898
2026-01-06 21:48:35.57	216.79	16.78	-52.3	-57.1	3.7	0.00e+00	0	48	104	0	76	24657
2026-01-06 21:48:37.58	216.60	16.48	-52.2	-56.8	3.6	0.00e+00	0	48	104	0	76	23708
2026-01-06 21:48:39.59	216.41	16.19	-52.1	-56.9	3.7	0.00e+00	0	48	104	0	76	23981
2026-01-06 21:48:41.50	216.23	15.92	-52.2	-56.7	3.7	0.00e+00	0	48	104	0	76	23574
2026-01-06 21:48:43.50	216.05	15.64	-52.3	-56.8	3.7	0.00e+00	0	48	104	0	76	23895
2026-01-06 21:48:45.51	215.88	15.36	-52.2	-56.7	3.7	0.00e+00	0	48	104	0	76	23565
2026-01-06 21:48:47.52	215.70	15.08	-52.4	-56.9	3.7	0.00e+00	0	48	104	0	76	24089
2026-01-06 21:48:49.52	215.54	14.81	-52.4	-56.8	3.7	0.00e+00	0	48	104	0	76	23768
2026-01-06 21:48:51.53	215.37	14.55	-52.4	-56.9	3.7	0.00e+00	0	48	104	0	76	24001
2026-01-06 21:48:53.53	215.21	14.28	-52.6	-57.0	3.7	0.00e+00	0	48	104	0	76	24338
2026-01-06 21:48:55.53	215.05	14.03	-52.6	-56.9	3.7	0.00e+00	0	48	104	0	76	24215
2026-01-06 21:48:57.54	214.90	13.77	-52.4	-57.0	3.7	0.00e+00	0	48	104	0	76	24278
2026-01-06 21:48:59.54	214.75	13.52	-52.3	-56.9	3.7	0.00e+00	0	48	104	0	76	24024
2026-01-06 21:49:01.55	214.60	13.27	-52.2	-56.9	3.7	0.00e+00	0	48	104	0	76	24039
2026-01-06 21:49:03.56	214.45	13.02	-52.2	-56.9	3.7	0.00e+00	0	48	104	0	76	24127
2026-01-06 21:49:05.56	214.31	12.78	-52.2	-56.7	3.7	0.00e+00	0	48	104	0	75	25063
2026-01-06 21:49:07.57	214.17	12.54	-52.0	-56.8	3.7	0.00e+00	0	48	104	0	75	25236
2026-01-06 21:49:09.58	214.03	12.30	-52.0	-56.6	3.7	0.00e+00	0	48	104	0	75	24751
2026-01-06 21:49:11.58	213.90	12.06	-52.1	-56.7	3.7	0.00e+00	0	48	104	0	75	24837
2026-01-06 21:49:13.59	213.77	11.83	-52.1	-56.8	3.7	0.00e+00	0	48	104	0	75	25317
2026-01-06 21:49:15.60	213.64	11.60	-52.1	-56.8	3.7	0.00e+00	0	48	104	0	75	25226
2026-01-06 21:49:17.60	213.51	11.38	-52.0	-56.8	3.7	0.00e+00	0	48	104	0	75	25349
2026-01-06 21:49:19.54	213.40	11.16	-52.2	-56.9	3.7	0.00e+00	0	48	104	0	75	25569
2026-01-06 21:49:21.65	213.27	10.93	-52.1	-56.9	3.7	0.00e+00	0	48	104	0	75	25624
2026-01-06 21:49:23.71	213.15	10.70	-52.1	-56.9	3.7	0.00e+00	0	48	104	0	75	25503
2026-01-06 21:49:25.77	213.03	10.48	-52.2	-56.8	3.7	0.00e+00	0	48	104	0	75	25341
2026-01-06 21:49:27.82	212.91	10.27	-52.2	-56.9	3.7	0.00e+00	0	48	104	0	75	25637
2026-01-06 21:49:29.83	212.80	10.05	-51.7	-56.5	3.7	0.00e+00	0	48	104	0	75	24489
2026-01-06 21:49:31.83	212.69	9.85	-51.9	-56.5	3.7	0.00e+00	0	48	104	0	75	24384
2026-01-06 21:49:33.83	212.58	9.64	-51.7	-56.5	3.7	0.00e+00	0	48	104	0	75	24264
2026-01-06 21:49:35.84	212.47	9.44	-51.9	-56.6	3.7	0.00e+00	0	48	104	0	75	24694
2026-01-06 21:49:37.85	212.37	9.23	-51.9	-56.5	3.7	0.00e+00	0	48	104	0	75	24288
2026-01-06 21:49:39.86	212.27	9.03	-51.9	-56.6	3.7	0.00e+00	0	48	104	0	75	24655
2026-01-06 21:49:41.98	212.16	8.82	-52.4	-57.0	3.7	0.00e+00	0	48	104	0	75	25694
2026-01-06 21:49:43.98	212.06	8.63	-52.8	-57.3	3.7	0.00e+00	0	48	104	0	76	25221
2026-01-06 21:49:46.00	211.96	8.43	-52.8	-57.3	3.7	0.00e+00	0	48	104	0	76	25163
2026-01-06 21:49:48.00	211.87	8.24	-53.1	-57.9	3.7	0.00e+00	0	48	104	0	77	25441
2026-01-06 21:49:50.01	211.78	8.05	-53.4	-57.7	3.7	0.00e+00	0	48	104	0	77	25073
2026-01-06 21:49:52.02	211.68	7.86	-53.4	-57.9	3.7	0.00e+00	0	48	104	0	77	25620
2026-01-06 21:49:54.04	211.59	7.68	-52.6	-57.4	3.7	0.00e+00	0	48	104	0	77	24177
2026-01-06 21:49:56.13	211.50	7.48	-53.3	-57.9	3.7	0.00e+00	0	48	104	0	77	25484
2026-01-06 21:49:58.31	211.41	7.29	-52.7	-57.2	3.7	0.00e+00	0	48	104	0	77	23576
2026-01-06 21:50:00.51	211.31	7.09	-52.6	-57.3	3.7	0.00e+00	0	47	104	0	76	25302
2026-01-06 21:50:02.52	211.23	6.91	-52.4	-57.1	3.7	0.00e+00	0	48	104	0	76	24545
2026-01-06 21:50:04.53	211.14	6.73	-52.3	-57.0	3.7	0.00e+00	0	48	104	0	76	24369
2026-01-06 21:50:06.54	211.06	6.56	-52.3	-57.0	3.7	0.00e+00	0	48	104	0	76	24350
2026-01-06 21:50:08.55	210.98	6.38	-52.3	-57.0	3.7	0.00e+00	0	48	104	0	76	24450
2026-01-06 21:50:10.56	210.90	6.21	-52.3	-57.0	3.7	0.00e+00	0	48	104	0	76	24405
2026-01-06 21:50:12.56	210.83	6.04	-52.3	-57.1	3.7	0.00e+00	0	48	104	0	76	24584
2026-01-06 21:50:14.57	210.75	5.87	-52.3	-57.0	3.7	0.00e+00	0	48	104	0	76	24413
2026-01-06 21:50:16.58	210.67	5.70	-52.3	-57.0	3.7	0.00e+00	0	48	104	0	76	24501
2026-01-06 21:50:18.59	210.60	5.53	-52.3	-57.0	3.7	0.00e+00	0	48	104	0	76	24385
2026-01-06 21:50:20.59	210.53	5.37	-52.4	-57.1	3.7	0.00e+00	0	48	104	0	76	24529
2026-01-06 21:50:22.60	210.45	5.20	-52.3	-57.0	3.7	0.00e+00	0	48	104	0	76	24430
2026-01-06 21:50:24.61	210.38	5.04	-52.4	-57.0	3.7	0.00e+00	0	48	104	0	76	24441

#Closed at: 2026-01-06 21:50:26
#Recorded file [0 MB]: D:/Data/31040_260107_004129.dat