passes_logs/2026/01/06/T1/T1__20260106_022501_SUOMI_NPP_rec.log

#Pass ID: 20260106_022501_SUOMI NPP
#Satellite: SUOMI NPP
#Configuration: NPP
#almurnet v.1.7.20251203
#Start time: 2026-01-06 02:25:03

#Version: 2.0.20230620
#Station: T1
#Location: 37.570604 lon 55.790049 lat
#TLE: 1 37849U 11061A   26004.95404768  .00000136  00000+0  85334-4 0  9991
#TLE: 2 37849  98.7801 307.0898 0002575  80.6707 279.4760 14.19522289735281

#Time	Az	El	Level	Level2	SNR	BER	BlckErr	Temp	State	Recorded	gain1	gain2
2026-01-06 02:25:03.57	0.40	5.09	-50.4	-65.9	3.8	1.49e+00	0	40	0	0	71	22575
2026-01-06 02:25:05.59	0.16	5.18	-50.3	-65.9	3.8	1.49e+00	0	40	104	0	72	21304
2026-01-06 02:25:07.64	359.92	5.27	-50.3	-65.8	3.8	1.49e+00	0	41	104	0	72	21223
2026-01-06 02:25:09.65	359.67	5.36	-50.3	-65.8	3.8	1.49e+00	0	41	104	0	72	21107
2026-01-06 02:25:11.66	359.43	5.45	-50.3	-65.8	3.8	1.49e+00	0	41	104	0	72	21177
2026-01-06 02:25:13.67	359.18	5.54	-50.3	-65.8	3.8	1.49e+00	0	41	104	0	72	21200
2026-01-06 02:25:15.68	358.93	5.62	-50.3	-65.8	3.8	1.49e+00	0	41	104	0	72	21167
2026-01-06 02:25:17.69	358.68	5.71	-50.3	-65.8	3.8	1.49e+00	0	41	104	0	72	21230
2026-01-06 02:25:19.76	358.43	5.80	-50.3	-65.8	3.8	1.49e+00	0	41	104	0	72	21238
2026-01-06 02:25:21.77	358.17	5.89	-50.3	-65.8	3.8	1.49e+00	0	41	104	0	72	21201
2026-01-06 02:25:23.78	357.92	5.97	-50.3	-65.8	3.8	1.49e+00	0	41	104	0	72	21259
2026-01-06 02:25:25.78	357.66	6.06	-50.3	-65.8	3.8	1.49e+00	0	41	104	0	72	21192
2026-01-06 02:25:27.79	357.41	6.15	-50.3	-65.8	3.8	1.49e+00	0	42	104	0	72	21245
2026-01-06 02:25:29.80	357.15	6.23	-50.3	-65.8	3.8	1.49e+00	0	41	104	0	72	21171
2026-01-06 02:25:31.81	356.89	6.32	-50.3	-65.8	3.8	1.49e+00	0	42	104	0	72	21171
2026-01-06 02:25:33.82	356.63	6.40	-50.3	-65.8	3.8	1.49e+00	0	42	104	0	72	21158
2026-01-06 02:25:35.83	356.36	6.49	-50.3	-65.8	3.8	1.49e+00	0	42	104	0	72	21226
2026-01-06 02:25:37.83	356.10	6.57	-50.3	-65.8	3.8	1.49e+00	0	42	104	0	72	21242
2026-01-06 02:25:39.84	355.83	6.66	-50.3	-65.8	3.8	1.49e+00	0	42	104	0	72	21222
2026-01-06 02:25:41.85	355.56	6.74	-50.3	-65.8	3.8	1.49e+00	0	42	104	0	72	21194
2026-01-06 02:25:43.86	355.29	6.82	-50.3	-65.9	3.8	1.49e+00	0	42	104	0	72	21288
2026-01-06 02:25:45.86	355.02	6.91	-50.3	-65.9	3.8	1.49e+00	0	42	104	0	72	21294
2026-01-06 02:25:47.87	354.75	6.99	-50.3	-65.8	3.8	1.49e+00	0	42	104	0	72	21150
2026-01-06 02:25:49.88	354.48	7.07	-50.3	-65.8	3.8	1.49e+00	0	42	104	0	72	21250
2026-01-06 02:25:51.89	354.20	7.15	-50.3	-65.8	3.8	1.49e+00	0	42	104	0	72	21173
2026-01-06 02:25:53.90	353.92	7.24	-50.3	-65.8	3.8	1.49e+00	0	42	104	0	72	21193
2026-01-06 02:25:55.91	353.64	7.32	-50.3	-65.8	3.8	1.49e+00	0	42	104	0	72	21232
2026-01-06 02:25:57.92	353.36	7.40	-50.3	-65.9	3.8	1.49e+00	0	42	104	0	72	21312
2026-01-06 02:25:59.92	353.08	7.48	-50.3	-65.8	3.8	1.49e+00	0	42	104	0	72	21196
2026-01-06 02:26:01.93	352.80	7.56	-50.3	-65.8	3.8	1.49e+00	0	42	104	0	72	21224
2026-01-06 02:26:03.94	352.51	7.64	-50.3	-65.8	3.8	1.49e+00	0	42	104	0	72	21183
2026-01-06 02:26:05.95	352.22	7.72	-50.3	-65.8	3.8	1.49e+00	0	42	104	0	72	21249
2026-01-06 02:26:07.96	351.93	7.80	-50.3	-65.8	3.8	1.49e+00	0	42	104	0	72	21159
2026-01-06 02:26:09.97	351.64	7.88	-50.3	-65.8	3.8	1.49e+00	0	42	104	0	72	21216
2026-01-06 02:26:11.98	351.35	7.96	-50.3	-65.8	3.8	1.49e+00	0	42	104	0	72	21151
2026-01-06 02:26:13.98	351.06	8.03	-50.3	-65.8	3.8	1.49e+00	0	42	104	0	72	21171
2026-01-06 02:26:15.99	350.76	8.11	-50.3	-65.8	3.8	1.49e+00	0	42	104	0	72	21125
2026-01-06 02:26:18.00	350.47	8.19	-50.3	-65.8	3.8	1.49e+00	0	42	104	0	72	21134
2026-01-06 02:26:20.01	350.17	8.26	-50.3	-65.8	3.8	1.49e+00	0	42	104	0	72	21195
2026-01-06 02:26:22.02	349.87	8.34	-50.3	-65.8	3.8	1.49e+00	0	42	104	0	72	21249
2026-01-06 02:26:24.03	349.57	8.41	-50.3	-65.8	3.8	1.49e+00	0	42	104	0	72	21183
2026-01-06 02:26:26.04	349.26	8.49	-50.3	-65.8	3.8	1.49e+00	0	43	104	0	72	21225
2026-01-06 02:26:28.04	348.96	8.56	-50.3	-65.8	3.8	1.49e+00	0	43	104	0	72	21140
2026-01-06 02:26:30.05	348.65	8.64	-50.3	-65.8	3.8	1.49e+00	0	43	104	0	72	21178
2026-01-06 02:26:32.06	348.34	8.71	-50.3	-65.8	3.8	1.49e+00	0	42	104	0	72	21113
2026-01-06 02:26:34.07	348.03	8.78	-50.3	-65.8	3.8	1.49e+00	0	42	104	0	72	21210
2026-01-06 02:26:36.08	347.72	8.85	-50.3	-65.8	3.8	1.49e+00	0	42	104	0	72	21165
2026-01-06 02:26:38.08	347.41	8.92	-50.3	-65.8	3.8	1.49e+00	0	43	104	0	72	21127
2026-01-06 02:26:40.09	347.10	8.99	-50.3	-65.8	3.8	1.49e+00	0	43	104	0	72	21119
2026-01-06 02:26:42.10	346.78	9.06	-50.3	-65.8	3.8	1.49e+00	0	43	104	0	72	21196
2026-01-06 02:26:44.11	346.46	9.13	-50.3	-65.8	3.8	1.49e+00	0	43	104	0	72	21172
2026-01-06 02:26:46.12	346.14	9.20	-50.3	-65.8	3.8	1.49e+00	0	43	104	0	72	21176
2026-01-06 02:26:48.13	345.82	9.27	-50.3	-65.8	3.8	1.49e+00	0	43	104	0	72	21141
2026-01-06 02:26:50.14	345.50	9.34	-50.3	-65.8	3.8	1.49e+00	0	43	104	0	72	21138
2026-01-06 02:26:52.15	345.18	9.40	-50.3	-65.8	3.8	1.49e+00	0	43	104	0	72	21206
2026-01-06 02:26:54.15	344.85	9.47	-50.3	-65.8	3.8	1.49e+00	0	42	104	0	72	21138
2026-01-06 02:26:56.16	344.53	9.54	-50.3	-65.8	3.8	1.49e+00	0	43	104	0	72	21149
2026-01-06 02:26:58.17	344.20	9.60	-50.3	-65.8	3.8	1.49e+00	0	43	104	0	72	21239
2026-01-06 02:27:00.18	343.87	9.66	-50.3	-65.8	3.8	1.49e+00	0	42	104	0	72	21167
2026-01-06 02:27:02.19	343.54	9.73	-50.3	-65.8	3.8	1.49e+00	0	43	104	0	72	21193
2026-01-06 02:27:04.20	343.21	9.79	-50.3	-65.8	3.8	1.49e+00	0	43	104	0	72	21177
2026-01-06 02:27:06.20	342.87	9.85	-50.3	-65.8	3.8	1.49e+00	0	43	104	0	72	21164
2026-01-06 02:27:08.21	342.54	9.91	-50.3	-65.8	3.8	1.49e+00	0	43	104	0	72	21188
2026-01-06 02:27:10.22	342.20	9.97	-50.3	-65.8	3.8	1.49e+00	0	43	104	0	72	21083
2026-01-06 02:27:12.23	341.86	10.03	-50.3	-65.8	3.8	1.49e+00	0	43	104	0	72	21212
2026-01-06 02:27:14.24	341.52	10.09	-50.3	-65.8	3.8	1.49e+00	0	43	104	0	72	21093
2026-01-06 02:27:16.24	341.18	10.15	-50.3	-65.8	3.8	1.49e+00	0	43	104	0	72	21224
2026-01-06 02:27:18.25	340.84	10.20	-50.3	-65.8	3.8	1.49e+00	0	43	104	0	72	21175
2026-01-06 02:27:20.26	340.50	10.26	-50.3	-65.8	3.8	1.49e+00	0	43	104	0	72	21164
2026-01-06 02:27:22.27	340.15	10.31	-50.3	-65.8	3.8	1.49e+00	0	43	104	0	72	21188
2026-01-06 02:27:24.28	339.81	10.37	-50.3	-65.8	3.8	1.49e+00	0	43	104	0	72	21147
2026-01-06 02:27:26.28	339.46	10.42	-50.3	-65.8	3.8	1.49e+00	0	43	104	0	72	21187
2026-01-06 02:27:28.29	339.11	10.47	-50.3	-65.8	3.8	1.49e+00	0	43	104	0	72	21219
2026-01-06 02:27:30.30	338.76	10.52	-50.3	-65.9	3.8	1.49e+00	0	43	104	0	72	21279
2026-01-06 02:27:32.31	338.41	10.57	-50.3	-65.8	3.8	1.49e+00	0	43	104	0	72	21183
2026-01-06 02:27:34.32	338.06	10.62	-50.3	-65.8	3.8	1.49e+00	0	43	104	0	72	21195
2026-01-06 02:27:36.32	337.71	10.67	-50.3	-65.8	3.8	1.49e+00	0	43	104	0	72	21167
2026-01-06 02:27:38.36	337.35	10.72	-50.3	-65.8	3.8	1.49e+00	0	42	104	0	72	21243
2026-01-06 02:27:40.37	336.99	10.77	-50.3	-65.8	3.8	1.49e+00	0	43	104	0	72	21207
2026-01-06 02:27:42.38	336.63	10.81	-50.3	-65.8	3.8	1.49e+00	0	43	104	0	72	21152
2026-01-06 02:27:44.38	336.27	10.86	-50.3	-65.8	3.8	1.49e+00	0	43	104	0	72	21178
2026-01-06 02:27:46.39	335.92	10.90	-50.3	-65.8	3.8	1.49e+00	0	43	104	0	72	21114
2026-01-06 02:27:48.48	335.54	10.94	-50.3	-65.8	3.8	1.49e+00	0	43	104	0	72	21224
2026-01-06 02:27:50.57	335.16	10.99	-50.3	-65.8	3.8	1.49e+00	0	43	104	0	72	21205
2026-01-06 02:27:52.64	334.79	11.03	-50.3	-65.8	3.8	1.49e+00	0	43	104	0	72	21183
2026-01-06 02:27:54.71	334.42	11.07	-50.3	-65.8	3.8	1.49e+00	0	43	104	0	72	21176
2026-01-06 02:27:56.78	334.04	11.11	-50.3	-65.8	3.8	1.49e+00	0	43	104	0	72	21110
2026-01-06 02:27:58.79	333.67	11.14	-50.3	-65.8	3.8	1.49e+00	0	43	104	0	72	21257
2026-01-06 02:28:00.80	333.31	11.18	-50.3	-65.8	3.8	1.49e+00	0	43	104	0	72	21184
2026-01-06 02:28:02.81	332.94	11.22	-50.3	-65.8	3.8	1.49e+00	0	43	104	0	72	21232
2026-01-06 02:28:04.81	332.57	11.25	-50.3	-65.8	3.8	1.49e+00	0	42	104	0	72	21220
2026-01-06 02:28:06.82	332.20	11.28	-50.3	-65.8	3.8	1.49e+00	0	43	104	0	72	21160
2026-01-06 02:28:08.83	331.83	11.31	-50.3	-65.8	3.8	1.49e+00	0	43	104	0	72	21166
2026-01-06 02:28:10.83	331.46	11.34	-50.3	-65.8	3.8	1.49e+00	0	43	104	0	72	21224
2026-01-06 02:28:12.84	331.09	11.37	-50.3	-65.8	3.8	1.49e+00	0	43	104	0	72	21153
2026-01-06 02:28:14.85	330.72	11.40	-50.3	-65.8	3.8	1.49e+00	0	43	104	0	72	21124
2026-01-06 02:28:16.86	330.34	11.43	-50.3	-65.8	3.8	1.49e+00	0	43	104	0	72	21177
2026-01-06 02:28:18.87	329.97	11.45	-50.3	-65.8	3.8	1.49e+00	0	43	104	0	72	21151
2026-01-06 02:28:20.87	329.60	11.48	-50.3	-65.9	3.8	1.49e+00	0	43	104	0	72	21273
2026-01-06 02:28:22.88	329.22	11.50	-50.3	-65.8	3.8	1.49e+00	0	43	104	0	72	21248
2026-01-06 02:28:24.89	328.85	11.52	-50.3	-65.8	3.8	1.49e+00	0	43	104	0	72	21148
2026-01-06 02:28:26.90	328.47	11.55	-50.3	-65.8	3.8	1.49e+00	0	43	104	0	72	21138
2026-01-06 02:28:28.90	328.09	11.57	-50.3	-65.8	3.8	1.49e+00	0	43	104	0	72	21245
2026-01-06 02:28:30.91	327.72	11.58	-50.3	-65.8	3.8	1.49e+00	0	43	104	0	72	21229
2026-01-06 02:28:32.92	327.34	11.60	-50.3	-65.8	3.8	1.49e+00	0	43	104	0	72	21239
2026-01-06 02:28:34.93	326.96	11.62	-50.3	-65.8	3.8	1.49e+00	0	43	104	0	72	21245
2026-01-06 02:28:36.94	326.58	11.63	-50.3	-65.8	3.8	1.49e+00	0	43	104	0	72	21199
2026-01-06 02:28:38.93	326.21	11.65	-50.3	-65.9	3.8	1.49e+00	0	43	104	0	72	21281
2026-01-06 02:28:40.93	325.83	11.66	-50.3	-65.9	3.8	1.49e+00	0	43	104	0	72	21279
2026-01-06 02:28:42.94	325.45	11.67	-50.3	-65.8	3.8	1.49e+00	0	43	104	0	72	21246
2026-01-06 02:28:44.95	325.07	11.68	-50.3	-65.8	3.8	1.49e+00	0	43	104	0	72	21247
2026-01-06 02:28:46.96	324.69	11.69	-50.3	-65.8	3.8	1.49e+00	0	43	104	0	72	21239
2026-01-06 02:28:48.96	324.31	11.70	-50.3	-65.8	3.8	1.49e+00	0	43	104	0	72	21188
2026-01-06 02:28:50.97	323.93	11.71	-50.3	-65.9	3.8	1.49e+00	0	43	104	0	72	21336
2026-01-06 02:28:53.15	323.51	11.71	-50.3	-65.9	3.8	1.49e+00	0	43	104	0	72	21333
2026-01-06 02:28:55.16	323.13	11.72	-50.3	-65.8	3.8	1.49e+00	0	43	104	0	72	21237
2026-01-06 02:28:57.16	322.75	11.72	-50.3	-65.8	3.8	1.49e+00	0	43	104	0	72	21160
2026-01-06 02:28:59.17	322.37	11.72	-50.3	-65.8	3.8	1.49e+00	0	43	104	0	72	21163
2026-01-06 02:29:01.61	321.91	11.72	-50.3	-65.8	3.8	1.49e+00	0	43	104	0	72	21232
2026-01-06 02:29:03.65	321.52	11.72	-50.3	-65.8	3.8	1.49e+00	0	43	104	0	72	21231
2026-01-06 02:29:05.66	321.14	11.72	-50.3	-65.9	3.8	1.49e+00	0	43	104	0	72	21272
2026-01-06 02:29:07.66	320.76	11.71	-50.3	-65.8	3.8	1.49e+00	0	43	104	0	72	21177
2026-01-06 02:29:09.72	320.37	11.71	-50.3	-65.9	3.8	1.49e+00	0	43	104	0	72	21285
2026-01-06 02:29:11.81	319.97	11.70	-50.3	-65.8	3.8	1.49e+00	0	43	104	0	72	21258
2026-01-06 02:29:13.88	319.58	11.70	-50.3	-65.9	3.8	1.49e+00	0	43	104	0	72	21271
2026-01-06 02:29:15.89	319.20	11.69	-50.3	-65.9	3.8	1.49e+00	0	43	104	0	72	21313
2026-01-06 02:29:17.90	318.82	11.68	-50.3	-65.9	3.8	1.49e+00	0	43	104	0	72	21263
2026-01-06 02:29:19.91	318.44	11.67	-50.3	-65.8	3.8	1.49e+00	0	43	104	0	72	21233
2026-01-06 02:29:21.91	318.06	11.65	-50.3	-65.9	3.8	1.49e+00	0	43	104	0	72	21269
2026-01-06 02:29:23.92	317.68	11.64	-50.3	-65.8	3.8	1.49e+00	0	43	104	0	72	21254
2026-01-06 02:29:25.93	317.30	11.63	-50.3	-65.9	3.8	1.49e+00	0	43	104	0	72	21271
2026-01-06 02:29:27.94	316.92	11.61	-50.3	-65.8	3.8	1.49e+00	0	43	104	0	72	21255
2026-01-06 02:29:29.94	316.54	11.59	-50.3	-65.9	3.8	1.49e+00	0	42	104	0	72	21283
2026-01-06 02:29:31.95	316.17	11.58	-50.3	-65.8	3.8	1.49e+00	0	43	104	0	72	21217
2026-01-06 02:29:33.96	315.79	11.56	-50.3	-65.9	3.8	1.49e+00	0	43	104	0	72	21377
2026-01-06 02:29:35.97	315.41	11.54	-50.3	-65.9	3.8	1.49e+00	0	43	104	0	72	21289
2026-01-06 02:29:37.98	315.03	11.51	-50.3	-65.8	3.8	1.49e+00	0	43	104	0	72	21240
2026-01-06 02:29:39.98	314.66	11.49	-50.3	-65.8	3.8	1.49e+00	0	43	104	0	72	21209
2026-01-06 02:29:41.99	314.28	11.47	-50.3	-65.9	3.8	1.49e+00	0	43	104	0	72	21325
2026-01-06 02:29:44.00	313.91	11.44	-50.3	-65.9	3.8	1.49e+00	0	43	104	0	72	21382
2026-01-06 02:29:46.01	313.54	11.41	-50.3	-65.9	3.8	1.49e+00	0	43	104	0	72	21336
2026-01-06 02:29:48.01	313.16	11.39	-50.3	-65.9	3.8	1.49e+00	0	43	104	0	72	21298
2026-01-06 02:29:50.02	312.79	11.36	-50.3	-65.9	3.8	1.49e+00	0	43	104	0	72	21325
2026-01-06 02:29:52.03	312.42	11.33	-50.3	-65.9	3.8	1.49e+00	0	43	104	0	72	21365
2026-01-06 02:29:54.04	312.05	11.30	-50.3	-65.9	3.8	1.49e+00	0	43	104	0	72	21305
2026-01-06 02:29:56.05	311.68	11.27	-50.3	-65.8	3.8	1.49e+00	0	43	104	0	72	21223
2026-01-06 02:29:58.06	311.31	11.23	-50.3	-65.8	3.8	1.49e+00	0	43	104	0	72	21255
2026-01-06 02:30:00.07	310.94	11.20	-50.3	-65.9	3.8	1.49e+00	0	43	104	0	72	21336
2026-01-06 02:30:02.07	310.57	11.16	-50.3	-65.8	3.8	1.49e+00	0	43	104	0	72	21240
2026-01-06 02:30:04.08	310.21	11.13	-50.3	-65.9	3.8	1.49e+00	0	43	104	0	72	21329
2026-01-06 02:30:06.09	309.84	11.09	-50.3	-65.9	3.8	1.49e+00	0	43	104	0	72	21327
2026-01-06 02:30:08.10	309.47	11.05	-50.3	-65.9	3.8	1.49e+00	0	43	104	0	72	21311
2026-01-06 02:30:10.11	309.11	11.01	-50.3	-65.9	3.8	1.49e+00	0	43	104	0	72	21274
2026-01-06 02:30:12.11	308.75	10.97	-50.3	-65.9	3.8	1.49e+00	0	43	104	0	72	21324
2026-01-06 02:30:14.12	308.39	10.93	-50.3	-65.9	3.8	1.49e+00	0	43	104	0	72	21294
2026-01-06 02:30:16.13	308.03	10.88	-50.3	-65.9	3.8	1.49e+00	0	43	104	0	72	21275
2026-01-06 02:30:18.14	307.67	10.84	-50.3	-65.8	3.8	1.49e+00	0	43	104	0	72	21242
2026-01-06 02:30:20.14	307.31	10.80	-50.3	-65.9	3.8	1.49e+00	0	43	104	0	72	21330
2026-01-06 02:30:22.15	306.95	10.75	-50.3	-65.8	3.8	1.49e+00	0	43	104	0	72	21244
2026-01-06 02:30:24.16	306.59	10.70	-50.3	-65.8	3.8	1.49e+00	0	43	104	0	72	21238
2026-01-06 02:30:26.17	306.24	10.66	-50.3	-65.9	3.8	1.49e+00	0	43	104	0	72	21302
2026-01-06 02:30:28.18	305.88	10.61	-50.3	-65.8	3.8	1.49e+00	0	43	104	0	72	21240
2026-01-06 02:30:30.18	305.53	10.56	-50.3	-65.9	3.8	1.49e+00	0	43	104	0	72	21292
2026-01-06 02:30:32.19	305.18	10.51	-50.3	-65.9	3.8	1.49e+00	0	43	104	0	72	21339
2026-01-06 02:30:34.20	304.83	10.45	-50.3	-65.9	3.8	1.49e+00	0	43	104	0	72	21364
2026-01-06 02:30:36.21	304.48	10.40	-50.3	-65.8	3.8	1.49e+00	0	43	104	0	72	21215
2026-01-06 02:30:38.22	304.13	10.35	-50.3	-65.8	3.8	1.49e+00	0	43	104	0	72	21240
2026-01-06 02:30:40.13	303.80	10.30	-50.3	-65.9	3.8	1.49e+00	0	43	104	0	72	21344
2026-01-06 02:30:42.14	303.46	10.24	-50.3	-65.9	3.8	1.49e+00	0	43	104	0	72	21375
2026-01-06 02:30:44.15	303.11	10.19	-50.3	-65.9	3.8	1.49e+00	0	43	104	0	72	21314
2026-01-06 02:30:46.15	302.77	10.13	-50.3	-65.9	3.8	1.49e+00	0	43	104	0	72	21345
2026-01-06 02:30:48.16	302.43	10.07	-50.3	-65.9	3.8	1.49e+00	0	43	104	0	72	21299
2026-01-06 02:30:50.17	302.09	10.01	-50.3	-65.9	3.8	1.49e+00	0	43	104	0	72	21295
2026-01-06 02:30:52.18	301.75	9.95	-50.3	-65.8	3.8	1.49e+00	0	43	104	0	72	21215
2026-01-06 02:30:54.19	301.41	9.89	-50.3	-65.9	3.8	1.49e+00	0	43	104	0	72	21315
2026-01-06 02:30:56.20	301.08	9.83	-50.3	-65.8	3.8	1.49e+00	0	43	104	0	72	21250
2026-01-06 02:30:58.21	300.74	9.77	-50.3	-65.9	3.8	1.49e+00	0	43	104	0	72	21422
2026-01-06 02:31:00.21	300.41	9.71	-50.3	-65.9	3.8	1.49e+00	0	43	104	0	72	21349
2026-01-06 02:31:02.23	300.08	9.64	-50.3	-65.8	3.8	1.49e+00	0	43	104	0	72	21232
2026-01-06 02:31:04.23	299.75	9.58	-50.3	-65.9	3.8	1.49e+00	0	43	104	0	72	21273
2026-01-06 02:31:06.24	299.42	9.52	-50.3	-65.9	3.8	1.49e+00	0	43	104	0	72	21280
2026-01-06 02:31:08.55	299.04	9.44	-50.3	-65.9	3.8	1.49e+00	0	43	104	0	72	21331
2026-01-06 02:31:10.91	298.66	9.36	-50.3	-65.9	3.8	1.49e+00	0	43	104	0	72	21366
2026-01-06 02:31:13.11	298.31	9.29	-50.3	-65.9	3.8	1.49e+00	0	43	104	0	72	21267
2026-01-06 02:31:15.27	297.96	9.22	-50.3	-65.9	3.8	1.49e+00	0	42	104	0	72	21307
2026-01-06 02:31:17.45	297.61	9.14	-50.3	-65.8	3.8	1.49e+00	0	43	104	0	72	21254
2026-01-06 02:31:19.60	297.27	9.07	-50.3	-65.8	3.8	1.49e+00	0	42	104	0	72	21222
2026-01-06 02:31:21.76	296.93	8.99	-50.3	-65.9	3.8	1.49e+00	0	42	104	0	72	21325
2026-01-06 02:31:23.94	296.59	8.92	-50.3	-65.9	3.8	1.49e+00	0	42	104	0	72	21285
2026-01-06 02:31:26.09	296.25	8.84	-50.3	-65.9	3.8	1.49e+00	0	43	104	0	72	21294
2026-01-06 02:31:28.28	295.91	8.76	-50.3	-65.9	3.8	1.49e+00	0	42	104	0	72	21279
2026-01-06 02:31:30.45	295.58	8.68	-50.3	-65.8	3.8	1.49e+00	0	43	104	0	72	21245
2026-01-06 02:31:32.60	295.25	8.60	-50.3	-65.9	3.8	1.49e+00	0	42	104	0	72	21281
2026-01-06 02:31:34.76	294.92	8.52	-50.3	-65.8	3.8	1.49e+00	0	43	104	0	72	21155
2026-01-06 02:31:37.15	294.56	8.44	-50.3	-65.9	3.8	1.49e+00	0	43	104	0	72	21304
2026-01-06 02:31:39.30	294.23	8.36	-50.3	-65.8	3.8	1.49e+00	0	42	104	0	72	21222
2026-01-06 02:31:41.47	293.91	8.27	-50.3	-65.9	3.8	1.49e+00	0	43	104	0	72	21264
2026-01-06 02:31:43.64	293.58	8.19	-50.3	-65.9	3.8	1.49e+00	0	43	104	0	72	21357
2026-01-06 02:31:45.79	293.26	8.11	-50.3	-65.9	3.8	1.49e+00	0	42	104	0	72	21278
2026-01-06 02:31:47.95	292.94	8.03	-50.3	-65.8	3.8	1.49e+00	0	43	104	0	72	21239
2026-01-06 02:31:50.15	292.62	7.94	-50.3	-65.9	3.8	1.49e+00	0	42	104	0	72	21277
2026-01-06 02:31:52.30	292.31	7.86	-50.3	-65.9	3.8	1.49e+00	0	42	104	0	72	21270
2026-01-06 02:31:54.47	291.99	7.77	-50.3	-65.9	3.8	1.49e+00	0	42	104	0	72	21286
2026-01-06 02:31:56.62	291.68	7.69	-50.3	-65.9	3.8	1.49e+00	0	43	104	0	72	21289
2026-01-06 02:31:58.78	291.37	7.60	-50.3	-65.8	3.8	1.49e+00	0	42	104	0	72	21254
2026-01-06 02:32:00.94	291.06	7.51	-50.3	-65.9	3.8	1.49e+00	0	43	104	0	72	21349
2026-01-06 02:32:03.13	290.75	7.43	-50.3	-65.9	3.8	1.49e+00	0	42	104	0	72	21330
2026-01-06 02:32:05.28	290.45	7.34	-50.3	-65.8	3.8	1.49e+00	0	42	104	0	72	21188
2026-01-06 02:32:07.46	290.15	7.25	-50.3	-65.9	3.8	1.49e+00	0	42	104	0	72	21301
2026-01-06 02:32:09.63	289.84	7.16	-50.3	-65.9	3.8	1.49e+00	0	43	104	0	72	21266
2026-01-06 02:32:11.78	289.55	7.07	-50.3	-65.8	3.8	1.49e+00	0	43	104	0	72	21249
2026-01-06 02:32:13.93	289.25	6.99	-50.3	-65.9	3.8	1.49e+00	0	42	104	0	72	21285
2026-01-06 02:32:16.10	288.96	6.90	-50.3	-65.9	3.8	1.49e+00	0	42	104	0	72	21281
2026-01-06 02:32:18.25	288.66	6.81	-50.3	-65.8	3.8	1.49e+00	0	43	104	0	72	21240
2026-01-06 02:32:20.40	288.37	6.72	-50.3	-65.8	3.8	1.49e+00	0	42	104	0	72	21205
2026-01-06 02:32:22.59	288.08	6.63	-50.3	-65.8	3.8	1.49e+00	0	42	104	0	72	21241
2026-01-06 02:32:24.75	287.79	6.53	-50.3	-65.9	3.8	1.49e+00	0	42	104	0	72	21293
2026-01-06 02:32:26.91	287.51	6.44	-50.3	-65.9	3.8	1.49e+00	0	42	104	0	72	21284
2026-01-06 02:32:29.07	287.22	6.35	-50.3	-65.8	3.8	1.49e+00	0	42	104	0	72	21207
2026-01-06 02:32:31.24	286.94	6.26	-50.3	-65.9	3.8	1.49e+00	0	42	104	0	72	21297
2026-01-06 02:32:33.41	286.66	6.17	-50.3	-65.8	3.8	1.49e+00	0	42	104	0	72	21191
2026-01-06 02:32:35.56	286.38	6.08	-50.3	-65.8	3.8	1.49e+00	0	42	104	0	72	21257
2026-01-06 02:32:37.76	286.10	5.98	-50.3	-65.8	3.8	1.49e+00	0	42	104	0	72	21228
2026-01-06 02:32:39.92	285.83	5.89	-50.3	-65.8	3.8	1.49e+00	0	42	104	0	72	21210
2026-01-06 02:32:42.09	285.55	5.79	-50.3	-65.8	3.8	1.49e+00	0	42	104	0	72	21245
2026-01-06 02:32:44.24	285.28	5.70	-50.3	-65.8	3.8	1.49e+00	0	42	104	0	72	21159
2026-01-06 02:32:46.41	285.01	5.61	-50.3	-65.8	3.8	1.49e+00	0	42	104	0	72	21218
2026-01-06 02:32:48.56	284.74	5.51	-50.3	-65.8	3.8	1.49e+00	0	42	104	0	72	21206
2026-01-06 02:32:50.71	284.48	5.42	-50.3	-65.9	3.8	1.49e+00	0	43	104	0	72	21278
2026-01-06 02:32:53.12	284.19	5.31	-50.3	-65.8	3.8	1.49e+00	0	42	104	0	72	21124
2026-01-06 02:32:55.29	283.92	5.22	-50.3	-65.8	3.8	1.49e+00	0	42	104	0	72	21234
2026-01-06 02:32:57.44	283.66	5.12	-50.3	-65.8	3.8	1.49e+00	0	43	104	0	72	21186
2026-01-06 02:32:59.59	283.40	5.03	-50.3	-65.8	3.8	1.49e+00	0	42	104	0	72	21196

#Closed at: 2026-01-06 02:33:01
#Recorded file [0 MB]: D:/Data/31040_260106_052503.dat