passes_logs/2026/01/06/T1/T1__20260106_124544_AQUA_rec.log

#Pass ID: 20260106_124544_AQUA
#Satellite: AQUA
#Configuration: AQUA
#almurnet v.1.7.20251203
#Start time: 2026-01-06 12:45:45

#Version: 2.0.20230620
#Station: T1
#Location: 37.570604 lon 55.790049 lat
#TLE: 1 27424U 02022A   26004.96787593  .00001598  00000+0  32997-3 0  9996
#TLE: 2 27424  98.4069 331.2279 0002002  90.2377   0.6092 14.61798176259425

#Time	Az	El	Level	Level2	SNR	BER	BlckErr	Temp	State	Recorded	gain1	gain2
2026-01-06 12:45:45.02	199.25	5.01	-50.4	-71.9	3.8	7.43e-01	0	40	0	0	72	42805
2026-01-06 12:45:48.03	199.48	5.22	-50.5	-71.2	3.8	7.48e-01	0	40	104	0	71	41581
2026-01-06 12:45:51.04	199.72	5.42	-50.5	-71.5	3.8	7.43e-01	0	41	104	0	71	43148
2026-01-06 12:45:54.06	199.96	5.63	-50.4	-71.6	3.8	7.46e-01	0	41	104	0	71	43506
2026-01-06 12:45:57.07	200.21	5.84	-50.4	-71.8	3.8	7.46e-01	0	41	104	0	71	44798
2026-01-06 12:46:00.08	200.46	6.05	-50.4	-71.6	3.8	7.50e-01	0	41	104	0	71	43626
2026-01-06 12:46:03.10	200.71	6.26	-50.4	-69.6	3.8	7.39e-01	0	41	104	0	71	34550
2026-01-06 12:46:06.11	200.96	6.47	-50.4	-70.3	3.8	7.42e-01	0	41	104	0	71	37655
2026-01-06 12:46:09.12	201.22	6.68	-50.4	-70.5	3.8	7.45e-01	0	41	104	0	71	38619
2026-01-06 12:46:12.14	201.49	6.90	-50.4	-68.6	3.8	7.44e-01	0	41	104	0	71	31048
2026-01-06 12:46:15.15	201.76	7.12	-50.3	-69.8	3.9	7.45e-01	0	41	104	0	71	35349
2026-01-06 12:46:18.16	202.03	7.34	-50.3	-69.8	3.8	7.47e-01	0	41	104	0	71	35411
2026-01-06 12:46:21.17	202.31	7.56	-50.3	-65.8	5.4	7.00e-01	0	42	0	0	71	22295
2026-01-06 12:46:24.19	202.59	7.78	-50.4	-70.4	3.9	7.45e-01	0	42	104	524288	71	37861
2026-01-06 12:46:27.20	202.87	8.00	-48.8	-55.5	15.2	6.08e-01	0	42	0	4194304	69	7693
2026-01-06 12:46:30.21	203.16	8.23	-46.4	-50.4	20.1	6.07e-01	0	42	0	9961472	64	5703
2026-01-06 12:46:33.23	203.46	8.45	-46.3	-50.2	20.4	6.04e-01	0	42	0	15728640	63	5917
2026-01-06 12:46:36.24	203.76	8.68	-48.0	-53.6	17.1	6.07e-01	0	42	0	21495808	66	7367
2026-01-06 12:46:39.25	204.06	8.91	-49.7	-59.4	11.3	6.17e-01	0	42	0	26738688	69	11970
2026-01-06 12:46:42.27	204.37	9.15	-49.3	-57.5	13.4	6.10e-01	0	42	0	32505856	70	9086
2026-01-06 12:46:45.28	204.69	9.38	-50.0	-61.2	9.1	6.33e-01	0	42	0	38273024	71	13240
2026-01-06 12:46:48.29	205.01	9.61	-49.2	-55.9	15.1	6.08e-01	0	42	0	44040192	69	8024
2026-01-06 12:46:51.30	205.33	9.85	-48.2	-53.5	17.3	6.06e-01	0	42	0	49283072	68	6445
2026-01-06 12:46:54.30	205.66	10.09	-46.7	-50.6	20.1	6.08e-01	0	42	0	55050240	65	5472
2026-01-06 12:46:57.31	206.00	10.33	-45.9	-49.3	21.4	6.08e-01	0	42	0	60817408	63	5303
2026-01-06 12:47:00.32	206.34	10.57	-45.2	-48.3	22.5	6.07e-01	0	42	0	66584576	62	4987
2026-01-06 12:47:03.33	206.69	10.82	-45.2	-48.3	22.5	6.08e-01	0	42	0	71827456	62	4998
2026-01-06 12:47:06.34	207.05	11.06	-45.2	-48.0	22.7	6.06e-01	0	42	0	77594624	62	4866
2026-01-06 12:47:09.35	207.41	11.31	-45.2	-48.1	22.7	6.08e-01	0	43	0	83361792	62	4884
2026-01-06 12:47:12.37	207.78	11.56	-45.1	-47.9	22.8	6.06e-01	0	42	0	89128960	62	4793
2026-01-06 12:47:15.38	208.15	11.81	-45.2	-48.0	22.7	6.08e-01	0	42	0	94371840	62	4830
2026-01-06 12:47:18.39	208.53	12.07	-45.1	-47.9	22.9	6.06e-01	0	42	0	100139008	62	4781
2026-01-06 12:47:21.40	208.92	12.32	-45.1	-47.9	22.8	6.06e-01	0	42	0	105906176	61	5073
2026-01-06 12:47:24.41	209.32	12.58	-44.9	-47.6	23.1	6.07e-01	0	42	0	111673344	61	4918
2026-01-06 12:47:27.42	209.72	12.84	-44.9	-47.6	23.1	6.07e-01	0	43	0	116916224	61	4926
2026-01-06 12:47:30.43	210.13	13.10	-45.0	-47.8	23.0	6.07e-01	0	42	0	122683392	61	4998
2026-01-06 12:47:33.44	210.55	13.36	-44.9	-47.5	23.2	6.07e-01	0	42	0	128450560	61	4865
2026-01-06 12:47:36.44	210.97	13.63	-44.9	-47.6	23.1	6.08e-01	0	42	0	134217728	61	4886
2026-01-06 12:47:39.46	211.41	13.89	-44.9	-47.6	23.1	6.08e-01	0	42	0	139984896	61	4914
2026-01-06 12:47:42.46	211.85	14.16	-44.8	-47.5	23.2	6.07e-01	0	43	0	145227776	61	4866
2026-01-06 12:47:45.47	212.30	14.43	-44.6	-47.3	23.4	6.05e-01	0	42	0	150994944	61	4758
2026-01-06 12:47:48.48	212.76	14.70	-44.6	-47.4	23.3	6.07e-01	0	42	0	156762112	61	4771
2026-01-06 12:47:51.49	213.22	14.98	-44.8	-47.6	23.2	6.07e-01	0	43	0	162529280	61	4878
2026-01-06 12:47:54.50	213.70	15.25	-44.7	-47.4	23.4	6.07e-01	0	42	0	167772160	61	4780
2026-01-06 12:47:57.51	214.19	15.53	-44.6	-47.3	23.4	6.07e-01	0	43	0	173539328	61	4706
2026-01-06 12:48:00.51	214.68	15.81	-44.6	-47.2	23.5	6.07e-01	0	43	0	179306496	61	4700
2026-01-06 12:48:03.52	215.18	16.09	-44.5	-47.1	23.6	6.06e-01	0	43	0	185073664	60	4926
2026-01-06 12:48:06.53	215.70	16.37	-44.5	-47.2	23.5	6.07e-01	0	43	0	190316544	60	4935
2026-01-06 12:48:09.55	216.23	16.65	-44.4	-47.0	23.7	6.05e-01	0	43	0	196083712	60	4860
2026-01-06 12:48:12.56	216.76	16.94	-44.4	-47.0	23.7	6.04e-01	0	43	0	201850880	60	4856
2026-01-06 12:48:15.57	217.31	17.22	-44.5	-47.1	23.6	6.06e-01	0	43	0	207618048	60	4891
2026-01-06 12:48:18.58	217.86	17.51	-44.5	-47.1	23.6	6.07e-01	0	43	0	213385216	60	4899
2026-01-06 12:48:21.59	218.43	17.80	-44.2	-46.7	23.9	6.06e-01	0	43	0	218628096	60	4703
2026-01-06 12:48:24.60	219.01	18.09	-44.3	-46.9	23.8	6.07e-01	0	43	0	224395264	60	4783
2026-01-06 12:48:27.61	219.60	18.38	-44.4	-47.0	23.7	6.06e-01	0	43	0	230162432	60	4841
2026-01-06 12:48:30.62	220.20	18.67	-44.3	-46.9	23.8	6.06e-01	0	43	0	235405312	60	4792
2026-01-06 12:48:33.63	220.82	18.96	-44.3	-46.9	23.8	6.07e-01	0	43	0	241172480	60	4789
2026-01-06 12:48:36.64	221.44	19.25	-44.4	-47.0	23.7	6.05e-01	0	43	0	246939648	60	4818
2026-01-06 12:48:39.65	222.08	19.55	-44.4	-47.0	23.6	6.06e-01	0	43	0	252706816	60	4863
2026-01-06 12:48:42.66	222.74	19.84	-44.4	-47.0	23.7	6.05e-01	0	43	0	258473984	60	4826
2026-01-06 12:48:45.66	223.40	20.13	-44.6	-47.2	23.5	6.05e-01	0	43	0	263716864	60	4941
2026-01-06 12:48:48.67	224.08	20.43	-44.6	-47.3	23.5	6.07e-01	0	43	0	269484032	60	4988
2026-01-06 12:48:51.68	224.77	20.72	-44.4	-47.0	23.7	6.06e-01	0	42	0	275251200	60	4843
2026-01-06 12:48:54.69	225.47	21.02	-44.5	-47.1	23.6	6.06e-01	0	43	0	281018368	60	4896
2026-01-06 12:48:57.70	226.19	21.31	-44.6	-47.2	23.5	6.07e-01	0	43	0	286261248	60	4951
2026-01-06 12:49:00.71	226.93	21.60	-44.5	-47.2	23.5	6.07e-01	0	43	0	292028416	60	4936
2026-01-06 12:49:03.71	227.67	21.89	-44.5	-47.0	23.7	6.08e-01	0	43	0	297795584	60	4870
2026-01-06 12:49:06.72	228.43	22.18	-44.4	-47.0	23.7	6.07e-01	0	43	0	303562752	60	4869
2026-01-06 12:49:09.73	229.21	22.47	-44.5	-47.2	23.6	6.06e-01	0	43	0	308805632	60	4943
2026-01-06 12:49:12.74	230.00	22.76	-44.8	-47.4	23.3	6.07e-01	0	43	0	314572800	60	5100
2026-01-06 12:49:15.75	230.81	23.04	-44.8	-47.4	23.3	6.08e-01	0	43	0	320339968	60	5085
2026-01-06 12:49:18.76	231.63	23.32	-44.7	-47.3	23.4	6.06e-01	0	43	0	326107136	60	5029
2026-01-06 12:49:21.77	232.47	23.60	-44.6	-47.2	23.5	6.07e-01	0	43	0	331350016	60	4961
2026-01-06 12:49:24.79	233.33	23.88	-44.5	-47.2	23.5	6.05e-01	0	43	0	337117184	60	4960
2026-01-06 12:49:27.80	234.19	24.15	-44.6	-47.3	23.5	6.06e-01	0	43	0	342884352	60	4988
2026-01-06 12:49:30.80	235.07	24.42	-44.7	-47.4	23.4	6.05e-01	0	43	0	348651520	60	5059
2026-01-06 12:49:33.81	235.97	24.69	-44.8	-47.5	23.3	6.07e-01	0	43	0	354418688	60	5122
2026-01-06 12:49:36.82	236.89	24.95	-44.7	-47.3	23.4	6.07e-01	0	43	0	359661568	60	5011
2026-01-06 12:49:39.83	237.82	25.21	-44.7	-47.4	23.3	6.06e-01	0	43	0	365428736	60	5089
2026-01-06 12:49:42.84	238.76	25.46	-44.6	-47.2	23.6	6.05e-01	0	43	0	371195904	60	4948
2026-01-06 12:49:45.85	239.73	25.71	-44.6	-47.2	23.5	6.06e-01	0	43	0	376963072	60	4959
2026-01-06 12:49:48.86	240.70	25.95	-44.6	-47.3	23.5	6.06e-01	0	43	0	382205952	60	4984
2026-01-06 12:49:51.87	241.69	26.18	-44.8	-47.4	23.4	6.07e-01	0	43	0	387973120	60	5069
2026-01-06 12:49:54.88	242.70	26.41	-44.9	-47.6	23.2	6.06e-01	0	43	0	393740288	60	5172
2026-01-06 12:49:57.89	243.72	26.63	-44.7	-47.3	23.4	6.08e-01	0	43	0	399507456	60	5017
2026-01-06 12:50:00.89	244.75	26.84	-44.6	-47.2	23.6	6.06e-01	0	43	0	404750336	60	4935
2026-01-06 12:50:03.91	245.80	27.05	-44.5	-47.1	23.6	6.05e-01	0	43	0	410517504	60	4900
2026-01-06 12:50:06.92	246.86	27.24	-44.7	-47.4	23.4	6.07e-01	0	43	0	416284672	60	5066
2026-01-06 12:50:09.92	247.94	27.43	-44.6	-47.3	23.5	6.07e-01	0	43	0	422051840	60	5013
2026-01-06 12:50:12.94	249.03	27.61	-44.6	-47.3	23.5	6.07e-01	0	43	0	427819008	60	4986
2026-01-06 12:50:15.95	250.13	27.78	-44.3	-46.9	23.8	6.09e-01	0	43	0	433061888	60	4780
2026-01-06 12:50:18.96	251.24	27.93	-44.4	-47.1	23.6	6.07e-01	0	43	0	438829056	60	4901
2026-01-06 12:50:21.97	252.36	28.08	-44.4	-47.1	23.6	6.07e-01	0	43	0	444596224	60	4919
2026-01-06 12:50:24.98	253.49	28.22	-44.3	-46.9	23.8	6.08e-01	0	43	0	450363392	60	4800
2026-01-06 12:50:27.99	254.63	28.35	-44.2	-46.9	23.8	6.07e-01	0	43	0	455606272	60	4807
2026-01-06 12:50:31.00	255.78	28.46	-44.1	-46.8	23.9	6.07e-01	0	43	0	461373440	60	4724
2026-01-06 12:50:34.01	256.94	28.56	-44.1	-46.8	23.9	6.08e-01	0	43	0	467140608	60	4720
2026-01-06 12:50:37.02	258.11	28.66	-44.0	-46.5	24.1	6.07e-01	0	43	0	472907776	60	4596
2026-01-06 12:50:40.03	259.28	28.74	-44.2	-46.8	23.9	6.08e-01	0	43	0	478150656	60	4723
2026-01-06 12:50:43.04	260.46	28.80	-44.1	-46.7	24.0	6.09e-01	0	43	0	483917824	60	4688
2026-01-06 12:50:46.05	261.64	28.86	-44.2	-46.8	23.9	6.09e-01	0	43	0	489684992	60	4708
2026-01-06 12:50:49.06	262.82	28.90	-44.2	-46.8	24.0	6.06e-01	0	43	0	495452160	59	5005
2026-01-06 12:50:52.06	264.01	28.93	-44.1	-46.7	24.0	6.07e-01	0	43	0	500695040	59	4945
2026-01-06 12:50:55.07	265.19	28.94	-44.2	-46.6	24.1	6.07e-01	0	43	0	506462208	59	4925
2026-01-06 12:50:58.08	266.38	28.95	-44.2	-46.8	24.0	6.06e-01	0	43	0	512229376	59	5011
2026-01-06 12:51:01.09	267.57	28.94	-44.2	-46.7	24.0	6.07e-01	0	43	0	517996544	59	4946
2026-01-06 12:51:04.10	268.76	28.92	-44.2	-46.7	24.0	6.08e-01	0	43	0	523239424	59	4965
2026-01-06 12:51:07.11	269.95	28.88	-44.3	-46.8	23.9	6.06e-01	0	43	0	529006592	59	5040
2026-01-06 12:51:10.12	271.13	28.83	-43.9	-46.4	24.3	6.03e-01	0	43	0	534773760	59	4777
2026-01-06 12:51:13.12	272.30	28.77	-43.9	-46.4	24.3	6.07e-01	0	43	0	540540928	59	4798
2026-01-06 12:51:16.13	273.48	28.70	-44.0	-46.4	24.3	6.07e-01	0	43	0	546308096	59	4804
2026-01-06 12:51:19.14	274.65	28.62	-44.0	-46.4	24.3	6.07e-01	0	43	0	551550976	59	4804
2026-01-06 12:51:22.15	275.81	28.52	-44.0	-46.5	24.2	6.08e-01	0	43	0	557318144	59	4855
2026-01-06 12:51:25.16	276.96	28.41	-44.0	-46.4	24.3	6.05e-01	0	43	0	563085312	59	4786
2026-01-06 12:51:28.17	278.10	28.29	-44.0	-46.5	24.3	6.07e-01	0	43	0	568328192	59	4836
2026-01-06 12:51:31.18	279.24	28.16	-44.1	-46.6	24.1	6.06e-01	0	43	0	574095360	59	4920
2026-01-06 12:51:34.19	280.36	28.02	-44.0	-46.4	24.4	6.07e-01	0	43	0	579862528	59	4778
2026-01-06 12:51:37.20	281.48	27.86	-44.1	-46.5	24.2	6.05e-01	0	43	0	585629696	59	4856
2026-01-06 12:51:40.21	282.58	27.70	-44.1	-46.5	24.2	6.06e-01	0	43	0	591396864	59	4854
2026-01-06 12:51:43.23	283.67	27.53	-44.1	-46.6	24.2	6.07e-01	0	43	0	596639744	59	4890
2026-01-06 12:51:46.23	284.75	27.35	-44.0	-46.4	24.3	6.07e-01	0	43	0	602406912	59	4808
2026-01-06 12:51:49.24	285.82	27.16	-44.0	-46.5	24.3	6.07e-01	0	43	0	608174080	59	4823
2026-01-06 12:51:52.26	286.87	26.96	-44.0	-46.4	24.3	6.07e-01	0	43	0	613941248	59	4799
2026-01-06 12:51:55.27	287.91	26.75	-44.0	-46.5	24.2	6.05e-01	0	43	0	619184128	59	4835
2026-01-06 12:51:58.28	288.94	26.54	-44.0	-46.5	24.3	6.07e-01	0	43	0	624951296	59	4821
2026-01-06 12:52:01.29	289.95	26.31	-44.3	-46.7	24.0	6.08e-01	0	43	0	630718464	59	4983
2026-01-06 12:52:04.30	290.94	26.08	-44.1	-46.7	24.1	6.07e-01	0	43	0	636485632	59	4941
2026-01-06 12:52:07.31	291.92	25.85	-44.1	-46.6	24.1	6.06e-01	0	43	0	641728512	59	4911
2026-01-06 12:52:10.32	292.89	25.61	-44.1	-46.6	24.1	6.06e-01	0	43	0	647495680	59	4907
2026-01-06 12:52:13.33	293.84	25.36	-44.1	-46.6	24.2	6.08e-01	0	43	0	653262848	59	4884
2026-01-06 12:52:16.33	294.77	25.11	-44.1	-46.5	24.1	6.06e-01	0	43	0	659030016	59	4870
2026-01-06 12:52:19.34	295.69	24.85	-43.9	-46.4	24.3	6.04e-01	0	43	0	664797184	59	4789
2026-01-06 12:52:22.36	296.60	24.59	-44.2	-46.7	24.1	6.06e-01	0	43	0	670040064	59	4952
2026-01-06 12:52:25.37	297.48	24.32	-44.4	-46.9	23.8	6.09e-01	0	43	0	675807232	59	5095
2026-01-06 12:52:28.38	298.36	24.05	-43.9	-46.4	24.3	6.06e-01	0	43	0	681574400	59	4797
2026-01-06 12:52:31.39	299.22	23.78	-44.4	-46.9	23.8	6.07e-01	0	43	0	687341568	59	5082
2026-01-06 12:52:34.40	300.06	23.50	-44.2	-46.7	24.1	6.06e-01	0	43	0	692584448	59	4936
2026-01-06 12:52:37.41	300.88	23.22	-44.3	-46.8	24.0	6.04e-01	0	43	0	698351616	59	5001
2026-01-06 12:52:40.42	301.70	22.94	-44.0	-46.4	24.3	6.05e-01	0	43	0	704118784	59	4811
2026-01-06 12:52:43.43	302.49	22.66	-44.3	-46.8	23.9	6.07e-01	0	43	0	709885952	59	5000
2026-01-06 12:52:46.44	303.27	22.37	-44.0	-46.4	24.3	6.08e-01	0	43	0	715128832	59	4794
2026-01-06 12:52:49.45	304.04	22.09	-44.1	-46.6	24.1	6.06e-01	0	43	0	720896000	59	4914
2026-01-06 12:52:52.46	304.79	21.80	-44.1	-46.5	24.1	6.08e-01	0	43	0	726663168	59	4867
2026-01-06 12:52:55.47	305.53	21.51	-44.1	-46.7	24.0	6.08e-01	0	43	0	732430336	59	4953
2026-01-06 12:52:58.48	306.26	21.22	-44.0	-46.4	24.2	6.07e-01	0	43	0	738197504	59	4812
2026-01-06 12:53:01.49	306.97	20.93	-44.2	-46.8	23.9	6.07e-01	0	43	0	743440384	59	5003
2026-01-06 12:53:04.50	307.66	20.64	-44.0	-46.5	24.2	6.07e-01	0	43	0	749207552	59	4824
2026-01-06 12:53:07.50	308.34	20.35	-43.9	-46.4	24.2	6.07e-01	0	43	0	754974720	59	4796
2026-01-06 12:53:10.51	309.01	20.06	-44.1	-46.5	24.1	6.06e-01	0	43	0	760217600	59	4862
2026-01-06 12:53:13.52	309.67	19.76	-43.8	-46.4	24.3	6.08e-01	0	43	0	765984768	59	4778
2026-01-06 12:53:16.53	310.31	19.47	-43.6	-46.3	24.3	6.07e-01	0	43	0	771751936	59	4753
2026-01-06 12:53:19.54	310.95	19.18	-43.6	-46.3	24.3	6.07e-01	0	43	0	777519104	59	4729
2026-01-06 12:53:22.55	311.56	18.89	-43.8	-46.4	24.3	6.05e-01	0	43	0	783286272	59	4776
2026-01-06 12:53:25.55	312.17	18.60	-43.9	-46.4	24.2	6.05e-01	0	43	0	788529152	59	4770
2026-01-06 12:53:28.56	312.76	18.32	-43.8	-46.3	24.3	6.10e-01	0	43	0	794296320	59	4734
2026-01-06 12:53:31.57	313.35	18.03	-43.7	-46.2	24.3	6.07e-01	0	43	0	800063488	59	4697
2026-01-06 12:53:34.57	313.92	17.74	-43.6	-46.3	24.3	6.05e-01	0	43	0	805306368	59	4723
2026-01-06 12:53:37.57	314.48	17.46	-43.7	-46.4	24.2	6.08e-01	0	43	0	811073536	59	4777
2026-01-06 12:53:40.58	315.03	17.17	-43.7	-46.3	24.3	6.07e-01	0	43	0	816840704	59	4742
2026-01-06 12:53:43.59	315.57	16.89	-43.7	-46.3	24.3	6.07e-01	0	43	0	822607872	59	4722
2026-01-06 12:53:46.60	316.10	16.61	-43.9	-46.4	24.2	6.05e-01	0	43	0	828375040	59	4766
2026-01-06 12:53:49.61	316.62	16.33	-43.8	-46.4	24.1	6.06e-01	0	43	0	833617920	59	4792
2026-01-06 12:53:52.61	317.12	16.05	-43.7	-46.4	24.2	6.08e-01	0	43	0	839385088	59	4764
2026-01-06 12:53:55.62	317.62	15.77	-43.8	-46.4	24.2	6.06e-01	0	43	0	845152256	59	4768
2026-01-06 12:53:58.62	318.11	15.50	-44.1	-46.7	23.3	6.06e-01	0	43	0	850395136	59	4953
2026-01-06 12:54:01.63	318.59	15.23	-43.7	-46.3	24.2	6.06e-01	0	43	0	856162304	59	4749
2026-01-06 12:54:04.64	319.06	14.95	-43.8	-46.6	24.0	6.08e-01	0	43	0	861929472	59	4892
2026-01-06 12:54:07.64	319.53	14.68	-43.8	-46.5	24.0	6.06e-01	0	43	0	867696640	59	4837
2026-01-06 12:54:10.65	319.98	14.41	-43.8	-46.4	24.1	6.07e-01	0	43	0	873463808	59	4802
2026-01-06 12:54:13.66	320.43	14.15	-43.9	-46.6	23.9	6.02e-01	0	43	0	878706688	59	4901
2026-01-06 12:54:16.66	320.86	13.88	-43.6	-46.4	24.1	6.03e-01	0	43	0	884473856	59	4766
2026-01-06 12:54:19.67	321.29	13.62	-43.7	-46.6	23.9	6.03e-01	0	43	0	890241024	59	4879
2026-01-06 12:54:22.68	321.71	13.36	-44.0	-47.0	23.6	6.03e-01	0	43	0	896008192	59	5138
2026-01-06 12:54:25.69	322.13	13.10	-44.2	-46.9	23.6	6.04e-01	0	43	0	901251072	59	5100
2026-01-06 12:54:28.70	322.53	12.84	-44.3	-46.9	23.6	6.04e-01	0	43	0	907018240	59	5089
2026-01-06 12:54:31.70	322.93	12.58	-44.4	-47.0	23.5	6.04e-01	0	43	0	912785408	59	5158
2026-01-06 12:54:34.71	323.32	12.33	-43.9	-46.8	23.6	6.02e-01	0	43	0	918552576	59	5040
2026-01-06 12:54:37.72	323.71	12.08	-43.8	-46.9	23.5	6.05e-01	0	43	0	923795456	59	5089
2026-01-06 12:54:40.72	324.09	11.83	-43.8	-47.0	23.5	6.03e-01	0	43	0	929562624	59	5111
2026-01-06 12:54:43.73	324.46	11.58	-43.9	-47.0	23.4	6.03e-01	0	43	0	935329792	59	5154
2026-01-06 12:54:46.73	324.82	11.33	-43.9	-47.2	23.3	6.03e-01	0	43	0	941096960	59	5229
2026-01-06 12:54:49.74	325.18	11.09	-43.9	-47.3	23.2	6.05e-01	0	43	0	946339840	59	5282
2026-01-06 12:54:52.75	325.54	10.84	-43.9	-47.3	23.2	6.03e-01	0	43	0	952107008	59	5308
2026-01-06 12:54:55.75	325.88	10.60	-44.1	-47.4	23.1	6.03e-01	0	43	0	957874176	59	5372
2026-01-06 12:54:58.76	326.22	10.36	-44.2	-47.4	23.1	6.02e-01	0	43	0	963641344	59	5356
2026-01-06 12:55:01.77	326.56	10.13	-44.5	-47.5	23.0	6.05e-01	0	43	0	968884224	59	5440
2026-01-06 12:55:04.78	326.89	9.89	-44.5	-47.3	23.0	6.04e-01	0	43	0	974651392	60	5017
2026-01-06 12:55:07.78	327.21	9.66	-44.7	-47.7	22.7	6.01e-01	0	43	0	980418560	60	5230
2026-01-06 12:55:10.79	327.53	9.42	-44.6	-47.5	22.8	6.04e-01	0	43	0	986185728	60	5128
2026-01-06 12:55:13.79	327.84	9.19	-44.4	-47.4	22.9	6.03e-01	0	43	0	991428608	60	5090
2026-01-06 12:55:16.81	328.15	8.96	-49.6	-57.3	14.9	6.04e-01	0	43	0	997195776	69	9397
2026-01-06 12:55:19.82	328.46	8.73	-51.4	-72.0	3.8	7.45e-01	0	43	104	997720064	73	40763
2026-01-06 12:55:22.82	328.75	8.51	-51.5	-72.1	3.8	7.44e-01	0	43	104	997720064	73	41364
2026-01-06 12:55:25.83	329.05	8.28	-51.9	-72.3	3.8	7.43e-01	0	43	104	997720064	74	39735
2026-01-06 12:55:28.84	329.34	8.06	-52.0	-72.3	3.8	7.46e-01	0	43	104	997720064	74	39728
2026-01-06 12:55:31.85	329.62	7.84	-52.4	-72.3	3.8	7.43e-01	0	43	104	997720064	75	37594
2026-01-06 12:55:34.87	329.90	7.62	-51.9	-72.3	3.8	7.47e-01	0	43	104	997720064	75	37533
2026-01-06 12:55:37.88	330.18	7.40	-51.8	-72.3	3.8	7.46e-01	0	43	104	997720064	75	37410
2026-01-06 12:55:40.89	330.45	7.19	-51.2	-72.2	3.8	7.47e-01	0	43	104	997720064	74	39450
2026-01-06 12:55:43.91	330.72	6.97	-51.2	-72.2	3.8	7.46e-01	0	43	104	997720064	74	39523
2026-01-06 12:55:46.92	330.99	6.76	-51.3	-72.2	3.8	7.46e-01	0	43	104	997720064	74	39489
2026-01-06 12:55:49.93	331.25	6.55	-51.2	-72.2	3.8	7.45e-01	0	43	104	997720064	74	39466
2026-01-06 12:55:52.95	331.50	6.34	-51.2	-72.2	3.8	7.46e-01	0	43	104	997720064	74	39383
2026-01-06 12:55:55.96	331.75	6.13	-51.3	-72.2	3.8	7.44e-01	0	43	104	997720064	74	39491
2026-01-06 12:55:58.97	332.00	5.92	-51.3	-72.2	3.8	7.44e-01	0	43	104	997720064	74	39465
2026-01-06 12:56:01.99	332.25	5.71	-51.3	-72.2	3.8	7.47e-01	0	43	104	997720064	74	39473
2026-01-06 12:56:05.00	332.49	5.51	-51.2	-72.2	3.8	7.42e-01	0	43	104	997720064	74	39437
2026-01-06 12:56:08.01	332.73	5.31	-51.3	-72.2	3.8	7.45e-01	0	43	104	997720064	74	39499
2026-01-06 12:56:11.02	332.96	5.10	-51.3	-72.2	3.8	7.45e-01	0	43	104	997720064	74	39428

#Closed at: 2026-01-06 12:56:14
#Recorded file [997 MB]: D:/Data/31040_260106_154545.dat