passes_logs/2026/01/06/T1/T1__20260106_014430_FENGYUN_3D_rec.log

#Pass ID: 20260106_014430_FENGYUN 3D
#Satellite: FENGYUN 3D
#Configuration: FENGYUN 3D
#almurnet v.1.7.20251203
#Start time: 2026-01-06 01:44:30

#Version: 2.0.20230620
#Station: T1
#Location: 37.570604 lon 55.790049 lat
#TLE: 1 43010U 17072A   26005.48915933 -.00000051  00000+0 -21983-5 0  9995
#TLE: 2 43010  98.9919 337.1582 0002001 124.6377 235.4988 14.19691925421909

#Time	Az	El	Level	Level2	SNR	BER	BlckErr	Temp	State	Recorded	gain1	gain2
2026-01-06 01:44:30.99	16.86	5.07	-50.4	-62.9	3.8	8.46e-01	0	40	0	0	71	15951
2026-01-06 01:44:33.99	16.87	5.28	-50.3	-62.8	3.8	8.46e-01	0	40	104	0	72	15019
2026-01-06 01:44:37.01	16.88	5.50	-50.3	-62.8	3.8	8.47e-01	0	41	104	0	72	15037
2026-01-06 01:44:40.02	16.90	5.72	-50.3	-62.8	3.8	8.48e-01	0	41	104	0	72	15010
2026-01-06 01:44:43.03	16.91	5.94	-50.4	-62.8	3.8	8.47e-01	0	41	104	0	72	14992
2026-01-06 01:44:46.04	16.93	6.16	-50.3	-62.8	3.8	8.46e-01	0	41	104	0	72	14970
2026-01-06 01:44:49.06	16.94	6.39	-50.4	-62.8	3.8	8.47e-01	0	41	104	0	72	15029
2026-01-06 01:44:52.07	16.95	6.61	-50.3	-62.8	3.8	8.47e-01	0	41	104	0	72	15016
2026-01-06 01:44:55.08	16.97	6.84	-50.4	-62.8	3.8	8.48e-01	0	41	104	0	72	14983
2026-01-06 01:44:58.09	16.98	7.07	-50.3	-62.9	3.8	8.47e-01	0	41	104	0	72	15068
2026-01-06 01:45:01.11	17.00	7.31	-50.4	-62.8	3.8	8.47e-01	0	42	104	0	72	14968
2026-01-06 01:45:04.12	17.01	7.54	-50.4	-62.8	3.8	8.47e-01	0	41	104	0	72	15023
2026-01-06 01:45:07.13	17.02	7.78	-50.4	-62.8	3.8	8.48e-01	0	42	104	0	72	14998
2026-01-06 01:45:10.14	17.04	8.02	-50.3	-62.9	3.8	8.47e-01	0	42	104	0	72	15078
2026-01-06 01:45:13.15	17.05	8.26	-50.4	-62.8	3.8	8.48e-01	0	42	104	0	72	15022
2026-01-06 01:45:16.18	17.07	8.51	-50.4	-62.8	3.8	8.50e-01	0	42	104	0	72	14980
2026-01-06 01:45:19.47	17.08	8.78	-50.4	-62.8	3.8	8.46e-01	0	42	104	0	72	15017
2026-01-06 01:45:22.20	17.09	9.00	-50.4	-62.8	3.8	8.49e-01	0	42	104	0	72	15019
2026-01-06 01:45:25.58	17.11	9.28	-50.4	-62.8	3.8	8.46e-01	0	42	104	0	72	14999
2026-01-06 01:45:28.38	17.12	9.52	-50.4	-62.8	3.8	8.47e-01	0	42	104	0	72	15045
2026-01-06 01:45:31.84	17.14	9.82	-50.4	-62.8	3.8	8.48e-01	0	42	104	0	72	15043
2026-01-06 01:45:34.62	17.15	10.06	-50.4	-62.8	3.8	8.47e-01	0	42	104	0	72	15031
2026-01-06 01:45:37.92	17.17	10.34	-50.4	-62.8	3.8	8.46e-01	0	42	104	0	72	15023
2026-01-06 01:45:40.64	17.18	10.58	-50.4	-62.8	3.8	8.46e-01	0	42	104	0	72	15018
2026-01-06 01:45:43.94	17.20	10.88	-50.4	-62.8	3.8	8.47e-01	0	42	104	0	72	15048
2026-01-06 01:45:46.66	17.21	11.12	-50.4	-62.8	3.8	8.47e-01	0	42	104	0	72	15000
2026-01-06 01:45:49.96	17.23	11.42	-50.4	-62.8	3.8	8.45e-01	0	42	104	0	72	14959
2026-01-06 01:45:52.69	17.24	11.68	-50.4	-62.8	3.8	8.47e-01	0	43	104	0	72	14970
2026-01-06 01:45:55.99	17.26	11.98	-50.4	-62.9	3.8	8.47e-01	0	42	104	0	72	15082
2026-01-06 01:45:58.71	17.27	12.24	-50.4	-62.8	3.8	8.47e-01	0	42	104	0	72	15025
2026-01-06 01:46:02.01	17.28	12.56	-50.4	-62.9	3.8	8.47e-01	0	43	104	0	72	15058
2026-01-06 01:46:04.74	17.30	12.82	-50.4	-62.8	3.8	8.46e-01	0	43	104	0	72	15029
2026-01-06 01:46:08.04	17.31	13.14	-50.4	-62.8	3.8	8.47e-01	0	43	104	0	72	14991
2026-01-06 01:46:10.76	17.33	13.41	-50.4	-62.9	3.8	8.47e-01	0	43	104	0	72	15065
2026-01-06 01:46:14.06	17.34	13.74	-50.4	-62.8	3.8	8.47e-01	0	43	104	0	72	15012
2026-01-06 01:46:16.80	17.36	14.02	-50.4	-62.8	3.8	8.48e-01	0	43	104	0	72	15045
2026-01-06 01:46:20.10	17.37	14.36	-50.4	-62.8	3.8	8.46e-01	0	43	104	0	72	15010
2026-01-06 01:46:22.82	17.39	14.64	-50.4	-62.8	3.8	8.47e-01	0	43	104	0	72	15010
2026-01-06 01:46:26.12	17.40	14.99	-50.4	-62.9	3.8	8.48e-01	0	43	104	0	72	15094
2026-01-06 01:46:28.84	17.42	15.28	-50.4	-62.9	3.8	8.46e-01	0	43	104	0	72	15086
2026-01-06 01:46:32.14	17.43	15.64	-50.4	-62.9	3.8	8.46e-01	0	43	104	0	72	15113
2026-01-06 01:46:34.87	17.45	15.94	-50.4	-62.8	3.8	8.47e-01	0	43	104	0	72	15005
2026-01-06 01:46:38.17	17.46	16.31	-50.3	-62.8	3.8	8.46e-01	0	43	104	0	72	15010
2026-01-06 01:46:40.94	17.48	16.62	-50.4	-62.8	3.8	8.46e-01	0	43	104	0	72	15030
2026-01-06 01:46:44.18	17.49	16.99	-50.4	-62.8	3.8	8.48e-01	0	43	104	0	72	15048
2026-01-06 01:46:47.04	17.51	17.32	-50.4	-62.9	3.8	8.47e-01	0	43	104	0	72	15055
2026-01-06 01:46:50.17	17.52	17.69	-50.4	-62.8	3.8	8.47e-01	0	43	104	0	72	15033
2026-01-06 01:46:53.04	17.54	18.04	-50.4	-62.8	3.8	8.47e-01	0	43	104	0	72	14997
2026-01-06 01:46:56.20	17.56	18.42	-50.4	-62.9	3.8	8.47e-01	0	43	104	0	72	15098
2026-01-06 01:46:59.06	17.57	18.77	-50.4	-62.8	3.8	8.47e-01	0	43	104	0	72	15038
2026-01-06 01:47:02.22	17.59	19.17	-50.4	-62.8	3.8	8.49e-01	0	43	104	0	72	15009
2026-01-06 01:47:05.09	17.60	19.53	-50.4	-62.8	3.8	8.47e-01	0	43	104	0	72	15038
2026-01-06 01:47:08.25	17.62	19.94	-50.4	-62.8	3.8	8.47e-01	0	43	104	0	72	15040
2026-01-06 01:47:11.11	17.63	20.31	-50.4	-62.8	3.8	8.47e-01	0	43	104	0	72	15032
2026-01-06 01:47:14.24	17.65	20.73	-50.4	-62.9	3.8	8.47e-01	0	43	104	0	72	15100
2026-01-06 01:47:17.25	17.67	21.14	-50.4	-62.9	3.8	8.47e-01	0	43	104	0	72	15054
2026-01-06 01:47:20.26	17.68	21.55	-50.4	-62.9	3.8	8.48e-01	0	43	104	0	72	15091
2026-01-06 01:47:23.27	17.70	21.97	-50.4	-62.8	3.8	8.47e-01	0	43	104	0	72	15001
2026-01-06 01:47:26.28	17.72	22.40	-50.4	-62.9	3.8	8.48e-01	0	43	104	0	72	15117
2026-01-06 01:47:29.29	17.73	22.84	-50.4	-62.9	3.8	8.47e-01	0	43	104	0	72	15083
2026-01-06 01:47:32.31	17.75	23.28	-50.4	-62.8	3.8	8.47e-01	0	43	104	0	72	15045
2026-01-06 01:47:35.32	17.77	23.74	-50.4	-62.9	3.8	8.46e-01	0	43	104	0	72	15103
2026-01-06 01:47:38.39	17.79	24.20	-50.4	-62.9	3.8	8.46e-01	0	43	104	0	72	15097
2026-01-06 01:47:41.50	17.80	24.69	-50.4	-62.8	3.8	8.48e-01	0	43	104	0	72	15040
2026-01-06 01:47:44.47	17.82	25.16	-50.4	-62.9	3.8	8.47e-01	0	43	104	0	72	15125
2026-01-06 01:47:47.80	17.84	25.69	-50.4	-62.9	3.8	8.46e-01	0	43	104	0	72	15091
2026-01-06 01:47:50.52	17.86	26.14	-50.4	-62.9	3.8	8.46e-01	0	44	104	0	72	15121
2026-01-06 01:47:53.82	17.88	26.69	-50.4	-62.9	3.8	8.47e-01	0	43	104	0	72	15065
2026-01-06 01:47:56.55	17.89	27.16	-50.4	-62.9	3.8	8.47e-01	0	43	104	0	72	15099
2026-01-06 01:47:59.85	17.92	27.73	-50.4	-62.9	3.8	8.47e-01	0	43	104	0	72	15089
2026-01-06 01:48:02.57	17.93	28.22	-50.4	-62.8	3.8	8.47e-01	0	43	104	0	72	15012
2026-01-06 01:48:05.87	17.95	28.81	-50.4	-62.8	3.8	8.47e-01	0	43	104	0	72	15029
2026-01-06 01:48:08.60	17.97	29.32	-50.4	-62.8	3.8	8.48e-01	0	43	104	0	72	15049
2026-01-06 01:48:11.89	17.99	29.94	-50.4	-62.9	3.8	8.48e-01	0	43	104	0	72	15103
2026-01-06 01:48:14.62	18.01	30.46	-50.4	-62.8	3.8	8.47e-01	0	43	104	0	72	15040
2026-01-06 01:48:17.92	18.03	31.11	-50.4	-62.9	3.8	8.47e-01	0	43	104	0	72	15061
2026-01-06 01:48:20.65	18.05	31.65	-50.4	-62.9	3.8	8.46e-01	0	43	104	0	72	15052
2026-01-06 01:48:23.95	18.07	32.33	-50.4	-62.9	3.8	8.47e-01	0	43	104	0	72	15097
2026-01-06 01:48:26.67	18.09	32.89	-50.4	-62.9	3.8	8.47e-01	0	43	104	0	72	15129
2026-01-06 01:48:29.97	18.12	33.60	-50.4	-62.9	3.8	8.47e-01	0	43	104	0	72	15121
2026-01-06 01:48:32.70	18.14	34.19	-50.4	-62.9	3.8	8.47e-01	0	43	104	0	72	15095
2026-01-06 01:48:36.00	18.16	34.92	-50.4	-62.8	3.8	8.47e-01	0	43	104	0	72	15045
2026-01-06 01:48:38.72	18.18	35.54	-50.4	-62.8	3.8	8.47e-01	0	43	104	0	72	15004
2026-01-06 01:48:42.01	18.21	36.31	-50.4	-62.8	3.8	8.46e-01	0	43	104	0	72	15032
2026-01-06 01:48:44.74	18.23	36.95	-50.4	-62.9	3.8	8.48e-01	0	43	104	0	72	15070
2026-01-06 01:48:48.05	18.26	37.76	-50.4	-62.8	3.8	8.48e-01	0	43	104	0	72	15021
2026-01-06 01:48:50.77	18.28	38.43	-50.4	-62.9	3.8	8.47e-01	0	43	104	0	72	15135
2026-01-06 01:48:54.07	18.31	39.27	-50.4	-62.9	3.8	8.47e-01	0	43	104	0	72	15091
2026-01-06 01:48:56.79	18.33	39.98	-50.4	-62.9	3.8	8.45e-01	0	43	104	0	72	15110
2026-01-06 01:49:00.09	18.36	40.85	-50.4	-62.9	3.8	8.46e-01	0	43	104	0	72	15057
2026-01-06 01:49:02.81	18.39	41.59	-50.4	-62.9	3.8	8.46e-01	0	43	104	0	72	15056
2026-01-06 01:49:06.11	18.42	42.51	-50.4	-62.9	3.8	8.47e-01	0	43	104	0	72	15104
2026-01-06 01:49:08.83	18.45	43.28	-50.4	-62.9	3.8	8.46e-01	0	43	104	0	72	15069
2026-01-06 01:49:12.13	18.48	44.24	-50.4	-62.8	3.8	8.48e-01	0	43	104	0	72	15051
2026-01-06 01:49:14.86	18.51	45.05	-50.4	-62.9	3.8	8.47e-01	0	43	104	0	72	15068
2026-01-06 01:49:18.20	18.55	46.07	-50.4	-62.8	3.8	8.48e-01	0	43	104	0	72	15037
2026-01-06 01:49:21.04	18.58	46.95	-50.4	-62.9	3.8	8.46e-01	0	43	104	0	72	15069
2026-01-06 01:49:24.27	18.62	47.98	-50.4	-62.9	3.8	8.48e-01	0	43	104	0	72	15125
2026-01-06 01:49:27.14	18.66	48.92	-50.4	-62.9	3.8	8.46e-01	0	43	104	0	72	15066
2026-01-06 01:49:30.30	18.70	49.97	-50.4	-62.8	3.8	8.46e-01	0	43	104	0	72	15046
2026-01-06 01:49:33.17	18.74	50.95	-50.4	-62.8	3.8	8.47e-01	0	43	104	0	72	15047
2026-01-06 01:49:36.33	18.79	52.05	-50.4	-62.9	3.8	8.47e-01	0	43	104	0	72	15058
2026-01-06 01:49:39.20	18.83	53.08	-50.4	-62.9	3.8	8.47e-01	0	43	104	0	72	15097
2026-01-06 01:49:42.35	18.88	54.23	-50.4	-62.9	3.8	8.46e-01	0	43	104	0	72	15088
2026-01-06 01:49:45.22	18.93	55.30	-50.4	-62.9	3.8	8.46e-01	0	43	104	0	72	15125
2026-01-06 01:49:48.37	18.99	56.49	-50.4	-62.9	3.8	8.47e-01	0	43	104	0	72	15094
2026-01-06 01:49:51.30	19.05	57.63	-50.4	-62.9	3.8	8.47e-01	0	43	104	0	72	15162
2026-01-06 01:49:54.32	19.12	58.83	-50.4	-62.9	3.8	8.47e-01	0	43	104	0	72	15072
2026-01-06 01:49:57.33	19.19	60.05	-50.4	-62.8	3.8	8.46e-01	0	43	104	0	72	15042
2026-01-06 01:50:00.34	19.26	61.29	-50.4	-62.9	3.8	8.46e-01	0	43	104	0	72	15094
2026-01-06 01:50:03.35	19.34	62.56	-50.4	-62.9	3.8	8.46e-01	0	44	104	0	72	15114
2026-01-06 01:50:06.36	19.43	63.85	-50.4	-62.8	3.8	8.47e-01	0	43	104	0	72	15051
2026-01-06 01:50:09.37	19.53	65.16	-50.4	-62.9	3.8	8.47e-01	0	43	104	0	72	15061
2026-01-06 01:50:12.39	19.65	66.50	-50.4	-62.9	3.8	8.46e-01	0	43	104	0	72	15073
2026-01-06 01:50:15.40	19.77	67.86	-50.4	-62.9	3.8	8.46e-01	0	43	104	0	72	15111
2026-01-06 01:50:18.55	19.92	69.30	-50.4	-62.9	3.8	8.48e-01	0	43	104	0	72	15104
2026-01-06 01:50:21.47	20.08	70.66	-50.4	-62.9	3.8	8.46e-01	0	43	104	0	72	15080
2026-01-06 01:50:24.77	20.28	72.22	-50.4	-62.9	3.8	8.47e-01	0	43	104	0	72	15081
2026-01-06 01:50:27.49	20.48	73.53	-50.4	-62.8	3.8	8.47e-01	0	43	104	0	72	15025
2026-01-06 01:50:30.79	20.77	75.13	-50.4	-62.8	3.8	8.46e-01	0	43	104	0	72	15037
2026-01-06 01:50:33.52	21.07	76.46	-50.4	-62.8	3.8	8.46e-01	0	43	104	0	72	14961
2026-01-06 01:50:36.82	21.51	78.10	-50.4	-62.8	3.8	8.46e-01	0	44	104	0	72	14969
2026-01-06 01:50:39.54	21.98	79.46	-50.4	-62.8	3.8	8.47e-01	0	43	104	0	72	14883
2026-01-06 01:50:42.84	22.74	81.12	-50.4	-62.8	3.8	8.47e-01	0	43	104	0	72	14984
2026-01-06 01:50:45.57	23.62	82.50	-50.4	-62.3	3.8	8.46e-01	0	43	104	0	72	14112
2026-01-06 01:50:48.86	25.25	84.17	-50.3	-62.2	3.8	8.48e-01	0	43	104	0	72	13976
2026-01-06 01:50:51.59	27.53	85.56	-50.4	-62.4	3.8	8.47e-01	0	43	104	0	72	14273
2026-01-06 01:50:54.89	33.31	87.22	-50.2	-60.8	3.8	8.46e-01	0	43	104	0	71	12588
2026-01-06 01:50:57.61	47.83	88.53	-48.6	-54.0	7.5	1.65e-01	0	43	0	1048576	69	6469
2026-01-06 01:51:00.91	138.48	89.15	-38.6	-40.5	20.5	0.00e+00	0	43	0	19922944	49	4296
2026-01-06 01:51:03.63	176.42	88.03	-49.7	-57.5	5.0	1.81e-03	0	43	0	34603008	69	9710
2026-01-06 01:51:06.92	186.47	86.39	-49.8	-58.3	4.5	7.75e-01	0	43	0	37748736	71	9463
2026-01-06 01:51:09.64	189.75	85.01	-50.4	-62.5	3.8	8.46e-01	0	44	104	37748736	71	15392
2026-01-06 01:51:12.94	191.89	83.34	-50.3	-61.7	3.8	8.45e-01	0	43	104	37748736	71	13909
2026-01-06 01:51:15.66	192.99	81.95	-50.4	-62.2	3.8	8.47e-01	0	43	104	37748736	71	14728
2026-01-06 01:51:18.96	193.90	80.29	-50.4	-62.9	3.8	8.46e-01	0	43	104	37748736	71	16014
2026-01-06 01:51:21.68	194.45	78.92	-50.4	-62.9	3.8	8.47e-01	0	43	104	37748736	71	15973
2026-01-06 01:51:24.98	194.96	77.28	-50.5	-62.9	3.8	8.48e-01	0	44	104	37748736	71	16071
2026-01-06 01:51:27.70	195.29	75.93	-50.4	-62.9	3.8	8.46e-01	0	43	104	37748736	71	16042
2026-01-06 01:51:31.00	195.61	74.32	-50.5	-62.9	3.8	8.48e-01	0	44	104	37748736	71	16049
2026-01-06 01:51:33.72	195.83	73.01	-50.4	-62.9	3.8	8.47e-01	0	44	104	37748736	71	15949
2026-01-06 01:51:37.02	196.06	71.43	-50.5	-62.9	3.8	8.46e-01	0	44	104	37748736	71	16053
2026-01-06 01:51:39.75	196.22	70.15	-50.4	-63.0	3.8	8.47e-01	0	44	104	37748736	71	16130
2026-01-06 01:51:43.04	196.38	68.62	-50.5	-62.9	3.8	8.47e-01	0	43	104	37748736	71	16077
2026-01-06 01:51:45.77	196.50	67.37	-50.5	-62.9	3.8	8.47e-01	0	43	104	37748736	71	16013
2026-01-06 01:51:49.07	196.63	65.89	-50.5	-62.9	3.8	8.47e-01	0	43	104	37748736	71	16014
2026-01-06 01:51:51.79	196.73	64.69	-50.5	-63.0	3.8	8.47e-01	0	43	104	37748736	71	16158
2026-01-06 01:51:55.09	196.84	63.25	-50.5	-62.9	3.8	8.45e-01	0	43	104	37748736	71	16037
2026-01-06 01:51:57.82	196.91	62.09	-50.4	-62.9	3.8	8.47e-01	0	43	104	37748736	71	16041
2026-01-06 01:52:01.12	197.00	60.71	-50.5	-62.9	3.8	8.47e-01	0	43	104	37748736	71	16061
2026-01-06 01:52:03.84	197.07	59.59	-50.5	-62.9	3.8	8.46e-01	0	43	104	37748736	71	16089
2026-01-06 01:52:07.14	197.14	58.26	-50.5	-62.9	3.8	8.48e-01	0	44	104	37748736	71	16022
2026-01-06 01:52:09.87	197.20	57.18	-50.5	-62.9	3.8	8.46e-01	0	44	104	37748736	71	16082
2026-01-06 01:52:13.16	197.26	55.91	-50.5	-62.9	3.8	8.47e-01	0	43	104	37748736	71	16083
2026-01-06 01:52:15.89	197.31	54.88	-50.5	-63.0	3.8	8.48e-01	0	43	104	37748736	71	16136
2026-01-06 01:52:19.18	197.36	53.66	-50.5	-62.9	3.8	8.48e-01	0	44	104	37748736	71	16106
2026-01-06 01:52:22.03	197.41	52.62	-50.5	-62.9	3.8	8.47e-01	0	44	104	37748736	71	16065
2026-01-06 01:52:25.19	197.46	51.50	-50.5	-62.9	3.8	8.46e-01	0	44	104	37748736	71	16048
2026-01-06 01:52:28.06	197.50	50.51	-50.5	-62.9	3.8	8.47e-01	0	43	104	37748736	71	16111
2026-01-06 01:52:31.21	197.54	49.44	-50.5	-62.9	3.8	8.47e-01	0	44	104	37748736	71	16082
2026-01-06 01:52:34.20	197.58	48.44	-50.5	-62.9	3.8	8.48e-01	0	44	104	37748736	71	16090
2026-01-06 01:52:37.21	197.61	47.47	-50.5	-63.0	3.8	8.46e-01	0	44	104	37748736	71	16131
2026-01-06 01:52:40.23	197.65	46.51	-50.5	-62.9	3.8	8.46e-01	0	44	104	37748736	71	16101
2026-01-06 01:52:43.24	197.68	45.58	-50.5	-62.9	3.8	8.47e-01	0	44	104	37748736	71	16126
2026-01-06 01:52:46.31	197.72	44.65	-50.5	-63.0	3.8	8.47e-01	0	43	104	37748736	71	16138
2026-01-06 01:52:49.30	197.75	43.76	-50.5	-62.9	3.8	8.46e-01	0	44	104	37748736	71	16100
2026-01-06 01:52:52.45	197.78	42.85	-50.5	-63.0	3.8	8.46e-01	0	43	104	37748736	71	16149
2026-01-06 01:52:55.32	197.81	42.04	-50.5	-63.0	3.8	8.48e-01	0	43	104	37748736	71	16140
2026-01-06 01:52:58.48	197.83	41.17	-50.5	-63.0	3.8	8.47e-01	0	43	104	37748736	71	16130
2026-01-06 01:53:01.35	197.86	40.39	-50.5	-63.0	3.8	8.46e-01	0	44	104	37748736	71	16144
2026-01-06 01:53:04.51	197.89	39.56	-50.5	-63.0	3.8	8.47e-01	0	44	104	37748736	71	16153
2026-01-06 01:53:07.37	197.91	38.82	-50.5	-63.0	3.8	8.48e-01	0	43	104	37748736	71	16159
2026-01-06 01:53:10.53	197.94	38.03	-50.5	-62.9	3.8	8.47e-01	0	43	104	37748736	71	16091
2026-01-06 01:53:13.40	197.96	37.32	-50.5	-63.0	3.8	8.46e-01	0	43	104	37748736	71	16202
2026-01-06 01:53:16.60	197.98	36.54	-50.5	-63.0	3.8	8.47e-01	0	44	104	37748736	71	16167
2026-01-06 01:53:19.56	198.01	35.85	-50.5	-63.0	3.8	8.47e-01	0	43	104	37748736	71	16192
2026-01-06 01:53:22.79	198.03	35.10	-50.5	-63.0	3.8	8.46e-01	0	43	104	37748736	71	16169
2026-01-06 01:53:25.66	198.05	34.45	-50.5	-63.0	3.8	8.48e-01	0	44	104	37748736	71	16171
2026-01-06 01:53:28.82	198.07	33.76	-50.5	-63.0	3.8	8.47e-01	0	43	104	37748736	71	16192
2026-01-06 01:53:31.69	198.09	33.14	-50.5	-63.0	3.8	8.46e-01	0	43	104	37748736	71	16143
2026-01-06 01:53:34.84	198.11	32.47	-50.5	-63.0	3.8	8.47e-01	0	43	104	37748736	71	16133
2026-01-06 01:53:37.71	198.13	31.87	-50.5	-63.0	3.8	8.46e-01	0	43	104	37748736	71	16174
2026-01-06 01:53:40.87	198.15	31.23	-50.5	-62.9	3.8	8.45e-01	0	44	104	37748736	71	16101
2026-01-06 01:53:43.74	198.17	30.66	-50.5	-63.0	3.8	8.47e-01	0	43	104	37748736	71	16225
2026-01-06 01:53:46.89	198.19	30.05	-50.5	-63.0	3.8	8.47e-01	0	44	104	37748736	71	16224
2026-01-06 01:53:49.76	198.21	29.50	-50.5	-62.9	3.8	8.47e-01	0	44	104	37748736	71	16100
2026-01-06 01:53:52.92	198.23	28.91	-50.5	-63.0	3.8	8.48e-01	0	44	104	37748736	71	16208
2026-01-06 01:53:55.79	198.24	28.38	-50.5	-62.9	3.8	8.47e-01	0	44	104	37748736	71	16112
2026-01-06 01:53:58.95	198.26	27.82	-50.5	-63.0	3.8	8.46e-01	0	44	104	37748736	71	16186
2026-01-06 01:54:01.81	198.28	27.31	-50.5	-63.0	3.8	8.48e-01	0	44	104	37748736	71	16143
2026-01-06 01:54:04.97	198.30	26.77	-50.5	-62.9	3.8	8.47e-01	0	43	104	37748736	71	16126
2026-01-06 01:54:07.84	198.31	26.28	-50.5	-62.9	3.8	8.47e-01	0	44	104	37748736	71	16120
2026-01-06 01:54:11.00	198.33	25.75	-50.5	-62.9	3.8	8.48e-01	0	44	104	37748736	71	16126
2026-01-06 01:54:13.86	198.34	25.29	-50.5	-62.9	3.8	8.48e-01	0	44	104	37748736	71	16061
2026-01-06 01:54:17.02	198.36	24.78	-50.5	-62.9	3.8	8.47e-01	0	44	104	37748736	71	16076
2026-01-06 01:54:19.89	198.38	24.33	-50.5	-62.9	3.8	8.47e-01	0	43	104	37748736	71	16068
2026-01-06 01:54:23.05	198.39	23.84	-50.5	-62.9	3.8	8.47e-01	0	44	104	37748736	71	16072
2026-01-06 01:54:25.92	198.41	23.40	-50.5	-62.9	3.8	8.47e-01	0	44	104	37748736	71	16054
2026-01-06 01:54:29.07	198.42	22.93	-50.5	-62.9	3.8	8.47e-01	0	44	104	37748736	71	16023
2026-01-06 01:54:31.94	198.44	22.51	-50.5	-62.9	3.8	8.47e-01	0	43	104	37748736	71	16080
2026-01-06 01:54:35.21	198.45	22.04	-50.5	-62.9	3.8	8.46e-01	0	44	104	37748736	71	16048
2026-01-06 01:54:37.93	198.47	21.65	-50.5	-62.9	3.8	8.46e-01	0	43	104	37748736	71	16037
2026-01-06 01:54:41.24	198.48	21.19	-50.4	-62.9	3.8	8.47e-01	0	44	104	37748736	71	16026
2026-01-06 01:54:43.96	198.49	20.82	-50.5	-62.9	3.8	8.47e-01	0	43	104	37748736	71	16071
2026-01-06 01:54:47.26	198.51	20.37	-50.4	-62.9	3.8	8.46e-01	0	43	104	37748736	71	16040
2026-01-06 01:54:49.98	198.52	20.01	-50.5	-63.0	3.8	8.47e-01	0	44	104	37748736	71	16176
2026-01-06 01:54:53.28	198.54	19.58	-50.5	-62.9	3.8	8.47e-01	0	43	104	37748736	71	16071
2026-01-06 01:54:56.14	198.55	19.21	-50.5	-62.9	3.8	8.47e-01	0	43	104	37748736	71	16076
2026-01-06 01:54:59.40	198.57	18.80	-50.5	-62.9	3.8	8.48e-01	0	44	104	37748736	71	15992
2026-01-06 01:55:02.79	198.58	18.38	-50.5	-62.9	3.8	8.46e-01	0	43	104	37748736	71	16106
2026-01-06 01:55:05.51	198.59	18.04	-50.4	-62.9	3.8	8.47e-01	0	43	104	37748736	71	16033
2026-01-06 01:55:08.81	198.61	17.65	-50.4	-62.9	3.8	8.46e-01	0	44	104	37748736	71	16019
2026-01-06 01:55:11.54	198.62	17.32	-50.4	-62.9	3.8	8.47e-01	0	43	104	37748736	71	16019
2026-01-06 01:55:14.84	198.63	16.93	-50.4	-62.9	3.8	8.47e-01	0	43	104	37748736	71	16100
2026-01-06 01:55:17.56	198.65	16.62	-50.4	-62.9	3.8	8.48e-01	0	43	104	37748736	71	16078
2026-01-06 01:55:20.86	198.66	16.24	-50.4	-62.9	3.8	8.47e-01	0	43	104	37748736	71	16049
2026-01-06 01:55:23.59	198.67	15.94	-50.4	-62.9	3.8	8.48e-01	0	44	104	37748736	71	16064
2026-01-06 01:55:26.90	198.69	15.57	-50.4	-62.9	3.8	8.46e-01	0	43	104	37748736	71	16002
2026-01-06 01:55:29.62	198.70	15.27	-50.4	-62.9	3.8	8.47e-01	0	43	104	37748736	71	16025
2026-01-06 01:55:32.92	198.71	14.92	-50.4	-62.9	3.8	8.46e-01	0	44	104	37748736	71	16016
2026-01-06 01:55:35.65	198.72	14.63	-50.4	-62.9	3.8	8.47e-01	0	44	104	37748736	71	16055
2026-01-06 01:55:38.94	198.74	14.28	-50.4	-62.9	3.8	8.47e-01	0	44	104	37748736	71	16031
2026-01-06 01:55:41.67	198.75	14.00	-50.4	-62.9	3.8	8.47e-01	0	43	104	37748736	71	16027
2026-01-06 01:55:44.97	198.76	13.66	-50.4	-62.9	3.8	8.47e-01	0	44	104	37748736	71	16022
2026-01-06 01:55:47.69	198.77	13.38	-50.4	-62.9	3.8	8.47e-01	0	44	104	37748736	71	16048
2026-01-06 01:55:50.99	198.78	13.05	-50.4	-62.8	3.8	8.48e-01	0	44	104	37748736	71	15871
2026-01-06 01:55:53.72	198.80	12.79	-50.4	-62.9	3.8	8.47e-01	0	43	104	37748736	71	16004
2026-01-06 01:55:57.02	198.81	12.46	-50.4	-62.9	3.8	8.46e-01	0	44	104	37748736	71	16001
2026-01-06 01:55:59.74	198.82	12.20	-50.4	-62.9	3.8	8.46e-01	0	43	104	37748736	71	16042
2026-01-06 01:56:03.04	198.83	11.89	-50.4	-62.9	3.8	8.45e-01	0	44	104	37748736	71	16013
2026-01-06 01:56:05.76	198.84	11.63	-50.4	-62.9	3.8	8.47e-01	0	44	104	37748736	71	16022
2026-01-06 01:56:09.06	198.85	11.33	-50.4	-62.9	3.8	8.47e-01	0	44	104	37748736	71	16010
2026-01-06 01:56:11.78	198.87	11.08	-50.4	-62.9	3.8	8.47e-01	0	44	104	37748736	71	16035
2026-01-06 01:56:15.08	198.88	10.78	-50.4	-62.9	3.8	8.47e-01	0	44	104	37748736	71	16027
2026-01-06 01:56:17.81	198.89	10.53	-50.4	-62.9	3.8	8.47e-01	0	43	104	37748736	71	16032
2026-01-06 01:56:21.10	198.90	10.24	-50.4	-62.9	3.8	8.47e-01	0	44	104	37748736	71	16006
2026-01-06 01:56:23.83	198.91	10.00	-50.4	-62.9	3.8	8.47e-01	0	44	104	37748736	71	15972
2026-01-06 01:56:27.13	198.92	9.71	-50.4	-62.9	3.8	8.47e-01	0	44	104	37748736	71	16027
2026-01-06 01:56:29.85	198.93	9.48	-50.4	-62.9	3.8	8.46e-01	0	44	104	37748736	71	16030
2026-01-06 01:56:33.15	198.95	9.20	-50.4	-62.9	3.8	8.46e-01	0	43	104	37748736	71	15988
2026-01-06 01:56:35.88	198.96	8.97	-50.4	-62.9	3.8	8.48e-01	0	44	104	37748736	71	16043
2026-01-06 01:56:39.18	198.97	8.69	-50.4	-62.9	3.8	8.47e-01	0	44	104	37748736	71	16002
2026-01-06 01:56:41.91	198.98	8.47	-50.4	-62.9	3.8	8.46e-01	0	44	104	37748736	71	15984
2026-01-06 01:56:45.20	198.99	8.20	-50.4	-62.9	3.8	8.47e-01	0	44	104	37748736	71	16066
2026-01-06 01:56:47.93	199.00	7.98	-50.4	-62.9	3.8	8.47e-01	0	43	104	37748736	71	16021
2026-01-06 01:56:51.23	199.01	7.71	-50.4	-62.8	3.8	8.48e-01	0	44	104	37748736	71	15938
2026-01-06 01:56:53.96	199.02	7.49	-50.4	-62.9	3.8	8.46e-01	0	44	104	37748736	71	15972
2026-01-06 01:56:57.26	199.03	7.23	-50.4	-62.9	3.8	8.46e-01	0	44	104	37748736	71	15983
2026-01-06 01:56:59.98	199.04	7.02	-50.4	-62.9	3.8	8.47e-01	0	44	104	37748736	71	15950
2026-01-06 01:57:03.28	199.05	6.77	-50.4	-62.9	3.8	8.46e-01	0	44	104	37748736	71	16014
2026-01-06 01:57:06.07	199.06	6.55	-50.4	-62.9	3.8	8.46e-01	0	44	104	37748736	71	15958
2026-01-06 01:57:09.41	199.08	6.30	-50.4	-62.9	3.8	8.49e-01	0	44	104	37748736	71	16005
2026-01-06 01:57:12.43	199.09	6.07	-50.4	-62.9	3.8	8.48e-01	0	44	104	37748736	71	16024
2026-01-06 01:57:15.50	199.10	5.84	-50.4	-62.9	3.8	8.47e-01	0	43	104	37748736	71	16060
2026-01-06 01:57:18.37	199.11	5.63	-50.4	-62.9	3.8	8.46e-01	0	43	104	37748736	71	16110
2026-01-06 01:57:21.53	199.12	5.40	-50.4	-62.9	3.8	8.48e-01	0	44	104	37748736	71	16059
2026-01-06 01:57:24.39	199.13	5.19	-50.4	-62.9	3.8	8.47e-01	0	44	104	37748736	71	15977
2026-01-06 01:57:27.55	199.14	4.96	-50.4	-62.9	3.8	8.48e-01	0	44	104	37748736	71	16068

#Closed at: 2026-01-06 01:57:28
#Recorded file [37 MB]: D:/Data/31040_260106_044430.dat