passes_logs/2026/01/06/T1/T1__20260106_150206_FENGYUN_3E_rec.log

#Pass ID: 20260106_150206_FENGYUN 3E
#Satellite: FENGYUN 3E
#Configuration: FENGYUN 3E
#almurnet v.1.7.20251203
#Start time: 2026-01-06 15:02:08

#Version: 2.0.20230620
#Station: T1
#Location: 37.570604 lon 55.790049 lat
#TLE: 1 49008U 21062A   26005.63346808  .00000216  00000+0  12264-3 0  9999
#TLE: 2 49008  98.7472  10.8714 0001569 158.0856 202.0387 14.19884439233512

#Time	Az	El	Level	Level2	SNR	BER	BlckErr	Temp	State	Recorded	gain1	gain2
2026-01-06 15:02:08.43	186.70	5.12	-49.3	-60.8	3.8	8.47e-01	0	37	0	0	68	13949
2026-01-06 15:02:12.44	186.89	5.40	-49.2	-59.9	3.8	8.47e-01	0	38	104	0	68	12632
2026-01-06 15:02:16.45	187.09	5.68	-49.2	-60.1	3.8	8.46e-01	0	38	104	0	68	12828
2026-01-06 15:02:20.47	187.29	5.96	-49.1	-59.4	3.8	8.46e-01	0	38	104	0	68	11836
2026-01-06 15:02:24.49	187.50	6.24	-49.1	-59.0	3.8	8.47e-01	0	38	104	0	68	11327
2026-01-06 15:02:28.51	187.70	6.53	-49.2	-60.2	3.8	8.46e-01	0	38	104	0	68	13107
2026-01-06 15:02:32.53	187.92	6.82	-49.0	-58.7	3.9	8.45e-01	0	38	104	0	68	10927
2026-01-06 15:02:36.54	188.13	7.11	-49.1	-59.7	3.8	8.46e-01	0	38	104	0	68	12320
2026-01-06 15:02:40.56	188.35	7.41	-47.6	-53.1	6.4	3.41e-01	0	39	0	1048576	66	6494
2026-01-06 15:02:44.58	188.58	7.71	-42.0	-43.9	15.4	4.50e-06	0	39	0	30408704	54	4468
2026-01-06 15:02:48.59	188.80	8.01	-39.6	-41.2	18.1	0.00e+00	0	39	0	59768832	50	4108
2026-01-06 15:02:52.61	189.04	8.32	-40.7	-42.3	17.0	0.00e+00	0	39	0	88080384	50	4695
2026-01-06 15:02:56.62	189.28	8.63	-44.4	-46.9	12.6	4.46e-05	0	39	0	117440512	58	5004
2026-01-06 15:03:00.64	189.52	8.94	-47.2	-52.2	7.2	1.08e-01	0	39	0	146800640	64	6553
2026-01-06 15:03:04.65	189.77	9.26	-47.8	-53.8	5.9	3.87e-01	0	39	0	170917888	65	7444
2026-01-06 15:03:08.67	190.02	9.58	-44.2	-46.6	12.9	2.86e-04	0	39	0	190840832	59	4582
2026-01-06 15:03:12.68	190.28	9.91	-39.2	-40.8	18.5	0.00e+00	0	39	0	220200960	49	4162
2026-01-06 15:03:16.68	190.54	10.23	-39.1	-40.7	18.6	0.00e+00	0	39	0	248512512	48	4362
2026-01-06 15:03:20.70	190.81	10.56	-39.0	-40.6	18.7	0.00e+00	0	39	0	277872640	48	4303
2026-01-06 15:03:24.71	191.09	10.90	-38.8	-40.4	18.9	0.00e+00	0	39	0	306184192	48	4201
2026-01-06 15:03:28.72	191.37	11.24	-38.5	-40.0	19.0	0.00e+00	0	39	0	335544320	47	4287
2026-01-06 15:03:32.74	191.66	11.58	-38.4	-39.9	19.1	0.00e+00	0	39	0	364904448	47	4216
2026-01-06 15:03:36.75	191.95	11.93	-38.1	-39.6	19.4	0.00e+00	0	39	0	393216000	47	4054
2026-01-06 15:03:40.76	192.25	12.28	-38.2	-39.8	19.2	0.00e+00	0	39	0	422576128	46	4407
2026-01-06 15:03:44.77	192.56	12.64	-38.2	-39.8	19.2	0.00e+00	0	40	0	450887680	46	4396
2026-01-06 15:03:48.78	192.87	13.00	-38.0	-39.5	19.4	0.00e+00	0	39	0	480247808	46	4265
2026-01-06 15:03:52.79	193.20	13.37	-38.0	-39.6	19.4	0.00e+00	0	40	0	509607936	46	4300
2026-01-06 15:03:56.80	193.53	13.74	-37.8	-39.3	19.7	0.00e+00	0	40	0	537919488	46	4159
2026-01-06 15:04:00.80	193.87	14.11	-37.7	-39.1	19.8	0.00e+00	0	40	0	567279616	45	4333
2026-01-06 15:04:04.81	194.21	14.49	-37.6	-39.0	19.9	0.00e+00	0	40	0	595591168	45	4284
2026-01-06 15:04:08.82	194.57	14.88	-37.6	-39.1	19.9	0.00e+00	0	40	0	624951296	45	4309
2026-01-06 15:04:12.83	194.93	15.27	-37.5	-39.0	20.0	0.00e+00	0	40	0	654311424	45	4250
2026-01-06 15:04:16.84	195.31	15.67	-37.6	-39.1	19.9	0.00e+00	0	40	0	682622976	45	4320
2026-01-06 15:04:20.85	195.69	16.07	-37.5	-39.0	20.0	0.00e+00	0	40	0	711983104	45	4257
2026-01-06 15:04:24.86	196.09	16.48	-37.4	-38.8	20.2	0.00e+00	0	40	0	740294656	44	4404
2026-01-06 15:04:28.87	196.49	16.89	-37.1	-38.6	20.4	0.00e+00	0	40	0	769654784	44	4294
2026-01-06 15:04:32.88	196.91	17.31	-36.8	-38.2	20.7	0.00e+00	0	40	0	799014912	44	4104
2026-01-06 15:04:36.89	197.33	17.73	-36.5	-37.8	20.8	0.00e+00	0	40	0	827326464	43	4189
2026-01-06 15:04:40.90	197.77	18.16	-36.3	-37.6	21.0	0.00e+00	0	40	0	856686592	43	4085
2026-01-06 15:04:44.91	198.22	18.60	-36.5	-37.9	20.8	0.00e+00	0	40	0	884998144	43	4197
2026-01-06 15:04:48.92	198.69	19.04	-36.3	-37.6	21.0	0.00e+00	0	40	0	914358272	42	4308
2026-01-06 15:04:52.92	199.16	19.49	-36.4	-37.7	20.8	0.00e+00	0	40	0	942669824	42	4384
2026-01-06 15:04:56.93	199.65	19.94	-36.3	-37.7	20.9	0.00e+00	0	40	0	972029952	43	4114
2026-01-06 15:05:00.93	200.16	20.40	-36.2	-37.6	21.0	0.00e+00	0	40	0	1001390080	42	4312
2026-01-06 15:05:04.95	200.68	20.87	-36.2	-37.5	21.1	0.00e+00	0	40	0	1029701632	42	4265
2026-01-06 15:05:08.96	201.21	21.34	-36.1	-37.4	21.2	0.00e+00	0	40	0	1059061760	42	4223
2026-01-06 15:05:12.97	201.76	21.82	-36.2	-37.5	21.1	0.00e+00	0	40	0	1087373312	42	4286
2026-01-06 15:05:16.97	202.33	22.31	-36.4	-37.8	20.9	0.00e+00	0	40	0	1116733440	42	4399
2026-01-06 15:05:20.98	202.92	22.80	-36.1	-37.4	21.2	0.00e+00	0	40	0	1146093568	42	4208
2026-01-06 15:05:25.00	203.52	23.30	-36.1	-37.4	21.3	0.00e+00	0	40	0	1174405120	42	4213
2026-01-06 15:05:29.01	204.15	23.81	-36.0	-37.3	21.3	0.00e+00	0	40	0	1203765248	42	4178
2026-01-06 15:05:33.02	204.79	24.32	-35.9	-37.2	21.3	0.00e+00	0	40	0	1232076800	42	4139
2026-01-06 15:05:37.02	205.46	24.84	-36.0	-37.4	21.2	0.00e+00	0	40	0	1261436928	42	4198
2026-01-06 15:05:41.04	206.15	25.37	-35.9	-37.3	21.3	0.00e+00	0	41	0	1290797056	42	4146
2026-01-06 15:05:45.05	206.85	25.90	-35.8	-37.2	21.4	0.00e+00	0	40	0	1319108608	42	4112
2026-01-06 15:05:49.06	207.59	26.43	-35.6	-36.9	21.6	0.00e+00	0	40	0	1348468736	41	4236
2026-01-06 15:05:53.07	208.35	26.98	-35.4	-36.7	21.9	0.00e+00	0	40	0	1376780288	41	4134
2026-01-06 15:05:57.08	209.13	27.53	-35.2	-36.5	22.1	0.00e+00	0	40	0	1406140416	40	4249
2026-01-06 15:06:01.08	209.94	28.08	-35.0	-36.3	22.1	0.00e+00	0	40	0	1435500544	40	4184
2026-01-06 15:06:05.10	210.78	28.64	-35.3	-36.7	21.8	0.00e+00	0	40	0	1463812096	40	4343
2026-01-06 15:06:09.11	211.65	29.20	-35.5	-36.8	21.5	0.00e+00	0	40	0	1493172224	40	4429
2026-01-06 15:06:13.12	212.55	29.77	-35.5	-36.8	21.6	0.00e+00	0	40	0	1522532352	40	4422
2026-01-06 15:06:17.13	213.48	30.34	-35.6	-36.9	21.6	0.00e+00	0	40	0	1550843904	40	4479
2026-01-06 15:06:21.14	214.44	30.92	-35.5	-36.7	21.8	0.00e+00	0	40	0	1580204032	40	4389
2026-01-06 15:06:25.14	215.44	31.49	-35.4	-36.6	22.0	0.00e+00	0	40	0	1608515584	40	4334
2026-01-06 15:06:29.15	216.47	32.07	-35.5	-36.8	21.8	0.00e+00	0	40	0	1637875712	40	4419
2026-01-06 15:06:33.16	217.54	32.65	-35.2	-36.6	22.0	0.00e+00	0	40	0	1667235840	40	4294
2026-01-06 15:06:37.17	218.64	33.23	-35.1	-36.5	22.0	0.00e+00	0	40	0	1695547392	40	4252
2026-01-06 15:06:41.18	219.79	33.80	-35.2	-36.6	21.9	0.00e+00	0	41	0	1724907520	40	4295
2026-01-06 15:06:45.19	220.98	34.38	-35.3	-36.6	21.8	0.00e+00	0	40	0	1754267648	40	4317
2026-01-06 15:06:49.20	222.21	34.95	-35.2	-36.5	21.9	0.00e+00	0	41	0	1782579200	40	4263
2026-01-06 15:06:53.21	223.48	35.52	-35.4	-36.7	21.9	0.00e+00	0	41	0	1811939328	40	4369
2026-01-06 15:06:57.22	224.80	36.08	-35.2	-36.4	22.2	0.00e+00	0	41	0	1840250880	40	4232
2026-01-06 15:07:01.23	226.16	36.64	-35.3	-36.6	22.0	0.00e+00	0	40	0	1869611008	40	4306
2026-01-06 15:07:05.25	227.57	37.18	-35.1	-36.4	22.1	0.00e+00	0	40	0	1898971136	40	4229
2026-01-06 15:07:09.26	229.02	37.72	-35.8	-37.1	21.5	0.00e+00	0	41	0	1927282688	41	4320
2026-01-06 15:07:13.27	230.52	38.24	-35.7	-36.9	21.7	0.00e+00	0	41	0	1956642816	41	4236
2026-01-06 15:07:17.27	232.07	38.74	-35.1	-36.3	22.4	0.00e+00	0	41	0	1984954368	40	4153
2026-01-06 15:07:21.28	233.66	39.23	-35.5	-36.8	21.8	0.00e+00	0	40	0	2014314496	40	4415
2026-01-06 15:07:25.28	235.30	39.71	-35.5	-36.9	21.6	0.00e+00	0	41	0	2043674624	40	4480
2026-01-06 15:07:29.30	237.00	40.16	-35.7	-37.0	21.7	0.00e+00	0	41	0	2071986176	40	4510
2026-01-06 15:07:33.31	238.73	40.59	-35.8	-37.1	21.6	0.00e+00	0	40	0	2101346304	41	4302
2026-01-06 15:07:37.31	240.51	40.99	-35.1	-36.3	22.3	0.00e+00	0	41	0	2129657856	40	4174
2026-01-06 15:07:41.32	242.33	41.37	-35.1	-36.4	22.2	0.00e+00	0	41	0	2159017984	40	4226
2026-01-06 15:07:45.32	244.19	41.71	-35.9	-36.7	22.6	0.00e+00	0	41	0	2187329536	41	4122
2026-01-06 15:07:49.33	246.09	42.03	-36.0	-36.9	22.5	0.00e+00	0	41	0	2216689664	41	4213
2026-01-06 15:07:53.34	248.03	42.32	-36.0	-36.9	22.5	0.00e+00	0	41	0	2246049792	41	4195
2026-01-06 15:07:57.35	250.00	42.57	-35.9	-36.7	22.6	0.00e+00	0	41	0	2274361344	41	4130
2026-01-06 15:08:01.36	252.00	42.78	-36.4	-37.3	22.1	0.00e+00	0	41	0	2303721472	42	4171
2026-01-06 15:08:05.36	254.01	42.95	-36.2	-37.1	22.3	0.00e+00	0	41	0	2332033024	42	4076
2026-01-06 15:08:09.36	256.05	43.09	-36.1	-37.0	22.4	0.00e+00	0	41	0	2361393152	42	4017
2026-01-06 15:08:13.36	258.10	43.19	-36.2	-37.1	22.4	0.00e+00	0	41	0	2389704704	42	4052
2026-01-06 15:08:17.37	260.16	43.25	-36.0	-36.9	22.5	0.00e+00	0	41	0	2419064832	42	3964
2026-01-06 15:08:21.38	262.23	43.26	-36.0	-36.8	22.6	0.00e+00	0	41	0	2447376384	42	3944
2026-01-06 15:08:25.38	264.29	43.24	-36.3	-37.1	22.3	0.00e+00	0	41	0	2476736512	42	4091
2026-01-06 15:08:29.39	266.35	43.18	-36.4	-37.2	22.2	0.00e+00	0	41	0	2506096640	43	3900
2026-01-06 15:08:33.40	268.41	43.07	-36.0	-36.9	22.5	0.00e+00	0	41	0	2534408192	42	3972
2026-01-06 15:08:37.41	270.44	42.93	-36.0	-36.9	22.6	0.00e+00	0	41	0	2563768320	42	3959
2026-01-06 15:08:41.42	272.46	42.74	-36.4	-37.2	22.2	0.00e+00	0	41	0	2592079872	42	4138
2026-01-06 15:08:45.43	274.45	42.52	-36.1	-37.0	22.4	0.00e+00	0	41	0	2621440000	42	4031
2026-01-06 15:08:49.44	276.41	42.27	-36.6	-37.4	22.0	0.00e+00	0	41	0	2650800128	42	4242
2026-01-06 15:08:53.45	278.33	41.98	-36.3	-37.2	22.2	0.00e+00	0	41	0	2679111680	42	4113
2026-01-06 15:08:57.46	280.23	41.66	-36.2	-37.1	22.3	0.00e+00	0	41	0	2708471808	42	4072
2026-01-06 15:09:01.47	282.08	41.31	-35.9	-36.8	22.6	0.00e+00	0	41	0	2736783360	42	3915
2026-01-06 15:09:05.49	283.90	40.92	-36.3	-37.2	22.2	0.00e+00	0	41	0	2766143488	42	4103
2026-01-06 15:09:09.49	285.66	40.52	-35.8	-36.6	22.7	0.00e+00	0	41	0	2795503616	42	3864
2026-01-06 15:09:13.49	287.38	40.09	-35.7	-36.6	22.8	0.00e+00	0	41	0	2823815168	42	3839
2026-01-06 15:09:17.51	289.06	39.63	-35.6	-36.4	22.9	0.00e+00	0	41	0	2853175296	42	3777
2026-01-06 15:09:21.52	290.69	39.16	-36.0	-36.9	22.5	0.00e+00	0	41	0	2882535424	42	3963
2026-01-06 15:09:25.52	292.27	38.67	-36.1	-37.0	22.3	0.00e+00	0	41	0	2910846976	42	4036
2026-01-06 15:09:29.53	293.81	38.16	-35.8	-36.6	22.7	0.00e+00	0	41	0	2940207104	42	3862
2026-01-06 15:09:33.54	295.30	37.64	-35.7	-36.5	22.8	0.00e+00	0	41	0	2968518656	42	3816
2026-01-06 15:09:37.54	296.73	37.11	-35.7	-36.6	22.7	0.00e+00	0	41	0	2997878784	42	3847
2026-01-06 15:09:41.56	298.13	36.56	-35.6	-36.5	22.8	0.00e+00	0	41	0	3027238912	41	4017
2026-01-06 15:09:45.56	299.48	36.01	-35.5	-36.3	22.9	0.00e+00	0	41	0	3055550464	41	3940
2026-01-06 15:09:49.57	300.79	35.45	-35.6	-36.5	22.7	0.00e+00	0	41	0	3084910592	41	4016
2026-01-06 15:09:53.58	302.05	34.89	-35.9	-36.8	22.6	0.00e+00	0	41	0	3113222144	41	4160
2026-01-06 15:09:57.59	303.27	34.32	-35.7	-36.6	22.7	0.00e+00	0	41	0	3142582272	41	4055
2026-01-06 15:10:01.60	304.44	33.75	-35.5	-36.3	22.9	0.00e+00	0	41	0	3171942400	41	3947
2026-01-06 15:10:05.60	305.58	33.17	-35.9	-36.8	22.3	0.00e+00	0	41	0	3200253952	41	4165
2026-01-06 15:10:09.62	306.68	32.60	-36.2	-37.1	22.3	0.00e+00	0	41	0	3229614080	42	4075
2026-01-06 15:10:13.62	307.74	32.02	-35.9	-36.8	22.5	0.00e+00	0	41	0	3257925632	42	3923
2026-01-06 15:10:17.63	308.76	31.45	-35.6	-36.5	22.8	0.00e+00	0	41	0	3287285760	42	3791
2026-01-06 15:10:21.63	309.75	30.88	-36.1	-36.9	22.4	0.00e+00	0	41	0	3316645888	42	4000
2026-01-06 15:10:25.63	310.70	30.31	-36.1	-37.0	22.4	0.00e+00	0	41	0	3344957440	42	4025
2026-01-06 15:10:29.63	311.62	29.74	-36.0	-36.9	22.5	0.00e+00	0	41	0	3374317568	42	3962
2026-01-06 15:10:33.63	312.51	29.18	-36.1	-37.0	22.4	0.00e+00	0	41	0	3402629120	42	4007
2026-01-06 15:10:37.64	313.37	28.62	-36.1	-37.0	22.3	0.00e+00	0	41	0	3431989248	42	4030
2026-01-06 15:10:41.65	314.21	28.07	-36.1	-37.0	22.4	0.00e+00	0	41	0	3460300800	42	4043
2026-01-06 15:10:45.66	315.01	27.52	-36.2	-37.1	22.3	0.00e+00	0	41	0	3489660928	42	4068
2026-01-06 15:10:49.66	315.79	26.97	-36.4	-37.3	22.1	0.00e+00	0	41	0	3517972480	42	4154
2026-01-06 15:10:53.67	316.54	26.44	-36.1	-37.0	22.3	0.00e+00	0	41	0	3547332608	42	4029
2026-01-06 15:10:57.69	317.27	25.90	-35.7	-36.6	22.7	0.00e+00	0	41	0	3576692736	42	3848
2026-01-06 15:11:01.70	317.98	25.37	-35.8	-36.7	22.6	0.00e+00	0	41	0	3605004288	42	3872
2026-01-06 15:11:05.71	318.66	24.85	-36.2	-37.1	22.2	0.00e+00	0	41	0	3634364416	42	4089
2026-01-06 15:11:09.73	319.33	24.34	-36.5	-37.4	22.0	0.00e+00	0	41	0	3662675968	42	4220
2026-01-06 15:11:13.74	319.97	23.83	-36.5	-37.4	22.0	0.00e+00	0	41	0	3692036096	42	4220
2026-01-06 15:11:17.75	320.59	23.33	-36.1	-37.0	22.3	0.00e+00	0	41	0	3721396224	42	4032
2026-01-06 15:11:21.77	321.19	22.83	-36.3	-37.2	22.1	0.00e+00	0	41	0	3749707776	42	4127
2026-01-06 15:11:25.78	321.78	22.34	-36.6	-37.5	21.9	0.00e+00	0	41	0	3779067904	42	4264
2026-01-06 15:11:29.79	322.34	21.86	-36.7	-37.7	21.7	0.00e+00	0	41	0	3808428032	43	4103
2026-01-06 15:11:33.80	322.89	21.38	-36.7	-37.6	21.7	0.00e+00	0	41	0	3836739584	43	4094
2026-01-06 15:11:37.81	323.43	20.91	-36.6	-37.5	21.8	0.00e+00	0	41	0	3866099712	43	4036
2026-01-06 15:11:41.83	323.95	20.45	-36.7	-37.6	21.6	0.00e+00	0	41	0	3895459840	43	4097
2026-01-06 15:11:45.84	324.45	19.99	-37.0	-38.0	21.4	0.00e+00	0	41	0	3923771392	43	4248
2026-01-06 15:11:49.85	324.94	19.54	-37.1	-38.1	21.3	0.00e+00	0	41	0	3953131520	43	4308
2026-01-06 15:11:53.87	325.42	19.09	-37.2	-38.1	21.3	0.00e+00	0	41	0	3981443072	43	4334
2026-01-06 15:11:57.88	325.88	18.66	-37.2	-38.1	21.3	0.00e+00	0	41	0	4010803200	43	4317
2026-01-06 15:12:01.89	326.33	18.22	-37.4	-38.4	21.0	0.00e+00	0	41	0	4040163328	44	4235
2026-01-06 15:12:05.91	326.77	17.80	-37.6	-38.6	20.9	0.00e+00	0	41	0	4068474880	44	4333
2026-01-06 15:12:09.92	327.19	17.37	-37.7	-38.7	20.9	0.00e+00	0	41	0	4097835008	44	4346
2026-01-06 15:12:13.93	327.61	16.96	-37.8	-38.8	20.8	0.00e+00	0	41	0	4127195136	45	4161
2026-01-06 15:12:17.94	328.01	16.55	-37.8	-38.9	20.7	0.00e+00	0	41	0	4155506688	45	4195
2026-01-06 15:12:21.96	328.41	16.15	-38.0	-39.0	20.5	0.00e+00	0	41	0	4184866816	45	4278
2026-01-06 15:12:25.97	328.79	15.75	-38.1	-39.1	20.5	0.00e+00	0	41	0	4213178368	45	4301
2026-01-06 15:12:29.98	329.17	15.35	-38.2	-39.2	20.3	0.00e+00	0	41	0	4242538496	45	4353
2026-01-06 15:12:33.99	329.53	14.97	-38.2	-39.2	20.3	0.00e+00	0	41	0	4271898624	45	4379
2026-01-06 15:12:38.00	329.89	14.58	-38.4	-39.4	20.1	0.00e+00	0	41	0	4300210176	46	4217
2026-01-06 15:12:42.02	330.24	14.21	-38.6	-39.6	19.9	0.00e+00	0	41	0	4329570304	46	4339
2026-01-06 15:12:46.03	330.58	13.83	-38.9	-39.9	19.6	0.00e+00	0	41	0	4358930432	47	4228
2026-01-06 15:12:50.04	330.91	13.47	-39.0	-40.1	19.4	0.00e+00	0	41	0	4387241984	47	4306
2026-01-06 15:12:54.06	331.24	13.10	-39.0	-40.1	19.4	0.00e+00	0	41	0	4416602112	47	4315
2026-01-06 15:12:58.07	331.55	12.74	-39.0	-40.1	19.4	0.00e+00	0	41	0	4444913664	47	4305
2026-01-06 15:13:02.08	331.86	12.39	-39.0	-40.1	19.4	0.00e+00	0	41	0	4474273792	47	4316
2026-01-06 15:13:06.09	332.17	12.04	-39.0	-40.1	19.4	0.00e+00	0	41	0	4503633920	47	4313
2026-01-06 15:13:10.10	332.46	11.69	-39.1	-40.2	19.3	0.00e+00	0	41	0	4531945472	47	4369
2026-01-06 15:13:14.12	332.75	11.35	-39.1	-40.2	19.2	0.00e+00	0	41	0	4561305600	47	4356
2026-01-06 15:13:18.13	333.04	11.01	-39.3	-40.4	19.0	0.00e+00	0	41	0	4590665728	47	4457
2026-01-06 15:13:22.14	333.31	10.68	-39.5	-40.6	19.1	0.00e+00	0	41	0	4618977280	48	4304
2026-01-06 15:13:26.15	333.58	10.35	-39.6	-40.8	18.9	0.00e+00	0	41	0	4648337408	48	4397
2026-01-06 15:13:30.17	333.85	10.03	-39.7	-40.9	18.7	0.00e+00	0	42	0	4676648960	48	4487
2026-01-06 15:13:34.18	334.11	9.71	-39.8	-40.9	18.7	0.00e+00	0	41	0	4706009088	49	4235
2026-01-06 15:13:38.19	334.37	9.39	-39.8	-41.0	18.7	0.00e+00	0	41	0	4735369216	49	4250
2026-01-06 15:13:42.21	334.62	9.07	-39.8	-41.0	18.6	0.00e+00	0	41	0	4763680768	49	4263
2026-01-06 15:13:46.23	334.86	8.76	-50.3	-61.3	3.8	8.47e-01	0	41	104	4776263680	70	13158
2026-01-06 15:13:50.25	335.11	8.45	-50.5	-61.5	3.8	8.47e-01	0	41	104	4776263680	70	13566
2026-01-06 15:13:54.26	335.34	8.15	-50.7	-61.6	3.8	8.47e-01	0	41	104	4776263680	70	13697
2026-01-06 15:13:58.28	335.57	7.85	-50.7	-61.6	3.8	8.46e-01	0	41	104	4776263680	71	12916
2026-01-06 15:14:02.30	335.80	7.55	-50.9	-61.7	3.8	8.48e-01	0	41	104	4776263680	71	12987
2026-01-06 15:14:06.32	336.02	7.26	-50.8	-61.6	3.8	8.47e-01	0	42	104	4776263680	71	12897
2026-01-06 15:14:10.33	336.24	6.96	-50.4	-61.5	3.8	8.47e-01	0	41	104	4776263680	71	12735
2026-01-06 15:14:14.35	336.46	6.68	-50.4	-61.5	3.8	8.47e-01	0	41	104	4776263680	71	12745
2026-01-06 15:14:18.37	336.67	6.39	-50.4	-61.5	3.8	8.47e-01	0	41	104	4776263680	71	12756
2026-01-06 15:14:22.39	336.88	6.11	-50.4	-61.5	3.8	8.46e-01	0	41	104	4776263680	71	12749
2026-01-06 15:14:26.40	337.08	5.83	-50.4	-61.6	3.8	8.45e-01	0	41	104	4776263680	71	12851
2026-01-06 15:14:30.42	337.28	5.55	-50.4	-61.6	3.8	8.47e-01	0	42	104	4776263680	71	12844
2026-01-06 15:14:34.44	337.48	5.27	-50.4	-61.5	3.8	8.47e-01	0	41	104	4776263680	71	12698
2026-01-06 15:14:38.46	337.67	5.00	-50.4	-61.5	3.8	8.49e-01	0	42	104	4776263680	71	12736

#Closed at: 2026-01-06 15:14:39
#Recorded file [4776 MB]: D:/Data/31040_260106_180208.dat