passes_logs/2026/01/06/T1/T1__20260106_121827_SUOMI_NPP_rec.log

#Pass ID: 20260106_121827_SUOMI NPP
#Satellite: SUOMI NPP
#Configuration: NPP
#almurnet v.1.7.20251203
#Start time: 2026-01-06 12:18:27

#Version: 2.0.20230620
#Station: T1
#Location: 37.570604 lon 55.790049 lat
#TLE: 1 37849U 11061A   26004.95404768  .00000136  00000+0  85334-4 0  9991
#TLE: 2 37849  98.7801 307.0898 0002575  80.6707 279.4760 14.19522289735281

#Time	Az	El	Level	Level2	SNR	BER	BlckErr	Temp	State	Recorded	gain1	gain2
2026-01-06 12:18:27.92	241.74	5.01	-49.7	-65.4	3.8	1.49e+00	0	40	0	0	71	21279
2026-01-06 12:18:29.93	241.99	5.09	-49.6	-65.3	3.8	1.49e+00	0	40	104	0	71	21155
2026-01-06 12:18:31.93	242.25	5.17	-49.6	-65.3	3.8	1.49e+00	0	40	104	0	71	21104
2026-01-06 12:18:33.94	242.50	5.25	-49.7	-65.3	3.8	1.49e+00	0	40	104	0	71	21149
2026-01-06 12:18:35.95	242.76	5.33	-49.6	-65.3	3.8	1.49e+00	0	40	104	0	71	21103
2026-01-06 12:18:37.96	243.02	5.42	-49.6	-65.3	3.8	1.49e+00	0	40	104	0	71	21131
2026-01-06 12:18:39.97	243.28	5.50	-49.6	-65.3	3.8	1.49e+00	0	40	104	0	71	21115
2026-01-06 12:18:41.98	243.54	5.58	-49.6	-65.3	3.8	1.49e+00	0	41	104	0	71	21215
2026-01-06 12:18:43.99	243.80	5.66	-49.6	-65.3	3.8	1.49e+00	0	41	104	0	71	21081
2026-01-06 12:18:46.00	244.06	5.74	-49.6	-65.3	3.8	1.49e+00	0	41	104	0	71	21134
2026-01-06 12:18:48.00	244.33	5.82	-49.6	-65.3	3.8	1.49e+00	0	40	104	0	71	21108
2026-01-06 12:18:50.01	244.59	5.89	-49.6	-65.3	3.8	1.49e+00	0	41	104	0	71	21222
2026-01-06 12:18:52.02	244.86	5.97	-49.6	-65.3	3.8	1.49e+00	0	41	104	0	71	21098
2026-01-06 12:18:54.03	245.13	6.05	-49.6	-65.2	3.8	1.49e+00	0	41	104	0	71	20974
2026-01-06 12:18:56.04	245.40	6.13	-49.6	-65.3	3.8	1.49e+00	0	41	104	0	71	21044
2026-01-06 12:18:58.05	245.67	6.21	-49.6	-65.3	3.8	1.49e+00	0	41	104	0	71	21097
2026-01-06 12:19:00.06	245.95	6.29	-49.6	-65.3	3.8	1.49e+00	0	41	104	0	71	21040
2026-01-06 12:19:02.07	246.22	6.36	-49.6	-65.2	3.8	1.49e+00	0	41	104	0	71	20971
2026-01-06 12:19:04.07	246.50	6.44	-49.6	-65.3	3.8	1.49e+00	0	41	104	0	71	21027
2026-01-06 12:19:06.08	246.77	6.52	-49.6	-65.2	3.8	1.49e+00	0	41	104	0	71	20928
2026-01-06 12:19:08.09	247.05	6.59	-49.6	-65.2	3.8	1.49e+00	0	41	104	0	71	21008
2026-01-06 12:19:10.10	247.33	6.67	-49.6	-65.3	3.8	1.49e+00	0	41	104	0	71	21111
2026-01-06 12:19:12.11	247.62	6.75	-49.5	-65.3	3.8	1.49e+00	0	41	104	0	71	21109
2026-01-06 12:19:14.12	247.90	6.82	-49.6	-65.3	3.8	1.49e+00	0	41	104	0	71	21036
2026-01-06 12:19:16.13	248.18	6.90	-49.6	-65.3	3.8	1.49e+00	0	41	104	0	71	21050
2026-01-06 12:19:18.13	248.47	6.97	-49.6	-65.3	3.8	1.49e+00	0	41	104	0	71	21020
2026-01-06 12:19:20.13	248.76	7.04	-49.6	-65.3	3.8	1.49e+00	0	41	104	0	71	21057
2026-01-06 12:19:22.14	249.04	7.12	-49.6	-65.3	3.8	1.49e+00	0	42	104	0	71	21057
2026-01-06 12:19:24.15	249.33	7.19	-49.6	-65.3	3.8	1.49e+00	0	41	104	0	71	21019
2026-01-06 12:19:26.16	249.63	7.26	-49.6	-65.2	3.8	1.49e+00	0	42	104	0	71	20958
2026-01-06 12:19:28.17	249.92	7.34	-49.6	-65.2	3.8	1.49e+00	0	42	104	0	71	20934
2026-01-06 12:19:30.17	250.21	7.41	-49.6	-65.2	3.8	1.49e+00	0	42	104	0	71	20915
2026-01-06 12:19:32.18	250.51	7.48	-49.6	-65.2	3.8	1.49e+00	0	42	104	0	71	20892
2026-01-06 12:19:34.19	250.81	7.55	-49.6	-65.2	3.8	1.49e+00	0	41	104	0	71	20882
2026-01-06 12:19:36.19	251.10	7.62	-49.6	-65.1	3.8	1.49e+00	0	42	104	0	71	20766
2026-01-06 12:19:38.20	251.40	7.69	-49.6	-65.2	3.8	1.49e+00	0	42	104	0	71	20879
2026-01-06 12:19:40.21	251.71	7.76	-49.6	-65.2	3.8	1.49e+00	0	42	104	0	71	20921
2026-01-06 12:19:42.22	252.01	7.83	-49.6	-65.2	3.8	1.49e+00	0	42	104	0	71	20926
2026-01-06 12:19:44.23	252.31	7.90	-49.6	-65.3	3.8	1.49e+00	0	42	104	0	71	21077
2026-01-06 12:19:46.24	252.62	7.97	-49.6	-65.3	3.8	1.49e+00	0	42	104	0	71	21020
2026-01-06 12:19:48.25	252.93	8.04	-49.6	-65.2	3.8	1.49e+00	0	42	104	0	71	20988
2026-01-06 12:19:50.25	253.23	8.10	-49.6	-65.2	3.8	1.49e+00	0	42	104	0	71	20820
2026-01-06 12:19:52.26	253.54	8.17	-49.6	-65.1	3.8	1.49e+00	0	42	104	0	71	20725
2026-01-06 12:19:54.27	253.85	8.24	-49.6	-65.2	3.8	1.49e+00	0	42	104	0	71	20853
2026-01-06 12:19:56.28	254.17	8.30	-49.6	-65.0	3.8	1.49e+00	0	42	104	0	71	20527
2026-01-06 12:19:58.29	254.48	8.37	-49.6	-65.1	3.8	1.49e+00	0	42	104	0	71	20548
2026-01-06 12:20:00.30	254.80	8.43	-49.6	-65.2	3.8	1.49e+00	0	42	104	0	71	20927
2026-01-06 12:20:02.31	255.11	8.50	-49.6	-64.9	3.8	1.49e+00	0	42	104	0	71	20292
2026-01-06 12:20:04.32	255.43	8.56	-49.5	-63.8	3.8	1.49e+00	0	42	104	0	71	17729
2026-01-06 12:20:06.33	255.75	8.62	-49.5	-64.3	3.8	1.49e+00	0	42	104	0	71	18855
2026-01-06 12:20:08.34	256.07	8.68	-49.4	-62.4	3.9	1.49e+00	0	42	104	0	70	16076
2026-01-06 12:20:10.35	256.39	8.75	-48.3	-55.3	8.4	9.67e-02	0	42	0	3145728	68	7980
2026-01-06 12:20:12.36	256.72	8.81	-47.0	-51.9	11.9	1.04e-03	0	42	0	6291456	66	6025
2026-01-06 12:20:14.36	257.04	8.87	-46.9	-51.8	12.0	1.44e-04	0	42	0	10485760	65	6327
2026-01-06 12:20:16.37	257.37	8.93	-47.8	-54.0	9.7	6.96e-03	0	42	0	13631488	66	7646
2026-01-06 12:20:18.38	257.69	8.99	-49.0	-58.2	5.9	1.84e-01	0	42	0	17825792	68	11129
2026-01-06 12:20:20.39	258.02	9.04	-49.2	-60.5	4.6	8.36e-01	0	42	0	22020096	69	13703
2026-01-06 12:20:22.39	258.35	9.10	-49.0	-57.3	6.6	4.94e-01	0	42	0	23068672	69	9406
2026-01-06 12:20:24.40	258.68	9.16	-49.6	-61.3	4.0	1.44e+00	0	42	104	25165824	69	14881
2026-01-06 12:20:26.40	259.01	9.21	-47.6	-52.9	11.0	1.32e-03	0	42	0	28311552	66	6741
2026-01-06 12:20:28.41	259.34	9.27	-47.0	-51.6	12.3	3.17e-04	0	42	0	31457280	65	6136
2026-01-06 12:20:30.42	259.68	9.32	-46.2	-50.2	13.7	3.80e-06	0	42	0	35651584	64	5540
2026-01-06 12:20:32.42	260.01	9.38	-46.1	-49.8	14.2	1.50e-06	0	42	0	38797312	63	5649
2026-01-06 12:20:34.42	260.35	9.43	-45.6	-49.1	14.8	0.00e+00	0	42	0	42991616	63	5200
2026-01-06 12:20:36.43	260.69	9.48	-45.8	-49.5	14.5	0.00e+00	0	42	0	46137344	63	5444
2026-01-06 12:20:38.43	261.02	9.53	-45.9	-49.6	14.4	0.00e+00	0	42	0	50331648	63	5521
2026-01-06 12:20:40.43	261.36	9.58	-45.7	-49.3	14.7	0.00e+00	0	42	0	54525952	63	5313
2026-01-06 12:20:42.44	261.70	9.64	-45.7	-49.2	14.8	7.00e-07	0	42	0	57671680	63	5226
2026-01-06 12:20:44.44	262.04	9.68	-45.7	-49.2	14.8	0.00e+00	0	42	0	61865984	63	5242
2026-01-06 12:20:46.44	262.39	9.73	-45.5	-48.9	15.1	0.00e+00	0	42	0	65011712	63	5091
2026-01-06 12:20:48.45	262.73	9.78	-45.5	-48.9	15.1	7.00e-07	0	42	0	69206016	62	5375
2026-01-06 12:20:50.45	263.08	9.83	-45.1	-48.5	15.5	0.00e+00	0	42	0	73400320	62	5102
2026-01-06 12:20:52.45	263.42	9.87	-45.0	-48.4	15.7	0.00e+00	0	42	0	76546048	62	5061
2026-01-06 12:20:54.46	263.77	9.92	-45.0	-48.2	15.8	0.00e+00	0	42	0	80740352	61	5239
2026-01-06 12:20:56.47	264.12	9.96	-45.3	-48.8	15.3	0.00e+00	0	42	0	83886080	61	5609
2026-01-06 12:20:58.47	264.47	10.01	-45.8	-49.4	14.7	0.00e+00	0	42	0	88080384	62	5660
2026-01-06 12:21:00.48	264.82	10.05	-46.2	-50.1	13.9	4.50e-06	0	42	0	91226112	63	5797
2026-01-06 12:21:02.49	265.17	10.09	-46.1	-49.9	14.2	3.80e-06	0	42	0	95420416	63	5659
2026-01-06 12:21:04.49	265.52	10.13	-45.9	-49.5	14.6	3.00e-06	0	43	0	99614720	63	5425
2026-01-06 12:21:06.50	265.88	10.17	-45.4	-48.8	15.2	0.00e+00	0	43	0	102760448	62	5318
2026-01-06 12:21:08.50	266.23	10.21	-45.2	-48.5	15.6	0.00e+00	0	42	0	106954752	62	5102
2026-01-06 12:21:10.51	266.58	10.25	-45.5	-48.8	15.2	0.00e+00	0	42	0	110100480	62	5321
2026-01-06 12:21:12.52	266.94	10.29	-45.5	-48.8	15.2	0.00e+00	0	42	0	114294784	62	5299
2026-01-06 12:21:14.52	267.30	10.32	-45.1	-48.2	15.8	0.00e+00	0	42	0	118489088	62	4952
2026-01-06 12:21:16.52	267.65	10.36	-44.8	-47.9	16.1	0.00e+00	0	43	0	121634816	61	5061
2026-01-06 12:21:18.53	268.01	10.39	-44.9	-48.1	15.9	0.00e+00	0	43	0	125829120	61	5179
2026-01-06 12:21:20.54	268.37	10.43	-45.3	-48.6	15.4	0.00e+00	0	42	0	128974848	61	5526
2026-01-06 12:21:22.54	268.73	10.46	-45.6	-48.9	15.2	0.00e+00	0	43	0	133169152	62	5353
2026-01-06 12:21:24.55	269.09	10.49	-45.3	-48.5	15.5	0.00e+00	0	42	0	136314880	62	5140
2026-01-06 12:21:26.55	269.45	10.52	-45.0	-48.1	15.9	0.00e+00	0	42	0	140509184	61	5185
2026-01-06 12:21:28.56	269.82	10.55	-45.4	-48.7	15.4	0.00e+00	0	43	0	144703488	61	5553
2026-01-06 12:21:30.57	270.18	10.58	-45.9	-49.5	14.6	0.00e+00	0	42	0	147849216	62	5738
2026-01-06 12:21:32.57	270.54	10.61	-46.0	-49.6	14.5	0.00e+00	0	42	0	152043520	62	5802
2026-01-06 12:21:34.57	270.91	10.63	-45.6	-49.0	15.0	0.00e+00	0	43	0	155189248	62	5458
2026-01-06 12:21:36.57	271.27	10.66	-45.2	-48.5	15.6	0.00e+00	0	43	0	159383552	62	5108
2026-01-06 12:21:38.58	271.64	10.68	-45.3	-48.6	15.4	0.00e+00	0	42	0	163577856	62	5180
2026-01-06 12:21:40.59	272.00	10.71	-45.6	-49.1	14.9	0.00e+00	0	42	0	166723584	62	5514
2026-01-06 12:21:42.59	272.37	10.73	-45.9	-49.5	14.6	7.00e-07	0	43	0	170917888	62	5727
2026-01-06 12:21:44.59	272.73	10.75	-45.8	-49.3	14.8	0.00e+00	0	42	0	174063616	62	5654
2026-01-06 12:21:46.60	273.10	10.77	-45.9	-49.6	14.5	0.00e+00	0	43	0	178257920	62	5799
2026-01-06 12:21:48.60	273.47	10.79	-46.5	-50.4	13.7	3.80e-06	0	42	0	182452224	63	6020
2026-01-06 12:21:50.60	273.84	10.81	-47.0	-51.3	12.7	6.10e-05	0	42	0	185597952	64	6330
2026-01-06 12:21:52.61	274.21	10.83	-47.0	-51.5	12.5	1.41e-04	0	43	0	189792256	65	6069
2026-01-06 12:21:54.62	274.58	10.84	-46.7	-50.8	13.2	3.89e-05	0	43	0	192937984	65	5594
2026-01-06 12:21:56.62	274.94	10.86	-46.3	-50.2	13.9	9.10e-06	0	43	0	197132288	64	5536
2026-01-06 12:21:58.63	275.32	10.87	-46.0	-49.7	14.3	2.20e-06	0	42	0	200278016	64	5252
2026-01-06 12:22:00.63	275.68	10.89	-46.1	-49.9	14.2	7.00e-07	0	43	0	204472320	64	5362
2026-01-06 12:22:02.63	276.05	10.90	-46.1	-49.7	14.3	1.50e-06	0	43	0	208666624	64	5278
2026-01-06 12:22:04.64	276.43	10.91	-45.9	-49.5	14.6	0.00e+00	0	42	0	211812352	63	5438
2026-01-06 12:22:06.64	276.80	10.92	-45.8	-49.3	14.8	7.00e-07	0	43	0	216006656	63	5328
2026-01-06 12:22:08.65	277.17	10.93	-45.7	-49.3	14.8	0.00e+00	0	43	0	219152384	63	5284
2026-01-06 12:22:10.65	277.54	10.94	-45.7	-49.2	14.9	0.00e+00	0	43	0	223346688	63	5260
2026-01-06 12:22:12.66	277.91	10.94	-45.7	-49.1	15.0	0.00e+00	0	43	0	227540992	63	5178
2026-01-06 12:22:14.67	278.28	10.95	-45.3	-48.5	15.6	0.00e+00	0	43	0	230686720	62	5143
2026-01-06 12:22:16.67	278.66	10.95	-45.3	-48.4	15.6	0.00e+00	0	43	0	234881024	62	5099
2026-01-06 12:22:18.67	279.03	10.96	-45.3	-48.4	15.7	0.00e+00	0	43	0	238026752	62	5096
2026-01-06 12:22:20.68	279.40	10.96	-45.3	-48.5	15.6	0.00e+00	0	42	0	242221056	62	5141
2026-01-06 12:22:22.68	279.77	10.96	-45.4	-48.6	15.5	7.00e-07	0	42	0	245366784	62	5193
2026-01-06 12:22:24.69	280.14	10.96	-45.2	-48.4	15.7	0.00e+00	0	42	0	249561088	62	5059
2026-01-06 12:22:26.70	280.52	10.96	-45.1	-48.2	15.9	0.00e+00	0	43	0	253755392	62	4935
2026-01-06 12:22:28.70	280.89	10.96	-45.3	-48.4	15.7	0.00e+00	0	43	0	256901120	62	5092
2026-01-06 12:22:30.70	281.26	10.96	-45.5	-48.7	15.4	0.00e+00	0	43	0	261095424	62	5248
2026-01-06 12:22:32.71	281.63	10.95	-45.4	-48.6	15.5	0.00e+00	0	43	0	264241152	62	5180
2026-01-06 12:22:34.71	282.00	10.95	-45.0	-48.1	16.0	0.00e+00	0	43	0	268435456	61	5171
2026-01-06 12:22:36.72	282.37	10.94	-44.9	-47.8	16.2	0.00e+00	0	42	0	272629760	61	5037
2026-01-06 12:22:38.72	282.74	10.94	-44.9	-47.8	16.2	0.00e+00	0	43	0	275775488	61	5028
2026-01-06 12:22:40.73	283.12	10.93	-45.0	-48.0	16.1	0.00e+00	0	43	0	279969792	61	5125
2026-01-06 12:22:42.73	283.49	10.92	-44.7	-47.6	16.4	0.00e+00	0	43	0	283115520	61	4916
2026-01-06 12:22:44.73	283.86	10.91	-44.7	-47.5	16.5	0.00e+00	0	43	0	287309824	61	4866
2026-01-06 12:22:46.74	284.23	10.90	-44.8	-47.8	16.3	0.00e+00	0	42	0	290455552	61	4993
2026-01-06 12:22:48.74	284.60	10.89	-45.1	-48.2	15.8	0.00e+00	0	43	0	294649856	61	5272
2026-01-06 12:22:50.74	284.97	10.87	-45.3	-48.4	15.6	0.00e+00	0	42	0	298844160	61	5375
2026-01-06 12:22:52.75	285.34	10.86	-45.1	-48.2	15.9	0.00e+00	0	43	0	301989888	61	5261
2026-01-06 12:22:54.75	285.70	10.84	-44.9	-47.9	16.2	0.00e+00	0	43	0	306184192	61	5075
2026-01-06 12:22:56.75	286.07	10.83	-44.9	-48.0	16.1	0.00e+00	0	43	0	309329920	61	5133
2026-01-06 12:22:58.75	286.44	10.81	-44.9	-48.0	16.1	0.00e+00	0	43	0	313524224	61	5109
2026-01-06 12:23:00.76	286.81	10.79	-45.0	-48.0	16.0	0.00e+00	0	43	0	317718528	61	5149
2026-01-06 12:23:02.76	287.17	10.77	-45.0	-48.0	16.1	0.00e+00	0	43	0	320864256	61	5128
2026-01-06 12:23:04.77	287.54	10.75	-44.8	-47.8	16.3	0.00e+00	0	43	0	325058560	61	5002
2026-01-06 12:23:06.77	287.91	10.73	-44.5	-47.4	16.6	0.00e+00	0	43	0	328204288	61	4789
2026-01-06 12:23:08.78	288.27	10.71	-44.7	-47.6	16.5	0.00e+00	0	43	0	332398592	61	4882
2026-01-06 12:23:10.78	288.64	10.68	-44.8	-47.7	16.3	0.00e+00	0	43	0	335544320	61	4978
2026-01-06 12:23:12.79	289.00	10.66	-44.6	-47.5	16.5	0.00e+00	0	43	0	339738624	61	4834
2026-01-06 12:23:14.80	289.37	10.63	-44.4	-47.3	16.7	0.00e+00	0	43	0	343932928	60	4993
2026-01-06 12:23:16.81	289.73	10.61	-44.1	-46.8	17.2	0.00e+00	0	43	0	347078656	60	4750
2026-01-06 12:23:18.81	290.09	10.58	-44.0	-46.7	17.2	0.00e+00	0	42	0	351272960	59	4947
2026-01-06 12:23:20.81	290.46	10.55	-44.3	-47.0	16.9	0.00e+00	0	43	0	354418688	59	5142
2026-01-06 12:23:22.82	290.82	10.52	-44.6	-47.4	16.6	0.00e+00	0	43	0	358612992	59	5385
2026-01-06 12:23:24.82	291.18	10.49	-44.7	-47.5	16.5	0.00e+00	0	43	0	362807296	60	5155
2026-01-06 12:23:26.83	291.54	10.46	-44.7	-47.5	16.5	0.00e+00	0	43	0	365953024	60	5151
2026-01-06 12:23:28.84	291.90	10.43	-44.6	-47.4	16.5	0.00e+00	0	43	0	370147328	60	5098
2026-01-06 12:23:30.84	292.26	10.39	-44.6	-47.5	16.5	0.00e+00	0	42	0	373293056	60	5120
2026-01-06 12:23:32.85	292.61	10.36	-44.8	-47.8	16.3	0.00e+00	0	43	0	377487360	60	5304
2026-01-06 12:23:34.85	292.97	10.32	-44.8	-47.8	16.2	0.00e+00	0	43	0	380633088	60	5333
2026-01-06 12:23:36.85	293.32	10.29	-44.8	-47.8	16.2	0.00e+00	0	43	0	384827392	60	5302
2026-01-06 12:23:38.86	293.68	10.25	-44.9	-47.9	16.2	0.00e+00	0	43	0	389021696	60	5344
2026-01-06 12:23:40.87	294.03	10.21	-44.9	-48.0	16.1	0.00e+00	0	43	0	392167424	60	5406
2026-01-06 12:23:42.87	294.39	10.17	-45.2	-48.3	15.7	0.00e+00	0	43	0	396361728	60	5651
2026-01-06 12:23:44.87	294.74	10.13	-45.4	-48.7	15.4	0.00e+00	0	42	0	399507456	61	5537
2026-01-06 12:23:46.88	295.09	10.09	-45.5	-48.8	15.2	0.00e+00	0	43	0	403701760	61	5643
2026-01-06 12:23:48.89	295.44	10.05	-45.5	-48.8	15.3	0.00e+00	0	43	0	407896064	62	5296
2026-01-06 12:23:50.89	295.79	10.01	-45.3	-48.5	15.5	0.00e+00	0	43	0	411041792	62	5142
2026-01-06 12:23:52.90	296.14	9.97	-45.1	-48.1	15.9	0.00e+00	0	43	0	415236096	62	4903
2026-01-06 12:23:54.90	296.48	9.92	-45.0	-48.0	16.0	0.00e+00	0	43	0	418381824	61	5126
2026-01-06 12:23:56.91	296.83	9.88	-44.5	-47.4	16.6	0.00e+00	0	43	0	422576128	61	4796
2026-01-06 12:23:58.92	297.18	9.83	-44.3	-47.1	16.9	0.00e+00	0	43	0	425721856	60	4888
2026-01-06 12:24:00.93	297.52	9.79	-44.1	-46.8	17.2	0.00e+00	0	43	0	429916160	60	4717
2026-01-06 12:24:02.93	297.86	9.74	-44.0	-46.7	17.2	0.00e+00	0	43	0	434110464	60	4680
2026-01-06 12:24:04.94	298.21	9.69	-44.3	-47.0	16.9	0.00e+00	0	43	0	437256192	60	4866
2026-01-06 12:24:06.94	298.55	9.64	-44.6	-47.5	16.4	0.00e+00	0	43	0	441450496	60	5150
2026-01-06 12:24:08.94	298.88	9.59	-44.9	-47.9	16.1	0.00e+00	0	43	0	444596224	60	5342
2026-01-06 12:24:10.95	299.22	9.54	-45.0	-48.0	16.0	0.00e+00	0	43	0	448790528	60	5431
2026-01-06 12:24:12.96	299.56	9.49	-44.7	-47.7	16.2	0.00e+00	0	43	0	452984832	60	5256
2026-01-06 12:24:14.96	299.90	9.44	-44.8	-47.7	16.2	0.00e+00	0	43	0	456130560	60	5279
2026-01-06 12:24:16.96	300.23	9.39	-44.8	-47.8	16.2	0.00e+00	0	43	0	460324864	60	5312
2026-01-06 12:24:18.96	300.56	9.33	-44.9	-48.0	16.0	0.00e+00	0	43	0	463470592	60	5409
2026-01-06 12:24:20.97	300.90	9.28	-45.0	-48.1	15.9	0.00e+00	0	43	0	467664896	60	5473
2026-01-06 12:24:22.98	301.23	9.22	-44.9	-47.9	16.0	0.00e+00	0	43	0	471859200	60	5392
2026-01-06 12:24:24.98	301.56	9.17	-44.8	-47.8	16.1	0.00e+00	0	43	0	475004928	60	5335
2026-01-06 12:24:26.98	301.89	9.11	-44.5	-47.5	16.5	0.00e+00	0	43	0	479199232	60	5104
2026-01-06 12:24:28.99	302.21	9.05	-44.4	-47.2	16.7	0.00e+00	0	43	0	482344960	60	4974
2026-01-06 12:24:31.00	302.54	9.00	-50.0	-62.4	4.1	4.34e-05	0	43	0	486539264	70	16055
2026-01-06 12:24:33.00	302.86	8.94	-50.4	-65.7	3.8	1.49e+00	0	43	104	486539264	71	22194
2026-01-06 12:24:35.01	303.19	8.88	-50.5	-65.9	3.8	1.49e+00	0	43	104	486539264	72	21278
2026-01-06 12:24:37.02	303.51	8.82	-50.7	-65.9	3.8	1.49e+00	0	43	104	486539264	72	21360
2026-01-06 12:24:39.02	303.83	8.76	-50.5	-66.0	3.8	1.49e+00	0	43	104	486539264	72	21537
2026-01-06 12:24:41.03	304.15	8.70	-50.7	-66.0	3.8	1.49e+00	0	43	104	486539264	72	21538
2026-01-06 12:24:43.04	304.47	8.64	-50.6	-66.0	3.8	1.49e+00	0	43	104	486539264	72	21524
2026-01-06 12:24:45.05	304.79	8.58	-50.7	-66.0	3.8	1.49e+00	0	43	104	486539264	72	21609
2026-01-06 12:24:47.06	305.11	8.51	-50.8	-66.0	3.8	1.49e+00	0	43	104	486539264	72	21539
2026-01-06 12:24:49.07	305.42	8.45	-50.7	-65.9	3.8	1.49e+00	0	43	104	486539264	72	21409
2026-01-06 12:24:51.07	305.74	8.39	-50.4	-65.9	3.8	1.49e+00	0	43	104	486539264	72	21427
2026-01-06 12:24:53.08	306.05	8.32	-50.3	-65.9	3.8	1.49e+00	0	43	104	486539264	72	21314
2026-01-06 12:24:55.09	306.36	8.26	-50.3	-65.9	3.8	1.49e+00	0	43	104	486539264	72	21311
2026-01-06 12:24:57.10	306.67	8.19	-50.3	-65.9	3.8	1.49e+00	0	43	104	486539264	72	21332
2026-01-06 12:24:59.11	306.98	8.12	-50.3	-65.9	3.8	1.49e+00	0	43	104	486539264	72	21364
2026-01-06 12:25:01.12	307.29	8.06	-50.3	-65.9	3.8	1.49e+00	0	43	104	486539264	72	21356
2026-01-06 12:25:03.13	307.59	7.99	-50.3	-65.9	3.8	1.49e+00	0	43	104	486539264	72	21377
2026-01-06 12:25:05.14	307.90	7.92	-50.3	-65.9	3.8	1.49e+00	0	43	104	486539264	72	21397
2026-01-06 12:25:07.14	308.20	7.86	-50.3	-65.9	3.8	1.49e+00	0	43	104	486539264	72	21284
2026-01-06 12:25:09.15	308.50	7.79	-50.3	-65.9	3.8	1.49e+00	0	43	104	486539264	72	21261
2026-01-06 12:25:11.16	308.80	7.72	-50.3	-65.9	3.8	1.49e+00	0	43	104	486539264	72	21296
2026-01-06 12:25:13.17	309.10	7.65	-50.3	-65.9	3.8	1.49e+00	0	43	104	486539264	72	21335
2026-01-06 12:25:15.18	309.40	7.58	-50.3	-65.9	3.8	1.49e+00	0	43	104	486539264	72	21362
2026-01-06 12:25:17.19	309.69	7.51	-50.3	-65.9	3.8	1.49e+00	0	43	104	486539264	72	21316
2026-01-06 12:25:19.20	309.99	7.44	-50.3	-65.9	3.8	1.49e+00	0	43	104	486539264	72	21314
2026-01-06 12:25:21.20	310.28	7.37	-50.3	-65.9	3.8	1.49e+00	0	43	104	486539264	72	21351
2026-01-06 12:25:23.22	310.57	7.29	-50.3	-65.9	3.8	1.49e+00	0	43	104	486539264	72	21290
2026-01-06 12:25:25.22	310.86	7.22	-50.3	-65.9	3.8	1.49e+00	0	43	104	486539264	72	21371
2026-01-06 12:25:27.23	311.15	7.15	-50.3	-65.9	3.8	1.49e+00	0	43	104	486539264	72	21318
2026-01-06 12:25:29.24	311.44	7.08	-50.3	-65.9	3.8	1.49e+00	0	43	104	486539264	72	21408
2026-01-06 12:25:31.25	311.72	7.00	-50.3	-65.9	3.8	1.49e+00	0	43	104	486539264	72	21346
2026-01-06 12:25:33.26	312.01	6.93	-50.3	-65.9	3.8	1.49e+00	0	43	104	486539264	72	21458
2026-01-06 12:25:35.27	312.29	6.85	-50.3	-65.9	3.8	1.49e+00	0	43	104	486539264	72	21315
2026-01-06 12:25:37.28	312.57	6.78	-50.3	-65.9	3.8	1.49e+00	0	43	104	486539264	72	21360
2026-01-06 12:25:39.28	312.85	6.70	-50.3	-65.9	3.8	1.49e+00	0	43	104	486539264	72	21287
2026-01-06 12:25:41.29	313.13	6.63	-50.3	-65.8	3.8	1.49e+00	0	43	104	486539264	72	21254
2026-01-06 12:25:43.30	313.41	6.55	-50.3	-65.9	3.8	1.49e+00	0	43	104	486539264	72	21379
2026-01-06 12:25:45.31	313.69	6.48	-50.3	-65.9	3.8	1.49e+00	0	43	104	486539264	72	21279
2026-01-06 12:25:47.32	313.96	6.40	-50.3	-65.9	3.8	1.49e+00	0	43	104	486539264	72	21346
2026-01-06 12:25:49.33	314.24	6.33	-50.3	-65.9	3.8	1.49e+00	0	43	104	486539264	72	21294
2026-01-06 12:25:51.34	314.51	6.25	-50.3	-65.8	3.8	1.49e+00	0	43	104	486539264	72	21246
2026-01-06 12:25:53.35	314.78	6.17	-50.3	-65.9	3.8	1.49e+00	0	43	104	486539264	72	21332
2026-01-06 12:25:55.36	315.05	6.09	-50.3	-65.9	3.8	1.49e+00	0	43	104	486539264	72	21283
2026-01-06 12:25:57.36	315.32	6.02	-50.3	-65.9	3.8	1.49e+00	0	43	104	486539264	72	21350
2026-01-06 12:25:59.37	315.58	5.94	-50.3	-65.8	3.8	1.49e+00	0	43	104	486539264	72	21203
2026-01-06 12:26:01.38	315.85	5.86	-50.3	-65.8	3.8	1.49e+00	0	43	104	486539264	72	21259
2026-01-06 12:26:03.39	316.11	5.78	-50.3	-65.9	3.8	1.49e+00	0	43	104	486539264	72	21323
2026-01-06 12:26:05.40	316.38	5.70	-50.3	-65.9	3.8	1.49e+00	0	43	104	486539264	72	21271
2026-01-06 12:26:07.41	316.64	5.62	-50.3	-65.9	3.8	1.49e+00	0	43	104	486539264	72	21281
2026-01-06 12:26:09.42	316.90	5.54	-50.3	-65.8	3.8	1.49e+00	0	43	104	486539264	72	21232
2026-01-06 12:26:11.43	317.16	5.46	-50.3	-65.9	3.8	1.49e+00	0	43	104	486539264	72	21323
2026-01-06 12:26:13.43	317.41	5.39	-50.3	-65.9	3.8	1.49e+00	0	43	104	486539264	72	21270
2026-01-06 12:26:15.44	317.67	5.31	-50.3	-65.9	3.8	1.49e+00	0	43	104	486539264	72	21355
2026-01-06 12:26:17.45	317.92	5.23	-50.3	-65.9	3.8	1.49e+00	0	43	104	486539264	72	21406
2026-01-06 12:26:19.46	318.18	5.14	-50.3	-65.9	3.8	1.49e+00	0	43	104	486539264	72	21381
2026-01-06 12:26:21.47	318.43	5.06	-50.3	-65.9	3.8	1.49e+00	0	43	104	486539264	72	21286
2026-01-06 12:26:23.48	318.68	4.98	-50.3	-65.8	3.8	1.49e+00	0	43	104	486539264	72	21207

#Closed at: 2026-01-06 12:26:24
#Recorded file [486 MB]: D:/Data/31040_260106_151827.dat