passes_logs/2026/01/06/T1/T1__20260106_011706_FENGYUN_3G_rec.log

#Pass ID: 20260106_011706_FENGYUN 3G
#Satellite: FENGYUN 3G
#Configuration: FENGYUN 3G
#almurnet v.1.7.20251203
#Start time: 2026-01-06 01:17:07

#Version: 2.0.20230620
#Station: T1
#Location: 37.570604 lon 55.790049 lat
#TLE: 1 56232U 23055A   26005.27063903  .00035143  00000+0  55802-3 0  9994
#TLE: 2 56232  49.9940 106.1098 0004225 341.8364  18.2452 15.52952562154680

#Time	Az	El	Level	Level2	SNR	BER	BlckErr	Temp	State	Recorded	gain1	gain2
2026-01-06 01:17:07.39	213.89	4.82	-50.7	-69.9	3.8	8.47e-01	0	42	0	0	72	33799
2026-01-06 01:17:09.40	213.64	4.95	-50.7	-69.9	3.8	8.46e-01	0	42	104	0	73	31964
2026-01-06 01:17:11.37	213.39	5.09	-50.7	-69.9	3.8	8.46e-01	0	42	104	0	73	31960
2026-01-06 01:17:13.41	213.12	5.23	-50.7	-69.9	3.8	8.48e-01	0	42	104	0	73	32033
2026-01-06 01:17:15.62	212.83	5.38	-50.7	-69.9	3.8	8.47e-01	0	42	104	0	73	31928
2026-01-06 01:17:17.63	212.57	5.51	-50.7	-69.9	3.8	8.47e-01	0	42	104	0	73	31831
2026-01-06 01:17:19.64	212.30	5.65	-50.7	-69.9	3.8	8.47e-01	0	42	104	0	73	31904
2026-01-06 01:17:21.65	212.02	5.79	-50.7	-69.8	3.8	8.47e-01	0	42	104	0	73	31796
2026-01-06 01:17:23.65	211.74	5.93	-50.7	-69.9	3.8	8.47e-01	0	42	104	0	73	31986
2026-01-06 01:17:25.66	211.46	6.07	-50.7	-69.9	3.8	8.48e-01	0	42	104	0	73	32019
2026-01-06 01:17:27.67	211.18	6.21	-50.7	-69.9	3.8	8.48e-01	0	42	104	0	73	31865
2026-01-06 01:17:29.67	210.89	6.36	-50.7	-69.9	3.8	8.47e-01	0	42	104	0	73	31944
2026-01-06 01:17:31.68	210.59	6.50	-50.7	-69.9	3.8	8.47e-01	0	42	104	0	73	31985
2026-01-06 01:17:33.69	210.30	6.64	-50.7	-69.9	3.8	8.47e-01	0	42	104	0	73	31924
2026-01-06 01:17:35.70	209.99	6.79	-50.7	-69.9	3.8	8.48e-01	0	42	104	0	73	31941
2026-01-06 01:17:37.71	209.69	6.93	-50.7	-69.9	3.8	8.48e-01	0	42	104	0	73	31911
2026-01-06 01:17:39.72	209.38	7.08	-50.7	-69.9	3.8	8.47e-01	0	42	104	0	73	31908
2026-01-06 01:17:41.73	209.06	7.22	-50.7	-69.9	3.8	8.46e-01	0	42	104	0	73	31898
2026-01-06 01:17:43.74	208.74	7.37	-50.7	-69.9	3.8	8.48e-01	0	42	104	0	73	31827
2026-01-06 01:17:45.75	208.42	7.52	-50.7	-69.9	3.8	8.47e-01	0	42	104	0	73	31934
2026-01-06 01:17:47.76	208.09	7.66	-50.7	-69.9	3.8	8.48e-01	0	42	104	0	73	32051
2026-01-06 01:17:49.76	207.76	7.81	-50.7	-69.9	3.8	8.46e-01	0	42	104	0	73	31881
2026-01-06 01:17:51.77	207.42	7.96	-50.7	-69.9	3.8	8.48e-01	0	42	104	0	73	31971
2026-01-06 01:17:53.78	207.08	8.11	-50.7	-69.9	3.8	8.47e-01	0	42	104	0	73	31935
2026-01-06 01:17:55.79	206.73	8.26	-50.7	-69.9	3.8	8.46e-01	0	42	104	0	73	31931
2026-01-06 01:17:57.80	206.38	8.41	-50.7	-69.9	3.8	8.45e-01	0	43	104	0	73	31938
2026-01-06 01:17:59.81	206.02	8.56	-50.7	-69.9	3.8	8.46e-01	0	42	104	0	73	31919
2026-01-06 01:18:01.81	205.66	8.71	-50.7	-69.9	3.8	8.47e-01	0	43	104	0	73	31984
2026-01-06 01:18:03.82	205.29	8.87	-50.7	-69.9	3.8	8.46e-01	0	42	104	0	73	31964
2026-01-06 01:18:05.83	204.92	9.02	-50.7	-69.9	3.8	8.48e-01	0	42	104	0	73	31947
2026-01-06 01:18:07.84	204.54	9.17	-50.7	-69.9	3.8	8.47e-01	0	42	104	0	73	31906
2026-01-06 01:18:09.85	204.16	9.33	-50.7	-69.9	3.8	8.47e-01	0	42	104	0	73	31959
2026-01-06 01:18:11.86	203.77	9.48	-50.7	-69.9	3.8	8.48e-01	0	42	104	0	73	31899
2026-01-06 01:18:13.87	203.37	9.64	-50.7	-69.9	3.8	8.47e-01	0	42	104	0	73	31877
2026-01-06 01:18:15.87	202.97	9.79	-50.7	-69.9	3.8	8.48e-01	0	42	104	0	73	31857
2026-01-06 01:18:17.88	202.57	9.95	-50.7	-69.9	3.8	8.46e-01	0	42	104	0	73	31891
2026-01-06 01:18:19.89	202.15	10.10	-50.7	-69.9	3.8	8.46e-01	0	43	104	0	73	31884
2026-01-06 01:18:21.90	201.74	10.26	-50.7	-69.9	3.8	8.46e-01	0	42	104	0	73	31984
2026-01-06 01:18:23.90	201.31	10.42	-50.7	-69.8	3.8	8.47e-01	0	43	104	0	73	31800
2026-01-06 01:18:25.91	200.88	10.57	-50.7	-69.9	3.8	8.48e-01	0	42	104	0	73	31890
2026-01-06 01:18:27.92	200.45	10.73	-50.7	-69.8	3.8	8.48e-01	0	42	104	0	73	31785
2026-01-06 01:18:29.93	200.00	10.89	-50.7	-69.9	3.8	8.46e-01	0	42	104	0	73	31977
2026-01-06 01:18:32.10	199.52	11.06	-50.7	-69.9	3.8	8.46e-01	0	42	104	0	73	31861
2026-01-06 01:18:34.11	199.06	11.22	-50.7	-69.9	3.8	8.47e-01	0	42	104	0	73	31916
2026-01-06 01:18:36.12	198.60	11.37	-50.7	-69.9	3.8	8.46e-01	0	42	104	0	73	31872
2026-01-06 01:18:38.12	198.13	11.53	-50.7	-69.9	3.8	8.46e-01	0	42	104	0	73	31893
2026-01-06 01:18:40.13	197.65	11.69	-50.7	-69.9	3.8	8.46e-01	0	42	104	0	73	31916
2026-01-06 01:18:42.14	197.17	11.85	-50.7	-69.9	3.8	8.46e-01	0	42	104	0	73	31894
2026-01-06 01:18:44.36	196.63	12.02	-50.7	-69.9	3.8	8.47e-01	0	43	104	0	73	31853
2026-01-06 01:18:46.37	196.13	12.18	-50.7	-69.9	3.8	8.47e-01	0	42	104	0	73	31952
2026-01-06 01:18:48.37	195.63	12.34	-50.7	-69.9	3.8	8.47e-01	0	42	104	0	73	31881
2026-01-06 01:18:50.38	195.12	12.49	-50.7	-69.9	3.8	8.47e-01	0	43	104	0	73	31984
2026-01-06 01:18:52.46	194.58	12.65	-50.7	-69.9	3.8	8.46e-01	0	43	104	0	73	31858
2026-01-06 01:18:54.53	194.04	12.82	-50.7	-69.9	3.8	8.47e-01	0	43	104	0	73	31943
2026-01-06 01:18:56.63	193.48	12.98	-50.7	-69.9	3.8	8.46e-01	0	43	104	0	73	32017
2026-01-06 01:18:58.64	192.94	13.13	-50.7	-69.9	3.8	8.47e-01	0	42	104	0	73	31984
2026-01-06 01:19:00.65	192.39	13.29	-50.7	-69.9	3.8	8.47e-01	0	43	104	0	73	31866
2026-01-06 01:19:02.65	191.83	13.44	-50.7	-69.9	3.8	8.47e-01	0	43	104	0	73	32033
2026-01-06 01:19:04.66	191.27	13.60	-50.7	-69.9	3.8	8.48e-01	0	43	104	0	73	31961
2026-01-06 01:19:06.67	190.70	13.75	-50.7	-69.9	3.8	8.47e-01	0	42	104	0	73	31946
2026-01-06 01:19:08.68	190.12	13.90	-50.7	-69.9	3.8	8.46e-01	0	43	104	0	73	31876
2026-01-06 01:19:10.69	189.53	14.05	-50.7	-69.9	3.8	8.47e-01	0	43	104	0	73	31895
2026-01-06 01:19:12.70	188.94	14.20	-50.7	-69.9	3.8	8.47e-01	0	43	104	0	73	31872
2026-01-06 01:19:14.70	188.34	14.35	-50.7	-69.9	3.8	8.46e-01	0	43	104	0	73	31917
2026-01-06 01:19:16.71	187.73	14.50	-50.7	-69.9	3.8	8.46e-01	0	42	104	0	73	31936
2026-01-06 01:19:18.72	187.11	14.64	-50.7	-69.9	3.8	8.47e-01	0	42	104	0	73	32011
2026-01-06 01:19:20.73	186.48	14.79	-50.7	-69.9	3.8	8.46e-01	0	43	104	0	73	31919
2026-01-06 01:19:22.74	185.85	14.93	-50.7	-69.9	3.8	8.48e-01	0	42	104	0	73	31961
2026-01-06 01:19:24.75	185.21	15.07	-50.7	-69.9	3.8	8.47e-01	0	42	104	0	73	31897
2026-01-06 01:19:26.75	184.56	15.21	-50.7	-69.9	3.8	8.47e-01	0	42	104	0	73	31966
2026-01-06 01:19:28.76	183.91	15.34	-50.7	-69.9	3.8	8.47e-01	0	43	104	0	73	31909
2026-01-06 01:19:30.77	183.24	15.48	-50.7	-69.9	3.8	8.47e-01	0	43	104	0	73	31908
2026-01-06 01:19:32.78	182.57	15.61	-50.7	-69.9	3.8	8.46e-01	0	43	104	0	73	31920
2026-01-06 01:19:34.79	181.89	15.74	-50.7	-69.9	3.8	8.47e-01	0	42	104	0	73	31929
2026-01-06 01:19:36.80	181.21	15.87	-50.7	-69.9	3.8	8.48e-01	0	43	104	0	73	31922
2026-01-06 01:19:38.81	180.52	16.00	-50.7	-69.9	3.8	8.48e-01	0	43	104	0	73	31834
2026-01-06 01:19:40.82	179.81	16.12	-50.7	-69.9	3.8	8.47e-01	0	42	104	0	73	31844
2026-01-06 01:19:42.82	179.11	16.24	-50.7	-69.9	3.8	8.48e-01	0	43	104	0	73	31947
2026-01-06 01:19:44.83	178.40	16.36	-50.7	-69.8	3.8	8.47e-01	0	42	104	0	73	31808
2026-01-06 01:19:46.84	177.67	16.47	-50.7	-69.9	3.8	8.47e-01	0	43	104	0	73	31880
2026-01-06 01:19:48.85	176.95	16.58	-50.7	-69.9	3.8	8.47e-01	0	42	104	0	73	31905
2026-01-06 01:19:50.86	176.21	16.69	-50.7	-69.9	3.8	8.46e-01	0	42	104	0	73	31841
2026-01-06 01:19:52.87	175.47	16.80	-50.7	-69.9	3.8	8.47e-01	0	42	104	0	73	31935
2026-01-06 01:19:54.87	174.72	16.90	-50.7	-69.9	3.8	8.46e-01	0	42	104	0	73	32008
2026-01-06 01:19:56.88	173.97	17.00	-50.7	-69.9	3.8	8.47e-01	0	43	104	0	73	31988
2026-01-06 01:19:58.89	173.21	17.09	-50.7	-69.9	3.8	8.46e-01	0	43	104	0	73	31898
2026-01-06 01:20:00.90	172.44	17.18	-50.7	-69.9	3.8	8.47e-01	0	42	104	0	73	31889
2026-01-06 01:20:02.91	171.67	17.27	-50.7	-69.9	3.8	8.47e-01	0	42	104	0	73	31882
2026-01-06 01:20:04.92	170.90	17.35	-50.7	-69.9	3.8	8.47e-01	0	42	104	0	73	32007
2026-01-06 01:20:06.93	170.11	17.43	-50.7	-69.9	3.8	8.48e-01	0	43	104	0	73	32022
2026-01-06 01:20:08.93	169.33	17.50	-50.7	-69.9	3.8	8.47e-01	0	43	104	0	73	31982
2026-01-06 01:20:10.94	168.54	17.57	-50.7	-69.9	3.8	8.47e-01	0	43	104	0	73	32026
2026-01-06 01:20:12.95	167.74	17.64	-50.7	-69.9	3.8	8.46e-01	0	43	104	0	73	32049
2026-01-06 01:20:14.95	166.95	17.70	-50.7	-69.9	3.8	8.47e-01	0	42	104	0	73	31899
2026-01-06 01:20:16.96	166.14	17.76	-50.7	-69.9	3.8	8.46e-01	0	42	104	0	73	31929
2026-01-06 01:20:18.96	165.34	17.81	-50.7	-69.9	3.8	8.47e-01	0	43	104	0	73	32008
2026-01-06 01:20:20.97	164.53	17.86	-50.7	-69.9	3.8	8.46e-01	0	43	104	0	73	32006
2026-01-06 01:20:22.98	163.72	17.90	-50.7	-69.9	3.8	8.47e-01	0	43	104	0	73	31957
2026-01-06 01:20:24.99	162.90	17.94	-50.7	-69.9	3.8	8.47e-01	0	43	104	0	73	32034
2026-01-06 01:20:27.00	162.08	17.97	-50.7	-69.9	3.8	8.46e-01	0	42	104	0	73	31969
2026-01-06 01:20:29.01	161.26	18.00	-50.8	-69.9	3.8	8.47e-01	0	43	104	0	73	31998
2026-01-06 01:20:31.01	160.45	18.02	-50.7	-69.9	3.8	8.46e-01	0	43	104	0	73	31924
2026-01-06 01:20:33.02	159.62	18.04	-50.7	-69.9	3.8	8.47e-01	0	43	104	0	73	32089
2026-01-06 01:20:35.03	158.80	18.05	-50.7	-69.9	3.8	8.46e-01	0	43	104	0	73	32018
2026-01-06 01:20:37.04	157.98	18.05	-50.8	-69.9	3.8	8.47e-01	0	42	104	0	73	32141
2026-01-06 01:20:39.05	157.15	18.06	-50.7	-69.9	3.8	8.47e-01	0	42	104	0	73	32058
2026-01-06 01:20:41.06	156.33	18.05	-50.7	-69.9	3.8	8.47e-01	0	43	104	0	73	32013
2026-01-06 01:20:43.06	155.51	18.05	-50.7	-69.9	3.8	8.46e-01	0	42	104	0	73	32053
2026-01-06 01:20:45.07	154.68	18.03	-50.8	-69.9	3.8	8.45e-01	0	43	104	0	73	31995
2026-01-06 01:20:47.08	153.86	18.02	-50.8	-69.9	3.8	8.47e-01	0	43	104	0	73	32061
2026-01-06 01:20:49.09	153.04	17.99	-50.7	-69.9	3.8	8.47e-01	0	43	104	0	73	32010
2026-01-06 01:20:51.10	152.22	17.96	-50.7	-69.9	3.8	8.48e-01	0	42	104	0	73	32012
2026-01-06 01:20:53.10	151.41	17.93	-50.8	-69.9	3.8	8.48e-01	0	43	104	0	73	32011
2026-01-06 01:20:55.11	150.59	17.89	-50.8	-69.9	3.8	8.48e-01	0	43	104	0	73	32021
2026-01-06 01:20:57.12	149.78	17.85	-50.8	-69.9	3.8	8.47e-01	0	43	104	0	73	32029
2026-01-06 01:20:59.13	148.97	17.80	-50.8	-69.9	3.8	8.48e-01	0	43	104	0	73	32070
2026-01-06 01:21:01.14	148.17	17.75	-50.8	-69.9	3.8	8.47e-01	0	43	104	0	73	32012
2026-01-06 01:21:03.14	147.37	17.69	-50.8	-69.9	3.8	8.46e-01	0	43	104	0	73	32150
2026-01-06 01:21:05.15	146.57	17.63	-50.8	-69.9	3.8	8.47e-01	0	43	104	0	73	32009
2026-01-06 01:21:07.16	145.78	17.57	-50.8	-69.9	3.8	8.48e-01	0	43	104	0	73	32058
2026-01-06 01:21:09.17	144.99	17.50	-50.8	-70.0	3.8	8.48e-01	0	43	104	0	73	32189
2026-01-06 01:21:11.18	144.21	17.42	-50.8	-69.9	3.8	8.47e-01	0	43	104	0	73	32127
2026-01-06 01:21:13.19	143.43	17.34	-50.8	-69.9	3.8	8.46e-01	0	43	104	0	73	32110
2026-01-06 01:21:15.19	142.66	17.26	-50.8	-69.9	3.8	8.47e-01	0	43	104	0	73	32049
2026-01-06 01:21:17.28	141.86	17.17	-50.8	-69.9	3.8	8.46e-01	0	43	104	0	73	31968
2026-01-06 01:21:19.29	141.09	17.08	-50.8	-69.9	3.8	8.47e-01	0	43	104	0	73	32050
2026-01-06 01:21:21.30	140.34	16.98	-50.8	-69.9	3.8	8.48e-01	0	43	104	0	73	32111
2026-01-06 01:21:23.31	139.59	16.89	-50.8	-69.9	3.8	8.46e-01	0	42	104	0	73	32150
2026-01-06 01:21:25.27	138.86	16.79	-50.8	-69.9	3.8	8.47e-01	0	43	104	0	73	32109
2026-01-06 01:21:27.27	138.12	16.68	-50.8	-69.9	3.8	8.46e-01	0	43	104	0	73	32176
2026-01-06 01:21:29.28	137.39	16.57	-50.8	-69.9	3.8	8.48e-01	0	43	104	0	73	32061
2026-01-06 01:21:31.29	136.67	16.46	-50.8	-69.9	3.8	8.47e-01	0	43	104	0	73	32099
2026-01-06 01:21:33.30	135.95	16.35	-50.8	-69.9	3.8	8.47e-01	0	43	104	0	73	32000
2026-01-06 01:21:35.31	135.24	16.23	-50.8	-69.9	3.8	8.46e-01	0	43	104	0	73	32139
2026-01-06 01:21:37.32	134.53	16.11	-50.8	-69.9	3.8	8.47e-01	0	43	104	0	73	32084
2026-01-06 01:21:39.33	133.84	15.99	-50.8	-69.9	3.8	8.47e-01	0	43	104	0	73	32129
2026-01-06 01:21:41.33	133.15	15.86	-50.8	-69.9	3.8	8.47e-01	0	43	104	0	73	32058
2026-01-06 01:21:43.34	132.47	15.73	-50.8	-69.9	3.8	8.47e-01	0	43	104	0	73	32125
2026-01-06 01:21:45.35	131.79	15.60	-50.8	-69.9	3.8	8.47e-01	0	43	104	0	73	32131
2026-01-06 01:21:47.36	131.13	15.47	-50.8	-69.9	3.8	8.47e-01	0	43	104	0	73	32099
2026-01-06 01:21:49.37	130.47	15.33	-50.8	-69.9	3.8	8.46e-01	0	43	104	0	73	32168
2026-01-06 01:21:51.42	129.80	15.19	-50.8	-70.0	3.8	8.47e-01	0	43	104	0	73	32228
2026-01-06 01:21:53.34	129.18	15.06	-50.8	-70.0	3.8	8.46e-01	0	42	104	0	73	32229
2026-01-06 01:21:55.34	128.55	14.92	-50.8	-69.9	3.8	8.47e-01	0	43	104	0	73	32158
2026-01-06 01:21:57.35	127.92	14.78	-50.8	-70.0	3.8	8.47e-01	0	42	104	0	73	32216
2026-01-06 01:21:59.36	127.30	14.64	-50.8	-69.9	3.8	8.47e-01	0	42	104	0	73	32146
2026-01-06 01:22:01.37	126.69	14.49	-50.8	-69.9	3.8	8.46e-01	0	43	104	0	73	32084
2026-01-06 01:22:03.38	126.08	14.34	-50.8	-70.0	3.8	8.47e-01	0	43	104	0	73	32187
2026-01-06 01:22:05.39	125.48	14.20	-50.8	-70.0	3.8	8.46e-01	0	43	104	0	73	32185
2026-01-06 01:22:07.40	124.89	14.05	-50.8	-69.9	3.8	8.46e-01	0	43	104	0	73	32123
2026-01-06 01:22:09.45	124.29	13.90	-50.8	-69.9	3.8	8.47e-01	0	43	104	0	73	32077
2026-01-06 01:22:11.45	123.72	13.75	-50.8	-69.9	3.8	8.47e-01	0	43	104	0	73	32166
2026-01-06 01:22:13.46	123.15	13.59	-50.8	-70.0	3.8	8.46e-01	0	43	104	0	73	32215
2026-01-06 01:22:15.47	122.59	13.44	-50.8	-69.9	3.8	8.46e-01	0	42	104	0	73	32152
2026-01-06 01:22:17.48	122.04	13.29	-50.8	-69.9	3.8	8.47e-01	0	42	104	0	73	32156
2026-01-06 01:22:19.49	121.50	13.13	-50.8	-69.9	3.8	8.46e-01	0	42	104	0	73	32165
2026-01-06 01:22:21.52	120.95	12.98	-50.8	-69.9	3.8	8.48e-01	0	43	104	0	73	32144
2026-01-06 01:22:23.60	120.40	12.82	-50.8	-69.9	3.8	8.47e-01	0	43	104	0	73	32035
2026-01-06 01:22:25.61	119.88	12.66	-50.8	-69.9	3.8	8.46e-01	0	43	104	0	73	32134
2026-01-06 01:22:27.61	119.37	12.51	-50.8	-69.9	3.8	8.47e-01	0	43	104	0	73	32105
2026-01-06 01:22:29.62	118.86	12.35	-50.8	-69.9	3.8	8.48e-01	0	43	104	0	73	32151
2026-01-06 01:22:31.63	118.36	12.19	-50.8	-69.9	3.8	8.47e-01	0	43	104	0	73	32169
2026-01-06 01:22:33.64	117.86	12.04	-50.8	-69.9	3.8	8.47e-01	0	43	104	0	73	32110
2026-01-06 01:22:35.65	117.37	11.88	-50.8	-69.9	3.8	8.47e-01	0	43	104	0	73	32062
2026-01-06 01:22:37.65	116.90	11.72	-50.8	-69.9	3.8	8.47e-01	0	43	104	0	73	32134
2026-01-06 01:22:39.66	116.42	11.57	-50.8	-69.9	3.8	8.47e-01	0	43	104	0	73	32122
2026-01-06 01:22:41.67	115.95	11.41	-50.8	-69.9	3.8	8.48e-01	0	43	104	0	73	32083
2026-01-06 01:22:43.68	115.49	11.25	-50.8	-69.9	3.8	8.47e-01	0	43	104	0	73	32172
2026-01-06 01:22:45.69	115.04	11.09	-50.8	-69.9	3.8	8.47e-01	0	42	104	0	73	32133
2026-01-06 01:22:47.69	114.59	10.94	-50.8	-69.9	3.8	8.48e-01	0	43	104	0	73	32023
2026-01-06 01:22:49.70	114.15	10.78	-50.8	-69.9	3.8	8.47e-01	0	43	104	0	73	32138
2026-01-06 01:22:51.71	113.72	10.63	-50.8	-69.9	3.8	8.48e-01	0	43	104	0	73	32123
2026-01-06 01:22:53.72	113.29	10.47	-50.8	-70.0	3.8	8.47e-01	0	43	104	0	73	32242
2026-01-06 01:22:55.73	112.87	10.31	-50.8	-69.9	3.8	8.46e-01	0	43	104	0	73	32151
2026-01-06 01:22:57.74	112.45	10.16	-50.8	-70.0	3.8	8.47e-01	0	43	104	0	73	32216
2026-01-06 01:22:59.75	112.04	10.00	-50.8	-69.9	3.8	8.47e-01	0	43	104	0	73	32109
2026-01-06 01:23:01.75	111.63	9.85	-50.8	-69.9	3.8	8.47e-01	0	43	104	0	73	32109
2026-01-06 01:23:03.76	111.24	9.69	-50.8	-69.9	3.8	8.47e-01	0	43	104	0	73	32116
2026-01-06 01:23:05.77	110.84	9.54	-50.8	-70.0	3.8	8.47e-01	0	42	104	0	73	32197
2026-01-06 01:23:07.78	110.45	9.39	-50.8	-69.9	3.8	8.47e-01	0	43	104	0	73	32143
2026-01-06 01:23:09.78	110.07	9.23	-50.8	-69.9	3.8	8.47e-01	0	43	104	0	73	32109
2026-01-06 01:23:11.79	109.70	9.08	-50.8	-69.9	3.8	8.47e-01	0	43	104	0	73	32070
2026-01-06 01:23:13.80	109.33	8.93	-50.8	-69.9	3.8	8.47e-01	0	43	104	0	73	32140
2026-01-06 01:23:15.81	108.96	8.78	-50.8	-69.9	3.8	8.47e-01	0	43	104	0	73	32120
2026-01-06 01:23:17.82	108.60	8.63	-50.8	-69.9	3.8	8.46e-01	0	43	104	0	73	32116
2026-01-06 01:23:19.83	108.24	8.47	-50.8	-69.9	3.8	8.47e-01	0	42	104	0	73	32109
2026-01-06 01:23:21.83	107.89	8.33	-50.8	-70.0	3.8	8.46e-01	0	43	104	0	73	32204
2026-01-06 01:23:23.84	107.55	8.18	-50.8	-69.9	3.8	8.47e-01	0	43	104	0	73	32166
2026-01-06 01:23:25.85	107.21	8.03	-50.8	-69.9	3.8	8.47e-01	0	43	104	0	73	32165
2026-01-06 01:23:27.86	106.87	7.88	-50.8	-70.0	3.8	8.47e-01	0	43	104	0	73	32251
2026-01-06 01:23:29.87	106.54	7.73	-50.8	-69.9	3.8	8.47e-01	0	43	104	0	73	32178
2026-01-06 01:23:31.88	106.21	7.58	-50.8	-69.9	3.8	8.47e-01	0	43	104	0	73	32148
2026-01-06 01:23:33.89	105.89	7.44	-50.8	-69.9	3.8	8.46e-01	0	43	104	0	73	32109
2026-01-06 01:23:35.90	105.57	7.29	-50.8	-69.9	3.8	8.47e-01	0	43	104	0	73	32124
2026-01-06 01:23:37.90	105.26	7.15	-50.8	-69.9	3.8	8.46e-01	0	42	104	0	73	32093
2026-01-06 01:23:39.91	104.95	7.00	-50.8	-69.9	3.8	8.49e-01	0	43	104	0	73	32135
2026-01-06 01:23:41.92	104.65	6.86	-50.8	-69.9	3.8	8.47e-01	0	43	104	0	73	32094
2026-01-06 01:23:43.93	104.35	6.71	-50.8	-70.0	3.8	8.48e-01	0	42	104	0	73	32211
2026-01-06 01:23:45.94	104.05	6.57	-50.8	-69.9	3.8	8.46e-01	0	43	104	0	73	32141
2026-01-06 01:23:47.95	103.76	6.43	-50.8	-69.9	3.8	8.46e-01	0	42	104	0	73	32159
2026-01-06 01:23:49.96	103.47	6.29	-50.8	-69.9	3.8	8.46e-01	0	43	104	0	73	32149
2026-01-06 01:23:51.96	103.18	6.15	-50.8	-70.0	3.8	8.47e-01	0	42	104	0	73	32209
2026-01-06 01:23:53.97	102.90	6.01	-50.8	-69.9	3.8	8.47e-01	0	43	104	0	73	32143
2026-01-06 01:23:55.98	102.63	5.87	-50.8	-69.9	3.8	8.46e-01	0	42	104	0	73	32102
2026-01-06 01:23:57.99	102.35	5.73	-50.8	-69.9	3.8	8.46e-01	0	43	104	0	73	32179
2026-01-06 01:24:00.00	102.08	5.59	-50.8	-70.0	3.8	8.47e-01	0	43	104	0	73	32222
2026-01-06 01:24:02.00	101.82	5.45	-50.8	-70.0	3.8	8.47e-01	0	43	104	0	73	32258
2026-01-06 01:24:04.01	101.56	5.32	-50.8	-70.0	3.8	8.46e-01	0	43	104	0	73	32313

#Closed at: 2026-01-06 01:24:06
#Recorded file [0 MB]: D:/Data/31040_260106_041707.dat