passes_logs/2026/01/06/T1/T1__20260106_103434_SUOMI_NPP_rec.log

#Pass ID: 20260106_103434_SUOMI NPP
#Satellite: SUOMI NPP
#Configuration: NPP
#almurnet v.1.7.20251203
#Start time: 2026-01-06 10:34:34

#Version: 2.0.20230620
#Station: T1
#Location: 37.570604 lon 55.790049 lat
#TLE: 1 37849U 11061A   26004.95404768  .00000136  00000+0  85334-4 0  9991
#TLE: 2 37849  98.7801 307.0898 0002575  80.6707 279.4760 14.19522289735281

#Time	Az	El	Level	Level2	SNR	BER	BlckErr	Temp	State	Recorded	gain1	gain2
2026-01-06 10:34:34.59	178.52	4.99	-52.6	-68.1	3.8	1.49e+00	0	37	0	0	77	20756
2026-01-06 10:34:38.60	178.66	5.27	-51.2	-67.0	3.8	1.49e+00	0	37	104	0	74	21739
2026-01-06 10:34:42.62	178.80	5.56	-51.1	-67.1	3.8	1.49e+00	0	37	104	0	74	21804
2026-01-06 10:34:46.64	178.94	5.85	-51.1	-67.5	3.8	1.49e+00	0	37	104	0	74	22788
2026-01-06 10:34:50.66	179.08	6.14	-51.2	-67.5	3.8	1.49e+00	0	37	104	0	74	22786
2026-01-06 10:34:54.67	179.23	6.43	-51.1	-66.4	3.8	1.49e+00	0	38	104	0	74	20284
2026-01-06 10:34:58.69	179.38	6.73	-51.1	-66.0	3.8	1.49e+00	0	38	104	0	74	19168
2026-01-06 10:35:02.71	179.53	7.04	-51.1	-66.0	3.8	1.49e+00	0	38	104	0	74	19185
2026-01-06 10:35:06.73	179.68	7.34	-50.1	-58.0	8.3	1.04e-01	0	38	0	5242880	72	8606
2026-01-06 10:35:10.74	179.84	7.65	-48.7	-53.6	12.9	1.06e-04	0	38	0	12582912	69	6140
2026-01-06 10:35:14.76	180.00	7.96	-48.2	-52.7	13.9	4.50e-06	0	38	0	19922944	68	5873
2026-01-06 10:35:18.78	180.17	8.28	-49.2	-54.7	11.8	3.13e-04	0	38	0	27262976	68	7437
2026-01-06 10:35:22.80	180.34	8.60	-50.4	-59.3	7.2	1.08e-01	0	39	0	34603008	71	10641
2026-01-06 10:35:26.81	180.51	8.92	-50.9	-64.0	4.3	1.24e+00	0	39	0	41943040	72	17194
2026-01-06 10:35:30.83	180.68	9.25	-51.0	-66.3	3.8	7.82e-01	0	39	104	45088768	73	21105
2026-01-06 10:35:34.84	180.86	9.58	-50.0	-56.4	10.2	1.11e-02	0	38	0	50331648	71	7576
2026-01-06 10:35:38.85	181.04	9.92	-49.9	-55.4	11.0	1.45e-03	0	39	0	57671680	71	6781
2026-01-06 10:35:42.85	181.23	10.26	-49.5	-54.1	12.5	1.05e-04	0	39	0	65011712	70	6167
2026-01-06 10:35:46.86	181.42	10.60	-49.3	-53.6	13.1	1.37e-05	0	39	0	72351744	69	6148
2026-01-06 10:35:50.87	181.61	10.95	-49.1	-53.3	13.3	8.30e-06	0	39	0	79691776	69	5955
2026-01-06 10:35:54.89	181.81	11.31	-48.5	-52.3	14.3	7.00e-07	0	39	0	88080384	68	5610
2026-01-06 10:35:58.90	182.02	11.66	-47.8	-51.2	15.2	0.00e+00	0	39	0	95420416	67	5261
2026-01-06 10:36:02.91	182.23	12.03	-46.6	-49.5	16.9	0.00e+00	0	39	0	102760448	65	4866
2026-01-06 10:36:06.92	182.44	12.40	-46.4	-49.1	17.3	0.00e+00	0	39	0	110100480	64	4921
2026-01-06 10:36:10.93	182.66	12.77	-46.3	-49.0	17.4	0.00e+00	0	39	0	117440512	64	4826
2026-01-06 10:36:14.94	182.88	13.15	-46.2	-48.9	17.5	0.00e+00	0	39	0	124780544	64	4803
2026-01-06 10:36:18.96	183.11	13.54	-46.3	-49.0	17.3	0.00e+00	0	39	0	133169152	64	4863
2026-01-06 10:36:22.97	183.35	13.93	-46.0	-48.6	17.7	0.00e+00	0	39	0	140509184	64	4643
2026-01-06 10:36:26.98	183.59	14.33	-46.1	-48.7	17.7	0.00e+00	0	39	0	147849216	63	4969
2026-01-06 10:36:31.00	183.84	14.73	-46.2	-48.9	17.6	0.00e+00	0	39	0	155189248	63	5056
2026-01-06 10:36:35.01	184.09	15.14	-46.5	-49.2	17.4	0.00e+00	0	39	0	162529280	63	5248
2026-01-06 10:36:39.02	184.35	15.56	-46.8	-49.6	16.9	0.00e+00	0	39	0	169869312	64	5209
2026-01-06 10:36:43.03	184.62	15.99	-46.6	-49.4	17.1	0.00e+00	0	39	0	178257920	64	5052
2026-01-06 10:36:47.05	184.89	16.42	-46.6	-49.3	17.2	0.00e+00	0	39	0	185597952	64	4989
2026-01-06 10:36:51.06	185.18	16.85	-46.5	-49.3	17.2	0.00e+00	0	39	0	192937984	64	5013
2026-01-06 10:36:55.07	185.47	17.30	-46.9	-49.8	16.8	0.00e+00	0	39	0	200278016	64	5285
2026-01-06 10:36:59.09	185.77	17.75	-46.9	-49.8	16.7	0.00e+00	0	39	0	207618048	64	5320
2026-01-06 10:37:03.08	186.07	18.21	-46.7	-49.5	17.1	0.00e+00	0	39	0	214958080	64	5132
2026-01-06 10:37:07.09	186.39	18.68	-46.7	-49.4	17.1	0.00e+00	0	39	0	223346688	64	5083
2026-01-06 10:37:11.10	186.72	19.16	-46.7	-49.4	17.2	0.00e+00	0	39	0	230686720	64	5068
2026-01-06 10:37:15.12	187.06	19.64	-46.2	-48.7	17.8	0.00e+00	0	39	0	238026752	64	4691
2026-01-06 10:37:19.13	187.40	20.14	-45.5	-47.9	18.6	0.00e+00	0	39	0	245366784	63	4529
2026-01-06 10:37:23.14	187.76	20.64	-44.9	-47.1	19.3	0.00e+00	0	39	0	252706816	61	4623
2026-01-06 10:37:27.15	188.13	21.15	-44.8	-47.0	19.4	0.00e+00	0	39	0	261095424	61	4577
2026-01-06 10:37:31.16	188.51	21.67	-45.0	-47.2	19.2	0.00e+00	0	39	0	268435456	61	4700
2026-01-06 10:37:35.18	188.91	22.20	-44.9	-47.1	19.4	0.00e+00	0	39	0	275775488	61	4625
2026-01-06 10:37:39.20	189.32	22.74	-45.1	-47.3	19.1	0.00e+00	0	39	0	283115520	61	4742
2026-01-06 10:37:43.21	189.74	23.30	-45.2	-47.5	19.0	0.00e+00	0	39	0	290455552	61	4857
2026-01-06 10:37:47.23	190.18	23.86	-45.1	-47.4	19.2	0.00e+00	0	39	0	297795584	61	4763
2026-01-06 10:37:51.24	190.63	24.43	-45.2	-47.5	19.0	0.00e+00	0	39	0	306184192	61	4866
2026-01-06 10:37:55.25	191.10	25.01	-44.9	-47.1	19.4	0.00e+00	0	39	0	313524224	61	4626
2026-01-06 10:37:59.27	191.59	25.61	-44.7	-46.8	19.7	0.00e+00	0	39	0	320864256	61	4478
2026-01-06 10:38:03.28	192.09	26.21	-44.9	-47.2	19.3	0.00e+00	0	39	0	328204288	61	4661
2026-01-06 10:38:07.29	192.61	26.83	-44.7	-46.9	19.6	0.00e+00	0	39	0	335544320	61	4528
2026-01-06 10:38:11.31	193.16	27.46	-44.9	-47.0	19.5	0.00e+00	0	39	0	343932928	61	4597
2026-01-06 10:38:15.32	193.72	28.10	-45.4	-47.7	18.9	0.00e+00	0	39	0	351272960	61	4938
2026-01-06 10:38:19.33	194.31	28.75	-46.1	-48.5	18.3	0.00e+00	0	39	0	358612992	62	5101
2026-01-06 10:38:23.35	194.92	29.42	-46.5	-49.1	17.7	0.00e+00	0	39	0	365953024	63	5169
2026-01-06 10:38:27.36	195.56	30.10	-47.1	-49.9	16.8	0.00e+00	0	39	0	373293056	64	5363
2026-01-06 10:38:31.37	196.22	30.79	-47.8	-50.9	16.0	0.00e+00	0	39	0	380633088	66	5352
2026-01-06 10:38:35.39	196.92	31.49	-48.1	-51.2	15.6	0.00e+00	0	39	0	389021696	67	5252
2026-01-06 10:38:39.39	197.64	32.20	-48.1	-51.3	15.6	0.00e+00	0	39	0	396361728	67	5290
2026-01-06 10:38:43.41	198.39	32.93	-47.6	-50.4	16.4	0.00e+00	0	39	0	403701760	66	5095
2026-01-06 10:38:47.43	199.18	33.67	-47.7	-50.6	16.1	0.00e+00	0	39	0	411041792	66	5210
2026-01-06 10:38:51.43	200.01	34.42	-47.2	-49.9	16.8	0.00e+00	0	39	0	418381824	66	4775
2026-01-06 10:38:55.45	200.87	35.19	-47.4	-50.2	16.5	0.00e+00	0	39	0	425721856	65	5265
2026-01-06 10:38:59.46	201.77	35.96	-47.5	-50.4	16.4	0.00e+00	0	39	0	434110464	66	5083
2026-01-06 10:39:03.46	202.72	36.74	-47.3	-50.1	16.7	0.00e+00	0	39	0	441450496	66	4909
2026-01-06 10:39:07.48	203.71	37.54	-47.0	-49.7	17.0	0.00e+00	0	39	0	448790528	65	4963
2026-01-06 10:39:11.49	204.76	38.34	-47.6	-50.6	16.2	0.00e+00	0	39	0	456130560	66	5215
2026-01-06 10:39:15.50	205.85	39.16	-47.4	-50.3	16.6	0.00e+00	0	39	0	463470592	66	5011
2026-01-06 10:39:19.52	207.00	39.98	-46.8	-49.4	17.4	0.00e+00	0	39	0	470810624	65	4786
2026-01-06 10:39:23.53	208.21	40.80	-46.3	-48.8	18.0	0.00e+00	0	40	0	479199232	63	4999
2026-01-06 10:39:27.54	209.48	41.63	-47.1	-49.9	16.9	0.00e+00	0	40	0	486539264	64	5353
2026-01-06 10:39:31.56	210.82	42.47	-46.9	-49.5	17.2	0.00e+00	0	39	0	493879296	64	5155
2026-01-06 10:39:35.56	212.23	43.30	-47.2	-50.0	16.7	0.00e+00	0	39	0	501219328	65	5147
2026-01-06 10:39:39.57	213.71	44.13	-48.1	-51.2	15.8	0.00e+00	0	39	0	508559360	66	5534
2026-01-06 10:39:43.59	215.27	44.96	-47.8	-50.7	16.0	0.00e+00	0	40	0	515899392	67	4950
2026-01-06 10:39:47.60	216.91	45.78	-49.2	-52.7	14.3	7.00e-07	0	40	0	524288000	69	5580
2026-01-06 10:39:51.61	218.64	46.59	-49.3	-52.8	14.2	7.00e-07	0	39	0	531628032	70	5332
2026-01-06 10:39:55.62	220.46	47.39	-49.3	-53.0	14.1	5.30e-06	0	39	0	538968064	70	5415
2026-01-06 10:39:59.64	222.37	48.17	-47.6	-50.4	16.4	0.00e+00	0	40	0	546308096	67	4780
2026-01-06 10:40:03.65	224.38	48.93	-47.7	-50.6	16.2	0.00e+00	0	39	0	553648128	67	4915
2026-01-06 10:40:07.66	226.49	49.66	-47.7	-50.8	16.1	0.00e+00	0	40	0	562036736	66	5337
2026-01-06 10:40:11.67	228.69	50.36	-46.0	-48.4	18.2	0.00e+00	0	40	0	569376768	64	4540
2026-01-06 10:40:15.68	231.00	51.02	-46.0	-48.4	18.3	0.00e+00	0	39	0	576716800	63	4790
2026-01-06 10:40:19.69	233.41	51.64	-45.2	-47.4	19.2	0.00e+00	0	39	0	584056832	62	4527
2026-01-06 10:40:23.71	235.92	52.22	-45.5	-47.8	18.8	0.00e+00	0	39	0	591396864	62	4728
2026-01-06 10:40:27.72	238.51	52.75	-45.5	-47.8	18.9	0.00e+00	0	39	0	598736896	62	4722
2026-01-06 10:40:31.73	241.20	53.21	-46.8	-49.4	17.3	0.00e+00	0	39	0	607125504	64	5086
2026-01-06 10:40:35.75	243.98	53.62	-45.7	-48.0	18.8	0.00e+00	0	39	0	614465536	63	4561
2026-01-06 10:40:39.76	246.82	53.96	-47.3	-50.0	16.8	0.00e+00	0	39	0	621805568	66	4865
2026-01-06 10:40:43.78	249.72	54.23	-46.0	-48.4	18.1	0.00e+00	0	39	0	629145600	64	4542
2026-01-06 10:40:47.78	252.66	54.43	-47.3	-50.1	16.7	0.00e+00	0	39	0	636485632	65	5218
2026-01-06 10:40:51.79	255.64	54.56	-46.4	-48.8	17.9	0.00e+00	0	39	0	643825664	63	5040
2026-01-06 10:40:55.80	258.64	54.60	-47.4	-50.3	16.5	0.00e+00	0	39	0	652214272	65	5328
2026-01-06 10:40:59.82	261.64	54.57	-46.5	-49.1	17.7	0.00e+00	0	39	0	659554304	64	4887
2026-01-06 10:41:03.83	264.63	54.47	-45.8	-48.1	18.6	0.00e+00	0	39	0	666894336	62	4897
2026-01-06 10:41:07.84	267.58	54.28	-46.3	-48.7	18.1	0.00e+00	0	39	0	674234368	63	4976
2026-01-06 10:41:11.85	270.49	54.03	-45.7	-48.1	18.6	0.00e+00	0	39	0	681574400	63	4612
2026-01-06 10:41:15.86	273.34	53.70	-46.9	-49.6	17.3	0.00e+00	0	39	0	689963008	64	5189
2026-01-06 10:41:19.87	276.12	53.31	-47.3	-50.1	16.8	0.00e+00	0	40	0	697303040	65	5162
2026-01-06 10:41:23.88	278.82	52.86	-46.3	-48.8	17.9	0.00e+00	0	39	0	704643072	64	4754
2026-01-06 10:41:27.90	281.45	52.34	-47.1	-49.9	17.0	0.00e+00	0	39	0	711983104	65	5044
2026-01-06 10:41:31.91	283.97	51.78	-46.0	-48.4	18.4	0.00e+00	0	39	0	719323136	63	4785
2026-01-06 10:41:35.93	286.40	51.17	-45.7	-48.0	18.8	0.00e+00	0	39	0	726663168	63	4550
2026-01-06 10:41:39.94	288.72	50.51	-45.2	-47.4	19.2	0.00e+00	0	39	0	735051776	62	4533
2026-01-06 10:41:43.96	290.95	49.82	-46.9	-49.5	17.4	0.00e+00	0	39	0	742391808	64	5107
2026-01-06 10:41:47.97	293.07	49.10	-45.2	-47.4	19.3	0.00e+00	0	39	0	749731840	61	4767
2026-01-06 10:41:51.98	295.09	48.35	-47.2	-49.9	17.0	0.00e+00	0	39	0	757071872	65	5050
2026-01-06 10:41:56.00	297.03	47.58	-48.8	-52.1	14.9	0.00e+00	0	39	0	764411904	68	5517
2026-01-06 10:42:00.01	298.86	46.79	-49.1	-52.7	14.3	0.00e+00	0	39	0	771751936	69	5575
2026-01-06 10:42:04.01	300.60	45.99	-47.7	-50.7	16.2	0.00e+00	0	39	0	780140544	66	5252
2026-01-06 10:42:08.03	302.26	45.17	-50.3	-54.7	12.3	1.51e-04	0	39	0	787480576	71	6274
2026-01-06 10:42:12.04	303.83	44.35	-51.0	-56.3	10.7	9.21e-04	0	39	0	794820608	72	7094
2026-01-06 10:42:16.05	305.33	43.52	-51.4	-57.3	9.8	2.32e-03	0	40	0	802160640	73	7513
2026-01-06 10:42:20.06	306.75	42.69	-51.3	-57.3	9.5	1.47e-01	0	40	0	809500672	74	7100
2026-01-06 10:42:24.08	308.10	41.86	-50.1	-54.4	12.8	9.90e-06	0	39	0	816840704	70	6368
2026-01-06 10:42:28.09	309.39	41.03	-48.5	-51.7	15.3	0.00e+00	0	39	0	825229312	69	4977
2026-01-06 10:42:32.10	310.61	40.21	-49.9	-54.0	13.1	1.50e-06	0	40	0	832569344	70	6117
2026-01-06 10:42:36.11	311.77	39.40	-46.3	-48.8	17.9	0.00e+00	0	39	0	839909376	64	4751
2026-01-06 10:42:40.13	312.87	38.58	-50.1	-54.7	12.3	3.20e-04	0	39	0	847249408	71	6269
2026-01-06 10:42:44.14	313.93	37.78	-46.0	-48.3	18.3	0.00e+00	0	39	0	854589440	64	4487
2026-01-06 10:42:48.16	314.93	36.99	-49.1	-52.8	14.3	7.00e-07	0	39	0	862978048	69	5622
2026-01-06 10:42:52.17	315.89	36.20	-46.4	-48.9	17.8	0.00e+00	0	40	0	870318080	64	4806
2026-01-06 10:42:56.18	316.80	35.43	-48.0	-51.2	15.8	0.00e+00	0	39	0	877658112	66	5541
2026-01-06 10:43:00.20	317.67	34.67	-47.7	-50.7	16.2	0.00e+00	0	40	0	884998144	67	4938
2026-01-06 10:43:04.21	318.50	33.92	-47.6	-50.9	16.0	0.00e+00	0	39	0	892338176	66	5358
2026-01-06 10:43:08.22	319.30	33.18	-48.6	-52.9	14.1	1.50e-06	0	39	0	899678208	67	6360
2026-01-06 10:43:12.23	320.06	32.46	-46.9	-49.6	17.1	0.00e+00	0	39	0	908066816	65	4924
2026-01-06 10:43:16.24	320.79	31.74	-47.6	-50.5	16.3	0.00e+00	0	39	0	915406848	65	5445
2026-01-06 10:43:20.26	321.49	31.04	-49.1	-53.3	13.7	4.50e-06	0	40	0	922746880	68	6303
2026-01-06 10:43:24.27	322.16	30.35	-47.6	-51.1	15.6	0.00e+00	0	39	0	930086912	67	5199
2026-01-06 10:43:28.28	322.80	29.68	-48.1	-51.4	15.5	0.00e+00	0	40	0	937426944	66	5709
2026-01-06 10:43:32.30	323.42	29.01	-49.1	-52.8	14.3	0.00e+00	0	40	0	944766976	68	5931
2026-01-06 10:43:36.31	324.02	28.36	-48.2	-51.6	15.4	0.00e+00	0	39	0	953155584	68	5197
2026-01-06 10:43:40.33	324.59	27.72	-46.3	-49.1	17.6	0.00e+00	0	40	0	960495616	64	4888
2026-01-06 10:43:44.34	325.14	27.09	-45.7	-48.2	18.5	0.00e+00	0	40	0	967835648	62	4961
2026-01-06 10:43:48.35	325.67	26.47	-46.9	-50.0	16.7	0.00e+00	0	40	0	975175680	64	5461
2026-01-06 10:43:52.36	326.18	25.87	-47.8	-51.1	15.7	0.00e+00	0	40	0	982515712	66	5502
2026-01-06 10:43:56.37	326.67	25.27	-46.7	-49.4	17.2	0.00e+00	0	40	0	989855744	65	4796
2026-01-06 10:44:00.39	327.14	24.69	-46.2	-48.7	18.0	0.00e+00	0	39	0	998244352	63	4964
2026-01-06 10:44:04.40	327.60	24.12	-46.3	-49.1	17.6	0.00e+00	0	40	0	1005584384	63	5207
2026-01-06 10:44:08.41	328.04	23.56	-47.3	-50.5	16.2	0.00e+00	0	39	0	1012924416	65	5443
2026-01-06 10:44:12.42	328.47	23.01	-47.3	-50.3	16.4	0.00e+00	0	39	0	1020264448	65	5312
2026-01-06 10:44:16.43	328.88	22.47	-47.0	-49.8	16.9	0.00e+00	0	39	0	1027604480	65	4999
2026-01-06 10:44:20.44	329.28	21.94	-46.2	-48.8	17.8	0.00e+00	0	39	0	1035993088	64	4743
2026-01-06 10:44:24.45	329.67	21.42	-46.4	-49.1	17.6	0.00e+00	0	40	0	1043333120	63	5218
2026-01-06 10:44:28.46	330.04	20.91	-47.0	-50.3	16.4	0.00e+00	0	39	0	1050673152	64	5640
2026-01-06 10:44:32.47	330.40	20.40	-47.3	-50.7	16.0	0.00e+00	0	40	0	1058013184	65	5583
2026-01-06 10:44:36.48	330.75	19.91	-47.1	-50.1	16.6	0.00e+00	0	39	0	1065353216	65	5165
2026-01-06 10:44:40.49	331.10	19.43	-46.3	-48.9	17.7	0.00e+00	0	40	0	1072693248	64	4792
2026-01-06 10:44:44.51	331.43	18.95	-46.3	-48.8	17.7	0.00e+00	0	39	0	1081081856	64	4745
2026-01-06 10:44:48.52	331.75	18.48	-46.6	-49.3	17.3	0.00e+00	0	39	0	1088421888	64	5018
2026-01-06 10:44:52.53	332.06	18.02	-46.7	-49.7	16.9	0.00e+00	0	40	0	1095761920	64	5261
2026-01-06 10:44:56.55	332.37	17.57	-46.5	-49.5	17.1	0.00e+00	0	39	0	1103101952	64	5134
2026-01-06 10:45:00.56	332.66	17.12	-46.0	-48.7	17.8	0.00e+00	0	40	0	1110441984	64	4704
2026-01-06 10:45:04.57	332.95	16.69	-45.5	-48.0	18.5	0.00e+00	0	39	0	1117782016	63	4589
2026-01-06 10:45:08.58	333.23	16.26	-45.2	-47.8	18.7	0.00e+00	0	39	0	1126170624	62	4708
2026-01-06 10:45:12.59	333.50	15.83	-45.6	-48.2	18.4	0.00e+00	0	39	0	1133510656	62	4927
2026-01-06 10:45:16.61	333.77	15.41	-45.8	-48.4	18.2	0.00e+00	0	39	0	1140850688	62	5063
2026-01-06 10:45:20.62	334.03	15.00	-46.6	-49.3	17.4	0.00e+00	0	39	0	1148190720	63	5291
2026-01-06 10:45:24.63	334.28	14.60	-47.0	-50.0	16.6	0.00e+00	0	39	0	1155530752	64	5451
2026-01-06 10:45:28.64	334.52	14.20	-47.7	-51.1	15.5	0.00e+00	0	39	0	1162870784	66	5517
2026-01-06 10:45:32.65	334.76	13.81	-48.0	-51.5	15.1	0.00e+00	0	39	0	1171259392	66	5781
2026-01-06 10:45:36.67	335.00	13.43	-48.1	-51.6	15.0	0.00e+00	0	39	0	1178599424	67	5524
2026-01-06 10:45:40.68	335.23	13.05	-47.5	-50.7	15.8	0.00e+00	0	39	0	1185939456	67	4960
2026-01-06 10:45:44.69	335.45	12.67	-47.1	-50.1	16.4	0.00e+00	0	39	0	1193279488	66	4892
2026-01-06 10:45:48.70	335.67	12.30	-46.5	-49.3	17.1	0.00e+00	0	39	0	1200619520	65	4746
2026-01-06 10:45:52.72	335.88	11.94	-46.1	-49.0	17.4	0.00e+00	0	39	0	1209008128	64	4848
2026-01-06 10:45:56.73	336.09	11.58	-46.1	-49.0	17.4	0.00e+00	0	39	0	1216348160	64	4861
2026-01-06 10:46:00.74	336.29	11.23	-46.0	-48.9	17.6	0.00e+00	0	39	0	1223688192	63	5059
2026-01-06 10:46:04.75	336.49	10.88	-46.1	-49.1	17.4	0.00e+00	0	39	0	1231028224	63	5185
2026-01-06 10:46:08.76	336.69	10.53	-46.0	-49.2	17.3	0.00e+00	0	39	0	1238368256	63	5220
2026-01-06 10:46:12.77	336.88	10.19	-46.1	-49.3	17.2	0.00e+00	0	39	0	1245708288	63	5322
2026-01-06 10:46:16.78	337.07	9.86	-46.4	-49.5	16.9	0.00e+00	0	39	0	1254096896	63	5459
2026-01-06 10:46:20.80	337.25	9.52	-46.6	-50.0	16.4	0.00e+00	0	39	0	1261436928	64	5433
2026-01-06 10:46:24.81	337.43	9.20	-46.6	-50.0	16.4	0.00e+00	0	39	0	1268776960	64	5415
2026-01-06 10:46:28.82	337.61	8.87	-52.3	-68.0	3.8	1.49e+00	0	39	104	1275068416	75	22948
2026-01-06 10:46:32.84	337.78	8.55	-52.9	-68.3	3.8	1.49e+00	0	39	104	1275068416	76	22377
2026-01-06 10:46:36.85	337.95	8.24	-52.7	-68.4	3.8	1.49e+00	0	39	104	1275068416	77	21503
2026-01-06 10:46:40.87	338.12	7.93	-53.2	-68.5	3.8	1.49e+00	0	39	104	1275068416	77	21576
2026-01-06 10:46:44.89	338.28	7.62	-53.3	-68.4	3.8	1.49e+00	0	39	104	1275068416	77	21485
2026-01-06 10:46:48.89	338.44	7.31	-53.3	-68.5	3.8	1.49e+00	0	39	104	1275068416	77	21540
2026-01-06 10:46:52.90	338.59	7.01	-52.9	-68.5	3.8	1.49e+00	0	39	104	1275068416	77	21567
2026-01-06 10:46:56.92	338.75	6.72	-52.9	-68.4	3.8	1.49e+00	0	39	104	1275068416	77	21329
2026-01-06 10:47:00.94	338.90	6.42	-52.9	-68.4	3.8	1.49e+00	0	39	104	1275068416	77	21397
2026-01-06 10:47:04.96	339.05	6.13	-52.9	-68.4	3.8	1.49e+00	0	39	104	1275068416	77	21455
2026-01-06 10:47:08.98	339.20	5.84	-52.9	-68.4	3.8	1.49e+00	0	39	104	1275068416	77	21405
2026-01-06 10:47:12.99	339.34	5.56	-52.9	-68.4	3.8	1.49e+00	0	39	104	1275068416	77	21417
2026-01-06 10:47:17.01	339.48	5.27	-52.9	-68.4	3.8	1.49e+00	0	39	104	1275068416	77	21436
2026-01-06 10:47:21.03	339.62	4.99	-52.9	-68.4	3.8	1.49e+00	0	39	104	1275068416	77	21310

#Closed at: 2026-01-06 10:47:22
#Recorded file [1275 MB]: D:/Data/31040_260106_133434.dat