passes_logs/2026/01/06/T1/T1__20260106_010452_NOAA_20_JPSS-1_rec.log

#Pass ID: 20260106_010452_NOAA 20 (JPSS-1)
#Satellite: NOAA 20 (JPSS-1)
#Configuration: NOAA 20
#almurnet v.1.7.20251203
#Start time: 2026-01-06 01:04:53

#Version: 2.0.20230620
#Station: T1
#Location: 37.570604 lon 55.790049 lat
#TLE: 1 43013U 17073A   26005.46207808  .00000128  00000+0  81791-4 0  9997
#TLE: 2 43013  98.7627 306.5027 0001826  53.0458 307.0885 14.19533487421381

#Time	Az	El	Level	Level2	SNR	BER	BlckErr	Temp	State	Recorded	gain1	gain2
2026-01-06 01:04:53.40	8.07	5.04	-50.5	-66.0	3.8	1.49e+00	0	39	0	0	71	22971
2026-01-06 01:04:56.41	7.87	5.23	-50.4	-66.0	3.8	1.49e+00	0	39	104	0	72	21631
2026-01-06 01:04:59.43	7.66	5.43	-50.4	-66.0	3.8	1.49e+00	0	40	104	0	72	21549
2026-01-06 01:05:02.44	7.45	5.62	-50.4	-66.0	3.8	1.49e+00	0	40	104	0	72	21597
2026-01-06 01:05:05.45	7.24	5.82	-50.4	-66.0	3.8	1.49e+00	0	40	104	0	72	21519
2026-01-06 01:05:08.46	7.03	6.02	-50.4	-66.0	3.8	1.49e+00	0	40	104	0	72	21602
2026-01-06 01:05:11.65	6.80	6.23	-50.4	-66.0	3.8	1.49e+00	0	40	104	0	72	21551
2026-01-06 01:05:14.52	6.58	6.42	-50.4	-66.0	3.8	1.49e+00	0	40	104	0	72	21612
2026-01-06 01:05:17.68	6.35	6.63	-50.4	-66.0	3.8	1.49e+00	0	40	104	0	72	21601
2026-01-06 01:05:20.55	6.13	6.82	-50.4	-66.0	3.8	1.49e+00	0	40	104	0	72	21620
2026-01-06 01:05:23.80	5.88	7.04	-50.4	-66.0	3.8	1.49e+00	0	40	104	0	72	21651
2026-01-06 01:05:26.67	5.66	7.23	-50.4	-66.0	3.8	1.49e+00	0	41	104	0	72	21544
2026-01-06 01:05:29.82	5.41	7.44	-50.4	-66.0	3.8	1.49e+00	0	41	104	0	72	21550
2026-01-06 01:05:32.69	5.18	7.64	-50.4	-65.9	3.8	1.49e+00	0	41	104	0	72	21493
2026-01-06 01:05:35.85	4.92	7.86	-50.4	-66.0	3.8	1.49e+00	0	41	104	0	72	21534
2026-01-06 01:05:38.72	4.68	8.06	-50.4	-65.9	3.8	1.49e+00	0	41	104	0	72	21499
2026-01-06 01:05:41.87	4.42	8.28	-50.4	-66.0	3.8	1.49e+00	0	41	104	0	72	21507
2026-01-06 01:05:44.75	4.17	8.48	-50.4	-66.0	3.8	1.49e+00	0	41	104	0	72	21553
2026-01-06 01:05:47.90	3.90	8.70	-50.4	-66.0	3.8	1.49e+00	0	41	104	0	72	21526
2026-01-06 01:05:50.77	3.65	8.90	-50.4	-66.0	3.8	1.49e+00	0	41	104	0	72	21514
2026-01-06 01:05:53.93	3.37	9.13	-50.4	-65.9	3.8	1.49e+00	0	41	104	0	72	21442
2026-01-06 01:05:56.80	3.11	9.33	-50.4	-65.9	3.8	1.49e+00	0	42	104	0	72	21491
2026-01-06 01:05:59.95	2.82	9.56	-50.4	-65.9	3.8	1.49e+00	0	41	104	0	72	21462
2026-01-06 01:06:02.82	2.55	9.77	-50.4	-66.0	3.8	1.49e+00	0	41	104	0	72	21527
2026-01-06 01:06:05.98	2.25	10.00	-50.4	-65.9	3.8	1.49e+00	0	42	104	0	72	21426
2026-01-06 01:06:08.84	1.97	10.21	-50.4	-65.9	3.8	1.49e+00	0	42	104	0	72	21435
2026-01-06 01:06:12.00	1.66	10.44	-50.4	-66.0	3.8	1.49e+00	0	41	104	0	72	21507
2026-01-06 01:06:14.87	1.38	10.65	-50.4	-65.9	3.8	1.49e+00	0	42	104	0	72	21442
2026-01-06 01:06:18.03	1.06	10.89	-50.4	-65.9	3.8	1.49e+00	0	42	104	0	72	21484
2026-01-06 01:06:20.89	0.76	11.10	-50.4	-66.0	3.8	1.49e+00	0	42	104	0	72	21521
2026-01-06 01:06:24.05	0.43	11.34	-50.4	-65.9	3.8	1.49e+00	0	42	104	0	72	21452
2026-01-06 01:06:26.91	0.13	11.56	-50.4	-65.9	3.8	1.49e+00	0	42	104	0	72	21506
2026-01-06 01:06:30.07	359.79	11.80	-50.4	-65.9	3.8	1.49e+00	0	42	104	0	72	21463
2026-01-06 01:06:32.94	359.47	12.02	-50.4	-66.0	3.8	1.49e+00	0	42	104	0	72	21534
2026-01-06 01:06:36.10	359.12	12.26	-50.4	-65.9	3.8	1.49e+00	0	42	104	0	72	21504
2026-01-06 01:06:38.97	358.80	12.49	-50.4	-66.0	3.8	1.49e+00	0	42	104	0	72	21549
2026-01-06 01:06:42.20	358.43	12.74	-50.4	-66.0	3.8	1.49e+00	0	42	104	0	72	21508
2026-01-06 01:06:45.07	358.09	12.96	-50.4	-66.0	3.8	1.49e+00	0	42	104	0	72	21595
2026-01-06 01:06:48.23	357.71	13.21	-50.4	-65.9	3.8	1.49e+00	0	42	104	0	72	21489
2026-01-06 01:06:51.34	357.34	13.45	-50.4	-66.0	3.8	1.49e+00	0	42	104	0	72	21541
2026-01-06 01:06:54.45	356.96	13.70	-50.4	-66.0	3.8	1.49e+00	0	42	104	0	72	21537
2026-01-06 01:06:57.78	356.54	13.97	-50.4	-66.0	3.8	1.49e+00	0	42	104	0	72	21542
2026-01-06 01:07:00.50	356.19	14.19	-50.4	-66.0	3.8	1.49e+00	0	42	104	0	72	21557
2026-01-06 01:07:03.80	355.76	14.45	-50.4	-66.0	3.8	1.49e+00	0	42	104	0	72	21573
2026-01-06 01:07:06.56	355.40	14.67	-50.4	-66.0	3.8	1.49e+00	0	42	104	0	72	21601
2026-01-06 01:07:09.92	354.95	14.95	-50.4	-66.0	3.8	1.49e+00	0	42	104	0	72	21562
2026-01-06 01:07:12.65	354.58	15.17	-50.4	-66.0	3.8	1.49e+00	0	42	104	0	72	21534
2026-01-06 01:07:15.94	354.12	15.44	-50.4	-66.0	3.8	1.49e+00	0	42	104	0	72	21603
2026-01-06 01:07:18.67	353.74	15.66	-50.4	-66.0	3.8	1.49e+00	0	42	104	0	72	21609
2026-01-06 01:07:21.97	353.26	15.94	-50.4	-65.9	3.8	1.49e+00	0	42	104	0	72	21500
2026-01-06 01:07:24.71	352.86	16.16	-50.4	-66.0	3.8	1.49e+00	0	42	104	0	72	21593
2026-01-06 01:07:28.00	352.37	16.44	-50.4	-66.0	3.8	1.49e+00	0	42	104	0	72	21563
2026-01-06 01:07:30.73	351.96	16.66	-50.4	-66.0	3.8	1.49e+00	0	42	104	0	72	21631
2026-01-06 01:07:34.03	351.45	16.94	-50.4	-66.0	3.8	1.49e+00	0	42	104	0	72	21601
2026-01-06 01:07:36.76	351.03	17.17	-50.4	-66.0	3.8	1.49e+00	0	42	104	0	72	21587
2026-01-06 01:07:40.06	350.50	17.44	-50.4	-66.0	3.8	1.49e+00	0	42	104	0	72	21637
2026-01-06 01:07:42.78	350.06	17.67	-50.5	-66.0	3.8	1.49e+00	0	42	104	0	72	21619
2026-01-06 01:07:46.08	349.52	17.95	-50.5	-66.0	3.8	1.49e+00	0	42	104	0	72	21581
2026-01-06 01:07:48.81	349.06	18.18	-50.5	-66.0	3.8	1.49e+00	0	42	104	0	72	21560
2026-01-06 01:07:52.11	348.50	18.46	-50.5	-66.0	3.8	1.49e+00	0	42	104	0	72	21644
2026-01-06 01:07:54.84	348.03	18.69	-50.5	-66.0	3.8	1.49e+00	0	42	104	0	72	21646
2026-01-06 01:07:58.14	347.45	18.97	-50.4	-66.0	3.8	1.49e+00	0	42	104	0	72	21675
2026-01-06 01:08:00.86	346.96	19.20	-50.5	-66.0	3.8	1.49e+00	0	42	104	0	72	21661
2026-01-06 01:08:04.16	346.36	19.48	-50.5	-66.0	3.8	1.49e+00	0	42	104	0	72	21658
2026-01-06 01:08:06.89	345.85	19.71	-50.4	-66.0	3.8	1.49e+00	0	42	104	0	72	21666
2026-01-06 01:08:10.19	345.23	19.99	-50.5	-66.0	3.8	1.49e+00	0	42	104	0	72	21639
2026-01-06 01:08:12.92	344.71	20.21	-50.5	-66.0	3.8	1.49e+00	0	42	104	0	72	21668
2026-01-06 01:08:16.22	344.07	20.49	-50.5	-66.0	3.8	1.49e+00	0	42	104	0	72	21643
2026-01-06 01:08:18.94	343.53	20.72	-50.4	-66.0	3.8	1.49e+00	0	42	104	0	72	21642
2026-01-06 01:08:22.24	342.86	21.00	-50.5	-66.0	3.8	1.49e+00	0	42	104	0	72	21566
2026-01-06 01:08:24.97	342.30	21.22	-50.5	-66.0	3.8	1.49e+00	0	42	104	0	72	21672
2026-01-06 01:08:28.27	341.61	21.50	-50.4	-66.0	3.8	1.49e+00	0	42	104	0	72	21646
2026-01-06 01:08:30.99	341.04	21.72	-50.5	-66.0	3.8	1.49e+00	0	42	104	0	72	21677
2026-01-06 01:08:34.20	340.35	21.98	-50.5	-66.0	3.8	1.49e+00	0	42	104	0	72	21744
2026-01-06 01:08:37.21	339.69	22.23	-50.5	-66.0	3.8	1.49e+00	0	42	104	0	72	21721
2026-01-06 01:08:40.22	339.02	22.47	-50.5	-66.0	3.8	1.49e+00	0	42	104	0	72	21713
2026-01-06 01:08:43.25	338.34	22.71	-50.5	-66.0	3.8	1.49e+00	0	43	104	0	72	21662
2026-01-06 01:08:46.26	337.65	22.95	-50.5	-66.0	3.8	1.49e+00	0	42	104	0	72	21658
2026-01-06 01:08:49.28	336.94	23.19	-50.5	-66.0	3.8	1.49e+00	0	42	104	0	72	21672
2026-01-06 01:08:52.29	336.23	23.42	-50.5	-66.0	3.8	1.49e+00	0	42	104	0	72	21743
2026-01-06 01:08:55.30	335.51	23.65	-50.4	-66.0	3.8	1.49e+00	0	43	104	0	72	21726
2026-01-06 01:08:58.35	334.77	23.88	-50.5	-66.0	3.8	1.49e+00	0	42	104	0	72	21708
2026-01-06 01:09:01.52	333.98	24.12	-50.5	-66.0	3.8	1.49e+00	0	42	104	0	72	21620
2026-01-06 01:09:04.41	333.26	24.33	-50.5	-66.0	3.8	1.49e+00	0	43	104	0	72	21674
2026-01-06 01:09:07.93	332.36	24.59	-50.5	-66.0	3.8	1.49e+00	0	42	104	0	72	21716
2026-01-06 01:09:10.66	331.65	24.78	-50.5	-66.0	3.8	1.49e+00	0	42	104	0	72	21556
2026-01-06 01:09:13.97	330.79	25.01	-50.5	-66.0	3.8	1.49e+00	0	42	104	0	72	21712
2026-01-06 01:09:16.70	330.06	25.20	-50.5	-66.0	3.8	1.49e+00	0	42	104	0	72	21696
2026-01-06 01:09:20.00	329.17	25.42	-50.5	-66.0	3.8	1.49e+00	0	42	104	0	72	21646
2026-01-06 01:09:22.72	328.43	25.59	-50.5	-66.0	3.8	1.49e+00	0	42	104	0	72	21751
2026-01-06 01:09:26.02	327.52	25.80	-50.5	-66.0	3.8	1.49e+00	0	43	104	0	72	21678
2026-01-06 01:09:28.75	326.76	25.97	-50.5	-66.0	3.8	1.49e+00	0	42	104	0	72	21666
2026-01-06 01:09:32.05	325.83	26.17	-50.5	-66.0	3.8	1.49e+00	0	42	104	0	72	21699
2026-01-06 01:09:34.77	325.05	26.32	-50.5	-66.0	3.8	1.49e+00	0	42	104	0	72	21719
2026-01-06 01:09:38.07	324.10	26.51	-50.5	-66.0	3.8	1.49e+00	0	42	104	0	72	21738
2026-01-06 01:09:40.79	323.30	26.65	-50.5	-66.0	3.8	1.49e+00	0	42	104	0	72	21644
2026-01-06 01:09:44.09	322.33	26.82	-50.5	-66.1	3.8	1.49e+00	0	42	104	0	72	21789
2026-01-06 01:09:46.82	321.52	26.96	-50.5	-66.0	3.8	1.49e+00	0	42	104	0	72	21739
2026-01-06 01:09:50.12	320.53	27.11	-50.5	-66.1	3.8	1.49e+00	0	42	104	0	72	21828
2026-01-06 01:09:52.84	319.70	27.23	-50.5	-66.1	3.8	1.49e+00	0	42	104	0	72	21780
2026-01-06 01:09:56.14	318.69	27.37	-50.5	-66.1	3.8	1.49e+00	0	42	104	0	72	21762
2026-01-06 01:09:58.87	317.85	27.48	-50.5	-66.1	3.8	1.49e+00	0	42	104	0	72	21788
2026-01-06 01:10:02.17	316.83	27.60	-50.5	-66.1	3.8	1.49e+00	0	42	104	0	72	21808
2026-01-06 01:10:04.89	315.98	27.69	-50.5	-66.0	3.8	1.49e+00	0	42	104	0	72	21755
2026-01-06 01:10:08.19	314.94	27.79	-50.5	-66.1	3.8	1.49e+00	0	42	104	0	72	21803
2026-01-06 01:10:10.92	314.08	27.87	-50.5	-66.1	3.8	1.49e+00	0	42	104	0	72	21766
2026-01-06 01:10:14.22	313.03	27.95	-50.5	-66.1	3.8	1.49e+00	0	43	104	0	72	21808
2026-01-06 01:10:17.04	312.13	28.02	-50.5	-66.1	3.8	1.49e+00	0	42	104	0	72	21794
2026-01-06 01:10:20.19	311.12	28.08	-50.5	-66.1	3.8	1.49e+00	0	42	104	0	72	21784
2026-01-06 01:10:23.06	310.20	28.13	-50.5	-66.1	3.8	1.49e+00	0	42	104	0	72	21797
2026-01-06 01:10:26.22	309.18	28.17	-50.5	-66.1	3.8	1.49e+00	0	43	104	0	72	21786
2026-01-06 01:10:29.08	308.25	28.20	-50.5	-66.1	3.8	1.49e+00	0	43	104	0	72	21757
2026-01-06 01:10:32.24	307.23	28.23	-50.5	-66.1	3.8	1.49e+00	0	43	104	0	72	21881
2026-01-06 01:10:35.11	306.30	28.24	-50.5	-66.1	3.8	1.49e+00	0	42	104	0	72	21873
2026-01-06 01:10:38.36	305.25	28.24	-50.6	-66.1	3.8	1.49e+00	0	42	104	0	72	21819
2026-01-06 01:10:41.22	304.32	28.24	-50.5	-66.1	3.8	1.49e+00	0	43	104	0	72	21861
2026-01-06 01:10:44.76	303.17	28.22	-50.5	-66.1	3.8	1.49e+00	0	42	104	0	72	21869
2026-01-06 01:10:47.55	302.27	28.20	-50.5	-66.0	3.8	1.49e+00	0	43	104	0	72	21743
2026-01-06 01:10:50.89	301.19	28.16	-50.5	-66.1	3.8	1.49e+00	0	42	104	0	72	21881
2026-01-06 01:10:53.62	300.31	28.12	-50.5	-66.1	3.8	1.49e+00	0	43	104	0	72	21818
2026-01-06 01:10:56.92	299.24	28.06	-50.5	-66.1	3.8	1.49e+00	0	42	104	0	72	21878
2026-01-06 01:10:59.64	298.37	28.01	-50.5	-66.1	3.8	1.49e+00	0	42	104	0	72	21903
2026-01-06 01:11:02.94	297.32	27.93	-50.6	-66.1	3.8	1.49e+00	0	43	104	0	72	21790
2026-01-06 01:11:05.67	296.45	27.86	-50.5	-66.1	3.8	1.49e+00	0	42	104	0	72	21813
2026-01-06 01:11:08.97	295.41	27.77	-50.5	-66.1	3.8	1.49e+00	0	43	104	0	72	21831
2026-01-06 01:11:11.70	294.55	27.68	-50.5	-66.1	3.8	1.49e+00	0	42	104	0	72	21814
2026-01-06 01:11:15.00	293.52	27.57	-50.6	-66.1	3.8	1.49e+00	0	42	104	0	72	21841
2026-01-06 01:11:17.72	292.68	27.46	-50.6	-66.1	3.8	1.49e+00	0	42	104	0	72	21822
2026-01-06 01:11:21.02	291.66	27.33	-50.5	-66.1	3.8	1.49e+00	0	43	104	0	72	21802
2026-01-06 01:11:23.75	290.82	27.22	-50.5	-66.1	3.8	1.49e+00	0	43	104	0	72	21880
2026-01-06 01:11:27.04	289.83	27.07	-50.5	-66.1	3.8	1.49e+00	0	43	104	0	72	21896
2026-01-06 01:11:29.77	289.01	26.94	-50.6	-66.1	3.8	1.49e+00	0	42	104	0	72	21906
2026-01-06 01:11:33.07	288.02	26.78	-50.5	-66.1	3.8	1.49e+00	0	43	104	0	72	21868
2026-01-06 01:11:35.79	287.22	26.64	-50.6	-66.1	3.8	1.49e+00	0	43	104	0	72	21834
2026-01-06 01:11:39.09	286.26	26.46	-50.5	-66.1	3.8	1.49e+00	0	43	104	0	72	21974
2026-01-06 01:11:41.81	285.47	26.31	-50.6	-66.1	3.8	1.49e+00	0	43	104	0	72	21845
2026-01-06 01:11:45.12	284.53	26.11	-50.5	-66.1	3.8	1.49e+00	0	43	104	0	72	21891
2026-01-06 01:11:47.84	283.76	25.95	-50.5	-66.1	3.8	1.49e+00	0	43	104	0	72	21803
2026-01-06 01:11:51.14	282.84	25.74	-50.5	-66.1	3.8	1.49e+00	0	43	104	0	72	21873
2026-01-06 01:11:53.87	282.08	25.57	-50.5	-66.1	3.8	1.49e+00	0	43	104	0	72	21853
2026-01-06 01:11:57.44	281.11	25.34	-50.5	-66.1	3.8	1.49e+00	0	43	104	0	72	21883
2026-01-06 01:12:00.50	280.29	25.13	-50.5	-66.1	3.8	1.49e+00	0	42	104	0	72	21794
2026-01-06 01:12:03.66	279.45	24.91	-50.5	-66.1	3.8	1.49e+00	0	42	104	0	72	21887
2026-01-06 01:12:06.53	278.70	24.71	-50.5	-66.1	3.8	1.49e+00	0	43	104	0	72	21840
2026-01-06 01:12:09.68	277.88	24.49	-50.5	-66.1	3.8	1.49e+00	0	43	104	0	72	21885
2026-01-06 01:12:12.55	277.15	24.28	-50.6	-66.1	3.8	1.49e+00	0	43	104	0	72	21913
2026-01-06 01:12:15.70	276.36	24.04	-50.5	-66.1	3.8	1.49e+00	0	42	104	0	72	21891
2026-01-06 01:12:18.57	275.65	23.83	-50.6	-66.1	3.8	1.49e+00	0	43	104	0	72	21804
2026-01-06 01:12:21.73	274.88	23.59	-50.5	-66.1	3.8	1.49e+00	0	43	104	0	72	21889
2026-01-06 01:12:24.60	274.19	23.36	-50.6	-66.1	3.8	1.49e+00	0	43	104	0	72	21874
2026-01-06 01:12:27.75	273.45	23.12	-50.5	-66.1	3.8	1.49e+00	0	42	104	0	72	21870
2026-01-06 01:12:30.62	272.78	22.89	-50.6	-66.1	3.8	1.49e+00	0	43	104	0	72	21875
2026-01-06 01:12:33.78	272.05	22.64	-50.5	-66.1	3.8	1.49e+00	0	42	104	0	72	21891
2026-01-06 01:12:36.65	271.41	22.41	-50.5	-66.1	3.8	1.49e+00	0	43	104	0	72	21831
2026-01-06 01:12:39.80	270.70	22.15	-50.5	-66.0	3.8	1.49e+00	0	43	104	0	72	21755
2026-01-06 01:12:42.67	270.08	21.92	-50.5	-66.1	3.8	1.49e+00	0	43	104	0	72	21863
2026-01-06 01:12:45.83	269.40	21.66	-50.5	-66.1	3.8	1.49e+00	0	43	104	0	72	21786
2026-01-06 01:12:48.70	268.79	21.42	-50.5	-66.1	3.8	1.49e+00	0	42	104	0	72	21828
2026-01-06 01:12:51.85	268.13	21.16	-50.5	-66.1	3.8	1.49e+00	0	43	104	0	72	21880
2026-01-06 01:12:54.72	267.54	20.92	-50.5	-66.1	3.8	1.49e+00	0	42	104	0	72	21807
2026-01-06 01:12:57.88	266.90	20.65	-50.5	-66.1	3.8	1.49e+00	0	43	104	0	72	21806
2026-01-06 01:13:00.75	266.33	20.41	-50.5	-66.1	3.8	1.49e+00	0	43	104	0	72	21773
2026-01-06 01:13:03.90	265.72	20.15	-50.5	-66.1	3.8	1.49e+00	0	43	104	0	72	21822
2026-01-06 01:13:06.77	265.17	19.90	-50.5	-66.1	3.8	1.49e+00	0	43	104	0	72	21766
2026-01-06 01:13:09.93	264.57	19.64	-50.5	-66.1	3.8	1.49e+00	0	43	104	0	72	21757
2026-01-06 01:13:12.80	264.04	19.39	-50.5	-66.1	3.8	1.49e+00	0	43	104	0	72	21794
2026-01-06 01:13:15.95	263.46	19.13	-50.5	-66.1	3.8	1.49e+00	0	43	104	0	72	21831
2026-01-06 01:13:18.82	262.95	18.88	-50.5	-66.1	3.8	1.49e+00	0	43	104	0	72	21879
2026-01-06 01:13:21.98	262.39	18.62	-50.5	-66.1	3.8	1.49e+00	0	43	104	0	72	21836
2026-01-06 01:13:24.85	261.89	18.37	-50.5	-66.1	3.8	1.49e+00	0	43	104	0	72	21910
2026-01-06 01:13:28.00	261.35	18.11	-50.5	-66.1	3.8	1.49e+00	0	43	104	0	72	21770
2026-01-06 01:13:30.87	260.87	17.86	-50.5	-66.1	3.8	1.49e+00	0	43	104	0	72	21835
2026-01-06 01:13:34.03	260.35	17.60	-50.5	-66.1	3.8	1.49e+00	0	43	104	0	72	21831
2026-01-06 01:13:36.90	259.89	17.35	-50.5	-66.1	3.8	1.49e+00	0	43	104	0	72	21789
2026-01-06 01:13:40.06	259.38	17.09	-50.5	-66.1	3.8	1.49e+00	0	43	104	0	72	21887
2026-01-06 01:13:42.92	258.94	16.85	-50.5	-66.1	3.8	1.49e+00	0	43	104	0	72	21890
2026-01-06 01:13:46.16	258.44	16.58	-50.5	-66.1	3.8	1.49e+00	0	43	104	0	72	21875
2026-01-06 01:13:49.03	258.00	16.34	-50.5	-66.1	3.8	1.49e+00	0	43	104	0	72	21916
2026-01-06 01:13:52.19	257.53	16.07	-50.5	-66.1	3.8	1.49e+00	0	43	104	0	72	21843
2026-01-06 01:13:55.06	257.11	15.83	-50.5	-66.1	3.8	1.49e+00	0	43	104	0	72	21815
2026-01-06 01:13:58.22	256.66	15.57	-50.5	-66.1	3.8	1.49e+00	0	43	104	0	72	21905
2026-01-06 01:14:01.09	256.25	15.34	-50.5	-66.0	3.8	1.49e+00	0	43	104	0	72	21735
2026-01-06 01:14:04.24	255.81	15.08	-50.5	-66.1	3.8	1.49e+00	0	43	104	0	72	21903
2026-01-06 01:14:07.11	255.42	14.84	-50.5	-66.1	3.8	1.49e+00	0	43	104	0	72	21777
2026-01-06 01:14:10.27	254.99	14.59	-50.5	-66.1	3.8	1.49e+00	0	43	104	0	72	21827
2026-01-06 01:14:13.14	254.61	14.35	-50.5	-66.1	3.8	1.49e+00	0	43	104	0	72	21811
2026-01-06 01:14:16.29	254.20	14.10	-50.5	-66.0	3.8	1.49e+00	0	43	104	0	72	21741
2026-01-06 01:14:19.16	253.84	13.87	-50.5	-66.1	3.8	1.49e+00	0	43	104	0	72	21813
2026-01-06 01:14:22.32	253.44	13.62	-50.5	-66.1	3.8	1.49e+00	0	43	104	0	72	21879
2026-01-06 01:14:25.19	253.08	13.39	-50.5	-66.0	3.8	1.49e+00	0	43	104	0	72	21741
2026-01-06 01:14:28.34	252.70	13.14	-50.5	-66.1	3.8	1.49e+00	0	43	104	0	72	21836
2026-01-06 01:14:31.29	252.35	12.91	-50.5	-66.0	3.8	1.49e+00	0	43	104	0	72	21735
2026-01-06 01:14:34.58	251.96	12.65	-50.5	-66.1	3.8	1.49e+00	0	43	104	0	72	21825
2026-01-06 01:14:37.51	251.62	12.42	-50.5	-66.1	3.8	1.49e+00	0	43	104	0	72	21804
2026-01-06 01:14:40.73	251.25	12.17	-50.5	-66.0	3.8	1.49e+00	0	43	104	0	72	21721
2026-01-06 01:14:43.60	250.93	11.95	-50.5	-66.1	3.8	1.49e+00	0	43	104	0	72	21811
2026-01-06 01:14:46.75	250.58	11.71	-50.5	-66.1	3.8	1.49e+00	0	43	104	0	72	21829
2026-01-06 01:14:49.62	250.27	11.49	-50.5	-66.1	3.8	1.49e+00	0	43	104	0	72	21855
2026-01-06 01:14:52.78	249.93	11.25	-50.5	-66.1	3.8	1.49e+00	0	43	104	0	72	21832
2026-01-06 01:14:55.64	249.63	11.03	-50.5	-66.1	3.8	1.49e+00	0	43	104	0	72	21826
2026-01-06 01:14:58.80	249.31	10.79	-50.5	-66.1	3.8	1.49e+00	0	43	104	0	72	21819
2026-01-06 01:15:01.67	249.01	10.58	-50.5	-66.1	3.8	1.49e+00	0	43	104	0	72	21834
2026-01-06 01:15:04.83	248.70	10.34	-50.5	-66.1	3.8	1.49e+00	0	43	104	0	72	21797
2026-01-06 01:15:07.69	248.41	10.13	-50.5	-66.1	3.8	1.49e+00	0	43	104	0	72	21802
2026-01-06 01:15:10.85	248.11	9.90	-50.5	-66.1	3.8	1.49e+00	0	43	104	0	72	21821
2026-01-06 01:15:13.72	247.83	9.69	-50.5	-66.1	3.8	1.49e+00	0	43	104	0	72	21809
2026-01-06 01:15:16.87	247.53	9.46	-50.5	-66.0	3.8	1.49e+00	0	43	104	0	72	21742
2026-01-06 01:15:19.74	247.27	9.25	-50.5	-66.1	3.8	1.49e+00	0	43	104	0	72	21834
2026-01-06 01:15:22.90	246.98	9.03	-50.5	-66.1	3.8	1.49e+00	0	43	104	0	72	21817
2026-01-06 01:15:25.77	246.72	8.82	-50.5	-66.1	3.8	1.49e+00	0	43	104	0	72	21767
2026-01-06 01:15:28.93	246.44	8.60	-50.5	-66.1	3.8	1.49e+00	0	43	104	0	72	21880
2026-01-06 01:15:31.80	246.19	8.40	-50.5	-66.1	3.8	1.49e+00	0	43	104	0	72	21762
2026-01-06 01:15:34.95	245.92	8.17	-50.5	-66.1	3.8	1.49e+00	0	43	104	0	72	21868
2026-01-06 01:15:37.82	245.67	7.97	-50.5	-66.1	3.8	1.49e+00	0	43	104	0	72	21762
2026-01-06 01:15:40.98	245.41	7.76	-50.5	-66.1	3.8	1.49e+00	0	43	104	0	72	21779
2026-01-06 01:15:43.85	245.17	7.56	-50.5	-66.1	3.8	1.49e+00	0	43	104	0	72	21774
2026-01-06 01:15:47.01	244.92	7.34	-50.5	-66.1	3.8	1.49e+00	0	43	104	0	72	21761
2026-01-06 01:15:49.88	244.69	7.14	-50.5	-66.1	3.8	1.49e+00	0	43	104	0	72	21768
2026-01-06 01:15:53.03	244.44	6.93	-50.5	-66.1	3.8	1.49e+00	0	43	104	0	72	21824
2026-01-06 01:15:55.90	244.22	6.74	-50.5	-66.1	3.8	1.49e+00	0	43	104	0	72	21855
2026-01-06 01:15:59.06	243.97	6.53	-50.5	-66.1	3.8	1.49e+00	0	43	104	0	72	21818
2026-01-06 01:16:01.93	243.76	6.33	-50.5	-66.0	3.8	1.49e+00	0	43	104	0	72	21715
2026-01-06 01:16:05.08	243.52	6.13	-50.5	-66.1	3.8	1.49e+00	0	43	104	0	72	21773
2026-01-06 01:16:07.95	243.31	5.94	-50.5	-66.1	3.8	1.49e+00	0	43	104	0	72	21828
2026-01-06 01:16:11.11	243.08	5.73	-50.5	-66.0	3.8	1.49e+00	0	43	104	0	72	21734
2026-01-06 01:16:13.98	242.88	5.54	-50.5	-66.1	3.8	1.49e+00	0	43	104	0	72	21817
2026-01-06 01:16:17.14	242.65	5.34	-50.5	-66.1	3.8	1.49e+00	0	43	104	0	72	21796
2026-01-06 01:16:20.01	242.45	5.15	-50.5	-66.1	3.8	1.49e+00	0	43	104	0	72	21797
2026-01-06 01:16:23.16	242.24	4.95	-50.5	-66.1	3.8	1.49e+00	0	43	104	0	72	21837

#Closed at: 2026-01-06 01:16:24
#Recorded file [0 MB]: D:/Data/31040_260106_040453.dat