passes_logs/2026/01/06/T1/T1__20260106_001419_NOAA_21_JPSS-2_rec.log

#Pass ID: 20260106_001419_NOAA 21 (JPSS-2)
#Satellite: NOAA 21 (JPSS-2)
#Configuration: NOAA 21
#almurnet v.1.7.20251203
#Start time: 2026-01-06 00:14:20

#Version: 2.0.20230620
#Station: T1
#Location: 37.570604 lon 55.790049 lat
#TLE: 1 54234U 22150A   26005.21525222  .00000150  00000+0  91957-4 0  9992
#TLE: 2 54234  98.7490 306.2339 0001053 341.6032  18.5106 14.19532220163427

#Time	Az	El	Level	Level2	SNR	BER	BlckErr	Temp	State	Recorded	gain1	gain2
2026-01-06 00:14:20.88	12.84	5.06	-50.2	-63.6	3.8	1.49e+00	0	36	0	0	71	17412
2026-01-06 00:14:23.89	12.77	5.28	-50.2	-63.6	3.8	1.49e+00	0	36	104	0	72	16376
2026-01-06 00:14:26.91	12.69	5.49	-50.2	-63.6	3.8	1.49e+00	0	36	104	0	72	16364
2026-01-06 00:14:29.92	12.61	5.71	-50.2	-63.5	3.8	1.49e+00	0	36	104	0	72	16291
2026-01-06 00:14:32.93	12.53	5.92	-50.2	-63.6	3.8	1.49e+00	0	36	104	0	72	16372
2026-01-06 00:14:35.95	12.44	6.14	-50.2	-63.6	3.8	1.49e+00	0	37	104	0	72	16378
2026-01-06 00:14:38.96	12.36	6.36	-50.2	-63.6	3.8	1.49e+00	0	37	104	0	72	16363
2026-01-06 00:14:42.00	12.27	6.59	-50.2	-63.6	3.8	1.49e+00	0	37	104	0	72	16372
2026-01-06 00:14:45.01	12.18	6.81	-50.2	-63.5	3.8	1.49e+00	0	37	104	0	72	16303
2026-01-06 00:14:48.02	12.09	7.04	-50.2	-63.5	3.8	1.49e+00	0	37	104	0	72	16297
2026-01-06 00:14:51.04	12.00	7.27	-50.2	-63.6	3.8	1.49e+00	0	37	104	0	72	16331
2026-01-06 00:14:54.05	11.91	7.50	-50.2	-63.6	3.8	1.49e+00	0	37	104	0	72	16357
2026-01-06 00:14:57.13	11.82	7.74	-50.2	-63.6	3.8	1.49e+00	0	37	104	0	72	16338
2026-01-06 00:15:00.00	11.72	7.96	-50.2	-63.6	3.8	1.49e+00	0	37	104	0	72	16332
2026-01-06 00:15:03.15	11.62	8.21	-50.2	-63.5	3.8	1.49e+00	0	37	104	0	72	16309
2026-01-06 00:15:06.02	11.53	8.44	-50.2	-63.6	3.8	1.49e+00	0	37	104	0	72	16327
2026-01-06 00:15:09.18	11.42	8.69	-50.2	-63.6	3.8	1.49e+00	0	37	104	0	72	16326
2026-01-06 00:15:12.05	11.32	8.92	-50.2	-63.6	3.8	1.49e+00	0	37	104	0	72	16374
2026-01-06 00:15:15.14	11.22	9.17	-50.2	-63.5	3.8	1.49e+00	0	37	104	0	72	16302
2026-01-06 00:15:18.16	11.11	9.42	-50.2	-63.6	3.8	1.49e+00	0	37	104	0	72	16351
2026-01-06 00:15:21.17	11.00	9.67	-50.2	-63.6	3.8	1.49e+00	0	37	104	0	72	16366
2026-01-06 00:15:24.18	10.89	9.92	-50.2	-63.6	3.8	1.49e+00	0	38	104	0	72	16365
2026-01-06 00:15:27.19	10.78	10.18	-50.2	-63.6	3.8	1.49e+00	0	38	104	0	72	16336
2026-01-06 00:15:30.21	10.66	10.44	-50.2	-63.6	3.8	1.49e+00	0	38	104	0	72	16353
2026-01-06 00:15:33.22	10.54	10.70	-50.2	-63.6	3.8	1.49e+00	0	38	104	0	72	16372
2026-01-06 00:15:36.23	10.42	10.96	-50.2	-63.6	3.8	1.49e+00	0	38	104	0	72	16389
2026-01-06 00:15:39.25	10.30	11.23	-50.2	-63.6	3.8	1.49e+00	0	38	104	0	72	16346
2026-01-06 00:15:42.34	10.17	11.50	-50.2	-63.6	3.8	1.49e+00	0	38	104	0	72	16390
2026-01-06 00:15:45.25	10.05	11.76	-50.2	-63.6	3.8	1.49e+00	0	38	104	0	72	16358
2026-01-06 00:15:48.27	9.92	12.04	-50.2	-63.6	3.8	1.49e+00	0	38	104	0	72	16400
2026-01-06 00:15:51.28	9.79	12.32	-50.2	-63.6	3.8	1.49e+00	0	38	104	0	72	16391
2026-01-06 00:15:54.29	9.65	12.60	-50.2	-63.6	3.8	1.49e+00	0	38	104	0	72	16346
2026-01-06 00:15:57.30	9.51	12.88	-50.2	-63.6	3.8	1.49e+00	0	38	104	0	72	16398
2026-01-06 00:16:00.31	9.37	13.16	-50.2	-63.5	3.8	1.49e+00	0	38	104	0	72	16309
2026-01-06 00:16:03.34	9.23	13.46	-50.2	-63.6	3.8	1.49e+00	0	38	104	0	72	16335
2026-01-06 00:16:06.64	9.06	13.78	-50.2	-63.6	3.8	1.49e+00	0	38	104	0	72	16324
2026-01-06 00:16:09.37	8.93	14.05	-50.2	-63.6	3.8	1.49e+00	0	38	104	0	72	16317
2026-01-06 00:16:12.66	8.76	14.37	-50.2	-63.6	3.8	1.49e+00	0	38	104	0	72	16368
2026-01-06 00:16:15.39	8.62	14.65	-50.2	-63.6	3.8	1.49e+00	0	38	104	0	72	16335
2026-01-06 00:16:18.69	8.44	14.98	-50.2	-63.6	3.8	1.49e+00	0	38	104	0	72	16363
2026-01-06 00:16:21.42	8.29	15.27	-50.2	-63.6	3.8	1.49e+00	0	38	104	0	72	16319
2026-01-06 00:16:24.72	8.11	15.61	-50.2	-63.6	3.8	1.49e+00	0	38	104	0	72	16344
2026-01-06 00:16:27.44	7.95	15.90	-50.2	-63.6	3.8	1.49e+00	0	38	104	0	72	16422
2026-01-06 00:16:30.74	7.76	16.25	-50.2	-63.6	3.8	1.49e+00	0	38	104	0	72	16356
2026-01-06 00:16:33.47	7.59	16.55	-50.2	-63.6	3.8	1.49e+00	0	38	104	0	72	16347
2026-01-06 00:16:36.76	7.39	16.91	-50.2	-63.6	3.8	1.49e+00	0	38	104	0	72	16320
2026-01-06 00:16:39.51	7.22	17.21	-50.2	-63.5	3.8	1.49e+00	0	38	104	0	72	16296
2026-01-06 00:16:42.87	7.01	17.59	-50.2	-63.6	3.8	1.49e+00	0	38	104	0	72	16430
2026-01-06 00:16:45.60	6.83	17.90	-50.2	-63.6	3.8	1.49e+00	0	38	104	0	72	16358
2026-01-06 00:16:48.88	6.60	18.28	-50.2	-63.6	3.8	1.49e+00	0	38	104	0	72	16324
2026-01-06 00:16:51.61	6.42	18.60	-50.2	-63.6	3.8	1.49e+00	0	38	104	0	72	16330
2026-01-06 00:16:54.90	6.18	18.99	-50.2	-63.6	3.8	1.49e+00	0	38	104	0	72	16350
2026-01-06 00:16:57.63	5.99	19.32	-50.2	-63.6	3.8	1.49e+00	0	38	104	0	72	16352
2026-01-06 00:17:00.92	5.74	19.72	-50.2	-63.6	3.8	1.49e+00	0	38	104	0	72	16348
2026-01-06 00:17:03.65	5.53	20.05	-50.2	-63.6	3.8	1.49e+00	0	38	104	0	72	16322
2026-01-06 00:17:06.95	5.28	20.47	-50.2	-63.6	3.8	1.49e+00	0	39	104	0	72	16399
2026-01-06 00:17:09.68	5.06	20.81	-50.2	-63.6	3.8	1.49e+00	0	38	104	0	72	16370
2026-01-06 00:17:12.97	4.79	21.23	-50.2	-63.6	3.8	1.49e+00	0	38	104	0	72	16399
2026-01-06 00:17:15.70	4.55	21.59	-50.2	-63.6	3.8	1.49e+00	0	39	104	0	72	16393
2026-01-06 00:17:19.00	4.27	22.03	-50.2	-63.6	3.8	1.49e+00	0	38	104	0	72	16370
2026-01-06 00:17:21.72	4.03	22.39	-50.2	-63.6	3.8	1.49e+00	0	38	104	0	72	16347
2026-01-06 00:17:25.02	3.72	22.84	-50.2	-63.6	3.8	1.49e+00	0	39	104	0	72	16397
2026-01-06 00:17:27.75	3.47	23.22	-50.2	-63.6	3.8	1.49e+00	0	38	104	0	72	16374
2026-01-06 00:17:31.05	3.15	23.68	-50.2	-63.6	3.8	1.49e+00	0	39	104	0	72	16373
2026-01-06 00:17:33.77	2.87	24.06	-50.2	-63.6	3.8	1.49e+00	0	38	104	0	72	16364
2026-01-06 00:17:37.07	2.54	24.54	-50.2	-63.6	3.8	1.49e+00	0	39	104	0	72	16389
2026-01-06 00:17:39.80	2.25	24.94	-50.2	-63.6	3.8	1.49e+00	0	39	104	0	72	16333
2026-01-06 00:17:43.10	1.89	25.43	-50.2	-63.6	3.8	1.49e+00	0	39	104	0	72	16330
2026-01-06 00:17:45.83	1.59	25.84	-50.2	-63.6	3.8	1.49e+00	0	38	104	0	72	16366
2026-01-06 00:17:49.13	1.21	26.34	-50.2	-63.6	3.8	1.49e+00	0	39	104	0	72	16373
2026-01-06 00:17:51.85	0.88	26.76	-50.2	-63.6	3.8	1.49e+00	0	39	104	0	72	16405
2026-01-06 00:17:55.15	0.48	27.28	-50.2	-63.6	3.8	1.49e+00	0	39	104	0	72	16383
2026-01-06 00:17:57.88	0.13	27.72	-50.2	-63.6	3.8	1.49e+00	0	39	104	0	72	16433
2026-01-06 00:18:01.18	359.70	28.25	-50.2	-63.6	3.8	1.49e+00	0	39	104	0	72	16370
2026-01-06 00:18:03.91	359.34	28.70	-50.2	-63.5	3.8	1.49e+00	0	39	104	0	72	16297
2026-01-06 00:18:07.20	358.88	29.25	-50.2	-63.6	3.8	1.49e+00	0	39	104	0	72	16369
2026-01-06 00:18:09.93	358.49	29.71	-50.2	-63.6	3.8	1.49e+00	0	39	104	0	72	16416
2026-01-06 00:18:13.23	358.00	30.27	-50.2	-63.6	3.8	1.49e+00	0	39	104	0	72	16414
2026-01-06 00:18:15.96	357.59	30.75	-50.2	-63.6	3.8	1.49e+00	0	39	104	0	72	16349
2026-01-06 00:18:19.25	357.07	31.33	-50.2	-63.6	3.8	1.49e+00	0	39	104	0	72	16356
2026-01-06 00:18:21.98	356.62	31.81	-50.2	-63.6	3.8	1.49e+00	0	39	104	0	72	16401
2026-01-06 00:18:25.28	356.06	32.41	-50.2	-63.6	3.8	1.49e+00	0	39	104	0	72	16355
2026-01-06 00:18:28.01	355.58	32.91	-50.2	-63.6	3.8	1.49e+00	0	39	104	0	72	16352
2026-01-06 00:18:31.31	354.99	33.53	-50.2	-63.6	3.8	1.49e+00	0	39	104	0	72	16355
2026-01-06 00:18:34.04	354.47	34.04	-50.2	-63.6	3.8	1.49e+00	0	39	104	0	72	16413
2026-01-06 00:18:37.57	353.78	34.72	-50.2	-63.6	3.8	1.49e+00	0	39	104	0	72	16334
2026-01-06 00:18:40.49	353.19	35.28	-50.2	-63.6	3.8	1.49e+00	0	39	104	0	72	16364
2026-01-06 00:18:44.22	352.41	36.02	-50.2	-63.6	3.8	1.49e+00	0	39	104	0	72	16396
2026-01-06 00:18:46.96	351.80	36.56	-50.2	-63.6	3.8	1.49e+00	0	39	104	0	72	16413
2026-01-06 00:18:50.69	350.95	37.31	-50.2	-63.6	3.8	1.49e+00	0	39	104	0	72	16368
2026-01-06 00:18:53.43	350.30	37.87	-50.2	-63.6	3.8	1.49e+00	0	39	104	0	72	16379
2026-01-06 00:18:57.18	349.37	38.64	-50.2	-63.6	3.8	1.49e+00	0	39	104	0	72	16419
2026-01-06 00:18:59.98	348.65	39.22	-50.2	-63.6	3.8	1.49e+00	0	39	104	0	72	16428
2026-01-06 00:19:03.68	347.65	39.99	-50.2	-63.6	3.8	1.49e+00	0	39	104	0	72	16383
2026-01-06 00:19:06.61	346.82	40.61	-50.2	-63.6	3.8	1.49e+00	0	39	104	0	72	16375
2026-01-06 00:19:09.91	345.85	41.31	-50.2	-63.6	3.8	1.49e+00	0	39	104	0	72	16370
2026-01-06 00:19:12.64	345.02	41.89	-50.2	-63.6	3.8	1.49e+00	0	39	104	0	72	16398
2026-01-06 00:19:15.94	343.97	42.60	-50.2	-63.6	3.8	1.49e+00	0	39	104	0	72	16395
2026-01-06 00:19:18.67	343.06	43.18	-50.2	-63.6	3.8	1.49e+00	0	39	104	0	72	16437
2026-01-06 00:19:21.97	341.92	43.89	-50.2	-63.6	3.8	1.49e+00	0	39	104	0	72	16413
2026-01-06 00:19:24.69	340.95	44.48	-50.2	-63.6	3.8	1.49e+00	0	39	104	0	72	16392
2026-01-06 00:19:27.99	339.71	45.18	-50.2	-63.6	3.8	1.49e+00	0	39	104	0	72	16410
2026-01-06 00:19:30.72	338.64	45.77	-50.2	-63.6	3.8	1.49e+00	0	39	104	0	72	16446
2026-01-06 00:19:34.02	337.30	46.47	-50.2	-63.6	3.8	1.49e+00	0	39	104	0	72	16464
2026-01-06 00:19:36.75	336.14	47.04	-50.2	-63.6	3.8	1.49e+00	0	39	104	0	72	16392
2026-01-06 00:19:40.04	334.69	47.73	-50.2	-63.6	3.8	1.49e+00	0	39	104	0	72	16434
2026-01-06 00:19:42.77	333.44	48.29	-50.2	-63.6	3.8	1.49e+00	0	39	104	0	72	16449
2026-01-06 00:19:46.07	331.86	48.95	-50.2	-63.6	3.8	1.49e+00	0	39	104	0	72	16436
2026-01-06 00:19:48.79	330.51	49.49	-50.2	-63.6	3.8	1.49e+00	0	39	104	0	72	16379
2026-01-06 00:19:52.09	328.80	50.13	-50.3	-63.6	3.8	1.49e+00	0	39	104	0	72	16368
2026-01-06 00:19:54.82	327.33	50.65	-50.3	-63.6	3.8	1.49e+00	0	39	104	0	72	16436
2026-01-06 00:19:58.12	325.49	51.25	-50.2	-63.6	3.8	1.49e+00	0	39	104	0	72	16425
2026-01-06 00:20:00.85	323.91	51.72	-50.2	-63.6	3.8	1.49e+00	0	39	104	0	72	16452
2026-01-06 00:20:04.15	321.94	52.28	-50.2	-63.6	3.8	1.49e+00	0	39	104	0	72	16409
2026-01-06 00:20:06.87	320.25	52.71	-50.3	-63.6	3.8	1.49e+00	0	39	104	0	72	16382
2026-01-06 00:20:10.17	318.14	53.20	-50.3	-63.6	3.8	1.49e+00	0	39	104	0	72	16494
2026-01-06 00:20:12.90	316.34	53.58	-50.3	-63.6	3.8	1.49e+00	0	39	104	0	72	16453
2026-01-06 00:20:16.20	314.11	54.01	-50.2	-63.6	3.8	1.49e+00	0	39	104	0	72	16402
2026-01-06 00:20:18.92	312.21	54.33	-50.3	-63.6	3.8	1.49e+00	0	39	104	0	72	16469
2026-01-06 00:20:22.22	309.86	54.67	-50.2	-63.6	3.8	1.49e+00	0	39	104	0	72	16453
2026-01-06 00:20:24.95	307.88	54.92	-50.3	-63.6	3.8	1.49e+00	0	39	104	0	72	16445
2026-01-06 00:20:28.25	305.44	55.18	-50.2	-63.6	3.8	1.49e+00	0	39	104	0	72	16469
2026-01-06 00:20:30.97	303.39	55.35	-50.2	-63.6	3.8	1.49e+00	0	39	104	0	72	16448
2026-01-06 00:20:34.27	300.88	55.51	-50.2	-63.6	3.8	1.49e+00	0	39	104	0	72	16452
2026-01-06 00:20:37.00	298.79	55.61	-50.2	-63.6	3.8	1.49e+00	0	39	104	0	72	16491
2026-01-06 00:20:40.29	296.25	55.67	-50.2	-63.6	3.8	1.49e+00	0	39	104	0	72	16472
2026-01-06 00:20:43.15	294.03	55.68	-50.3	-63.6	3.8	1.49e+00	0	39	104	0	72	16431
2026-01-06 00:20:46.34	291.57	55.64	-50.2	-63.6	3.8	1.49e+00	0	39	104	0	72	16442
2026-01-06 00:20:49.36	289.24	55.55	-50.3	-63.6	3.8	1.49e+00	0	39	104	0	72	16440
2026-01-06 00:20:52.37	286.94	55.42	-50.2	-63.6	3.8	1.49e+00	0	39	104	0	72	16380
2026-01-06 00:20:55.38	284.67	55.24	-50.3	-63.6	3.8	1.49e+00	0	39	104	0	72	16459
2026-01-06 00:20:58.39	282.42	55.02	-50.3	-63.6	3.8	1.49e+00	0	39	104	0	72	16398
2026-01-06 00:21:01.50	280.15	54.75	-50.3	-63.6	3.8	1.49e+00	0	39	104	0	72	16394
2026-01-06 00:21:04.65	277.89	54.43	-50.3	-63.6	3.8	1.49e+00	0	39	104	0	72	16396
2026-01-06 00:21:07.52	275.87	54.11	-50.3	-63.6	3.8	1.49e+00	0	39	104	0	72	16382
2026-01-06 00:21:10.68	273.71	53.71	-50.3	-63.6	3.8	1.49e+00	0	39	104	0	72	16441
2026-01-06 00:21:13.54	271.81	53.32	-50.3	-63.6	3.8	1.49e+00	0	39	104	0	72	16426
2026-01-06 00:21:16.69	269.77	52.86	-50.3	-63.6	3.8	1.49e+00	0	39	104	0	72	16394
2026-01-06 00:21:19.56	267.97	52.41	-50.3	-63.6	3.8	1.49e+00	0	39	104	0	72	16468
2026-01-06 00:21:22.72	266.06	51.89	-50.2	-63.6	3.8	1.49e+00	0	39	104	0	72	16455
2026-01-06 00:21:25.58	264.38	51.39	-50.3	-63.6	3.8	1.49e+00	0	39	104	0	72	16454
2026-01-06 00:21:28.74	262.59	50.82	-50.2	-63.6	3.8	1.49e+00	0	39	104	0	72	16470
2026-01-06 00:21:31.61	261.03	50.28	-50.3	-63.6	3.8	1.49e+00	0	39	104	0	72	16471
2026-01-06 00:21:34.77	259.37	49.68	-50.3	-63.6	3.8	1.49e+00	0	39	104	0	72	16467
2026-01-06 00:21:37.64	257.93	49.11	-50.2	-63.6	3.8	1.49e+00	0	39	104	0	72	16484
2026-01-06 00:21:40.79	256.40	48.47	-50.3	-63.6	3.8	1.49e+00	0	39	104	0	72	16431
2026-01-06 00:21:43.66	255.06	47.88	-50.3	-63.6	3.8	1.49e+00	0	39	104	0	72	16452
2026-01-06 00:21:46.82	253.64	47.23	-50.3	-63.6	3.8	1.49e+00	0	39	104	0	72	16474
2026-01-06 00:21:49.68	252.41	46.62	-50.3	-63.6	3.8	1.49e+00	0	39	104	0	72	16438
2026-01-06 00:21:52.84	251.11	45.95	-50.3	-63.6	3.8	1.49e+00	0	39	104	0	72	16491
2026-01-06 00:21:55.70	249.97	45.34	-50.3	-63.6	3.8	1.49e+00	0	39	104	0	72	16500
2026-01-06 00:21:58.86	248.77	44.66	-50.3	-63.6	3.8	1.49e+00	0	39	104	0	72	16466
2026-01-06 00:22:01.73	247.72	44.04	-50.3	-63.6	3.8	1.49e+00	0	39	104	0	72	16501
2026-01-06 00:22:04.88	246.62	43.36	-50.3	-63.6	3.8	1.49e+00	0	39	104	0	72	16435
2026-01-06 00:22:07.75	245.65	42.74	-50.3	-63.7	3.8	1.49e+00	0	39	104	0	72	16511
2026-01-06 00:22:10.91	244.63	42.06	-50.3	-63.6	3.8	1.49e+00	0	39	104	0	72	16421
2026-01-06 00:22:13.78	243.74	41.45	-50.3	-63.6	3.8	1.49e+00	0	39	104	0	72	16447
2026-01-06 00:22:16.93	242.80	40.78	-50.3	-63.6	3.8	1.49e+00	0	39	104	0	72	16492
2026-01-06 00:22:19.80	241.98	40.17	-50.3	-63.6	3.8	1.49e+00	0	39	104	0	72	16496
2026-01-06 00:22:22.96	241.11	39.50	-50.3	-63.6	3.8	1.49e+00	0	39	104	0	72	16469
2026-01-06 00:22:25.83	240.35	38.90	-50.3	-63.6	3.8	1.49e+00	0	39	104	0	72	16481
2026-01-06 00:22:28.98	239.55	38.25	-50.3	-63.6	3.8	1.49e+00	0	39	104	0	72	16480
2026-01-06 00:22:31.85	238.84	37.66	-50.3	-63.6	3.8	1.49e+00	0	39	104	0	72	16465
2026-01-06 00:22:35.01	238.10	37.02	-50.3	-63.6	3.8	1.49e+00	0	39	104	0	72	16496
2026-01-06 00:22:37.88	237.45	36.44	-50.3	-63.6	3.8	1.49e+00	0	39	104	0	72	16456
2026-01-06 00:22:41.04	236.75	35.81	-50.3	-63.6	3.8	1.49e+00	0	39	104	0	72	16412
2026-01-06 00:22:43.90	236.15	35.25	-50.3	-63.7	3.8	1.49e+00	0	39	104	0	72	16525
2026-01-06 00:22:47.06	235.51	34.63	-50.3	-63.6	3.8	1.49e+00	0	39	104	0	72	16488
2026-01-06 00:22:49.93	234.94	34.08	-50.3	-63.6	3.8	1.49e+00	0	39	104	0	72	16486
2026-01-06 00:22:53.08	234.35	33.48	-50.3	-63.6	3.8	1.49e+00	0	39	104	0	72	16496
2026-01-06 00:22:55.95	233.82	32.95	-50.3	-63.6	3.8	1.49e+00	0	39	104	0	72	16499
2026-01-06 00:22:59.11	233.27	32.36	-50.3	-63.7	3.8	1.49e+00	0	39	104	0	72	16522
2026-01-06 00:23:01.98	232.78	31.84	-50.3	-63.6	3.8	1.49e+00	0	39	104	0	72	16491
2026-01-06 00:23:05.13	232.26	31.27	-50.3	-63.6	3.8	1.49e+00	0	39	104	0	72	16469
2026-01-06 00:23:08.00	231.80	30.76	-50.3	-63.7	3.8	1.49e+00	0	40	104	0	72	16510
2026-01-06 00:23:11.15	231.31	30.21	-50.3	-63.7	3.8	1.49e+00	0	39	104	0	72	16520
2026-01-06 00:23:14.02	230.88	29.72	-50.3	-63.6	3.8	1.49e+00	0	40	104	0	72	16484
2026-01-06 00:23:17.18	230.43	29.18	-50.3	-63.6	3.8	1.49e+00	0	40	104	0	72	16489
2026-01-06 00:23:20.34	229.99	28.65	-50.3	-63.6	3.8	1.49e+00	0	40	104	0	72	16419
2026-01-06 00:23:23.58	229.55	28.12	-50.3	-63.7	3.8	1.49e+00	0	40	104	0	72	16527
2026-01-06 00:23:26.51	229.17	27.64	-50.3	-63.6	3.8	1.49e+00	0	39	104	0	72	16457
2026-01-06 00:23:29.81	228.75	27.12	-50.3	-63.7	3.8	1.49e+00	0	39	104	0	72	16533
2026-01-06 00:23:32.53	228.41	26.69	-50.3	-63.7	3.8	1.49e+00	0	40	104	0	72	16514
2026-01-06 00:23:35.83	228.02	26.17	-50.3	-63.6	3.8	1.49e+00	0	39	104	0	72	16476
2026-01-06 00:23:38.64	227.70	25.74	-50.3	-63.7	3.8	1.49e+00	0	40	104	0	72	16520
2026-01-06 00:23:41.94	227.32	25.25	-50.3	-63.7	3.8	1.49e+00	0	40	104	0	72	16565
2026-01-06 00:23:44.67	227.03	24.84	-50.3	-63.6	3.8	1.49e+00	0	39	104	0	72	16448
2026-01-06 00:23:47.98	226.68	24.36	-50.3	-63.6	3.8	1.49e+00	0	40	104	0	72	16489
2026-01-06 00:23:50.71	226.40	23.96	-50.3	-63.7	3.8	1.49e+00	0	40	104	0	72	16540
2026-01-06 00:23:54.01	226.06	23.49	-50.3	-63.6	3.8	1.49e+00	0	40	104	0	72	16476
2026-01-06 00:23:56.73	225.80	23.11	-50.3	-63.6	3.8	1.49e+00	0	40	104	0	72	16482
2026-01-06 00:24:00.03	225.49	22.65	-50.3	-63.6	3.8	1.49e+00	0	39	104	0	72	16485
2026-01-06 00:24:02.75	225.24	22.28	-50.3	-63.6	3.8	1.49e+00	0	39	104	0	72	16449
2026-01-06 00:24:06.05	224.94	21.84	-50.3	-63.6	3.8	1.49e+00	0	39	104	0	72	16477
2026-01-06 00:24:08.78	224.70	21.48	-50.3	-63.6	3.8	1.49e+00	0	40	104	0	72	16442
2026-01-06 00:24:12.07	224.42	21.05	-50.3	-63.6	3.8	1.49e+00	0	40	104	0	72	16460
2026-01-06 00:24:14.80	224.20	20.70	-50.3	-63.6	3.8	1.49e+00	0	40	104	0	72	16445
2026-01-06 00:24:18.10	223.93	20.28	-50.3	-63.7	3.8	1.49e+00	0	39	104	0	72	16532
2026-01-06 00:24:20.83	223.71	19.94	-50.3	-63.6	3.8	1.49e+00	0	40	104	0	72	16472
2026-01-06 00:24:24.12	223.46	19.53	-50.3	-63.6	3.8	1.49e+00	0	40	104	0	72	16476
2026-01-06 00:24:26.85	223.26	19.20	-50.3	-63.6	3.8	1.49e+00	0	40	104	0	72	16448
2026-01-06 00:24:30.15	223.01	18.80	-50.3	-63.6	3.8	1.49e+00	0	40	104	0	72	16455
2026-01-06 00:24:32.88	222.82	18.47	-50.3	-63.6	3.8	1.49e+00	0	40	104	0	72	16502
2026-01-06 00:24:36.18	222.59	18.09	-50.3	-63.6	3.8	1.49e+00	0	39	104	0	72	16462
2026-01-06 00:24:38.90	222.41	17.77	-50.3	-63.6	3.8	1.49e+00	0	39	104	0	72	16487
2026-01-06 00:24:42.20	222.19	17.40	-50.3	-63.6	3.8	1.49e+00	0	40	104	0	72	16462
2026-01-06 00:24:44.93	222.01	17.09	-50.3	-63.6	3.8	1.49e+00	0	40	104	0	72	16426
2026-01-06 00:24:48.22	221.80	16.72	-50.3	-63.7	3.8	1.49e+00	0	40	104	0	72	16533
2026-01-06 00:24:50.95	221.63	16.42	-50.3	-63.6	3.8	1.49e+00	0	40	104	0	72	16416
2026-01-06 00:24:54.25	221.43	16.06	-50.3	-63.7	3.8	1.49e+00	0	40	104	0	72	16553
2026-01-06 00:24:56.97	221.27	15.77	-50.3	-63.6	3.8	1.49e+00	0	40	104	0	72	16489
2026-01-06 00:25:00.27	221.08	15.42	-50.3	-63.7	3.8	1.49e+00	0	40	104	0	72	16507
2026-01-06 00:25:03.08	220.92	15.13	-50.3	-63.6	3.8	1.49e+00	0	40	104	0	72	16481
2026-01-06 00:25:06.23	220.75	14.80	-50.3	-63.6	3.8	1.49e+00	0	40	104	0	72	16455
2026-01-06 00:25:09.10	220.59	14.51	-50.3	-63.6	3.8	1.49e+00	0	40	104	0	72	16483
2026-01-06 00:25:12.26	220.42	14.19	-50.3	-63.6	3.8	1.49e+00	0	40	104	0	72	16443
2026-01-06 00:25:15.12	220.27	13.91	-50.3	-63.6	3.8	1.49e+00	0	40	104	0	72	16484
2026-01-06 00:25:18.28	220.11	13.60	-50.3	-63.6	3.8	1.49e+00	0	40	104	0	72	16479
2026-01-06 00:25:21.15	219.97	13.32	-50.3	-63.6	3.8	1.49e+00	0	40	104	0	72	16418
2026-01-06 00:25:24.31	219.82	13.01	-50.3	-63.7	3.8	1.49e+00	0	40	104	0	72	16519
2026-01-06 00:25:27.25	219.68	12.73	-50.3	-63.6	3.8	1.49e+00	0	40	104	0	72	16484
2026-01-06 00:25:30.58	219.52	12.42	-50.3	-63.6	3.8	1.49e+00	0	40	104	0	72	16423
2026-01-06 00:25:33.46	219.39	12.15	-50.3	-63.6	3.8	1.49e+00	0	40	104	0	72	16469
2026-01-06 00:25:36.76	219.24	11.84	-50.3	-63.7	3.8	1.49e+00	0	40	104	0	72	16549
2026-01-06 00:25:39.48	219.12	11.60	-50.3	-63.6	3.8	1.49e+00	0	40	104	0	72	16488
2026-01-06 00:25:42.78	218.98	11.30	-50.3	-63.6	3.8	1.49e+00	0	40	104	0	72	16474
2026-01-06 00:25:45.50	218.86	11.06	-50.3	-63.7	3.8	1.49e+00	0	40	104	0	72	16507
2026-01-06 00:25:48.80	218.73	10.77	-50.3	-63.6	3.8	1.49e+00	0	40	104	0	72	16484
2026-01-06 00:25:51.53	218.61	10.53	-50.3	-63.6	3.8	1.49e+00	0	40	104	0	72	16489
2026-01-06 00:25:54.83	218.48	10.24	-50.3	-63.7	3.8	1.49e+00	0	40	104	0	72	16515
2026-01-06 00:25:57.55	218.38	10.01	-50.3	-63.6	3.8	1.49e+00	0	40	104	0	72	16455
2026-01-06 00:26:00.94	218.25	9.72	-50.3	-63.6	3.8	1.49e+00	0	40	104	0	72	16467
2026-01-06 00:26:03.66	218.14	9.49	-50.3	-63.6	3.8	1.49e+00	0	40	104	0	72	16486
2026-01-06 00:26:06.97	218.02	9.22	-50.3	-63.6	3.8	1.49e+00	0	40	104	0	72	16453
2026-01-06 00:26:09.70	217.92	8.99	-50.3	-63.7	3.8	1.49e+00	0	40	104	0	72	16509
2026-01-06 00:26:12.99	217.80	8.72	-50.2	-63.7	3.8	1.49e+00	0	40	104	0	72	16518
2026-01-06 00:26:15.72	217.71	8.50	-50.3	-63.7	3.8	1.49e+00	0	40	104	0	72	16534
2026-01-06 00:26:19.02	217.59	8.24	-50.3	-63.6	3.8	1.49e+00	0	40	104	0	72	16456
2026-01-06 00:26:21.74	217.50	8.02	-50.3	-63.6	3.8	1.49e+00	0	40	104	0	72	16447
2026-01-06 00:26:25.04	217.39	7.76	-50.3	-63.6	3.8	1.49e+00	0	40	104	0	72	16460
