passes_logs/2026/01/24/XPeterburg/XPeterburg__20260124_043249_FENGYUN_3E_rec.log

#Pass ID: 20260124_043249_FENGYUN 3E
#Satellite: FENGYUN 3E
#Configuration: FENGYUN 3E
#Start time: 2026-01-24 04:32:44

#Version: 1.5.20200625
#Station: XPeterburg
#Location: 30.318091 lon 59.932769 lat
#TLE: 1 49008U 21062A   26022.96857035  .00000014  00000+0  27449-4 0  9991
#TLE: 2 49008  98.7488  28.0032 0002359 122.8887 237.2516 14.19886951235971

#Time	Az	El	Level	Level2	SNR	BER	Gain	Gain2
2026-01-24 04:32:44.85	43.34	68.50	-38.3	-40.8	3.3	8389640	94	6587
2026-01-24 04:32:45.25	43.58	68.66	-38.1	-41.6	3.5	8447376	93	7326
2026-01-24 04:32:45.66	43.82	68.83	-37.8	-39.8	3.3	8407974	93	6180
2026-01-24 04:32:46.06	44.07	69.00	-37.4	-39.4	3.7	8437408	93	6234
2026-01-24 04:32:46.46	44.31	69.16	-36.7	-37.3	3.9	8398567	91	5275
2026-01-24 04:32:46.86	44.57	69.32	-35.3	-34.8	5.0	8205871	89	4623
2026-01-24 04:32:47.26	44.82	69.49	-34.5	-33.9	5.9	6567031	87	4602
2026-01-24 04:32:47.67	45.09	69.66	-33.1	-32.5	7.4	1678173	84	4605
2026-01-24 04:32:48.07	45.35	69.82	-32.1	-31.5	8.8	888164	82	4568
2026-01-24 04:32:48.47	45.62	69.99	-31.1	-30.5	10.1	189216	80	4575
2026-01-24 04:32:48.87	45.90	70.15	-30.0	-29.2	11.3	34870	78	4492
2026-01-24 04:32:49.27	46.18	70.31	-29.3	-28.3	12.2	4966	77	4377
2026-01-24 04:32:49.67	46.46	70.48	-28.5	-27.6	12.9	755	75	4472
2026-01-24 04:32:50.08	46.76	70.64	-28.1	-27.4	13.4	377	74	4508
2026-01-24 04:32:50.48	47.05	70.81	-28.1	-27.5	13.5	148	74	4576
2026-01-24 04:32:50.88	47.35	70.97	-28.0	-27.1	13.6	194	74	4465
2026-01-24 04:32:51.28	47.66	71.13	-28.0	-27.1	13.6	125	74	4433
2026-01-24 04:32:51.68	47.97	71.30	-27.9	-27.0	13.6	68	74	4401
2026-01-24 04:32:52.09	48.29	71.46	-27.8	-26.7	13.8	91	74	4326
2026-01-24 04:32:52.49	48.62	71.62	-28.1	-27.2	13.6	114	74	4466
2026-01-24 04:32:52.89	48.94	71.79	-28.1	-27.2	13.5	137	74	4465
2026-01-24 04:32:53.29	49.28	71.95	-28.1	-27.3	13.5	68	74	4489
2026-01-24 04:32:53.69	49.62	72.11	-28.1	-27.4	13.4	148	74	4554
2026-01-24 04:32:54.09	49.97	72.27	-28.1	-27.5	13.4	148	74	4558
2026-01-24 04:32:54.50	50.33	72.43	-28.1	-27.5	13.3	194	74	4561
2026-01-24 04:32:54.90	50.69	72.59	-27.9	-27.0	13.5	114	74	4396
2026-01-24 04:32:55.30	51.06	72.75	-28.0	-27.2	13.4	80	74	4455
2026-01-24 04:32:55.70	51.44	72.91	-28.0	-27.2	13.5	148	74	4487
2026-01-24 04:32:56.10	51.82	73.07	-28.2	-27.6	13.3	148	74	4591
2026-01-24 04:32:56.50	52.21	73.23	-28.0	-27.0	13.6	274	74	4405
2026-01-24 04:32:56.91	52.62	73.39	-28.1	-27.3	13.4	102	74	4479
2026-01-24 04:32:57.31	53.03	73.54	-27.9	-27.4	13.7	11	73	4636
2026-01-24 04:32:57.71	53.44	73.70	-28.0	-27.6	13.6	57	73	4695
2026-01-24 04:32:58.11	53.87	73.86	-28.0	-27.6	13.6	68	73	4689
2026-01-24 04:32:58.51	54.30	74.01	-28.1	-27.7	13.5	137	73	4733
2026-01-24 04:32:58.91	54.74	74.17	-28.2	-28.0	13.4	114	73	4798
2026-01-24 04:32:59.31	55.19	74.32	-28.3	-28.1	13.4	114	73	4830
2026-01-24 04:32:59.71	55.65	74.47	-28.3	-28.1	13.3	171	73	4833
2026-01-24 04:33:00.12	56.13	74.63	-28.1	-27.8	13.5	171	73	4743
2026-01-24 04:33:00.52	56.61	74.78	-28.0	-27.6	13.6	102	73	4683
2026-01-24 04:33:00.92	57.09	74.93	-28.0	-27.5	13.7	102	73	4655
2026-01-24 04:33:01.32	57.59	75.08	-27.6	-26.7	14.1	68	73	4448
2026-01-24 04:33:01.72	58.10	75.23	-27.6	-26.6	14.1	22	73	4435
2026-01-24 04:33:02.13	58.63	75.38	-27.5	-26.5	14.2	22	73	4410
2026-01-24 04:33:02.53	59.16	75.52	-27.3	-26.7	14.4	0	72	4572
2026-01-24 04:33:02.93	59.71	75.67	-27.2	-26.5	14.4	0	72	4522
2026-01-24 04:33:03.33	60.26	75.81	-27.4	-26.9	14.3	0	72	4628
2026-01-24 04:33:03.73	60.82	75.96	-27.3	-26.7	14.4	0	72	4569
2026-01-24 04:33:04.14	61.41	76.10	-27.5	-27.0	14.3	0	72	4671
2026-01-24 04:33:04.54	62.00	76.24	-27.5	-27.1	14.4	22	72	4677
2026-01-24 04:33:04.94	62.61	76.38	-27.4	-26.9	14.5	0	72	4630
2026-01-24 04:33:05.34	63.22	76.52	-27.4	-26.9	14.6	0	72	4664
2026-01-24 04:33:05.74	63.85	76.66	-27.2	-26.6	14.8	11	72	4590
2026-01-24 04:33:06.15	64.51	76.80	-27.2	-26.7	14.8	0	72	4604
2026-01-24 04:33:06.55	65.16	76.93	-27.2	-26.6	14.9	0	72	4586
2026-01-24 04:33:06.95	65.83	77.06	-27.3	-26.7	14.9	0	72	4624
2026-01-24 04:33:07.35	66.51	77.19	-27.2	-26.7	15.0	0	72	4612
2026-01-24 04:33:07.75	67.21	77.32	-27.3	-26.9	14.9	0	72	4696
2026-01-24 04:33:08.15	67.92	77.45	-27.2	-26.7	15.0	0	72	4613
2026-01-24 04:33:08.56	68.67	77.58	-27.2	-26.6	15.0	0	72	4594
2026-01-24 04:33:08.96	69.41	77.70	-27.1	-26.5	15.0	11	72	4577
2026-01-24 04:33:09.36	70.16	77.82	-27.0	-26.3	15.1	0	72	4521
2026-01-24 04:33:09.76	70.94	77.94	-26.9	-26.1	15.2	0	72	4457
2026-01-24 04:33:10.16	71.73	78.06	-26.8	-25.8	15.3	0	72	4400
2026-01-24 04:33:10.57	72.55	78.18	-26.7	-26.1	15.2	0	71	4597
2026-01-24 04:33:10.97	73.37	78.29	-26.6	-25.8	15.3	0	71	4515
2026-01-24 04:33:11.37	74.21	78.40	-26.6	-25.8	15.3	0	71	4522
2026-01-24 04:33:11.77	75.06	78.51	-26.4	-25.4	15.5	0	71	4400
2026-01-24 04:33:12.17	75.93	78.61	-26.3	-25.9	15.5	0	70	4661
2026-01-24 04:33:12.57	76.82	78.72	-26.2	-25.5	15.8	0	70	4558
2026-01-24 04:33:12.98	77.74	78.82	-26.0	-25.2	15.9	0	70	4473
2026-01-24 04:33:13.38	78.66	78.92	-26.0	-25.1	16.0	0	70	4465
2026-01-24 04:33:13.78	79.60	79.01	-25.8	-25.2	16.1	0	69	4611
2026-01-24 04:33:14.18	80.55	79.10	-25.8	-25.4	16.0	0	69	4657
2026-01-24 04:33:14.58	81.52	79.19	-25.8	-25.2	16.0	0	69	4610
2026-01-24 04:33:14.98	82.50	79.28	-25.7	-25.0	16.1	0	69	4564
2026-01-24 04:33:15.39	83.53	79.36	-25.6	-24.9	16.1	0	69	4537
2026-01-24 04:33:15.79	84.54	79.44	-25.4	-24.5	16.3	0	69	4423
2026-01-24 04:33:16.19	85.57	79.52	-25.3	-24.3	16.4	0	69	4381
2026-01-24 04:33:16.59	86.62	79.59	-25.3	-24.7	16.5	0	68	4618
2026-01-24 04:33:16.99	87.68	79.66	-25.2	-24.5	16.6	0	68	4559
2026-01-24 04:33:17.40	88.79	79.73	-25.2	-24.4	16.6	0	68	4537
2026-01-24 04:33:17.80	89.88	79.79	-25.0	-24.1	16.8	0	68	4446
2026-01-24 04:33:18.20	90.98	79.85	-24.8	-23.7	17.0	0	68	4332
2026-01-24 04:33:18.60	92.10	79.91	-24.5	-23.6	17.0	0	67	4437
2026-01-24 04:33:19.00	93.22	79.96	-24.3	-23.3	17.2	0	67	4362
2026-01-24 04:33:19.40	94.36	80.01	-24.3	-23.8	17.2	0	66	4627
2026-01-24 04:33:19.81	95.54	80.05	-24.2	-23.5	17.4	0	66	4551
2026-01-24 04:33:20.21	96.70	80.09	-24.3	-23.7	17.3	0	66	4609
2026-01-24 04:33:20.61	97.87	80.13	-24.4	-23.9	17.3	0	66	4661
2026-01-24 04:33:21.01	99.05	80.16	-24.6	-24.3	17.1	0	66	4756
2026-01-24 04:33:21.41	100.24	80.19	-24.8	-24.7	16.9	0	66	4880
2026-01-24 04:33:21.82	101.46	80.21	-24.9	-25.1	16.7	0	66	4987
2026-01-24 04:33:22.22	102.65	80.23	-24.9	-24.4	16.6	0	67	4657
2026-01-24 04:33:22.62	103.85	80.24	-24.9	-24.6	16.5	0	67	4713
2026-01-24 04:33:23.02	105.06	80.25	-24.9	-24.5	16.5	0	67	4687
2026-01-24 04:33:23.42	106.26	80.26	-24.7	-24.1	16.7	0	67	4604
2026-01-24 04:33:23.82	107.47	80.26	-24.7	-24.1	16.8	0	67	4583
2026-01-24 04:33:24.23	108.71	80.26	-24.6	-23.9	16.9	0	67	4542
2026-01-24 04:33:24.63	109.91	80.25	-24.6	-23.9	16.9	0	67	4523
2026-01-24 04:33:25.03	111.12	80.24	-24.6	-23.8	17.0	0	67	4507
2026-01-24 04:33:25.43	112.32	80.23	-24.6	-23.9	16.9	0	67	4532
2026-01-24 04:33:25.83	113.51	80.21	-24.6	-23.8	17.0	0	67	4510
2026-01-24 04:33:26.23	114.71	80.19	-24.5	-23.7	17.0	0	67	4468
2026-01-24 04:33:26.63	115.89	80.16	-24.4	-23.5	17.1	0	67	4439
2026-01-24 04:33:27.04	117.10	80.13	-24.3	-23.3	17.1	0	67	4374
2026-01-24 04:33:27.44	118.27	80.09	-24.4	-23.5	17.0	0	67	4420
2026-01-24 04:33:27.84	119.43	80.05	-24.5	-23.7	17.0	0	67	4483
2026-01-24 04:33:28.24	120.58	80.01	-24.6	-23.9	16.8	0	67	4538
2026-01-24 04:33:28.64	121.72	79.96	-24.8	-24.2	16.7	0	67	4599
2026-01-24 04:33:29.04	122.85	79.91	-24.6	-23.8	16.9	0	67	4498
2026-01-24 04:33:29.44	123.97	79.85	-24.4	-23.5	17.1	0	67	4407
2026-01-24 04:33:29.85	125.10	79.79	-24.3	-23.8	17.3	0	66	4613
2026-01-24 04:33:30.25	126.19	79.73	-24.2	-23.5	17.3	0	66	4556
2026-01-24 04:33:30.65	127.26	79.67	-24.1	-23.3	17.4	0	66	4500
2026-01-24 04:33:31.05	128.33	79.60	-24.1	-23.3	17.4	0	66	4490
2026-01-24 04:33:31.45	129.38	79.52	-24.1	-23.3	17.4	0	66	4482
2026-01-24 04:33:31.85	130.41	79.45	-24.2	-23.5	17.3	0	66	4554
2026-01-24 04:33:32.26	131.45	79.36	-24.3	-23.7	17.1	0	66	4613
2026-01-24 04:33:32.66	132.45	79.28	-24.4	-24.0	17.0	0	66	4700
2026-01-24 04:33:33.06	133.44	79.20	-24.6	-24.4	16.8	0	66	4816
2026-01-24 04:33:33.46	134.41	79.11	-24.7	-24.6	16.8	0	66	4864
2026-01-24 04:33:33.86	135.36	79.01	-24.8	-24.8	16.7	0	66	4915
2026-01-24 04:33:34.26	136.30	78.92	-24.9	-25.0	16.6	0	66	4964
2026-01-24 04:33:34.67	137.24	78.82	-25.0	-24.6	16.5	0	67	4725
2026-01-24 04:33:35.07	138.14	78.72	-24.9	-24.5	16.6	0	67	4694
2026-01-24 04:33:35.47	139.03	78.62	-25.1	-24.9	16.4	0	67	4823
2026-01-24 04:33:35.87	139.90	78.51	-25.0	-24.8	16.4	0	67	4804
2026-01-24 04:33:36.27	140.75	78.40	-25.2	-25.1	16.4	0	67	4861
2026-01-24 04:33:36.67	141.59	78.29	-25.1	-25.0	16.4	0	67	4845
2026-01-24 04:33:37.08	142.43	78.18	-25.1	-25.0	16.4	0	67	4854
2026-01-24 04:33:37.48	143.24	78.06	-25.1	-25.0	16.5	0	67	4846
2026-01-24 04:33:37.88	144.03	77.94	-25.2	-25.1	16.5	0	67	4867
2026-01-24 04:33:38.28	144.80	77.82	-25.2	-25.1	16.5	0	67	4889
2026-01-24 04:33:38.68	145.56	77.70	-25.4	-25.6	16.3	0	67	5009
2026-01-24 04:33:39.08	146.30	77.58	-25.9	-26.1	16.0	0	68	5018
2026-01-24 04:33:39.49	147.05	77.45	-25.9	-25.6	15.9	0	69	4723
2026-01-24 04:33:39.89	147.76	77.32	-26.1	-26.0	15.8	0	69	4840
2026-01-24 04:33:40.29	148.46	77.19	-26.1	-26.0	15.9	0	69	4830
2026-01-24 04:33:40.69	149.14	77.06	-26.4	-26.5	15.6	0	69	4986
2026-01-24 04:33:41.09	149.81	76.93	-26.5	-26.2	15.5	0	70	4774
2026-01-24 04:33:41.49	150.47	76.80	-26.4	-26.0	15.7	0	70	4715
2026-01-24 04:33:41.90	151.12	76.66	-26.4	-26.0	15.7	0	70	4711
2026-01-24 04:33:42.30	151.75	76.52	-26.4	-26.1	15.6	0	70	4726
2026-01-24 04:33:42.70	152.37	76.38	-26.6	-26.3	15.4	0	70	4803
2026-01-24 04:33:43.10	152.97	76.24	-26.7	-26.7	15.2	0	70	4910
2026-01-24 04:33:43.50	153.56	76.10	-26.7	-26.6	15.2	0	70	4876
2026-01-24 04:33:43.91	154.15	75.96	-26.7	-26.5	15.3	0	70	4846
2026-01-24 04:33:44.31	154.72	75.81	-26.6	-26.5	15.3	0	70	4845
2026-01-24 04:33:44.71	155.27	75.67	-26.8	-26.7	15.1	0	70	4896
2026-01-24 04:33:45.11	155.81	75.52	-26.7	-26.5	15.2	0	70	4830
2026-01-24 04:33:45.51	156.34	75.38	-26.8	-26.8	15.0	0	70	4898
2026-01-24 04:33:45.91	156.86	75.23	-27.0	-27.1	14.8	0	70	5011
2026-01-24 04:33:46.32	157.39	75.08	-26.9	-26.5	14.6	0	71	4703
2026-01-24 04:33:46.72	157.89	74.93	-27.1	-26.8	14.5	0	71	4786
2026-01-24 04:33:47.12	158.37	74.78	-27.3	-27.3	14.3	22	71	4905
2026-01-24 04:33:47.52	158.85	74.63	-27.3	-27.2	14.3	0	71	4895
2026-01-24 04:33:47.92	159.32	74.47	-27.2	-27.1	14.4	0	71	4844
2026-01-24 04:33:48.32	159.78	74.32	-27.0	-26.7	14.5	11	71	4736
2026-01-24 04:33:48.73	160.24	74.16	-27.0	-26.6	14.6	11	71	4727
2026-01-24 04:33:49.13	160.68	74.01	-26.8	-26.4	14.7	11	71	4658
2026-01-24 04:33:49.53	161.12	73.85	-27.0	-26.7	14.5	11	71	4759
2026-01-24 04:33:49.93	161.54	73.70	-26.9	-26.6	14.6	0	71	4713
2026-01-24 04:33:50.33	161.96	73.54	-27.3	-27.3	14.2	11	71	4913
2026-01-24 04:33:50.73	162.36	73.38	-27.7	-27.6	14.0	22	72	4868
2026-01-24 04:33:51.14	162.77	73.22	-27.8	-27.9	13.8	45	72	4945
2026-01-24 04:33:51.54	163.16	73.06	-28.0	-27.7	13.6	57	73	4749
2026-01-24 04:33:51.94	163.55	72.91	-28.1	-27.9	13.4	148	73	4820
2026-01-24 04:33:52.34	163.92	72.75	-28.2	-28.1	13.3	251	73	4871
2026-01-24 04:33:52.74	164.29	72.59	-28.4	-28.5	13.1	366	73	5000
2026-01-24 04:33:53.14	164.65	72.43	-28.3	-28.3	13.3	263	73	4924
2026-01-24 04:33:53.55	165.02	72.26	-28.6	-28.4	13.0	480	74	4821
2026-01-24 04:33:53.95	165.37	72.10	-28.6	-28.4	13.0	411	74	4821
2026-01-24 04:33:54.35	165.71	71.94	-28.6	-28.5	13.0	537	74	4842
2026-01-24 04:33:54.75	166.04	71.78	-28.6	-28.3	13.0	549	74	4792
2026-01-24 04:33:55.15	166.37	71.62	-28.7	-28.6	12.9	457	74	4896
2026-01-24 04:33:55.56	166.70	71.45	-28.4	-28.0	13.1	480	74	4684
2026-01-24 04:33:55.96	167.02	71.29	-28.4	-28.0	13.1	366	74	4682
2026-01-24 04:33:56.36	167.33	71.12	-28.4	-27.9	13.1	366	74	4662
2026-01-24 04:33:56.76	167.64	70.96	-28.5	-28.2	13.0	400	74	4741
2026-01-24 04:33:57.16	167.94	70.80	-28.6	-28.3	12.9	354	74	4755
2026-01-24 04:33:57.56	168.23	70.63	-28.6	-28.3	12.8	595	74	4771
2026-01-24 04:33:57.97	168.53	70.47	-28.7	-28.5	12.7	640	74	4822
2026-01-24 04:33:58.37	168.81	70.30	-38.0	-41.5	3.6	59371	93	7355
2026-01-24 04:33:58.77	169.09	70.14	-38.4	-41.8	3.4	8433368	93	7240

#Closed at: 2026-01-24 04:33:59