passes_logs/2025/01/14/LEX_Murmansk/LEX_Murmansk__20250114_141501_NOAA_19_rec.log

#Pass ID: 20250114_141501_NOAA 19
#Satellite: NOAA 19
#Configuration: NOAA 19
#Start time: 2025-01-14 14:14:56.176211

#LorettStation: 1.0.0 05.05.2024
#Station: LEX_Murmansk
#Location: 33.156738 lon 68.926811 lat
#TLE: 1 33591U 09005A   25014.15453959  .00000276  00000+0  17122-3 0  9998
#TLE: 2 33591  99.0198  77.9105 0014501  59.8090 300.4516 14.13258688821422

#Time	Az	El	Level	SNR
2025-01-14 14:15:49.549823	50.3	19.1	-90.3	10.4
2025-01-14 14:15:50.712338	50.1	19.2	-90.0	8.8
2025-01-14 14:15:51.860487	49.8	19.3	-90.0	8.8
2025-01-14 14:15:53.027498	49.6	19.4	-90.1	7.7
2025-01-14 14:15:54.191503	49.4	19.4	-90.2	6.0
2025-01-14 14:15:55.352495	49.2	19.5	-90.3	3.3
2025-01-14 14:15:56.514682	48.9	19.6	-90.0	5.1
2025-01-14 14:15:57.674672	48.7	19.7	-90.0	2.9
2025-01-14 14:15:58.835155	48.5	19.8	-90.1	2.9
2025-01-14 14:16:00.009299	48.2	19.9	-89.8	4.2
2025-01-14 14:16:01.171321	48.0	20.0	-89.7	6.8
2025-01-14 14:16:02.323158	47.8	20.1	-90.1	6.1
2025-01-14 14:16:03.486226	47.5	20.1	-90.4	7.6
2025-01-14 14:16:04.646205	47.3	20.2	-90.0	9.9
2025-01-14 14:16:05.811245	47.0	20.3	-90.3	8.4
2025-01-14 14:16:06.975093	46.8	20.4	-90.4	6.0
2025-01-14 14:16:08.139704	46.6	20.5	-90.2	7.0
2025-01-14 14:16:09.301064	46.3	20.6	-90.2	3.9
2025-01-14 14:16:10.460149	46.1	20.6	-90.2	4.7
2025-01-14 14:16:11.626393	45.8	20.7	-90.3	8.7
2025-01-14 14:16:12.783438	45.6	20.8	-90.4	7.2
2025-01-14 14:16:13.947874	45.3	20.9	-90.1	11.2
2025-01-14 14:16:15.106961	45.1	21.0	-89.4	10.5
2025-01-14 14:16:16.272845	44.8	21.1	-89.9	9.4
2025-01-14 14:16:17.430869	44.6	21.1	-90.2	8.7
2025-01-14 14:16:18.599750	44.3	21.2	-89.8	6.0
2025-01-14 14:16:19.765785	44.1	21.3	-90.0	5.4
2025-01-14 14:16:20.929344	43.8	21.4	-90.1	4.2
2025-01-14 14:16:22.083375	43.6	21.5	-89.7	4.6
2025-01-14 14:16:23.249092	43.3	21.6	-90.1	1.9
2025-01-14 14:16:24.413382	43.0	21.6	-89.9	3.6
2025-01-14 14:16:25.578025	42.8	21.7	-89.9	5.5
2025-01-14 14:16:26.742057	42.5	21.8	-90.0	8.0
2025-01-14 14:16:27.902109	42.2	21.9	-90.0	7.5
2025-01-14 14:16:29.068782	42.0	22.0	-90.0	10.3
2025-01-14 14:16:30.232721	41.7	22.0	-90.1	9.6
2025-01-14 14:16:31.399037	41.4	22.1	-89.9	8.5
2025-01-14 14:16:32.549226	41.2	22.2	-89.7	9.8
2025-01-14 14:16:33.669734	40.9	22.3	-90.0	5.5
2025-01-14 14:16:34.801972	40.6	22.3	-90.2	5.0
2025-01-14 14:16:35.927995	40.4	22.4	-89.8	8.3
2025-01-14 14:16:37.081997	40.1	22.5	-90.0	8.1
2025-01-14 14:16:38.242264	39.8	22.6	-90.1	6.3
2025-01-14 14:16:39.404964	39.5	22.6	-90.1	6.3
2025-01-14 14:16:40.577668	39.3	22.7	-90.1	8.9
2025-01-14 14:16:41.740218	39.0	22.8	-89.8	8.1
2025-01-14 14:16:42.899813	38.7	22.9	-89.9	8.9
2025-01-14 14:16:44.065096	38.4	22.9	-90.2	12.6
2025-01-14 14:16:45.228896	38.1	23.0	-90.3	8.5
2025-01-14 14:16:46.393085	37.8	23.1	-90.1	7.6
2025-01-14 14:16:47.558249	37.6	23.1	-90.5	5.9
2025-01-14 14:16:48.720533	37.3	23.2	-90.2	3.0
2025-01-14 14:16:49.882418	37.0	23.3	-90.5	4.3
2025-01-14 14:16:51.047051	36.7	23.3	-90.1	3.1
2025-01-14 14:16:52.206108	36.4	23.4	-90.1	1.8
2025-01-14 14:16:53.365581	36.1	23.5	-90.2	4.8
2025-01-14 14:16:54.526727	35.8	23.5	-90.2	4.7
2025-01-14 14:16:55.682430	35.5	23.6	-90.0	6.1
2025-01-14 14:16:56.849993	35.2	23.7	-90.1	8.4
2025-01-14 14:16:58.014584	34.9	23.7	-90.3	7.7
2025-01-14 14:16:59.181189	34.6	23.8	-90.1	12.2
2025-01-14 14:17:00.343403	34.3	23.9	-90.5	7.8
2025-01-14 14:17:01.509479	34.0	23.9	-90.5	8.6
2025-01-14 14:17:02.669832	33.7	24.0	-90.5	6.7
2025-01-14 14:17:03.828371	33.4	24.1	-90.6	6.9
2025-01-14 14:17:04.982449	33.1	24.1	-90.3	6.2
2025-01-14 14:17:06.141403	32.8	24.2	-90.5	8.9
2025-01-14 14:17:07.301694	32.5	24.2	-90.6	4.7
2025-01-14 14:17:08.461923	32.2	24.3	-90.0	6.7
2025-01-14 14:17:09.624999	31.9	24.4	-90.6	9.5
2025-01-14 14:17:10.786146	31.5	24.4	-90.2	4.1
2025-01-14 14:17:11.954743	31.2	24.5	-89.8	6.7
2025-01-14 14:17:13.114696	30.9	24.5	-90.0	10.5
2025-01-14 14:17:14.285059	30.6	24.6	-89.9	9.3
2025-01-14 14:17:15.446505	30.3	24.6	-89.9	10.4
2025-01-14 14:17:16.609731	30.0	24.7	-90.2	9.1
2025-01-14 14:17:17.770612	29.6	24.7	-90.3	10.0
2025-01-14 14:17:18.931570	29.3	24.8	-90.2	6.3
2025-01-14 14:17:20.091733	29.0	24.8	-90.2	5.5
2025-01-14 14:17:21.255008	28.7	24.9	-90.4	3.5
2025-01-14 14:17:22.421358	28.4	24.9	-90.5	3.2
2025-01-14 14:17:23.586144	28.0	25.0	-90.1	6.1
2025-01-14 14:17:24.750138	27.7	25.0	-90.2	2.8
2025-01-14 14:17:25.909530	27.4	25.1	-89.9	5.3
2025-01-14 14:17:27.072417	27.1	25.1	-90.2	5.6
2025-01-14 14:17:28.255582	26.7	25.2	-90.0	4.4
2025-01-14 14:17:29.413117	26.4	25.2	-90.4	3.4
2025-01-14 14:17:30.575922	26.1	25.2	-89.7	6.1
2025-01-14 14:17:31.739239	25.7	25.3	-89.4	3.5
2025-01-14 14:17:32.894794	25.4	25.3	-89.6	7.8
2025-01-14 14:17:34.058637	25.1	25.4	-90.5	6.8
2025-01-14 14:17:35.221351	24.7	25.4	-90.3	12.7
2025-01-14 14:17:36.386418	24.4	25.4	-90.2	11.0
2025-01-14 14:17:37.547685	24.1	25.5	-90.2	9.8
2025-01-14 14:17:38.708982	23.7	25.5	-90.1	11.4
2025-01-14 14:17:39.875357	23.4	25.5	-90.4	7.1
2025-01-14 14:17:41.044172	23.1	25.6	-90.5	8.1
2025-01-14 14:17:42.208687	22.7	25.6	-90.4	4.5
2025-01-14 14:17:43.373986	22.4	25.6	-90.4	5.2
2025-01-14 14:17:44.534865	22.1	25.7	-90.2	8.5
2025-01-14 14:17:45.706381	21.7	25.7	-90.3	5.0
2025-01-14 14:17:46.872051	21.4	25.7	-90.5	4.9
2025-01-14 14:17:48.035791	21.0	25.7	-90.6	3.3
2025-01-14 14:17:49.202884	20.7	25.8	-90.2	4.5
2025-01-14 14:17:50.362428	20.3	25.8	-90.2	2.9
2025-01-14 14:17:51.532881	20.0	25.8	-90.1	6.2
2025-01-14 14:17:52.685119	19.7	25.8	-90.2	7.0
2025-01-14 14:17:53.851044	19.3	25.9	-90.3	6.8
2025-01-14 14:17:55.010706	19.0	25.9	-90.1	7.5
2025-01-14 14:17:56.169550	18.6	25.9	-89.9	8.9
2025-01-14 14:17:57.339206	18.3	25.9	-90.0	10.7
2025-01-14 14:17:58.498506	17.9	25.9	-89.6	7.6
2025-01-14 14:17:59.661255	17.6	25.9	-89.8	7.7
2025-01-14 14:18:00.817926	17.3	25.9	-89.8	8.2
2025-01-14 14:18:01.981891	16.9	26.0	-89.9	10.9
2025-01-14 14:18:03.136296	16.6	26.0	-90.0	9.8
2025-01-14 14:18:04.296913	16.2	26.0	-89.9	8.1
2025-01-14 14:18:05.461054	15.9	26.0	-89.9	10.0
2025-01-14 14:18:06.623810	15.5	26.0	-89.9	3.0
2025-01-14 14:18:07.788861	15.2	26.0	-89.8	4.6
2025-01-14 14:18:08.966547	14.8	26.0	-90.4	7.4
2025-01-14 14:18:10.131835	14.5	26.0	-90.3	5.3
2025-01-14 14:18:11.296154	14.1	26.0	-90.3	2.8
2025-01-14 14:18:12.457980	13.8	26.0	-90.1	4.3
2025-01-14 14:18:13.616481	13.5	26.0	-89.9	5.0
2025-01-14 14:18:14.778005	13.1	26.0	-89.9	3.7
2025-01-14 14:18:15.947418	12.8	26.0	-90.3	1.8
2025-01-14 14:18:17.105242	12.4	26.0	-90.1	4.2
2025-01-14 14:18:18.267457	12.1	26.0	-90.1	2.8
2025-01-14 14:18:19.428988	11.7	26.0	-90.4	3.7
2025-01-14 14:18:20.596523	11.4	26.0	-90.2	3.2
2025-01-14 14:18:21.755030	11.0	26.0	-90.3	3.2
2025-01-14 14:18:22.914400	10.7	26.0	-89.8	5.6
2025-01-14 14:18:24.081877	10.3	26.0	-90.2	5.8
2025-01-14 14:18:25.246167	10.0	26.0	-89.8	2.7
2025-01-14 14:18:26.407275	9.6	26.0	-90.3	4.5
2025-01-14 14:18:27.581544	9.3	25.9	-89.8	5.6
2025-01-14 14:18:28.750412	9.0	25.9	-90.1	3.6
2025-01-14 14:18:29.911612	8.6	25.9	-89.9	6.1
2025-01-14 14:18:31.076470	8.3	25.9	-90.2	7.7
2025-01-14 14:18:32.240583	7.9	25.9	-90.3	5.0
2025-01-14 14:18:33.404666	7.6	25.9	-90.3	5.5
2025-01-14 14:18:34.568395	7.2	25.8	-90.1	6.8
2025-01-14 14:18:35.726848	6.9	25.8	-90.4	3.9
2025-01-14 14:18:36.892137	6.6	25.8	-90.4	5.9
2025-01-14 14:18:38.055551	6.2	25.8	-90.4	6.8
2025-01-14 14:18:39.218972	5.9	25.8	-90.2	7.1
2025-01-14 14:18:40.379414	5.5	25.7	-90.4	3.7
2025-01-14 14:18:41.542798	5.2	25.7	-89.9	5.0
2025-01-14 14:18:42.701485	4.9	25.7	-90.6	6.2
2025-01-14 14:18:43.868807	4.5	25.6	-90.4	6.8
2025-01-14 14:18:45.032438	4.2	25.6	-90.6	6.3
2025-01-14 14:18:46.199704	3.8	25.6	-90.5	10.5
2025-01-14 14:18:47.368956	3.5	25.6	-89.8	7.8
2025-01-14 14:18:48.528711	3.2	25.5	-90.3	9.3
2025-01-14 14:18:49.695857	2.8	25.5	-90.2	9.2
2025-01-14 14:18:50.855709	2.5	25.5	-90.2	8.0
2025-01-14 14:18:52.021671	2.2	25.4	-89.9	9.4
2025-01-14 14:18:53.181124	1.8	25.4	-90.3	8.9
2025-01-14 14:18:54.344227	1.5	25.3	-90.4	9.5
2025-01-14 14:18:55.502606	1.2	25.3	-90.3	8.9
2025-01-14 14:18:56.667858	0.8	25.3	-90.6	9.8
2025-01-14 14:18:57.834742	0.5	25.2	-90.0	7.8
2025-01-14 14:18:58.999443	0.2	25.2	-90.3	7.9
2025-01-14 14:19:00.161552	359.8	25.1	-90.2	8.5
2025-01-14 14:19:01.331936	359.5	25.1	-90.1	10.8
2025-01-14 14:19:02.488763	359.2	25.1	-90.1	11.3
2025-01-14 14:19:03.652271	358.9	25.0	-90.0	7.3
2025-01-14 14:19:04.815962	358.5	25.0	-90.1	10.4
2025-01-14 14:19:05.980053	358.2	24.9	-89.9	8.6
2025-01-14 14:19:07.147189	357.9	24.9	-89.9	8.3
2025-01-14 14:19:08.313482	357.6	24.8	-90.0	12.4
2025-01-14 14:19:09.473458	357.3	24.8	-90.1	11.7
2025-01-14 14:19:10.634539	356.9	24.7	-90.6	12.8
2025-01-14 14:19:11.797992	356.6	24.7	-90.4	11.8
2025-01-14 14:19:12.956617	356.3	24.6	-90.2	14.2
2025-01-14 14:19:14.120741	356.0	24.6	-90.5	14.0
2025-01-14 14:19:15.287571	355.7	24.5	-90.5	14.2
2025-01-14 14:19:16.450747	355.4	24.4	-90.4	10.7
2025-01-14 14:19:17.612348	355.0	24.4	-90.5	13.5
2025-01-14 14:19:18.779956	354.7	24.3	-90.4	11.9
2025-01-14 14:19:19.943809	354.4	24.3	-90.3	12.8
2025-01-14 14:19:21.116892	354.1	24.2	-90.3	11.4
2025-01-14 14:19:22.275400	353.8	24.2	-90.4	11.8
2025-01-14 14:19:23.439192	353.5	24.1	-90.9	12.9
2025-01-14 14:19:24.602316	353.2	24.0	-90.5	15.3
2025-01-14 14:19:25.766350	352.9	24.0	-90.4	14.0
2025-01-14 14:19:26.932186	352.6	23.9	-90.1	10.8
2025-01-14 14:19:28.096084	352.3	23.8	-90.3	11.0
2025-01-14 14:19:29.259482	352.0	23.8	-90.3	10.4
2025-01-14 14:19:30.424320	351.7	23.7	-90.2	7.8
2025-01-14 14:19:31.591207	351.4	23.7	-90.1	4.4
2025-01-14 14:19:32.752790	351.1	23.6	-89.7	6.5
2025-01-14 14:19:33.911728	350.8	23.5	-89.9	8.8
2025-01-14 14:19:35.079551	350.5	23.5	-90.1	7.8
2025-01-14 14:19:36.202458	350.2	23.4	-90.3	9.6
2025-01-14 14:19:37.323018	349.9	23.3	-90.4	8.2
2025-01-14 14:19:38.443681	349.6	23.3	-90.5	10.8
2025-01-14 14:19:39.565035	349.4	23.2	-90.3	9.3
2025-01-14 14:19:40.685880	349.1	23.1	-90.3	6.1
2025-01-14 14:19:41.805668	348.8	23.1	-90.5	8.2
2025-01-14 14:19:42.927011	348.5	23.0	-90.2	5.7
2025-01-14 14:19:44.055987	348.3	22.9	-90.3	7.3
2025-01-14 14:19:45.200866	348.0	22.8	-90.3	4.8
2025-01-14 14:19:46.357794	347.7	22.8	-90.2	4.4
2025-01-14 14:19:47.519223	347.4	22.7	-90.4	3.8
2025-01-14 14:19:48.681027	347.1	22.6	-89.9	3.8
2025-01-14 14:19:49.842445	346.9	22.6	-90.1	3.7
2025-01-14 14:19:51.001504	346.6	22.5	-90.2	5.6
2025-01-14 14:19:52.172190	346.3	22.4	-90.4	3.7
2025-01-14 14:19:53.326457	346.0	22.3	-90.6	3.9
2025-01-14 14:19:54.489803	345.8	22.3	-90.3	5.8
2025-01-14 14:19:55.654853	345.5	22.2	-90.3	4.7
2025-01-14 14:19:56.816745	345.2	22.1	-90.2	3.2
2025-01-14 14:19:57.979497	345.0	22.0	-90.1	3.9
2025-01-14 14:19:59.143412	344.7	21.9	-90.0	6.0
2025-01-14 14:20:00.306516	344.4	21.9	-89.9	4.7
2025-01-14 14:20:01.475389	344.2	21.8	-89.9	4.7
2025-01-14 14:20:02.641799	343.9	21.7	-89.8	5.3
2025-01-14 14:20:03.805920	343.6	21.6	-89.6	2.3
2025-01-14 14:20:04.965152	343.4	21.5	-89.7	5.4
2025-01-14 14:20:06.126825	343.1	21.5	-89.8	5.7
2025-01-14 14:20:07.292773	342.9	21.4	-90.1	5.5
2025-01-14 14:20:08.456082	342.6	21.3	-90.6	5.9
2025-01-14 14:20:09.624296	342.4	21.2	-90.8	5.0
2025-01-14 14:20:10.784052	342.1	21.1	-90.6	5.0
2025-01-14 14:20:11.949176	341.8	21.1	-90.8	6.8
2025-01-14 14:20:13.113091	341.6	21.0	-90.2	4.3
2025-01-14 14:20:14.273480	341.3	20.9	-90.0	7.2
2025-01-14 14:20:15.434312	341.1	20.8	-90.3	3.9
2025-01-14 14:20:16.597532	340.9	20.7	-90.3	4.8
2025-01-14 14:20:17.763089	340.6	20.6	-90.7	7.8
2025-01-14 14:20:18.927214	340.4	20.6	-90.5	8.3
2025-01-14 14:20:20.090238	340.1	20.5	-90.1	9.0
2025-01-14 14:20:21.259173	339.9	20.4	-90.5	6.9
2025-01-14 14:20:22.417398	339.6	20.3	-90.5	5.8
2025-01-14 14:20:23.574253	339.4	20.2	-90.7	5.6
2025-01-14 14:20:24.739338	339.2	20.1	-90.6	1.6
2025-01-14 14:20:25.904215	338.9	20.0	-90.3	3.9
2025-01-14 14:20:27.060457	338.7	20.0	-90.3	1.8
2025-01-14 14:20:28.223512	338.5	19.9	-90.4	1.8
2025-01-14 14:20:29.389422	338.2	19.8	-90.9	2.6
2025-01-14 14:20:30.557838	338.0	19.7	-90.6	3.4
2025-01-14 14:20:31.714247	337.8	19.6	-90.5	3.4
2025-01-14 14:20:32.881167	337.5	19.5	-90.8	2.2
2025-01-14 14:20:34.042261	337.3	19.4	-90.5	1.7
2025-01-14 14:20:35.206432	337.1	19.4	-90.3	1.8
2025-01-14 14:20:36.373724	336.9	19.3	-90.8	2.3
2025-01-14 14:20:37.539950	336.6	19.2	-90.5	1.3
2025-01-14 14:20:38.704527	336.4	19.1	-90.4	2.5
2025-01-14 14:20:39.868261	336.2	19.0	-90.5	3.0
2025-01-14 14:20:41.032699	336.0	18.9	-90.3	3.7
2025-01-14 14:20:42.197610	335.8	18.8	-90.0	3.4
2025-01-14 14:20:43.355854	335.5	18.7	-90.1	4.3
2025-01-14 14:20:44.520126	335.3	18.6	-90.3	4.2
2025-01-14 14:20:45.682848	335.1	18.6	-90.2	3.5
2025-01-14 14:20:46.850282	334.9	18.5	-90.3	4.2
2025-01-14 14:20:48.012767	334.7	18.4	-90.3	1.3
2025-01-14 14:20:49.174808	334.5	18.3	-90.3	4.8
2025-01-14 14:20:50.338757	334.3	18.2	-90.3	2.2
2025-01-14 14:20:51.498091	334.1	18.1	-90.5	2.1
2025-01-14 14:20:52.659244	333.9	18.0	-90.5	0.8
2025-01-14 14:20:53.823678	333.7	17.9	-90.8	2.5
2025-01-14 14:20:54.989856	333.5	17.9	-90.2	3.3
2025-01-14 14:20:56.157703	333.2	17.8	-90.2	3.3
2025-01-14 14:20:57.318775	333.0	17.7	-90.1	3.0
2025-01-14 14:20:58.481592	332.8	17.6	-90.4	1.8
2025-01-14 14:20:59.650219	332.6	17.5	-90.4	3.7
2025-01-14 14:21:00.812728	332.4	17.4	-90.5	1.4
2025-01-14 14:21:01.979898	332.3	17.3	-90.6	2.0
2025-01-14 14:21:03.142366	332.1	17.2	-90.5	2.5
2025-01-14 14:21:04.297895	331.9	17.1	-90.6	1.7
2025-01-14 14:21:05.465003	331.7	17.0	-90.7	3.1
2025-01-14 14:21:06.628775	331.5	17.0	-90.0	3.1
2025-01-14 14:21:07.789608	331.3	16.9	-90.2	0.7
2025-01-14 14:21:08.954121	331.1	16.8	-90.0	2.5
2025-01-14 14:21:10.121124	330.9	16.7	-90.2	3.2
2025-01-14 14:21:11.281620	330.7	16.6	-88.8	0.6
2025-01-14 14:21:12.445439	330.5	16.5	-90.4	2.9
2025-01-14 14:21:13.611383	330.3	16.4	-90.2	2.9
2025-01-14 14:21:14.772471	330.2	16.3	-90.0	2.3
2025-01-14 14:21:15.935820	330.0	16.2	-90.2	2.3
2025-01-14 14:21:17.095122	329.8	16.2	-90.3	2.5
2025-01-14 14:21:18.260862	329.6	16.1	-90.1	2.4
2025-01-14 14:21:19.422389	329.4	16.0	-90.8	3.8
2025-01-14 14:21:20.586851	329.3	15.9	-90.8	3.1
2025-01-14 14:21:21.859096	329.1	15.8	-90.3	0.0
2025-01-14 14:21:23.022822	328.9	15.7	-90.4	2.0
2025-01-14 14:21:24.182793	328.7	15.6	-90.5	1.6
2025-01-14 14:21:25.354352	328.5	15.5	-90.6	3.0
2025-01-14 14:21:26.517090	328.4	15.4	-90.5	3.3
2025-01-14 14:21:27.679091	328.2	15.3	-90.7	2.3
2025-01-14 14:21:28.841649	328.0	15.3	-90.5	3.4
2025-01-14 14:21:30.005817	327.9	15.2	-90.5	1.1
2025-01-14 14:21:31.185145	327.7	15.1	-90.9	2.9
2025-01-14 14:21:32.349710	327.5	15.0	-90.5	2.3
2025-01-14 14:21:33.508505	327.3	14.9	-90.3	3.4
2025-01-14 14:21:34.671017	327.2	14.8	-90.4	6.9
2025-01-14 14:21:35.830526	327.0	14.7	-90.5	6.0
2025-01-14 14:21:36.996872	326.9	14.6	-90.4	7.7
#Closed at: 2025-01-14 14:15:01.225099