passes_logs/2025/01/14/LEX_Murmansk/LEX_Murmansk__20250114_191522_NOAA_19_rec.log

#Pass ID: 20250114_191522_NOAA 19
#Satellite: NOAA 19
#Configuration: NOAA 19
#Start time: 2025-01-14 19:15:17.866429

#LorettStation: 1.0.0 05.05.2024
#Station: LEX_Murmansk
#Location: 33.156738 lon 68.926811 lat
#TLE: 1 33591U 09005A   25014.15453959  .00000276  00000+0  17122-3 0  9998
#TLE: 2 33591  99.0198  77.9105 0014501  59.8090 300.4516 14.13258688821422

#Time	Az	El	Level	SNR
2025-01-14 19:15:30.128534	203.1	16.1	-91.9	3.9
2025-01-14 19:15:31.298362	203.2	16.3	-92.2	5.6
2025-01-14 19:15:32.453254	203.4	16.4	-92.2	4.4
2025-01-14 19:15:33.607145	203.5	16.5	-92.0	4.0
2025-01-14 19:15:34.759160	203.6	16.6	-92.1	2.2
2025-01-14 19:15:35.920799	203.8	16.7	-92.2	3.7
2025-01-14 19:15:37.085447	203.9	16.8	-92.2	5.1
2025-01-14 19:15:38.247423	204.0	16.9	-92.0	4.5
2025-01-14 19:15:39.410104	204.2	17.0	-92.0	2.0
2025-01-14 19:15:40.569893	204.3	17.2	-91.7	2.1
2025-01-14 19:15:41.732223	204.5	17.3	-92.3	4.1
2025-01-14 19:15:42.888376	204.6	17.4	-92.2	2.0
2025-01-14 19:15:44.052385	204.8	17.5	-92.3	3.2
2025-01-14 19:15:45.213490	204.9	17.6	-92.4	0.6
2025-01-14 19:15:46.374218	205.0	17.7	-92.1	1.1
2025-01-14 19:15:47.541434	205.2	17.8	-92.2	4.5
2025-01-14 19:15:48.709038	205.3	18.0	-92.1	4.9
2025-01-14 19:15:49.870457	205.5	18.1	-92.1	1.7
2025-01-14 19:15:51.035208	205.6	18.2	-91.8	3.1
2025-01-14 19:15:52.191830	205.8	18.3	-92.3	3.3
2025-01-14 19:15:53.358334	205.9	18.4	-92.4	2.9
2025-01-14 19:15:54.516855	206.1	18.5	-92.1	3.9
2025-01-14 19:15:55.672168	206.3	18.7	-92.1	2.3
2025-01-14 19:15:56.833314	206.4	18.8	-92.3	4.4
2025-01-14 19:15:57.993473	206.6	18.9	-92.5	4.9
2025-01-14 19:15:59.148768	206.7	19.0	-92.1	4.1
2025-01-14 19:16:00.311746	206.9	19.1	-92.0	3.0
2025-01-14 19:16:01.475303	207.0	19.3	-92.2	1.8
2025-01-14 19:16:02.639289	207.2	19.4	-92.3	3.2
2025-01-14 19:16:03.797697	207.4	19.5	-92.3	3.5
2025-01-14 19:16:04.961160	207.5	19.6	-92.3	5.0
2025-01-14 19:16:06.122801	207.7	19.7	-92.4	6.1
2025-01-14 19:16:07.285561	207.9	19.9	-92.2	7.0
2025-01-14 19:16:08.453374	208.0	20.0	-92.0	7.2
2025-01-14 19:16:09.618489	208.2	20.1	-92.0	6.9
2025-01-14 19:16:10.782211	208.4	20.2	-92.0	6.8
2025-01-14 19:16:11.939974	208.5	20.4	-91.9	5.8
2025-01-14 19:16:13.101441	208.7	20.5	-92.1	6.6
2025-01-14 19:16:14.261520	208.9	20.6	-92.5	5.4
2025-01-14 19:16:15.427702	209.1	20.7	-92.5	7.4
2025-01-14 19:16:16.585594	209.3	20.9	-92.1	7.0
2025-01-14 19:16:17.747782	209.4	21.0	-92.4	5.0
2025-01-14 19:16:18.914416	209.6	21.1	-92.4	3.8
2025-01-14 19:16:20.076287	209.8	21.2	-92.1	2.9
2025-01-14 19:16:21.243543	210.0	21.4	-92.1	1.6
2025-01-14 19:16:22.405532	210.2	21.5	-91.9	2.9
2025-01-14 19:16:23.569428	210.4	21.6	-92.0	5.8
2025-01-14 19:16:24.730756	210.5	21.7	-92.3	8.3
2025-01-14 19:16:25.892419	210.7	21.9	-92.5	11.5
2025-01-14 19:16:27.054776	210.9	22.0	-92.2	13.1
2025-01-14 19:16:28.218009	211.1	22.1	-92.3	8.4
2025-01-14 19:16:29.379170	211.3	22.2	-92.2	6.9
2025-01-14 19:16:30.540353	211.5	22.4	-92.5	8.2
2025-01-14 19:16:31.705496	211.7	22.5	-92.5	6.2
2025-01-14 19:16:32.867505	211.9	22.6	-92.4	8.9
2025-01-14 19:16:34.029405	212.1	22.8	-92.1	10.4
2025-01-14 19:16:35.189950	212.3	22.9	-92.2	9.1
2025-01-14 19:16:36.348995	212.5	23.0	-92.3	7.3
2025-01-14 19:16:37.510545	212.7	23.2	-92.0	8.5
2025-01-14 19:16:38.675126	212.9	23.3	-92.2	3.3
2025-01-14 19:16:39.837970	213.1	23.4	-92.2	1.2
2025-01-14 19:16:41.006267	213.3	23.6	-92.3	7.7
2025-01-14 19:16:42.173025	213.5	23.7	-92.6	4.0
2025-01-14 19:16:43.332071	213.8	23.8	-92.5	6.1
2025-01-14 19:16:44.496147	214.0	23.9	-92.1	10.3
2025-01-14 19:16:45.658745	214.2	24.1	-92.4	9.4
2025-01-14 19:16:46.824137	214.4	24.2	-92.2	9.3
2025-01-14 19:16:47.987657	214.6	24.3	-92.2	8.2
2025-01-14 19:16:49.150679	214.9	24.5	-92.1	6.5
2025-01-14 19:16:50.311812	215.1	24.6	-92.2	6.6
2025-01-14 19:16:51.472464	215.3	24.7	-92.5	7.9
2025-01-14 19:16:52.634860	215.5	24.9	-92.5	9.1
2025-01-14 19:16:53.795961	215.8	25.0	-92.2	9.3
2025-01-14 19:16:54.957941	216.0	25.1	-92.0	8.9
2025-01-14 19:16:56.120256	216.2	25.3	-91.9	9.1
2025-01-14 19:16:57.284510	216.5	25.4	-92.4	4.7
2025-01-14 19:16:58.448664	216.7	25.6	-92.4	6.0
2025-01-14 19:16:59.601747	216.9	25.7	-92.2	4.3
2025-01-14 19:17:00.759036	217.2	25.8	-92.5	3.2
2025-01-14 19:17:01.926529	217.4	26.0	-92.2	3.1
2025-01-14 19:17:03.084322	217.7	26.1	-92.4	5.0
2025-01-14 19:17:04.253126	217.9	26.2	-92.1	3.2
2025-01-14 19:17:05.412168	218.2	26.4	-91.9	5.9
2025-01-14 19:17:06.568013	218.4	26.5	-92.2	3.9
2025-01-14 19:17:07.733053	218.7	26.6	-92.3	2.8
2025-01-14 19:17:08.897615	218.9	26.8	-92.2	2.7
2025-01-14 19:17:10.061633	219.2	26.9	-92.2	3.8
2025-01-14 19:17:11.220929	219.4	27.0	-92.2	1.1
2025-01-14 19:17:12.364714	219.7	27.2	-92.2	4.8
2025-01-14 19:17:13.527493	220.0	27.3	-92.3	3.3
2025-01-14 19:17:14.690681	220.2	27.4	-92.3	0.9
2025-01-14 19:17:15.845893	220.5	27.6	-92.4	1.9
2025-01-14 19:17:17.013344	220.8	27.7	-92.5	1.8
2025-01-14 19:17:18.172718	221.1	27.9	-92.4	1.7
2025-01-14 19:17:19.337414	221.3	28.0	-92.8	1.5
2025-01-14 19:17:20.491673	221.6	28.1	-92.5	2.6
2025-01-14 19:17:21.644114	221.9	28.3	-92.6	2.7
2025-01-14 19:17:22.764430	222.2	28.4	-92.2	1.1
2025-01-14 19:17:23.884357	222.4	28.5	-92.2	3.1
2025-01-14 19:17:25.004867	222.7	28.7	-92.4	5.7
2025-01-14 19:17:26.126025	223.0	28.8	-92.1	5.5
2025-01-14 19:17:27.246156	223.3	28.9	-92.2	7.1
2025-01-14 19:17:28.366904	223.5	29.0	-92.1	10.5
2025-01-14 19:17:29.488646	223.8	29.2	-92.4	11.0
2025-01-14 19:17:30.614445	224.1	29.3	-92.0	9.5
2025-01-14 19:17:31.755350	224.4	29.4	-92.5	6.9
2025-01-14 19:17:32.916110	224.7	29.6	-92.5	5.2
2025-01-14 19:17:34.081914	225.0	29.7	-92.4	9.8
2025-01-14 19:17:35.235981	225.3	29.8	-92.4	4.4
2025-01-14 19:17:36.386516	225.6	30.0	-92.5	6.9
2025-01-14 19:17:37.548014	226.0	30.1	-92.4	12.2
2025-01-14 19:17:38.713501	226.3	30.2	-92.5	13.6
2025-01-14 19:17:39.869514	226.6	30.4	-92.4	16.3
2025-01-14 19:17:41.031811	226.9	30.5	-92.2	14.1
2025-01-14 19:17:42.192690	227.2	30.6	-92.5	9.8
2025-01-14 19:17:43.356553	227.6	30.8	-91.8	8.4
2025-01-14 19:17:44.519449	227.9	30.9	-92.1	7.5
2025-01-14 19:17:45.682010	228.2	31.0	-92.1	4.1
2025-01-14 19:17:46.845060	228.6	31.2	-92.0	2.5
2025-01-14 19:17:48.016438	228.9	31.3	-92.3	8.2
2025-01-14 19:17:49.181010	229.2	31.4	-92.2	6.2
2025-01-14 19:17:50.334782	229.6	31.6	-92.2	8.0
2025-01-14 19:17:51.496882	229.9	31.7	-92.5	14.8
2025-01-14 19:17:52.656708	230.3	31.8	-92.6	15.2
2025-01-14 19:17:53.824147	230.6	31.9	-92.6	16.8
2025-01-14 19:17:54.982010	231.0	32.1	-92.5	18.6
2025-01-14 19:17:56.157773	231.3	32.2	-92.3	13.7
2025-01-14 19:17:57.316868	231.7	32.3	-92.2	10.6
2025-01-14 19:17:58.479100	232.1	32.4	-92.4	13.5
2025-01-14 19:17:59.643422	232.4	32.6	-92.4	11.7
2025-01-14 19:18:00.797959	232.8	32.7	-92.3	8.6
2025-01-14 19:18:01.958326	233.2	32.8	-92.5	14.4
2025-01-14 19:18:03.117851	233.5	32.9	-92.5	16.5
2025-01-14 19:18:04.280976	233.9	33.1	-92.5	15.8
2025-01-14 19:18:05.453485	234.3	33.2	-92.7	17.0
2025-01-14 19:18:06.608651	234.7	33.3	-92.4	17.2
2025-01-14 19:18:07.772901	235.0	33.4	-92.3	16.8
2025-01-14 19:18:08.939572	235.4	33.5	-92.1	14.0
2025-01-14 19:18:10.102873	235.8	33.6	-91.9	12.2
2025-01-14 19:18:11.265347	236.2	33.8	-92.0	6.6
2025-01-14 19:18:12.420911	236.6	33.9	-92.5	6.6
2025-01-14 19:18:13.582195	237.0	34.0	-92.2	7.0
2025-01-14 19:18:14.739079	237.4	34.1	-92.2	3.5
2025-01-14 19:18:15.886860	237.8	34.2	-92.3	5.0
2025-01-14 19:18:17.049101	238.2	34.3	-92.2	6.0
2025-01-14 19:18:18.206982	238.6	34.4	-92.0	5.5
2025-01-14 19:18:19.337420	239.0	34.5	-92.2	7.1
2025-01-14 19:18:20.458938	239.4	34.6	-92.2	13.0
2025-01-14 19:18:21.580705	239.8	34.7	-92.2	12.1
2025-01-14 19:18:22.702731	240.2	34.8	-92.1	12.6
2025-01-14 19:18:23.825378	240.6	34.9	-92.4	10.7
2025-01-14 19:18:24.946057	241.0	35.0	-91.9	11.0
2025-01-14 19:18:26.066681	241.4	35.1	-92.1	6.7
2025-01-14 19:18:27.188430	241.8	35.2	-92.3	7.3
2025-01-14 19:18:28.321344	242.3	35.3	-92.2	5.5
2025-01-14 19:18:29.478894	242.7	35.4	-92.5	6.8
2025-01-14 19:18:30.630098	243.1	35.5	-92.6	7.8
2025-01-14 19:18:31.790327	243.5	35.6	-92.7	3.8
2025-01-14 19:18:32.939605	244.0	35.7	-92.3	5.5
2025-01-14 19:18:34.069072	244.4	35.8	-92.5	5.9
2025-01-14 19:18:35.215518	244.9	35.9	-92.4	5.4
2025-01-14 19:18:36.367469	245.3	35.9	-92.4	1.6
2025-01-14 19:18:37.515081	245.7	36.0	-92.5	8.5
2025-01-14 19:18:38.675434	246.2	36.1	-92.3	9.9
2025-01-14 19:18:39.826568	246.6	36.2	-92.2	11.0
2025-01-14 19:18:40.978888	247.1	36.3	-92.5	9.2
2025-01-14 19:18:42.141634	247.5	36.3	-92.3	8.9
2025-01-14 19:18:43.301031	248.0	36.4	-92.2	6.4
2025-01-14 19:18:44.462314	248.5	36.5	-92.2	5.4
2025-01-14 19:18:45.621483	248.9	36.6	-92.3	5.8
2025-01-14 19:18:46.781110	249.4	36.6	-92.6	1.9
2025-01-14 19:18:47.945478	249.9	36.7	-92.5	6.1
2025-01-14 19:18:49.104562	250.3	36.8	-92.1	1.6
2025-01-14 19:18:50.273475	250.8	36.8	-92.4	4.3
2025-01-14 19:18:51.427632	251.3	36.9	-92.5	6.2
2025-01-14 19:18:52.591845	251.7	36.9	-92.5	4.7
2025-01-14 19:18:53.754203	252.2	37.0	-92.3	4.0
2025-01-14 19:18:54.920400	252.7	37.1	-92.5	3.4
2025-01-14 19:18:56.076269	253.2	37.1	-92.3	7.5
2025-01-14 19:18:57.230849	253.6	37.2	-92.2	9.0
2025-01-14 19:18:58.395374	254.1	37.2	-90.3	7.5
2025-01-14 19:18:59.563996	254.6	37.3	-92.1	8.4
2025-01-14 19:19:00.723729	255.1	37.3	-92.4	10.6
2025-01-14 19:19:01.890029	255.6	37.3	-92.8	12.2
2025-01-14 19:19:03.052909	256.1	37.4	-92.5	10.7
2025-01-14 19:19:04.217311	256.6	37.4	-92.3	9.4
2025-01-14 19:19:05.378131	257.1	37.5	-92.4	8.8
2025-01-14 19:19:06.539155	257.5	37.5	-92.3	11.2
2025-01-14 19:19:07.694649	258.0	37.5	-92.5	5.3
2025-01-14 19:19:08.854512	258.5	37.6	-92.6	2.9
2025-01-14 19:19:10.016494	259.0	37.6	-92.5	0.2
2025-01-14 19:19:11.186515	259.5	37.6	-92.4	3.1
2025-01-14 19:19:12.351126	260.0	37.6	-92.2	4.6
2025-01-14 19:19:13.514288	260.5	37.6	-92.2	1.7
2025-01-14 19:19:14.682985	261.0	37.7	-92.5	4.5
2025-01-14 19:19:15.830338	261.5	37.7	-92.3	3.2
2025-01-14 19:19:16.989264	262.0	37.7	-92.4	4.6
2025-01-14 19:19:18.152428	262.5	37.7	-92.1	2.8
2025-01-14 19:19:19.311986	263.0	37.7	-92.3	2.5
2025-01-14 19:19:20.479471	263.5	37.7	-92.3	3.9
2025-01-14 19:19:21.643179	264.0	37.7	-92.5	7.0
2025-01-14 19:19:22.810345	264.5	37.7	-91.9	3.7
2025-01-14 19:19:23.973376	265.0	37.7	-92.4	5.8
2025-01-14 19:19:25.134417	265.5	37.7	-92.2	7.5
2025-01-14 19:19:26.293261	266.0	37.7	-92.3	9.5
2025-01-14 19:19:27.457792	266.5	37.7	-92.3	8.5
2025-01-14 19:19:28.623726	267.0	37.7	-92.1	7.9
2025-01-14 19:19:29.782856	267.5	37.7	-92.2	6.4
2025-01-14 19:19:30.939944	268.0	37.7	-92.2	3.9
2025-01-14 19:19:32.102317	268.5	37.6	-92.2	3.3
2025-01-14 19:19:33.273663	268.9	37.6	-92.4	7.6
2025-01-14 19:19:34.443264	269.4	37.6	-92.4	8.9
2025-01-14 19:19:35.588966	269.9	37.6	-92.5	9.2
2025-01-14 19:19:36.710059	270.4	37.5	-92.6	9.7
2025-01-14 19:19:37.831277	270.9	37.5	-92.3	13.8
2025-01-14 19:19:38.951881	271.4	37.5	-92.6	13.1
2025-01-14 19:19:40.072554	271.8	37.4	-92.5	11.3
2025-01-14 19:19:41.193896	272.3	37.4	-92.5	18.8
2025-01-14 19:19:42.316938	272.8	37.4	-92.7	8.8
2025-01-14 19:19:43.442073	273.2	37.3	-92.5	13.0
2025-01-14 19:19:44.593849	273.7	37.3	-92.6	14.4
2025-01-14 19:19:45.758431	274.2	37.2	-92.5	13.3
2025-01-14 19:19:46.922412	274.7	37.2	-92.5	6.7
2025-01-14 19:19:48.082146	275.2	37.2	-92.3	9.2
2025-01-14 19:19:49.246939	275.7	37.1	-92.1	13.5
2025-01-14 19:19:50.396287	276.1	37.0	-92.4	14.4
2025-01-14 19:19:51.563403	276.6	37.0	-92.1	13.5
2025-01-14 19:19:52.727990	277.1	36.9	-92.1	11.5
2025-01-14 19:19:53.893824	277.6	36.9	-92.2	14.0
2025-01-14 19:19:55.058255	278.0	36.8	-92.3	11.9
2025-01-14 19:19:56.222821	278.5	36.7	-92.2	11.6
2025-01-14 19:19:57.383051	279.0	36.7	-92.6	5.8
2025-01-14 19:19:58.543130	279.4	36.6	-92.4	7.5
2025-01-14 19:19:59.710878	279.9	36.5	-92.4	7.5
2025-01-14 19:20:00.867882	280.4	36.5	-92.3	6.7
2025-01-14 19:20:02.028828	280.8	36.4	-92.7	6.9
2025-01-14 19:20:03.192259	281.3	36.3	-92.4	11.6
2025-01-14 19:20:04.357511	281.7	36.2	-92.2	7.2
2025-01-14 19:20:05.518476	282.2	36.2	-92.6	6.7
2025-01-14 19:20:06.678711	282.6	36.1	-92.5	3.5
2025-01-14 19:20:07.847738	283.1	36.0	-92.3	6.0
2025-01-14 19:20:09.015196	283.5	35.9	-92.9	6.5
2025-01-14 19:20:10.176532	284.0	35.8	-92.3	8.1
2025-01-14 19:20:11.343625	284.4	35.7	-92.5	4.6
2025-01-14 19:20:12.506453	284.9	35.7	-92.4	8.0
2025-01-14 19:20:13.671656	285.3	35.6	-92.6	4.2
2025-01-14 19:20:14.845979	285.7	35.5	-92.5	6.9
2025-01-14 19:20:16.006983	286.2	35.4	-92.3	1.7
2025-01-14 19:20:17.176205	286.6	35.3	-92.5	4.5
2025-01-14 19:20:18.306239	287.0	35.2	-92.4	3.2
2025-01-14 19:20:19.427737	287.4	35.1	-92.5	4.8
2025-01-14 19:20:20.548243	287.8	35.0	-92.4	5.8
2025-01-14 19:20:21.668634	288.2	34.9	-92.5	6.0
2025-01-14 19:20:22.789224	288.6	34.8	-92.0	7.5
2025-01-14 19:20:23.910339	289.0	34.7	-92.2	8.2
2025-01-14 19:20:25.030409	289.4	34.6	-92.5	2.1
2025-01-14 19:20:26.152347	289.8	34.5	-92.3	7.2
2025-01-14 19:20:27.276880	290.2	34.4	-92.4	5.2
2025-01-14 19:20:28.439004	290.6	34.3	-92.3	4.6
2025-01-14 19:20:29.590082	291.0	34.2	-92.5	8.6
2025-01-14 19:20:30.746885	291.4	34.1	-92.4	7.4
2025-01-14 19:20:31.892675	291.8	34.0	-92.5	12.1
2025-01-14 19:20:33.042196	292.2	33.8	-92.2	11.7
2025-01-14 19:20:34.197011	292.6	33.7	-92.2	7.7
2025-01-14 19:20:35.342964	293.0	33.6	-92.5	4.8
2025-01-14 19:20:36.498156	293.4	33.5	-92.8	6.6
2025-01-14 19:20:37.652945	293.8	33.4	-92.6	3.4
2025-01-14 19:20:38.795214	294.1	33.3	-92.4	9.3
2025-01-14 19:20:39.924262	294.5	33.2	-92.1	7.3
2025-01-14 19:20:41.071378	294.9	33.0	-92.2	10.6
2025-01-14 19:20:42.221969	295.2	32.9	-92.2	8.2
2025-01-14 19:20:43.378705	295.6	32.8	-92.4	7.9
2025-01-14 19:20:44.534113	296.0	32.7	-92.3	6.0
2025-01-14 19:20:45.692084	296.3	32.6	-92.6	3.2
2025-01-14 19:20:46.826584	296.7	32.4	-92.3	4.5
2025-01-14 19:20:47.968797	297.0	32.3	-92.6	5.4
2025-01-14 19:20:49.116424	297.4	32.2	-92.4	2.4
2025-01-14 19:20:50.269615	297.7	32.1	-92.5	2.4
2025-01-14 19:20:51.426027	298.1	31.9	-92.6	6.0
2025-01-14 19:20:52.575498	298.4	31.8	-92.6	5.2
2025-01-14 19:20:53.735605	298.8	31.7	-92.8	3.0
2025-01-14 19:20:54.899626	299.1	31.6	-92.8	2.9
2025-01-14 19:20:56.063171	299.5	31.4	-92.6	4.3
2025-01-14 19:20:57.219782	299.8	31.3	-92.6	2.3
2025-01-14 19:20:58.387045	300.1	31.2	-92.3	6.2
2025-01-14 19:20:59.547851	300.5	31.0	-92.4	6.8
2025-01-14 19:21:00.710054	300.8	30.9	-92.3	2.8
2025-01-14 19:21:01.873061	301.1	30.8	-92.4	8.2
2025-01-14 19:21:03.035221	301.5	30.7	-92.3	4.4
2025-01-14 19:21:04.204560	301.8	30.5	-92.2	4.6
2025-01-14 19:21:05.360852	302.1	30.4	-92.6	7.6
2025-01-14 19:21:06.527801	302.4	30.3	-92.5	7.3
2025-01-14 19:21:07.689694	302.7	30.1	-92.3	6.5
2025-01-14 19:21:08.854203	303.1	30.0	-92.1	7.6
2025-01-14 19:21:10.040545	303.4	29.9	-92.8	9.6
2025-01-14 19:21:11.201521	303.7	29.7	-92.4	7.5
2025-01-14 19:21:12.359905	304.0	29.6	-92.4	9.5
2025-01-14 19:21:13.522198	304.3	29.5	-92.5	9.6
2025-01-14 19:21:14.684820	304.6	29.3	-92.2	9.1
2025-01-14 19:21:15.847943	304.9	29.2	-92.5	13.2
2025-01-14 19:21:17.010872	305.2	29.1	-92.4	9.9
2025-01-14 19:21:18.177440	305.5	28.9	-92.1	12.2
2025-01-14 19:21:19.332508	305.8	28.8	-92.4	15.9
2025-01-14 19:21:20.474979	306.0	28.7	-92.5	10.3
2025-01-14 19:21:21.594686	306.3	28.5	-92.4	13.0
2025-01-14 19:21:22.715074	306.6	28.4	-92.5	10.7
2025-01-14 19:21:23.836174	306.9	28.3	-92.6	12.0
2025-01-14 19:21:24.958101	307.1	28.1	-92.5	8.5
2025-01-14 19:21:26.079254	307.4	28.0	-92.4	9.3
2025-01-14 19:21:27.199622	307.7	27.9	-92.3	6.6
2025-01-14 19:21:28.320050	307.9	27.7	-92.6	3.4
2025-01-14 19:21:29.444970	308.2	27.6	-92.6	9.1
2025-01-14 19:21:30.589837	308.5	27.5	-92.5	6.8
2025-01-14 19:21:31.746829	308.7	27.3	-92.4	8.0
2025-01-14 19:21:32.911985	309.0	27.2	-92.3	8.0
2025-01-14 19:21:34.070550	309.2	27.1	-92.5	6.9
2025-01-14 19:21:35.222184	309.5	26.9	-92.2	6.3
2025-01-14 19:21:36.386923	309.8	26.8	-92.2	9.8
2025-01-14 19:21:37.546737	310.0	26.7	-92.1	9.2
2025-01-14 19:21:38.708428	310.3	26.5	-92.2	10.5
2025-01-14 19:21:39.874645	310.5	26.4	-91.7	10.1
2025-01-14 19:21:41.033456	310.8	26.3	-92.3	7.9
2025-01-14 19:21:42.193404	311.0	26.1	-92.3	9.0
2025-01-14 19:21:43.349340	311.3	26.0	-92.1	11.2
2025-01-14 19:21:44.513339	311.5	25.9	-91.8	11.2
2025-01-14 19:21:45.676264	311.7	25.7	-92.5	8.3
2025-01-14 19:21:46.833768	312.0	25.6	-92.2	6.4
2025-01-14 19:21:48.001599	312.2	25.5	-92.4	10.3
2025-01-14 19:21:49.161133	312.4	25.3	-92.3	4.7
2025-01-14 19:21:50.324775	312.7	25.2	-92.3	4.5
2025-01-14 19:21:51.491155	312.9	25.1	-92.3	7.1
2025-01-14 19:21:52.653849	313.1	24.9	-91.7	3.5
2025-01-14 19:21:53.821921	313.4	24.8	-92.0	5.4
2025-01-14 19:21:54.978413	313.6	24.7	-92.5	5.2
2025-01-14 19:21:56.130232	313.8	24.5	-92.3	3.8
2025-01-14 19:21:57.251874	314.0	24.4	-92.6	3.4
2025-01-14 19:21:58.399674	314.2	24.3	-92.1	6.8
2025-01-14 19:21:59.549046	314.5	24.1	-92.0	2.7
2025-01-14 19:22:00.699404	314.7	24.0	-92.5	3.8
2025-01-14 19:22:01.851731	314.9	23.9	-92.3	6.0
2025-01-14 19:22:03.011897	315.1	23.7	-92.2	6.3
2025-01-14 19:22:04.173494	315.3	23.6	-92.2	8.5
2025-01-14 19:22:05.337426	315.5	23.5	-92.7	5.5
2025-01-14 19:22:06.496562	315.7	23.4	-92.5	4.5
2025-01-14 19:22:07.656952	315.9	23.2	-92.5	10.6
2025-01-14 19:22:08.824577	316.1	23.1	-92.5	5.1
2025-01-14 19:22:09.978672	316.3	23.0	-92.5	6.0
2025-01-14 19:22:11.145657	316.5	22.8	-92.1	9.5
2025-01-14 19:22:12.312921	316.7	22.7	-92.2	3.2
2025-01-14 19:22:13.472739	316.9	22.6	-92.1	1.8
2025-01-14 19:22:14.637148	317.1	22.5	-92.5	8.7
2025-01-14 19:22:15.801432	317.3	22.3	-92.6	3.8
2025-01-14 19:22:16.968782	317.5	22.2	-92.7	5.0
2025-01-14 19:22:18.126093	317.7	22.1	-92.7	6.1
2025-01-14 19:22:19.291341	317.9	21.9	-92.7	2.2
2025-01-14 19:22:20.450190	318.1	21.8	-92.5	7.1
2025-01-14 19:22:21.613536	318.3	21.7	-92.3	5.6
2025-01-14 19:22:22.778854	318.5	21.6	-92.3	5.4
2025-01-14 19:22:23.940080	318.7	21.4	-92.4	8.2
2025-01-14 19:22:25.099112	318.8	21.3	-92.3	5.6
2025-01-14 19:22:26.266427	319.0	21.2	-92.3	8.4
2025-01-14 19:22:27.424601	319.2	21.1	-92.6	9.1
2025-01-14 19:22:28.588601	319.4	20.9	-92.7	5.1
2025-01-14 19:22:29.751159	319.6	20.8	-92.4	1.8
2025-01-14 19:22:30.909625	319.7	20.7	-92.4	5.2
2025-01-14 19:22:32.075431	319.9	20.6	-92.5	5.2
2025-01-14 19:22:33.238698	320.1	20.4	-92.6	1.2
2025-01-14 19:22:34.400352	320.3	20.3	-92.4	2.3
2025-01-14 19:22:35.567750	320.4	20.2	-92.2	1.9
2025-01-14 19:22:36.726477	320.6	20.1	-92.4	2.8
2025-01-14 19:22:37.885697	320.8	20.0	-92.4	1.1
2025-01-14 19:22:39.043885	320.9	19.8	-92.4	2.7
2025-01-14 19:22:40.204678	321.1	19.7	-92.2	2.3
2025-01-14 19:22:41.367363	321.3	19.6	-92.5	2.1
2025-01-14 19:22:42.522147	321.4	19.5	-92.4	4.5
2025-01-14 19:22:43.674547	321.6	19.4	-92.5	3.2
2025-01-14 19:22:44.795762	321.7	19.2	-92.4	4.4
2025-01-14 19:22:45.915870	321.9	19.1	-92.5	4.0
2025-01-14 19:22:47.036311	322.0	19.0	-92.4	5.4
2025-01-14 19:22:48.158011	322.2	18.9	-92.3	1.8
2025-01-14 19:22:49.278284	322.4	18.8	-92.4	3.1
2025-01-14 19:22:50.399074	322.5	18.7	-92.6	4.0
2025-01-14 19:22:51.520057	322.6	18.6	-92.5	4.4
2025-01-14 19:22:52.642345	322.8	18.4	-92.2	3.6
2025-01-14 19:22:53.785916	322.9	18.3	-92.2	2.3
2025-01-14 19:22:54.945875	323.1	18.2	-92.5	5.7
2025-01-14 19:22:56.103357	323.2	18.1	-92.7	3.0
2025-01-14 19:22:57.257844	323.4	18.0	-92.1	2.8
2025-01-14 19:22:58.418932	323.5	17.9	-92.1	1.4
2025-01-14 19:22:59.574855	323.7	17.8	-92.6	1.4
2025-01-14 19:23:00.727385	323.8	17.6	-92.3	3.3
2025-01-14 19:23:01.886436	324.0	17.5	-92.1	1.4
2025-01-14 19:23:03.051408	324.1	17.4	-92.3	1.8
2025-01-14 19:23:04.210597	324.3	17.3	-92.5	5.1
2025-01-14 19:23:05.375374	324.4	17.2	-92.7	1.7
2025-01-14 19:23:06.510564	324.5	17.1	-92.5	3.4
2025-01-14 19:23:07.647167	324.7	17.0	-92.1	2.9
2025-01-14 19:23:08.799175	324.8	16.9	-92.3	2.4
2025-01-14 19:23:09.943449	324.9	16.7	-92.4	2.1
2025-01-14 19:23:11.095144	325.1	16.6	-92.4	2.6
2025-01-14 19:23:12.249736	325.2	16.5	-92.2	1.8
2025-01-14 19:23:13.403504	325.3	16.4	-92.0	2.4
2025-01-14 19:23:14.559931	325.5	16.3	-92.3	4.8
2025-01-14 19:23:15.721947	325.6	16.2	-92.3	1.5
2025-01-14 19:23:16.876777	325.7	16.1	-92.2	2.5
2025-01-14 19:23:18.035818	325.9	16.0	-92.0	5.8
2025-01-14 19:23:19.198898	326.0	15.9	-92.0	7.2
2025-01-14 19:23:20.358522	326.1	15.8	-92.5	4.6
2025-01-14 19:23:21.521460	326.3	15.7	-92.2	2.8
2025-01-14 19:23:22.679770	326.4	15.5	-92.3	2.4
2025-01-14 19:23:23.842375	326.5	15.4	-92.3	2.5
2025-01-14 19:23:25.000604	326.6	15.3	-92.5	5.1
2025-01-14 19:23:26.162746	326.8	15.2	-92.7	0.3
2025-01-14 19:23:27.325663	326.9	15.1	-92.5	0.2
2025-01-14 19:23:28.488534	327.0	15.0	-92.5	1.8
2025-01-14 19:23:29.651047	327.1	14.9	-92.6	1.2
2025-01-14 19:23:30.810324	327.3	14.8	-92.7	3.6
2025-01-14 19:23:31.966845	327.4	14.7	-92.5	8.9
2025-01-14 19:23:33.119292	327.5	14.6	-92.1	0.8
#Closed at: 2025-01-14 19:15:22.934686