passes_logs/2025/01/14/LEX_Murmansk/LEX_Murmansk__20250114_144104_NOAA_18_rec.log

#Pass ID: 20250114_144104_NOAA 18
#Satellite: NOAA 18
#Configuration: NOAA 18
#Start time: 2025-01-14 14:40:59.770568

#LorettStation: 1.0.0 05.05.2024
#Station: LEX_Murmansk
#Location: 33.156738 lon 68.926811 lat
#TLE: 1 28654U 05018A   25014.17177243  .00000313  00000+0  18955-3 0  9990
#TLE: 2 28654  98.8569  95.2344 0014326 181.4762 178.6370 14.13485757 13061

#Time	Az	El	Level	SNR
2025-01-14 14:41:16.038477	43.0	16.2	-89.6	5.6
2025-01-14 14:41:17.184275	42.8	16.2	-89.7	3.4
2025-01-14 14:41:18.333428	42.6	16.3	-89.3	5.3
2025-01-14 14:41:19.475857	42.5	16.4	-89.5	1.8
2025-01-14 14:41:20.621271	42.3	16.5	-89.4	3.4
2025-01-14 14:41:21.770399	42.1	16.6	-89.2	4.2
2025-01-14 14:41:22.915362	41.9	16.7	-89.1	3.8
2025-01-14 14:41:24.064661	41.7	16.7	-89.8	6.4
2025-01-14 14:41:25.210758	41.5	16.8	-88.9	7.0
2025-01-14 14:41:26.360941	41.3	16.9	-89.6	3.1
2025-01-14 14:41:27.509790	41.1	17.0	-89.6	4.5
2025-01-14 14:41:28.656044	40.9	17.1	-89.0	2.2
2025-01-14 14:41:29.807086	40.7	17.1	-89.4	6.5
2025-01-14 14:41:30.959560	40.5	17.2	-89.7	5.1
2025-01-14 14:41:32.111206	40.3	17.3	-89.2	2.1
2025-01-14 14:41:33.255088	40.1	17.4	-89.2	5.7
2025-01-14 14:41:34.403594	39.9	17.5	-89.3	6.4
2025-01-14 14:41:35.558225	39.7	17.5	-89.2	7.6
2025-01-14 14:41:36.707140	39.5	17.6	-90.0	4.5
2025-01-14 14:41:37.854777	39.3	17.7	-90.0	7.6
2025-01-14 14:41:38.997697	39.1	17.8	-90.1	7.1
2025-01-14 14:41:40.142747	38.8	17.9	-89.9	5.8
2025-01-14 14:41:41.287796	38.6	17.9	-89.6	6.4
2025-01-14 14:41:42.436005	38.4	18.0	-89.7	4.6
2025-01-14 14:41:43.590379	38.2	18.1	-90.0	7.5
2025-01-14 14:41:44.736086	38.0	18.2	-89.8	6.4
2025-01-14 14:41:45.884342	37.8	18.3	-89.8	5.1
2025-01-14 14:41:47.026806	37.6	18.3	-89.7	7.9
2025-01-14 14:41:48.174937	37.4	18.4	-89.7	6.1
2025-01-14 14:41:49.327319	37.1	18.5	-89.8	7.7
2025-01-14 14:41:50.471127	36.9	18.6	-90.4	8.7
2025-01-14 14:41:51.620926	36.7	18.7	-90.2	4.9
2025-01-14 14:41:52.763809	36.5	18.7	-90.1	8.8
2025-01-14 14:41:53.907546	36.2	18.8	-90.5	10.5
2025-01-14 14:41:55.058950	36.0	18.9	-89.8	5.0
2025-01-14 14:41:56.209694	35.8	19.0	-90.4	8.7
2025-01-14 14:41:57.362181	35.6	19.0	-90.0	6.0
2025-01-14 14:41:58.510209	35.3	19.1	-90.0	5.0
2025-01-14 14:41:59.656675	35.1	19.2	-90.1	11.3
2025-01-14 14:42:00.808216	34.9	19.3	-89.9	5.0
2025-01-14 14:42:01.954447	34.7	19.3	-90.0	7.9
2025-01-14 14:42:03.102364	34.4	19.4	-90.5	7.8
2025-01-14 14:42:04.247151	34.2	19.5	-90.0	11.2
2025-01-14 14:42:05.398748	34.0	19.6	-90.3	10.6
2025-01-14 14:42:06.540552	33.7	19.6	-90.3	9.9
2025-01-14 14:42:07.690509	33.5	19.7	-89.3	10.3
2025-01-14 14:42:08.839598	33.2	19.8	-89.5	9.2
2025-01-14 14:42:09.986585	33.0	19.9	-88.9	6.7
2025-01-14 14:42:11.135676	32.8	19.9	-89.7	7.2
2025-01-14 14:42:12.280248	32.5	20.0	-89.3	8.9
2025-01-14 14:42:13.430690	32.3	20.1	-89.5	6.1
2025-01-14 14:42:14.580432	32.0	20.2	-89.2	5.7
2025-01-14 14:42:15.729876	31.8	20.2	-89.3	8.3
2025-01-14 14:42:16.878578	31.5	20.3	-89.7	8.2
2025-01-14 14:42:18.024103	31.3	20.4	-90.0	6.5
2025-01-14 14:42:19.167901	31.0	20.5	-89.8	10.6
2025-01-14 14:42:20.314312	30.8	20.5	-89.8	7.5
2025-01-14 14:42:21.456279	30.5	20.6	-89.8	7.3
2025-01-14 14:42:22.608424	30.3	20.7	-89.8	10.0
2025-01-14 14:42:23.755849	30.0	20.7	-89.7	13.4
2025-01-14 14:42:24.902403	29.8	20.8	-89.7	13.3
2025-01-14 14:42:26.047309	29.5	20.9	-90.4	12.3
2025-01-14 14:42:27.194908	29.3	20.9	-89.8	11.7
2025-01-14 14:42:28.348526	29.0	21.0	-89.5	15.7
2025-01-14 14:42:29.494982	28.8	21.1	-89.9	10.1
2025-01-14 14:42:30.647466	28.5	21.1	-89.7	10.7
2025-01-14 14:42:31.797100	28.2	21.2	-90.0	11.2
2025-01-14 14:42:32.944668	28.0	21.3	-89.9	9.1
2025-01-14 14:42:34.092631	27.7	21.3	-90.1	8.8
2025-01-14 14:42:35.242622	27.4	21.4	-90.1	11.3
2025-01-14 14:42:36.397430	27.2	21.5	-90.1	11.9
2025-01-14 14:42:37.535303	26.9	21.5	-89.5	12.0
2025-01-14 14:42:38.684047	26.6	21.6	-90.3	11.4
2025-01-14 14:42:39.840630	26.4	21.7	-89.0	8.6
2025-01-14 14:42:40.987781	26.1	21.7	-86.1	8.3
2025-01-14 14:42:42.135792	25.8	21.8	-89.4	7.9
2025-01-14 14:42:43.276707	25.6	21.9	-90.3	10.2
2025-01-14 14:42:44.432169	25.3	21.9	-90.0	7.5
2025-01-14 14:42:45.583472	25.0	22.0	-90.7	2.9
2025-01-14 14:42:46.731632	24.7	22.0	-90.4	11.5
2025-01-14 14:42:47.880112	24.5	22.1	-89.7	8.9
2025-01-14 14:42:49.026046	24.2	22.2	-90.3	6.1
2025-01-14 14:42:50.168966	23.9	22.2	-90.2	10.5
2025-01-14 14:42:51.316081	23.6	22.3	-90.1	11.3
2025-01-14 14:42:52.469494	23.3	22.3	-90.0	6.1
2025-01-14 14:42:53.617038	23.1	22.4	-90.2	13.0
2025-01-14 14:42:54.764022	22.8	22.4	-90.2	13.7
2025-01-14 14:42:55.918110	22.5	22.5	-90.3	10.3
2025-01-14 14:42:57.062490	22.2	22.5	-89.9	13.6
2025-01-14 14:42:58.208853	21.9	22.6	-89.3	13.1
2025-01-14 14:42:59.355257	21.6	22.7	-89.9	12.6
2025-01-14 14:43:00.502680	21.3	22.7	-89.4	7.7
2025-01-14 14:43:01.653036	21.1	22.8	-89.7	11.7
2025-01-14 14:43:02.803193	20.8	22.8	-90.3	13.9
2025-01-14 14:43:03.949444	20.5	22.9	-90.3	7.1
2025-01-14 14:43:05.094369	20.2	22.9	-87.5	8.4
2025-01-14 14:43:06.242092	19.9	23.0	-87.5	14.4
2025-01-14 14:43:07.390479	19.6	23.0	-90.0	14.1
2025-01-14 14:43:08.539402	19.3	23.1	-90.1	10.0
2025-01-14 14:43:09.687040	19.0	23.1	-87.3	8.2
2025-01-14 14:43:10.833894	18.7	23.1	-90.1	12.6
2025-01-14 14:43:11.979925	18.4	23.2	-90.0	14.2
2025-01-14 14:43:13.132890	18.1	23.2	-89.5	14.4
2025-01-14 14:43:14.278557	17.8	23.3	-89.6	13.7
2025-01-14 14:43:15.425481	17.5	23.3	-90.0	13.0
2025-01-14 14:43:16.576761	17.2	23.4	-89.4	6.4
2025-01-14 14:43:17.730950	16.9	23.4	-89.7	7.6
2025-01-14 14:43:18.880667	16.6	23.4	-90.0	7.9
2025-01-14 14:43:20.024176	16.3	23.5	-89.9	6.0
2025-01-14 14:43:21.173401	16.0	23.5	-90.0	11.1
2025-01-14 14:43:22.316397	15.7	23.6	-90.5	9.0
2025-01-14 14:43:23.465532	15.4	23.6	-90.2	5.7
2025-01-14 14:43:24.616940	15.1	23.6	-90.6	7.5
2025-01-14 14:43:25.767240	14.8	23.7	-90.6	10.7
2025-01-14 14:43:26.911883	14.5	23.7	-90.6	7.1
2025-01-14 14:43:28.064529	14.2	23.7	-90.4	8.0
2025-01-14 14:43:29.211213	13.8	23.8	-90.3	9.4
2025-01-14 14:43:30.357273	13.5	23.8	-90.6	8.4
2025-01-14 14:43:31.508300	13.2	23.8	-90.5	11.4
2025-01-14 14:43:32.655351	12.9	23.9	-90.4	12.2
2025-01-14 14:43:33.798473	12.6	23.9	-89.1	11.0
2025-01-14 14:43:34.946202	12.3	23.9	-88.2	10.7
2025-01-14 14:43:36.091045	12.0	24.0	-90.2	9.8
2025-01-14 14:43:37.243322	11.7	24.0	-90.5	11.8
2025-01-14 14:43:38.391282	11.4	24.0	-90.1	9.4
2025-01-14 14:43:39.536111	11.0	24.0	-90.1	6.7
2025-01-14 14:43:40.686141	10.7	24.1	-90.2	6.8
2025-01-14 14:43:41.829040	10.4	24.1	-90.4	10.9
2025-01-14 14:43:42.974389	10.1	24.1	-90.1	6.2
2025-01-14 14:43:44.118563	9.8	24.1	-90.4	9.6
2025-01-14 14:43:45.265729	9.5	24.1	-90.4	8.1
2025-01-14 14:43:46.416333	9.1	24.2	-90.1	7.8
2025-01-14 14:43:47.560698	8.8	24.2	-90.6	6.3
2025-01-14 14:43:48.712523	8.5	24.2	-90.4	9.2
2025-01-14 14:43:49.858645	8.2	24.2	-89.9	14.5
2025-01-14 14:43:51.007994	7.9	24.2	-90.2	10.2
2025-01-14 14:43:52.161527	7.6	24.2	-90.4	9.4
2025-01-14 14:43:53.310629	7.2	24.3	-90.4	12.1
2025-01-14 14:43:54.455880	6.9	24.3	-90.3	10.9
2025-01-14 14:43:55.602987	6.6	24.3	-90.1	13.3
2025-01-14 14:43:56.756393	6.3	24.3	-90.3	12.7
2025-01-14 14:43:57.907787	6.0	24.3	-90.0	11.4
2025-01-14 14:43:59.060933	5.6	24.3	-90.6	11.7
2025-01-14 14:44:00.201142	5.3	24.3	-90.3	11.2
2025-01-14 14:44:01.344602	5.0	24.3	-90.5	17.6
2025-01-14 14:44:02.492963	4.7	24.3	-90.0	12.5
2025-01-14 14:44:03.636379	4.4	24.3	-89.2	9.0
2025-01-14 14:44:04.785400	4.0	24.3	-90.4	16.7
2025-01-14 14:44:05.933820	3.7	24.3	-89.8	12.1
2025-01-14 14:44:07.081229	3.4	24.4	-89.3	8.3
2025-01-14 14:44:08.228742	3.1	24.4	-90.4	9.3
2025-01-14 14:44:09.379088	2.7	24.4	-89.9	12.5
2025-01-14 14:44:10.529989	2.4	24.4	-90.6	8.9
2025-01-14 14:44:11.684502	2.1	24.3	-90.3	8.9
2025-01-14 14:44:12.831993	1.8	24.3	-90.4	12.6
2025-01-14 14:44:13.975012	1.5	24.3	-90.5	7.2
2025-01-14 14:44:15.122542	1.1	24.3	-90.0	8.6
2025-01-14 14:44:16.274703	0.8	24.3	-90.5	9.0
2025-01-14 14:44:17.425082	0.5	24.3	-90.4	8.0
2025-01-14 14:44:18.574252	0.2	24.3	-90.2	8.2
2025-01-14 14:44:19.719893	359.9	24.3	-90.1	14.4
2025-01-14 14:44:20.865186	359.5	24.3	-90.0	11.0
2025-01-14 14:44:22.015122	359.2	24.3	-89.6	6.4
2025-01-14 14:44:23.160399	358.9	24.3	-90.0	10.0
2025-01-14 14:44:24.312589	358.6	24.3	-90.0	9.4
2025-01-14 14:44:25.461195	358.3	24.2	-90.0	8.3
2025-01-14 14:44:26.609572	357.9	24.2	-90.1	6.9
2025-01-14 14:44:27.760777	357.6	24.2	-90.2	14.0
2025-01-14 14:44:28.907448	357.3	24.2	-90.2	13.0
2025-01-14 14:44:30.053468	357.0	24.2	-90.0	9.8
2025-01-14 14:44:31.202435	356.7	24.2	-89.9	10.1
2025-01-14 14:44:32.360494	356.3	24.1	-89.9	15.6
2025-01-14 14:44:33.512790	356.0	24.1	-90.3	8.9
2025-01-14 14:44:34.662139	355.7	24.1	-90.6	9.9
2025-01-14 14:44:35.809870	355.4	24.1	-90.5	7.0
2025-01-14 14:44:36.961046	355.1	24.1	-90.2	9.5
2025-01-14 14:44:38.108400	354.8	24.0	-90.1	12.7
2025-01-14 14:44:39.253965	354.4	24.0	-90.5	18.8
2025-01-14 14:44:40.395670	354.1	24.0	-90.5	11.8
2025-01-14 14:44:41.548247	353.8	24.0	-90.5	14.0
2025-01-14 14:44:42.693508	353.5	23.9	-90.3	13.2
2025-01-14 14:44:43.841995	353.2	23.9	-89.8	17.5
2025-01-14 14:44:44.987203	352.9	23.9	-90.4	12.1
2025-01-14 14:44:46.131581	352.6	23.8	-90.2	15.3
2025-01-14 14:44:47.284642	352.3	23.8	-90.1	14.9
2025-01-14 14:44:48.434885	351.9	23.8	-90.3	12.8
2025-01-14 14:44:49.583359	351.6	23.7	-90.6	11.9
2025-01-14 14:44:50.728028	351.3	23.7	-90.3	13.5
2025-01-14 14:44:51.875574	351.0	23.7	-90.1	13.7
2025-01-14 14:44:53.021794	350.7	23.6	-90.6	10.1
2025-01-14 14:44:54.170547	350.4	23.6	-90.8	10.6
2025-01-14 14:44:55.326815	350.1	23.6	-90.5	13.4
2025-01-14 14:44:56.472334	349.8	23.5	-89.7	13.3
2025-01-14 14:44:57.620982	349.5	23.5	-90.1	11.1
2025-01-14 14:44:58.771298	349.2	23.4	-90.4	14.5
2025-01-14 14:44:59.917149	348.9	23.4	-89.8	12.0
2025-01-14 14:45:01.062541	348.6	23.4	-90.0	13.5
2025-01-14 14:45:02.209489	348.3	23.3	-90.2	5.8
2025-01-14 14:45:03.360875	348.0	23.3	-89.9	5.7
2025-01-14 14:45:04.506165	347.7	23.2	-90.2	7.2
2025-01-14 14:45:05.657270	347.4	23.2	-90.2	9.4
2025-01-14 14:45:06.806919	347.1	23.1	-90.1	8.9
2025-01-14 14:45:07.953311	346.8	23.1	-90.6	7.6
2025-01-14 14:45:09.100131	346.5	23.1	-90.1	3.7
2025-01-14 14:45:10.234865	346.2	23.0	-90.4	6.9
2025-01-14 14:45:11.363173	345.9	23.0	-90.5	7.6
2025-01-14 14:45:12.485259	345.6	22.9	-90.7	10.7
2025-01-14 14:45:13.605762	345.3	22.9	-90.4	6.0
2025-01-14 14:45:14.726256	345.1	22.8	-90.5	7.2
2025-01-14 14:45:15.846804	344.8	22.8	-90.8	14.0
2025-01-14 14:45:16.967306	344.5	22.7	-90.7	6.4
2025-01-14 14:45:18.087356	344.2	22.7	-90.4	8.1
2025-01-14 14:45:19.208499	343.9	22.6	-90.0	13.2
2025-01-14 14:45:20.335477	343.6	22.6	-89.9	12.9
2025-01-14 14:45:21.478105	343.4	22.5	-89.4	11.6
2025-01-14 14:45:22.624360	343.1	22.4	-89.6	11.3
2025-01-14 14:45:23.770133	342.8	22.4	-89.7	6.8
2025-01-14 14:45:24.915891	342.5	22.3	-89.6	5.2
2025-01-14 14:45:26.070578	342.2	22.3	-89.9	10.6
2025-01-14 14:45:27.216659	341.9	22.2	-90.3	6.7
2025-01-14 14:45:28.368843	341.7	22.2	-90.3	9.6
2025-01-14 14:45:29.517534	341.4	22.1	-90.2	10.7
2025-01-14 14:45:30.662308	341.1	22.0	-90.1	3.9
2025-01-14 14:45:31.810939	340.8	22.0	-90.1	6.6
2025-01-14 14:45:32.957563	340.5	21.9	-90.3	7.5
2025-01-14 14:45:34.105422	340.3	21.9	-90.5	9.3
2025-01-14 14:45:35.253389	340.0	21.8	-90.4	10.1
2025-01-14 14:45:36.399849	339.7	21.7	-90.3	12.1
2025-01-14 14:45:37.548612	339.5	21.7	-89.8	10.4
2025-01-14 14:45:38.695007	339.2	21.6	-90.2	11.7
2025-01-14 14:45:39.850602	338.9	21.5	-90.2	10.4
2025-01-14 14:45:40.997761	338.6	21.5	-90.2	7.8
2025-01-14 14:45:42.145461	338.4	21.4	-90.1	6.8
2025-01-14 14:45:43.289667	338.1	21.4	-90.2	6.0
2025-01-14 14:45:44.438655	337.9	21.3	-90.1	6.6
2025-01-14 14:45:45.585624	337.6	21.2	-90.1	5.3
2025-01-14 14:45:46.734211	337.3	21.2	-90.3	11.0
2025-01-14 14:45:47.883774	337.1	21.1	-90.2	7.9
2025-01-14 14:45:49.033128	336.8	21.0	-90.2	6.2
2025-01-14 14:45:50.176003	336.5	20.9	-90.2	6.9
2025-01-14 14:45:51.322971	336.3	20.9	-90.2	7.1
2025-01-14 14:45:52.472523	336.0	20.8	-89.9	5.0
2025-01-14 14:45:53.621305	335.8	20.7	-90.1	6.8
2025-01-14 14:45:54.772058	335.5	20.7	-90.1	9.5
2025-01-14 14:45:55.925078	335.3	20.6	-90.3	5.7
2025-01-14 14:45:57.078659	335.0	20.5	-90.0	4.2
2025-01-14 14:45:58.225949	334.8	20.5	-90.0	3.9
2025-01-14 14:45:59.373215	334.5	20.4	-90.2	6.6
2025-01-14 14:46:00.513437	334.3	20.3	-90.4	5.4
2025-01-14 14:46:01.656697	334.0	20.2	-90.3	5.1
2025-01-14 14:46:02.807790	333.8	20.2	-90.0	4.1
2025-01-14 14:46:03.960670	333.5	20.1	-90.2	4.9
2025-01-14 14:46:05.110407	333.3	20.0	-90.4	5.0
2025-01-14 14:46:06.264069	333.0	19.9	-90.2	4.2
2025-01-14 14:46:07.408619	332.8	19.9	-90.2	7.3
2025-01-14 14:46:08.558252	332.6	19.8	-90.4	5.8
2025-01-14 14:46:09.708399	332.3	19.7	-90.4	6.0
2025-01-14 14:46:10.860257	332.1	19.6	-89.8	4.7
2025-01-14 14:46:12.010552	331.8	19.6	-90.4	5.5
2025-01-14 14:46:13.157371	331.6	19.5	-90.1	6.2
2025-01-14 14:46:14.304278	331.4	19.4	-89.8	4.8
2025-01-14 14:46:15.451727	331.1	19.3	-90.5	3.5
2025-01-14 14:46:16.604046	330.9	19.3	-90.3	4.4
2025-01-14 14:46:17.747828	330.7	19.2	-89.9	4.9
2025-01-14 14:46:18.900739	330.4	19.1	-90.0	4.1
2025-01-14 14:46:20.045726	330.2	19.0	-90.0	4.7
2025-01-14 14:46:21.192033	330.0	19.0	-90.4	3.1
2025-01-14 14:46:22.339724	329.8	18.9	-90.3	4.0
2025-01-14 14:46:23.482937	329.5	18.8	-89.9	3.0
2025-01-14 14:46:24.629192	329.3	18.7	-90.0	6.1
2025-01-14 14:46:25.775334	329.1	18.6	-89.9	3.4
2025-01-14 14:46:26.925866	328.9	18.6	-90.0	4.2
2025-01-14 14:46:28.074515	328.6	18.5	-89.9	4.3
2025-01-14 14:46:29.219292	328.4	18.4	-90.5	4.2
2025-01-14 14:46:30.364597	328.2	18.3	-89.6	3.9
2025-01-14 14:46:31.512398	328.0	18.3	-90.3	4.3
2025-01-14 14:46:32.661006	327.8	18.2	-90.4	4.3
2025-01-14 14:46:33.810081	327.6	18.1	-90.0	5.0
2025-01-14 14:46:34.950627	327.3	18.0	-90.3	2.7
2025-01-14 14:46:36.108080	327.1	17.9	-90.2	4.4
2025-01-14 14:46:37.252212	326.9	17.9	-90.4	5.1
2025-01-14 14:46:38.399074	326.7	17.8	-90.5	6.1
2025-01-14 14:46:39.545265	326.5	17.7	-90.9	4.1
2025-01-14 14:46:40.690713	326.3	17.6	-89.8	4.9
2025-01-14 14:46:41.844831	326.1	17.5	-90.1	3.0
2025-01-14 14:46:42.995094	325.9	17.5	-90.1	2.7
2025-01-14 14:46:44.142823	325.7	17.4	-89.8	5.0
2025-01-14 14:46:45.296575	325.5	17.3	-90.3	5.6
2025-01-14 14:46:46.440267	325.3	17.2	-90.3	4.1
2025-01-14 14:46:47.584979	325.1	17.1	-90.3	4.4
2025-01-14 14:46:48.735085	324.9	17.0	-90.9	5.1
2025-01-14 14:46:49.883204	324.7	17.0	-90.8	4.2
2025-01-14 14:46:51.026764	324.5	16.9	-90.8	4.2
2025-01-14 14:46:52.179446	324.3	16.8	-90.9	5.1
2025-01-14 14:46:53.329553	324.1	16.7	-90.4	5.2
2025-01-14 14:46:54.477275	323.9	16.6	-90.8	4.1
2025-01-14 14:46:55.623029	323.7	16.6	-90.6	4.0
2025-01-14 14:46:56.769894	323.5	16.5	-90.1	6.0
2025-01-14 14:46:57.918623	323.3	16.4	-90.1	6.0
2025-01-14 14:46:59.065725	323.1	16.3	-90.3	3.8
2025-01-14 14:47:00.211440	322.9	16.2	-90.4	5.1
2025-01-14 14:47:01.367403	322.7	16.1	-90.7	6.8
2025-01-14 14:47:02.512768	322.5	16.1	-90.3	5.1
2025-01-14 14:47:03.664248	322.4	16.0	-90.3	3.4
2025-01-14 14:47:04.810606	322.2	15.9	-90.3	3.9
2025-01-14 14:47:05.951311	322.0	15.8	-89.9	3.7
2025-01-14 14:47:07.100499	321.8	15.7	-90.0	5.1
2025-01-14 14:47:08.246718	321.6	15.7	-90.2	6.5
2025-01-14 14:47:09.394848	321.4	15.6	-90.1	4.2
2025-01-14 14:47:10.542937	321.3	15.5	-90.1	8.0
2025-01-14 14:47:11.689620	321.1	15.4	-90.7	3.1
2025-01-14 14:47:12.836202	320.9	15.3	-90.1	4.7
2025-01-14 14:47:13.984091	320.7	15.2	-90.0	3.9
2025-01-14 14:47:15.133502	320.5	15.2	-90.3	7.8
2025-01-14 14:47:16.278668	320.4	15.1	-89.7	5.5
2025-01-14 14:47:17.424924	320.2	15.0	-89.8	7.8
2025-01-14 14:47:18.573168	320.0	14.9	-90.3	7.6
2025-01-14 14:47:19.720270	319.8	14.8	-90.0	7.2
2025-01-14 14:47:20.862705	319.7	14.7	-90.1	9.0
2025-01-14 14:47:22.013396	319.5	14.7	-90.2	6.8
#Closed at: 2025-01-14 14:41:04.846076