passes_logs/2025/01/14/LEX_Murmansk/LEX_Murmansk__20250114_193951_NOAA_18_rec.log

#Pass ID: 20250114_193951_NOAA 18
#Satellite: NOAA 18
#Configuration: NOAA 18
#Start time: 2025-01-14 19:39:46.616139

#LorettStation: 1.0.0 05.05.2024
#Station: LEX_Murmansk
#Location: 33.156738 lon 68.926811 lat
#TLE: 1 28654U 05018A   25014.17177243  .00000313  00000+0  18955-3 0  9990
#TLE: 2 28654  98.8569  95.2344 0014326 181.4762 178.6370 14.13485757 13061

#Time	Az	El	Level	SNR
2025-01-14 19:39:58.739150	177.0	16.3	-91.8	6.8
2025-01-14 19:40:01.055246	177.2	16.5	-92.1	6.2
2025-01-14 19:40:03.368822	177.3	16.8	-92.3	4.8
2025-01-14 19:40:05.686616	177.4	17.0	-92.2	5.6
2025-01-14 19:40:07.999547	177.6	17.3	-92.2	4.0
2025-01-14 19:40:10.320218	177.7	17.5	-92.1	3.6
2025-01-14 19:40:12.640868	177.9	17.8	-92.5	4.6
2025-01-14 19:40:14.958026	178.0	18.1	-92.2	5.6
2025-01-14 19:40:17.286645	178.2	18.3	-92.0	5.7
2025-01-14 19:40:19.614335	178.3	18.6	-92.4	8.1
2025-01-14 19:40:21.939984	178.5	18.9	-92.6	10.2
2025-01-14 19:40:24.270232	178.6	19.1	-92.5	10.7
2025-01-14 19:40:26.591352	178.8	19.4	-92.3	6.7
2025-01-14 19:40:28.914412	179.0	19.7	-92.4	7.6
2025-01-14 19:40:31.235515	179.1	20.0	-92.4	13.5
2025-01-14 19:40:33.554066	179.3	20.3	-92.1	13.9
2025-01-14 19:40:35.874202	179.5	20.6	-92.5	13.6
2025-01-14 19:40:38.199223	179.6	20.8	-92.3	8.0
2025-01-14 19:40:40.511207	179.8	21.1	-92.5	9.0
2025-01-14 19:40:42.751985	180.0	21.4	-92.5	5.8
2025-01-14 19:40:44.996221	180.2	21.7	-92.2	4.2
2025-01-14 19:40:47.236973	180.3	22.0	-92.3	5.5
2025-01-14 19:40:49.484842	180.5	22.3	-92.2	10.2
2025-01-14 19:40:51.793805	180.7	22.6	-92.4	11.7
2025-01-14 19:40:54.116165	180.9	22.9	-92.3	10.6
2025-01-14 19:40:56.445112	181.1	23.3	-92.7	11.7
2025-01-14 19:40:58.772283	181.3	23.6	-92.7	12.1
2025-01-14 19:41:01.100990	181.5	23.9	-92.6	6.8
2025-01-14 19:41:03.418147	181.7	24.2	-92.6	6.7
2025-01-14 19:41:05.736444	182.0	24.6	-92.5	11.6
2025-01-14 19:41:08.061943	182.2	24.9	-92.4	12.2
2025-01-14 19:41:10.382265	182.4	25.2	-92.7	10.4
2025-01-14 19:41:12.687374	182.6	25.6	-92.6	9.1
2025-01-14 19:41:14.961957	182.9	25.9	-92.8	10.8
2025-01-14 19:41:17.271385	183.1	26.3	-92.5	11.9
2025-01-14 19:41:19.588802	183.3	26.6	-92.5	5.1
2025-01-14 19:41:21.901715	183.6	27.0	-92.3	6.9
2025-01-14 19:41:24.226937	183.9	27.4	-92.1	10.2
2025-01-14 19:41:26.551336	184.1	27.7	-92.4	8.9
2025-01-14 19:41:28.872463	184.4	28.1	-92.7	10.2
2025-01-14 19:41:31.191488	184.7	28.5	-92.2	11.9
2025-01-14 19:41:33.505416	184.9	28.9	-92.5	10.6
2025-01-14 19:41:35.831135	185.2	29.2	-92.3	9.7
2025-01-14 19:41:38.154041	185.5	29.6	-92.4	9.6
2025-01-14 19:41:40.473296	185.8	30.0	-92.4	9.9
2025-01-14 19:41:42.794084	186.1	30.4	-92.2	9.7
2025-01-14 19:41:45.120131	186.5	30.8	-92.1	7.2
2025-01-14 19:41:47.444313	186.8	31.3	-92.4	9.8
2025-01-14 19:41:49.748196	187.1	31.7	-92.5	9.6
2025-01-14 19:41:51.990585	187.4	32.1	-92.4	7.9
2025-01-14 19:41:54.232584	187.8	32.5	-92.4	10.8
2025-01-14 19:41:56.475402	188.1	32.9	-92.2	4.7
2025-01-14 19:41:58.722962	188.5	33.3	-92.4	11.9
2025-01-14 19:42:01.023922	188.8	33.7	-92.6	14.0
2025-01-14 19:42:03.331964	189.2	34.2	-92.1	13.4
2025-01-14 19:42:05.648435	189.6	34.6	-92.1	12.5
2025-01-14 19:42:07.970886	190.0	35.1	-92.2	10.2
2025-01-14 19:42:10.295260	190.4	35.5	-92.5	10.9
2025-01-14 19:42:12.568206	190.9	36.0	-92.4	9.7
2025-01-14 19:42:14.868248	191.3	36.5	-92.5	11.1
2025-01-14 19:42:17.175284	191.8	36.9	-92.6	14.2
2025-01-14 19:42:19.491029	192.2	37.4	-92.3	18.4
2025-01-14 19:42:21.809270	192.7	37.9	-92.6	16.6
2025-01-14 19:42:24.135743	193.2	38.4	-92.7	13.4
2025-01-14 19:42:26.445174	193.7	38.9	-92.6	11.5
2025-01-14 19:42:28.734485	194.2	39.4	-92.3	10.4
2025-01-14 19:42:31.038843	194.7	39.9	-92.4	11.2
2025-01-14 19:42:33.341532	195.3	40.4	-92.2	13.3
2025-01-14 19:42:35.637521	195.9	40.9	-92.6	11.4
2025-01-14 19:42:37.949876	196.5	41.4	-92.3	13.7
2025-01-14 19:42:40.279615	197.1	41.9	-92.4	18.1
2025-01-14 19:42:42.594297	197.7	42.4	-92.4	17.7
2025-01-14 19:42:44.916383	198.3	42.9	-92.3	13.6
2025-01-14 19:42:47.247367	199.0	43.5	-92.2	16.8
2025-01-14 19:42:49.558017	199.7	44.0	-92.4	18.4
2025-01-14 19:42:51.871067	200.4	44.5	-92.4	17.5
2025-01-14 19:42:54.194808	201.2	45.0	-92.4	18.2
2025-01-14 19:42:56.511515	201.9	45.6	-92.8	10.9
2025-01-14 19:42:58.828398	202.7	46.1	-92.5	18.8
2025-01-14 19:43:01.148397	203.5	46.7	-92.4	19.1
2025-01-14 19:43:03.465665	204.4	47.2	-92.0	16.3
2025-01-14 19:43:05.794330	205.2	47.7	-92.4	19.5
2025-01-14 19:43:08.120544	206.2	48.3	-92.4	17.0
2025-01-14 19:43:10.361157	207.1	48.8	-92.5	19.5
2025-01-14 19:43:12.606892	208.0	49.3	-92.5	18.7
2025-01-14 19:43:14.847307	209.0	49.8	-92.4	18.0
2025-01-14 19:43:17.091427	210.0	50.3	-92.3	14.7
2025-01-14 19:43:19.410736	211.0	50.9	-92.2	11.0
2025-01-14 19:43:21.722130	212.1	51.4	-92.5	15.8
2025-01-14 19:43:24.044739	213.3	51.9	-92.2	10.6
2025-01-14 19:43:26.356119	214.5	52.4	-92.4	22.5
2025-01-14 19:43:28.673152	215.7	52.9	-92.5	22.5
2025-01-14 19:43:30.998657	217.0	53.4	-92.3	21.3
2025-01-14 19:43:33.317959	218.3	53.9	-92.6	23.5
2025-01-14 19:43:35.602268	219.6	54.3	-92.3	20.0
2025-01-14 19:43:37.902457	221.0	54.8	-92.6	17.1
2025-01-14 19:43:40.216536	222.4	55.2	-92.3	24.3
2025-01-14 19:43:42.523950	223.9	55.7	-92.3	23.7
2025-01-14 19:43:44.843997	225.4	56.1	-92.6	26.2
2025-01-14 19:43:47.170968	227.0	56.5	-92.5	24.6
2025-01-14 19:43:49.488785	228.6	56.9	-92.3	20.3
2025-01-14 19:43:51.810963	230.3	57.2	-92.5	23.4
2025-01-14 19:43:54.137345	232.0	57.6	-92.6	18.7
2025-01-14 19:43:56.463402	233.8	57.9	-92.4	13.1
2025-01-14 19:43:58.795850	235.6	58.2	-92.2	24.5
2025-01-14 19:44:01.114320	237.4	58.5	-92.3	16.7
2025-01-14 19:44:03.423665	239.3	58.7	-92.2	17.4
2025-01-14 19:44:05.752083	241.2	58.9	-92.6	23.0
2025-01-14 19:44:08.071829	243.1	59.1	-92.8	22.1
2025-01-14 19:44:10.390762	245.0	59.3	-92.7	18.5
2025-01-14 19:44:12.705287	247.0	59.4	-92.6	13.1
2025-01-14 19:44:15.035389	249.0	59.5	-92.8	13.3
2025-01-14 19:44:17.371819	251.0	59.5	-92.6	16.3
2025-01-14 19:44:19.692968	253.0	59.6	-92.4	22.1
2025-01-14 19:44:22.018776	255.0	59.6	-92.7	11.4
2025-01-14 19:44:24.336400	257.0	59.5	-92.4	16.2
2025-01-14 19:44:26.654209	259.0	59.5	-92.6	14.8
2025-01-14 19:44:28.980674	261.0	59.4	-92.8	14.9
2025-01-14 19:44:31.289459	263.0	59.3	-92.5	8.3
2025-01-14 19:44:33.541890	264.9	59.1	-92.7	15.8
2025-01-14 19:44:35.782908	266.7	58.9	-92.8	15.2
2025-01-14 19:44:38.023752	268.6	58.7	-92.7	14.2
2025-01-14 19:44:40.269038	270.4	58.5	-92.6	17.7
2025-01-14 19:44:42.556340	272.2	58.3	-92.8	16.1
2025-01-14 19:44:44.872260	274.0	58.0	-92.4	17.4
2025-01-14 19:44:47.188158	275.8	57.7	-92.6	15.3
2025-01-14 19:44:49.515635	277.5	57.3	-92.5	14.9
2025-01-14 19:44:51.841695	279.2	57.0	-92.2	19.9
2025-01-14 19:44:54.131396	280.8	56.6	-92.6	15.0
2025-01-14 19:44:56.407477	282.4	56.2	-92.4	12.9
2025-01-14 19:44:58.703756	283.9	55.8	-92.5	16.8
2025-01-14 19:45:00.998936	285.4	55.4	-92.4	17.7
2025-01-14 19:45:03.298355	286.8	55.0	-92.6	15.4
2025-01-14 19:45:05.613731	288.2	54.5	-92.4	13.0
2025-01-14 19:45:07.930590	289.6	54.0	-92.6	17.0
2025-01-14 19:45:10.242467	290.9	53.6	-92.2	14.6
2025-01-14 19:45:12.567324	292.2	53.1	-92.7	12.6
2025-01-14 19:45:14.894028	293.4	52.6	-92.6	14.6
2025-01-14 19:45:17.221293	294.6	52.1	-92.3	14.3
2025-01-14 19:45:19.538828	295.8	51.5	-92.3	10.1
2025-01-14 19:45:21.858549	296.9	51.0	-92.1	17.4
2025-01-14 19:45:24.173490	298.0	50.5	-92.4	16.4
2025-01-14 19:45:26.500324	299.0	50.0	-92.5	7.7
2025-01-14 19:45:28.826061	300.1	49.4	-92.3	18.7
2025-01-14 19:45:31.149038	301.0	48.9	-92.2	15.3
2025-01-14 19:45:33.463297	302.0	48.4	-92.4	14.1
2025-01-14 19:45:35.787513	302.9	47.8	-92.3	18.4
2025-01-14 19:45:38.124828	303.8	47.3	-92.4	13.2
2025-01-14 19:45:40.448817	304.6	46.8	-92.4	13.2
2025-01-14 19:45:42.769491	305.4	46.2	-92.4	18.3
2025-01-14 19:45:45.095995	306.2	45.7	-92.2	19.9
2025-01-14 19:45:47.418028	307.0	45.1	-92.3	15.8
2025-01-14 19:45:49.729988	307.7	44.6	-92.4	22.2
2025-01-14 19:45:52.007460	308.5	44.1	-92.4	15.7
2025-01-14 19:45:54.248715	309.1	43.6	-92.2	10.1
2025-01-14 19:45:56.490229	309.8	43.1	-92.3	7.9
2025-01-14 19:45:58.731026	310.4	42.6	-92.2	21.6
2025-01-14 19:46:01.000559	311.0	42.0	-92.5	12.0
2025-01-14 19:46:03.315110	311.6	41.5	-92.4	19.7
2025-01-14 19:46:05.622085	312.2	41.0	-92.5	11.0
2025-01-14 19:46:07.946053	312.8	40.5	-92.5	17.2
2025-01-14 19:46:10.263044	313.4	40.0	-92.2	19.9
2025-01-14 19:46:12.584436	313.9	39.5	-92.4	18.1
2025-01-14 19:46:14.909988	314.5	39.0	-92.4	17.6
2025-01-14 19:46:17.235850	315.0	38.5	-92.3	11.6
2025-01-14 19:46:19.559099	315.5	38.0	-92.3	9.9
2025-01-14 19:46:21.883272	316.0	37.5	-92.6	8.4
2025-01-14 19:46:24.211200	316.4	37.1	-92.7	8.8
2025-01-14 19:46:26.532705	316.9	36.6	-92.6	6.3
2025-01-14 19:46:28.853914	317.3	36.1	-92.6	12.3
2025-01-14 19:46:31.183136	317.8	35.7	-92.5	10.4
2025-01-14 19:46:33.510326	318.2	35.2	-92.4	14.3
2025-01-14 19:46:35.822634	318.6	34.7	-92.5	13.2
2025-01-14 19:46:38.141980	319.0	34.3	-92.4	12.5
2025-01-14 19:46:40.468349	319.4	33.8	-92.2	9.5
2025-01-14 19:46:42.791357	319.8	33.4	-92.6	18.6
2025-01-14 19:46:45.106355	320.1	33.0	-92.1	9.4
2025-01-14 19:46:47.370828	320.5	32.6	-92.2	12.3
2025-01-14 19:46:49.613069	320.8	32.1	-92.4	12.6
2025-01-14 19:46:51.853927	321.1	31.7	-92.3	14.3
2025-01-14 19:46:54.095325	321.5	31.3	-92.3	7.0
2025-01-14 19:46:56.376992	321.8	30.9	-92.4	11.7
2025-01-14 19:46:58.698614	322.1	30.5	-92.3	15.3
2025-01-14 19:47:00.992973	322.4	30.1	-92.5	5.7
2025-01-14 19:47:03.278847	322.7	29.7	-92.3	20.4
2025-01-14 19:47:05.577051	323.0	29.4	-92.2	6.3
2025-01-14 19:47:07.884442	323.3	29.0	-92.4	8.8
2025-01-14 19:47:10.197537	323.6	28.6	-92.3	8.7
2025-01-14 19:47:12.478141	323.8	28.2	-92.4	11.4
2025-01-14 19:47:14.764531	324.1	27.8	-92.6	7.3
2025-01-14 19:47:17.062329	324.4	27.5	-92.3	9.1
2025-01-14 19:47:19.388027	324.6	27.1	-92.5	11.8
2025-01-14 19:47:21.698102	324.9	26.7	-92.3	16.3
2025-01-14 19:47:24.019245	325.1	26.4	-92.2	12.7
2025-01-14 19:47:26.339831	325.4	26.0	-92.2	17.6
2025-01-14 19:47:28.665914	325.6	25.7	-92.4	13.2
2025-01-14 19:47:30.990594	325.9	25.3	-92.5	5.9
2025-01-14 19:47:33.309872	326.1	25.0	-92.2	10.7
2025-01-14 19:47:35.630030	326.3	24.7	-92.0	9.8
2025-01-14 19:47:37.961951	326.5	24.3	-92.2	9.5
2025-01-14 19:47:40.300071	326.7	24.0	-91.8	18.1
2025-01-14 19:47:42.628883	327.0	23.7	-91.6	13.6
2025-01-14 19:47:44.948299	327.2	23.3	-92.0	13.8
2025-01-14 19:47:47.278697	327.4	23.0	-92.2	7.2
2025-01-14 19:47:49.597542	327.6	22.7	-92.3	9.3
2025-01-14 19:47:51.923373	327.8	22.4	-92.2	6.8
2025-01-14 19:47:54.243717	328.0	22.1	-92.6	9.0
2025-01-14 19:47:56.563327	328.1	21.8	-92.7	6.8
2025-01-14 19:47:58.880100	328.3	21.5	-92.6	9.8
2025-01-14 19:48:01.200200	328.5	21.2	-92.3	6.0
2025-01-14 19:48:03.514582	328.7	20.9	-92.5	4.4
2025-01-14 19:48:05.837289	328.9	20.6	-92.7	7.1
2025-01-14 19:48:08.155967	329.0	20.3	-92.6	5.0
2025-01-14 19:48:10.479851	329.2	20.0	-92.7	4.5
2025-01-14 19:48:12.810416	329.4	19.7	-92.4	5.4
2025-01-14 19:48:15.128976	329.5	19.5	-92.1	3.6
2025-01-14 19:48:17.453925	329.7	19.2	-92.2	4.8
2025-01-14 19:48:19.779751	329.8	18.9	-92.6	7.2
2025-01-14 19:48:22.102388	330.0	18.6	-92.2	3.3
2025-01-14 19:48:24.434331	330.2	18.4	-92.5	3.1
2025-01-14 19:48:26.764242	330.3	18.1	-92.2	9.3
2025-01-14 19:48:29.085267	330.5	17.8	-92.5	4.4
2025-01-14 19:48:31.405587	330.6	17.6	-92.3	3.3
2025-01-14 19:48:33.729751	330.7	17.3	-92.6	6.5
2025-01-14 19:48:36.044503	330.9	17.1	-92.4	2.7
2025-01-14 19:48:38.363354	331.0	16.8	-92.4	5.2
2025-01-14 19:48:40.680436	331.2	16.5	-92.5	5.9
2025-01-14 19:48:42.959029	331.3	16.3	-92.6	2.9
2025-01-14 19:48:45.200272	331.4	16.1	-92.4	3.2
2025-01-14 19:48:47.441881	331.6	15.8	-92.6	3.9
2025-01-14 19:48:49.682243	331.7	15.6	-92.5	3.6
2025-01-14 19:48:51.941493	331.8	15.4	-92.5	4.2
2025-01-14 19:48:54.262396	331.9	15.1	-92.5	5.7
2025-01-14 19:48:56.582763	332.0	14.9	-92.7	7.9
2025-01-14 19:48:58.906115	332.2	14.7	-92.6	2.8
#Closed at: 2025-01-14 19:39:51.536088