passes_logs/2025/01/14/LEX_Murmansk/LEX_Murmansk__20250114_161958_NOAA_18_rec.log

#Pass ID: 20250114_161958_NOAA 18
#Satellite: NOAA 18
#Configuration: NOAA 18
#Start time: 2025-01-14 16:19:53.151720

#LorettStation: 1.0.0 05.05.2024
#Station: LEX_Murmansk
#Location: 33.156738 lon 68.926811 lat
#TLE: 1 28654U 05018A   25014.17177243  .00000313  00000+0  18955-3 0  9990
#TLE: 2 28654  98.8569  95.2344 0014326 181.4762 178.6370 14.13485757 13061

#Time	Az	El	Level	SNR
2025-01-14 16:20:05.273187	79.1	16.0	-88.6	9.2
2025-01-14 16:20:06.420306	78.9	16.1	-87.8	11.2
2025-01-14 16:20:07.572850	78.8	16.2	-87.5	14.3
2025-01-14 16:20:08.720176	78.6	16.3	-87.8	10.4
2025-01-14 16:20:09.870528	78.5	16.4	-88.6	8.3
2025-01-14 16:20:11.017195	78.3	16.5	-88.3	4.3
2025-01-14 16:20:12.176055	78.2	16.6	-88.3	10.6
2025-01-14 16:20:13.323876	78.0	16.7	-88.1	8.5
2025-01-14 16:20:14.477102	77.9	16.8	-88.3	6.8
2025-01-14 16:20:15.621878	77.7	16.9	-88.0	12.3
2025-01-14 16:20:16.766206	77.6	17.0	-88.3	9.3
2025-01-14 16:20:17.917312	77.4	17.2	-88.7	8.0
2025-01-14 16:20:19.063914	77.2	17.3	-88.8	8.7
2025-01-14 16:20:20.217999	77.1	17.4	-88.6	9.4
2025-01-14 16:20:21.370756	76.9	17.5	-88.4	6.0
2025-01-14 16:20:22.517961	76.7	17.6	-88.4	6.5
2025-01-14 16:20:23.668727	76.6	17.7	-88.5	11.3
2025-01-14 16:20:24.822416	76.4	17.8	-88.8	18.7
2025-01-14 16:20:25.975757	76.2	17.9	-88.7	13.0
2025-01-14 16:20:27.122708	76.1	18.0	-88.6	11.6
2025-01-14 16:20:28.272895	75.9	18.1	-88.8	17.2
2025-01-14 16:20:29.419324	75.7	18.2	-89.1	10.4
2025-01-14 16:20:30.569074	75.6	18.3	-88.7	4.1
2025-01-14 16:20:31.727462	75.4	18.4	-88.4	9.7
2025-01-14 16:20:32.877919	75.2	18.5	-88.2	8.5
2025-01-14 16:20:34.029163	75.0	18.6	-89.5	4.7
2025-01-14 16:20:35.178776	74.8	18.7	-89.8	7.8
2025-01-14 16:20:36.333316	74.7	18.8	-88.7	11.1
2025-01-14 16:20:37.482962	74.5	18.9	-89.2	12.2
2025-01-14 16:20:38.630447	74.3	19.0	-89.4	11.3
2025-01-14 16:20:39.785343	74.1	19.1	-89.5	12.1
2025-01-14 16:20:40.940182	73.9	19.2	-88.8	11.1
2025-01-14 16:20:42.096864	73.7	19.3	-89.9	6.2
2025-01-14 16:20:43.246285	73.6	19.4	-89.6	12.4
2025-01-14 16:20:44.399781	73.4	19.5	-88.7	9.1
2025-01-14 16:20:45.554529	73.2	19.6	-88.9	9.1
2025-01-14 16:20:46.709544	73.0	19.8	-88.9	9.2
2025-01-14 16:20:47.854349	72.8	19.9	-89.2	12.4
2025-01-14 16:20:49.001317	72.6	20.0	-88.8	9.1
2025-01-14 16:20:50.159454	72.4	20.1	-89.0	6.3
2025-01-14 16:20:51.314815	72.2	20.2	-89.1	9.4
2025-01-14 16:20:52.464562	72.0	20.3	-89.5	5.5
2025-01-14 16:20:53.612531	71.8	20.4	-89.6	6.4
2025-01-14 16:20:54.767055	71.6	20.5	-89.5	8.1
2025-01-14 16:20:55.922049	71.4	20.6	-89.6	9.6
2025-01-14 16:20:57.079012	71.2	20.7	-89.7	11.4
2025-01-14 16:20:58.239330	71.0	20.8	-89.7	9.7
2025-01-14 16:20:59.378024	70.8	20.9	-89.9	16.8
2025-01-14 16:21:00.521639	70.6	21.0	-89.3	8.1
2025-01-14 16:21:01.678377	70.4	21.1	-89.3	10.4
2025-01-14 16:21:02.824601	70.2	21.2	-90.1	11.2
2025-01-14 16:21:03.975704	70.0	21.3	-89.0	7.7
2025-01-14 16:21:05.126077	69.7	21.5	-89.3	9.3
2025-01-14 16:21:06.286263	69.5	21.6	-89.2	10.9
2025-01-14 16:21:07.442832	69.3	21.7	-89.4	7.5
2025-01-14 16:21:08.593624	69.1	21.8	-89.3	10.7
2025-01-14 16:21:09.744300	68.9	21.9	-89.4	11.8
2025-01-14 16:21:10.895741	68.7	22.0	-89.6	5.6
2025-01-14 16:21:12.050789	68.4	22.1	-89.1	4.5
2025-01-14 16:21:13.206891	68.2	22.2	-89.3	14.7
2025-01-14 16:21:14.358251	68.0	22.3	-89.6	8.4
2025-01-14 16:21:15.505971	67.8	22.4	-89.0	8.1
2025-01-14 16:21:16.658277	67.5	22.5	-88.7	9.4
2025-01-14 16:21:17.815822	67.3	22.6	-89.0	11.1
2025-01-14 16:21:18.968601	67.1	22.7	-89.3	12.1
2025-01-14 16:21:20.124957	66.8	22.8	-89.5	11.5
2025-01-14 16:21:21.276160	66.6	22.9	-89.2	12.8
2025-01-14 16:21:22.426672	66.4	23.1	-88.9	8.9
2025-01-14 16:21:23.579909	66.1	23.2	-89.2	8.1
2025-01-14 16:21:24.738377	65.9	23.3	-89.5	13.5
2025-01-14 16:21:25.896296	65.6	23.4	-88.9	7.6
2025-01-14 16:21:27.048992	65.4	23.5	-88.6	8.5
2025-01-14 16:21:28.194898	65.1	23.6	-88.7	12.6
2025-01-14 16:21:29.343666	64.9	23.7	-88.4	11.5
2025-01-14 16:21:30.497493	64.6	23.8	-88.6	8.6
2025-01-14 16:21:31.649146	64.4	23.9	-88.8	7.4
2025-01-14 16:21:32.796732	64.1	24.0	-89.2	6.8
2025-01-14 16:21:33.952960	63.9	24.1	-89.3	6.5
2025-01-14 16:21:35.100216	63.6	24.2	-89.1	5.4
2025-01-14 16:21:36.248243	63.4	24.3	-89.3	11.5
2025-01-14 16:21:37.401179	63.1	24.4	-89.7	8.4
2025-01-14 16:21:38.549352	62.9	24.5	-89.4	7.5
2025-01-14 16:21:39.698445	62.6	24.6	-89.5	11.7
2025-01-14 16:21:40.845664	62.3	24.7	-89.7	10.0
2025-01-14 16:21:42.000953	62.1	24.8	-89.6	11.1
2025-01-14 16:21:43.153679	61.8	24.9	-89.6	13.0
2025-01-14 16:21:44.301812	61.5	25.0	-89.7	11.5
2025-01-14 16:21:45.461846	61.3	25.1	-89.9	6.6
2025-01-14 16:21:46.620987	61.0	25.2	-89.5	7.8
2025-01-14 16:21:47.773403	60.7	25.3	-89.3	10.2
2025-01-14 16:21:48.928484	60.4	25.4	-89.8	4.7
2025-01-14 16:21:50.078247	60.2	25.5	-89.4	6.1
2025-01-14 16:21:51.234841	59.9	25.6	-89.8	9.3
2025-01-14 16:21:52.394067	59.6	25.7	-89.6	10.2
2025-01-14 16:21:53.545897	59.3	25.8	-89.5	10.3
2025-01-14 16:21:54.693548	59.0	25.9	-89.4	6.1
2025-01-14 16:21:55.840357	58.7	26.0	-89.4	7.7
2025-01-14 16:21:56.990381	58.5	26.1	-89.4	6.2
2025-01-14 16:21:58.135766	58.2	26.2	-89.8	7.2
2025-01-14 16:21:59.292649	57.9	26.3	-89.7	12.1
2025-01-14 16:22:00.440855	57.6	26.4	-89.4	5.7
2025-01-14 16:22:01.595014	57.3	26.5	-90.3	5.2
2025-01-14 16:22:02.746134	57.0	26.6	-89.8	4.8
2025-01-14 16:22:03.912207	56.7	26.7	-89.8	4.8
2025-01-14 16:22:05.069830	56.4	26.8	-89.3	6.1
2025-01-14 16:22:06.220210	56.1	26.9	-89.4	5.4
2025-01-14 16:22:07.369698	55.8	27.0	-89.2	6.0
2025-01-14 16:22:08.527676	55.5	27.1	-89.0	4.9
2025-01-14 16:22:09.677180	55.2	27.2	-89.0	5.9
2025-01-14 16:22:10.828248	54.8	27.3	-89.5	6.7
2025-01-14 16:22:11.983962	54.5	27.4	-90.1	5.2
2025-01-14 16:22:13.139962	54.2	27.5	-90.2	5.6
2025-01-14 16:22:14.285403	53.9	27.5	-89.7	7.4
2025-01-14 16:22:15.437597	53.6	27.6	-89.8	5.5
2025-01-14 16:22:16.599764	53.3	27.7	-89.6	5.5
2025-01-14 16:22:17.752231	52.9	27.8	-89.8	5.2
2025-01-14 16:22:18.903376	52.6	27.9	-90.1	9.1
2025-01-14 16:22:20.050017	52.3	28.0	-89.6	7.1
2025-01-14 16:22:21.202921	52.0	28.1	-89.5	8.9
2025-01-14 16:22:22.357738	51.6	28.2	-89.5	5.8
2025-01-14 16:22:23.506353	51.3	28.2	-89.6	7.1
2025-01-14 16:22:24.660597	51.0	28.3	-90.1	5.0
2025-01-14 16:22:25.816700	50.6	28.4	-90.1	5.9
2025-01-14 16:22:26.968690	50.3	28.5	-89.5	4.5
2025-01-14 16:22:28.119614	50.0	28.6	-89.2	3.9
2025-01-14 16:22:29.270811	49.6	28.6	-89.7	7.8
2025-01-14 16:22:30.420977	49.3	28.7	-90.0	6.2
2025-01-14 16:22:31.579776	48.9	28.8	-89.6	5.4
2025-01-14 16:22:32.731505	48.6	28.9	-90.1	9.6
2025-01-14 16:22:33.885314	48.3	29.0	-90.4	8.5
2025-01-14 16:22:35.034870	47.9	29.0	-90.0	8.2
2025-01-14 16:22:36.185048	47.6	29.1	-89.8	11.1
2025-01-14 16:22:37.338866	47.2	29.2	-89.9	12.6
2025-01-14 16:22:38.491284	46.9	29.2	-89.8	7.7
2025-01-14 16:22:39.648349	46.5	29.3	-89.7	5.8
2025-01-14 16:22:40.798546	46.2	29.4	-89.6	5.9
2025-01-14 16:22:41.946734	45.8	29.5	-89.9	4.6
2025-01-14 16:22:43.099780	45.4	29.5	-89.7	8.8
2025-01-14 16:22:44.255034	45.1	29.6	-90.4	7.4
2025-01-14 16:22:45.408976	44.7	29.7	-90.3	6.5
2025-01-14 16:22:46.573133	44.4	29.7	-90.0	8.7
2025-01-14 16:22:47.725325	44.0	29.8	-90.2	6.8
2025-01-14 16:22:48.874737	43.6	29.8	-89.7	11.3
2025-01-14 16:22:50.026184	43.3	29.9	-89.8	7.9
2025-01-14 16:22:51.180922	42.9	30.0	-89.7	7.9
2025-01-14 16:22:52.332719	42.5	30.0	-89.6	11.9
2025-01-14 16:22:53.487481	42.2	30.1	-89.9	12.1
2025-01-14 16:22:54.639239	41.8	30.1	-89.8	10.3
2025-01-14 16:22:55.797735	41.4	30.2	-89.6	10.4
2025-01-14 16:22:56.947159	41.0	30.2	-90.3	10.8
2025-01-14 16:22:58.096149	40.7	30.3	-89.5	9.7
2025-01-14 16:22:59.245307	40.3	30.3	-89.6	12.9
2025-01-14 16:23:00.392667	39.9	30.4	-89.4	11.1
2025-01-14 16:23:01.543061	39.5	30.4	-89.6	7.1
2025-01-14 16:23:02.701125	39.1	30.5	-89.4	11.6
2025-01-14 16:23:03.857729	38.8	30.5	-89.6	8.5
2025-01-14 16:23:05.012802	38.4	30.6	-89.9	7.6
2025-01-14 16:23:06.161980	38.0	30.6	-89.8	10.1
2025-01-14 16:23:07.320265	37.6	30.7	-89.4	14.3
2025-01-14 16:23:08.466586	37.2	30.7	-89.5	8.5
2025-01-14 16:23:09.614591	36.8	30.7	-89.6	9.2
2025-01-14 16:23:10.764781	36.5	30.8	-89.3	13.5
2025-01-14 16:23:11.913540	36.1	30.8	-89.2	10.3
2025-01-14 16:23:13.065558	35.7	30.8	-89.5	9.8
2025-01-14 16:23:14.216359	35.3	30.9	-89.3	13.0
2025-01-14 16:23:15.369316	34.9	30.9	-89.4	12.6
2025-01-14 16:23:16.523245	34.5	30.9	-89.5	10.0
2025-01-14 16:23:17.680213	34.1	31.0	-89.5	9.8
2025-01-14 16:23:18.827518	33.7	31.0	-89.6	9.5
2025-01-14 16:23:19.982937	33.3	31.0	-89.6	12.2
2025-01-14 16:23:21.132512	32.9	31.0	-88.9	11.6
2025-01-14 16:23:22.284917	32.6	31.1	-89.3	15.1
2025-01-14 16:23:23.435842	32.2	31.1	-89.3	12.1
2025-01-14 16:23:24.584061	31.8	31.1	-89.5	12.1
2025-01-14 16:23:25.730220	31.4	31.1	-89.5	11.4
2025-01-14 16:23:26.873286	31.0	31.1	-90.0	10.1
2025-01-14 16:23:28.024774	30.6	31.1	-90.1	9.3
2025-01-14 16:23:29.177753	30.2	31.2	-89.9	12.2
2025-01-14 16:23:30.329750	29.8	31.2	-90.1	13.8
2025-01-14 16:23:31.475668	29.4	31.2	-90.4	10.3
2025-01-14 16:23:32.624521	29.0	31.2	-90.0	5.7
2025-01-14 16:23:33.770141	28.6	31.2	-89.9	10.1
2025-01-14 16:23:34.917338	28.2	31.2	-89.7	8.1
2025-01-14 16:23:36.063067	27.8	31.2	-90.2	8.6
2025-01-14 16:23:37.219886	27.4	31.2	-90.3	7.1
2025-01-14 16:23:38.368349	27.0	31.2	-90.4	9.3
2025-01-14 16:23:39.514164	26.6	31.2	-90.5	10.8
2025-01-14 16:23:40.660551	26.2	31.2	-90.4	19.3
2025-01-14 16:23:41.817656	25.8	31.2	-89.8	12.8
2025-01-14 16:23:42.960191	25.4	31.2	-89.8	9.1
2025-01-14 16:23:44.110646	25.0	31.2	-90.0	9.2
2025-01-14 16:23:45.265332	24.6	31.2	-90.0	15.4
2025-01-14 16:23:46.422431	24.2	31.2	-89.9	10.0
2025-01-14 16:23:47.572552	23.8	31.1	-89.9	7.3
2025-01-14 16:23:48.721978	23.4	31.1	-90.0	5.9
2025-01-14 16:23:49.872330	23.0	31.1	-90.5	13.1
2025-01-14 16:23:51.015953	22.7	31.1	-90.2	11.6
2025-01-14 16:23:52.168558	22.3	31.1	-89.4	9.8
2025-01-14 16:23:53.319276	21.9	31.1	-89.6	6.2
2025-01-14 16:23:54.471081	21.5	31.0	-89.6	7.0
2025-01-14 16:23:55.618877	21.1	31.0	-90.2	7.2
2025-01-14 16:23:56.765982	20.7	31.0	-90.4	10.2
2025-01-14 16:23:57.919821	20.3	31.0	-90.0	12.0
2025-01-14 16:23:59.063838	19.9	30.9	-90.1	13.1
2025-01-14 16:24:00.213700	19.5	30.9	-90.2	15.3
2025-01-14 16:24:01.363883	19.1	30.9	-90.1	12.7
2025-01-14 16:24:02.517594	18.7	30.8	-89.6	11.3
2025-01-14 16:24:03.662116	18.3	30.8	-89.6	11.7
2025-01-14 16:24:04.808485	18.0	30.8	-90.2	9.8
2025-01-14 16:24:05.957767	17.6	30.7	-89.7	10.0
2025-01-14 16:24:07.103413	17.2	30.7	-89.6	7.7
2025-01-14 16:24:08.259901	16.8	30.7	-90.2	12.1
2025-01-14 16:24:09.413671	16.4	30.6	-90.4	8.7
2025-01-14 16:24:10.564150	16.0	30.6	-90.4	9.7
2025-01-14 16:24:11.714277	15.7	30.5	-90.2	6.1
2025-01-14 16:24:12.861472	15.3	30.5	-90.2	8.8
2025-01-14 16:24:14.008292	14.9	30.4	-90.1	7.8
2025-01-14 16:24:15.152748	14.5	30.4	-90.2	9.6
2025-01-14 16:24:16.308711	14.1	30.4	-90.2	12.6
2025-01-14 16:24:17.458213	13.8	30.3	-90.2	10.8
2025-01-14 16:24:18.612712	13.4	30.2	-90.6	9.8
2025-01-14 16:24:19.746324	13.0	30.2	-90.0	10.2
2025-01-14 16:24:20.867565	12.7	30.1	-89.8	8.3
2025-01-14 16:24:21.986454	12.3	30.1	-90.0	7.3
2025-01-14 16:24:23.106281	11.9	30.0	-89.7	8.7
2025-01-14 16:24:24.227226	11.6	30.0	-89.6	12.8
2025-01-14 16:24:25.347924	11.2	29.9	-89.8	14.6
2025-01-14 16:24:26.469679	10.9	29.9	-89.6	7.1
2025-01-14 16:24:27.594190	10.5	29.8	-90.6	9.4
2025-01-14 16:24:28.715845	10.1	29.7	-90.1	10.6
2025-01-14 16:24:29.871101	9.8	29.7	-90.4	9.2
2025-01-14 16:24:31.021298	9.4	29.6	-89.9	3.0
2025-01-14 16:24:32.172494	9.1	29.5	-90.0	2.5
2025-01-14 16:24:33.321835	8.7	29.5	-89.7	6.8
2025-01-14 16:24:34.463863	8.3	29.4	-89.6	6.2
2025-01-14 16:24:35.618818	8.0	29.3	-89.9	5.2
2025-01-14 16:24:36.767123	7.6	29.3	-89.6	6.5
2025-01-14 16:24:37.922866	7.3	29.2	-89.5	5.1
2025-01-14 16:24:39.071922	6.9	29.1	-89.3	5.3
2025-01-14 16:24:40.219595	6.6	29.1	-89.5	9.1
2025-01-14 16:24:41.366622	6.2	29.0	-90.0	6.3
2025-01-14 16:24:42.535141	5.9	28.9	-90.0	7.7
2025-01-14 16:24:43.688904	5.5	28.8	-90.3	8.0
2025-01-14 16:24:44.847985	5.2	28.8	-90.9	5.9
2025-01-14 16:24:46.001225	4.9	28.7	-90.7	5.2
2025-01-14 16:24:47.151212	4.5	28.6	-90.5	5.4
2025-01-14 16:24:48.303617	4.2	28.5	-90.2	6.9
2025-01-14 16:24:49.454545	3.8	28.4	-90.1	6.2
2025-01-14 16:24:50.606407	3.5	28.4	-90.2	6.6
2025-01-14 16:24:51.761931	3.2	28.3	-90.7	8.0
2025-01-14 16:24:52.914873	2.8	28.2	-90.5	7.4
2025-01-14 16:24:54.064425	2.5	28.1	-90.4	10.0
2025-01-14 16:24:55.214835	2.2	28.0	-90.1	12.5
2025-01-14 16:24:56.364337	1.9	27.9	-90.5	8.6
2025-01-14 16:24:57.519812	1.5	27.8	-86.2	4.9
2025-01-14 16:24:58.666594	1.2	27.8	-86.9	7.3
2025-01-14 16:24:59.815031	0.9	27.7	-90.1	12.2
2025-01-14 16:25:00.966076	0.6	27.6	-90.2	8.0
2025-01-14 16:25:02.119177	0.3	27.5	-90.3	6.4
2025-01-14 16:25:03.269045	359.9	27.4	-90.1	11.5
2025-01-14 16:25:04.410721	359.6	27.3	-88.3	8.0
2025-01-14 16:25:05.564764	359.3	27.2	-84.7	5.0
2025-01-14 16:25:06.712481	359.0	27.1	-86.4	6.0
2025-01-14 16:25:07.863284	358.7	27.0	-89.1	6.8
2025-01-14 16:25:09.013239	358.4	26.9	-89.7	7.6
2025-01-14 16:25:10.164251	358.1	26.9	-89.3	8.3
2025-01-14 16:25:11.321645	357.8	26.8	-89.7	7.5
2025-01-14 16:25:12.468375	357.5	26.7	-89.2	6.6
2025-01-14 16:25:13.624632	357.2	26.6	-89.4	6.5
2025-01-14 16:25:14.773931	356.9	26.5	-89.8	11.4
2025-01-14 16:25:15.930800	356.6	26.4	-89.6	8.3
2025-01-14 16:25:17.086297	356.3	26.3	-89.7	5.3
2025-01-14 16:25:18.236465	356.0	26.2	-89.3	8.6
2025-01-14 16:25:19.389815	355.7	26.1	-89.6	7.8
2025-01-14 16:25:20.538173	355.4	26.0	-89.2	7.1
2025-01-14 16:25:21.694831	355.1	25.9	-89.9	11.0
2025-01-14 16:25:22.840240	354.9	25.8	-89.4	8.7
2025-01-14 16:25:23.995460	354.6	25.7	-89.2	5.4
2025-01-14 16:25:25.140145	354.3	25.6	-90.3	10.6
2025-01-14 16:25:26.291523	354.0	25.5	-89.5	11.3
2025-01-14 16:25:27.439535	353.7	25.4	-89.7	6.0
2025-01-14 16:25:28.590243	353.5	25.3	-89.6	6.1
2025-01-14 16:25:29.746770	353.2	25.2	-90.2	13.2
2025-01-14 16:25:30.894566	352.9	25.1	-89.8	10.3
2025-01-14 16:25:32.051004	352.6	25.0	-89.9	8.5
2025-01-14 16:25:33.201080	352.4	24.9	-89.7	11.2
2025-01-14 16:25:34.353797	352.1	24.8	-89.4	9.5
2025-01-14 16:25:35.508366	351.8	24.7	-89.2	10.0
2025-01-14 16:25:36.657344	351.6	24.6	-89.8	13.3
2025-01-14 16:25:37.804914	351.3	24.5	-89.3	12.6
2025-01-14 16:25:38.962203	351.1	24.4	-89.9	11.2
2025-01-14 16:25:40.117622	350.8	24.2	-89.5	12.9
2025-01-14 16:25:41.267089	350.5	24.1	-89.7	8.7
2025-01-14 16:25:42.421416	350.3	24.0	-89.8	14.3
2025-01-14 16:25:43.568171	350.0	23.9	-89.8	7.5
2025-01-14 16:25:44.726448	349.8	23.8	-89.3	6.6
2025-01-14 16:25:45.876894	349.5	23.7	-89.4	8.5
2025-01-14 16:25:47.028273	349.3	23.6	-90.1	12.2
2025-01-14 16:25:48.176765	349.0	23.5	-90.5	10.4
2025-01-14 16:25:49.327894	348.8	23.4	-89.6	14.1
2025-01-14 16:25:50.485348	348.6	23.3	-89.9	7.3
2025-01-14 16:25:51.644342	348.3	23.2	-90.0	7.4
2025-01-14 16:25:52.800979	348.1	23.1	-90.3	7.7
2025-01-14 16:25:53.954688	347.8	23.0	-90.1	7.9
2025-01-14 16:25:55.102364	347.6	22.9	-90.1	6.5
2025-01-14 16:25:56.250586	347.4	22.8	-90.5	6.5
2025-01-14 16:25:57.405126	347.1	22.7	-90.3	6.5
2025-01-14 16:25:58.554224	346.9	22.6	-90.0	7.1
2025-01-14 16:25:59.708003	346.7	22.4	-90.5	9.2
2025-01-14 16:26:00.857278	346.4	22.3	-90.8	9.3
2025-01-14 16:26:02.011171	346.2	22.2	-90.7	9.7
2025-01-14 16:26:03.159808	346.0	22.1	-90.4	9.8
2025-01-14 16:26:04.316864	345.8	22.0	-90.5	8.1
2025-01-14 16:26:05.471727	345.5	21.9	-90.4	7.8
2025-01-14 16:26:06.620251	345.3	21.8	-90.1	9.8
2025-01-14 16:26:07.771296	345.1	21.7	-90.9	9.8
2025-01-14 16:26:08.918172	344.9	21.6	-90.2	7.9
2025-01-14 16:26:10.076653	344.7	21.5	-90.2	10.6
2025-01-14 16:26:11.229960	344.4	21.4	-90.5	7.7
2025-01-14 16:26:12.380679	344.2	21.3	-90.9	4.8
2025-01-14 16:26:13.527430	344.0	21.2	-90.4	3.5
2025-01-14 16:26:14.677535	343.8	21.1	-90.4	10.3
2025-01-14 16:26:15.826794	343.6	21.0	-90.5	9.0
2025-01-14 16:26:16.985251	343.4	20.8	-89.8	5.6
2025-01-14 16:26:18.143210	343.2	20.7	-89.7	9.3
2025-01-14 16:26:19.295162	343.0	20.6	-90.2	10.9
2025-01-14 16:26:20.453324	342.8	20.5	-89.9	4.8
2025-01-14 16:26:21.604771	342.6	20.4	-90.1	3.3
2025-01-14 16:26:22.762018	342.4	20.3	-90.7	6.0
2025-01-14 16:26:23.911940	342.2	20.2	-90.5	5.1
2025-01-14 16:26:25.062012	342.0	20.1	-90.4	3.8
2025-01-14 16:26:26.213728	341.8	20.0	-90.5	6.2
2025-01-14 16:26:27.365256	341.6	19.9	-90.6	7.6
2025-01-14 16:26:28.518062	341.4	19.8	-90.5	5.7
2025-01-14 16:26:29.667116	341.2	19.7	-90.0	4.1
2025-01-14 16:26:30.818384	341.0	19.6	-90.1	12.0
2025-01-14 16:26:31.944421	340.8	19.5	-89.8	5.4
2025-01-14 16:26:33.064676	340.6	19.4	-89.9	7.7
2025-01-14 16:26:34.186693	340.5	19.3	-90.0	4.9
2025-01-14 16:26:35.306737	340.3	19.2	-89.8	9.4
2025-01-14 16:26:36.427652	340.1	19.1	-89.7	6.7
2025-01-14 16:26:37.548112	339.9	18.9	-89.8	6.0
2025-01-14 16:26:38.669328	339.7	18.8	-90.4	6.3
2025-01-14 16:26:39.793013	339.6	18.7	-90.3	6.1
2025-01-14 16:26:40.922902	339.4	18.6	-90.3	6.3
2025-01-14 16:26:42.068540	339.2	18.5	-90.3	5.6
2025-01-14 16:26:43.219515	339.0	18.4	-90.5	7.2
2025-01-14 16:26:44.363576	338.9	18.3	-90.9	9.2
2025-01-14 16:26:45.505550	338.7	18.2	-90.5	7.5
2025-01-14 16:26:46.653077	338.5	18.1	-90.7	11.6
2025-01-14 16:26:47.806749	338.3	18.0	-90.8	4.4
2025-01-14 16:26:48.958184	338.2	17.9	-90.4	11.7
2025-01-14 16:26:50.113691	338.0	17.8	-90.0	6.6
2025-01-14 16:26:51.262576	337.8	17.7	-89.9	6.3
2025-01-14 16:26:52.409879	337.7	17.6	-90.0	4.5
2025-01-14 16:26:53.566920	337.5	17.5	-90.1	6.0
2025-01-14 16:26:54.723011	337.3	17.4	-90.3	6.2
2025-01-14 16:26:55.872969	337.2	17.3	-90.9	4.8
2025-01-14 16:26:57.022876	337.0	17.2	-90.6	4.2
2025-01-14 16:26:58.174946	336.9	17.1	-90.7	6.0
2025-01-14 16:26:59.328194	336.7	17.0	-90.4	5.9
2025-01-14 16:27:00.478345	336.5	16.9	-90.8	4.8
2025-01-14 16:27:01.630297	336.4	16.8	-91.0	4.0
2025-01-14 16:27:02.782936	336.2	16.7	-90.6	5.8
2025-01-14 16:27:03.932374	336.1	16.6	-90.3	4.5
2025-01-14 16:27:05.078690	335.9	16.5	-90.5	3.8
2025-01-14 16:27:06.234018	335.8	16.4	-90.6	4.4
2025-01-14 16:27:07.386299	335.6	16.3	-90.4	6.1
2025-01-14 16:27:08.534756	335.4	16.2	-90.6	4.7
2025-01-14 16:27:09.687380	335.3	16.1	-90.3	4.3
2025-01-14 16:27:10.836798	335.1	16.0	-91.0	6.8
2025-01-14 16:27:11.984373	335.0	15.9	-91.0	4.2
2025-01-14 16:27:13.135655	334.8	15.8	-90.6	5.5
2025-01-14 16:27:14.286332	334.7	15.7	-90.7	6.2
2025-01-14 16:27:15.439676	334.6	15.6	-90.4	7.9
2025-01-14 16:27:16.588642	334.4	15.5	-90.7	6.4
2025-01-14 16:27:17.740120	334.3	15.4	-90.0	4.2
2025-01-14 16:27:18.888964	334.1	15.3	-90.5	4.5
2025-01-14 16:27:20.044643	334.0	15.2	-90.7	4.7
2025-01-14 16:27:21.204628	333.8	15.1	-90.6	3.2
2025-01-14 16:27:22.356815	333.7	15.0	-90.9	4.3
2025-01-14 16:27:23.506666	333.6	14.9	-91.0	5.4
2025-01-14 16:27:24.652249	333.4	14.8	-90.2	4.3
2025-01-14 16:27:25.809782	333.3	14.7	-90.6	5.7
2025-01-14 16:27:26.960752	333.1	14.6	-91.0	3.3
#Closed at: 2025-01-14 16:19:58.096800