passes_logs/2025/01/14/LEX_Murmansk/LEX_Murmansk__20250114_175909_NOAA_18_rec.log

#Pass ID: 20250114_175909_NOAA 18
#Satellite: NOAA 18
#Configuration: NOAA 18
#Start time: 2025-01-14 17:59:04.693741

#LorettStation: 1.0.0 05.05.2024
#Station: LEX_Murmansk
#Location: 33.156738 lon 68.926811 lat
#TLE: 1 28654U 05018A   25014.17177243  .00000313  00000+0  18955-3 0  9990
#TLE: 2 28654  98.8569  95.2344 0014326 181.4762 178.6370 14.13485757 13061

#Time	Az	El	Level	SNR
2025-01-14 17:59:16.871856	125.2	16.3	-91.4	9.4
2025-01-14 17:59:19.183827	125.0	16.5	-92.0	13.1
2025-01-14 17:59:21.489152	124.9	16.8	-91.6	9.1
2025-01-14 17:59:23.803027	124.8	17.0	-91.7	10.9
2025-01-14 17:59:26.122364	124.6	17.3	-91.8	4.8
2025-01-14 17:59:28.434646	124.5	17.5	-92.1	5.4
2025-01-14 17:59:30.741329	124.4	17.8	-91.7	9.4
2025-01-14 17:59:33.072591	124.2	18.1	-92.0	12.9
2025-01-14 17:59:35.380203	124.1	18.3	-91.3	11.9
2025-01-14 17:59:37.691681	124.0	18.6	-91.4	14.4
2025-01-14 17:59:40.002876	123.8	18.9	-90.9	15.3
2025-01-14 17:59:42.314255	123.7	19.1	-90.7	13.9
2025-01-14 17:59:44.619273	123.5	19.4	-91.4	5.3
2025-01-14 17:59:46.933879	123.4	19.7	-91.4	8.3
2025-01-14 17:59:49.234545	123.2	20.0	-90.9	11.0
2025-01-14 17:59:51.554285	123.0	20.3	-91.7	12.3
2025-01-14 17:59:53.864174	122.9	20.6	-92.1	16.5
2025-01-14 17:59:56.169399	122.7	20.9	-92.0	15.7
2025-01-14 17:59:58.465316	122.5	21.1	-92.1	11.4
2025-01-14 18:00:00.774078	122.4	21.4	-91.9	12.9
2025-01-14 18:00:03.083469	122.2	21.7	-92.3	9.1
2025-01-14 18:00:05.396793	122.0	22.0	-91.8	11.4
2025-01-14 18:00:07.704609	121.8	22.4	-91.9	14.4
2025-01-14 18:00:10.022791	121.6	22.7	-91.8	11.6
2025-01-14 18:00:12.270180	121.4	23.0	-91.7	12.7
2025-01-14 18:00:14.512018	121.3	23.3	-92.1	8.8
2025-01-14 18:00:16.752583	121.1	23.6	-92.3	12.5
2025-01-14 18:00:19.002715	120.9	23.9	-92.5	4.4
2025-01-14 18:00:21.291058	120.7	24.2	-92.4	12.0
2025-01-14 18:00:23.598418	120.4	24.6	-92.0	9.5
2025-01-14 18:00:25.866088	120.2	24.9	-91.9	8.7
2025-01-14 18:00:28.156989	120.0	25.2	-92.0	7.0
2025-01-14 18:00:30.452022	119.8	25.6	-92.5	8.1
2025-01-14 18:00:32.757595	119.6	25.9	-91.8	10.8
2025-01-14 18:00:35.067595	119.3	26.3	-92.1	6.2
2025-01-14 18:00:37.383780	119.1	26.6	-92.1	8.5
2025-01-14 18:00:39.694923	118.8	27.0	-92.4	10.3
2025-01-14 18:00:41.994369	118.6	27.3	-92.2	8.6
2025-01-14 18:00:44.307813	118.3	27.7	-91.8	5.5
2025-01-14 18:00:46.617544	118.0	28.1	-92.2	10.6
2025-01-14 18:00:48.911250	117.8	28.5	-92.1	9.5
2025-01-14 18:00:51.223145	117.5	28.8	-91.7	9.8
2025-01-14 18:00:53.531094	117.2	29.2	-92.3	6.3
2025-01-14 18:00:55.835685	116.9	29.6	-92.3	12.1
2025-01-14 18:00:58.143387	116.6	30.0	-92.6	11.9
2025-01-14 18:01:00.446802	116.3	30.4	-92.3	8.1
2025-01-14 18:01:02.763446	116.0	30.8	-92.1	9.8
2025-01-14 18:01:05.080330	115.7	31.2	-92.5	7.3
2025-01-14 18:01:07.399105	115.3	31.6	-92.1	6.7
2025-01-14 18:01:09.708985	115.0	32.0	-92.1	12.7
2025-01-14 18:01:12.017569	114.6	32.5	-92.3	8.1
2025-01-14 18:01:14.314530	114.3	32.9	-92.1	15.2
2025-01-14 18:01:16.556350	113.9	33.3	-92.1	13.3
2025-01-14 18:01:18.796913	113.5	33.7	-92.2	11.5
2025-01-14 18:01:21.038431	113.2	34.1	-92.4	10.7
2025-01-14 18:01:23.282540	112.8	34.6	-91.9	13.5
2025-01-14 18:01:25.577713	112.4	35.0	-91.2	13.5
2025-01-14 18:01:27.882371	111.9	35.5	-91.4	13.4
2025-01-14 18:01:30.183353	111.5	35.9	-91.5	12.8
2025-01-14 18:01:32.496996	111.1	36.4	-91.9	11.0
2025-01-14 18:01:34.814735	110.6	36.8	-91.4	13.9
2025-01-14 18:01:37.121093	110.1	37.3	-91.3	9.7
2025-01-14 18:01:39.730624	109.6	37.9	-91.4	15.3
2025-01-14 18:01:42.066995	109.1	38.3	-91.0	8.7
2025-01-14 18:01:44.377105	108.5	38.8	-90.9	10.5
2025-01-14 18:01:46.687351	108.0	39.3	-91.0	12.5
2025-01-14 18:01:49.004576	107.4	39.8	-91.6	5.3
2025-01-14 18:01:51.318318	106.9	40.3	-92.2	13.0
2025-01-14 18:01:53.617178	106.3	40.8	-92.3	8.4
2025-01-14 18:01:55.930298	105.7	41.3	-92.2	11.4
2025-01-14 18:01:58.224860	105.1	41.8	-92.2	8.3
2025-01-14 18:02:00.541117	104.4	42.3	-92.1	9.6
2025-01-14 18:02:02.838526	103.8	42.8	-92.3	18.9
2025-01-14 18:02:05.138656	103.1	43.3	-91.8	20.0
2025-01-14 18:02:07.441229	102.4	43.8	-92.6	11.2
2025-01-14 18:02:09.758815	101.6	44.3	-92.4	8.1
2025-01-14 18:02:12.057419	100.9	44.9	-92.1	3.9
2025-01-14 18:02:14.370185	100.1	45.4	-92.0	7.1
2025-01-14 18:02:16.680768	99.3	45.9	-92.2	16.2
2025-01-14 18:02:18.946497	98.4	46.4	-92.0	11.9
2025-01-14 18:02:21.188049	97.6	46.9	-92.0	12.0
2025-01-14 18:02:23.429643	96.7	47.4	-91.9	8.4
2025-01-14 18:02:25.670126	95.8	47.9	-92.3	13.7
2025-01-14 18:02:27.932313	94.9	48.4	-92.2	10.8
2025-01-14 18:02:30.221814	93.9	48.9	-92.0	15.5
2025-01-14 18:02:32.514893	92.9	49.4	-92.2	8.9
2025-01-14 18:02:34.819320	91.9	49.9	-92.0	10.2
2025-01-14 18:02:37.122362	90.8	50.4	-92.1	9.4
2025-01-14 18:02:39.420050	89.7	50.9	-92.0	7.2
2025-01-14 18:02:41.732956	88.5	51.4	-92.0	11.1
2025-01-14 18:02:44.037387	87.3	51.9	-92.3	13.1
2025-01-14 18:02:46.347290	86.1	52.3	-92.7	13.5
2025-01-14 18:02:48.645998	84.8	52.8	-92.2	14.9
2025-01-14 18:02:50.955969	83.5	53.2	-92.7	9.1
2025-01-14 18:02:53.252050	82.2	53.7	-92.3	19.9
2025-01-14 18:02:55.560635	80.8	54.1	-92.4	10.2
2025-01-14 18:02:57.880193	79.3	54.5	-92.1	11.4
2025-01-14 18:03:00.185708	77.8	54.9	-92.0	19.5
2025-01-14 18:03:02.480257	76.3	55.2	-92.5	17.0
2025-01-14 18:03:04.792601	74.8	55.6	-92.1	19.5
2025-01-14 18:03:07.092768	73.2	55.9	-92.3	13.0
2025-01-14 18:03:09.402920	71.5	56.2	-92.2	10.8
2025-01-14 18:03:11.721417	69.9	56.5	-92.2	14.7
2025-01-14 18:03:14.028214	68.2	56.8	-92.6	10.5
2025-01-14 18:03:16.332938	66.4	57.1	-92.8	17.4
2025-01-14 18:03:18.641926	64.7	57.3	-92.2	17.1
2025-01-14 18:03:20.945532	62.9	57.5	-92.4	15.0
2025-01-14 18:03:23.274038	61.0	57.6	-92.2	18.5
2025-01-14 18:03:25.590060	59.2	57.8	-92.2	17.0
2025-01-14 18:03:27.906078	57.3	57.9	-92.1	16.2
2025-01-14 18:03:30.213450	55.5	58.0	-92.3	20.1
2025-01-14 18:03:32.521152	53.6	58.0	-92.5	13.5
2025-01-14 18:03:34.834285	51.7	58.1	-91.8	18.8
2025-01-14 18:03:37.141374	49.8	58.1	-92.1	12.4
2025-01-14 18:03:39.437847	47.9	58.0	-92.2	12.1
2025-01-14 18:03:41.746704	46.0	58.0	-92.1	16.4
2025-01-14 18:03:44.067210	44.2	57.9	-91.9	11.8
2025-01-14 18:03:46.373123	42.3	57.8	-92.1	10.6
2025-01-14 18:03:48.667851	40.5	57.6	-92.4	15.7
2025-01-14 18:03:50.980903	38.6	57.5	-92.1	11.9
2025-01-14 18:03:53.293220	36.9	57.3	-92.2	14.1
2025-01-14 18:03:55.604468	35.1	57.0	-92.6	6.8
2025-01-14 18:03:57.904082	33.4	56.8	-92.3	8.5
2025-01-14 18:04:00.212857	31.7	56.5	-92.2	8.9
2025-01-14 18:04:02.521332	30.0	56.2	-92.3	5.6
2025-01-14 18:04:04.820673	28.4	55.9	-92.0	6.7
2025-01-14 18:04:07.089846	26.8	55.6	-92.3	2.9
2025-01-14 18:04:09.331593	25.3	55.2	-92.1	4.8
2025-01-14 18:04:11.573709	23.8	54.9	-92.2	7.3
2025-01-14 18:04:13.817161	22.4	54.5	-91.9	17.2
2025-01-14 18:04:16.076191	21.0	54.1	-92.3	14.4
2025-01-14 18:04:18.377941	19.6	53.7	-92.1	10.5
2025-01-14 18:04:20.682534	18.2	53.2	-92.3	18.1
2025-01-14 18:04:22.988636	16.9	52.8	-92.4	14.5
2025-01-14 18:04:25.314768	15.6	52.3	-92.5	12.9
2025-01-14 18:04:27.629926	14.4	51.9	-92.7	14.3
2025-01-14 18:04:29.939746	13.2	51.4	-92.3	12.1
2025-01-14 18:04:32.245664	12.0	50.9	-92.3	18.4
2025-01-14 18:04:34.550612	10.9	50.4	-92.4	13.5
2025-01-14 18:04:36.857889	9.8	49.9	-92.3	17.8
2025-01-14 18:04:39.171559	8.8	49.4	-91.5	18.7
2025-01-14 18:04:41.486079	7.8	48.9	-91.7	9.7
2025-01-14 18:04:43.796891	6.8	48.4	-92.3	16.4
2025-01-14 18:04:46.105613	5.8	47.9	-92.3	9.9
2025-01-14 18:04:48.406600	4.9	47.4	-92.2	9.7
2025-01-14 18:04:50.717118	4.0	46.8	-92.1	15.0
2025-01-14 18:04:53.024775	3.2	46.3	-92.1	13.6
2025-01-14 18:04:55.338647	2.3	45.8	-92.1	16.9
2025-01-14 18:04:57.649062	1.5	45.3	-92.4	18.5
2025-01-14 18:04:59.966967	0.7	44.8	-92.0	19.0
2025-01-14 18:05:02.280036	360.0	44.2	-92.1	20.0
2025-01-14 18:05:04.590272	359.3	43.7	-92.3	22.7
2025-01-14 18:05:06.893409	358.5	43.2	-92.0	18.8
2025-01-14 18:05:09.199701	357.9	42.7	-92.2	20.7
2025-01-14 18:05:11.519059	357.2	42.2	-91.9	16.0
2025-01-14 18:05:13.825006	356.6	41.7	-92.0	21.9
2025-01-14 18:05:16.146052	355.9	41.2	-91.9	17.7
2025-01-14 18:05:18.454750	355.3	40.7	-92.3	13.2
2025-01-14 18:05:20.779246	354.7	40.2	-91.9	20.3
2025-01-14 18:05:23.103280	354.2	39.7	-92.0	16.3
2025-01-14 18:05:25.423229	353.6	39.2	-92.0	20.9
2025-01-14 18:05:27.738209	353.1	38.7	-92.0	20.4
2025-01-14 18:05:30.050858	352.6	38.2	-92.3	18.1
2025-01-14 18:05:32.365164	352.1	37.7	-92.3	15.9
2025-01-14 18:05:34.675584	351.6	37.3	-92.3	16.2
2025-01-14 18:05:36.992193	351.1	36.8	-92.6	8.1
2025-01-14 18:05:39.280528	350.6	36.3	-92.2	16.8
2025-01-14 18:05:41.522926	350.2	35.9	-92.2	9.9
2025-01-14 18:05:43.763987	349.8	35.4	-92.4	15.9
2025-01-14 18:05:46.005046	349.4	35.0	-92.1	14.0
2025-01-14 18:05:48.251070	349.0	34.6	-91.8	16.0
2025-01-14 18:05:50.561676	348.6	34.1	-92.6	16.1
2025-01-14 18:05:52.850681	348.2	33.7	-92.2	15.6
2025-01-14 18:05:55.164922	347.8	33.3	-92.4	10.5
2025-01-14 18:05:57.465874	347.4	32.8	-92.4	9.7
2025-01-14 18:05:59.768041	347.1	32.4	-92.4	15.3
2025-01-14 18:06:02.051053	346.7	32.0	-92.1	14.0
2025-01-14 18:06:04.338240	346.4	31.6	-92.1	13.7
2025-01-14 18:06:06.633343	346.1	31.2	-92.6	16.5
2025-01-14 18:06:08.931890	345.8	30.8	-91.9	13.2
2025-01-14 18:06:11.225213	345.4	30.4	-92.2	15.0
2025-01-14 18:06:13.512369	345.1	30.0	-92.3	6.9
2025-01-14 18:06:15.789167	344.8	29.6	-92.3	13.6
2025-01-14 18:06:18.088503	344.5	29.2	-92.4	8.8
2025-01-14 18:06:20.394610	344.3	28.8	-92.4	9.8
2025-01-14 18:06:22.703418	344.0	28.4	-92.8	7.8
2025-01-14 18:06:25.016898	343.7	28.1	-92.1	6.5
2025-01-14 18:06:27.326384	343.4	27.7	-92.0	10.5
2025-01-14 18:06:29.634334	343.2	27.3	-92.6	7.8
2025-01-14 18:06:31.937542	342.9	27.0	-92.4	3.6
2025-01-14 18:06:34.251598	342.7	26.6	-92.5	6.9
2025-01-14 18:06:36.565214	342.4	26.2	-92.4	5.6
2025-01-14 18:06:38.861387	342.2	25.9	-92.6	7.0
2025-01-14 18:06:41.172696	342.0	25.5	-92.2	8.1
2025-01-14 18:06:43.492016	341.7	25.2	-92.6	9.0
2025-01-14 18:06:45.814022	341.5	24.9	-92.6	9.2
2025-01-14 18:06:48.126466	341.3	24.5	-92.4	6.2
2025-01-14 18:06:50.434209	341.1	24.2	-92.2	6.0
2025-01-14 18:06:52.746981	340.9	23.9	-92.3	5.8
2025-01-14 18:06:55.063381	340.7	23.5	-92.2	11.1
2025-01-14 18:06:57.372002	340.5	23.2	-92.6	14.5
2025-01-14 18:06:59.681725	340.3	22.9	-92.8	10.0
2025-01-14 18:07:01.998391	340.1	22.6	-92.3	4.5
2025-01-14 18:07:04.312433	339.9	22.3	-92.3	10.9
2025-01-14 18:07:06.614382	339.7	22.0	-92.5	10.0
2025-01-14 18:07:08.927014	339.5	21.7	-92.5	10.1
2025-01-14 18:07:11.230347	339.4	21.4	-92.3	12.8
2025-01-14 18:07:13.542159	339.2	21.1	-92.1	9.8
2025-01-14 18:07:15.858965	339.0	20.8	-92.4	10.6
2025-01-14 18:07:18.169871	338.9	20.5	-92.3	8.8
2025-01-14 18:07:20.472017	338.7	20.2	-92.4	6.2
2025-01-14 18:07:22.781461	338.5	19.9	-92.0	8.5
2025-01-14 18:07:25.083842	338.4	19.6	-92.2	5.6
2025-01-14 18:07:27.342999	338.2	19.4	-92.0	8.2
2025-01-14 18:07:29.584880	338.1	19.1	-92.2	5.5
2025-01-14 18:07:31.825642	337.9	18.8	-92.1	7.0
2025-01-14 18:07:34.067805	337.8	18.6	-92.4	5.0
2025-01-14 18:07:36.324154	337.7	18.3	-91.6	3.5
2025-01-14 18:07:38.605409	337.5	18.0	-91.5	5.7
2025-01-14 18:07:40.894952	337.4	17.8	-91.5	7.4
2025-01-14 18:07:43.194088	337.3	17.5	-92.2	3.2
2025-01-14 18:07:45.469624	337.1	17.3	-92.6	4.7
2025-01-14 18:07:47.772138	337.0	17.0	-92.4	5.6
2025-01-14 18:07:50.076338	336.9	16.7	-92.2	5.5
2025-01-14 18:07:52.379588	336.7	16.5	-92.1	4.7
2025-01-14 18:07:54.677883	336.6	16.2	-92.5	4.4
2025-01-14 18:07:56.955592	336.5	16.0	-92.7	4.2
2025-01-14 18:07:59.240140	336.4	15.8	-92.5	2.9
2025-01-14 18:08:01.537858	336.3	15.5	-92.4	4.9
2025-01-14 18:08:03.831156	336.1	15.3	-92.5	4.3
2025-01-14 18:08:06.137763	336.0	15.0	-91.8	3.9
2025-01-14 18:08:08.439705	335.9	14.8	-92.5	3.7
2025-01-14 18:08:10.745192	335.8	14.6	-92.6	4.5
#Closed at: 2025-01-14 17:59:09.668117