passes_logs/2025/01/14/LEX_Murmansk/LEX_Murmansk__20250114_212310_NOAA_18_rec.log

#Pass ID: 20250114_212310_NOAA 18
#Satellite: NOAA 18
#Configuration: NOAA 18
#Start time: 2025-01-14 21:23:05.914054

#LorettStation: 1.0.0 05.05.2024
#Station: LEX_Murmansk
#Location: 33.156738 lon 68.926811 lat
#TLE: 1 28654U 05018A   25014.17177243  .00000313  00000+0  18955-3 0  9990
#TLE: 2 28654  98.8569  95.2344 0014326 181.4762 178.6370 14.13485757 13061

#Time	Az	El	Level	SNR
2025-01-14 21:23:18.100255	239.6	15.8	-92.7	7.9
2025-01-14 21:23:19.253772	239.8	15.9	-92.7	10.5
2025-01-14 21:23:20.409606	240.0	15.9	-92.5	11.1
2025-01-14 21:23:21.564208	240.2	16.0	-92.6	9.1
2025-01-14 21:23:22.722078	240.4	16.1	-92.5	12.7
2025-01-14 21:23:23.879217	240.6	16.1	-92.8	13.0
2025-01-14 21:23:25.034260	240.8	16.2	-92.8	14.0
2025-01-14 21:23:26.183399	241.0	16.3	-93.0	12.5
2025-01-14 21:23:27.338986	241.2	16.4	-92.9	7.2
2025-01-14 21:23:28.496396	241.5	16.4	-92.4	11.8
2025-01-14 21:23:29.649104	241.7	16.5	-92.6	13.6
2025-01-14 21:23:30.803348	241.9	16.6	-92.6	8.6
2025-01-14 21:23:31.956191	242.1	16.6	-92.9	11.4
2025-01-14 21:23:33.108493	242.3	16.7	-92.9	4.4
2025-01-14 21:23:34.271830	242.5	16.8	-93.2	8.4
2025-01-14 21:23:35.422464	242.7	16.9	-93.1	7.9
2025-01-14 21:23:36.574813	242.9	16.9	-93.1	9.8
2025-01-14 21:23:37.727064	243.1	17.0	-92.5	9.7
2025-01-14 21:23:38.878333	243.4	17.1	-92.9	9.6
2025-01-14 21:23:40.030082	243.6	17.1	-93.1	5.6
2025-01-14 21:23:41.186803	243.8	17.2	-92.9	10.8
2025-01-14 21:23:42.341281	244.0	17.3	-92.8	9.4
2025-01-14 21:23:43.499203	244.2	17.4	-93.2	7.3
2025-01-14 21:23:44.649569	244.4	17.4	-92.6	8.8
2025-01-14 21:23:45.805986	244.7	17.5	-92.8	12.5
2025-01-14 21:23:46.959846	244.9	17.6	-92.9	12.5
2025-01-14 21:23:48.112081	245.1	17.6	-92.4	11.0
2025-01-14 21:23:49.273491	245.3	17.7	-92.6	14.3
2025-01-14 21:23:50.429619	245.6	17.8	-92.6	2.5
2025-01-14 21:23:51.583277	245.8	17.8	-92.8	7.5
2025-01-14 21:23:52.740342	246.0	17.9	-93.1	10.1
2025-01-14 21:23:53.893237	246.2	18.0	-92.8	7.1
2025-01-14 21:23:55.050059	246.5	18.0	-93.1	8.0
2025-01-14 21:23:56.221677	246.7	18.1	-92.7	15.3
2025-01-14 21:23:57.370900	246.9	18.2	-93.0	10.7
2025-01-14 21:23:58.527794	247.2	18.2	-93.1	14.9
2025-01-14 21:23:59.681684	247.4	18.3	-93.1	15.4
2025-01-14 21:24:00.837419	247.6	18.4	-92.7	8.2
2025-01-14 21:24:01.994322	247.9	18.4	-92.7	10.4
2025-01-14 21:24:03.155650	248.1	18.5	-92.8	9.2
2025-01-14 21:24:04.305270	248.3	18.6	-92.8	10.1
2025-01-14 21:24:05.456015	248.6	18.6	-92.5	7.4
2025-01-14 21:24:06.608680	248.8	18.7	-92.8	4.5
2025-01-14 21:24:07.764373	249.1	18.8	-93.0	15.7
2025-01-14 21:24:08.922213	249.3	18.8	-93.1	8.7
2025-01-14 21:24:10.072028	249.5	18.9	-92.6	5.1
2025-01-14 21:24:11.222843	249.8	19.0	-92.9	8.4
2025-01-14 21:24:12.381212	250.0	19.0	-93.1	9.7
2025-01-14 21:24:13.532202	250.3	19.1	-93.2	5.0
2025-01-14 21:24:14.692249	250.5	19.1	-93.2	6.5
2025-01-14 21:24:15.850977	250.8	19.2	-93.2	10.6
2025-01-14 21:24:17.004229	251.0	19.3	-93.5	8.9
2025-01-14 21:24:18.154042	251.3	19.3	-93.2	4.7
2025-01-14 21:24:19.309458	251.5	19.4	-93.1	4.9
2025-01-14 21:24:20.458236	251.8	19.5	-92.7	2.9
2025-01-14 21:24:21.611024	252.0	19.5	-93.0	4.1
2025-01-14 21:24:22.766389	252.3	19.6	-93.2	4.6
2025-01-14 21:24:23.925170	252.5	19.6	-92.7	5.0
2025-01-14 21:24:25.077562	252.8	19.7	-93.1	4.3
2025-01-14 21:24:26.226835	253.0	19.7	-92.8	2.9
2025-01-14 21:24:27.382371	253.3	19.8	-93.2	5.2
2025-01-14 21:24:28.531254	253.5	19.9	-92.9	3.6
2025-01-14 21:24:29.696095	253.8	19.9	-92.8	3.2
2025-01-14 21:24:30.856263	254.1	20.0	-93.0	4.3
2025-01-14 21:24:32.012254	254.3	20.0	-93.0	3.3
2025-01-14 21:24:33.161807	254.6	20.1	-93.1	5.1
2025-01-14 21:24:34.291370	254.8	20.1	-92.9	5.0
2025-01-14 21:24:35.411657	255.1	20.2	-92.8	4.8
2025-01-14 21:24:36.534590	255.4	20.2	-92.8	2.0
2025-01-14 21:24:37.654892	255.6	20.3	-92.8	3.7
2025-01-14 21:24:38.775513	255.9	20.4	-93.0	4.0
2025-01-14 21:24:39.896085	256.1	20.4	-93.2	5.4
2025-01-14 21:24:41.016745	256.4	20.5	-92.9	4.9
2025-01-14 21:24:42.140649	256.6	20.5	-93.0	7.0
2025-01-14 21:24:43.266282	256.9	20.6	-92.8	8.5
2025-01-14 21:24:44.414547	257.2	20.6	-93.0	9.6
2025-01-14 21:24:45.570660	257.4	20.7	-92.9	11.5
2025-01-14 21:24:46.721566	257.7	20.7	-93.0	6.8
2025-01-14 21:24:47.869337	258.0	20.8	-93.2	9.2
2025-01-14 21:24:49.022514	258.3	20.8	-92.9	4.5
2025-01-14 21:24:50.183849	258.5	20.8	-92.6	6.2
2025-01-14 21:24:51.337864	258.8	20.9	-92.7	7.8
2025-01-14 21:24:52.498606	259.1	20.9	-93.0	12.1
2025-01-14 21:24:53.650473	259.4	21.0	-92.9	7.9
2025-01-14 21:24:54.802341	259.6	21.0	-93.4	10.0
2025-01-14 21:24:55.953718	259.9	21.1	-93.1	7.1
2025-01-14 21:24:57.100912	260.2	21.1	-92.7	9.7
2025-01-14 21:24:58.271658	260.5	21.2	-93.2	12.1
2025-01-14 21:24:59.423613	260.8	21.2	-92.8	10.9
2025-01-14 21:25:00.580831	261.0	21.3	-93.0	10.7
2025-01-14 21:25:01.736984	261.3	21.3	-92.7	16.2
2025-01-14 21:25:02.897254	261.6	21.3	-92.8	11.5
2025-01-14 21:25:04.045788	261.9	21.4	-92.9	9.4
2025-01-14 21:25:05.200645	262.2	21.4	-92.7	11.6
2025-01-14 21:25:06.347311	262.5	21.5	-92.9	13.6
2025-01-14 21:25:07.504022	262.7	21.5	-92.8	10.0
2025-01-14 21:25:08.663407	263.0	21.5	-92.9	16.9
2025-01-14 21:25:09.820930	263.3	21.6	-93.0	8.6
2025-01-14 21:25:10.972861	263.6	21.6	-92.6	9.6
2025-01-14 21:25:12.128584	263.9	21.6	-92.9	7.4
2025-01-14 21:25:13.281898	264.2	21.7	-92.6	14.5
2025-01-14 21:25:14.434530	264.5	21.7	-92.9	5.0
2025-01-14 21:25:15.592614	264.8	21.8	-93.0	9.4
2025-01-14 21:25:16.743415	265.0	21.8	-93.0	13.3
2025-01-14 21:25:17.897498	265.3	21.8	-92.9	10.4
2025-01-14 21:25:19.054893	265.6	21.9	-92.7	4.6
2025-01-14 21:25:20.206491	265.9	21.9	-92.9	10.1
2025-01-14 21:25:21.358490	266.2	21.9	-92.8	14.0
2025-01-14 21:25:22.519390	266.5	21.9	-92.9	15.5
2025-01-14 21:25:23.674167	266.8	22.0	-92.7	12.7
2025-01-14 21:25:24.829841	267.1	22.0	-92.9	8.6
2025-01-14 21:25:25.977079	267.4	22.0	-93.1	7.5
2025-01-14 21:25:27.102286	267.7	22.1	-92.6	9.5
2025-01-14 21:25:28.222707	268.0	22.1	-92.8	9.4
2025-01-14 21:25:29.343392	268.3	22.1	-93.3	15.4
2025-01-14 21:25:30.464288	268.5	22.1	-93.0	13.1
2025-01-14 21:25:31.585129	268.8	22.2	-92.9	9.5
2025-01-14 21:25:32.704989	269.1	22.2	-92.7	10.9
2025-01-14 21:25:33.827049	269.4	22.2	-93.0	16.6
2025-01-14 21:25:34.948721	269.7	22.2	-92.9	11.2
2025-01-14 21:25:36.081937	270.0	22.2	-92.5	8.8
2025-01-14 21:25:37.229400	270.3	22.3	-92.7	16.6
2025-01-14 21:25:38.382901	270.6	22.3	-93.2	11.0
2025-01-14 21:25:39.531762	270.9	22.3	-92.5	9.0
2025-01-14 21:25:40.679190	271.2	22.3	-92.6	14.1
2025-01-14 21:25:41.837616	271.5	22.3	-92.6	17.4
2025-01-14 21:25:42.990717	271.8	22.4	-92.7	3.4
2025-01-14 21:25:44.150076	272.1	22.4	-92.5	11.3
2025-01-14 21:25:45.308497	272.4	22.4	-92.6	8.7
2025-01-14 21:25:46.458610	272.7	22.4	-93.0	4.9
2025-01-14 21:25:47.607439	273.0	22.4	-93.0	11.7
2025-01-14 21:25:48.765667	273.3	22.4	-92.8	10.4
2025-01-14 21:25:49.924816	273.6	22.4	-93.1	7.3
2025-01-14 21:25:51.082362	273.9	22.4	-92.5	12.4
2025-01-14 21:25:52.231916	274.2	22.5	-92.6	15.9
2025-01-14 21:25:53.389295	274.5	22.5	-92.6	9.7
2025-01-14 21:25:54.547678	274.8	22.5	-92.4	12.5
2025-01-14 21:25:55.707469	275.1	22.5	-92.9	9.6
2025-01-14 21:25:56.863723	275.4	22.5	-92.7	14.7
2025-01-14 21:25:58.025010	275.7	22.5	-92.5	5.9
2025-01-14 21:25:59.184887	276.0	22.5	-92.5	9.4
2025-01-14 21:26:00.354661	276.3	22.5	-92.7	6.3
2025-01-14 21:26:01.510830	276.6	22.5	-92.9	5.5
2025-01-14 21:26:02.661918	277.0	22.5	-93.0	8.5
2025-01-14 21:26:03.812100	277.3	22.5	-93.1	14.2
2025-01-14 21:26:04.963330	277.6	22.5	-93.1	5.5
2025-01-14 21:26:06.110221	277.9	22.5	-93.0	6.0
2025-01-14 21:26:07.270999	278.2	22.5	-92.6	8.4
2025-01-14 21:26:08.419755	278.5	22.5	-92.8	9.5
2025-01-14 21:26:09.576189	278.8	22.5	-92.9	4.0
2025-01-14 21:26:10.729658	279.1	22.5	-92.7	6.3
2025-01-14 21:26:11.879124	279.4	22.5	-92.5	8.8
2025-01-14 21:26:13.036892	279.7	22.5	-92.8	8.1
2025-01-14 21:26:14.185483	280.0	22.5	-92.6	10.5
2025-01-14 21:26:15.331058	280.3	22.5	-92.7	10.5
2025-01-14 21:26:16.481413	280.6	22.5	-92.8	9.8
2025-01-14 21:26:17.643174	280.9	22.5	-92.8	9.7
2025-01-14 21:26:18.796266	281.2	22.5	-92.9	11.2
2025-01-14 21:26:19.953084	281.5	22.4	-92.6	11.6
2025-01-14 21:26:21.106844	281.8	22.4	-92.8	7.2
2025-01-14 21:26:22.263801	282.1	22.4	-92.9	9.2
2025-01-14 21:26:23.413017	282.4	22.4	-92.8	12.0
2025-01-14 21:26:24.569185	282.7	22.4	-93.0	7.6
2025-01-14 21:26:25.727800	283.0	22.4	-92.9	7.4
2025-01-14 21:26:26.884275	283.3	22.4	-93.0	5.6
2025-01-14 21:26:28.045580	283.6	22.4	-93.0	8.9
2025-01-14 21:26:29.201042	283.9	22.3	-92.8	6.3
2025-01-14 21:26:30.357588	284.2	22.3	-92.9	8.5
2025-01-14 21:26:31.502583	284.5	22.3	-92.5	5.5
2025-01-14 21:26:32.655171	284.8	22.3	-92.8	12.5
2025-01-14 21:26:33.807637	285.1	22.3	-92.9	10.0
2025-01-14 21:26:34.966316	285.4	22.3	-92.6	12.7
2025-01-14 21:26:36.118381	285.7	22.2	-92.9	8.1
2025-01-14 21:26:37.277137	286.0	22.2	-92.8	4.5
2025-01-14 21:26:38.427010	286.3	22.2	-92.9	6.2
2025-01-14 21:26:39.583698	286.6	22.2	-92.6	8.0
2025-01-14 21:26:40.742980	286.9	22.1	-92.8	8.5
2025-01-14 21:26:41.895193	287.2	22.1	-92.7	14.0
2025-01-14 21:26:43.055028	287.5	22.1	-92.5	9.0
2025-01-14 21:26:44.209675	287.8	22.1	-92.6	10.2
2025-01-14 21:26:45.364376	288.1	22.0	-92.7	8.8
2025-01-14 21:26:46.522602	288.4	22.0	-92.5	4.6
2025-01-14 21:26:47.674824	288.7	22.0	-92.6	11.1
2025-01-14 21:26:48.834443	289.0	22.0	-92.9	12.6
2025-01-14 21:26:49.998032	289.3	21.9	-92.5	8.9
2025-01-14 21:26:51.149361	289.6	21.9	-93.0	9.1
2025-01-14 21:26:52.297199	289.9	21.9	-92.4	13.5
2025-01-14 21:26:53.456157	290.2	21.8	-92.8	3.7
2025-01-14 21:26:54.610185	290.5	21.8	-92.9	8.5
2025-01-14 21:26:55.764815	290.7	21.8	-92.7	16.1
2025-01-14 21:26:56.913083	291.0	21.7	-93.0	10.9
2025-01-14 21:26:58.067998	291.3	21.7	-92.6	12.9
2025-01-14 21:26:59.224390	291.6	21.7	-92.7	15.9
2025-01-14 21:27:00.375163	291.9	21.6	-92.4	8.5
2025-01-14 21:27:01.534915	292.2	21.6	-92.4	9.8
2025-01-14 21:27:02.686046	292.5	21.5	-92.3	7.8
2025-01-14 21:27:03.841186	292.8	21.5	-92.5	8.4
2025-01-14 21:27:04.991467	293.0	21.5	-92.6	8.3
2025-01-14 21:27:06.147308	293.3	21.4	-92.7	9.6
2025-01-14 21:27:07.302010	293.6	21.4	-93.0	13.5
2025-01-14 21:27:08.456992	293.9	21.4	-93.0	9.2
2025-01-14 21:27:09.611373	294.2	21.3	-92.9	6.1
2025-01-14 21:27:10.769917	294.5	21.3	-92.7	12.7
2025-01-14 21:27:11.923865	294.7	21.2	-92.4	6.3
2025-01-14 21:27:13.079557	295.0	21.2	-92.7	8.4
2025-01-14 21:27:14.231815	295.3	21.1	-92.6	9.5
2025-01-14 21:27:15.395405	295.6	21.1	-92.4	8.4
2025-01-14 21:27:16.554505	295.9	21.1	-92.6	6.3
2025-01-14 21:27:17.712908	296.1	21.0	-92.7	7.0
2025-01-14 21:27:18.873826	296.4	21.0	-92.5	8.1
2025-01-14 21:27:20.032997	296.7	20.9	-92.5	6.6
2025-01-14 21:27:21.192008	297.0	20.9	-92.3	8.4
2025-01-14 21:27:22.351453	297.2	20.8	-92.4	9.3
2025-01-14 21:27:23.504912	297.5	20.8	-92.7	3.2
2025-01-14 21:27:24.657146	297.8	20.7	-92.6	10.7
2025-01-14 21:27:25.815125	298.1	20.7	-92.8	10.0
2025-01-14 21:27:26.964285	298.3	20.6	-92.9	5.7
2025-01-14 21:27:28.119642	298.6	20.6	-93.0	8.3
2025-01-14 21:27:29.273720	298.9	20.5	-92.4	6.0
2025-01-14 21:27:30.426909	299.1	20.5	-92.5	9.4
2025-01-14 21:27:31.584822	299.4	20.4	-92.7	7.0
2025-01-14 21:27:32.744753	299.7	20.4	-92.8	8.3
2025-01-14 21:27:33.900777	299.9	20.3	-92.5	6.0
2025-01-14 21:27:35.050933	300.2	20.3	-92.5	6.2
2025-01-14 21:27:36.207411	300.5	20.2	-92.9	8.4
2025-01-14 21:27:37.363185	300.7	20.1	-92.5	4.0
2025-01-14 21:27:38.515044	301.0	20.1	-92.7	5.1
2025-01-14 21:27:39.675538	301.3	20.0	-92.8	6.4
2025-01-14 21:27:40.820120	301.5	20.0	-92.3	5.3
2025-01-14 21:27:41.976804	301.8	19.9	-92.7	4.2
2025-01-14 21:27:43.131997	302.0	19.9	-92.5	8.6
2025-01-14 21:27:44.292595	302.3	19.8	-92.8	12.2
2025-01-14 21:27:45.454408	302.5	19.7	-92.3	12.3
2025-01-14 21:27:46.603621	302.8	19.7	-92.7	11.9
2025-01-14 21:27:47.762284	303.1	19.6	-92.9	7.6
2025-01-14 21:27:48.919315	303.3	19.6	-92.9	11.8
2025-01-14 21:27:50.075975	303.6	19.5	-92.9	7.2
2025-01-14 21:27:51.234333	303.8	19.5	-92.6	9.9
2025-01-14 21:27:52.383745	304.1	19.4	-92.9	8.0
2025-01-14 21:27:53.545981	304.3	19.3	-93.0	12.1
2025-01-14 21:27:54.703056	304.6	19.3	-92.5	6.4
2025-01-14 21:27:55.856756	304.8	19.2	-92.8	7.5
2025-01-14 21:27:57.007113	305.1	19.1	-92.6	7.0
2025-01-14 21:27:58.168551	305.3	19.1	-92.5	4.2
2025-01-14 21:27:59.330425	305.6	19.0	-92.6	6.7
2025-01-14 21:28:00.486212	305.8	19.0	-93.1	6.2
2025-01-14 21:28:01.638838	306.0	18.9	-93.0	6.7
2025-01-14 21:28:02.792178	306.3	18.8	-93.1	6.3
2025-01-14 21:28:03.950153	306.5	18.8	-92.9	6.9
2025-01-14 21:28:05.104186	306.8	18.7	-93.1	4.8
2025-01-14 21:28:06.254639	307.0	18.6	-92.5	4.1
2025-01-14 21:28:07.399236	307.2	18.6	-92.7	5.5
2025-01-14 21:28:08.559104	307.5	18.5	-92.5	5.0
2025-01-14 21:28:09.711568	307.7	18.4	-92.5	6.5
2025-01-14 21:28:10.866608	307.9	18.4	-92.9	9.3
2025-01-14 21:28:12.026349	308.2	18.3	-92.8	6.2
2025-01-14 21:28:13.178215	308.4	18.2	-92.8	6.8
2025-01-14 21:28:14.324675	308.6	18.2	-92.3	5.7
2025-01-14 21:28:15.481249	308.9	18.1	-92.9	6.2
2025-01-14 21:28:16.627881	309.1	18.0	-93.1	6.5
2025-01-14 21:28:17.782404	309.3	18.0	-93.0	10.3
2025-01-14 21:28:18.943688	309.6	17.9	-92.8	7.4
2025-01-14 21:28:20.097438	309.8	17.8	-93.1	2.7
2025-01-14 21:28:21.253414	310.0	17.8	-92.8	4.1
2025-01-14 21:28:22.400250	310.2	17.7	-92.6	3.2
2025-01-14 21:28:23.554669	310.5	17.6	-92.8	5.1
2025-01-14 21:28:24.711386	310.7	17.6	-92.8	3.7
2025-01-14 21:28:25.867424	310.9	17.5	-92.9	6.7
2025-01-14 21:28:27.019385	311.1	17.4	-92.9	4.9
2025-01-14 21:28:28.173391	311.4	17.4	-92.9	4.0
2025-01-14 21:28:29.328162	311.6	17.3	-93.1	7.0
2025-01-14 21:28:30.483585	311.8	17.2	-92.8	5.0
2025-01-14 21:28:31.645377	312.0	17.2	-93.0	6.2
2025-01-14 21:28:32.800065	312.2	17.1	-93.0	6.5
2025-01-14 21:28:33.954328	312.4	17.0	-92.7	5.4
2025-01-14 21:28:35.110122	312.7	16.9	-92.7	7.5
2025-01-14 21:28:36.266913	312.9	16.9	-92.8	9.1
2025-01-14 21:28:37.411488	313.1	16.8	-93.0	8.5
2025-01-14 21:28:38.566005	313.3	16.7	-93.0	5.7
2025-01-14 21:28:39.716230	313.5	16.7	-93.1	7.5
2025-01-14 21:28:40.880331	313.7	16.6	-92.9	6.3
2025-01-14 21:28:42.033785	313.9	16.5	-92.6	3.6
2025-01-14 21:28:43.190844	314.1	16.4	-92.7	11.2
2025-01-14 21:28:44.342032	314.3	16.4	-92.5	7.9
2025-01-14 21:28:45.494504	314.5	16.3	-92.8	4.1
2025-01-14 21:28:46.647684	314.8	16.2	-92.8	5.9
2025-01-14 21:28:47.813487	315.0	16.2	-92.7	8.7
2025-01-14 21:28:48.961909	315.2	16.1	-93.0	5.5
2025-01-14 21:28:50.118422	315.4	16.0	-92.9	5.2
2025-01-14 21:28:51.276164	315.6	15.9	-92.7	8.8
2025-01-14 21:28:52.433596	315.8	15.9	-93.0	5.0
2025-01-14 21:28:53.594169	316.0	15.8	-93.0	4.1
2025-01-14 21:28:54.756951	316.2	15.7	-92.9	7.9
2025-01-14 21:28:55.916285	316.4	15.6	-92.8	5.9
2025-01-14 21:28:57.074377	316.6	15.6	-93.0	3.9
2025-01-14 21:28:58.238276	316.8	15.5	-92.9	6.3
2025-01-14 21:28:59.394380	317.0	15.4	-92.9	5.0
2025-01-14 21:29:00.543032	317.1	15.3	-92.6	8.3
2025-01-14 21:29:01.702527	317.3	15.3	-92.9	10.3
2025-01-14 21:29:02.854496	317.5	15.2	-92.7	5.1
2025-01-14 21:29:04.011594	317.7	15.1	-92.3	4.2
2025-01-14 21:29:05.169465	317.9	15.0	-92.6	3.7
2025-01-14 21:29:06.325782	318.1	15.0	-92.7	9.6
2025-01-14 21:29:07.481847	318.3	14.9	-92.8	6.5
2025-01-14 21:29:08.635715	318.5	14.8	-92.8	4.4
2025-01-14 21:29:09.789141	318.7	14.8	-92.8	11.1
2025-01-14 21:29:10.946194	318.9	14.7	-93.0	8.2
#Closed at: 2025-01-14 21:23:10.888281