passes_logs/2025/01/14/LEX_Murmansk/LEX_Murmansk__20250114_173340_NOAA_19_rec.log

#Pass ID: 20250114_173340_NOAA 19
#Satellite: NOAA 19
#Configuration: NOAA 19
#Start time: 2025-01-14 17:33:35.546625

#LorettStation: 1.0.0 05.05.2024
#Station: LEX_Murmansk
#Location: 33.156738 lon 68.926811 lat
#TLE: 1 33591U 09005A   25014.15453959  .00000276  00000+0  17122-3 0  9998
#TLE: 2 33591  99.0198  77.9105 0014501  59.8090 300.4516 14.13258688821422

#Time	Az	El	Level	SNR
2025-01-14 17:33:47.801049	147.5	16.3	-89.9	4.4
2025-01-14 17:33:50.134188	147.5	16.6	-89.6	2.5
2025-01-14 17:33:52.467047	147.5	16.9	-90.1	3.9
2025-01-14 17:33:54.800041	147.5	17.1	-89.3	3.5
2025-01-14 17:33:57.128529	147.5	17.4	-90.1	3.2
2025-01-14 17:33:59.455756	147.4	17.7	-90.2	4.0
2025-01-14 17:34:01.777259	147.4	18.0	-89.9	4.7
2025-01-14 17:34:04.103117	147.4	18.2	-89.4	4.0
2025-01-14 17:34:06.432449	147.4	18.5	-89.9	3.8
2025-01-14 17:34:08.757510	147.4	18.8	-90.1	4.1
2025-01-14 17:34:11.079477	147.4	19.1	-90.2	2.0
2025-01-14 17:34:13.409791	147.3	19.4	-90.3	3.1
2025-01-14 17:34:15.741768	147.3	19.7	-90.0	5.7
2025-01-14 17:34:18.065647	147.3	20.0	-89.3	4.7
2025-01-14 17:34:20.393985	147.3	20.3	-89.5	4.9
2025-01-14 17:34:22.723781	147.2	20.6	-89.5	5.9
2025-01-14 17:34:25.042846	147.2	20.9	-90.3	3.0
2025-01-14 17:34:27.366941	147.2	21.2	-89.4	4.0
2025-01-14 17:34:29.694627	147.2	21.6	-90.0	3.9
2025-01-14 17:34:32.024035	147.2	21.9	-90.4	7.8
2025-01-14 17:34:34.356961	147.1	22.2	-89.5	6.1
2025-01-14 17:34:36.687022	147.1	22.5	-89.6	4.7
2025-01-14 17:34:39.016324	147.1	22.9	-89.7	5.8
2025-01-14 17:34:41.330539	147.1	23.2	-89.8	5.6
2025-01-14 17:34:43.661757	147.0	23.6	-89.5	0.2
2025-01-14 17:34:45.991244	147.0	23.9	-89.9	2.9
2025-01-14 17:34:48.319533	147.0	24.3	-90.2	9.3
2025-01-14 17:34:50.647359	146.9	24.6	-90.6	6.5
2025-01-14 17:34:52.981624	146.9	25.0	-90.1	5.5
2025-01-14 17:34:55.319620	146.9	25.4	-90.1	7.0
2025-01-14 17:34:57.640810	146.8	25.7	-90.0	3.1
2025-01-14 17:34:59.970144	146.8	26.1	-90.2	1.8
2025-01-14 17:35:02.293687	146.8	26.5	-90.4	5.9
2025-01-14 17:35:04.628966	146.7	26.9	-90.3	9.3
2025-01-14 17:35:06.967675	146.7	27.3	-90.6	4.1
2025-01-14 17:35:09.304144	146.7	27.7	-90.1	5.6
2025-01-14 17:35:11.638991	146.6	28.1	-90.6	7.2
2025-01-14 17:35:13.960161	146.6	28.5	-90.5	3.3
2025-01-14 17:35:16.268737	146.5	28.9	-90.8	1.4
2025-01-14 17:35:18.516827	146.5	29.4	-90.0	2.8
2025-01-14 17:35:20.760029	146.5	29.8	-89.6	6.2
2025-01-14 17:35:23.001798	146.4	30.2	-89.9	6.8
2025-01-14 17:35:25.245130	146.4	30.6	-89.7	5.4
2025-01-14 17:35:27.542209	146.3	31.1	-90.3	6.2
2025-01-14 17:35:29.869217	146.3	31.5	-90.9	7.2
2025-01-14 17:35:32.180530	146.2	32.0	-91.0	4.7
2025-01-14 17:35:34.496426	146.2	32.5	-90.2	0.1
2025-01-14 17:35:36.828184	146.1	33.0	-90.3	5.5
2025-01-14 17:35:39.160028	146.1	33.4	-90.9	8.5
2025-01-14 17:35:41.486837	146.0	33.9	-90.4	4.0
2025-01-14 17:35:43.830610	145.9	34.5	-90.5	9.7
2025-01-14 17:35:46.158587	145.9	35.0	-90.7	13.4
2025-01-14 17:35:48.480357	145.8	35.5	-90.0	5.0
2025-01-14 17:35:50.795480	145.7	36.0	-90.3	4.4
2025-01-14 17:35:53.117818	145.7	36.6	-90.5	7.6
2025-01-14 17:35:55.438659	145.6	37.1	-90.8	12.7
2025-01-14 17:35:57.753801	145.5	37.7	-90.5	13.8
2025-01-14 17:36:00.038800	145.4	38.2	-90.7	5.8
2025-01-14 17:36:02.336610	145.4	38.8	-90.7	11.4
2025-01-14 17:36:04.613937	145.3	39.4	-90.4	12.3
2025-01-14 17:36:06.914435	145.2	40.0	-90.0	7.8
2025-01-14 17:36:09.219717	145.1	40.6	-90.4	5.7
2025-01-14 17:36:11.545186	145.0	41.2	-90.0	4.4
2025-01-14 17:36:13.865846	144.9	41.8	-90.1	12.3
2025-01-14 17:36:16.195383	144.8	42.4	-90.0	13.3
2025-01-14 17:36:18.527028	144.7	43.1	-90.2	6.7
2025-01-14 17:36:20.853896	144.6	43.7	-90.1	13.3
2025-01-14 17:36:23.183377	144.4	44.4	-90.0	17.5
2025-01-14 17:36:25.511821	144.3	45.1	-90.3	6.7
2025-01-14 17:36:27.839511	144.2	45.8	-90.8	5.0
2025-01-14 17:36:30.170415	144.0	46.5	-90.5	2.5
2025-01-14 17:36:32.488997	143.9	47.2	-90.3	4.7
2025-01-14 17:36:34.819304	143.8	47.9	-90.1	1.3
2025-01-14 17:36:37.145496	143.6	48.7	-90.3	6.9
2025-01-14 17:36:39.477356	143.4	49.4	-90.1	3.1
2025-01-14 17:36:41.792851	143.2	50.2	-90.7	11.0
2025-01-14 17:36:44.114933	143.1	51.0	-90.2	10.7
2025-01-14 17:36:46.445213	142.9	51.8	-90.6	5.8
2025-01-14 17:36:48.778125	142.7	52.6	-90.7	4.9
2025-01-14 17:36:51.105057	142.4	53.4	-90.6	2.6
2025-01-14 17:36:53.437043	142.2	54.2	-90.2	6.0
2025-01-14 17:36:55.762580	142.0	55.1	-89.9	15.3
2025-01-14 17:36:58.083220	141.7	55.9	-90.7	12.8
2025-01-14 17:37:00.416011	141.4	56.8	-90.0	8.7
2025-01-14 17:37:02.741508	141.1	57.7	-90.4	7.1
2025-01-14 17:37:05.064949	140.8	58.6	-90.2	16.0
2025-01-14 17:37:07.392188	140.4	59.5	-90.5	18.5
2025-01-14 17:37:09.714650	140.1	60.4	-90.8	10.2
2025-01-14 17:37:12.040904	139.7	61.4	-90.3	4.3
2025-01-14 17:37:14.367011	139.2	62.3	-89.9	6.4
2025-01-14 17:37:16.696388	138.8	63.3	-89.9	6.4
2025-01-14 17:37:19.017567	138.3	64.2	-90.2	6.2
2025-01-14 17:37:21.345300	137.7	65.2	-90.3	7.6
2025-01-14 17:37:23.666757	137.1	66.2	-90.5	9.9
2025-01-14 17:37:25.993424	136.4	67.2	-90.9	4.6
2025-01-14 17:37:28.324360	135.7	68.2	-90.5	11.0
2025-01-14 17:37:30.654030	134.9	69.2	-90.5	14.1
2025-01-14 17:37:32.975717	134.0	70.2	-90.8	15.3
2025-01-14 17:37:35.298990	133.0	71.2	-90.8	18.1
2025-01-14 17:37:37.626690	131.9	72.3	-91.0	14.1
2025-01-14 17:37:39.957397	130.6	73.3	-89.9	8.3
2025-01-14 17:37:42.283614	129.1	74.3	-90.9	9.6
2025-01-14 17:37:44.611863	127.4	75.4	-90.8	9.1
2025-01-14 17:37:46.938425	125.5	76.4	-90.7	2.3
2025-01-14 17:37:49.264306	123.2	77.4	-90.7	11.4
2025-01-14 17:37:51.587249	120.6	78.4	-90.2	10.0
2025-01-14 17:37:53.923548	117.4	79.4	-90.6	16.1
2025-01-14 17:37:56.253696	113.5	80.3	-90.7	17.4
2025-01-14 17:37:58.586294	108.9	81.2	-90.4	18.9
2025-01-14 17:38:00.912528	103.2	82.0	-90.6	14.6
2025-01-14 17:38:03.222206	96.4	82.8	-90.6	15.5
2025-01-14 17:38:05.471836	88.3	83.4	-90.4	11.7
2025-01-14 17:38:07.714004	79.0	83.8	-90.6	13.2
2025-01-14 17:38:09.956558	68.6	84.0	-90.7	8.6
2025-01-14 17:38:12.200241	57.6	84.1	-90.8	13.0
2025-01-14 17:38:14.503841	46.6	83.9	-90.8	10.9
2025-01-14 17:38:16.814001	36.6	83.5	-90.3	15.7
2025-01-14 17:38:19.130134	27.9	83.0	-90.4	16.1
2025-01-14 17:38:21.742316	19.8	82.2	-90.8	18.3
2025-01-14 17:38:24.065375	13.9	81.4	-91.0	17.5
2025-01-14 17:38:26.393970	9.1	80.5	-90.5	14.6
2025-01-14 17:38:28.717065	5.2	79.5	-90.4	19.9
2025-01-14 17:38:31.050129	1.9	78.6	-90.2	17.3
2025-01-14 17:38:33.375483	359.1	77.6	-90.5	15.9
2025-01-14 17:38:35.694847	356.8	76.6	-90.7	16.9
2025-01-14 17:38:38.019742	354.8	75.6	-90.0	12.5
2025-01-14 17:38:40.309709	353.1	74.6	-91.0	9.5
2025-01-14 17:38:42.614131	351.7	73.5	-91.0	11.1
2025-01-14 17:38:44.914620	350.4	72.5	-90.9	10.9
2025-01-14 17:38:47.224769	349.2	71.5	-90.6	12.5
2025-01-14 17:38:49.549424	348.2	70.5	-90.2	10.2
2025-01-14 17:38:51.871459	347.3	69.4	-89.6	11.0
2025-01-14 17:38:54.185823	346.4	68.4	-90.1	8.8
2025-01-14 17:38:56.528123	345.7	67.4	-90.5	8.0
2025-01-14 17:38:58.857241	345.0	66.4	-90.8	13.5
2025-01-14 17:39:01.176223	344.4	65.4	-90.5	9.7
2025-01-14 17:39:03.501553	343.8	64.5	-89.8	5.2
2025-01-14 17:39:05.573861	343.4	63.6	-89.5	6.8
2025-01-14 17:39:07.904493	342.9	62.6	-90.1	7.5
2025-01-14 17:39:10.231814	342.4	61.7	-90.8	3.9
2025-01-14 17:39:12.551069	342.0	60.8	-90.5	4.6
2025-01-14 17:39:14.873031	341.6	59.8	-90.9	5.8
2025-01-14 17:39:17.195718	341.3	58.9	-90.8	3.3
2025-01-14 17:39:19.527485	341.0	58.0	-90.8	6.7
2025-01-14 17:39:21.852694	340.7	57.2	-90.9	5.4
2025-01-14 17:39:24.170964	340.4	56.3	-91.0	9.9
2025-01-14 17:39:26.498143	340.1	55.4	-90.8	14.6
2025-01-14 17:39:28.831243	339.8	54.6	-90.8	10.9
2025-01-14 17:39:31.156305	339.6	53.7	-90.6	11.8
2025-01-14 17:39:33.479218	339.4	52.9	-90.5	14.2
2025-01-14 17:39:35.757899	339.2	52.1	-90.8	12.3
2025-01-14 17:39:37.999937	339.0	51.4	-90.9	9.7
2025-01-14 17:39:40.243128	338.8	50.6	-90.4	7.5
2025-01-14 17:39:42.484191	338.6	49.9	-90.3	7.5
2025-01-14 17:39:44.749504	338.5	49.1	-90.5	3.2
2025-01-14 17:39:47.055690	338.3	48.4	-90.8	7.5
2025-01-14 17:39:49.377054	338.1	47.7	-91.0	10.8
2025-01-14 17:39:51.693390	338.0	46.9	-90.7	12.9
2025-01-14 17:39:54.015862	337.9	46.2	-90.9	15.3
2025-01-14 17:39:56.328166	337.7	45.5	-90.7	11.5
2025-01-14 17:39:58.659338	337.6	44.9	-90.6	11.7
2025-01-14 17:40:00.988979	337.5	44.2	-90.9	11.0
2025-01-14 17:40:03.309818	337.4	43.5	-91.0	4.3
2025-01-14 17:40:05.632556	337.2	42.9	-91.1	9.2
2025-01-14 17:40:07.962274	337.1	42.2	-90.8	8.7
2025-01-14 17:40:10.291629	337.0	41.6	-91.0	12.5
2025-01-14 17:40:12.609161	336.9	41.0	-90.8	15.1
2025-01-14 17:40:14.934705	336.8	40.4	-90.9	15.6
2025-01-14 17:40:17.254774	336.7	39.8	-90.7	13.7
2025-01-14 17:40:19.582262	336.7	39.2	-90.9	11.8
2025-01-14 17:40:21.906329	336.6	38.6	-90.9	8.2
2025-01-14 17:40:24.231116	336.5	38.0	-91.1	4.5
2025-01-14 17:40:26.554179	336.4	37.5	-90.8	8.4
2025-01-14 17:40:28.880263	336.3	36.9	-90.6	7.5
2025-01-14 17:40:31.212610	336.3	36.4	-90.8	8.5
2025-01-14 17:40:33.520797	336.2	35.8	-90.8	11.6
2025-01-14 17:40:35.796755	336.1	35.3	-90.5	7.6
2025-01-14 17:40:38.038701	336.1	34.8	-90.8	7.4
2025-01-14 17:40:40.279580	336.0	34.3	-90.6	5.1
2025-01-14 17:40:42.521840	336.0	33.9	-90.4	5.7
2025-01-14 17:40:44.782055	335.9	33.4	-90.6	6.5
2025-01-14 17:40:47.111598	335.8	32.9	-91.0	13.0
2025-01-14 17:40:49.431741	335.8	32.4	-90.8	9.6
2025-01-14 17:40:51.760061	335.7	31.9	-90.6	5.6
2025-01-14 17:40:54.078139	335.7	31.5	-90.7	6.0
2025-01-14 17:40:56.404299	335.6	31.0	-90.7	7.3
2025-01-14 17:40:58.729273	335.6	30.6	-91.0	5.6
2025-01-14 17:41:01.058287	335.5	30.1	-90.8	7.8
2025-01-14 17:41:03.388734	335.5	29.7	-90.9	8.8
2025-01-14 17:41:05.713834	335.5	29.3	-91.1	11.2
2025-01-14 17:41:08.033727	335.4	28.8	-91.4	7.6
2025-01-14 17:41:10.361184	335.4	28.4	-91.2	3.6
2025-01-14 17:41:12.684181	335.3	28.0	-91.2	2.3
2025-01-14 17:41:15.007373	335.3	27.6	-90.8	4.3
2025-01-14 17:41:17.308595	335.3	27.2	-90.9	6.5
2025-01-14 17:41:19.597616	335.2	26.8	-90.7	11.0
2025-01-14 17:41:21.901283	335.2	26.5	-90.7	8.9
2025-01-14 17:41:24.197592	335.2	26.1	-91.0	4.6
2025-01-14 17:41:26.477374	335.1	25.7	-90.6	5.0
2025-01-14 17:41:28.787685	335.1	25.3	-90.7	5.2
2025-01-14 17:41:31.106132	335.1	25.0	-90.9	10.5
2025-01-14 17:41:33.416345	335.0	24.6	-90.5	5.4
2025-01-14 17:41:35.745089	335.0	24.3	-90.5	4.8
2025-01-14 17:41:38.064439	335.0	23.9	-90.4	2.9
2025-01-14 17:41:40.382392	335.0	23.6	-90.6	2.0
2025-01-14 17:41:42.704749	334.9	23.2	-90.9	4.0
2025-01-14 17:41:45.026908	334.9	22.9	-90.3	4.9
2025-01-14 17:41:47.349762	334.9	22.5	-90.6	4.6
2025-01-14 17:41:49.675903	334.9	22.2	-91.2	4.7
2025-01-14 17:41:52.007505	334.8	21.9	-90.9	3.8
2025-01-14 17:41:54.338763	334.8	21.6	-91.3	3.9
2025-01-14 17:41:56.659733	334.8	21.3	-90.8	2.6
2025-01-14 17:41:58.981456	334.8	20.9	-91.2	6.7
2025-01-14 17:42:01.304740	334.8	20.6	-91.1	6.1
2025-01-14 17:42:03.630056	334.7	20.3	-90.8	4.3
2025-01-14 17:42:05.957984	334.7	20.0	-90.4	2.2
2025-01-14 17:42:08.285414	334.7	19.7	-90.6	2.3
2025-01-14 17:42:10.608584	334.7	19.4	-90.7	2.5
2025-01-14 17:42:12.930295	334.7	19.1	-90.7	3.1
2025-01-14 17:42:15.256472	334.6	18.8	-90.7	2.7
2025-01-14 17:42:17.580430	334.6	18.6	-91.1	4.0
2025-01-14 17:42:19.908103	334.6	18.3	-91.1	3.0
2025-01-14 17:42:22.235792	334.6	18.0	-90.9	2.8
2025-01-14 17:42:24.558818	334.6	17.7	-90.8	1.1
2025-01-14 17:42:26.882113	334.6	17.5	-91.4	3.5
2025-01-14 17:42:29.201914	334.5	17.2	-90.7	0.1
2025-01-14 17:42:31.528986	334.5	16.9	-90.6	0.1
2025-01-14 17:42:33.854402	334.5	16.7	-90.6	2.3
2025-01-14 17:42:36.153209	334.5	16.4	-90.7	3.6
2025-01-14 17:42:38.442060	334.5	16.1	-90.8	1.9
2025-01-14 17:42:40.760622	334.5	15.9	-90.9	3.2
2025-01-14 17:42:43.074200	334.5	15.6	-90.6	1.6
2025-01-14 17:42:45.389335	334.5	15.4	-90.3	1.3
2025-01-14 17:42:47.704102	334.4	15.1	-90.8	1.8
2025-01-14 17:42:50.033102	334.4	14.9	-90.7	2.2
2025-01-14 17:42:52.361666	334.4	14.7	-90.6	3.2
#Closed at: 2025-01-14 17:33:40.587467