passes_logs/2025/01/14/LEX_Murmansk/LEX_Murmansk__20250114_155354_NOAA_19_rec.log

#Pass ID: 20250114_155354_NOAA 19
#Satellite: NOAA 19
#Configuration: NOAA 19
#Start time: 2025-01-14 15:53:49.337133

#LorettStation: 1.0.0 05.05.2024
#Station: LEX_Murmansk
#Location: 33.156738 lon 68.926811 lat
#TLE: 1 33591U 09005A   25014.15453959  .00000276  00000+0  17122-3 0  9998
#TLE: 2 33591  99.0198  77.9105 0014501  59.8090 300.4516 14.13258688821422

#Time	Az	El	Level	SNR
2025-01-14 15:54:01.527104	98.6	16.2	-90.9	10.8
2025-01-14 15:54:02.685960	98.4	16.3	-90.9	8.3
2025-01-14 15:54:03.843993	98.3	16.4	-90.8	7.1
2025-01-14 15:54:05.003779	98.2	16.5	-91.4	3.7
2025-01-14 15:54:06.161080	98.1	16.6	-91.0	3.3
2025-01-14 15:54:07.307923	97.9	16.7	-91.2	2.4
2025-01-14 15:54:08.464367	97.8	16.9	-91.4	4.2
2025-01-14 15:54:09.621101	97.7	17.0	-91.9	10.6
2025-01-14 15:54:10.781617	97.6	17.1	-91.7	10.3
2025-01-14 15:54:11.933776	97.4	17.2	-91.7	7.2
2025-01-14 15:54:13.092389	97.3	17.3	-91.6	12.7
2025-01-14 15:54:14.243788	97.2	17.5	-92.0	8.4
2025-01-14 15:54:15.402423	97.1	17.6	-91.5	9.0
2025-01-14 15:54:16.565643	96.9	17.7	-91.4	10.6
2025-01-14 15:54:17.726180	96.8	17.8	-91.5	11.6
2025-01-14 15:54:18.882443	96.7	17.9	-91.8	14.6
2025-01-14 15:54:20.034712	96.5	18.0	-91.4	13.9
2025-01-14 15:54:21.194038	96.4	18.2	-91.6	4.7
2025-01-14 15:54:22.343555	96.3	18.3	-91.8	2.4
2025-01-14 15:54:23.497188	96.1	18.4	-91.8	4.3
2025-01-14 15:54:24.659341	96.0	18.5	-91.9	1.4
2025-01-14 15:54:25.819616	95.8	18.7	-91.7	2.7
2025-01-14 15:54:26.965124	95.7	18.8	-92.0	2.0
2025-01-14 15:54:28.110264	95.6	18.9	-91.6	6.1
2025-01-14 15:54:29.262633	95.4	19.0	-91.9	9.2
2025-01-14 15:54:30.415710	95.3	19.1	-92.0	3.2
2025-01-14 15:54:31.563296	95.1	19.3	-92.0	7.4
2025-01-14 15:54:32.722925	95.0	19.4	-91.8	5.0
2025-01-14 15:54:33.877908	94.8	19.5	-92.4	4.1
2025-01-14 15:54:35.023542	94.7	19.6	-91.9	7.2
2025-01-14 15:54:36.184411	94.5	19.8	-91.8	4.2
2025-01-14 15:54:37.328749	94.4	19.9	-92.1	3.4
2025-01-14 15:54:38.481537	94.2	20.0	-92.2	3.0
2025-01-14 15:54:39.628334	94.1	20.1	-91.8	1.6
2025-01-14 15:54:40.779979	93.9	20.3	-92.3	2.7
2025-01-14 15:54:41.939808	93.8	20.4	-92.1	1.5
2025-01-14 15:54:43.091985	93.6	20.5	-92.3	2.6
2025-01-14 15:54:44.247518	93.4	20.7	-92.1	1.3
2025-01-14 15:54:45.406555	93.3	20.8	-92.2	7.1
2025-01-14 15:54:46.565563	93.1	20.9	-92.1	9.2
2025-01-14 15:54:47.719222	93.0	21.0	-92.0	6.3
2025-01-14 15:54:48.871422	92.8	21.2	-91.7	7.9
2025-01-14 15:54:50.031348	92.6	21.3	-91.9	7.9
2025-01-14 15:54:51.188342	92.5	21.4	-91.7	3.4
2025-01-14 15:54:52.350623	92.3	21.6	-91.9	1.7
2025-01-14 15:54:53.508144	92.1	21.7	-92.1	6.2
2025-01-14 15:54:54.653877	91.9	21.8	-92.0	7.8
2025-01-14 15:54:55.811077	91.8	22.0	-91.9	9.7
2025-01-14 15:54:56.962835	91.6	22.1	-92.2	4.7
2025-01-14 15:54:58.120336	91.4	22.2	-91.9	4.5
2025-01-14 15:54:59.267954	91.2	22.4	-91.7	2.3
2025-01-14 15:55:00.427978	91.1	22.5	-91.9	2.6
2025-01-14 15:55:01.591933	90.9	22.6	-92.0	2.9
2025-01-14 15:55:02.749866	90.7	22.8	-92.1	3.6
2025-01-14 15:55:03.906642	90.5	22.9	-92.2	3.1
2025-01-14 15:55:05.066933	90.3	23.0	-91.8	3.5
2025-01-14 15:55:06.220012	90.1	23.2	-91.9	5.5
2025-01-14 15:55:07.374889	89.9	23.3	-91.8	3.2
2025-01-14 15:55:08.528056	89.8	23.5	-91.8	2.9
2025-01-14 15:55:09.687703	89.6	23.6	-91.6	3.3
2025-01-14 15:55:10.848136	89.4	23.7	-91.5	2.2
2025-01-14 15:55:12.016160	89.2	23.9	-91.7	2.5
2025-01-14 15:55:13.177438	89.0	24.0	-91.8	1.9
2025-01-14 15:55:14.327260	88.8	24.1	-91.6	0.8
2025-01-14 15:55:15.473500	88.6	24.3	-91.7	3.1
2025-01-14 15:55:16.630241	88.4	24.4	-92.0	3.3
2025-01-14 15:55:17.775560	88.2	24.6	-92.3	1.7
2025-01-14 15:55:18.928649	88.0	24.7	-92.4	2.6
2025-01-14 15:55:20.073153	87.7	24.8	-92.1	2.0
2025-01-14 15:55:21.223067	87.5	25.0	-91.8	2.2
2025-01-14 15:55:22.380153	87.3	25.1	-92.1	3.1
2025-01-14 15:55:23.535768	87.1	25.3	-92.1	4.0
2025-01-14 15:55:24.696824	86.9	25.4	-92.0	4.5
2025-01-14 15:55:25.845909	86.7	25.5	-91.8	9.4
2025-01-14 15:55:27.000859	86.5	25.7	-91.7	5.3
2025-01-14 15:55:28.151199	86.2	25.8	-91.9	4.7
2025-01-14 15:55:29.315637	86.0	26.0	-91.8	6.2
2025-01-14 15:55:30.466607	85.8	26.1	-91.8	8.2
2025-01-14 15:55:31.622775	85.6	26.3	-91.7	5.3
2025-01-14 15:55:32.782219	85.3	26.4	-91.8	5.8
2025-01-14 15:55:33.936018	85.1	26.5	-91.7	4.4
2025-01-14 15:55:35.091850	84.9	26.7	-91.6	1.3
2025-01-14 15:55:36.251530	84.6	26.8	-91.6	2.7
2025-01-14 15:55:37.401227	84.4	27.0	-91.5	3.0
2025-01-14 15:55:38.553183	84.1	27.1	-91.3	1.7
2025-01-14 15:55:39.713696	83.9	27.3	-91.7	1.1
2025-01-14 15:55:40.863319	83.6	27.4	-91.7	2.6
2025-01-14 15:55:42.017871	83.4	27.6	-91.5	4.5
2025-01-14 15:55:43.182749	83.1	27.7	-91.9	5.4
2025-01-14 15:55:44.336230	82.9	27.8	-91.5	7.7
2025-01-14 15:55:45.497204	82.6	28.0	-92.1	10.2
2025-01-14 15:55:46.658694	82.4	28.1	-91.7	9.9
2025-01-14 15:55:47.818420	82.1	28.3	-91.5	7.2
2025-01-14 15:55:48.975734	81.8	28.4	-91.4	10.1
2025-01-14 15:55:50.129890	81.6	28.6	-91.6	12.6
2025-01-14 15:55:51.282446	81.3	28.7	-91.8	5.7
2025-01-14 15:55:52.436854	81.0	28.9	-92.1	8.0
2025-01-14 15:55:53.607421	80.8	29.0	-92.0	8.8
2025-01-14 15:55:54.770819	80.5	29.2	-91.9	15.4
2025-01-14 15:55:55.929435	80.2	29.3	-92.0	13.3
2025-01-14 15:55:57.078388	79.9	29.5	-92.0	11.3
2025-01-14 15:55:58.221616	79.7	29.6	-91.8	9.8
2025-01-14 15:55:59.373454	79.4	29.7	-91.9	5.3
2025-01-14 15:56:00.527476	79.1	29.9	-92.0	5.1
2025-01-14 15:56:01.673071	78.8	30.0	-91.5	2.8
2025-01-14 15:56:02.826380	78.5	30.2	-91.6	5.3
2025-01-14 15:56:03.981179	78.2	30.3	-91.8	5.5
2025-01-14 15:56:05.130364	77.9	30.5	-92.0	5.0
2025-01-14 15:56:06.280258	77.6	30.6	-91.8	8.7
2025-01-14 15:56:07.436402	77.3	30.8	-92.0	12.1
2025-01-14 15:56:08.591616	77.0	30.9	-91.9	13.6
2025-01-14 15:56:09.751678	76.7	31.1	-92.0	13.0
2025-01-14 15:56:10.905870	76.4	31.2	-91.8	8.1
2025-01-14 15:56:12.062804	76.1	31.3	-92.1	12.6
2025-01-14 15:56:13.210845	75.8	31.5	-91.8	6.0
2025-01-14 15:56:14.363262	75.4	31.6	-92.0	8.1
2025-01-14 15:56:15.516952	75.1	31.8	-92.2	11.5
2025-01-14 15:56:16.655971	74.8	31.9	-91.5	10.7
2025-01-14 15:56:17.776881	74.5	32.0	-91.9	14.9
2025-01-14 15:56:18.898254	74.1	32.2	-91.0	16.1
2025-01-14 15:56:20.022233	73.8	32.3	-91.4	14.6
2025-01-14 15:56:21.142417	73.5	32.5	-91.5	14.6
2025-01-14 15:56:22.263243	73.2	32.6	-91.2	9.9
2025-01-14 15:56:23.383598	72.8	32.7	-91.6	9.6
2025-01-14 15:56:24.508216	72.5	32.9	-91.5	7.2
2025-01-14 15:56:25.629693	72.2	33.0	-91.6	8.6
2025-01-14 15:56:26.781260	71.8	33.1	-91.5	2.3
2025-01-14 15:56:27.927759	71.5	33.3	-91.6	3.7
2025-01-14 15:56:29.086386	71.1	33.4	-91.6	7.4
2025-01-14 15:56:30.227445	70.7	33.5	-91.5	9.3
2025-01-14 15:56:31.380323	70.4	33.7	-91.5	14.0
2025-01-14 15:56:32.539026	70.0	33.8	-91.1	17.3
2025-01-14 15:56:33.702007	69.6	34.0	-91.3	16.9
2025-01-14 15:56:34.846012	69.3	34.1	-91.6	16.7
2025-01-14 15:56:36.001459	68.9	34.2	-91.6	16.4
2025-01-14 15:56:37.152769	68.5	34.4	-91.8	12.3
2025-01-14 15:56:38.302507	68.1	34.5	-91.6	7.9
2025-01-14 15:56:39.460727	67.7	34.6	-91.8	9.1
2025-01-14 15:56:40.621148	67.3	34.7	-91.9	12.4
2025-01-14 15:56:41.772581	67.0	34.9	-91.5	7.1
2025-01-14 15:56:42.927463	66.6	35.0	-91.6	13.2
2025-01-14 15:56:44.085799	66.2	35.1	-91.4	16.5
2025-01-14 15:56:45.242987	65.8	35.2	-91.2	18.0
2025-01-14 15:56:46.396448	65.4	35.4	-91.4	18.1
2025-01-14 15:56:47.548529	65.0	35.5	-91.6	15.7
2025-01-14 15:56:48.707790	64.5	35.6	-91.5	12.3
2025-01-14 15:56:49.862875	64.1	35.7	-92.0	11.0
2025-01-14 15:56:51.019312	63.7	35.9	-92.0	8.2
2025-01-14 15:56:52.169277	63.3	36.0	-91.8	5.0
2025-01-14 15:56:53.317349	62.9	36.1	-91.8	4.1
2025-01-14 15:56:54.470515	62.5	36.2	-91.8	6.3
2025-01-14 15:56:55.619292	62.0	36.3	-92.0	6.9
2025-01-14 15:56:56.776033	61.6	36.4	-92.0	4.9
2025-01-14 15:56:57.937228	61.2	36.5	-91.4	8.6
2025-01-14 15:56:59.088045	60.7	36.6	-91.5	11.3
2025-01-14 15:57:00.241447	60.3	36.8	-91.6	11.7
2025-01-14 15:57:01.397099	59.8	36.9	-91.4	12.5
2025-01-14 15:57:02.548526	59.4	37.0	-91.6	15.4
2025-01-14 15:57:03.713651	58.9	37.1	-91.4	16.1
2025-01-14 15:57:04.867278	58.5	37.2	-92.0	18.1
2025-01-14 15:57:06.013868	58.0	37.3	-91.8	15.9
2025-01-14 15:57:07.164105	57.6	37.4	-92.0	12.5
2025-01-14 15:57:08.310769	57.1	37.5	-91.7	10.8
2025-01-14 15:57:09.465372	56.7	37.5	-91.9	13.3
2025-01-14 15:57:10.613342	56.2	37.6	-91.7	11.6
2025-01-14 15:57:11.764041	55.7	37.7	-91.2	5.6
2025-01-14 15:57:12.918508	55.3	37.8	-91.5	8.7
2025-01-14 15:57:14.074896	54.8	37.9	-91.7	8.4
2025-01-14 15:57:15.235016	54.3	38.0	-92.1	9.3
2025-01-14 15:57:16.390394	53.8	38.1	-91.9	11.0
2025-01-14 15:57:17.535064	53.4	38.1	-92.1	15.6
2025-01-14 15:57:18.689151	52.9	38.2	-92.6	14.5
2025-01-14 15:57:19.837265	52.4	38.3	-91.5	14.2
2025-01-14 15:57:20.986240	51.9	38.4	-91.4	15.9
2025-01-14 15:57:22.147535	51.4	38.4	-91.5	15.4
2025-01-14 15:57:23.299945	50.9	38.5	-91.6	16.8
2025-01-14 15:57:24.461646	50.4	38.6	-91.6	13.9
2025-01-14 15:57:25.611774	50.0	38.6	-91.6	14.0
2025-01-14 15:57:26.770772	49.5	38.7	-91.7	10.6
2025-01-14 15:57:27.921797	49.0	38.8	-91.7	8.8
2025-01-14 15:57:29.073933	48.5	38.8	-91.3	9.5
2025-01-14 15:57:30.228262	48.0	38.9	-91.4	3.8
2025-01-14 15:57:31.386727	47.5	38.9	-91.2	7.7
2025-01-14 15:57:32.543457	46.9	39.0	-91.3	8.3
2025-01-14 15:57:33.690395	46.4	39.0	-91.7	5.8
2025-01-14 15:57:34.847300	45.9	39.1	-91.7	4.9
2025-01-14 15:57:36.002640	45.4	39.1	-91.5	6.5
2025-01-14 15:57:37.150649	44.9	39.1	-91.7	5.8
2025-01-14 15:57:38.314130	44.4	39.2	-91.8	4.5
2025-01-14 15:57:39.467228	43.9	39.2	-91.9	6.4
2025-01-14 15:57:40.615511	43.4	39.3	-91.8	10.1
2025-01-14 15:57:41.772624	42.9	39.3	-91.7	10.3
2025-01-14 15:57:42.933673	42.3	39.3	-91.7	12.8
2025-01-14 15:57:44.096557	41.8	39.3	-91.7	14.4
2025-01-14 15:57:45.241972	41.3	39.4	-91.9	13.2
2025-01-14 15:57:46.397209	40.8	39.4	-91.6	15.5
2025-01-14 15:57:47.550724	40.3	39.4	-92.0	15.1
2025-01-14 15:57:48.710891	39.8	39.4	-91.4	14.6
2025-01-14 15:57:49.872233	39.2	39.4	-91.6	14.6
2025-01-14 15:57:51.030499	38.7	39.4	-91.8	16.1
2025-01-14 15:57:52.175138	38.2	39.4	-92.2	15.2
2025-01-14 15:57:53.328599	37.7	39.4	-92.2	11.6
2025-01-14 15:57:54.486526	37.2	39.4	-92.1	8.6
2025-01-14 15:57:55.647154	36.6	39.4	-92.3	10.5
2025-01-14 15:57:56.793883	36.1	39.4	-92.2	10.1
2025-01-14 15:57:57.945338	35.6	39.4	-92.1	11.9
2025-01-14 15:57:59.104854	35.1	39.4	-92.4	11.2
2025-01-14 15:58:00.260961	34.6	39.4	-92.1	6.8
2025-01-14 15:58:01.410747	34.0	39.4	-91.8	8.9
2025-01-14 15:58:02.570758	33.5	39.4	-91.8	11.4
2025-01-14 15:58:03.725757	33.0	39.3	-92.0	6.8
2025-01-14 15:58:04.884253	32.5	39.3	-92.1	6.3
2025-01-14 15:58:06.034614	32.0	39.3	-92.0	10.3
2025-01-14 15:58:07.190866	31.5	39.2	-92.1	7.2
2025-01-14 15:58:08.345556	31.0	39.2	-92.0	6.8
2025-01-14 15:58:09.501138	30.4	39.2	-92.0	8.0
2025-01-14 15:58:10.661244	29.9	39.1	-92.2	7.4
2025-01-14 15:58:11.821651	29.4	39.1	-92.0	7.0
2025-01-14 15:58:12.981947	28.9	39.1	-92.4	10.3
2025-01-14 15:58:14.148464	28.4	39.0	-92.5	13.3
2025-01-14 15:58:15.300654	27.9	39.0	-92.3	6.2
2025-01-14 15:58:16.456298	27.4	38.9	-91.9	8.4
2025-01-14 15:58:17.614264	26.9	38.9	-91.6	12.4
2025-01-14 15:58:18.768413	26.4	38.8	-91.4	5.5
2025-01-14 15:58:19.922151	25.9	38.8	-91.7	6.8
2025-01-14 15:58:21.078718	25.4	38.7	-91.5	10.0
2025-01-14 15:58:22.245436	24.9	38.6	-91.7	4.2
2025-01-14 15:58:23.389659	24.4	38.6	-91.6	8.4
2025-01-14 15:58:24.548049	23.9	38.5	-91.6	12.0
2025-01-14 15:58:25.696654	23.4	38.4	-91.8	8.9
2025-01-14 15:58:26.853954	22.9	38.4	-91.9	7.7
2025-01-14 15:58:27.997364	22.4	38.3	-91.9	9.0
2025-01-14 15:58:29.156852	22.0	38.2	-91.7	9.3
2025-01-14 15:58:30.306003	21.5	38.1	-92.1	8.1
2025-01-14 15:58:31.461689	21.0	38.1	-91.7	9.0
2025-01-14 15:58:32.610027	20.5	38.0	-91.7	11.9
2025-01-14 15:58:33.762165	20.0	37.9	-91.6	8.8
2025-01-14 15:58:34.920232	19.6	37.8	-91.7	9.4
2025-01-14 15:58:36.072261	19.1	37.7	-91.6	13.6
2025-01-14 15:58:37.230895	18.6	37.6	-91.5	7.1
2025-01-14 15:58:38.380028	18.2	37.5	-92.2	9.7
2025-01-14 15:58:39.536147	17.7	37.4	-92.0	9.8
2025-01-14 15:58:40.687876	17.3	37.4	-92.3	8.0
2025-01-14 15:58:41.842379	16.8	37.3	-91.9	4.6
2025-01-14 15:58:43.007710	16.3	37.2	-92.3	11.0
2025-01-14 15:58:44.157545	15.9	37.1	-92.3	5.8
2025-01-14 15:58:45.317459	15.5	37.0	-92.2	4.1
2025-01-14 15:58:46.469436	15.0	36.8	-91.9	6.2
2025-01-14 15:58:47.620380	14.6	36.7	-92.1	9.7
2025-01-14 15:58:48.775950	14.1	36.6	-92.1	5.3
2025-01-14 15:58:49.940969	13.7	36.5	-91.9	6.6
2025-01-14 15:58:51.093920	13.3	36.4	-92.0	4.6
2025-01-14 15:58:52.239059	12.8	36.3	-91.9	5.4
2025-01-14 15:58:53.399815	12.4	36.2	-92.2	5.8
2025-01-14 15:58:54.552366	12.0	36.1	-91.6	5.9
2025-01-14 15:58:55.697372	11.6	36.0	-91.6	4.4
2025-01-14 15:58:56.850247	11.1	35.8	-91.9	4.5
2025-01-14 15:58:57.994812	10.7	35.7	-91.6	7.6
2025-01-14 15:58:59.150956	10.3	35.6	-92.3	8.1
2025-01-14 15:59:00.303827	9.9	35.5	-91.9	4.6
2025-01-14 15:59:01.462977	9.5	35.4	-92.0	6.9
2025-01-14 15:59:02.619104	9.1	35.2	-92.3	6.2
2025-01-14 15:59:03.773768	8.7	35.1	-92.3	1.3
2025-01-14 15:59:04.933312	8.3	35.0	-92.3	7.2
2025-01-14 15:59:06.094696	7.9	34.9	-91.9	7.8
2025-01-14 15:59:07.255446	7.5	34.7	-92.1	5.0
2025-01-14 15:59:08.406125	7.1	34.6	-92.2	6.1
2025-01-14 15:59:09.563813	6.7	34.5	-92.4	8.1
2025-01-14 15:59:10.726500	6.4	34.3	-92.4	5.0
2025-01-14 15:59:11.885405	6.0	34.2	-92.3	5.0
2025-01-14 15:59:13.044018	5.6	34.1	-92.2	5.9
2025-01-14 15:59:14.204367	5.2	33.9	-92.0	8.0
2025-01-14 15:59:15.358062	4.9	33.8	-92.1	10.7
2025-01-14 15:59:16.513507	4.5	33.7	-92.5	11.1
2025-01-14 15:59:17.671952	4.1	33.5	-92.5	11.5
2025-01-14 15:59:18.824528	3.8	33.4	-92.5	9.5
2025-01-14 15:59:19.970980	3.4	33.3	-92.2	13.5
2025-01-14 15:59:21.128164	3.1	33.1	-92.0	9.5
2025-01-14 15:59:22.282512	2.7	33.0	-92.2	9.3
2025-01-14 15:59:23.440695	2.4	32.9	-92.2	7.8
2025-01-14 15:59:24.601819	2.0	32.7	-92.3	5.2
2025-01-14 15:59:25.759317	1.7	32.6	-92.3	7.6
2025-01-14 15:59:26.924722	1.3	32.4	-92.3	7.5
2025-01-14 15:59:28.078214	1.0	32.3	-92.3	7.7
2025-01-14 15:59:29.243653	0.7	32.2	-92.0	2.3
2025-01-14 15:59:30.391272	0.3	32.0	-92.3	10.8
2025-01-14 15:59:31.544559	0.0	31.9	-92.3	8.9
2025-01-14 15:59:32.702687	359.7	31.7	-92.3	6.4
2025-01-14 15:59:33.858997	359.4	31.6	-92.2	6.5
2025-01-14 15:59:35.013874	359.1	31.4	-92.5	8.2
2025-01-14 15:59:36.166961	358.7	31.3	-92.1	6.9
2025-01-14 15:59:37.319995	358.4	31.2	-92.4	3.0
2025-01-14 15:59:38.468828	358.1	31.0	-92.2	7.0
2025-01-14 15:59:39.621182	357.8	30.9	-92.2	6.0
2025-01-14 15:59:40.783628	357.5	30.7	-92.3	2.9
2025-01-14 15:59:41.942245	357.2	30.6	-92.2	5.1
2025-01-14 15:59:43.096408	356.9	30.4	-92.3	5.6
2025-01-14 15:59:44.248243	356.6	30.3	-92.0	1.9
2025-01-14 15:59:45.400519	356.3	30.1	-92.2	5.4
2025-01-14 15:59:46.555806	356.0	30.0	-92.1	4.4
2025-01-14 15:59:47.702994	355.7	29.9	-92.4	4.9
2025-01-14 15:59:48.865391	355.5	29.7	-92.1	4.7
2025-01-14 15:59:50.018572	355.2	29.6	-92.3	8.1
2025-01-14 15:59:51.177385	354.9	29.4	-92.1	5.0
2025-01-14 15:59:52.334802	354.6	29.3	-92.1	4.0
2025-01-14 15:59:53.489310	354.3	29.1	-91.9	8.0
2025-01-14 15:59:54.642096	354.1	29.0	-91.9	7.0
2025-01-14 15:59:55.797539	353.8	28.8	-91.8	8.0
2025-01-14 15:59:56.943165	353.5	28.7	-92.0	6.6
2025-01-14 15:59:58.096819	353.3	28.5	-91.7	6.3
2025-01-14 15:59:59.241014	353.0	28.4	-91.7	6.7
2025-01-14 16:00:00.401329	352.7	28.3	-91.8	5.6
2025-01-14 16:00:01.559190	352.5	28.1	-92.0	6.2
2025-01-14 16:00:02.715862	352.2	28.0	-91.7	4.2
2025-01-14 16:00:03.866912	352.0	27.8	-91.5	2.3
2025-01-14 16:00:05.020640	351.7	27.7	-92.1	2.3
2025-01-14 16:00:06.178029	351.5	27.5	-92.3	2.9
2025-01-14 16:00:07.336687	351.2	27.4	-92.3	1.3
2025-01-14 16:00:08.487412	351.0	27.2	-91.8	1.2
2025-01-14 16:00:09.635970	350.7	27.1	-92.4	3.1
2025-01-14 16:00:10.790260	350.5	27.0	-92.1	4.3
2025-01-14 16:00:11.937168	350.3	26.8	-92.1	3.8
2025-01-14 16:00:13.098907	350.0	26.7	-92.3	5.2
2025-01-14 16:00:14.257663	349.8	26.5	-92.2	4.9
2025-01-14 16:00:15.417467	349.6	26.4	-92.1	9.2
2025-01-14 16:00:16.568541	349.3	26.2	-92.3	9.4
2025-01-14 16:00:17.737773	349.1	26.1	-92.1	8.1
2025-01-14 16:00:18.895956	348.9	26.0	-91.8	11.5
2025-01-14 16:00:20.061195	348.6	25.8	-92.0	11.5
2025-01-14 16:00:21.219482	348.4	25.7	-91.6	7.1
2025-01-14 16:00:22.371584	348.2	25.5	-92.1	8.0
2025-01-14 16:00:23.524409	348.0	25.4	-92.4	6.1
2025-01-14 16:00:24.672404	347.8	25.3	-92.3	5.7
2025-01-14 16:00:25.825376	347.6	25.1	-92.3	4.1
2025-01-14 16:00:26.978919	347.4	25.0	-92.3	3.7
2025-01-14 16:00:28.123038	347.1	24.8	-92.3	8.4
2025-01-14 16:00:29.273634	346.9	24.7	-92.4	2.6
2025-01-14 16:00:30.440425	346.7	24.6	-92.4	4.9
2025-01-14 16:00:31.594744	346.5	24.4	-92.4	8.1
2025-01-14 16:00:32.750044	346.3	24.3	-92.2	4.8
2025-01-14 16:00:33.912407	346.1	24.1	-92.4	6.7
2025-01-14 16:00:35.060339	345.9	24.0	-91.8	7.5
2025-01-14 16:00:36.218809	345.7	23.9	-91.7	4.9
2025-01-14 16:00:37.366346	345.5	23.7	-91.7	8.2
2025-01-14 16:00:38.519535	345.3	23.6	-91.6	6.8
2025-01-14 16:00:39.678487	345.1	23.4	-91.9	6.1
2025-01-14 16:00:40.827420	345.0	23.3	-91.8	4.4
2025-01-14 16:00:41.993480	344.8	23.2	-91.9	7.1
2025-01-14 16:00:43.139677	344.6	23.0	-92.1	7.4
2025-01-14 16:00:44.293554	344.4	22.9	-91.6	5.4
2025-01-14 16:00:45.444370	344.2	22.8	-92.0	4.6
2025-01-14 16:00:46.611181	344.0	22.6	-92.4	5.1
2025-01-14 16:00:47.764159	343.9	22.5	-92.3	1.7
2025-01-14 16:00:48.913406	343.7	22.4	-92.3	3.3
2025-01-14 16:00:50.064474	343.5	22.2	-92.1	2.6
2025-01-14 16:00:51.223755	343.3	22.1	-92.1	2.0
2025-01-14 16:00:52.378951	343.2	22.0	-92.0	1.5
2025-01-14 16:00:53.531675	343.0	21.8	-92.1	5.9
2025-01-14 16:00:54.684555	342.8	21.7	-91.5	6.7
2025-01-14 16:00:55.839100	342.6	21.6	-91.5	5.1
2025-01-14 16:00:56.994922	342.5	21.4	-91.8	7.0
2025-01-14 16:00:58.152043	342.3	21.3	-91.7	8.1
2025-01-14 16:00:59.298513	342.1	21.2	-92.1	6.8
2025-01-14 16:01:00.448880	342.0	21.1	-91.4	3.6
2025-01-14 16:01:01.602980	341.8	20.9	-91.9	8.1
2025-01-14 16:01:02.760568	341.7	20.8	-91.7	3.2
2025-01-14 16:01:03.909661	341.5	20.7	-91.9	4.9
2025-01-14 16:01:05.059765	341.3	20.5	-92.1	5.5
2025-01-14 16:01:06.216923	341.2	20.4	-92.3	1.9
2025-01-14 16:01:07.363425	341.0	20.3	-92.3	3.8
2025-01-14 16:01:08.522557	340.9	20.2	-92.0	2.9
2025-01-14 16:01:09.672839	340.7	20.0	-92.2	3.2
2025-01-14 16:01:10.835002	340.6	19.9	-92.0	2.6
2025-01-14 16:01:11.992082	340.4	19.8	-92.2	4.4
2025-01-14 16:01:13.148052	340.3	19.7	-92.1	4.5
2025-01-14 16:01:14.299011	340.1	19.5	-92.2	3.2
2025-01-14 16:01:15.451300	340.0	19.4	-92.4	3.2
2025-01-14 16:01:16.612149	339.8	19.3	-92.4	5.0
2025-01-14 16:01:17.776178	339.7	19.2	-92.6	3.1
2025-01-14 16:01:18.933352	339.5	19.0	-92.5	2.0
2025-01-14 16:01:20.089739	339.4	18.9	-92.4	1.8
2025-01-14 16:01:21.243463	339.3	18.8	-92.3	2.5
2025-01-14 16:01:22.393087	339.1	18.7	-92.7	2.9
2025-01-14 16:01:23.551519	339.0	18.6	-92.4	0.6
2025-01-14 16:01:24.701902	338.8	18.4	-92.6	0.1
2025-01-14 16:01:25.867463	338.7	18.3	-92.4	3.3
2025-01-14 16:01:27.019228	338.6	18.2	-92.3	0.9
2025-01-14 16:01:28.169942	338.4	18.1	-92.6	3.9
2025-01-14 16:01:29.329538	338.3	18.0	-92.7	5.3
2025-01-14 16:01:30.487211	338.2	17.8	-92.5	2.3
2025-01-14 16:01:31.647232	338.0	17.7	-92.5	4.0
2025-01-14 16:01:32.815024	337.9	17.6	-92.1	3.7
2025-01-14 16:01:33.967202	337.8	17.5	-92.5	2.0
2025-01-14 16:01:35.117017	337.6	17.4	-92.5	2.8
2025-01-14 16:01:36.267223	337.5	17.2	-92.2	3.5
2025-01-14 16:01:37.427954	337.4	17.1	-92.0	1.8
2025-01-14 16:01:38.584765	337.3	17.0	-92.1	1.9
2025-01-14 16:01:39.733814	337.1	16.9	-92.1	1.4
2025-01-14 16:01:40.886166	337.0	16.8	-92.3	3.1
2025-01-14 16:01:42.044757	336.9	16.7	-92.5	2.1
2025-01-14 16:01:43.197975	336.8	16.6	-92.3	3.8
2025-01-14 16:01:44.361126	336.7	16.4	-92.4	2.3
2025-01-14 16:01:45.509845	336.5	16.3	-92.1	3.2
2025-01-14 16:01:46.665316	336.4	16.2	-92.4	3.5
2025-01-14 16:01:47.820786	336.3	16.1	-92.3	1.7
2025-01-14 16:01:48.965637	336.2	16.0	-92.3	2.7
2025-01-14 16:01:50.115002	336.1	15.9	-92.0	3.2
2025-01-14 16:01:51.269779	336.0	15.8	-92.6	2.3
2025-01-14 16:01:52.417945	335.9	15.7	-92.1	2.0
2025-01-14 16:01:53.578780	335.7	15.5	-92.5	1.6
2025-01-14 16:01:54.733702	335.6	15.4	-92.1	1.3
2025-01-14 16:01:55.891860	335.5	15.3	-92.0	3.8
2025-01-14 16:01:57.040371	335.4	15.2	-92.4	1.5
2025-01-14 16:01:58.191184	335.3	15.1	-92.6	2.2
2025-01-14 16:01:59.350620	335.2	15.0	-92.4	2.4
2025-01-14 16:02:00.501982	335.1	14.9	-92.1	1.6
2025-01-14 16:02:01.653313	335.0	14.8	-92.1	3.3
2025-01-14 16:02:02.807346	334.9	14.7	-92.2	2.7
2025-01-14 16:02:03.980557	334.8	14.6	-92.3	3.9
#Closed at: 2025-01-14 15:53:54.324670