passes_logs/2026/01/03/R2.0S_Moscow/R2.0S_Moscow__20260103_092023_NOAA_21_JPSS-2_rec.log

#Pass ID: 20260103_092023_NOAA 21 (JPSS-2)
#Satellite: NOAA 21 (JPSS-2)
#Configuration: NOAA-21
#almurnet v.1.7.20251203
#Start time: 2026-01-03 09:20:25

#Version: 2.2.20231116
#Station: R2.0S_Moscow
#Location: 37.707566 lon 55.798166 lat
#TLE: 1 54234U 22150A   26002.25486487  .00000200  00000+0  11573-3 0  9993
#TLE: 2 54234  98.7485 303.3096 0001220 350.9074   9.2080 14.19531212163006

#Time	Az	El	Level	Level2	SNR	BER	BlckErr	Temp	State	Recorded	gain1	gain2
2026-01-03 09:20:25.90	143.75	2.14	-44.0	-56.3	3.8	1.49e+00	0	47	0	0	59	14990
2026-01-03 09:20:29.93	143.65	2.40	-44.1	-56.3	3.8	1.49e+00	0	47	104	0	59	15009
2026-01-03 09:20:33.97	143.56	2.66	-44.1	-56.3	3.8	1.49e+00	0	48	104	0	59	15014
2026-01-03 09:20:38.01	143.46	2.92	-44.1	-56.3	3.8	1.49e+00	0	48	104	0	59	15034
2026-01-03 09:20:42.06	143.36	3.19	-44.1	-56.3	3.8	1.49e+00	0	48	104	0	59	14997
2026-01-03 09:20:46.10	143.25	3.46	-44.1	-56.3	3.8	1.49e+00	0	49	104	0	59	15004
2026-01-03 09:20:50.15	143.15	3.73	-44.1	-56.3	3.8	1.49e+00	0	49	104	0	59	14953
2026-01-03 09:20:54.19	143.04	4.00	-44.1	-56.3	3.8	1.49e+00	0	49	104	0	59	15024
2026-01-03 09:20:58.24	142.93	4.28	-44.1	-56.3	3.8	1.49e+00	0	50	104	0	59	15010
2026-01-03 09:21:02.28	142.82	4.56	-44.1	-56.3	3.8	1.49e+00	0	50	104	0	59	15030
2026-01-03 09:21:06.32	142.71	4.84	-44.1	-56.3	3.8	1.49e+00	0	50	104	0	59	14998
2026-01-03 09:21:10.37	142.59	5.13	-44.0	-56.3	3.8	1.49e+00	0	50	104	0	59	14987
2026-01-03 09:21:14.41	142.47	5.42	-44.0	-56.3	3.8	1.49e+00	0	51	104	0	59	14958
2026-01-03 09:21:18.45	142.35	5.71	-44.0	-56.1	3.8	1.49e+00	0	51	104	0	59	14685
2026-01-03 09:21:22.50	142.23	6.00	-44.0	-55.9	3.8	1.49e+00	0	51	104	0	59	14281
2026-01-03 09:21:26.55	142.10	6.30	-44.0	-55.9	3.8	1.49e+00	0	51	104	0	59	14223
2026-01-03 09:21:30.59	141.97	6.60	-44.0	-56.0	3.8	1.49e+00	0	51	104	0	59	14392
2026-01-03 09:21:34.63	141.84	6.90	-43.6	-52.3	4.3	1.46e+00	0	51	104	0	59	9454
2026-01-03 09:21:38.68	141.71	7.21	-42.2	-47.0	8.0	7.76e-02	0	52	0	9437184	56	6076
2026-01-03 09:21:42.72	141.57	7.52	-40.0	-42.8	12.2	3.85e-04	0	52	0	22020096	51	5001
2026-01-03 09:21:46.76	141.43	7.84	-38.6	-40.7	14.4	1.50e-06	0	52	0	34603008	49	4395
2026-01-03 09:21:50.81	141.28	8.16	-41.7	-45.7	9.3	1.85e-02	0	52	0	44040192	54	5923
2026-01-03 09:21:54.84	141.13	8.48	-38.2	-40.2	14.9	1.45e-03	0	52	0	56623104	48	4418
2026-01-03 09:21:58.89	140.98	8.80	-37.6	-39.4	15.6	0.00e+00	0	52	0	69206016	47	4270
2026-01-03 09:22:02.93	140.83	9.13	-37.6	-39.4	15.7	0.00e+00	0	52	0	81788928	47	4260
2026-01-03 09:22:06.97	140.67	9.47	-37.4	-39.2	15.9	0.00e+00	0	53	0	94371840	46	4406
2026-01-03 09:22:11.01	140.50	9.81	-37.4	-39.1	16.0	0.00e+00	0	53	0	108003328	46	4383
2026-01-03 09:22:15.05	140.34	10.15	-37.3	-39.0	16.1	0.00e+00	0	53	0	120586240	46	4325
2026-01-03 09:22:19.09	140.16	10.50	-37.1	-38.8	16.3	0.00e+00	0	53	0	133169152	46	4196
2026-01-03 09:22:23.12	139.99	10.85	-37.0	-38.6	16.4	0.00e+00	0	53	0	145752064	45	4380
2026-01-03 09:22:27.16	139.81	11.21	-36.8	-38.4	16.7	0.00e+00	0	53	0	158334976	45	4276
2026-01-03 09:22:31.20	139.62	11.57	-36.7	-38.3	16.9	0.00e+00	0	53	0	170917888	44	4453
2026-01-03 09:22:35.24	139.43	11.94	-36.4	-37.9	16.9	1.66e-04	0	54	0	183500800	43	4526
2026-01-03 09:22:39.28	139.24	12.31	-36.3	-37.8	17.2	1.75e-05	0	53	0	196083712	43	4483
2026-01-03 09:22:43.32	139.04	12.69	-36.3	-37.8	17.3	1.06e-05	0	54	0	208666624	43	4484
2026-01-03 09:22:47.36	138.83	13.07	-36.3	-37.7	17.4	1.14e-05	0	54	0	221249536	43	4429
2026-01-03 09:22:51.39	138.62	13.46	-36.2	-37.7	17.4	2.68e-03	0	54	0	233832448	43	4431
2026-01-03 09:22:55.44	138.40	13.86	-35.9	-37.6	17.4	2.78e-03	0	54	0	246415360	42	4613
2026-01-03 09:22:59.47	138.18	14.26	-34.7	-37.5	17.4	5.33e-03	0	54	0	258998272	42	4559
2026-01-03 09:23:03.52	137.95	14.67	-36.3	-37.8	17.5	8.76e-04	0	54	0	271581184	43	4448
2026-01-03 09:23:07.55	137.71	15.08	-36.3	-37.8	17.5	3.88e-03	0	54	0	284164096	43	4473
2026-01-03 09:23:11.60	137.47	15.50	-36.3	-37.7	17.5	3.35e-05	0	54	0	296747008	43	4422
2026-01-03 09:23:15.64	137.22	15.93	-36.3	-37.8	17.5	1.05e-03	0	54	0	309329920	43	4459
2026-01-03 09:23:19.68	136.96	16.37	-36.3	-37.8	17.1	2.44e-04	0	54	0	321912832	43	4456
2026-01-03 09:23:23.72	136.69	16.81	-36.4	-37.8	17.6	3.23e-04	0	54	0	334495744	43	4479
2026-01-03 09:23:27.76	136.41	17.26	-36.4	-37.9	15.9	1.60e-03	0	55	0	347078656	43	4528
2026-01-03 09:23:31.79	136.13	17.72	-36.9	-38.4	17.3	2.51e-04	0	54	0	359661568	44	4499
2026-01-03 09:23:35.83	135.84	18.18	-36.9	-38.4	17.3	1.20e-04	0	55	0	372244480	44	4526
2026-01-03 09:23:39.87	135.54	18.65	-36.9	-38.5	17.3	3.00e-06	0	54	0	384827392	44	4546
2026-01-03 09:23:43.91	135.22	19.14	-36.9	-38.4	17.1	0.00e+00	0	55	0	397410304	44	4531
2026-01-03 09:23:47.95	134.90	19.63	-36.7	-38.2	17.6	2.13e-05	0	55	0	411041792	44	4404
2026-01-03 09:23:51.99	134.57	20.13	-36.4	-37.9	17.9	7.00e-07	0	55	0	422576128	44	4246
2026-01-03 09:23:56.02	134.22	20.63	-36.2	-37.6	18.2	0.00e+00	0	55	0	435159040	44	4113
2026-01-03 09:24:00.06	133.86	21.15	-36.1	-37.4	18.3	0.00e+00	0	55	0	448790528	44	4040
2026-01-03 09:24:04.10	133.50	21.68	-35.5	-36.8	18.8	0.00e+00	0	55	0	461373440	43	3997
2026-01-03 09:24:08.14	133.11	22.21	-35.4	-36.6	19.0	0.00e+00	0	55	0	473956352	42	4143
2026-01-03 09:24:12.18	132.72	22.76	-35.2	-36.4	19.2	0.00e+00	0	55	0	486539264	42	4033
2026-01-03 09:24:16.22	132.30	23.32	-35.3	-36.5	19.0	0.00e+00	0	55	0	499122176	42	4093
2026-01-03 09:24:20.27	131.88	23.89	-35.6	-36.9	18.8	0.00e+00	0	55	0	511705088	42	4247
2026-01-03 09:24:24.30	131.43	24.46	-35.7	-37.0	18.7	0.00e+00	0	55	0	524288000	42	4318
2026-01-03 09:24:28.34	130.97	25.05	-35.6	-36.9	18.8	0.00e+00	0	55	0	536870912	42	4279
2026-01-03 09:24:32.39	130.49	25.66	-35.7	-37.0	18.7	0.00e+00	0	55	0	549453824	42	4325
2026-01-03 09:24:36.42	130.00	26.27	-36.0	-37.4	18.3	0.00e+00	0	55	0	562036736	42	4502
2026-01-03 09:24:40.46	129.48	26.89	-36.3	-37.7	18.0	0.00e+00	0	55	0	574619648	43	4423
2026-01-03 09:24:44.50	128.94	27.53	-36.5	-38.0	17.8	0.00e+00	0	55	0	587202560	43	4549
2026-01-03 09:24:48.54	128.38	28.17	-36.4	-37.8	17.9	0.00e+00	0	55	0	599785472	43	4481
2026-01-03 09:24:52.58	127.80	28.83	-36.4	-37.8	17.9	0.00e+00	0	55	0	612368384	43	4467
2026-01-03 09:24:56.62	127.19	29.51	-36.5	-37.9	17.8	0.00e+00	0	55	0	624951296	43	4538
2026-01-03 09:25:00.66	126.55	30.19	-36.2	-37.6	18.2	0.00e+00	0	55	0	637534208	43	4366
2026-01-03 09:25:04.70	125.88	30.89	-35.8	-37.1	18.6	0.00e+00	0	56	0	650117120	43	4123
2026-01-03 09:25:08.74	125.19	31.60	-36.1	-37.5	18.1	0.00e+00	0	56	0	662700032	43	4312
2026-01-03 09:25:12.79	124.46	32.32	-36.4	-37.8	18.0	0.00e+00	0	55	0	675282944	43	4467
2026-01-03 09:25:16.82	123.70	33.05	-36.4	-37.7	18.1	0.00e+00	0	56	0	687865856	43	4434
2026-01-03 09:25:20.86	122.91	33.80	-36.6	-38.0	17.8	0.00e+00	0	56	0	700448768	43	4584
2026-01-03 09:25:24.90	122.07	34.56	-37.5	-39.1	17.0	0.00e+00	0	56	0	713031680	45	4611
2026-01-03 09:25:28.94	121.20	35.32	-37.5	-39.0	17.0	0.00e+00	0	56	0	725614592	45	4573
2026-01-03 09:25:32.98	120.28	36.10	-37.6	-39.2	16.9	0.00e+00	0	56	0	738197504	45	4664
2026-01-03 09:25:37.02	119.32	36.89	-38.2	-39.9	16.2	0.00e+00	0	56	0	751828992	47	4536
2026-01-03 09:25:41.06	118.31	37.69	-38.3	-40.0	16.1	0.00e+00	0	56	0	764411904	47	4592
2026-01-03 09:25:45.10	117.25	38.50	-38.5	-40.2	15.9	0.00e+00	0	56	0	776994816	47	4698
2026-01-03 09:25:49.14	116.13	39.32	-38.2	-39.9	16.3	0.00e+00	0	56	0	789577728	47	4496
2026-01-03 09:25:53.18	114.95	40.14	-38.4	-40.1	16.0	0.00e+00	0	56	0	802160640	47	4615
2026-01-03 09:25:57.23	113.71	40.97	-38.3	-40.0	16.1	0.00e+00	0	56	0	814743552	47	4577
2026-01-03 09:26:01.27	112.41	41.80	-38.3	-40.0	16.1	0.00e+00	0	56	0	827326464	47	4585
2026-01-03 09:26:05.30	111.04	42.62	-38.6	-40.4	15.5	0.00e+00	0	56	0	839909376	47	4786
2026-01-03 09:26:09.35	109.60	43.45	-39.4	-41.4	14.9	0.00e+00	0	56	0	852492288	49	4763
2026-01-03 09:26:13.39	108.08	44.28	-38.7	-40.4	15.7	0.00e+00	0	56	0	865075200	49	4264
2026-01-03 09:26:17.42	106.48	45.10	-38.6	-40.4	15.8	0.00e+00	0	56	0	877658112	49	4251
2026-01-03 09:26:21.46	104.79	45.90	-38.4	-40.1	16.2	0.00e+00	0	56	0	890241024	48	4362
2026-01-03 09:26:25.50	103.02	46.70	-38.2	-39.9	16.3	0.00e+00	0	56	0	902823936	48	4244
2026-01-03 09:26:29.55	101.15	47.48	-38.2	-39.9	16.4	0.00e+00	0	56	0	915406848	48	4260
2026-01-03 09:26:33.58	99.19	48.24	-38.4	-40.1	16.2	0.00e+00	0	56	0	927989760	48	4366
2026-01-03 09:26:37.62	97.13	48.97	-38.8	-40.5	15.7	0.00e+00	0	56	0	940572672	48	4595
2026-01-03 09:26:41.66	94.98	49.67	-38.0	-39.6	16.6	0.00e+00	0	56	0	953155584	48	4113
2026-01-03 09:26:45.70	92.72	50.33	-38.3	-40.0	16.2	0.00e+00	0	56	0	965738496	47	4566
2026-01-03 09:26:49.74	90.37	50.96	-37.7	-39.3	16.9	0.00e+00	0	56	0	978321408	47	4212
2026-01-03 09:26:53.78	87.91	51.54	-37.4	-38.8	17.4	0.00e+00	0	56	0	990904320	46	4227
2026-01-03 09:26:57.81	85.38	52.07	-37.4	-38.8	17.3	0.00e+00	0	56	0	1003487232	46	4234
2026-01-03 09:27:01.86	82.74	52.55	-37.7	-39.3	16.9	0.00e+00	0	56	0	1016070144	46	4445
2026-01-03 09:27:05.90	80.03	52.96	-37.2	-38.6	17.4	0.00e+00	0	56	0	1028653056	46	4123
2026-01-03 09:27:09.94	77.24	53.31	-37.6	-39.1	17.0	0.00e+00	0	56	0	1041235968	46	4384
2026-01-03 09:27:13.97	74.41	53.59	-36.5	-37.8	18.3	0.00e+00	0	56	0	1053818880	44	4229
2026-01-03 09:27:18.01	71.51	53.80	-36.8	-38.1	17.8	0.00e+00	0	56	0	1067450368	44	4371
2026-01-03 09:27:22.05	68.59	53.93	-37.4	-38.9	17.2	0.00e+00	0	56	0	1080033280	45	4494
2026-01-03 09:27:26.09	65.64	53.99	-37.4	-38.9	17.2	0.00e+00	0	56	0	1092616192	46	4262
2026-01-03 09:27:30.13	62.69	53.98	-37.8	-39.4	16.8	0.00e+00	0	56	0	1105199104	46	4523
2026-01-03 09:27:34.18	59.74	53.88	-37.5	-39.0	17.2	0.00e+00	0	57	0	1117782016	46	4311
2026-01-03 09:27:38.21	56.84	53.71	-37.3	-38.8	17.3	0.00e+00	0	56	0	1130364928	46	4225
2026-01-03 09:27:42.25	53.97	53.47	-37.4	-38.9	17.0	0.00e+00	0	56	0	1142947840	45	4532
2026-01-03 09:27:46.29	51.15	53.15	-37.5	-39.0	17.0	0.00e+00	0	56	0	1155530752	45	4576
2026-01-03 09:27:50.33	48.41	52.77	-36.9	-38.3	17.7	0.00e+00	0	56	0	1168113664	45	4211
2026-01-03 09:27:54.37	45.74	52.33	-37.3	-38.7	17.3	0.00e+00	0	56	0	1180696576	45	4434
2026-01-03 09:27:58.41	43.15	51.83	-36.4	-37.7	18.3	0.00e+00	0	56	0	1193279488	44	4181
2026-01-03 09:28:02.44	40.66	51.28	-37.5	-39.0	16.8	0.00e+00	0	56	0	1205862400	45	4553
2026-01-03 09:28:06.48	38.26	50.68	-37.4	-38.9	17.1	0.00e+00	0	56	0	1218445312	45	4513
2026-01-03 09:28:10.52	35.95	50.03	-37.5	-39.1	16.9	0.00e+00	0	57	0	1231028224	47	4109
2026-01-03 09:28:14.56	33.75	49.35	-38.9	-40.7	15.5	0.00e+00	0	57	0	1243611136	48	4666
2026-01-03 09:28:18.60	31.65	48.64	-38.3	-40.0	16.0	0.00e+00	0	56	0	1256194048	47	4578
2026-01-03 09:28:22.63	29.64	47.90	-39.2	-41.1	14.9	0.00e+00	0	56	0	1268776960	50	4378
2026-01-03 09:28:26.68	27.73	47.13	-37.5	-39.0	17.0	0.00e+00	0	57	0	1281359872	46	4336
2026-01-03 09:28:30.72	25.91	46.35	-39.5	-41.5	14.5	7.00e-07	0	56	0	1293942784	49	4852
2026-01-03 09:28:34.76	24.18	45.55	-38.4	-40.0	16.2	0.00e+00	0	57	0	1306525696	48	4315
2026-01-03 09:28:38.80	22.54	44.74	-40.2	-42.5	13.6	6.80e-06	0	57	0	1319108608	51	4867
2026-01-03 09:28:42.85	20.98	43.92	-38.9	-40.7	15.4	7.00e-07	0	57	0	1331691520	49	4436
2026-01-03 09:28:46.89	19.50	43.10	-39.9	-42.1	14.1	2.20e-06	0	57	0	1344274432	50	4903
2026-01-03 09:28:50.93	18.09	42.27	-37.0	-38.4	17.4	0.00e+00	0	57	0	1356857344	46	4032
2026-01-03 09:28:54.97	16.76	41.44	-38.4	-40.2	15.8	0.00e+00	0	57	0	1369440256	47	4676
2026-01-03 09:28:59.01	15.49	40.62	-39.5	-41.6	14.6	0.00e+00	0	57	0	1383071744	50	4633
2026-01-03 09:29:03.05	14.29	39.80	-37.5	-39.1	16.9	0.00e+00	0	56	0	1394606080	47	4102
2026-01-03 09:29:07.09	13.15	38.99	-38.5	-40.2	15.6	0.00e+00	0	57	0	1408237568	47	4703
2026-01-03 09:29:11.13	12.06	38.18	-38.0	-39.7	16.2	0.00e+00	0	57	0	1420820480	47	4409
2026-01-03 09:29:15.17	11.02	37.38	-37.8	-39.4	16.5	0.00e+00	0	57	0	1433403392	47	4279
2026-01-03 09:29:19.21	10.04	36.59	-38.4	-40.1	15.8	0.00e+00	0	57	0	1445986304	47	4645
2026-01-03 09:29:23.25	9.10	35.80	-36.9	-38.3	17.5	0.00e+00	0	57	0	1458569216	45	4197
2026-01-03 09:29:27.29	8.21	35.03	-37.6	-39.1	16.7	0.00e+00	0	57	0	1471152128	45	4646
2026-01-03 09:29:31.33	7.36	34.27	-37.9	-39.6	16.4	0.00e+00	0	57	0	1483735040	47	4372
2026-01-03 09:29:35.37	6.55	33.52	-37.4	-39.0	17.0	0.00e+00	0	57	0	1496317952	46	4305
2026-01-03 09:29:39.42	5.77	32.79	-37.4	-39.0	17.0	0.00e+00	0	57	0	1508900864	46	4294
2026-01-03 09:29:43.46	5.03	32.06	-36.8	-38.3	17.6	0.00e+00	0	57	0	1521483776	45	4195
2026-01-03 09:29:47.50	4.32	31.35	-36.4	-37.8	18.0	0.00e+00	0	57	0	1534066688	44	4202
2026-01-03 09:29:51.54	3.64	30.65	-35.4	-36.6	18.9	0.00e+00	0	57	0	1546649600	42	4135
2026-01-03 09:29:55.59	2.99	29.96	-36.3	-37.7	17.9	0.00e+00	0	57	0	1559232512	43	4408
2026-01-03 09:29:59.63	2.37	29.28	-37.0	-38.5	17.3	0.00e+00	0	57	0	1571815424	44	4567
2026-01-03 09:30:03.67	1.78	28.62	-36.7	-38.1	17.6	0.00e+00	0	57	0	1584398336	44	4382
2026-01-03 09:30:07.71	1.21	27.97	-35.8	-37.1	18.4	0.00e+00	0	57	0	1596981248	43	4122
2026-01-03 09:30:11.75	0.66	27.33	-35.4	-36.6	18.9	0.00e+00	0	57	0	1609564160	42	4140
2026-01-03 09:30:15.79	0.13	26.70	-35.4	-36.6	18.9	0.00e+00	0	57	0	1622147072	42	4137
2026-01-03 09:30:19.83	359.63	26.09	-35.5	-36.8	18.7	0.00e+00	0	57	0	1634729984	42	4230
2026-01-03 09:30:23.87	359.14	25.48	-35.8	-37.1	18.5	0.00e+00	0	56	0	1647312896	42	4351
2026-01-03 09:30:27.92	358.68	24.89	-36.0	-37.4	18.1	0.00e+00	0	57	0	1659895808	42	4510
2026-01-03 09:30:31.96	358.23	24.31	-36.1	-37.5	17.9	0.00e+00	0	56	0	1673527296	42	4598
2026-01-03 09:30:36.00	357.79	23.74	-35.9	-37.3	18.1	0.00e+00	0	57	0	1686110208	42	4450
2026-01-03 09:30:40.03	357.38	23.18	-35.7	-37.1	18.3	0.00e+00	0	57	0	1698693120	42	4344
2026-01-03 09:30:44.07	356.98	22.63	-35.7	-37.1	18.3	0.00e+00	0	56	0	1711276032	42	4343
2026-01-03 09:30:48.11	356.59	22.09	-35.9	-37.3	18.1	0.00e+00	0	57	0	1723858944	42	4454
2026-01-03 09:30:52.15	356.22	21.56	-36.1	-37.5	17.8	0.00e+00	0	57	0	1736441856	42	4574
2026-01-03 09:30:56.19	355.86	21.04	-35.9	-37.3	17.6	0.00e+00	0	57	0	1749024768	42	4486
2026-01-03 09:31:00.23	355.51	20.53	-37.8	-40.2	13.6	4.50e-06	0	57	0	1761607680	46	4946
2026-01-03 09:31:04.28	355.17	20.02	-39.8	-45.2	7.0	1.02e-01	0	57	0	1774190592	50	7031
2026-01-03 09:31:08.31	354.84	19.53	-40.5	-50.5	4.0	1.48e+00	0	57	104	1780482048	51	12144
2026-01-03 09:31:12.35	354.53	19.05	-40.8	-51.1	3.9	1.49e+00	0	57	104	1780482048	52	12309
2026-01-03 09:31:16.39	354.23	18.57	-40.6	-52.4	3.8	1.49e+00	0	57	104	1780482048	53	13543
2026-01-03 09:31:20.43	353.93	18.10	-40.2	-52.7	3.8	1.49e+00	0	57	104	1780482048	52	14875
2026-01-03 09:31:24.46	353.65	17.64	-40.1	-52.5	3.8	1.49e+00	0	57	104	1780482048	52	14487
2026-01-03 09:31:28.50	353.37	17.19	-40.3	-52.9	3.8	1.49e+00	0	57	104	1780482048	51	15957
2026-01-03 09:31:32.55	353.10	16.75	-40.0	-52.8	3.8	1.49e+00	0	57	104	1780482048	51	15831
2026-01-03 09:31:36.59	352.84	16.31	-39.9	-52.9	3.8	1.49e+00	0	57	104	1780482048	51	15951
2026-01-03 09:31:40.63	352.59	15.88	-40.7	-53.1	3.8	1.49e+00	0	57	104	1780482048	52	15466
2026-01-03 09:31:44.67	352.35	15.46	-40.7	-53.1	3.8	1.49e+00	0	57	104	1780482048	51	16477
2026-01-03 09:31:48.72	352.11	15.04	-40.5	-53.0	3.8	1.49e+00	0	57	104	1780482048	52	15262
2026-01-03 09:31:52.76	351.88	14.63	-40.4	-52.9	3.8	1.49e+00	0	57	104	1780482048	52	15087
2026-01-03 09:31:56.80	351.65	14.22	-40.6	-52.9	3.8	1.49e+00	0	57	104	1780482048	52	15219
2026-01-03 09:32:00.84	351.44	13.83	-40.5	-53.0	3.8	1.49e+00	0	57	104	1780482048	52	15226
2026-01-03 09:32:04.88	351.22	13.44	-40.6	-52.9	3.8	1.49e+00	0	57	104	1780482048	52	15175
2026-01-03 09:32:08.92	351.02	13.05	-40.9	-53.3	3.8	1.49e+00	0	57	104	1780482048	52	15865
2026-01-03 09:32:12.96	350.82	12.67	-40.7	-53.2	3.8	1.49e+00	0	57	104	1780482048	52	15657
2026-01-03 09:32:17.00	350.63	12.29	-40.3	-52.9	3.8	1.49e+00	0	57	104	1780482048	52	15124
2026-01-03 09:32:21.04	350.44	11.93	-40.3	-52.9	3.8	1.49e+00	0	57	104	1780482048	52	15071
2026-01-03 09:32:25.08	350.25	11.56	-40.4	-52.8	3.8	1.49e+00	0	57	104	1780482048	52	14921
2026-01-03 09:32:29.12	350.07	11.20	-40.1	-52.6	3.8	1.49e+00	0	57	104	1780482048	52	14549
2026-01-03 09:32:33.16	349.90	10.85	-40.1	-52.6	3.8	1.49e+00	0	57	104	1780482048	52	14549
2026-01-03 09:32:37.20	349.73	10.50	-40.4	-52.8	3.8	1.49e+00	0	57	104	1780482048	52	14957
2026-01-03 09:32:41.23	349.56	10.16	-40.4	-52.8	3.8	1.49e+00	0	57	104	1780482048	52	14982
2026-01-03 09:32:45.27	349.40	9.81	-40.7	-53.0	3.8	1.49e+00	0	57	104	1780482048	52	15329
2026-01-03 09:32:49.31	349.25	9.48	-40.8	-53.2	3.8	1.49e+00	0	57	104	1780482048	52	15586
2026-01-03 09:32:53.35	349.09	9.15	-40.3	-52.6	3.8	1.49e+00	0	57	104	1780482048	52	14678
2026-01-03 09:32:57.39	348.94	8.82	-40.7	-53.0	3.8	1.49e+00	0	57	104	1780482048	53	14447
2026-01-03 09:33:01.43	348.80	8.50	-40.5	-52.8	3.8	1.49e+00	0	57	104	1780482048	52	15010
2026-01-03 09:33:05.47	348.65	8.18	-40.7	-53.0	3.8	1.49e+00	0	57	104	1780482048	52	15350
2026-01-03 09:33:09.52	348.52	7.86	-40.8	-53.3	3.8	1.49e+00	0	57	104	1780482048	52	15834
2026-01-03 09:33:13.56	348.38	7.55	-45.0	-57.4	3.8	1.49e+00	0	57	104	1780482048	60	16087
2026-01-03 09:33:17.60	348.25	7.24	-45.2	-57.5	3.8	1.49e+00	0	57	104	1780482048	60	16310
2026-01-03 09:33:21.65	348.12	6.93	-45.0	-57.4	3.8	1.49e+00	0	57	104	1780482048	60	16021
2026-01-03 09:33:25.69	347.99	6.63	-44.8	-57.3	3.8	1.49e+00	0	57	104	1780482048	60	15900
2026-01-03 09:33:29.74	347.87	6.33	-45.0	-57.3	3.8	1.49e+00	0	57	104	1780482048	60	15854
2026-01-03 09:33:33.78	347.75	6.04	-45.0	-57.3	3.8	1.49e+00	0	57	104	1780482048	60	15820
2026-01-03 09:33:37.82	347.63	5.75	-45.0	-57.3	3.8	1.49e+00	0	57	104	1780482048	60	15814
2026-01-03 09:33:41.87	347.51	5.46	-45.0	-57.3	3.8	1.49e+00	0	57	104	1780482048	60	15786
2026-01-03 09:33:45.91	347.40	5.17	-45.0	-57.3	3.8	1.49e+00	0	57	104	1780482048	60	15836
2026-01-03 09:33:49.96	347.29	4.89	-45.0	-57.3	3.8	1.49e+00	0	57	104	1780482048	60	15846
2026-01-03 09:33:54.00	347.18	4.61	-45.0	-57.3	3.8	1.49e+00	0	57	104	1780482048	60	15891
2026-01-03 09:33:58.04	347.08	4.33	-44.9	-57.3	3.8	1.49e+00	0	57	104	1780482048	60	15810
2026-01-03 09:34:02.09	346.98	4.06	-44.9	-57.3	3.8	1.49e+00	0	57	104	1780482048	60	15822
2026-01-03 09:34:06.13	346.87	3.79	-45.0	-57.3	3.8	1.49e+00	0	57	104	1780482048	60	15862
2026-01-03 09:34:10.18	346.78	3.52	-45.0	-57.3	3.8	1.49e+00	0	57	104	1780482048	60	15797
2026-01-03 09:34:14.22	346.68	3.25	-45.0	-57.3	3.8	1.49e+00	0	57	104	1780482048	60	15875
2026-01-03 09:34:18.27	346.58	2.98	-45.0	-57.3	3.8	1.49e+00	0	57	104	1780482048	60	15771
2026-01-03 09:34:22.31	346.49	2.72	-45.0	-57.3	3.8	1.49e+00	0	57	104	1780482048	60	15795
2026-01-03 09:34:26.35	346.40	2.46	-44.9	-57.2	3.8	1.49e+00	0	57	104	1780482048	60	15715
2026-01-03 09:34:30.40	346.31	2.21	-44.9	-57.2	3.8	1.49e+00	0	57	104	1780482048	60	15740

#Closed at: 2026-01-03 09:34:33
#Recorded file [1780 MB]: D:/lorett/data/31039_260103_122025.dat