passes_logs/2026/01/03/R2.0S_Moscow/R2.0S_Moscow__20260103_123115_FENGYUN_3D_rec.log

#Pass ID: 20260103_123115_FENGYUN 3D
#Satellite: FENGYUN 3D
#Configuration: FENGYUN 3D
#almurnet v.1.7.20251203
#Start time: 2026-01-03 12:40:26

#Version: 2.2.20231116
#Station: R2.0S_Moscow
#Location: 37.707566 lon 55.798166 lat
#TLE: 1 43010U 17072A   26002.31768531  .00000715  00000+0  35975-3 0  9993
#TLE: 2 43010  98.9910 333.9388 0001871 131.0716 229.0622 14.19693418421454

#Time	Az	El	Level	Level2	SNR	BER	BlckErr	Temp	State	Recorded	gain1	gain2
2026-01-03 12:40:26.87	316.77	34.13	-46.0	-64.8	3.8	7.46e-01	0	56	0	0	62	33672
2026-01-03 12:40:28.88	317.20	33.76	-45.1	-56.9	3.8	8.46e-01	0	57	104	0	60	15190
2026-01-03 12:40:30.90	317.61	33.39	-45.0	-56.7	3.8	8.46e-01	0	57	104	0	60	14775
2026-01-03 12:40:32.93	318.02	33.03	-44.6	-53.7	4.1	8.44e-01	0	57	104	0	60	10497
2026-01-03 12:40:34.95	318.42	32.67	-44.8	-56.4	3.8	8.47e-01	0	57	104	0	60	14336
2026-01-03 12:40:36.97	318.81	32.31	-44.8	-56.5	3.8	8.47e-01	0	57	104	0	60	14503
2026-01-03 12:40:38.99	319.20	31.95	-44.8	-56.6	3.8	8.45e-01	0	57	104	0	60	14700
2026-01-03 12:40:41.01	319.57	31.60	-44.8	-56.6	3.8	8.46e-01	0	57	104	0	60	14708
2026-01-03 12:40:43.04	319.94	31.25	-44.8	-56.6	3.8	8.45e-01	0	57	104	0	60	14681
2026-01-03 12:40:45.06	320.30	30.91	-44.8	-56.7	3.8	8.45e-01	0	57	104	0	60	14739
2026-01-03 12:40:47.08	320.65	30.56	-44.8	-56.7	3.8	8.46e-01	0	57	104	0	60	14737
2026-01-03 12:40:49.10	320.99	30.22	-44.8	-56.4	3.8	8.46e-01	0	57	104	0	60	14354
2026-01-03 12:40:51.12	321.33	29.89	-44.8	-56.2	3.8	8.47e-01	0	57	104	0	60	13999
2026-01-03 12:40:53.15	321.66	29.55	-44.8	-56.2	3.8	8.45e-01	0	57	104	0	60	13915
2026-01-03 12:40:55.17	321.98	29.22	-44.8	-56.5	3.8	8.46e-01	0	57	104	0	60	14401
2026-01-03 12:40:57.19	322.30	28.89	-44.8	-56.7	3.8	8.46e-01	0	57	104	0	60	14731
2026-01-03 12:40:59.21	322.61	28.56	-44.8	-56.5	3.8	8.47e-01	0	57	104	0	60	14533
2026-01-03 12:41:01.23	322.92	28.24	-44.7	-55.7	3.8	8.46e-01	0	57	104	0	60	13204
2026-01-03 12:41:03.25	323.22	27.92	-44.6	-54.6	3.8	8.46e-01	0	57	104	0	60	11629
2026-01-03 12:41:05.28	323.51	27.60	-44.6	-54.4	3.8	8.44e-01	0	57	104	0	60	11302
2026-01-03 12:41:07.30	323.80	27.29	-44.5	-54.1	3.9	8.44e-01	0	57	104	0	60	11020
2026-01-03 12:41:09.32	324.08	26.98	-44.3	-52.8	4.3	8.36e-01	0	57	0	0	60	9476
2026-01-03 12:41:11.34	324.36	26.67	-44.2	-52.3	4.5	8.25e-01	0	57	0	0	60	8909
2026-01-03 12:41:13.36	324.63	26.37	-43.6	-49.4	6.0	5.99e-01	0	57	0	1048576	59	6781
2026-01-03 12:41:15.39	324.90	26.06	-40.8	-43.6	11.6	3.30e-03	0	57	0	12582912	53	4881
2026-01-03 12:41:17.41	325.16	25.76	-37.3	-38.9	16.4	0.00e+00	0	57	0	24117248	46	4271
2026-01-03 12:41:19.43	325.42	25.47	-34.5	-35.7	19.4	0.00e+00	0	57	0	35651584	41	3934
2026-01-03 12:41:21.45	325.67	25.17	-33.9	-35.0	20.2	0.00e+00	0	57	0	46137344	39	4072
2026-01-03 12:41:23.47	325.92	24.88	-34.7	-35.9	19.1	0.00e+00	0	57	0	57671680	41	4016
2026-01-03 12:41:25.49	326.16	24.59	-34.0	-35.1	19.9	0.00e+00	0	57	0	69206016	40	3898
2026-01-03 12:41:27.51	326.40	24.31	-34.9	-36.1	19.0	0.00e+00	0	57	0	80740352	41	4127
2026-01-03 12:41:29.53	326.64	24.02	-34.4	-35.6	19.4	0.00e+00	0	57	0	92274688	40	4144
2026-01-03 12:41:31.55	326.87	23.74	-34.6	-35.8	19.3	0.00e+00	0	57	0	102760448	40	4225
2026-01-03 12:41:33.57	327.10	23.46	-34.3	-35.5	19.5	0.00e+00	0	57	0	114294784	40	4084
2026-01-03 12:41:35.59	327.32	23.19	-34.0	-35.2	19.8	0.00e+00	0	57	0	125829120	40	3921
2026-01-03 12:41:37.60	327.54	22.92	-33.9	-35.0	20.0	0.00e+00	0	57	0	137363456	39	4098
2026-01-03 12:41:39.62	327.76	22.64	-33.8	-35.0	20.1	0.00e+00	0	57	0	148897792	39	4067
2026-01-03 12:41:41.64	327.97	22.38	-33.9	-35.0	20.0	0.00e+00	0	57	0	160432128	39	4096
2026-01-03 12:41:43.66	328.18	22.11	-34.0	-35.2	19.9	0.00e+00	0	57	0	170917888	39	4150
2026-01-03 12:41:45.68	328.39	21.85	-34.1	-35.3	19.7	0.00e+00	0	57	0	182452224	39	4220
2026-01-03 12:41:47.70	328.59	21.59	-34.2	-35.4	19.6	0.00e+00	0	57	0	193986560	39	4273
2026-01-03 12:41:49.73	328.79	21.33	-34.4	-35.6	19.5	0.00e+00	0	57	0	205520896	39	4356
2026-01-03 12:41:51.74	328.98	21.07	-34.3	-35.5	19.5	0.00e+00	0	57	0	217055232	39	4331
2026-01-03 12:41:53.77	329.18	20.82	-34.3	-35.6	19.5	0.00e+00	0	57	0	228589568	39	4343
2026-01-03 12:41:55.79	329.37	20.56	-34.3	-35.5	19.5	0.00e+00	0	57	0	240123904	39	4320
2026-01-03 12:41:57.81	329.56	20.31	-34.3	-35.5	19.5	0.00e+00	0	57	0	250609664	39	4324
2026-01-03 12:41:59.83	329.74	20.07	-34.3	-35.5	19.5	0.00e+00	0	57	0	262144000	39	4293
2026-01-03 12:42:01.85	329.92	19.82	-34.3	-35.5	19.5	0.00e+00	0	57	0	273678336	39	4312
2026-01-03 12:42:03.87	330.10	19.58	-34.4	-35.6	19.3	0.00e+00	0	57	0	285212672	39	4376
2026-01-03 12:42:05.89	330.28	19.34	-34.5	-35.7	19.2	0.00e+00	0	57	0	296747008	39	4426
2026-01-03 12:42:07.91	330.45	19.10	-34.6	-35.9	19.1	0.00e+00	0	57	0	307232768	39	4499
2026-01-03 12:42:09.93	330.62	18.86	-34.7	-36.0	19.0	0.00e+00	0	57	0	318767104	39	4552
2026-01-03 12:42:11.94	330.79	18.63	-34.8	-36.0	18.8	0.00e+00	0	57	0	330301440	40	4340
2026-01-03 12:42:13.96	330.95	18.40	-34.8	-36.0	18.8	0.00e+00	0	57	0	341835776	40	4338
2026-01-03 12:42:15.98	331.12	18.16	-34.8	-36.0	18.8	0.00e+00	0	57	0	353370112	40	4333
2026-01-03 12:42:18.00	331.28	17.94	-34.8	-36.1	18.7	0.00e+00	0	57	0	364904448	40	4380
2026-01-03 12:42:20.02	331.44	17.71	-34.9	-36.1	18.7	0.00e+00	0	57	0	375390208	40	4390
2026-01-03 12:42:22.04	331.60	17.48	-35.1	-36.4	18.5	0.00e+00	0	57	0	386924544	40	4502
2026-01-03 12:42:24.06	331.75	17.26	-35.0	-36.3	18.5	0.00e+00	0	57	0	398458880	40	4474
2026-01-03 12:42:26.08	331.90	17.04	-35.0	-36.3	18.5	0.00e+00	0	57	0	409993216	40	4461
2026-01-03 12:42:28.10	332.05	16.82	-35.2	-36.5	18.3	0.00e+00	0	57	0	421527552	40	4563
2026-01-03 12:42:30.12	332.20	16.60	-35.3	-36.7	18.0	0.00e+00	0	57	0	433061888	41	4410
2026-01-03 12:42:32.13	332.35	16.39	-35.3	-36.7	18.0	0.00e+00	0	57	0	444596224	41	4400
2026-01-03 12:42:34.16	332.49	16.17	-35.5	-36.9	17.8	0.00e+00	0	57	0	455081984	41	4510
2026-01-03 12:42:36.18	332.63	15.96	-35.7	-37.1	17.6	0.00e+00	0	57	0	466616320	42	4365
2026-01-03 12:42:38.20	332.78	15.75	-35.6	-37.0	17.7	0.00e+00	0	57	0	478150656	42	4306
2026-01-03 12:42:40.21	332.91	15.54	-35.6	-37.0	17.7	0.00e+00	0	57	0	489684992	42	4324
2026-01-03 12:42:42.23	333.05	15.33	-35.6	-37.0	17.7	0.00e+00	0	57	0	501219328	42	4292
2026-01-03 12:42:44.25	333.19	15.13	-35.7	-37.1	17.6	0.00e+00	0	57	0	511705088	42	4355
2026-01-03 12:42:46.27	333.32	14.92	-35.8	-37.2	17.4	0.00e+00	0	57	0	523239424	42	4426
2026-01-03 12:42:48.29	333.45	14.72	-35.8	-37.3	17.4	0.00e+00	0	57	0	534773760	42	4457
2026-01-03 12:42:50.31	333.58	14.52	-35.8	-37.2	17.4	0.00e+00	0	57	0	546308096	42	4438
2026-01-03 12:42:52.33	333.71	14.32	-35.9	-37.4	17.2	0.00e+00	0	57	0	557842432	42	4515
2026-01-03 12:42:54.35	333.84	14.12	-36.2	-37.7	16.9	0.00e+00	0	57	0	569376768	42	4667
2026-01-03 12:42:56.37	333.96	13.92	-36.2	-37.7	16.8	0.00e+00	0	57	0	579862528	43	4434
2026-01-03 12:42:58.39	334.09	13.73	-36.0	-37.5	17.0	0.00e+00	0	57	0	591396864	43	4330
2026-01-03 12:43:00.41	334.21	13.54	-36.0	-37.5	17.0	0.00e+00	0	57	0	602931200	43	4330
2026-01-03 12:43:02.43	334.33	13.34	-36.0	-37.5	17.0	0.00e+00	0	57	0	614465536	43	4318
2026-01-03 12:43:04.45	334.45	13.15	-36.0	-37.6	17.0	0.00e+00	0	57	0	625999872	43	4341
2026-01-03 12:43:06.47	334.57	12.96	-36.0	-37.6	16.9	0.00e+00	0	57	0	637534208	43	4353
2026-01-03 12:43:08.50	334.68	12.77	-36.2	-37.8	16.7	0.00e+00	0	57	0	649068544	43	4449
2026-01-03 12:43:10.52	334.80	12.59	-36.1	-37.6	16.8	0.00e+00	0	57	0	659554304	43	4385
2026-01-03 12:43:12.54	334.91	12.40	-36.1	-37.7	16.8	0.00e+00	0	57	0	671088640	43	4394
2026-01-03 12:43:14.56	335.03	12.22	-36.1	-37.6	16.8	0.00e+00	0	57	0	682622976	43	4384
2026-01-03 12:43:16.58	335.14	12.03	-36.1	-37.6	16.8	0.00e+00	0	57	0	694157312	43	4368
2026-01-03 12:43:18.60	335.25	11.85	-36.2	-37.8	16.6	0.00e+00	0	57	0	705691648	43	4460
2026-01-03 12:43:20.62	335.36	11.67	-36.4	-38.0	16.4	0.00e+00	0	57	0	716177408	43	4556
2026-01-03 12:43:22.64	335.46	11.49	-36.2	-37.7	16.6	0.00e+00	0	57	0	727711744	43	4422
2026-01-03 12:43:24.66	335.57	11.32	-36.2	-37.7	16.5	0.00e+00	0	57	0	739246080	43	4423
2026-01-03 12:43:26.68	335.67	11.14	-36.4	-37.9	16.3	0.00e+00	0	57	0	750780416	43	4540
2026-01-03 12:43:28.70	335.78	10.96	-36.6	-38.2	16.1	0.00e+00	0	57	0	762314752	43	4677
2026-01-03 12:43:30.72	335.88	10.79	-36.4	-38.0	16.2	0.00e+00	0	57	0	773849088	43	4571
2026-01-03 12:43:32.74	335.98	10.62	-36.3	-37.9	16.2	0.00e+00	0	57	0	785383424	43	4545
2026-01-03 12:43:34.76	336.08	10.45	-36.4	-38.0	16.2	0.00e+00	0	57	0	795869184	43	4569
2026-01-03 12:43:36.78	336.18	10.27	-36.5	-38.2	15.9	0.00e+00	0	57	0	807403520	43	4673
2026-01-03 12:43:38.80	336.28	10.10	-36.7	-38.4	15.7	0.00e+00	0	57	0	818937856	43	4762
2026-01-03 12:43:40.82	336.38	9.94	-36.6	-38.2	15.8	0.00e+00	0	57	0	830472192	43	4701
2026-01-03 12:43:42.84	336.48	9.77	-36.5	-38.1	15.9	0.00e+00	0	57	0	842006528	43	4649
2026-01-03 12:43:44.86	336.57	9.60	-36.5	-38.1	15.9	0.00e+00	0	57	0	853540864	43	4650
2026-01-03 12:43:46.88	336.67	9.44	-36.4	-38.1	15.9	0.00e+00	0	57	0	864026624	43	4600
2026-01-03 12:43:48.90	336.76	9.27	-36.6	-38.4	15.5	0.00e+00	0	57	0	875560960	43	4767
2026-01-03 12:43:50.93	336.85	9.11	-36.9	-38.7	15.3	0.00e+00	0	57	0	887095296	44	4668
2026-01-03 12:43:52.95	336.95	8.95	-37.0	-38.9	15.1	0.00e+00	0	57	0	898629632	44	4770
2026-01-03 12:43:54.97	337.04	8.79	-37.0	-38.9	15.0	0.00e+00	0	57	0	910163968	44	4785
2026-01-03 12:43:56.98	337.13	8.63	-36.9	-38.7	15.1	0.00e+00	0	57	0	921698304	44	4700
2026-01-03 12:43:59.00	337.22	8.47	-36.7	-38.6	15.2	0.00e+00	0	57	0	932184064	44	4600
2026-01-03 12:44:01.02	337.30	8.31	-36.9	-38.8	14.8	1.10e-06	0	57	0	943718400	44	4722
2026-01-03 12:44:03.04	337.39	8.15	-36.9	-38.8	14.8	1.10e-06	0	57	0	955252736	44	4722
2026-01-03 12:44:05.06	337.48	7.99	-43.9	-54.2	3.8	4.33e-01	0	57	104	964689920	58	12459
2026-01-03 12:44:07.08	337.56	7.84	-44.7	-56.4	3.8	8.46e-01	0	57	104	964689920	60	14352
2026-01-03 12:44:09.10	337.65	7.68	-45.0	-56.8	3.8	8.47e-01	0	57	104	964689920	60	15027
2026-01-03 12:44:11.13	337.73	7.53	-45.1	-57.0	3.8	8.46e-01	0	57	104	964689920	60	15322
2026-01-03 12:44:13.15	337.82	7.38	-45.2	-57.0	3.8	8.45e-01	0	57	104	964689920	60	15397
2026-01-03 12:44:15.17	337.90	7.22	-45.1	-57.1	3.8	8.46e-01	0	57	104	964689920	60	15450
2026-01-03 12:44:17.19	337.98	7.07	-45.1	-57.0	3.8	8.46e-01	0	57	104	964689920	60	15272
2026-01-03 12:44:19.21	338.06	6.92	-45.1	-57.0	3.8	8.46e-01	0	57	104	964689920	60	15278
2026-01-03 12:44:21.23	338.14	6.77	-45.0	-56.9	3.8	8.45e-01	0	57	104	964689920	60	15212
2026-01-03 12:44:23.25	338.22	6.62	-45.0	-56.9	3.8	8.46e-01	0	57	104	964689920	60	15190
2026-01-03 12:44:25.27	338.30	6.48	-45.0	-56.9	3.8	8.47e-01	0	57	104	964689920	60	15196
2026-01-03 12:44:27.29	338.38	6.33	-45.0	-56.9	3.8	8.46e-01	0	57	104	964689920	60	15190
2026-01-03 12:44:29.31	338.46	6.18	-45.0	-56.9	3.8	8.46e-01	0	57	104	964689920	60	15166
2026-01-03 12:44:31.33	338.53	6.04	-45.0	-56.9	3.8	8.46e-01	0	57	104	964689920	60	15185
2026-01-03 12:44:33.36	338.61	5.89	-45.0	-56.9	3.8	8.46e-01	0	57	104	964689920	60	15186
2026-01-03 12:44:35.38	338.68	5.75	-45.0	-56.9	3.8	8.46e-01	0	57	104	964689920	60	15159
2026-01-03 12:44:37.40	338.76	5.61	-45.0	-56.9	3.8	8.45e-01	0	57	104	964689920	60	15159
2026-01-03 12:44:39.42	338.83	5.46	-45.0	-56.9	3.8	8.47e-01	0	57	104	964689920	60	15126
2026-01-03 12:44:41.44	338.91	5.32	-45.0	-56.9	3.8	8.46e-01	0	57	104	964689920	60	15191
2026-01-03 12:44:43.47	338.98	5.18	-45.0	-56.9	3.8	8.47e-01	0	57	104	964689920	60	15148
2026-01-03 12:44:45.49	339.05	5.04	-45.0	-56.9	3.8	8.47e-01	0	57	104	964689920	60	15152
2026-01-03 12:44:47.51	339.12	4.90	-45.0	-56.9	3.8	8.47e-01	0	57	104	964689920	60	15121
2026-01-03 12:44:49.53	339.20	4.76	-45.0	-56.9	3.8	8.46e-01	0	57	104	964689920	60	15189
2026-01-03 12:44:51.55	339.27	4.62	-45.0	-56.9	3.8	8.47e-01	0	57	104	964689920	60	15184
2026-01-03 12:44:53.58	339.34	4.49	-45.0	-56.9	3.8	8.46e-01	0	57	104	964689920	60	15112
2026-01-03 12:44:55.60	339.41	4.35	-45.0	-56.9	3.8	8.46e-01	0	57	104	964689920	60	15118
2026-01-03 12:44:57.62	339.48	4.21	-45.0	-56.9	3.8	8.46e-01	0	57	104	964689920	60	15131
2026-01-03 12:44:59.64	339.54	4.08	-45.0	-56.9	3.8	8.47e-01	0	57	104	964689920	60	15105
2026-01-03 12:45:01.66	339.61	3.94	-45.0	-56.9	3.8	8.46e-01	0	57	104	964689920	60	15167
2026-01-03 12:45:03.69	339.68	3.81	-45.0	-56.9	3.8	8.47e-01	0	57	104	964689920	60	15139
2026-01-03 12:45:05.71	339.75	3.67	-45.0	-56.9	3.8	8.46e-01	0	57	104	964689920	60	15167
2026-01-03 12:45:07.73	339.81	3.54	-45.0	-56.9	3.8	8.46e-01	0	57	104	964689920	60	15097
2026-01-03 12:45:09.75	339.88	3.41	-45.0	-56.9	3.8	8.47e-01	0	57	104	964689920	60	15088
2026-01-03 12:45:11.77	339.94	3.28	-45.0	-56.9	3.8	8.46e-01	0	57	104	964689920	60	15126
2026-01-03 12:45:13.80	340.01	3.15	-45.0	-56.9	3.8	8.47e-01	0	57	104	964689920	60	15135
2026-01-03 12:45:15.82	340.07	3.02	-45.0	-56.9	3.8	8.45e-01	0	57	104	964689920	60	15099
2026-01-03 12:45:17.84	340.14	2.89	-45.0	-56.9	3.8	8.45e-01	0	57	104	964689920	60	15091
2026-01-03 12:45:19.86	340.20	2.76	-45.0	-56.9	3.8	8.46e-01	0	57	104	964689920	60	15128
2026-01-03 12:45:21.89	340.26	2.63	-45.0	-56.9	3.8	8.46e-01	0	57	104	964689920	60	15106
2026-01-03 12:45:23.91	340.32	2.50	-45.0	-56.9	3.8	8.46e-01	0	57	104	964689920	60	15101
2026-01-03 12:45:25.93	340.39	2.37	-45.0	-56.9	3.8	8.46e-01	0	57	104	964689920	60	15117
2026-01-03 12:45:27.95	340.45	2.24	-44.9	-56.9	3.8	8.47e-01	0	57	104	964689920	60	15053
2026-01-03 12:45:29.97	340.51	2.12	-45.0	-56.9	3.8	8.45e-01	0	57	104	964689920	60	15091
2026-01-03 12:45:32.00	340.57	1.99	-45.0	-56.9	3.8	8.46e-01	0	57	104	964689920	60	15158

#Closed at: 2026-01-03 12:45:33
#Recorded file [964 MB]: D:/lorett/data/31039_260103_154026.dat