passes_logs/2026/01/03/R2.0S_Moscow/R2.0S_Moscow__20260103_105028_AQUA_rec.log

#Pass ID: 20260103_105028_AQUA
#Satellite: AQUA
#Configuration: AQUA
#almurnet v.1.7.20251203
#Start time: 2026-01-03 10:50:30

#Version: 2.2.20231116
#Station: R2.0S_Moscow
#Location: 37.707566 lon 55.798166 lat
#TLE: 1 27424U 02022A   25365.92641127  .00002078  00000+0  42628-3 0  9999
#TLE: 2 27424  98.4058 327.1196 0001962  94.7781 340.6230 14.61783896258835

#Time	Az	El	Level	Level2	SNR	BER	BlckErr	Temp	State	Recorded	gain1	gain2
2026-01-03 10:50:30.45	136.39	2.11	-18.9	-36.8	3.4	7.55e-01	0	47	0	0	4	37501
2026-01-03 10:50:33.49	136.27	2.30	-17.2	-37.6	3.7	7.59e-01	0	47	104	0	2	46402
2026-01-03 10:50:36.52	136.14	2.50	-15.9	-35.9	3.4	7.57e-01	0	48	104	0	4	33994
2026-01-03 10:50:39.56	136.01	2.70	-16.7	-37.9	3.7	7.67e-01	0	48	104	0	5	40117
2026-01-03 10:50:42.59	135.88	2.90	-20.1	-39.0	3.3	7.39e-01	0	48	104	0	5	45920
2026-01-03 10:50:45.62	135.75	3.11	-14.5	-33.9	3.9	7.36e-01	0	48	104	0	0	34082
2026-01-03 10:50:48.66	135.61	3.31	-14.0	-41.1	3.5	7.48e-01	0	49	104	0	6	55139
2026-01-03 10:50:51.69	135.48	3.51	-15.4	-34.3	3.4	7.44e-01	0	49	104	0	3	29897
2026-01-03 10:50:54.72	135.34	3.72	-18.8	-40.1	3.6	7.61e-01	0	49	104	0	2	61635
2026-01-03 10:50:57.76	135.20	3.93	-12.2	-36.6	3.6	7.55e-01	0	49	104	0	0	46307
2026-01-03 10:51:00.79	135.05	4.14	-13.2	-36.7	3.5	7.34e-01	0	49	104	0	1	44301
2026-01-03 10:51:03.82	134.91	4.35	-10.2	-37.7	3.6	7.50e-01	0	50	104	0	3	44121
2026-01-03 10:51:06.85	134.76	4.57	-19.3	-39.5	3.6	7.58e-01	0	50	104	0	5	48337
2026-01-03 10:51:09.89	134.60	4.78	-19.4	-39.6	3.3	7.47e-01	0	50	104	0	8	41046
2026-01-03 10:51:12.92	134.45	5.00	-16.5	-35.9	3.6	7.55e-01	0	50	104	0	4	33719
2026-01-03 10:51:15.95	134.29	5.22	-15.5	-39.0	3.3	7.51e-01	0	50	104	0	2	54486
2026-01-03 10:51:18.99	134.13	5.44	-17.7	-39.0	3.4	7.57e-01	0	50	104	0	4	48619
2026-01-03 10:51:22.02	133.97	5.66	-19.2	-41.6	3.4	7.47e-01	0	50	104	0	9	48973
2026-01-03 10:51:25.05	133.81	5.89	-17.2	-39.5	3.6	7.57e-01	0	51	104	0	8	40843
2026-01-03 10:51:28.08	133.64	6.11	-16.1	-39.0	3.6	7.54e-01	0	51	104	0	3	51508
2026-01-03 10:51:31.12	133.47	6.34	-18.5	-39.3	3.6	7.52e-01	0	51	104	0	7	42204
2026-01-03 10:51:34.15	133.29	6.57	-18.6	-39.5	3.2	7.54e-01	0	51	104	0	10	36460
2026-01-03 10:51:37.18	133.12	6.80	-13.1	-38.7	3.5	7.49e-01	0	51	104	0	7	39168
2026-01-03 10:51:40.21	132.94	7.04	-12.3	-38.8	3.5	7.49e-01	0	51	104	0	1	56456
2026-01-03 10:51:43.25	132.75	7.28	-19.6	-39.5	3.3	7.50e-01	0	51	104	0	7	43118
2026-01-03 10:51:46.28	132.56	7.51	-12.4	-39.3	3.7	7.48e-01	0	51	104	0	0	62806
2026-01-03 10:51:49.31	132.37	7.76	-11.8	-35.0	3.5	7.45e-01	0	52	104	0	2	34397
2026-01-03 10:51:52.35	132.18	8.00	-17.2	-41.4	3.6	7.43e-01	0	52	104	0	6	56895
2026-01-03 10:51:55.38	131.98	8.25	-20.0	-42.8	3.3	7.58e-01	0	52	104	0	7	63203
2026-01-03 10:51:58.41	131.78	8.49	-13.5	-39.6	3.8	7.65e-01	0	52	104	0	0	65510
2026-01-03 10:52:01.44	131.57	8.74	-20.0	-40.6	3.8	7.48e-01	0	52	104	0	4	58532
2026-01-03 10:52:04.47	131.36	9.00	-18.2	-36.1	3.4	7.48e-01	0	52	104	0	6	31053
2026-01-03 10:52:07.50	131.15	9.25	-17.3	-38.5	3.2	7.54e-01	0	52	104	0	5	43408
2026-01-03 10:52:10.53	130.93	9.51	-15.6	-34.1	3.5	7.29e-01	0	53	104	0	5	26024
2026-01-03 10:52:13.56	130.71	9.77	-12.5	-38.3	3.3	7.54e-01	0	53	104	0	1	53168
2026-01-03 10:52:16.59	130.48	10.03	-16.4	-39.4	3.3	7.52e-01	0	53	104	0	6	45451
2026-01-03 10:52:19.62	130.25	10.30	-17.9	-39.9	3.8	7.43e-01	0	53	104	0	8	42511
2026-01-03 10:52:22.65	130.01	10.57	-18.9	-39.1	3.2	7.51e-01	0	53	104	0	9	36687
2026-01-03 10:52:25.68	129.77	10.84	-20.3	-38.3	3.3	7.54e-01	0	53	104	0	7	37628
2026-01-03 10:52:28.71	129.53	11.12	-14.8	-39.3	3.8	7.58e-01	0	53	104	0	0	62805
2026-01-03 10:52:31.74	129.27	11.39	-18.5	-38.9	4.5	7.50e-01	0	53	104	0	8	38198
2026-01-03 10:52:34.77	129.02	11.67	-22.3	-44.6	4.5	7.25e-01	0	53	104	0	19	38717
2026-01-03 10:52:37.80	128.76	11.96	-19.7	-39.7	5.0	7.26e-01	0	53	104	0	17	24888
2026-01-03 10:52:40.83	128.49	12.25	-21.2	-40.4	5.2	7.30e-01	0	53	104	0	15	30332
2026-01-03 10:52:43.86	128.21	12.54	-21.4	-42.4	7.1	6.70e-01	11	53	0	0	18	31974
2026-01-03 10:52:46.89	127.93	12.83	-29.3	-43.2	8.3	6.35e-01	41	53	0	524288	29	18602
2026-01-03 10:52:49.92	127.65	13.13	-35.2	-44.0	11.7	6.20e-01	48	54	104	3145728	42	9647
2026-01-03 10:52:52.95	127.35	13.43	-21.8	-40.6	7.1	6.46e-01	33	53	104	4194304	22	20628
2026-01-03 10:52:55.98	127.05	13.73	-39.9	-46.0	6.9	7.06e-01	7	54	104	4718592	48	8612
2026-01-03 10:52:59.02	126.75	14.04	-40.3	-44.9	14.2	6.15e-01	13	54	0	8912896	48	7612
2026-01-03 10:53:02.05	126.43	14.35	-40.4	-43.9	17.8	6.07e-01	0	54	0	14155776	51	5714
2026-01-03 10:53:05.08	126.11	14.66	-39.1	-43.3	15.2	6.08e-01	1	54	0	19922944	45	7514
2026-01-03 10:53:08.10	125.79	14.98	-40.3	-43.3	19.2	6.06e-01	0	54	0	25690112	51	5292
2026-01-03 10:53:11.13	125.45	15.30	-40.4	-43.1	19.3	6.08e-01	0	54	0	31457280	51	5196
2026-01-03 10:53:14.16	125.11	15.62	-39.9	-42.6	19.4	6.07e-01	0	54	0	37224448	50	5162
2026-01-03 10:53:17.19	124.76	15.95	-39.9	-42.4	20.6	6.05e-01	0	54	0	42991616	50	5061
2026-01-03 10:53:20.22	124.39	16.29	-39.4	-41.9	21.4	6.08e-01	0	54	0	48234496	49	5088
2026-01-03 10:53:23.25	124.03	16.62	-39.5	-41.8	18.8	6.08e-01	0	54	0	54001664	49	5031
2026-01-03 10:53:26.28	123.65	16.96	-39.6	-41.9	21.5	6.06e-01	0	54	0	59768832	49	5064
2026-01-03 10:53:29.31	123.26	17.31	-39.2	-41.5	21.2	6.07e-01	0	54	0	65536000	47	5435
2026-01-03 10:53:32.33	122.86	17.66	-39.5	-41.8	21.7	6.08e-01	0	54	0	71303168	49	4991
2026-01-03 10:53:35.36	122.46	18.01	-39.5	-41.8	21.3	6.06e-01	0	54	0	77070336	49	4998
2026-01-03 10:53:38.39	122.04	18.37	-36.6	-41.5	21.3	6.07e-01	0	55	0	82313216	47	5404
2026-01-03 10:53:41.42	121.61	18.73	-39.6	-41.8	21.7	6.07e-01	0	54	0	88080384	49	4999
2026-01-03 10:53:44.45	121.17	19.09	-39.5	-41.7	21.9	6.07e-01	0	54	0	93847552	49	4932
2026-01-03 10:53:47.48	120.72	19.46	-39.5	-41.7	21.8	6.06e-01	0	54	0	99614720	49	4968
2026-01-03 10:53:50.50	120.26	19.84	-39.7	-42.0	21.6	6.06e-01	0	54	0	105381888	50	4835
2026-01-03 10:53:53.53	119.78	20.22	-39.9	-42.1	21.5	6.05e-01	0	54	0	111149056	50	4925
2026-01-03 10:53:56.56	119.29	20.60	-39.8	-42.0	21.6	6.05e-01	0	55	0	116391936	50	4856
2026-01-03 10:53:59.59	118.79	20.98	-39.8	-42.0	21.2	6.05e-01	0	55	0	122159104	50	4856
2026-01-03 10:54:02.62	118.28	21.38	-39.8	-42.0	21.7	6.05e-01	0	55	0	127926272	50	4834
2026-01-03 10:54:05.65	117.75	21.77	-39.7	-41.9	21.8	6.08e-01	0	55	0	133693440	50	4781
2026-01-03 10:54:08.68	117.20	22.17	-39.7	-41.9	21.8	6.08e-01	0	55	0	139460608	50	4787
2026-01-03 10:54:11.71	116.64	22.57	-39.7	-42.0	21.7	6.06e-01	0	55	0	145227776	50	4815
2026-01-03 10:54:14.74	116.07	22.98	-40.0	-42.3	21.5	6.08e-01	0	55	0	150470656	50	4996
2026-01-03 10:54:17.77	115.48	23.39	-40.1	-42.3	21.4	6.08e-01	0	55	0	156237824	50	5038
2026-01-03 10:54:20.80	114.87	23.81	-39.9	-42.1	21.7	6.07e-01	0	55	0	162004992	50	4910
2026-01-03 10:54:23.83	114.25	24.23	-39.8	-42.0	21.7	6.07e-01	0	55	0	167772160	50	4866
2026-01-03 10:54:26.86	113.60	24.65	-39.7	-41.9	21.9	6.07e-01	0	55	0	173539328	50	4783
2026-01-03 10:54:29.88	112.95	25.08	-39.8	-42.1	21.7	6.07e-01	0	55	0	179306496	50	4879
2026-01-03 10:54:32.92	112.26	25.51	-39.8	-42.0	21.8	6.05e-01	0	55	0	184549376	50	4838
2026-01-03 10:54:35.95	111.56	25.94	-39.7	-41.9	21.9	6.04e-01	0	55	0	190316544	50	4796
2026-01-03 10:54:38.98	110.84	26.38	-39.6	-41.8	22.1	6.08e-01	0	55	0	196083712	50	4719
2026-01-03 10:54:42.01	110.10	26.82	-39.6	-41.8	22.1	6.07e-01	0	55	0	201850880	50	4720
2026-01-03 10:54:45.04	109.34	27.26	-39.6	-41.7	22.2	6.08e-01	0	55	0	207618048	50	4681
2026-01-03 10:54:48.06	108.56	27.70	-39.4	-41.5	22.4	6.07e-01	0	55	0	213385216	50	4560
2026-01-03 10:54:51.09	107.75	28.15	-39.3	-41.4	22.5	6.06e-01	0	55	0	218628096	50	4506
2026-01-03 10:54:54.12	106.91	28.59	-39.2	-41.2	22.6	6.06e-01	0	55	0	224395264	50	4431
2026-01-03 10:54:57.15	106.06	29.04	-39.3	-41.3	22.6	6.05e-01	0	55	0	230162432	50	4449
2026-01-03 10:55:00.18	105.18	29.49	-39.3	-41.3	22.6	6.08e-01	0	55	0	235929600	50	4459
2026-01-03 10:55:03.21	104.27	29.94	-39.1	-41.1	22.8	6.07e-01	0	55	0	241696768	50	4345
2026-01-03 10:55:06.24	103.33	30.38	-39.3	-41.3	22.6	6.05e-01	0	55	0	247463936	50	4473
2026-01-03 10:55:09.27	102.37	30.83	-39.2	-41.2	22.7	6.08e-01	0	55	0	252706816	50	4407
2026-01-03 10:55:12.31	101.38	31.27	-39.0	-40.9	23.0	6.06e-01	0	55	0	258473984	49	4532
2026-01-03 10:55:15.33	100.37	31.71	-39.2	-41.2	22.7	6.06e-01	0	55	0	264241152	49	4701
2026-01-03 10:55:18.37	99.32	32.15	-39.1	-41.1	22.8	6.05e-01	0	55	0	270008320	49	4611
2026-01-03 10:55:21.39	98.24	32.59	-39.0	-41.0	22.9	6.05e-01	0	55	0	275775488	49	4551
2026-01-03 10:55:24.42	97.14	33.02	-39.4	-41.4	22.5	6.05e-01	0	55	0	281542656	49	4800
2026-01-03 10:55:27.45	96.00	33.44	-39.2	-41.1	22.8	6.07e-01	0	55	0	286785536	49	4630
2026-01-03 10:55:30.48	94.84	33.86	-39.7	-41.8	22.2	6.06e-01	0	55	0	292552704	49	5026
2026-01-03 10:55:33.51	93.64	34.27	-39.6	-41.6	22.4	6.06e-01	0	55	0	298319872	50	4636
2026-01-03 10:55:36.53	92.41	34.67	-39.9	-42.0	21.9	6.06e-01	0	55	0	304087040	50	4862
2026-01-03 10:55:39.57	91.15	35.06	-39.8	-41.9	22.1	6.07e-01	0	56	0	309854208	50	4771
2026-01-03 10:55:42.60	89.86	35.44	-39.9	-42.1	22.0	6.04e-01	0	55	0	315621376	50	4878
2026-01-03 10:55:45.63	88.54	35.81	-40.1	-42.4	21.7	6.05e-01	0	56	0	320864256	50	5057
2026-01-03 10:55:48.65	87.19	36.16	-40.1	-42.4	21.7	6.06e-01	0	55	0	326631424	50	5050
2026-01-03 10:55:51.68	85.81	36.50	-40.2	-42.4	21.6	6.07e-01	0	56	0	332398592	50	5100
2026-01-03 10:55:54.71	84.40	36.83	-40.1	-42.3	21.8	6.06e-01	0	56	0	338165760	51	4721
2026-01-03 10:55:57.74	82.96	37.14	-40.1	-42.3	21.7	6.06e-01	0	56	0	343932928	51	4757
2026-01-03 10:56:00.77	81.49	37.43	-40.4	-42.7	21.4	6.08e-01	0	56	0	349700096	51	4942
2026-01-03 10:56:03.80	80.00	37.70	-40.4	-42.7	21.4	6.05e-01	0	55	0	354942976	51	4959
2026-01-03 10:56:06.83	78.48	37.95	-40.2	-42.4	21.7	6.06e-01	0	56	0	360710144	51	4778
2026-01-03 10:56:09.85	76.95	38.19	-40.4	-42.6	21.5	6.07e-01	0	56	0	366477312	51	4923
2026-01-03 10:56:12.89	75.38	38.40	-40.5	-42.8	21.3	6.06e-01	0	56	0	372244480	51	5006
2026-01-03 10:56:15.92	73.80	38.58	-40.3	-42.5	21.7	6.07e-01	0	55	0	378011648	51	4848
2026-01-03 10:56:18.94	72.21	38.75	-40.3	-42.5	21.6	6.05e-01	0	56	0	383778816	51	4866
2026-01-03 10:56:21.97	70.59	38.88	-40.4	-42.7	21.5	6.05e-01	0	56	0	389021696	51	4940
2026-01-03 10:56:25.00	68.97	39.00	-40.3	-42.5	21.7	6.06e-01	0	56	0	394788864	51	4831
2026-01-03 10:56:28.03	67.33	39.09	-40.5	-42.7	21.4	6.05e-01	0	56	0	400556032	51	4982
2026-01-03 10:56:31.06	65.69	39.15	-40.6	-42.9	21.3	6.06e-01	0	56	0	406323200	51	5097
2026-01-03 10:56:34.09	64.04	39.18	-40.4	-42.7	21.5	6.07e-01	0	56	0	412090368	51	4968
2026-01-03 10:56:37.12	62.38	39.19	-40.3	-42.6	21.7	6.06e-01	0	56	0	417857536	51	4874
2026-01-03 10:56:40.15	60.73	39.18	-40.4	-42.7	21.6	6.05e-01	0	56	0	423100416	51	4947
2026-01-03 10:56:43.18	59.09	39.13	-40.3	-42.6	21.6	6.09e-01	0	56	0	428867584	52	4628
2026-01-03 10:56:46.21	57.44	39.06	-40.4	-42.6	21.6	6.07e-01	0	56	0	434634752	52	4637
2026-01-03 10:56:49.23	55.82	38.97	-40.5	-42.8	21.4	6.04e-01	0	56	0	440401920	52	4734
2026-01-03 10:56:52.26	54.20	38.85	-40.4	-42.7	21.5	6.05e-01	0	56	0	446169088	52	4657
2026-01-03 10:56:55.29	52.59	38.70	-40.4	-42.6	21.6	6.07e-01	0	56	0	451936256	52	4646
2026-01-03 10:56:58.32	51.00	38.53	-40.2	-42.4	21.8	6.06e-01	0	56	0	457179136	52	4539
2026-01-03 10:57:01.35	49.42	38.34	-40.4	-42.7	21.4	6.07e-01	0	56	0	462946304	52	4697
2026-01-03 10:57:04.38	47.87	38.12	-40.5	-42.9	21.3	6.09e-01	0	56	0	468713472	52	4763
2026-01-03 10:57:07.41	46.34	37.88	-40.3	-42.5	21.6	6.06e-01	0	56	0	474480640	52	4598
2026-01-03 10:57:10.44	44.83	37.62	-40.4	-42.7	21.5	6.06e-01	0	56	0	480247808	52	4671
2026-01-03 10:57:13.47	43.35	37.35	-40.7	-43.1	21.1	6.05e-01	0	56	0	486014976	52	4908
2026-01-03 10:57:16.50	41.90	37.05	-40.8	-43.3	20.9	6.07e-01	0	56	0	491257856	52	4992
2026-01-03 10:57:19.53	40.47	36.74	-40.8	-52.6	3.8	7.43e-01	0	56	104	492830720	52	14565
2026-01-03 10:57:22.56	39.07	36.41	-41.1	-52.9	3.8	7.44e-01	0	56	104	492830720	53	14247
2026-01-03 10:57:25.59	37.70	36.06	-42.2	-54.4	3.9	7.41e-01	0	56	104	492830720	56	14337
2026-01-03 10:57:28.61	36.37	35.71	-41.1	-53.1	3.8	7.46e-01	0	56	104	492830720	53	14617
2026-01-03 10:57:31.64	35.06	35.34	-42.6	-54.8	3.9	7.44e-01	0	56	104	492830720	56	14975
2026-01-03 10:57:34.67	33.78	34.95	-40.7	-52.4	3.7	7.53e-01	0	56	104	492830720	53	13449
2026-01-03 10:57:37.70	32.54	34.56	-41.5	-53.4	4.2	7.28e-01	0	56	104	492830720	54	14220
2026-01-03 10:57:40.73	31.32	34.16	-42.8	-55.1	3.8	7.48e-01	0	56	104	492830720	55	16368
2026-01-03 10:57:43.76	30.14	33.75	-40.4	-52.0	3.8	7.42e-01	0	56	104	492830720	52	13672
2026-01-03 10:57:46.79	28.98	33.33	-43.6	-56.4	3.8	7.45e-01	0	56	104	492830720	57	17009
2026-01-03 10:57:49.83	27.86	32.91	-41.2	-53.2	3.8	7.41e-01	0	56	104	492830720	54	13985
2026-01-03 10:57:52.85	26.77	32.48	-40.8	-52.7	3.8	7.46e-01	0	56	104	492830720	52	14764
2026-01-03 10:57:55.88	25.70	32.04	-43.7	-56.9	3.8	7.43e-01	0	56	104	492830720	58	16928
2026-01-03 10:57:58.91	24.67	31.61	-40.3	-51.9	3.8	7.45e-01	0	56	104	492830720	52	13448
2026-01-03 10:58:01.95	23.66	31.17	-43.3	-56.2	3.8	7.40e-01	0	56	104	492830720	57	16616
2026-01-03 10:58:04.98	22.68	30.72	-42.5	-54.8	3.9	7.46e-01	0	56	104	492830720	55	15934
2026-01-03 10:58:08.00	21.74	30.28	-40.2	-51.9	3.8	7.46e-01	0	56	104	492830720	51	14296
2026-01-03 10:58:11.03	20.82	29.83	-43.7	-57.0	3.8	7.42e-01	0	56	104	492830720	57	18221
2026-01-03 10:58:14.06	19.92	29.39	-40.1	-51.7	3.8	7.43e-01	0	56	104	492830720	52	13122
2026-01-03 10:58:17.09	19.05	28.94	-42.4	-54.7	3.8	7.44e-01	0	56	104	492830720	55	15603
2026-01-03 10:58:20.11	18.21	28.50	-42.6	-55.5	3.8	7.42e-01	0	56	104	492830720	56	16178
2026-01-03 10:58:23.14	17.38	28.06	-40.2	-51.9	3.8	7.48e-01	0	56	104	492830720	52	13471
2026-01-03 10:58:26.17	16.59	27.61	-42.2	-54.5	3.9	7.43e-01	0	56	104	492830720	56	14384
2026-01-03 10:58:29.20	15.81	27.17	-42.9	-55.7	3.8	7.42e-01	0	57	104	492830720	56	16584
2026-01-03 10:58:32.23	15.06	26.73	-40.2	-52.0	3.8	7.45e-01	0	56	104	492830720	52	13597
2026-01-03 10:58:35.26	14.33	26.30	-42.7	-55.4	3.9	7.40e-01	0	56	104	492830720	57	15072
2026-01-03 10:58:38.29	13.62	25.87	-40.4	-52.1	3.8	7.43e-01	0	57	104	492830720	52	13844
2026-01-03 10:58:41.32	12.92	25.44	-42.4	-54.8	3.8	7.46e-01	0	56	104	492830720	55	15857
2026-01-03 10:58:44.36	12.25	25.01	-40.6	-52.7	3.9	7.42e-01	0	56	104	492830720	53	14037
2026-01-03 10:58:47.39	11.60	24.58	-40.5	-52.1	3.8	7.45e-01	0	57	104	492830720	52	13776
2026-01-03 10:58:50.42	10.97	24.16	-40.2	-51.8	3.8	7.45e-01	0	56	104	492830720	52	13387
2026-01-03 10:58:53.45	10.35	23.75	-42.3	-54.8	3.8	7.44e-01	0	57	104	492830720	56	15017
2026-01-03 10:58:56.48	9.75	23.33	-40.2	-52.0	3.8	7.43e-01	0	56	104	492830720	52	13577
2026-01-03 10:58:59.51	9.17	22.93	-43.6	-57.1	3.9	7.42e-01	0	57	104	492830720	59	16485
2026-01-03 10:59:02.54	8.60	22.52	-40.4	-52.0	3.8	7.46e-01	0	57	104	492830720	52	13587
2026-01-03 10:59:05.57	8.05	22.12	-40.7	-52.5	3.8	7.41e-01	0	57	104	492830720	52	14501
2026-01-03 10:59:08.60	7.51	21.72	-41.2	-53.1	3.8	7.47e-01	0	57	104	492830720	52	15498
2026-01-03 10:59:11.63	6.99	21.33	-40.1	-51.8	3.8	7.44e-01	0	57	104	492830720	52	13272
2026-01-03 10:59:14.66	6.48	20.94	-42.3	-55.0	3.8	7.46e-01	0	57	104	492830720	55	16157
2026-01-03 10:59:17.69	5.99	20.56	-41.1	-53.2	3.8	7.42e-01	0	57	104	492830720	54	13939
2026-01-03 10:59:20.72	5.51	20.18	-40.6	-52.5	3.8	7.46e-01	0	57	104	492830720	52	14491
2026-01-03 10:59:23.75	5.04	19.80	-43.4	-56.9	3.8	7.41e-01	0	57	104	492830720	58	16891
2026-01-03 10:59:26.78	4.58	19.43	-40.4	-52.3	3.8	7.44e-01	0	56	104	492830720	52	14119
2026-01-03 10:59:29.81	4.14	19.07	-42.0	-54.4	3.8	7.44e-01	0	57	104	492830720	54	16067
2026-01-03 10:59:32.84	3.70	18.70	-44.1	-58.5	3.8	7.44e-01	0	57	104	492830720	58	20359
2026-01-03 10:59:35.87	3.28	18.35	-40.3	-51.9	3.8	7.46e-01	0	57	104	492830720	52	13507
2026-01-03 10:59:38.90	2.87	17.99	-44.3	-59.4	3.8	7.47e-01	0	57	104	492830720	59	21292
2026-01-03 10:59:41.93	2.47	17.64	-40.4	-52.5	3.8	7.45e-01	0	57	104	492830720	52	14396
2026-01-03 10:59:44.96	2.07	17.29	-40.3	-52.1	3.8	7.45e-01	0	57	104	492830720	52	13735
2026-01-03 10:59:47.99	1.69	16.95	-42.7	-56.0	3.8	7.45e-01	0	57	104	492830720	56	17145
2026-01-03 10:59:51.02	1.32	16.61	-40.1	-52.3	3.8	7.45e-01	0	57	104	492830720	52	14096
2026-01-03 10:59:54.05	0.96	16.28	-42.6	-56.0	3.8	7.45e-01	0	57	104	492830720	55	18151
2026-01-03 10:59:57.08	0.60	15.95	-43.8	-60.6	3.8	7.49e-01	0	57	104	492830720	58	26014
2026-01-03 11:00:00.11	0.25	15.62	-39.8	-51.6	3.8	7.47e-01	0	57	104	492830720	51	13869
2026-01-03 11:00:03.14	359.92	15.30	-42.4	-56.7	3.8	7.44e-01	0	57	104	492830720	55	19776
2026-01-03 11:00:06.18	359.58	14.98	-40.1	-52.4	3.8	7.46e-01	0	56	104	492830720	52	14254
2026-01-03 11:00:09.21	359.26	14.67	-41.5	-55.3	3.8	7.44e-01	0	57	104	492830720	54	17886
2026-01-03 11:00:12.23	358.95	14.35	-41.2	-54.9	3.9	7.45e-01	0	57	104	492830720	54	17041
2026-01-03 11:00:15.26	358.64	14.05	-39.4	-51.6	3.8	7.41e-01	0	57	104	492830720	50	14567
2026-01-03 11:00:18.29	358.34	13.74	-40.4	-53.8	3.9	7.45e-01	0	57	104	492830720	53	15773
2026-01-03 11:00:21.32	358.04	13.44	-40.5	-56.3	3.9	7.40e-01	0	57	104	492830720	52	22452
2026-01-03 11:00:24.35	357.76	13.14	-39.4	-52.2	3.8	7.44e-01	0	57	104	492830720	50	15617
2026-01-03 11:00:27.38	357.47	12.85	-40.2	-55.5	3.9	7.41e-01	0	57	104	492830720	51	21727
2026-01-03 11:00:30.41	357.20	12.56	-38.9	-52.2	3.8	7.42e-01	0	57	104	492830720	49	16687
2026-01-03 11:00:33.44	356.93	12.27	-39.7	-54.0	3.8	7.42e-01	0	57	104	492830720	49	20391
2026-01-03 11:00:36.47	356.67	11.98	-40.3	-57.1	3.8	7.45e-01	0	57	104	492830720	52	24673
2026-01-03 11:00:39.50	356.41	11.70	-40.4	-58.8	3.8	7.44e-01	0	57	104	492830720	52	29943
2026-01-03 11:00:42.53	356.15	11.42	-40.7	-59.6	3.8	7.47e-01	0	57	104	492830720	52	32781
2026-01-03 11:00:45.55	355.91	11.15	-40.5	-59.7	3.8	7.42e-01	0	57	104	492830720	52	33026
2026-01-03 11:00:48.58	355.67	10.88	-40.2	-59.7	3.8	7.46e-01	0	57	104	492830720	52	33022
2026-01-03 11:00:51.61	355.43	10.61	-39.6	-59.7	3.8	7.46e-01	0	57	104	492830720	50	36969
2026-01-03 11:00:54.65	355.20	10.34	-40.7	-59.8	3.8	7.45e-01	0	57	104	492830720	51	35543
2026-01-03 11:00:57.68	354.97	10.07	-40.6	-59.7	3.8	7.43e-01	0	57	104	492830720	52	33144
2026-01-03 11:01:00.71	354.75	9.81	-40.4	-59.7	3.8	7.46e-01	0	57	104	492830720	52	33136
2026-01-03 11:01:03.74	354.53	9.55	-40.7	-59.8	3.8	7.46e-01	0	57	104	492830720	52	33509
2026-01-03 11:01:06.77	354.31	9.30	-40.6	-59.7	3.8	7.43e-01	0	57	104	492830720	52	33074
2026-01-03 11:01:09.80	354.10	9.04	-40.6	-59.8	3.8	7.43e-01	0	57	104	492830720	52	33404
2026-01-03 11:01:12.83	353.90	8.79	-40.6	-59.7	3.8	7.44e-01	0	57	104	492830720	52	33236
2026-01-03 11:01:15.86	353.70	8.54	-40.9	-60.0	3.8	7.47e-01	0	57	104	492830720	52	34109
2026-01-03 11:01:18.89	353.50	8.29	-40.9	-59.8	3.8	7.46e-01	0	57	104	492830720	52	33507
2026-01-03 11:01:21.92	353.31	8.05	-41.2	-60.2	3.8	7.46e-01	0	57	104	492830720	53	33097
2026-01-03 11:01:24.96	353.11	7.81	-42.5	-61.3	3.8	7.42e-01	0	57	104	492830720	55	33362
2026-01-03 11:01:27.99	352.93	7.57	-46.0	-64.8	3.8	7.45e-01	0	57	104	492830720	62	33650
2026-01-03 11:01:31.02	352.75	7.33	-46.1	-65.0	3.8	7.47e-01	0	57	104	492830720	62	34247
2026-01-03 11:01:34.06	352.56	7.09	-46.1	-65.0	3.8	7.46e-01	0	57	104	492830720	62	34156
2026-01-03 11:01:37.09	352.39	6.86	-46.0	-64.9	3.8	7.45e-01	0	57	104	492830720	62	33772
2026-01-03 11:01:40.12	352.22	6.63	-46.0	-64.9	3.8	7.44e-01	0	57	104	492830720	62	33721
2026-01-03 11:01:43.16	352.04	6.40	-46.0	-64.8	3.8	7.50e-01	0	57	104	492830720	62	33624
2026-01-03 11:01:46.19	351.88	6.17	-46.0	-64.8	3.8	7.47e-01	0	57	104	492830720	62	33662
2026-01-03 11:01:49.22	351.71	5.95	-46.0	-64.8	3.8	7.43e-01	0	57	104	492830720	62	33652
2026-01-03 11:01:52.25	351.55	5.72	-46.0	-64.8	3.8	7.48e-01	0	57	104	492830720	62	33514
2026-01-03 11:01:55.29	351.39	5.50	-46.0	-64.8	3.8	7.44e-01	0	57	104	492830720	62	33506
2026-01-03 11:01:58.32	351.24	5.28	-45.9	-64.8	3.8	7.45e-01	0	57	104	492830720	62	33522
2026-01-03 11:02:01.36	351.09	5.06	-46.0	-64.8	3.8	7.42e-01	0	57	104	492830720	62	33500
2026-01-03 11:02:04.39	350.94	4.85	-46.0	-64.8	3.8	7.43e-01	0	57	104	492830720	62	33494
2026-01-03 11:02:07.42	350.79	4.63	-45.9	-64.8	3.8	7.45e-01	0	57	104	492830720	62	33581
2026-01-03 11:02:10.45	350.64	4.42	-45.9	-64.8	3.8	7.44e-01	0	57	104	492830720	62	33517
2026-01-03 11:02:13.49	350.50	4.21	-45.9	-64.8	3.8	7.43e-01	0	57	104	492830720	62	33421
2026-01-03 11:02:16.52	350.36	4.00	-45.9	-64.8	3.8	7.48e-01	0	57	104	492830720	62	33477
2026-01-03 11:02:19.55	350.22	3.79	-45.9	-64.8	3.8	7.44e-01	0	57	104	492830720	62	33414
2026-01-03 11:02:22.59	350.09	3.59	-45.9	-64.8	3.8	7.48e-01	0	57	104	492830720	62	33403
2026-01-03 11:02:25.62	349.96	3.38	-45.9	-64.8	3.8	7.47e-01	0	57	104	492830720	62	33455
2026-01-03 11:02:28.65	349.82	3.18	-45.9	-64.8	3.8	7.45e-01	0	57	104	492830720	62	33390
2026-01-03 11:02:31.68	349.70	2.98	-45.9	-64.8	3.8	7.43e-01	0	57	104	492830720	62	33414
2026-01-03 11:02:34.72	349.57	2.78	-45.9	-64.8	3.8	7.45e-01	0	57	104	492830720	62	33397
2026-01-03 11:02:37.75	349.44	2.58	-45.9	-64.8	3.8	7.44e-01	0	57	104	492830720	62	33479
2026-01-03 11:02:40.78	349.32	2.38	-45.9	-64.8	3.8	7.47e-01	0	57	104	492830720	62	33407
2026-01-03 11:02:43.82	349.20	2.19	-45.9	-64.8	3.8	7.44e-01	0	57	104	492830720	62	33321
2026-01-03 11:02:46.85	349.08	1.99	-45.9	-64.8	3.8	7.48e-01	0	57	104	492830720	62	33380

#Closed at: 2026-01-03 11:02:47
#Recorded file [492 MB]: D:/lorett/data/31039_260103_135030.dat