passes_logs/2026/01/03/R2.0S_Moscow/R2.0S_Moscow__20260103_160020_FENGYUN_3E_rec.log

#Pass ID: 20260103_160020_FENGYUN 3E
#Satellite: FENGYUN 3E
#Configuration: FENGYUN 3E
#almurnet v.1.7.20251203
#Start time: 2026-01-03 16:00:20

#Version: 2.2.20231116
#Station: R2.0S_Moscow
#Location: 37.707566 lon 55.798166 lat
#TLE: 1 49008U 21062A   26002.95568549 -.00000227  00000+0 -86494-4 0  9990
#TLE: 2 49008  98.7475   8.2258 0001442 163.3458 196.7766 14.19882681233131

#Time	Az	El	Level	Level2	SNR	BER	BlckErr	Temp	State	Recorded	gain1	gain2
2026-01-03 16:00:20.31	216.23	2.02	-44.5	-55.3	3.8	8.46e-01	0	47	0	0	59	12528
2026-01-03 16:00:23.33	216.48	2.17	-44.4	-55.2	3.8	8.45e-01	0	47	104	0	59	12493
2026-01-03 16:00:26.36	216.73	2.33	-44.4	-55.2	3.8	8.46e-01	0	48	104	0	59	12480
2026-01-03 16:00:29.39	216.99	2.49	-44.4	-55.3	3.8	8.45e-01	0	48	104	0	59	12541
2026-01-03 16:00:32.43	217.25	2.64	-44.4	-55.3	3.8	8.46e-01	0	48	104	0	59	12542
2026-01-03 16:00:35.46	217.52	2.80	-44.4	-55.3	3.8	8.46e-01	0	48	104	0	59	12541
2026-01-03 16:00:38.49	217.78	2.96	-44.4	-55.3	3.8	8.47e-01	0	49	104	0	59	12528
2026-01-03 16:00:41.52	218.05	3.12	-44.4	-55.3	3.8	8.47e-01	0	49	104	0	59	12543
2026-01-03 16:00:44.56	218.32	3.28	-44.4	-55.2	3.8	8.46e-01	0	49	104	0	59	12519
2026-01-03 16:00:47.59	218.60	3.44	-44.4	-55.3	3.8	8.46e-01	0	49	104	0	59	12569
2026-01-03 16:00:50.62	218.87	3.59	-44.4	-55.3	3.8	8.46e-01	0	50	104	0	59	12530
2026-01-03 16:00:53.66	219.15	3.76	-44.5	-55.3	3.8	8.46e-01	0	50	104	0	59	12541
2026-01-03 16:00:56.69	219.44	3.92	-44.4	-55.3	3.8	8.46e-01	0	50	104	0	59	12559
2026-01-03 16:00:59.72	219.72	4.08	-44.4	-55.3	3.8	8.45e-01	0	50	104	0	59	12586
2026-01-03 16:01:02.76	220.01	4.24	-44.4	-55.3	3.8	8.46e-01	0	50	104	0	59	12567
2026-01-03 16:01:05.79	220.31	4.40	-44.4	-55.2	3.8	8.47e-01	0	50	104	0	59	12518
2026-01-03 16:01:08.82	220.60	4.56	-44.5	-55.3	3.8	8.46e-01	0	51	104	0	59	12572
2026-01-03 16:01:11.85	220.90	4.72	-44.4	-55.3	3.8	8.45e-01	0	51	104	0	59	12577
2026-01-03 16:01:14.89	221.20	4.89	-44.4	-55.3	3.8	8.46e-01	0	51	104	0	59	12530
2026-01-03 16:01:17.92	221.51	5.05	-44.5	-55.3	3.8	8.46e-01	0	51	104	0	59	12581
2026-01-03 16:01:20.95	221.82	5.21	-44.4	-55.3	3.8	8.47e-01	0	51	104	0	59	12521
2026-01-03 16:01:23.99	222.13	5.38	-44.4	-55.1	3.8	8.46e-01	0	51	104	0	59	12252
2026-01-03 16:01:27.02	222.44	5.54	-44.4	-54.8	3.8	8.46e-01	0	51	104	0	59	11955
2026-01-03 16:01:30.05	222.76	5.70	-44.4	-55.0	3.8	8.46e-01	0	52	104	0	59	12111
2026-01-03 16:01:33.09	223.08	5.87	-44.4	-55.1	3.8	8.46e-01	0	52	104	0	59	12292
2026-01-03 16:01:36.12	223.41	6.03	-44.5	-55.3	3.8	8.46e-01	0	52	104	0	59	12524
2026-01-03 16:01:39.15	223.74	6.20	-44.4	-55.0	3.8	8.45e-01	0	52	104	0	59	12109
2026-01-03 16:01:42.19	224.07	6.36	-44.3	-53.9	3.8	8.47e-01	0	52	104	0	59	10693
2026-01-03 16:01:45.22	224.41	6.53	-44.1	-52.6	4.0	8.43e-01	0	53	0	0	59	9220
2026-01-03 16:01:48.25	224.75	6.70	-44.1	-52.9	3.8	8.45e-01	0	52	104	0	59	9526
2026-01-03 16:01:51.29	225.09	6.86	-44.2	-53.5	3.8	8.46e-01	0	53	104	0	59	10260
2026-01-03 16:01:54.32	225.44	7.03	-44.2	-53.4	3.8	8.45e-01	0	53	104	0	59	10101
2026-01-03 16:01:57.35	225.79	7.19	-44.2	-53.1	3.8	8.45e-01	0	53	104	0	59	9781
2026-01-03 16:02:00.38	226.15	7.36	-43.7	-50.3	4.7	8.23e-01	0	53	0	0	58	7535
2026-01-03 16:02:03.42	226.51	7.53	-41.8	-45.6	8.2	7.29e-02	0	53	0	12582912	54	5500
2026-01-03 16:02:06.45	226.87	7.69	-39.8	-42.1	12.0	4.85e-04	0	53	0	34603008	50	4621
2026-01-03 16:02:09.48	227.24	7.86	-38.2	-40.1	13.9	3.40e-06	0	53	0	56623104	47	4342
2026-01-03 16:02:12.52	227.61	8.03	-37.8	-39.5	14.5	1.10e-06	0	53	0	78643200	46	4331
2026-01-03 16:02:15.55	227.99	8.20	-37.9	-39.6	14.1	8.02e-01	0	54	104	85983232	46	4356
2026-01-03 16:02:18.58	228.37	8.36	-38.2	-39.9	14.1	4.57e-05	0	54	0	105906176	47	4286
2026-01-03 16:02:21.61	228.75	8.53	-37.4	-39.0	15.1	0.00e+00	0	54	0	127926272	45	4331
2026-01-03 16:02:24.64	229.14	8.70	-37.3	-38.8	15.3	0.00e+00	0	54	0	149946368	45	4234
2026-01-03 16:02:27.68	229.53	8.86	-37.2	-38.7	15.4	0.00e+00	0	54	0	171966464	45	4189
2026-01-03 16:02:30.71	229.93	9.03	-37.1	-38.6	15.6	0.00e+00	0	54	0	193986560	45	4111
2026-01-03 16:02:33.74	230.33	9.20	-37.0	-38.5	15.7	0.00e+00	0	54	0	216006656	44	4314
2026-01-03 16:02:36.77	230.74	9.36	-37.3	-38.8	15.4	0.00e+00	0	54	0	238026752	44	4470
2026-01-03 16:02:39.80	231.15	9.53	-37.3	-38.8	15.4	0.00e+00	0	54	0	258998272	44	4480
2026-01-03 16:02:42.83	231.56	9.70	-37.3	-38.9	15.3	0.00e+00	0	54	0	281018368	44	4508
2026-01-03 16:02:45.86	231.98	9.86	-37.1	-38.7	15.6	0.00e+00	0	54	0	303038464	44	4394
2026-01-03 16:02:48.89	232.41	10.03	-36.8	-38.3	16.0	0.00e+00	0	54	0	325058560	44	4196
2026-01-03 16:02:51.92	232.84	10.19	-37.0	-38.4	15.9	0.00e+00	0	54	0	347078656	44	4275
2026-01-03 16:02:54.95	233.27	10.36	-36.9	-38.4	15.9	0.00e+00	0	54	0	369098752	44	4267
2026-01-03 16:02:57.98	233.71	10.53	-36.7	-38.2	16.1	0.00e+00	0	55	0	391118848	44	4151
2026-01-03 16:03:01.01	234.15	10.69	-36.6	-38.0	16.3	0.00e+00	0	55	0	412090368	44	4062
2026-01-03 16:03:04.04	234.60	10.85	-36.6	-37.9	16.4	0.00e+00	0	55	0	434110464	44	4036
2026-01-03 16:03:07.07	235.05	11.02	-36.4	-37.7	16.4	0.00e+00	0	55	0	456130560	43	4172
2026-01-03 16:03:10.10	235.51	11.18	-36.4	-37.8	16.4	0.00e+00	0	55	0	478150656	43	4199
2026-01-03 16:03:13.13	235.97	11.34	-36.3	-37.7	16.5	0.00e+00	0	55	0	500170752	43	4171
2026-01-03 16:03:16.16	236.44	11.51	-36.5	-37.8	16.4	0.00e+00	0	55	0	522190848	43	4238
2026-01-03 16:03:19.19	236.91	11.67	-36.5	-37.9	16.3	0.00e+00	0	55	0	544210944	43	4271
2026-01-03 16:03:22.22	237.39	11.83	-36.2	-37.6	16.7	0.00e+00	0	55	0	566231040	43	4106
2026-01-03 16:03:25.25	237.87	11.99	-36.2	-37.6	16.7	0.00e+00	0	55	0	587202560	43	4107
2026-01-03 16:03:28.28	238.36	12.15	-36.0	-37.3	16.9	0.00e+00	0	55	0	609222656	43	3990
2026-01-03 16:03:31.31	238.85	12.30	-36.1	-37.4	16.9	0.00e+00	0	55	0	631242752	43	4027
2026-01-03 16:03:34.34	239.35	12.46	-36.1	-37.4	16.9	0.00e+00	0	55	0	653262848	43	4021
2026-01-03 16:03:37.37	239.85	12.62	-36.0	-37.3	17.0	0.00e+00	0	55	0	675282944	43	3990
2026-01-03 16:03:40.40	240.36	12.77	-36.1	-37.4	16.9	0.00e+00	0	55	0	697303040	42	4246
2026-01-03 16:03:43.43	240.88	12.93	-36.1	-37.4	16.9	0.00e+00	0	55	0	719323136	42	4256
2026-01-03 16:03:46.46	241.40	13.08	-36.0	-37.3	17.0	0.00e+00	0	55	0	740294656	42	4235
2026-01-03 16:03:49.48	241.92	13.23	-36.0	-37.4	17.0	0.00e+00	0	56	0	762314752	42	4247
2026-01-03 16:03:52.51	242.45	13.38	-36.1	-37.4	17.0	0.00e+00	0	56	0	784334848	42	4250
2026-01-03 16:03:55.54	242.98	13.53	-35.7	-37.0	17.3	0.00e+00	0	55	0	806354944	42	4075
2026-01-03 16:03:58.57	243.52	13.68	-35.8	-37.1	17.3	0.00e+00	0	56	0	828375040	42	4111
2026-01-03 16:04:01.60	244.07	13.83	-35.8	-37.1	17.2	0.00e+00	0	56	0	849346560	42	4140
2026-01-03 16:04:04.63	244.62	13.97	-35.7	-37.0	17.4	0.00e+00	0	55	0	871366656	42	4056
2026-01-03 16:04:07.66	245.17	14.11	-35.6	-36.8	17.5	0.00e+00	0	56	0	893386752	42	4004
2026-01-03 16:04:10.69	245.73	14.26	-35.6	-36.9	17.4	0.00e+00	0	56	0	915406848	42	4013
2026-01-03 16:04:13.71	246.30	14.40	-35.6	-36.9	17.5	0.00e+00	0	56	0	937426944	42	4007
2026-01-03 16:04:16.74	246.87	14.53	-35.6	-36.8	17.5	0.00e+00	0	56	0	959447040	42	3993
2026-01-03 16:04:19.78	247.45	14.67	-35.7	-36.9	17.5	0.00e+00	0	56	0	981467136	42	4028
2026-01-03 16:04:22.81	248.03	14.80	-35.6	-36.9	17.5	0.00e+00	0	56	0	1002438656	42	4024
2026-01-03 16:04:25.84	248.61	14.94	-35.4	-36.7	17.7	0.00e+00	0	56	0	1024458752	41	4146
2026-01-03 16:04:28.87	249.21	15.07	-35.3	-36.5	17.9	0.00e+00	0	56	0	1046478848	41	4075
2026-01-03 16:04:31.91	249.80	15.19	-35.4	-36.6	17.8	0.00e+00	0	56	0	1068498944	41	4113
2026-01-03 16:04:34.94	250.40	15.32	-35.4	-36.6	17.8	0.00e+00	0	56	0	1090519040	41	4122
2026-01-03 16:04:37.97	251.01	15.44	-35.3	-36.5	17.9	0.00e+00	0	56	0	1112539136	41	4068
2026-01-03 16:04:41.00	251.62	15.56	-35.4	-36.7	17.7	0.00e+00	0	56	0	1134559232	41	4150
2026-01-03 16:04:44.02	252.24	15.68	-35.5	-36.7	17.7	0.00e+00	0	56	0	1156579328	41	4167
2026-01-03 16:04:47.05	252.86	15.80	-35.4	-36.6	17.8	0.00e+00	0	56	0	1177550848	41	4118
2026-01-03 16:04:50.08	253.48	15.91	-35.4	-36.6	17.8	0.00e+00	0	56	0	1199570944	41	4107
2026-01-03 16:04:53.11	254.11	16.02	-35.3	-36.5	17.9	0.00e+00	0	56	0	1221591040	41	4088
2026-01-03 16:04:56.14	254.74	16.13	-35.4	-36.6	17.8	0.00e+00	0	56	0	1243611136	41	4119
2026-01-03 16:04:59.17	255.38	16.23	-35.1	-36.3	18.1	0.00e+00	0	56	0	1265631232	41	3970
2026-01-03 16:05:02.21	256.03	16.34	-35.1	-36.3	18.1	0.00e+00	0	56	0	1287651328	41	3966
2026-01-03 16:05:05.24	256.67	16.43	-35.1	-36.3	18.0	0.00e+00	0	56	0	1309671424	41	3997
2026-01-03 16:05:08.26	257.32	16.53	-35.1	-36.3	18.1	0.00e+00	0	56	0	1331691520	41	3986
2026-01-03 16:05:11.29	257.98	16.62	-35.0	-36.2	18.2	0.00e+00	0	56	0	1352663040	41	3934
2026-01-03 16:05:14.32	258.64	16.71	-35.1	-36.3	18.1	0.00e+00	0	56	0	1374683136	41	3982
2026-01-03 16:05:17.35	259.30	16.80	-35.1	-36.2	18.1	0.00e+00	0	56	0	1396703232	41	3954
2026-01-03 16:05:20.39	259.97	16.88	-35.1	-36.2	18.2	0.00e+00	0	56	0	1418723328	40	4177
2026-01-03 16:05:23.42	260.64	16.96	-35.0	-36.1	18.3	0.00e+00	0	56	0	1440743424	40	4132
2026-01-03 16:05:26.45	261.31	17.03	-35.0	-36.2	18.2	0.00e+00	0	56	0	1462763520	40	4170
2026-01-03 16:05:29.48	261.98	17.11	-35.0	-36.2	18.2	0.00e+00	0	56	0	1484783616	40	4177
2026-01-03 16:05:32.51	262.66	17.17	-35.1	-36.2	18.2	0.00e+00	0	56	0	1505755136	40	4179
2026-01-03 16:05:35.54	263.34	17.24	-35.0	-36.2	18.2	0.00e+00	0	56	0	1527775232	40	4168
2026-01-03 16:05:38.57	264.03	17.30	-35.3	-36.5	17.9	0.00e+00	0	56	0	1549795328	40	4335
2026-01-03 16:05:41.61	264.72	17.36	-35.4	-36.6	17.8	0.00e+00	0	57	0	1571815424	40	4362
2026-01-03 16:05:44.63	265.41	17.41	-35.0	-36.2	18.2	0.00e+00	0	56	0	1593835520	40	4155
2026-01-03 16:05:47.67	266.10	17.46	-34.8	-35.9	18.4	0.00e+00	0	56	0	1615855616	40	4050
2026-01-03 16:05:50.70	266.79	17.50	-34.9	-36.0	18.4	0.00e+00	0	56	0	1637875712	40	4087
2026-01-03 16:05:53.73	267.49	17.55	-35.0	-36.2	18.2	0.00e+00	0	56	0	1659895808	40	4162
2026-01-03 16:05:56.76	268.19	17.58	-35.1	-36.2	18.1	0.00e+00	0	56	0	1681915904	40	4187
2026-01-03 16:05:59.79	268.89	17.62	-35.0	-36.2	18.2	0.00e+00	0	56	0	1702887424	40	4176
2026-01-03 16:06:02.82	269.59	17.65	-35.0	-36.2	18.2	0.00e+00	0	56	0	1724907520	40	4152
2026-01-03 16:06:05.85	270.29	17.67	-34.9	-36.1	18.3	0.00e+00	0	56	0	1746927616	40	4101
2026-01-03 16:06:08.88	270.99	17.69	-34.9	-36.0	18.4	0.00e+00	0	57	0	1768947712	40	4071
2026-01-03 16:06:11.92	271.70	17.71	-34.8	-36.0	18.4	0.00e+00	0	57	0	1790967808	40	4068
2026-01-03 16:06:14.94	272.40	17.72	-35.0	-36.2	18.2	0.00e+00	0	56	0	1812987904	40	4151
2026-01-03 16:06:17.97	273.10	17.73	-35.0	-36.2	18.2	0.00e+00	0	56	0	1835008000	40	4164
2026-01-03 16:06:21.00	273.81	17.73	-35.0	-36.2	18.2	0.00e+00	0	57	0	1857028096	40	4158
2026-01-03 16:06:24.03	274.51	17.73	-34.9	-36.0	18.3	0.00e+00	0	56	0	1877999616	40	4084
2026-01-03 16:06:27.06	275.21	17.73	-34.8	-35.9	18.5	0.00e+00	0	56	0	1900019712	40	4017
2026-01-03 16:06:30.09	275.92	17.72	-34.7	-35.8	18.6	0.00e+00	0	57	0	1922039808	40	3980
2026-01-03 16:06:33.12	276.62	17.71	-34.7	-35.9	18.5	0.00e+00	0	57	0	1944059904	40	4017
2026-01-03 16:06:36.15	277.33	17.69	-34.9	-36.0	18.3	0.00e+00	0	57	0	1965031424	40	4097
2026-01-03 16:06:39.18	278.03	17.67	-35.1	-36.3	18.0	0.00e+00	0	56	0	1987051520	40	4234
2026-01-03 16:06:42.21	278.73	17.65	-35.1	-36.3	18.0	0.00e+00	0	57	0	2009071616	40	4224
2026-01-03 16:06:45.23	279.43	17.62	-35.0	-36.2	18.1	0.00e+00	0	57	0	2031091712	40	4174
2026-01-03 16:06:48.26	280.12	17.59	-35.1	-36.2	18.1	0.00e+00	0	57	0	2053111808	40	4191
2026-01-03 16:06:51.29	280.82	17.55	-35.0	-36.2	18.2	0.00e+00	0	57	0	2075131904	40	4146
2026-01-03 16:06:54.32	281.52	17.51	-35.1	-36.2	18.1	0.00e+00	0	57	0	2097152000	40	4187
2026-01-03 16:06:57.35	282.21	17.46	-35.1	-36.3	18.1	0.00e+00	0	57	0	2118123520	40	4197
2026-01-03 16:07:00.38	282.90	17.42	-35.0	-36.2	18.1	0.00e+00	0	57	0	2140143616	40	4162
2026-01-03 16:07:03.41	283.59	17.36	-35.0	-36.1	18.2	0.00e+00	0	57	0	2162163712	40	4142
2026-01-03 16:07:06.44	284.27	17.31	-35.1	-36.2	18.0	0.00e+00	0	57	0	2184183808	40	4184
2026-01-03 16:07:09.47	284.96	17.25	-35.2	-36.4	17.9	0.00e+00	0	57	0	2206203904	40	4245
2026-01-03 16:07:12.50	285.64	17.18	-35.3	-36.5	17.8	0.00e+00	0	57	0	2228224000	40	4321
2026-01-03 16:07:15.53	286.32	17.12	-35.2	-36.4	17.9	0.00e+00	0	57	0	2250244096	40	4273
2026-01-03 16:07:18.56	286.99	17.04	-35.1	-36.3	18.0	0.00e+00	0	57	0	2272264192	40	4196
2026-01-03 16:07:21.60	287.66	16.97	-35.2	-36.4	17.9	0.00e+00	0	57	0	2293235712	40	4252
2026-01-03 16:07:24.63	288.33	16.89	-35.2	-36.4	17.9	0.00e+00	0	57	0	2315255808	40	4253
2026-01-03 16:07:27.66	289.00	16.81	-35.1	-36.3	17.9	0.00e+00	0	57	0	2337275904	40	4219
2026-01-03 16:07:30.69	289.66	16.72	-35.2	-36.4	17.9	0.00e+00	0	57	0	2359296000	40	4250
2026-01-03 16:07:33.72	290.31	16.64	-35.2	-36.4	17.8	0.00e+00	0	57	0	2381316096	40	4274
2026-01-03 16:07:36.75	290.97	16.54	-35.2	-36.4	17.8	0.00e+00	0	57	0	2403336192	40	4270
2026-01-03 16:07:39.78	291.62	16.45	-35.2	-36.4	17.8	0.00e+00	0	57	0	2425356288	40	4291
2026-01-03 16:07:42.82	292.26	16.35	-35.4	-36.7	17.6	0.00e+00	0	57	0	2447376384	40	4397
2026-01-03 16:07:45.84	292.90	16.25	-35.4	-36.7	17.6	0.00e+00	0	57	0	2468347904	40	4393
2026-01-03 16:07:48.87	293.54	16.15	-35.4	-36.7	17.5	0.00e+00	0	57	0	2490368000	40	4409
2026-01-03 16:07:51.90	294.17	16.04	-35.4	-36.6	17.6	0.00e+00	0	57	0	2512388096	40	4357
2026-01-03 16:07:54.93	294.80	15.93	-35.3	-36.6	17.7	0.00e+00	0	57	0	2534408192	40	4342
2026-01-03 16:07:57.97	295.42	15.82	-35.4	-36.6	17.6	0.00e+00	0	57	0	2556428288	40	4388
2026-01-03 16:08:01.00	296.04	15.71	-35.3	-36.5	17.7	0.00e+00	0	57	0	2578448384	40	4336
2026-01-03 16:08:04.02	296.65	15.59	-35.3	-36.5	17.7	0.00e+00	0	57	0	2600468480	40	4328
2026-01-03 16:08:07.05	297.26	15.47	-35.4	-36.6	17.5	0.00e+00	0	57	0	2622488576	40	4355
2026-01-03 16:08:10.08	297.87	15.35	-35.6	-36.8	17.3	0.00e+00	0	57	0	2643460096	40	4492
2026-01-03 16:08:13.11	298.47	15.22	-35.7	-36.9	17.3	0.00e+00	0	57	0	2665480192	40	4544
2026-01-03 16:08:16.15	299.06	15.10	-35.7	-37.0	17.2	0.00e+00	0	57	0	2687500288	41	4320
2026-01-03 16:08:19.18	299.65	14.97	-35.8	-37.1	17.1	0.00e+00	0	57	0	2709520384	41	4390
2026-01-03 16:08:22.21	300.24	14.84	-35.7	-36.9	17.3	0.00e+00	0	57	0	2731540480	41	4283
2026-01-03 16:08:25.24	300.82	14.70	-35.6	-36.9	17.3	0.00e+00	0	57	0	2753560576	41	4253
2026-01-03 16:08:28.27	301.39	14.57	-35.8	-37.0	17.1	0.00e+00	0	57	0	2775580672	41	4340
2026-01-03 16:08:31.30	301.96	14.43	-35.8	-37.1	16.7	5.22e-04	0	57	0	2797600768	41	4365
2026-01-03 16:08:34.33	302.53	14.29	-35.7	-37.0	16.9	3.54e-05	0	57	0	2818572288	41	4313
2026-01-03 16:08:37.36	303.08	14.15	-35.7	-37.0	17.0	0.00e+00	0	57	0	2840592384	41	4319
2026-01-03 16:08:40.39	303.64	14.01	-35.8	-37.1	17.0	0.00e+00	0	57	0	2862612480	41	4378
2026-01-03 16:08:43.43	304.19	13.87	-36.0	-37.3	16.9	0.00e+00	0	57	0	2884632576	41	4451
2026-01-03 16:08:46.46	304.73	13.72	-36.0	-37.3	16.9	0.00e+00	0	57	0	2906652672	41	4460
2026-01-03 16:08:49.49	305.27	13.58	-36.0	-37.3	16.9	0.00e+00	0	57	0	2927624192	41	4458
2026-01-03 16:08:52.52	305.80	13.43	-35.8	-37.1	17.0	0.00e+00	0	57	0	2949644288	41	4384
2026-01-03 16:08:55.55	306.33	13.28	-35.9	-37.2	17.0	0.00e+00	0	57	0	2971664384	41	4416
2026-01-03 16:08:58.57	306.85	13.13	-36.2	-37.5	16.7	0.00e+00	0	57	0	2993684480	41	4585
2026-01-03 16:09:01.61	307.37	12.98	-36.4	-37.8	16.4	0.00e+00	0	57	0	3015704576	42	4453
2026-01-03 16:09:04.63	307.88	12.83	-36.3	-37.7	16.4	0.00e+00	0	57	0	3037724672	42	4416
2026-01-03 16:09:07.66	308.39	12.67	-36.4	-37.8	16.3	0.00e+00	0	57	0	3059744768	42	4475
2026-01-03 16:09:10.69	308.89	12.52	-36.4	-37.8	16.3	0.00e+00	0	57	0	3080716288	42	4465
2026-01-03 16:09:13.72	309.39	12.36	-36.5	-38.0	16.2	0.00e+00	0	57	0	3102736384	42	4547
2026-01-03 16:09:16.75	309.88	12.20	-36.6	-38.0	16.1	0.00e+00	0	57	0	3124756480	42	4593
2026-01-03 16:09:19.78	310.37	12.05	-36.4	-37.8	16.3	0.00e+00	0	57	0	3146776576	42	4485
2026-01-03 16:09:22.82	310.85	11.89	-36.4	-37.8	16.3	0.00e+00	0	57	0	3168796672	42	4481
2026-01-03 16:09:25.84	311.32	11.73	-36.4	-37.8	16.2	0.00e+00	0	57	0	3190816768	42	4488
2026-01-03 16:09:28.87	311.80	11.57	-36.6	-38.0	16.1	0.00e+00	0	57	0	3212836864	42	4574
2026-01-03 16:09:31.90	312.26	11.41	-36.8	-38.2	15.8	0.00e+00	0	57	0	3234856960	43	4437
2026-01-03 16:09:34.94	312.73	11.25	-36.8	-38.2	15.8	0.00e+00	0	57	0	3255828480	43	4436
2026-01-03 16:09:37.97	313.18	11.09	-36.7	-38.2	15.8	0.00e+00	0	57	0	3277848576	43	4418
2026-01-03 16:09:41.00	313.63	10.93	-36.8	-38.2	15.8	0.00e+00	0	57	0	3299868672	43	4441
2026-01-03 16:09:44.03	314.08	10.76	-36.5	-37.9	16.1	0.00e+00	0	57	0	3321888768	43	4266
2026-01-03 16:09:47.05	314.52	10.60	-36.4	-37.8	16.2	0.00e+00	0	57	0	3343908864	43	4227
2026-01-03 16:09:50.08	314.96	10.44	-36.5	-37.9	16.1	0.00e+00	0	57	0	3365928960	43	4258
2026-01-03 16:09:53.11	315.39	10.27	-36.7	-38.2	15.8	0.00e+00	0	57	0	3387949056	43	4401
2026-01-03 16:09:56.14	315.82	10.11	-36.9	-38.5	15.5	0.00e+00	0	57	0	3408920576	43	4546
2026-01-03 16:09:59.17	316.24	9.95	-37.4	-38.9	15.2	0.00e+00	0	57	0	3430940672	44	4537
2026-01-03 16:10:02.20	316.66	9.78	-37.5	-39.1	15.1	0.00e+00	0	57	0	3452960768	44	4612
2026-01-03 16:10:05.22	317.08	9.62	-37.4	-39.0	15.1	0.00e+00	0	57	0	3474980864	44	4583
2026-01-03 16:10:08.25	317.49	9.45	-37.2	-38.7	15.4	0.00e+00	0	57	0	3497000960	44	4424
2026-01-03 16:10:11.28	317.89	9.29	-37.1	-38.6	15.5	0.00e+00	0	57	0	3519021056	44	4366
2026-01-03 16:10:14.31	318.29	9.12	-37.1	-38.6	15.5	0.00e+00	0	57	0	3541041152	44	4370
2026-01-03 16:10:17.34	318.69	8.96	-36.9	-38.4	15.6	0.00e+00	0	57	0	3562012672	44	4288
2026-01-03 16:10:20.37	319.08	8.79	-37.1	-38.6	15.5	0.00e+00	0	57	0	3584032768	44	4365
2026-01-03 16:10:23.40	319.47	8.63	-37.3	-38.8	15.2	0.00e+00	0	58	0	3606052864	44	4493
2026-01-03 16:10:26.43	319.85	8.46	-37.5	-39.2	14.9	0.00e+00	0	57	0	3628072960	44	4670
2026-01-03 16:10:29.46	320.23	8.30	-37.6	-39.3	14.7	0.00e+00	0	57	0	3650093056	44	4732
2026-01-03 16:10:32.49	320.61	8.13	-37.8	-39.6	14.4	0.00e+00	0	57	0	3672113152	45	4600
2026-01-03 16:10:35.52	320.98	7.97	-44.8	-55.6	3.8	8.46e-01	0	57	104	3686793216	59	13032
2026-01-03 16:10:38.55	321.35	7.80	-45.3	-56.4	3.8	8.46e-01	0	57	104	3686793216	60	13501
2026-01-03 16:10:41.58	321.71	7.64	-45.5	-56.6	3.8	8.46e-01	0	57	104	3686793216	60	13793
2026-01-03 16:10:44.62	322.07	7.47	-45.5	-56.6	3.8	8.46e-01	0	57	104	3686793216	60	13778
2026-01-03 16:10:47.65	322.43	7.31	-45.4	-56.5	3.8	8.46e-01	0	57	104	3686793216	60	13639
2026-01-03 16:10:50.68	322.78	7.14	-45.4	-56.5	3.8	8.47e-01	0	57	104	3686793216	60	13584
2026-01-03 16:10:53.71	323.13	6.98	-45.4	-56.5	3.8	8.46e-01	0	57	104	3686793216	60	13596
2026-01-03 16:10:56.75	323.47	6.81	-45.4	-56.5	3.8	8.45e-01	0	57	104	3686793216	60	13590
2026-01-03 16:10:59.78	323.81	6.65	-45.4	-56.5	3.8	8.47e-01	0	58	104	3686793216	60	13572
2026-01-03 16:11:02.81	324.15	6.49	-45.4	-56.5	3.8	8.47e-01	0	57	104	3686793216	60	13586
2026-01-03 16:11:05.84	324.48	6.32	-45.3	-56.4	3.8	8.47e-01	0	57	104	3686793216	60	13520
2026-01-03 16:11:08.87	324.81	6.16	-45.3	-56.5	3.8	8.46e-01	0	58	104	3686793216	60	13570
2026-01-03 16:11:11.91	325.14	6.00	-45.3	-56.5	3.8	8.47e-01	0	57	104	3686793216	60	13580
2026-01-03 16:11:14.94	325.46	5.83	-45.3	-56.4	3.8	8.46e-01	0	57	104	3686793216	60	13536
2026-01-03 16:11:17.97	325.78	5.67	-45.3	-56.4	3.8	8.46e-01	0	57	104	3686793216	60	13524
2026-01-03 16:11:21.01	326.10	5.51	-45.3	-56.4	3.8	8.47e-01	0	57	104	3686793216	60	13532
2026-01-03 16:11:24.04	326.41	5.35	-45.3	-56.4	3.8	8.46e-01	0	58	104	3686793216	60	13548
2026-01-03 16:11:27.07	326.72	5.19	-45.3	-56.4	3.8	8.47e-01	0	57	104	3686793216	60	13512
2026-01-03 16:11:30.10	327.03	5.03	-45.3	-56.4	3.8	8.46e-01	0	57	104	3686793216	60	13526
2026-01-03 16:11:33.14	327.33	4.86	-45.3	-56.4	3.8	8.46e-01	0	57	104	3686793216	60	13552
2026-01-03 16:11:36.17	327.63	4.70	-45.3	-56.4	3.8	8.46e-01	0	58	104	3686793216	60	13483
2026-01-03 16:11:39.20	327.93	4.54	-45.3	-56.4	3.8	8.46e-01	0	58	104	3686793216	60	13536
2026-01-03 16:11:42.24	328.22	4.38	-45.3	-56.4	3.8	8.45e-01	0	58	104	3686793216	60	13501
2026-01-03 16:11:45.27	328.51	4.22	-45.3	-56.4	3.8	8.46e-01	0	58	104	3686793216	60	13551
2026-01-03 16:11:48.30	328.80	4.07	-45.2	-56.4	3.8	8.45e-01	0	58	104	3686793216	60	13441
2026-01-03 16:11:51.34	329.09	3.91	-45.3	-56.4	3.8	8.47e-01	0	58	104	3686793216	60	13520
2026-01-03 16:11:54.37	329.37	3.75	-45.3	-56.4	3.8	8.47e-01	0	58	104	3686793216	60	13500
2026-01-03 16:11:57.40	329.65	3.59	-45.3	-56.4	3.8	8.46e-01	0	58	104	3686793216	60	13491
2026-01-03 16:12:00.41	329.92	3.43	-45.3	-56.4	3.8	8.46e-01	0	58	104	3686793216	60	13515
2026-01-03 16:12:03.44	330.20	3.28	-45.3	-56.4	3.8	8.47e-01	0	58	104	3686793216	60	13511
2026-01-03 16:12:06.48	330.47	3.12	-45.3	-56.4	3.8	8.46e-01	0	58	104	3686793216	60	13473
2026-01-03 16:12:09.51	330.73	2.96	-45.3	-56.4	3.8	8.46e-01	0	57	104	3686793216	60	13490
2026-01-03 16:12:12.54	331.00	2.81	-45.3	-56.4	3.8	8.46e-01	0	58	104	3686793216	60	13456
2026-01-03 16:12:15.58	331.26	2.65	-45.3	-56.4	3.8	8.47e-01	0	58	104	3686793216	60	13461
2026-01-03 16:12:18.61	331.52	2.50	-45.3	-56.4	3.8	8.46e-01	0	57	104	3686793216	60	13463
2026-01-03 16:12:21.64	331.78	2.34	-45.3	-56.4	3.8	8.47e-01	0	57	104	3686793216	60	13519
2026-01-03 16:12:24.68	332.04	2.19	-45.3	-56.4	3.8	8.46e-01	0	58	104	3686793216	60	13461
2026-01-03 16:12:27.71	332.29	2.03	-45.3	-56.4	3.8	8.47e-01	0	58	104	3686793216	60	13447
2026-01-03 16:12:30.74	332.54	1.88	-45.3	-56.4	3.8	8.47e-01	0	58	104	3686793216	60	13464

#Closed at: 2026-01-03 16:12:30
#Recorded file [3686 MB]: D:/lorett/data/31039_260103_190020.dat