passes_logs/2026/01/03/R2.0S_Moscow/R2.0S_Moscow__20260103_060823_FENGYUN_3E_rec.log

#Pass ID: 20260103_060823_FENGYUN 3E
#Satellite: FENGYUN 3E
#Configuration: FENGYUN 3E
#almurnet v.1.7.20251203
#Start time: 2026-01-03 06:08:23

#Version: 2.2.20231116
#Station: R2.0S_Moscow
#Location: 37.707566 lon 55.798166 lat
#TLE: 1 49008U 21062A   26002.32147302  .00000239  00000+0  13357-3 0  9999
#TLE: 2 49008  98.7477   7.5995 0001398 164.3382 195.7838 14.19884140233041

#Time	Az	El	Level	Level2	SNR	BER	BlckErr	Temp	State	Recorded	gain1	gain2
2026-01-03 06:08:23.95	8.73	2.04	-38.4	-50.7	3.8	8.46e-01	0	48	0	0	47	14868
2026-01-03 06:08:26.98	8.48	2.19	-38.4	-50.7	3.8	8.47e-01	0	48	104	0	46	15733
2026-01-03 06:08:30.01	8.23	2.35	-38.4	-50.8	3.8	8.47e-01	0	48	104	0	46	15773
2026-01-03 06:08:33.05	7.97	2.50	-38.3	-50.7	3.8	8.47e-01	0	48	104	0	46	15720
2026-01-03 06:08:36.08	7.71	2.66	-38.4	-50.7	3.8	8.46e-01	0	49	104	0	46	15758
2026-01-03 06:08:39.11	7.45	2.81	-38.4	-50.8	3.8	8.47e-01	0	49	104	0	46	15777
2026-01-03 06:08:42.15	7.18	2.97	-38.4	-50.7	3.8	8.46e-01	0	49	104	0	46	15740
2026-01-03 06:08:45.18	6.92	3.13	-38.4	-50.7	3.8	8.47e-01	0	49	104	0	46	15741
2026-01-03 06:08:48.21	6.64	3.28	-38.4	-50.7	3.8	8.46e-01	0	49	104	0	46	15743
2026-01-03 06:08:51.24	6.37	3.44	-38.3	-50.7	3.8	8.45e-01	0	50	104	0	46	15718
2026-01-03 06:08:54.27	6.09	3.60	-38.3	-50.8	3.8	8.46e-01	0	50	104	0	46	15783
2026-01-03 06:08:57.30	5.81	3.75	-38.3	-50.8	3.8	8.45e-01	0	50	104	0	46	15766
2026-01-03 06:09:00.34	5.53	3.91	-38.3	-50.8	3.8	8.47e-01	0	50	104	0	46	15771
2026-01-03 06:09:03.37	5.24	4.07	-38.3	-50.8	3.8	8.46e-01	0	50	104	0	46	15774
2026-01-03 06:09:06.40	4.95	4.23	-38.3	-50.8	3.8	8.47e-01	0	51	104	0	46	15765
2026-01-03 06:09:09.43	4.66	4.39	-38.3	-50.7	3.8	8.47e-01	0	51	104	0	46	15729
2026-01-03 06:09:12.47	4.36	4.55	-38.3	-50.7	3.8	8.46e-01	0	51	104	0	46	15711
2026-01-03 06:09:15.50	4.06	4.70	-38.4	-50.8	3.8	8.46e-01	0	51	104	0	46	15765
2026-01-03 06:09:18.53	3.76	4.86	-38.4	-50.7	3.8	8.48e-01	0	51	104	0	46	15702
2026-01-03 06:09:21.56	3.45	5.02	-38.3	-50.8	3.8	8.46e-01	0	51	104	0	46	15768
2026-01-03 06:09:24.60	3.14	5.18	-38.3	-50.8	3.8	8.46e-01	0	52	104	0	46	15782
2026-01-03 06:09:27.63	2.83	5.34	-38.3	-50.8	3.8	8.46e-01	0	52	104	0	46	15783
2026-01-03 06:09:30.66	2.51	5.50	-38.4	-50.7	3.8	8.46e-01	0	52	104	0	46	15693
2026-01-03 06:09:33.70	2.19	5.66	-38.3	-50.7	3.8	8.45e-01	0	52	104	0	46	15751
2026-01-03 06:09:36.73	1.87	5.82	-38.4	-50.7	3.8	8.46e-01	0	52	104	0	46	15726
2026-01-03 06:09:39.76	1.54	5.98	-38.3	-50.7	3.8	8.47e-01	0	53	104	0	46	15729
2026-01-03 06:09:42.80	1.20	6.14	-38.3	-50.7	3.8	8.46e-01	0	53	104	0	46	15725
2026-01-03 06:09:45.83	0.87	6.30	-38.3	-50.7	3.8	8.47e-01	0	53	104	0	46	15744
2026-01-03 06:09:48.86	0.53	6.46	-38.4	-50.7	3.8	8.47e-01	0	53	104	0	46	15755
2026-01-03 06:09:51.90	0.18	6.62	-38.4	-50.7	3.8	8.47e-01	0	53	104	0	46	15703
2026-01-03 06:09:54.93	359.84	6.78	-38.3	-50.7	3.8	8.45e-01	0	53	104	0	46	15729
2026-01-03 06:09:57.96	359.49	6.94	-38.4	-50.7	3.8	8.45e-01	0	53	104	0	46	15724
2026-01-03 06:10:00.99	359.13	7.10	-38.3	-50.7	3.8	8.46e-01	0	53	104	0	46	15727
2026-01-03 06:10:04.03	358.77	7.26	-38.4	-50.8	3.8	8.46e-01	0	53	104	0	46	15762
2026-01-03 06:10:07.06	358.41	7.42	-38.3	-50.8	3.8	8.46e-01	0	53	104	0	46	15764
2026-01-03 06:10:10.09	358.04	7.58	-38.3	-50.7	3.8	8.45e-01	0	53	104	0	46	15711
2026-01-03 06:10:13.13	357.67	7.75	-38.3	-50.7	3.8	8.45e-01	0	54	104	0	46	15745
2026-01-03 06:10:16.16	357.29	7.90	-38.3	-50.7	3.8	8.47e-01	0	54	104	0	46	15669
2026-01-03 06:10:19.19	356.91	8.06	-39.5	-51.0	3.8	8.46e-01	0	54	104	0	48	14449
2026-01-03 06:10:22.22	356.52	8.22	-39.5	-51.0	3.8	8.45e-01	0	54	104	0	48	14529
2026-01-03 06:10:25.25	356.14	8.38	-39.9	-51.1	3.8	8.47e-01	0	54	104	0	49	13832
2026-01-03 06:10:28.28	355.74	8.54	-40.3	-51.3	3.8	8.45e-01	0	54	104	0	50	13378
2026-01-03 06:10:31.31	355.34	8.70	-40.4	-51.3	3.8	8.45e-01	0	54	104	0	50	13399
2026-01-03 06:10:34.34	354.94	8.86	-40.4	-51.2	3.8	8.46e-01	0	54	104	0	50	13225
2026-01-03 06:10:37.37	354.54	9.02	-40.2	-51.2	3.8	8.46e-01	0	55	104	0	50	13225
2026-01-03 06:10:40.40	354.12	9.17	-40.2	-51.1	3.8	8.46e-01	0	55	104	0	50	13084
2026-01-03 06:10:43.43	353.71	9.33	-40.3	-51.2	3.8	8.46e-01	0	54	104	0	50	13227
2026-01-03 06:10:46.46	353.29	9.49	-40.4	-51.4	3.8	8.45e-01	0	55	104	0	51	12681
2026-01-03 06:10:49.49	352.86	9.64	-40.9	-51.8	3.8	8.47e-01	0	55	104	0	51	13336
2026-01-03 06:10:52.51	352.43	9.80	-40.9	-51.8	3.8	8.46e-01	0	55	104	0	51	13367
2026-01-03 06:10:55.55	352.00	9.95	-40.8	-51.7	3.8	8.46e-01	0	55	104	0	51	13216
2026-01-03 06:10:58.58	351.56	10.11	-40.7	-51.5	3.8	8.46e-01	0	55	104	0	51	12930
2026-01-03 06:11:01.61	351.12	10.26	-40.5	-51.4	3.8	8.46e-01	0	55	104	0	51	12737
2026-01-03 06:11:04.64	350.67	10.41	-40.6	-51.6	3.8	8.46e-01	0	55	104	0	52	12322
2026-01-03 06:11:07.67	350.21	10.56	-41.0	-52.2	3.8	8.47e-01	0	55	104	0	52	13170
2026-01-03 06:11:10.70	349.75	10.71	-40.7	-51.7	3.8	8.46e-01	0	55	104	0	51	13156
2026-01-03 06:11:13.72	349.29	10.86	-40.8	-51.8	3.8	8.46e-01	0	55	104	0	51	13348
2026-01-03 06:11:16.76	348.82	11.01	-41.2	-52.0	3.8	8.46e-01	0	55	104	0	52	12951
2026-01-03 06:11:19.79	348.35	11.16	-41.4	-52.3	3.8	8.45e-01	0	55	104	0	52	13406
2026-01-03 06:11:22.82	347.87	11.31	-41.4	-52.3	3.8	8.45e-01	0	55	104	0	52	13389
2026-01-03 06:11:25.84	347.39	11.46	-41.5	-52.6	3.8	8.47e-01	0	56	104	0	52	13734
2026-01-03 06:11:28.87	346.90	11.60	-41.4	-52.4	3.8	8.46e-01	0	56	104	0	52	13485
2026-01-03 06:11:31.90	346.41	11.74	-41.4	-52.4	3.8	8.47e-01	0	56	104	0	52	13495
2026-01-03 06:11:34.93	345.91	11.89	-41.5	-52.6	3.8	8.47e-01	0	56	104	0	52	13746
2026-01-03 06:11:37.96	345.41	12.03	-41.0	-51.8	3.8	8.46e-01	0	56	104	0	52	12648
2026-01-03 06:11:41.00	344.90	12.17	-41.0	-51.9	3.8	8.45e-01	0	56	104	0	52	12721
2026-01-03 06:11:44.02	344.39	12.31	-40.9	-51.8	3.8	8.47e-01	0	56	104	0	52	12534
2026-01-03 06:11:47.05	343.87	12.44	-41.0	-52.0	3.8	8.45e-01	0	56	104	0	52	12849
2026-01-03 06:11:50.08	343.35	12.58	-40.9	-51.9	3.8	8.46e-01	0	56	104	0	52	12706
2026-01-03 06:11:53.11	342.82	12.71	-40.8	-51.8	3.8	8.48e-01	0	56	104	0	52	12530
2026-01-03 06:11:56.14	342.29	12.84	-41.2	-52.0	3.8	8.46e-01	0	56	104	0	52	12943
2026-01-03 06:11:59.17	341.76	12.97	-41.0	-51.9	3.8	8.46e-01	0	56	104	0	51	13511
2026-01-03 06:12:02.17	341.22	13.10	-40.5	-51.6	3.8	8.46e-01	0	56	104	0	51	13053
2026-01-03 06:12:05.20	340.67	13.23	-40.7	-51.5	3.8	8.46e-01	0	56	104	0	51	12864
2026-01-03 06:12:08.23	340.12	13.35	-40.9	-48.3	4.5	8.32e-01	0	56	104	0	51	8866
2026-01-03 06:12:11.26	339.57	13.48	-39.9	-43.6	8.6	6.05e-02	0	56	0	11534336	50	5470
2026-01-03 06:12:14.29	339.00	13.60	-36.8	-38.4	14.8	2.20e-06	0	56	0	33554432	44	4277
2026-01-03 06:12:17.32	338.44	13.71	-33.9	-35.0	18.8	0.00e+00	0	56	0	55574528	38	4082
2026-01-03 06:12:20.35	337.87	13.83	-34.7	-35.8	18.5	0.00e+00	0	56	0	77594624	38	4474
2026-01-03 06:12:23.39	337.29	13.95	-34.5	-35.6	18.8	0.00e+00	0	56	0	99614720	39	4126
2026-01-03 06:12:26.41	336.72	14.06	-34.4	-35.6	18.9	0.00e+00	0	56	0	121634816	39	4102
2026-01-03 06:12:29.44	336.13	14.17	-34.4	-35.5	19.0	0.00e+00	0	57	0	142606336	39	4092
2026-01-03 06:12:32.47	335.55	14.27	-34.3	-35.4	19.1	0.00e+00	0	56	0	164626432	39	4044
2026-01-03 06:12:35.50	334.95	14.38	-34.3	-35.4	19.1	0.00e+00	0	56	0	186646528	39	4035
2026-01-03 06:12:38.53	334.36	14.48	-34.3	-35.4	19.1	0.00e+00	0	56	0	208666624	39	4028
2026-01-03 06:12:41.56	333.76	14.58	-34.3	-35.4	19.2	0.00e+00	0	57	0	230686720	39	4016
2026-01-03 06:12:44.59	333.15	14.67	-34.3	-35.4	19.1	0.00e+00	0	56	0	252706816	39	4035
2026-01-03 06:12:47.62	332.55	14.77	-34.2	-35.3	19.3	0.00e+00	0	56	0	274726912	39	3973
2026-01-03 06:12:50.65	331.93	14.86	-34.1	-35.2	19.3	0.00e+00	0	56	0	295698432	39	3936
2026-01-03 06:12:53.67	331.32	14.94	-34.1	-35.2	19.3	0.00e+00	0	57	0	317718528	39	3939
2026-01-03 06:12:56.70	330.70	15.03	-34.1	-35.2	19.4	0.00e+00	0	56	0	339738624	39	3923
2026-01-03 06:12:59.73	330.08	15.11	-34.1	-35.2	19.4	0.00e+00	0	57	0	361758720	39	3926
2026-01-03 06:13:02.76	329.45	15.19	-34.0	-35.1	19.5	0.00e+00	0	57	0	383778816	39	3891
2026-01-03 06:13:05.79	328.82	15.26	-33.8	-34.8	19.8	0.00e+00	0	57	0	405798912	38	3978
2026-01-03 06:13:08.81	328.19	15.33	-33.6	-34.6	20.0	0.00e+00	0	56	0	427819008	38	3904
2026-01-03 06:13:11.84	327.56	15.40	-33.6	-34.7	19.9	0.00e+00	0	57	0	448790528	38	3922
2026-01-03 06:13:14.87	326.92	15.46	-33.7	-34.7	19.9	0.00e+00	0	57	0	470810624	38	3956
2026-01-03 06:13:17.91	326.27	15.53	-33.8	-34.9	19.8	0.00e+00	0	57	0	492830720	38	4016
2026-01-03 06:13:20.94	325.63	15.58	-33.8	-34.9	19.8	0.00e+00	0	57	0	514850816	38	4019
2026-01-03 06:13:23.97	324.98	15.64	-33.7	-34.7	19.9	0.00e+00	0	57	0	536870912	38	3944
2026-01-03 06:13:27.00	324.33	15.69	-33.5	-34.5	20.1	0.00e+00	0	57	0	558891008	37	4081
2026-01-03 06:13:30.03	323.68	15.74	-33.4	-34.4	20.2	0.00e+00	0	57	0	580911104	37	4010
2026-01-03 06:13:33.06	323.03	15.78	-33.4	-34.4	20.3	0.00e+00	0	57	0	602931200	37	4005
2026-01-03 06:13:36.09	322.37	15.82	-33.5	-34.6	20.1	0.00e+00	0	57	0	623902720	37	4106
2026-01-03 06:13:39.13	321.72	15.85	-33.7	-34.7	19.9	0.00e+00	0	57	0	645922816	37	4158
2026-01-03 06:13:42.16	321.06	15.89	-33.5	-34.5	20.1	0.00e+00	0	57	0	667942912	37	4092
2026-01-03 06:13:45.19	320.40	15.92	-33.4	-34.4	20.2	0.00e+00	0	57	0	689963008	37	4036
2026-01-03 06:13:48.22	319.74	15.94	-33.4	-34.4	20.2	0.00e+00	0	57	0	711983104	37	4025
2026-01-03 06:13:51.25	319.07	15.96	-33.4	-34.3	20.3	0.00e+00	0	57	0	732954624	37	4004
2026-01-03 06:13:54.28	318.41	15.98	-33.3	-34.3	20.3	0.00e+00	0	57	0	754974720	37	3994
2026-01-03 06:13:57.31	317.75	15.99	-33.3	-34.3	20.3	0.00e+00	0	57	0	776994816	37	3969
2026-01-03 06:14:00.34	317.08	16.00	-33.4	-34.4	20.2	0.00e+00	0	57	0	799014912	37	4051
2026-01-03 06:14:03.36	316.42	16.01	-33.6	-34.6	20.0	0.00e+00	0	57	0	821035008	37	4140
2026-01-03 06:14:06.39	315.76	16.01	-33.7	-34.8	19.9	0.00e+00	0	57	0	843055104	37	4208
2026-01-03 06:14:09.42	315.09	16.00	-33.7	-34.7	19.9	0.00e+00	0	57	0	865075200	37	4186
2026-01-03 06:14:12.44	314.43	16.00	-33.8	-34.8	19.8	0.00e+00	0	57	0	886046720	37	4242
2026-01-03 06:14:15.47	313.77	15.99	-33.8	-34.9	19.8	0.00e+00	0	57	0	908066816	37	4254
2026-01-03 06:14:18.50	313.10	15.97	-33.7	-34.7	19.9	0.00e+00	0	57	0	930086912	37	4181
2026-01-03 06:14:21.53	312.44	15.96	-33.4	-34.4	20.2	0.00e+00	0	57	0	952107008	37	4041
2026-01-03 06:14:24.56	311.78	15.93	-33.4	-34.4	20.2	0.00e+00	0	57	0	974127104	37	4018
2026-01-03 06:14:27.59	311.12	15.91	-33.5	-34.5	20.1	0.00e+00	0	57	0	996147200	37	4061
2026-01-03 06:14:30.61	310.46	15.88	-33.5	-34.5	20.1	0.00e+00	0	57	0	1018167296	37	4079
2026-01-03 06:14:33.64	309.80	15.85	-33.3	-34.3	20.3	0.00e+00	0	57	0	1039138816	37	3999
2026-01-03 06:14:36.67	309.14	15.81	-33.3	-34.3	20.4	0.00e+00	0	57	0	1061158912	37	3965
2026-01-03 06:14:39.70	308.49	15.77	-33.3	-34.3	20.4	0.00e+00	0	57	0	1083179008	37	3961
2026-01-03 06:14:42.73	307.84	15.72	-33.4	-34.5	20.2	0.00e+00	0	57	0	1105199104	37	4059
2026-01-03 06:14:45.76	307.18	15.68	-33.6	-34.7	20.0	0.00e+00	0	57	0	1127219200	37	4153
2026-01-03 06:14:48.79	306.53	15.62	-33.6	-34.7	20.0	0.00e+00	0	57	0	1149239296	37	4150
2026-01-03 06:14:51.82	305.89	15.57	-33.6	-34.6	20.0	0.00e+00	0	57	0	1171259392	37	4114
2026-01-03 06:14:54.85	305.24	15.51	-33.5	-34.5	20.1	0.00e+00	0	57	0	1192230912	37	4084
2026-01-03 06:14:57.88	304.60	15.45	-33.6	-34.7	20.0	0.00e+00	0	57	0	1214251008	37	4147
2026-01-03 06:15:00.91	303.96	15.38	-33.7	-34.7	19.9	0.00e+00	0	57	0	1236271104	37	4163
2026-01-03 06:15:03.94	303.33	15.31	-33.6	-34.6	20.0	0.00e+00	0	57	0	1258291200	37	4122
2026-01-03 06:15:06.98	302.69	15.24	-33.7	-34.7	19.9	0.00e+00	0	57	0	1280311296	37	4159
2026-01-03 06:15:10.01	302.06	15.16	-33.7	-34.8	19.8	0.00e+00	0	57	0	1302331392	37	4195
2026-01-03 06:15:13.04	301.43	15.09	-33.7	-34.7	19.8	0.00e+00	0	57	0	1324351488	37	4187
2026-01-03 06:15:16.07	300.81	15.00	-33.8	-34.8	19.7	0.00e+00	0	57	0	1346371584	37	4240
2026-01-03 06:15:19.10	300.19	14.92	-33.7	-34.7	19.8	0.00e+00	0	57	0	1367343104	37	4173
2026-01-03 06:15:22.12	299.57	14.83	-33.6	-34.6	20.0	0.00e+00	0	57	0	1389363200	37	4118
2026-01-03 06:15:25.15	298.96	14.74	-33.6	-34.7	19.8	0.00e+00	0	57	0	1411383296	37	4146
2026-01-03 06:15:28.18	298.35	14.65	-33.9	-35.0	19.5	0.00e+00	0	57	0	1433403392	37	4301
2026-01-03 06:15:31.21	297.75	14.55	-34.0	-35.1	19.5	0.00e+00	0	58	0	1455423488	37	4341
2026-01-03 06:15:34.23	297.15	14.45	-33.8	-34.9	19.6	0.00e+00	0	57	0	1477443584	37	4249
2026-01-03 06:15:37.26	296.55	14.35	-33.8	-34.8	19.7	0.00e+00	0	57	0	1499463680	37	4240
2026-01-03 06:15:40.29	295.96	14.24	-34.0	-35.1	19.4	0.00e+00	0	57	0	1520435200	37	4351
2026-01-03 06:15:43.32	295.37	14.13	-34.0	-35.1	19.3	0.00e+00	0	57	0	1542455296	37	4373
2026-01-03 06:15:46.35	294.79	14.02	-34.0	-35.0	19.4	0.00e+00	0	57	0	1564475392	37	4331
2026-01-03 06:15:49.37	294.21	13.91	-33.6	-34.7	19.7	0.00e+00	0	57	0	1586495488	37	4161
2026-01-03 06:15:52.40	293.63	13.80	-33.5	-34.6	19.7	0.00e+00	0	57	0	1608515584	37	4110
2026-01-03 06:15:55.43	293.06	13.68	-33.8	-34.8	19.5	0.00e+00	0	57	0	1629487104	37	4224
2026-01-03 06:15:58.46	292.50	13.56	-34.0	-35.1	19.2	0.00e+00	0	57	0	1651507200	37	4348
2026-01-03 06:16:01.49	291.93	13.44	-34.0	-35.1	19.0	0.00e+00	0	57	0	1673527296	37	4385
2026-01-03 06:16:04.52	291.38	13.32	-34.0	-35.1	19.1	0.00e+00	0	57	0	1695547392	37	4353
2026-01-03 06:16:07.55	290.82	13.19	-34.0	-35.1	19.1	0.00e+00	0	57	0	1717567488	37	4350
2026-01-03 06:16:10.58	290.28	13.06	-34.0	-35.2	18.9	0.00e+00	0	57	0	1739587584	37	4396
2026-01-03 06:16:13.61	289.73	12.93	-34.2	-35.3	18.7	0.00e+00	0	57	0	1761607680	38	4234
2026-01-03 06:16:16.64	289.20	12.80	-34.4	-35.6	18.4	0.00e+00	0	57	0	1782579200	38	4353
2026-01-03 06:16:19.67	288.66	12.67	-34.8	-36.0	17.8	0.00e+00	0	57	0	1804599296	39	4308
2026-01-03 06:16:22.70	288.13	12.53	-35.2	-36.5	16.9	0.00e+00	0	57	0	1826619392	40	4337
2026-01-03 06:16:25.74	287.61	12.40	-35.7	-37.2	16.1	0.00e+00	0	57	0	1848639488	41	4418
2026-01-03 06:16:28.77	287.09	12.26	-36.3	-38.0	14.9	0.00e+00	0	57	0	1870659584	42	4565
2026-01-03 06:16:31.80	286.58	12.12	-36.7	-38.6	14.1	3.40e-06	0	57	0	1892679680	43	4602
2026-01-03 06:16:34.83	286.07	11.98	-36.9	-38.8	13.9	0.00e+00	0	57	0	1914699776	43	4715
2026-01-03 06:16:37.85	285.57	11.84	-37.1	-38.9	14.1	3.40e-06	0	57	0	1935671296	43	4796
2026-01-03 06:16:40.89	285.06	11.69	-37.4	-39.2	13.9	3.40e-06	0	57	0	1957691392	44	4692
2026-01-03 06:16:43.91	284.57	11.55	-37.2	-39.0	14.2	6.80e-06	0	57	0	1979711488	44	4585
2026-01-03 06:16:46.94	284.08	11.40	-36.8	-38.4	15.1	2.20e-06	0	57	0	2001731584	44	4253
2026-01-03 06:16:49.98	283.60	11.26	-36.5	-38.0	16.0	0.00e+00	0	57	0	2023751680	44	4077
2026-01-03 06:16:53.01	283.12	11.11	-35.5	-36.8	17.0	0.00e+00	0	57	0	2045771776	42	3991
2026-01-03 06:16:56.03	282.65	10.96	-34.7	-35.9	18.0	0.00e+00	0	58	0	2067791872	40	4031
2026-01-03 06:16:59.06	282.18	10.81	-34.4	-35.5	18.3	0.00e+00	0	57	0	2089811968	39	4097
2026-01-03 06:17:02.08	281.71	10.66	-34.3	-35.4	18.6	0.00e+00	0	57	0	2110783488	39	4026
2026-01-03 06:17:05.12	281.25	10.51	-34.6	-35.8	18.1	0.00e+00	0	57	0	2132803584	39	4217
2026-01-03 06:17:08.15	280.80	10.36	-35.1	-36.4	17.5	0.00e+00	0	57	0	2154823680	39	4525
2026-01-03 06:17:11.18	280.35	10.20	-35.5	-36.8	16.8	0.00e+00	0	57	0	2176843776	40	4485
2026-01-03 06:17:14.20	279.90	10.05	-35.8	-37.2	16.3	0.00e+00	0	57	0	2198863872	41	4401
2026-01-03 06:17:17.23	279.46	9.89	-36.2	-37.8	15.5	0.00e+00	0	57	0	2220883968	42	4443
2026-01-03 06:17:20.26	279.02	9.74	-36.9	-38.6	14.2	3.40e-06	0	57	0	2242904064	43	4650
2026-01-03 06:17:23.29	278.59	9.58	-37.7	-39.8	12.9	7.09e-05	0	57	0	2263875584	45	4753
2026-01-03 06:17:26.32	278.17	9.43	-38.4	-41.0	11.3	1.21e-03	0	58	0	2285895680	46	5145
2026-01-03 06:17:29.35	277.74	9.27	-39.1	-42.4	9.4	1.34e-02	0	57	0	2307915776	47	5711
2026-01-03 06:17:32.38	277.33	9.11	-39.7	-43.9	7.7	9.20e-02	0	58	0	2329935872	48	6405
2026-01-03 06:17:35.41	276.91	8.95	-40.1	-45.6	5.9	3.26e-01	0	57	0	2351955968	49	7290
2026-01-03 06:17:38.44	276.50	8.80	-40.3	-46.8	5.0	7.60e-01	0	58	0	2360344576	50	7947
2026-01-03 06:17:41.47	276.10	8.64	-40.4	-47.8	4.4	8.24e-01	0	58	0	2361393152	50	8933
2026-01-03 06:17:44.50	275.70	8.48	-40.4	-48.8	4.1	8.40e-01	0	58	0	2361393152	50	9988
2026-01-03 06:17:47.53	275.31	8.32	-40.5	-49.6	3.8	8.45e-01	0	57	104	2361393152	50	10940
2026-01-03 06:17:50.56	274.92	8.16	-40.5	-50.2	3.8	8.45e-01	0	57	104	2361393152	50	11785
2026-01-03 06:17:53.59	274.53	8.00	-41.2	-51.4	3.8	8.46e-01	0	57	104	2361393152	51	12787
2026-01-03 06:17:56.62	274.15	7.84	-45.3	-56.6	3.8	8.46e-01	0	58	104	2361393152	60	13864
2026-01-03 06:17:59.65	273.77	7.68	-45.5	-56.8	3.8	8.45e-01	0	58	104	2361393152	60	14142
2026-01-03 06:18:02.68	273.40	7.52	-45.6	-56.8	3.8	8.46e-01	0	58	104	2361393152	60	14194
2026-01-03 06:18:05.72	273.02	7.36	-45.5	-56.8	3.8	8.47e-01	0	58	104	2361393152	60	14125
2026-01-03 06:18:08.75	272.66	7.20	-45.5	-56.8	3.8	8.46e-01	0	58	104	2361393152	60	14083
2026-01-03 06:18:11.78	272.30	7.04	-45.5	-56.8	3.8	8.46e-01	0	58	104	2361393152	60	14106
2026-01-03 06:18:14.82	271.94	6.87	-45.5	-56.8	3.8	8.44e-01	0	58	104	2361393152	60	14106
2026-01-03 06:18:17.85	271.59	6.71	-45.5	-56.8	3.8	8.46e-01	0	57	104	2361393152	60	14101
2026-01-03 06:18:20.89	271.24	6.55	-45.5	-56.8	3.8	8.46e-01	0	58	104	2361393152	60	14051
2026-01-03 06:18:23.92	270.89	6.39	-45.5	-56.8	3.8	8.45e-01	0	58	104	2361393152	60	14073
2026-01-03 06:18:26.95	270.55	6.23	-45.5	-56.7	3.8	8.46e-01	0	58	104	2361393152	60	14033
2026-01-03 06:18:29.98	270.21	6.07	-45.5	-56.8	3.8	8.46e-01	0	58	104	2361393152	60	14052
2026-01-03 06:18:33.02	269.88	5.91	-45.5	-56.7	3.8	8.47e-01	0	58	104	2361393152	60	14020
2026-01-03 06:18:36.05	269.55	5.75	-45.5	-56.8	3.8	8.46e-01	0	58	104	2361393152	60	14071
2026-01-03 06:18:39.09	269.22	5.59	-45.5	-56.8	3.8	8.46e-01	0	58	104	2361393152	60	14096
2026-01-03 06:18:42.12	268.89	5.43	-45.5	-56.7	3.8	8.45e-01	0	58	104	2361393152	60	14033
2026-01-03 06:18:45.15	268.58	5.27	-45.5	-56.7	3.8	8.47e-01	0	57	104	2361393152	60	14042
2026-01-03 06:18:48.18	268.26	5.11	-45.4	-56.7	3.8	8.45e-01	0	58	104	2361393152	60	14023
2026-01-03 06:18:51.22	267.95	4.95	-45.4	-56.7	3.8	8.47e-01	0	58	104	2361393152	60	14016
2026-01-03 06:18:54.25	267.64	4.79	-45.4	-56.8	3.8	8.47e-01	0	58	104	2361393152	60	14060
2026-01-03 06:18:57.28	267.33	4.63	-45.4	-56.7	3.8	8.46e-01	0	58	104	2361393152	60	14020
2026-01-03 06:19:00.32	267.03	4.47	-45.4	-56.7	3.8	8.46e-01	0	58	104	2361393152	60	14044
2026-01-03 06:19:03.35	266.73	4.31	-45.4	-56.7	3.8	8.45e-01	0	58	104	2361393152	60	13964
2026-01-03 06:19:06.38	266.44	4.15	-45.4	-56.7	3.8	8.46e-01	0	58	104	2361393152	60	14006
2026-01-03 06:19:09.42	266.14	3.99	-45.4	-56.7	3.8	8.46e-01	0	58	104	2361393152	60	13981
2026-01-03 06:19:12.45	265.85	3.83	-45.4	-56.7	3.8	8.46e-01	0	58	104	2361393152	60	14023
2026-01-03 06:19:15.48	265.57	3.68	-45.4	-56.7	3.8	8.46e-01	0	58	104	2361393152	60	13962
2026-01-03 06:19:18.51	265.29	3.52	-45.4	-56.7	3.8	8.46e-01	0	58	104	2361393152	60	14029
2026-01-03 06:19:21.55	265.01	3.36	-45.4	-56.8	3.8	8.44e-01	0	58	104	2361393152	60	14058
2026-01-03 06:19:24.58	264.73	3.20	-45.4	-56.7	3.8	8.46e-01	0	58	104	2361393152	60	13911
2026-01-03 06:19:27.61	264.46	3.05	-45.4	-56.7	3.8	8.46e-01	0	58	104	2361393152	60	14044
2026-01-03 06:19:30.65	264.18	2.89	-45.4	-56.7	3.8	8.46e-01	0	58	104	2361393152	60	13962
2026-01-03 06:19:33.68	263.92	2.73	-45.4	-56.7	3.8	8.47e-01	0	58	104	2361393152	60	14000
2026-01-03 06:19:36.71	263.65	2.58	-45.4	-56.7	3.8	8.46e-01	0	58	104	2361393152	60	14025
2026-01-03 06:19:39.75	263.39	2.42	-45.4	-56.7	3.8	8.45e-01	0	58	104	2361393152	60	13991
2026-01-03 06:19:42.78	263.13	2.26	-45.4	-56.7	3.8	8.46e-01	0	58	104	2361393152	60	13952
2026-01-03 06:19:45.81	262.88	2.11	-45.4	-56.7	3.8	8.45e-01	0	58	104	2361393152	60	14026
2026-01-03 06:19:48.85	262.62	1.95	-45.4	-56.7	3.8	8.47e-01	0	58	104	2361393152	60	14002

#Closed at: 2026-01-03 06:19:49
#Recorded file [2361 MB]: D:/lorett/data/31039_260103_090823.dat