passes_logs/2026/01/03/R2.0S_Moscow/R2.0S_Moscow__20260103_021342_FENGYUN_3G_rec.log

#Pass ID: 20260103_021342_FENGYUN 3G
#Satellite: FENGYUN 3G
#Configuration: FENGYUN 3G
#almurnet v.1.7.20251203
#Start time: 2026-01-03 02:13:43

#Version: 2.2.20231116
#Station: R2.0S_Moscow
#Location: 37.707566 lon 55.798166 lat
#TLE: 1 56232U 23055A   26002.31058000  .00046172  00000+0  73618-3 0  9997
#TLE: 2 56232  49.9934 121.3649 0004156 328.0230  32.0484 15.52711916154221

#Time	Az	El	Level	Level2	SNR	BER	BlckErr	Temp	State	Recorded	gain1	gain2
2026-01-03 02:13:43.86	212.68	2.11	-44.2	-62.3	3.8	8.47e-01	0	48	0	0	60	28314
2026-01-03 02:13:45.87	212.47	2.23	-44.2	-62.3	3.8	8.46e-01	0	48	104	0	60	28348
2026-01-03 02:13:47.89	212.25	2.35	-44.2	-62.3	3.8	8.48e-01	0	48	104	0	60	28268
2026-01-03 02:13:49.91	212.04	2.47	-44.2	-62.3	3.8	8.45e-01	0	48	104	0	60	28279
2026-01-03 02:13:51.94	211.81	2.59	-44.2	-62.3	3.8	8.43e-01	0	48	104	0	60	28316
2026-01-03 02:13:53.96	211.59	2.71	-44.2	-62.3	3.8	8.46e-01	0	48	104	0	60	28298
2026-01-03 02:13:55.98	211.36	2.83	-44.2	-62.3	3.8	8.46e-01	0	48	104	0	60	28254
2026-01-03 02:13:58.00	211.13	2.96	-44.2	-62.3	3.8	8.45e-01	0	49	104	0	60	28310
2026-01-03 02:14:00.02	210.90	3.08	-44.2	-62.4	3.8	8.45e-01	0	49	104	0	60	28396
2026-01-03 02:14:02.04	210.67	3.20	-44.2	-62.4	3.8	8.47e-01	0	49	104	0	60	28376
2026-01-03 02:14:04.06	210.43	3.33	-44.2	-62.3	3.8	8.45e-01	0	49	104	0	60	28324
2026-01-03 02:14:06.09	210.19	3.45	-44.2	-62.3	3.8	8.46e-01	0	49	104	0	60	28274
2026-01-03 02:14:08.11	209.94	3.58	-44.2	-62.4	3.8	8.46e-01	0	49	104	0	60	28362
2026-01-03 02:14:10.13	209.70	3.70	-44.2	-62.3	3.8	8.46e-01	0	49	104	0	60	28312
2026-01-03 02:14:12.15	209.45	3.83	-44.2	-62.4	3.8	8.46e-01	0	49	104	0	60	28393
2026-01-03 02:14:14.17	209.19	3.95	-44.2	-62.3	3.8	8.46e-01	0	50	104	0	60	28298
2026-01-03 02:14:16.19	208.94	4.08	-44.2	-62.3	3.8	8.46e-01	0	50	104	0	60	28216
2026-01-03 02:14:18.21	208.68	4.21	-44.2	-62.3	3.8	8.47e-01	0	50	104	0	60	28335
2026-01-03 02:14:20.24	208.42	4.34	-44.2	-62.3	3.8	8.45e-01	0	50	104	0	60	28269
2026-01-03 02:14:22.26	208.15	4.46	-44.2	-62.3	3.8	8.46e-01	0	50	104	0	60	28195
2026-01-03 02:14:24.28	207.88	4.59	-44.2	-62.3	3.8	8.47e-01	0	50	104	0	60	28211
2026-01-03 02:14:26.30	207.61	4.72	-44.2	-62.3	3.8	8.47e-01	0	50	104	0	60	28162
2026-01-03 02:14:28.32	207.33	4.85	-44.2	-62.3	3.8	8.47e-01	0	50	104	0	60	28130
2026-01-03 02:14:30.34	207.05	4.98	-44.2	-62.3	3.8	8.46e-01	0	51	104	0	60	28098
2026-01-03 02:14:32.37	206.77	5.11	-44.2	-62.3	3.8	8.46e-01	0	50	104	0	60	28254
2026-01-03 02:14:34.39	206.48	5.24	-44.2	-62.3	3.8	8.46e-01	0	51	104	0	60	28088
2026-01-03 02:14:36.41	206.19	5.38	-44.2	-62.1	3.8	8.47e-01	0	51	104	0	60	27580
2026-01-03 02:14:38.43	205.90	5.51	-44.1	-61.7	3.8	8.46e-01	0	51	104	0	60	26350
2026-01-03 02:14:40.46	205.60	5.64	-44.1	-61.4	3.8	8.47e-01	0	51	104	0	60	25416
2026-01-03 02:14:42.48	205.30	5.77	-44.2	-61.6	3.8	8.45e-01	0	51	104	0	60	26038
2026-01-03 02:14:44.50	204.99	5.91	-44.1	-61.9	3.8	8.46e-01	0	51	104	0	60	27042
2026-01-03 02:14:46.52	204.68	6.04	-44.2	-62.2	3.8	8.46e-01	0	51	104	0	60	27879
2026-01-03 02:14:48.54	204.37	6.18	-44.2	-62.2	3.8	8.47e-01	0	51	104	0	60	27818
2026-01-03 02:14:50.57	204.05	6.31	-44.1	-61.8	3.8	8.46e-01	0	51	104	0	60	26679
2026-01-03 02:14:52.59	203.73	6.45	-44.1	-61.2	3.8	8.46e-01	0	52	104	0	60	24699
2026-01-03 02:14:54.61	203.40	6.58	-44.1	-61.1	3.8	8.46e-01	0	52	104	0	60	24664
2026-01-03 02:14:56.63	203.07	6.72	-44.1	-61.6	3.8	8.46e-01	0	52	104	0	60	26078
2026-01-03 02:14:58.65	202.74	6.85	-44.2	-62.2	3.8	8.46e-01	0	52	104	0	60	27883
2026-01-03 02:15:00.67	202.40	6.99	-44.1	-61.6	3.8	8.45e-01	0	52	104	0	60	26094
2026-01-03 02:15:02.70	202.05	7.13	-44.1	-60.3	3.8	8.46e-01	0	52	104	0	60	22429
2026-01-03 02:15:04.72	201.71	7.27	-44.1	-59.5	3.9	8.44e-01	0	52	104	0	60	20393
2026-01-03 02:15:06.74	201.35	7.40	-44.1	-61.1	3.8	8.42e-01	0	52	104	0	60	24547
2026-01-03 02:15:08.76	201.00	7.54	-44.1	-58.7	4.0	8.46e-01	0	52	104	0	60	18555
2026-01-03 02:15:10.78	200.63	7.68	-42.9	-49.3	11.7	6.01e-01	0	52	0	1572864	57	7521
2026-01-03 02:15:12.81	200.27	7.82	-40.3	-43.6	17.5	3.40e-06	0	52	0	3670016	52	5182
2026-01-03 02:15:14.83	199.89	7.96	-38.3	-40.6	20.5	0.00e+00	0	52	0	5767168	48	4646
2026-01-03 02:15:16.85	199.52	8.10	-41.7	-46.1	15.6	0.00e+00	0	53	0	8388608	53	6526
2026-01-03 02:15:18.87	199.14	8.24	-42.7	-49.1	13.4	0.00e+00	0	53	0	10485760	55	8184
2026-01-03 02:15:20.89	198.75	8.38	-39.0	-41.6	20.0	3.20e-03	0	52	0	12582912	48	5161
2026-01-03 02:15:22.91	198.36	8.52	-37.8	-40.0	21.3	0.00e+00	0	53	0	15204352	47	4586
2026-01-03 02:15:24.93	197.96	8.66	-38.0	-40.3	21.0	0.00e+00	0	53	0	17301504	47	4717
2026-01-03 02:15:26.95	197.56	8.80	-37.8	-40.0	21.3	0.00e+00	0	53	0	19398656	47	4559
2026-01-03 02:15:28.97	197.15	8.94	-37.5	-39.6	21.7	0.00e+00	0	53	0	22020096	47	4346
2026-01-03 02:15:30.99	196.74	9.08	-37.2	-39.1	22.2	0.00e+00	0	53	0	24117248	46	4382
2026-01-03 02:15:33.01	196.32	9.22	-37.3	-39.3	22.1	0.00e+00	0	53	0	26214400	46	4445
2026-01-03 02:15:35.03	195.90	9.36	-37.3	-39.3	22.0	0.00e+00	0	53	0	28835840	46	4484
2026-01-03 02:15:37.04	195.47	9.50	-37.4	-39.5	21.9	0.00e+00	0	53	0	30932992	46	4560
2026-01-03 02:15:39.06	195.04	9.64	-37.3	-39.3	22.1	0.00e+00	0	53	0	33030144	46	4451
2026-01-03 02:15:41.08	194.60	9.78	-37.2	-39.2	22.2	0.00e+00	0	53	0	35651584	46	4422
2026-01-03 02:15:43.10	194.15	9.92	-37.6	-39.7	21.8	0.00e+00	0	53	0	37748736	46	4654
2026-01-03 02:15:45.12	193.70	10.06	-37.8	-40.0	21.4	0.00e+00	0	53	0	39845888	46	4855
2026-01-03 02:15:47.14	193.24	10.20	-37.6	-39.8	21.6	0.00e+00	0	53	0	42467328	46	4713
2026-01-03 02:15:49.15	192.78	10.34	-37.2	-39.2	22.2	0.00e+00	0	53	0	44564480	46	4434
2026-01-03 02:15:51.17	192.31	10.48	-37.0	-38.9	22.5	0.00e+00	0	53	0	46661632	45	4542
2026-01-03 02:15:53.19	191.83	10.62	-36.9	-38.8	22.6	0.00e+00	0	53	0	49283072	45	4491
2026-01-03 02:15:55.21	191.35	10.76	-37.2	-39.2	22.2	0.00e+00	0	54	0	51380224	45	4696
2026-01-03 02:15:57.23	190.86	10.90	-37.4	-39.5	22.0	0.00e+00	0	53	0	53477376	45	4818
2026-01-03 02:15:59.25	190.37	11.04	-37.1	-39.1	22.3	0.00e+00	0	54	0	56098816	45	4626
2026-01-03 02:16:01.27	189.87	11.18	-37.0	-39.0	22.5	0.00e+00	0	54	0	58195968	45	4563
2026-01-03 02:16:03.29	189.36	11.31	-36.9	-38.9	22.6	0.00e+00	0	54	0	60293120	45	4505
2026-01-03 02:16:05.31	188.85	11.45	-36.5	-38.3	23.1	0.00e+00	0	54	0	62914560	45	4218
2026-01-03 02:16:07.33	188.33	11.59	-36.5	-38.3	23.1	0.00e+00	0	54	0	65011712	44	4478
2026-01-03 02:16:09.35	187.81	11.72	-36.7	-38.6	23.0	0.00e+00	0	54	0	67108864	44	4602
2026-01-03 02:16:11.37	187.27	11.86	-36.7	-38.6	22.9	0.00e+00	0	54	0	69730304	44	4636
2026-01-03 02:16:13.39	186.74	11.99	-36.6	-38.4	23.1	0.00e+00	0	54	0	71827456	44	4529
2026-01-03 02:16:15.41	186.19	12.12	-36.5	-38.3	23.2	0.00e+00	0	54	0	73924608	44	4475
2026-01-03 02:16:17.43	185.64	12.26	-36.4	-38.2	23.3	0.00e+00	0	54	0	76546048	44	4413
2026-01-03 02:16:19.44	185.09	12.39	-36.6	-38.4	23.1	0.00e+00	0	54	0	78643200	44	4518
2026-01-03 02:16:21.46	184.52	12.52	-36.8	-38.6	22.9	0.00e+00	0	54	0	80740352	44	4641
2026-01-03 02:16:23.48	183.95	12.64	-36.5	-38.4	23.1	0.00e+00	0	54	0	83361792	44	4497
2026-01-03 02:16:25.50	183.37	12.77	-36.1	-37.9	23.6	0.00e+00	0	54	0	85458944	44	4249
2026-01-03 02:16:27.52	182.79	12.90	-35.7	-37.3	23.9	0.00e+00	0	54	0	87556096	43	4238
2026-01-03 02:16:29.54	182.20	13.02	-36.1	-37.9	23.4	0.00e+00	0	54	0	90177536	43	4527
2026-01-03 02:16:31.56	181.60	13.14	-36.4	-38.3	23.1	0.00e+00	0	54	0	92274688	43	4734
2026-01-03 02:16:33.58	181.00	13.27	-36.4	-38.2	23.0	0.00e+00	0	54	0	94371840	43	4699
2026-01-03 02:16:35.60	180.39	13.39	-36.1	-37.9	23.4	0.00e+00	0	54	0	96993280	43	4528
2026-01-03 02:16:37.62	179.78	13.50	-36.0	-37.8	23.4	0.00e+00	0	54	0	99090432	43	4449
2026-01-03 02:16:39.64	179.16	13.62	-36.1	-37.9	23.4	0.00e+00	0	54	0	101187584	43	4513
2026-01-03 02:16:41.66	178.53	13.73	-36.2	-38.0	23.3	0.00e+00	0	54	0	103809024	43	4574
2026-01-03 02:16:43.68	177.89	13.85	-36.3	-38.1	23.2	0.00e+00	0	54	0	105906176	43	4644
2026-01-03 02:16:45.70	177.25	13.96	-36.4	-38.2	23.1	0.00e+00	0	54	0	108003328	43	4693
2026-01-03 02:16:47.72	176.61	14.06	-35.5	-37.2	24.2	0.00e+00	0	54	0	110624768	42	4398
2026-01-03 02:16:49.74	175.96	14.17	-35.5	-37.2	24.2	0.00e+00	0	54	0	112721920	42	4392
2026-01-03 02:16:51.76	175.30	14.27	-35.6	-37.3	24.1	0.00e+00	0	55	0	114819072	42	4452
2026-01-03 02:16:53.78	174.63	14.37	-35.6	-37.3	24.1	0.00e+00	0	55	0	117440512	42	4456
2026-01-03 02:16:55.80	173.96	14.47	-35.7	-37.4	23.9	0.00e+00	0	55	0	119537664	42	4529
2026-01-03 02:16:57.82	173.29	14.57	-35.3	-36.9	24.5	0.00e+00	0	54	0	121634816	42	4268
2026-01-03 02:16:59.83	172.61	14.66	-35.1	-36.7	24.7	0.00e+00	0	54	0	124256256	42	4180
2026-01-03 02:17:01.85	171.93	14.75	-35.4	-37.0	24.4	0.00e+00	0	55	0	126353408	42	4326
2026-01-03 02:17:03.87	171.24	14.84	-35.4	-37.1	24.4	0.00e+00	0	54	0	128450560	42	4348
2026-01-03 02:17:05.89	170.54	14.92	-35.3	-36.9	24.5	0.00e+00	0	55	0	131072000	42	4259
2026-01-03 02:17:07.91	169.84	15.00	-35.3	-36.9	24.6	0.00e+00	0	55	0	133169152	42	4257
2026-01-03 02:17:09.93	169.13	15.08	-35.4	-37.0	24.5	0.00e+00	0	55	0	135266304	42	4302
2026-01-03 02:17:11.95	168.42	15.16	-35.6	-37.2	24.3	0.00e+00	0	55	0	137887744	42	4412
2026-01-03 02:17:13.97	167.71	15.23	-36.1	-37.8	23.6	0.00e+00	0	55	0	139984896	42	4725
2026-01-03 02:17:15.99	166.99	15.30	-35.9	-37.5	24.0	0.00e+00	0	55	0	142082048	42	4576
2026-01-03 02:17:18.00	166.27	15.36	-36.0	-37.8	23.7	0.00e+00	0	55	0	144703488	43	4443
2026-01-03 02:17:20.02	165.54	15.42	-35.2	-36.8	24.7	0.00e+00	0	55	0	146800640	42	4213
2026-01-03 02:17:22.04	164.81	15.48	-35.4	-37.0	24.5	0.00e+00	0	55	0	148897792	42	4324
2026-01-03 02:17:24.06	164.08	15.53	-35.1	-36.7	24.8	0.00e+00	0	55	0	151519232	42	4175
2026-01-03 02:17:26.08	163.34	15.58	-34.9	-36.4	25.1	0.00e+00	0	55	0	153616384	41	4285
2026-01-03 02:17:28.10	162.61	15.63	-34.8	-36.4	25.1	0.00e+00	0	55	0	155713536	41	4253
2026-01-03 02:17:30.12	161.86	15.67	-34.9	-36.6	25.0	0.00e+00	0	55	0	158334976	40	4599
2026-01-03 02:17:32.14	161.12	15.71	-34.8	-36.4	25.1	0.00e+00	0	55	0	160432128	40	4510
2026-01-03 02:17:34.16	160.37	15.75	-34.7	-36.3	25.2	0.00e+00	0	55	0	162529280	40	4473
2026-01-03 02:17:36.18	159.62	15.78	-34.7	-36.3	25.2	0.00e+00	0	55	0	165150720	40	4462
2026-01-03 02:17:38.20	158.87	15.80	-35.1	-36.8	24.8	0.00e+00	0	55	0	167247872	40	4714
2026-01-03 02:17:40.22	158.12	15.83	-34.7	-36.2	25.2	0.00e+00	0	55	0	169345024	41	4185
2026-01-03 02:17:42.24	157.36	15.84	-34.5	-36.1	25.3	0.00e+00	0	55	0	171966464	40	4357
2026-01-03 02:17:44.25	156.61	15.86	-34.8	-36.3	25.1	0.00e+00	0	55	0	174063616	40	4478
2026-01-03 02:17:46.27	155.86	15.87	-34.8	-36.4	24.9	0.00e+00	0	55	0	176160768	40	4543
2026-01-03 02:17:48.29	155.10	15.88	-34.5	-36.0	25.4	0.00e+00	0	55	0	178782208	40	4313
2026-01-03 02:17:50.31	154.35	15.88	-34.7	-36.3	25.2	0.00e+00	0	55	0	180879360	40	4463
2026-01-03 02:17:52.33	153.59	15.88	-34.8	-36.4	25.1	0.00e+00	0	55	0	182976512	40	4518
2026-01-03 02:17:54.35	152.83	15.87	-35.0	-36.6	24.9	0.00e+00	0	55	0	185597952	40	4599
2026-01-03 02:17:56.37	152.08	15.86	-34.9	-36.5	24.9	0.00e+00	0	55	0	187695104	41	4292
2026-01-03 02:17:58.39	151.32	15.85	-34.7	-36.2	25.2	0.00e+00	0	55	0	189792256	41	4185
2026-01-03 02:18:00.40	150.58	15.83	-34.4	-36.0	25.4	0.00e+00	0	55	0	192413696	40	4300
2026-01-03 02:18:02.42	149.82	15.81	-34.3	-35.8	25.5	0.00e+00	0	55	0	194510848	40	4230
2026-01-03 02:18:04.44	149.07	15.78	-34.6	-36.2	25.2	0.00e+00	0	55	0	196608000	40	4400
2026-01-03 02:18:06.46	148.32	15.75	-34.5	-36.1	25.3	0.00e+00	0	55	0	199229440	40	4359
2026-01-03 02:18:08.48	147.58	15.71	-34.9	-36.5	24.8	0.00e+00	0	55	0	201326592	40	4590
2026-01-03 02:18:10.50	146.83	15.68	-34.8	-36.3	25.0	0.00e+00	0	55	0	203423744	40	4485
2026-01-03 02:18:12.51	146.10	15.63	-35.2	-36.9	24.5	0.00e+00	0	55	0	206045184	41	4509
2026-01-03 02:18:14.53	145.36	15.59	-34.8	-36.4	24.9	0.00e+00	0	55	0	208142336	41	4267
2026-01-03 02:18:16.55	144.62	15.54	-34.6	-36.2	25.1	0.00e+00	0	55	0	210239488	41	4172
2026-01-03 02:18:18.57	143.89	15.49	-34.7	-36.3	25.0	0.00e+00	0	55	0	212860928	41	4199
2026-01-03 02:18:20.59	143.16	15.43	-34.9	-36.6	24.8	0.00e+00	0	55	0	214958080	41	4348
2026-01-03 02:18:22.61	142.44	15.37	-35.0	-36.6	24.7	0.00e+00	0	55	0	217055232	41	4382
2026-01-03 02:18:24.63	141.71	15.30	-35.2	-36.8	24.5	0.00e+00	0	55	0	219676672	41	4464
2026-01-03 02:18:26.65	141.00	15.24	-35.4	-37.1	24.3	0.00e+00	0	55	0	221773824	41	4599
2026-01-03 02:18:28.66	140.29	15.17	-35.3	-36.9	24.4	0.00e+00	0	55	0	223870976	41	4536
2026-01-03 02:18:30.68	139.58	15.09	-35.1	-36.7	24.6	0.00e+00	0	56	0	226492416	41	4429
2026-01-03 02:18:32.71	138.87	15.01	-34.8	-36.4	24.9	0.00e+00	0	55	0	228589568	41	4278
2026-01-03 02:18:34.72	138.18	14.93	-35.1	-36.7	24.5	0.00e+00	0	55	0	230686720	41	4417
2026-01-03 02:18:36.74	137.48	14.85	-35.0	-36.7	24.6	0.00e+00	0	55	0	233308160	41	4413
2026-01-03 02:18:38.76	136.79	14.76	-35.0	-36.6	24.6	0.00e+00	0	55	0	235405312	41	4362
2026-01-03 02:18:40.78	136.11	14.67	-34.7	-36.2	24.9	1.10e-06	0	55	0	237502464	40	4439
2026-01-03 02:18:42.80	135.43	14.58	-35.0	-36.7	24.4	0.00e+00	0	55	0	239599616	40	4672
2026-01-03 02:18:44.81	134.76	14.49	-35.5	-37.2	23.5	9.10e-06	0	56	0	242221056	41	4693
2026-01-03 02:18:46.83	134.09	14.39	-35.2	-37.3	23.6	4.80e-05	0	55	0	244318208	41	4718
2026-01-03 02:18:48.85	133.43	14.29	-34.9	-36.9	22.9	1.88e-04	0	55	0	246415360	40	4767
2026-01-03 02:18:50.87	132.77	14.19	-34.9	-36.7	22.1	7.35e-04	0	55	0	249036800	40	4681
2026-01-03 02:18:52.89	132.12	14.08	-34.9	-37.4	20.0	2.52e-03	0	56	0	251133952	40	5042
2026-01-03 02:18:54.91	131.48	13.97	-33.8	-36.8	14.4	5.30e-03	0	56	0	253755392	37	5641
2026-01-03 02:18:56.93	130.84	13.86	-29.3	-36.4	14.7	1.67e-02	0	55	0	255852544	33	6727
2026-01-03 02:18:58.94	130.21	13.75	-30.8	-36.7	15.9	2.08e-02	0	55	0	257949696	35	6247
2026-01-03 02:19:00.96	129.59	13.64	-31.6	-36.5	15.0	2.16e-02	0	56	0	260571136	33	6867
2026-01-03 02:19:02.98	128.97	13.52	-31.7	-36.8	14.6	3.69e-02	0	56	0	262668288	34	6706
2026-01-03 02:19:05.00	128.35	13.41	-31.0	-36.7	13.4	4.81e-02	0	56	0	264765440	32	7399
2026-01-03 02:19:07.02	127.75	13.29	-29.3	-36.6	14.4	4.92e-02	0	56	0	266862592	35	6188
2026-01-03 02:19:09.04	127.15	13.17	-31.5	-37.2	16.5	3.26e-02	0	56	0	269484032	37	5903
2026-01-03 02:19:11.06	126.55	13.05	-33.7	-37.7	16.3	2.15e-02	0	56	0	271581184	37	6258
2026-01-03 02:19:13.07	125.97	12.92	-35.1	-37.4	19.7	8.43e-03	0	56	0	273678336	39	5382
2026-01-03 02:19:15.10	125.38	12.80	-35.5	-37.7	20.5	6.06e-03	0	56	0	276299776	41	4952
2026-01-03 02:19:17.11	124.81	12.67	-34.6	-37.6	21.1	3.78e-03	0	56	0	278396928	41	4914
2026-01-03 02:19:19.13	124.24	12.54	-35.5	-37.5	22.4	6.57e-04	0	56	0	280494080	41	4846
2026-01-03 02:19:21.15	123.68	12.41	-35.6	-37.5	22.9	5.19e-04	0	56	0	283115520	42	4566
2026-01-03 02:19:23.17	123.13	12.28	-35.5	-37.6	23.1	1.13e-04	0	56	0	285212672	42	4616
2026-01-03 02:19:25.19	122.58	12.15	-34.4	-37.3	23.1	1.10e-06	0	56	0	287309824	41	4724
2026-01-03 02:19:27.21	122.04	12.02	-35.0	-37.5	22.6	2.20e-06	0	56	0	289931264	41	4815
2026-01-03 02:19:29.23	121.50	11.89	-34.1	-37.5	21.6	3.40e-06	0	56	0	292028416	41	4820
2026-01-03 02:19:31.25	120.97	11.76	-35.6	-37.9	21.7	8.00e-06	0	56	0	294125568	42	4808
2026-01-03 02:19:33.27	120.45	11.62	-31.9	-37.5	21.7	2.74e-05	0	56	0	296747008	39	5410
2026-01-03 02:19:35.28	119.93	11.49	-34.8	-38.1	20.1	3.36e-04	0	56	0	298844160	41	5169
2026-01-03 02:19:37.30	119.42	11.35	-34.3	-38.3	17.7	6.98e-04	0	56	0	300941312	39	5987
2026-01-03 02:19:39.32	118.92	11.21	-32.2	-38.7	15.6	9.36e-03	0	56	0	303562752	38	6608
2026-01-03 02:19:41.34	118.42	11.08	-32.3	-39.2	11.6	2.84e-02	0	56	0	305659904	32	9865
2026-01-03 02:19:43.36	117.93	10.94	-29.5	-37.1	13.4	3.54e-02	0	56	0	307757056	31	8185
2026-01-03 02:19:45.37	117.44	10.80	-28.2	-37.0	12.2	6.35e-02	0	56	0	310378496	29	9142
2026-01-03 02:19:47.39	116.97	10.66	-27.9	-37.6	10.4	6.40e-02	0	56	0	312475648	26	11629
2026-01-03 02:19:49.41	116.49	10.52	-23.2	-36.7	10.0	1.31e-01	0	56	0	314048512	23	12401
2026-01-03 02:19:51.43	116.02	10.39	-25.8	-37.5	8.2	3.42e-01	0	56	0	316145664	23	13633
2026-01-03 02:19:53.45	115.56	10.25	-21.8	-39.0	6.7	3.83e-01	0	56	0	317194240	21	18279
2026-01-03 02:19:55.47	115.11	10.11	-24.4	-39.7	7.5	4.80e-01	0	56	0	318767104	23	17648
2026-01-03 02:19:57.49	114.66	9.97	-23.2	-38.8	7.5	5.93e-01	0	56	0	319291392	22	16767
2026-01-03 02:19:59.51	114.21	9.83	-26.1	-41.3	7.4	5.47e-01	0	56	0	320339968	22	22371
2026-01-03 02:20:01.53	113.77	9.69	-25.8	-41.6	7.4	6.27e-01	0	56	0	320339968	24	20748
2026-01-03 02:20:03.55	113.34	9.55	-26.4	-42.3	5.2	5.83e-01	0	56	104	320339968	24	22448
2026-01-03 02:20:05.57	112.91	9.41	-24.4	-37.5	11.3	2.75e-01	0	56	0	321912832	27	10856
2026-01-03 02:20:07.59	112.49	9.27	-28.9	-37.7	10.4	1.03e-01	0	56	0	323485696	27	11077
2026-01-03 02:20:09.61	112.08	9.13	-30.2	-38.8	11.5	1.04e-01	0	56	0	325582848	32	9461
2026-01-03 02:20:11.63	111.67	8.99	-33.3	-39.1	14.7	4.69e-02	0	56	0	327680000	37	7355
2026-01-03 02:20:13.64	111.26	8.85	-34.8	-40.2	14.5	1.52e-02	0	56	0	330301440	40	6990
2026-01-03 02:20:15.66	110.86	8.71	-35.3	-39.7	17.1	8.28e-03	0	56	0	332398592	42	5902
2026-01-03 02:20:17.68	110.47	8.57	-36.0	-39.5	17.7	3.25e-03	0	56	0	334495744	42	5777
2026-01-03 02:20:19.70	110.08	8.43	-36.2	-40.3	18.6	2.01e-03	0	56	0	337117184	43	5941
2026-01-03 02:20:21.72	109.69	8.29	-37.2	-40.3	19.1	1.71e-03	0	56	0	339214336	45	5325
2026-01-03 02:20:23.74	109.32	8.15	-37.4	-40.2	19.7	3.54e-04	0	56	0	341311488	45	5259
2026-01-03 02:20:25.76	108.94	8.01	-44.2	-60.3	3.3	1.97e-04	0	56	104	343932928	58	25109
2026-01-03 02:20:27.78	108.57	7.88	-44.9	-63.0	3.8	8.46e-01	0	56	104	343932928	60	30508
2026-01-03 02:20:29.80	108.21	7.74	-45.2	-63.3	3.8	8.47e-01	0	56	104	343932928	60	31757
2026-01-03 02:20:31.82	107.85	7.60	-45.4	-63.6	3.8	8.45e-01	0	56	104	343932928	61	30744
2026-01-03 02:20:33.84	107.49	7.46	-45.6	-63.8	3.8	8.45e-01	0	56	104	343932928	61	31479
2026-01-03 02:20:35.86	107.14	7.33	-45.6	-63.7	3.8	8.47e-01	0	56	104	343932928	61	31344
2026-01-03 02:20:37.89	106.79	7.19	-45.4	-63.6	3.8	8.46e-01	0	56	104	343932928	61	30941
2026-01-03 02:20:39.91	106.45	7.05	-45.3	-63.5	3.8	8.47e-01	0	56	104	343932928	61	30527
2026-01-03 02:20:41.93	106.11	6.92	-45.2	-63.5	3.8	8.45e-01	0	56	104	343932928	61	30400
2026-01-03 02:20:43.95	105.78	6.78	-45.2	-63.4	3.8	8.45e-01	0	56	104	343932928	61	30216
2026-01-03 02:20:45.97	105.45	6.65	-45.2	-63.4	3.8	8.46e-01	0	56	104	343932928	61	30238
2026-01-03 02:20:48.00	105.13	6.51	-45.2	-63.4	3.8	8.46e-01	0	56	104	343932928	61	30225
2026-01-03 02:20:50.02	104.81	6.38	-45.2	-63.4	3.8	8.46e-01	0	56	104	343932928	61	30162
2026-01-03 02:20:52.04	104.49	6.24	-45.2	-63.4	3.8	8.45e-01	0	56	104	343932928	61	30166
2026-01-03 02:20:54.06	104.18	6.11	-45.2	-63.4	3.8	8.47e-01	0	56	104	343932928	61	30109
2026-01-03 02:20:56.08	103.87	5.97	-45.2	-63.4	3.8	8.46e-01	0	56	104	343932928	61	30138
2026-01-03 02:20:58.11	103.57	5.84	-45.2	-63.4	3.8	8.47e-01	0	56	104	343932928	61	30090
2026-01-03 02:21:00.13	103.27	5.71	-45.2	-63.4	3.8	8.45e-01	0	56	104	343932928	61	30123
2026-01-03 02:21:02.15	102.97	5.58	-45.2	-63.3	3.8	8.46e-01	0	56	104	343932928	61	30026
2026-01-03 02:21:04.17	102.68	5.45	-45.2	-63.4	3.8	8.47e-01	0	56	104	343932928	61	30123
2026-01-03 02:21:06.20	102.39	5.31	-45.2	-63.4	3.8	8.45e-01	0	56	104	343932928	61	30113
2026-01-03 02:21:08.22	102.10	5.18	-45.2	-63.3	3.8	8.47e-01	0	57	104	343932928	61	30010
2026-01-03 02:21:10.24	101.82	5.05	-45.2	-63.4	3.8	8.45e-01	0	56	104	343932928	61	30075
2026-01-03 02:21:12.26	101.54	4.92	-45.2	-63.4	3.8	8.46e-01	0	57	104	343932928	61	30039
2026-01-03 02:21:14.29	101.27	4.79	-45.2	-63.4	3.8	8.46e-01	0	56	104	343932928	61	30038
2026-01-03 02:21:16.31	101.00	4.67	-45.2	-63.4	3.8	8.46e-01	0	56	104	343932928	61	30080
2026-01-03 02:21:18.33	100.73	4.54	-45.2	-63.4	3.8	8.45e-01	0	57	104	343932928	61	30046
2026-01-03 02:21:20.35	100.47	4.41	-45.2	-63.4	3.8	8.47e-01	0	56	104	343932928	61	30042
2026-01-03 02:21:22.37	100.21	4.28	-45.2	-63.4	3.8	8.46e-01	0	57	104	343932928	61	30059
2026-01-03 02:21:24.39	99.95	4.16	-45.2	-63.4	3.8	8.47e-01	0	57	104	343932928	61	30038
2026-01-03 02:21:26.42	99.69	4.03	-45.2	-63.4	3.8	8.46e-01	0	56	104	343932928	61	30106
2026-01-03 02:21:28.44	99.44	3.90	-45.2	-63.3	3.8	8.47e-01	0	57	104	343932928	61	30019
2026-01-03 02:21:30.46	99.19	3.78	-45.2	-63.4	3.8	8.45e-01	0	57	104	343932928	61	30043
2026-01-03 02:21:32.48	98.95	3.65	-45.2	-63.4	3.8	8.46e-01	0	57	104	343932928	61	30036
2026-01-03 02:21:34.50	98.71	3.53	-45.2	-63.3	3.8	8.46e-01	0	57	104	343932928	61	30016
2026-01-03 02:21:36.53	98.47	3.41	-45.2	-63.3	3.8	8.45e-01	0	57	104	343932928	61	29998
2026-01-03 02:21:38.55	98.23	3.28	-45.2	-63.3	3.8	8.46e-01	0	57	104	343932928	61	30003
2026-01-03 02:21:40.57	98.00	3.16	-45.2	-63.3	3.8	8.47e-01	0	57	104	343932928	61	29993
2026-01-03 02:21:42.59	97.77	3.04	-45.2	-63.3	3.8	8.46e-01	0	57	104	343932928	61	29855
2026-01-03 02:21:44.62	97.54	2.91	-45.2	-63.3	3.8	8.45e-01	0	57	104	343932928	61	30012
2026-01-03 02:21:46.64	97.31	2.79	-45.2	-63.3	3.8	8.47e-01	0	57	104	343932928	61	29948
2026-01-03 02:21:48.66	97.09	2.67	-45.1	-63.3	3.8	8.45e-01	0	57	104	343932928	61	29962
2026-01-03 02:21:50.68	96.87	2.55	-45.2	-63.3	3.8	8.47e-01	0	57	104	343932928	61	29943
2026-01-03 02:21:52.71	96.65	2.43	-45.2	-63.3	3.8	8.44e-01	0	57	104	343932928	61	29997
2026-01-03 02:21:54.73	96.44	2.31	-45.2	-63.3	3.8	8.47e-01	0	57	104	343932928	61	29968
2026-01-03 02:21:56.75	96.23	2.19	-45.2	-63.3	3.8	8.45e-01	0	57	104	343932928	61	29967
2026-01-03 02:21:58.77	96.02	2.07	-45.2	-63.3	3.8	8.46e-01	0	57	104	343932928	61	29959

#Closed at: 2026-01-03 02:22:00
#Recorded file [343 MB]: D:/lorett/data/31039_260103_051343.dat