passes_logs/2026/01/03/R2.0S_Moscow/R2.0S_Moscow__20260103_113121_SUOMI_NPP_rec.log

#Pass ID: 20260103_113121_SUOMI NPP
#Satellite: SUOMI NPP
#Configuration: NPP
#almurnet v.1.7.20251203
#Start time: 2026-01-03 11:31:23

#Version: 2.2.20231116
#Station: R2.0S_Moscow
#Location: 37.707566 lon 55.798166 lat
#TLE: 1 37849U 11061A   26001.07732418  .00000182  00000+0  10735-3 0  9990
#TLE: 2 37849  98.7795 303.2470 0002580  87.2016 272.9455 14.19520779734739

#Time	Az	El	Level	Level2	SNR	BER	BlckErr	Temp	State	Recorded	gain1	gain2
2026-01-03 11:31:23.31	207.26	2.13	-43.9	-58.5	3.8	1.49e+00	0	47	0	0	59	19238
2026-01-03 11:31:27.34	207.55	2.35	-43.9	-58.5	3.8	1.49e+00	0	47	104	0	59	19233
2026-01-03 11:31:31.39	207.84	2.58	-43.8	-58.5	3.8	1.49e+00	0	48	104	0	59	19208
2026-01-03 11:31:35.43	208.15	2.81	-43.8	-58.5	3.8	1.49e+00	0	48	104	0	59	19230
2026-01-03 11:31:39.48	208.45	3.03	-43.8	-58.5	3.8	1.49e+00	0	49	104	0	59	19209
2026-01-03 11:31:43.52	208.76	3.26	-43.9	-58.5	3.8	1.49e+00	0	49	104	0	59	19300
2026-01-03 11:31:47.57	209.08	3.49	-43.9	-58.5	3.8	1.49e+00	0	49	104	0	59	19244
2026-01-03 11:31:51.61	209.40	3.72	-43.8	-58.5	3.8	1.49e+00	0	49	104	0	59	19257
2026-01-03 11:31:55.65	209.72	3.96	-43.9	-58.5	3.8	1.49e+00	0	50	104	0	59	19257
2026-01-03 11:31:59.70	210.05	4.19	-43.9	-58.5	3.8	1.49e+00	0	50	104	0	59	19246
2026-01-03 11:32:03.74	210.39	4.43	-43.9	-58.5	3.8	1.49e+00	0	50	104	0	59	19219
2026-01-03 11:32:07.78	210.73	4.66	-43.9	-58.5	3.8	1.49e+00	0	50	104	0	59	19225
2026-01-03 11:32:11.83	211.07	4.90	-43.9	-58.4	3.8	1.49e+00	0	51	104	0	59	19007
2026-01-03 11:32:15.87	211.42	5.14	-43.9	-58.3	3.8	1.49e+00	0	51	104	0	59	18884
2026-01-03 11:32:19.92	211.78	5.38	-43.9	-58.4	3.8	1.49e+00	0	51	104	0	59	19118
2026-01-03 11:32:23.96	212.14	5.62	-43.9	-58.3	3.8	1.49e+00	0	51	104	0	59	18919
2026-01-03 11:32:28.00	212.51	5.86	-43.8	-57.5	3.8	1.49e+00	0	51	104	0	59	17126
2026-01-03 11:32:32.05	212.88	6.11	-43.8	-57.0	3.8	1.49e+00	0	51	104	0	59	16248
2026-01-03 11:32:36.09	213.26	6.35	-43.8	-57.2	3.8	1.49e+00	0	52	104	0	59	16589
2026-01-03 11:32:40.14	213.65	6.60	-43.9	-58.1	3.8	1.49e+00	0	51	104	0	59	18414
2026-01-03 11:32:44.18	214.04	6.85	-43.8	-57.7	3.8	1.49e+00	0	52	104	0	59	17653
2026-01-03 11:32:48.22	214.44	7.10	-43.7	-56.0	3.8	1.49e+00	0	52	104	0	59	14525
2026-01-03 11:32:52.26	214.85	7.35	-43.1	-50.9	6.4	3.21e-01	0	52	0	4194304	58	8465
2026-01-03 11:32:56.31	215.26	7.60	-42.0	-47.1	10.1	8.90e-03	0	52	0	11534336	56	6142
2026-01-03 11:33:00.35	215.68	7.85	-41.2	-45.4	11.8	5.96e-04	0	53	0	19922944	54	5664
2026-01-03 11:33:04.39	216.11	8.11	-41.5	-46.0	11.2	7.69e-04	0	53	0	27262976	54	6114
2026-01-03 11:33:08.43	216.54	8.36	-41.9	-46.8	10.2	4.30e-02	0	53	0	33554432	55	6291
2026-01-03 11:33:12.47	216.98	8.62	-40.5	-43.9	13.5	1.22e-05	0	53	0	40894464	53	5044
2026-01-03 11:33:16.51	217.43	8.88	-40.5	-43.7	13.6	6.80e-06	0	53	0	48234496	52	5261
2026-01-03 11:33:20.55	217.88	9.13	-40.6	-43.9	13.5	9.10e-06	0	53	0	55574528	52	5377
2026-01-03 11:33:24.58	218.35	9.39	-40.8	-44.2	13.3	1.52e-05	0	53	0	62914560	52	5545
2026-01-03 11:33:28.62	218.82	9.65	-40.8	-44.2	13.3	1.83e-05	0	53	0	71303168	52	5558
2026-01-03 11:33:32.66	219.30	9.92	-40.7	-44.0	13.6	6.10e-06	0	53	0	78643200	52	5406
2026-01-03 11:33:36.70	219.79	10.18	-40.8	-44.2	13.3	8.30e-06	0	54	0	85983232	52	5557
2026-01-03 11:33:40.73	220.29	10.44	-40.8	-44.1	13.5	1.29e-05	0	54	0	93323264	52	5494
2026-01-03 11:33:44.77	220.79	10.71	-40.8	-44.2	13.4	3.00e-06	0	54	0	101711872	52	5545
2026-01-03 11:33:48.81	221.31	10.97	-40.5	-43.6	14.0	7.60e-06	0	54	0	109051904	52	5195
2026-01-03 11:33:52.85	221.83	11.24	-40.3	-43.3	14.3	1.50e-06	0	54	0	116391936	52	5011
2026-01-03 11:33:56.89	222.36	11.51	-40.2	-43.0	14.7	0.00e+00	0	54	0	123731968	52	4864
2026-01-03 11:34:00.93	222.91	11.78	-40.1	-42.8	14.9	1.50e-06	0	54	0	131072000	52	4738
2026-01-03 11:34:04.96	223.46	12.04	-40.2	-43.1	14.7	7.00e-07	0	54	0	139460608	52	4876
2026-01-03 11:34:09.00	224.02	12.31	-40.3	-43.1	14.6	7.00e-07	0	54	0	146800640	52	4899
2026-01-03 11:34:13.04	224.59	12.58	-40.4	-43.3	14.5	0.00e+00	0	54	0	154140672	52	4998
2026-01-03 11:34:17.07	225.18	12.85	-40.4	-43.4	14.4	0.00e+00	0	54	0	161480704	52	5069
2026-01-03 11:34:21.12	225.77	13.12	-40.4	-43.2	14.6	7.00e-07	0	55	0	169869312	52	4954
2026-01-03 11:34:25.15	226.37	13.39	-40.1	-42.8	15.0	0.00e+00	0	55	0	177209344	52	4741
2026-01-03 11:34:29.19	226.99	13.66	-39.9	-42.4	15.4	0.00e+00	0	55	0	184549376	51	4814
2026-01-03 11:34:33.22	227.61	13.93	-39.8	-42.4	15.6	0.00e+00	0	55	0	191889408	51	4766
2026-01-03 11:34:37.26	228.25	14.20	-40.0	-42.5	15.4	0.00e+00	0	55	0	199229440	51	4865
2026-01-03 11:34:41.30	228.90	14.47	-40.0	-42.6	15.3	0.00e+00	0	55	0	207618048	51	4900
2026-01-03 11:34:45.34	229.56	14.74	-40.1	-42.8	15.2	0.00e+00	0	55	0	214958080	51	5000
2026-01-03 11:34:49.38	230.23	15.01	-40.3	-43.0	14.9	0.00e+00	0	55	0	222298112	51	5144
2026-01-03 11:34:53.41	230.91	15.28	-40.0	-42.5	15.4	0.00e+00	0	55	0	229638144	51	4869
2026-01-03 11:34:57.45	231.61	15.54	-39.9	-42.4	15.6	0.00e+00	0	55	0	236978176	51	4775
2026-01-03 11:35:01.49	232.32	15.81	-39.8	-42.3	15.7	0.00e+00	0	55	0	245366784	51	4735
2026-01-03 11:35:05.53	233.03	16.07	-39.6	-41.9	16.0	0.00e+00	0	55	0	252706816	51	4536
2026-01-03 11:35:09.58	233.77	16.34	-39.6	-42.0	16.1	0.00e+00	0	55	0	260046848	51	4546
2026-01-03 11:35:13.61	234.51	16.60	-39.9	-42.4	15.6	0.00e+00	0	55	0	267386880	51	4771
2026-01-03 11:35:17.65	235.27	16.86	-40.0	-42.5	15.5	0.00e+00	0	55	0	275775488	51	4853
2026-01-03 11:35:21.69	236.04	17.12	-39.8	-42.2	15.8	0.00e+00	0	55	0	283115520	51	4681
2026-01-03 11:35:25.73	236.82	17.37	-40.0	-42.6	15.5	0.00e+00	0	55	0	290455552	51	4887
2026-01-03 11:35:29.77	237.62	17.62	-40.0	-42.6	15.4	0.00e+00	0	55	0	297795584	51	4884
2026-01-03 11:35:33.81	238.43	17.87	-40.0	-42.5	15.6	0.00e+00	0	55	0	305135616	51	4824
2026-01-03 11:35:37.85	239.25	18.12	-39.9	-42.4	15.7	0.00e+00	0	56	0	313524224	51	4766
2026-01-03 11:35:41.88	240.08	18.36	-40.1	-42.6	15.5	0.00e+00	0	55	0	320864256	51	4914
2026-01-03 11:35:45.92	240.93	18.60	-40.2	-42.9	15.2	0.00e+00	0	56	0	328204288	51	5042
2026-01-03 11:35:49.96	241.79	18.84	-39.9	-42.3	15.7	0.00e+00	0	56	0	335544320	51	4758
2026-01-03 11:35:54.00	242.67	19.07	-40.5	-43.2	14.9	7.00e-07	0	56	0	343932928	51	5264
2026-01-03 11:35:58.04	243.55	19.30	-40.2	-42.8	15.3	0.00e+00	0	56	0	351272960	51	4993
2026-01-03 11:36:02.07	244.45	19.52	-40.8	-43.9	14.1	7.00e-07	0	56	0	358612992	52	5367
2026-01-03 11:36:06.11	245.36	19.74	-40.6	-43.4	14.7	0.00e+00	0	56	0	365953024	52	5053
2026-01-03 11:36:10.14	246.29	19.95	-40.8	-43.7	14.3	0.00e+00	0	56	0	373293056	52	5267
2026-01-03 11:36:14.18	247.22	20.16	-40.8	-43.8	14.2	1.50e-06	0	56	0	381681664	52	5312
2026-01-03 11:36:18.22	248.17	20.36	-41.1	-44.4	13.7	7.60e-06	0	56	0	389021696	53	5346
2026-01-03 11:36:22.25	249.13	20.55	-40.5	-43.3	14.7	0.00e+00	0	56	0	396361728	53	4754
2026-01-03 11:36:26.29	250.11	20.74	-40.3	-43.0	15.1	0.00e+00	0	56	0	403701760	52	4838
2026-01-03 11:36:30.33	251.09	20.92	-40.9	-43.9	14.2	1.50e-06	0	56	0	412090368	52	5369
2026-01-03 11:36:34.36	252.08	21.09	-40.6	-43.4	14.7	1.50e-06	0	56	0	419430400	52	5069
2026-01-03 11:36:38.40	253.09	21.25	-40.3	-43.0	15.1	0.00e+00	0	56	0	426770432	52	4850
2026-01-03 11:36:42.43	254.10	21.41	-40.3	-43.0	15.0	7.00e-07	0	56	0	434110464	52	4852
2026-01-03 11:36:46.46	255.13	21.56	-40.9	-44.0	14.0	0.00e+00	0	56	0	441450496	52	5418
2026-01-03 11:36:50.49	256.16	21.70	-40.0	-42.5	15.5	0.00e+00	0	56	0	449839104	52	4595
2026-01-03 11:36:54.54	257.21	21.83	-40.3	-42.9	15.2	0.00e+00	0	56	0	457179136	51	5079
2026-01-03 11:36:58.57	258.26	21.95	-40.3	-42.8	15.4	0.00e+00	0	56	0	464519168	51	5025
2026-01-03 11:37:02.61	259.32	22.07	-40.1	-42.6	15.6	0.00e+00	0	56	0	471859200	51	4900
2026-01-03 11:37:06.65	260.38	22.17	-40.2	-42.7	15.5	0.00e+00	0	56	0	480247808	51	4965
2026-01-03 11:37:10.69	261.46	22.27	-40.2	-42.7	15.5	0.00e+00	0	56	0	487587840	51	4973
2026-01-03 11:37:14.73	262.54	22.35	-40.5	-43.3	14.9	7.00e-07	0	56	0	494927872	52	5002
2026-01-03 11:37:18.77	263.62	22.43	-40.5	-43.3	14.8	0.00e+00	0	56	0	502267904	52	5031
2026-01-03 11:37:22.81	264.71	22.49	-40.0	-42.5	15.7	0.00e+00	0	56	0	509607936	51	4832
2026-01-03 11:37:26.84	265.81	22.54	-40.4	-43.1	15.1	0.00e+00	0	56	0	517996544	51	5173
2026-01-03 11:37:30.88	266.90	22.59	-40.1	-42.7	15.4	0.00e+00	0	56	0	525336576	52	4687
2026-01-03 11:37:34.92	268.00	22.62	-40.4	-43.0	15.2	0.00e+00	0	56	0	532676608	51	5157
2026-01-03 11:37:38.95	269.10	22.64	-40.1	-42.6	15.6	0.00e+00	0	56	0	540016640	51	4890
2026-01-03 11:37:42.99	270.20	22.65	-40.1	-42.6	15.6	0.00e+00	0	56	0	548405248	51	4918
2026-01-03 11:37:47.03	271.31	22.65	-40.5	-43.2	15.0	0.00e+00	0	56	0	555745280	51	5233
2026-01-03 11:37:51.07	272.41	22.64	-40.4	-43.1	14.9	0.00e+00	0	56	0	563085312	52	4916
2026-01-03 11:37:55.11	273.51	22.62	-40.1	-42.7	15.4	0.00e+00	0	56	0	570425344	52	4686
2026-01-03 11:37:59.15	274.61	22.59	-40.1	-42.7	15.4	0.00e+00	0	56	0	577765376	52	4676
2026-01-03 11:38:03.18	275.71	22.55	-40.2	-42.9	15.2	0.00e+00	0	56	0	586153984	52	4761
2026-01-03 11:38:07.22	276.80	22.49	-39.8	-42.2	15.8	0.00e+00	0	56	0	593494016	51	4674
2026-01-03 11:38:11.26	277.89	22.43	-39.5	-41.8	16.3	0.00e+00	0	56	0	600834048	51	4477
2026-01-03 11:38:15.30	278.97	22.36	-39.9	-42.3	15.8	0.00e+00	0	56	0	608174080	50	5007
2026-01-03 11:38:19.34	280.05	22.27	-39.9	-42.3	15.9	0.00e+00	0	56	0	616562688	50	5011
2026-01-03 11:38:23.38	281.12	22.18	-40.1	-42.6	15.6	0.00e+00	0	56	0	623902720	50	5189
2026-01-03 11:38:27.41	282.19	22.08	-39.9	-42.3	15.8	0.00e+00	0	56	0	631242752	50	5033
2026-01-03 11:38:31.45	283.25	21.96	-40.5	-43.3	14.9	0.00e+00	0	57	0	638582784	51	5331
2026-01-03 11:38:35.49	284.30	21.84	-39.8	-42.2	16.0	0.00e+00	0	56	0	645922816	51	4681
2026-01-03 11:38:39.52	285.34	21.71	-39.7	-42.1	16.0	0.00e+00	0	56	0	654311424	51	4633
2026-01-03 11:38:43.56	286.37	21.57	-39.5	-41.8	16.4	0.00e+00	0	57	0	661651456	50	4715
2026-01-03 11:38:47.60	287.39	21.42	-39.5	-41.8	16.3	0.00e+00	0	56	0	668991488	50	4713
2026-01-03 11:38:51.64	288.41	21.27	-39.6	-41.9	16.2	0.00e+00	0	56	0	676331520	50	4764
2026-01-03 11:38:55.67	289.41	21.11	-39.9	-42.3	15.8	0.00e+00	0	56	0	684720128	50	5001
2026-01-03 11:38:59.71	290.40	20.93	-40.0	-42.5	15.6	0.00e+00	0	57	0	692060160	50	5152
2026-01-03 11:39:03.75	291.38	20.75	-39.7	-42.1	16.0	0.00e+00	0	56	0	699400192	50	4874
2026-01-03 11:39:07.79	292.35	20.57	-39.4	-41.7	16.4	0.00e+00	0	56	0	706740224	50	4673
2026-01-03 11:39:11.82	293.31	20.38	-39.6	-42.0	16.1	0.00e+00	0	56	0	714080256	50	4820
2026-01-03 11:39:15.86	294.26	20.18	-39.6	-42.0	16.1	0.00e+00	0	56	0	722468864	50	4817
2026-01-03 11:39:19.90	295.19	19.97	-39.9	-42.4	15.7	0.00e+00	0	56	0	729808896	50	5075
2026-01-03 11:39:23.94	296.11	19.76	-40.0	-42.5	15.5	0.00e+00	0	57	0	737148928	51	4855
2026-01-03 11:39:27.98	297.02	19.55	-39.3	-41.6	16.5	0.00e+00	0	57	0	744488960	50	4602
2026-01-03 11:39:32.02	297.92	19.33	-39.8	-42.2	15.9	0.00e+00	0	56	0	752877568	50	4939
2026-01-03 11:39:36.05	298.80	19.10	-40.9	-44.0	14.0	1.50e-06	0	57	0	760217600	52	5421
2026-01-03 11:39:40.09	299.67	18.87	-40.6	-43.6	14.3	0.00e+00	0	57	0	767557632	52	5187
2026-01-03 11:39:44.13	300.53	18.64	-40.6	-43.5	14.4	3.00e-06	0	56	0	774897664	52	5131
2026-01-03 11:39:48.17	301.38	18.40	-40.4	-43.2	14.7	7.00e-07	0	57	0	782237696	52	4967
2026-01-03 11:39:52.21	302.21	18.16	-40.3	-43.1	14.8	0.00e+00	0	57	0	790626304	52	4914
2026-01-03 11:39:56.24	303.03	17.92	-40.7	-43.7	14.2	0.00e+00	0	56	0	797966336	52	5269
2026-01-03 11:40:00.28	303.83	17.67	-41.2	-44.6	13.2	1.67e-05	0	57	0	805306368	53	5515
2026-01-03 11:40:04.32	304.63	17.42	-41.2	-44.6	13.3	1.44e-05	0	56	0	812646400	53	5486
2026-01-03 11:40:08.36	305.41	17.17	-40.8	-44.0	13.9	2.20e-06	0	57	0	821035008	53	5118
2026-01-03 11:40:12.40	306.18	16.91	-41.2	-44.6	13.3	2.59e-05	0	57	0	828375040	53	5496
2026-01-03 11:40:16.44	306.93	16.66	-40.7	-43.7	14.1	3.80e-06	0	56	0	835715072	53	4971
2026-01-03 11:40:20.47	307.67	16.40	-40.5	-43.4	14.5	0.00e+00	0	57	0	843055104	52	5078
2026-01-03 11:40:24.51	308.40	16.14	-40.6	-43.5	14.4	7.00e-07	0	57	0	850395136	52	5128
2026-01-03 11:40:28.54	309.12	15.87	-40.7	-43.7	14.2	1.50e-06	0	57	0	858783744	52	5259
2026-01-03 11:40:32.58	309.83	15.61	-41.0	-44.3	13.6	1.37e-05	0	57	0	866123776	52	5606
2026-01-03 11:40:36.62	310.52	15.35	-40.4	-43.3	14.5	0.00e+00	0	57	0	873463808	52	5012
2026-01-03 11:40:40.66	311.20	15.08	-40.5	-43.5	14.4	7.00e-07	0	56	0	880803840	52	5103
2026-01-03 11:40:44.69	311.87	14.82	-40.6	-43.7	14.1	6.10e-06	0	57	0	888143872	52	5225
2026-01-03 11:40:48.73	312.53	14.55	-40.3	-43.1	14.7	0.00e+00	0	57	0	896532480	52	4892
2026-01-03 11:40:52.77	313.18	14.28	-40.9	-44.1	13.7	4.50e-06	0	56	0	903872512	52	5493
2026-01-03 11:40:56.81	313.81	14.01	-40.8	-44.0	13.7	4.50e-06	0	57	0	911212544	52	5463
2026-01-03 11:41:00.85	314.44	13.75	-40.0	-42.6	15.2	0.00e+00	0	57	0	918552576	51	4913
2026-01-03 11:41:04.89	315.05	13.48	-40.0	-42.6	15.2	0.00e+00	0	57	0	926941184	51	4916
2026-01-03 11:41:08.93	315.66	13.21	-39.7	-42.2	15.6	0.00e+00	0	57	0	934281216	51	4681
2026-01-03 11:41:12.97	316.25	12.94	-40.0	-42.6	15.2	0.00e+00	0	57	0	941621248	51	4902
2026-01-03 11:41:17.01	316.83	12.68	-40.7	-43.8	14.0	7.00e-07	0	56	0	948961280	51	5594
2026-01-03 11:41:21.04	317.40	12.41	-40.7	-43.8	13.8	3.80e-06	0	57	0	956301312	52	5322
2026-01-03 11:41:25.08	317.96	12.14	-40.6	-43.7	14.0	3.00e-06	0	57	0	964689920	52	5237
2026-01-03 11:41:29.12	318.52	11.88	-40.7	-43.9	13.7	6.80e-06	0	57	0	972029952	52	5379
2026-01-03 11:41:33.16	319.06	11.61	-40.5	-43.5	14.1	1.50e-06	0	57	0	979369984	52	5126
2026-01-03 11:41:37.19	319.59	11.35	-40.1	-42.9	14.6	7.00e-07	0	57	0	986710016	52	4814
2026-01-03 11:41:41.23	320.12	11.08	-40.2	-43.1	14.5	0.00e+00	0	57	0	995098624	52	4889
2026-01-03 11:41:45.27	320.63	10.82	-40.4	-43.4	14.1	7.00e-07	0	57	0	1002438656	52	5083
2026-01-03 11:41:49.31	321.14	10.56	-40.5	-43.6	13.9	2.20e-06	0	57	0	1009778688	52	5211
2026-01-03 11:41:53.35	321.64	10.30	-40.8	-44.2	13.3	1.29e-05	0	56	0	1017118720	52	5533
2026-01-03 11:41:57.38	322.13	10.04	-41.1	-44.7	12.7	7.62e-05	0	57	0	1024458752	52	5906
2026-01-03 11:42:01.42	322.61	9.78	-40.7	-44.0	13.4	2.05e-05	0	57	0	1032847360	52	5460
2026-01-03 11:42:05.46	323.08	9.52	-40.3	-43.3	14.1	2.20e-06	0	57	0	1040187392	52	5010
2026-01-03 11:42:09.50	323.55	9.26	-40.2	-43.1	14.3	0.00e+00	0	57	0	1047527424	52	4909
2026-01-03 11:42:13.54	324.00	9.01	-40.6	-43.9	13.5	3.80e-06	0	57	0	1054867456	52	5367
2026-01-03 11:42:17.58	324.45	8.75	-40.9	-44.4	12.9	5.03e-05	0	57	0	1063256064	52	5702
2026-01-03 11:42:21.61	324.89	8.50	-41.2	-45.2	12.1	1.08e-04	0	57	0	1070596096	53	5862
2026-01-03 11:42:25.65	325.33	8.25	-41.5	-45.8	11.5	8.54e-04	0	56	0	1077936128	53	6275
2026-01-03 11:42:29.69	325.76	7.99	-44.1	-57.6	3.9	1.45e-03	0	57	0	1085276160	58	18419
2026-01-03 11:42:33.73	326.18	7.74	-44.9	-59.7	3.8	1.49e+00	0	57	104	1085276160	60	20963
2026-01-03 11:42:37.77	326.59	7.49	-45.2	-60.0	3.8	1.49e+00	0	57	104	1085276160	60	21607
2026-01-03 11:42:41.81	327.00	7.25	-45.1	-59.9	3.8	1.49e+00	0	57	104	1085276160	60	21349
2026-01-03 11:42:45.85	327.40	7.00	-45.0	-59.9	3.8	1.49e+00	0	57	104	1085276160	60	21358
2026-01-03 11:42:49.90	327.79	6.75	-45.0	-59.9	3.8	1.49e+00	0	57	104	1085276160	60	21346
2026-01-03 11:42:53.94	328.18	6.51	-45.0	-59.9	3.8	1.49e+00	0	57	104	1085276160	60	21340
2026-01-03 11:42:57.99	328.56	6.27	-45.0	-59.9	3.8	1.49e+00	0	57	104	1085276160	60	21395
2026-01-03 11:43:02.03	328.94	6.02	-45.0	-59.9	3.8	1.49e+00	0	57	104	1085276160	60	21287
2026-01-03 11:43:06.08	329.31	5.78	-45.0	-59.9	3.8	1.49e+00	0	57	104	1085276160	60	21299
2026-01-03 11:43:10.12	329.68	5.54	-45.0	-59.9	3.8	1.49e+00	0	57	104	1085276160	60	21349
2026-01-03 11:43:14.16	330.03	5.31	-45.0	-59.9	3.8	1.49e+00	0	57	104	1085276160	60	21303
2026-01-03 11:43:18.21	330.39	5.07	-45.0	-59.9	3.8	1.49e+00	0	57	104	1085276160	60	21339
2026-01-03 11:43:22.25	330.74	4.83	-45.0	-59.9	3.8	1.49e+00	0	57	104	1085276160	60	21286
2026-01-03 11:43:26.30	331.08	4.60	-45.0	-59.8	3.8	1.49e+00	0	57	104	1085276160	60	21240
2026-01-03 11:43:30.34	331.42	4.37	-45.0	-59.8	3.8	1.49e+00	0	57	104	1085276160	60	21256
2026-01-03 11:43:34.38	331.75	4.14	-45.0	-59.9	3.8	1.49e+00	0	57	104	1085276160	60	21267
2026-01-03 11:43:38.43	332.08	3.90	-45.0	-59.9	3.8	1.49e+00	0	57	104	1085276160	60	21272
2026-01-03 11:43:42.47	332.40	3.68	-45.0	-59.9	3.8	1.49e+00	0	57	104	1085276160	60	21301
2026-01-03 11:43:46.52	332.72	3.45	-45.0	-59.9	3.8	1.49e+00	0	57	104	1085276160	60	21274
2026-01-03 11:43:50.56	333.03	3.22	-45.0	-59.8	3.8	1.49e+00	0	57	104	1085276160	60	21237
2026-01-03 11:43:54.61	333.34	2.99	-45.0	-59.8	3.8	1.49e+00	0	57	104	1085276160	60	21255
2026-01-03 11:43:58.65	333.65	2.77	-45.0	-59.8	3.8	1.49e+00	0	57	104	1085276160	60	21259
2026-01-03 11:44:02.70	333.95	2.55	-45.0	-59.8	3.8	1.49e+00	0	57	104	1085276160	60	21165
2026-01-03 11:44:06.74	334.25	2.32	-45.0	-59.8	3.8	1.49e+00	0	57	104	1085276160	60	21246
2026-01-03 11:44:10.78	334.54	2.10	-45.0	-59.8	3.8	1.49e+00	0	57	104	1085276160	60	21208

#Closed at: 2026-01-03 11:44:13
#Recorded file [1085 MB]: D:/lorett/data/31039_260103_143123.dat