passes_logs/2026/01/03/R2.0S_Moscow/R2.0S_Moscow__20260103_122753_AQUA_rec.log

#Pass ID: 20260103_122753_AQUA
#Satellite: AQUA
#Configuration: AQUA
#almurnet v.1.7.20251203
#Start time: 2026-01-03 12:27:53

#Version: 2.2.20231116
#Station: R2.0S_Moscow
#Location: 37.707566 lon 55.798166 lat
#TLE: 1 27424U 02022A   25365.92641127  .00002078  00000+0  42628-3 0  9999
#TLE: 2 27424  98.4058 327.1196 0001962  94.7781 340.6230 14.61783896258835

#Time	Az	El	Level	Level2	SNR	BER	BlckErr	Temp	State	Recorded	gain1	gain2
2026-01-03 12:27:53.69	187.20	2.02	-44.7	-63.6	3.8	7.44e-01	0	47	0	0	61	30880
2026-01-03 12:27:56.71	187.35	2.21	-44.7	-63.6	3.8	7.46e-01	0	47	104	0	60	32690
2026-01-03 12:27:59.74	187.50	2.40	-44.7	-63.6	3.8	7.43e-01	0	48	104	0	60	32698
2026-01-03 12:28:02.78	187.64	2.60	-44.7	-63.6	3.8	7.49e-01	0	48	104	0	60	32680
2026-01-03 12:28:05.81	187.80	2.80	-44.7	-63.6	3.8	7.43e-01	0	48	104	0	60	32659
2026-01-03 12:28:08.84	187.95	3.00	-44.7	-63.6	3.8	7.43e-01	0	48	104	0	60	32822
2026-01-03 12:28:11.87	188.10	3.20	-44.7	-63.6	3.8	7.43e-01	0	49	104	0	60	32739
2026-01-03 12:28:14.91	188.26	3.40	-44.7	-63.6	3.8	7.44e-01	0	49	104	0	60	32681
2026-01-03 12:28:17.94	188.42	3.60	-44.7	-63.6	3.8	7.48e-01	0	49	104	0	60	32573
2026-01-03 12:28:20.97	188.58	3.81	-44.7	-63.5	3.8	7.49e-01	0	49	104	0	60	32545
2026-01-03 12:28:24.01	188.75	4.01	-44.7	-63.5	3.8	7.45e-01	0	49	104	0	60	32375
2026-01-03 12:28:27.04	188.92	4.22	-44.7	-63.5	3.8	7.46e-01	0	50	104	0	60	32497
2026-01-03 12:28:30.07	189.08	4.43	-44.7	-63.5	3.8	7.44e-01	0	50	104	0	60	32494
2026-01-03 12:28:33.11	189.26	4.64	-44.7	-63.0	3.8	7.43e-01	0	50	104	0	60	30450
2026-01-03 12:28:36.14	189.43	4.85	-44.7	-61.9	3.8	7.44e-01	0	50	104	0	60	26811
2026-01-03 12:28:39.17	189.61	5.07	-44.7	-60.3	4.1	7.37e-01	0	50	104	0	60	22398
2026-01-03 12:28:42.21	189.79	5.29	-44.6	-58.7	4.7	7.18e-01	0	50	104	0	60	18662
2026-01-03 12:28:45.24	189.97	5.50	-44.6	-59.4	4.5	7.39e-01	0	50	104	0	60	20182
2026-01-03 12:28:48.27	190.16	5.72	-44.7	-60.7	4.0	7.38e-01	0	51	104	0	60	23489
2026-01-03 12:28:51.30	190.35	5.94	-44.7	-62.1	3.8	7.47e-01	0	51	104	0	60	27550
2026-01-03 12:28:54.34	190.54	6.17	-44.7	-62.0	3.8	7.42e-01	0	51	104	0	60	27217
2026-01-03 12:28:57.37	190.73	6.39	-44.7	-61.1	4.0	7.42e-01	0	51	104	0	60	24431
2026-01-03 12:29:00.40	190.93	6.62	-44.7	-60.2	3.9	7.40e-01	0	51	104	0	60	22231
2026-01-03 12:29:03.44	191.13	6.85	-44.4	-55.8	6.5	6.72e-01	92	52	0	1048576	60	13388
2026-01-03 12:29:06.47	191.34	7.08	-44.0	-51.5	11.2	6.17e-01	0	51	0	6815744	59	8597
2026-01-03 12:29:09.50	191.54	7.32	-42.7	-47.4	15.5	6.04e-01	0	52	0	12582912	57	6006
2026-01-03 12:29:12.54	191.76	7.55	-41.3	-44.8	18.1	6.10e-01	0	52	0	17825792	54	5280
2026-01-03 12:29:15.57	191.97	7.79	-40.5	-43.5	19.3	6.08e-01	0	52	0	23592960	53	4838
2026-01-03 12:29:18.60	192.19	8.03	-40.6	-43.6	19.3	6.03e-01	0	52	0	29360128	52	5161
2026-01-03 12:29:21.63	192.41	8.27	-41.0	-44.3	19.0	6.06e-01	0	52	0	35127296	52	5599
2026-01-03 12:29:24.66	192.64	8.52	-40.6	-43.5	19.4	6.05e-01	0	52	0	40894464	53	4867
2026-01-03 12:29:27.69	192.87	8.77	-40.3	-43.1	19.9	6.08e-01	0	52	0	46661632	52	4889
2026-01-03 12:29:30.72	193.10	9.01	-40.2	-42.8	20.2	6.07e-01	0	52	0	51904512	52	4755
2026-01-03 12:29:33.74	193.34	9.27	-40.2	-42.9	20.2	6.07e-01	0	53	0	57671680	52	4773
2026-01-03 12:29:36.77	193.58	9.52	-40.2	-42.8	20.4	6.08e-01	0	52	0	63438848	52	4724
2026-01-03 12:29:39.80	193.83	9.78	-40.0	-42.5	20.6	6.06e-01	0	53	0	69206016	52	4595
2026-01-03 12:29:42.82	194.08	10.03	-40.1	-42.7	20.5	6.07e-01	0	53	0	74973184	52	4684
2026-01-03 12:29:45.85	194.34	10.30	-40.2	-42.7	20.5	6.10e-01	0	53	0	80740352	51	4977
2026-01-03 12:29:48.88	194.60	10.56	-40.1	-42.6	20.7	6.05e-01	0	53	0	85983232	51	4903
2026-01-03 12:29:51.91	194.87	10.83	-40.1	-42.6	20.8	6.06e-01	0	53	0	91750400	51	4884
2026-01-03 12:29:54.95	195.14	11.10	-40.1	-42.5	20.8	6.07e-01	0	53	0	97517568	51	4869
2026-01-03 12:29:57.97	195.41	11.37	-39.9	-42.4	21.0	6.05e-01	0	53	0	103284736	51	4764
2026-01-03 12:30:01.00	195.70	11.65	-40.0	-42.4	21.1	6.07e-01	0	53	0	109051904	51	4779
2026-01-03 12:30:04.03	195.98	11.92	-39.9	-42.3	21.2	6.03e-01	0	53	0	114819072	51	4721
2026-01-03 12:30:07.06	196.28	12.21	-39.9	-42.2	21.3	6.05e-01	0	53	0	120061952	51	4696
2026-01-03 12:30:10.09	196.58	12.49	-39.8	-42.1	21.4	6.08e-01	0	53	0	125829120	51	4604
2026-01-03 12:30:13.12	196.88	12.78	-39.7	-41.9	21.6	6.06e-01	0	53	0	131596288	51	4535
2026-01-03 12:30:16.15	197.19	13.07	-39.6	-41.9	21.6	6.08e-01	0	53	0	137363456	51	4516
2026-01-03 12:30:19.18	197.51	13.36	-39.7	-41.9	21.6	6.05e-01	0	53	0	143130624	51	4521
2026-01-03 12:30:22.21	197.84	13.66	-39.6	-41.9	21.7	6.06e-01	0	54	0	148897792	51	4503
2026-01-03 12:30:25.24	198.17	13.96	-39.7	-41.9	21.7	6.07e-01	0	54	0	154140672	51	4515
2026-01-03 12:30:28.27	198.51	14.26	-39.6	-41.9	21.7	6.07e-01	0	54	0	159907840	51	4499
2026-01-03 12:30:31.30	198.85	14.57	-39.6	-41.8	21.8	6.09e-01	0	54	0	165675008	51	4449
2026-01-03 12:30:34.33	199.21	14.88	-39.6	-41.8	21.8	6.05e-01	0	54	0	171442176	51	4442
2026-01-03 12:30:37.36	199.57	15.19	-39.4	-41.6	22.0	6.08e-01	0	54	0	177209344	50	4617
2026-01-03 12:30:40.38	199.94	15.51	-39.3	-41.4	22.3	6.07e-01	0	54	0	182976512	50	4518
2026-01-03 12:30:43.41	200.31	15.83	-39.4	-41.5	22.2	6.07e-01	0	54	0	188219392	50	4570
2026-01-03 12:30:46.44	200.70	16.16	-39.4	-41.5	22.2	6.04e-01	0	54	0	193986560	50	4594
2026-01-03 12:30:49.47	201.09	16.48	-39.4	-41.5	22.2	6.07e-01	0	54	0	199753728	50	4556
2026-01-03 12:30:52.49	201.50	16.81	-39.6	-41.7	22.0	6.06e-01	0	54	0	205520896	50	4697
2026-01-03 12:30:55.53	201.91	17.15	-39.4	-41.6	22.2	6.07e-01	0	54	0	211288064	50	4602
2026-01-03 12:30:58.55	202.33	17.49	-39.4	-41.4	22.3	6.04e-01	0	54	0	217055232	50	4541
2026-01-03 12:31:01.58	202.77	17.83	-39.5	-41.6	22.1	6.06e-01	0	54	0	222298112	50	4636
2026-01-03 12:31:04.61	203.21	18.18	-39.3	-41.4	22.3	6.05e-01	0	54	0	228065280	50	4536
2026-01-03 12:31:07.64	203.66	18.53	-39.3	-41.4	22.3	6.06e-01	0	54	0	233832448	50	4530
2026-01-03 12:31:10.67	204.13	18.89	-39.5	-41.6	22.2	6.06e-01	0	55	0	239599616	50	4622
2026-01-03 12:31:13.70	204.60	19.24	-39.4	-41.5	22.3	6.07e-01	0	55	0	245366784	50	4567
2026-01-03 12:31:16.73	205.09	19.61	-39.7	-41.9	21.9	6.05e-01	0	55	0	251133952	50	4790
2026-01-03 12:31:19.76	205.59	19.97	-39.3	-41.4	22.4	6.08e-01	0	54	0	256376832	50	4514
2026-01-03 12:31:22.79	206.10	20.34	-39.6	-41.7	22.1	6.07e-01	0	54	0	262144000	50	4689
2026-01-03 12:31:25.82	206.63	20.72	-39.5	-41.6	22.3	6.04e-01	0	54	0	267911168	50	4601
2026-01-03 12:31:28.84	207.16	21.09	-39.6	-41.8	22.1	6.05e-01	0	55	0	273678336	50	4725
2026-01-03 12:31:31.87	207.71	21.47	-39.6	-41.7	22.1	6.06e-01	0	55	0	279445504	50	4691
2026-01-03 12:31:34.90	208.28	21.86	-39.6	-41.7	22.2	6.07e-01	0	54	0	285212672	50	4671
2026-01-03 12:31:37.93	208.86	22.25	-39.5	-41.6	22.3	6.06e-01	0	55	0	290455552	50	4636
2026-01-03 12:31:40.96	209.46	22.64	-39.6	-41.6	22.3	6.08e-01	0	55	0	296222720	50	4647
2026-01-03 12:31:43.99	210.07	23.04	-39.6	-41.7	22.3	6.08e-01	0	55	0	301989888	50	4659
2026-01-03 12:31:47.01	210.69	23.43	-39.6	-41.7	22.2	6.07e-01	0	55	0	307757056	50	4688
2026-01-03 12:31:50.04	211.34	23.84	-39.5	-41.6	22.4	6.07e-01	0	55	0	313524224	50	4600
2026-01-03 12:31:53.07	212.00	24.24	-39.6	-41.7	22.3	6.06e-01	0	55	0	319291392	50	4675
2026-01-03 12:31:56.10	212.68	24.65	-39.7	-41.9	22.1	6.06e-01	0	55	0	324534272	50	4770
2026-01-03 12:31:59.13	213.38	25.06	-39.6	-41.7	22.3	6.05e-01	0	55	0	330301440	50	4688
2026-01-03 12:32:02.16	214.09	25.48	-39.7	-41.8	22.2	6.07e-01	0	55	0	336068608	50	4744
2026-01-03 12:32:05.18	214.82	25.89	-39.7	-41.8	22.2	6.06e-01	0	55	0	341835776	50	4716
2026-01-03 12:32:08.21	215.58	26.31	-39.7	-41.8	22.2	6.06e-01	0	55	0	347602944	50	4754
2026-01-03 12:32:11.24	216.36	26.73	-39.6	-41.7	22.3	6.06e-01	0	55	0	353370112	50	4674
2026-01-03 12:32:14.27	217.15	27.15	-39.6	-41.7	22.3	6.06e-01	0	55	0	358612992	50	4686
2026-01-03 12:32:17.30	217.97	27.57	-39.6	-41.8	22.2	6.05e-01	0	55	0	364380160	50	4709
2026-01-03 12:32:20.33	218.82	28.00	-39.6	-41.7	22.3	6.08e-01	0	55	0	370147328	50	4660
2026-01-03 12:32:23.36	219.68	28.42	-39.7	-41.8	22.2	6.07e-01	0	55	0	375914496	50	4724
2026-01-03 12:32:26.39	220.57	28.85	-39.5	-41.6	22.5	6.06e-01	0	55	0	381681664	50	4600
2026-01-03 12:32:29.42	221.48	29.27	-39.6	-41.6	22.4	6.07e-01	0	55	0	387448832	50	4644
2026-01-03 12:32:32.44	222.41	29.69	-39.6	-41.7	22.3	6.06e-01	0	55	0	392691712	50	4681
2026-01-03 12:32:35.47	223.38	30.11	-39.6	-41.7	22.4	6.06e-01	0	55	0	398458880	50	4655
2026-01-03 12:32:38.50	224.37	30.53	-39.7	-41.8	22.3	6.06e-01	0	55	0	404226048	50	4721
2026-01-03 12:32:41.53	225.38	30.95	-39.4	-41.4	22.7	6.07e-01	0	55	0	409993216	50	4515
2026-01-03 12:32:44.56	226.42	31.36	-39.7	-41.8	22.2	6.07e-01	0	56	0	415760384	50	4757
2026-01-03 12:32:47.59	227.49	31.77	-39.7	-41.8	22.3	6.07e-01	0	55	0	421527552	50	4711
2026-01-03 12:32:50.62	228.59	32.18	-39.8	-42.0	22.1	6.07e-01	0	55	0	426770432	50	4837
2026-01-03 12:32:53.65	229.71	32.58	-39.6	-41.6	22.5	6.07e-01	0	55	0	432537600	50	4626
2026-01-03 12:32:56.68	230.86	32.97	-39.8	-41.9	22.1	6.05e-01	0	55	0	438304768	50	4795
2026-01-03 12:32:59.71	232.04	33.35	-39.6	-41.7	22.4	6.03e-01	0	55	0	444071936	50	4676
2026-01-03 12:33:02.74	233.25	33.73	-39.8	-41.9	22.2	6.06e-01	0	55	0	449839104	50	4781
2026-01-03 12:33:05.77	234.48	34.10	-39.8	-41.9	22.2	6.07e-01	0	55	0	455606272	50	4793
2026-01-03 12:33:08.80	235.75	34.45	-39.8	-41.9	22.2	6.06e-01	0	56	0	460849152	50	4771
2026-01-03 12:33:11.83	237.04	34.80	-39.6	-41.7	22.4	6.05e-01	0	56	0	466616320	50	4691
2026-01-03 12:33:14.86	238.36	35.13	-39.9	-42.0	22.1	6.09e-01	0	56	0	472383488	50	4848
2026-01-03 12:33:17.89	239.71	35.45	-39.7	-41.9	22.2	6.06e-01	0	56	0	478150656	50	4762
2026-01-03 12:33:20.91	241.08	35.76	-39.8	-41.9	22.2	6.05e-01	0	56	0	483917824	50	4807
2026-01-03 12:33:23.94	242.47	36.05	-39.8	-41.9	22.1	6.07e-01	0	55	0	489684992	50	4808
2026-01-03 12:33:26.97	243.90	36.32	-39.6	-41.6	22.5	6.06e-01	0	56	0	494927872	50	4632
2026-01-03 12:33:30.00	245.34	36.58	-39.7	-41.8	22.2	6.06e-01	0	56	0	500695040	50	4724
2026-01-03 12:33:33.02	246.81	36.82	-39.7	-41.8	22.3	6.06e-01	0	56	0	506462208	50	4731
2026-01-03 12:33:36.05	248.30	37.04	-39.6	-41.6	22.5	6.07e-01	0	56	0	512229376	50	4649
2026-01-03 12:33:39.09	249.81	37.24	-39.7	-41.7	22.3	6.06e-01	0	56	0	517996544	50	4698
2026-01-03 12:33:42.12	251.34	37.42	-39.8	-41.9	22.2	6.05e-01	0	56	0	523763712	50	4771
2026-01-03 12:33:45.15	252.88	37.58	-39.6	-41.7	22.5	6.06e-01	0	56	0	529006592	50	4658
2026-01-03 12:33:48.18	254.44	37.72	-39.5	-41.6	22.5	6.06e-01	0	56	0	534773760	50	4599
2026-01-03 12:33:51.20	256.00	37.83	-39.6	-41.6	22.5	6.05e-01	0	56	0	540540928	50	4624
2026-01-03 12:33:54.23	257.58	37.92	-39.6	-41.7	22.4	6.07e-01	0	56	0	546308096	50	4671
2026-01-03 12:33:57.26	259.17	37.99	-39.6	-41.7	22.4	6.07e-01	0	56	0	552075264	50	4677
2026-01-03 12:34:00.29	260.76	38.03	-39.5	-41.5	22.6	6.06e-01	0	56	0	557318144	50	4585
2026-01-03 12:34:03.32	262.36	38.05	-39.5	-41.5	22.5	6.07e-01	0	56	0	563085312	50	4590
2026-01-03 12:34:06.35	263.95	38.05	-39.5	-41.5	22.6	6.05e-01	0	56	0	568852480	50	4563
2026-01-03 12:34:09.37	265.54	38.02	-39.6	-41.6	22.5	6.05e-01	0	56	0	574619648	50	4619
2026-01-03 12:34:12.40	267.13	37.96	-39.5	-41.6	22.6	6.06e-01	0	56	0	580386816	50	4600
2026-01-03 12:34:15.43	268.71	37.89	-39.6	-41.7	22.4	6.05e-01	0	56	0	586153984	50	4702
2026-01-03 12:34:18.46	270.29	37.79	-39.7	-41.8	22.3	6.05e-01	0	56	0	591921152	50	4714
2026-01-03 12:34:21.49	271.85	37.66	-39.6	-41.7	22.4	6.07e-01	0	56	0	597164032	50	4674
2026-01-03 12:34:24.52	273.40	37.52	-39.4	-41.4	22.6	6.09e-01	0	56	0	602931200	50	4538
2026-01-03 12:34:27.55	274.93	37.35	-39.7	-41.8	22.3	6.05e-01	0	56	0	608698368	50	4713
2026-01-03 12:34:30.58	276.45	37.16	-39.6	-41.6	21.2	6.04e-01	0	56	0	614465536	50	4629
2026-01-03 12:34:33.61	277.95	36.95	-39.3	-41.3	22.8	6.05e-01	0	56	0	620232704	50	4453
2026-01-03 12:34:36.63	279.43	36.73	-39.6	-41.7	22.4	6.06e-01	0	56	0	625475584	50	4665
2026-01-03 12:34:39.66	280.88	36.48	-39.4	-41.4	22.7	6.06e-01	0	56	0	631242752	50	4521
2026-01-03 12:34:42.69	282.32	36.22	-39.4	-41.4	22.6	6.07e-01	0	56	0	637009920	50	4523
2026-01-03 12:34:45.72	283.73	35.94	-39.2	-41.2	22.8	6.07e-01	0	56	0	642777088	50	4420
2026-01-03 12:34:48.75	285.11	35.64	-39.2	-41.2	22.9	6.09e-01	0	56	0	648544256	50	4412
2026-01-03 12:34:51.78	286.47	35.33	-39.2	-41.1	22.9	6.05e-01	0	56	0	654311424	50	4373
2026-01-03 12:34:54.80	287.80	35.01	-39.1	-41.0	23.1	6.05e-01	0	56	0	660078592	50	4311
2026-01-03 12:34:57.83	289.10	34.67	-38.8	-40.7	23.3	6.03e-01	0	56	0	665321472	49	4425
2026-01-03 12:35:00.86	290.38	34.32	-38.9	-40.7	23.3	6.07e-01	0	56	0	671088640	49	4433
2026-01-03 12:35:03.89	291.63	33.96	-38.8	-40.7	23.3	6.03e-01	0	56	0	676855808	49	4420
2026-01-03 12:35:06.92	292.85	33.59	-38.6	-40.5	23.5	6.07e-01	0	56	0	682622976	49	4311
2026-01-03 12:35:09.95	294.04	33.21	-38.9	-40.8	23.2	6.06e-01	0	56	0	688390144	49	4446
2026-01-03 12:35:12.98	295.20	32.83	-38.6	-40.4	23.5	6.07e-01	0	56	0	693633024	49	4275
2026-01-03 12:35:16.01	296.34	32.44	-38.6	-40.5	23.5	6.08e-01	0	56	0	699400192	49	4298
2026-01-03 12:35:19.03	297.45	32.04	-38.6	-40.4	23.5	6.07e-01	0	56	0	705167360	49	4290
2026-01-03 12:35:22.06	298.53	31.64	-38.6	-40.5	23.5	6.05e-01	0	56	0	710934528	49	4296
2026-01-03 12:35:25.09	299.58	31.23	-38.7	-40.5	23.4	6.03e-01	0	56	0	716701696	49	4315
2026-01-03 12:35:28.12	300.61	30.82	-38.6	-40.4	23.4	6.04e-01	0	56	0	722468864	49	4261
2026-01-03 12:35:31.15	301.61	30.40	-38.7	-40.6	23.2	6.05e-01	0	56	0	728236032	49	4371
2026-01-03 12:35:34.18	302.58	29.98	-38.7	-40.6	23.3	6.05e-01	0	56	0	733478912	49	4351
2026-01-03 12:35:37.21	303.53	29.56	-38.8	-40.7	23.2	6.05e-01	0	56	0	739246080	49	4427
2026-01-03 12:35:40.24	304.46	29.14	-39.0	-41.0	23.0	6.07e-01	0	56	0	745013248	49	4551
2026-01-03 12:35:43.27	305.36	28.72	-39.0	-40.9	23.0	6.06e-01	0	56	0	750780416	49	4533
2026-01-03 12:35:46.30	306.23	28.30	-39.1	-41.1	22.8	6.09e-01	0	56	0	756547584	49	4609
2026-01-03 12:35:49.33	307.08	27.88	-39.2	-41.2	22.7	6.05e-01	0	56	0	761790464	49	4702
2026-01-03 12:35:52.36	307.91	27.46	-39.3	-41.3	22.6	6.06e-01	0	56	0	767557632	49	4758
2026-01-03 12:35:55.39	308.72	27.04	-39.6	-41.7	22.2	6.05e-01	0	56	0	773324800	49	4951
2026-01-03 12:35:58.41	309.51	26.62	-39.5	-41.6	22.2	6.04e-01	0	56	0	779091968	49	4916
2026-01-03 12:36:01.44	310.27	26.20	-39.5	-41.6	22.3	6.06e-01	0	56	0	784859136	49	4875
2026-01-03 12:36:04.47	311.02	25.79	-39.3	-41.3	22.5	6.05e-01	0	56	0	790626304	49	4755
2026-01-03 12:36:07.50	311.74	25.38	-39.3	-41.4	22.4	6.06e-01	0	56	0	796393472	49	4776
2026-01-03 12:36:10.52	312.45	24.97	-39.4	-41.5	22.3	6.06e-01	0	56	0	801636352	49	4855
2026-01-03 12:36:13.55	313.14	24.56	-39.4	-41.5	22.3	6.09e-01	0	56	0	807403520	49	4841
2026-01-03 12:36:16.58	313.81	24.16	-39.5	-41.7	22.1	6.07e-01	0	56	0	813170688	49	4944
2026-01-03 12:36:19.61	314.46	23.75	-39.4	-41.5	22.2	6.08e-01	0	56	0	818937856	49	4867
2026-01-03 12:36:22.64	315.10	23.36	-39.8	-42.0	21.8	6.05e-01	0	56	0	824705024	50	4818
2026-01-03 12:36:25.67	315.72	22.96	-39.4	-41.5	22.2	6.06e-01	0	56	0	829947904	50	4583
2026-01-03 12:36:28.69	316.32	22.57	-39.4	-41.5	22.2	6.07e-01	0	56	0	835715072	50	4588
2026-01-03 12:36:31.72	316.91	22.18	-39.5	-41.6	22.2	6.06e-01	0	56	0	841482240	50	4625
2026-01-03 12:36:34.75	317.48	21.80	-39.4	-41.6	22.2	6.07e-01	0	56	0	847249408	50	4600
2026-01-03 12:36:37.78	318.04	21.42	-39.3	-41.4	22.3	6.07e-01	0	56	0	853016576	50	4523
2026-01-03 12:36:40.81	318.58	21.04	-39.3	-41.3	22.4	6.08e-01	0	56	0	858783744	50	4490
2026-01-03 12:36:43.84	319.12	20.67	-39.2	-41.2	22.4	6.06e-01	0	56	0	864550912	50	4435
2026-01-03 12:36:46.87	319.64	20.30	-39.2	-41.3	22.4	6.08e-01	0	56	0	869793792	50	4444
2026-01-03 12:36:49.90	320.14	19.93	-39.2	-41.3	22.4	6.06e-01	0	56	0	875560960	50	4472
2026-01-03 12:36:52.93	320.64	19.57	-39.4	-41.5	22.2	6.07e-01	0	56	0	881328128	50	4567
2026-01-03 12:36:55.96	321.12	19.21	-39.4	-41.5	22.1	6.08e-01	0	56	0	887095296	50	4591
2026-01-03 12:36:58.99	321.59	18.86	-39.3	-41.5	22.2	6.08e-01	0	56	0	892862464	50	4547
2026-01-03 12:37:02.02	322.05	18.51	-39.2	-41.3	22.4	6.07e-01	0	56	0	898105344	50	4446
2026-01-03 12:37:05.04	322.50	18.16	-39.2	-41.2	22.4	6.03e-01	0	56	0	903872512	50	4435
2026-01-03 12:37:08.07	322.94	17.82	-39.2	-41.3	22.3	6.02e-01	0	56	0	909639680	50	4448
2026-01-03 12:37:11.10	323.37	17.48	-39.1	-41.2	22.4	6.02e-01	0	56	0	915406848	50	4410
2026-01-03 12:37:14.13	323.78	17.14	-39.1	-41.2	22.4	6.02e-01	0	56	0	921174016	50	4397
2026-01-03 12:37:17.16	324.19	16.81	-39.1	-41.2	22.4	6.02e-01	0	56	0	926941184	50	4400
2026-01-03 12:37:20.19	324.60	16.48	-39.1	-41.2	22.4	6.03e-01	0	56	0	932708352	50	4425
2026-01-03 12:37:23.21	324.99	16.16	-39.1	-41.2	22.4	6.02e-01	0	56	0	937951232	50	4404
2026-01-03 12:37:26.24	325.37	15.84	-39.2	-41.3	22.2	6.01e-01	0	56	0	943718400	50	4456
2026-01-03 12:37:29.27	325.74	15.52	-39.3	-41.4	22.0	5.99e-01	0	56	0	949485568	50	4536
2026-01-03 12:37:32.30	326.11	15.21	-39.2	-41.4	22.1	6.05e-01	0	56	0	955252736	50	4495
2026-01-03 12:37:35.33	326.47	14.90	-39.2	-41.4	22.1	6.04e-01	0	56	0	961019904	50	4496
2026-01-03 12:37:38.36	326.82	14.59	-39.1	-41.2	22.2	6.02e-01	0	56	0	966262784	50	4429
2026-01-03 12:37:41.39	327.16	14.28	-39.1	-41.3	22.2	6.03e-01	0	56	0	972029952	50	4443
2026-01-03 12:37:44.42	327.50	13.98	-39.2	-41.3	22.1	6.03e-01	0	56	0	977797120	50	4477
2026-01-03 12:37:47.44	327.83	13.69	-39.5	-41.7	21.6	6.02e-01	0	56	0	983564288	50	4693
2026-01-03 12:37:50.47	328.15	13.39	-39.6	-41.8	21.5	6.02e-01	0	56	0	989331456	50	4749
2026-01-03 12:37:53.51	328.47	13.10	-39.7	-42.0	21.3	6.03e-01	0	56	0	995098624	50	4854
2026-01-03 12:37:56.53	328.78	12.82	-39.4	-41.7	21.6	5.99e-01	0	56	0	1000865792	50	4672
2026-01-03 12:37:59.56	329.09	12.53	-39.6	-42.0	21.3	6.05e-01	0	56	0	1006108672	50	4820
2026-01-03 12:38:02.59	329.38	12.25	-39.5	-41.7	21.5	6.02e-01	0	56	0	1011875840	50	4705
2026-01-03 12:38:05.62	329.68	11.97	-39.5	-41.8	21.5	6.04e-01	0	56	0	1017643008	50	4709
2026-01-03 12:38:08.65	329.96	11.70	-39.6	-42.0	21.3	6.06e-01	0	56	0	1023410176	50	4825
2026-01-03 12:38:11.68	330.25	11.42	-39.7	-42.0	21.2	6.04e-01	0	56	0	1029177344	50	4865
2026-01-03 12:38:14.71	330.52	11.15	-39.7	-42.1	21.1	6.00e-01	0	56	0	1034420224	50	4880
2026-01-03 12:38:17.74	330.79	10.89	-39.7	-42.1	21.1	6.04e-01	0	56	0	1040187392	50	4905
2026-01-03 12:38:20.76	331.06	10.62	-39.7	-42.1	21.0	6.03e-01	0	56	0	1045954560	50	4903
2026-01-03 12:38:23.79	331.32	10.36	-39.8	-42.2	20.9	6.02e-01	0	56	0	1051721728	50	4980
2026-01-03 12:38:26.82	331.58	10.10	-39.8	-42.2	20.8	6.00e-01	0	56	0	1057488896	50	4983
2026-01-03 12:38:29.85	331.83	9.84	-39.9	-42.4	20.7	5.99e-01	0	56	0	1063256064	50	5062
2026-01-03 12:38:32.88	332.08	9.59	-39.8	-42.4	20.7	6.03e-01	0	56	0	1069023232	50	5050
2026-01-03 12:38:35.91	332.32	9.34	-39.9	-42.5	20.5	6.01e-01	0	57	0	1074266112	50	5124
2026-01-03 12:38:38.94	332.56	9.09	-40.0	-42.6	20.4	6.04e-01	0	57	0	1080033280	50	5172
2026-01-03 12:38:41.97	332.79	8.84	-40.0	-42.7	20.2	6.01e-01	0	56	0	1085800448	50	5231
2026-01-03 12:38:45.00	333.02	8.60	-40.1	-42.8	20.1	6.03e-01	0	57	0	1091567616	50	5309
2026-01-03 12:38:48.03	333.25	8.35	-40.2	-43.0	19.8	6.02e-01	0	56	0	1097334784	51	5153
2026-01-03 12:38:51.06	333.47	8.11	-40.2	-43.0	19.8	6.06e-01	0	56	0	1102577664	51	5146
2026-01-03 12:38:54.09	333.69	7.88	-45.4	-64.1	3.8	7.46e-01	0	56	104	1105723392	61	32715
2026-01-03 12:38:57.12	333.91	7.64	-46.0	-64.8	3.8	7.47e-01	0	56	104	1105723392	62	33453
2026-01-03 12:39:00.15	334.12	7.41	-46.1	-65.0	3.8	7.47e-01	0	57	104	1105723392	62	34194
2026-01-03 12:39:03.18	334.33	7.18	-45.7	-65.0	3.8	7.46e-01	0	57	104	1105723392	62	34098
2026-01-03 12:39:06.21	334.53	6.95	-46.1	-64.9	3.8	7.43e-01	0	57	104	1105723392	62	33984
2026-01-03 12:39:09.24	334.74	6.72	-46.1	-64.9	3.8	7.47e-01	0	57	104	1105723392	62	34004
2026-01-03 12:39:12.28	334.94	6.49	-46.0	-64.9	3.8	7.46e-01	0	57	104	1105723392	62	33990
2026-01-03 12:39:15.31	335.13	6.27	-46.0	-64.9	3.8	7.43e-01	0	57	104	1105723392	62	33853
2026-01-03 12:39:18.34	335.33	6.05	-46.0	-64.9	3.8	7.47e-01	0	57	104	1105723392	62	33864
2026-01-03 12:39:21.37	335.52	5.83	-46.0	-64.9	3.8	7.46e-01	0	57	104	1105723392	62	33867
2026-01-03 12:39:24.41	335.70	5.61	-46.0	-64.9	3.8	7.45e-01	0	57	104	1105723392	62	33881
2026-01-03 12:39:27.44	335.89	5.39	-46.0	-64.9	3.8	7.48e-01	0	57	104	1105723392	62	33770
2026-01-03 12:39:30.47	336.07	5.18	-46.0	-64.9	3.8	7.48e-01	0	57	104	1105723392	62	33767
2026-01-03 12:39:33.51	336.25	4.97	-46.0	-64.9	3.8	7.46e-01	0	57	104	1105723392	62	33815
2026-01-03 12:39:36.54	336.43	4.76	-46.0	-64.9	3.8	7.47e-01	0	57	104	1105723392	62	33891
2026-01-03 12:39:39.57	336.60	4.55	-46.0	-64.9	3.8	7.44e-01	0	57	104	1105723392	62	33830
2026-01-03 12:39:42.61	336.77	4.34	-46.0	-64.9	3.8	7.44e-01	0	57	104	1105723392	62	33833
2026-01-03 12:39:45.64	336.94	4.13	-46.0	-64.9	3.8	7.48e-01	0	57	104	1105723392	62	33864
2026-01-03 12:39:48.67	337.11	3.93	-46.0	-64.9	3.8	7.43e-01	0	57	104	1105723392	62	33788
2026-01-03 12:39:51.71	337.27	3.72	-46.0	-64.9	3.8	7.42e-01	0	57	104	1105723392	62	33753
2026-01-03 12:39:54.74	337.43	3.52	-46.0	-64.9	3.8	7.45e-01	0	57	104	1105723392	62	33783
2026-01-03 12:39:57.77	337.59	3.32	-46.0	-64.9	3.8	7.47e-01	0	57	104	1105723392	62	33822
2026-01-03 12:40:00.80	337.75	3.12	-46.0	-64.9	3.8	7.46e-01	0	57	104	1105723392	62	33731
2026-01-03 12:40:03.84	337.91	2.93	-46.0	-64.8	3.8	7.43e-01	0	57	104	1105723392	62	33676
2026-01-03 12:40:06.87	338.06	2.73	-45.7	-64.9	3.8	7.46e-01	0	57	104	1105723392	62	33703
2026-01-03 12:40:09.90	338.21	2.54	-46.0	-64.8	3.8	7.46e-01	0	57	104	1105723392	62	33686
2026-01-03 12:40:12.93	338.36	2.34	-46.0	-64.9	3.8	7.42e-01	0	57	104	1105723392	62	33740
2026-01-03 12:40:15.97	338.51	2.15	-45.9	-64.8	3.8	7.46e-01	0	57	104	1105723392	62	33673
2026-01-03 12:40:19.00	338.66	1.96	-45.9	-64.8	3.8	7.43e-01	0	57	104	1105723392	62	33647

#Closed at: 2026-01-03 12:40:20
#Recorded file [1105 MB]: D:/lorett/data/31039_260103_152753.dat