passes_logs/2026/01/03/R2.0S_Moscow/R2.0S_Moscow__20260103_222059_NOAA_20_JPSS-1_rec.log

#Pass ID: 20260103_222059_NOAA 20 (JPSS-1)
#Satellite: NOAA 20 (JPSS-1)
#Configuration: NOAA 20
#almurnet v.1.7.20251203
#Start time: 2026-01-03 22:21:01

#Version: 2.2.20231116
#Station: R2.0S_Moscow
#Location: 37.707566 lon 55.798166 lat
#TLE: 1 43013U 17073A   26003.41800368  .00000169  00000+0  10117-3 0  9998
#TLE: 2 43013  98.7624 304.4804 0001884  56.1176 304.0179 14.19532918421092

#Time	Az	El	Level	Level2	SNR	BER	BlckErr	Temp	State	Recorded	gain1	gain2
2026-01-03 22:21:01.65	23.92	2.13	-41.7	-57.0	3.8	1.49e+00	0	48	0	0	55	20494
2026-01-03 22:21:05.69	24.18	2.36	-41.8	-57.0	3.8	1.49e+00	0	48	104	0	54	21698
2026-01-03 22:21:09.74	24.44	2.59	-41.8	-57.0	3.8	1.49e+00	0	48	104	0	54	21736
2026-01-03 22:21:13.78	24.71	2.82	-41.8	-57.0	3.8	1.49e+00	0	49	104	0	54	21740
2026-01-03 22:21:17.83	24.98	3.06	-41.8	-57.0	3.8	1.49e+00	0	49	104	0	54	21691
2026-01-03 22:21:21.87	25.26	3.29	-41.8	-57.0	3.8	1.49e+00	0	49	104	0	54	21711
2026-01-03 22:21:25.91	25.53	3.53	-41.8	-57.0	3.8	1.49e+00	0	50	104	0	54	21690
2026-01-03 22:21:29.96	25.82	3.77	-41.8	-57.0	3.8	1.49e+00	0	50	104	0	54	21706
2026-01-03 22:21:34.00	26.10	4.01	-41.8	-57.0	3.8	1.49e+00	0	50	104	0	54	21689
2026-01-03 22:21:38.05	26.39	4.25	-41.8	-57.0	3.8	1.49e+00	0	50	104	0	54	21718
2026-01-03 22:21:42.09	26.69	4.50	-41.8	-57.0	3.8	1.49e+00	0	50	104	0	54	21713
2026-01-03 22:21:46.14	26.99	4.74	-41.7	-57.0	3.8	1.49e+00	0	51	104	0	54	21663
2026-01-03 22:21:50.18	27.30	4.99	-41.7	-57.0	3.8	1.49e+00	0	51	104	0	54	21664
2026-01-03 22:21:54.22	27.61	5.24	-41.7	-57.0	3.8	1.49e+00	0	51	104	0	54	21625
2026-01-03 22:21:58.26	27.92	5.49	-41.8	-57.0	3.8	1.49e+00	0	51	104	0	54	21655
2026-01-03 22:22:02.31	28.24	5.74	-41.8	-57.0	3.8	1.49e+00	0	52	104	0	54	21676
2026-01-03 22:22:06.35	28.57	5.99	-41.8	-57.0	3.8	1.49e+00	0	52	104	0	54	21672
2026-01-03 22:22:10.40	28.90	6.25	-41.8	-57.0	3.8	1.49e+00	0	52	104	0	54	21629
2026-01-03 22:22:14.44	29.23	6.51	-41.7	-56.9	3.8	1.49e+00	0	52	104	0	54	21467
2026-01-03 22:22:18.48	29.58	6.77	-41.7	-56.9	3.8	1.49e+00	0	52	104	0	54	21356
2026-01-03 22:22:22.53	29.93	7.03	-41.7	-56.8	3.8	1.49e+00	0	52	104	0	54	21242
2026-01-03 22:22:26.57	30.28	7.29	-41.5	-52.5	4.5	1.18e+00	5	53	0	1048576	54	12913
2026-01-03 22:22:30.62	30.64	7.56	-40.8	-47.8	7.9	7.94e-02	0	53	0	8388608	53	7933
2026-01-03 22:22:34.66	31.01	7.82	-39.9	-44.7	11.1	2.41e-03	0	53	0	15728640	51	6268
2026-01-03 22:22:38.70	31.38	8.09	-42.0	-49.4	7.4	2.84e-03	0	53	0	24117248	54	9064
2026-01-03 22:22:42.74	31.76	8.36	-40.2	-44.4	12.2	1.32e+00	0	53	0	30408704	51	6051
2026-01-03 22:22:46.79	32.14	8.64	-40.0	-44.0	12.6	1.40e-04	0	53	0	37748736	51	5769
2026-01-03 22:22:50.83	32.54	8.91	-40.2	-44.0	12.8	6.25e-05	0	53	0	45088768	51	5724
2026-01-03 22:22:54.87	32.94	9.18	-40.1	-43.8	13.0	3.05e-05	0	54	0	53477376	51	5652
2026-01-03 22:22:58.91	33.34	9.46	-40.1	-43.7	13.2	1.22e-05	0	54	0	60817408	51	5555
2026-01-03 22:23:02.95	33.76	9.74	-40.2	-43.7	13.2	2.36e-05	0	54	0	68157440	51	5582
2026-01-03 22:23:06.99	34.18	10.02	-40.2	-43.6	13.4	1.29e-05	0	54	0	75497472	51	5498
2026-01-03 22:23:11.03	34.61	10.31	-40.3	-43.6	13.6	6.10e-06	0	54	0	82837504	51	5465
2026-01-03 22:23:15.07	35.05	10.59	-40.4	-43.8	13.4	1.75e-05	0	54	0	91226112	51	5593
2026-01-03 22:23:19.11	35.50	10.88	-40.4	-43.6	13.6	8.30e-06	0	54	0	98566144	51	5496
2026-01-03 22:23:23.15	35.95	11.17	-40.4	-43.7	13.6	5.30e-06	0	54	0	105906176	51	5535
2026-01-03 22:23:27.19	36.42	11.46	-40.2	-43.3	14.0	3.80e-06	0	55	0	113246208	51	5313
2026-01-03 22:23:31.23	36.89	11.75	-40.0	-43.0	14.3	2.20e-06	0	54	0	121634816	51	5139
2026-01-03 22:23:35.27	37.37	12.05	-40.1	-43.0	14.3	0.00e+00	0	55	0	128974848	51	5144
2026-01-03 22:23:39.31	37.86	12.34	-40.0	-42.9	14.5	7.00e-07	0	55	0	136314880	51	5074
2026-01-03 22:23:43.35	38.37	12.64	-39.9	-42.7	14.8	0.00e+00	0	55	0	143654912	51	4935
2026-01-03 22:23:47.39	38.88	12.94	-39.9	-42.7	14.8	0.00e+00	0	55	0	150994944	51	4983
2026-01-03 22:23:51.43	39.40	13.24	-40.2	-43.1	14.4	0.00e+00	0	55	0	159383552	51	5188
2026-01-03 22:23:55.47	39.93	13.55	-40.1	-43.0	14.5	1.50e-06	0	55	0	166723584	51	5151
2026-01-03 22:23:59.51	40.47	13.85	-40.0	-42.8	14.7	0.00e+00	0	55	0	174063616	51	5029
2026-01-03 22:24:03.55	41.03	14.16	-40.0	-42.8	14.7	0.00e+00	0	55	0	181403648	51	5026
2026-01-03 22:24:07.58	41.59	14.47	-39.9	-42.7	14.9	0.00e+00	0	55	0	189792256	51	4941
2026-01-03 22:24:11.62	42.16	14.78	-39.9	-42.7	14.9	0.00e+00	0	55	0	197132288	51	4950
2026-01-03 22:24:15.66	42.75	15.09	-39.9	-42.6	15.1	0.00e+00	0	55	0	204472320	51	4895
2026-01-03 22:24:19.71	43.35	15.40	-39.8	-42.5	15.2	0.00e+00	0	55	0	211812352	51	4827
2026-01-03 22:24:23.75	43.97	15.71	-39.8	-42.4	15.2	0.00e+00	0	55	0	220200960	51	4811
2026-01-03 22:24:27.79	44.59	16.02	-39.6	-42.2	15.5	0.00e+00	0	55	0	227540992	51	4660
2026-01-03 22:24:31.83	45.23	16.34	-39.6	-42.2	15.5	0.00e+00	0	55	0	234881024	51	4664
2026-01-03 22:24:35.87	45.88	16.65	-39.6	-42.2	15.6	0.00e+00	0	56	0	242221056	51	4659
2026-01-03 22:24:39.91	46.54	16.97	-39.7	-42.3	15.4	0.00e+00	0	56	0	249561088	51	4734
2026-01-03 22:24:43.95	47.22	17.29	-39.9	-42.5	15.3	0.00e+00	0	56	0	257949696	51	4827
2026-01-03 22:24:47.99	47.91	17.60	-39.9	-42.6	15.2	0.00e+00	0	56	0	265289728	51	4895
2026-01-03 22:24:52.03	48.62	17.92	-39.8	-42.4	15.3	0.00e+00	0	56	0	272629760	51	4799
2026-01-03 22:24:56.07	49.34	18.24	-39.5	-42.0	15.8	0.00e+00	0	56	0	279969792	51	4559
2026-01-03 22:25:00.11	50.07	18.55	-39.5	-41.9	15.9	0.00e+00	0	56	0	288358400	50	4789
2026-01-03 22:25:04.15	50.82	18.87	-39.2	-41.5	16.3	0.00e+00	0	56	0	295698432	50	4587
2026-01-03 22:25:08.19	51.59	19.18	-38.8	-41.0	16.9	0.00e+00	0	56	0	303038464	49	4570
2026-01-03 22:25:12.22	52.37	19.49	-38.9	-41.0	16.8	0.00e+00	0	56	0	310378496	49	4569
2026-01-03 22:25:16.26	53.16	19.81	-38.8	-40.9	16.9	0.00e+00	0	56	0	317718528	49	4513
2026-01-03 22:25:20.30	53.98	20.12	-38.7	-40.8	17.1	0.00e+00	0	56	0	326107136	49	4458
2026-01-03 22:25:24.34	54.81	20.43	-38.9	-41.1	16.8	0.00e+00	0	56	0	333447168	49	4623
2026-01-03 22:25:28.37	55.65	20.73	-38.9	-41.0	16.9	0.00e+00	0	56	0	340787200	49	4581
2026-01-03 22:25:32.41	56.51	21.04	-38.9	-41.1	16.8	0.00e+00	0	56	0	348127232	49	4622
2026-01-03 22:25:36.45	57.39	21.34	-39.1	-41.3	16.6	0.00e+00	0	56	0	356515840	49	4713
2026-01-03 22:25:40.49	58.29	21.64	-39.2	-41.4	16.5	0.00e+00	0	56	0	363855872	49	4805
2026-01-03 22:25:44.53	59.20	21.93	-39.5	-41.8	16.0	0.00e+00	0	56	0	371195904	49	5028
2026-01-03 22:25:48.57	60.13	22.22	-39.6	-42.0	15.9	0.00e+00	0	56	0	378535936	49	5122
2026-01-03 22:25:52.61	61.08	22.51	-39.4	-41.8	16.1	0.00e+00	0	56	0	385875968	49	4997
2026-01-03 22:25:56.65	62.04	22.79	-39.6	-42.0	15.9	0.00e+00	0	56	0	394264576	49	5120
2026-01-03 22:26:00.69	63.02	23.06	-39.4	-41.8	16.1	0.00e+00	0	56	0	401604608	49	4995
2026-01-03 22:26:04.73	64.02	23.33	-39.6	-42.0	15.9	0.00e+00	0	56	0	408944640	49	5137
2026-01-03 22:26:08.77	65.04	23.60	-40.0	-42.7	15.2	0.00e+00	0	56	0	416284672	50	5243
2026-01-03 22:26:12.81	66.07	23.85	-40.3	-43.1	14.7	0.00e+00	0	56	0	424673280	51	5217
2026-01-03 22:26:16.85	67.12	24.10	-40.4	-43.3	14.5	7.00e-07	0	56	0	432013312	51	5326
2026-01-03 22:26:20.89	68.18	24.35	-40.6	-43.7	14.0	3.00e-06	0	56	0	439353344	52	5265
2026-01-03 22:26:24.93	69.26	24.58	-40.7	-43.9	13.9	6.10e-06	0	56	0	446693376	52	5358
2026-01-03 22:26:28.97	70.36	24.81	-40.4	-43.3	14.4	1.50e-06	0	56	0	454033408	52	5034
2026-01-03 22:26:33.00	71.47	25.02	-41.3	-45.0	12.7	4.11e-05	0	56	0	462422016	53	5738
2026-01-03 22:26:37.04	72.59	25.23	-41.4	-45.1	12.5	1.20e-04	0	56	0	469762048	53	5855
2026-01-03 22:26:41.08	73.74	25.43	-41.0	-44.3	13.4	1.67e-05	0	56	0	477102080	53	5310
2026-01-03 22:26:45.12	74.89	25.61	-41.2	-44.8	12.9	3.12e-05	0	57	0	484442112	53	5603
2026-01-03 22:26:49.17	76.06	25.79	-41.0	-44.4	13.3	2.21e-05	0	57	0	492830720	53	5373
2026-01-03 22:26:53.21	77.24	25.95	-41.0	-44.4	13.4	1.29e-05	0	56	0	500170752	53	5382
2026-01-03 22:26:57.24	78.43	26.10	-40.9	-44.2	13.5	2.05e-05	0	57	0	507510784	53	5268
2026-01-03 22:27:01.28	79.63	26.24	-40.3	-43.2	14.6	1.50e-06	0	57	0	514850816	52	4958
2026-01-03 22:27:05.33	80.85	26.37	-40.4	-43.3	14.4	0.00e+00	0	57	0	522190848	52	5017
2026-01-03 22:27:09.36	82.07	26.48	-40.8	-43.9	13.8	2.20e-06	0	57	0	530579456	52	5391
2026-01-03 22:27:13.40	83.30	26.58	-40.9	-44.1	13.6	5.30e-06	0	57	0	537919488	52	5513
2026-01-03 22:27:17.44	84.54	26.67	-40.6	-43.6	14.2	3.00e-06	0	56	0	545259520	52	5202
2026-01-03 22:27:21.48	85.78	26.74	-40.3	-43.1	14.7	7.00e-07	0	57	0	552599552	52	4914
2026-01-03 22:27:25.52	87.03	26.80	-40.2	-43.0	14.8	0.00e+00	0	57	0	560988160	52	4834
2026-01-03 22:27:29.55	88.28	26.85	-40.3	-43.2	14.7	0.00e+00	0	57	0	568328192	52	4939
2026-01-03 22:27:33.60	89.54	26.88	-39.8	-42.3	15.7	0.00e+00	0	57	0	575668224	51	4716
2026-01-03 22:27:37.63	90.80	26.89	-40.1	-42.7	15.2	0.00e+00	0	57	0	583008256	51	4974
2026-01-03 22:27:41.67	92.06	26.90	-40.3	-43.1	14.9	0.00e+00	0	57	0	590348288	51	5161
2026-01-03 22:27:45.71	93.32	26.88	-40.1	-42.7	15.2	0.00e+00	0	57	0	598736896	51	4977
2026-01-03 22:27:49.75	94.57	26.85	-41.1	-44.3	13.5	9.90e-06	0	57	0	606076928	52	5653
2026-01-03 22:27:53.78	95.83	26.81	-40.8	-43.9	14.0	7.60e-06	0	57	0	613416960	52	5362
2026-01-03 22:27:57.83	97.08	26.75	-40.1	-42.7	15.1	0.00e+00	0	57	0	620756992	52	4692
2026-01-03 22:28:01.86	98.32	26.68	-40.5	-43.4	14.5	0.00e+00	0	57	0	629145600	52	5065
2026-01-03 22:28:05.90	99.56	26.60	-40.2	-42.9	15.0	0.00e+00	0	57	0	636485632	52	4786
2026-01-03 22:28:09.94	100.80	26.50	-40.2	-42.9	14.9	0.00e+00	0	57	0	643825664	52	4809
2026-01-03 22:28:13.98	102.02	26.39	-40.4	-43.1	14.7	0.00e+00	0	57	0	651165696	52	4925
2026-01-03 22:28:18.03	103.24	26.26	-40.0	-42.6	15.3	0.00e+00	0	57	0	658505728	52	4628
2026-01-03 22:28:22.06	104.45	26.13	-40.1	-42.7	15.3	0.00e+00	0	57	0	666894336	51	4939
2026-01-03 22:28:26.10	105.64	25.98	-39.6	-42.0	16.0	0.00e+00	0	57	0	674234368	51	4570
2026-01-03 22:28:30.14	106.83	25.81	-39.5	-41.8	16.2	0.00e+00	0	57	0	681574400	50	4711
2026-01-03 22:28:34.18	108.00	25.64	-39.5	-41.9	16.1	0.00e+00	0	57	0	688914432	50	4763
2026-01-03 22:28:38.22	109.16	25.45	-39.2	-41.4	16.6	0.00e+00	0	57	0	697303040	50	4500
2026-01-03 22:28:42.26	110.31	25.26	-39.6	-42.0	16.0	0.00e+00	0	57	0	704643072	50	4845
2026-01-03 22:28:46.29	111.44	25.05	-39.6	-42.0	16.0	0.00e+00	0	57	0	711983104	50	4816
2026-01-03 22:28:50.33	112.56	24.84	-39.4	-41.6	16.3	0.00e+00	0	57	0	719323136	50	4643
2026-01-03 22:28:54.37	113.66	24.61	-39.8	-42.3	15.6	0.00e+00	0	57	0	726663168	50	5015
2026-01-03 22:28:58.40	114.74	24.38	-40.2	-42.9	15.0	0.00e+00	0	57	0	735051776	51	5060
2026-01-03 22:29:02.44	115.82	24.14	-39.8	-42.2	15.7	0.00e+00	0	57	0	742391808	51	4704
2026-01-03 22:29:06.48	116.87	23.89	-40.1	-42.6	15.3	7.00e-07	0	57	0	749731840	51	4923
2026-01-03 22:29:10.52	117.91	23.63	-40.3	-43.0	14.9	7.00e-07	0	57	0	757071872	51	5127
2026-01-03 22:29:14.56	118.93	23.36	-39.8	-42.3	15.7	0.00e+00	0	57	0	765460480	51	4715
2026-01-03 22:29:18.59	119.93	23.09	-39.7	-42.2	15.7	0.00e+00	0	57	0	772800512	51	4675
2026-01-03 22:29:22.63	120.92	22.82	-39.8	-42.3	15.7	0.00e+00	0	57	0	780140544	51	4714
2026-01-03 22:29:26.67	121.89	22.53	-40.1	-42.7	15.2	0.00e+00	0	57	0	787480576	51	4952
2026-01-03 22:29:30.71	122.84	22.25	-39.5	-41.8	16.1	0.00e+00	0	57	0	794820608	50	4751
2026-01-03 22:29:34.75	123.78	21.96	-39.9	-42.4	15.4	0.00e+00	0	57	0	803209216	50	5097
2026-01-03 22:29:38.79	124.70	21.66	-40.0	-42.6	15.4	0.00e+00	0	57	0	810549248	50	5164
2026-01-03 22:29:42.83	125.60	21.36	-40.9	-44.1	13.7	6.10e-06	0	57	0	817889280	52	5495
2026-01-03 22:29:46.86	126.48	21.06	-40.5	-43.4	14.4	2.20e-06	0	57	0	825229312	52	5047
2026-01-03 22:29:50.91	127.35	20.75	-40.9	-44.0	13.7	1.06e-05	0	57	0	833617920	52	5455
2026-01-03 22:29:54.95	128.21	20.44	-40.1	-42.7	15.2	0.00e+00	0	57	0	840957952	51	4949
2026-01-03 22:29:58.99	129.04	20.13	-40.6	-43.5	14.4	2.20e-06	0	57	0	848297984	51	5419
2026-01-03 22:30:03.03	129.86	19.82	-39.5	-42.1	15.5	1.25e-04	0	57	0	855638016	49	5197
2026-01-03 22:30:07.06	130.66	19.50	-40.6	-43.7	14.0	1.95e-04	0	57	0	862978048	52	5266
2026-01-03 22:30:11.10	131.45	19.19	-39.9	-42.8	14.8	9.68e-05	0	57	0	871366656	50	5287
2026-01-03 22:30:15.15	132.22	18.87	-40.2	-43.1	14.4	9.68e-05	0	57	0	878706688	50	5504
2026-01-03 22:30:19.19	132.97	18.55	-40.4	-43.3	13.5	1.78e-04	0	57	0	886046720	51	5321
2026-01-03 22:30:23.22	133.71	18.23	-39.0	-42.4	14.6	6.11e-03	0	57	0	893386752	49	5402
2026-01-03 22:30:27.26	134.44	17.91	-40.1	-42.9	14.4	5.30e-03	0	57	0	901775360	50	5352
2026-01-03 22:30:31.30	135.15	17.60	-39.8	-42.4	15.2	8.24e-03	0	57	0	909115392	50	5094
2026-01-03 22:30:35.34	135.84	17.28	-40.1	-43.0	13.7	6.31e-03	0	57	0	916455424	49	5726
2026-01-03 22:30:39.38	136.52	16.96	-37.7	-42.3	15.2	8.62e-04	0	57	0	923795456	49	5297
2026-01-03 22:30:43.41	137.19	16.64	-39.8	-42.3	15.3	8.30e-06	0	57	0	931135488	50	5021
2026-01-03 22:30:47.45	137.84	16.32	-39.9	-42.5	15.2	5.79e-05	0	57	0	939524096	50	5123
2026-01-03 22:30:51.49	138.49	16.00	-39.6	-42.3	15.2	6.48e-05	0	57	0	946864128	49	5280
2026-01-03 22:30:55.53	139.11	15.69	-39.6	-42.1	15.5	7.00e-07	0	57	0	954204160	50	4921
2026-01-03 22:30:59.58	139.73	15.37	-39.8	-42.6	15.0	1.50e-06	0	57	0	961544192	50	5172
2026-01-03 22:31:03.62	140.33	15.06	-40.2	-43.1	14.5	0.00e+00	0	57	0	969932800	51	5160
2026-01-03 22:31:07.65	140.92	14.74	-40.2	-43.1	14.5	1.50e-06	0	57	0	977272832	51	5194
2026-01-03 22:31:11.69	141.50	14.43	-40.1	-42.9	14.6	0.00e+00	0	57	0	984612864	51	5077
2026-01-03 22:31:15.73	142.07	14.12	-40.1	-43.0	14.5	7.00e-07	0	57	0	991952896	51	5113
2026-01-03 22:31:19.77	142.62	13.81	-40.1	-42.9	14.6	0.00e+00	0	57	0	999292928	51	5046
2026-01-03 22:31:23.81	143.17	13.50	-40.3	-43.3	14.1	1.50e-06	0	57	0	1007681536	51	5339
2026-01-03 22:31:27.85	143.70	13.20	-40.7	-44.0	13.4	4.50e-06	0	57	0	1015021568	52	5439
2026-01-03 22:31:31.89	144.22	12.89	-40.7	-44.1	13.2	2.97e-05	0	57	0	1022361600	52	5521
2026-01-03 22:31:35.92	144.73	12.59	-40.8	-44.1	13.2	1.90e-05	0	57	0	1029701632	52	5523
2026-01-03 22:31:39.96	145.24	12.29	-40.9	-44.5	12.8	5.03e-05	0	57	0	1038090240	52	5735
2026-01-03 22:31:44.00	145.73	11.99	-41.0	-44.7	12.6	1.03e-04	0	57	0	1045430272	52	5876
2026-01-03 22:31:48.03	146.21	11.69	-41.0	-44.7	12.5	1.08e-04	0	57	0	1052770304	52	5904
2026-01-03 22:31:52.07	146.69	11.40	-40.8	-44.3	12.9	4.95e-05	0	57	0	1060110336	52	5652
2026-01-03 22:31:56.11	147.15	11.10	-40.8	-44.3	12.9	4.19e-05	0	57	0	1067450368	52	5626
2026-01-03 22:32:00.15	147.61	10.81	-40.8	-44.4	12.8	5.72e-05	0	57	0	1075838976	52	5682
2026-01-03 22:32:04.19	148.05	10.52	-40.7	-44.2	13.0	5.56e-05	0	57	0	1083179008	52	5573
2026-01-03 22:32:08.23	148.49	10.23	-40.3	-43.5	13.6	1.44e-05	0	57	0	1090519040	52	5148
2026-01-03 22:32:12.27	148.92	9.95	-40.2	-43.4	13.7	8.30e-06	0	57	0	1097859072	52	5055
2026-01-03 22:32:16.30	149.34	9.66	-40.2	-43.4	13.6	6.80e-06	0	57	0	1106247680	52	5092
2026-01-03 22:32:20.34	149.76	9.38	-40.5	-44.0	13.1	1.98e-05	0	57	0	1113587712	52	5416
2026-01-03 22:32:24.38	150.17	9.10	-40.5	-44.1	12.9	5.26e-05	0	57	0	1120927744	52	5494
2026-01-03 22:32:28.42	150.57	8.82	-40.5	-44.1	12.8	5.79e-05	0	57	0	1128267776	52	5477
2026-01-03 22:32:32.46	150.96	8.55	-40.4	-43.9	13.0	3.81e-05	0	57	0	1135607808	52	5343
2026-01-03 22:32:36.49	151.34	8.27	-40.3	-43.9	12.9	3.96e-05	0	57	0	1143996416	52	5343
2026-01-03 22:32:40.54	151.72	8.00	-41.6	-46.5	10.6	1.98e-04	0	57	0	1151336448	53	6876
2026-01-03 22:32:44.58	152.09	7.73	-44.8	-59.4	3.8	1.49e+00	0	57	104	1151336448	60	20248
2026-01-03 22:32:48.62	152.46	7.46	-45.0	-59.6	3.8	1.49e+00	0	57	104	1151336448	60	20758
2026-01-03 22:32:52.67	152.82	7.19	-44.8	-59.6	3.8	1.49e+00	0	57	104	1151336448	60	20579
2026-01-03 22:32:56.71	153.17	6.92	-44.7	-59.5	3.8	1.49e+00	0	57	104	1151336448	60	20535
2026-01-03 22:33:00.75	153.52	6.66	-44.7	-59.5	3.8	1.49e+00	0	57	104	1151336448	60	20487
2026-01-03 22:33:04.80	153.86	6.40	-44.7	-59.5	3.8	1.49e+00	0	57	104	1151336448	60	20528
2026-01-03 22:33:08.84	154.19	6.14	-44.7	-59.6	3.8	1.49e+00	0	58	104	1151336448	60	20587
2026-01-03 22:33:12.88	154.52	5.88	-44.7	-59.5	3.8	1.49e+00	0	57	104	1151336448	60	20464
2026-01-03 22:33:16.93	154.85	5.62	-44.7	-59.5	3.8	1.49e+00	0	57	104	1151336448	60	20413
2026-01-03 22:33:20.97	155.16	5.37	-44.7	-59.5	3.8	1.49e+00	0	57	104	1151336448	60	20435
2026-01-03 22:33:25.02	155.48	5.12	-44.7	-59.5	3.8	1.49e+00	0	58	104	1151336448	60	20404
2026-01-03 22:33:29.06	155.78	4.86	-44.7	-59.5	3.8	1.49e+00	0	58	104	1151336448	60	20413
2026-01-03 22:33:33.10	156.09	4.62	-44.7	-59.5	3.8	1.49e+00	0	57	104	1151336448	60	20390
2026-01-03 22:33:37.15	156.39	4.37	-44.6	-59.5	3.8	1.49e+00	0	58	104	1151336448	60	20455
2026-01-03 22:33:41.19	156.68	4.12	-44.7	-59.5	3.8	1.49e+00	0	58	104	1151336448	60	20387
2026-01-03 22:33:45.24	156.97	3.88	-44.7	-59.5	3.8	1.49e+00	0	57	104	1151336448	60	20422
2026-01-03 22:33:49.28	157.25	3.63	-44.6	-59.5	3.8	1.49e+00	0	58	104	1151336448	60	20393
2026-01-03 22:33:53.32	157.53	3.39	-44.6	-59.5	3.8	1.49e+00	0	58	104	1151336448	60	20379
2026-01-03 22:33:57.37	157.81	3.15	-44.6	-59.5	3.8	1.49e+00	0	57	104	1151336448	60	20339
2026-01-03 22:34:01.41	158.08	2.91	-44.6	-59.5	3.8	1.49e+00	0	58	104	1151336448	60	20326
2026-01-03 22:34:05.46	158.34	2.68	-44.6	-59.5	3.8	1.49e+00	0	58	104	1151336448	60	20320
2026-01-03 22:34:09.50	158.61	2.44	-44.6	-59.5	3.8	1.49e+00	0	58	104	1151336448	60	20350
2026-01-03 22:34:13.55	158.87	2.21	-44.6	-59.4	3.8	1.49e+00	0	58	104	1151336448	60	20260
2026-01-03 22:34:17.59	159.12	1.98	-44.6	-59.4	3.8	1.49e+00	0	58	104	1151336448	60	20293

#Closed at: 2026-01-03 22:34:18
#Recorded file [1151 MB]: D:/lorett/data/31039_260104_012101.dat