passes_logs/2026/01/03/R2.0S_Moscow/R2.0S_Moscow__20260103_011007_NOAA_21_JPSS-2_rec.log

#Pass ID: 20260103_011007_NOAA 21 (JPSS-2)
#Satellite: NOAA 21 (JPSS-2)
#Configuration: NOAA-21
#almurnet v.1.7.20251203
#Start time: 2026-01-03 01:14:36

#Version: 2.2.20231116
#Station: R2.0S_Moscow
#Location: 37.707566 lon 55.798166 lat
#TLE: 1 54234U 22150A   26002.25486487  .00000200  00000+0  11573-3 0  9993
#TLE: 2 54234  98.7485 303.3096 0001220 350.9074   9.2080 14.19531212163006

#Time	Az	El	Level	Level2	SNR	BER	BlckErr	Temp	State	Recorded	gain1	gain2
2026-01-03 01:14:36.94	338.84	20.90	-44.9	-56.5	3.8	8.46e-01	0	57	0	0	60	14521
2026-01-03 01:14:39.96	338.18	21.11	-45.1	-57.4	3.8	1.49e+00	0	57	104	0	62	14360
2026-01-03 01:14:42.99	337.51	21.33	-44.9	-57.2	3.8	1.49e+00	0	57	104	0	61	14873
2026-01-03 01:14:46.02	336.83	21.54	-44.9	-57.2	3.8	1.49e+00	0	57	104	0	61	14726
2026-01-03 01:14:49.05	336.14	21.75	-44.9	-57.2	3.8	1.49e+00	0	57	104	0	61	14724
2026-01-03 01:14:52.09	335.43	21.96	-44.9	-57.2	3.8	1.49e+00	0	57	104	0	61	14822
2026-01-03 01:14:55.12	334.73	22.16	-44.9	-57.1	3.8	1.49e+00	0	57	104	0	61	14689
2026-01-03 01:14:58.16	334.01	22.37	-44.8	-57.0	3.8	1.49e+00	0	57	104	0	61	14529
2026-01-03 01:15:01.19	333.28	22.56	-44.8	-57.1	3.8	1.49e+00	0	57	104	0	61	14558
2026-01-03 01:15:04.22	332.54	22.76	-44.9	-57.1	3.8	1.49e+00	0	57	104	0	61	14638
2026-01-03 01:15:07.25	331.79	22.95	-44.8	-57.2	3.8	1.49e+00	0	57	104	0	61	14739
2026-01-03 01:15:10.29	331.04	23.14	-44.8	-56.9	3.8	1.49e+00	0	57	104	0	61	14299
2026-01-03 01:15:13.32	330.27	23.32	-44.8	-56.9	3.8	1.49e+00	0	58	104	0	61	14328
2026-01-03 01:15:16.35	329.50	23.50	-44.8	-57.1	3.8	1.49e+00	0	57	104	0	61	14589
2026-01-03 01:15:19.39	328.71	23.67	-44.8	-57.0	3.8	1.49e+00	0	58	104	0	61	14494
2026-01-03 01:15:22.42	327.92	23.84	-44.8	-56.7	3.8	1.49e+00	0	57	104	0	61	13907
2026-01-03 01:15:25.45	327.12	24.01	-43.8	-50.1	5.9	8.98e-01	0	57	0	0	59	7303
2026-01-03 01:15:28.48	326.31	24.17	-37.5	-39.1	16.6	0.00e+00	0	58	0	9437184	47	4116
2026-01-03 01:15:31.52	325.49	24.32	-36.1	-37.5	18.1	0.00e+00	0	57	0	18874368	44	4068
2026-01-03 01:15:34.54	324.67	24.47	-38.3	-40.0	15.7	7.27e-04	0	57	0	28311552	48	4308
2026-01-03 01:15:37.57	323.84	24.61	-36.4	-37.8	17.9	0.00e+00	0	58	0	37748736	44	4222
2026-01-03 01:15:40.60	323.00	24.75	-35.6	-36.9	18.5	0.00e+00	0	57	0	47185920	43	4019
2026-01-03 01:15:43.63	322.15	24.88	-35.4	-36.6	18.8	0.00e+00	0	57	0	56623104	42	4142
2026-01-03 01:15:46.66	321.29	25.00	-35.4	-36.6	18.7	0.00e+00	0	57	0	66060288	42	4138
2026-01-03 01:15:49.69	320.43	25.12	-35.5	-36.7	18.7	0.00e+00	0	57	0	75497472	42	4191
2026-01-03 01:15:52.71	319.57	25.23	-35.4	-36.7	18.7	0.00e+00	0	57	0	84934656	42	4160
2026-01-03 01:15:55.75	318.69	25.34	-35.2	-36.4	19.0	0.00e+00	0	57	0	94371840	42	4021
2026-01-03 01:15:58.78	317.81	25.44	-35.0	-36.2	19.1	0.00e+00	0	57	0	103809024	42	3950
2026-01-03 01:16:01.81	316.93	25.53	-34.9	-36.1	19.2	0.00e+00	0	57	0	113246208	41	4131
2026-01-03 01:16:04.84	316.04	25.61	-35.1	-36.4	18.9	0.00e+00	0	57	0	122683392	41	4253
2026-01-03 01:16:07.87	315.14	25.69	-35.5	-36.8	18.6	0.00e+00	0	57	0	132120576	41	4456
2026-01-03 01:16:10.90	314.25	25.76	-35.2	-36.5	18.9	0.00e+00	0	57	0	142606336	41	4307
2026-01-03 01:16:13.93	313.34	25.82	-35.3	-36.6	18.8	0.00e+00	0	57	0	150994944	41	4369
2026-01-03 01:16:16.96	312.44	25.87	-35.3	-36.5	18.9	0.00e+00	0	57	0	161480704	41	4337
2026-01-03 01:16:20.00	311.53	25.92	-35.3	-36.5	18.8	0.00e+00	0	57	0	170917888	41	4338
2026-01-03 01:16:23.03	310.62	25.95	-35.5	-36.8	18.6	0.00e+00	0	57	0	180355072	41	4448
2026-01-03 01:16:26.05	309.71	25.98	-35.7	-37.0	18.4	0.00e+00	0	57	0	189792256	42	4324
2026-01-03 01:16:29.08	308.79	26.00	-35.8	-37.1	18.3	0.00e+00	0	57	0	199229440	42	4384
2026-01-03 01:16:32.11	307.88	26.02	-35.3	-36.6	18.9	0.00e+00	0	57	0	208666624	42	4106
2026-01-03 01:16:35.14	306.96	26.02	-35.6	-36.9	18.5	0.00e+00	0	57	0	218103808	42	4271
2026-01-03 01:16:38.18	306.04	26.02	-35.8	-37.1	18.4	0.00e+00	0	57	0	227540992	42	4366
2026-01-03 01:16:41.20	305.13	26.01	-35.5	-36.8	18.6	0.00e+00	0	58	0	236978176	42	4194
2026-01-03 01:16:44.23	304.21	25.99	-35.6	-36.9	18.5	0.00e+00	0	57	0	246415360	42	4280
2026-01-03 01:16:47.26	303.30	25.97	-35.5	-36.8	18.6	0.00e+00	0	57	0	255852544	42	4225
2026-01-03 01:16:50.29	302.39	25.93	-35.6	-36.9	18.5	0.00e+00	0	57	0	265289728	42	4259
2026-01-03 01:16:53.32	301.48	25.89	-35.2	-36.5	18.9	0.00e+00	0	57	0	274726912	42	4071
2026-01-03 01:16:56.35	300.57	25.84	-35.2	-36.5	18.9	0.00e+00	0	57	0	284164096	42	4059
2026-01-03 01:16:59.37	299.67	25.78	-35.3	-36.6	18.8	0.00e+00	0	57	0	293601280	42	4100
2026-01-03 01:17:02.40	298.77	25.72	-35.4	-36.7	18.7	0.00e+00	0	57	0	303038464	42	4187
2026-01-03 01:17:05.43	297.87	25.65	-35.6	-36.9	18.5	0.00e+00	0	57	0	312475648	42	4281
2026-01-03 01:17:08.46	296.98	25.56	-35.8	-37.1	18.3	0.00e+00	0	57	0	321912832	42	4382
2026-01-03 01:17:11.49	296.09	25.48	-35.9	-37.2	18.2	0.00e+00	0	57	0	331350016	42	4413
2026-01-03 01:17:14.52	295.21	25.38	-35.6	-36.9	18.6	0.00e+00	0	57	0	340787200	42	4245
2026-01-03 01:17:17.55	294.33	25.28	-35.3	-36.5	18.9	0.00e+00	0	57	0	350224384	42	4080
2026-01-03 01:17:20.58	293.46	25.17	-35.4	-36.6	18.8	0.00e+00	0	57	0	359661568	42	4129
2026-01-03 01:17:23.61	292.59	25.06	-35.6	-36.9	18.4	0.00e+00	0	57	0	369098752	42	4287
2026-01-03 01:17:26.64	291.73	24.93	-35.9	-37.3	18.1	0.00e+00	0	57	0	378535936	42	4447
2026-01-03 01:17:29.67	290.88	24.81	-35.7	-36.9	18.4	0.00e+00	0	57	0	387973120	42	4290
2026-01-03 01:17:32.70	290.04	24.67	-35.6	-36.9	18.5	0.00e+00	0	57	0	397410304	42	4247
2026-01-03 01:17:35.73	289.20	24.53	-35.6	-36.9	18.5	0.00e+00	0	57	0	406847488	42	4247
2026-01-03 01:17:38.77	288.36	24.38	-35.7	-37.0	18.3	0.00e+00	0	57	0	416284672	42	4339
2026-01-03 01:17:41.80	287.54	24.23	-35.2	-36.5	18.8	0.00e+00	0	57	0	425721856	42	4068
2026-01-03 01:17:44.83	286.73	24.08	-35.5	-36.7	18.6	0.00e+00	0	57	0	435159040	42	4184
2026-01-03 01:17:47.86	285.92	23.91	-35.5	-36.8	18.5	0.00e+00	0	57	0	444596224	42	4203
2026-01-03 01:17:50.89	285.12	23.74	-35.6	-36.9	18.3	0.00e+00	0	57	0	455081984	42	4280
2026-01-03 01:17:53.92	284.33	23.57	-35.6	-36.8	18.5	0.00e+00	0	57	0	463470592	42	4241
2026-01-03 01:17:56.95	283.55	23.40	-35.8	-37.1	18.2	0.00e+00	0	57	0	473956352	42	4382
2026-01-03 01:17:59.98	282.78	23.21	-35.4	-36.7	18.6	0.00e+00	0	57	0	483393536	42	4181
2026-01-03 01:18:03.01	282.02	23.03	-35.4	-36.7	18.6	0.00e+00	0	57	0	492830720	42	4168
2026-01-03 01:18:06.04	281.27	22.84	-35.4	-36.7	18.7	0.00e+00	0	57	0	502267904	42	4156
2026-01-03 01:18:09.07	280.52	22.64	-35.2	-36.4	18.9	0.00e+00	0	57	0	511705088	42	4037
2026-01-03 01:18:12.10	279.79	22.45	-34.9	-36.1	19.2	0.00e+00	0	57	0	521142272	41	4120
2026-01-03 01:18:15.13	279.06	22.25	-35.5	-36.8	18.6	0.00e+00	0	57	0	530579456	41	4448
2026-01-03 01:18:18.17	278.34	22.04	-35.7	-37.0	18.4	0.00e+00	0	57	0	540016640	42	4310
2026-01-03 01:18:21.20	277.64	21.84	-35.4	-36.7	18.7	0.00e+00	0	57	0	549453824	42	4164
2026-01-03 01:18:24.22	276.94	21.63	-35.2	-36.4	18.9	0.00e+00	0	57	0	558891008	42	4026
2026-01-03 01:18:27.25	276.26	21.41	-35.4	-36.7	18.6	0.00e+00	0	57	0	568328192	42	4181
2026-01-03 01:18:30.28	275.58	21.20	-35.5	-36.8	18.5	0.00e+00	0	57	0	577765376	42	4229
2026-01-03 01:18:33.31	274.91	20.98	-35.6	-36.9	18.4	0.00e+00	0	57	0	587202560	42	4261
2026-01-03 01:18:36.34	274.25	20.76	-35.5	-36.8	18.5	0.00e+00	0	57	0	596639744	42	4204
2026-01-03 01:18:39.37	273.60	20.54	-35.3	-36.6	18.7	0.00e+00	0	57	0	606076928	42	4114
2026-01-03 01:18:42.40	272.96	20.32	-35.4	-36.7	18.6	0.00e+00	0	57	0	615514112	42	4156
2026-01-03 01:18:45.43	272.33	20.09	-35.9	-37.3	18.0	0.00e+00	0	57	0	624951296	42	4450
2026-01-03 01:18:48.46	271.71	19.86	-35.6	-36.9	18.3	0.00e+00	0	57	0	634388480	42	4283
2026-01-03 01:18:51.48	271.10	19.64	-35.3	-36.6	18.7	0.00e+00	0	57	0	643825664	42	4117
2026-01-03 01:18:54.52	270.49	19.41	-35.2	-36.4	18.9	0.00e+00	0	57	0	653262848	42	4026
2026-01-03 01:18:57.55	269.90	19.18	-35.4	-36.7	18.5	0.00e+00	0	57	0	662700032	42	4177
2026-01-03 01:19:00.58	269.31	18.94	-35.4	-36.7	18.4	0.00e+00	0	57	0	672137216	42	4152
2026-01-03 01:19:03.61	268.74	18.71	-35.6	-36.9	18.2	0.00e+00	0	57	0	681574400	42	4275
2026-01-03 01:19:06.64	268.17	18.48	-35.7	-37.1	18.1	0.00e+00	0	57	0	691011584	42	4357
2026-01-03 01:19:09.67	267.61	18.24	-35.6	-36.9	18.3	0.00e+00	0	57	0	700448768	42	4288
2026-01-03 01:19:12.70	267.06	18.01	-35.6	-36.9	18.3	0.00e+00	0	57	0	709885952	42	4280
2026-01-03 01:19:15.72	266.52	17.78	-36.2	-37.6	17.6	0.00e+00	0	57	0	719323136	42	4645
2026-01-03 01:19:18.75	265.99	17.54	-36.1	-37.5	17.7	0.00e+00	0	57	0	728760320	43	4334
2026-01-03 01:19:21.78	265.46	17.30	-35.4	-36.6	18.6	0.00e+00	0	57	0	738197504	42	4138
2026-01-03 01:19:24.81	264.94	17.07	-35.5	-36.8	18.4	0.00e+00	0	57	0	747634688	42	4198
2026-01-03 01:19:27.84	264.43	16.83	-36.2	-37.7	17.6	0.00e+00	0	57	0	757071872	43	4394
2026-01-03 01:19:30.86	263.94	16.60	-36.2	-37.7	17.6	0.00e+00	0	57	0	766509056	43	4394
2026-01-03 01:19:33.89	263.44	16.36	-35.7	-37.0	18.2	0.00e+00	0	57	0	776994816	43	4086
2026-01-03 01:19:36.93	262.96	16.13	-35.9	-37.3	17.8	0.00e+00	0	57	0	785383424	43	4216
2026-01-03 01:19:39.96	262.48	15.89	-36.5	-38.0	17.2	0.00e+00	0	57	0	795869184	43	4568
2026-01-03 01:19:42.99	262.01	15.66	-36.6	-38.1	17.2	0.00e+00	0	57	0	805306368	43	4609
2026-01-03 01:19:46.01	261.55	15.42	-36.4	-37.9	17.3	0.00e+00	0	57	0	814743552	43	4530
2026-01-03 01:19:49.04	261.09	15.19	-36.2	-37.7	17.5	0.00e+00	0	57	0	824180736	43	4409
2026-01-03 01:19:52.07	260.64	14.95	-36.5	-38.0	17.2	0.00e+00	0	57	0	833617920	43	4573
2026-01-03 01:19:55.10	260.20	14.72	-37.1	-38.7	16.7	0.00e+00	0	57	0	843055104	44	4682
2026-01-03 01:19:58.13	259.77	14.49	-36.9	-38.5	16.9	0.00e+00	0	57	0	852492288	44	4569
2026-01-03 01:20:01.16	259.34	14.25	-36.5	-38.0	17.3	0.00e+00	0	57	0	861929472	44	4298
2026-01-03 01:20:04.19	258.92	14.02	-36.5	-38.0	17.3	0.00e+00	0	57	0	871366656	44	4307
2026-01-03 01:20:07.22	258.51	13.79	-36.6	-38.1	17.2	0.00e+00	0	57	0	880803840	44	4343
2026-01-03 01:20:10.25	258.10	13.56	-37.0	-38.5	16.8	0.00e+00	0	57	0	890241024	44	4587
2026-01-03 01:20:13.28	257.70	13.33	-37.3	-39.0	16.3	0.00e+00	0	57	0	899678208	45	4564
2026-01-03 01:20:16.31	257.30	13.10	-37.2	-38.8	16.4	0.00e+00	0	57	0	909115392	45	4465
2026-01-03 01:20:19.34	256.92	12.88	-36.7	-38.2	17.0	0.00e+00	0	57	0	918552576	45	4173
2026-01-03 01:20:22.38	256.53	12.65	-36.6	-38.1	17.2	0.00e+00	0	57	0	927989760	45	4115
2026-01-03 01:20:25.41	256.15	12.42	-37.0	-38.5	16.7	0.00e+00	0	57	0	937426944	45	4328
2026-01-03 01:20:28.44	255.78	12.20	-37.2	-38.8	16.5	0.00e+00	0	57	0	946864128	45	4457
2026-01-03 01:20:31.46	255.42	11.97	-37.3	-38.9	16.4	0.00e+00	0	57	0	956301312	45	4520
2026-01-03 01:20:34.50	255.06	11.75	-37.2	-38.8	16.4	0.00e+00	0	57	0	965738496	45	4463
2026-01-03 01:20:37.53	254.70	11.53	-36.9	-38.4	16.8	0.00e+00	0	57	0	975175680	45	4286
2026-01-03 01:20:40.56	254.36	11.30	-36.8	-38.4	16.8	0.00e+00	0	57	0	984612864	45	4251
2026-01-03 01:20:43.59	254.01	11.08	-37.2	-38.8	16.5	0.00e+00	0	57	0	994050048	45	4450
2026-01-03 01:20:46.62	253.67	10.86	-37.6	-39.3	16.0	0.00e+00	0	57	0	1003487232	45	4726
2026-01-03 01:20:49.64	253.34	10.65	-37.6	-39.3	15.8	0.00e+00	0	57	0	1012924416	45	4756
2026-01-03 01:20:52.67	253.01	10.43	-37.4	-39.1	16.0	0.00e+00	0	57	0	1022361600	45	4638
2026-01-03 01:20:55.70	252.69	10.21	-37.1	-38.7	16.3	0.00e+00	0	57	0	1031798784	45	4440
2026-01-03 01:20:58.73	252.37	10.00	-37.0	-38.6	16.5	0.00e+00	0	57	0	1041235968	45	4370
2026-01-03 01:21:01.76	252.06	9.78	-37.1	-38.7	16.4	0.00e+00	0	57	0	1050673152	45	4401
2026-01-03 01:21:04.78	251.75	9.57	-37.3	-39.0	16.2	0.00e+00	0	57	0	1060110336	45	4562
2026-01-03 01:21:07.81	251.45	9.36	-37.8	-39.5	15.6	0.00e+00	0	57	0	1069547520	46	4591
2026-01-03 01:21:10.84	251.15	9.14	-37.9	-39.7	15.4	0.00e+00	0	57	0	1078984704	46	4701
2026-01-03 01:21:13.87	250.85	8.93	-37.9	-39.7	15.4	0.00e+00	0	57	0	1088421888	46	4672
2026-01-03 01:21:16.90	250.56	8.72	-37.7	-39.5	15.5	0.00e+00	0	57	0	1097859072	46	4566
2026-01-03 01:21:19.93	250.27	8.52	-37.4	-39.2	15.9	0.00e+00	0	57	0	1107296256	46	4402
2026-01-03 01:21:22.96	249.99	8.31	-37.4	-39.2	15.8	0.00e+00	0	57	0	1116733440	46	4393
2026-01-03 01:21:25.99	249.71	8.10	-37.4	-39.1	16.0	0.00e+00	0	57	0	1127219200	46	4345
2026-01-03 01:21:29.02	249.44	7.90	-44.7	-56.8	3.8	1.49e+00	0	57	104	1131413504	59	15903
2026-01-03 01:21:32.05	249.17	7.69	-44.9	-57.3	3.8	1.49e+00	0	57	104	1131413504	60	15804
2026-01-03 01:21:35.08	248.90	7.49	-45.1	-57.4	3.8	1.49e+00	0	57	104	1131413504	60	16060
2026-01-03 01:21:38.11	248.64	7.29	-45.1	-57.4	3.8	1.49e+00	0	57	104	1131413504	60	16101
2026-01-03 01:21:41.14	248.38	7.09	-45.0	-57.3	3.8	1.49e+00	0	57	104	1131413504	60	15907
2026-01-03 01:21:44.17	248.12	6.89	-45.0	-57.3	3.8	1.49e+00	0	57	104	1131413504	60	15904
2026-01-03 01:21:47.21	247.87	6.69	-45.0	-57.3	3.8	1.49e+00	0	58	104	1131413504	60	15866
2026-01-03 01:21:50.24	247.62	6.49	-45.0	-57.3	3.8	1.49e+00	0	57	104	1131413504	60	15874
2026-01-03 01:21:53.27	247.37	6.29	-45.0	-57.3	3.8	1.49e+00	0	57	104	1131413504	60	15863
2026-01-03 01:21:56.30	247.13	6.09	-45.0	-57.2	3.8	1.49e+00	0	57	104	1131413504	60	15737
2026-01-03 01:21:59.34	246.89	5.90	-45.0	-57.3	3.8	1.49e+00	0	57	104	1131413504	60	15846
2026-01-03 01:22:02.37	246.66	5.71	-45.0	-57.3	3.8	1.49e+00	0	57	104	1131413504	60	15773
2026-01-03 01:22:05.40	246.43	5.51	-45.0	-57.3	3.8	1.49e+00	0	57	104	1131413504	60	15764
2026-01-03 01:22:08.44	246.20	5.32	-45.0	-57.3	3.8	1.49e+00	0	57	104	1131413504	60	15775
2026-01-03 01:22:11.47	245.97	5.13	-45.0	-57.3	3.8	1.49e+00	0	58	104	1131413504	60	15765
2026-01-03 01:22:14.50	245.75	4.94	-45.0	-57.3	3.8	1.49e+00	0	58	104	1131413504	60	15787
2026-01-03 01:22:17.53	245.53	4.75	-45.0	-57.3	3.8	1.49e+00	0	58	104	1131413504	60	15801
2026-01-03 01:22:20.57	245.31	4.56	-45.0	-57.3	3.8	1.49e+00	0	58	104	1131413504	60	15815
2026-01-03 01:22:23.60	245.09	4.37	-45.0	-57.2	3.8	1.49e+00	0	58	104	1131413504	60	15750
2026-01-03 01:22:26.63	244.88	4.19	-45.0	-57.3	3.8	1.49e+00	0	57	104	1131413504	60	15770
2026-01-03 01:22:29.67	244.67	4.00	-45.0	-57.3	3.8	1.49e+00	0	58	104	1131413504	60	15796
2026-01-03 01:22:32.70	244.47	3.81	-45.0	-57.3	3.8	1.49e+00	0	57	104	1131413504	60	15766
2026-01-03 01:22:35.73	244.27	3.63	-45.0	-57.2	3.8	1.49e+00	0	58	104	1131413504	60	15757
2026-01-03 01:22:38.77	244.06	3.45	-45.0	-57.2	3.8	1.49e+00	0	58	104	1131413504	60	15748
2026-01-03 01:22:41.80	243.87	3.27	-45.0	-57.2	3.8	1.49e+00	0	58	104	1131413504	60	15725
2026-01-03 01:22:44.83	243.67	3.08	-44.9	-57.3	3.8	1.49e+00	0	58	104	1131413504	60	15763
2026-01-03 01:22:47.86	243.48	2.90	-44.9	-57.2	3.8	1.49e+00	0	58	104	1131413504	60	15707
2026-01-03 01:22:50.90	243.29	2.72	-44.9	-57.2	3.8	1.49e+00	0	57	104	1131413504	60	15752
2026-01-03 01:22:53.93	243.10	2.55	-45.0	-57.2	3.8	1.49e+00	0	57	104	1131413504	60	15750
2026-01-03 01:22:56.96	242.91	2.37	-45.0	-57.3	3.8	1.49e+00	0	58	104	1131413504	60	15786
2026-01-03 01:23:00.00	242.73	2.19	-45.0	-57.3	3.8	1.49e+00	0	58	104	1131413504	60	15805
2026-01-03 01:23:03.03	242.55	2.02	-45.0	-57.2	3.8	1.49e+00	0	57	104	1131413504	60	15689

#Closed at: 2026-01-03 01:23:05
#Recorded file [1131 MB]: D:/lorett/data/31039_260103_041436.dat