passes_logs/2026/01/03/R2.0S_Moscow/R2.0S_Moscow__20260103_034917_FENGYUN_3G_rec.log

#Pass ID: 20260103_034917_FENGYUN 3G
#Satellite: FENGYUN 3G
#Configuration: FENGYUN 3G
#almurnet v.1.7.20251203
#Start time: 2026-01-03 03:49:19

#Version: 2.2.20231116
#Station: R2.0S_Moscow
#Location: 37.707566 lon 55.798166 lat
#TLE: 1 56232U 23055A   26002.31058000  .00046172  00000+0  73618-3 0  9997
#TLE: 2 56232  49.9934 121.3649 0004156 328.0230  32.0484 15.52711916154221

#Time	Az	El	Level	Level2	SNR	BER	BlckErr	Temp	State	Recorded	gain1	gain2
2026-01-03 03:49:19.41	244.30	2.15	-44.3	-62.4	3.8	8.46e-01	0	48	0	0	60	28522
2026-01-03 03:49:22.43	244.11	2.35	-44.2	-62.3	3.8	8.46e-01	0	48	104	0	60	28233
2026-01-03 03:49:25.46	243.91	2.55	-44.3	-62.4	3.8	8.46e-01	0	48	104	0	60	28511
2026-01-03 03:49:28.50	243.71	2.76	-44.2	-62.4	3.8	8.46e-01	0	48	104	0	60	28517
2026-01-03 03:49:31.53	243.50	2.96	-44.2	-62.3	3.8	8.45e-01	0	49	104	0	60	28192
2026-01-03 03:49:34.56	243.29	3.17	-44.2	-62.2	3.8	8.46e-01	0	49	104	0	60	27828
2026-01-03 03:49:37.60	243.07	3.38	-44.2	-62.0	3.8	8.46e-01	0	49	104	0	60	27363
2026-01-03 03:49:40.63	242.85	3.59	-44.2	-62.0	3.8	8.46e-01	0	49	104	0	60	27229
2026-01-03 03:49:43.66	242.63	3.81	-44.2	-62.0	3.8	8.45e-01	0	49	104	0	60	27349
2026-01-03 03:49:46.69	242.40	4.02	-44.2	-62.2	3.8	8.46e-01	0	49	104	0	60	27828
2026-01-03 03:49:49.73	242.17	4.24	-44.2	-62.4	3.8	8.45e-01	0	50	104	0	60	28369
2026-01-03 03:49:52.76	241.93	4.46	-44.2	-62.4	3.8	8.47e-01	0	50	104	0	60	28472
2026-01-03 03:49:55.79	241.68	4.69	-44.2	-62.4	3.8	8.46e-01	0	50	104	0	60	28447
2026-01-03 03:49:58.83	241.43	4.91	-44.2	-62.4	3.8	8.45e-01	0	50	104	0	60	28468
2026-01-03 03:50:01.86	241.18	5.14	-44.2	-62.1	3.8	8.45e-01	0	50	104	0	60	27541
2026-01-03 03:50:04.89	240.91	5.37	-44.2	-61.6	3.8	8.46e-01	0	50	104	0	60	26057
2026-01-03 03:50:07.93	240.64	5.61	-44.2	-61.7	3.8	8.46e-01	0	51	104	0	60	26458
2026-01-03 03:50:10.96	240.37	5.84	-44.2	-62.3	3.8	8.46e-01	0	51	104	0	60	28240
2026-01-03 03:50:13.99	240.09	6.08	-44.2	-61.9	3.8	8.46e-01	0	51	104	0	60	26955
2026-01-03 03:50:17.03	239.80	6.33	-44.2	-61.0	3.8	8.45e-01	0	51	104	0	60	24296
2026-01-03 03:50:20.06	239.51	6.57	-44.2	-60.4	3.8	8.45e-01	0	51	104	0	60	22595
2026-01-03 03:50:23.09	239.21	6.82	-44.2	-60.6	3.8	8.45e-01	0	52	104	0	60	23196
2026-01-03 03:50:26.12	238.90	7.07	-44.2	-61.4	3.8	8.46e-01	0	52	104	0	60	25281
2026-01-03 03:50:29.16	238.58	7.32	-43.2	-50.3	10.8	6.69e-01	0	52	0	1572864	58	7921
2026-01-03 03:50:32.19	238.26	7.58	-40.7	-44.4	16.8	1.82e-04	0	52	0	4718592	53	5350
2026-01-03 03:50:35.22	237.92	7.84	-39.1	-41.7	19.6	0.00e+00	0	52	0	8388608	50	4665
2026-01-03 03:50:38.26	237.58	8.11	-38.9	-41.4	19.8	0.00e+00	0	52	0	11534336	49	4798
2026-01-03 03:50:41.29	237.23	8.37	-40.9	-44.7	15.9	0.00e+00	0	52	0	15204352	54	5241
2026-01-03 03:50:44.32	236.87	8.64	-37.8	-40.0	21.3	1.53e-02	0	52	0	18350080	47	4588
2026-01-03 03:50:47.35	236.51	8.92	-37.9	-40.1	21.2	0.00e+00	0	53	0	22020096	47	4649
2026-01-03 03:50:50.37	236.13	9.20	-37.9	-40.1	21.3	0.00e+00	0	52	0	25165824	47	4624
2026-01-03 03:50:53.40	235.74	9.48	-37.2	-39.2	22.2	0.00e+00	0	52	0	28835840	46	4411
2026-01-03 03:50:56.43	235.34	9.76	-36.8	-38.7	22.7	0.00e+00	0	53	0	31981568	45	4424
2026-01-03 03:50:59.46	234.94	10.05	-36.6	-38.4	22.9	0.00e+00	0	53	0	35651584	45	4260
2026-01-03 03:51:02.49	234.52	10.35	-36.8	-38.7	22.7	0.00e+00	0	53	0	38797312	45	4403
2026-01-03 03:51:05.52	234.08	10.64	-36.9	-38.9	22.5	0.00e+00	0	53	0	42467328	45	4512
2026-01-03 03:51:08.55	233.64	10.94	-37.0	-39.0	22.5	0.00e+00	0	53	0	45613056	45	4548
2026-01-03 03:51:11.57	233.19	11.25	-36.8	-38.7	22.7	0.00e+00	0	53	0	49283072	45	4429
2026-01-03 03:51:14.60	232.72	11.56	-36.3	-38.1	23.3	0.00e+00	0	53	0	52428800	44	4372
2026-01-03 03:51:17.63	232.23	11.87	-36.2	-38.0	23.5	0.00e+00	0	53	0	56098816	44	4306
2026-01-03 03:51:20.66	231.74	12.19	-36.4	-38.3	23.2	0.00e+00	0	53	0	59244544	44	4448
2026-01-03 03:51:23.69	231.23	12.52	-36.2	-37.9	23.6	0.00e+00	0	53	0	62914560	44	4276
2026-01-03 03:51:26.72	230.70	12.84	-35.6	-37.3	24.1	0.00e+00	0	54	0	66060288	43	4195
2026-01-03 03:51:29.75	230.16	13.18	-35.6	-37.3	24.0	0.00e+00	0	53	0	69730304	43	4216
2026-01-03 03:51:32.78	229.60	13.51	-35.8	-37.5	23.8	0.00e+00	0	54	0	72876032	43	4316
2026-01-03 03:51:35.81	229.02	13.85	-35.8	-37.5	23.9	0.00e+00	0	54	0	76546048	43	4317
2026-01-03 03:51:38.85	228.43	14.20	-35.6	-37.3	24.1	0.00e+00	0	54	0	79691776	43	4205
2026-01-03 03:51:41.88	227.82	14.55	-35.8	-37.5	23.9	0.00e+00	0	54	0	83361792	43	4318
2026-01-03 03:51:44.91	227.19	14.91	-35.7	-37.4	24.0	0.00e+00	0	54	0	87031808	43	4259
2026-01-03 03:51:47.94	226.54	15.27	-34.8	-36.4	25.0	0.00e+00	0	54	0	90177536	41	4258
2026-01-03 03:51:50.97	225.87	15.63	-35.0	-36.6	24.8	0.00e+00	0	54	0	93847552	41	4377
2026-01-03 03:51:54.00	225.18	16.00	-34.7	-36.2	25.2	0.00e+00	0	54	0	96993280	41	4184
2026-01-03 03:51:57.03	224.47	16.38	-34.5	-36.0	25.4	0.00e+00	0	54	0	100139008	40	4335
2026-01-03 03:52:00.06	223.73	16.76	-34.7	-36.2	25.2	0.00e+00	0	54	0	103809024	40	4430
2026-01-03 03:52:03.09	222.97	17.14	-34.4	-35.9	25.5	0.00e+00	0	54	0	106954752	40	4243
2026-01-03 03:52:06.12	222.19	17.52	-34.2	-35.7	25.7	0.00e+00	0	54	0	110624768	40	4187
2026-01-03 03:52:09.15	221.38	17.92	-34.2	-35.6	25.7	0.00e+00	0	54	0	113770496	40	4135
2026-01-03 03:52:12.18	220.54	18.31	-34.2	-35.6	25.9	0.00e+00	0	54	0	117440512	39	4381
2026-01-03 03:52:15.20	219.68	18.71	-34.5	-36.0	25.5	0.00e+00	0	54	0	120586240	39	4593
2026-01-03 03:52:18.23	218.79	19.11	-34.2	-35.7	25.9	0.00e+00	0	54	0	124256256	39	4392
2026-01-03 03:52:21.26	217.87	19.51	-33.7	-35.1	26.4	0.00e+00	0	54	0	127401984	39	4135
2026-01-03 03:52:24.29	216.92	19.92	-33.9	-35.3	26.2	0.00e+00	0	54	0	131072000	39	4233
2026-01-03 03:52:27.32	215.94	20.32	-33.8	-35.3	26.3	0.00e+00	0	54	0	134742016	39	4205
2026-01-03 03:52:30.34	214.93	20.73	-34.2	-35.7	25.9	0.00e+00	0	54	0	137887744	39	4432
2026-01-03 03:52:33.37	213.89	21.14	-33.7	-35.1	26.4	0.00e+00	0	54	0	141033472	39	4100
2026-01-03 03:52:36.40	212.81	21.55	-33.6	-35.1	26.5	0.00e+00	0	55	0	144703488	38	4343
2026-01-03 03:52:39.43	211.69	21.96	-33.6	-35.0	26.5	0.00e+00	0	55	0	147849216	38	4338
2026-01-03 03:52:42.46	210.55	22.37	-33.8	-35.2	26.4	0.00e+00	0	55	0	151519232	38	4424
2026-01-03 03:52:45.49	209.36	22.77	-33.2	-34.5	27.0	0.00e+00	0	55	0	154664960	38	4096
2026-01-03 03:52:48.52	208.14	23.17	-33.0	-34.4	27.1	0.00e+00	0	55	0	158334976	38	4026
2026-01-03 03:52:51.55	206.88	23.57	-32.9	-34.2	27.3	0.00e+00	0	55	0	161480704	37	4169
2026-01-03 03:52:54.58	205.59	23.96	-32.9	-34.2	27.3	0.00e+00	0	55	0	165150720	37	4193
2026-01-03 03:52:57.61	204.25	24.35	-33.4	-34.8	26.8	0.00e+00	0	55	0	168820736	37	4453
2026-01-03 03:53:00.64	202.88	24.73	-33.4	-34.8	26.8	0.00e+00	0	55	0	171966464	37	4446
2026-01-03 03:53:03.67	201.47	25.09	-33.1	-34.5	27.0	0.00e+00	0	55	0	175636480	37	4319
2026-01-03 03:53:06.70	200.02	25.45	-32.7	-34.0	27.4	0.00e+00	0	55	0	178782208	37	4076
2026-01-03 03:53:09.73	198.53	25.80	-32.3	-33.6	27.8	0.00e+00	0	55	0	181927936	36	4144
2026-01-03 03:53:12.76	197.01	26.13	-32.9	-34.2	27.3	0.00e+00	0	55	0	185597952	36	4439
2026-01-03 03:53:15.79	195.45	26.45	-32.8	-34.1	27.3	0.00e+00	0	55	0	188743680	36	4381
2026-01-03 03:53:18.82	193.86	26.75	-32.1	-33.4	27.9	0.00e+00	0	55	0	192413696	36	4034
2026-01-03 03:53:21.84	192.24	27.03	-32.5	-33.8	27.5	0.00e+00	0	55	0	195559424	36	4213
2026-01-03 03:53:24.87	190.58	27.29	-32.0	-33.3	28.0	0.00e+00	0	55	0	199229440	36	3986
2026-01-03 03:53:27.90	188.89	27.53	-31.8	-33.1	27.6	0.00e+00	0	55	0	202375168	34	4367
2026-01-03 03:53:30.93	187.17	27.75	-32.0	-33.3	27.4	0.00e+00	0	55	0	206045184	34	4489
2026-01-03 03:53:33.96	185.43	27.95	-32.5	-33.9	26.9	0.00e+00	0	55	0	209715200	35	4545
2026-01-03 03:53:36.99	183.67	28.12	-32.0	-33.3	27.4	0.00e+00	0	55	0	212860928	35	4224
2026-01-03 03:53:40.02	181.88	28.26	-32.3	-33.7	27.1	0.00e+00	0	55	0	216530944	35	4421
2026-01-03 03:53:43.05	180.08	28.38	-31.9	-33.2	27.6	0.00e+00	0	55	0	219676672	35	4176
2026-01-03 03:53:46.07	178.27	28.47	-32.1	-33.5	27.4	0.00e+00	0	55	0	222822400	35	4308
2026-01-03 03:53:49.10	176.45	28.53	-31.4	-32.8	28.0	0.00e+00	0	55	0	226492416	34	4195
2026-01-03 03:53:52.13	174.62	28.56	-31.8	-33.1	27.9	0.00e+00	0	56	0	229638144	34	4352
2026-01-03 03:53:55.16	172.79	28.56	-31.8	-33.1	27.7	0.00e+00	0	55	0	233308160	34	4386
2026-01-03 03:53:58.19	170.96	28.53	-32.0	-33.4	27.5	0.00e+00	0	55	0	236453888	35	4249
2026-01-03 03:54:01.22	169.14	28.48	-32.0	-33.4	27.5	0.00e+00	0	56	0	240123904	35	4264
2026-01-03 03:54:04.25	167.32	28.39	-31.5	-32.8	28.0	0.00e+00	0	56	0	243269632	34	4242
2026-01-03 03:54:07.28	165.52	28.28	-31.8	-33.1	27.8	0.00e+00	0	55	0	246939648	34	4369
2026-01-03 03:54:10.31	163.73	28.14	-32.1	-33.5	27.4	0.00e+00	0	55	0	250609664	35	4318
2026-01-03 03:54:13.34	161.97	27.98	-32.0	-33.4	27.5	0.00e+00	0	56	0	253755392	35	4273
2026-01-03 03:54:16.37	160.22	27.78	-31.4	-32.8	28.1	0.00e+00	0	56	0	257425408	34	4195
2026-01-03 03:54:19.40	158.50	27.57	-31.9	-33.3	27.7	0.00e+00	0	56	0	260571136	34	4471
2026-01-03 03:54:22.42	156.82	27.33	-32.1	-33.5	27.5	0.00e+00	0	55	0	263716864	35	4299
2026-01-03 03:54:25.45	155.15	27.07	-31.9	-33.2	27.7	0.00e+00	0	56	0	267386880	35	4183
2026-01-03 03:54:28.48	153.52	26.79	-31.9	-33.3	27.6	0.00e+00	0	56	0	270532608	35	4205
2026-01-03 03:54:31.51	151.93	26.50	-32.2	-33.6	27.4	0.00e+00	0	56	0	274202624	35	4387
2026-01-03 03:54:34.54	150.37	26.18	-32.1	-33.5	27.5	0.00e+00	0	56	0	277348352	35	4301
2026-01-03 03:54:37.58	148.83	25.85	-32.4	-33.8	27.2	0.00e+00	0	56	0	281018368	35	4457
2026-01-03 03:54:40.60	147.35	25.51	-31.8	-33.2	27.8	0.00e+00	0	56	0	284164096	35	4170
2026-01-03 03:54:43.63	145.90	25.15	-32.1	-33.5	27.5	0.00e+00	0	56	0	287834112	35	4305
2026-01-03 03:54:46.66	144.48	24.79	-32.5	-33.9	27.1	0.00e+00	0	56	0	291504128	35	4526
2026-01-03 03:54:49.69	143.11	24.41	-32.3	-33.7	27.2	0.00e+00	0	56	0	294649856	35	4423
2026-01-03 03:54:52.72	141.77	24.03	-32.3	-33.7	27.2	0.00e+00	0	56	0	297795584	35	4432
2026-01-03 03:54:55.75	140.47	23.64	-32.0	-33.4	27.5	0.00e+00	0	56	0	301465600	35	4270
2026-01-03 03:54:58.78	139.21	23.24	-32.6	-34.1	26.9	0.00e+00	0	56	0	304611328	35	4613
2026-01-03 03:55:01.81	137.98	22.84	-32.5	-33.9	27.0	0.00e+00	0	56	0	308281344	35	4513
2026-01-03 03:55:04.84	136.80	22.44	-32.6	-34.1	26.8	0.00e+00	0	56	0	311427072	35	4605
2026-01-03 03:55:07.86	135.65	22.03	-33.8	-35.3	26.4	0.00e+00	0	56	0	315097088	38	4446
2026-01-03 03:55:10.89	134.53	21.63	-33.5	-34.9	26.7	0.00e+00	0	56	0	318242816	38	4252
2026-01-03 03:55:13.92	133.45	21.22	-34.2	-35.7	25.9	0.00e+00	0	56	0	321912832	39	4420
2026-01-03 03:55:16.95	132.40	20.81	-33.6	-35.0	26.5	0.00e+00	0	56	0	325058560	39	4089
2026-01-03 03:55:19.98	131.39	20.40	-34.2	-35.8	25.8	0.00e+00	0	56	0	328728576	39	4445
2026-01-03 03:55:23.01	130.40	20.00	-33.9	-35.4	26.0	0.00e+00	0	56	0	331874304	39	4264
2026-01-03 03:55:26.04	129.45	19.59	-34.0	-35.5	26.0	0.00e+00	0	56	0	335544320	39	4322
2026-01-03 03:55:29.07	128.53	19.19	-34.4	-35.9	25.6	0.00e+00	0	56	0	338690048	39	4508
2026-01-03 03:55:32.10	127.63	18.79	-34.5	-36.1	25.4	0.00e+00	0	56	0	342360064	39	4609
2026-01-03 03:55:35.12	126.77	18.39	-34.5	-36.0	25.5	0.00e+00	0	56	0	345505792	39	4587
2026-01-03 03:55:38.15	125.93	18.00	-34.2	-35.7	25.7	0.00e+00	0	56	0	349175808	39	4421
2026-01-03 03:55:41.18	125.12	17.61	-34.2	-35.7	25.6	0.00e+00	0	56	0	352321536	39	4432
2026-01-03 03:55:44.21	124.34	17.22	-34.8	-36.3	25.0	0.00e+00	0	56	0	355991552	40	4483
2026-01-03 03:55:47.23	123.58	16.84	-34.9	-36.5	24.8	0.00e+00	0	56	0	359137280	40	4554
2026-01-03 03:55:50.26	122.84	16.46	-34.5	-36.1	25.2	0.00e+00	0	56	0	362807296	40	4343
2026-01-03 03:55:53.29	122.12	16.09	-35.4	-37.1	24.1	0.00e+00	0	56	0	365953024	41	4647
2026-01-03 03:55:56.32	121.43	15.72	-35.1	-36.9	24.2	0.00e+00	0	56	0	369623040	41	4504
2026-01-03 03:55:59.35	120.76	15.36	-34.6	-36.3	24.7	0.00e+00	0	56	0	372768768	39	4754
2026-01-03 03:56:02.38	120.11	15.00	-33.6	-36.5	24.2	0.00e+00	0	56	0	376438784	40	4550
2026-01-03 03:56:05.41	119.48	14.64	-35.5	-37.4	23.7	0.00e+00	0	56	0	379584512	41	4763
2026-01-03 03:56:08.43	118.87	14.29	-35.8	-37.7	22.6	2.20e-06	0	56	0	383254528	42	4693
2026-01-03 03:56:11.46	118.27	13.94	-35.4	-37.2	23.7	2.20e-06	0	56	0	386400256	41	4673
2026-01-03 03:56:14.49	117.70	13.60	-35.0	-37.3	20.6	2.20e-06	0	56	0	390070272	40	4986
2026-01-03 03:56:17.52	117.14	13.27	-35.4	-37.9	21.9	2.74e-05	0	56	0	393216000	41	5057
2026-01-03 03:56:20.55	116.59	12.93	-33.3	-38.1	19.7	1.85e-04	0	56	0	396886016	41	5196
2026-01-03 03:56:23.58	116.06	12.61	-34.9	-38.0	19.1	2.21e-04	0	56	0	400031744	41	5119
2026-01-03 03:56:26.61	115.55	12.28	-35.5	-38.0	20.5	4.71e-04	0	56	0	403701760	40	5412
2026-01-03 03:56:29.64	115.05	11.96	-34.1	-38.4	18.9	5.74e-04	0	56	0	406847488	40	5709
2026-01-03 03:56:32.67	114.57	11.65	-35.6	-39.0	18.7	9.88e-04	0	56	0	410517504	41	5777
2026-01-03 03:56:35.70	114.10	11.34	-35.2	-38.9	18.0	1.07e-03	0	56	0	413663232	40	6027
2026-01-03 03:56:38.73	113.64	11.03	-34.5	-39.3	16.7	2.74e-03	0	56	0	417333248	39	6664
2026-01-03 03:56:41.75	113.20	10.73	-32.1	-38.1	16.7	3.59e-03	0	56	0	420478976	37	6497
2026-01-03 03:56:44.78	112.77	10.44	-33.8	-38.7	16.0	3.22e-03	0	56	0	424148992	38	6628
2026-01-03 03:56:47.81	112.34	10.14	-34.6	-41.1	13.5	1.59e-02	0	56	0	427294720	39	8230
2026-01-03 03:56:50.83	111.94	9.85	-36.1	-44.5	11.7	2.91e-02	0	56	0	430964736	43	9670
2026-01-03 03:56:53.86	111.54	9.57	-35.4	-43.6	12.4	5.31e-02	0	56	0	434110464	43	8749
2026-01-03 03:56:56.89	111.15	9.29	-34.4	-38.2	16.8	6.68e-03	0	56	0	437780480	39	5879
2026-01-03 03:56:59.92	110.77	9.01	-34.5	-38.9	16.7	3.68e-03	0	56	0	440926208	40	6017
2026-01-03 03:57:02.95	110.40	8.73	-35.9	-39.2	18.0	3.50e-03	0	57	0	444596224	42	5575
2026-01-03 03:57:05.97	110.04	8.46	-36.3	-39.5	18.3	6.33e-04	0	56	0	447741952	43	5441
2026-01-03 03:57:09.00	109.69	8.20	-36.8	-40.1	17.6	3.95e-04	0	56	0	451411968	44	5476
2026-01-03 03:57:12.03	109.35	7.93	-44.4	-62.1	3.6	2.55e-04	0	56	104	454033408	59	29021
2026-01-03 03:57:15.06	109.02	7.67	-45.1	-63.2	3.8	8.46e-01	0	57	104	454033408	60	31214
2026-01-03 03:57:18.10	108.69	7.41	-45.5	-63.6	3.8	8.46e-01	0	57	104	454033408	61	30940
2026-01-03 03:57:21.13	108.38	7.16	-45.6	-63.8	3.8	8.46e-01	0	57	104	454033408	61	31632
2026-01-03 03:57:24.16	108.07	6.91	-45.4	-63.6	3.8	8.44e-01	0	56	104	454033408	61	30958
2026-01-03 03:57:27.20	107.76	6.66	-45.4	-63.5	3.8	8.46e-01	0	56	104	454033408	61	30714
2026-01-03 03:57:30.23	107.47	6.42	-45.3	-63.5	3.8	8.47e-01	0	57	104	454033408	61	30412
2026-01-03 03:57:33.26	107.18	6.17	-45.3	-63.4	3.8	8.45e-01	0	57	104	454033408	61	30309
2026-01-03 03:57:36.30	106.90	5.93	-45.3	-63.4	3.8	8.46e-01	0	57	104	454033408	61	30316
2026-01-03 03:57:39.33	106.63	5.70	-45.3	-63.4	3.8	8.47e-01	0	57	104	454033408	61	30275
2026-01-03 03:57:42.36	106.36	5.46	-45.2	-63.4	3.8	8.47e-01	0	57	104	454033408	61	30278
2026-01-03 03:57:45.39	106.09	5.23	-45.2	-63.4	3.8	8.45e-01	0	57	104	454033408	61	30258
2026-01-03 03:57:48.43	105.84	5.00	-45.2	-63.4	3.8	8.46e-01	0	57	104	454033408	61	30192
2026-01-03 03:57:51.46	105.59	4.78	-45.2	-63.4	3.8	8.47e-01	0	57	104	454033408	61	30222
2026-01-03 03:57:54.49	105.34	4.55	-45.2	-63.4	3.8	8.47e-01	0	57	104	454033408	61	30198
2026-01-03 03:57:57.53	105.10	4.33	-45.2	-63.4	3.8	8.46e-01	0	57	104	454033408	61	30173
2026-01-03 03:58:00.56	104.87	4.11	-45.2	-63.4	3.8	8.47e-01	0	57	104	454033408	61	30218
2026-01-03 03:58:03.59	104.64	3.90	-45.2	-63.4	3.8	8.47e-01	0	57	104	454033408	61	30134
2026-01-03 03:58:06.63	104.41	3.68	-45.2	-63.3	3.8	8.46e-01	0	57	104	454033408	61	30030
2026-01-03 03:58:09.66	104.19	3.47	-45.2	-63.4	3.8	8.46e-01	0	57	104	454033408	61	30190
2026-01-03 03:58:12.69	103.98	3.26	-45.2	-63.4	3.8	8.46e-01	0	57	104	454033408	61	30206
2026-01-03 03:58:15.72	103.77	3.05	-45.2	-63.4	3.8	8.47e-01	0	57	104	454033408	61	30130
2026-01-03 03:58:18.76	103.56	2.85	-45.2	-63.4	3.8	8.46e-01	0	57	104	454033408	61	30142
2026-01-03 03:58:21.79	103.36	2.64	-45.2	-63.4	3.8	8.46e-01	0	57	104	454033408	61	30112
2026-01-03 03:58:24.82	103.16	2.44	-45.2	-63.4	3.8	8.46e-01	0	57	104	454033408	61	30087
2026-01-03 03:58:27.85	102.97	2.24	-45.2	-63.4	3.8	8.46e-01	0	57	104	454033408	61	30155
2026-01-03 03:58:30.89	102.77	2.04	-45.2	-63.4	3.8	8.47e-01	0	57	104	454033408	61	30133

#Closed at: 2026-01-03 03:58:32
#Recorded file [454 MB]: D:/lorett/data/31039_260103_064919.dat