passes_logs/2026/01/03/R2.0S_Moscow/R2.0S_Moscow__20260103_013945_SUOMI_NPP_rec.log

#Pass ID: 20260103_013945_SUOMI NPP
#Satellite: SUOMI NPP
#Configuration: NPP
#almurnet v.1.7.20251203
#Start time: 2026-01-03 01:39:45

#Version: 2.2.20231116
#Station: R2.0S_Moscow
#Location: 37.707566 lon 55.798166 lat
#TLE: 1 37849U 11061A   26001.07732418  .00000182  00000+0  10735-3 0  9990
#TLE: 2 37849  98.7795 303.2470 0002580  87.2016 272.9455 14.19520779734739

#Time	Az	El	Level	Level2	SNR	BER	BlckErr	Temp	State	Recorded	gain1	gain2
2026-01-03 01:39:45.53	9.57	2.00	-39.5	-54.5	3.8	1.49e+00	0	47	0	0	50	20333
2026-01-03 01:39:48.55	9.35	2.17	-39.5	-54.5	3.8	1.49e+00	0	48	104	0	49	21532
2026-01-03 01:39:51.58	9.12	2.33	-39.5	-54.5	3.8	1.49e+00	0	48	104	0	49	21548
2026-01-03 01:39:54.62	8.90	2.50	-39.5	-54.4	3.8	1.49e+00	0	48	104	0	49	21502
2026-01-03 01:39:57.65	8.66	2.66	-39.5	-54.4	3.8	1.49e+00	0	48	104	0	49	21483
2026-01-03 01:40:00.68	8.43	2.83	-39.5	-54.5	3.8	1.49e+00	0	49	104	0	49	21513
2026-01-03 01:40:03.71	8.20	2.99	-39.5	-54.5	3.8	1.49e+00	0	49	104	0	49	21561
2026-01-03 01:40:06.75	7.96	3.16	-39.5	-54.5	3.8	1.49e+00	0	49	104	0	49	21530
2026-01-03 01:40:09.78	7.71	3.33	-39.5	-54.4	3.8	1.49e+00	0	49	104	0	49	21474
2026-01-03 01:40:12.81	7.47	3.49	-39.5	-54.4	3.8	1.49e+00	0	49	104	0	49	21495
2026-01-03 01:40:15.85	7.22	3.66	-39.5	-54.5	3.8	1.49e+00	0	50	104	0	49	21545
2026-01-03 01:40:18.88	6.97	3.83	-39.5	-54.4	3.8	1.49e+00	0	50	104	0	49	21484
2026-01-03 01:40:21.91	6.72	4.00	-39.5	-54.4	3.8	1.49e+00	0	50	104	0	49	21471
2026-01-03 01:40:24.94	6.46	4.17	-39.5	-54.5	3.8	1.49e+00	0	50	104	0	49	21515
2026-01-03 01:40:27.98	6.20	4.34	-39.5	-54.5	3.8	1.49e+00	0	50	104	0	49	21555
2026-01-03 01:40:31.01	5.94	4.51	-39.5	-54.5	3.8	1.49e+00	0	50	104	0	49	21521
2026-01-03 01:40:34.04	5.67	4.68	-39.5	-54.4	3.8	1.49e+00	0	50	104	0	49	21468
2026-01-03 01:40:37.08	5.40	4.86	-39.5	-54.4	3.8	1.49e+00	0	51	104	0	49	21502
2026-01-03 01:40:40.11	5.13	5.03	-39.5	-54.5	3.8	1.49e+00	0	51	104	0	49	21522
2026-01-03 01:40:43.14	4.85	5.20	-39.5	-54.4	3.8	1.49e+00	0	51	104	0	49	21492
2026-01-03 01:40:46.17	4.57	5.38	-39.5	-54.5	3.8	1.49e+00	0	51	104	0	49	21531
2026-01-03 01:40:49.21	4.29	5.55	-39.5	-54.4	3.8	1.49e+00	0	51	104	0	49	21461
2026-01-03 01:40:52.24	4.00	5.72	-39.5	-54.4	3.8	1.49e+00	0	51	104	0	49	21457
2026-01-03 01:40:55.27	3.71	5.90	-39.4	-54.4	3.8	1.49e+00	0	51	104	0	49	21489
2026-01-03 01:40:58.31	3.41	6.08	-39.4	-54.4	3.8	1.49e+00	0	52	104	0	49	21357
2026-01-03 01:41:01.34	3.12	6.25	-39.4	-54.4	3.8	1.49e+00	0	52	104	0	49	21321
2026-01-03 01:41:04.37	2.82	6.43	-39.5	-54.4	3.8	1.49e+00	0	52	104	0	49	21393
2026-01-03 01:41:07.40	2.51	6.60	-39.5	-54.4	3.8	1.49e+00	0	52	104	0	49	21478
2026-01-03 01:41:10.44	2.20	6.78	-39.5	-54.5	3.8	1.49e+00	0	52	104	0	49	21524
2026-01-03 01:41:13.47	1.89	6.96	-39.5	-54.4	3.8	1.49e+00	0	52	104	0	49	21499
2026-01-03 01:41:16.50	1.57	7.14	-39.4	-54.4	3.8	1.49e+00	0	52	104	0	49	21483
2026-01-03 01:41:19.54	1.25	7.32	-39.4	-54.5	3.8	1.49e+00	0	53	104	0	49	21507
2026-01-03 01:41:22.57	0.92	7.49	-39.5	-54.4	3.8	1.49e+00	0	53	104	0	49	21476
2026-01-03 01:41:25.60	0.59	7.67	-39.5	-54.5	3.8	1.49e+00	0	53	104	0	49	21520
2026-01-03 01:41:28.64	0.26	7.85	-39.5	-54.4	3.8	1.49e+00	0	53	104	0	49	21502
2026-01-03 01:41:31.67	359.92	8.03	-39.5	-54.5	3.8	1.49e+00	0	53	104	0	49	21526
2026-01-03 01:41:34.70	359.58	8.21	-39.3	-54.5	3.8	1.49e+00	0	53	104	0	49	21689
2026-01-03 01:41:37.73	359.23	8.39	-39.3	-54.5	3.8	1.49e+00	0	53	104	0	49	21535
2026-01-03 01:41:40.76	358.88	8.57	-38.9	-54.4	3.8	1.49e+00	0	53	104	0	49	21288
2026-01-03 01:41:43.79	358.52	8.75	-38.3	-54.4	3.8	1.49e+00	0	53	104	0	48	22524
2026-01-03 01:41:46.82	358.16	8.93	-39.0	-54.4	3.8	1.49e+00	0	53	104	0	48	22591
2026-01-03 01:41:49.85	357.80	9.12	-38.6	-54.3	3.8	1.49e+00	0	53	104	0	47	23718
2026-01-03 01:41:52.88	357.43	9.30	-38.2	-54.3	3.8	1.49e+00	0	54	104	0	47	23617
2026-01-03 01:41:55.91	357.06	9.48	-38.6	-54.2	3.8	1.49e+00	0	54	104	0	47	23571
2026-01-03 01:41:58.94	356.68	9.66	-39.3	-54.3	3.8	1.49e+00	0	54	104	0	49	21102
2026-01-03 01:42:01.97	356.29	9.84	-39.0	-54.3	3.8	1.49e+00	0	54	104	0	48	22388
2026-01-03 01:42:05.00	355.90	10.02	-39.5	-54.4	3.8	1.49e+00	0	54	104	0	49	21285
2026-01-03 01:42:08.03	355.51	10.21	-39.7	-54.3	3.8	1.49e+00	0	54	104	0	49	21144
2026-01-03 01:42:11.06	355.11	10.39	-38.8	-54.2	3.8	1.49e+00	0	54	104	0	49	20877
2026-01-03 01:42:14.08	354.71	10.57	-39.9	-54.5	3.8	1.49e+00	0	54	104	0	50	20361
2026-01-03 01:42:17.12	354.30	10.75	-39.6	-54.4	3.8	1.49e+00	0	54	104	0	50	20120
2026-01-03 01:42:20.14	353.89	10.93	-39.8	-54.7	3.8	1.49e+00	0	54	104	0	50	20844
2026-01-03 01:42:23.17	353.47	11.11	-39.9	-54.6	3.8	1.49e+00	0	54	104	0	50	20591
2026-01-03 01:42:26.20	353.04	11.30	-39.6	-54.5	3.8	1.49e+00	0	54	104	0	50	20389
2026-01-03 01:42:29.23	352.61	11.48	-39.5	-54.6	3.8	1.49e+00	0	54	104	0	50	20710
2026-01-03 01:42:32.26	352.17	11.66	-39.4	-55.1	3.8	1.49e+00	0	55	104	0	50	21803
2026-01-03 01:42:35.29	351.73	11.84	-40.2	-55.3	3.8	1.49e+00	0	54	104	0	51	21143
2026-01-03 01:42:38.32	351.28	12.02	-40.4	-55.1	3.8	1.49e+00	0	55	104	0	51	20696
2026-01-03 01:42:41.35	350.83	12.20	-40.5	-55.2	3.8	1.49e+00	0	55	104	0	52	19681
2026-01-03 01:42:44.38	350.37	12.38	-40.6	-55.1	3.8	1.49e+00	0	55	104	0	52	19554
2026-01-03 01:42:47.41	349.91	12.56	-40.5	-55.1	3.8	1.49e+00	0	55	104	0	52	19430
2026-01-03 01:42:50.44	349.44	12.73	-40.1	-55.2	3.8	1.49e+00	0	55	104	0	52	19692
2026-01-03 01:42:53.47	348.96	12.91	-40.4	-55.0	3.8	1.49e+00	0	55	104	0	52	19349
2026-01-03 01:42:56.50	348.48	13.09	-40.0	-55.5	3.8	1.49e+00	0	55	104	0	51	21516
2026-01-03 01:42:59.53	347.99	13.26	-41.3	-55.9	3.9	1.49e+00	0	55	104	0	53	20210
2026-01-03 01:43:02.56	347.50	13.44	-41.3	-55.9	3.8	1.49e+00	0	55	104	0	53	20289
2026-01-03 01:43:05.59	347.00	13.61	-41.3	-56.0	3.8	1.49e+00	0	55	104	0	53	20314
2026-01-03 01:43:08.62	346.50	13.79	-41.3	-56.0	3.8	1.49e+00	0	55	104	0	53	20458
2026-01-03 01:43:11.65	345.98	13.96	-41.1	-55.7	3.8	1.49e+00	0	55	104	0	53	19818
2026-01-03 01:43:14.68	345.47	14.13	-40.4	-55.0	3.8	1.49e+00	0	55	104	0	52	19382
2026-01-03 01:43:17.71	344.94	14.30	-40.9	-55.5	3.8	1.49e+00	0	55	104	0	52	20304
2026-01-03 01:43:20.74	344.41	14.47	-40.4	-55.1	3.8	1.49e+00	0	55	104	0	52	19423
2026-01-03 01:43:23.77	343.88	14.64	-40.7	-55.6	3.8	1.49e+00	0	55	104	0	52	20570
2026-01-03 01:43:26.80	343.33	14.80	-40.2	-55.2	3.8	1.49e+00	0	56	104	0	52	19709
2026-01-03 01:43:29.83	342.78	14.97	-40.5	-55.1	3.8	1.49e+00	0	55	104	0	52	19599
2026-01-03 01:43:32.86	342.23	15.13	-40.5	-55.1	3.8	1.49e+00	0	55	104	0	52	19527
2026-01-03 01:43:35.88	341.67	15.29	-40.1	-54.6	3.8	1.49e+00	0	55	104	0	52	18458
2026-01-03 01:43:38.91	341.10	15.45	-40.3	-54.8	3.8	1.49e+00	0	55	104	0	52	18913
2026-01-03 01:43:41.94	340.53	15.61	-40.0	-54.6	3.8	1.49e+00	0	56	104	0	52	18515
2026-01-03 01:43:44.98	339.95	15.77	-40.0	-54.6	3.8	1.49e+00	0	55	104	0	52	18422
2026-01-03 01:43:48.01	339.36	15.92	-41.8	-47.8	8.6	8.63e-02	0	56	0	3145728	54	7495
2026-01-03 01:43:51.04	338.77	16.07	-41.2	-45.4	11.9	7.26e-04	0	56	0	8388608	54	5687
2026-01-03 01:43:54.06	338.18	16.22	-40.4	-43.8	13.6	2.36e-05	0	56	0	14680064	52	5336
2026-01-03 01:43:57.09	337.57	16.37	-39.8	-42.7	14.9	7.00e-07	0	55	0	19922944	51	4949
2026-01-03 01:44:00.12	336.96	16.51	-38.8	-41.2	16.3	0.00e+00	0	56	0	25165824	49	4675
2026-01-03 01:44:03.15	336.35	16.66	-39.6	-42.3	15.2	0.00e+00	0	56	0	31457280	49	5338
2026-01-03 01:44:06.17	335.73	16.80	-39.4	-42.0	15.5	0.00e+00	0	56	0	36700160	50	4861
2026-01-03 01:44:09.20	335.10	16.93	-38.7	-41.0	16.6	0.00e+00	0	56	0	42991616	49	4564
2026-01-03 01:44:12.23	334.47	17.07	-38.7	-41.1	16.5	0.00e+00	0	56	0	48234496	49	4616
2026-01-03 01:44:15.25	333.83	17.20	-38.5	-40.7	16.9	0.00e+00	0	56	0	53477376	48	4662
2026-01-03 01:44:18.28	333.19	17.33	-37.9	-39.9	17.6	0.00e+00	0	56	0	59768832	47	4509
2026-01-03 01:44:21.31	332.53	17.45	-37.8	-39.8	17.8	0.00e+00	0	56	0	65011712	47	4448
2026-01-03 01:44:24.34	331.88	17.57	-38.4	-40.6	17.0	0.00e+00	0	56	0	71303168	47	4880
2026-01-03 01:44:27.37	331.22	17.69	-38.5	-40.7	16.9	0.00e+00	0	56	0	76546048	47	4931
2026-01-03 01:44:30.39	330.55	17.81	-38.9	-41.2	16.5	0.00e+00	0	56	0	82837504	48	4962
2026-01-03 01:44:33.42	329.88	17.92	-39.4	-42.0	15.8	0.00e+00	0	56	0	88080384	49	5109
2026-01-03 01:44:36.45	329.21	18.03	-39.0	-41.4	16.3	0.00e+00	0	56	0	93323264	49	4781
2026-01-03 01:44:39.48	328.53	18.13	-38.4	-40.6	17.2	0.00e+00	0	56	0	99614720	48	4613
2026-01-03 01:44:42.51	327.84	18.24	-37.8	-39.7	17.9	0.00e+00	0	56	0	104857600	47	4426
2026-01-03 01:44:45.53	327.15	18.33	-37.7	-39.6	18.0	0.00e+00	0	56	0	111149056	47	4358
2026-01-03 01:44:48.56	326.46	18.43	-37.4	-39.3	18.3	0.00e+00	0	56	0	116391936	46	4443
2026-01-03 01:44:51.59	325.76	18.52	-37.6	-39.4	18.1	0.00e+00	0	56	0	121634816	46	4544
2026-01-03 01:44:54.62	325.05	18.60	-38.2	-40.2	17.4	0.00e+00	0	56	0	127926272	47	4676
2026-01-03 01:44:57.65	324.35	18.68	-38.4	-40.5	17.1	0.00e+00	0	56	0	133169152	47	4844
2026-01-03 01:45:00.68	323.64	18.76	-38.3	-40.4	17.2	0.00e+00	0	56	0	139460608	47	4801
2026-01-03 01:45:03.71	322.92	18.83	-39.0	-41.3	16.5	0.00e+00	0	56	0	144703488	48	5007
2026-01-03 01:45:06.74	322.20	18.90	-39.5	-42.1	15.7	0.00e+00	0	56	0	150994944	49	5165
2026-01-03 01:45:09.77	321.48	18.96	-38.9	-41.2	16.4	0.00e+00	0	56	0	156237824	49	4668
2026-01-03 01:45:12.79	320.76	19.02	-38.4	-40.5	17.2	0.00e+00	0	56	0	161480704	48	4548
2026-01-03 01:45:15.82	320.03	19.07	-39.0	-41.4	16.3	0.00e+00	0	56	0	167772160	48	5053
2026-01-03 01:45:18.85	319.31	19.12	-39.0	-41.4	16.3	0.00e+00	0	56	0	173015040	49	4784
2026-01-03 01:45:21.87	318.58	19.17	-38.6	-40.9	16.9	0.00e+00	0	56	0	179306496	49	4496
2026-01-03 01:45:24.91	317.84	19.21	-39.2	-41.7	16.0	0.00e+00	0	56	0	184549376	49	4950
2026-01-03 01:45:27.94	317.10	19.24	-40.0	-42.9	14.8	0.00e+00	0	56	0	189792256	50	5388
2026-01-03 01:45:30.97	316.37	19.27	-39.7	-42.5	15.3	0.00e+00	0	56	0	196083712	50	5106
2026-01-03 01:45:34.00	315.63	19.30	-39.1	-41.6	16.1	0.00e+00	0	56	0	201326592	50	4622
2026-01-03 01:45:37.02	314.89	19.32	-39.2	-41.8	15.9	0.00e+00	0	56	0	207618048	50	4731
2026-01-03 01:45:40.05	314.15	19.33	-39.4	-42.1	15.6	0.00e+00	0	56	0	212860928	50	4911
2026-01-03 01:45:43.08	313.41	19.34	-39.1	-41.7	16.0	0.00e+00	0	56	0	219152384	50	4668
2026-01-03 01:45:46.11	312.67	19.35	-38.6	-40.9	16.7	0.00e+00	0	56	0	224395264	49	4544
2026-01-03 01:45:49.14	311.93	19.35	-38.8	-41.1	16.5	0.00e+00	0	56	0	229638144	49	4650
2026-01-03 01:45:52.17	311.19	19.34	-39.0	-41.5	16.2	0.00e+00	0	56	0	235929600	49	4817
2026-01-03 01:45:55.20	310.44	19.33	-39.1	-41.6	16.0	0.00e+00	0	56	0	241172480	49	4915
2026-01-03 01:45:58.23	309.70	19.32	-39.1	-41.6	16.0	0.00e+00	0	56	0	247463936	49	4908
2026-01-03 01:46:01.26	308.96	19.30	-39.1	-41.5	16.2	0.00e+00	0	56	0	252706816	49	4865
2026-01-03 01:46:04.29	308.22	19.28	-39.5	-42.2	15.5	0.00e+00	0	56	0	257949696	49	5254
2026-01-03 01:46:07.33	307.48	19.25	-40.0	-43.0	14.7	1.50e-06	0	56	0	264241152	50	5403
2026-01-03 01:46:10.35	306.75	19.21	-39.5	-42.1	15.6	0.00e+00	0	56	0	269484032	50	4925
2026-01-03 01:46:13.38	306.02	19.17	-38.6	-40.8	16.8	0.00e+00	0	56	0	275775488	49	4466
2026-01-03 01:46:16.41	305.28	19.13	-38.2	-40.3	17.4	0.00e+00	0	56	0	281018368	48	4455
2026-01-03 01:46:19.44	304.55	19.08	-38.2	-40.3	17.3	0.00e+00	0	56	0	287309824	48	4487
2026-01-03 01:46:22.47	303.82	19.03	-37.9	-39.7	18.0	0.00e+00	0	56	0	292552704	47	4410
2026-01-03 01:46:25.50	303.10	18.97	-38.1	-40.0	17.7	0.00e+00	0	56	0	297795584	47	4578
2026-01-03 01:46:28.53	302.38	18.90	-37.9	-39.7	18.0	0.00e+00	0	56	0	304087040	47	4431
2026-01-03 01:46:31.56	301.66	18.84	-37.7	-39.5	18.2	0.00e+00	0	56	0	309329920	47	4314
2026-01-03 01:46:34.58	300.94	18.77	-37.9	-39.7	18.0	0.00e+00	0	56	0	315621376	47	4393
2026-01-03 01:46:37.61	300.23	18.69	-38.3	-40.3	17.5	0.00e+00	0	56	0	320864256	47	4709
2026-01-03 01:46:40.64	299.52	18.61	-38.4	-40.4	17.3	0.00e+00	0	57	0	326107136	47	4785
2026-01-03 01:46:43.66	298.82	18.52	-38.5	-40.6	17.1	0.00e+00	0	57	0	332398592	47	4895
2026-01-03 01:46:46.69	298.12	18.44	-38.3	-40.3	17.4	0.00e+00	0	56	0	337641472	47	4745
2026-01-03 01:46:49.72	297.42	18.34	-38.6	-40.7	17.0	0.00e+00	0	56	0	343932928	47	4973
2026-01-03 01:46:52.75	296.73	18.25	-39.3	-41.5	16.3	0.00e+00	0	57	0	349175808	49	4860
2026-01-03 01:46:55.78	296.04	18.14	-39.7	-42.1	15.8	0.00e+00	0	57	0	354418688	50	4913
2026-01-03 01:46:58.80	295.36	18.04	-39.4	-41.6	16.2	0.00e+00	0	57	0	360710144	50	4642
2026-01-03 01:47:01.83	294.68	17.93	-39.4	-41.8	16.1	0.00e+00	0	57	0	365953024	50	4714
2026-01-03 01:47:04.86	294.01	17.82	-39.3	-41.5	16.4	0.00e+00	0	56	0	372244480	50	4568
2026-01-03 01:47:07.89	293.34	17.71	-39.5	-41.8	16.0	0.00e+00	0	57	0	377487360	50	4742
2026-01-03 01:47:10.92	292.68	17.59	-39.7	-42.2	15.6	0.00e+00	0	57	0	383778816	50	4932
2026-01-03 01:47:13.94	292.02	17.46	-39.3	-41.5	16.3	0.00e+00	0	57	0	389021696	50	4593
2026-01-03 01:47:16.97	291.37	17.34	-39.2	-41.5	16.3	0.00e+00	0	57	0	394264576	50	4557
2026-01-03 01:47:20.00	290.72	17.21	-39.3	-41.6	16.2	0.00e+00	0	57	0	400556032	50	4617
2026-01-03 01:47:23.03	290.08	17.08	-39.3	-41.5	16.3	0.00e+00	0	57	0	405798912	50	4584
2026-01-03 01:47:26.06	289.44	16.94	-38.8	-40.9	16.8	0.00e+00	0	57	0	412090368	49	4510
2026-01-03 01:47:29.08	288.81	16.81	-38.6	-40.5	17.2	0.00e+00	0	57	0	417333248	49	4331
2026-01-03 01:47:32.11	288.19	16.67	-38.4	-40.4	17.3	0.00e+00	0	56	0	422576128	48	4505
2026-01-03 01:47:35.14	287.57	16.53	-38.6	-40.6	17.1	0.00e+00	0	57	0	428867584	48	4606
2026-01-03 01:47:38.17	286.96	16.38	-39.8	-42.3	15.4	0.00e+00	0	56	0	434110464	50	5001
2026-01-03 01:47:41.20	286.35	16.23	-39.9	-42.5	15.2	0.00e+00	0	57	0	440401920	50	5139
2026-01-03 01:47:44.23	285.75	16.08	-39.8	-42.3	15.4	0.00e+00	0	57	0	445644800	50	4996
2026-01-03 01:47:47.25	285.16	15.93	-39.9	-42.5	15.2	0.00e+00	0	57	0	451936256	50	5137
2026-01-03 01:47:50.28	284.57	15.78	-40.1	-42.8	14.9	0.00e+00	0	57	0	457179136	51	5000
2026-01-03 01:47:53.31	283.99	15.62	-39.8	-42.3	15.4	0.00e+00	0	57	0	462422016	51	4735
2026-01-03 01:47:56.33	283.41	15.46	-39.2	-41.4	16.3	0.00e+00	0	57	0	468713472	50	4512
2026-01-03 01:47:59.36	282.84	15.30	-39.3	-41.6	16.0	0.00e+00	0	57	0	473956352	50	4633
2026-01-03 01:48:02.39	282.28	15.14	-39.4	-41.7	16.0	0.00e+00	0	57	0	480247808	50	4670
2026-01-03 01:48:05.42	281.72	14.98	-39.4	-41.7	15.9	0.00e+00	0	57	0	485490688	50	4687
2026-01-03 01:48:08.45	281.17	14.81	-39.8	-42.4	15.2	0.00e+00	0	57	0	490733568	50	5068
2026-01-03 01:48:11.47	280.63	14.65	-39.3	-41.6	15.9	0.00e+00	0	57	0	497025024	50	4645
2026-01-03 01:48:14.50	280.09	14.48	-39.0	-41.2	16.3	0.00e+00	0	57	0	502267904	49	4699
2026-01-03 01:48:17.53	279.55	14.31	-39.5	-41.9	15.7	0.00e+00	0	57	0	508559360	49	5086
2026-01-03 01:48:20.56	279.03	14.14	-40.4	-43.3	14.3	7.00e-07	0	57	0	513802240	51	5308
2026-01-03 01:48:23.59	278.50	13.97	-41.0	-44.4	13.1	2.59e-05	0	57	0	520093696	52	5704
2026-01-03 01:48:26.62	277.99	13.80	-41.1	-44.6	12.9	1.98e-05	0	57	0	525336576	52	5804
2026-01-03 01:48:29.65	277.48	13.62	-40.7	-43.8	13.7	1.06e-05	0	57	0	530579456	52	5340
2026-01-03 01:48:32.68	276.98	13.45	-40.5	-43.6	14.0	3.00e-06	0	57	0	536870912	52	5162
2026-01-03 01:48:35.71	276.48	13.27	-40.0	-42.8	14.7	1.50e-06	0	57	0	542113792	52	4707
2026-01-03 01:48:38.74	275.99	13.09	-40.0	-42.7	14.9	0.00e+00	0	57	0	548405248	51	4936
2026-01-03 01:48:41.77	275.50	12.92	-40.3	-43.2	14.3	0.00e+00	0	57	0	553648128	51	5251
2026-01-03 01:48:44.80	275.02	12.74	-40.2	-43.0	14.5	1.50e-06	0	57	0	558891008	51	5129
2026-01-03 01:48:47.83	274.55	12.56	-39.6	-42.1	15.4	0.00e+00	0	57	0	565182464	51	4610
2026-01-03 01:48:50.86	274.08	12.38	-39.3	-41.7	15.8	0.00e+00	0	57	0	570425344	50	4683
2026-01-03 01:48:53.89	273.62	12.20	-39.5	-42.0	15.4	0.00e+00	0	57	0	576716800	50	4854
2026-01-03 01:48:56.91	273.17	12.02	-39.7	-42.3	15.1	0.00e+00	0	57	0	581959680	50	5030
2026-01-03 01:48:59.94	272.72	11.84	-40.0	-42.7	14.8	0.00e+00	0	57	0	588251136	50	5231
2026-01-03 01:49:02.97	272.27	11.66	-39.8	-42.5	14.9	0.00e+00	0	57	0	593494016	50	5126
2026-01-03 01:49:06.00	271.83	11.48	-39.6	-42.2	15.1	0.00e+00	0	57	0	598736896	50	4983
2026-01-03 01:49:09.03	271.40	11.30	-39.2	-41.7	15.7	0.00e+00	0	57	0	605028352	50	4667
2026-01-03 01:49:12.06	270.97	11.12	-38.8	-41.1	16.2	0.00e+00	0	57	0	610271232	49	4627
2026-01-03 01:49:15.09	270.55	10.93	-38.4	-40.5	16.7	0.00e+00	0	57	0	616562688	48	4594
2026-01-03 01:49:18.12	270.13	10.75	-38.1	-40.1	17.1	0.00e+00	0	57	0	621805568	48	4382
2026-01-03 01:49:21.14	269.72	10.57	-38.4	-40.6	16.7	0.00e+00	0	57	0	627048448	48	4611
2026-01-03 01:49:24.17	269.31	10.39	-38.6	-40.8	16.4	0.00e+00	0	57	0	633339904	48	4736
2026-01-03 01:49:27.20	268.91	10.20	-38.6	-40.8	16.4	0.00e+00	0	57	0	638582784	48	4721
2026-01-03 01:49:30.23	268.51	10.02	-38.5	-40.8	16.3	0.00e+00	0	57	0	644874240	48	4715
2026-01-03 01:49:33.26	268.12	9.84	-38.8	-41.2	15.8	0.00e+00	0	57	0	650117120	48	4957
2026-01-03 01:49:36.29	267.73	9.66	-39.2	-41.8	15.1	0.00e+00	0	57	0	656408576	48	5311
2026-01-03 01:49:39.32	267.35	9.48	-39.4	-42.2	14.6	7.00e-07	0	57	0	661651456	49	5240
2026-01-03 01:49:42.35	266.97	9.29	-39.6	-42.6	14.1	7.00e-07	0	57	0	666894336	49	5515
2026-01-03 01:49:45.38	266.60	9.11	-39.9	-43.1	13.7	3.80e-06	0	57	0	673185792	50	5489
2026-01-03 01:49:48.41	266.23	8.93	-40.2	-43.7	13.0	2.59e-05	0	57	0	678428672	50	5889
2026-01-03 01:49:51.44	265.86	8.75	-40.2	-43.9	12.6	9.46e-05	0	57	0	684720128	51	5659
2026-01-03 01:49:54.46	265.51	8.57	-40.3	-44.3	12.0	2.17e-04	0	57	0	689963008	51	5934
2026-01-03 01:49:57.49	265.15	8.39	-40.3	-44.3	12.0	3.06e-04	0	57	0	695205888	51	5943
2026-01-03 01:50:00.52	264.80	8.21	-40.3	-44.4	11.8	5.35e-04	0	57	0	701497344	51	6008
2026-01-03 01:50:03.55	264.46	8.03	-41.5	-46.1	11.0	7.12e-04	0	57	0	706740224	53	6525
2026-01-03 01:50:06.58	264.12	7.85	-44.8	-59.4	3.8	1.49e+00	0	57	104	707788800	60	20206
2026-01-03 01:50:09.61	263.78	7.67	-45.1	-59.6	3.8	1.49e+00	0	57	104	707788800	60	20738
2026-01-03 01:50:12.65	263.44	7.49	-45.1	-59.7	3.8	1.49e+00	0	57	104	707788800	60	20850
2026-01-03 01:50:15.68	263.12	7.31	-45.1	-59.6	3.8	1.49e+00	0	57	104	707788800	60	20705
2026-01-03 01:50:18.71	262.79	7.13	-45.1	-59.7	3.8	1.49e+00	0	57	104	707788800	60	20850
2026-01-03 01:50:21.74	262.47	6.95	-45.1	-59.6	3.8	1.49e+00	0	57	104	707788800	60	20704
2026-01-03 01:50:24.78	262.15	6.77	-45.0	-59.6	3.8	1.49e+00	0	57	104	707788800	60	20552
2026-01-03 01:50:27.81	261.84	6.59	-45.0	-59.5	3.8	1.49e+00	0	57	104	707788800	60	20423
2026-01-03 01:50:30.84	261.53	6.42	-45.0	-59.5	3.8	1.49e+00	0	57	104	707788800	60	20449
2026-01-03 01:50:33.88	261.23	6.24	-45.0	-59.5	3.8	1.49e+00	0	57	104	707788800	60	20492
2026-01-03 01:50:36.91	260.92	6.06	-45.0	-59.5	3.8	1.49e+00	0	57	104	707788800	60	20464
2026-01-03 01:50:39.94	260.63	5.89	-45.0	-59.5	3.8	1.49e+00	0	57	104	707788800	60	20475
2026-01-03 01:50:42.98	260.33	5.71	-45.0	-59.5	3.8	1.49e+00	0	57	104	707788800	60	20474
2026-01-03 01:50:46.01	260.04	5.54	-45.0	-59.5	3.8	1.49e+00	0	57	104	707788800	60	20410
2026-01-03 01:50:49.04	259.75	5.36	-45.0	-59.5	3.8	1.49e+00	0	57	104	707788800	60	20397
2026-01-03 01:50:52.07	259.47	5.19	-45.0	-59.5	3.8	1.49e+00	0	57	104	707788800	60	20398
2026-01-03 01:50:55.11	259.19	5.01	-45.0	-59.5	3.8	1.49e+00	0	57	104	707788800	60	20332
2026-01-03 01:50:58.14	258.91	4.84	-45.0	-59.5	3.8	1.49e+00	0	57	104	707788800	60	20347
2026-01-03 01:51:01.17	258.64	4.67	-45.0	-59.5	3.8	1.49e+00	0	57	104	707788800	60	20468
2026-01-03 01:51:04.20	258.37	4.50	-45.0	-59.5	3.8	1.49e+00	0	57	104	707788800	60	20383
2026-01-03 01:51:07.24	258.10	4.33	-45.0	-59.5	3.8	1.49e+00	0	57	104	707788800	60	20387
2026-01-03 01:51:10.27	257.84	4.15	-45.0	-59.5	3.8	1.49e+00	0	57	104	707788800	60	20394
2026-01-03 01:51:13.30	257.58	3.98	-45.0	-59.5	3.8	1.49e+00	0	57	104	707788800	60	20402
2026-01-03 01:51:16.34	257.32	3.81	-45.0	-59.5	3.8	1.49e+00	0	57	104	707788800	60	20377
2026-01-03 01:51:19.37	257.07	3.64	-45.0	-59.5	3.8	1.49e+00	0	57	104	707788800	60	20405
2026-01-03 01:51:22.41	256.82	3.48	-45.0	-59.5	3.8	1.49e+00	0	57	104	707788800	60	20358
2026-01-03 01:51:25.44	256.57	3.31	-45.0	-59.5	3.8	1.49e+00	0	57	104	707788800	60	20488
2026-01-03 01:51:28.47	256.32	3.14	-45.0	-59.5	3.8	1.49e+00	0	57	104	707788800	60	20360
2026-01-03 01:51:31.50	256.08	2.97	-45.0	-59.5	3.8	1.49e+00	0	57	104	707788800	60	20456
2026-01-03 01:51:34.54	255.84	2.81	-45.0	-59.5	3.8	1.49e+00	0	57	104	707788800	60	20330
2026-01-03 01:51:37.57	255.60	2.64	-45.0	-59.5	3.8	1.49e+00	0	57	104	707788800	60	20370
2026-01-03 01:51:40.60	255.37	2.47	-45.0	-59.5	3.8	1.49e+00	0	57	104	707788800	60	20458
2026-01-03 01:51:43.64	255.14	2.31	-45.0	-59.5	3.8	1.49e+00	0	57	104	707788800	60	20398
2026-01-03 01:51:46.67	254.91	2.14	-45.0	-59.5	3.8	1.49e+00	0	57	104	707788800	60	20320
2026-01-03 01:51:49.70	254.68	1.98	-45.0	-59.5	3.8	1.49e+00	0	57	104	707788800	60	20349

#Closed at: 2026-01-03 01:51:50
#Recorded file [707 MB]: D:/lorett/data/31039_260103_043945.dat