passes_logs/2026/01/03/R2.0S_Moscow/R2.0S_Moscow__20260103_231047_NOAA_21_JPSS-2_rec.log

#Pass ID: 20260103_231047_NOAA 21 (JPSS-2)
#Satellite: NOAA 21 (JPSS-2)
#Configuration: NOAA-21
#almurnet v.1.7.20251203
#Start time: 2026-01-03 23:10:49

#Version: 2.2.20231116
#Station: R2.0S_Moscow
#Location: 37.707566 lon 55.798166 lat
#TLE: 1 54234U 22150A   26003.45311712  .00000198  00000+0  11468-3 0  9993
#TLE: 2 54234  98.7487 304.4932 0001159 347.5017  12.6130 14.19531745163172

#Time	Az	El	Level	Level2	SNR	BER	BlckErr	Temp	State	Recorded	gain1	gain2
2026-01-03 23:10:49.81	18.54	2.13	-41.0	-53.8	3.8	1.49e+00	0	48	0	0	54	15008
2026-01-03 23:10:53.85	18.64	2.39	-41.0	-53.9	3.8	1.49e+00	0	48	104	0	53	15965
2026-01-03 23:10:57.90	18.75	2.65	-41.0	-53.8	3.8	1.49e+00	0	48	104	0	53	15927
2026-01-03 23:11:01.94	18.86	2.91	-41.0	-53.9	3.8	1.49e+00	0	49	104	0	53	15948
2026-01-03 23:11:05.99	18.97	3.17	-41.0	-53.9	3.8	1.49e+00	0	49	104	0	53	15949
2026-01-03 23:11:10.03	19.08	3.43	-41.0	-53.8	3.8	1.49e+00	0	49	104	0	53	15924
2026-01-03 23:11:14.08	19.19	3.70	-41.0	-53.8	3.8	1.49e+00	0	50	104	0	53	15935
2026-01-03 23:11:18.12	19.30	3.97	-41.0	-53.9	3.8	1.49e+00	0	50	104	0	53	15961
2026-01-03 23:11:22.17	19.42	4.24	-41.0	-53.9	3.8	1.49e+00	0	50	104	0	53	15952
2026-01-03 23:11:26.21	19.54	4.52	-41.0	-53.8	3.8	1.49e+00	0	50	104	0	53	15932
2026-01-03 23:11:30.25	19.66	4.80	-41.0	-53.9	3.8	1.49e+00	0	51	104	0	53	15948
2026-01-03 23:11:34.30	19.78	5.08	-41.0	-53.8	3.8	1.49e+00	0	51	104	0	53	15936
2026-01-03 23:11:38.34	19.90	5.36	-41.0	-53.8	3.8	1.49e+00	0	51	104	0	53	15877
2026-01-03 23:11:42.38	20.03	5.65	-41.0	-53.8	3.8	1.49e+00	0	51	104	0	53	15873
2026-01-03 23:11:46.43	20.16	5.94	-41.0	-53.8	3.8	1.49e+00	0	51	104	0	53	15910
2026-01-03 23:11:50.47	20.29	6.23	-41.0	-53.8	3.8	1.49e+00	0	52	104	0	53	15882
2026-01-03 23:11:54.52	20.42	6.53	-41.0	-53.8	3.8	1.49e+00	0	52	104	0	53	15943
2026-01-03 23:11:58.56	20.56	6.83	-41.0	-53.8	3.8	1.49e+00	0	52	104	0	53	15929
2026-01-03 23:12:02.58	20.69	7.13	-41.0	-53.7	3.8	1.49e+00	0	52	104	0	53	15640
2026-01-03 23:12:06.63	20.83	7.44	-40.9	-52.7	3.8	1.49e+00	0	52	104	0	53	13924
2026-01-03 23:12:10.67	20.97	7.75	-40.0	-46.7	6.0	3.80e-01	0	53	0	2097152	52	7457
2026-01-03 23:12:14.72	21.12	8.06	-37.8	-40.8	12.3	1.12e-03	0	53	0	14680064	47	5008
2026-01-03 23:12:18.75	21.27	8.38	-38.9	-43.2	9.8	1.42e-04	0	53	0	27262976	48	6238
2026-01-03 23:12:22.79	21.42	8.70	-38.3	-41.0	13.1	4.04e-05	0	53	0	39845888	48	4824
2026-01-03 23:12:26.83	21.57	9.02	-38.6	-41.0	13.4	2.97e-05	0	53	0	52428800	48	4869
2026-01-03 23:12:30.88	21.73	9.35	-38.4	-40.7	13.9	2.20e-06	0	53	0	65011712	48	4685
2026-01-03 23:12:34.92	21.89	9.69	-38.6	-40.9	13.7	3.00e-06	0	53	0	77594624	48	4812
2026-01-03 23:12:38.96	22.05	10.03	-38.3	-40.4	14.3	0.00e+00	0	53	0	90177536	48	4544
2026-01-03 23:12:42.99	22.22	10.37	-38.2	-40.3	14.6	0.00e+00	0	54	0	102760448	48	4479
2026-01-03 23:12:47.03	22.39	10.72	-37.9	-39.8	15.0	0.00e+00	0	54	0	115343360	47	4482
2026-01-03 23:12:51.07	22.56	11.07	-37.9	-39.8	15.1	0.00e+00	0	54	0	128974848	47	4479
2026-01-03 23:12:55.11	22.74	11.42	-37.8	-39.7	15.3	0.00e+00	0	54	0	141557760	47	4435
2026-01-03 23:12:59.15	22.92	11.79	-37.8	-39.7	15.4	0.00e+00	0	54	0	154140672	47	4401
2026-01-03 23:13:03.19	23.11	12.15	-37.8	-39.7	15.4	0.00e+00	0	54	0	166723584	47	4413
2026-01-03 23:13:07.23	23.30	12.53	-37.8	-39.6	15.5	0.00e+00	0	54	0	179306496	47	4379
2026-01-03 23:13:11.27	23.49	12.91	-37.9	-39.8	15.4	0.00e+00	0	54	0	191889408	47	4485
2026-01-03 23:13:15.31	23.69	13.29	-38.0	-39.8	15.4	0.00e+00	0	54	0	204472320	47	4472
2026-01-03 23:13:19.35	23.90	13.68	-37.7	-39.4	15.9	0.00e+00	0	54	0	217055232	47	4280
2026-01-03 23:13:23.39	24.11	14.08	-37.6	-39.3	16.0	0.00e+00	0	54	0	229638144	47	4221
2026-01-03 23:13:27.43	24.32	14.48	-37.6	-39.3	16.0	0.00e+00	0	55	0	242221056	46	4474
2026-01-03 23:13:31.46	24.54	14.89	-37.8	-39.6	15.8	0.00e+00	0	55	0	254803968	46	4610
2026-01-03 23:13:35.50	24.76	15.30	-37.7	-39.5	16.0	0.00e+00	0	55	0	267386880	46	4549
2026-01-03 23:13:39.55	25.00	15.72	-37.7	-39.4	16.0	0.00e+00	0	55	0	279969792	46	4514
2026-01-03 23:13:43.58	25.23	16.15	-37.6	-39.3	16.2	0.00e+00	0	55	0	292552704	46	4460
2026-01-03 23:13:47.62	25.48	16.59	-37.7	-39.4	16.1	0.00e+00	0	55	0	305135616	46	4537
2026-01-03 23:13:51.67	25.73	17.03	-37.6	-39.3	16.3	0.00e+00	0	55	0	317718528	46	4460
2026-01-03 23:13:55.71	25.99	17.49	-37.9	-39.6	15.9	0.00e+00	0	55	0	330301440	46	4646
2026-01-03 23:13:59.75	26.25	17.95	-37.7	-39.4	16.1	0.00e+00	0	55	0	342884352	46	4545
2026-01-03 23:14:03.79	26.52	18.41	-37.8	-39.6	16.0	0.00e+00	0	55	0	355467264	46	4603
2026-01-03 23:14:07.83	26.80	18.89	-37.7	-39.4	16.1	0.00e+00	0	55	0	368050176	46	4536
2026-01-03 23:14:11.87	27.09	19.38	-37.8	-39.6	16.0	0.00e+00	0	55	0	380633088	46	4612
2026-01-03 23:14:15.91	27.39	19.87	-37.7	-39.4	16.3	0.00e+00	0	55	0	393216000	46	4496
2026-01-03 23:14:19.95	27.70	20.37	-37.6	-39.3	16.4	0.00e+00	0	55	0	405798912	46	4448
2026-01-03 23:14:23.99	28.02	20.89	-37.2	-38.7	16.9	0.00e+00	0	55	0	418381824	46	4184
2026-01-03 23:14:28.03	28.34	21.41	-37.1	-38.6	17.1	0.00e+00	0	55	0	430964736	45	4361
2026-01-03 23:14:32.06	28.68	21.94	-36.6	-38.0	17.6	0.00e+00	0	56	0	444596224	45	4088
2026-01-03 23:14:36.10	29.03	22.49	-36.5	-37.9	17.8	0.00e+00	0	56	0	456130560	44	4256
2026-01-03 23:14:40.14	29.39	23.04	-36.2	-37.6	18.1	0.00e+00	0	56	0	469762048	44	4129
2026-01-03 23:14:44.19	29.77	23.61	-36.3	-37.7	18.0	0.00e+00	0	56	0	482344960	44	4182
2026-01-03 23:14:48.22	30.15	24.18	-36.4	-37.8	17.9	0.00e+00	0	56	0	494927872	44	4241
2026-01-03 23:14:52.26	30.56	24.77	-36.6	-38.0	17.7	0.00e+00	0	56	0	507510784	44	4325
2026-01-03 23:14:56.30	30.97	25.37	-36.8	-38.2	17.6	0.00e+00	0	56	0	520093696	44	4419
2026-01-03 23:15:00.34	31.40	25.99	-36.9	-38.4	17.4	0.00e+00	0	56	0	532676608	44	4506
2026-01-03 23:15:04.38	31.85	26.61	-37.3	-38.9	16.9	0.00e+00	0	56	0	545259520	45	4508
2026-01-03 23:15:08.42	32.32	27.25	-37.4	-38.9	16.9	0.00e+00	0	56	0	557842432	45	4540
2026-01-03 23:15:12.46	32.80	27.90	-37.6	-39.2	16.7	0.00e+00	0	56	0	570425344	45	4653
2026-01-03 23:15:16.50	33.31	28.57	-37.4	-39.0	16.8	0.00e+00	0	56	0	583008256	45	4549
2026-01-03 23:15:20.53	33.83	29.25	-37.5	-39.0	16.8	0.00e+00	0	56	0	595591168	45	4596
2026-01-03 23:15:24.57	34.38	29.94	-37.5	-39.1	16.7	0.00e+00	0	56	0	608174080	45	4622
2026-01-03 23:15:28.62	34.95	30.65	-37.2	-38.7	17.1	0.00e+00	0	56	0	620756992	45	4433
2026-01-03 23:15:32.66	35.54	31.38	-37.2	-38.8	17.1	0.00e+00	0	56	0	633339904	45	4464
2026-01-03 23:15:36.70	36.16	32.11	-37.3	-38.9	17.0	0.00e+00	0	56	0	645922816	45	4513
2026-01-03 23:15:40.74	36.82	32.87	-37.4	-39.0	16.9	0.00e+00	0	56	0	658505728	45	4551
2026-01-03 23:15:44.78	37.50	33.64	-37.8	-39.4	16.5	0.00e+00	0	56	0	671088640	46	4527
2026-01-03 23:15:48.82	38.21	34.42	-38.7	-40.5	15.4	0.00e+00	0	56	0	683671552	47	4859
2026-01-03 23:15:52.85	38.96	35.22	-39.1	-41.0	15.1	0.00e+00	0	56	0	696254464	48	4833
2026-01-03 23:15:56.89	39.74	36.03	-39.0	-41.0	15.1	0.00e+00	0	56	0	708837376	48	4827
2026-01-03 23:16:00.93	40.57	36.86	-38.9	-40.8	15.3	0.00e+00	0	56	0	721420288	48	4742
2026-01-03 23:16:04.97	41.43	37.70	-38.8	-40.6	15.4	0.00e+00	0	56	0	734003200	48	4637
2026-01-03 23:16:09.01	42.35	38.56	-38.5	-40.3	15.8	0.00e+00	0	56	0	747634688	48	4456
2026-01-03 23:16:13.05	43.31	39.43	-39.2	-41.2	14.9	0.00e+00	0	57	0	759169024	49	4660
2026-01-03 23:16:17.09	44.32	40.32	-39.1	-41.1	15.0	0.00e+00	0	56	0	771751936	49	4623
2026-01-03 23:16:21.13	45.39	41.21	-39.5	-41.6	14.5	1.50e-06	0	56	0	785383424	49	4873
2026-01-03 23:16:25.17	46.53	42.12	-39.6	-41.7	14.4	7.00e-07	0	56	0	797966336	49	4957
2026-01-03 23:16:29.21	47.72	43.04	-39.8	-42.0	14.1	3.00e-06	0	56	0	810549248	50	4840
2026-01-03 23:16:33.26	48.99	43.97	-39.9	-42.1	14.0	3.00e-06	0	57	0	823132160	50	4877
2026-01-03 23:16:37.30	50.33	44.90	-39.5	-41.6	14.5	7.00e-07	0	57	0	835715072	50	4619
2026-01-03 23:16:41.34	51.76	45.84	-39.2	-41.1	15.0	7.00e-07	0	57	0	848297984	50	4361
2026-01-03 23:16:45.38	53.26	46.78	-39.3	-41.3	14.8	0.00e+00	0	57	0	860880896	49	4737
2026-01-03 23:16:49.41	54.86	47.71	-39.3	-41.2	14.9	0.00e+00	0	57	0	873463808	49	4693
2026-01-03 23:16:53.45	56.56	48.64	-39.0	-40.9	15.2	0.00e+00	0	57	0	886046720	49	4508
2026-01-03 23:16:57.49	58.36	49.57	-38.3	-40.0	16.2	0.00e+00	0	57	0	898629632	48	4293
2026-01-03 23:17:01.53	60.28	50.48	-38.7	-40.4	15.7	0.00e+00	0	57	0	911212544	48	4542
2026-01-03 23:17:05.57	62.31	51.38	-39.1	-41.0	15.1	0.00e+00	0	57	0	923795456	48	4843
2026-01-03 23:17:09.61	64.46	52.25	-38.8	-40.6	15.6	0.00e+00	0	57	0	936378368	48	4600
2026-01-03 23:17:13.65	66.74	53.09	-38.3	-39.9	16.2	0.00e+00	0	57	0	948961280	48	4272
2026-01-03 23:17:17.69	69.16	53.90	-38.3	-40.0	16.0	0.00e+00	0	57	0	961544192	47	4556
2026-01-03 23:17:21.73	71.71	54.67	-38.0	-39.7	16.3	0.00e+00	0	57	0	974127104	47	4425
2026-01-03 23:17:25.77	74.39	55.39	-37.8	-39.4	16.6	0.00e+00	0	57	0	986710016	47	4289
2026-01-03 23:17:29.80	77.21	56.06	-37.4	-38.9	17.1	0.00e+00	0	57	0	999292928	46	4269
2026-01-03 23:17:33.84	80.16	56.66	-36.8	-38.2	17.8	0.00e+00	0	57	0	1011875840	45	4165
2026-01-03 23:17:37.87	83.23	57.19	-36.6	-38.0	18.0	0.00e+00	0	57	0	1024458752	45	4056
2026-01-03 23:17:41.91	86.41	57.65	-36.7	-38.1	18.0	0.00e+00	0	57	0	1037041664	44	4343
2026-01-03 23:17:45.95	89.70	58.03	-37.1	-38.6	17.4	0.00e+00	0	57	0	1049624576	45	4376
2026-01-03 23:17:49.99	93.07	58.31	-36.9	-38.4	17.6	0.00e+00	0	57	0	1062207488	45	4257
2026-01-03 23:17:54.03	96.51	58.51	-36.6	-37.9	18.0	0.00e+00	0	57	0	1074790400	45	4045
2026-01-03 23:17:58.07	99.98	58.61	-36.9	-38.3	17.5	0.00e+00	0	57	0	1088421888	45	4229
2026-01-03 23:18:02.11	103.46	58.62	-36.7	-38.1	17.8	0.00e+00	0	57	0	1101004800	45	4115
2026-01-03 23:18:06.15	106.94	58.52	-37.4	-39.0	16.8	0.00e+00	0	57	0	1112539136	45	4546
2026-01-03 23:18:10.18	110.37	58.34	-37.1	-38.5	17.3	0.00e+00	0	57	0	1126170624	45	4330
2026-01-03 23:18:14.22	113.75	58.06	-37.4	-38.9	17.0	0.00e+00	0	57	0	1138753536	45	4514
2026-01-03 23:18:18.26	117.05	57.69	-37.2	-38.8	17.1	0.00e+00	0	57	0	1151336448	45	4442
2026-01-03 23:18:22.31	120.26	57.24	-37.1	-38.6	17.4	0.00e+00	0	57	0	1163919360	45	4357
2026-01-03 23:18:26.35	123.35	56.71	-37.8	-39.4	16.5	0.00e+00	0	57	0	1176502272	46	4512
2026-01-03 23:18:30.39	126.31	56.11	-37.6	-39.2	16.8	0.00e+00	0	57	0	1189085184	46	4428
2026-01-03 23:18:34.42	129.14	55.45	-37.7	-39.4	16.7	0.00e+00	0	57	0	1201668096	47	4246
2026-01-03 23:18:38.46	131.85	54.73	-38.5	-40.3	15.6	0.00e+00	0	57	0	1214251008	47	4720
2026-01-03 23:18:42.50	134.41	53.96	-38.1	-39.8	16.2	0.00e+00	0	57	0	1226833920	47	4457
2026-01-03 23:18:46.54	136.84	53.15	-38.1	-39.7	16.3	0.00e+00	0	57	0	1239416832	47	4412
2026-01-03 23:18:50.58	139.14	52.31	-38.3	-40.0	16.1	0.00e+00	0	57	0	1251999744	48	4316
2026-01-03 23:18:54.62	141.31	51.44	-38.1	-39.8	16.3	0.00e+00	0	57	0	1264582656	48	4206
2026-01-03 23:18:58.66	143.36	50.54	-38.7	-40.5	15.6	0.00e+00	0	57	0	1277165568	48	4550
2026-01-03 23:19:02.70	145.28	49.62	-38.8	-40.6	15.5	0.00e+00	0	57	0	1289748480	48	4635
2026-01-03 23:19:06.74	147.10	48.70	-40.0	-42.4	13.8	4.50e-06	0	57	0	1302331392	50	5042
2026-01-03 23:19:10.78	148.81	47.76	-39.5	-41.6	14.5	2.20e-06	0	57	0	1314914304	51	4355
2026-01-03 23:19:14.82	150.42	46.82	-39.6	-41.8	14.2	1.50e-06	0	57	0	1327497216	50	4724
2026-01-03 23:19:18.86	151.94	45.88	-39.5	-41.6	14.5	1.50e-06	0	57	0	1340080128	50	4609
2026-01-03 23:19:22.89	153.37	44.94	-39.3	-41.4	14.8	0.00e+00	0	57	0	1352663040	49	4761
2026-01-03 23:19:26.94	154.72	44.00	-40.1	-42.5	13.7	2.20e-06	0	57	0	1365245952	50	5101
2026-01-03 23:19:30.98	156.00	43.07	-39.6	-41.7	14.4	1.50e-06	0	57	0	1377828864	50	4678
2026-01-03 23:19:35.02	157.20	42.14	-38.9	-40.8	15.3	0.00e+00	0	57	0	1390411776	49	4450
2026-01-03 23:19:39.06	158.34	41.23	-40.0	-42.3	13.8	9.10e-06	0	57	0	1404043264	50	5017
2026-01-03 23:19:43.10	159.42	40.33	-38.9	-40.8	15.3	0.00e+00	0	57	0	1415577600	49	4450
2026-01-03 23:19:47.13	160.43	39.44	-39.5	-41.6	14.5	0.00e+00	0	57	0	1428160512	49	4874
2026-01-03 23:19:51.18	161.40	38.56	-39.5	-41.6	14.5	0.00e+00	0	57	0	1441792000	49	4903
2026-01-03 23:19:55.21	162.32	37.70	-38.8	-40.7	15.4	0.00e+00	0	57	0	1454374912	49	4423
2026-01-03 23:19:59.25	163.19	36.85	-38.3	-40.0	16.1	0.00e+00	0	57	0	1466957824	48	4309
2026-01-03 23:20:03.29	164.02	36.01	-39.2	-41.2	14.9	0.00e+00	0	57	0	1479540736	49	4668
2026-01-03 23:20:07.33	164.81	35.19	-38.3	-40.0	16.0	0.00e+00	0	57	0	1492123648	48	4332
2026-01-03 23:20:11.36	165.56	34.39	-38.3	-40.1	15.8	0.00e+00	0	57	0	1504706560	47	4636
2026-01-03 23:20:15.40	166.27	33.60	-38.7	-40.6	15.4	0.00e+00	0	57	0	1517289472	48	4620
2026-01-03 23:20:19.44	166.96	32.83	-38.1	-39.8	16.2	0.00e+00	0	57	0	1529872384	48	4198
2026-01-03 23:20:23.48	167.61	32.07	-37.7	-39.3	16.6	0.00e+00	0	57	0	1542455296	47	4215
2026-01-03 23:20:27.52	168.23	31.33	-37.3	-38.8	17.1	0.00e+00	0	57	0	1555038208	46	4219
2026-01-03 23:20:31.56	168.83	30.60	-37.3	-38.8	17.1	0.00e+00	0	57	0	1567621120	46	4227
2026-01-03 23:20:35.60	169.40	29.89	-37.6	-39.3	16.6	0.00e+00	0	57	0	1580204032	46	4449
2026-01-03 23:20:39.65	169.95	29.19	-37.8	-39.5	16.4	0.00e+00	0	58	0	1592786944	46	4555
2026-01-03 23:20:43.69	170.47	28.50	-37.7	-39.4	16.5	0.00e+00	0	58	0	1605369856	46	4514
2026-01-03 23:20:47.73	170.98	27.83	-37.0	-38.6	17.3	0.00e+00	0	57	0	1617952768	46	4099
2026-01-03 23:20:51.77	171.46	27.17	-37.0	-38.6	17.2	0.00e+00	0	58	0	1630535680	45	4342
2026-01-03 23:20:55.81	171.93	26.53	-36.9	-38.4	17.4	0.00e+00	0	57	0	1643118592	45	4247
2026-01-03 23:20:59.85	172.38	25.90	-36.6	-38.1	17.7	0.00e+00	0	57	0	1655701504	45	4104
2026-01-03 23:21:03.89	172.81	25.28	-37.0	-38.5	17.3	0.00e+00	0	57	0	1668284416	45	4299
2026-01-03 23:21:07.93	173.22	24.68	-37.2	-38.7	17.1	0.00e+00	0	57	0	1680867328	45	4411
2026-01-03 23:21:11.97	173.63	24.09	-37.4	-39.0	16.8	0.00e+00	0	57	0	1693450240	45	4569
2026-01-03 23:21:16.01	174.01	23.51	-37.5	-39.1	16.6	0.00e+00	0	58	0	1706033152	45	4645
2026-01-03 23:21:20.05	174.38	22.94	-37.6	-39.2	16.5	0.00e+00	0	57	0	1718616064	45	4701
2026-01-03 23:21:24.09	174.75	22.38	-37.4	-39.0	16.7	0.00e+00	0	57	0	1731198976	45	4582
2026-01-03 23:21:28.13	175.09	21.83	-37.1	-38.6	17.1	0.00e+00	0	57	0	1743781888	45	4361
2026-01-03 23:21:32.17	175.43	21.30	-36.9	-38.4	17.3	0.00e+00	0	57	0	1757413376	45	4253
2026-01-03 23:21:36.21	175.76	20.77	-37.0	-38.5	17.1	0.00e+00	0	58	0	1768947712	45	4335
2026-01-03 23:21:40.24	176.07	20.25	-37.4	-39.0	16.6	0.00e+00	0	57	0	1782579200	45	4583
2026-01-03 23:21:44.28	176.38	19.75	-37.4	-39.1	16.5	0.00e+00	0	58	0	1795162112	45	4622
2026-01-03 23:21:48.32	176.67	19.25	-37.4	-39.0	16.6	0.00e+00	0	57	0	1807745024	45	4565
2026-01-03 23:21:52.36	176.96	18.76	-37.3	-38.9	16.7	0.00e+00	0	57	0	1820327936	45	4507
2026-01-03 23:21:56.40	177.24	18.28	-37.5	-39.1	16.5	0.00e+00	0	58	0	1832910848	45	4639
2026-01-03 23:22:00.44	177.51	17.81	-37.7	-39.4	16.3	0.00e+00	0	57	0	1845493760	45	4761
2026-01-03 23:22:04.48	177.77	17.35	-37.8	-39.6	16.1	0.00e+00	0	58	0	1858076672	46	4603
2026-01-03 23:22:08.52	178.03	16.90	-37.7	-39.4	16.2	0.00e+00	0	58	0	1870659584	46	4542
2026-01-03 23:22:12.57	178.28	16.45	-38.0	-39.7	15.9	0.00e+00	0	58	0	1883242496	46	4701
2026-01-03 23:22:16.61	178.52	16.01	-37.9	-39.7	15.9	0.00e+00	0	57	0	1895825408	46	4690
2026-01-03 23:22:20.65	178.75	15.58	-37.9	-39.7	15.9	0.00e+00	0	57	0	1908408320	46	4672
2026-01-03 23:22:24.68	178.98	15.15	-38.0	-39.8	15.8	0.00e+00	0	57	0	1920991232	46	4721
2026-01-03 23:22:28.72	179.20	14.74	-37.9	-39.6	15.9	0.00e+00	0	57	0	1933574144	46	4631
2026-01-03 23:22:32.76	179.42	14.32	-37.9	-39.7	15.8	0.00e+00	0	58	0	1946157056	46	4682
2026-01-03 23:22:36.80	179.63	13.92	-38.1	-39.9	15.6	0.00e+00	0	57	0	1958739968	46	4771
2026-01-03 23:22:40.84	179.84	13.52	-38.1	-40.0	15.5	0.00e+00	0	58	0	1971322880	46	4827
2026-01-03 23:22:44.87	180.04	13.13	-38.1	-40.0	15.5	0.00e+00	0	58	0	1983905792	46	4818
2026-01-03 23:22:48.91	180.24	12.75	-38.0	-39.9	15.5	0.00e+00	0	57	0	1996488704	46	4772
2026-01-03 23:22:52.95	180.43	12.36	-37.9	-39.7	15.7	0.00e+00	0	57	0	2009071616	46	4672
2026-01-03 23:22:57.00	180.61	11.99	-37.9	-39.7	15.7	0.00e+00	0	58	0	2021654528	46	4701
2026-01-03 23:23:01.03	180.80	11.62	-38.2	-40.1	15.3	0.00e+00	0	58	0	2034237440	46	4898
2026-01-03 23:23:05.07	180.97	11.26	-38.4	-40.3	15.1	0.00e+00	0	57	0	2046820352	47	4729
2026-01-03 23:23:09.11	181.15	10.90	-38.4	-40.4	14.9	0.00e+00	0	57	0	2059403264	47	4786
2026-01-03 23:23:13.15	181.32	10.54	-38.1	-40.0	15.3	0.00e+00	0	58	0	2071986176	47	4580
2026-01-03 23:23:17.19	181.49	10.20	-38.3	-40.3	15.1	0.00e+00	0	57	0	2084569088	47	4715
2026-01-03 23:23:21.24	181.65	9.85	-38.8	-40.9	14.6	0.00e+00	0	58	0	2098200576	48	4767
2026-01-03 23:23:25.27	181.81	9.51	-38.9	-40.9	14.4	0.00e+00	0	57	0	2110783488	48	4811
2026-01-03 23:23:29.31	181.96	9.18	-38.9	-41.1	14.2	7.00e-07	0	58	0	2123366400	48	4891
2026-01-03 23:23:33.35	182.12	8.84	-39.0	-41.2	14.1	1.50e-06	0	57	0	2135949312	48	4960
2026-01-03 23:23:37.39	182.27	8.52	-39.1	-41.3	14.0	2.20e-06	0	58	0	2148532224	48	5006
2026-01-03 23:23:41.43	182.41	8.19	-39.1	-41.4	13.9	6.10e-06	0	57	0	2161115136	49	4767
2026-01-03 23:23:45.48	182.56	7.87	-44.7	-57.2	3.8	1.49e+00	0	58	104	2168455168	60	15657
2026-01-03 23:23:49.52	182.70	7.56	-45.1	-57.6	3.8	1.49e+00	0	58	104	2168455168	60	16355
2026-01-03 23:23:53.56	182.84	7.25	-45.2	-57.7	3.8	1.49e+00	0	57	104	2168455168	60	16656
2026-01-03 23:23:57.60	182.97	6.94	-45.1	-57.7	3.8	1.49e+00	0	58	104	2168455168	60	16603
2026-01-03 23:24:01.64	183.11	6.64	-45.0	-57.6	3.8	1.49e+00	0	58	104	2168455168	60	16485
2026-01-03 23:24:05.69	183.24	6.33	-45.1	-57.6	3.8	1.49e+00	0	58	104	2168455168	60	16489
2026-01-03 23:24:09.73	183.36	6.04	-45.0	-57.6	3.8	1.49e+00	0	58	104	2168455168	60	16458
2026-01-03 23:24:13.77	183.49	5.74	-45.0	-57.6	3.8	1.49e+00	0	58	104	2168455168	60	16434
2026-01-03 23:24:17.82	183.61	5.45	-45.0	-57.6	3.8	1.49e+00	0	58	104	2168455168	60	16430
2026-01-03 23:24:21.86	183.73	5.16	-45.0	-57.6	3.8	1.49e+00	0	58	104	2168455168	60	16436
2026-01-03 23:24:25.91	183.85	4.88	-45.0	-57.6	3.8	1.49e+00	0	58	104	2168455168	60	16432
2026-01-03 23:24:29.95	183.97	4.60	-45.0	-57.6	3.8	1.49e+00	0	58	104	2168455168	60	16413
2026-01-03 23:24:34.00	184.09	4.32	-45.0	-57.6	3.8	1.49e+00	0	58	104	2168455168	60	16406
2026-01-03 23:24:38.04	184.20	4.04	-45.0	-57.6	3.8	1.49e+00	0	58	104	2168455168	60	16390
2026-01-03 23:24:42.08	184.31	3.77	-45.0	-57.6	3.8	1.49e+00	0	58	104	2168455168	60	16358
2026-01-03 23:24:46.12	184.42	3.50	-45.0	-57.6	3.8	1.49e+00	0	58	104	2168455168	60	16390
2026-01-03 23:24:50.17	184.53	3.23	-45.0	-57.6	3.8	1.49e+00	0	58	104	2168455168	60	16346
2026-01-03 23:24:54.21	184.63	2.96	-45.0	-57.6	3.8	1.49e+00	0	58	104	2168455168	60	16335
2026-01-03 23:24:58.26	184.74	2.70	-45.0	-57.6	3.8	1.49e+00	0	58	104	2168455168	60	16416
2026-01-03 23:25:02.30	184.84	2.44	-45.0	-57.6	3.8	1.49e+00	0	58	104	2168455168	60	16370
2026-01-03 23:25:06.35	184.94	2.18	-45.0	-57.6	3.8	1.49e+00	0	58	104	2168455168	60	16338

#Closed at: 2026-01-03 23:25:10
#Recorded file [2168 MB]: D:/lorett/data/31039_260104_021049.dat