passes_logs/2026/01/03/R2.0S_Moscow/R2.0S_Moscow__20260103_042745_FENGYUN_3E_rec.log

#Pass ID: 20260103_042745_FENGYUN 3E
#Satellite: FENGYUN 3E
#Configuration: FENGYUN 3E
#almurnet v.1.7.20251203
#Start time: 2026-01-03 04:27:47

#Version: 2.2.20231116
#Station: R2.0S_Moscow
#Location: 37.707566 lon 55.798166 lat
#TLE: 1 49008U 21062A   26002.32147302  .00000239  00000+0  13357-3 0  9999
#TLE: 2 49008  98.7477   7.5995 0001398 164.3382 195.7838 14.19884140233041

#Time	Az	El	Level	Level2	SNR	BER	BlckErr	Temp	State	Recorded	gain1	gain2
2026-01-03 04:27:47.62	13.98	2.13	-44.0	-55.1	3.8	8.47e-01	0	48	0	0	58	13035
2026-01-03 04:27:51.65	13.90	2.39	-44.0	-55.1	3.8	8.46e-01	0	48	104	0	59	12271
2026-01-03 04:27:55.70	13.82	2.65	-44.0	-55.1	3.8	8.47e-01	0	49	104	0	59	12245
2026-01-03 04:27:59.74	13.74	2.91	-44.0	-55.1	3.8	8.45e-01	0	49	104	0	59	12261
2026-01-03 04:28:03.78	13.66	3.17	-44.0	-55.0	3.8	8.47e-01	0	49	104	0	59	12217
2026-01-03 04:28:07.83	13.58	3.44	-44.0	-55.0	3.8	8.46e-01	0	49	104	0	59	12200
2026-01-03 04:28:11.87	13.49	3.71	-44.0	-55.0	3.8	8.45e-01	0	50	104	0	59	12167
2026-01-03 04:28:15.92	13.41	3.98	-44.0	-55.0	3.8	8.46e-01	0	50	104	0	59	12124
2026-01-03 04:28:19.96	13.32	4.26	-44.0	-55.0	3.8	8.45e-01	0	50	104	0	59	12204
2026-01-03 04:28:24.01	13.23	4.54	-44.0	-55.0	3.8	8.46e-01	0	51	104	0	59	12114
2026-01-03 04:28:28.05	13.13	4.82	-44.0	-54.9	3.8	8.45e-01	0	51	104	0	59	12008
2026-01-03 04:28:32.10	13.04	5.10	-44.0	-54.8	3.8	8.46e-01	0	51	104	0	59	11849
2026-01-03 04:28:36.14	12.94	5.39	-43.9	-54.2	3.8	8.47e-01	0	51	104	0	58	11809
2026-01-03 04:28:40.18	12.84	5.67	-43.9	-53.8	3.8	8.45e-01	0	51	104	0	58	11193
2026-01-03 04:28:44.23	12.74	5.97	-43.9	-54.3	3.8	8.47e-01	0	51	104	0	58	11944
2026-01-03 04:28:48.27	12.64	6.26	-43.6	-51.8	4.2	8.41e-01	0	52	0	0	58	8893
2026-01-03 04:28:52.31	12.53	6.56	-41.8	-46.0	7.7	1.12e-01	0	52	0	11534336	54	5723
2026-01-03 04:28:56.36	12.42	6.87	-39.2	-41.4	12.4	2.23e-04	0	52	0	40894464	49	4544
2026-01-03 04:29:00.41	12.31	7.17	-36.9	-38.5	15.3	0.00e+00	0	52	0	70254592	44	4303
2026-01-03 04:29:04.45	12.19	7.48	-35.3	-36.6	17.1	0.00e+00	0	53	0	99614720	41	4101
2026-01-03 04:29:08.49	12.07	7.79	-35.4	-36.7	16.9	0.00e+00	0	53	0	128974848	41	4151
2026-01-03 04:29:12.54	11.95	8.11	-36.1	-37.6	15.8	0.00e+00	0	53	0	158334976	42	4348
2026-01-03 04:29:16.58	11.83	8.43	-38.3	-40.2	13.8	0.00e+00	0	53	0	187695104	45	4964
2026-01-03 04:29:20.62	11.70	8.76	-35.7	-37.1	16.1	0.00e+00	0	53	0	209715200	41	4377
2026-01-03 04:29:24.66	11.57	9.09	-36.0	-37.6	15.4	0.00e+00	0	54	0	239075328	41	4618
2026-01-03 04:29:28.70	11.44	9.42	-36.0	-37.6	15.4	0.00e+00	0	54	0	268435456	41	4614
2026-01-03 04:29:32.74	11.30	9.76	-36.2	-37.8	15.2	0.00e+00	0	54	0	297795584	41	4719
2026-01-03 04:29:36.78	11.16	10.10	-36.3	-38.0	14.8	0.00e+00	0	54	0	327155712	42	4567
2026-01-03 04:29:40.81	11.02	10.44	-37.4	-39.5	13.0	2.51e-05	0	54	0	355467264	44	4834
2026-01-03 04:29:44.85	10.87	10.80	-37.5	-39.6	12.8	5.14e-05	0	54	0	384827392	44	4924
2026-01-03 04:29:48.89	10.72	11.15	-37.0	-38.8	14.4	1.10e-06	0	54	0	414187520	44	4464
2026-01-03 04:29:52.94	10.56	11.51	-36.1	-37.6	15.7	0.00e+00	0	54	0	443547648	43	4118
2026-01-03 04:29:56.98	10.40	11.88	-34.7	-35.9	17.9	0.00e+00	0	54	0	472907776	40	4028
2026-01-03 04:30:01.02	10.24	12.25	-34.0	-35.1	19.0	0.00e+00	0	54	0	501219328	39	3892
2026-01-03 04:30:05.06	10.07	12.63	-34.3	-35.4	18.9	0.00e+00	0	55	0	530579456	39	4023
2026-01-03 04:30:09.10	9.89	13.01	-34.0	-35.1	19.2	0.00e+00	0	55	0	559939584	39	3907
2026-01-03 04:30:13.14	9.71	13.40	-34.3	-35.4	19.0	0.00e+00	0	54	0	589299712	39	4034
2026-01-03 04:30:17.18	9.53	13.80	-34.0	-35.1	19.3	0.00e+00	0	55	0	618659840	38	4099
2026-01-03 04:30:21.22	9.34	14.20	-33.9	-35.0	19.4	0.00e+00	0	55	0	646971392	38	4071
2026-01-03 04:30:25.26	9.14	14.60	-33.8	-34.9	19.6	0.00e+00	0	55	0	676331520	38	4009
2026-01-03 04:30:29.30	8.94	15.02	-33.8	-34.9	19.7	0.00e+00	0	55	0	705691648	38	4025
2026-01-03 04:30:33.34	8.73	15.44	-33.7	-34.7	19.9	0.00e+00	0	55	0	735051776	38	3932
2026-01-03 04:30:37.38	8.52	15.87	-33.8	-34.8	19.8	0.00e+00	0	55	0	764411904	38	3990
2026-01-03 04:30:41.42	8.30	16.30	-33.8	-34.9	19.8	0.00e+00	0	55	0	793772032	38	4009
2026-01-03 04:30:45.46	8.07	16.74	-33.6	-34.7	20.0	0.00e+00	0	55	0	822083584	38	3925
2026-01-03 04:30:49.50	7.83	17.19	-33.3	-34.3	20.3	0.00e+00	0	55	0	851443712	37	3998
2026-01-03 04:30:53.55	7.59	17.65	-33.1	-34.1	20.5	0.00e+00	0	55	0	880803840	37	3895
2026-01-03 04:30:57.59	7.34	18.12	-33.0	-34.0	20.7	0.00e+00	0	56	0	910163968	36	4057
2026-01-03 04:31:01.63	7.08	18.59	-33.1	-34.1	20.7	0.00e+00	0	56	0	939524096	36	4103
2026-01-03 04:31:05.67	6.81	19.07	-33.0	-34.0	20.7	0.00e+00	0	56	0	967835648	36	4078
2026-01-03 04:31:09.71	6.53	19.57	-33.0	-34.0	20.7	0.00e+00	0	56	0	997195776	36	4093
2026-01-03 04:31:13.75	6.24	20.07	-33.1	-34.1	20.7	0.00e+00	0	55	0	1026555904	36	4118
2026-01-03 04:31:17.79	5.95	20.58	-33.1	-34.1	20.7	0.00e+00	0	56	0	1055916032	36	4131
2026-01-03 04:31:21.83	5.64	21.10	-33.1	-34.0	20.7	0.00e+00	0	56	0	1085276160	36	4093
2026-01-03 04:31:25.87	5.32	21.63	-32.7	-33.7	21.1	0.00e+00	0	56	0	1114636288	36	3934
2026-01-03 04:31:29.91	4.99	22.17	-31.8	-32.8	21.2	0.00e+00	0	56	0	1142947840	34	3960
2026-01-03 04:31:33.95	4.65	22.72	-31.7	-32.6	21.3	0.00e+00	0	56	0	1172307968	34	3890
2026-01-03 04:31:37.99	4.29	23.28	-31.6	-32.6	21.4	0.00e+00	0	56	0	1201668096	34	3870
2026-01-03 04:31:42.03	3.92	23.86	-31.4	-32.3	21.6	0.00e+00	0	56	0	1231028224	33	3992
2026-01-03 04:31:46.06	3.54	24.44	-31.4	-32.4	21.6	0.00e+00	0	56	0	1259339776	33	4011
2026-01-03 04:31:50.10	3.14	25.04	-31.5	-32.4	21.5	0.00e+00	0	56	0	1288699904	33	4043
2026-01-03 04:31:54.14	2.72	25.64	-31.2	-32.1	21.8	0.00e+00	0	56	0	1318060032	33	3887
2026-01-03 04:31:58.18	2.29	26.27	-31.4	-32.3	21.7	0.00e+00	0	56	0	1347420160	33	3972
2026-01-03 04:32:02.22	1.84	26.90	-31.3	-32.3	21.7	0.00e+00	0	56	0	1376780288	33	3962
2026-01-03 04:32:06.26	1.37	27.55	-31.4	-32.3	21.7	0.00e+00	0	56	0	1405091840	33	3976
2026-01-03 04:32:10.30	0.87	28.21	-31.4	-32.4	21.6	0.00e+00	0	56	0	1434451968	33	4006
2026-01-03 04:32:14.33	0.36	28.88	-31.3	-32.2	21.8	0.00e+00	0	56	0	1463812096	33	3951
2026-01-03 04:32:18.37	359.83	29.57	-31.3	-32.2	21.8	0.00e+00	0	56	0	1493172224	33	3931
2026-01-03 04:32:22.41	359.27	30.27	-30.9	-31.8	22.2	0.00e+00	0	56	0	1522532352	32	3986
2026-01-03 04:32:26.45	358.69	30.99	-30.8	-31.7	22.3	0.00e+00	0	56	0	1551892480	32	3914
2026-01-03 04:32:30.49	358.07	31.72	-30.8	-31.6	22.4	0.00e+00	0	56	0	1580204032	32	3905
2026-01-03 04:32:34.53	357.43	32.46	-31.1	-32.0	22.1	0.00e+00	0	56	0	1609564160	32	4063
2026-01-03 04:32:38.56	356.76	33.22	-31.0	-31.9	22.1	0.00e+00	0	56	0	1638924288	32	4034
2026-01-03 04:32:42.60	356.06	34.00	-31.1	-32.0	22.1	0.00e+00	0	56	0	1668284416	32	4056
2026-01-03 04:32:46.64	355.32	34.79	-31.3	-32.2	21.9	0.00e+00	0	57	0	1697644544	32	4160
2026-01-03 04:32:50.68	354.54	35.59	-31.3	-32.2	21.9	0.00e+00	0	57	0	1727004672	32	4161
2026-01-03 04:32:54.73	353.72	36.41	-31.0	-31.9	22.2	0.00e+00	0	57	0	1755316224	32	4012
2026-01-03 04:32:58.77	352.85	37.24	-30.8	-31.7	22.4	0.00e+00	0	57	0	1784676352	32	3939
2026-01-03 04:33:02.80	351.95	38.08	-31.1	-32.0	22.1	0.00e+00	0	57	0	1814036480	32	4084
2026-01-03 04:33:06.84	350.99	38.94	-31.1	-32.0	22.1	0.00e+00	0	57	0	1843396608	32	4089
2026-01-03 04:33:10.88	349.98	39.81	-31.2	-32.1	22.0	0.00e+00	0	57	0	1872756736	32	4135
2026-01-03 04:33:14.92	348.91	40.70	-31.7	-32.6	21.5	0.00e+00	0	57	0	1901068288	33	4142
2026-01-03 04:33:18.95	347.78	41.59	-31.7	-32.6	21.5	0.00e+00	0	57	0	1930428416	34	3909
2026-01-03 04:33:22.99	346.59	42.49	-31.0	-31.9	22.3	0.00e+00	0	57	0	1959788544	32	4034
2026-01-03 04:33:27.03	345.33	43.39	-30.7	-31.6	22.6	0.00e+00	0	57	0	1989148672	32	3874
2026-01-03 04:33:31.07	343.99	44.31	-31.6	-32.5	21.7	0.00e+00	0	57	0	2018508800	32	4315
2026-01-03 04:33:35.12	342.57	45.22	-31.8	-32.7	21.5	0.00e+00	0	57	0	2046820352	34	3947
2026-01-03 04:33:39.16	341.06	46.14	-31.4	-32.3	22.0	0.00e+00	0	57	0	2076180480	32	4199
2026-01-03 04:33:43.20	339.47	47.05	-32.0	-32.9	21.4	0.00e+00	0	57	0	2105540608	33	4271
2026-01-03 04:33:47.25	337.77	47.96	-32.6	-33.6	20.7	0.00e+00	0	57	0	2134900736	34	4350
2026-01-03 04:33:51.28	335.98	48.86	-32.0	-32.9	21.3	0.00e+00	0	57	0	2164260864	34	4019
2026-01-03 04:33:55.32	334.08	49.74	-32.4	-33.4	20.9	0.00e+00	0	57	0	2193620992	34	4245
2026-01-03 04:33:59.36	332.07	50.60	-31.9	-32.8	21.4	0.00e+00	0	57	0	2221932544	34	3993
2026-01-03 04:34:03.40	329.93	51.44	-32.7	-33.6	20.7	0.00e+00	0	57	0	2251292672	35	4140
2026-01-03 04:34:07.43	327.69	52.25	-32.6	-33.6	20.7	0.00e+00	0	57	0	2280652800	35	4129
2026-01-03 04:34:11.47	325.31	53.03	-32.7	-33.6	20.6	0.00e+00	0	57	0	2310012928	35	4145
2026-01-03 04:34:15.51	322.80	53.76	-32.2	-33.2	21.1	0.00e+00	0	57	0	2338324480	35	3917
2026-01-03 04:34:19.55	320.17	54.45	-32.4	-33.3	21.0	0.00e+00	0	57	0	2367684608	35	3981
2026-01-03 04:34:23.60	317.40	55.08	-32.4	-33.4	20.9	0.00e+00	0	57	0	2397044736	35	4010
2026-01-03 04:34:27.64	314.52	55.64	-32.3	-33.3	21.0	0.00e+00	0	57	0	2426404864	34	4222
2026-01-03 04:34:31.68	311.53	56.14	-33.2	-34.2	20.1	0.00e+00	0	57	0	2455764992	35	4405
2026-01-03 04:34:35.72	308.44	56.56	-32.7	-33.6	21.3	0.00e+00	0	57	0	2485125120	36	3906
2026-01-03 04:34:39.76	305.26	56.91	-32.6	-33.5	19.9	0.00e+00	0	57	0	2513436672	34	4337
2026-01-03 04:34:43.80	302.01	57.17	-32.2	-33.2	21.1	0.00e+00	0	57	0	2542796800	34	4154
2026-01-03 04:34:47.84	298.71	57.33	-32.8	-33.8	20.4	0.00e+00	0	57	0	2572156928	35	4227
2026-01-03 04:34:51.88	295.38	57.41	-32.2	-33.1	21.0	0.00e+00	0	57	0	2601517056	35	3891
2026-01-03 04:34:55.92	292.04	57.40	-32.8	-33.8	20.4	0.00e+00	0	57	0	2630877184	35	4236
2026-01-03 04:34:59.96	288.71	57.29	-32.1	-33.1	21.1	0.00e+00	0	57	0	2659188736	35	3878
2026-01-03 04:35:04.00	285.42	57.09	-32.7	-33.7	20.6	0.00e+00	0	57	0	2688548864	35	4153
2026-01-03 04:35:08.04	282.19	56.80	-31.8	-32.7	21.5	0.00e+00	0	57	0	2717908992	34	3949
2026-01-03 04:35:12.08	279.04	56.43	-32.2	-33.1	21.1	0.00e+00	0	57	0	2747269120	34	4136
2026-01-03 04:35:16.13	275.97	55.98	-32.4	-33.4	20.9	0.00e+00	0	57	0	2776629248	34	4245
2026-01-03 04:35:20.17	273.01	55.46	-32.5	-33.4	20.8	0.00e+00	0	57	0	2804940800	35	4041
2026-01-03 04:35:24.21	270.17	54.87	-32.6	-33.6	20.7	0.00e+00	0	57	0	2834300928	35	4105
2026-01-03 04:35:28.25	267.45	54.22	-32.3	-33.2	21.0	0.00e+00	0	57	0	2863661056	35	3942
2026-01-03 04:35:32.28	264.86	53.52	-32.2	-33.2	21.0	0.00e+00	0	57	0	2893021184	34	4152
2026-01-03 04:35:36.33	262.38	52.77	-32.2	-33.1	21.1	0.00e+00	0	57	0	2922381312	34	4132
2026-01-03 04:35:40.36	260.04	51.98	-32.6	-33.6	20.6	0.00e+00	0	57	0	2950692864	35	4133
2026-01-03 04:35:44.40	257.82	51.15	-32.9	-33.9	20.3	0.00e+00	0	57	0	2980052992	35	4272
2026-01-03 04:35:48.44	255.73	50.30	-32.4	-33.3	20.9	0.00e+00	0	57	0	3009413120	35	3980
2026-01-03 04:35:52.48	253.74	49.43	-32.3	-33.3	20.9	0.00e+00	0	57	0	3038773248	34	4216
2026-01-03 04:35:56.52	251.88	48.54	-32.2	-33.1	21.1	0.00e+00	0	57	0	3068133376	35	3889
2026-01-03 04:36:00.57	250.11	47.63	-32.0	-32.9	21.3	0.00e+00	0	57	0	3096444928	34	4023
2026-01-03 04:36:04.61	248.44	46.72	-31.8	-32.8	21.4	0.00e+00	0	57	0	3125805056	34	3976
2026-01-03 04:36:08.65	246.88	45.80	-31.6	-32.5	21.6	0.00e+00	0	57	0	3155165184	33	4077
2026-01-03 04:36:12.68	245.40	44.88	-31.3	-32.2	21.9	0.00e+00	0	57	0	3184525312	33	3939
2026-01-03 04:36:16.72	244.01	43.96	-31.2	-32.1	21.9	0.00e+00	0	57	0	3213885440	33	3910
2026-01-03 04:36:20.77	242.69	43.05	-30.9	-31.8	21.5	0.00e+00	0	57	0	3243245568	32	3980
2026-01-03 04:36:24.81	241.44	42.14	-31.2	-32.2	22.0	0.00e+00	0	57	0	3271557120	32	4147
2026-01-03 04:36:28.85	240.27	41.23	-31.2	-32.1	22.0	0.00e+00	0	57	0	3300917248	32	4103
2026-01-03 04:36:32.89	239.16	40.34	-31.3	-32.2	21.9	0.00e+00	0	57	0	3330277376	32	4160
2026-01-03 04:36:36.93	238.10	39.46	-31.1	-32.0	22.1	0.00e+00	0	57	0	3359637504	32	4062
2026-01-03 04:36:40.97	237.11	38.59	-31.0	-31.9	21.9	0.00e+00	0	57	0	3388997632	32	4042
2026-01-03 04:36:45.01	236.16	37.73	-30.7	-31.6	22.4	0.00e+00	0	57	0	3418357760	32	3895
2026-01-03 04:36:49.06	235.27	36.88	-30.9	-31.8	22.3	0.00e+00	0	57	0	3446669312	32	3966
2026-01-03 04:36:53.10	234.42	36.05	-30.9	-31.8	22.3	0.00e+00	0	57	0	3476029440	32	3972
2026-01-03 04:36:57.14	233.61	35.24	-30.9	-31.8	22.2	0.00e+00	0	57	0	3505389568	32	3990
2026-01-03 04:37:01.18	232.84	34.43	-30.7	-31.6	22.5	0.00e+00	0	58	0	3534749696	32	3879
2026-01-03 04:37:05.21	232.11	33.65	-30.3	-31.2	22.6	0.00e+00	0	57	0	3564109824	31	3922
2026-01-03 04:37:09.25	231.41	32.87	-30.5	-31.4	22.4	0.00e+00	0	58	0	3592421376	31	4046
2026-01-03 04:37:13.30	230.75	32.11	-30.5	-31.4	22.5	0.00e+00	0	58	0	3621781504	31	4016
2026-01-03 04:37:17.33	230.11	31.37	-30.5	-31.4	22.5	0.00e+00	0	57	0	3651141632	31	4017
2026-01-03 04:37:21.38	229.51	30.64	-30.3	-31.1	22.7	0.00e+00	0	57	0	3680501760	31	3909
2026-01-03 04:37:25.42	228.93	29.93	-30.4	-31.2	22.5	0.00e+00	0	57	0	3709861888	31	3954
2026-01-03 04:37:29.46	228.38	29.23	-30.7	-31.6	22.3	0.00e+00	0	58	0	3738173440	31	4110
2026-01-03 04:37:33.50	227.85	28.54	-30.7	-31.6	22.3	0.00e+00	0	57	0	3767533568	31	4102
2026-01-03 04:37:37.54	227.34	27.87	-30.8	-31.7	22.1	0.00e+00	0	58	0	3796893696	31	4160
2026-01-03 04:37:41.58	226.85	27.21	-31.0	-31.9	21.9	0.00e+00	0	57	0	3826253824	31	4269
2026-01-03 04:37:45.62	226.39	26.56	-31.0	-31.9	21.9	0.00e+00	0	57	0	3855613952	31	4286
2026-01-03 04:37:49.66	225.94	25.93	-31.4	-32.3	21.7	0.00e+00	0	58	0	3884974080	32	4230
2026-01-03 04:37:53.70	225.51	25.31	-31.6	-32.5	21.5	0.00e+00	0	57	0	3913285632	32	4324
2026-01-03 04:37:57.74	225.10	24.70	-31.2	-32.2	21.8	0.00e+00	0	57	0	3942645760	32	4150
2026-01-03 04:38:01.78	224.70	24.11	-30.9	-31.8	22.1	0.00e+00	0	57	0	3972005888	32	3998
2026-01-03 04:38:05.82	224.32	23.53	-30.9	-31.8	22.1	0.00e+00	0	58	0	4001366016	32	3985
2026-01-03 04:38:09.87	223.95	22.95	-31.1	-32.0	21.9	0.00e+00	0	58	0	4030726144	32	4093
2026-01-03 04:38:13.91	223.59	22.39	-31.4	-32.3	21.6	0.00e+00	0	58	0	4060086272	32	4225
2026-01-03 04:38:17.95	223.25	21.84	-31.6	-32.6	21.3	0.00e+00	0	58	0	4088397824	32	4356
2026-01-03 04:38:21.99	222.92	21.30	-31.8	-32.7	21.2	0.00e+00	0	58	0	4117757952	33	4168
2026-01-03 04:38:26.03	222.60	20.78	-31.8	-32.8	21.1	0.00e+00	0	58	0	4147118080	33	4198
2026-01-03 04:38:30.07	222.29	20.26	-31.8	-32.8	21.1	0.00e+00	0	58	0	4176478208	33	4206
2026-01-03 04:38:34.11	222.00	19.75	-31.8	-32.7	21.2	0.00e+00	0	58	0	4205838336	33	4190
2026-01-03 04:38:38.16	221.71	19.25	-31.9	-32.8	21.1	0.00e+00	0	57	0	4234149888	33	4234
2026-01-03 04:38:42.20	221.43	18.76	-32.0	-33.0	20.9	0.00e+00	0	58	0	4263510016	33	4306
2026-01-03 04:38:46.23	221.16	18.28	-32.1	-33.1	20.7	0.00e+00	0	58	0	4292870144	33	4364
2026-01-03 04:38:50.28	220.90	17.80	-32.3	-33.3	20.6	0.00e+00	0	58	0	4322230272	34	4213
2026-01-03 04:38:54.32	220.65	17.34	-32.5	-33.5	20.4	0.00e+00	0	58	0	4351590400	34	4328
2026-01-03 04:38:58.36	220.41	16.88	-32.7	-33.7	20.2	0.00e+00	0	58	0	4379901952	34	4407
2026-01-03 04:39:02.39	220.17	16.43	-32.8	-33.8	20.1	0.00e+00	0	58	0	4409262080	35	4239
2026-01-03 04:39:06.43	219.94	15.99	-32.9	-33.9	20.0	0.00e+00	0	58	0	4438622208	35	4275
2026-01-03 04:39:10.47	219.72	15.56	-32.9	-34.0	19.9	0.00e+00	0	58	0	4467982336	35	4307
2026-01-03 04:39:14.51	219.51	15.13	-33.0	-34.0	19.8	0.00e+00	0	58	0	4497342464	35	4318
2026-01-03 04:39:18.55	219.30	14.71	-33.0	-34.0	19.8	0.00e+00	0	58	0	4526702592	35	4340
2026-01-03 04:39:22.59	219.09	14.30	-33.1	-34.2	19.6	0.00e+00	0	57	0	4555014144	35	4405
2026-01-03 04:39:26.63	218.90	13.89	-34.0	-35.0	19.5	0.00e+00	0	57	0	4584374272	37	4332
2026-01-03 04:39:30.67	218.70	13.49	-34.2	-35.2	19.4	0.00e+00	0	58	0	4613734400	37	4435
2026-01-03 04:39:34.71	218.52	13.10	-34.3	-35.4	19.1	0.00e+00	0	58	0	4643094528	38	4277
2026-01-03 04:39:38.74	218.34	12.71	-34.4	-35.5	19.1	0.00e+00	0	58	0	4672454656	38	4322
2026-01-03 04:39:42.78	218.16	12.33	-34.5	-35.6	19.0	0.00e+00	0	58	0	4700766208	38	4364
2026-01-03 04:39:46.83	217.99	11.95	-34.7	-35.8	18.8	0.00e+00	0	58	0	4730126336	39	4216
2026-01-03 04:39:50.87	217.82	11.58	-34.8	-36.0	18.6	0.00e+00	0	58	0	4759486464	39	4304
2026-01-03 04:39:54.91	217.66	11.22	-34.9	-36.0	18.5	0.00e+00	0	58	0	4788846592	39	4327
2026-01-03 04:39:58.95	217.50	10.86	-34.8	-36.0	18.5	0.00e+00	0	58	0	4818206720	39	4302
2026-01-03 04:40:02.99	217.35	10.50	-35.0	-36.2	18.3	0.00e+00	0	58	0	4847566848	39	4401
2026-01-03 04:40:07.03	217.19	10.15	-35.1	-36.3	18.0	0.00e+00	0	58	0	4875878400	40	4234
2026-01-03 04:40:11.07	217.05	9.81	-35.3	-36.6	17.8	0.00e+00	0	58	0	4905238528	40	4345
2026-01-03 04:40:15.11	216.90	9.46	-35.6	-36.9	17.5	0.00e+00	0	58	0	4934598656	40	4494
2026-01-03 04:40:19.15	216.77	9.13	-35.8	-37.1	17.1	1.10e-06	0	58	0	4963958784	41	4388
2026-01-03 04:40:23.19	216.63	8.80	-35.9	-37.2	17.0	0.00e+00	0	58	0	4993318912	41	4425
2026-01-03 04:40:27.23	216.50	8.47	-35.9	-37.2	16.9	0.00e+00	0	58	0	5021630464	41	4433
2026-01-03 04:40:31.27	216.37	8.14	-35.6	-37.0	17.2	0.00e+00	0	58	0	5050990592	41	4293
2026-01-03 04:40:35.31	216.24	7.82	-45.2	-56.2	3.8	8.47e-01	0	58	104	5067767808	59	13963
2026-01-03 04:40:39.35	216.12	7.51	-45.5	-56.8	3.8	8.47e-01	0	58	104	5067767808	60	14149
2026-01-03 04:40:43.40	215.99	7.19	-45.5	-56.8	3.8	8.46e-01	0	58	104	5067767808	60	14207
2026-01-03 04:40:47.44	215.88	6.88	-45.5	-56.8	3.8	8.46e-01	0	58	104	5067767808	60	14094
2026-01-03 04:40:51.48	215.76	6.58	-45.5	-56.7	3.8	8.46e-01	0	58	104	5067767808	60	14001
2026-01-03 04:40:55.53	215.65	6.28	-45.5	-56.8	3.8	8.47e-01	0	58	104	5067767808	60	14048
2026-01-03 04:40:59.57	215.54	5.98	-45.5	-56.7	3.8	8.46e-01	0	58	104	5067767808	60	14013
2026-01-03 04:41:03.62	215.43	5.68	-45.4	-56.8	3.8	8.46e-01	0	58	104	5067767808	60	14049
2026-01-03 04:41:07.66	215.32	5.39	-45.4	-56.7	3.8	8.47e-01	0	58	104	5067767808	60	14024
2026-01-03 04:41:11.70	215.22	5.10	-45.4	-56.7	3.8	8.46e-01	0	58	104	5067767808	60	14021
2026-01-03 04:41:15.75	215.12	4.81	-45.4	-56.7	3.8	8.46e-01	0	58	104	5067767808	60	13996
2026-01-03 04:41:19.79	215.02	4.53	-45.4	-56.7	3.8	8.46e-01	0	58	104	5067767808	60	13995
2026-01-03 04:41:23.84	214.92	4.25	-45.4	-56.7	3.8	8.46e-01	0	58	104	5067767808	60	14039
2026-01-03 04:41:27.88	214.83	3.97	-45.4	-56.7	3.8	8.46e-01	0	58	104	5067767808	60	13930
2026-01-03 04:41:31.93	214.73	3.70	-45.4	-56.7	3.8	8.46e-01	0	58	104	5067767808	60	13924
2026-01-03 04:41:35.97	214.64	3.43	-45.4	-56.7	3.8	8.46e-01	0	58	104	5067767808	60	13887
2026-01-03 04:41:40.01	214.55	3.16	-45.4	-56.6	3.8	8.46e-01	0	58	104	5067767808	60	13846
2026-01-03 04:41:44.06	214.47	2.89	-45.4	-56.6	3.8	8.47e-01	0	58	104	5067767808	60	13865
2026-01-03 04:41:48.10	214.38	2.63	-45.4	-56.7	3.8	8.45e-01	0	58	104	5067767808	60	13902
2026-01-03 04:41:52.15	214.30	2.36	-45.4	-56.7	3.8	8.46e-01	0	58	104	5067767808	60	13902
2026-01-03 04:41:56.19	214.21	2.10	-45.4	-56.6	3.8	8.47e-01	0	58	104	5067767808	60	13842

#Closed at: 2026-01-03 04:41:58
#Recorded file [5067 MB]: D:/lorett/data/31039_260103_072747.dat