passes_logs/2026/01/03/R2.0S_Moscow/R2.0S_Moscow__20260103_010020_FENGYUN_3D_rec.log

#Pass ID: 20260103_010020_FENGYUN 3D
#Satellite: FENGYUN 3D
#Configuration: FENGYUN 3D
#almurnet v.1.7.20251203
#Start time: 2026-01-03 01:00:21

#Version: 2.2.20231116
#Station: R2.0S_Moscow
#Location: 37.707566 lon 55.798166 lat
#TLE: 1 43010U 17072A   26002.31768531  .00000715  00000+0  35975-3 0  9993
#TLE: 2 43010  98.9910 333.9388 0001871 131.0716 229.0622 14.19693418421454

#Time	Az	El	Level	Level2	SNR	BER	BlckErr	Temp	State	Recorded	gain1	gain2
2026-01-03 01:00:21.73	20.27	2.06	-40.7	-52.9	3.8	8.46e-01	0	48	0	0	53	14334
2026-01-03 01:00:25.76	20.42	2.31	-40.7	-52.9	3.8	8.45e-01	0	48	104	0	53	14265
2026-01-03 01:00:29.81	20.57	2.56	-40.7	-53.0	3.8	8.47e-01	0	48	104	0	53	14388
2026-01-03 01:00:33.85	20.72	2.81	-40.7	-52.9	3.8	8.46e-01	0	49	104	0	53	14330
2026-01-03 01:00:37.90	20.88	3.07	-40.7	-52.9	3.8	8.48e-01	0	49	104	0	53	14355
2026-01-03 01:00:41.94	21.03	3.33	-40.7	-52.9	3.8	8.47e-01	0	49	104	0	53	14328
2026-01-03 01:00:45.98	21.19	3.59	-40.7	-52.9	3.8	8.46e-01	0	49	104	0	53	14322
2026-01-03 01:00:50.03	21.36	3.85	-40.7	-52.9	3.8	8.46e-01	0	50	104	0	53	14316
2026-01-03 01:00:54.07	21.52	4.12	-40.7	-52.9	3.8	8.47e-01	0	50	104	0	53	14345
2026-01-03 01:00:58.12	21.69	4.39	-40.7	-52.9	3.8	8.45e-01	0	50	104	0	53	14283
2026-01-03 01:01:02.16	21.86	4.66	-40.7	-52.9	3.8	8.46e-01	0	50	104	0	53	14337
2026-01-03 01:01:06.20	22.03	4.93	-40.7	-52.9	3.8	8.46e-01	0	51	104	0	53	14317
2026-01-03 01:01:10.25	22.21	5.21	-40.7	-52.9	3.8	8.46e-01	0	51	104	0	53	14367
2026-01-03 01:01:14.29	22.39	5.49	-40.7	-52.9	3.8	8.46e-01	0	51	104	0	53	14350
2026-01-03 01:01:18.34	22.57	5.77	-40.7	-52.9	3.8	8.46e-01	0	51	104	0	53	14295
2026-01-03 01:01:22.38	22.76	6.05	-40.7	-52.9	3.8	8.47e-01	0	52	104	0	53	14238
2026-01-03 01:01:26.42	22.95	6.34	-40.7	-52.9	3.8	8.46e-01	0	52	104	0	53	14250
2026-01-03 01:01:30.47	23.14	6.63	-40.7	-52.8	3.8	8.46e-01	0	52	104	0	53	14126
2026-01-03 01:01:34.51	23.33	6.92	-40.7	-52.4	3.8	8.44e-01	0	52	104	0	53	13559
2026-01-03 01:01:38.55	23.53	7.22	-40.6	-51.4	3.8	8.45e-01	0	52	104	0	53	12067
2026-01-03 01:01:42.60	23.74	7.52	-40.2	-48.5	4.5	8.30e-01	0	52	0	0	52	9114
2026-01-03 01:01:46.64	23.94	7.82	-38.9	-43.6	8.1	8.97e-02	0	53	0	11534336	49	6144
2026-01-03 01:01:50.68	24.16	8.13	-37.3	-40.3	11.9	2.05e-05	0	53	0	34603008	44	5656
2026-01-03 01:01:54.72	24.37	8.44	-36.7	-38.9	14.2	1.80e-02	0	53	0	56623104	45	4511
2026-01-03 01:01:58.76	24.59	8.75	-36.2	-37.9	16.3	0.00e+00	0	53	0	78643200	44	4246
2026-01-03 01:02:02.80	24.81	9.07	-35.8	-37.3	16.9	0.00e+00	0	53	0	101711872	43	4210
2026-01-03 01:02:06.84	25.04	9.39	-35.3	-36.8	17.5	0.00e+00	0	53	0	124780544	42	4200
2026-01-03 01:02:10.89	25.28	9.72	-34.9	-36.2	18.1	0.00e+00	0	54	0	147849216	41	4174
2026-01-03 01:02:14.93	25.51	10.04	-34.8	-36.2	18.1	0.00e+00	0	53	0	169869312	41	4166
2026-01-03 01:02:18.97	25.76	10.38	-34.8	-36.1	18.2	0.00e+00	0	54	0	192937984	41	4127
2026-01-03 01:02:23.01	26.00	10.71	-34.9	-36.2	18.1	0.00e+00	0	53	0	214958080	41	4157
2026-01-03 01:02:27.04	26.26	11.05	-35.0	-36.3	18.0	0.00e+00	0	54	0	238026752	41	4226
2026-01-03 01:02:31.08	26.52	11.40	-35.0	-36.3	18.1	0.00e+00	0	54	0	261095424	41	4219
2026-01-03 01:02:35.12	26.78	11.75	-34.8	-36.2	18.3	0.00e+00	0	54	0	283115520	41	4152
2026-01-03 01:02:39.16	27.05	12.10	-34.9	-36.2	18.3	0.00e+00	0	54	0	306184192	41	4156
2026-01-03 01:02:43.19	27.33	12.46	-34.8	-36.1	18.3	0.00e+00	0	54	0	329252864	41	4141
2026-01-03 01:02:47.23	27.61	12.82	-34.7	-36.1	18.4	0.00e+00	0	54	0	351272960	41	4106
2026-01-03 01:02:51.27	27.90	13.19	-34.5	-35.8	18.6	0.00e+00	0	54	0	374341632	41	3998
2026-01-03 01:02:55.32	28.20	13.57	-34.4	-35.6	18.9	0.00e+00	0	55	0	397410304	40	4138
2026-01-03 01:02:59.36	28.50	13.95	-34.3	-35.5	19.0	0.00e+00	0	54	0	419430400	40	4082
2026-01-03 01:03:03.40	28.82	14.33	-34.2	-35.5	19.1	0.00e+00	0	55	0	442499072	40	4052
2026-01-03 01:03:07.44	29.14	14.72	-34.2	-35.4	19.2	0.00e+00	0	55	0	465567744	40	4023
2026-01-03 01:03:11.48	29.46	15.12	-34.1	-35.3	19.3	0.00e+00	0	54	0	487587840	40	3969
2026-01-03 01:03:15.52	29.80	15.52	-33.9	-35.1	19.6	0.00e+00	0	55	0	510656512	39	4126
2026-01-03 01:03:19.57	30.14	15.93	-33.9	-35.1	19.7	0.00e+00	0	55	0	533725184	39	4121
2026-01-03 01:03:23.61	30.50	16.34	-33.7	-34.9	19.9	0.00e+00	0	55	0	556793856	39	4019
2026-01-03 01:03:27.65	30.86	16.76	-33.5	-34.6	20.1	0.00e+00	0	55	0	578813952	38	4129
2026-01-03 01:03:31.69	31.24	17.18	-33.2	-34.3	20.5	0.00e+00	0	55	0	601882624	38	3966
2026-01-03 01:03:35.73	31.62	17.61	-33.4	-34.5	20.3	0.00e+00	0	55	0	623902720	38	4075
2026-01-03 01:03:39.77	32.01	18.05	-33.3	-34.5	20.3	0.00e+00	0	55	0	646971392	38	4053
2026-01-03 01:03:43.81	32.42	18.50	-33.1	-34.2	20.6	0.00e+00	0	55	0	670040064	38	3948
2026-01-03 01:03:47.86	32.84	18.95	-33.1	-34.3	20.6	0.00e+00	0	55	0	693108736	38	3966
2026-01-03 01:03:51.89	33.26	19.41	-33.1	-34.2	20.7	0.00e+00	0	55	0	715128832	38	3930
2026-01-03 01:03:55.94	33.71	19.88	-33.0	-34.0	20.8	0.00e+00	0	55	0	738197504	37	4095
2026-01-03 01:03:59.97	34.16	20.35	-32.9	-34.0	20.9	0.00e+00	0	55	0	761266176	37	4069
2026-01-03 01:04:04.01	34.63	20.83	-32.8	-33.9	21.0	0.00e+00	0	56	0	783286272	37	4024
2026-01-03 01:04:08.05	35.11	21.32	-32.9	-34.0	20.9	0.00e+00	0	56	0	806354944	37	4062
2026-01-03 01:04:12.10	35.61	21.81	-32.7	-33.8	21.1	0.00e+00	0	55	0	829423616	37	3961
2026-01-03 01:04:16.14	36.12	22.32	-32.6	-33.7	21.2	0.00e+00	0	56	0	851443712	37	3931
2026-01-03 01:04:20.18	36.66	22.83	-32.6	-33.7	21.2	0.00e+00	0	56	0	874512384	37	3930
2026-01-03 01:04:24.22	37.20	23.35	-32.4	-33.5	21.4	0.00e+00	0	56	0	897581056	36	4079
2026-01-03 01:04:28.26	37.77	23.87	-31.4	-32.4	21.8	0.00e+00	0	56	0	919601152	34	4031
2026-01-03 01:04:32.30	38.35	24.41	-31.3	-32.4	21.8	0.00e+00	0	56	0	942669824	34	4009
2026-01-03 01:04:36.34	38.96	24.95	-31.3	-32.3	21.9	0.00e+00	0	56	0	965738496	34	3989
2026-01-03 01:04:40.38	39.58	25.50	-31.3	-32.4	21.8	0.00e+00	0	56	0	987758592	34	4012
2026-01-03 01:04:44.41	40.23	26.06	-31.0	-32.0	22.2	0.00e+00	0	56	0	1010827264	34	3827
2026-01-03 01:04:48.46	40.90	26.63	-31.0	-32.0	22.2	0.00e+00	0	56	0	1033895936	33	4083
2026-01-03 01:04:52.50	41.59	27.21	-30.9	-31.9	22.3	0.00e+00	0	56	0	1055916032	33	4017
2026-01-03 01:04:56.54	42.31	27.79	-31.0	-32.1	22.1	0.00e+00	0	56	0	1078984704	33	4099
2026-01-03 01:05:00.58	43.06	28.38	-31.0	-32.0	22.2	0.00e+00	0	56	0	1102053376	33	4095
2026-01-03 01:05:04.62	43.83	28.98	-30.8	-31.8	22.4	0.00e+00	0	56	0	1124073472	33	3989
2026-01-03 01:05:08.66	44.63	29.58	-30.9	-31.9	22.3	0.00e+00	0	56	0	1147142144	33	4043
2026-01-03 01:05:12.70	45.46	30.20	-31.0	-32.1	22.1	0.00e+00	0	56	0	1170210816	33	4104
2026-01-03 01:05:16.74	46.32	30.82	-30.7	-31.9	21.5	0.00e+00	0	56	0	1193279488	33	4015
2026-01-03 01:05:20.78	47.22	31.44	-30.5	-31.7	21.7	0.00e+00	0	56	0	1215299584	32	4155
2026-01-03 01:05:24.82	48.15	32.07	-30.7	-31.9	21.5	0.00e+00	0	56	0	1238368256	32	4257
2026-01-03 01:05:28.86	49.12	32.71	-30.5	-31.6	21.7	0.00e+00	0	56	0	1260388352	32	4128
2026-01-03 01:05:32.90	50.12	33.35	-30.6	-31.7	21.6	0.00e+00	0	56	0	1283457024	32	4184
2026-01-03 01:05:36.94	51.17	34.00	-30.8	-31.9	21.5	0.00e+00	0	56	0	1306525696	32	4286
2026-01-03 01:05:40.98	52.26	34.65	-30.6	-31.7	21.6	0.00e+00	0	56	0	1328545792	32	4182
2026-01-03 01:05:45.02	53.39	35.30	-30.6	-31.8	21.6	0.00e+00	0	56	0	1351614464	32	4198
2026-01-03 01:05:49.06	54.56	35.95	-30.1	-31.3	22.0	0.00e+00	0	56	0	1374683136	32	3969
2026-01-03 01:05:53.10	55.79	36.60	-30.6	-31.7	21.5	0.00e+00	0	56	0	1397751808	32	4192
2026-01-03 01:05:57.13	57.06	37.24	-30.2	-31.3	22.1	0.00e+00	0	56	0	1419771904	32	3971
2026-01-03 01:06:01.17	58.38	37.89	-30.4	-31.6	21.8	0.00e+00	0	56	0	1442840576	32	4116
2026-01-03 01:06:05.21	59.76	38.53	-30.4	-31.5	21.9	0.00e+00	0	56	0	1464860672	32	4096
2026-01-03 01:06:09.25	61.19	39.16	-30.5	-31.7	21.7	0.00e+00	0	56	0	1487929344	32	4158
2026-01-03 01:06:13.29	62.67	39.79	-30.5	-31.7	21.7	0.00e+00	0	56	0	1510998016	32	4162
2026-01-03 01:06:17.33	64.22	40.40	-30.5	-31.7	21.8	0.00e+00	0	56	0	1534066688	32	4146
2026-01-03 01:06:21.37	65.82	41.00	-30.6	-31.7	21.7	0.00e+00	0	57	0	1556086784	32	4170
2026-01-03 01:06:25.40	67.48	41.59	-30.5	-31.7	21.8	0.00e+00	0	57	0	1579155456	32	4153
2026-01-03 01:06:29.44	69.20	42.15	-30.8	-32.0	21.5	0.00e+00	0	57	0	1602224128	32	4302
2026-01-03 01:06:33.48	70.98	42.70	-30.6	-31.8	21.6	0.00e+00	0	57	0	1624244224	32	4199
2026-01-03 01:06:37.53	72.82	43.22	-31.0	-32.2	21.3	0.00e+00	0	56	0	1647312896	32	4393
2026-01-03 01:06:41.56	74.72	43.72	-30.7	-31.8	21.7	0.00e+00	0	57	0	1669332992	32	4223
2026-01-03 01:06:45.60	76.68	44.18	-30.8	-31.9	21.6	0.00e+00	0	56	0	1692401664	32	4270
2026-01-03 01:06:49.64	78.69	44.62	-31.0	-32.2	21.4	0.00e+00	0	56	0	1715470336	32	4409
2026-01-03 01:06:53.68	80.76	45.02	-30.7	-31.8	21.7	0.00e+00	0	57	0	1738539008	32	4221
2026-01-03 01:06:57.72	82.87	45.38	-30.9	-32.1	21.5	0.00e+00	0	57	0	1760559104	32	4356
2026-01-03 01:07:01.76	85.04	45.70	-30.7	-31.8	21.9	0.00e+00	0	57	0	1783627776	32	4209
2026-01-03 01:07:05.80	87.24	45.98	-31.0	-32.2	21.4	0.00e+00	0	57	0	1806696448	32	4398
2026-01-03 01:07:09.84	89.48	46.22	-30.8	-31.9	21.7	0.00e+00	0	57	0	1828716544	32	4267
2026-01-03 01:07:13.89	91.76	46.40	-30.6	-31.7	21.9	0.00e+00	0	57	0	1851785216	32	4183
2026-01-03 01:07:17.93	94.05	46.54	-31.0	-32.2	21.4	0.00e+00	0	57	0	1874853888	32	4398
2026-01-03 01:07:21.97	96.37	46.63	-31.0	-32.1	21.5	0.00e+00	0	57	0	1896873984	32	4383
2026-01-03 01:07:26.01	98.69	46.67	-30.9	-32.0	21.7	0.00e+00	0	56	0	1919942656	32	4338
2026-01-03 01:07:30.05	101.01	46.66	-30.8	-31.9	21.7	0.00e+00	0	57	0	1943011328	32	4265
2026-01-03 01:07:34.09	103.33	46.60	-30.9	-32.0	21.6	0.00e+00	0	57	0	1965031424	32	4321
2026-01-03 01:07:38.13	105.64	46.49	-30.9	-32.0	21.6	0.00e+00	0	57	0	1988100096	32	4309
2026-01-03 01:07:42.17	107.93	46.33	-30.7	-31.8	21.8	0.00e+00	0	57	0	2011168768	32	4218
2026-01-03 01:07:46.21	110.19	46.12	-30.8	-32.0	21.6	0.00e+00	0	57	0	2033188864	32	4303
2026-01-03 01:07:50.25	112.42	45.87	-31.0	-32.2	21.4	0.00e+00	0	57	0	2056257536	32	4420
2026-01-03 01:07:54.30	114.61	45.57	-30.8	-31.9	21.6	0.00e+00	0	57	0	2079326208	32	4279
2026-01-03 01:07:58.34	116.76	45.23	-31.1	-32.3	21.3	0.00e+00	0	57	0	2101346304	32	4473
2026-01-03 01:08:02.38	118.86	44.85	-30.8	-32.0	21.6	0.00e+00	0	57	0	2124414976	32	4313
2026-01-03 01:08:06.42	120.91	44.44	-30.9	-32.1	21.6	0.00e+00	0	57	0	2147483648	32	4342
2026-01-03 01:08:10.46	122.91	43.99	-31.3	-32.5	21.1	0.00e+00	0	57	0	2169503744	33	4334
2026-01-03 01:08:14.50	124.84	43.51	-31.0	-32.1	21.3	0.00e+00	0	57	0	2192572416	33	4136
2026-01-03 01:08:18.55	126.73	43.00	-30.7	-31.8	21.6	0.00e+00	0	57	0	2215641088	33	3998
2026-01-03 01:08:22.59	128.55	42.46	-30.9	-32.0	21.5	0.00e+00	0	57	0	2238709760	33	4093
2026-01-03 01:08:26.63	130.31	41.90	-30.7	-31.9	21.6	0.00e+00	0	57	0	2260729856	33	4035
2026-01-03 01:08:30.66	132.01	41.33	-30.7	-31.8	21.7	0.00e+00	0	57	0	2283798528	33	3995
2026-01-03 01:08:34.71	133.65	40.73	-30.7	-31.9	21.6	0.00e+00	0	57	0	2305818624	33	4010
2026-01-03 01:08:38.75	135.23	40.12	-30.8	-32.0	21.4	0.00e+00	0	57	0	2328887296	33	4062
2026-01-03 01:08:42.79	136.76	39.50	-30.5	-31.6	21.8	0.00e+00	0	57	0	2351955968	33	3911
2026-01-03 01:08:46.82	138.22	38.87	-30.6	-31.8	21.7	0.00e+00	0	57	0	2373976064	33	3987
2026-01-03 01:08:50.86	139.63	38.23	-30.5	-31.7	21.8	0.00e+00	0	57	0	2397044736	33	3924
2026-01-03 01:08:54.90	140.99	37.58	-30.6	-31.7	21.7	0.00e+00	0	57	0	2420113408	32	4189
2026-01-03 01:08:58.94	142.29	36.93	-30.6	-31.7	21.7	0.00e+00	0	57	0	2443182080	32	4186
2026-01-03 01:09:02.98	143.55	36.28	-30.8	-31.9	21.5	0.00e+00	0	57	0	2465202176	32	4282
2026-01-03 01:09:07.02	144.76	35.62	-30.5	-31.7	21.8	0.00e+00	0	57	0	2488270848	32	4146
2026-01-03 01:09:11.06	145.92	34.97	-30.9	-32.1	21.3	0.00e+00	0	57	0	2510290944	32	4358
2026-01-03 01:09:15.10	147.03	34.32	-30.6	-31.8	21.5	0.00e+00	0	57	0	2533359616	32	4218
2026-01-03 01:09:19.15	148.11	33.66	-30.7	-31.9	21.5	0.00e+00	0	57	0	2556428288	32	4257
2026-01-03 01:09:23.19	149.14	33.02	-30.7	-31.9	21.4	0.00e+00	0	57	0	2579496960	32	4253
2026-01-03 01:09:27.23	150.13	32.37	-31.0	-32.2	21.1	0.00e+00	0	57	0	2601517056	32	4428
2026-01-03 01:09:31.27	151.08	31.73	-31.0	-32.1	21.3	0.00e+00	0	57	0	2624585728	32	4387
2026-01-03 01:09:35.31	152.00	31.10	-31.1	-32.3	21.1	0.00e+00	0	57	0	2647654400	32	4464
2026-01-03 01:09:39.35	152.88	30.47	-30.9	-32.1	21.3	0.00e+00	0	57	0	2669674496	32	4347
2026-01-03 01:09:43.39	153.73	29.85	-30.9	-32.1	21.2	0.00e+00	0	57	0	2692743168	32	4357
2026-01-03 01:09:47.42	154.55	29.24	-31.2	-32.5	20.9	0.00e+00	0	57	0	2714763264	33	4295
2026-01-03 01:09:51.47	155.34	28.63	-31.1	-32.3	21.0	0.00e+00	0	57	0	2737831936	33	4236
2026-01-03 01:09:55.51	156.10	28.03	-30.9	-32.0	21.3	0.00e+00	0	57	0	2760900608	33	4090
2026-01-03 01:09:59.55	156.84	27.44	-30.8	-32.0	21.4	0.00e+00	0	57	0	2783969280	33	4068
2026-01-03 01:10:03.59	157.54	26.85	-31.0	-32.2	21.2	0.00e+00	0	57	0	2805989376	33	4159
2026-01-03 01:10:07.63	158.23	26.28	-31.2	-32.4	21.0	0.00e+00	0	57	0	2829058048	33	4271
2026-01-03 01:10:11.67	158.89	25.71	-31.2	-32.4	21.0	0.00e+00	0	57	0	2852126720	33	4276
2026-01-03 01:10:15.71	159.53	25.15	-31.2	-32.4	21.0	0.00e+00	0	57	0	2874146816	33	4251
2026-01-03 01:10:19.75	160.14	24.60	-31.2	-32.3	21.0	0.00e+00	0	57	0	2897215488	33	4242
2026-01-03 01:10:23.79	160.74	24.06	-31.3	-32.5	20.9	0.00e+00	0	57	0	2920284160	33	4322
2026-01-03 01:10:27.83	161.31	23.52	-31.5	-32.7	20.6	0.00e+00	0	57	0	2942304256	33	4438
2026-01-03 01:10:31.87	161.87	23.00	-31.7	-33.0	20.5	0.00e+00	0	57	0	2965372928	34	4307
2026-01-03 01:10:35.91	162.41	22.48	-31.9	-33.2	20.2	0.00e+00	0	57	0	2988441600	34	4421
2026-01-03 01:10:39.95	162.93	21.97	-32.0	-33.3	20.1	0.00e+00	0	57	0	3010461696	34	4480
2026-01-03 01:10:43.99	163.44	21.46	-32.0	-33.3	20.1	0.00e+00	0	57	0	3033530368	34	4469
2026-01-03 01:10:48.03	163.93	20.97	-32.0	-33.3	20.1	0.00e+00	0	57	0	3056599040	34	4449
2026-01-03 01:10:52.07	164.40	20.48	-32.1	-33.3	20.0	0.00e+00	0	57	0	3078619136	34	4485
2026-01-03 01:10:56.11	164.86	20.00	-32.3	-33.6	19.8	0.00e+00	0	57	0	3101687808	35	4344
2026-01-03 01:11:00.15	165.31	19.53	-32.4	-33.7	19.7	0.00e+00	0	57	0	3124756480	35	4413
2026-01-03 01:11:04.18	165.75	19.06	-32.5	-33.8	19.7	0.00e+00	0	57	0	3146776576	35	4444
2026-01-03 01:11:08.21	166.17	18.60	-32.6	-33.9	19.6	0.00e+00	0	57	0	3169845248	35	4497
2026-01-03 01:11:12.25	166.58	18.15	-32.7	-34.0	19.5	0.00e+00	0	57	0	3192913920	35	4583
2026-01-03 01:11:16.29	166.97	17.71	-33.5	-34.8	19.5	0.00e+00	0	57	0	3214934016	37	4459
2026-01-03 01:11:20.33	167.36	17.27	-33.6	-34.9	19.4	0.00e+00	0	57	0	3238002688	37	4516
2026-01-03 01:11:24.36	167.74	16.84	-33.7	-35.0	19.3	0.00e+00	0	57	0	3261071360	37	4559
2026-01-03 01:11:28.40	168.11	16.41	-33.8	-35.2	19.1	0.00e+00	0	57	0	3283091456	38	4401
2026-01-03 01:11:32.44	168.46	16.00	-34.1	-35.4	18.9	0.00e+00	0	57	0	3306160128	38	4534
2026-01-03 01:11:36.48	168.81	15.58	-34.2	-35.6	18.7	0.00e+00	0	57	0	3329228800	38	4628
2026-01-03 01:11:40.52	169.15	15.18	-34.3	-35.7	18.5	0.00e+00	0	57	0	3351248896	39	4438
2026-01-03 01:11:44.56	169.48	14.78	-34.4	-35.8	18.4	0.00e+00	0	57	0	3374317568	39	4472
2026-01-03 01:11:48.60	169.80	14.38	-34.4	-35.9	18.4	0.00e+00	0	57	0	3397386240	39	4502
2026-01-03 01:11:52.64	170.11	13.99	-34.5	-36.0	18.3	0.00e+00	0	57	0	3419406336	39	4553
2026-01-03 01:11:56.68	170.42	13.61	-34.6	-36.1	18.2	0.00e+00	0	57	0	3442475008	39	4612
2026-01-03 01:12:00.71	170.72	13.23	-34.7	-36.1	18.0	0.00e+00	0	57	0	3464495104	40	4383
2026-01-03 01:12:04.75	171.01	12.85	-34.8	-36.2	17.9	0.00e+00	0	57	0	3487563776	40	4436
2026-01-03 01:12:08.79	171.29	12.49	-34.8	-36.2	17.9	0.00e+00	0	57	0	3510632448	40	4440
2026-01-03 01:12:12.83	171.57	12.12	-34.8	-36.3	17.9	0.00e+00	0	57	0	3533701120	40	4442
2026-01-03 01:12:16.87	171.84	11.76	-34.8	-36.2	17.9	0.00e+00	0	57	0	3555721216	40	4425
2026-01-03 01:12:20.91	172.11	11.41	-34.8	-36.2	17.9	0.00e+00	0	57	0	3578789888	40	4439
2026-01-03 01:12:24.95	172.37	11.06	-34.8	-36.3	17.8	0.00e+00	0	57	0	3601858560	40	4457
2026-01-03 01:12:28.99	172.62	10.71	-35.0	-36.4	17.6	0.00e+00	0	57	0	3623878656	40	4532
2026-01-03 01:12:33.02	172.87	10.37	-35.1	-36.5	17.5	0.00e+00	0	57	0	3646947328	40	4596
2026-01-03 01:12:37.07	173.11	10.04	-35.1	-36.6	17.4	0.00e+00	0	57	0	3668967424	40	4632
2026-01-03 01:12:41.11	173.35	9.70	-35.1	-36.6	17.3	0.00e+00	0	57	0	3692036096	41	4386
2026-01-03 01:12:45.15	173.58	9.38	-35.2	-36.8	17.2	0.00e+00	0	57	0	3715104768	41	4444
2026-01-03 01:12:49.19	173.81	9.05	-35.4	-36.9	17.0	0.00e+00	0	57	0	3738173440	41	4544
2026-01-03 01:12:53.23	174.03	8.73	-35.3	-36.9	17.0	0.00e+00	0	57	0	3760193536	41	4505
2026-01-03 01:12:57.26	174.25	8.41	-35.5	-37.1	16.7	0.00e+00	0	57	0	3783262208	41	4615
2026-01-03 01:13:01.30	174.46	8.10	-35.7	-37.4	16.2	0.00e+00	0	57	0	3806330880	41	4792
2026-01-03 01:13:05.34	174.67	7.79	-44.8	-56.5	3.8	8.47e-01	0	57	104	3813670912	60	14375
2026-01-03 01:13:09.38	174.87	7.48	-45.1	-56.8	3.8	8.46e-01	0	57	104	3813670912	60	14897
2026-01-03 01:13:13.43	175.08	7.18	-45.1	-56.7	3.8	8.46e-01	0	57	104	3813670912	60	14824
2026-01-03 01:13:17.47	175.27	6.88	-45.0	-56.6	3.8	8.46e-01	0	57	104	3813670912	60	14640
2026-01-03 01:13:21.51	175.47	6.58	-45.0	-56.6	3.8	8.46e-01	0	57	104	3813670912	60	14610
2026-01-03 01:13:25.55	175.66	6.29	-45.0	-56.6	3.8	8.46e-01	0	57	104	3813670912	60	14612
2026-01-03 01:13:29.59	175.84	6.00	-45.0	-56.6	3.8	8.47e-01	0	57	104	3813670912	60	14569
2026-01-03 01:13:33.64	176.03	5.71	-45.0	-56.6	3.8	8.46e-01	0	57	104	3813670912	60	14570
2026-01-03 01:13:37.68	176.21	5.43	-44.9	-56.6	3.8	8.46e-01	0	57	104	3813670912	60	14551
2026-01-03 01:13:41.72	176.38	5.15	-44.9	-56.6	3.8	8.44e-01	0	58	104	3813670912	60	14575
2026-01-03 01:13:45.77	176.56	4.87	-45.0	-56.6	3.8	8.46e-01	0	57	104	3813670912	60	14573
2026-01-03 01:13:49.81	176.73	4.59	-44.9	-56.6	3.8	8.46e-01	0	58	104	3813670912	60	14555
2026-01-03 01:13:53.86	176.89	4.32	-44.9	-56.6	3.8	8.46e-01	0	58	104	3813670912	60	14589
2026-01-03 01:13:57.90	177.06	4.05	-44.9	-56.5	3.8	8.47e-01	0	58	104	3813670912	60	14531
2026-01-03 01:14:01.94	177.22	3.78	-44.9	-56.5	3.8	8.47e-01	0	57	104	3813670912	60	14531
2026-01-03 01:14:05.99	177.38	3.51	-44.9	-56.5	3.8	8.47e-01	0	57	104	3813670912	60	14507
2026-01-03 01:14:10.03	177.54	3.25	-44.9	-56.6	3.8	8.46e-01	0	57	104	3813670912	60	14563
2026-01-03 01:14:14.08	177.69	2.99	-44.9	-56.5	3.8	8.46e-01	0	58	104	3813670912	60	14514
2026-01-03 01:14:18.12	177.84	2.73	-44.9	-56.6	3.8	8.47e-01	0	57	104	3813670912	60	14586
2026-01-03 01:14:22.16	177.99	2.47	-44.9	-56.5	3.8	8.46e-01	0	57	104	3813670912	60	14537
2026-01-03 01:14:26.21	178.14	2.22	-44.9	-56.5	3.8	8.46e-01	0	57	104	3813670912	60	14502

#Closed at: 2026-01-03 01:14:30
#Recorded file [3813 MB]: D:/lorett/data/31039_260103_040021.dat