passes_logs/2026/01/03/R2.0S_Moscow/R2.0S_Moscow__20260103_081118_SUOMI_NPP_rec.log

#Pass ID: 20260103_081118_SUOMI NPP
#Satellite: SUOMI NPP
#Configuration: NPP
#almurnet v.1.7.20251203
#Start time: 2026-01-03 08:11:20

#Version: 2.2.20231116
#Station: R2.0S_Moscow
#Location: 37.707566 lon 55.798166 lat
#TLE: 1 37849U 11061A   26001.07732418  .00000182  00000+0  10735-3 0  9990
#TLE: 2 37849  98.7795 303.2470 0002580  87.2016 272.9455 14.19520779734739

#Time	Az	El	Level	Level2	SNR	BER	BlckErr	Temp	State	Recorded	gain1	gain2
2026-01-03 08:11:20.07	107.49	2.09	-33.1	-47.4	3.9	1.50e+00	0	47	0	0	33	23986
2026-01-03 08:11:23.09	107.28	2.26	-33.4	-47.2	4.1	1.50e+00	0	47	104	0	37	18621
2026-01-03 08:11:26.12	107.05	2.42	-34.8	-48.2	4.0	1.50e+00	0	48	0	0	36	22044
2026-01-03 08:11:29.16	106.83	2.59	-30.8	-47.8	3.9	1.50e+00	0	48	104	0	23	44435
2026-01-03 08:11:32.19	106.60	2.76	-32.5	-48.8	4.2	1.50e+00	0	48	0	0	39	20047
2026-01-03 08:11:35.23	106.37	2.93	-34.0	-48.7	4.1	1.50e+00	0	48	104	0	37	22143
2026-01-03 08:11:38.26	106.14	3.10	-33.6	-47.9	4.2	1.50e+00	0	48	104	0	34	23989
2026-01-03 08:11:41.29	105.90	3.27	-32.0	-45.1	3.5	1.50e+00	0	49	104	0	28	24547
2026-01-03 08:11:44.32	105.66	3.44	-34.0	-48.8	4.2	1.50e+00	0	49	104	0	37	22376
2026-01-03 08:11:47.36	105.42	3.61	-32.6	-47.3	4.2	1.50e+00	0	49	104	0	34	22265
2026-01-03 08:11:50.39	105.17	3.79	-32.5	-48.0	4.2	1.50e+00	0	49	104	0	37	20465
2026-01-03 08:11:53.42	104.93	3.96	-31.7	-48.1	4.1	1.50e+00	0	49	104	0	36	21906
2026-01-03 08:11:56.46	104.68	4.13	-34.6	-49.6	4.2	1.50e+00	0	50	104	0	39	21793
2026-01-03 08:11:59.49	104.42	4.31	-33.6	-46.7	4.2	1.50e+00	0	50	0	0	34	20831
2026-01-03 08:12:02.51	104.17	4.48	-32.4	-47.4	4.2	1.50e+00	0	50	104	0	34	22746
2026-01-03 08:12:05.54	103.91	4.66	-33.7	-48.9	4.3	1.50e+00	0	50	104	0	37	22710
2026-01-03 08:12:08.58	103.64	4.83	-33.4	-48.4	4.2	1.50e+00	0	50	104	0	38	20265
2026-01-03 08:12:11.61	103.38	5.01	-32.7	-48.6	4.1	1.50e+00	0	51	104	0	37	21852
2026-01-03 08:12:14.64	103.11	5.19	-32.6	-49.0	4.1	1.50e+00	0	51	104	0	37	23018
2026-01-03 08:12:17.67	102.83	5.36	-29.5	-43.1	3.8	1.50e+00	0	51	0	0	31	16362
2026-01-03 08:12:20.71	102.56	5.54	-33.9	-44.4	3.7	1.50e+00	0	51	104	0	26	25373
2026-01-03 08:12:23.74	102.28	5.72	-30.4	-47.6	4.0	1.50e+00	0	51	104	0	32	25897
2026-01-03 08:12:26.77	101.99	5.90	-32.7	-45.9	3.7	1.50e+00	0	51	104	0	31	22646
2026-01-03 08:12:29.81	101.70	6.08	-34.9	-49.0	4.0	1.50e+00	0	51	104	0	33	28903
2026-01-03 08:12:32.84	101.41	6.26	-23.0	-37.5	3.8	1.50e+00	0	51	104	0	17	19361
2026-01-03 08:12:35.87	101.12	6.44	-34.3	-49.2	4.4	1.50e+00	0	52	104	0	39	20932
2026-01-03 08:12:38.91	100.82	6.62	-33.7	-48.9	4.2	1.50e+00	0	52	104	0	37	22565
2026-01-03 08:12:41.94	100.52	6.81	-27.1	-40.5	3.7	1.50e+00	0	52	104	0	17	27259
2026-01-03 08:12:44.97	100.21	6.99	-34.1	-49.0	4.3	1.50e+00	0	52	104	0	38	21661
2026-01-03 08:12:48.01	99.90	7.17	-34.7	-47.1	4.1	1.51e+00	0	52	104	0	36	19521
2026-01-03 08:12:51.04	99.59	7.36	-29.9	-46.0	4.0	1.51e+00	0	52	104	0	29	25611
2026-01-03 08:12:54.07	99.27	7.54	-34.6	-49.2	4.1	1.50e+00	0	52	104	0	36	24754
2026-01-03 08:12:57.10	98.95	7.73	-34.3	-48.3	4.5	1.50e+00	0	53	104	0	37	21256
2026-01-03 08:13:00.14	98.62	7.91	-29.9	-45.9	4.2	1.49e+00	0	53	104	0	36	17065
2026-01-03 08:13:03.17	98.29	8.10	-39.9	-54.8	4.1	1.50e+00	0	52	104	0	47	25025
2026-01-03 08:13:06.20	97.95	8.28	-32.6	-46.9	4.4	1.43e+00	0	53	104	0	34	21482
2026-01-03 08:13:09.23	97.61	8.47	-34.8	-47.7	4.8	1.16e+00	0	53	104	2097152	40	16544
2026-01-03 08:13:12.26	97.27	8.66	-28.1	-44.4	4.6	1.45e+00	0	53	104	2097152	40	11389
2026-01-03 08:13:15.28	96.92	8.84	-37.4	-51.3	4.1	1.50e+00	0	53	104	2097152	44	19849
2026-01-03 08:13:18.31	96.57	9.03	-29.2	-45.7	3.9	1.50e+00	0	53	104	2097152	32	20988
2026-01-03 08:13:21.34	96.21	9.22	-29.4	-44.3	4.1	1.50e+00	0	53	104	2097152	31	18927
2026-01-03 08:13:24.37	95.85	9.41	-39.7	-53.1	4.1	1.50e+00	0	53	104	2097152	47	20724
2026-01-03 08:13:27.40	95.48	9.60	-42.0	-50.8	5.1	8.33e-01	0	53	0	3145728	54	10541
2026-01-03 08:13:30.43	95.11	9.78	-42.2	-51.7	5.0	8.04e-01	0	53	0	8388608	55	11131
2026-01-03 08:13:33.46	94.73	9.97	-42.0	-50.2	6.0	4.60e-01	0	54	0	14680064	55	9319
2026-01-03 08:13:36.49	94.35	10.16	-41.0	-47.1	8.5	1.29e-01	0	54	0	19922944	54	6924
2026-01-03 08:13:39.52	93.96	10.35	-40.2	-45.3	10.3	5.67e-03	0	54	0	26214400	51	6653
2026-01-03 08:13:42.54	93.57	10.54	-40.5	-45.7	9.9	5.96e-03	0	54	0	31457280	51	7033
2026-01-03 08:13:45.57	93.18	10.73	-40.5	-45.9	9.7	7.49e-03	0	54	0	37748736	52	6748
2026-01-03 08:13:48.60	92.77	10.92	-40.6	-46.1	9.5	3.09e-02	0	54	0	42991616	52	6952
2026-01-03 08:13:51.63	92.36	11.11	-40.0	-44.3	11.7	2.04e-04	0	54	0	48234496	51	5976
2026-01-03 08:13:54.66	91.95	11.30	-40.2	-44.4	11.8	7.80e-04	0	54	0	54525952	51	6030
2026-01-03 08:13:57.69	91.53	11.49	-40.2	-44.2	12.0	1.66e-04	0	54	0	59768832	51	5859
2026-01-03 08:14:00.72	91.11	11.68	-39.5	-43.0	12.9	4.11e-05	0	54	0	66060288	50	5446
2026-01-03 08:14:03.74	90.68	11.87	-40.5	-46.1	9.2	1.02e-02	0	54	0	71303168	51	7323
2026-01-03 08:14:06.77	90.24	12.06	-41.1	-52.4	4.2	1.24e+00	0	54	0	76546048	52	14244
2026-01-03 08:14:09.80	89.80	12.25	-41.0	-54.9	3.8	1.49e+00	0	55	104	76546048	52	19051
2026-01-03 08:14:12.83	89.35	12.44	-40.9	-55.4	3.8	1.49e+00	0	55	104	76546048	52	20176
2026-01-03 08:14:15.86	88.90	12.63	-41.4	-55.7	3.8	1.49e+00	0	54	104	76546048	53	19782
2026-01-03 08:14:18.89	88.44	12.82	-40.6	-55.2	3.8	1.49e+00	0	55	104	76546048	53	18640
2026-01-03 08:14:21.92	87.98	13.01	-40.5	-55.1	3.8	1.49e+00	0	55	104	76546048	53	18376
2026-01-03 08:14:24.95	87.51	13.20	-40.6	-55.1	3.8	1.49e+00	0	55	104	76546048	53	18460
2026-01-03 08:14:27.98	87.03	13.39	-41.9	-54.9	3.8	1.49e+00	0	55	104	76546048	54	17083
2026-01-03 08:14:31.01	86.55	13.57	-41.1	-53.2	3.9	1.48e+00	0	54	104	76546048	53	14726
2026-01-03 08:14:34.04	86.06	13.76	-41.0	-52.7	4.0	1.47e+00	0	55	0	76546048	53	13901
2026-01-03 08:14:37.07	85.56	13.95	-40.6	-50.4	4.8	1.02e+00	0	55	0	77594624	53	10766
2026-01-03 08:14:40.10	85.06	14.13	-40.3	-49.0	5.5	4.97e-01	0	55	0	83886080	52	9684
2026-01-03 08:14:43.13	84.55	14.32	-40.1	-46.9	7.4	1.69e-01	0	55	0	89128960	52	7596
2026-01-03 08:14:46.16	84.04	14.50	-39.8	-45.6	8.9	3.08e-02	0	55	0	95420416	51	6949
2026-01-03 08:14:49.18	83.52	14.68	-40.0	-45.7	8.9	2.57e-02	0	55	0	100663296	51	7037
2026-01-03 08:14:52.22	82.99	14.86	-40.1	-45.4	9.5	1.93e-02	0	55	0	105906176	51	6795
2026-01-03 08:14:55.24	82.45	15.04	-39.8	-44.6	10.4	4.33e-03	0	55	0	112197632	51	6159
2026-01-03 08:14:58.28	81.91	15.22	-39.8	-44.4	10.9	2.40e-03	0	55	0	117440512	51	6001
2026-01-03 08:15:01.30	81.37	15.40	-39.8	-44.3	10.9	2.05e-03	0	55	0	123731968	51	5947
2026-01-03 08:15:04.33	80.81	15.58	-39.7	-44.1	11.3	1.32e-03	0	55	0	128974848	51	5800
2026-01-03 08:15:07.36	80.25	15.75	-39.8	-44.1	11.2	1.04e-03	0	55	0	135266304	51	5852
2026-01-03 08:15:10.39	79.68	15.93	-40.1	-44.9	10.4	4.25e-03	0	55	0	140509184	51	6383
2026-01-03 08:15:13.42	79.11	16.10	-39.9	-44.6	10.7	3.29e-03	0	55	0	145752064	51	6151
2026-01-03 08:15:16.45	78.53	16.27	-39.8	-44.5	10.7	2.92e-03	0	55	0	152043520	51	6131
2026-01-03 08:15:19.48	77.94	16.44	-39.5	-43.8	11.4	1.38e-03	0	55	0	157286400	50	5959
2026-01-03 08:15:22.51	77.35	16.60	-39.5	-44.1	11.0	1.67e-03	0	55	0	163577856	50	6155
2026-01-03 08:15:25.54	76.75	16.77	-39.6	-44.2	10.7	2.89e-03	0	55	0	168820736	50	6263
2026-01-03 08:15:28.57	76.14	16.93	-39.6	-44.8	10.1	7.37e-03	0	56	0	174063616	50	6683
2026-01-03 08:15:31.60	75.53	17.09	-39.6	-44.6	10.2	7.10e-03	0	55	0	180355072	50	6549
2026-01-03 08:15:34.63	74.91	17.25	-39.6	-44.8	10.0	6.52e-03	0	55	0	185597952	50	6656
2026-01-03 08:15:37.66	74.28	17.40	-39.4	-44.2	10.5	4.17e-03	0	56	0	191889408	50	6258
2026-01-03 08:15:40.69	73.65	17.56	-39.2	-43.6	11.2	1.63e-03	0	56	0	197132288	50	5807
2026-01-03 08:15:43.72	73.01	17.71	-39.1	-43.6	11.2	1.41e-03	0	56	0	203423744	50	5814
2026-01-03 08:15:46.75	72.36	17.85	-39.1	-43.5	11.3	9.71e-04	0	56	0	208666624	50	5757
2026-01-03 08:15:49.77	71.71	18.00	-39.2	-43.4	11.5	8.77e-04	0	56	0	213909504	50	5718
2026-01-03 08:15:52.80	71.05	18.14	-39.3	-43.4	12.0	6.28e-04	0	56	0	220200960	50	5668
2026-01-03 08:15:55.83	70.39	18.28	-39.3	-42.9	13.0	8.92e-05	0	56	0	225443840	50	5371
2026-01-03 08:15:58.86	69.72	18.41	-39.1	-42.3	14.1	3.00e-06	0	56	0	231735296	50	4992
2026-01-03 08:16:01.89	69.04	18.54	-38.6	-41.2	15.5	0.00e+00	0	56	0	236978176	49	4681
2026-01-03 08:16:04.92	68.36	18.67	-38.3	-40.6	16.6	0.00e+00	0	56	0	242221056	48	4640
2026-01-03 08:16:07.94	67.68	18.79	-37.8	-39.8	17.5	0.00e+00	0	56	0	248512512	47	4481
2026-01-03 08:16:10.97	66.98	18.91	-37.8	-39.8	17.7	0.00e+00	0	56	0	253755392	47	4459
2026-01-03 08:16:14.00	66.28	19.03	-37.7	-39.6	17.9	0.00e+00	0	56	0	260046848	46	4620
2026-01-03 08:16:17.03	65.58	19.14	-37.9	-39.8	17.8	0.00e+00	0	56	0	265289728	46	4741
2026-01-03 08:16:20.07	64.87	19.25	-38.3	-40.4	17.2	0.00e+00	0	56	0	270532608	47	4793
2026-01-03 08:16:23.09	64.16	19.36	-38.4	-40.6	17.0	0.00e+00	0	56	0	276824064	47	4905
2026-01-03 08:16:26.13	63.43	19.46	-39.0	-41.3	16.6	0.00e+00	0	56	0	282066944	48	5028
2026-01-03 08:16:29.16	62.71	19.55	-39.3	-41.8	16.0	0.00e+00	0	56	0	288358400	49	4995
2026-01-03 08:16:32.18	61.99	19.65	-39.4	-42.0	15.8	0.00e+00	0	56	0	293601280	49	5141
2026-01-03 08:16:35.21	61.25	19.73	-39.0	-41.3	16.5	0.00e+00	0	56	0	299892736	49	4728
2026-01-03 08:16:38.24	60.52	19.81	-39.0	-41.3	16.5	0.00e+00	0	56	0	305135616	49	4741
2026-01-03 08:16:41.27	59.78	19.89	-39.3	-41.8	16.0	0.00e+00	0	56	0	310378496	49	5027
2026-01-03 08:16:44.30	59.03	19.97	-39.3	-41.8	15.9	0.00e+00	0	56	0	316669952	49	5025
2026-01-03 08:16:47.33	58.29	20.03	-39.2	-41.7	16.1	0.00e+00	0	56	0	321912832	49	4947
2026-01-03 08:16:50.36	57.53	20.10	-39.7	-42.5	15.3	0.00e+00	0	56	0	328204288	50	5115
2026-01-03 08:16:53.39	56.78	20.15	-39.4	-42.0	15.7	0.00e+00	0	56	0	333447168	50	4853
2026-01-03 08:16:56.42	56.03	20.21	-39.2	-41.7	16.1	0.00e+00	0	56	0	339738624	50	4660
2026-01-03 08:16:59.46	55.26	20.26	-39.2	-41.7	16.0	0.00e+00	0	56	0	344981504	49	4982
2026-01-03 08:17:02.48	54.51	20.30	-39.6	-42.4	15.3	0.00e+00	0	56	0	350224384	49	5382
2026-01-03 08:17:05.52	53.74	20.34	-39.4	-42.1	15.6	0.00e+00	0	56	0	356515840	49	5215
2026-01-03 08:17:08.55	52.98	20.37	-39.1	-41.6	16.0	0.00e+00	0	56	0	361758720	49	4924
2026-01-03 08:17:11.57	52.21	20.39	-39.1	-41.6	16.2	0.00e+00	0	56	0	368050176	49	4918
2026-01-03 08:17:14.60	51.45	20.42	-38.9	-41.3	16.4	0.00e+00	0	56	0	373293056	49	4734
2026-01-03 08:17:17.63	50.68	20.43	-38.6	-40.8	16.8	0.00e+00	0	56	0	378535936	48	4750
2026-01-03 08:17:20.66	49.91	20.44	-38.8	-41.2	16.6	0.00e+00	0	56	0	384827392	48	4941
2026-01-03 08:17:23.69	49.14	20.45	-39.1	-41.6	16.2	0.00e+00	0	56	0	390070272	48	5182
2026-01-03 08:17:26.72	48.37	20.45	-39.6	-42.4	15.4	0.00e+00	0	56	0	396361728	49	5398
2026-01-03 08:17:29.74	47.60	20.44	-39.6	-42.4	15.4	0.00e+00	0	56	0	401604608	50	5071
2026-01-03 08:17:32.78	46.83	20.43	-38.9	-41.2	16.6	0.00e+00	0	56	0	407896064	49	4682
2026-01-03 08:17:35.80	46.07	20.41	-38.3	-40.4	17.4	0.00e+00	0	56	0	413138944	48	4517
2026-01-03 08:17:38.83	45.30	20.39	-38.1	-40.2	17.6	0.00e+00	0	56	0	418381824	48	4395
2026-01-03 08:17:41.86	44.54	20.37	-37.9	-39.9	17.8	0.00e+00	0	56	0	424673280	47	4517
2026-01-03 08:17:44.89	43.77	20.33	-37.8	-39.7	18.0	0.00e+00	0	56	0	429916160	47	4411
2026-01-03 08:17:47.92	43.01	20.29	-38.1	-40.1	17.6	0.00e+00	0	56	0	436207616	47	4631
2026-01-03 08:17:50.95	42.25	20.25	-37.8	-39.7	18.0	0.00e+00	0	56	0	441450496	47	4417
2026-01-03 08:17:53.98	41.49	20.20	-37.9	-39.9	17.8	0.00e+00	0	56	0	446693376	47	4519
2026-01-03 08:17:57.01	40.74	20.15	-38.0	-39.9	17.8	0.00e+00	0	56	0	452984832	47	4541
2026-01-03 08:18:00.04	39.99	20.09	-38.2	-40.3	17.5	0.00e+00	0	56	0	458227712	47	4719
2026-01-03 08:18:03.07	39.24	20.03	-38.1	-40.0	17.7	0.00e+00	0	56	0	464519168	47	4592
2026-01-03 08:18:06.10	38.49	19.96	-38.1	-40.1	17.7	0.00e+00	0	56	0	469762048	47	4605
2026-01-03 08:18:09.12	37.75	19.89	-38.1	-40.1	17.6	0.00e+00	0	56	0	476053504	47	4649
2026-01-03 08:18:12.15	37.01	19.81	-39.2	-41.6	16.4	0.00e+00	0	56	0	481296384	48	5174
2026-01-03 08:18:15.18	36.28	19.73	-39.4	-41.9	16.1	0.00e+00	0	56	0	486539264	49	5058
2026-01-03 08:18:18.22	35.55	19.64	-39.0	-41.3	16.4	0.00e+00	0	56	0	492830720	49	4725
2026-01-03 08:18:21.24	34.82	19.55	-39.3	-41.8	16.1	0.00e+00	0	56	0	498073600	49	5022
2026-01-03 08:18:24.27	34.10	19.45	-39.6	-42.2	15.7	0.00e+00	0	56	0	504365056	50	4978
2026-01-03 08:18:27.30	33.38	19.35	-39.7	-42.3	15.7	0.00e+00	0	56	0	509607936	50	5009
2026-01-03 08:18:30.33	32.67	19.24	-39.6	-42.1	15.9	0.00e+00	0	57	0	514850816	50	4885
2026-01-03 08:18:33.36	31.96	19.14	-39.0	-41.3	16.6	0.00e+00	0	57	0	521142272	50	4451
2026-01-03 08:18:36.39	31.26	19.02	-39.2	-41.6	16.3	0.00e+00	0	56	0	526385152	50	4611
2026-01-03 08:18:39.42	30.57	18.91	-39.2	-41.6	16.3	0.00e+00	0	57	0	532676608	50	4609
2026-01-03 08:18:42.45	29.88	18.79	-38.9	-41.2	16.7	0.00e+00	0	56	0	537919488	49	4663
2026-01-03 08:18:45.48	29.19	18.66	-38.4	-40.5	17.3	0.00e+00	0	57	0	544210944	48	4573
2026-01-03 08:18:48.51	28.51	18.53	-38.2	-40.2	17.6	0.00e+00	0	56	0	549453824	48	4428
2026-01-03 08:18:51.54	27.84	18.40	-38.4	-40.5	17.4	0.00e+00	0	56	0	554696704	48	4556
2026-01-03 08:18:54.57	27.17	18.27	-39.3	-41.8	16.1	0.00e+00	0	57	0	560988160	49	4997
2026-01-03 08:18:57.59	26.51	18.13	-40.1	-43.1	14.8	0.00e+00	0	57	0	566231040	50	5514
2026-01-03 08:19:00.63	25.85	17.99	-39.7	-42.4	15.4	0.00e+00	0	56	0	572522496	50	5069
2026-01-03 08:19:03.66	25.20	17.84	-40.5	-43.8	14.1	0.00e+00	0	56	0	577765376	51	5625
2026-01-03 08:19:06.69	24.56	17.70	-40.4	-43.8	14.0	3.80e-06	0	56	0	583008256	52	5286
2026-01-03 08:19:09.71	23.93	17.55	-40.1	-43.1	14.7	7.00e-07	0	56	0	589299712	52	4882
2026-01-03 08:19:12.74	23.30	17.40	-39.0	-41.4	16.4	0.00e+00	0	56	0	594542592	50	4525
2026-01-03 08:19:15.77	22.67	17.24	-38.7	-41.0	16.8	0.00e+00	0	56	0	600834048	49	4587
2026-01-03 08:19:18.80	22.06	17.08	-38.8	-41.2	16.6	0.00e+00	0	56	0	606076928	49	4675
2026-01-03 08:19:21.83	21.45	16.92	-39.3	-41.9	15.9	0.00e+00	0	57	0	612368384	49	5098
2026-01-03 08:19:24.86	20.84	16.76	-39.1	-41.5	16.3	0.00e+00	0	57	0	617611264	49	4861
2026-01-03 08:19:27.88	20.25	16.60	-38.6	-40.9	16.8	0.00e+00	0	57	0	622854144	48	4798
2026-01-03 08:19:30.91	19.66	16.43	-39.1	-41.5	16.2	0.00e+00	0	57	0	629145600	48	5153
2026-01-03 08:19:33.94	19.07	16.26	-40.2	-43.4	14.4	0.00e+00	0	56	0	634388480	50	5686
2026-01-03 08:19:36.97	18.49	16.09	-40.3	-43.5	14.2	7.00e-07	0	57	0	640679936	51	5462
2026-01-03 08:19:40.00	17.92	15.92	-39.7	-42.5	15.2	0.00e+00	0	57	0	645922816	51	4839
2026-01-03 08:19:43.03	17.36	15.75	-39.6	-42.3	15.4	0.00e+00	0	57	0	651165696	50	5027
2026-01-03 08:19:46.06	16.80	15.58	-39.6	-42.4	15.4	0.00e+00	0	57	0	657457152	50	5061
2026-01-03 08:19:49.08	16.25	15.40	-39.5	-42.2	15.6	0.00e+00	0	56	0	662700032	50	4950
2026-01-03 08:19:52.11	15.71	15.22	-40.0	-43.0	14.8	0.00e+00	0	56	0	668991488	50	5414
2026-01-03 08:19:55.14	15.17	15.04	-40.1	-43.2	14.6	0.00e+00	0	57	0	674234368	51	5235
2026-01-03 08:19:58.17	14.64	14.86	-39.6	-42.3	15.4	0.00e+00	0	57	0	680525824	51	4752
2026-01-03 08:20:01.20	14.12	14.68	-39.4	-42.0	15.7	0.00e+00	0	56	0	685768704	50	4852
2026-01-03 08:20:04.23	13.60	14.50	-39.6	-42.4	15.4	0.00e+00	0	56	0	691011584	50	5071
2026-01-03 08:20:07.25	13.09	14.32	-39.7	-42.5	15.2	0.00e+00	0	57	0	697303040	50	5151
2026-01-03 08:20:10.28	12.58	14.13	-39.6	-42.3	15.4	0.00e+00	0	57	0	702545920	50	5040
2026-01-03 08:20:13.31	12.08	13.95	-39.1	-41.6	16.0	0.00e+00	0	57	0	708837376	50	4616
2026-01-03 08:20:16.35	11.59	13.76	-38.9	-41.2	16.4	0.00e+00	0	56	0	714080256	49	4684
2026-01-03 08:20:19.37	11.11	13.58	-38.8	-41.1	16.5	0.00e+00	0	57	0	719323136	49	4646
2026-01-03 08:20:22.40	10.63	13.39	-38.2	-40.3	17.3	0.00e+00	0	57	0	725614592	48	4463
2026-01-03 08:20:25.43	10.15	13.20	-38.1	-40.1	17.4	0.00e+00	0	57	0	730857472	48	4367
2026-01-03 08:20:28.46	9.68	13.02	-38.5	-40.7	16.9	0.00e+00	0	56	0	737148928	48	4653
2026-01-03 08:20:31.49	9.22	12.83	-39.0	-41.4	16.0	0.00e+00	0	57	0	742391808	48	5065
2026-01-03 08:20:34.52	8.77	12.64	-38.8	-41.3	16.1	0.00e+00	0	57	0	748683264	48	4991
2026-01-03 08:20:37.55	8.32	12.45	-38.5	-40.8	16.5	0.00e+00	0	57	0	753926144	48	4714
2026-01-03 08:20:40.58	7.87	12.26	-37.9	-40.0	17.0	0.00e+00	0	57	0	759169024	47	4569
2026-01-03 08:20:43.61	7.44	12.07	-38.1	-40.5	16.3	0.00e+00	0	57	0	765460480	47	4816
2026-01-03 08:20:46.64	7.00	11.88	-39.8	-43.6	12.6	2.59e-05	0	57	0	770703360	50	5793
2026-01-03 08:20:49.67	6.58	11.69	-40.7	-47.1	8.1	3.66e-02	0	57	0	776994816	52	7789
2026-01-03 08:20:52.70	6.16	11.50	-40.8	-51.2	4.5	8.77e-01	0	57	0	782237696	52	12500
2026-01-03 08:20:55.72	5.74	11.31	-40.5	-52.5	4.0	1.47e+00	0	57	104	783286272	52	14471
2026-01-03 08:20:58.75	5.33	11.12	-40.2	-53.7	3.8	1.49e+00	0	57	104	783286272	52	16575
2026-01-03 08:21:01.78	4.93	10.93	-40.2	-54.1	3.8	1.49e+00	0	57	104	783286272	51	18346
2026-01-03 08:21:04.81	4.53	10.75	-40.2	-54.6	3.8	1.49e+00	0	57	104	783286272	51	19532
2026-01-03 08:21:07.84	4.13	10.56	-40.1	-54.7	3.8	1.49e+00	0	57	104	783286272	51	19647
2026-01-03 08:21:10.87	3.74	10.37	-40.0	-54.6	3.8	1.49e+00	0	57	104	783286272	51	19449
2026-01-03 08:21:13.90	3.36	10.18	-40.0	-54.6	3.8	1.49e+00	0	57	104	783286272	51	19468
2026-01-03 08:21:16.93	2.98	9.99	-39.8	-54.4	3.8	1.49e+00	0	57	104	783286272	51	19091
2026-01-03 08:21:19.96	2.61	9.80	-39.9	-54.5	3.8	1.49e+00	0	57	104	783286272	51	19381
2026-01-03 08:21:22.99	2.24	9.61	-39.9	-54.5	3.8	1.49e+00	0	57	104	783286272	51	19288
2026-01-03 08:21:26.02	1.88	9.42	-39.5	-54.5	3.8	1.49e+00	0	57	104	783286272	51	19237
2026-01-03 08:21:29.05	1.52	9.24	-39.9	-54.5	3.8	1.49e+00	0	57	104	783286272	50	20469
2026-01-03 08:21:32.08	1.16	9.05	-39.8	-54.5	3.8	1.49e+00	0	57	104	783286272	50	20388
2026-01-03 08:21:35.11	0.81	8.86	-39.7	-54.5	3.8	1.49e+00	0	57	104	783286272	50	20463
2026-01-03 08:21:38.14	0.47	8.67	-39.7	-54.5	3.8	1.49e+00	0	57	104	783286272	50	20515
2026-01-03 08:21:41.17	0.13	8.49	-39.6	-54.5	3.8	1.49e+00	0	57	104	783286272	50	20310
2026-01-03 08:21:44.20	359.79	8.30	-39.5	-54.5	3.8	1.49e+00	0	57	104	783286272	50	20438
2026-01-03 08:21:47.22	359.46	8.12	-39.4	-54.5	3.8	1.49e+00	0	57	104	783286272	50	20479
2026-01-03 08:21:50.26	359.13	7.93	-39.9	-54.5	3.8	1.49e+00	0	57	104	783286272	50	20402
2026-01-03 08:21:53.29	358.81	7.75	-45.0	-59.7	3.8	1.49e+00	0	57	104	783286272	60	20790
2026-01-03 08:21:56.32	358.49	7.56	-45.2	-59.9	3.8	1.49e+00	0	57	104	783286272	61	20181
2026-01-03 08:21:59.35	358.18	7.38	-45.3	-59.9	3.8	1.49e+00	0	57	104	783286272	61	20169
2026-01-03 08:22:02.39	357.87	7.20	-45.2	-59.7	3.8	1.49e+00	0	57	104	783286272	61	19764
2026-01-03 08:22:05.42	357.56	7.01	-45.1	-59.6	3.8	1.49e+00	0	57	104	783286272	61	19533
2026-01-03 08:22:08.45	357.26	6.83	-45.1	-59.6	3.8	1.49e+00	0	57	104	783286272	61	19450
2026-01-03 08:22:11.49	356.96	6.65	-45.1	-59.6	3.8	1.49e+00	0	57	104	783286272	61	19408
2026-01-03 08:22:14.52	356.66	6.47	-45.0	-59.6	3.8	1.49e+00	0	57	104	783286272	61	19403
2026-01-03 08:22:17.55	356.37	6.29	-45.0	-59.6	3.8	1.49e+00	0	57	104	783286272	61	19472
2026-01-03 08:22:20.59	356.08	6.11	-45.0	-59.6	3.8	1.49e+00	0	57	104	783286272	61	19410
2026-01-03 08:22:23.62	355.80	5.93	-45.0	-59.6	3.8	1.49e+00	0	57	104	783286272	61	19394
2026-01-03 08:22:26.65	355.52	5.75	-45.0	-59.5	3.8	1.49e+00	0	57	104	783286272	61	19385
2026-01-03 08:22:29.69	355.24	5.57	-45.0	-59.5	3.8	1.49e+00	0	57	104	783286272	61	19345
2026-01-03 08:22:32.72	354.97	5.39	-45.0	-59.5	3.8	1.49e+00	0	57	104	783286272	61	19361
2026-01-03 08:22:35.75	354.70	5.22	-45.0	-59.5	3.8	1.49e+00	0	57	104	783286272	61	19281
2026-01-03 08:22:38.79	354.43	5.04	-45.0	-59.5	3.8	1.49e+00	0	57	104	783286272	61	19342
2026-01-03 08:22:41.82	354.17	4.86	-45.0	-59.5	3.8	1.49e+00	0	57	104	783286272	61	19299
2026-01-03 08:22:44.85	353.91	4.69	-45.0	-59.5	3.8	1.49e+00	0	57	104	783286272	61	19310
2026-01-03 08:22:47.89	353.65	4.51	-45.0	-59.5	3.8	1.49e+00	0	57	104	783286272	61	19334
2026-01-03 08:22:50.92	353.40	4.34	-45.0	-59.5	3.8	1.49e+00	0	57	104	783286272	61	19362
2026-01-03 08:22:53.95	353.15	4.16	-45.0	-59.5	3.8	1.49e+00	0	57	104	783286272	61	19331
2026-01-03 08:22:56.98	352.90	3.99	-45.0	-59.5	3.8	1.49e+00	0	57	104	783286272	61	19314
2026-01-03 08:23:00.02	352.66	3.82	-45.0	-59.5	3.8	1.49e+00	0	57	104	783286272	61	19294
2026-01-03 08:23:03.05	352.42	3.65	-45.0	-59.5	3.8	1.49e+00	0	57	104	783286272	61	19283
2026-01-03 08:23:06.09	352.18	3.48	-45.0	-59.5	3.8	1.49e+00	0	57	104	783286272	61	19331
2026-01-03 08:23:09.12	351.94	3.31	-45.0	-59.5	3.8	1.49e+00	0	57	104	783286272	61	19310
2026-01-03 08:23:12.15	351.71	3.14	-45.0	-59.5	3.8	1.49e+00	0	57	104	783286272	61	19270
2026-01-03 08:23:15.18	351.48	2.97	-45.0	-59.5	3.8	1.49e+00	0	57	104	783286272	61	19294
2026-01-03 08:23:18.22	351.25	2.80	-45.0	-59.5	3.8	1.49e+00	0	57	104	783286272	61	19282
2026-01-03 08:23:21.25	351.03	2.63	-45.0	-59.5	3.8	1.49e+00	0	57	104	783286272	61	19304
2026-01-03 08:23:24.28	350.81	2.46	-45.0	-59.5	3.8	1.49e+00	0	57	104	783286272	61	19287
2026-01-03 08:23:27.32	350.59	2.29	-45.0	-59.5	3.8	1.49e+00	0	57	104	783286272	61	19247
2026-01-03 08:23:30.35	350.37	2.13	-45.0	-59.5	3.8	1.49e+00	0	57	104	783286272	61	19259
2026-01-03 08:23:33.38	350.16	1.96	-45.0	-59.5	3.8	1.49e+00	0	57	104	783286272	61	19262

#Closed at: 2026-01-03 08:23:34
#Recorded file [783 MB]: D:/lorett/data/31039_260103_111119.dat