passes_logs/2026/01/03/R2.0S_Moscow/R2.0S_Moscow__20260103_220025_SUOMI_NPP_rec.log

#Pass ID: 20260103_220025_SUOMI NPP
#Satellite: SUOMI NPP
#Configuration: NPP
#almurnet v.1.7.20251203
#Start time: 2026-01-03 22:00:25

#Version: 2.2.20231116
#Station: R2.0S_Moscow
#Location: 37.707566 lon 55.798166 lat
#TLE: 1 37849U 11061A   26001.07732418  .00000182  00000+0  10735-3 0  9990
#TLE: 2 37849  98.7795 303.2470 0002580  87.2016 272.9455 14.19520779734739

#Time	Az	El	Level	Level2	SNR	BER	BlckErr	Temp	State	Recorded	gain1	gain2
2026-01-03 22:00:25.03	27.42	1.98	-42.1	-57.0	3.8	1.49e+00	0	47	0	0	56	19268
2026-01-03 22:00:28.05	27.66	2.14	-42.0	-56.8	3.8	1.49e+00	0	47	104	0	55	20055
2026-01-03 22:00:31.09	27.92	2.30	-41.9	-56.8	3.8	1.49e+00	0	47	104	0	55	19970
2026-01-03 22:00:34.12	28.17	2.45	-41.9	-56.8	3.8	1.49e+00	0	47	104	0	55	20003
2026-01-03 22:00:37.15	28.42	2.61	-41.9	-56.8	3.8	1.49e+00	0	48	104	0	55	19966
2026-01-03 22:00:40.19	28.68	2.76	-41.9	-56.8	3.8	1.49e+00	0	48	104	0	55	20051
2026-01-03 22:00:43.22	28.94	2.92	-41.9	-56.8	3.8	1.49e+00	0	48	104	0	55	20063
2026-01-03 22:00:46.25	29.21	3.08	-41.9	-56.8	3.8	1.49e+00	0	49	104	0	55	19981
2026-01-03 22:00:49.29	29.47	3.24	-41.9	-56.8	3.8	1.49e+00	0	48	104	0	55	19972
2026-01-03 22:00:52.32	29.74	3.40	-41.9	-56.8	3.8	1.49e+00	0	49	104	0	55	20015
2026-01-03 22:00:55.35	30.01	3.56	-41.9	-56.8	3.8	1.49e+00	0	49	104	0	55	19972
2026-01-03 22:00:58.39	30.29	3.72	-41.9	-56.8	3.8	1.49e+00	0	49	104	0	55	20035
2026-01-03 22:01:01.42	30.57	3.88	-41.9	-56.8	3.8	1.49e+00	0	49	104	0	55	19964
2026-01-03 22:01:04.46	30.85	4.04	-41.9	-56.8	3.8	1.49e+00	0	49	104	0	55	19990
2026-01-03 22:01:07.49	31.13	4.20	-41.9	-56.8	3.8	1.49e+00	0	50	104	0	55	20018
2026-01-03 22:01:10.52	31.42	4.36	-41.9	-56.8	3.8	1.49e+00	0	50	104	0	55	20047
2026-01-03 22:01:13.55	31.70	4.52	-41.9	-56.8	3.8	1.49e+00	0	50	104	0	55	19971
2026-01-03 22:01:16.59	32.00	4.68	-41.9	-56.8	3.8	1.49e+00	0	50	104	0	55	19992
2026-01-03 22:01:19.62	32.29	4.84	-41.9	-56.8	3.8	1.49e+00	0	50	104	0	55	20000
2026-01-03 22:01:22.66	32.59	5.01	-41.9	-56.8	3.8	1.49e+00	0	50	104	0	55	19975
2026-01-03 22:01:25.69	32.89	5.17	-41.9	-56.8	3.8	1.49e+00	0	50	104	0	55	20064
2026-01-03 22:01:28.72	33.20	5.33	-41.9	-56.8	3.8	1.49e+00	0	51	104	0	55	20026
2026-01-03 22:01:31.75	33.51	5.50	-41.9	-56.8	3.8	1.49e+00	0	51	104	0	55	19997
2026-01-03 22:01:34.79	33.82	5.66	-41.9	-56.8	3.8	1.49e+00	0	51	104	0	55	19945
2026-01-03 22:01:37.82	34.13	5.83	-41.9	-56.8	3.8	1.49e+00	0	51	104	0	55	19960
2026-01-03 22:01:40.85	34.45	5.99	-42.0	-56.8	3.8	1.49e+00	0	51	104	0	55	19993
2026-01-03 22:01:43.89	34.77	6.16	-41.9	-56.8	3.8	1.49e+00	0	52	104	0	55	20025
2026-01-03 22:01:46.92	35.10	6.32	-41.9	-56.8	3.8	1.49e+00	0	51	104	0	55	20030
2026-01-03 22:01:49.95	35.43	6.49	-41.9	-56.8	3.8	1.49e+00	0	52	104	0	55	20033
2026-01-03 22:01:52.99	35.76	6.65	-42.0	-56.8	3.8	1.49e+00	0	52	104	0	55	20065
2026-01-03 22:01:56.02	36.09	6.82	-42.0	-56.8	3.8	1.49e+00	0	52	104	0	55	19968
2026-01-03 22:01:59.05	36.43	6.99	-42.0	-56.8	3.8	1.49e+00	0	52	104	0	55	19957
2026-01-03 22:02:02.08	36.78	7.15	-41.9	-56.8	3.8	1.49e+00	0	52	104	0	55	19980
2026-01-03 22:02:05.12	37.13	7.32	-41.9	-56.8	3.8	1.49e+00	0	52	104	0	55	19992
2026-01-03 22:02:08.15	37.48	7.49	-41.9	-55.9	3.8	1.49e+00	0	52	104	0	55	17897
2026-01-03 22:02:11.18	37.83	7.65	-41.4	-50.6	5.3	9.44e-01	0	52	0	1048576	54	10382
2026-01-03 22:02:14.22	38.19	7.82	-39.9	-44.7	10.9	8.75e-03	0	52	0	6291456	51	6230
2026-01-03 22:02:17.25	38.55	7.99	-39.4	-43.5	12.2	1.40e-04	0	53	0	12582912	50	5749
2026-01-03 22:02:20.28	38.92	8.16	-40.5	-45.4	10.6	1.12e-02	0	53	0	17825792	52	6411
2026-01-03 22:02:23.31	39.29	8.33	-41.1	-46.3	10.0	7.02e-03	0	53	0	24117248	53	6697
2026-01-03 22:02:26.34	39.67	8.50	-40.1	-44.0	12.3	1.46e-04	0	53	0	29360128	52	5457
2026-01-03 22:02:29.37	40.04	8.66	-40.2	-44.3	12.2	1.94e-04	0	53	0	34603008	52	5593
2026-01-03 22:02:32.39	40.43	8.83	-40.2	-44.1	12.4	1.99e-04	0	53	0	40894464	52	5468
2026-01-03 22:02:35.42	40.81	9.00	-40.2	-44.2	12.4	1.28e-04	0	53	0	46137344	52	5533
2026-01-03 22:02:38.45	41.21	9.17	-40.4	-44.5	12.1	2.33e-04	0	53	0	52428800	52	5731
2026-01-03 22:02:41.48	41.60	9.34	-40.4	-44.5	12.1	3.57e-04	0	53	0	57671680	52	5758
2026-01-03 22:02:44.51	42.00	9.50	-40.4	-44.4	12.3	3.41e-04	0	53	0	63963136	52	5669
2026-01-03 22:02:47.54	42.41	9.67	-40.6	-44.7	11.9	2.04e-04	0	53	0	69206016	52	5889
2026-01-03 22:02:50.56	42.82	9.84	-40.5	-44.4	12.3	1.86e-04	0	53	0	74448896	52	5717
2026-01-03 22:02:53.59	43.23	10.01	-40.4	-44.1	12.8	9.15e-05	0	54	0	80740352	52	5488
2026-01-03 22:02:56.62	43.65	10.18	-40.2	-43.7	13.2	1.37e-05	0	53	0	85983232	52	5224
2026-01-03 22:02:59.65	44.08	10.34	-40.0	-43.2	13.8	3.80e-06	0	54	0	92274688	51	5262
2026-01-03 22:03:02.67	44.50	10.51	-40.0	-43.2	13.9	6.10e-06	0	54	0	97517568	51	5230
2026-01-03 22:03:05.70	44.94	10.68	-40.0	-43.2	13.9	1.50e-06	0	54	0	102760448	51	5236
2026-01-03 22:03:08.73	45.37	10.85	-39.5	-42.4	14.7	0.00e+00	0	54	0	109051904	51	4810
2026-01-03 22:03:11.76	45.82	11.01	-39.3	-42.0	15.2	0.00e+00	0	54	0	114294784	50	4852
2026-01-03 22:03:14.79	46.26	11.18	-39.4	-42.3	14.9	7.00e-07	0	54	0	120586240	50	4984
2026-01-03 22:03:17.82	46.72	11.34	-39.6	-42.6	14.6	0.00e+00	0	54	0	125829120	50	5205
2026-01-03 22:03:20.85	47.17	11.51	-39.6	-42.6	14.6	0.00e+00	0	54	0	132120576	50	5185
2026-01-03 22:03:23.88	47.64	11.67	-39.5	-42.3	14.9	0.00e+00	0	54	0	137363456	50	5018
2026-01-03 22:03:26.91	48.11	11.84	-39.5	-42.3	15.0	0.00e+00	0	54	0	142606336	50	5013
2026-01-03 22:03:29.94	48.58	12.00	-39.4	-42.3	15.0	0.00e+00	0	54	0	148897792	50	5002
2026-01-03 22:03:32.97	49.06	12.17	-39.4	-42.1	15.1	0.00e+00	0	54	0	154140672	50	4914
2026-01-03 22:03:36.00	49.54	12.33	-39.4	-42.2	15.1	0.00e+00	0	54	0	160432128	50	4966
2026-01-03 22:03:39.03	50.03	12.49	-39.5	-42.4	14.9	0.00e+00	0	54	0	165675008	50	5078
2026-01-03 22:03:42.05	50.52	12.65	-39.5	-42.4	14.9	0.00e+00	0	54	0	170917888	50	5072
2026-01-03 22:03:45.08	51.02	12.81	-39.5	-42.4	14.9	0.00e+00	0	54	0	177209344	50	5062
2026-01-03 22:03:48.11	51.52	12.97	-39.5	-42.4	14.9	0.00e+00	0	54	0	182452224	50	5051
2026-01-03 22:03:51.14	52.03	13.13	-39.7	-42.7	14.6	0.00e+00	0	55	0	188743680	50	5243
2026-01-03 22:03:54.17	52.55	13.28	-39.9	-43.0	14.4	1.50e-06	0	55	0	193986560	50	5413
2026-01-03 22:03:57.19	53.07	13.44	-39.9	-43.0	14.3	7.00e-07	0	55	0	200278016	50	5424
2026-01-03 22:04:00.22	53.59	13.59	-39.8	-42.8	14.5	7.00e-07	0	55	0	205520896	50	5307
2026-01-03 22:04:03.25	54.12	13.75	-40.2	-43.5	13.9	1.50e-06	0	55	0	210763776	50	5740
2026-01-03 22:04:06.28	54.66	13.90	-40.3	-43.6	13.7	6.80e-06	0	55	0	217055232	51	5513
2026-01-03 22:04:09.31	55.20	14.05	-40.2	-43.5	13.9	1.50e-06	0	55	0	222298112	51	5428
2026-01-03 22:04:12.33	55.75	14.20	-40.1	-43.4	13.9	2.20e-06	0	55	0	228589568	51	5364
2026-01-03 22:04:15.36	56.30	14.35	-40.0	-43.2	14.2	3.00e-06	0	55	0	233832448	51	5246
2026-01-03 22:04:18.39	56.86	14.49	-40.3	-43.6	13.7	5.30e-06	0	55	0	239075328	51	5500
2026-01-03 22:04:21.42	57.42	14.64	-40.5	-44.0	13.3	1.60e-05	0	55	0	245366784	51	5750
2026-01-03 22:04:24.45	57.99	14.78	-40.2	-43.5	13.8	8.30e-06	0	55	0	250609664	51	5441
2026-01-03 22:04:27.48	58.56	14.92	-40.0	-43.1	14.3	2.20e-06	0	55	0	256901120	51	5184
2026-01-03 22:04:30.51	59.14	15.06	-40.2	-43.6	13.7	3.00e-06	0	55	0	262144000	51	5508
2026-01-03 22:04:33.54	59.73	15.20	-40.4	-43.9	13.4	1.52e-05	0	55	0	268435456	51	5659
2026-01-03 22:04:36.57	60.32	15.33	-40.5	-44.0	13.3	1.06e-05	0	55	0	273678336	51	5759
2026-01-03 22:04:39.60	60.91	15.47	-40.6	-44.2	13.1	2.89e-05	0	55	0	278921216	51	5877
2026-01-03 22:04:42.63	61.51	15.60	-40.4	-43.7	13.6	1.14e-05	0	55	0	285212672	51	5581
2026-01-03 22:04:45.67	62.12	15.73	-40.2	-43.4	13.9	2.20e-06	0	55	0	290455552	51	5355
2026-01-03 22:04:48.70	62.73	15.85	-40.5	-44.1	13.1	2.21e-05	0	55	0	296747008	51	5828
2026-01-03 22:04:51.73	63.34	15.98	-40.3	-43.7	13.5	1.37e-05	0	55	0	301989888	51	5558
2026-01-03 22:04:54.75	63.96	16.10	-39.9	-43.1	14.1	7.00e-07	0	55	0	307232768	51	5186
2026-01-03 22:04:57.78	64.59	16.22	-39.9	-43.0	14.1	3.80e-06	0	55	0	313524224	51	5140
2026-01-03 22:05:00.81	65.22	16.33	-39.8	-42.9	14.2	1.50e-06	0	55	0	318767104	51	5053
2026-01-03 22:05:03.83	65.85	16.45	-39.9	-43.1	13.8	2.20e-06	0	55	0	325058560	51	5203
2026-01-03 22:05:06.86	66.49	16.56	-39.9	-43.2	13.7	6.10e-06	0	55	0	330301440	51	5233
2026-01-03 22:05:09.89	67.14	16.67	-39.7	-42.9	13.7	1.22e-05	0	55	0	336592896	51	5076
2026-01-03 22:05:12.92	67.78	16.77	-39.8	-43.3	13.0	2.21e-05	0	55	0	341835776	51	5335
2026-01-03 22:05:15.95	68.44	16.87	-40.2	-44.6	11.4	7.37e-04	0	55	0	347078656	51	6152
2026-01-03 22:05:18.98	69.10	16.97	-40.2	-45.1	10.4	4.80e-03	0	55	0	353370112	51	6558
2026-01-03 22:05:22.00	69.75	17.07	-40.2	-45.6	9.5	1.42e-02	0	55	0	358612992	51	6893
2026-01-03 22:05:25.03	70.42	17.16	-40.0	-45.5	9.4	1.74e-02	0	56	0	364904448	51	6816
2026-01-03 22:05:28.06	71.09	17.25	-39.7	-45.2	9.3	1.95e-02	0	56	0	370147328	51	6630
2026-01-03 22:05:31.09	71.76	17.33	-40.0	-46.4	8.1	6.39e-02	0	56	0	375390208	51	7584
2026-01-03 22:05:34.12	72.44	17.41	-40.1	-46.8	7.6	1.01e-01	0	56	0	381681664	51	7959
2026-01-03 22:05:37.15	73.12	17.49	-39.9	-46.2	8.2	5.22e-02	0	55	0	386924544	51	7392
2026-01-03 22:05:40.18	73.81	17.57	-40.1	-46.7	7.7	8.18e-02	0	56	0	393216000	51	7857
2026-01-03 22:05:43.21	74.49	17.64	-40.0	-46.2	8.3	6.05e-02	0	56	0	398458880	51	7429
2026-01-03 22:05:46.24	75.18	17.70	-40.0	-46.1	8.5	4.38e-02	0	56	0	404750336	51	7306
2026-01-03 22:05:49.27	75.88	17.77	-40.1	-46.0	8.7	3.59e-02	0	56	0	409993216	51	7253
2026-01-03 22:05:52.31	76.58	17.83	-40.0	-45.6	9.1	1.92e-02	0	56	0	415236096	51	6943
2026-01-03 22:05:55.34	77.27	17.88	-40.4	-46.7	8.2	5.33e-02	0	56	0	421527552	51	7828
2026-01-03 22:05:58.37	77.98	17.93	-40.4	-47.1	7.6	9.10e-02	0	56	0	426770432	51	8222
2026-01-03 22:06:01.40	78.68	17.98	-40.4	-47.0	7.7	1.03e-01	0	56	0	433061888	51	8139
2026-01-03 22:06:04.43	79.39	18.02	-40.4	-46.9	7.9	7.29e-02	0	56	0	438304768	51	8019
2026-01-03 22:06:07.46	80.09	18.06	-40.1	-45.3	9.6	1.69e-02	0	56	0	443547648	51	6703
2026-01-03 22:06:10.49	80.80	18.10	-40.1	-44.8	10.8	3.67e-03	0	56	0	449839104	51	6278
2026-01-03 22:06:13.52	81.51	18.13	-40.2	-44.4	11.7	5.81e-04	0	56	0	455081984	51	6000
2026-01-03 22:06:16.54	82.22	18.15	-40.2	-44.3	11.9	3.33e-04	0	56	0	461373440	51	5925
2026-01-03 22:06:19.57	82.94	18.17	-40.3	-44.5	11.5	8.22e-04	0	56	0	466616320	51	6103
2026-01-03 22:06:22.59	83.65	18.19	-40.3	-44.5	11.5	6.90e-04	0	56	0	472907776	51	6091
2026-01-03 22:06:25.62	84.36	18.21	-40.5	-45.2	10.5	3.29e-03	0	56	0	478150656	51	6632
2026-01-03 22:06:28.65	85.08	18.21	-40.3	-45.1	10.4	4.34e-03	0	56	0	483393536	51	6569
2026-01-03 22:06:31.68	85.80	18.22	-40.3	-45.0	10.5	3.14e-03	0	56	0	489684992	51	6486
2026-01-03 22:06:34.71	86.51	18.22	-40.4	-45.4	10.1	5.65e-03	0	56	0	494927872	51	6740
2026-01-03 22:06:37.74	87.23	18.22	-40.5	-45.7	9.8	1.10e-02	0	56	0	501219328	51	6981
2026-01-03 22:06:40.77	87.94	18.21	-40.6	-45.5	10.2	5.83e-03	0	56	0	506462208	51	6818
2026-01-03 22:06:43.80	88.66	18.20	-40.6	-45.1	11.1	1.73e-03	0	56	0	511705088	51	6495
2026-01-03 22:06:46.83	89.38	18.18	-40.5	-44.5	11.8	7.59e-04	0	56	0	517996544	52	5739
2026-01-03 22:06:49.85	90.09	18.16	-40.4	-44.2	12.4	1.46e-04	0	56	0	523239424	52	5551
2026-01-03 22:06:52.88	90.80	18.13	-40.1	-43.4	13.5	2.13e-05	0	56	0	529530880	52	5075
2026-01-03 22:06:55.91	91.51	18.10	-39.8	-42.7	14.4	7.00e-07	0	56	0	534773760	51	4973
2026-01-03 22:06:58.94	92.22	18.07	-39.4	-42.0	15.3	0.00e+00	0	56	0	541065216	50	4840
2026-01-03 22:07:01.96	92.93	18.03	-40.0	-42.8	14.6	0.00e+00	0	56	0	546308096	50	5309
2026-01-03 22:07:04.99	93.64	17.99	-40.4	-43.5	13.9	3.80e-06	0	56	0	551550976	51	5459
2026-01-03 22:07:08.02	94.34	17.94	-40.4	-43.6	13.9	3.80e-06	0	56	0	557842432	51	5468
2026-01-03 22:07:11.05	95.05	17.89	-40.4	-43.5	13.9	3.80e-06	0	56	0	563085312	51	5450
2026-01-03 22:07:14.08	95.75	17.84	-40.0	-42.8	14.6	7.00e-07	0	56	0	569376768	51	5040
2026-01-03 22:07:17.11	96.44	17.78	-40.0	-42.8	14.7	1.50e-06	0	56	0	574619648	51	4999
2026-01-03 22:07:20.14	97.14	17.72	-40.3	-43.3	14.2	2.20e-06	0	56	0	579862528	51	5328
2026-01-03 22:07:23.17	97.83	17.65	-40.1	-43.0	14.5	0.00e+00	0	56	0	586153984	51	5144
2026-01-03 22:07:26.20	98.52	17.58	-39.9	-42.7	14.8	0.00e+00	0	56	0	591396864	51	4940
2026-01-03 22:07:29.23	99.21	17.51	-39.9	-42.7	14.8	3.00e-06	0	56	0	597688320	50	5261
2026-01-03 22:07:32.25	99.89	17.43	-39.8	-42.5	15.0	0.00e+00	0	56	0	602931200	50	5110
2026-01-03 22:07:35.28	100.57	17.35	-39.4	-41.9	15.5	0.00e+00	0	56	0	609222656	50	4798
2026-01-03 22:07:38.31	101.25	17.26	-39.6	-42.2	15.3	0.00e+00	0	56	0	614465536	50	4940
2026-01-03 22:07:41.34	101.92	17.17	-39.5	-42.1	15.4	0.00e+00	0	56	0	619708416	50	4899
2026-01-03 22:07:44.37	102.59	17.08	-39.5	-42.1	15.4	0.00e+00	0	56	0	625999872	50	4904
2026-01-03 22:07:47.40	103.25	16.99	-39.6	-42.2	15.3	0.00e+00	0	56	0	631242752	50	4943
2026-01-03 22:07:50.42	103.91	16.89	-39.7	-42.3	15.2	0.00e+00	0	56	0	637534208	50	5027
2026-01-03 22:07:53.45	104.57	16.79	-39.9	-42.7	14.8	0.00e+00	0	56	0	642777088	50	5247
2026-01-03 22:07:56.48	105.22	16.68	-39.9	-42.6	14.9	0.00e+00	0	56	0	648019968	50	5199
2026-01-03 22:07:59.52	105.87	16.58	-39.5	-42.0	15.3	0.00e+00	0	56	0	654311424	50	4862
2026-01-03 22:08:02.55	106.51	16.46	-39.7	-42.4	15.1	0.00e+00	0	56	0	659554304	50	5071
2026-01-03 22:08:05.57	107.15	16.35	-39.8	-42.5	15.0	0.00e+00	0	56	0	665845760	50	5123
2026-01-03 22:08:08.60	107.78	16.24	-39.7	-42.4	15.0	0.00e+00	0	57	0	671088640	50	5071
2026-01-03 22:08:11.63	108.41	16.12	-40.4	-43.5	14.0	0.00e+00	0	56	0	677380096	51	5438
2026-01-03 22:08:14.66	109.03	15.99	-40.6	-43.8	13.5	2.21e-05	0	56	0	682622976	52	5333
2026-01-03 22:08:17.69	109.65	15.87	-40.1	-43.1	14.3	7.00e-07	0	57	0	687865856	52	4881
2026-01-03 22:08:20.72	110.27	15.74	-39.7	-42.4	15.1	0.00e+00	0	56	0	694157312	51	4770
2026-01-03 22:08:23.75	110.87	15.61	-39.8	-42.4	15.0	0.00e+00	0	56	0	699400192	51	4803
2026-01-03 22:08:26.78	111.48	15.48	-40.0	-42.8	14.6	0.00e+00	0	56	0	705691648	51	5040
2026-01-03 22:08:29.81	112.08	15.35	-40.5	-43.6	13.7	3.58e-05	0	57	0	710934528	51	5523
2026-01-03 22:08:32.84	112.67	15.21	-41.2	-45.0	12.3	8.15e-04	0	56	0	716177408	52	6111
2026-01-03 22:08:35.87	113.26	15.07	-41.0	-44.7	12.4	6.24e-04	0	56	0	722468864	52	5909
2026-01-03 22:08:38.90	113.84	14.93	-40.7	-44.0	13.2	1.37e-04	0	57	0	727711744	51	5755
2026-01-03 22:08:41.93	114.42	14.79	-40.3	-43.4	13.7	6.22e-04	0	56	0	734003200	51	5361
2026-01-03 22:08:44.96	114.99	14.65	-39.9	-43.1	14.3	1.18e-03	0	56	0	739246080	50	5490
2026-01-03 22:08:47.99	115.56	14.50	-40.6	-44.1	12.9	7.27e-04	0	57	0	745537536	51	5820
2026-01-03 22:08:51.02	116.12	14.36	-39.9	-44.6	12.3	3.60e-03	0	57	0	750780416	51	6164
2026-01-03 22:08:54.05	116.67	14.21	-40.2	-44.0	13.2	3.71e-03	0	57	0	756023296	51	5751
2026-01-03 22:08:57.08	117.22	14.06	-40.2	-43.6	13.2	1.10e-02	0	56	0	762314752	50	5853
2026-01-03 22:09:00.11	117.77	13.91	-39.0	-43.3	13.1	4.43e-03	0	57	0	767557632	49	5981
2026-01-03 22:09:03.14	118.31	13.75	-32.3	-41.2	5.9	2.05e-01	0	56	0	773849088	31	13225
2026-01-03 22:09:06.17	118.84	13.60	-36.0	-43.5	12.4	2.82e-02	0	56	0	779091968	50	5740
2026-01-03 22:09:09.19	119.37	13.44	-39.7	-44.0	11.5	3.01e-02	0	57	0	784334848	48	6845
2026-01-03 22:09:12.22	119.89	13.29	-37.0	-42.9	11.7	9.62e-02	0	56	0	790626304	43	8009
2026-01-03 22:09:15.25	120.41	13.13	-39.5	-42.7	14.0	2.36e-01	0	56	0	795869184	49	5547
2026-01-03 22:09:18.28	120.92	12.97	-35.1	-42.5	10.0	7.67e-02	0	56	0	802160640	42	8086
2026-01-03 22:09:21.31	121.43	12.81	-33.4	-42.4	8.3	1.09e-01	0	57	0	807403520	38	10131
2026-01-03 22:09:24.34	121.93	12.65	-39.2	-42.8	11.0	6.41e-02	0	57	0	813694976	45	7106
2026-01-03 22:09:27.37	122.43	12.48	-37.1	-42.8	8.1	5.12e-02	0	57	0	818937856	40	9440
2026-01-03 22:09:30.40	122.92	12.32	-36.9	-42.9	12.0	1.41e-01	0	57	0	824180736	45	7146
2026-01-03 22:09:33.43	123.41	12.16	-37.3	-42.3	12.3	2.04e-02	0	56	0	830472192	46	6285
2026-01-03 22:09:36.45	123.89	11.99	-38.7	-41.9	13.9	4.59e-03	0	57	0	835715072	47	5715
2026-01-03 22:09:39.48	124.36	11.83	-37.7	-42.4	10.7	1.33e-01	0	57	0	842006528	41	8490
2026-01-03 22:09:42.51	124.83	11.66	-28.1	-41.8	6.7	2.23e-01	0	57	0	847249408	31	14193
2026-01-03 22:09:45.54	125.30	11.50	-33.6	-41.8	11.1	1.24e-01	0	57	0	852492288	40	8449
2026-01-03 22:09:48.57	125.76	11.33	-29.8	-41.6	8.5	2.68e-01	0	56	0	858783744	36	10376
2026-01-03 22:09:51.60	126.21	11.16	-26.8	-38.6	5.0	1.28e+00	0	57	104	862978048	26	13108
2026-01-03 22:09:54.63	126.66	10.99	-28.8	-38.4	4.6	7.86e-01	0	57	104	862978048	18	20090
2026-01-03 22:09:57.66	127.11	10.83	-30.5	-40.2	5.3	1.27e+00	0	57	104	862978048	28	13951
2026-01-03 22:10:00.69	127.55	10.66	-23.6	-38.7	4.9	1.35e+00	0	57	104	862978048	20	18600
2026-01-03 22:10:03.72	127.99	10.49	-24.0	-36.2	4.0	1.36e+00	0	57	104	862978048	16	17581
2026-01-03 22:10:06.75	128.42	10.32	-20.6	-37.2	4.3	1.49e+00	0	57	104	862978048	16	19708
2026-01-03 22:10:09.78	128.84	10.15	-22.8	-37.5	3.7	1.50e+00	0	57	104	862978048	14	22960
2026-01-03 22:10:12.81	129.26	9.98	-24.4	-37.2	3.9	1.50e+00	0	57	104	862978048	12	24849
2026-01-03 22:10:15.84	129.68	9.81	-24.4	-36.5	3.5	1.50e+00	0	57	104	862978048	16	18148
2026-01-03 22:10:18.87	130.09	9.64	-20.5	-34.0	3.8	1.50e+00	0	57	104	862978048	11	18223
2026-01-03 22:10:21.90	130.50	9.47	-19.8	-36.6	3.7	1.50e+00	0	57	104	862978048	19	15493
2026-01-03 22:10:24.93	130.90	9.30	-25.7	-38.2	3.5	1.51e+00	0	57	104	862978048	16	22217
2026-01-03 22:10:27.96	131.30	9.13	-20.3	-34.4	3.6	1.50e+00	0	57	104	862978048	13	17038
2026-01-03 22:10:30.98	131.69	8.96	-25.0	-37.8	3.7	1.50e+00	0	57	104	862978048	15	22286
2026-01-03 22:10:34.01	132.08	8.79	-22.3	-39.1	3.7	1.50e+00	0	57	104	862978048	19	20602
2026-01-03 22:10:37.04	132.47	8.62	-27.4	-39.3	3.5	1.50e+00	0	57	104	862978048	7	41979
2026-01-03 22:10:40.07	132.85	8.45	-21.1	-35.9	3.8	1.50e+00	0	57	104	862978048	4	33867
2026-01-03 22:10:43.10	133.22	8.28	-26.9	-45.2	4.1	1.50e+00	0	57	104	862978048	24	31118
2026-01-03 22:10:46.12	133.59	8.11	-20.4	-36.7	3.7	1.50e+00	0	57	104	862978048	15	19668
2026-01-03 22:10:49.16	133.96	7.94	-23.9	-40.4	3.6	1.51e+00	0	57	104	862978048	20	22737
2026-01-03 22:10:52.19	134.33	7.77	-44.6	-59.1	3.8	1.49e+00	0	57	104	862978048	59	20712
2026-01-03 22:10:55.22	134.68	7.60	-44.8	-59.5	3.8	1.49e+00	0	57	104	862978048	60	20461
2026-01-03 22:10:58.25	135.04	7.43	-44.9	-59.6	3.8	1.49e+00	0	57	104	862978048	60	20663
2026-01-03 22:11:01.29	135.39	7.26	-44.7	-59.4	3.8	1.49e+00	0	57	104	862978048	60	20278
2026-01-03 22:11:04.32	135.74	7.09	-44.6	-59.4	3.8	1.49e+00	0	57	104	862978048	60	20286
2026-01-03 22:11:07.35	136.08	6.92	-44.6	-59.4	3.8	1.49e+00	0	57	104	862978048	60	20201
2026-01-03 22:11:10.39	136.43	6.75	-44.6	-59.4	3.8	1.49e+00	0	57	104	862978048	60	20204
2026-01-03 22:11:13.42	136.76	6.59	-44.6	-59.4	3.8	1.49e+00	0	57	104	862978048	60	20162
2026-01-03 22:11:16.45	137.09	6.42	-44.6	-59.4	3.8	1.49e+00	0	57	104	862978048	60	20229
2026-01-03 22:11:19.49	137.42	6.25	-44.6	-59.4	3.8	1.49e+00	0	57	104	862978048	60	20192
2026-01-03 22:11:22.52	137.75	6.08	-44.6	-59.4	3.8	1.49e+00	0	57	104	862978048	60	20230
2026-01-03 22:11:25.55	138.07	5.92	-44.6	-59.4	3.8	1.49e+00	0	57	104	862978048	60	20204
2026-01-03 22:11:28.58	138.39	5.75	-44.6	-59.4	3.8	1.49e+00	0	57	104	862978048	60	20108
2026-01-03 22:11:31.62	138.70	5.58	-44.6	-59.4	3.8	1.49e+00	0	57	104	862978048	60	20165
2026-01-03 22:11:34.65	139.02	5.42	-44.6	-59.4	3.8	1.49e+00	0	57	104	862978048	60	20182
2026-01-03 22:11:37.68	139.32	5.25	-44.6	-59.4	3.8	1.49e+00	0	57	104	862978048	60	20175
2026-01-03 22:11:40.71	139.63	5.09	-44.6	-59.4	3.8	1.49e+00	0	57	104	862978048	60	20102
2026-01-03 22:11:43.75	139.93	4.92	-44.6	-59.4	3.8	1.49e+00	0	57	104	862978048	60	20128
2026-01-03 22:11:46.78	140.23	4.76	-44.6	-59.4	3.8	1.49e+00	0	57	104	862978048	60	20101
2026-01-03 22:11:49.81	140.52	4.59	-44.6	-59.4	3.8	1.49e+00	0	57	104	862978048	60	20140
2026-01-03 22:11:52.85	140.81	4.43	-44.6	-59.4	3.8	1.49e+00	0	57	104	862978048	60	20131
2026-01-03 22:11:55.88	141.10	4.27	-44.6	-59.4	3.8	1.49e+00	0	57	104	862978048	60	20181
2026-01-03 22:11:58.91	141.39	4.10	-44.6	-59.4	3.8	1.49e+00	0	57	104	862978048	60	20128
2026-01-03 22:12:01.92	141.67	3.94	-44.6	-59.4	3.8	1.49e+00	0	57	104	862978048	60	20127
2026-01-03 22:12:04.95	141.95	3.78	-44.5	-59.4	3.8	1.49e+00	0	57	104	862978048	60	20182
2026-01-03 22:12:07.99	142.23	3.62	-44.5	-59.4	3.8	1.49e+00	0	57	104	862978048	60	20095
2026-01-03 22:12:11.02	142.50	3.46	-44.6	-59.4	3.8	1.49e+00	0	57	104	862978048	60	20144
2026-01-03 22:12:14.05	142.77	3.29	-44.5	-59.4	3.8	1.49e+00	0	57	104	862978048	60	20101
2026-01-03 22:12:17.08	143.04	3.13	-44.6	-59.4	3.8	1.49e+00	0	57	104	862978048	60	20099
2026-01-03 22:12:20.12	143.30	2.97	-44.5	-59.3	3.8	1.49e+00	0	57	104	862978048	60	20046
2026-01-03 22:12:23.15	143.57	2.81	-44.5	-59.4	3.8	1.49e+00	0	57	104	862978048	60	20132
2026-01-03 22:12:26.18	143.82	2.66	-44.5	-59.3	3.8	1.49e+00	0	57	104	862978048	60	20047
2026-01-03 22:12:29.22	144.08	2.50	-44.5	-59.4	3.8	1.49e+00	0	57	104	862978048	60	20101
2026-01-03 22:12:32.25	144.34	2.34	-44.5	-59.3	3.8	1.49e+00	0	57	104	862978048	60	20012
2026-01-03 22:12:35.28	144.59	2.18	-44.5	-59.4	3.8	1.49e+00	0	57	104	862978048	60	20091
2026-01-03 22:12:38.31	144.84	2.02	-44.5	-59.4	3.8	1.49e+00	0	57	104	862978048	60	20078

#Closed at: 2026-01-03 22:12:39
#Recorded file [862 MB]: D:/lorett/data/31039_260104_010024.dat