passes_logs/2026/01/03/R2.0S_Moscow/R2.0S_Moscow__20260103_083122_NOAA_20_JPSS-1_rec.log

#Pass ID: 20260103_083122_NOAA 20 (JPSS-1)
#Satellite: NOAA 20 (JPSS-1)
#Configuration: NOAA 20
#almurnet v.1.7.20251203
#Start time: 2026-01-03 08:31:24

#Version: 2.2.20231116
#Station: R2.0S_Moscow
#Location: 37.707566 lon 55.798166 lat
#TLE: 1 43013U 17073A   26002.21975278  .00000202  00000+0  11669-3 0  9999
#TLE: 2 43013  98.7622 303.2950 0001915  57.9213 302.2149 14.19532512420923

#Time	Az	El	Level	Level2	SNR	BER	BlckErr	Temp	State	Recorded	gain1	gain2
2026-01-03 08:31:24.05	119.67	2.11	-14.9	-29.4	4.0	1.50e+00	0	48	0	0	13	9546
2026-01-03 08:31:28.08	119.44	2.35	-21.1	-38.6	4.1	1.49e+00	0	48	104	0	17	21958
2026-01-03 08:31:32.12	119.20	2.59	-23.4	-39.7	4.0	1.49e+00	0	48	104	0	17	24768
2026-01-03 08:31:36.17	118.96	2.83	-22.6	-35.1	3.7	1.49e+00	0	49	104	0	15	16432
2026-01-03 08:31:40.21	118.72	3.07	-22.8	-38.2	3.9	1.49e+00	0	49	104	0	16	22088
2026-01-03 08:31:44.26	118.47	3.32	-21.3	-38.1	3.6	1.49e+00	0	49	104	0	17	20731
2026-01-03 08:31:48.30	118.22	3.57	-14.6	-28.3	3.8	1.50e+00	0	49	104	0	1	16761
2026-01-03 08:31:52.34	117.96	3.81	-23.1	-36.9	4.1	1.49e+00	0	50	104	0	16	19041
2026-01-03 08:31:56.39	117.70	4.06	-23.1	-37.2	3.6	1.49e+00	0	50	104	0	16	19794
2026-01-03 08:32:00.43	117.43	4.32	-23.0	-39.5	3.9	1.49e+00	0	50	104	0	17	24375
2026-01-03 08:32:04.47	117.16	4.57	-16.8	-33.1	4.2	1.49e+00	0	50	104	0	16	12335
2026-01-03 08:32:08.52	116.88	4.83	-23.1	-38.8	3.7	1.49e+00	0	50	104	0	16	23775
2026-01-03 08:32:12.56	116.60	5.08	-20.1	-35.5	3.8	1.49e+00	0	51	104	0	15	17166
2026-01-03 08:32:16.61	116.31	5.34	-17.5	-33.6	3.8	1.50e+00	0	51	104	0	8	20586
2026-01-03 08:32:20.65	116.02	5.60	-14.9	-30.8	3.9	1.50e+00	0	51	104	0	2	21104
2026-01-03 08:32:24.69	115.72	5.87	-12.6	-29.3	4.0	1.50e+00	0	51	104	0	4	15771
2026-01-03 08:32:28.74	115.42	6.13	-23.2	-38.3	3.3	1.50e+00	0	51	104	0	7	37677
2026-01-03 08:32:32.78	115.11	6.40	-17.7	-32.9	3.5	1.50e+00	0	52	104	0	6	21505
2026-01-03 08:32:36.83	114.80	6.67	-21.9	-36.7	3.7	1.50e+00	0	52	104	0	13	22065
2026-01-03 08:32:40.87	114.48	6.94	-21.8	-37.1	3.9	1.50e+00	0	52	0	0	14	21967
2026-01-03 08:32:44.91	114.15	7.21	-22.7	-38.9	3.8	1.50e+00	0	52	104	0	17	22701
2026-01-03 08:32:48.96	113.81	7.48	-21.2	-35.7	3.9	1.50e+00	0	52	104	0	14	18568
2026-01-03 08:32:53.00	113.48	7.76	-23.4	-37.5	3.8	1.50e+00	0	53	104	0	14	22854
2026-01-03 08:32:57.05	113.13	8.04	-20.4	-37.2	4.8	1.47e+00	0	53	104	0	17	18567
2026-01-03 08:33:01.09	112.77	8.32	-23.3	-38.2	4.0	1.50e+00	0	53	104	0	17	20966
2026-01-03 08:33:05.13	112.41	8.60	-24.3	-37.7	3.9	1.47e+00	0	53	104	0	15	22051
2026-01-03 08:33:09.17	112.05	8.89	-26.6	-41.8	4.7	1.45e+00	0	53	104	0	26	18939
2026-01-03 08:33:13.21	111.67	9.18	-30.7	-44.1	5.0	1.40e+00	0	53	104	0	33	16412
2026-01-03 08:33:17.25	111.29	9.47	-33.1	-46.7	4.8	1.39e+00	0	53	104	0	43	12518
2026-01-03 08:33:21.29	110.90	9.76	-36.9	-47.9	6.7	4.15e-01	27	53	0	2097152	49	10116
2026-01-03 08:33:25.33	110.50	10.05	-41.0	-47.8	7.6	1.71e-01	5	54	0	9437184	52	8423
2026-01-03 08:33:29.37	110.09	10.35	-41.1	-46.4	10.6	2.84e-02	0	54	0	16777216	53	6764
2026-01-03 08:33:33.41	109.68	10.64	-40.5	-44.6	12.4	2.91e-03	0	53	0	25165824	52	5833
2026-01-03 08:33:37.45	109.25	10.94	-40.8	-44.5	12.9	4.84e-04	0	54	0	32505856	52	5751
2026-01-03 08:33:41.49	108.82	11.25	-40.6	-43.7	13.8	2.97e-05	0	54	0	39845888	52	5257
2026-01-03 08:33:45.53	108.38	11.55	-40.3	-43.3	14.2	3.80e-06	0	54	0	47185920	52	5013
2026-01-03 08:33:49.58	107.92	11.86	-40.4	-43.5	14.1	3.00e-06	0	54	0	54525952	52	5108
2026-01-03 08:33:53.62	107.46	12.16	-40.3	-43.2	14.4	7.60e-06	0	54	0	62914560	51	5264
2026-01-03 08:33:57.66	106.99	12.48	-40.3	-43.2	14.4	2.33e-04	0	54	0	70254592	51	5262
2026-01-03 08:34:01.70	106.51	12.79	-40.1	-43.0	14.6	1.98e-05	0	54	0	77594624	51	5145
2026-01-03 08:34:05.74	106.01	13.10	-40.1	-43.0	14.7	3.85e-04	0	54	0	84934656	51	5133
2026-01-03 08:34:09.78	105.51	13.42	-40.0	-42.8	14.8	1.35e-04	0	54	0	93323264	50	5335
2026-01-03 08:34:13.82	105.00	13.74	-40.2	-42.9	14.8	2.84e-03	0	54	0	100663296	50	5394
2026-01-03 08:34:17.85	104.47	14.06	-39.9	-42.6	15.2	7.60e-06	0	54	0	108003328	50	5181
2026-01-03 08:34:21.89	103.93	14.38	-39.9	-42.5	15.3	1.44e-05	0	54	0	115343360	50	5101
2026-01-03 08:34:25.93	103.38	14.70	-40.0	-42.6	15.1	3.00e-06	0	54	0	122683392	50	5195
2026-01-03 08:34:29.97	102.82	15.03	-39.8	-42.4	15.4	0.00e+00	0	55	0	131072000	50	5055
2026-01-03 08:34:34.01	102.25	15.35	-39.7	-42.2	15.5	0.00e+00	0	54	0	138412032	50	4983
2026-01-03 08:34:38.05	101.66	15.68	-39.8	-42.3	15.5	0.00e+00	0	55	0	145752064	50	4998
2026-01-03 08:34:42.08	101.06	16.01	-39.7	-42.2	15.7	0.00e+00	0	55	0	153092096	50	4946
2026-01-03 08:34:46.12	100.45	16.34	-39.8	-42.3	15.6	0.00e+00	0	55	0	161480704	50	4990
2026-01-03 08:34:50.16	99.82	16.67	-39.9	-42.4	15.5	0.00e+00	0	55	0	168820736	50	5087
2026-01-03 08:34:54.20	99.18	17.00	-39.9	-42.4	15.5	0.00e+00	0	55	0	176160768	50	5084
2026-01-03 08:34:58.24	98.52	17.34	-39.9	-42.5	15.5	0.00e+00	0	55	0	183500800	50	5113
2026-01-03 08:35:02.28	97.85	17.67	-40.1	-42.7	15.2	0.00e+00	0	55	0	190840832	50	5227
2026-01-03 08:35:06.31	97.17	18.00	-40.0	-42.6	15.4	0.00e+00	0	55	0	199229440	50	5161
2026-01-03 08:35:10.35	96.46	18.34	-39.9	-42.4	15.5	0.00e+00	0	55	0	206569472	50	5093
2026-01-03 08:35:14.39	95.75	18.67	-40.1	-42.8	15.2	0.00e+00	0	55	0	213909504	50	5291
2026-01-03 08:35:18.43	95.01	19.01	-40.1	-42.7	15.3	0.00e+00	0	55	0	221249536	51	4930
2026-01-03 08:35:22.47	94.26	19.34	-39.8	-42.3	15.7	0.00e+00	0	55	0	229638144	51	4727
2026-01-03 08:35:26.51	93.50	19.67	-39.8	-42.2	15.8	0.00e+00	0	55	0	236978176	51	4670
2026-01-03 08:35:30.55	92.71	20.00	-39.7	-42.1	15.8	0.00e+00	0	55	0	244318208	51	4641
2026-01-03 08:35:34.59	91.91	20.33	-39.6	-42.0	15.9	0.00e+00	0	55	0	251658240	51	4574
2026-01-03 08:35:38.63	91.09	20.66	-39.4	-41.8	15.9	0.00e+00	0	55	0	258998272	50	4732
2026-01-03 08:35:42.66	90.26	20.99	-39.3	-41.8	15.7	0.00e+00	0	56	0	267386880	50	4720
2026-01-03 08:35:46.70	89.40	21.31	-39.0	-41.5	15.8	0.00e+00	0	55	0	274726912	50	4549
2026-01-03 08:35:50.74	88.53	21.63	-38.7	-41.1	16.1	0.00e+00	0	55	0	282066944	49	4619
2026-01-03 08:35:54.78	87.64	21.95	-38.7	-41.0	16.2	0.00e+00	0	56	0	289406976	49	4555
2026-01-03 08:35:58.82	86.73	22.27	-38.7	-41.0	16.4	0.00e+00	0	55	0	297795584	49	4548
2026-01-03 08:36:02.86	85.81	22.58	-38.5	-40.7	16.8	0.00e+00	0	55	0	305135616	49	4404
2026-01-03 08:36:06.90	84.86	22.88	-38.5	-40.6	17.0	0.00e+00	0	55	0	312475648	48	4642
2026-01-03 08:36:10.93	83.90	23.18	-38.4	-40.4	17.4	0.00e+00	0	56	0	319815680	48	4494
2026-01-03 08:36:14.96	82.92	23.48	-38.5	-40.5	17.4	0.00e+00	0	56	0	327155712	48	4551
2026-01-03 08:36:19.00	81.91	23.77	-38.6	-40.5	17.4	0.00e+00	0	56	0	335544320	48	4593
2026-01-03 08:36:23.04	80.89	24.05	-38.7	-40.7	17.3	0.00e+00	0	56	0	342884352	48	4696
2026-01-03 08:36:27.08	79.85	24.33	-38.6	-40.5	17.5	0.00e+00	0	56	0	350224384	48	4574
2026-01-03 08:36:31.12	78.80	24.60	-38.5	-40.5	17.6	0.00e+00	0	56	0	357564416	48	4552
2026-01-03 08:36:35.16	77.72	24.86	-38.4	-40.3	17.8	0.00e+00	0	56	0	365953024	48	4452
2026-01-03 08:36:39.21	76.63	25.11	-38.3	-40.2	17.9	0.00e+00	0	56	0	373293056	48	4419
2026-01-03 08:36:43.25	75.52	25.35	-38.3	-40.1	18.0	0.00e+00	0	56	0	380633088	48	4389
2026-01-03 08:36:47.29	74.39	25.59	-38.4	-40.2	17.9	0.00e+00	0	56	0	387973120	48	4429
2026-01-03 08:36:51.33	73.25	25.81	-38.6	-40.6	17.5	0.00e+00	0	56	0	395313152	48	4610
2026-01-03 08:36:55.37	72.09	26.02	-39.0	-41.1	17.0	0.00e+00	0	56	0	403701760	48	4923
2026-01-03 08:36:59.41	70.91	26.22	-39.1	-41.2	17.0	0.00e+00	0	56	0	411041792	48	4976
2026-01-03 08:37:03.45	69.72	26.41	-39.5	-41.7	16.5	0.00e+00	0	56	0	418381824	49	4946
2026-01-03 08:37:07.49	68.52	26.58	-39.7	-42.0	16.2	0.00e+00	0	56	0	425721856	50	4860
2026-01-03 08:37:11.53	67.31	26.75	-39.8	-42.1	16.1	0.00e+00	0	56	0	434110464	50	4916
2026-01-03 08:37:15.57	66.08	26.89	-39.8	-42.1	16.2	0.00e+00	0	56	0	441450496	50	4893
2026-01-03 08:37:19.60	64.85	27.03	-40.0	-42.3	15.9	0.00e+00	0	56	0	448790528	50	5036
2026-01-03 08:37:23.64	63.60	27.15	-39.9	-42.3	15.9	0.00e+00	0	56	0	456130560	50	5015
2026-01-03 08:37:27.68	62.34	27.26	-40.3	-42.8	15.5	0.00e+00	0	56	0	463470592	51	5024
2026-01-03 08:37:31.72	61.08	27.35	-40.3	-42.8	15.5	0.00e+00	0	56	0	471859200	51	5038
2026-01-03 08:37:35.76	59.81	27.42	-40.2	-42.6	15.4	0.00e+00	0	56	0	479199232	51	4915
2026-01-03 08:37:39.80	58.53	27.48	-40.1	-42.5	15.8	0.00e+00	0	56	0	486539264	51	4837
2026-01-03 08:37:43.84	57.25	27.53	-39.8	-42.2	16.2	0.00e+00	0	56	0	493879296	51	4664
2026-01-03 08:37:47.88	55.97	27.56	-39.7	-41.9	16.4	0.00e+00	0	56	0	502267904	51	4509
2026-01-03 08:37:51.92	54.68	27.57	-39.6	-41.9	16.5	0.00e+00	0	56	0	509607936	51	4494
2026-01-03 08:37:55.95	53.40	27.57	-39.5	-41.7	16.7	0.00e+00	0	56	0	516947968	50	4675
2026-01-03 08:38:00.00	52.11	27.55	-39.4	-41.6	16.7	0.00e+00	0	56	0	524288000	50	4610
2026-01-03 08:38:04.03	50.83	27.52	-39.2	-41.2	17.1	0.00e+00	0	56	0	531628032	50	4430
2026-01-03 08:38:08.07	49.55	27.47	-38.8	-40.8	17.6	0.00e+00	0	56	0	540016640	49	4452
2026-01-03 08:38:12.11	48.28	27.40	-38.8	-40.7	17.6	0.00e+00	0	56	0	547356672	49	4421
2026-01-03 08:38:16.14	47.02	27.32	-38.6	-40.5	17.9	0.00e+00	0	56	0	554696704	49	4299
2026-01-03 08:38:20.19	45.75	27.22	-38.9	-40.8	17.5	0.00e+00	0	56	0	562036736	49	4476
2026-01-03 08:38:24.23	44.50	27.11	-38.8	-40.7	17.6	0.00e+00	0	56	0	570425344	49	4436
2026-01-03 08:38:28.27	43.26	26.98	-38.9	-40.8	17.4	0.00e+00	0	56	0	577765376	49	4492
2026-01-03 08:38:32.31	42.03	26.84	-39.1	-41.1	17.2	0.00e+00	0	56	0	585105408	49	4644
2026-01-03 08:38:36.35	40.81	26.69	-39.4	-41.5	16.8	0.00e+00	0	56	0	592445440	49	4870
2026-01-03 08:38:40.38	39.60	26.53	-39.6	-41.8	16.6	0.00e+00	0	57	0	599785472	49	4994
2026-01-03 08:38:44.42	38.41	26.35	-39.9	-42.3	16.1	0.00e+00	0	56	0	608174080	50	4988
2026-01-03 08:38:48.46	37.23	26.15	-40.0	-42.4	15.9	0.00e+00	0	56	0	615514112	50	5076
2026-01-03 08:38:52.50	36.06	25.95	-40.1	-42.5	15.8	0.00e+00	0	56	0	622854144	50	5150
2026-01-03 08:38:56.54	34.91	25.74	-40.4	-43.0	15.4	0.00e+00	0	56	0	630194176	51	5112
2026-01-03 08:39:00.58	33.77	25.51	-40.2	-42.6	15.7	0.00e+00	0	57	0	638582784	51	4918
2026-01-03 08:39:04.62	32.66	25.28	-40.2	-42.6	15.7	0.00e+00	0	56	0	645922816	51	4898
2026-01-03 08:39:08.65	31.56	25.03	-40.1	-42.5	15.9	0.00e+00	0	56	0	653262848	51	4829
2026-01-03 08:39:12.69	30.48	24.78	-39.8	-42.1	16.2	0.00e+00	0	57	0	660602880	51	4647
2026-01-03 08:39:16.73	29.41	24.51	-39.8	-42.1	16.2	0.00e+00	0	57	0	667942912	51	4645
2026-01-03 08:39:20.77	28.36	24.24	-39.5	-41.7	16.6	0.00e+00	0	57	0	676331520	51	4435
2026-01-03 08:39:24.81	27.33	23.97	-39.4	-41.6	16.8	0.00e+00	0	56	0	683671552	50	4615
2026-01-03 08:39:28.85	26.32	23.68	-39.1	-41.1	17.2	0.00e+00	0	57	0	691011584	50	4390
2026-01-03 08:39:32.89	25.33	23.39	-39.1	-41.1	17.2	0.00e+00	0	57	0	698351616	50	4366
2026-01-03 08:39:36.93	24.36	23.10	-38.8	-40.7	17.6	0.00e+00	0	56	0	706740224	49	4430
2026-01-03 08:39:40.97	23.41	22.79	-38.9	-40.8	17.4	0.00e+00	0	56	0	714080256	49	4485
2026-01-03 08:39:45.01	22.47	22.49	-38.8	-40.7	17.5	0.00e+00	0	56	0	721420288	49	4433
2026-01-03 08:39:49.05	21.55	22.18	-38.6	-40.5	17.8	0.00e+00	0	56	0	728760320	49	4330
2026-01-03 08:39:53.09	20.65	21.86	-38.4	-40.3	18.0	0.00e+00	0	56	0	736100352	48	4457
2026-01-03 08:39:57.13	19.78	21.54	-38.2	-40.0	18.2	0.00e+00	0	57	0	744488960	48	4335
2026-01-03 08:40:01.16	18.92	21.22	-38.0	-39.8	18.5	0.00e+00	0	56	0	751828992	48	4209
2026-01-03 08:40:05.20	18.07	20.90	-37.7	-39.4	18.7	0.00e+00	0	57	0	759169024	47	4263
2026-01-03 08:40:09.24	17.25	20.57	-37.6	-39.2	18.9	0.00e+00	0	57	0	766509056	47	4185
2026-01-03 08:40:13.28	16.44	20.25	-37.6	-39.3	18.8	0.00e+00	0	57	0	774897664	47	4233
2026-01-03 08:40:17.32	15.65	19.92	-37.7	-39.4	18.8	0.00e+00	0	57	0	782237696	47	4254
2026-01-03 08:40:21.36	14.87	19.59	-37.7	-39.4	18.7	0.00e+00	0	57	0	789577728	47	4253
2026-01-03 08:40:25.39	14.12	19.26	-37.7	-39.4	18.7	0.00e+00	0	56	0	796917760	47	4271
2026-01-03 08:40:29.43	13.38	18.92	-37.8	-39.5	18.6	0.00e+00	0	57	0	804257792	47	4330
2026-01-03 08:40:33.47	12.66	18.59	-38.1	-39.9	18.2	0.00e+00	0	57	0	812646400	47	4513
2026-01-03 08:40:37.51	11.95	18.26	-38.2	-40.1	18.0	0.00e+00	0	57	0	819986432	47	4610
2026-01-03 08:40:41.55	11.26	17.92	-38.5	-40.5	17.6	0.00e+00	0	57	0	827326464	47	4831
2026-01-03 08:40:45.59	10.58	17.59	-38.7	-40.7	17.4	0.00e+00	0	56	0	834666496	47	4953
2026-01-03 08:40:49.63	9.92	17.26	-38.9	-41.0	17.2	0.00e+00	0	57	0	843055104	48	4840
2026-01-03 08:40:53.67	9.27	16.93	-38.8	-40.9	17.2	0.00e+00	0	57	0	850395136	48	4763
2026-01-03 08:40:57.71	8.64	16.60	-38.8	-40.8	17.2	0.00e+00	0	56	0	857735168	48	4733
2026-01-03 08:41:01.75	8.02	16.27	-39.0	-41.1	16.9	0.00e+00	0	57	0	865075200	48	4873
2026-01-03 08:41:05.78	7.41	15.94	-39.1	-41.3	16.7	0.00e+00	0	57	0	872415232	48	4997
2026-01-03 08:41:09.82	6.82	15.61	-39.1	-41.3	16.6	0.00e+00	0	57	0	880803840	48	5011
2026-01-03 08:41:13.86	6.24	15.29	-39.2	-41.4	16.5	0.00e+00	0	56	0	888143872	49	4775
2026-01-03 08:41:17.90	5.68	14.96	-39.3	-41.5	16.3	0.00e+00	0	57	0	895483904	49	4869
2026-01-03 08:41:21.94	5.12	14.64	-39.4	-41.7	16.1	0.00e+00	0	57	0	902823936	49	4966
2026-01-03 08:41:25.97	4.58	14.32	-39.5	-41.9	15.8	0.00e+00	0	57	0	911212544	49	5086
2026-01-03 08:41:30.01	4.06	14.00	-39.5	-42.0	15.6	0.00e+00	0	57	0	918552576	50	4845
2026-01-03 08:41:34.05	3.54	13.68	-39.0	-41.5	15.6	0.00e+00	0	57	0	925892608	49	4841
2026-01-03 08:41:38.09	3.03	13.37	-40.3	-44.6	11.5	4.27e-04	0	57	0	933232640	51	6160
2026-01-03 08:41:42.13	2.54	13.05	-40.8	-48.6	6.4	1.79e-01	0	57	0	940572672	52	9195
2026-01-03 08:41:46.17	2.05	12.74	-40.6	-52.8	4.0	1.45e+00	0	57	104	946864128	52	15004
2026-01-03 08:41:50.21	1.58	12.43	-40.4	-54.4	3.8	1.49e+00	0	57	104	946864128	52	17959
2026-01-03 08:41:54.25	1.11	12.12	-40.2	-54.8	3.8	1.49e+00	0	57	104	946864128	51	19887
2026-01-03 08:41:58.29	0.66	11.81	-40.0	-54.6	3.8	1.49e+00	0	57	104	946864128	51	19475
2026-01-03 08:42:02.32	0.21	11.51	-40.0	-54.7	3.8	1.49e+00	0	57	104	946864128	51	19678
2026-01-03 08:42:06.37	359.78	11.21	-39.8	-54.6	3.8	1.49e+00	0	57	104	946864128	51	19426
2026-01-03 08:42:10.41	359.35	10.91	-39.7	-54.5	3.8	1.49e+00	0	57	104	946864128	51	19261
2026-01-03 08:42:14.45	358.94	10.61	-39.5	-54.4	3.8	1.49e+00	0	57	104	946864128	51	19128
2026-01-03 08:42:18.49	358.53	10.31	-39.5	-54.4	3.8	1.49e+00	0	57	104	946864128	49	21436
2026-01-03 08:42:22.53	358.13	10.02	-39.1	-54.5	3.8	1.49e+00	0	57	104	946864128	50	20319
2026-01-03 08:42:26.57	357.73	9.73	-38.4	-54.4	3.8	1.49e+00	0	57	104	946864128	48	22593
2026-01-03 08:42:30.61	357.35	9.44	-38.3	-54.3	3.8	1.49e+00	0	57	104	946864128	48	22520
2026-01-03 08:42:34.65	356.98	9.15	-39.2	-54.3	3.8	1.49e+00	0	57	104	946864128	48	22461
2026-01-03 08:42:38.70	356.61	8.86	-38.9	-54.3	3.8	1.49e+00	0	57	104	946864128	49	21233
2026-01-03 08:42:42.74	356.24	8.58	-39.7	-54.5	3.8	1.49e+00	0	57	104	946864128	49	21726
2026-01-03 08:42:46.78	355.89	8.30	-39.7	-54.6	3.8	1.49e+00	0	57	104	946864128	50	20549
2026-01-03 08:42:50.82	355.54	8.02	-40.0	-54.5	3.8	1.49e+00	0	57	104	946864128	50	20514
2026-01-03 08:42:54.87	355.20	7.74	-44.9	-59.5	3.8	1.49e+00	0	57	104	946864128	60	20413
2026-01-03 08:42:58.91	354.87	7.47	-45.2	-59.8	3.8	1.49e+00	0	57	104	946864128	60	21201
2026-01-03 08:43:02.95	354.54	7.20	-45.2	-59.7	3.8	1.49e+00	0	57	104	946864128	61	19830
2026-01-03 08:43:07.00	354.22	6.92	-45.1	-59.6	3.8	1.49e+00	0	57	104	946864128	61	19553
2026-01-03 08:43:11.04	353.91	6.65	-45.0	-59.6	3.8	1.49e+00	0	57	104	946864128	61	19449
2026-01-03 08:43:15.09	353.60	6.39	-45.0	-59.6	3.8	1.49e+00	0	57	104	946864128	61	19415
2026-01-03 08:43:19.13	353.30	6.12	-45.0	-59.5	3.8	1.49e+00	0	57	104	946864128	61	19357
2026-01-03 08:43:23.17	353.00	5.86	-45.0	-59.5	3.8	1.49e+00	0	57	104	946864128	61	19372
2026-01-03 08:43:27.22	352.71	5.60	-45.0	-59.5	3.8	1.49e+00	0	57	104	946864128	61	19370
2026-01-03 08:43:31.26	352.42	5.34	-44.9	-59.5	3.8	1.49e+00	0	57	104	946864128	61	19337
2026-01-03 08:43:35.31	352.14	5.08	-45.0	-59.5	3.8	1.49e+00	0	57	104	946864128	61	19338
2026-01-03 08:43:39.35	351.87	4.82	-45.0	-59.5	3.8	1.49e+00	0	57	104	946864128	61	19313
2026-01-03 08:43:43.39	351.60	4.57	-45.0	-59.5	3.8	1.49e+00	0	57	104	946864128	61	19331
2026-01-03 08:43:47.44	351.33	4.32	-45.0	-59.5	3.8	1.49e+00	0	57	104	946864128	61	19282
2026-01-03 08:43:51.48	351.07	4.07	-45.0	-59.5	3.8	1.49e+00	0	57	104	946864128	61	19249
2026-01-03 08:43:55.53	350.82	3.82	-45.0	-59.5	3.8	1.49e+00	0	57	104	946864128	61	19271
2026-01-03 08:43:59.57	350.56	3.57	-45.0	-59.5	3.8	1.49e+00	0	57	104	946864128	61	19219
2026-01-03 08:44:03.62	350.32	3.32	-45.0	-59.5	3.8	1.49e+00	0	57	104	946864128	61	19199
2026-01-03 08:44:07.66	350.07	3.08	-45.0	-59.5	3.8	1.49e+00	0	57	104	946864128	61	19222
2026-01-03 08:44:11.70	349.84	2.84	-45.0	-59.5	3.8	1.49e+00	0	57	104	946864128	61	19306
2026-01-03 08:44:15.75	349.60	2.60	-44.9	-59.5	3.8	1.49e+00	0	57	104	946864128	60	20307
2026-01-03 08:44:19.79	349.37	2.36	-44.9	-59.4	3.8	1.49e+00	0	57	104	946864128	60	20301
2026-01-03 08:44:23.84	349.15	2.12	-44.9	-59.4	3.8	1.49e+00	0	57	104	946864128	60	20290

#Closed at: 2026-01-03 08:44:26
#Recorded file [946 MB]: D:/lorett/data/31039_260103_113123.dat