passes_logs/2026/01/03/R2.0S_Moscow/R2.0S_Moscow__20260103_115307_NOAA_20_JPSS-1_rec.log

#Pass ID: 20260103_115307_NOAA 20 (JPSS-1)
#Satellite: NOAA 20 (JPSS-1)
#Configuration: NOAA 20
#almurnet v.1.7.20251203
#Start time: 2026-01-03 11:53:07

#Version: 2.2.20231116
#Station: R2.0S_Moscow
#Location: 37.707566 lon 55.798166 lat
#TLE: 1 43013U 17073A   26002.21975278  .00000202  00000+0  11669-3 0  9999
#TLE: 2 43013  98.7622 303.2950 0001915  57.9213 302.2149 14.19532512420923

#Time	Az	El	Level	Level2	SNR	BER	BlckErr	Temp	State	Recorded	gain1	gain2
2026-01-03 11:53:07.51	221.78	2.00	-44.0	-58.6	3.8	1.49e+00	0	47	0	0	59	19532
2026-01-03 11:53:10.53	222.06	2.14	-44.0	-58.6	3.8	1.49e+00	0	48	104	0	59	19541
2026-01-03 11:53:13.56	222.33	2.29	-44.0	-58.6	3.8	1.49e+00	0	48	104	0	59	19526
2026-01-03 11:53:16.59	222.61	2.44	-44.0	-58.6	3.8	1.49e+00	0	48	104	0	59	19537
2026-01-03 11:53:19.63	222.89	2.59	-44.0	-58.6	3.8	1.49e+00	0	48	104	0	59	19567
2026-01-03 11:53:22.66	223.18	2.74	-44.0	-58.6	3.8	1.49e+00	0	49	104	0	59	19567
2026-01-03 11:53:25.69	223.46	2.89	-44.0	-58.6	3.8	1.49e+00	0	49	104	0	59	19587
2026-01-03 11:53:28.73	223.75	3.04	-44.0	-58.6	3.8	1.49e+00	0	49	104	0	59	19603
2026-01-03 11:53:31.76	224.05	3.19	-44.0	-58.6	3.8	1.49e+00	0	49	104	0	59	19463
2026-01-03 11:53:34.79	224.34	3.34	-44.1	-58.6	3.8	1.49e+00	0	50	104	0	59	19562
2026-01-03 11:53:37.82	224.64	3.49	-44.0	-58.6	3.8	1.49e+00	0	50	104	0	59	19549
2026-01-03 11:53:40.86	224.94	3.64	-44.0	-58.6	3.8	1.49e+00	0	50	104	0	59	19562
2026-01-03 11:53:43.89	225.25	3.79	-44.0	-58.6	3.8	1.49e+00	0	50	104	0	59	19523
2026-01-03 11:53:46.93	225.55	3.94	-44.0	-58.6	3.8	1.49e+00	0	50	104	0	59	19520
2026-01-03 11:53:49.96	225.87	4.09	-44.0	-58.6	3.8	1.49e+00	0	50	104	0	59	19537
2026-01-03 11:53:52.99	226.18	4.24	-44.0	-58.6	3.8	1.49e+00	0	51	104	0	59	19543
2026-01-03 11:53:56.03	226.50	4.39	-44.0	-58.7	3.8	1.49e+00	0	51	104	0	59	19615
2026-01-03 11:53:59.06	226.82	4.54	-44.0	-58.6	3.8	1.49e+00	0	51	104	0	59	19546
2026-01-03 11:54:02.09	227.14	4.70	-44.0	-58.6	3.8	1.49e+00	0	51	104	0	59	19533
2026-01-03 11:54:05.12	227.46	4.85	-44.0	-58.6	3.8	1.49e+00	0	51	104	0	59	19570
2026-01-03 11:54:08.16	227.80	5.00	-44.0	-58.6	3.8	1.49e+00	0	51	104	0	59	19524
2026-01-03 11:54:11.19	228.13	5.15	-44.0	-58.6	3.8	1.49e+00	0	51	104	0	59	19484
2026-01-03 11:54:14.22	228.46	5.30	-44.0	-58.5	3.8	1.49e+00	0	52	104	0	59	19362
2026-01-03 11:54:17.26	228.80	5.45	-44.0	-58.6	3.8	1.49e+00	0	52	104	0	59	19501
2026-01-03 11:54:20.29	229.15	5.61	-44.0	-58.6	3.8	1.49e+00	0	52	104	0	59	19492
2026-01-03 11:54:23.32	229.49	5.76	-44.0	-58.5	3.8	1.49e+00	0	52	104	0	59	19185
2026-01-03 11:54:26.35	229.84	5.91	-44.0	-58.4	3.8	1.49e+00	0	52	104	0	59	18970
2026-01-03 11:54:29.39	230.20	6.06	-44.0	-58.4	3.8	1.49e+00	0	52	104	0	59	19120
2026-01-03 11:54:32.42	230.56	6.21	-44.0	-58.6	3.8	1.49e+00	0	52	104	0	59	19439
2026-01-03 11:54:35.45	230.92	6.36	-44.0	-58.5	3.8	1.49e+00	0	52	104	0	59	19354
2026-01-03 11:54:38.49	231.28	6.52	-44.0	-58.0	3.8	1.49e+00	0	53	104	0	59	18219
2026-01-03 11:54:41.52	231.65	6.67	-44.0	-57.3	3.8	1.49e+00	0	53	104	0	59	16697
2026-01-03 11:54:44.55	232.02	6.82	-44.0	-57.2	3.8	1.49e+00	0	53	104	0	59	16546
2026-01-03 11:54:47.59	232.40	6.97	-44.0	-57.9	3.8	1.49e+00	0	53	104	0	59	17992
2026-01-03 11:54:50.62	232.78	7.12	-44.0	-58.1	3.8	1.49e+00	0	53	104	0	59	18449
2026-01-03 11:54:53.65	233.16	7.27	-44.0	-57.8	3.8	1.49e+00	0	53	104	0	59	17853
2026-01-03 11:54:56.69	233.55	7.42	-43.9	-56.2	3.8	1.49e+00	0	53	104	0	59	14748
2026-01-03 11:54:59.72	233.94	7.57	-43.4	-51.5	6.0	4.68e-01	0	53	0	3145728	58	9158
2026-01-03 11:55:02.75	234.33	7.72	-42.3	-47.6	9.7	1.96e-02	0	53	0	8388608	56	6550
2026-01-03 11:55:05.78	234.73	7.87	-41.3	-45.2	12.1	3.47e-04	0	53	0	14680064	54	5571
2026-01-03 11:55:08.82	235.13	8.02	-41.1	-44.9	12.5	9.53e-05	0	53	0	19922944	54	5349
2026-01-03 11:55:11.85	235.54	8.17	-41.5	-45.5	12.0	6.54e-02	0	54	0	24117248	53	6129
2026-01-03 11:55:14.88	235.95	8.32	-41.1	-44.9	12.6	1.79e-03	0	54	0	30408704	54	5346
2026-01-03 11:55:17.90	236.37	8.47	-40.9	-44.4	13.0	2.97e-05	0	54	0	35651584	53	5360
2026-01-03 11:55:20.93	236.78	8.62	-40.8	-44.2	13.2	2.05e-05	0	54	0	40894464	53	5250
2026-01-03 11:55:23.96	237.21	8.77	-40.7	-44.1	13.4	1.37e-05	0	54	0	47185920	53	5182
2026-01-03 11:55:26.99	237.63	8.91	-40.7	-44.0	13.5	1.14e-05	0	54	0	52428800	53	5111
2026-01-03 11:55:30.02	238.07	9.06	-40.5	-43.8	13.7	1.22e-05	0	54	0	58720256	53	4998
2026-01-03 11:55:33.05	238.50	9.21	-40.4	-43.5	14.1	1.50e-06	0	54	0	63963136	52	5106
2026-01-03 11:55:36.08	238.94	9.35	-40.4	-43.4	14.1	2.20e-06	0	54	0	69206016	52	5083
2026-01-03 11:55:39.10	239.38	9.50	-40.3	-43.3	14.3	1.50e-06	0	55	0	75497472	52	5026
2026-01-03 11:55:42.13	239.83	9.64	-40.3	-43.2	14.3	7.00e-07	0	55	0	80740352	52	4982
2026-01-03 11:55:45.16	240.28	9.78	-40.1	-43.0	14.6	0.00e+00	0	54	0	87031808	52	4831
2026-01-03 11:55:48.19	240.74	9.93	-40.0	-42.9	14.7	1.50e-06	0	54	0	92274688	52	4772
2026-01-03 11:55:51.22	241.20	10.07	-40.1	-42.9	14.7	0.00e+00	0	54	0	98566144	52	4786
2026-01-03 11:55:54.25	241.67	10.21	-40.1	-43.0	14.7	7.00e-07	0	55	0	103809024	52	4827
2026-01-03 11:55:57.28	242.14	10.35	-40.2	-43.0	14.6	0.00e+00	0	55	0	109051904	52	4852
2026-01-03 11:56:00.30	242.61	10.49	-40.1	-42.9	14.7	0.00e+00	0	55	0	115343360	52	4800
2026-01-03 11:56:03.33	243.09	10.63	-40.1	-42.8	14.8	0.00e+00	0	55	0	120586240	52	4749
2026-01-03 11:56:06.36	243.57	10.76	-40.1	-43.0	14.7	0.00e+00	0	55	0	126877696	52	4815
2026-01-03 11:56:09.39	244.06	10.90	-40.2	-43.2	14.5	7.00e-07	0	55	0	132120576	52	4930
2026-01-03 11:56:12.42	244.55	11.04	-40.1	-42.9	14.8	0.00e+00	0	55	0	137363456	52	4767
2026-01-03 11:56:15.45	245.05	11.17	-40.0	-42.8	14.9	0.00e+00	0	55	0	143654912	52	4734
2026-01-03 11:56:18.48	245.55	11.30	-40.2	-43.0	14.7	0.00e+00	0	55	0	148897792	52	4857
2026-01-03 11:56:21.51	246.05	11.43	-40.2	-43.0	14.6	7.00e-07	0	55	0	155189248	52	4867
2026-01-03 11:56:24.54	246.56	11.56	-40.2	-43.0	14.7	0.00e+00	0	55	0	160432128	52	4852
2026-01-03 11:56:27.57	247.07	11.69	-40.3	-43.1	14.7	0.00e+00	0	55	0	166723584	52	4902
2026-01-03 11:56:30.60	247.59	11.82	-40.4	-43.4	14.4	0.00e+00	0	55	0	171966464	52	5044
2026-01-03 11:56:33.63	248.11	11.95	-40.5	-43.5	14.3	1.50e-06	0	55	0	177209344	52	5108
2026-01-03 11:56:36.66	248.64	12.07	-40.5	-43.6	14.2	2.20e-06	0	55	0	183500800	52	5178
2026-01-03 11:56:39.69	249.17	12.19	-40.6	-43.7	14.1	3.00e-06	0	55	0	188743680	52	5244
2026-01-03 11:56:42.72	249.71	12.31	-40.8	-44.0	13.8	3.80e-06	0	55	0	195035136	52	5424
2026-01-03 11:56:45.74	250.24	12.43	-40.9	-44.3	13.5	1.06e-05	0	55	0	200278016	52	5600
2026-01-03 11:56:48.77	250.79	12.55	-41.0	-44.4	13.4	1.44e-05	0	55	0	205520896	52	5657
2026-01-03 11:56:51.80	251.33	12.67	-40.9	-44.2	13.6	4.50e-06	0	55	0	211812352	52	5557
2026-01-03 11:56:54.83	251.89	12.78	-41.0	-44.4	13.4	1.37e-05	0	55	0	217055232	52	5667
2026-01-03 11:56:57.85	252.44	12.89	-41.2	-44.7	13.1	2.59e-05	0	55	0	223346688	53	5548
2026-01-03 11:57:00.88	253.00	13.00	-41.3	-44.8	12.9	3.96e-05	0	55	0	228589568	53	5656
2026-01-03 11:57:03.91	253.56	13.11	-41.1	-44.6	13.2	2.67e-05	0	55	0	234881024	53	5470
2026-01-03 11:57:06.94	254.13	13.22	-41.1	-44.5	13.2	1.67e-05	0	56	0	240123904	53	5458
2026-01-03 11:57:09.97	254.70	13.32	-41.2	-44.8	13.0	3.81e-05	0	56	0	245366784	53	5614
2026-01-03 11:57:13.00	255.28	13.43	-41.5	-45.2	12.6	1.07e-04	0	56	0	251658240	53	5899
2026-01-03 11:57:16.02	255.86	13.52	-41.4	-45.2	12.6	9.68e-05	0	55	0	256901120	53	5868
2026-01-03 11:57:19.05	256.44	13.62	-41.3	-44.9	12.9	8.01e-05	0	56	0	263192576	53	5680
2026-01-03 11:57:22.08	257.03	13.72	-41.2	-44.7	13.1	2.05e-05	0	56	0	268435456	53	5536
2026-01-03 11:57:25.11	257.62	13.81	-41.2	-44.7	13.1	2.74e-05	0	56	0	273678336	53	5548
2026-01-03 11:57:28.14	258.21	13.90	-41.4	-45.1	12.7	7.24e-05	0	56	0	279969792	53	5793
2026-01-03 11:57:31.16	258.81	13.99	-41.2	-44.7	13.1	2.74e-05	0	56	0	285212672	53	5553
2026-01-03 11:57:34.19	259.41	14.07	-40.8	-44.0	13.8	7.60e-06	0	56	0	291504128	53	5141
2026-01-03 11:57:37.22	260.01	14.15	-40.3	-43.3	14.6	0.00e+00	0	56	0	296747008	52	4995
2026-01-03 11:57:40.25	260.62	14.23	-40.3	-43.2	14.7	0.00e+00	0	56	0	301989888	52	4964
2026-01-03 11:57:43.28	261.23	14.31	-40.4	-43.3	14.5	0.00e+00	0	56	0	308281344	52	5020
2026-01-03 11:57:46.31	261.85	14.38	-40.3	-43.2	14.6	1.50e-06	0	56	0	313524224	52	4979
2026-01-03 11:57:49.34	262.46	14.46	-40.2	-43.1	14.8	0.00e+00	0	56	0	319815680	52	4888
2026-01-03 11:57:52.37	263.08	14.52	-40.2	-43.0	14.9	0.00e+00	0	56	0	325058560	52	4834
2026-01-03 11:57:55.40	263.70	14.59	-40.3	-43.1	14.7	0.00e+00	0	56	0	331350016	52	4910
2026-01-03 11:57:58.42	264.33	14.65	-40.5	-43.5	14.3	0.00e+00	0	56	0	336592896	52	5141
2026-01-03 11:58:01.45	264.95	14.71	-40.8	-43.9	14.0	2.20e-06	0	56	0	341835776	52	5359
2026-01-03 11:58:04.48	265.58	14.77	-40.8	-43.9	13.9	3.00e-06	0	56	0	348127232	52	5392
2026-01-03 11:58:07.51	266.21	14.82	-40.8	-43.9	13.9	3.00e-06	0	56	0	353370112	52	5399
2026-01-03 11:58:10.54	266.85	14.87	-40.8	-44.0	13.8	1.50e-06	0	56	0	359661568	52	5450
2026-01-03 11:58:13.57	267.48	14.92	-40.9	-44.1	13.7	3.00e-06	0	56	0	364904448	52	5489
2026-01-03 11:58:16.59	268.12	14.96	-40.9	-44.1	13.7	9.10e-06	0	56	0	370147328	52	5499
2026-01-03 11:58:19.62	268.76	15.00	-40.8	-43.9	13.9	5.30e-06	0	56	0	376438784	52	5391
2026-01-03 11:58:22.65	269.40	15.04	-40.8	-44.0	13.8	7.60e-06	0	56	0	381681664	52	5431
2026-01-03 11:58:25.68	270.04	15.07	-40.8	-44.0	13.8	3.00e-06	0	56	0	387973120	52	5414
2026-01-03 11:58:28.71	270.68	15.10	-40.6	-43.7	14.1	2.20e-06	0	56	0	393216000	52	5225
2026-01-03 11:58:31.74	271.33	15.13	-40.6	-43.7	14.1	4.50e-06	0	56	0	399507456	52	5224
2026-01-03 11:58:34.77	271.97	15.16	-40.6	-43.7	14.1	4.50e-06	0	56	0	404750336	52	5257
2026-01-03 11:58:37.80	272.62	15.18	-40.6	-43.7	14.1	0.00e+00	0	56	0	409993216	52	5242
2026-01-03 11:58:40.83	273.27	15.19	-40.6	-43.6	14.2	7.00e-07	0	56	0	416284672	52	5175
2026-01-03 11:58:43.86	273.92	15.21	-40.5	-43.5	14.3	7.00e-07	0	56	0	421527552	52	5123
2026-01-03 11:58:46.89	274.57	15.22	-40.5	-43.5	14.3	0.00e+00	0	56	0	427819008	52	5138
2026-01-03 11:58:49.92	275.21	15.22	-40.5	-43.5	14.3	1.50e-06	0	56	0	433061888	52	5131
2026-01-03 11:58:52.94	275.86	15.23	-40.3	-43.2	14.5	7.00e-07	0	56	0	438304768	52	4980
2026-01-03 11:58:55.97	276.51	15.23	-40.2	-43.0	14.7	0.00e+00	0	56	0	444596224	52	4862
2026-01-03 11:58:59.00	277.16	15.22	-40.2	-43.1	14.7	0.00e+00	0	56	0	449839104	52	4886
2026-01-03 11:59:02.03	277.81	15.22	-40.3	-43.2	14.5	7.00e-07	0	56	0	456130560	52	4956
2026-01-03 11:59:05.06	278.45	15.21	-40.2	-43.0	14.8	0.00e+00	0	56	0	461373440	52	4840
2026-01-03 11:59:08.08	279.10	15.19	-40.0	-42.7	15.1	0.00e+00	0	57	0	467664896	51	4951
2026-01-03 11:59:11.11	279.75	15.18	-40.1	-42.8	15.0	0.00e+00	0	56	0	472907776	51	5041
2026-01-03 11:59:14.14	280.39	15.16	-40.2	-43.1	14.8	0.00e+00	0	56	0	478150656	51	5174
2026-01-03 11:59:17.17	281.04	15.13	-40.1	-42.9	14.9	0.00e+00	0	56	0	484442112	51	5070
2026-01-03 11:59:20.20	281.68	15.10	-40.0	-42.8	15.1	0.00e+00	0	56	0	489684992	51	4990
2026-01-03 11:59:23.23	282.32	15.07	-40.0	-42.7	15.1	0.00e+00	0	56	0	495976448	51	4955
2026-01-03 11:59:26.26	282.97	15.04	-40.0	-42.6	15.2	0.00e+00	0	56	0	501219328	51	4914
2026-01-03 11:59:29.29	283.61	15.00	-40.0	-42.7	15.1	0.00e+00	0	56	0	506462208	51	4933
2026-01-03 11:59:32.31	284.24	14.96	-40.1	-42.9	14.9	0.00e+00	0	56	0	512753664	51	5073
2026-01-03 11:59:35.34	284.88	14.92	-40.2	-43.0	14.8	0.00e+00	0	56	0	517996544	51	5148
2026-01-03 11:59:38.37	285.51	14.87	-40.1	-42.8	14.9	0.00e+00	0	56	0	524288000	51	5040
2026-01-03 11:59:41.40	286.14	14.82	-40.2	-43.0	14.8	0.00e+00	0	56	0	529530880	51	5116
2026-01-03 11:59:44.42	286.77	14.77	-40.3	-43.2	14.6	0.00e+00	0	57	0	535822336	51	5220
2026-01-03 11:59:47.45	287.40	14.71	-40.0	-42.8	14.9	7.00e-07	0	57	0	541065216	51	5011
2026-01-03 11:59:50.48	288.02	14.65	-39.9	-42.7	15.0	0.00e+00	0	56	0	546308096	51	4937
2026-01-03 11:59:53.51	288.65	14.59	-40.1	-42.9	14.8	0.00e+00	0	57	0	552599552	51	5081
2026-01-03 11:59:56.54	289.27	14.53	-40.3	-43.2	14.5	0.00e+00	0	56	0	557842432	51	5227
2026-01-03 11:59:59.57	289.89	14.46	-40.1	-42.9	14.7	7.00e-07	0	57	0	564133888	51	5074
2026-01-03 12:00:02.60	290.50	14.39	-39.9	-42.6	15.1	0.00e+00	0	57	0	569376768	51	4877
2026-01-03 12:00:05.63	291.11	14.31	-39.6	-42.2	15.3	0.00e+00	0	57	0	574619648	51	4702
2026-01-03 12:00:08.66	291.72	14.24	-39.4	-41.9	15.6	0.00e+00	0	57	0	580911104	50	4779
2026-01-03 12:00:11.69	292.33	14.16	-39.6	-42.3	15.2	0.00e+00	0	57	0	586153984	50	4996
2026-01-03 12:00:14.72	292.93	14.08	-39.8	-42.5	15.0	0.00e+00	0	57	0	592445440	50	5120
2026-01-03 12:00:17.75	293.53	13.99	-39.7	-42.4	15.1	0.00e+00	0	57	0	597688320	50	5046
2026-01-03 12:00:20.78	294.12	13.90	-39.3	-41.9	15.6	0.00e+00	0	57	0	603979776	50	4763
2026-01-03 12:00:23.80	294.71	13.81	-39.3	-41.8	15.7	7.00e-07	0	56	0	609222656	50	4742
2026-01-03 12:00:26.83	295.30	13.72	-39.3	-41.9	15.6	0.00e+00	0	57	0	614465536	50	4766
2026-01-03 12:00:29.86	295.88	13.63	-39.5	-42.1	15.4	0.00e+00	0	57	0	620756992	50	4891
2026-01-03 12:00:32.89	296.47	13.53	-39.7	-42.4	15.1	0.00e+00	0	57	0	625999872	50	5089
2026-01-03 12:00:35.92	297.04	13.43	-39.8	-42.5	15.0	7.00e-07	0	57	0	632291328	50	5144
2026-01-03 12:00:38.95	297.62	13.33	-39.6	-42.2	15.4	0.00e+00	0	57	0	637534208	50	4939
2026-01-03 12:00:41.98	298.19	13.23	-39.7	-42.3	15.3	7.00e-07	0	57	0	642777088	50	5018
2026-01-03 12:00:45.01	298.75	13.12	-39.7	-42.2	15.4	0.00e+00	0	57	0	649068544	50	4972
2026-01-03 12:00:48.03	299.31	13.02	-39.8	-42.5	15.2	0.00e+00	0	57	0	654311424	50	5101
2026-01-03 12:00:51.07	299.87	12.91	-40.1	-42.9	14.8	7.00e-07	0	57	0	660602880	50	5364
2026-01-03 12:00:54.10	300.42	12.79	-40.2	-43.1	14.6	1.50e-06	0	57	0	665845760	51	5212
2026-01-03 12:00:57.13	300.97	12.68	-40.3	-43.2	14.4	0.00e+00	0	57	0	672137216	51	5274
2026-01-03 12:01:00.16	301.52	12.57	-40.4	-43.4	14.3	7.00e-07	0	57	0	677380096	51	5371
2026-01-03 12:01:03.19	302.06	12.45	-40.6	-43.7	14.0	2.20e-06	0	56	0	682622976	51	5571
2026-01-03 12:01:06.21	302.60	12.33	-40.5	-43.5	14.1	5.30e-06	0	57	0	688914432	51	5462
2026-01-03 12:01:09.24	303.13	12.21	-40.5	-43.5	14.2	0.00e+00	0	57	0	694157312	51	5461
2026-01-03 12:01:12.27	303.66	12.09	-40.7	-44.0	13.6	4.50e-06	0	56	0	700448768	52	5452
2026-01-03 12:01:15.30	304.18	11.97	-41.1	-44.7	12.8	5.34e-05	0	56	0	705691648	52	5903
2026-01-03 12:01:18.33	304.70	11.84	-41.4	-45.3	12.2	1.84e-04	0	57	0	710934528	53	5948
2026-01-03 12:01:21.36	305.22	11.72	-41.6	-45.7	11.8	3.27e-04	0	57	0	717225984	53	6256
2026-01-03 12:01:24.38	305.72	11.59	-41.9	-46.4	11.0	1.58e-03	0	57	0	722468864	54	6390
2026-01-03 12:01:27.42	306.23	11.46	-41.7	-46.0	11.5	1.22e-03	0	57	0	728760320	54	6106
2026-01-03 12:01:30.44	306.73	11.33	-41.4	-45.4	12.1	3.04e-04	0	57	0	734003200	54	5678
2026-01-03 12:01:33.47	307.23	11.20	-41.3	-45.0	12.5	1.36e-04	0	57	0	740294656	54	5443
2026-01-03 12:01:36.50	307.73	11.06	-41.4	-45.2	12.3	1.40e-04	0	57	0	745537536	54	5562
2026-01-03 12:01:39.53	308.22	10.93	-41.5	-45.5	12.0	3.39e-04	0	57	0	750780416	54	5766
2026-01-03 12:01:42.56	308.70	10.80	-41.8	-46.2	11.2	1.09e-03	0	57	0	757071872	54	6251
2026-01-03 12:01:45.59	309.18	10.66	-41.8	-46.3	11.2	1.49e-03	0	57	0	762314752	54	6277
2026-01-03 12:01:48.61	309.66	10.52	-41.6	-45.8	11.6	6.19e-04	0	57	0	768606208	54	5980
2026-01-03 12:01:51.64	310.13	10.39	-41.5	-45.5	12.0	3.57e-04	0	57	0	773849088	54	5736
2026-01-03 12:01:54.67	310.59	10.25	-41.5	-45.6	11.8	4.90e-04	0	57	0	779091968	54	5842
2026-01-03 12:01:57.70	311.06	10.11	-41.4	-45.3	12.2	2.40e-04	0	57	0	785383424	54	5605
2026-01-03 12:02:00.73	311.52	9.97	-41.0	-44.6	12.9	5.03e-05	0	57	0	790626304	54	5160
2026-01-03 12:02:03.76	311.97	9.83	-40.7	-44.1	13.3	2.97e-05	0	57	0	796917760	53	5218
2026-01-03 12:02:06.79	312.42	9.68	-40.9	-44.5	12.9	3.35e-05	0	57	0	802160640	53	5429
2026-01-03 12:02:09.82	312.87	9.54	-41.1	-44.8	12.5	1.09e-04	0	57	0	808452096	53	5643
2026-01-03 12:02:12.85	313.31	9.40	-41.1	-44.8	12.4	1.43e-04	0	57	0	813694976	53	5653
2026-01-03 12:02:15.88	313.75	9.26	-41.1	-44.8	12.5	1.21e-04	0	57	0	818937856	53	5646
2026-01-03 12:02:18.91	314.18	9.11	-41.1	-44.9	12.4	1.59e-04	0	57	0	825229312	53	5687
2026-01-03 12:02:21.94	314.61	8.97	-40.9	-44.6	12.6	1.30e-04	0	57	0	830472192	53	5517
2026-01-03 12:02:24.97	315.04	8.82	-40.7	-44.2	13.1	2.59e-05	0	57	0	836763648	53	5255
2026-01-03 12:02:28.00	315.46	8.67	-40.5	-43.8	13.6	9.10e-06	0	57	0	842006528	53	5001
2026-01-03 12:02:31.02	315.87	8.53	-40.6	-44.1	13.2	3.43e-05	0	57	0	847249408	53	5184
2026-01-03 12:02:34.05	316.29	8.38	-40.8	-44.4	12.9	4.34e-05	0	57	0	853540864	53	5356
2026-01-03 12:02:37.08	316.70	8.23	-40.6	-44.1	13.2	2.67e-05	0	57	0	858783744	53	5167
2026-01-03 12:02:40.11	317.10	8.09	-40.6	-44.0	13.2	4.11e-05	0	57	0	865075200	53	5142
2026-01-03 12:02:43.14	317.50	7.94	-44.6	-59.2	3.8	1.49e+00	0	57	104	867172352	59	20865
2026-01-03 12:02:46.17	317.90	7.79	-45.0	-59.8	3.8	1.49e+00	0	57	104	867172352	60	21054
2026-01-03 12:02:49.21	318.30	7.64	-45.1	-59.9	3.8	1.49e+00	0	57	104	867172352	60	21444
2026-01-03 12:02:52.24	318.68	7.49	-45.1	-59.9	3.8	1.49e+00	0	57	104	867172352	60	21365
2026-01-03 12:02:55.27	319.07	7.34	-45.0	-59.8	3.8	1.49e+00	0	57	104	867172352	60	21257
2026-01-03 12:02:58.30	319.45	7.20	-45.0	-59.9	3.8	1.49e+00	0	57	104	867172352	60	21325
2026-01-03 12:03:01.34	319.83	7.05	-45.0	-59.9	3.8	1.49e+00	0	57	104	867172352	60	21289
2026-01-03 12:03:04.37	320.21	6.90	-45.0	-59.9	3.8	1.49e+00	0	57	104	867172352	60	21305
2026-01-03 12:03:07.40	320.58	6.75	-45.0	-59.9	3.8	1.49e+00	0	57	104	867172352	60	21295
2026-01-03 12:03:10.44	320.95	6.60	-45.0	-59.8	3.8	1.49e+00	0	57	104	867172352	60	21229
2026-01-03 12:03:13.47	321.31	6.45	-45.0	-59.8	3.8	1.49e+00	0	57	104	867172352	60	21259
2026-01-03 12:03:16.51	321.67	6.30	-45.0	-59.8	3.8	1.49e+00	0	57	104	867172352	60	21256
2026-01-03 12:03:19.54	322.03	6.15	-45.0	-59.8	3.8	1.49e+00	0	57	104	867172352	60	21209
2026-01-03 12:03:22.58	322.38	6.00	-45.0	-59.8	3.8	1.49e+00	0	57	104	867172352	60	21182
2026-01-03 12:03:25.61	322.73	5.85	-45.0	-59.8	3.8	1.49e+00	0	57	104	867172352	60	21252
2026-01-03 12:03:28.64	323.08	5.70	-45.0	-59.8	3.8	1.49e+00	0	57	104	867172352	60	21217
2026-01-03 12:03:31.67	323.42	5.55	-45.0	-59.8	3.8	1.49e+00	0	57	104	867172352	60	21191
2026-01-03 12:03:34.71	323.76	5.40	-45.0	-59.8	3.8	1.49e+00	0	57	104	867172352	60	21225
2026-01-03 12:03:37.74	324.09	5.25	-45.0	-59.8	3.8	1.49e+00	0	57	104	867172352	60	21219
2026-01-03 12:03:40.77	324.43	5.10	-45.0	-59.8	3.8	1.49e+00	0	57	104	867172352	60	21242
2026-01-03 12:03:43.81	324.76	4.95	-45.0	-59.8	3.8	1.49e+00	0	57	104	867172352	60	21220
2026-01-03 12:03:46.84	325.08	4.80	-45.0	-59.8	3.8	1.49e+00	0	57	104	867172352	60	21189
2026-01-03 12:03:49.87	325.41	4.65	-45.0	-59.8	3.8	1.49e+00	0	57	104	867172352	60	21167
2026-01-03 12:03:52.91	325.73	4.50	-45.0	-59.8	3.8	1.49e+00	0	57	104	867172352	60	21170
2026-01-03 12:03:55.94	326.04	4.35	-45.0	-59.8	3.8	1.49e+00	0	57	104	867172352	60	21228
2026-01-03 12:03:58.97	326.36	4.20	-45.0	-59.8	3.8	1.49e+00	0	57	104	867172352	60	21249
2026-01-03 12:04:02.01	326.67	4.05	-45.0	-59.8	3.8	1.49e+00	0	57	104	867172352	60	21166
2026-01-03 12:04:05.04	326.98	3.90	-45.0	-59.9	3.8	1.49e+00	0	57	104	867172352	60	21262
2026-01-03 12:04:08.07	327.28	3.75	-45.0	-59.8	3.8	1.49e+00	0	57	104	867172352	60	21188
2026-01-03 12:04:11.11	327.58	3.61	-44.7	-59.8	3.8	1.49e+00	0	57	104	867172352	60	21216
2026-01-03 12:04:14.14	327.88	3.46	-45.0	-59.8	3.8	1.49e+00	0	57	104	867172352	60	21136
2026-01-03 12:04:17.17	328.18	3.31	-45.0	-59.8	3.8	1.49e+00	0	57	104	867172352	60	21219
2026-01-03 12:04:20.21	328.47	3.16	-45.0	-59.8	3.8	1.49e+00	0	57	104	867172352	60	21224
2026-01-03 12:04:23.24	328.76	3.01	-45.0	-59.8	3.8	1.49e+00	0	57	104	867172352	60	21225
2026-01-03 12:04:26.27	329.05	2.87	-45.0	-59.8	3.8	1.49e+00	0	57	104	867172352	60	21181
2026-01-03 12:04:29.30	329.34	2.72	-45.0	-59.8	3.8	1.49e+00	0	57	104	867172352	60	21215
2026-01-03 12:04:32.34	329.62	2.57	-45.0	-59.8	3.8	1.49e+00	0	57	104	867172352	60	21181
2026-01-03 12:04:35.37	329.90	2.43	-44.1	-59.8	3.8	1.49e+00	0	57	104	867172352	60	21172
2026-01-03 12:04:38.40	330.18	2.28	-45.0	-59.8	3.8	1.49e+00	0	57	104	867172352	60	21182
2026-01-03 12:04:41.44	330.45	2.13	-45.0	-59.8	3.8	1.49e+00	0	58	104	867172352	60	21166
2026-01-03 12:04:44.47	330.72	1.99	-44.9	-59.8	3.8	1.49e+00	0	57	104	867172352	60	21148

#Closed at: 2026-01-03 12:04:45
#Recorded file [867 MB]: D:/lorett/data/31039_260103_145307.dat