passes_logs/2026/01/03/R2.0S_Moscow/R2.0S_Moscow__20260103_052532_FENGYUN_3G_rec.log

#Pass ID: 20260103_052532_FENGYUN 3G
#Satellite: FENGYUN 3G
#Configuration: FENGYUN 3G
#almurnet v.1.7.20251203
#Start time: 2026-01-03 05:25:31

#Version: 2.2.20231116
#Station: R2.0S_Moscow
#Location: 37.707566 lon 55.798166 lat
#TLE: 1 56232U 23055A   26002.31058000  .00046172  00000+0  73618-3 0  9997
#TLE: 2 56232  49.9934 121.3649 0004156 328.0230  32.0484 15.52711916154221

#Time	Az	El	Level	Level2	SNR	BER	BlckErr	Temp	State	Recorded	gain1	gain2
2026-01-03 05:25:31.91	261.49	1.96	-44.2	-62.4	3.8	8.46e-01	0	47	0	0	60	28392
2026-01-03 05:25:34.93	261.27	2.16	-44.2	-62.3	3.8	8.45e-01	0	47	104	0	60	28258
2026-01-03 05:25:37.96	261.05	2.35	-44.2	-62.3	3.8	8.45e-01	0	47	104	0	60	28209
2026-01-03 05:25:41.00	260.83	2.55	-44.2	-62.3	3.8	8.46e-01	0	48	104	0	60	28037
2026-01-03 05:25:44.03	260.60	2.75	-44.2	-62.3	3.8	8.46e-01	0	48	104	0	60	28086
2026-01-03 05:25:47.06	260.37	2.95	-44.2	-62.3	3.8	8.47e-01	0	48	104	0	60	28241
2026-01-03 05:25:50.10	260.13	3.16	-44.2	-62.4	3.8	8.46e-01	0	48	104	0	60	28352
2026-01-03 05:25:53.13	259.89	3.36	-44.2	-62.3	3.8	8.47e-01	0	49	104	0	60	28303
2026-01-03 05:25:56.17	259.64	3.57	-44.2	-62.3	3.8	8.46e-01	0	49	104	0	60	28258
2026-01-03 05:25:59.20	259.39	3.78	-44.2	-62.2	3.8	8.45e-01	0	49	104	0	60	27816
2026-01-03 05:26:02.23	259.13	3.99	-44.2	-61.9	3.8	8.46e-01	0	49	104	0	60	26904
2026-01-03 05:26:05.27	258.86	4.21	-44.2	-61.5	3.8	8.46e-01	0	49	104	0	60	25620
2026-01-03 05:26:08.30	258.59	4.42	-44.2	-61.7	3.8	8.47e-01	0	49	104	0	60	26408
2026-01-03 05:26:11.33	258.32	4.64	-44.2	-62.1	3.8	8.47e-01	0	50	104	0	60	27619
2026-01-03 05:26:14.36	258.04	4.86	-44.2	-62.3	3.8	8.45e-01	0	50	104	0	60	28123
2026-01-03 05:26:17.40	257.75	5.08	-44.2	-62.2	3.8	8.46e-01	0	50	104	0	60	28015
2026-01-03 05:26:20.43	257.45	5.30	-44.2	-61.9	3.8	8.47e-01	0	50	104	0	60	27046
2026-01-03 05:26:23.46	257.15	5.53	-44.1	-61.2	3.8	8.46e-01	0	50	104	0	60	24941
2026-01-03 05:26:26.50	256.84	5.76	-44.2	-61.3	3.8	8.47e-01	0	51	104	0	60	25126
2026-01-03 05:26:29.53	256.53	5.99	-44.2	-62.1	3.8	8.46e-01	0	50	104	0	60	27590
2026-01-03 05:26:32.56	256.21	6.23	-44.2	-62.1	3.8	8.47e-01	0	51	104	0	60	27428
2026-01-03 05:26:35.60	255.88	6.46	-44.2	-61.1	3.8	8.46e-01	0	51	104	0	60	24604
2026-01-03 05:26:38.63	255.54	6.70	-44.1	-60.2	3.8	8.45e-01	0	51	104	0	60	22178
2026-01-03 05:26:41.66	255.20	6.94	-44.1	-61.0	3.8	8.44e-01	0	51	104	0	60	24169
2026-01-03 05:26:44.69	254.84	7.19	-44.1	-60.0	3.8	8.45e-01	0	51	104	0	60	21708
2026-01-03 05:26:47.73	254.48	7.44	-42.9	-49.4	11.7	3.53e-02	0	51	0	2097152	57	7582
2026-01-03 05:26:50.76	254.11	7.69	-40.2	-43.5	17.7	0.00e+00	0	52	0	5242880	52	5105
2026-01-03 05:26:53.79	253.73	7.94	-38.7	-41.2	20.0	0.00e+00	0	52	0	8912896	49	4690
2026-01-03 05:26:56.83	253.34	8.19	-40.4	-43.8	17.3	3.73e-01	0	52	0	11010048	52	5291
2026-01-03 05:26:59.85	252.95	8.45	-39.4	-42.1	19.8	2.29e-02	0	52	0	14680064	49	5177
2026-01-03 05:27:02.88	252.54	8.71	-37.8	-39.9	21.3	0.00e+00	0	52	0	17825792	47	4542
2026-01-03 05:27:05.91	252.12	8.98	-37.5	-39.6	21.7	0.00e+00	0	52	0	21495808	47	4357
2026-01-03 05:27:08.94	251.69	9.25	-37.3	-39.3	22.0	0.00e+00	0	52	0	24641536	46	4491
2026-01-03 05:27:11.97	251.25	9.52	-37.0	-39.0	22.3	0.00e+00	0	52	0	28311552	46	4315
2026-01-03 05:27:15.00	250.80	9.79	-37.3	-39.3	22.0	0.00e+00	0	52	0	31457280	46	4491
2026-01-03 05:27:18.03	250.34	10.07	-37.3	-39.3	22.1	0.00e+00	0	53	0	35127296	46	4468
2026-01-03 05:27:21.06	249.86	10.35	-36.7	-38.6	22.7	0.00e+00	0	53	0	38273024	45	4364
2026-01-03 05:27:24.09	249.37	10.63	-36.4	-38.3	23.1	0.00e+00	0	53	0	41943040	44	4451
2026-01-03 05:27:27.12	248.87	10.92	-36.6	-38.5	22.9	0.00e+00	0	53	0	45088768	44	4554
2026-01-03 05:27:30.15	248.36	11.21	-36.6	-38.4	23.0	0.00e+00	0	53	0	48758784	44	4528
2026-01-03 05:27:33.18	247.83	11.50	-36.4	-38.1	23.3	0.00e+00	0	53	0	51904512	44	4387
2026-01-03 05:27:36.21	247.29	11.80	-36.4	-38.2	23.3	0.00e+00	0	53	0	55574528	44	4401
2026-01-03 05:27:39.23	246.74	12.10	-36.6	-38.4	23.0	0.00e+00	0	53	0	58720256	44	4531
2026-01-03 05:27:42.26	246.16	12.40	-36.3	-38.1	23.3	0.00e+00	0	53	0	62390272	44	4381
2026-01-03 05:27:45.29	245.58	12.71	-36.0	-37.8	23.6	0.00e+00	0	53	0	65536000	44	4196
2026-01-03 05:27:48.32	244.97	13.02	-35.8	-37.5	23.7	0.00e+00	0	53	0	69206016	43	4331
2026-01-03 05:27:51.35	244.35	13.33	-35.7	-37.4	24.0	0.00e+00	0	53	0	72351744	43	4246
2026-01-03 05:27:54.39	243.71	13.65	-35.6	-37.2	24.1	0.00e+00	0	53	0	76021760	43	4180
2026-01-03 05:27:57.41	243.06	13.97	-35.9	-37.7	23.7	0.00e+00	0	53	0	79167488	43	4409
2026-01-03 05:28:00.44	242.38	14.29	-35.7	-37.5	23.9	0.00e+00	0	53	0	82837504	43	4292
2026-01-03 05:28:03.47	241.69	14.61	-35.3	-36.9	24.4	0.00e+00	0	53	0	85983232	42	4269
2026-01-03 05:28:06.50	240.97	14.94	-35.1	-36.7	24.5	0.00e+00	0	54	0	89653248	42	4169
2026-01-03 05:28:09.53	240.24	15.27	-34.7	-36.3	25.0	0.00e+00	0	53	0	92798976	41	4204
2026-01-03 05:28:12.56	239.48	15.61	-34.8	-36.3	24.9	0.00e+00	0	54	0	96468992	41	4239
2026-01-03 05:28:15.59	238.70	15.94	-34.8	-36.4	24.9	0.00e+00	0	53	0	99614720	41	4259
2026-01-03 05:28:18.62	237.90	16.28	-34.4	-35.9	25.4	0.00e+00	0	54	0	103284736	40	4272
2026-01-03 05:28:21.65	237.08	16.62	-34.4	-35.9	25.4	0.00e+00	0	54	0	106430464	40	4291
2026-01-03 05:28:24.68	236.24	16.96	-34.4	-35.9	25.5	0.00e+00	0	54	0	110100480	40	4282
2026-01-03 05:28:27.70	235.37	17.30	-34.2	-35.6	25.7	0.00e+00	0	54	0	113246208	40	4140
2026-01-03 05:28:30.74	234.47	17.65	-34.1	-35.6	25.8	0.00e+00	0	54	0	116916224	40	4123
2026-01-03 05:28:33.76	233.55	17.99	-34.2	-35.7	25.7	0.00e+00	0	54	0	120061952	40	4160
2026-01-03 05:28:36.80	232.60	18.33	-34.0	-35.4	26.0	0.00e+00	0	54	0	123731968	39	4263
2026-01-03 05:28:39.83	231.63	18.68	-34.1	-35.6	25.8	0.00e+00	0	54	0	126877696	39	4376
2026-01-03 05:28:42.86	230.63	19.02	-33.6	-35.0	26.3	0.00e+00	0	54	0	130547712	39	4098
2026-01-03 05:28:45.89	229.60	19.36	-34.3	-35.7	25.7	0.00e+00	0	54	0	133693440	39	4440
2026-01-03 05:28:48.92	228.54	19.70	-33.8	-35.2	26.3	0.00e+00	0	54	0	137363456	39	4184
2026-01-03 05:28:51.95	227.45	20.04	-33.9	-35.3	26.1	0.00e+00	0	54	0	140509184	39	4215
2026-01-03 05:28:54.98	226.34	20.37	-33.5	-34.9	26.5	0.00e+00	0	54	0	144179200	38	4266
2026-01-03 05:28:58.01	225.19	20.70	-33.6	-35.0	26.5	0.00e+00	0	54	0	147324928	38	4330
2026-01-03 05:29:01.03	224.02	21.03	-33.7	-35.1	26.4	0.00e+00	0	54	0	150994944	38	4363
2026-01-03 05:29:04.06	222.82	21.35	-33.6	-35.0	26.5	0.00e+00	0	55	0	154140672	38	4297
2026-01-03 05:29:07.09	221.58	21.66	-33.2	-34.6	26.8	0.00e+00	0	55	0	157810688	38	4131
2026-01-03 05:29:10.12	220.32	21.96	-33.2	-34.6	26.9	0.00e+00	0	55	0	160956416	38	4105
2026-01-03 05:29:13.15	219.03	22.26	-33.5	-34.8	26.6	0.00e+00	0	55	0	164626432	38	4242
2026-01-03 05:29:16.18	217.71	22.55	-33.4	-34.8	26.7	0.00e+00	0	55	0	167772160	38	4205
2026-01-03 05:29:19.20	216.36	22.83	-33.2	-34.6	26.9	0.00e+00	0	55	0	171442176	38	4104
2026-01-03 05:29:22.23	214.98	23.09	-33.0	-34.4	27.0	0.00e+00	0	54	0	174587904	38	4015
2026-01-03 05:29:25.26	213.57	23.35	-33.0	-34.4	27.0	0.00e+00	0	55	0	178257920	37	4245
2026-01-03 05:29:28.29	212.14	23.59	-33.3	-34.7	26.8	0.00e+00	0	55	0	181403648	37	4410
2026-01-03 05:29:31.32	210.68	23.82	-33.1	-34.4	26.9	0.00e+00	0	55	0	185073664	37	4287
2026-01-03 05:29:34.35	209.20	24.03	-32.5	-33.8	27.6	0.00e+00	0	55	0	188219392	37	3992
2026-01-03 05:29:37.37	207.70	24.22	-32.5	-33.8	27.5	0.00e+00	0	55	0	191889408	37	3999
2026-01-03 05:29:40.40	206.18	24.40	-32.4	-33.7	27.7	0.00e+00	0	55	0	195035136	36	4151
2026-01-03 05:29:43.43	204.63	24.56	-32.4	-33.7	27.6	0.00e+00	0	55	0	198705152	36	4193
2026-01-03 05:29:46.46	203.07	24.70	-32.3	-33.7	27.7	0.00e+00	0	55	0	201850880	36	4148
2026-01-03 05:29:49.49	201.50	24.82	-32.3	-33.6	27.7	0.00e+00	0	55	0	205520896	36	4126
2026-01-03 05:29:52.52	199.91	24.92	-32.4	-33.7	27.7	0.00e+00	0	55	0	208666624	36	4176
2026-01-03 05:29:55.55	198.31	25.01	-32.7	-34.0	27.4	0.00e+00	0	55	0	212336640	36	4327
2026-01-03 05:29:58.58	196.70	25.06	-32.8	-34.1	27.3	0.00e+00	0	55	0	215482368	36	4368
2026-01-03 05:30:01.61	195.08	25.10	-32.6	-33.9	27.4	0.00e+00	0	55	0	219152384	36	4277
2026-01-03 05:30:04.64	193.47	25.12	-32.8	-34.1	27.2	0.00e+00	0	55	0	222298112	36	4386
2026-01-03 05:30:07.67	191.85	25.11	-32.5	-33.9	27.5	0.00e+00	0	55	0	225968128	36	4256
2026-01-03 05:30:10.70	190.23	25.08	-32.8	-34.1	27.3	0.00e+00	0	55	0	229113856	36	4369
2026-01-03 05:30:13.73	188.62	25.03	-32.5	-33.9	27.5	0.00e+00	0	55	0	232783872	36	4245
2026-01-03 05:30:16.76	187.02	24.96	-32.7	-34.1	27.3	0.00e+00	0	55	0	235929600	36	4342
2026-01-03 05:30:19.79	185.42	24.87	-32.7	-34.1	27.3	0.00e+00	0	55	0	239599616	36	4352
2026-01-03 05:30:22.82	183.84	24.76	-33.0	-34.4	27.0	0.00e+00	0	55	0	242745344	36	4500
2026-01-03 05:30:25.84	182.28	24.63	-32.7	-34.1	27.2	0.00e+00	0	55	0	246415360	36	4343
2026-01-03 05:30:28.87	180.72	24.47	-32.9	-34.2	27.1	0.00e+00	0	55	0	249561088	36	4434
2026-01-03 05:30:31.90	179.19	24.30	-32.9	-34.2	27.1	0.00e+00	0	55	0	253231104	36	4433
2026-01-03 05:30:34.93	177.68	24.12	-32.7	-34.0	27.3	0.00e+00	0	55	0	256376832	36	4335
2026-01-03 05:30:37.96	176.18	23.91	-32.6	-34.0	27.3	0.00e+00	0	55	0	260046848	36	4306
2026-01-03 05:30:40.99	174.72	23.69	-32.9	-34.3	27.1	0.00e+00	0	55	0	263192576	36	4478
2026-01-03 05:30:44.01	173.28	23.46	-33.0	-34.4	27.0	0.00e+00	0	55	0	266862592	37	4268
2026-01-03 05:30:47.04	171.86	23.21	-33.0	-34.4	27.1	0.00e+00	0	55	0	270008320	37	4250
2026-01-03 05:30:50.07	170.47	22.95	-32.7	-34.0	27.4	0.00e+00	0	55	0	273678336	37	4086
2026-01-03 05:30:53.10	169.10	22.67	-33.5	-35.0	26.5	0.00e+00	0	55	0	276824064	37	4565
2026-01-03 05:30:56.13	167.77	22.39	-33.6	-35.0	26.6	0.00e+00	0	55	0	280494080	38	4296
2026-01-03 05:30:59.16	166.46	22.09	-32.9	-34.3	27.1	0.00e+00	0	55	0	283639808	37	4222
2026-01-03 05:31:02.19	165.19	21.79	-33.5	-34.9	26.6	0.00e+00	0	55	0	287309824	37	4519
2026-01-03 05:31:05.22	163.94	21.48	-33.6	-35.1	26.5	0.00e+00	0	55	0	290455552	38	4347
2026-01-03 05:31:08.25	162.72	21.17	-33.4	-34.8	26.7	0.00e+00	0	55	0	294125568	38	4235
2026-01-03 05:31:11.28	161.53	20.84	-33.5	-34.9	26.7	0.00e+00	0	55	0	297271296	38	4275
2026-01-03 05:31:14.30	160.38	20.52	-34.0	-35.5	26.1	0.00e+00	0	55	0	300941312	38	4561
2026-01-03 05:31:17.33	159.25	20.18	-33.8	-35.3	26.3	0.00e+00	0	55	0	304087040	38	4443
2026-01-03 05:31:20.36	158.15	19.85	-34.0	-35.5	26.2	0.00e+00	0	56	0	307757056	38	4560
2026-01-03 05:31:23.39	157.08	19.51	-33.8	-35.3	26.3	0.00e+00	0	56	0	310902784	38	4467
2026-01-03 05:31:26.41	156.04	19.17	-34.3	-35.8	25.8	0.00e+00	0	56	0	314572800	39	4474
2026-01-03 05:31:29.44	155.03	18.83	-33.8	-35.3	26.3	0.00e+00	0	56	0	317718528	39	4201
2026-01-03 05:31:32.47	154.04	18.48	-34.3	-35.8	25.8	0.00e+00	0	56	0	321388544	39	4482
2026-01-03 05:31:35.50	153.08	18.14	-34.5	-36.0	25.6	0.00e+00	0	56	0	324534272	39	4555
2026-01-03 05:31:38.52	152.15	17.80	-34.4	-35.9	25.7	0.00e+00	0	56	0	328204288	39	4499
2026-01-03 05:31:41.55	151.25	17.45	-34.5	-36.0	25.5	0.00e+00	0	56	0	331350016	40	4320
2026-01-03 05:31:44.58	150.36	17.11	-34.5	-36.0	25.4	0.00e+00	0	55	0	335020032	40	4319
2026-01-03 05:31:47.61	149.51	16.77	-34.8	-36.4	25.0	0.00e+00	0	56	0	338165760	40	4498
2026-01-03 05:31:50.64	148.67	16.43	-35.0	-36.6	24.8	0.00e+00	0	56	0	341835776	40	4633
2026-01-03 05:31:53.66	147.87	16.09	-35.1	-36.7	24.8	0.00e+00	0	56	0	344981504	40	4662
2026-01-03 05:31:56.69	147.08	15.75	-34.4	-35.9	25.5	0.00e+00	0	55	0	348651520	40	4279
2026-01-03 05:31:59.72	146.31	15.42	-35.1	-36.7	24.7	0.00e+00	0	56	0	351797248	40	4683
2026-01-03 05:32:02.75	145.57	15.09	-35.5	-37.2	24.2	0.00e+00	0	56	0	355467264	41	4695
2026-01-03 05:32:05.78	144.84	14.76	-35.4	-37.0	24.3	0.00e+00	0	56	0	358612992	41	4584
2026-01-03 05:32:08.81	144.14	14.43	-35.5	-37.2	24.1	0.00e+00	0	56	0	362283008	41	4681
2026-01-03 05:32:11.84	143.46	14.11	-35.5	-37.2	24.1	0.00e+00	0	56	0	365428736	41	4657
2026-01-03 05:32:14.86	142.79	13.79	-35.9	-37.6	23.7	0.00e+00	0	56	0	369098752	42	4650
2026-01-03 05:32:17.89	142.15	13.47	-36.1	-37.8	23.4	0.00e+00	0	55	0	372244480	42	4754
2026-01-03 05:32:20.92	141.52	13.15	-35.9	-37.6	23.6	0.00e+00	0	55	0	375914496	42	4644
2026-01-03 05:32:23.95	140.90	12.84	-35.9	-37.7	23.5	0.00e+00	0	56	0	379060224	42	4680
2026-01-03 05:32:26.98	140.31	12.53	-36.4	-38.2	22.9	0.00e+00	0	56	0	382730240	43	4705
2026-01-03 05:32:30.01	139.73	12.23	-37.0	-39.1	22.3	0.00e+00	0	56	0	385875968	44	4878
2026-01-03 05:32:33.04	139.17	11.93	-36.4	-38.3	23.0	0.00e+00	0	56	0	389545984	44	4451
2026-01-03 05:32:36.06	138.62	11.63	-36.1	-38.0	23.0	0.00e+00	0	56	0	392691712	42	4825
2026-01-03 05:32:39.09	138.08	11.34	-37.1	-39.3	21.8	0.00e+00	0	56	0	396361728	44	4989
2026-01-03 05:32:42.12	137.56	11.04	-37.8	-40.1	20.8	1.10e-06	0	56	0	399507456	46	4908
2026-01-03 05:32:45.15	137.06	10.76	-36.5	-38.7	21.6	1.10e-06	0	56	0	403177472	43	4971
2026-01-03 05:32:48.18	136.56	10.47	-39.3	-42.7	17.2	2.51e-04	0	56	0	406323200	49	5530
2026-01-03 05:32:51.21	136.08	10.19	-41.1	-49.4	9.9	4.13e-03	0	56	0	409993216	53	9537
2026-01-03 05:32:54.23	135.61	9.91	-38.5	-54.6	4.7	4.41e-01	0	56	0	411566080	51	19567
2026-01-03 05:32:57.26	135.16	9.64	-32.7	-53.4	4.4	8.35e-01	0	56	104	411566080	39	34071
2026-01-03 05:33:00.29	134.71	9.36	-35.0	-56.2	4.1	8.33e-01	0	56	104	411566080	42	39378
2026-01-03 05:33:03.32	134.28	9.09	-25.3	-48.7	3.8	8.22e-01	0	56	104	411566080	23	49375
2026-01-03 05:33:06.35	133.85	8.83	-24.7	-46.3	3.5	8.00e-01	0	56	104	411566080	20	44882
2026-01-03 05:33:09.38	133.44	8.57	-25.6	-46.6	3.5	8.01e-01	0	56	104	411566080	14	65482
2026-01-03 05:33:12.42	133.04	8.31	-26.6	-48.4	3.9	8.16e-01	0	56	104	411566080	25	42823
2026-01-03 05:33:15.45	132.64	8.05	-22.4	-44.4	3.8	8.00e-01	0	56	104	411566080	15	48090
2026-01-03 05:33:18.48	132.26	7.79	-44.9	-62.9	3.8	8.04e-01	0	56	104	411566080	60	30345
2026-01-03 05:33:21.51	131.89	7.54	-45.3	-63.5	3.8	8.46e-01	0	56	104	411566080	61	30420
2026-01-03 05:33:24.54	131.52	7.29	-45.5	-63.7	3.8	8.46e-01	0	56	104	411566080	61	31308
2026-01-03 05:33:27.58	131.16	7.05	-45.4	-63.6	3.8	8.48e-01	0	56	104	411566080	61	31069
2026-01-03 05:33:30.61	130.81	6.81	-45.3	-63.5	3.8	8.46e-01	0	56	104	411566080	61	30544
2026-01-03 05:33:33.64	130.47	6.57	-45.3	-63.4	3.8	8.46e-01	0	56	104	411566080	61	30216
2026-01-03 05:33:36.67	130.14	6.33	-45.2	-63.4	3.8	8.47e-01	0	56	104	411566080	61	30186
2026-01-03 05:33:39.71	129.81	6.09	-45.2	-63.4	3.8	8.47e-01	0	56	104	411566080	61	30200
2026-01-03 05:33:42.74	129.49	5.86	-45.2	-63.4	3.8	8.45e-01	0	56	104	411566080	61	30183
2026-01-03 05:33:45.77	129.18	5.63	-45.2	-63.3	3.8	8.47e-01	0	56	104	411566080	61	30024
2026-01-03 05:33:48.81	128.88	5.40	-45.2	-63.4	3.8	8.47e-01	0	56	104	411566080	61	30068
2026-01-03 05:33:51.84	128.58	5.18	-45.2	-63.4	3.8	8.45e-01	0	56	104	411566080	61	30103
2026-01-03 05:33:54.88	128.29	4.95	-45.2	-63.3	3.8	8.46e-01	0	56	104	411566080	61	30020
2026-01-03 05:33:57.91	128.00	4.73	-45.2	-63.4	3.8	8.45e-01	0	56	104	411566080	61	30058
2026-01-03 05:34:00.94	127.72	4.51	-45.2	-63.4	3.8	8.47e-01	0	56	104	411566080	61	30048
2026-01-03 05:34:03.97	127.45	4.30	-45.2	-63.3	3.8	8.46e-01	0	56	104	411566080	61	30005
2026-01-03 05:34:07.01	127.18	4.08	-45.2	-63.3	3.8	8.47e-01	0	56	104	411566080	61	29971
2026-01-03 05:34:10.04	126.92	3.87	-45.2	-63.4	3.8	8.47e-01	0	56	104	411566080	61	30120
2026-01-03 05:34:13.07	126.67	3.66	-45.2	-63.3	3.8	8.45e-01	0	56	104	411566080	61	29957
2026-01-03 05:34:16.11	126.41	3.45	-45.2	-63.3	3.8	8.47e-01	0	56	104	411566080	61	29954
2026-01-03 05:34:19.14	126.17	3.25	-45.2	-63.3	3.8	8.47e-01	0	56	104	411566080	61	30030
2026-01-03 05:34:22.17	125.93	3.04	-45.2	-63.3	3.8	8.45e-01	0	56	104	411566080	61	30002
2026-01-03 05:34:25.21	125.69	2.84	-45.2	-63.3	3.8	8.46e-01	0	56	104	411566080	61	30024
2026-01-03 05:34:28.24	125.46	2.64	-45.2	-63.3	3.8	8.46e-01	0	56	104	411566080	61	29947
2026-01-03 05:34:31.27	125.23	2.44	-45.2	-63.3	3.8	8.46e-01	0	56	104	411566080	61	29981
2026-01-03 05:34:34.30	125.01	2.24	-45.2	-63.3	3.8	8.46e-01	0	56	104	411566080	61	29883
2026-01-03 05:34:37.34	124.79	2.05	-45.2	-63.3	3.8	8.46e-01	0	56	104	411566080	61	29899

#Closed at: 2026-01-03 05:34:39
#Recorded file [411 MB]: D:/lorett/data/31039_260103_082531.dat