passes_logs/2026/01/03/R2.0S_Moscow/R2.0S_Moscow__20260103_074238_NOAA_21_JPSS-2_rec.log

#Pass ID: 20260103_074238_NOAA 21 (JPSS-2)
#Satellite: NOAA 21 (JPSS-2)
#Configuration: NOAA-21
#almurnet v.1.7.20251203
#Start time: 2026-01-03 07:42:40

#Version: 2.2.20231116
#Station: R2.0S_Moscow
#Location: 37.707566 lon 55.798166 lat
#TLE: 1 54234U 22150A   26002.25486487  .00000200  00000+0  11573-3 0  9993
#TLE: 2 54234  98.7485 303.3096 0001220 350.9074   9.2080 14.19531212163006

#Time	Az	El	Level	Level2	SNR	BER	BlckErr	Temp	State	Recorded	gain1	gain2
2026-01-03 07:42:40.26	95.13	2.07	-39.8	-52.2	3.8	1.49e+00	0	47	0	0	50	15680
2026-01-03 07:42:43.28	94.87	2.22	-39.9	-52.2	3.8	1.49e+00	0	48	104	0	51	14820
2026-01-03 07:42:46.32	94.60	2.38	-39.9	-52.2	3.8	1.49e+00	0	48	104	0	51	14806
2026-01-03 07:42:49.35	94.33	2.53	-39.9	-52.2	3.8	1.49e+00	0	48	104	0	51	14851
2026-01-03 07:42:52.38	94.06	2.68	-39.9	-52.2	3.8	1.49e+00	0	48	104	0	51	14842
2026-01-03 07:42:55.41	93.79	2.84	-39.9	-52.2	3.8	1.49e+00	0	48	104	0	51	14869
2026-01-03 07:42:58.45	93.51	2.99	-39.9	-52.2	3.8	1.49e+00	0	48	104	0	51	14807
2026-01-03 07:43:01.48	93.24	3.14	-39.9	-52.2	3.8	1.49e+00	0	49	104	0	51	14843
2026-01-03 07:43:04.52	92.95	3.30	-39.9	-52.2	3.8	1.49e+00	0	49	104	0	51	14833
2026-01-03 07:43:07.55	92.67	3.45	-39.9	-52.2	3.8	1.49e+00	0	49	104	0	51	14859
2026-01-03 07:43:10.58	92.38	3.61	-39.9	-52.2	3.8	1.49e+00	0	50	104	0	51	14866
2026-01-03 07:43:13.61	92.09	3.76	-39.9	-52.2	3.8	1.49e+00	0	50	104	0	51	14843
2026-01-03 07:43:16.65	91.79	3.92	-39.9	-52.2	3.8	1.49e+00	0	50	104	0	51	14818
2026-01-03 07:43:19.68	91.50	4.07	-39.9	-52.2	3.8	1.49e+00	0	50	104	0	51	14801
2026-01-03 07:43:22.71	91.20	4.23	-39.9	-52.2	3.8	1.49e+00	0	50	104	0	51	14835
2026-01-03 07:43:25.75	90.89	4.38	-39.9	-52.2	3.8	1.49e+00	0	50	104	0	51	14822
2026-01-03 07:43:28.78	90.58	4.54	-39.9	-52.2	3.8	1.49e+00	0	50	104	0	51	14817
2026-01-03 07:43:31.81	90.27	4.70	-39.9	-52.2	3.8	1.49e+00	0	50	104	0	51	14840
2026-01-03 07:43:34.85	89.96	4.85	-39.9	-52.2	3.8	1.49e+00	0	51	104	0	51	14865
2026-01-03 07:43:37.88	89.64	5.01	-39.9	-52.2	3.8	1.49e+00	0	51	104	0	51	14849
2026-01-03 07:43:40.91	89.32	5.16	-39.9	-52.2	3.8	1.49e+00	0	51	104	0	50	15704
2026-01-03 07:43:43.94	88.99	5.32	-39.8	-52.2	3.8	1.49e+00	0	51	104	0	50	15619
2026-01-03 07:43:46.98	88.66	5.48	-39.9	-52.3	3.8	1.49e+00	0	51	104	0	50	15772
2026-01-03 07:43:50.01	88.33	5.63	-39.9	-52.2	3.8	1.49e+00	0	51	104	0	50	15730
2026-01-03 07:43:53.04	88.00	5.79	-39.9	-52.2	3.8	1.49e+00	0	52	104	0	50	15716
2026-01-03 07:43:56.08	87.66	5.95	-39.9	-52.2	3.8	1.49e+00	0	52	104	0	50	15750
2026-01-03 07:43:59.11	87.31	6.10	-39.9	-52.2	3.8	1.49e+00	0	52	104	0	50	15735
2026-01-03 07:44:02.14	86.97	6.26	-39.9	-52.2	3.8	1.49e+00	0	52	104	0	50	15740
2026-01-03 07:44:05.18	86.62	6.42	-39.9	-52.2	3.8	1.49e+00	0	52	104	0	50	15713
2026-01-03 07:44:08.21	86.26	6.57	-39.9	-52.2	3.8	1.49e+00	0	52	104	0	50	15750
2026-01-03 07:44:11.24	85.90	6.73	-39.9	-52.3	3.8	1.49e+00	0	52	104	0	50	15762
2026-01-03 07:44:14.27	85.54	6.88	-39.9	-52.3	3.8	1.49e+00	0	53	104	0	50	15761
2026-01-03 07:44:17.30	85.18	7.04	-39.9	-52.2	3.8	1.49e+00	0	53	104	0	50	15734
2026-01-03 07:44:20.34	84.80	7.20	-39.9	-52.2	3.8	1.49e+00	0	53	104	0	50	15756
2026-01-03 07:44:23.37	84.43	7.35	-39.9	-52.2	3.8	1.49e+00	0	53	104	0	50	15755
2026-01-03 07:44:26.40	84.05	7.51	-39.9	-52.2	3.8	1.49e+00	0	53	104	0	50	15756
2026-01-03 07:44:29.44	83.67	7.66	-39.9	-52.3	3.8	1.49e+00	0	53	104	0	50	15782
2026-01-03 07:44:32.47	83.28	7.82	-39.9	-52.2	3.8	1.49e+00	0	53	104	0	50	15756
2026-01-03 07:44:35.50	82.89	7.97	-39.9	-52.2	3.8	1.49e+00	0	53	104	0	50	15746
2026-01-03 07:44:38.53	82.50	8.13	-40.0	-52.4	3.8	1.49e+00	0	53	104	0	50	16010
2026-01-03 07:44:41.57	82.10	8.28	-39.9	-52.3	3.8	1.49e+00	0	54	104	0	50	15818
2026-01-03 07:44:44.60	81.69	8.43	-40.0	-52.3	3.8	1.49e+00	0	54	104	0	50	15847
2026-01-03 07:44:47.62	81.29	8.59	-39.9	-52.3	3.8	1.49e+00	0	54	104	0	50	15892
2026-01-03 07:44:50.65	80.87	8.74	-40.0	-52.4	3.8	1.49e+00	0	54	104	0	50	15945
2026-01-03 07:44:53.68	80.46	8.89	-40.0	-52.4	3.8	1.49e+00	0	54	104	0	50	16004
2026-01-03 07:44:56.71	80.04	9.04	-40.2	-52.6	3.8	1.49e+00	0	54	104	0	50	16392
2026-01-03 07:44:59.74	79.61	9.19	-40.1	-52.5	3.8	1.49e+00	0	54	104	0	51	15239
2026-01-03 07:45:02.77	79.18	9.34	-40.2	-52.6	3.8	1.49e+00	0	54	104	0	51	15509
2026-01-03 07:45:05.80	78.75	9.49	-40.1	-52.6	3.8	1.49e+00	0	54	104	0	52	14554
2026-01-03 07:45:08.83	78.31	9.64	-40.2	-52.6	3.8	1.49e+00	0	54	104	0	52	14655
2026-01-03 07:45:11.86	77.87	9.79	-40.8	-53.2	3.8	1.49e+00	0	54	104	0	52	15620
2026-01-03 07:45:14.89	77.42	9.94	-40.7	-53.1	3.8	1.49e+00	0	54	104	0	52	15424
2026-01-03 07:45:17.92	76.96	10.08	-40.8	-53.1	3.8	1.49e+00	0	54	104	0	52	15551
2026-01-03 07:45:20.95	76.51	10.23	-40.9	-53.4	3.8	1.49e+00	0	54	104	0	52	15954
2026-01-03 07:45:23.98	76.05	10.38	-40.5	-53.7	3.8	1.49e+00	0	55	104	0	52	16515
2026-01-03 07:45:27.01	75.58	10.52	-41.0	-53.3	3.8	1.49e+00	0	54	104	0	52	15872
2026-01-03 07:45:30.03	75.11	10.66	-40.9	-53.3	3.8	1.49e+00	0	55	104	0	53	15012
2026-01-03 07:45:33.06	74.63	10.80	-40.7	-53.0	3.8	1.49e+00	0	55	104	0	53	14418
2026-01-03 07:45:36.09	74.15	10.94	-40.9	-53.3	3.8	1.49e+00	0	55	104	0	53	14931
2026-01-03 07:45:39.12	73.67	11.08	-40.6	-53.1	3.8	1.49e+00	0	55	104	0	53	14584
2026-01-03 07:45:42.15	73.18	11.22	-40.6	-53.0	3.8	1.49e+00	0	55	104	0	53	14424
2026-01-03 07:45:45.18	72.69	11.36	-40.6	-53.0	3.8	1.49e+00	0	54	104	0	53	14479
2026-01-03 07:45:48.20	72.19	11.49	-40.7	-53.1	3.8	1.49e+00	0	55	104	0	53	14566
2026-01-03 07:45:51.24	71.68	11.63	-40.8	-53.2	3.8	1.49e+00	0	55	104	0	53	14723
2026-01-03 07:45:54.26	71.18	11.76	-40.9	-53.2	3.8	1.49e+00	0	55	104	0	53	14829
2026-01-03 07:45:57.30	70.66	11.89	-40.9	-53.2	3.8	1.49e+00	0	55	104	0	53	14835
2026-01-03 07:46:00.33	70.15	12.02	-40.8	-53.2	3.8	1.49e+00	0	55	104	0	53	14758
2026-01-03 07:46:03.36	69.62	12.15	-40.9	-53.2	3.8	1.49e+00	0	55	104	0	53	14857
2026-01-03 07:46:06.40	69.10	12.28	-40.9	-53.2	3.8	1.49e+00	0	55	104	0	53	14804
2026-01-03 07:46:09.42	68.57	12.40	-41.0	-53.3	3.8	1.49e+00	0	55	104	0	53	15021
2026-01-03 07:46:12.45	68.03	12.52	-40.9	-53.3	3.8	1.49e+00	0	55	104	0	53	14911
2026-01-03 07:46:15.48	67.49	12.65	-40.8	-53.3	3.8	1.49e+00	0	55	104	0	53	14944
2026-01-03 07:46:18.52	66.94	12.77	-41.0	-53.4	3.8	1.49e+00	0	55	104	0	53	15121
2026-01-03 07:46:21.54	66.40	12.88	-41.1	-53.4	3.8	1.49e+00	0	55	104	0	53	15160
2026-01-03 07:46:24.57	65.84	13.00	-41.2	-53.4	3.8	1.49e+00	0	55	104	0	53	15191
2026-01-03 07:46:27.60	65.29	13.11	-41.0	-53.3	3.8	1.49e+00	0	55	104	0	54	14188
2026-01-03 07:46:30.63	64.72	13.22	-40.8	-53.2	3.8	1.49e+00	0	55	104	0	53	14836
2026-01-03 07:46:33.66	64.16	13.33	-40.7	-52.1	3.8	6.67e-01	0	56	104	0	53	13012
2026-01-03 07:46:36.69	63.59	13.44	-41.1	-47.0	6.5	4.03e-01	0	56	0	1048576	53	7232
2026-01-03 07:46:39.72	63.01	13.54	-39.5	-42.2	12.6	1.79e-04	0	56	0	11534336	51	4669
2026-01-03 07:46:42.75	62.44	13.64	-37.9	-39.7	15.6	0.00e+00	0	56	0	19922944	47	4413
2026-01-03 07:46:45.78	61.85	13.74	-37.5	-39.2	16.1	0.00e+00	0	56	0	30408704	47	4167
2026-01-03 07:46:48.81	61.27	13.84	-37.1	-38.7	16.6	0.00e+00	0	56	0	38797312	46	4154
2026-01-03 07:46:51.84	60.68	13.93	-36.6	-38.2	17.1	0.00e+00	0	56	0	49283072	45	4150
2026-01-03 07:46:54.87	60.08	14.02	-36.8	-38.3	16.9	0.00e+00	0	56	0	58720256	45	4226
2026-01-03 07:46:57.90	59.49	14.11	-36.9	-38.5	16.8	0.00e+00	0	56	0	68157440	45	4318
2026-01-03 07:47:00.93	58.89	14.20	-36.8	-38.4	16.9	0.00e+00	0	56	0	77594624	45	4264
2026-01-03 07:47:03.96	58.28	14.28	-36.9	-38.5	16.9	0.00e+00	0	56	0	87031808	45	4299
2026-01-03 07:47:06.99	57.67	14.36	-36.9	-38.5	16.8	0.00e+00	0	56	0	96468992	45	4316
2026-01-03 07:47:10.02	57.06	14.43	-36.9	-38.4	16.9	0.00e+00	0	56	0	105906176	45	4269
2026-01-03 07:47:13.05	56.45	14.51	-36.7	-38.3	17.0	0.00e+00	0	56	0	115343360	45	4199
2026-01-03 07:47:16.08	55.83	14.58	-36.9	-38.4	16.9	0.00e+00	0	56	0	124780544	45	4289
2026-01-03 07:47:19.11	55.21	14.65	-36.7	-38.2	17.2	0.00e+00	0	56	0	134217728	45	4154
2026-01-03 07:47:22.15	54.59	14.71	-36.5	-38.0	17.4	0.00e+00	0	56	0	143654912	45	4061
2026-01-03 07:47:25.18	53.96	14.77	-36.6	-38.0	17.3	0.00e+00	0	56	0	153092096	45	4095
2026-01-03 07:47:28.20	53.34	14.83	-36.6	-38.0	17.3	0.00e+00	0	56	0	162529280	45	4090
2026-01-03 07:47:31.23	52.71	14.88	-36.6	-38.1	17.3	0.00e+00	0	56	0	171966464	45	4125
2026-01-03 07:47:34.25	52.08	14.94	-36.5	-37.9	17.4	0.00e+00	0	56	0	181403648	45	4047
2026-01-03 07:47:37.29	51.44	14.98	-36.5	-38.0	17.4	0.00e+00	0	56	0	190840832	45	4085
2026-01-03 07:47:40.32	50.81	15.03	-36.6	-38.1	17.3	0.00e+00	0	56	0	200278016	44	4352
2026-01-03 07:47:43.35	50.17	15.07	-36.8	-38.3	17.1	0.00e+00	0	56	0	209715200	44	4489
2026-01-03 07:47:46.38	49.53	15.11	-36.9	-38.4	17.0	0.00e+00	0	56	0	219152384	44	4537
2026-01-03 07:47:49.41	48.89	15.14	-36.8	-38.3	17.1	0.00e+00	0	56	0	228589568	44	4491
2026-01-03 07:47:52.43	48.25	15.17	-36.7	-38.2	17.2	0.00e+00	0	56	0	238026752	44	4424
2026-01-03 07:47:55.46	47.60	15.20	-36.8	-38.3	17.1	0.00e+00	0	56	0	247463936	44	4471
2026-01-03 07:47:58.49	46.96	15.22	-36.7	-38.2	17.3	0.00e+00	0	56	0	256901120	44	4411
2026-01-03 07:48:01.52	46.31	15.24	-36.8	-38.4	17.1	0.00e+00	0	56	0	266338304	44	4498
2026-01-03 07:48:04.55	45.67	15.26	-36.9	-38.4	17.0	0.00e+00	0	56	0	275775488	44	4537
2026-01-03 07:48:07.58	45.02	15.27	-36.7	-38.2	17.2	0.00e+00	0	56	0	285212672	44	4441
2026-01-03 07:48:10.61	44.37	15.28	-36.7	-38.3	17.2	0.00e+00	0	56	0	294649856	44	4445
2026-01-03 07:48:13.64	43.73	15.28	-36.9	-38.5	17.0	0.00e+00	0	56	0	304087040	44	4556
2026-01-03 07:48:16.67	43.08	15.28	-36.8	-38.4	17.1	0.00e+00	0	56	0	313524224	44	4497
2026-01-03 07:48:19.70	42.43	15.28	-36.7	-38.2	17.2	0.00e+00	0	56	0	322961408	44	4425
2026-01-03 07:48:22.73	41.78	15.27	-36.7	-38.2	17.2	0.00e+00	0	56	0	332398592	44	4438
2026-01-03 07:48:25.75	41.14	15.26	-36.7	-38.2	17.2	0.00e+00	0	56	0	341835776	44	4440
2026-01-03 07:48:28.78	40.49	15.25	-36.8	-38.4	17.1	0.00e+00	0	56	0	351272960	44	4498
2026-01-03 07:48:31.81	39.85	15.23	-37.0	-38.6	16.9	0.00e+00	0	56	0	360710144	44	4607
2026-01-03 07:48:34.84	39.20	15.21	-36.8	-38.4	17.1	0.00e+00	0	56	0	371195904	44	4494
2026-01-03 07:48:37.87	38.56	15.19	-36.6	-38.1	17.3	0.00e+00	0	56	0	380633088	44	4381
2026-01-03 07:48:40.90	37.91	15.16	-36.5	-38.0	17.4	0.00e+00	0	57	0	390070272	44	4319
2026-01-03 07:48:43.93	37.27	15.13	-36.6	-38.1	17.3	0.00e+00	0	57	0	399507456	44	4345
2026-01-03 07:48:46.96	36.63	15.09	-36.8	-38.3	17.1	0.00e+00	0	56	0	408944640	44	4455
2026-01-03 07:48:50.00	35.99	15.05	-36.7	-38.2	17.2	0.00e+00	0	56	0	418381824	44	4419
2026-01-03 07:48:53.03	35.36	15.01	-36.6	-38.1	17.3	0.00e+00	0	57	0	427819008	44	4384
2026-01-03 07:48:56.05	34.72	14.97	-36.8	-38.3	17.2	0.00e+00	0	56	0	437256192	44	4452
2026-01-03 07:48:59.08	34.09	14.92	-37.0	-38.5	16.9	0.00e+00	0	56	0	446693376	44	4577
2026-01-03 07:49:02.11	33.46	14.87	-36.7	-38.2	17.2	0.00e+00	0	57	0	456130560	44	4432
2026-01-03 07:49:05.14	32.83	14.81	-36.6	-38.1	17.3	0.00e+00	0	56	0	465567744	44	4362
2026-01-03 07:49:08.17	32.21	14.75	-36.7	-38.3	17.2	0.00e+00	0	56	0	475004928	44	4444
2026-01-03 07:49:11.20	31.59	14.69	-36.7	-38.2	17.3	0.00e+00	0	56	0	484442112	44	4404
2026-01-03 07:49:14.23	30.97	14.62	-36.8	-38.3	17.1	0.00e+00	0	56	0	493879296	44	4467
2026-01-03 07:49:17.26	30.35	14.55	-37.0	-38.6	16.9	0.00e+00	0	56	0	503316480	44	4604
2026-01-03 07:49:20.29	29.73	14.48	-36.8	-38.3	17.1	0.00e+00	0	56	0	512753664	44	4481
2026-01-03 07:49:23.32	29.12	14.41	-36.6	-38.1	17.3	0.00e+00	0	57	0	522190848	44	4352
2026-01-03 07:49:26.35	28.51	14.33	-36.7	-38.2	17.2	0.00e+00	0	57	0	531628032	44	4425
2026-01-03 07:49:29.38	27.91	14.25	-37.1	-38.6	16.8	0.00e+00	0	56	0	541065216	44	4643
2026-01-03 07:49:32.41	27.31	14.17	-37.1	-38.7	16.8	0.00e+00	0	57	0	550502400	45	4426
2026-01-03 07:49:35.44	26.71	14.08	-36.9	-38.5	17.0	0.00e+00	0	57	0	559939584	45	4316
2026-01-03 07:49:38.46	26.12	13.99	-36.6	-38.1	17.3	0.00e+00	0	57	0	569376768	45	4136
2026-01-03 07:49:41.49	25.53	13.90	-36.7	-38.2	17.2	0.00e+00	0	57	0	578813952	45	4163
2026-01-03 07:49:44.52	24.94	13.80	-36.7	-38.2	17.2	0.00e+00	0	56	0	588251136	45	4174
2026-01-03 07:49:47.55	24.36	13.71	-36.9	-38.5	16.9	0.00e+00	0	57	0	597688320	45	4315
2026-01-03 07:49:50.59	23.78	13.61	-37.0	-38.6	16.8	0.00e+00	0	57	0	607125504	45	4352
2026-01-03 07:49:53.61	23.21	13.51	-37.2	-38.8	16.6	0.00e+00	0	57	0	616562688	45	4453
2026-01-03 07:49:56.65	22.63	13.40	-37.0	-38.5	16.9	0.00e+00	0	57	0	625999872	45	4337
2026-01-03 07:49:59.68	22.07	13.29	-36.9	-38.5	16.9	0.00e+00	0	57	0	635437056	45	4319
2026-01-03 07:50:02.71	21.50	13.19	-37.0	-38.6	16.8	0.00e+00	0	56	0	644874240	45	4374
2026-01-03 07:50:05.74	20.95	13.07	-37.0	-38.6	16.8	0.00e+00	0	57	0	654311424	45	4372
2026-01-03 07:50:08.77	20.39	12.96	-36.9	-38.5	16.9	0.00e+00	0	57	0	664797184	45	4308
2026-01-03 07:50:11.80	19.84	12.84	-37.0	-38.6	16.8	0.00e+00	0	57	0	673185792	45	4345
2026-01-03 07:50:14.83	19.30	12.73	-36.9	-38.5	16.9	0.00e+00	0	57	0	683671552	45	4311
2026-01-03 07:50:17.86	18.76	12.61	-36.9	-38.5	16.8	0.00e+00	0	57	0	692060160	45	4311
2026-01-03 07:50:20.89	18.22	12.49	-36.9	-38.5	16.9	0.00e+00	0	57	0	702545920	45	4295
2026-01-03 07:50:23.93	17.69	12.36	-37.1	-38.7	16.6	0.00e+00	0	57	0	711983104	45	4427
2026-01-03 07:50:26.96	17.16	12.24	-37.3	-38.9	16.5	0.00e+00	0	57	0	721420288	45	4516
2026-01-03 07:50:29.99	16.64	12.11	-37.3	-39.0	16.4	0.00e+00	0	56	0	730857472	45	4555
2026-01-03 07:50:33.02	16.12	11.98	-37.3	-38.9	16.4	0.00e+00	0	56	0	740294656	45	4541
2026-01-03 07:50:36.05	15.61	11.85	-37.3	-39.0	16.3	0.00e+00	0	57	0	749731840	45	4587
2026-01-03 07:50:39.08	15.10	11.72	-37.5	-39.2	16.1	0.00e+00	0	56	0	759169024	45	4660
2026-01-03 07:50:42.11	14.59	11.59	-37.6	-39.4	15.8	0.00e+00	0	56	0	768606208	45	4783
2026-01-03 07:50:45.14	14.10	11.45	-37.6	-39.4	15.6	0.00e+00	0	56	0	778043392	45	4802
2026-01-03 07:50:48.17	13.60	11.32	-37.4	-39.1	16.1	0.00e+00	0	57	0	787480576	45	4615
2026-01-03 07:50:51.20	13.11	11.18	-37.5	-39.2	15.8	0.00e+00	0	57	0	796917760	45	4691
2026-01-03 07:50:54.23	12.63	11.04	-37.5	-39.3	15.7	0.00e+00	0	56	0	806354944	45	4756
2026-01-03 07:50:57.26	12.15	10.90	-37.8	-39.7	15.3	0.00e+00	0	56	0	815792128	46	4699
2026-01-03 07:51:00.29	11.67	10.76	-37.7	-39.6	15.2	0.00e+00	0	57	0	825229312	46	4620
2026-01-03 07:51:03.33	11.20	10.62	-38.7	-41.5	12.2	8.08e-05	0	57	0	834666496	47	5461
2026-01-03 07:51:06.36	10.73	10.48	-39.9	-45.3	7.1	1.19e-01	0	57	0	844103680	50	7053
2026-01-03 07:51:09.39	10.27	10.33	-40.0	-49.6	3.9	1.45e+00	0	57	104	850395136	50	11634
2026-01-03 07:51:12.42	9.81	10.19	-39.9	-51.8	3.8	1.49e+00	0	57	104	850395136	50	14969
2026-01-03 07:51:15.44	9.36	10.04	-40.2	-52.0	3.8	1.49e+00	0	57	104	850395136	52	13651
2026-01-03 07:51:18.47	8.91	9.90	-39.9	-52.1	3.8	1.49e+00	0	57	104	850395136	51	14659
2026-01-03 07:51:21.50	8.47	9.75	-39.8	-52.1	3.8	1.49e+00	0	57	104	850395136	51	14621
2026-01-03 07:51:24.53	8.03	9.60	-39.9	-52.2	3.8	1.49e+00	0	57	104	850395136	51	14741
2026-01-03 07:51:27.56	7.60	9.45	-39.9	-52.2	3.8	1.49e+00	0	57	104	850395136	51	14715
2026-01-03 07:51:30.59	7.17	9.30	-39.9	-52.2	3.8	1.49e+00	0	57	104	850395136	51	14835
2026-01-03 07:51:33.62	6.74	9.15	-39.8	-52.1	3.8	1.49e+00	0	57	104	850395136	51	14683
2026-01-03 07:51:36.66	6.32	9.00	-39.7	-52.0	3.8	1.49e+00	0	57	104	850395136	51	14527
2026-01-03 07:51:39.69	5.90	8.85	-39.8	-52.1	3.8	1.49e+00	0	57	104	850395136	51	14631
2026-01-03 07:51:42.72	5.49	8.70	-39.8	-52.2	3.8	1.49e+00	0	57	104	850395136	51	14774
2026-01-03 07:51:45.75	5.08	8.55	-39.7	-52.1	3.8	1.49e+00	0	57	104	850395136	51	14603
2026-01-03 07:51:48.78	4.68	8.40	-39.8	-52.2	3.8	1.49e+00	0	57	104	850395136	51	14747
2026-01-03 07:51:51.81	4.28	8.24	-39.8	-52.2	3.8	1.49e+00	0	57	104	850395136	51	14756
2026-01-03 07:51:54.84	3.89	8.09	-39.9	-52.2	3.8	1.49e+00	0	57	104	850395136	51	14865
2026-01-03 07:51:57.87	3.50	7.94	-44.0	-56.2	3.9	1.49e+00	0	57	104	850395136	58	15738
2026-01-03 07:52:00.91	3.11	7.78	-45.1	-57.6	3.8	1.49e+00	0	57	104	850395136	60	16359
2026-01-03 07:52:03.94	2.73	7.63	-45.3	-57.8	3.8	1.49e+00	0	57	104	850395136	61	15803
2026-01-03 07:52:06.97	2.35	7.47	-45.3	-57.7	3.8	1.49e+00	0	57	104	850395136	61	15653
2026-01-03 07:52:10.01	1.97	7.32	-45.2	-57.5	3.8	1.49e+00	0	57	104	850395136	61	15317
2026-01-03 07:52:13.04	1.60	7.16	-45.1	-57.4	3.8	1.49e+00	0	57	104	850395136	61	15188
2026-01-03 07:52:16.07	1.24	7.01	-45.1	-57.4	3.8	1.49e+00	0	57	104	850395136	61	15162
2026-01-03 07:52:19.10	0.88	6.85	-45.1	-57.4	3.8	1.49e+00	0	57	104	850395136	61	15168
2026-01-03 07:52:22.14	0.52	6.69	-45.1	-57.4	3.8	1.49e+00	0	57	104	850395136	61	15075
2026-01-03 07:52:25.17	0.16	6.54	-45.1	-57.4	3.8	1.49e+00	0	57	104	850395136	61	15097
2026-01-03 07:52:28.20	359.81	6.38	-45.1	-57.4	3.8	1.49e+00	0	57	104	850395136	61	15107
2026-01-03 07:52:31.24	359.47	6.23	-45.1	-57.4	3.8	1.49e+00	0	57	104	850395136	61	15128
2026-01-03 07:52:34.27	359.12	6.07	-45.1	-57.4	3.8	1.49e+00	0	57	104	850395136	61	15128
2026-01-03 07:52:37.30	358.79	5.92	-45.1	-57.4	3.8	1.49e+00	0	57	104	850395136	61	15074
2026-01-03 07:52:40.34	358.45	5.76	-45.1	-57.3	3.8	1.49e+00	0	58	104	850395136	61	15050
2026-01-03 07:52:43.37	358.12	5.60	-45.1	-57.4	3.8	1.49e+00	0	57	104	850395136	61	15075
2026-01-03 07:52:46.40	357.79	5.45	-45.1	-57.4	3.8	1.49e+00	0	57	104	850395136	61	15087
2026-01-03 07:52:49.44	357.47	5.29	-45.1	-57.3	3.8	1.49e+00	0	57	104	850395136	61	15048
2026-01-03 07:52:52.47	357.15	5.14	-45.1	-57.4	3.8	1.49e+00	0	57	104	850395136	61	15076
2026-01-03 07:52:55.50	356.83	4.98	-45.1	-57.4	3.8	1.49e+00	0	57	104	850395136	61	15053
2026-01-03 07:52:58.54	356.52	4.82	-45.0	-57.3	3.8	1.49e+00	0	57	104	850395136	61	15013
2026-01-03 07:53:01.57	356.21	4.67	-45.0	-57.3	3.8	1.49e+00	0	57	104	850395136	61	15031
2026-01-03 07:53:04.60	355.90	4.51	-45.0	-57.4	3.8	1.49e+00	0	57	104	850395136	61	15056
2026-01-03 07:53:07.63	355.60	4.36	-45.0	-57.3	3.8	1.49e+00	0	57	104	850395136	61	15040
2026-01-03 07:53:10.67	355.30	4.20	-45.0	-57.3	3.8	1.49e+00	0	57	104	850395136	61	14991
2026-01-03 07:53:13.70	355.00	4.05	-45.0	-57.3	3.8	1.49e+00	0	58	104	850395136	61	15025
2026-01-03 07:53:16.74	354.71	3.89	-45.0	-57.4	3.8	1.49e+00	0	57	104	850395136	61	15073
2026-01-03 07:53:19.77	354.42	3.74	-45.0	-57.3	3.8	1.49e+00	0	57	104	850395136	61	15046
2026-01-03 07:53:22.80	354.13	3.58	-45.0	-57.3	3.8	1.49e+00	0	58	104	850395136	61	15007
2026-01-03 07:53:25.83	353.85	3.43	-45.0	-57.3	3.8	1.49e+00	0	57	104	850395136	61	15032
2026-01-03 07:53:28.87	353.56	3.27	-45.0	-57.3	3.8	1.49e+00	0	57	104	850395136	61	15018
2026-01-03 07:53:31.90	353.29	3.12	-45.0	-57.3	3.8	1.49e+00	0	58	104	850395136	61	15020
2026-01-03 07:53:34.93	353.01	2.97	-45.0	-57.3	3.8	1.49e+00	0	57	104	850395136	61	15015
2026-01-03 07:53:37.97	352.74	2.81	-45.0	-57.4	3.8	1.49e+00	0	58	104	850395136	61	15054
2026-01-03 07:53:41.00	352.47	2.66	-45.0	-57.3	3.8	1.49e+00	0	58	104	850395136	61	14982
2026-01-03 07:53:44.03	352.21	2.51	-45.0	-57.3	3.8	1.49e+00	0	58	104	850395136	61	14988
2026-01-03 07:53:47.07	351.94	2.35	-45.0	-57.3	3.8	1.49e+00	0	57	104	850395136	61	14930
2026-01-03 07:53:50.10	351.68	2.20	-44.9	-57.3	3.8	1.49e+00	0	57	104	850395136	61	14954
2026-01-03 07:53:53.13	351.42	2.05	-45.0	-57.3	3.8	1.49e+00	0	57	104	850395136	61	14984
2026-01-03 07:53:56.17	351.17	1.90	-45.0	-57.3	3.8	1.49e+00	0	57	104	850395136	61	14951

#Closed at: 2026-01-03 07:53:56
#Recorded file [850 MB]: D:/lorett/data/31039_260103_104240.dat