passes_logs/2026/01/03/R2.0S_Moscow/R2.0S_Moscow__20260103_001959_NOAA_20_JPSS-1_rec.log

#Pass ID: 20260103_001959_NOAA 20 (JPSS-1)
#Satellite: NOAA 20 (JPSS-1)
#Configuration: NOAA 20
#almurnet v.1.7.20251203
#Start time: 2026-01-03 00:20:01

#Version: 2.2.20231116
#Station: R2.0S_Moscow
#Location: 37.707566 lon 55.798166 lat
#TLE: 1 43013U 17073A   26002.21975278  .00000202  00000+0  11669-3 0  9999
#TLE: 2 43013  98.7622 303.2950 0001915  57.9213 302.2149 14.19532512420923

#Time	Az	El	Level	Level2	SNR	BER	BlckErr	Temp	State	Recorded	gain1	gain2
2026-01-03 00:20:01.54	13.43	2.13	-40.6	-55.1	3.8	1.49e+00	0	49	0	0	53	18466
2026-01-03 00:20:05.57	13.33	2.39	-40.6	-55.1	3.8	1.49e+00	0	49	104	0	53	18461
2026-01-03 00:20:09.62	13.23	2.65	-40.6	-55.1	3.8	1.49e+00	0	49	104	0	53	18451
2026-01-03 00:20:13.66	13.12	2.91	-40.6	-55.1	3.8	1.49e+00	0	49	104	0	53	18428
2026-01-03 00:20:17.70	13.01	3.17	-40.6	-55.1	3.8	1.49e+00	0	50	104	0	53	18462
2026-01-03 00:20:21.75	12.90	3.44	-40.6	-55.1	3.8	1.49e+00	0	50	104	0	53	18479
2026-01-03 00:20:25.79	12.79	3.70	-40.6	-55.1	3.8	1.49e+00	0	50	104	0	53	18427
2026-01-03 00:20:29.84	12.67	3.97	-40.6	-55.1	3.8	1.49e+00	0	50	104	0	53	18423
2026-01-03 00:20:33.88	12.55	4.25	-40.6	-55.1	3.8	1.49e+00	0	51	104	0	53	18332
2026-01-03 00:20:37.93	12.43	4.52	-40.6	-55.0	3.8	1.49e+00	0	51	104	0	53	18267
2026-01-03 00:20:41.97	12.31	4.80	-40.6	-55.0	3.8	1.49e+00	0	51	104	0	53	18188
2026-01-03 00:20:46.01	12.19	5.08	-40.6	-55.0	3.8	1.49e+00	0	51	104	0	53	18260
2026-01-03 00:20:50.06	12.06	5.36	-40.6	-55.0	3.8	1.49e+00	0	52	104	0	53	18246
2026-01-03 00:20:54.10	11.93	5.65	-40.6	-54.9	3.8	1.49e+00	0	52	104	0	53	17937
2026-01-03 00:20:58.14	11.79	5.94	-40.6	-54.8	3.8	1.49e+00	0	52	104	0	53	17693
2026-01-03 00:21:02.19	11.65	6.23	-40.5	-53.6	3.8	1.49e+00	0	52	104	0	53	15534
2026-01-03 00:21:06.23	11.51	6.53	-40.3	-50.9	4.4	1.34e+00	83	52	0	0	52	11997
2026-01-03 00:21:10.28	11.37	6.83	-40.0	-48.6	5.5	5.30e-01	0	53	0	7340032	52	9280
2026-01-03 00:21:14.32	11.22	7.13	-39.9	-47.8	6.2	2.88e-01	0	53	0	15728640	51	8963
2026-01-03 00:21:18.36	11.07	7.43	-40.0	-48.3	5.9	3.37e-01	0	53	0	23068672	51	9403
2026-01-03 00:21:22.41	10.92	7.74	-40.2	-49.7	4.9	6.53e-01	0	53	0	30408704	51	11136
2026-01-03 00:21:26.45	10.76	8.06	-40.2	-52.7	3.8	1.44e+00	0	53	104	35651584	51	15751
2026-01-03 00:21:30.49	10.60	8.37	-40.2	-52.5	4.0	1.00e+00	0	53	0	35651584	52	14445
2026-01-03 00:21:34.53	10.43	8.69	-40.5	-51.4	4.3	1.31e+00	39	54	0	37748736	52	12722
2026-01-03 00:21:38.57	10.26	9.02	-40.4	-52.4	3.8	1.45e+00	0	54	104	37748736	52	14322
2026-01-03 00:21:42.61	10.09	9.34	-40.4	-53.8	3.8	1.49e+00	0	54	104	37748736	52	16870
2026-01-03 00:21:46.65	9.91	9.68	-39.9	-54.4	3.8	1.49e+00	0	54	104	37748736	51	19109
2026-01-03 00:21:50.69	9.73	10.01	-40.3	-53.4	3.8	1.49e+00	0	54	104	37748736	51	16905
2026-01-03 00:21:54.73	9.54	10.35	-40.3	-54.1	3.8	1.49e+00	0	54	104	37748736	51	18353
2026-01-03 00:21:58.77	9.35	10.70	-40.5	-52.7	4.0	1.49e+00	0	54	104	37748736	51	15660
2026-01-03 00:22:02.81	9.15	11.05	-40.5	-49.6	5.2	1.48e+00	1	54	104	37748736	52	10311
2026-01-03 00:22:06.84	8.95	11.40	-41.0	-45.8	10.5	8.51e-03	0	54	0	44040192	53	6337
2026-01-03 00:22:10.88	8.74	11.76	-39.4	-42.4	14.2	7.60e-06	0	55	0	52428800	50	5081
2026-01-03 00:22:14.92	8.53	12.12	-38.2	-40.5	16.4	0.00e+00	0	55	0	59768832	48	4572
2026-01-03 00:22:18.96	8.31	12.49	-38.5	-40.7	16.5	0.00e+00	0	55	0	67108864	48	4702
2026-01-03 00:22:23.00	8.08	12.87	-38.8	-41.0	16.3	0.00e+00	0	55	0	74448896	48	4868
2026-01-03 00:22:27.03	7.85	13.24	-38.5	-40.7	16.8	0.00e+00	0	55	0	81788928	48	4658
2026-01-03 00:22:31.07	7.62	13.63	-38.7	-40.8	16.6	0.00e+00	0	55	0	90177536	48	4750
2026-01-03 00:22:35.11	7.37	14.02	-38.6	-40.8	16.8	0.00e+00	0	55	0	97517568	48	4714
2026-01-03 00:22:39.14	7.12	14.41	-38.6	-40.6	17.0	0.00e+00	0	55	0	104857600	48	4646
2026-01-03 00:22:43.18	6.86	14.82	-38.5	-40.5	17.2	0.00e+00	0	55	0	112197632	48	4572
2026-01-03 00:22:47.22	6.60	15.22	-38.5	-40.5	17.2	0.00e+00	0	55	0	120586240	48	4576
2026-01-03 00:22:51.26	6.32	15.64	-38.5	-40.5	17.3	0.00e+00	0	55	0	127926272	48	4552
2026-01-03 00:22:55.30	6.04	16.06	-38.6	-40.6	17.2	0.00e+00	0	55	0	135266304	48	4611
2026-01-03 00:22:59.34	5.75	16.49	-38.5	-40.6	17.3	0.00e+00	0	55	0	142606336	48	4599
2026-01-03 00:23:03.38	5.45	16.92	-38.7	-40.7	17.1	0.00e+00	0	55	0	149946368	48	4685
2026-01-03 00:23:07.41	5.14	17.36	-38.7	-40.7	17.1	0.00e+00	0	55	0	158334976	48	4701
2026-01-03 00:23:11.45	4.82	17.81	-38.7	-40.7	17.2	0.00e+00	0	55	0	165675008	48	4667
2026-01-03 00:23:15.49	4.50	18.27	-38.7	-40.8	17.1	0.00e+00	0	56	0	173015040	48	4712
2026-01-03 00:23:19.53	4.16	18.73	-38.6	-40.6	17.3	0.00e+00	0	56	0	180355072	48	4630
2026-01-03 00:23:23.57	3.81	19.20	-38.7	-40.8	17.1	0.00e+00	0	56	0	188743680	48	4708
2026-01-03 00:23:27.60	3.45	19.68	-39.0	-41.1	16.8	0.00e+00	0	56	0	196083712	48	4902
2026-01-03 00:23:31.64	3.07	20.17	-38.9	-41.0	17.0	0.00e+00	0	56	0	203423744	48	4848
2026-01-03 00:23:35.67	2.69	20.66	-39.0	-41.1	16.9	0.00e+00	0	55	0	210763776	48	4874
2026-01-03 00:23:39.71	2.29	21.17	-39.2	-41.4	16.7	0.00e+00	0	56	0	218103808	48	5043
2026-01-03 00:23:43.75	1.87	21.68	-39.4	-41.7	16.3	0.00e+00	0	56	0	226492416	49	4945
2026-01-03 00:23:47.79	1.44	22.20	-39.6	-41.9	16.1	0.00e+00	0	56	0	233832448	49	5085
2026-01-03 00:23:51.83	1.00	22.73	-39.8	-42.2	15.9	0.00e+00	0	56	0	241172480	50	4946
2026-01-03 00:23:55.86	0.54	23.27	-39.8	-42.2	15.8	0.00e+00	0	56	0	248512512	50	4962
2026-01-03 00:23:59.90	0.07	23.82	-40.0	-42.5	15.6	0.00e+00	0	56	0	256901120	50	5135
2026-01-03 00:24:03.94	359.57	24.38	-40.0	-42.4	15.6	0.00e+00	0	56	0	264241152	50	5097
2026-01-03 00:24:07.97	359.06	24.95	-40.1	-42.7	15.5	0.00e+00	0	56	0	271581184	50	5220
2026-01-03 00:24:12.01	358.53	25.53	-40.3	-42.9	15.1	0.00e+00	0	56	0	278921216	51	5094
2026-01-03 00:24:16.05	357.98	26.12	-40.5	-43.2	14.9	0.00e+00	0	56	0	286261248	51	5271
2026-01-03 00:24:20.08	357.41	26.71	-40.5	-43.3	14.7	7.00e-07	0	56	0	294649856	52	5023
2026-01-03 00:24:24.12	356.81	27.32	-40.6	-43.3	14.7	0.00e+00	0	56	0	301989888	52	5038
2026-01-03 00:24:28.16	356.19	27.94	-40.4	-43.0	15.0	0.00e+00	0	56	0	309329920	52	4845
2026-01-03 00:24:32.20	355.55	28.57	-40.3	-42.9	15.2	0.00e+00	0	56	0	316669952	52	4801
2026-01-03 00:24:36.24	354.87	29.21	-40.2	-42.8	15.3	0.00e+00	0	56	0	324009984	52	4710
2026-01-03 00:24:40.28	354.17	29.86	-40.4	-43.1	15.1	0.00e+00	0	56	0	332398592	52	4894
2026-01-03 00:24:44.31	353.45	30.52	-40.5	-43.3	14.9	0.00e+00	0	56	0	339738624	52	4988
2026-01-03 00:24:48.35	352.69	31.18	-40.7	-43.5	14.6	0.00e+00	0	57	0	347078656	52	5133
2026-01-03 00:24:52.39	351.89	31.86	-40.9	-43.8	14.3	1.50e-06	0	56	0	354418688	52	5316
2026-01-03 00:24:56.42	351.07	32.55	-41.0	-43.9	14.2	4.50e-06	0	56	0	362807296	52	5394
2026-01-03 00:25:00.46	350.20	33.25	-41.1	-44.1	14.0	1.50e-06	0	56	0	370147328	52	5504
2026-01-03 00:25:04.50	349.30	33.95	-41.4	-44.6	13.5	6.80e-06	0	56	0	377487360	53	5524
2026-01-03 00:25:08.54	348.35	34.67	-41.1	-44.1	14.0	3.80e-06	0	56	0	384827392	53	5192
2026-01-03 00:25:12.57	347.37	35.38	-40.9	-43.8	14.3	7.00e-07	0	56	0	392167424	53	5021
2026-01-03 00:25:16.61	346.34	36.11	-40.8	-43.6	14.6	0.00e+00	0	56	0	400556032	53	4875
2026-01-03 00:25:20.65	345.25	36.84	-40.4	-43.0	15.2	0.00e+00	0	56	0	407896064	52	4842
2026-01-03 00:25:24.69	344.12	37.58	-40.5	-43.1	15.1	0.00e+00	0	57	0	415236096	52	4875
2026-01-03 00:25:28.73	342.94	38.32	-41.0	-43.9	14.3	7.00e-07	0	57	0	422576128	52	5353
2026-01-03 00:25:32.77	341.70	39.06	-40.8	-43.6	14.7	7.00e-07	0	57	0	430964736	52	5170
2026-01-03 00:25:36.80	340.41	39.80	-41.0	-43.9	14.3	7.00e-07	0	57	0	438304768	52	5351
2026-01-03 00:25:40.84	339.05	40.53	-41.0	-43.9	14.3	7.00e-07	0	56	0	445644800	52	5363
2026-01-03 00:25:44.88	337.62	41.27	-41.2	-44.2	14.0	1.50e-06	0	57	0	452984832	53	5267
2026-01-03 00:25:48.92	336.14	42.00	-41.4	-44.4	13.8	1.29e-05	0	57	0	460324864	54	5093
2026-01-03 00:25:52.96	334.58	42.72	-41.2	-44.2	14.0	2.20e-06	0	57	0	468713472	54	4954
2026-01-03 00:25:57.00	332.95	43.43	-41.4	-44.6	13.6	8.30e-06	0	57	0	476053504	54	5186
2026-01-03 00:26:01.03	331.25	44.12	-40.8	-43.6	14.6	0.00e+00	0	57	0	483393536	53	4912
2026-01-03 00:26:05.07	329.47	44.80	-40.8	-43.6	14.7	7.00e-07	0	57	0	490733568	53	4873
2026-01-03 00:26:09.12	327.61	45.45	-40.3	-42.7	15.6	0.00e+00	0	57	0	499122176	52	4688
2026-01-03 00:26:13.15	325.68	46.08	-40.3	-42.8	15.4	0.00e+00	0	57	0	506462208	52	4729
2026-01-03 00:26:17.20	323.67	46.69	-40.1	-42.5	15.7	0.00e+00	0	57	0	513802240	52	4576
2026-01-03 00:26:21.23	321.58	47.26	-40.0	-42.3	16.1	0.00e+00	0	57	0	521142272	51	4739
2026-01-03 00:26:25.27	319.42	47.79	-40.7	-43.3	15.0	7.00e-07	0	57	0	528482304	51	5319
2026-01-03 00:26:29.31	317.18	48.29	-41.0	-43.9	14.4	1.50e-06	0	57	0	536870912	52	5369
2026-01-03 00:26:33.35	314.87	48.74	-41.6	-45.0	13.2	2.67e-05	0	57	0	544210944	53	5729
2026-01-03 00:26:37.39	312.50	49.14	-42.0	-45.7	12.5	1.35e-04	0	57	0	551550976	54	5861
2026-01-03 00:26:41.43	310.06	49.50	-41.3	-44.4	13.8	1.60e-05	0	57	0	558891008	54	5049
2026-01-03 00:26:45.46	307.58	49.80	-41.5	-44.8	13.4	9.90e-06	0	57	0	567279616	53	5610
2026-01-03 00:26:49.50	305.05	50.04	-40.6	-43.2	14.9	0.00e+00	0	57	0	574619648	53	4687
2026-01-03 00:26:53.54	302.48	50.22	-40.0	-42.4	15.9	0.00e+00	0	57	0	581959680	51	4784
2026-01-03 00:26:57.58	299.89	50.34	-39.4	-41.5	16.7	0.00e+00	0	57	0	589299712	50	4594
2026-01-03 00:27:01.62	297.28	50.40	-39.5	-41.6	16.7	0.00e+00	0	57	0	596639744	50	4644
2026-01-03 00:27:05.65	294.67	50.40	-38.8	-40.7	17.6	0.00e+00	0	57	0	605028352	49	4407
2026-01-03 00:27:09.69	292.06	50.33	-39.5	-41.7	16.6	0.00e+00	0	57	0	612368384	49	4945
2026-01-03 00:27:13.73	289.47	50.20	-39.6	-41.8	16.5	0.00e+00	0	57	0	619708416	50	4713
2026-01-03 00:27:17.77	286.90	50.01	-39.9	-42.2	16.2	0.00e+00	0	57	0	627048448	50	4932
2026-01-03 00:27:21.81	284.38	49.76	-39.8	-42.1	16.2	0.00e+00	0	57	0	635437056	50	4906
2026-01-03 00:27:25.85	281.89	49.45	-39.8	-42.0	16.2	0.00e+00	0	57	0	642777088	50	4857
2026-01-03 00:27:29.89	279.46	49.09	-40.2	-42.6	15.7	0.00e+00	0	57	0	650117120	50	5176
2026-01-03 00:27:33.92	277.10	48.68	-40.1	-42.4	15.9	0.00e+00	0	57	0	657457152	51	4792
2026-01-03 00:27:37.96	274.80	48.22	-41.0	-44.0	14.1	3.00e-06	0	57	0	664797184	52	5432
2026-01-03 00:27:42.00	272.57	47.72	-40.6	-43.3	14.8	7.00e-07	0	57	0	673185792	52	5033
2026-01-03 00:27:46.04	270.41	47.18	-40.8	-43.6	14.6	7.00e-07	0	57	0	680525824	52	5183
2026-01-03 00:27:50.07	268.33	46.61	-40.7	-43.4	14.8	0.00e+00	0	57	0	687865856	52	5066
2026-01-03 00:27:54.12	266.32	46.00	-39.7	-41.9	16.3	0.00e+00	0	57	0	695205888	51	4518
2026-01-03 00:27:58.16	264.39	45.36	-40.4	-42.9	15.3	0.00e+00	0	57	0	703594496	51	5078
2026-01-03 00:28:02.20	262.54	44.70	-39.2	-41.3	17.0	0.00e+00	0	57	0	710934528	50	4460
2026-01-03 00:28:06.24	260.77	44.02	-39.8	-42.0	16.3	0.00e+00	0	57	0	718274560	50	4858
2026-01-03 00:28:10.27	259.08	43.32	-39.3	-41.4	16.9	0.00e+00	0	57	0	725614592	50	4517
2026-01-03 00:28:14.31	257.45	42.61	-39.6	-41.9	16.4	0.00e+00	0	57	0	732954624	50	4778
2026-01-03 00:28:18.35	255.90	41.88	-39.5	-41.7	16.5	0.00e+00	0	57	0	741343232	50	4699
2026-01-03 00:28:22.39	254.41	41.15	-39.1	-41.1	17.2	0.00e+00	0	57	0	748683264	49	4606
2026-01-03 00:28:26.43	252.99	40.41	-39.4	-41.5	16.7	0.00e+00	0	57	0	756023296	50	4582
2026-01-03 00:28:30.47	251.64	39.67	-39.5	-41.7	16.6	0.00e+00	0	57	0	763363328	50	4679
2026-01-03 00:28:34.51	250.35	38.93	-40.0	-42.4	15.8	0.00e+00	0	57	0	771751936	50	5085
2026-01-03 00:28:38.55	249.11	38.19	-40.2	-42.7	15.5	0.00e+00	0	57	0	779091968	51	4971
2026-01-03 00:28:42.58	247.93	37.45	-40.6	-43.2	15.0	0.00e+00	0	57	0	786432000	51	5279
2026-01-03 00:28:46.62	246.80	36.71	-41.0	-43.9	14.2	2.20e-06	0	57	0	793772032	52	5383
2026-01-03 00:28:50.66	245.73	35.97	-40.9	-43.8	14.3	1.50e-06	0	57	0	801112064	52	5340
2026-01-03 00:28:54.69	244.70	35.25	-41.3	-44.5	13.6	1.22e-05	0	57	0	809500672	53	5419
2026-01-03 00:28:58.73	243.71	34.52	-41.0	-43.9	14.2	7.00e-07	0	57	0	816840704	53	5093
2026-01-03 00:29:02.77	242.77	33.81	-41.4	-44.7	13.4	7.60e-06	0	57	0	824180736	53	5549
2026-01-03 00:29:06.81	241.87	33.10	-41.3	-44.6	13.4	1.75e-05	0	57	0	831520768	53	5475
2026-01-03 00:29:10.85	241.01	32.40	-41.1	-44.1	14.0	7.00e-07	0	57	0	839909376	53	5177
2026-01-03 00:29:14.88	240.18	31.72	-41.2	-44.3	13.8	6.80e-06	0	57	0	847249408	53	5315
2026-01-03 00:29:18.92	239.39	31.04	-41.1	-44.2	13.9	2.20e-06	0	57	0	854589440	53	5235
2026-01-03 00:29:22.97	238.63	30.36	-41.2	-44.3	13.8	9.10e-06	0	57	0	861929472	53	5295
2026-01-03 00:29:27.00	237.90	29.70	-40.4	-43.1	15.0	0.00e+00	0	57	0	869269504	52	4901
2026-01-03 00:29:31.04	237.20	29.05	-40.6	-43.4	14.7	0.00e+00	0	57	0	877658112	52	5051
2026-01-03 00:29:35.08	236.53	28.41	-40.5	-43.3	14.8	0.00e+00	0	57	0	884998144	52	4995
2026-01-03 00:29:39.11	235.89	27.78	-40.2	-42.7	15.4	0.00e+00	0	57	0	892338176	52	4683
2026-01-03 00:29:43.15	235.27	27.16	-40.2	-42.7	15.4	0.00e+00	0	57	0	899678208	52	4678
2026-01-03 00:29:47.19	234.67	26.55	-40.0	-42.4	15.7	0.00e+00	0	57	0	908066816	51	4776
2026-01-03 00:29:51.23	234.10	25.96	-40.0	-42.4	15.7	0.00e+00	0	57	0	915406848	51	4795
2026-01-03 00:29:55.26	233.55	25.37	-40.4	-43.1	15.0	0.00e+00	0	57	0	922746880	51	5164
2026-01-03 00:29:59.30	233.01	24.79	-40.2	-42.7	15.4	0.00e+00	0	57	0	930086912	51	4948
2026-01-03 00:30:03.34	232.50	24.22	-39.8	-42.1	16.0	0.00e+00	0	57	0	937426944	51	4632
2026-01-03 00:30:07.39	232.00	23.66	-39.8	-42.2	15.9	0.00e+00	0	57	0	945815552	51	4670
2026-01-03 00:30:11.42	231.53	23.11	-39.9	-42.4	15.7	0.00e+00	0	57	0	953155584	51	4776
2026-01-03 00:30:15.46	231.07	22.57	-39.6	-41.9	16.1	0.00e+00	0	57	0	960495616	51	4545
2026-01-03 00:30:19.50	230.63	22.04	-39.8	-42.1	16.0	0.00e+00	0	57	0	967835648	51	4630
2026-01-03 00:30:23.53	230.20	21.51	-39.8	-42.2	15.9	0.00e+00	0	57	0	975175680	51	4658
2026-01-03 00:30:27.57	229.78	21.00	-39.8	-42.1	15.9	0.00e+00	0	57	0	983564288	51	4646
2026-01-03 00:30:31.61	229.38	20.50	-39.7	-42.0	16.0	0.00e+00	0	57	0	990904320	51	4588
2026-01-03 00:30:35.65	228.99	20.00	-39.8	-42.2	15.9	0.00e+00	0	57	0	998244352	51	4665
2026-01-03 00:30:39.69	228.62	19.51	-39.8	-42.2	15.8	0.00e+00	0	57	0	1005584384	51	4670
2026-01-03 00:30:43.73	228.26	19.03	-39.7	-42.0	16.0	0.00e+00	0	57	0	1013972992	51	4572
2026-01-03 00:30:47.77	227.90	18.56	-39.7	-42.1	15.9	0.00e+00	0	57	0	1021313024	51	4605
2026-01-03 00:30:51.80	227.56	18.10	-39.9	-42.3	15.7	0.00e+00	0	57	0	1028653056	51	4743
2026-01-03 00:30:55.84	227.23	17.64	-40.2	-42.8	15.1	0.00e+00	0	57	0	1035993088	51	5032
2026-01-03 00:30:59.88	226.91	17.19	-40.3	-43.0	14.9	0.00e+00	0	57	0	1043333120	51	5132
2026-01-03 00:31:03.92	226.60	16.75	-40.2	-42.8	15.1	0.00e+00	0	57	0	1051721728	51	5016
2026-01-03 00:31:07.95	226.30	16.32	-40.1	-42.6	15.3	0.00e+00	0	57	0	1059061760	51	4921
2026-01-03 00:31:11.99	226.01	15.89	-40.2	-42.8	15.1	0.00e+00	0	57	0	1066401792	51	5022
2026-01-03 00:31:16.03	225.72	15.47	-40.2	-42.8	15.1	0.00e+00	0	57	0	1073741824	51	5000
2026-01-03 00:31:20.07	225.45	15.05	-40.1	-42.7	15.2	0.00e+00	0	57	0	1082130432	51	4927
2026-01-03 00:31:24.10	225.18	14.64	-40.0	-42.6	15.2	0.00e+00	0	57	0	1089470464	51	4899
2026-01-03 00:31:28.14	224.92	14.24	-40.3	-43.0	14.9	0.00e+00	0	57	0	1096810496	51	5106
2026-01-03 00:31:32.18	224.66	13.84	-40.5	-43.3	14.5	7.00e-07	0	57	0	1104150528	51	5307
2026-01-03 00:31:36.22	224.42	13.45	-40.5	-43.3	14.4	1.50e-06	0	57	0	1111490560	51	5337
2026-01-03 00:31:40.26	224.18	13.07	-40.6	-43.5	14.3	0.00e+00	0	57	0	1119879168	51	5440
2026-01-03 00:31:44.29	223.94	12.69	-40.5	-43.3	14.5	0.00e+00	0	57	0	1127219200	51	5303
2026-01-03 00:31:48.33	223.72	12.32	-40.4	-43.2	14.6	1.50e-06	0	57	0	1134559232	51	5233
2026-01-03 00:31:52.37	223.49	11.95	-40.5	-43.3	14.4	0.00e+00	0	57	0	1141899264	51	5324
2026-01-03 00:31:56.41	223.28	11.58	-40.5	-43.4	14.3	0.00e+00	0	57	0	1150287872	51	5341
2026-01-03 00:32:00.45	223.07	11.22	-40.7	-43.7	14.0	2.20e-06	0	57	0	1157627904	51	5553
2026-01-03 00:32:04.48	222.86	10.87	-40.7	-43.8	13.8	8.30e-06	0	57	0	1164967936	52	5288
2026-01-03 00:32:08.52	222.66	10.52	-40.7	-43.8	13.7	9.10e-06	0	57	0	1172307968	52	5333
2026-01-03 00:32:12.56	222.47	10.18	-40.6	-43.6	13.9	3.00e-06	0	57	0	1179648000	52	5197
2026-01-03 00:32:16.60	222.28	9.83	-40.6	-43.7	13.7	3.80e-06	0	57	0	1188036608	52	5263
2026-01-03 00:32:20.63	222.09	9.50	-40.6	-43.7	13.8	3.80e-06	0	57	0	1195376640	52	5234
2026-01-03 00:32:24.67	221.91	9.17	-40.7	-43.9	13.6	9.10e-06	0	57	0	1202716672	52	5346
2026-01-03 00:32:28.71	221.73	8.84	-40.7	-43.9	13.5	1.44e-05	0	57	0	1210056704	52	5370
2026-01-03 00:32:32.75	221.56	8.52	-40.8	-44.2	13.1	2.28e-05	0	57	0	1218445312	52	5553
2026-01-03 00:32:36.78	221.39	8.20	-40.9	-44.5	12.8	5.18e-05	0	57	0	1225785344	52	5724
2026-01-03 00:32:40.82	221.23	7.88	-44.7	-59.1	3.8	1.49e+00	0	57	104	1231028224	59	20568
2026-01-03 00:32:44.86	221.06	7.57	-45.0	-59.6	3.8	1.49e+00	0	57	104	1231028224	60	20611
2026-01-03 00:32:48.91	220.91	7.26	-45.1	-59.7	3.8	1.49e+00	0	57	104	1231028224	60	20806
2026-01-03 00:32:52.95	220.75	6.95	-45.0	-59.5	3.8	1.49e+00	0	57	104	1231028224	60	20420
2026-01-03 00:32:56.99	220.60	6.65	-45.0	-59.5	3.8	1.49e+00	0	57	104	1231028224	60	20401
2026-01-03 00:33:01.04	220.45	6.35	-45.0	-59.5	3.8	1.49e+00	0	57	104	1231028224	60	20431
2026-01-03 00:33:05.08	220.31	6.05	-45.0	-59.5	3.8	1.49e+00	0	58	104	1231028224	60	20402
2026-01-03 00:33:09.12	220.17	5.76	-45.0	-59.5	3.8	1.49e+00	0	57	104	1231028224	60	20393
2026-01-03 00:33:13.17	220.03	5.47	-45.0	-59.5	3.8	1.49e+00	0	58	104	1231028224	60	20417
2026-01-03 00:33:17.21	219.89	5.19	-45.0	-59.5	3.8	1.49e+00	0	57	104	1231028224	60	20387
2026-01-03 00:33:21.25	219.76	4.90	-45.0	-59.5	3.8	1.49e+00	0	57	104	1231028224	60	20345
2026-01-03 00:33:25.30	219.63	4.62	-45.0	-59.5	3.8	1.49e+00	0	57	104	1231028224	60	20323
2026-01-03 00:33:29.34	219.50	4.34	-45.0	-59.5	3.8	1.49e+00	0	57	104	1231028224	60	20349
2026-01-03 00:33:33.38	219.38	4.07	-45.0	-59.5	3.8	1.49e+00	0	57	104	1231028224	60	20357
2026-01-03 00:33:37.43	219.25	3.79	-45.0	-59.4	3.8	1.49e+00	0	58	104	1231028224	60	20302
2026-01-03 00:33:41.47	219.13	3.52	-45.0	-59.5	3.8	1.49e+00	0	57	104	1231028224	60	20363
2026-01-03 00:33:45.52	219.01	3.26	-45.0	-59.5	3.8	1.49e+00	0	58	104	1231028224	60	20370
2026-01-03 00:33:49.56	218.90	2.99	-44.9	-59.5	3.8	1.49e+00	0	58	104	1231028224	60	20360
2026-01-03 00:33:53.61	218.79	2.73	-45.0	-59.4	3.8	1.49e+00	0	57	104	1231028224	60	20272
2026-01-03 00:33:57.65	218.68	2.47	-45.0	-59.4	3.8	1.49e+00	0	58	104	1231028224	60	20297
2026-01-03 00:34:01.69	218.57	2.21	-45.0	-59.4	3.8	1.49e+00	0	58	104	1231028224	60	20298
2026-01-03 00:34:05.73	218.46	1.95	-44.9	-59.4	3.8	1.49e+00	0	57	104	1231028224	60	20286

#Closed at: 2026-01-03 00:34:07
#Recorded file [1231 MB]: D:/lorett/data/31039_260103_032001.dat