passes_logs/2026/01/03/R2.0S_Moscow/R2.0S_Moscow__20260103_024042_FENGYUN_3D_rec.log

#Pass ID: 20260103_024042_FENGYUN 3D
#Satellite: FENGYUN 3D
#Configuration: FENGYUN 3D
#almurnet v.1.7.20251203
#Start time: 2026-01-03 02:40:44

#Version: 2.2.20231116
#Station: R2.0S_Moscow
#Location: 37.707566 lon 55.798166 lat
#TLE: 1 43010U 17072A   26002.31768531  .00000715  00000+0  35975-3 0  9993
#TLE: 2 43010  98.9910 333.9388 0001871 131.0716 229.0622 14.19693418421454

#Time	Az	El	Level	Level2	SNR	BER	BlckErr	Temp	State	Recorded	gain1	gain2
2026-01-03 02:40:44.20	12.86	2.12	-39.9	-51.6	3.8	8.47e-01	0	48	0	0	51	13755
2026-01-03 02:40:48.23	12.72	2.37	-39.9	-51.6	3.8	8.46e-01	0	48	104	0	51	13728
2026-01-03 02:40:52.28	12.56	2.63	-39.9	-51.6	3.8	8.46e-01	0	49	104	0	51	13733
2026-01-03 02:40:56.32	12.41	2.88	-39.9	-51.6	3.8	8.46e-01	0	49	104	0	51	13780
2026-01-03 02:41:00.36	12.25	3.14	-39.9	-51.6	3.8	8.46e-01	0	49	104	0	51	13760
2026-01-03 02:41:04.41	12.09	3.40	-39.9	-51.6	3.8	8.46e-01	0	50	104	0	51	13752
2026-01-03 02:41:08.45	11.92	3.66	-39.9	-51.6	3.8	8.46e-01	0	50	104	0	51	13734
2026-01-03 02:41:12.50	11.75	3.92	-39.9	-51.6	3.8	8.46e-01	0	50	104	0	51	13730
2026-01-03 02:41:16.54	11.58	4.19	-39.9	-51.5	3.8	8.46e-01	0	51	104	0	51	13675
2026-01-03 02:41:20.58	11.41	4.45	-39.9	-51.6	3.8	8.45e-01	0	51	104	0	51	13760
2026-01-03 02:41:24.63	11.23	4.72	-39.9	-51.5	3.8	8.47e-01	0	51	104	0	51	13720
2026-01-03 02:41:28.67	11.05	5.00	-39.9	-51.6	3.8	8.45e-01	0	51	104	0	51	13757
2026-01-03 02:41:32.72	10.86	5.27	-39.9	-51.6	3.8	8.46e-01	0	51	104	0	51	13771
2026-01-03 02:41:36.76	10.67	5.55	-39.9	-51.6	3.8	8.46e-01	0	52	104	0	51	13745
2026-01-03 02:41:40.80	10.48	5.83	-39.9	-51.6	3.8	8.46e-01	0	52	104	0	51	13752
2026-01-03 02:41:44.85	10.28	6.11	-39.9	-51.6	3.8	8.46e-01	0	52	104	0	51	13733
2026-01-03 02:41:48.89	10.08	6.40	-39.9	-51.5	3.8	8.45e-01	0	52	104	0	51	13686
2026-01-03 02:41:52.94	9.87	6.69	-39.9	-51.6	3.8	8.46e-01	0	52	104	0	51	13751
2026-01-03 02:41:56.98	9.66	6.98	-39.9	-51.6	3.8	8.46e-01	0	53	104	0	51	13734
2026-01-03 02:42:01.03	9.44	7.28	-39.9	-51.6	3.8	8.44e-01	0	53	104	0	51	13751
2026-01-03 02:42:05.07	9.22	7.57	-39.9	-51.6	3.8	8.46e-01	0	53	104	0	51	13742
2026-01-03 02:42:09.11	9.00	7.88	-39.9	-51.5	3.8	8.46e-01	0	53	104	0	51	13723
2026-01-03 02:42:13.16	8.77	8.18	-39.9	-51.5	3.8	8.44e-01	0	53	104	0	51	13641
2026-01-03 02:42:17.20	8.53	8.49	-39.9	-51.5	3.8	8.46e-01	0	53	104	0	51	13593
2026-01-03 02:42:21.23	8.29	8.80	-39.9	-51.4	3.8	8.47e-01	0	54	104	0	51	13524
2026-01-03 02:42:25.27	8.05	9.11	-39.8	-51.4	3.8	8.47e-01	0	54	104	0	51	13544
2026-01-03 02:42:29.31	7.80	9.43	-39.9	-51.4	3.8	8.46e-01	0	54	104	0	51	13536
2026-01-03 02:42:33.35	7.54	9.75	-39.8	-51.4	3.8	8.46e-01	0	54	104	0	51	13492
2026-01-03 02:42:37.39	7.27	10.07	-39.9	-51.5	3.8	8.46e-01	0	54	104	0	51	13662
2026-01-03 02:42:41.42	7.00	10.40	-40.0	-51.6	3.8	8.45e-01	0	54	104	0	51	13736
2026-01-03 02:42:45.46	6.73	10.73	-40.1	-51.6	3.8	8.46e-01	0	54	104	0	51	13869
2026-01-03 02:42:49.50	6.44	11.07	-40.6	-49.2	4.2	8.43e-01	0	54	0	0	51	10459
2026-01-03 02:42:53.54	6.15	11.41	-40.7	-48.6	4.4	8.33e-01	0	55	0	0	52	9216
2026-01-03 02:42:57.58	5.85	11.75	-40.1	-43.9	9.0	4.82e-02	0	55	0	12582912	52	5386
2026-01-03 02:43:01.62	5.55	12.10	-38.5	-40.9	12.9	1.58e-04	0	55	0	35651584	49	4512
2026-01-03 02:43:05.66	5.24	12.45	-34.3	-35.7	17.6	0.00e+00	0	55	0	58720256	40	4172
2026-01-03 02:43:09.70	4.92	12.80	-34.7	-36.2	17.1	0.00e+00	0	55	0	80740352	40	4419
2026-01-03 02:43:13.75	4.59	13.17	-35.9	-37.6	15.8	0.00e+00	0	55	0	103809024	42	4638
2026-01-03 02:43:17.79	4.25	13.53	-35.1	-36.6	17.1	0.00e+00	0	55	0	126877696	42	4131
2026-01-03 02:43:21.83	3.90	13.90	-34.3	-35.6	18.4	0.00e+00	0	55	0	148897792	40	4107
2026-01-03 02:43:25.87	3.55	14.27	-35.4	-36.8	17.6	0.00e+00	0	56	0	171966464	41	4452
2026-01-03 02:43:29.91	3.18	14.65	-34.6	-35.9	18.6	0.00e+00	0	55	0	195035136	41	4037
2026-01-03 02:43:33.95	2.81	15.03	-34.5	-35.7	18.8	0.00e+00	0	55	0	218103808	41	3947
2026-01-03 02:43:37.99	2.42	15.42	-34.3	-35.5	19.0	0.00e+00	0	55	0	240123904	40	4091
2026-01-03 02:43:42.03	2.02	15.82	-34.2	-35.4	19.2	0.00e+00	0	55	0	263192576	40	4027
2026-01-03 02:43:46.07	1.62	16.21	-34.1	-35.3	19.3	0.00e+00	0	56	0	285212672	40	3976
2026-01-03 02:43:50.11	1.20	16.62	-34.2	-35.4	19.2	0.00e+00	0	56	0	308281344	40	4031
2026-01-03 02:43:54.15	0.77	17.02	-34.3	-35.5	19.1	0.00e+00	0	56	0	331350016	40	4089
2026-01-03 02:43:58.19	0.33	17.44	-34.1	-35.3	19.4	0.00e+00	0	56	0	353370112	40	3968
2026-01-03 02:44:02.23	359.87	17.85	-33.7	-34.9	19.8	0.00e+00	0	56	0	376438784	39	4029
2026-01-03 02:44:06.26	359.40	18.28	-33.6	-34.7	19.9	0.00e+00	0	56	0	399507456	39	3958
2026-01-03 02:44:10.30	358.92	18.71	-33.6	-34.7	20.0	0.00e+00	0	56	0	422576128	39	3951
2026-01-03 02:44:14.34	358.42	19.14	-33.6	-34.7	20.0	0.00e+00	0	56	0	444596224	39	3940
2026-01-03 02:44:18.38	357.91	19.58	-33.5	-34.7	20.1	0.00e+00	0	56	0	467664896	38	4154
2026-01-03 02:44:22.41	357.39	20.02	-33.5	-34.6	20.1	0.00e+00	0	56	0	489684992	38	4138
2026-01-03 02:44:26.45	356.85	20.47	-33.1	-34.2	20.5	0.00e+00	0	56	0	512753664	38	3938
2026-01-03 02:44:30.49	356.29	20.93	-32.7	-33.8	20.7	0.00e+00	0	56	0	535822336	37	3987
2026-01-03 02:44:34.53	355.71	21.39	-32.9	-34.0	20.6	0.00e+00	0	56	0	557842432	37	4080
2026-01-03 02:44:38.57	355.11	21.86	-33.2	-34.3	20.4	0.00e+00	0	56	0	580911104	37	4220
2026-01-03 02:44:42.61	354.50	22.33	-32.7	-33.8	21.0	0.00e+00	0	56	0	603979776	37	3966
2026-01-03 02:44:46.65	353.87	22.80	-32.6	-33.7	21.0	0.00e+00	0	56	0	627048448	37	3944
2026-01-03 02:44:50.70	353.21	23.29	-32.6	-33.6	21.1	0.00e+00	0	56	0	649068544	37	3913
2026-01-03 02:44:54.73	352.54	23.77	-32.5	-33.5	21.3	0.00e+00	0	56	0	672137216	36	4077
2026-01-03 02:44:58.77	351.85	24.26	-32.6	-33.6	21.2	0.00e+00	0	56	0	694157312	36	4134
2026-01-03 02:45:02.81	351.13	24.76	-32.6	-33.7	21.1	0.00e+00	0	56	0	717225984	36	4172
2026-01-03 02:45:06.85	350.39	25.26	-32.3	-33.4	21.4	0.00e+00	0	56	0	740294656	36	4010
2026-01-03 02:45:10.89	349.62	25.76	-32.1	-33.1	21.7	0.00e+00	0	57	0	762314752	36	3907
2026-01-03 02:45:14.92	348.83	26.27	-32.1	-33.2	21.7	0.00e+00	0	56	0	785383424	36	3918
2026-01-03 02:45:18.96	348.01	26.78	-32.2	-33.3	21.6	0.00e+00	0	56	0	808452096	36	3962
2026-01-03 02:45:23.00	347.17	27.30	-31.4	-32.4	21.8	0.00e+00	0	56	0	831520768	34	4023
2026-01-03 02:45:27.04	346.29	27.81	-31.6	-32.6	21.5	0.00e+00	0	57	0	853540864	34	4138
2026-01-03 02:45:31.07	345.39	28.33	-31.7	-32.7	21.5	0.00e+00	0	57	0	876609536	34	4168
2026-01-03 02:45:35.12	344.46	28.85	-31.5	-32.5	21.7	0.00e+00	0	57	0	898629632	34	4089
2026-01-03 02:45:39.16	343.50	29.38	-31.6	-32.6	21.6	0.00e+00	0	57	0	921698304	34	4139
2026-01-03 02:45:43.20	342.50	29.90	-31.4	-32.5	21.8	0.00e+00	0	57	0	944766976	34	4055
2026-01-03 02:45:47.23	341.47	30.42	-31.3	-32.3	21.9	0.00e+00	0	57	0	966787072	34	4001
2026-01-03 02:45:51.27	340.41	30.94	-31.3	-32.3	22.0	0.00e+00	0	57	0	989855744	34	3979
2026-01-03 02:45:55.31	339.31	31.46	-31.1	-32.2	22.1	0.00e+00	0	57	0	1012924416	34	3917
2026-01-03 02:45:59.35	338.18	31.97	-31.2	-32.2	22.0	0.00e+00	0	57	0	1034944512	34	3953
2026-01-03 02:46:03.38	337.01	32.48	-31.2	-32.2	22.1	0.00e+00	0	57	0	1058013184	34	3955
2026-01-03 02:46:07.42	335.80	32.98	-31.1	-32.1	22.2	0.00e+00	0	57	0	1081081856	34	3908
2026-01-03 02:46:11.46	334.55	33.48	-30.9	-31.8	22.4	0.00e+00	0	57	0	1103101952	33	4002
2026-01-03 02:46:15.49	333.27	33.97	-30.9	-31.9	22.3	0.00e+00	0	57	0	1126170624	33	4041
2026-01-03 02:46:19.54	331.94	34.45	-30.8	-31.7	22.5	0.00e+00	0	57	0	1149239296	33	3958
2026-01-03 02:46:23.58	330.58	34.93	-30.9	-31.9	22.3	0.00e+00	0	57	0	1171259392	33	4050
2026-01-03 02:46:27.62	329.17	35.38	-30.7	-31.7	22.5	0.00e+00	0	57	0	1194328064	33	3940
2026-01-03 02:46:31.65	327.73	35.83	-31.0	-32.0	22.3	0.00e+00	0	57	0	1217396736	33	4057
2026-01-03 02:46:35.69	326.24	36.26	-30.9	-31.9	22.3	0.00e+00	0	57	0	1239416832	33	4049
2026-01-03 02:46:39.73	324.72	36.67	-30.7	-31.7	22.6	0.00e+00	0	57	0	1262485504	33	3919
2026-01-03 02:46:43.78	323.15	37.06	-31.0	-32.0	22.3	0.00e+00	0	57	0	1285554176	33	4070
2026-01-03 02:46:47.81	321.56	37.43	-30.9	-31.8	22.4	0.00e+00	0	57	0	1307574272	33	4003
2026-01-03 02:46:51.85	319.92	37.79	-31.2	-32.2	22.1	0.00e+00	0	57	0	1330642944	33	4176
2026-01-03 02:46:55.88	318.26	38.11	-30.7	-31.7	22.6	0.00e+00	0	57	0	1353711616	33	3927
2026-01-03 02:46:59.93	316.55	38.41	-30.6	-31.6	22.6	0.00e+00	0	57	0	1375731712	33	3895
2026-01-03 02:47:03.97	314.81	38.69	-30.9	-31.9	22.4	0.00e+00	0	57	0	1398800384	33	4034
2026-01-03 02:47:08.01	313.05	38.94	-30.8	-31.8	22.4	0.00e+00	0	57	0	1421869056	33	4003
2026-01-03 02:47:12.05	311.26	39.15	-30.8	-31.8	22.5	0.00e+00	0	57	0	1443889152	33	3963
2026-01-03 02:47:16.09	309.45	39.34	-30.6	-31.6	22.6	0.00e+00	0	57	0	1466957824	33	3891
2026-01-03 02:47:20.13	307.62	39.49	-30.4	-31.3	22.9	0.00e+00	0	57	0	1490026496	32	3989
2026-01-03 02:47:24.17	305.77	39.61	-30.9	-31.9	22.4	0.00e+00	0	57	0	1512046592	32	4274
2026-01-03 02:47:28.21	303.91	39.70	-30.8	-31.8	22.5	0.00e+00	0	57	0	1535115264	32	4205
2026-01-03 02:47:32.25	302.05	39.75	-30.8	-31.8	22.4	0.00e+00	0	57	0	1558183936	32	4239
2026-01-03 02:47:36.29	300.18	39.77	-30.6	-31.6	22.6	0.00e+00	0	57	0	1580204032	32	4134
2026-01-03 02:47:40.33	298.30	39.76	-30.4	-31.4	22.8	0.00e+00	0	57	0	1603272704	32	4027
2026-01-03 02:47:44.37	296.44	39.71	-30.6	-31.5	22.7	0.00e+00	0	57	0	1626341376	32	4098
2026-01-03 02:47:48.41	294.58	39.62	-30.4	-31.3	22.9	0.00e+00	0	57	0	1649410048	32	3990
2026-01-03 02:47:52.45	292.73	39.50	-30.2	-31.2	23.0	0.00e+00	0	57	0	1671430144	32	3930
2026-01-03 02:47:56.50	290.89	39.35	-30.4	-31.3	22.9	0.00e+00	0	57	0	1694498816	32	3996
2026-01-03 02:48:00.54	289.07	39.16	-30.3	-31.3	22.9	0.00e+00	0	58	0	1716518912	32	3973
2026-01-03 02:48:04.58	287.28	38.95	-30.6	-31.6	22.6	0.00e+00	0	57	0	1739587584	32	4112
2026-01-03 02:48:08.62	285.51	38.70	-30.2	-31.1	23.0	0.00e+00	0	57	0	1762656256	32	3906
2026-01-03 02:48:12.65	283.78	38.43	-30.0	-31.0	23.2	0.00e+00	0	57	0	1785724928	32	3842
2026-01-03 02:48:16.69	282.07	38.13	-30.2	-31.2	22.8	0.00e+00	0	57	0	1807745024	31	4168
2026-01-03 02:48:20.73	280.39	37.80	-30.1	-31.1	22.9	0.00e+00	0	57	0	1830813696	31	4134
2026-01-03 02:48:24.77	278.75	37.45	-30.1	-31.0	22.9	0.00e+00	0	57	0	1853882368	31	4098
2026-01-03 02:48:28.81	277.15	37.08	-30.0	-30.9	23.0	0.00e+00	0	57	0	1875902464	31	4045
2026-01-03 02:48:32.85	275.58	36.68	-30.2	-31.1	22.9	0.00e+00	0	57	0	1898971136	31	4134
2026-01-03 02:48:36.89	274.05	36.27	-30.2	-31.2	22.8	0.00e+00	0	57	0	1920991232	31	4181
2026-01-03 02:48:40.94	272.55	35.84	-30.4	-31.3	22.7	0.00e+00	0	57	0	1944059904	31	4232
2026-01-03 02:48:44.97	271.10	35.40	-30.1	-31.0	22.9	0.00e+00	0	57	0	1967128576	31	4094
2026-01-03 02:48:49.01	269.69	34.94	-30.0	-31.0	23.0	0.00e+00	0	57	0	1990197248	31	4055
2026-01-03 02:48:53.04	268.32	34.47	-30.2	-31.2	22.8	0.00e+00	0	57	0	2012217344	31	4181
2026-01-03 02:48:57.08	266.99	33.98	-30.3	-31.3	22.7	0.00e+00	0	58	0	2035286016	31	4218
2026-01-03 02:49:01.12	265.70	33.49	-30.2	-31.2	22.8	0.00e+00	0	57	0	2058354688	31	4154
2026-01-03 02:49:05.16	264.45	32.99	-30.0	-31.0	23.0	0.00e+00	0	57	0	2080374784	31	4077
2026-01-03 02:49:09.20	263.23	32.48	-30.5	-31.5	22.5	0.00e+00	0	58	0	2103443456	31	4304
2026-01-03 02:49:13.24	262.05	31.97	-30.3	-31.3	22.7	0.00e+00	0	57	0	2125463552	31	4219
2026-01-03 02:49:17.27	260.91	31.46	-30.2	-31.2	22.8	0.00e+00	0	57	0	2148532224	31	4146
2026-01-03 02:49:21.32	259.81	30.93	-30.2	-31.1	22.8	0.00e+00	0	57	0	2171600896	31	4135
2026-01-03 02:49:25.36	258.74	30.41	-30.4	-31.3	22.6	0.00e+00	0	57	0	2194669568	31	4242
2026-01-03 02:49:29.40	257.70	29.89	-30.4	-31.4	22.6	0.00e+00	0	57	0	2216689664	31	4264
2026-01-03 02:49:33.43	256.70	29.37	-30.4	-31.4	22.6	0.00e+00	0	58	0	2239758336	31	4279
2026-01-03 02:49:37.47	255.73	28.84	-30.6	-31.6	22.4	0.00e+00	0	58	0	2262827008	31	4352
2026-01-03 02:49:41.51	254.79	28.32	-30.6	-31.6	22.4	0.00e+00	0	57	0	2284847104	31	4357
2026-01-03 02:49:45.55	253.89	27.80	-30.5	-31.5	22.4	0.00e+00	0	57	0	2307915776	31	4329
2026-01-03 02:49:49.59	253.01	27.28	-31.0	-32.0	22.2	0.00e+00	0	57	0	2329935872	32	4296
2026-01-03 02:49:53.63	252.16	26.76	-30.9	-31.9	22.2	0.00e+00	0	58	0	2353004544	32	4291
2026-01-03 02:49:57.68	251.33	26.24	-31.1	-32.1	22.0	0.00e+00	0	58	0	2376073216	32	4364
2026-01-03 02:50:01.72	250.53	25.73	-31.3	-32.3	21.9	0.00e+00	0	57	0	2399141888	33	4217
2026-01-03 02:50:05.76	249.76	25.23	-31.4	-32.4	21.7	0.00e+00	0	58	0	2421161984	33	4277
2026-01-03 02:50:09.79	249.02	24.72	-31.4	-32.4	21.7	0.00e+00	0	58	0	2444230656	33	4262
2026-01-03 02:50:13.84	248.29	24.23	-31.5	-32.5	21.7	0.00e+00	0	58	0	2467299328	33	4314
2026-01-03 02:50:17.88	247.59	23.73	-31.3	-32.4	21.8	0.00e+00	0	58	0	2489319424	33	4243
2026-01-03 02:50:21.92	246.91	23.24	-31.3	-32.3	21.8	0.00e+00	0	57	0	2512388096	33	4204
2026-01-03 02:50:25.96	246.26	22.76	-31.4	-32.4	21.7	0.00e+00	0	58	0	2535456768	33	4263
2026-01-03 02:50:30.00	245.62	22.28	-31.7	-32.7	21.4	0.00e+00	0	58	0	2557476864	33	4423
2026-01-03 02:50:34.04	245.00	21.81	-31.8	-32.8	21.3	0.00e+00	0	58	0	2580545536	34	4240
2026-01-03 02:50:38.08	244.40	21.34	-31.6	-32.6	21.5	0.00e+00	0	57	0	2603614208	34	4142
2026-01-03 02:50:42.12	243.82	20.87	-31.6	-32.7	21.4	0.00e+00	0	58	0	2625634304	34	4153
2026-01-03 02:50:46.16	243.26	20.42	-31.7	-32.8	21.3	0.00e+00	0	58	0	2648702976	34	4210
2026-01-03 02:50:50.20	242.71	19.96	-31.9	-32.9	21.2	0.00e+00	0	58	0	2671771648	34	4283
2026-01-03 02:50:54.23	242.18	19.52	-32.0	-33.0	21.1	0.00e+00	0	58	0	2693791744	34	4335
2026-01-03 02:50:58.27	241.66	19.07	-32.1	-33.1	21.0	0.00e+00	0	58	0	2716860416	34	4390
2026-01-03 02:51:02.31	241.16	18.64	-32.2	-33.2	20.9	0.00e+00	0	58	0	2739929088	34	4433
2026-01-03 02:51:06.35	240.68	18.21	-32.3	-33.4	20.7	0.00e+00	0	58	0	2761949184	35	4252
2026-01-03 02:51:10.38	240.20	17.78	-32.4	-33.5	20.5	0.00e+00	0	58	0	2785017856	35	4321
2026-01-03 02:51:14.43	239.74	17.36	-32.6	-33.7	20.4	0.00e+00	0	58	0	2808086528	35	4414
2026-01-03 02:51:18.47	239.30	16.95	-32.6	-33.7	20.3	0.00e+00	0	58	0	2830106624	35	4433
2026-01-03 02:51:22.51	238.86	16.54	-32.7	-33.8	20.3	0.00e+00	0	58	0	2853175296	35	4445
2026-01-03 02:51:26.55	238.44	16.13	-32.7	-33.8	20.2	0.00e+00	0	58	0	2876243968	35	4472
2026-01-03 02:51:30.59	238.03	15.73	-33.5	-34.6	20.1	0.00e+00	0	58	0	2898264064	37	4388
2026-01-03 02:51:34.63	237.63	15.34	-33.7	-34.9	19.9	0.00e+00	0	58	0	2921332736	38	4274
2026-01-03 02:51:38.67	237.24	14.95	-33.9	-35.0	19.7	0.00e+00	0	58	0	2944401408	38	4340
2026-01-03 02:51:42.71	236.86	14.56	-33.9	-35.0	19.7	0.00e+00	0	58	0	2966421504	38	4338
2026-01-03 02:51:46.75	236.49	14.18	-34.0	-35.1	19.6	0.00e+00	0	58	0	2989490176	38	4381
2026-01-03 02:51:50.79	236.13	13.81	-34.0	-35.2	19.5	0.00e+00	0	58	0	3012558848	38	4421
2026-01-03 02:51:54.83	235.78	13.44	-34.1	-35.3	19.5	0.00e+00	0	58	0	3034578944	38	4444
2026-01-03 02:51:58.88	235.44	13.07	-34.2	-35.4	19.3	0.00e+00	0	58	0	3057647616	39	4274
2026-01-03 02:52:02.92	235.10	12.71	-34.4	-35.6	19.1	0.00e+00	0	57	0	3080716288	39	4375
2026-01-03 02:52:06.96	234.78	12.35	-34.6	-35.8	18.9	0.00e+00	0	58	0	3103784960	39	4471
2026-01-03 02:52:11.00	234.46	12.00	-34.7	-35.9	18.7	0.00e+00	0	58	0	3125805056	39	4538
2026-01-03 02:52:15.04	234.15	11.65	-34.6	-35.9	18.7	0.00e+00	0	57	0	3148873728	40	4265
2026-01-03 02:52:19.08	233.85	11.31	-34.6	-35.8	18.7	0.00e+00	0	57	0	3170893824	40	4239
2026-01-03 02:52:23.12	233.56	10.96	-34.6	-35.8	18.7	0.00e+00	0	58	0	3193962496	40	4236
2026-01-03 02:52:27.16	233.27	10.63	-34.7	-35.9	18.6	0.00e+00	0	57	0	3217031168	40	4278
2026-01-03 02:52:31.20	232.99	10.29	-34.8	-36.1	18.4	0.00e+00	0	58	0	3239051264	40	4351
2026-01-03 02:52:35.24	232.71	9.97	-34.9	-36.2	18.3	0.00e+00	0	58	0	3262119936	40	4412
2026-01-03 02:52:39.28	232.44	9.64	-35.0	-36.3	18.1	0.00e+00	0	58	0	3285188608	40	4491
2026-01-03 02:52:43.31	232.18	9.32	-35.2	-36.6	17.9	0.00e+00	0	58	0	3308257280	41	4364
2026-01-03 02:52:47.36	231.92	9.00	-35.4	-36.8	17.6	0.00e+00	0	58	0	3330277376	41	4446
2026-01-03 02:52:51.39	231.67	8.69	-35.3	-36.6	17.8	0.00e+00	0	58	0	3353346048	41	4371
2026-01-03 02:52:55.43	231.43	8.37	-35.4	-36.8	17.6	0.00e+00	0	57	0	3375366144	41	4461
2026-01-03 02:52:59.47	231.19	8.07	-35.3	-36.7	17.6	0.00e+00	0	58	0	3398434816	41	4430
2026-01-03 02:53:03.51	230.96	7.76	-44.9	-56.6	3.8	8.46e-01	0	58	104	3404726272	60	14589
2026-01-03 02:53:07.56	230.73	7.46	-45.1	-56.8	3.8	8.47e-01	0	58	104	3404726272	60	14986
2026-01-03 02:53:11.60	230.50	7.16	-45.1	-56.8	3.8	8.46e-01	0	58	104	3404726272	60	14950
2026-01-03 02:53:15.64	230.28	6.87	-45.1	-56.7	3.8	8.46e-01	0	58	104	3404726272	60	14864
2026-01-03 02:53:19.68	230.07	6.57	-45.1	-56.7	3.8	8.46e-01	0	58	104	3404726272	60	14778
2026-01-03 02:53:23.73	229.85	6.28	-45.1	-56.7	3.8	8.46e-01	0	58	104	3404726272	60	14756
2026-01-03 02:53:27.77	229.65	6.00	-45.0	-56.7	3.8	8.46e-01	0	58	104	3404726272	60	14786
2026-01-03 02:53:31.81	229.45	5.71	-45.0	-56.7	3.8	8.48e-01	0	58	104	3404726272	60	14738
2026-01-03 02:53:35.86	229.25	5.43	-45.0	-56.7	3.8	8.44e-01	0	58	104	3404726272	60	14747
2026-01-03 02:53:39.90	229.05	5.15	-45.0	-56.7	3.8	8.47e-01	0	58	104	3404726272	60	14758
2026-01-03 02:53:43.95	228.86	4.87	-45.0	-56.7	3.8	8.46e-01	0	58	104	3404726272	60	14784
2026-01-03 02:53:47.99	228.67	4.60	-45.0	-56.7	3.8	8.46e-01	0	58	104	3404726272	60	14747
2026-01-03 02:53:52.04	228.49	4.33	-45.0	-56.6	3.8	8.45e-01	0	58	104	3404726272	60	14705
2026-01-03 02:53:56.08	228.31	4.06	-45.0	-56.7	3.8	8.46e-01	0	58	104	3404726272	60	14752
2026-01-03 02:54:00.12	228.13	3.79	-45.0	-56.7	3.8	8.45e-01	0	58	104	3404726272	60	14752
2026-01-03 02:54:04.17	227.96	3.53	-45.0	-56.7	3.8	8.46e-01	0	58	104	3404726272	60	14725
2026-01-03 02:54:08.21	227.79	3.27	-45.0	-56.6	3.8	8.45e-01	0	58	104	3404726272	60	14679
2026-01-03 02:54:12.25	227.63	3.01	-45.0	-56.6	3.8	8.45e-01	0	58	104	3404726272	60	14659
2026-01-03 02:54:16.30	227.46	2.75	-45.0	-56.6	3.8	8.46e-01	0	58	104	3404726272	60	14698
2026-01-03 02:54:20.34	227.30	2.50	-45.0	-56.6	3.8	8.46e-01	0	58	104	3404726272	60	14683
2026-01-03 02:54:24.38	227.14	2.24	-45.0	-56.6	3.8	8.46e-01	0	58	104	3404726272	60	14702
2026-01-03 02:54:28.43	226.99	1.99	-45.0	-56.7	3.8	8.45e-01	0	58	104	3404726272	60	14718

#Closed at: 2026-01-03 02:54:29
#Recorded file [3404 MB]: D:/lorett/data/31039_260103_054044.dat