passes_logs/2026/01/03/R2.0S_Moscow/R2.0S_Moscow__20260103_094944_SUOMI_NPP_rec.log

#Pass ID: 20260103_094944_SUOMI NPP
#Satellite: SUOMI NPP
#Configuration: NPP
#almurnet v.1.7.20251203
#Start time: 2026-01-03 09:49:44

#Version: 2.2.20231116
#Station: R2.0S_Moscow
#Location: 37.707566 lon 55.798166 lat
#TLE: 1 37849U 11061A   26001.07732418  .00000182  00000+0  10735-3 0  9990
#TLE: 2 37849  98.7795 303.2470 0002580  87.2016 272.9455 14.19520779734739

#Time	Az	El	Level	Level2	SNR	BER	BlckErr	Temp	State	Recorded	gain1	gain2
2026-01-03 09:49:44.86	155.91	2.02	-44.1	-58.8	3.8	1.49e+00	0	47	0	0	60	18826
2026-01-03 09:49:48.90	155.89	2.28	-44.1	-58.8	3.8	1.49e+00	0	47	104	0	60	18807
2026-01-03 09:49:52.94	155.87	2.54	-44.1	-58.8	3.8	1.49e+00	0	48	104	0	60	18823
2026-01-03 09:49:56.98	155.85	2.81	-44.1	-58.8	3.8	1.49e+00	0	48	104	0	60	18790
2026-01-03 09:50:01.03	155.82	3.08	-44.1	-58.8	3.8	1.49e+00	0	48	104	0	60	18858
2026-01-03 09:50:05.07	155.80	3.35	-44.1	-58.8	3.8	1.49e+00	0	48	104	0	60	18823
2026-01-03 09:50:09.12	155.78	3.62	-44.1	-58.8	3.8	1.49e+00	0	49	104	0	60	18798
2026-01-03 09:50:13.16	155.76	3.90	-44.1	-58.8	3.8	1.49e+00	0	49	104	0	60	18800
2026-01-03 09:50:17.20	155.74	4.18	-44.1	-58.8	3.8	1.49e+00	0	49	104	0	60	18825
2026-01-03 09:50:21.25	155.71	4.46	-44.1	-58.8	3.8	1.49e+00	0	49	104	0	60	18825
2026-01-03 09:50:25.29	155.69	4.75	-44.1	-58.8	3.8	1.49e+00	0	50	104	0	60	18764
2026-01-03 09:50:29.34	155.66	5.04	-44.1	-58.8	3.8	1.49e+00	0	50	104	0	60	18788
2026-01-03 09:50:33.38	155.64	5.33	-44.1	-58.7	3.8	1.49e+00	0	50	104	0	60	18718
2026-01-03 09:50:37.43	155.61	5.63	-44.1	-58.7	3.8	1.49e+00	0	50	104	0	60	18640
2026-01-03 09:50:41.47	155.58	5.92	-44.1	-58.6	3.8	1.49e+00	0	50	104	0	60	18408
2026-01-03 09:50:45.51	155.55	6.23	-44.1	-58.5	3.8	1.49e+00	0	51	104	0	60	18200
2026-01-03 09:50:49.56	155.52	6.53	-44.1	-58.4	3.8	1.49e+00	0	51	104	0	60	18006
2026-01-03 09:50:53.60	155.49	6.84	-44.0	-55.6	4.1	1.48e+00	0	51	0	0	59	13818
2026-01-03 09:50:57.64	155.46	7.15	-43.3	-50.5	6.9	2.19e-01	0	51	0	6291456	58	8097
2026-01-03 09:51:01.69	155.43	7.47	-42.1	-46.7	10.7	6.34e-03	0	52	0	13631488	56	5906
2026-01-03 09:51:05.73	155.40	7.79	-40.8	-44.3	13.1	3.20e-05	0	52	0	20971520	53	5283
2026-01-03 09:51:09.77	155.36	8.12	-42.1	-46.7	10.9	3.69e-04	0	52	0	28311552	54	6610
2026-01-03 09:51:13.81	155.33	8.45	-41.6	-45.8	11.7	2.27e-04	0	52	0	35651584	53	6337
2026-01-03 09:51:17.84	155.29	8.78	-40.2	-43.3	14.1	6.10e-06	0	52	0	44040192	52	4988
2026-01-03 09:51:21.88	155.26	9.12	-40.2	-43.2	14.3	0.00e+00	0	52	0	51380224	52	4944
2026-01-03 09:51:25.92	155.22	9.46	-40.1	-43.0	14.5	7.00e-07	0	52	0	58720256	52	4847
2026-01-03 09:51:29.96	155.18	9.81	-40.1	-43.0	14.6	0.00e+00	0	52	0	66060288	52	4826
2026-01-03 09:51:34.00	155.14	10.16	-40.0	-42.7	15.0	0.00e+00	0	53	0	74448896	51	4950
2026-01-03 09:51:38.04	155.10	10.52	-39.9	-42.5	15.2	0.00e+00	0	53	0	81788928	51	4837
2026-01-03 09:51:42.08	155.06	10.88	-39.8	-42.4	15.3	0.00e+00	0	53	0	89128960	51	4797
2026-01-03 09:51:46.12	155.01	11.25	-39.8	-42.3	15.5	0.00e+00	0	53	0	96468992	51	4733
2026-01-03 09:51:50.17	154.97	11.62	-39.9	-42.5	15.3	0.00e+00	0	53	0	104857600	51	4843
2026-01-03 09:51:54.20	154.92	12.00	-39.8	-42.4	15.4	0.00e+00	0	53	0	112197632	51	4793
2026-01-03 09:51:58.24	154.87	12.39	-39.9	-42.5	15.4	0.00e+00	0	53	0	119537664	51	4827
2026-01-03 09:52:02.28	154.82	12.78	-39.8	-42.3	15.7	0.00e+00	0	54	0	126877696	51	4720
2026-01-03 09:52:06.31	154.77	13.18	-39.5	-41.9	16.0	0.00e+00	0	53	0	134217728	51	4525
2026-01-03 09:52:10.35	154.72	13.58	-39.4	-41.7	16.3	0.00e+00	0	54	0	142606336	50	4658
2026-01-03 09:52:14.39	154.66	13.99	-39.7	-42.2	15.8	0.00e+00	0	54	0	149946368	50	4930
2026-01-03 09:52:18.43	154.60	14.41	-40.0	-42.6	15.5	0.00e+00	0	54	0	157286400	50	5167
2026-01-03 09:52:22.46	154.55	14.84	-39.8	-42.3	15.8	0.00e+00	0	54	0	164626432	50	4984
2026-01-03 09:52:26.50	154.48	15.27	-39.5	-41.8	16.2	0.00e+00	0	54	0	171966464	50	4755
2026-01-03 09:52:30.54	154.42	15.71	-39.1	-41.3	16.8	0.00e+00	0	54	0	180355072	50	4469
2026-01-03 09:52:34.58	154.36	16.16	-39.4	-41.7	16.4	0.00e+00	0	54	0	187695104	50	4690
2026-01-03 09:52:38.62	154.29	16.62	-39.4	-41.6	16.5	0.00e+00	0	54	0	195035136	50	4629
2026-01-03 09:52:42.66	154.22	17.09	-39.1	-41.2	16.9	0.00e+00	0	54	0	202375168	49	4678
2026-01-03 09:52:46.70	154.15	17.56	-38.8	-40.8	17.3	0.00e+00	0	54	0	210763776	49	4473
2026-01-03 09:52:50.74	154.07	18.05	-39.1	-41.2	16.9	0.00e+00	0	55	0	218103808	49	4689
2026-01-03 09:52:54.77	153.99	18.54	-39.1	-41.2	17.0	0.00e+00	0	55	0	225443840	49	4659
2026-01-03 09:52:58.81	153.91	19.05	-38.9	-40.9	17.3	0.00e+00	0	55	0	232783872	49	4515
2026-01-03 09:53:02.85	153.83	19.56	-38.7	-40.6	17.6	0.00e+00	0	54	0	240123904	49	4366
2026-01-03 09:53:06.89	153.74	20.09	-39.1	-41.2	17.0	0.00e+00	0	55	0	248512512	49	4682
2026-01-03 09:53:10.93	153.65	20.63	-39.2	-41.4	16.9	0.00e+00	0	55	0	255852544	49	4774
2026-01-03 09:53:14.97	153.55	21.18	-38.7	-40.7	17.5	0.00e+00	0	55	0	263192576	49	4427
2026-01-03 09:53:19.01	153.45	21.74	-38.7	-40.6	17.6	0.00e+00	0	55	0	270532608	49	4382
2026-01-03 09:53:23.05	153.35	22.31	-38.8	-40.8	17.4	0.00e+00	0	55	0	278921216	49	4489
2026-01-03 09:53:27.09	153.24	22.90	-38.7	-40.6	17.7	0.00e+00	0	55	0	286261248	49	4350
2026-01-03 09:53:31.13	153.13	23.50	-38.2	-40.0	18.2	0.00e+00	0	55	0	293601280	48	4325
2026-01-03 09:53:35.17	153.01	24.11	-38.4	-40.2	18.0	0.00e+00	0	55	0	300941312	48	4436
2026-01-03 09:53:39.20	152.89	24.74	-38.9	-40.9	17.4	0.00e+00	0	55	0	308281344	48	4796
2026-01-03 09:53:43.24	152.77	25.39	-39.1	-41.1	17.2	0.00e+00	0	55	0	316669952	49	4633
2026-01-03 09:53:47.28	152.63	26.05	-38.8	-40.7	17.6	0.00e+00	0	55	0	324009984	49	4407
2026-01-03 09:53:51.32	152.49	26.72	-38.9	-40.8	17.5	0.00e+00	0	55	0	331350016	49	4473
2026-01-03 09:53:55.36	152.35	27.42	-39.3	-41.4	16.9	0.00e+00	0	55	0	338690048	49	4772
2026-01-03 09:53:59.40	152.19	28.13	-39.2	-41.3	17.0	0.00e+00	0	55	0	347078656	49	4739
2026-01-03 09:54:03.44	152.03	28.86	-39.1	-41.1	17.2	0.00e+00	0	55	0	354418688	49	4633
2026-01-03 09:54:07.48	151.86	29.61	-40.1	-42.4	16.0	0.00e+00	0	55	0	361758720	50	5099
2026-01-03 09:54:11.52	151.69	30.38	-40.5	-43.2	15.3	0.00e+00	0	56	0	369098752	51	5229
2026-01-03 09:54:15.56	151.50	31.17	-40.1	-42.5	15.9	0.00e+00	0	55	0	376438784	51	4834
2026-01-03 09:54:19.60	151.30	31.98	-40.7	-43.4	14.9	0.00e+00	0	55	0	384827392	52	5046
2026-01-03 09:54:23.63	151.09	32.82	-41.0	-44.0	14.4	3.80e-06	0	55	0	392167424	53	5102
2026-01-03 09:54:27.67	150.88	33.67	-41.4	-44.5	13.8	1.44e-05	0	56	0	399507456	53	5447
2026-01-03 09:54:31.71	150.64	34.56	-41.9	-45.5	12.9	6.02e-05	0	56	0	406847488	55	5428
2026-01-03 09:54:35.75	150.40	35.46	-40.7	-43.5	14.8	7.00e-07	0	56	0	415236096	53	4836
2026-01-03 09:54:39.79	150.14	36.40	-41.0	-44.0	14.4	7.00e-07	0	56	0	422576128	52	5405
2026-01-03 09:54:43.83	149.86	37.36	-40.7	-43.4	14.9	0.00e+00	0	56	0	429916160	53	4800
2026-01-03 09:54:47.87	149.56	38.34	-39.8	-42.0	16.3	0.00e+00	0	56	0	437256192	51	4575
2026-01-03 09:54:51.91	149.25	39.36	-40.7	-43.5	14.8	7.00e-07	0	56	0	444596224	52	5140
2026-01-03 09:54:55.95	148.91	40.40	-41.8	-45.4	13.0	6.10e-06	0	56	0	452984832	54	5670
2026-01-03 09:54:59.99	148.56	41.48	-41.3	-44.3	14.0	0.00e+00	0	56	0	460324864	53	5325
2026-01-03 09:55:04.03	148.17	42.59	-41.4	-44.5	13.8	2.82e-05	0	56	0	467664896	54	5155
2026-01-03 09:55:08.06	147.76	43.72	-41.3	-44.4	13.8	5.30e-06	0	56	0	475004928	54	5066
2026-01-03 09:55:12.10	147.31	44.90	-41.0	-44.0	14.4	0.00e+00	0	56	0	483393536	53	5113
2026-01-03 09:55:16.14	146.83	46.10	-39.6	-41.7	16.7	0.00e+00	0	56	0	490733568	50	4689
2026-01-03 09:55:20.19	146.31	47.34	-41.3	-44.3	14.0	1.37e-05	0	56	0	498073600	53	5339
2026-01-03 09:55:24.22	145.75	48.61	-40.4	-42.9	15.3	0.00e+00	0	56	0	505413632	52	4795
2026-01-03 09:55:28.26	145.13	49.92	-39.4	-41.4	17.0	0.00e+00	0	56	0	512753664	50	4515
2026-01-03 09:55:32.30	144.46	51.26	-38.5	-40.3	18.0	0.00e+00	0	56	0	521142272	48	4472
2026-01-03 09:55:36.34	143.72	52.64	-39.7	-42.0	16.4	0.00e+00	0	56	0	528482304	50	4827
2026-01-03 09:55:40.38	142.91	54.05	-39.5	-41.6	16.7	0.00e+00	0	56	0	535822336	50	4603
2026-01-03 09:55:44.42	142.01	55.50	-39.6	-41.8	16.5	0.00e+00	0	56	0	543162368	50	4741
2026-01-03 09:55:48.45	141.01	56.97	-38.9	-40.9	17.4	0.00e+00	0	56	0	551550976	48	4769
2026-01-03 09:55:52.49	139.90	58.47	-39.5	-41.6	16.6	0.00e+00	0	56	0	558891008	49	4904
2026-01-03 09:55:56.53	138.65	60.01	-39.2	-41.2	17.1	0.00e+00	0	56	0	566231040	50	4420
2026-01-03 09:56:00.57	137.24	61.56	-38.5	-40.4	17.9	0.00e+00	0	56	0	573571072	48	4519
2026-01-03 09:56:04.61	135.63	63.14	-38.4	-40.2	18.0	0.00e+00	0	56	0	580911104	48	4438
2026-01-03 09:56:08.65	133.80	64.73	-38.0	-39.8	18.5	0.00e+00	0	56	0	589299712	48	4197
2026-01-03 09:56:12.69	131.69	66.32	-39.3	-41.4	16.9	0.00e+00	0	56	0	596639744	49	4784
2026-01-03 09:56:16.73	129.24	67.91	-40.2	-42.7	15.6	0.00e+00	0	56	0	603979776	51	4967
2026-01-03 09:56:20.76	126.38	69.49	-40.8	-43.6	14.7	0.00e+00	0	56	0	611319808	52	5197
2026-01-03 09:56:24.80	123.00	71.03	-39.1	-41.2	17.0	0.00e+00	0	56	0	619708416	50	4401
2026-01-03 09:56:28.84	118.99	72.53	-40.7	-43.5	14.5	0.00e+00	0	56	0	627048448	52	5110
2026-01-03 09:56:32.88	114.21	73.94	-38.4	-40.2	17.8	0.00e+00	0	56	0	634388480	48	4416
2026-01-03 09:56:36.92	108.49	75.25	-40.4	-42.9	15.1	0.00e+00	0	56	0	641728512	51	5096
2026-01-03 09:56:40.96	101.71	76.39	-41.0	-44.1	13.9	0.00e+00	0	56	0	649068544	52	5486
2026-01-03 09:56:45.00	93.76	77.32	-40.8	-43.7	14.4	0.00e+00	0	56	0	657457152	52	5236
2026-01-03 09:56:49.03	84.74	77.99	-40.8	-43.6	14.4	2.20e-06	0	56	0	664797184	53	4912
2026-01-03 09:56:53.07	74.89	78.33	-40.6	-43.3	14.9	0.00e+00	0	56	0	672137216	52	5009
2026-01-03 09:56:57.11	64.75	78.32	-40.9	-43.7	14.3	2.28e-04	0	56	0	679477248	53	4982
2026-01-03 09:57:01.15	54.93	77.96	-40.1	-42.6	15.5	0.00e+00	0	56	0	687865856	52	4641
2026-01-03 09:57:05.19	45.94	77.29	-40.7	-43.4	14.7	0.00e+00	0	56	0	695205888	53	4803
2026-01-03 09:57:09.23	38.05	76.34	-40.9	-43.8	14.4	1.29e-05	0	56	0	702545920	53	4992
2026-01-03 09:57:13.27	31.33	75.19	-42.1	-46.1	11.9	8.08e-05	0	56	0	709885952	54	6146
2026-01-03 09:57:17.31	25.67	73.88	-40.3	-42.8	15.5	0.00e+00	0	56	0	717225984	51	4992
2026-01-03 09:57:21.35	20.93	72.46	-39.9	-42.1	16.1	0.00e+00	0	56	0	725614592	51	4633
2026-01-03 09:57:25.39	16.96	70.97	-41.2	-44.2	13.9	9.90e-06	0	56	0	732954624	53	5246
2026-01-03 09:57:29.43	13.61	69.42	-40.7	-43.5	14.7	0.00e+00	0	57	0	740294656	52	5106
2026-01-03 09:57:33.47	10.76	67.85	-40.5	-43.2	15.1	0.00e+00	0	56	0	747634688	51	5229
2026-01-03 09:57:37.50	8.34	66.26	-37.9	-39.6	18.5	0.00e+00	0	56	0	756023296	47	4365
2026-01-03 09:57:41.54	6.24	64.67	-39.6	-41.8	16.5	0.00e+00	0	56	0	763363328	50	4755
2026-01-03 09:57:45.58	4.42	63.09	-42.2	-46.3	11.8	3.28e-05	0	57	0	770703360	55	5968
2026-01-03 09:57:49.62	2.83	61.52	-40.6	-43.3	15.0	7.00e-07	0	57	0	778043392	53	4710
2026-01-03 09:57:53.65	1.44	59.97	-38.4	-40.2	18.0	0.00e+00	0	56	0	785383424	48	4421
2026-01-03 09:57:57.69	0.19	58.44	-39.5	-41.8	16.5	0.00e+00	0	56	0	793772032	49	4997
2026-01-03 09:58:01.73	359.09	56.95	-39.3	-41.4	16.9	0.00e+00	0	56	0	801112064	49	4786
2026-01-03 09:58:05.77	358.10	55.48	-41.0	-43.9	14.3	7.00e-07	0	57	0	808452096	52	5380
2026-01-03 09:58:09.81	357.20	54.04	-39.7	-41.9	16.3	0.00e+00	0	57	0	815792128	50	4776
2026-01-03 09:58:13.85	356.39	52.63	-38.5	-40.3	17.9	0.00e+00	0	56	0	824180736	48	4479
2026-01-03 09:58:17.89	355.66	51.26	-40.9	-43.7	14.6	0.00e+00	0	57	0	831520768	52	5246
2026-01-03 09:58:21.93	354.99	49.93	-40.8	-43.5	14.6	7.00e-07	0	56	0	838860800	52	5141
2026-01-03 09:58:25.97	354.38	48.62	-41.2	-44.1	14.1	7.00e-07	0	57	0	846200832	52	5517
2026-01-03 09:58:30.01	353.82	47.36	-40.7	-43.4	14.7	0.00e+00	0	56	0	853540864	53	4807
2026-01-03 09:58:34.05	353.30	46.12	-40.5	-43.1	15.1	7.00e-07	0	56	0	861929472	52	4888
2026-01-03 09:58:38.08	352.83	44.93	-40.8	-43.5	14.8	0.00e+00	0	57	0	869269504	52	5109
2026-01-03 09:58:42.13	352.38	43.76	-42.5	-46.9	11.0	1.25e-03	0	57	0	876609536	55	6355
2026-01-03 09:58:46.16	351.97	42.63	-42.4	-46.4	11.8	4.79e-03	0	57	0	883949568	56	5687
2026-01-03 09:58:50.20	351.59	41.52	-40.7	-43.4	14.5	0.00e+00	0	56	0	892338176	52	5089
2026-01-03 09:58:54.24	351.23	40.45	-42.2	-46.3	11.9	2.27e-04	0	56	0	899678208	55	5932
2026-01-03 09:58:58.28	350.90	39.41	-40.7	-43.4	14.6	3.80e-06	0	57	0	907018240	53	4814
2026-01-03 09:59:02.32	350.59	38.40	-40.4	-42.9	15.4	0.00e+00	0	57	0	914358272	51	5079
2026-01-03 09:59:06.35	350.30	37.42	-42.0	-45.8	12.4	4.45e-04	0	57	0	921698304	55	5604
2026-01-03 09:59:10.39	350.02	36.47	-41.8	-45.3	12.8	5.56e-05	0	56	0	930086912	54	5628
2026-01-03 09:59:14.43	349.76	35.54	-41.5	-44.8	13.3	1.14e-05	0	56	0	937426944	54	5321
2026-01-03 09:59:18.47	349.52	34.63	-40.1	-42.4	15.8	0.00e+00	0	57	0	944766976	51	4796
2026-01-03 09:59:22.51	349.29	33.76	-40.5	-43.2	14.9	0.00e+00	0	57	0	952107008	52	4950
2026-01-03 09:59:26.54	349.07	32.90	-42.7	-47.3	10.8	1.36e-03	0	57	0	960495616	55	6687
2026-01-03 09:59:30.58	348.87	32.07	-41.7	-45.3	12.7	1.98e-04	0	56	0	967835648	55	5326
2026-01-03 09:59:34.63	348.67	31.26	-40.8	-43.7	14.4	7.00e-07	0	57	0	975175680	53	4935
2026-01-03 09:59:38.66	348.49	30.48	-40.3	-43.0	15.0	0.00e+00	0	57	0	982515712	52	4816
2026-01-03 09:59:42.70	348.31	29.71	-40.1	-42.6	15.4	0.00e+00	0	57	0	989855744	52	4606
2026-01-03 09:59:46.74	348.15	28.96	-40.5	-43.2	14.9	0.00e+00	0	57	0	998244352	51	5232
2026-01-03 09:59:50.77	347.99	28.24	-41.4	-44.7	13.3	1.14e-05	0	57	0	1005584384	53	5575
2026-01-03 09:59:54.81	347.84	27.53	-40.7	-43.6	14.4	3.00e-06	0	57	0	1012924416	53	4919
2026-01-03 09:59:58.84	347.70	26.84	-39.4	-41.6	16.4	0.00e+00	0	57	0	1020264448	50	4617
2026-01-03 10:00:02.88	347.56	26.16	-38.8	-40.8	17.2	0.00e+00	0	56	0	1028653056	49	4455
2026-01-03 10:00:06.92	347.43	25.51	-40.1	-42.6	15.3	0.00e+00	0	57	0	1035993088	50	5200
2026-01-03 10:00:10.96	347.30	24.86	-41.2	-44.5	13.4	2.97e-05	0	56	0	1043333120	53	5409
2026-01-03 10:00:15.00	347.19	24.24	-40.0	-42.6	15.2	0.00e+00	0	57	0	1050673152	52	4646
2026-01-03 10:00:19.04	347.07	23.62	-39.0	-41.1	16.7	0.00e+00	0	57	0	1058013184	49	4641
2026-01-03 10:00:23.08	346.96	23.03	-38.8	-40.9	16.9	0.00e+00	0	57	0	1066401792	49	4495
2026-01-03 10:00:27.11	346.86	22.44	-39.1	-41.4	16.2	0.00e+00	0	57	0	1073741824	49	4772
2026-01-03 10:00:31.15	346.76	21.87	-39.6	-42.5	14.7	0.00e+00	0	57	0	1081081856	49	5407
2026-01-03 10:00:35.19	346.66	21.31	-40.6	-46.0	9.5	1.01e-02	0	57	0	1088421888	51	7257
2026-01-03 10:00:39.23	346.57	20.76	-40.6	-51.6	4.3	1.13e+00	0	57	0	1095761920	52	12984
2026-01-03 10:00:43.26	346.48	20.23	-40.3	-54.5	3.8	1.49e+00	0	57	104	1095761920	52	18168
2026-01-03 10:00:47.30	346.40	19.71	-40.4	-55.0	3.8	1.49e+00	0	57	104	1095761920	52	19175
2026-01-03 10:00:51.34	346.32	19.19	-40.5	-55.1	3.8	1.49e+00	0	57	104	1095761920	52	19406
2026-01-03 10:00:55.38	346.24	18.69	-40.4	-55.0	3.8	1.49e+00	0	57	104	1095761920	52	19198
2026-01-03 10:00:59.42	346.16	18.20	-40.4	-55.0	3.8	1.49e+00	0	57	104	1095761920	52	19192
2026-01-03 10:01:03.46	346.09	17.71	-41.2	-55.8	3.8	1.49e+00	0	57	104	1095761920	53	19979
2026-01-03 10:01:07.50	346.02	17.24	-40.5	-55.2	3.8	1.49e+00	0	57	104	1095761920	52	19805
2026-01-03 10:01:11.55	345.95	16.77	-40.9	-55.8	3.8	1.49e+00	0	57	104	1095761920	53	19946
2026-01-03 10:01:15.59	345.89	16.31	-40.4	-55.2	3.8	1.49e+00	0	57	104	1095761920	52	19719
2026-01-03 10:01:19.63	345.83	15.87	-40.9	-55.6	3.8	1.49e+00	0	57	104	1095761920	53	19443
2026-01-03 10:01:23.66	345.77	15.43	-40.5	-55.4	3.8	1.49e+00	0	57	104	1095761920	52	20163
2026-01-03 10:01:27.70	345.71	14.99	-40.8	-55.4	3.8	1.49e+00	0	57	104	1095761920	53	19111
2026-01-03 10:01:31.75	345.65	14.57	-40.7	-55.3	3.8	1.49e+00	0	57	104	1095761920	53	18947
2026-01-03 10:01:35.79	345.60	14.15	-40.5	-55.2	3.8	1.49e+00	0	57	104	1095761920	53	18536
2026-01-03 10:01:39.83	345.55	13.74	-40.6	-55.2	3.8	1.49e+00	0	57	104	1095761920	53	18577
2026-01-03 10:01:43.87	345.50	13.34	-40.4	-55.0	3.8	1.49e+00	0	57	104	1095761920	52	19341
2026-01-03 10:01:47.91	345.45	12.94	-40.5	-55.2	3.8	1.49e+00	0	57	104	1095761920	52	19676
2026-01-03 10:01:51.95	345.40	12.55	-40.5	-55.1	3.8	1.49e+00	0	57	104	1095761920	52	19467
2026-01-03 10:01:55.99	345.36	12.17	-40.4	-55.0	3.8	1.49e+00	0	57	104	1095761920	52	19366
2026-01-03 10:02:00.03	345.32	11.79	-40.8	-55.3	3.8	1.49e+00	0	57	104	1095761920	52	20010
2026-01-03 10:02:04.07	345.28	11.41	-40.1	-54.8	3.8	1.49e+00	0	57	104	1095761920	52	18905
2026-01-03 10:02:08.11	345.24	11.05	-40.7	-55.3	3.8	1.49e+00	0	57	104	1095761920	52	19988
2026-01-03 10:02:12.15	345.20	10.68	-40.4	-55.0	3.8	1.49e+00	0	57	104	1095761920	52	19368
2026-01-03 10:02:16.19	345.16	10.33	-40.3	-54.9	3.8	1.49e+00	0	57	104	1095761920	52	19124
2026-01-03 10:02:20.23	345.12	9.98	-40.5	-55.1	3.8	1.49e+00	0	57	104	1095761920	52	19478
2026-01-03 10:02:24.27	345.09	9.63	-40.8	-55.3	3.8	1.49e+00	0	57	104	1095761920	52	19997
2026-01-03 10:02:28.30	345.06	9.29	-40.3	-54.8	3.8	1.49e+00	0	57	104	1095761920	52	18928
2026-01-03 10:02:32.35	345.02	8.95	-40.6	-55.2	3.8	1.49e+00	0	57	104	1095761920	52	19769
2026-01-03 10:02:36.39	344.99	8.62	-40.4	-55.0	3.8	1.49e+00	0	57	104	1095761920	52	19245
2026-01-03 10:02:40.43	344.96	8.29	-40.4	-54.9	3.8	1.49e+00	0	57	104	1095761920	52	19135
2026-01-03 10:02:44.46	344.93	7.97	-40.8	-55.4	3.8	1.49e+00	0	57	104	1095761920	52	20088
2026-01-03 10:02:48.51	344.90	7.65	-44.9	-59.5	3.8	1.49e+00	0	57	104	1095761920	60	20363
2026-01-03 10:02:52.55	344.88	7.33	-45.1	-59.7	3.8	1.49e+00	0	57	104	1095761920	60	21009
2026-01-03 10:02:56.60	344.85	7.02	-45.1	-59.7	3.8	1.49e+00	0	57	104	1095761920	60	20785
2026-01-03 10:03:00.64	344.82	6.71	-45.0	-59.5	3.8	1.49e+00	0	57	104	1095761920	60	20506
2026-01-03 10:03:04.68	344.80	6.40	-45.0	-59.5	3.8	1.49e+00	0	57	104	1095761920	60	20426
2026-01-03 10:03:08.73	344.78	6.10	-45.0	-59.5	3.8	1.49e+00	0	57	104	1095761920	60	20366
2026-01-03 10:03:12.77	344.75	5.80	-45.0	-59.5	3.8	1.49e+00	0	57	104	1095761920	60	20412
2026-01-03 10:03:16.82	344.73	5.51	-45.0	-59.5	3.8	1.49e+00	0	57	104	1095761920	60	20410
2026-01-03 10:03:20.86	344.71	5.22	-45.0	-59.5	3.8	1.49e+00	0	57	104	1095761920	60	20362
2026-01-03 10:03:24.90	344.69	4.93	-44.8	-59.5	3.8	1.49e+00	0	57	104	1095761920	60	20314
2026-01-03 10:03:28.95	344.67	4.64	-44.8	-59.4	3.8	1.49e+00	0	57	104	1095761920	60	20296
2026-01-03 10:03:32.99	344.65	4.36	-44.9	-59.5	3.8	1.49e+00	0	57	104	1095761920	60	20351
2026-01-03 10:03:37.04	344.63	4.08	-44.9	-59.5	3.8	1.49e+00	0	57	104	1095761920	60	20347
2026-01-03 10:03:41.08	344.62	3.81	-44.9	-59.5	3.8	1.49e+00	0	57	104	1095761920	60	20372
2026-01-03 10:03:45.12	344.60	3.53	-44.9	-59.4	3.8	1.49e+00	0	57	104	1095761920	60	20281
2026-01-03 10:03:49.17	344.58	3.26	-44.9	-59.5	3.8	1.49e+00	0	57	104	1095761920	60	20358
2026-01-03 10:03:53.21	344.57	2.99	-44.9	-59.4	3.8	1.49e+00	0	57	104	1095761920	60	20263
2026-01-03 10:03:57.26	344.55	2.73	-44.9	-59.4	3.8	1.49e+00	0	57	104	1095761920	60	20284
2026-01-03 10:04:01.30	344.54	2.46	-44.9	-59.5	3.8	1.49e+00	0	57	104	1095761920	60	20365
2026-01-03 10:04:05.34	344.52	2.20	-44.9	-59.5	3.8	1.49e+00	0	57	104	1095761920	60	20373

#Closed at: 2026-01-03 10:04:08
#Recorded file [1095 MB]: D:/lorett/data/31039_260103_124944.dat