passes_logs/2026/01/03/R2.0S_Moscow/R2.0S_Moscow__20260103_234020_SUOMI_NPP_rec.log

#Pass ID: 20260103_234020_SUOMI NPP
#Satellite: SUOMI NPP
#Configuration: NPP
#almurnet v.1.7.20251203
#Start time: 2026-01-03 23:40:21

#Version: 2.2.20231116
#Station: R2.0S_Moscow
#Location: 37.707566 lon 55.798166 lat
#TLE: 1 37849U 11061A   26001.07732418  .00000182  00000+0  10735-3 0  9990
#TLE: 2 37849  98.7795 303.2470 0002580  87.2016 272.9455 14.19520779734739

#Time	Az	El	Level	Level2	SNR	BER	BlckErr	Temp	State	Recorded	gain1	gain2
2026-01-03 23:40:21.71	16.52	2.06	-41.4	-56.7	3.8	1.49e+00	0	48	0	0	54	20795
2026-01-03 23:40:25.74	16.55	2.32	-41.4	-56.6	3.8	1.49e+00	0	48	104	0	54	20725
2026-01-03 23:40:29.79	16.58	2.58	-41.4	-56.6	3.8	1.49e+00	0	49	104	0	54	20700
2026-01-03 23:40:33.83	16.61	2.84	-41.3	-56.7	3.8	1.49e+00	0	49	104	0	54	20783
2026-01-03 23:40:37.88	16.64	3.11	-41.3	-56.6	3.8	1.49e+00	0	49	104	0	54	20700
2026-01-03 23:40:41.92	16.67	3.38	-41.3	-56.6	3.8	1.49e+00	0	49	104	0	54	20704
2026-01-03 23:40:45.96	16.70	3.65	-41.4	-56.6	3.8	1.49e+00	0	50	104	0	54	20689
2026-01-03 23:40:50.01	16.73	3.93	-41.3	-56.6	3.8	1.49e+00	0	50	104	0	54	20659
2026-01-03 23:40:54.05	16.76	4.20	-41.3	-56.6	3.8	1.49e+00	0	50	104	0	54	20714
2026-01-03 23:40:58.10	16.79	4.49	-41.3	-56.6	3.8	1.49e+00	0	50	104	0	54	20657
2026-01-03 23:41:02.14	16.82	4.77	-41.3	-56.6	3.8	1.49e+00	0	50	104	0	54	20684
2026-01-03 23:41:06.19	16.85	5.06	-41.4	-56.6	3.8	1.49e+00	0	51	104	0	54	20620
2026-01-03 23:41:10.23	16.88	5.34	-41.3	-56.6	3.8	1.49e+00	0	51	104	0	54	20633
2026-01-03 23:41:14.27	16.91	5.64	-41.3	-56.6	3.8	1.49e+00	0	51	104	0	54	20609
2026-01-03 23:41:18.32	16.94	5.93	-41.4	-56.6	3.8	1.49e+00	0	51	104	0	54	20699
2026-01-03 23:41:22.36	16.97	6.23	-41.4	-56.6	3.8	1.49e+00	0	52	104	0	54	20612
2026-01-03 23:41:26.41	17.01	6.54	-41.3	-56.4	3.8	1.49e+00	0	52	104	0	54	20128
2026-01-03 23:41:30.45	17.04	6.84	-41.3	-56.4	3.8	1.49e+00	0	52	104	0	54	20086
2026-01-03 23:41:34.49	17.07	7.15	-41.3	-55.1	3.8	1.49e+00	0	52	104	0	54	17456
2026-01-03 23:41:38.54	17.10	7.47	-41.0	-51.7	4.7	1.07e+00	0	53	0	1048576	54	11766
2026-01-03 23:41:42.58	17.14	7.78	-40.1	-46.6	8.7	6.64e-02	0	53	0	8388608	52	7296
2026-01-03 23:41:46.62	17.17	8.11	-39.9	-44.1	12.0	4.84e-04	0	53	0	16777216	50	6149
2026-01-03 23:41:50.66	17.20	8.43	-40.9	-49.8	6.2	5.18e-03	0	53	0	24117248	53	9980
2026-01-03 23:41:54.70	17.24	8.76	-40.8	-45.0	11.6	4.34e-04	0	53	0	29360128	52	6106
2026-01-03 23:41:58.74	17.27	9.10	-40.5	-44.5	12.3	1.81e-04	0	53	0	36700160	52	5723
2026-01-03 23:42:02.78	17.31	9.44	-40.5	-44.4	12.4	1.56e-04	0	53	0	45088768	52	5692
2026-01-03 23:42:06.82	17.34	9.78	-40.3	-43.9	13.0	2.13e-05	0	53	0	52428800	52	5384
2026-01-03 23:42:10.85	17.38	10.13	-40.3	-43.8	13.1	4.04e-05	0	54	0	59768832	52	5332
2026-01-03 23:42:14.89	17.42	10.48	-40.3	-43.7	13.4	1.52e-05	0	54	0	67108864	52	5222
2026-01-03 23:42:18.92	17.45	10.84	-40.3	-43.5	13.6	4.50e-06	0	54	0	74448896	52	5142
2026-01-03 23:42:22.96	17.49	11.20	-40.2	-43.4	13.7	9.90e-06	0	54	0	82837504	52	5090
2026-01-03 23:42:27.00	17.53	11.57	-40.1	-43.2	14.0	5.30e-06	0	54	0	90177536	52	4947
2026-01-03 23:42:31.04	17.57	11.95	-40.0	-43.0	14.3	3.00e-06	0	54	0	97517568	52	4822
2026-01-03 23:42:35.08	17.61	12.33	-40.2	-43.1	14.3	2.20e-06	0	54	0	104857600	51	5213
2026-01-03 23:42:39.12	17.65	12.72	-40.0	-42.8	14.6	0.00e+00	0	54	0	113246208	51	5015
2026-01-03 23:42:43.16	17.69	13.11	-39.8	-42.6	14.8	0.00e+00	0	55	0	120586240	51	4889
2026-01-03 23:42:47.20	17.73	13.51	-39.7	-42.3	15.1	7.00e-07	0	55	0	127926272	51	4753
2026-01-03 23:42:51.23	17.77	13.92	-39.6	-42.2	15.3	0.00e+00	0	54	0	135266304	51	4685
2026-01-03 23:42:55.27	17.81	14.33	-39.6	-42.2	15.4	0.00e+00	0	55	0	142606336	51	4687
2026-01-03 23:42:59.31	17.86	14.75	-39.7	-42.3	15.3	0.00e+00	0	55	0	150994944	51	4737
2026-01-03 23:43:03.35	17.90	15.18	-39.8	-42.4	15.3	0.00e+00	0	55	0	158334976	51	4789
2026-01-03 23:43:07.39	17.94	15.61	-39.7	-42.3	15.4	0.00e+00	0	55	0	165675008	51	4718
2026-01-03 23:43:11.42	17.99	16.06	-39.5	-41.9	15.8	0.00e+00	0	55	0	173015040	50	4793
2026-01-03 23:43:15.46	18.04	16.51	-39.6	-42.1	15.6	0.00e+00	0	55	0	181403648	50	4876
2026-01-03 23:43:19.50	18.08	16.97	-39.4	-41.8	15.9	0.00e+00	0	55	0	188743680	50	4751
2026-01-03 23:43:23.53	18.13	17.44	-39.8	-42.3	15.5	0.00e+00	0	55	0	196083712	50	5000
2026-01-03 23:43:27.57	18.18	17.92	-39.8	-42.3	15.5	0.00e+00	0	55	0	203423744	50	5036
2026-01-03 23:43:31.61	18.23	18.41	-40.0	-42.6	15.3	0.00e+00	0	55	0	210763776	50	5206
2026-01-03 23:43:35.64	18.28	18.90	-40.2	-43.0	14.9	0.00e+00	0	55	0	219152384	51	5109
2026-01-03 23:43:39.68	18.34	19.41	-40.2	-42.8	15.1	0.00e+00	0	55	0	226492416	51	5024
2026-01-03 23:43:43.72	18.39	19.93	-40.3	-43.0	14.8	0.00e+00	0	56	0	233832448	51	5146
2026-01-03 23:43:47.76	18.44	20.46	-40.6	-43.5	14.5	1.50e-06	0	55	0	241172480	51	5437
2026-01-03 23:43:51.80	18.50	21.00	-40.8	-44.0	13.9	7.00e-07	0	56	0	248512512	52	5414
2026-01-03 23:43:55.84	18.56	21.56	-41.0	-44.3	13.6	1.06e-05	0	56	0	256901120	52	5601
2026-01-03 23:43:59.88	18.62	22.12	-40.7	-43.8	14.2	1.50e-06	0	56	0	264241152	52	5302
2026-01-03 23:44:03.92	18.68	22.70	-40.9	-44.0	13.9	3.80e-06	0	56	0	271581184	52	5450
2026-01-03 23:44:07.95	18.74	23.29	-41.0	-44.2	13.8	5.30e-06	0	56	0	278921216	52	5570
2026-01-03 23:44:11.99	18.81	23.90	-40.9	-43.9	14.0	3.00e-06	0	56	0	287309824	52	5398
2026-01-03 23:44:16.03	18.87	24.52	-40.9	-44.0	13.9	2.20e-06	0	56	0	294649856	52	5448
2026-01-03 23:44:20.06	18.94	25.16	-40.7	-43.5	14.4	7.00e-07	0	56	0	301989888	52	5157
2026-01-03 23:44:24.10	19.01	25.81	-40.5	-43.3	14.7	1.50e-06	0	56	0	309329920	52	5026
2026-01-03 23:44:28.14	19.09	26.48	-40.2	-42.8	15.3	0.00e+00	0	56	0	316669952	52	4715
2026-01-03 23:44:32.19	19.16	27.16	-40.2	-42.8	15.3	0.00e+00	0	56	0	325058560	51	4996
2026-01-03 23:44:36.22	19.24	27.87	-40.4	-43.0	15.1	0.00e+00	0	56	0	332398592	51	5123
2026-01-03 23:44:40.26	19.32	28.59	-40.4	-43.0	15.1	0.00e+00	0	56	0	339738624	51	5129
2026-01-03 23:44:44.30	19.41	29.33	-40.4	-43.0	15.1	0.00e+00	0	56	0	347078656	51	5152
2026-01-03 23:44:48.33	19.49	30.09	-40.7	-43.6	14.4	0.00e+00	0	56	0	355467264	52	5194
2026-01-03 23:44:52.38	19.59	30.87	-41.0	-44.0	14.1	7.00e-07	0	56	0	362807296	52	5428
2026-01-03 23:44:56.42	19.68	31.67	-41.0	-44.0	14.2	3.00e-06	0	56	0	370147328	52	5434
2026-01-03 23:45:00.45	19.78	32.50	-41.8	-45.4	12.6	6.33e-05	0	56	0	377487360	54	5675
2026-01-03 23:45:04.49	19.88	33.35	-42.0	-45.8	12.3	2.04e-04	0	56	0	384827392	54	5956
2026-01-03 23:45:08.53	19.99	34.22	-41.8	-45.4	12.7	8.08e-05	0	56	0	393216000	54	5681
2026-01-03 23:45:12.57	20.11	35.12	-40.7	-43.7	14.4	2.20e-06	0	57	0	400556032	53	4928
2026-01-03 23:45:16.61	20.22	36.04	-40.4	-43.1	15.1	0.00e+00	0	56	0	407896064	52	4899
2026-01-03 23:45:20.64	20.35	36.99	-39.6	-41.9	16.3	0.00e+00	0	56	0	415236096	51	4524
2026-01-03 23:45:24.68	20.48	37.97	-39.2	-41.4	16.8	0.00e+00	0	56	0	423624704	50	4503
2026-01-03 23:45:28.72	20.62	38.98	-39.1	-41.2	17.0	0.00e+00	0	56	0	430964736	49	4673
2026-01-03 23:45:32.76	20.77	40.02	-39.8	-42.1	16.3	0.00e+00	0	56	0	438304768	50	4896
2026-01-03 23:45:36.80	20.92	41.10	-40.7	-43.4	14.8	0.00e+00	0	57	0	445644800	51	5399
2026-01-03 23:45:40.84	21.09	42.20	-40.7	-43.6	14.5	0.00e+00	0	56	0	452984832	52	5179
2026-01-03 23:45:44.88	21.27	43.34	-40.4	-43.0	15.3	0.00e+00	0	57	0	461373440	51	5114
2026-01-03 23:45:48.91	21.46	44.51	-39.8	-42.1	16.2	0.00e+00	0	57	0	468713472	51	4610
2026-01-03 23:45:52.95	21.66	45.72	-40.5	-43.1	15.1	0.00e+00	0	57	0	476053504	51	5211
2026-01-03 23:45:56.99	21.88	46.97	-41.0	-43.9	14.1	7.00e-07	0	57	0	483393536	52	5390
2026-01-03 23:46:01.02	22.11	48.25	-41.9	-45.6	12.6	5.95e-05	0	57	0	491782144	54	5803
2026-01-03 23:46:05.06	22.36	49.58	-40.7	-43.5	14.7	0.00e+00	0	57	0	499122176	53	4859
2026-01-03 23:46:09.10	22.64	50.94	-39.5	-41.7	16.6	0.00e+00	0	57	0	506462208	50	4662
2026-01-03 23:46:13.14	22.94	52.35	-39.5	-41.7	16.6	0.00e+00	0	57	0	513802240	49	4940
2026-01-03 23:46:17.18	23.27	53.79	-39.7	-42.0	16.2	0.00e+00	0	57	0	521142272	51	4590
2026-01-03 23:46:21.21	23.64	55.27	-39.1	-41.2	17.1	0.00e+00	0	57	0	529530880	50	4399
2026-01-03 23:46:25.25	24.04	56.80	-38.6	-40.6	17.6	0.00e+00	0	57	0	536870912	48	4607
2026-01-03 23:46:29.29	24.49	58.37	-38.5	-40.3	17.9	0.00e+00	0	57	0	544210944	48	4484
2026-01-03 23:46:33.33	24.99	59.98	-37.9	-39.6	18.5	0.00e+00	0	57	0	551550976	47	4391
2026-01-03 23:46:37.37	25.57	61.63	-39.2	-41.3	17.0	0.00e+00	0	57	0	559939584	49	4727
2026-01-03 23:46:41.41	26.22	63.32	-37.6	-39.3	18.8	0.00e+00	0	57	0	567279616	47	4223
2026-01-03 23:46:45.44	26.97	65.05	-39.2	-41.3	17.0	0.00e+00	0	57	0	574619648	48	5020
2026-01-03 23:46:49.48	27.84	66.81	-40.3	-42.8	15.5	0.00e+00	0	57	0	581959680	51	5009
2026-01-03 23:46:53.52	28.88	68.61	-42.5	-46.9	11.3	4.07e-04	0	57	0	589299712	55	6387
2026-01-03 23:46:57.56	30.12	70.43	-41.7	-45.2	12.9	5.41e-05	0	57	0	597688320	55	5275
2026-01-03 23:47:01.60	31.63	72.28	-40.1	-42.6	15.5	0.00e+00	0	57	0	605028352	52	4634
2026-01-03 23:47:05.64	33.52	74.15	-39.2	-41.3	16.9	0.00e+00	0	57	0	612368384	49	4743
2026-01-03 23:47:09.68	35.93	76.03	-39.1	-41.2	17.0	0.00e+00	0	57	0	619708416	49	4656
2026-01-03 23:47:13.73	39.12	77.90	-41.9	-45.7	12.6	9.10e-06	0	57	0	628097024	54	5891
2026-01-03 23:47:17.76	43.48	79.74	-41.3	-44.5	13.6	6.86e-05	0	57	0	635437056	54	5132
2026-01-03 23:47:21.81	49.76	81.52	-40.5	-43.2	15.0	0.00e+00	0	57	0	642777088	52	4949
2026-01-03 23:47:25.84	59.19	83.15	-39.1	-41.2	17.1	0.00e+00	0	57	0	650117120	49	4658
2026-01-03 23:47:29.89	73.96	84.50	-37.9	-39.6	18.4	0.00e+00	0	57	0	657457152	47	4386
2026-01-03 23:47:33.93	95.76	85.30	-39.7	-42.0	16.1	0.00e+00	0	57	0	665845760	50	4853
2026-01-03 23:47:37.97	121.20	85.25	-39.0	-41.1	17.1	0.00e+00	0	57	0	673185792	48	4906
2026-01-03 23:47:42.01	142.21	84.37	-39.7	-42.1	16.1	0.00e+00	0	57	0	680525824	50	4906
2026-01-03 23:47:46.05	156.22	82.97	-40.4	-43.1	15.2	0.00e+00	0	57	0	687865856	51	5181
2026-01-03 23:47:50.08	165.20	81.32	-41.4	-44.8	13.3	1.14e-04	0	57	0	696254464	54	5301
2026-01-03 23:47:54.13	171.22	79.53	-41.2	-44.4	13.7	6.10e-06	0	57	0	703594496	53	5397
2026-01-03 23:47:58.17	175.42	77.68	-40.7	-43.6	14.5	3.00e-06	0	57	0	710934528	53	4888
2026-01-03 23:48:02.20	178.49	75.81	-41.0	-44.1	14.4	0.00e+00	0	57	0	718274560	52	5490
2026-01-03 23:48:06.24	180.84	73.93	-41.9	-45.7	12.2	2.62e-03	0	57	0	725614592	55	5577
2026-01-03 23:48:10.28	182.68	72.06	-42.7	-47.3	10.8	5.96e-03	0	57	0	734003200	57	5981
2026-01-03 23:48:14.32	184.16	70.21	-43.3	-49.0	9.2	3.07e-02	0	57	0	741343232	57	7279
2026-01-03 23:48:18.36	185.37	68.38	-41.5	-45.0	13.0	9.90e-06	0	57	0	748683264	53	5773
2026-01-03 23:48:22.39	186.38	66.59	-41.1	-44.3	13.8	4.34e-05	0	57	0	756023296	54	5033
2026-01-03 23:48:26.43	187.24	64.83	-39.8	-42.2	16.1	0.00e+00	0	57	0	764411904	51	4663
2026-01-03 23:48:30.47	187.98	63.10	-40.8	-43.7	14.4	6.10e-06	0	57	0	771751936	53	4967
2026-01-03 23:48:34.51	188.62	61.41	-40.4	-43.0	15.3	0.00e+00	0	57	0	779091968	51	5156
2026-01-03 23:48:38.55	189.19	59.76	-40.7	-43.7	14.5	5.18e-05	0	57	0	786432000	53	4928
2026-01-03 23:48:42.59	189.68	58.15	-39.5	-41.7	16.5	0.00e+00	0	57	0	793772032	50	4688
2026-01-03 23:48:46.62	190.13	56.58	-37.9	-39.7	18.4	0.00e+00	0	57	0	802160640	47	4396
2026-01-03 23:48:50.66	190.52	55.05	-39.2	-41.3	17.0	0.00e+00	0	57	0	809500672	50	4445
2026-01-03 23:48:54.70	190.88	53.57	-40.8	-43.7	14.3	2.05e-05	0	57	0	816840704	53	4970
2026-01-03 23:48:58.74	191.21	52.12	-41.6	-45.1	13.1	1.52e-05	0	57	0	824180736	53	5839
2026-01-03 23:49:02.77	191.51	50.72	-41.4	-44.8	13.3	4.57e-05	0	57	0	832569344	54	5301
2026-01-03 23:49:06.81	191.78	49.36	-40.4	-43.0	15.2	0.00e+00	0	57	0	839909376	51	5146
2026-01-03 23:49:10.85	192.03	48.03	-42.4	-46.7	11.3	2.81e-02	0	57	0	847249408	56	5905
2026-01-03 23:49:14.88	192.26	46.75	-39.5	-41.7	16.5	0.00e+00	0	57	0	854589440	50	4675
2026-01-03 23:49:18.92	192.48	45.50	-41.5	-45.1	12.9	3.35e-05	0	57	0	861929472	53	5804
2026-01-03 23:49:22.96	192.68	44.29	-39.5	-41.7	16.4	0.00e+00	0	57	0	870318080	51	4415
2026-01-03 23:49:27.00	192.86	43.12	-38.4	-40.2	17.7	0.00e+00	0	57	0	877658112	47	4704
2026-01-03 23:49:31.03	193.04	41.98	-41.7	-45.4	12.8	1.98e-05	0	57	0	884998144	53	5997
2026-01-03 23:49:35.07	193.20	40.88	-39.3	-41.4	16.7	0.00e+00	0	57	0	892338176	50	4515
2026-01-03 23:49:39.11	193.35	39.80	-40.2	-42.7	15.5	0.00e+00	0	57	0	900726784	51	4930
2026-01-03 23:49:43.16	193.50	38.76	-43.5	-49.8	8.3	2.11e-02	0	57	0	908066816	57	7982
2026-01-03 23:49:47.19	193.63	37.75	-43.7	-50.3	7.8	2.25e-01	0	57	0	915406848	58	7975
2026-01-03 23:49:51.23	193.76	36.77	-40.3	-42.9	15.1	0.00e+00	0	57	0	922746880	52	4808
2026-01-03 23:49:55.27	193.89	35.82	-41.5	-44.9	13.1	4.27e-05	0	57	0	930086912	53	5700
2026-01-03 23:49:59.31	194.00	34.89	-44.1	-52.2	6.1	2.06e-01	0	57	0	938475520	58	9856
2026-01-03 23:50:03.35	194.11	34.00	-43.9	-51.2	6.9	2.12e-01	0	57	0	945815552	59	8333
2026-01-03 23:50:07.39	194.22	33.12	-43.3	-49.0	9.0	2.20e-02	0	57	0	953155584	58	6813
2026-01-03 23:50:11.42	194.32	32.27	-42.0	-45.8	12.2	4.68e-04	0	58	0	960495616	56	5338
2026-01-03 23:50:15.46	194.42	31.45	-41.3	-44.6	13.4	2.05e-05	0	57	0	968884224	54	5179
2026-01-03 23:50:19.50	194.51	30.65	-40.6	-43.5	14.5	1.50e-06	0	57	0	976224256	53	4815
2026-01-03 23:50:23.54	194.60	29.86	-41.5	-45.0	13.0	5.87e-05	0	57	0	983564288	53	5735
2026-01-03 23:50:27.57	194.68	29.11	-42.8	-47.8	10.2	6.00e-03	0	58	0	990904320	56	6702
2026-01-03 23:50:31.61	194.77	28.37	-41.5	-44.9	13.0	9.76e-05	0	57	0	998244352	54	5394
2026-01-03 23:50:35.65	194.85	27.64	-40.1	-42.6	15.4	0.00e+00	0	57	0	1006632960	52	4621
2026-01-03 23:50:39.68	194.92	26.94	-40.0	-42.5	15.6	0.00e+00	0	57	0	1013972992	51	4844
2026-01-03 23:50:43.73	194.99	26.26	-40.3	-43.0	15.0	0.00e+00	0	57	0	1021313024	51	5137
2026-01-03 23:50:47.77	195.06	25.59	-40.2	-42.8	15.3	0.00e+00	0	57	0	1028653056	51	4987
2026-01-03 23:50:51.80	195.13	24.94	-40.0	-42.6	15.5	0.00e+00	0	57	0	1035993088	51	4886
2026-01-03 23:50:55.84	195.20	24.30	-39.9	-42.4	15.6	0.00e+00	0	57	0	1044381696	51	4796
2026-01-03 23:50:59.88	195.26	23.68	-39.5	-41.7	16.3	0.00e+00	0	57	0	1051721728	50	4693
2026-01-03 23:51:03.92	195.33	23.07	-39.6	-41.9	16.1	0.00e+00	0	57	0	1059061760	50	4782
2026-01-03 23:51:07.96	195.39	22.48	-39.4	-41.6	16.4	0.00e+00	0	58	0	1066401792	50	4627
2026-01-03 23:51:12.00	195.44	21.90	-38.7	-40.7	17.3	0.00e+00	0	58	0	1074790400	49	4414
2026-01-03 23:51:16.04	195.50	21.33	-38.7	-40.8	17.2	0.00e+00	0	57	0	1082130432	48	4706
2026-01-03 23:51:20.08	195.56	20.78	-39.4	-41.6	16.4	0.00e+00	0	58	0	1089470464	49	4919
2026-01-03 23:51:24.12	195.61	20.24	-40.0	-42.6	15.5	0.00e+00	0	58	0	1096810496	50	5175
2026-01-03 23:51:28.16	195.66	19.71	-40.3	-43.1	14.9	0.00e+00	0	57	0	1105199104	51	5172
2026-01-03 23:51:32.20	195.71	19.19	-40.5	-43.3	14.7	0.00e+00	0	57	0	1112539136	51	5297
2026-01-03 23:51:36.23	195.76	18.68	-40.5	-43.4	14.5	0.00e+00	0	57	0	1119879168	52	5094
2026-01-03 23:51:40.27	195.81	18.18	-40.5	-43.3	14.5	7.00e-07	0	57	0	1127219200	52	5036
2026-01-03 23:51:44.31	195.86	17.69	-40.6	-43.6	14.3	0.00e+00	0	57	0	1134559232	52	5195
2026-01-03 23:51:48.35	195.90	17.21	-40.4	-43.2	14.6	7.00e-07	0	57	0	1142947840	52	4980
2026-01-03 23:51:52.39	195.95	16.74	-40.2	-42.9	15.0	0.00e+00	0	57	0	1150287872	51	5053
2026-01-03 23:51:56.42	195.99	16.28	-40.2	-42.9	15.0	0.00e+00	0	57	0	1157627904	51	5083
2026-01-03 23:52:00.46	196.03	15.83	-40.6	-43.4	14.4	7.00e-07	0	57	0	1164967936	51	5392
2026-01-03 23:52:04.50	196.08	15.39	-40.6	-43.6	14.1	0.00e+00	0	57	0	1172307968	52	5211
2026-01-03 23:52:08.54	196.12	14.95	-40.8	-43.9	13.9	3.00e-06	0	57	0	1180696576	52	5383
2026-01-03 23:52:12.58	196.16	14.52	-41.1	-44.4	13.3	1.22e-05	0	57	0	1188036608	52	5704
2026-01-03 23:52:16.62	196.20	14.10	-40.8	-44.0	13.7	6.10e-06	0	58	0	1195376640	52	5444
2026-01-03 23:52:20.66	196.24	13.69	-40.6	-43.7	14.0	3.00e-06	0	57	0	1202716672	52	5262
2026-01-03 23:52:24.69	196.27	13.28	-40.4	-43.4	14.3	0.00e+00	0	57	0	1211105280	52	5052
2026-01-03 23:52:28.74	196.31	12.88	-40.3	-43.2	14.4	0.00e+00	0	58	0	1218445312	52	4945
2026-01-03 23:52:32.77	196.35	12.49	-40.2	-43.1	14.5	0.00e+00	0	57	0	1225785344	52	4887
2026-01-03 23:52:36.81	196.38	12.10	-40.1	-42.9	14.7	0.00e+00	0	57	0	1233125376	52	4767
2026-01-03 23:52:40.85	196.42	11.72	-40.1	-43.0	14.6	0.00e+00	0	57	0	1240465408	52	4831
2026-01-03 23:52:44.88	196.45	11.34	-40.2	-43.1	14.4	0.00e+00	0	57	0	1248854016	52	4895
2026-01-03 23:52:48.92	196.49	10.97	-40.1	-42.9	14.6	7.00e-07	0	57	0	1256194048	52	4797
2026-01-03 23:52:52.96	196.52	10.61	-40.1	-43.1	14.4	0.00e+00	0	57	0	1263534080	52	4881
2026-01-03 23:52:57.00	196.55	10.25	-40.3	-43.4	14.0	7.00e-07	0	57	0	1270874112	52	5078
2026-01-03 23:53:01.03	196.59	9.90	-40.4	-43.5	13.9	7.00e-07	0	57	0	1279262720	52	5122
2026-01-03 23:53:05.07	196.62	9.55	-40.3	-43.3	14.1	2.20e-06	0	58	0	1286602752	52	5012
2026-01-03 23:53:09.11	196.65	9.21	-40.3	-43.3	14.0	2.20e-06	0	57	0	1293942784	52	5032
2026-01-03 23:53:13.15	196.68	8.87	-40.3	-43.4	13.9	4.50e-06	0	57	0	1301282816	52	5070
2026-01-03 23:53:17.19	196.71	8.53	-40.4	-43.7	13.5	1.29e-05	0	57	0	1308622848	52	5246
2026-01-03 23:53:21.23	196.74	8.20	-40.2	-43.4	13.8	1.29e-05	0	57	0	1317011456	52	5048
2026-01-03 23:53:25.27	196.77	7.87	-44.6	-59.1	3.8	1.49e+00	0	58	104	1321205760	59	20676
2026-01-03 23:53:29.31	196.80	7.55	-45.0	-59.7	3.8	1.49e+00	0	57	104	1321205760	60	21007
2026-01-03 23:53:33.35	196.83	7.24	-45.0	-59.8	3.8	1.49e+00	0	58	104	1321205760	60	21086
2026-01-03 23:53:37.39	196.86	6.92	-44.9	-59.8	3.8	1.49e+00	0	58	104	1321205760	60	21109
2026-01-03 23:53:41.44	196.89	6.61	-44.9	-59.7	3.8	1.49e+00	0	58	104	1321205760	60	20958
2026-01-03 23:53:45.48	196.91	6.30	-44.9	-59.7	3.8	1.49e+00	0	58	104	1321205760	60	20850
2026-01-03 23:53:49.53	196.94	6.00	-44.9	-59.7	3.8	1.49e+00	0	58	104	1321205760	60	20892
2026-01-03 23:53:53.57	196.97	5.70	-44.9	-59.7	3.8	1.49e+00	0	58	104	1321205760	60	20848
2026-01-03 23:53:57.61	196.99	5.40	-44.9	-59.7	3.8	1.49e+00	0	58	104	1321205760	60	20867
2026-01-03 23:54:01.66	197.02	5.11	-44.9	-59.7	3.8	1.49e+00	0	58	104	1321205760	60	20912
2026-01-03 23:54:05.70	197.05	4.82	-44.8	-59.7	3.8	1.49e+00	0	58	104	1321205760	60	20863
2026-01-03 23:54:09.75	197.07	4.53	-44.8	-59.7	3.8	1.49e+00	0	58	104	1321205760	60	20812
2026-01-03 23:54:13.79	197.10	4.25	-44.8	-59.6	3.8	1.49e+00	0	58	104	1321205760	60	20774
2026-01-03 23:54:17.83	197.12	3.97	-44.8	-59.6	3.8	1.49e+00	0	58	104	1321205760	60	20739
2026-01-03 23:54:21.88	197.15	3.69	-44.8	-59.7	3.8	1.49e+00	0	58	104	1321205760	60	20811
2026-01-03 23:54:25.92	197.17	3.42	-44.8	-59.6	3.8	1.49e+00	0	58	104	1321205760	60	20773
2026-01-03 23:54:29.97	197.20	3.15	-44.8	-59.6	3.8	1.49e+00	0	58	104	1321205760	60	20722
2026-01-03 23:54:34.01	197.22	2.88	-44.8	-59.6	3.8	1.49e+00	0	58	104	1321205760	60	20762
2026-01-03 23:54:38.05	197.24	2.61	-44.8	-59.6	3.8	1.49e+00	0	58	104	1321205760	60	20722
2026-01-03 23:54:42.10	197.27	2.35	-44.8	-59.6	3.8	1.49e+00	0	58	104	1321205760	60	20719
2026-01-03 23:54:46.14	197.29	2.08	-44.8	-59.7	3.8	1.49e+00	0	58	104	1321205760	60	20780

#Closed at: 2026-01-03 23:54:48
#Recorded file [1321 MB]: D:/lorett/data/31039_260104_024021.dat