passes_logs/2026/01/03/R2.0S_Moscow/R2.0S_Moscow__20260103_141808_FENGYUN_3E_rec.log

#Pass ID: 20260103_141808_FENGYUN 3E
#Satellite: FENGYUN 3E
#Configuration: FENGYUN 3E
#almurnet v.1.7.20251203
#Start time: 2026-01-03 14:18:09

#Version: 2.2.20231116
#Station: R2.0S_Moscow
#Location: 37.707566 lon 55.798166 lat
#TLE: 1 49008U 21062A   26002.95568549 -.00000227  00000+0 -86494-4 0  9990
#TLE: 2 49008  98.7475   8.2258 0001442 163.3458 196.7766 14.19882681233131

#Time	Az	El	Level	Level2	SNR	BER	BlckErr	Temp	State	Recorded	gain1	gain2
2026-01-03 14:18:09.66	163.61	2.08	-44.4	-55.3	3.8	8.47e-01	0	47	0	0	58	13412
2026-01-03 14:18:13.70	163.64	2.34	-44.4	-55.3	3.8	8.46e-01	0	48	104	0	58	13374
2026-01-03 14:18:17.74	163.67	2.60	-44.4	-55.3	3.8	8.46e-01	0	48	104	0	58	13393
2026-01-03 14:18:21.78	163.70	2.87	-44.4	-55.3	3.8	8.47e-01	0	48	104	0	58	13386
2026-01-03 14:18:25.83	163.73	3.14	-44.4	-55.3	3.8	8.45e-01	0	49	104	0	58	13377
2026-01-03 14:18:29.87	163.76	3.41	-44.4	-55.3	3.8	8.46e-01	0	49	104	0	58	13378
2026-01-03 14:18:33.91	163.79	3.69	-44.4	-55.3	3.8	8.47e-01	0	49	104	0	58	13343
2026-01-03 14:18:37.96	163.82	3.96	-44.4	-55.3	3.8	8.45e-01	0	50	104	0	58	13287
2026-01-03 14:18:42.00	163.85	4.24	-44.4	-55.2	3.8	8.46e-01	0	50	104	0	58	13171
2026-01-03 14:18:46.05	163.88	4.53	-44.3	-55.0	3.8	8.46e-01	0	50	104	0	58	12857
2026-01-03 14:18:50.09	163.92	4.81	-44.3	-54.8	3.8	8.45e-01	0	50	104	0	58	12609
2026-01-03 14:18:54.13	163.95	5.10	-44.2	-54.1	3.8	8.46e-01	0	50	104	0	58	11670
2026-01-03 14:18:58.18	163.98	5.40	-44.1	-53.7	3.9	8.47e-01	0	51	104	0	57	11729
2026-01-03 14:19:02.22	164.01	5.69	-44.1	-53.2	3.8	8.46e-01	0	51	104	0	57	11140
2026-01-03 14:19:06.26	164.05	5.99	-44.3	-54.5	3.8	8.47e-01	0	51	104	0	58	12175
2026-01-03 14:19:10.31	164.08	6.29	-44.3	-55.2	3.8	8.47e-01	0	52	104	0	58	13136
2026-01-03 14:19:14.35	164.12	6.60	-44.3	-54.9	3.8	8.46e-01	0	52	104	0	58	12710
2026-01-03 14:19:18.40	164.15	6.91	-43.7	-51.5	4.2	8.39e-01	0	52	0	0	58	8627
2026-01-03 14:19:22.44	164.19	7.22	-41.8	-46.3	7.5	1.37e-01	0	52	0	12582912	54	5958
2026-01-03 14:19:26.48	164.22	7.54	-39.6	-42.6	11.3	1.42e-03	0	52	0	41943040	50	4902
2026-01-03 14:19:30.53	164.26	7.86	-37.4	-39.8	13.9	1.02e-05	0	52	0	71303168	45	4706
2026-01-03 14:19:34.57	164.30	8.19	-41.8	-46.1	7.9	3.84e-02	0	52	0	100663296	53	6147
2026-01-03 14:19:38.61	164.34	8.52	-36.8	-39.0	14.7	0.00e+00	0	53	0	128974848	44	4551
2026-01-03 14:19:42.65	164.38	8.86	-36.3	-38.4	15.1	0.00e+00	0	53	0	158334976	43	4540
2026-01-03 14:19:46.68	164.42	9.19	-36.3	-38.4	15.1	0.00e+00	0	53	0	187695104	42	4811
2026-01-03 14:19:50.73	164.46	9.54	-36.1	-38.2	15.4	0.00e+00	0	53	0	217055232	42	4655
2026-01-03 14:19:54.77	164.50	9.89	-35.9	-38.0	15.7	0.00e+00	0	53	0	246415360	42	4559
2026-01-03 14:19:58.81	164.54	10.24	-35.9	-37.9	15.7	0.00e+00	0	53	0	274726912	42	4531
2026-01-03 14:20:02.84	164.58	10.60	-36.0	-38.0	15.7	0.00e+00	0	53	0	304087040	42	4593
2026-01-03 14:20:06.88	164.62	10.96	-36.0	-38.0	15.7	0.00e+00	0	53	0	333447168	42	4586
2026-01-03 14:20:10.93	164.67	11.33	-36.3	-38.4	15.3	0.00e+00	0	54	0	362807296	42	4799
2026-01-03 14:20:14.97	164.71	11.71	-36.1	-38.2	15.6	0.00e+00	0	54	0	392167424	42	4655
2026-01-03 14:20:19.01	164.76	12.09	-35.8	-37.9	15.9	0.00e+00	0	54	0	420478976	42	4505
2026-01-03 14:20:23.04	164.80	12.47	-35.5	-37.5	16.3	0.00e+00	0	54	0	449839104	41	4555
2026-01-03 14:20:27.08	164.85	12.87	-35.3	-37.2	16.6	0.00e+00	0	54	0	479199232	41	4427
2026-01-03 14:20:31.12	164.90	13.27	-35.1	-37.0	16.8	0.00e+00	0	54	0	508559360	41	4340
2026-01-03 14:20:35.16	164.95	13.67	-35.0	-36.9	16.9	0.00e+00	0	54	0	537919488	41	4281
2026-01-03 14:20:39.20	165.00	14.09	-35.0	-36.8	17.1	0.00e+00	0	54	0	567279616	40	4478
2026-01-03 14:20:43.24	165.05	14.51	-35.0	-36.8	17.0	0.00e+00	0	55	0	595591168	40	4488
2026-01-03 14:20:47.28	165.10	14.93	-34.8	-36.6	17.3	0.00e+00	0	54	0	624951296	40	4349
2026-01-03 14:20:51.32	165.16	15.37	-34.9	-36.7	17.2	0.00e+00	0	55	0	654311424	40	4426
2026-01-03 14:20:55.36	165.21	15.81	-34.8	-36.6	17.3	0.00e+00	0	55	0	683671552	40	4372
2026-01-03 14:20:59.41	165.27	16.27	-34.7	-36.5	17.4	0.00e+00	0	55	0	713031680	40	4332
2026-01-03 14:21:03.45	165.33	16.73	-34.7	-36.5	17.4	0.00e+00	0	55	0	741343232	40	4313
2026-01-03 14:21:07.49	165.39	17.20	-34.5	-36.3	17.6	0.00e+00	0	55	0	770703360	40	4214
2026-01-03 14:21:11.54	165.45	17.67	-34.7	-36.5	17.5	0.00e+00	0	55	0	800063488	39	4554
2026-01-03 14:21:15.58	165.51	18.16	-34.6	-36.4	17.6	0.00e+00	0	55	0	829423616	39	4525
2026-01-03 14:21:19.62	165.57	18.66	-34.5	-36.3	17.7	0.00e+00	0	55	0	858783744	39	4462
2026-01-03 14:21:23.65	165.64	19.17	-34.3	-36.0	17.9	0.00e+00	0	55	0	888143872	39	4339
2026-01-03 14:21:27.69	165.71	19.68	-34.2	-35.9	18.1	0.00e+00	0	55	0	916455424	39	4250
2026-01-03 14:21:31.73	165.78	20.21	-34.0	-35.7	18.2	0.00e+00	0	55	0	945815552	38	4414
2026-01-03 14:21:35.78	165.85	20.76	-33.8	-35.4	18.5	0.00e+00	0	55	0	975175680	38	4278
2026-01-03 14:21:39.82	165.92	21.31	-33.7	-35.4	18.5	0.00e+00	0	55	0	1004535808	38	4268
2026-01-03 14:21:43.86	166.00	21.87	-33.6	-35.3	18.6	0.00e+00	0	55	0	1033895936	38	4197
2026-01-03 14:21:47.90	166.08	22.45	-33.7	-35.4	18.5	0.00e+00	0	55	0	1062207488	38	4263
2026-01-03 14:21:51.94	166.16	23.04	-33.6	-35.3	18.5	0.00e+00	0	55	0	1091567616	37	4466
2026-01-03 14:21:55.98	166.24	23.65	-33.6	-35.3	18.5	0.00e+00	0	56	0	1120927744	37	4479
2026-01-03 14:22:00.03	166.33	24.27	-33.5	-35.3	18.5	0.00e+00	0	56	0	1150287872	37	4449
2026-01-03 14:22:04.06	166.42	24.90	-33.6	-35.4	18.3	0.00e+00	0	56	0	1179648000	37	4541
2026-01-03 14:22:08.10	166.51	25.55	-33.5	-35.3	18.4	0.00e+00	0	56	0	1209008128	37	4474
2026-01-03 14:22:12.14	166.61	26.22	-33.4	-35.1	18.6	0.00e+00	0	56	0	1237319680	37	4381
2026-01-03 14:22:16.19	166.71	26.90	-33.1	-34.8	19.0	0.00e+00	0	56	0	1266679808	37	4236
2026-01-03 14:22:20.23	166.81	27.61	-33.2	-34.9	19.0	0.00e+00	0	56	0	1296039936	37	4250
2026-01-03 14:22:24.26	166.92	28.32	-33.1	-34.8	19.1	0.00e+00	0	56	0	1325400064	37	4208
2026-01-03 14:22:28.30	167.03	29.06	-33.2	-34.8	19.1	0.00e+00	0	56	0	1354760192	37	4214
2026-01-03 14:22:32.34	167.15	29.82	-33.3	-35.0	19.0	0.00e+00	0	56	0	1383071744	37	4297
2026-01-03 14:22:36.38	167.27	30.60	-33.3	-35.0	18.9	0.00e+00	0	56	0	1412431872	37	4320
2026-01-03 14:22:40.42	167.40	31.40	-33.2	-34.9	19.1	0.00e+00	0	56	0	1441792000	37	4254
2026-01-03 14:22:44.46	167.53	32.22	-32.9	-34.5	19.3	0.00e+00	0	56	0	1471152128	36	4337
2026-01-03 14:22:48.50	167.67	33.06	-32.8	-34.5	19.3	0.00e+00	0	56	0	1500512256	36	4320
2026-01-03 14:22:52.54	167.81	33.93	-33.0	-34.8	19.0	0.00e+00	0	56	0	1529872384	36	4444
2026-01-03 14:22:56.58	167.97	34.83	-33.1	-35.0	18.8	0.00e+00	0	56	0	1558183936	36	4571
2026-01-03 14:23:00.63	168.13	35.75	-32.9	-34.7	19.2	0.00e+00	0	56	0	1587544064	36	4404
2026-01-03 14:23:04.66	168.30	36.70	-32.9	-34.6	19.4	0.00e+00	0	56	0	1616904192	36	4349
2026-01-03 14:23:08.71	168.48	37.68	-33.2	-34.8	19.2	0.00e+00	0	56	0	1646264320	36	4488
2026-01-03 14:23:12.75	168.67	38.68	-33.4	-35.1	18.9	0.00e+00	0	56	0	1675624448	36	4642
2026-01-03 14:23:16.79	168.87	39.71	-33.4	-35.1	18.9	0.00e+00	0	56	0	1703936000	36	4632
2026-01-03 14:23:20.82	169.09	40.78	-33.4	-35.1	18.9	0.00e+00	0	56	0	1733296128	36	4623
2026-01-03 14:23:24.87	169.32	41.88	-33.5	-35.1	18.9	0.00e+00	0	56	0	1762656256	36	4625
2026-01-03 14:23:28.91	169.56	43.01	-33.6	-35.2	18.9	0.00e+00	0	56	0	1792016384	36	4705
2026-01-03 14:23:32.95	169.82	44.18	-33.3	-34.9	19.4	0.00e+00	0	56	0	1821376512	36	4512
2026-01-03 14:23:36.99	170.10	45.38	-34.5	-35.6	19.2	0.00e+00	0	56	0	1850736640	38	4347
2026-01-03 14:23:41.03	170.40	46.61	-34.8	-35.9	18.9	0.00e+00	0	56	0	1879048192	39	4269
2026-01-03 14:23:45.07	170.73	47.89	-34.9	-36.0	18.8	0.00e+00	0	56	0	1908408320	39	4330
2026-01-03 14:23:49.11	171.08	49.20	-35.2	-36.4	18.4	0.00e+00	0	56	0	1937768448	40	4246
2026-01-03 14:23:53.15	171.47	50.55	-35.0	-36.2	18.7	0.00e+00	0	57	0	1967128576	40	4153
2026-01-03 14:23:57.20	171.89	51.95	-35.3	-36.4	18.4	0.00e+00	0	57	0	1996488704	40	4289
2026-01-03 14:24:01.24	172.34	53.37	-35.4	-36.6	18.2	0.00e+00	0	57	0	2024800256	40	4366
2026-01-03 14:24:05.28	172.85	54.84	-35.5	-36.7	18.1	1.10e-06	0	57	0	2054160384	41	4155
2026-01-03 14:24:09.32	173.41	56.35	-35.8	-37.0	17.8	0.00e+00	0	57	0	2083520512	41	4307
2026-01-03 14:24:13.36	174.03	57.90	-35.2	-36.3	18.4	0.00e+00	0	57	0	2112880640	41	3982
2026-01-03 14:24:17.40	174.73	59.49	-35.6	-36.8	18.0	0.00e+00	0	57	0	2142240768	40	4461
2026-01-03 14:24:21.44	175.52	61.11	-35.1	-36.3	18.6	0.00e+00	0	57	0	2171600896	40	4196
2026-01-03 14:24:25.48	176.42	62.77	-34.6	-35.7	19.2	0.00e+00	0	57	0	2199912448	39	4160
2026-01-03 14:24:29.52	177.44	64.46	-34.1	-35.1	19.7	0.00e+00	0	57	0	2229272576	39	3892
2026-01-03 14:24:33.56	178.64	66.19	-33.6	-34.6	20.1	0.00e+00	0	57	0	2258632704	38	3899
2026-01-03 14:24:37.60	180.04	67.94	-33.7	-34.7	20.1	0.00e+00	0	57	0	2287992832	37	4181
2026-01-03 14:24:41.64	181.70	69.71	-33.8	-34.8	19.9	0.00e+00	0	57	0	2317352960	37	4217
2026-01-03 14:24:45.68	183.70	71.50	-33.9	-35.0	19.7	0.00e+00	0	57	0	2346713088	37	4306
2026-01-03 14:24:49.72	186.16	73.29	-34.1	-35.1	19.7	0.00e+00	0	57	0	2375024640	39	3897
2026-01-03 14:24:53.76	189.23	75.07	-33.4	-34.4	20.3	0.00e+00	0	57	0	2404384768	37	4012
2026-01-03 14:24:57.80	193.17	76.82	-32.0	-33.0	20.9	0.00e+00	0	57	0	2433744896	34	4075
2026-01-03 14:25:01.84	198.31	78.52	-31.5	-32.4	21.4	0.00e+00	0	57	0	2463105024	33	4027
2026-01-03 14:25:05.89	205.24	80.11	-31.6	-32.6	21.3	0.00e+00	0	57	0	2492465152	33	4102
2026-01-03 14:25:09.93	214.65	81.52	-31.6	-32.5	21.3	0.00e+00	0	57	0	2520776704	33	4084
2026-01-03 14:25:13.97	227.34	82.62	-32.0	-33.0	20.9	0.00e+00	0	57	0	2550136832	33	4297
2026-01-03 14:25:18.01	243.43	83.26	-31.6	-32.6	21.2	0.00e+00	0	57	0	2579496960	33	4099
2026-01-03 14:25:22.06	261.25	83.30	-31.7	-32.6	21.2	0.00e+00	0	57	0	2608857088	33	4143
2026-01-03 14:25:26.10	277.67	82.72	-31.8	-32.8	21.1	0.00e+00	0	57	0	2638217216	33	4218
2026-01-03 14:25:30.14	290.77	81.66	-31.3	-32.2	21.6	0.00e+00	0	57	0	2667577344	33	3945
2026-01-03 14:25:34.18	300.52	80.29	-31.5	-32.5	21.3	0.00e+00	0	57	0	2695888896	33	4068
2026-01-03 14:25:38.22	307.67	78.72	-31.4	-32.3	21.5	0.00e+00	0	57	0	2725249024	33	3980
2026-01-03 14:25:42.26	313.00	77.03	-32.1	-33.1	20.7	5.70e-06	0	57	0	2754609152	33	4346
2026-01-03 14:25:46.30	317.05	75.29	-32.8	-33.8	20.1	0.00e+00	0	57	0	2783969280	35	4232
2026-01-03 14:25:50.34	320.21	73.51	-32.7	-33.6	20.2	0.00e+00	0	57	0	2813329408	35	4145
2026-01-03 14:25:54.38	322.73	71.72	-33.9	-35.1	16.1	1.77e-03	0	57	0	2841640960	37	4367
2026-01-03 14:25:58.42	324.78	69.94	-34.4	-35.5	19.4	4.34e-04	0	57	0	2871001088	38	4294
2026-01-03 14:26:02.46	326.48	68.17	-33.8	-34.9	19.7	5.26e-05	0	57	0	2900361216	38	4009
2026-01-03 14:26:06.50	327.91	66.42	-33.7	-34.7	20.1	1.22e-04	0	57	0	2929721344	38	3933
2026-01-03 14:26:10.55	329.13	64.69	-33.9	-35.0	19.8	5.14e-05	0	57	0	2959081472	37	4301
2026-01-03 14:26:14.58	330.17	63.01	-34.3	-35.3	19.5	2.28e-05	0	57	0	2988441600	38	4222
2026-01-03 14:26:18.62	331.08	61.35	-35.1	-36.2	18.6	3.08e-05	0	57	0	3016753152	39	4441
2026-01-03 14:26:22.66	331.88	59.72	-35.0	-36.2	18.7	1.60e-05	0	57	0	3046113280	39	4393
2026-01-03 14:26:26.70	332.59	58.14	-35.2	-36.3	17.6	4.50e-06	0	57	0	3075473408	40	4232
2026-01-03 14:26:30.74	333.22	56.59	-35.4	-36.6	18.2	3.54e-05	0	57	0	3104833536	40	4365
2026-01-03 14:26:34.78	333.79	55.08	-34.8	-35.9	19.0	4.50e-06	0	57	0	3134193664	40	4013
2026-01-03 14:26:38.81	334.30	53.61	-35.2	-36.3	18.5	0.00e+00	0	57	0	3162505216	40	4237
2026-01-03 14:26:42.85	334.77	52.18	-35.2	-36.3	18.6	0.00e+00	0	57	0	3191865344	40	4206
2026-01-03 14:26:46.89	335.19	50.79	-34.9	-36.0	18.9	0.00e+00	0	57	0	3221225472	40	4069
2026-01-03 14:26:50.93	335.58	49.44	-35.1	-36.2	18.7	0.00e+00	0	57	0	3250585600	40	4191
2026-01-03 14:26:54.97	335.94	48.13	-34.5	-35.5	19.2	0.00e+00	0	57	0	3279945728	39	4097
2026-01-03 14:26:59.01	336.27	46.86	-34.0	-35.1	19.9	0.00e+00	0	57	0	3309305856	38	4106
2026-01-03 14:27:03.05	336.57	45.62	-34.2	-35.2	19.7	0.00e+00	0	57	0	3337617408	38	4169
2026-01-03 14:27:07.10	336.86	44.41	-33.7	-34.7	20.2	0.00e+00	0	57	0	3366977536	38	3926
2026-01-03 14:27:11.14	337.12	43.25	-33.8	-34.8	20.1	0.00e+00	0	57	0	3396337664	38	3978
2026-01-03 14:27:15.18	337.37	42.12	-34.0	-35.0	19.9	0.00e+00	0	57	0	3425697792	38	4076
2026-01-03 14:27:19.23	337.60	41.02	-34.0	-35.0	19.9	0.00e+00	0	57	0	3455057920	38	4061
2026-01-03 14:27:23.27	337.82	39.95	-34.0	-35.1	19.8	0.00e+00	0	57	0	3483369472	38	4114
2026-01-03 14:27:27.30	338.02	38.92	-34.2	-35.3	19.6	0.00e+00	0	57	0	3512729600	38	4224
2026-01-03 14:27:31.35	338.22	37.91	-34.1	-35.1	19.8	0.00e+00	0	57	0	3542089728	38	4143
2026-01-03 14:27:35.39	338.40	36.93	-33.7	-34.7	19.9	0.00e+00	0	57	0	3571449856	38	3943
2026-01-03 14:27:39.42	338.57	35.99	-33.2	-34.2	20.7	0.00e+00	0	57	0	3600809984	37	3918
2026-01-03 14:27:43.46	338.74	35.07	-33.1	-34.1	20.7	0.00e+00	0	57	0	3630170112	37	3870
2026-01-03 14:27:47.50	338.89	34.17	-33.3	-34.3	20.4	0.00e+00	0	57	0	3658481664	37	3979
2026-01-03 14:27:51.54	339.04	33.30	-33.4	-34.4	20.3	0.00e+00	0	57	0	3687841792	37	4037
2026-01-03 14:27:55.57	339.19	32.46	-33.4	-34.3	20.4	0.00e+00	0	57	0	3717201920	37	3995
2026-01-03 14:27:59.61	339.32	31.64	-33.4	-34.4	20.4	0.00e+00	0	57	0	3745513472	37	4010
2026-01-03 14:28:03.65	339.45	30.84	-33.5	-34.5	20.3	0.00e+00	0	57	0	3774873600	37	4080
2026-01-03 14:28:07.69	339.58	30.06	-33.8	-34.8	19.9	0.00e+00	0	57	0	3804233728	37	4239
2026-01-03 14:28:11.74	339.70	29.30	-34.1	-35.1	19.6	0.00e+00	0	57	0	3833593856	37	4374
2026-01-03 14:28:15.78	339.81	28.56	-34.2	-35.3	19.4	0.00e+00	0	57	0	3862953984	37	4461
2026-01-03 14:28:19.82	339.92	27.84	-34.1	-35.2	19.6	0.00e+00	0	57	0	3892314112	38	4157
2026-01-03 14:28:23.86	340.03	27.14	-34.2	-35.2	19.4	0.00e+00	0	57	0	3920625664	38	4192
2026-01-03 14:28:27.90	340.13	26.46	-34.5	-35.6	19.1	0.00e+00	0	57	0	3949985792	38	4350
2026-01-03 14:28:31.94	340.23	25.79	-34.4	-35.4	19.2	0.00e+00	0	57	0	3979345920	38	4277
2026-01-03 14:28:35.98	340.33	25.14	-34.2	-35.3	19.3	0.00e+00	0	57	0	4008706048	38	4195
2026-01-03 14:28:40.03	340.42	24.50	-34.0	-35.0	19.5	0.00e+00	0	57	0	4038066176	38	4083
2026-01-03 14:28:44.07	340.51	23.88	-33.9	-34.9	19.5	0.00e+00	0	57	0	4067426304	38	4031
2026-01-03 14:28:48.11	340.59	23.28	-33.8	-34.8	19.5	0.00e+00	0	57	0	4095737856	38	4004
2026-01-03 14:28:52.15	340.68	22.69	-33.9	-35.0	19.2	0.00e+00	0	57	0	4125097984	38	4055
2026-01-03 14:28:56.18	340.76	22.11	-34.0	-35.1	18.8	0.00e+00	0	57	0	4154458112	38	4117
2026-01-03 14:29:00.22	340.84	21.55	-33.5	-34.6	19.0	0.00e+00	0	57	0	4183818240	38	3888
2026-01-03 14:29:04.26	340.92	20.99	-34.2	-35.4	17.8	0.00e+00	0	57	0	4213178368	37	4523
2026-01-03 14:29:08.31	340.99	20.45	-37.8	-40.1	12.2	8.46e-05	0	57	0	4241489920	45	4899
2026-01-03 14:29:12.35	341.06	19.92	-40.6	-46.7	5.3	6.80e-01	0	57	0	4268752896	50	7863
2026-01-03 14:29:16.39	341.13	19.40	-41.0	-51.1	3.8	8.46e-01	0	57	104	4269801472	51	12338
2026-01-03 14:29:20.42	341.20	18.90	-41.0	-52.1	3.8	8.46e-01	0	57	104	4269801472	51	13846
2026-01-03 14:29:24.46	341.27	18.40	-40.8	-52.0	3.8	8.47e-01	0	57	104	4269801472	51	13684
2026-01-03 14:29:28.50	341.34	17.91	-40.8	-52.0	3.8	8.45e-01	0	57	104	4269801472	51	13723
2026-01-03 14:29:32.54	341.40	17.43	-40.7	-51.9	3.8	8.46e-01	0	57	104	4269801472	51	13558
2026-01-03 14:29:36.58	341.46	16.96	-40.6	-51.9	3.8	8.46e-01	0	58	104	4269801472	51	13479
2026-01-03 14:29:40.62	341.52	16.50	-40.9	-52.0	3.8	8.46e-01	0	57	104	4269801472	51	13689
2026-01-03 14:29:44.66	341.58	16.05	-40.9	-52.0	3.8	8.46e-01	0	57	104	4269801472	51	13609
2026-01-03 14:29:48.71	341.64	15.61	-40.9	-51.9	3.8	8.48e-01	0	58	104	4269801472	51	13525
2026-01-03 14:29:52.75	341.70	15.17	-40.9	-51.9	3.8	8.46e-01	0	58	104	4269801472	51	13466
2026-01-03 14:29:56.79	341.76	14.74	-40.9	-52.0	3.8	8.47e-01	0	57	104	4269801472	51	13673
2026-01-03 14:30:00.82	341.81	14.33	-40.8	-52.0	3.8	8.46e-01	0	58	104	4269801472	51	13593
2026-01-03 14:30:04.86	341.87	13.91	-40.7	-51.9	3.8	8.46e-01	0	57	104	4269801472	51	13496
2026-01-03 14:30:08.90	341.92	13.51	-40.5	-51.8	3.8	8.45e-01	0	58	104	4269801472	51	13380
2026-01-03 14:30:12.94	341.97	13.11	-40.9	-51.9	3.8	8.46e-01	0	58	104	4269801472	51	13569
2026-01-03 14:30:16.98	342.02	12.71	-40.6	-51.8	3.8	8.47e-01	0	58	104	4269801472	51	13342
2026-01-03 14:30:21.02	342.07	12.33	-40.9	-51.9	3.8	8.46e-01	0	58	104	4269801472	51	13532
2026-01-03 14:30:25.06	342.12	11.95	-40.8	-51.8	3.8	8.47e-01	0	58	104	4269801472	51	13314
2026-01-03 14:30:29.10	342.17	11.57	-40.8	-51.7	3.8	8.46e-01	0	57	104	4269801472	51	13161
2026-01-03 14:30:33.15	342.22	11.20	-40.5	-51.7	3.8	8.46e-01	0	58	104	4269801472	51	13110
2026-01-03 14:30:37.19	342.27	10.84	-40.8	-51.7	3.8	8.45e-01	0	58	104	4269801472	51	13239
2026-01-03 14:30:41.23	342.31	10.48	-40.6	-51.6	3.8	8.45e-01	0	58	104	4269801472	51	12964
2026-01-03 14:30:45.27	342.36	10.13	-41.0	-51.8	3.8	8.47e-01	0	58	104	4269801472	51	13414
2026-01-03 14:30:49.31	342.40	9.78	-40.7	-51.6	3.8	8.46e-01	0	58	104	4269801472	51	13091
2026-01-03 14:30:53.34	342.45	9.43	-40.9	-51.8	3.8	8.46e-01	0	58	104	4269801472	51	13410
2026-01-03 14:30:57.38	342.49	9.10	-40.9	-51.7	3.8	8.45e-01	0	58	104	4269801472	51	13260
2026-01-03 14:31:01.42	342.53	8.76	-40.9	-51.9	3.8	8.46e-01	0	58	104	4269801472	51	13419
2026-01-03 14:31:05.45	342.58	8.43	-40.9	-51.8	3.8	8.47e-01	0	58	104	4269801472	51	13366
2026-01-03 14:31:09.50	342.62	8.11	-41.0	-51.9	3.8	8.46e-01	0	58	104	4269801472	51	13473
2026-01-03 14:31:13.54	342.66	7.78	-45.2	-56.3	3.8	8.47e-01	0	58	104	4269801472	60	13313
2026-01-03 14:31:17.58	342.70	7.47	-45.6	-56.7	3.8	8.45e-01	0	58	104	4269801472	60	13906
2026-01-03 14:31:21.63	342.74	7.15	-45.5	-56.7	3.8	8.46e-01	0	58	104	4269801472	60	13909
2026-01-03 14:31:25.67	342.78	6.84	-45.4	-56.5	3.8	8.47e-01	0	58	104	4269801472	60	13721
2026-01-03 14:31:29.72	342.82	6.54	-45.4	-56.5	3.8	8.46e-01	0	58	104	4269801472	60	13706
2026-01-03 14:31:33.76	342.86	6.23	-45.4	-56.5	3.8	8.46e-01	0	58	104	4269801472	60	13674
2026-01-03 14:31:37.80	342.90	5.94	-45.4	-56.5	3.8	8.46e-01	0	58	104	4269801472	60	13676
2026-01-03 14:31:41.85	342.94	5.64	-45.4	-56.5	3.8	8.47e-01	0	58	104	4269801472	60	13670
2026-01-03 14:31:45.89	342.98	5.35	-45.4	-56.5	3.8	8.45e-01	0	58	104	4269801472	60	13649
2026-01-03 14:31:49.93	343.01	5.06	-45.4	-56.5	3.8	8.46e-01	0	58	104	4269801472	60	13650
2026-01-03 14:31:53.98	343.05	4.77	-45.4	-56.5	3.8	8.44e-01	0	58	104	4269801472	60	13596
2026-01-03 14:31:58.02	343.09	4.49	-45.4	-56.5	3.8	8.47e-01	0	58	104	4269801472	60	13631
2026-01-03 14:32:02.06	343.12	4.21	-45.4	-56.5	3.8	8.46e-01	0	58	104	4269801472	60	13660
2026-01-03 14:32:06.11	343.16	3.93	-45.4	-56.4	3.8	8.46e-01	0	58	104	4269801472	60	13546
2026-01-03 14:32:10.15	343.19	3.66	-45.4	-56.5	3.8	8.46e-01	0	58	104	4269801472	60	13606
2026-01-03 14:32:14.19	343.23	3.39	-45.4	-56.5	3.8	8.47e-01	0	58	104	4269801472	60	13584
2026-01-03 14:32:18.24	343.26	3.12	-45.4	-56.5	3.8	8.46e-01	0	58	104	4269801472	60	13578
2026-01-03 14:32:22.28	343.30	2.85	-45.4	-56.5	3.8	8.47e-01	0	58	104	4269801472	60	13607
2026-01-03 14:32:26.33	343.33	2.59	-45.4	-56.5	3.8	8.46e-01	0	58	104	4269801472	60	13576
2026-01-03 14:32:30.37	343.37	2.32	-45.4	-56.5	3.8	8.46e-01	0	58	104	4269801472	60	13597
2026-01-03 14:32:34.41	343.40	2.06	-44.3	-56.2	3.8	8.44e-01	0	58	104	4269801472	60	13247

#Closed at: 2026-01-03 14:32:35
#Recorded file [4269 MB]: D:/lorett/data/31039_260103_171809.dat