passes_logs/2026/01/03/R2.0S_Moscow/R2.0S_Moscow__20260103_101031_NOAA_20_JPSS-1_rec.log

#Pass ID: 20260103_101031_NOAA 20 (JPSS-1)
#Satellite: NOAA 20 (JPSS-1)
#Configuration: NOAA 20
#almurnet v.1.7.20251203
#Start time: 2026-01-03 10:10:31

#Version: 2.2.20231116
#Station: R2.0S_Moscow
#Location: 37.707566 lon 55.798166 lat
#TLE: 1 43013U 17073A   26002.21975278  .00000202  00000+0  11669-3 0  9999
#TLE: 2 43013  98.7622 303.2950 0001915  57.9213 302.2149 14.19532512420923

#Time	Az	El	Level	Level2	SNR	BER	BlckErr	Temp	State	Recorded	gain1	gain2
2026-01-03 10:10:31.28	168.10	1.98	-44.0	-58.6	3.8	1.49e+00	0	48	0	0	60	18438
2026-01-03 10:10:35.31	168.16	2.24	-44.0	-58.6	3.8	1.49e+00	0	48	104	0	60	18452
2026-01-03 10:10:39.36	168.22	2.51	-44.0	-58.6	3.8	1.49e+00	0	48	104	0	60	18464
2026-01-03 10:10:43.40	168.28	2.77	-44.0	-58.6	3.8	1.49e+00	0	49	104	0	60	18430
2026-01-03 10:10:47.44	168.34	3.04	-44.0	-58.6	3.8	1.49e+00	0	49	104	0	60	18386
2026-01-03 10:10:51.49	168.40	3.31	-44.0	-58.6	3.8	1.49e+00	0	49	104	0	60	18477
2026-01-03 10:10:55.53	168.46	3.58	-44.0	-58.6	3.8	1.49e+00	0	50	104	0	60	18465
2026-01-03 10:10:59.58	168.52	3.86	-44.0	-58.6	3.8	1.49e+00	0	50	104	0	60	18421
2026-01-03 10:11:03.62	168.58	4.13	-44.0	-58.6	3.8	1.49e+00	0	50	104	0	60	18375
2026-01-03 10:11:07.67	168.65	4.42	-44.0	-58.6	3.8	1.49e+00	0	50	104	0	60	18408
2026-01-03 10:11:11.71	168.71	4.70	-44.0	-58.6	3.8	1.49e+00	0	51	104	0	60	18417
2026-01-03 10:11:15.76	168.78	4.99	-44.0	-58.6	3.8	1.49e+00	0	51	104	0	60	18395
2026-01-03 10:11:19.80	168.85	5.28	-44.0	-58.6	3.8	1.49e+00	0	51	104	0	60	18466
2026-01-03 10:11:23.84	168.92	5.57	-44.0	-58.5	3.8	1.49e+00	0	51	104	0	60	18289
2026-01-03 10:11:27.89	168.99	5.87	-44.0	-58.5	3.8	1.49e+00	0	51	104	0	60	18304
2026-01-03 10:11:31.93	169.06	6.17	-44.0	-58.6	3.8	1.49e+00	0	52	104	0	60	18368
2026-01-03 10:11:35.98	169.13	6.47	-44.0	-57.3	3.8	1.49e+00	0	52	104	0	59	16824
2026-01-03 10:11:40.02	169.20	6.78	-43.7	-54.4	4.3	1.39e+00	43	52	0	0	59	12080
2026-01-03 10:11:44.06	169.28	7.09	-43.3	-51.6	5.7	4.68e-01	0	52	0	7340032	58	9280
2026-01-03 10:11:48.11	169.35	7.40	-43.0	-50.1	7.1	1.55e-01	0	52	0	14680064	58	7726
2026-01-03 10:11:52.15	169.43	7.72	-42.6	-48.7	8.4	6.39e-02	0	52	0	22020096	57	7020
2026-01-03 10:11:56.19	169.51	8.05	-42.4	-48.0	9.1	2.11e-02	0	53	0	29360128	56	6847
2026-01-03 10:12:00.22	169.59	8.37	-43.1	-49.9	7.5	1.31e-01	0	53	0	34603008	57	8002
2026-01-03 10:12:04.24	169.67	8.70	-42.8	-49.6	7.6	1.02e-01	0	53	0	41943040	57	7735
2026-01-03 10:12:08.28	169.76	9.04	-42.8	-49.2	8.0	7.69e-02	0	53	0	49283072	57	7450
2026-01-03 10:12:12.32	169.84	9.38	-42.8	-49.2	8.1	5.96e-02	0	53	0	56623104	57	7385
2026-01-03 10:12:16.36	169.93	9.72	-42.8	-48.9	8.5	4.39e-02	0	53	0	65011712	57	7136
2026-01-03 10:12:20.40	170.02	10.07	-42.8	-48.8	8.6	3.88e-02	0	53	0	72351744	57	7091
2026-01-03 10:12:24.44	170.11	10.42	-42.8	-48.6	8.9	3.04e-02	0	54	0	79691776	57	6918
2026-01-03 10:12:28.48	170.20	10.78	-42.8	-48.6	8.9	2.69e-02	0	53	0	87031808	57	6950
2026-01-03 10:12:32.51	170.30	11.15	-42.7	-48.3	9.3	2.13e-02	0	54	0	95420416	57	6682
2026-01-03 10:12:36.55	170.40	11.52	-42.7	-48.3	9.3	1.71e-02	0	54	0	102760448	57	6658
2026-01-03 10:12:40.59	170.50	11.89	-42.7	-48.0	9.6	1.42e-02	0	54	0	110100480	57	6491
2026-01-03 10:12:44.63	170.60	12.27	-42.7	-48.0	9.7	1.18e-02	0	54	0	117440512	57	6450
2026-01-03 10:12:48.67	170.70	12.66	-42.7	-47.9	9.9	1.05e-02	0	54	0	124780544	57	6361
2026-01-03 10:12:52.71	170.81	13.05	-42.7	-47.9	9.9	9.46e-03	0	54	0	133169152	57	6363
2026-01-03 10:12:56.74	170.92	13.45	-42.7	-47.9	9.9	8.61e-03	0	54	0	140509184	57	6376
2026-01-03 10:13:00.78	171.03	13.86	-42.7	-47.8	10.0	7.51e-03	0	54	0	147849216	57	6298
2026-01-03 10:13:04.82	171.15	14.27	-42.7	-47.7	10.2	6.16e-03	0	54	0	155189248	57	6219
2026-01-03 10:13:08.86	171.26	14.70	-42.6	-47.6	10.3	5.15e-03	0	54	0	163577856	57	6138
2026-01-03 10:13:12.90	171.38	15.12	-42.6	-47.5	10.5	4.23e-03	0	55	0	170917888	57	6072
2026-01-03 10:13:16.94	171.51	15.56	-42.6	-47.4	10.6	3.66e-03	0	55	0	178257920	57	6011
2026-01-03 10:13:20.98	171.64	16.00	-42.6	-47.4	10.5	3.81e-03	0	55	0	185597952	57	6041
2026-01-03 10:13:25.02	171.77	16.45	-42.6	-47.4	10.6	3.71e-03	0	55	0	192937984	57	6034
2026-01-03 10:13:29.05	171.90	16.91	-42.7	-47.5	10.5	3.48e-03	0	55	0	201326592	57	6081
2026-01-03 10:13:33.09	172.04	17.38	-42.7	-47.6	10.4	4.46e-03	0	55	0	208666624	57	6164
2026-01-03 10:13:37.13	172.18	17.86	-42.8	-47.7	10.3	5.22e-03	0	55	0	216006656	57	6273
2026-01-03 10:13:41.17	172.33	18.35	-42.8	-47.8	10.3	5.31e-03	0	55	0	223346688	57	6297
2026-01-03 10:13:45.21	172.48	18.84	-42.8	-47.8	10.2	5.80e-03	0	55	0	231735296	57	6316
2026-01-03 10:13:49.25	172.63	19.35	-42.9	-48.0	10.1	6.73e-03	0	55	0	239075328	57	6424
2026-01-03 10:13:53.29	172.79	19.87	-43.0	-48.2	9.9	9.08e-03	0	55	0	246415360	57	6593
2026-01-03 10:13:57.32	172.96	20.39	-43.0	-48.3	9.8	1.08e-02	0	55	0	253755392	57	6665
2026-01-03 10:14:01.36	173.13	20.93	-43.1	-48.5	9.5	1.35e-02	0	55	0	261095424	57	6852
2026-01-03 10:14:05.40	173.31	21.48	-43.2	-48.7	9.3	1.62e-02	0	55	0	269484032	57	7023
2026-01-03 10:14:09.44	173.49	22.05	-43.3	-48.9	9.1	2.07e-02	0	55	0	276824064	57	7175
2026-01-03 10:14:13.47	173.68	22.62	-43.2	-48.7	9.3	1.83e-02	0	56	0	284164096	57	7001
2026-01-03 10:14:17.51	173.87	23.21	-43.2	-48.6	9.4	1.51e-02	0	55	0	291504128	57	6957
2026-01-03 10:14:21.55	174.08	23.81	-43.1	-48.4	9.7	1.21e-02	0	55	0	299892736	57	6760
2026-01-03 10:14:25.59	174.29	24.42	-43.0	-48.1	10.0	8.19e-03	0	55	0	307232768	57	6552
2026-01-03 10:14:29.63	174.50	25.05	-42.9	-47.8	10.4	4.37e-03	0	56	0	314572800	57	6299
2026-01-03 10:14:33.67	174.73	25.70	-42.9	-47.6	10.6	3.75e-03	0	56	0	321912832	57	6193
2026-01-03 10:14:37.70	174.96	26.36	-42.9	-47.7	10.6	4.08e-03	0	56	0	329252864	57	6243
2026-01-03 10:14:41.74	175.21	27.03	-43.0	-48.1	10.2	5.13e-03	0	56	0	337641472	57	6495
2026-01-03 10:14:45.78	175.46	27.73	-43.1	-48.3	9.9	9.06e-03	0	56	0	344981504	57	6722
2026-01-03 10:14:49.82	175.73	28.44	-43.3	-48.8	9.4	1.67e-02	0	56	0	352321536	57	7119
2026-01-03 10:14:53.86	176.01	29.16	-43.5	-49.3	8.9	2.69e-02	0	56	0	359661568	57	7465
2026-01-03 10:14:57.90	176.30	29.91	-43.5	-49.5	8.7	3.28e-02	0	56	0	368050176	57	7651
2026-01-03 10:15:01.94	176.60	30.68	-43.6	-49.7	8.5	4.11e-02	0	56	0	375390208	57	7890
2026-01-03 10:15:05.98	176.92	31.46	-43.7	-49.8	8.5	4.50e-02	0	56	0	382730240	57	7932
2026-01-03 10:15:10.01	177.25	32.27	-43.6	-49.5	8.8	3.97e-02	0	56	0	390070272	57	7670
2026-01-03 10:15:14.05	177.60	33.10	-43.5	-49.3	8.9	3.47e-02	0	56	0	397410304	57	7499
2026-01-03 10:15:18.09	177.97	33.95	-43.2	-48.4	9.9	9.14e-03	0	56	0	405798912	57	6769
2026-01-03 10:15:22.13	178.35	34.82	-43.1	-48.2	10.2	6.14e-03	0	56	0	413138944	57	6573
2026-01-03 10:15:26.17	178.76	35.72	-43.1	-48.0	10.3	5.36e-03	0	56	0	420478976	57	6484
2026-01-03 10:15:30.20	179.19	36.63	-43.0	-47.7	10.7	3.56e-03	0	56	0	427819008	57	6268
2026-01-03 10:15:34.24	179.64	37.58	-43.0	-47.8	10.6	3.16e-03	0	56	0	436207616	57	6307
2026-01-03 10:15:38.28	180.12	38.55	-43.2	-48.2	10.1	6.69e-03	0	56	0	443547648	57	6609
2026-01-03 10:15:42.32	180.63	39.55	-43.2	-48.2	10.1	5.48e-03	0	56	0	450887680	57	6636
2026-01-03 10:15:46.36	181.17	40.57	-43.5	-49.1	9.3	1.88e-02	0	56	0	458227712	57	7309
2026-01-03 10:15:50.40	181.74	41.62	-43.3	-48.6	9.8	8.98e-03	0	56	0	465567744	57	6883
2026-01-03 10:15:54.44	182.36	42.70	-43.5	-48.9	9.4	1.58e-02	0	56	0	473956352	57	7197
2026-01-03 10:15:58.48	183.01	43.81	-43.5	-49.2	9.1	2.00e-02	0	56	0	481296384	57	7429
2026-01-03 10:16:02.52	183.71	44.94	-43.7	-49.6	8.8	2.64e-02	0	56	0	488636416	57	7756
2026-01-03 10:16:06.56	184.47	46.11	-43.9	-50.3	8.1	5.66e-02	0	56	0	495976448	58	7938
2026-01-03 10:16:10.60	185.28	47.30	-44.0	-51.0	7.5	1.11e-01	0	56	0	504365056	58	8571
2026-01-03 10:16:14.64	186.15	48.52	-43.7	-49.5	8.9	3.75e-02	0	56	0	511705088	58	7275
2026-01-03 10:16:18.68	187.10	49.76	-43.7	-49.5	8.8	3.30e-02	0	56	0	519045120	58	7256
2026-01-03 10:16:22.72	188.12	51.04	-42.9	-47.4	11.1	1.95e-03	0	56	0	526385152	57	6017
2026-01-03 10:16:26.75	189.24	52.33	-42.2	-45.9	12.6	1.05e-04	0	56	0	533725184	56	5384
2026-01-03 10:16:30.80	190.46	53.66	-41.7	-45.1	13.3	1.67e-05	0	57	0	542113792	55	5186
2026-01-03 10:16:34.84	191.79	55.00	-41.6	-45.0	13.4	1.29e-05	0	56	0	549453824	55	5139
2026-01-03 10:16:38.88	193.26	56.36	-42.0	-45.7	12.7	5.56e-05	0	57	0	556793856	55	5558
2026-01-03 10:16:42.91	194.87	57.73	-42.2	-46.0	12.3	1.67e-04	0	56	0	564133888	55	5779
2026-01-03 10:16:46.95	196.66	59.11	-41.9	-45.4	13.0	4.27e-05	0	56	0	572522496	55	5363
2026-01-03 10:16:50.99	198.65	60.50	-41.1	-44.1	14.4	1.50e-06	0	57	0	579862528	54	4886
2026-01-03 10:16:55.03	200.86	61.88	-40.9	-43.8	14.7	0.00e+00	0	56	0	587202560	53	5011
2026-01-03 10:16:59.06	203.32	63.25	-40.9	-43.7	14.8	7.00e-07	0	56	0	594542592	53	4951
2026-01-03 10:17:03.11	206.10	64.60	-42.2	-46.1	12.3	6.25e-05	0	57	0	601882624	55	5820
2026-01-03 10:17:07.14	209.21	65.91	-42.9	-47.3	11.2	1.29e-03	0	57	0	610271232	56	6331
2026-01-03 10:17:11.18	212.71	67.17	-43.3	-48.4	10.0	7.28e-03	0	57	0	617611264	57	6777
2026-01-03 10:17:15.22	216.64	68.36	-43.1	-47.8	10.6	3.64e-03	0	56	0	624951296	57	6346
2026-01-03 10:17:19.26	221.05	69.46	-43.5	-48.9	9.6	1.55e-02	0	57	0	632291328	57	7137
2026-01-03 10:17:23.29	225.95	70.44	-43.6	-49.3	9.0	2.05e-02	0	57	0	640679936	57	7543
2026-01-03 10:17:27.33	231.38	71.29	-43.6	-49.5	8.9	3.46e-02	0	57	0	648019968	58	7223
2026-01-03 10:17:31.37	237.30	71.97	-43.1	-48.1	10.4	4.68e-03	0	57	0	655360000	58	6135
2026-01-03 10:17:35.41	243.64	72.46	-43.0	-47.8	10.6	3.10e-03	0	57	0	662700032	57	6321
2026-01-03 10:17:39.44	250.25	72.74	-42.6	-46.7	11.8	5.44e-04	0	57	0	670040064	56	5878
2026-01-03 10:17:43.48	257.02	72.79	-42.1	-45.7	12.9	9.38e-05	0	57	0	678428672	56	5262
2026-01-03 10:17:47.52	263.74	72.62	-42.8	-47.4	11.1	2.12e-03	0	56	0	685768704	56	6361
2026-01-03 10:17:51.56	270.23	72.23	-43.6	-49.5	9.0	2.22e-02	0	56	0	693108736	57	7688
2026-01-03 10:17:55.60	276.36	71.64	-43.1	-48.0	10.5	5.01e-03	0	57	0	700448768	57	6429
2026-01-03 10:17:59.64	282.02	70.86	-42.7	-48.9	9.5	7.72e-03	0	57	0	708837376	57	7152
2026-01-03 10:18:03.68	287.17	69.94	-43.7	-49.7	8.7	2.35e-02	0	57	0	716177408	57	7855
2026-01-03 10:18:07.72	291.81	68.89	-43.0	-47.7	10.8	2.91e-03	0	56	0	723517440	58	5906
2026-01-03 10:18:11.76	295.96	67.74	-43.9	-50.5	7.9	5.13e-02	0	56	0	730857472	58	8167
2026-01-03 10:18:15.80	299.65	66.51	-44.0	-50.9	7.6	7.32e-02	0	57	0	738197504	58	8539
2026-01-03 10:18:19.84	302.93	65.23	-43.4	-48.6	9.9	1.12e-02	0	57	0	746586112	58	6544
2026-01-03 10:18:23.88	305.86	63.90	-42.3	-46.1	12.6	2.69e-04	0	57	0	753926144	56	5465
2026-01-03 10:18:27.92	308.46	62.54	-41.3	-44.4	14.1	1.52e-05	0	57	0	761266176	54	5076
2026-01-03 10:18:31.96	310.79	61.17	-41.3	-44.4	14.1	0.00e+00	0	57	0	768606208	53	5372
2026-01-03 10:18:35.99	312.87	59.79	-41.5	-44.7	13.8	1.50e-06	0	56	0	776994816	53	5586
2026-01-03 10:18:40.03	314.74	58.41	-42.1	-45.7	12.9	5.95e-05	0	57	0	784334848	56	5270
2026-01-03 10:18:44.07	316.44	57.04	-43.4	-48.6	9.9	1.41e-02	0	57	0	791674880	57	6935
2026-01-03 10:18:48.11	317.97	55.68	-41.8	-45.4	13.1	7.60e-06	0	57	0	799014912	54	5683
2026-01-03 10:18:52.15	319.36	54.33	-41.4	-44.5	14.0	4.50e-06	0	57	0	806354944	54	5152
2026-01-03 10:18:56.18	320.63	53.01	-42.3	-46.3	12.2	7.78e-05	0	57	0	814743552	55	5977
2026-01-03 10:19:00.22	321.79	51.70	-41.2	-44.2	14.3	1.50e-06	0	57	0	822083584	54	4981
2026-01-03 10:19:04.26	322.86	50.42	-43.5	-49.1	9.5	6.51e-03	0	57	0	829423616	57	7291
2026-01-03 10:19:08.30	323.84	49.17	-42.9	-47.3	11.3	1.35e-03	0	57	0	836763648	57	5977
2026-01-03 10:19:12.35	324.75	47.94	-44.2	-51.6	7.0	1.35e-01	0	57	0	845152256	59	8672
2026-01-03 10:19:16.39	325.59	46.74	-43.4	-48.6	9.9	1.15e-02	0	57	0	852492288	58	6569
2026-01-03 10:19:20.43	326.37	45.57	-43.1	-47.9	10.7	1.18e-03	0	57	0	859832320	57	6391
2026-01-03 10:19:24.47	327.10	44.43	-43.0	-47.5	11.1	3.36e-03	0	57	0	867172352	57	6081
2026-01-03 10:19:28.51	327.78	43.31	-41.8	-45.2	13.2	1.67e-05	0	57	0	874512384	55	5273
2026-01-03 10:19:32.55	328.41	42.22	-43.6	-49.4	9.0	2.35e-02	0	57	0	882900992	57	7602
2026-01-03 10:19:36.58	329.00	41.17	-42.7	-47.0	11.5	9.64e-04	0	57	0	890241024	57	5760
2026-01-03 10:19:40.62	329.56	40.13	-43.0	-47.7	10.8	9.04e-04	0	57	0	897581056	56	6596
2026-01-03 10:19:44.66	330.09	39.13	-43.6	-49.3	9.2	2.58e-02	0	57	0	904921088	58	7046
2026-01-03 10:19:48.70	330.58	38.15	-42.7	-47.0	11.5	1.03e-03	0	57	0	913309696	57	5786
2026-01-03 10:19:52.74	331.05	37.20	-42.6	-46.8	11.7	4.63e-04	0	57	0	920649728	56	5969
2026-01-03 10:19:56.77	331.49	36.27	-43.4	-48.7	9.7	8.06e-03	0	57	0	927989760	57	6965
2026-01-03 10:20:00.81	331.91	35.37	-43.2	-48.3	10.1	7.38e-03	0	57	0	935329792	57	6707
2026-01-03 10:20:04.85	332.30	34.49	-42.8	-47.2	11.3	1.62e-03	0	57	0	942669824	57	5878
2026-01-03 10:20:08.89	332.68	33.63	-42.8	-47.5	10.8	6.86e-03	0	57	0	951058432	57	6088
2026-01-03 10:20:12.92	333.04	32.80	-43.4	-49.2	9.0	2.80e-02	0	57	0	958398464	57	7435
2026-01-03 10:20:16.96	333.38	31.98	-43.6	-49.7	8.5	4.78e-02	0	57	0	965738496	57	7846
2026-01-03 10:20:21.00	333.70	31.19	-43.4	-49.1	9.1	3.14e-02	0	57	0	973078528	57	7295
2026-01-03 10:20:25.04	334.02	30.42	-43.1	-48.1	10.3	6.59e-03	0	57	0	981467136	57	6510
2026-01-03 10:20:29.08	334.31	29.66	-42.9	-47.5	10.9	2.46e-03	0	57	0	988807168	57	6122
2026-01-03 10:20:33.11	334.60	28.93	-42.9	-47.6	10.7	2.91e-03	0	57	0	996147200	57	6184
2026-01-03 10:20:37.15	334.87	28.22	-43.0	-47.8	10.5	3.81e-03	0	57	0	1003487232	57	6313
2026-01-03 10:20:41.19	335.13	27.52	-42.7	-47.3	11.0	2.39e-03	0	57	0	1010827264	57	5938
2026-01-03 10:20:45.22	335.39	26.84	-42.3	-46.3	12.0	3.91e-04	0	57	0	1019215872	56	5615
2026-01-03 10:20:49.26	335.63	26.17	-41.8	-45.4	12.7	6.48e-05	0	57	0	1026555904	55	5397
2026-01-03 10:20:53.30	335.86	25.52	-41.9	-45.6	12.5	1.06e-04	0	57	0	1033895936	55	5523
2026-01-03 10:20:57.34	336.08	24.89	-42.1	-46.1	12.0	3.33e-04	0	57	0	1041235968	55	5825
2026-01-03 10:21:01.38	336.30	24.27	-42.2	-46.4	11.6	5.80e-04	0	57	0	1049624576	55	5994
2026-01-03 10:21:05.42	336.51	23.66	-42.0	-46.0	12.0	3.87e-04	0	57	0	1056964608	55	5770
2026-01-03 10:21:09.46	336.71	23.07	-41.8	-45.7	12.2	2.65e-04	0	57	0	1064304640	55	5588
2026-01-03 10:21:13.50	336.91	22.49	-41.7	-45.7	12.2	1.85e-04	0	57	0	1071644672	55	5530
2026-01-03 10:21:17.54	337.09	21.92	-41.8	-45.8	12.0	3.20e-04	0	57	0	1078984704	55	5603
2026-01-03 10:21:21.58	337.28	21.37	-41.7	-45.9	11.8	4.63e-04	0	57	0	1087373312	55	5673
2026-01-03 10:21:25.62	337.45	20.83	-41.8	-46.1	11.4	9.55e-04	0	57	0	1094713344	55	5830
2026-01-03 10:21:29.66	337.62	20.30	-41.6	-45.9	11.4	1.03e-03	0	57	0	1102053376	55	5689
2026-01-03 10:21:33.69	337.79	19.78	-41.4	-45.9	11.2	1.08e-03	0	57	0	1109393408	54	6007
2026-01-03 10:21:37.73	337.95	19.27	-41.3	-45.9	10.9	2.12e-03	0	57	0	1117782016	54	6007
2026-01-03 10:21:41.77	338.10	18.77	-41.1	-45.7	10.9	2.26e-03	0	57	0	1125122048	54	5864
2026-01-03 10:21:45.81	338.26	18.28	-41.0	-45.7	10.6	3.78e-03	0	57	0	1132462080	54	5899
2026-01-03 10:21:49.84	338.40	17.80	-40.9	-45.8	10.3	4.10e-03	0	57	0	1139802112	53	6278
2026-01-03 10:21:53.89	338.55	17.33	-40.9	-46.0	9.9	8.71e-03	0	57	0	1147142144	53	6490
2026-01-03 10:21:57.93	338.69	16.86	-41.0	-46.7	9.0	2.27e-02	0	57	0	1155530752	53	7040
2026-01-03 10:22:01.97	338.82	16.41	-41.1	-47.7	7.8	7.01e-02	0	57	0	1162870784	53	7863
2026-01-03 10:22:06.00	338.95	15.96	-41.2	-48.8	6.7	1.75e-01	0	57	0	1170210816	53	8955
2026-01-03 10:22:10.04	339.08	15.53	-41.2	-50.1	5.6	4.45e-01	0	57	0	1177550848	53	10327
2026-01-03 10:22:14.08	339.21	15.10	-41.1	-51.0	4.9	7.56e-01	0	57	0	1184890880	53	11504
2026-01-03 10:22:18.11	339.33	14.67	-41.2	-51.8	4.5	9.70e-01	4	57	0	1193279488	53	12544
2026-01-03 10:22:22.15	339.45	14.26	-40.8	-52.6	4.2	1.37e+00	0	57	0	1196425216	53	13818
2026-01-03 10:22:26.19	339.57	13.85	-41.1	-53.5	3.8	1.47e+00	0	57	104	1196425216	53	15361
2026-01-03 10:22:30.23	339.68	13.45	-41.1	-53.8	3.8	1.48e+00	0	57	104	1196425216	53	15868
2026-01-03 10:22:34.27	339.79	13.05	-41.1	-54.5	3.8	1.49e+00	0	57	104	1196425216	53	17208
2026-01-03 10:22:38.31	339.90	12.66	-41.1	-55.0	3.8	1.49e+00	0	57	104	1196425216	53	18242
2026-01-03 10:22:42.35	340.01	12.28	-41.1	-55.3	3.8	1.49e+00	0	57	104	1196425216	53	18934
2026-01-03 10:22:46.39	340.11	11.90	-40.9	-55.0	3.8	1.49e+00	0	57	104	1196425216	53	18164
2026-01-03 10:22:50.43	340.22	11.53	-40.8	-55.1	3.8	1.49e+00	0	57	104	1196425216	53	18392
2026-01-03 10:22:54.47	340.32	11.17	-40.8	-55.1	3.8	1.49e+00	0	57	104	1196425216	53	18507
2026-01-03 10:22:58.51	340.41	10.80	-40.6	-55.1	3.8	1.49e+00	0	57	104	1196425216	53	18324
2026-01-03 10:23:02.55	340.51	10.45	-40.6	-55.1	3.8	1.49e+00	0	57	104	1196425216	53	18342
2026-01-03 10:23:06.59	340.60	10.10	-40.5	-55.0	3.8	1.49e+00	0	57	104	1196425216	52	19373
2026-01-03 10:23:10.63	340.70	9.75	-40.5	-55.0	3.8	1.49e+00	0	57	104	1196425216	52	19315
2026-01-03 10:23:14.67	340.79	9.41	-40.6	-55.0	3.8	1.49e+00	0	57	104	1196425216	52	19362
2026-01-03 10:23:18.72	340.88	9.07	-40.5	-55.0	3.8	1.49e+00	0	57	104	1196425216	52	19200
2026-01-03 10:23:22.76	340.96	8.74	-40.6	-55.0	3.8	1.49e+00	0	57	104	1196425216	52	19388
2026-01-03 10:23:26.80	341.05	8.42	-40.5	-54.9	3.8	1.49e+00	0	57	104	1196425216	52	19132
2026-01-03 10:23:30.84	341.13	8.09	-40.5	-55.0	3.8	1.49e+00	0	57	104	1196425216	52	19364
2026-01-03 10:23:34.88	341.22	7.77	-44.8	-59.6	3.8	1.49e+00	0	57	104	1196425216	60	20563
2026-01-03 10:23:38.92	341.30	7.46	-45.2	-60.0	3.8	1.49e+00	0	57	104	1196425216	60	21654
2026-01-03 10:23:42.97	341.38	7.14	-45.2	-60.0	3.8	1.49e+00	0	57	104	1196425216	60	21675
2026-01-03 10:23:47.02	341.46	6.84	-45.1	-59.9	3.8	1.49e+00	0	57	104	1196425216	60	21431
2026-01-03 10:23:51.06	341.54	6.53	-45.0	-59.9	3.8	1.49e+00	0	57	104	1196425216	60	21372
2026-01-03 10:23:55.10	341.61	6.23	-45.0	-59.9	3.8	1.49e+00	0	57	104	1196425216	60	21325
2026-01-03 10:23:59.15	341.69	5.93	-45.0	-59.9	3.8	1.49e+00	0	57	104	1196425216	60	21331
2026-01-03 10:24:03.19	341.76	5.64	-45.0	-59.8	3.8	1.49e+00	0	57	104	1196425216	60	21226
2026-01-03 10:24:07.24	341.83	5.35	-45.0	-59.9	3.8	1.49e+00	0	57	104	1196425216	60	21287
2026-01-03 10:24:11.28	341.91	5.06	-45.0	-59.9	3.8	1.49e+00	0	57	104	1196425216	60	21283
2026-01-03 10:24:15.33	341.98	4.78	-45.0	-59.8	3.8	1.49e+00	0	57	104	1196425216	60	21254
2026-01-03 10:24:19.37	342.05	4.49	-45.0	-59.8	3.8	1.49e+00	0	57	104	1196425216	60	21225
2026-01-03 10:24:23.41	342.12	4.22	-45.0	-59.8	3.8	1.49e+00	0	57	104	1196425216	60	21202
2026-01-03 10:24:27.46	342.18	3.94	-45.0	-59.8	3.8	1.49e+00	0	57	104	1196425216	60	21166
2026-01-03 10:24:31.50	342.25	3.67	-45.0	-59.8	3.8	1.49e+00	0	57	104	1196425216	60	21219
2026-01-03 10:24:35.55	342.32	3.40	-45.0	-59.8	3.8	1.49e+00	0	57	104	1196425216	60	21146
2026-01-03 10:24:39.59	342.38	3.13	-45.0	-59.8	3.8	1.49e+00	0	57	104	1196425216	60	21157
2026-01-03 10:24:43.63	342.45	2.86	-45.0	-59.8	3.8	1.49e+00	0	57	104	1196425216	60	21204
2026-01-03 10:24:47.68	342.51	2.60	-45.0	-59.8	3.8	1.49e+00	0	57	104	1196425216	60	21195
2026-01-03 10:24:51.72	342.57	2.34	-45.0	-59.8	3.8	1.49e+00	0	57	104	1196425216	60	21210
2026-01-03 10:24:55.76	342.64	2.08	-45.0	-59.8	3.8	1.49e+00	0	57	104	1196425216	60	21231

#Closed at: 2026-01-03 10:24:57
#Recorded file [1196 MB]: D:/lorett/data/31039_260103_131031.dat