passes_logs/2026/01/03/R2.0S_Moscow/R2.0S_Moscow__20260103_110106_NOAA_21_JPSS-2_rec.log

#Pass ID: 20260103_110106_NOAA 21 (JPSS-2)
#Satellite: NOAA 21 (JPSS-2)
#Configuration: NOAA-21
#almurnet v.1.7.20251203
#Start time: 2026-01-03 11:02:54

#Version: 2.2.20231116
#Station: R2.0S_Moscow
#Location: 37.707566 lon 55.798166 lat
#TLE: 1 54234U 22150A   26002.25486487  .00000200  00000+0  11573-3 0  9993
#TLE: 2 54234  98.7485 303.3096 0001220 350.9074   9.2080 14.19531212163006

#Time	Az	El	Level	Level2	SNR	BER	BlckErr	Temp	State	Recorded	gain1	gain2
2026-01-03 11:02:54.46	200.48	9.16	-45.9	-64.8	3.8	7.46e-01	0	57	0	0	62	33405
2026-01-03 11:02:57.48	200.73	9.38	-45.1	-57.7	3.8	1.49e+00	0	57	104	0	62	14752
2026-01-03 11:03:00.51	200.99	9.61	-44.9	-57.4	3.8	1.49e+00	0	57	104	0	61	15183
2026-01-03 11:03:03.55	201.25	9.84	-44.5	-56.8	3.8	1.49e+00	0	57	104	0	61	14161
2026-01-03 11:03:06.58	201.51	10.07	-44.4	-56.8	3.8	1.49e+00	0	57	104	0	60	14942
2026-01-03 11:03:09.61	201.78	10.30	-44.5	-57.0	3.8	1.49e+00	0	57	104	0	60	15272
2026-01-03 11:03:12.65	202.06	10.54	-44.5	-56.9	3.8	1.49e+00	0	57	104	0	60	15054
2026-01-03 11:03:15.68	202.33	10.78	-44.4	-56.0	3.8	1.49e+00	0	57	104	0	60	13682
2026-01-03 11:03:18.71	202.62	11.01	-44.2	-54.9	3.9	1.49e+00	0	57	104	0	60	12045
2026-01-03 11:03:21.74	202.90	11.25	-44.2	-54.4	4.0	1.48e+00	0	57	104	0	60	11315
2026-01-03 11:03:24.78	203.19	11.50	-44.3	-55.6	3.8	1.49e+00	0	57	104	0	60	13078
2026-01-03 11:03:27.81	203.49	11.74	-44.4	-56.2	3.8	1.49e+00	0	57	104	0	60	13996
2026-01-03 11:03:30.84	203.79	11.98	-44.3	-55.9	3.8	1.49e+00	0	57	104	0	60	13473
2026-01-03 11:03:33.88	204.10	12.23	-44.2	-54.7	3.8	1.49e+00	0	57	104	0	60	11735
2026-01-03 11:03:36.91	204.41	12.48	-43.4	-49.5	6.2	3.91e-01	0	57	0	3145728	58	7238
2026-01-03 11:03:39.94	204.72	12.73	-41.2	-44.5	11.0	3.00e-03	0	57	0	12582912	54	5154
2026-01-03 11:03:42.97	205.04	12.98	-39.4	-41.6	14.1	2.20e-06	0	57	0	22020096	50	4600
2026-01-03 11:03:46.00	205.37	13.24	-38.3	-40.2	15.5	0.00e+00	0	57	0	31457280	48	4412
2026-01-03 11:03:49.03	205.70	13.49	-43.4	-49.0	6.6	4.34e-03	0	57	0	40894464	57	7278
2026-01-03 11:03:52.06	206.03	13.75	-40.0	-42.3	13.3	9.90e-06	0	57	0	50331648	50	5040
2026-01-03 11:03:55.09	206.38	14.01	-38.0	-39.7	15.9	0.00e+00	0	57	0	59768832	48	4180
2026-01-03 11:03:58.12	206.73	14.27	-37.9	-39.7	15.9	0.00e+00	0	57	0	69206016	47	4412
2026-01-03 11:04:01.15	207.08	14.54	-37.9	-39.7	15.9	0.00e+00	0	57	0	78643200	47	4413
2026-01-03 11:04:04.18	207.44	14.80	-38.0	-39.8	15.9	0.00e+00	0	57	0	88080384	47	4460
2026-01-03 11:04:07.20	207.81	15.07	-38.0	-39.7	16.0	0.00e+00	0	57	0	97517568	47	4420
2026-01-03 11:04:10.23	208.18	15.34	-38.0	-39.8	15.9	0.00e+00	0	57	0	106954752	47	4462
2026-01-03 11:04:13.26	208.56	15.61	-38.2	-40.0	15.8	0.00e+00	0	57	0	116391936	47	4570
2026-01-03 11:04:16.29	208.95	15.88	-38.2	-40.1	15.7	0.00e+00	0	57	0	125829120	47	4600
2026-01-03 11:04:19.32	209.34	16.15	-38.2	-40.0	15.8	0.00e+00	0	57	0	135266304	47	4554
2026-01-03 11:04:22.35	209.74	16.43	-38.2	-40.0	15.8	0.00e+00	0	57	0	144703488	47	4555
2026-01-03 11:04:25.38	210.15	16.71	-38.2	-40.0	15.8	0.00e+00	0	57	0	154140672	47	4548
2026-01-03 11:04:28.41	210.56	16.99	-38.1	-39.8	16.0	0.00e+00	0	57	0	163577856	47	4491
2026-01-03 11:04:31.43	210.98	17.27	-38.1	-39.8	16.0	0.00e+00	0	57	0	173015040	47	4487
2026-01-03 11:04:34.46	211.41	17.55	-38.0	-39.7	16.1	0.00e+00	0	57	0	182452224	47	4412
2026-01-03 11:04:37.49	211.85	17.84	-37.9	-39.5	16.3	0.00e+00	0	57	0	191889408	47	4337
2026-01-03 11:04:40.52	212.30	18.12	-37.8	-39.5	16.3	0.00e+00	0	57	0	201326592	47	4311
2026-01-03 11:04:43.55	212.75	18.41	-37.8	-39.5	16.4	0.00e+00	0	57	0	210763776	47	4292
2026-01-03 11:04:46.58	213.22	18.70	-37.6	-39.3	16.6	0.00e+00	0	57	0	220200960	47	4212
2026-01-03 11:04:49.61	213.69	18.99	-37.6	-39.3	16.6	0.00e+00	0	57	0	229638144	47	4205
2026-01-03 11:04:52.63	214.17	19.28	-37.7	-39.4	16.5	0.00e+00	0	57	0	239075328	47	4248
2026-01-03 11:04:55.66	214.66	19.58	-37.7	-39.4	16.5	0.00e+00	0	57	0	248512512	47	4262
2026-01-03 11:04:58.69	215.15	19.87	-37.6	-39.2	16.7	0.00e+00	0	57	0	257949696	47	4163
2026-01-03 11:05:01.72	215.66	20.17	-37.3	-38.9	17.0	0.00e+00	0	57	0	267386880	46	4261
2026-01-03 11:05:04.75	216.18	20.47	-37.3	-38.8	17.1	0.00e+00	0	57	0	276824064	46	4201
2026-01-03 11:05:07.77	216.71	20.77	-37.3	-38.8	17.1	0.00e+00	0	57	0	287309824	46	4228
2026-01-03 11:05:10.80	217.25	21.07	-37.2	-38.7	17.2	0.00e+00	0	57	0	295698432	46	4166
2026-01-03 11:05:13.83	217.79	21.37	-37.0	-38.5	17.4	0.00e+00	0	57	0	306184192	46	4088
2026-01-03 11:05:16.86	218.35	21.68	-37.0	-38.4	17.4	0.00e+00	0	57	0	315621376	45	4288
2026-01-03 11:05:19.89	218.92	21.98	-36.7	-38.2	17.7	0.00e+00	0	57	0	325058560	45	4151
2026-01-03 11:05:22.92	219.50	22.28	-36.6	-38.1	17.8	0.00e+00	0	57	0	334495744	45	4106
2026-01-03 11:05:25.95	220.10	22.59	-36.6	-38.0	17.9	0.00e+00	0	57	0	343932928	45	4058
2026-01-03 11:05:28.98	220.70	22.90	-36.6	-38.0	17.9	0.00e+00	0	57	0	353370112	45	4090
2026-01-03 11:05:32.00	221.31	23.20	-36.6	-38.0	17.8	0.00e+00	0	57	0	362807296	45	4093
2026-01-03 11:05:35.03	221.94	23.51	-36.7	-38.1	17.8	0.00e+00	0	57	0	372244480	45	4116
2026-01-03 11:05:38.06	222.58	23.81	-36.6	-38.0	17.9	0.00e+00	0	57	0	381681664	45	4061
2026-01-03 11:05:41.09	223.23	24.12	-36.6	-38.0	17.9	0.00e+00	0	57	0	391118848	45	4080
2026-01-03 11:05:44.12	223.89	24.43	-36.8	-38.2	17.7	0.00e+00	0	57	0	400556032	45	4180
2026-01-03 11:05:47.15	224.57	24.73	-36.9	-38.3	17.6	0.00e+00	0	57	0	409993216	45	4219
2026-01-03 11:05:50.18	225.26	25.04	-36.8	-38.3	17.7	0.00e+00	0	57	0	419430400	45	4196
2026-01-03 11:05:53.21	225.96	25.34	-37.1	-38.6	17.4	0.00e+00	0	57	0	428867584	45	4342
2026-01-03 11:05:56.24	226.68	25.64	-37.3	-38.9	17.1	0.00e+00	0	57	0	438304768	45	4501
2026-01-03 11:05:59.27	227.41	25.94	-37.4	-39.0	16.9	0.00e+00	0	57	0	447741952	45	4580
2026-01-03 11:06:02.31	228.15	26.25	-37.4	-38.9	17.0	0.00e+00	0	57	0	457179136	45	4540
2026-01-03 11:06:05.34	228.91	26.54	-37.3	-38.8	17.2	0.00e+00	0	57	0	466616320	45	4476
2026-01-03 11:06:08.37	229.68	26.84	-37.3	-38.9	17.1	0.00e+00	0	57	0	476053504	45	4494
2026-01-03 11:06:11.39	230.46	27.13	-37.4	-39.0	17.0	0.00e+00	0	57	0	485490688	45	4552
2026-01-03 11:06:14.42	231.26	27.42	-37.7	-39.3	16.7	0.00e+00	0	57	0	494927872	45	4741
2026-01-03 11:06:17.45	232.08	27.71	-37.5	-39.1	17.0	0.00e+00	0	57	0	504365056	45	4605
2026-01-03 11:06:20.48	232.90	28.00	-37.4	-38.9	17.1	0.00e+00	0	57	0	513802240	45	4510
2026-01-03 11:06:23.52	233.75	28.28	-37.5	-39.0	17.0	0.00e+00	0	57	0	523239424	45	4587
2026-01-03 11:06:26.54	234.60	28.56	-37.6	-39.2	16.8	0.00e+00	0	57	0	532676608	45	4694
2026-01-03 11:06:29.57	235.48	28.83	-37.7	-39.3	16.8	0.00e+00	0	57	0	542113792	45	4713
2026-01-03 11:06:32.60	236.36	29.10	-37.5	-39.0	17.0	0.00e+00	0	57	0	551550976	46	4335
2026-01-03 11:06:35.62	237.26	29.36	-37.5	-39.1	16.9	0.00e+00	0	57	0	560988160	46	4378
2026-01-03 11:06:38.66	238.18	29.62	-37.5	-39.1	17.0	0.00e+00	0	57	0	570425344	46	4362
2026-01-03 11:06:41.69	239.11	29.87	-37.3	-38.8	17.2	0.00e+00	0	57	0	579862528	46	4219
2026-01-03 11:06:44.72	240.05	30.12	-37.2	-38.7	17.3	0.00e+00	0	57	0	589299712	46	4166
2026-01-03 11:06:47.75	241.01	30.36	-37.2	-38.7	17.3	0.00e+00	0	57	0	599785472	46	4174
2026-01-03 11:06:50.78	241.98	30.60	-37.3	-38.8	17.2	0.00e+00	0	57	0	608174080	46	4231
2026-01-03 11:06:53.81	242.96	30.82	-37.6	-39.2	16.9	0.00e+00	0	57	0	618659840	46	4392
2026-01-03 11:06:56.83	243.96	31.04	-37.4	-38.9	17.1	0.00e+00	0	57	0	628097024	46	4270
2026-01-03 11:06:59.86	244.97	31.25	-37.5	-39.0	17.0	0.00e+00	0	57	0	637534208	46	4338
2026-01-03 11:07:02.89	245.99	31.45	-38.0	-39.7	16.4	0.00e+00	0	57	0	646971392	46	4674
2026-01-03 11:07:05.92	247.03	31.65	-37.7	-39.3	16.8	0.00e+00	0	57	0	656408576	46	4458
2026-01-03 11:07:08.95	248.08	31.83	-37.9	-39.6	16.4	0.00e+00	0	57	0	665845760	46	4635
2026-01-03 11:07:11.98	249.14	32.01	-37.9	-39.6	16.5	0.00e+00	0	57	0	675282944	46	4611
2026-01-03 11:07:15.02	250.21	32.17	-38.1	-39.8	16.3	0.00e+00	0	57	0	684720128	46	4718
2026-01-03 11:07:18.05	251.29	32.33	-38.0	-39.6	16.4	0.00e+00	0	57	0	694157312	47	4389
2026-01-03 11:07:21.08	252.38	32.47	-37.8	-39.4	16.7	0.00e+00	0	57	0	703594496	47	4265
2026-01-03 11:07:24.11	253.48	32.61	-37.9	-39.6	16.5	0.00e+00	0	57	0	713031680	47	4342
2026-01-03 11:07:27.14	254.59	32.73	-37.5	-39.1	17.0	0.00e+00	0	57	0	722468864	47	4105
2026-01-03 11:07:30.17	255.71	32.84	-37.8	-39.5	16.6	0.00e+00	0	57	0	731906048	47	4299
2026-01-03 11:07:33.20	256.83	32.94	-37.8	-39.4	16.6	0.00e+00	0	57	0	741343232	47	4288
2026-01-03 11:07:36.23	257.96	33.03	-38.2	-39.9	16.2	0.00e+00	0	57	0	750780416	47	4516
2026-01-03 11:07:39.25	259.09	33.11	-37.9	-39.5	16.5	0.00e+00	0	57	0	760217600	47	4323
2026-01-03 11:07:42.28	260.23	33.17	-37.8	-39.5	16.6	0.00e+00	0	57	0	769654784	47	4296
2026-01-03 11:07:45.31	261.38	33.23	-37.8	-39.4	16.7	0.00e+00	0	57	0	779091968	47	4260
2026-01-03 11:07:48.34	262.52	33.27	-38.1	-39.7	16.4	0.00e+00	0	57	0	788529152	47	4436
2026-01-03 11:07:51.37	263.67	33.29	-38.4	-40.2	16.0	0.00e+00	0	57	0	797966336	47	4662
2026-01-03 11:07:54.40	264.82	33.31	-38.2	-39.9	16.2	0.00e+00	0	57	0	807403520	47	4539
2026-01-03 11:07:57.43	265.98	33.31	-38.0	-39.7	16.4	0.00e+00	0	57	0	816840704	47	4419
2026-01-03 11:08:00.46	267.13	33.30	-37.9	-39.5	16.5	0.00e+00	0	57	0	826277888	47	4302
2026-01-03 11:08:03.49	268.28	33.27	-38.4	-40.1	16.0	0.00e+00	0	57	0	835715072	47	4633
2026-01-03 11:08:06.52	269.42	33.24	-38.2	-39.9	16.2	0.00e+00	0	57	0	845152256	47	4521
2026-01-03 11:08:09.55	270.57	33.19	-38.1	-39.7	16.3	0.00e+00	0	57	0	854589440	47	4441
2026-01-03 11:08:12.58	271.71	33.13	-37.9	-39.5	16.6	0.00e+00	0	57	0	864026624	47	4324
2026-01-03 11:08:15.61	272.84	33.06	-37.7	-39.3	16.7	0.00e+00	0	57	0	873463808	47	4240
2026-01-03 11:08:18.64	273.97	32.97	-37.7	-39.3	16.8	0.00e+00	0	57	0	882900992	47	4221
2026-01-03 11:08:21.67	275.10	32.88	-38.0	-39.7	16.4	0.00e+00	0	57	0	892338176	47	4428
2026-01-03 11:08:24.70	276.21	32.77	-38.1	-39.8	16.3	0.00e+00	0	57	0	901775360	47	4468
2026-01-03 11:08:27.73	277.32	32.65	-37.9	-39.5	16.6	0.00e+00	0	57	0	911212544	47	4329
2026-01-03 11:08:30.76	278.42	32.52	-37.9	-39.6	16.5	0.00e+00	0	57	0	921698304	47	4370
2026-01-03 11:08:33.79	279.51	32.38	-37.8	-39.4	16.6	0.00e+00	0	57	0	930086912	47	4287
2026-01-03 11:08:36.82	280.60	32.22	-37.9	-39.6	16.5	0.00e+00	0	57	0	940572672	47	4353
2026-01-03 11:08:39.85	281.67	32.06	-38.0	-39.7	16.4	0.00e+00	0	57	0	950009856	47	4402
2026-01-03 11:08:42.87	282.72	31.89	-38.0	-39.6	16.4	0.00e+00	0	57	0	959447040	47	4388
2026-01-03 11:08:45.90	283.77	31.71	-38.0	-39.7	16.3	0.00e+00	0	57	0	968884224	47	4424
2026-01-03 11:08:48.93	284.81	31.52	-37.9	-39.6	16.5	0.00e+00	0	57	0	978321408	47	4341
2026-01-03 11:08:51.96	285.84	31.32	-37.9	-39.5	16.5	0.00e+00	0	57	0	987758592	47	4315
2026-01-03 11:08:54.98	286.84	31.11	-37.7	-39.3	16.7	0.00e+00	0	57	0	997195776	47	4242
2026-01-03 11:08:58.01	287.84	30.90	-37.8	-39.4	16.7	0.00e+00	0	57	0	1006632960	47	4253
2026-01-03 11:09:01.04	288.83	30.67	-37.5	-39.0	17.0	0.00e+00	0	57	0	1016070144	46	4329
2026-01-03 11:09:04.08	289.80	30.44	-37.5	-39.0	17.0	0.00e+00	0	57	0	1025507328	46	4325
2026-01-03 11:09:07.11	290.76	30.21	-37.8	-39.4	16.6	0.00e+00	0	57	0	1034944512	46	4534
2026-01-03 11:09:10.14	291.71	29.96	-37.6	-39.2	16.8	0.00e+00	0	57	0	1044381696	46	4416
2026-01-03 11:09:13.16	292.63	29.71	-37.5	-39.0	17.0	0.00e+00	0	57	0	1053818880	46	4332
2026-01-03 11:09:16.19	293.55	29.46	-37.4	-39.0	17.0	0.00e+00	0	57	0	1063256064	46	4294
2026-01-03 11:09:19.22	294.45	29.20	-37.6	-39.2	16.8	0.00e+00	0	57	0	1072693248	46	4406
2026-01-03 11:09:22.25	295.34	28.93	-37.3	-38.8	17.1	0.00e+00	0	57	0	1082130432	46	4238
2026-01-03 11:09:25.28	296.21	28.66	-37.2	-38.8	17.2	0.00e+00	0	57	0	1091567616	46	4198
2026-01-03 11:09:28.31	297.07	28.39	-37.3	-38.8	17.2	0.00e+00	0	57	0	1101004800	46	4219
2026-01-03 11:09:31.34	297.91	28.11	-37.1	-38.6	17.3	0.00e+00	0	57	0	1110441984	46	4125
2026-01-03 11:09:34.37	298.74	27.83	-36.9	-38.3	17.6	0.00e+00	0	57	0	1119879168	45	4217
2026-01-03 11:09:37.40	299.56	27.54	-36.9	-38.3	17.6	0.00e+00	0	57	0	1129316352	45	4224
2026-01-03 11:09:40.43	300.36	27.26	-36.8	-38.2	17.7	0.00e+00	0	57	0	1138753536	45	4171
2026-01-03 11:09:43.46	301.14	26.96	-36.5	-37.9	17.9	0.00e+00	0	57	0	1148190720	45	4044
2026-01-03 11:09:46.49	301.91	26.67	-37.0	-38.5	17.4	0.00e+00	0	57	0	1157627904	45	4304
2026-01-03 11:09:49.52	302.67	26.38	-36.7	-38.2	17.7	0.00e+00	0	57	0	1167065088	45	4160
2026-01-03 11:09:52.55	303.42	26.08	-36.8	-38.2	17.6	0.00e+00	0	57	0	1176502272	45	4187
2026-01-03 11:09:55.58	304.15	25.78	-37.0	-38.5	17.4	0.00e+00	0	57	0	1185939456	45	4296
2026-01-03 11:09:58.61	304.87	25.48	-37.1	-38.6	17.2	0.00e+00	0	57	0	1195376640	45	4372
2026-01-03 11:10:01.64	305.57	25.18	-36.8	-38.3	17.6	0.00e+00	0	57	0	1204813824	45	4220
2026-01-03 11:10:04.66	306.26	24.88	-36.8	-38.2	17.6	0.00e+00	0	57	0	1214251008	45	4185
2026-01-03 11:10:07.69	306.94	24.58	-36.8	-38.2	17.7	0.00e+00	0	57	0	1223688192	45	4174
2026-01-03 11:10:10.73	307.60	24.27	-36.7	-38.2	17.7	0.00e+00	0	57	0	1233125376	45	4152
2026-01-03 11:10:13.76	308.26	23.97	-36.8	-38.3	17.5	0.00e+00	0	57	0	1242562560	45	4220
2026-01-03 11:10:16.79	308.90	23.66	-37.0	-38.5	17.3	0.00e+00	0	57	0	1251999744	45	4331
2026-01-03 11:10:19.82	309.53	23.36	-37.1	-38.6	17.2	0.00e+00	0	57	0	1261436928	45	4381
2026-01-03 11:10:22.85	310.14	23.06	-37.1	-38.7	17.1	0.00e+00	0	57	0	1271922688	45	4393
2026-01-03 11:10:25.88	310.75	22.75	-37.0	-38.5	17.3	0.00e+00	0	57	0	1281359872	45	4325
2026-01-03 11:10:28.91	311.34	22.45	-37.0	-38.5	17.3	0.00e+00	0	57	0	1290797056	45	4318
2026-01-03 11:10:31.94	311.92	22.15	-36.9	-38.4	17.3	0.00e+00	0	57	0	1300234240	45	4276
2026-01-03 11:10:34.98	312.50	21.85	-36.9	-38.4	17.3	0.00e+00	0	57	0	1309671424	45	4283
2026-01-03 11:10:38.00	313.06	21.55	-36.9	-38.3	17.4	0.00e+00	0	57	0	1319108608	45	4228
2026-01-03 11:10:41.03	313.61	21.25	-36.9	-38.3	17.4	0.00e+00	0	57	0	1328545792	45	4241
2026-01-03 11:10:44.06	314.15	20.95	-37.0	-38.5	17.3	0.00e+00	0	57	0	1337982976	45	4321
2026-01-03 11:10:47.09	314.68	20.65	-37.2	-38.8	17.0	0.00e+00	0	57	0	1347420160	45	4446
2026-01-03 11:10:50.13	315.20	20.35	-37.2	-38.7	17.0	0.00e+00	0	57	0	1356857344	45	4431
2026-01-03 11:10:53.16	315.71	20.06	-37.2	-38.8	16.9	0.00e+00	0	57	0	1366294528	45	4475
2026-01-03 11:10:56.19	316.21	19.76	-37.2	-38.8	17.0	0.00e+00	0	57	0	1375731712	45	4468
2026-01-03 11:10:59.22	316.70	19.47	-37.0	-38.5	17.2	0.00e+00	0	57	0	1385168896	45	4337
2026-01-03 11:11:02.25	317.18	19.18	-37.0	-38.6	17.1	0.00e+00	0	57	0	1394606080	45	4360
2026-01-03 11:11:05.28	317.66	18.89	-37.0	-38.5	17.2	0.00e+00	0	57	0	1404043264	45	4329
2026-01-03 11:11:08.31	318.12	18.60	-37.0	-38.6	17.1	0.00e+00	0	57	0	1413480448	45	4351
2026-01-03 11:11:11.34	318.58	18.32	-37.0	-38.6	17.1	0.00e+00	0	57	0	1422917632	45	4353
2026-01-03 11:11:14.38	319.03	18.03	-37.1	-38.6	17.0	0.00e+00	0	57	0	1432354816	45	4386
2026-01-03 11:11:17.41	319.47	17.75	-37.2	-38.8	16.9	0.00e+00	0	57	0	1441792000	45	4450
2026-01-03 11:11:20.44	319.90	17.47	-37.2	-38.7	16.9	0.00e+00	0	57	0	1451229184	45	4425
2026-01-03 11:11:23.47	320.33	17.19	-37.2	-38.8	16.8	0.00e+00	0	57	0	1460666368	45	4467
2026-01-03 11:11:26.50	320.74	16.91	-37.2	-38.8	16.9	0.00e+00	0	57	0	1470103552	45	4457
2026-01-03 11:11:29.53	321.15	16.63	-37.2	-38.8	16.8	0.00e+00	0	57	0	1479540736	45	4477
2026-01-03 11:11:32.57	321.56	16.36	-37.5	-39.2	16.4	0.00e+00	0	57	0	1488977920	45	4660
2026-01-03 11:11:35.60	321.95	16.08	-37.6	-39.3	16.3	0.00e+00	0	57	0	1498415104	45	4716
2026-01-03 11:11:38.62	322.34	15.81	-37.6	-39.3	16.3	0.00e+00	0	57	0	1507852288	45	4759
2026-01-03 11:11:41.65	322.72	15.55	-37.8	-39.6	16.1	0.00e+00	0	57	0	1517289472	46	4600
2026-01-03 11:11:44.68	323.10	15.28	-37.9	-39.7	15.9	0.00e+00	0	57	0	1526726656	46	4705
2026-01-03 11:11:47.71	323.47	15.01	-38.0	-39.8	15.8	0.00e+00	0	57	0	1536163840	46	4732
2026-01-03 11:11:50.75	323.83	14.75	-38.0	-39.7	15.8	0.00e+00	0	57	0	1546649600	46	4697
2026-01-03 11:11:53.78	324.19	14.49	-38.0	-39.8	15.7	0.00e+00	0	57	0	1555038208	46	4752
2026-01-03 11:11:56.81	324.54	14.23	-38.3	-40.1	15.4	0.00e+00	0	57	0	1565523968	47	4642
2026-01-03 11:11:59.84	324.88	13.97	-38.3	-40.2	15.3	0.00e+00	0	57	0	1574961152	47	4686
2026-01-03 11:12:02.83	325.22	13.72	-38.2	-40.1	15.4	0.00e+00	0	57	0	1583349760	47	4615
2026-01-03 11:12:05.86	325.55	13.46	-38.1	-40.0	15.5	0.00e+00	0	57	0	1593835520	47	4549
2026-01-03 11:12:08.89	325.88	13.21	-38.1	-40.0	15.5	7.00e-07	0	57	0	1602224128	47	4567
2026-01-03 11:12:11.92	326.20	12.96	-38.4	-40.3	15.2	0.00e+00	0	57	0	1612709888	47	4737
2026-01-03 11:12:14.95	326.52	12.71	-38.3	-40.3	15.2	0.00e+00	0	57	0	1622147072	47	4710
2026-01-03 11:12:17.98	326.83	12.46	-38.4	-40.4	15.0	0.00e+00	0	57	0	1631584256	47	4776
2026-01-03 11:12:21.00	327.14	12.22	-38.3	-40.2	15.2	0.00e+00	0	57	0	1641021440	47	4677
2026-01-03 11:12:24.03	327.44	11.98	-38.2	-40.2	15.2	0.00e+00	0	57	0	1650458624	47	4653
2026-01-03 11:12:27.06	327.74	11.73	-38.2	-40.1	15.2	0.00e+00	0	57	0	1659895808	47	4643
2026-01-03 11:12:30.09	328.03	11.49	-38.4	-40.3	15.0	0.00e+00	0	57	0	1669332992	47	4750
2026-01-03 11:12:33.12	328.32	11.26	-38.4	-40.4	14.9	0.00e+00	0	57	0	1678770176	47	4788
2026-01-03 11:12:36.16	328.61	11.02	-38.5	-40.5	14.8	0.00e+00	0	57	0	1688207360	47	4853
2026-01-03 11:12:39.19	328.89	10.78	-38.6	-40.7	14.6	0.00e+00	0	57	0	1697644544	47	4957
2026-01-03 11:12:42.22	329.16	10.55	-38.5	-40.5	14.8	0.00e+00	0	57	0	1707081728	47	4841
2026-01-03 11:12:45.25	329.44	10.32	-38.5	-40.6	14.6	0.00e+00	0	57	0	1716518912	47	4903
2026-01-03 11:12:48.28	329.70	10.09	-38.6	-40.7	14.6	0.00e+00	0	57	0	1725956096	48	4695
2026-01-03 11:12:51.30	329.97	9.86	-38.8	-41.0	14.3	1.50e-06	0	57	0	1735393280	48	4851
2026-01-03 11:12:54.34	330.23	9.63	-38.8	-40.9	14.4	1.50e-06	0	57	0	1744830464	48	4794
2026-01-03 11:12:57.37	330.48	9.41	-38.8	-40.9	14.3	0.00e+00	0	57	0	1754267648	48	4810
2026-01-03 11:13:00.40	330.74	9.18	-38.6	-40.7	14.5	0.00e+00	0	57	0	1763704832	48	4694
2026-01-03 11:13:03.43	330.99	8.96	-38.6	-40.7	14.4	3.80e-06	0	57	0	1773142016	48	4700
2026-01-03 11:13:06.45	331.23	8.74	-38.6	-40.7	14.4	0.00e+00	0	57	0	1782579200	48	4697
2026-01-03 11:13:09.49	331.47	8.52	-38.7	-40.8	14.3	7.00e-07	0	57	0	1792016384	48	4748
2026-01-03 11:13:12.52	331.71	8.30	-38.8	-41.0	14.1	7.00e-07	0	57	0	1801453568	48	4838
2026-01-03 11:13:15.55	331.95	8.09	-38.8	-41.1	14.0	7.00e-07	0	57	0	1810890752	48	4880
2026-01-03 11:13:18.58	332.18	7.87	-44.6	-57.0	3.8	1.49e+00	0	57	104	1815085056	59	16156
2026-01-03 11:13:21.61	332.41	7.66	-45.0	-57.6	3.8	1.49e+00	0	57	104	1815085056	60	16409
2026-01-03 11:13:24.64	332.63	7.45	-45.2	-57.7	3.8	1.49e+00	0	57	104	1815085056	60	16689
2026-01-03 11:13:27.67	332.86	7.24	-45.1	-57.7	3.8	1.49e+00	0	58	104	1815085056	60	16660
2026-01-03 11:13:30.70	333.08	7.03	-45.1	-57.7	3.8	1.49e+00	0	57	104	1815085056	60	16679
2026-01-03 11:13:33.73	333.29	6.82	-45.0	-57.7	3.8	1.49e+00	0	57	104	1815085056	60	16543
2026-01-03 11:13:36.76	333.51	6.62	-45.1	-57.7	3.8	1.49e+00	0	57	104	1815085056	60	16599
2026-01-03 11:13:39.80	333.72	6.41	-45.0	-57.7	3.8	1.49e+00	0	57	104	1815085056	60	16533
2026-01-03 11:13:42.83	333.93	6.21	-45.0	-57.6	3.8	1.49e+00	0	57	104	1815085056	60	16476
2026-01-03 11:13:45.86	334.13	6.00	-45.0	-57.6	3.8	1.49e+00	0	57	104	1815085056	60	16474
2026-01-03 11:13:48.90	334.34	5.80	-45.0	-57.6	3.8	1.49e+00	0	57	104	1815085056	60	16474
2026-01-03 11:13:51.93	334.54	5.60	-45.0	-57.6	3.8	1.49e+00	0	57	104	1815085056	60	16427
2026-01-03 11:13:54.96	334.73	5.40	-45.0	-57.6	3.8	1.49e+00	0	57	104	1815085056	60	16450
2026-01-03 11:13:58.00	334.93	5.21	-45.0	-57.6	3.8	1.49e+00	0	57	104	1815085056	60	16458
2026-01-03 11:14:01.02	335.12	5.01	-45.0	-57.6	3.8	1.49e+00	0	57	104	1815085056	60	16490
2026-01-03 11:14:04.06	335.31	4.82	-45.0	-57.6	3.8	1.49e+00	0	57	104	1815085056	60	16455
2026-01-03 11:14:07.09	335.50	4.62	-45.0	-57.6	3.8	1.49e+00	0	57	104	1815085056	60	16445
2026-01-03 11:14:10.12	335.69	4.43	-45.0	-57.6	3.8	1.49e+00	0	57	104	1815085056	60	16480
2026-01-03 11:14:13.15	335.87	4.24	-45.0	-57.6	3.8	1.49e+00	0	57	104	1815085056	60	16461
2026-01-03 11:14:16.18	336.05	4.05	-45.0	-57.6	3.8	1.49e+00	0	57	104	1815085056	60	16450
2026-01-03 11:14:19.21	336.23	3.86	-45.0	-57.6	3.8	1.49e+00	0	57	104	1815085056	60	16469
2026-01-03 11:14:22.25	336.41	3.67	-45.0	-57.6	3.8	1.49e+00	0	57	104	1815085056	60	16444
2026-01-03 11:14:25.28	336.59	3.48	-45.0	-57.6	3.8	1.49e+00	0	58	104	1815085056	60	16435
2026-01-03 11:14:28.32	336.76	3.30	-45.0	-57.6	3.8	1.49e+00	0	57	104	1815085056	60	16433
2026-01-03 11:14:31.35	336.93	3.11	-45.0	-57.6	3.8	1.49e+00	0	57	104	1815085056	60	16453
2026-01-03 11:14:34.38	337.10	2.93	-45.0	-57.6	3.8	1.49e+00	0	57	104	1815085056	60	16427
2026-01-03 11:14:37.41	337.27	2.75	-45.0	-57.6	3.8	1.49e+00	0	57	104	1815085056	60	16385
2026-01-03 11:14:40.44	337.43	2.56	-45.0	-57.6	3.8	1.49e+00	0	58	104	1815085056	60	16392
2026-01-03 11:14:43.48	337.60	2.38	-45.0	-57.6	3.8	1.49e+00	0	57	104	1815085056	60	16340
2026-01-03 11:14:46.51	337.76	2.20	-45.0	-57.6	3.8	1.49e+00	0	57	104	1815085056	60	16341
2026-01-03 11:14:49.54	337.92	2.02	-45.0	-57.6	3.8	1.49e+00	0	57	104	1815085056	60	16414

#Closed at: 2026-01-03 11:14:51
#Recorded file [1815 MB]: D:/lorett/data/31039_260103_140254.dat