passes_logs/2025/01/19/LEX_Murmansk/LEX_Murmansk__20250119_145211_NOAA_19_rec.log

#Pass ID: 20250119_145211_NOAA 19
#Satellite: NOAA 19
#Configuration: NOAA 19
#Start time: 2025-01-19 14:52:06.657952

#LorettStation: 1.0.0 05.05.2024
#Station: LEX_Murmansk
#Location: 33.156738 lon 68.926811 lat
#TLE: 1 33591U 09005A   25019.18116543  .00000338  00000+0  20449-3 0  9996
#TLE: 2 33591  99.0189  82.9757 0014332  46.3357 313.9000 14.13262914822133

#Time	Az	El	Level	SNR
2025-01-19 14:52:18.793245	71.4	16.0	-90.5	2.2
2025-01-19 14:52:19.951055	71.2	16.1	-90.7	4.0
2025-01-19 14:52:21.101530	71.0	16.2	-90.6	8.4
2025-01-19 14:52:22.256599	70.9	16.3	-90.5	12.1
2025-01-19 14:52:23.415917	70.7	16.4	-90.4	12.7
2025-01-19 14:52:24.574787	70.5	16.5	-90.3	8.9
2025-01-19 14:52:25.732956	70.4	16.6	-90.5	5.6
2025-01-19 14:52:26.903878	70.2	16.7	-91.0	6.6
2025-01-19 14:52:28.055505	70.0	16.8	-91.2	5.3
2025-01-19 14:52:29.209273	69.9	16.9	-90.2	8.4
2025-01-19 14:52:30.369030	69.7	17.0	-90.4	10.2
2025-01-19 14:52:31.533537	69.5	17.1	-90.9	11.7
2025-01-19 14:52:32.694015	69.3	17.2	-91.0	10.8
2025-01-19 14:52:33.860780	69.2	17.3	-90.7	7.0
2025-01-19 14:52:35.022194	69.0	17.4	-89.4	4.7
2025-01-19 14:52:36.183960	68.8	17.5	-89.3	2.8
2025-01-19 14:52:37.341971	68.6	17.6	-89.8	4.0
2025-01-19 14:52:38.486734	68.4	17.7	-91.0	3.2
2025-01-19 14:52:39.609242	68.3	17.8	-89.9	4.8
2025-01-19 14:52:40.757303	68.1	17.9	-90.1	8.1
2025-01-19 14:52:41.906893	67.9	18.0	-90.7	13.9
2025-01-19 14:52:43.056763	67.7	18.1	-90.3	9.3
2025-01-19 14:52:44.213913	67.5	18.2	-89.9	7.3
2025-01-19 14:52:45.356799	67.3	18.3	-90.5	8.7
2025-01-19 14:52:46.489380	67.1	18.4	-90.8	5.6
2025-01-19 14:52:47.633545	67.0	18.5	-90.2	10.2
2025-01-19 14:52:48.780412	66.8	18.6	-90.8	8.9
2025-01-19 14:52:49.925109	66.6	18.7	-91.2	11.3
2025-01-19 14:52:51.048167	66.4	18.8	-90.6	3.8
2025-01-19 14:52:52.199885	66.2	18.9	-90.7	7.6
2025-01-19 14:52:53.326680	66.0	19.0	-90.7	5.3
2025-01-19 14:52:54.475615	65.8	19.1	-91.2	4.3
2025-01-19 14:52:55.625720	65.6	19.2	-90.1	1.8
2025-01-19 14:52:56.747340	65.4	19.3	-90.7	3.2
2025-01-19 14:52:57.904381	65.2	19.4	-90.8	2.9
2025-01-19 14:52:59.056490	65.0	19.5	-89.7	4.9
2025-01-19 14:53:00.199645	64.8	19.6	-90.3	6.7
2025-01-19 14:53:01.353220	64.6	19.7	-91.0	7.7
2025-01-19 14:53:02.500427	64.4	19.8	-91.1	11.6
2025-01-19 14:53:03.657804	64.2	19.9	-90.3	9.7
2025-01-19 14:53:04.813577	64.0	20.0	-90.2	6.0
2025-01-19 14:53:05.971842	63.7	20.1	-91.4	5.9
2025-01-19 14:53:07.132078	63.5	20.2	-91.1	6.3
2025-01-19 14:53:08.297308	63.3	20.3	-90.7	5.0
2025-01-19 14:53:09.455639	63.1	20.4	-90.2	6.2
2025-01-19 14:53:10.604153	62.9	20.5	-90.6	8.8
2025-01-19 14:53:11.747672	62.7	20.6	-90.5	11.1
2025-01-19 14:53:12.879268	62.4	20.7	-90.8	11.7
2025-01-19 14:53:14.035641	62.2	20.8	-90.5	9.3
2025-01-19 14:53:15.183819	62.0	20.9	-90.9	9.1
2025-01-19 14:53:16.342644	61.8	21.0	-90.7	2.7
2025-01-19 14:53:17.494546	61.6	21.1	-90.4	1.7
2025-01-19 14:53:18.623455	61.3	21.1	-90.2	5.9
2025-01-19 14:53:19.765381	61.1	21.2	-91.0	4.1
2025-01-19 14:53:20.914133	60.9	21.3	-90.5	5.2
2025-01-19 14:53:22.046418	60.6	21.4	-90.5	8.4
2025-01-19 14:53:23.179314	60.4	21.5	-90.8	10.5
2025-01-19 14:53:24.332490	60.2	21.6	-90.7	13.5
2025-01-19 14:53:25.475112	59.9	21.7	-90.8	12.7
2025-01-19 14:53:26.629308	59.7	21.8	-90.6	11.4
2025-01-19 14:53:27.779621	59.5	21.9	-91.1	10.3
2025-01-19 14:53:28.936010	59.2	22.0	-90.9	8.4
2025-01-19 14:53:30.094750	59.0	22.1	-89.6	8.8
2025-01-19 14:53:31.256648	58.7	22.2	-90.2	7.0
2025-01-19 14:53:32.413073	58.5	22.3	-90.7	11.3
2025-01-19 14:53:33.541710	58.3	22.4	-90.8	15.4
2025-01-19 14:53:34.688534	58.0	22.5	-89.9	13.2
2025-01-19 14:53:35.841739	57.8	22.6	-90.6	18.2
2025-01-19 14:53:36.985675	57.5	22.7	-91.2	10.5
2025-01-19 14:53:38.146361	57.3	22.8	-91.3	6.5
2025-01-19 14:53:39.297268	57.0	22.9	-90.7	3.8
2025-01-19 14:53:40.422094	56.7	23.0	-91.1	4.5
2025-01-19 14:53:41.546482	56.5	23.1	-91.2	3.8
2025-01-19 14:53:42.692094	56.2	23.2	-90.8	4.0
2025-01-19 14:53:43.829780	56.0	23.3	-91.2	4.0
2025-01-19 14:53:44.991493	55.7	23.4	-90.8	5.0
2025-01-19 14:53:46.147489	55.5	23.5	-90.8	8.2
2025-01-19 14:53:47.286579	55.2	23.6	-90.5	7.4
2025-01-19 14:53:48.413936	54.9	23.7	-91.0	10.1
2025-01-19 14:53:49.573170	54.7	23.7	-90.8	11.3
2025-01-19 14:53:50.728135	54.4	23.8	-90.5	9.2
2025-01-19 14:53:51.880530	54.1	23.9	-90.9	10.5
2025-01-19 14:53:53.002831	53.8	24.0	-91.3	8.7
2025-01-19 14:53:54.163867	53.6	24.1	-90.8	4.2
2025-01-19 14:53:55.306537	53.3	24.2	-90.6	5.8
2025-01-19 14:53:56.461026	53.0	24.3	-91.1	6.7
2025-01-19 14:53:57.610076	52.7	24.4	-91.2	10.1
2025-01-19 14:53:58.764620	52.5	24.5	-90.9	5.0
2025-01-19 14:53:59.933601	52.2	24.6	-90.9	8.5
2025-01-19 14:54:01.054386	51.9	24.7	-91.1	9.6
2025-01-19 14:54:02.216762	51.6	24.7	-91.3	7.5
2025-01-19 14:54:03.362057	51.3	24.8	-90.8	6.3
2025-01-19 14:54:04.525786	51.0	24.9	-90.1	5.8
2025-01-19 14:54:05.685933	50.7	25.0	-90.4	4.3
2025-01-19 14:54:06.822435	50.4	25.1	-91.5	2.4
2025-01-19 14:54:07.948656	50.2	25.2	-90.7	3.4
2025-01-19 14:54:09.103365	49.9	25.3	-90.8	3.2
2025-01-19 14:54:10.254561	49.6	25.3	-91.1	1.5
2025-01-19 14:54:11.413943	49.3	25.4	-90.4	5.7
2025-01-19 14:54:12.575845	49.0	25.5	-90.3	9.6
2025-01-19 14:54:13.723499	48.7	25.6	-90.4	8.4
2025-01-19 14:54:14.867357	48.3	25.7	-91.2	9.1
2025-01-19 14:54:15.997823	48.0	25.8	-90.7	8.9
2025-01-19 14:54:17.150399	47.7	25.8	-90.0	8.9
2025-01-19 14:54:18.276688	47.4	25.9	-91.3	4.4
2025-01-19 14:54:19.406985	47.1	26.0	-90.4	8.8
2025-01-19 14:54:20.557393	46.8	26.1	-89.7	4.1
2025-01-19 14:54:21.701324	46.5	26.2	-89.3	6.3
2025-01-19 14:54:22.828255	46.2	26.2	-90.7	3.8
2025-01-19 14:54:23.987962	45.9	26.3	-90.4	7.9
2025-01-19 14:54:25.144264	45.6	26.4	-90.4	5.6
2025-01-19 14:54:26.286667	45.3	26.5	-90.8	4.0
2025-01-19 14:54:27.426055	44.9	26.5	-90.9	7.5
2025-01-19 14:54:28.572765	44.6	26.6	-90.0	9.2
2025-01-19 14:54:29.719502	44.3	26.7	-90.2	9.0
2025-01-19 14:54:30.877165	44.0	26.8	-91.1	6.6
2025-01-19 14:54:32.005307	43.6	26.8	-90.4	6.2
2025-01-19 14:54:33.134688	43.3	26.9	-90.7	9.0
2025-01-19 14:54:34.284991	43.0	27.0	-91.1	5.9
2025-01-19 14:54:35.430091	42.7	27.0	-90.9	4.7
2025-01-19 14:54:36.590890	42.3	27.1	-90.2	4.2
2025-01-19 14:54:37.752549	42.0	27.2	-89.7	1.3
2025-01-19 14:54:38.919162	41.7	27.2	-91.0	3.2
2025-01-19 14:54:40.073794	41.3	27.3	-91.0	3.0
2025-01-19 14:54:41.233623	41.0	27.4	-90.9	1.2
2025-01-19 14:54:42.385191	40.6	27.4	-90.3	3.2
2025-01-19 14:54:43.531944	40.3	27.5	-90.7	7.8
2025-01-19 14:54:44.667804	40.0	27.5	-91.0	9.0
2025-01-19 14:54:45.804909	39.6	27.6	-90.0	6.3
2025-01-19 14:54:46.963862	39.3	27.7	-90.2	7.3
2025-01-19 14:54:48.116377	38.9	27.7	-90.6	12.1
2025-01-19 14:54:49.271780	38.6	27.8	-90.5	10.5
2025-01-19 14:54:50.427084	38.2	27.8	-89.7	11.4
2025-01-19 14:54:51.585987	37.9	27.9	-90.1	7.6
2025-01-19 14:54:52.713983	37.5	27.9	-90.7	5.2
2025-01-19 14:54:53.855152	37.2	28.0	-90.7	3.3
2025-01-19 14:54:55.009033	36.8	28.0	-90.2	2.9
2025-01-19 14:54:56.164601	36.5	28.1	-90.4	3.9
2025-01-19 14:54:57.320286	36.1	28.1	-91.0	3.4
2025-01-19 14:54:58.480822	35.8	28.2	-90.8	4.1
2025-01-19 14:54:59.637359	35.4	28.2	-90.3	5.9
2025-01-19 14:55:00.787627	35.0	28.3	-90.1	6.4
2025-01-19 14:55:01.941855	34.7	28.3	-91.5	5.4
2025-01-19 14:55:03.071685	34.3	28.4	-90.7	7.3
2025-01-19 14:55:04.227716	34.0	28.4	-89.5	8.6
2025-01-19 14:55:05.377234	33.6	28.5	-90.6	8.9
2025-01-19 14:55:06.519213	33.2	28.5	-91.2	8.8
2025-01-19 14:55:07.662025	32.9	28.5	-90.1	10.1
2025-01-19 14:55:08.824089	32.5	28.6	-90.0	9.0
2025-01-19 14:55:09.973706	32.1	28.6	-90.5	13.2
2025-01-19 14:55:11.137823	31.8	28.6	-91.0	11.6
2025-01-19 14:55:12.284824	31.4	28.7	-90.8	9.2
2025-01-19 14:55:13.411998	31.1	28.7	-89.9	6.7
2025-01-19 14:55:14.542785	30.7	28.7	-91.3	4.9
2025-01-19 14:55:15.690866	30.3	28.8	-90.9	2.8
2025-01-19 14:55:16.842273	30.0	28.8	-90.1	3.3
2025-01-19 14:55:17.965509	29.6	28.8	-91.7	4.1
2025-01-19 14:55:19.123433	29.2	28.9	-90.9	1.8
2025-01-19 14:55:20.261346	28.8	28.9	-90.7	2.2
2025-01-19 14:55:21.429105	28.5	28.9	-90.3	2.1
2025-01-19 14:55:22.579446	28.1	28.9	-91.1	3.0
2025-01-19 14:55:23.702502	27.7	28.9	-90.7	1.9
2025-01-19 14:55:24.826629	27.4	29.0	-90.5	3.3
2025-01-19 14:55:25.972130	27.0	29.0	-91.1	4.5
2025-01-19 14:55:27.106608	26.6	29.0	-90.2	3.3
2025-01-19 14:55:28.241178	26.3	29.0	-90.2	2.3
2025-01-19 14:55:29.385309	25.9	29.0	-91.0	7.0
2025-01-19 14:55:30.520610	25.5	29.0	-91.0	7.7
2025-01-19 14:55:31.676716	25.1	29.0	-90.0	5.8
2025-01-19 14:55:32.835814	24.8	29.1	-90.2	5.8
2025-01-19 14:55:33.993125	24.4	29.1	-90.6	6.9
2025-01-19 14:55:35.143484	24.0	29.1	-90.5	8.6
2025-01-19 14:55:36.299038	23.6	29.1	-89.5	6.1
2025-01-19 14:55:37.452787	23.2	29.1	-89.7	7.0
2025-01-19 14:55:38.580530	22.9	29.1	-90.8	10.1
2025-01-19 14:55:39.729200	22.5	29.1	-90.8	9.7
2025-01-19 14:55:40.876875	22.1	29.1	-90.0	10.2
2025-01-19 14:55:42.022977	21.8	29.1	-90.0	9.1
2025-01-19 14:55:43.175238	21.4	29.1	-90.7	7.9
2025-01-19 14:55:44.333996	21.0	29.1	-90.6	6.5
2025-01-19 14:55:45.499288	20.6	29.1	-90.0	5.7
2025-01-19 14:55:46.660250	20.2	29.1	-90.2	4.5
2025-01-19 14:55:47.822089	19.9	29.1	-90.7	4.1
2025-01-19 14:55:48.978391	19.5	29.0	-90.9	5.5
2025-01-19 14:55:50.112972	19.1	29.0	-90.6	7.5
2025-01-19 14:55:51.264114	18.7	29.0	-90.8	3.5
2025-01-19 14:55:52.417869	18.4	29.0	-90.4	4.8
2025-01-19 14:55:53.564437	18.0	29.0	-90.8	6.3
2025-01-19 14:55:54.715084	17.6	29.0	-90.0	3.5
2025-01-19 14:55:55.866496	17.2	29.0	-90.2	5.2
2025-01-19 14:55:57.015956	16.9	28.9	-91.0	5.2
2025-01-19 14:55:58.174666	16.5	28.9	-91.0	1.0
2025-01-19 14:55:59.328448	16.1	28.9	-89.7	3.6
2025-01-19 14:56:00.482201	15.7	28.9	-89.7	5.2
2025-01-19 14:56:01.644617	15.4	28.8	-90.7	6.5
2025-01-19 14:56:02.803079	15.0	28.8	-91.1	2.7
2025-01-19 14:56:03.955348	14.6	28.8	-90.9	4.5
2025-01-19 14:56:05.123332	14.2	28.8	-89.1	4.1
2025-01-19 14:56:06.281551	13.9	28.7	-89.7	3.4
2025-01-19 14:56:07.447967	13.5	28.7	-90.6	4.7
2025-01-19 14:56:08.608305	13.1	28.7	-91.1	6.0
2025-01-19 14:56:09.769936	12.8	28.6	-90.7	3.3
2025-01-19 14:56:10.927686	12.4	28.6	-89.8	4.0
2025-01-19 14:56:12.084947	12.0	28.6	-90.2	3.1
2025-01-19 14:56:13.226553	11.7	28.5	-91.3	3.6
2025-01-19 14:56:14.362045	11.3	28.5	-90.9	3.7
2025-01-19 14:56:15.521446	10.9	28.4	-90.5	0.6
2025-01-19 14:56:16.668197	10.6	28.4	-91.0	4.3
2025-01-19 14:56:17.828388	10.2	28.4	-91.3	5.1
2025-01-19 14:56:18.980967	9.9	28.3	-90.9	1.5
2025-01-19 14:56:20.133697	9.5	28.3	-90.6	4.5
2025-01-19 14:56:21.292957	9.1	28.2	-90.7	5.4
2025-01-19 14:56:22.454541	8.8	28.2	-91.0	7.6
2025-01-19 14:56:23.603173	8.4	28.1	-91.3	7.9
2025-01-19 14:56:24.778971	8.1	28.1	-91.1	4.5
2025-01-19 14:56:25.933459	7.7	28.0	-90.8	4.0
2025-01-19 14:56:27.093211	7.4	28.0	-90.7	4.2
2025-01-19 14:56:28.256459	7.0	27.9	-91.2	2.4
2025-01-19 14:56:29.423995	6.7	27.9	-91.2	3.0
2025-01-19 14:56:30.583490	6.3	27.8	-90.6	7.3
2025-01-19 14:56:31.744688	6.0	27.8	-90.2	4.2
2025-01-19 14:56:32.897394	5.6	27.7	-90.4	6.8
2025-01-19 14:56:34.027134	5.3	27.6	-91.0	11.1
2025-01-19 14:56:35.178426	4.9	27.6	-90.3	6.4
2025-01-19 14:56:36.326808	4.6	27.5	-90.2	6.8
2025-01-19 14:56:37.481941	4.2	27.5	-90.7	7.2
2025-01-19 14:56:38.632466	3.9	27.4	-91.0	5.8
2025-01-19 14:56:39.792603	3.6	27.3	-90.3	5.3
2025-01-19 14:56:40.953272	3.2	27.3	-89.4	7.1
2025-01-19 14:56:42.111815	2.9	27.2	-89.6	6.2
2025-01-19 14:56:43.252911	2.6	27.1	-90.8	3.6
2025-01-19 14:56:44.393237	2.2	27.1	-90.2	4.4
2025-01-19 14:56:45.537696	1.9	27.0	-90.4	6.8
2025-01-19 14:56:46.666243	1.6	26.9	-91.3	3.9
2025-01-19 14:56:47.823805	1.2	26.9	-90.7	5.4
2025-01-19 14:56:48.971670	0.9	26.8	-90.4	7.1
2025-01-19 14:56:50.124737	0.6	26.7	-90.7	6.9
2025-01-19 14:56:51.273150	0.3	26.6	-91.2	1.4
2025-01-19 14:56:52.427471	360.0	26.6	-91.0	7.1
2025-01-19 14:56:53.587199	359.6	26.5	-90.4	5.6
2025-01-19 14:56:54.741010	359.3	26.4	-90.4	5.9
2025-01-19 14:56:55.909947	359.0	26.3	-90.5	4.1
2025-01-19 14:56:57.066959	358.7	26.3	-90.9	4.1
2025-01-19 14:56:58.226006	358.4	26.2	-90.4	3.8
2025-01-19 14:56:59.378313	358.0	26.1	-89.4	6.0
2025-01-19 14:57:00.535936	357.7	26.0	-90.0	5.2
2025-01-19 14:57:01.700420	357.4	26.0	-91.1	1.6
2025-01-19 14:57:02.863932	357.1	25.9	-91.1	5.0
2025-01-19 14:57:04.026670	356.8	25.8	-90.5	6.5
2025-01-19 14:57:05.185588	356.5	25.7	-89.8	3.8
2025-01-19 14:57:06.352873	356.2	25.6	-90.0	2.0
2025-01-19 14:57:07.506732	355.9	25.5	-91.4	5.2
2025-01-19 14:57:08.666265	355.6	25.5	-91.2	3.4
2025-01-19 14:57:09.820860	355.3	25.4	-89.6	4.2
2025-01-19 14:57:10.965980	355.0	25.3	-90.0	6.4
2025-01-19 14:57:12.113857	354.7	25.2	-91.0	8.6
2025-01-19 14:57:13.266212	354.4	25.1	-90.7	5.5
2025-01-19 14:57:14.404152	354.1	25.0	-89.8	8.3
2025-01-19 14:57:15.531107	353.8	25.0	-90.5	6.4
2025-01-19 14:57:16.662576	353.5	24.9	-90.4	6.8
2025-01-19 14:57:17.797321	353.2	24.8	-90.0	7.0
2025-01-19 14:57:18.923496	353.0	24.7	-90.9	10.4
2025-01-19 14:57:20.073372	352.7	24.6	-91.0	11.1
2025-01-19 14:57:21.219817	352.4	24.5	-89.4	6.6
2025-01-19 14:57:22.350198	352.1	24.4	-90.6	8.2
2025-01-19 14:57:23.500989	351.8	24.3	-90.7	8.9
2025-01-19 14:57:24.650054	351.6	24.3	-90.0	9.8
2025-01-19 14:57:25.801312	351.3	24.2	-89.4	7.7
2025-01-19 14:57:26.959381	351.0	24.1	-90.8	7.6
2025-01-19 14:57:28.123174	350.7	24.0	-90.8	10.9
2025-01-19 14:57:29.250668	350.5	23.9	-89.1	6.6
2025-01-19 14:57:30.400082	350.2	23.8	-89.3	7.6
2025-01-19 14:57:31.548124	349.9	23.7	-90.8	8.9
2025-01-19 14:57:32.702595	349.7	23.6	-90.8	13.0
2025-01-19 14:57:33.862839	349.4	23.5	-90.1	11.3
2025-01-19 14:57:34.992545	349.1	23.4	-89.9	8.7
2025-01-19 14:57:36.153584	348.9	23.3	-90.6	10.0
2025-01-19 14:57:37.307915	348.6	23.2	-90.8	9.6
2025-01-19 14:57:38.460690	348.4	23.1	-90.2	9.7
2025-01-19 14:57:39.615119	348.1	23.0	-90.2	7.8
2025-01-19 14:57:40.774865	347.8	23.0	-90.9	4.2
2025-01-19 14:57:41.936252	347.6	22.9	-90.8	3.5
2025-01-19 14:57:43.092015	347.3	22.8	-90.4	2.8
2025-01-19 14:57:44.248583	347.1	22.7	-89.9	3.3
2025-01-19 14:57:45.409794	346.8	22.6	-90.3	2.9
2025-01-19 14:57:46.568202	346.6	22.5	-90.8	5.0
2025-01-19 14:57:47.696727	346.3	22.4	-91.0	5.3
2025-01-19 14:57:48.839454	346.1	22.3	-90.1	2.8
2025-01-19 14:57:49.993743	345.9	22.2	-90.6	5.7
2025-01-19 14:57:51.138712	345.6	22.1	-90.9	3.7
2025-01-19 14:57:52.290514	345.4	22.0	-90.3	4.5
2025-01-19 14:57:53.449294	345.1	21.9	-89.4	4.0
2025-01-19 14:57:54.607835	344.9	21.8	-90.2	6.3
2025-01-19 14:57:55.760736	344.7	21.7	-91.2	7.0
2025-01-19 14:57:56.907793	344.4	21.6	-90.7	10.4
2025-01-19 14:57:58.034917	344.2	21.5	-90.0	6.7
2025-01-19 14:57:59.178968	344.0	21.4	-91.3	10.5
2025-01-19 14:58:00.309927	343.7	21.3	-90.3	10.7
2025-01-19 14:58:01.461724	343.5	21.2	-89.8	9.4
2025-01-19 14:58:02.596791	343.3	21.1	-90.6	4.8
2025-01-19 14:58:03.724780	343.1	21.0	-90.6	5.9
2025-01-19 14:58:04.877654	342.8	20.9	-89.4	7.6
2025-01-19 14:58:06.008173	342.6	20.8	-90.2	6.9
2025-01-19 14:58:07.140091	342.4	20.7	-90.7	5.3
2025-01-19 14:58:08.278498	342.2	20.6	-89.8	4.6
2025-01-19 14:58:09.403406	342.0	20.5	-90.9	4.3
2025-01-19 14:58:10.551435	341.8	20.4	-91.0	2.3
2025-01-19 14:58:11.677536	341.6	20.3	-90.2	1.2
2025-01-19 14:58:12.831235	341.3	20.2	-91.1	1.6
2025-01-19 14:58:13.973857	341.1	20.1	-91.1	3.2
2025-01-19 14:58:15.112887	340.9	20.0	-90.0	2.3
2025-01-19 14:58:16.264659	340.7	19.9	-89.9	3.7
2025-01-19 14:58:17.414475	340.5	19.8	-91.0	3.4
2025-01-19 14:58:18.573603	340.3	19.7	-91.4	3.0
2025-01-19 14:58:19.737074	340.1	19.6	-90.2	2.8
2025-01-19 14:58:20.888815	339.9	19.5	-89.2	1.6
2025-01-19 14:58:22.029774	339.7	19.4	-90.1	3.3
2025-01-19 14:58:23.152875	339.5	19.3	-90.0	1.1
2025-01-19 14:58:24.294673	339.3	19.2	-89.0	3.4
2025-01-19 14:58:25.423525	339.1	19.1	-90.6	4.1
2025-01-19 14:58:26.567989	338.9	19.0	-91.0	2.0
2025-01-19 14:58:27.715994	338.7	18.9	-89.8	3.6
2025-01-19 14:58:28.869761	338.5	18.8	-89.8	1.7
2025-01-19 14:58:30.016829	338.3	18.7	-90.4	1.4
2025-01-19 14:58:31.141027	338.1	18.7	-89.8	2.4
2025-01-19 14:58:32.290779	337.9	18.6	-89.9	4.1
2025-01-19 14:58:33.438714	337.7	18.5	-90.5	2.0
2025-01-19 14:58:34.594826	337.6	18.4	-90.5	4.2
2025-01-19 14:58:35.744918	337.4	18.3	-90.3	2.5
2025-01-19 14:58:36.896262	337.2	18.2	-90.3	1.9
2025-01-19 14:58:38.046324	337.0	18.1	-90.8	2.6
2025-01-19 14:58:39.172916	336.8	18.0	-90.1	2.1
2025-01-19 14:58:40.331780	336.6	17.9	-89.4	3.0
2025-01-19 14:58:41.474502	336.5	17.8	-89.4	2.8
2025-01-19 14:58:42.630835	336.3	17.7	-90.6	1.8
2025-01-19 14:58:43.783488	336.1	17.6	-90.2	2.4
2025-01-19 14:58:44.943139	335.9	17.5	-88.9	3.1
2025-01-19 14:58:46.092822	335.7	17.4	-89.8	3.0
2025-01-19 14:58:47.248182	335.6	17.3	-91.2	1.8
2025-01-19 14:58:48.407763	335.4	17.2	-90.7	3.8
2025-01-19 14:58:49.566499	335.2	17.1	-89.3	3.0
2025-01-19 14:58:50.723671	335.0	17.0	-89.4	3.2
2025-01-19 14:58:51.844015	334.9	16.9	-91.4	2.5
2025-01-19 14:58:52.997479	334.7	16.8	-91.4	2.1
2025-01-19 14:58:54.142869	334.5	16.7	-90.5	1.1
2025-01-19 14:58:55.294243	334.4	16.6	-90.6	1.5
2025-01-19 14:58:56.452181	334.2	16.5	-91.1	2.7
2025-01-19 14:58:57.605427	334.0	16.4	-91.1	1.1
2025-01-19 14:58:58.759417	333.9	16.3	-90.1	2.7
2025-01-19 14:58:59.915189	333.7	16.2	-90.6	2.3
2025-01-19 14:59:01.067562	333.5	16.1	-91.1	2.7
2025-01-19 14:59:02.223625	333.4	16.0	-90.9	1.9
2025-01-19 14:59:03.377791	333.2	15.9	-90.4	4.2
2025-01-19 14:59:04.503332	333.1	15.8	-90.6	4.0
2025-01-19 14:59:05.662330	332.9	15.7	-90.8	2.0
2025-01-19 14:59:06.808545	332.7	15.6	-90.1	3.4
2025-01-19 14:59:07.948187	332.6	15.5	-88.9	2.4
2025-01-19 14:59:09.079513	332.4	15.4	-91.4	2.8
2025-01-19 14:59:10.225335	332.3	15.3	-90.0	5.7
2025-01-19 14:59:11.375817	332.1	15.3	-88.6	5.5
2025-01-19 14:59:12.520086	332.0	15.2	-90.2	2.2
2025-01-19 14:59:13.672694	331.8	15.1	-91.4	2.5
2025-01-19 14:59:14.830994	331.7	15.0	-90.1	1.7
2025-01-19 14:59:15.987290	331.5	14.9	-88.8	4.6
2025-01-19 14:59:17.143875	331.4	14.8	-89.3	4.4
2025-01-19 14:59:18.268831	331.2	14.7	-91.1	0.3
2025-01-19 14:59:19.416454	331.1	14.6	-90.8	3.7
#Closed at: 2025-01-19 14:52:11.611598