passes_logs/2025/01/19/LEX_Murmansk/LEX_Murmansk__20250119_151715_NOAA_18_rec.log

#Pass ID: 20250119_151715_NOAA 18
#Satellite: NOAA 18
#Configuration: NOAA 18
#Start time: 2025-01-19 15:17:10.060255

#LorettStation: 1.0.0 05.05.2024
#Station: LEX_Murmansk
#Location: 33.156738 lon 68.926811 lat
#TLE: 1 28654U 05018A   25019.12683114  .00000403  00000+0  23745-3 0  9992
#TLE: 2 28654  98.8559 100.1402 0014536 167.7337 192.4191 14.13490232 13765

#Time	Az	El	Level	SNR
2025-01-19 15:17:22.269770	54.6	15.9	-90.4	3.5
2025-01-19 15:17:23.426074	54.4	16.0	-90.6	6.7
2025-01-19 15:17:24.569760	54.2	16.1	-90.5	4.5
2025-01-19 15:17:25.717164	54.1	16.2	-90.6	8.7
2025-01-19 15:17:26.843161	53.9	16.3	-90.3	5.8
2025-01-19 15:17:27.987239	53.7	16.3	-90.9	3.6
2025-01-19 15:17:29.130708	53.5	16.4	-90.6	3.8
2025-01-19 15:17:30.275058	53.3	16.5	-90.8	8.6
2025-01-19 15:17:31.427179	53.1	16.6	-90.8	5.0
2025-01-19 15:17:32.576549	52.9	16.7	-91.0	8.3
2025-01-19 15:17:33.722391	52.8	16.8	-90.6	11.9
2025-01-19 15:17:34.866230	52.6	16.8	-90.9	9.9
2025-01-19 15:17:36.011230	52.4	16.9	-90.6	8.2
2025-01-19 15:17:37.159265	52.2	17.0	-90.4	9.7
2025-01-19 15:17:38.310122	52.0	17.1	-90.4	11.2
2025-01-19 15:17:39.455276	51.8	17.2	-90.8	5.2
2025-01-19 15:17:40.602771	51.6	17.3	-90.7	6.0
2025-01-19 15:17:41.755974	51.4	17.4	-90.8	7.6
2025-01-19 15:17:42.908792	51.2	17.4	-91.1	5.3
2025-01-19 15:17:44.060939	51.0	17.5	-90.9	4.6
2025-01-19 15:17:45.207927	50.8	17.6	-90.4	10.1
2025-01-19 15:17:46.352222	50.6	17.7	-90.6	8.5
2025-01-19 15:17:47.501705	50.4	17.8	-90.7	5.4
2025-01-19 15:17:48.657852	50.2	17.9	-90.8	8.7
2025-01-19 15:17:49.824369	50.0	18.0	-91.0	10.4
2025-01-19 15:17:50.977091	49.8	18.0	-91.1	4.9
2025-01-19 15:17:52.127628	49.6	18.1	-90.4	9.1
2025-01-19 15:17:53.274941	49.4	18.2	-90.5	9.5
2025-01-19 15:17:54.426143	49.2	18.3	-90.9	7.9
2025-01-19 15:17:55.576596	49.0	18.4	-90.9	8.6
2025-01-19 15:17:56.734130	48.7	18.5	-90.9	8.5
2025-01-19 15:17:57.891219	48.5	18.5	-91.1	9.3
2025-01-19 15:17:59.048660	48.3	18.6	-90.9	10.3
2025-01-19 15:18:00.197078	48.1	18.7	-90.6	8.1
2025-01-19 15:18:01.354131	47.9	18.8	-90.9	10.8
2025-01-19 15:18:02.500517	47.7	18.9	-91.4	8.1
2025-01-19 15:18:03.655799	47.4	19.0	-91.2	11.6
2025-01-19 15:18:04.810989	47.2	19.1	-91.4	12.2
2025-01-19 15:18:05.959644	47.0	19.1	-90.8	8.8
2025-01-19 15:18:07.105939	46.8	19.2	-91.0	10.8
2025-01-19 15:18:08.254065	46.6	19.3	-91.0	9.1
2025-01-19 15:18:09.406345	46.3	19.4	-91.3	3.9
2025-01-19 15:18:10.557456	46.1	19.5	-90.9	4.5
2025-01-19 15:18:11.706069	45.9	19.5	-90.7	7.6
2025-01-19 15:18:12.855386	45.7	19.6	-91.0	10.3
2025-01-19 15:18:14.010440	45.4	19.7	-90.7	5.5
2025-01-19 15:18:15.145792	45.2	19.8	-90.1	7.1
2025-01-19 15:18:16.281613	45.0	19.9	-90.6	9.6
2025-01-19 15:18:17.429500	44.7	20.0	-91.1	9.4
2025-01-19 15:18:18.580288	44.5	20.0	-90.7	7.7
2025-01-19 15:18:19.734004	44.3	20.1	-90.9	8.0
2025-01-19 15:18:20.890004	44.0	20.2	-90.6	10.9
2025-01-19 15:18:22.036097	43.8	20.3	-90.6	9.2
2025-01-19 15:18:23.193778	43.5	20.4	-90.4	9.8
2025-01-19 15:18:24.338226	43.3	20.4	-90.8	11.6
2025-01-19 15:18:25.490094	43.1	20.5	-90.6	8.4
2025-01-19 15:18:26.641369	42.8	20.6	-90.5	7.1
2025-01-19 15:18:27.787601	42.6	20.7	-90.5	6.7
2025-01-19 15:18:28.942144	42.3	20.7	-90.4	8.3
2025-01-19 15:18:30.092745	42.1	20.8	-90.5	15.2
2025-01-19 15:18:31.239579	41.8	20.9	-90.5	9.3
2025-01-19 15:18:32.387711	41.6	21.0	-90.4	12.1
2025-01-19 15:18:33.536492	41.3	21.1	-90.2	11.1
2025-01-19 15:18:34.686953	41.1	21.1	-90.5	15.4
2025-01-19 15:18:35.808757	40.8	21.2	-91.0	17.1
2025-01-19 15:18:36.929311	40.6	21.3	-90.5	8.6
2025-01-19 15:18:38.051146	40.3	21.4	-90.9	7.3
2025-01-19 15:18:39.171592	40.1	21.4	-90.9	14.1
2025-01-19 15:18:40.293642	39.8	21.5	-90.4	11.7
2025-01-19 15:18:41.415519	39.6	21.6	-90.2	6.2
2025-01-19 15:18:42.536841	39.3	21.6	-90.6	4.9
2025-01-19 15:18:43.661576	39.1	21.7	-90.6	9.5
2025-01-19 15:18:44.787801	38.8	21.8	-90.8	10.8
2025-01-19 15:18:45.939397	38.5	21.9	-90.7	10.3
2025-01-19 15:18:47.086475	38.3	21.9	-90.6	10.5
2025-01-19 15:18:48.242652	38.0	22.0	-90.6	9.6
2025-01-19 15:18:49.382087	37.7	22.1	-90.6	9.1
2025-01-19 15:18:50.539336	37.5	22.1	-91.3	9.2
2025-01-19 15:18:51.691368	37.2	22.2	-91.0	11.3
2025-01-19 15:18:52.836504	36.9	22.3	-90.6	13.2
2025-01-19 15:18:53.978069	36.7	22.3	-90.6	9.9
2025-01-19 15:18:55.105074	36.4	22.4	-90.7	11.1
2025-01-19 15:18:56.238332	36.1	22.5	-90.7	9.3
2025-01-19 15:18:57.376993	35.8	22.5	-90.1	11.4
2025-01-19 15:18:58.515801	35.6	22.6	-90.5	12.1
2025-01-19 15:18:59.659192	35.3	22.7	-90.6	8.3
2025-01-19 15:19:00.799647	35.0	22.7	-90.5	10.6
2025-01-19 15:19:01.943362	34.7	22.8	-90.5	11.8
2025-01-19 15:19:03.095814	34.4	22.9	-90.6	10.4
2025-01-19 15:19:04.240769	34.2	22.9	-90.3	15.5
2025-01-19 15:19:05.403385	33.9	23.0	-90.7	9.5
2025-01-19 15:19:06.552747	33.6	23.1	-90.9	7.4
2025-01-19 15:19:07.698593	33.3	23.1	-90.8	12.2
2025-01-19 15:19:08.845115	33.0	23.2	-91.0	7.6
2025-01-19 15:19:09.991880	32.7	23.2	-91.0	6.0
2025-01-19 15:19:11.146573	32.4	23.3	-90.5	10.8
2025-01-19 15:19:12.296654	32.1	23.4	-90.6	15.3
2025-01-19 15:19:13.445297	31.9	23.4	-90.7	11.2
2025-01-19 15:19:14.591867	31.6	23.5	-90.1	13.9
2025-01-19 15:19:15.739401	31.3	23.5	-90.8	10.4
2025-01-19 15:19:16.887670	31.0	23.6	-90.7	14.9
2025-01-19 15:19:18.042931	30.7	23.7	-90.5	12.2
2025-01-19 15:19:19.195174	30.4	23.7	-91.0	13.7
2025-01-19 15:19:20.342245	30.1	23.8	-90.4	14.8
2025-01-19 15:19:21.489418	29.8	23.8	-90.7	10.0
2025-01-19 15:19:22.646859	29.5	23.9	-90.8	7.8
2025-01-19 15:19:23.800229	29.2	23.9	-91.3	13.9
2025-01-19 15:19:24.954058	28.9	24.0	-91.0	9.1
2025-01-19 15:19:26.101072	28.6	24.0	-90.6	13.2
2025-01-19 15:19:27.246876	28.3	24.1	-90.6	12.3
2025-01-19 15:19:28.395709	27.9	24.1	-90.8	9.1
2025-01-19 15:19:29.545318	27.6	24.2	-90.8	11.7
2025-01-19 15:19:30.694722	27.3	24.2	-90.5	14.8
2025-01-19 15:19:31.839265	27.0	24.3	-90.5	16.4
2025-01-19 15:19:32.998788	26.7	24.3	-91.0	15.5
2025-01-19 15:19:34.148889	26.4	24.4	-91.1	17.0
2025-01-19 15:19:35.298560	26.1	24.4	-90.7	13.3
2025-01-19 15:19:36.452949	25.8	24.4	-90.4	12.1
2025-01-19 15:19:37.605700	25.5	24.5	-90.8	8.9
2025-01-19 15:19:38.751537	25.1	24.5	-90.8	11.9
2025-01-19 15:19:39.878215	24.8	24.6	-90.8	11.6
2025-01-19 15:19:40.998105	24.5	24.6	-90.2	9.2
2025-01-19 15:19:42.119034	24.2	24.6	-90.4	7.0
2025-01-19 15:19:43.239556	23.9	24.7	-90.4	12.6
2025-01-19 15:19:44.359335	23.6	24.7	-90.6	12.1
2025-01-19 15:19:45.480983	23.3	24.8	-90.7	7.4
2025-01-19 15:19:46.601872	23.0	24.8	-90.6	11.1
2025-01-19 15:19:47.723810	22.7	24.8	-90.5	14.9
2025-01-19 15:19:48.845398	22.3	24.9	-90.7	13.3
2025-01-19 15:19:49.996645	22.0	24.9	-90.4	10.7
2025-01-19 15:19:51.146532	21.7	24.9	-90.5	15.5
2025-01-19 15:19:52.298345	21.4	24.9	-90.3	16.2
2025-01-19 15:19:53.440431	21.1	25.0	-90.1	10.9
2025-01-19 15:19:54.592169	20.7	25.0	-90.9	9.2
2025-01-19 15:19:55.740208	20.4	25.0	-90.6	13.8
2025-01-19 15:19:56.890551	20.1	25.1	-90.9	12.2
2025-01-19 15:19:58.038596	19.8	25.1	-91.1	13.0
2025-01-19 15:19:59.183322	19.4	25.1	-90.6	11.3
2025-01-19 15:20:00.324342	19.1	25.1	-90.4	9.5
2025-01-19 15:20:01.485542	18.8	25.2	-91.0	7.7
2025-01-19 15:20:02.637677	18.4	25.2	-90.7	9.6
2025-01-19 15:20:03.786042	18.1	25.2	-90.8	10.4
2025-01-19 15:20:04.934126	17.8	25.2	-90.8	6.1
2025-01-19 15:20:06.081094	17.5	25.2	-90.8	6.0
2025-01-19 15:20:07.230636	17.1	25.3	-90.9	9.2
2025-01-19 15:20:08.376399	16.8	25.3	-90.3	7.2
2025-01-19 15:20:09.524492	16.5	25.3	-90.0	9.5
2025-01-19 15:20:10.682090	16.1	25.3	-90.7	9.8
2025-01-19 15:20:11.835162	15.8	25.3	-90.9	12.1
2025-01-19 15:20:12.977811	15.5	25.3	-91.0	7.6
2025-01-19 15:20:14.102700	15.1	25.3	-91.2	9.1
2025-01-19 15:20:15.246777	14.8	25.3	-91.0	14.2
2025-01-19 15:20:16.384308	14.5	25.4	-91.0	10.9
2025-01-19 15:20:17.530893	14.2	25.4	-90.7	8.8
2025-01-19 15:20:18.676549	13.8	25.4	-90.5	8.3
2025-01-19 15:20:19.817234	13.5	25.4	-90.5	14.3
2025-01-19 15:20:20.964695	13.2	25.4	-91.2	12.8
2025-01-19 15:20:22.113047	12.8	25.4	-90.4	9.0
2025-01-19 15:20:23.261242	12.5	25.4	-90.6	12.0
2025-01-19 15:20:24.409332	12.2	25.4	-90.6	13.0
2025-01-19 15:20:25.556959	11.8	25.4	-90.9	9.1
2025-01-19 15:20:26.711803	11.5	25.4	-90.3	10.5
2025-01-19 15:20:27.862649	11.2	25.4	-91.0	15.0
2025-01-19 15:20:29.014584	10.8	25.4	-91.1	8.0
2025-01-19 15:20:30.169577	10.5	25.4	-90.5	12.9
2025-01-19 15:20:31.318495	10.2	25.4	-90.7	11.3
2025-01-19 15:20:32.468595	9.8	25.4	-91.1	10.0
2025-01-19 15:20:33.626632	9.5	25.4	-91.0	12.4
2025-01-19 15:20:34.780092	9.2	25.4	-91.2	10.9
2025-01-19 15:20:35.925788	8.8	25.4	-91.0	9.7
2025-01-19 15:20:37.074787	8.5	25.3	-90.6	7.3
2025-01-19 15:20:38.228927	8.2	25.3	-90.9	13.3
2025-01-19 15:20:39.379160	7.8	25.3	-90.9	7.9
2025-01-19 15:20:40.522765	7.5	25.3	-91.0	6.4
2025-01-19 15:20:41.669902	7.2	25.3	-91.0	9.9
2025-01-19 15:20:42.820513	6.8	25.3	-91.2	13.1
2025-01-19 15:20:43.969461	6.5	25.3	-91.1	6.1
2025-01-19 15:20:45.118689	6.2	25.2	-90.8	9.0
2025-01-19 15:20:46.268841	5.9	25.2	-91.0	10.8
2025-01-19 15:20:47.415101	5.5	25.2	-91.3	7.7
2025-01-19 15:20:48.563596	5.2	25.2	-90.6	8.6
2025-01-19 15:20:49.710633	4.9	25.2	-91.1	15.7
2025-01-19 15:20:50.856900	4.5	25.1	-91.8	14.2
2025-01-19 15:20:52.006032	4.2	25.1	-91.3	7.8
2025-01-19 15:20:53.159364	3.9	25.1	-91.3	12.1
2025-01-19 15:20:54.316615	3.6	25.1	-90.9	11.6
2025-01-19 15:20:55.467330	3.2	25.0	-91.2	6.6
2025-01-19 15:20:56.617877	2.9	25.0	-91.6	11.2
2025-01-19 15:20:57.767053	2.6	25.0	-91.6	13.5
2025-01-19 15:20:58.916477	2.3	25.0	-91.2	8.5
2025-01-19 15:21:00.065308	1.9	24.9	-91.1	5.0
2025-01-19 15:21:01.217447	1.6	24.9	-91.4	14.1
2025-01-19 15:21:02.366589	1.3	24.9	-91.2	13.6
2025-01-19 15:21:03.513656	1.0	24.8	-91.5	9.9
2025-01-19 15:21:04.660557	0.6	24.8	-92.0	13.0
2025-01-19 15:21:05.811121	0.3	24.8	-91.6	15.1
2025-01-19 15:21:06.973015	360.0	24.7	-91.2	10.8
2025-01-19 15:21:08.121337	359.7	24.7	-91.4	13.0
2025-01-19 15:21:09.270321	359.4	24.6	-91.2	13.3
2025-01-19 15:21:10.424242	359.0	24.6	-91.3	11.3
2025-01-19 15:21:11.569329	358.7	24.6	-91.8	14.4
2025-01-19 15:21:12.707801	358.4	24.5	-91.3	16.7
2025-01-19 15:21:13.828742	358.1	24.5	-91.2	15.5
2025-01-19 15:21:14.948389	357.8	24.4	-91.4	9.0
2025-01-19 15:21:16.069177	357.5	24.4	-90.4	12.4
2025-01-19 15:21:17.189642	357.2	24.4	-91.0	14.6
2025-01-19 15:21:18.310284	356.9	24.3	-88.0	14.0
2025-01-19 15:21:19.438684	356.6	24.3	-91.1	13.4
2025-01-19 15:21:20.559338	356.3	24.2	-91.6	16.5
2025-01-19 15:21:21.681990	356.0	24.2	-91.2	10.7
2025-01-19 15:21:22.810845	355.7	24.1	-91.5	11.6
2025-01-19 15:21:23.957363	355.4	24.1	-91.2	10.0
2025-01-19 15:21:25.100952	355.1	24.0	-91.1	11.8
2025-01-19 15:21:26.254380	354.8	24.0	-91.1	14.3
2025-01-19 15:21:27.398929	354.5	23.9	-91.0	10.9
2025-01-19 15:21:28.553739	354.2	23.9	-91.2	12.5
2025-01-19 15:21:29.708143	353.8	23.8	-90.7	13.3
2025-01-19 15:21:30.852626	353.5	23.8	-91.1	17.9
2025-01-19 15:21:32.002821	353.2	23.7	-90.8	10.6
2025-01-19 15:21:33.153759	352.9	23.7	-90.7	13.9
2025-01-19 15:21:34.306751	352.6	23.6	-91.2	14.2
2025-01-19 15:21:35.457183	352.4	23.6	-91.6	8.2
2025-01-19 15:21:36.606468	352.1	23.5	-91.9	9.7
2025-01-19 15:21:37.753035	351.8	23.4	-91.3	10.1
2025-01-19 15:21:38.902549	351.5	23.4	-91.5	10.5
2025-01-19 15:21:40.051390	351.2	23.3	-91.5	6.6
2025-01-19 15:21:41.205698	350.9	23.3	-91.1	8.8
2025-01-19 15:21:42.356132	350.6	23.2	-91.0	10.8
2025-01-19 15:21:43.505608	350.3	23.1	-91.0	7.5
2025-01-19 15:21:44.654973	350.0	23.1	-91.3	11.7
2025-01-19 15:21:45.804163	349.7	23.0	-90.9	11.9
2025-01-19 15:21:46.954027	349.4	22.9	-91.0	9.6
2025-01-19 15:21:48.102171	349.2	22.9	-91.2	7.3
2025-01-19 15:21:49.247049	348.9	22.8	-91.2	12.8
2025-01-19 15:21:50.403906	348.6	22.8	-91.8	5.8
2025-01-19 15:21:51.550528	348.3	22.7	-91.2	7.4
2025-01-19 15:21:52.701370	348.0	22.6	-89.3	12.8
2025-01-19 15:21:53.854458	347.7	22.6	-91.5	6.7
2025-01-19 15:21:55.006189	347.5	22.5	-92.1	5.2
2025-01-19 15:21:56.152728	347.2	22.4	-91.3	10.0
2025-01-19 15:21:57.304015	346.9	22.4	-91.1	6.3
2025-01-19 15:21:58.460099	346.6	22.3	-90.9	4.9
2025-01-19 15:21:59.609304	346.4	22.2	-91.1	7.8
2025-01-19 15:22:00.752234	346.1	22.1	-91.3	8.8
2025-01-19 15:22:01.899060	345.8	22.1	-91.1	6.6
2025-01-19 15:22:03.062825	345.6	22.0	-90.9	7.5
2025-01-19 15:22:04.210561	345.3	21.9	-91.0	5.1
2025-01-19 15:22:05.366372	345.0	21.9	-90.9	12.9
2025-01-19 15:22:06.521947	344.8	21.8	-91.1	9.1
2025-01-19 15:22:07.670174	344.5	21.7	-91.0	12.8
2025-01-19 15:22:08.822327	344.2	21.6	-91.1	12.9
2025-01-19 15:22:09.969203	344.0	21.6	-91.4	7.7
2025-01-19 15:22:11.125586	343.7	21.5	-90.9	9.8
2025-01-19 15:22:12.279198	343.4	21.4	-91.2	15.4
2025-01-19 15:22:13.430023	343.2	21.3	-90.9	8.4
2025-01-19 15:22:14.576238	342.9	21.3	-91.2	11.1
2025-01-19 15:22:15.722907	342.7	21.2	-91.0	12.8
2025-01-19 15:22:16.876169	342.4	21.1	-91.2	13.0
2025-01-19 15:22:18.029173	342.2	21.0	-91.0	12.4
2025-01-19 15:22:19.187462	341.9	21.0	-91.3	8.6
2025-01-19 15:22:20.333590	341.7	20.9	-91.0	8.7
2025-01-19 15:22:21.487608	341.4	20.8	-91.5	9.5
2025-01-19 15:22:22.635520	341.2	20.7	-91.4	13.5
2025-01-19 15:22:23.782767	340.9	20.6	-90.9	11.9
2025-01-19 15:22:24.937436	340.7	20.6	-91.1	9.1
2025-01-19 15:22:26.088950	340.4	20.5	-90.9	8.1
2025-01-19 15:22:27.235584	340.2	20.4	-91.2	14.5
2025-01-19 15:22:28.383001	339.9	20.3	-91.0	11.1
2025-01-19 15:22:29.535116	339.7	20.2	-91.4	7.5
2025-01-19 15:22:30.681717	339.5	20.2	-91.3	9.3
2025-01-19 15:22:31.828887	339.2	20.1	-91.4	11.8
2025-01-19 15:22:32.978440	339.0	20.0	-91.3	7.7
2025-01-19 15:22:34.126510	338.8	19.9	-90.7	5.9
2025-01-19 15:22:35.277319	338.5	19.8	-91.2	5.4
2025-01-19 15:22:36.423250	338.3	19.8	-91.8	4.1
2025-01-19 15:22:37.571291	338.1	19.7	-91.4	6.0
2025-01-19 15:22:38.716693	337.8	19.6	-91.1	7.8
2025-01-19 15:22:39.862611	337.6	19.5	-91.4	4.2
2025-01-19 15:22:41.008553	337.4	19.4	-91.0	3.9
2025-01-19 15:22:42.156529	337.2	19.4	-90.9	4.7
2025-01-19 15:22:43.312498	336.9	19.3	-91.2	5.2
2025-01-19 15:22:44.459878	336.7	19.2	-91.3	3.8
2025-01-19 15:22:45.612015	336.5	19.1	-91.5	3.8
2025-01-19 15:22:46.762112	336.3	19.0	-91.6	4.6
2025-01-19 15:22:47.909259	336.0	18.9	-91.6	5.9
2025-01-19 15:22:49.053585	335.8	18.9	-91.3	8.0
2025-01-19 15:22:50.200156	335.6	18.8	-91.1	9.7
2025-01-19 15:22:51.347148	335.4	18.7	-91.6	6.0
2025-01-19 15:22:52.492310	335.2	18.6	-91.9	4.2
2025-01-19 15:22:53.637748	335.0	18.5	-91.8	6.3
2025-01-19 15:22:54.787803	334.7	18.4	-91.3	6.4
2025-01-19 15:22:55.937727	334.5	18.4	-91.5	5.7
2025-01-19 15:22:57.087841	334.3	18.3	-91.2	2.6
2025-01-19 15:22:58.235910	334.1	18.2	-91.2	3.6
2025-01-19 15:22:59.386337	333.9	18.1	-91.1	3.2
2025-01-19 15:23:00.534702	333.7	18.0	-91.6	4.2
2025-01-19 15:23:01.682507	333.5	17.9	-91.0	3.3
2025-01-19 15:23:02.842688	333.3	17.8	-91.6	5.7
2025-01-19 15:23:03.992805	333.1	17.8	-91.2	4.4
2025-01-19 15:23:05.146362	332.9	17.7	-91.3	3.2
2025-01-19 15:23:06.296206	332.7	17.6	-91.2	3.6
2025-01-19 15:23:07.447184	332.5	17.5	-89.8	3.6
2025-01-19 15:23:08.600831	332.3	17.4	-90.8	2.8
2025-01-19 15:23:09.749269	332.1	17.3	-90.4	6.0
2025-01-19 15:23:10.896690	331.9	17.2	-91.2	5.1
2025-01-19 15:23:12.054927	331.7	17.2	-91.3	5.1
2025-01-19 15:23:13.208413	331.5	17.1	-91.2	7.3
2025-01-19 15:23:14.352610	331.3	17.0	-90.7	4.3
2025-01-19 15:23:15.505209	331.1	16.9	-91.3	5.4
2025-01-19 15:23:16.657825	330.9	16.8	-91.2	2.5
2025-01-19 15:23:17.810557	330.7	16.7	-91.3	6.6
2025-01-19 15:23:18.968081	330.5	16.6	-91.6	3.2
2025-01-19 15:23:20.113026	330.3	16.6	-91.1	7.3
2025-01-19 15:23:21.266776	330.1	16.5	-91.2	4.1
2025-01-19 15:23:22.413027	330.0	16.4	-91.4	8.1
2025-01-19 15:23:23.568224	329.8	16.3	-91.3	4.8
2025-01-19 15:23:24.714878	329.6	16.2	-91.6	8.5
2025-01-19 15:23:25.869967	329.4	16.1	-90.4	5.7
2025-01-19 15:23:27.020276	329.2	16.0	-91.1	6.3
2025-01-19 15:23:28.173294	329.0	15.9	-90.8	9.8
2025-01-19 15:23:29.329239	328.9	15.9	-90.7	6.5
2025-01-19 15:23:30.472892	328.7	15.8	-90.8	6.8
2025-01-19 15:23:31.623597	328.5	15.7	-90.9	6.5
2025-01-19 15:23:32.773081	328.3	15.6	-91.7	7.6
2025-01-19 15:23:33.922014	328.2	15.5	-91.1	4.6
2025-01-19 15:23:35.071915	328.0	15.4	-91.0	3.0
2025-01-19 15:23:36.220126	327.8	15.3	-90.8	6.1
2025-01-19 15:23:37.373566	327.6	15.3	-90.8	3.1
2025-01-19 15:23:38.519331	327.5	15.2	-90.9	5.6
2025-01-19 15:23:39.674761	327.3	15.1	-91.7	10.4
2025-01-19 15:23:40.825686	327.1	15.0	-91.4	5.0
2025-01-19 15:23:41.975135	327.0	14.9	-90.8	6.2
2025-01-19 15:23:43.124974	326.8	14.8	-91.2	7.9
2025-01-19 15:23:44.271166	326.6	14.7	-91.1	6.7
2025-01-19 15:23:45.414004	326.5	14.7	-91.5	6.8
#Closed at: 2025-01-19 15:17:15.084074