passes_logs/2025/01/19/LEX_Murmansk/LEX_Murmansk__20250119_083553_NOAA_18_rec.log

#Pass ID: 20250119_083553_NOAA 18
#Satellite: NOAA 18
#Configuration: NOAA 18
#Start time: 2025-01-19 08:35:48.972252

#LorettStation: 1.0.0 05.05.2024
#Station: LEX_Murmansk
#Location: 33.156738 lon 68.926811 lat
#TLE: 1 28654U 05018A   25018.13582066  .00000389  00000+0  23006-3 0  9999
#TLE: 2 28654  98.8561  99.1591 0014505 170.4027 189.7425 14.13489305 13620

#Time	Az	El	Level	SNR
2025-01-19 08:36:01.161667	33.1	16.1	-93.0	9.8
2025-01-19 08:36:02.320097	33.2	16.3	-93.1	7.7
2025-01-19 08:36:03.486579	33.4	16.4	-92.9	4.8
2025-01-19 08:36:04.649490	33.5	16.5	-92.9	6.0
2025-01-19 08:36:05.813751	33.6	16.6	-92.8	8.7
2025-01-19 08:36:06.976660	33.7	16.7	-92.5	3.2
2025-01-19 08:36:08.141511	33.9	16.8	-92.0	8.9
2025-01-19 08:36:09.300735	34.0	16.9	-91.8	5.9
2025-01-19 08:36:10.468754	34.1	17.0	-92.1	6.4
2025-01-19 08:36:11.644022	34.3	17.2	-92.5	8.6
2025-01-19 08:36:12.810559	34.4	17.3	-92.9	3.9
2025-01-19 08:36:13.976800	34.5	17.4	-92.6	5.0
2025-01-19 08:36:15.133039	34.7	17.5	-92.4	8.4
2025-01-19 08:36:16.298097	34.8	17.6	-92.4	6.0
2025-01-19 08:36:17.476631	34.9	17.7	-93.1	6.2
2025-01-19 08:36:18.643998	35.1	17.9	-92.9	7.2
2025-01-19 08:36:19.803885	35.2	18.0	-92.9	14.3
2025-01-19 08:36:20.966118	35.3	18.1	-92.6	4.3
2025-01-19 08:36:22.143119	35.5	18.2	-92.4	10.2
2025-01-19 08:36:23.301876	35.6	18.3	-92.4	4.5
2025-01-19 08:36:24.465354	35.8	18.4	-92.9	5.3
2025-01-19 08:36:25.645070	35.9	18.6	-92.9	8.9
2025-01-19 08:36:26.811814	36.1	18.7	-93.0	7.5
2025-01-19 08:36:27.975223	36.2	18.8	-92.9	4.2
2025-01-19 08:36:29.137364	36.4	18.9	-92.1	6.6
2025-01-19 08:36:30.296377	36.5	19.0	-92.6	11.8
2025-01-19 08:36:31.468626	36.7	19.2	-92.3	10.2
2025-01-19 08:36:32.634346	36.8	19.3	-92.9	11.0
2025-01-19 08:36:33.797294	37.0	19.4	-92.8	7.2
2025-01-19 08:36:34.962732	37.1	19.5	-92.9	11.0
2025-01-19 08:36:36.130645	37.3	19.7	-92.6	10.2
2025-01-19 08:36:37.300191	37.4	19.8	-92.8	17.1
2025-01-19 08:36:38.466341	37.6	19.9	-92.5	8.4
2025-01-19 08:36:39.626438	37.7	20.0	-92.5	10.1
2025-01-19 08:36:40.790869	37.9	20.2	-92.9	7.6
2025-01-19 08:36:41.953279	38.1	20.3	-92.5	9.4
2025-01-19 08:36:43.116345	38.2	20.4	-92.7	9.4
2025-01-19 08:36:44.265324	38.4	20.5	-93.0	9.2
2025-01-19 08:36:45.431733	38.6	20.7	-93.0	4.5
2025-01-19 08:36:46.592608	38.7	20.8	-92.9	4.0
2025-01-19 08:36:47.761380	38.9	20.9	-93.3	10.6
2025-01-19 08:36:48.922807	39.1	21.0	-93.4	7.2
2025-01-19 08:36:50.083541	39.2	21.2	-93.1	5.0
2025-01-19 08:36:51.244603	39.4	21.3	-93.4	6.0
2025-01-19 08:36:52.407210	39.6	21.4	-93.2	13.2
2025-01-19 08:36:53.568087	39.7	21.5	-92.9	15.7
2025-01-19 08:36:54.732852	39.9	21.7	-92.7	8.2
2025-01-19 08:36:55.903075	40.1	21.8	-92.4	11.4
2025-01-19 08:36:57.061202	40.3	21.9	-92.4	10.7
2025-01-19 08:36:58.226633	40.4	22.1	-92.2	16.7
2025-01-19 08:36:59.388945	40.6	22.2	-92.6	6.4
2025-01-19 08:37:00.547677	40.8	22.3	-93.2	14.4
2025-01-19 08:37:01.711129	41.0	22.5	-93.0	15.5
2025-01-19 08:37:02.879769	41.2	22.6	-93.1	10.0
2025-01-19 08:37:04.041157	41.4	22.7	-92.7	6.8
2025-01-19 08:37:05.205576	41.6	22.9	-92.9	14.0
2025-01-19 08:37:06.369862	41.7	23.0	-92.6	12.8
2025-01-19 08:37:07.529683	41.9	23.1	-92.6	11.7
2025-01-19 08:37:08.696893	42.1	23.3	-92.9	14.3
2025-01-19 08:37:09.856102	42.3	23.4	-92.8	14.6
2025-01-19 08:37:11.020313	42.5	23.5	-92.8	17.3
2025-01-19 08:37:12.186587	42.7	23.7	-93.0	11.4
2025-01-19 08:37:13.354468	42.9	23.8	-92.9	12.4
2025-01-19 08:37:14.517720	43.1	23.9	-92.9	14.1
2025-01-19 08:37:15.679139	43.3	24.1	-93.2	15.3
2025-01-19 08:37:16.841801	43.5	24.2	-93.1	8.4
2025-01-19 08:37:18.007182	43.7	24.3	-93.0	7.7
2025-01-19 08:37:19.173990	43.9	24.5	-92.9	13.3
2025-01-19 08:37:20.336292	44.2	24.6	-92.4	12.7
2025-01-19 08:37:21.506869	44.4	24.8	-93.3	8.6
2025-01-19 08:37:22.675384	44.6	24.9	-93.1	9.3
2025-01-19 08:37:23.836922	44.8	25.0	-92.8	9.3
2025-01-19 08:37:24.998339	45.0	25.2	-92.6	4.6
2025-01-19 08:37:26.159456	45.2	25.3	-92.7	7.8
2025-01-19 08:37:27.326461	45.5	25.4	-92.6	12.5
2025-01-19 08:37:28.491647	45.7	25.6	-93.1	9.4
2025-01-19 08:37:29.656119	45.9	25.7	-93.2	9.6
2025-01-19 08:37:30.814787	46.1	25.9	-93.3	10.0
2025-01-19 08:37:31.983035	46.4	26.0	-93.2	10.0
2025-01-19 08:37:33.142844	46.6	26.1	-93.1	10.9
2025-01-19 08:37:34.308636	46.8	26.3	-93.0	6.5
2025-01-19 08:37:35.468377	47.1	26.4	-93.0	7.8
2025-01-19 08:37:36.631372	47.3	26.6	-93.0	9.3
2025-01-19 08:37:37.794318	47.5	26.7	-93.0	12.1
2025-01-19 08:37:38.959049	47.8	26.9	-92.9	8.0
2025-01-19 08:37:40.120481	48.0	27.0	-92.9	9.0
2025-01-19 08:37:41.281548	48.3	27.1	-93.1	6.2
2025-01-19 08:37:42.449653	48.5	27.3	-93.5	4.5
2025-01-19 08:37:43.614939	48.8	27.4	-93.2	2.7
2025-01-19 08:37:44.777442	49.0	27.6	-92.9	3.8
2025-01-19 08:37:45.938824	49.3	27.7	-93.2	3.6
2025-01-19 08:37:47.103063	49.5	27.9	-92.8	5.2
2025-01-19 08:37:48.268603	49.8	28.0	-92.7	10.3
2025-01-19 08:37:49.442585	50.0	28.1	-93.3	9.5
2025-01-19 08:37:50.606579	50.3	28.3	-93.5	8.5
2025-01-19 08:37:51.765871	50.6	28.4	-93.1	9.1
2025-01-19 08:37:52.930015	50.8	28.6	-92.6	6.3
2025-01-19 08:37:54.092570	51.1	28.7	-92.6	5.3
2025-01-19 08:37:55.259651	51.4	28.9	-92.7	9.4
2025-01-19 08:37:56.424255	51.7	29.0	-92.6	2.6
2025-01-19 08:37:57.589895	51.9	29.1	-93.2	6.2
2025-01-19 08:37:58.751108	52.2	29.3	-92.9	11.5
2025-01-19 08:37:59.911065	52.5	29.4	-92.8	15.5
2025-01-19 08:38:01.074919	52.8	29.6	-92.9	7.6
2025-01-19 08:38:02.239575	53.1	29.7	-92.9	7.1
2025-01-19 08:38:03.402754	53.4	29.9	-92.8	7.5
2025-01-19 08:38:04.558836	53.6	30.0	-93.2	4.3
2025-01-19 08:38:05.721775	53.9	30.2	-93.1	8.5
2025-01-19 08:38:06.882420	54.2	30.3	-93.2	7.2
2025-01-19 08:38:08.044903	54.5	30.4	-93.0	5.0
2025-01-19 08:38:09.207351	54.8	30.6	-92.6	14.9
2025-01-19 08:38:10.368236	55.1	30.7	-92.9	10.3
2025-01-19 08:38:11.533440	55.5	30.9	-93.0	11.5
2025-01-19 08:38:12.701031	55.8	31.0	-93.3	11.0
2025-01-19 08:38:13.870797	56.1	31.2	-92.7	13.4
2025-01-19 08:38:15.035536	56.4	31.3	-93.1	10.1
2025-01-19 08:38:16.200816	56.7	31.4	-92.7	16.8
2025-01-19 08:38:17.364491	57.0	31.6	-92.7	16.2
2025-01-19 08:38:18.533442	57.4	31.7	-92.8	13.6
2025-01-19 08:38:19.700015	57.7	31.9	-93.1	9.8
2025-01-19 08:38:20.857118	58.0	32.0	-93.4	13.5
2025-01-19 08:38:22.017242	58.4	32.1	-93.2	12.3
2025-01-19 08:38:23.181206	58.7	32.3	-92.9	16.5
2025-01-19 08:38:24.346987	59.0	32.4	-92.6	19.9
2025-01-19 08:38:25.512784	59.4	32.6	-93.2	14.5
2025-01-19 08:38:26.688182	59.7	32.7	-93.4	16.6
2025-01-19 08:38:27.852259	60.1	32.8	-93.4	20.1
2025-01-19 08:38:29.008244	60.4	33.0	-93.2	12.8
2025-01-19 08:38:30.170008	60.8	33.1	-92.8	18.6
2025-01-19 08:38:31.330008	61.1	33.2	-93.3	10.7
2025-01-19 08:38:32.496007	61.5	33.4	-93.2	6.6
2025-01-19 08:38:33.660134	61.8	33.5	-92.8	15.8
2025-01-19 08:38:34.823769	62.2	33.7	-92.6	17.6
2025-01-19 08:38:35.987812	62.6	33.8	-93.0	10.7
2025-01-19 08:38:37.145100	62.9	33.9	-92.5	18.3
2025-01-19 08:38:38.311927	63.3	34.1	-92.7	18.0
2025-01-19 08:38:39.474194	63.7	34.2	-92.8	16.5
2025-01-19 08:38:40.634225	64.1	34.3	-92.7	16.6
2025-01-19 08:38:41.799774	64.5	34.4	-93.3	21.8
2025-01-19 08:38:42.965906	64.8	34.6	-93.0	22.1
2025-01-19 08:38:44.120647	65.2	34.7	-93.2	13.9
2025-01-19 08:38:45.290037	65.6	34.8	-93.1	24.2
2025-01-19 08:38:46.455422	66.0	35.0	-92.7	10.4
2025-01-19 08:38:47.623537	66.4	35.1	-92.7	16.5
2025-01-19 08:38:48.789413	66.8	35.2	-93.4	18.6
2025-01-19 08:38:49.950291	67.2	35.3	-93.2	18.2
2025-01-19 08:38:51.108073	67.6	35.5	-93.1	20.1
2025-01-19 08:38:52.269179	68.0	35.6	-92.6	24.4
2025-01-19 08:38:53.436126	68.4	35.7	-93.1	23.0
2025-01-19 08:38:54.595991	68.9	35.8	-93.4	13.7
2025-01-19 08:38:55.764156	69.3	35.9	-93.0	16.6
2025-01-19 08:38:56.933390	69.7	36.1	-92.7	14.7
2025-01-19 08:38:58.101198	70.1	36.2	-92.4	11.4
2025-01-19 08:38:59.261526	70.6	36.3	-93.2	21.0
2025-01-19 08:39:00.417902	71.0	36.4	-93.3	10.1
2025-01-19 08:39:01.582109	71.4	36.5	-93.6	9.2
2025-01-19 08:39:02.747196	71.9	36.6	-93.5	18.0
2025-01-19 08:39:03.911454	72.3	36.7	-93.5	11.9
2025-01-19 08:39:05.075326	72.7	36.8	-92.9	11.1
2025-01-19 08:39:06.232163	73.2	36.9	-92.7	22.6
2025-01-19 08:39:07.392178	73.6	37.0	-93.2	11.8
2025-01-19 08:39:08.556459	74.1	37.1	-93.3	18.5
2025-01-19 08:39:09.720011	74.5	37.2	-93.2	15.7
2025-01-19 08:39:10.876480	75.0	37.3	-92.2	17.5
2025-01-19 08:39:12.041624	75.4	37.4	-92.8	17.8
2025-01-19 08:39:13.209676	75.9	37.5	-93.0	18.3
2025-01-19 08:39:14.374424	76.4	37.6	-93.1	8.2
2025-01-19 08:39:15.538837	76.8	37.7	-93.1	16.0
2025-01-19 08:39:16.702202	77.3	37.8	-93.0	19.1
2025-01-19 08:39:17.865433	77.8	37.9	-93.0	13.1
2025-01-19 08:39:19.031429	78.3	38.0	-92.9	13.3
2025-01-19 08:39:20.191802	78.7	38.1	-92.9	18.9
2025-01-19 08:39:21.352848	79.2	38.1	-93.1	16.5
2025-01-19 08:39:22.522513	79.7	38.2	-93.3	11.9
2025-01-19 08:39:23.685529	80.2	38.3	-93.3	23.2
2025-01-19 08:39:24.849037	80.7	38.4	-93.3	18.1
2025-01-19 08:39:26.014285	81.2	38.4	-93.6	15.7
2025-01-19 08:39:27.533191	81.8	38.5	-92.8	16.4
2025-01-19 08:39:28.696527	82.3	38.6	-92.9	18.5
2025-01-19 08:39:29.862437	82.8	38.7	-93.2	14.2
2025-01-19 08:39:31.020177	83.3	38.7	-92.8	18.5
2025-01-19 08:39:32.186385	83.8	38.8	-93.0	20.0
2025-01-19 08:39:33.365894	84.3	38.9	-92.8	16.7
2025-01-19 08:39:34.531135	84.8	38.9	-92.2	12.8
2025-01-19 08:39:35.694069	85.3	39.0	-93.0	10.7
2025-01-19 08:39:36.862244	85.8	39.0	-93.4	15.4
2025-01-19 08:39:38.029532	86.3	39.1	-93.6	10.0
2025-01-19 08:39:39.193677	86.8	39.1	-93.2	13.7
2025-01-19 08:39:40.354548	87.3	39.2	-92.9	11.4
2025-01-19 08:39:41.523556	87.9	39.2	-93.0	3.8
2025-01-19 08:39:42.687381	88.4	39.3	-92.9	17.9
2025-01-19 08:39:43.853056	88.9	39.3	-93.1	14.4
2025-01-19 08:39:45.017504	89.4	39.3	-93.3	8.8
2025-01-19 08:39:46.183778	89.9	39.4	-93.0	22.6
2025-01-19 08:39:47.349587	90.4	39.4	-92.9	12.0
2025-01-19 08:39:48.510682	91.0	39.4	-93.1	7.5
2025-01-19 08:39:49.672147	91.5	39.4	-92.9	22.5
2025-01-19 08:39:50.835017	92.0	39.5	-93.1	11.2
2025-01-19 08:39:51.999613	92.5	39.5	-92.8	13.3
2025-01-19 08:39:53.163695	93.0	39.5	-92.5	8.8
2025-01-19 08:39:54.327987	93.6	39.5	-93.3	20.2
2025-01-19 08:39:55.495476	94.1	39.5	-93.6	15.9
2025-01-19 08:39:56.657780	94.6	39.5	-93.1	16.8
2025-01-19 08:39:57.818287	95.1	39.5	-93.4	20.2
2025-01-19 08:39:58.986601	95.7	39.5	-93.2	20.9
2025-01-19 08:40:00.140452	96.2	39.5	-92.2	12.4
2025-01-19 08:40:01.298304	96.7	39.5	-92.6	24.2
2025-01-19 08:40:02.463280	97.2	39.5	-93.0	12.9
2025-01-19 08:40:03.626536	97.7	39.5	-93.0	20.1
2025-01-19 08:40:04.782681	98.3	39.5	-93.2	21.1
2025-01-19 08:40:05.957945	98.8	39.5	-93.5	9.0
2025-01-19 08:40:07.111974	99.3	39.5	-92.6	16.3
2025-01-19 08:40:08.289415	99.8	39.5	-93.2	10.8
2025-01-19 08:40:09.456102	100.4	39.5	-93.0	12.7
2025-01-19 08:40:10.615535	100.9	39.4	-92.7	19.4
2025-01-19 08:40:11.791315	101.4	39.4	-93.2	15.5
2025-01-19 08:40:12.955297	101.9	39.4	-93.3	6.9
2025-01-19 08:40:14.120249	102.5	39.4	-92.5	5.5
2025-01-19 08:40:15.287608	103.0	39.3	-92.8	10.6
2025-01-19 08:40:16.445770	103.5	39.3	-92.8	7.9
2025-01-19 08:40:17.609033	104.0	39.3	-92.7	15.5
2025-01-19 08:40:18.774645	104.5	39.2	-92.6	9.3
2025-01-19 08:40:19.939059	105.0	39.2	-92.6	7.2
2025-01-19 08:40:21.095809	105.5	39.1	-92.1	7.5
2025-01-19 08:40:22.259284	106.1	39.1	-91.9	12.9
2025-01-19 08:40:23.419178	106.6	39.0	-92.5	3.4
2025-01-19 08:40:24.586643	107.1	39.0	-93.1	6.8
2025-01-19 08:40:25.751218	107.6	38.9	-92.8	13.9
2025-01-19 08:40:26.915599	108.1	38.9	-92.8	7.5
2025-01-19 08:40:28.081207	108.6	38.8	-92.8	6.6
2025-01-19 08:40:29.241671	109.1	38.7	-92.6	11.6
2025-01-19 08:40:30.407251	109.6	38.7	-92.6	11.1
2025-01-19 08:40:31.561305	110.1	38.6	-93.2	8.6
2025-01-19 08:40:32.731389	110.6	38.5	-92.3	21.8
2025-01-19 08:40:33.890621	111.1	38.5	-93.0	11.2
2025-01-19 08:40:35.053652	111.6	38.4	-93.1	6.2
2025-01-19 08:40:36.223623	112.0	38.3	-93.2	7.1
2025-01-19 08:40:37.384256	112.5	38.2	-93.1	9.4
2025-01-19 08:40:38.551934	113.0	38.2	-92.9	7.0
2025-01-19 08:40:39.716696	113.5	38.1	-92.8	15.0
2025-01-19 08:40:40.881934	114.0	38.0	-92.6	15.9
2025-01-19 08:40:42.044275	114.5	37.9	-92.8	3.5
2025-01-19 08:40:43.208005	114.9	37.8	-92.7	16.2
2025-01-19 08:40:44.372638	115.4	37.7	-92.7	9.4
2025-01-19 08:40:45.546382	115.9	37.6	-93.1	10.1
2025-01-19 08:40:46.711978	116.3	37.6	-93.3	16.8
2025-01-19 08:40:47.868177	116.8	37.5	-92.9	10.7
2025-01-19 08:40:49.033171	117.3	37.4	-92.4	6.5
2025-01-19 08:40:50.197287	117.7	37.3	-92.3	16.7
2025-01-19 08:40:51.358403	118.2	37.2	-92.7	16.3
2025-01-19 08:40:52.520241	118.6	37.1	-93.3	13.3
2025-01-19 08:40:53.687151	119.1	37.0	-93.3	19.4
2025-01-19 08:40:54.849998	119.5	36.9	-93.3	5.8
2025-01-19 08:40:56.013138	120.0	36.7	-93.2	7.2
2025-01-19 08:40:57.179299	120.4	36.6	-92.1	11.8
2025-01-19 08:40:58.341428	120.9	36.5	-92.8	6.5
2025-01-19 08:40:59.507803	121.3	36.4	-92.7	14.1
2025-01-19 08:41:00.663229	121.7	36.3	-93.1	5.9
2025-01-19 08:41:01.820762	122.2	36.2	-93.1	12.1
2025-01-19 08:41:02.980249	122.6	36.1	-92.9	11.9
2025-01-19 08:41:04.152971	123.0	36.0	-93.2	15.9
2025-01-19 08:41:05.320168	123.4	35.8	-92.9	15.8
2025-01-19 08:41:06.485101	123.9	35.7	-93.2	9.2
2025-01-19 08:41:07.649711	124.3	35.6	-93.0	13.1
2025-01-19 08:41:08.803462	124.7	35.5	-93.3	17.0
2025-01-19 08:41:09.967320	125.1	35.4	-93.3	12.7
2025-01-19 08:41:11.128008	125.5	35.2	-93.1	14.2
2025-01-19 08:41:12.297319	125.9	35.1	-92.7	12.6
2025-01-19 08:41:13.457832	126.3	35.0	-92.6	9.7
2025-01-19 08:41:14.625789	126.7	34.9	-93.4	15.3
2025-01-19 08:41:15.789849	127.1	34.7	-93.4	18.9
2025-01-19 08:41:16.953059	127.5	34.6	-93.5	12.8
2025-01-19 08:41:18.114390	127.9	34.5	-93.4	13.4
2025-01-19 08:41:19.275524	128.3	34.3	-92.8	18.2
2025-01-19 08:41:20.441063	128.6	34.2	-93.0	15.0
2025-01-19 08:41:21.600105	129.0	34.1	-93.4	11.9
2025-01-19 08:41:22.762043	129.4	33.9	-93.4	10.2
2025-01-19 08:41:23.926636	129.8	33.8	-93.2	16.3
2025-01-19 08:41:25.094211	130.1	33.7	-93.1	11.2
2025-01-19 08:41:26.255360	130.5	33.5	-92.8	18.2
2025-01-19 08:41:27.419162	130.9	33.4	-93.2	16.5
2025-01-19 08:41:28.583021	131.2	33.3	-93.4	17.7
2025-01-19 08:41:29.747858	131.6	33.1	-93.4	16.5
2025-01-19 08:41:30.910553	131.9	33.0	-93.3	17.3
2025-01-19 08:41:32.072326	132.3	32.8	-92.7	13.5
2025-01-19 08:41:33.250159	132.7	32.7	-93.3	13.5
2025-01-19 08:41:34.415753	133.0	32.6	-93.4	12.0
2025-01-19 08:41:35.580937	133.3	32.4	-93.6	13.1
2025-01-19 08:41:36.751182	133.7	32.3	-93.2	12.7
2025-01-19 08:41:37.912927	134.0	32.1	-93.2	14.7
2025-01-19 08:41:39.076169	134.4	32.0	-93.0	13.3
2025-01-19 08:41:40.241331	134.7	31.9	-92.8	13.6
2025-01-19 08:41:41.400050	135.0	31.7	-93.1	7.6
2025-01-19 08:41:42.564163	135.4	31.6	-93.5	8.4
2025-01-19 08:41:43.744155	135.7	31.4	-93.0	12.7
2025-01-19 08:41:44.909029	136.0	31.3	-93.1	4.4
2025-01-19 08:41:46.070493	136.3	31.1	-93.0	5.6
2025-01-19 08:41:47.232407	136.6	31.0	-92.9	9.2
2025-01-19 08:41:48.391872	136.9	30.9	-93.3	5.9
2025-01-19 08:41:49.558952	137.3	30.7	-93.5	4.7
2025-01-19 08:41:50.722974	137.6	30.6	-93.6	5.1
2025-01-19 08:41:51.885852	137.9	30.4	-93.7	7.9
2025-01-19 08:41:53.046983	138.2	30.3	-93.6	4.8
2025-01-19 08:41:54.214894	138.5	30.1	-93.3	7.6
2025-01-19 08:41:55.380452	138.8	30.0	-93.2	5.6
2025-01-19 08:41:56.546622	139.1	29.8	-93.2	4.5
2025-01-19 08:41:57.715410	139.4	29.7	-93.6	6.6
2025-01-19 08:41:58.875965	139.6	29.6	-93.2	8.4
2025-01-19 08:42:00.037332	139.9	29.4	-92.6	7.7
2025-01-19 08:42:01.186682	140.2	29.3	-93.3	5.2
2025-01-19 08:42:02.353648	140.5	29.1	-93.1	4.8
2025-01-19 08:42:03.512236	140.8	29.0	-93.4	7.0
2025-01-19 08:42:04.673322	141.1	28.8	-92.9	7.7
2025-01-19 08:42:05.835233	141.3	28.7	-93.2	6.0
2025-01-19 08:42:07.001466	141.6	28.5	-93.0	5.1
2025-01-19 08:42:08.166860	141.9	28.4	-93.2	8.1
2025-01-19 08:42:09.336678	142.1	28.3	-92.6	9.7
2025-01-19 08:42:10.500643	142.4	28.1	-92.8	7.4
2025-01-19 08:42:11.661576	142.7	28.0	-92.9	7.7
2025-01-19 08:42:12.827372	142.9	27.8	-93.6	10.5
2025-01-19 08:42:13.987252	143.2	27.7	-93.8	6.6
2025-01-19 08:42:15.156615	143.4	27.5	-93.5	9.4
2025-01-19 08:42:16.321461	143.7	27.4	-93.0	7.1
2025-01-19 08:42:17.485140	143.9	27.2	-93.2	4.5
2025-01-19 08:42:18.648966	144.2	27.1	-93.1	9.0
2025-01-19 08:42:19.810620	144.4	27.0	-92.8	7.9
2025-01-19 08:42:20.977901	144.7	26.8	-93.3	8.6
2025-01-19 08:42:22.138743	144.9	26.7	-93.0	10.4
2025-01-19 08:42:23.301903	145.2	26.5	-93.2	11.7
2025-01-19 08:42:24.465098	145.4	26.4	-93.3	13.8
2025-01-19 08:42:25.629680	145.6	26.2	-93.6	13.4
2025-01-19 08:42:26.797103	145.9	26.1	-92.7	15.4
2025-01-19 08:42:27.956772	146.1	26.0	-93.5	17.9
2025-01-19 08:42:29.117827	146.3	25.8	-93.0	15.1
2025-01-19 08:42:30.275304	146.6	25.7	-93.0	13.8
2025-01-19 08:42:31.436889	146.8	25.5	-93.2	11.8
2025-01-19 08:42:32.599246	147.0	25.4	-93.3	11.1
2025-01-19 08:42:33.768348	147.2	25.2	-93.4	13.2
2025-01-19 08:42:34.938144	147.5	25.1	-93.3	9.2
2025-01-19 08:42:36.103587	147.7	25.0	-93.2	8.3
2025-01-19 08:42:37.269708	147.9	24.8	-93.0	13.1
2025-01-19 08:42:38.431863	148.1	24.7	-92.6	11.5
2025-01-19 08:42:39.595949	148.3	24.5	-92.9	10.4
2025-01-19 08:42:40.754775	148.5	24.4	-93.6	17.4
2025-01-19 08:42:41.926881	148.8	24.3	-93.3	10.0
2025-01-19 08:42:43.090886	149.0	24.1	-93.1	13.0
2025-01-19 08:42:44.252849	149.2	24.0	-93.1	12.6
2025-01-19 08:42:45.418757	149.4	23.9	-93.2	11.8
2025-01-19 08:42:46.578687	149.6	23.7	-93.5	11.5
2025-01-19 08:42:47.746128	149.8	23.6	-93.2	14.2
2025-01-19 08:42:48.903203	150.0	23.4	-93.2	11.1
2025-01-19 08:42:50.070177	150.2	23.3	-92.7	12.2
2025-01-19 08:42:51.229812	150.4	23.2	-93.2	10.8
2025-01-19 08:42:52.392346	150.6	23.0	-93.4	11.6
2025-01-19 08:42:53.553409	150.8	22.9	-93.7	8.8
2025-01-19 08:42:54.719013	150.9	22.8	-93.5	12.8
2025-01-19 08:42:55.875920	151.1	22.6	-93.2	7.0
2025-01-19 08:42:57.041234	151.3	22.5	-93.1	7.9
2025-01-19 08:42:58.210131	151.5	22.4	-93.1	11.8
2025-01-19 08:42:59.371289	151.7	22.2	-92.9	7.6
2025-01-19 08:43:00.535217	151.9	22.1	-93.3	7.0
2025-01-19 08:43:01.683685	152.1	22.0	-93.4	8.3
2025-01-19 08:43:02.846087	152.2	21.8	-93.4	8.8
2025-01-19 08:43:04.005672	152.4	21.7	-93.1	6.3
2025-01-19 08:43:05.172027	152.6	21.6	-92.8	9.3
2025-01-19 08:43:06.331735	152.8	21.5	-92.9	9.1
2025-01-19 08:43:07.496507	152.9	21.3	-93.1	9.1
2025-01-19 08:43:08.660139	153.1	21.2	-93.7	11.8
2025-01-19 08:43:09.827825	153.3	21.1	-93.4	11.4
2025-01-19 08:43:10.986153	153.5	20.9	-93.0	8.1
2025-01-19 08:43:12.143993	153.6	20.8	-92.2	9.0
2025-01-19 08:43:13.306443	153.8	20.7	-92.6	11.0
2025-01-19 08:43:14.462986	154.0	20.6	-93.3	9.8
2025-01-19 08:43:15.623368	154.1	20.4	-93.3	8.4
2025-01-19 08:43:16.786888	154.3	20.3	-92.6	11.0
2025-01-19 08:43:17.944724	154.5	20.2	-92.9	9.5
2025-01-19 08:43:19.103687	154.6	20.0	-92.6	6.3
2025-01-19 08:43:20.271934	154.8	19.9	-92.2	9.2
2025-01-19 08:43:21.427852	154.9	19.8	-92.5	9.9
2025-01-19 08:43:22.592534	155.1	19.7	-92.5	8.8
2025-01-19 08:43:23.756076	155.2	19.5	-92.6	6.2
2025-01-19 08:43:24.918663	155.4	19.4	-93.1	5.1
2025-01-19 08:43:26.082552	155.6	19.3	-92.5	4.1
2025-01-19 08:43:27.242926	155.7	19.2	-92.8	6.5
2025-01-19 08:43:28.410393	155.9	19.1	-93.3	4.6
2025-01-19 08:43:29.570822	156.0	18.9	-93.5	8.1
2025-01-19 08:43:30.736293	156.2	18.8	-93.3	7.0
2025-01-19 08:43:31.895800	156.3	18.7	-93.2	6.9
2025-01-19 08:43:33.057098	156.5	18.6	-93.0	3.7
2025-01-19 08:43:34.219489	156.6	18.4	-92.9	7.7
2025-01-19 08:43:35.394572	156.7	18.3	-93.0	2.9
2025-01-19 08:43:36.562631	156.9	18.2	-93.3	4.8
2025-01-19 08:43:37.719324	157.0	18.1	-93.0	7.1
2025-01-19 08:43:38.884128	157.2	18.0	-92.9	6.2
2025-01-19 08:43:40.047682	157.3	17.8	-92.5	4.6
2025-01-19 08:43:41.207691	157.5	17.7	-92.3	6.2
2025-01-19 08:43:42.365963	157.6	17.6	-92.5	4.7
2025-01-19 08:43:43.534945	157.7	17.5	-93.3	4.4
2025-01-19 08:43:44.699587	157.9	17.4	-93.3	3.1
2025-01-19 08:43:45.867931	158.0	17.3	-93.2	4.8
2025-01-19 08:43:47.024983	158.1	17.1	-93.1	4.3
2025-01-19 08:43:48.188945	158.3	17.0	-93.2	4.7
2025-01-19 08:43:49.355501	158.4	16.9	-93.0	7.0
2025-01-19 08:43:50.510384	158.5	16.8	-93.1	7.0
2025-01-19 08:43:51.669227	158.7	16.7	-93.3	7.6
2025-01-19 08:43:52.836662	158.8	16.6	-93.5	6.6
2025-01-19 08:43:54.004020	158.9	16.5	-93.3	6.7
2025-01-19 08:43:55.165714	159.1	16.3	-92.9	4.8
2025-01-19 08:43:56.328889	159.2	16.2	-93.2	6.4
2025-01-19 08:43:57.494234	159.3	16.1	-93.2	5.9
2025-01-19 08:43:58.660056	159.4	16.0	-93.4	8.0
2025-01-19 08:43:59.829855	159.6	15.9	-93.5	7.7
2025-01-19 08:44:00.985670	159.7	15.8	-93.1	6.4
2025-01-19 08:44:02.145567	159.8	15.7	-93.3	6.6
2025-01-19 08:44:03.306342	159.9	15.6	-93.0	7.4
2025-01-19 08:44:04.471013	160.0	15.4	-93.1	5.7
2025-01-19 08:44:05.632427	160.2	15.3	-93.4	7.5
2025-01-19 08:44:06.800307	160.3	15.2	-93.4	7.9
2025-01-19 08:44:07.964143	160.4	15.1	-93.4	5.9
2025-01-19 08:44:09.128008	160.5	15.0	-92.9	6.2
2025-01-19 08:44:10.293427	160.6	14.9	-93.0	6.4
2025-01-19 08:44:11.454962	160.7	14.8	-92.9	6.3
2025-01-19 08:44:12.619685	160.9	14.7	-93.4	6.3
2025-01-19 08:44:13.781651	161.0	14.6	-93.4	7.0
2025-01-19 08:44:14.946102	161.1	14.5	-92.9	6.4
#Closed at: 2025-01-19 08:35:53.978404