passes_logs/2025/01/19/LEX_Murmansk/LEX_Murmansk__20250119_183542_NOAA_18_rec.log

#Pass ID: 20250119_183542_NOAA 18
#Satellite: NOAA 18
#Configuration: NOAA 18
#Start time: 2025-01-19 18:35:37.296337

#LorettStation: 1.0.0 05.05.2024
#Station: LEX_Murmansk
#Location: 33.156738 lon 68.926811 lat
#TLE: 1 28654U 05018A   25019.12683114  .00000403  00000+0  23745-3 0  9992
#TLE: 2 28654  98.8559 100.1402 0014536 167.7337 192.4191 14.13490232 13765

#Time	Az	El	Level	SNR
2025-01-19 18:35:49.446380	143.4	16.3	-92.5	8.3
2025-01-19 18:35:51.758546	143.3	16.6	-92.6	8.6
2025-01-19 18:35:54.066847	143.3	16.8	-92.7	4.8
2025-01-19 18:35:56.367686	143.3	17.1	-92.0	7.4
2025-01-19 18:35:58.674532	143.2	17.4	-92.5	10.1
2025-01-19 18:36:00.988537	143.2	17.6	-92.7	10.9
2025-01-19 18:36:03.306246	143.1	17.9	-92.5	10.1
2025-01-19 18:36:05.620064	143.1	18.2	-92.9	9.3
2025-01-19 18:36:07.933963	143.1	18.4	-93.0	7.2
2025-01-19 18:36:10.244860	143.0	18.7	-92.7	11.5
2025-01-19 18:36:12.563258	143.0	19.0	-92.5	9.6
2025-01-19 18:36:14.878362	142.9	19.3	-92.9	14.3
2025-01-19 18:36:17.185184	142.9	19.6	-92.8	13.2
2025-01-19 18:36:19.489104	142.8	19.9	-92.7	13.5
2025-01-19 18:36:21.803039	142.8	20.2	-92.5	14.7
2025-01-19 18:36:24.146511	142.7	20.5	-92.6	11.3
2025-01-19 18:36:26.457036	142.7	20.8	-92.3	6.2
2025-01-19 18:36:28.780750	142.6	21.1	-93.0	13.8
2025-01-19 18:36:31.102662	142.6	21.4	-92.3	13.4
2025-01-19 18:36:33.412106	142.5	21.7	-92.5	11.7
2025-01-19 18:36:35.723206	142.5	22.0	-92.7	16.0
2025-01-19 18:36:38.041109	142.4	22.4	-92.8	10.6
2025-01-19 18:36:40.372604	142.3	22.7	-92.1	7.9
2025-01-19 18:36:42.700706	142.3	23.0	-92.6	15.2
2025-01-19 18:36:45.018579	142.2	23.4	-92.8	7.8
2025-01-19 18:36:47.322090	142.2	23.7	-92.7	5.9
2025-01-19 18:36:49.641719	142.1	24.0	-92.4	13.5
2025-01-19 18:36:51.952343	142.0	24.4	-92.9	15.8
2025-01-19 18:36:54.264164	142.0	24.7	-92.3	16.5
2025-01-19 18:36:56.574184	141.9	25.1	-92.9	6.3
2025-01-19 18:36:58.886246	141.8	25.5	-92.7	7.0
2025-01-19 18:37:01.201787	141.7	25.8	-92.5	11.4
2025-01-19 18:37:03.519524	141.7	26.2	-92.6	12.4
2025-01-19 18:37:05.819785	141.6	26.6	-93.2	5.6
2025-01-19 18:37:08.142638	141.5	27.0	-93.1	6.8
2025-01-19 18:37:10.467925	141.4	27.3	-93.0	4.9
2025-01-19 18:37:12.781362	141.3	27.7	-93.0	6.7
2025-01-19 18:37:15.096042	141.3	28.1	-92.7	3.5
2025-01-19 18:37:17.407361	141.2	28.5	-92.9	5.0
2025-01-19 18:37:19.726841	141.1	29.0	-91.5	7.5
2025-01-19 18:37:22.045010	141.0	29.4	-91.6	6.1
2025-01-19 18:37:24.345554	140.9	29.8	-91.6	5.0
2025-01-19 18:37:26.653601	140.8	30.2	-93.2	7.4
2025-01-19 18:37:28.979135	140.7	30.7	-93.1	7.7
2025-01-19 18:37:31.292747	140.6	31.1	-92.3	9.2
2025-01-19 18:37:33.606706	140.5	31.5	-93.1	6.7
2025-01-19 18:37:35.917836	140.4	32.0	-92.8	13.4
2025-01-19 18:37:38.231946	140.2	32.5	-92.5	12.6
2025-01-19 18:37:40.545408	140.1	32.9	-92.6	13.2
2025-01-19 18:37:42.849542	140.0	33.4	-92.7	18.1
2025-01-19 18:37:45.168940	139.9	33.9	-92.6	14.3
2025-01-19 18:37:47.490901	139.7	34.4	-92.5	7.1
2025-01-19 18:37:49.797432	139.6	34.9	-92.7	12.9
2025-01-19 18:37:52.112058	139.5	35.4	-92.4	12.7
2025-01-19 18:37:54.419723	139.3	35.9	-92.8	20.2
2025-01-19 18:37:56.734630	139.2	36.4	-92.6	20.0
2025-01-19 18:37:59.050632	139.0	36.9	-91.9	22.1
2025-01-19 18:38:01.361377	138.9	37.5	-92.6	15.5
2025-01-19 18:38:03.667622	138.7	38.0	-92.9	13.4
2025-01-19 18:38:05.979462	138.5	38.6	-92.8	7.5
2025-01-19 18:38:08.299972	138.4	39.1	-92.8	15.7
2025-01-19 18:38:10.612244	138.2	39.7	-92.3	14.5
2025-01-19 18:38:12.931315	138.0	40.3	-91.7	21.6
2025-01-19 18:38:15.243663	137.8	40.9	-92.4	21.9
2025-01-19 18:38:17.555014	137.6	41.5	-92.6	15.0
2025-01-19 18:38:19.872471	137.4	42.1	-92.6	17.6
2025-01-19 18:38:22.192174	137.2	42.7	-92.7	15.9
2025-01-19 18:38:24.512214	136.9	43.4	-93.1	9.7
2025-01-19 18:38:26.825379	136.7	44.0	-92.9	18.4
2025-01-19 18:38:29.132242	136.4	44.7	-91.1	15.6
2025-01-19 18:38:31.456080	136.2	45.3	-91.7	15.0
2025-01-19 18:38:33.775280	135.9	46.0	-91.5	19.4
2025-01-19 18:38:36.085636	135.6	46.7	-91.8	13.2
2025-01-19 18:38:38.397638	135.3	47.4	-91.6	11.5
2025-01-19 18:38:40.707676	135.0	48.1	-92.6	13.4
2025-01-19 18:38:43.014971	134.7	48.8	-92.7	7.8
2025-01-19 18:38:45.317234	134.3	49.5	-92.0	8.2
2025-01-19 18:38:47.618377	134.0	50.2	-92.6	6.5
2025-01-19 18:38:49.928331	133.6	51.0	-92.6	8.3
2025-01-19 18:38:52.226288	133.2	51.7	-92.3	13.2
2025-01-19 18:38:54.532531	132.8	52.5	-92.6	19.0
2025-01-19 18:38:56.844750	132.4	53.2	-92.5	15.4
2025-01-19 18:38:59.153270	131.9	54.0	-91.9	12.3
2025-01-19 18:39:01.457150	131.4	54.8	-92.3	16.4
2025-01-19 18:39:03.750056	130.9	55.6	-92.5	20.1
2025-01-19 18:39:06.011668	130.3	56.4	-92.6	12.9
2025-01-19 18:39:08.253880	129.8	57.2	-92.1	12.4
2025-01-19 18:39:10.495034	129.2	58.0	-92.7	7.3
2025-01-19 18:39:12.735516	128.5	58.8	-92.3	22.5
2025-01-19 18:39:14.994434	127.9	59.7	-93.2	20.3
2025-01-19 18:39:17.285708	127.1	60.5	-91.9	15.2
2025-01-19 18:39:19.582740	126.3	61.4	-92.2	21.0
2025-01-19 18:39:21.891665	125.5	62.2	-92.5	14.2
2025-01-19 18:39:24.204929	124.5	63.1	-92.3	15.1
2025-01-19 18:39:26.514224	123.5	64.0	-92.8	12.2
2025-01-19 18:39:28.818045	122.5	64.8	-92.3	16.0
2025-01-19 18:39:31.135110	121.3	65.7	-92.3	18.0
2025-01-19 18:39:33.450801	120.0	66.6	-92.0	18.3
2025-01-19 18:39:35.775886	118.7	67.5	-92.3	14.1
2025-01-19 18:39:38.090544	117.2	68.4	-92.6	7.5
2025-01-19 18:39:40.408334	115.5	69.2	-92.5	8.2
2025-01-19 18:39:42.732233	113.7	70.1	-92.3	14.6
2025-01-19 18:39:45.057235	111.8	70.9	-92.2	13.7
2025-01-19 18:39:47.381798	109.6	71.8	-92.3	12.3
2025-01-19 18:39:49.688798	107.3	72.6	-92.7	10.4
2025-01-19 18:39:51.992516	104.7	73.4	-92.5	15.8
2025-01-19 18:39:54.302391	101.8	74.1	-92.6	15.3
2025-01-19 18:39:56.609806	98.7	74.8	-92.7	19.4
2025-01-19 18:39:58.927499	95.2	75.5	-92.3	12.4
2025-01-19 18:40:01.227706	91.4	76.1	-93.0	18.4
2025-01-19 18:40:03.538287	87.2	76.7	-93.2	16.4
2025-01-19 18:40:05.863387	82.7	77.2	-92.7	20.5
2025-01-19 18:40:08.185092	77.9	77.6	-93.0	10.6
2025-01-19 18:40:10.494270	72.8	77.9	-93.1	12.6
2025-01-19 18:40:12.807352	67.4	78.1	-92.6	17.6
2025-01-19 18:40:15.116178	61.9	78.2	-92.7	17.6
2025-01-19 18:40:17.433620	56.4	78.2	-92.5	16.4
2025-01-19 18:40:19.736364	50.9	78.1	-92.7	18.4
2025-01-19 18:40:22.048399	45.6	77.8	-92.4	11.6
2025-01-19 18:40:24.358161	40.5	77.5	-92.6	19.1
2025-01-19 18:40:26.657682	35.7	77.1	-92.9	20.1
2025-01-19 18:40:28.960843	31.2	76.6	-93.0	9.5
2025-01-19 18:40:31.282767	27.1	76.1	-92.1	20.9
2025-01-19 18:40:33.593493	23.3	75.5	-92.7	11.5
2025-01-19 18:40:35.907319	19.9	74.8	-92.8	10.0
2025-01-19 18:40:38.223247	16.7	74.1	-92.4	15.2
2025-01-19 18:40:40.531754	13.9	73.3	-93.2	8.9
2025-01-19 18:40:42.862928	11.3	72.5	-93.0	17.1
2025-01-19 18:40:45.181699	8.9	71.7	-92.8	10.1
2025-01-19 18:40:47.499148	6.8	70.9	-92.8	9.7
2025-01-19 18:40:49.815310	4.8	70.0	-92.7	14.3
2025-01-19 18:40:52.138013	3.1	69.2	-92.6	13.0
2025-01-19 18:40:54.459381	1.4	68.3	-93.1	9.4
2025-01-19 18:40:56.774399	360.0	67.4	-93.0	19.9
2025-01-19 18:40:59.090864	358.6	66.5	-92.5	13.5
2025-01-19 18:41:01.400551	357.3	65.7	-93.0	9.1
2025-01-19 18:41:03.717125	356.2	64.8	-92.6	18.6
2025-01-19 18:41:06.038330	355.1	63.9	-91.9	14.9
2025-01-19 18:41:08.334076	354.1	63.0	-93.0	13.7
2025-01-19 18:41:10.649681	353.2	62.2	-92.7	15.8
2025-01-19 18:41:12.955598	352.4	61.3	-92.7	8.9
2025-01-19 18:41:15.266433	351.6	60.4	-91.7	18.9
2025-01-19 18:41:17.577725	350.8	59.6	-93.2	8.6
2025-01-19 18:41:19.875190	350.1	58.7	-92.7	11.2
2025-01-19 18:41:22.116610	349.5	57.9	-92.4	6.6
2025-01-19 18:41:24.357124	348.9	57.1	-92.6	7.9
2025-01-19 18:41:26.599589	348.3	56.3	-92.4	9.5
2025-01-19 18:41:28.845053	347.8	55.5	-93.2	7.7
2025-01-19 18:41:31.142106	347.3	54.7	-92.8	7.9
2025-01-19 18:41:33.449977	346.8	53.9	-92.6	9.4
2025-01-19 18:41:35.750171	346.3	53.2	-92.9	10.3
2025-01-19 18:41:38.058945	345.9	52.4	-92.8	8.5
2025-01-19 18:41:40.369830	345.5	51.6	-92.9	5.0
2025-01-19 18:41:42.691467	345.1	50.9	-92.3	9.0
2025-01-19 18:41:45.007751	344.7	50.1	-93.6	5.6
2025-01-19 18:41:47.324557	344.4	49.4	-92.8	9.6
2025-01-19 18:41:49.634339	344.0	48.7	-92.6	11.1
2025-01-19 18:41:51.954759	343.7	48.0	-92.7	22.7
2025-01-19 18:41:54.265029	343.4	47.3	-92.1	20.7
2025-01-19 18:41:56.588426	343.1	46.6	-92.8	17.3
2025-01-19 18:41:58.905877	342.8	45.9	-92.9	11.6
2025-01-19 18:42:01.218749	342.5	45.2	-92.2	17.2
2025-01-19 18:42:03.531945	342.3	44.6	-93.0	9.9
2025-01-19 18:42:05.840591	342.0	43.9	-93.2	11.8
2025-01-19 18:42:08.145696	341.8	43.3	-92.3	26.6
2025-01-19 18:42:10.456187	341.6	42.6	-92.8	23.5
2025-01-19 18:42:12.777744	341.3	42.0	-92.4	21.6
2025-01-19 18:42:15.092708	341.1	41.4	-92.4	23.1
2025-01-19 18:42:17.401605	340.9	40.8	-92.9	19.0
2025-01-19 18:42:19.720242	340.7	40.2	-93.3	6.0
2025-01-19 18:42:22.037075	340.5	39.6	-92.5	8.5
2025-01-19 18:42:24.353707	340.4	39.1	-93.0	8.8
2025-01-19 18:42:26.667035	340.2	38.5	-92.9	12.8
2025-01-19 18:42:28.977577	340.0	37.9	-92.8	4.2
2025-01-19 18:42:31.281402	339.9	37.4	-92.6	17.4
2025-01-19 18:42:33.592595	339.7	36.9	-92.9	11.4
2025-01-19 18:42:35.899658	339.5	36.3	-93.4	16.3
2025-01-19 18:42:38.219032	339.4	35.8	-92.6	12.1
2025-01-19 18:42:40.528593	339.3	35.3	-92.4	5.1
2025-01-19 18:42:42.839682	339.1	34.8	-92.5	9.5
2025-01-19 18:42:45.143025	339.0	34.3	-92.8	12.9
2025-01-19 18:42:47.456214	338.9	33.8	-93.0	10.7
2025-01-19 18:42:49.774335	338.7	33.3	-93.3	19.0
2025-01-19 18:42:52.094892	338.6	32.8	-92.7	16.1
2025-01-19 18:42:54.402416	338.5	32.4	-92.9	9.9
2025-01-19 18:42:56.699683	338.4	31.9	-92.7	7.2
2025-01-19 18:42:58.999838	338.3	31.5	-93.0	8.0
2025-01-19 18:43:01.297002	338.2	31.0	-92.1	18.7
2025-01-19 18:43:03.622359	338.1	30.6	-92.7	10.6
2025-01-19 18:43:05.930514	338.0	30.2	-92.9	14.8
2025-01-19 18:43:08.232088	337.9	29.7	-92.6	10.5
2025-01-19 18:43:10.542675	337.8	29.3	-92.4	13.2
2025-01-19 18:43:12.860991	337.7	28.9	-92.2	11.8
2025-01-19 18:43:15.166353	337.6	28.5	-92.9	15.1
2025-01-19 18:43:17.472679	337.5	28.1	-91.5	6.1
2025-01-19 18:43:19.789784	337.4	27.7	-93.1	7.9
2025-01-19 18:43:22.105248	337.3	27.3	-92.2	5.0
2025-01-19 18:43:24.427448	337.2	26.9	-93.1	9.3
2025-01-19 18:43:26.728517	337.2	26.5	-92.9	9.0
2025-01-19 18:43:29.028876	337.1	26.1	-92.5	6.0
2025-01-19 18:43:31.350298	337.0	25.8	-93.0	14.8
2025-01-19 18:43:33.652527	336.9	25.4	-92.8	4.9
2025-01-19 18:43:35.967781	336.9	25.0	-92.7	7.4
2025-01-19 18:43:38.281515	336.8	24.7	-92.4	11.2
2025-01-19 18:43:40.589504	336.7	24.3	-92.4	9.4
2025-01-19 18:43:42.895465	336.7	24.0	-92.7	6.3
2025-01-19 18:43:45.202173	336.6	23.6	-92.4	16.5
2025-01-19 18:43:47.506944	336.5	23.3	-92.9	13.5
2025-01-19 18:43:49.818110	336.5	23.0	-92.0	12.3
2025-01-19 18:43:52.132055	336.4	22.6	-92.3	7.5
2025-01-19 18:43:54.441950	336.4	22.3	-92.9	7.2
2025-01-19 18:43:56.759220	336.3	22.0	-93.0	11.3
2025-01-19 18:43:59.075608	336.3	21.7	-92.3	5.4
2025-01-19 18:44:01.382364	336.2	21.4	-92.9	8.6
2025-01-19 18:44:03.685175	336.2	21.0	-92.3	3.2
2025-01-19 18:44:06.000934	336.1	20.7	-92.1	7.0
2025-01-19 18:44:08.302902	336.1	20.4	-92.3	6.0
2025-01-19 18:44:10.629284	336.0	20.1	-92.9	3.4
2025-01-19 18:44:12.946189	336.0	19.8	-93.0	2.2
2025-01-19 18:44:15.255939	335.9	19.5	-92.7	4.6
2025-01-19 18:44:17.568356	335.9	19.3	-92.7	7.3
2025-01-19 18:44:19.874629	335.8	19.0	-91.9	5.1
2025-01-19 18:44:22.195411	335.8	18.7	-92.6	8.1
2025-01-19 18:44:24.522519	335.7	18.4	-93.1	5.6
2025-01-19 18:44:26.836052	335.7	18.1	-92.7	5.0
2025-01-19 18:44:29.136537	335.6	17.9	-92.1	5.6
2025-01-19 18:44:31.447390	335.6	17.6	-92.5	3.9
2025-01-19 18:44:33.756854	335.6	17.3	-92.8	4.1
2025-01-19 18:44:36.068008	335.5	17.0	-92.6	2.9
2025-01-19 18:44:38.365404	335.5	16.8	-92.4	5.7
2025-01-19 18:44:40.672541	335.5	16.5	-92.6	4.5
2025-01-19 18:44:42.997639	335.4	16.3	-92.9	2.9
2025-01-19 18:44:45.309593	335.4	16.0	-92.9	6.3
2025-01-19 18:44:47.637176	335.3	15.8	-89.0	4.8
2025-01-19 18:44:49.943784	335.3	15.5	-92.9	4.7
2025-01-19 18:44:52.252345	335.3	15.3	-92.6	3.1
2025-01-19 18:44:54.554316	335.2	15.0	-92.5	5.4
2025-01-19 18:44:56.877872	335.2	14.8	-92.7	5.4
2025-01-19 18:44:59.179375	335.2	14.5	-92.4	3.6
#Closed at: 2025-01-19 18:35:42.241879