passes_logs/2025/01/19/LEX_Murmansk/LEX_Murmansk__20250119_115724_NOAA_18_rec.log

#Pass ID: 20250119_115724_NOAA 18
#Satellite: NOAA 18
#Configuration: NOAA 18
#Start time: 2025-01-19 11:57:19.644493

#LorettStation: 1.0.0 05.05.2024
#Station: LEX_Murmansk
#Location: 33.156738 lon 68.926811 lat
#TLE: 1 28654U 05018A   25018.13582066  .00000389  00000+0  23006-3 0  9999
#TLE: 2 28654  98.8561  99.1591 0014505 170.4027 189.7425 14.13489305 13620

#Time	Az	El	Level	SNR
2025-01-19 11:57:31.805564	23.2	16.1	-91.0	7.8
2025-01-19 11:57:32.975815	23.0	16.3	-90.8	4.7
2025-01-19 11:57:34.140673	22.9	16.4	-90.4	3.8
2025-01-19 11:57:35.298525	22.8	16.5	-90.5	5.2
2025-01-19 11:57:36.462873	22.7	16.6	-90.5	4.5
2025-01-19 11:57:37.627942	22.5	16.7	-90.3	3.8
2025-01-19 11:57:38.794938	22.4	16.8	-90.5	3.6
2025-01-19 11:57:39.956203	22.3	16.9	-90.7	3.2
2025-01-19 11:57:41.120958	22.1	17.1	-90.5	3.9
2025-01-19 11:57:42.286914	22.0	17.2	-90.6	6.8
2025-01-19 11:57:43.454078	21.9	17.3	-90.7	5.6
2025-01-19 11:57:44.619742	21.8	17.4	-90.7	5.0
2025-01-19 11:57:45.776018	21.6	17.5	-90.8	6.8
2025-01-19 11:57:46.940667	21.5	17.6	-90.8	8.1
2025-01-19 11:57:48.116096	21.4	17.8	-91.1	5.6
2025-01-19 11:57:49.279375	21.2	17.9	-90.8	11.0
2025-01-19 11:57:50.445100	21.1	18.0	-90.9	10.8
2025-01-19 11:57:51.620343	20.9	18.1	-90.4	9.8
2025-01-19 11:57:52.780658	20.8	18.2	-90.5	9.7
2025-01-19 11:57:53.961588	20.7	18.3	-90.7	9.9
2025-01-19 11:57:55.122615	20.5	18.5	-90.6	9.3
2025-01-19 11:57:56.282666	20.4	18.6	-90.4	10.8
2025-01-19 11:57:57.442731	20.2	18.7	-90.8	10.5
2025-01-19 11:57:58.612888	20.1	18.8	-90.5	11.3
2025-01-19 11:57:59.783196	19.9	18.9	-90.9	9.9
2025-01-19 11:58:00.945078	19.8	19.1	-91.4	5.8
2025-01-19 11:58:02.120029	19.6	19.2	-90.8	8.9
2025-01-19 11:58:03.287143	19.5	19.3	-90.8	8.4
2025-01-19 11:58:04.448444	19.3	19.4	-90.5	9.0
2025-01-19 11:58:05.608413	19.2	19.6	-90.8	9.0
2025-01-19 11:58:06.771126	19.0	19.7	-90.1	10.9
2025-01-19 11:58:07.935853	18.9	19.8	-90.0	5.8
2025-01-19 11:58:09.093805	18.7	19.9	-89.9	8.7
2025-01-19 11:58:10.258665	18.6	20.0	-90.0	5.8
2025-01-19 11:58:11.424915	18.4	20.2	-90.0	7.5
2025-01-19 11:58:12.590757	18.2	20.3	-90.0	9.1
2025-01-19 11:58:13.768254	18.1	20.4	-90.1	8.1
2025-01-19 11:58:14.940687	17.9	20.6	-90.3	6.7
2025-01-19 11:58:16.096222	17.7	20.7	-90.1	7.1
2025-01-19 11:58:17.264027	17.6	20.8	-89.9	5.9
2025-01-19 11:58:18.432462	17.4	20.9	-89.9	4.3
2025-01-19 11:58:19.589270	17.2	21.1	-90.9	4.0
2025-01-19 11:58:20.755362	17.1	21.2	-90.8	7.9
2025-01-19 11:58:21.930999	16.9	21.3	-89.9	4.0
2025-01-19 11:58:23.096903	16.7	21.4	-89.8	8.2
2025-01-19 11:58:24.264435	16.6	21.6	-89.6	10.4
2025-01-19 11:58:25.432933	16.4	21.7	-89.8	2.9
2025-01-19 11:58:26.589757	16.2	21.8	-89.9	5.9
2025-01-19 11:58:27.758101	16.0	22.0	-90.0	6.2
2025-01-19 11:58:28.924125	15.8	22.1	-90.6	7.3
2025-01-19 11:58:30.081588	15.7	22.2	-90.7	7.5
2025-01-19 11:58:31.243256	15.5	22.3	-90.6	7.2
2025-01-19 11:58:32.411635	15.3	22.5	-91.0	10.9
2025-01-19 11:58:33.588727	15.1	22.6	-90.6	9.4
2025-01-19 11:58:34.750215	14.9	22.7	-90.9	11.3
2025-01-19 11:58:35.912642	14.7	22.9	-91.0	8.3
2025-01-19 11:58:37.077818	14.5	23.0	-91.2	3.4
2025-01-19 11:58:38.241751	14.3	23.1	-91.3	11.0
2025-01-19 11:58:39.404071	14.1	23.3	-91.4	5.9
2025-01-19 11:58:40.569029	13.9	23.4	-90.9	7.2
2025-01-19 11:58:41.732584	13.7	23.5	-90.5	9.2
2025-01-19 11:58:42.893351	13.5	23.7	-91.1	12.6
2025-01-19 11:58:44.057425	13.3	23.8	-90.7	15.0
2025-01-19 11:58:45.222441	13.1	23.9	-90.9	11.0
2025-01-19 11:58:46.388623	12.9	24.1	-90.6	9.5
2025-01-19 11:58:47.553411	12.7	24.2	-90.4	9.5
2025-01-19 11:58:48.713743	12.5	24.3	-90.7	10.2
2025-01-19 11:58:49.868779	12.3	24.5	-91.2	11.3
2025-01-19 11:58:51.033339	12.1	24.6	-90.9	13.4
2025-01-19 11:58:52.201332	11.9	24.8	-90.5	8.5
2025-01-19 11:58:53.365425	11.7	24.9	-89.5	6.4
2025-01-19 11:58:54.533405	11.4	25.0	-89.7	7.7
2025-01-19 11:58:55.695071	11.2	25.2	-90.1	10.5
2025-01-19 11:58:56.858064	11.0	25.3	-89.9	8.9
2025-01-19 11:58:58.026212	10.8	25.4	-90.1	4.9
2025-01-19 11:58:59.185556	10.6	25.6	-89.8	9.0
2025-01-19 11:59:00.337138	10.3	25.7	-89.7	10.8
2025-01-19 11:59:01.511376	10.1	25.9	-89.7	9.3
2025-01-19 11:59:02.677355	9.9	26.0	-90.0	13.0
2025-01-19 11:59:03.842231	9.6	26.1	-90.0	11.8
2025-01-19 11:59:05.014156	9.4	26.3	-90.9	12.8
2025-01-19 11:59:06.177561	9.2	26.4	-90.9	9.1
2025-01-19 11:59:07.339251	8.9	26.5	-90.6	11.1
2025-01-19 11:59:08.498685	8.7	26.7	-90.8	6.0
2025-01-19 11:59:09.657940	8.4	26.8	-91.0	9.8
2025-01-19 11:59:10.823593	8.2	27.0	-91.2	11.9
2025-01-19 11:59:11.984481	7.9	27.1	-90.8	10.3
2025-01-19 11:59:13.151761	7.7	27.2	-91.0	9.5
2025-01-19 11:59:14.315561	7.4	27.4	-90.9	9.6
2025-01-19 11:59:15.476425	7.2	27.5	-90.7	7.0
2025-01-19 11:59:16.632196	6.9	27.7	-90.5	9.4
2025-01-19 11:59:17.802048	6.7	27.8	-90.9	7.7
2025-01-19 11:59:18.967972	6.4	27.9	-91.0	5.8
2025-01-19 11:59:20.122743	6.1	28.1	-90.7	5.1
2025-01-19 11:59:21.287530	5.9	28.2	-90.8	5.3
2025-01-19 11:59:22.451224	5.6	28.4	-90.6	6.0
2025-01-19 11:59:23.616565	5.3	28.5	-89.9	4.9
2025-01-19 11:59:24.783254	5.0	28.6	-89.8	5.3
2025-01-19 11:59:25.948593	4.8	28.8	-89.7	4.7
2025-01-19 11:59:27.112566	4.5	28.9	-89.3	5.5
2025-01-19 11:59:28.270818	4.2	29.1	-89.9	9.3
2025-01-19 11:59:29.436171	3.9	29.2	-90.2	5.6
2025-01-19 11:59:30.604140	3.6	29.3	-90.9	5.7
2025-01-19 11:59:31.768091	3.3	29.5	-91.1	6.8
2025-01-19 11:59:32.935856	3.0	29.6	-90.6	4.8
2025-01-19 11:59:34.108793	2.7	29.8	-90.7	6.9
2025-01-19 11:59:35.275551	2.4	29.9	-90.6	10.6
2025-01-19 11:59:36.439924	2.1	30.0	-90.9	10.4
2025-01-19 11:59:37.608664	1.8	30.2	-89.9	8.8
2025-01-19 11:59:38.771176	1.5	30.3	-89.9	9.6
2025-01-19 11:59:39.925528	1.2	30.4	-90.1	5.2
2025-01-19 11:59:41.085683	0.9	30.6	-89.8	6.7
2025-01-19 11:59:42.234552	0.6	30.7	-89.8	8.0
2025-01-19 11:59:43.387805	0.3	30.8	-89.9	5.9
2025-01-19 11:59:44.556762	360.0	31.0	-90.0	4.9
2025-01-19 11:59:45.718119	359.7	31.1	-90.0	8.4
2025-01-19 11:59:46.882788	359.3	31.3	-89.9	9.6
2025-01-19 11:59:48.044446	359.0	31.4	-90.0	8.0
2025-01-19 11:59:49.205804	358.7	31.5	-89.9	7.5
2025-01-19 11:59:50.359306	358.4	31.7	-90.1	8.7
2025-01-19 11:59:51.538131	358.0	31.8	-89.8	8.2
2025-01-19 11:59:52.707673	357.7	31.9	-90.3	11.9
2025-01-19 11:59:53.868344	357.3	32.1	-90.7	8.9
2025-01-19 11:59:55.034115	357.0	32.2	-90.4	8.5
2025-01-19 11:59:56.192621	356.6	32.3	-90.5	13.2
2025-01-19 11:59:57.358686	356.3	32.5	-90.5	8.0
2025-01-19 11:59:58.524090	355.9	32.6	-90.6	8.4
2025-01-19 11:59:59.690803	355.6	32.7	-90.6	7.9
2025-01-19 12:00:00.843487	355.2	32.8	-90.1	8.8
2025-01-19 12:00:02.011847	354.9	33.0	-90.3	9.4
2025-01-19 12:00:03.180186	354.5	33.1	-90.3	6.0
2025-01-19 12:00:04.345854	354.1	33.2	-89.8	6.5
2025-01-19 12:00:05.508632	353.8	33.3	-90.1	7.7
2025-01-19 12:00:06.673196	353.4	33.5	-90.4	7.7
2025-01-19 12:00:07.841928	353.0	33.6	-90.3	12.6
2025-01-19 12:00:09.010854	352.6	33.7	-90.2	7.4
2025-01-19 12:00:10.164291	352.3	33.8	-90.3	11.2
2025-01-19 12:00:11.328715	351.9	34.0	-90.1	12.4
2025-01-19 12:00:12.490604	351.5	34.1	-89.3	9.0
2025-01-19 12:00:13.650560	351.1	34.2	-89.4	11.0
2025-01-19 12:00:14.814989	350.7	34.3	-89.3	10.4
2025-01-19 12:00:15.980462	350.3	34.4	-89.3	11.8
2025-01-19 12:00:17.139419	349.9	34.6	-89.2	11.4
2025-01-19 12:00:18.295375	349.5	34.7	-89.4	13.2
2025-01-19 12:00:19.460270	349.1	34.8	-90.3	11.6
2025-01-19 12:00:20.620375	348.7	34.9	-90.3	12.4
2025-01-19 12:00:21.786541	348.3	35.0	-90.5	12.7
2025-01-19 12:00:22.955609	347.9	35.1	-90.7	8.3
2025-01-19 12:00:24.124309	347.5	35.2	-90.6	9.9
2025-01-19 12:00:25.290083	347.1	35.3	-90.8	9.2
2025-01-19 12:00:26.454126	346.6	35.4	-90.8	8.0
2025-01-19 12:00:27.620138	346.2	35.5	-90.5	10.3
2025-01-19 12:00:28.781074	345.8	35.6	-90.6	14.2
2025-01-19 12:00:29.942824	345.4	35.7	-90.8	8.7
2025-01-19 12:00:31.115554	344.9	35.8	-90.5	10.1
2025-01-19 12:00:32.276401	344.5	35.9	-90.5	12.1
2025-01-19 12:00:33.441186	344.1	36.0	-90.7	13.8
2025-01-19 12:00:34.611187	343.6	36.1	-90.5	12.3
2025-01-19 12:00:35.778492	343.2	36.2	-90.1	14.8
2025-01-19 12:00:36.941338	342.7	36.3	-90.4	9.5
2025-01-19 12:00:38.106703	342.3	36.4	-90.5	8.3
2025-01-19 12:00:39.271285	341.8	36.5	-90.6	14.4
2025-01-19 12:00:40.428762	341.4	36.6	-91.0	7.1
2025-01-19 12:00:41.594423	340.9	36.7	-90.7	6.9
2025-01-19 12:00:42.763957	340.5	36.7	-90.6	12.4
2025-01-19 12:00:43.928190	340.0	36.8	-90.7	6.0
2025-01-19 12:00:45.096504	339.6	36.9	-90.5	8.7
2025-01-19 12:00:46.264628	339.1	37.0	-91.0	13.2
2025-01-19 12:00:47.441518	338.6	37.1	-90.7	8.7
2025-01-19 12:00:48.606077	338.2	37.1	-90.2	13.0
2025-01-19 12:00:49.772108	337.7	37.2	-90.5	11.0
2025-01-19 12:00:50.934992	337.2	37.3	-91.0	13.5
2025-01-19 12:00:52.104292	336.7	37.3	-91.2	16.8
2025-01-19 12:00:53.270001	336.3	37.4	-90.9	13.6
2025-01-19 12:00:54.429860	335.8	37.5	-90.9	9.3
2025-01-19 12:00:55.595458	335.3	37.5	-91.0	10.4
2025-01-19 12:00:56.757159	334.8	37.6	-91.3	12.5
2025-01-19 12:00:57.922503	334.3	37.6	-91.4	9.0
2025-01-19 12:00:59.084793	333.9	37.7	-90.4	10.1
2025-01-19 12:01:00.240729	333.4	37.7	-90.8	14.0
2025-01-19 12:01:01.403243	332.9	37.8	-91.3	7.9
2025-01-19 12:01:02.568108	332.4	37.8	-91.2	9.7
2025-01-19 12:01:03.732810	331.9	37.9	-90.8	16.5
2025-01-19 12:01:04.898263	331.4	37.9	-90.9	8.9
2025-01-19 12:01:06.063026	330.9	38.0	-90.9	10.1
2025-01-19 12:01:07.236032	330.4	38.0	-91.1	12.5
2025-01-19 12:01:08.400362	329.9	38.0	-90.2	11.3
2025-01-19 12:01:09.568040	329.4	38.1	-90.1	10.2
2025-01-19 12:01:10.727330	328.9	38.1	-90.4	14.6
2025-01-19 12:01:11.886030	328.5	38.1	-90.4	15.2
2025-01-19 12:01:13.054708	328.0	38.1	-90.0	14.8
2025-01-19 12:01:14.223026	327.4	38.2	-89.9	17.0
2025-01-19 12:01:15.392334	326.9	38.2	-90.3	13.4
2025-01-19 12:01:16.558137	326.4	38.2	-90.4	14.7
2025-01-19 12:01:17.718438	325.9	38.2	-90.3	15.5
2025-01-19 12:01:18.886521	325.4	38.2	-89.8	13.6
2025-01-19 12:01:20.049006	324.9	38.2	-90.1	10.2
2025-01-19 12:01:21.212754	324.4	38.2	-89.9	9.6
2025-01-19 12:01:22.376044	323.9	38.2	-90.1	10.2
2025-01-19 12:01:23.545908	323.4	38.2	-90.6	7.2
2025-01-19 12:01:24.704756	322.9	38.2	-91.3	12.1
2025-01-19 12:01:25.868902	322.4	38.2	-91.2	6.4
2025-01-19 12:01:27.034781	321.9	38.2	-91.3	6.3
2025-01-19 12:01:28.196616	321.4	38.2	-90.4	15.7
2025-01-19 12:01:29.365543	320.9	38.2	-90.8	8.5
2025-01-19 12:01:30.523927	320.4	38.2	-91.2	7.0
2025-01-19 12:01:31.689555	319.9	38.2	-91.4	11.7
2025-01-19 12:01:32.851475	319.4	38.2	-91.7	11.8
2025-01-19 12:01:34.020724	318.9	38.2	-91.3	8.9
2025-01-19 12:01:35.187126	318.4	38.1	-91.1	13.1
2025-01-19 12:01:36.352230	317.9	38.1	-91.5	11.1
2025-01-19 12:01:37.517437	317.4	38.1	-91.2	5.0
2025-01-19 12:01:38.678915	316.9	38.0	-91.5	6.8
2025-01-19 12:01:39.847664	316.4	38.0	-91.4	11.8
2025-01-19 12:01:41.003531	315.9	38.0	-91.4	7.8
2025-01-19 12:01:42.177127	315.4	37.9	-91.2	15.8
2025-01-19 12:01:43.347543	314.9	37.9	-91.5	13.1
2025-01-19 12:01:44.507036	314.5	37.9	-91.3	5.6
2025-01-19 12:01:45.673533	314.0	37.8	-91.7	11.7
2025-01-19 12:01:46.837832	313.5	37.8	-91.5	12.3
2025-01-19 12:01:47.994819	313.0	37.7	-91.0	8.9
2025-01-19 12:01:49.160292	312.5	37.7	-91.1	10.2
2025-01-19 12:01:50.323038	312.0	37.6	-91.3	12.5
2025-01-19 12:01:51.481155	311.5	37.6	-91.7	9.2
2025-01-19 12:01:52.646491	311.1	37.5	-91.6	12.1
2025-01-19 12:01:53.799926	310.6	37.4	-90.6	12.3
2025-01-19 12:01:54.963602	310.1	37.4	-90.8	13.4
2025-01-19 12:01:56.124378	309.6	37.3	-90.7	8.7
2025-01-19 12:01:57.288236	309.2	37.2	-90.6	5.7
2025-01-19 12:01:58.454819	308.7	37.2	-90.4	7.3
2025-01-19 12:01:59.616352	308.2	37.1	-90.3	10.4
2025-01-19 12:02:00.772791	307.7	37.0	-90.5	7.9
2025-01-19 12:02:01.936963	307.3	37.0	-90.4	6.1
2025-01-19 12:02:03.114663	306.8	36.9	-90.7	11.1
2025-01-19 12:02:04.273577	306.4	36.8	-90.6	13.5
2025-01-19 12:02:05.432201	305.9	36.7	-90.3	9.7
2025-01-19 12:02:06.597534	305.4	36.6	-90.8	13.5
2025-01-19 12:02:07.773258	305.0	36.6	-90.3	14.7
2025-01-19 12:02:08.939182	304.5	36.5	-90.5	12.2
2025-01-19 12:02:10.099094	304.1	36.4	-91.4	11.2
2025-01-19 12:02:11.261776	303.6	36.3	-90.5	6.2
2025-01-19 12:02:12.422049	303.2	36.2	-90.6	9.0
2025-01-19 12:02:13.590854	302.7	36.1	-90.3	13.7
2025-01-19 12:02:14.755681	302.3	36.0	-90.8	15.8
2025-01-19 12:02:15.923815	301.9	35.9	-90.4	7.9
2025-01-19 12:02:17.090310	301.4	35.8	-90.3	9.5
2025-01-19 12:02:18.254394	301.0	35.7	-90.6	5.6
2025-01-19 12:02:19.422253	300.6	35.6	-90.7	2.8
2025-01-19 12:02:20.581945	300.1	35.5	-90.9	8.2
2025-01-19 12:02:21.750019	299.7	35.4	-90.9	9.8
2025-01-19 12:02:22.913340	299.3	35.3	-90.8	9.1
2025-01-19 12:02:24.071683	298.9	35.2	-90.5	6.6
2025-01-19 12:02:25.220763	298.5	35.1	-90.7	9.7
2025-01-19 12:02:26.379857	298.1	35.0	-91.0	4.9
2025-01-19 12:02:27.541336	297.7	34.9	-90.5	7.1
2025-01-19 12:02:28.703929	297.2	34.7	-90.5	11.7
2025-01-19 12:02:29.862793	296.8	34.6	-91.1	7.6
2025-01-19 12:02:31.025564	296.4	34.5	-90.7	5.0
2025-01-19 12:02:32.190466	296.0	34.4	-90.7	4.2
2025-01-19 12:02:33.354741	295.6	34.3	-90.5	5.1
2025-01-19 12:02:34.524968	295.2	34.2	-90.9	5.8
2025-01-19 12:02:35.690909	294.9	34.0	-90.9	8.3
2025-01-19 12:02:36.853644	294.5	33.9	-90.6	7.1
2025-01-19 12:02:38.017671	294.1	33.8	-90.6	6.0
2025-01-19 12:02:39.185842	293.7	33.7	-90.4	4.3
2025-01-19 12:02:40.345604	293.3	33.6	-90.5	6.6
2025-01-19 12:02:41.504739	293.0	33.4	-89.9	3.8
2025-01-19 12:02:42.667555	292.6	33.3	-90.4	4.9
2025-01-19 12:02:43.832204	292.2	33.2	-90.4	6.5
2025-01-19 12:02:45.000860	291.8	33.1	-90.8	3.5
2025-01-19 12:02:46.168805	291.5	32.9	-90.5	6.9
2025-01-19 12:02:47.331630	291.1	32.8	-90.7	6.4
2025-01-19 12:02:48.502741	290.8	32.7	-90.5	6.5
2025-01-19 12:02:49.658243	290.4	32.5	-90.7	7.5
2025-01-19 12:02:50.823046	290.0	32.4	-90.4	6.4
2025-01-19 12:02:51.983045	289.7	32.3	-90.4	5.6
2025-01-19 12:02:53.151792	289.3	32.1	-91.2	5.4
2025-01-19 12:02:54.316396	289.0	32.0	-91.0	9.0
2025-01-19 12:02:55.482149	288.7	31.9	-91.3	9.7
2025-01-19 12:02:56.653097	288.3	31.7	-91.4	11.2
2025-01-19 12:02:57.810693	288.0	31.6	-91.6	5.7
2025-01-19 12:02:58.975512	287.7	31.5	-91.5	10.7
2025-01-19 12:03:00.134097	287.3	31.3	-91.1	4.5
2025-01-19 12:03:01.287305	287.0	31.2	-91.4	12.1
2025-01-19 12:03:02.451434	286.7	31.1	-91.6	10.1
2025-01-19 12:03:03.618018	286.4	30.9	-91.5	6.3
2025-01-19 12:03:04.781723	286.0	30.8	-91.4	15.2
2025-01-19 12:03:05.949753	285.7	30.7	-91.5	8.8
2025-01-19 12:03:07.114010	285.4	30.5	-91.2	11.6
2025-01-19 12:03:08.282054	285.1	30.4	-91.1	12.0
2025-01-19 12:03:09.448145	284.8	30.2	-91.4	6.8
2025-01-19 12:03:10.608173	284.5	30.1	-91.3	10.0
2025-01-19 12:03:11.768615	284.2	30.0	-91.3	9.0
2025-01-19 12:03:12.928985	283.9	29.8	-91.0	6.4
2025-01-19 12:03:14.096308	283.6	29.7	-91.1	7.8
2025-01-19 12:03:15.253856	283.3	29.5	-91.4	12.1
2025-01-19 12:03:16.418531	283.0	29.4	-91.6	5.2
2025-01-19 12:03:17.580003	282.7	29.3	-91.6	4.7
2025-01-19 12:03:18.725106	282.4	29.1	-91.3	11.2
2025-01-19 12:03:19.846636	282.1	29.0	-91.3	8.5
2025-01-19 12:03:20.967097	281.9	28.9	-91.3	10.1
2025-01-19 12:03:22.088089	281.6	28.7	-90.8	9.3
2025-01-19 12:03:23.208279	281.3	28.6	-91.0	8.1
2025-01-19 12:03:24.329516	281.1	28.4	-91.1	12.6
2025-01-19 12:03:25.449120	280.8	28.3	-91.0	10.0
2025-01-19 12:03:26.570092	280.5	28.2	-91.6	4.9
2025-01-19 12:03:27.691755	280.3	28.0	-91.0	9.9
2025-01-19 12:03:28.825001	280.0	27.9	-91.5	11.4
2025-01-19 12:03:29.994607	279.7	27.8	-91.3	8.4
2025-01-19 12:03:31.154163	279.5	27.6	-91.0	8.1
2025-01-19 12:03:32.326884	279.2	27.5	-91.2	10.2
2025-01-19 12:03:33.477718	279.0	27.3	-91.6	6.7
2025-01-19 12:03:34.641088	278.7	27.2	-91.1	10.2
2025-01-19 12:03:35.806483	278.5	27.1	-91.2	17.8
2025-01-19 12:03:36.967094	278.2	26.9	-91.1	17.0
2025-01-19 12:03:38.134150	278.0	26.8	-90.9	7.8
2025-01-19 12:03:39.298398	277.7	26.6	-91.1	10.7
2025-01-19 12:03:40.465609	277.5	26.5	-91.2	7.4
2025-01-19 12:03:41.623603	277.2	26.4	-91.4	14.0
2025-01-19 12:03:42.785129	277.0	26.2	-91.4	11.7
2025-01-19 12:03:43.951808	276.7	26.1	-91.2	11.3
2025-01-19 12:03:45.116429	276.5	25.9	-90.5	13.7
2025-01-19 12:03:46.281975	276.3	25.8	-91.2	7.0
2025-01-19 12:03:47.446637	276.0	25.7	-91.3	13.8
2025-01-19 12:03:48.614179	275.8	25.5	-91.0	15.5
2025-01-19 12:03:49.775217	275.6	25.4	-91.5	13.0
2025-01-19 12:03:50.935332	275.4	25.2	-91.2	8.7
2025-01-19 12:03:52.100713	275.1	25.1	-91.0	14.2
2025-01-19 12:03:53.265082	274.9	25.0	-91.1	12.3
2025-01-19 12:03:54.431291	274.7	24.8	-91.0	9.7
2025-01-19 12:03:55.596718	274.5	24.7	-91.1	14.8
2025-01-19 12:03:56.762897	274.3	24.6	-90.8	14.5
2025-01-19 12:03:57.921740	274.1	24.4	-91.1	10.2
2025-01-19 12:03:59.091502	273.8	24.3	-90.8	3.4
2025-01-19 12:04:00.250807	273.6	24.2	-90.8	9.1
2025-01-19 12:04:01.414260	273.4	24.0	-90.6	6.3
2025-01-19 12:04:02.580036	273.2	23.9	-90.8	8.5
2025-01-19 12:04:03.741294	273.0	23.7	-91.0	12.5
2025-01-19 12:04:04.898283	272.8	23.6	-91.2	6.1
2025-01-19 12:04:06.059411	272.6	23.5	-91.0	11.2
2025-01-19 12:04:07.226675	272.4	23.3	-91.1	9.3
2025-01-19 12:04:08.390906	272.2	23.2	-91.4	11.0
2025-01-19 12:04:09.558938	272.0	23.1	-91.8	6.9
2025-01-19 12:04:10.723027	271.8	22.9	-91.7	8.3
2025-01-19 12:04:11.881859	271.6	22.8	-90.7	10.6
2025-01-19 12:04:13.042642	271.4	22.7	-90.7	11.5
2025-01-19 12:04:14.207637	271.2	22.5	-90.2	8.6
2025-01-19 12:04:15.370248	271.1	22.4	-90.4	12.7
2025-01-19 12:04:16.532269	270.9	22.3	-90.3	8.4
2025-01-19 12:04:17.699618	270.7	22.1	-90.6	9.8
2025-01-19 12:04:18.862276	270.5	22.0	-91.7	6.3
2025-01-19 12:04:20.019428	270.3	21.9	-91.9	10.7
2025-01-19 12:04:21.172831	270.1	21.8	-91.4	13.0
2025-01-19 12:04:22.339753	270.0	21.6	-91.2	10.5
2025-01-19 12:04:23.501131	269.8	21.5	-91.8	5.7
2025-01-19 12:04:24.664967	269.6	21.4	-91.7	10.8
2025-01-19 12:04:25.829377	269.4	21.2	-91.9	4.9
2025-01-19 12:04:26.990091	269.3	21.1	-91.5	5.1
2025-01-19 12:04:28.159032	269.1	21.0	-91.3	6.0
2025-01-19 12:04:29.321320	268.9	20.8	-91.1	4.1
2025-01-19 12:04:30.490686	268.7	20.7	-91.5	8.6
2025-01-19 12:04:31.651566	268.6	20.6	-91.7	4.4
2025-01-19 12:04:32.815926	268.4	20.5	-91.3	8.1
2025-01-19 12:04:33.981638	268.3	20.3	-91.4	5.9
2025-01-19 12:04:35.149895	268.1	20.2	-91.2	5.7
2025-01-19 12:04:36.318737	267.9	20.1	-91.3	9.3
2025-01-19 12:04:37.482939	267.8	20.0	-91.7	4.8
2025-01-19 12:04:38.650288	267.6	19.8	-91.6	9.9
2025-01-19 12:04:39.815349	267.4	19.7	-91.7	4.4
2025-01-19 12:04:40.983317	267.3	19.6	-91.5	6.0
2025-01-19 12:04:42.143038	267.1	19.5	-91.2	7.9
2025-01-19 12:04:43.286975	267.0	19.3	-91.0	5.6
2025-01-19 12:04:44.447516	266.8	19.2	-91.3	2.9
2025-01-19 12:04:45.611792	266.7	19.1	-90.9	5.1
2025-01-19 12:04:46.775093	266.5	19.0	-91.2	4.7
2025-01-19 12:04:47.941794	266.4	18.9	-91.5	3.9
2025-01-19 12:04:49.101236	266.2	18.7	-90.7	5.4
2025-01-19 12:04:50.264961	266.1	18.6	-90.8	3.6
2025-01-19 12:04:51.425468	265.9	18.5	-91.3	4.7
2025-01-19 12:04:52.589865	265.8	18.4	-91.4	7.0
2025-01-19 12:04:53.754956	265.7	18.2	-91.2	6.5
2025-01-19 12:04:54.920103	265.5	18.1	-91.5	6.7
2025-01-19 12:04:56.089138	265.4	18.0	-91.6	6.0
2025-01-19 12:04:57.253340	265.2	17.9	-91.5	6.0
2025-01-19 12:04:58.414045	265.1	17.8	-91.3	6.1
2025-01-19 12:04:59.576676	265.0	17.7	-91.6	5.0
2025-01-19 12:05:00.739549	264.8	17.5	-91.5	6.8
2025-01-19 12:05:01.903234	264.7	17.4	-91.5	4.7
2025-01-19 12:05:03.068085	264.6	17.3	-91.4	9.4
2025-01-19 12:05:04.230852	264.4	17.2	-91.1	11.7
2025-01-19 12:05:05.398965	264.3	17.1	-91.7	5.5
2025-01-19 12:05:06.564080	264.2	17.0	-91.3	8.8
2025-01-19 12:05:07.730288	264.0	16.8	-90.7	4.9
2025-01-19 12:05:08.893322	263.9	16.7	-91.0	5.3
2025-01-19 12:05:10.058777	263.8	16.6	-91.1	2.9
2025-01-19 12:05:11.223974	263.6	16.5	-91.2	5.7
2025-01-19 12:05:12.384873	263.5	16.4	-91.2	4.0
2025-01-19 12:05:13.550712	263.4	16.3	-91.1	3.8
2025-01-19 12:05:14.711255	263.3	16.2	-90.7	4.8
2025-01-19 12:05:15.882464	263.1	16.0	-90.9	5.9
2025-01-19 12:05:17.050017	263.0	15.9	-91.1	5.6
2025-01-19 12:05:18.217468	262.9	15.8	-90.8	6.0
2025-01-19 12:05:19.381941	262.8	15.7	-91.3	6.1
2025-01-19 12:05:20.541208	262.7	15.6	-91.2	8.4
2025-01-19 12:05:21.704516	262.5	15.5	-91.5	5.3
2025-01-19 12:05:22.867535	262.4	15.4	-91.0	12.0
2025-01-19 12:05:24.031003	262.3	15.3	-90.6	12.1
2025-01-19 12:05:25.200687	262.2	15.2	-90.1	6.9
2025-01-19 12:05:26.365762	262.1	15.0	-91.1	5.0
2025-01-19 12:05:27.527795	262.0	14.9	-91.0	7.8
2025-01-19 12:05:28.694938	261.8	14.8	-91.1	7.1
2025-01-19 12:05:29.858778	261.7	14.7	-91.0	8.3
2025-01-19 12:05:31.027184	261.6	14.6	-90.9	6.2
2025-01-19 12:05:32.184275	261.5	14.5	-91.1	6.5
#Closed at: 2025-01-19 11:57:24.601050