passes_logs/2025/01/19/LEX_Murmansk/LEX_Murmansk__20250119_165604_NOAA_18_rec.log

#Pass ID: 20250119_165604_NOAA 18
#Satellite: NOAA 18
#Configuration: NOAA 18
#Start time: 2025-01-19 16:55:59.740664

#LorettStation: 1.0.0 05.05.2024
#Station: LEX_Murmansk
#Location: 33.156738 lon 68.926811 lat
#TLE: 1 28654U 05018A   25019.12683114  .00000403  00000+0  23745-3 0  9992
#TLE: 2 28654  98.8559 100.1402 0014536 167.7337 192.4191 14.13490232 13765

#Time	Az	El	Level	SNR
2025-01-19 16:56:11.925235	95.0	16.1	-90.3	9.3
2025-01-19 16:56:13.090060	94.9	16.3	-90.3	13.6
2025-01-19 16:56:14.249196	94.7	16.4	-89.8	7.8
2025-01-19 16:56:15.413599	94.6	16.5	-90.4	7.6
2025-01-19 16:56:16.574682	94.5	16.6	-90.2	4.4
2025-01-19 16:56:17.742088	94.4	16.7	-90.7	8.1
2025-01-19 16:56:18.899374	94.2	16.8	-90.8	8.4
2025-01-19 16:56:20.060474	94.1	16.9	-90.5	7.7
2025-01-19 16:56:21.220536	94.0	17.0	-90.6	10.6
2025-01-19 16:56:22.377859	93.8	17.2	-90.5	11.2
2025-01-19 16:56:23.541421	93.7	17.3	-90.7	14.7
2025-01-19 16:56:24.702044	93.6	17.4	-90.0	14.5
2025-01-19 16:56:25.871763	93.4	17.5	-90.5	8.3
2025-01-19 16:56:27.030580	93.3	17.6	-90.7	9.1
2025-01-19 16:56:28.195636	93.2	17.7	-90.5	11.7
2025-01-19 16:56:29.358879	93.0	17.8	-90.5	7.7
2025-01-19 16:56:30.523335	92.9	18.0	-90.7	10.9
2025-01-19 16:56:31.685560	92.7	18.1	-89.3	7.2
2025-01-19 16:56:32.846870	92.6	18.2	-90.6	11.9
2025-01-19 16:56:34.009431	92.4	18.3	-90.3	4.9
2025-01-19 16:56:35.174319	92.3	18.4	-90.8	11.2
2025-01-19 16:56:36.350564	92.1	18.5	-90.3	10.7
2025-01-19 16:56:37.513496	92.0	18.7	-90.7	9.1
2025-01-19 16:56:38.681055	91.9	18.8	-90.8	12.4
2025-01-19 16:56:39.842300	91.7	18.9	-90.5	8.5
2025-01-19 16:56:41.005557	91.5	19.0	-90.0	10.1
2025-01-19 16:56:42.160642	91.4	19.1	-90.0	9.4
2025-01-19 16:56:43.320902	91.2	19.3	-90.1	5.1
2025-01-19 16:56:44.486317	91.1	19.4	-90.0	7.4
2025-01-19 16:56:45.644668	90.9	19.5	-89.9	6.5
2025-01-19 16:56:46.811097	90.8	19.6	-89.9	12.2
2025-01-19 16:56:47.972642	90.6	19.7	-90.7	8.7
2025-01-19 16:56:49.136977	90.5	19.9	-90.8	11.0
2025-01-19 16:56:50.303685	90.3	20.0	-90.5	11.6
2025-01-19 16:56:51.465419	90.1	20.1	-90.6	6.3
2025-01-19 16:56:52.623746	90.0	20.2	-90.4	8.8
2025-01-19 16:56:53.787718	89.8	20.4	-89.5	9.2
2025-01-19 16:56:54.950294	89.6	20.5	-90.4	7.1
2025-01-19 16:56:56.110426	89.5	20.6	-90.5	11.0
2025-01-19 16:56:57.274612	89.3	20.7	-91.3	12.3
2025-01-19 16:56:58.437313	89.1	20.9	-90.8	15.1
2025-01-19 16:56:59.599885	89.0	21.0	-91.2	13.4
2025-01-19 16:57:00.753431	88.8	21.1	-90.9	11.8
2025-01-19 16:57:01.900022	88.6	21.2	-89.7	8.0
2025-01-19 16:57:03.064319	88.4	21.4	-90.5	9.1
2025-01-19 16:57:04.229281	88.3	21.5	-90.5	10.2
2025-01-19 16:57:05.391969	88.1	21.6	-90.3	9.6
2025-01-19 16:57:06.556741	87.9	21.7	-90.9	11.1
2025-01-19 16:57:07.724275	87.7	21.9	-90.5	10.1
2025-01-19 16:57:08.889180	87.5	22.0	-90.8	7.4
2025-01-19 16:57:10.056681	87.3	22.1	-90.4	5.8
2025-01-19 16:57:11.220917	87.2	22.2	-90.5	10.4
2025-01-19 16:57:12.380162	87.0	22.4	-90.5	7.4
2025-01-19 16:57:13.546676	86.8	22.5	-90.7	5.4
2025-01-19 16:57:14.707165	86.6	22.6	-90.8	6.0
2025-01-19 16:57:15.874523	86.4	22.8	-90.8	6.9
2025-01-19 16:57:17.039355	86.2	22.9	-90.8	3.4
2025-01-19 16:57:18.206422	86.0	23.0	-90.5	7.2
2025-01-19 16:57:19.369933	85.8	23.2	-90.7	6.1
2025-01-19 16:57:20.529721	85.6	23.3	-90.8	4.4
2025-01-19 16:57:21.695807	85.4	23.4	-91.0	3.5
2025-01-19 16:57:22.857274	85.2	23.5	-90.9	4.0
2025-01-19 16:57:24.022161	85.0	23.7	-90.6	3.8
2025-01-19 16:57:25.187693	84.8	23.8	-90.3	5.2
2025-01-19 16:57:26.349502	84.6	23.9	-90.2	7.0
2025-01-19 16:57:27.517005	84.4	24.1	-90.2	4.0
2025-01-19 16:57:28.679101	84.1	24.2	-90.7	3.5
2025-01-19 16:57:29.843504	83.9	24.3	-90.9	5.0
2025-01-19 16:57:31.001106	83.7	24.5	-90.9	3.8
2025-01-19 16:57:32.160378	83.5	24.6	-90.4	6.0
2025-01-19 16:57:33.326604	83.3	24.7	-89.6	4.7
2025-01-19 16:57:34.489523	83.1	24.9	-90.8	4.0
2025-01-19 16:57:35.654449	82.8	25.0	-90.4	6.5
2025-01-19 16:57:36.828574	82.6	25.1	-90.6	5.7
2025-01-19 16:57:37.995949	82.4	25.3	-91.2	5.3
2025-01-19 16:57:39.160307	82.2	25.4	-90.8	4.3
2025-01-19 16:57:40.325238	81.9	25.5	-90.6	6.3
2025-01-19 16:57:41.487665	81.7	25.7	-90.4	6.2
2025-01-19 16:57:42.647588	81.5	25.8	-90.5	3.3
2025-01-19 16:57:43.806825	81.2	25.9	-90.5	6.0
2025-01-19 16:57:44.976829	81.0	26.1	-90.6	5.7
2025-01-19 16:57:46.141100	80.7	26.2	-90.5	9.2
2025-01-19 16:57:47.306211	80.5	26.4	-90.5	9.1
2025-01-19 16:57:48.469744	80.2	26.5	-90.6	5.8
2025-01-19 16:57:49.626582	80.0	26.6	-90.3	6.8
2025-01-19 16:57:50.795845	79.7	26.8	-89.8	9.8
2025-01-19 16:57:51.955667	79.5	26.9	-90.5	4.9
2025-01-19 16:57:53.115518	79.2	27.0	-90.4	6.2
2025-01-19 16:57:54.280346	79.0	27.2	-90.9	11.3
2025-01-19 16:57:55.444817	78.7	27.3	-90.2	6.7
2025-01-19 16:57:56.608846	78.5	27.4	-90.0	8.7
2025-01-19 16:57:57.765130	78.2	27.6	-90.0	8.6
2025-01-19 16:57:58.927391	77.9	27.7	-90.3	11.6
2025-01-19 16:58:00.088970	77.7	27.8	-90.4	10.2
2025-01-19 16:58:01.250371	77.4	28.0	-90.4	9.6
2025-01-19 16:58:02.405876	77.1	28.1	-90.4	9.6
2025-01-19 16:58:03.570177	76.9	28.2	-90.3	9.8
2025-01-19 16:58:04.729679	76.6	28.4	-90.3	13.9
2025-01-19 16:58:05.893041	76.3	28.5	-90.5	9.6
2025-01-19 16:58:07.054501	76.0	28.6	-90.3	8.0
2025-01-19 16:58:08.223524	75.7	28.8	-90.9	10.8
2025-01-19 16:58:09.382513	75.5	28.9	-90.8	12.0
2025-01-19 16:58:10.547972	75.2	29.1	-91.0	10.5
2025-01-19 16:58:11.701901	74.9	29.2	-90.9	9.6
2025-01-19 16:58:12.857617	74.6	29.3	-90.8	10.4
2025-01-19 16:58:14.020322	74.3	29.5	-91.1	5.4
2025-01-19 16:58:15.190735	74.0	29.6	-90.8	11.6
2025-01-19 16:58:16.354464	73.7	29.7	-90.7	9.8
2025-01-19 16:58:17.518480	73.4	29.9	-90.5	6.7
2025-01-19 16:58:18.688918	73.1	30.0	-90.8	11.7
2025-01-19 16:58:19.845999	72.8	30.1	-90.9	13.6
2025-01-19 16:58:21.018965	72.5	30.2	-91.2	11.8
2025-01-19 16:58:22.180602	72.1	30.4	-90.7	13.7
2025-01-19 16:58:23.340948	71.8	30.5	-90.6	15.5
2025-01-19 16:58:24.506029	71.5	30.6	-90.3	12.4
2025-01-19 16:58:25.676681	71.2	30.8	-90.6	16.0
2025-01-19 16:58:26.840058	70.9	30.9	-90.8	16.0
2025-01-19 16:58:28.004427	70.5	31.0	-90.4	11.1
2025-01-19 16:58:29.171052	70.2	31.2	-90.6	13.6
2025-01-19 16:58:30.333263	69.9	31.3	-90.8	12.8
2025-01-19 16:58:31.497823	69.5	31.4	-90.7	15.1
2025-01-19 16:58:32.659316	69.2	31.5	-90.9	14.8
2025-01-19 16:58:33.820895	68.9	31.7	-90.8	15.8
2025-01-19 16:58:34.990069	68.5	31.8	-90.5	13.4
2025-01-19 16:58:36.154475	68.2	31.9	-90.8	15.1
2025-01-19 16:58:37.317895	67.8	32.0	-90.7	15.2
2025-01-19 16:58:38.481222	67.5	32.2	-90.9	8.7
2025-01-19 16:58:39.650393	67.1	32.3	-90.6	12.8
2025-01-19 16:58:40.809924	66.8	32.4	-90.8	14.8
2025-01-19 16:58:41.972651	66.4	32.5	-90.1	6.5
2025-01-19 16:58:43.129827	66.0	32.7	-90.5	10.4
2025-01-19 16:58:44.293852	65.7	32.8	-89.9	14.1
2025-01-19 16:58:45.459486	65.3	32.9	-90.9	11.0
2025-01-19 16:58:46.619985	64.9	33.0	-90.6	13.5
2025-01-19 16:58:47.786123	64.6	33.1	-90.5	17.4
2025-01-19 16:58:48.945082	64.2	33.3	-90.3	17.9
2025-01-19 16:58:50.115676	63.8	33.4	-90.2	16.0
2025-01-19 16:58:51.278489	63.4	33.5	-90.1	15.4
2025-01-19 16:58:52.437345	63.0	33.6	-90.3	12.3
2025-01-19 16:58:53.599059	62.7	33.7	-90.5	11.6
2025-01-19 16:58:54.762960	62.3	33.8	-90.2	16.8
2025-01-19 16:58:55.929610	61.9	33.9	-90.4	10.2
2025-01-19 16:58:57.091461	61.5	34.0	-90.4	11.8
2025-01-19 16:58:58.256953	61.1	34.1	-90.5	16.5
2025-01-19 16:58:59.418156	60.7	34.3	-90.8	14.5
2025-01-19 16:59:00.576547	60.3	34.4	-91.2	15.6
2025-01-19 16:59:01.732551	59.9	34.5	-90.8	16.6
2025-01-19 16:59:02.892835	59.5	34.6	-90.8	17.4
2025-01-19 16:59:04.055003	59.1	34.7	-90.8	18.7
2025-01-19 16:59:05.214032	58.7	34.8	-91.1	18.0
2025-01-19 16:59:06.375704	58.3	34.9	-91.1	15.8
2025-01-19 16:59:07.538740	57.8	35.0	-91.1	9.7
2025-01-19 16:59:08.708240	57.4	35.1	-90.8	15.1
2025-01-19 16:59:09.882731	57.0	35.2	-91.1	11.3
2025-01-19 16:59:11.044279	56.6	35.2	-90.7	7.8
2025-01-19 16:59:12.202321	56.1	35.3	-90.0	13.1
2025-01-19 16:59:13.362573	55.7	35.4	-90.8	14.2
2025-01-19 16:59:14.527197	55.3	35.5	-91.2	9.4
2025-01-19 16:59:15.694408	54.8	35.6	-91.1	16.3
2025-01-19 16:59:16.855073	54.4	35.7	-91.2	17.5
2025-01-19 16:59:18.023700	54.0	35.8	-90.8	15.6
2025-01-19 16:59:19.187267	53.5	35.8	-90.9	17.0
2025-01-19 16:59:20.352541	53.1	35.9	-90.8	16.6
2025-01-19 16:59:21.522927	52.6	36.0	-91.3	19.1
2025-01-19 16:59:22.681287	52.2	36.1	-90.9	20.5
2025-01-19 16:59:23.847858	51.7	36.2	-91.4	19.6
2025-01-19 16:59:25.009463	51.3	36.2	-91.1	16.2
2025-01-19 16:59:26.172232	50.8	36.3	-90.9	17.2
2025-01-19 16:59:27.336655	50.4	36.4	-91.1	16.9
2025-01-19 16:59:28.501544	49.9	36.4	-90.7	10.0
2025-01-19 16:59:29.666167	49.5	36.5	-91.0	12.3
2025-01-19 16:59:30.830708	49.0	36.6	-91.0	15.2
2025-01-19 16:59:31.992988	48.5	36.6	-91.2	10.4
2025-01-19 16:59:33.152411	48.1	36.7	-90.6	17.8
2025-01-19 16:59:34.311424	47.6	36.7	-90.7	18.5
2025-01-19 16:59:35.475421	47.1	36.8	-90.4	11.9
2025-01-19 16:59:36.640090	46.7	36.8	-90.4	16.1
2025-01-19 16:59:37.809567	46.2	36.9	-90.8	15.9
2025-01-19 16:59:38.970756	45.7	36.9	-90.4	16.9
2025-01-19 16:59:40.131133	45.3	37.0	-90.4	15.6
2025-01-19 16:59:41.300856	44.8	37.0	-90.8	15.8
2025-01-19 16:59:42.465744	44.3	37.1	-91.0	16.6
2025-01-19 16:59:43.625487	43.8	37.1	-91.3	17.0
2025-01-19 16:59:44.788411	43.4	37.2	-91.1	19.9
2025-01-19 16:59:45.951987	42.9	37.2	-90.9	15.6
2025-01-19 16:59:47.128480	42.4	37.2	-90.9	13.0
2025-01-19 16:59:48.294562	41.9	37.3	-90.9	15.0
2025-01-19 16:59:49.461167	41.4	37.3	-90.3	10.3
2025-01-19 16:59:50.626396	40.9	37.3	-91.1	13.1
2025-01-19 16:59:51.791095	40.5	37.3	-90.4	15.2
2025-01-19 16:59:52.950504	40.0	37.3	-90.8	10.6
2025-01-19 16:59:54.117648	39.5	37.4	-90.7	10.8
2025-01-19 16:59:55.287855	39.0	37.4	-90.1	16.1
2025-01-19 16:59:56.447438	38.5	37.4	-91.3	9.0
2025-01-19 16:59:57.600035	38.0	37.4	-90.7	7.5
2025-01-19 16:59:58.751021	37.5	37.4	-90.4	15.0
2025-01-19 16:59:59.871624	37.1	37.4	-91.1	14.6
2025-01-19 17:00:00.991884	36.6	37.4	-90.8	9.0
2025-01-19 17:00:02.111883	36.1	37.4	-90.9	10.2
2025-01-19 17:00:03.232153	35.7	37.4	-90.8	17.2
2025-01-19 17:00:04.353959	35.2	37.4	-89.8	16.4
2025-01-19 17:00:05.475178	34.7	37.4	-91.1	12.2
2025-01-19 17:00:06.595938	34.3	37.4	-90.8	13.9
2025-01-19 17:00:07.720008	33.8	37.4	-90.7	15.6
2025-01-19 17:00:08.853738	33.3	37.4	-91.1	13.5
2025-01-19 17:00:10.017699	32.8	37.4	-91.3	11.3
2025-01-19 17:00:11.178410	32.3	37.4	-90.0	15.2
2025-01-19 17:00:12.334170	31.9	37.4	-90.4	15.4
2025-01-19 17:00:13.477592	31.4	37.3	-90.7	16.9
2025-01-19 17:00:14.646794	30.9	37.3	-90.9	17.6
2025-01-19 17:00:15.808685	30.4	37.3	-90.7	18.6
2025-01-19 17:00:16.967289	29.9	37.3	-90.7	18.2
2025-01-19 17:00:18.100245	29.5	37.2	-90.8	17.5
2025-01-19 17:00:19.250261	29.0	37.2	-90.8	14.6
2025-01-19 17:00:20.410916	28.5	37.2	-90.8	15.0
2025-01-19 17:00:21.557167	28.0	37.1	-91.2	14.0
2025-01-19 17:00:22.711868	27.6	37.1	-91.3	16.0
2025-01-19 17:00:23.867278	27.1	37.0	-91.2	18.2
2025-01-19 17:00:25.034678	26.6	37.0	-90.3	14.9
2025-01-19 17:00:26.198195	26.1	37.0	-90.0	15.0
2025-01-19 17:00:27.366687	25.7	36.9	-90.8	13.3
2025-01-19 17:00:28.524129	25.2	36.9	-90.5	12.0
2025-01-19 17:00:29.689692	24.7	36.8	-90.4	16.1
2025-01-19 17:00:30.850926	24.3	36.8	-91.0	15.8
2025-01-19 17:00:32.011336	23.8	36.7	-91.3	8.9
2025-01-19 17:00:33.169945	23.3	36.6	-90.5	15.6
2025-01-19 17:00:34.328630	22.9	36.6	-90.2	16.1
2025-01-19 17:00:35.496728	22.4	36.5	-90.8	11.5
2025-01-19 17:00:36.659929	22.0	36.5	-91.1	16.4
2025-01-19 17:00:37.820374	21.5	36.4	-90.8	16.2
2025-01-19 17:00:38.984989	21.0	36.3	-91.0	10.4
2025-01-19 17:00:40.146599	20.6	36.2	-90.9	15.3
2025-01-19 17:00:41.314446	20.1	36.2	-90.5	14.9
2025-01-19 17:00:42.477825	19.7	36.1	-90.3	9.0
2025-01-19 17:00:43.640353	19.2	36.0	-90.8	12.3
2025-01-19 17:00:44.804496	18.8	36.0	-90.9	13.1
2025-01-19 17:00:45.966695	18.3	35.9	-90.2	11.2
2025-01-19 17:00:47.130654	17.9	35.8	-90.2	11.3
2025-01-19 17:00:48.294559	17.5	35.7	-90.4	14.7
2025-01-19 17:00:49.458645	17.0	35.6	-90.5	10.2
2025-01-19 17:00:50.623508	16.6	35.5	-90.8	10.2
2025-01-19 17:00:51.777478	16.2	35.4	-90.6	12.6
2025-01-19 17:00:52.938928	15.7	35.4	-90.7	10.6
2025-01-19 17:00:54.102758	15.3	35.3	-91.1	9.8
2025-01-19 17:00:55.265247	14.9	35.2	-91.0	12.7
2025-01-19 17:00:56.434477	14.5	35.1	-90.1	11.4
2025-01-19 17:00:57.600259	14.0	35.0	-90.4	10.9
2025-01-19 17:00:58.763810	13.6	34.9	-90.1	13.6
2025-01-19 17:00:59.932213	13.2	34.8	-91.0	10.6
2025-01-19 17:01:01.087210	12.8	34.7	-90.3	13.8
2025-01-19 17:01:02.256141	12.4	34.6	-90.5	18.0
2025-01-19 17:01:03.416049	12.0	34.5	-90.2	16.3
2025-01-19 17:01:04.580506	11.6	34.4	-90.4	13.3
2025-01-19 17:01:05.743477	11.2	34.3	-90.8	15.1
2025-01-19 17:01:06.908442	10.8	34.2	-90.5	15.7
2025-01-19 17:01:08.075673	10.4	34.1	-90.6	13.2
2025-01-19 17:01:09.240779	10.0	34.0	-90.1	15.2
2025-01-19 17:01:10.402937	9.6	33.8	-90.2	14.6
2025-01-19 17:01:11.563902	9.2	33.7	-89.9	16.5
2025-01-19 17:01:12.729825	8.8	33.6	-91.1	18.1
2025-01-19 17:01:13.884843	8.4	33.5	-91.0	14.7
2025-01-19 17:01:15.048996	8.0	33.4	-90.5	16.4
2025-01-19 17:01:16.212448	7.7	33.3	-90.6	16.3
2025-01-19 17:01:17.374935	7.3	33.2	-90.9	14.3
2025-01-19 17:01:18.541011	6.9	33.0	-91.2	15.7
2025-01-19 17:01:19.709493	6.5	32.9	-90.8	15.5
2025-01-19 17:01:20.872503	6.2	32.8	-90.7	15.0
2025-01-19 17:01:22.038355	5.8	32.7	-90.7	16.4
2025-01-19 17:01:23.198725	5.4	32.6	-90.9	13.8
2025-01-19 17:01:24.357911	5.1	32.4	-90.8	15.3
2025-01-19 17:01:25.525909	4.7	32.3	-90.9	12.9
2025-01-19 17:01:26.694632	4.4	32.2	-90.7	12.8
2025-01-19 17:01:27.857132	4.0	32.1	-91.1	12.4
2025-01-19 17:01:29.021277	3.7	31.9	-90.8	10.5
2025-01-19 17:01:30.188718	3.3	31.8	-90.5	9.1
2025-01-19 17:01:31.352540	3.0	31.7	-90.2	14.6
2025-01-19 17:01:32.522019	2.6	31.6	-90.7	11.5
2025-01-19 17:01:33.683911	2.3	31.4	-90.8	14.2
2025-01-19 17:01:34.848029	2.0	31.3	-90.9	10.1
2025-01-19 17:01:36.012489	1.6	31.2	-90.5	7.7
2025-01-19 17:01:37.175376	1.3	31.1	-90.3	12.4
2025-01-19 17:01:38.337454	1.0	30.9	-90.0	12.2
2025-01-19 17:01:39.504869	0.6	30.8	-89.8	5.8
2025-01-19 17:01:40.669886	0.3	30.7	-90.5	10.5
2025-01-19 17:01:41.838338	360.0	30.5	-91.6	9.4
2025-01-19 17:01:43.000193	359.7	30.4	-90.6	8.6
2025-01-19 17:01:44.152500	359.4	30.3	-90.7	13.0
2025-01-19 17:01:45.317545	359.0	30.1	-90.7	8.2
2025-01-19 17:01:46.483016	358.7	30.0	-90.2	7.9
2025-01-19 17:01:47.649455	358.4	29.9	-90.6	9.7
2025-01-19 17:01:48.815329	358.1	29.7	-90.5	11.2
2025-01-19 17:01:49.983727	357.8	29.6	-91.0	9.0
2025-01-19 17:01:51.145265	357.5	29.5	-90.4	12.6
2025-01-19 17:01:52.308994	357.2	29.3	-91.0	15.1
2025-01-19 17:01:53.476054	356.9	29.2	-90.1	13.1
2025-01-19 17:01:54.637585	356.6	29.1	-90.8	14.5
2025-01-19 17:01:55.802726	356.3	28.9	-90.9	15.0
2025-01-19 17:01:56.965438	356.1	28.8	-90.6	8.8
2025-01-19 17:01:58.124997	355.8	28.7	-90.3	13.4
2025-01-19 17:01:59.289232	355.5	28.5	-90.3	10.3
2025-01-19 17:02:00.450681	355.2	28.4	-90.1	11.6
2025-01-19 17:02:01.617810	354.9	28.3	-90.2	10.4
2025-01-19 17:02:02.781493	354.7	28.1	-90.6	13.1
2025-01-19 17:02:03.942645	354.4	28.0	-90.4	9.7
2025-01-19 17:02:05.110149	354.1	27.9	-90.3	7.9
2025-01-19 17:02:06.266962	353.9	27.7	-90.5	9.4
2025-01-19 17:02:07.432411	353.6	27.6	-90.4	8.4
2025-01-19 17:02:08.596236	353.3	27.4	-90.6	7.9
2025-01-19 17:02:09.765132	353.1	27.3	-90.6	12.0
2025-01-19 17:02:10.927124	352.8	27.2	-90.7	7.0
2025-01-19 17:02:12.091808	352.5	27.0	-90.7	6.4
2025-01-19 17:02:13.246864	352.3	26.9	-90.4	7.9
2025-01-19 17:02:14.417910	352.0	26.8	-90.2	6.6
2025-01-19 17:02:15.578483	351.8	26.6	-90.0	6.3
2025-01-19 17:02:16.742691	351.5	26.5	-90.4	10.8
2025-01-19 17:02:17.907456	351.3	26.4	-90.3	8.8
2025-01-19 17:02:19.069846	351.0	26.2	-90.5	8.5
2025-01-19 17:02:20.231443	350.8	26.1	-91.0	14.4
2025-01-19 17:02:21.395753	350.6	26.0	-90.2	10.3
2025-01-19 17:02:22.564329	350.3	25.8	-90.8	14.2
2025-01-19 17:02:23.723551	350.1	25.7	-90.4	13.0
2025-01-19 17:02:24.890582	349.9	25.5	-90.3	13.4
2025-01-19 17:02:26.055001	349.6	25.4	-90.5	13.2
2025-01-19 17:02:27.222447	349.4	25.3	-90.4	12.3
2025-01-19 17:02:28.386030	349.2	25.1	-90.1	12.7
2025-01-19 17:02:29.550181	348.9	25.0	-90.8	11.8
2025-01-19 17:02:30.716680	348.7	24.9	-90.4	12.3
2025-01-19 17:02:31.881781	348.5	24.7	-90.3	9.4
2025-01-19 17:02:33.047312	348.3	24.6	-90.5	5.8
2025-01-19 17:02:34.206568	348.0	24.5	-90.4	13.4
2025-01-19 17:02:35.370991	347.8	24.3	-90.7	12.6
2025-01-19 17:02:36.536274	347.6	24.2	-91.0	10.4
2025-01-19 17:02:37.702328	347.4	24.1	-91.2	14.0
2025-01-19 17:02:38.870684	347.2	23.9	-91.5	15.0
2025-01-19 17:02:40.034749	347.0	23.8	-91.7	12.6
2025-01-19 17:02:41.202620	346.8	23.7	-90.8	14.1
2025-01-19 17:02:42.371882	346.6	23.5	-90.6	12.7
2025-01-19 17:02:43.529631	346.4	23.4	-90.4	12.2
2025-01-19 17:02:44.690768	346.2	23.3	-91.3	11.8
2025-01-19 17:02:45.849159	346.0	23.2	-91.1	11.8
2025-01-19 17:02:47.017861	345.8	23.0	-90.8	11.4
2025-01-19 17:02:48.178140	345.6	22.9	-91.1	15.7
2025-01-19 17:02:49.334862	345.4	22.8	-91.0	10.7
2025-01-19 17:02:50.489843	345.2	22.6	-91.6	8.7
2025-01-19 17:02:51.662125	345.0	22.5	-91.4	11.8
2025-01-19 17:02:52.827753	344.8	22.4	-90.6	13.7
2025-01-19 17:02:53.995979	344.6	22.2	-91.2	8.8
2025-01-19 17:02:55.156576	344.4	22.1	-91.2	10.4
2025-01-19 17:02:56.319178	344.2	22.0	-91.2	14.6
2025-01-19 17:02:57.483908	344.0	21.9	-91.0	8.1
2025-01-19 17:02:58.648320	343.9	21.7	-91.7	10.3
2025-01-19 17:02:59.810600	343.7	21.6	-91.3	12.1
2025-01-19 17:03:00.967070	343.5	21.5	-91.1	10.6
2025-01-19 17:03:02.135476	343.3	21.4	-90.8	11.0
2025-01-19 17:03:03.300482	343.1	21.2	-91.0	11.4
2025-01-19 17:03:04.462588	343.0	21.1	-91.1	13.4
2025-01-19 17:03:05.626926	342.8	21.0	-91.1	13.8
2025-01-19 17:03:06.787485	342.6	20.8	-91.2	10.6
2025-01-19 17:03:07.956129	342.5	20.7	-91.3	10.6
2025-01-19 17:03:09.122580	342.3	20.6	-91.4	8.8
2025-01-19 17:03:10.289132	342.1	20.5	-91.1	10.2
2025-01-19 17:03:11.450963	341.9	20.3	-91.0	8.4
2025-01-19 17:03:12.608501	341.8	20.2	-90.6	5.7
2025-01-19 17:03:13.766613	341.6	20.1	-91.2	4.7
2025-01-19 17:03:14.931342	341.5	20.0	-91.7	4.1
2025-01-19 17:03:16.098387	341.3	19.9	-90.8	3.4
2025-01-19 17:03:17.262952	341.1	19.7	-90.9	8.7
2025-01-19 17:03:18.428346	341.0	19.6	-91.2	6.7
2025-01-19 17:03:19.593245	340.8	19.5	-91.1	6.1
2025-01-19 17:03:20.754611	340.7	19.4	-91.0	4.9
2025-01-19 17:03:21.919013	340.5	19.2	-91.4	5.4
2025-01-19 17:03:23.082918	340.4	19.1	-91.2	9.7
2025-01-19 17:03:24.242808	340.2	19.0	-91.0	7.1
2025-01-19 17:03:25.398371	340.0	18.9	-91.2	3.1
2025-01-19 17:03:26.561044	339.9	18.8	-91.5	7.3
2025-01-19 17:03:27.723230	339.7	18.6	-91.3	7.8
2025-01-19 17:03:28.891534	339.6	18.5	-91.1	6.2
2025-01-19 17:03:30.056225	339.5	18.4	-91.2	3.7
2025-01-19 17:03:31.222221	339.3	18.3	-91.1	6.1
2025-01-19 17:03:32.384279	339.2	18.2	-90.9	6.2
2025-01-19 17:03:33.548040	339.0	18.1	-91.0	4.8
2025-01-19 17:03:34.712601	338.9	17.9	-90.6	9.8
2025-01-19 17:03:35.872009	338.7	17.8	-89.1	6.2
2025-01-19 17:03:37.037005	338.6	17.7	-90.5	7.7
2025-01-19 17:03:38.195505	338.5	17.6	-90.7	5.7
2025-01-19 17:03:39.360891	338.3	17.5	-90.5	6.3
2025-01-19 17:03:40.527138	338.2	17.4	-91.1	4.8
2025-01-19 17:03:41.692721	338.0	17.2	-90.9	4.7
2025-01-19 17:03:42.853277	337.9	17.1	-90.5	7.5
2025-01-19 17:03:44.012981	337.8	17.0	-90.4	6.0
2025-01-19 17:03:45.181761	337.6	16.9	-90.7	5.2
2025-01-19 17:03:46.341535	337.5	16.8	-90.9	3.9
2025-01-19 17:03:47.506243	337.4	16.7	-90.5	4.8
2025-01-19 17:03:48.671928	337.3	16.6	-91.0	4.1
2025-01-19 17:03:49.836537	337.1	16.4	-90.7	4.1
2025-01-19 17:03:51.001994	337.0	16.3	-90.8	3.6
2025-01-19 17:03:52.164711	336.9	16.2	-90.8	4.1
2025-01-19 17:03:53.327082	336.7	16.1	-90.8	6.4
2025-01-19 17:03:54.490114	336.6	16.0	-91.3	6.5
2025-01-19 17:03:55.653192	336.5	15.9	-90.8	6.1
2025-01-19 17:03:56.822423	336.4	15.8	-91.1	5.5
2025-01-19 17:03:57.984390	336.3	15.7	-90.3	6.9
2025-01-19 17:03:59.143916	336.1	15.6	-90.5	5.5
2025-01-19 17:04:00.302379	336.0	15.5	-90.6	7.1
2025-01-19 17:04:01.463154	335.9	15.3	-90.1	4.9
2025-01-19 17:04:02.631289	335.8	15.2	-91.1	6.2
2025-01-19 17:04:03.790822	335.7	15.1	-90.7	7.8
2025-01-19 17:04:04.955936	335.5	15.0	-90.6	4.2
2025-01-19 17:04:06.120799	335.4	14.9	-90.3	5.4
2025-01-19 17:04:07.285358	335.3	14.8	-91.3	6.2
2025-01-19 17:04:08.450533	335.2	14.7	-91.2	4.6
2025-01-19 17:04:09.612654	335.1	14.6	-90.4	6.3
#Closed at: 2025-01-19 16:56:04.718058