passes_logs/2025/01/19/LEX_Murmansk/LEX_Murmansk__20250119_133750_NOAA_18_rec.log

#Pass ID: 20250119_133750_NOAA 18
#Satellite: NOAA 18
#Configuration: NOAA 18
#Start time: 2025-01-19 13:37:45.260847

#LorettStation: 1.0.0 05.05.2024
#Station: LEX_Murmansk
#Location: 33.156738 lon 68.926811 lat
#TLE: 1 28654U 05018A   25019.12683114  .00000403  00000+0  23745-3 0  9992
#TLE: 2 28654  98.8559 100.1402 0014536 167.7337 192.4191 14.13490232 13765

#Time	Az	El	Level	SNR
2025-01-19 13:37:59.499078	30.2	16.1	-90.6	2.0
2025-01-19 13:38:00.670974	30.0	16.2	-90.5	3.4
2025-01-19 13:38:01.836784	29.8	16.2	-90.3	3.4
2025-01-19 13:38:02.999063	29.7	16.3	-90.0	5.1
2025-01-19 13:38:04.164621	29.5	16.4	-90.1	5.2
2025-01-19 13:38:05.326245	29.3	16.5	-90.4	5.4
2025-01-19 13:38:06.488964	29.1	16.6	-90.6	5.9
2025-01-19 13:38:07.647686	28.9	16.7	-90.7	5.3
2025-01-19 13:38:08.813479	28.7	16.8	-90.4	6.2
2025-01-19 13:38:09.979082	28.5	16.9	-90.6	6.4
2025-01-19 13:38:11.143027	28.3	16.9	-90.2	4.1
2025-01-19 13:38:12.306378	28.1	17.0	-90.0	3.6
2025-01-19 13:38:13.468663	27.9	17.1	-90.5	4.8
2025-01-19 13:38:14.619651	27.7	17.2	-90.7	6.4
2025-01-19 13:38:15.785805	27.5	17.3	-90.5	6.5
2025-01-19 13:38:16.953017	27.4	17.4	-90.4	7.3
2025-01-19 13:38:18.112100	27.2	17.5	-89.9	9.0
2025-01-19 13:38:19.273189	27.0	17.6	-90.3	9.6
2025-01-19 13:38:20.439212	26.8	17.6	-90.8	7.3
2025-01-19 13:38:21.606763	26.5	17.7	-90.7	7.7
2025-01-19 13:38:22.745488	26.3	17.8	-90.5	7.8
2025-01-19 13:38:23.906148	26.1	17.9	-90.1	5.9
2025-01-19 13:38:25.059959	25.9	18.0	-90.5	9.5
2025-01-19 13:38:26.222590	25.7	18.1	-90.6	10.9
2025-01-19 13:38:27.381831	25.5	18.2	-90.8	8.3
2025-01-19 13:38:28.541292	25.3	18.2	-90.8	7.0
2025-01-19 13:38:29.707605	25.1	18.3	-90.5	8.5
2025-01-19 13:38:30.866573	24.9	18.4	-91.0	8.7
2025-01-19 13:38:32.030329	24.7	18.5	-90.9	4.2
2025-01-19 13:38:33.207718	24.5	18.6	-90.1	7.7
2025-01-19 13:38:34.368166	24.2	18.7	-90.5	8.4
2025-01-19 13:38:35.530083	24.0	18.8	-90.6	5.3
2025-01-19 13:38:36.702470	23.8	18.8	-90.5	10.5
2025-01-19 13:38:37.851190	23.6	18.9	-90.6	11.1
2025-01-19 13:38:39.017387	23.4	19.0	-91.0	13.8
2025-01-19 13:38:40.182307	23.1	19.1	-90.6	10.2
2025-01-19 13:38:41.350460	22.9	19.2	-90.7	11.0
2025-01-19 13:38:42.515694	22.7	19.3	-90.8	8.0
2025-01-19 13:38:43.680737	22.5	19.4	-90.9	12.2
2025-01-19 13:38:44.837692	22.2	19.4	-90.9	8.6
2025-01-19 13:38:46.002874	22.0	19.5	-90.5	4.9
2025-01-19 13:38:47.170777	21.8	19.6	-90.6	5.4
2025-01-19 13:38:48.332252	21.6	19.7	-90.5	7.7
2025-01-19 13:38:49.484047	21.3	19.8	-90.9	4.5
2025-01-19 13:38:50.605302	21.1	19.9	-91.2	8.8
2025-01-19 13:38:51.758807	20.9	19.9	-91.3	8.5
2025-01-19 13:38:52.922587	20.6	20.0	-90.9	4.7
2025-01-19 13:38:54.088970	20.4	20.1	-90.8	5.8
2025-01-19 13:38:55.247591	20.2	20.2	-90.7	5.0
2025-01-19 13:38:56.413360	19.9	20.3	-91.3	5.6
2025-01-19 13:38:57.573988	19.7	20.3	-91.0	6.2
2025-01-19 13:38:58.739386	19.4	20.4	-91.3	3.9
2025-01-19 13:38:59.901417	19.2	20.5	-91.2	4.7
2025-01-19 13:39:01.064613	18.9	20.6	-90.8	6.1
2025-01-19 13:39:02.230331	18.7	20.7	-90.9	6.0
2025-01-19 13:39:03.397745	18.5	20.7	-90.7	10.5
2025-01-19 13:39:04.557478	18.2	20.8	-90.6	9.0
2025-01-19 13:39:05.726557	18.0	20.9	-91.0	10.4
2025-01-19 13:39:06.891563	17.7	21.0	-91.2	6.3
2025-01-19 13:39:08.056873	17.4	21.1	-90.8	7.8
2025-01-19 13:39:09.221317	17.2	21.1	-90.7	7.4
2025-01-19 13:39:10.386099	16.9	21.2	-90.7	6.5
2025-01-19 13:39:11.554740	16.7	21.3	-90.4	8.1
2025-01-19 13:39:12.716355	16.4	21.4	-90.8	9.2
2025-01-19 13:39:13.878078	16.2	21.5	-90.7	5.0
2025-01-19 13:39:15.034260	15.9	21.5	-90.7	11.4
2025-01-19 13:39:16.198354	15.6	21.6	-90.6	9.2
2025-01-19 13:39:17.364313	15.4	21.7	-90.8	7.9
2025-01-19 13:39:18.527619	15.1	21.8	-90.6	7.8
2025-01-19 13:39:19.695462	14.8	21.8	-91.0	10.4
2025-01-19 13:39:20.859167	14.6	21.9	-91.0	8.6
2025-01-19 13:39:22.022233	14.3	22.0	-90.9	3.9
2025-01-19 13:39:23.188740	14.0	22.1	-90.5	3.7
2025-01-19 13:39:24.354029	13.8	22.1	-90.9	8.5
2025-01-19 13:39:25.515824	13.5	22.2	-91.3	6.2
2025-01-19 13:39:26.682360	13.2	22.3	-90.8	5.8
2025-01-19 13:39:27.846591	12.9	22.3	-90.8	11.7
2025-01-19 13:39:28.998501	12.7	22.4	-91.2	9.3
2025-01-19 13:39:30.158326	12.4	22.5	-90.7	12.8
2025-01-19 13:39:31.323762	12.1	22.6	-90.5	15.7
2025-01-19 13:39:32.487339	11.8	22.6	-90.6	13.4
2025-01-19 13:39:33.650084	11.6	22.7	-91.0	4.8
2025-01-19 13:39:34.812591	11.3	22.8	-91.1	14.4
2025-01-19 13:39:35.976908	11.0	22.8	-91.1	9.6
2025-01-19 13:39:37.139391	10.7	22.9	-90.8	12.3
2025-01-19 13:39:38.301604	10.4	23.0	-90.8	11.1
2025-01-19 13:39:39.465583	10.1	23.0	-91.3	10.8
2025-01-19 13:39:40.631216	9.8	23.1	-91.1	15.6
2025-01-19 13:39:41.795324	9.5	23.2	-91.2	16.4
2025-01-19 13:39:42.961154	9.3	23.2	-91.0	17.8
2025-01-19 13:39:44.120071	9.0	23.3	-90.9	17.1
2025-01-19 13:39:45.272831	8.7	23.4	-91.1	13.8
2025-01-19 13:39:46.435227	8.4	23.4	-90.6	15.5
2025-01-19 13:39:47.599353	8.1	23.5	-90.6	13.1
2025-01-19 13:39:48.764354	7.8	23.5	-90.7	14.0
2025-01-19 13:39:49.940402	7.5	23.6	-90.8	9.3
2025-01-19 13:39:51.105021	7.2	23.7	-90.7	5.4
2025-01-19 13:39:52.265021	6.9	23.7	-90.5	14.4
2025-01-19 13:39:53.431849	6.6	23.8	-90.7	6.6
2025-01-19 13:39:54.590319	6.3	23.8	-90.5	7.8
2025-01-19 13:39:55.765128	6.0	23.9	-90.8	11.2
2025-01-19 13:39:56.932256	5.7	23.9	-90.8	8.6
2025-01-19 13:39:58.097295	5.4	24.0	-90.6	10.0
2025-01-19 13:39:59.258505	5.1	24.1	-90.7	13.0
2025-01-19 13:40:00.419358	4.7	24.1	-90.9	13.2
2025-01-19 13:40:01.581678	4.4	24.2	-91.2	10.0
2025-01-19 13:40:02.741610	4.1	24.2	-91.6	10.6
2025-01-19 13:40:03.909558	3.8	24.3	-91.0	12.6
2025-01-19 13:40:05.065969	3.5	24.3	-91.0	12.9
2025-01-19 13:40:06.232229	3.2	24.4	-91.0	19.3
2025-01-19 13:40:07.367779	2.9	24.4	-91.1	13.2
2025-01-19 13:40:08.529224	2.6	24.5	-91.4	9.5
2025-01-19 13:40:09.693826	2.3	24.5	-91.2	16.1
2025-01-19 13:40:10.857618	1.9	24.5	-91.0	14.0
2025-01-19 13:40:12.024008	1.6	24.6	-90.9	11.0
2025-01-19 13:40:13.189215	1.3	24.6	-90.9	13.9
2025-01-19 13:40:14.349348	1.0	24.7	-91.1	7.3
2025-01-19 13:40:15.507593	0.7	24.7	-91.0	9.5
2025-01-19 13:40:16.676834	0.3	24.8	-91.2	13.5
2025-01-19 13:40:17.841442	0.0	24.8	-91.2	11.3
2025-01-19 13:40:19.009923	359.7	24.8	-91.0	14.5
2025-01-19 13:40:20.177897	359.4	24.9	-91.1	11.9
2025-01-19 13:40:21.356692	359.0	24.9	-90.7	15.2
2025-01-19 13:40:22.515638	358.7	25.0	-90.8	14.9
2025-01-19 13:40:23.680713	358.4	25.0	-90.6	17.7
2025-01-19 13:40:24.845219	358.1	25.0	-90.6	10.0
2025-01-19 13:40:26.008853	357.7	25.1	-90.8	8.2
2025-01-19 13:40:27.176153	357.4	25.1	-91.2	11.1
2025-01-19 13:40:28.342480	357.1	25.1	-91.0	11.4
2025-01-19 13:40:29.496347	356.7	25.1	-91.1	8.8
2025-01-19 13:40:30.654233	356.4	25.2	-91.2	10.2
2025-01-19 13:40:31.817888	356.1	25.2	-91.4	9.3
2025-01-19 13:40:32.980946	355.7	25.2	-90.9	8.2
2025-01-19 13:40:34.140420	355.4	25.3	-90.9	11.3
2025-01-19 13:40:35.299039	355.1	25.3	-90.9	12.2
2025-01-19 13:40:36.463060	354.8	25.3	-91.5	7.2
2025-01-19 13:40:37.620556	354.4	25.3	-91.3	7.4
2025-01-19 13:40:38.780379	354.1	25.4	-91.6	13.1
2025-01-19 13:40:39.948980	353.7	25.4	-91.3	11.3
2025-01-19 13:40:41.114854	353.4	25.4	-90.8	14.3
2025-01-19 13:40:42.280135	353.1	25.4	-91.2	15.9
2025-01-19 13:40:43.446378	352.7	25.4	-91.3	12.4
2025-01-19 13:40:44.600535	352.4	25.5	-91.6	14.2
2025-01-19 13:40:45.763949	352.1	25.5	-91.3	15.8
2025-01-19 13:40:46.928307	351.7	25.5	-91.3	15.7
2025-01-19 13:40:48.095661	351.4	25.5	-90.8	14.8
2025-01-19 13:40:49.260416	351.1	25.5	-91.0	10.1
2025-01-19 13:40:50.438057	350.7	25.5	-91.4	9.2
2025-01-19 13:40:51.606466	350.4	25.5	-91.2	13.2
2025-01-19 13:40:52.772248	350.0	25.5	-91.2	8.4
2025-01-19 13:40:53.937406	349.7	25.5	-90.9	8.2
2025-01-19 13:40:55.093671	349.4	25.6	-90.9	8.5
2025-01-19 13:40:56.266977	349.0	25.6	-91.0	16.1
2025-01-19 13:40:57.432468	348.7	25.6	-91.1	10.3
2025-01-19 13:40:58.596514	348.3	25.6	-90.8	7.0
2025-01-19 13:40:59.757381	348.0	25.6	-91.0	10.8
2025-01-19 13:41:00.919089	347.7	25.6	-91.0	7.5
2025-01-19 13:41:02.095457	347.3	25.6	-91.0	6.4
2025-01-19 13:41:03.261818	347.0	25.6	-91.4	11.7
2025-01-19 13:41:04.422119	346.6	25.6	-91.5	6.1
2025-01-19 13:41:05.578725	346.3	25.6	-91.7	7.2
2025-01-19 13:41:06.742808	346.0	25.6	-91.9	10.9
2025-01-19 13:41:07.909457	345.6	25.6	-91.7	8.7
2025-01-19 13:41:09.068795	345.3	25.6	-91.6	7.0
2025-01-19 13:41:10.233652	344.9	25.5	-91.2	10.9
2025-01-19 13:41:11.399117	344.6	25.5	-91.3	8.6
2025-01-19 13:41:12.566339	344.3	25.5	-91.1	9.9
2025-01-19 13:41:13.735734	343.9	25.5	-91.4	7.4
2025-01-19 13:41:14.895781	343.6	25.5	-91.3	5.8
2025-01-19 13:41:16.054684	343.2	25.5	-91.2	7.3
2025-01-19 13:41:17.219298	342.9	25.5	-91.2	9.5
2025-01-19 13:41:18.384069	342.6	25.5	-91.4	8.0
2025-01-19 13:41:19.558827	342.2	25.4	-91.4	12.0
2025-01-19 13:41:20.728166	341.9	25.4	-91.5	9.3
2025-01-19 13:41:21.894276	341.6	25.4	-91.5	13.7
2025-01-19 13:41:23.043995	341.2	25.4	-91.1	16.0
2025-01-19 13:41:24.196599	340.9	25.4	-91.6	8.3
2025-01-19 13:41:25.349175	340.6	25.3	-91.5	16.0
2025-01-19 13:41:26.513976	340.2	25.3	-91.9	10.8
2025-01-19 13:41:27.677905	339.9	25.3	-91.4	12.6
2025-01-19 13:41:28.843006	339.6	25.3	-91.6	13.3
2025-01-19 13:41:30.000752	339.2	25.3	-91.8	5.4
2025-01-19 13:41:31.166401	338.9	25.2	-91.5	7.7
2025-01-19 13:41:32.330858	338.6	25.2	-91.4	8.9
2025-01-19 13:41:33.493146	338.2	25.2	-91.6	6.7
2025-01-19 13:41:34.656602	337.9	25.1	-91.5	6.7
2025-01-19 13:41:35.811700	337.6	25.1	-91.7	13.0
2025-01-19 13:41:36.974222	337.2	25.1	-91.8	7.2
2025-01-19 13:41:38.134776	336.9	25.0	-91.3	11.3
2025-01-19 13:41:39.301580	336.6	25.0	-91.2	4.8
2025-01-19 13:41:40.463309	336.3	25.0	-91.5	10.8
2025-01-19 13:41:41.628222	335.9	24.9	-91.3	10.2
2025-01-19 13:41:42.798434	335.6	24.9	-91.4	7.6
2025-01-19 13:41:43.959996	335.3	24.9	-90.5	11.8
2025-01-19 13:41:45.119158	334.9	24.8	-90.7	12.3
2025-01-19 13:41:46.285788	334.6	24.8	-90.5	11.4
2025-01-19 13:41:47.447753	334.3	24.7	-91.2	6.7
2025-01-19 13:41:48.617278	334.0	24.7	-91.3	8.7
2025-01-19 13:41:49.781849	333.7	24.7	-91.2	13.9
2025-01-19 13:41:50.949843	333.3	24.6	-91.3	4.5
2025-01-19 13:41:52.111323	333.0	24.6	-91.4	5.4
2025-01-19 13:41:53.275353	332.7	24.5	-91.1	6.6
2025-01-19 13:41:54.417497	332.4	24.5	-90.9	11.7
2025-01-19 13:41:55.539039	332.1	24.4	-91.4	11.7
2025-01-19 13:41:56.662950	331.8	24.4	-91.5	8.1
2025-01-19 13:41:57.797309	331.5	24.3	-91.4	11.0
2025-01-19 13:41:58.965090	331.1	24.3	-91.3	9.3
2025-01-19 13:42:00.095202	330.8	24.2	-91.0	10.3
2025-01-19 13:42:01.215370	330.5	24.2	-90.3	10.8
2025-01-19 13:42:02.335221	330.2	24.1	-91.0	8.8
2025-01-19 13:42:03.454793	329.9	24.1	-91.2	10.4
2025-01-19 13:42:04.582354	329.6	24.0	-91.5	10.1
2025-01-19 13:42:05.702942	329.4	24.0	-91.8	9.3
2025-01-19 13:42:06.823754	329.1	23.9	-91.2	14.0
2025-01-19 13:42:07.944856	328.8	23.9	-91.8	5.7
2025-01-19 13:42:09.068788	328.5	23.8	-91.2	11.6
2025-01-19 13:42:10.211220	328.2	23.8	-91.2	16.9
2025-01-19 13:42:11.377070	327.9	23.7	-91.5	11.2
2025-01-19 13:42:12.536958	327.6	23.7	-91.3	12.3
2025-01-19 13:42:13.699707	327.3	23.6	-91.2	17.9
2025-01-19 13:42:14.867014	327.0	23.5	-91.6	7.5
2025-01-19 13:42:16.028138	326.7	23.5	-91.8	8.1
2025-01-19 13:42:17.191367	326.4	23.4	-91.4	10.7
2025-01-19 13:42:18.356264	326.1	23.4	-91.4	17.5
2025-01-19 13:42:19.520489	325.8	23.3	-91.5	9.6
2025-01-19 13:42:20.688039	325.5	23.2	-91.5	15.7
2025-01-19 13:42:21.846646	325.2	23.2	-91.5	10.9
2025-01-19 13:42:23.011834	324.9	23.1	-91.4	9.1
2025-01-19 13:42:24.174315	324.6	23.0	-91.1	5.8
2025-01-19 13:42:25.331362	324.3	23.0	-91.3	5.1
2025-01-19 13:42:26.500872	324.0	22.9	-91.9	7.1
2025-01-19 13:42:27.663264	323.7	22.8	-91.7	3.7
2025-01-19 13:42:28.823128	323.5	22.8	-91.1	4.2
2025-01-19 13:42:29.984916	323.2	22.7	-91.5	5.2
2025-01-19 13:42:31.151977	322.9	22.6	-91.2	6.5
2025-01-19 13:42:32.310373	322.6	22.6	-91.2	5.6
2025-01-19 13:42:33.474940	322.3	22.5	-91.3	5.5
2025-01-19 13:42:34.639355	322.1	22.4	-91.2	6.6
2025-01-19 13:42:35.798703	321.8	22.3	-91.2	8.1
2025-01-19 13:42:36.961902	321.5	22.3	-91.3	9.0
2025-01-19 13:42:38.126417	321.2	22.2	-90.9	13.0
2025-01-19 13:42:39.297411	321.0	22.1	-91.2	3.1
2025-01-19 13:42:40.461559	320.7	22.1	-91.2	5.5
2025-01-19 13:42:41.637065	320.4	22.0	-91.0	5.9
2025-01-19 13:42:42.799152	320.1	21.9	-90.9	7.0
2025-01-19 13:42:43.966222	319.9	21.8	-91.0	6.4
2025-01-19 13:42:45.123287	319.6	21.8	-90.7	10.1
2025-01-19 13:42:46.292144	319.3	21.7	-90.7	6.2
2025-01-19 13:42:47.453627	319.1	21.6	-90.8	6.0
2025-01-19 13:42:48.619720	318.8	21.5	-91.0	6.7
2025-01-19 13:42:49.788500	318.5	21.4	-91.0	8.5
2025-01-19 13:42:50.956039	318.3	21.4	-90.9	5.9
2025-01-19 13:42:52.117326	318.0	21.3	-91.5	5.7
2025-01-19 13:42:53.277717	317.8	21.2	-91.2	5.1
2025-01-19 13:42:54.436330	317.5	21.1	-91.1	5.5
2025-01-19 13:42:55.596478	317.3	21.1	-91.4	5.5
2025-01-19 13:42:56.765317	317.0	21.0	-91.5	6.9
2025-01-19 13:42:57.923775	316.7	20.9	-91.3	5.6
2025-01-19 13:42:59.081496	316.5	20.8	-91.3	6.5
2025-01-19 13:43:00.237863	316.2	20.7	-91.4	12.4
2025-01-19 13:43:01.406081	316.0	20.7	-91.3	6.1
2025-01-19 13:43:02.564811	315.8	20.6	-91.9	4.5
2025-01-19 13:43:03.729635	315.5	20.5	-91.7	10.3
2025-01-19 13:43:04.888865	315.3	20.4	-91.5	8.0
2025-01-19 13:43:06.064129	315.0	20.3	-91.2	3.7
2025-01-19 13:43:07.233404	314.8	20.2	-91.1	5.2
2025-01-19 13:43:08.390250	314.5	20.2	-91.3	4.8
2025-01-19 13:43:09.546398	314.3	20.1	-91.2	9.5
2025-01-19 13:43:10.706376	314.1	20.0	-91.2	10.0
2025-01-19 13:43:11.867860	313.8	19.9	-91.6	10.5
2025-01-19 13:43:13.036654	313.6	19.8	-91.6	6.4
2025-01-19 13:43:14.199643	313.3	19.8	-91.6	6.4
2025-01-19 13:43:15.366483	313.1	19.7	-91.5	10.1
2025-01-19 13:43:16.523678	312.9	19.6	-91.4	3.1
2025-01-19 13:43:17.683812	312.7	19.5	-91.2	7.9
2025-01-19 13:43:18.846589	312.4	19.4	-91.2	7.6
2025-01-19 13:43:20.001067	312.2	19.3	-91.1	5.6
2025-01-19 13:43:21.167650	312.0	19.2	-91.2	5.2
2025-01-19 13:43:22.331636	311.7	19.2	-91.0	5.9
2025-01-19 13:43:23.491882	311.5	19.1	-91.3	6.8
2025-01-19 13:43:24.651113	311.3	19.0	-91.0	7.6
2025-01-19 13:43:25.822403	311.1	18.9	-91.4	8.3
2025-01-19 13:43:26.987053	310.9	18.8	-90.6	6.6
2025-01-19 13:43:28.146829	310.6	18.7	-90.6	6.8
2025-01-19 13:43:29.313288	310.4	18.6	-91.0	9.6
2025-01-19 13:43:30.487914	310.2	18.6	-91.5	5.8
2025-01-19 13:43:31.650133	310.0	18.5	-91.2	6.8
2025-01-19 13:43:32.813708	309.8	18.4	-91.1	10.7
2025-01-19 13:43:33.978660	309.6	18.3	-91.3	4.9
2025-01-19 13:43:35.143122	309.3	18.2	-91.5	6.0
2025-01-19 13:43:36.316886	309.1	18.1	-91.2	10.8
2025-01-19 13:43:37.481056	308.9	18.0	-91.5	9.0
2025-01-19 13:43:38.645019	308.7	18.0	-91.6	6.0
2025-01-19 13:43:39.809140	308.5	17.9	-91.7	10.4
2025-01-19 13:43:40.964533	308.3	17.8	-91.6	8.9
2025-01-19 13:43:42.129770	308.1	17.7	-91.3	7.4
2025-01-19 13:43:43.306316	307.9	17.6	-91.2	10.3
2025-01-19 13:43:44.474407	307.7	17.5	-91.5	6.5
2025-01-19 13:43:45.633070	307.5	17.4	-91.7	8.1
2025-01-19 13:43:46.812506	307.3	17.3	-91.6	8.2
2025-01-19 13:43:47.978529	307.1	17.2	-91.6	11.2
2025-01-19 13:43:49.139719	306.9	17.2	-91.4	7.7
2025-01-19 13:43:50.307736	306.7	17.1	-91.3	7.2
2025-01-19 13:43:51.468778	306.5	17.0	-91.2	5.8
2025-01-19 13:43:52.637503	306.3	16.9	-91.7	7.3
2025-01-19 13:43:53.801680	306.1	16.8	-91.3	8.9
2025-01-19 13:43:54.966739	305.9	16.7	-91.9	5.7
2025-01-19 13:43:56.129294	305.7	16.6	-91.3	10.3
2025-01-19 13:43:57.288125	305.5	16.5	-91.8	11.4
2025-01-19 13:43:58.455417	305.3	16.5	-91.8	5.8
2025-01-19 13:43:59.616795	305.2	16.4	-91.3	8.2
2025-01-19 13:44:00.772982	305.0	16.3	-91.5	9.1
2025-01-19 13:44:01.931602	304.8	16.2	-91.4	8.8
2025-01-19 13:44:03.096496	304.6	16.1	-91.7	8.7
2025-01-19 13:44:04.259367	304.4	16.0	-91.7	9.9
2025-01-19 13:44:05.414163	304.2	15.9	-91.2	9.3
2025-01-19 13:44:06.572963	304.1	15.8	-91.2	12.0
2025-01-19 13:44:07.734554	303.9	15.8	-91.3	12.6
2025-01-19 13:44:08.899616	303.7	15.7	-91.4	9.4
2025-01-19 13:44:10.059102	303.5	15.6	-91.6	8.2
2025-01-19 13:44:11.221926	303.3	15.5	-91.0	8.4
2025-01-19 13:44:12.387202	303.2	15.4	-91.1	6.5
2025-01-19 13:44:13.549665	303.0	15.3	-91.3	5.9
2025-01-19 13:44:14.714112	302.8	15.2	-91.3	5.6
2025-01-19 13:44:15.876251	302.6	15.1	-91.3	8.3
2025-01-19 13:44:17.033357	302.5	15.1	-91.0	5.7
2025-01-19 13:44:18.205116	302.3	15.0	-91.1	6.6
2025-01-19 13:44:19.365430	302.1	14.9	-91.7	6.4
2025-01-19 13:44:20.533346	302.0	14.8	-91.5	5.6
2025-01-19 13:44:21.696421	301.8	14.7	-91.3	9.1
2025-01-19 13:44:22.863713	301.6	14.6	-91.0	9.8
#Closed at: 2025-01-19 13:37:50.285008