passes_logs/2025/01/19/LEX_Murmansk/LEX_Murmansk__20250119_195422_NOAA_19_rec.log

#Pass ID: 20250119_195422_NOAA 19
#Satellite: NOAA 19
#Configuration: NOAA 19
#Start time: 2025-01-19 19:54:17.509160

#LorettStation: 1.0.0 05.05.2024
#Station: LEX_Murmansk
#Location: 33.156738 lon 68.926811 lat
#TLE: 1 33591U 09005A   25019.18116543  .00000338  00000+0  20449-3 0  9996
#TLE: 2 33591  99.0189  82.9757 0014332  46.3357 313.9000 14.13262914822133

#Time	Az	El	Level	SNR
2025-01-19 19:54:29.712068	227.2	15.9	-92.0	3.9
2025-01-19 19:54:30.833542	227.4	16.0	-91.6	4.1
2025-01-19 19:54:31.954499	227.5	16.1	-92.7	6.9
2025-01-19 19:54:33.075143	227.7	16.2	-91.8	6.2
2025-01-19 19:54:34.196761	227.9	16.3	-92.1	6.4
2025-01-19 19:54:35.317678	228.1	16.4	-92.4	8.5
2025-01-19 19:54:36.438214	228.3	16.4	-91.7	4.3
2025-01-19 19:54:37.558918	228.4	16.5	-92.0	2.8
2025-01-19 19:54:38.682920	228.6	16.6	-92.2	3.8
2025-01-19 19:54:39.808753	228.8	16.7	-92.4	2.7
2025-01-19 19:54:40.962055	229.0	16.8	-92.0	3.0
2025-01-19 19:54:42.120673	229.2	16.9	-92.2	2.5
2025-01-19 19:54:43.264826	229.4	17.0	-91.9	4.2
2025-01-19 19:54:44.407974	229.6	17.0	-92.6	4.7
2025-01-19 19:54:45.560615	229.8	17.1	-92.3	6.9
2025-01-19 19:54:46.715910	230.0	17.2	-92.1	3.7
2025-01-19 19:54:47.864507	230.2	17.3	-91.5	8.8
2025-01-19 19:54:49.013186	230.4	17.4	-92.6	10.3
2025-01-19 19:54:50.172118	230.6	17.5	-92.2	5.7
2025-01-19 19:54:51.320014	230.8	17.6	-92.2	5.8
2025-01-19 19:54:52.475586	231.0	17.7	-92.4	10.4
2025-01-19 19:54:53.628102	231.2	17.7	-92.6	7.8
2025-01-19 19:54:54.780826	231.4	17.8	-92.4	7.9
2025-01-19 19:54:55.936135	231.6	17.9	-92.4	9.3
2025-01-19 19:54:57.090666	231.8	18.0	-92.1	9.2
2025-01-19 19:54:58.243319	232.0	18.1	-92.3	6.1
2025-01-19 19:54:59.392824	232.2	18.2	-91.9	5.2
2025-01-19 19:55:00.539521	232.4	18.3	-91.4	4.7
2025-01-19 19:55:01.802117	232.6	18.4	-92.5	1.3
2025-01-19 19:55:02.951981	232.9	18.5	-92.5	4.8
2025-01-19 19:55:04.111200	233.1	18.5	-92.3	5.4
2025-01-19 19:55:05.258314	233.3	18.6	-92.2	6.7
2025-01-19 19:55:06.410521	233.5	18.7	-92.0	8.9
2025-01-19 19:55:07.567699	233.7	18.8	-92.5	7.8
2025-01-19 19:55:08.718843	233.9	18.9	-92.2	5.5
2025-01-19 19:55:09.870351	234.2	19.0	-92.7	7.3
2025-01-19 19:55:11.026083	234.4	19.1	-92.0	8.5
2025-01-19 19:55:12.180151	234.6	19.1	-91.2	5.5
2025-01-19 19:55:13.332424	234.8	19.2	-92.1	3.3
2025-01-19 19:55:14.479170	235.1	19.3	-91.8	6.7
2025-01-19 19:55:15.637188	235.3	19.4	-92.1	3.7
2025-01-19 19:55:16.794298	235.5	19.5	-92.5	7.5
2025-01-19 19:55:17.953492	235.7	19.6	-92.8	11.5
2025-01-19 19:55:19.102279	236.0	19.7	-92.3	4.0
2025-01-19 19:55:20.254908	236.2	19.7	-92.5	7.6
2025-01-19 19:55:21.414579	236.4	19.8	-92.3	3.7
2025-01-19 19:55:22.570540	236.7	19.9	-92.3	6.2
2025-01-19 19:55:23.720359	236.9	20.0	-90.8	2.1
2025-01-19 19:55:24.876120	237.1	20.1	-92.0	4.6
2025-01-19 19:55:26.027818	237.4	20.2	-92.9	3.2
2025-01-19 19:55:27.183315	237.6	20.3	-92.7	2.6
2025-01-19 19:55:28.333454	237.8	20.3	-92.0	1.8
2025-01-19 19:55:29.483350	238.1	20.4	-92.2	2.1
2025-01-19 19:55:30.643371	238.3	20.5	-92.3	3.9
2025-01-19 19:55:31.797449	238.6	20.6	-90.9	4.8
2025-01-19 19:55:32.949873	238.8	20.7	-92.0	10.0
2025-01-19 19:55:34.098511	239.1	20.8	-92.1	6.3
2025-01-19 19:55:35.255587	239.3	20.8	-91.9	1.4
2025-01-19 19:55:36.414458	239.6	20.9	-92.8	6.4
2025-01-19 19:55:37.566177	239.8	21.0	-90.8	4.0
2025-01-19 19:55:38.718136	240.1	21.1	-90.8	2.2
2025-01-19 19:55:39.867793	240.3	21.2	-91.9	3.0
2025-01-19 19:55:41.014303	240.6	21.3	-92.1	6.5
2025-01-19 19:55:42.168386	240.8	21.3	-92.0	5.8
2025-01-19 19:55:43.318877	241.1	21.4	-92.5	2.7
2025-01-19 19:55:44.468460	241.3	21.5	-92.1	5.5
2025-01-19 19:55:45.623819	241.6	21.6	-92.3	6.3
2025-01-19 19:55:46.779548	241.9	21.7	-92.6	3.6
2025-01-19 19:55:47.932518	242.1	21.7	-92.6	2.4
2025-01-19 19:55:49.082007	242.4	21.8	-92.6	4.2
2025-01-19 19:55:50.237627	242.6	21.9	-92.3	2.0
2025-01-19 19:55:51.390485	242.9	22.0	-92.4	1.5
2025-01-19 19:55:52.542958	243.2	22.0	-92.6	2.4
2025-01-19 19:55:53.694245	243.4	22.1	-92.6	3.0
2025-01-19 19:55:54.850617	243.7	22.2	-92.9	3.7
2025-01-19 19:55:56.004928	244.0	22.3	-92.9	3.2
2025-01-19 19:55:57.157491	244.3	22.4	-92.2	1.9
2025-01-19 19:55:58.313618	244.5	22.4	-92.3	3.3
2025-01-19 19:55:59.473042	244.8	22.5	-92.4	3.0
2025-01-19 19:56:00.627333	245.1	22.6	-92.5	2.1
2025-01-19 19:56:01.779931	245.4	22.7	-92.7	0.5
2025-01-19 19:56:02.933461	245.6	22.7	-92.2	0.3
2025-01-19 19:56:04.085072	245.9	22.8	-92.3	2.2
2025-01-19 19:56:05.231443	246.2	22.9	-91.8	3.5
2025-01-19 19:56:06.390051	246.5	23.0	-92.3	1.8
2025-01-19 19:56:07.543107	246.8	23.0	-92.2	2.8
2025-01-19 19:56:08.694975	247.1	23.1	-91.0	2.5
2025-01-19 19:56:09.848750	247.3	23.2	-92.7	5.4
2025-01-19 19:56:10.997682	247.6	23.2	-92.9	2.5
2025-01-19 19:56:12.150566	247.9	23.3	-92.4	5.6
2025-01-19 19:56:13.301494	248.2	23.4	-92.4	4.0
2025-01-19 19:56:14.452624	248.5	23.4	-92.5	5.1
2025-01-19 19:56:15.605968	248.8	23.5	-91.8	1.7
2025-01-19 19:56:16.761497	249.1	23.6	-92.5	3.6
2025-01-19 19:56:17.923031	249.4	23.6	-92.3	3.3
2025-01-19 19:56:19.070695	249.7	23.7	-92.4	4.7
2025-01-19 19:56:20.221661	250.0	23.8	-89.5	3.3
2025-01-19 19:56:21.371488	250.3	23.8	-91.5	1.8
2025-01-19 19:56:22.527136	250.6	23.9	-92.1	1.3
2025-01-19 19:56:23.677819	250.9	24.0	-92.1	2.1
2025-01-19 19:56:24.832502	251.2	24.0	-91.5	3.7
2025-01-19 19:56:25.992633	251.5	24.1	-92.0	3.8
2025-01-19 19:56:27.157740	251.8	24.2	-92.5	1.9
2025-01-19 19:56:28.310173	252.1	24.2	-92.4	9.9
2025-01-19 19:56:29.469706	252.4	24.3	-92.1	5.6
2025-01-19 19:56:30.622935	252.7	24.3	-92.6	8.4
2025-01-19 19:56:31.778239	253.0	24.4	-92.2	5.3
2025-01-19 19:56:32.940754	253.3	24.5	-92.0	13.9
2025-01-19 19:56:34.091913	253.6	24.5	-92.4	7.6
2025-01-19 19:56:35.246694	254.0	24.6	-92.3	3.7
2025-01-19 19:56:36.404610	254.3	24.6	-92.5	3.7
2025-01-19 19:56:37.557848	254.6	24.7	-92.3	4.0
2025-01-19 19:56:38.709207	254.9	24.7	-92.2	5.0
2025-01-19 19:56:39.866130	255.2	24.8	-90.3	3.5
2025-01-19 19:56:41.025040	255.5	24.8	-92.3	6.2
2025-01-19 19:56:42.181047	255.9	24.9	-92.6	3.8
2025-01-19 19:56:43.332007	256.2	25.0	-92.4	5.3
2025-01-19 19:56:44.493931	256.5	25.0	-92.5	5.9
2025-01-19 19:56:45.648292	256.8	25.1	-92.4	6.8
2025-01-19 19:56:46.813343	257.1	25.1	-92.8	8.2
2025-01-19 19:56:47.971096	257.5	25.2	-92.4	10.1
2025-01-19 19:56:49.136004	257.8	25.2	-92.7	7.4
2025-01-19 19:56:50.286617	258.1	25.2	-91.8	4.5
2025-01-19 19:56:51.443881	258.4	25.3	-92.5	4.0
2025-01-19 19:56:52.591474	258.8	25.3	-92.5	4.4
2025-01-19 19:56:53.737912	259.1	25.4	-92.4	5.0
2025-01-19 19:56:54.884478	259.4	25.4	-92.2	2.2
2025-01-19 19:56:56.004728	259.7	25.5	-91.0	3.1
2025-01-19 19:56:57.125936	260.1	25.5	-92.0	4.3
2025-01-19 19:56:58.246169	260.4	25.5	-92.1	1.7
2025-01-19 19:56:59.368076	260.7	25.6	-92.0	2.7
2025-01-19 19:57:00.488427	261.0	25.6	-92.1	3.2
2025-01-19 19:57:01.609604	261.4	25.6	-92.3	4.5
2025-01-19 19:57:02.729704	261.7	25.7	-91.9	4.2
2025-01-19 19:57:03.852678	262.0	25.7	-92.5	4.9
2025-01-19 19:57:04.981926	262.3	25.8	-91.9	6.7
2025-01-19 19:57:06.136601	262.7	25.8	-92.2	5.5
2025-01-19 19:57:07.286004	263.0	25.8	-92.2	13.0
2025-01-19 19:57:08.430957	263.3	25.8	-92.2	12.5
2025-01-19 19:57:09.578122	263.7	25.9	-92.3	11.3
2025-01-19 19:57:10.728159	264.0	25.9	-92.4	8.8
2025-01-19 19:57:11.888466	264.4	25.9	-91.3	13.4
2025-01-19 19:57:13.042104	264.7	26.0	-92.2	14.7
2025-01-19 19:57:14.192876	265.0	26.0	-92.5	7.2
2025-01-19 19:57:15.347034	265.4	26.0	-92.7	6.3
2025-01-19 19:57:16.499446	265.7	26.0	-91.8	13.2
2025-01-19 19:57:17.652599	266.1	26.1	-92.3	9.9
2025-01-19 19:57:18.805785	266.4	26.1	-92.3	8.3
2025-01-19 19:57:19.968166	266.8	26.1	-92.3	10.0
2025-01-19 19:57:21.117458	267.1	26.1	-92.3	9.9
2025-01-19 19:57:22.268625	267.4	26.1	-92.3	4.7
2025-01-19 19:57:23.428908	267.8	26.2	-92.4	5.8
2025-01-19 19:57:24.585008	268.1	26.2	-92.4	7.2
2025-01-19 19:57:25.737473	268.5	26.2	-92.1	8.0
2025-01-19 19:57:26.882296	268.8	26.2	-92.0	3.2
2025-01-19 19:57:28.034897	269.2	26.2	-90.8	8.5
2025-01-19 19:57:29.185969	269.5	26.2	-91.7	9.0
2025-01-19 19:57:30.347125	269.9	26.2	-92.0	7.8
2025-01-19 19:57:31.501986	270.2	26.3	-92.1	16.1
2025-01-19 19:57:32.654136	270.6	26.3	-92.4	9.5
2025-01-19 19:57:33.801266	270.9	26.3	-92.4	15.1
2025-01-19 19:57:34.959822	271.3	26.3	-92.3	5.9
2025-01-19 19:57:36.106599	271.6	26.3	-92.6	15.5
2025-01-19 19:57:37.262998	271.9	26.3	-91.9	13.2
2025-01-19 19:57:38.420550	272.3	26.3	-92.4	8.2
2025-01-19 19:57:39.569039	272.6	26.3	-91.9	10.1
2025-01-19 19:57:40.724226	273.0	26.3	-92.7	11.8
2025-01-19 19:57:41.875164	273.3	26.3	-91.8	10.2
2025-01-19 19:57:43.011750	273.7	26.3	-92.1	8.4
2025-01-19 19:57:44.130892	274.0	26.3	-93.0	5.7
2025-01-19 19:57:45.252236	274.4	26.3	-92.4	10.1
2025-01-19 19:57:46.372743	274.7	26.3	-92.5	6.9
2025-01-19 19:57:47.493186	275.0	26.3	-91.7	8.6
2025-01-19 19:57:48.614194	275.4	26.3	-92.2	5.4
2025-01-19 19:57:49.735535	275.7	26.3	-92.4	4.6
2025-01-19 19:57:50.856307	276.0	26.3	-92.1	5.7
2025-01-19 19:57:51.982734	276.4	26.3	-92.6	8.8
2025-01-19 19:57:53.122581	276.7	26.2	-91.2	5.2
2025-01-19 19:57:54.272859	277.1	26.2	-92.3	3.1
2025-01-19 19:57:55.416262	277.4	26.2	-91.3	2.6
2025-01-19 19:57:56.567595	277.7	26.2	-92.5	3.1
2025-01-19 19:57:57.717967	278.1	26.2	-92.3	3.5
2025-01-19 19:57:58.870860	278.4	26.2	-92.0	1.0
2025-01-19 19:58:00.029238	278.8	26.2	-92.0	4.3
2025-01-19 19:58:01.179522	279.1	26.1	-92.4	2.4
2025-01-19 19:58:02.343770	279.5	26.1	-92.6	1.3
2025-01-19 19:58:03.498712	279.8	26.1	-91.7	6.6
2025-01-19 19:58:04.654878	280.2	26.1	-92.4	2.7
2025-01-19 19:58:05.806362	280.5	26.1	-92.8	2.6
2025-01-19 19:58:06.959885	280.8	26.0	-92.2	5.0
2025-01-19 19:58:08.112680	281.2	26.0	-91.9	6.5
2025-01-19 19:58:09.268468	281.5	26.0	-91.6	2.3
2025-01-19 19:58:10.420677	281.9	26.0	-91.5	5.2
2025-01-19 19:58:11.570937	282.2	25.9	-92.4	5.5
2025-01-19 19:58:12.722384	282.5	25.9	-91.8	3.9
2025-01-19 19:58:13.878005	282.9	25.9	-92.4	5.1
2025-01-19 19:58:15.035492	283.2	25.8	-91.8	3.1
2025-01-19 19:58:16.198749	283.6	25.8	-92.5	2.2
2025-01-19 19:58:17.352870	283.9	25.8	-92.6	3.2
2025-01-19 19:58:18.501244	284.2	25.7	-92.2	2.2
2025-01-19 19:58:19.648530	284.6	25.7	-91.9	9.0
2025-01-19 19:58:20.798085	284.9	25.7	-92.6	3.6
2025-01-19 19:58:21.948708	285.2	25.6	-92.0	2.8
2025-01-19 19:58:23.103067	285.6	25.6	-91.8	5.5
2025-01-19 19:58:24.272368	285.9	25.6	-92.4	3.3
2025-01-19 19:58:25.428370	286.2	25.5	-92.0	7.6
2025-01-19 19:58:26.578363	286.6	25.5	-92.4	4.2
2025-01-19 19:58:27.732829	286.9	25.4	-92.6	4.3
2025-01-19 19:58:28.891326	287.2	25.4	-92.6	4.4
2025-01-19 19:58:30.048843	287.6	25.4	-92.1	4.3
2025-01-19 19:58:31.202115	287.9	25.3	-92.4	3.6
2025-01-19 19:58:32.360476	288.2	25.3	-92.5	10.2
2025-01-19 19:58:33.522157	288.5	25.2	-91.8	9.6
2025-01-19 19:58:34.679789	288.9	25.2	-92.2	7.5
2025-01-19 19:58:35.831923	289.2	25.1	-92.3	5.2
2025-01-19 19:58:36.989573	289.5	25.1	-92.6	3.1
2025-01-19 19:58:38.144698	289.8	25.0	-92.8	5.6
2025-01-19 19:58:39.302578	290.1	25.0	-92.3	7.4
2025-01-19 19:58:40.456787	290.5	24.9	-91.4	6.5
2025-01-19 19:58:41.605806	290.8	24.9	-91.9	4.0
2025-01-19 19:58:42.758856	291.1	24.8	-92.2	5.1
2025-01-19 19:58:43.920857	291.4	24.8	-91.6	1.9
2025-01-19 19:58:45.073654	291.7	24.7	-92.8	5.9
2025-01-19 19:58:46.230732	292.0	24.7	-92.3	5.5
2025-01-19 19:58:47.381126	292.4	24.6	-92.1	5.3
2025-01-19 19:58:48.530202	292.7	24.6	-92.5	3.8
2025-01-19 19:58:49.683980	293.0	24.5	-92.0	3.9
2025-01-19 19:58:50.841125	293.3	24.4	-92.1	8.7
2025-01-19 19:58:51.987666	293.6	24.4	-91.9	4.6
2025-01-19 19:58:53.138946	293.9	24.3	-92.4	2.6
2025-01-19 19:58:54.305158	294.2	24.3	-91.9	5.5
2025-01-19 19:58:55.455531	294.5	24.2	-92.4	8.1
2025-01-19 19:58:56.607339	294.8	24.1	-92.1	7.7
2025-01-19 19:58:57.755406	295.1	24.1	-91.8	5.0
2025-01-19 19:58:58.904833	295.4	24.0	-92.6	4.7
2025-01-19 19:59:00.054787	295.7	24.0	-92.5	4.1
2025-01-19 19:59:01.212971	296.0	23.9	-92.0	2.4
2025-01-19 19:59:02.359213	296.3	23.8	-92.2	3.6
2025-01-19 19:59:03.516518	296.6	23.8	-92.6	8.7
2025-01-19 19:59:04.668189	296.9	23.7	-92.3	7.5
2025-01-19 19:59:05.818744	297.2	23.6	-92.8	3.3
2025-01-19 19:59:06.971757	297.5	23.6	-92.3	4.0
2025-01-19 19:59:08.123297	297.8	23.5	-92.2	4.8
2025-01-19 19:59:09.272586	298.1	23.4	-91.1	0.2
2025-01-19 19:59:10.424815	298.4	23.4	-92.5	4.1
2025-01-19 19:59:11.573456	298.7	23.3	-92.9	4.5
2025-01-19 19:59:12.726666	298.9	23.2	-92.4	4.1
2025-01-19 19:59:13.875974	299.2	23.1	-92.3	2.6
2025-01-19 19:59:15.030461	299.5	23.1	-92.7	3.7
2025-01-19 19:59:16.182101	299.8	23.0	-92.8	2.7
2025-01-19 19:59:17.334337	300.1	22.9	-92.7	1.5
2025-01-19 19:59:18.485620	300.4	22.9	-92.4	3.0
2025-01-19 19:59:19.630418	300.6	22.8	-92.3	2.3
2025-01-19 19:59:20.782443	300.9	22.7	-92.2	2.1
2025-01-19 19:59:21.933839	301.2	22.6	-92.3	2.8
2025-01-19 19:59:23.087410	301.5	22.6	-92.6	4.7
2025-01-19 19:59:24.244951	301.7	22.5	-92.7	3.0
2025-01-19 19:59:25.397788	302.0	22.4	-91.7	3.8
2025-01-19 19:59:26.544041	302.3	22.3	-92.7	4.8
2025-01-19 19:59:27.694216	302.6	22.3	-92.4	4.1
2025-01-19 19:59:28.855900	302.8	22.2	-91.6	5.1
2025-01-19 19:59:30.005731	303.1	22.1	-91.9	2.5
2025-01-19 19:59:31.151969	303.4	22.0	-91.9	2.9
2025-01-19 19:59:32.301860	303.6	22.0	-92.6	3.6
2025-01-19 19:59:33.457064	303.9	21.9	-92.6	7.7
2025-01-19 19:59:34.614916	304.1	21.8	-92.9	1.0
2025-01-19 19:59:35.769988	304.4	21.7	-92.2	2.4
2025-01-19 19:59:36.932155	304.7	21.6	-92.8	4.0
2025-01-19 19:59:38.079020	304.9	21.6	-92.6	3.4
2025-01-19 19:59:39.229679	305.2	21.5	-91.9	6.8
2025-01-19 19:59:40.376598	305.4	21.4	-92.5	9.3
2025-01-19 19:59:41.540938	305.7	21.3	-92.2	7.2
2025-01-19 19:59:42.693669	306.0	21.2	-92.5	5.9
2025-01-19 19:59:43.959723	306.2	21.2	-92.8	3.0
2025-01-19 19:59:45.112080	306.5	21.1	-92.4	2.3
2025-01-19 19:59:46.263846	306.7	21.0	-92.5	2.3
2025-01-19 19:59:47.420157	307.0	20.9	-91.9	3.7
2025-01-19 19:59:48.570819	307.2	20.8	-91.8	2.6
2025-01-19 19:59:49.724339	307.5	20.7	-92.8	3.6
2025-01-19 19:59:50.875303	307.7	20.7	-92.8	2.8
2025-01-19 19:59:52.024153	308.0	20.6	-92.2	2.1
2025-01-19 19:59:53.174430	308.2	20.5	-91.9	3.6
2025-01-19 19:59:54.325143	308.4	20.4	-92.3	2.3
2025-01-19 19:59:55.476597	308.7	20.3	-92.9	3.7
2025-01-19 19:59:56.740012	308.9	20.2	-92.9	2.8
2025-01-19 19:59:57.895526	309.2	20.2	-91.9	2.7
2025-01-19 19:59:59.058183	309.4	20.1	-91.8	3.3
2025-01-19 20:00:00.200113	309.6	20.0	-92.9	2.1
2025-01-19 20:00:01.367234	309.9	19.9	-92.2	1.2
2025-01-19 20:00:02.522954	310.1	19.8	-92.7	2.7
2025-01-19 20:00:03.675718	310.3	19.7	-92.2	1.0
2025-01-19 20:00:04.833530	310.6	19.7	-92.4	3.0
2025-01-19 20:00:05.991830	310.8	19.6	-92.6	2.2
2025-01-19 20:00:07.145371	311.0	19.5	-92.5	4.8
2025-01-19 20:00:08.302833	311.3	19.4	-92.7	4.1
2025-01-19 20:00:09.451520	311.5	19.3	-92.0	3.9
2025-01-19 20:00:10.601309	311.7	19.2	-92.4	7.6
2025-01-19 20:00:11.754774	311.9	19.1	-92.4	1.9
2025-01-19 20:00:12.911388	312.1	19.1	-92.3	7.8
2025-01-19 20:00:14.066722	312.4	19.0	-92.7	5.7
2025-01-19 20:00:15.220553	312.6	18.9	-92.9	8.8
2025-01-19 20:00:16.379057	312.8	18.8	-92.6	8.2
2025-01-19 20:00:17.526535	313.0	18.7	-92.4	6.1
2025-01-19 20:00:18.678188	313.2	18.6	-91.9	6.6
2025-01-19 20:00:19.822705	313.4	18.5	-92.4	5.2
2025-01-19 20:00:20.975699	313.6	18.4	-92.5	5.8
2025-01-19 20:00:22.129185	313.9	18.4	-92.7	2.5
2025-01-19 20:00:23.284932	314.1	18.3	-91.9	4.8
2025-01-19 20:00:24.433745	314.3	18.2	-92.1	4.0
2025-01-19 20:00:25.586112	314.5	18.1	-91.3	1.6
2025-01-19 20:00:26.745901	314.7	18.0	-92.8	3.5
2025-01-19 20:00:27.905122	314.9	17.9	-93.1	2.8
2025-01-19 20:00:29.054814	315.1	17.8	-93.2	2.5
2025-01-19 20:00:30.206582	315.3	17.8	-92.8	4.5
2025-01-19 20:00:31.365050	315.5	17.7	-92.0	3.4
2025-01-19 20:00:32.516549	315.7	17.6	-92.0	4.8
2025-01-19 20:00:33.670579	315.9	17.5	-92.4	3.9
2025-01-19 20:00:34.823310	316.1	17.4	-90.2	3.1
2025-01-19 20:00:35.965188	316.3	17.3	-92.5	2.3
2025-01-19 20:00:37.113646	316.5	17.2	-92.3	5.5
2025-01-19 20:00:38.259931	316.7	17.1	-92.1	5.0
2025-01-19 20:00:39.421483	316.9	17.1	-92.4	5.0
2025-01-19 20:00:40.572111	317.1	17.0	-92.9	4.0
2025-01-19 20:00:41.726712	317.3	16.9	-92.5	5.8
2025-01-19 20:00:42.875845	317.5	16.8	-92.3	5.6
2025-01-19 20:00:44.039159	317.7	16.7	-92.0	6.8
2025-01-19 20:00:45.195573	317.8	16.6	-91.8	2.0
2025-01-19 20:00:46.338488	318.0	16.5	-91.2	2.7
2025-01-19 20:00:47.494006	318.2	16.4	-92.4	5.7
2025-01-19 20:00:48.650278	318.4	16.4	-92.7	1.7
2025-01-19 20:00:49.798409	318.6	16.3	-91.9	2.8
2025-01-19 20:00:50.958579	318.8	16.2	-92.3	4.4
2025-01-19 20:00:52.115711	319.0	16.1	-92.9	0.8
2025-01-19 20:00:53.269136	319.1	16.0	-92.3	0.5
2025-01-19 20:00:54.419913	319.3	15.9	-92.5	3.2
2025-01-19 20:00:55.564237	319.5	15.8	-92.0	2.7
2025-01-19 20:00:56.718544	319.7	15.8	-92.6	2.0
2025-01-19 20:00:57.866200	319.9	15.7	-92.3	2.2
2025-01-19 20:00:59.015079	320.0	15.6	-92.5	2.6
2025-01-19 20:01:00.164800	320.2	15.5	-92.6	4.9
2025-01-19 20:01:01.324203	320.4	15.4	-92.7	3.5
2025-01-19 20:01:02.471181	320.5	15.3	-92.2	2.6
2025-01-19 20:01:03.623889	320.7	15.2	-92.2	6.4
2025-01-19 20:01:04.782769	320.9	15.2	-92.7	6.4
2025-01-19 20:01:05.927112	321.1	15.1	-92.1	5.8
2025-01-19 20:01:07.076321	321.2	15.0	-92.6	6.0
2025-01-19 20:01:08.227006	321.4	14.9	-92.2	5.5
2025-01-19 20:01:09.389599	321.6	14.8	-92.2	3.5
2025-01-19 20:01:10.539173	321.7	14.7	-92.5	4.9
2025-01-19 20:01:11.694109	321.9	14.6	-92.5	3.1
#Closed at: 2025-01-19 19:54:22.511002