passes_logs/2025/01/19/LEX_Murmansk/LEX_Murmansk__20250119_113305_NOAA_19_rec.log

#Pass ID: 20250119_113305_NOAA 19
#Satellite: NOAA 19
#Configuration: NOAA 19
#Start time: 2025-01-19 11:33:00.956717

#LorettStation: 1.0.0 05.05.2024
#Station: LEX_Murmansk
#Location: 33.156738 lon 68.926811 lat
#TLE: 1 33591U 09005A   25018.04840605  .00000325  00000+0  19728-3 0  9997
#TLE: 2 33591  99.0190  81.8343 0014373  49.4310 310.8111 14.13261983821977

#Time	Az	El	Level	SNR
2025-01-19 11:33:15.202778	25.2	16.2	-90.5	3.0
2025-01-19 11:33:16.357392	25.0	16.3	-91.7	1.8
2025-01-19 11:33:17.516762	24.9	16.4	-92.8	2.4
2025-01-19 11:33:18.674471	24.7	16.5	-92.9	1.2
2025-01-19 11:33:19.824986	24.5	16.6	-92.5	3.0
2025-01-19 11:33:20.984843	24.4	16.7	-92.1	1.9
2025-01-19 11:33:22.132370	24.2	16.8	-92.2	2.4
2025-01-19 11:33:23.281491	24.1	16.9	-92.7	1.0
2025-01-19 11:33:24.429223	23.9	17.0	-92.1	2.2
2025-01-19 11:33:25.583488	23.7	17.2	-92.5	2.0
2025-01-19 11:33:26.736441	23.6	17.3	-92.0	8.5
2025-01-19 11:33:27.890109	23.4	17.4	-92.4	5.2
2025-01-19 11:33:29.042926	23.2	17.5	-92.7	3.2
2025-01-19 11:33:30.196370	23.1	17.6	-92.5	2.6
2025-01-19 11:33:31.362235	22.9	17.7	-92.5	0.1
2025-01-19 11:33:32.512257	22.7	17.8	-92.4	3.8
2025-01-19 11:33:33.660057	22.6	17.9	-92.4	6.5
2025-01-19 11:33:34.816248	22.4	18.0	-92.3	9.4
2025-01-19 11:33:35.972926	22.2	18.1	-92.3	4.4
2025-01-19 11:33:37.128844	22.0	18.2	-92.4	10.8
2025-01-19 11:33:38.283680	21.9	18.3	-92.4	3.8
2025-01-19 11:33:39.448225	21.7	18.4	-92.6	4.3
2025-01-19 11:33:40.598307	21.5	18.5	-92.8	4.0
2025-01-19 11:33:41.748830	21.3	18.6	-92.6	4.0
2025-01-19 11:33:42.904624	21.1	18.7	-92.9	3.2
2025-01-19 11:33:44.055892	21.0	18.8	-92.2	10.7
2025-01-19 11:33:45.208990	20.8	18.9	-92.4	7.3
2025-01-19 11:33:46.359379	20.6	19.0	-92.4	5.7
2025-01-19 11:33:47.517146	20.4	19.1	-92.3	5.1
2025-01-19 11:33:48.673093	20.2	19.2	-92.1	4.4
2025-01-19 11:33:49.825716	20.0	19.3	-92.4	2.9
2025-01-19 11:33:50.983671	19.8	19.5	-92.6	3.4
2025-01-19 11:33:52.134146	19.6	19.6	-92.7	0.9
2025-01-19 11:33:53.293171	19.5	19.7	-91.9	1.8
2025-01-19 11:33:54.451675	19.3	19.8	-91.8	5.8
2025-01-19 11:33:55.603915	19.1	19.9	-91.6	2.4
2025-01-19 11:33:56.761857	18.9	20.0	-91.9	7.6
2025-01-19 11:33:57.914091	18.7	20.1	-91.8	1.2
2025-01-19 11:33:59.065875	18.5	20.2	-92.1	5.5
2025-01-19 11:34:00.213839	18.3	20.3	-92.6	4.0
2025-01-19 11:34:01.357031	18.1	20.4	-92.6	6.6
2025-01-19 11:34:02.478270	17.9	20.5	-92.8	6.8
2025-01-19 11:34:03.598726	17.7	20.6	-92.5	12.6
2025-01-19 11:34:04.719750	17.5	20.7	-92.6	12.5
2025-01-19 11:34:05.840594	17.3	20.8	-92.4	9.5
2025-01-19 11:34:06.960690	17.1	20.9	-92.6	7.7
2025-01-19 11:34:08.081476	16.9	21.0	-92.7	5.0
2025-01-19 11:34:09.201654	16.6	21.1	-92.5	2.7
2025-01-19 11:34:10.326278	16.4	21.2	-92.8	1.2
2025-01-19 11:34:11.461599	16.2	21.3	-92.9	1.4
2025-01-19 11:34:12.615430	16.0	21.5	-92.8	3.4
2025-01-19 11:34:13.763194	15.8	21.6	-92.5	4.9
2025-01-19 11:34:14.916318	15.6	21.7	-92.8	6.1
2025-01-19 11:34:16.062621	15.4	21.8	-92.8	8.3
2025-01-19 11:34:17.222698	15.1	21.9	-92.6	11.2
2025-01-19 11:34:18.374135	14.9	22.0	-92.7	8.6
2025-01-19 11:34:19.526752	14.7	22.1	-92.6	5.0
2025-01-19 11:34:20.686700	14.4	22.2	-92.7	6.8
2025-01-19 11:34:21.840490	14.2	22.3	-92.6	4.8
2025-01-19 11:34:22.989011	14.0	22.4	-92.8	7.1
2025-01-19 11:34:24.145864	13.8	22.5	-92.7	6.3
2025-01-19 11:34:25.297395	13.5	22.6	-92.5	4.2
2025-01-19 11:34:26.449901	13.3	22.7	-92.9	12.4
2025-01-19 11:34:27.601667	13.0	22.8	-92.5	13.2
2025-01-19 11:34:28.757317	12.8	23.0	-92.8	7.6
2025-01-19 11:34:29.911943	12.6	23.1	-92.7	9.4
2025-01-19 11:34:31.060476	12.3	23.2	-92.8	3.9
2025-01-19 11:34:32.220511	12.1	23.3	-91.9	1.2
2025-01-19 11:34:33.371561	11.8	23.4	-92.1	2.7
2025-01-19 11:34:34.527675	11.6	23.5	-92.0	4.1
2025-01-19 11:34:35.680119	11.3	23.6	-91.9	5.8
2025-01-19 11:34:36.832393	11.1	23.7	-92.2	6.0
2025-01-19 11:34:37.993306	10.8	23.8	-91.4	8.4
2025-01-19 11:34:39.144299	10.6	23.9	-92.1	7.0
2025-01-19 11:34:40.301063	10.3	24.0	-92.1	12.2
2025-01-19 11:34:41.454048	10.1	24.1	-92.2	6.3
2025-01-19 11:34:42.598598	9.8	24.2	-91.8	5.8
2025-01-19 11:34:43.753249	9.5	24.3	-92.1	2.9
2025-01-19 11:34:44.915480	9.3	24.4	-92.2	7.0
2025-01-19 11:34:46.069080	9.0	24.5	-91.7	7.6
2025-01-19 11:34:47.220869	8.7	24.6	-91.8	5.9
2025-01-19 11:34:48.379365	8.5	24.7	-92.0	8.4
2025-01-19 11:34:49.532784	8.2	24.8	-92.2	14.7
2025-01-19 11:34:50.688836	7.9	24.9	-91.9	16.1
2025-01-19 11:34:51.842860	7.7	25.0	-91.9	9.5
2025-01-19 11:34:52.994168	7.4	25.1	-92.2	9.3
2025-01-19 11:34:54.144227	7.1	25.2	-91.6	4.1
2025-01-19 11:34:55.297448	6.8	25.3	-91.9	2.4
2025-01-19 11:34:56.454950	6.5	25.4	-92.0	3.4
2025-01-19 11:34:57.607009	6.3	25.5	-92.3	4.4
2025-01-19 11:34:58.762055	6.0	25.6	-91.9	1.7
2025-01-19 11:34:59.918514	5.7	25.7	-91.8	4.1
2025-01-19 11:35:01.069664	5.4	25.8	-92.0	5.6
2025-01-19 11:35:02.229515	5.1	25.9	-91.6	2.9
2025-01-19 11:35:03.386211	4.8	26.0	-91.6	5.6
2025-01-19 11:35:04.535048	4.5	26.1	-92.7	13.3
2025-01-19 11:35:05.693510	4.2	26.2	-92.6	10.5
2025-01-19 11:35:06.852294	3.9	26.3	-93.0	7.5
2025-01-19 11:35:08.010389	3.6	26.4	-92.8	10.5
2025-01-19 11:35:09.165062	3.3	26.5	-92.7	3.7
2025-01-19 11:35:10.314752	3.0	26.6	-92.6	6.0
2025-01-19 11:35:11.476110	2.7	26.7	-92.3	2.8
2025-01-19 11:35:12.629862	2.4	26.8	-92.6	9.2
2025-01-19 11:35:13.790758	2.1	26.9	-92.1	8.4
2025-01-19 11:35:14.944113	1.8	27.0	-91.6	10.6
2025-01-19 11:35:16.104086	1.5	27.1	-91.5	11.2
2025-01-19 11:35:17.259238	1.2	27.2	-91.7	9.9
2025-01-19 11:35:18.414544	0.8	27.3	-91.7	10.6
2025-01-19 11:35:19.573773	0.5	27.4	-91.7	6.7
2025-01-19 11:35:20.725391	0.2	27.5	-92.8	6.2
2025-01-19 11:35:21.884339	359.9	27.5	-91.8	4.9
2025-01-19 11:35:23.033178	359.6	27.6	-91.7	2.0
2025-01-19 11:35:24.180889	359.2	27.7	-91.4	2.5
2025-01-19 11:35:25.335999	358.9	27.8	-91.4	1.3
2025-01-19 11:35:26.485061	358.6	27.9	-91.6	1.9
2025-01-19 11:35:27.638712	358.3	28.0	-91.5	3.0
2025-01-19 11:35:28.790114	357.9	28.1	-92.5	4.3
2025-01-19 11:35:29.947044	357.6	28.1	-92.2	4.9
2025-01-19 11:35:31.111012	357.3	28.2	-92.0	5.5
2025-01-19 11:35:32.263797	356.9	28.3	-91.2	6.4
2025-01-19 11:35:33.416419	356.6	28.4	-90.9	7.0
2025-01-19 11:35:34.566073	356.2	28.5	-89.5	5.4
2025-01-19 11:35:35.722680	355.9	28.5	-88.7	4.5
2025-01-19 11:35:36.879501	355.6	28.6	-86.6	3.9
2025-01-19 11:35:38.037917	355.2	28.7	-88.1	4.9
2025-01-19 11:35:39.190118	354.9	28.8	-88.3	2.9
2025-01-19 11:35:40.341986	354.5	28.9	-90.7	3.2
2025-01-19 11:35:41.495758	354.2	28.9	-91.2	5.9
2025-01-19 11:35:42.651863	353.8	29.0	-90.5	4.5
2025-01-19 11:35:43.800661	353.5	29.1	-91.6	3.1
2025-01-19 11:35:44.955899	353.1	29.1	-91.4	2.1
2025-01-19 11:35:46.114906	352.7	29.2	-90.4	7.0
2025-01-19 11:35:47.276701	352.4	29.3	-90.9	8.1
2025-01-19 11:35:48.438701	352.0	29.4	-91.6	9.4
2025-01-19 11:35:49.598965	351.7	29.4	-91.6	6.2
2025-01-19 11:35:50.751583	351.3	29.5	-92.5	3.8
2025-01-19 11:35:51.911508	350.9	29.5	-92.3	7.6
2025-01-19 11:35:53.066132	350.6	29.6	-92.6	5.4
2025-01-19 11:35:54.218899	350.2	29.7	-92.7	5.3
2025-01-19 11:35:55.370992	349.8	29.7	-93.0	4.7
2025-01-19 11:35:56.524967	349.5	29.8	-92.8	5.4
2025-01-19 11:35:57.681841	349.1	29.9	-92.8	3.6
2025-01-19 11:35:58.823764	348.7	29.9	-92.6	4.1
2025-01-19 11:35:59.989070	348.3	30.0	-92.6	4.2
2025-01-19 11:36:01.140356	348.0	30.0	-92.6	5.4
2025-01-19 11:36:02.295719	347.6	30.1	-92.7	4.7
2025-01-19 11:36:03.440630	347.2	30.1	-92.6	4.3
2025-01-19 11:36:04.590109	346.8	30.2	-92.7	8.4
2025-01-19 11:36:05.748787	346.5	30.2	-92.8	5.3
2025-01-19 11:36:06.900963	346.1	30.3	-92.7	8.2
2025-01-19 11:36:08.053936	345.7	30.3	-93.0	5.5
2025-01-19 11:36:09.213774	345.3	30.4	-92.9	11.4
2025-01-19 11:36:10.367104	344.9	30.4	-92.9	11.4
2025-01-19 11:36:11.520752	344.5	30.4	-92.8	3.0
2025-01-19 11:36:12.671465	344.2	30.5	-92.6	9.0
2025-01-19 11:36:13.825893	343.8	30.5	-91.8	7.5
2025-01-19 11:36:14.979555	343.4	30.6	-91.7	8.0
2025-01-19 11:36:16.136205	343.0	30.6	-92.0	8.4
2025-01-19 11:36:17.290440	342.6	30.6	-92.0	3.7
2025-01-19 11:36:18.449390	342.2	30.7	-91.7	6.8
2025-01-19 11:36:19.607867	341.8	30.7	-91.8	9.3
2025-01-19 11:36:20.756639	341.4	30.7	-91.6	5.1
2025-01-19 11:36:21.919322	341.0	30.8	-91.9	3.8
2025-01-19 11:36:23.076924	340.6	30.8	-91.5	1.9
2025-01-19 11:36:24.228918	340.2	30.8	-91.1	0.8
2025-01-19 11:36:25.388797	339.8	30.8	-91.8	3.1
2025-01-19 11:36:26.552989	339.4	30.9	-92.7	6.8
2025-01-19 11:36:27.712443	339.0	30.9	-92.6	7.5
2025-01-19 11:36:28.869703	338.6	30.9	-92.7	5.0
2025-01-19 11:36:30.023046	338.2	30.9	-92.5	11.1
2025-01-19 11:36:31.176800	337.9	30.9	-92.2	11.2
2025-01-19 11:36:32.332400	337.5	31.0	-92.3	11.7
2025-01-19 11:36:33.492660	337.1	31.0	-92.2	15.6
2025-01-19 11:36:34.641994	336.7	31.0	-92.5	15.3
2025-01-19 11:36:35.795319	336.3	31.0	-92.9	9.9
2025-01-19 11:36:36.949357	335.9	31.0	-92.4	15.1
2025-01-19 11:36:38.103122	335.5	31.0	-92.5	14.4
2025-01-19 11:36:39.255163	335.1	31.0	-92.0	10.5
2025-01-19 11:36:40.410046	334.7	31.0	-92.5	8.0
2025-01-19 11:36:41.564212	334.3	31.0	-92.4	11.2
2025-01-19 11:36:42.724771	333.9	31.0	-92.1	8.9
2025-01-19 11:36:43.877632	333.5	31.0	-92.7	8.3
2025-01-19 11:36:45.034447	333.1	31.0	-92.8	7.2
2025-01-19 11:36:46.188001	332.7	31.0	-92.6	8.5
2025-01-19 11:36:47.347362	332.3	31.0	-91.6	7.5
2025-01-19 11:36:48.503190	331.9	31.0	-92.0	7.0
2025-01-19 11:36:49.644256	331.5	31.0	-91.8	6.1
2025-01-19 11:36:50.800484	331.1	31.0	-91.5	2.8
2025-01-19 11:36:51.950451	330.7	31.0	-91.8	2.3
2025-01-19 11:36:53.110917	330.3	31.0	-91.2	4.4
2025-01-19 11:36:54.261359	329.9	31.0	-91.7	3.5
2025-01-19 11:36:55.423305	329.5	30.9	-91.7	3.1
2025-01-19 11:36:56.575390	329.1	30.9	-89.1	4.3
2025-01-19 11:36:57.733167	328.7	30.9	-89.1	4.8
2025-01-19 11:36:58.885490	328.3	30.9	-89.5	5.8
2025-01-19 11:37:00.033160	327.9	30.9	-90.0	5.6
2025-01-19 11:37:01.175427	327.5	30.8	-90.0	5.4
2025-01-19 11:37:02.324857	327.1	30.8	-89.6	4.1
2025-01-19 11:37:03.487205	326.7	30.8	-89.8	4.9
2025-01-19 11:37:04.634700	326.3	30.8	-89.8	7.5
2025-01-19 11:37:05.788326	325.9	30.7	-89.6	3.5
2025-01-19 11:37:06.939121	325.5	30.7	-89.1	4.9
2025-01-19 11:37:08.093652	325.1	30.7	-89.2	7.5
2025-01-19 11:37:09.243042	324.7	30.6	-89.7	4.3
2025-01-19 11:37:10.404482	324.3	30.6	-89.4	5.6
2025-01-19 11:37:11.554757	324.0	30.6	-89.4	9.1
2025-01-19 11:37:12.700888	323.6	30.5	-89.7	5.6
2025-01-19 11:37:13.859250	323.2	30.5	-90.0	4.9
2025-01-19 11:37:15.018498	322.8	30.4	-89.6	8.3
2025-01-19 11:37:16.170395	322.4	30.4	-89.6	6.0
2025-01-19 11:37:17.322083	322.0	30.3	-89.2	7.9
2025-01-19 11:37:18.488904	321.6	30.3	-89.6	11.0
2025-01-19 11:37:19.646275	321.3	30.3	-89.4	9.5
2025-01-19 11:37:20.803444	320.9	30.2	-89.6	7.9
2025-01-19 11:37:21.951757	320.5	30.2	-89.5	9.4
2025-01-19 11:37:23.125437	320.1	30.1	-89.8	6.3
2025-01-19 11:37:24.276276	319.7	30.1	-89.5	6.2
2025-01-19 11:37:25.427388	319.4	30.0	-89.3	6.8
2025-01-19 11:37:26.580660	319.0	29.9	-89.4	5.8
2025-01-19 11:37:27.740515	318.6	29.9	-89.5	3.9
2025-01-19 11:37:28.898165	318.2	29.8	-89.7	6.2
2025-01-19 11:37:30.048345	317.9	29.8	-89.8	8.0
2025-01-19 11:37:31.194023	317.5	29.7	-89.3	5.3
2025-01-19 11:37:32.348835	317.1	29.7	-89.0	5.5
2025-01-19 11:37:33.500032	316.8	29.6	-89.5	7.0
2025-01-19 11:37:34.656294	316.4	29.5	-89.5	6.4
2025-01-19 11:37:35.807238	316.0	29.5	-89.9	7.1
2025-01-19 11:37:36.954787	315.7	29.4	-89.8	3.7
2025-01-19 11:37:38.109172	315.3	29.3	-89.7	7.4
2025-01-19 11:37:39.254786	315.0	29.3	-89.6	6.3
2025-01-19 11:37:40.406979	314.6	29.2	-89.1	6.8
2025-01-19 11:37:41.558468	314.3	29.1	-89.5	9.7
2025-01-19 11:37:42.718248	313.9	29.1	-89.4	3.4
2025-01-19 11:37:43.875228	313.6	29.0	-89.1	5.5
2025-01-19 11:37:45.036343	313.2	28.9	-89.2	4.0
2025-01-19 11:37:46.196810	312.8	28.8	-89.3	5.0
2025-01-19 11:37:47.355474	312.5	28.8	-89.0	4.2
2025-01-19 11:37:48.519616	312.1	28.7	-89.3	3.7
2025-01-19 11:37:49.673635	311.8	28.6	-89.7	3.0
2025-01-19 11:37:50.828468	311.5	28.5	-89.6	5.1
2025-01-19 11:37:51.987164	311.1	28.4	-89.0	6.5
2025-01-19 11:37:53.143671	310.8	28.4	-89.4	7.4
2025-01-19 11:37:54.294126	310.4	28.3	-89.5	5.6
2025-01-19 11:37:55.446708	310.1	28.2	-89.3	6.5
2025-01-19 11:37:56.609081	309.8	28.1	-89.6	6.5
2025-01-19 11:37:57.768312	309.4	28.0	-89.4	4.5
2025-01-19 11:37:58.926768	309.1	28.0	-89.4	3.8
2025-01-19 11:38:00.081207	308.8	27.9	-89.1	12.3
2025-01-19 11:38:01.234839	308.4	27.8	-89.7	6.1
2025-01-19 11:38:02.391962	308.1	27.7	-89.8	7.3
2025-01-19 11:38:03.548905	307.8	27.6	-89.6	5.4
2025-01-19 11:38:04.702625	307.5	27.5	-89.4	2.0
2025-01-19 11:38:05.856063	307.2	27.4	-89.5	6.2
2025-01-19 11:38:07.004496	306.8	27.3	-88.9	5.5
2025-01-19 11:38:08.155032	306.5	27.3	-89.5	5.5
2025-01-19 11:38:09.304716	306.2	27.2	-89.5	2.0
2025-01-19 11:38:10.461462	305.9	27.1	-89.7	7.7
2025-01-19 11:38:11.624124	305.6	27.0	-89.8	7.2
2025-01-19 11:38:12.782164	305.3	26.9	-89.6	5.8
2025-01-19 11:38:13.944219	305.0	26.8	-89.5	6.6
2025-01-19 11:38:15.095469	304.7	26.7	-89.3	6.6
2025-01-19 11:38:16.263445	304.3	26.6	-89.4	4.1
2025-01-19 11:38:17.418976	304.0	26.5	-89.4	6.4
2025-01-19 11:38:18.575820	303.7	26.4	-89.4	8.6
2025-01-19 11:38:19.723968	303.4	26.3	-88.9	6.1
2025-01-19 11:38:20.878700	303.1	26.2	-89.2	5.7
2025-01-19 11:38:22.036094	302.9	26.1	-89.4	7.8
2025-01-19 11:38:23.188526	302.6	26.0	-89.2	3.5
2025-01-19 11:38:24.335449	302.3	25.9	-89.5	10.3
2025-01-19 11:38:25.494268	302.0	25.8	-89.3	7.9
2025-01-19 11:38:26.650925	301.7	25.7	-89.5	6.1
2025-01-19 11:38:27.810154	301.4	25.6	-89.4	6.4
2025-01-19 11:38:28.970561	301.1	25.5	-89.3	6.4
2025-01-19 11:38:30.124647	300.8	25.4	-89.3	4.0
2025-01-19 11:38:31.282628	300.6	25.3	-89.4	2.8
2025-01-19 11:38:32.439689	300.3	25.2	-89.2	6.2
2025-01-19 11:38:33.598897	300.0	25.1	-89.5	6.2
2025-01-19 11:38:34.745520	299.7	25.0	-89.6	4.8
2025-01-19 11:38:35.901445	299.5	24.9	-89.2	8.0
2025-01-19 11:38:37.061839	299.2	24.8	-88.5	5.7
2025-01-19 11:38:38.217244	298.9	24.7	-89.1	3.5
2025-01-19 11:38:39.370137	298.6	24.6	-89.6	4.1
2025-01-19 11:38:40.521390	298.4	24.5	-89.2	5.9
2025-01-19 11:38:41.671941	298.1	24.4	-88.4	4.1
2025-01-19 11:38:42.829417	297.9	24.3	-88.5	3.6
2025-01-19 11:38:43.985626	297.6	24.2	-89.0	3.1
2025-01-19 11:38:45.131415	297.3	24.1	-89.2	3.3
2025-01-19 11:38:46.283617	297.1	24.0	-88.8	1.9
2025-01-19 11:38:47.437287	296.8	23.9	-89.6	3.3
2025-01-19 11:38:48.584829	296.6	23.8	-89.6	3.3
2025-01-19 11:38:49.746507	296.3	23.7	-89.5	3.1
2025-01-19 11:38:50.907036	296.1	23.6	-89.4	4.5
2025-01-19 11:38:52.066653	295.8	23.5	-89.5	2.6
2025-01-19 11:38:53.225658	295.6	23.4	-89.0	6.6
2025-01-19 11:38:54.382955	295.3	23.2	-89.1	4.6
2025-01-19 11:38:55.534667	295.1	23.1	-89.2	7.2
2025-01-19 11:38:56.696386	294.8	23.0	-89.2	8.8
2025-01-19 11:38:57.849863	294.6	22.9	-89.7	3.5
2025-01-19 11:38:59.003456	294.4	22.8	-89.5	10.5
2025-01-19 11:39:00.155767	294.1	22.7	-89.4	3.8
2025-01-19 11:39:01.303564	293.9	22.6	-88.9	5.3
2025-01-19 11:39:02.456951	293.6	22.5	-88.8	7.7
2025-01-19 11:39:03.613593	293.4	22.4	-89.0	5.9
2025-01-19 11:39:04.775742	293.2	22.3	-89.3	6.7
2025-01-19 11:39:05.930979	293.0	22.2	-89.3	3.4
2025-01-19 11:39:07.082415	292.7	22.1	-88.8	6.8
2025-01-19 11:39:08.247174	292.5	22.0	-89.3	4.0
2025-01-19 11:39:09.406643	292.3	21.9	-89.3	5.1
2025-01-19 11:39:10.566759	292.0	21.8	-89.8	6.2
2025-01-19 11:39:11.722832	291.8	21.6	-89.4	3.1
2025-01-19 11:39:12.870828	291.6	21.5	-89.3	4.2
2025-01-19 11:39:14.027461	291.4	21.4	-88.6	6.7
2025-01-19 11:39:15.180131	291.2	21.3	-88.9	2.2
2025-01-19 11:39:16.333205	291.0	21.2	-88.9	2.6
2025-01-19 11:39:17.486207	290.7	21.1	-88.7	5.8
2025-01-19 11:39:18.650726	290.5	21.0	-89.2	2.7
2025-01-19 11:39:19.809324	290.3	20.9	-88.9	8.3
2025-01-19 11:39:20.962937	290.1	20.8	-89.1	5.6
2025-01-19 11:39:22.120507	289.9	20.7	-89.0	9.8
2025-01-19 11:39:23.274570	289.7	20.6	-89.2	5.7
2025-01-19 11:39:24.426193	289.5	20.5	-89.9	5.3
2025-01-19 11:39:25.581864	289.3	20.4	-89.9	5.1
2025-01-19 11:39:26.741861	289.1	20.3	-89.9	5.7
2025-01-19 11:39:27.892101	288.9	20.1	-89.9	4.6
2025-01-19 11:39:29.041860	288.7	20.0	-89.7	4.8
2025-01-19 11:39:30.193201	288.5	19.9	-89.5	4.0
2025-01-19 11:39:31.344959	288.3	19.8	-89.3	4.9
2025-01-19 11:39:32.506590	288.1	19.7	-89.3	2.6
2025-01-19 11:39:33.664509	287.9	19.6	-89.1	1.2
2025-01-19 11:39:34.818991	287.7	19.5	-89.5	4.6
2025-01-19 11:39:35.975284	287.5	19.4	-89.5	4.5
2025-01-19 11:39:37.132394	287.3	19.3	-89.7	4.9
2025-01-19 11:39:38.282789	287.1	19.2	-89.4	3.3
2025-01-19 11:39:39.430985	287.0	19.1	-89.8	3.7
2025-01-19 11:39:40.577753	286.8	19.0	-89.7	3.7
2025-01-19 11:39:41.736415	286.6	18.9	-89.6	5.1
2025-01-19 11:39:42.897242	286.4	18.8	-89.6	5.2
2025-01-19 11:39:44.053071	286.2	18.7	-89.6	8.8
2025-01-19 11:39:45.205041	286.0	18.6	-89.6	5.8
2025-01-19 11:39:46.355488	285.9	18.5	-89.4	4.6
2025-01-19 11:39:47.506405	285.7	18.4	-89.3	11.7
2025-01-19 11:39:48.662848	285.5	18.3	-89.9	7.1
2025-01-19 11:39:49.817100	285.3	18.1	-89.8	5.3
2025-01-19 11:39:50.970753	285.2	18.0	-89.6	4.2
2025-01-19 11:39:52.113809	285.0	17.9	-89.5	4.0
2025-01-19 11:39:53.270690	284.8	17.8	-89.3	3.1
2025-01-19 11:39:54.423460	284.6	17.7	-89.3	3.8
2025-01-19 11:39:55.579488	284.5	17.6	-89.4	4.2
2025-01-19 11:39:56.732909	284.3	17.5	-89.1	3.2
2025-01-19 11:39:57.897729	284.1	17.4	-90.0	4.7
2025-01-19 11:39:59.055496	284.0	17.3	-89.5	3.5
2025-01-19 11:40:00.206227	283.8	17.2	-89.2	5.9
2025-01-19 11:40:01.358759	283.6	17.1	-89.1	3.7
2025-01-19 11:40:02.513012	283.5	17.0	-89.0	5.0
2025-01-19 11:40:03.671820	283.3	16.9	-89.1	2.1
2025-01-19 11:40:04.824514	283.2	16.8	-88.9	4.2
2025-01-19 11:40:05.959019	283.0	16.7	-89.4	4.6
2025-01-19 11:40:07.102290	282.8	16.6	-89.8	3.4
2025-01-19 11:40:08.247625	282.7	16.5	-89.7	2.4
2025-01-19 11:40:09.408422	282.5	16.4	-89.4	2.6
2025-01-19 11:40:10.567790	282.4	16.3	-89.7	2.6
2025-01-19 11:40:11.719447	282.2	16.2	-89.4	2.7
2025-01-19 11:40:12.870870	282.1	16.1	-89.0	5.1
2025-01-19 11:40:14.030404	281.9	16.0	-88.6	3.2
2025-01-19 11:40:15.182178	281.8	15.9	-89.1	4.7
2025-01-19 11:40:16.336639	281.6	15.8	-89.6	4.3
2025-01-19 11:40:17.497818	281.5	15.7	-89.3	5.0
2025-01-19 11:40:18.641748	281.3	15.6	-89.7	4.5
2025-01-19 11:40:19.806367	281.2	15.5	-89.9	4.1
2025-01-19 11:40:20.958379	281.0	15.4	-89.4	3.0
2025-01-19 11:40:22.117007	280.9	15.3	-89.5	4.3
2025-01-19 11:40:23.275080	280.7	15.2	-88.9	6.1
2025-01-19 11:40:24.443320	280.6	15.1	-89.1	7.7
2025-01-19 11:40:25.592418	280.4	15.0	-89.1	6.4
2025-01-19 11:40:26.748341	280.3	14.9	-89.4	7.4
2025-01-19 11:40:27.899494	280.2	14.8	-89.3	4.3
2025-01-19 11:40:29.051577	280.0	14.7	-89.4	6.2
2025-01-19 11:40:30.204619	279.9	14.6	-89.1	3.2
#Closed at: 2025-01-19 11:33:05.983186