passes_logs/2025/01/19/LEX_Murmansk/LEX_Murmansk__20250119_131308_NOAA_19_rec.log

#Pass ID: 20250119_131308_NOAA 19
#Satellite: NOAA 19
#Configuration: NOAA 19
#Start time: 2025-01-19 13:13:04.036069

#LorettStation: 1.0.0 05.05.2024
#Station: LEX_Murmansk
#Location: 33.156738 lon 68.926811 lat
#TLE: 1 33591U 09005A   25018.04840605  .00000325  00000+0  19728-3 0  9997
#TLE: 2 33591  99.0190  81.8343 0014373  49.4310 310.8111 14.13261983821977

#Time	Az	El	Level	SNR
2025-01-19 13:13:16.310918	39.2	15.9	-90.2	1.6
2025-01-19 13:13:17.473670	39.0	16.0	-90.2	1.7
2025-01-19 13:13:18.635380	38.8	16.1	-90.3	2.5
2025-01-19 13:13:19.793218	38.6	16.1	-90.1	3.5
2025-01-19 13:13:20.955804	38.4	16.2	-90.0	2.4
2025-01-19 13:13:22.118009	38.2	16.3	-90.6	2.1
2025-01-19 13:13:23.298115	38.1	16.4	-90.7	4.1
2025-01-19 13:13:24.458270	37.9	16.5	-90.9	1.2
2025-01-19 13:13:25.623166	37.7	16.6	-90.6	3.7
2025-01-19 13:13:26.786468	37.5	16.7	-90.7	2.6
2025-01-19 13:13:27.943153	37.3	16.7	-90.7	2.3
2025-01-19 13:13:29.105713	37.1	16.8	-90.7	1.9
2025-01-19 13:13:30.277584	36.9	16.9	-90.9	2.4
2025-01-19 13:13:31.448538	36.7	17.0	-91.0	3.3
2025-01-19 13:13:32.615751	36.5	17.1	-90.6	3.0
2025-01-19 13:13:33.783708	36.3	17.2	-90.3	2.7
2025-01-19 13:13:34.952557	36.1	17.2	-90.8	1.8
2025-01-19 13:13:36.114244	35.8	17.3	-90.9	3.8
2025-01-19 13:13:37.280183	35.6	17.4	-90.9	3.8
2025-01-19 13:13:38.435270	35.4	17.5	-90.8	3.3
2025-01-19 13:13:39.611023	35.2	17.6	-90.9	4.5
2025-01-19 13:13:40.770628	35.0	17.7	-91.0	3.6
2025-01-19 13:13:41.931368	34.8	17.7	-91.4	2.5
2025-01-19 13:13:43.094824	34.6	17.8	-90.9	3.2
2025-01-19 13:13:44.259382	34.4	17.9	-90.4	2.6
2025-01-19 13:13:45.423495	34.2	18.0	-90.7	3.7
2025-01-19 13:13:46.590497	33.9	18.1	-90.7	3.4
2025-01-19 13:13:47.755288	33.7	18.2	-90.5	2.8
2025-01-19 13:13:48.916669	33.5	18.2	-91.2	3.8
2025-01-19 13:13:50.082024	33.3	18.3	-90.4	4.1
2025-01-19 13:13:51.243148	33.1	18.4	-90.7	3.0
2025-01-19 13:13:52.411328	32.8	18.5	-90.4	3.3
2025-01-19 13:13:53.577864	32.6	18.6	-91.1	4.0
2025-01-19 13:13:54.730769	32.4	18.6	-90.7	6.8
2025-01-19 13:13:55.898746	32.2	18.7	-90.8	3.1
2025-01-19 13:13:57.059665	31.9	18.8	-90.4	5.9
2025-01-19 13:13:58.223686	31.7	18.9	-90.5	3.8
2025-01-19 13:13:59.388473	31.5	19.0	-90.8	2.6
2025-01-19 13:14:00.550174	31.2	19.0	-91.0	3.7
2025-01-19 13:14:01.703963	31.0	19.1	-91.1	4.2
2025-01-19 13:14:02.868395	30.8	19.2	-90.8	5.3
2025-01-19 13:14:04.037164	30.6	19.3	-90.7	6.4
2025-01-19 13:14:05.192837	30.3	19.4	-90.6	5.0
2025-01-19 13:14:06.351519	30.1	19.4	-90.4	6.6
2025-01-19 13:14:07.519590	29.8	19.5	-90.4	10.4
2025-01-19 13:14:08.679703	29.6	19.6	-90.6	8.5
2025-01-19 13:14:09.844048	29.4	19.7	-91.2	9.9
2025-01-19 13:14:11.009393	29.1	19.8	-91.3	5.7
2025-01-19 13:14:12.172670	28.9	19.8	-90.8	5.2
2025-01-19 13:14:13.340954	28.6	19.9	-91.0	3.2
2025-01-19 13:14:14.502155	28.4	20.0	-91.2	3.6
2025-01-19 13:14:15.668383	28.1	20.1	-90.9	2.1
2025-01-19 13:14:16.830723	27.9	20.1	-90.7	2.8
2025-01-19 13:14:17.987394	27.6	20.2	-90.7	5.9
2025-01-19 13:14:19.146772	27.4	20.3	-90.8	7.1
2025-01-19 13:14:20.303804	27.1	20.4	-90.7	10.7
2025-01-19 13:14:21.467326	26.9	20.4	-90.7	11.8
2025-01-19 13:14:22.631724	26.6	20.5	-90.9	7.6
2025-01-19 13:14:23.800475	26.4	20.6	-91.3	9.7
2025-01-19 13:14:24.965746	26.1	20.7	-91.1	10.6
2025-01-19 13:14:26.334808	25.8	20.7	-90.6	5.5
2025-01-19 13:14:27.482178	25.6	20.8	-91.0	7.2
2025-01-19 13:14:28.640603	25.3	20.9	-90.9	8.6
2025-01-19 13:14:29.806434	25.0	21.0	-91.3	3.5
2025-01-19 13:14:30.971832	24.8	21.0	-90.9	9.0
2025-01-19 13:14:32.137111	24.5	21.1	-90.6	9.5
2025-01-19 13:14:33.300285	24.2	21.2	-90.8	8.3
2025-01-19 13:14:34.781499	23.9	21.3	-91.1	11.6
2025-01-19 13:14:35.942823	23.6	21.3	-90.8	8.0
2025-01-19 13:14:37.106147	23.4	21.4	-90.6	5.3
2025-01-19 13:14:38.270777	23.1	21.5	-90.9	3.0
2025-01-19 13:14:39.434752	22.8	21.5	-90.7	4.5
2025-01-19 13:14:40.602301	22.6	21.6	-90.8	4.4
2025-01-19 13:14:41.765008	22.3	21.7	-90.9	2.3
2025-01-19 13:14:42.932353	22.0	21.7	-91.0	1.9
2025-01-19 13:14:44.098082	21.7	21.8	-90.9	3.6
2025-01-19 13:14:45.259026	21.5	21.9	-90.6	2.9
2025-01-19 13:14:46.427552	21.2	21.9	-90.4	4.2
2025-01-19 13:14:47.590194	20.9	22.0	-90.7	6.2
2025-01-19 13:14:48.752988	20.6	22.1	-91.1	11.6
2025-01-19 13:14:49.918469	20.3	22.1	-91.0	9.1
2025-01-19 13:14:51.077893	20.0	22.2	-90.9	7.4
2025-01-19 13:14:52.236095	19.8	22.2	-90.7	6.2
2025-01-19 13:14:53.399588	19.5	22.3	-90.5	6.1
2025-01-19 13:14:54.562948	19.2	22.4	-91.0	4.0
2025-01-19 13:14:55.726146	18.9	22.4	-91.0	4.7
2025-01-19 13:14:56.889565	18.6	22.5	-91.0	5.4
2025-01-19 13:14:58.049874	18.3	22.5	-90.9	4.9
2025-01-19 13:14:59.207044	18.0	22.6	-90.9	2.9
2025-01-19 13:15:00.366184	17.7	22.7	-90.9	3.8
2025-01-19 13:15:01.528845	17.4	22.7	-91.2	7.6
2025-01-19 13:15:02.693435	17.2	22.8	-91.2	8.7
2025-01-19 13:15:03.858293	16.9	22.8	-91.1	9.2
2025-01-19 13:15:05.021152	16.6	22.9	-91.0	13.2
2025-01-19 13:15:06.188015	16.3	22.9	-90.7	9.7
2025-01-19 13:15:07.351292	16.0	23.0	-90.8	6.2
2025-01-19 13:15:08.512241	15.7	23.0	-90.7	7.7
2025-01-19 13:15:09.679872	15.4	23.1	-90.8	4.9
2025-01-19 13:15:10.843347	15.1	23.1	-91.0	5.8
2025-01-19 13:15:12.006335	14.8	23.2	-90.7	4.7
2025-01-19 13:15:13.168417	14.5	23.2	-90.6	4.0
2025-01-19 13:15:14.330184	14.2	23.3	-90.8	2.3
2025-01-19 13:15:15.497576	13.8	23.3	-91.2	4.9
2025-01-19 13:15:16.662783	13.5	23.4	-90.9	2.3
2025-01-19 13:15:17.829133	13.2	23.4	-90.7	4.1
2025-01-19 13:15:18.987297	12.9	23.5	-91.0	5.9
2025-01-19 13:15:20.151950	12.6	23.5	-90.8	6.1
2025-01-19 13:15:21.315244	12.3	23.6	-90.8	5.2
2025-01-19 13:15:22.474737	12.0	23.6	-90.8	10.0
2025-01-19 13:15:23.637596	11.7	23.6	-90.7	11.6
2025-01-19 13:15:24.803743	11.4	23.7	-90.8	9.5
2025-01-19 13:15:25.968937	11.1	23.7	-91.1	10.6
2025-01-19 13:15:27.135527	10.7	23.8	-91.0	7.5
2025-01-19 13:15:28.299692	10.4	23.8	-91.0	5.6
2025-01-19 13:15:29.455786	10.1	23.8	-91.2	6.8
2025-01-19 13:15:30.625730	9.8	23.9	-91.1	8.6
2025-01-19 13:15:31.789478	9.5	23.9	-90.9	5.6
2025-01-19 13:15:32.925782	9.2	23.9	-91.0	6.4
2025-01-19 13:15:34.080484	8.9	24.0	-90.9	5.1
2025-01-19 13:15:35.241782	8.5	24.0	-90.8	2.5
2025-01-19 13:15:36.418600	8.2	24.0	-90.8	5.7
2025-01-19 13:15:37.578556	7.9	24.1	-91.0	5.3
2025-01-19 13:15:38.742712	7.6	24.1	-91.0	6.4
2025-01-19 13:15:39.905757	7.3	24.1	-91.0	6.1
2025-01-19 13:15:41.069642	6.9	24.2	-90.7	6.4
2025-01-19 13:15:42.232620	6.6	24.2	-90.6	7.7
2025-01-19 13:15:43.381304	6.3	24.2	-90.4	7.8
2025-01-19 13:15:44.541228	6.0	24.2	-90.9	5.9
2025-01-19 13:15:45.709052	5.6	24.3	-91.0	10.3
2025-01-19 13:15:46.871196	5.3	24.3	-91.3	11.8
2025-01-19 13:15:48.039549	5.0	24.3	-91.3	8.8
2025-01-19 13:15:49.202924	4.7	24.3	-91.3	9.8
2025-01-19 13:15:50.368521	4.3	24.4	-91.5	8.4
2025-01-19 13:15:51.531649	4.0	24.4	-91.3	8.9
2025-01-19 13:15:52.688626	3.7	24.4	-91.1	9.7
2025-01-19 13:15:53.857192	3.4	24.4	-90.7	5.9
2025-01-19 13:15:55.022655	3.0	24.4	-90.4	6.3
2025-01-19 13:15:56.188549	2.7	24.4	-89.8	5.0
2025-01-19 13:15:57.352928	2.4	24.5	-90.3	5.1
2025-01-19 13:15:58.518875	2.0	24.5	-90.6	5.2
2025-01-19 13:15:59.679601	1.7	24.5	-90.7	2.9
2025-01-19 13:16:00.839459	1.4	24.5	-90.8	2.4
2025-01-19 13:16:02.004446	1.1	24.5	-90.6	4.2
2025-01-19 13:16:03.167331	0.7	24.5	-90.5	0.5
2025-01-19 13:16:04.332541	0.4	24.5	-90.4	1.2
2025-01-19 13:16:05.486988	0.1	24.5	-90.5	4.4
2025-01-19 13:16:06.649848	359.7	24.5	-90.5	5.5
2025-01-19 13:16:07.812591	359.4	24.5	-90.6	4.6
2025-01-19 13:16:08.976081	359.1	24.5	-90.6	5.4
2025-01-19 13:16:10.139834	358.8	24.5	-90.4	8.6
2025-01-19 13:16:11.307460	358.4	24.5	-90.3	4.7
2025-01-19 13:16:12.468932	358.1	24.5	-90.4	5.6
2025-01-19 13:16:13.636046	357.8	24.5	-90.7	9.8
2025-01-19 13:16:14.803440	357.4	24.5	-90.6	9.5
2025-01-19 13:16:15.963016	357.1	24.5	-90.5	10.2
2025-01-19 13:16:17.129247	356.8	24.5	-90.6	12.1
2025-01-19 13:16:18.292890	356.4	24.5	-90.3	13.8
2025-01-19 13:16:19.455658	356.1	24.5	-90.7	9.5
2025-01-19 13:16:20.619544	355.8	24.5	-90.5	10.9
2025-01-19 13:16:21.774725	355.5	24.5	-90.5	12.0
2025-01-19 13:16:22.940067	355.1	24.5	-90.5	12.7
2025-01-19 13:16:24.102239	354.8	24.5	-90.4	12.5
2025-01-19 13:16:25.248699	354.5	24.5	-90.1	10.3
2025-01-19 13:16:26.370756	354.2	24.5	-90.5	12.5
2025-01-19 13:16:27.503322	353.8	24.5	-90.1	11.8
2025-01-19 13:16:28.638135	353.5	24.5	-90.7	13.6
2025-01-19 13:16:29.767975	353.2	24.4	-90.9	12.2
2025-01-19 13:16:30.898060	352.9	24.4	-91.1	11.9
2025-01-19 13:16:32.019623	352.6	24.4	-91.1	9.0
2025-01-19 13:16:33.140044	352.2	24.4	-91.0	11.2
2025-01-19 13:16:34.261222	351.9	24.4	-91.2	8.7
2025-01-19 13:16:35.388094	351.6	24.4	-91.1	8.0
2025-01-19 13:16:36.512471	351.3	24.3	-90.5	6.2
2025-01-19 13:16:37.633358	351.0	24.3	-90.1	8.6
2025-01-19 13:16:38.763339	350.7	24.3	-90.6	6.5
2025-01-19 13:16:40.581618	350.2	24.3	-90.9	8.8
2025-01-19 13:16:42.483147	349.6	24.2	-91.0	7.0
2025-01-19 13:16:43.642491	349.3	24.2	-91.2	9.2
2025-01-19 13:16:44.810297	349.0	24.2	-91.4	3.3
2025-01-19 13:16:45.969753	348.7	24.1	-91.2	4.3
2025-01-19 13:16:47.126502	348.4	24.1	-91.0	9.0
2025-01-19 13:16:48.283355	348.0	24.1	-91.1	4.7
2025-01-19 13:16:49.420983	347.7	24.0	-90.5	6.2
2025-01-19 13:16:50.579092	347.4	24.0	-90.5	7.8
2025-01-19 13:16:51.736699	347.1	24.0	-90.7	3.9
2025-01-19 13:16:52.863632	346.8	23.9	-90.5	4.1
2025-01-19 13:16:54.022001	346.5	23.9	-90.6	4.4
2025-01-19 13:16:55.177729	346.1	23.9	-90.1	4.8
2025-01-19 13:16:56.335814	345.8	23.8	-90.0	3.8
2025-01-19 13:16:57.490213	345.5	23.8	-91.0	4.5
2025-01-19 13:16:58.647240	345.2	23.8	-91.2	5.3
2025-01-19 13:16:59.801318	344.9	23.7	-91.3	0.9
2025-01-19 13:17:00.951611	344.6	23.7	-91.2	4.4
2025-01-19 13:17:02.105623	344.3	23.6	-91.1	4.7
2025-01-19 13:17:03.269831	344.0	23.6	-91.1	4.2
2025-01-19 13:17:04.431018	343.7	23.6	-91.2	3.4
2025-01-19 13:17:05.606140	343.3	23.5	-91.0	5.9
2025-01-19 13:17:06.761337	343.0	23.5	-91.5	3.1
2025-01-19 13:17:07.910773	342.7	23.4	-91.4	3.7
2025-01-19 13:17:09.059148	342.4	23.4	-90.7	4.5
2025-01-19 13:17:10.201874	342.1	23.3	-91.0	3.9
2025-01-19 13:17:11.355035	341.8	23.3	-90.9	3.1
2025-01-19 13:17:12.505862	341.5	23.2	-90.9	4.0
2025-01-19 13:17:13.646953	341.2	23.2	-91.1	4.3
2025-01-19 13:17:14.801930	340.9	23.1	-91.0	2.7
2025-01-19 13:17:15.953769	340.6	23.1	-90.9	4.7
2025-01-19 13:17:17.101415	340.3	23.0	-90.7	4.7
2025-01-19 13:17:18.253219	340.0	23.0	-90.8	3.2
2025-01-19 13:17:19.403122	339.8	22.9	-90.9	4.9
2025-01-19 13:17:20.545814	339.5	22.9	-91.4	4.3
2025-01-19 13:17:21.688682	339.2	22.8	-91.2	5.3
2025-01-19 13:17:22.841490	338.9	22.8	-90.9	4.4
2025-01-19 13:17:24.000901	338.6	22.7	-90.8	5.7
2025-01-19 13:17:25.157161	338.3	22.7	-91.1	4.8
2025-01-19 13:17:26.313269	338.0	22.6	-90.9	4.8
2025-01-19 13:17:27.465225	337.7	22.6	-91.2	6.3
2025-01-19 13:17:28.626072	337.4	22.5	-91.6	7.2
2025-01-19 13:17:29.784351	337.1	22.4	-91.5	4.9
2025-01-19 13:17:30.949847	336.9	22.4	-91.4	6.3
2025-01-19 13:17:32.124728	336.6	22.3	-90.8	7.7
2025-01-19 13:17:33.277943	336.3	22.3	-90.0	2.7
2025-01-19 13:17:34.437315	336.0	22.2	-90.4	5.1
2025-01-19 13:17:35.590575	335.7	22.1	-90.7	5.3
2025-01-19 13:17:36.749467	335.4	22.1	-90.9	3.1
2025-01-19 13:17:37.911445	335.2	22.0	-90.9	4.6
2025-01-19 13:17:39.054933	334.9	21.9	-90.7	5.4
2025-01-19 13:17:40.207791	334.6	21.9	-90.9	2.6
2025-01-19 13:17:41.351062	334.3	21.8	-91.1	3.9
2025-01-19 13:17:42.633937	334.0	21.7	-91.2	5.2
2025-01-19 13:17:43.767796	333.8	21.7	-90.7	4.0
2025-01-19 13:17:44.890760	333.5	21.6	-90.5	7.4
2025-01-19 13:17:46.124406	333.2	21.5	-89.9	9.7
2025-01-19 13:17:47.299369	332.9	21.5	-90.0	3.9
2025-01-19 13:17:48.434456	332.7	21.4	-89.9	9.9
2025-01-19 13:17:49.591927	332.4	21.3	-90.0	9.7
2025-01-19 13:17:50.759413	332.1	21.3	-90.7	6.3
2025-01-19 13:17:51.921827	331.9	21.2	-91.1	10.0
2025-01-19 13:17:53.084823	331.6	21.1	-91.0	9.5
2025-01-19 13:17:54.245554	331.3	21.1	-90.9	8.3
2025-01-19 13:17:55.406180	331.1	21.0	-91.1	9.2
2025-01-19 13:17:56.570224	330.8	20.9	-91.5	6.7
2025-01-19 13:17:57.739539	330.6	20.8	-91.3	9.5
2025-01-19 13:17:58.908330	330.3	20.8	-91.7	11.1
2025-01-19 13:18:00.072359	330.0	20.7	-91.2	9.4
2025-01-19 13:18:01.234198	329.8	20.6	-90.8	5.6
2025-01-19 13:18:02.399826	329.5	20.6	-91.4	3.5
2025-01-19 13:18:03.568813	329.3	20.5	-91.3	3.7
2025-01-19 13:18:04.724833	329.0	20.4	-91.2	4.8
2025-01-19 13:18:05.887125	328.8	20.3	-91.3	3.9
2025-01-19 13:18:07.050588	328.5	20.3	-90.9	0.2
2025-01-19 13:18:08.216379	328.3	20.2	-90.6	2.0
2025-01-19 13:18:09.376901	328.0	20.1	-90.8	3.4
2025-01-19 13:18:10.538399	327.8	20.0	-90.6	2.5
2025-01-19 13:18:11.706622	327.5	20.0	-90.7	3.1
2025-01-19 13:18:12.869677	327.3	19.9	-90.6	3.8
2025-01-19 13:18:14.036476	327.0	19.8	-90.8	2.7
2025-01-19 13:18:15.194794	326.8	19.7	-90.4	1.2
2025-01-19 13:18:16.361441	326.6	19.6	-90.5	1.2
2025-01-19 13:18:17.524520	326.3	19.6	-90.5	2.2
2025-01-19 13:18:18.689182	326.1	19.5	-90.7	1.7
2025-01-19 13:18:19.852253	325.8	19.4	-90.6	2.2
2025-01-19 13:18:21.013916	325.6	19.3	-90.7	3.9
2025-01-19 13:18:22.169366	325.4	19.3	-90.7	2.3
2025-01-19 13:18:23.331161	325.1	19.2	-90.6	1.8
2025-01-19 13:18:24.503296	324.9	19.1	-91.3	1.8
2025-01-19 13:18:25.667025	324.7	19.0	-91.3	1.8
2025-01-19 13:18:26.829959	324.4	18.9	-91.2	2.2
2025-01-19 13:18:27.991201	324.2	18.9	-91.1	2.7
2025-01-19 13:18:29.162148	324.0	18.8	-90.9	4.8
2025-01-19 13:18:30.320170	323.8	18.7	-90.5	6.5
2025-01-19 13:18:31.475276	323.5	18.6	-91.1	5.6
2025-01-19 13:18:32.636192	323.3	18.5	-91.1	6.7
2025-01-19 13:18:33.800385	323.1	18.5	-90.9	6.9
2025-01-19 13:18:34.966289	322.9	18.4	-90.9	4.7
2025-01-19 13:18:36.130480	322.7	18.3	-90.7	7.3
2025-01-19 13:18:37.297346	322.4	18.2	-90.4	5.6
2025-01-19 13:18:38.461393	322.2	18.1	-90.8	6.7
2025-01-19 13:18:39.618495	322.0	18.0	-90.9	4.2
2025-01-19 13:18:40.787302	321.8	18.0	-90.6	2.4
2025-01-19 13:18:41.950053	321.6	17.9	-90.4	1.6
2025-01-19 13:18:43.116638	321.4	17.8	-90.9	3.9
2025-01-19 13:18:44.279659	321.1	17.7	-90.5	3.6
2025-01-19 13:18:45.446646	320.9	17.6	-90.9	3.5
2025-01-19 13:18:46.610868	320.7	17.5	-91.0	3.2
2025-01-19 13:18:47.770928	320.5	17.5	-91.2	1.1
2025-01-19 13:18:48.940026	320.3	17.4	-90.6	3.1
2025-01-19 13:18:50.096996	320.1	17.3	-90.4	4.5
2025-01-19 13:18:51.260104	319.9	17.2	-90.3	3.0
2025-01-19 13:18:52.425024	319.7	17.1	-90.2	3.8
2025-01-19 13:18:53.593268	319.5	17.0	-90.5	2.8
2025-01-19 13:18:54.753349	319.3	17.0	-90.7	1.9
2025-01-19 13:18:55.917175	319.1	16.9	-91.0	6.6
2025-01-19 13:18:57.083630	318.9	16.8	-91.0	4.9
2025-01-19 13:18:58.245429	318.7	16.7	-90.9	4.5
2025-01-19 13:18:59.405609	318.5	16.6	-90.8	7.4
2025-01-19 13:19:00.558470	318.3	16.5	-90.8	4.0
2025-01-19 13:19:01.724601	318.1	16.5	-90.6	3.2
2025-01-19 13:19:02.888668	317.9	16.4	-90.6	6.4
2025-01-19 13:19:04.057834	317.7	16.3	-90.4	5.8
2025-01-19 13:19:05.219215	317.5	16.2	-90.7	3.0
2025-01-19 13:19:06.378685	317.3	16.1	-90.7	6.4
2025-01-19 13:19:07.538307	317.2	16.0	-90.5	5.0
2025-01-19 13:19:08.705682	317.0	16.0	-90.5	3.2
2025-01-19 13:19:09.860032	316.8	15.9	-90.7	5.6
2025-01-19 13:19:11.024961	316.6	15.8	-91.1	3.2
2025-01-19 13:19:12.188928	316.4	15.7	-90.9	1.8
2025-01-19 13:19:13.341942	316.2	15.6	-90.9	2.1
2025-01-19 13:19:14.503886	316.0	15.5	-90.6	1.6
2025-01-19 13:19:15.669740	315.9	15.5	-90.7	3.0
2025-01-19 13:19:16.834768	315.7	15.4	-90.8	3.0
2025-01-19 13:19:17.998995	315.5	15.3	-90.8	1.8
2025-01-19 13:19:19.166447	315.3	15.2	-90.4	4.7
2025-01-19 13:19:20.322238	315.1	15.1	-90.7	3.7
2025-01-19 13:19:21.489416	315.0	15.0	-90.9	3.5
2025-01-19 13:19:22.654709	314.8	14.9	-91.0	5.0
2025-01-19 13:19:23.818773	314.6	14.9	-91.2	6.5
2025-01-19 13:19:24.981736	314.4	14.8	-91.1	2.3
2025-01-19 13:19:26.143983	314.3	14.7	-91.0	2.2
#Closed at: 2025-01-19 13:13:08.989866