passes_logs/2025/01/19/LEX_Murmansk/LEX_Murmansk__20250119_063122_NOAA_19_rec.log

#Pass ID: 20250119_063122_NOAA 19
#Satellite: NOAA 19
#Configuration: NOAA 19
#Start time: 2025-01-19 06:31:17.179015

#LorettStation: 1.0.0 05.05.2024
#Station: LEX_Murmansk
#Location: 33.156738 lon 68.926811 lat
#TLE: 1 33591U 09005A   25018.04840605  .00000325  00000+0  19728-3 0  9997
#TLE: 2 33591  99.0190  81.8343 0014373  49.4310 310.8111 14.13261983821977

#Time	Az	El	Level	SNR
2025-01-19 06:31:29.266390	44.4	15.8	-92.4	6.5
2025-01-19 06:31:30.388804	44.6	15.9	-92.5	5.6
2025-01-19 06:31:31.539333	44.8	15.9	-92.5	2.8
2025-01-19 06:31:32.692337	45.0	16.0	-92.0	4.8
2025-01-19 06:31:33.840802	45.2	16.1	-92.1	4.3
2025-01-19 06:31:34.983795	45.4	16.2	-92.5	3.6
2025-01-19 06:31:36.135579	45.6	16.2	-91.9	2.9
2025-01-19 06:31:37.286350	45.8	16.3	-92.2	1.8
2025-01-19 06:31:38.436545	46.0	16.4	-91.9	4.9
2025-01-19 06:31:39.592025	46.2	16.4	-92.4	3.6
2025-01-19 06:31:40.745701	46.4	16.5	-92.4	5.1
2025-01-19 06:31:41.909251	46.6	16.6	-92.5	3.5
2025-01-19 06:31:43.069434	46.8	16.7	-92.4	3.2
2025-01-19 06:31:44.227956	47.0	16.7	-92.0	0.6
2025-01-19 06:31:45.386342	47.2	16.8	-92.4	2.3
2025-01-19 06:31:46.535956	47.5	16.9	-92.6	2.6
2025-01-19 06:31:47.691832	47.7	17.0	-92.5	2.4
2025-01-19 06:31:48.838720	47.9	17.0	-92.4	1.1
2025-01-19 06:31:49.985576	48.1	17.1	-92.5	2.9
2025-01-19 06:31:51.138184	48.3	17.2	-92.5	5.9
2025-01-19 06:31:52.291334	48.5	17.2	-92.4	5.5
2025-01-19 06:31:53.442107	48.7	17.3	-92.4	10.8
2025-01-19 06:31:54.596261	49.0	17.4	-92.2	9.2
2025-01-19 06:31:55.746555	49.2	17.5	-92.5	9.3
2025-01-19 06:31:56.894647	49.4	17.5	-92.7	10.0
2025-01-19 06:31:58.068066	49.6	17.6	-92.4	7.6
2025-01-19 06:31:59.217399	49.9	17.7	-92.6	2.3
2025-01-19 06:32:00.373040	50.1	17.7	-92.7	5.0
2025-01-19 06:32:01.526036	50.3	17.8	-93.0	7.2
2025-01-19 06:32:02.686774	50.5	17.9	-92.8	5.7
2025-01-19 06:32:03.838492	50.8	17.9	-92.5	9.7
2025-01-19 06:32:05.006220	51.0	18.0	-92.8	12.8
2025-01-19 06:32:06.159874	51.2	18.1	-92.8	13.4
2025-01-19 06:32:07.320213	51.5	18.2	-92.9	11.9
2025-01-19 06:32:08.479222	51.7	18.2	-92.7	8.1
2025-01-19 06:32:09.632944	51.9	18.3	-92.8	6.7
2025-01-19 06:32:10.787260	52.2	18.4	-92.6	2.0
2025-01-19 06:32:11.942308	52.4	18.4	-92.2	2.9
2025-01-19 06:32:13.093810	52.6	18.5	-92.4	4.0
2025-01-19 06:32:14.255632	52.9	18.6	-92.3	2.9
2025-01-19 06:32:15.415536	53.1	18.6	-92.5	4.9
2025-01-19 06:32:16.575548	53.3	18.7	-92.3	8.4
2025-01-19 06:32:17.730786	53.6	18.8	-92.3	9.2
2025-01-19 06:32:18.886968	53.8	18.8	-92.7	11.0
2025-01-19 06:32:20.039882	54.1	18.9	-92.9	11.2
2025-01-19 06:32:21.192503	54.3	19.0	-92.3	11.7
2025-01-19 06:32:22.351907	54.6	19.0	-92.2	12.2
2025-01-19 06:32:23.509059	54.8	19.1	-92.6	12.2
2025-01-19 06:32:24.658670	55.0	19.2	-92.2	9.8
2025-01-19 06:32:25.813382	55.3	19.2	-92.3	5.3
2025-01-19 06:32:26.966663	55.5	19.3	-92.4	4.8
2025-01-19 06:32:28.124089	55.8	19.3	-92.4	7.0
2025-01-19 06:32:29.280104	56.0	19.4	-92.4	7.1
2025-01-19 06:32:30.429435	56.3	19.5	-92.4	13.4
2025-01-19 06:32:31.587697	56.5	19.5	-92.6	12.3
2025-01-19 06:32:32.742099	56.8	19.6	-92.1	12.5
2025-01-19 06:32:33.898828	57.1	19.7	-92.2	14.2
2025-01-19 06:32:35.048670	57.3	19.7	-92.3	14.4
2025-01-19 06:32:36.203835	57.6	19.8	-92.1	10.3
2025-01-19 06:32:37.361212	57.8	19.8	-92.3	7.1
2025-01-19 06:32:38.511276	58.1	19.9	-92.9	6.5
2025-01-19 06:32:39.670136	58.3	20.0	-92.9	5.8
2025-01-19 06:32:40.822631	58.6	20.0	-92.7	1.6
2025-01-19 06:32:41.973588	58.9	20.1	-92.4	3.7
2025-01-19 06:32:43.132824	59.1	20.1	-92.5	5.7
2025-01-19 06:32:44.285763	59.4	20.2	-92.3	4.2
2025-01-19 06:32:45.443187	59.7	20.2	-92.1	7.5
2025-01-19 06:32:46.601398	59.9	20.3	-92.7	12.2
2025-01-19 06:32:47.758878	60.2	20.4	-92.4	10.5
2025-01-19 06:32:48.915508	60.4	20.4	-92.4	12.9
2025-01-19 06:32:50.072874	60.7	20.5	-92.4	15.7
2025-01-19 06:32:51.225191	61.0	20.5	-92.4	15.0
2025-01-19 06:32:52.383397	61.3	20.6	-92.5	13.8
2025-01-19 06:32:53.537299	61.5	20.6	-92.6	12.9
2025-01-19 06:32:54.689586	61.8	20.7	-92.3	8.4
2025-01-19 06:32:55.848843	62.1	20.7	-92.4	8.0
2025-01-19 06:32:57.012736	62.3	20.8	-92.9	8.7
2025-01-19 06:32:58.162606	62.6	20.8	-92.2	7.2
2025-01-19 06:32:59.327614	62.9	20.9	-92.2	4.8
2025-01-19 06:33:00.472849	63.2	20.9	-92.5	9.9
2025-01-19 06:33:01.622827	63.4	21.0	-92.6	13.3
2025-01-19 06:33:02.786805	63.7	21.0	-92.6	14.1
2025-01-19 06:33:03.939890	64.0	21.1	-92.4	16.0
2025-01-19 06:33:05.092148	64.3	21.1	-92.5	17.0
2025-01-19 06:33:06.244339	64.6	21.2	-92.1	16.1
2025-01-19 06:33:07.406171	64.8	21.2	-92.1	15.1
2025-01-19 06:33:08.560956	65.1	21.3	-92.6	12.3
2025-01-19 06:33:09.720787	65.4	21.3	-92.3	8.9
2025-01-19 06:33:10.877781	65.7	21.4	-92.2	9.1
2025-01-19 06:33:12.036307	66.0	21.4	-92.3	8.3
2025-01-19 06:33:13.191702	66.3	21.5	-92.4	4.7
2025-01-19 06:33:14.352380	66.6	21.5	-92.3	2.2
2025-01-19 06:33:15.506443	66.8	21.5	-92.2	3.6
2025-01-19 06:33:16.666210	67.1	21.6	-92.3	4.7
2025-01-19 06:33:17.815209	67.4	21.6	-92.5	3.6
2025-01-19 06:33:18.971965	67.7	21.7	-92.7	6.6
2025-01-19 06:33:20.131193	68.0	21.7	-92.2	9.4
2025-01-19 06:33:21.261016	68.3	21.7	-92.1	8.3
2025-01-19 06:33:22.383146	68.6	21.8	-92.4	10.7
2025-01-19 06:33:23.504269	68.8	21.8	-92.1	13.1
2025-01-19 06:33:24.625622	69.1	21.9	-92.4	14.9
2025-01-19 06:33:25.745471	69.4	21.9	-92.4	16.1
2025-01-19 06:33:26.866102	69.7	21.9	-92.3	15.6
2025-01-19 06:33:27.986912	70.0	22.0	-92.4	15.6
2025-01-19 06:33:29.110045	70.3	22.0	-92.2	14.7
2025-01-19 06:33:30.232087	70.6	22.0	-92.1	11.0
2025-01-19 06:33:31.384016	70.8	22.1	-92.3	11.5
2025-01-19 06:33:32.537890	71.1	22.1	-92.3	10.3
2025-01-19 06:33:33.692764	71.4	22.1	-92.4	6.9
2025-01-19 06:33:34.840715	71.7	22.1	-92.5	5.2
2025-01-19 06:33:35.991390	72.0	22.2	-92.1	9.7
2025-01-19 06:33:37.152697	72.3	22.2	-92.3	8.7
2025-01-19 06:33:38.303629	72.6	22.2	-92.3	6.2
2025-01-19 06:33:39.454784	72.9	22.3	-92.8	9.3
2025-01-19 06:33:40.600206	73.2	22.3	-92.6	10.5
2025-01-19 06:33:41.740891	73.5	22.3	-92.0	9.3
2025-01-19 06:33:42.880654	73.8	22.3	-92.3	11.0
2025-01-19 06:33:44.029225	74.1	22.4	-92.3	12.5
2025-01-19 06:33:45.168588	74.4	22.4	-92.4	13.2
2025-01-19 06:33:46.327884	74.7	22.4	-92.6	11.8
2025-01-19 06:33:47.474594	75.0	22.4	-92.8	13.5
2025-01-19 06:33:48.625577	75.3	22.5	-92.3	13.0
2025-01-19 06:33:49.775445	75.6	22.5	-92.3	10.0
2025-01-19 06:33:50.925112	75.9	22.5	-92.9	12.1
2025-01-19 06:33:52.079752	76.2	22.5	-92.5	10.1
2025-01-19 06:33:53.235390	76.5	22.5	-92.4	8.6
2025-01-19 06:33:54.385728	76.9	22.5	-92.6	7.6
2025-01-19 06:33:55.535978	77.2	22.6	-92.6	6.1
2025-01-19 06:33:56.699692	77.5	22.6	-92.6	4.1
2025-01-19 06:33:57.854504	77.8	22.6	-92.8	2.8
2025-01-19 06:33:59.014403	78.1	22.6	-92.8	4.4
2025-01-19 06:34:00.153639	78.4	22.6	-92.8	7.8
2025-01-19 06:34:01.307357	78.7	22.6	-92.5	4.3
2025-01-19 06:34:02.463154	79.0	22.6	-92.6	5.6
2025-01-19 06:34:03.621130	79.3	22.7	-92.7	5.7
2025-01-19 06:34:04.781468	79.6	22.7	-92.4	2.0
2025-01-19 06:34:05.941124	79.9	22.7	-92.7	5.8
2025-01-19 06:34:07.097289	80.2	22.7	-92.5	3.9
2025-01-19 06:34:08.248933	80.5	22.7	-92.2	3.3
2025-01-19 06:34:09.403982	80.8	22.7	-92.8	6.3
2025-01-19 06:34:10.558317	81.2	22.7	-92.5	4.2
2025-01-19 06:34:11.710216	81.5	22.7	-92.6	5.0
2025-01-19 06:34:12.863348	81.8	22.7	-92.3	5.7
2025-01-19 06:34:14.006879	82.1	22.7	-92.5	6.7
2025-01-19 06:34:15.132555	82.4	22.7	-92.1	5.9
2025-01-19 06:34:16.282582	82.7	22.7	-92.5	6.5
2025-01-19 06:34:17.428045	83.0	22.7	-92.7	9.1
2025-01-19 06:34:18.577121	83.3	22.7	-92.5	8.0
2025-01-19 06:34:19.723128	83.6	22.7	-92.4	7.0
2025-01-19 06:34:20.874670	83.9	22.7	-92.7	9.2
2025-01-19 06:34:22.032300	84.2	22.7	-92.8	9.0
2025-01-19 06:34:23.180728	84.5	22.7	-92.5	8.2
2025-01-19 06:34:24.334356	84.8	22.7	-92.4	7.6
2025-01-19 06:34:25.476790	85.1	22.7	-92.7	9.2
2025-01-19 06:34:26.600629	85.4	22.7	-92.7	6.8
2025-01-19 06:34:27.764179	85.8	22.7	-92.4	5.8
2025-01-19 06:34:28.905275	86.1	22.7	-92.5	9.2
2025-01-19 06:34:30.047257	86.4	22.7	-92.4	8.8
2025-01-19 06:34:31.205099	86.7	22.7	-92.7	8.4
2025-01-19 06:34:32.349042	87.0	22.7	-92.6	10.2
2025-01-19 06:34:33.502290	87.3	22.6	-92.7	8.5
2025-01-19 06:34:34.649002	87.6	22.6	-92.4	10.0
2025-01-19 06:34:35.773265	87.9	22.6	-92.7	14.4
2025-01-19 06:34:36.908867	88.2	22.6	-92.8	8.9
2025-01-19 06:34:38.063303	88.5	22.6	-92.4	5.0
2025-01-19 06:34:39.212157	88.8	22.6	-92.4	8.8
2025-01-19 06:34:40.363045	89.1	22.6	-92.4	8.4
2025-01-19 06:34:41.511054	89.4	22.5	-92.6	4.7
2025-01-19 06:34:42.664154	89.7	22.5	-92.7	7.3
2025-01-19 06:34:43.813613	90.0	22.5	-92.5	7.5
2025-01-19 06:34:44.972592	90.3	22.5	-92.6	3.7
2025-01-19 06:34:46.128455	90.6	22.5	-92.8	5.3
2025-01-19 06:34:47.283279	90.9	22.5	-92.4	9.0
2025-01-19 06:34:48.445067	91.2	22.4	-92.5	5.6
2025-01-19 06:34:49.598380	91.5	22.4	-92.8	5.2
2025-01-19 06:34:50.751606	91.8	22.4	-92.6	7.6
2025-01-19 06:34:51.903923	92.1	22.4	-92.8	5.0
2025-01-19 06:34:53.062633	92.5	22.3	-92.6	4.9
2025-01-19 06:34:54.220017	92.8	22.3	-92.6	7.5
2025-01-19 06:34:55.376841	93.1	22.3	-92.4	7.2
2025-01-19 06:34:56.538053	93.4	22.3	-92.8	4.0
2025-01-19 06:34:57.694022	93.7	22.2	-92.8	9.2
2025-01-19 06:34:58.840782	94.0	22.2	-92.9	9.1
2025-01-19 06:35:00.012303	94.3	22.2	-92.6	5.3
2025-01-19 06:35:01.168319	94.6	22.1	-92.6	9.7
2025-01-19 06:35:02.331522	94.9	22.1	-92.6	9.8
2025-01-19 06:35:03.493114	95.2	22.1	-92.6	4.6
2025-01-19 06:35:04.650926	95.5	22.0	-92.6	6.3
2025-01-19 06:35:05.785212	95.7	22.0	-92.7	8.2
2025-01-19 06:35:06.920346	96.0	22.0	-92.9	5.1
2025-01-19 06:35:08.067500	96.3	21.9	-92.7	5.1
2025-01-19 06:35:09.206572	96.6	21.9	-92.7	7.3
2025-01-19 06:35:10.367592	96.9	21.9	-93.0	7.0
2025-01-19 06:35:11.520899	97.2	21.8	-92.5	6.3
2025-01-19 06:35:12.670034	97.5	21.8	-92.2	4.9
2025-01-19 06:35:13.796930	97.8	21.8	-92.5	9.3
2025-01-19 06:35:14.947836	98.1	21.7	-92.4	7.3
2025-01-19 06:35:16.092148	98.4	21.7	-92.8	6.5
2025-01-19 06:35:17.239899	98.6	21.6	-92.4	7.7
2025-01-19 06:35:18.389845	98.9	21.6	-92.1	7.6
2025-01-19 06:35:19.543129	99.2	21.6	-92.4	8.1
2025-01-19 06:35:20.687401	99.5	21.5	-92.6	7.5
2025-01-19 06:35:21.840330	99.8	21.5	-92.5	10.6
2025-01-19 06:35:22.993514	100.1	21.4	-92.7	8.3
2025-01-19 06:35:24.147611	100.4	21.4	-92.4	9.1
2025-01-19 06:35:25.294394	100.6	21.4	-92.3	15.1
2025-01-19 06:35:26.445157	100.9	21.3	-92.6	10.7
2025-01-19 06:35:27.592585	101.2	21.3	-92.3	8.3
2025-01-19 06:35:28.748149	101.5	21.2	-92.4	12.8
2025-01-19 06:35:29.898167	101.8	21.2	-92.5	11.3
2025-01-19 06:35:31.053715	102.0	21.1	-92.6	8.9
2025-01-19 06:35:32.209961	102.3	21.1	-92.6	15.7
2025-01-19 06:35:33.361417	102.6	21.0	-92.6	15.1
2025-01-19 06:35:34.514923	102.9	21.0	-92.9	11.0
2025-01-19 06:35:35.671386	103.2	20.9	-92.6	13.8
2025-01-19 06:35:36.823431	103.4	20.9	-92.2	15.1
2025-01-19 06:35:37.972936	103.7	20.8	-92.7	10.2
2025-01-19 06:35:39.134345	104.0	20.8	-92.5	12.2
2025-01-19 06:35:40.281812	104.2	20.7	-92.4	15.1
2025-01-19 06:35:41.436458	104.5	20.7	-92.8	9.8
2025-01-19 06:35:42.596394	104.8	20.6	-92.7	8.6
2025-01-19 06:35:43.751793	105.1	20.6	-92.9	14.5
2025-01-19 06:35:44.903004	105.3	20.5	-92.5	7.0
2025-01-19 06:35:46.068035	105.6	20.5	-92.7	3.5
2025-01-19 06:35:47.222506	105.9	20.4	-92.5	13.2
2025-01-19 06:35:48.386802	106.1	20.3	-93.0	8.6
2025-01-19 06:35:49.537472	106.4	20.3	-92.5	6.9
2025-01-19 06:35:50.695459	106.7	20.2	-92.7	12.5
2025-01-19 06:35:51.849307	106.9	20.2	-92.9	13.9
2025-01-19 06:35:53.002284	107.2	20.1	-93.0	7.9
2025-01-19 06:35:54.157397	107.5	20.1	-92.7	8.9
2025-01-19 06:35:55.314856	107.7	20.0	-92.9	10.8
2025-01-19 06:35:56.467589	108.0	19.9	-92.7	7.8
2025-01-19 06:35:57.619198	108.2	19.9	-92.3	6.7
2025-01-19 06:35:58.774991	108.5	19.8	-92.6	11.3
2025-01-19 06:35:59.925349	108.7	19.8	-92.7	5.4
2025-01-19 06:36:01.078121	109.0	19.7	-92.6	5.5
2025-01-19 06:36:02.231678	109.3	19.6	-92.5	8.9
2025-01-19 06:36:03.389964	109.5	19.6	-92.8	6.7
2025-01-19 06:36:04.549614	109.8	19.5	-92.8	6.9
2025-01-19 06:36:05.701010	110.0	19.4	-92.7	7.8
2025-01-19 06:36:06.860528	110.3	19.4	-93.0	7.0
2025-01-19 06:36:08.015362	110.5	19.3	-92.8	5.0
2025-01-19 06:36:09.174099	110.8	19.3	-92.3	6.7
2025-01-19 06:36:10.329562	111.0	19.2	-92.6	10.4
2025-01-19 06:36:11.486319	111.3	19.1	-92.7	5.8
2025-01-19 06:36:12.645048	111.5	19.1	-92.8	8.7
2025-01-19 06:36:13.804664	111.8	19.0	-92.4	7.4
2025-01-19 06:36:14.954144	112.0	18.9	-92.7	9.3
2025-01-19 06:36:16.109638	112.2	18.9	-92.6	10.5
2025-01-19 06:36:17.268946	112.5	18.8	-92.5	8.1
2025-01-19 06:36:18.418393	112.7	18.7	-92.7	10.9
2025-01-19 06:36:19.575713	113.0	18.7	-92.8	13.0
2025-01-19 06:36:20.734748	113.2	18.6	-92.9	7.5
2025-01-19 06:36:21.886558	113.4	18.5	-92.6	3.7
2025-01-19 06:36:23.042657	113.7	18.5	-92.5	11.6
2025-01-19 06:36:24.195127	113.9	18.4	-92.3	13.9
2025-01-19 06:36:25.337737	114.1	18.3	-92.5	12.9
2025-01-19 06:36:26.492740	114.4	18.3	-92.8	11.3
2025-01-19 06:36:27.647575	114.6	18.2	-93.1	14.8
2025-01-19 06:36:28.804361	114.8	18.1	-92.5	14.2
2025-01-19 06:36:29.960943	115.1	18.1	-92.4	9.5
2025-01-19 06:36:31.109968	115.3	18.0	-92.8	10.8
2025-01-19 06:36:32.243796	115.5	17.9	-92.3	11.7
2025-01-19 06:36:33.365711	115.8	17.9	-92.7	10.0
2025-01-19 06:36:34.484724	116.0	17.8	-92.4	8.8
2025-01-19 06:36:35.604713	116.2	17.7	-92.8	10.0
2025-01-19 06:36:36.726799	116.4	17.7	-92.7	13.2
2025-01-19 06:36:37.847484	116.6	17.6	-92.6	12.2
2025-01-19 06:36:38.969120	116.8	17.5	-92.9	9.6
2025-01-19 06:36:40.090869	117.1	17.4	-92.5	6.5
2025-01-19 06:36:41.214200	117.3	17.4	-92.8	12.5
2025-01-19 06:36:42.348185	117.5	17.3	-92.8	6.8
2025-01-19 06:36:43.497057	117.7	17.2	-92.8	4.7
2025-01-19 06:36:44.652136	117.9	17.2	-92.9	7.6
2025-01-19 06:36:45.798336	118.1	17.1	-92.6	5.0
2025-01-19 06:36:46.947135	118.4	17.0	-92.8	6.4
2025-01-19 06:36:48.100322	118.6	16.9	-92.6	8.0
2025-01-19 06:36:49.257173	118.8	16.9	-92.7	11.6
2025-01-19 06:36:50.412654	119.0	16.8	-92.7	8.5
2025-01-19 06:36:51.576210	119.2	16.7	-93.0	8.1
2025-01-19 06:36:52.731052	119.4	16.7	-92.9	12.3
2025-01-19 06:36:53.888538	119.6	16.6	-92.7	12.1
2025-01-19 06:36:55.046207	119.8	16.5	-92.6	8.3
2025-01-19 06:36:56.200694	120.0	16.4	-92.8	12.3
2025-01-19 06:36:57.354218	120.3	16.4	-92.5	8.0
2025-01-19 06:36:58.505722	120.5	16.3	-92.6	7.6
2025-01-19 06:36:59.657253	120.7	16.2	-92.9	5.4
2025-01-19 06:37:00.805814	120.9	16.1	-92.8	9.4
2025-01-19 06:37:01.958670	121.1	16.1	-92.8	4.0
2025-01-19 06:37:03.110815	121.3	16.0	-92.6	8.5
2025-01-19 06:37:04.263073	121.5	15.9	-92.7	7.3
2025-01-19 06:37:05.414470	121.7	15.8	-92.9	4.3
2025-01-19 06:37:06.571554	121.9	15.8	-92.8	3.6
2025-01-19 06:37:07.723108	122.1	15.7	-92.9	7.5
2025-01-19 06:37:08.875744	122.3	15.6	-92.5	3.5
2025-01-19 06:37:10.036703	122.5	15.5	-92.7	4.4
2025-01-19 06:37:11.192449	122.7	15.5	-92.7	8.9
2025-01-19 06:37:12.346800	122.9	15.4	-92.5	6.9
2025-01-19 06:37:13.493697	123.0	15.3	-93.1	4.5
2025-01-19 06:37:14.649461	123.2	15.2	-92.6	5.6
2025-01-19 06:37:15.810537	123.4	15.2	-92.8	8.4
2025-01-19 06:37:16.959239	123.6	15.1	-93.0	5.9
2025-01-19 06:37:18.113008	123.8	15.0	-93.0	5.2
2025-01-19 06:37:19.269804	124.0	14.9	-92.9	7.6
2025-01-19 06:37:20.428824	124.2	14.9	-92.5	5.4
2025-01-19 06:37:21.575400	124.4	14.8	-92.8	2.0
2025-01-19 06:37:22.731953	124.6	14.7	-92.7	11.8
2025-01-19 06:37:23.893823	124.7	14.6	-93.0	5.7
#Closed at: 2025-01-19 06:31:22.105299