passes_logs/2025/01/19/LEX_Murmansk/LEX_Murmansk__20250119_081133_NOAA_19_rec.log

#Pass ID: 20250119_081133_NOAA 19
#Satellite: NOAA 19
#Configuration: NOAA 19
#Start time: 2025-01-19 08:11:28.356824

#LorettStation: 1.0.0 05.05.2024
#Station: LEX_Murmansk
#Location: 33.156738 lon 68.926811 lat
#TLE: 1 33591U 09005A   25018.04840605  .00000325  00000+0  19728-3 0  9997
#TLE: 2 33591  99.0190  81.8343 0014373  49.4310 310.8111 14.13261983821977

#Time	Az	El	Level	SNR
2025-01-19 08:11:40.633353	29.1	16.3	-92.2	3.4
2025-01-19 08:11:42.970106	29.2	16.5	-92.5	4.2
2025-01-19 08:11:45.296252	29.3	16.8	-91.2	4.3
2025-01-19 08:11:47.627845	29.5	17.0	-91.6	3.1
2025-01-19 08:11:49.959003	29.6	17.3	-91.4	1.9
2025-01-19 08:11:52.285385	29.8	17.6	-91.7	4.1
2025-01-19 08:11:54.608173	29.9	17.8	-92.7	10.2
2025-01-19 08:11:56.933546	30.0	18.1	-92.3	6.7
2025-01-19 08:11:59.175445	30.2	18.4	-92.0	8.8
2025-01-19 08:12:01.417279	30.3	18.6	-92.2	8.2
2025-01-19 08:12:03.656692	30.5	18.9	-91.6	4.0
2025-01-19 08:12:05.898979	30.6	19.2	-90.9	1.2
2025-01-19 08:12:08.190071	30.8	19.4	-91.4	2.6
2025-01-19 08:12:10.503852	30.9	19.7	-91.5	13.6
2025-01-19 08:12:12.812197	31.1	20.0	-91.7	6.4
2025-01-19 08:12:15.131877	31.3	20.3	-91.4	9.3
2025-01-19 08:12:17.459159	31.4	20.6	-91.5	13.6
2025-01-19 08:12:19.775568	31.6	20.9	-92.0	3.7
2025-01-19 08:12:22.097712	31.8	21.2	-91.4	2.3
2025-01-19 08:12:24.534589	32.0	21.5	-91.9	4.3
2025-01-19 08:12:26.864616	32.1	21.8	-91.5	16.2
2025-01-19 08:12:29.197982	32.3	22.1	-91.9	1.8
2025-01-19 08:12:31.525838	32.5	22.4	-91.4	8.1
2025-01-19 08:12:33.858414	32.7	22.7	-92.8	8.5
2025-01-19 08:12:36.190064	32.9	23.0	-92.4	5.6
2025-01-19 08:12:38.513472	33.1	23.4	-92.2	6.2
2025-01-19 08:12:40.844311	33.3	23.7	-91.9	5.7
2025-01-19 08:12:43.178236	33.5	24.0	-91.9	8.2
2025-01-19 08:12:45.502167	33.7	24.4	-91.8	4.2
2025-01-19 08:12:47.835078	33.9	24.7	-93.0	5.6
2025-01-19 08:12:50.166181	34.2	25.0	-92.7	5.3
2025-01-19 08:12:52.491015	34.4	25.4	-93.2	4.6
2025-01-19 08:12:54.818266	34.6	25.7	-92.7	2.0
2025-01-19 08:12:57.146778	34.8	26.1	-92.4	2.6
2025-01-19 08:12:59.469554	35.1	26.5	-92.9	7.3
2025-01-19 08:13:01.790554	35.3	26.8	-92.7	9.1
2025-01-19 08:13:04.107740	35.6	27.2	-92.5	3.2
2025-01-19 08:13:06.438531	35.8	27.6	-92.4	6.9
2025-01-19 08:13:08.766146	36.1	27.9	-91.3	2.6
2025-01-19 08:13:11.095810	36.4	28.3	-91.5	3.2
2025-01-19 08:13:13.424047	36.6	28.7	-91.4	1.4
2025-01-19 08:13:15.752500	36.9	29.1	-91.4	2.3
2025-01-19 08:13:18.072313	37.2	29.5	-91.8	14.6
2025-01-19 08:13:20.400118	37.5	29.9	-92.5	8.4
2025-01-19 08:13:22.733028	37.8	30.3	-92.1	6.1
2025-01-19 08:13:25.051784	38.1	30.7	-92.2	8.0
2025-01-19 08:13:27.383602	38.4	31.1	-92.6	10.1
2025-01-19 08:13:29.712216	38.7	31.5	-92.4	4.3
2025-01-19 08:13:32.052965	39.1	32.0	-92.4	4.7
2025-01-19 08:13:34.374779	39.4	32.4	-92.7	6.7
2025-01-19 08:13:36.708542	39.7	32.8	-92.3	12.4
2025-01-19 08:13:39.034272	40.1	33.3	-92.7	11.4
2025-01-19 08:13:41.365410	40.5	33.7	-92.5	13.0
2025-01-19 08:13:43.693007	40.8	34.2	-92.3	10.4
2025-01-19 08:13:46.018344	41.2	34.6	-92.7	14.1
2025-01-19 08:13:48.349233	41.6	35.1	-92.4	1.4
2025-01-19 08:13:50.678255	42.0	35.6	-92.5	4.3
2025-01-19 08:13:53.001213	42.5	36.0	-91.9	4.4
2025-01-19 08:13:55.324974	42.9	36.5	-91.6	14.7
2025-01-19 08:13:57.650125	43.3	37.0	-91.2	11.6
2025-01-19 08:13:59.990351	43.8	37.5	-92.8	9.9
2025-01-19 08:14:02.314415	44.3	38.0	-92.4	11.5
2025-01-19 08:14:04.624332	44.8	38.5	-92.7	13.6
2025-01-19 08:14:06.951526	45.3	39.0	-92.5	5.5
2025-01-19 08:14:09.281970	45.8	39.5	-92.3	1.3
2025-01-19 08:14:11.617815	46.3	40.0	-92.4	7.6
2025-01-19 08:14:13.941563	46.9	40.5	-93.0	12.2
2025-01-19 08:14:16.270841	47.4	41.0	-92.2	18.3
2025-01-19 08:14:18.596303	48.0	41.6	-92.4	6.6
2025-01-19 08:14:20.850519	48.6	42.1	-92.6	7.5
2025-01-19 08:14:23.186234	49.2	42.6	-91.8	13.2
2025-01-19 08:14:25.522158	49.9	43.1	-92.3	11.7
2025-01-19 08:14:27.852642	50.5	43.7	-92.6	9.6
2025-01-19 08:14:30.175303	51.2	44.2	-92.2	2.0
2025-01-19 08:14:32.515918	51.9	44.8	-92.6	5.0
2025-01-19 08:14:34.837863	52.7	45.3	-92.7	5.7
2025-01-19 08:14:37.178341	53.4	45.9	-92.0	13.2
2025-01-19 08:14:39.514245	54.2	46.5	-92.7	10.3
2025-01-19 08:14:41.843389	55.0	47.0	-92.7	4.4
2025-01-19 08:14:44.166601	55.9	47.6	-92.7	3.3
2025-01-19 08:14:46.501243	56.8	48.1	-92.8	5.5
2025-01-19 08:14:48.830701	57.7	48.7	-92.5	7.3
2025-01-19 08:14:51.152141	58.6	49.2	-92.1	7.9
2025-01-19 08:14:53.481794	59.6	49.8	-92.3	3.6
2025-01-19 08:14:55.810473	60.6	50.4	-92.5	2.0
2025-01-19 08:14:58.146253	61.7	50.9	-92.8	2.9
2025-01-19 08:15:00.476465	62.7	51.5	-92.4	4.3
2025-01-19 08:15:02.802477	63.9	52.0	-92.6	6.2
2025-01-19 08:15:05.122485	65.0	52.5	-92.1	13.4
2025-01-19 08:15:07.449719	66.2	53.1	-92.3	6.7
2025-01-19 08:15:09.771541	67.5	53.6	-92.8	5.5
2025-01-19 08:15:12.100935	68.8	54.1	-92.4	8.1
2025-01-19 08:15:14.420464	70.1	54.6	-92.4	10.9
2025-01-19 08:15:16.748669	71.5	55.1	-91.5	12.1
2025-01-19 08:15:19.084401	73.0	55.6	-91.6	13.2
2025-01-19 08:15:21.408877	74.5	56.0	-91.9	16.2
2025-01-19 08:15:23.737604	76.0	56.5	-92.2	4.8
2025-01-19 08:15:26.031747	77.6	56.9	-91.7	4.2
2025-01-19 08:15:28.355884	79.2	57.3	-91.6	3.4
2025-01-19 08:15:30.672997	80.9	57.7	-92.8	5.5
2025-01-19 08:15:33.004604	82.6	58.1	-93.0	4.9
2025-01-19 08:15:35.326972	84.4	58.5	-92.5	16.4
2025-01-19 08:15:37.660087	86.3	58.8	-92.4	8.8
2025-01-19 08:15:39.992241	88.1	59.1	-90.3	14.8
2025-01-19 08:15:42.321094	90.1	59.4	-92.6	16.0
2025-01-19 08:15:44.648887	92.0	59.6	-92.9	3.8
2025-01-19 08:15:46.973647	94.0	59.8	-92.8	10.0
2025-01-19 08:15:49.298899	96.0	60.0	-92.3	2.5
2025-01-19 08:15:51.621100	98.1	60.2	-92.9	8.9
2025-01-19 08:15:53.944771	100.1	60.3	-92.4	5.9
2025-01-19 08:15:56.275814	102.2	60.4	-92.6	8.7
2025-01-19 08:15:58.603135	104.3	60.4	-92.5	10.2
2025-01-19 08:16:00.922956	106.4	60.5	-92.3	12.6
2025-01-19 08:16:03.248555	108.5	60.4	-91.6	10.0
2025-01-19 08:16:05.570421	110.6	60.4	-92.1	15.1
2025-01-19 08:16:07.890756	112.7	60.3	-92.1	23.1
2025-01-19 08:16:10.233902	114.8	60.2	-91.6	20.1
2025-01-19 08:16:12.563448	116.9	60.1	-92.0	17.4
2025-01-19 08:16:14.883347	118.9	59.9	-92.1	12.7
2025-01-19 08:16:17.216681	120.9	59.7	-92.2	13.7
2025-01-19 08:16:19.546223	122.8	59.4	-91.8	8.3
2025-01-19 08:16:21.874038	124.8	59.2	-92.1	16.7
2025-01-19 08:16:24.196872	126.7	58.9	-91.7	13.7
2025-01-19 08:16:26.538751	128.5	58.6	-92.6	21.0
2025-01-19 08:16:28.862378	130.3	58.2	-92.3	16.2
2025-01-19 08:16:31.192616	132.1	57.8	-92.6	20.7
2025-01-19 08:16:33.525180	133.8	57.4	-92.4	15.2
2025-01-19 08:16:35.847816	135.4	57.0	-91.5	13.0
2025-01-19 08:16:38.174998	137.0	56.6	-91.9	13.0
2025-01-19 08:16:40.500150	138.6	56.2	-91.3	15.0
2025-01-19 08:16:42.825077	140.1	55.7	-91.5	10.9
2025-01-19 08:16:45.136837	141.5	55.2	-91.2	18.5
2025-01-19 08:16:47.463512	142.9	54.7	-92.3	18.1
2025-01-19 08:16:49.794580	144.3	54.2	-92.4	6.9
2025-01-19 08:16:52.133180	145.6	53.7	-92.4	20.6
2025-01-19 08:16:54.469740	146.9	53.2	-92.5	15.5
2025-01-19 08:16:56.797669	148.1	52.7	-92.4	11.9
2025-01-19 08:16:59.126702	149.3	52.1	-91.8	11.1
2025-01-19 08:17:01.437701	150.4	51.6	-91.8	7.8
2025-01-19 08:17:03.766446	151.5	51.1	-92.8	16.6
2025-01-19 08:17:06.092570	152.6	50.5	-92.2	12.6
2025-01-19 08:17:08.429456	153.6	49.9	-92.0	8.9
2025-01-19 08:17:10.742156	154.6	49.4	-92.5	10.6
2025-01-19 08:17:13.067913	155.5	48.8	-92.8	8.5
2025-01-19 08:17:15.391113	156.5	48.3	-92.2	6.0
2025-01-19 08:17:17.726774	157.3	47.7	-92.5	17.3
2025-01-19 08:17:20.059275	158.2	47.2	-92.2	8.5
2025-01-19 08:17:22.386785	159.0	46.6	-92.1	8.8
2025-01-19 08:17:24.713024	159.8	46.0	-92.8	6.4
2025-01-19 08:17:27.043172	160.6	45.5	-92.5	5.7
2025-01-19 08:17:29.368526	161.3	44.9	-92.1	14.6
2025-01-19 08:17:31.702568	162.0	44.4	-92.7	12.5
2025-01-19 08:17:34.029868	162.7	43.8	-92.7	6.4
2025-01-19 08:17:36.354869	163.4	43.3	-91.8	12.5
2025-01-19 08:17:38.684274	164.1	42.8	-92.0	4.5
2025-01-19 08:17:41.017533	164.7	42.2	-92.0	3.5
2025-01-19 08:17:43.338651	165.3	41.7	-92.7	6.1
2025-01-19 08:17:45.664959	165.9	41.2	-92.4	11.0
2025-01-19 08:17:47.993292	166.5	40.6	-92.5	6.2
2025-01-19 08:17:50.319178	167.0	40.1	-92.4	6.6
2025-01-19 08:17:52.644529	167.5	39.6	-93.1	11.3
2025-01-19 08:17:54.971083	168.1	39.1	-93.2	11.7
2025-01-19 08:17:57.305286	168.6	38.6	-92.8	9.7
2025-01-19 08:17:59.627341	169.1	38.1	-92.6	11.6
2025-01-19 08:18:01.954024	169.5	37.6	-91.6	6.0
2025-01-19 08:18:04.284079	170.0	37.1	-91.9	12.4
2025-01-19 08:18:06.610850	170.4	36.6	-92.1	9.8
2025-01-19 08:18:08.940806	170.9	36.1	-93.0	5.8
2025-01-19 08:18:11.267146	171.3	35.7	-92.5	12.6
2025-01-19 08:18:13.597352	171.7	35.2	-93.1	8.3
2025-01-19 08:18:15.919302	172.1	34.7	-93.0	9.8
2025-01-19 08:18:18.251353	172.5	34.3	-91.4	8.7
2025-01-19 08:18:20.584347	172.9	33.8	-92.2	9.6
2025-01-19 08:18:22.918518	173.3	33.4	-92.8	10.5
2025-01-19 08:18:25.241299	173.6	32.9	-92.7	13.2
2025-01-19 08:18:27.568150	174.0	32.5	-92.3	8.0
2025-01-19 08:18:29.895823	174.3	32.1	-92.2	6.0
2025-01-19 08:18:32.223969	174.6	31.6	-92.5	10.9
2025-01-19 08:18:34.552848	175.0	31.2	-92.8	13.9
2025-01-19 08:18:36.869386	175.3	30.8	-92.7	10.3
2025-01-19 08:18:39.192408	175.6	30.4	-92.5	9.6
2025-01-19 08:18:41.521335	175.9	30.0	-92.7	5.9
2025-01-19 08:18:43.841679	176.2	29.6	-92.6	6.7
2025-01-19 08:18:46.166704	176.5	29.2	-92.3	10.0
2025-01-19 08:18:48.487807	176.7	28.8	-92.8	6.2
2025-01-19 08:18:50.816705	177.0	28.4	-92.8	11.5
2025-01-19 08:18:53.141462	177.3	28.0	-92.6	11.3
2025-01-19 08:18:55.462015	177.5	27.7	-92.7	9.7
2025-01-19 08:18:57.793388	177.8	27.3	-92.3	6.8
2025-01-19 08:19:00.111618	178.0	26.9	-92.5	7.6
2025-01-19 08:19:02.435704	178.3	26.5	-92.6	8.0
2025-01-19 08:19:04.766685	178.5	26.2	-92.7	6.5
2025-01-19 08:19:07.086197	178.8	25.8	-92.9	8.0
2025-01-19 08:19:09.414653	179.0	25.5	-92.7	10.3
2025-01-19 08:19:11.743165	179.2	25.1	-92.8	7.9
2025-01-19 08:19:14.065589	179.4	24.8	-92.7	4.7
2025-01-19 08:19:16.394017	179.7	24.4	-92.5	6.5
2025-01-19 08:19:18.724798	179.9	24.1	-92.6	9.1
2025-01-19 08:19:21.053075	180.1	23.8	-92.8	7.4
2025-01-19 08:19:23.380926	180.3	23.5	-92.7	9.7
2025-01-19 08:19:25.712976	180.5	23.1	-92.7	12.0
2025-01-19 08:19:28.044937	180.7	22.8	-92.4	7.3
2025-01-19 08:19:30.373198	180.9	22.5	-92.4	5.0
2025-01-19 08:19:32.711202	181.0	22.2	-93.0	8.6
2025-01-19 08:19:35.043251	181.2	21.9	-92.6	9.1
2025-01-19 08:19:37.363152	181.4	21.6	-92.1	7.1
2025-01-19 08:19:39.656540	181.6	21.3	-92.9	6.2
2025-01-19 08:19:41.979394	181.8	21.0	-92.8	2.9
2025-01-19 08:19:44.244446	181.9	20.7	-92.5	5.1
2025-01-19 08:19:46.487105	182.1	20.4	-92.9	3.6
2025-01-19 08:19:48.728833	182.2	20.1	-93.0	6.9
2025-01-19 08:19:50.970975	182.4	19.8	-92.8	7.5
2025-01-19 08:19:53.231501	182.6	19.6	-92.6	9.8
2025-01-19 08:19:55.556429	182.7	19.3	-92.7	9.3
2025-01-19 08:19:57.871880	182.9	19.0	-92.6	5.9
2025-01-19 08:20:00.197663	183.0	18.7	-92.5	4.4
2025-01-19 08:20:02.518676	183.2	18.4	-93.0	3.8
2025-01-19 08:20:04.841229	183.3	18.2	-92.8	4.4
2025-01-19 08:20:07.157529	183.5	17.9	-93.0	3.1
2025-01-19 08:20:09.474987	183.6	17.6	-92.5	2.9
2025-01-19 08:20:11.799871	183.7	17.4	-92.5	5.5
2025-01-19 08:20:14.122961	183.9	17.1	-92.8	3.9
2025-01-19 08:20:16.441738	184.0	16.9	-93.1	2.7
2025-01-19 08:20:18.769525	184.1	16.6	-92.6	7.5
2025-01-19 08:20:21.099420	184.3	16.4	-92.8	6.4
2025-01-19 08:20:23.430283	184.4	16.1	-92.8	6.1
2025-01-19 08:20:25.757836	184.5	15.9	-93.0	7.0
2025-01-19 08:20:28.079761	184.7	15.6	-92.8	5.6
2025-01-19 08:20:30.401464	184.8	15.4	-92.8	7.2
2025-01-19 08:20:32.730817	184.9	15.1	-93.3	8.4
2025-01-19 08:20:35.065753	185.0	14.9	-93.1	6.8
2025-01-19 08:20:37.394949	185.1	14.7	-93.1	5.4
#Closed at: 2025-01-19 08:11:33.418936