passes_logs/2025/01/19/LEX_Murmansk/LEX_Murmansk__20250119_201711_NOAA_18_rec.log

#Pass ID: 20250119_201711_NOAA 18
#Satellite: NOAA 18
#Configuration: NOAA 18
#Start time: 2025-01-19 20:17:06.453390

#LorettStation: 1.0.0 05.05.2024
#Station: LEX_Murmansk
#Location: 33.156738 lon 68.926811 lat
#TLE: 1 28654U 05018A   25019.12683114  .00000403  00000+0  23745-3 0  9992
#TLE: 2 28654  98.8559 100.1402 0014536 167.7337 192.4191 14.13490232 13765

#Time	Az	El	Level	SNR
2025-01-19 20:17:18.711066	197.9	16.2	-92.4	3.4
2025-01-19 20:17:19.868102	198.0	16.3	-91.7	4.6
2025-01-19 20:17:21.025608	198.1	16.4	-92.1	5.0
2025-01-19 20:17:22.183560	198.2	16.5	-91.9	4.2
2025-01-19 20:17:23.340425	198.3	16.6	-92.8	5.0
2025-01-19 20:17:24.495992	198.5	16.7	-92.9	5.0
2025-01-19 20:17:25.653325	198.6	16.9	-91.4	4.1
2025-01-19 20:17:26.816822	198.7	17.0	-92.3	3.3
2025-01-19 20:17:27.970009	198.8	17.1	-92.6	5.4
2025-01-19 20:17:29.141229	199.0	17.2	-92.4	5.2
2025-01-19 20:17:30.297006	199.1	17.3	-87.7	5.2
2025-01-19 20:17:31.456154	199.2	17.4	-92.5	4.6
2025-01-19 20:17:32.617966	199.3	17.6	-91.9	7.3
2025-01-19 20:17:33.783077	199.5	17.7	-92.4	7.1
2025-01-19 20:17:34.939593	199.6	17.8	-92.1	5.4
2025-01-19 20:17:36.099009	199.7	17.9	-92.8	7.8
2025-01-19 20:17:37.258086	199.9	18.0	-92.0	6.1
2025-01-19 20:17:38.414800	200.0	18.2	-92.3	4.8
2025-01-19 20:17:39.579607	200.1	18.3	-92.3	4.2
2025-01-19 20:17:40.738768	200.3	18.4	-91.6	14.9
2025-01-19 20:17:41.913128	200.4	18.5	-92.2	8.6
2025-01-19 20:17:43.065725	200.5	18.6	-92.8	8.1
2025-01-19 20:17:44.225025	200.7	18.8	-92.3	8.2
2025-01-19 20:17:45.388512	200.8	18.9	-92.6	11.3
2025-01-19 20:17:46.549713	200.9	19.0	-92.8	14.4
2025-01-19 20:17:47.707915	201.1	19.1	-92.6	11.5
2025-01-19 20:17:48.873149	201.2	19.3	-92.6	5.3
2025-01-19 20:17:50.026508	201.4	19.4	-92.4	11.7
2025-01-19 20:17:51.188103	201.5	19.5	-90.2	7.8
2025-01-19 20:17:52.356782	201.7	19.6	-91.2	4.9
2025-01-19 20:17:53.512588	201.8	19.8	-92.1	5.7
2025-01-19 20:17:54.671397	201.9	19.9	-91.8	8.3
2025-01-19 20:17:55.830204	202.1	20.0	-92.1	8.8
2025-01-19 20:17:56.991944	202.2	20.1	-92.7	6.3
2025-01-19 20:17:58.152760	202.4	20.3	-92.7	8.5
2025-01-19 20:17:59.319639	202.5	20.4	-91.5	8.7
2025-01-19 20:18:00.471275	202.7	20.5	-92.5	9.4
2025-01-19 20:18:01.630245	202.9	20.6	-92.9	11.3
2025-01-19 20:18:02.791682	203.0	20.8	-92.0	10.8
2025-01-19 20:18:03.953112	203.2	20.9	-91.6	9.1
2025-01-19 20:18:05.109536	203.3	21.0	-92.0	11.3
2025-01-19 20:18:06.270731	203.5	21.2	-91.8	11.9
2025-01-19 20:18:07.430697	203.6	21.3	-92.3	9.5
2025-01-19 20:18:08.602361	203.8	21.4	-92.2	14.7
2025-01-19 20:18:09.765835	204.0	21.6	-91.3	11.1
2025-01-19 20:18:10.923966	204.1	21.7	-91.9	12.8
2025-01-19 20:18:12.087164	204.3	21.8	-91.5	9.3
2025-01-19 20:18:13.248265	204.5	22.0	-90.9	8.3
2025-01-19 20:18:14.412233	204.6	22.1	-92.0	7.7
2025-01-19 20:18:15.569961	204.8	22.2	-91.3	6.9
2025-01-19 20:18:16.729265	205.0	22.4	-91.3	12.5
2025-01-19 20:18:17.883194	205.2	22.5	-92.6	12.6
2025-01-19 20:18:19.041417	205.3	22.6	-92.4	10.9
2025-01-19 20:18:20.165377	205.5	22.8	-92.7	10.2
2025-01-19 20:18:21.285030	205.7	22.9	-91.9	10.0
2025-01-19 20:18:22.406518	205.8	23.0	-91.7	10.2
2025-01-19 20:18:23.526571	206.0	23.2	-91.9	10.4
2025-01-19 20:18:24.647423	206.2	23.3	-91.7	11.6
2025-01-19 20:18:25.768371	206.4	23.4	-91.7	12.4
2025-01-19 20:18:26.889625	206.5	23.6	-92.0	11.3
2025-01-19 20:18:28.009132	206.7	23.7	-92.1	16.1
2025-01-19 20:18:29.130581	206.9	23.8	-92.3	13.5
2025-01-19 20:18:30.286953	207.1	24.0	-90.3	13.1
2025-01-19 20:18:31.442229	207.3	24.1	-91.7	9.8
2025-01-19 20:18:32.586035	207.5	24.3	-91.2	9.1
2025-01-19 20:18:33.711079	207.7	24.4	-91.5	12.1
2025-01-19 20:18:34.860487	207.9	24.5	-91.3	9.2
2025-01-19 20:18:35.997759	208.1	24.7	-92.4	9.6
2025-01-19 20:18:37.155718	208.3	24.8	-91.3	13.3
2025-01-19 20:18:38.309270	208.5	25.0	-89.8	13.2
2025-01-19 20:18:39.465952	208.7	25.1	-92.2	12.4
2025-01-19 20:18:40.623538	208.9	25.2	-92.7	15.5
2025-01-19 20:18:41.782695	209.1	25.4	-91.7	11.9
2025-01-19 20:18:42.936358	209.3	25.5	-92.9	7.4
2025-01-19 20:18:44.098129	209.5	25.7	-91.2	6.2
2025-01-19 20:18:45.258414	209.7	25.8	-92.3	9.2
2025-01-19 20:18:46.421017	209.9	26.0	-92.3	8.9
2025-01-19 20:18:47.588158	210.1	26.1	-92.8	8.9
2025-01-19 20:18:48.741080	210.3	26.3	-92.3	11.2
2025-01-19 20:18:49.905034	210.6	26.4	-92.0	7.4
2025-01-19 20:18:51.057644	210.8	26.6	-92.5	7.7
2025-01-19 20:18:52.222090	211.0	26.7	-91.5	11.6
2025-01-19 20:18:53.382901	211.2	26.9	-90.6	8.2
2025-01-19 20:18:54.539938	211.5	27.0	-91.8	6.2
2025-01-19 20:18:55.698609	211.7	27.1	-91.2	11.1
2025-01-19 20:18:56.864083	211.9	27.3	-92.3	9.8
2025-01-19 20:18:58.017195	212.2	27.4	-92.6	7.8
2025-01-19 20:18:59.175029	212.4	27.6	-91.1	8.7
2025-01-19 20:19:00.327656	212.6	27.7	-92.2	8.0
2025-01-19 20:19:01.487003	212.9	27.9	-91.4	7.5
2025-01-19 20:19:02.649014	213.1	28.0	-90.9	7.8
2025-01-19 20:19:03.810675	213.4	28.2	-92.2	9.2
2025-01-19 20:19:04.969365	213.6	28.3	-91.8	5.0
2025-01-19 20:19:06.117855	213.9	28.5	-92.3	5.7
2025-01-19 20:19:07.274736	214.1	28.6	-91.6	6.1
2025-01-19 20:19:08.400506	214.4	28.8	-91.5	4.9
2025-01-19 20:19:09.521063	214.6	28.9	-91.3	5.2
2025-01-19 20:19:10.641750	214.9	29.1	-91.7	7.5
2025-01-19 20:19:11.763422	215.1	29.2	-91.5	7.5
2025-01-19 20:19:12.883916	215.4	29.4	-91.1	4.1
2025-01-19 20:19:14.004807	215.6	29.5	-90.8	4.0
2025-01-19 20:19:15.125060	215.9	29.7	-91.5	7.0
2025-01-19 20:19:16.247607	216.1	29.8	-92.2	3.8
2025-01-19 20:19:17.368134	216.4	30.0	-90.8	6.4
2025-01-19 20:19:18.515225	216.7	30.1	-91.8	7.6
2025-01-19 20:19:19.643054	216.9	30.3	-92.2	10.0
2025-01-19 20:19:20.785833	217.2	30.4	-93.1	11.3
2025-01-19 20:19:21.937273	217.5	30.6	-92.1	12.1
2025-01-19 20:19:23.093059	217.8	30.7	-92.1	13.0
2025-01-19 20:19:24.232525	218.1	30.9	-92.2	15.3
2025-01-19 20:19:25.388126	218.4	31.0	-91.9	10.3
2025-01-19 20:19:26.550332	218.7	31.2	-92.3	8.2
2025-01-19 20:19:27.706366	219.0	31.3	-92.6	14.0
2025-01-19 20:19:28.867582	219.3	31.5	-92.2	14.6
2025-01-19 20:19:30.030433	219.6	31.6	-91.9	12.5
2025-01-19 20:19:31.188812	219.9	31.8	-92.6	13.4
2025-01-19 20:19:32.352593	220.2	31.9	-91.6	14.6
2025-01-19 20:19:33.512991	220.5	32.1	-90.8	9.7
2025-01-19 20:19:34.675757	220.8	32.2	-91.6	12.6
2025-01-19 20:19:35.836344	221.1	32.4	-90.5	16.9
2025-01-19 20:19:36.999278	221.4	32.6	-91.3	8.3
2025-01-19 20:19:38.159080	221.7	32.7	-92.0	12.6
2025-01-19 20:19:39.322578	222.1	32.9	-92.1	17.6
2025-01-19 20:19:40.482934	222.4	33.0	-92.0	10.2
2025-01-19 20:19:41.644608	222.7	33.2	-92.1	14.6
2025-01-19 20:19:42.805090	223.1	33.3	-92.3	12.7
2025-01-19 20:19:43.980314	223.4	33.5	-91.9	17.1
2025-01-19 20:19:45.137126	223.7	33.6	-92.0	18.7
2025-01-19 20:19:46.292786	224.1	33.8	-90.7	17.6
2025-01-19 20:19:47.451104	224.4	33.9	-92.1	11.2
2025-01-19 20:19:48.613324	224.8	34.1	-92.0	13.9
2025-01-19 20:19:49.773873	225.1	34.2	-91.3	14.8
2025-01-19 20:19:50.926288	225.5	34.4	-91.7	11.4
2025-01-19 20:19:52.085825	225.8	34.5	-92.5	13.1
2025-01-19 20:19:53.245623	226.2	34.6	-92.5	17.8
2025-01-19 20:19:54.390526	226.6	34.8	-91.3	13.9
2025-01-19 20:19:55.555406	226.9	34.9	-92.7	20.9
2025-01-19 20:19:56.712483	227.3	35.1	-92.1	19.3
2025-01-19 20:19:57.869956	227.7	35.2	-91.6	10.0
2025-01-19 20:19:59.031554	228.1	35.4	-92.5	12.5
2025-01-19 20:20:00.188251	228.4	35.5	-91.5	20.5
2025-01-19 20:20:01.344382	228.8	35.7	-91.9	23.0
2025-01-19 20:20:02.502744	229.2	35.8	-91.6	10.5
2025-01-19 20:20:03.659527	229.6	35.9	-92.2	18.2
2025-01-19 20:20:04.828141	230.0	36.1	-92.7	11.8
2025-01-19 20:20:05.991927	230.4	36.2	-92.5	13.9
2025-01-19 20:20:07.150417	230.8	36.4	-92.4	16.1
2025-01-19 20:20:08.312067	231.2	36.5	-91.9	12.4
2025-01-19 20:20:09.473113	231.6	36.6	-92.4	15.0
2025-01-19 20:20:10.636103	232.0	36.8	-92.3	12.9
2025-01-19 20:20:11.796109	232.4	36.9	-91.2	12.9
2025-01-19 20:20:12.952590	232.9	37.0	-91.8	18.6
2025-01-19 20:20:14.114016	233.3	37.2	-92.6	21.6
2025-01-19 20:20:15.275500	233.7	37.3	-91.3	6.8
2025-01-19 20:20:16.432931	234.1	37.4	-91.8	12.7
2025-01-19 20:20:17.592126	234.6	37.5	-92.1	17.7
2025-01-19 20:20:18.742389	235.0	37.7	-92.2	22.1
2025-01-19 20:20:19.899644	235.4	37.8	-92.3	13.9
2025-01-19 20:20:21.021666	235.9	37.9	-91.4	13.6
2025-01-19 20:20:22.142957	236.3	38.0	-92.5	18.2
2025-01-19 20:20:23.263889	236.7	38.2	-91.7	21.9
2025-01-19 20:20:24.384193	237.2	38.3	-91.1	13.8
2025-01-19 20:20:25.505254	237.6	38.4	-92.2	18.5
2025-01-19 20:20:26.627162	238.0	38.5	-91.8	17.9
2025-01-19 20:20:27.747340	238.5	38.6	-92.5	14.1
2025-01-19 20:20:28.868503	238.9	38.7	-92.0	19.3
2025-01-19 20:20:29.994321	239.4	38.8	-92.2	12.8
2025-01-19 20:20:31.143646	239.8	38.9	-92.2	12.8
2025-01-19 20:20:32.304942	240.3	39.0	-92.2	12.7
2025-01-19 20:20:33.461638	240.8	39.1	-91.6	5.8
2025-01-19 20:20:34.620838	241.3	39.3	-92.2	9.1
2025-01-19 20:20:35.776460	241.7	39.4	-92.6	10.9
2025-01-19 20:20:36.935847	242.2	39.5	-91.7	6.9
2025-01-19 20:20:38.089542	242.7	39.6	-91.1	9.2
2025-01-19 20:20:39.249373	243.2	39.6	-92.1	9.1
2025-01-19 20:20:40.406893	243.7	39.7	-91.9	10.4
2025-01-19 20:20:41.564170	244.2	39.8	-92.5	22.4
2025-01-19 20:20:42.726387	244.7	39.9	-92.4	11.0
2025-01-19 20:20:43.885137	245.2	40.0	-92.3	19.9
2025-01-19 20:20:45.048051	245.7	40.1	-92.7	8.6
2025-01-19 20:20:46.204481	246.2	40.2	-92.5	14.4
2025-01-19 20:20:47.364757	246.7	40.3	-92.6	20.7
2025-01-19 20:20:48.523631	247.2	40.3	-92.3	20.5
2025-01-19 20:20:49.684116	247.7	40.4	-91.0	20.5
2025-01-19 20:20:50.839072	248.2	40.5	-91.1	12.4
2025-01-19 20:20:51.996938	248.8	40.6	-91.3	12.4
2025-01-19 20:20:53.156364	249.3	40.6	-91.5	10.7
2025-01-19 20:20:54.318856	249.8	40.7	-92.2	16.7
2025-01-19 20:20:55.482370	250.3	40.8	-92.5	12.7
2025-01-19 20:20:56.646369	250.9	40.8	-92.8	13.7
2025-01-19 20:20:57.802781	251.4	40.9	-92.7	18.1
2025-01-19 20:20:58.963751	251.9	40.9	-92.3	15.1
2025-01-19 20:21:00.122014	252.5	41.0	-92.0	20.7
2025-01-19 20:21:01.274334	253.0	41.0	-92.8	26.3
2025-01-19 20:21:02.441395	253.5	41.1	-92.4	18.3
2025-01-19 20:21:03.600503	254.1	41.1	-92.2	17.4
2025-01-19 20:21:04.762773	254.6	41.2	-92.2	20.7
2025-01-19 20:21:05.917841	255.1	41.2	-92.9	22.0
2025-01-19 20:21:07.074272	255.7	41.3	-92.5	18.6
2025-01-19 20:21:08.240848	256.2	41.3	-92.4	18.2
2025-01-19 20:21:09.402191	256.8	41.3	-92.5	17.8
2025-01-19 20:21:10.563933	257.3	41.4	-91.6	12.1
2025-01-19 20:21:11.727888	257.9	41.4	-91.9	25.4
2025-01-19 20:21:12.889718	258.4	41.4	-92.6	17.2
2025-01-19 20:21:14.057907	259.0	41.4	-92.6	10.5
2025-01-19 20:21:15.217475	259.5	41.5	-92.3	13.3
2025-01-19 20:21:16.381749	260.1	41.5	-92.2	9.9
2025-01-19 20:21:17.545891	260.6	41.5	-92.1	6.9
2025-01-19 20:21:18.709300	261.2	41.5	-92.3	15.1
2025-01-19 20:21:19.868971	261.7	41.5	-91.6	11.9
2025-01-19 20:21:21.023726	262.3	41.5	-93.0	6.5
2025-01-19 20:21:22.187819	262.8	41.5	-92.3	17.0
2025-01-19 20:21:23.342528	263.4	41.5	-91.9	18.8
2025-01-19 20:21:24.503709	263.9	41.5	-92.6	10.5
2025-01-19 20:21:25.661493	264.5	41.5	-91.7	11.9
2025-01-19 20:21:26.826215	265.0	41.5	-92.7	20.2
2025-01-19 20:21:27.989969	265.6	41.5	-91.9	11.3
2025-01-19 20:21:29.153156	266.1	41.4	-91.7	10.2
2025-01-19 20:21:30.307756	266.7	41.4	-92.1	12.1
2025-01-19 20:21:31.463166	267.2	41.4	-93.0	13.6
2025-01-19 20:21:32.623146	267.7	41.4	-92.4	5.0
2025-01-19 20:21:33.792173	268.3	41.3	-92.5	9.1
2025-01-19 20:21:34.951417	268.8	41.3	-92.9	12.5
2025-01-19 20:21:36.107814	269.4	41.3	-92.5	16.9
2025-01-19 20:21:37.268391	269.9	41.2	-92.6	17.9
2025-01-19 20:21:38.430624	270.5	41.2	-92.8	13.4
2025-01-19 20:21:39.586941	271.0	41.2	-92.5	14.2
2025-01-19 20:21:40.744950	271.5	41.1	-92.4	10.3
2025-01-19 20:21:41.908525	272.1	41.1	-93.1	18.0
2025-01-19 20:21:43.059581	272.6	41.0	-92.0	9.1
2025-01-19 20:21:44.223118	273.1	41.0	-92.2	18.4
2025-01-19 20:21:45.382215	273.7	40.9	-92.0	17.5
2025-01-19 20:21:46.544042	274.2	40.9	-92.5	21.4
2025-01-19 20:21:47.702032	274.7	40.8	-92.0	17.6
2025-01-19 20:21:48.867308	275.3	40.7	-92.1	15.8
2025-01-19 20:21:50.026815	275.8	40.7	-92.6	23.2
2025-01-19 20:21:51.184477	276.3	40.6	-92.3	13.7
2025-01-19 20:21:52.344431	276.8	40.5	-92.3	26.5
2025-01-19 20:21:53.503030	277.3	40.5	-91.8	28.1
2025-01-19 20:21:54.658410	277.9	40.4	-92.8	10.0
2025-01-19 20:21:55.820011	278.4	40.3	-92.4	19.1
2025-01-19 20:21:56.981314	278.9	40.2	-93.3	17.8
2025-01-19 20:21:58.139513	279.4	40.1	-93.2	13.4
2025-01-19 20:21:59.299621	279.9	40.1	-90.4	16.3
2025-01-19 20:22:00.458850	280.4	40.0	-92.5	10.3
2025-01-19 20:22:01.615460	280.9	39.9	-92.8	6.2
2025-01-19 20:22:02.775406	281.4	39.8	-93.0	12.1
2025-01-19 20:22:03.939203	281.9	39.7	-92.5	21.2
2025-01-19 20:22:05.100816	282.4	39.6	-92.9	21.2
2025-01-19 20:22:06.257634	282.9	39.5	-91.4	23.4
2025-01-19 20:22:07.417443	283.3	39.4	-92.3	13.1
2025-01-19 20:22:08.579733	283.8	39.3	-90.5	20.6
2025-01-19 20:22:09.739189	284.3	39.2	-92.9	6.9
2025-01-19 20:22:10.902841	284.8	39.1	-92.5	17.3
2025-01-19 20:22:12.063552	285.3	39.0	-92.6	8.3
2025-01-19 20:22:13.220936	285.7	38.9	-92.6	18.9
2025-01-19 20:22:14.375567	286.2	38.8	-92.2	22.0
2025-01-19 20:22:15.542394	286.7	38.6	-92.0	18.0
2025-01-19 20:22:16.696249	287.1	38.5	-92.0	11.3
2025-01-19 20:22:17.858584	287.6	38.4	-93.0	22.0
2025-01-19 20:22:19.022598	288.0	38.3	-90.7	19.1
2025-01-19 20:22:20.187306	288.5	38.2	-92.6	14.3
2025-01-19 20:22:21.341848	288.9	38.1	-91.9	22.3
2025-01-19 20:22:22.502563	289.4	37.9	-92.5	16.7
2025-01-19 20:22:23.659564	289.8	37.8	-92.7	20.4
2025-01-19 20:22:24.817548	290.3	37.7	-90.1	12.3
2025-01-19 20:22:25.980618	290.7	37.6	-92.0	19.2
2025-01-19 20:22:27.140606	291.1	37.4	-90.8	19.3
2025-01-19 20:22:28.302151	291.6	37.3	-89.7	12.1
2025-01-19 20:22:29.459267	292.0	37.2	-91.1	19.1
2025-01-19 20:22:30.610110	292.4	37.0	-92.6	17.9
2025-01-19 20:22:31.771458	292.8	36.9	-91.6	9.3
2025-01-19 20:22:32.939691	293.2	36.8	-91.0	9.8
2025-01-19 20:22:34.093391	293.6	36.6	-91.9	8.5
2025-01-19 20:22:35.255277	294.0	36.5	-92.5	23.6
2025-01-19 20:22:36.410386	294.5	36.4	-92.1	15.4
2025-01-19 20:22:37.566875	294.9	36.2	-93.1	6.6
2025-01-19 20:22:38.697082	295.2	36.1	-90.5	10.5
2025-01-19 20:22:39.817025	295.6	36.0	-92.7	14.6
2025-01-19 20:22:40.938031	296.0	35.8	-92.7	10.3
2025-01-19 20:22:42.057981	296.4	35.7	-92.7	11.1
2025-01-19 20:22:43.179052	296.7	35.6	-91.1	10.2
2025-01-19 20:22:44.301162	297.1	35.4	-92.1	6.0
2025-01-19 20:22:45.421065	297.5	35.3	-92.4	7.2
2025-01-19 20:22:46.545184	297.8	35.1	-91.9	5.2
2025-01-19 20:22:47.670061	298.2	35.0	-92.6	15.3
2025-01-19 20:22:48.819212	298.6	34.9	-92.8	6.5
2025-01-19 20:22:49.978850	298.9	34.7	-92.2	5.7
2025-01-19 20:22:51.137174	299.3	34.6	-92.2	4.7
2025-01-19 20:22:52.286874	299.7	34.4	-90.7	5.8
2025-01-19 20:22:53.434640	300.0	34.3	-92.7	6.8
2025-01-19 20:22:54.593450	300.4	34.1	-92.6	1.7
2025-01-19 20:22:55.750918	300.7	34.0	-92.0	5.3
2025-01-19 20:22:56.916694	301.1	33.8	-92.9	5.3
2025-01-19 20:22:58.075495	301.4	33.7	-92.6	6.9
2025-01-19 20:22:59.233174	301.8	33.5	-93.0	9.4
2025-01-19 20:23:00.387983	302.1	33.4	-92.5	8.2
2025-01-19 20:23:01.543636	302.4	33.2	-93.0	9.5
2025-01-19 20:23:02.700975	302.8	33.1	-92.2	7.1
2025-01-19 20:23:03.868530	303.1	32.9	-91.4	5.7
2025-01-19 20:23:05.030206	303.4	32.8	-92.6	8.4
2025-01-19 20:23:06.188945	303.7	32.6	-92.3	11.1
2025-01-19 20:23:07.343434	304.1	32.5	-91.7	8.5
2025-01-19 20:23:08.502615	304.4	32.3	-91.1	10.4
2025-01-19 20:23:09.657998	304.7	32.2	-92.8	14.4
2025-01-19 20:23:10.814258	305.0	32.0	-91.2	11.9
2025-01-19 20:23:11.954244	305.3	31.9	-92.2	13.1
2025-01-19 20:23:13.087210	305.6	31.7	-91.0	10.0
2025-01-19 20:23:14.241964	305.9	31.6	-92.2	11.0
2025-01-19 20:23:15.383439	306.2	31.4	-91.4	6.5
2025-01-19 20:23:16.541254	306.5	31.3	-92.1	10.2
2025-01-19 20:23:17.691487	306.8	31.1	-92.0	5.5
2025-01-19 20:23:18.847661	307.1	31.0	-93.1	11.4
2025-01-19 20:23:20.006322	307.4	30.8	-92.8	6.8
2025-01-19 20:23:21.160990	307.7	30.6	-92.6	15.2
2025-01-19 20:23:22.317328	307.9	30.5	-92.7	11.4
2025-01-19 20:23:23.475990	308.2	30.3	-91.1	11.5
2025-01-19 20:23:24.635884	308.5	30.2	-92.4	13.8
2025-01-19 20:23:25.797462	308.8	30.0	-93.0	22.1
2025-01-19 20:23:26.957488	309.1	29.9	-92.2	11.9
2025-01-19 20:23:28.118217	309.3	29.7	-91.1	11.5
2025-01-19 20:23:29.278702	309.6	29.6	-91.6	17.6
2025-01-19 20:23:30.435298	309.9	29.4	-92.0	9.4
2025-01-19 20:23:31.600830	310.1	29.3	-92.9	11.5
2025-01-19 20:23:32.753045	310.4	29.1	-92.0	13.2
2025-01-19 20:23:33.915338	310.6	29.0	-92.0	16.1
2025-01-19 20:23:35.070671	310.9	28.8	-91.9	20.3
2025-01-19 20:23:36.228062	311.2	28.7	-92.5	17.5
2025-01-19 20:23:37.388772	311.4	28.5	-92.0	14.8
2025-01-19 20:23:38.554765	311.7	28.4	-92.0	12.5
2025-01-19 20:23:39.716595	311.9	28.2	-92.4	9.7
2025-01-19 20:23:40.877552	312.2	28.1	-92.7	12.2
2025-01-19 20:23:42.025738	312.4	27.9	-92.4	6.4
2025-01-19 20:23:43.184292	312.6	27.8	-92.6	18.8
2025-01-19 20:23:44.343377	312.9	27.6	-91.6	12.9
2025-01-19 20:23:45.499427	313.1	27.5	-92.4	9.6
2025-01-19 20:23:46.656417	313.3	27.3	-92.1	8.2
2025-01-19 20:23:47.818268	313.6	27.2	-93.7	11.2
2025-01-19 20:23:48.974494	313.8	27.0	-92.8	12.7
2025-01-19 20:23:50.140925	314.0	26.9	-92.2	10.4
2025-01-19 20:23:51.303976	314.3	26.7	-90.3	10.2
2025-01-19 20:23:52.461272	314.5	26.6	-90.5	12.1
2025-01-19 20:23:53.624740	314.7	26.4	-92.6	12.3
2025-01-19 20:23:54.790908	314.9	26.3	-93.1	18.2
2025-01-19 20:23:55.950126	315.2	26.1	-92.1	14.8
2025-01-19 20:23:57.105899	315.4	26.0	-92.2	8.0
2025-01-19 20:23:58.264983	315.6	25.8	-92.0	14.9
2025-01-19 20:23:59.424948	315.8	25.7	-91.8	10.1
2025-01-19 20:24:00.582621	316.0	25.6	-91.2	5.9
2025-01-19 20:24:01.740350	316.2	25.4	-90.7	7.1
2025-01-19 20:24:02.906327	316.4	25.3	-92.5	7.6
2025-01-19 20:24:04.066804	316.6	25.1	-92.8	5.7
2025-01-19 20:24:05.219192	316.8	25.0	-92.1	16.7
2025-01-19 20:24:06.378466	317.0	24.8	-91.8	11.9
2025-01-19 20:24:07.546586	317.2	24.7	-93.1	9.9
2025-01-19 20:24:08.704783	317.4	24.6	-91.4	10.0
2025-01-19 20:24:09.864685	317.6	24.4	-92.9	9.6
2025-01-19 20:24:11.022153	317.8	24.3	-92.3	6.8
2025-01-19 20:24:12.180034	318.0	24.1	-92.5	6.4
2025-01-19 20:24:13.340502	318.2	24.0	-92.7	13.1
2025-01-19 20:24:14.501807	318.4	23.9	-92.6	6.2
2025-01-19 20:24:15.656679	318.6	23.7	-92.3	6.0
2025-01-19 20:24:16.818672	318.8	23.6	-93.2	12.1
2025-01-19 20:24:17.976376	319.0	23.4	-92.7	11.3
2025-01-19 20:24:19.140692	319.1	23.3	-92.2	3.7
2025-01-19 20:24:20.301929	319.3	23.2	-92.4	11.1
2025-01-19 20:24:21.462177	319.5	23.0	-92.7	5.8
2025-01-19 20:24:22.611296	319.7	22.9	-92.9	4.1
2025-01-19 20:24:23.780998	319.9	22.7	-92.8	5.9
2025-01-19 20:24:24.940152	320.0	22.6	-93.1	6.0
2025-01-19 20:24:26.105803	320.2	22.5	-92.6	4.7
2025-01-19 20:24:27.264206	320.4	22.3	-92.9	9.2
2025-01-19 20:24:28.425771	320.6	22.2	-92.3	8.0
2025-01-19 20:24:29.581549	320.7	22.1	-92.6	7.8
2025-01-19 20:24:30.742858	320.9	21.9	-92.1	11.6
2025-01-19 20:24:31.897929	321.1	21.8	-93.4	5.1
2025-01-19 20:24:33.054062	321.2	21.7	-92.5	6.4
2025-01-19 20:24:34.214495	321.4	21.5	-91.4	11.2
2025-01-19 20:24:35.371827	321.6	21.4	-91.8	6.4
2025-01-19 20:24:36.531322	321.7	21.3	-92.3	7.3
2025-01-19 20:24:37.688937	321.9	21.1	-92.2	6.5
2025-01-19 20:24:38.853488	322.0	21.0	-93.0	4.0
2025-01-19 20:24:40.014983	322.2	20.9	-91.6	2.6
2025-01-19 20:24:41.172585	322.4	20.8	-92.6	9.9
2025-01-19 20:24:42.330735	322.5	20.6	-92.4	6.8
2025-01-19 20:24:43.490837	322.7	20.5	-92.6	3.5
2025-01-19 20:24:44.649154	322.8	20.4	-92.9	5.8
2025-01-19 20:24:45.808428	323.0	20.2	-92.7	6.7
2025-01-19 20:24:46.966485	323.1	20.1	-92.5	4.4
2025-01-19 20:24:48.125559	323.3	20.0	-92.1	5.3
2025-01-19 20:24:49.287567	323.4	19.9	-91.1	5.8
2025-01-19 20:24:50.450123	323.6	19.7	-91.1	3.8
2025-01-19 20:24:51.607911	323.7	19.6	-91.3	5.0
2025-01-19 20:24:52.759652	323.9	19.5	-90.9	3.8
2025-01-19 20:24:53.897666	324.0	19.4	-91.4	5.1
2025-01-19 20:24:55.018184	324.1	19.2	-91.2	7.0
2025-01-19 20:24:56.138386	324.3	19.1	-89.7	4.6
2025-01-19 20:24:57.259344	324.4	19.0	-89.9	4.9
2025-01-19 20:24:58.380139	324.5	18.9	-91.8	4.8
2025-01-19 20:24:59.501179	324.7	18.8	-92.0	3.1
2025-01-19 20:25:00.621717	324.8	18.6	-91.9	4.5
2025-01-19 20:25:01.742587	324.9	18.5	-88.7	5.2
2025-01-19 20:25:02.866616	325.1	18.4	-90.8	7.0
2025-01-19 20:25:04.010885	325.2	18.3	-91.6	4.9
2025-01-19 20:25:05.171895	325.3	18.2	-89.4	6.7
2025-01-19 20:25:06.330424	325.5	18.1	-90.1	2.8
2025-01-19 20:25:07.491430	325.6	17.9	-92.0	6.1
2025-01-19 20:25:08.640271	325.7	17.8	-92.7	5.7
2025-01-19 20:25:09.796096	325.9	17.7	-92.4	3.8
2025-01-19 20:25:10.948815	326.0	17.6	-91.8	4.9
2025-01-19 20:25:12.108643	326.1	17.5	-92.1	4.3
2025-01-19 20:25:13.271569	326.3	17.3	-91.3	5.7
2025-01-19 20:25:14.428057	326.4	17.2	-92.0	4.7
2025-01-19 20:25:15.588764	326.5	17.1	-91.4	3.4
2025-01-19 20:25:16.744661	326.6	17.0	-92.3	5.6
2025-01-19 20:25:17.900213	326.7	16.9	-92.2	5.7
2025-01-19 20:25:19.058417	326.9	16.8	-91.7	5.5
2025-01-19 20:25:20.220927	327.0	16.6	-91.3	3.0
2025-01-19 20:25:21.382765	327.1	16.5	-91.5	5.9
2025-01-19 20:25:22.540424	327.2	16.4	-92.6	4.4
2025-01-19 20:25:23.695972	327.4	16.3	-92.0	10.4
2025-01-19 20:25:24.858965	327.5	16.2	-93.0	12.9
2025-01-19 20:25:26.018745	327.6	16.1	-92.6	6.2
2025-01-19 20:25:27.179592	327.7	16.0	-91.7	5.5
2025-01-19 20:25:28.346049	327.8	15.9	-92.5	7.5
2025-01-19 20:25:29.508849	327.9	15.7	-92.7	3.8
2025-01-19 20:25:30.661861	328.0	15.6	-92.5	6.1
2025-01-19 20:25:31.821981	328.2	15.5	-92.8	5.7
2025-01-19 20:25:32.979672	328.3	15.4	-92.1	5.8
2025-01-19 20:25:34.137067	328.4	15.3	-92.0	5.7
2025-01-19 20:25:35.306680	328.5	15.2	-92.4	4.9
2025-01-19 20:25:36.460484	328.6	15.1	-92.1	6.7
2025-01-19 20:25:37.616775	328.7	15.0	-91.2	4.5
2025-01-19 20:25:38.785306	328.8	14.9	-92.0	5.8
2025-01-19 20:25:39.946649	328.9	14.8	-91.8	5.1
2025-01-19 20:25:41.104354	329.0	14.6	-91.8	5.9
2025-01-19 20:25:42.251799	329.1	14.5	-92.6	4.3
#Closed at: 2025-01-19 20:17:11.497028