passes_logs/2025/01/19/LEX_Murmansk/LEX_Murmansk__20250119_163115_NOAA_19_rec.log

#Pass ID: 20250119_163115_NOAA 19
#Satellite: NOAA 19
#Configuration: NOAA 19
#Start time: 2025-01-19 16:31:10.831767

#LorettStation: 1.0.0 05.05.2024
#Station: LEX_Murmansk
#Location: 33.156738 lon 68.926811 lat
#TLE: 1 33591U 09005A   25019.18116543  .00000338  00000+0  20449-3 0  9996
#TLE: 2 33591  99.0189  82.9757 0014332  46.3357 313.9000 14.13262914822133

#Time	Az	El	Level	SNR
2025-01-19 16:31:23.019970	116.1	16.3	-91.3	4.6
2025-01-19 16:31:24.164700	116.0	16.4	-90.2	4.1
2025-01-19 16:31:25.324061	115.9	16.5	-90.6	6.0
2025-01-19 16:31:26.474238	115.8	16.6	-91.2	8.9
2025-01-19 16:31:27.628374	115.8	16.8	-91.4	11.0
2025-01-19 16:31:28.784263	115.7	16.9	-91.0	8.0
2025-01-19 16:31:29.939980	115.6	17.0	-91.1	4.6
2025-01-19 16:31:31.102307	115.5	17.1	-91.1	3.9
2025-01-19 16:31:32.270646	115.4	17.3	-91.1	2.6
2025-01-19 16:31:33.432051	115.3	17.4	-91.0	3.5
2025-01-19 16:31:34.593560	115.2	17.5	-90.7	7.3
2025-01-19 16:31:35.756230	115.1	17.6	-90.9	8.9
2025-01-19 16:31:36.916578	115.1	17.8	-90.9	11.6
2025-01-19 16:31:38.084521	115.0	17.9	-91.3	11.0
2025-01-19 16:31:39.245383	114.9	18.0	-90.9	5.7
2025-01-19 16:31:40.413916	114.8	18.2	-91.0	6.4
2025-01-19 16:31:41.575893	114.7	18.3	-91.4	9.7
2025-01-19 16:31:42.744642	114.6	18.4	-91.5	13.4
2025-01-19 16:31:43.897087	114.5	18.6	-91.5	11.5
2025-01-19 16:31:45.052058	114.4	18.7	-91.4	9.1
2025-01-19 16:31:46.210672	114.3	18.8	-91.1	2.9
2025-01-19 16:31:47.374968	114.2	19.0	-91.3	2.1
2025-01-19 16:31:48.537356	114.1	19.1	-91.5	3.9
2025-01-19 16:31:49.703894	114.0	19.2	-91.5	3.9
2025-01-19 16:31:50.867775	113.9	19.4	-91.3	6.9
2025-01-19 16:31:52.023494	113.8	19.5	-91.3	9.9
2025-01-19 16:31:53.189051	113.7	19.6	-90.4	12.9
2025-01-19 16:31:54.347716	113.6	19.8	-90.5	11.3
2025-01-19 16:31:55.510674	113.5	19.9	-90.5	9.4
2025-01-19 16:31:56.664543	113.4	20.1	-90.7	4.2
2025-01-19 16:31:57.822659	113.3	20.2	-91.4	6.5
2025-01-19 16:31:58.990644	113.1	20.3	-91.4	9.3
2025-01-19 16:32:00.156322	113.0	20.5	-91.3	8.3
2025-01-19 16:32:01.314431	112.9	20.6	-90.3	8.2
2025-01-19 16:32:02.476505	112.8	20.8	-91.3	4.8
2025-01-19 16:32:03.640981	112.7	20.9	-91.4	5.6
2025-01-19 16:32:04.817729	112.6	21.1	-91.2	2.3
2025-01-19 16:32:05.973038	112.5	21.2	-91.3	3.9
2025-01-19 16:32:07.138088	112.4	21.4	-91.1	4.0
2025-01-19 16:32:08.308772	112.2	21.5	-91.2	8.8
2025-01-19 16:32:09.469339	112.1	21.7	-91.4	9.7
2025-01-19 16:32:10.637199	112.0	21.8	-91.0	8.6
2025-01-19 16:32:11.797507	111.9	22.0	-91.5	8.2
2025-01-19 16:32:12.959733	111.8	22.1	-91.5	6.7
2025-01-19 16:32:14.123157	111.6	22.3	-91.1	7.6
2025-01-19 16:32:15.285851	111.5	22.4	-91.2	6.9
2025-01-19 16:32:16.450303	111.4	22.6	-91.0	6.4
2025-01-19 16:32:17.613241	111.3	22.7	-91.2	9.4
2025-01-19 16:32:18.777447	111.1	22.9	-91.3	7.2
2025-01-19 16:32:19.936918	111.0	23.0	-91.3	4.3
2025-01-19 16:32:21.099208	110.9	23.2	-91.0	4.5
2025-01-19 16:32:22.257147	110.7	23.3	-91.1	2.9
2025-01-19 16:32:23.421129	110.6	23.5	-91.2	3.7
2025-01-19 16:32:24.582032	110.5	23.7	-90.9	4.0
2025-01-19 16:32:25.741258	110.3	23.8	-91.2	5.2
2025-01-19 16:32:26.905668	110.2	24.0	-91.2	7.4
2025-01-19 16:32:28.071238	110.1	24.1	-90.9	5.3
2025-01-19 16:32:29.233852	109.9	24.3	-91.1	4.6
2025-01-19 16:32:30.394268	109.8	24.5	-90.9	4.1
2025-01-19 16:32:31.558471	109.6	24.6	-91.2	2.7
2025-01-19 16:32:32.722211	109.5	24.8	-90.8	2.7
2025-01-19 16:32:33.885108	109.3	24.9	-91.1	4.3
2025-01-19 16:32:35.048478	109.2	25.1	-91.2	4.5
2025-01-19 16:32:36.212898	109.0	25.3	-91.3	3.8
2025-01-19 16:32:37.377023	108.9	25.4	-91.3	1.3
2025-01-19 16:32:38.542748	108.7	25.6	-91.5	2.1
2025-01-19 16:32:39.711071	108.6	25.8	-90.9	2.2
2025-01-19 16:32:40.874360	108.4	25.9	-91.3	1.7
2025-01-19 16:32:42.041327	108.3	26.1	-91.1	3.8
2025-01-19 16:32:43.204241	108.1	26.3	-91.2	2.4
2025-01-19 16:32:44.365755	107.9	26.5	-91.6	2.5
2025-01-19 16:32:45.531357	107.8	26.6	-91.1	3.1
2025-01-19 16:32:46.690233	107.6	26.8	-90.9	3.9
2025-01-19 16:32:47.854044	107.4	27.0	-91.3	1.6
2025-01-19 16:32:49.014688	107.3	27.2	-91.0	2.5
2025-01-19 16:32:50.181881	107.1	27.3	-91.2	3.0
2025-01-19 16:32:51.343746	106.9	27.5	-90.9	3.4
2025-01-19 16:32:52.509271	106.7	27.7	-91.2	6.1
2025-01-19 16:32:53.667693	106.6	27.9	-91.5	7.6
2025-01-19 16:32:54.826412	106.4	28.0	-91.3	4.1
2025-01-19 16:32:55.985067	106.2	28.2	-91.4	3.8
2025-01-19 16:32:57.151738	106.0	28.4	-91.3	3.4
2025-01-19 16:32:58.315271	105.8	28.6	-91.5	2.5
2025-01-19 16:32:59.475913	105.7	28.8	-91.4	0.3
2025-01-19 16:33:00.636093	105.5	28.9	-91.5	4.9
2025-01-19 16:33:01.797469	105.3	29.1	-91.5	6.9
2025-01-19 16:33:02.965490	105.1	29.3	-91.3	11.3
2025-01-19 16:33:04.126485	104.9	29.5	-91.4	12.0
2025-01-19 16:33:05.294837	104.7	29.7	-91.5	10.1
2025-01-19 16:33:06.444965	104.5	29.9	-91.2	10.0
2025-01-19 16:33:07.606106	104.3	30.1	-91.2	14.1
2025-01-19 16:33:08.770528	104.1	30.2	-91.5	10.1
2025-01-19 16:33:09.937578	103.9	30.4	-91.4	8.9
2025-01-19 16:33:11.105377	103.7	30.6	-90.4	16.0
2025-01-19 16:33:12.266201	103.4	30.8	-91.1	16.9
2025-01-19 16:33:13.429087	103.2	31.0	-91.3	10.6
2025-01-19 16:33:14.597129	103.0	31.2	-90.5	4.6
2025-01-19 16:33:15.763142	102.8	31.4	-90.8	4.1
2025-01-19 16:33:16.924388	102.6	31.6	-90.9	4.0
2025-01-19 16:33:18.087164	102.3	31.8	-90.6	5.7
2025-01-19 16:33:19.249645	102.1	32.0	-90.7	6.0
2025-01-19 16:33:20.407160	101.9	32.2	-91.5	10.7
2025-01-19 16:33:21.566314	101.6	32.4	-91.5	16.3
2025-01-19 16:33:22.729669	101.4	32.6	-91.3	12.6
2025-01-19 16:33:23.896647	101.2	32.8	-91.5	11.9
2025-01-19 16:33:25.056305	100.9	33.0	-90.9	11.7
2025-01-19 16:33:26.219808	100.7	33.2	-91.4	9.1
2025-01-19 16:33:27.381394	100.4	33.4	-91.4	8.7
2025-01-19 16:33:28.545849	100.2	33.6	-90.0	10.9
2025-01-19 16:33:29.707025	99.9	33.8	-91.5	11.5
2025-01-19 16:33:30.868350	99.7	34.0	-90.9	15.5
2025-01-19 16:33:32.029720	99.4	34.2	-91.2	12.9
2025-01-19 16:33:33.191464	99.1	34.4	-91.1	15.1
2025-01-19 16:33:34.355132	98.9	34.6	-91.1	10.8
2025-01-19 16:33:35.518175	98.6	34.8	-91.3	6.7
2025-01-19 16:33:36.673750	98.3	35.0	-91.2	5.3
2025-01-19 16:33:37.830897	98.0	35.2	-90.7	2.5
2025-01-19 16:33:38.998843	97.7	35.4	-91.1	7.7
2025-01-19 16:33:40.156879	97.5	35.6	-90.9	11.3
2025-01-19 16:33:41.321959	97.2	35.8	-91.3	14.9
2025-01-19 16:33:42.482337	96.9	36.0	-91.5	15.6
2025-01-19 16:33:43.638709	96.6	36.2	-90.6	17.3
2025-01-19 16:33:44.800440	96.3	36.5	-90.6	12.6
2025-01-19 16:33:45.962366	96.0	36.7	-91.1	13.8
2025-01-19 16:33:47.118077	95.7	36.9	-90.9	12.0
2025-01-19 16:33:48.286087	95.3	37.1	-91.2	3.8
2025-01-19 16:33:49.457959	95.0	37.3	-90.9	8.7
2025-01-19 16:33:50.630882	94.7	37.5	-91.1	8.0
2025-01-19 16:33:51.794626	94.4	37.7	-90.9	7.7
2025-01-19 16:33:52.951192	94.0	37.9	-91.2	6.4
2025-01-19 16:33:54.115638	93.7	38.1	-91.0	7.9
2025-01-19 16:33:55.279368	93.4	38.4	-91.6	5.9
2025-01-19 16:33:56.458111	93.0	38.6	-91.3	2.5
2025-01-19 16:33:57.619562	92.7	38.8	-90.7	5.4
2025-01-19 16:33:58.778159	92.3	39.0	-91.4	2.3
2025-01-19 16:33:59.943076	92.0	39.2	-91.2	3.9
2025-01-19 16:34:01.099186	91.6	39.4	-91.6	7.6
2025-01-19 16:34:02.267316	91.2	39.6	-90.4	7.5
2025-01-19 16:34:03.429844	90.9	39.9	-90.5	8.3
2025-01-19 16:34:04.595443	90.5	40.1	-90.7	13.3
2025-01-19 16:34:05.754121	90.1	40.3	-90.4	13.0
2025-01-19 16:34:06.911535	89.7	40.5	-91.5	16.4
2025-01-19 16:34:08.076027	89.3	40.7	-91.3	12.0
2025-01-19 16:34:09.230316	88.9	40.9	-91.0	8.1
2025-01-19 16:34:10.390572	88.5	41.1	-91.6	8.0
2025-01-19 16:34:11.551766	88.1	41.3	-91.5	5.5
2025-01-19 16:34:12.717088	87.7	41.5	-91.5	4.6
2025-01-19 16:34:13.877615	87.3	41.7	-91.6	4.7
2025-01-19 16:34:15.041921	86.8	42.0	-91.2	6.8
2025-01-19 16:34:16.202309	86.4	42.2	-91.0	7.8
2025-01-19 16:34:17.366260	86.0	42.4	-91.0	8.4
2025-01-19 16:34:18.524257	85.5	42.6	-90.3	11.0
2025-01-19 16:34:19.686809	85.1	42.8	-90.7	8.5
2025-01-19 16:34:20.850638	84.6	43.0	-91.3	7.2
2025-01-19 16:34:22.014142	84.2	43.2	-91.2	6.3
2025-01-19 16:34:23.177284	83.7	43.4	-91.3	3.9
2025-01-19 16:34:24.340615	83.2	43.6	-91.4	1.8
2025-01-19 16:34:25.503565	82.8	43.8	-91.0	5.1
2025-01-19 16:34:26.663796	82.3	44.0	-91.3	3.1
2025-01-19 16:34:27.828402	81.8	44.2	-91.3	7.4
2025-01-19 16:34:28.987646	81.3	44.4	-91.3	9.7
2025-01-19 16:34:30.160322	80.8	44.6	-91.3	9.8
2025-01-19 16:34:31.326996	80.3	44.8	-91.4	10.7
2025-01-19 16:34:32.492786	79.8	45.0	-91.0	11.0
2025-01-19 16:34:33.659914	79.3	45.2	-91.2	8.5
2025-01-19 16:34:34.823698	78.7	45.4	-91.0	7.3
2025-01-19 16:34:35.986024	78.2	45.5	-91.3	7.9
2025-01-19 16:34:37.145134	77.7	45.7	-91.1	6.4
2025-01-19 16:34:38.309735	77.1	45.9	-91.3	5.1
2025-01-19 16:34:39.475103	76.6	46.1	-91.5	7.4
2025-01-19 16:34:40.648730	76.0	46.3	-91.5	7.2
2025-01-19 16:34:41.814942	75.4	46.5	-91.0	7.2
2025-01-19 16:34:42.978281	74.9	46.6	-91.3	9.7
2025-01-19 16:34:44.139129	74.3	46.8	-91.1	12.4
2025-01-19 16:34:45.302880	73.7	47.0	-90.9	11.6
2025-01-19 16:34:46.462198	73.1	47.1	-91.1	12.1
2025-01-19 16:34:47.626522	72.5	47.3	-91.3	9.2
2025-01-19 16:34:48.789099	71.9	47.5	-91.5	8.6
2025-01-19 16:34:49.936105	71.3	47.6	-91.2	8.1
2025-01-19 16:34:51.098278	70.7	47.8	-91.1	7.9
2025-01-19 16:34:52.255064	70.1	47.9	-91.3	4.2
2025-01-19 16:34:53.414769	69.5	48.1	-91.2	4.8
2025-01-19 16:34:54.579302	68.8	48.2	-91.2	3.9
2025-01-19 16:34:55.742335	68.2	48.4	-91.6	2.9
2025-01-19 16:34:56.899256	67.6	48.5	-91.2	0.1
2025-01-19 16:34:58.070877	66.9	48.6	-91.4	4.0
2025-01-19 16:34:59.229673	66.2	48.8	-91.1	2.0
2025-01-19 16:35:00.388937	65.6	48.9	-91.1	5.8
2025-01-19 16:35:01.555851	64.9	49.0	-91.1	8.7
2025-01-19 16:35:02.720918	64.2	49.1	-91.1	3.4
2025-01-19 16:35:03.889412	63.6	49.3	-91.5	2.7
2025-01-19 16:35:05.058129	62.9	49.4	-91.5	7.8
2025-01-19 16:35:06.219745	62.2	49.5	-91.4	9.7
2025-01-19 16:35:07.375563	61.5	49.6	-91.1	8.8
2025-01-19 16:35:08.538864	60.8	49.7	-91.3	10.3
2025-01-19 16:35:09.708661	60.1	49.8	-90.8	4.8
2025-01-19 16:35:10.872522	59.4	49.9	-91.0	3.0
2025-01-19 16:35:12.036737	58.7	49.9	-91.1	3.3
2025-01-19 16:35:13.200876	58.0	50.0	-90.9	2.3
2025-01-19 16:35:14.365064	57.3	50.1	-91.0	3.3
2025-01-19 16:35:15.533652	56.5	50.2	-91.0	4.7
2025-01-19 16:35:16.691574	55.8	50.2	-91.5	4.2
2025-01-19 16:35:17.860835	55.1	50.3	-91.4	5.6
2025-01-19 16:35:19.024438	54.4	50.4	-91.0	5.7
2025-01-19 16:35:20.191758	53.6	50.4	-90.5	3.1
2025-01-19 16:35:21.362873	52.9	50.5	-90.7	4.3
2025-01-19 16:35:22.521625	52.1	50.5	-91.5	3.2
2025-01-19 16:35:23.684874	51.4	50.5	-91.2	3.4
2025-01-19 16:35:24.848021	50.7	50.6	-91.2	7.1
2025-01-19 16:35:26.010799	49.9	50.6	-91.2	6.4
2025-01-19 16:35:27.169619	49.2	50.6	-91.0	3.5
2025-01-19 16:35:28.337882	48.4	50.6	-90.8	8.2
2025-01-19 16:35:29.498717	47.7	50.7	-90.7	7.9
2025-01-19 16:35:30.663075	46.9	50.7	-90.8	8.6
2025-01-19 16:35:31.844047	46.2	50.7	-90.9	7.6
2025-01-19 16:35:33.007878	45.4	50.7	-91.4	10.4
2025-01-19 16:35:34.175959	44.7	50.7	-91.1	6.9
2025-01-19 16:35:35.329545	43.9	50.6	-91.0	6.4
2025-01-19 16:35:36.489297	43.2	50.6	-90.8	12.0
2025-01-19 16:35:37.648566	42.5	50.6	-90.9	13.9
2025-01-19 16:35:38.825695	41.7	50.6	-90.7	11.1
2025-01-19 16:35:39.995786	41.0	50.5	-91.0	11.1
2025-01-19 16:35:41.154066	40.2	50.5	-91.3	9.3
2025-01-19 16:35:42.319327	39.5	50.5	-91.2	8.0
2025-01-19 16:35:43.484270	38.8	50.4	-91.0	9.4
2025-01-19 16:35:44.642157	38.0	50.4	-91.3	8.7
2025-01-19 16:35:45.806016	37.3	50.3	-91.0	4.7
2025-01-19 16:35:46.965379	36.6	50.2	-91.4	7.4
2025-01-19 16:35:48.129842	35.9	50.2	-91.2	9.7
2025-01-19 16:35:49.294548	35.1	50.1	-90.5	6.6
2025-01-19 16:35:50.456928	34.4	50.0	-91.2	7.8
2025-01-19 16:35:51.620235	33.7	49.9	-90.7	11.5
2025-01-19 16:35:52.787237	33.0	49.9	-91.1	7.9
2025-01-19 16:35:53.950807	32.3	49.8	-90.9	8.4
2025-01-19 16:35:55.116535	31.6	49.7	-90.9	8.8
2025-01-19 16:35:56.280859	30.9	49.6	-91.2	6.8
2025-01-19 16:35:57.445179	30.2	49.5	-91.2	8.1
2025-01-19 16:35:58.605723	29.5	49.4	-91.0	10.0
2025-01-19 16:35:59.770425	28.8	49.2	-91.2	4.6
2025-01-19 16:36:00.931780	28.2	49.1	-91.2	7.7
2025-01-19 16:36:02.092877	27.5	49.0	-91.4	9.4
2025-01-19 16:36:03.255132	26.8	48.9	-91.5	3.4
2025-01-19 16:36:04.413928	26.2	48.8	-91.4	8.0
2025-01-19 16:36:05.576745	25.5	48.6	-91.1	6.1
2025-01-19 16:36:06.727128	24.9	48.5	-91.6	2.7
2025-01-19 16:36:07.895089	24.2	48.3	-91.5	5.0
2025-01-19 16:36:09.055955	23.6	48.2	-91.2	6.1
2025-01-19 16:36:10.225610	23.0	48.1	-91.1	5.0
2025-01-19 16:36:11.390709	22.3	47.9	-90.8	8.2
2025-01-19 16:36:12.555586	21.7	47.8	-90.9	5.2
2025-01-19 16:36:13.721144	21.1	47.6	-91.6	5.1
2025-01-19 16:36:14.877088	20.5	47.4	-91.5	8.2
2025-01-19 16:36:16.045361	19.9	47.3	-91.5	7.8
2025-01-19 16:36:17.210377	19.3	47.1	-90.7	6.2
2025-01-19 16:36:18.373746	18.7	47.0	-91.0	7.8
2025-01-19 16:36:19.531925	18.1	46.8	-91.0	8.9
2025-01-19 16:36:20.695646	17.6	46.6	-90.6	7.4
2025-01-19 16:36:21.852770	17.0	46.4	-90.8	8.0
2025-01-19 16:36:23.015507	16.4	46.3	-91.0	12.1
2025-01-19 16:36:24.179777	15.9	46.1	-91.1	11.4
2025-01-19 16:36:25.339339	15.3	45.9	-90.7	11.5
2025-01-19 16:36:26.504327	14.8	45.7	-91.3	12.8
2025-01-19 16:36:27.658874	14.3	45.5	-91.3	12.0
2025-01-19 16:36:28.820069	13.7	45.4	-90.7	11.9
2025-01-19 16:36:29.985555	13.2	45.2	-91.4	11.3
2025-01-19 16:36:31.166633	12.7	45.0	-91.3	12.2
2025-01-19 16:36:32.329603	12.2	44.8	-90.7	14.2
2025-01-19 16:36:33.493491	11.7	44.6	-91.2	16.0
2025-01-19 16:36:34.656558	11.2	44.4	-90.6	16.5
2025-01-19 16:36:35.819133	10.7	44.2	-91.2	16.2
2025-01-19 16:36:36.978797	10.2	44.0	-91.4	17.9
2025-01-19 16:36:38.141253	9.7	43.8	-91.2	18.5
2025-01-19 16:36:39.311718	9.2	43.6	-90.9	18.0
2025-01-19 16:36:40.474577	8.8	43.4	-90.8	16.2
2025-01-19 16:36:41.650478	8.3	43.2	-90.9	17.9
2025-01-19 16:36:42.816158	7.8	43.0	-91.4	17.7
2025-01-19 16:36:43.971851	7.4	42.8	-91.0	17.1
2025-01-19 16:36:45.136562	6.9	42.6	-91.0	16.1
2025-01-19 16:36:46.295464	6.5	42.4	-91.3	18.6
2025-01-19 16:36:47.458100	6.1	42.2	-91.0	16.6
2025-01-19 16:36:48.623002	5.6	42.0	-91.0	15.9
2025-01-19 16:36:49.786354	5.2	41.8	-90.8	12.9
2025-01-19 16:36:50.950830	4.8	41.5	-91.0	14.0
2025-01-19 16:36:52.113148	4.4	41.3	-91.0	13.7
2025-01-19 16:36:53.275364	4.0	41.1	-90.8	8.3
2025-01-19 16:36:54.439347	3.6	40.9	-90.8	7.4
2025-01-19 16:36:55.603089	3.2	40.7	-90.9	5.5
2025-01-19 16:36:56.767445	2.8	40.5	-91.1	3.8
2025-01-19 16:36:57.926860	2.4	40.3	-90.8	6.3
2025-01-19 16:36:59.086576	2.0	40.1	-91.1	7.6
2025-01-19 16:37:00.226684	1.6	39.9	-90.5	5.4
2025-01-19 16:37:01.389568	1.3	39.7	-90.6	6.0
2025-01-19 16:37:02.552629	0.9	39.4	-90.7	9.7
2025-01-19 16:37:03.716207	0.5	39.2	-90.8	4.9
2025-01-19 16:37:04.883543	0.2	39.0	-91.2	6.8
2025-01-19 16:37:06.050119	359.8	38.8	-90.8	9.0
2025-01-19 16:37:07.208415	359.5	38.6	-90.9	8.3
2025-01-19 16:37:08.372908	359.1	38.4	-90.7	9.2
2025-01-19 16:37:09.529302	358.8	38.2	-91.0	12.6
2025-01-19 16:37:10.695082	358.5	38.0	-91.0	9.7
2025-01-19 16:37:11.857311	358.1	37.8	-90.6	10.7
2025-01-19 16:37:13.018204	357.8	37.5	-91.0	12.1
2025-01-19 16:37:14.185419	357.5	37.3	-90.7	11.9
2025-01-19 16:37:15.345600	357.2	37.1	-90.9	10.5
2025-01-19 16:37:16.510514	356.9	36.9	-90.9	12.8
2025-01-19 16:37:17.667386	356.6	36.7	-91.1	11.1
2025-01-19 16:37:18.834881	356.3	36.5	-91.2	10.1
2025-01-19 16:37:20.004389	356.0	36.3	-90.8	9.6
2025-01-19 16:37:21.171109	355.7	36.1	-91.0	8.0
2025-01-19 16:37:22.332365	355.4	35.9	-91.0	5.5
2025-01-19 16:37:23.491101	355.1	35.7	-91.2	6.3
2025-01-19 16:37:24.653323	354.8	35.5	-90.8	5.4
2025-01-19 16:37:25.816583	354.5	35.2	-90.8	2.6
2025-01-19 16:37:26.975934	354.2	35.0	-91.2	4.4
2025-01-19 16:37:28.143761	354.0	34.8	-91.3	2.7
2025-01-19 16:37:29.306641	353.7	34.6	-91.1	2.2
2025-01-19 16:37:30.472914	353.4	34.4	-91.0	5.0
2025-01-19 16:37:31.636644	353.1	34.2	-91.1	5.8
2025-01-19 16:37:32.801211	352.9	34.0	-91.2	5.7
2025-01-19 16:37:33.965005	352.6	33.8	-90.7	8.0
2025-01-19 16:37:35.124672	352.4	33.6	-90.9	7.2
2025-01-19 16:37:36.287803	352.1	33.4	-90.9	7.3
2025-01-19 16:37:37.450596	351.9	33.2	-91.0	6.5
2025-01-19 16:37:38.611774	351.6	33.0	-91.2	7.0
2025-01-19 16:37:39.779443	351.4	32.8	-91.4	5.5
2025-01-19 16:37:40.941397	351.1	32.6	-91.0	3.7
2025-01-19 16:37:42.108860	350.9	32.4	-90.9	5.0
2025-01-19 16:37:43.272115	350.7	32.2	-91.0	3.5
2025-01-19 16:37:44.435933	350.4	32.0	-91.0	5.0
2025-01-19 16:37:45.596648	350.2	31.8	-90.9	6.1
2025-01-19 16:37:46.760862	350.0	31.6	-91.0	4.4
2025-01-19 16:37:47.925561	349.8	31.5	-91.1	3.8
2025-01-19 16:37:49.081023	349.5	31.3	-90.9	4.9
2025-01-19 16:37:50.263244	349.3	31.1	-91.3	3.6
2025-01-19 16:37:51.429213	349.1	30.9	-90.6	5.9
2025-01-19 16:37:52.590074	348.9	30.7	-90.8	5.2
2025-01-19 16:37:53.749121	348.7	30.5	-90.9	6.5
2025-01-19 16:37:54.917109	348.5	30.3	-91.2	7.9
2025-01-19 16:37:56.083199	348.3	30.1	-90.5	9.1
2025-01-19 16:37:57.241853	348.1	29.9	-91.0	10.5
2025-01-19 16:37:58.416009	347.9	29.7	-90.9	10.2
2025-01-19 16:37:59.582847	347.7	29.6	-91.3	11.3
2025-01-19 16:38:00.742644	347.5	29.4	-90.7	11.1
2025-01-19 16:38:01.907049	347.3	29.2	-90.4	7.7
2025-01-19 16:38:03.075292	347.1	29.0	-90.8	8.2
2025-01-19 16:38:04.235822	346.9	28.8	-91.2	5.6
2025-01-19 16:38:05.406985	346.7	28.6	-91.2	5.5
2025-01-19 16:38:06.566704	346.5	28.5	-91.2	1.9
2025-01-19 16:38:07.721514	346.4	28.3	-91.3	2.6
2025-01-19 16:38:08.885519	346.2	28.1	-91.2	5.5
2025-01-19 16:38:10.043630	346.0	27.9	-91.3	4.0
2025-01-19 16:38:11.207951	345.8	27.7	-90.9	3.7
2025-01-19 16:38:12.368605	345.6	27.6	-91.2	6.7
2025-01-19 16:38:13.537397	345.5	27.4	-90.9	8.8
2025-01-19 16:38:14.706495	345.3	27.2	-91.4	11.1
2025-01-19 16:38:15.869921	345.1	27.0	-91.3	11.2
2025-01-19 16:38:17.036199	345.0	26.9	-90.7	14.8
2025-01-19 16:38:18.193514	344.8	26.7	-90.7	12.1
2025-01-19 16:38:19.359668	344.6	26.5	-90.6	8.7
2025-01-19 16:38:20.519991	344.5	26.4	-91.0	5.9
2025-01-19 16:38:21.683115	344.3	26.2	-90.1	3.9
2025-01-19 16:38:22.848700	344.2	26.0	-90.3	1.9
2025-01-19 16:38:24.011679	344.0	25.9	-90.5	3.6
2025-01-19 16:38:25.174682	343.8	25.7	-90.8	4.3
2025-01-19 16:38:26.339042	343.7	25.5	-91.2	2.6
2025-01-19 16:38:27.496436	343.5	25.4	-91.0	4.8
2025-01-19 16:38:28.660952	343.4	25.2	-91.5	6.8
2025-01-19 16:38:29.830152	343.2	25.0	-91.6	8.0
2025-01-19 16:38:30.984143	343.1	24.9	-91.5	12.2
2025-01-19 16:38:32.153066	343.0	24.7	-91.0	10.5
2025-01-19 16:38:33.316948	342.8	24.5	-91.0	11.0
2025-01-19 16:38:34.484340	342.7	24.4	-91.5	11.3
2025-01-19 16:38:35.648371	342.5	24.2	-91.2	10.6
2025-01-19 16:38:36.812831	342.4	24.1	-90.9	8.6
2025-01-19 16:38:37.970410	342.3	23.9	-91.1	7.8
2025-01-19 16:38:39.132069	342.1	23.7	-91.2	5.6
2025-01-19 16:38:40.294866	342.0	23.6	-91.0	3.9
2025-01-19 16:38:41.456210	341.9	23.4	-91.1	3.6
2025-01-19 16:38:42.622386	341.7	23.3	-91.4	7.9
2025-01-19 16:38:43.782694	341.6	23.1	-91.5	3.3
2025-01-19 16:38:44.944265	341.5	23.0	-91.4	7.8
2025-01-19 16:38:46.106037	341.3	22.8	-90.9	8.4
2025-01-19 16:38:47.275267	341.2	22.7	-91.3	6.8
2025-01-19 16:38:48.426753	341.1	22.5	-91.3	9.3
2025-01-19 16:38:49.594712	341.0	22.4	-91.6	9.3
2025-01-19 16:38:50.762441	340.8	22.2	-91.6	6.9
2025-01-19 16:38:51.925206	340.7	22.1	-91.5	6.4
2025-01-19 16:38:53.104901	340.6	21.9	-90.8	7.2
2025-01-19 16:38:54.268018	340.5	21.8	-91.1	4.0
2025-01-19 16:38:55.430264	340.4	21.6	-91.1	4.6
2025-01-19 16:38:56.594244	340.2	21.5	-91.6	4.3
2025-01-19 16:38:57.753604	340.1	21.3	-91.4	4.2
2025-01-19 16:38:58.914591	340.0	21.2	-91.6	3.7
2025-01-19 16:39:00.077598	339.9	21.0	-91.4	3.7
2025-01-19 16:39:01.239615	339.8	20.9	-91.2	3.1
2025-01-19 16:39:02.402297	339.7	20.7	-91.9	6.0
2025-01-19 16:39:03.566266	339.6	20.6	-91.6	5.6
2025-01-19 16:39:04.724954	339.5	20.5	-91.8	6.3
2025-01-19 16:39:05.884442	339.3	20.3	-91.5	5.1
2025-01-19 16:39:07.049977	339.2	20.2	-91.6	8.1
2025-01-19 16:39:08.212694	339.1	20.0	-91.4	2.8
2025-01-19 16:39:09.373357	339.0	19.9	-91.5	1.4
2025-01-19 16:39:10.539507	338.9	19.8	-91.4	2.0
2025-01-19 16:39:11.704352	338.8	19.6	-91.8	1.7
2025-01-19 16:39:12.868969	338.7	19.5	-92.0	4.2
2025-01-19 16:39:14.042996	338.6	19.3	-91.6	3.2
2025-01-19 16:39:15.202879	338.5	19.2	-91.4	2.1
2025-01-19 16:39:16.370905	338.4	19.1	-91.0	2.8
2025-01-19 16:39:17.529934	338.3	18.9	-91.3	1.5
2025-01-19 16:39:18.701347	338.2	18.8	-91.2	3.6
2025-01-19 16:39:19.865426	338.1	18.7	-91.7	4.0
2025-01-19 16:39:21.024981	338.0	18.5	-91.9	3.3
2025-01-19 16:39:22.189512	337.9	18.4	-91.0	2.3
2025-01-19 16:39:23.352070	337.8	18.3	-91.4	2.5
2025-01-19 16:39:24.516425	337.7	18.1	-91.3	2.0
2025-01-19 16:39:25.678694	337.7	18.0	-91.4	3.0
2025-01-19 16:39:26.831234	337.6	17.9	-91.2	4.2
2025-01-19 16:39:27.974551	337.5	17.8	-91.5	2.2
2025-01-19 16:39:29.095526	337.4	17.6	-91.3	2.6
2025-01-19 16:39:30.216136	337.3	17.5	-91.2	3.9
2025-01-19 16:39:31.338130	337.2	17.4	-91.3	2.0
2025-01-19 16:39:32.458639	337.1	17.3	-91.6	3.1
2025-01-19 16:39:33.580091	337.0	17.1	-91.6	2.8
2025-01-19 16:39:34.700648	337.0	17.0	-91.5	1.9
2025-01-19 16:39:35.821126	336.9	16.9	-91.5	3.5
2025-01-19 16:39:36.944912	336.8	16.8	-91.3	2.3
2025-01-19 16:39:38.080734	336.7	16.7	-91.1	2.9
2025-01-19 16:39:39.240363	336.6	16.5	-91.0	1.6
2025-01-19 16:39:40.393829	336.5	16.4	-91.3	1.3
2025-01-19 16:39:41.546683	336.5	16.3	-91.3	1.5
2025-01-19 16:39:42.699993	336.4	16.2	-91.3	2.6
2025-01-19 16:39:43.860798	336.3	16.1	-91.4	3.5
2025-01-19 16:39:45.024471	336.2	15.9	-91.0	1.8
2025-01-19 16:39:46.180564	336.1	15.8	-91.5	7.9
2025-01-19 16:39:47.343022	336.1	15.7	-91.7	5.5
2025-01-19 16:39:48.500651	336.0	15.6	-91.3	6.5
2025-01-19 16:39:49.660356	335.9	15.5	-91.3	5.0
2025-01-19 16:39:50.822949	335.8	15.3	-91.2	3.3
2025-01-19 16:39:51.983201	335.8	15.2	-91.1	3.1
2025-01-19 16:39:53.143564	335.7	15.1	-91.5	6.1
2025-01-19 16:39:54.306034	335.6	15.0	-91.2	1.6
2025-01-19 16:39:55.468530	335.5	14.9	-91.4	3.4
2025-01-19 16:39:56.628990	335.5	14.8	-91.2	3.9
2025-01-19 16:39:57.792333	335.4	14.6	-90.7	2.3
2025-01-19 16:39:58.956142	335.3	14.5	-90.8	2.6
#Closed at: 2025-01-19 16:31:15.832800