passes_logs/2025/01/19/LEX_Murmansk/LEX_Murmansk__20250119_181138_NOAA_19_rec.log

#Pass ID: 20250119_181138_NOAA 19
#Satellite: NOAA 19
#Configuration: NOAA 19
#Start time: 2025-01-19 18:11:33.441546

#LorettStation: 1.0.0 05.05.2024
#Station: LEX_Murmansk
#Location: 33.156738 lon 68.926811 lat
#TLE: 1 33591U 09005A   25019.18116543  .00000338  00000+0  20449-3 0  9996
#TLE: 2 33591  99.0189  82.9757 0014332  46.3357 313.9000 14.13262914822133

#Time	Az	El	Level	SNR
2025-01-19 18:11:49.660651	167.3	16.8	-90.1	4.0
2025-01-19 18:11:51.956454	167.4	17.0	-91.1	2.0
2025-01-19 18:11:54.260647	167.5	17.3	-90.5	1.6
2025-01-19 18:11:56.560126	167.6	17.6	-91.1	3.8
2025-01-19 18:11:58.856391	167.7	17.8	-90.7	1.8
2025-01-19 18:12:01.147698	167.8	18.1	-91.0	4.3
2025-01-19 18:12:03.443832	167.9	18.4	-91.1	2.8
2025-01-19 18:12:05.742767	168.0	18.6	-90.7	1.9
2025-01-19 18:12:08.037570	168.1	18.9	-90.3	3.5
2025-01-19 18:12:10.330133	168.2	19.2	-90.4	2.7
2025-01-19 18:12:12.624588	168.3	19.5	-91.0	5.5
2025-01-19 18:12:14.925337	168.4	19.8	-90.4	5.6
2025-01-19 18:12:17.218222	168.5	20.1	-90.9	5.9
2025-01-19 18:12:19.508709	168.6	20.4	-90.6	5.9
2025-01-19 18:12:21.799354	168.7	20.7	-90.0	1.9
2025-01-19 18:12:24.095837	168.8	21.0	-90.3	5.1
2025-01-19 18:12:26.395908	168.9	21.3	-90.1	6.9
2025-01-19 18:12:28.689630	169.1	21.6	-90.7	6.1
2025-01-19 18:12:30.979039	169.2	21.9	-91.0	5.5
2025-01-19 18:12:33.275903	169.3	22.2	-90.7	4.5
2025-01-19 18:12:35.569407	169.4	22.5	-90.6	8.7
2025-01-19 18:12:37.863003	169.5	22.9	-91.1	3.2
2025-01-19 18:12:40.158238	169.7	23.2	-90.1	3.9
2025-01-19 18:12:42.452194	169.8	23.5	-90.7	7.6
2025-01-19 18:12:44.748258	169.9	23.9	-91.0	13.1
2025-01-19 18:12:47.050779	170.1	24.2	-90.5	11.1
2025-01-19 18:12:49.342771	170.2	24.6	-90.1	8.4
2025-01-19 18:12:51.640172	170.4	24.9	-89.8	9.2
2025-01-19 18:12:53.944297	170.5	25.3	-90.3	3.4
2025-01-19 18:12:56.237811	170.6	25.6	-90.8	2.3
2025-01-19 18:12:58.530289	170.8	26.0	-90.9	6.1
2025-01-19 18:13:00.819519	170.9	26.4	-91.1	9.9
2025-01-19 18:13:03.115514	171.1	26.7	-90.5	7.9
2025-01-19 18:13:05.411108	171.3	27.1	-90.1	8.6
2025-01-19 18:13:07.709863	171.4	27.5	-90.5	8.0
2025-01-19 18:13:10.000430	171.6	27.9	-90.5	6.9
2025-01-19 18:13:12.300619	171.8	28.3	-90.4	1.2
2025-01-19 18:13:14.596609	172.0	28.7	-91.2	6.6
2025-01-19 18:13:16.892248	172.1	29.1	-91.1	9.5
2025-01-19 18:13:19.187507	172.3	29.5	-90.8	8.6
2025-01-19 18:13:21.474371	172.5	29.9	-91.2	8.1
2025-01-19 18:13:23.779604	172.7	30.3	-90.9	8.1
2025-01-19 18:13:26.074651	172.9	30.8	-91.2	9.6
2025-01-19 18:13:28.379945	173.1	31.2	-90.7	1.6
2025-01-19 18:13:30.675282	173.3	31.7	-90.8	5.1
2025-01-19 18:13:32.978125	173.5	32.1	-91.1	6.4
2025-01-19 18:13:35.269686	173.8	32.6	-90.9	9.2
2025-01-19 18:13:37.567077	174.0	33.0	-91.3	10.6
2025-01-19 18:13:39.861601	174.2	33.5	-90.8	5.2
2025-01-19 18:13:42.158499	174.5	34.0	-89.9	12.2
2025-01-19 18:13:44.461161	174.7	34.4	-90.5	10.5
2025-01-19 18:13:46.758224	175.0	34.9	-90.6	2.6
2025-01-19 18:13:49.054795	175.2	35.4	-90.2	4.4
2025-01-19 18:13:51.350041	175.5	35.9	-90.8	6.0
2025-01-19 18:13:53.645567	175.8	36.4	-91.1	9.0
2025-01-19 18:13:55.950826	176.1	36.9	-91.3	10.6
2025-01-19 18:13:58.240739	176.3	37.5	-91.1	7.4
2025-01-19 18:14:00.531947	176.6	38.0	-91.0	10.4
2025-01-19 18:14:02.827293	177.0	38.5	-91.0	10.1
2025-01-19 18:14:05.121133	177.3	39.1	-90.4	3.6
2025-01-19 18:14:07.402071	177.6	39.6	-90.9	2.6
2025-01-19 18:14:09.643574	178.0	40.2	-90.8	3.2
2025-01-19 18:14:11.886318	178.3	40.7	-91.3	10.1
2025-01-19 18:14:14.127720	178.7	41.3	-91.1	12.8
2025-01-19 18:14:16.368824	179.0	41.9	-91.0	11.0
2025-01-19 18:14:18.653722	179.4	42.5	-90.9	10.8
2025-01-19 18:14:20.944937	179.8	43.1	-91.1	15.3
2025-01-19 18:14:23.233325	180.3	43.7	-91.2	11.8
2025-01-19 18:14:25.523309	180.7	44.3	-91.4	6.7
2025-01-19 18:14:27.821120	181.2	44.9	-91.0	2.8
2025-01-19 18:14:30.119006	181.7	45.5	-91.1	9.7
2025-01-19 18:14:32.413024	182.1	46.2	-90.7	15.5
2025-01-19 18:14:34.719333	182.7	46.8	-91.3	11.8
2025-01-19 18:14:37.017417	183.2	47.5	-91.4	12.9
2025-01-19 18:14:39.318057	183.8	48.2	-91.0	9.7
2025-01-19 18:14:41.612181	184.4	48.8	-91.0	13.6
2025-01-19 18:14:43.877373	185.0	49.5	-91.4	15.3
2025-01-19 18:14:46.167577	185.6	50.2	-90.7	4.4
2025-01-19 18:14:48.460010	186.3	50.9	-91.2	4.6
2025-01-19 18:14:50.747939	187.0	51.6	-91.2	1.8
2025-01-19 18:14:53.051156	187.7	52.3	-91.3	9.6
2025-01-19 18:14:55.349796	188.5	53.0	-91.2	14.8
2025-01-19 18:14:57.653051	189.3	53.7	-90.8	11.0
2025-01-19 18:14:59.946244	190.1	54.4	-91.2	8.7
2025-01-19 18:15:02.245940	191.0	55.1	-91.4	2.8
2025-01-19 18:15:04.551927	191.9	55.8	-91.2	9.1
2025-01-19 18:15:06.846360	192.9	56.6	-91.2	14.2
2025-01-19 18:15:09.149507	194.0	57.3	-90.3	8.5
2025-01-19 18:15:11.440698	195.0	58.0	-90.7	4.7
2025-01-19 18:15:13.740917	196.2	58.7	-91.1	1.0
2025-01-19 18:15:16.035591	197.4	59.5	-90.2	4.3
2025-01-19 18:15:18.330541	198.7	60.2	-90.2	6.0
2025-01-19 18:15:20.622488	200.0	60.9	-90.9	8.1
2025-01-19 18:15:22.918967	201.5	61.6	-90.0	13.4
2025-01-19 18:15:25.219587	203.0	62.3	-90.5	12.3
2025-01-19 18:15:27.514284	204.6	63.0	-91.1	11.3
2025-01-19 18:15:29.807659	206.3	63.6	-91.1	6.1
2025-01-19 18:15:32.104149	208.1	64.3	-90.3	10.3
2025-01-19 18:15:34.398217	210.0	64.9	-90.8	13.1
2025-01-19 18:15:36.693964	212.0	65.6	-91.3	17.6
2025-01-19 18:15:38.974432	214.1	66.1	-91.3	17.3
2025-01-19 18:15:41.268271	216.3	66.7	-91.2	14.5
2025-01-19 18:15:43.562695	218.7	67.2	-90.8	9.8
2025-01-19 18:15:45.856253	221.1	67.8	-90.9	9.0
2025-01-19 18:15:48.155482	223.7	68.2	-90.8	4.9
2025-01-19 18:15:50.447279	226.4	68.6	-90.8	5.2
2025-01-19 18:15:52.742469	229.2	69.0	-91.0	4.5
2025-01-19 18:15:55.039546	232.2	69.4	-91.8	9.7
2025-01-19 18:15:57.343259	235.2	69.7	-90.6	7.1
2025-01-19 18:15:59.647822	238.3	69.9	-90.5	15.2
2025-01-19 18:16:01.942688	241.5	70.1	-90.2	12.5
2025-01-19 18:16:04.241007	244.7	70.2	-91.0	9.5
2025-01-19 18:16:06.537697	248.0	70.2	-91.0	21.9
2025-01-19 18:16:08.828714	251.2	70.2	-90.8	21.8
2025-01-19 18:16:11.127531	254.5	70.2	-91.1	22.4
2025-01-19 18:16:13.427344	257.7	70.1	-91.2	18.0
2025-01-19 18:16:15.725896	260.9	69.9	-91.7	13.6
2025-01-19 18:16:18.017026	264.0	69.7	-91.3	15.7
2025-01-19 18:16:20.317359	267.0	69.4	-91.0	8.0
2025-01-19 18:16:22.611950	269.9	69.0	-91.1	14.1
2025-01-19 18:16:24.904408	272.8	68.7	-91.1	12.7
2025-01-19 18:16:27.202008	275.5	68.2	-91.4	7.6
2025-01-19 18:16:29.501736	278.1	67.8	-90.7	11.8
2025-01-19 18:16:31.798171	280.5	67.3	-91.0	8.1
2025-01-19 18:16:34.096327	282.9	66.7	-91.1	8.4
2025-01-19 18:16:36.387965	285.1	66.2	-91.2	7.4
2025-01-19 18:16:38.685439	287.2	65.6	-91.2	4.7
2025-01-19 18:16:40.981774	289.2	65.0	-91.3	5.9
2025-01-19 18:16:43.276515	291.1	64.3	-90.8	2.3
2025-01-19 18:16:45.577857	292.9	63.7	-90.9	3.1
2025-01-19 18:16:47.876204	294.6	63.0	-90.8	1.9
2025-01-19 18:16:50.171059	296.2	62.3	-91.0	3.3
2025-01-19 18:16:52.464969	297.8	61.6	-90.7	6.3
2025-01-19 18:16:54.770212	299.2	60.9	-90.7	3.2
2025-01-19 18:16:57.067696	300.5	60.2	-90.8	4.6
2025-01-19 18:16:59.363343	301.8	59.5	-90.0	9.0
2025-01-19 18:17:01.648849	303.0	58.8	-90.5	5.9
2025-01-19 18:17:03.936554	304.2	58.1	-90.3	11.1
2025-01-19 18:17:06.228362	305.3	57.3	-90.5	9.1
2025-01-19 18:17:08.521925	306.3	56.6	-90.2	12.5
2025-01-19 18:17:10.815782	307.3	55.9	-91.3	9.5
2025-01-19 18:17:13.114831	308.2	55.2	-91.0	17.2
2025-01-19 18:17:15.405497	309.1	54.5	-90.1	9.6
2025-01-19 18:17:17.702881	309.9	53.8	-91.4	8.0
2025-01-19 18:17:20.016443	310.8	53.0	-90.5	8.8
2025-01-19 18:17:22.301985	311.5	52.3	-90.8	4.2
2025-01-19 18:17:24.558089	312.2	51.7	-91.0	5.2
2025-01-19 18:17:26.800919	312.9	51.0	-90.8	4.9
2025-01-19 18:17:29.042520	313.6	50.3	-90.0	2.7
2025-01-19 18:17:31.282600	314.2	49.6	-90.3	4.8
2025-01-19 18:17:33.537145	314.8	49.0	-90.7	6.4
2025-01-19 18:17:35.832211	315.4	48.3	-91.0	6.3
2025-01-19 18:17:38.127729	316.0	47.6	-90.9	5.1
2025-01-19 18:17:40.432078	316.5	47.0	-91.1	9.7
2025-01-19 18:17:42.731700	317.0	46.3	-90.8	10.1
2025-01-19 18:17:45.024087	317.5	45.7	-91.2	13.2
2025-01-19 18:17:47.324272	318.0	45.1	-90.8	9.8
2025-01-19 18:17:49.615097	318.5	44.5	-91.2	10.9
2025-01-19 18:17:51.914555	318.9	43.8	-90.8	6.6
2025-01-19 18:17:54.211247	319.3	43.2	-90.6	4.8
2025-01-19 18:17:56.501174	319.8	42.6	-91.1	7.4
2025-01-19 18:17:58.797276	320.1	42.0	-90.9	6.4
2025-01-19 18:18:01.090234	320.5	41.5	-90.7	9.9
2025-01-19 18:18:03.392289	320.9	40.9	-90.5	10.7
2025-01-19 18:18:05.687677	321.3	40.3	-91.1	15.0
2025-01-19 18:18:07.983436	321.6	39.8	-90.8	16.1
2025-01-19 18:18:10.281493	321.9	39.2	-89.6	5.7
2025-01-19 18:18:12.583622	322.3	38.7	-90.3	6.2
2025-01-19 18:18:14.868443	322.6	38.1	-90.6	6.0
2025-01-19 18:18:17.144868	322.9	37.6	-90.3	4.8
2025-01-19 18:18:19.441313	323.2	37.1	-90.3	7.3
2025-01-19 18:18:21.741843	323.5	36.6	-90.9	9.3
2025-01-19 18:18:24.039435	323.7	36.1	-91.0	2.8
2025-01-19 18:18:26.331427	324.0	35.6	-91.1	8.3
2025-01-19 18:18:28.626472	324.3	35.1	-90.8	8.0
2025-01-19 18:18:30.926347	324.5	34.6	-91.2	4.4
2025-01-19 18:18:33.231689	324.8	34.1	-90.8	0.8
2025-01-19 18:18:35.526506	325.0	33.6	-90.8	1.9
2025-01-19 18:18:37.829330	325.3	33.2	-89.9	10.3
2025-01-19 18:18:40.125429	325.5	32.7	-90.5	7.9
2025-01-19 18:18:42.419138	325.7	32.3	-90.9	6.3
2025-01-19 18:18:44.713657	325.9	31.8	-91.1	18.5
2025-01-19 18:18:47.012997	326.1	31.4	-90.7	6.3
2025-01-19 18:18:49.309297	326.3	30.9	-90.0	0.9
2025-01-19 18:18:51.604079	326.5	30.5	-90.6	5.2
2025-01-19 18:18:53.901398	326.7	30.1	-91.0	4.1
2025-01-19 18:18:56.184890	326.9	29.7	-90.7	11.2
2025-01-19 18:18:58.458434	327.1	29.3	-90.6	10.5
2025-01-19 18:19:00.722333	327.3	28.9	-91.1	2.1
2025-01-19 18:19:02.982152	327.5	28.5	-90.8	5.7
2025-01-19 18:19:05.251070	327.6	28.1	-91.0	3.3
2025-01-19 18:19:07.530561	327.8	27.7	-90.7	4.1
2025-01-19 18:19:09.814949	328.0	27.3	-90.9	4.8
2025-01-19 18:19:12.106411	328.1	26.9	-90.7	5.2
2025-01-19 18:19:14.381347	328.3	26.6	-90.9	7.3
2025-01-19 18:19:16.658943	328.4	26.2	-91.1	3.1
2025-01-19 18:19:18.944902	328.6	25.8	-90.6	5.8
2025-01-19 18:19:21.230296	328.7	25.5	-90.5	3.4
2025-01-19 18:19:23.516211	328.9	25.1	-90.6	1.8
2025-01-19 18:19:25.804153	329.0	24.8	-90.8	8.6
2025-01-19 18:19:28.096690	329.2	24.4	-90.3	4.2
2025-01-19 18:19:30.349053	329.3	24.1	-90.5	9.0
2025-01-19 18:19:32.613363	329.4	23.8	-90.8	4.1
2025-01-19 18:19:34.867056	329.6	23.4	-90.9	4.5
2025-01-19 18:19:37.126256	329.7	23.1	-91.2	8.2
2025-01-19 18:19:39.377712	329.8	22.8	-90.9	4.7
2025-01-19 18:19:41.625919	329.9	22.5	-91.3	7.9
2025-01-19 18:19:43.881199	330.1	22.2	-91.0	2.8
2025-01-19 18:19:46.141411	330.2	21.9	-90.7	5.1
2025-01-19 18:19:48.384513	330.3	21.6	-90.9	4.6
2025-01-19 18:19:50.627166	330.4	21.3	-91.1	1.6
2025-01-19 18:19:52.869240	330.5	21.0	-90.7	3.3
2025-01-19 18:19:55.144362	330.6	20.7	-90.8	8.6
2025-01-19 18:19:57.429102	330.7	20.4	-90.1	3.1
2025-01-19 18:19:59.678726	330.8	20.1	-90.5	1.4
2025-01-19 18:20:01.942119	330.9	19.8	-90.8	4.1
2025-01-19 18:20:04.204533	331.1	19.5	-90.2	3.0
2025-01-19 18:20:06.564624	331.2	19.2	-90.9	4.6
2025-01-19 18:20:08.893665	331.3	18.9	-90.9	3.5
2025-01-19 18:20:11.141886	331.4	18.7	-90.3	5.1
2025-01-19 18:20:13.396621	331.5	18.4	-91.0	3.1
2025-01-19 18:20:15.669307	331.5	18.1	-91.0	2.5
2025-01-19 18:20:17.926040	331.6	17.9	-90.7	2.8
2025-01-19 18:20:20.189323	331.7	17.6	-90.7	1.2
2025-01-19 18:20:22.464378	331.8	17.3	-91.1	0.3
2025-01-19 18:20:24.751488	331.9	17.1	-90.7	6.7
2025-01-19 18:20:27.045212	332.0	16.8	-90.5	2.1
2025-01-19 18:20:29.330851	332.1	16.6	-90.6	3.5
2025-01-19 18:20:31.626208	332.2	16.3	-90.9	3.5
2025-01-19 18:20:33.919018	332.3	16.1	-91.2	3.4
2025-01-19 18:20:36.204263	332.3	15.8	-90.6	4.0
2025-01-19 18:20:38.495801	332.4	15.6	-90.9	4.9
2025-01-19 18:20:40.790510	332.5	15.3	-90.9	5.8
2025-01-19 18:20:43.084943	332.6	15.1	-90.7	2.9
2025-01-19 18:20:45.379966	332.7	14.9	-91.0	1.5
2025-01-19 18:20:47.675277	332.8	14.6	-91.0	2.4
#Closed at: 2025-01-19 18:11:38.485181