passes_logs/2026/01/07/R2M6_AANII_01/R2M6_AANII_01__20260107_130522_FENGYUN_3E_rec.log

#Pass ID: 20260107_130522_FENGYUN 3E
#Satellite: FENGYUN 3E
#Configuration: FENGYUN 3E
#almurnet v.1.7.20240730
#Start time: 2026-01-07 13:10:24

#Version: 2.2.20231116
#Station: R2M6_AANII_01
#Location: 30.233357 lon 59.946436 lat
#TLE: 1 49008U 21062A   26006.26767912  .00000427  00000+0  22170-3 0  9993
#TLE: 2 49008  98.7475  11.4982 0001602 156.1158 204.0093 14.19885456233607

#Time	Az	El	Level	Level2	SNR	BER	BlckErr	Temp	State	Recorded	gain1	gain2
2026-01-07 13:10:24.43	56.94	30.18	-33.8	-45.1	3.8	8.46e-01	0	43	0	0	27	13234
2026-01-07 13:10:26.44	56.25	30.22	-34.1	-43.1	3.8	8.46e-01	0	43	104	0	29	10145
2026-01-07 13:10:28.45	55.56	30.25	-34.2	-43.2	3.8	8.47e-01	0	44	104	0	29	10204
2026-01-07 13:10:30.46	54.86	30.28	-34.2	-43.2	3.8	8.46e-01	0	43	104	0	29	10153
2026-01-07 13:10:32.47	54.17	30.31	-34.2	-43.1	3.8	8.47e-01	0	44	104	0	29	10137
2026-01-07 13:10:34.48	53.48	30.33	-34.1	-43.1	3.8	8.47e-01	0	44	104	0	29	10125
2026-01-07 13:10:36.50	52.78	30.34	-34.2	-43.1	3.8	8.44e-01	0	43	104	0	29	10079
2026-01-07 13:10:38.51	52.08	30.35	-34.1	-43.2	3.8	8.45e-01	0	44	104	0	29	10185
2026-01-07 13:10:40.52	51.38	30.36	-34.2	-43.3	3.8	8.46e-01	0	44	104	0	29	10265
2026-01-07 13:10:42.53	50.69	30.36	-34.2	-43.3	3.8	8.46e-01	0	44	104	0	29	10212
2026-01-07 13:10:44.55	49.99	30.36	-34.3	-43.5	3.8	8.47e-01	0	44	104	0	29	10371
2026-01-07 13:10:46.56	49.29	30.35	-34.2	-43.3	3.8	8.46e-01	0	44	104	0	29	10194
2026-01-07 13:10:48.58	48.59	30.34	-34.2	-43.1	3.8	8.48e-01	0	44	104	0	29	10083
2026-01-07 13:10:50.59	47.90	30.32	-34.1	-42.9	3.8	8.46e-01	0	44	104	0	29	9961
2026-01-07 13:10:52.60	47.21	30.30	-33.9	-42.3	3.8	8.46e-01	0	44	104	0	29	9416
2026-01-07 13:10:54.62	46.51	30.27	-33.9	-42.6	3.8	8.45e-01	0	44	104	0	29	9699
2026-01-07 13:10:56.63	45.82	30.24	-33.9	-42.5	3.8	8.46e-01	0	44	104	0	29	9669
2026-01-07 13:10:58.65	45.12	30.20	-33.9	-42.6	3.8	8.47e-01	0	44	104	0	28	9839
2026-01-07 13:11:00.66	44.44	30.16	-33.9	-43.0	3.8	8.46e-01	0	44	104	0	28	10268
2026-01-07 13:11:02.66	43.75	30.12	-33.9	-43.2	3.8	8.46e-01	0	44	104	0	28	10422
2026-01-07 13:11:04.67	43.07	30.07	-33.9	-42.7	3.8	8.45e-01	0	44	104	0	28	9930
2026-01-07 13:11:06.68	42.39	30.01	-33.7	-41.7	3.8	8.45e-01	0	44	104	0	28	8947
2026-01-07 13:11:08.70	41.70	29.95	-33.8	-42.2	3.8	8.47e-01	0	44	104	0	28	9490
2026-01-07 13:11:10.71	41.03	29.89	-33.9	-42.6	3.8	8.46e-01	0	44	104	0	28	9874
2026-01-07 13:11:12.73	40.35	29.82	-33.9	-42.6	3.8	8.45e-01	0	44	104	0	28	9784
2026-01-07 13:11:14.73	39.68	29.75	-33.2	-38.4	4.6	8.40e-01	0	44	104	0	27	6564
2026-01-07 13:11:16.75	39.01	29.67	-32.0	-35.0	6.7	2.89e-01	0	44	102	1048576	25	5046
2026-01-07 13:11:18.76	38.34	29.59	-28.3	-29.1	13.0	1.97e-04	0	44	102	1048576	17	3960
2026-01-07 13:11:20.77	37.68	29.51	-28.0	-28.8	13.5	9.10e-06	0	44	102	1048576	16	3979
2026-01-07 13:11:22.78	37.02	29.42	-27.5	-27.8	14.0	1.10e-06	0	44	102	1048576	16	3735
2026-01-07 13:11:24.80	36.37	29.33	-26.7	-27.1	14.9	0.00e+00	0	44	102	1048576	14	3743
2026-01-07 13:11:26.81	35.72	29.23	-27.5	-28.9	13.8	0.00e+00	0	44	102	1048576	14	4212
2026-01-07 13:11:28.82	35.07	29.13	-26.2	-26.5	15.4	0.00e+00	0	44	102	1048576	13	3724
2026-01-07 13:11:30.84	34.43	29.03	-25.0	-24.8	16.9	0.00e+00	0	44	102	1048576	11	3538
2026-01-07 13:11:32.84	33.79	28.92	-24.0	-23.9	17.9	0.00e+00	0	44	102	1048576	9	3520
2026-01-07 13:11:34.86	33.15	28.81	-23.7	-23.6	18.3	0.00e+00	0	44	102	1048576	8	3562
2026-01-07 13:11:36.88	32.52	28.70	-23.8	-23.7	18.2	0.00e+00	0	44	102	1048576	8	3597
2026-01-07 13:11:38.89	31.90	28.58	-23.4	-23.1	18.5	0.00e+00	0	44	102	1048576	8	3450
2026-01-07 13:11:40.91	31.27	28.46	-23.5	-23.2	18.5	0.00e+00	0	44	102	1048576	8	3487
2026-01-07 13:11:42.92	30.66	28.33	-23.9	-23.9	18.1	0.00e+00	0	44	102	1048576	8	3641
2026-01-07 13:11:44.94	30.05	28.21	-23.9	-24.2	18.0	0.00e+00	0	44	102	1048576	8	3686
2026-01-07 13:11:46.95	29.44	28.08	-23.9	-24.1	18.0	0.00e+00	0	44	102	1048576	8	3663
2026-01-07 13:11:48.96	28.84	27.94	-24.1	-24.4	17.8	0.00e+00	0	44	102	1048576	8	3743
2026-01-07 13:11:50.98	28.24	27.81	-24.4	-25.0	17.5	0.00e+00	0	44	102	1048576	8	3889
2026-01-07 13:11:52.99	27.65	27.67	-23.8	-23.8	18.1	0.00e+00	0	44	102	1048576	8	3616
2026-01-07 13:11:55.00	27.07	27.53	-23.6	-23.4	18.3	0.00e+00	0	44	102	1048576	8	3528
2026-01-07 13:11:57.01	26.49	27.38	-23.5	-23.2	18.4	0.00e+00	0	44	102	1048576	8	3490
2026-01-07 13:11:59.03	25.91	27.24	-23.6	-23.4	18.3	0.00e+00	0	44	102	1048576	8	3533
2026-01-07 13:12:01.05	25.34	27.09	-23.6	-23.5	18.3	0.00e+00	0	44	102	1048576	8	3542
2026-01-07 13:12:03.06	24.78	26.94	-23.6	-23.5	18.3	0.00e+00	0	44	102	1048576	8	3548
2026-01-07 13:12:05.08	24.22	26.78	-23.7	-23.6	18.0	0.00e+00	0	44	102	1048576	8	3578
2026-01-07 13:12:07.09	23.66	26.63	-23.7	-23.6	18.2	0.00e+00	0	44	102	1048576	8	3572
2026-01-07 13:12:09.11	23.11	26.47	-23.6	-23.3	18.3	0.00e+00	0	44	102	1048576	8	3508
2026-01-07 13:12:11.12	22.57	26.31	-23.9	-24.2	17.9	0.00e+00	0	44	102	1048576	8	3686
2026-01-07 13:12:13.14	22.03	26.15	-24.1	-24.4	17.8	0.00e+00	0	44	102	1048576	8	3755
2026-01-07 13:12:15.15	21.50	25.99	-24.2	-24.7	17.6	0.00e+00	0	44	102	1048576	8	3824
2026-01-07 13:12:17.16	20.98	25.82	-24.3	-24.8	17.6	0.00e+00	0	44	102	1048576	8	3835
2026-01-07 13:12:19.18	20.46	25.66	-24.4	-25.1	17.4	0.00e+00	0	44	102	1048576	8	3906
2026-01-07 13:12:21.19	19.94	25.49	-23.7	-23.6	18.2	0.00e+00	0	44	102	1048576	8	3558
2026-01-07 13:12:23.20	19.43	25.32	-23.5	-23.1	18.4	0.00e+00	0	44	102	1048576	8	3470
2026-01-07 13:12:25.21	18.93	25.15	-23.6	-23.3	18.3	0.00e+00	0	44	102	1048576	8	3508
2026-01-07 13:12:27.22	18.43	24.98	-23.6	-23.4	18.3	0.00e+00	0	44	102	1048576	8	3519
2026-01-07 13:12:29.23	17.94	24.81	-23.6	-23.5	18.3	0.00e+00	0	44	102	1048576	8	3538
2026-01-07 13:12:31.24	17.45	24.63	-23.7	-23.6	18.2	0.00e+00	0	44	102	1048576	8	3561
2026-01-07 13:12:33.26	16.97	24.46	-23.5	-23.2	18.4	0.00e+00	0	44	102	1048576	8	3477
2026-01-07 13:12:35.27	16.49	24.28	-23.4	-23.1	18.4	0.00e+00	0	44	102	1048576	8	3457
2026-01-07 13:12:37.29	16.02	24.10	-23.6	-23.8	18.3	0.00e+00	0	44	102	1048576	7	3720
2026-01-07 13:12:39.30	15.56	23.93	-23.7	-24.1	18.1	0.00e+00	0	44	102	1048576	7	3786
2026-01-07 13:12:41.32	15.09	23.75	-23.9	-24.6	17.8	0.00e+00	0	44	102	1048576	7	3910
2026-01-07 13:12:43.33	14.64	23.57	-23.8	-24.3	18.0	0.00e+00	0	44	102	1048576	7	3816
2026-01-07 13:12:45.34	14.19	23.39	-23.8	-24.2	18.0	0.00e+00	0	44	102	1048576	7	3812
2026-01-07 13:12:47.36	13.75	23.20	-23.7	-24.2	18.0	0.00e+00	0	44	102	1048576	7	3798
2026-01-07 13:12:49.37	13.31	23.02	-23.9	-24.6	17.8	0.00e+00	0	44	102	1048576	7	3896
2026-01-07 13:12:51.38	12.87	22.84	-24.0	-24.8	17.7	0.00e+00	0	44	102	1048576	7	3939
2026-01-07 13:12:53.40	12.44	22.66	-24.1	-24.6	17.6	0.00e+00	0	44	102	1048576	8	3787
2026-01-07 13:12:55.41	12.02	22.48	-24.2	-24.7	17.6	0.00e+00	0	44	102	1048576	8	3803
2026-01-07 13:12:57.43	11.60	22.29	-24.0	-24.2	17.8	0.00e+00	0	44	102	1048576	8	3704
2026-01-07 13:12:59.44	11.19	22.11	-24.2	-24.6	17.6	0.00e+00	0	44	102	1048576	8	3797
2026-01-07 13:13:01.46	10.77	21.92	-24.0	-24.2	17.8	0.00e+00	0	44	102	1048576	8	3692
2026-01-07 13:13:03.48	10.37	21.74	-23.9	-24.0	17.9	0.00e+00	0	44	102	1048576	8	3662
2026-01-07 13:13:05.50	9.97	21.56	-23.9	-24.1	17.8	0.00e+00	0	44	102	1048576	8	3686
2026-01-07 13:13:07.51	9.58	21.37	-24.1	-24.5	17.6	0.00e+00	0	44	102	1048576	8	3770
2026-01-07 13:13:09.53	9.18	21.19	-24.1	-24.5	17.6	0.00e+00	0	44	102	1048576	8	3781
2026-01-07 13:13:11.54	8.80	21.00	-24.2	-24.6	17.5	0.00e+00	0	44	102	1048576	8	3800
2026-01-07 13:13:13.56	8.42	20.82	-24.2	-24.7	17.4	0.00e+00	0	44	102	1048576	8	3820
2026-01-07 13:13:15.56	8.04	20.63	-24.3	-24.9	17.3	0.00e+00	0	44	102	1048576	8	3863
2026-01-07 13:13:17.58	7.67	20.45	-24.3	-24.8	17.4	0.00e+00	0	44	102	1048576	8	3841
2026-01-07 13:13:19.59	7.31	20.27	-24.3	-24.9	17.3	0.00e+00	0	44	102	1048576	8	3868
2026-01-07 13:13:21.61	6.94	20.08	-24.3	-25.0	17.3	0.00e+00	0	44	102	1048576	8	3881
2026-01-07 13:13:23.62	6.59	19.90	-24.1	-24.4	17.6	0.00e+00	0	44	102	1048576	8	3752
2026-01-07 13:13:25.64	6.23	19.71	-24.0	-24.4	17.6	0.00e+00	0	44	102	1048576	8	3740
2026-01-07 13:13:27.65	5.88	19.53	-24.1	-24.4	17.6	0.00e+00	0	44	102	1048576	8	3743
2026-01-07 13:13:29.66	5.54	19.35	-24.2	-24.7	17.5	0.00e+00	0	44	102	1048576	8	3811
2026-01-07 13:13:31.67	5.20	19.16	-24.3	-24.9	17.3	0.00e+00	0	44	102	1048576	8	3873
2026-01-07 13:13:33.68	4.86	18.98	-24.4	-25.1	17.1	0.00e+00	0	44	102	1048576	8	3910
2026-01-07 13:13:35.70	4.53	18.80	-24.4	-25.1	17.1	0.00e+00	0	44	102	1048576	8	3914
2026-01-07 13:13:37.72	4.20	18.61	-24.5	-24.9	17.0	0.00e+00	0	44	102	1048576	9	3770
2026-01-07 13:13:39.73	3.87	18.43	-24.6	-25.1	16.9	0.00e+00	0	44	102	1048576	9	3799
2026-01-07 13:13:41.75	3.55	18.25	-24.9	-25.6	16.6	0.00e+00	0	44	102	1048576	9	3919
2026-01-07 13:13:43.76	3.24	18.07	-24.9	-25.7	16.6	0.00e+00	0	44	102	1048576	9	3954
2026-01-07 13:13:45.77	2.92	17.89	-25.1	-26.1	16.4	0.00e+00	0	44	102	1048576	9	4032
2026-01-07 13:13:47.79	2.61	17.71	-25.1	-25.7	16.4	0.00e+00	0	44	102	1048576	10	3838
2026-01-07 13:13:49.80	2.31	17.53	-24.9	-25.3	16.6	0.00e+00	0	44	102	1048576	10	3743
2026-01-07 13:13:51.81	2.01	17.35	-25.1	-25.7	16.3	0.00e+00	0	44	102	1048576	10	3845
2026-01-07 13:13:53.82	1.71	17.17	-25.4	-26.3	16.0	0.00e+00	0	44	102	1048576	10	3993
2026-01-07 13:13:55.83	1.42	17.00	-25.5	-26.5	15.9	0.00e+00	0	44	102	1048576	10	4053
2026-01-07 13:13:57.85	1.13	16.82	-25.3	-26.1	16.1	0.00e+00	0	44	102	1048576	10	3930
2026-01-07 13:13:59.87	0.84	16.64	-25.3	-26.1	16.0	0.00e+00	0	44	102	1048576	10	3939
2026-01-07 13:14:01.88	0.55	16.46	-25.3	-26.0	16.1	0.00e+00	0	44	102	1048576	10	3914
2026-01-07 13:14:03.89	0.27	16.29	-24.9	-25.2	16.5	0.00e+00	0	44	102	1048576	10	3735
2026-01-07 13:14:05.91	360.00	16.11	-25.1	-25.6	16.3	0.00e+00	0	44	102	1048576	10	3828
2026-01-07 13:14:07.92	359.72	15.94	-25.0	-25.5	16.4	0.00e+00	0	44	102	1048576	10	3790
2026-01-07 13:14:09.93	359.45	15.76	-25.2	-25.8	16.2	0.00e+00	0	44	102	1048576	10	3864
2026-01-07 13:14:11.94	359.18	15.59	-25.4	-26.3	15.9	0.00e+00	0	44	102	1048576	10	3999
2026-01-07 13:14:13.96	358.92	15.42	-25.6	-26.2	15.7	0.00e+00	0	44	102	1048576	11	3868
2026-01-07 13:14:15.98	358.66	15.24	-25.8	-26.6	15.4	0.00e+00	0	44	102	1048576	11	3966
2026-01-07 13:14:18.00	358.40	15.07	-25.8	-26.7	15.4	0.00e+00	0	44	102	1048576	11	3991
2026-01-07 13:14:20.01	358.14	14.90	-25.7	-26.4	15.5	0.00e+00	0	44	102	1048576	11	3921
2026-01-07 13:14:22.02	357.89	14.73	-25.6	-26.2	15.7	0.00e+00	0	44	102	1048576	11	3852
2026-01-07 13:14:24.04	357.64	14.56	-25.3	-25.7	15.9	0.00e+00	0	44	102	1048576	11	3736
2026-01-07 13:14:26.05	357.40	14.39	-25.6	-26.1	15.6	0.00e+00	0	44	102	1048576	11	3843
2026-01-07 13:14:28.06	357.15	14.22	-25.6	-26.3	15.5	0.00e+00	0	44	102	1048576	11	3874
2026-01-07 13:14:30.08	356.91	14.05	-25.8	-26.6	15.4	0.00e+00	0	44	102	1048576	11	3950
2026-01-07 13:14:32.09	356.68	13.89	-25.9	-27.0	15.2	0.00e+00	0	44	102	1048576	11	4049
2026-01-07 13:14:34.10	356.44	13.72	-26.5	-27.8	14.3	0.00e+00	0	44	102	1048576	12	4167
2026-01-07 13:14:36.11	356.21	13.55	-25.9	-26.5	15.1	0.00e+00	0	44	102	1048576	12	3829
2026-01-07 13:14:38.13	355.98	13.39	-25.7	-25.9	15.4	1.10e-06	0	44	102	1048576	12	3703
2026-01-07 13:14:40.15	355.75	13.22	-25.7	-26.0	15.3	0.00e+00	0	44	102	1048576	12	3709
2026-01-07 13:14:42.16	355.53	13.06	-25.8	-26.3	15.2	0.00e+00	0	44	102	1048576	12	3784
2026-01-07 13:14:44.17	355.31	12.89	-26.0	-26.7	14.9	0.00e+00	0	44	102	1048576	12	3880
2026-01-07 13:14:46.19	355.08	12.73	-26.2	-27.2	14.7	0.00e+00	0	44	102	1048576	12	3999
2026-01-07 13:14:48.20	354.87	12.57	-26.4	-27.5	14.5	2.20e-06	0	44	102	1048576	12	4088
2026-01-07 13:14:50.20	354.66	12.41	-26.4	-27.5	14.4	0.00e+00	0	44	102	1048576	12	4099
2026-01-07 13:14:52.21	354.44	12.25	-26.4	-27.6	14.4	1.10e-06	0	44	102	1048576	12	4113
2026-01-07 13:14:54.22	354.23	12.09	-26.3	-27.2	14.6	2.20e-06	0	44	102	1048576	12	4018
2026-01-07 13:14:56.24	354.03	11.93	-26.2	-27.1	14.6	0.00e+00	0	44	102	1048576	12	3989
2026-01-07 13:14:58.25	353.82	11.77	-26.1	-26.9	14.8	0.00e+00	0	44	102	1048576	12	3946
2026-01-07 13:15:00.27	353.62	11.61	-26.4	-27.4	14.4	1.10e-06	0	44	102	1048576	12	4069
2026-01-07 13:15:02.28	353.42	11.45	-26.2	-27.0	14.7	0.00e+00	0	44	102	1048576	12	3952
2026-01-07 13:15:04.29	353.22	11.30	-26.2	-27.1	14.6	0.00e+00	0	44	102	1048576	12	3994
2026-01-07 13:15:06.31	353.02	11.14	-26.4	-27.6	14.4	2.20e-06	0	44	102	1048576	12	4105
2026-01-07 13:15:08.30	352.83	10.99	-26.3	-27.3	14.4	0.00e+00	0	44	102	1048576	12	4050
2026-01-07 13:15:10.31	352.64	10.83	-26.4	-27.5	14.4	3.40e-06	0	44	102	1048576	12	4094
2026-01-07 13:15:12.33	352.45	10.68	-26.5	-27.7	14.2	0.00e+00	0	44	102	1048576	12	4149
2026-01-07 13:15:14.34	352.26	10.52	-26.4	-27.5	14.3	1.10e-06	0	44	102	1048576	12	4096
2026-01-07 13:15:16.35	352.08	10.37	-26.5	-27.8	14.2	1.10e-06	0	44	102	1048576	12	4160
2026-01-07 13:15:18.36	351.89	10.22	-26.6	-27.5	14.1	2.20e-06	0	44	102	1048576	13	3993
2026-01-07 13:15:20.37	351.71	10.07	-26.6	-27.5	14.0	1.10e-06	0	44	102	1048576	13	3990
2026-01-07 13:15:22.39	351.53	9.92	-26.6	-27.6	14.0	6.80e-06	0	44	102	1048576	13	4008
2026-01-07 13:15:24.40	351.36	9.77	-26.6	-27.6	13.9	3.40e-06	0	44	102	1048576	13	4016
2026-01-07 13:15:26.41	351.18	9.62	-26.5	-27.3	14.1	2.20e-06	0	44	102	1048576	13	3938
2026-01-07 13:15:28.43	351.01	9.47	-26.5	-27.4	14.1	2.20e-06	0	44	102	1048576	13	3960
2026-01-07 13:15:30.44	350.83	9.32	-26.4	-27.0	14.2	1.10e-06	0	44	102	1048576	13	3873
2026-01-07 13:15:32.45	350.66	9.17	-26.4	-27.0	14.2	2.20e-06	0	44	102	1048576	13	3873
2026-01-07 13:15:34.46	350.50	9.03	-26.4	-27.0	14.3	2.20e-06	0	44	102	1048576	13	3853
2026-01-07 13:15:36.48	350.33	8.88	-26.3	-26.9	14.3	0.00e+00	0	44	102	1048576	13	3841
2026-01-07 13:15:38.49	350.16	8.73	-26.5	-27.2	14.1	2.20e-06	0	44	102	1048576	13	3900
2026-01-07 13:15:40.51	350.00	8.59	-26.6	-27.4	14.0	2.20e-06	0	44	102	1048576	13	3970
2026-01-07 13:15:42.53	349.84	8.44	-26.8	-27.9	13.7	4.50e-06	0	44	102	1048576	13	4097
2026-01-07 13:15:44.54	349.68	8.30	-26.9	-28.3	13.4	1.60e-05	0	44	102	1048576	13	4203
2026-01-07 13:15:46.56	349.52	8.15	-27.3	-28.6	13.0	4.00e-05	0	44	102	1048576	14	4177
2026-01-07 13:15:48.57	349.36	8.01	-27.4	-28.9	12.8	7.09e-05	0	44	102	1048576	14	4287
2026-01-07 13:15:50.58	349.21	7.87	-27.6	-28.9	12.4	1.46e-04	0	44	102	1048576	15	4185
2026-01-07 13:15:52.60	349.05	7.73	-27.8	-29.4	12.1	3.16e-04	0	44	102	1048576	15	4306
2026-01-07 13:15:54.60	348.90	7.59	-27.6	-28.8	12.5	1.93e-04	0	44	102	1048576	15	4149
2026-01-07 13:15:56.62	348.75	7.45	-27.6	-28.9	12.4	1.54e-04	0	44	102	1048576	15	4158
2026-01-07 13:15:58.63	348.60	7.31	-27.6	-29.0	12.3	1.66e-04	0	44	102	1048576	15	4185
2026-01-07 13:16:00.65	348.46	7.17	-27.9	-29.5	12.0	2.91e-04	0	44	102	1048576	15	4346
2026-01-07 13:16:02.66	348.31	7.03	-32.9	-41.8	3.8	2.20e-01	0	44	102	1048576	25	10037

#Closed at: 2026-01-07 13:16:04
#Recorded file [1 MB]: D:/data/31010_260107_161115.dat