passes_logs/2026/01/07/R2M6_AANII_01/R2M6_AANII_01__20260107_233624_NOAA_21_JPSS-2_rec.log

#Pass ID: 20260107_233624_NOAA 21 (JPSS-2)
#Satellite: NOAA 21 (JPSS-2)
#Configuration: NOAA 21
#almurnet v.1.7.20240730
#Start time: 2026-01-07 23:36:24

#Version: 2.2.20231116
#Station: R2M6_AANII_01
#Location: 30.233357 lon 59.946436 lat
#TLE: 1 54234U 22150A   26005.56767909  .00000152  00000+0  92756-4 0  9990
#TLE: 2 54234  98.7490 306.5820 0001036 340.2747  19.8389 14.19532370163472

#Time	Az	El	Level	Level2	SNR	BER	BlckErr	Temp	State	Recorded	gain1	gain2
2026-01-07 23:36:24.78	22.45	7.04	-29.8	-34.6	4.7	1.38e+00	0	41	0	0	19	6240
2026-01-07 23:36:27.79	22.59	7.26	-30.4	-35.3	8.0	6.43e-02	0	41	0	3145728	20	6305
2026-01-07 23:36:30.81	22.72	7.49	-30.0	-33.7	9.2	2.63e-02	0	41	0	12582912	20	5555
2026-01-07 23:36:33.83	22.86	7.72	-29.8	-33.6	9.8	1.14e-02	0	41	0	22020096	19	5558
2026-01-07 23:36:36.85	23.00	7.95	-29.1	-32.1	11.1	1.63e-03	0	41	0	31457280	18	5079
2026-01-07 23:36:39.87	23.15	8.18	-28.8	-31.8	11.6	7.29e-04	0	41	0	40894464	17	5101
2026-01-07 23:36:42.89	23.29	8.41	-28.4	-31.4	12.2	2.20e-04	0	42	0	50331648	16	5045
2026-01-07 23:36:45.92	23.44	8.65	-28.5	-31.0	12.2	3.53e-04	0	42	0	59768832	17	4801
2026-01-07 23:36:48.94	23.59	8.88	-28.2	-30.7	12.7	6.94e-05	0	42	0	69206016	16	4807
2026-01-07 23:36:51.96	23.74	9.12	-28.1	-30.5	12.8	5.34e-05	0	42	0	78643200	16	4751
2026-01-07 23:36:54.98	23.90	9.37	-27.8	-30.4	13.1	3.34e-04	0	42	0	88080384	15	4815
2026-01-07 23:36:58.00	24.05	9.61	-27.9	-30.6	13.0	3.66e-05	0	42	0	97517568	15	4882
2026-01-07 23:37:01.03	24.21	9.86	-27.7	-30.1	13.3	6.13e-04	0	42	0	106954752	15	4723
2026-01-07 23:37:04.03	24.37	10.11	-27.7	-30.1	13.3	1.37e-05	0	42	0	116391936	15	4719
2026-01-07 23:37:07.04	24.54	10.36	-28.2	-30.7	12.8	5.65e-04	0	42	0	125829120	16	4805
2026-01-07 23:37:10.05	24.70	10.61	-27.4	-29.2	13.9	6.61e-04	0	42	0	135266304	15	4451
2026-01-07 23:37:13.07	24.87	10.86	-27.3	-29.6	14.0	4.45e-04	0	42	0	143654912	14	4666
2026-01-07 23:37:16.09	25.05	11.12	-27.7	-30.1	13.4	5.21e-04	0	42	0	154140672	15	4707
2026-01-07 23:37:19.12	25.22	11.39	-27.4	-29.3	13.9	4.00e-04	0	42	0	163577856	15	4471
2026-01-07 23:37:22.15	25.40	11.65	-27.5	-29.9	13.8	5.10e-04	0	42	0	173015040	14	4771
2026-01-07 23:37:25.17	25.58	11.92	-27.1	-29.1	14.3	0.00e+00	0	42	0	182452224	14	4513
2026-01-07 23:37:28.19	25.76	12.19	-27.1	-29.0	14.4	6.94e-04	0	42	0	191889408	14	4478
2026-01-07 23:37:31.20	25.95	12.46	-27.1	-29.0	14.4	7.00e-07	0	42	0	201326592	14	4488
2026-01-07 23:37:34.22	26.14	12.73	-27.2	-29.1	14.3	8.67e-04	0	42	0	210763776	14	4527
2026-01-07 23:37:37.24	26.33	13.01	-27.1	-29.0	14.5	0.00e+00	0	42	0	220200960	14	4478
2026-01-07 23:37:40.26	26.53	13.29	-27.0	-28.7	14.6	2.20e-06	0	42	0	229638144	14	4407
2026-01-07 23:37:43.28	26.73	13.57	-27.0	-28.8	14.5	1.50e-06	0	43	0	238026752	14	4433
2026-01-07 23:37:46.30	26.94	13.86	-27.2	-28.8	14.3	1.50e-06	0	43	0	248512512	15	4300
2026-01-07 23:37:49.31	27.14	14.15	-27.3	-29.5	14.2	1.50e-06	0	43	0	257949696	14	4641
2026-01-07 23:37:52.33	27.36	14.44	-27.4	-29.7	14.1	7.00e-07	0	43	0	267386880	14	4707
2026-01-07 23:37:55.35	27.57	14.74	-27.7	-29.9	13.7	2.20e-06	0	43	0	276824064	15	4654
2026-01-07 23:37:58.37	27.79	15.04	-27.2	-29.3	14.3	0.00e+00	0	43	0	285212672	14	4573
2026-01-07 23:38:01.39	28.01	15.34	-27.0	-28.8	14.6	7.00e-07	0	43	0	295698432	14	4428
2026-01-07 23:38:04.41	28.24	15.64	-27.0	-28.9	14.6	7.00e-07	0	43	0	305135616	14	4442
2026-01-07 23:38:07.42	28.48	15.95	-27.2	-29.2	14.4	1.50e-06	0	43	0	313524224	14	4549
2026-01-07 23:38:10.45	28.71	16.27	-27.3	-29.4	14.3	7.00e-07	0	43	0	324009984	14	4604
2026-01-07 23:38:13.47	28.96	16.58	-27.1	-29.1	14.6	0.00e+00	0	43	0	332398592	14	4495
2026-01-07 23:38:16.49	29.20	16.90	-27.2	-29.1	14.5	1.82e-03	0	43	0	342884352	14	4508
2026-01-07 23:38:19.51	29.46	17.23	-27.3	-29.4	14.4	0.00e+00	0	43	0	352321536	14	4595
2026-01-07 23:38:22.52	29.71	17.56	-27.3	-29.4	14.4	1.50e-03	0	43	0	360710144	14	4595
2026-01-07 23:38:25.54	29.97	17.89	-27.2	-29.2	14.5	0.00e+00	0	43	0	371195904	14	4534
2026-01-07 23:38:28.56	30.24	18.22	-27.2	-29.2	14.5	1.14e-03	0	43	0	380633088	14	4524
2026-01-07 23:38:31.57	30.52	18.56	-27.1	-29.0	14.7	3.79e-04	0	43	0	389021696	14	4453
2026-01-07 23:38:34.59	30.80	18.91	-27.0	-28.7	14.8	1.26e-03	0	43	0	399507456	14	4395
2026-01-07 23:38:37.61	31.08	19.26	-27.1	-28.8	14.8	6.86e-04	0	43	0	407896064	14	4421
2026-01-07 23:38:40.62	31.37	19.61	-26.8	-28.7	15.1	7.57e-04	0	43	0	417333248	13	4477
2026-01-07 23:38:43.64	31.67	19.96	-26.8	-28.8	15.1	1.80e-03	0	43	0	427819008	13	4537
2026-01-07 23:38:46.65	31.98	20.32	-26.7	-28.6	15.2	5.84e-04	0	43	0	436207616	13	4455
2026-01-07 23:38:49.67	32.29	20.69	-26.7	-28.5	15.3	1.58e-03	0	43	0	445644800	13	4441
2026-01-07 23:38:52.68	32.61	21.06	-26.6	-28.2	15.5	4.30e-04	0	43	0	455081984	13	4349
2026-01-07 23:38:55.70	32.94	21.44	-26.1	-27.7	16.0	2.56e-04	0	43	0	464519168	12	4328
2026-01-07 23:38:58.72	33.27	21.82	-26.2	-27.8	16.0	0.00e+00	0	43	0	473956352	12	4344
2026-01-07 23:39:01.74	33.61	22.20	-26.2	-27.8	16.0	4.24e-04	0	43	0	483393536	12	4332
2026-01-07 23:39:04.76	33.96	22.59	-26.0	-27.4	16.2	0.00e+00	0	43	0	492830720	12	4235
2026-01-07 23:39:07.79	34.33	22.99	-25.9	-27.3	16.3	0.00e+00	0	43	0	502267904	12	4201
2026-01-07 23:39:10.80	34.69	23.38	-26.0	-27.3	16.3	0.00e+00	0	43	0	511705088	12	4221
2026-01-07 23:39:13.82	35.07	23.79	-25.9	-27.3	16.3	0.00e+00	0	43	0	521142272	12	4194
2026-01-07 23:39:16.83	35.46	24.20	-26.0	-27.4	16.3	0.00e+00	0	43	0	530579456	12	4226
2026-01-07 23:39:19.85	35.86	24.61	-26.1	-27.5	16.2	0.00e+00	0	43	0	540016640	12	4273
2026-01-07 23:39:22.88	36.27	25.04	-26.0	-27.4	16.3	0.00e+00	0	43	0	549453824	12	4224
2026-01-07 23:39:25.90	36.68	25.46	-26.2	-27.9	16.1	0.00e+00	0	43	0	558891008	12	4357
2026-01-07 23:39:28.91	37.11	25.89	-26.4	-28.3	15.9	0.00e+00	0	43	0	568328192	12	4478
2026-01-07 23:39:31.94	37.56	26.33	-26.6	-28.2	15.6	0.00e+00	0	43	0	577765376	13	4348
2026-01-07 23:39:34.96	38.01	26.77	-26.7	-28.4	15.5	0.00e+00	0	43	0	587202560	13	4386
2026-01-07 23:39:37.98	38.48	27.22	-26.6	-28.5	15.4	0.00e+00	0	43	0	596639744	13	4463
2026-01-07 23:39:41.00	38.95	27.67	-26.9	-28.5	15.2	0.00e+00	0	43	0	606076928	14	4305
2026-01-07 23:39:44.01	39.45	28.13	-26.8	-28.1	15.5	0.00e+00	0	43	0	615514112	14	4209
2026-01-07 23:39:47.03	39.95	28.59	-26.8	-28.3	15.4	3.39e-04	0	43	0	624951296	14	4241
2026-01-07 23:39:50.04	40.47	29.06	-26.8	-28.1	15.5	4.27e-04	0	43	0	634388480	14	4189
2026-01-07 23:39:53.06	41.01	29.53	-26.7	-28.0	15.5	6.63e-05	0	43	0	643825664	14	4179
2026-01-07 23:39:56.07	41.56	30.01	-26.8	-28.2	15.5	0.00e+00	0	43	0	653262848	14	4226
2026-01-07 23:39:59.08	42.12	30.50	-26.7	-28.0	15.6	2.17e-04	0	43	0	662700032	14	4170
2026-01-07 23:40:02.11	42.71	30.99	-26.5	-27.5	15.9	1.14e-04	0	43	0	672137216	14	4032
2026-01-07 23:40:05.13	43.31	31.48	-26.5	-27.4	15.9	1.60e-05	0	43	0	681574400	14	4019
2026-01-07 23:40:08.14	43.93	31.98	-26.6	-27.7	15.8	0.00e+00	0	43	0	691011584	14	4078
2026-01-07 23:40:11.16	44.57	32.49	-26.5	-27.6	15.9	0.00e+00	0	43	0	700448768	14	4050
2026-01-07 23:40:14.17	45.23	33.00	-26.7	-27.9	15.7	1.22e-05	0	43	0	709885952	14	4139
2026-01-07 23:40:17.18	45.91	33.51	-26.9	-28.3	15.5	0.00e+00	0	43	0	719323136	14	4256
2026-01-07 23:40:20.20	46.61	34.03	-27.0	-28.5	15.4	0.00e+00	0	43	0	728760320	14	4305
2026-01-07 23:40:23.23	47.34	34.55	-27.5	-29.7	14.7	7.00e-07	0	43	0	738197504	14	4643
2026-01-07 23:40:26.25	48.09	35.08	-27.5	-29.3	14.7	0.00e+00	0	43	0	747634688	15	4414
2026-01-07 23:40:29.27	48.86	35.61	-27.7	-29.7	14.4	1.50e-06	0	43	0	757071872	15	4532
2026-01-07 23:40:32.29	49.65	36.14	-27.8	-30.0	14.3	7.00e-07	0	43	0	766509056	15	4631
2026-01-07 23:40:35.30	50.48	36.68	-28.4	-30.8	13.7	6.10e-06	0	43	0	775946240	16	4743
2026-01-07 23:40:38.31	51.32	37.21	-28.7	-30.9	13.3	1.22e-05	0	43	0	785383424	17	4681
2026-01-07 23:40:41.33	52.20	37.75	-28.7	-30.9	13.4	2.13e-05	0	43	0	794820608	17	4664
2026-01-07 23:40:44.34	53.11	38.29	-28.4	-30.3	13.7	8.30e-06	0	43	0	804257792	17	4483
2026-01-07 23:40:47.35	54.04	38.83	-28.9	-31.4	13.1	3.43e-05	0	43	0	813694976	17	4826
2026-01-07 23:40:50.38	55.01	39.37	-29.0	-31.3	12.8	5.95e-05	0	43	0	823132160	18	4700
2026-01-07 23:40:53.40	56.01	39.91	-29.1	-31.4	12.9	5.26e-05	0	43	0	832569344	18	4726
2026-01-07 23:40:56.42	57.05	40.45	-29.3	-32.0	12.5	1.27e-04	0	43	0	842006528	18	4920
2026-01-07 23:40:59.43	58.12	40.99	-29.3	-31.5	12.4	1.46e-04	0	43	0	851443712	19	4633
2026-01-07 23:41:02.44	59.22	41.52	-29.2	-31.2	12.6	9.30e-05	0	43	0	860880896	19	4539
2026-01-07 23:41:05.46	60.36	42.05	-29.0	-31.3	12.9	4.42e-05	0	43	0	870318080	18	4691
2026-01-07 23:41:08.48	61.54	42.57	-28.9	-31.0	13.1	3.20e-05	0	43	0	879755264	18	4595
2026-01-07 23:41:11.50	62.75	43.09	-28.9	-30.9	13.1	2.21e-05	0	43	0	889192448	18	4558
2026-01-07 23:41:14.52	64.01	43.60	-28.9	-31.0	13.1	2.36e-05	0	44	0	898629632	18	4584
2026-01-07 23:41:17.54	65.31	44.10	-29.2	-31.7	12.7	9.38e-05	0	44	0	908066816	18	4814
2026-01-07 23:41:20.56	66.64	44.59	-29.2	-31.8	12.7	1.09e-04	0	43	0	917504000	18	4824
2026-01-07 23:41:23.57	68.02	45.07	-29.5	-32.4	12.3	1.70e-04	0	43	0	926941184	18	5051
2026-01-07 23:41:26.59	69.44	45.54	-29.1	-31.4	13.0	5.11e-05	0	43	0	936378368	18	4693
2026-01-07 23:41:29.61	70.90	45.99	-28.7	-30.5	13.4	1.44e-05	0	43	0	945815552	18	4431
2026-01-07 23:41:32.63	72.40	46.43	-29.1	-31.5	12.8	4.73e-05	0	43	0	955252736	18	4736
2026-01-07 23:41:35.65	73.95	46.85	-29.0	-31.2	13.0	3.35e-05	0	43	0	964689920	18	4647
2026-01-07 23:41:38.67	75.53	47.25	-29.0	-31.3	12.9	4.95e-05	0	43	0	974127104	18	4654
2026-01-07 23:41:41.70	77.16	47.63	-28.9	-31.0	13.1	3.12e-05	0	43	0	983564288	18	4565
2026-01-07 23:41:44.71	78.82	47.99	-29.2	-31.6	12.8	7.40e-05	0	43	0	993001472	18	4788
2026-01-07 23:41:47.73	80.52	48.33	-28.9	-30.9	13.3	1.29e-05	0	43	0	1002438656	18	4540
2026-01-07 23:41:50.75	82.26	48.64	-29.2	-31.8	12.6	1.07e-04	0	44	0	1011875840	18	4823
2026-01-07 23:41:53.77	84.03	48.92	-28.4	-30.2	13.9	2.20e-06	0	43	0	1021313024	17	4437
2026-01-07 23:41:56.79	85.83	49.18	-28.7	-31.0	13.5	1.06e-05	0	43	0	1030750208	17	4688
2026-01-07 23:41:59.80	87.66	49.41	-28.5	-30.5	13.8	6.80e-06	0	43	0	1040187392	17	4539
2026-01-07 23:42:02.82	89.51	49.61	-28.4	-30.3	13.9	1.50e-06	0	43	0	1049624576	17	4475
2026-01-07 23:42:05.84	91.39	49.77	-28.6	-30.7	13.6	3.00e-06	0	44	0	1059061760	17	4596
2026-01-07 23:42:08.86	93.29	49.91	-28.7	-30.9	13.6	9.10e-06	0	43	0	1068498944	17	4654
2026-01-07 23:42:11.87	95.20	50.01	-28.4	-30.3	13.9	3.00e-06	0	43	0	1077936128	17	4478
2026-01-07 23:42:14.88	97.11	50.08	-28.5	-30.6	13.7	3.00e-06	0	43	0	1087373312	17	4566
2026-01-07 23:42:17.89	99.04	50.12	-28.5	-30.4	13.8	2.20e-06	0	43	0	1096810496	17	4495
2026-01-07 23:42:20.90	100.97	50.12	-29.0	-31.7	13.1	2.59e-05	0	43	0	1106247680	17	4916
2026-01-07 23:42:23.91	102.89	50.09	-28.8	-30.8	13.4	1.67e-05	0	43	0	1115684864	18	4506
2026-01-07 23:42:26.92	104.81	50.02	-29.2	-31.7	12.8	4.11e-05	0	43	0	1125122048	18	4794
2026-01-07 23:42:29.93	106.72	49.92	-28.8	-30.7	13.5	2.97e-05	0	43	0	1134559232	18	4481
2026-01-07 23:42:32.95	108.62	49.79	-28.4	-29.7	14.0	2.20e-06	0	43	0	1143996416	18	4191
2026-01-07 23:42:35.96	110.50	49.63	-29.4	-32.3	12.5	6.71e-05	0	43	0	1153433600	18	5000
2026-01-07 23:42:38.97	112.35	49.44	-28.6	-30.1	13.8	1.50e-06	0	43	0	1162870784	18	4301
2026-01-07 23:42:41.98	114.18	49.21	-29.0	-31.1	13.2	2.13e-05	0	43	0	1172307968	18	4587
2026-01-07 23:42:44.99	115.99	48.96	-29.0	-31.1	13.2	9.10e-06	0	43	0	1181745152	18	4588
2026-01-07 23:42:48.01	117.76	48.68	-29.6	-32.1	12.2	9.00e-05	0	43	0	1191182336	19	4827
2026-01-07 23:42:51.03	119.51	48.37	-29.7	-32.0	11.9	4.67e-04	0	44	0	1200619520	20	4679
2026-01-07 23:42:54.04	121.21	48.04	-29.9	-32.4	11.7	5.06e-04	0	43	0	1210056704	20	4827
2026-01-07 23:42:57.06	122.88	47.68	-29.7	-32.0	12.0	2.74e-04	0	43	0	1219493888	20	4680
2026-01-07 23:43:00.08	124.52	47.30	-29.3	-30.9	12.6	1.41e-04	0	43	0	1228931072	20	4338
2026-01-07 23:43:03.08	126.10	46.90	-29.9	-32.9	11.7	4.37e-04	0	43	0	1238368256	19	5096
2026-01-07 23:43:06.10	127.65	46.48	-29.7	-32.4	12.0	2.63e-04	0	43	0	1247805440	19	4923
2026-01-07 23:43:09.13	129.17	46.05	-29.2	-31.1	12.9	6.40e-05	0	43	0	1257242624	19	4507
2026-01-07 23:43:12.14	130.64	45.59	-29.3	-31.6	12.6	1.09e-04	0	43	0	1266679808	19	4641
2026-01-07 23:43:15.16	132.07	45.13	-29.3	-31.6	12.5	1.27e-04	0	43	0	1276116992	19	4670
2026-01-07 23:43:18.19	133.46	44.65	-29.3	-31.5	12.6	8.39e-05	0	44	0	1285554176	19	4640
2026-01-07 23:43:21.21	134.80	44.15	-29.6	-32.3	12.1	3.10e-04	0	43	0	1294991360	19	4889
2026-01-07 23:43:24.23	136.11	43.65	-29.6	-32.3	12.0	3.23e-04	0	43	0	1304428544	19	4899
2026-01-07 23:43:27.25	137.37	43.14	-29.4	-31.7	12.4	2.20e-04	0	43	0	1313865728	19	4680
2026-01-07 23:43:30.28	138.60	42.62	-29.6	-32.2	12.0	3.00e-04	0	44	0	1323302912	19	4879
2026-01-07 23:43:33.27	139.78	42.10	-29.0	-31.2	13.0	4.34e-05	0	43	0	1332740096	18	4644
2026-01-07 23:43:36.29	140.93	41.57	-28.8	-31.2	13.3	1.22e-05	0	43	0	1342177280	17	4741
2026-01-07 23:43:39.30	142.04	41.03	-28.8	-31.1	13.4	1.98e-05	0	43	0	1351614464	17	4732
2026-01-07 23:43:42.31	143.11	40.50	-28.9	-31.5	13.1	2.51e-05	0	43	0	1361051648	17	4859
2026-01-07 23:43:45.32	144.15	39.96	-29.8	-32.9	11.6	5.13e-04	0	43	0	1369440256	19	5142
2026-01-07 23:43:48.33	145.15	39.42	-29.6	-32.3	12.0	3.44e-04	0	43	0	1379926016	19	4905
2026-01-07 23:43:51.35	146.13	38.87	-29.3	-32.0	11.9	4.96e-04	0	43	0	1389363200	19	4937
2026-01-07 23:43:54.36	147.07	38.33	-28.8	-31.1	12.9	3.20e-05	0	43	0	1397751808	17	4730
2026-01-07 23:43:57.38	147.98	37.79	-28.6	-30.7	13.6	1.06e-05	0	43	0	1408237568	17	4589
2026-01-07 23:44:00.40	148.87	37.24	-28.8	-31.2	13.2	2.62e-03	0	43	0	1416626176	17	4763
2026-01-07 23:44:03.41	149.72	36.70	-27.7	-29.7	14.6	4.08e-03	0	43	0	1426063360	15	4518
2026-01-07 23:44:06.43	150.55	36.16	-27.9	-30.2	14.3	3.92e-03	0	43	0	1436549120	15	4678
2026-01-07 23:44:09.46	151.36	35.63	-28.1	-30.1	14.2	2.50e-03	0	43	0	1444937728	16	4538
2026-01-07 23:44:12.48	152.13	35.09	-28.1	-30.0	14.2	1.50e-06	0	44	0	1454374912	16	4504
2026-01-07 23:44:15.50	152.89	34.56	-28.3	-30.7	13.8	3.00e-03	0	43	0	1463812096	16	4721
2026-01-07 23:44:18.52	153.61	34.04	-28.5	-30.6	13.6	9.10e-06	0	43	0	1473249280	17	4565
2026-01-07 23:44:21.54	154.32	33.51	-28.1	-30.1	14.2	6.44e-04	0	43	0	1483735040	16	4523
2026-01-07 23:44:24.54	155.00	33.00	-27.9	-30.2	14.2	2.20e-06	0	44	0	1492123648	15	4695
2026-01-07 23:44:27.55	155.66	32.49	-27.5	-29.2	14.8	0.00e+00	0	44	0	1501560832	15	4383
2026-01-07 23:44:30.58	156.31	31.98	-27.0	-28.6	15.4	0.00e+00	0	44	0	1510998016	14	4321
2026-01-07 23:44:33.58	156.93	31.48	-26.9	-28.9	15.5	0.00e+00	0	44	0	1520435200	13	4524
2026-01-07 23:44:36.60	157.53	30.98	-26.4	-27.8	16.1	0.00e+00	0	44	0	1529872384	13	4203
2026-01-07 23:44:39.62	158.12	30.48	-26.4	-27.8	16.1	0.00e+00	0	44	0	1539309568	13	4202
2026-01-07 23:44:42.64	158.69	29.99	-26.6	-28.3	15.8	0.00e+00	0	43	0	1548746752	13	4341
2026-01-07 23:44:45.65	159.25	29.51	-27.2	-29.0	15.2	0.00e+00	0	44	0	1558183936	14	4440
2026-01-07 23:44:48.65	159.78	29.04	-27.1	-28.8	15.3	0.00e+00	0	44	0	1567621120	14	4382
2026-01-07 23:44:51.67	160.30	28.56	-26.5	-28.1	15.9	0.00e+00	0	44	0	1577058304	13	4291
2026-01-07 23:44:54.69	160.81	28.10	-26.5	-28.0	15.9	0.00e+00	0	44	0	1586495488	13	4272
2026-01-07 23:44:57.71	161.31	27.64	-26.6	-28.2	15.8	0.00e+00	0	44	0	1595932672	13	4332
2026-01-07 23:45:00.73	161.79	27.18	-26.6	-28.3	15.8	0.00e+00	0	44	0	1605369856	13	4349
2026-01-07 23:45:03.73	162.25	26.73	-26.7	-28.4	15.7	0.00e+00	0	43	0	1614807040	13	4380
2026-01-07 23:45:06.75	162.71	26.29	-26.6	-28.2	15.8	0.00e+00	0	43	0	1624244224	13	4344
2026-01-07 23:45:09.77	163.15	25.85	-26.7	-28.5	15.6	0.00e+00	0	43	0	1633681408	13	4430
2026-01-07 23:45:12.78	163.58	25.41	-26.6	-28.3	15.7	0.00e+00	0	43	0	1643118592	13	4360
2026-01-07 23:45:15.80	164.00	24.99	-26.7	-28.4	15.6	0.00e+00	0	43	0	1652555776	13	4388
2026-01-07 23:45:18.81	164.41	24.56	-26.7	-28.4	15.6	0.00e+00	0	43	0	1661992960	13	4396
2026-01-07 23:45:21.83	164.81	24.14	-26.6	-28.3	15.7	0.00e+00	0	44	0	1671430144	13	4354
2026-01-07 23:45:24.85	165.20	23.73	-26.5	-28.0	15.9	0.00e+00	0	44	0	1680867328	13	4268
2026-01-07 23:45:27.86	165.57	23.33	-26.6	-28.2	15.7	0.00e+00	0	43	0	1690304512	13	4332
2026-01-07 23:45:30.87	165.94	22.92	-26.6	-28.2	15.7	5.56e-05	0	43	0	1699741696	13	4344
2026-01-07 23:45:33.90	166.30	22.53	-26.9	-28.9	15.3	5.34e-05	0	44	0	1709178880	13	4546
2026-01-07 23:45:36.91	166.65	22.13	-26.6	-28.3	15.6	1.98e-05	0	43	0	1718616064	13	4366
2026-01-07 23:45:39.93	167.00	21.75	-27.0	-29.1	15.2	1.44e-05	0	44	0	1728053248	13	4590
2026-01-07 23:45:42.94	167.33	21.36	-26.7	-28.5	15.5	9.23e-05	0	43	0	1737490432	13	4419
2026-01-07 23:45:45.96	167.66	20.99	-26.7	-28.6	15.5	1.65e-04	0	44	0	1746927616	13	4434
2026-01-07 23:45:48.97	167.98	20.61	-26.8	-28.7	15.4	0.00e+00	0	44	0	1756364800	13	4478
2026-01-07 23:45:52.00	168.29	20.24	-27.0	-28.7	15.1	2.21e-04	0	43	0	1765801984	14	4381
2026-01-07 23:45:55.02	168.60	19.88	-26.5	-28.0	15.7	0.00e+00	0	44	0	1775239168	13	4288
2026-01-07 23:45:58.04	168.90	19.52	-26.5	-28.0	15.7	0.00e+00	0	44	0	1784676352	13	4288
2026-01-07 23:46:01.06	169.19	19.17	-26.5	-28.1	15.7	4.50e-06	0	43	0	1794113536	13	4302
2026-01-07 23:46:04.08	169.47	18.81	-26.5	-28.1	15.6	0.00e+00	0	44	0	1803550720	13	4315
2026-01-07 23:46:07.09	169.75	18.47	-26.5	-28.0	15.7	1.50e-06	0	43	0	1812987904	13	4295
2026-01-07 23:46:10.10	170.02	18.13	-26.6	-28.3	15.5	5.30e-06	0	44	0	1822425088	13	4363
2026-01-07 23:46:13.11	170.29	17.79	-26.8	-28.6	15.4	1.22e-05	0	44	0	1831862272	13	4451
2026-01-07 23:46:16.12	170.55	17.46	-27.0	-29.1	15.1	1.22e-05	0	44	0	1841299456	13	4600
2026-01-07 23:46:19.15	170.81	17.13	-27.2	-29.0	14.8	0.00e+00	0	44	0	1850736640	14	4473
2026-01-07 23:46:22.17	171.06	16.80	-27.2	-29.2	14.7	0.00e+00	0	44	0	1860173824	14	4509
2026-01-07 23:46:25.19	171.31	16.48	-27.3	-29.3	14.6	7.00e-07	0	44	0	1869611008	14	4560
2026-01-07 23:46:28.21	171.55	16.16	-27.4	-29.5	14.5	1.50e-06	0	43	0	1879048192	14	4624
2026-01-07 23:46:31.23	171.79	15.84	-26.9	-29.1	13.8	6.10e-06	0	44	0	1888485376	15	4639
2026-01-07 23:46:34.25	172.02	15.53	-27.4	-29.6	14.4	0.00e+00	0	44	0	1897922560	14	4653
2026-01-07 23:46:37.27	172.24	15.22	-27.4	-29.7	14.3	0.00e+00	0	43	0	1907359744	14	4689
2026-01-07 23:46:40.29	172.47	14.92	-27.6	-30.0	13.2	0.00e+00	0	43	0	1916796928	14	4787
2026-01-07 23:46:43.31	172.69	14.62	-27.7	-29.9	13.9	3.23e-04	0	44	0	1926234112	15	4641
2026-01-07 23:46:46.32	172.90	14.32	-27.6	-29.6	14.1	3.80e-06	0	44	0	1935671296	15	4551
2026-01-07 23:46:49.34	173.11	14.03	-27.7	-29.9	13.9	4.85e-04	0	43	0	1945108480	15	4632
2026-01-07 23:46:52.36	173.32	13.73	-27.6	-29.5	14.1	7.00e-07	0	44	0	1954545664	15	4514
2026-01-07 23:46:55.37	173.52	13.45	-27.7	-29.8	13.9	8.86e-04	0	43	0	1963982848	15	4608
2026-01-07 23:46:58.39	173.72	13.16	-27.7	-29.9	13.9	6.57e-04	0	44	0	1973420032	15	4624
2026-01-07 23:47:01.42	173.91	12.88	-27.7	-29.8	13.9	1.50e-03	0	44	0	1982857216	15	4586
2026-01-07 23:47:04.43	174.11	12.60	-27.4	-29.8	14.2	7.00e-07	0	44	0	1992294400	14	4704
2026-01-07 23:47:07.45	174.29	12.32	-27.4	-29.7	14.2	2.04e-03	0	44	0	2001731584	14	4689
2026-01-07 23:47:10.47	174.48	12.05	-27.4	-29.7	14.2	2.53e-03	0	43	0	2011168768	14	4679
2026-01-07 23:47:13.49	174.66	11.78	-27.5	-29.4	14.1	1.02e-03	0	44	0	2020605952	15	4487
2026-01-07 23:47:16.50	174.84	11.51	-27.5	-29.3	14.1	1.50e-06	0	44	0	2030043136	15	4458
2026-01-07 23:47:19.52	175.02	11.25	-27.5	-29.9	14.0	0.00e+00	0	44	0	2039480320	14	4737
2026-01-07 23:47:22.54	175.19	10.98	-27.6	-29.7	13.8	6.80e-06	0	43	0	2048917504	15	4573
2026-01-07 23:47:25.55	175.36	10.73	-27.6	-29.7	13.8	4.50e-06	0	44	0	2058354688	15	4571
2026-01-07 23:47:28.57	175.53	10.47	-27.8	-30.0	13.6	5.30e-06	0	44	0	2067791872	15	4673
2026-01-07 23:47:31.58	175.69	10.21	-27.9	-30.3	13.4	1.60e-05	0	44	0	2077229056	15	4764
2026-01-07 23:47:34.59	175.85	9.96	-27.9	-30.4	13.3	1.44e-05	0	43	0	2086666240	15	4795
2026-01-07 23:47:37.61	176.01	9.71	-27.9	-30.4	13.3	1.52e-05	0	44	0	2096103424	15	4791
2026-01-07 23:47:40.63	176.17	9.46	-28.2	-30.5	13.1	2.67e-05	0	44	0	2105540608	16	4707
2026-01-07 23:47:43.64	176.32	9.22	-28.1	-30.5	13.1	2.82e-05	0	44	0	2114977792	16	4699
2026-01-07 23:47:46.66	176.47	8.98	-28.3	-31.0	12.8	5.41e-05	0	44	0	2124414976	16	4876
2026-01-07 23:47:49.68	176.62	8.73	-28.3	-30.9	12.8	5.95e-05	0	44	0	2133852160	16	4862
2026-01-07 23:47:52.69	176.77	8.50	-28.4	-31.3	12.6	1.10e-04	0	44	0	2143289344	16	4993
2026-01-07 23:47:55.71	176.92	8.26	-28.7	-31.5	12.0	3.29e-04	0	44	0	2152726528	17	4964
2026-01-07 23:47:58.72	177.06	8.02	-28.7	-31.6	12.0	4.03e-04	0	44	0	2162163712	17	4986
2026-01-07 23:48:01.73	177.20	7.79	-28.9	-31.4	11.7	6.55e-04	0	44	0	2171600896	18	4825
2026-01-07 23:48:04.76	177.34	7.56	-28.7	-31.4	12.1	2.95e-04	0	44	0	2181038080	17	4937
2026-01-07 23:48:07.78	177.48	7.33	-28.8	-31.7	11.8	5.21e-04	0	44	0	2190475264	17	5047
2026-01-07 23:48:10.79	177.61	7.10	-28.9	-32.0	11.5	1.90e-03	0	44	0	2199912448	17	5160
2026-01-07 23:48:13.81	177.74	6.88	-33.0	-45.4	3.8	1.49e+00	0	44	104	2200961024	25	15001

#Closed at: 2026-01-07 23:48:14
#Recorded file [2200 MB]: D:/data/31010_260108_023626.dat