passes_logs/2026/01/07/R2M6_AANII_01/R2M6_AANII_01__20260107_112900_NOAA_21_JPSS-2_rec.log

#Pass ID: 20260107_112900_NOAA 21 (JPSS-2)
#Satellite: NOAA 21 (JPSS-2)
#Configuration: NOAA 21
#almurnet v.1.7.20240730
#Start time: 2026-01-07 11:30:00

#Version: 2.2.20231116
#Station: R2M6_AANII_01
#Location: 30.233357 lon 59.946436 lat
#TLE: 1 54234U 22150A   26005.56767909  .00000152  00000+0  92756-4 0  9990
#TLE: 2 54234  98.7490 306.5820 0001036 340.2747  19.8389 14.19532370163472

#Time	Az	El	Level	Level2	SNR	BER	BlckErr	Temp	State	Recorded	gain1	gain2
2026-01-07 11:30:00.67	202.38	11.52	-33.4	-44.5	3.8	8.48e-01	0	43	0	0	26	12806
2026-01-07 11:30:03.68	202.66	11.76	-34.1	-45.5	3.8	1.49e+00	0	43	104	0	29	13411
2026-01-07 11:30:06.70	202.95	12.01	-34.2	-45.6	3.8	1.49e+00	0	44	104	0	29	13497
2026-01-07 11:30:09.72	203.25	12.26	-34.2	-45.7	3.8	1.49e+00	0	43	104	0	29	13544
2026-01-07 11:30:12.74	203.55	12.51	-34.1	-45.6	3.8	1.49e+00	0	44	104	0	29	13444
2026-01-07 11:30:15.77	203.86	12.76	-34.1	-45.6	3.8	1.49e+00	0	43	104	0	29	13422
2026-01-07 11:30:18.78	204.16	13.02	-34.1	-45.6	3.8	1.49e+00	0	43	104	0	29	13448
2026-01-07 11:30:21.80	204.48	13.27	-34.0	-45.4	3.8	1.49e+00	0	43	104	0	29	13389
2026-01-07 11:30:24.83	204.80	13.53	-33.9	-45.2	3.8	1.49e+00	0	43	104	0	29	13126
2026-01-07 11:30:27.85	205.13	13.79	-33.8	-45.0	3.8	1.49e+00	0	43	104	0	29	13022
2026-01-07 11:30:30.86	205.46	14.05	-33.7	-45.2	3.8	1.49e+00	0	43	104	0	28	13587
2026-01-07 11:30:33.88	205.80	14.31	-33.3	-44.1	3.8	1.49e+00	0	44	104	0	27	12517
2026-01-07 11:30:36.89	206.14	14.58	-33.2	-43.8	3.8	1.49e+00	0	44	104	0	27	12216
2026-01-07 11:30:39.92	206.49	14.85	-33.1	-42.6	3.8	1.49e+00	0	43	104	0	27	10749
2026-01-07 11:30:42.94	206.85	15.12	-33.2	-43.7	3.8	1.49e+00	0	43	104	0	27	11985
2026-01-07 11:30:45.97	207.21	15.39	-32.3	-37.7	5.8	6.93e-01	0	44	104	0	26	6707
2026-01-07 11:30:48.99	207.58	15.66	-29.7	-32.1	11.5	1.22e-03	0	43	102	1048576	20	4754
2026-01-07 11:30:52.01	207.95	15.94	-28.5	-30.1	13.5	1.06e-05	0	44	102	1048576	18	4325
2026-01-07 11:30:55.03	208.33	16.22	-29.5	-32.5	12.0	1.85e-04	0	44	102	1048576	18	5089
2026-01-07 11:30:58.05	208.72	16.50	-29.6	-32.4	11.8	2.80e-04	0	43	102	1048576	19	4957
2026-01-07 11:31:01.07	209.12	16.78	-28.8	-30.2	13.1	3.28e-05	0	43	102	1048576	19	4258
2026-01-07 11:31:04.09	209.52	17.06	-28.6	-30.2	13.5	1.29e-05	0	43	102	1048576	18	4351
2026-01-07 11:31:07.10	209.93	17.35	-28.3	-30.0	13.9	1.50e-06	0	43	102	1048576	17	4390
2026-01-07 11:31:10.12	210.35	17.63	-28.4	-30.3	13.7	5.30e-06	0	43	102	1048576	17	4489
2026-01-07 11:31:13.14	210.77	17.92	-27.8	-29.0	14.5	0.00e+00	0	43	102	1048576	17	4096
2026-01-07 11:31:16.17	211.21	18.22	-27.7	-29.1	14.8	7.00e-07	0	43	102	1048576	16	4237
2026-01-07 11:31:19.18	211.65	18.51	-27.7	-29.2	14.7	7.00e-07	0	44	102	1048576	16	4275
2026-01-07 11:31:22.20	212.10	18.80	-27.6	-28.9	14.9	0.00e+00	0	44	102	1048576	16	4185
2026-01-07 11:31:25.21	212.56	19.10	-27.7	-29.1	14.8	0.00e+00	0	43	102	1048576	16	4232
2026-01-07 11:31:28.23	213.03	19.40	-27.5	-28.7	15.1	0.00e+00	0	43	102	1048576	16	4118
2026-01-07 11:31:31.26	213.50	19.70	-27.6	-28.8	15.0	0.00e+00	0	43	102	1048576	16	4162
2026-01-07 11:31:34.27	213.99	20.00	-27.3	-28.3	15.3	0.00e+00	0	44	102	1048576	16	4020
2026-01-07 11:31:37.29	214.48	20.30	-27.3	-28.3	15.3	0.00e+00	0	43	102	1048576	16	4006
2026-01-07 11:31:40.31	214.99	20.61	-27.1	-28.3	15.5	0.00e+00	0	43	102	1048576	15	4127
2026-01-07 11:31:43.33	215.50	20.92	-27.0	-28.0	15.6	0.00e+00	0	43	102	1048576	15	4057
2026-01-07 11:31:46.36	216.03	21.22	-27.0	-28.0	15.6	0.00e+00	0	43	102	1048576	15	4046
2026-01-07 11:31:49.37	216.56	21.53	-27.1	-28.2	15.5	0.00e+00	0	43	102	1048576	15	4105
2026-01-07 11:31:52.40	217.11	21.84	-26.8	-27.7	15.8	0.00e+00	0	43	102	1048576	15	3962
2026-01-07 11:31:55.42	217.66	22.16	-26.8	-28.1	15.9	0.00e+00	0	43	102	1048576	14	4169
2026-01-07 11:31:58.43	218.23	22.47	-26.7	-27.9	16.0	0.00e+00	0	43	102	1048576	14	4131
2026-01-07 11:32:01.47	218.81	22.78	-26.6	-27.6	16.2	0.00e+00	0	43	102	1048576	14	4035
2026-01-07 11:32:04.49	219.40	23.10	-26.5	-27.3	16.3	0.00e+00	0	43	102	1048576	14	3982
2026-01-07 11:32:07.51	220.00	23.41	-26.3	-27.4	16.5	0.00e+00	0	43	102	1048576	13	4112
2026-01-07 11:32:10.53	220.62	23.73	-26.3	-27.4	16.5	0.00e+00	0	43	102	1048576	13	4094
2026-01-07 11:32:13.55	221.24	24.05	-26.2	-27.3	16.6	0.00e+00	0	43	102	1048576	13	4086
2026-01-07 11:32:16.57	221.88	24.36	-26.3	-27.6	16.5	3.00e-06	0	43	102	1048576	13	4142
2026-01-07 11:32:19.59	222.53	24.68	-26.3	-27.5	16.5	2.20e-06	0	43	102	1048576	13	4116
2026-01-07 11:32:22.60	223.19	25.00	-26.4	-27.8	16.4	0.00e+00	0	43	102	1048576	13	4198
2026-01-07 11:32:25.62	223.87	25.31	-26.6	-28.2	16.1	1.50e-06	0	43	102	1048576	13	4324
2026-01-07 11:32:28.64	224.56	25.63	-26.8	-28.6	15.9	0.00e+00	0	43	102	1048576	13	4419
2026-01-07 11:32:31.65	225.26	25.94	-26.9	-28.2	15.9	5.30e-06	0	44	102	1048576	14	4187
2026-01-07 11:32:34.67	225.98	26.26	-27.0	-28.6	15.7	0.00e+00	0	43	102	1048576	14	4320
2026-01-07 11:32:37.69	226.71	26.57	-27.1	-28.8	15.6	0.00e+00	0	43	102	1048576	14	4363
2026-01-07 11:32:40.71	227.46	26.88	-27.2	-29.0	15.5	0.00e+00	0	43	102	1048576	14	4425
2026-01-07 11:32:43.72	228.21	27.19	-27.0	-28.5	15.8	0.00e+00	0	43	102	1048576	14	4291
2026-01-07 11:32:46.75	228.99	27.50	-27.1	-28.8	15.6	0.00e+00	0	43	102	1048576	14	4377
2026-01-07 11:32:49.77	229.78	27.81	-27.3	-29.3	15.3	0.00e+00	0	44	102	1048576	14	4503
2026-01-07 11:32:52.79	230.59	28.11	-27.5	-29.3	15.1	0.00e+00	0	43	102	1048576	15	4384
2026-01-07 11:32:55.79	231.40	28.41	-27.4	-29.0	15.3	0.00e+00	0	43	102	1048576	15	4298
2026-01-07 11:32:58.82	232.24	28.71	-27.4	-28.9	15.3	0.00e+00	0	43	102	1048576	15	4281
2026-01-07 11:33:01.84	233.09	29.00	-27.7	-29.5	15.0	0.00e+00	0	43	102	1048576	15	4444
2026-01-07 11:33:04.86	233.95	29.29	-27.3	-28.7	15.4	0.00e+00	0	43	102	1048576	15	4235
2026-01-07 11:33:07.88	234.83	29.58	-27.1	-28.3	15.7	0.00e+00	0	43	102	1048576	15	4112
2026-01-07 11:33:10.90	235.72	29.86	-27.0	-28.1	15.8	0.00e+00	0	43	102	1048576	15	4049
2026-01-07 11:33:13.92	236.64	30.14	-27.2	-28.4	15.6	0.00e+00	0	43	102	1048576	15	4136
2026-01-07 11:33:16.94	237.56	30.41	-27.3	-28.6	15.5	0.00e+00	0	43	102	1048576	15	4202
2026-01-07 11:33:19.96	238.50	30.68	-27.1	-28.3	15.7	0.00e+00	0	43	102	1048576	15	4111
2026-01-07 11:33:22.98	239.46	30.94	-27.1	-28.3	15.7	0.00e+00	0	43	102	1048576	15	4101
2026-01-07 11:33:25.99	240.43	31.19	-27.1	-28.1	15.8	0.00e+00	0	43	102	1048576	15	4067
2026-01-07 11:33:29.01	241.41	31.44	-27.4	-28.8	15.4	0.00e+00	0	43	102	1048576	15	4237
2026-01-07 11:33:32.03	242.41	31.68	-27.3	-28.7	15.5	0.00e+00	0	43	102	1048576	15	4215
2026-01-07 11:33:35.05	243.43	31.91	-27.3	-28.7	15.5	0.00e+00	0	44	102	1048576	15	4217
2026-01-07 11:33:38.07	244.46	32.13	-27.6	-29.3	15.2	0.00e+00	0	43	102	1048576	15	4394
2026-01-07 11:33:41.09	245.50	32.35	-28.2	-30.2	14.5	0.00e+00	0	44	102	1048576	16	4539
2026-01-07 11:33:44.10	246.55	32.55	-28.4	-30.6	14.3	0.00e+00	0	43	102	1048576	16	4635
2026-01-07 11:33:47.13	247.62	32.75	-28.5	-30.9	14.2	7.00e-07	0	43	102	1048576	16	4737
2026-01-07 11:33:50.14	248.70	32.94	-28.3	-29.8	14.5	0.00e+00	0	43	102	1048576	17	4295
2026-01-07 11:33:53.16	249.80	33.11	-28.1	-29.4	14.7	0.00e+00	0	43	102	1048576	17	4181
2026-01-07 11:33:56.18	250.90	33.28	-28.0	-29.3	14.8	0.00e+00	0	43	102	1048576	17	4152
2026-01-07 11:33:59.20	252.01	33.43	-27.8	-29.2	15.1	0.00e+00	0	43	102	1048576	16	4251
2026-01-07 11:34:02.22	253.14	33.58	-28.0	-29.6	14.9	7.00e-07	0	43	102	1048576	16	4353
2026-01-07 11:34:05.24	254.27	33.71	-28.0	-29.7	14.8	0.00e+00	0	43	102	1048576	16	4381
2026-01-07 11:34:08.26	255.42	33.83	-28.0	-29.8	14.8	0.00e+00	0	43	102	1048576	16	4406
2026-01-07 11:34:11.28	256.57	33.94	-28.1	-29.8	14.7	0.00e+00	0	43	102	1048576	16	4412
2026-01-07 11:34:14.30	257.73	34.03	-28.1	-29.9	14.7	0.00e+00	0	43	102	1048576	16	4429
2026-01-07 11:34:17.31	258.89	34.12	-28.2	-30.2	14.5	0.00e+00	0	44	102	1048576	16	4524
2026-01-07 11:34:20.34	260.06	34.19	-28.0	-29.7	14.8	0.00e+00	0	43	102	1048576	16	4372
2026-01-07 11:34:23.36	261.23	34.25	-28.3	-30.3	14.5	7.00e-07	0	44	102	1048576	16	4549
2026-01-07 11:34:26.37	262.41	34.29	-28.2	-30.2	14.5	0.00e+00	0	43	102	1048576	16	4537
2026-01-07 11:34:29.39	263.59	34.32	-28.5	-30.4	14.2	2.20e-06	0	43	102	1048576	17	4478
2026-01-07 11:34:32.41	264.77	34.34	-28.6	-30.6	14.1	6.10e-06	0	43	102	1048576	17	4537
2026-01-07 11:34:35.43	265.95	34.34	-28.3	-29.9	14.5	7.00e-07	0	44	102	1048576	17	4319
2026-01-07 11:34:38.45	267.13	34.34	-28.3	-29.8	14.5	7.00e-07	0	43	102	1048576	17	4288
2026-01-07 11:34:41.47	268.32	34.31	-28.3	-29.8	14.5	0.00e+00	0	43	102	1048576	17	4297
2026-01-07 11:34:44.48	269.49	34.28	-28.2	-29.7	14.6	7.00e-07	0	43	102	1048576	17	4268
2026-01-07 11:34:47.49	270.66	34.23	-28.1	-29.3	14.8	0.00e+00	0	44	102	1048576	17	4160
2026-01-07 11:34:50.51	271.83	34.17	-27.8	-28.8	15.1	0.00e+00	0	43	102	1048576	17	4016
2026-01-07 11:34:53.54	273.01	34.09	-27.9	-29.0	14.9	6.10e-06	0	43	102	1048576	17	4087
2026-01-07 11:34:56.56	274.17	34.01	-28.1	-29.4	14.8	0.00e+00	0	43	102	1048576	17	4180
2026-01-07 11:34:59.59	275.32	33.91	-28.2	-29.7	14.6	4.50e-06	0	43	102	1048576	17	4258
2026-01-07 11:35:02.60	276.47	33.80	-28.3	-29.9	14.5	6.80e-06	0	43	102	1048576	17	4329
2026-01-07 11:35:05.61	277.60	33.67	-28.3	-29.8	14.5	7.00e-07	0	43	102	1048576	17	4295
2026-01-07 11:35:08.64	278.74	33.54	-28.0	-29.1	14.9	3.00e-06	0	44	102	1048576	17	4106
2026-01-07 11:35:11.65	279.85	33.39	-27.9	-29.5	15.1	0.00e+00	0	43	102	1048576	16	4303
2026-01-07 11:35:14.68	280.97	33.23	-28.1	-30.0	14.7	0.00e+00	0	44	102	1048576	16	4458
2026-01-07 11:35:17.68	282.06	33.06	-27.7	-28.9	15.3	0.00e+00	0	43	102	1048576	16	4146
2026-01-07 11:35:20.71	283.15	32.88	-27.7	-29.0	15.3	0.00e+00	0	43	102	1048576	16	4185
2026-01-07 11:35:23.73	284.22	32.69	-28.0	-29.8	14.8	7.00e-07	0	44	102	1048576	16	4407
2026-01-07 11:35:26.75	285.28	32.50	-28.1	-29.8	14.8	7.00e-07	0	43	102	1048576	16	4406
2026-01-07 11:35:29.77	286.33	32.29	-27.9	-29.5	15.0	7.00e-07	0	43	102	1048576	16	4317
2026-01-07 11:35:32.79	287.37	32.07	-28.2	-30.2	14.6	0.00e+00	0	43	102	1048576	16	4524
2026-01-07 11:35:35.81	288.39	31.85	-28.4	-30.7	14.4	7.00e-07	0	43	102	1048576	16	4661
2026-01-07 11:35:38.84	289.40	31.61	-28.2	-29.8	14.5	0.00e+00	0	43	102	1048576	17	4283
2026-01-07 11:35:41.85	290.39	31.37	-28.3	-29.8	14.6	0.00e+00	0	43	102	1048576	17	4300
2026-01-07 11:35:44.86	291.37	31.13	-27.9	-28.9	15.1	0.00e+00	0	43	102	1048576	17	4059
2026-01-07 11:35:47.87	292.33	30.87	-27.6	-28.8	15.4	0.00e+00	0	43	102	1048576	16	4123
2026-01-07 11:35:50.89	293.27	30.61	-27.7	-29.0	15.3	0.00e+00	0	43	102	1048576	16	4185
2026-01-07 11:35:53.92	294.21	30.35	-27.4	-28.4	15.6	0.00e+00	0	43	102	1048576	16	4009
2026-01-07 11:35:56.93	295.13	30.08	-27.1	-28.1	15.9	0.00e+00	0	43	102	1048576	15	4065
2026-01-07 11:35:59.95	296.03	29.80	-27.2	-28.3	15.8	0.00e+00	0	43	102	1048576	15	4117
2026-01-07 11:36:02.97	296.92	29.52	-27.7	-29.5	15.1	0.00e+00	0	43	102	1048576	15	4426
2026-01-07 11:36:05.98	297.79	29.23	-27.2	-28.3	15.7	0.00e+00	0	43	102	1048576	15	4116
2026-01-07 11:36:09.00	298.64	28.94	-27.0	-27.9	16.0	0.00e+00	0	43	102	1048576	15	4014
2026-01-07 11:36:12.00	299.48	28.65	-26.8	-28.0	16.1	0.00e+00	0	43	102	1048576	14	4142
2026-01-07 11:36:15.02	300.31	28.35	-26.7	-27.7	16.3	0.00e+00	0	43	102	1048576	14	4059
2026-01-07 11:36:18.04	301.12	28.05	-26.8	-28.0	16.2	0.00e+00	0	43	102	1048576	14	4131
2026-01-07 11:36:21.07	301.92	27.75	-26.8	-27.9	16.2	0.00e+00	0	44	102	1048576	14	4123
2026-01-07 11:36:24.08	302.70	27.45	-26.7	-27.7	16.3	0.00e+00	0	43	102	1048576	14	4070
2026-01-07 11:36:27.10	303.46	27.14	-26.4	-27.2	16.6	0.00e+00	0	43	102	1048576	14	3932
2026-01-07 11:36:30.13	304.22	26.83	-26.6	-27.5	16.4	0.00e+00	0	43	102	1048576	14	4015
2026-01-07 11:36:33.16	304.96	26.52	-26.8	-28.1	16.1	0.00e+00	0	43	102	1048576	14	4171
2026-01-07 11:36:36.17	305.68	26.21	-26.6	-27.6	16.3	0.00e+00	0	43	102	1048576	14	4039
2026-01-07 11:36:39.18	306.39	25.90	-26.7	-27.9	16.2	0.00e+00	0	43	102	1048576	14	4106
2026-01-07 11:36:42.18	307.09	25.59	-26.7	-27.8	16.2	0.00e+00	0	43	102	1048576	14	4076
2026-01-07 11:36:45.20	307.77	25.27	-26.9	-28.2	16.0	0.00e+00	0	43	102	1048576	14	4185
2026-01-07 11:36:48.22	308.44	24.96	-26.9	-28.4	15.9	0.00e+00	0	44	102	1048576	14	4245
2026-01-07 11:36:51.24	309.10	24.64	-26.9	-28.3	15.9	0.00e+00	0	43	102	1048576	14	4229
2026-01-07 11:36:54.26	309.74	24.33	-27.1	-28.6	15.7	0.00e+00	0	43	102	1048576	14	4309
2026-01-07 11:36:57.28	310.38	24.02	-27.0	-28.5	15.8	0.00e+00	0	43	102	1048576	14	4270
2026-01-07 11:37:00.30	311.00	23.70	-26.9	-28.3	15.8	0.00e+00	0	43	102	1048576	14	4232
2026-01-07 11:37:03.32	311.60	23.39	-26.8	-28.0	16.1	0.00e+00	0	43	102	1048576	14	4142
2026-01-07 11:37:06.34	312.20	23.08	-26.8	-28.1	16.0	0.00e+00	0	43	102	1048576	14	4175
2026-01-07 11:37:09.36	312.79	22.76	-26.9	-28.2	15.9	0.00e+00	0	43	102	1048576	14	4205
2026-01-07 11:37:12.38	313.36	22.45	-26.9	-28.2	15.9	0.00e+00	0	43	102	1048576	14	4190
2026-01-07 11:37:15.40	313.92	22.14	-26.9	-28.2	15.8	0.00e+00	0	43	102	1048576	14	4205
2026-01-07 11:37:18.42	314.47	21.83	-26.9	-28.4	15.8	0.00e+00	0	43	102	1048576	14	4245
2026-01-07 11:37:21.44	315.01	21.53	-27.1	-28.6	15.6	0.00e+00	0	43	102	1048576	14	4317
2026-01-07 11:37:24.46	315.55	21.22	-27.0	-28.6	15.6	0.00e+00	0	43	102	1048576	14	4319
2026-01-07 11:37:27.49	316.07	20.91	-27.0	-28.6	15.6	0.00e+00	0	43	102	1048576	14	4309
2026-01-07 11:37:30.50	316.58	20.61	-27.1	-28.7	15.6	0.00e+00	0	43	102	1048576	14	4340
2026-01-07 11:37:33.52	317.08	20.31	-27.0	-28.5	15.7	0.00e+00	0	43	102	1048576	14	4285
2026-01-07 11:37:36.54	317.57	20.01	-26.9	-28.2	15.8	0.00e+00	0	43	102	1048576	14	4204
2026-01-07 11:37:39.56	318.05	19.71	-27.2	-28.9	15.4	0.00e+00	0	43	102	1048576	14	4411
2026-01-07 11:37:42.58	318.53	19.41	-27.2	-29.0	15.4	0.00e+00	0	43	102	1048576	14	4415
2026-01-07 11:37:45.60	318.99	19.12	-27.3	-29.3	15.2	0.00e+00	0	43	102	1048576	14	4497
2026-01-07 11:37:48.62	319.45	18.82	-26.9	-28.3	15.7	0.00e+00	0	43	102	1048576	14	4218
2026-01-07 11:37:51.64	319.89	18.53	-26.9	-28.2	15.8	0.00e+00	0	43	102	1048576	14	4214
2026-01-07 11:37:54.66	320.33	18.24	-27.0	-28.5	15.6	0.00e+00	0	43	102	1048576	14	4291
2026-01-07 11:37:57.68	320.76	17.95	-26.9	-28.4	15.7	0.00e+00	0	43	102	1048576	14	4244
2026-01-07 11:38:00.70	321.19	17.66	-26.9	-28.4	15.7	0.00e+00	0	43	102	1048576	14	4242
2026-01-07 11:38:03.72	321.60	17.38	-27.0	-28.6	15.5	0.00e+00	0	43	102	1048576	14	4325
2026-01-07 11:38:06.74	322.01	17.10	-27.3	-29.3	15.2	0.00e+00	0	43	102	1048576	14	4502
2026-01-07 11:38:09.76	322.41	16.82	-27.4	-29.5	15.0	0.00e+00	0	43	102	1048576	14	4574
2026-01-07 11:38:12.78	322.80	16.54	-27.6	-29.5	14.7	0.00e+00	0	43	102	1048576	15	4451
2026-01-07 11:38:15.80	323.19	16.26	-27.6	-29.4	14.7	1.50e-06	0	43	102	1048576	15	4439
2026-01-07 11:38:18.82	323.57	15.99	-27.8	-29.8	14.5	7.00e-07	0	44	102	1048576	15	4544
2026-01-07 11:38:21.84	323.94	15.71	-27.7	-29.7	14.6	0.00e+00	0	43	102	1048576	15	4511
2026-01-07 11:38:24.86	324.31	15.44	-27.8	-29.9	14.4	2.20e-06	0	43	102	1048576	15	4577
2026-01-07 11:38:27.88	324.67	15.17	-28.3	-30.5	14.0	3.80e-06	0	43	102	1048576	16	4635
2026-01-07 11:38:30.91	325.03	14.90	-28.4	-30.7	13.8	5.30e-06	0	43	102	1048576	16	4705
2026-01-07 11:38:33.93	325.38	14.64	-28.3	-30.4	14.0	7.00e-07	0	43	102	1048576	16	4629
2026-01-07 11:38:36.94	325.72	14.38	-28.1	-30.0	14.2	3.00e-06	0	43	102	1048576	16	4480
2026-01-07 11:38:39.94	326.05	14.12	-28.0	-29.9	14.3	0.00e+00	0	43	102	1048576	16	4451
2026-01-07 11:38:42.97	326.38	13.86	-28.2	-30.3	14.0	2.20e-06	0	43	102	1048576	16	4583
2026-01-07 11:38:45.98	326.71	13.60	-28.4	-30.7	13.7	6.10e-06	0	43	102	1048576	16	4711
2026-01-07 11:38:48.99	327.03	13.35	-28.5	-30.5	13.5	7.60e-06	0	44	102	1048576	17	4557
2026-01-07 11:38:52.02	327.34	13.09	-28.5	-30.5	13.6	7.60e-06	0	44	102	1048576	17	4524
2026-01-07 11:38:55.03	327.65	12.84	-28.4	-30.2	13.7	3.80e-06	0	43	102	1048576	17	4449
2026-01-07 11:38:58.05	327.96	12.59	-28.3	-30.2	13.7	1.14e-05	0	43	102	1048576	17	4447
2026-01-07 11:39:01.07	328.26	12.34	-28.2	-29.9	13.8	4.50e-06	0	43	102	1048576	17	4363
2026-01-07 11:39:04.09	328.55	12.10	-28.4	-30.3	13.6	1.06e-05	0	43	102	1048576	17	4492
2026-01-07 11:39:07.11	328.84	11.85	-28.2	-29.8	13.9	1.50e-06	0	43	102	1048576	17	4339
2026-01-07 11:39:10.14	329.13	11.61	-28.3	-30.1	13.7	4.50e-06	0	43	102	1048576	17	4410
2026-01-07 11:39:13.16	329.41	11.37	-28.4	-30.2	13.6	7.60e-06	0	43	102	1048576	17	4461
2026-01-07 11:39:16.18	329.69	11.13	-28.4	-30.3	13.5	1.06e-05	0	43	102	1048576	17	4488
2026-01-07 11:39:19.19	329.96	10.89	-28.5	-30.5	13.4	1.14e-05	0	44	102	1048576	17	4550
2026-01-07 11:39:22.21	330.23	10.66	-28.3	-30.1	13.6	1.14e-05	0	43	102	1048576	17	4436
2026-01-07 11:39:25.23	330.50	10.42	-28.4	-30.3	13.5	7.60e-06	0	43	102	1048576	17	4483
2026-01-07 11:39:28.25	330.76	10.19	-28.4	-30.5	13.4	1.14e-05	0	43	102	1048576	17	4552
2026-01-07 11:39:31.26	331.01	9.96	-28.4	-30.3	13.5	6.10e-06	0	44	102	1048576	17	4500
2026-01-07 11:39:34.27	331.27	9.73	-28.3	-30.2	13.5	1.67e-05	0	44	102	1048576	17	4471
2026-01-07 11:39:37.28	331.52	9.51	-28.3	-30.2	13.5	1.22e-05	0	43	102	1048576	17	4469
2026-01-07 11:39:40.30	331.76	9.28	-28.4	-30.3	13.5	1.06e-05	0	43	102	1048576	17	4487
2026-01-07 11:39:43.30	332.00	9.06	-28.6	-30.8	13.0	3.12e-05	0	44	102	1048576	17	4664
2026-01-07 11:39:46.32	332.24	8.84	-28.6	-31.0	13.0	3.12e-05	0	44	102	1048576	17	4715
2026-01-07 11:39:49.34	332.48	8.62	-28.7	-31.2	12.8	6.79e-05	0	43	102	1048576	17	4793
2026-01-07 11:39:52.37	332.71	8.40	-29.0	-31.9	12.4	1.65e-04	0	43	102	1048576	17	5021
2026-01-07 11:39:55.39	332.94	8.18	-29.3	-32.3	11.8	5.56e-04	0	43	102	1048576	18	5064
2026-01-07 11:39:58.40	333.16	7.97	-28.9	-31.1	12.5	1.33e-04	0	44	102	1048576	18	4649
2026-01-07 11:40:01.42	333.39	7.75	-28.8	-31.0	12.5	1.33e-04	0	43	102	1048576	18	4631
2026-01-07 11:40:04.43	333.61	7.54	-29.0	-31.4	12.3	1.63e-04	0	43	102	1048576	18	4737
2026-01-07 11:40:07.45	333.82	7.33	-29.0	-31.5	12.2	2.12e-04	0	43	102	1048576	18	4782
2026-01-07 11:40:10.47	334.04	7.12	-29.1	-31.7	12.1	2.92e-04	0	43	102	1048576	18	4840
2026-01-07 11:40:13.50	334.25	6.91	-33.6	-45.5	3.8	1.49e+00	0	43	104	1048576	27	14188

#Closed at: 2026-01-07 11:40:14
#Recorded file [1 MB]: D:/data/31010_260107_143046.dat