passes_logs/2026/01/07/R2M6_AANII_01/R2M6_AANII_01__20260107_044613_FENGYUN_3D_rec.log

#Pass ID: 20260107_044613_FENGYUN 3D
#Satellite: FENGYUN 3D
#Configuration: FENGYUN 3D
#almurnet v.1.7.20240730
#Start time: 2026-01-07 04:46:14

#Version: 2.2.20231116
#Station: R2M6_AANII_01
#Location: 30.233357 lon 59.946436 lat
#TLE: 1 43010U 17072A   26006.26440730  .00000376  00000+0  19957-3 0  9994
#TLE: 2 43010  98.9925 337.9455 0002045 123.9195 236.2175 14.19693586422016

#Time	Az	El	Level	Level2	SNR	BER	BlckErr	Temp	State	Recorded	gain1	gain2
2026-01-07 04:46:14.52	9.64	7.07	-30.5	-34.9	4.9	8.00e-01	0	41	0	0	21	5940
2026-01-07 04:46:17.53	9.31	7.25	-30.1	-33.9	8.5	5.46e-02	0	41	102	1048576	20	5587
2026-01-07 04:46:20.56	8.98	7.42	-29.9	-33.4	8.9	5.01e-02	0	41	102	1048576	20	5345
2026-01-07 04:46:23.57	8.65	7.60	-28.5	-30.9	11.6	1.16e-03	0	41	102	1048576	17	4756
2026-01-07 04:46:26.59	8.31	7.77	-27.1	-29.0	13.6	1.14e-05	0	41	102	1048576	14	4480
2026-01-07 04:46:29.62	7.97	7.95	-26.8	-28.8	14.0	2.20e-06	0	41	102	1048576	13	4544
2026-01-07 04:46:32.63	7.62	8.13	-26.7	-28.6	14.2	3.40e-06	0	41	102	1048576	13	4476
2026-01-07 04:46:35.66	7.27	8.30	-26.5	-28.2	14.4	1.10e-06	0	42	102	1048576	13	4354
2026-01-07 04:46:38.68	6.92	8.48	-26.5	-28.1	14.5	1.10e-06	0	41	102	1048576	13	4347
2026-01-07 04:46:41.70	6.56	8.66	-26.5	-28.1	14.5	3.40e-06	0	42	102	1048576	13	4337
2026-01-07 04:46:44.71	6.20	8.83	-26.6	-28.4	14.3	4.50e-06	0	42	102	1048576	13	4431
2026-01-07 04:46:47.72	5.83	9.01	-26.7	-28.7	14.3	3.40e-06	0	42	102	1048576	13	4504
2026-01-07 04:46:50.75	5.45	9.19	-26.7	-28.5	14.3	1.10e-06	0	42	102	1048576	13	4450
2026-01-07 04:46:53.77	5.08	9.36	-26.6	-28.3	14.5	4.50e-06	0	42	102	1048576	13	4398
2026-01-07 04:46:56.79	4.69	9.54	-26.6	-28.3	14.4	1.88e-03	0	42	102	1048576	13	4401
2026-01-07 04:46:59.81	4.31	9.72	-26.5	-28.0	14.6	1.90e-04	0	42	102	1048576	13	4305
2026-01-07 04:47:02.82	3.91	9.89	-26.3	-28.1	14.9	1.82e-03	0	42	102	1048576	12	4457
2026-01-07 04:47:05.84	3.52	10.07	-26.3	-28.1	14.9	1.89e-03	0	42	102	1048576	12	4445
2026-01-07 04:47:08.86	3.12	10.25	-26.3	-28.1	14.9	1.78e-03	0	42	102	1048576	12	4431
2026-01-07 04:47:11.88	2.71	10.42	-26.1	-27.8	15.1	9.29e-04	0	42	102	1048576	12	4351
2026-01-07 04:47:14.90	2.30	10.60	-26.5	-28.5	14.7	1.80e-03	0	42	102	1048576	12	4549
2026-01-07 04:47:17.92	1.88	10.78	-26.3	-28.2	14.9	1.57e-03	0	42	102	1048576	12	4474
2026-01-07 04:47:20.93	1.46	10.95	-26.7	-28.5	14.5	1.10e-06	0	42	102	1048576	13	4443
2026-01-07 04:47:23.94	1.03	11.13	-26.4	-28.4	14.8	1.10e-06	0	42	102	1048576	12	4538
2026-01-07 04:47:26.94	0.60	11.30	-26.5	-28.0	14.8	1.78e-03	0	42	102	1048576	13	4292
2026-01-07 04:47:29.97	0.16	11.48	-26.2	-28.0	15.1	1.10e-06	0	42	102	1048576	12	4394
2026-01-07 04:47:32.99	359.72	11.65	-26.1	-27.8	15.2	0.00e+00	0	42	102	1048576	12	4342
2026-01-07 04:47:36.00	359.27	11.83	-26.0	-27.5	15.4	0.00e+00	0	42	102	1048576	12	4266
2026-01-07 04:47:39.03	358.81	12.00	-26.0	-27.4	15.4	0.00e+00	0	43	102	1048576	12	4237
2026-01-07 04:47:42.05	358.35	12.17	-25.9	-27.3	15.5	0.00e+00	0	43	102	1048576	12	4215
2026-01-07 04:47:45.07	357.89	12.35	-25.8	-27.6	15.6	0.00e+00	0	43	102	1048576	11	4393
2026-01-07 04:47:48.08	357.42	12.52	-25.9	-27.3	15.5	0.00e+00	0	43	102	1048576	12	4217
2026-01-07 04:47:51.09	356.94	12.69	-25.7	-27.4	15.8	0.00e+00	0	43	102	1048576	11	4345
2026-01-07 04:47:54.12	356.46	12.86	-25.7	-27.2	15.9	0.00e+00	0	43	102	1048576	11	4301
2026-01-07 04:47:57.14	355.97	13.03	-25.7	-27.2	15.9	0.00e+00	0	43	102	1048576	11	4293
2026-01-07 04:48:00.16	355.48	13.20	-25.5	-26.9	16.1	0.00e+00	0	43	102	1048576	11	4206
2026-01-07 04:48:03.18	354.98	13.36	-25.6	-26.9	16.1	0.00e+00	0	43	102	1048576	11	4227
2026-01-07 04:48:06.20	354.47	13.53	-25.9	-27.6	15.7	0.00e+00	0	43	102	1048576	11	4409
2026-01-07 04:48:09.23	353.96	13.70	-26.0	-27.6	15.4	8.47e-04	0	43	102	1048576	12	4292
2026-01-07 04:48:12.24	353.44	13.86	-25.7	-27.2	16.0	0.00e+00	0	43	102	1048576	11	4290
2026-01-07 04:48:15.26	352.92	14.02	-25.6	-27.1	16.0	0.00e+00	0	43	102	1048576	11	4265
2026-01-07 04:48:18.28	352.39	14.18	-25.2	-26.7	16.5	7.21e-04	0	43	102	1048576	10	4267
2026-01-07 04:48:21.31	351.85	14.35	-25.2	-26.8	16.5	7.95e-04	0	43	102	1048576	10	4287
2026-01-07 04:48:24.33	351.31	14.50	-25.2	-26.8	16.5	0.00e+00	0	43	102	1048576	10	4283
2026-01-07 04:48:27.35	350.76	14.66	-25.3	-26.8	16.5	7.74e-04	0	43	102	1048576	10	4310
2026-01-07 04:48:30.38	350.21	14.82	-25.4	-26.6	16.4	9.19e-04	0	43	102	1048576	11	4121
2026-01-07 04:48:33.40	349.65	14.97	-25.4	-26.7	16.3	9.28e-04	0	43	102	1048576	11	4154
2026-01-07 04:48:36.43	349.09	15.12	-25.3	-26.8	16.5	9.15e-04	0	43	102	1048576	10	4286
2026-01-07 04:48:39.45	348.52	15.27	-25.3	-26.9	16.5	9.20e-04	0	43	102	1048576	10	4315
2026-01-07 04:48:42.46	347.94	15.42	-25.1	-26.4	16.7	0.00e+00	0	43	102	1048576	10	4193
2026-01-07 04:48:45.47	347.36	15.57	-25.0	-26.2	16.9	0.00e+00	0	43	102	1048576	10	4139
2026-01-07 04:48:48.50	346.77	15.71	-25.1	-26.0	16.7	0.00e+00	0	43	102	1048576	11	3980
2026-01-07 04:48:51.52	346.18	15.85	-25.1	-26.4	16.7	0.00e+00	0	43	102	1048576	10	4199
2026-01-07 04:48:54.54	345.58	15.99	-25.0	-26.1	16.9	0.00e+00	0	43	102	1048576	10	4118
2026-01-07 04:48:57.56	344.97	16.13	-24.8	-25.9	17.0	0.00e+00	0	43	102	1048576	10	4055
2026-01-07 04:49:00.58	344.36	16.26	-24.8	-26.2	17.1	0.00e+00	0	43	102	1048576	9	4250
2026-01-07 04:49:03.60	343.75	16.40	-24.9	-26.5	16.9	0.00e+00	0	43	102	1048576	9	4331
2026-01-07 04:49:06.61	343.13	16.52	-25.2	-26.7	16.6	0.00e+00	0	43	102	1048576	10	4258
2026-01-07 04:49:09.64	342.50	16.65	-25.0	-26.3	16.9	0.00e+00	0	43	102	1048576	10	4153
2026-01-07 04:49:12.65	341.87	16.77	-24.7	-26.1	17.2	0.00e+00	0	43	102	1048576	9	4229
2026-01-07 04:49:15.67	341.23	16.89	-24.5	-25.7	17.4	0.00e+00	0	43	102	1048576	9	4136
2026-01-07 04:49:18.69	340.59	17.01	-24.8	-26.3	17.1	0.00e+00	0	43	102	1048576	9	4282
2026-01-07 04:49:21.70	339.94	17.13	-24.9	-26.0	17.0	0.00e+00	0	43	102	1048576	10	4093
2026-01-07 04:49:24.71	339.29	17.24	-25.1	-26.5	16.7	0.00e+00	0	43	102	1048576	10	4207
2026-01-07 04:49:27.73	338.64	17.34	-24.2	-25.1	17.7	0.00e+00	0	43	102	1048576	9	3971
2026-01-07 04:49:30.75	337.97	17.45	-24.3	-25.6	17.1	0.00e+00	0	43	102	1048576	8	4212
2026-01-07 04:49:33.77	337.31	17.55	-24.1	-25.4	17.8	0.00e+00	0	43	102	1048576	8	4151
2026-01-07 04:49:36.79	336.64	17.65	-24.3	-25.7	17.7	0.00e+00	0	43	102	1048576	8	4229
2026-01-07 04:49:39.81	335.96	17.74	-24.2	-25.6	17.7	0.00e+00	0	43	102	1048576	8	4210
2026-01-07 04:49:42.83	335.28	17.83	-24.2	-25.6	17.7	0.00e+00	0	43	102	1048576	8	4198
2026-01-07 04:49:45.85	334.60	17.91	-24.4	-25.9	17.6	0.00e+00	0	43	102	1048576	8	4275
2026-01-07 04:49:48.86	333.91	18.00	-24.3	-25.8	17.6	0.00e+00	0	43	102	1048576	8	4250
2026-01-07 04:49:51.88	333.22	18.07	-24.3	-25.7	17.7	0.00e+00	0	43	102	1048576	8	4223
2026-01-07 04:49:54.90	332.53	18.15	-24.2	-25.5	17.8	0.00e+00	0	43	102	1048576	8	4171
2026-01-07 04:49:57.92	331.83	18.22	-24.1	-25.3	17.9	0.00e+00	0	43	102	1048576	8	4144
2026-01-07 04:50:00.93	331.13	18.28	-23.9	-24.9	18.1	0.00e+00	0	43	102	1048576	8	4029
2026-01-07 04:50:03.94	330.43	18.34	-23.8	-24.7	18.2	0.00e+00	0	43	102	1048576	8	3976
2026-01-07 04:50:06.96	329.72	18.40	-23.8	-25.2	18.2	0.00e+00	0	43	102	1048576	7	4212
2026-01-07 04:50:09.97	329.02	18.45	-23.9	-25.4	18.1	0.00e+00	0	43	102	1048576	7	4282
2026-01-07 04:50:13.00	328.30	18.50	-24.1	-25.2	17.9	0.00e+00	0	43	102	1048576	8	4104
2026-01-07 04:50:16.01	327.59	18.54	-23.9	-24.9	18.1	0.00e+00	0	43	102	1048576	8	4042
2026-01-07 04:50:19.04	326.87	18.58	-24.2	-25.4	17.9	0.00e+00	0	43	102	1048576	8	4157
2026-01-07 04:50:22.06	326.15	18.61	-23.7	-24.5	18.3	0.00e+00	0	43	102	1048576	8	3941
2026-01-07 04:50:25.08	325.43	18.64	-23.8	-25.2	18.2	0.00e+00	0	43	102	1048576	7	4230
2026-01-07 04:50:28.09	324.72	18.67	-24.1	-25.2	18.0	0.00e+00	0	43	102	1048576	8	4104
2026-01-07 04:50:31.11	323.99	18.69	-24.1	-25.2	17.9	0.00e+00	0	43	102	1048576	8	4110
2026-01-07 04:50:34.13	323.27	18.70	-23.9	-24.8	18.1	0.00e+00	0	43	102	1048576	8	4010
2026-01-07 04:50:37.15	322.55	18.72	-23.7	-24.5	18.3	0.00e+00	0	43	102	1048576	8	3941
2026-01-07 04:50:40.17	321.82	18.72	-23.6	-24.6	18.5	0.00e+00	0	43	102	1048576	7	4074
2026-01-07 04:50:43.18	321.10	18.72	-23.6	-24.7	18.4	0.00e+00	0	43	102	1048576	7	4092
2026-01-07 04:50:46.20	320.38	18.72	-23.7	-25.0	18.3	0.00e+00	0	43	102	1048576	7	4167
2026-01-07 04:50:49.22	319.65	18.71	-24.0	-25.0	13.2	0.00e+00	0	43	102	1048576	8	4065
2026-01-07 04:50:52.24	318.93	18.70	-24.0	-25.5	18.0	0.00e+00	0	43	102	1048576	7	4304
2026-01-07 04:50:55.26	318.21	18.68	-24.1	-25.2	17.9	0.00e+00	0	43	102	1048576	8	4113
2026-01-07 04:50:58.28	317.49	18.66	-24.3	-25.8	17.6	0.00e+00	0	43	102	1048576	8	4257
2026-01-07 04:51:01.31	316.76	18.63	-24.6	-25.9	17.3	0.00e+00	0	43	102	1048576	9	4163
2026-01-07 04:51:04.33	316.05	18.60	-24.6	-25.9	17.3	1.33e-03	0	43	102	1048576	9	4164
2026-01-07 04:51:07.35	315.33	18.56	-24.2	-25.5	17.8	1.34e-03	0	43	102	1048576	8	4189
2026-01-07 04:51:10.36	314.61	18.52	-24.2	-25.5	17.8	7.33e-04	0	43	102	1048576	8	4179
2026-01-07 04:51:13.39	313.90	18.48	-23.9	-25.3	18.1	1.12e-03	0	43	102	1048576	7	4245
2026-01-07 04:51:16.40	313.19	18.43	-24.0	-25.2	17.9	1.45e-03	0	43	102	1048576	8	4108
2026-01-07 04:51:19.43	312.48	18.37	-24.1	-24.7	17.9	0.00e+00	0	43	102	1048576	9	3881
2026-01-07 04:51:22.45	311.77	18.31	-24.0	-25.0	18.0	0.00e+00	0	43	102	1048576	8	4051
2026-01-07 04:51:25.47	311.07	18.25	-23.8	-24.7	18.1	1.25e-03	0	43	102	1048576	8	3995
2026-01-07 04:51:28.48	310.37	18.18	-24.0	-25.1	18.0	0.00e+00	0	43	102	1048576	8	4073
2026-01-07 04:51:31.50	309.67	18.11	-24.0	-25.0	18.0	0.00e+00	0	43	102	1048576	8	4047
2026-01-07 04:51:34.52	308.98	18.03	-24.0	-25.0	18.0	0.00e+00	0	43	102	1048576	8	4053
2026-01-07 04:51:37.54	308.29	17.95	-24.1	-25.3	17.8	0.00e+00	0	43	102	1048576	8	4143
2026-01-07 04:51:40.56	307.60	17.87	-24.2	-25.5	17.7	0.00e+00	0	43	102	1048576	8	4186
2026-01-07 04:51:43.58	306.92	17.78	-24.2	-25.5	17.7	0.00e+00	0	43	102	1048576	8	4197
2026-01-07 04:51:46.59	306.24	17.69	-24.0	-25.0	18.0	0.00e+00	0	43	102	1048576	8	4057
2026-01-07 04:51:49.61	305.57	17.60	-24.0	-25.2	17.9	0.00e+00	0	43	102	1048576	8	4104
2026-01-07 04:51:52.63	304.90	17.50	-23.9	-24.8	18.1	0.00e+00	0	43	102	1048576	8	4006
2026-01-07 04:51:55.64	304.23	17.40	-24.0	-25.0	17.9	0.00e+00	0	43	102	1048576	8	4062
2026-01-07 04:51:58.67	303.57	17.29	-24.2	-25.6	17.6	0.00e+00	0	43	102	1048576	8	4214
2026-01-07 04:52:01.69	302.91	17.18	-24.3	-25.8	17.5	0.00e+00	0	43	102	1048576	8	4259
2026-01-07 04:52:04.72	302.26	17.07	-24.8	-26.4	16.9	0.00e+00	0	43	102	1048576	9	4314
2026-01-07 04:52:07.73	301.61	16.95	-24.0	-25.0	15.2	0.00e+00	0	43	102	1048576	8	4055
2026-01-07 04:52:10.76	300.97	16.83	-24.3	-25.7	17.4	0.00e+00	0	43	102	1048576	8	4228
2026-01-07 04:52:13.78	300.33	16.71	-24.2	-25.5	17.6	0.00e+00	0	43	102	1048576	8	4194
2026-01-07 04:52:16.80	299.70	16.58	-24.5	-25.7	17.2	0.00e+00	0	43	102	1048576	9	4128
2026-01-07 04:52:19.82	299.08	16.46	-24.5	-25.7	17.3	6.82e-04	0	43	102	1048576	9	4112
2026-01-07 04:52:22.84	298.46	16.33	-24.5	-25.7	17.3	0.00e+00	0	43	102	1048576	9	4124
2026-01-07 04:52:25.86	297.84	16.19	-24.6	-25.9	17.1	0.00e+00	0	43	102	1048576	9	4190
2026-01-07 04:52:28.89	297.23	16.06	-24.5	-25.7	17.3	7.03e-04	0	43	102	1048576	9	4111
2026-01-07 04:52:31.91	296.63	15.92	-24.7	-26.1	17.0	4.47e-04	0	43	102	1048576	9	4230
2026-01-07 04:52:34.93	296.03	15.78	-24.6	-25.9	17.1	0.00e+00	0	43	102	1048576	9	4179
2026-01-07 04:52:37.95	295.44	15.63	-24.7	-26.1	17.0	1.23e-03	0	43	102	1048576	9	4237
2026-01-07 04:52:40.97	294.85	15.49	-25.1	-26.4	16.6	0.00e+00	0	43	102	1048576	10	4203
2026-01-07 04:52:43.99	294.27	15.34	-25.0	-26.3	16.6	0.00e+00	0	43	102	1048576	10	4166
2026-01-07 04:52:47.00	293.69	15.19	-25.2	-26.8	16.4	0.00e+00	0	43	102	1048576	10	4288
2026-01-07 04:52:50.02	293.13	15.04	-25.4	-27.0	16.2	0.00e+00	0	43	102	1048576	10	4363
2026-01-07 04:52:53.04	292.56	14.89	-24.9	-26.1	16.7	0.00e+00	0	43	102	1048576	10	4114
2026-01-07 04:52:56.06	292.00	14.73	-25.0	-26.2	16.7	0.00e+00	0	43	102	1048576	10	4147
2026-01-07 04:52:59.08	291.45	14.57	-24.9	-26.6	16.7	0.00e+00	0	43	102	1048576	9	4364
2026-01-07 04:53:02.10	290.91	14.41	-25.0	-26.3	16.6	0.00e+00	0	43	102	1048576	10	4165
2026-01-07 04:53:05.12	290.37	14.25	-25.0	-26.3	16.6	0.00e+00	0	43	102	1048576	10	4166
2026-01-07 04:53:08.14	289.83	14.09	-25.3	-26.9	16.3	0.00e+00	0	43	102	1048576	10	4334
2026-01-07 04:53:11.16	289.30	13.93	-25.4	-26.7	16.1	0.00e+00	0	43	102	1048576	11	4172
2026-01-07 04:53:14.17	288.78	13.77	-25.2	-26.8	16.3	0.00e+00	0	43	102	1048576	10	4303
2026-01-07 04:53:17.18	288.27	13.60	-25.2	-26.8	16.3	0.00e+00	0	43	102	1048576	10	4305
2026-01-07 04:53:20.20	287.76	13.44	-25.0	-26.2	16.6	0.00e+00	0	43	102	1048576	10	4141
2026-01-07 04:53:23.23	287.25	13.27	-25.3	-26.9	16.2	0.00e+00	0	43	102	1048576	10	4325
2026-01-07 04:53:26.25	286.75	13.10	-24.7	-26.3	15.7	0.00e+00	0	43	102	1048576	10	4358
2026-01-07 04:53:29.26	286.26	12.93	-25.1	-26.4	16.4	0.00e+00	0	43	102	1048576	10	4193
2026-01-07 04:53:32.29	285.77	12.76	-25.3	-26.9	16.2	2.33e-04	0	43	102	1048576	10	4322
2026-01-07 04:53:35.31	285.29	12.59	-25.4	-27.3	16.0	0.00e+00	0	43	102	1048576	10	4431
2026-01-07 04:53:38.33	284.81	12.42	-25.6	-27.0	15.9	0.00e+00	0	44	102	1048576	11	4248
2026-01-07 04:53:41.35	284.34	12.24	-25.6	-27.1	15.7	1.52e-04	0	43	102	1048576	11	4284
2026-01-07 04:53:44.38	283.87	12.07	-25.8	-27.4	15.6	2.63e-04	0	43	102	1048576	11	4372
2026-01-07 04:53:47.40	283.41	11.89	-26.1	-27.7	15.1	1.10e-06	0	44	102	1048576	12	4330
2026-01-07 04:53:50.42	282.96	11.72	-26.0	-27.9	15.3	8.58e-04	0	43	102	1048576	11	4493
2026-01-07 04:53:53.44	282.51	11.55	-25.9	-27.8	15.3	8.50e-04	0	43	102	1048576	11	4479
2026-01-07 04:53:56.47	282.07	11.37	-25.8	-27.5	15.5	0.00e+00	0	43	102	1048576	11	4387
2026-01-07 04:53:59.49	281.63	11.19	-25.9	-27.8	15.3	3.17e-04	0	44	102	1048576	11	4458
2026-01-07 04:54:02.51	281.19	11.02	-25.9	-27.4	15.2	3.15e-04	0	43	102	1048576	12	4257
2026-01-07 04:54:05.52	280.77	10.84	-25.8	-27.2	15.3	0.00e+00	0	43	102	1048576	12	4185
2026-01-07 04:54:08.54	280.35	10.66	-26.1	-27.8	14.9	0.00e+00	0	43	102	1048576	12	4367
2026-01-07 04:54:11.57	279.93	10.49	-26.0	-27.6	15.0	0.00e+00	0	43	102	1048576	12	4309
2026-01-07 04:54:14.58	279.52	10.31	-26.0	-27.5	15.1	0.00e+00	0	43	102	1048576	12	4279
2026-01-07 04:54:17.59	279.11	10.13	-26.1	-27.6	15.0	0.00e+00	0	44	102	1048576	12	4317
2026-01-07 04:54:20.60	278.71	9.96	-26.2	-28.1	14.7	1.10e-06	0	44	102	1048576	12	4436
2026-01-07 04:54:23.62	278.31	9.78	-26.0	-27.5	15.0	3.40e-06	0	43	102	1048576	12	4296
2026-01-07 04:54:26.64	277.92	9.60	-26.1	-27.8	14.8	0.00e+00	0	43	102	1048576	12	4374
2026-01-07 04:54:29.67	277.53	9.42	-26.3	-28.3	14.6	0.00e+00	0	43	102	1048576	12	4509
2026-01-07 04:54:32.69	277.15	9.25	-27.4	-29.8	13.1	2.74e-05	0	43	102	1048576	14	4734
2026-01-07 04:54:35.71	276.77	9.07	-26.7	-28.6	14.1	4.50e-06	0	43	102	1048576	13	4490
2026-01-07 04:54:38.73	276.40	8.89	-26.7	-28.5	14.1	2.20e-06	0	43	102	1048576	13	4461
2026-01-07 04:54:41.74	276.03	8.71	-26.5	-28.6	14.3	1.10e-06	0	43	102	1048576	12	4589
2026-01-07 04:54:44.76	275.67	8.54	-26.8	-28.4	13.9	3.40e-06	0	43	102	1048576	14	4326
2026-01-07 04:54:47.77	275.31	8.36	-26.9	-29.1	13.7	4.50e-06	0	43	102	1048576	13	4650
2026-01-07 04:54:50.79	274.95	8.18	-26.2	-28.3	13.2	1.14e-05	0	43	102	1048576	13	4585
2026-01-07 04:54:53.81	274.60	8.01	-26.8	-28.8	13.8	3.40e-06	0	43	102	1048576	13	4544
2026-01-07 04:54:56.83	274.26	7.83	-26.7	-28.8	13.9	6.80e-06	0	43	102	1048576	13	4538
2026-01-07 04:54:59.86	273.91	7.65	-26.8	-28.9	13.7	1.02e-05	0	44	102	1048576	13	4587
2026-01-07 04:55:02.87	273.58	7.48	-26.6	-28.5	13.9	2.60e-03	0	44	102	1048576	13	4481
2026-01-07 04:55:05.90	273.24	7.30	-26.7	-28.6	13.8	3.32e-03	0	43	102	1048576	13	4502
2026-01-07 04:55:08.92	272.91	7.13	-26.6	-28.6	13.9	1.14e-05	0	43	102	1048576	13	4492
2026-01-07 04:55:11.94	272.59	6.95	-32.9	-44.3	3.8	8.46e-01	0	43	104	1048576	25	13390

#Closed at: 2026-01-07 04:55:12
#Recorded file [1 MB]: D:/data/31010_260107_074616.dat