passes_logs/2026/01/07/R2M6_AANII_01/R2M6_AANII_01__20260107_034930_AQUA_rec.log

#Pass ID: 20260107_034930_AQUA
#Satellite: AQUA
#Configuration: AQUA
#almurnet v.1.7.20240730
#Start time: 2026-01-07 03:49:30

#Version: 2.2.20231116
#Station: R2M6_AANII_01
#Location: 30.233357 lon 59.946436 lat
#TLE: 1 27424U 02022A   26004.96787593  .00001598  00000+0  32997-3 0  9996
#TLE: 2 27424  98.4069 331.2279 0002002  90.2377   0.6092 14.61798176259425

#Time	Az	El	Level	Level2	SNR	BER	BlckErr	Temp	State	Recorded	gain1	gain2
2026-01-07 03:49:30.36	5.50	6.98	-32.3	-49.1	3.8	7.43e-01	0	41	0	0	25	24779
2026-01-07 03:49:32.38	5.28	7.11	-31.9	-47.8	3.8	7.43e-01	0	41	104	0	24	22326
2026-01-07 03:49:34.39	5.05	7.24	-31.9	-47.6	3.8	7.46e-01	0	41	104	0	24	21904
2026-01-07 03:49:36.40	4.83	7.37	-32.0	-47.8	3.8	7.46e-01	0	41	104	0	24	22329
2026-01-07 03:49:38.41	4.60	7.50	-31.8	-47.0	3.8	7.46e-01	0	41	104	0	24	20775
2026-01-07 03:49:40.42	4.37	7.63	-31.2	-45.5	3.8	7.45e-01	0	41	104	0	23	18679
2026-01-07 03:49:42.43	4.13	7.77	-31.0	-45.1	3.8	7.44e-01	0	41	104	0	22	18318
2026-01-07 03:49:44.45	3.90	7.90	-31.1	-44.9	3.8	7.47e-01	0	41	104	0	23	17721
2026-01-07 03:49:46.46	3.66	8.03	-30.7	-44.4	3.8	7.45e-01	0	41	104	0	22	17261
2026-01-07 03:49:48.47	3.42	8.17	-30.6	-44.0	3.8	7.44e-01	0	41	104	0	22	16778
2026-01-07 03:49:50.48	3.18	8.30	-30.9	-44.9	3.8	7.43e-01	0	41	104	0	22	17947
2026-01-07 03:49:52.50	2.93	8.43	-31.4	-46.1	3.8	7.45e-01	0	41	104	0	23	19490
2026-01-07 03:49:54.51	2.68	8.57	-31.9	-47.5	3.8	7.43e-01	0	41	104	0	24	21476
2026-01-07 03:49:56.52	2.43	8.70	-32.0	-47.6	3.8	7.46e-01	0	41	104	0	24	21867
2026-01-07 03:49:58.54	2.17	8.84	-32.1	-47.7	3.8	7.44e-01	0	42	104	0	25	21641
2026-01-07 03:50:00.55	1.92	8.98	-32.3	-48.4	3.8	7.44e-01	0	42	104	0	25	22937
2026-01-07 03:50:02.56	1.66	9.11	-32.4	-49.2	3.8	7.43e-01	0	42	104	0	25	24799
2026-01-07 03:50:04.58	1.40	9.25	-32.7	-50.1	3.8	7.46e-01	0	42	104	0	26	26500
2026-01-07 03:50:06.59	1.13	9.38	-32.9	-51.0	3.8	7.44e-01	0	42	104	0	26	28942
2026-01-07 03:50:08.60	0.87	9.52	-32.9	-51.3	3.8	7.48e-01	0	42	104	0	26	29683
2026-01-07 03:50:10.60	0.60	9.66	-32.9	-50.8	3.8	7.45e-01	0	42	104	0	26	28262
2026-01-07 03:50:12.62	0.32	9.79	-32.8	-50.2	3.8	7.46e-01	0	42	104	0	26	26741
2026-01-07 03:50:14.62	0.05	9.93	-32.7	-49.6	3.8	7.45e-01	0	42	104	0	26	25278
2026-01-07 03:50:16.64	359.77	10.07	-32.5	-49.2	3.9	7.44e-01	0	42	104	0	25	24642
2026-01-07 03:50:18.65	359.49	10.21	-32.2	-47.8	3.8	7.42e-01	0	42	104	0	25	21708
2026-01-07 03:50:20.67	359.20	10.34	-31.9	-47.1	3.8	7.43e-01	0	42	104	0	24	20611
2026-01-07 03:50:22.68	358.92	10.48	-31.9	-47.2	3.8	7.44e-01	0	42	104	0	24	20773
2026-01-07 03:50:24.69	358.63	10.62	-32.2	-47.4	3.8	7.45e-01	0	42	104	0	25	20941
2026-01-07 03:50:26.70	358.33	10.76	-32.2	-47.7	3.8	7.49e-01	0	42	104	0	25	21317
2026-01-07 03:50:28.72	358.03	10.90	-31.7	-46.3	3.8	7.48e-01	0	42	104	0	24	19303
2026-01-07 03:50:30.73	357.73	11.04	-31.2	-44.9	3.8	7.44e-01	0	42	104	0	23	17568
2026-01-07 03:50:32.75	357.43	11.18	-30.8	-44.3	3.8	7.43e-01	0	42	104	0	22	17047
2026-01-07 03:50:34.76	357.12	11.32	-30.3	-43.4	3.8	7.43e-01	0	42	104	0	21	16270
2026-01-07 03:50:36.77	356.82	11.46	-30.1	-43.2	3.8	7.46e-01	0	42	104	0	20	16333
2026-01-07 03:50:38.77	356.50	11.59	-30.1	-43.3	3.8	7.45e-01	0	42	104	0	20	16445
2026-01-07 03:50:40.78	356.19	11.73	-30.5	-43.9	3.8	7.46e-01	0	42	104	0	21	16926
2026-01-07 03:50:42.79	355.87	11.87	-31.2	-45.0	3.8	7.48e-01	0	42	104	0	23	17604
2026-01-07 03:50:44.81	355.55	12.01	-31.8	-46.6	3.8	7.47e-01	0	42	104	0	24	19664
2026-01-07 03:50:46.82	355.22	12.15	-32.0	-47.4	3.8	7.45e-01	0	42	104	0	24	21098
2026-01-07 03:50:48.83	354.89	12.29	-32.3	-47.8	3.8	7.47e-01	0	42	104	0	25	21445
2026-01-07 03:50:50.84	354.56	12.43	-32.3	-47.9	3.8	7.47e-01	0	42	104	0	25	21646
2026-01-07 03:50:52.86	354.22	12.57	-32.3	-47.9	3.8	7.43e-01	0	42	104	0	25	21682
2026-01-07 03:50:54.88	353.88	12.71	-32.7	-49.2	3.8	7.45e-01	0	42	104	0	26	23983
2026-01-07 03:50:56.90	353.54	12.85	-33.0	-50.6	3.8	7.47e-01	0	42	104	0	26	27242
2026-01-07 03:50:58.91	353.19	12.99	-33.1	-50.9	3.8	7.47e-01	0	42	104	0	26	28144
2026-01-07 03:51:00.92	352.84	13.13	-33.0	-50.2	3.8	7.46e-01	0	42	104	0	26	26194
2026-01-07 03:51:02.94	352.48	13.27	-32.9	-49.7	3.8	7.46e-01	0	43	104	0	26	25087
2026-01-07 03:51:04.95	352.13	13.41	-32.8	-49.5	3.8	7.44e-01	0	43	104	0	26	24480
2026-01-07 03:51:06.96	351.76	13.55	-32.7	-48.7	3.8	7.47e-01	0	43	104	0	26	22851
2026-01-07 03:51:08.98	351.40	13.69	-32.3	-47.5	3.8	7.42e-01	0	43	104	0	25	20902
2026-01-07 03:51:10.99	351.03	13.83	-31.9	-46.6	3.8	7.46e-01	0	43	104	0	24	19648
2026-01-07 03:51:13.01	350.65	13.97	-32.1	-47.1	3.8	7.44e-01	0	42	104	0	25	20075
2026-01-07 03:51:15.01	350.28	14.10	-32.2	-47.2	3.8	7.42e-01	0	43	104	0	25	20285
2026-01-07 03:51:17.01	349.90	14.24	-31.9	-46.8	3.8	7.42e-01	0	43	104	0	24	19946
2026-01-07 03:51:19.03	349.52	14.38	-31.2	-44.9	3.8	7.43e-01	0	43	104	0	23	17460
2026-01-07 03:51:21.04	349.13	14.51	-30.8	-44.1	3.8	7.44e-01	0	43	104	0	22	16683
2026-01-07 03:51:23.05	348.74	14.65	-30.6	-43.4	3.8	7.43e-01	0	43	104	0	22	15863
2026-01-07 03:51:25.06	348.34	14.79	-30.3	-43.3	3.8	7.48e-01	0	43	104	0	21	16063
2026-01-07 03:51:27.08	347.94	14.92	-30.1	-42.6	3.8	7.44e-01	0	43	104	0	21	15171
2026-01-07 03:51:29.09	347.54	15.06	-30.2	-42.9	3.8	7.42e-01	0	43	104	0	21	15615
2026-01-07 03:51:31.10	347.13	15.19	-30.6	-43.7	3.9	7.42e-01	0	43	104	0	22	16217
2026-01-07 03:51:33.12	346.72	15.33	-31.3	-45.0	3.8	7.45e-01	0	43	104	0	23	17549
2026-01-07 03:51:35.13	346.30	15.46	-31.9	-46.8	3.8	7.46e-01	0	43	104	0	24	19822
2026-01-07 03:51:37.15	345.88	15.59	-31.0	-45.9	3.8	7.47e-01	0	43	104	0	25	19948
2026-01-07 03:51:39.17	345.45	15.72	-32.2	-47.1	3.8	7.42e-01	0	43	104	0	25	20029
2026-01-07 03:51:41.18	345.03	15.86	-32.0	-46.8	3.8	7.45e-01	0	43	104	0	24	19895
2026-01-07 03:51:43.20	344.59	15.99	-32.3	-47.4	3.8	7.44e-01	0	43	104	0	25	20515
2026-01-07 03:51:45.20	344.16	16.12	-32.8	-48.9	3.8	7.46e-01	0	43	104	0	26	23122
2026-01-07 03:51:47.22	343.72	16.24	-33.0	-43.2	4.7	7.20e-01	0	43	104	0	26	11655
2026-01-07 03:51:49.24	343.27	16.37	-33.0	-42.7	9.2	6.33e-01	0	43	102	524288	26	10945
2026-01-07 03:51:51.26	342.82	16.50	-32.9	-42.0	9.8	6.22e-01	0	43	102	524288	26	10242
2026-01-07 03:51:53.28	342.36	16.63	-32.9	-41.7	10.1	6.22e-01	0	43	102	524288	26	9882
2026-01-07 03:51:55.29	341.91	16.75	-32.9	-41.6	10.2	6.16e-01	0	43	102	524288	26	9811
2026-01-07 03:51:57.30	341.45	16.87	-32.9	-41.5	10.3	6.17e-01	0	43	102	524288	26	9698
2026-01-07 03:51:59.32	340.98	17.00	-32.8	-40.7	10.9	6.14e-01	0	43	102	524288	26	8997
2026-01-07 03:52:01.33	340.51	17.12	-32.4	-39.5	12.3	6.05e-01	0	43	102	524288	25	8122
2026-01-07 03:52:03.35	340.04	17.24	-31.8	-37.4	14.4	6.02e-01	0	43	102	524288	24	6857
2026-01-07 03:52:05.36	339.56	17.36	-31.3	-36.0	15.9	6.03e-01	0	43	102	524288	23	6162
2026-01-07 03:52:07.38	339.08	17.48	-30.9	-35.1	16.9	6.02e-01	0	43	102	524288	22	5838
2026-01-07 03:52:09.40	338.59	17.59	-30.6	-34.2	17.5	6.02e-01	0	43	102	524288	22	5466
2026-01-07 03:52:11.42	338.10	17.71	-30.0	-33.2	18.4	6.05e-01	0	43	102	524288	21	5173
2026-01-07 03:52:13.43	337.61	17.82	-30.0	-33.6	18.4	6.04e-01	0	43	102	524288	20	5466
2026-01-07 03:52:15.44	337.11	17.93	-30.2	-33.6	18.2	6.04e-01	0	43	102	524288	21	5330
2026-01-07 03:52:17.46	336.61	18.04	-30.3	-33.9	18.1	6.02e-01	0	43	102	524288	21	5432
2026-01-07 03:52:19.47	336.10	18.15	-29.6	-32.6	19.1	6.01e-01	0	43	102	524288	20	5071
2026-01-07 03:52:21.48	335.60	18.26	-29.6	-32.5	19.2	6.02e-01	0	43	102	524288	20	5016
2026-01-07 03:52:23.50	335.08	18.36	-29.8	-33.1	18.7	6.02e-01	0	43	102	524288	20	5265
2026-01-07 03:52:25.50	334.57	18.47	-29.6	-32.6	19.2	6.03e-01	0	43	102	524288	20	5057
2026-01-07 03:52:27.51	334.05	18.57	-29.6	-32.6	19.1	6.01e-01	0	43	102	524288	20	5076
2026-01-07 03:52:29.53	333.52	18.67	-29.7	-32.7	19.1	6.01e-01	0	43	102	524288	20	5103
2026-01-07 03:52:31.54	333.00	18.76	-29.6	-32.6	19.2	6.05e-01	0	43	102	524288	20	5063
2026-01-07 03:52:33.55	332.46	18.86	-29.7	-32.7	19.0	6.02e-01	0	43	102	524288	20	5109
2026-01-07 03:52:35.56	331.93	18.95	-29.8	-33.1	18.9	6.02e-01	0	43	102	524288	20	5241
2026-01-07 03:52:37.57	331.39	19.04	-29.9	-33.3	18.8	6.02e-01	0	43	102	524288	20	5309
2026-01-07 03:52:39.58	330.85	19.13	-29.8	-33.0	18.9	6.02e-01	0	43	102	524288	20	5201
2026-01-07 03:52:41.59	330.31	19.22	-29.7	-32.8	19.0	6.03e-01	0	43	102	524288	20	5151
2026-01-07 03:52:43.61	329.76	19.30	-29.8	-32.9	19.0	6.03e-01	0	43	102	524288	20	5180
2026-01-07 03:52:45.62	329.21	19.39	-29.8	-33.0	19.0	6.03e-01	0	43	102	524288	20	5203
2026-01-07 03:52:47.63	328.65	19.47	-29.9	-33.4	18.7	6.04e-01	0	43	102	524288	20	5351
2026-01-07 03:52:49.65	328.09	19.54	-29.8	-33.0	19.0	6.04e-01	0	43	102	524288	20	5193
2026-01-07 03:52:51.65	327.54	19.62	-29.9	-33.3	18.8	6.03e-01	0	43	102	524288	20	5327
2026-01-07 03:52:53.67	326.97	19.69	-29.9	-33.2	18.8	6.03e-01	0	43	102	524288	20	5289
2026-01-07 03:52:55.68	326.40	19.76	-30.0	-33.0	18.6	6.02e-01	0	43	102	524288	21	5090
2026-01-07 03:52:57.70	325.83	19.83	-29.8	-32.9	19.0	6.02e-01	0	43	102	524288	20	5169
2026-01-07 03:52:59.71	325.26	19.89	-29.8	-33.0	18.9	6.01e-01	0	43	102	524288	20	5207
2026-01-07 03:53:01.73	324.69	19.96	-29.8	-32.9	18.9	6.03e-01	0	43	102	524288	20	5177
2026-01-07 03:53:03.74	324.11	20.01	-29.7	-32.8	17.4	6.08e-01	0	43	102	524288	20	5118
2026-01-07 03:53:05.75	323.53	20.07	-30.0	-33.5	16.7	6.03e-01	0	43	102	524288	20	5387
2026-01-07 03:53:07.77	322.95	20.13	-30.0	-33.6	18.5	6.02e-01	0	43	102	524288	20	5444
2026-01-07 03:53:09.78	322.36	20.18	-30.0	-33.5	18.6	6.03e-01	0	43	102	524288	20	5385
2026-01-07 03:53:11.80	321.78	20.22	-30.1	-33.8	18.4	6.06e-01	0	43	102	524288	20	5523
2026-01-07 03:53:13.81	321.19	20.27	-30.4	-34.3	17.8	6.04e-01	0	43	102	524288	21	5620
2026-01-07 03:53:15.82	320.60	20.31	-30.1	-33.7	18.4	6.00e-01	0	43	102	524288	20	5501
2026-01-07 03:53:17.83	320.01	20.35	-30.4	-34.3	17.8	6.03e-01	0	43	102	524288	21	5593
2026-01-07 03:53:19.84	319.42	20.39	-30.5	-34.4	17.7	6.02e-01	0	43	102	524288	21	5665
2026-01-07 03:53:21.86	318.82	20.42	-30.6	-34.3	17.6	6.02e-01	0	43	102	524288	22	5490
2026-01-07 03:53:23.87	318.23	20.45	-30.4	-34.3	17.9	6.03e-01	0	43	102	524288	21	5601
2026-01-07 03:53:25.89	317.63	20.48	-30.7	-34.6	17.4	6.03e-01	0	43	102	524288	22	5634
2026-01-07 03:53:27.90	317.03	20.50	-30.2	-33.5	18.3	6.04e-01	0	43	102	524288	21	5283
2026-01-07 03:53:29.92	316.43	20.52	-30.4	-34.1	18.0	6.02e-01	0	43	102	524288	21	5522
2026-01-07 03:53:31.92	315.84	20.54	-30.1	-33.4	18.4	6.01e-01	0	43	102	524288	21	5239
2026-01-07 03:53:33.94	315.24	20.55	-30.0	-33.7	18.6	6.02e-01	0	43	102	524288	20	5469
2026-01-07 03:53:35.96	314.63	20.56	-30.3	-34.0	18.1	6.03e-01	0	43	102	524288	21	5486
2026-01-07 03:53:37.99	314.03	20.57	-30.6	-34.3	17.6	6.01e-01	0	43	102	524288	22	5487
2026-01-07 03:53:40.00	313.43	20.58	-29.9	-32.8	18.7	6.02e-01	0	43	102	524288	21	5021
2026-01-07 03:53:42.01	312.83	20.58	-29.9	-33.2	18.9	6.05e-01	0	43	102	524288	20	5285
2026-01-07 03:53:44.01	312.23	20.58	-30.2	-33.6	18.3	6.03e-01	0	43	102	524288	21	5325
2026-01-07 03:53:46.02	311.63	20.57	-30.0	-33.0	18.6	6.01e-01	0	43	102	524288	21	5104
2026-01-07 03:53:48.03	311.03	20.56	-29.7	-32.8	19.1	6.00e-01	0	43	102	524288	20	5116
2026-01-07 03:53:50.05	310.43	20.55	-29.8	-33.0	18.9	5.99e-01	0	43	102	524288	20	5215
2026-01-07 03:53:52.06	309.83	20.54	-29.8	-32.9	18.9	6.01e-01	0	43	102	524288	20	5180
2026-01-07 03:53:54.09	309.22	20.52	-29.7	-32.7	19.2	6.03e-01	0	43	102	524288	20	5104
2026-01-07 03:53:56.09	308.63	20.50	-30.1	-33.4	18.5	6.03e-01	0	43	102	524288	21	5252
2026-01-07 03:53:58.11	308.03	20.47	-30.0	-33.5	18.6	6.02e-01	0	43	102	524288	20	5397
2026-01-07 03:54:00.12	307.43	20.45	-29.9	-33.4	18.7	6.04e-01	0	43	102	524288	20	5368
2026-01-07 03:54:02.13	306.83	20.42	-30.3	-33.9	18.1	6.04e-01	0	43	102	524288	21	5438
2026-01-07 03:54:04.14	306.24	20.39	-29.8	-33.1	18.9	6.03e-01	0	43	102	524288	20	5239
2026-01-07 03:54:06.16	305.65	20.35	-29.9	-33.4	18.8	6.03e-01	0	43	102	524288	20	5371
2026-01-07 03:54:08.17	305.06	20.31	-30.3	-33.9	18.1	6.04e-01	0	43	102	524288	21	5451
2026-01-07 03:54:10.17	304.47	20.27	-30.3	-33.9	18.1	6.02e-01	0	43	102	524288	21	5458
2026-01-07 03:54:12.18	303.88	20.22	-30.5	-34.6	17.6	6.02e-01	0	43	102	524288	21	5774
2026-01-07 03:54:14.19	303.30	20.18	-30.4	-34.3	17.8	6.03e-01	0	43	102	524288	21	5622
2026-01-07 03:54:16.20	302.71	20.12	-29.9	-33.2	18.8	6.02e-01	0	43	102	524288	20	5294
2026-01-07 03:54:18.22	302.13	20.07	-30.0	-33.6	18.6	6.02e-01	0	43	102	524288	20	5455
2026-01-07 03:54:20.23	301.55	20.01	-29.9	-33.3	18.7	6.01e-01	0	43	102	524288	20	5349
2026-01-07 03:54:22.25	300.97	19.95	-29.7	-32.9	18.9	6.02e-01	0	43	102	524288	20	5164
2026-01-07 03:54:24.27	300.39	19.89	-29.4	-32.5	18.0	6.08e-01	0	43	102	524288	19	5123
2026-01-07 03:54:26.27	299.82	19.83	-29.4	-32.5	17.1	6.12e-01	0	43	102	524288	19	5140
2026-01-07 03:54:28.29	299.25	19.76	-29.5	-32.2	19.0	6.01e-01	0	43	102	524288	20	4919
2026-01-07 03:54:30.31	298.68	19.69	-29.8	-33.0	16.9	6.03e-01	0	43	102	524288	20	5222
2026-01-07 03:54:32.32	298.12	19.62	-30.1	-33.9	18.3	6.03e-01	0	43	102	524288	20	5598
2026-01-07 03:54:34.33	297.56	19.54	-30.0	-33.8	18.4	6.03e-01	0	43	102	524288	20	5538
2026-01-07 03:54:36.35	296.99	19.46	-29.8	-33.1	18.8	6.04e-01	0	43	102	524288	20	5247
2026-01-07 03:54:38.37	296.44	19.38	-29.7	-33.0	18.7	6.03e-01	0	43	102	524288	20	5212
2026-01-07 03:54:40.37	295.89	19.30	-30.3	-33.9	17.8	6.03e-01	0	43	102	524288	21	5479
2026-01-07 03:54:42.39	295.34	19.22	-29.9	-33.4	18.5	6.02e-01	0	43	102	524288	20	5400
2026-01-07 03:54:44.40	294.79	19.13	-29.8	-33.1	18.7	6.03e-01	0	43	102	524288	20	5281
2026-01-07 03:54:46.41	294.25	19.04	-29.6	-32.7	19.0	6.01e-01	0	43	102	524288	20	5097
2026-01-07 03:54:48.42	293.71	18.95	-29.8	-33.2	18.6	6.03e-01	0	43	102	524288	20	5315
2026-01-07 03:54:50.44	293.17	18.85	-29.9	-33.3	18.6	6.05e-01	0	43	102	524288	20	5358
2026-01-07 03:54:52.45	292.64	18.76	-29.7	-32.7	18.9	6.02e-01	0	43	102	524288	20	5124
2026-01-07 03:54:54.47	292.11	18.66	-29.8	-33.1	18.7	6.02e-01	0	43	102	524288	20	5254
2026-01-07 03:54:56.48	291.58	18.56	-30.0	-33.7	18.3	6.02e-01	0	43	102	524288	20	5501
2026-01-07 03:54:58.49	291.06	18.46	-29.7	-32.8	18.9	6.03e-01	0	43	102	524288	20	5139
2026-01-07 03:55:00.50	290.54	18.36	-29.5	-32.4	19.1	6.03e-01	0	43	102	524288	20	5024
2026-01-07 03:55:02.51	290.03	18.25	-29.3	-31.9	19.4	6.02e-01	0	43	102	524288	20	4821
2026-01-07 03:55:04.52	289.52	18.14	-29.7	-32.8	18.8	6.02e-01	0	43	102	524288	20	5167
2026-01-07 03:55:06.53	289.01	18.04	-29.6	-32.7	19.0	6.02e-01	0	43	102	524288	20	5110
2026-01-07 03:55:08.54	288.51	17.92	-29.3	-32.1	19.7	6.04e-01	0	43	102	524288	19	4988
2026-01-07 03:55:10.56	288.01	17.81	-29.9	-32.9	18.3	6.00e-01	0	43	102	524288	21	5083
2026-01-07 03:55:12.57	287.52	17.70	-29.7	-33.0	18.8	6.02e-01	0	43	102	524288	20	5226
2026-01-07 03:55:14.58	287.03	17.58	-29.4	-32.6	19.4	6.03e-01	0	43	102	524288	19	5169
2026-01-07 03:55:16.60	286.54	17.47	-29.7	-32.9	18.8	6.01e-01	0	43	102	524288	20	5198
2026-01-07 03:55:18.61	286.06	17.35	-29.9	-33.6	18.4	6.01e-01	0	43	102	524288	20	5456
2026-01-07 03:55:20.63	285.58	17.23	-29.8	-33.0	18.8	6.04e-01	0	43	102	524288	20	5226
2026-01-07 03:55:22.64	285.10	17.11	-30.2	-33.8	17.9	6.05e-01	0	43	102	524288	21	5443
2026-01-07 03:55:24.65	284.63	16.99	-29.9	-33.4	18.4	6.03e-01	0	43	102	524288	20	5399
2026-01-07 03:55:26.67	284.16	16.86	-30.0	-33.2	18.2	6.01e-01	0	43	102	524288	21	5205
2026-01-07 03:55:28.68	283.70	16.74	-30.1	-33.4	18.1	6.06e-01	0	43	102	524288	21	5287
2026-01-07 03:55:30.69	283.24	16.62	-29.9	-33.5	18.3	6.03e-01	0	43	102	524288	20	5443
2026-01-07 03:55:32.70	282.79	16.49	-30.6	-34.9	17.2	6.03e-01	0	43	102	524288	21	5930
2026-01-07 03:55:34.72	282.34	16.36	-30.7	-34.9	16.8	6.03e-01	0	43	102	524288	22	5832
2026-01-07 03:55:36.74	281.89	16.23	-30.9	-35.6	16.4	6.02e-01	0	43	102	524288	22	6126
2026-01-07 03:55:38.76	281.45	16.10	-30.9	-35.3	16.5	6.01e-01	0	43	102	524288	22	6039
2026-01-07 03:55:40.77	281.01	15.97	-30.7	-34.3	16.8	6.04e-01	0	43	102	524288	23	5463
2026-01-07 03:55:42.78	280.57	15.84	-30.3	-34.0	17.6	6.04e-01	0	43	102	524288	21	5553
2026-01-07 03:55:44.80	280.14	15.71	-30.2	-34.0	17.7	6.04e-01	0	43	102	524288	21	5531
2026-01-07 03:55:46.81	279.72	15.58	-30.0	-33.4	18.2	6.02e-01	0	43	102	524288	21	5269
2026-01-07 03:55:48.82	279.30	15.44	-29.8	-32.7	18.5	6.04e-01	0	43	102	524288	21	5029
2026-01-07 03:55:50.83	278.88	15.31	-29.8	-33.3	17.1	6.03e-01	0	43	102	524288	20	5349
2026-01-07 03:55:52.84	278.46	15.18	-29.5	-32.8	17.6	6.03e-01	0	43	102	524288	19	5281
2026-01-07 03:55:54.86	278.05	15.04	-29.7	-32.8	18.7	6.04e-01	0	43	102	524288	20	5188
2026-01-07 03:55:56.88	277.65	14.91	-29.7	-32.9	18.6	6.00e-01	0	43	102	524288	20	5231
2026-01-07 03:55:58.89	277.24	14.77	-29.6	-33.1	18.9	6.01e-01	0	43	102	524288	19	5395
2026-01-07 03:56:00.90	276.85	14.63	-29.5	-32.6	18.8	6.03e-01	0	43	102	524288	20	5103
2026-01-07 03:56:02.90	276.46	14.50	-29.5	-32.9	19.0	6.04e-01	0	43	102	524288	19	5320
2026-01-07 03:56:04.91	276.07	14.36	-29.8	-33.3	18.4	6.02e-01	0	43	102	524288	20	5382
2026-01-07 03:56:06.93	275.68	14.22	-29.8	-33.2	18.4	6.04e-01	0	43	102	524288	20	5356
2026-01-07 03:56:08.94	275.30	14.08	-29.5	-32.8	19.0	6.04e-01	0	43	102	524288	19	5297
2026-01-07 03:56:10.95	274.92	13.95	-29.5	-33.0	18.9	6.02e-01	0	43	102	524288	19	5378
2026-01-07 03:56:12.96	274.54	13.81	-29.5	-32.6	18.8	6.02e-01	0	43	102	524288	20	5105
2026-01-07 03:56:14.98	274.17	13.67	-29.7	-32.9	18.6	6.02e-01	0	43	102	524288	20	5231
2026-01-07 03:56:16.99	273.80	13.53	-29.6	-32.9	18.6	6.01e-01	0	43	102	524288	20	5216
2026-01-07 03:56:19.01	273.44	13.39	-29.5	-32.9	19.0	6.03e-01	0	43	102	524288	19	5314
2026-01-07 03:56:21.03	273.08	13.25	-29.9	-33.6	18.1	6.02e-01	0	43	102	524288	20	5491
2026-01-07 03:56:23.04	272.72	13.11	-29.6	-32.7	18.6	6.02e-01	0	43	102	524288	20	5164
2026-01-07 03:56:25.06	272.37	12.97	-29.4	-32.1	19.1	6.04e-01	0	43	102	524288	20	4930
2026-01-07 03:56:27.06	272.02	12.83	-29.5	-32.8	19.0	6.03e-01	0	43	102	524288	19	5309
2026-01-07 03:56:29.08	271.68	12.69	-29.6	-32.7	18.7	6.02e-01	0	43	102	524288	20	5169
2026-01-07 03:56:31.10	271.33	12.55	-29.6	-32.7	18.7	6.04e-01	0	43	102	524288	20	5161
2026-01-07 03:56:33.11	270.99	12.41	-29.6	-32.7	18.6	6.04e-01	0	43	102	524288	20	5153
2026-01-07 03:56:35.11	270.66	12.27	-29.8	-33.3	18.3	6.04e-01	0	43	102	524288	20	5378
2026-01-07 03:56:37.13	270.33	12.13	-29.8	-33.5	18.1	6.04e-01	0	43	102	524288	20	5471
2026-01-07 03:56:39.14	270.00	11.99	-29.8	-33.2	18.2	6.01e-01	0	43	102	524288	20	5373
2026-01-07 03:56:41.15	269.68	11.85	-29.9	-33.7	17.9	6.01e-01	0	43	102	524288	20	5550
2026-01-07 03:56:43.17	269.35	11.71	-29.6	-32.8	18.5	6.02e-01	0	43	102	524288	20	5207
2026-01-07 03:56:45.18	269.04	11.57	-29.5	-32.6	18.7	6.02e-01	0	43	102	524288	20	5129
2026-01-07 03:56:47.19	268.72	11.43	-29.6	-32.8	18.5	6.03e-01	0	43	102	524288	20	5203
2026-01-07 03:56:49.21	268.41	11.29	-29.8	-33.3	18.1	6.03e-01	0	43	102	524288	20	5403
2026-01-07 03:56:51.23	268.10	11.14	-29.6	-32.7	18.5	6.01e-01	0	43	102	524288	20	5180
2026-01-07 03:56:53.25	267.80	11.00	-29.6	-32.8	18.4	6.03e-01	0	43	102	524288	20	5232
2026-01-07 03:56:55.25	267.50	10.87	-29.8	-33.3	18.1	6.05e-01	0	43	102	524288	20	5401
2026-01-07 03:56:57.26	267.20	10.73	-29.6	-32.9	18.3	6.02e-01	0	43	102	524288	20	5273
2026-01-07 03:56:59.27	266.90	10.59	-29.7	-33.1	18.2	6.01e-01	0	43	102	524288	20	5321
2026-01-07 03:57:01.29	266.61	10.45	-29.7	-33.3	18.1	6.04e-01	0	43	102	524288	20	5423
2026-01-07 03:57:03.30	266.32	10.31	-29.9	-33.6	17.8	6.03e-01	0	43	102	524288	20	5550
2026-01-07 03:57:05.32	266.03	10.17	-29.7	-33.2	18.1	6.02e-01	0	43	102	524288	20	5383
2026-01-07 03:57:07.33	265.75	10.03	-29.7	-33.3	18.0	6.07e-01	0	43	102	524288	20	5436
2026-01-07 03:57:09.35	265.47	9.89	-29.7	-33.3	18.1	6.04e-01	0	43	102	524288	20	5418
2026-01-07 03:57:11.35	265.19	9.76	-29.7	-33.3	18.0	6.02e-01	0	43	102	524288	20	5446
2026-01-07 03:57:13.36	264.92	9.62	-28.3	-32.3	17.7	6.04e-01	0	43	102	524288	19	5740
2026-01-07 03:57:15.38	264.64	9.48	-29.7	-33.1	18.0	6.00e-01	0	43	102	524288	20	5366
2026-01-07 03:57:17.39	264.38	9.34	-29.8	-33.5	17.6	6.02e-01	0	43	102	524288	20	5526
2026-01-07 03:57:19.40	264.11	9.21	-29.8	-33.4	17.8	6.02e-01	0	43	102	524288	20	5504
2026-01-07 03:57:21.41	263.85	9.07	-29.9	-33.8	17.6	6.02e-01	0	43	102	524288	20	5641
2026-01-07 03:57:23.42	263.59	8.93	-29.9	-33.7	17.6	6.02e-01	0	43	102	524288	20	5634
2026-01-07 03:57:25.44	263.33	8.80	-30.0	-34.1	17.3	6.03e-01	0	43	102	524288	20	5799
2026-01-07 03:57:27.46	263.07	8.66	-29.9	-33.9	17.5	6.05e-01	0	43	102	524288	20	5717
2026-01-07 03:57:29.47	262.82	8.53	-29.9	-34.0	17.4	6.03e-01	0	43	102	524288	20	5768
2026-01-07 03:57:31.47	262.57	8.39	-30.0	-34.3	17.2	6.02e-01	0	43	102	524288	20	5879
2026-01-07 03:57:33.48	262.32	8.26	-29.9	-33.6	17.3	6.02e-01	0	43	102	524288	21	5461
2026-01-07 03:57:35.49	262.08	8.12	-29.9	-34.0	17.4	6.02e-01	0	43	102	524288	20	5739
2026-01-07 03:57:37.50	261.83	7.99	-29.8	-33.8	17.5	6.03e-01	0	43	102	524288	20	5665
2026-01-07 03:57:39.52	261.59	7.86	-30.0	-33.9	17.0	6.01e-01	0	43	102	524288	21	5616
2026-01-07 03:57:41.53	261.35	7.72	-30.0	-34.3	17.1	6.01e-01	0	43	102	524288	20	5895
2026-01-07 03:57:43.54	261.12	7.59	-30.1	-34.5	16.9	6.00e-01	0	43	102	524288	20	5981
2026-01-07 03:57:45.56	260.88	7.46	-30.1	-34.2	16.8	6.02e-01	0	43	102	524288	21	5743
2026-01-07 03:57:47.57	260.65	7.32	-30.2	-34.3	16.6	6.03e-01	0	43	102	524288	21	5825
2026-01-07 03:57:49.58	260.43	7.19	-29.9	-34.1	17.1	6.01e-01	0	43	102	524288	20	5840
2026-01-07 03:57:51.59	260.20	7.06	-32.8	-50.1	4.0	7.43e-01	0	43	104	524288	26	26219
2026-01-07 03:57:53.61	259.97	6.93	-33.5	-53.0	3.8	7.44e-01	0	43	104	524288	27	34003

#Closed at: 2026-01-07 03:57:55
#Recorded file [0 MB]: D:/data/31010_260107_065148.dat