passes_logs/2026/01/07/R2M6_AANII_01/R2M6_AANII_01__20260107_045154_FENGYUN_3E_rec.log

#Pass ID: 20260107_045154_FENGYUN 3E
#Satellite: FENGYUN 3E
#Configuration: FENGYUN 3E
#almurnet v.1.7.20240730
#Start time: 2026-01-07 04:55:19

#Version: 2.2.20231116
#Station: R2M6_AANII_01
#Location: 30.233357 lon 59.946436 lat
#TLE: 1 49008U 21062A   26006.26767912  .00000427  00000+0  22170-3 0  9993
#TLE: 2 49008  98.7475  11.4982 0001602 156.1158 204.0093 14.19885456233607

#Time	Az	El	Level	Level2	SNR	BER	BlckErr	Temp	State	Recorded	gain1	gain2
2026-01-07 04:55:19.30	11.53	31.70	-33.1	-44.3	3.8	8.45e-01	0	43	0	0	26	13056
2026-01-07 04:55:22.32	11.34	32.31	-33.8	-43.5	3.8	8.47e-01	0	43	104	0	27	10981
2026-01-07 04:55:25.34	11.13	32.93	-33.9	-43.6	3.8	8.45e-01	0	43	104	0	27	10998
2026-01-07 04:55:28.36	10.92	33.56	-33.9	-43.6	3.8	8.45e-01	0	43	104	0	27	11019
2026-01-07 04:55:31.37	10.70	34.20	-33.8	-43.5	3.8	8.46e-01	0	43	104	0	27	10972
2026-01-07 04:55:34.39	10.47	34.86	-33.8	-43.5	3.8	8.45e-01	0	43	104	0	27	10965
2026-01-07 04:55:37.42	10.23	35.53	-33.9	-43.6	3.8	8.45e-01	0	44	104	0	27	11024
2026-01-07 04:55:40.43	9.98	36.22	-33.9	-43.7	3.8	8.47e-01	0	43	104	0	27	11101
2026-01-07 04:55:43.46	9.71	36.92	-33.9	-43.6	3.8	8.47e-01	0	44	104	0	27	11051
2026-01-07 04:55:46.48	9.44	37.63	-33.7	-43.0	3.8	8.47e-01	0	44	104	0	27	10462
2026-01-07 04:55:49.49	9.15	38.36	-33.6	-42.1	3.8	8.46e-01	0	44	104	0	27	9637
2026-01-07 04:55:52.51	8.85	39.10	-33.6	-42.4	3.8	8.46e-01	0	44	104	0	27	9834
2026-01-07 04:55:55.53	8.53	39.86	-33.3	-40.4	4.1	8.44e-01	0	44	104	0	26	8164
2026-01-07 04:55:58.55	8.20	40.63	-33.4	-41.5	3.8	8.45e-01	0	44	104	0	26	9099
2026-01-07 04:56:01.57	7.85	41.42	-33.6	-42.3	3.8	8.46e-01	0	44	104	0	27	9782
2026-01-07 04:56:04.59	7.48	42.23	-33.0	-39.1	4.3	8.38e-01	0	44	104	0	26	7233
2026-01-07 04:56:07.61	7.10	43.05	-32.4	-37.3	5.4	7.20e-01	0	44	0	0	24	6296
2026-01-07 04:56:10.64	6.69	43.90	-26.7	-27.0	14.5	3.40e-06	0	44	102	1048576	14	3752
2026-01-07 04:56:13.66	6.25	44.75	-25.8	-26.7	15.6	0.00e+00	0	44	102	1048576	11	3971
2026-01-07 04:56:16.68	5.80	45.63	-26.3	-27.1	15.0	0.00e+00	0	44	102	1048576	12	3980
2026-01-07 04:56:19.70	5.32	46.52	-25.1	-25.1	16.4	0.00e+00	0	44	102	1048576	11	3599
2026-01-07 04:56:22.73	4.80	47.43	-25.2	-25.7	16.4	0.00e+00	0	44	102	1048576	10	3849
2026-01-07 04:56:25.74	4.26	48.35	-24.4	-24.5	17.2	0.00e+00	0	44	102	1048576	9	3675
2026-01-07 04:56:28.75	3.68	49.29	-24.4	-24.6	17.2	0.00e+00	0	44	102	1048576	9	3690
2026-01-07 04:56:31.77	3.07	50.25	-24.7	-25.2	16.9	0.00e+00	0	44	102	1048576	9	3825
2026-01-07 04:56:34.79	2.41	51.23	-24.9	-25.1	16.8	0.00e+00	0	44	102	1048576	10	3705
2026-01-07 04:56:37.81	1.70	52.22	-23.7	-23.7	17.9	0.00e+00	0	44	102	1048576	8	3594
2026-01-07 04:56:40.82	0.95	53.23	-24.0	-24.3	17.7	0.00e+00	0	44	102	1048576	8	3722
2026-01-07 04:56:43.84	0.14	54.25	-25.1	-26.1	16.5	0.00e+00	0	44	102	1048576	9	4052
2026-01-07 04:56:46.86	359.28	55.29	-24.4	-24.6	17.3	0.00e+00	0	44	102	1048576	9	3680
2026-01-07 04:56:49.89	358.33	56.35	-24.7	-25.2	16.9	0.00e+00	0	44	102	1048576	9	3824
2026-01-07 04:56:52.92	357.32	57.41	-25.1	-25.7	16.4	0.00e+00	0	44	102	1048576	10	3836
2026-01-07 04:56:55.94	356.22	58.49	-24.8	-25.6	16.7	0.00e+00	0	44	102	1048576	9	3911
2026-01-07 04:56:58.95	355.04	59.57	-24.9	-25.7	16.7	0.00e+00	0	44	102	1048576	9	3938
2026-01-07 04:57:01.96	353.74	60.65	-24.0	-24.3	17.7	0.00e+00	0	44	102	1048576	8	3712
2026-01-07 04:57:04.98	352.33	61.75	-24.1	-24.5	17.6	0.00e+00	0	44	102	1048576	8	3775
2026-01-07 04:57:08.00	350.79	62.84	-23.6	-23.4	18.1	0.00e+00	0	44	102	1048576	8	3516
2026-01-07 04:57:11.02	349.09	63.94	-23.5	-23.7	18.0	0.00e+00	0	44	102	1048576	7	3700
2026-01-07 04:57:14.05	347.23	65.03	-23.1	-23.4	18.6	0.00e+00	0	44	102	1048576	6	3731
2026-01-07 04:57:17.06	345.18	66.10	-22.8	-23.3	18.9	6.58e-04	0	44	102	1048576	5	3813
2026-01-07 04:57:20.08	342.91	67.16	-22.7	-23.0	19.0	8.31e-04	0	44	102	1048576	5	3750
2026-01-07 04:57:23.08	340.43	68.19	-23.4	-23.9	18.3	8.25e-04	0	44	102	1048576	6	3852
2026-01-07 04:57:26.10	337.65	69.20	-23.1	-23.3	18.7	2.37e-04	0	44	102	1048576	6	3707
2026-01-07 04:57:29.12	334.58	70.16	-23.7	-24.2	18.0	0.00e+00	0	44	102	1048576	7	3816
2026-01-07 04:57:32.14	331.18	71.08	-22.7	-23.2	19.0	4.87e-04	0	44	102	1048576	5	3775
2026-01-07 04:57:35.16	327.42	71.93	-22.7	-23.0	19.0	5.83e-04	0	44	102	1048576	5	3742
2026-01-07 04:57:38.18	323.28	72.71	-22.8	-23.2	18.9	0.00e+00	0	44	102	1048576	5	3778
2026-01-07 04:57:41.20	318.75	73.40	-22.5	-22.7	19.1	0.00e+00	0	44	102	1048576	5	3663
2026-01-07 04:57:44.21	313.86	73.98	-22.7	-23.1	19.0	0.00e+00	0	44	102	1048576	5	3758
2026-01-07 04:57:47.22	308.63	74.45	-22.3	-22.2	19.4	0.00e+00	0	44	102	1048576	5	3569
2026-01-07 04:57:50.24	303.09	74.78	-22.5	-22.7	19.2	0.00e+00	0	44	102	1048576	5	3675
2026-01-07 04:57:53.27	297.32	74.97	-22.2	-22.0	19.5	0.00e+00	0	44	102	1048576	5	3521
2026-01-07 04:57:56.29	291.48	75.02	-22.2	-22.5	19.5	0.00e+00	0	44	102	1048576	4	3737
2026-01-07 04:57:59.31	285.66	74.91	-22.5	-22.7	19.2	0.00e+00	0	44	102	1048576	5	3666
2026-01-07 04:58:02.33	279.99	74.66	-22.7	-23.0	19.0	0.00e+00	0	44	102	1048576	5	3734
2026-01-07 04:58:05.35	274.56	74.26	-22.9	-23.5	18.8	0.00e+00	0	44	102	1048576	5	3856
2026-01-07 04:58:08.37	269.45	73.74	-22.4	-22.5	19.2	0.00e+00	0	44	102	1048576	5	3634
2026-01-07 04:58:11.39	264.70	73.11	-22.9	-23.5	18.7	0.00e+00	0	44	102	1048576	5	3855
2026-01-07 04:58:14.40	260.36	72.38	-22.7	-23.1	19.0	0.00e+00	0	44	102	1048576	5	3756
2026-01-07 04:58:17.43	256.37	71.57	-23.4	-24.0	18.2	0.00e+00	0	44	102	1048576	6	3864
2026-01-07 04:58:20.45	252.76	70.68	-23.1	-23.4	18.5	0.00e+00	0	44	102	1048576	6	3740
2026-01-07 04:58:23.47	249.50	69.74	-22.9	-23.0	18.7	0.00e+00	0	44	102	1048576	6	3630
2026-01-07 04:58:26.48	246.57	68.76	-23.0	-23.3	18.4	0.00e+00	0	44	102	1048576	6	3698
2026-01-07 04:58:29.50	243.91	67.74	-22.9	-23.5	18.5	0.00e+00	0	44	102	1048576	5	3870
2026-01-07 04:58:32.52	241.51	66.69	-22.6	-23.0	19.0	0.00e+00	0	44	102	1048576	5	3739
2026-01-07 04:58:35.54	239.34	65.62	-22.8	-23.2	18.8	0.00e+00	0	44	102	1048576	5	3794
2026-01-07 04:58:38.56	237.37	64.53	-23.3	-23.8	18.2	1.24e-03	0	44	102	1048576	6	3817
2026-01-07 04:58:41.58	235.59	63.44	-23.3	-23.9	18.3	1.13e-03	0	44	102	1048576	6	3837
2026-01-07 04:58:44.60	233.96	62.34	-23.8	-24.4	17.7	1.18e-03	0	44	102	1048576	7	3844
2026-01-07 04:58:47.62	232.47	61.24	-23.9	-24.7	17.5	1.22e-03	0	44	102	1048576	7	3914
2026-01-07 04:58:50.64	231.11	60.14	-24.2	-24.7	17.3	1.04e-03	0	44	102	1048576	8	3803
2026-01-07 04:58:53.66	229.86	59.05	-24.3	-25.0	17.1	3.12e-04	0	44	102	1048576	8	3892
2026-01-07 04:58:56.68	228.71	57.97	-24.3	-24.3	17.3	3.67e-04	0	44	102	1048576	9	3636
2026-01-07 04:58:59.70	227.65	56.90	-24.5	-25.4	17.0	0.00e+00	0	44	102	1048576	8	3977
2026-01-07 04:59:02.71	226.68	55.84	-24.4	-24.7	17.0	0.00e+00	0	44	102	1048576	9	3708
2026-01-07 04:59:05.74	225.76	54.79	-24.2	-24.2	17.3	0.00e+00	0	44	102	1048576	9	3599
2026-01-07 04:59:08.76	224.92	53.75	-24.4	-24.6	17.1	0.00e+00	0	44	102	1048576	9	3697
2026-01-07 04:59:11.78	224.14	52.73	-24.1	-24.5	17.4	0.00e+00	0	44	102	1048576	8	3783
2026-01-07 04:59:14.80	223.40	51.73	-24.2	-24.8	17.2	0.00e+00	0	44	102	1048576	8	3854
2026-01-07 04:59:17.80	222.73	50.74	-24.5	-25.3	17.0	0.00e+00	0	43	102	1048576	8	3958
2026-01-07 04:59:20.83	222.08	49.77	-24.5	-24.8	16.9	0.00e+00	0	44	102	1048576	9	3751
2026-01-07 04:59:23.85	221.48	48.81	-24.1	-24.5	17.4	0.00e+00	0	44	102	1048576	8	3786
2026-01-07 04:59:26.86	220.92	47.88	-23.9	-24.2	17.4	0.00e+00	0	44	102	1048576	8	3702
2026-01-07 04:59:29.88	220.39	46.95	-23.4	-23.5	18.1	0.00e+00	0	44	102	1048576	7	3653
2026-01-07 04:59:32.90	219.89	46.05	-23.5	-24.3	17.9	0.00e+00	0	44	102	1048576	6	3944
2026-01-07 04:59:35.92	219.42	45.16	-23.4	-24.0	18.1	0.00e+00	0	44	102	1048576	6	3873
2026-01-07 04:59:38.94	218.97	44.29	-23.0	-23.3	18.4	0.00e+00	0	44	102	1048576	6	3707
2026-01-07 04:59:41.95	218.55	43.44	-22.9	-23.0	18.6	0.00e+00	0	44	102	1048576	6	3645
2026-01-07 04:59:44.98	218.15	42.60	-22.9	-23.0	18.6	0.00e+00	0	44	102	1048576	6	3643
2026-01-07 04:59:47.98	217.77	41.79	-22.6	-22.4	18.7	0.00e+00	0	44	102	1048576	6	3504
2026-01-07 04:59:51.00	217.41	40.99	-23.1	-23.9	18.3	0.00e+00	0	44	102	1048576	5	3961
2026-01-07 04:59:54.02	217.07	40.20	-23.2	-23.6	18.2	0.00e+00	0	44	102	1048576	6	3780
2026-01-07 04:59:57.05	216.74	39.43	-22.8	-22.7	18.7	0.00e+00	0	44	102	1048576	6	3578
2026-01-07 05:00:00.06	216.43	38.67	-22.6	-22.3	18.9	0.00e+00	0	43	102	1048576	6	3494
2026-01-07 05:00:03.08	216.13	37.94	-22.7	-23.0	18.7	0.00e+00	0	44	102	1048576	5	3755
2026-01-07 05:00:06.10	215.85	37.21	-23.1	-23.4	18.3	0.00e+00	0	44	102	1048576	6	3727
2026-01-07 05:00:09.13	215.58	36.50	-23.2	-23.7	18.1	0.00e+00	0	44	102	1048576	6	3808
2026-01-07 05:00:12.16	215.32	35.80	-23.2	-23.6	18.2	0.00e+00	0	44	102	1048576	6	3780
2026-01-07 05:00:15.17	215.07	35.12	-22.8	-22.8	18.6	0.00e+00	0	44	102	1048576	6	3609
2026-01-07 05:00:18.19	214.83	34.45	-22.5	-22.2	18.9	0.00e+00	0	44	102	1048576	6	3468
2026-01-07 05:00:21.21	214.60	33.80	-22.6	-22.8	18.8	0.00e+00	0	44	102	1048576	5	3708
2026-01-07 05:00:24.23	214.39	33.16	-22.7	-23.1	18.6	0.00e+00	0	44	102	1048576	5	3770
2026-01-07 05:00:27.26	214.17	32.53	-22.9	-23.5	18.4	0.00e+00	0	44	102	1048576	5	3858
2026-01-07 05:00:30.28	213.97	31.91	-22.8	-22.7	18.5	0.00e+00	0	44	102	1048576	6	3584
2026-01-07 05:00:33.29	213.78	31.31	-22.6	-23.0	18.7	0.00e+00	0	44	102	1048576	5	3743
2026-01-07 05:00:36.32	213.59	30.72	-22.6	-23.0	18.7	0.00e+00	0	44	102	1048576	5	3736
2026-01-07 05:00:39.35	213.41	30.14	-22.8	-23.4	18.4	0.00e+00	0	44	102	1048576	5	3829
2026-01-07 05:00:42.37	213.24	29.57	-23.1	-23.9	18.1	0.00e+00	0	44	102	1048576	5	3961
2026-01-07 05:00:45.39	213.07	29.01	-23.1	-23.5	18.1	0.00e+00	0	44	102	1048576	6	3748
2026-01-07 05:00:48.41	212.91	28.46	-23.2	-23.6	18.1	0.00e+00	0	44	102	1048576	6	3780
2026-01-07 05:00:51.43	212.76	27.92	-23.1	-23.5	18.1	0.00e+00	0	44	102	1048576	6	3755
2026-01-07 05:00:54.45	212.61	27.40	-23.0	-23.2	18.3	0.00e+00	0	44	102	1048576	6	3681
2026-01-07 05:00:57.48	212.46	26.88	-23.1	-23.4	18.2	0.00e+00	0	44	102	1048576	6	3731
2026-01-07 05:01:00.50	212.32	26.37	-23.0	-23.2	18.3	0.00e+00	0	44	102	1048576	6	3687
2026-01-07 05:01:03.51	212.19	25.87	-23.1	-23.5	18.0	0.00e+00	0	44	102	1048576	6	3768
2026-01-07 05:01:06.52	212.06	25.39	-23.3	-23.9	17.9	0.00e+00	0	44	102	1048576	6	3845
2026-01-07 05:01:09.55	211.93	24.90	-23.5	-24.2	17.6	0.00e+00	0	44	102	1048576	6	3925
2026-01-07 05:01:12.57	211.81	24.43	-23.5	-24.3	17.6	0.00e+00	0	44	102	1048576	6	3946
2026-01-07 05:01:15.59	211.69	23.97	-23.5	-23.7	17.7	0.00e+00	0	44	102	1048576	7	3708
2026-01-07 05:01:18.61	211.57	23.51	-23.3	-23.3	17.9	0.00e+00	0	44	102	1048576	7	3608
2026-01-07 05:01:21.62	211.46	23.06	-23.1	-23.5	18.0	0.00e+00	0	44	102	1048576	6	3767
2026-01-07 05:01:24.64	211.35	22.62	-23.0	-23.3	18.1	0.00e+00	0	44	102	1048576	6	3713
2026-01-07 05:01:27.66	211.25	22.19	-23.1	-23.5	18.0	7.57e-04	0	44	102	1048576	6	3767
2026-01-07 05:01:30.68	211.15	21.76	-23.1	-23.4	18.0	8.34e-04	0	44	102	1048576	6	3742
2026-01-07 05:01:33.69	211.05	21.34	-23.2	-23.6	17.9	9.27e-04	0	44	102	1048576	6	3787
2026-01-07 05:01:36.71	210.95	20.93	-23.3	-24.0	17.7	1.16e-03	0	44	102	1048576	6	3869
2026-01-07 05:01:39.74	210.86	20.52	-23.3	-23.9	17.7	1.31e-03	0	44	102	1048576	6	3860
2026-01-07 05:01:42.76	210.77	20.12	-23.4	-24.0	17.7	1.27e-03	0	44	102	1048576	6	3877
2026-01-07 05:01:45.77	210.68	19.73	-23.5	-24.4	17.5	1.16e-03	0	44	102	1048576	6	3959
2026-01-07 05:01:48.80	210.60	19.34	-23.5	-23.8	17.5	0.00e+00	0	44	102	1048576	7	3724
2026-01-07 05:01:51.82	210.51	18.96	-23.6	-24.0	17.4	0.00e+00	0	44	102	1048576	7	3760
2026-01-07 05:01:54.84	210.43	18.58	-23.9	-24.6	17.1	0.00e+00	0	44	102	1048576	7	3912
2026-01-07 05:01:57.86	210.35	18.21	-24.0	-24.3	17.0	0.00e+00	0	44	102	1048576	8	3733
2026-01-07 05:02:00.88	210.28	17.85	-24.3	-24.9	16.6	0.00e+00	0	44	102	1048576	8	3890
2026-01-07 05:02:03.91	210.20	17.49	-24.3	-24.9	16.6	0.00e+00	0	44	102	1048576	8	3885
2026-01-07 05:02:06.92	210.13	17.13	-24.3	-25.0	16.5	0.00e+00	0	44	102	1048576	8	3903
2026-01-07 05:02:09.95	210.06	16.78	-24.3	-24.5	16.6	0.00e+00	0	44	102	1048576	9	3682
2026-01-07 05:02:12.98	209.99	16.44	-24.4	-25.2	16.4	0.00e+00	0	44	102	1048576	8	3949
2026-01-07 05:02:16.00	209.92	16.10	-24.5	-25.0	16.2	0.00e+00	0	44	102	1048576	9	3798
2026-01-07 05:02:19.01	209.86	15.76	-24.6	-25.2	16.1	0.00e+00	0	44	102	1048576	9	3858
2026-01-07 05:02:22.03	209.79	15.43	-24.7	-25.3	16.0	0.00e+00	0	44	102	1048576	9	3886
2026-01-07 05:02:25.06	209.73	15.10	-24.7	-25.3	16.0	5.70e-06	0	44	102	1048576	9	3873
2026-01-07 05:02:28.08	209.67	14.78	-24.8	-25.6	15.9	0.00e+00	0	44	102	1048576	9	3942
2026-01-07 05:02:31.10	209.61	14.47	-24.9	-25.8	15.7	0.00e+00	0	44	102	1048576	9	4000
2026-01-07 05:02:34.12	209.55	14.15	-24.4	-25.3	14.6	0.00e+00	0	44	102	1048576	9	4024
2026-01-07 05:02:37.15	209.50	13.84	-24.9	-25.7	15.7	3.50e-04	0	44	102	1048576	9	3985
2026-01-07 05:02:40.17	209.44	13.53	-24.8	-25.7	15.7	2.20e-06	0	44	102	1048576	9	3979
2026-01-07 05:02:43.18	209.39	13.23	-24.9	-25.8	15.7	5.70e-06	0	44	102	1048576	9	3987
2026-01-07 05:02:46.19	209.33	12.94	-25.0	-25.9	15.6	5.70e-06	0	44	102	1048576	9	4030
2026-01-07 05:02:49.21	209.28	12.64	-24.9	-25.4	15.6	1.04e-03	0	44	102	1048576	10	3805
2026-01-07 05:02:52.23	209.23	12.35	-25.0	-26.0	15.5	9.60e-04	0	44	102	1048576	9	4049
2026-01-07 05:02:55.25	209.18	12.06	-25.1	-26.2	15.4	0.00e+00	0	44	102	1048576	9	4100
2026-01-07 05:02:58.27	209.14	11.78	-25.4	-26.5	15.0	0.00e+00	0	44	102	1048576	10	4065
2026-01-07 05:03:01.29	209.09	11.50	-25.4	-26.4	15.0	1.04e-03	0	44	102	1048576	10	4046
2026-01-07 05:03:04.32	209.04	11.22	-25.5	-26.6	14.8	1.00e-03	0	44	102	1048576	10	4100
2026-01-07 05:03:07.34	209.00	10.94	-25.4	-26.5	14.9	0.00e+00	0	44	102	1048576	10	4078
2026-01-07 05:03:10.36	208.95	10.67	-25.4	-26.3	15.0	0.00e+00	0	44	102	1048576	10	4029
2026-01-07 05:03:13.37	208.91	10.40	-25.5	-26.8	14.7	0.00e+00	0	44	102	1048576	10	4135
2026-01-07 05:03:16.39	208.87	10.14	-25.6	-26.5	14.6	0.00e+00	0	44	102	1048576	11	3960
2026-01-07 05:03:19.41	208.83	9.87	-25.7	-26.7	14.5	1.10e-06	0	44	102	1048576	11	4016
2026-01-07 05:03:22.42	208.79	9.61	-25.7	-26.6	14.5	0.00e+00	0	44	102	1048576	11	3991
2026-01-07 05:03:25.44	208.75	9.35	-26.2	-27.2	13.7	3.40e-06	0	44	102	1048576	12	4056
2026-01-07 05:03:28.46	208.71	9.10	-26.2	-27.2	13.8	1.14e-05	0	44	102	1048576	12	4058
2026-01-07 05:03:31.48	208.67	8.85	-26.3	-27.5	13.6	9.10e-06	0	44	102	1048576	12	4125
2026-01-07 05:03:34.50	208.64	8.60	-26.3	-27.0	13.5	1.02e-05	0	44	102	1048576	13	3903
2026-01-07 05:03:37.51	208.60	8.35	-26.5	-28.0	13.2	2.28e-05	0	44	102	1048576	12	4262
2026-01-07 05:03:40.52	208.56	8.11	-26.2	-27.4	13.6	1.14e-05	0	44	102	1048576	12	4098
2026-01-07 05:03:43.54	208.53	7.86	-26.4	-27.6	13.4	1.25e-05	0	44	102	1048576	12	4174
2026-01-07 05:03:46.56	208.50	7.62	-26.5	-27.9	13.2	3.08e-05	0	44	102	1048576	12	4255
2026-01-07 05:03:49.58	208.46	7.38	-26.5	-27.9	13.2	2.74e-05	0	44	102	1048576	12	4251
2026-01-07 05:03:52.60	208.43	7.15	-26.6	-27.8	12.7	4.46e-05	0	44	102	1048576	13	4114
2026-01-07 05:03:55.63	208.40	6.91	-33.1	-42.6	3.8	8.46e-01	0	44	104	1048576	26	10683

#Closed at: 2026-01-07 05:03:56
#Recorded file [1 MB]: D:/data/31010_260107_075605.dat