passes_logs/2026/01/07/R2M6_AANII_01/R2M6_AANII_01__20260107_021136_AQUA_rec.log

#Pass ID: 20260107_021136_AQUA
#Satellite: AQUA
#Configuration: AQUA
#almurnet v.1.7.20240730
#Start time: 2026-01-07 02:15:50

#Version: 2.2.20231116
#Station: R2M6_AANII_01
#Location: 30.233357 lon 59.946436 lat
#TLE: 1 27424U 02022A   26004.96787593  .00001598  00000+0  32997-3 0  9996
#TLE: 2 27424  98.4069 331.2279 0002002  90.2377   0.6092 14.61798176259425

#Time	Az	El	Level	Level2	SNR	BER	BlckErr	Temp	State	Recorded	gain1	gain2
2026-01-07 02:15:50.47	0.82	53.03	-33.3	-45.9	3.8	1.49e+00	0	43	0	0	26	15268
2026-01-07 02:15:52.48	0.21	53.85	-34.3	-52.3	3.8	7.47e-01	0	43	104	0	29	28640
2026-01-07 02:15:54.49	359.57	54.68	-34.3	-53.6	3.8	7.45e-01	0	43	104	0	29	33363
2026-01-07 02:15:56.50	358.89	55.51	-34.3	-53.7	3.8	7.42e-01	0	43	104	0	29	33365
2026-01-07 02:15:58.51	358.17	56.36	-34.3	-53.7	3.8	7.44e-01	0	43	104	0	29	33458
2026-01-07 02:16:00.52	357.39	57.22	-34.3	-53.6	3.8	7.45e-01	0	43	104	0	29	33353
2026-01-07 02:16:02.54	356.57	58.08	-34.3	-53.6	3.8	7.47e-01	0	43	104	0	29	33325
2026-01-07 02:16:04.55	355.69	58.95	-34.3	-53.7	3.8	7.44e-01	0	43	104	0	29	33461
2026-01-07 02:16:06.56	354.75	59.83	-34.3	-53.7	3.8	7.44e-01	0	43	104	0	29	33402
2026-01-07 02:16:08.57	353.74	60.71	-34.3	-53.7	3.8	7.47e-01	0	43	104	0	29	33520
2026-01-07 02:16:10.57	352.67	61.60	-34.3	-53.7	3.8	7.44e-01	0	43	104	0	29	33427
2026-01-07 02:16:12.57	351.51	62.48	-34.3	-53.6	3.8	7.45e-01	0	43	104	0	29	33312
2026-01-07 02:16:14.58	350.26	63.37	-34.3	-53.6	3.8	7.46e-01	0	44	104	0	29	33370
2026-01-07 02:16:16.60	348.91	64.27	-34.3	-53.6	3.8	7.44e-01	0	43	104	0	29	33167
2026-01-07 02:16:18.60	347.45	65.15	-34.3	-53.6	3.8	7.41e-01	0	43	104	0	29	33378
2026-01-07 02:16:20.62	345.86	66.04	-34.3	-53.6	3.8	7.47e-01	0	43	104	0	29	33366
2026-01-07 02:16:22.64	344.14	66.92	-34.3	-53.6	3.8	7.45e-01	0	43	104	0	29	33283
2026-01-07 02:16:24.66	342.27	67.78	-34.3	-53.6	3.8	7.47e-01	0	43	104	0	29	33322
2026-01-07 02:16:26.67	340.23	68.63	-34.3	-53.5	3.8	7.47e-01	0	43	104	0	29	32676
2026-01-07 02:16:28.68	338.02	69.46	-34.3	-53.6	3.8	7.47e-01	0	43	104	0	29	33256
2026-01-07 02:16:30.70	335.60	70.27	-34.3	-53.5	3.8	7.45e-01	0	43	104	0	29	32696
2026-01-07 02:16:32.72	332.96	71.05	-34.3	-53.6	3.8	7.46e-01	0	43	104	0	29	33123
2026-01-07 02:16:34.73	330.10	71.79	-34.3	-53.4	3.8	7.46e-01	0	44	104	0	29	32471
2026-01-07 02:16:36.74	326.98	72.49	-34.3	-52.5	3.8	7.45e-01	0	43	104	0	29	29446
2026-01-07 02:16:38.75	323.60	73.14	-34.3	-53.1	3.8	7.49e-01	0	43	104	0	29	31517
2026-01-07 02:16:40.76	319.95	73.73	-34.3	-52.1	3.8	7.45e-01	0	43	104	0	29	27974
2026-01-07 02:16:42.78	316.00	74.26	-34.1	-48.5	4.1	7.34e-01	0	43	104	0	29	18753
2026-01-07 02:16:44.79	311.81	74.72	-32.5	-37.7	9.7	6.77e-01	0	43	104	0	26	6514
2026-01-07 02:16:46.80	307.37	75.09	-32.7	-38.0	14.1	6.03e-01	0	43	102	524288	27	6582
2026-01-07 02:16:48.81	302.73	75.37	-32.7	-38.4	14.1	6.03e-01	0	44	102	524288	26	6955
2026-01-07 02:16:50.83	297.91	75.55	-32.2	-37.2	15.4	6.03e-01	0	43	102	524288	25	6360
2026-01-07 02:16:52.84	293.01	75.64	-32.5	-38.2	14.6	6.05e-01	0	43	102	524288	25	6932
2026-01-07 02:16:54.86	288.07	75.62	-32.1	-36.9	15.6	6.04e-01	0	43	102	524288	25	6226
2026-01-07 02:16:56.86	283.23	75.50	-32.6	-38.6	14.4	6.04e-01	0	43	102	524288	25	7185
2026-01-07 02:16:58.87	278.47	75.29	-32.5	-38.1	14.7	6.03e-01	0	43	102	524288	25	6900
2026-01-07 02:17:00.89	273.87	74.97	-32.2	-37.0	15.5	6.04e-01	0	43	102	524288	25	6269
2026-01-07 02:17:02.91	269.49	74.57	-32.3	-37.4	15.1	6.04e-01	0	43	102	524288	25	6519
2026-01-07 02:17:04.92	265.38	74.09	-32.3	-37.7	15.0	6.03e-01	0	44	102	524288	25	6663
2026-01-07 02:17:06.93	261.54	73.54	-32.6	-38.1	14.3	6.05e-01	0	43	102	524288	26	6798
2026-01-07 02:17:08.94	257.98	72.93	-32.2	-37.3	15.2	6.03e-01	0	43	102	524288	25	6466
2026-01-07 02:17:10.96	254.67	72.26	-33.0	-39.7	13.0	6.07e-01	0	43	102	524288	26	7832
2026-01-07 02:17:12.97	251.64	71.54	-32.5	-38.4	14.4	6.04e-01	0	43	102	524288	25	7100
2026-01-07 02:17:14.98	248.86	70.79	-32.6	-38.3	14.0	6.06e-01	0	43	102	524288	26	6954
2026-01-07 02:17:16.99	246.30	70.00	-32.6	-38.4	14.1	6.03e-01	0	43	102	524288	26	6985
2026-01-07 02:17:19.00	243.96	69.18	-32.9	-39.5	13.0	6.07e-01	0	43	102	524288	26	7722
2026-01-07 02:17:21.02	241.79	68.34	-32.6	-38.3	14.0	6.06e-01	0	43	102	524288	26	6951
2026-01-07 02:17:23.04	239.81	67.48	-32.9	-39.6	13.0	6.06e-01	0	43	102	524288	26	7805
2026-01-07 02:17:25.04	238.00	66.62	-33.1	-39.9	12.3	6.07e-01	0	43	102	524288	27	7913
2026-01-07 02:17:27.05	236.33	65.74	-32.7	-38.9	13.5	6.05e-01	0	43	102	524288	26	7329
2026-01-07 02:17:29.06	234.79	64.85	-32.8	-39.2	13.3	6.04e-01	0	43	102	524288	26	7562
2026-01-07 02:17:31.07	233.36	63.96	-32.0	-36.8	15.4	6.04e-01	0	43	102	524288	25	6203
2026-01-07 02:17:33.08	232.05	63.07	-31.8	-36.5	16.1	6.05e-01	0	43	102	524288	24	6156
2026-01-07 02:17:35.10	230.82	62.17	-31.9	-37.0	15.6	6.03e-01	0	43	102	524288	24	6431
2026-01-07 02:17:37.11	229.68	61.28	-31.1	-34.9	17.4	6.01e-01	0	43	102	524288	23	5548
2026-01-07 02:17:39.12	228.63	60.39	-31.0	-35.1	17.6	6.03e-01	0	43	102	524288	22	5738
2026-01-07 02:17:41.14	227.64	59.50	-30.6	-33.8	18.4	6.03e-01	0	43	102	524288	22	5220
2026-01-07 02:17:43.16	226.72	58.62	-30.5	-33.7	18.5	6.03e-01	0	43	102	524288	22	5178
2026-01-07 02:17:45.17	225.86	57.75	-30.1	-33.1	19.1	6.03e-01	0	43	102	524288	21	5080
2026-01-07 02:17:47.17	225.06	56.89	-29.6	-31.7	20.0	6.04e-01	0	43	102	524288	21	4594
2026-01-07 02:17:49.19	224.30	56.03	-29.5	-32.4	20.2	6.03e-01	0	44	102	524288	19	5060
2026-01-07 02:17:51.20	223.59	55.18	-28.8	-31.2	20.6	6.02e-01	0	43	102	524288	18	4772
2026-01-07 02:17:53.21	222.92	54.35	-29.1	-31.6	20.3	6.03e-01	0	43	102	524288	19	4785
2026-01-07 02:17:55.23	222.28	53.52	-29.0	-31.2	20.9	6.05e-01	0	43	102	524288	19	4637
2026-01-07 02:17:57.24	221.69	52.70	-28.4	-30.4	21.6	6.02e-01	0	43	102	524288	18	4517
2026-01-07 02:17:59.25	221.13	51.90	-28.8	-31.4	21.1	6.02e-01	0	43	102	524288	18	4820
2026-01-07 02:18:01.25	220.60	51.11	-29.3	-32.0	20.4	6.02e-01	0	43	102	524288	19	4899
2026-01-07 02:18:03.27	220.09	50.32	-29.1	-31.4	20.8	6.02e-01	0	43	102	524288	19	4708
2026-01-07 02:18:05.27	219.61	49.55	-29.3	-31.9	20.4	6.03e-01	0	43	102	524288	19	4890
2026-01-07 02:18:07.27	219.16	48.80	-29.5	-32.5	20.1	6.02e-01	0	43	102	524288	19	5087
2026-01-07 02:18:09.29	218.73	48.05	-29.2	-31.7	20.6	6.05e-01	0	43	102	524288	19	4811
2026-01-07 02:18:11.29	218.32	47.31	-29.6	-32.2	19.9	6.03e-01	0	43	102	524288	20	4878
2026-01-07 02:18:13.30	217.92	46.59	-29.2	-31.6	20.6	6.04e-01	0	43	102	524288	19	4787
2026-01-07 02:18:15.32	217.55	45.87	-29.5	-32.2	19.9	6.03e-01	0	44	102	524288	20	4885
2026-01-07 02:18:17.32	217.19	45.17	-29.5	-32.4	20.1	6.02e-01	0	43	102	524288	19	5061
2026-01-07 02:18:19.34	216.85	44.48	-29.3	-31.9	20.5	6.02e-01	0	43	102	524288	19	4891
2026-01-07 02:18:21.34	216.52	43.81	-29.3	-32.0	20.4	6.04e-01	0	43	102	524288	19	4919
2026-01-07 02:18:23.36	216.21	43.13	-29.7	-32.6	19.6	6.02e-01	0	43	102	524288	20	5040
2026-01-07 02:18:25.37	215.91	42.48	-29.7	-32.6	19.6	6.03e-01	0	43	102	524288	20	5028
2026-01-07 02:18:27.38	215.62	41.83	-29.9	-33.0	19.4	6.05e-01	0	43	102	524288	20	5172
2026-01-07 02:18:29.38	215.35	41.20	-29.9	-33.1	19.4	6.02e-01	0	43	102	524288	20	5183
2026-01-07 02:18:31.39	215.08	40.58	-30.0	-33.4	19.1	6.05e-01	0	43	102	524288	20	5308
2026-01-07 02:18:33.40	214.83	39.97	-30.3	-33.7	18.7	6.04e-01	0	43	102	524288	21	5311
2026-01-07 02:18:35.41	214.58	39.36	-30.6	-34.1	18.1	6.03e-01	0	43	102	524288	22	5348
2026-01-07 02:18:37.43	214.35	38.77	-30.6	-34.0	18.1	6.06e-01	0	43	102	524288	22	5332
2026-01-07 02:18:39.44	214.12	38.19	-30.3	-33.7	18.6	6.03e-01	0	43	102	524288	21	5322
2026-01-07 02:18:41.44	213.90	37.62	-30.5	-34.2	18.3	6.01e-01	0	43	102	524288	21	5540
2026-01-07 02:18:43.46	213.69	37.05	-30.5	-34.3	18.3	6.01e-01	0	43	102	524288	21	5541
2026-01-07 02:18:45.48	213.48	36.49	-30.1	-33.0	19.1	6.05e-01	0	44	102	524288	21	5051
2026-01-07 02:18:47.48	213.29	35.95	-29.9	-33.1	19.3	6.02e-01	0	43	102	524288	20	5211
2026-01-07 02:18:49.49	213.10	35.42	-29.9	-33.1	19.3	6.03e-01	0	43	102	524288	20	5202
2026-01-07 02:18:51.50	212.92	34.89	-29.8	-32.7	19.5	6.02e-01	0	44	102	524288	20	5075
2026-01-07 02:18:53.51	212.74	34.38	-29.6	-32.3	19.8	6.04e-01	0	43	102	524288	20	4940
2026-01-07 02:18:55.52	212.57	33.87	-29.5	-32.0	19.9	6.03e-01	0	43	102	524288	20	4833
2026-01-07 02:18:57.54	212.40	33.37	-29.3	-32.0	20.2	6.03e-01	0	43	102	524288	19	4938
2026-01-07 02:18:59.56	212.24	32.87	-29.1	-31.6	20.5	6.03e-01	0	43	102	524288	19	4802
2026-01-07 02:19:01.57	212.08	32.39	-28.9	-31.1	20.8	6.01e-01	0	43	102	524288	19	4625
2026-01-07 02:19:03.58	211.93	31.92	-29.1	-32.0	20.6	6.02e-01	0	43	102	524288	18	5056
2026-01-07 02:19:05.59	211.79	31.45	-29.3	-32.2	20.1	6.03e-01	0	43	102	524288	19	5009
2026-01-07 02:19:07.60	211.65	30.99	-29.0	-31.3	20.7	6.04e-01	0	43	102	524288	19	4702
2026-01-07 02:19:09.61	211.51	30.54	-28.9	-31.6	20.7	6.02e-01	0	43	102	524288	18	4932
2026-01-07 02:19:11.61	211.38	30.09	-29.0	-31.9	20.6	6.03e-01	0	44	102	524288	18	5003
2026-01-07 02:19:13.63	211.25	29.65	-29.0	-31.4	20.5	6.02e-01	0	43	102	524288	19	4738
2026-01-07 02:19:15.63	211.12	29.23	-28.9	-31.7	20.6	6.03e-01	0	44	102	524288	18	4958
2026-01-07 02:19:17.65	211.00	28.80	-28.3	-31.5	19.8	6.04e-01	0	43	102	524288	19	5244
2026-01-07 02:19:19.67	210.88	28.38	-29.3	-32.4	20.0	6.11e-01	0	44	102	524288	19	5133
2026-01-07 02:19:21.68	210.76	27.97	-29.3	-32.0	20.1	6.04e-01	0	43	102	524288	19	4957
2026-01-07 02:19:23.70	210.65	27.56	-29.3	-32.2	20.0	6.00e-01	0	44	102	524288	19	5015
2026-01-07 02:19:25.71	210.54	27.16	-29.2	-31.8	20.2	6.04e-01	0	43	102	524288	19	4871
2026-01-07 02:19:27.73	210.44	26.77	-29.3	-32.0	20.1	6.03e-01	0	43	102	524288	19	4952
2026-01-07 02:19:29.74	210.33	26.38	-29.4	-32.4	19.9	6.02e-01	0	43	102	524288	19	5068
2026-01-07 02:19:31.75	210.23	26.00	-29.3	-32.0	20.1	6.01e-01	0	43	102	524288	19	4946
2026-01-07 02:19:33.77	210.13	25.63	-29.3	-32.2	20.0	6.04e-01	0	43	102	524288	19	4995
2026-01-07 02:19:35.78	210.04	25.26	-29.4	-32.4	19.8	6.03e-01	0	43	102	524288	19	5085
2026-01-07 02:19:37.79	209.94	24.89	-29.6	-32.8	19.6	6.03e-01	0	43	102	524288	19	5227
2026-01-07 02:19:39.81	209.85	24.53	-29.5	-32.3	19.4	6.04e-01	0	43	102	524288	20	4966
2026-01-07 02:19:41.82	209.76	24.18	-29.6	-32.4	19.4	6.04e-01	0	43	102	524288	20	4992
2026-01-07 02:19:43.83	209.68	23.83	-29.6	-32.4	19.4	6.03e-01	0	43	102	524288	20	4981
2026-01-07 02:19:45.84	209.59	23.49	-29.4	-32.0	19.7	6.04e-01	0	43	102	524288	20	4851
2026-01-07 02:19:47.85	209.51	23.15	-29.4	-32.5	19.7	6.04e-01	0	43	102	524288	19	5142
2026-01-07 02:19:49.87	209.43	22.81	-29.5	-32.7	19.6	6.04e-01	0	43	102	524288	19	5188
2026-01-07 02:19:51.88	209.35	22.48	-29.6	-32.9	19.5	6.04e-01	0	43	102	524288	19	5291
2026-01-07 02:19:53.90	209.28	22.16	-29.6	-32.6	19.3	6.04e-01	0	43	102	524288	20	5057
2026-01-07 02:19:55.92	209.20	21.83	-29.7	-32.7	19.2	6.01e-01	0	43	102	524288	20	5123
2026-01-07 02:19:57.93	209.13	21.52	-29.6	-32.7	19.2	6.03e-01	0	43	102	524288	20	5100
2026-01-07 02:19:59.94	209.06	21.20	-29.6	-32.7	19.2	6.04e-01	0	43	102	524288	20	5093
2026-01-07 02:20:01.96	208.99	20.90	-29.6	-32.7	19.2	6.02e-01	0	43	102	524288	20	5094
2026-01-07 02:20:03.98	208.92	20.59	-29.7	-32.8	19.1	6.03e-01	0	43	102	524288	20	5156
2026-01-07 02:20:05.99	208.85	20.29	-29.6	-32.7	19.1	6.05e-01	0	43	102	524288	20	5097
2026-01-07 02:20:08.00	208.79	19.99	-29.6	-32.5	19.2	6.04e-01	0	43	102	524288	20	5054
2026-01-07 02:20:10.02	208.72	19.70	-29.6	-32.5	19.2	6.03e-01	0	43	102	524288	20	5029
2026-01-07 02:20:12.03	208.66	19.41	-29.6	-32.4	19.2	6.00e-01	0	43	102	524288	20	5014
2026-01-07 02:20:14.04	208.60	19.13	-29.6	-32.9	19.3	6.03e-01	0	43	102	524288	19	5302
2026-01-07 02:20:16.05	208.54	18.85	-29.6	-32.7	19.0	6.02e-01	0	43	102	524288	20	5118
2026-01-07 02:20:18.07	208.48	18.57	-29.6	-32.6	19.1	6.03e-01	0	43	102	524288	20	5090
2026-01-07 02:20:20.09	208.42	18.29	-29.5	-32.7	19.4	6.02e-01	0	43	102	524288	19	5217
2026-01-07 02:20:22.10	208.37	18.02	-29.6	-32.6	19.1	6.03e-01	0	43	102	524288	20	5094
2026-01-07 02:20:24.11	208.31	17.75	-29.5	-32.4	19.2	6.03e-01	0	43	102	524288	20	5021
2026-01-07 02:20:26.12	208.26	17.49	-29.5	-32.3	19.2	6.03e-01	0	43	102	524288	20	4981
2026-01-07 02:20:28.14	208.20	17.22	-29.5	-32.9	19.2	6.02e-01	0	43	102	524288	19	5321
2026-01-07 02:20:30.15	208.15	16.96	-29.8	-33.2	18.6	6.02e-01	0	43	102	524288	20	5315
2026-01-07 02:20:32.16	208.10	16.71	-29.4	-32.1	19.3	6.06e-01	0	43	102	524288	20	4924
2026-01-07 02:20:34.18	208.05	16.45	-29.5	-32.8	18.3	6.07e-01	0	43	102	524288	19	5268
2026-01-07 02:20:36.18	208.00	16.20	-29.5	-32.8	19.1	6.03e-01	0	43	102	524288	19	5293
2026-01-07 02:20:38.19	207.96	15.96	-29.4	-32.5	18.6	6.02e-01	0	43	102	524288	19	5167
2026-01-07 02:20:40.20	207.91	15.71	-29.4	-32.6	19.3	6.02e-01	0	44	102	524288	19	5196
2026-01-07 02:20:42.22	207.86	15.47	-29.4	-32.6	19.3	6.02e-01	0	43	102	524288	19	5207
2026-01-07 02:20:44.24	207.82	15.23	-29.5	-32.8	19.2	6.02e-01	0	43	102	524288	19	5282
2026-01-07 02:20:46.25	207.78	14.99	-29.4	-32.6	19.3	6.02e-01	0	43	102	524288	19	5203
2026-01-07 02:20:48.26	207.73	14.76	-29.5	-32.8	19.1	6.03e-01	0	43	102	524288	19	5303
2026-01-07 02:20:50.27	207.69	14.53	-29.4	-32.5	19.3	6.04e-01	0	43	102	524288	19	5191
2026-01-07 02:20:52.29	207.65	14.29	-29.4	-32.6	19.3	6.04e-01	0	43	102	524288	19	5199
2026-01-07 02:20:54.30	207.61	14.07	-29.4	-32.7	19.2	6.05e-01	0	43	102	524288	19	5256
2026-01-07 02:20:56.32	207.57	13.84	-29.4	-32.6	19.2	6.04e-01	0	43	102	524288	19	5224
2026-01-07 02:20:58.33	207.53	13.62	-29.5	-32.8	19.1	6.03e-01	0	43	102	524288	19	5301
2026-01-07 02:21:00.34	207.49	13.40	-29.6	-33.1	18.9	6.06e-01	0	43	102	524288	19	5411
2026-01-07 02:21:02.36	207.45	13.18	-29.5	-32.9	19.1	6.02e-01	0	43	102	524288	19	5319
2026-01-07 02:21:04.38	207.41	12.96	-29.5	-32.5	18.8	6.02e-01	0	43	102	524288	20	5093
2026-01-07 02:21:06.40	207.38	12.75	-29.5	-33.0	18.9	6.03e-01	0	43	102	524288	19	5394
2026-01-07 02:21:08.41	207.34	12.54	-29.5	-33.0	18.9	6.04e-01	0	43	102	524288	19	5390
2026-01-07 02:21:10.43	207.31	12.33	-29.5	-33.0	18.9	6.05e-01	0	43	102	524288	19	5384
2026-01-07 02:21:12.44	207.27	12.12	-29.6	-33.1	18.7	6.01e-01	0	43	102	524288	19	5428
2026-01-07 02:21:14.46	207.24	11.91	-29.6	-32.7	18.6	6.04e-01	0	43	102	524288	20	5153
2026-01-07 02:21:16.48	207.20	11.71	-29.6	-32.8	18.5	6.01e-01	0	43	102	524288	20	5222
2026-01-07 02:21:18.49	207.17	11.50	-29.6	-32.7	18.5	6.03e-01	0	43	102	524288	20	5187
2026-01-07 02:21:20.51	207.14	11.30	-29.7	-33.0	18.4	6.04e-01	0	43	102	524288	20	5288
2026-01-07 02:21:22.53	207.11	11.10	-29.6	-32.8	18.5	6.02e-01	0	43	102	524288	20	5192
2026-01-07 02:21:24.55	207.07	10.91	-29.5	-32.7	18.5	6.03e-01	0	43	102	524288	20	5168
2026-01-07 02:21:26.56	207.04	10.71	-29.6	-32.9	18.4	6.03e-01	0	43	102	524288	20	5242
2026-01-07 02:21:28.57	207.01	10.52	-29.7	-33.1	18.3	6.03e-01	0	43	102	524288	20	5324
2026-01-07 02:21:30.58	206.98	10.33	-29.6	-32.9	18.3	6.02e-01	0	43	102	524288	20	5255
2026-01-07 02:21:32.59	206.96	10.14	-29.6	-32.9	18.4	6.02e-01	0	43	102	524288	20	5251
2026-01-07 02:21:34.59	206.93	9.95	-29.6	-33.0	18.3	6.02e-01	0	43	102	524288	20	5305
2026-01-07 02:21:36.61	206.90	9.76	-29.7	-33.2	18.1	6.03e-01	0	43	102	524288	20	5366
2026-01-07 02:21:38.62	206.87	9.58	-29.7	-33.2	18.1	6.05e-01	0	43	102	524288	20	5384
2026-01-07 02:21:40.63	206.84	9.39	-29.7	-33.2	18.1	6.03e-01	0	43	102	524288	20	5396
2026-01-07 02:21:42.64	206.82	9.21	-29.8	-33.5	17.9	6.01e-01	0	43	102	524288	20	5502
2026-01-07 02:21:44.66	206.79	9.03	-29.8	-33.5	17.9	6.03e-01	0	43	102	524288	20	5531
2026-01-07 02:21:46.67	206.76	8.85	-29.9	-33.7	17.7	6.04e-01	0	44	102	524288	20	5597
2026-01-07 02:21:48.68	206.74	8.67	-29.8	-33.6	17.8	6.01e-01	0	43	102	524288	20	5586
2026-01-07 02:21:50.69	206.71	8.49	-29.9	-33.9	17.6	6.01e-01	0	43	102	524288	20	5683
2026-01-07 02:21:52.70	206.69	8.32	-28.7	-32.8	17.6	6.03e-01	0	43	102	524288	20	5755
2026-01-07 02:21:54.72	206.66	8.15	-29.9	-34.2	16.8	6.08e-01	0	43	102	524288	20	5858
2026-01-07 02:21:56.72	206.64	7.97	-29.9	-33.9	17.3	6.04e-01	0	44	102	524288	20	5736
2026-01-07 02:21:58.73	206.62	7.80	-29.9	-34.1	17.4	6.02e-01	0	43	102	524288	20	5789
2026-01-07 02:22:00.74	206.59	7.63	-29.9	-34.1	17.3	6.02e-01	0	43	102	524288	20	5813
2026-01-07 02:22:02.76	206.57	7.46	-30.0	-34.2	17.2	6.04e-01	0	43	102	524288	20	5885
2026-01-07 02:22:04.77	206.55	7.30	-29.9	-34.1	17.3	6.05e-01	0	43	102	524288	20	5819
2026-01-07 02:22:06.79	206.53	7.13	-30.0	-34.2	17.3	6.01e-01	0	43	102	524288	20	5849
2026-01-07 02:22:08.80	206.50	6.96	-33.4	-52.9	3.8	7.41e-01	0	43	104	524288	27	33818

#Closed at: 2026-01-07 02:22:09
#Recorded file [0 MB]: D:/data/31010_260107_051644.dat