passes_logs/2026/01/07/R2M6_AANII_01/R2M6_AANII_01__20260107_030535_FENGYUN_3D_rec.log

#Pass ID: 20260107_030535_FENGYUN 3D
#Satellite: FENGYUN 3D
#Configuration: FENGYUN 3D
#almurnet v.1.7.20240730
#Start time: 2026-01-07 03:05:34

#Version: 2.2.20231116
#Station: R2M6_AANII_01
#Location: 30.233357 lon 59.946436 lat
#TLE: 1 43010U 17072A   26006.26440730  .00000376  00000+0  19957-3 0  9994
#TLE: 2 43010  98.9925 337.9455 0002045 123.9195 236.2175 14.19693586422016

#Time	Az	El	Level	Level2	SNR	BER	BlckErr	Temp	State	Recorded	gain1	gain2
2026-01-07 03:05:34.88	15.46	6.95	-30.2	-34.2	5.1	8.01e-01	0	41	0	0	20	5726
2026-01-07 03:05:37.89	15.37	7.18	-30.2	-34.2	8.2	6.30e-02	0	41	102	1048576	20	5715
2026-01-07 03:05:40.91	15.27	7.41	-30.0	-33.5	8.8	3.66e-02	0	41	102	1048576	20	5379
2026-01-07 03:05:43.93	15.17	7.64	-29.8	-33.4	9.3	1.37e-02	0	41	102	1048576	19	5441
2026-01-07 03:05:46.95	15.07	7.87	-29.6	-32.8	9.8	1.73e-02	0	41	102	1048576	19	5188
2026-01-07 03:05:49.98	14.96	8.11	-28.2	-30.6	12.2	4.94e-04	0	41	102	1048576	16	4739
2026-01-07 03:05:53.00	14.85	8.35	-27.2	-29.2	13.5	1.60e-05	0	41	102	1048576	14	4534
2026-01-07 03:05:56.01	14.75	8.59	-27.2	-29.3	13.4	1.14e-05	0	42	102	1048576	14	4574
2026-01-07 03:05:59.03	14.64	8.83	-27.3	-29.5	13.3	2.86e-05	0	41	102	1048576	14	4640
2026-01-07 03:06:02.05	14.52	9.07	-27.3	-29.0	13.4	3.43e-05	0	42	102	1048576	15	4386
2026-01-07 03:06:05.07	14.41	9.32	-26.8	-28.8	14.1	2.20e-06	0	42	102	1048576	13	4523
2026-01-07 03:06:08.08	14.29	9.57	-26.7	-28.6	14.2	2.20e-06	0	42	102	1048576	13	4459
2026-01-07 03:06:11.09	14.17	9.82	-26.8	-28.7	14.2	2.20e-06	0	42	102	1048576	13	4518
2026-01-07 03:06:14.12	14.05	10.07	-26.6	-28.3	14.5	2.20e-06	0	42	102	1048576	13	4380
2026-01-07 03:06:17.14	13.93	10.33	-26.4	-28.3	14.7	1.10e-06	0	42	102	1048576	12	4512
2026-01-07 03:06:20.16	13.80	10.59	-26.1	-27.8	14.2	0.00e+00	0	42	102	1048576	12	4373
2026-01-07 03:06:23.17	13.68	10.85	-26.1	-27.7	15.1	0.00e+00	0	42	102	1048576	12	4338
2026-01-07 03:06:26.20	13.54	11.12	-26.3	-28.2	14.9	1.10e-06	0	42	102	1048576	12	4459
2026-01-07 03:06:29.22	13.41	11.38	-26.2	-27.9	15.0	0.00e+00	0	42	102	1048576	12	4372
2026-01-07 03:06:32.24	13.27	11.65	-26.1	-27.7	15.2	3.09e-04	0	42	102	1048576	12	4317
2026-01-07 03:06:35.26	13.14	11.93	-26.0	-27.6	15.2	3.57e-04	0	42	102	1048576	12	4301
2026-01-07 03:06:38.28	12.99	12.20	-26.2	-27.8	15.1	3.32e-04	0	42	102	1048576	12	4366
2026-01-07 03:06:41.30	12.85	12.48	-26.1	-27.6	15.3	2.80e-04	0	42	102	1048576	12	4306
2026-01-07 03:06:44.32	12.70	12.76	-25.9	-27.3	15.4	3.29e-04	0	42	102	1048576	12	4216
2026-01-07 03:06:47.33	12.55	13.05	-25.9	-27.7	15.6	2.71e-04	0	42	102	1048576	11	4447
2026-01-07 03:06:50.34	12.40	13.33	-25.9	-27.2	15.5	0.00e+00	0	42	102	1048576	12	4202
2026-01-07 03:06:53.36	12.24	13.63	-25.8	-27.6	15.7	2.60e-04	0	43	102	1048576	11	4404
2026-01-07 03:06:56.38	12.08	13.92	-25.7	-27.3	15.8	2.96e-04	0	43	102	1048576	11	4327
2026-01-07 03:06:59.39	11.92	14.22	-25.7	-27.3	15.9	0.00e+00	0	42	102	1048576	11	4319
2026-01-07 03:07:02.41	11.75	14.52	-25.5	-26.9	16.1	0.00e+00	0	43	102	1048576	11	4222
2026-01-07 03:07:05.43	11.58	14.82	-25.6	-27.1	16.0	2.56e-04	0	42	102	1048576	11	4281
2026-01-07 03:07:08.45	11.40	15.13	-25.9	-27.6	15.7	0.00e+00	0	43	102	1048576	11	4401
2026-01-07 03:07:11.47	11.22	15.44	-26.1	-27.7	15.4	0.00e+00	0	43	102	1048576	12	4307
2026-01-07 03:07:14.49	11.04	15.76	-25.5	-26.8	16.2	0.00e+00	0	43	102	1048576	11	4193
2026-01-07 03:07:17.50	10.85	16.08	-25.4	-26.6	16.3	0.00e+00	0	43	102	1048576	11	4144
2026-01-07 03:07:20.52	10.66	16.40	-25.5	-27.3	16.3	0.00e+00	0	43	102	1048576	10	4428
2026-01-07 03:07:23.53	10.46	16.73	-25.3	-26.5	16.5	0.00e+00	0	43	102	1048576	11	4099
2026-01-07 03:07:26.55	10.26	17.06	-25.3	-26.9	16.5	0.00e+00	0	43	102	1048576	10	4313
2026-01-07 03:07:29.57	10.06	17.40	-25.3	-26.8	16.6	0.00e+00	0	43	102	1048576	10	4304
2026-01-07 03:07:32.59	9.85	17.74	-25.0	-25.6	17.0	0.00e+00	0	43	102	1048576	11	3890
2026-01-07 03:07:35.60	9.63	18.08	-24.3	-25.3	17.6	0.00e+00	0	43	102	1048576	9	4024
2026-01-07 03:07:38.62	9.41	18.43	-24.4	-26.0	17.6	0.00e+00	0	43	102	1048576	8	4302
2026-01-07 03:07:41.64	9.18	18.78	-24.4	-26.0	17.6	0.00e+00	0	43	102	1048576	8	4309
2026-01-07 03:07:44.66	8.95	19.14	-24.4	-26.0	17.6	0.00e+00	0	43	102	1048576	8	4306
2026-01-07 03:07:47.69	8.71	19.50	-24.3	-25.3	17.7	1.32e-03	0	43	102	1048576	9	4012
2026-01-07 03:07:50.70	8.47	19.87	-24.3	-25.7	17.8	0.00e+00	0	43	102	1048576	8	4231
2026-01-07 03:07:53.71	8.22	20.24	-24.3	-25.7	17.8	0.00e+00	0	43	102	1048576	8	4224
2026-01-07 03:07:56.74	7.97	20.62	-24.2	-25.6	17.8	1.48e-03	0	43	102	1048576	8	4202
2026-01-07 03:07:59.76	7.70	21.00	-24.4	-25.9	17.7	1.46e-03	0	43	102	1048576	8	4273
2026-01-07 03:08:02.79	7.43	21.39	-24.2	-25.5	17.9	0.00e+00	0	43	102	1048576	8	4181
2026-01-07 03:08:05.80	7.15	21.78	-24.3	-25.7	17.8	1.31e-03	0	43	102	1048576	8	4240
2026-01-07 03:08:08.82	6.87	22.18	-24.3	-25.2	17.8	1.40e-03	0	43	102	1048576	9	4008
2026-01-07 03:08:11.85	6.58	22.59	-24.1	-25.3	18.0	0.00e+00	0	43	102	1048576	8	4134
2026-01-07 03:08:14.86	6.28	23.00	-23.9	-24.9	18.3	1.16e-03	0	43	102	1048576	8	4026
2026-01-07 03:08:17.88	5.97	23.41	-23.7	-24.9	18.5	1.28e-03	0	43	102	1048576	7	4150
2026-01-07 03:08:20.90	5.65	23.83	-23.7	-25.0	18.5	0.00e+00	0	43	102	1048576	7	4168
2026-01-07 03:08:23.90	5.33	24.26	-23.7	-25.0	18.5	0.00e+00	0	43	102	1048576	7	4170
2026-01-07 03:08:26.92	4.99	24.69	-23.7	-25.0	18.5	1.40e-03	0	43	102	1048576	7	4166
2026-01-07 03:08:29.94	4.65	25.13	-24.0	-25.2	18.2	0.00e+00	0	43	102	1048576	8	4096
2026-01-07 03:08:32.96	4.29	25.58	-23.5	-24.6	18.7	0.00e+00	0	43	102	1048576	7	4064
2026-01-07 03:08:35.98	3.92	26.03	-23.3	-24.1	19.0	0.00e+00	0	43	102	1048576	7	3954
2026-01-07 03:08:39.00	3.55	26.49	-23.3	-24.1	19.0	0.00e+00	0	43	102	1048576	7	3931
2026-01-07 03:08:42.02	3.16	26.95	-23.2	-24.3	19.1	0.00e+00	0	43	102	1048576	6	4108
2026-01-07 03:08:45.04	2.76	27.42	-23.1	-24.1	19.2	0.00e+00	0	43	102	1048576	6	4063
2026-01-07 03:08:48.06	2.34	27.90	-23.2	-24.3	19.2	0.00e+00	0	43	102	1048576	6	4110
2026-01-07 03:08:51.08	1.92	28.38	-23.1	-24.1	19.3	0.00e+00	0	43	102	1048576	6	4057
2026-01-07 03:08:54.10	1.48	28.88	-23.0	-23.8	19.4	0.00e+00	0	43	102	1048576	6	3986
2026-01-07 03:08:57.11	1.03	29.37	-23.0	-23.9	19.4	0.00e+00	0	43	102	1048576	6	4012
2026-01-07 03:09:00.13	0.56	29.88	-23.1	-24.1	19.3	0.00e+00	0	43	102	1048576	6	4056
2026-01-07 03:09:03.15	0.08	30.39	-23.1	-24.1	19.3	0.00e+00	0	43	102	1048576	6	4050
2026-01-07 03:09:06.17	359.58	30.91	-22.9	-23.8	19.4	0.00e+00	0	43	102	1048576	6	3984
2026-01-07 03:09:09.19	359.06	31.43	-23.1	-24.2	19.3	0.00e+00	0	43	102	1048576	6	4066
2026-01-07 03:09:12.21	358.53	31.97	-22.4	-23.1	16.6	0.00e+00	0	43	102	1048576	6	3880
2026-01-07 03:09:15.23	357.97	32.50	-23.0	-24.1	19.3	0.00e+00	0	43	102	1048576	6	4041
2026-01-07 03:09:18.26	357.40	33.05	-22.9	-23.8	19.5	1.22e-03	0	43	102	1048576	6	3972
2026-01-07 03:09:21.27	356.81	33.60	-22.8	-23.5	19.7	0.00e+00	0	43	102	1048576	6	3915
2026-01-07 03:09:24.29	356.20	34.16	-22.6	-23.7	19.8	0.00e+00	0	43	102	1048576	5	4056
2026-01-07 03:09:27.32	355.56	34.73	-22.6	-23.7	19.8	8.31e-04	0	43	102	1048576	5	4065
2026-01-07 03:09:30.34	354.91	35.30	-23.0	-23.9	19.5	8.04e-04	0	43	102	1048576	6	4002
2026-01-07 03:09:33.36	354.23	35.88	-22.9	-23.7	19.6	7.83e-04	0	43	102	1048576	6	3959
2026-01-07 03:09:36.38	353.52	36.46	-23.0	-23.9	19.5	8.00e-04	0	43	102	1048576	6	4002
2026-01-07 03:09:39.40	352.79	37.05	-23.1	-24.1	19.4	7.27e-04	0	43	102	1048576	6	4055
2026-01-07 03:09:42.40	352.04	37.64	-23.0	-24.0	19.4	6.98e-04	0	43	102	1048576	6	4024
2026-01-07 03:09:45.43	351.25	38.24	-23.2	-23.9	19.2	0.00e+00	0	43	102	1048576	7	3902
2026-01-07 03:09:48.45	350.43	38.84	-22.7	-23.4	19.8	1.07e-03	0	43	102	1048576	6	3887
2026-01-07 03:09:51.46	349.58	39.44	-22.6	-23.5	20.0	0.00e+00	0	43	102	1048576	5	4013
2026-01-07 03:09:54.48	348.70	40.05	-22.9	-24.2	19.6	0.00e+00	0	43	102	1048576	5	4197
2026-01-07 03:09:57.49	347.79	40.66	-22.9	-23.7	19.7	0.00e+00	0	43	102	1048576	6	3947
2026-01-07 03:10:00.51	346.84	41.27	-22.8	-23.5	19.7	0.00e+00	0	43	102	1048576	6	3918
2026-01-07 03:10:03.52	345.85	41.89	-23.0	-23.9	19.6	0.00e+00	0	43	102	1048576	6	3996
2026-01-07 03:10:06.54	344.82	42.50	-22.9	-23.7	19.6	0.00e+00	0	43	102	1048576	6	3962
2026-01-07 03:10:09.57	343.75	43.12	-23.3	-24.5	19.3	0.00e+00	0	43	102	1048576	6	4149
2026-01-07 03:10:12.59	342.64	43.73	-23.2	-23.9	19.3	0.00e+00	0	43	102	1048576	7	3890
2026-01-07 03:10:15.62	341.48	44.34	-23.7	-24.9	18.8	0.00e+00	0	43	102	1048576	7	4124
2026-01-07 03:10:18.64	340.28	44.95	-23.3	-24.0	19.3	0.00e+00	0	43	102	1048576	7	3914
2026-01-07 03:10:21.65	339.04	45.55	-23.4	-24.3	19.1	0.00e+00	0	43	102	1048576	7	3991
2026-01-07 03:10:24.66	337.75	46.14	-23.2	-23.9	19.3	0.00e+00	0	43	102	1048576	7	3901
2026-01-07 03:10:27.68	336.41	46.72	-22.8	-23.5	19.8	0.00e+00	0	43	102	1048576	6	3908
2026-01-07 03:10:30.70	335.01	47.30	-22.8	-23.6	19.7	0.00e+00	0	43	102	1048576	6	3921
2026-01-07 03:10:33.72	333.57	47.86	-23.3	-24.6	19.3	0.00e+00	0	43	102	1048576	6	4165
2026-01-07 03:10:36.73	332.07	48.41	-23.5	-25.0	19.1	0.00e+00	0	44	102	1048576	6	4270
2026-01-07 03:10:39.75	330.52	48.94	-23.3	-24.1	19.2	0.00e+00	0	43	102	1048576	7	3947
2026-01-07 03:10:42.77	328.91	49.46	-23.5	-24.9	19.0	0.00e+00	0	43	102	1048576	6	4245
2026-01-07 03:10:45.79	327.25	49.96	-23.8	-24.7	18.7	0.00e+00	0	43	102	1048576	8	3976
2026-01-07 03:10:48.81	325.53	50.44	-24.0	-25.5	18.6	0.00e+00	0	43	102	1048576	7	4283
2026-01-07 03:10:51.83	323.76	50.89	-23.7	-24.3	18.9	0.00e+00	0	43	102	1048576	8	3880
2026-01-07 03:10:54.85	321.93	51.32	-24.0	-24.9	18.6	0.00e+00	0	43	102	1048576	8	4033
2026-01-07 03:10:57.87	320.05	51.72	-23.4	-24.3	19.2	0.00e+00	0	43	102	1048576	7	3986
2026-01-07 03:11:00.89	318.13	52.09	-23.4	-24.3	19.2	0.00e+00	0	43	102	1048576	7	3973
2026-01-07 03:11:03.91	316.15	52.43	-23.2	-23.9	19.4	0.00e+00	0	43	102	1048576	7	3884
2026-01-07 03:11:06.94	314.13	52.73	-22.8	-23.6	19.8	0.00e+00	0	43	102	1048576	6	3931
2026-01-07 03:11:09.95	312.08	53.00	-23.2	-24.3	19.5	0.00e+00	0	43	102	1048576	6	4084
2026-01-07 03:11:12.98	309.98	53.23	-23.4	-24.7	19.2	0.00e+00	0	43	102	1048576	6	4190
2026-01-07 03:11:16.00	307.85	53.42	-23.2	-24.4	19.4	0.00e+00	0	43	102	1048576	6	4119
2026-01-07 03:11:19.02	305.70	53.58	-23.5	-24.4	19.1	0.00e+00	0	43	102	1048576	7	4009
2026-01-07 03:11:22.04	303.53	53.69	-23.7	-24.5	18.9	0.00e+00	0	43	102	1048576	8	3915
2026-01-07 03:11:25.06	301.35	53.76	-23.5	-24.5	19.1	0.00e+00	0	43	102	1048576	7	4037
2026-01-07 03:11:28.09	299.15	53.78	-23.6	-24.3	18.9	0.00e+00	0	43	102	1048576	8	3877
2026-01-07 03:11:31.12	296.95	53.77	-23.7	-24.9	18.9	0.00e+00	0	43	102	1048576	7	4123
2026-01-07 03:11:34.13	294.77	53.71	-23.5	-24.5	19.1	0.00e+00	0	43	102	1048576	7	4045
2026-01-07 03:11:37.15	292.60	53.61	-23.2	-23.9	19.4	0.00e+00	0	43	102	1048576	7	3881
2026-01-07 03:11:40.17	290.44	53.47	-23.6	-24.6	19.0	0.00e+00	0	43	102	1048576	7	4064
2026-01-07 03:11:43.17	288.32	53.29	-23.2	-23.8	19.4	0.00e+00	0	43	102	1048576	7	3860
2026-01-07 03:11:46.20	286.21	53.07	-24.0	-24.9	18.6	0.00e+00	0	43	102	1048576	8	4036
2026-01-07 03:11:49.21	284.14	52.81	-24.1	-25.2	18.4	0.00e+00	0	43	102	1048576	8	4106
2026-01-07 03:11:52.23	282.11	52.51	-23.5	-24.0	19.1	0.00e+00	0	43	102	1048576	8	3794
2026-01-07 03:11:55.24	280.13	52.18	-23.2	-23.8	19.4	0.00e+00	0	43	102	1048576	7	3873
2026-01-07 03:11:58.26	278.19	51.82	-23.2	-24.4	19.3	0.00e+00	0	43	102	1048576	6	4123
2026-01-07 03:12:01.27	276.30	51.43	-23.4	-24.9	19.1	0.00e+00	0	43	102	1048576	6	4239
2026-01-07 03:12:04.29	274.46	51.01	-23.4	-24.8	19.2	0.00e+00	0	43	102	1048576	6	4224
2026-01-07 03:12:07.32	272.66	50.56	-23.6	-24.7	14.8	0.00e+00	0	43	102	1048576	7	4084
2026-01-07 03:12:10.34	270.92	50.09	-23.3	-24.0	19.3	0.00e+00	0	43	102	1048576	7	3910
2026-01-07 03:12:13.35	269.25	49.60	-23.1	-24.1	19.5	1.01e-03	0	43	102	1048576	6	4058
2026-01-07 03:12:16.38	267.61	49.08	-23.6	-24.7	18.9	0.00e+00	0	43	102	1048576	7	4080
2026-01-07 03:12:19.40	266.04	48.55	-23.1	-23.6	19.5	0.00e+00	0	43	102	1048576	7	3816
2026-01-07 03:12:22.41	264.53	48.00	-23.1	-24.0	19.5	6.84e-04	0	43	102	1048576	6	4028
2026-01-07 03:12:25.43	263.06	47.44	-23.3	-24.7	19.2	5.26e-04	0	43	102	1048576	6	4197
2026-01-07 03:12:28.45	261.65	46.87	-22.4	-23.2	20.1	7.61e-04	0	43	102	1048576	5	3948
2026-01-07 03:12:31.47	260.29	46.29	-22.2	-22.7	20.4	1.09e-03	0	43	102	1048576	5	3829
2026-01-07 03:12:34.49	258.98	45.69	-22.4	-23.1	20.1	1.09e-03	0	43	102	1048576	5	3922
2026-01-07 03:12:37.51	257.71	45.09	-22.5	-23.5	19.9	0.00e+00	0	43	102	1048576	5	4022
2026-01-07 03:12:40.52	256.50	44.49	-22.2	-22.8	20.3	1.13e-03	0	43	102	1048576	5	3862
2026-01-07 03:12:43.54	255.33	43.88	-22.0	-22.9	20.5	8.75e-04	0	43	102	1048576	4	3981
2026-01-07 03:12:46.56	254.21	43.26	-22.2	-23.4	20.2	0.00e+00	0	43	102	1048576	4	4093
2026-01-07 03:12:49.58	253.13	42.65	-22.5	-23.4	20.0	0.00e+00	0	43	102	1048576	5	3997
2026-01-07 03:12:52.60	252.09	42.03	-22.3	-23.0	20.1	0.00e+00	0	43	102	1048576	5	3904
2026-01-07 03:12:55.62	251.08	41.41	-22.5	-23.4	20.0	0.00e+00	0	43	102	1048576	5	3994
2026-01-07 03:12:58.63	250.12	40.80	-22.4	-23.2	20.1	0.00e+00	0	44	102	1048576	5	3939
2026-01-07 03:13:01.65	249.19	40.18	-22.6	-23.6	19.8	0.00e+00	0	43	102	1048576	5	4036
2026-01-07 03:13:04.67	248.30	39.57	-22.3	-23.0	20.1	0.00e+00	0	43	102	1048576	5	3890
2026-01-07 03:13:07.68	247.44	38.96	-22.6	-23.6	19.8	0.00e+00	0	43	102	1048576	5	4056
2026-01-07 03:13:10.70	246.61	38.36	-22.8	-24.0	19.6	0.00e+00	0	43	102	1048576	5	4131
2026-01-07 03:13:13.72	245.81	37.76	-22.7	-23.7	19.8	0.00e+00	0	43	102	1048576	5	4077
2026-01-07 03:13:16.73	245.05	37.16	-22.5	-23.4	19.9	0.00e+00	0	43	102	1048576	5	3999
2026-01-07 03:13:19.75	244.31	36.57	-22.5	-23.9	19.9	0.00e+00	0	43	102	1048576	4	4227
2026-01-07 03:13:22.78	243.59	35.98	-22.3	-23.0	20.1	0.00e+00	0	43	102	1048576	5	3897
2026-01-07 03:13:25.79	242.90	35.40	-22.1	-22.6	20.3	0.00e+00	0	43	102	1048576	5	3807
2026-01-07 03:13:28.80	242.24	34.83	-21.8	-22.3	20.7	0.00e+00	0	43	102	1048576	4	3846
2026-01-07 03:13:31.82	241.60	34.26	-22.2	-23.2	20.2	0.00e+00	0	43	102	1048576	4	4070
2026-01-07 03:13:34.85	240.97	33.69	-22.2	-23.4	20.1	7.27e-04	0	43	102	1048576	4	4103
2026-01-07 03:13:37.86	240.38	33.14	-22.1	-23.0	20.3	0.00e+00	0	43	102	1048576	4	4004
2026-01-07 03:13:40.88	239.80	32.59	-22.4	-23.7	20.0	1.10e-06	0	43	102	1048576	4	4195
2026-01-07 03:13:43.89	239.24	32.05	-22.7	-23.8	19.7	6.17e-04	0	43	102	1048576	5	4090
2026-01-07 03:13:46.92	238.70	31.51	-22.7	-23.8	19.7	3.09e-04	0	43	102	1048576	5	4083
2026-01-07 03:13:49.93	238.18	30.98	-22.5	-23.5	19.8	1.10e-06	0	43	102	1048576	5	4017
2026-01-07 03:13:52.95	237.67	30.46	-22.6	-23.6	19.8	9.05e-04	0	43	102	1048576	5	4045
2026-01-07 03:13:55.97	237.18	29.94	-22.7	-23.9	19.6	9.75e-04	0	43	102	1048576	5	4114
2026-01-07 03:13:59.00	236.70	29.43	-22.9	-24.2	19.5	1.10e-06	0	43	102	1048576	5	4179
2026-01-07 03:14:02.03	236.24	28.93	-23.1	-24.2	19.2	6.08e-04	0	43	102	1048576	6	4082
2026-01-07 03:14:05.04	235.80	28.44	-23.0	-24.0	19.3	8.69e-04	0	43	102	1048576	6	4043
2026-01-07 03:14:08.06	235.37	27.95	-22.9	-23.7	19.4	1.09e-03	0	43	102	1048576	6	3963
2026-01-07 03:14:11.08	234.95	27.47	-22.9	-23.7	19.4	1.18e-03	0	44	102	1048576	6	3968
2026-01-07 03:14:14.09	234.54	26.99	-23.1	-24.1	19.2	1.14e-03	0	43	102	1048576	6	4051
2026-01-07 03:14:17.11	234.15	26.52	-23.1	-24.1	19.2	0.00e+00	0	44	102	1048576	6	4052
2026-01-07 03:14:20.13	233.77	26.06	-23.2	-24.3	19.1	0.00e+00	0	43	102	1048576	6	4110
2026-01-07 03:14:23.16	233.40	25.61	-23.2	-24.3	19.0	1.20e-04	0	43	102	1048576	6	4113
2026-01-07 03:14:26.17	233.04	25.16	-23.2	-24.5	19.0	0.00e+00	0	43	102	1048576	6	4149
2026-01-07 03:14:29.19	232.69	24.71	-23.2	-24.3	19.0	0.00e+00	0	43	102	1048576	6	4106
2026-01-07 03:14:32.21	232.35	24.28	-23.2	-24.5	18.9	0.00e+00	0	43	102	1048576	6	4144
2026-01-07 03:14:35.22	232.02	23.85	-23.2	-24.5	18.9	0.00e+00	0	43	102	1048576	6	4151
2026-01-07 03:14:38.23	231.69	23.43	-23.3	-24.5	18.9	0.00e+00	0	43	102	1048576	6	4159
2026-01-07 03:14:41.24	231.38	23.01	-23.2	-24.4	18.9	0.00e+00	0	43	102	1048576	6	4126
2026-01-07 03:14:44.26	231.08	22.60	-23.4	-24.7	18.8	0.00e+00	0	43	102	1048576	6	4209
2026-01-07 03:14:47.27	230.78	22.19	-23.5	-24.6	18.6	0.00e+00	0	43	102	1048576	7	4073
2026-01-07 03:14:50.29	230.49	21.79	-23.6	-24.7	18.5	0.00e+00	0	44	102	1048576	7	4097
2026-01-07 03:14:53.31	230.21	21.39	-23.7	-25.1	18.3	0.00e+00	0	43	102	1048576	7	4188
2026-01-07 03:14:56.33	229.94	21.00	-23.8	-25.2	18.2	0.00e+00	0	43	102	1048576	7	4210
2026-01-07 03:14:59.35	229.67	20.62	-23.9	-25.4	18.1	0.00e+00	0	43	102	1048576	7	4271
2026-01-07 03:15:02.38	229.41	20.23	-24.3	-25.8	17.6	0.00e+00	0	43	102	1048576	8	4259
2026-01-07 03:15:05.40	229.16	19.86	-24.2	-25.6	17.7	0.00e+00	0	43	102	1048576	8	4205
2026-01-07 03:15:08.43	228.91	19.49	-24.0	-25.2	17.9	0.00e+00	0	43	102	1048576	8	4099
2026-01-07 03:15:11.45	228.67	19.12	-24.2	-25.6	17.7	0.00e+00	0	43	102	1048576	8	4203
2026-01-07 03:15:14.47	228.43	18.76	-24.0	-25.1	17.9	0.00e+00	0	43	102	1048576	8	4079
2026-01-07 03:15:17.49	228.20	18.41	-24.1	-25.4	17.8	2.86e-05	0	43	102	1048576	8	4157
2026-01-07 03:15:20.51	227.98	18.05	-24.2	-25.5	17.7	0.00e+00	0	43	102	1048576	8	4193
2026-01-07 03:15:23.53	227.76	17.71	-24.4	-25.9	17.5	5.03e-05	0	43	102	1048576	8	4290
2026-01-07 03:15:26.55	227.54	17.37	-24.5	-25.7	17.3	2.74e-05	0	43	102	1048576	9	4123
2026-01-07 03:15:29.57	227.33	17.03	-24.7	-26.2	17.0	3.31e-05	0	43	102	1048576	9	4254
2026-01-07 03:15:32.59	227.13	16.69	-24.8	-25.9	16.9	1.49e-04	0	43	102	1048576	10	4069
2026-01-07 03:15:35.62	226.93	16.36	-24.9	-26.6	16.8	2.31e-04	0	44	102	1048576	9	4355
2026-01-07 03:15:38.64	226.73	16.04	-25.4	-26.6	16.3	0.00e+00	0	44	102	1048576	11	4136
2026-01-07 03:15:41.65	226.54	15.72	-24.7	-25.7	17.0	0.00e+00	0	43	102	1048576	10	4012
2026-01-07 03:15:44.66	226.36	15.40	-24.7	-26.2	16.9	2.21e-04	0	43	102	1048576	9	4253
2026-01-07 03:15:47.68	226.17	15.09	-24.9	-26.5	16.8	1.91e-04	0	43	102	1048576	9	4332
2026-01-07 03:15:50.70	226.00	14.78	-25.2	-26.8	16.3	0.00e+00	0	43	102	1048576	10	4297
2026-01-07 03:15:53.73	225.82	14.47	-25.3	-27.0	16.2	0.00e+00	0	43	102	1048576	10	4345
2026-01-07 03:15:56.74	225.65	14.17	-25.3	-26.8	16.3	0.00e+00	0	43	102	1048576	10	4312
2026-01-07 03:15:59.77	225.48	13.86	-25.4	-27.2	16.1	0.00e+00	0	43	102	1048576	10	4405
2026-01-07 03:16:02.79	225.32	13.57	-25.3	-27.0	16.2	0.00e+00	0	43	102	1048576	10	4361
2026-01-07 03:16:05.81	225.16	13.28	-25.3	-27.0	16.1	0.00e+00	0	43	102	1048576	10	4374
2026-01-07 03:16:08.82	225.00	12.99	-25.5	-27.4	15.9	0.00e+00	0	43	102	1048576	10	4465
2026-01-07 03:16:11.84	224.85	12.70	-26.0	-27.6	15.2	0.00e+00	0	43	102	1048576	12	4304
2026-01-07 03:16:14.86	224.70	12.42	-26.0	-27.6	15.1	0.00e+00	0	43	102	1048576	12	4305
2026-01-07 03:16:17.88	224.55	12.14	-26.0	-27.5	15.2	0.00e+00	0	43	102	1048576	12	4274
2026-01-07 03:16:20.90	224.40	11.86	-26.4	-27.8	14.7	2.20e-06	0	43	102	1048576	13	4250
2026-01-07 03:16:23.92	224.26	11.58	-25.7	-26.9	15.5	0.00e+00	0	43	102	1048576	12	4128
2026-01-07 03:16:26.93	224.12	11.31	-25.7	-27.3	15.6	0.00e+00	0	43	102	1048576	11	4319
2026-01-07 03:16:29.95	223.98	11.05	-25.8	-27.5	15.5	0.00e+00	0	44	102	1048576	11	4383
2026-01-07 03:16:32.98	223.85	10.78	-25.8	-27.5	15.1	0.00e+00	0	43	102	1048576	11	4394
2026-01-07 03:16:36.01	223.72	10.51	-25.8	-27.5	15.5	0.00e+00	0	43	102	1048576	11	4379
2026-01-07 03:16:39.02	223.59	10.25	-25.9	-27.8	15.3	9.96e-04	0	43	102	1048576	11	4472
2026-01-07 03:16:42.02	223.46	10.00	-26.2	-28.0	14.8	0.00e+00	0	43	102	1048576	12	4427
2026-01-07 03:16:45.04	223.34	9.74	-25.9	-27.4	15.1	0.00e+00	0	43	102	1048576	12	4260
2026-01-07 03:16:48.06	223.22	9.49	-26.0	-27.5	15.0	1.12e-03	0	43	102	1048576	12	4295
2026-01-07 03:16:51.08	223.10	9.24	-26.2	-28.0	14.7	1.32e-03	0	43	102	1048576	12	4416
2026-01-07 03:16:54.10	222.98	8.99	-26.2	-28.0	14.7	1.31e-03	0	43	102	1048576	12	4435
2026-01-07 03:16:57.11	222.86	8.75	-26.5	-28.6	14.3	1.31e-03	0	44	102	1048576	12	4619
2026-01-07 03:17:00.13	222.75	8.50	-26.5	-28.1	14.3	1.03e-03	0	43	102	1048576	13	4363
2026-01-07 03:17:03.14	222.64	8.26	-26.5	-28.2	14.2	1.10e-06	0	43	102	1048576	13	4381
2026-01-07 03:17:06.15	222.53	8.02	-26.6	-28.4	14.1	8.98e-04	0	43	102	1048576	13	4432
2026-01-07 03:17:09.17	222.42	7.79	-26.6	-28.4	14.0	4.47e-04	0	43	102	1048576	13	4437
2026-01-07 03:17:12.19	222.32	7.55	-26.7	-28.6	13.9	8.00e-06	0	43	102	1048576	13	4514
2026-01-07 03:17:15.21	222.21	7.32	-26.7	-28.7	13.8	1.02e-05	0	44	102	1048576	13	4530
2026-01-07 03:17:18.23	222.11	7.09	-28.1	-31.0	12.1	6.95e-04	0	44	102	1048576	15	5053
2026-01-07 03:17:21.25	222.01	6.86	-33.3	-44.6	3.8	8.46e-01	0	43	104	1048576	26	13226

#Closed at: 2026-01-07 03:17:21
#Recorded file [1 MB]: D:/data/31010_260107_060536.dat