passes_logs/2026/01/07/R2M6_AANII_01/R2M6_AANII_01__20260107_094804_NOAA_21_JPSS-2_rec.log

#Pass ID: 20260107_094804_NOAA 21 (JPSS-2)
#Satellite: NOAA 21 (JPSS-2)
#Configuration: NOAA 21
#almurnet v.1.7.20240730
#Start time: 2026-01-07 09:49:21

#Version: 2.2.20231116
#Station: R2M6_AANII_01
#Location: 30.233357 lon 59.946436 lat
#TLE: 1 54234U 22150A   26005.56767909  .00000152  00000+0  92756-4 0  9990
#TLE: 2 54234  98.7490 306.5820 0001036 340.2747  19.8389 14.19532370163472

#Time	Az	El	Level	Level2	SNR	BER	BlckErr	Temp	State	Recorded	gain1	gain2
2026-01-07 09:49:21.33	141.88	13.70	-33.4	-44.9	3.8	8.46e-01	0	43	0	0	26	13402
2026-01-07 09:49:24.34	141.76	14.01	-34.0	-45.3	3.8	1.49e+00	0	44	104	0	29	13287
2026-01-07 09:49:27.36	141.64	14.31	-34.0	-45.4	3.8	1.49e+00	0	43	104	0	29	13335
2026-01-07 09:49:30.38	141.51	14.62	-34.0	-45.4	3.8	1.49e+00	0	43	104	0	29	13322
2026-01-07 09:49:33.40	141.39	14.94	-34.0	-45.3	3.8	1.49e+00	0	43	104	0	29	13282
2026-01-07 09:49:36.42	141.26	15.26	-34.0	-45.4	3.8	1.49e+00	0	43	104	0	29	13317
2026-01-07 09:49:39.43	141.13	15.58	-34.0	-45.3	3.8	1.49e+00	0	44	104	0	29	13259
2026-01-07 09:49:42.45	140.99	15.90	-34.1	-45.7	3.8	1.49e+00	0	43	104	0	29	13538
2026-01-07 09:49:45.47	140.86	16.24	-34.2	-45.7	3.8	1.49e+00	0	44	104	0	29	13549
2026-01-07 09:49:48.49	140.71	16.57	-34.0	-45.4	3.8	1.49e+00	0	44	104	0	29	13337
2026-01-07 09:49:51.51	140.57	16.91	-33.9	-45.1	3.8	1.49e+00	0	44	104	0	29	13072
2026-01-07 09:49:54.53	140.42	17.25	-33.5	-44.8	3.8	1.49e+00	0	44	104	0	28	13172
2026-01-07 09:49:57.54	140.27	17.60	-33.0	-41.2	4.2	1.47e+00	0	44	104	0	27	9199
2026-01-07 09:50:00.57	140.11	17.96	-32.9	-40.9	3.9	1.48e+00	0	44	104	0	27	9102
2026-01-07 09:50:03.59	139.95	18.32	-32.9	-40.9	3.9	1.43e+00	0	44	104	0	27	9111
2026-01-07 09:50:06.62	139.79	18.68	-31.9	-36.5	6.9	2.33e-01	0	44	102	1048576	25	6081
2026-01-07 09:50:09.62	139.62	19.05	-29.9	-32.2	11.3	1.61e-03	0	43	102	1048576	21	4678
2026-01-07 09:50:12.64	139.45	19.42	-28.8	-30.3	13.2	2.21e-05	0	44	102	1048576	19	4256
2026-01-07 09:50:15.67	139.27	19.80	-29.3	-32.0	12.5	8.92e-05	0	44	102	1048576	18	4907
2026-01-07 09:50:18.69	139.09	20.19	-29.3	-31.4	12.5	8.39e-05	0	43	102	1048576	19	4614
2026-01-07 09:50:21.72	138.91	20.58	-28.6	-30.4	13.5	1.06e-05	0	44	102	1048576	18	4395
2026-01-07 09:50:24.74	138.72	20.98	-28.7	-30.6	13.3	3.66e-05	0	43	102	1048576	18	4476
2026-01-07 09:50:27.77	138.52	21.38	-27.6	-28.8	15.0	0.00e+00	0	44	102	1048576	16	4148
2026-01-07 09:50:30.79	138.32	21.79	-26.8	-27.6	15.8	0.00e+00	0	43	102	1048576	15	3937
2026-01-07 09:50:33.81	138.11	22.20	-26.8	-28.2	15.8	0.00e+00	0	44	102	1048576	14	4211
2026-01-07 09:50:36.82	137.90	22.63	-26.3	-27.1	16.4	0.00e+00	0	44	102	1048576	14	3917
2026-01-07 09:50:39.83	137.68	23.05	-26.4	-27.6	16.4	0.00e+00	0	44	102	1048576	13	4148
2026-01-07 09:50:42.85	137.45	23.49	-26.2	-27.2	16.6	0.00e+00	0	44	102	1048576	13	4051
2026-01-07 09:50:45.86	137.22	23.93	-26.4	-27.6	16.4	0.00e+00	0	44	102	1048576	13	4153
2026-01-07 09:50:48.88	136.98	24.38	-26.5	-27.9	16.2	0.00e+00	0	43	102	1048576	13	4231
2026-01-07 09:50:51.89	136.74	24.83	-26.6	-28.2	16.1	0.00e+00	0	43	102	1048576	13	4316
2026-01-07 09:50:54.91	136.48	25.29	-26.5	-28.0	16.3	0.00e+00	0	44	102	1048576	13	4258
2026-01-07 09:50:57.94	136.22	25.77	-26.7	-28.4	16.1	0.00e+00	0	44	102	1048576	13	4359
2026-01-07 09:51:00.96	135.95	26.24	-26.8	-28.6	16.0	0.00e+00	0	44	102	1048576	13	4431
2026-01-07 09:51:03.99	135.67	26.73	-26.9	-28.8	15.9	0.00e+00	0	44	102	1048576	13	4476
2026-01-07 09:51:07.00	135.38	27.23	-27.2	-29.0	15.6	0.00e+00	0	44	102	1048576	14	4410
2026-01-07 09:51:10.02	135.09	27.73	-27.3	-29.2	15.5	0.00e+00	0	44	102	1048576	14	4469
2026-01-07 09:51:13.05	134.78	28.24	-27.5	-29.2	15.2	0.00e+00	0	44	102	1048576	15	4360
2026-01-07 09:51:16.06	134.46	28.76	-27.4	-28.9	15.4	0.00e+00	0	44	102	1048576	15	4288
2026-01-07 09:51:19.09	134.13	29.29	-27.5	-29.2	15.2	0.00e+00	0	44	102	1048576	15	4369
2026-01-07 09:51:22.11	133.79	29.83	-27.2	-28.4	15.7	0.00e+00	0	43	102	1048576	15	4134
2026-01-07 09:51:25.13	133.44	30.38	-26.9	-27.8	16.0	0.00e+00	0	44	102	1048576	15	3991
2026-01-07 09:51:28.15	133.08	30.93	-26.8	-28.0	16.2	0.00e+00	0	44	102	1048576	14	4142
2026-01-07 09:51:31.17	132.70	31.50	-27.1	-28.7	15.8	0.00e+00	0	43	102	1048576	14	4334
2026-01-07 09:51:34.19	132.31	32.07	-27.3	-29.1	15.6	0.00e+00	0	43	102	1048576	14	4452
2026-01-07 09:51:37.21	131.91	32.66	-27.4	-28.9	15.5	0.00e+00	0	43	102	1048576	15	4264
2026-01-07 09:51:40.23	131.49	33.25	-27.2	-28.5	15.7	0.00e+00	0	43	102	1048576	15	4154
2026-01-07 09:51:43.24	131.05	33.85	-27.4	-28.7	15.6	0.00e+00	0	43	102	1048576	15	4218
2026-01-07 09:51:46.26	130.60	34.47	-27.7	-29.5	15.2	0.00e+00	0	43	102	1048576	15	4425
2026-01-07 09:51:49.28	130.13	35.09	-28.3	-30.3	14.6	7.00e-07	0	44	102	1048576	16	4545
2026-01-07 09:51:52.31	129.64	35.73	-28.7	-30.9	14.0	3.00e-06	0	43	102	1048576	17	4628
2026-01-07 09:51:55.32	129.13	36.37	-29.0	-31.0	13.7	6.10e-06	0	43	102	1048576	18	4528
2026-01-07 09:51:58.33	128.60	37.02	-28.8	-30.7	13.9	2.20e-06	0	43	102	1048576	18	4432
2026-01-07 09:52:01.35	128.05	37.69	-28.9	-30.8	13.8	1.50e-06	0	44	102	1048576	18	4476
2026-01-07 09:52:04.37	127.47	38.37	-29.0	-31.1	13.6	7.60e-06	0	43	102	1048576	18	4555
2026-01-07 09:52:07.39	126.87	39.05	-29.0	-31.1	13.6	5.30e-06	0	44	102	1048576	18	4570
2026-01-07 09:52:10.40	126.25	39.75	-29.2	-31.5	13.4	1.29e-05	0	43	102	1048576	18	4685
2026-01-07 09:52:13.42	125.59	40.45	-28.8	-30.6	13.9	3.00e-06	0	43	102	1048576	18	4406
2026-01-07 09:52:16.45	124.90	41.17	-28.6	-30.1	14.2	3.80e-06	0	43	102	1048576	18	4264
2026-01-07 09:52:19.47	124.19	41.89	-28.9	-30.6	14.0	2.20e-06	0	44	102	1048576	18	4419
2026-01-07 09:52:22.49	123.44	42.63	-29.5	-32.1	13.1	2.67e-05	0	44	102	1048576	18	4890
2026-01-07 09:52:25.51	122.65	43.37	-29.7	-32.2	12.8	5.34e-05	0	44	102	1048576	19	4789
2026-01-07 09:52:28.54	121.82	44.12	-29.8	-32.5	12.6	1.08e-04	0	44	102	1048576	19	4895
2026-01-07 09:52:31.56	120.96	44.88	-29.7	-32.1	12.8	6.79e-05	0	44	102	1048576	19	4781
2026-01-07 09:52:34.59	120.05	45.65	-29.9	-32.7	12.4	1.22e-04	0	44	102	1048576	19	4985
2026-01-07 09:52:37.62	119.09	46.42	-29.8	-32.4	12.6	7.40e-05	0	44	102	1048576	19	4856
2026-01-07 09:52:40.64	118.09	47.20	-29.3	-31.1	13.5	1.37e-05	0	43	102	1048576	19	4445
2026-01-07 09:52:43.66	117.04	47.98	-29.2	-30.9	13.6	6.10e-06	0	43	102	1048576	19	4376
2026-01-07 09:52:46.68	115.93	48.76	-29.4	-31.6	13.2	2.13e-05	0	44	102	1048576	19	4595
2026-01-07 09:52:49.69	114.77	49.55	-29.2	-31.0	13.5	1.37e-05	0	43	102	1048576	19	4416
2026-01-07 09:52:52.72	113.54	50.33	-29.3	-31.2	13.5	1.52e-05	0	43	102	1048576	19	4476
2026-01-07 09:52:55.74	112.25	51.12	-29.3	-31.3	13.4	2.51e-05	0	43	102	1048576	19	4507
2026-01-07 09:52:58.75	110.89	51.90	-29.5	-31.6	13.2	1.52e-05	0	44	102	1048576	19	4597
2026-01-07 09:53:01.78	109.45	52.67	-28.9	-30.2	14.1	5.30e-06	0	43	102	1048576	19	4191
2026-01-07 09:53:04.81	107.93	53.44	-28.6	-29.9	14.5	0.00e+00	0	43	102	1048576	18	4190
2026-01-07 09:53:07.83	106.33	54.20	-28.0	-29.2	15.2	0.00e+00	0	43	102	1048576	17	4111
2026-01-07 09:53:10.85	104.65	54.95	-27.9	-29.0	15.3	0.00e+00	0	43	102	1048576	17	4065
2026-01-07 09:53:13.88	102.87	55.68	-28.4	-30.0	14.8	0.00e+00	0	44	102	1048576	17	4327
2026-01-07 09:53:16.90	101.00	56.39	-28.0	-29.5	15.2	0.00e+00	0	43	102	1048576	16	4302
2026-01-07 09:53:19.92	99.04	57.08	-27.6	-28.8	15.7	0.00e+00	0	44	102	1048576	16	4099
2026-01-07 09:53:22.94	96.98	57.74	-27.5	-29.0	15.8	0.00e+00	0	43	102	1048576	15	4269
2026-01-07 09:53:25.96	94.82	58.37	-27.6	-29.2	15.7	0.00e+00	0	43	102	1048576	15	4330
2026-01-07 09:53:28.99	92.54	58.97	-27.1	-28.2	16.2	0.00e+00	0	43	102	1048576	15	4071
2026-01-07 09:53:32.02	90.16	59.53	-27.1	-28.2	16.1	0.00e+00	0	43	102	1048576	15	4069
2026-01-07 09:53:35.04	87.69	60.05	-27.3	-28.5	16.0	0.00e+00	0	43	102	1048576	15	4160
2026-01-07 09:53:38.06	85.13	60.52	-27.1	-28.2	16.2	0.00e+00	0	43	102	1048576	15	4063
2026-01-07 09:53:41.08	82.47	60.94	-26.9	-28.3	16.5	0.00e+00	0	44	102	1048576	14	4188
2026-01-07 09:53:44.09	79.73	61.31	-26.8	-27.9	16.7	0.00e+00	0	43	102	1048576	14	4097
2026-01-07 09:53:47.12	76.91	61.62	-27.0	-28.5	16.4	0.00e+00	0	44	102	1048576	14	4245
2026-01-07 09:53:50.14	74.02	61.87	-27.4	-28.9	15.8	0.00e+00	0	44	102	1048576	15	4256
2026-01-07 09:53:53.16	71.09	62.06	-26.3	-27.4	17.2	0.00e+00	0	44	102	1048576	13	4075
2026-01-07 09:53:56.18	68.11	62.18	-27.1	-28.5	16.3	0.00e+00	0	43	102	1048576	14	4269
2026-01-07 09:53:59.22	65.10	62.24	-26.8	-27.9	16.6	0.00e+00	0	43	102	1048576	14	4114
2026-01-07 09:54:02.24	62.10	62.23	-26.8	-28.0	16.6	0.00e+00	0	43	102	1048576	14	4121
2026-01-07 09:54:05.26	59.11	62.15	-26.5	-27.2	17.0	0.00e+00	0	43	102	1048576	14	3909
2026-01-07 09:54:08.28	56.15	62.00	-27.1	-28.6	16.2	0.00e+00	0	43	102	1048576	14	4285
2026-01-07 09:54:11.30	53.23	61.79	-26.9	-28.2	16.5	0.00e+00	0	43	102	1048576	14	4166
2026-01-07 09:54:14.32	50.37	61.52	-26.8	-27.9	16.6	0.00e+00	0	43	102	1048576	14	4095
2026-01-07 09:54:17.35	47.57	61.19	-26.0	-26.8	17.4	0.00e+00	0	44	102	1048576	13	3920
2026-01-07 09:54:20.36	44.87	60.81	-27.1	-28.6	16.2	0.00e+00	0	43	102	1048576	14	4287
2026-01-07 09:54:23.38	42.24	60.37	-26.4	-27.2	17.0	0.00e+00	0	44	102	1048576	14	3913
2026-01-07 09:54:26.40	39.71	59.88	-27.4	-29.2	15.9	0.00e+00	0	44	102	1048576	14	4462
2026-01-07 09:54:29.42	37.28	59.35	-27.1	-28.2	16.1	0.00e+00	0	44	102	1048576	15	4075
2026-01-07 09:54:32.44	34.94	58.78	-28.1	-29.9	15.1	0.00e+00	0	44	102	1048576	16	4422
2026-01-07 09:54:35.47	32.71	58.17	-26.8	-27.4	16.5	0.00e+00	0	43	102	1048576	15	3875
2026-01-07 09:54:38.49	30.58	57.53	-27.4	-29.3	15.8	0.00e+00	0	43	102	1048576	14	4483
2026-01-07 09:54:41.49	28.57	56.86	-27.3	-28.1	15.9	0.00e+00	0	43	102	1048576	16	3935
2026-01-07 09:54:44.51	26.64	56.17	-27.2	-28.2	16.1	0.00e+00	0	44	102	1048576	15	4078
2026-01-07 09:54:47.53	24.81	55.45	-29.2	-31.5	13.5	8.30e-06	0	43	102	1048576	18	4696
2026-01-07 09:54:50.54	23.08	54.72	-28.1	-29.4	15.0	0.00e+00	0	44	102	1048576	17	4162
2026-01-07 09:54:53.57	21.42	53.98	-28.1	-29.5	15.0	0.00e+00	0	43	102	1048576	17	4188
2026-01-07 09:54:56.58	19.86	53.22	-28.2	-29.7	14.8	0.00e+00	0	43	102	1048576	17	4253
2026-01-07 09:54:59.60	18.37	52.45	-28.4	-30.0	14.7	1.50e-06	0	43	102	1048576	17	4343
2026-01-07 09:55:02.61	16.97	51.68	-29.7	-32.3	12.8	3.20e-05	0	43	102	1048576	19	4820
2026-01-07 09:55:05.63	15.63	50.90	-28.2	-29.5	14.9	0.00e+00	0	43	102	1048576	17	4207
2026-01-07 09:55:08.64	14.37	50.12	-28.7	-30.8	14.2	7.00e-07	0	44	102	1048576	17	4565
2026-01-07 09:55:11.66	13.16	49.34	-30.7	-33.9	11.0	1.48e-03	0	44	102	1048576	21	5205
2026-01-07 09:55:14.68	12.02	48.56	-29.3	-31.2	13.4	2.51e-05	0	43	102	1048576	19	4466
2026-01-07 09:55:17.70	10.93	47.78	-30.1	-32.7	12.1	2.72e-04	0	44	102	1048576	20	4857
2026-01-07 09:55:20.73	9.89	47.00	-31.5	-35.2	9.3	1.31e-02	0	43	102	1048576	23	5515
2026-01-07 09:55:23.75	8.91	46.23	-31.1	-34.1	10.1	1.24e-02	0	44	102	1048576	23	5052
2026-01-07 09:55:26.77	7.97	45.46	-28.9	-30.2	13.9	4.50e-06	0	43	102	1048576	19	4188
2026-01-07 09:55:29.79	7.08	44.70	-30.0	-32.9	12.3	1.27e-04	0	43	102	1048576	19	5032
2026-01-07 09:55:32.81	6.23	43.95	-29.9	-31.7	12.3	1.96e-04	0	43	102	1048576	21	4449
2026-01-07 09:55:35.84	5.42	43.20	-30.2	-33.0	11.8	5.09e-04	0	43	102	1048576	20	4976
2026-01-07 09:55:38.85	4.65	42.46	-29.2	-30.9	13.5	1.29e-05	0	43	102	1048576	19	4380
2026-01-07 09:55:41.88	3.91	41.73	-29.7	-32.2	12.6	6.79e-05	0	43	102	1048576	19	4807
2026-01-07 09:55:44.89	3.21	41.02	-30.1	-32.7	12.0	4.26e-04	0	44	102	1048576	20	4877
2026-01-07 09:55:47.91	2.53	40.31	-28.6	-29.9	14.2	1.50e-06	0	44	102	1048576	18	4216
2026-01-07 09:55:50.93	1.89	39.61	-28.8	-30.4	14.0	2.20e-06	0	43	102	1048576	18	4356
2026-01-07 09:55:53.95	1.27	38.92	-29.5	-31.8	12.9	3.20e-05	0	43	102	1048576	19	4674
2026-01-07 09:55:56.97	0.68	38.24	-29.3	-31.1	13.3	2.05e-05	0	43	102	1048576	19	4456
2026-01-07 09:55:59.99	0.11	37.57	-29.2	-31.1	13.3	2.05e-05	0	44	102	1048576	19	4457
2026-01-07 09:56:03.01	359.57	36.91	-28.6	-30.2	14.1	3.80e-06	0	44	102	1048576	18	4292
2026-01-07 09:56:06.03	359.04	36.26	-28.3	-29.9	14.5	0.00e+00	0	44	102	1048576	17	4311
2026-01-07 09:56:09.05	358.54	35.62	-28.8	-31.1	13.8	4.50e-06	0	43	102	1048576	17	4690
2026-01-07 09:56:12.08	358.06	34.99	-28.8	-31.1	13.8	7.60e-06	0	43	102	1048576	17	4689
2026-01-07 09:56:15.10	357.59	34.37	-29.0	-30.9	13.7	9.90e-06	0	44	102	1048576	18	4523
2026-01-07 09:56:18.11	357.15	33.76	-28.6	-30.1	14.1	7.00e-07	0	43	102	1048576	18	4271
2026-01-07 09:56:21.14	356.72	33.16	-28.1	-29.3	14.9	0.00e+00	0	43	102	1048576	17	4167
2026-01-07 09:56:24.16	356.31	32.57	-27.7	-28.9	15.3	0.00e+00	0	44	102	1048576	16	4159
2026-01-07 09:56:27.18	355.91	31.99	-28.0	-29.7	14.9	0.00e+00	0	43	102	1048576	16	4379
2026-01-07 09:56:30.20	355.52	31.42	-28.6	-30.5	14.2	0.00e+00	0	43	102	1048576	17	4507
2026-01-07 09:56:33.22	355.15	30.86	-28.5	-30.4	14.2	2.20e-06	0	43	102	1048576	17	4481
2026-01-07 09:56:36.25	354.79	30.31	-27.6	-28.8	15.4	0.00e+00	0	43	102	1048576	16	4135
2026-01-07 09:56:39.27	354.45	29.77	-27.5	-28.5	15.5	0.00e+00	0	43	102	1048576	16	4053
2026-01-07 09:56:42.28	354.11	29.24	-27.1	-28.2	15.8	0.00e+00	0	43	102	1048576	15	4081
2026-01-07 09:56:45.30	353.79	28.71	-27.3	-28.6	15.6	0.00e+00	0	43	102	1048576	15	4202
2026-01-07 09:56:48.32	353.48	28.20	-27.3	-28.6	15.6	0.00e+00	0	43	102	1048576	15	4193
2026-01-07 09:56:51.35	353.18	27.69	-27.5	-29.0	15.3	0.00e+00	0	43	102	1048576	15	4307
2026-01-07 09:56:54.38	352.88	27.19	-27.4	-28.8	15.4	0.00e+00	0	43	102	1048576	15	4255
2026-01-07 09:56:57.39	352.60	26.70	-27.5	-29.0	15.3	0.00e+00	0	43	102	1048576	15	4314
2026-01-07 09:57:00.41	352.33	26.22	-27.1	-28.1	15.8	0.00e+00	0	43	102	1048576	15	4070
2026-01-07 09:57:03.44	352.06	25.74	-27.1	-28.1	15.8	0.00e+00	0	43	102	1048576	15	4067
2026-01-07 09:57:06.45	351.80	25.28	-26.8	-27.5	16.1	0.00e+00	0	43	102	1048576	15	3904
2026-01-07 09:57:09.46	351.55	24.82	-26.9	-28.3	15.9	0.00e+00	0	43	102	1048576	14	4224
2026-01-07 09:57:12.48	351.31	24.37	-27.3	-29.1	15.5	0.00e+00	0	43	102	1048576	14	4433
2026-01-07 09:57:15.50	351.08	23.92	-27.3	-29.1	15.4	0.00e+00	0	43	102	1048576	14	4450
2026-01-07 09:57:18.52	350.85	23.48	-27.4	-28.8	15.3	0.00e+00	0	44	102	1048576	15	4249
2026-01-07 09:57:21.53	350.63	23.05	-26.9	-27.7	15.9	0.00e+00	0	44	102	1048576	15	3961
2026-01-07 09:57:24.54	350.41	22.63	-26.9	-27.7	15.9	0.00e+00	0	43	102	1048576	15	3967
2026-01-07 09:57:27.56	350.20	22.21	-27.0	-27.9	15.8	0.00e+00	0	43	102	1048576	15	4015
2026-01-07 09:57:30.57	350.00	21.80	-27.0	-28.0	15.7	0.00e+00	0	44	102	1048576	15	4050
2026-01-07 09:57:33.59	349.80	21.40	-26.9	-27.7	15.9	0.00e+00	0	43	102	1048576	15	3964
2026-01-07 09:57:36.61	349.61	21.00	-27.0	-28.0	15.7	0.00e+00	0	44	102	1048576	15	4038
2026-01-07 09:57:39.62	349.42	20.60	-27.0	-28.0	15.6	0.00e+00	0	44	102	1048576	15	4054
2026-01-07 09:57:42.64	349.24	20.22	-27.1	-28.3	15.5	0.00e+00	0	43	102	1048576	15	4112
2026-01-07 09:57:45.67	349.06	19.83	-27.1	-28.3	15.5	0.00e+00	0	43	102	1048576	15	4113
2026-01-07 09:57:48.69	348.89	19.46	-27.2	-28.4	15.4	0.00e+00	0	43	102	1048576	15	4166
2026-01-07 09:57:51.70	348.72	19.09	-27.2	-28.6	15.3	0.00e+00	0	44	102	1048576	15	4209
2026-01-07 09:57:54.72	348.55	18.72	-27.3	-28.8	15.1	0.00e+00	0	44	102	1048576	15	4273
2026-01-07 09:57:57.75	348.39	18.36	-27.4	-28.9	15.1	0.00e+00	0	43	102	1048576	15	4284
2026-01-07 09:58:00.77	348.24	18.00	-27.3	-28.7	15.2	0.00e+00	0	43	102	1048576	15	4228
2026-01-07 09:58:03.79	348.08	17.65	-27.3	-28.8	15.1	0.00e+00	0	43	102	1048576	15	4279
2026-01-07 09:58:06.82	347.94	17.30	-27.4	-29.0	15.0	0.00e+00	0	43	102	1048576	15	4315
2026-01-07 09:58:09.84	347.79	16.96	-27.5	-29.3	14.8	0.00e+00	0	43	102	1048576	15	4417
2026-01-07 09:58:12.86	347.65	16.62	-27.7	-29.6	14.6	1.50e-06	0	44	102	1048576	15	4512
2026-01-07 09:58:15.89	347.51	16.29	-27.7	-29.6	14.6	0.00e+00	0	44	102	1048576	15	4510
2026-01-07 09:58:18.90	347.38	15.96	-27.8	-30.0	14.3	7.00e-07	0	44	102	1048576	15	4611
2026-01-07 09:58:21.92	347.24	15.64	-27.7	-29.7	14.5	7.00e-07	0	44	102	1048576	15	4532
2026-01-07 09:58:24.95	347.12	15.32	-27.7	-29.8	14.4	0.00e+00	0	44	102	1048576	15	4557
2026-01-07 09:58:27.97	346.99	15.00	-27.8	-29.9	14.3	7.00e-07	0	43	102	1048576	15	4590
2026-01-07 09:58:31.00	346.87	14.69	-27.8	-30.0	14.2	1.50e-06	0	44	102	1048576	15	4633
2026-01-07 09:58:34.01	346.75	14.38	-27.8	-29.9	14.3	7.00e-07	0	43	102	1048576	15	4602
2026-01-07 09:58:37.03	346.63	14.07	-27.8	-30.0	14.2	2.20e-06	0	44	102	1048576	15	4628
2026-01-07 09:58:40.05	346.51	13.77	-27.9	-30.1	14.1	7.00e-07	0	44	102	1048576	15	4668
2026-01-07 09:58:43.08	346.40	13.47	-28.1	-30.1	14.0	3.00e-06	0	44	102	1048576	16	4534
2026-01-07 09:58:46.10	346.29	13.18	-28.2	-30.3	13.9	3.80e-06	0	43	102	1048576	16	4601
2026-01-07 09:58:49.12	346.19	12.89	-28.1	-30.1	14.0	3.00e-06	0	44	102	1048576	16	4541
2026-01-07 09:58:52.14	346.08	12.60	-28.1	-30.0	14.0	3.00e-06	0	44	102	1048576	16	4519
2026-01-07 09:58:55.17	345.98	12.32	-28.2	-30.4	13.7	5.30e-06	0	44	102	1048576	16	4644
2026-01-07 09:58:58.18	345.88	12.04	-28.4	-30.9	13.5	6.10e-06	0	44	102	1048576	16	4783
2026-01-07 09:59:01.21	345.78	11.76	-28.2	-30.5	13.7	2.20e-06	0	44	102	1048576	16	4657
2026-01-07 09:59:04.23	345.68	11.48	-28.3	-30.6	13.6	8.30e-06	0	44	102	1048576	16	4698
2026-01-07 09:59:07.26	345.59	11.21	-28.3	-30.6	13.6	6.10e-06	0	44	102	1048576	16	4709
2026-01-07 09:59:10.28	345.49	10.94	-28.3	-30.7	13.5	1.06e-05	0	43	102	1048576	16	4728
2026-01-07 09:59:13.30	345.40	10.67	-28.4	-31.0	13.3	2.05e-05	0	44	102	1048576	16	4820
2026-01-07 09:59:16.32	345.32	10.41	-28.4	-30.9	13.3	2.05e-05	0	44	102	1048576	16	4809
2026-01-07 09:59:19.35	345.23	10.15	-28.4	-30.9	13.3	1.67e-05	0	43	102	1048576	16	4815
2026-01-07 09:59:22.36	345.14	9.89	-28.4	-31.0	13.2	1.90e-05	0	43	102	1048576	16	4849
2026-01-07 09:59:25.38	345.06	9.64	-28.4	-30.8	13.3	1.90e-05	0	43	102	1048576	16	4782
2026-01-07 09:59:28.40	344.98	9.38	-28.4	-31.0	13.2	2.74e-05	0	44	102	1048576	16	4836
2026-01-07 09:59:31.42	344.90	9.13	-28.4	-31.1	13.1	2.74e-05	0	44	102	1048576	16	4861
2026-01-07 09:59:34.43	344.82	8.89	-28.4	-30.6	13.1	1.98e-05	0	44	102	1048576	17	4603
2026-01-07 09:59:37.46	344.74	8.64	-28.5	-30.8	12.9	3.58e-05	0	44	102	1048576	17	4667
2026-01-07 09:59:40.48	344.67	8.40	-28.6	-31.0	12.8	5.41e-05	0	44	102	1048576	17	4749
2026-01-07 09:59:43.51	344.59	8.15	-28.6	-30.9	12.8	4.50e-05	0	44	102	1048576	17	4709
2026-01-07 09:59:46.52	344.52	7.92	-28.7	-31.2	12.6	7.01e-05	0	44	102	1048576	17	4798
2026-01-07 09:59:49.54	344.45	7.68	-28.6	-31.1	12.7	8.54e-05	0	44	102	1048576	17	4776
2026-01-07 09:59:52.56	344.38	7.45	-28.7	-31.3	12.5	9.76e-05	0	44	102	1048576	17	4830
2026-01-07 09:59:55.58	344.31	7.21	-28.9	-31.2	12.3	2.14e-04	0	44	102	1048576	18	4696
2026-01-07 09:59:58.61	344.24	6.98	-33.2	-44.9	3.8	1.49e+00	0	44	104	1048576	26	13958

#Closed at: 2026-01-07 09:59:58
#Recorded file [1 MB]: D:/data/31010_260107_125005.dat