passes_logs/2026/01/07/R2M6_AANII_01/R2M6_AANII_01__20260107_031149_FENGYUN_3E_rec.log

#Pass ID: 20260107_031149_FENGYUN 3E
#Satellite: FENGYUN 3E
#Configuration: FENGYUN 3E
#almurnet v.1.7.20240730
#Start time: 2026-01-07 03:17:28

#Version: 2.2.20231116
#Station: R2M6_AANII_01
#Location: 30.233357 lon 59.946436 lat
#TLE: 1 49008U 21062A   26006.26767912  .00000427  00000+0  22170-3 0  9993
#TLE: 2 49008  98.7475  11.4982 0001602 156.1158 204.0093 14.19885456233607

#Time	Az	El	Level	Level2	SNR	BER	BlckErr	Temp	State	Recorded	gain1	gain2
2026-01-07 03:17:28.30	96.62	28.02	-33.4	-44.8	3.8	8.45e-01	0	43	0	0	26	13385
2026-01-07 03:17:30.31	97.26	27.99	-33.9	-43.6	3.8	8.47e-01	0	43	104	0	27	11018
2026-01-07 03:17:32.32	97.91	27.95	-33.9	-43.7	3.8	8.45e-01	0	43	104	0	27	11083
2026-01-07 03:17:34.33	98.55	27.90	-33.9	-43.7	3.8	8.45e-01	0	44	104	0	27	11101
2026-01-07 03:17:36.34	99.19	27.86	-33.9	-43.7	3.8	8.46e-01	0	43	104	0	27	11090
2026-01-07 03:17:38.35	99.83	27.81	-33.9	-43.6	3.8	8.46e-01	0	44	104	0	27	11049
2026-01-07 03:17:40.36	100.47	27.75	-33.9	-43.6	3.8	8.47e-01	0	43	104	0	27	11045
2026-01-07 03:17:42.37	101.11	27.70	-33.9	-43.6	3.8	8.45e-01	0	43	104	0	27	11026
2026-01-07 03:17:44.37	101.74	27.64	-34.0	-43.7	3.8	8.46e-01	0	44	104	0	27	11099
2026-01-07 03:17:46.39	102.37	27.57	-33.9	-43.6	3.8	8.46e-01	0	44	104	0	27	11055
2026-01-07 03:17:48.41	103.00	27.50	-33.9	-43.2	3.8	8.47e-01	0	44	104	0	28	10468
2026-01-07 03:17:50.42	103.63	27.43	-33.8	-43.0	3.8	8.46e-01	0	44	104	0	28	10374
2026-01-07 03:17:52.45	104.26	27.35	-33.8	-42.9	3.8	8.46e-01	0	44	104	0	28	10265
2026-01-07 03:17:54.45	104.87	27.28	-33.7	-42.6	3.8	8.46e-01	0	44	104	0	28	10072
2026-01-07 03:17:56.47	105.49	27.19	-33.5	-42.4	3.8	8.45e-01	0	44	104	0	27	10008
2026-01-07 03:17:58.47	106.10	27.11	-33.5	-42.6	3.8	8.46e-01	0	44	104	0	27	10335
2026-01-07 03:18:00.49	106.72	27.02	-33.5	-42.7	3.8	8.46e-01	0	44	104	0	27	10438
2026-01-07 03:18:02.50	107.32	26.93	-33.4	-42.7	3.8	8.45e-01	0	44	104	0	27	10504
2026-01-07 03:18:04.50	107.93	26.83	-33.4	-42.5	3.8	8.47e-01	0	44	104	0	27	10209
2026-01-07 03:18:06.52	108.53	26.74	-33.4	-42.0	3.8	8.47e-01	0	44	104	0	27	9724
2026-01-07 03:18:08.52	109.12	26.64	-33.4	-42.6	3.8	8.44e-01	0	44	104	0	27	10329
2026-01-07 03:18:10.54	109.72	26.53	-33.4	-42.3	3.8	8.47e-01	0	44	104	0	27	10019
2026-01-07 03:18:12.55	110.31	26.43	-33.2	-40.5	3.8	8.45e-01	0	44	104	0	27	8346
2026-01-07 03:18:14.56	110.89	26.32	-32.8	-39.0	3.9	8.40e-01	0	44	104	0	26	7318
2026-01-07 03:18:16.58	111.48	26.21	-32.7	-38.7	4.0	8.41e-01	0	44	104	0	26	7118
2026-01-07 03:18:18.59	112.05	26.09	-31.8	-35.6	4.5	8.09e-01	0	44	104	0	24	5572
2026-01-07 03:18:20.60	112.63	25.98	-27.6	-28.1	13.2	1.35e-04	0	44	102	1048576	16	3832
2026-01-07 03:18:22.61	113.20	25.86	-25.2	-25.3	16.0	0.00e+00	0	44	102	1048576	11	3649
2026-01-07 03:18:24.63	113.76	25.74	-25.2	-25.4	16.0	0.00e+00	0	44	102	1048576	11	3669
2026-01-07 03:18:26.64	114.32	25.61	-25.3	-25.5	15.9	0.00e+00	0	44	102	1048576	11	3705
2026-01-07 03:18:28.65	114.88	25.49	-25.1	-25.1	16.1	0.00e+00	0	44	102	1048576	11	3620
2026-01-07 03:18:30.66	115.43	25.36	-25.7	-26.5	15.4	0.00e+00	0	44	102	1048576	11	3940
2026-01-07 03:18:32.68	115.98	25.23	-24.8	-25.1	16.3	0.00e+00	0	44	102	1048576	10	3711
2026-01-07 03:18:34.69	116.53	25.10	-23.7	-23.8	17.5	0.00e+00	0	44	102	1048576	8	3614
2026-01-07 03:18:36.71	117.07	24.96	-23.6	-23.5	17.7	0.00e+00	0	44	102	1048576	8	3553
2026-01-07 03:18:38.73	117.60	24.82	-23.9	-24.1	17.4	0.00e+00	0	44	102	1048576	8	3697
2026-01-07 03:18:40.75	118.14	24.69	-24.2	-24.8	17.0	0.00e+00	0	44	102	1048576	8	3843
2026-01-07 03:18:42.76	118.66	24.55	-23.9	-24.2	17.3	0.00e+00	0	44	102	1048576	8	3703
2026-01-07 03:18:44.77	119.18	24.40	-23.7	-23.7	17.6	0.00e+00	0	44	102	1048576	8	3597
2026-01-07 03:18:46.76	119.69	24.26	-23.9	-24.1	17.4	0.00e+00	0	44	102	1048576	8	3682
2026-01-07 03:18:48.78	120.21	24.12	-23.4	-23.1	17.9	0.00e+00	0	44	102	1048576	8	3471
2026-01-07 03:18:50.80	120.72	23.97	-23.5	-23.2	17.8	0.00e+00	0	44	102	1048576	8	3492
2026-01-07 03:18:52.82	121.22	23.82	-23.4	-23.5	17.9	0.00e+00	0	44	102	1048576	7	3653
2026-01-07 03:18:54.82	121.72	23.67	-23.4	-23.6	17.9	0.00e+00	0	44	102	1048576	7	3676
2026-01-07 03:18:56.84	122.21	23.52	-23.4	-23.6	17.9	0.00e+00	0	44	102	1048576	7	3665
2026-01-07 03:18:58.84	122.70	23.37	-23.4	-23.6	17.9	0.00e+00	0	44	102	1048576	7	3672
2026-01-07 03:19:00.86	123.18	23.22	-23.4	-23.6	17.9	0.00e+00	0	44	102	1048576	7	3682
2026-01-07 03:19:02.87	123.66	23.06	-23.5	-23.8	17.8	0.00e+00	0	44	102	1048576	7	3714
2026-01-07 03:19:04.88	124.14	22.91	-23.5	-23.8	17.7	0.00e+00	0	44	102	1048576	7	3730
2026-01-07 03:19:06.90	124.61	22.75	-23.8	-24.4	17.4	0.00e+00	0	44	102	1048576	7	3857
2026-01-07 03:19:08.91	125.07	22.59	-23.9	-24.5	17.4	0.00e+00	0	44	102	1048576	7	3889
2026-01-07 03:19:10.92	125.53	22.44	-23.9	-24.5	17.3	0.00e+00	0	44	102	1048576	7	3881
2026-01-07 03:19:12.94	125.99	22.28	-23.9	-24.6	17.3	0.00e+00	0	44	102	1048576	7	3915
2026-01-07 03:19:14.94	126.44	22.12	-24.4	-25.3	16.7	0.00e+00	0	44	102	1048576	8	3957
2026-01-07 03:19:16.95	126.89	21.96	-23.8	-24.0	17.4	0.00e+00	0	44	102	1048576	8	3667
2026-01-07 03:19:18.96	127.33	21.80	-24.0	-24.2	17.3	0.00e+00	0	44	102	1048576	8	3717
2026-01-07 03:19:20.97	127.77	21.63	-24.3	-24.9	16.9	0.00e+00	0	44	102	1048576	8	3877
2026-01-07 03:19:22.99	128.21	21.47	-24.3	-24.8	16.3	0.00e+00	0	44	102	1048576	8	3856
2026-01-07 03:19:24.99	128.63	21.31	-24.4	-25.2	16.8	0.00e+00	0	44	102	1048576	8	3941
2026-01-07 03:19:27.01	129.06	21.14	-24.2	-24.8	17.0	1.64e-04	0	44	102	1048576	8	3845
2026-01-07 03:19:29.02	129.48	20.98	-23.9	-24.2	17.3	5.49e-05	0	44	102	1048576	8	3699
2026-01-07 03:19:31.04	129.90	20.82	-23.9	-24.2	17.3	0.00e+00	0	44	102	1048576	8	3713
2026-01-07 03:19:33.05	130.31	20.65	-24.2	-24.8	16.9	0.00e+00	0	44	102	1048576	8	3859
2026-01-07 03:19:35.05	130.71	20.49	-24.0	-24.4	17.2	5.37e-05	0	44	102	1048576	8	3747
2026-01-07 03:19:37.06	131.12	20.32	-24.3	-25.1	16.8	0.00e+00	0	44	102	1048576	8	3917
2026-01-07 03:19:39.07	131.52	20.15	-24.4	-25.2	16.7	4.46e-05	0	44	102	1048576	8	3963
2026-01-07 03:19:41.08	131.91	19.99	-24.5	-25.4	16.6	1.29e-04	0	44	102	1048576	8	3993
2026-01-07 03:19:43.10	132.30	19.82	-24.4	-25.2	16.7	0.00e+00	0	44	102	1048576	8	3938
2026-01-07 03:19:45.10	132.69	19.66	-24.2	-24.7	16.9	0.00e+00	0	44	102	1048576	8	3838
2026-01-07 03:19:47.11	133.07	19.49	-24.1	-24.6	17.0	9.49e-05	0	44	102	1048576	8	3802
2026-01-07 03:19:49.12	133.45	19.32	-24.1	-24.5	17.0	0.00e+00	0	44	102	1048576	8	3774
2026-01-07 03:19:51.13	133.83	19.16	-24.1	-24.5	16.9	1.89e-04	0	44	102	1048576	8	3794
2026-01-07 03:19:53.14	134.20	18.99	-24.3	-24.9	16.7	0.00e+00	0	44	102	1048576	8	3879
2026-01-07 03:19:55.16	134.56	18.82	-24.6	-25.1	16.3	0.00e+00	0	44	102	1048576	9	3820
2026-01-07 03:19:57.17	134.93	18.65	-24.7	-25.4	16.2	0.00e+00	0	44	102	1048576	9	3882
2026-01-07 03:19:59.19	135.29	18.49	-25.0	-26.0	15.9	1.89e-04	0	44	102	1048576	9	4032
2026-01-07 03:20:01.20	135.64	18.32	-25.0	-25.4	15.9	0.00e+00	0	44	102	1048576	10	3791
2026-01-07 03:20:03.23	136.00	18.15	-24.7	-24.8	16.2	0.00e+00	0	44	102	1048576	10	3642
2026-01-07 03:20:05.24	136.34	17.98	-24.6	-24.7	16.3	0.00e+00	0	44	102	1048576	10	3617
2026-01-07 03:20:07.25	136.69	17.82	-24.7	-24.8	16.2	0.00e+00	0	44	102	1048576	10	3645
2026-01-07 03:20:09.27	137.03	17.65	-24.7	-25.4	16.1	0.00e+00	0	44	102	1048576	9	3884
2026-01-07 03:20:11.28	137.37	17.48	-24.5	-25.0	16.3	0.00e+00	0	44	102	1048576	9	3806
2026-01-07 03:20:13.30	137.70	17.32	-24.8	-25.7	15.9	0.00e+00	0	44	102	1048576	9	3963
2026-01-07 03:20:15.31	138.03	17.15	-25.0	-26.1	15.7	0.00e+00	0	44	102	1048576	9	4074
2026-01-07 03:20:17.32	138.36	16.99	-25.2	-26.0	15.5	0.00e+00	0	44	102	1048576	10	3950
2026-01-07 03:20:19.34	138.68	16.82	-25.3	-26.2	15.4	1.10e-06	0	44	102	1048576	10	3980
2026-01-07 03:20:21.35	139.00	16.65	-25.2	-26.0	15.5	0.00e+00	0	44	102	1048576	10	3936
2026-01-07 03:20:23.37	139.32	16.49	-25.1	-25.7	15.6	0.00e+00	0	44	102	1048576	10	3877
2026-01-07 03:20:25.38	139.63	16.32	-25.0	-25.5	15.7	0.00e+00	0	44	102	1048576	10	3828
2026-01-07 03:20:27.39	139.94	16.16	-24.8	-25.2	15.9	0.00e+00	0	44	102	1048576	10	3745
2026-01-07 03:20:29.40	140.24	16.00	-24.9	-25.3	15.8	0.00e+00	0	44	102	1048576	10	3763
2026-01-07 03:20:31.42	140.55	15.83	-24.9	-25.3	15.7	0.00e+00	0	44	102	1048576	10	3768
2026-01-07 03:20:33.43	140.85	15.67	-25.0	-25.5	15.6	0.00e+00	0	44	102	1048576	10	3823
2026-01-07 03:20:35.45	141.15	15.51	-25.1	-25.8	15.4	0.00e+00	0	44	102	1048576	10	3896
2026-01-07 03:20:37.46	141.44	15.34	-25.4	-26.5	15.0	0.00e+00	0	44	102	1048576	10	4056
2026-01-07 03:20:39.47	141.73	15.18	-25.3	-26.1	15.2	0.00e+00	0	44	102	1048576	10	3968
2026-01-07 03:20:41.48	142.02	15.02	-25.4	-26.5	15.0	0.00e+00	0	44	102	1048576	10	4066
2026-01-07 03:20:43.49	142.30	14.86	-25.4	-26.4	15.0	0.00e+00	0	44	102	1048576	10	4040
2026-01-07 03:20:45.49	142.58	14.70	-25.4	-26.4	15.0	0.00e+00	0	44	102	1048576	10	4045
2026-01-07 03:20:47.51	142.86	14.54	-25.3	-26.3	14.9	0.00e+00	0	44	102	1048576	10	4012
2026-01-07 03:20:49.53	143.14	14.38	-25.3	-26.2	15.1	0.00e+00	0	44	102	1048576	10	4004
2026-01-07 03:20:51.55	143.41	14.22	-25.2	-26.1	15.2	0.00e+00	0	44	102	1048576	10	3969
2026-01-07 03:20:53.57	143.68	14.06	-25.2	-26.0	15.2	0.00e+00	0	44	102	1048576	10	3945
2026-01-07 03:20:55.58	143.95	13.90	-25.3	-26.2	15.1	1.22e-03	0	44	102	1048576	10	4002
2026-01-07 03:20:57.59	144.21	13.74	-25.2	-25.9	15.3	0.00e+00	0	44	102	1048576	10	3925
2026-01-07 03:20:59.61	144.47	13.58	-25.2	-25.9	15.3	1.26e-03	0	44	102	1048576	10	3926
2026-01-07 03:21:01.62	144.73	13.43	-25.4	-26.4	15.0	1.33e-03	0	44	102	1048576	10	4036
2026-01-07 03:21:03.64	144.99	13.27	-25.5	-26.6	14.9	0.00e+00	0	44	102	1048576	10	4102
2026-01-07 03:21:05.66	145.24	13.11	-25.6	-26.9	14.7	1.56e-03	0	44	102	1048576	10	4164
2026-01-07 03:21:07.67	145.49	12.96	-25.7	-26.5	14.6	1.63e-03	0	44	102	1048576	11	3962
2026-01-07 03:21:09.68	145.74	12.80	-25.7	-26.7	14.5	2.86e-05	0	44	102	1048576	11	4012
2026-01-07 03:21:11.69	145.99	12.65	-25.5	-26.3	14.7	0.00e+00	0	44	102	1048576	11	3918
2026-01-07 03:21:13.70	146.23	12.49	-25.6	-26.3	14.7	0.00e+00	0	44	102	1048576	11	3932
2026-01-07 03:21:15.71	146.47	12.34	-25.7	-26.6	14.5	1.10e-06	0	44	102	1048576	11	3994
2026-01-07 03:21:17.73	146.71	12.19	-25.7	-26.7	14.5	1.60e-03	0	44	102	1048576	11	4031
2026-01-07 03:21:19.75	146.95	12.03	-25.9	-27.0	14.3	1.10e-06	0	44	102	1048576	11	4111
2026-01-07 03:21:21.75	147.18	11.88	-25.9	-27.1	14.2	1.10e-06	0	44	102	1048576	11	4136
2026-01-07 03:21:23.76	147.41	11.73	-26.0	-27.3	14.1	0.00e+00	0	44	102	1048576	11	4184
2026-01-07 03:21:25.78	147.64	11.58	-26.0	-26.7	14.1	2.20e-06	0	44	102	1048576	12	3930
2026-01-07 03:21:27.79	147.87	11.43	-26.0	-26.7	14.0	1.10e-06	0	44	102	1048576	12	3930
2026-01-07 03:21:29.80	148.09	11.28	-26.0	-27.3	14.1	2.20e-06	0	44	102	1048576	11	4177
2026-01-07 03:21:31.81	148.32	11.13	-26.1	-27.0	13.9	2.20e-06	0	44	102	1048576	12	3993
2026-01-07 03:21:33.81	148.54	10.98	-26.2	-27.3	13.7	6.80e-06	0	44	102	1048576	12	4079
2026-01-07 03:21:35.81	148.75	10.83	-26.2	-27.2	13.7	6.80e-06	0	44	102	1048576	12	4068
2026-01-07 03:21:37.83	148.97	10.69	-26.3	-27.5	13.6	8.00e-06	0	44	102	1048576	12	4139
2026-01-07 03:21:39.84	149.18	10.54	-26.3	-27.4	13.6	9.10e-06	0	44	102	1048576	12	4114
2026-01-07 03:21:41.85	149.40	10.39	-26.0	-27.2	14.1	0.00e+00	0	44	102	1048576	11	4157
2026-01-07 03:21:43.86	149.61	10.25	-26.5	-27.9	13.3	8.00e-06	0	44	102	1048576	12	4249
2026-01-07 03:21:45.87	149.81	10.10	-26.2	-27.4	13.6	9.10e-06	0	44	102	1048576	12	4110
2026-01-07 03:21:47.87	150.02	9.96	-26.3	-27.6	13.5	1.25e-05	0	44	102	1048576	12	4175
2026-01-07 03:21:49.89	150.22	9.81	-26.4	-27.9	13.3	1.71e-05	0	44	102	1048576	12	4256
2026-01-07 03:21:51.90	150.43	9.67	-26.4	-27.8	13.2	2.74e-05	0	44	102	1048576	12	4236
2026-01-07 03:21:53.92	150.63	9.52	-26.5	-28.1	13.1	2.40e-05	0	44	102	1048576	12	4320
2026-01-07 03:21:55.93	150.83	9.38	-26.7	-28.0	12.9	3.31e-05	0	44	102	1048576	13	4172
2026-01-07 03:21:57.94	151.02	9.24	-26.7	-28.0	12.7	5.72e-05	0	44	102	1048576	13	4200
2026-01-07 03:21:59.95	151.22	9.10	-26.4	-27.9	13.2	2.28e-05	0	44	102	1048576	12	4258
2026-01-07 03:22:01.97	151.41	8.95	-26.6	-28.4	12.8	2.40e-05	0	44	102	1048576	12	4419
2026-01-07 03:22:03.98	151.60	8.81	-26.6	-27.9	12.8	5.37e-05	0	44	102	1048576	13	4168
2026-01-07 03:22:05.99	151.79	8.67	-26.6	-27.9	12.8	3.66e-05	0	44	102	1048576	13	4169
2026-01-07 03:22:08.01	151.98	8.53	-26.6	-27.9	12.8	7.43e-05	0	44	102	1048576	13	4164
2026-01-07 03:22:10.02	152.16	8.39	-26.0	-27.4	12.1	1.02e-04	0	44	102	1048576	13	4257
2026-01-07 03:22:12.03	152.35	8.25	-26.5	-28.1	12.9	3.08e-05	0	44	102	1048576	12	4332
2026-01-07 03:22:14.05	152.53	8.12	-26.5	-28.2	12.9	2.30e-03	0	44	102	1048576	12	4367
2026-01-07 03:22:16.05	152.71	7.98	-26.5	-28.2	12.8	2.31e-03	0	44	102	1048576	12	4400
2026-01-07 03:22:18.07	152.89	7.84	-26.6	-28.5	12.5	7.20e-05	0	44	102	1048576	12	4486
2026-01-07 03:22:20.08	153.07	7.70	-26.5	-28.4	12.6	9.72e-05	0	44	102	1048576	12	4466
2026-01-07 03:22:22.10	153.25	7.57	-26.6	-28.1	12.5	2.34e-03	0	44	102	1048576	13	4250
2026-01-07 03:22:24.12	153.42	7.43	-26.7	-28.2	12.4	5.89e-04	0	44	102	1048576	13	4278
2026-01-07 03:22:26.13	153.59	7.30	-26.8	-28.3	12.4	2.53e-03	0	44	102	1048576	13	4293
2026-01-07 03:22:28.15	153.77	7.16	-26.8	-28.3	12.4	2.22e-03	0	44	102	1048576	13	4300
2026-01-07 03:22:30.17	153.94	7.03	-32.4	-42.2	3.8	8.46e-01	0	44	104	1048576	24	11142
2026-01-07 03:22:32.18	154.10	6.89	-33.4	-43.1	3.8	8.45e-01	0	44	104	1048576	26	11071

#Closed at: 2026-01-07 03:22:32
#Recorded file [1 MB]: D:/data/31010_260107_061819.dat