passes_logs/2026/01/07/R2M6_AANII_01/R2M6_AANII_01__20260107_224641_NOAA_20_JPSS-1_rec.log

#Pass ID: 20260107_224641_NOAA 20 (JPSS-1)
#Satellite: NOAA 20 (JPSS-1)
#Configuration: NOAA 20
#almurnet v.1.7.20240730
#Start time: 2026-01-07 22:46:41

#Version: 2.2.20231116
#Station: R2M6_AANII_01
#Location: 30.233357 lon 59.946436 lat
#TLE: 1 43013U 17073A   26006.30790171  .00000126  00000+0  80695-4 0  9991
#TLE: 2 43013  98.7629 307.3394 0001808  51.8724 308.2615 14.19533762421505

#Time	Az	El	Level	Level2	SNR	BER	BlckErr	Temp	State	Recorded	gain1	gain2
2026-01-07 22:46:41.41	29.47	6.99	-31.1	-36.8	5.2	1.20e+00	0	41	0	0	22	6953
2026-01-07 22:46:44.42	29.75	7.18	-31.6	-38.4	7.0	1.42e-01	0	41	0	1048576	23	7952
2026-01-07 22:46:47.44	30.03	7.38	-31.4	-38.2	7.6	8.78e-02	0	41	0	7340032	22	7828
2026-01-07 22:46:50.44	30.31	7.57	-31.1	-36.7	8.8	4.56e-02	0	41	0	12582912	22	6865
2026-01-07 22:46:53.46	30.60	7.76	-30.9	-36.3	9.5	1.37e-02	0	41	0	18874368	21	6733
2026-01-07 22:46:56.48	30.89	7.96	-30.4	-34.9	10.9	3.47e-03	0	42	102	23068672	20	6054
2026-01-07 22:46:59.49	31.19	8.15	-30.3	-34.8	11.1	2.31e-03	0	42	102	23068672	20	6017
2026-01-07 22:47:02.51	31.48	8.35	-30.4	-35.0	11.0	1.83e-03	0	42	102	23068672	20	6119
2026-01-07 22:47:05.53	31.79	8.55	-30.7	-35.4	10.3	7.19e-03	0	42	102	23068672	21	6175
2026-01-07 22:47:08.55	32.09	8.75	-30.4	-34.9	11.1	2.45e-03	0	42	102	23068672	20	6032
2026-01-07 22:47:11.58	32.41	8.95	-30.6	-35.1	10.6	4.25e-03	0	42	102	23068672	21	6044
2026-01-07 22:47:14.60	32.72	9.15	-30.4	-35.0	11.1	2.64e-03	0	42	102	23068672	20	6092
2026-01-07 22:47:17.62	33.04	9.35	-30.8	-35.6	10.3	6.82e-03	0	42	102	23068672	21	6267
2026-01-07 22:47:20.63	33.36	9.55	-30.8	-35.7	10.1	7.59e-03	0	42	102	23068672	21	6353
2026-01-07 22:47:23.66	33.69	9.75	-30.6	-35.1	10.7	4.32e-03	0	42	102	23068672	21	6014
2026-01-07 22:47:26.68	34.02	9.96	-30.5	-34.7	11.1	3.49e-03	0	42	102	23068672	21	5794
2026-01-07 22:47:29.69	34.36	10.16	-30.2	-34.3	11.8	8.98e-04	0	42	102	23068672	20	5717
2026-01-07 22:47:32.71	34.70	10.37	-30.2	-34.2	11.8	9.86e-04	0	43	102	23068672	20	5676
2026-01-07 22:47:35.72	35.05	10.57	-30.1	-33.9	12.1	7.91e-04	0	43	102	23068672	20	5539
2026-01-07 22:47:38.74	35.40	10.78	-30.1	-33.9	12.0	5.84e-04	0	43	102	23068672	20	5571
2026-01-07 22:47:41.76	35.75	10.99	-29.9	-33.7	12.7	9.00e-05	0	43	102	23068672	19	5541
2026-01-07 22:47:44.77	36.11	11.20	-29.9	-33.1	12.7	7.93e-05	0	43	102	23068672	20	5210
2026-01-07 22:47:47.79	36.48	11.41	-29.9	-33.1	12.7	7.01e-05	0	43	102	23068672	20	5215
2026-01-07 22:47:50.80	36.85	11.62	-29.8	-33.2	13.0	1.65e-04	0	43	102	23068672	19	5369
2026-01-07 22:47:53.82	37.22	11.83	-29.9	-33.7	12.7	2.48e-04	0	43	102	23068672	19	5532
2026-01-07 22:47:56.85	37.60	12.04	-30.0	-33.4	12.5	2.65e-04	0	43	102	23068672	20	5336
2026-01-07 22:47:59.85	37.99	12.25	-29.9	-33.1	12.7	8.39e-05	0	43	102	23068672	20	5223
2026-01-07 22:48:02.86	38.38	12.47	-29.9	-33.2	12.7	4.42e-05	0	43	102	23068672	20	5248
2026-01-07 22:48:05.88	38.77	12.68	-29.9	-33.2	12.7	8.85e-05	0	43	102	23068672	20	5233
2026-01-07 22:48:08.90	39.18	12.90	-29.7	-32.5	13.2	1.98e-05	0	43	102	23068672	20	4959
2026-01-07 22:48:11.92	39.58	13.11	-29.7	-32.4	13.3	2.21e-05	0	43	102	23068672	20	4924
2026-01-07 22:48:14.93	40.00	13.33	-29.7	-32.4	13.3	1.90e-05	0	43	102	23068672	20	4945
2026-01-07 22:48:17.95	40.42	13.55	-29.9	-32.9	13.0	4.80e-05	0	43	102	23068672	20	5133
2026-01-07 22:48:20.98	40.84	13.76	-29.9	-32.9	13.0	5.03e-05	0	43	102	23068672	20	5129
2026-01-07 22:48:24.00	41.28	13.98	-29.8	-32.7	13.2	1.17e-04	0	43	102	23068672	20	5023
2026-01-07 22:48:27.01	41.71	14.20	-29.7	-32.9	13.5	1.07e-04	0	43	102	23068672	19	5189
2026-01-07 22:48:30.03	42.16	14.42	-29.7	-33.0	13.4	1.44e-05	0	43	102	23068672	19	5247
2026-01-07 22:48:33.06	42.61	14.64	-29.8	-33.1	13.4	1.75e-05	0	43	102	23068672	19	5265
2026-01-07 22:48:36.08	43.07	14.86	-29.6	-32.6	13.7	6.10e-06	0	43	102	23068672	19	5097
2026-01-07 22:48:39.10	43.53	15.08	-29.6	-32.6	13.7	4.50e-06	0	43	102	23068672	19	5075
2026-01-07 22:48:42.12	44.00	15.30	-29.9	-33.4	13.2	1.83e-05	0	43	102	23068672	19	5379
2026-01-07 22:48:45.14	44.48	15.52	-29.8	-33.1	13.4	1.22e-05	0	43	102	23068672	19	5254
2026-01-07 22:48:48.16	44.96	15.74	-29.9	-33.3	13.3	6.80e-06	0	43	102	23068672	19	5341
2026-01-07 22:48:51.17	45.45	15.96	-29.7	-32.5	13.4	1.06e-05	0	43	102	23068672	20	4936
2026-01-07 22:48:54.19	45.95	16.18	-29.7	-32.3	13.6	1.37e-05	0	43	102	23068672	20	4865
2026-01-07 22:48:57.21	46.46	16.40	-29.7	-32.2	13.7	5.30e-06	0	43	102	23068672	20	4820
2026-01-07 22:49:00.24	46.97	16.62	-29.8	-33.0	13.6	7.60e-06	0	43	102	23068672	19	5196
2026-01-07 22:49:03.25	47.49	16.84	-29.8	-33.1	13.5	6.80e-06	0	43	102	23068672	19	5265
2026-01-07 22:49:06.27	48.02	17.06	-29.7	-32.6	13.9	4.50e-06	0	43	102	23068672	19	5067
2026-01-07 22:49:09.29	48.55	17.28	-29.5	-32.3	14.1	7.00e-07	0	43	102	23068672	19	4933
2026-01-07 22:49:12.31	49.10	17.50	-29.5	-32.3	14.1	3.80e-06	0	43	102	23068672	19	4938
2026-01-07 22:49:15.33	49.65	17.72	-29.5	-32.3	14.1	3.00e-06	0	43	102	23068672	19	4944
2026-01-07 22:49:18.35	50.21	17.94	-29.5	-32.3	14.1	3.00e-06	0	43	102	23068672	19	4955
2026-01-07 22:49:21.38	50.77	18.15	-29.2	-31.5	14.6	0.00e+00	0	43	102	23068672	19	4673
2026-01-07 22:49:24.40	51.35	18.37	-29.4	-31.8	14.4	0.00e+00	0	44	102	23068672	19	4786
2026-01-07 22:49:27.43	51.93	18.59	-29.2	-31.4	14.7	0.00e+00	0	43	102	23068672	19	4654
2026-01-07 22:49:30.45	52.52	18.80	-29.3	-31.6	14.6	7.00e-07	0	43	102	23068672	19	4689
2026-01-07 22:49:33.46	53.12	19.02	-29.2	-31.9	14.7	7.00e-07	0	43	102	23068672	18	4910
2026-01-07 22:49:36.47	53.73	19.23	-29.3	-32.1	14.6	0.00e+00	0	43	102	23068672	18	4999
2026-01-07 22:49:39.50	54.34	19.44	-29.5	-32.1	14.3	7.00e-07	0	43	102	23068672	19	4862
2026-01-07 22:49:42.51	54.96	19.65	-29.4	-31.8	14.5	7.00e-07	0	43	102	23068672	19	4781
2026-01-07 22:49:45.53	55.60	19.86	-29.3	-31.7	14.5	0.00e+00	0	43	102	23068672	19	4732
2026-01-07 22:49:48.56	56.24	20.06	-29.4	-32.0	14.4	7.00e-07	0	43	102	23068672	19	4832
2026-01-07 22:49:51.57	56.89	20.27	-29.7	-32.8	13.9	3.80e-06	0	43	102	23068672	19	5110
2026-01-07 22:49:54.59	57.54	20.47	-29.9	-33.4	13.5	9.10e-06	0	43	102	23068672	19	5331
2026-01-07 22:49:57.61	58.21	20.67	-29.9	-33.1	13.7	6.10e-06	0	43	102	23068672	19	5236
2026-01-07 22:50:00.60	58.88	20.87	-29.9	-32.9	13.4	1.14e-05	0	43	102	23068672	20	5057
2026-01-07 22:50:03.62	59.56	21.06	-30.2	-33.7	12.9	4.19e-05	0	43	102	23068672	20	5374
2026-01-07 22:50:06.64	60.25	21.26	-30.3	-33.9	12.8	6.10e-05	0	43	102	23068672	20	5443
2026-01-07 22:50:09.67	60.95	21.45	-29.9	-32.9	13.5	1.44e-05	0	43	102	23068672	20	5039
2026-01-07 22:50:12.69	61.66	21.63	-29.9	-32.7	13.6	4.50e-06	0	43	102	23068672	20	4974
2026-01-07 22:50:15.71	62.38	21.82	-29.9	-32.7	13.6	6.10e-06	0	43	102	23068672	20	4987
2026-01-07 22:50:18.73	63.10	22.00	-29.8	-32.4	13.8	7.60e-06	0	43	102	23068672	20	4857
2026-01-07 22:50:21.74	63.83	22.18	-29.7	-32.3	13.8	4.50e-06	0	43	102	23068672	20	4839
2026-01-07 22:50:24.76	64.57	22.35	-29.8	-32.4	13.8	6.10e-06	0	43	102	23068672	20	4862
2026-01-07 22:50:27.78	65.32	22.52	-30.0	-33.0	13.4	5.18e-05	0	43	102	23068672	20	5079
2026-01-07 22:50:30.78	66.08	22.69	-30.2	-33.7	12.9	5.56e-05	0	43	102	23068672	20	5367
2026-01-07 22:50:33.80	66.84	22.85	-30.2	-33.7	12.9	3.58e-05	0	43	102	23068672	20	5347
2026-01-07 22:50:36.83	67.62	23.01	-30.2	-33.5	13.1	4.65e-05	0	44	102	23068672	20	5267
2026-01-07 22:50:39.85	68.40	23.16	-30.2	-33.4	13.1	4.88e-05	0	43	102	23068672	20	5249
2026-01-07 22:50:42.86	69.19	23.31	-30.0	-33.1	13.4	1.29e-05	0	43	102	23068672	20	5123
2026-01-07 22:50:45.88	69.98	23.46	-30.2	-33.6	13.0	2.36e-05	0	43	102	23068672	20	5302
2026-01-07 22:50:48.91	70.79	23.60	-30.0	-33.0	13.4	1.29e-05	0	43	102	23068672	20	5066
2026-01-07 22:50:51.92	71.59	23.73	-30.2	-33.6	13.1	2.51e-05	0	43	102	23068672	20	5318
2026-01-07 22:50:54.94	72.41	23.86	-30.3	-33.7	12.9	1.17e-04	0	43	102	23068672	20	5372
2026-01-07 22:50:57.96	73.24	23.99	-30.5	-34.0	12.5	1.06e-04	0	43	102	23068672	21	5356
2026-01-07 22:51:00.98	74.06	24.11	-30.4	-33.7	12.7	1.36e-04	0	43	102	23068672	21	5233
2026-01-07 22:51:04.00	74.90	24.22	-30.3	-33.4	12.9	9.15e-05	0	43	102	23068672	21	5113
2026-01-07 22:51:07.02	75.74	24.33	-30.4	-33.6	12.8	1.90e-04	0	44	102	23068672	21	5197
2026-01-07 22:51:10.04	76.59	24.43	-30.5	-33.9	12.6	1.20e-04	0	44	102	23068672	21	5333
2026-01-07 22:51:13.06	77.44	24.52	-30.3	-33.3	13.0	4.27e-05	0	44	102	23068672	21	5074
2026-01-07 22:51:16.09	78.30	24.61	-29.8	-32.4	13.9	2.59e-05	0	43	102	23068672	20	4864
2026-01-07 22:51:19.12	79.17	24.69	-29.8	-32.3	14.0	2.20e-06	0	43	102	23068672	20	4806
2026-01-07 22:51:22.13	80.03	24.77	-29.7	-32.2	14.0	1.06e-05	0	43	102	23068672	20	4793
2026-01-07 22:51:25.15	80.90	24.84	-29.8	-32.3	14.0	5.30e-06	0	43	102	23068672	20	4809
2026-01-07 22:51:28.17	81.78	24.90	-29.9	-32.8	13.7	3.00e-06	0	43	102	23068672	20	5000
2026-01-07 22:51:31.19	82.65	24.96	-30.5	-33.9	12.6	7.01e-05	0	43	102	23068672	21	5317
2026-01-07 22:51:34.21	83.53	25.01	-30.3	-33.4	12.9	5.64e-05	0	44	102	23068672	21	5123
2026-01-07 22:51:37.22	84.41	25.05	-30.0	-32.5	13.5	9.10e-06	0	44	102	23068672	21	4803
2026-01-07 22:51:40.25	85.30	25.08	-30.0	-32.4	13.6	9.90e-06	0	44	102	23068672	21	4748
2026-01-07 22:51:43.26	86.19	25.11	-29.9	-32.1	13.8	9.10e-06	0	44	102	23068672	21	4660
2026-01-07 22:51:46.28	87.07	25.13	-29.6	-31.9	14.2	7.00e-07	0	43	102	23068672	20	4680
2026-01-07 22:51:49.30	87.96	25.15	-29.4	-31.4	14.5	0.00e+00	0	44	102	23068672	20	4516
2026-01-07 22:51:52.32	88.85	25.15	-29.6	-32.0	14.1	0.00e+00	0	44	102	23068672	20	4733
2026-01-07 22:51:55.33	89.74	25.15	-29.9	-32.6	13.8	5.30e-06	0	43	102	23068672	20	4940
2026-01-07 22:51:58.36	90.63	25.15	-29.6	-32.0	14.2	7.00e-07	0	44	102	23068672	20	4710
2026-01-07 22:52:01.38	91.52	25.13	-29.6	-31.9	14.2	7.00e-07	0	43	102	23068672	20	4701
2026-01-07 22:52:04.39	92.41	25.11	-30.2	-33.6	13.1	2.36e-05	0	44	102	23068672	20	5309
2026-01-07 22:52:07.41	93.30	25.08	-30.3	-33.9	12.9	5.49e-05	0	44	102	23068672	20	5422
2026-01-07 22:52:10.44	94.18	25.04	-30.2	-33.5	13.2	2.67e-05	0	44	102	23068672	20	5280
2026-01-07 22:52:13.46	95.07	25.00	-30.0	-33.0	13.5	1.14e-05	0	44	102	23068672	20	5073
2026-01-07 22:52:16.48	95.95	24.95	-30.3	-33.7	13.0	2.05e-05	0	44	102	23068672	20	5367
2026-01-07 22:52:19.50	96.83	24.89	-30.3	-33.5	12.8	1.10e-04	0	44	102	23068672	21	5149
2026-01-07 22:52:22.52	97.70	24.83	-30.1	-32.7	13.3	3.81e-05	0	44	102	23068672	21	4859
2026-01-07 22:52:25.55	98.58	24.76	-29.9	-32.7	13.7	3.80e-06	0	44	102	23068672	20	4976
2026-01-07 22:52:28.58	99.45	24.68	-29.9	-32.6	13.7	1.90e-05	0	44	102	23068672	20	4949
2026-01-07 22:52:31.59	100.31	24.60	-29.6	-31.9	14.2	4.50e-06	0	44	102	23068672	20	4711
2026-01-07 22:52:34.62	101.17	24.51	-29.8	-32.6	13.7	1.29e-05	0	44	102	23068672	20	4932
2026-01-07 22:52:37.64	102.02	24.41	-29.6	-31.8	14.2	6.80e-06	0	44	102	23068672	20	4678
2026-01-07 22:52:40.67	102.87	24.31	-29.4	-31.5	14.4	1.50e-06	0	44	102	23068672	20	4557
2026-01-07 22:52:43.70	103.72	24.20	-29.1	-31.2	15.0	1.50e-06	0	44	102	23068672	19	4567
2026-01-07 22:52:46.71	104.55	24.09	-29.4	-31.8	14.6	0.00e+00	0	44	102	23068672	19	4771
2026-01-07 22:52:49.73	105.38	23.97	-29.4	-31.9	14.5	7.00e-07	0	44	102	23068672	19	4783
2026-01-07 22:52:52.75	106.21	23.84	-29.3	-31.5	14.7	0.00e+00	0	44	102	23068672	19	4674
2026-01-07 22:52:55.77	107.02	23.71	-28.8	-30.5	15.4	0.00e+00	0	44	102	23068672	19	4335
2026-01-07 22:52:58.79	107.84	23.57	-28.3	-29.8	16.1	0.00e+00	0	44	102	23068672	18	4241
2026-01-07 22:53:01.80	108.64	23.43	-28.6	-30.4	15.7	0.00e+00	0	44	102	23068672	18	4437
2026-01-07 22:53:04.82	109.43	23.29	-28.9	-31.2	15.2	0.00e+00	0	44	102	23068672	18	4674
2026-01-07 22:53:07.84	110.22	23.13	-28.6	-30.3	15.7	0.00e+00	0	43	102	23068672	18	4415
2026-01-07 22:53:10.86	111.01	22.98	-28.7	-30.8	15.4	0.00e+00	0	43	102	23068672	18	4558
2026-01-07 22:53:13.88	111.78	22.82	-29.0	-31.3	15.1	0.00e+00	0	44	102	23068672	18	4722
2026-01-07 22:53:16.90	112.55	22.65	-29.7	-32.8	13.8	1.50e-06	0	44	102	23068672	19	5126
2026-01-07 22:53:19.93	113.31	22.49	-29.8	-33.1	13.6	6.80e-06	0	44	102	23068672	19	5233
2026-01-07 22:53:22.95	114.06	22.31	-29.7	-32.7	13.9	3.80e-06	0	43	102	23068672	19	5093
2026-01-07 22:53:25.97	114.80	22.14	-29.7	-32.7	13.9	7.00e-07	0	43	102	23068672	19	5092
2026-01-07 22:53:28.99	115.54	21.96	-29.4	-31.9	14.3	1.50e-06	0	44	102	23068672	19	4811
2026-01-07 22:53:32.01	116.26	21.77	-29.4	-32.1	14.1	2.20e-06	0	44	102	23068672	19	4901
2026-01-07 22:53:35.02	116.98	21.59	-29.6	-32.5	13.8	3.80e-06	0	44	102	23068672	19	5061
2026-01-07 22:53:38.05	117.69	21.40	-29.8	-33.0	13.5	9.90e-06	0	44	102	23068672	19	5222
2026-01-07 22:53:41.07	118.39	21.21	-29.7	-32.6	13.8	1.22e-05	0	43	102	23068672	19	5081
2026-01-07 22:53:44.08	119.08	21.01	-29.5	-32.2	14.1	7.00e-07	0	44	102	23068672	19	4936
2026-01-07 22:53:47.10	119.77	20.82	-29.5	-32.3	14.0	3.00e-06	0	44	102	23068672	19	4964
2026-01-07 22:53:50.12	120.44	20.62	-29.5	-32.3	14.0	0.00e+00	0	44	102	23068672	19	4954
2026-01-07 22:53:53.14	121.11	20.41	-29.8	-33.1	13.5	1.06e-05	0	44	102	23068672	19	5248
2026-01-07 22:53:56.16	121.77	20.21	-29.9	-33.3	13.4	1.52e-05	0	44	102	23068672	19	5322
2026-01-07 22:53:59.18	122.42	20.00	-30.2	-33.7	12.7	4.73e-05	0	43	102	23068672	20	5392
2026-01-07 22:54:02.19	123.05	19.80	-30.2	-33.8	12.6	9.46e-05	0	43	102	23068672	20	5443
2026-01-07 22:54:05.21	123.69	19.59	-30.7	-34.9	11.5	9.68e-04	0	44	102	23068672	21	5821
2026-01-07 22:54:08.23	124.31	19.37	-30.2	-33.4	12.5	1.72e-04	0	44	102	23068672	21	5197
2026-01-07 22:54:11.26	124.93	19.16	-30.5	-34.2	11.9	2.13e-04	0	44	102	23068672	21	5536
2026-01-07 22:54:14.27	125.54	18.95	-30.6	-34.5	11.7	8.70e-04	0	43	102	23068672	21	5656
2026-01-07 22:54:17.29	126.13	18.73	-29.7	-32.5	13.4	2.51e-05	0	44	102	23068672	20	4974
2026-01-07 22:54:20.31	126.73	18.51	-30.1	-33.5	12.7	1.17e-04	0	44	102	23068672	20	5329
2026-01-07 22:54:23.33	127.31	18.30	-30.2	-33.9	12.5	1.72e-04	0	44	102	23068672	20	5474
2026-01-07 22:54:26.35	127.88	18.08	-29.8	-32.6	13.3	1.98e-05	0	44	102	23068672	20	5001
2026-01-07 22:54:29.37	128.45	17.86	-30.1	-33.6	12.6	7.09e-05	0	44	102	23068672	20	5394
2026-01-07 22:54:32.37	129.01	17.64	-30.2	-33.8	12.4	1.72e-04	0	44	102	23068672	20	5474
2026-01-07 22:54:35.40	129.56	17.42	-29.7	-32.5	13.3	1.75e-05	0	44	102	23068672	20	4961
2026-01-07 22:54:38.41	130.10	17.20	-29.9	-32.9	13.0	2.51e-05	0	44	102	23068672	20	5102
2026-01-07 22:54:41.44	130.64	16.98	-30.6	-34.7	11.4	6.50e-04	0	44	102	23068672	21	5766
2026-01-07 22:54:44.46	131.17	16.75	-30.3	-33.7	12.1	6.21e-04	0	44	102	23068672	21	5320
2026-01-07 22:54:47.48	131.69	16.53	-29.9	-32.6	12.8	4.50e-05	0	44	102	23068672	21	4892
2026-01-07 22:54:50.51	132.20	16.31	-30.1	-33.3	12.3	1.76e-04	0	43	102	23068672	21	5172
2026-01-07 22:54:53.53	132.71	16.09	-30.1	-33.2	12.3	3.17e-04	0	44	102	23068672	21	5134
2026-01-07 22:54:56.55	133.21	15.86	-30.0	-33.4	12.6	3.34e-04	0	43	102	23068672	20	5305
2026-01-07 22:54:59.55	133.69	15.64	-30.0	-33.4	12.5	3.00e-04	0	44	102	23068672	20	5307
2026-01-07 22:55:02.58	134.18	15.42	-30.1	-33.8	12.2	2.41e-04	0	43	102	23068672	20	5500
2026-01-07 22:55:05.60	134.66	15.20	-29.8	-33.1	12.6	1.42e-04	0	44	102	23068672	20	5246
2026-01-07 22:55:08.61	135.13	14.98	-29.7	-32.8	12.8	6.94e-05	0	44	102	23068672	20	5119
2026-01-07 22:55:11.62	135.59	14.75	-30.0	-33.4	12.4	2.11e-04	0	44	102	23068672	20	5347
2026-01-07 22:55:14.64	136.05	14.53	-30.0	-33.6	12.2	3.72e-04	0	44	102	23068672	20	5416
2026-01-07 22:55:17.67	136.50	14.31	-29.8	-33.1	12.6	2.12e-04	0	44	102	23068672	20	5235
2026-01-07 22:55:20.69	136.94	14.09	-29.7	-32.7	12.8	1.33e-04	0	44	102	23068672	20	5093
2026-01-07 22:55:23.69	137.38	13.87	-29.7	-32.6	12.8	6.94e-05	0	44	102	23068672	20	5048
2026-01-07 22:55:26.71	137.81	13.65	-29.7	-32.9	12.6	8.85e-05	0	44	102	23068672	20	5151
2026-01-07 22:55:29.72	138.23	13.43	-29.9	-33.3	12.3	1.72e-04	0	44	102	23068672	20	5335
2026-01-07 22:55:32.74	138.65	13.22	-30.1	-34.0	11.8	3.18e-04	0	44	102	23068672	20	5619
2026-01-07 22:55:35.76	139.07	13.00	-30.2	-34.4	11.5	8.95e-04	0	44	102	23068672	20	5842
2026-01-07 22:55:38.78	139.47	12.78	-30.3	-34.6	11.3	1.12e-03	0	44	102	23068672	20	5905
2026-01-07 22:55:41.80	139.88	12.56	-30.2	-34.2	11.6	7.93e-04	0	44	102	23068672	20	5722
2026-01-07 22:55:44.82	140.27	12.35	-30.0	-33.6	11.9	5.77e-04	0	44	102	23068672	20	5499
2026-01-07 22:55:47.85	140.66	12.13	-29.9	-33.4	12.0	4.04e-04	0	44	102	23068672	20	5413
2026-01-07 22:55:50.87	141.05	11.92	-30.1	-34.0	11.4	7.51e-04	0	43	102	23068672	20	5671
2026-01-07 22:55:53.89	141.43	11.70	-30.3	-34.9	10.8	1.37e-03	0	44	102	23068672	20	6105
2026-01-07 22:55:56.91	141.80	11.49	-30.6	-35.4	10.1	5.99e-03	0	44	102	23068672	21	6263
2026-01-07 22:55:59.94	142.17	11.28	-30.7	-35.9	9.6	1.15e-02	0	44	102	23068672	21	6557
2026-01-07 22:56:02.95	142.54	11.06	-30.6	-35.5	9.9	1.07e-02	0	44	102	23068672	21	6344
2026-01-07 22:56:05.97	142.90	10.85	-30.5	-35.6	10.1	6.28e-03	0	44	102	23068672	20	6510
2026-01-07 22:56:08.99	143.25	10.64	-30.6	-35.4	9.9	8.98e-03	0	44	102	23068672	21	6309
2026-01-07 22:56:12.00	143.60	10.44	-30.5	-35.6	10.1	6.74e-03	0	44	102	23068672	20	6533
2026-01-07 22:56:15.03	143.95	10.23	-30.4	-35.5	10.1	7.11e-03	0	44	102	23068672	20	6492
2026-01-07 22:56:18.05	144.29	10.02	-30.2	-34.9	10.5	4.26e-03	0	44	102	23068672	20	6224
2026-01-07 22:56:21.05	144.62	9.81	-30.2	-34.9	10.5	3.72e-03	0	44	102	23068672	20	6164
2026-01-07 22:56:24.08	144.95	9.61	-30.3	-35.3	10.2	5.54e-03	0	44	102	23068672	20	6377
2026-01-07 22:56:27.10	145.28	9.40	-30.4	-35.4	10.1	6.71e-03	0	44	102	23068672	20	6445
2026-01-07 22:56:30.11	145.60	9.20	-30.4	-35.4	10.1	8.13e-03	0	44	102	23068672	20	6449
2026-01-07 22:56:33.13	145.92	9.00	-30.3	-35.0	10.4	6.82e-03	0	44	102	23068672	20	6254
2026-01-07 22:56:36.15	146.23	8.79	-30.1	-34.7	10.6	4.90e-03	0	43	102	23068672	20	6130
2026-01-07 22:56:39.16	146.54	8.59	-30.2	-35.2	10.1	7.98e-03	0	44	102	23068672	20	6396
2026-01-07 22:56:42.18	146.84	8.39	-30.0	-34.5	10.6	3.40e-03	0	44	102	23068672	20	6076
2026-01-07 22:56:45.20	147.14	8.19	-29.9	-34.6	10.4	5.28e-03	0	44	102	23068672	20	6163
2026-01-07 22:56:48.21	147.44	8.00	-29.9	-35.1	10.4	3.83e-03	0	43	102	23068672	19	6565
2026-01-07 22:56:51.24	147.74	7.80	-30.0	-35.3	10.4	7.12e-03	0	44	102	23068672	19	6622
2026-01-07 22:56:54.26	148.02	7.60	-30.1	-35.1	10.1	1.11e-02	0	43	102	23068672	20	6391
2026-01-07 22:56:57.28	148.31	7.41	-30.3	-35.6	9.6	1.42e-02	0	44	102	23068672	20	6682
2026-01-07 22:57:00.31	148.59	7.21	-29.7	-35.0	10.4	4.10e-03	0	44	102	23068672	19	6565
2026-01-07 22:57:03.33	148.87	7.02	-32.4	-47.1	3.8	1.49e+00	0	44	104	23068672	24	19558

#Closed at: 2026-01-07 22:57:03
#Recorded file [23 MB]: D:/data/31010_260108_014643.dat