passes_logs/2026/01/07/R2M6_AANII_01/R2M6_AANII_01__20260107_020519_SUOMI_NPP_rec.log

#Pass ID: 20260107_020519_SUOMI NPP
#Satellite: SUOMI NPP
#Configuration: NPP
#almurnet v.1.7.20240730
#Start time: 2026-01-07 02:05:21

#Version: 2.2.20231116
#Station: R2M6_AANII_01
#Location: 30.233357 lon 59.946436 lat
#TLE: 1 37849U 11061A   26005.94084933  .00000134  00000+0  84554-4 0  9990
#TLE: 2 37849  98.7803 308.0679 0002567  79.1029 281.0436 14.19522657735426

#Time	Az	El	Level	Level2	SNR	BER	BlckErr	Temp	State	Recorded	gain1	gain2
2026-01-07 02:05:21.52	11.09	7.11	-31.9	-38.9	4.4	1.39e+00	0	41	0	0	23	8014
2026-01-07 02:05:24.53	10.84	7.31	-30.9	-37.2	6.1	3.05e-01	0	41	102	1048576	23	7397
2026-01-07 02:05:27.55	10.60	7.52	-31.9	-38.1	6.1	2.88e-01	0	41	102	1048576	23	7377
2026-01-07 02:05:30.56	10.35	7.72	-31.8	-37.5	6.4	2.65e-01	0	41	102	1048576	23	6974
2026-01-07 02:05:33.57	10.09	7.93	-31.1	-34.8	9.0	4.86e-02	0	41	102	1048576	22	5529
2026-01-07 02:05:36.59	9.83	8.13	-30.5	-33.4	10.5	6.07e-03	0	42	102	1048576	21	4994
2026-01-07 02:05:39.61	9.57	8.34	-30.4	-33.4	10.9	3.21e-03	0	42	102	1048576	20	5080
2026-01-07 02:05:42.64	9.30	8.55	-30.5	-33.3	10.7	3.61e-03	0	42	102	1048576	21	4958
2026-01-07 02:05:45.65	9.03	8.76	-30.3	-33.2	11.1	4.08e-03	0	42	102	1048576	20	5009
2026-01-07 02:05:48.67	8.76	8.98	-30.5	-33.5	10.9	5.07e-03	0	42	102	1048576	20	5126
2026-01-07 02:05:51.70	8.48	9.19	-30.6	-33.4	10.6	5.64e-03	0	42	102	1048576	21	4978
2026-01-07 02:05:54.72	8.20	9.40	-30.8	-34.0	10.2	8.30e-03	0	42	102	1048576	21	5220
2026-01-07 02:05:57.74	7.91	9.62	-30.8	-34.2	10.1	9.82e-03	0	42	102	1048576	21	5317
2026-01-07 02:06:00.76	7.62	9.84	-30.6	-33.5	10.6	3.69e-03	0	42	102	1048576	21	5021
2026-01-07 02:06:03.78	7.32	10.05	-30.5	-33.2	10.9	4.58e-03	0	42	102	1048576	21	4874
2026-01-07 02:06:06.79	7.02	10.27	-30.6	-33.3	10.9	5.14e-03	0	42	102	1048576	21	4911
2026-01-07 02:06:09.81	6.71	10.49	-30.6	-33.3	10.9	4.83e-03	0	42	102	1048576	21	4902
2026-01-07 02:06:12.84	6.40	10.72	-30.5	-33.1	11.1	4.26e-03	0	42	102	1048576	21	4821
2026-01-07 02:06:15.86	6.09	10.94	-30.6	-33.2	11.0	4.96e-03	0	42	102	1048576	21	4871
2026-01-07 02:06:18.88	5.77	11.16	-30.5	-33.4	11.2	3.82e-03	0	42	102	1048576	20	5045
2026-01-07 02:06:21.91	5.44	11.39	-30.8	-33.8	10.6	2.85e-03	0	43	102	1048576	21	5126
2026-01-07 02:06:24.92	5.11	11.61	-30.8	-33.8	10.6	3.96e-03	0	42	102	1048576	21	5097
2026-01-07 02:06:27.95	4.77	11.84	-30.8	-33.9	10.5	3.32e-03	0	43	102	1048576	21	5156
2026-01-07 02:06:30.98	4.43	12.07	-30.6	-33.2	11.0	1.74e-03	0	43	102	1048576	21	4864
2026-01-07 02:06:34.00	4.08	12.30	-30.5	-33.0	11.2	1.26e-03	0	43	102	1048576	21	4783
2026-01-07 02:06:37.01	3.73	12.53	-30.4	-32.8	11.3	5.26e-03	0	43	102	1048576	21	4701
2026-01-07 02:06:40.03	3.37	12.76	-30.5	-33.0	11.3	1.13e-03	0	43	102	1048576	21	4790
2026-01-07 02:06:43.05	3.01	12.99	-30.3	-32.7	11.8	4.17e-04	0	43	102	1048576	20	4746
2026-01-07 02:06:46.07	2.64	13.23	-30.2	-32.4	12.0	2.15e-04	0	43	102	1048576	20	4648
2026-01-07 02:06:49.09	2.26	13.46	-30.4	-33.0	11.6	4.03e-04	0	43	102	1048576	20	4873
2026-01-07 02:06:52.11	1.88	13.70	-29.1	-31.4	11.4	7.61e-04	0	43	102	1048576	20	4706
2026-01-07 02:06:55.13	1.49	13.93	-30.7	-33.5	11.0	1.34e-03	0	43	102	1048576	21	4948
2026-01-07 02:06:58.15	1.09	14.17	-30.6	-33.2	11.4	1.49e-03	0	43	102	1048576	21	4827
2026-01-07 02:07:01.16	0.69	14.41	-30.3	-32.7	12.0	3.47e-03	0	43	102	1048576	20	4753
2026-01-07 02:07:04.19	0.28	14.65	-30.5	-32.9	11.5	3.11e-03	0	43	102	1048576	21	4724
2026-01-07 02:07:07.21	359.87	14.89	-30.4	-32.9	11.8	3.38e-03	0	43	102	1048576	20	4833
2026-01-07 02:07:10.23	359.44	15.13	-30.2	-32.3	12.2	2.95e-03	0	43	102	1048576	20	4596
2026-01-07 02:07:13.24	359.02	15.37	-30.0	-32.2	12.8	9.23e-05	0	43	102	1048576	19	4630
2026-01-07 02:07:16.27	358.58	15.61	-30.0	-31.7	12.7	1.03e-04	0	43	102	1048576	20	4397
2026-01-07 02:07:19.28	358.14	15.86	-29.9	-31.6	12.7	2.68e-03	0	43	102	1048576	20	4365
2026-01-07 02:07:22.30	357.68	16.10	-29.8	-31.6	13.1	2.44e-03	0	43	102	1048576	19	4453
2026-01-07 02:07:25.32	357.23	16.34	-29.8	-31.6	13.3	2.64e-03	0	43	102	1048576	19	4426
2026-01-07 02:07:28.35	356.76	16.59	-29.9	-31.4	13.0	2.63e-03	0	43	102	1048576	20	4299
2026-01-07 02:07:31.38	356.28	16.84	-30.1	-31.9	12.6	2.43e-03	0	43	102	1048576	20	4459
2026-01-07 02:07:34.39	355.80	17.08	-29.8	-31.7	13.1	2.39e-03	0	43	102	1048576	19	4481
2026-01-07 02:07:37.41	355.31	17.33	-30.0	-31.7	12.8	5.72e-05	0	43	102	1048576	20	4372
2026-01-07 02:07:40.41	354.81	17.57	-30.1	-32.0	12.5	7.55e-05	0	43	102	1048576	20	4495
2026-01-07 02:07:43.43	354.31	17.82	-30.0	-31.9	12.6	7.93e-05	0	43	102	1048576	20	4467
2026-01-07 02:07:46.45	353.79	18.07	-29.7	-31.5	13.4	2.36e-03	0	43	102	1048576	19	4389
2026-01-07 02:07:49.46	353.27	18.31	-30.0	-31.6	12.9	1.82e-03	0	43	102	1048576	20	4366
2026-01-07 02:07:52.48	352.74	18.56	-30.4	-32.9	12.0	1.98e-03	0	43	102	1048576	20	4789
2026-01-07 02:07:55.50	352.19	18.80	-30.3	-32.7	12.2	2.46e-04	0	43	102	1048576	20	4705
2026-01-07 02:07:58.51	351.64	19.05	-30.2	-32.3	12.5	9.61e-05	0	43	102	1048576	20	4559
2026-01-07 02:08:01.54	351.08	19.30	-30.2	-32.3	12.5	1.27e-04	0	43	102	1048576	20	4588
2026-01-07 02:08:04.55	350.51	19.54	-30.3	-32.5	12.3	2.25e-04	0	43	102	1048576	20	4669
2026-01-07 02:08:07.58	349.93	19.79	-29.9	-31.4	13.0	7.85e-05	0	43	102	1048576	20	4282
2026-01-07 02:08:10.60	349.35	20.03	-30.2	-32.3	12.5	1.20e-04	0	43	102	1048576	20	4565
2026-01-07 02:08:13.62	348.75	20.27	-30.8	-33.4	11.4	6.35e-04	0	44	102	1048576	21	4892
2026-01-07 02:08:16.64	348.14	20.52	-30.3	-32.4	12.4	2.93e-04	0	43	102	1048576	20	4603
2026-01-07 02:08:19.66	347.52	20.76	-29.9	-31.4	13.1	8.16e-05	0	43	102	1048576	20	4282
2026-01-07 02:08:22.68	346.90	21.00	-30.0	-31.7	13.0	3.50e-05	0	43	102	1048576	20	4365
2026-01-07 02:08:25.70	346.26	21.24	-30.4	-32.7	12.3	1.33e-04	0	43	102	1048576	20	4716
2026-01-07 02:08:28.72	345.61	21.47	-30.1	-32.0	12.7	8.23e-05	0	43	102	1048576	20	4458
2026-01-07 02:08:31.74	344.96	21.71	-29.8	-31.6	13.4	1.67e-05	0	43	102	1048576	19	4417
2026-01-07 02:08:34.76	344.29	21.94	-29.5	-30.8	13.9	6.10e-06	0	43	102	1048576	19	4184
2026-01-07 02:08:37.78	343.61	22.17	-29.1	-30.2	14.6	0.00e+00	0	43	102	1048576	18	4084
2026-01-07 02:08:40.79	342.92	22.40	-29.3	-30.8	14.2	7.00e-07	0	43	102	1048576	18	4263
2026-01-07 02:08:43.81	342.23	22.63	-29.7	-31.4	13.5	1.44e-05	0	43	102	1048576	19	4348
2026-01-07 02:08:46.82	341.52	22.85	-29.1	-29.8	14.5	0.00e+00	0	43	102	1048576	19	3896
2026-01-07 02:08:49.83	340.80	23.07	-28.6	-29.4	15.4	0.00e+00	0	43	102	1048576	17	3953
2026-01-07 02:08:52.84	340.08	23.29	-29.2	-30.5	14.4	0.00e+00	0	43	102	1048576	18	4182
2026-01-07 02:08:55.86	339.34	23.50	-29.5	-30.7	14.0	6.10e-06	0	44	102	1048576	19	4124
2026-01-07 02:08:58.88	338.59	23.71	-28.8	-29.5	15.1	7.00e-07	0	43	102	1048576	18	3889
2026-01-07 02:09:01.90	337.83	23.92	-29.3	-30.6	14.3	0.00e+00	0	43	102	1048576	18	4217
2026-01-07 02:09:04.92	337.06	24.12	-29.2	-30.3	14.6	0.00e+00	0	43	102	1048576	18	4128
2026-01-07 02:09:07.94	336.28	24.32	-28.5	-29.3	15.5	7.00e-07	0	43	102	1048576	17	3921
2026-01-07 02:09:10.95	335.49	24.51	-29.1	-30.2	14.7	7.00e-07	0	43	102	1048576	18	4078
2026-01-07 02:09:13.98	334.69	24.71	-29.5	-30.7	14.1	2.20e-06	0	44	102	1048576	19	4142
2026-01-07 02:09:17.00	333.88	24.89	-29.4	-30.9	14.3	0.00e+00	0	43	102	1048576	18	4270
2026-01-07 02:09:20.03	333.06	25.07	-29.5	-30.8	14.0	3.00e-06	0	43	102	1048576	19	4154
2026-01-07 02:09:23.05	332.23	25.25	-29.2	-30.6	14.5	7.00e-07	0	43	102	1048576	18	4185
2026-01-07 02:09:26.06	331.40	25.42	-29.2	-30.4	14.6	0.00e+00	0	43	102	1048576	18	4129
2026-01-07 02:09:29.08	330.55	25.58	-29.1	-30.1	14.7	0.00e+00	0	43	102	1048576	18	4058
2026-01-07 02:09:32.11	329.69	25.74	-28.4	-28.9	15.7	0.00e+00	0	43	102	1048576	17	3825
2026-01-07 02:09:35.12	328.83	25.89	-28.7	-29.5	13.9	1.50e-06	0	43	102	1048576	17	3987
2026-01-07 02:09:38.13	327.96	26.03	-29.3	-30.7	14.3	0.00e+00	0	43	102	1048576	18	4221
2026-01-07 02:09:41.15	327.08	26.17	-28.9	-30.1	15.0	0.00e+00	0	43	102	1048576	17	4154
2026-01-07 02:09:44.17	326.20	26.30	-29.3	-30.7	14.4	0.00e+00	0	44	102	1048576	18	4217
2026-01-07 02:09:47.19	325.30	26.43	-29.5	-30.7	14.0	1.13e-03	0	43	102	1048576	19	4143
2026-01-07 02:09:50.21	324.40	26.55	-29.5	-31.2	14.1	2.36e-03	0	44	102	1048576	18	4376
2026-01-07 02:09:53.22	323.49	26.66	-29.8	-31.5	13.6	2.68e-03	0	43	102	1048576	19	4383
2026-01-07 02:09:56.25	322.58	26.76	-30.4	-32.6	12.4	2.68e-03	0	43	102	1048576	20	4656
2026-01-07 02:09:59.28	321.65	26.86	-29.7	-31.1	13.8	6.10e-06	0	43	102	1048576	19	4250
2026-01-07 02:10:02.29	320.73	26.94	-30.1	-31.8	12.9	1.14e-05	0	43	102	1048576	20	4402
2026-01-07 02:10:05.29	319.81	27.02	-30.5	-32.7	12.0	3.46e-03	0	44	102	1048576	21	4607
2026-01-07 02:10:08.31	318.87	27.09	-30.5	-32.9	12.2	3.51e-03	0	44	102	1048576	20	4773
2026-01-07 02:10:11.32	317.93	27.15	-29.9	-31.7	13.4	3.09e-03	0	43	102	1048576	19	4456
2026-01-07 02:10:14.35	316.99	27.21	-30.6	-32.9	11.8	3.56e-03	0	44	102	1048576	21	4689
2026-01-07 02:10:17.37	316.04	27.25	-30.1	-31.9	12.8	3.02e-03	0	43	102	1048576	20	4426
2026-01-07 02:10:20.38	315.10	27.29	-30.0	-31.5	13.1	3.33e-03	0	43	102	1048576	20	4287
2026-01-07 02:10:23.40	314.15	27.32	-30.1	-31.9	12.9	3.66e-05	0	44	102	1048576	20	4438
2026-01-07 02:10:26.42	313.20	27.34	-31.1	-33.9	10.8	1.99e-03	0	44	102	1048576	22	4987
2026-01-07 02:10:29.44	312.24	27.35	-30.5	-32.5	12.2	2.64e-03	0	44	102	1048576	21	4541
2026-01-07 02:10:32.47	311.29	27.35	-30.0	-31.5	13.2	1.62e-04	0	43	102	1048576	20	4286
2026-01-07 02:10:35.48	310.34	27.35	-30.1	-31.7	13.1	2.28e-05	0	43	102	1048576	20	4342
2026-01-07 02:10:38.51	309.38	27.33	-30.7	-33.0	11.8	3.08e-03	0	44	102	1048576	21	4720
2026-01-07 02:10:41.52	308.43	27.31	-30.7	-32.9	11.8	7.93e-04	0	44	102	1048576	21	4679
2026-01-07 02:10:44.54	307.48	27.27	-29.9	-31.2	13.4	1.22e-05	0	44	102	1048576	20	4195
2026-01-07 02:10:47.57	306.53	27.23	-30.3	-32.3	12.7	7.85e-05	0	43	102	1048576	20	4549
2026-01-07 02:10:50.59	305.59	27.18	-30.1	-31.9	12.9	8.92e-05	0	43	102	1048576	20	4426
2026-01-07 02:10:53.61	304.65	27.12	-29.9	-31.6	13.5	9.10e-06	0	43	102	1048576	19	4414
2026-01-07 02:10:56.63	303.71	27.06	-28.2	-28.9	15.0	0.00e+00	0	43	102	1048576	18	3929
2026-01-07 02:10:59.65	302.78	26.98	-28.4	-29.5	13.7	0.00e+00	0	44	102	1048576	16	4064
2026-01-07 02:11:02.67	301.85	26.90	-28.9	-30.3	14.9	2.19e-03	0	43	102	1048576	17	4192
2026-01-07 02:11:05.68	300.93	26.81	-29.4	-31.0	14.3	0.00e+00	0	43	102	1048576	18	4313
2026-01-07 02:11:08.69	300.01	26.71	-29.7	-31.1	13.8	7.60e-06	0	43	102	1048576	19	4240
2026-01-07 02:11:11.70	299.10	26.60	-29.7	-31.1	13.8	9.10e-06	0	44	102	1048576	19	4248
2026-01-07 02:11:14.73	298.19	26.49	-29.6	-30.8	14.1	7.60e-06	0	43	102	1048576	19	4163
2026-01-07 02:11:17.75	297.29	26.37	-29.9	-31.7	13.5	4.50e-06	0	44	102	1048576	19	4415
2026-01-07 02:11:20.77	296.40	26.24	-29.7	-31.0	13.9	2.15e-03	0	43	102	1048576	19	4221
2026-01-07 02:11:23.79	295.51	26.10	-30.0	-31.3	13.3	2.19e-03	0	44	102	1048576	20	4222
2026-01-07 02:11:26.81	294.64	25.96	-29.4	-30.8	14.4	2.38e-03	0	43	102	1048576	18	4245
2026-01-07 02:11:29.82	293.77	25.81	-29.3	-30.6	14.5	6.77e-04	0	43	102	1048576	18	4180
2026-01-07 02:11:32.83	292.91	25.66	-29.4	-30.3	14.3	2.13e-03	0	43	102	1048576	19	4005
2026-01-07 02:11:35.86	292.05	25.49	-29.7	-31.2	13.8	1.49e-03	0	44	102	1048576	19	4252
2026-01-07 02:11:38.89	291.21	25.33	-30.1	-31.6	13.2	1.72e-03	0	43	102	1048576	20	4304
2026-01-07 02:11:41.91	290.37	25.15	-29.9	-31.3	13.4	2.15e-03	0	43	102	1048576	20	4203
2026-01-07 02:11:44.94	289.55	24.98	-30.1	-31.8	13.1	2.47e-03	0	43	102	1048576	20	4359
2026-01-07 02:11:47.95	288.73	24.79	-30.3	-32.3	12.7	2.52e-03	0	43	102	1048576	20	4535
2026-01-07 02:11:50.97	287.93	24.60	-29.9	-31.2	13.4	2.48e-03	0	43	102	1048576	20	4175
2026-01-07 02:11:53.98	287.13	24.41	-29.8	-31.2	13.8	3.00e-06	0	44	102	1048576	19	4271
2026-01-07 02:11:57.01	286.34	24.21	-29.9	-31.1	13.5	9.10e-06	0	44	102	1048576	20	4130
2026-01-07 02:12:00.03	285.56	24.01	-30.1	-31.7	13.0	3.50e-05	0	43	102	1048576	20	4339
2026-01-07 02:12:03.05	284.80	23.81	-29.6	-30.8	14.1	7.00e-07	0	43	102	1048576	19	4145
2026-01-07 02:12:06.07	284.04	23.60	-30.1	-31.7	13.1	2.59e-05	0	43	102	1048576	20	4350
2026-01-07 02:12:09.08	283.30	23.38	-30.5	-32.5	12.2	1.89e-04	0	44	102	1048576	21	4502
2026-01-07 02:12:12.11	282.56	23.17	-30.1	-31.9	12.9	7.85e-05	0	44	102	1048576	20	4407
2026-01-07 02:12:15.12	281.84	22.95	-29.7	-30.6	13.8	5.30e-06	0	44	102	1048576	20	4020
2026-01-07 02:12:18.13	281.12	22.72	-30.1	-31.7	13.1	1.14e-05	0	44	102	1048576	20	4331
2026-01-07 02:12:21.14	280.42	22.50	-30.6	-32.6	12.0	2.07e-04	0	43	102	1048576	21	4563
2026-01-07 02:12:24.16	279.72	22.27	-30.2	-31.7	12.7	1.12e-04	0	44	102	1048576	21	4269
2026-01-07 02:12:27.17	279.04	22.04	-29.6	-30.3	13.9	9.10e-06	0	43	102	1048576	20	3934
2026-01-07 02:12:30.18	278.37	21.81	-29.1	-30.2	14.7	1.50e-06	0	44	102	1048576	18	4059
2026-01-07 02:12:33.20	277.70	21.58	-29.7	-31.1	13.7	1.56e-04	0	43	102	1048576	19	4245
2026-01-07 02:12:36.23	277.05	21.34	-29.2	-30.3	14.5	1.78e-04	0	44	102	1048576	18	4108
2026-01-07 02:12:39.24	276.41	21.10	-29.4	-30.9	14.2	1.20e-04	0	44	102	1048576	18	4276
2026-01-07 02:12:42.25	275.77	20.86	-29.3	-30.6	14.4	2.20e-06	0	43	102	1048576	18	4181
2026-01-07 02:12:45.28	275.15	20.62	-29.7	-31.1	13.7	7.00e-07	0	43	102	1048576	19	4258
2026-01-07 02:12:48.30	274.53	20.38	-29.5	-30.8	13.8	1.50e-06	0	43	102	1048576	19	4176
2026-01-07 02:12:51.32	273.93	20.13	-30.0	-31.7	12.9	2.23e-04	0	43	102	1048576	20	4360
2026-01-07 02:12:54.34	273.33	19.89	-29.5	-30.8	13.9	7.60e-06	0	43	102	1048576	19	4162
2026-01-07 02:12:57.36	272.75	19.64	-29.7	-31.3	13.5	6.10e-06	0	44	102	1048576	19	4302
2026-01-07 02:13:00.38	272.17	19.40	-29.8	-31.6	13.3	2.36e-05	0	44	102	1048576	19	4401
2026-01-07 02:13:03.40	271.60	19.15	-28.9	-29.6	14.9	0.00e+00	0	43	102	1048576	18	3927
2026-01-07 02:13:06.41	271.05	18.90	-28.7	-29.7	15.1	0.00e+00	0	44	102	1048576	17	4032
2026-01-07 02:13:09.43	270.50	18.66	-28.7	-29.2	15.1	0.00e+00	0	43	102	1048576	18	3811
2026-01-07 02:13:12.44	269.96	18.41	-29.1	-30.1	14.5	0.00e+00	0	43	102	1048576	18	4065
2026-01-07 02:13:15.46	269.43	18.16	-29.3	-30.7	14.2	8.30e-06	0	43	102	1048576	18	4226
2026-01-07 02:13:18.49	268.90	17.91	-29.1	-30.2	14.4	2.20e-06	0	44	102	1048576	18	4090
2026-01-07 02:13:21.50	268.39	17.67	-29.2	-30.5	14.3	7.00e-07	0	43	102	1048576	18	4164
2026-01-07 02:13:24.53	267.88	17.42	-29.3	-30.6	14.2	3.80e-06	0	44	102	1048576	18	4206
2026-01-07 02:13:27.54	267.39	17.17	-29.4	-31.0	13.9	5.30e-06	0	43	102	1048576	18	4333
2026-01-07 02:13:30.56	266.90	16.93	-29.2	-30.6	14.2	7.00e-07	0	43	102	1048576	18	4206
2026-01-07 02:13:33.58	266.42	16.68	-28.6	-29.4	15.2	0.00e+00	0	44	102	1048576	17	3958
2026-01-07 02:13:36.60	265.95	16.43	-28.7	-29.7	15.0	7.00e-07	0	43	102	1048576	17	4036
2026-01-07 02:13:39.61	265.48	16.19	-29.5	-31.2	13.8	7.00e-07	0	43	102	1048576	18	4381
2026-01-07 02:13:42.62	265.03	15.94	-29.6	-31.2	13.4	1.67e-05	0	43	102	1048576	19	4296
2026-01-07 02:13:45.64	264.58	15.70	-29.4	-30.9	13.9	2.65e-03	0	43	102	1048576	18	4308
2026-01-07 02:13:48.66	264.13	15.46	-29.0	-30.5	14.4	1.50e-06	0	44	102	1048576	17	4283
2026-01-07 02:13:51.69	263.70	15.21	-29.0	-30.1	14.4	7.00e-07	0	44	102	1048576	18	4074
2026-01-07 02:13:54.71	263.27	14.97	-29.2	-30.5	14.2	1.50e-06	0	43	102	1048576	18	4179
2026-01-07 02:13:57.72	262.85	14.73	-29.8	-31.6	13.1	1.67e-05	0	44	102	1048576	19	4431
2026-01-07 02:14:00.74	262.43	14.49	-29.9	-31.9	12.9	6.33e-05	0	44	102	1048576	19	4536
2026-01-07 02:14:03.77	262.02	14.25	-29.7	-31.2	13.4	2.54e-03	0	44	102	1048576	19	4312
2026-01-07 02:14:06.79	261.62	14.01	-29.3	-30.7	13.9	2.66e-03	0	44	102	1048576	18	4259
2026-01-07 02:14:09.81	261.23	13.77	-29.3	-30.9	13.9	3.02e-03	0	44	102	1048576	18	4309
2026-01-07 02:14:12.82	260.84	13.54	-29.5	-30.8	13.6	3.01e-03	0	44	102	1048576	19	4190
2026-01-07 02:14:15.84	260.46	13.30	-29.6	-31.0	13.4	2.79e-03	0	43	102	1048576	19	4255
2026-01-07 02:14:18.86	260.08	13.07	-29.4	-31.0	13.7	7.86e-04	0	43	102	1048576	18	4348
2026-01-07 02:14:21.88	259.71	12.83	-29.6	-31.0	13.3	1.06e-05	0	43	102	1048576	19	4274
2026-01-07 02:14:24.90	259.35	12.60	-29.8	-31.8	12.8	4.69e-03	0	44	102	1048576	19	4504
2026-01-07 02:14:27.92	258.99	12.37	-29.8	-31.7	12.8	4.34e-03	0	43	102	1048576	19	4504
2026-01-07 02:14:30.94	258.64	12.14	-30.0	-31.8	12.3	3.08e-03	0	43	102	1048576	20	4451
2026-01-07 02:14:33.95	258.29	11.91	-30.3	-32.8	11.7	3.10e-03	0	43	102	1048576	20	4792
2026-01-07 02:14:36.98	257.95	11.68	-30.4	-33.0	11.4	9.83e-04	0	43	102	1048576	20	4866
2026-01-07 02:14:40.00	257.61	11.45	-30.0	-31.9	12.2	2.37e-04	0	44	102	1048576	20	4464
2026-01-07 02:14:43.01	257.28	11.23	-29.7	-31.6	12.8	6.86e-05	0	43	102	1048576	19	4463
2026-01-07 02:14:46.03	256.96	11.00	-29.8	-31.7	12.8	7.93e-05	0	43	102	1048576	19	4483
2026-01-07 02:14:49.05	256.64	10.78	-30.0	-31.9	12.2	2.10e-04	0	44	102	1048576	20	4474
2026-01-07 02:14:52.07	256.32	10.56	-30.3	-33.0	11.4	7.31e-04	0	43	102	1048576	20	4893
2026-01-07 02:14:55.09	256.01	10.33	-30.3	-33.0	11.3	1.20e-03	0	43	102	1048576	20	4876
2026-01-07 02:14:58.10	255.71	10.11	-30.4	-33.1	11.1	1.17e-03	0	44	102	1048576	20	4957
2026-01-07 02:15:01.11	255.41	9.90	-29.8	-31.9	12.4	1.77e-04	0	44	102	1048576	19	4591
2026-01-07 02:15:04.13	255.11	9.68	-29.7	-31.7	11.2	1.24e-04	0	44	102	1048576	19	4516
2026-01-07 02:15:07.15	254.82	9.46	-30.0	-31.9	11.9	1.81e-04	0	43	102	1048576	20	4521
2026-01-07 02:15:10.16	254.53	9.25	-30.2	-32.6	11.5	7.35e-04	0	44	102	1048576	20	4741
2026-01-07 02:15:13.19	254.25	9.03	-30.3	-33.1	11.1	1.68e-03	0	44	102	1048576	20	4963
2026-01-07 02:15:16.20	253.97	8.82	-30.5	-33.5	10.8	4.77e-03	0	43	102	1048576	20	5124
2026-01-07 02:15:19.22	253.69	8.61	-30.8	-34.0	10.0	1.01e-02	0	44	102	1048576	21	5243
2026-01-07 02:15:22.23	253.42	8.40	-30.9	-34.8	9.4	1.57e-02	0	44	102	1048576	21	5578
2026-01-07 02:15:25.25	253.15	8.19	-30.8	-34.4	9.7	1.65e-02	0	44	102	1048576	21	5417
2026-01-07 02:15:28.27	252.89	7.98	-31.0	-35.0	9.2	1.81e-02	0	44	102	1048576	21	5700
2026-01-07 02:15:31.29	252.63	7.77	-30.8	-34.5	9.5	1.59e-02	0	44	102	1048576	21	5470
2026-01-07 02:15:34.30	252.38	7.57	-30.9	-34.6	9.4	2.08e-02	0	44	102	1048576	21	5556
2026-01-07 02:15:37.31	252.13	7.36	-31.1	-35.1	8.6	4.59e-02	0	44	102	1048576	22	5711
2026-01-07 02:15:40.33	251.88	7.16	-31.0	-34.8	8.9	3.46e-02	0	44	102	1048576	22	5552
2026-01-07 02:15:43.36	251.63	6.95	-33.2	-45.6	3.8	1.49e+00	0	44	104	1048576	26	15012

#Closed at: 2026-01-07 02:15:43
#Recorded file [1 MB]: D:/data/31010_260107_050523.dat