passes_logs/2026/01/07/R2M6_AANII_01/R2M6_AANII_01__20260107_122107_NOAA_20_JPSS-1_rec.log

#Pass ID: 20260107_122107_NOAA 20 (JPSS-1)
#Satellite: NOAA 20 (JPSS-1)
#Configuration: NOAA 20
#almurnet v.1.7.20240730
#Start time: 2026-01-07 12:21:07

#Version: 2.2.20231116
#Station: R2M6_AANII_01
#Location: 30.233357 lon 59.946436 lat
#TLE: 1 43013U 17073A   26006.30790171  .00000126  00000+0  80695-4 0  9991
#TLE: 2 43013  98.7629 307.3394 0001808  51.8724 308.2615 14.19533762421505

#Time	Az	El	Level	Level2	SNR	BER	BlckErr	Temp	State	Recorded	gain1	gain2
2026-01-07 12:21:07.41	228.87	6.97	-31.3	-36.8	5.2	1.17e+00	0	41	0	0	23	6821
2026-01-07 12:21:10.42	229.22	7.13	-31.8	-38.4	6.9	1.48e-01	0	41	102	1048576	24	7736
2026-01-07 12:21:13.44	229.58	7.30	-31.5	-37.2	7.9	9.42e-02	0	41	102	1048576	24	6934
2026-01-07 12:21:16.45	229.94	7.46	-31.1	-35.9	9.4	2.20e-02	0	41	102	1048576	23	6259
2026-01-07 12:21:19.47	230.31	7.62	-31.0	-35.4	9.8	1.04e-02	0	41	102	1048576	23	5979
2026-01-07 12:21:22.49	230.68	7.78	-31.1	-35.8	9.5	1.96e-02	0	42	102	1048576	23	6203
2026-01-07 12:21:25.51	231.05	7.95	-30.7	-34.7	10.7	2.51e-03	0	41	102	1048576	22	5758
2026-01-07 12:21:28.53	231.43	8.11	-30.3	-33.8	11.4	1.18e-03	0	41	102	1048576	22	5358
2026-01-07 12:21:31.54	231.81	8.27	-30.2	-33.9	11.6	6.34e-04	0	42	102	1048576	21	5531
2026-01-07 12:21:34.57	232.20	8.44	-30.2	-33.9	11.6	6.07e-04	0	42	102	1048576	21	5534
2026-01-07 12:21:37.59	232.59	8.60	-30.2	-34.0	11.5	8.09e-04	0	42	102	1048576	21	5590
2026-01-07 12:21:40.61	232.99	8.76	-30.2	-34.2	11.5	8.89e-04	0	42	102	1048576	21	5662
2026-01-07 12:21:43.64	233.39	8.92	-30.0	-33.8	11.5	7.11e-04	0	42	102	1048576	21	5602
2026-01-07 12:21:46.65	233.79	9.09	-30.1	-33.8	11.6	5.34e-04	0	42	102	1048576	21	5567
2026-01-07 12:21:49.68	234.20	9.25	-29.9	-33.4	11.9	4.01e-04	0	42	102	1048576	21	5374
2026-01-07 12:21:52.70	234.61	9.41	-30.1	-33.7	11.9	3.75e-04	0	42	102	1048576	21	5444
2026-01-07 12:21:55.72	235.03	9.57	-29.8	-33.5	11.8	3.87e-04	0	42	102	1048576	21	5483
2026-01-07 12:21:58.74	235.45	9.74	-29.9	-33.4	12.0	3.65e-04	0	42	102	1048576	21	5331
2026-01-07 12:22:01.77	235.88	9.90	-29.9	-33.3	12.1	2.39e-04	0	42	102	1048576	21	5325
2026-01-07 12:22:04.79	236.31	10.06	-29.9	-33.4	12.1	2.84e-04	0	42	102	1048576	21	5340
2026-01-07 12:22:07.81	236.74	10.22	-29.8	-33.8	12.0	3.78e-04	0	42	102	1048576	20	5700
2026-01-07 12:22:10.83	237.18	10.38	-30.0	-33.9	12.0	3.17e-04	0	42	102	1048576	20	5696
2026-01-07 12:22:13.86	237.63	10.54	-30.1	-34.3	11.8	3.58e-04	0	42	102	1048576	20	5819
2026-01-07 12:22:16.87	238.08	10.70	-29.9	-33.6	12.3	1.75e-04	0	43	102	1048576	20	5517
2026-01-07 12:22:19.89	238.53	10.86	-30.0	-33.7	12.4	1.52e-04	0	42	102	1048576	20	5526
2026-01-07 12:22:22.92	238.99	11.01	-29.6	-33.1	12.5	1.01e-04	0	42	102	1048576	20	5407
2026-01-07 12:22:25.95	239.45	11.17	-29.8	-33.1	12.8	6.48e-05	0	43	102	1048576	20	5292
2026-01-07 12:22:28.98	239.92	11.33	-29.9	-33.4	12.6	7.47e-05	0	42	102	1048576	20	5374
2026-01-07 12:22:32.00	240.40	11.49	-29.7	-32.9	13.0	3.20e-05	0	43	102	1048576	20	5148
2026-01-07 12:22:35.03	240.88	11.64	-29.7	-32.6	13.2	4.19e-05	0	43	102	1048576	20	5055
2026-01-07 12:22:38.06	241.36	11.80	-29.6	-32.4	13.4	1.14e-05	0	43	102	1048576	20	4972
2026-01-07 12:22:41.09	241.85	11.95	-29.7	-32.7	13.3	1.67e-05	0	43	102	1048576	20	5044
2026-01-07 12:22:44.10	242.34	12.10	-29.9	-33.1	13.0	3.66e-05	0	43	102	1048576	20	5204
2026-01-07 12:22:47.13	242.84	12.26	-29.8	-32.9	13.2	3.05e-05	0	43	102	1048576	20	5098
2026-01-07 12:22:50.15	243.34	12.41	-29.8	-32.6	13.3	1.60e-05	0	43	102	1048576	20	5016
2026-01-07 12:22:53.16	243.85	12.56	-29.7	-32.4	13.5	1.06e-05	0	43	102	1048576	20	4913
2026-01-07 12:22:56.19	244.36	12.70	-29.8	-32.5	13.5	1.52e-05	0	43	102	1048576	20	4952
2026-01-07 12:22:59.21	244.88	12.85	-29.9	-32.9	13.3	1.14e-05	0	43	102	1048576	20	5079
2026-01-07 12:23:02.23	245.40	13.00	-29.8	-32.6	13.4	1.14e-05	0	43	102	1048576	20	4980
2026-01-07 12:23:05.25	245.93	13.14	-29.9	-33.0	13.2	1.14e-05	0	43	102	1048576	20	5116
2026-01-07 12:23:08.27	246.46	13.29	-29.9	-32.9	13.3	2.51e-05	0	43	102	1048576	20	5089
2026-01-07 12:23:11.29	247.00	13.43	-29.9	-32.9	13.3	2.21e-05	0	43	102	1048576	20	5086
2026-01-07 12:23:14.31	247.54	13.57	-30.0	-33.1	13.2	3.35e-05	0	43	102	1048576	20	5155
2026-01-07 12:23:17.33	248.09	13.71	-30.0	-33.2	13.1	2.36e-05	0	43	102	1048576	20	5172
2026-01-07 12:23:20.35	248.64	13.84	-30.2	-33.8	12.8	4.57e-05	0	43	102	1048576	20	5402
2026-01-07 12:23:23.37	249.20	13.98	-30.3	-34.0	12.6	1.06e-04	0	43	102	1048576	20	5517
2026-01-07 12:23:26.39	249.76	14.11	-30.5	-34.0	12.3	1.78e-04	0	43	102	1048576	21	5380
2026-01-07 12:23:29.42	250.33	14.25	-30.6	-34.3	12.1	2.65e-04	0	43	102	1048576	21	5503
2026-01-07 12:23:32.44	250.90	14.38	-30.8	-34.8	11.8	4.93e-04	0	43	102	1048576	21	5730
2026-01-07 12:23:35.47	251.48	14.50	-30.8	-35.0	11.6	5.99e-04	0	43	102	1048576	21	5823
2026-01-07 12:23:38.49	252.07	14.63	-30.9	-35.2	11.5	7.35e-04	0	43	102	1048576	21	5885
2026-01-07 12:23:41.49	252.65	14.75	-31.0	-35.0	11.3	1.17e-03	0	43	102	1048576	22	5706
2026-01-07 12:23:44.50	253.24	14.87	-31.0	-35.0	11.3	1.09e-03	0	43	102	1048576	22	5724
2026-01-07 12:23:47.52	253.83	14.99	-31.0	-35.2	11.2	1.30e-03	0	43	102	1048576	22	5802
2026-01-07 12:23:50.54	254.43	15.11	-31.0	-35.2	11.0	1.82e-03	0	43	102	1048576	22	5868
2026-01-07 12:23:53.57	255.04	15.23	-30.8	-35.1	11.1	1.74e-03	0	43	102	1048576	22	5854
2026-01-07 12:23:56.59	255.65	15.34	-30.8	-35.0	11.1	1.44e-03	0	43	102	1048576	22	5831
2026-01-07 12:23:59.60	256.26	15.45	-30.8	-35.0	11.2	1.33e-03	0	43	102	1048576	22	5800
2026-01-07 12:24:02.61	256.88	15.55	-30.8	-34.7	11.5	8.41e-04	0	43	102	1048576	22	5631
2026-01-07 12:24:05.62	257.50	15.66	-30.6	-34.0	11.9	4.55e-04	0	43	102	1048576	22	5360
2026-01-07 12:24:08.64	258.12	15.76	-30.3	-33.8	12.3	1.52e-04	0	43	102	1048576	21	5427
2026-01-07 12:24:11.67	258.76	15.86	-30.1	-33.3	12.6	8.62e-05	0	43	102	1048576	21	5207
2026-01-07 12:24:14.68	259.39	15.95	-29.9	-32.9	12.9	4.19e-05	0	43	102	1048576	21	5063
2026-01-07 12:24:17.69	260.02	16.05	-29.9	-32.9	12.9	5.41e-05	0	43	102	1048576	21	5078
2026-01-07 12:24:20.72	260.67	16.14	-30.0	-32.8	13.0	3.58e-05	0	43	102	1048576	21	5009
2026-01-07 12:24:23.74	261.31	16.22	-29.8	-33.0	13.2	1.67e-05	0	43	102	1048576	20	5176
2026-01-07 12:24:26.75	261.96	16.31	-29.9	-33.0	13.3	1.52e-05	0	43	102	1048576	20	5152
2026-01-07 12:24:29.77	262.61	16.39	-30.1	-33.7	12.8	3.58e-05	0	43	102	1048576	20	5430
2026-01-07 12:24:32.79	263.27	16.46	-30.3	-34.0	12.7	9.38e-05	0	43	102	1048576	20	5530
2026-01-07 12:24:35.82	263.93	16.54	-30.4	-34.2	12.5	1.08e-04	0	43	102	1048576	20	5608
2026-01-07 12:24:38.84	264.59	16.61	-30.7	-34.5	12.0	4.34e-04	0	43	102	1048576	21	5621
2026-01-07 12:24:41.86	265.26	16.67	-30.3	-33.4	12.8	5.49e-05	0	43	102	1048576	21	5157
2026-01-07 12:24:44.88	265.93	16.74	-30.3	-33.4	12.8	7.17e-05	0	43	102	1048576	21	5157
2026-01-07 12:24:47.89	266.60	16.80	-30.4	-33.7	12.7	7.01e-05	0	43	102	1048576	21	5258
2026-01-07 12:24:50.91	267.27	16.85	-30.3	-33.5	12.8	5.87e-05	0	43	102	1048576	21	5170
2026-01-07 12:24:53.93	267.94	16.90	-30.4	-33.5	12.8	6.48e-05	0	43	102	1048576	21	5148
2026-01-07 12:24:56.94	268.62	16.95	-30.5	-34.0	12.5	9.23e-05	0	43	102	1048576	21	5352
2026-01-07 12:24:59.96	269.30	17.00	-30.6	-34.3	12.3	1.59e-04	0	43	102	1048576	21	5467
2026-01-07 12:25:02.98	269.98	17.04	-30.7	-34.4	12.2	2.33e-04	0	43	102	1048576	21	5527
2026-01-07 12:25:06.00	270.66	17.08	-30.3	-33.4	12.8	6.94e-05	0	43	102	1048576	21	5140
2026-01-07 12:25:09.02	271.35	17.11	-30.1	-32.6	13.5	1.06e-05	0	43	102	1048576	21	4824
2026-01-07 12:25:12.05	272.04	17.14	-30.1	-32.7	13.4	1.22e-05	0	43	102	1048576	21	4868
2026-01-07 12:25:15.08	272.73	17.17	-30.2	-32.9	13.2	2.05e-05	0	43	102	1048576	21	4943
2026-01-07 12:25:18.10	273.41	17.19	-30.5	-33.8	12.6	8.39e-05	0	43	102	1048576	21	5267
2026-01-07 12:25:21.12	274.10	17.21	-30.6	-34.0	12.5	1.23e-04	0	43	102	1048576	21	5372
2026-01-07 12:25:24.13	274.79	17.22	-30.6	-34.0	12.4	1.45e-04	0	43	102	1048576	21	5369
2026-01-07 12:25:27.15	275.48	17.23	-30.3	-33.4	12.9	4.04e-05	0	43	102	1048576	21	5111
2026-01-07 12:25:30.17	276.17	17.24	-30.4	-33.5	12.8	7.93e-05	0	43	102	1048576	21	5151
2026-01-07 12:25:33.19	276.86	17.24	-30.4	-33.6	12.7	5.64e-05	0	43	102	1048576	21	5191
2026-01-07 12:25:36.21	277.55	17.24	-30.4	-33.5	12.8	5.03e-05	0	43	102	1048576	21	5150
2026-01-07 12:25:39.24	278.24	17.23	-30.5	-33.8	12.6	9.30e-05	0	43	102	1048576	21	5262
2026-01-07 12:25:42.27	278.94	17.22	-30.1	-32.7	13.3	1.90e-05	0	43	102	1048576	21	4866
2026-01-07 12:25:45.30	279.63	17.21	-30.2	-32.9	13.2	2.13e-05	0	43	102	1048576	21	4944
2026-01-07 12:25:48.31	280.31	17.19	-30.3	-33.2	13.0	4.50e-05	0	43	102	1048576	21	5050
2026-01-07 12:25:51.34	281.00	17.17	-30.2	-33.1	13.1	3.35e-05	0	43	102	1048576	21	5009
2026-01-07 12:25:54.36	281.69	17.14	-30.2	-32.9	13.1	2.51e-05	0	43	102	1048576	21	4954
2026-01-07 12:25:57.37	282.37	17.11	-30.4	-33.5	12.8	5.11e-05	0	43	102	1048576	21	5154
2026-01-07 12:26:00.40	283.06	17.08	-30.4	-33.7	12.7	8.23e-05	0	43	102	1048576	21	5236
2026-01-07 12:26:03.42	283.74	17.04	-30.3	-33.4	12.9	4.73e-05	0	43	102	1048576	21	5129
2026-01-07 12:26:06.45	284.42	17.00	-30.4	-33.7	12.7	8.54e-05	0	43	102	1048576	21	5223
2026-01-07 12:26:09.46	285.10	16.95	-30.3	-33.4	12.9	5.18e-05	0	43	102	1048576	21	5115
2026-01-07 12:26:12.48	285.78	16.91	-30.4	-33.5	12.8	5.26e-05	0	43	102	1048576	21	5172
2026-01-07 12:26:15.51	286.45	16.85	-30.2	-33.0	13.1	2.59e-05	0	43	102	1048576	21	4985
2026-01-07 12:26:18.52	287.12	16.80	-30.3	-33.4	12.9	4.57e-05	0	43	102	1048576	21	5113
2026-01-07 12:26:21.55	287.79	16.74	-30.4	-33.7	12.6	1.14e-04	0	43	102	1048576	21	5251
2026-01-07 12:26:24.57	288.46	16.68	-30.1	-32.7	13.3	1.60e-05	0	43	102	1048576	21	4875
2026-01-07 12:26:27.59	289.12	16.61	-30.1	-32.8	13.2	2.51e-05	0	43	102	1048576	21	4897
2026-01-07 12:26:30.61	289.78	16.54	-29.8	-32.3	13.9	2.20e-06	0	43	102	1048576	20	4827
2026-01-07 12:26:33.63	290.44	16.47	-29.7	-32.3	13.9	2.20e-06	0	43	102	1048576	20	4812
2026-01-07 12:26:36.66	291.10	16.39	-29.8	-32.5	13.7	6.80e-06	0	43	102	1048576	20	4897
2026-01-07 12:26:39.68	291.75	16.31	-29.6	-31.9	14.1	1.50e-06	0	43	102	1048576	20	4697
2026-01-07 12:26:42.70	292.39	16.23	-29.7	-32.2	13.9	4.50e-06	0	43	102	1048576	20	4802
2026-01-07 12:26:45.71	293.04	16.14	-29.9	-32.7	13.6	5.30e-06	0	43	102	1048576	20	4986
2026-01-07 12:26:48.74	293.68	16.05	-29.7	-32.3	13.9	7.00e-07	0	43	102	1048576	20	4825
2026-01-07 12:26:51.76	294.31	15.96	-29.5	-31.7	14.3	1.50e-06	0	43	102	1048576	20	4613
2026-01-07 12:26:54.78	294.95	15.86	-29.4	-31.3	14.5	0.00e+00	0	43	102	1048576	20	4483
2026-01-07 12:26:57.80	295.58	15.77	-29.3	-31.7	14.6	0.00e+00	0	43	102	1048576	19	4715
2026-01-07 12:27:00.83	296.20	15.66	-29.4	-32.0	14.5	0.00e+00	0	43	102	1048576	19	4814
2026-01-07 12:27:03.85	296.82	15.56	-29.7	-32.6	14.1	2.20e-06	0	43	102	1048576	19	5038
2026-01-07 12:27:06.86	297.44	15.45	-29.7	-32.6	14.1	3.80e-06	0	43	102	1048576	19	5023
2026-01-07 12:27:09.87	298.04	15.35	-29.7	-32.7	14.0	1.50e-06	0	43	102	1048576	19	5080
2026-01-07 12:27:12.89	298.65	15.23	-29.4	-32.0	14.4	7.00e-07	0	43	102	1048576	19	4823
2026-01-07 12:27:15.92	299.26	15.12	-29.5	-32.0	14.4	7.00e-07	0	43	102	1048576	19	4836
2026-01-07 12:27:18.93	299.85	15.00	-30.0	-32.9	13.5	1.50e-06	0	43	102	1048576	20	5061
2026-01-07 12:27:21.94	300.44	14.89	-30.0	-33.0	13.4	1.75e-05	0	43	102	1048576	20	5090
2026-01-07 12:27:24.95	301.03	14.77	-30.0	-33.0	13.4	9.90e-06	0	43	102	1048576	20	5084
2026-01-07 12:27:27.97	301.61	14.64	-29.9	-32.9	13.5	9.90e-06	0	43	102	1048576	20	5036
2026-01-07 12:27:30.98	302.19	14.52	-30.0	-33.2	13.3	2.28e-05	0	43	102	1048576	20	5154
2026-01-07 12:27:33.95	302.76	14.39	-29.6	-32.0	14.0	3.80e-06	0	43	102	1048576	20	4744
2026-01-07 12:27:36.97	303.33	14.27	-29.9	-32.8	13.5	7.60e-06	0	43	102	1048576	20	5031
2026-01-07 12:27:39.99	303.89	14.13	-30.4	-34.2	12.5	5.41e-05	0	43	102	1048576	20	5570
2026-01-07 12:27:43.01	304.45	14.00	-30.8	-34.9	11.7	4.14e-04	0	43	102	1048576	21	5751
2026-01-07 12:27:46.02	305.00	13.87	-31.0	-35.4	11.3	1.02e-03	0	43	102	1048576	21	6018
2026-01-07 12:27:49.03	305.55	13.73	-31.1	-35.5	10.9	1.81e-03	0	43	102	1048576	22	5920
2026-01-07 12:27:52.04	306.10	13.60	-31.1	-35.3	11.1	1.48e-03	0	43	102	1048576	22	5817
2026-01-07 12:27:55.05	306.64	13.46	-30.8	-34.5	11.6	5.87e-04	0	43	102	1048576	22	5484
2026-01-07 12:27:58.07	307.17	13.32	-30.9	-34.5	11.6	6.01e-04	0	44	102	1048576	22	5507
2026-01-07 12:28:01.09	307.70	13.17	-30.8	-34.5	11.6	6.61e-04	0	43	102	1048576	22	5490
2026-01-07 12:28:04.11	308.23	13.03	-31.2	-35.6	10.8	2.39e-03	0	44	102	1048576	22	6003
2026-01-07 12:28:07.12	308.75	12.89	-31.3	-36.0	10.5	4.32e-03	0	43	102	1048576	22	6180
2026-01-07 12:28:10.15	309.26	12.74	-31.4	-36.4	10.2	5.50e-03	0	43	102	1048576	22	6385
2026-01-07 12:28:13.16	309.77	12.59	-31.1	-35.2	11.1	1.74e-03	0	43	102	1048576	22	5797
2026-01-07 12:28:16.18	310.28	12.45	-30.9	-34.8	11.4	1.20e-03	0	43	102	1048576	22	5602
2026-01-07 12:28:19.20	310.78	12.30	-30.9	-34.6	11.5	7.39e-04	0	43	102	1048576	22	5555
2026-01-07 12:28:22.22	311.27	12.15	-30.6	-33.7	12.1	3.42e-04	0	44	102	1048576	22	5165
2026-01-07 12:28:25.23	311.76	12.00	-30.2	-33.1	12.8	8.62e-05	0	43	102	1048576	21	5047
2026-01-07 12:28:28.26	312.25	11.84	-30.3	-33.3	12.7	6.25e-05	0	43	102	1048576	21	5106
2026-01-07 12:28:31.27	312.73	11.69	-30.5	-33.9	12.3	1.49e-04	0	43	102	1048576	21	5363
2026-01-07 12:28:34.28	313.20	11.54	-30.6	-34.3	12.0	2.94e-04	0	43	102	1048576	21	5511
2026-01-07 12:28:37.30	313.68	11.38	-30.7	-34.8	11.6	6.09e-04	0	43	102	1048576	21	5734
2026-01-07 12:28:40.32	314.14	11.23	-30.8	-35.0	11.5	8.81e-04	0	43	102	1048576	21	5828
2026-01-07 12:28:43.33	314.60	11.07	-30.7	-34.7	11.7	6.17e-04	0	43	102	1048576	21	5691
2026-01-07 12:28:46.35	315.06	10.92	-30.7	-34.8	11.6	8.96e-04	0	43	102	1048576	21	5754
2026-01-07 12:28:49.36	315.51	10.76	-30.2	-33.1	12.7	6.40e-05	0	43	102	1048576	21	5060
2026-01-07 12:28:52.38	315.96	10.60	-30.3	-33.5	12.5	1.32e-04	0	43	102	1048576	21	5198
2026-01-07 12:28:55.40	316.40	10.45	-30.4	-33.7	12.3	1.69e-04	0	44	102	1048576	21	5294
2026-01-07 12:28:58.41	316.84	10.29	-30.4	-33.9	12.3	1.76e-04	0	44	102	1048576	21	5343
2026-01-07 12:29:01.44	317.27	10.13	-30.6	-34.3	11.9	5.33e-04	0	43	102	1048576	21	5529
2026-01-07 12:29:04.46	317.70	9.97	-30.5	-34.0	12.1	2.46e-04	0	43	102	1048576	21	5415
2026-01-07 12:29:07.48	318.13	9.81	-30.6	-34.3	11.9	4.75e-04	0	43	102	1048576	21	5537
2026-01-07 12:29:10.49	318.55	9.65	-30.2	-33.1	12.7	8.62e-05	0	43	102	1048576	21	5056
2026-01-07 12:29:13.52	318.96	9.49	-30.1	-33.1	12.7	7.78e-05	0	43	102	1048576	21	5035
2026-01-07 12:29:16.54	319.37	9.33	-30.4	-33.9	12.1	1.90e-04	0	43	102	1048576	21	5367
2026-01-07 12:29:19.56	319.78	9.17	-30.5	-34.1	12.0	3.17e-04	0	43	102	1048576	21	5471
2026-01-07 12:29:22.57	320.18	9.01	-30.4	-34.0	12.0	3.89e-04	0	43	102	1048576	21	5408
2026-01-07 12:29:25.59	320.58	8.85	-30.4	-33.8	12.1	3.03e-04	0	43	102	1048576	21	5358
2026-01-07 12:29:28.61	320.98	8.69	-30.3	-33.7	12.2	2.55e-04	0	43	102	1048576	21	5316
2026-01-07 12:29:31.63	321.37	8.52	-30.5	-34.3	11.7	5.01e-04	0	43	102	1048576	21	5560
2026-01-07 12:29:34.65	321.75	8.36	-30.8	-35.1	11.2	1.11e-03	0	43	102	1048576	21	5904
2026-01-07 12:29:37.67	322.13	8.20	-30.7	-35.0	11.2	1.33e-03	0	44	102	1048576	21	5884
2026-01-07 12:29:40.70	322.51	8.04	-30.8	-35.3	11.0	1.77e-03	0	43	102	1048576	21	6012
2026-01-07 12:29:43.70	322.88	7.88	-30.8	-35.0	11.1	1.66e-03	0	44	102	1048576	21	5901
2026-01-07 12:29:46.72	323.25	7.72	-31.0	-35.5	10.4	4.09e-03	0	43	102	1048576	22	6036
2026-01-07 12:29:49.74	323.62	7.56	-31.1	-35.7	10.3	5.63e-03	0	43	102	1048576	22	6127
2026-01-07 12:29:52.76	323.98	7.40	-31.0	-35.3	10.6	3.27e-03	0	43	102	1048576	22	5921
2026-01-07 12:29:55.79	324.34	7.23	-31.0	-35.4	10.4	6.17e-03	0	43	102	1048576	22	5976
2026-01-07 12:29:58.81	324.70	7.07	-30.9	-35.2	10.6	2.54e-03	0	43	102	1048576	22	5892
2026-01-07 12:30:01.83	325.05	6.91	-33.7	-48.0	3.8	1.49e+00	0	44	104	1048576	27	18587

#Closed at: 2026-01-07 12:30:02
#Recorded file [1 MB]: D:/data/31010_260107_152109.dat