passes_logs/2026/01/07/R2M6_AANII_01/R2M6_AANII_01__20260107_125825_FENGYUN_3D_rec.log

#Pass ID: 20260107_125825_FENGYUN 3D
#Satellite: FENGYUN 3D
#Configuration: FENGYUN 3D
#almurnet v.1.7.20240730
#Start time: 2026-01-07 12:58:25

#Version: 2.2.20231116
#Station: R2M6_AANII_01
#Location: 30.233357 lon 59.946436 lat
#TLE: 1 43010U 17072A   26006.26440730  .00000376  00000+0  19957-3 0  9994
#TLE: 2 43010  98.9925 337.9455 0002045 123.9195 236.2175 14.19693586422016

#Time	Az	El	Level	Level2	SNR	BER	BlckErr	Temp	State	Recorded	gain1	gain2
2026-01-07 12:58:25.16	179.68	6.97	-28.1	-30.5	5.7	7.74e-01	0	41	0	0	16	4743
2026-01-07 12:58:28.17	179.80	7.20	-29.5	-32.4	10.1	5.45e-03	0	41	102	1048576	19	5057
2026-01-07 12:58:31.19	179.93	7.43	-28.8	-30.6	11.3	1.14e-03	0	41	102	1048576	19	4435
2026-01-07 12:58:34.21	180.06	7.66	-27.4	-28.8	13.4	1.94e-05	0	41	102	1048576	16	4206
2026-01-07 12:58:37.22	180.18	7.89	-26.6	-27.9	14.4	0.00e+00	0	41	102	1048576	14	4180
2026-01-07 12:58:40.24	180.31	8.13	-26.5	-27.6	14.6	0.00e+00	0	41	102	1048576	14	4084
2026-01-07 12:58:43.26	180.44	8.37	-26.4	-27.3	14.7	0.00e+00	0	42	102	1048576	14	4019
2026-01-07 12:58:46.28	180.58	8.61	-26.3	-27.2	14.9	0.00e+00	0	42	102	1048576	14	3990
2026-01-07 12:58:49.30	180.71	8.85	-26.3	-27.7	14.8	0.00e+00	0	42	102	1048576	13	4240
2026-01-07 12:58:52.31	180.85	9.09	-26.3	-27.7	14.9	1.60e-05	0	42	102	1048576	13	4217
2026-01-07 12:58:55.33	180.99	9.34	-26.4	-28.0	14.7	9.10e-06	0	42	102	1048576	13	4307
2026-01-07 12:58:58.35	181.13	9.59	-26.4	-27.8	14.8	0.00e+00	0	42	102	1048576	13	4260
2026-01-07 12:59:01.37	181.28	9.84	-26.5	-28.2	14.6	0.00e+00	0	42	102	1048576	13	4370
2026-01-07 12:59:04.38	181.43	10.09	-26.5	-28.1	14.7	1.10e-06	0	42	102	1048576	13	4342
2026-01-07 12:59:07.41	181.58	10.35	-26.6	-28.3	14.6	0.00e+00	0	42	102	1048576	13	4393
2026-01-07 12:59:10.42	181.73	10.61	-26.4	-27.8	14.8	0.00e+00	0	42	102	1048576	13	4264
2026-01-07 12:59:13.45	181.88	10.87	-26.3	-27.6	15.0	4.50e-06	0	42	102	1048576	13	4204
2026-01-07 12:59:16.46	182.04	11.13	-26.2	-27.4	15.2	0.00e+00	0	42	102	1048576	13	4132
2026-01-07 12:59:19.48	182.20	11.40	-26.0	-27.0	15.4	0.00e+00	0	42	102	1048576	13	4027
2026-01-07 12:59:22.49	182.36	11.67	-25.8	-26.6	15.6	0.00e+00	0	42	102	1048576	13	3945
2026-01-07 12:59:25.52	182.53	11.94	-25.9	-26.7	15.6	0.00e+00	0	42	102	1048576	13	3958
2026-01-07 12:59:28.53	182.70	12.21	-25.8	-27.0	15.7	0.00e+00	0	42	102	1048576	12	4152
2026-01-07 12:59:31.55	182.87	12.49	-25.7	-26.9	15.7	0.00e+00	0	43	102	1048576	12	4119
2026-01-07 12:59:34.58	183.04	12.77	-25.9	-27.2	15.6	0.00e+00	0	42	102	1048576	12	4204
2026-01-07 12:59:37.61	183.22	13.06	-25.7	-26.9	15.8	0.00e+00	0	42	102	1048576	12	4106
2026-01-07 12:59:40.64	183.40	13.35	-25.7	-26.9	15.8	0.00e+00	0	42	102	1048576	12	4118
2026-01-07 12:59:43.66	183.59	13.64	-25.6	-26.6	16.0	0.00e+00	0	43	102	1048576	12	4033
2026-01-07 12:59:46.68	183.77	13.93	-25.6	-26.7	16.0	0.00e+00	0	43	102	1048576	12	4053
2026-01-07 12:59:49.69	183.96	14.23	-25.4	-26.2	16.2	0.00e+00	0	43	102	1048576	12	3928
2026-01-07 12:59:52.72	184.16	14.53	-25.3	-25.9	16.4	0.00e+00	0	43	102	1048576	12	3865
2026-01-07 12:59:55.74	184.36	14.83	-25.3	-25.9	16.4	0.00e+00	0	43	102	1048576	12	3874
2026-01-07 12:59:58.76	184.56	15.14	-25.4	-26.2	16.3	0.00e+00	0	43	102	1048576	12	3929
2026-01-07 13:00:01.78	184.77	15.45	-25.7	-26.8	16.0	0.00e+00	0	43	102	1048576	12	4089
2026-01-07 13:00:04.79	184.98	15.77	-25.6	-26.7	16.0	0.00e+00	0	43	102	1048576	12	4055
2026-01-07 13:00:07.80	185.19	16.08	-25.4	-26.2	16.3	0.00e+00	0	43	102	1048576	12	3939
2026-01-07 13:00:10.83	185.41	16.41	-25.3	-26.0	16.5	0.00e+00	0	43	102	1048576	12	3876
2026-01-07 13:00:13.85	185.64	16.73	-25.1	-25.9	16.8	0.00e+00	0	43	102	1048576	11	3966
2026-01-07 13:00:16.86	185.87	17.06	-25.0	-25.8	16.9	0.00e+00	0	43	102	1048576	11	3929
2026-01-07 13:00:19.88	186.10	17.40	-24.8	-25.4	17.1	0.00e+00	0	43	102	1048576	11	3838
2026-01-07 13:00:22.91	186.34	17.74	-24.7	-25.5	17.3	0.00e+00	0	43	102	1048576	10	3980
2026-01-07 13:00:25.93	186.58	18.08	-24.6	-25.4	17.4	0.00e+00	0	43	102	1048576	10	3945
2026-01-07 13:00:28.95	186.83	18.43	-24.5	-25.3	17.5	0.00e+00	0	43	102	1048576	10	3913
2026-01-07 13:00:31.97	187.09	18.78	-24.6	-25.5	17.4	0.00e+00	0	43	102	1048576	10	3963
2026-01-07 13:00:34.98	187.35	19.13	-24.6	-25.5	17.4	0.00e+00	0	43	102	1048576	10	3973
2026-01-07 13:00:38.00	187.61	19.49	-24.5	-25.2	17.6	0.00e+00	0	43	102	1048576	10	3890
2026-01-07 13:00:41.01	187.88	19.86	-24.3	-24.8	17.8	0.00e+00	0	43	102	1048576	10	3804
2026-01-07 13:00:44.03	188.16	20.23	-24.1	-24.8	18.0	0.00e+00	0	43	102	1048576	9	3911
2026-01-07 13:00:47.06	188.45	20.60	-24.2	-25.1	17.9	0.00e+00	0	43	102	1048576	9	3984
2026-01-07 13:00:50.08	188.74	20.98	-24.1	-24.9	18.0	0.00e+00	0	43	102	1048576	9	3928
2026-01-07 13:00:53.10	189.04	21.37	-24.0	-24.7	18.1	0.00e+00	0	43	102	1048576	9	3884
2026-01-07 13:00:56.11	189.35	21.76	-24.0	-24.6	18.2	0.00e+00	0	43	102	1048576	9	3868
2026-01-07 13:00:59.13	189.66	22.15	-23.7	-24.5	18.5	0.00e+00	0	43	102	1048576	8	3948
2026-01-07 13:01:02.13	189.98	22.55	-23.9	-24.9	18.3	0.00e+00	0	43	102	1048576	8	4049
2026-01-07 13:01:05.15	190.31	22.96	-24.1	-25.3	18.1	0.00e+00	0	43	102	1048576	8	4140
2026-01-07 13:01:08.18	190.65	23.37	-24.0	-25.1	18.2	0.00e+00	0	43	102	1048576	8	4099
2026-01-07 13:01:11.21	191.00	23.79	-23.9	-24.9	18.3	0.00e+00	0	43	102	1048576	8	4047
2026-01-07 13:01:14.22	191.35	24.21	-23.9	-24.8	18.4	0.00e+00	0	43	102	1048576	8	4017
2026-01-07 13:01:17.24	191.72	24.64	-23.6	-24.2	18.7	0.00e+00	0	43	102	1048576	8	3870
2026-01-07 13:01:20.26	192.09	25.08	-23.3	-23.7	19.0	0.00e+00	0	43	102	1048576	8	3751
2026-01-07 13:01:23.28	192.48	25.52	-23.3	-23.6	19.0	0.00e+00	0	43	102	1048576	8	3742
2026-01-07 13:01:26.30	192.88	25.97	-23.2	-23.9	19.1	0.00e+00	0	43	102	1048576	7	3900
2026-01-07 13:01:29.33	193.29	26.42	-23.1	-23.8	19.1	3.40e-06	0	43	102	1048576	7	3880
2026-01-07 13:01:32.33	193.70	26.88	-23.2	-23.9	19.1	0.00e+00	0	43	102	1048576	7	3915
2026-01-07 13:01:35.35	194.13	27.34	-23.3	-24.2	18.9	0.00e+00	0	43	102	1048576	7	3986
2026-01-07 13:01:38.37	194.58	27.82	-23.3	-24.1	19.0	0.00e+00	0	43	102	1048576	7	3966
2026-01-07 13:01:41.39	195.03	28.29	-23.1	-23.8	19.2	0.00e+00	0	43	102	1048576	7	3872
2026-01-07 13:01:44.41	195.50	28.78	-23.2	-24.0	19.1	0.00e+00	0	43	102	1048576	7	3926
2026-01-07 13:01:47.42	195.99	29.27	-23.1	-23.7	19.2	0.00e+00	0	43	102	1048576	7	3868
2026-01-07 13:01:50.45	196.49	29.77	-23.4	-24.3	19.0	0.00e+00	0	43	102	1048576	7	3991
2026-01-07 13:01:53.46	197.00	30.27	-23.2	-23.8	19.2	0.00e+00	0	43	102	1048576	7	3891
2026-01-07 13:01:56.49	197.53	30.78	-23.0	-23.5	19.4	0.00e+00	0	43	102	1048576	7	3814
2026-01-07 13:01:59.51	198.08	31.30	-23.3	-24.2	19.0	0.00e+00	0	43	102	1048576	7	3973
2026-01-07 13:02:02.52	198.64	31.82	-23.2	-24.0	19.1	0.00e+00	0	43	102	1048576	7	3923
2026-01-07 13:02:05.54	199.22	32.35	-23.3	-24.1	19.1	0.00e+00	0	43	102	1048576	7	3954
2026-01-07 13:02:08.56	199.82	32.89	-23.2	-24.0	19.1	0.00e+00	0	43	102	1048576	7	3926
2026-01-07 13:02:11.59	200.45	33.43	-23.1	-23.6	19.4	0.00e+00	0	43	102	1048576	7	3837
2026-01-07 13:02:14.61	201.09	33.98	-22.8	-23.5	19.7	0.00e+00	0	43	102	1048576	6	3912
2026-01-07 13:02:17.64	201.76	34.54	-22.8	-23.6	19.7	0.00e+00	0	43	102	1048576	6	3934
2026-01-07 13:02:20.66	202.44	35.10	-22.8	-23.5	19.7	0.00e+00	0	43	102	1048576	6	3930
2026-01-07 13:02:23.68	203.15	35.66	-22.5	-23.0	19.9	0.00e+00	0	43	102	1048576	6	3800
2026-01-07 13:02:26.70	203.89	36.23	-22.6	-23.1	19.8	0.00e+00	0	43	102	1048576	6	3833
2026-01-07 13:02:29.72	204.65	36.81	-23.0	-23.9	19.5	0.00e+00	0	43	102	1048576	6	4021
2026-01-07 13:02:32.75	205.44	37.39	-22.9	-23.9	19.5	0.00e+00	0	43	102	1048576	6	4017
2026-01-07 13:02:35.77	206.25	37.97	-22.7	-23.4	19.8	0.00e+00	0	43	102	1048576	6	3893
2026-01-07 13:02:38.79	207.10	38.56	-22.9	-23.7	19.7	0.00e+00	0	43	102	1048576	6	3967
2026-01-07 13:02:41.82	207.97	39.15	-23.0	-24.0	19.5	0.00e+00	0	43	102	1048576	6	4048
2026-01-07 13:02:44.83	208.88	39.74	-22.7	-23.4	19.8	0.00e+00	0	43	102	1048576	6	3895
2026-01-07 13:02:47.85	209.82	40.34	-22.6	-23.2	19.9	0.00e+00	0	43	102	1048576	6	3855
2026-01-07 13:02:50.88	210.80	40.93	-22.8	-23.5	19.8	0.00e+00	0	43	102	1048576	6	3910
2026-01-07 13:02:53.88	211.80	41.53	-22.9	-23.8	19.6	0.00e+00	0	43	102	1048576	6	3978
2026-01-07 13:02:56.90	212.85	42.12	-22.6	-23.1	20.2	0.00e+00	0	43	102	1048576	6	3797
2026-01-07 13:02:59.92	213.94	42.72	-23.1	-24.1	19.6	0.00e+00	0	43	102	1048576	6	4054
2026-01-07 13:03:02.94	215.06	43.31	-23.0	-23.9	19.8	0.00e+00	0	43	102	1048576	6	4001
2026-01-07 13:03:05.96	216.23	43.90	-23.0	-24.0	19.7	0.00e+00	0	43	102	1048576	6	4014
2026-01-07 13:03:08.98	217.44	44.48	-23.2	-24.3	19.6	0.00e+00	0	43	102	1048576	6	4085
2026-01-07 13:03:12.00	218.70	45.06	-23.3	-24.6	19.4	0.00e+00	0	43	102	1048576	6	4160
2026-01-07 13:03:15.02	220.00	45.63	-23.1	-24.1	19.7	0.00e+00	0	43	102	1048576	6	4051
2026-01-07 13:03:18.05	221.36	46.20	-23.6	-24.6	19.1	0.00e+00	0	43	102	1048576	7	4048
2026-01-07 13:03:21.07	222.76	46.75	-23.4	-24.2	19.4	0.00e+00	0	43	102	1048576	7	3957
2026-01-07 13:03:24.09	224.20	47.29	-24.0	-25.5	18.8	0.00e+00	0	43	102	1048576	7	4271
2026-01-07 13:03:27.11	225.70	47.82	-23.1	-23.5	19.8	0.00e+00	0	43	102	1048576	7	3794
2026-01-07 13:03:30.13	227.25	48.33	-23.2	-23.7	19.7	0.00e+00	0	44	102	1048576	7	3852
2026-01-07 13:03:33.16	228.85	48.83	-23.3	-24.0	19.5	0.00e+00	0	43	102	1048576	7	3901
2026-01-07 13:03:36.17	230.49	49.30	-23.3	-24.0	19.5	0.00e+00	0	43	102	1048576	7	3910
2026-01-07 13:03:39.19	232.19	49.76	-23.6	-24.6	19.2	0.00e+00	0	43	102	1048576	7	4052
2026-01-07 13:03:42.20	233.94	50.19	-23.5	-24.0	19.3	0.00e+00	0	43	102	1048576	8	3815
2026-01-07 13:03:45.21	235.73	50.60	-23.6	-24.1	19.3	0.00e+00	0	43	102	1048576	8	3820
2026-01-07 13:03:48.23	237.57	50.98	-23.7	-24.4	19.1	0.00e+00	0	44	102	1048576	8	3904
2026-01-07 13:03:51.25	239.46	51.34	-23.2	-23.7	19.7	0.00e+00	0	44	102	1048576	7	3845
2026-01-07 13:03:54.27	241.40	51.66	-23.0	-23.4	19.8	0.00e+00	0	43	102	1048576	7	3776
2026-01-07 13:03:57.30	243.38	51.95	-23.1	-23.6	19.8	0.00e+00	0	43	102	1048576	7	3807
2026-01-07 13:04:00.31	245.38	52.21	-23.7	-24.8	19.2	0.00e+00	0	43	102	1048576	7	4101
2026-01-07 13:04:03.34	247.43	52.43	-23.6	-24.6	19.2	0.00e+00	0	43	102	1048576	7	4049
2026-01-07 13:04:06.35	249.49	52.62	-23.8	-25.1	19.0	1.10e-06	0	43	102	1048576	7	4190
2026-01-07 13:04:09.38	251.59	52.77	-23.5	-24.5	19.3	5.70e-06	0	43	102	1048576	7	4035
2026-01-07 13:04:12.40	253.70	52.87	-23.5	-24.4	19.3	1.10e-06	0	43	102	1048576	7	4010
2026-01-07 13:04:15.41	255.82	52.94	-23.8	-25.2	19.0	2.20e-06	0	43	102	1048576	7	4188
2026-01-07 13:04:18.43	257.95	52.98	-23.7	-24.4	19.1	3.40e-06	0	43	102	1048576	8	3901
2026-01-07 13:04:21.45	260.08	52.97	-24.5	-25.6	18.3	0.00e+00	0	43	102	1048576	9	4083
2026-01-07 13:04:24.48	262.22	52.92	-24.1	-24.8	18.7	0.00e+00	0	43	102	1048576	9	3884
2026-01-07 13:04:27.49	264.33	52.83	-24.2	-24.8	18.7	0.00e+00	0	43	102	1048576	9	3886
2026-01-07 13:04:30.51	266.43	52.70	-24.6	-25.8	18.2	0.00e+00	0	43	102	1048576	9	4133
2026-01-07 13:04:33.53	268.51	52.54	-23.8	-24.1	19.0	0.00e+00	0	43	102	1048576	9	3716
2026-01-07 13:04:36.55	270.57	52.33	-23.4	-23.8	19.5	0.00e+00	0	43	102	1048576	8	3752
2026-01-07 13:04:39.57	272.59	52.10	-23.7	-24.9	19.1	0.00e+00	0	43	102	1048576	7	4119
2026-01-07 13:04:42.60	274.59	51.82	-23.8	-24.5	19.1	0.00e+00	0	43	102	1048576	8	3921
2026-01-07 13:04:45.61	276.54	51.52	-23.7	-24.3	19.2	0.00e+00	0	43	102	1048576	8	3875
2026-01-07 13:04:48.63	278.45	51.18	-23.6	-24.1	19.3	0.00e+00	0	43	102	1048576	8	3826
2026-01-07 13:04:51.65	280.31	50.81	-23.6	-24.2	19.3	0.00e+00	0	43	102	1048576	8	3844
2026-01-07 13:04:54.67	282.14	50.42	-23.3	-23.6	19.6	0.00e+00	0	43	102	1048576	8	3700
2026-01-07 13:04:57.70	283.91	50.00	-23.9	-24.9	18.9	0.00e+00	0	43	102	1048576	8	4022
2026-01-07 13:05:00.72	285.64	49.56	-23.1	-23.7	19.8	0.00e+00	0	44	102	1048576	7	3831
2026-01-07 13:05:03.74	287.31	49.09	-23.2	-23.8	19.7	0.00e+00	0	43	102	1048576	7	3857
2026-01-07 13:05:06.77	288.94	48.61	-23.1	-23.6	19.8	0.00e+00	0	43	102	1048576	7	3821
2026-01-07 13:05:09.79	290.51	48.10	-23.4	-24.3	19.4	0.00e+00	0	43	102	1048576	7	3989
2026-01-07 13:05:12.81	292.03	47.59	-23.5	-24.5	19.3	0.00e+00	0	43	102	1048576	7	4032
2026-01-07 13:05:15.82	293.50	47.06	-23.3	-24.0	19.6	0.00e+00	0	44	102	1048576	7	3907
2026-01-07 13:05:18.84	294.92	46.51	-23.2	-23.8	19.7	0.00e+00	0	43	102	1048576	7	3861
2026-01-07 13:05:21.86	296.29	45.96	-23.4	-24.2	19.5	0.00e+00	0	43	102	1048576	7	3971
2026-01-07 13:05:24.87	297.61	45.39	-23.6	-24.6	19.3	0.00e+00	0	43	102	1048576	7	4063
2026-01-07 13:05:27.90	298.89	44.82	-23.4	-24.3	19.5	0.00e+00	0	43	102	1048576	7	3972
2026-01-07 13:05:30.92	300.13	44.24	-23.3	-24.1	19.6	0.00e+00	0	44	102	1048576	7	3936
2026-01-07 13:05:33.94	301.32	43.65	-23.6	-24.7	19.3	0.00e+00	0	43	102	1048576	7	4070
2026-01-07 13:05:36.94	302.46	43.07	-23.9	-25.3	18.9	0.00e+00	0	44	102	1048576	7	4226
2026-01-07 13:05:39.97	303.57	42.48	-23.0	-23.4	19.9	0.00e+00	0	43	102	1048576	7	3777
2026-01-07 13:05:42.99	304.63	41.88	-23.1	-23.6	19.8	0.00e+00	0	44	102	1048576	7	3825
2026-01-07 13:05:46.02	305.67	41.29	-23.3	-24.0	19.6	0.00e+00	0	43	102	1048576	7	3908
2026-01-07 13:05:49.03	306.66	40.70	-22.9	-23.1	20.0	0.00e+00	0	44	102	1048576	7	3709
2026-01-07 13:05:52.06	307.62	40.10	-22.7	-23.3	20.1	0.00e+00	0	44	102	1048576	6	3860
2026-01-07 13:05:55.09	308.54	39.51	-22.9	-23.6	20.0	0.00e+00	0	44	102	1048576	6	3922
2026-01-07 13:05:58.11	309.43	38.92	-22.9	-23.7	19.9	0.00e+00	0	43	102	1048576	6	3944
2026-01-07 13:06:01.13	310.29	38.33	-22.7	-23.3	20.1	0.00e+00	0	43	102	1048576	6	3866
2026-01-07 13:06:04.15	311.12	37.75	-22.6	-23.1	20.2	0.00e+00	0	44	102	1048576	6	3804
2026-01-07 13:06:07.17	311.92	37.17	-23.0	-23.8	19.9	0.00e+00	0	44	102	1048576	6	3973
2026-01-07 13:06:10.19	312.70	36.60	-23.0	-23.9	19.8	0.00e+00	0	44	102	1048576	6	3993
2026-01-07 13:06:13.20	313.44	36.03	-22.9	-23.6	20.0	0.00e+00	0	43	102	1048576	6	3926
2026-01-07 13:06:16.22	314.16	35.47	-22.9	-23.8	19.9	0.00e+00	0	43	102	1048576	6	3972
2026-01-07 13:06:19.23	314.86	34.91	-23.0	-24.0	19.8	0.00e+00	0	43	102	1048576	6	4014
2026-01-07 13:06:22.25	315.54	34.35	-22.9	-23.7	19.9	0.00e+00	0	43	102	1048576	6	3957
2026-01-07 13:06:25.26	316.19	33.81	-23.0	-24.0	19.8	0.00e+00	0	43	102	1048576	6	4014
2026-01-07 13:06:28.28	316.82	33.26	-23.2	-24.3	19.6	0.00e+00	0	43	102	1048576	6	4081
2026-01-07 13:06:31.29	317.43	32.73	-23.0	-24.0	19.7	0.00e+00	0	44	102	1048576	6	4011
2026-01-07 13:06:34.32	318.02	32.20	-23.2	-24.2	19.6	0.00e+00	0	43	102	1048576	6	4076
2026-01-07 13:06:37.34	318.60	31.67	-23.2	-24.4	19.5	0.00e+00	0	44	102	1048576	6	4125
2026-01-07 13:06:40.36	319.15	31.15	-23.5	-24.5	19.2	0.00e+00	0	44	102	1048576	7	4045
2026-01-07 13:06:43.38	319.69	30.64	-23.6	-24.7	19.1	0.00e+00	0	43	102	1048576	7	4094
2026-01-07 13:06:46.41	320.22	30.14	-23.6	-24.7	19.1	0.00e+00	0	43	102	1048576	7	4088
2026-01-07 13:06:49.43	320.73	29.64	-23.5	-24.5	19.2	0.00e+00	0	44	102	1048576	7	4041
2026-01-07 13:06:52.45	321.22	29.14	-23.6	-24.6	19.1	0.00e+00	0	44	102	1048576	7	4059
2026-01-07 13:06:55.46	321.69	28.66	-23.3	-24.1	19.4	0.00e+00	0	43	102	1048576	7	3947
2026-01-07 13:06:58.48	322.16	28.18	-23.4	-24.3	19.3	0.00e+00	0	43	102	1048576	7	3981
2026-01-07 13:07:01.50	322.61	27.71	-23.4	-24.2	19.3	0.00e+00	0	44	102	1048576	7	3970
2026-01-07 13:07:04.52	323.05	27.24	-23.6	-24.6	19.1	0.00e+00	0	44	102	1048576	7	4068
2026-01-07 13:07:07.54	323.47	26.78	-23.6	-24.6	19.1	0.00e+00	0	43	102	1048576	7	4060
2026-01-07 13:07:10.57	323.89	26.32	-23.6	-24.7	19.0	0.00e+00	0	44	102	1048576	7	4088
2026-01-07 13:07:13.59	324.29	25.87	-23.4	-24.3	19.2	0.00e+00	0	44	102	1048576	7	3994
2026-01-07 13:07:16.61	324.69	25.43	-23.5	-24.4	19.1	0.00e+00	0	44	102	1048576	7	4020
2026-01-07 13:07:19.64	325.07	24.99	-23.4	-24.3	19.2	0.00e+00	0	43	102	1048576	7	3980
2026-01-07 13:07:22.66	325.44	24.56	-23.6	-24.6	19.0	0.00e+00	0	44	102	1048576	7	4064
2026-01-07 13:07:25.68	325.80	24.14	-24.0	-25.5	18.6	0.00e+00	0	43	102	1048576	7	4278
2026-01-07 13:07:28.70	326.16	23.72	-24.1	-25.3	18.4	0.00e+00	0	44	102	1048576	8	4130
2026-01-07 13:07:31.71	326.50	23.31	-24.1	-25.3	18.4	0.00e+00	0	44	102	1048576	8	4122
2026-01-07 13:07:34.74	326.84	22.90	-24.1	-25.2	18.5	0.00e+00	0	44	102	1048576	8	4092
2026-01-07 13:07:37.76	327.16	22.50	-23.9	-24.9	18.6	0.00e+00	0	44	102	1048576	8	4021
2026-01-07 13:07:40.77	327.48	22.10	-24.0	-25.0	18.5	0.00e+00	0	43	102	1048576	8	4055
2026-01-07 13:07:43.79	327.79	21.71	-24.2	-25.4	18.3	0.00e+00	0	43	102	1048576	8	4147
2026-01-07 13:07:46.80	328.10	21.32	-24.4	-25.9	18.1	0.00e+00	0	44	102	1048576	8	4286
2026-01-07 13:07:49.82	328.39	20.94	-24.7	-25.9	17.8	0.00e+00	0	44	102	1048576	9	4170
2026-01-07 13:07:52.84	328.69	20.57	-24.9	-25.9	17.5	0.00e+00	0	43	102	1048576	10	4053
2026-01-07 13:07:55.87	328.97	20.19	-24.7	-25.5	17.7	0.00e+00	0	44	102	1048576	10	3952
2026-01-07 13:07:58.89	329.25	19.83	-25.0	-26.2	17.3	0.00e+00	0	44	102	1048576	10	4128
2026-01-07 13:08:01.91	329.52	19.47	-24.6	-25.4	17.8	0.00e+00	0	43	102	1048576	10	3917
2026-01-07 13:08:04.93	329.78	19.11	-24.8	-25.8	17.6	0.00e+00	0	44	102	1048576	10	4025
2026-01-07 13:08:07.94	330.04	18.76	-24.9	-26.0	17.5	0.00e+00	0	43	102	1048576	10	4067
2026-01-07 13:08:10.97	330.30	18.41	-25.0	-26.3	17.3	0.00e+00	0	43	102	1048576	10	4142
2026-01-07 13:08:13.99	330.54	18.06	-25.1	-26.3	17.2	0.00e+00	0	43	102	1048576	10	4159
2026-01-07 13:08:17.02	330.79	17.72	-25.2	-26.6	17.1	0.00e+00	0	44	102	1048576	10	4215
2026-01-07 13:08:20.04	331.03	17.39	-25.2	-26.6	17.1	0.00e+00	0	44	102	1048576	10	4232
2026-01-07 13:08:23.05	331.26	17.06	-25.2	-26.6	17.0	0.00e+00	0	44	102	1048576	10	4237
2026-01-07 13:08:26.08	331.49	16.73	-25.4	-27.1	16.8	0.00e+00	0	44	102	1048576	10	4367
2026-01-07 13:08:29.10	331.71	16.41	-25.6	-27.0	16.5	0.00e+00	0	44	102	1048576	11	4233
2026-01-07 13:08:32.12	331.93	16.09	-25.7	-27.1	16.5	0.00e+00	0	43	102	1048576	11	4263
2026-01-07 13:08:35.15	332.15	15.77	-25.7	-27.2	16.4	0.00e+00	0	44	102	1048576	11	4285
2026-01-07 13:08:38.17	332.36	15.46	-25.8	-27.4	16.2	0.00e+00	0	44	102	1048576	11	4341
2026-01-07 13:08:41.19	332.56	15.15	-25.9	-27.6	16.1	0.00e+00	0	44	102	1048576	11	4394
2026-01-07 13:08:44.21	332.77	14.85	-25.9	-27.2	16.0	0.00e+00	0	44	102	1048576	12	4158
2026-01-07 13:08:47.23	332.97	14.55	-25.9	-27.1	16.1	0.00e+00	0	44	102	1048576	12	4129
2026-01-07 13:08:50.26	333.16	14.25	-26.0	-27.4	15.8	0.00e+00	0	44	102	1048576	12	4229
2026-01-07 13:08:53.27	333.35	13.96	-26.1	-27.5	15.7	0.00e+00	0	44	102	1048576	12	4254
2026-01-07 13:08:56.30	333.54	13.66	-26.1	-27.6	15.7	0.00e+00	0	44	102	1048576	12	4275
2026-01-07 13:08:59.32	333.73	13.38	-26.1	-27.7	15.7	0.00e+00	0	44	102	1048576	12	4293
2026-01-07 13:09:02.34	333.91	13.09	-26.3	-27.9	15.5	0.00e+00	0	43	102	1048576	12	4371
2026-01-07 13:09:05.36	334.09	12.81	-26.2	-27.8	15.6	0.00e+00	0	44	102	1048576	12	4326
2026-01-07 13:09:08.38	334.26	12.53	-26.3	-28.1	15.4	0.00e+00	0	44	102	1048576	12	4411
2026-01-07 13:09:11.40	334.43	12.26	-26.4	-28.2	15.3	0.00e+00	0	44	102	1048576	12	4445
2026-01-07 13:09:14.44	334.61	11.98	-26.3	-28.1	15.3	0.00e+00	0	43	102	1048576	12	4410
2026-01-07 13:09:17.45	334.77	11.71	-26.3	-28.1	15.3	0.00e+00	0	44	102	1048576	12	4419
2026-01-07 13:09:20.48	334.94	11.44	-26.9	-28.4	14.6	1.10e-06	0	43	102	1048576	14	4277
2026-01-07 13:09:23.49	335.10	11.18	-26.3	-27.0	15.4	0.00e+00	0	44	102	1048576	14	3911
2026-01-07 13:09:26.51	335.25	10.92	-26.4	-27.2	15.3	0.00e+00	0	44	102	1048576	14	3958
2026-01-07 13:09:29.53	335.41	10.66	-26.3	-27.1	15.3	0.00e+00	0	43	102	1048576	14	3928
2026-01-07 13:09:32.56	335.56	10.40	-26.5	-27.5	15.0	0.00e+00	0	44	102	1048576	14	4042
2026-01-07 13:09:35.58	335.72	10.15	-26.7	-27.9	14.8	0.00e+00	0	44	102	1048576	14	4134
2026-01-07 13:09:38.59	335.86	9.90	-26.5	-27.6	14.9	0.00e+00	0	44	102	1048576	14	4072
2026-01-07 13:09:41.61	336.01	9.65	-26.5	-27.6	14.9	0.00e+00	0	44	102	1048576	14	4071
2026-01-07 13:09:44.63	336.15	9.40	-26.7	-27.9	14.8	0.00e+00	0	44	102	1048576	14	4141
2026-01-07 13:09:47.64	336.30	9.16	-26.8	-28.3	14.5	0.00e+00	0	44	102	1048576	14	4263
2026-01-07 13:09:50.66	336.43	8.91	-27.0	-28.6	14.3	1.10e-06	0	44	102	1048576	14	4334
2026-01-07 13:09:53.69	336.57	8.67	-27.0	-28.6	14.3	0.00e+00	0	44	102	1048576	14	4333
2026-01-07 13:09:56.71	336.71	8.44	-27.2	-29.2	13.9	2.20e-06	0	44	102	1048576	14	4510
2026-01-07 13:09:59.73	336.84	8.20	-27.2	-29.2	13.9	2.20e-06	0	44	102	1048576	14	4535
2026-01-07 13:10:02.75	336.97	7.97	-27.4	-29.6	13.6	4.50e-06	0	43	102	1048576	14	4640
2026-01-07 13:10:05.77	337.10	7.73	-27.1	-29.0	14.0	0.00e+00	0	44	102	1048576	14	4460
2026-01-07 13:10:08.79	337.23	7.50	-27.2	-29.2	13.8	0.00e+00	0	44	102	1048576	14	4527
2026-01-07 13:10:11.82	337.36	7.28	-27.0	-28.8	13.8	2.20e-06	0	44	102	1048576	14	4412
2026-01-07 13:10:14.84	337.48	7.05	-32.9	-43.6	3.8	5.49e-01	0	44	104	1048576	25	12216

#Closed at: 2026-01-07 13:10:17
#Recorded file [1 MB]: D:/data/31010_260107_155827.dat