passes_logs/2026/01/07/R2M6_AANII_01/R2M6_AANII_01__20260107_002445_SUOMI_NPP_rec.log

#Pass ID: 20260107_002445_SUOMI NPP
#Satellite: SUOMI NPP
#Configuration: NPP
#almurnet v.1.7.20240730
#Start time: 2026-01-07 00:24:46

#Version: 2.2.20231116
#Station: R2M6_AANII_01
#Location: 30.233357 lon 59.946436 lat
#TLE: 1 37849U 11061A   26005.94084933  .00000134  00000+0  84554-4 0  9990
#TLE: 2 37849  98.7803 308.0679 0002567  79.1029 281.0436 14.19522657735426

#Time	Az	El	Level	Level2	SNR	BER	BlckErr	Temp	State	Recorded	gain1	gain2
2026-01-07 00:24:46.02	18.19	7.06	-32.0	-40.1	4.1	1.46e+00	0	41	0	0	24	9102
2026-01-07 00:24:49.03	18.20	7.29	-32.0	-40.0	4.8	7.35e-01	0	41	102	1048576	23	9100
2026-01-07 00:24:52.05	18.22	7.53	-32.0	-39.3	5.0	7.52e-01	0	41	102	1048576	24	8365
2026-01-07 00:24:55.08	18.23	7.76	-31.8	-38.5	5.7	5.87e-01	0	41	102	1048576	23	7783
2026-01-07 00:24:58.10	18.24	8.00	-31.3	-36.0	7.8	1.18e-01	0	42	102	1048576	22	6250
2026-01-07 00:25:01.12	18.25	8.25	-30.8	-34.8	9.1	3.22e-02	0	41	102	1048576	21	5693
2026-01-07 00:25:04.13	18.26	8.49	-30.8	-34.1	9.3	2.77e-02	0	42	102	1048576	22	5268
2026-01-07 00:25:07.15	18.28	8.74	-30.8	-34.8	9.2	1.64e-02	0	42	102	1048576	21	5664
2026-01-07 00:25:10.17	18.29	8.99	-30.9	-35.1	8.9	2.73e-02	0	42	102	1048576	21	5834
2026-01-07 00:25:13.18	18.30	9.24	-30.5	-33.6	10.0	9.09e-03	0	42	102	1048576	21	5137
2026-01-07 00:25:16.20	18.31	9.49	-30.6	-34.1	9.7	1.04e-02	0	42	102	1048576	21	5364
2026-01-07 00:25:19.22	18.33	9.75	-30.4	-33.8	10.3	4.91e-03	0	42	102	1048576	20	5312
2026-01-07 00:25:22.24	18.34	10.01	-30.3	-33.5	10.6	3.22e-03	0	42	102	1048576	20	5174
2026-01-07 00:25:25.26	18.35	10.27	-30.1	-32.7	11.2	2.47e-03	0	42	102	1048576	20	4839
2026-01-07 00:25:28.28	18.36	10.54	-30.1	-32.8	11.2	2.11e-03	0	42	102	1048576	20	4892
2026-01-07 00:25:31.29	18.38	10.81	-30.1	-32.6	11.3	1.05e-03	0	42	102	1048576	20	4802
2026-01-07 00:25:34.31	18.39	11.08	-30.1	-32.7	11.2	1.60e-03	0	42	102	1048576	20	4852
2026-01-07 00:25:37.32	18.40	11.35	-30.2	-32.8	11.0	1.12e-03	0	42	102	1048576	20	4880
2026-01-07 00:25:40.33	18.41	11.63	-30.2	-33.0	10.8	1.36e-03	0	42	102	1048576	20	4964
2026-01-07 00:25:43.35	18.43	11.91	-30.2	-32.9	10.9	1.51e-03	0	43	102	1048576	20	4898
2026-01-07 00:25:46.37	18.44	12.20	-30.0	-32.2	11.6	7.42e-04	0	42	102	1048576	20	4662
2026-01-07 00:25:49.39	18.45	12.48	-30.3	-33.3	10.9	2.64e-03	0	42	102	1048576	20	5084
2026-01-07 00:25:52.42	18.46	12.77	-29.8	-32.2	12.1	9.12e-04	0	42	102	1048576	19	4744
2026-01-07 00:25:55.44	18.47	13.07	-28.3	-30.7	12.1	6.85e-04	0	43	102	1048576	18	4713
2026-01-07 00:25:58.44	18.49	13.37	-29.7	-31.9	11.8	1.24e-04	0	43	102	1048576	19	4628
2026-01-07 00:26:01.46	18.50	13.67	-29.5	-31.7	12.8	6.56e-05	0	43	102	1048576	18	4645
2026-01-07 00:26:04.48	18.51	13.97	-29.5	-31.6	12.9	7.32e-05	0	43	102	1048576	18	4613
2026-01-07 00:26:07.50	18.52	14.28	-29.1	-30.6	13.6	7.60e-06	0	43	102	1048576	18	4295
2026-01-07 00:26:10.51	18.54	14.60	-29.1	-30.6	13.6	5.80e-04	0	43	102	1048576	18	4293
2026-01-07 00:26:13.53	18.55	14.91	-29.2	-30.8	13.5	6.09e-04	0	43	102	1048576	18	4348
2026-01-07 00:26:16.53	18.56	15.23	-29.1	-30.7	13.5	3.03e-03	0	43	102	1048576	18	4321
2026-01-07 00:26:19.55	18.57	15.56	-29.1	-30.7	13.6	3.31e-03	0	43	102	1048576	18	4304
2026-01-07 00:26:22.57	18.58	15.89	-29.2	-30.8	13.5	3.34e-03	0	43	102	1048576	18	4343
2026-01-07 00:26:25.59	18.60	16.23	-29.1	-30.6	13.7	3.05e-03	0	43	102	1048576	18	4269
2026-01-07 00:26:28.61	18.61	16.57	-29.0	-30.4	13.8	7.84e-04	0	43	102	1048576	18	4229
2026-01-07 00:26:31.63	18.62	16.91	-29.0	-30.7	13.9	2.53e-03	0	43	102	1048576	17	4406
2026-01-07 00:26:34.65	18.63	17.26	-28.8	-30.4	14.1	3.02e-03	0	43	102	1048576	17	4322
2026-01-07 00:26:37.66	18.64	17.61	-28.9	-30.4	14.1	3.03e-03	0	43	102	1048576	17	4310
2026-01-07 00:26:40.67	18.66	17.97	-28.8	-30.1	14.3	2.97e-03	0	43	102	1048576	17	4226
2026-01-07 00:26:43.69	18.67	18.34	-28.9	-30.4	14.1	2.96e-03	0	43	102	1048576	17	4313
2026-01-07 00:26:46.71	18.68	18.71	-29.1	-30.4	13.8	2.51e-03	0	43	102	1048576	18	4217
2026-01-07 00:26:49.73	18.69	19.08	-29.1	-30.5	13.8	2.38e-03	0	43	102	1048576	18	4249
2026-01-07 00:26:52.75	18.70	19.47	-29.2	-30.8	13.6	8.30e-06	0	43	102	1048576	18	4335
2026-01-07 00:26:55.77	18.72	19.86	-29.0	-30.2	14.0	3.00e-06	0	43	102	1048576	18	4152
2026-01-07 00:26:58.80	18.73	20.25	-28.9	-30.0	14.2	7.00e-07	0	43	102	1048576	18	4068
2026-01-07 00:27:01.81	18.74	20.65	-29.1	-30.4	13.9	2.78e-03	0	43	102	1048576	18	4210
2026-01-07 00:27:04.84	18.75	21.06	-29.1	-30.6	13.8	3.05e-03	0	43	102	1048576	18	4256
2026-01-07 00:27:07.86	18.76	21.47	-29.3	-31.1	13.5	2.44e-03	0	43	102	1048576	18	4403
2026-01-07 00:27:10.87	18.78	21.89	-29.6	-31.4	13.0	1.75e-05	0	43	102	1048576	19	4416
2026-01-07 00:27:13.90	18.79	22.32	-29.7	-31.7	12.8	4.65e-05	0	43	102	1048576	19	4525
2026-01-07 00:27:16.91	18.80	22.76	-29.8	-32.0	12.6	4.19e-05	0	43	102	1048576	19	4622
2026-01-07 00:27:19.92	18.81	23.20	-30.0	-32.4	12.4	1.07e-04	0	43	102	1048576	19	4744
2026-01-07 00:27:22.94	18.82	23.65	-29.3	-31.4	12.1	3.11e-04	0	43	102	1048576	20	4582
2026-01-07 00:27:25.95	18.84	24.11	-30.1	-32.4	11.9	3.90e-04	0	43	102	1048576	20	4677
2026-01-07 00:27:28.98	18.85	24.58	-30.1	-32.1	12.2	2.59e-04	0	43	102	1048576	20	4560
2026-01-07 00:27:32.00	18.86	25.05	-30.0	-32.0	12.3	2.92e-03	0	43	102	1048576	20	4520
2026-01-07 00:27:35.02	18.87	25.54	-30.1	-32.3	12.1	2.84e-03	0	43	102	1048576	20	4645
2026-01-07 00:27:38.04	18.88	26.03	-30.4	-33.1	11.6	5.37e-04	0	43	102	1048576	20	4929
2026-01-07 00:27:41.06	18.90	26.53	-30.2	-32.6	11.9	4.42e-04	0	43	102	1048576	20	4743
2026-01-07 00:27:44.09	18.91	27.05	-30.2	-32.6	11.9	2.74e-04	0	43	102	1048576	20	4743
2026-01-07 00:27:47.11	18.92	27.57	-30.0	-32.0	12.4	1.38e-04	0	43	102	1048576	20	4502
2026-01-07 00:27:50.13	18.93	28.10	-30.2	-32.5	12.2	2.88e-03	0	43	102	1048576	20	4676
2026-01-07 00:27:53.15	18.94	28.64	-30.3	-32.7	11.9	3.16e-03	0	43	102	1048576	20	4750
2026-01-07 00:27:56.17	18.96	29.20	-30.0	-31.7	12.5	2.90e-03	0	43	102	1048576	20	4425
2026-01-07 00:27:59.20	18.97	29.76	-29.8	-31.6	13.1	2.68e-03	0	43	102	1048576	19	4459
2026-01-07 00:28:02.22	18.98	30.34	-29.6	-31.2	13.5	2.36e-03	0	43	102	1048576	19	4331
2026-01-07 00:28:05.24	18.99	30.93	-29.7	-30.9	13.1	2.60e-03	0	43	102	1048576	20	4149
2026-01-07 00:28:08.25	19.00	31.53	-29.6	-31.1	13.4	1.83e-04	0	43	102	1048576	19	4302
2026-01-07 00:28:11.26	19.01	32.14	-30.0	-31.9	12.6	2.34e-03	0	43	102	1048576	20	4463
2026-01-07 00:28:14.28	19.03	32.76	-30.4	-32.9	11.8	2.97e-03	0	43	102	1048576	20	4838
2026-01-07 00:28:17.30	19.04	33.40	-30.7	-33.4	11.1	4.49e-03	0	43	102	1048576	21	4932
2026-01-07 00:28:20.32	19.05	34.06	-30.6	-33.1	11.4	3.32e-03	0	44	102	1048576	21	4802
2026-01-07 00:28:23.34	19.06	34.72	-30.2	-32.4	12.2	2.87e-03	0	43	102	1048576	20	4655
2026-01-07 00:28:26.36	19.07	35.40	-29.8	-31.7	13.0	7.32e-05	0	43	102	1048576	19	4497
2026-01-07 00:28:29.38	19.09	36.10	-29.6	-31.2	13.5	6.80e-06	0	43	102	1048576	19	4319
2026-01-07 00:28:32.40	19.10	36.81	-29.3	-30.2	14.1	2.20e-06	0	43	102	1048576	19	4016
2026-01-07 00:28:35.43	19.11	37.54	-28.8	-30.1	14.8	7.00e-07	0	43	102	1048576	17	4179
2026-01-07 00:28:38.45	19.12	38.29	-28.7	-29.2	15.0	0.00e+00	0	43	102	1048576	18	3846
2026-01-07 00:28:41.47	19.13	39.05	-28.4	-29.2	15.3	0.00e+00	0	43	102	1048576	17	3923
2026-01-07 00:28:44.49	19.15	39.83	-28.6	-29.7	15.0	0.00e+00	0	43	102	1048576	17	4068
2026-01-07 00:28:47.51	19.16	40.62	-28.7	-29.8	14.7	0.00e+00	0	43	102	1048576	17	4105
2026-01-07 00:28:50.52	19.17	41.44	-29.2	-30.8	13.7	3.80e-06	0	43	102	1048576	18	4291
2026-01-07 00:28:53.53	19.18	42.27	-29.5	-30.8	13.7	3.80e-06	0	43	102	1048576	19	4210
2026-01-07 00:28:56.56	19.19	43.12	-29.7	-31.6	13.4	2.74e-05	0	43	102	1048576	19	4437
2026-01-07 00:28:59.58	19.21	43.99	-29.7	-31.4	13.4	1.22e-05	0	43	102	1048576	19	4385
2026-01-07 00:29:02.60	19.22	44.88	-30.2	-32.4	12.2	1.04e-04	0	44	102	1048576	20	4669
2026-01-07 00:29:05.62	19.23	45.80	-30.8	-34.1	10.8	1.38e-03	0	44	102	1048576	21	5219
2026-01-07 00:29:08.64	19.24	46.73	-30.3	-32.9	12.0	6.03e-04	0	44	102	1048576	20	4830
2026-01-07 00:29:11.67	19.25	47.69	-30.4	-33.1	11.7	7.22e-04	0	43	102	1048576	20	4922
2026-01-07 00:29:14.68	19.27	48.66	-30.5	-33.0	11.5	9.87e-04	0	43	102	1048576	21	4789
2026-01-07 00:29:17.71	19.28	49.67	-30.4	-32.6	11.8	9.63e-04	0	44	102	1048576	21	4626
2026-01-07 00:29:20.73	19.29	50.69	-29.8	-31.3	13.0	1.20e-04	0	44	102	1048576	20	4299
2026-01-07 00:29:23.75	19.30	51.73	-29.1	-29.9	14.5	1.06e-05	0	43	102	1048576	19	3927
2026-01-07 00:29:26.76	19.32	52.80	-29.0	-30.0	14.7	0.00e+00	0	43	102	1048576	18	4051
2026-01-07 00:29:29.78	19.33	53.89	-29.7	-31.4	13.5	5.30e-06	0	44	102	1048576	19	4375
2026-01-07 00:29:32.79	19.34	55.01	-29.8	-31.5	13.6	6.10e-06	0	43	102	1048576	19	4384
2026-01-07 00:29:35.81	19.35	56.15	-28.1	-28.2	16.1	0.00e+00	0	43	102	1048576	17	3660
2026-01-07 00:29:38.83	19.37	57.31	-27.7	-28.5	16.3	0.00e+00	0	43	102	1048576	15	3928
2026-01-07 00:29:41.84	19.38	58.50	-29.1	-30.3	14.5	0.00e+00	0	43	102	1048576	18	4134
2026-01-07 00:29:44.87	19.39	59.71	-28.9	-29.8	14.9	0.00e+00	0	43	102	1048576	18	3992
2026-01-07 00:29:47.89	19.41	60.95	-28.2	-28.5	16.1	0.00e+00	0	43	102	1048576	17	3714
2026-01-07 00:29:50.92	19.42	62.22	-27.6	-27.5	16.9	0.00e+00	0	43	102	1048576	16	3566
2026-01-07 00:29:53.94	19.43	63.50	-27.3	-27.3	17.1	0.00e+00	0	43	102	1048576	15	3618
2026-01-07 00:29:56.96	19.45	64.81	-28.2	-29.1	15.9	0.00e+00	0	43	102	1048576	16	3980
2026-01-07 00:29:59.98	19.46	66.15	-29.5	-30.6	14.2	1.50e-06	0	44	102	1048576	19	4098
2026-01-07 00:30:03.00	19.48	67.50	-29.5	-30.2	14.0	1.37e-05	0	43	102	1048576	20	3911
2026-01-07 00:30:06.02	19.49	68.88	-30.4	-32.6	12.6	2.59e-05	0	43	102	1048576	20	4650
2026-01-07 00:30:09.03	19.51	70.27	-30.4	-31.8	12.4	3.13e-04	0	43	102	1048576	22	4200
2026-01-07 00:30:12.04	19.53	71.69	-31.7	-35.4	9.5	1.18e-02	0	43	102	1048576	23	5499
2026-01-07 00:30:15.06	19.54	73.12	-31.3	-33.8	10.8	2.57e-03	0	43	102	1048576	23	4802
2026-01-07 00:30:18.08	19.56	74.58	-29.5	-30.5	14.3	7.00e-07	0	43	102	1048576	19	4061
2026-01-07 00:30:21.10	19.58	76.05	-30.7	-32.8	12.3	2.74e-04	0	44	102	1048576	21	4601
2026-01-07 00:30:24.12	19.61	77.54	-31.3	-33.8	10.7	6.52e-03	0	44	102	1048576	23	4781
2026-01-07 00:30:27.13	19.64	79.04	-30.3	-31.7	12.9	2.49e-04	0	43	102	1048576	21	4251
2026-01-07 00:30:30.16	19.67	80.56	-30.6	-32.7	12.3	7.55e-04	0	43	102	1048576	21	4569
2026-01-07 00:30:33.18	19.71	82.09	-30.5	-32.2	12.7	1.17e-03	0	43	102	1048576	21	4377
2026-01-07 00:30:36.19	19.76	83.62	-30.3	-32.3	13.0	6.17e-05	0	43	102	1048576	20	4514
2026-01-07 00:30:39.22	19.85	85.17	-30.7	-32.9	12.1	1.54e-03	0	43	102	1048576	21	4645
2026-01-07 00:30:42.24	20.00	86.73	-31.8	-35.5	9.9	5.31e-03	0	43	102	1048576	23	5511
2026-01-07 00:30:45.26	20.42	88.28	-31.7	-35.4	9.6	1.88e-02	0	43	102	1048576	23	5460
2026-01-07 00:30:48.28	28.51	89.84	-30.7	-33.1	12.0	1.33e-03	0	43	102	1048576	21	4744
2026-01-07 00:30:51.30	198.55	88.60	-33.8	-43.4	3.9	1.48e+00	0	44	104	1048576	27	10953
2026-01-07 00:30:54.33	199.11	87.04	-31.8	-34.6	10.2	6.72e-03	0	43	102	1048576	24	4952
2026-01-07 00:30:57.34	199.29	85.49	-30.1	-30.9	13.8	8.30e-06	0	44	102	1048576	21	3980
2026-01-07 00:31:00.35	199.38	83.95	-29.9	-31.5	14.1	3.71e-04	0	43	102	1048576	19	4338
2026-01-07 00:31:03.37	199.44	82.41	-30.5	-32.1	13.1	4.32e-04	0	43	102	1048576	21	4333
2026-01-07 00:31:06.38	199.49	80.89	-31.3	-34.1	11.3	7.53e-04	0	43	102	1048576	22	4952
2026-01-07 00:31:09.40	199.52	79.37	-31.5	-34.3	10.7	6.71e-04	0	43	102	1048576	23	4939
2026-01-07 00:31:12.42	199.55	77.86	-31.2	-33.7	11.5	1.30e-04	0	43	102	1048576	22	4819
2026-01-07 00:31:15.45	199.57	76.36	-32.3	-36.9	8.1	4.38e-02	0	43	102	1048576	24	6141
2026-01-07 00:31:18.47	199.59	74.88	-31.1	-33.4	11.8	2.30e-04	0	44	102	1048576	22	4675
2026-01-07 00:31:21.49	199.61	73.42	-30.8	-33.1	12.3	3.20e-05	0	44	102	1048576	21	4660
2026-01-07 00:31:24.51	199.63	71.97	-32.3	-36.5	8.7	2.57e-02	0	44	102	1048576	24	5859
2026-01-07 00:31:27.53	199.65	70.55	-31.7	-34.3	10.1	5.92e-03	0	43	102	1048576	24	4859
2026-01-07 00:31:30.56	199.66	69.14	-29.9	-31.0	14.0	5.30e-06	0	43	102	1048576	20	4091
2026-01-07 00:31:33.57	199.68	67.76	-31.0	-33.2	11.7	5.17e-04	0	44	102	1048576	22	4641
2026-01-07 00:31:36.57	199.69	66.40	-29.7	-30.5	14.1	2.82e-05	0	44	102	1048576	20	3964
2026-01-07 00:31:39.58	199.71	65.07	-28.0	-28.0	16.5	0.00e+00	0	44	102	1048576	17	3577
2026-01-07 00:31:42.59	199.72	63.75	-29.9	-31.6	13.7	0.00e+00	0	43	102	1048576	19	4411
2026-01-07 00:31:45.61	199.74	62.46	-27.8	-27.9	16.7	0.00e+00	0	44	102	1048576	16	3668
2026-01-07 00:31:48.63	199.75	61.19	-30.3	-32.4	12.8	3.80e-06	0	44	102	1048576	20	4590
2026-01-07 00:31:51.65	199.76	59.94	-29.8	-31.0	13.7	3.43e-05	0	44	102	1048576	20	4127
2026-01-07 00:31:54.67	199.77	58.72	-28.4	-28.4	15.9	0.00e+00	0	43	102	1048576	18	3589
2026-01-07 00:31:57.69	199.79	57.52	-29.1	-30.1	15.0	1.03e-04	0	43	102	1048576	18	4037
2026-01-07 00:32:00.70	199.80	56.35	-28.6	-29.3	15.7	2.89e-04	0	43	102	1048576	17	3915
2026-01-07 00:32:03.72	199.81	55.20	-28.4	-29.5	15.8	7.73e-04	0	44	102	1048576	16	4087
2026-01-07 00:32:06.74	199.82	54.08	-30.1	-31.9	13.0	1.83e-05	0	44	102	1048576	20	4417
2026-01-07 00:32:09.76	199.83	52.98	-29.8	-31.4	13.8	3.80e-06	0	43	102	1048576	19	4360
2026-01-07 00:32:12.78	199.85	51.90	-31.3	-34.9	9.8	5.91e-03	0	43	102	1048576	23	5406
2026-01-07 00:32:15.80	199.86	50.85	-29.9	-31.4	13.3	3.32e-04	0	44	102	1048576	20	4274
2026-01-07 00:32:18.82	199.87	49.82	-29.5	-30.8	14.0	3.97e-04	0	43	102	1048576	19	4167
2026-01-07 00:32:21.83	199.88	48.81	-31.2	-34.3	10.7	5.29e-04	0	43	102	1048576	22	5141
2026-01-07 00:32:24.86	199.89	47.83	-29.8	-30.5	13.5	3.99e-04	0	43	102	1048576	21	3909
2026-01-07 00:32:27.88	199.90	46.86	-29.2	-30.3	14.9	2.24e-04	0	43	102	1048576	18	4064
2026-01-07 00:32:30.91	199.92	45.92	-31.1	-33.4	11.5	5.34e-04	0	43	102	1048576	22	4729
2026-01-07 00:32:33.93	199.93	45.00	-31.6	-34.7	10.2	7.71e-03	0	43	102	1048576	23	5138
2026-01-07 00:32:36.95	199.94	44.10	-30.3	-32.1	13.1	2.22e-04	0	43	102	1048576	20	4465
2026-01-07 00:32:39.96	199.95	43.22	-31.3	-34.2	11.0	3.00e-03	0	43	102	1048576	22	5021
2026-01-07 00:32:42.97	199.96	42.37	-31.9	-36.1	8.9	9.89e-03	0	43	102	1048576	23	5821
2026-01-07 00:32:45.98	199.97	41.53	-32.4	-37.5	7.6	9.10e-02	0	43	102	1048576	24	6463
2026-01-07 00:32:49.00	199.98	40.71	-30.7	-32.4	12.1	2.30e-03	0	43	102	1048576	22	4380
2026-01-07 00:32:52.01	199.99	39.91	-30.5	-32.4	12.4	3.89e-04	0	44	102	1048576	21	4479
2026-01-07 00:32:55.03	200.00	39.12	-32.0	-35.9	8.8	3.36e-02	0	44	102	1048576	24	5606
2026-01-07 00:32:58.05	200.02	38.36	-32.0	-36.2	9.0	2.26e-02	0	44	102	1048576	23	5831
2026-01-07 00:33:01.07	200.03	37.61	-31.9	-35.9	9.1	1.33e-02	0	43	102	1048576	23	5724
2026-01-07 00:33:04.09	200.04	36.87	-31.1	-33.5	11.3	2.22e-03	0	43	102	1048576	22	4774
2026-01-07 00:33:07.10	200.05	36.16	-30.7	-32.9	11.9	3.34e-04	0	44	102	1048576	21	4631
2026-01-07 00:33:10.13	200.06	35.45	-30.6	-32.7	12.2	1.36e-04	0	44	102	1048576	21	4569
2026-01-07 00:33:13.14	200.07	34.77	-31.4	-34.7	9.9	2.83e-03	0	44	102	1048576	23	5235
2026-01-07 00:33:16.17	200.08	34.09	-32.8	-39.4	5.8	2.90e-01	0	44	102	1048576	25	7739
2026-01-07 00:33:19.19	200.09	33.43	-32.1	-36.2	8.4	9.88e-02	0	44	102	1048576	24	5793
2026-01-07 00:33:22.20	200.10	32.79	-31.2	-34.1	10.8	2.55e-03	0	43	102	1048576	22	5026
2026-01-07 00:33:25.21	200.11	32.16	-31.3	-34.3	10.6	2.84e-03	0	44	102	1048576	22	5095
2026-01-07 00:33:28.23	200.12	31.55	-31.7	-35.2	9.6	7.99e-03	0	44	102	1048576	23	5422
2026-01-07 00:33:31.25	200.13	30.94	-31.7	-35.5	9.3	1.49e-02	0	44	102	1048576	23	5535
2026-01-07 00:33:34.27	200.14	30.35	-31.6	-35.1	9.6	9.88e-03	0	44	102	1048576	23	5356
2026-01-07 00:33:37.29	200.15	29.77	-32.2	-37.2	7.5	7.98e-02	0	44	102	1048576	24	6356
2026-01-07 00:33:40.31	200.16	29.20	-32.2	-37.2	7.4	1.11e-01	0	44	102	1048576	24	6373
2026-01-07 00:33:43.33	200.17	28.64	-31.7	-35.3	9.3	1.97e-02	0	43	102	1048576	23	5500
2026-01-07 00:33:46.36	200.19	28.09	-31.5	-34.6	9.8	1.36e-02	0	43	102	1048576	23	5191
2026-01-07 00:33:49.37	200.20	27.56	-30.5	-32.4	12.1	3.22e-04	0	44	102	1048576	21	4519
2026-01-07 00:33:52.39	200.21	27.03	-30.6	-32.8	11.8	3.71e-04	0	44	102	1048576	21	4651
2026-01-07 00:33:55.41	200.22	26.52	-30.6	-32.8	11.8	1.09e-03	0	43	102	1048576	21	4642
2026-01-07 00:33:58.43	200.23	26.01	-29.9	-31.9	13.2	1.79e-04	0	44	102	1048576	19	4503
2026-01-07 00:34:01.44	200.24	25.52	-30.4	-32.9	12.0	3.81e-04	0	44	102	1048576	20	4774
2026-01-07 00:34:04.46	200.25	25.03	-30.7	-33.3	11.4	1.27e-03	0	44	102	1048576	21	4824
2026-01-07 00:34:07.48	200.26	24.55	-30.1	-32.1	12.7	6.86e-05	0	44	102	1048576	20	4490
2026-01-07 00:34:10.50	200.27	24.08	-30.0	-31.5	13.0	5.95e-05	0	44	102	1048576	20	4317
2026-01-07 00:34:13.51	200.28	23.62	-29.8	-31.6	13.3	2.05e-05	0	44	102	1048576	19	4429
2026-01-07 00:34:16.54	200.29	23.16	-29.9	-31.4	13.0	3.89e-05	0	44	102	1048576	20	4292
2026-01-07 00:34:19.55	200.30	22.72	-29.8	-31.2	13.1	2.26e-04	0	44	102	1048576	20	4201
2026-01-07 00:34:22.57	200.31	22.28	-29.7	-31.2	13.5	2.04e-04	0	44	102	1048576	19	4291
2026-01-07 00:34:25.58	200.32	21.85	-29.0	-29.9	14.6	0.00e+00	0	44	102	1048576	18	4016
2026-01-07 00:34:28.61	200.33	21.42	-28.7	-29.7	15.0	0.00e+00	0	44	102	1048576	17	4053
2026-01-07 00:34:31.63	200.34	21.01	-29.2	-30.5	14.2	0.00e+00	0	43	102	1048576	18	4166
2026-01-07 00:34:34.64	200.35	20.60	-29.1	-30.4	14.3	0.00e+00	0	44	102	1048576	18	4143
2026-01-07 00:34:37.66	200.36	20.20	-29.5	-31.3	13.7	3.80e-06	0	44	102	1048576	18	4431
2026-01-07 00:34:40.68	200.37	19.80	-29.7	-31.3	13.3	2.67e-05	0	44	102	1048576	19	4342
2026-01-07 00:34:43.70	200.38	19.41	-30.1	-31.9	12.6	8.92e-05	0	43	102	1048576	20	4445
2026-01-07 00:34:46.72	200.39	19.02	-30.2	-32.4	11.8	2.57e-04	0	44	102	1048576	20	4638
2026-01-07 00:34:49.73	200.40	18.65	-30.3	-32.6	11.8	1.00e-03	0	44	102	1048576	20	4701
2026-01-07 00:34:52.75	200.41	18.27	-30.6	-33.1	11.3	1.10e-03	0	44	102	1048576	21	4777
2026-01-07 00:34:55.78	200.42	17.90	-30.9	-34.0	10.7	4.79e-03	0	44	102	1048576	21	5135
2026-01-07 00:34:58.80	200.43	17.54	-30.8	-33.7	10.8	3.70e-03	0	44	102	1048576	21	5030
2026-01-07 00:35:01.82	200.44	17.18	-30.7	-33.6	10.9	2.98e-03	0	44	102	1048576	21	4978
2026-01-07 00:35:04.84	200.45	16.83	-30.5	-32.9	11.3	9.88e-04	0	43	102	1048576	21	4747
2026-01-07 00:35:07.86	200.46	16.49	-30.4	-33.1	11.5	2.84e-03	0	44	102	1048576	20	4903
2026-01-07 00:35:10.89	200.47	16.14	-30.0	-31.8	12.4	2.07e-03	0	44	102	1048576	20	4430
2026-01-07 00:35:13.91	200.48	15.81	-29.9	-31.6	12.5	1.94e-03	0	44	102	1048576	20	4377
2026-01-07 00:35:16.93	200.49	15.47	-30.2	-32.5	12.0	2.18e-03	0	44	102	1048576	20	4664
2026-01-07 00:35:19.95	200.50	15.15	-30.3	-32.9	11.7	2.39e-03	0	43	102	1048576	20	4820
2026-01-07 00:35:22.97	200.51	14.82	-30.5	-33.0	11.2	3.07e-03	0	44	102	1048576	21	4772
2026-01-07 00:35:25.98	200.52	14.50	-30.7	-33.4	10.9	3.02e-03	0	44	102	1048576	21	4940
2026-01-07 00:35:29.00	200.53	14.19	-30.9	-34.2	10.3	8.64e-03	0	44	102	1048576	21	5255
2026-01-07 00:35:32.02	200.54	13.88	-31.3	-34.9	9.4	1.41e-02	0	43	102	1048576	22	5498
2026-01-07 00:35:35.04	200.55	13.57	-30.9	-34.2	10.3	7.09e-03	0	44	102	1048576	21	5253
2026-01-07 00:35:38.07	200.56	13.27	-30.9	-34.1	10.3	8.03e-03	0	43	102	1048576	21	5241
2026-01-07 00:35:41.09	200.57	12.97	-30.6	-33.2	11.0	3.95e-03	0	44	102	1048576	21	4865
2026-01-07 00:35:44.10	200.58	12.67	-30.7	-33.5	10.7	4.30e-03	0	43	102	1048576	21	4983
2026-01-07 00:35:47.12	200.59	12.38	-30.5	-33.1	11.0	1.94e-03	0	44	102	1048576	21	4820
2026-01-07 00:35:50.15	200.60	12.09	-30.6	-33.2	10.9	2.37e-03	0	44	102	1048576	21	4869
2026-01-07 00:35:53.17	200.61	11.80	-30.6	-33.3	10.8	2.27e-03	0	44	102	1048576	21	4936
2026-01-07 00:35:56.18	200.62	11.52	-30.6	-33.3	10.7	2.53e-03	0	43	102	1048576	21	4927
2026-01-07 00:35:59.19	200.63	11.24	-30.5	-32.9	11.0	3.32e-03	0	44	102	1048576	21	4790
2026-01-07 00:36:02.21	200.64	10.97	-30.3	-33.1	11.2	3.00e-03	0	44	102	1048576	20	4925
2026-01-07 00:36:05.23	200.65	10.70	-30.3	-33.0	11.4	1.44e-03	0	43	102	1048576	20	4895
2026-01-07 00:36:08.25	200.66	10.43	-30.2	-32.8	11.5	8.68e-04	0	44	102	1048576	20	4823
2026-01-07 00:36:11.28	200.67	10.16	-30.3	-33.1	11.2	1.27e-03	0	44	102	1048576	20	4954
2026-01-07 00:36:14.31	200.68	9.89	-30.2	-32.8	11.4	8.87e-04	0	44	102	1048576	20	4834
2026-01-07 00:36:17.33	200.68	9.63	-30.2	-32.8	11.0	1.22e-03	0	44	102	1048576	20	4852
2026-01-07 00:36:20.35	200.69	9.37	-30.4	-33.3	10.7	1.71e-03	0	43	102	1048576	20	5023
2026-01-07 00:36:23.38	200.70	9.12	-30.4	-33.3	10.9	2.10e-03	0	44	102	1048576	20	5047
2026-01-07 00:36:26.39	200.71	8.86	-30.4	-33.2	11.0	4.54e-03	0	44	102	1048576	20	5012
2026-01-07 00:36:29.41	200.72	8.61	-30.4	-33.5	10.8	4.98e-03	0	44	102	1048576	20	5142
2026-01-07 00:36:32.43	200.73	8.37	-30.3	-33.2	10.9	4.39e-03	0	44	102	1048576	20	5018
2026-01-07 00:36:35.45	200.74	8.12	-30.3	-33.1	11.0	1.79e-03	0	43	102	1048576	20	4964
2026-01-07 00:36:38.47	200.75	7.88	-30.4	-33.6	10.6	3.32e-03	0	44	102	1048576	20	5161
2026-01-07 00:36:41.49	200.76	7.64	-30.4	-33.6	10.6	2.85e-03	0	43	102	1048576	20	5182
2026-01-07 00:36:44.52	200.77	7.40	-30.5	-33.8	10.4	7.21e-03	0	44	102	1048576	20	5255
2026-01-07 00:36:47.53	200.78	7.16	-30.5	-33.4	10.3	7.08e-03	0	43	102	1048576	21	5045
2026-01-07 00:36:50.55	200.79	6.93	-33.0	-45.4	3.8	1.49e+00	0	44	104	1048576	26	14952

#Closed at: 2026-01-07 00:36:50
#Recorded file [1 MB]: D:/data/31010_260107_033052.dat