passes_logs/2026/01/07/R2M6_AANII_01/R2M6_AANII_01__20260107_115919_SUOMI_NPP_rec.log

#Pass ID: 20260107_115919_SUOMI NPP
#Satellite: SUOMI NPP
#Configuration: NPP
#almurnet v.1.7.20240730
#Start time: 2026-01-07 11:59:21

#Version: 2.2.20231116
#Station: R2M6_AANII_01
#Location: 30.233357 lon 59.946436 lat
#TLE: 1 37849U 11061A   26005.94084933  .00000134  00000+0  84554-4 0  9990
#TLE: 2 37849  98.7803 308.0679 0002567  79.1029 281.0436 14.19522657735426

#Time	Az	El	Level	Level2	SNR	BER	BlckErr	Temp	State	Recorded	gain1	gain2
2026-01-07 11:59:21.74	212.69	7.11	-31.1	-35.2	5.1	1.21e+00	0	43	0	0	22	5768
2026-01-07 11:59:24.77	212.98	7.30	-31.2	-34.8	8.7	3.96e-02	0	43	102	1048576	23	5406
2026-01-07 11:59:27.80	213.28	7.50	-31.1	-34.2	9.2	2.14e-02	0	43	102	1048576	23	5146
2026-01-07 11:59:30.81	213.57	7.69	-31.0	-33.6	9.9	7.35e-03	0	43	102	1048576	23	4853
2026-01-07 11:59:33.84	213.87	7.89	-30.9	-33.5	9.9	1.33e-02	0	43	102	1048576	23	4820
2026-01-07 11:59:36.86	214.17	8.08	-30.3	-31.9	11.6	9.64e-04	0	43	102	1048576	22	4297
2026-01-07 11:59:39.87	214.48	8.28	-30.2	-32.0	11.8	4.52e-04	0	43	102	1048576	21	4436
2026-01-07 11:59:42.89	214.79	8.48	-30.2	-32.0	11.8	4.22e-04	0	43	102	1048576	21	4414
2026-01-07 11:59:45.91	215.10	8.67	-30.3	-32.3	11.6	6.60e-04	0	43	102	1048576	21	4519
2026-01-07 11:59:48.93	215.42	8.87	-30.6	-33.3	10.8	2.09e-03	0	43	102	1048576	21	4907
2026-01-07 11:59:51.94	215.75	9.07	-30.6	-33.2	11.0	1.82e-03	0	43	102	1048576	21	4850
2026-01-07 11:59:54.97	216.07	9.27	-30.7	-33.4	11.0	1.63e-03	0	43	102	1048576	21	4904
2026-01-07 11:59:57.99	216.41	9.47	-30.4	-32.5	11.6	7.62e-04	0	43	102	1048576	21	4599
2026-01-07 12:00:01.01	216.74	9.68	-30.3	-32.3	11.8	4.21e-04	0	43	102	1048576	21	4504
2026-01-07 12:00:04.03	217.08	9.88	-30.2	-31.9	12.0	2.59e-04	0	43	102	1048576	21	4374
2026-01-07 12:00:07.05	217.43	10.08	-30.0	-31.4	12.4	1.68e-04	0	43	102	1048576	21	4214
2026-01-07 12:00:10.07	217.78	10.29	-30.0	-31.4	12.4	1.61e-04	0	43	102	1048576	21	4206
2026-01-07 12:00:13.09	218.13	10.49	-30.1	-31.7	12.3	1.81e-04	0	43	102	1048576	21	4294
2026-01-07 12:00:16.11	218.49	10.70	-30.4	-32.3	11.8	2.90e-04	0	43	102	1048576	21	4527
2026-01-07 12:00:19.13	218.86	10.91	-30.2	-31.9	12.1	3.42e-04	0	43	102	1048576	21	4377
2026-01-07 12:00:22.15	219.23	11.11	-30.3	-32.2	12.0	2.46e-04	0	44	102	1048576	21	4454
2026-01-07 12:00:25.17	219.60	11.32	-30.2	-31.8	12.2	1.82e-04	0	43	102	1048576	21	4320
2026-01-07 12:00:28.19	219.98	11.53	-30.2	-31.9	12.2	2.25e-04	0	43	102	1048576	21	4370
2026-01-07 12:00:31.20	220.37	11.74	-30.5	-32.6	11.7	6.42e-04	0	43	102	1048576	21	4600
2026-01-07 12:00:34.23	220.76	11.95	-30.6	-33.0	11.4	7.26e-04	0	43	102	1048576	21	4744
2026-01-07 12:00:37.25	221.16	12.16	-30.4	-32.4	11.8	5.52e-04	0	43	102	1048576	21	4535
2026-01-07 12:00:40.27	221.56	12.37	-30.3	-31.9	12.2	2.71e-04	0	43	102	1048576	21	4363
2026-01-07 12:00:43.30	221.97	12.58	-30.1	-31.5	12.5	1.11e-04	0	44	102	1048576	21	4217
2026-01-07 12:00:46.32	222.38	12.80	-29.9	-31.0	12.9	7.01e-05	0	43	102	1048576	21	4052
2026-01-07 12:00:49.34	222.80	13.01	-29.7	-30.8	13.4	2.74e-05	0	43	102	1048576	20	4094
2026-01-07 12:00:52.35	223.22	13.22	-29.6	-30.4	13.6	8.30e-06	0	43	102	1048576	20	3966
2026-01-07 12:00:55.37	223.65	13.44	-29.6	-30.6	13.5	7.60e-06	0	43	102	1048576	20	4035
2026-01-07 12:00:58.39	224.09	13.65	-29.6	-30.5	13.6	1.06e-05	0	43	102	1048576	20	3993
2026-01-07 12:01:01.41	224.53	13.86	-29.6	-30.6	13.5	9.10e-06	0	44	102	1048576	20	4029
2026-01-07 12:01:04.42	224.98	14.08	-29.7	-30.9	13.4	2.05e-05	0	44	102	1048576	20	4099
2026-01-07 12:01:07.44	225.44	14.29	-29.9	-31.2	13.2	3.20e-05	0	44	102	1048576	20	4208
2026-01-07 12:01:10.44	225.89	14.51	-30.2	-32.1	12.7	9.76e-05	0	43	102	1048576	20	4480
2026-01-07 12:01:13.45	226.36	14.72	-30.1	-31.9	12.7	9.15e-05	0	43	102	1048576	20	4437
2026-01-07 12:01:16.48	226.84	14.94	-30.0	-31.5	13.1	2.44e-05	0	44	102	1048576	20	4290
2026-01-07 12:01:19.49	227.32	15.15	-29.7	-30.7	13.6	9.90e-06	0	43	102	1048576	20	4054
2026-01-07 12:01:22.51	227.81	15.37	-29.5	-30.1	14.0	3.00e-06	0	44	102	1048576	20	3887
2026-01-07 12:01:25.53	228.30	15.59	-29.7	-30.7	13.6	1.06e-05	0	44	102	1048576	20	4058
2026-01-07 12:01:28.55	228.81	15.80	-29.5	-30.2	14.0	1.50e-06	0	43	102	1048576	20	3891
2026-01-07 12:01:31.57	229.31	16.02	-29.4	-30.0	14.0	6.10e-06	0	43	102	1048576	20	3857
2026-01-07 12:01:34.59	229.83	16.23	-29.5	-30.2	14.0	3.00e-06	0	43	102	1048576	20	3889
2026-01-07 12:01:37.61	230.36	16.45	-29.9	-31.2	13.4	9.10e-06	0	44	102	1048576	20	4188
2026-01-07 12:01:40.63	230.89	16.66	-29.9	-31.3	13.3	2.74e-05	0	43	102	1048576	20	4225
2026-01-07 12:01:43.65	231.43	16.88	-30.1	-31.8	13.0	3.96e-05	0	44	102	1048576	20	4391
2026-01-07 12:01:46.67	231.97	17.09	-30.2	-31.9	12.9	8.08e-05	0	44	102	1048576	20	4418
2026-01-07 12:01:49.69	232.53	17.30	-29.6	-30.5	13.9	6.10e-06	0	43	102	1048576	20	3972
2026-01-07 12:01:52.70	233.09	17.51	-29.5	-30.2	14.0	0.00e+00	0	44	102	1048576	20	3895
2026-01-07 12:01:55.72	233.65	17.72	-29.2	-29.9	14.6	7.00e-07	0	43	102	1048576	19	3880
2026-01-07 12:01:58.73	234.23	17.93	-29.2	-29.8	14.8	0.00e+00	0	43	102	1048576	19	3849
2026-01-07 12:02:01.75	234.81	18.14	-29.1	-29.6	14.8	0.00e+00	0	44	102	1048576	19	3789
2026-01-07 12:02:04.78	235.41	18.35	-29.1	-29.4	14.9	0.00e+00	0	44	102	1048576	19	3766
2026-01-07 12:02:07.79	236.01	18.56	-29.0	-29.3	15.0	0.00e+00	0	44	102	1048576	19	3730
2026-01-07 12:02:10.82	236.62	18.76	-29.0	-29.4	14.9	0.00e+00	0	44	102	1048576	19	3765
2026-01-07 12:02:13.84	237.23	18.97	-29.2	-29.7	14.8	0.00e+00	0	44	102	1048576	19	3837
2026-01-07 12:02:16.86	237.86	19.17	-29.2	-29.9	14.7	0.00e+00	0	44	102	1048576	19	3882
2026-01-07 12:02:19.87	238.49	19.37	-29.3	-30.1	14.6	1.50e-06	0	44	102	1048576	19	3942
2026-01-07 12:02:22.89	239.13	19.57	-29.3	-30.0	14.7	7.00e-07	0	43	102	1048576	19	3895
2026-01-07 12:02:25.91	239.78	19.77	-29.3	-30.0	14.6	0.00e+00	0	43	102	1048576	19	3922
2026-01-07 12:02:28.93	240.43	19.96	-28.9	-29.1	15.2	0.00e+00	0	43	102	1048576	19	3673
2026-01-07 12:02:31.94	241.10	20.15	-29.5	-30.6	14.3	0.00e+00	0	44	102	1048576	19	4073
2026-01-07 12:02:34.97	241.77	20.34	-29.8	-31.3	13.9	2.20e-06	0	43	102	1048576	19	4289
2026-01-07 12:02:37.99	242.45	20.53	-29.6	-30.7	14.2	3.80e-06	0	44	102	1048576	19	4095
2026-01-07 12:02:41.00	243.14	20.71	-30.2	-32.0	13.0	2.36e-05	0	44	102	1048576	20	4432
2026-01-07 12:02:44.02	243.84	20.90	-29.6	-30.3	14.1	1.50e-06	0	44	102	1048576	20	3900
2026-01-07 12:02:47.05	244.54	21.08	-30.1	-31.6	13.3	1.44e-05	0	44	102	1048576	20	4302
2026-01-07 12:02:50.07	245.26	21.25	-30.7	-32.8	12.2	2.46e-04	0	44	102	1048576	21	4599
2026-01-07 12:02:53.10	245.98	21.43	-29.6	-30.2	14.2	6.10e-06	0	43	102	1048576	20	3888
2026-01-07 12:02:56.12	246.71	21.59	-29.8	-30.8	13.9	5.30e-06	0	43	102	1048576	20	4041
2026-01-07 12:02:59.14	247.45	21.76	-29.3	-29.6	14.6	0.00e+00	0	44	102	1048576	20	3716
2026-01-07 12:03:02.17	248.19	21.92	-29.6	-30.8	14.3	0.00e+00	0	44	102	1048576	19	4111
2026-01-07 12:03:05.20	248.95	22.08	-29.6	-30.3	14.2	1.50e-06	0	44	102	1048576	20	3894
2026-01-07 12:03:08.22	249.71	22.23	-29.4	-29.7	14.5	0.00e+00	0	44	102	1048576	20	3735
2026-01-07 12:03:11.24	250.47	22.38	-29.7	-30.6	14.0	7.00e-07	0	44	102	1048576	20	3983
2026-01-07 12:03:14.26	251.25	22.53	-30.2	-31.9	13.2	1.83e-05	0	44	102	1048576	20	4362
2026-01-07 12:03:17.27	252.02	22.67	-30.8	-33.0	12.1	3.19e-04	0	43	102	1048576	21	4667
2026-01-07 12:03:20.28	252.81	22.81	-29.7	-30.7	14.0	6.80e-06	0	44	102	1048576	20	3999
2026-01-07 12:03:23.29	253.60	22.94	-30.1	-31.6	13.4	4.50e-06	0	44	102	1048576	20	4279
2026-01-07 12:03:26.32	254.40	23.06	-30.4	-32.0	12.8	1.41e-04	0	44	102	1048576	21	4314
2026-01-07 12:03:29.35	255.21	23.18	-30.3	-31.6	13.0	2.36e-05	0	44	102	1048576	21	4195
2026-01-07 12:03:32.36	256.02	23.30	-30.3	-31.8	13.0	6.10e-05	0	44	102	1048576	21	4242
2026-01-07 12:03:35.39	256.84	23.41	-30.3	-31.7	13.0	2.05e-05	0	44	102	1048576	21	4233
2026-01-07 12:03:38.40	257.66	23.51	-31.5	-34.6	10.7	1.74e-03	0	44	102	1048576	22	5175
2026-01-07 12:03:41.43	258.49	23.61	-31.6	-34.6	10.3	6.38e-03	0	44	102	1048576	23	5073
2026-01-07 12:03:44.44	259.32	23.71	-31.3	-33.4	11.2	1.83e-03	0	44	102	1048576	23	4623
2026-01-07 12:03:47.47	260.17	23.79	-31.3	-33.5	11.1	1.50e-03	0	44	102	1048576	23	4644
2026-01-07 12:03:50.49	261.01	23.88	-31.1	-32.9	11.6	9.28e-04	0	44	102	1048576	23	4451
2026-01-07 12:03:53.51	261.86	23.95	-31.1	-32.8	11.6	4.62e-04	0	44	102	1048576	23	4421
2026-01-07 12:03:56.52	262.70	24.02	-31.4	-33.7	11.0	2.03e-03	0	44	102	1048576	23	4736
2026-01-07 12:03:59.55	263.56	24.08	-31.0	-32.7	11.8	4.55e-04	0	44	102	1048576	23	4353
2026-01-07 12:04:02.57	264.42	24.14	-30.9	-32.3	12.0	4.10e-04	0	44	102	1048576	23	4225
2026-01-07 12:04:05.59	265.28	24.19	-30.2	-31.4	13.3	2.59e-05	0	44	102	1048576	21	4130
2026-01-07 12:04:08.60	266.14	24.23	-30.4	-31.9	12.9	1.37e-05	0	44	102	1048576	21	4292
2026-01-07 12:04:11.63	267.00	24.27	-31.1	-33.3	11.7	1.20e-03	0	44	102	1048576	22	4650
2026-01-07 12:04:14.65	267.87	24.30	-29.9	-30.4	13.9	3.80e-06	0	44	102	1048576	21	3840
2026-01-07 12:04:17.67	268.74	24.32	-30.4	-31.8	13.0	3.96e-05	0	44	102	1048576	21	4248
2026-01-07 12:04:20.68	269.60	24.34	-30.1	-31.1	13.4	7.60e-06	0	44	102	1048576	21	4045
2026-01-07 12:04:23.70	270.47	24.34	-30.5	-32.1	12.8	5.95e-05	0	43	102	1048576	21	4332
2026-01-07 12:04:26.73	271.34	24.35	-30.1	-31.1	13.5	1.22e-05	0	44	102	1048576	21	4018
2026-01-07 12:04:29.75	272.21	24.34	-30.2	-31.3	13.3	1.67e-05	0	44	102	1048576	21	4109
2026-01-07 12:04:32.77	273.08	24.33	-30.4	-32.0	12.8	6.02e-05	0	44	102	1048576	21	4314
2026-01-07 12:04:35.79	273.95	24.31	-30.4	-31.9	12.9	6.86e-05	0	43	102	1048576	21	4288
2026-01-07 12:04:38.81	274.82	24.29	-29.8	-30.6	14.1	4.50e-06	0	44	102	1048576	20	3991
2026-01-07 12:04:41.83	275.68	24.26	-29.9	-31.1	13.7	3.00e-06	0	44	102	1048576	20	4111
2026-01-07 12:04:44.85	276.54	24.22	-30.0	-31.3	13.7	1.06e-05	0	44	102	1048576	20	4166
2026-01-07 12:04:47.87	277.40	24.18	-29.5	-30.1	14.4	2.20e-06	0	44	102	1048576	20	3845
2026-01-07 12:04:50.90	278.27	24.13	-29.6	-30.2	14.3	0.00e+00	0	43	102	1048576	20	3867
2026-01-07 12:04:53.92	279.12	24.07	-29.8	-30.8	13.9	3.00e-06	0	44	102	1048576	20	4042
2026-01-07 12:04:56.94	279.97	24.00	-30.2	-31.9	13.3	8.30e-06	0	44	102	1048576	20	4368
2026-01-07 12:04:59.96	280.82	23.93	-30.0	-31.3	13.6	7.60e-06	0	44	102	1048576	20	4195
2026-01-07 12:05:02.98	281.67	23.86	-29.8	-30.7	14.1	7.00e-07	0	43	102	1048576	20	3997
2026-01-07 12:05:05.99	282.50	23.78	-29.6	-30.1	14.3	7.00e-07	0	44	102	1048576	20	3851
2026-01-07 12:05:09.00	283.34	23.69	-29.7	-30.5	14.1	1.50e-06	0	44	102	1048576	20	3941
2026-01-07 12:05:12.03	284.17	23.59	-29.3	-29.5	14.8	0.00e+00	0	44	102	1048576	20	3677
2026-01-07 12:05:15.04	284.99	23.49	-29.1	-29.4	15.2	0.00e+00	0	44	102	1048576	19	3738
2026-01-07 12:05:18.07	285.81	23.39	-29.1	-29.4	15.2	0.00e+00	0	43	102	1048576	19	3728
2026-01-07 12:05:21.08	286.63	23.28	-29.0	-29.3	15.3	0.00e+00	0	44	102	1048576	19	3696
2026-01-07 12:05:24.10	287.44	23.16	-29.4	-30.1	14.8	0.00e+00	0	43	102	1048576	19	3932
2026-01-07 12:05:27.12	288.24	23.04	-29.8	-31.4	14.0	3.80e-06	0	44	102	1048576	19	4281
2026-01-07 12:05:30.14	289.03	22.91	-29.3	-29.9	14.9	0.00e+00	0	44	102	1048576	19	3865
2026-01-07 12:05:33.15	289.82	22.78	-29.0	-29.3	15.3	0.00e+00	0	44	102	1048576	19	3703
2026-01-07 12:05:36.18	290.61	22.64	-28.8	-29.2	15.6	0.00e+00	0	44	102	1048576	18	3769
2026-01-07 12:05:39.20	291.38	22.50	-28.3	-28.4	16.3	0.00e+00	0	44	102	1048576	17	3678
2026-01-07 12:05:42.21	292.15	22.36	-28.1	-28.1	16.5	0.00e+00	0	44	102	1048576	17	3597
2026-01-07 12:05:45.24	292.92	22.21	-28.5	-29.0	16.0	0.00e+00	0	44	102	1048576	17	3825
2026-01-07 12:05:48.25	293.67	22.05	-28.5	-29.0	16.0	0.00e+00	0	44	102	1048576	17	3823
2026-01-07 12:05:51.28	294.42	21.90	-28.7	-29.5	15.6	0.00e+00	0	43	102	1048576	17	3942
2026-01-07 12:05:54.29	295.16	21.74	-28.9	-30.0	15.4	0.00e+00	0	44	102	1048576	17	4090
2026-01-07 12:05:57.32	295.89	21.57	-28.9	-29.6	15.3	0.00e+00	0	43	102	1048576	18	3892
2026-01-07 12:06:00.34	296.62	21.40	-28.9	-29.6	15.3	7.00e-07	0	44	102	1048576	18	3894
2026-01-07 12:06:03.37	297.33	21.23	-28.9	-29.7	15.2	0.00e+00	0	44	102	1048576	18	3941
2026-01-07 12:06:06.39	298.04	21.05	-29.0	-29.8	15.1	0.00e+00	0	44	102	1048576	18	3946
2026-01-07 12:06:09.41	298.74	20.87	-29.2	-30.5	14.7	0.00e+00	0	44	102	1048576	18	4169
2026-01-07 12:06:12.43	299.44	20.69	-29.5	-30.7	14.2	0.00e+00	0	44	102	1048576	19	4128
2026-01-07 12:06:15.45	300.12	20.51	-29.9	-31.8	13.5	6.10e-06	0	44	102	1048576	19	4472
2026-01-07 12:06:18.47	300.80	20.32	-29.7	-31.4	13.8	1.75e-05	0	44	102	1048576	19	4334
2026-01-07 12:06:21.49	301.47	20.13	-29.3	-30.2	14.5	0.00e+00	0	44	102	1048576	19	3994
2026-01-07 12:06:24.51	302.13	19.94	-29.5	-30.7	14.2	3.00e-06	0	44	102	1048576	19	4146
2026-01-07 12:06:27.53	302.78	19.75	-29.9	-31.7	13.4	3.00e-06	0	44	102	1048576	19	4451
2026-01-07 12:06:30.55	303.43	19.55	-29.8	-31.4	13.7	3.00e-06	0	44	102	1048576	19	4369
2026-01-07 12:06:33.57	304.06	19.35	-30.0	-31.7	13.1	2.51e-05	0	44	102	1048576	20	4380
2026-01-07 12:06:36.60	304.69	19.15	-30.1	-31.9	13.0	4.11e-05	0	43	102	1048576	20	4435
2026-01-07 12:06:39.61	305.31	18.95	-30.0	-31.6	13.2	1.83e-05	0	43	102	1048576	20	4328
2026-01-07 12:06:42.62	305.92	18.75	-29.9	-31.5	13.2	1.67e-05	0	44	102	1048576	20	4304
2026-01-07 12:06:45.64	306.52	18.55	-30.0	-31.6	13.1	1.75e-05	0	44	102	1048576	20	4342
2026-01-07 12:06:48.66	307.12	18.34	-29.7	-30.8	13.7	6.80e-06	0	44	102	1048576	20	4089
2026-01-07 12:06:51.67	307.71	18.14	-30.1	-32.0	12.9	2.36e-05	0	44	102	1048576	20	4463
2026-01-07 12:06:54.69	308.29	17.93	-30.2	-32.2	12.7	1.36e-04	0	44	102	1048576	20	4522
2026-01-07 12:06:57.71	308.86	17.72	-29.8	-31.1	13.4	1.14e-05	0	44	102	1048576	20	4201
2026-01-07 12:07:00.74	309.43	17.51	-29.9	-31.5	13.2	1.06e-05	0	44	102	1048576	20	4302
2026-01-07 12:07:03.76	309.99	17.30	-30.1	-31.8	13.0	3.73e-05	0	44	102	1048576	20	4396
2026-01-07 12:07:06.78	310.54	17.09	-30.0	-31.6	13.1	2.51e-05	0	44	102	1048576	20	4330
2026-01-07 12:07:09.80	311.08	16.88	-30.0	-31.5	13.2	2.05e-05	0	44	102	1048576	20	4301
2026-01-07 12:07:12.82	311.61	16.66	-30.3	-31.8	12.6	1.35e-04	0	44	102	1048576	21	4310
2026-01-07 12:07:15.84	312.14	16.45	-30.0	-31.0	13.2	1.67e-05	0	44	102	1048576	21	4055
2026-01-07 12:07:18.86	312.66	16.24	-30.4	-32.2	12.3	1.17e-04	0	44	102	1048576	21	4456
2026-01-07 12:07:21.88	313.18	16.03	-30.8	-33.4	11.5	6.89e-04	0	43	102	1048576	21	4883
2026-01-07 12:07:24.89	313.68	15.81	-30.7	-33.1	11.7	5.51e-04	0	43	102	1048576	21	4770
2026-01-07 12:07:27.91	314.18	15.60	-29.8	-31.0	13.4	1.60e-05	0	44	102	1048576	20	4165
2026-01-07 12:07:30.93	314.67	15.38	-29.6	-30.6	13.7	6.10e-06	0	44	102	1048576	20	4029
2026-01-07 12:07:33.96	315.16	15.17	-30.0	-31.7	13.0	1.90e-05	0	43	102	1048576	20	4365
2026-01-07 12:07:36.98	315.64	14.96	-29.7	-30.9	13.5	9.10e-06	0	44	102	1048576	20	4109
2026-01-07 12:07:39.99	316.11	14.74	-29.7	-30.9	13.5	3.80e-06	0	44	102	1048576	20	4120
2026-01-07 12:07:43.02	316.58	14.53	-29.8	-31.0	13.5	5.30e-06	0	44	102	1048576	20	4149
2026-01-07 12:07:46.04	317.04	14.32	-30.2	-32.3	12.6	7.01e-05	0	44	102	1048576	20	4554
2026-01-07 12:07:49.06	317.49	14.10	-30.0	-31.7	12.9	6.63e-05	0	44	102	1048576	20	4380
2026-01-07 12:07:52.07	317.94	13.89	-30.2	-32.2	12.6	5.72e-05	0	43	102	1048576	20	4531
2026-01-07 12:07:55.09	318.38	13.68	-30.5	-33.0	12.0	2.48e-04	0	44	102	1048576	20	4829
2026-01-07 12:07:58.10	318.81	13.47	-30.6	-33.1	11.6	5.88e-04	0	44	102	1048576	21	4759
2026-01-07 12:08:01.12	319.24	13.25	-30.3	-31.9	12.4	1.71e-04	0	44	102	1048576	21	4362
2026-01-07 12:08:04.14	319.66	13.04	-30.1	-31.3	12.8	5.79e-05	0	44	102	1048576	21	4149
2026-01-07 12:08:07.17	320.08	12.83	-30.2	-31.7	12.6	5.64e-05	0	44	102	1048576	21	4297
2026-01-07 12:08:10.19	320.49	12.62	-30.3	-32.1	12.3	2.12e-04	0	44	102	1048576	21	4401
2026-01-07 12:08:13.20	320.89	12.41	-30.3	-32.0	12.3	2.01e-04	0	44	102	1048576	21	4376
2026-01-07 12:08:16.23	321.30	12.20	-30.4	-32.4	12.0	2.20e-04	0	44	102	1048576	21	4521
2026-01-07 12:08:19.25	321.69	11.99	-30.7	-33.2	11.5	6.67e-04	0	44	102	1048576	21	4821
2026-01-07 12:08:22.27	322.08	11.78	-30.8	-33.6	11.1	2.28e-03	0	44	102	1048576	21	4982
2026-01-07 12:08:25.29	322.46	11.58	-30.5	-32.8	11.7	6.67e-04	0	44	102	1048576	21	4651
2026-01-07 12:08:28.31	322.84	11.37	-30.1	-31.4	12.7	8.85e-05	0	44	102	1048576	21	4203
2026-01-07 12:08:31.33	323.22	11.16	-29.9	-31.0	13.0	4.04e-05	0	44	102	1048576	21	4076
2026-01-07 12:08:34.35	323.58	10.96	-29.9	-31.0	12.8	5.64e-05	0	44	102	1048576	21	4079
2026-01-07 12:08:37.37	323.95	10.75	-30.1	-31.5	12.6	1.13e-04	0	44	102	1048576	21	4213
2026-01-07 12:08:40.39	324.31	10.55	-30.2	-31.8	12.3	2.26e-04	0	44	102	1048576	21	4335
2026-01-07 12:08:43.41	324.66	10.35	-30.3	-32.0	12.1	2.23e-04	0	44	102	1048576	21	4391
2026-01-07 12:08:46.43	325.01	10.14	-30.4	-32.3	12.0	2.96e-04	0	44	102	1048576	21	4499
2026-01-07 12:08:49.46	325.36	9.94	-30.6	-32.9	11.5	5.96e-04	0	44	102	1048576	21	4702
2026-01-07 12:08:52.48	325.70	9.74	-30.7	-33.3	11.2	1.36e-03	0	44	102	1048576	21	4871
2026-01-07 12:08:55.50	326.03	9.54	-30.6	-33.0	11.3	1.18e-03	0	44	102	1048576	21	4745
2026-01-07 12:08:58.51	326.36	9.34	-30.5	-32.8	11.4	7.43e-04	0	44	102	1048576	21	4671
2026-01-07 12:09:01.53	326.69	9.14	-30.4	-32.4	11.5	7.41e-04	0	44	102	1048576	21	4523
2026-01-07 12:09:04.55	327.01	8.95	-30.4	-32.6	10.6	2.84e-03	0	44	102	1048576	21	4633
2026-01-07 12:09:07.57	327.33	8.75	-30.7	-33.5	10.5	3.46e-03	0	44	102	1048576	21	4936
2026-01-07 12:09:10.59	327.65	8.55	-30.7	-33.5	10.8	2.74e-03	0	44	102	1048576	21	4958
2026-01-07 12:09:13.62	327.96	8.36	-30.5	-33.1	9.9	5.76e-03	0	44	102	1048576	21	4816
2026-01-07 12:09:16.64	328.27	8.16	-30.5	-33.3	7.6	5.52e-02	0	44	102	1048576	21	5001
2026-01-07 12:09:19.66	328.57	7.97	-30.8	-34.0	8.8	3.61e-02	0	44	102	1048576	21	5198
2026-01-07 12:09:22.68	328.87	7.78	-31.0	-34.4	10.1	5.59e-03	0	44	102	1048576	21	5314
2026-01-07 12:09:25.69	329.16	7.58	-31.0	-34.0	9.7	1.31e-02	0	44	102	1048576	22	5111
2026-01-07 12:09:28.72	329.45	7.39	-31.2	-34.9	8.8	3.86e-02	0	44	102	1048576	22	5500
2026-01-07 12:09:31.75	329.74	7.20	-30.8	-33.5	10.0	8.14e-03	0	44	102	1048576	22	4881
2026-01-07 12:09:34.78	330.03	7.01	-33.5	-46.2	3.8	1.49e+00	0	44	104	1048576	26	15545

#Closed at: 2026-01-07 12:09:35
#Recorded file [1 MB]: D:/data/31010_260107_145923.dat