passes_logs/2026/01/07/R2M6_AANII_01/R2M6_AANII_01__20260107_114727_AQUA_rec.log

#Pass ID: 20260107_114727_AQUA
#Satellite: AQUA
#Configuration: AQUA
#almurnet v.1.7.20240730
#Start time: 2026-01-07 11:47:28

#Version: 2.2.20231116
#Station: R2M6_AANII_01
#Location: 30.233357 lon 59.946436 lat
#TLE: 1 27424U 02022A   26004.96787593  .00001598  00000+0  32997-3 0  9996
#TLE: 2 27424  98.4069 331.2279 0002002  90.2377   0.6092 14.61798176259425

#Time	Az	El	Level	Level2	SNR	BER	BlckErr	Temp	State	Recorded	gain1	gain2
2026-01-07 11:47:28.15	152.18	7.05	-30.9	-37.5	5.1	7.09e-01	0	41	0	0	23	7673
2026-01-07 11:47:31.15	152.14	7.30	-31.4	-38.1	12.7	6.11e-01	0	41	102	1048576	24	7725
2026-01-07 11:47:34.18	152.09	7.55	-30.8	-35.9	14.8	6.07e-01	0	41	102	1048576	23	6421
2026-01-07 11:47:37.19	152.05	7.81	-30.4	-35.3	15.5	6.07e-01	0	41	102	1048576	22	6332
2026-01-07 11:47:40.21	152.01	8.07	-30.1	-34.7	15.9	6.06e-01	0	41	102	1048576	22	6101
2026-01-07 11:47:43.23	151.96	8.33	-29.9	-34.4	16.5	6.06e-01	0	41	102	1048576	21	6057
2026-01-07 11:47:46.24	151.91	8.59	-29.9	-34.0	16.9	6.08e-01	0	41	102	1048576	21	5776
2026-01-07 11:47:49.24	151.87	8.85	-30.0	-33.9	17.1	6.06e-01	0	41	102	1048576	21	5666
2026-01-07 11:47:52.27	151.82	9.12	-30.1	-34.3	16.9	6.07e-01	0	42	102	1048576	21	5836
2026-01-07 11:47:55.30	151.77	9.40	-29.9	-33.5	17.5	6.07e-01	0	42	102	1048576	21	5442
2026-01-07 11:47:58.31	151.72	9.67	-29.8	-33.4	17.6	6.07e-01	0	42	102	1048576	21	5406
2026-01-07 11:48:01.33	151.66	9.95	-29.8	-33.2	17.8	6.07e-01	0	42	102	1048576	21	5338
2026-01-07 11:48:04.35	151.61	10.24	-29.9	-33.6	17.5	6.09e-01	0	42	102	1048576	21	5524
2026-01-07 11:48:07.37	151.56	10.52	-30.0	-33.8	17.3	6.06e-01	0	42	102	1048576	21	5603
2026-01-07 11:48:10.38	151.50	10.81	-29.9	-33.5	17.6	6.05e-01	0	42	102	1048576	21	5430
2026-01-07 11:48:13.41	151.44	11.11	-29.9	-33.3	17.8	6.06e-01	0	42	102	1048576	21	5350
2026-01-07 11:48:16.43	151.38	11.41	-29.7	-33.0	18.1	6.05e-01	0	42	102	1048576	21	5214
2026-01-07 11:48:19.44	151.32	11.71	-29.7	-33.0	18.0	6.10e-01	0	42	102	1048576	21	5228
2026-01-07 11:48:22.46	151.26	12.01	-29.7	-32.7	18.3	6.06e-01	0	42	102	1048576	21	5110
2026-01-07 11:48:25.48	151.20	12.33	-29.8	-33.1	18.1	6.04e-01	0	42	102	1048576	21	5244
2026-01-07 11:48:28.50	151.13	12.64	-29.7	-32.7	18.4	6.06e-01	0	42	102	1048576	21	5064
2026-01-07 11:48:31.52	151.06	12.96	-29.7	-32.6	18.5	6.05e-01	0	42	102	1048576	21	5011
2026-01-07 11:48:34.54	151.00	13.29	-29.5	-32.1	18.8	6.05e-01	0	42	102	1048576	21	4854
2026-01-07 11:48:37.56	150.92	13.62	-29.5	-32.0	18.9	6.07e-01	0	42	102	1048576	21	4816
2026-01-07 11:48:40.58	150.85	13.95	-29.6	-32.4	18.7	6.05e-01	0	42	102	1048576	21	4956
2026-01-07 11:48:43.60	150.78	14.29	-29.5	-32.1	18.9	6.07e-01	0	43	102	1048576	21	4836
2026-01-07 11:48:46.61	150.70	14.63	-29.6	-32.2	18.9	6.05e-01	0	42	102	1048576	21	4872
2026-01-07 11:48:49.64	150.62	14.98	-29.7	-32.5	18.7	6.07e-01	0	42	102	1048576	21	4986
2026-01-07 11:48:52.66	150.54	15.34	-29.8	-32.9	18.5	6.09e-01	0	42	102	1048576	21	5122
2026-01-07 11:48:55.68	150.46	15.70	-29.8	-32.7	18.6	6.06e-01	0	42	102	1048576	21	5026
2026-01-07 11:48:58.70	150.37	16.07	-30.0	-33.2	18.4	6.08e-01	0	43	102	1048576	21	5194
2026-01-07 11:49:01.72	150.28	16.44	-29.7	-32.3	19.0	6.06e-01	0	43	102	1048576	21	4872
2026-01-07 11:49:04.74	150.19	16.82	-29.7	-32.4	18.9	6.06e-01	0	43	102	1048576	21	4913
2026-01-07 11:49:07.76	150.10	17.21	-29.7	-32.3	19.1	6.06e-01	0	43	102	1048576	21	4846
2026-01-07 11:49:10.79	150.00	17.61	-29.7	-32.3	19.1	6.05e-01	0	43	102	1048576	21	4847
2026-01-07 11:49:13.80	149.90	18.01	-29.8	-32.5	19.1	6.06e-01	0	43	102	1048576	21	4906
2026-01-07 11:49:16.81	149.80	18.41	-29.7	-32.3	19.2	6.05e-01	0	43	102	1048576	21	4849
2026-01-07 11:49:19.83	149.69	18.83	-29.7	-32.4	19.2	6.09e-01	0	43	102	1048576	21	4865
2026-01-07 11:49:22.86	149.58	19.25	-29.8	-32.4	19.2	6.06e-01	0	43	102	1048576	21	4863
2026-01-07 11:49:25.88	149.47	19.68	-29.7	-32.3	19.3	6.05e-01	0	43	102	1048576	21	4821
2026-01-07 11:49:28.89	149.35	20.12	-29.8	-32.4	19.3	6.04e-01	0	43	102	1048576	21	4880
2026-01-07 11:49:31.91	149.23	20.57	-29.8	-32.4	19.2	6.06e-01	0	43	102	1048576	21	4874
2026-01-07 11:49:34.93	149.11	21.02	-29.7	-32.2	19.4	6.07e-01	0	43	102	1048576	21	4793
2026-01-07 11:49:37.94	148.98	21.49	-29.8	-32.5	19.3	6.04e-01	0	43	102	1048576	21	4892
2026-01-07 11:49:40.97	148.84	21.96	-29.9	-32.7	19.2	6.05e-01	0	43	102	1048576	21	4957
2026-01-07 11:49:43.99	148.70	22.45	-30.2	-33.4	18.8	6.05e-01	0	43	102	1048576	21	5209
2026-01-07 11:49:47.01	148.56	22.94	-29.8	-32.5	19.3	6.05e-01	0	43	102	1048576	21	4906
2026-01-07 11:49:50.02	148.41	23.45	-30.0	-33.0	19.1	6.09e-01	0	43	102	1048576	21	5062
2026-01-07 11:49:53.05	148.26	23.96	-30.0	-32.9	19.1	6.04e-01	0	43	102	1048576	21	5032
2026-01-07 11:49:56.06	148.10	24.49	-29.9	-32.6	19.4	6.07e-01	0	43	102	1048576	21	4896
2026-01-07 11:49:59.09	147.93	25.03	-29.9	-32.6	19.4	6.08e-01	0	43	102	1048576	21	4888
2026-01-07 11:50:02.10	147.76	25.58	-29.9	-32.4	19.5	6.05e-01	0	43	102	1048576	21	4846
2026-01-07 11:50:05.11	147.58	26.14	-30.0	-32.8	19.3	6.08e-01	0	43	102	1048576	21	4977
2026-01-07 11:50:08.14	147.40	26.71	-29.8	-32.3	19.6	6.07e-01	0	43	102	1048576	21	4803
2026-01-07 11:50:11.15	147.21	27.30	-29.7	-32.1	19.8	6.08e-01	0	43	102	1048576	21	4712
2026-01-07 11:50:14.18	147.00	27.90	-29.5	-31.6	20.1	6.05e-01	0	43	102	1048576	21	4554
2026-01-07 11:50:17.19	146.79	28.51	-29.7	-32.0	19.9	6.06e-01	0	43	102	1048576	21	4677
2026-01-07 11:50:20.22	146.58	29.15	-29.6	-31.7	20.1	6.06e-01	0	43	102	1048576	21	4578
2026-01-07 11:50:23.24	146.35	29.79	-29.3	-31.4	20.5	6.08e-01	0	43	102	1048576	20	4604
2026-01-07 11:50:26.26	146.11	30.45	-29.4	-31.7	20.4	6.08e-01	0	43	102	1048576	20	4708
2026-01-07 11:50:29.29	145.86	31.13	-29.6	-32.2	20.1	6.05e-01	0	43	102	1048576	20	4847
2026-01-07 11:50:32.30	145.60	31.82	-29.5	-31.9	20.3	6.07e-01	0	43	102	1048576	20	4767
2026-01-07 11:50:35.32	145.33	32.53	-29.7	-32.3	20.1	6.07e-01	0	43	102	1048576	20	4890
2026-01-07 11:50:38.34	145.04	33.26	-29.6	-32.2	20.1	6.07e-01	0	43	102	1048576	20	4852
2026-01-07 11:50:41.36	144.74	34.00	-29.8	-32.6	19.9	6.04e-01	0	43	102	1048576	20	4978
2026-01-07 11:50:44.37	144.43	34.76	-30.1	-32.9	19.5	6.09e-01	0	43	102	1048576	21	4981
2026-01-07 11:50:47.38	144.10	35.54	-30.2	-33.2	19.2	6.06e-01	0	43	102	1048576	21	5099
2026-01-07 11:50:50.41	143.75	36.35	-30.7	-33.9	18.6	6.08e-01	0	43	102	1048576	22	5231
2026-01-07 11:50:53.43	143.38	37.17	-30.9	-34.7	18.1	6.07e-01	0	43	102	1048576	22	5532
2026-01-07 11:50:56.45	142.99	38.01	-31.4	-35.4	17.3	6.08e-01	0	43	102	1048576	23	5727
2026-01-07 11:50:59.47	142.58	38.88	-31.2	-34.8	17.7	6.04e-01	0	43	102	1048576	23	5482
2026-01-07 11:51:02.49	142.15	39.77	-31.7	-36.1	16.5	6.06e-01	0	43	102	1048576	24	5934
2026-01-07 11:51:05.50	141.70	40.67	-31.1	-34.1	17.9	6.07e-01	0	43	102	1048576	24	5081
2026-01-07 11:51:08.52	141.21	41.60	-30.8	-33.8	18.4	6.08e-01	0	43	102	1048576	23	5075
2026-01-07 11:51:11.53	140.70	42.56	-31.0	-34.3	18.0	6.07e-01	0	43	102	1048576	23	5287
2026-01-07 11:51:14.55	140.15	43.53	-30.5	-33.4	19.0	6.06e-01	0	43	102	1048576	22	5038
2026-01-07 11:51:17.57	139.56	44.54	-30.3	-32.9	19.3	6.06e-01	0	43	102	1048576	22	4871
2026-01-07 11:51:20.59	138.94	45.56	-30.8	-34.4	18.4	6.06e-01	0	43	102	1048576	22	5393
2026-01-07 11:51:23.62	138.27	46.62	-30.5	-33.3	19.1	6.06e-01	0	43	102	1048576	22	4997
2026-01-07 11:51:26.63	137.55	47.69	-31.0	-34.7	18.2	6.06e-01	0	43	102	1048576	22	5542
2026-01-07 11:51:29.66	136.78	48.79	-30.4	-33.1	19.2	6.06e-01	0	43	102	1048576	22	4920
2026-01-07 11:51:32.68	135.95	49.91	-30.3	-32.9	19.3	6.05e-01	0	43	102	1048576	22	4855
2026-01-07 11:51:35.71	135.06	51.05	-30.3	-32.8	19.4	6.07e-01	0	43	102	1048576	22	4814
2026-01-07 11:51:38.74	134.09	52.22	-29.9	-32.3	20.0	6.07e-01	0	43	102	1048576	21	4761
2026-01-07 11:51:41.76	133.04	53.40	-29.6	-31.7	20.4	6.08e-01	0	43	102	1048576	21	4578
2026-01-07 11:51:44.78	131.90	54.61	-29.8	-32.0	20.2	6.08e-01	0	43	102	1048576	21	4658
2026-01-07 11:51:47.80	130.66	55.83	-29.9	-32.4	20.0	6.07e-01	0	43	102	1048576	21	4778
2026-01-07 11:51:50.82	129.30	57.06	-30.3	-33.4	19.4	6.05e-01	0	43	102	1048576	21	5133
2026-01-07 11:51:53.83	127.82	58.30	-30.4	-33.0	19.3	6.07e-01	0	43	102	1048576	22	4881
2026-01-07 11:51:56.85	126.18	59.55	-30.7	-33.9	18.9	6.07e-01	0	43	102	1048576	22	5191
2026-01-07 11:51:59.88	124.37	60.81	-30.9	-33.9	18.6	6.07e-01	0	43	102	1048576	23	5097
2026-01-07 11:52:02.90	122.38	62.06	-31.2	-34.8	18.0	6.06e-01	0	43	102	1048576	23	5410
2026-01-07 11:52:05.92	120.17	63.31	-31.5	-35.6	17.5	6.05e-01	0	43	102	1048576	23	5779
2026-01-07 11:52:08.93	117.72	64.53	-31.7	-35.8	17.2	6.07e-01	0	43	102	1048576	24	5737
2026-01-07 11:52:11.95	114.99	65.73	-32.4	-37.2	15.8	6.07e-01	0	43	102	1048576	25	6318
2026-01-07 11:52:14.97	111.95	66.89	-32.5	-37.6	15.6	6.07e-01	0	43	102	1048576	25	6522
2026-01-07 11:52:17.99	108.56	68.00	-32.4	-37.2	15.9	6.06e-01	0	43	102	1048576	25	6260
2026-01-07 11:52:21.01	104.78	69.05	-32.4	-37.4	15.6	6.07e-01	0	43	102	1048576	25	6376
2026-01-07 11:52:24.03	100.60	70.01	-32.0	-35.9	16.7	6.07e-01	0	43	102	1048576	25	5675
2026-01-07 11:52:27.04	96.00	70.87	-32.5	-37.8	15.5	6.09e-01	0	43	102	1048576	25	6564
2026-01-07 11:52:30.06	90.95	71.61	-32.2	-36.5	16.4	6.07e-01	0	43	102	1048576	25	5925
2026-01-07 11:52:33.08	85.50	72.20	-32.6	-38.0	15.4	6.08e-01	0	43	102	1048576	25	6711
2026-01-07 11:52:36.11	79.68	72.64	-32.8	-38.1	14.9	6.05e-01	0	43	102	1048576	26	6648
2026-01-07 11:52:39.13	73.63	72.90	-32.4	-36.7	15.9	6.06e-01	0	43	102	1048576	26	5931
2026-01-07 11:52:42.15	67.45	72.98	-32.6	-37.3	15.4	6.07e-01	0	43	102	1048576	26	6219
2026-01-07 11:52:45.17	61.29	72.86	-33.0	-39.0	14.2	6.09e-01	0	43	102	1048576	26	7191
2026-01-07 11:52:48.19	55.29	72.56	-32.3	-36.3	16.2	6.07e-01	0	43	102	1048576	26	5712
2026-01-07 11:52:51.20	49.58	72.09	-32.4	-36.7	15.9	6.07e-01	0	43	102	1048576	26	5941
2026-01-07 11:52:54.21	44.23	71.47	-32.7	-37.7	15.2	6.07e-01	0	43	102	1048576	26	6424
2026-01-07 11:52:57.24	39.25	70.70	-32.8	-38.1	14.8	6.05e-01	0	43	102	1048576	26	6666
2026-01-07 11:53:00.25	34.74	69.82	-32.4	-36.7	15.9	6.06e-01	0	43	102	1048576	26	5925
2026-01-07 11:53:03.28	30.63	68.84	-32.9	-38.8	14.3	6.08e-01	0	43	102	1048576	26	7065
2026-01-07 11:53:06.30	26.95	67.78	-33.1	-39.0	13.6	6.10e-01	0	43	102	1048576	27	7096
2026-01-07 11:53:09.31	23.64	66.66	-33.1	-38.8	13.9	6.09e-01	0	43	102	1048576	27	6987
2026-01-07 11:53:12.33	20.67	65.49	-32.9	-38.1	14.3	6.08e-01	0	43	102	1048576	27	6596
2026-01-07 11:53:15.35	18.00	64.29	-32.5	-36.7	15.4	6.08e-01	0	43	102	1048576	27	5852
2026-01-07 11:53:18.37	15.60	63.07	-32.5	-36.7	15.4	6.04e-01	0	43	102	1048576	27	5841
2026-01-07 11:53:21.39	13.45	61.82	-31.8	-35.4	17.0	6.04e-01	0	43	102	1048576	25	5461
2026-01-07 11:53:24.42	11.49	60.57	-30.9	-34.0	18.5	6.08e-01	0	43	102	1048576	23	5114
2026-01-07 11:53:27.44	9.73	59.32	-30.9	-33.8	18.6	6.07e-01	0	43	102	1048576	23	5062
2026-01-07 11:53:30.46	8.13	58.07	-30.6	-33.3	18.9	6.08e-01	0	43	102	1048576	23	4867
2026-01-07 11:53:33.48	6.67	56.83	-30.7	-33.4	18.8	6.07e-01	0	43	102	1048576	23	4896
2026-01-07 11:53:36.51	5.33	55.60	-29.5	-31.4	20.6	6.05e-01	0	43	102	1048576	21	4462
2026-01-07 11:53:39.52	4.12	54.39	-29.2	-31.6	21.1	6.07e-01	0	43	102	1048576	19	4733
2026-01-07 11:53:42.54	3.00	53.20	-29.2	-31.5	21.1	6.05e-01	0	43	102	1048576	19	4714
2026-01-07 11:53:45.56	1.97	52.02	-29.2	-31.6	21.1	6.08e-01	0	43	102	1048576	19	4729
2026-01-07 11:53:48.59	1.02	50.86	-29.4	-32.1	20.8	6.06e-01	0	43	102	1048576	19	4913
2026-01-07 11:53:51.59	0.15	49.74	-30.0	-32.5	19.9	6.07e-01	0	43	102	1048576	21	4821
2026-01-07 11:53:54.61	359.33	48.62	-30.1	-32.9	19.6	6.08e-01	0	43	102	1048576	21	4965
2026-01-07 11:53:57.64	358.57	47.53	-29.9	-32.4	19.9	6.07e-01	0	43	102	1048576	21	4784
2026-01-07 11:54:00.66	357.87	46.47	-30.4	-33.6	19.2	6.07e-01	0	43	102	1048576	21	5210
2026-01-07 11:54:03.68	357.21	45.43	-29.7	-31.8	20.2	6.07e-01	0	43	102	1048576	21	4600
2026-01-07 11:54:06.70	356.59	44.41	-29.7	-31.9	20.2	6.07e-01	0	43	102	1048576	21	4634
2026-01-07 11:54:09.73	356.02	43.41	-30.3	-33.5	19.2	6.06e-01	0	43	102	1048576	21	5191
2026-01-07 11:54:12.75	355.48	42.44	-30.1	-33.0	19.5	6.02e-01	0	43	102	1048576	21	4993
2026-01-07 11:54:15.77	354.97	41.49	-30.1	-32.9	19.6	6.01e-01	0	43	102	1048576	21	4965
2026-01-07 11:54:18.78	354.49	40.57	-30.9	-34.4	18.4	6.01e-01	0	43	102	1048576	22	5425
2026-01-07 11:54:21.81	354.04	39.67	-30.9	-34.4	18.3	6.00e-01	0	43	102	1048576	22	5421
2026-01-07 11:54:24.83	353.61	38.79	-30.9	-34.6	18.2	5.99e-01	0	43	102	1048576	22	5485
2026-01-07 11:54:27.85	353.21	37.93	-31.1	-34.7	17.8	6.00e-01	0	43	102	1048576	23	5424
2026-01-07 11:54:30.87	352.83	37.10	-30.8	-33.7	18.5	6.02e-01	0	43	102	1048576	23	5025
2026-01-07 11:54:33.89	352.46	36.28	-30.7	-33.5	18.5	6.03e-01	0	43	102	1048576	23	4977
2026-01-07 11:54:36.91	352.12	35.48	-30.4	-32.6	19.1	6.02e-01	0	43	102	1048576	23	4670
2026-01-07 11:54:39.93	351.79	34.71	-29.8	-32.2	20.0	6.00e-01	0	43	102	1048576	21	4725
2026-01-07 11:54:42.95	351.48	33.95	-29.8	-32.1	20.0	6.01e-01	0	43	102	1048576	21	4702
2026-01-07 11:54:45.96	351.19	33.21	-29.7	-31.8	20.1	6.01e-01	0	43	102	1048576	21	4620
2026-01-07 11:54:48.99	350.91	32.49	-29.2	-31.1	20.8	6.00e-01	0	43	102	1048576	20	4502
2026-01-07 11:54:52.01	350.64	31.79	-29.3	-31.4	20.7	5.99e-01	0	43	102	1048576	20	4581
2026-01-07 11:54:55.03	350.38	31.10	-29.4	-31.7	20.5	6.03e-01	0	43	102	1048576	20	4686
2026-01-07 11:54:58.04	350.14	30.43	-29.7	-32.4	20.1	6.01e-01	0	43	102	1048576	20	4919
2026-01-07 11:55:01.06	349.90	29.78	-29.2	-31.2	20.8	6.03e-01	0	43	102	1048576	20	4515
2026-01-07 11:55:04.08	349.68	29.14	-29.4	-31.6	20.5	6.02e-01	0	43	102	1048576	20	4641
2026-01-07 11:55:07.10	349.46	28.51	-29.3	-31.4	20.6	6.05e-01	0	43	102	1048576	20	4580
2026-01-07 11:55:10.13	349.25	27.90	-29.3	-31.5	20.6	6.02e-01	0	43	102	1048576	20	4619
2026-01-07 11:55:13.14	349.06	27.31	-29.6	-32.2	20.2	6.01e-01	0	43	102	1048576	20	4844
2026-01-07 11:55:16.16	348.87	26.72	-29.7	-32.5	19.9	6.00e-01	0	43	102	1048576	20	4969
2026-01-07 11:55:19.18	348.68	26.15	-29.9	-33.0	19.6	6.03e-01	0	43	102	1048576	20	5136
2026-01-07 11:55:22.19	348.51	25.60	-30.1	-33.4	19.4	6.01e-01	0	43	102	1048576	20	5291
2026-01-07 11:55:25.21	348.34	25.05	-30.4	-33.7	18.8	6.01e-01	0	43	102	1048576	21	5288
2026-01-07 11:55:28.23	348.18	24.52	-29.9	-32.4	19.6	6.01e-01	0	43	102	1048576	21	4808
2026-01-07 11:55:31.25	348.02	23.99	-29.9	-32.4	19.6	6.02e-01	0	43	102	1048576	21	4825
2026-01-07 11:55:34.28	347.87	23.48	-30.0	-32.8	19.3	6.01e-01	0	43	102	1048576	21	4973
2026-01-07 11:55:37.30	347.72	22.98	-30.2	-33.3	19.1	5.99e-01	0	43	102	1048576	21	5132
2026-01-07 11:55:40.33	347.58	22.49	-30.2	-33.2	19.1	6.00e-01	0	43	102	1048576	21	5091
2026-01-07 11:55:43.34	347.45	22.01	-30.2	-33.2	19.1	6.03e-01	0	43	102	1048576	21	5114
2026-01-07 11:55:46.37	347.31	21.53	-30.0	-32.8	19.4	6.00e-01	0	43	102	1048576	21	4947
2026-01-07 11:55:49.38	347.19	21.07	-30.0	-32.7	19.4	5.99e-01	0	43	102	1048576	21	4932
2026-01-07 11:55:52.41	347.06	20.62	-30.0	-32.7	19.3	6.00e-01	0	43	102	1048576	21	4946
2026-01-07 11:55:55.42	346.95	20.18	-29.8	-32.2	19.6	6.01e-01	0	43	102	1048576	21	4758
2026-01-07 11:55:58.43	346.83	19.74	-29.8	-32.3	19.6	6.01e-01	0	43	102	1048576	21	4791
2026-01-07 11:56:01.46	346.72	19.31	-29.8	-32.3	19.5	6.00e-01	0	43	102	1048576	21	4812
2026-01-07 11:56:04.48	346.61	18.89	-29.9	-32.5	19.4	6.00e-01	0	43	102	1048576	21	4873
2026-01-07 11:56:07.50	346.51	18.48	-29.9	-32.6	19.3	6.00e-01	0	43	102	1048576	21	4899
2026-01-07 11:56:10.53	346.41	18.07	-29.8	-32.4	19.4	6.01e-01	0	43	102	1048576	21	4844
2026-01-07 11:56:13.54	346.31	17.68	-29.9	-32.7	19.2	6.00e-01	0	43	102	1048576	21	4946
2026-01-07 11:56:16.56	346.22	17.28	-29.8	-32.3	19.4	5.99e-01	0	43	102	1048576	21	4800
2026-01-07 11:56:19.57	346.13	16.90	-29.8	-32.4	19.3	6.00e-01	0	43	102	1048576	21	4861
2026-01-07 11:56:22.60	346.04	16.52	-30.0	-32.8	19.1	5.98e-01	0	43	102	1048576	21	4996
2026-01-07 11:56:25.61	345.95	16.15	-29.8	-32.4	19.3	5.99e-01	0	43	102	1048576	21	4852
2026-01-07 11:56:28.63	345.87	15.79	-30.0	-32.9	19.0	5.99e-01	0	43	102	1048576	21	5024
2026-01-07 11:56:31.65	345.79	15.43	-29.8	-32.5	19.2	6.00e-01	0	43	102	1048576	21	4884
2026-01-07 11:56:34.67	345.71	15.07	-29.9	-32.6	19.1	6.00e-01	0	43	102	1048576	21	4933
2026-01-07 11:56:37.69	345.63	14.72	-30.0	-32.9	18.9	6.01e-01	0	43	102	1048576	21	5036
2026-01-07 11:56:40.71	345.56	14.38	-29.9	-32.6	19.1	6.02e-01	0	43	102	1048576	21	4933
2026-01-07 11:56:43.72	345.49	14.04	-29.9	-32.7	19.0	6.02e-01	0	43	102	1048576	21	4990
2026-01-07 11:56:46.75	345.41	13.71	-30.0	-33.0	18.8	5.99e-01	0	43	102	1048576	21	5080
2026-01-07 11:56:49.77	345.35	13.38	-29.9	-32.9	18.8	6.03e-01	0	43	102	1048576	21	5040
2026-01-07 11:56:52.80	345.28	13.06	-30.0	-32.9	18.8	6.03e-01	0	43	102	1048576	21	5061
2026-01-07 11:56:55.82	345.22	12.74	-29.9	-32.9	18.8	6.00e-01	0	43	102	1048576	21	5052
2026-01-07 11:56:58.83	345.15	12.43	-29.8	-32.6	18.9	6.03e-01	0	43	102	1048576	21	4955
2026-01-07 11:57:01.84	345.09	12.12	-29.9	-32.9	18.8	6.01e-01	0	43	102	1048576	21	5046
2026-01-07 11:57:04.85	345.03	11.81	-29.8	-32.6	18.9	5.99e-01	0	43	102	1048576	21	4957
2026-01-07 11:57:07.88	344.97	11.51	-29.8	-32.5	18.8	6.01e-01	0	43	102	1048576	21	4955
2026-01-07 11:57:10.88	344.92	11.22	-29.9	-32.8	18.6	6.03e-01	0	43	102	1048576	21	5066
2026-01-07 11:57:13.91	344.86	10.92	-29.8	-32.6	18.8	6.02e-01	0	43	102	1048576	21	4973
2026-01-07 11:57:16.93	344.81	10.63	-29.9	-32.9	18.6	6.00e-01	0	43	102	1048576	21	5066
2026-01-07 11:57:19.94	344.76	10.35	-30.0	-33.0	18.5	6.01e-01	0	43	102	1048576	21	5128
2026-01-07 11:57:22.95	344.71	10.07	-30.1	-33.3	18.3	6.01e-01	0	43	102	1048576	21	5229
2026-01-07 11:57:25.97	344.66	9.79	-29.9	-33.3	18.0	6.01e-01	0	43	102	1048576	21	5302
2026-01-07 11:57:28.99	344.61	9.51	-30.1	-33.7	17.7	6.01e-01	0	43	102	1048576	21	5465
2026-01-07 11:57:32.01	344.56	9.24	-30.2	-33.7	18.0	6.01e-01	0	43	102	1048576	21	5417
2026-01-07 11:57:35.01	344.52	8.98	-30.2	-33.6	18.1	6.02e-01	0	43	102	1048576	21	5363
2026-01-07 11:57:38.02	344.47	8.71	-30.2	-33.9	17.8	6.00e-01	0	43	102	1048576	21	5470
2026-01-07 11:57:41.04	344.43	8.45	-30.1	-33.6	17.9	6.01e-01	0	43	102	1048576	21	5390
2026-01-07 11:57:44.06	344.38	8.19	-30.1	-33.6	17.8	5.99e-01	0	43	102	1048576	21	5398
2026-01-07 11:57:47.08	344.34	7.93	-30.1	-33.7	17.7	6.00e-01	0	43	102	1048576	21	5472
2026-01-07 11:57:50.11	344.30	7.68	-30.2	-33.9	17.6	6.00e-01	0	43	102	1048576	21	5547
2026-01-07 11:57:53.12	344.26	7.43	-30.4	-34.5	17.3	6.01e-01	0	43	102	1048576	21	5759
2026-01-07 11:57:56.14	344.22	7.18	-30.3	-34.3	17.4	6.02e-01	0	43	102	1048576	21	5669
2026-01-07 11:57:59.16	344.19	6.94	-33.5	-52.0	3.8	7.43e-01	0	43	104	1048576	28	30156

#Closed at: 2026-01-07 11:57:59
#Recorded file [1 MB]: D:/data/31010_260107_144730.dat