passes_logs/2026/01/07/R2M6_AANII_01/R2M6_AANII_01__20260107_103819_NOAA_20_JPSS-1_rec.log

#Pass ID: 20260107_103819_NOAA 20 (JPSS-1)
#Satellite: NOAA 20 (JPSS-1)
#Configuration: NOAA 20
#almurnet v.1.7.20240730
#Start time: 2026-01-07 10:38:19

#Version: 2.2.20231116
#Station: R2M6_AANII_01
#Location: 30.233357 lon 59.946436 lat
#TLE: 1 43013U 17073A   26006.30790171  .00000126  00000+0  80695-4 0  9991
#TLE: 2 43013  98.7629 307.3394 0001808  51.8724 308.2615 14.19533762421505

#Time	Az	El	Level	Level2	SNR	BER	BlckErr	Temp	State	Recorded	gain1	gain2
2026-01-07 10:38:19.01	170.12	6.98	-30.6	-34.9	5.4	1.20e+00	0	41	0	0	22	5901
2026-01-07 10:38:22.04	170.19	7.22	-31.0	-35.9	9.0	3.68e-02	0	41	0	1048576	23	6300
2026-01-07 10:38:25.04	170.26	7.45	-30.8	-35.0	9.8	2.07e-02	0	41	0	7340032	23	5814
2026-01-07 10:38:28.06	170.33	7.69	-30.7	-35.3	10.0	7.80e-03	0	41	0	12582912	22	6066
2026-01-07 10:38:31.08	170.40	7.93	-30.7	-35.3	10.0	7.93e-03	0	41	0	18874368	22	6051
2026-01-07 10:38:34.09	170.47	8.17	-30.7	-35.1	10.2	6.60e-03	0	41	0	24117248	22	5948
2026-01-07 10:38:37.11	170.55	8.41	-30.2	-33.9	11.5	1.09e-03	0	41	0	29360128	21	5499
2026-01-07 10:38:40.13	170.62	8.66	-30.1	-33.5	11.9	5.55e-04	0	42	0	35651584	21	5313
2026-01-07 10:38:43.14	170.70	8.91	-30.0	-33.1	12.1	3.26e-04	0	42	0	40894464	21	5153
2026-01-07 10:38:46.15	170.77	9.16	-29.9	-32.9	12.3	1.78e-04	0	42	102	45088768	21	5074
2026-01-07 10:38:49.17	170.85	9.41	-30.0	-33.0	12.2	1.80e-04	0	42	102	45088768	21	5112
2026-01-07 10:38:52.19	170.93	9.67	-30.0	-33.0	12.3	2.10e-04	0	42	102	45088768	21	5092
2026-01-07 10:38:55.21	171.01	9.92	-29.8	-32.5	12.6	8.62e-05	0	42	102	45088768	21	4921
2026-01-07 10:38:58.22	171.09	10.19	-29.7	-32.7	12.9	5.79e-05	0	42	102	45088768	20	5081
2026-01-07 10:39:01.24	171.18	10.45	-29.8	-32.8	12.9	5.64e-05	0	42	102	45088768	20	5094
2026-01-07 10:39:04.27	171.26	10.72	-29.8	-32.8	12.8	4.42e-05	0	42	102	45088768	20	5112
2026-01-07 10:39:07.29	171.35	10.99	-29.8	-33.0	12.7	6.10e-05	0	42	102	45088768	20	5181
2026-01-07 10:39:10.30	171.44	11.26	-29.7	-32.4	13.2	2.21e-05	0	42	102	45088768	20	4956
2026-01-07 10:39:13.32	171.52	11.54	-29.6	-32.2	13.3	1.22e-05	0	42	102	45088768	20	4888
2026-01-07 10:39:16.34	171.61	11.82	-29.7	-32.6	13.1	2.67e-05	0	42	102	45088768	20	4998
2026-01-07 10:39:19.36	171.71	12.10	-29.6	-32.2	13.4	1.22e-05	0	42	102	45088768	20	4860
2026-01-07 10:39:22.37	171.80	12.38	-29.7	-32.5	13.2	2.28e-05	0	42	102	45088768	20	4982
2026-01-07 10:39:25.39	171.90	12.67	-29.6	-32.2	13.4	1.83e-05	0	42	102	45088768	20	4856
2026-01-07 10:39:28.41	171.99	12.96	-29.6	-32.2	13.4	1.44e-05	0	42	102	45088768	20	4881
2026-01-07 10:39:31.44	172.09	13.26	-29.7	-32.4	13.3	1.67e-05	0	42	102	45088768	20	4950
2026-01-07 10:39:34.45	172.19	13.56	-29.5	-31.8	13.7	8.30e-06	0	42	102	45088768	20	4728
2026-01-07 10:39:37.47	172.29	13.86	-29.5	-31.9	13.7	6.80e-06	0	43	102	45088768	20	4753
2026-01-07 10:39:40.49	172.40	14.17	-29.4	-31.7	13.9	2.20e-06	0	43	102	45088768	20	4666
2026-01-07 10:39:43.51	172.50	14.48	-29.4	-31.7	13.9	2.20e-06	0	43	102	45088768	20	4668
2026-01-07 10:39:46.52	172.61	14.79	-29.4	-31.8	13.8	6.80e-06	0	43	102	45088768	20	4709
2026-01-07 10:39:49.54	172.72	15.11	-29.4	-31.8	13.8	3.80e-06	0	43	102	45088768	20	4726
2026-01-07 10:39:52.57	172.84	15.44	-29.6	-32.2	13.5	1.52e-05	0	43	102	45088768	20	4876
2026-01-07 10:39:55.58	172.95	15.76	-29.6	-32.1	13.6	1.22e-05	0	43	102	45088768	20	4833
2026-01-07 10:39:58.59	173.07	16.09	-29.8	-32.7	13.2	1.52e-05	0	43	102	45088768	20	5037
2026-01-07 10:40:01.61	173.19	16.43	-29.7	-32.5	13.4	1.14e-05	0	43	102	45088768	20	4959
2026-01-07 10:40:04.64	173.31	16.77	-29.9	-32.9	13.2	1.67e-05	0	43	102	45088768	20	5116
2026-01-07 10:40:07.65	173.43	17.11	-30.0	-33.1	13.1	3.12e-05	0	43	102	45088768	20	5155
2026-01-07 10:40:10.68	173.56	17.46	-30.0	-33.1	13.0	3.96e-05	0	43	102	45088768	20	5184
2026-01-07 10:40:13.70	173.69	17.82	-30.0	-33.2	13.1	3.58e-05	0	43	102	45088768	20	5204
2026-01-07 10:40:16.72	173.82	18.18	-30.2	-33.6	12.8	3.89e-05	0	43	102	45088768	20	5339
2026-01-07 10:40:19.74	173.96	18.55	-30.2	-33.8	12.7	8.23e-05	0	43	102	45088768	20	5398
2026-01-07 10:40:22.75	174.10	18.91	-30.3	-33.9	12.7	8.54e-05	0	43	102	45088768	20	5459
2026-01-07 10:40:25.78	174.24	19.29	-30.4	-34.3	12.4	1.61e-04	0	43	102	45088768	20	5623
2026-01-07 10:40:28.80	174.39	19.67	-30.4	-34.2	12.5	9.53e-05	0	43	102	45088768	20	5566
2026-01-07 10:40:31.82	174.53	20.06	-30.4	-34.2	12.5	1.20e-04	0	43	102	45088768	20	5584
2026-01-07 10:40:34.84	174.69	20.45	-30.5	-34.4	12.4	1.33e-04	0	43	102	45088768	20	5673
2026-01-07 10:40:37.87	174.84	20.86	-30.4	-34.1	12.6	8.31e-05	0	43	102	45088768	20	5514
2026-01-07 10:40:40.89	175.00	21.26	-30.2	-33.7	12.9	6.56e-05	0	43	102	45088768	20	5377
2026-01-07 10:40:43.91	175.17	21.67	-30.2	-33.5	13.0	4.34e-05	0	43	102	45088768	20	5306
2026-01-07 10:40:46.93	175.34	22.09	-30.2	-33.6	13.0	4.19e-05	0	43	102	45088768	20	5312
2026-01-07 10:40:49.95	175.51	22.52	-30.3	-33.8	12.9	3.73e-05	0	43	102	45088768	20	5386
2026-01-07 10:40:52.97	175.69	22.95	-30.0	-33.1	13.4	1.67e-05	0	43	102	45088768	20	5120
2026-01-07 10:40:56.00	175.87	23.39	-29.9	-32.8	13.6	1.14e-05	0	43	102	45088768	20	5015
2026-01-07 10:40:59.02	176.06	23.84	-29.9	-32.7	13.7	1.14e-05	0	43	102	45088768	20	4966
2026-01-07 10:41:02.04	176.25	24.29	-30.1	-33.2	13.4	9.10e-06	0	43	102	45088768	20	5152
2026-01-07 10:41:05.07	176.44	24.76	-30.0	-32.8	13.6	9.90e-06	0	43	102	45088768	20	5018
2026-01-07 10:41:08.08	176.65	25.23	-29.9	-32.8	13.7	5.30e-06	0	43	102	45088768	20	4996
2026-01-07 10:41:11.11	176.86	25.71	-29.8	-32.4	13.9	3.80e-06	0	43	102	45088768	20	4870
2026-01-07 10:41:14.13	177.07	26.19	-30.0	-32.8	13.7	6.10e-06	0	43	102	45088768	20	5000
2026-01-07 10:41:17.15	177.29	26.69	-30.1	-33.2	13.4	1.14e-05	0	43	102	45088768	20	5153
2026-01-07 10:41:20.17	177.52	27.19	-30.3	-33.9	13.0	3.12e-05	0	43	102	45088768	20	5422
2026-01-07 10:41:23.19	177.76	27.71	-30.4	-34.0	12.9	5.34e-05	0	43	102	45088768	20	5460
2026-01-07 10:41:26.21	178.00	28.23	-30.3	-33.9	13.0	4.34e-05	0	43	102	45088768	20	5420
2026-01-07 10:41:29.22	178.25	28.76	-30.5	-33.9	12.7	5.95e-05	0	43	102	45088768	21	5286
2026-01-07 10:41:32.23	178.50	29.30	-30.7	-34.3	12.4	1.18e-04	0	43	102	45088768	21	5460
2026-01-07 10:41:35.25	178.77	29.85	-30.9	-35.1	11.9	3.70e-04	0	43	102	45088768	21	5809
2026-01-07 10:41:38.27	179.05	30.41	-30.9	-34.8	12.1	2.69e-04	0	43	102	45088768	21	5691
2026-01-07 10:41:41.29	179.33	30.99	-31.1	-34.9	11.7	5.90e-04	0	43	102	45088768	22	5620
2026-01-07 10:41:44.31	179.63	31.57	-31.1	-35.1	11.6	6.69e-04	0	43	102	45088768	22	5677
2026-01-07 10:41:47.33	179.93	32.16	-31.0	-34.6	12.0	4.10e-04	0	43	102	45088768	22	5467
2026-01-07 10:41:50.35	180.25	32.77	-30.8	-34.0	12.4	2.26e-04	0	43	102	45088768	22	5200
2026-01-07 10:41:53.38	180.58	33.39	-30.9	-34.3	12.3	1.36e-04	0	43	102	45088768	22	5321
2026-01-07 10:41:56.40	180.92	34.01	-30.8	-34.0	12.5	1.36e-04	0	43	102	45088768	22	5198
2026-01-07 10:41:59.43	181.27	34.66	-30.8	-34.1	12.4	1.75e-04	0	43	102	45088768	22	5242
2026-01-07 10:42:02.45	181.64	35.31	-30.6	-33.6	12.7	6.02e-05	0	43	102	45088768	22	5061
2026-01-07 10:42:05.48	182.02	35.98	-30.5	-33.3	12.9	3.50e-05	0	43	102	45088768	22	4939
2026-01-07 10:42:08.49	182.42	36.65	-30.8	-34.0	12.5	1.33e-04	0	43	102	45088768	22	5203
2026-01-07 10:42:11.51	182.83	37.34	-30.8	-34.0	12.5	1.60e-04	0	43	102	45088768	22	5203
2026-01-07 10:42:14.52	183.26	38.04	-31.2	-35.3	11.6	5.84e-04	0	43	102	45088768	22	5769
2026-01-07 10:42:17.53	183.71	38.76	-31.7	-36.4	10.4	4.27e-03	0	43	102	45088768	23	6194
2026-01-07 10:42:20.55	184.18	39.49	-31.7	-36.4	10.4	4.84e-03	0	43	102	45088768	23	6178
2026-01-07 10:42:23.57	184.67	40.23	-31.7	-36.3	10.5	4.28e-03	0	43	102	45088768	23	6135
2026-01-07 10:42:26.58	185.19	40.98	-32.0	-37.4	9.8	7.88e-03	0	43	102	45088768	23	6687
2026-01-07 10:42:29.60	185.72	41.75	-32.1	-37.5	9.2	1.20e-02	0	43	102	45088768	24	6646
2026-01-07 10:42:32.61	186.29	42.53	-31.7	-35.8	10.6	4.20e-03	0	43	102	45088768	24	5788
2026-01-07 10:42:35.63	186.88	43.33	-31.8	-36.0	10.5	3.37e-03	0	43	102	45088768	24	5874
2026-01-07 10:42:38.65	187.50	44.14	-31.7	-35.7	10.6	3.08e-03	0	43	102	45088768	24	5728
2026-01-07 10:42:41.67	188.15	44.96	-31.6	-35.6	10.8	2.08e-03	0	43	102	45088768	24	5655
2026-01-07 10:42:44.69	188.84	45.80	-31.8	-36.0	10.5	5.10e-03	0	43	102	45088768	24	5844
2026-01-07 10:42:47.72	189.57	46.65	-31.5	-35.3	11.0	2.23e-03	0	43	102	45088768	24	5522
2026-01-07 10:42:50.74	190.33	47.52	-31.6	-35.5	10.9	2.23e-03	0	43	102	45088768	24	5611
2026-01-07 10:42:53.77	191.14	48.39	-31.4	-34.9	11.3	1.22e-03	0	43	102	45088768	24	5342
2026-01-07 10:42:56.78	192.00	49.28	-31.2	-34.6	11.9	3.33e-04	0	43	102	45088768	23	5336
2026-01-07 10:42:59.80	192.90	50.17	-30.7	-33.7	12.8	3.13e-04	0	43	102	45088768	22	5093
2026-01-07 10:43:02.82	193.86	51.08	-29.6	-31.8	14.7	7.00e-07	0	43	102	45088768	20	4611
2026-01-07 10:43:05.84	194.88	51.99	-28.9	-30.4	16.0	0.00e+00	0	43	102	45088768	19	4276
2026-01-07 10:43:08.86	195.96	52.92	-28.3	-29.6	16.7	0.00e+00	0	43	102	45088768	18	4145
2026-01-07 10:43:11.88	197.12	53.85	-27.9	-29.1	17.3	0.00e+00	0	43	102	45088768	17	4110
2026-01-07 10:43:14.89	198.34	54.78	-28.8	-31.3	16.1	0.00e+00	0	43	102	45088768	17	4770
2026-01-07 10:43:17.90	199.65	55.71	-28.9	-31.5	15.9	7.00e-07	0	43	102	45088768	17	4844
2026-01-07 10:43:20.92	201.05	56.65	-29.6	-32.1	15.0	2.20e-06	0	43	102	45088768	19	4791
2026-01-07 10:43:23.94	202.55	57.59	-30.5	-33.9	13.4	1.29e-05	0	43	102	45088768	20	5349
2026-01-07 10:43:26.96	204.15	58.52	-30.2	-32.7	13.9	2.20e-06	0	43	102	45088768	21	4791
2026-01-07 10:43:29.98	205.87	59.44	-29.6	-31.5	15.0	1.50e-06	0	43	102	45088768	20	4512
2026-01-07 10:43:32.99	207.71	60.35	-29.1	-30.9	15.7	0.00e+00	0	43	102	45088768	19	4419
2026-01-07 10:43:36.01	209.69	61.25	-29.2	-31.1	15.6	0.00e+00	0	43	102	45088768	19	4470
2026-01-07 10:43:39.04	211.82	62.13	-29.3	-31.5	15.4	0.00e+00	0	43	102	45088768	19	4589
2026-01-07 10:43:42.05	214.09	62.98	-29.9	-32.5	14.4	7.00e-07	0	43	102	45088768	20	4825
2026-01-07 10:43:45.07	216.53	63.81	-29.7	-31.8	14.9	0.00e+00	0	43	102	45088768	20	4608
2026-01-07 10:43:48.09	219.15	64.59	-29.9	-32.4	14.5	1.50e-06	0	43	102	45088768	20	4807
2026-01-07 10:43:51.11	221.95	65.34	-29.9	-32.3	14.5	0.00e+00	0	43	102	45088768	20	4751
2026-01-07 10:43:54.13	224.93	66.03	-29.3	-31.4	15.4	0.00e+00	0	44	102	45088768	19	4561
2026-01-07 10:43:57.15	228.11	66.67	-30.3	-33.6	13.7	2.20e-06	0	43	102	45088768	20	5218
2026-01-07 10:44:00.16	231.45	67.25	-30.4	-33.7	13.6	4.50e-06	0	43	102	45088768	20	5269
2026-01-07 10:44:03.17	234.98	67.75	-31.5	-35.7	11.7	3.87e-04	0	43	102	45088768	22	5891
2026-01-07 10:44:06.21	238.70	68.18	-31.2	-35.0	12.2	1.05e-04	0	43	102	45088768	22	5576
2026-01-07 10:44:09.23	242.54	68.52	-31.3	-34.9	11.9	1.01e-03	0	43	102	45088768	23	5427
2026-01-07 10:44:12.25	246.50	68.76	-31.4	-35.0	11.9	7.81e-04	0	43	102	45088768	23	5461
2026-01-07 10:44:15.27	250.53	68.92	-29.7	-31.9	14.8	0.00e+00	0	43	102	45088768	20	4628
2026-01-07 10:44:18.28	254.60	68.98	-30.0	-32.5	14.5	7.00e-07	0	43	102	45088768	20	4835
2026-01-07 10:44:21.30	258.68	68.94	-30.4	-33.7	13.7	4.50e-06	0	43	102	45088768	20	5271
2026-01-07 10:44:24.31	262.72	68.80	-30.5	-33.4	13.6	4.50e-06	0	43	102	45088768	21	5059
2026-01-07 10:44:27.34	266.70	68.56	-30.4	-32.7	13.7	2.51e-05	0	43	102	45088768	22	4693
2026-01-07 10:44:30.35	270.55	68.24	-31.9	-36.6	10.7	1.82e-03	0	43	102	45088768	23	6167
2026-01-07 10:44:33.37	274.27	67.83	-31.7	-35.5	11.1	1.42e-03	0	43	102	45088768	24	5553
2026-01-07 10:44:36.39	277.83	67.34	-31.8	-35.5	10.7	1.56e-02	0	43	102	45088768	25	5471
2026-01-07 10:44:39.41	281.21	66.78	-32.4	-38.2	9.0	1.86e-02	0	43	102	45088768	24	6971
2026-01-07 10:44:42.43	284.41	66.15	-30.2	-32.7	13.9	1.98e-05	0	44	102	45088768	21	4824
2026-01-07 10:44:45.46	287.44	65.46	-30.1	-32.6	13.9	1.75e-05	0	43	102	45088768	21	4788
2026-01-07 10:44:48.48	290.26	64.73	-29.6	-32.1	15.0	0.00e+00	0	43	102	45088768	19	4825
2026-01-07 10:44:51.50	292.90	63.95	-29.3	-31.5	15.3	0.00e+00	0	43	102	45088768	19	4667
2026-01-07 10:44:54.52	295.37	63.13	-29.3	-31.6	15.2	0.00e+00	0	43	102	45088768	19	4690
2026-01-07 10:44:57.53	297.67	62.29	-26.8	-29.9	15.0	0.00e+00	0	43	102	45088768	15	5133
2026-01-07 10:45:00.55	299.81	61.41	-28.6	-31.5	15.4	0.00e+00	0	43	102	45088768	17	5017
2026-01-07 10:45:03.58	301.82	60.52	-28.0	-29.5	16.9	0.00e+00	0	43	102	45088768	17	4284
2026-01-07 10:45:06.60	303.68	59.61	-28.5	-30.6	16.4	0.00e+00	0	43	102	45088768	17	4582
2026-01-07 10:45:09.63	305.43	58.69	-28.5	-30.5	16.7	0.00e+00	0	43	102	45088768	17	4515
2026-01-07 10:45:12.65	307.05	57.76	-29.7	-32.4	14.9	0.00e+00	0	43	102	45088768	19	4922
2026-01-07 10:45:15.67	308.56	56.83	-28.6	-30.2	16.5	0.00e+00	0	43	102	45088768	18	4305
2026-01-07 10:45:18.68	309.97	55.90	-29.5	-31.9	15.2	0.00e+00	0	43	102	45088768	19	4751
2026-01-07 10:45:21.70	311.29	54.96	-27.6	-28.7	17.8	0.00e+00	0	43	102	45088768	16	4126
2026-01-07 10:45:24.72	312.53	54.03	-28.9	-30.9	16.0	0.00e+00	0	43	102	45088768	18	4537
2026-01-07 10:45:27.74	313.70	53.11	-27.9	-29.5	17.5	0.00e+00	0	43	102	45088768	16	4319
2026-01-07 10:45:30.76	314.79	52.19	-28.6	-30.6	16.6	0.00e+00	0	43	102	45088768	17	4542
2026-01-07 10:45:33.79	315.82	51.27	-28.9	-30.4	16.1	0.00e+00	0	43	102	45088768	19	4262
2026-01-07 10:45:36.81	316.79	50.36	-30.0	-32.7	14.3	0.00e+00	0	43	102	45088768	20	4912
2026-01-07 10:45:39.83	317.70	49.47	-31.2	-34.9	12.2	1.69e-04	0	43	102	45088768	22	5525
2026-01-07 10:45:42.85	318.56	48.59	-31.0	-34.3	12.7	7.24e-05	0	43	102	45088768	22	5264
2026-01-07 10:45:45.86	319.38	47.72	-32.2	-37.3	9.7	5.57e-03	0	43	102	45088768	24	6496
2026-01-07 10:45:48.87	320.15	46.86	-30.8	-33.3	12.8	1.12e-03	0	43	102	45088768	23	4809
2026-01-07 10:45:51.90	320.88	46.01	-30.0	-32.6	14.4	0.00e+00	0	43	102	45088768	20	4869
2026-01-07 10:45:54.92	321.57	45.17	-31.0	-34.6	12.4	1.41e-04	0	43	102	45088768	22	5410
2026-01-07 10:45:57.93	322.23	44.35	-29.9	-31.8	14.5	5.30e-06	0	43	102	45088768	21	4514
2026-01-07 10:46:00.95	322.86	43.54	-28.6	-30.1	16.5	0.00e+00	0	43	102	45088768	18	4291
2026-01-07 10:46:03.97	323.45	42.75	-30.3	-33.5	13.7	1.50e-06	0	43	102	45088768	20	5195
2026-01-07 10:46:06.98	324.02	41.97	-30.0	-32.1	14.2	1.50e-06	0	43	102	45088768	21	4620
2026-01-07 10:46:09.99	324.56	41.20	-29.7	-31.9	14.7	0.00e+00	0	43	102	45088768	20	4660
2026-01-07 10:46:12.99	325.08	40.45	-30.5	-33.7	13.2	1.90e-05	0	43	102	45088768	21	5207
2026-01-07 10:46:16.00	325.57	39.71	-31.1	-35.2	11.8	4.03e-04	0	43	102	45088768	22	5715
2026-01-07 10:46:19.01	326.04	38.99	-29.0	-30.6	15.8	0.00e+00	0	43	102	45088768	19	4348
2026-01-07 10:46:22.03	326.50	38.27	-28.6	-30.1	16.4	0.00e+00	0	43	102	45088768	18	4306
2026-01-07 10:46:25.05	326.93	37.57	-30.0	-32.8	14.1	0.00e+00	0	43	102	45088768	20	4968
2026-01-07 10:46:28.07	327.35	36.88	-30.4	-33.4	13.3	1.83e-05	0	43	102	45088768	21	5098
2026-01-07 10:46:31.08	327.75	36.20	-29.8	-31.8	14.4	2.20e-06	0	43	102	45088768	21	4508
2026-01-07 10:46:34.09	328.13	35.54	-29.8	-32.3	14.4	7.00e-07	0	43	102	45088768	20	4779
2026-01-07 10:46:37.12	328.51	34.89	-30.2	-33.4	13.6	3.00e-06	0	43	102	45088768	20	5205
2026-01-07 10:46:40.14	328.86	34.25	-30.7	-34.2	12.8	5.41e-05	0	43	102	45088768	21	5418
2026-01-07 10:46:43.16	329.21	33.62	-31.1	-34.9	12.0	2.85e-04	0	43	102	45088768	22	5587
2026-01-07 10:46:46.18	329.54	33.00	-31.5	-35.7	11.1	1.57e-03	0	43	102	45088768	23	5841
2026-01-07 10:46:49.21	329.86	32.40	-31.5	-35.8	11.0	2.20e-03	0	43	102	45088768	23	5874
2026-01-07 10:46:52.24	330.17	31.80	-31.2	-34.5	11.8	5.09e-04	0	44	102	45088768	23	5308
2026-01-07 10:46:55.26	330.46	31.22	-31.2	-34.7	11.8	9.28e-04	0	44	102	45088768	23	5381
2026-01-07 10:46:58.29	330.75	30.65	-31.1	-34.2	12.1	2.04e-04	0	43	102	45088768	23	5183
2026-01-07 10:47:01.28	331.03	30.09	-31.4	-35.2	11.4	1.11e-03	0	43	102	45088768	23	5608
2026-01-07 10:47:04.29	331.30	29.54	-31.3	-34.8	11.7	8.86e-04	0	43	102	45088768	23	5427
2026-01-07 10:47:07.31	331.56	29.00	-31.0	-34.1	12.2	2.92e-04	0	43	102	45088768	23	5137
2026-01-07 10:47:10.33	331.81	28.47	-30.7	-33.6	12.8	9.99e-05	0	43	102	45088768	22	5047
2026-01-07 10:47:13.35	332.06	27.94	-30.2	-32.8	13.7	5.30e-06	0	43	102	45088768	21	4863
2026-01-07 10:47:16.37	332.29	27.43	-30.1	-32.5	13.9	6.10e-06	0	44	102	45088768	21	4740
2026-01-07 10:47:19.39	332.52	26.93	-29.8	-32.2	14.3	7.00e-07	0	44	102	45088768	20	4747
2026-01-07 10:47:22.41	332.75	26.43	-30.0	-32.8	13.9	1.50e-06	0	43	102	45088768	20	4985
2026-01-07 10:47:25.43	332.96	25.95	-30.1	-33.1	13.8	3.00e-06	0	43	102	45088768	20	5068
2026-01-07 10:47:28.44	333.18	25.47	-30.1	-33.1	13.7	9.90e-06	0	43	102	45088768	20	5083
2026-01-07 10:47:31.47	333.38	25.00	-29.3	-31.4	15.1	7.00e-07	0	43	102	45088768	19	4586
2026-01-07 10:47:34.50	333.58	24.53	-29.2	-31.3	15.2	0.00e+00	0	43	102	45088768	19	4554
2026-01-07 10:47:37.52	333.78	24.08	-28.9	-30.6	15.6	0.00e+00	0	43	102	45088768	19	4342
2026-01-07 10:47:40.54	333.97	23.63	-29.0	-30.8	15.5	0.00e+00	0	43	102	45088768	19	4424
2026-01-07 10:47:43.55	334.15	23.20	-29.1	-31.0	15.3	0.00e+00	0	43	102	45088768	19	4479
2026-01-07 10:47:46.57	334.33	22.76	-29.1	-31.0	15.3	0.00e+00	0	43	102	45088768	19	4470
2026-01-07 10:47:49.59	334.50	22.34	-29.0	-30.8	15.4	0.00e+00	0	43	102	45088768	19	4431
2026-01-07 10:47:52.61	334.67	21.92	-28.9	-30.5	15.6	0.00e+00	0	43	102	45088768	19	4337
2026-01-07 10:47:55.63	334.84	21.51	-28.9	-30.5	15.6	0.00e+00	0	43	102	45088768	19	4334
2026-01-07 10:47:58.64	335.00	21.10	-28.8	-30.4	15.7	7.00e-07	0	43	102	45088768	19	4291
2026-01-07 10:48:01.67	335.16	20.70	-28.8	-30.7	15.7	0.00e+00	0	43	102	45088768	18	4501
2026-01-07 10:48:04.69	335.32	20.31	-29.0	-31.2	15.4	0.00e+00	0	43	102	45088768	18	4650
2026-01-07 10:48:07.71	335.47	19.92	-29.2	-31.7	15.1	0.00e+00	0	43	102	45088768	18	4822
2026-01-07 10:48:10.73	335.62	19.54	-29.3	-32.0	14.9	0.00e+00	0	43	102	45088768	18	4927
2026-01-07 10:48:13.74	335.76	19.16	-29.2	-31.9	15.0	7.00e-07	0	43	102	45088768	18	4887
2026-01-07 10:48:16.76	335.90	18.79	-29.3	-32.1	14.8	0.00e+00	0	44	102	45088768	18	4975
2026-01-07 10:48:19.78	336.04	18.43	-29.4	-31.9	14.6	0.00e+00	0	43	102	45088768	19	4781
2026-01-07 10:48:22.80	336.18	18.07	-29.4	-31.8	14.7	0.00e+00	0	43	102	45088768	19	4752
2026-01-07 10:48:25.82	336.31	17.71	-29.5	-32.2	14.4	7.00e-07	0	43	102	45088768	19	4877
2026-01-07 10:48:28.83	336.44	17.37	-29.7	-32.6	14.1	0.00e+00	0	43	102	45088768	19	5032
2026-01-07 10:48:31.86	336.57	17.02	-29.5	-32.2	14.4	0.00e+00	0	43	102	45088768	19	4873
2026-01-07 10:48:34.88	336.69	16.68	-29.6	-32.4	14.2	3.00e-06	0	43	102	45088768	19	4952
2026-01-07 10:48:37.91	336.81	16.34	-29.7	-32.7	14.0	8.30e-06	0	43	102	45088768	19	5071
2026-01-07 10:48:40.92	336.93	16.01	-29.8	-32.9	13.8	6.10e-06	0	43	102	45088768	19	5157
2026-01-07 10:48:43.94	337.05	15.69	-29.9	-33.2	13.7	1.22e-05	0	43	102	45088768	19	5247
2026-01-07 10:48:46.95	337.16	15.36	-30.0	-33.1	13.3	1.52e-05	0	43	102	45088768	20	5142
2026-01-07 10:48:49.98	337.28	15.04	-30.0	-33.1	13.3	2.51e-05	0	43	102	45088768	20	5147
2026-01-07 10:48:53.00	337.39	14.73	-30.1	-33.3	13.1	2.21e-05	0	43	102	45088768	20	5208
2026-01-07 10:48:56.02	337.50	14.42	-30.2	-33.6	12.9	5.26e-05	0	44	102	45088768	20	5325
2026-01-07 10:48:59.05	337.61	14.11	-30.3	-33.9	12.7	8.92e-05	0	44	102	45088768	20	5472
2026-01-07 10:49:02.07	337.71	13.81	-30.5	-34.4	12.3	1.67e-04	0	43	102	45088768	20	5657
2026-01-07 10:49:05.09	337.81	13.51	-30.5	-34.1	12.2	4.01e-04	0	43	102	45088768	21	5428
2026-01-07 10:49:08.12	337.92	13.21	-30.5	-34.0	12.3	1.51e-04	0	43	102	45088768	21	5381
2026-01-07 10:49:11.14	338.02	12.92	-30.4	-33.7	12.4	1.88e-04	0	43	102	45088768	21	5267
2026-01-07 10:49:14.16	338.11	12.63	-30.3	-33.4	12.6	8.31e-05	0	44	102	45088768	21	5168
2026-01-07 10:49:17.18	338.21	12.35	-30.3	-33.5	12.5	9.53e-05	0	43	102	45088768	21	5198
2026-01-07 10:49:20.20	338.30	12.07	-30.2	-33.3	12.6	8.46e-05	0	43	102	45088768	21	5129
2026-01-07 10:49:23.22	338.40	11.79	-30.3	-33.6	12.4	1.34e-04	0	43	102	45088768	21	5235
2026-01-07 10:49:26.25	338.49	11.51	-30.5	-34.0	12.1	2.59e-04	0	43	102	45088768	21	5385
2026-01-07 10:49:29.26	338.58	11.24	-30.3	-33.6	12.4	1.47e-04	0	43	102	45088768	21	5258
2026-01-07 10:49:32.27	338.67	10.97	-30.3	-33.6	12.3	1.94e-04	0	43	102	45088768	21	5253
2026-01-07 10:49:35.29	338.76	10.70	-30.1	-33.1	12.7	9.00e-05	0	43	102	45088768	21	5038
2026-01-07 10:49:38.31	338.84	10.44	-30.1	-32.9	12.8	5.72e-05	0	43	102	45088768	21	4971
2026-01-07 10:49:41.33	338.93	10.18	-30.1	-32.9	12.8	3.89e-05	0	43	102	45088768	21	4993
2026-01-07 10:49:44.35	339.01	9.92	-30.2	-33.3	12.5	9.91e-05	0	43	102	45088768	21	5144
2026-01-07 10:49:47.36	339.09	9.66	-30.1	-33.1	12.6	6.48e-05	0	43	102	45088768	21	5053
2026-01-07 10:49:50.38	339.17	9.41	-30.1	-33.1	12.6	1.27e-04	0	43	102	45088768	21	5067
2026-01-07 10:49:53.40	339.25	9.16	-30.2	-33.3	12.4	1.88e-04	0	43	102	45088768	21	5153
2026-01-07 10:49:56.42	339.33	8.91	-30.0	-32.7	12.8	4.34e-05	0	43	102	45088768	21	4944
2026-01-07 10:49:59.44	339.41	8.66	-30.1	-33.0	12.5	1.20e-04	0	43	102	45088768	21	5049
2026-01-07 10:50:02.47	339.49	8.42	-30.0	-32.8	12.7	1.22e-04	0	43	102	45088768	21	4972
2026-01-07 10:50:05.49	339.56	8.18	-30.0	-32.9	12.6	9.68e-05	0	43	102	45088768	21	4998
2026-01-07 10:50:08.51	339.64	7.94	-30.0	-32.7	12.6	1.07e-04	0	43	102	45088768	21	4952
2026-01-07 10:50:11.53	339.71	7.70	-30.1	-33.3	12.2	1.79e-04	0	43	102	45088768	21	5172
2026-01-07 10:50:14.55	339.78	7.47	-30.2	-33.4	12.1	2.91e-04	0	44	102	45088768	21	5213
2026-01-07 10:50:17.58	339.86	7.24	-30.2	-33.4	12.1	2.69e-04	0	43	102	45088768	21	5219
2026-01-07 10:50:20.60	339.93	7.00	-33.3	-47.6	3.8	1.49e+00	0	43	104	45088768	26	18697

#Closed at: 2026-01-07 10:50:23
#Recorded file [45 MB]: D:/data/31010_260107_133820.dat