passes_logs/2026/01/07/R2M6_AANII_01/R2M6_AANII_01__20260107_101147_AQUA_rec.log

#Pass ID: 20260107_101147_AQUA
#Satellite: AQUA
#Configuration: AQUA
#almurnet v.1.7.20240730
#Start time: 2026-01-07 10:11:46

#Version: 2.2.20231116
#Station: R2M6_AANII_01
#Location: 30.233357 lon 59.946436 lat
#TLE: 1 27424U 02022A   26004.96787593  .00001598  00000+0  32997-3 0  9996
#TLE: 2 27424  98.4069 331.2279 0002002  90.2377   0.6092 14.61798176259425

#Time	Az	El	Level	Level2	SNR	BER	BlckErr	Temp	State	Recorded	gain1	gain2
2026-01-07 10:11:46.37	98.65	6.95	-31.7	-51.0	3.8	7.44e-01	0	40	0	0	24	33020
2026-01-07 10:11:48.37	98.42	7.08	-31.7	-50.6	3.8	7.42e-01	0	41	104	0	25	31530
2026-01-07 10:11:50.38	98.19	7.21	-31.7	-50.5	3.8	7.44e-01	0	41	104	0	25	31494
2026-01-07 10:11:52.40	97.96	7.34	-31.6	-50.5	3.8	7.44e-01	0	41	104	0	25	31456
2026-01-07 10:11:54.41	97.72	7.47	-31.5	-50.2	3.8	7.49e-01	0	41	104	0	25	31072
2026-01-07 10:11:56.43	97.48	7.60	-31.3	-50.3	3.8	7.44e-01	0	41	104	0	24	31990
2026-01-07 10:11:58.43	97.24	7.73	-31.3	-50.1	3.8	7.47e-01	0	41	104	0	24	31468
2026-01-07 10:12:00.45	97.00	7.86	-31.3	-50.1	3.8	7.46e-01	0	41	104	0	24	31562
2026-01-07 10:12:02.45	96.76	8.00	-31.3	-50.1	3.8	7.46e-01	0	41	104	0	24	31640
2026-01-07 10:12:04.47	96.51	8.13	-31.3	-50.1	3.8	7.46e-01	0	41	104	0	24	31623
2026-01-07 10:12:06.48	96.26	8.26	-31.2	-50.1	3.8	7.45e-01	0	41	104	0	24	31649
2026-01-07 10:12:08.49	96.01	8.39	-31.2	-50.0	3.8	7.45e-01	0	41	104	0	24	31414
2026-01-07 10:12:10.50	95.75	8.53	-31.2	-50.0	3.8	7.45e-01	0	41	104	0	24	31552
2026-01-07 10:12:12.52	95.49	8.66	-31.2	-50.2	3.8	7.46e-01	0	42	104	0	24	31802
2026-01-07 10:12:14.53	95.23	8.79	-31.3	-50.3	3.8	7.47e-01	0	41	104	0	24	31981
2026-01-07 10:12:16.54	94.97	8.93	-31.3	-50.4	3.8	7.41e-01	0	42	104	0	24	32191
2026-01-07 10:12:18.54	94.71	9.06	-31.4	-50.5	3.8	7.45e-01	0	41	104	0	24	32496
2026-01-07 10:12:20.56	94.44	9.20	-31.5	-50.0	3.8	7.44e-01	0	42	104	0	24	30288
2026-01-07 10:12:22.56	94.17	9.33	-31.6	-50.0	3.8	7.43e-01	0	42	104	0	24	29852
2026-01-07 10:12:24.58	93.89	9.47	-31.8	-49.5	3.9	7.41e-01	0	42	104	0	24	27640
2026-01-07 10:12:26.58	93.62	9.60	-32.0	-47.3	4.5	7.24e-01	0	42	104	0	24	20957
2026-01-07 10:12:28.59	93.34	9.74	-32.2	-42.7	8.0	6.47e-01	0	42	0	0	25	12059
2026-01-07 10:12:30.60	93.05	9.87	-32.5	-42.9	8.4	6.42e-01	0	42	102	524288	25	11973
2026-01-07 10:12:32.61	92.77	10.01	-32.7	-43.7	7.5	6.58e-01	0	42	102	524288	26	12682
2026-01-07 10:12:34.63	92.48	10.14	-32.8	-43.9	7.4	6.59e-01	0	42	102	524288	26	12971
2026-01-07 10:12:36.64	92.19	10.28	-32.8	-43.2	8.1	6.45e-01	0	42	102	524288	26	11929
2026-01-07 10:12:38.65	91.90	10.42	-32.7	-41.8	9.5	6.27e-01	0	42	102	524288	26	10239
2026-01-07 10:12:40.66	91.60	10.55	-32.4	-39.6	11.6	6.16e-01	0	42	102	524288	26	8289
2026-01-07 10:12:42.68	91.30	10.69	-31.9	-37.2	13.7	6.08e-01	0	42	102	524288	26	6573
2026-01-07 10:12:44.69	90.99	10.83	-31.3	-35.6	15.7	6.06e-01	0	42	102	524288	24	5911
2026-01-07 10:12:46.71	90.69	10.96	-30.6	-33.8	17.3	6.06e-01	0	42	102	524288	23	5235
2026-01-07 10:12:48.71	90.38	11.10	-30.1	-32.9	18.2	6.08e-01	0	42	102	524288	22	4986
2026-01-07 10:12:50.71	90.07	11.24	-30.1	-32.8	18.4	6.06e-01	0	42	102	524288	22	4950
2026-01-07 10:12:52.73	89.75	11.37	-30.1	-32.8	18.4	6.08e-01	0	42	102	524288	22	4936
2026-01-07 10:12:54.74	89.43	11.51	-30.0	-32.7	18.5	6.07e-01	0	42	102	524288	22	4911
2026-01-07 10:12:56.75	89.11	11.65	-30.1	-32.9	18.4	6.07e-01	0	42	102	524288	22	4959
2026-01-07 10:12:58.76	88.78	11.79	-30.1	-33.0	18.4	6.07e-01	0	42	102	524288	22	4986
2026-01-07 10:13:00.78	88.45	11.92	-30.1	-33.0	18.4	6.09e-01	0	42	102	524288	22	4977
2026-01-07 10:13:02.80	88.12	12.06	-30.1	-32.9	18.5	6.07e-01	0	42	102	524288	22	4956
2026-01-07 10:13:04.80	87.79	12.20	-30.0	-32.6	18.7	6.07e-01	0	42	102	524288	22	4841
2026-01-07 10:13:06.81	87.45	12.33	-29.9	-32.4	18.8	6.07e-01	0	42	102	524288	22	4772
2026-01-07 10:13:08.82	87.10	12.47	-30.1	-32.9	18.5	6.05e-01	0	42	102	524288	22	4945
2026-01-07 10:13:10.83	86.76	12.61	-30.1	-32.9	18.5	6.06e-01	0	42	102	524288	22	4953
2026-01-07 10:13:12.85	86.41	12.74	-30.1	-32.8	18.6	6.04e-01	0	42	102	524288	22	4901
2026-01-07 10:13:14.86	86.05	12.88	-30.1	-32.8	18.6	6.06e-01	0	42	102	524288	22	4914
2026-01-07 10:13:16.87	85.70	13.02	-30.0	-32.5	18.8	6.07e-01	0	42	102	524288	22	4805
2026-01-07 10:13:18.89	85.34	13.15	-29.9	-32.7	18.9	6.05e-01	0	42	102	524288	21	4999
2026-01-07 10:13:20.90	84.97	13.29	-29.9	-32.8	18.9	6.05e-01	0	42	102	524288	21	5008
2026-01-07 10:13:22.92	84.60	13.43	-29.9	-32.7	18.9	6.09e-01	0	42	102	524288	21	4989
2026-01-07 10:13:24.93	84.23	13.56	-30.0	-33.1	18.7	6.06e-01	0	42	102	524288	21	5138
2026-01-07 10:13:26.95	83.86	13.70	-30.1	-33.2	18.7	6.06e-01	0	43	102	524288	21	5174
2026-01-07 10:13:28.96	83.48	13.83	-30.0	-33.1	18.7	6.06e-01	0	43	102	524288	21	5125
2026-01-07 10:13:30.98	83.09	13.97	-30.1	-33.2	18.7	6.07e-01	0	43	102	524288	21	5165
2026-01-07 10:13:32.98	82.71	14.10	-29.9	-32.8	18.9	6.07e-01	0	43	102	524288	21	5013
2026-01-07 10:13:35.00	82.32	14.23	-30.0	-32.9	18.9	6.07e-01	0	43	102	524288	21	5055
2026-01-07 10:13:37.01	81.92	14.37	-30.0	-33.1	18.8	6.06e-01	0	43	102	524288	21	5111
2026-01-07 10:13:39.03	81.52	14.50	-30.0	-32.9	18.9	6.06e-01	0	43	102	524288	21	5061
2026-01-07 10:13:41.05	81.12	14.63	-30.0	-33.0	18.9	6.06e-01	0	42	102	524288	21	5074
2026-01-07 10:13:43.06	80.72	14.76	-30.0	-32.9	18.9	6.04e-01	0	43	102	524288	21	5056
2026-01-07 10:13:45.07	80.31	14.89	-29.9	-32.8	19.0	6.05e-01	0	42	102	524288	21	4991
2026-01-07 10:13:47.09	79.89	15.02	-30.1	-33.2	18.8	6.07e-01	0	43	102	524288	21	5150
2026-01-07 10:13:49.10	79.48	15.15	-30.1	-33.2	18.8	6.06e-01	0	43	102	524288	21	5157
2026-01-07 10:13:51.12	79.05	15.28	-30.1	-33.2	18.8	6.07e-01	0	43	102	524288	21	5133
2026-01-07 10:13:53.14	78.63	15.41	-30.1	-33.1	18.9	6.05e-01	0	43	102	524288	21	5110
2026-01-07 10:13:55.15	78.20	15.54	-30.1	-33.2	18.7	6.07e-01	0	43	102	524288	21	5164
2026-01-07 10:13:57.17	77.76	15.67	-30.0	-33.0	18.9	6.05e-01	0	43	102	524288	21	5065
2026-01-07 10:13:59.18	77.33	15.79	-30.1	-33.2	18.8	6.06e-01	0	43	102	524288	21	5145
2026-01-07 10:14:01.19	76.89	15.92	-30.1	-33.2	18.8	6.07e-01	0	43	102	524288	21	5140
2026-01-07 10:14:03.21	76.44	16.04	-30.0	-32.9	19.0	6.07e-01	0	43	102	524288	21	5021
2026-01-07 10:14:05.23	75.99	16.16	-30.1	-33.3	18.8	6.07e-01	0	43	102	524288	21	5167
2026-01-07 10:14:07.24	75.54	16.29	-30.2	-33.5	18.7	6.07e-01	0	43	102	524288	21	5235
2026-01-07 10:14:09.26	75.08	16.41	-30.3	-33.7	18.5	6.05e-01	0	43	102	524288	21	5323
2026-01-07 10:14:11.26	74.62	16.53	-30.0	-33.0	19.0	6.07e-01	0	43	102	524288	21	5062
2026-01-07 10:14:13.27	74.16	16.64	-29.9	-32.7	19.1	6.07e-01	0	43	102	524288	21	4954
2026-01-07 10:14:15.28	73.69	16.76	-30.1	-33.1	18.9	6.03e-01	0	43	102	524288	21	5084
2026-01-07 10:14:17.30	73.22	16.88	-30.1	-33.2	18.9	6.06e-01	0	43	102	524288	21	5120
2026-01-07 10:14:19.31	72.74	16.99	-30.0	-32.8	19.1	6.07e-01	0	43	102	524288	21	4995
2026-01-07 10:14:21.31	72.27	17.11	-30.0	-33.0	19.0	6.06e-01	0	43	102	524288	21	5048
2026-01-07 10:14:23.33	71.78	17.22	-30.1	-33.1	19.0	6.07e-01	0	43	102	524288	21	5082
2026-01-07 10:14:25.35	71.29	17.33	-30.1	-33.1	18.9	6.07e-01	0	43	102	524288	21	5115
2026-01-07 10:14:27.36	70.80	17.44	-30.2	-33.4	18.8	6.05e-01	0	43	102	524288	21	5197
2026-01-07 10:14:29.38	70.31	17.55	-30.2	-33.4	18.7	6.07e-01	0	43	102	524288	21	5223
2026-01-07 10:14:31.38	69.81	17.65	-30.4	-43.4	3.8	7.43e-01	0	43	104	524288	21	15966
2026-01-07 10:14:33.39	69.31	17.75	-30.6	-43.6	3.8	7.43e-01	0	43	104	524288	21	16108
2026-01-07 10:14:35.41	68.80	17.86	-31.0	-44.4	3.8	7.43e-01	0	43	104	524288	22	16699
2026-01-07 10:14:37.43	68.29	17.96	-31.7	-45.5	3.8	7.44e-01	0	43	104	524288	24	17477
2026-01-07 10:14:39.44	67.78	18.06	-32.4	-47.1	3.8	7.44e-01	0	43	104	524288	25	19527
2026-01-07 10:14:41.45	67.26	18.15	-32.6	-47.7	3.8	7.44e-01	0	43	104	524288	25	20606
2026-01-07 10:14:43.46	66.74	18.25	-32.9	-48.4	3.8	7.48e-01	0	43	104	524288	26	21514
2026-01-07 10:14:45.47	66.22	18.34	-33.3	-49.6	3.8	7.47e-01	0	43	104	524288	27	23619
2026-01-07 10:14:47.48	65.69	18.43	-33.1	-48.8	3.9	7.42e-01	0	43	104	524288	27	21908
2026-01-07 10:14:49.50	65.16	18.52	-32.7	-47.1	3.8	7.43e-01	0	43	104	524288	27	18943
2026-01-07 10:14:51.51	64.63	18.61	-32.5	-46.5	3.8	7.46e-01	0	43	104	524288	27	18032
2026-01-07 10:14:53.53	64.09	18.70	-33.0	-48.4	3.8	7.46e-01	0	43	104	524288	27	21241
2026-01-07 10:14:55.54	63.55	18.78	-33.3	-49.5	3.8	7.43e-01	0	43	104	524288	27	23419
2026-01-07 10:14:57.55	63.01	18.86	-33.4	-50.3	3.8	7.42e-01	0	43	104	524288	27	25053
2026-01-07 10:14:59.57	62.46	18.94	-33.5	-50.6	3.8	7.43e-01	0	43	104	524288	27	25770
2026-01-07 10:15:01.59	61.91	19.01	-33.5	-50.9	3.8	7.47e-01	0	43	104	524288	27	26685
2026-01-07 10:15:03.60	61.36	19.09	-33.6	-51.3	3.8	7.43e-01	0	43	104	524288	27	27633
2026-01-07 10:15:05.62	60.80	19.16	-33.3	-49.7	3.8	7.45e-01	0	43	104	524288	28	23768
2026-01-07 10:15:07.64	60.24	19.23	-33.0	-48.2	3.8	7.46e-01	0	43	104	524288	28	20755
2026-01-07 10:15:09.65	59.68	19.29	-32.6	-46.7	3.8	7.43e-01	0	43	104	524288	27	18334
2026-01-07 10:15:11.66	59.12	19.36	-32.4	-46.2	3.8	7.45e-01	0	43	104	524288	27	17497
2026-01-07 10:15:13.67	58.56	19.42	-32.4	-46.1	3.8	7.45e-01	0	43	104	524288	27	17383
2026-01-07 10:15:15.68	57.99	19.48	-32.5	-46.3	3.8	7.45e-01	0	43	104	524288	27	17683
2026-01-07 10:15:17.69	57.42	19.53	-32.0	-45.2	3.8	7.44e-01	0	43	104	524288	26	16456
2026-01-07 10:15:19.71	56.85	19.58	-31.4	-44.2	3.8	7.44e-01	0	43	104	524288	24	15867
2026-01-07 10:15:21.72	56.27	19.63	-30.8	-43.2	3.8	7.46e-01	0	43	104	524288	23	15007
2026-01-07 10:15:23.74	55.70	19.68	-31.2	-44.2	3.8	7.46e-01	0	43	104	524288	23	16149
2026-01-07 10:15:25.74	55.12	19.73	-31.6	-45.4	3.8	7.45e-01	0	43	104	524288	23	17592
2026-01-07 10:15:27.76	54.54	19.77	-32.4	-46.9	3.8	7.45e-01	0	43	104	524288	25	19224
2026-01-07 10:15:29.77	53.96	19.81	-32.9	-48.3	3.8	7.44e-01	0	43	104	524288	26	21294
2026-01-07 10:15:31.78	53.38	19.84	-33.2	-49.0	3.8	7.45e-01	0	43	104	524288	27	22351
2026-01-07 10:15:33.80	52.79	19.88	-33.4	-50.1	3.8	7.47e-01	0	43	104	524288	27	24550
2026-01-07 10:15:35.82	52.21	19.91	-33.5	-50.8	3.8	7.46e-01	0	43	104	524288	27	26380
2026-01-07 10:15:37.83	51.62	19.93	-33.4	-50.0	3.8	7.42e-01	0	43	104	524288	27	24516
2026-01-07 10:15:39.85	51.03	19.96	-33.1	-48.8	3.8	7.42e-01	0	43	104	524288	27	21931
2026-01-07 10:15:41.86	50.45	19.98	-33.1	-48.9	3.8	7.43e-01	0	43	104	524288	27	22169
2026-01-07 10:15:43.86	49.86	20.00	-33.3	-49.8	3.8	7.45e-01	0	43	104	524288	27	24008
2026-01-07 10:15:45.88	49.27	20.01	-33.5	-50.6	3.8	7.43e-01	0	43	104	524288	27	25782
2026-01-07 10:15:47.89	48.68	20.02	-33.4	-50.0	3.8	7.45e-01	0	43	104	524288	27	24419
2026-01-07 10:15:49.91	48.09	20.03	-33.3	-49.8	3.8	7.44e-01	0	43	104	524288	27	24079
2026-01-07 10:15:51.92	47.50	20.04	-33.3	-49.8	3.8	7.47e-01	0	43	104	524288	27	24124
2026-01-07 10:15:53.94	46.91	20.04	-33.4	-50.0	3.8	7.46e-01	0	43	104	524288	27	24413
2026-01-07 10:15:55.96	46.31	20.04	-32.9	-48.1	3.8	7.47e-01	0	43	104	524288	27	20675
2026-01-07 10:15:57.97	45.72	20.04	-32.4	-46.1	3.8	7.43e-01	0	43	104	524288	27	17403
2026-01-07 10:15:59.98	45.14	20.03	-31.6	-44.5	3.8	7.41e-01	0	43	104	524288	25	15849
2026-01-07 10:16:02.00	44.54	20.02	-31.6	-44.5	3.8	7.45e-01	0	43	104	524288	25	15815
2026-01-07 10:16:04.02	43.95	20.01	-31.7	-44.6	3.8	7.45e-01	0	43	104	524288	25	16029
2026-01-07 10:16:06.03	43.36	20.00	-31.8	-45.1	3.8	7.40e-01	0	43	104	524288	25	16648
2026-01-07 10:16:08.04	42.78	19.98	-31.3	-44.0	3.8	7.45e-01	0	43	104	524288	24	15543
2026-01-07 10:16:10.05	42.19	19.96	-31.0	-43.2	3.8	7.46e-01	0	43	104	524288	24	14718
2026-01-07 10:16:12.07	41.60	19.93	-31.3	-44.0	3.8	7.47e-01	0	43	104	524288	24	15632
2026-01-07 10:16:14.08	41.02	19.91	-31.7	-45.4	3.8	7.46e-01	0	43	104	524288	24	17361
2026-01-07 10:16:16.10	40.43	19.87	-32.3	-46.8	3.8	7.49e-01	0	43	104	524288	25	19113
2026-01-07 10:16:18.11	39.85	19.84	-32.9	-48.5	3.8	7.47e-01	0	43	104	524288	26	21586
2026-01-07 10:16:20.12	39.27	19.81	-33.2	-49.5	3.8	7.45e-01	0	43	104	524288	27	23409
2026-01-07 10:16:22.13	38.69	19.77	-33.3	-50.1	3.8	7.45e-01	0	43	104	524288	27	24843
2026-01-07 10:16:24.15	38.11	19.72	-33.4	-50.3	3.8	7.45e-01	0	43	104	524288	27	25324
2026-01-07 10:16:26.16	37.53	19.68	-33.4	-50.5	3.8	7.44e-01	0	43	104	524288	27	25592
2026-01-07 10:16:28.18	36.96	19.63	-33.3	-49.9	3.8	7.45e-01	0	43	104	524288	27	24410
2026-01-07 10:16:30.19	36.38	19.58	-33.3	-49.7	3.8	7.43e-01	0	43	104	524288	27	23949
2026-01-07 10:16:32.21	35.81	19.53	-33.3	-49.8	3.8	7.48e-01	0	43	104	524288	27	24038
2026-01-07 10:16:34.22	35.24	19.47	-33.4	-50.6	3.8	7.44e-01	0	43	104	524288	27	25979
2026-01-07 10:16:36.23	34.68	19.42	-33.3	-49.8	3.8	7.49e-01	0	43	104	524288	27	24103
2026-01-07 10:16:38.24	34.11	19.35	-33.0	-48.7	3.8	7.41e-01	0	43	104	524288	27	21777
2026-01-07 10:16:40.25	33.55	19.29	-32.9	-48.0	3.8	7.46e-01	0	43	104	524288	27	20569
2026-01-07 10:16:42.27	32.99	19.22	-32.8	-47.6	3.8	7.43e-01	0	43	104	524288	27	19938
2026-01-07 10:16:44.28	32.44	19.16	-32.7	-47.4	3.8	7.46e-01	0	43	104	524288	27	19462
2026-01-07 10:16:46.29	31.89	19.09	-32.0	-45.2	3.8	7.47e-01	0	43	104	524288	26	16491
2026-01-07 10:16:48.31	31.33	19.01	-31.2	-44.0	3.8	7.44e-01	0	43	104	524288	24	15649
2026-01-07 10:16:50.32	30.79	18.94	-30.7	-43.0	3.8	7.45e-01	0	43	104	524288	23	14892
2026-01-07 10:16:52.34	30.24	18.86	-30.6	-42.8	3.8	7.44e-01	0	43	104	524288	23	14641
2026-01-07 10:16:54.35	29.70	18.78	-30.9	-43.5	3.8	7.44e-01	0	43	104	524288	23	15437
2026-01-07 10:16:56.36	29.16	18.69	-31.1	-44.2	3.8	7.48e-01	0	43	104	524288	23	16151
2026-01-07 10:16:58.38	28.62	18.61	-30.9	-43.6	3.8	7.43e-01	0	43	104	524288	23	15416
2026-01-07 10:17:00.39	28.09	18.52	-31.2	-44.4	3.8	7.47e-01	0	43	104	524288	23	16438
2026-01-07 10:17:02.40	27.56	18.43	-31.8	-45.8	3.8	7.47e-01	0	43	104	524288	24	17946
2026-01-07 10:17:04.42	27.04	18.34	-32.3	-47.0	3.8	7.45e-01	0	43	104	524288	25	19537
2026-01-07 10:17:06.43	26.52	18.25	-32.8	-48.2	3.8	7.47e-01	0	43	104	524288	26	21166
2026-01-07 10:17:08.45	25.99	18.15	-33.2	-49.4	3.8	7.46e-01	0	43	104	524288	27	23191
2026-01-07 10:17:10.47	25.48	18.06	-33.3	-50.1	3.8	7.44e-01	0	43	104	524288	27	24697
2026-01-07 10:17:12.48	24.97	17.96	-33.3	-50.1	3.8	7.50e-01	0	43	104	524288	27	24916
2026-01-07 10:17:14.50	24.46	17.86	-33.3	-50.2	3.8	7.46e-01	0	43	104	524288	27	25166
2026-01-07 10:17:16.51	23.95	17.76	-33.4	-50.3	3.8	7.44e-01	0	43	104	524288	27	25391
2026-01-07 10:17:18.53	23.45	17.65	-33.3	-50.2	3.8	7.46e-01	0	43	104	524288	27	25131
2026-01-07 10:17:20.55	22.95	17.54	-33.3	-50.1	3.8	7.45e-01	0	43	104	524288	27	24978
2026-01-07 10:17:22.56	22.46	17.44	-33.3	-50.2	3.8	7.43e-01	0	43	104	524288	27	25182
2026-01-07 10:17:24.58	21.97	17.33	-33.2	-49.4	3.8	7.48e-01	0	43	104	524288	27	23385
2026-01-07 10:17:26.59	21.48	17.22	-32.9	-48.4	3.8	7.48e-01	0	43	104	524288	27	21289
2026-01-07 10:17:28.60	21.00	17.11	-32.6	-46.8	3.8	7.44e-01	0	43	104	524288	27	18574
2026-01-07 10:17:30.62	20.52	16.99	-32.2	-46.2	3.8	7.48e-01	0	43	104	524288	26	17942
2026-01-07 10:17:32.63	20.05	16.88	-32.0	-45.4	3.8	7.48e-01	0	43	104	524288	26	16857
2026-01-07 10:17:34.63	19.58	16.76	-31.6	-44.6	3.8	7.43e-01	0	43	104	524288	25	16085
2026-01-07 10:17:36.65	19.12	16.65	-30.8	-43.3	3.8	7.41e-01	0	43	104	524288	23	15130
2026-01-07 10:17:38.65	18.66	16.53	-30.3	-42.4	3.8	7.44e-01	0	43	104	524288	22	14521
2026-01-07 10:17:40.67	18.20	16.41	-30.1	-42.1	3.8	7.43e-01	0	43	104	524288	22	14329
2026-01-07 10:17:42.68	17.74	16.29	-30.1	-42.0	3.8	7.44e-01	0	43	104	524288	22	14169
2026-01-07 10:17:44.70	17.29	16.17	-30.6	-43.2	3.8	7.46e-01	0	43	104	524288	22	15379
2026-01-07 10:17:46.72	16.84	16.05	-31.2	-44.3	3.8	7.44e-01	0	43	104	524288	23	16402
2026-01-07 10:17:48.72	16.40	15.92	-31.3	-44.9	3.8	7.45e-01	0	43	104	524288	23	17214
2026-01-07 10:17:50.74	15.96	15.80	-31.9	-46.3	3.8	7.47e-01	0	43	104	524288	24	18899
2026-01-07 10:17:52.76	15.53	15.67	-32.4	-47.5	3.8	7.43e-01	0	43	104	524288	25	20468
2026-01-07 10:17:54.78	15.09	15.55	-32.7	-48.2	3.8	7.46e-01	0	43	104	524288	26	21459
2026-01-07 10:17:56.79	14.67	15.42	-33.0	-49.4	3.8	7.44e-01	0	43	104	524288	26	23769
2026-01-07 10:17:58.81	14.24	15.29	-33.2	-49.9	3.8	7.43e-01	0	43	104	524288	27	24519
2026-01-07 10:18:00.82	13.83	15.16	-33.2	-49.8	3.8	7.46e-01	0	43	104	524288	27	24506
2026-01-07 10:18:02.83	13.41	15.03	-33.2	-50.0	3.8	7.46e-01	0	43	104	524288	27	24964
2026-01-07 10:18:04.84	13.00	14.90	-33.2	-50.3	3.8	7.43e-01	0	43	104	524288	27	25711
2026-01-07 10:18:06.86	12.59	14.77	-33.2	-50.2	3.8	7.47e-01	0	43	104	524288	27	25445
2026-01-07 10:18:08.87	12.19	14.64	-33.2	-50.0	3.8	7.46e-01	0	43	104	524288	27	24970
2026-01-07 10:18:10.88	11.79	14.51	-33.2	-50.0	3.8	7.44e-01	0	43	104	524288	27	24873
2026-01-07 10:18:12.90	11.39	14.38	-33.0	-49.1	3.8	7.49e-01	0	43	104	524288	27	23021
2026-01-07 10:18:14.89	11.01	14.25	-32.8	-48.2	3.8	7.43e-01	0	43	104	524288	27	21328
2026-01-07 10:18:16.89	10.62	14.11	-32.5	-46.9	3.8	7.42e-01	0	43	104	524288	27	18929
2026-01-07 10:18:18.90	10.24	13.98	-32.1	-45.8	3.8	7.48e-01	0	43	104	524288	26	17563
2026-01-07 10:18:20.91	9.86	13.85	-31.5	-44.7	3.8	7.44e-01	0	43	104	524288	25	16352
2026-01-07 10:18:22.91	9.48	13.71	-31.2	-44.0	3.8	7.43e-01	0	43	104	524288	24	15881
2026-01-07 10:18:24.92	9.11	13.58	-30.7	-43.3	3.8	7.41e-01	0	43	104	524288	23	15279
2026-01-07 10:18:26.93	8.74	13.44	-30.3	-42.8	3.8	7.48e-01	0	43	104	524288	22	15174
2026-01-07 10:18:28.95	8.37	13.31	-30.3	-42.5	3.8	7.46e-01	0	43	104	524288	22	14777
2026-01-07 10:18:30.97	8.01	13.17	-30.3	-42.6	3.8	7.47e-01	0	43	104	524288	22	14822
2026-01-07 10:18:32.98	7.65	13.04	-30.6	-43.4	3.8	7.46e-01	0	43	104	524288	22	15754
2026-01-07 10:18:35.00	7.30	12.90	-31.1	-44.8	3.8	7.42e-01	0	43	104	524288	22	17576
2026-01-07 10:18:37.00	6.95	12.77	-31.5	-45.8	3.8	7.41e-01	0	43	104	524288	23	18486
2026-01-07 10:18:39.01	6.60	12.63	-32.0	-46.7	3.8	7.46e-01	0	43	104	524288	24	19561
2026-01-07 10:18:41.03	6.25	12.49	-32.5	-48.1	3.8	7.45e-01	0	43	104	524288	25	21736
2026-01-07 10:18:43.04	5.91	12.36	-32.9	-49.3	3.8	7.44e-01	0	43	104	524288	26	23803
2026-01-07 10:18:45.05	5.58	12.22	-33.0	-49.7	3.8	7.41e-01	0	43	104	524288	26	24758
2026-01-07 10:18:47.07	5.24	12.08	-33.1	-50.1	3.8	7.46e-01	0	43	104	524288	26	25495
2026-01-07 10:18:49.08	4.91	11.95	-33.1	-49.9	3.8	7.45e-01	0	43	104	524288	27	24828
2026-01-07 10:18:51.10	4.58	11.81	-33.2	-50.4	3.8	7.46e-01	0	43	104	524288	27	26123
2026-01-07 10:18:53.12	4.26	11.67	-33.2	-50.4	3.8	7.43e-01	0	43	104	524288	27	26011
2026-01-07 10:18:55.13	3.94	11.54	-33.1	-49.9	3.8	7.46e-01	0	43	104	524288	27	24897
2026-01-07 10:18:57.14	3.62	11.40	-33.1	-49.9	3.8	7.44e-01	0	43	104	524288	27	25060
2026-01-07 10:18:59.16	3.30	11.26	-33.0	-49.7	3.8	7.42e-01	0	43	104	524288	27	24438
2026-01-07 10:19:01.16	3.00	11.13	-33.0	-49.3	3.8	7.46e-01	0	43	104	524288	27	23580
2026-01-07 10:19:03.18	2.69	10.99	-32.8	-48.3	3.8	7.47e-01	0	43	104	524288	27	21607
2026-01-07 10:19:05.19	2.38	10.85	-32.5	-47.3	3.8	7.44e-01	0	43	104	524288	27	19797
2026-01-07 10:19:07.21	2.08	10.72	-32.3	-46.9	3.8	7.48e-01	0	43	104	524288	26	19367
2026-01-07 10:19:09.23	1.78	10.58	-31.8	-45.8	3.8	7.42e-01	0	43	104	524288	25	18022
2026-01-07 10:19:11.23	1.49	10.45	-31.2	-44.7	3.8	7.45e-01	0	43	104	524288	24	16866
2026-01-07 10:19:13.25	1.19	10.31	-30.9	-43.5	3.8	7.43e-01	0	43	104	524288	24	15395
2026-01-07 10:19:15.25	0.91	10.17	-30.6	-43.0	3.8	7.45e-01	0	43	104	524288	23	14935
2026-01-07 10:19:17.26	0.62	10.04	-30.7	-42.9	3.8	7.42e-01	0	43	104	524288	23	14683
2026-01-07 10:19:19.28	0.34	9.90	-31.0	-44.1	3.8	7.44e-01	0	43	104	524288	23	16092
2026-01-07 10:19:21.29	0.06	9.77	-31.1	-44.8	3.8	7.45e-01	0	43	104	524288	23	17260
2026-01-07 10:19:23.30	359.78	9.63	-31.5	-46.0	3.8	7.41e-01	0	43	104	524288	23	19186
2026-01-07 10:19:25.32	359.50	9.50	-31.9	-46.9	3.8	7.45e-01	0	43	104	524288	24	20315
2026-01-07 10:19:27.33	359.23	9.36	-32.4	-48.1	3.8	7.46e-01	0	43	104	524288	25	21837
2026-01-07 10:19:29.35	358.96	9.23	-32.6	-48.3	3.9	7.44e-01	0	43	104	524288	26	21960
2026-01-07 10:19:31.36	358.69	9.09	-32.8	-49.6	3.8	7.44e-01	0	43	104	524288	26	24736
2026-01-07 10:19:33.37	358.43	8.96	-33.0	-50.8	3.8	7.42e-01	0	43	104	524288	26	27838
2026-01-07 10:19:35.38	358.17	8.83	-33.0	-51.1	3.8	7.42e-01	0	43	104	524288	26	28719
2026-01-07 10:19:37.39	357.91	8.69	-33.0	-50.9	3.8	7.44e-01	0	43	104	524288	26	28239
2026-01-07 10:19:39.41	357.65	8.56	-33.0	-50.8	3.8	7.42e-01	0	43	104	524288	26	27949
2026-01-07 10:19:41.43	357.40	8.43	-33.0	-50.8	3.8	7.46e-01	0	43	104	524288	26	27842
2026-01-07 10:19:43.44	357.15	8.30	-32.9	-50.7	3.8	7.47e-01	0	43	104	524288	26	27936
2026-01-07 10:19:45.45	356.90	8.16	-32.9	-50.6	3.8	7.45e-01	0	43	104	524288	26	27556
2026-01-07 10:19:47.47	356.66	8.03	-32.9	-50.2	3.8	7.43e-01	0	43	104	524288	26	26383
2026-01-07 10:19:49.49	356.41	7.90	-32.8	-49.9	3.8	7.45e-01	0	43	104	524288	26	25850
2026-01-07 10:19:51.50	356.17	7.77	-32.7	-49.3	3.8	7.45e-01	0	43	104	524288	26	24538
2026-01-07 10:19:53.51	355.93	7.64	-32.5	-48.4	3.8	7.47e-01	0	43	104	524288	26	22453
2026-01-07 10:19:55.52	355.70	7.51	-32.4	-47.5	3.8	7.42e-01	0	43	104	524288	26	20546
2026-01-07 10:19:57.54	355.46	7.37	-32.2	-47.1	3.8	7.45e-01	0	43	104	524288	26	20014
2026-01-07 10:19:59.55	355.23	7.24	-31.8	-46.2	3.8	7.44e-01	0	43	104	524288	25	18811
2026-01-07 10:20:01.56	355.00	7.12	-31.3	-44.8	3.8	7.44e-01	0	43	104	524288	24	17032
2026-01-07 10:20:03.57	354.78	6.99	-33.6	-52.7	3.8	7.44e-01	0	44	104	524288	28	32521

#Closed at: 2026-01-07 10:20:05
#Recorded file [0 MB]: D:/data/31010_260107_131228.dat