passes_logs/2026/01/07/R2M6_AANII_01/R2M6_AANII_01__20260107_144430_FENGYUN_3E_rec.log

#Pass ID: 20260107_144430_FENGYUN 3E
#Satellite: FENGYUN 3E
#Configuration: FENGYUN 3E
#almurnet v.1.7.20240730
#Start time: 2026-01-07 14:44:32

#Version: 2.2.20231116
#Station: R2M6_AANII_01
#Location: 30.233357 lon 59.946436 lat
#TLE: 1 49008U 21062A   26006.26767912  .00000427  00000+0  22170-3 0  9993
#TLE: 2 49008  98.7475  11.4982 0001602 156.1158 204.0093 14.19885456233607

#Time	Az	El	Level	Level2	SNR	BER	BlckErr	Temp	State	Recorded	gain1	gain2
2026-01-07 14:44:32.18	164.59	7.16	-28.8	-31.0	5.3	7.79e-01	0	41	0	0	18	4641
2026-01-07 14:44:35.19	164.63	7.39	-28.0	-29.6	10.8	3.04e-03	0	41	102	1048576	17	4293
2026-01-07 14:44:38.21	164.67	7.63	-28.2	-30.1	10.5	3.52e-03	0	41	102	1048576	17	4441
2026-01-07 14:44:41.23	164.71	7.87	-27.4	-28.6	11.7	5.95e-04	0	42	102	1048576	16	4120
2026-01-07 14:44:44.24	164.75	8.12	-26.3	-27.7	12.9	4.23e-05	0	42	102	1048576	13	4194
2026-01-07 14:44:47.26	164.79	8.36	-26.2	-27.4	13.1	1.83e-05	0	42	102	1048576	13	4114
2026-01-07 14:44:50.27	164.83	8.61	-26.1	-27.2	13.3	5.70e-06	0	42	102	1048576	13	4076
2026-01-07 14:44:53.29	164.87	8.86	-26.2	-27.4	13.2	2.28e-05	0	42	102	1048576	13	4113
2026-01-07 14:44:56.32	164.91	9.11	-25.9	-27.2	13.6	6.80e-06	0	42	102	1048576	12	4173
2026-01-07 14:44:59.34	164.95	9.36	-26.0	-27.4	13.5	6.80e-06	0	42	102	1048576	12	4239
2026-01-07 14:45:02.35	165.00	9.62	-25.5	-26.3	14.1	4.50e-06	0	42	102	1048576	12	3952
2026-01-07 14:45:05.37	165.04	9.88	-25.4	-26.6	14.3	1.10e-06	0	42	102	1048576	11	4121
2026-01-07 14:45:08.39	165.09	10.14	-25.5	-26.7	14.3	0.00e+00	0	42	102	1048576	11	4145
2026-01-07 14:45:11.40	165.13	10.41	-25.3	-26.3	14.5	0.00e+00	0	42	102	1048576	11	4036
2026-01-07 14:45:14.42	165.18	10.68	-25.4	-26.5	14.4	1.10e-06	0	42	102	1048576	11	4090
2026-01-07 14:45:17.45	165.22	10.95	-25.4	-26.5	14.4	0.00e+00	0	42	102	1048576	11	4098
2026-01-07 14:45:20.47	165.27	11.23	-25.2	-26.1	14.7	0.00e+00	0	43	102	1048576	11	3994
2026-01-07 14:45:23.50	165.32	11.50	-25.1	-25.8	14.8	1.10e-06	0	43	102	1048576	11	3913
2026-01-07 14:45:26.52	165.37	11.79	-25.2	-26.1	14.7	0.00e+00	0	42	102	1048576	11	3975
2026-01-07 14:45:29.54	165.42	12.07	-25.4	-26.4	14.6	0.00e+00	0	42	102	1048576	11	4059
2026-01-07 14:45:32.55	165.47	12.36	-25.3	-26.3	14.6	0.00e+00	0	43	102	1048576	11	4025
2026-01-07 14:45:35.55	165.52	12.65	-25.3	-26.3	14.6	0.00e+00	0	43	102	1048576	11	4028
2026-01-07 14:45:38.55	165.57	12.94	-25.0	-25.6	15.1	0.00e+00	0	43	102	1048576	11	3843
2026-01-07 14:45:41.58	165.62	13.24	-24.7	-25.4	15.4	0.00e+00	0	43	102	1048576	10	3920
2026-01-07 14:45:44.60	165.68	13.54	-24.8	-25.7	15.3	0.00e+00	0	43	102	1048576	10	3985
2026-01-07 14:45:47.62	165.73	13.85	-24.6	-25.1	15.7	0.00e+00	0	43	102	1048576	10	3819
2026-01-07 14:45:50.63	165.79	14.15	-24.7	-25.5	15.5	0.00e+00	0	43	102	1048576	10	3910
2026-01-07 14:45:53.65	165.84	14.47	-24.8	-25.6	15.4	1.10e-06	0	43	102	1048576	10	3938
2026-01-07 14:45:56.67	165.90	14.79	-25.0	-26.0	15.2	1.10e-06	0	43	102	1048576	10	4036
2026-01-07 14:45:59.69	165.96	15.11	-25.0	-25.9	15.2	8.00e-06	0	43	102	1048576	10	4033
2026-01-07 14:46:02.71	166.02	15.43	-24.7	-25.4	15.5	5.70e-06	0	43	102	1048576	10	3895
2026-01-07 14:46:05.74	166.08	15.76	-24.6	-25.3	15.6	2.20e-06	0	43	102	1048576	10	3876
2026-01-07 14:46:08.76	166.14	16.10	-24.7	-25.4	15.5	4.50e-06	0	43	102	1048576	10	3916
2026-01-07 14:46:11.77	166.20	16.44	-24.7	-25.4	15.6	0.00e+00	0	43	102	1048576	10	3904
2026-01-07 14:46:14.79	166.27	16.78	-24.7	-25.4	15.5	0.00e+00	0	43	102	1048576	10	3913
2026-01-07 14:46:17.82	166.33	17.13	-24.3	-25.1	15.9	0.00e+00	0	43	102	1048576	9	3944
2026-01-07 14:46:20.82	166.40	17.49	-24.0	-24.4	16.3	0.00e+00	0	43	102	1048576	9	3764
2026-01-07 14:46:23.84	166.47	17.84	-23.8	-24.5	16.5	0.00e+00	0	43	102	1048576	8	3898
2026-01-07 14:46:26.86	166.54	18.21	-23.9	-24.6	16.5	0.00e+00	0	43	102	1048576	8	3910
2026-01-07 14:46:29.88	166.61	18.58	-23.8	-24.5	16.6	0.00e+00	0	43	102	1048576	8	3876
2026-01-07 14:46:32.90	166.68	18.96	-23.5	-23.8	16.9	0.00e+00	0	43	102	1048576	8	3719
2026-01-07 14:46:35.93	166.76	19.34	-23.6	-23.9	16.9	0.00e+00	0	43	102	1048576	8	3745
2026-01-07 14:46:38.94	166.83	19.73	-23.5	-23.7	17.0	0.00e+00	0	43	102	1048576	8	3707
2026-01-07 14:46:41.96	166.91	20.12	-23.5	-23.8	16.9	0.00e+00	0	43	102	1048576	8	3719
2026-01-07 14:46:44.99	166.99	20.52	-23.6	-24.5	16.8	0.00e+00	0	43	102	1048576	7	4015
2026-01-07 14:46:48.01	167.07	20.93	-23.3	-23.9	17.0	0.00e+00	0	43	102	1048576	7	3872
2026-01-07 14:46:51.03	167.16	21.34	-23.5	-24.3	16.8	0.00e+00	0	43	102	1048576	7	3979
2026-01-07 14:46:54.05	167.24	21.76	-23.3	-24.0	16.9	0.00e+00	0	43	102	1048576	7	3903
2026-01-07 14:46:57.07	167.33	22.19	-23.6	-24.6	16.6	0.00e+00	0	43	102	1048576	7	4051
2026-01-07 14:47:00.09	167.42	22.62	-23.1	-23.5	17.2	0.00e+00	0	43	102	1048576	7	3800
2026-01-07 14:47:03.11	167.51	23.06	-23.2	-23.8	17.1	0.00e+00	0	43	102	1048576	7	3867
2026-01-07 14:47:06.12	167.60	23.51	-23.1	-23.6	17.2	0.00e+00	0	43	102	1048576	7	3804
2026-01-07 14:47:09.14	167.70	23.97	-22.8	-23.6	17.4	0.00e+00	0	43	102	1048576	6	3911
2026-01-07 14:47:12.17	167.80	24.44	-22.6	-23.1	17.7	0.00e+00	0	43	102	1048576	6	3786
2026-01-07 14:47:15.19	167.90	24.91	-22.9	-23.6	17.5	0.00e+00	0	44	102	1048576	6	3913
2026-01-07 14:47:18.21	168.01	25.39	-23.0	-23.9	17.4	0.00e+00	0	43	102	1048576	6	3992
2026-01-07 14:47:21.24	168.11	25.88	-22.9	-23.7	17.5	0.00e+00	0	43	102	1048576	6	3920
2026-01-07 14:47:24.27	168.23	26.39	-23.1	-24.0	17.4	0.00e+00	0	43	102	1048576	6	4006
2026-01-07 14:47:27.29	168.34	26.90	-22.3	-22.9	18.1	0.00e+00	0	43	102	1048576	5	3854
2026-01-07 14:47:30.31	168.46	27.41	-22.5	-23.3	18.0	0.00e+00	0	43	102	1048576	5	3946
2026-01-07 14:47:33.34	168.58	27.95	-22.6	-23.5	17.9	0.00e+00	0	43	102	1048576	5	3983
2026-01-07 14:47:36.35	168.70	28.48	-22.5	-23.2	18.1	0.00e+00	0	44	102	1048576	5	3923
2026-01-07 14:47:39.37	168.83	29.03	-22.6	-23.4	18.0	0.00e+00	0	44	102	1048576	5	3960
2026-01-07 14:47:42.39	168.96	29.59	-22.5	-23.2	18.1	0.00e+00	0	44	102	1048576	5	3909
2026-01-07 14:47:45.42	169.10	30.17	-22.7	-23.6	17.8	0.00e+00	0	43	102	1048576	5	4016
2026-01-07 14:47:48.44	169.24	30.75	-22.5	-23.2	18.0	0.00e+00	0	44	102	1048576	5	3923
2026-01-07 14:47:51.45	169.39	31.34	-23.2	-23.6	18.3	0.00e+00	0	43	102	1048576	6	3778
2026-01-07 14:47:54.47	169.54	31.95	-23.4	-23.5	18.1	0.00e+00	0	44	102	1048576	7	3661
2026-01-07 14:47:57.49	169.70	32.57	-23.0	-22.8	18.5	0.00e+00	0	44	102	1048576	7	3499
2026-01-07 14:48:00.48	169.86	33.20	-23.3	-23.8	18.2	0.00e+00	0	43	102	1048576	6	3829
2026-01-07 14:48:03.51	170.03	33.85	-23.4	-24.1	18.1	0.00e+00	0	43	102	1048576	6	3898
2026-01-07 14:48:06.52	170.20	34.50	-23.2	-23.7	18.3	0.00e+00	0	44	102	1048576	6	3801
2026-01-07 14:48:09.55	170.39	35.18	-23.2	-23.0	18.4	0.00e+00	0	44	102	1048576	7	3551
2026-01-07 14:48:12.56	170.58	35.86	-23.0	-22.7	18.5	0.00e+00	0	44	102	1048576	7	3487
2026-01-07 14:48:15.58	170.77	36.57	-23.1	-23.5	18.4	0.00e+00	0	43	102	1048576	6	3760
2026-01-07 14:48:18.60	170.98	37.28	-23.4	-24.0	18.2	0.00e+00	0	44	102	1048576	6	3874
2026-01-07 14:48:21.61	171.19	38.01	-23.5	-23.7	18.1	0.00e+00	0	44	102	1048576	7	3696
2026-01-07 14:48:24.62	171.42	38.76	-23.5	-23.9	18.0	0.00e+00	0	44	102	1048576	7	3735
2026-01-07 14:48:27.63	171.65	39.52	-23.2	-23.1	18.4	0.00e+00	0	44	102	1048576	7	3562
2026-01-07 14:48:30.65	171.90	40.30	-23.3	-23.4	18.3	0.00e+00	0	44	102	1048576	7	3628
2026-01-07 14:48:33.66	172.15	41.10	-23.4	-23.6	18.2	1.10e-06	0	44	102	1048576	7	3674
2026-01-07 14:48:36.68	172.42	41.92	-23.7	-24.1	18.0	0.00e+00	0	44	102	1048576	7	3793
2026-01-07 14:48:39.71	172.70	42.75	-23.4	-23.5	18.3	0.00e+00	0	44	102	1048576	7	3654
2026-01-07 14:48:42.72	173.00	43.60	-23.6	-23.9	18.1	0.00e+00	0	44	102	1048576	7	3728
2026-01-07 14:48:45.74	173.31	44.47	-23.7	-24.1	18.0	0.00e+00	0	44	102	1048576	7	3784
2026-01-07 14:48:48.76	173.64	45.36	-23.9	-24.6	17.8	0.00e+00	0	44	102	1048576	7	3897
2026-01-07 14:48:51.78	173.99	46.27	-24.2	-24.7	17.5	0.00e+00	0	44	102	1048576	8	3821
2026-01-07 14:48:54.80	174.36	47.20	-24.3	-24.4	17.4	0.00e+00	0	43	102	1048576	9	3637
2026-01-07 14:48:57.82	174.75	48.14	-24.6	-25.1	17.0	0.00e+00	0	44	102	1048576	9	3815
2026-01-07 14:49:00.84	175.17	49.11	-24.6	-25.0	17.1	0.00e+00	0	44	102	1048576	9	3788
2026-01-07 14:49:03.86	175.61	50.10	-24.6	-25.0	17.1	0.00e+00	0	44	102	1048576	9	3789
2026-01-07 14:49:06.88	176.08	51.10	-24.6	-25.0	17.1	0.00e+00	0	44	102	1048576	9	3775
2026-01-07 14:49:09.90	176.59	52.13	-25.0	-25.3	16.7	0.00e+00	0	44	102	1048576	10	3743
2026-01-07 14:49:12.93	177.13	53.18	-25.0	-25.4	16.7	0.00e+00	0	44	102	1048576	10	3759
2026-01-07 14:49:15.94	177.70	54.24	-24.7	-24.7	17.1	0.00e+00	0	44	102	1048576	10	3609
2026-01-07 14:49:18.96	178.33	55.32	-25.2	-25.8	16.5	0.00e+00	0	44	102	1048576	10	3874
2026-01-07 14:49:21.98	179.00	56.43	-24.4	-24.1	17.4	0.00e+00	0	44	102	1048576	10	3492
2026-01-07 14:49:24.98	179.72	57.54	-24.8	-25.4	16.9	0.00e+00	0	44	102	1048576	9	3879
2026-01-07 14:49:28.00	180.51	58.68	-24.8	-25.4	17.0	0.00e+00	0	44	102	1048576	9	3889
2026-01-07 14:49:31.00	181.36	59.83	-24.4	-24.1	17.4	0.00e+00	0	44	102	1048576	10	3482
2026-01-07 14:49:34.03	182.31	61.00	-24.9	-25.8	16.8	0.00e+00	0	44	102	1048576	9	3964
2026-01-07 14:49:37.04	183.33	62.18	-24.8	-25.0	17.0	0.00e+00	0	44	102	1048576	10	3666
2026-01-07 14:49:40.07	184.47	63.39	-24.5	-24.4	17.3	0.00e+00	0	43	102	1048576	10	3541
2026-01-07 14:49:43.08	185.72	64.59	-23.8	-23.9	18.1	0.00e+00	0	44	102	1048576	8	3640
2026-01-07 14:49:46.10	187.12	65.80	-23.7	-23.7	18.1	0.00e+00	0	44	102	1048576	8	3588
2026-01-07 14:49:49.12	188.68	67.02	-24.3	-25.0	17.5	0.00e+00	0	44	102	1048576	8	3884
2026-01-07 14:49:52.14	190.43	68.24	-23.6	-23.4	18.4	0.00e+00	0	44	102	1048576	8	3523
2026-01-07 14:49:55.17	192.41	69.46	-23.6	-23.9	18.3	0.00e+00	0	44	102	1048576	7	3743
2026-01-07 14:49:58.19	194.64	70.67	-23.4	-23.4	18.5	0.00e+00	0	43	102	1048576	7	3626
2026-01-07 14:50:01.20	197.19	71.85	-23.6	-23.9	18.3	0.00e+00	0	44	102	1048576	7	3734
2026-01-07 14:50:04.22	200.11	73.02	-23.5	-23.7	18.5	0.00e+00	0	44	102	1048576	7	3682
2026-01-07 14:50:07.24	203.48	74.14	-23.1	-23.4	18.8	0.00e+00	0	44	102	1048576	6	3732
2026-01-07 14:50:10.27	207.39	75.22	-22.8	-22.7	19.0	0.00e+00	0	44	102	1048576	6	3564
2026-01-07 14:50:13.29	211.89	76.23	-22.2	-22.0	19.8	0.00e+00	0	44	102	1048576	5	3517
2026-01-07 14:50:16.30	217.08	77.14	-22.0	-22.1	19.9	0.00e+00	0	44	102	1048576	4	3652
2026-01-07 14:50:19.32	223.05	77.95	-22.0	-22.1	20.0	0.00e+00	0	44	102	1048576	4	3647
2026-01-07 14:50:22.35	229.84	78.62	-21.8	-21.7	20.2	0.00e+00	0	44	102	1048576	4	3550
2026-01-07 14:50:25.37	237.34	79.11	-21.5	-21.2	20.4	0.00e+00	0	44	102	1048576	4	3452
2026-01-07 14:50:28.39	245.42	79.41	-21.0	-20.6	21.0	0.00e+00	0	44	102	1048576	3	3431
2026-01-07 14:50:31.40	253.77	79.49	-21.7	-22.0	20.4	0.00e+00	0	44	102	1048576	3	3727
2026-01-07 14:50:34.42	262.09	79.35	-21.9	-22.4	20.2	0.00e+00	0	44	102	1048576	3	3809
2026-01-07 14:50:37.43	270.02	79.00	-22.4	-23.0	19.6	0.00e+00	0	44	102	1048576	4	3835
2026-01-07 14:50:40.45	277.34	78.46	-22.3	-22.2	19.8	0.00e+00	0	44	102	1048576	5	3567
2026-01-07 14:50:43.47	283.90	77.76	-22.1	-21.7	20.0	0.00e+00	0	44	102	1048576	5	3464
2026-01-07 14:50:46.48	289.64	76.92	-22.2	-22.0	19.9	0.00e+00	0	44	102	1048576	5	3508
2026-01-07 14:50:49.50	294.66	75.98	-22.4	-22.5	19.7	0.00e+00	0	44	102	1048576	5	3617
2026-01-07 14:50:52.52	299.00	74.96	-23.0	-23.6	19.0	0.00e+00	0	44	102	1048576	5	3884
2026-01-07 14:50:55.54	302.75	73.87	-23.7	-24.2	18.2	0.00e+00	0	44	102	1048576	7	3798
2026-01-07 14:50:58.56	306.00	72.73	-23.7	-24.0	18.3	0.00e+00	0	44	102	1048576	7	3758
2026-01-07 14:51:01.58	308.82	71.56	-24.3	-24.8	17.7	0.00e+00	0	44	102	1048576	8	3831
2026-01-07 14:51:04.60	311.28	70.37	-24.5	-24.7	17.5	0.00e+00	0	44	102	1048576	9	3694
2026-01-07 14:51:07.63	313.46	69.16	-24.6	-25.0	17.3	0.00e+00	0	44	102	1048576	9	3772
2026-01-07 14:51:10.65	315.37	67.95	-23.6	-23.4	18.4	0.00e+00	0	44	102	1048576	8	3522
2026-01-07 14:51:13.66	317.06	66.73	-23.5	-23.2	18.5	0.00e+00	0	44	102	1048576	8	3480
2026-01-07 14:51:16.68	318.57	65.52	-23.1	-23.0	18.8	0.00e+00	0	44	102	1048576	7	3522
2026-01-07 14:51:19.70	319.93	64.31	-23.6	-23.9	18.4	0.00e+00	0	44	102	1048576	7	3723
2026-01-07 14:51:22.72	321.15	63.11	-23.9	-24.5	18.0	0.00e+00	0	44	102	1048576	7	3871
2026-01-07 14:51:25.74	322.26	61.91	-24.6	-25.1	17.2	0.00e+00	0	44	102	1048576	9	3794
2026-01-07 14:51:28.76	323.27	60.74	-24.8	-25.5	16.5	0.00e+00	0	44	102	1048576	9	3910
2026-01-07 14:51:31.78	324.18	59.57	-24.7	-25.2	17.1	0.00e+00	0	44	102	1048576	9	3819
2026-01-07 14:51:34.80	325.03	58.42	-24.5	-24.8	17.3	0.00e+00	0	44	102	1048576	9	3734
2026-01-07 14:51:37.82	325.80	57.29	-25.3	-26.0	16.4	0.00e+00	0	44	102	1048576	10	3913
2026-01-07 14:51:40.84	326.51	56.18	-25.2	-25.8	16.5	0.00e+00	0	44	102	1048576	10	3868
2026-01-07 14:51:43.85	327.17	55.09	-24.9	-25.1	16.9	0.00e+00	0	44	102	1048576	10	3685
2026-01-07 14:51:46.87	327.78	54.01	-25.0	-25.3	16.8	0.00e+00	0	44	102	1048576	10	3739
2026-01-07 14:51:49.89	328.35	52.95	-25.0	-25.5	16.6	0.00e+00	0	44	102	1048576	10	3784
2026-01-07 14:51:52.90	328.88	51.92	-24.6	-24.6	17.1	0.00e+00	0	44	102	1048576	10	3578
2026-01-07 14:51:55.92	329.37	50.90	-24.8	-25.0	16.9	0.00e+00	0	44	102	1048576	10	3689
2026-01-07 14:51:58.95	329.84	49.90	-25.0	-25.4	16.7	0.00e+00	0	44	102	1048576	10	3773
2026-01-07 14:52:01.97	330.27	48.92	-24.7	-24.7	17.0	0.00e+00	0	44	102	1048576	10	3605
2026-01-07 14:52:05.00	330.68	47.96	-24.7	-24.8	17.0	0.00e+00	0	44	102	1048576	10	3628
2026-01-07 14:52:08.02	331.07	47.02	-24.4	-24.6	17.3	0.00e+00	0	44	102	1048576	9	3692
2026-01-07 14:52:11.04	331.43	46.10	-24.3	-24.3	17.5	0.00e+00	0	44	102	1048576	9	3633
2026-01-07 14:52:14.06	331.78	45.20	-23.3	-23.3	18.4	0.00e+00	0	44	102	1048576	7	3594
2026-01-07 14:52:17.08	332.10	44.32	-23.5	-23.8	18.1	0.00e+00	0	44	102	1048576	7	3706
2026-01-07 14:52:20.09	332.41	43.46	-23.4	-23.4	18.4	0.00e+00	0	44	102	1048576	7	3625
2026-01-07 14:52:23.12	332.71	42.62	-23.4	-23.6	18.3	0.00e+00	0	44	102	1048576	7	3659
2026-01-07 14:52:26.13	332.99	41.79	-23.2	-23.1	18.5	0.00e+00	0	44	102	1048576	7	3565
2026-01-07 14:52:29.15	333.25	40.98	-23.6	-23.9	18.1	0.00e+00	0	44	102	1048576	7	3738
2026-01-07 14:52:32.18	333.51	40.19	-24.2	-24.8	17.4	0.00e+00	0	44	102	1048576	8	3843
2026-01-07 14:52:35.20	333.75	39.42	-23.8	-24.0	17.8	0.00e+00	0	44	102	1048576	8	3654
2026-01-07 14:52:38.22	333.98	38.66	-23.4	-23.6	18.2	0.00e+00	0	44	102	1048576	7	3663
2026-01-07 14:52:41.25	334.21	37.91	-23.2	-23.0	18.5	0.00e+00	0	44	102	1048576	7	3548
2026-01-07 14:52:44.26	334.42	37.19	-23.0	-22.7	18.6	0.00e+00	0	44	102	1048576	7	3472
2026-01-07 14:52:47.28	334.62	36.48	-23.2	-23.1	18.5	0.00e+00	0	44	102	1048576	7	3559
2026-01-07 14:52:50.30	334.82	35.78	-23.1	-23.0	18.4	0.00e+00	0	44	102	1048576	7	3548
2026-01-07 14:52:53.32	335.01	35.10	-23.3	-23.4	18.3	0.00e+00	0	44	102	1048576	7	3622
2026-01-07 14:52:56.34	335.19	34.43	-23.2	-23.0	18.5	0.00e+00	0	44	102	1048576	7	3540
2026-01-07 14:52:59.35	335.37	33.78	-23.4	-23.4	18.3	0.00e+00	0	44	102	1048576	7	3633
2026-01-07 14:53:02.37	335.53	33.14	-23.0	-22.6	18.7	0.00e+00	0	44	102	1048576	7	3455
2026-01-07 14:53:05.40	335.70	32.51	-23.1	-22.9	18.5	0.00e+00	0	44	102	1048576	7	3520
2026-01-07 14:53:08.41	335.85	31.90	-23.1	-22.9	18.5	0.00e+00	0	44	102	1048576	7	3525
2026-01-07 14:53:11.43	336.01	31.30	-23.2	-23.1	18.4	0.00e+00	0	44	102	1048576	7	3557
2026-01-07 14:53:14.45	336.15	30.71	-23.2	-23.1	18.4	0.00e+00	0	44	102	1048576	7	3570
2026-01-07 14:53:17.48	336.29	30.13	-23.4	-23.5	18.2	0.00e+00	0	44	102	1048576	7	3659
2026-01-07 14:53:20.50	336.43	29.56	-23.6	-24.0	17.9	0.00e+00	0	44	102	1048576	7	3765
2026-01-07 14:53:23.52	336.56	29.01	-23.7	-24.2	17.8	0.00e+00	0	44	102	1048576	7	3798
2026-01-07 14:53:26.54	336.69	28.46	-24.0	-24.8	17.5	0.00e+00	0	44	102	1048576	7	3955
2026-01-07 14:53:29.56	336.82	27.93	-23.6	-23.5	17.9	0.00e+00	0	44	102	1048576	8	3558
2026-01-07 14:53:32.58	336.94	27.40	-23.4	-23.2	18.1	0.00e+00	0	44	102	1048576	8	3480
2026-01-07 14:53:35.61	337.06	26.89	-23.4	-23.1	18.1	0.00e+00	0	44	102	1048576	8	3477
2026-01-07 14:53:38.62	337.17	26.38	-23.4	-23.5	18.1	0.00e+00	0	44	102	1048576	7	3657
2026-01-07 14:53:41.65	337.28	25.88	-23.3	-23.4	18.2	0.00e+00	0	44	102	1048576	7	3620
2026-01-07 14:53:44.66	337.39	25.40	-23.3	-23.4	18.2	0.00e+00	0	44	102	1048576	7	3624
2026-01-07 14:53:47.69	337.50	24.92	-23.4	-23.6	18.0	0.00e+00	0	44	102	1048576	7	3668
2026-01-07 14:53:50.70	337.60	24.45	-23.4	-23.5	18.1	0.00e+00	0	44	102	1048576	7	3642
2026-01-07 14:53:53.72	337.70	23.99	-23.4	-23.5	18.1	0.00e+00	0	44	102	1048576	7	3644
2026-01-07 14:53:56.74	337.80	23.53	-23.4	-23.6	18.0	0.00e+00	0	44	102	1048576	7	3677
2026-01-07 14:53:59.75	337.89	23.09	-23.5	-23.7	17.9	0.00e+00	0	44	102	1048576	7	3704
2026-01-07 14:54:02.77	337.99	22.65	-23.7	-24.1	17.7	0.00e+00	0	44	102	1048576	7	3785
2026-01-07 14:54:05.80	338.08	22.22	-23.8	-24.4	17.5	0.00e+00	0	44	102	1048576	7	3847
2026-01-07 14:54:08.82	338.17	21.79	-24.0	-24.7	17.4	0.00e+00	0	44	102	1048576	7	3932
2026-01-07 14:54:11.85	338.25	21.38	-24.1	-24.6	17.2	0.00e+00	0	44	102	1048576	8	3800
2026-01-07 14:54:14.86	338.34	20.97	-24.3	-24.9	17.0	0.00e+00	0	44	102	1048576	8	3873
2026-01-07 14:54:17.88	338.42	20.56	-24.0	-24.2	17.4	0.00e+00	0	44	102	1048576	8	3717
2026-01-07 14:54:20.90	338.50	20.17	-23.9	-24.2	17.4	0.00e+00	0	44	102	1048576	8	3707
2026-01-07 14:54:23.91	338.58	19.78	-24.1	-24.6	17.1	0.00e+00	0	44	102	1048576	8	3799
2026-01-07 14:54:26.93	338.66	19.39	-24.2	-24.9	17.0	0.00e+00	0	44	102	1048576	8	3863
2026-01-07 14:54:29.95	338.73	19.01	-24.3	-24.9	17.0	0.00e+00	0	44	102	1048576	8	3862
2026-01-07 14:54:32.97	338.81	18.64	-24.2	-24.7	17.1	0.00e+00	0	44	102	1048576	8	3827
2026-01-07 14:54:35.99	338.88	18.27	-24.2	-24.8	17.0	0.00e+00	0	44	102	1048576	8	3853
2026-01-07 14:54:39.00	338.95	17.91	-24.5	-25.3	16.7	0.00e+00	0	44	102	1048576	8	3971
2026-01-07 14:54:42.03	339.02	17.55	-25.0	-25.9	16.2	0.00e+00	0	44	102	1048576	9	3993
2026-01-07 14:54:45.05	339.09	17.20	-24.8	-25.5	16.4	0.00e+00	0	44	102	1048576	9	3913
2026-01-07 14:54:48.07	339.16	16.85	-24.7	-25.4	16.4	0.00e+00	0	44	102	1048576	9	3886
2026-01-07 14:54:51.09	339.22	16.51	-24.8	-25.5	16.4	0.00e+00	0	44	102	1048576	9	3902
2026-01-07 14:54:54.10	339.29	16.17	-24.8	-25.5	16.4	0.00e+00	0	44	102	1048576	9	3899
2026-01-07 14:54:57.12	339.35	15.84	-24.8	-25.6	16.3	0.00e+00	0	44	102	1048576	9	3932
2026-01-07 14:55:00.14	339.42	15.51	-25.0	-25.9	16.1	1.10e-06	0	44	102	1048576	9	4015
2026-01-07 14:55:03.15	339.48	15.19	-25.2	-26.0	15.8	0.00e+00	0	44	102	1048576	10	3919
2026-01-07 14:55:06.18	339.54	14.87	-25.3	-26.2	15.7	0.00e+00	0	44	102	1048576	10	3970
2026-01-07 14:55:09.20	339.60	14.55	-25.3	-26.1	15.7	0.00e+00	0	44	102	1048576	10	3951
2026-01-07 14:55:12.22	339.66	14.24	-25.4	-26.4	15.5	0.00e+00	0	44	102	1048576	10	4021
2026-01-07 14:55:15.24	339.71	13.93	-25.7	-26.5	15.2	0.00e+00	0	44	102	1048576	11	3950
2026-01-07 14:55:18.26	339.77	13.63	-25.7	-26.4	15.2	0.00e+00	0	44	102	1048576	11	3933
2026-01-07 14:55:21.28	339.83	13.33	-26.0	-27.1	14.9	0.00e+00	0	44	102	1048576	11	4099
2026-01-07 14:55:24.29	339.88	13.03	-26.0	-27.1	14.8	0.00e+00	0	44	102	1048576	11	4106
2026-01-07 14:55:27.30	339.94	12.74	-26.0	-27.1	14.8	0.00e+00	0	44	102	1048576	11	4103
2026-01-07 14:55:30.33	339.99	12.45	-25.7	-26.1	15.0	0.00e+00	0	44	102	1048576	12	3750
2026-01-07 14:55:33.35	340.04	12.16	-25.9	-26.5	14.8	0.00e+00	0	44	102	1048576	12	3862
2026-01-07 14:55:36.37	340.09	11.88	-26.0	-26.7	14.7	1.10e-06	0	44	102	1048576	12	3897
2026-01-07 14:55:39.38	340.14	11.60	-26.2	-27.0	14.5	1.10e-06	0	44	102	1048576	12	3978
2026-01-07 14:55:42.39	340.19	11.33	-26.2	-27.1	14.4	0.00e+00	0	44	102	1048576	12	3996
2026-01-07 14:55:45.42	340.24	11.05	-26.4	-27.5	14.2	1.10e-06	0	44	102	1048576	12	4093
2026-01-07 14:55:48.44	340.29	10.78	-26.4	-27.6	14.1	2.20e-06	0	44	102	1048576	12	4126
2026-01-07 14:55:51.46	340.34	10.52	-27.0	-28.4	13.3	1.83e-05	0	44	102	1048576	13	4234
2026-01-07 14:55:54.49	340.39	10.25	-27.4	-28.7	12.8	5.26e-05	0	44	102	1048576	14	4226
2026-01-07 14:55:57.51	340.44	9.99	-27.6	-28.8	12.5	9.72e-05	0	44	102	1048576	15	4138
2026-01-07 14:56:00.53	340.48	9.73	-27.5	-28.6	12.6	9.26e-05	0	44	102	1048576	15	4096
2026-01-07 14:56:03.55	340.53	9.47	-27.4	-28.4	12.7	7.78e-05	0	44	102	1048576	15	4025
2026-01-07 14:56:06.57	340.58	9.22	-26.5	-26.9	13.8	8.00e-06	0	44	102	1048576	14	3760
2026-01-07 14:56:09.59	340.62	8.97	-26.5	-27.3	13.9	1.10e-06	0	44	102	1048576	13	3953
2026-01-07 14:56:12.62	340.66	8.72	-26.5	-27.4	13.8	4.50e-06	0	44	102	1048576	13	3964
2026-01-07 14:56:15.65	340.71	8.47	-26.6	-27.5	13.7	3.40e-06	0	44	102	1048576	13	3997
2026-01-07 14:56:18.67	340.75	8.23	-26.3	-26.9	14.0	2.20e-06	0	44	102	1048576	13	3869
2026-01-07 14:56:21.68	340.79	7.99	-26.4	-27.2	13.8	5.70e-06	0	44	102	1048576	13	3928
2026-01-07 14:56:24.70	340.84	7.75	-26.6	-27.6	13.6	8.00e-06	0	44	102	1048576	13	4033
2026-01-07 14:56:27.72	340.88	7.51	-26.6	-27.7	13.5	1.37e-05	0	44	102	1048576	13	4063
2026-01-07 14:56:30.74	340.92	7.28	-26.7	-27.9	13.3	1.71e-05	0	44	102	1048576	13	4116
2026-01-07 14:56:33.76	340.96	7.04	-32.9	-42.7	3.8	8.47e-01	0	44	104	1048576	25	11054

#Closed at: 2026-01-07 14:56:36
#Recorded file [1 MB]: D:/data/31010_260107_174434.dat