passes_logs/2026/01/07/R2M6_AANII_01/R2M6_AANII_01__20260107_080955_NOAA_21_JPSS-2_rec.log

#Pass ID: 20260107_080955_NOAA 21 (JPSS-2)
#Satellite: NOAA 21 (JPSS-2)
#Configuration: NOAA 21
#almurnet v.1.7.20240730
#Start time: 2026-01-07 08:09:55

#Version: 2.2.20231116
#Station: R2M6_AANII_01
#Location: 30.233357 lon 59.946436 lat
#TLE: 1 54234U 22150A   26005.56767909  .00000152  00000+0  92756-4 0  9990
#TLE: 2 54234  98.7490 306.5820 0001036 340.2747  19.8389 14.19532370163472

#Time	Az	El	Level	Level2	SNR	BER	BlckErr	Temp	State	Recorded	gain1	gain2
2026-01-07 08:09:55.72	93.39	7.01	-31.1	-42.5	3.8	1.49e+00	0	40	0	0	23	13408
2026-01-07 08:09:58.73	93.08	7.19	-31.0	-42.0	3.8	1.49e+00	0	41	104	0	23	12888
2026-01-07 08:10:01.74	92.77	7.38	-31.0	-41.6	3.8	1.49e+00	0	41	104	0	23	12096
2026-01-07 08:10:04.77	92.46	7.56	-31.1	-38.9	4.0	1.38e+00	0	41	104	0	23	8882
2026-01-07 08:10:07.79	92.14	7.75	-30.4	-34.1	8.0	1.01e-01	0	41	102	1048576	22	5548
2026-01-07 08:10:10.81	91.81	7.93	-29.8	-32.9	10.0	8.72e-03	0	41	102	1048576	20	5153
2026-01-07 08:10:13.83	91.49	8.12	-29.7	-32.6	10.2	6.33e-03	0	41	102	1048576	20	5055
2026-01-07 08:10:16.85	91.16	8.30	-28.9	-30.8	11.9	5.52e-04	0	41	102	1048576	19	4495
2026-01-07 08:10:19.88	90.82	8.49	-29.2	-32.1	11.5	7.84e-04	0	41	102	1048576	18	5047
2026-01-07 08:10:22.89	90.48	8.68	-28.9	-31.4	12.0	3.74e-04	0	41	102	1048576	18	4782
2026-01-07 08:10:25.92	90.13	8.87	-28.8	-31.1	12.2	2.57e-04	0	41	102	1048576	18	4682
2026-01-07 08:10:28.95	89.78	9.05	-28.7	-30.8	12.5	1.21e-04	0	42	102	1048576	18	4578
2026-01-07 08:10:31.97	89.43	9.24	-28.6	-30.5	12.7	8.23e-05	0	42	102	1048576	18	4475
2026-01-07 08:10:34.99	89.07	9.43	-28.8	-31.0	12.4	1.14e-04	0	42	102	1048576	18	4644
2026-01-07 08:10:38.01	88.71	9.62	-28.4	-30.1	13.1	3.66e-05	0	42	102	1048576	18	4344
2026-01-07 08:10:41.03	88.34	9.81	-28.4	-29.9	13.2	1.98e-05	0	42	102	1048576	18	4304
2026-01-07 08:10:44.04	87.97	10.00	-28.2	-30.0	13.5	1.06e-05	0	42	102	1048576	17	4423
2026-01-07 08:10:47.07	87.59	10.19	-27.8	-29.4	14.1	0.00e+00	0	42	102	1048576	16	4362
2026-01-07 08:10:50.09	87.21	10.38	-27.9	-29.7	13.9	7.00e-07	0	42	102	1048576	16	4443
2026-01-07 08:10:53.10	86.82	10.57	-28.0	-30.0	13.8	3.80e-06	0	42	102	1048576	16	4540
2026-01-07 08:10:56.12	86.43	10.76	-27.7	-29.3	14.2	7.00e-07	0	42	102	1048576	16	4328
2026-01-07 08:10:59.14	86.03	10.95	-27.7	-29.1	14.4	7.00e-07	0	42	102	1048576	16	4270
2026-01-07 08:11:02.16	85.62	11.14	-27.7	-29.1	14.4	7.00e-07	0	42	102	1048576	16	4254
2026-01-07 08:11:05.19	85.21	11.33	-27.7	-29.3	14.3	1.50e-06	0	42	102	1048576	16	4305
2026-01-07 08:11:08.20	84.80	11.52	-27.7	-29.4	14.2	7.00e-07	0	42	102	1048576	16	4335
2026-01-07 08:11:11.21	84.38	11.71	-27.7	-29.3	14.3	7.00e-07	0	42	102	1048576	16	4319
2026-01-07 08:11:14.23	83.96	11.90	-27.8	-29.4	14.3	2.20e-06	0	42	102	1048576	16	4349
2026-01-07 08:11:17.26	83.52	12.09	-27.7	-29.1	14.5	0.00e+00	0	42	102	1048576	16	4262
2026-01-07 08:11:20.28	83.09	12.28	-27.6	-29.1	14.5	7.00e-07	0	42	102	1048576	16	4248
2026-01-07 08:11:23.30	82.64	12.47	-27.6	-29.1	14.5	7.00e-07	0	42	102	1048576	16	4258
2026-01-07 08:11:26.32	82.20	12.66	-27.5	-28.8	14.7	0.00e+00	0	43	102	1048576	16	4180
2026-01-07 08:11:29.34	81.74	12.85	-27.7	-29.2	14.5	7.00e-07	0	43	102	1048576	16	4270
2026-01-07 08:11:32.36	81.28	13.04	-27.7	-29.3	14.4	1.50e-06	0	42	102	1048576	16	4306
2026-01-07 08:11:35.38	80.81	13.23	-27.8	-29.3	14.4	7.00e-07	0	43	102	1048576	16	4324
2026-01-07 08:11:38.40	80.34	13.42	-27.7	-29.2	14.4	0.00e+00	0	42	102	1048576	16	4289
2026-01-07 08:11:41.42	79.86	13.61	-27.8	-29.4	14.4	0.00e+00	0	43	102	1048576	16	4332
2026-01-07 08:11:44.44	79.38	13.80	-27.6	-28.9	14.6	2.20e-06	0	43	102	1048576	16	4210
2026-01-07 08:11:47.46	78.89	13.98	-27.4	-28.6	14.9	0.00e+00	0	43	102	1048576	16	4107
2026-01-07 08:11:50.48	78.39	14.17	-27.5	-28.7	14.8	0.00e+00	0	43	102	1048576	16	4122
2026-01-07 08:11:53.51	77.88	14.36	-27.6	-29.0	14.7	0.00e+00	0	43	102	1048576	16	4210
2026-01-07 08:11:56.53	77.37	14.54	-27.5	-28.8	14.8	7.00e-07	0	43	102	1048576	16	4151
2026-01-07 08:11:59.55	76.86	14.72	-27.7	-29.2	14.6	0.00e+00	0	43	102	1048576	16	4263
2026-01-07 08:12:02.57	76.34	14.91	-27.9	-29.6	14.3	1.50e-06	0	43	102	1048576	16	4394
2026-01-07 08:12:05.60	75.80	15.09	-27.8	-29.4	14.4	0.00e+00	0	43	102	1048576	16	4344
2026-01-07 08:12:08.63	75.27	15.27	-27.8	-29.3	14.5	0.00e+00	0	43	102	1048576	16	4304
2026-01-07 08:12:11.65	74.72	15.45	-27.8	-29.4	14.5	0.00e+00	0	43	102	1048576	16	4321
2026-01-07 08:12:14.68	74.17	15.63	-27.8	-29.3	14.6	0.00e+00	0	43	102	1048576	16	4310
2026-01-07 08:12:17.70	73.62	15.80	-27.7	-29.2	14.7	0.00e+00	0	43	102	1048576	16	4258
2026-01-07 08:12:20.72	73.06	15.98	-27.7	-29.1	14.7	7.00e-07	0	43	102	1048576	16	4231
2026-01-07 08:12:23.73	72.49	16.15	-27.8	-29.3	14.6	0.00e+00	0	43	102	1048576	16	4307
2026-01-07 08:12:26.76	71.91	16.32	-27.8	-29.5	14.5	7.00e-07	0	43	102	1048576	16	4342
2026-01-07 08:12:29.78	71.33	16.49	-27.9	-29.6	14.4	0.00e+00	0	43	102	1048576	16	4374
2026-01-07 08:12:32.79	70.74	16.66	-27.7	-29.1	14.7	1.50e-06	0	43	102	1048576	16	4245
2026-01-07 08:12:35.82	70.14	16.83	-27.7	-29.1	14.8	0.00e+00	0	43	102	1048576	16	4232
2026-01-07 08:12:38.83	69.54	16.99	-27.4	-28.5	15.1	0.00e+00	0	43	102	1048576	16	4070
2026-01-07 08:12:41.85	68.94	17.15	-27.2	-28.4	15.3	0.00e+00	0	43	102	1048576	15	4152
2026-01-07 08:12:44.86	68.32	17.31	-27.0	-28.1	15.5	0.00e+00	0	43	102	1048576	15	4078
2026-01-07 08:12:47.88	67.70	17.47	-27.2	-28.4	15.2	0.00e+00	0	43	102	1048576	15	4171
2026-01-07 08:12:50.90	67.07	17.62	-27.2	-28.6	15.2	0.00e+00	0	43	102	1048576	15	4210
2026-01-07 08:12:53.91	66.44	17.77	-27.3	-28.8	15.1	0.00e+00	0	43	102	1048576	15	4274
2026-01-07 08:12:56.94	65.80	17.92	-27.4	-29.0	15.0	0.00e+00	0	43	102	1048576	15	4328
2026-01-07 08:12:59.96	65.15	18.07	-27.1	-28.3	15.4	7.00e-07	0	43	102	1048576	15	4140
2026-01-07 08:13:02.98	64.50	18.21	-26.9	-27.7	15.7	0.00e+00	0	43	102	1048576	15	3975
2026-01-07 08:13:06.00	63.84	18.35	-21.5	-27.9	14.1	2.41e-02	0	43	102	1048576	3	7504
2026-01-07 08:13:09.03	63.17	18.49	-24.4	-28.2	14.2	2.13e-02	0	43	102	1048576	10	5575
2026-01-07 08:13:12.05	62.50	18.63	-24.7	-28.3	14.5	2.13e-02	0	43	102	1048576	9	5416
2026-01-07 08:13:15.07	61.82	18.76	-26.9	-28.8	15.7	1.41e-02	0	43	102	1048576	13	4475
2026-01-07 08:13:18.09	61.14	18.88	-27.1	-28.7	15.5	7.00e-07	0	43	102	1048576	14	4341
2026-01-07 08:13:21.12	60.45	19.01	-26.8	-28.1	15.8	0.00e+00	0	43	102	1048576	14	4188
2026-01-07 08:13:24.13	59.75	19.13	-26.8	-28.1	15.8	0.00e+00	0	43	102	1048576	14	4194
2026-01-07 08:13:27.16	59.05	19.24	-26.7	-28.0	15.9	0.00e+00	0	43	102	1048576	14	4139
2026-01-07 08:13:30.17	58.35	19.35	-26.8	-28.0	15.9	0.00e+00	0	43	102	1048576	14	4153
2026-01-07 08:13:33.19	57.64	19.46	-26.8	-28.1	15.8	0.00e+00	0	43	102	1048576	14	4180
2026-01-07 08:13:36.22	56.92	19.56	-26.8	-28.1	15.8	0.00e+00	0	43	102	1048576	14	4172
2026-01-07 08:13:39.23	56.20	19.66	-26.9	-28.2	15.7	0.00e+00	0	43	102	1048576	14	4213
2026-01-07 08:13:42.25	55.48	19.76	-27.1	-28.8	15.5	0.00e+00	0	43	102	1048576	14	4362
2026-01-07 08:13:45.28	54.75	19.85	-27.2	-28.9	15.4	0.00e+00	0	43	102	1048576	14	4397
2026-01-07 08:13:48.30	54.01	19.93	-27.0	-28.6	15.6	0.00e+00	0	43	102	1048576	14	4301
2026-01-07 08:13:51.33	53.27	20.01	-26.9	-28.3	15.7	0.00e+00	0	43	102	1048576	14	4237
2026-01-07 08:13:54.34	52.54	20.09	-26.8	-28.1	15.8	0.00e+00	0	43	102	1048576	14	4190
2026-01-07 08:13:57.37	51.79	20.16	-26.9	-28.2	15.8	0.00e+00	0	43	102	1048576	14	4206
2026-01-07 08:14:00.39	51.04	20.23	-27.0	-28.6	15.6	0.00e+00	0	43	102	1048576	14	4305
2026-01-07 08:14:03.42	50.29	20.29	-26.9	-28.4	15.7	0.00e+00	0	43	102	1048576	14	4261
2026-01-07 08:14:06.44	49.54	20.35	-27.0	-28.6	15.6	0.00e+00	0	43	102	1048576	14	4329
2026-01-07 08:14:09.46	48.78	20.40	-27.0	-28.5	15.7	0.00e+00	0	43	102	1048576	14	4281
2026-01-07 08:14:12.48	48.02	20.44	-27.1	-28.7	15.5	0.00e+00	0	43	102	1048576	14	4346
2026-01-07 08:14:15.50	47.26	20.48	-26.9	-28.4	15.7	0.00e+00	0	43	102	1048576	14	4248
2026-01-07 08:14:18.53	46.49	20.52	-26.8	-28.1	15.8	0.00e+00	0	43	102	1048576	14	4182
2026-01-07 08:14:21.55	45.73	20.55	-26.8	-28.1	15.9	0.00e+00	0	43	102	1048576	14	4181
2026-01-07 08:14:24.56	44.97	20.57	-27.0	-28.6	15.6	0.00e+00	0	43	102	1048576	14	4304
2026-01-07 08:14:27.58	44.20	20.59	-27.2	-29.0	15.4	0.00e+00	0	43	102	1048576	14	4427
2026-01-07 08:14:30.59	43.44	20.61	-26.8	-28.1	15.9	0.00e+00	0	43	102	1048576	14	4178
2026-01-07 08:14:33.62	42.67	20.62	-26.9	-28.3	15.7	0.00e+00	0	43	102	1048576	14	4238
2026-01-07 08:14:36.63	41.90	20.62	-26.9	-28.3	15.7	0.00e+00	0	43	102	1048576	14	4247
2026-01-07 08:14:39.66	41.13	20.62	-27.0	-28.5	15.6	0.00e+00	0	43	102	1048576	14	4295
2026-01-07 08:14:42.68	40.36	20.61	-26.8	-28.1	15.9	0.00e+00	0	43	102	1048576	14	4171
2026-01-07 08:14:45.69	39.60	20.60	-26.7	-28.0	15.9	0.00e+00	0	43	102	1048576	14	4144
2026-01-07 08:14:48.72	38.83	20.58	-26.8	-28.0	15.9	0.00e+00	0	43	102	1048576	14	4144
2026-01-07 08:14:51.74	38.06	20.55	-26.8	-28.0	15.9	0.00e+00	0	43	102	1048576	14	4154
2026-01-07 08:14:54.76	37.30	20.52	-26.8	-28.0	15.8	0.00e+00	0	43	102	1048576	14	4168
2026-01-07 08:14:57.78	36.54	20.49	-27.1	-28.8	15.4	0.00e+00	0	43	102	1048576	14	4367
2026-01-07 08:15:00.81	35.77	20.45	-27.2	-28.9	15.3	0.00e+00	0	43	102	1048576	14	4405
2026-01-07 08:15:03.83	35.01	20.40	-27.2	-28.9	15.3	0.00e+00	0	43	102	1048576	14	4411
2026-01-07 08:15:06.85	34.26	20.35	-27.0	-28.5	15.6	0.00e+00	0	43	102	1048576	14	4286
2026-01-07 08:15:09.86	33.51	20.30	-26.8	-28.1	15.8	0.00e+00	0	43	102	1048576	14	4183
2026-01-07 08:15:12.88	32.76	20.24	-26.8	-28.0	15.9	0.00e+00	0	43	102	1048576	14	4163
2026-01-07 08:15:15.90	32.01	20.17	-27.1	-28.9	15.4	0.00e+00	0	43	102	1048576	14	4393
2026-01-07 08:15:18.91	31.27	20.10	-27.1	-28.8	15.4	0.00e+00	0	43	102	1048576	14	4394
2026-01-07 08:15:21.93	30.53	20.03	-27.1	-28.8	15.4	0.00e+00	0	43	102	1048576	14	4374
2026-01-07 08:15:24.94	29.79	19.95	-27.1	-28.8	15.4	0.00e+00	0	43	102	1048576	14	4362
2026-01-07 08:15:27.96	29.06	19.86	-27.1	-28.7	15.4	0.00e+00	0	43	102	1048576	14	4352
2026-01-07 08:15:30.98	28.33	19.77	-27.2	-29.1	15.2	0.00e+00	0	43	102	1048576	14	4458
2026-01-07 08:15:34.00	27.61	19.68	-27.1	-28.8	15.3	0.00e+00	0	43	102	1048576	14	4390
2026-01-07 08:15:37.02	26.89	19.58	-27.2	-29.0	15.2	0.00e+00	0	43	102	1048576	14	4437
2026-01-07 08:15:40.04	26.18	19.48	-27.3	-29.3	15.1	7.00e-07	0	43	102	1048576	14	4536
2026-01-07 08:15:43.05	25.47	19.37	-27.1	-28.7	15.4	0.00e+00	0	43	102	1048576	14	4354
2026-01-07 08:15:46.08	24.76	19.26	-27.2	-29.0	15.2	0.00e+00	0	43	102	1048576	14	4438
2026-01-07 08:15:49.09	24.07	19.15	-27.0	-28.5	15.5	0.00e+00	0	43	102	1048576	14	4285
2026-01-07 08:15:52.11	23.37	19.03	-26.9	-28.4	15.6	0.00e+00	0	43	102	1048576	14	4270
2026-01-07 08:15:55.13	22.68	18.91	-26.8	-28.1	15.7	0.00e+00	0	43	102	1048576	14	4184
2026-01-07 08:15:58.15	22.00	18.78	-27.0	-28.6	15.4	0.00e+00	0	43	102	1048576	14	4322
2026-01-07 08:16:01.17	21.33	18.65	-27.2	-28.9	15.3	0.00e+00	0	43	102	1048576	14	4414
2026-01-07 08:16:04.19	20.65	18.52	-26.9	-28.4	15.6	0.00e+00	0	43	102	1048576	14	4259
2026-01-07 08:16:07.21	19.99	18.38	-26.9	-28.3	15.6	0.00e+00	0	43	102	1048576	14	4228
2026-01-07 08:16:10.22	19.33	18.25	-27.0	-28.6	15.4	0.00e+00	0	43	102	1048576	14	4315
2026-01-07 08:16:13.25	18.68	18.10	-27.2	-29.0	15.2	0.00e+00	0	43	102	1048576	14	4422
2026-01-07 08:16:16.26	18.03	17.96	-27.1	-28.8	15.3	0.00e+00	0	43	102	1048576	14	4388
2026-01-07 08:16:19.28	17.39	17.81	-26.9	-28.4	15.5	0.00e+00	0	43	102	1048576	14	4264
2026-01-07 08:16:22.30	16.76	17.66	-27.2	-29.0	15.1	0.00e+00	0	43	102	1048576	14	4449
2026-01-07 08:16:25.31	16.14	17.51	-27.3	-29.2	15.0	0.00e+00	0	43	102	1048576	14	4499
2026-01-07 08:16:28.33	15.52	17.35	-27.5	-29.3	14.7	0.00e+00	0	43	102	1048576	15	4415
2026-01-07 08:16:31.35	14.90	17.19	-27.1	-28.3	15.2	0.00e+00	0	43	102	1048576	15	4142
2026-01-07 08:16:34.37	14.29	17.03	-27.3	-28.7	15.0	0.00e+00	0	43	102	1048576	15	4233
2026-01-07 08:16:37.39	13.69	16.87	-27.0	-28.1	15.3	0.00e+00	0	43	102	1048576	15	4096
2026-01-07 08:16:40.40	13.10	16.70	-27.3	-28.8	15.0	0.00e+00	0	43	102	1048576	15	4265
2026-01-07 08:16:43.41	12.51	16.54	-27.2	-28.6	15.1	0.00e+00	0	43	102	1048576	15	4207
2026-01-07 08:16:46.44	11.93	16.37	-27.2	-28.7	15.0	0.00e+00	0	43	102	1048576	15	4234
2026-01-07 08:16:49.46	11.36	16.20	-27.1	-28.3	15.2	0.00e+00	0	43	102	1048576	15	4136
2026-01-07 08:16:52.47	10.79	16.02	-27.2	-28.5	15.1	0.00e+00	0	43	102	1048576	15	4183
2026-01-07 08:16:55.49	10.23	15.85	-27.3	-28.9	14.9	0.00e+00	0	43	102	1048576	15	4310
2026-01-07 08:16:58.51	9.68	15.67	-27.4	-29.1	14.7	0.00e+00	0	43	102	1048576	15	4365
2026-01-07 08:17:01.53	9.13	15.50	-27.5	-29.2	14.6	0.00e+00	0	43	102	1048576	15	4391
2026-01-07 08:17:04.55	8.59	15.32	-27.6	-29.5	14.4	0.00e+00	0	44	102	1048576	15	4479
2026-01-07 08:17:07.57	8.05	15.14	-27.4	-29.0	14.7	7.00e-07	0	43	102	1048576	15	4331
2026-01-07 08:17:10.58	7.53	14.96	-27.4	-29.0	14.7	7.00e-07	0	43	102	1048576	15	4335
2026-01-07 08:17:13.60	7.00	14.78	-27.1	-28.4	15.1	0.00e+00	0	43	102	1048576	15	4169
2026-01-07 08:17:16.62	6.49	14.60	-27.4	-29.0	14.7	7.00e-07	0	44	102	1048576	15	4322
2026-01-07 08:17:19.64	5.98	14.41	-27.4	-29.2	14.6	7.00e-07	0	43	102	1048576	15	4380
2026-01-07 08:17:22.66	5.48	14.23	-27.4	-29.1	14.6	0.00e+00	0	43	102	1048576	15	4364
2026-01-07 08:17:25.67	4.98	14.04	-27.3	-28.7	14.8	7.00e-07	0	43	102	1048576	15	4265
2026-01-07 08:17:28.68	4.50	13.86	-27.3	-28.7	14.9	7.00e-07	0	43	102	1048576	15	4251
2026-01-07 08:17:31.71	4.01	13.67	-27.5	-29.2	14.5	0.00e+00	0	44	102	1048576	15	4398
2026-01-07 08:17:34.72	3.53	13.48	-27.5	-29.2	14.5	7.00e-07	0	43	102	1048576	15	4411
2026-01-07 08:17:37.75	3.06	13.29	-27.4	-29.1	14.6	0.00e+00	0	43	102	1048576	15	4369
2026-01-07 08:17:40.76	2.60	13.11	-27.4	-29.1	14.6	0.00e+00	0	43	102	1048576	15	4361
2026-01-07 08:17:43.78	2.14	12.92	-27.5	-29.2	14.5	0.00e+00	0	43	102	1048576	15	4405
2026-01-07 08:17:46.79	1.69	12.73	-27.5	-29.2	14.5	0.00e+00	0	43	102	1048576	15	4392
2026-01-07 08:17:49.82	1.24	12.54	-27.7	-29.7	14.2	0.00e+00	0	43	102	1048576	15	4556
2026-01-07 08:17:52.84	0.80	12.35	-27.8	-30.1	13.9	7.00e-07	0	43	102	1048576	15	4673
2026-01-07 08:17:55.85	0.36	12.16	-28.2	-30.3	13.7	5.30e-06	0	43	102	1048576	16	4623
2026-01-07 08:17:58.87	359.93	11.97	-28.5	-31.1	13.2	1.67e-05	0	43	102	1048576	16	4860
2026-01-07 08:18:01.90	359.51	11.78	-28.2	-30.5	13.6	8.30e-06	0	43	102	1048576	16	4660
2026-01-07 08:18:04.91	359.09	11.59	-28.4	-30.9	13.3	1.22e-05	0	43	102	1048576	16	4805
2026-01-07 08:18:07.93	358.68	11.40	-28.1	-30.2	13.7	4.50e-06	0	43	102	1048576	16	4588
2026-01-07 08:18:10.95	358.27	11.21	-28.5	-31.1	13.1	3.12e-05	0	43	102	1048576	16	4880
2026-01-07 08:18:13.98	357.87	11.02	-28.5	-31.1	13.1	3.12e-05	0	43	102	1048576	16	4882
2026-01-07 08:18:16.99	357.47	10.83	-28.4	-30.6	13.1	3.35e-05	0	43	102	1048576	17	4594
2026-01-07 08:18:20.01	357.08	10.64	-28.5	-30.6	13.1	2.59e-05	0	43	102	1048576	17	4602
2026-01-07 08:18:23.04	356.69	10.45	-28.4	-30.4	13.2	2.97e-05	0	43	102	1048576	17	4554
2026-01-07 08:18:26.05	356.31	10.26	-28.5	-30.6	13.1	3.35e-05	0	43	102	1048576	17	4608
2026-01-07 08:18:29.05	355.94	10.07	-28.7	-31.1	12.7	5.11e-05	0	43	102	1048576	17	4786
2026-01-07 08:18:32.08	355.56	9.89	-28.8	-31.4	12.5	1.01e-04	0	43	102	1048576	17	4883
2026-01-07 08:18:35.09	355.20	9.70	-28.7	-31.1	12.7	5.49e-05	0	43	102	1048576	17	4771
2026-01-07 08:18:38.11	354.84	9.51	-28.5	-30.9	12.9	3.73e-05	0	43	102	1048576	17	4695
2026-01-07 08:18:41.13	354.48	9.32	-28.7	-31.2	12.6	7.40e-05	0	43	102	1048576	17	4816
2026-01-07 08:18:44.16	354.13	9.13	-28.8	-31.5	12.4	1.07e-04	0	43	102	1048576	17	4899
2026-01-07 08:18:47.18	353.78	8.95	-28.9	-31.7	12.3	1.91e-04	0	43	102	1048576	17	4970
2026-01-07 08:18:50.20	353.44	8.76	-28.8	-31.5	12.4	1.37e-04	0	43	102	1048576	17	4914
2026-01-07 08:18:53.22	353.10	8.57	-28.7	-31.2	12.5	1.21e-04	0	43	102	1048576	17	4826
2026-01-07 08:18:56.24	352.76	8.39	-28.6	-30.9	12.7	6.63e-05	0	43	102	1048576	17	4721
2026-01-07 08:18:59.26	352.43	8.20	-28.7	-31.2	12.5	1.01e-04	0	43	102	1048576	17	4819
2026-01-07 08:19:02.28	352.11	8.02	-28.9	-31.8	12.1	2.49e-04	0	43	102	1048576	17	5028
2026-01-07 08:19:05.30	351.79	7.83	-29.1	-31.9	11.7	6.38e-04	0	43	102	1048576	18	4941
2026-01-07 08:19:08.32	351.47	7.65	-29.0	-31.7	11.8	4.94e-04	0	43	102	1048576	18	4870
2026-01-07 08:19:11.34	351.16	7.46	-29.1	-31.8	11.7	8.13e-04	0	43	102	1048576	18	4929
2026-01-07 08:19:14.35	350.85	7.28	-28.7	-30.8	12.3	1.67e-04	0	43	102	1048576	18	4590
2026-01-07 08:19:17.36	350.55	7.10	-30.7	-34.9	8.8	6.42e-04	0	43	102	1048576	21	5864
2026-01-07 08:19:20.38	350.24	6.92	-33.5	-45.7	3.8	1.49e+00	0	43	104	1048576	26	14815

#Closed at: 2026-01-07 08:19:21
#Recorded file [1 MB]: D:/data/31010_260107_111006.dat