passes_logs/2026/01/07/R2M6_AANII_01/R2M6_AANII_01__20260107_101731_SUOMI_NPP_rec.log

#Pass ID: 20260107_101731_SUOMI NPP
#Satellite: SUOMI NPP
#Configuration: NPP
#almurnet v.1.7.20240730
#Start time: 2026-01-07 10:20:12

#Version: 2.2.20231116
#Station: R2M6_AANII_01
#Location: 30.233357 lon 59.946436 lat
#TLE: 1 37849U 11061A   26005.94084933  .00000134  00000+0  84554-4 0  9990
#TLE: 2 37849  98.7803 308.0679 0002567  79.1029 281.0436 14.19522657735426

#Time	Az	El	Level	Level2	SNR	BER	BlckErr	Temp	State	Recorded	gain1	gain2
2026-01-07 10:20:12.26	156.52	24.34	-34.0	-53.5	3.8	7.42e-01	0	43	0	0	28	34143
2026-01-07 10:20:15.27	156.49	24.81	-34.1	-45.9	3.8	1.49e+00	0	44	104	0	29	14049
2026-01-07 10:20:18.29	156.46	25.30	-34.1	-46.0	3.8	1.49e+00	0	43	104	0	29	14075
2026-01-07 10:20:21.31	156.44	25.79	-34.1	-46.0	3.8	1.49e+00	0	43	104	0	29	14109
2026-01-07 10:20:24.33	156.41	26.29	-34.1	-46.0	3.8	1.49e+00	0	43	104	0	29	14091
2026-01-07 10:20:27.35	156.37	26.80	-34.1	-46.0	3.8	1.49e+00	0	43	104	0	29	14092
2026-01-07 10:20:30.37	156.34	27.33	-34.2	-46.2	3.8	1.49e+00	0	43	104	0	29	14258
2026-01-07 10:20:33.39	156.31	27.86	-34.3	-46.3	3.7	1.49e+00	0	43	104	0	29	14396
2026-01-07 10:20:36.42	156.27	28.40	-34.2	-46.1	3.8	1.49e+00	0	44	104	0	29	14234
2026-01-07 10:20:39.43	156.24	28.95	-33.9	-45.7	3.8	1.49e+00	0	43	104	0	29	13861
2026-01-07 10:20:42.44	156.20	29.51	-33.8	-44.7	3.8	1.49e+00	0	44	104	0	29	12621
2026-01-07 10:20:45.46	156.16	30.09	-33.8	-44.9	3.8	1.49e+00	0	43	104	0	29	12913
2026-01-07 10:20:48.48	156.11	30.68	-33.8	-45.3	3.8	1.49e+00	0	44	104	0	29	13464
2026-01-07 10:20:51.50	156.07	31.28	-33.8	-45.2	3.8	1.49e+00	0	43	104	0	29	13331
2026-01-07 10:20:54.52	156.02	31.89	-33.8	-45.3	3.8	1.49e+00	0	43	104	0	29	13515
2026-01-07 10:20:57.54	155.98	32.51	-33.8	-44.9	3.8	1.49e+00	0	43	104	0	29	12934
2026-01-07 10:21:00.56	155.92	33.15	-33.5	-41.1	4.0	1.48e+00	0	43	104	0	28	8661
2026-01-07 10:21:03.59	155.87	33.80	-32.5	-36.3	8.1	1.04e-01	0	44	0	0	26	5524
2026-01-07 10:21:06.60	155.82	34.47	-32.3	-35.9	8.9	1.46e-02	0	43	102	1048576	25	5427
2026-01-07 10:21:09.63	155.76	35.15	-31.2	-33.2	11.7	1.49e-03	0	43	102	1048576	23	4487
2026-01-07 10:21:12.66	155.70	35.85	-30.9	-32.3	12.3	5.74e-04	0	44	102	1048576	23	4199
2026-01-07 10:21:15.68	155.63	36.56	-30.9	-32.6	12.5	1.04e-04	0	43	102	1048576	22	4367
2026-01-07 10:21:18.70	155.56	37.28	-30.0	-30.8	13.9	5.30e-06	0	44	102	1048576	21	3921
2026-01-07 10:21:21.73	155.49	38.03	-29.6	-30.1	14.6	7.00e-07	0	44	102	1048576	20	3821
2026-01-07 10:21:24.74	155.42	38.79	-29.6	-30.2	14.6	0.00e+00	0	43	102	1048576	20	3833
2026-01-07 10:21:27.76	155.34	39.56	-29.1	-29.3	15.5	0.00e+00	0	44	102	1048576	19	3701
2026-01-07 10:21:30.78	155.25	40.36	-29.0	-29.2	15.6	0.00e+00	0	44	102	1048576	19	3668
2026-01-07 10:21:33.80	155.16	41.17	-29.4	-30.0	15.2	0.00e+00	0	44	102	1048576	19	3858
2026-01-07 10:21:36.82	155.07	42.00	-29.8	-31.5	14.0	2.20e-06	0	43	102	1048576	19	4369
2026-01-07 10:21:39.84	154.97	42.85	-29.8	-31.1	13.9	2.20e-06	0	43	102	1048576	20	4145
2026-01-07 10:21:42.86	154.86	43.72	-29.5	-30.2	14.4	7.00e-07	0	44	102	1048576	20	3908
2026-01-07 10:21:45.88	154.75	44.61	-30.0	-31.6	13.5	8.30e-06	0	44	102	1048576	20	4317
2026-01-07 10:21:48.89	154.63	45.51	-30.1	-31.8	13.3	9.10e-06	0	44	102	1048576	20	4346
2026-01-07 10:21:51.92	154.51	46.45	-30.9	-32.9	12.1	3.75e-04	0	44	102	1048576	22	4554
2026-01-07 10:21:54.95	154.37	47.40	-31.8	-35.8	9.6	7.61e-03	0	43	102	1048576	23	5692
2026-01-07 10:21:57.96	154.23	48.37	-31.4	-34.4	10.6	2.38e-03	0	43	102	1048576	23	5037
2026-01-07 10:22:00.98	154.07	49.36	-30.6	-32.1	12.7	1.13e-04	0	44	102	1048576	22	4276
2026-01-07 10:22:04.00	153.91	50.38	-29.5	-30.3	14.4	2.20e-06	0	44	102	1048576	20	3950
2026-01-07 10:22:07.02	153.73	51.42	-29.0	-29.5	15.3	0.00e+00	0	43	102	1048576	19	3816
2026-01-07 10:22:10.03	153.54	52.48	-30.0	-31.5	13.7	0.00e+00	0	44	102	1048576	20	4268
2026-01-07 10:22:13.05	153.33	53.56	-29.6	-30.4	14.4	7.00e-07	0	43	102	1048576	20	3941
2026-01-07 10:22:16.06	153.11	54.67	-30.1	-31.5	13.8	1.50e-06	0	44	102	1048576	20	4239
2026-01-07 10:22:19.08	152.87	55.80	-29.5	-30.5	14.8	0.00e+00	0	43	102	1048576	19	4035
2026-01-07 10:22:22.10	152.60	56.96	-30.0	-31.4	13.9	7.00e-07	0	43	102	1048576	20	4222
2026-01-07 10:22:25.11	152.31	58.13	-31.3	-34.0	11.4	5.84e-04	0	44	102	1048576	22	4932
2026-01-07 10:22:28.12	152.00	59.33	-30.9	-32.9	12.3	1.76e-04	0	44	102	1048576	22	4531
2026-01-07 10:22:31.14	151.65	60.56	-31.6	-34.8	10.4	3.52e-03	0	44	102	1048576	23	5194
2026-01-07 10:22:34.16	151.27	61.80	-31.0	-32.7	12.1	3.97e-04	0	44	102	1048576	23	4379
2026-01-07 10:22:37.18	150.84	63.07	-29.9	-30.5	14.1	6.80e-06	0	43	102	1048576	21	3862
2026-01-07 10:22:40.21	150.36	64.37	-30.0	-31.2	14.0	3.80e-06	0	44	102	1048576	20	4149
2026-01-07 10:22:43.21	149.83	65.67	-30.4	-32.3	13.3	7.00e-07	0	44	102	1048576	20	4490
2026-01-07 10:22:46.23	149.22	67.00	-30.4	-31.4	13.3	8.39e-05	0	44	102	1048576	22	4011
2026-01-07 10:22:49.26	148.53	68.36	-30.8	-32.8	12.5	6.94e-05	0	44	102	1048576	21	4566
2026-01-07 10:22:52.26	147.74	69.72	-31.8	-35.0	10.4	2.81e-03	0	44	102	1048576	23	5201
2026-01-07 10:22:55.28	146.83	71.10	-32.1	-35.2	9.4	3.76e-02	0	43	102	1048576	25	5141
2026-01-07 10:22:58.29	145.76	72.49	-29.6	-30.5	14.9	0.00e+00	0	43	102	1048576	19	4002
2026-01-07 10:23:01.32	144.48	73.91	-28.9	-29.0	15.9	0.00e+00	0	43	102	1048576	19	3618
2026-01-07 10:23:04.33	142.95	75.32	-31.1	-33.3	12.1	5.26e-04	0	44	102	1048576	22	4624
2026-01-07 10:23:07.36	141.07	76.74	-31.8	-35.0	10.5	1.67e-03	0	43	102	1048576	23	5188
2026-01-07 10:23:10.38	138.73	78.15	-32.1	-34.9	9.8	1.64e-02	0	44	102	1048576	25	5004
2026-01-07 10:23:13.41	135.73	79.56	-31.3	-33.1	11.4	3.38e-03	0	44	102	1048576	24	4386
2026-01-07 10:23:16.43	131.80	80.93	-31.2	-33.1	11.8	3.07e-04	0	44	102	1048576	23	4489
2026-01-07 10:23:19.46	126.45	82.26	-30.0	-30.7	14.2	3.80e-06	0	43	102	1048576	21	3906
2026-01-07 10:23:22.48	118.97	83.49	-29.8	-30.7	14.4	7.00e-07	0	44	102	1048576	20	4000
2026-01-07 10:23:25.50	108.24	84.57	-29.7	-30.3	14.8	7.00e-07	0	44	102	1048576	20	3862
2026-01-07 10:23:28.51	93.06	85.38	-31.6	-34.0	11.4	9.87e-04	0	44	102	1048576	23	4785
2026-01-07 10:23:31.54	73.35	85.75	-31.2	-32.8	12.3	8.08e-05	0	43	102	1048576	23	4332
2026-01-07 10:23:34.56	52.80	85.58	-31.3	-33.5	12.3	3.81e-05	0	44	102	1048576	22	4680
2026-01-07 10:23:37.57	35.84	84.91	-31.4	-33.4	11.9	2.53e-04	0	44	102	1048576	23	4546
2026-01-07 10:23:40.59	23.58	83.91	-30.3	-31.3	14.0	0.00e+00	0	44	102	1048576	21	4041
2026-01-07 10:23:43.62	15.04	82.72	-32.0	-35.2	10.2	5.30e-04	0	44	102	1048576	24	5171
2026-01-07 10:23:46.64	9.03	81.43	-32.0	-34.9	10.3	8.48e-03	0	44	102	1048576	24	5034
2026-01-07 10:23:49.66	4.65	80.07	-32.3	-36.3	9.4	8.12e-03	0	44	102	1048576	24	5670
2026-01-07 10:23:52.68	1.35	78.68	-31.0	-32.4	12.3	1.05e-03	0	44	102	1048576	23	4256
2026-01-07 10:23:55.70	358.80	77.27	-31.2	-33.4	12.1	9.68e-05	0	43	102	1048576	22	4636
2026-01-07 10:23:58.73	356.76	75.85	-30.9	-32.1	12.6	4.23e-04	0	44	102	1048576	23	4128
2026-01-07 10:24:01.75	355.12	74.44	-30.5	-32.0	13.3	2.20e-06	0	44	102	1048576	21	4277
2026-01-07 10:24:04.77	353.76	73.03	-28.8	-29.2	16.0	0.00e+00	0	44	102	1048576	18	3743
2026-01-07 10:24:07.79	352.62	71.63	-30.9	-32.7	12.5	1.59e-04	0	44	102	1048576	22	4417
2026-01-07 10:24:10.81	351.65	70.24	-31.2	-33.5	11.9	1.95e-04	0	44	102	1048576	22	4699
2026-01-07 10:24:13.82	350.81	68.88	-31.3	-33.3	11.7	7.80e-04	0	44	102	1048576	23	4540
2026-01-07 10:24:16.85	350.09	67.52	-30.6	-32.0	12.9	6.79e-04	0	44	102	1048576	22	4202
2026-01-07 10:24:19.87	349.45	66.18	-30.4	-31.4	13.2	2.46e-04	0	44	102	1048576	22	4033
2026-01-07 10:24:22.90	348.89	64.86	-30.6	-32.3	13.0	1.60e-05	0	44	102	1048576	21	4423
2026-01-07 10:24:25.91	348.40	63.57	-30.7	-32.8	12.5	8.85e-05	0	44	102	1048576	21	4598
2026-01-07 10:24:28.94	347.95	62.29	-30.3	-31.7	13.5	2.28e-05	0	44	102	1048576	21	4195
2026-01-07 10:24:31.96	347.55	61.04	-30.4	-31.8	13.4	1.75e-05	0	44	102	1048576	21	4227
2026-01-07 10:24:34.97	347.20	59.81	-30.7	-32.1	12.8	1.43e-04	0	43	102	1048576	22	4228
2026-01-07 10:24:37.99	346.87	58.61	-30.7	-32.6	12.8	2.36e-05	0	44	102	1048576	21	4484
2026-01-07 10:24:41.01	346.57	57.42	-29.7	-30.5	14.4	4.50e-06	0	44	102	1048576	20	3944
2026-01-07 10:24:44.03	346.30	56.26	-29.4	-30.3	14.8	0.00e+00	0	44	102	1048576	19	3978
2026-01-07 10:24:47.06	346.05	55.12	-28.0	-28.5	16.8	0.00e+00	0	44	102	1048576	16	3784
2026-01-07 10:24:50.07	345.82	54.01	-29.8	-31.4	14.1	0.00e+00	0	44	102	1048576	19	4316
2026-01-07 10:24:53.09	345.61	52.92	-30.2	-31.8	13.5	2.20e-06	0	44	102	1048576	20	4348
2026-01-07 10:24:56.12	345.41	51.85	-32.3	-36.5	8.7	9.86e-03	0	43	102	1048576	24	5868
2026-01-07 10:24:59.13	345.23	50.81	-31.0	-32.5	12.1	6.19e-04	0	44	102	1048576	23	4285
2026-01-07 10:25:02.15	345.06	49.79	-31.5	-34.3	10.7	4.47e-03	0	44	102	1048576	23	4938
2026-01-07 10:25:05.17	344.90	48.79	-32.1	-35.7	9.4	2.14e-03	0	44	102	1048576	24	5474
2026-01-07 10:25:08.18	344.76	47.81	-31.9	-34.6	9.8	3.22e-02	0	44	102	1048576	25	4882
2026-01-07 10:25:11.20	344.62	46.86	-30.9	-32.6	12.4	1.30e-04	0	44	102	1048576	22	4415
2026-01-07 10:25:14.22	344.49	45.92	-32.5	-36.7	8.3	3.34e-02	0	44	102	1048576	25	5843
2026-01-07 10:25:17.23	344.37	45.01	-33.3	-40.5	5.3	5.60e-01	0	44	102	1048576	26	8266
2026-01-07 10:25:20.25	344.26	44.12	-31.7	-34.1	10.5	7.72e-03	0	44	102	1048576	24	4770
2026-01-07 10:25:23.27	344.15	43.25	-32.1	-35.6	9.4	1.71e-02	0	44	102	1048576	24	5391
2026-01-07 10:25:26.28	344.05	42.40	-32.6	-37.5	7.4	3.69e-02	0	44	102	1048576	25	6319
2026-01-07 10:25:29.31	343.95	41.56	-32.9	-38.7	6.2	3.50e-01	0	44	102	1048576	26	7002
2026-01-07 10:25:32.33	343.87	40.74	-31.8	-34.3	9.9	2.46e-02	0	44	102	1048576	25	4806
2026-01-07 10:25:35.35	343.78	39.95	-31.4	-33.7	11.2	1.11e-03	0	44	102	1048576	23	4720
2026-01-07 10:25:38.37	343.70	39.17	-32.4	-36.7	8.1	7.29e-02	0	44	102	1048576	25	5891
2026-01-07 10:25:41.40	343.62	38.40	-32.4	-36.9	7.7	8.63e-02	0	44	102	1048576	25	6015
2026-01-07 10:25:44.41	343.55	37.66	-31.8	-34.7	9.5	1.94e-02	0	43	102	1048576	25	5030
2026-01-07 10:25:47.43	343.49	36.93	-31.6	-34.2	10.1	1.14e-02	0	44	102	1048576	24	4881
2026-01-07 10:25:50.46	343.42	36.21	-30.7	-32.4	12.2	2.17e-04	0	44	102	1048576	22	4384
2026-01-07 10:25:53.47	343.36	35.52	-30.5	-32.5	12.4	1.33e-04	0	44	102	1048576	21	4503
2026-01-07 10:25:56.49	343.30	34.83	-31.6	-34.8	10.2	4.61e-03	0	44	102	1048576	23	5245
2026-01-07 10:25:59.51	343.25	34.16	-32.7	-39.3	5.9	2.45e-01	0	44	102	1048576	25	7639
2026-01-07 10:26:02.53	343.19	33.51	-32.4	-37.1	7.5	1.24e-01	0	44	102	1048576	25	6193
2026-01-07 10:26:05.55	343.14	32.87	-32.2	-35.7	8.7	2.39e-02	0	44	102	1048576	25	5430
2026-01-07 10:26:08.57	343.09	32.24	-31.9	-34.8	9.5	2.00e-02	0	44	102	1048576	25	5023
2026-01-07 10:26:11.59	343.05	31.63	-31.9	-34.8	9.4	1.91e-02	0	44	102	1048576	25	5003
2026-01-07 10:26:14.61	343.00	31.02	-31.7	-34.4	10.1	8.75e-03	0	44	102	1048576	24	4914
2026-01-07 10:26:17.64	342.96	30.43	-32.0	-35.5	9.4	2.16e-02	0	44	102	1048576	24	5385
2026-01-07 10:26:20.66	342.92	29.85	-32.2	-36.3	8.6	3.00e-02	0	44	102	1048576	24	5823
2026-01-07 10:26:23.67	342.89	29.29	-31.8	-34.9	9.7	1.37e-02	0	44	102	1048576	24	5155
2026-01-07 10:26:26.68	342.85	28.74	-31.6	-34.2	10.2	7.05e-03	0	44	102	1048576	24	4874
2026-01-07 10:26:29.70	342.81	28.19	-30.6	-32.1	12.4	2.30e-04	0	44	102	1048576	22	4271
2026-01-07 10:26:32.72	342.78	27.66	-30.1	-31.3	13.2	6.71e-05	0	44	102	1048576	21	4113
2026-01-07 10:26:35.74	342.75	27.13	-29.7	-30.7	13.9	4.50e-06	0	44	102	1048576	20	4039
2026-01-07 10:26:38.76	342.72	26.62	-30.0	-31.5	13.3	6.10e-06	0	44	102	1048576	20	4284
2026-01-07 10:26:41.79	342.69	26.11	-30.3	-32.5	12.7	3.96e-05	0	44	102	1048576	20	4592
2026-01-07 10:26:44.81	342.66	25.62	-30.5	-32.6	12.3	1.63e-04	0	44	102	1048576	21	4540
2026-01-07 10:26:47.83	342.64	25.13	-30.6	-32.8	12.1	2.58e-04	0	44	102	1048576	21	4644
2026-01-07 10:26:50.85	342.61	24.66	-30.7	-33.0	12.0	3.23e-04	0	44	102	1048576	21	4703
2026-01-07 10:26:53.87	342.59	24.19	-30.5	-32.5	12.2	3.10e-04	0	44	102	1048576	21	4523
2026-01-07 10:26:56.88	342.56	23.73	-29.7	-30.7	13.8	8.30e-06	0	44	102	1048576	20	4043
2026-01-07 10:26:59.89	342.54	23.28	-29.7	-30.7	13.7	3.00e-06	0	44	102	1048576	20	4044
2026-01-07 10:27:02.91	342.52	22.83	-29.6	-30.4	13.8	3.00e-06	0	44	102	1048576	20	3949
2026-01-07 10:27:05.93	342.50	22.40	-29.4	-30.0	14.2	0.00e+00	0	44	102	1048576	20	3854
2026-01-07 10:27:08.94	342.48	21.97	-29.2	-29.8	14.8	0.00e+00	0	44	102	1048576	19	3862
2026-01-07 10:27:11.97	342.46	21.55	-28.6	-28.8	15.5	0.00e+00	0	44	102	1048576	18	3706
2026-01-07 10:27:14.98	342.45	21.13	-28.8	-29.4	15.1	0.00e+00	0	44	102	1048576	18	3859
2026-01-07 10:27:18.00	342.43	20.72	-29.2	-30.5	14.2	7.00e-07	0	44	102	1048576	18	4184
2026-01-07 10:27:21.01	342.41	20.32	-29.7	-31.3	13.3	1.29e-05	0	44	102	1048576	19	4333
2026-01-07 10:27:24.04	342.40	19.93	-30.0	-31.6	12.5	7.32e-05	0	44	102	1048576	20	4369
2026-01-07 10:27:27.06	342.38	19.54	-30.4	-32.8	11.5	6.33e-04	0	44	102	1048576	20	4782
2026-01-07 10:27:30.07	342.37	19.15	-30.4	-33.1	11.0	1.47e-03	0	44	102	1048576	20	4885
2026-01-07 10:27:33.09	342.35	18.78	-31.0	-34.2	10.7	1.48e-03	0	44	102	1048576	21	5216
2026-01-07 10:27:36.11	342.34	18.40	-30.8	-33.6	10.9	1.66e-03	0	44	102	1048576	21	4984
2026-01-07 10:27:39.12	342.33	18.04	-30.7	-33.4	11.0	1.88e-03	0	44	102	1048576	21	4925
2026-01-07 10:27:42.14	342.32	17.68	-30.5	-32.8	11.0	1.31e-03	0	44	102	1048576	21	4693
2026-01-07 10:27:45.15	342.31	17.32	-30.2	-32.1	10.2	4.34e-03	0	44	102	1048576	21	4486
2026-01-07 10:27:48.18	342.30	16.97	-30.4	-32.4	10.7	2.82e-03	0	44	102	1048576	21	4552
2026-01-07 10:27:51.19	342.29	16.63	-30.7	-33.2	11.4	7.13e-04	0	44	102	1048576	21	4805
2026-01-07 10:27:54.20	342.28	16.29	-30.6	-33.0	10.6	1.81e-03	0	44	102	1048576	21	4777
2026-01-07 10:27:57.22	342.27	15.95	-30.7	-33.3	10.6	3.19e-03	0	44	102	1048576	21	4854
2026-01-07 10:28:00.23	342.26	15.62	-30.6	-33.2	10.7	2.32e-03	0	44	102	1048576	21	4848
2026-01-07 10:28:03.25	342.25	15.29	-30.7	-33.4	11.0	1.99e-03	0	44	102	1048576	21	4905
2026-01-07 10:28:06.26	342.24	14.97	-30.8	-33.7	11.0	1.52e-03	0	43	102	1048576	21	5015
2026-01-07 10:28:09.28	342.24	14.65	-30.8	-33.9	10.9	2.25e-03	0	44	102	1048576	21	5096
2026-01-07 10:28:12.31	342.23	14.34	-31.2	-34.5	10.1	4.02e-03	0	44	102	1048576	22	5246
2026-01-07 10:28:15.33	342.22	14.03	-31.3	-34.7	9.8	7.38e-03	0	44	102	1048576	22	5370
2026-01-07 10:28:18.36	342.22	13.72	-31.4	-35.1	9.5	1.21e-02	0	44	102	1048576	22	5540
2026-01-07 10:28:21.38	342.21	13.42	-31.0	-33.9	10.4	6.19e-03	0	43	102	1048576	22	5023
2026-01-07 10:28:24.40	342.21	13.12	-30.9	-33.4	10.7	3.28e-03	0	44	102	1048576	22	4842
2026-01-07 10:28:27.42	342.20	12.82	-30.6	-32.7	11.1	1.51e-03	0	44	102	1048576	22	4595
2026-01-07 10:28:30.44	342.20	12.53	-30.6	-32.6	11.2	2.12e-03	0	44	102	1048576	22	4554
2026-01-07 10:28:33.47	342.19	12.24	-30.7	-33.0	10.9	2.06e-03	0	44	102	1048576	22	4704
2026-01-07 10:28:36.49	342.19	11.96	-30.6	-32.8	11.2	1.32e-03	0	44	102	1048576	22	4610
2026-01-07 10:28:39.50	342.19	11.68	-30.7	-32.9	11.1	2.00e-03	0	44	102	1048576	22	4640
2026-01-07 10:28:42.52	342.18	11.40	-30.3	-32.2	11.9	4.99e-04	0	44	102	1048576	21	4491
2026-01-07 10:28:45.54	342.18	11.12	-30.3	-32.2	11.8	3.70e-04	0	44	102	1048576	21	4489
2026-01-07 10:28:48.56	342.18	10.85	-30.3	-32.4	11.7	4.47e-04	0	44	102	1048576	21	4555
2026-01-07 10:28:51.58	342.18	10.58	-30.4	-32.5	11.5	6.86e-04	0	44	102	1048576	21	4614
2026-01-07 10:28:54.61	342.17	10.32	-30.4	-32.5	11.6	8.10e-04	0	44	102	1048576	21	4600
2026-01-07 10:28:57.62	342.17	10.05	-30.2	-31.9	12.0	2.80e-04	0	44	102	1048576	21	4410
2026-01-07 10:29:00.64	342.17	9.79	-30.0	-31.4	12.2	2.68e-04	0	44	102	1048576	21	4234
2026-01-07 10:29:03.66	342.17	9.54	-30.1	-31.6	12.1	1.94e-04	0	44	102	1048576	21	4311
2026-01-07 10:29:06.68	342.17	9.28	-30.1	-31.8	12.0	3.56e-04	0	44	102	1048576	21	4359
2026-01-07 10:29:09.70	342.17	9.03	-30.2	-32.0	11.8	3.37e-04	0	44	102	1048576	21	4437
2026-01-07 10:29:12.73	342.17	8.78	-30.3	-32.4	11.5	5.61e-04	0	44	102	1048576	21	4577
2026-01-07 10:29:15.75	342.17	8.53	-30.0	-31.6	12.1	2.62e-04	0	44	102	1048576	21	4300
2026-01-07 10:29:18.76	342.17	8.28	-30.1	-31.8	11.9	3.28e-04	0	44	102	1048576	21	4392
2026-01-07 10:29:21.79	342.17	8.04	-30.0	-31.5	12.1	3.26e-04	0	44	102	1048576	21	4273
2026-01-07 10:29:24.81	342.17	7.80	-30.1	-31.8	11.8	4.03e-04	0	44	102	1048576	21	4382
2026-01-07 10:29:27.83	342.17	7.56	-30.1	-31.8	11.8	7.22e-04	0	44	102	1048576	21	4379
2026-01-07 10:29:30.85	342.17	7.33	-30.1	-31.9	11.7	5.62e-04	0	44	102	1048576	21	4442
2026-01-07 10:29:33.87	342.17	7.09	-30.2	-32.1	11.5	9.71e-04	0	44	102	1048576	21	4502
2026-01-07 10:29:36.90	342.17	6.86	-33.6	-45.9	3.8	1.49e+00	0	44	104	1048576	27	14864

#Closed at: 2026-01-07 10:29:37
#Recorded file [1 MB]: D:/data/31010_260107_132103.dat