passes_logs/2026/01/07/R2M6_AANII_01/R2M6_AANII_01__20260107_222616_SUOMI_NPP_rec.log

#Pass ID: 20260107_222616_SUOMI NPP
#Satellite: SUOMI NPP
#Configuration: NPP
#almurnet v.1.7.20240730
#Start time: 2026-01-07 22:26:16

#Version: 2.2.20231116
#Station: R2M6_AANII_01
#Location: 30.233357 lon 59.946436 lat
#TLE: 1 37849U 11061A   26005.94084933  .00000134  00000+0  84554-4 0  9990
#TLE: 2 37849  98.7803 308.0679 0002567  79.1029 281.0436 14.19522657735426

#Time	Az	El	Level	Level2	SNR	BER	BlckErr	Temp	State	Recorded	gain1	gain2
2026-01-07 22:26:16.95	34.75	7.03	-31.6	-37.8	4.6	1.32e+00	0	41	0	0	23	7321
2026-01-07 22:26:19.97	35.10	7.19	-31.7	-38.2	5.9	3.65e-01	0	41	102	1048576	23	7575
2026-01-07 22:26:22.99	35.45	7.36	-31.6	-37.6	6.3	2.80e-01	0	41	102	1048576	23	7171
2026-01-07 22:26:26.01	35.81	7.52	-31.8	-38.4	5.8	3.06e-01	0	41	102	1048576	23	7728
2026-01-07 22:26:29.03	36.17	7.68	-31.1	-35.3	8.4	7.98e-02	0	41	102	1048576	22	5837
2026-01-07 22:26:32.04	36.53	7.85	-30.2	-32.7	10.8	2.88e-03	0	41	102	1048576	21	4750
2026-01-07 22:26:35.07	36.90	8.01	-29.8	-31.7	12.0	3.68e-04	0	41	102	1048576	20	4477
2026-01-07 22:26:38.08	37.27	8.18	-29.9	-32.0	11.8	4.27e-04	0	42	102	1048576	20	4576
2026-01-07 22:26:41.09	37.64	8.34	-29.9	-32.5	11.9	4.58e-04	0	42	102	1048576	19	4838
2026-01-07 22:26:44.11	38.02	8.51	-29.9	-32.0	11.8	4.65e-04	0	42	102	1048576	20	4559
2026-01-07 22:26:47.14	38.41	8.67	-30.2	-33.0	11.1	1.36e-03	0	42	102	1048576	20	4937
2026-01-07 22:26:50.14	38.79	8.83	-30.2	-32.8	11.3	1.25e-03	0	42	102	1048576	20	4855
2026-01-07 22:26:53.16	39.18	9.00	-30.4	-33.4	10.8	2.43e-03	0	42	102	1048576	20	5099
2026-01-07 22:26:56.18	39.58	9.16	-30.1	-32.6	11.5	9.27e-04	0	42	102	1048576	20	4771
2026-01-07 22:26:59.20	39.98	9.33	-30.3	-32.9	11.2	9.64e-04	0	42	102	1048576	20	4907
2026-01-07 22:27:02.21	40.39	9.49	-30.3	-33.1	11.1	1.16e-03	0	42	102	1048576	20	4962
2026-01-07 22:27:05.23	40.80	9.66	-30.1	-32.5	11.6	7.02e-04	0	42	102	1048576	20	4742
2026-01-07 22:27:08.25	41.21	9.82	-30.0	-32.1	11.8	4.79e-04	0	42	102	1048576	20	4602
2026-01-07 22:27:11.26	41.63	9.98	-29.7	-31.4	12.3	2.26e-04	0	42	102	1048576	20	4375
2026-01-07 22:27:14.28	42.05	10.15	-29.7	-31.2	12.5	1.42e-04	0	42	102	1048576	20	4297
2026-01-07 22:27:17.31	42.48	10.31	-29.8	-31.4	12.4	2.14e-04	0	42	102	1048576	20	4366
2026-01-07 22:27:20.32	42.91	10.47	-29.6	-30.9	12.7	1.08e-04	0	42	102	1048576	20	4195
2026-01-07 22:27:23.33	43.34	10.64	-29.3	-30.5	13.4	1.83e-05	0	42	102	1048576	19	4127
2026-01-07 22:27:26.35	43.79	10.80	-29.4	-30.8	13.2	1.67e-05	0	43	102	1048576	19	4222
2026-01-07 22:27:29.37	44.23	10.96	-29.6	-31.4	12.8	5.64e-05	0	42	102	1048576	19	4416
2026-01-07 22:27:32.40	44.69	11.12	-29.6	-31.5	12.8	4.80e-05	0	43	102	1048576	19	4463
2026-01-07 22:27:35.42	45.14	11.28	-29.5	-31.3	12.8	2.97e-05	0	43	102	1048576	19	4392
2026-01-07 22:27:38.43	45.60	11.44	-29.6	-31.3	12.9	6.40e-05	0	43	102	1048576	19	4398
2026-01-07 22:27:41.45	46.07	11.60	-29.6	-31.3	12.9	3.50e-05	0	43	102	1048576	19	4410
2026-01-07 22:27:44.46	46.54	11.76	-29.6	-31.5	12.8	7.78e-05	0	43	102	1048576	19	4457
2026-01-07 22:27:47.48	47.01	11.92	-29.6	-31.3	12.9	3.50e-05	0	43	102	1048576	19	4397
2026-01-07 22:27:50.50	47.49	12.08	-29.4	-31.0	13.2	8.54e-05	0	43	102	1048576	19	4295
2026-01-07 22:27:53.52	47.98	12.23	-29.5	-31.1	13.0	3.35e-05	0	43	102	1048576	19	4333
2026-01-07 22:27:56.54	48.47	12.39	-29.5	-31.1	13.1	2.36e-05	0	43	102	1048576	19	4327
2026-01-07 22:27:59.55	48.96	12.54	-29.5	-31.1	13.1	3.73e-05	0	43	102	1048576	19	4338
2026-01-07 22:28:02.57	49.46	12.70	-29.7	-31.7	12.7	6.33e-05	0	43	102	1048576	19	4514
2026-01-07 22:28:05.59	49.97	12.85	-29.8	-32.1	12.5	9.46e-05	0	43	102	1048576	19	4658
2026-01-07 22:28:08.60	50.48	13.00	-29.7	-31.8	12.6	1.02e-04	0	43	102	1048576	19	4549
2026-01-07 22:28:11.62	51.00	13.15	-29.7	-31.5	12.8	5.79e-05	0	43	102	1048576	19	4470
2026-01-07 22:28:14.64	51.52	13.30	-29.8	-31.9	12.6	7.93e-05	0	43	102	1048576	19	4607
2026-01-07 22:28:17.66	52.04	13.45	-29.9	-32.2	12.3	1.63e-04	0	43	102	1048576	19	4708
2026-01-07 22:28:20.68	52.58	13.60	-29.8	-31.6	12.4	2.20e-04	0	43	102	1048576	20	4418
2026-01-07 22:28:23.70	53.11	13.74	-29.8	-31.4	12.6	9.15e-05	0	43	102	1048576	20	4331
2026-01-07 22:28:26.72	53.65	13.89	-29.9	-32.1	12.5	1.06e-04	0	43	102	1048576	19	4651
2026-01-07 22:28:29.74	54.20	14.03	-30.0	-32.3	12.4	1.65e-04	0	43	102	1048576	19	4741
2026-01-07 22:28:32.76	54.75	14.17	-30.3	-32.8	11.6	6.16e-04	0	43	102	1048576	20	4829
2026-01-07 22:28:35.77	55.31	14.31	-30.4	-33.1	11.5	7.86e-04	0	43	102	1048576	20	4931
2026-01-07 22:28:38.79	55.87	14.45	-30.1	-32.4	11.9	6.68e-04	0	43	102	1048576	20	4665
2026-01-07 22:28:41.81	56.44	14.59	-30.1	-32.3	12.0	2.93e-04	0	43	102	1048576	20	4641
2026-01-07 22:28:44.83	57.01	14.72	-30.4	-33.4	11.3	8.48e-04	0	43	102	1048576	20	5048
2026-01-07 22:28:47.85	57.59	14.85	-30.2	-32.6	11.8	4.57e-04	0	43	102	1048576	20	4732
2026-01-07 22:28:50.87	58.17	14.98	-30.4	-33.3	11.3	9.28e-04	0	43	102	1048576	20	5008
2026-01-07 22:28:53.88	58.76	15.11	-30.5	-33.0	11.2	1.66e-03	0	43	102	1048576	21	4792
2026-01-07 22:28:56.89	59.35	15.24	-30.3	-32.4	11.7	4.63e-04	0	43	102	1048576	21	4558
2026-01-07 22:28:59.91	59.95	15.36	-30.5	-32.9	11.3	6.05e-04	0	43	102	1048576	21	4756
2026-01-07 22:29:02.93	60.55	15.48	-30.5	-32.8	11.3	1.47e-03	0	43	102	1048576	21	4717
2026-01-07 22:29:05.95	61.16	15.60	-30.1	-31.6	12.2	2.30e-04	0	43	102	1048576	21	4309
2026-01-07 22:29:08.98	61.77	15.72	-29.9	-31.2	12.5	2.14e-04	0	43	102	1048576	21	4170
2026-01-07 22:29:11.99	62.38	15.83	-30.0	-31.9	12.4	8.16e-05	0	43	102	1048576	20	4490
2026-01-07 22:29:15.01	63.01	15.94	-29.6	-31.2	13.3	3.29e-04	0	43	102	1048576	19	4333
2026-01-07 22:29:18.02	63.63	16.05	-29.5	-31.0	13.4	4.51e-04	0	43	102	1048576	19	4271
2026-01-07 22:29:21.05	64.26	16.16	-29.6	-31.3	13.3	1.59e-04	0	43	102	1048576	19	4345
2026-01-07 22:29:24.06	64.89	16.26	-29.5	-30.9	13.5	1.43e-04	0	43	102	1048576	19	4238
2026-01-07 22:29:27.08	65.53	16.36	-29.6	-31.2	13.3	3.12e-05	0	43	102	1048576	19	4320
2026-01-07 22:29:30.10	66.18	16.46	-30.0	-32.3	12.6	1.94e-04	0	43	102	1048576	19	4690
2026-01-07 22:29:33.11	66.82	16.55	-30.2	-32.4	12.1	2.17e-04	0	43	102	1048576	20	4663
2026-01-07 22:29:36.14	67.47	16.65	-29.9	-31.7	12.6	1.05e-04	0	43	102	1048576	20	4400
2026-01-07 22:29:39.15	68.13	16.73	-29.7	-31.3	13.3	2.21e-05	0	43	102	1048576	19	4356
2026-01-07 22:29:42.16	68.78	16.82	-29.6	-31.1	13.4	2.68e-04	0	43	102	1048576	19	4291
2026-01-07 22:29:45.18	69.44	16.90	-29.9	-32.1	12.7	1.80e-04	0	43	102	1048576	19	4622
2026-01-07 22:29:48.20	70.11	16.98	-29.7	-31.1	13.0	6.17e-05	0	43	102	1048576	20	4206
2026-01-07 22:29:51.22	70.78	17.05	-29.7	-31.0	13.1	3.73e-05	0	43	102	1048576	20	4177
2026-01-07 22:29:54.24	71.45	17.12	-29.8	-31.3	12.9	4.50e-05	0	43	102	1048576	20	4271
2026-01-07 22:29:57.25	72.12	17.19	-29.2	-30.2	14.0	3.80e-06	0	43	102	1048576	19	4013
2026-01-07 22:30:00.28	72.80	17.26	-29.6	-31.2	13.3	1.52e-05	0	43	102	1048576	19	4328
2026-01-07 22:30:03.31	73.49	17.32	-29.5	-31.0	13.5	1.52e-05	0	44	102	1048576	19	4251
2026-01-07 22:30:06.33	74.17	17.37	-29.5	-31.0	13.5	1.14e-05	0	43	102	1048576	19	4248
2026-01-07 22:30:09.34	74.85	17.43	-30.1	-32.0	12.5	9.15e-05	0	43	102	1048576	20	4500
2026-01-07 22:30:12.36	75.54	17.48	-30.4	-32.9	11.8	3.82e-04	0	43	102	1048576	20	4831
2026-01-07 22:30:15.39	76.23	17.52	-30.4	-32.6	11.7	6.81e-04	0	43	102	1048576	21	4610
2026-01-07 22:30:18.41	76.93	17.56	-30.5	-32.8	11.6	7.77e-04	0	43	102	1048576	21	4685
2026-01-07 22:30:21.42	77.62	17.60	-30.3	-32.2	12.0	3.92e-04	0	43	102	1048576	21	4464
2026-01-07 22:30:24.44	78.31	17.63	-30.0	-31.7	12.6	7.40e-05	0	43	102	1048576	20	4405
2026-01-07 22:30:27.47	79.01	17.66	-30.1	-32.0	12.4	1.18e-04	0	43	102	1048576	20	4503
2026-01-07 22:30:30.49	79.71	17.69	-29.8	-31.2	13.0	8.16e-05	0	43	102	1048576	20	4229
2026-01-07 22:30:33.52	80.41	17.71	-30.0	-31.8	12.7	1.24e-04	0	44	102	1048576	20	4433
2026-01-07 22:30:36.53	81.11	17.73	-29.8	-31.1	13.0	5.03e-05	0	43	102	1048576	20	4218
2026-01-07 22:30:39.55	81.81	17.74	-29.9	-31.5	12.7	6.25e-05	0	44	102	1048576	20	4349
2026-01-07 22:30:42.56	82.51	17.75	-29.8	-31.3	12.9	6.71e-05	0	43	102	1048576	20	4273
2026-01-07 22:30:45.57	83.21	17.75	-29.7	-31.1	13.0	4.04e-05	0	43	102	1048576	20	4209
2026-01-07 22:30:48.59	83.91	17.75	-29.8	-31.4	12.8	5.72e-05	0	44	102	1048576	20	4313
2026-01-07 22:30:51.62	84.62	17.75	-29.9	-31.7	12.5	1.23e-04	0	43	102	1048576	20	4403
2026-01-07 22:30:54.63	85.32	17.74	-30.2	-32.6	12.0	1.64e-04	0	44	102	1048576	20	4711
2026-01-07 22:30:57.64	86.02	17.73	-30.5	-33.0	11.3	1.14e-03	0	44	102	1048576	21	4792
2026-01-07 22:31:00.66	86.72	17.71	-30.3	-32.4	11.8	4.91e-04	0	43	102	1048576	21	4556
2026-01-07 22:31:03.68	87.42	17.69	-30.3	-32.4	11.7	5.74e-04	0	44	102	1048576	21	4562
2026-01-07 22:31:06.69	88.12	17.67	-30.1	-31.7	12.2	3.10e-04	0	43	102	1048576	21	4338
2026-01-07 22:31:09.71	88.82	17.64	-29.7	-31.0	13.0	4.42e-05	0	44	102	1048576	20	4183
2026-01-07 22:31:12.74	89.51	17.61	-29.3	-30.5	13.8	7.60e-06	0	43	102	1048576	19	4112
2026-01-07 22:31:15.76	90.21	17.57	-29.4	-30.6	13.7	3.80e-06	0	44	102	1048576	19	4162
2026-01-07 22:31:18.77	90.90	17.53	-30.0	-32.3	12.6	9.00e-05	0	43	102	1048576	19	4715
2026-01-07 22:31:21.79	91.59	17.49	-30.1	-32.3	12.2	2.42e-04	0	44	102	1048576	20	4611
2026-01-07 22:31:24.81	92.28	17.44	-30.2	-32.4	12.1	3.49e-04	0	44	102	1048576	20	4649
2026-01-07 22:31:27.84	92.97	17.39	-30.4	-33.1	11.6	4.76e-04	0	43	102	1048576	20	4891
2026-01-07 22:31:30.85	93.66	17.33	-30.0	-32.0	12.4	1.44e-04	0	43	102	1048576	20	4499
2026-01-07 22:31:33.88	94.34	17.27	-29.9	-31.7	12.6	1.24e-04	0	44	102	1048576	20	4412
2026-01-07 22:31:36.89	95.02	17.21	-30.1	-32.0	12.3	2.96e-04	0	44	102	1048576	20	4525
2026-01-07 22:31:39.91	95.70	17.14	-29.5	-30.5	13.4	1.83e-05	0	44	102	1048576	20	4035
2026-01-07 22:31:42.93	96.37	17.07	-29.6	-31.1	13.4	1.06e-05	0	44	102	1048576	19	4284
2026-01-07 22:31:45.95	97.04	17.00	-29.6	-31.0	13.5	8.46e-05	0	43	102	1048576	19	4243
2026-01-07 22:31:48.98	97.71	16.92	-29.6	-31.0	13.5	3.20e-05	0	43	102	1048576	19	4261
2026-01-07 22:31:52.00	98.38	16.84	-29.4	-30.6	13.8	3.00e-06	0	44	102	1048576	19	4114
2026-01-07 22:31:55.02	99.04	16.75	-29.4	-30.4	13.9	9.10e-06	0	43	102	1048576	19	4079
2026-01-07 22:31:58.03	99.69	16.67	-29.4	-30.6	13.7	5.30e-06	0	44	102	1048576	19	4131
2026-01-07 22:32:01.05	100.35	16.57	-29.6	-31.0	13.5	8.30e-06	0	44	102	1048576	19	4238
2026-01-07 22:32:04.06	100.99	16.48	-29.6	-31.1	13.4	4.42e-05	0	44	102	1048576	19	4294
2026-01-07 22:32:07.07	101.64	16.38	-29.5	-30.8	13.6	1.50e-06	0	44	102	1048576	19	4190
2026-01-07 22:32:10.08	102.28	16.28	-29.7	-31.4	13.2	2.21e-05	0	44	102	1048576	19	4373
2026-01-07 22:32:13.11	102.92	16.18	-29.6	-31.0	13.4	1.75e-05	0	43	102	1048576	19	4264
2026-01-07 22:32:16.13	103.55	16.07	-29.4	-30.5	13.8	3.80e-06	0	44	102	1048576	19	4117
2026-01-07 22:32:19.15	104.18	15.96	-29.5	-30.9	13.6	6.80e-06	0	43	102	1048576	19	4211
2026-01-07 22:32:22.18	104.80	15.85	-29.7	-31.5	13.1	2.51e-05	0	44	102	1048576	19	4409
2026-01-07 22:32:25.20	105.42	15.74	-29.5	-30.9	13.5	9.90e-06	0	44	102	1048576	19	4226
2026-01-07 22:32:28.21	106.04	15.62	-29.9	-31.9	12.8	3.81e-05	0	44	102	1048576	19	4550
2026-01-07 22:32:31.24	106.65	15.50	-30.2	-32.5	12.0	4.13e-04	0	44	102	1048576	20	4665
2026-01-07 22:32:34.26	107.26	15.38	-29.9	-31.7	12.6	2.43e-04	0	44	102	1048576	20	4384
2026-01-07 22:32:37.27	107.85	15.26	-30.1	-32.0	12.3	1.33e-04	0	43	102	1048576	20	4492
2026-01-07 22:32:40.29	108.45	15.13	-30.1	-32.0	12.2	2.06e-04	0	44	102	1048576	20	4512
2026-01-07 22:32:43.30	109.04	15.00	-30.1	-32.3	12.1	3.18e-04	0	44	102	1048576	20	4589
2026-01-07 22:32:46.33	109.63	14.87	-30.0	-31.9	12.4	1.50e-04	0	43	102	1048576	20	4449
2026-01-07 22:32:49.35	110.21	14.74	-30.7	-33.6	10.8	1.74e-03	0	43	102	1048576	21	5009
2026-01-07 22:32:52.36	110.78	14.60	-30.7	-33.6	10.7	2.30e-03	0	43	102	1048576	21	5027
2026-01-07 22:32:55.37	111.35	14.47	-30.4	-32.6	11.4	1.08e-03	0	44	102	1048576	21	4659
2026-01-07 22:32:58.39	111.92	14.33	-30.1	-31.7	12.1	3.06e-04	0	43	102	1048576	21	4304
2026-01-07 22:33:01.41	112.48	14.19	-29.9	-31.7	12.5	1.30e-04	0	44	102	1048576	20	4410
2026-01-07 22:33:04.42	113.03	14.05	-30.0	-31.9	12.3	1.25e-04	0	44	102	1048576	20	4458
2026-01-07 22:33:07.45	113.58	13.90	-30.4	-33.0	11.5	7.06e-04	0	44	102	1048576	20	4882
2026-01-07 22:33:10.47	114.13	13.76	-30.4	-33.0	11.5	7.26e-04	0	44	102	1048576	20	4887
2026-01-07 22:33:13.49	114.67	13.61	-30.4	-33.2	11.4	1.03e-03	0	44	102	1048576	20	4949
2026-01-07 22:33:16.52	115.21	13.46	-30.6	-33.3	10.8	3.07e-03	0	44	102	1048576	21	4917
2026-01-07 22:33:19.55	115.74	13.31	-30.4	-32.6	11.3	1.49e-03	0	44	102	1048576	21	4648
2026-01-07 22:33:22.57	116.26	13.16	-30.2	-32.0	11.8	5.72e-04	0	44	102	1048576	21	4444
2026-01-07 22:33:25.59	116.78	13.01	-30.6	-33.2	10.9	1.85e-03	0	44	102	1048576	21	4876
2026-01-07 22:33:28.60	117.30	12.86	-30.3	-32.2	11.5	8.70e-04	0	44	102	1048576	21	4523
2026-01-07 22:33:31.62	117.80	12.70	-30.0	-31.3	12.2	1.57e-04	0	44	102	1048576	21	4208
2026-01-07 22:33:34.64	118.31	12.55	-29.9	-31.2	12.4	1.44e-04	0	44	102	1048576	21	4154
2026-01-07 22:33:37.65	118.81	12.39	-30.0	-31.5	12.1	3.28e-04	0	44	102	1048576	21	4279
2026-01-07 22:33:40.67	119.30	12.23	-30.0	-31.6	12.0	4.76e-04	0	44	102	1048576	21	4311
2026-01-07 22:33:43.69	119.79	12.08	-30.0	-31.5	12.1	2.49e-04	0	44	102	1048576	21	4275
2026-01-07 22:33:46.71	120.27	11.92	-30.2	-32.0	11.7	5.05e-04	0	44	102	1048576	21	4440
2026-01-07 22:33:49.72	120.75	11.76	-29.8	-30.8	12.5	1.47e-04	0	43	102	1048576	21	4064
2026-01-07 22:33:52.74	121.22	11.60	-29.4	-30.2	13.2	2.74e-05	0	44	102	1048576	20	3970
2026-01-07 22:33:55.77	121.69	11.44	-29.2	-30.1	13.6	2.20e-06	0	44	102	1048576	19	4017
2026-01-07 22:33:58.78	122.15	11.27	-29.3	-30.6	13.4	1.67e-05	0	44	102	1048576	19	4150
2026-01-07 22:34:01.79	122.61	11.11	-29.7	-31.5	12.7	6.94e-05	0	44	102	1048576	19	4456
2026-01-07 22:34:04.82	123.07	10.95	-29.6	-31.4	12.8	6.86e-05	0	44	102	1048576	19	4416
2026-01-07 22:34:07.84	123.51	10.79	-29.5	-31.1	13.0	5.64e-05	0	43	102	1048576	19	4325
2026-01-07 22:34:10.86	123.96	10.62	-29.9	-32.3	12.2	1.26e-04	0	44	102	1048576	19	4722
2026-01-07 22:34:13.88	124.40	10.46	-30.0	-32.0	11.9	3.88e-04	0	44	102	1048576	20	4559
2026-01-07 22:34:16.90	124.83	10.29	-29.8	-31.4	12.3	2.40e-04	0	44	102	1048576	20	4351
2026-01-07 22:34:19.92	125.26	10.13	-29.7	-31.1	12.5	1.14e-04	0	44	102	1048576	20	4248
2026-01-07 22:34:22.94	125.69	9.96	-29.9	-31.9	11.9	2.83e-04	0	44	102	1048576	20	4540
2026-01-07 22:34:25.97	126.11	9.80	-30.3	-32.9	11.2	1.40e-03	0	44	102	1048576	20	4903
2026-01-07 22:34:28.98	126.52	9.63	-30.2	-32.8	11.2	1.85e-03	0	44	102	1048576	20	4858
2026-01-07 22:34:32.00	126.94	9.47	-30.2	-32.7	11.3	1.55e-03	0	44	102	1048576	20	4833
2026-01-07 22:34:35.01	127.34	9.30	-30.1	-32.6	11.4	1.16e-03	0	44	102	1048576	20	4790
2026-01-07 22:34:38.03	127.74	9.14	-30.3	-33.0	11.0	1.97e-03	0	44	102	1048576	20	4961
2026-01-07 22:34:41.05	128.14	8.97	-30.4	-33.6	10.6	2.67e-03	0	44	102	1048576	20	5185
2026-01-07 22:34:44.07	128.54	8.80	-30.5	-33.3	10.4	3.96e-03	0	44	102	1048576	21	4986
2026-01-07 22:34:47.08	128.92	8.64	-30.7	-34.0	9.8	7.13e-03	0	44	102	1048576	21	5281
2026-01-07 22:34:50.09	129.31	8.47	-30.5	-33.7	10.0	1.20e-02	0	44	102	1048576	21	5162
2026-01-07 22:34:53.10	129.69	8.31	-30.2	-32.6	10.8	2.84e-03	0	44	102	1048576	21	4721
2026-01-07 22:34:56.11	130.06	8.14	-30.3	-32.7	10.7	1.73e-03	0	44	102	1048576	21	4770
2026-01-07 22:34:59.13	130.44	7.98	-30.2	-32.5	10.9	1.66e-03	0	44	102	1048576	21	4691
2026-01-07 22:35:02.16	130.81	7.81	-30.5	-33.5	10.1	5.83e-03	0	44	102	1048576	21	5079
2026-01-07 22:35:05.18	131.17	7.64	-30.8	-34.8	9.1	2.07e-02	0	44	102	1048576	21	5676
2026-01-07 22:35:08.20	131.53	7.48	-30.3	-32.9	10.4	5.25e-03	0	44	102	1048576	21	4859
2026-01-07 22:35:11.22	131.89	7.31	-30.0	-32.2	10.8	2.79e-03	0	44	102	1048576	21	4615
2026-01-07 22:35:14.23	132.24	7.15	-29.9	-31.7	11.2	1.29e-03	0	44	102	1048576	21	4430
2026-01-07 22:35:17.26	132.59	6.98	-33.2	-45.6	3.8	1.49e+00	0	44	104	1048576	26	15029

#Closed at: 2026-01-07 22:35:18
#Recorded file [1 MB]: D:/data/31010_260108_012618.dat