passes_logs/2026/01/07/R2M6_AANII_01/R2M6_AANII_01__20260107_111828_FENGYUN_3D_rec.log

#Pass ID: 20260107_111828_FENGYUN 3D
#Satellite: FENGYUN 3D
#Configuration: FENGYUN 3D
#almurnet v.1.7.20240730
#Start time: 2026-01-07 11:18:28

#Version: 2.2.20231116
#Station: R2M6_AANII_01
#Location: 30.233357 lon 59.946436 lat
#TLE: 1 43010U 17072A   26006.26440730  .00000376  00000+0  19957-3 0  9994
#TLE: 2 43010  98.9925 337.9455 0002045 123.9195 236.2175 14.19693586422016

#Time	Az	El	Level	Level2	SNR	BER	BlckErr	Temp	State	Recorded	gain1	gain2
2026-01-07 11:18:28.36	128.07	6.96	-29.3	-32.0	5.5	7.83e-01	0	41	0	0	19	4922
2026-01-07 11:18:31.38	127.92	7.18	-29.6	-32.8	10.0	4.81e-03	0	41	102	1048576	19	5177
2026-01-07 11:18:34.40	127.77	7.41	-29.2	-31.6	10.7	2.39e-03	0	41	102	1048576	19	4769
2026-01-07 11:18:37.42	127.61	7.64	-29.0	-31.1	11.1	9.47e-04	0	41	102	1048576	19	4588
2026-01-07 11:18:40.44	127.45	7.86	-28.9	-30.8	11.3	1.22e-03	0	41	102	1048576	19	4494
2026-01-07 11:18:43.46	127.29	8.09	-27.7	-29.4	13.2	1.94e-05	0	41	102	1048576	16	4385
2026-01-07 11:18:46.46	127.13	8.33	-27.2	-28.7	13.7	1.10e-06	0	42	102	1048576	15	4287
2026-01-07 11:18:49.48	126.96	8.56	-27.1	-28.5	13.8	2.20e-06	0	42	102	1048576	15	4234
2026-01-07 11:18:52.51	126.79	8.80	-27.0	-28.2	14.1	0.00e+00	0	42	102	1048576	15	4150
2026-01-07 11:18:55.53	126.62	9.04	-26.9	-28.1	14.1	0.00e+00	0	42	102	1048576	15	4131
2026-01-07 11:18:58.55	126.44	9.28	-26.9	-28.1	14.2	0.00e+00	0	42	102	1048576	15	4112
2026-01-07 11:19:01.57	126.26	9.52	-26.8	-28.2	14.4	0.00e+00	0	42	102	1048576	14	4267
2026-01-07 11:19:04.58	126.08	9.76	-26.8	-28.4	14.3	2.20e-06	0	42	102	1048576	14	4305
2026-01-07 11:19:07.60	125.90	10.01	-26.7	-28.2	14.5	0.00e+00	0	42	102	1048576	14	4245
2026-01-07 11:19:10.62	125.71	10.26	-26.6	-27.9	14.6	0.00e+00	0	42	102	1048576	14	4184
2026-01-07 11:19:13.64	125.52	10.51	-26.6	-27.8	14.7	0.00e+00	0	42	102	1048576	14	4154
2026-01-07 11:19:16.65	125.33	10.76	-26.5	-27.7	14.8	0.00e+00	0	42	102	1048576	14	4111
2026-01-07 11:19:19.68	125.13	11.02	-26.4	-27.5	14.9	2.20e-06	0	42	102	1048576	14	4066
2026-01-07 11:19:22.70	124.92	11.27	-26.5	-27.5	14.9	3.40e-06	0	42	102	1048576	14	4069
2026-01-07 11:19:25.73	124.72	11.54	-26.3	-27.2	15.1	0.00e+00	0	42	102	1048576	14	3987
2026-01-07 11:19:28.75	124.51	11.80	-26.2	-27.5	15.2	2.20e-06	0	43	102	1048576	13	4167
2026-01-07 11:19:31.77	124.29	12.06	-26.3	-27.6	15.2	1.10e-06	0	42	102	1048576	13	4192
2026-01-07 11:19:34.79	124.08	12.33	-26.2	-27.4	15.4	0.00e+00	0	42	102	1048576	13	4125
2026-01-07 11:19:37.80	123.86	12.60	-26.2	-27.3	15.4	0.00e+00	0	42	102	1048576	13	4126
2026-01-07 11:19:40.83	123.63	12.87	-26.1	-27.3	15.5	0.00e+00	0	42	102	1048576	13	4105
2026-01-07 11:19:43.84	123.40	13.15	-26.0	-27.0	15.6	0.00e+00	0	43	102	1048576	13	4037
2026-01-07 11:19:46.86	123.16	13.43	-25.8	-26.6	15.8	0.00e+00	0	42	102	1048576	13	3935
2026-01-07 11:19:49.89	122.92	13.71	-25.9	-27.2	15.8	0.00e+00	0	43	102	1048576	12	4195
2026-01-07 11:19:52.92	122.68	13.99	-25.7	-26.9	16.0	0.00e+00	0	43	102	1048576	12	4101
2026-01-07 11:19:55.95	122.43	14.28	-25.6	-26.6	16.1	0.00e+00	0	43	102	1048576	12	4043
2026-01-07 11:19:58.97	122.17	14.57	-25.6	-26.6	16.1	0.00e+00	0	43	102	1048576	12	4045
2026-01-07 11:20:01.99	121.92	14.86	-25.6	-26.5	16.2	0.00e+00	0	43	102	1048576	12	4017
2026-01-07 11:20:05.01	121.65	15.16	-25.6	-26.6	16.2	0.00e+00	0	43	102	1048576	12	4039
2026-01-07 11:20:08.03	121.38	15.45	-25.6	-26.6	16.2	0.00e+00	0	43	102	1048576	12	4042
2026-01-07 11:20:11.06	121.10	15.76	-25.7	-26.8	16.1	0.00e+00	0	43	102	1048576	12	4096
2026-01-07 11:20:14.09	120.82	16.06	-25.7	-26.7	16.1	0.00e+00	0	43	102	1048576	12	4063
2026-01-07 11:20:17.11	120.53	16.37	-25.6	-26.6	16.2	0.00e+00	0	43	102	1048576	12	4048
2026-01-07 11:20:20.13	120.24	16.68	-25.4	-26.2	16.5	0.00e+00	0	43	102	1048576	12	3927
2026-01-07 11:20:23.16	119.94	16.99	-25.3	-26.5	16.6	0.00e+00	0	43	102	1048576	11	4109
2026-01-07 11:20:26.18	119.63	17.31	-25.3	-26.4	16.7	0.00e+00	0	43	102	1048576	11	4087
2026-01-07 11:20:29.20	119.32	17.63	-25.1	-25.9	17.0	0.00e+00	0	43	102	1048576	11	3960
2026-01-07 11:20:32.21	119.00	17.95	-25.0	-25.8	17.1	0.00e+00	0	43	102	1048576	11	3938
2026-01-07 11:20:35.23	118.67	18.28	-25.0	-25.7	17.1	0.00e+00	0	43	102	1048576	11	3917
2026-01-07 11:20:38.25	118.34	18.61	-25.0	-25.8	17.1	0.00e+00	0	43	102	1048576	11	3932
2026-01-07 11:20:41.28	118.00	18.94	-25.0	-25.8	17.1	0.00e+00	0	43	102	1048576	11	3938
2026-01-07 11:20:44.29	117.65	19.28	-24.9	-25.6	17.2	0.00e+00	0	43	102	1048576	11	3883
2026-01-07 11:20:47.32	117.29	19.62	-25.0	-25.8	17.1	0.00e+00	0	43	102	1048576	11	3949
2026-01-07 11:20:50.34	116.92	19.96	-24.7	-25.7	17.4	0.00e+00	0	43	102	1048576	10	4014
2026-01-07 11:20:53.35	116.55	20.31	-24.5	-25.2	17.7	0.00e+00	0	43	102	1048576	10	3889
2026-01-07 11:20:56.37	116.16	20.66	-24.6	-25.5	17.6	0.00e+00	0	43	102	1048576	10	3972
2026-01-07 11:20:59.40	115.77	21.02	-24.5	-25.1	17.8	0.00e+00	0	43	102	1048576	10	3873
2026-01-07 11:21:02.42	115.37	21.37	-24.3	-24.8	18.0	0.00e+00	0	43	102	1048576	10	3793
2026-01-07 11:21:05.44	114.96	21.74	-24.2	-25.1	18.1	0.00e+00	0	43	102	1048576	9	3977
2026-01-07 11:21:08.44	114.54	22.10	-24.1	-24.8	18.2	0.00e+00	0	43	102	1048576	9	3908
2026-01-07 11:21:11.47	114.11	22.47	-24.1	-24.7	18.3	0.00e+00	0	43	102	1048576	9	3892
2026-01-07 11:21:14.49	113.66	22.84	-24.1	-24.8	18.2	0.00e+00	0	43	102	1048576	9	3909
2026-01-07 11:21:17.51	113.21	23.22	-23.8	-24.2	18.6	0.00e+00	0	43	102	1048576	9	3755
2026-01-07 11:21:20.52	112.75	23.59	-23.7	-24.5	18.7	0.00e+00	0	43	102	1048576	8	3928
2026-01-07 11:21:23.53	112.28	23.98	-23.9	-24.9	18.5	0.00e+00	0	43	102	1048576	8	4045
2026-01-07 11:21:26.55	111.79	24.36	-23.9	-25.0	18.4	0.00e+00	0	43	102	1048576	8	4061
2026-01-07 11:21:29.57	111.29	24.75	-23.7	-24.6	18.6	0.00e+00	0	43	102	1048576	8	3954
2026-01-07 11:21:32.59	110.78	25.14	-23.7	-24.4	18.7	0.00e+00	0	43	102	1048576	8	3907
2026-01-07 11:21:35.61	110.25	25.54	-23.3	-23.6	19.2	0.00e+00	0	43	102	1048576	8	3725
2026-01-07 11:21:38.62	109.71	25.94	-23.4	-23.9	19.1	0.00e+00	0	43	102	1048576	8	3795
2026-01-07 11:21:41.65	109.16	26.34	-23.6	-24.3	18.8	0.00e+00	0	43	102	1048576	8	3890
2026-01-07 11:21:44.66	108.59	26.75	-23.5	-24.1	18.9	0.00e+00	0	43	102	1048576	8	3838
2026-01-07 11:21:47.66	108.01	27.15	-23.4	-23.8	19.1	0.00e+00	0	43	102	1048576	8	3786
2026-01-07 11:21:50.68	107.41	27.56	-23.5	-24.0	19.0	0.00e+00	0	43	102	1048576	8	3824
2026-01-07 11:21:53.71	106.80	27.98	-23.7	-24.5	18.8	0.00e+00	0	43	102	1048576	8	3943
2026-01-07 11:21:56.73	106.17	28.39	-23.6	-24.2	18.9	0.00e+00	0	43	102	1048576	8	3877
2026-01-07 11:21:59.75	105.52	28.81	-23.5	-24.0	19.1	0.00e+00	0	43	102	1048576	8	3813
2026-01-07 11:22:02.77	104.86	29.23	-23.4	-23.9	19.1	0.00e+00	0	43	102	1048576	8	3803
2026-01-07 11:22:05.79	104.18	29.65	-23.4	-23.9	19.1	0.00e+00	0	43	102	1048576	8	3794
2026-01-07 11:22:08.82	103.48	30.08	-23.3	-23.6	19.3	0.00e+00	0	43	102	1048576	8	3732
2026-01-07 11:22:11.84	102.76	30.50	-23.3	-23.7	19.2	0.00e+00	0	43	102	1048576	8	3749
2026-01-07 11:22:14.87	102.02	30.93	-23.4	-23.7	19.2	0.00e+00	0	43	102	1048576	8	3753
2026-01-07 11:22:17.89	101.26	31.36	-23.5	-24.0	19.1	0.00e+00	0	43	102	1048576	8	3830
2026-01-07 11:22:20.91	100.48	31.79	-23.3	-23.6	19.3	0.00e+00	0	43	102	1048576	8	3734
2026-01-07 11:22:23.93	99.68	32.21	-23.4	-24.2	19.2	0.00e+00	0	43	102	1048576	7	3984
2026-01-07 11:22:26.95	98.86	32.64	-23.4	-24.4	19.1	0.00e+00	0	43	102	1048576	7	4019
2026-01-07 11:22:29.97	98.02	33.07	-23.4	-24.3	19.2	0.00e+00	0	43	102	1048576	7	3989
2026-01-07 11:22:32.99	97.15	33.49	-23.2	-23.9	19.4	0.00e+00	0	43	102	1048576	7	3896
2026-01-07 11:22:36.02	96.26	33.92	-23.5	-24.5	19.1	0.00e+00	0	43	102	1048576	7	4052
2026-01-07 11:22:39.05	95.35	34.34	-23.0	-23.5	19.6	0.00e+00	0	43	102	1048576	7	3811
2026-01-07 11:22:42.05	94.42	34.75	-23.0	-23.4	19.6	0.00e+00	0	43	102	1048576	7	3799
2026-01-07 11:22:45.07	93.46	35.17	-23.0	-23.5	19.6	0.00e+00	0	44	102	1048576	7	3803
2026-01-07 11:22:48.10	92.47	35.58	-23.3	-24.1	19.3	0.00e+00	0	43	102	1048576	7	3951
2026-01-07 11:22:51.11	91.46	35.98	-23.3	-24.2	19.3	0.00e+00	0	43	102	1048576	7	3974
2026-01-07 11:22:54.14	90.42	36.38	-23.5	-24.5	19.1	0.00e+00	0	43	102	1048576	7	4056
2026-01-07 11:22:57.16	89.36	36.78	-23.3	-24.0	19.4	0.00e+00	0	43	102	1048576	7	3931
2026-01-07 11:23:00.18	88.28	37.17	-23.0	-23.6	19.6	0.00e+00	0	43	102	1048576	7	3830
2026-01-07 11:23:03.20	87.17	37.54	-23.2	-23.8	19.5	0.00e+00	0	43	102	1048576	7	3883
2026-01-07 11:23:06.22	86.03	37.92	-23.1	-23.6	19.6	0.00e+00	0	44	102	1048576	7	3838
2026-01-07 11:23:09.24	84.86	38.28	-23.0	-23.5	19.7	0.00e+00	0	43	102	1048576	7	3795
2026-01-07 11:23:12.26	83.67	38.63	-23.3	-24.1	19.3	0.00e+00	0	43	102	1048576	7	3954
2026-01-07 11:23:15.29	82.45	38.97	-23.2	-23.8	19.5	0.00e+00	0	43	102	1048576	7	3881
2026-01-07 11:23:18.30	81.21	39.30	-23.2	-24.0	19.4	0.00e+00	0	43	102	1048576	7	3921
2026-01-07 11:23:21.31	79.95	39.62	-22.9	-23.3	19.8	0.00e+00	0	43	102	1048576	7	3749
2026-01-07 11:23:24.34	78.66	39.92	-22.9	-23.2	19.9	0.00e+00	0	44	102	1048576	7	3732
2026-01-07 11:23:27.36	77.34	40.21	-22.8	-23.5	19.9	0.00e+00	0	43	102	1048576	6	3914
2026-01-07 11:23:30.38	76.01	40.48	-23.2	-24.4	19.5	0.00e+00	0	43	102	1048576	6	4122
2026-01-07 11:23:33.40	74.65	40.74	-23.1	-24.1	19.6	0.00e+00	0	43	102	1048576	6	4069
2026-01-07 11:23:36.42	73.27	40.98	-23.3	-24.6	19.4	0.00e+00	0	43	102	1048576	6	4167
2026-01-07 11:23:39.43	71.87	41.20	-23.1	-24.2	19.6	0.00e+00	0	43	102	1048576	6	4075
2026-01-07 11:23:42.45	70.45	41.41	-23.3	-24.5	19.5	0.00e+00	0	43	102	1048576	6	4160
2026-01-07 11:23:45.46	69.02	41.59	-23.1	-23.6	19.7	0.00e+00	0	43	102	1048576	7	3828
2026-01-07 11:23:48.48	67.57	41.76	-23.0	-23.6	19.7	0.00e+00	0	43	102	1048576	7	3821
2026-01-07 11:23:51.50	66.10	41.91	-22.9	-23.2	20.1	0.00e+00	0	44	102	1048576	7	3725
2026-01-07 11:23:54.53	64.62	42.03	-23.2	-24.4	19.7	0.00e+00	0	43	102	1048576	6	4113
2026-01-07 11:23:57.55	63.13	42.13	-23.0	-23.9	19.9	0.00e+00	0	43	102	1048576	6	3996
2026-01-07 11:24:00.58	61.62	42.22	-22.6	-23.1	20.4	0.00e+00	0	43	102	1048576	6	3794
2026-01-07 11:24:03.60	60.12	42.28	-23.3	-24.6	19.6	0.00e+00	0	43	102	1048576	6	4175
2026-01-07 11:24:06.62	58.61	42.31	-22.4	-22.7	20.5	0.00e+00	0	43	102	1048576	6	3718
2026-01-07 11:24:09.65	57.10	42.33	-22.2	-22.7	20.7	0.00e+00	0	43	102	1048576	5	3828
2026-01-07 11:24:12.67	55.58	42.32	-22.6	-23.6	20.3	0.00e+00	0	43	102	1048576	5	4025
2026-01-07 11:24:15.69	54.08	42.29	-22.7	-23.7	20.2	0.00e+00	0	44	102	1048576	5	4051
2026-01-07 11:24:18.71	52.57	42.24	-22.5	-23.3	20.5	0.00e+00	0	43	102	1048576	5	3958
2026-01-07 11:24:21.73	51.07	42.16	-22.4	-23.1	20.5	0.00e+00	0	43	102	1048576	5	3915
2026-01-07 11:24:24.75	49.58	42.07	-22.5	-23.4	20.4	0.00e+00	0	43	102	1048576	5	3986
2026-01-07 11:24:27.77	48.10	41.95	-22.9	-24.3	19.9	0.00e+00	0	43	102	1048576	5	4203
2026-01-07 11:24:30.80	46.62	41.81	-22.7	-23.3	20.2	0.00e+00	0	44	102	1048576	6	3844
2026-01-07 11:24:33.81	45.17	41.65	-22.6	-23.0	20.3	0.00e+00	0	44	102	1048576	6	3788
2026-01-07 11:24:36.82	43.74	41.47	-22.7	-23.3	20.2	0.00e+00	0	44	102	1048576	6	3843
2026-01-07 11:24:39.85	42.31	41.27	-22.5	-22.9	20.4	0.00e+00	0	44	102	1048576	6	3765
2026-01-07 11:24:42.87	40.91	41.05	-22.8	-23.5	20.1	0.00e+00	0	44	102	1048576	6	3904
2026-01-07 11:24:45.88	39.53	40.82	-22.7	-23.4	20.2	0.00e+00	0	43	102	1048576	6	3863
2026-01-07 11:24:48.90	38.16	40.57	-23.2	-24.4	19.7	0.00e+00	0	43	102	1048576	6	4122
2026-01-07 11:24:51.91	36.82	40.30	-22.6	-23.1	20.3	0.00e+00	0	43	102	1048576	6	3795
2026-01-07 11:24:54.93	35.50	40.02	-22.4	-22.7	20.5	0.00e+00	0	43	102	1048576	6	3724
2026-01-07 11:24:57.95	34.21	39.72	-22.5	-22.8	20.4	0.00e+00	0	43	102	1048576	6	3734
2026-01-07 11:25:00.97	32.94	39.41	-22.6	-23.1	20.3	0.00e+00	0	44	102	1048576	6	3817
2026-01-07 11:25:03.99	31.69	39.08	-22.5	-22.8	20.4	0.00e+00	0	43	102	1048576	6	3730
2026-01-07 11:25:07.01	30.47	38.75	-22.9	-23.8	19.9	0.00e+00	0	44	102	1048576	6	3973
2026-01-07 11:25:10.03	29.27	38.40	-22.9	-23.8	20.0	0.00e+00	0	43	102	1048576	6	3960
2026-01-07 11:25:13.05	28.10	38.04	-23.0	-23.9	19.9	0.00e+00	0	43	102	1048576	6	3984
2026-01-07 11:25:16.08	26.95	37.67	-22.8	-23.5	20.1	0.00e+00	0	43	102	1048576	6	3904
2026-01-07 11:25:19.10	25.84	37.30	-22.8	-23.5	20.0	0.00e+00	0	44	102	1048576	6	3907
2026-01-07 11:25:22.12	24.74	36.91	-23.2	-24.3	19.6	0.00e+00	0	44	102	1048576	6	4091
2026-01-07 11:25:25.14	23.68	36.52	-22.7	-23.3	20.1	0.00e+00	0	43	102	1048576	6	3858
2026-01-07 11:25:28.16	22.64	36.12	-22.7	-23.3	20.1	0.00e+00	0	44	102	1048576	6	3856
2026-01-07 11:25:31.19	21.62	35.72	-22.6	-23.0	20.2	0.00e+00	0	43	102	1048576	6	3795
2026-01-07 11:25:34.19	20.64	35.31	-22.1	-22.6	20.7	0.00e+00	0	44	102	1048576	5	3799
2026-01-07 11:25:37.22	19.67	34.90	-22.3	-23.0	20.5	0.00e+00	0	43	102	1048576	5	3887
2026-01-07 11:25:40.25	18.73	34.49	-22.5	-23.3	20.3	0.00e+00	0	43	102	1048576	5	3964
2026-01-07 11:25:43.27	17.81	34.07	-22.8	-24.1	19.9	0.00e+00	0	43	102	1048576	5	4159
2026-01-07 11:25:46.29	16.92	33.65	-22.6	-23.5	20.2	0.00e+00	0	43	102	1048576	5	4010
2026-01-07 11:25:49.31	16.05	33.22	-22.5	-23.5	20.2	0.00e+00	0	44	102	1048576	5	4001
2026-01-07 11:25:52.33	15.20	32.80	-22.7	-23.8	20.1	0.00e+00	0	44	102	1048576	5	4075
2026-01-07 11:25:55.34	14.38	32.38	-22.5	-23.4	20.2	0.00e+00	0	43	102	1048576	5	3994
2026-01-07 11:25:58.35	13.58	31.95	-22.6	-23.6	20.1	0.00e+00	0	44	102	1048576	5	4028
2026-01-07 11:26:01.38	12.79	31.52	-23.0	-24.0	19.7	0.00e+00	0	43	102	1048576	6	4022
2026-01-07 11:26:04.40	12.03	31.10	-22.7	-23.4	20.0	0.00e+00	0	44	102	1048576	6	3870
2026-01-07 11:26:07.41	11.29	30.68	-22.9	-23.7	19.8	0.00e+00	0	43	102	1048576	6	3958
2026-01-07 11:26:10.44	10.57	30.25	-23.2	-24.3	19.5	0.00e+00	0	44	102	1048576	6	4107
2026-01-07 11:26:13.44	9.87	29.83	-23.3	-24.6	19.4	0.00e+00	0	44	102	1048576	6	4179
2026-01-07 11:26:16.46	9.18	29.41	-23.1	-24.1	19.6	0.00e+00	0	44	102	1048576	6	4043
2026-01-07 11:26:19.48	8.52	28.99	-23.0	-24.0	19.6	0.00e+00	0	44	102	1048576	6	4025
2026-01-07 11:26:22.50	7.87	28.57	-23.1	-24.2	19.6	0.00e+00	0	44	102	1048576	6	4068
2026-01-07 11:26:25.52	7.23	28.16	-23.3	-24.6	19.3	0.00e+00	0	44	102	1048576	6	4171
2026-01-07 11:26:28.54	6.62	27.74	-23.3	-24.5	19.3	0.00e+00	0	44	102	1048576	6	4151
2026-01-07 11:26:31.56	6.02	27.33	-23.4	-24.8	19.2	0.00e+00	0	43	102	1048576	6	4213
2026-01-07 11:26:34.57	5.43	26.93	-23.7	-24.9	18.9	0.00e+00	0	44	102	1048576	7	4129
2026-01-07 11:26:37.60	4.86	26.52	-23.5	-24.4	19.2	0.00e+00	0	43	102	1048576	7	4000
2026-01-07 11:26:40.61	4.31	26.12	-23.6	-24.7	19.0	0.00e+00	0	44	102	1048576	7	4075
2026-01-07 11:26:43.63	3.77	25.72	-23.5	-24.5	19.1	0.00e+00	0	44	102	1048576	7	4025
2026-01-07 11:26:46.65	3.24	25.33	-23.6	-24.7	19.0	0.00e+00	0	43	102	1048576	7	4072
2026-01-07 11:26:49.66	2.72	24.93	-23.4	-24.2	19.2	0.00e+00	0	44	102	1048576	7	3968
2026-01-07 11:26:52.68	2.22	24.55	-23.4	-24.3	19.1	0.00e+00	0	44	102	1048576	7	3989
2026-01-07 11:26:55.71	1.73	24.16	-23.4	-24.2	19.2	0.00e+00	0	44	102	1048576	7	3956
2026-01-07 11:26:58.73	1.25	23.78	-23.4	-24.3	19.0	0.00e+00	0	44	102	1048576	7	3997
2026-01-07 11:27:01.75	0.79	23.40	-23.6	-24.7	18.9	0.00e+00	0	44	102	1048576	7	4075
2026-01-07 11:27:04.77	0.33	23.02	-23.8	-25.0	18.7	0.00e+00	0	44	102	1048576	7	4163
2026-01-07 11:27:07.78	359.89	22.65	-23.7	-24.9	18.8	0.00e+00	0	44	102	1048576	7	4130
2026-01-07 11:27:10.81	359.46	22.28	-23.8	-25.0	18.7	0.00e+00	0	43	102	1048576	7	4168
2026-01-07 11:27:13.83	359.04	21.92	-23.8	-25.0	18.7	0.00e+00	0	44	102	1048576	7	4165
2026-01-07 11:27:16.85	358.62	21.56	-23.7	-25.0	18.8	0.00e+00	0	43	102	1048576	7	4144
2026-01-07 11:27:19.87	358.22	21.20	-24.0	-25.4	18.4	0.00e+00	0	44	102	1048576	7	4267
2026-01-07 11:27:22.88	357.83	20.84	-24.3	-25.7	18.1	0.00e+00	0	44	102	1048576	8	4235
2026-01-07 11:27:25.90	357.45	20.49	-24.5	-25.6	17.9	0.00e+00	0	44	102	1048576	9	4097
2026-01-07 11:27:28.90	357.07	20.15	-24.8	-26.2	17.5	0.00e+00	0	43	102	1048576	9	4246
2026-01-07 11:27:31.92	356.71	19.81	-24.4	-25.4	17.9	0.00e+00	0	44	102	1048576	9	4041
2026-01-07 11:27:34.95	356.35	19.46	-24.6	-25.8	17.7	0.00e+00	0	44	102	1048576	9	4139
2026-01-07 11:27:37.97	356.00	19.13	-24.8	-26.2	17.5	0.00e+00	0	44	102	1048576	9	4245
2026-01-07 11:27:40.99	355.65	18.79	-24.7	-26.0	17.6	0.00e+00	0	44	102	1048576	9	4181
2026-01-07 11:27:44.01	355.32	18.46	-24.7	-26.1	17.5	0.00e+00	0	44	102	1048576	9	4214
2026-01-07 11:27:47.03	354.99	18.14	-24.7	-26.0	17.5	0.00e+00	0	44	102	1048576	9	4189
2026-01-07 11:27:50.05	354.67	17.81	-24.7	-26.0	17.6	0.00e+00	0	44	102	1048576	9	4182
2026-01-07 11:27:53.07	354.36	17.49	-24.8	-26.3	17.4	0.00e+00	0	44	102	1048576	9	4265
2026-01-07 11:27:56.09	354.05	17.18	-25.0	-26.2	17.2	0.00e+00	0	43	102	1048576	10	4141
2026-01-07 11:27:59.12	353.75	16.86	-25.1	-26.4	17.1	0.00e+00	0	44	102	1048576	10	4176
2026-01-07 11:28:02.13	353.46	16.55	-25.1	-26.5	17.0	0.00e+00	0	44	102	1048576	10	4195
2026-01-07 11:28:05.15	353.17	16.25	-25.2	-26.6	16.9	0.00e+00	0	43	102	1048576	10	4237
2026-01-07 11:28:08.17	352.89	15.94	-25.3	-26.9	16.7	0.00e+00	0	44	102	1048576	10	4323
2026-01-07 11:28:11.19	352.61	15.64	-25.4	-27.1	16.6	0.00e+00	0	44	102	1048576	10	4376
2026-01-07 11:28:14.22	352.34	15.34	-25.5	-26.7	16.5	0.00e+00	0	44	102	1048576	11	4159
2026-01-07 11:28:17.24	352.08	15.05	-25.5	-26.8	16.5	0.00e+00	0	44	102	1048576	11	4160
2026-01-07 11:28:20.26	351.82	14.75	-25.5	-26.8	16.5	0.00e+00	0	44	102	1048576	11	4175
2026-01-07 11:28:23.28	351.57	14.46	-25.5	-26.9	16.4	0.00e+00	0	44	102	1048576	11	4189
2026-01-07 11:28:26.30	351.32	14.18	-25.6	-26.9	16.4	0.00e+00	0	44	102	1048576	11	4210
2026-01-07 11:28:29.33	351.07	13.89	-25.7	-27.2	16.2	0.00e+00	0	44	102	1048576	11	4269
2026-01-07 11:28:32.36	350.83	13.61	-25.7	-27.1	16.2	0.00e+00	0	44	102	1048576	11	4265
2026-01-07 11:28:35.38	350.60	13.33	-25.9	-27.6	15.9	0.00e+00	0	44	102	1048576	11	4397
2026-01-07 11:28:38.40	350.37	13.06	-25.8	-27.5	16.0	0.00e+00	0	44	102	1048576	11	4352
2026-01-07 11:28:41.43	350.15	12.78	-26.1	-27.7	15.3	0.00e+00	0	44	102	1048576	12	4324
2026-01-07 11:28:44.44	349.93	12.51	-25.9	-27.3	15.5	0.00e+00	0	44	102	1048576	12	4213
2026-01-07 11:28:47.46	349.71	12.25	-26.0	-27.4	15.6	0.00e+00	0	44	102	1048576	12	4239
2026-01-07 11:28:50.48	349.50	11.98	-26.1	-27.7	15.5	0.00e+00	0	44	102	1048576	12	4316
2026-01-07 11:28:53.49	349.29	11.72	-26.2	-27.9	15.4	0.00e+00	0	44	102	1048576	12	4371
2026-01-07 11:28:56.52	349.08	11.46	-26.3	-28.0	15.0	0.00e+00	0	44	102	1048576	12	4400
2026-01-07 11:28:59.53	348.88	11.20	-26.1	-27.7	15.1	0.00e+00	0	44	102	1048576	12	4324
2026-01-07 11:29:02.54	348.69	10.95	-26.4	-28.3	14.9	0.00e+00	0	44	102	1048576	12	4480
2026-01-07 11:29:05.57	348.49	10.69	-26.4	-28.3	15.0	0.00e+00	0	43	102	1048576	12	4493
2026-01-07 11:29:08.59	348.30	10.44	-26.5	-28.1	14.9	0.00e+00	0	44	102	1048576	13	4302
2026-01-07 11:29:11.60	348.12	10.19	-26.2	-27.3	15.3	0.00e+00	0	44	102	1048576	13	4096
2026-01-07 11:29:14.62	347.93	9.95	-26.3	-27.6	15.2	0.00e+00	0	44	102	1048576	13	4166
2026-01-07 11:29:17.64	347.75	9.70	-26.3	-27.6	15.1	0.00e+00	0	44	102	1048576	13	4180
2026-01-07 11:29:20.67	347.58	9.46	-26.3	-27.7	14.6	0.00e+00	0	44	102	1048576	13	4212
2026-01-07 11:29:23.69	347.40	9.22	-26.3	-27.7	13.8	2.20e-06	0	44	102	1048576	13	4207
2026-01-07 11:29:26.71	347.23	8.98	-26.4	-28.0	13.6	1.10e-06	0	44	102	1048576	13	4304
2026-01-07 11:29:29.73	347.06	8.74	-26.7	-28.6	13.7	2.20e-06	0	44	102	1048576	13	4477
2026-01-07 11:29:32.74	346.90	8.51	-26.8	-28.7	13.9	0.00e+00	0	44	102	1048576	13	4510
2026-01-07 11:29:35.76	346.74	8.28	-26.9	-28.5	14.0	1.10e-06	0	44	102	1048576	14	4317
2026-01-07 11:29:38.77	346.58	8.05	-26.8	-28.3	14.3	0.00e+00	0	44	102	1048576	14	4278
2026-01-07 11:29:41.79	346.42	7.82	-27.0	-28.8	13.9	1.10e-06	0	44	102	1048576	14	4422
2026-01-07 11:29:44.81	346.27	7.59	-27.1	-29.1	13.1	1.02e-05	0	44	102	1048576	14	4503
2026-01-07 11:29:47.82	346.12	7.37	-27.2	-29.3	12.5	7.43e-05	0	44	102	1048576	14	4580
2026-01-07 11:29:50.83	345.97	7.14	-27.1	-28.6	12.1	1.70e-04	0	44	102	1048576	15	4274
2026-01-07 11:29:53.85	345.82	6.92	-33.4	-44.7	3.8	8.46e-01	0	44	104	1048576	26	13097

#Closed at: 2026-01-07 11:29:53
#Recorded file [1 MB]: D:/data/31010_260107_141830.dat