passes_logs/2026/01/07/R2M6_AANII_01/R2M6_AANII_01__20260107_012519_FENGYUN_3D_rec.log

#Pass ID: 20260107_012519_FENGYUN 3D
#Satellite: FENGYUN 3D
#Configuration: FENGYUN 3D
#almurnet v.1.7.20240730
#Start time: 2026-01-07 01:25:20

#Version: 2.2.20231116
#Station: R2M6_AANII_01
#Location: 30.233357 lon 59.946436 lat
#TLE: 1 43010U 17072A   26006.26440730  .00000376  00000+0  19957-3 0  9994
#TLE: 2 43010  98.9925 337.9455 0002045 123.9195 236.2175 14.19693586422016

#Time	Az	El	Level	Level2	SNR	BER	BlckErr	Temp	State	Recorded	gain1	gain2
2026-01-07 01:25:20.39	24.87	7.07	-28.0	-30.9	5.6	7.73e-01	0	41	0	0	15	5011
2026-01-07 01:25:23.39	25.05	7.28	-29.1	-32.2	10.3	8.69e-03	0	41	102	1048576	18	5108
2026-01-07 01:25:26.41	25.23	7.50	-28.0	-30.7	12.0	7.36e-04	0	41	102	1048576	15	4930
2026-01-07 01:25:29.42	25.42	7.72	-28.3	-31.1	11.6	2.17e-03	0	42	102	1048576	16	4937
2026-01-07 01:25:32.44	25.61	7.94	-27.4	-29.8	12.9	1.29e-03	0	42	102	1048576	14	4747
2026-01-07 01:25:35.46	25.80	8.17	-27.0	-29.0	13.4	3.52e-04	0	42	102	1048576	14	4497
2026-01-07 01:25:38.47	25.99	8.39	-27.7	-30.0	12.5	1.03e-03	0	42	102	1048576	15	4703
2026-01-07 01:25:41.49	26.19	8.62	-27.0	-28.9	13.5	7.32e-04	0	42	102	1048576	14	4476
2026-01-07 01:25:44.52	26.39	8.85	-26.5	-28.3	14.1	9.65e-04	0	42	102	1048576	13	4419
2026-01-07 01:25:47.54	26.59	9.08	-26.7	-28.6	14.0	8.89e-04	0	42	102	1048576	13	4491
2026-01-07 01:25:50.56	26.80	9.31	-26.4	-28.6	14.3	1.12e-03	0	42	102	1048576	12	4609
2026-01-07 01:25:53.57	27.01	9.54	-26.1	-27.9	14.7	0.00e+00	0	42	102	1048576	12	4405
2026-01-07 01:25:56.60	27.22	9.78	-26.0	-27.6	14.9	0.00e+00	0	42	102	1048576	12	4327
2026-01-07 01:25:59.62	27.43	10.02	-26.1	-27.8	14.7	6.26e-04	0	42	102	1048576	12	4379
2026-01-07 01:26:02.65	27.65	10.26	-26.2	-28.0	14.7	1.10e-06	0	42	102	1048576	12	4418
2026-01-07 01:26:05.65	27.87	10.50	-25.9	-27.4	15.0	0.00e+00	0	42	102	1048576	12	4265
2026-01-07 01:26:08.68	28.10	10.75	-26.0	-27.4	15.0	7.09e-04	0	43	102	1048576	12	4273
2026-01-07 01:26:11.70	28.33	11.00	-25.7	-27.4	15.4	0.00e+00	0	42	102	1048576	11	4363
2026-01-07 01:26:14.71	28.56	11.24	-25.4	-27.2	15.8	0.00e+00	0	42	102	1048576	10	4417
2026-01-07 01:26:17.73	28.80	11.50	-25.4	-27.2	15.8	0.00e+00	0	43	102	1048576	10	4427
2026-01-07 01:26:20.75	29.04	11.75	-25.4	-27.1	15.9	0.00e+00	0	43	102	1048576	10	4397
2026-01-07 01:26:23.78	29.28	12.01	-25.3	-27.0	15.9	0.00e+00	0	43	102	1048576	10	4379
2026-01-07 01:26:26.79	29.53	12.26	-25.2	-26.8	16.1	0.00e+00	0	43	102	1048576	10	4313
2026-01-07 01:26:29.80	29.78	12.52	-25.3	-26.9	16.0	0.00e+00	0	42	102	1048576	10	4335
2026-01-07 01:26:32.83	30.04	12.78	-25.4	-27.2	15.9	0.00e+00	0	43	102	1048576	10	4414
2026-01-07 01:26:35.85	30.30	13.05	-25.0	-26.3	16.4	0.00e+00	0	43	102	1048576	10	4180
2026-01-07 01:26:38.87	30.57	13.32	-25.1	-26.6	16.2	0.00e+00	0	43	102	1048576	10	4254
2026-01-07 01:26:41.89	30.84	13.59	-25.2	-26.8	16.1	2.30e-04	0	43	102	1048576	10	4317
2026-01-07 01:26:44.91	31.11	13.86	-25.1	-26.5	16.3	1.02e-05	0	43	102	1048576	10	4223
2026-01-07 01:26:47.93	31.39	14.13	-25.0	-26.3	16.4	1.14e-05	0	43	102	1048576	10	4187
2026-01-07 01:26:50.95	31.68	14.41	-24.9	-26.5	16.5	1.82e-04	0	43	102	1048576	9	4358
2026-01-07 01:26:53.97	31.97	14.69	-24.8	-26.3	16.7	2.97e-04	0	43	102	1048576	9	4278
2026-01-07 01:26:56.98	32.26	14.97	-24.9	-26.6	16.5	3.64e-04	0	43	102	1048576	9	4362
2026-01-07 01:27:00.00	32.56	15.26	-24.8	-26.3	16.7	0.00e+00	0	43	102	1048576	9	4298
2026-01-07 01:27:03.01	32.87	15.54	-24.7	-26.2	16.7	2.89e-04	0	43	102	1048576	9	4273
2026-01-07 01:27:06.03	33.18	15.83	-24.7	-26.2	16.8	2.14e-04	0	43	102	1048576	9	4270
2026-01-07 01:27:09.05	33.50	16.13	-24.7	-26.2	16.8	0.00e+00	0	43	102	1048576	9	4257
2026-01-07 01:27:12.07	33.82	16.42	-25.1	-26.4	16.4	0.00e+00	0	43	102	1048576	10	4206
2026-01-07 01:27:15.10	34.15	16.72	-24.7	-26.2	16.8	0.00e+00	0	43	102	1048576	9	4264
2026-01-07 01:27:18.12	34.49	17.02	-24.4	-25.5	17.2	0.00e+00	0	43	102	1048576	9	4073
2026-01-07 01:27:21.13	34.83	17.33	-24.3	-25.7	17.4	0.00e+00	0	43	102	1048576	8	4235
2026-01-07 01:27:24.14	35.18	17.63	-24.2	-25.5	17.5	0.00e+00	0	43	102	1048576	8	4194
2026-01-07 01:27:27.16	35.53	17.94	-24.2	-25.6	17.4	0.00e+00	0	43	102	1048576	8	4223
2026-01-07 01:27:30.17	35.90	18.26	-24.2	-25.6	17.4	0.00e+00	0	43	102	1048576	8	4225
2026-01-07 01:27:33.18	36.27	18.57	-24.4	-25.9	17.3	0.00e+00	0	43	102	1048576	8	4300
2026-01-07 01:27:36.20	36.64	18.89	-24.1	-25.4	17.6	0.00e+00	0	43	102	1048576	8	4156
2026-01-07 01:27:39.22	37.03	19.21	-24.0	-25.2	17.7	0.00e+00	0	43	102	1048576	8	4116
2026-01-07 01:27:42.24	37.43	19.54	-23.8	-24.8	17.9	0.00e+00	0	43	102	1048576	8	4010
2026-01-07 01:27:45.26	37.83	19.86	-23.7	-24.5	18.1	0.00e+00	0	43	102	1048576	8	3950
2026-01-07 01:27:48.27	38.24	20.19	-23.7	-24.4	18.1	0.00e+00	0	43	102	1048576	8	3927
2026-01-07 01:27:51.29	38.66	20.53	-23.6	-24.2	18.2	0.00e+00	0	43	102	1048576	8	3866
2026-01-07 01:27:54.31	39.09	20.86	-23.5	-24.1	18.3	0.00e+00	0	43	102	1048576	8	3851
2026-01-07 01:27:57.33	39.52	21.20	-23.4	-23.9	18.5	0.00e+00	0	43	102	1048576	8	3791
2026-01-07 01:28:00.34	39.97	21.55	-23.5	-24.1	18.3	0.00e+00	0	43	102	1048576	8	3847
2026-01-07 01:28:03.36	40.43	21.89	-23.5	-24.0	18.4	0.00e+00	0	43	102	1048576	8	3816
2026-01-07 01:28:06.37	40.89	22.24	-23.5	-24.0	18.4	0.00e+00	0	44	102	1048576	8	3817
2026-01-07 01:28:09.39	41.37	22.59	-23.2	-24.0	18.6	0.00e+00	0	43	102	1048576	7	3930
2026-01-07 01:28:12.41	41.86	22.95	-23.0	-23.6	18.9	0.00e+00	0	44	102	1048576	7	3827
2026-01-07 01:28:15.43	42.36	23.30	-22.9	-23.3	19.0	0.00e+00	0	43	102	1048576	7	3766
2026-01-07 01:28:18.45	42.87	23.66	-22.8	-23.2	19.1	0.00e+00	0	43	102	1048576	7	3739
2026-01-07 01:28:21.47	43.39	24.03	-22.9	-23.3	19.0	0.00e+00	0	43	102	1048576	7	3765
2026-01-07 01:28:24.50	43.92	24.39	-23.0	-23.6	18.9	0.00e+00	0	43	102	1048576	7	3824
2026-01-07 01:28:27.51	44.47	24.76	-22.9	-23.3	19.0	0.00e+00	0	43	102	1048576	7	3769
2026-01-07 01:28:30.53	45.03	25.13	-22.8	-23.5	19.2	0.00e+00	0	43	102	1048576	6	3919
2026-01-07 01:28:33.55	45.60	25.50	-22.9	-23.8	19.1	0.00e+00	0	43	102	1048576	6	3981
2026-01-07 01:28:36.56	46.18	25.88	-22.9	-23.7	19.1	0.00e+00	0	43	102	1048576	6	3970
2026-01-07 01:28:39.58	46.78	26.26	-22.8	-23.5	19.3	0.00e+00	0	44	102	1048576	6	3908
2026-01-07 01:28:42.59	47.39	26.63	-22.6	-23.2	19.4	0.00e+00	0	43	102	1048576	6	3855
2026-01-07 01:28:45.62	48.02	27.02	-22.8	-23.7	19.2	0.00e+00	0	44	102	1048576	6	3952
2026-01-07 01:28:48.63	48.66	27.40	-23.0	-23.9	19.0	0.00e+00	0	44	102	1048576	6	4018
2026-01-07 01:28:51.66	49.32	27.79	-22.9	-23.8	19.1	0.00e+00	0	44	102	1048576	6	3993
2026-01-07 01:28:54.67	49.99	28.17	-22.9	-23.9	19.1	0.00e+00	0	43	102	1048576	6	3999
2026-01-07 01:28:57.70	50.68	28.56	-22.3	-22.6	19.7	0.00e+00	0	44	102	1048576	6	3710
2026-01-07 01:29:00.72	51.39	28.95	-22.3	-22.9	19.8	0.00e+00	0	44	102	1048576	5	3894
2026-01-07 01:29:03.74	52.11	29.34	-22.4	-23.2	19.7	0.00e+00	0	44	102	1048576	5	3944
2026-01-07 01:29:06.76	52.85	29.73	-22.2	-22.8	19.9	0.00e+00	0	44	102	1048576	5	3856
2026-01-07 01:29:09.78	53.61	30.12	-22.4	-23.2	19.7	0.00e+00	0	43	102	1048576	5	3944
2026-01-07 01:29:12.80	54.39	30.51	-22.4	-23.2	19.7	0.00e+00	0	43	102	1048576	5	3958
2026-01-07 01:29:15.82	55.18	30.90	-22.1	-22.6	20.1	0.00e+00	0	43	102	1048576	5	3804
2026-01-07 01:29:18.84	56.00	31.28	-22.1	-22.6	20.0	0.00e+00	0	43	102	1048576	5	3806
2026-01-07 01:29:21.87	56.83	31.67	-22.3	-23.1	19.8	0.00e+00	0	43	102	1048576	5	3923
2026-01-07 01:29:24.89	57.69	32.06	-22.0	-22.9	20.2	0.00e+00	0	43	102	1048576	4	3976
2026-01-07 01:29:27.91	58.56	32.44	-22.4	-23.8	19.7	0.00e+00	0	43	102	1048576	4	4216
2026-01-07 01:29:30.92	59.45	32.82	-22.5	-23.5	19.6	3.13e-04	0	44	102	1048576	5	4030
2026-01-07 01:29:33.94	60.37	33.20	-22.4	-23.2	19.8	0.00e+00	0	44	102	1048576	5	3943
2026-01-07 01:29:36.94	61.30	33.57	-22.4	-23.1	19.8	2.18e-04	0	44	102	1048576	5	3934
2026-01-07 01:29:39.97	62.26	33.94	-22.2	-22.9	19.9	1.44e-04	0	44	102	1048576	5	3873
2026-01-07 01:29:42.99	63.24	34.31	-22.0	-22.4	20.2	5.72e-05	0	44	102	1048576	5	3763
2026-01-07 01:29:46.01	64.24	34.67	-22.1	-22.5	20.1	1.36e-04	0	44	102	1048576	5	3789
2026-01-07 01:29:49.03	65.26	35.03	-22.3	-23.0	19.9	1.65e-04	0	44	102	1048576	5	3892
2026-01-07 01:29:52.06	66.31	35.38	-22.2	-22.7	20.1	1.29e-04	0	44	102	1048576	5	3838
2026-01-07 01:29:55.08	67.38	35.72	-22.1	-22.6	20.1	0.00e+00	0	43	102	1048576	5	3812
2026-01-07 01:29:58.10	68.47	36.06	-22.2	-22.9	20.0	5.60e-05	0	43	102	1048576	5	3883
2026-01-07 01:30:01.12	69.58	36.38	-22.1	-22.7	19.9	0.00e+00	0	43	102	1048576	5	3843
2026-01-07 01:30:04.14	70.71	36.70	-22.3	-23.0	19.7	0.00e+00	0	44	102	1048576	5	3913
2026-01-07 01:30:07.15	71.87	37.01	-22.0	-22.5	20.0	0.00e+00	0	43	102	1048576	5	3812
2026-01-07 01:30:10.18	73.05	37.31	-21.7	-22.3	20.3	0.00e+00	0	44	102	1048576	4	3873
2026-01-07 01:30:13.21	74.25	37.60	-21.8	-22.5	20.2	0.00e+00	0	44	102	1048576	4	3907
2026-01-07 01:30:16.22	75.46	37.87	-21.7	-22.3	20.3	0.00e+00	0	44	102	1048576	4	3858
2026-01-07 01:30:19.23	76.70	38.14	-21.8	-22.5	20.2	0.00e+00	0	44	102	1048576	4	3916
2026-01-07 01:30:22.26	77.96	38.39	-21.9	-22.6	20.1	0.00e+00	0	44	102	1048576	4	3941
2026-01-07 01:30:25.28	79.24	38.63	-21.8	-22.5	20.2	0.00e+00	0	43	102	1048576	4	3919
2026-01-07 01:30:28.30	80.54	38.85	-22.2	-23.3	19.9	0.00e+00	0	44	102	1048576	4	4112
2026-01-07 01:30:31.31	81.85	39.06	-21.7	-22.2	20.4	0.00e+00	0	44	102	1048576	4	3847
2026-01-07 01:30:34.33	83.17	39.25	-21.8	-22.6	20.2	0.00e+00	0	44	102	1048576	4	3941
2026-01-07 01:30:37.35	84.52	39.42	-21.9	-22.8	20.1	0.00e+00	0	44	102	1048576	4	3966
2026-01-07 01:30:40.37	85.88	39.58	-21.6	-22.2	20.4	0.00e+00	0	44	102	1048576	4	3835
2026-01-07 01:30:43.39	87.25	39.73	-21.7	-22.4	20.3	0.00e+00	0	44	102	1048576	4	3874
2026-01-07 01:30:46.41	88.63	39.85	-22.0	-23.0	20.0	0.00e+00	0	44	102	1048576	4	4040
2026-01-07 01:30:49.43	90.02	39.96	-21.9	-22.7	20.1	0.00e+00	0	44	102	1048576	4	3965
2026-01-07 01:30:52.45	91.42	40.05	-21.9	-22.7	20.2	8.81e-05	0	44	102	1048576	4	3960
2026-01-07 01:30:55.47	92.83	40.11	-21.9	-22.7	20.2	0.00e+00	0	43	102	1048576	4	3963
2026-01-07 01:30:58.49	94.24	40.16	-22.1	-23.1	20.0	5.26e-05	0	44	102	1048576	4	4052
2026-01-07 01:31:01.51	95.66	40.20	-21.8	-22.5	20.3	3.08e-05	0	43	102	1048576	4	3895
2026-01-07 01:31:04.54	97.08	40.21	-21.9	-22.8	20.1	6.40e-05	0	44	102	1048576	4	3974
2026-01-07 01:31:07.56	98.50	40.20	-22.0	-22.9	20.1	1.86e-04	0	44	102	1048576	4	4000
2026-01-07 01:31:10.57	99.91	40.17	-22.0	-23.0	20.0	0.00e+00	0	44	102	1048576	4	4026
2026-01-07 01:31:13.59	101.33	40.13	-22.0	-22.9	20.1	8.69e-05	0	44	102	1048576	4	4006
2026-01-07 01:31:16.61	102.74	40.06	-22.0	-23.0	20.1	0.00e+00	0	43	102	1048576	4	4020
2026-01-07 01:31:19.63	104.14	39.98	-22.2	-23.4	19.9	0.00e+00	0	44	102	1048576	4	4126
2026-01-07 01:31:22.66	105.54	39.87	-22.1	-23.2	19.9	0.00e+00	0	44	102	1048576	4	4087
2026-01-07 01:31:25.68	106.93	39.75	-22.6	-23.6	19.5	0.00e+00	0	44	102	1048576	5	4062
2026-01-07 01:31:28.70	108.30	39.62	-22.7	-24.0	19.4	0.00e+00	0	43	102	1048576	5	4149
2026-01-07 01:31:31.72	109.67	39.46	-22.6	-23.1	19.6	0.00e+00	0	44	102	1048576	6	3833
2026-01-07 01:31:34.75	111.02	39.29	-22.0	-22.5	20.1	0.00e+00	0	44	102	1048576	5	3794
2026-01-07 01:31:37.76	112.35	39.10	-22.1	-22.7	20.0	0.00e+00	0	43	102	1048576	5	3845
2026-01-07 01:31:40.78	113.67	38.89	-22.3	-23.2	19.7	0.00e+00	0	44	102	1048576	5	3964
2026-01-07 01:31:43.80	114.97	38.67	-22.0	-22.4	20.1	0.00e+00	0	44	102	1048576	5	3775
2026-01-07 01:31:46.82	116.26	38.44	-22.2	-22.9	19.9	0.00e+00	0	43	102	1048576	5	3893
2026-01-07 01:31:49.84	117.52	38.19	-22.1	-22.7	19.9	0.00e+00	0	44	102	1048576	5	3840
2026-01-07 01:31:52.85	118.76	37.93	-22.0	-22.5	20.1	0.00e+00	0	44	102	1048576	5	3803
2026-01-07 01:31:55.86	119.99	37.65	-22.0	-22.5	20.0	0.00e+00	0	44	102	1048576	5	3806
2026-01-07 01:31:58.88	121.19	37.37	-22.0	-22.4	20.1	0.00e+00	0	43	102	1048576	5	3780
2026-01-07 01:32:01.89	122.37	37.07	-22.2	-22.8	19.9	0.00e+00	0	44	102	1048576	5	3872
2026-01-07 01:32:04.92	123.54	36.76	-22.1	-22.7	19.9	0.00e+00	0	44	102	1048576	5	3844
2026-01-07 01:32:07.94	124.68	36.44	-22.0	-22.5	20.0	0.00e+00	0	43	102	1048576	5	3805
2026-01-07 01:32:10.96	125.80	36.11	-22.0	-22.4	20.1	0.00e+00	0	44	102	1048576	5	3774
2026-01-07 01:32:13.98	126.90	35.78	-22.0	-23.0	20.0	0.00e+00	0	44	102	1048576	4	4021
2026-01-07 01:32:17.00	127.98	35.44	-22.3	-23.6	19.7	0.00e+00	0	44	102	1048576	4	4194
2026-01-07 01:32:20.03	129.03	35.09	-22.3	-23.6	19.7	0.00e+00	0	44	102	1048576	4	4178
2026-01-07 01:32:23.04	130.06	34.73	-22.5	-23.9	19.5	0.00e+00	0	44	102	1048576	4	4264
2026-01-07 01:32:26.06	131.07	34.37	-23.0	-24.5	19.0	0.00e+00	0	44	102	1048576	5	4295
2026-01-07 01:32:29.08	132.06	34.00	-22.3	-23.1	19.6	0.00e+00	0	44	102	1048576	5	3957
2026-01-07 01:32:32.09	133.02	33.63	-22.4	-23.4	19.5	0.00e+00	0	43	102	1048576	5	4015
2026-01-07 01:32:35.11	133.96	33.25	-22.5	-23.5	19.5	0.00e+00	0	44	102	1048576	5	4036
2026-01-07 01:32:38.12	134.88	32.87	-22.5	-23.4	19.5	3.40e-06	0	44	102	1048576	5	4034
2026-01-07 01:32:41.14	135.78	32.49	-22.3	-23.0	19.7	0.00e+00	0	44	102	1048576	5	3930
2026-01-07 01:32:44.16	136.66	32.10	-22.6	-23.6	19.4	0.00e+00	0	44	102	1048576	5	4063
2026-01-07 01:32:47.18	137.52	31.72	-22.6	-23.6	19.4	0.00e+00	0	44	102	1048576	5	4074
2026-01-07 01:32:50.20	138.36	31.33	-22.8	-24.1	19.1	0.00e+00	0	44	102	1048576	5	4200
2026-01-07 01:32:53.22	139.18	30.94	-22.5	-23.5	19.5	0.00e+00	0	44	102	1048576	5	4036
2026-01-07 01:32:56.24	139.99	30.55	-22.5	-23.5	19.4	0.00e+00	0	44	102	1048576	5	4047
2026-01-07 01:32:59.26	140.77	30.15	-23.0	-24.5	18.9	0.00e+00	0	44	102	1048576	5	4303
2026-01-07 01:33:02.29	141.54	29.76	-23.1	-24.3	18.8	0.00e+00	0	44	102	1048576	6	4117
2026-01-07 01:33:05.31	142.28	29.37	-22.9	-23.8	19.0	0.00e+00	0	44	102	1048576	6	4013
2026-01-07 01:33:08.33	143.01	28.98	-22.9	-23.9	19.0	0.00e+00	0	44	102	1048576	6	4032
2026-01-07 01:33:11.35	143.72	28.58	-22.9	-24.0	19.0	0.00e+00	0	44	102	1048576	6	4047
2026-01-07 01:33:14.36	144.41	28.19	-22.9	-23.9	19.0	0.00e+00	0	43	102	1048576	6	4029
2026-01-07 01:33:17.38	145.09	27.81	-22.9	-23.8	19.0	0.00e+00	0	44	102	1048576	6	3995
2026-01-07 01:33:20.40	145.76	27.42	-22.9	-24.0	18.9	0.00e+00	0	44	102	1048576	6	4043
2026-01-07 01:33:23.42	146.40	27.03	-23.0	-24.1	18.9	0.00e+00	0	43	102	1048576	6	4076
2026-01-07 01:33:26.45	147.04	26.65	-22.8	-23.6	19.1	0.00e+00	0	44	102	1048576	6	3960
2026-01-07 01:33:29.47	147.65	26.26	-22.8	-23.7	19.0	0.00e+00	0	44	102	1048576	6	3969
2026-01-07 01:33:32.49	148.26	25.88	-22.9	-23.9	18.9	0.00e+00	0	44	102	1048576	6	4031
2026-01-07 01:33:35.51	148.85	25.50	-23.1	-24.3	18.7	1.31e-03	0	43	102	1048576	6	4136
2026-01-07 01:33:38.53	149.42	25.13	-23.2	-24.4	18.6	5.00e-04	0	44	102	1048576	6	4164
2026-01-07 01:33:41.53	149.98	24.76	-23.2	-24.5	18.6	0.00e+00	0	44	102	1048576	6	4187
2026-01-07 01:33:44.55	150.53	24.38	-23.3	-24.7	18.5	1.23e-03	0	44	102	1048576	6	4227
2026-01-07 01:33:47.57	151.07	24.02	-23.2	-24.5	18.6	1.31e-03	0	44	102	1048576	6	4177
2026-01-07 01:33:50.59	151.59	23.65	-23.3	-24.6	18.5	1.12e-03	0	43	102	1048576	6	4213
2026-01-07 01:33:53.61	152.10	23.29	-23.3	-24.7	18.4	1.20e-03	0	44	102	1048576	6	4242
2026-01-07 01:33:56.62	152.60	22.93	-23.5	-25.0	18.2	1.19e-03	0	43	102	1048576	6	4314
2026-01-07 01:33:59.64	153.10	22.57	-23.7	-25.0	18.0	1.15e-03	0	44	102	1048576	7	4208
2026-01-07 01:34:02.66	153.58	22.22	-23.9	-25.5	17.7	0.00e+00	0	43	102	1048576	7	4339
2026-01-07 01:34:05.68	154.04	21.86	-23.9	-24.9	17.8	1.08e-03	0	44	102	1048576	8	4058
2026-01-07 01:34:08.70	154.50	21.51	-23.8	-24.8	17.9	0.00e+00	0	44	102	1048576	8	4029
2026-01-07 01:34:11.72	154.95	21.17	-23.8	-24.7	17.9	0.00e+00	0	44	102	1048576	8	4008
2026-01-07 01:34:14.75	155.39	20.83	-23.9	-25.0	17.7	0.00e+00	0	44	102	1048576	8	4085
2026-01-07 01:34:17.76	155.82	20.49	-24.2	-25.6	17.4	0.00e+00	0	43	102	1048576	8	4248
2026-01-07 01:34:20.79	156.25	20.15	-24.5	-26.2	17.1	0.00e+00	0	44	102	1048576	8	4402
2026-01-07 01:34:23.80	156.66	19.82	-24.2	-25.6	17.4	0.00e+00	0	44	102	1048576	8	4251
2026-01-07 01:34:26.82	157.06	19.49	-24.2	-25.5	17.5	1.12e-04	0	44	102	1048576	8	4213
2026-01-07 01:34:29.84	157.46	19.16	-24.2	-25.6	17.5	1.02e-05	0	44	102	1048576	8	4237
2026-01-07 01:34:32.86	157.84	18.83	-24.3	-25.7	17.4	0.00e+00	0	43	102	1048576	8	4269
2026-01-07 01:34:35.88	158.22	18.51	-24.3	-25.9	17.2	0.00e+00	0	44	102	1048576	8	4309
2026-01-07 01:34:38.88	158.59	18.19	-24.3	-25.9	17.2	0.00e+00	0	44	102	1048576	8	4319
2026-01-07 01:34:41.90	158.96	17.88	-24.6	-26.1	16.9	0.00e+00	0	44	102	1048576	9	4243
2026-01-07 01:34:44.91	159.31	17.57	-24.7	-26.2	16.8	0.00e+00	0	44	102	1048576	9	4293
2026-01-07 01:34:47.93	159.66	17.26	-24.9	-26.6	16.6	0.00e+00	0	44	102	1048576	9	4378
2026-01-07 01:34:50.95	160.01	16.95	-25.0	-26.4	16.4	0.00e+00	0	44	102	1048576	10	4223
2026-01-07 01:34:53.97	160.34	16.65	-25.1	-26.7	16.3	0.00e+00	0	43	102	1048576	10	4293
2026-01-07 01:34:56.98	160.67	16.35	-24.9	-26.1	16.6	0.00e+00	0	44	102	1048576	10	4151
2026-01-07 01:35:00.00	161.00	16.05	-25.1	-26.5	16.3	1.40e-03	0	44	102	1048576	10	4259
2026-01-07 01:35:03.01	161.32	15.75	-25.0	-26.4	16.4	0.00e+00	0	44	102	1048576	10	4232
2026-01-07 01:35:06.04	161.63	15.46	-25.3	-27.1	16.0	0.00e+00	0	44	102	1048576	10	4411
2026-01-07 01:35:09.05	161.93	15.17	-25.3	-27.1	16.0	1.46e-03	0	44	102	1048576	10	4412
2026-01-07 01:35:12.07	162.23	14.88	-25.3	-27.1	16.0	1.57e-03	0	44	102	1048576	10	4426
2026-01-07 01:35:15.09	162.53	14.60	-25.3	-27.1	15.9	0.00e+00	0	44	102	1048576	10	4430
2026-01-07 01:35:18.11	162.82	14.32	-25.5	-26.9	15.8	1.47e-03	0	44	102	1048576	11	4245
2026-01-07 01:35:21.13	163.10	14.04	-25.5	-26.9	15.8	1.62e-03	0	44	102	1048576	11	4248
2026-01-07 01:35:24.15	163.38	13.76	-25.6	-27.2	15.6	1.37e-05	0	44	102	1048576	11	4328
2026-01-07 01:35:27.18	163.66	13.49	-25.5	-27.0	15.7	1.43e-03	0	44	102	1048576	11	4268
2026-01-07 01:35:30.19	163.93	13.21	-25.8	-27.7	15.3	1.56e-03	0	44	102	1048576	11	4478
2026-01-07 01:35:33.21	164.19	12.95	-25.9	-27.8	15.2	1.02e-05	0	44	102	1048576	11	4515
2026-01-07 01:35:36.23	164.45	12.68	-25.9	-27.9	15.2	1.25e-05	0	44	102	1048576	11	4529
2026-01-07 01:35:39.25	164.71	12.41	-25.9	-27.4	15.1	1.59e-03	0	43	102	1048576	12	4289
2026-01-07 01:35:42.26	164.96	12.15	-25.9	-28.0	15.1	1.37e-05	0	44	102	1048576	11	4545
2026-01-07 01:35:45.27	165.21	11.89	-26.4	-28.5	14.5	1.25e-05	0	44	102	1048576	12	4579
2026-01-07 01:35:48.29	165.45	11.64	-25.9	-28.0	15.1	1.37e-05	0	44	102	1048576	11	4558
2026-01-07 01:35:51.31	165.69	11.38	-26.0	-28.1	15.1	0.00e+00	0	44	102	1048576	11	4578
2026-01-07 01:35:54.32	165.92	11.13	-25.4	-27.0	14.8	0.00e+00	0	43	102	1048576	12	4306
2026-01-07 01:35:57.34	166.16	10.88	-26.1	-27.8	14.8	3.62e-04	0	44	102	1048576	12	4399
2026-01-07 01:36:00.36	166.38	10.63	-26.2	-28.1	14.6	3.40e-06	0	44	102	1048576	12	4485
2026-01-07 01:36:03.38	166.61	10.38	-26.0	-27.7	14.9	0.00e+00	0	43	102	1048576	12	4359
2026-01-07 01:36:06.41	166.83	10.14	-26.1	-28.0	14.7	6.80e-04	0	43	102	1048576	12	4442
2026-01-07 01:36:09.42	167.05	9.89	-26.0	-27.7	14.8	7.53e-04	0	44	102	1048576	12	4380
2026-01-07 01:36:12.45	167.26	9.65	-26.2	-28.2	14.5	1.10e-06	0	44	102	1048576	12	4494
2026-01-07 01:36:15.46	167.47	9.42	-26.3	-28.3	14.4	5.48e-04	0	44	102	1048576	12	4543
2026-01-07 01:36:18.48	167.68	9.18	-26.4	-28.6	14.2	4.32e-04	0	44	102	1048576	12	4646
2026-01-07 01:36:21.50	167.88	8.94	-26.1	-28.4	13.7	3.87e-04	0	44	102	1048576	13	4659
2026-01-07 01:36:24.52	168.08	8.71	-26.7	-28.8	13.8	4.42e-04	0	44	102	1048576	13	4571
2026-01-07 01:36:27.53	168.28	8.48	-26.7	-28.9	13.8	5.13e-04	0	44	102	1048576	13	4605
2026-01-07 01:36:30.55	168.47	8.25	-26.8	-28.9	13.7	7.28e-04	0	44	102	1048576	13	4630
2026-01-07 01:36:33.58	168.67	8.02	-27.3	-29.6	13.0	1.83e-04	0	44	102	1048576	14	4714
2026-01-07 01:36:36.60	168.86	7.80	-27.3	-29.7	13.0	6.61e-04	0	44	102	1048576	14	4736
2026-01-07 01:36:39.61	169.04	7.58	-27.4	-30.0	12.8	2.39e-04	0	44	102	1048576	14	4834
2026-01-07 01:36:42.62	169.23	7.36	-27.0	-29.1	13.3	1.23e-04	0	44	102	1048576	14	4560
2026-01-07 01:36:45.64	169.41	7.14	-26.9	-29.3	13.4	4.67e-04	0	44	102	1048576	13	4723
2026-01-07 01:36:48.67	169.59	6.92	-32.9	-44.3	3.8	8.47e-01	0	44	104	1048576	25	13362

#Closed at: 2026-01-07 01:36:48
#Recorded file [1 MB]: D:/data/31010_260107_042522.dat