passes_logs/2026/01/07/R2M6_AANII_01/R2M6_AANII_01__20260107_063230_FENGYUN_3E_rec.log

#Pass ID: 20260107_063230_FENGYUN 3E
#Satellite: FENGYUN 3E
#Configuration: FENGYUN 3E
#almurnet v.1.7.20240730
#Start time: 2026-01-07 06:32:29

#Version: 2.2.20231116
#Station: R2M6_AANII_01
#Location: 30.233357 lon 59.946436 lat
#TLE: 1 49008U 21062A   26006.26767912  .00000427  00000+0  22170-3 0  9993
#TLE: 2 49008  98.7475  11.4982 0001602 156.1158 204.0093 14.19885456233607

#Time	Az	El	Level	Level2	SNR	BER	BlckErr	Temp	State	Recorded	gain1	gain2
2026-01-07 06:32:29.96	10.32	6.99	-30.4	-33.7	4.8	8.02e-01	0	41	0	0	21	5241
2026-01-07 06:32:32.98	10.05	7.18	-29.7	-32.3	8.6	3.66e-02	0	41	102	1048576	19	4870
2026-01-07 06:32:36.00	9.77	7.37	-30.0	-32.7	8.0	6.40e-02	0	41	102	1048576	20	4904
2026-01-07 06:32:39.03	9.49	7.57	-29.0	-31.0	9.9	1.06e-02	0	41	102	1048576	18	4497
2026-01-07 06:32:42.05	9.20	7.76	-27.5	-28.3	12.2	2.36e-04	0	41	102	1048576	16	3924
2026-01-07 06:32:45.07	8.91	7.96	-26.9	-28.1	10.4	1.96e-04	0	41	102	1048576	15	4124
2026-01-07 06:32:48.09	8.62	8.16	-27.3	-28.9	12.3	2.55e-03	0	42	102	1048576	14	4294
2026-01-07 06:32:51.11	8.32	8.35	-27.8	-29.4	11.7	5.09e-04	0	42	102	1048576	15	4334
2026-01-07 06:32:54.13	8.02	8.55	-27.5	-29.2	12.2	1.59e-04	0	42	102	1048576	14	4375
2026-01-07 06:32:57.16	7.71	8.75	-27.0	-28.7	12.8	2.63e-05	0	42	102	1048576	13	4330
2026-01-07 06:33:00.18	7.40	8.95	-26.9	-28.2	13.1	1.96e-03	0	42	102	1048576	13	4199
2026-01-07 06:33:03.19	7.09	9.15	-26.5	-28.0	13.5	1.77e-03	0	42	102	1048576	12	4250
2026-01-07 06:33:06.21	6.77	9.35	-26.7	-28.0	13.2	2.00e-03	0	42	102	1048576	13	4139
2026-01-07 06:33:09.23	6.44	9.56	-26.7	-27.8	13.3	8.00e-06	0	42	102	1048576	13	4083
2026-01-07 06:33:12.25	6.11	9.76	-26.5	-27.8	13.6	2.00e-03	0	42	102	1048576	12	4212
2026-01-07 06:33:15.28	5.78	9.96	-26.4	-27.7	13.7	2.18e-03	0	42	102	1048576	12	4179
2026-01-07 06:33:18.31	5.44	10.17	-25.9	-26.6	14.3	2.20e-06	0	42	102	1048576	12	3894
2026-01-07 06:33:21.33	5.10	10.37	-26.0	-27.1	14.4	0.00e+00	0	42	102	1048576	11	4114
2026-01-07 06:33:24.35	4.75	10.58	-26.0	-27.2	14.4	1.10e-06	0	42	102	1048576	11	4136
2026-01-07 06:33:27.37	4.39	10.78	-26.0	-26.8	14.3	2.20e-06	0	42	102	1048576	12	3927
2026-01-07 06:33:30.39	4.03	10.99	-26.1	-27.1	14.1	2.20e-06	0	43	102	1048576	12	4000
2026-01-07 06:33:33.42	3.67	11.20	-26.0	-26.8	14.3	1.10e-06	0	43	102	1048576	12	3945
2026-01-07 06:33:36.44	3.30	11.41	-26.1	-26.9	14.3	1.10e-06	0	43	102	1048576	12	3950
2026-01-07 06:33:39.46	2.92	11.62	-25.9	-26.5	14.5	1.10e-06	0	43	102	1048576	12	3855
2026-01-07 06:33:42.48	2.54	11.83	-26.3	-27.5	13.9	2.20e-06	0	43	102	1048576	12	4101
2026-01-07 06:33:45.50	2.16	12.04	-26.1	-27.0	14.2	0.00e+00	0	43	102	1048576	12	3978
2026-01-07 06:33:48.52	1.76	12.25	-26.1	-26.9	14.3	0.00e+00	0	43	102	1048576	12	3961
2026-01-07 06:33:51.54	1.37	12.46	-26.0	-27.1	14.5	0.00e+00	0	43	102	1048576	11	4120
2026-01-07 06:33:54.56	0.96	12.67	-25.6	-26.4	14.9	0.00e+00	0	43	102	1048576	11	3939
2026-01-07 06:33:57.58	0.55	12.88	-25.6	-26.3	15.0	0.00e+00	0	43	102	1048576	11	3907
2026-01-07 06:34:00.60	0.14	13.09	-25.5	-26.1	15.1	0.00e+00	0	43	102	1048576	11	3857
2026-01-07 06:34:03.62	359.72	13.31	-25.0	-26.0	15.1	0.00e+00	0	43	102	1048576	10	4073
2026-01-07 06:34:06.64	359.29	13.52	-25.5	-26.6	15.1	0.00e+00	0	43	102	1048576	10	4079
2026-01-07 06:34:09.66	358.85	13.73	-25.6	-26.4	15.0	0.00e+00	0	43	102	1048576	11	3935
2026-01-07 06:34:12.68	358.41	13.94	-25.8	-26.6	14.9	1.10e-06	0	43	102	1048576	11	3986
2026-01-07 06:34:15.70	357.96	14.16	-25.6	-26.2	15.1	0.00e+00	0	43	102	1048576	11	3885
2026-01-07 06:34:18.73	357.51	14.37	-25.7	-26.4	15.0	1.89e-03	0	43	102	1048576	11	3933
2026-01-07 06:34:21.75	357.05	14.58	-25.4	-26.3	15.4	1.60e-03	0	43	102	1048576	10	4002
2026-01-07 06:34:24.76	356.58	14.80	-25.2	-25.9	15.6	0.00e+00	0	43	102	1048576	10	3906
2026-01-07 06:34:27.78	356.11	15.01	-25.1	-25.8	15.7	1.51e-03	0	43	102	1048576	10	3876
2026-01-07 06:34:30.80	355.63	15.22	-25.1	-25.6	15.8	1.42e-03	0	43	102	1048576	10	3846
2026-01-07 06:34:33.82	355.14	15.44	-25.0	-25.6	15.8	1.43e-03	0	43	102	1048576	10	3823
2026-01-07 06:34:36.84	354.64	15.65	-25.3	-26.0	15.6	0.00e+00	0	43	102	1048576	10	3934
2026-01-07 06:34:39.86	354.14	15.86	-25.2	-26.0	15.6	0.00e+00	0	43	102	1048576	10	3926
2026-01-07 06:34:42.88	353.63	16.07	-25.2	-25.9	15.7	0.00e+00	0	43	102	1048576	10	3908
2026-01-07 06:34:45.91	353.11	16.28	-25.2	-25.8	15.7	0.00e+00	0	43	102	1048576	10	3890
2026-01-07 06:34:48.93	352.58	16.50	-25.0	-25.5	15.9	0.00e+00	0	43	102	1048576	10	3804
2026-01-07 06:34:51.95	352.05	16.71	-24.6	-25.2	16.3	0.00e+00	0	43	102	1048576	9	3852
2026-01-07 06:34:54.97	351.51	16.91	-24.7	-25.3	16.3	0.00e+00	0	43	102	1048576	9	3870
2026-01-07 06:34:57.99	350.96	17.12	-24.7	-25.2	16.3	0.00e+00	0	43	102	1048576	9	3852
2026-01-07 06:35:01.00	350.41	17.33	-24.3	-25.0	16.7	0.00e+00	0	43	102	1048576	8	3887
2026-01-07 06:35:04.03	349.84	17.54	-24.6	-25.6	16.4	0.00e+00	0	43	102	1048576	8	4053
2026-01-07 06:35:07.04	349.27	17.74	-24.5	-25.0	16.5	0.00e+00	0	43	102	1048576	9	3794
2026-01-07 06:35:10.07	348.69	17.95	-24.8	-25.5	16.2	0.00e+00	0	44	102	1048576	9	3920
2026-01-07 06:35:13.08	348.10	18.15	-24.6	-25.0	16.5	0.00e+00	0	43	102	1048576	9	3804
2026-01-07 06:35:16.09	347.51	18.35	-24.5	-24.9	16.6	0.00e+00	0	43	102	1048576	9	3769
2026-01-07 06:35:19.12	346.91	18.55	-24.2	-24.3	16.9	0.00e+00	0	43	102	1048576	9	3642
2026-01-07 06:35:22.14	346.29	18.74	-24.2	-24.7	16.9	0.00e+00	0	43	102	1048576	8	3824
2026-01-07 06:35:25.16	345.67	18.94	-24.2	-24.8	16.9	0.00e+00	0	43	102	1048576	8	3851
2026-01-07 06:35:28.18	345.05	19.13	-24.4	-25.2	16.7	0.00e+00	0	43	102	1048576	8	3952
2026-01-07 06:35:31.19	344.41	19.32	-24.5	-25.5	16.6	0.00e+00	0	43	102	1048576	8	4005
2026-01-07 06:35:34.21	343.77	19.51	-24.9	-25.8	16.1	0.00e+00	0	44	102	1048576	9	3995
2026-01-07 06:35:37.22	343.12	19.70	-24.1	-24.7	17.0	0.00e+00	0	43	102	1048576	8	3817
2026-01-07 06:35:40.23	342.46	19.88	-24.1	-24.6	17.0	0.00e+00	0	43	102	1048576	8	3800
2026-01-07 06:35:43.26	341.79	20.07	-24.0	-24.3	17.2	0.00e+00	0	43	102	1048576	8	3736
2026-01-07 06:35:46.27	341.12	20.24	-24.0	-24.3	17.2	0.00e+00	0	43	102	1048576	8	3741
2026-01-07 06:35:49.29	340.43	20.42	-24.1	-24.5	17.1	0.00e+00	0	43	102	1048576	8	3785
2026-01-07 06:35:52.32	339.74	20.59	-24.0	-24.4	17.2	0.00e+00	0	44	102	1048576	8	3758
2026-01-07 06:35:55.34	339.04	20.76	-23.9	-24.6	17.3	0.00e+00	0	43	102	1048576	7	3903
2026-01-07 06:35:58.36	338.33	20.93	-24.0	-24.7	17.2	0.00e+00	0	43	102	1048576	7	3937
2026-01-07 06:36:01.38	337.62	21.09	-23.8	-24.3	17.4	0.00e+00	0	43	102	1048576	7	3848
2026-01-07 06:36:04.41	336.89	21.25	-23.6	-23.9	17.7	0.00e+00	0	43	102	1048576	7	3745
2026-01-07 06:36:07.43	336.16	21.40	-23.9	-24.6	17.3	0.00e+00	0	44	102	1048576	7	3899
2026-01-07 06:36:10.45	335.42	21.55	-23.9	-24.7	17.3	0.00e+00	0	44	102	1048576	7	3938
2026-01-07 06:36:13.47	334.68	21.70	-24.0	-24.9	17.1	0.00e+00	0	43	102	1048576	7	3978
2026-01-07 06:36:16.49	333.93	21.84	-23.5	-23.4	17.7	0.00e+00	0	44	102	1048576	8	3523
2026-01-07 06:36:19.51	333.17	21.98	-23.5	-23.8	17.7	0.00e+00	0	43	102	1048576	7	3716
2026-01-07 06:36:22.53	332.40	22.11	-23.3	-23.3	18.0	0.00e+00	0	43	102	1048576	7	3604
2026-01-07 06:36:25.55	331.63	22.24	-23.4	-24.1	17.8	0.00e+00	0	44	102	1048576	6	3884
2026-01-07 06:36:28.57	330.85	22.36	-23.5	-24.2	17.8	0.00e+00	0	44	102	1048576	6	3917
2026-01-07 06:36:31.59	330.06	22.48	-23.7	-24.1	17.6	0.00e+00	0	44	102	1048576	7	3791
2026-01-07 06:36:34.61	329.27	22.59	-23.8	-24.3	17.5	0.00e+00	0	43	102	1048576	7	3848
2026-01-07 06:36:37.63	328.48	22.70	-23.7	-24.2	17.6	0.00e+00	0	43	102	1048576	7	3816
2026-01-07 06:36:40.65	327.68	22.80	-23.7	-24.2	17.5	0.00e+00	0	43	102	1048576	7	3810
2026-01-07 06:36:43.67	326.87	22.89	-22.9	-23.1	17.5	0.00e+00	0	43	102	1048576	7	3691
2026-01-07 06:36:46.70	326.05	22.98	-23.3	-23.9	17.9	0.00e+00	0	43	102	1048576	6	3852
2026-01-07 06:36:49.72	325.24	23.07	-23.3	-23.7	18.0	0.00e+00	0	43	102	1048576	6	3811
2026-01-07 06:36:52.74	324.42	23.14	-23.5	-23.7	17.8	0.00e+00	0	43	102	1048576	7	3704
2026-01-07 06:36:55.75	323.60	23.22	-23.4	-23.7	17.8	8.18e-04	0	44	102	1048576	7	3686
2026-01-07 06:36:58.78	322.76	23.28	-23.6	-24.1	17.7	1.28e-03	0	44	102	1048576	7	3780
2026-01-07 06:37:01.80	321.93	23.34	-23.3	-23.9	18.0	1.41e-03	0	44	102	1048576	6	3857
2026-01-07 06:37:04.82	321.10	23.39	-23.3	-23.8	18.0	1.14e-03	0	44	102	1048576	6	3814
2026-01-07 06:37:07.85	320.26	23.44	-23.4	-24.0	17.9	9.50e-04	0	44	102	1048576	6	3878
2026-01-07 06:37:10.86	319.42	23.48	-23.3	-23.8	18.0	1.52e-03	0	43	102	1048576	6	3820
2026-01-07 06:37:13.88	318.58	23.51	-23.4	-24.0	17.9	0.00e+00	0	44	102	1048576	6	3876
2026-01-07 06:37:16.91	317.73	23.54	-23.3	-23.8	18.0	0.00e+00	0	43	102	1048576	6	3827
2026-01-07 06:37:19.94	316.88	23.56	-23.4	-24.0	17.9	0.00e+00	0	43	102	1048576	6	3861
2026-01-07 06:37:22.96	316.04	23.57	-23.6	-24.4	17.7	0.00e+00	0	44	102	1048576	6	3978
2026-01-07 06:37:25.98	315.19	23.58	-23.5	-23.8	17.7	0.00e+00	0	44	102	1048576	7	3731
2026-01-07 06:37:29.01	314.34	23.58	-23.5	-24.2	17.8	0.00e+00	0	43	102	1048576	6	3919
2026-01-07 06:37:32.03	313.50	23.57	-23.3	-23.9	18.0	0.00e+00	0	43	102	1048576	6	3837
2026-01-07 06:37:35.05	312.65	23.55	-23.2	-23.7	18.1	0.00e+00	0	43	102	1048576	6	3796
2026-01-07 06:37:38.07	311.80	23.53	-23.4	-24.1	17.9	0.00e+00	0	44	102	1048576	6	3886
2026-01-07 06:37:41.09	310.96	23.51	-23.3	-23.8	18.0	0.00e+00	0	44	102	1048576	6	3829
2026-01-07 06:37:44.10	310.12	23.47	-23.2	-23.7	18.1	0.00e+00	0	43	102	1048576	6	3802
2026-01-07 06:37:47.12	309.28	23.43	-23.4	-23.6	17.8	0.00e+00	0	44	102	1048576	7	3683
2026-01-07 06:37:50.14	308.44	23.38	-23.4	-24.0	17.9	0.00e+00	0	44	102	1048576	6	3874
2026-01-07 06:37:53.16	307.61	23.33	-23.3	-23.8	18.0	0.00e+00	0	43	102	1048576	6	3832
2026-01-07 06:37:56.18	306.78	23.27	-23.3	-23.8	18.0	0.00e+00	0	43	102	1048576	6	3830
2026-01-07 06:37:59.20	305.95	23.20	-23.3	-23.9	17.9	0.00e+00	0	44	102	1048576	6	3846
2026-01-07 06:38:02.23	305.12	23.13	-23.3	-23.9	13.2	0.00e+00	0	43	102	1048576	6	3839
2026-01-07 06:38:05.25	304.30	23.05	-23.4	-24.0	17.9	0.00e+00	0	43	102	1048576	6	3876
2026-01-07 06:38:08.26	303.48	22.97	-23.3	-23.9	17.9	0.00e+00	0	44	102	1048576	6	3849
2026-01-07 06:38:11.28	302.67	22.88	-23.3	-23.8	18.0	1.99e-03	0	44	102	1048576	6	3830
2026-01-07 06:38:14.30	301.86	22.78	-23.3	-23.8	18.0	1.62e-03	0	44	102	1048576	6	3824
2026-01-07 06:38:17.32	301.06	22.68	-23.2	-23.7	18.0	1.83e-03	0	43	102	1048576	6	3806
2026-01-07 06:38:20.34	300.26	22.57	-23.2	-23.6	18.1	1.84e-03	0	44	102	1048576	6	3770
2026-01-07 06:38:23.36	299.47	22.45	-23.1	-23.5	18.1	1.82e-03	0	43	102	1048576	6	3761
2026-01-07 06:38:26.39	298.69	22.34	-23.3	-23.9	17.9	1.91e-03	0	43	102	1048576	6	3844
2026-01-07 06:38:29.41	297.91	22.21	-23.0	-23.3	18.2	1.66e-03	0	44	102	1048576	6	3711
2026-01-07 06:38:32.43	297.13	22.08	-23.1	-23.4	18.1	0.00e+00	0	44	102	1048576	6	3741
2026-01-07 06:38:35.45	296.37	21.95	-23.2	-23.6	18.1	0.00e+00	0	43	102	1048576	6	3773
2026-01-07 06:38:38.46	295.61	21.81	-23.3	-23.8	17.9	0.00e+00	0	44	102	1048576	6	3831
2026-01-07 06:38:41.48	294.86	21.67	-23.4	-23.7	17.7	0.00e+00	0	43	102	1048576	7	3693
2026-01-07 06:38:44.50	294.11	21.52	-23.6	-24.0	17.6	0.00e+00	0	44	102	1048576	7	3759
2026-01-07 06:38:47.51	293.37	21.37	-23.5	-23.8	17.4	0.00e+00	0	44	102	1048576	7	3716
2026-01-07 06:38:50.53	292.64	21.21	-23.5	-23.7	17.7	0.00e+00	0	44	102	1048576	7	3698
2026-01-07 06:38:53.55	291.92	21.05	-23.7	-24.1	17.5	0.00e+00	0	44	102	1048576	7	3795
2026-01-07 06:38:56.57	291.20	20.89	-23.5	-23.9	17.6	0.00e+00	0	44	102	1048576	7	3734
2026-01-07 06:38:59.60	290.49	20.72	-23.3	-23.4	17.8	0.00e+00	0	44	102	1048576	7	3634
2026-01-07 06:39:02.61	289.79	20.55	-23.3	-23.9	17.8	0.00e+00	0	44	102	1048576	6	3846
2026-01-07 06:39:05.64	289.10	20.38	-23.5	-24.2	17.6	0.00e+00	0	43	102	1048576	6	3931
2026-01-07 06:39:08.65	288.41	20.20	-23.5	-24.2	17.7	0.00e+00	0	44	102	1048576	6	3919
2026-01-07 06:39:11.66	287.74	20.02	-23.6	-24.0	17.5	0.00e+00	0	44	102	1048576	7	3763
2026-01-07 06:39:14.68	287.07	19.84	-23.6	-24.0	17.5	0.00e+00	0	44	102	1048576	7	3777
2026-01-07 06:39:17.70	286.41	19.66	-23.6	-23.9	17.6	0.00e+00	0	43	102	1048576	7	3745
2026-01-07 06:39:20.72	285.76	19.47	-23.8	-24.4	17.3	0.00e+00	0	44	102	1048576	7	3860
2026-01-07 06:39:23.73	285.11	19.28	-24.0	-24.9	17.0	0.00e+00	0	44	102	1048576	7	3981
2026-01-07 06:39:26.75	284.48	19.09	-24.2	-24.8	16.6	0.00e+00	0	44	102	1048576	8	3845
2026-01-07 06:39:29.78	283.84	18.89	-24.0	-24.3	17.1	0.00e+00	0	44	102	1048576	8	3727
2026-01-07 06:39:32.80	283.22	18.70	-23.9	-24.1	17.2	0.00e+00	0	43	102	1048576	8	3686
2026-01-07 06:39:35.81	282.61	18.50	-23.9	-24.6	17.1	0.00e+00	0	43	102	1048576	7	3919
2026-01-07 06:39:38.82	282.01	18.30	-24.0	-24.9	17.0	1.53e-04	0	43	102	1048576	7	3977
2026-01-07 06:39:41.84	281.41	18.10	-24.1	-24.6	16.9	0.00e+00	0	44	102	1048576	8	3804
2026-01-07 06:39:44.85	280.83	17.89	-24.3	-24.9	16.7	0.00e+00	0	44	102	1048576	8	3885
2026-01-07 06:39:47.85	280.25	17.69	-24.4	-25.1	16.6	0.00e+00	0	43	102	1048576	8	3927
2026-01-07 06:39:50.86	279.68	17.48	-24.4	-25.1	16.6	0.00e+00	0	44	102	1048576	8	3927
2026-01-07 06:39:53.89	279.11	17.28	-24.5	-24.8	16.5	0.00e+00	0	44	102	1048576	9	3755
2026-01-07 06:39:56.90	278.56	17.07	-24.5	-24.8	16.5	0.00e+00	0	44	102	1048576	9	3755
2026-01-07 06:39:59.92	278.01	16.86	-24.4	-25.3	16.5	0.00e+00	0	44	102	1048576	8	3962
2026-01-07 06:40:02.95	277.46	16.65	-24.6	-25.1	16.3	0.00e+00	0	44	102	1048576	9	3825
2026-01-07 06:40:05.96	276.93	16.44	-24.4	-25.2	16.5	0.00e+00	0	44	102	1048576	8	3954
2026-01-07 06:40:08.99	276.40	16.23	-24.4	-25.3	16.5	0.00e+00	0	43	102	1048576	8	3972
2026-01-07 06:40:12.01	275.88	16.01	-24.7	-25.3	16.2	0.00e+00	0	44	102	1048576	9	3857
2026-01-07 06:40:15.03	275.37	15.80	-24.9	-25.7	16.0	0.00e+00	0	43	102	1048576	9	3964
2026-01-07 06:40:18.05	274.87	15.59	-24.9	-25.9	15.9	0.00e+00	0	44	102	1048576	9	4003
2026-01-07 06:40:21.07	274.37	15.37	-25.2	-26.0	15.6	0.00e+00	0	44	102	1048576	10	3932
2026-01-07 06:40:24.10	273.88	15.16	-25.5	-26.6	15.2	0.00e+00	0	44	102	1048576	10	4073
2026-01-07 06:40:27.11	273.39	14.95	-25.1	-25.7	15.7	1.10e-06	0	44	102	1048576	10	3850
2026-01-07 06:40:30.14	272.92	14.73	-25.0	-26.0	15.8	0.00e+00	0	43	102	1048576	9	4032
2026-01-07 06:40:33.17	272.45	14.52	-25.4	-26.4	15.3	0.00e+00	0	43	102	1048576	10	4024
2026-01-07 06:40:36.18	271.98	14.30	-25.3	-26.2	15.4	0.00e+00	0	44	102	1048576	10	3975
2026-01-07 06:40:39.20	271.53	14.09	-25.1	-26.2	15.6	0.00e+00	0	44	102	1048576	9	4082
2026-01-07 06:40:42.23	271.08	13.87	-25.4	-26.3	15.3	1.10e-06	0	44	102	1048576	10	3998
2026-01-07 06:40:45.25	270.64	13.66	-24.8	-25.6	14.7	0.00e+00	0	44	102	1048576	10	3967
2026-01-07 06:40:48.27	270.20	13.45	-25.5	-26.6	15.1	0.00e+00	0	44	102	1048576	10	4088
2026-01-07 06:40:51.29	269.77	13.23	-25.7	-26.6	14.8	0.00e+00	0	44	102	1048576	11	3980
2026-01-07 06:40:54.31	269.35	13.02	-25.6	-26.4	14.9	2.61e-03	0	44	102	1048576	11	3943
2026-01-07 06:40:57.34	268.93	12.81	-25.6	-26.4	14.9	2.02e-03	0	44	102	1048576	11	3943
2026-01-07 06:41:00.36	268.52	12.59	-25.8	-26.7	14.7	0.00e+00	0	44	102	1048576	11	3998
2026-01-07 06:41:03.39	268.11	12.38	-25.7	-26.6	14.8	1.67e-03	0	44	102	1048576	11	3971
2026-01-07 06:41:06.41	267.71	12.17	-25.8	-26.8	14.6	1.04e-03	0	44	102	1048576	11	4039
2026-01-07 06:41:09.42	267.32	11.96	-25.6	-26.4	14.9	1.73e-03	0	44	102	1048576	11	3927
2026-01-07 06:41:12.45	266.93	11.75	-25.7	-26.5	14.8	0.00e+00	0	44	102	1048576	11	3955
2026-01-07 06:41:15.46	266.55	11.54	-26.0	-27.2	14.3	0.00e+00	0	44	102	1048576	11	4153
2026-01-07 06:41:18.48	266.17	11.33	-26.2	-27.2	14.0	2.20e-06	0	44	102	1048576	12	4028
2026-01-07 06:41:21.50	265.80	11.12	-25.9	-27.0	14.4	0.00e+00	0	44	102	1048576	11	4097
2026-01-07 06:41:24.51	265.43	10.91	-25.9	-26.9	14.4	1.10e-06	0	44	102	1048576	11	4075
2026-01-07 06:41:27.53	265.07	10.71	-25.7	-26.6	14.6	0.00e+00	0	44	102	1048576	11	3976
2026-01-07 06:41:30.56	264.72	10.50	-25.9	-27.1	14.3	0.00e+00	0	44	102	1048576	11	4105
2026-01-07 06:41:33.58	264.36	10.29	-26.2	-27.1	13.9	1.10e-06	0	44	102	1048576	12	4023
2026-01-07 06:41:36.60	264.02	10.09	-26.2	-27.3	13.8	5.70e-06	0	44	102	1048576	12	4062
2026-01-07 06:41:39.62	263.68	9.88	-26.2	-27.3	13.8	3.40e-06	0	44	102	1048576	12	4060
2026-01-07 06:41:42.64	263.34	9.68	-26.1	-27.1	13.9	3.40e-06	0	44	102	1048576	12	4016
2026-01-07 06:41:45.66	263.01	9.47	-26.1	-27.0	13.9	1.10e-06	0	44	102	1048576	12	3983
2026-01-07 06:41:48.68	262.69	9.27	-26.1	-27.1	13.9	6.80e-06	0	44	102	1048576	12	4012
2026-01-07 06:41:51.70	262.36	9.07	-26.5	-27.4	13.4	1.48e-05	0	44	102	1048576	13	3987
2026-01-07 06:41:54.72	262.05	8.87	-26.4	-27.6	13.6	1.25e-05	0	44	102	1048576	12	4154
2026-01-07 06:41:57.74	261.73	8.67	-26.4	-27.6	13.5	1.02e-05	0	44	102	1048576	12	4165
2026-01-07 06:42:00.77	261.42	8.47	-26.0	-27.3	13.6	4.50e-06	0	44	102	1048576	11	4174
2026-01-07 06:42:03.79	261.12	8.27	-26.3	-27.4	13.6	6.80e-06	0	44	102	1048576	12	4116
2026-01-07 06:42:06.80	260.82	8.07	-26.2	-27.3	13.7	4.50e-06	0	44	102	1048576	12	4082
2026-01-07 06:42:09.81	260.53	7.87	-26.3	-27.6	13.4	4.50e-06	0	44	102	1048576	12	4165
2026-01-07 06:42:12.82	260.24	7.68	-26.5	-28.1	13.1	7.18e-03	0	44	102	1048576	12	4298
2026-01-07 06:42:15.84	259.95	7.48	-26.9	-28.4	12.6	7.21e-03	0	44	102	1048576	13	4270
2026-01-07 06:42:18.86	259.66	7.29	-26.9	-28.3	12.6	8.25e-03	0	44	102	1048576	13	4263
2026-01-07 06:42:21.88	259.38	7.09	-26.9	-28.4	12.5	5.57e-03	0	44	102	1048576	13	4271
2026-01-07 06:42:24.90	259.11	6.90	-33.2	-42.7	3.8	8.47e-01	0	44	104	1048576	26	10757

#Closed at: 2026-01-07 06:42:25
#Recorded file [1 MB]: D:/data/31010_260107_093231.dat