passes_logs/2026/01/07/R2M6_AANII_01/R2M6_AANII_01__20260107_004532_NOAA_20_JPSS-1_rec.log

#Pass ID: 20260107_004532_NOAA 20 (JPSS-1)
#Satellite: NOAA 20 (JPSS-1)
#Configuration: NOAA 20
#almurnet v.1.7.20240730
#Start time: 2026-01-07 00:45:32

#Version: 2.2.20231116
#Station: R2M6_AANII_01
#Location: 30.233357 lon 59.946436 lat
#TLE: 1 43013U 17073A   26006.30790171  .00000126  00000+0  80695-4 0  9991
#TLE: 2 43013  98.7629 307.3394 0001808  51.8724 308.2615 14.19533762421505

#Time	Az	El	Level	Level2	SNR	BER	BlckErr	Temp	State	Recorded	gain1	gain2
2026-01-07 00:45:32.67	16.09	7.02	-31.8	-39.0	4.8	1.32e+00	0	42	0	0	23	8280
2026-01-07 00:45:35.67	16.03	7.25	-32.0	-39.7	6.3	2.56e-01	0	42	102	1048576	23	8836
2026-01-07 00:45:38.68	15.98	7.48	-31.9	-39.5	6.6	2.95e-01	0	42	102	1048576	23	8558
2026-01-07 00:45:41.71	15.92	7.72	-31.7	-38.3	7.6	9.38e-02	0	42	102	1048576	23	7661
2026-01-07 00:45:44.73	15.86	7.96	-31.8	-38.4	7.5	1.61e-01	0	42	102	1048576	23	7700
2026-01-07 00:45:47.76	15.80	8.20	-31.3	-36.8	9.2	3.04e-02	0	43	102	1048576	22	6768
2026-01-07 00:45:50.78	15.73	8.44	-30.9	-35.8	10.3	8.57e-03	0	43	102	1048576	21	6336
2026-01-07 00:45:53.80	15.67	8.68	-31.0	-35.6	10.1	1.42e-02	0	42	102	1048576	22	6135
2026-01-07 00:45:56.82	15.61	8.93	-30.5	-34.5	11.3	4.54e-03	0	43	102	1048576	21	5703
2026-01-07 00:45:59.83	15.54	9.18	-30.5	-34.5	11.4	4.47e-03	0	43	102	1048576	21	5661
2026-01-07 00:46:02.83	15.47	9.43	-30.6	-34.6	11.3	4.71e-03	0	43	102	1048576	21	5741
2026-01-07 00:46:05.85	15.40	9.68	-30.7	-34.9	11.2	1.82e-03	0	43	102	1048576	21	5871
2026-01-07 00:46:08.87	15.33	9.94	-30.5	-34.4	11.5	3.58e-03	0	43	102	1048576	21	5641
2026-01-07 00:46:11.89	15.26	10.20	-30.4	-34.7	11.7	3.51e-03	0	43	102	1048576	20	5852
2026-01-07 00:46:14.91	15.19	10.46	-30.4	-34.6	11.8	3.75e-03	0	43	102	1048576	20	5810
2026-01-07 00:46:17.94	15.11	10.73	-30.6	-34.5	11.5	4.91e-03	0	43	102	1048576	21	5676
2026-01-07 00:46:20.96	15.04	11.00	-30.2	-33.8	12.4	3.48e-03	0	43	102	1048576	20	5460
2026-01-07 00:46:23.98	14.96	11.27	-30.1	-33.5	12.6	5.59e-04	0	43	102	1048576	20	5339
2026-01-07 00:46:27.01	14.88	11.54	-30.2	-33.9	12.4	5.97e-04	0	43	102	1048576	20	5476
2026-01-07 00:46:30.03	14.80	11.82	-30.0	-33.3	12.8	4.48e-04	0	43	102	1048576	20	5260
2026-01-07 00:46:33.06	14.71	12.10	-30.0	-33.3	12.8	5.41e-05	0	43	102	1048576	20	5245
2026-01-07 00:46:36.08	14.63	12.38	-30.0	-33.3	12.8	5.41e-05	0	43	102	1048576	20	5257
2026-01-07 00:46:39.11	14.54	12.67	-29.9	-32.9	13.1	2.74e-05	0	43	102	1048576	20	5099
2026-01-07 00:46:42.13	14.45	12.96	-29.9	-33.4	13.2	1.98e-05	0	43	102	1048576	19	5379
2026-01-07 00:46:45.15	14.36	13.26	-29.8	-33.0	13.5	3.40e-04	0	43	102	1048576	19	5221
2026-01-07 00:46:48.17	14.27	13.55	-29.8	-33.0	13.5	4.00e-04	0	43	102	1048576	19	5207
2026-01-07 00:46:51.19	14.17	13.85	-29.7	-32.7	13.8	5.30e-06	0	43	102	1048576	19	5087
2026-01-07 00:46:54.20	14.07	14.16	-29.7	-32.7	13.8	8.30e-06	0	43	102	1048576	19	5096
2026-01-07 00:46:57.20	13.97	14.46	-29.6	-32.6	13.9	4.50e-06	0	43	102	1048576	19	5050
2026-01-07 00:47:00.23	13.87	14.77	-29.6	-32.5	13.9	4.50e-06	0	43	102	1048576	19	5032
2026-01-07 00:47:03.24	13.77	15.09	-29.5	-32.2	14.1	3.91e-04	0	43	102	1048576	19	4934
2026-01-07 00:47:06.26	13.66	15.41	-29.6	-32.5	13.9	3.64e-04	0	43	102	1048576	19	5019
2026-01-07 00:47:09.28	13.55	15.73	-29.5	-32.6	14.2	3.37e-04	0	43	102	1048576	18	5171
2026-01-07 00:47:12.31	13.44	16.06	-29.4	-32.6	14.2	3.20e-04	0	43	102	1048576	18	5163
2026-01-07 00:47:15.33	13.32	16.39	-29.3	-32.3	14.5	3.55e-04	0	43	102	1048576	18	5056
2026-01-07 00:47:18.36	13.20	16.73	-29.3	-32.1	14.5	9.70e-04	0	43	102	1048576	18	4990
2026-01-07 00:47:21.38	13.08	17.07	-29.3	-32.1	14.6	5.42e-04	0	43	102	1048576	18	4972
2026-01-07 00:47:24.39	12.96	17.42	-29.2	-31.9	14.7	2.93e-04	0	43	102	1048576	18	4908
2026-01-07 00:47:27.42	12.83	17.77	-29.0	-31.5	15.0	2.72e-04	0	43	102	1048576	18	4781
2026-01-07 00:47:30.44	12.70	18.13	-29.0	-31.8	15.1	3.05e-04	0	43	102	1048576	17	4981
2026-01-07 00:47:33.46	12.56	18.49	-29.1	-31.6	14.9	2.84e-04	0	43	102	1048576	18	4797
2026-01-07 00:47:36.48	12.43	18.85	-28.8	-31.3	15.4	4.93e-04	0	43	102	1048576	17	4814
2026-01-07 00:47:39.49	12.29	19.22	-28.7	-31.0	15.6	3.62e-04	0	43	102	1048576	17	4725
2026-01-07 00:47:42.51	12.14	19.60	-28.5	-30.7	15.8	3.07e-04	0	43	102	1048576	17	4627
2026-01-07 00:47:45.53	11.99	19.98	-28.5	-30.7	15.8	3.55e-04	0	43	102	1048576	17	4608
2026-01-07 00:47:48.56	11.84	20.37	-28.6	-30.8	15.8	2.75e-04	0	43	102	1048576	17	4659
2026-01-07 00:47:51.56	11.68	20.76	-28.6	-30.8	15.8	3.13e-04	0	43	102	1048576	17	4646
2026-01-07 00:47:54.57	11.52	21.16	-28.5	-30.7	15.9	1.99e-04	0	43	102	1048576	17	4617
2026-01-07 00:47:57.60	11.35	21.57	-28.7	-31.0	15.7	3.79e-04	0	43	102	1048576	17	4700
2026-01-07 00:48:00.62	11.18	21.98	-28.5	-30.7	14.0	3.31e-04	0	43	102	1048576	17	4623
2026-01-07 00:48:03.65	11.01	22.40	-28.5	-30.6	16.0	2.14e-04	0	43	102	1048576	17	4570
2026-01-07 00:48:06.68	10.82	22.83	-28.6	-30.7	15.9	2.02e-04	0	43	102	1048576	17	4625
2026-01-07 00:48:09.70	10.64	23.26	-28.7	-31.1	15.7	3.58e-04	0	43	102	1048576	17	4731
2026-01-07 00:48:12.73	10.45	23.70	-28.8	-31.3	15.6	3.17e-04	0	44	102	1048576	17	4786
2026-01-07 00:48:15.75	10.25	24.15	-28.9	-31.6	15.4	2.24e-03	0	43	102	1048576	17	4915
2026-01-07 00:48:18.77	10.04	24.60	-29.1	-31.6	15.2	2.14e-03	0	43	102	1048576	18	4789
2026-01-07 00:48:21.79	9.83	25.07	-29.3	-32.1	14.9	2.02e-03	0	44	102	1048576	18	4968
2026-01-07 00:48:24.81	9.62	25.54	-29.5	-32.4	14.7	2.19e-03	0	43	102	1048576	18	5076
2026-01-07 00:48:27.83	9.39	26.01	-29.8	-32.9	14.1	2.20e-03	0	44	102	1048576	19	5109
2026-01-07 00:48:30.85	9.16	26.50	-30.0	-32.9	13.7	3.00e-06	0	44	102	1048576	20	5039
2026-01-07 00:48:33.87	8.92	26.99	-30.2	-33.4	13.4	2.32e-03	0	43	102	1048576	20	5215
2026-01-07 00:48:36.90	8.67	27.50	-30.3	-33.8	13.1	2.27e-03	0	43	102	1048576	20	5377
2026-01-07 00:48:39.92	8.42	28.01	-30.8	-34.5	12.4	2.24e-03	0	44	102	1048576	21	5514
2026-01-07 00:48:42.94	8.15	28.53	-31.0	-35.2	11.9	2.62e-03	0	44	102	1048576	21	5848
2026-01-07 00:48:45.96	7.88	29.06	-31.2	-35.3	11.5	2.75e-03	0	43	102	1048576	22	5760
2026-01-07 00:48:48.98	7.60	29.60	-31.5	-35.8	10.8	4.06e-03	0	43	102	1048576	23	5910
2026-01-07 00:48:52.00	7.31	30.15	-31.6	-36.0	10.7	3.56e-03	0	43	102	1048576	23	5983
2026-01-07 00:48:55.03	7.00	30.71	-31.5	-35.9	10.7	1.95e-03	0	43	102	1048576	23	5918
2026-01-07 00:48:58.05	6.69	31.27	-31.6	-36.0	10.7	3.01e-03	0	43	102	1048576	23	6007
2026-01-07 00:49:01.07	6.36	31.85	-31.8	-36.6	10.2	5.15e-03	0	43	102	1048576	23	6283
2026-01-07 00:49:04.08	6.02	32.44	-31.8	-36.9	10.1	6.14e-03	0	43	102	1048576	23	6419
2026-01-07 00:49:07.11	5.67	33.04	-32.0	-37.0	9.6	7.90e-03	0	43	102	1048576	24	6369
2026-01-07 00:49:10.13	5.30	33.65	-32.0	-36.8	9.7	9.46e-03	0	43	102	1048576	24	6304
2026-01-07 00:49:13.16	4.92	34.28	-32.1	-37.1	9.5	1.66e-02	0	44	102	1048576	24	6433
2026-01-07 00:49:16.17	4.53	34.91	-31.1	-35.9	9.8	9.20e-03	0	44	102	1048576	24	6313
2026-01-07 00:49:19.18	4.12	35.55	-32.0	-37.0	9.6	1.19e-02	0	44	102	1048576	24	6373
2026-01-07 00:49:22.20	3.69	36.20	-32.1	-37.4	9.3	1.61e-02	0	43	102	1048576	24	6599
2026-01-07 00:49:25.22	3.24	36.87	-32.2	-37.5	9.3	1.52e-02	0	44	102	1048576	24	6629
2026-01-07 00:49:28.24	2.78	37.55	-32.1	-37.3	9.3	2.21e-02	0	44	102	1048576	24	6537
2026-01-07 00:49:31.25	2.29	38.24	-31.9	-36.8	10.2	1.00e-02	0	43	102	1048576	23	6353
2026-01-07 00:49:34.27	1.79	38.94	-32.0	-37.3	9.9	1.06e-02	0	43	102	1048576	23	6629
2026-01-07 00:49:37.30	1.25	39.66	-31.8	-36.4	10.5	7.81e-03	0	44	102	1048576	23	6178
2026-01-07 00:49:40.32	0.70	40.38	-31.7	-36.4	10.5	6.76e-03	0	44	102	1048576	23	6131
2026-01-07 00:49:43.32	0.12	41.12	-31.8	-36.4	10.5	3.83e-03	0	44	102	1048576	23	6163
2026-01-07 00:49:46.34	359.51	41.86	-31.5	-35.6	11.1	4.77e-03	0	44	102	1048576	23	5748
2026-01-07 00:49:49.36	358.87	42.63	-31.5	-35.9	11.3	3.39e-03	0	44	102	1048576	22	6029
2026-01-07 00:49:52.38	358.20	43.40	-31.2	-35.2	11.8	2.96e-03	0	44	102	1048576	22	5700
2026-01-07 00:49:55.40	357.49	44.18	-31.5	-35.9	11.3	3.34e-03	0	44	102	1048576	22	5999
2026-01-07 00:49:58.42	356.75	44.98	-31.2	-35.1	11.9	2.74e-03	0	44	102	1048576	22	5637
2026-01-07 00:50:01.44	355.97	45.78	-31.2	-35.1	11.9	2.62e-03	0	44	102	1048576	22	5628
2026-01-07 00:50:04.46	355.15	46.60	-31.2	-35.0	12.0	2.77e-04	0	44	102	1048576	22	5585
2026-01-07 00:50:07.48	354.28	47.42	-30.7	-34.2	12.9	6.40e-05	0	44	102	1048576	21	5354
2026-01-07 00:50:10.50	353.37	48.26	-30.6	-33.7	13.2	2.13e-05	0	44	102	1048576	21	5183
2026-01-07 00:50:13.53	352.40	49.10	-30.3	-33.1	13.6	1.14e-05	0	44	102	1048576	21	4938
2026-01-07 00:50:16.54	351.38	49.95	-29.7	-32.4	14.7	1.97e-03	0	44	102	1048576	19	4896
2026-01-07 00:50:19.56	350.30	50.80	-29.8	-32.6	14.7	0.00e+00	0	44	102	1048576	19	4985
2026-01-07 00:50:22.58	349.15	51.66	-29.9	-32.4	14.3	2.20e-06	0	44	102	1048576	20	4829
2026-01-07 00:50:25.60	347.94	52.52	-30.3	-33.6	13.7	3.80e-06	0	44	102	1048576	20	5229
2026-01-07 00:50:28.62	346.65	53.38	-30.0	-32.7	14.2	0.00e+00	0	43	102	1048576	20	4908
2026-01-07 00:50:31.64	345.29	54.24	-30.3	-33.4	13.8	2.28e-05	0	43	102	1048576	20	5165
2026-01-07 00:50:34.67	343.83	55.10	-31.5	-35.2	12.4	2.41e-04	0	43	102	1048576	22	5527
2026-01-07 00:50:37.69	342.29	55.95	-31.4	-35.8	11.5	7.83e-04	0	44	102	1048576	22	5949
2026-01-07 00:50:40.70	340.65	56.79	-31.9	-36.9	10.3	5.52e-03	0	44	102	1048576	23	6371
2026-01-07 00:50:43.73	338.91	57.62	-31.7	-35.8	10.7	3.80e-03	0	44	102	1048576	24	5738
2026-01-07 00:50:46.75	337.05	58.44	-30.8	-33.9	12.7	1.08e-04	0	43	102	1048576	22	5132
2026-01-07 00:50:49.77	335.08	59.24	-29.8	-32.3	14.5	2.20e-06	0	44	102	1048576	20	4768
2026-01-07 00:50:52.79	332.99	60.01	-29.5	-31.8	15.1	1.50e-06	0	43	102	1048576	19	4704
2026-01-07 00:50:55.81	330.77	60.76	-29.3	-31.9	15.4	0.00e+00	0	44	102	1048576	18	4857
2026-01-07 00:50:58.83	328.41	61.47	-29.4	-32.0	15.3	0.00e+00	0	44	102	1048576	18	4892
2026-01-07 00:51:01.85	325.92	62.15	-28.2	-29.7	16.9	0.00e+00	0	44	102	1048576	17	4283
2026-01-07 00:51:04.86	323.30	62.78	-28.3	-30.4	16.8	0.00e+00	0	44	102	1048576	16	4603
2026-01-07 00:51:07.89	320.53	63.37	-28.8	-31.2	16.1	0.00e+00	0	44	102	1048576	17	4730
2026-01-07 00:51:10.90	317.63	63.90	-28.2	-30.2	16.9	0.00e+00	0	44	102	1048576	16	4524
2026-01-07 00:51:13.92	314.60	64.38	-29.4	-32.2	15.3	0.00e+00	0	44	102	1048576	18	4939
2026-01-07 00:51:16.94	311.45	64.79	-29.8	-32.7	14.5	0.00e+00	0	44	102	1048576	19	5030
2026-01-07 00:51:19.96	308.20	65.13	-29.8	-32.7	14.6	0.00e+00	0	43	102	1048576	19	5015
2026-01-07 00:51:22.98	304.85	65.39	-29.8	-32.2	14.5	3.80e-06	0	43	102	1048576	20	4755
2026-01-07 00:51:26.01	301.42	65.59	-29.5	-31.9	15.1	0.00e+00	0	43	102	1048576	19	4740
2026-01-07 00:51:29.03	297.95	65.69	-29.5	-32.4	15.0	7.00e-07	0	43	102	1048576	18	5020
2026-01-07 00:51:32.05	294.47	65.72	-29.0	-30.8	15.7	0.00e+00	0	43	102	1048576	19	4398
2026-01-07 00:51:35.07	290.98	65.67	-29.4	-32.2	15.2	0.00e+00	0	44	102	1048576	18	4951
2026-01-07 00:51:38.09	287.53	65.54	-29.4	-32.3	15.1	0.00e+00	0	44	102	1048576	18	4988
2026-01-07 00:51:41.10	284.14	65.32	-29.5	-32.0	14.9	0.00e+00	0	43	102	1048576	19	4792
2026-01-07 00:51:44.13	280.81	65.03	-29.4	-32.2	15.1	0.00e+00	0	43	102	1048576	18	4953
2026-01-07 00:51:47.15	277.58	64.67	-28.9	-30.8	16.0	0.00e+00	0	44	102	1048576	18	4515
2026-01-07 00:51:50.17	274.46	64.24	-28.3	-30.5	16.6	0.00e+00	0	43	102	1048576	16	4627
2026-01-07 00:51:53.19	271.46	63.75	-27.9	-30.0	17.0	2.61e-04	0	44	102	1048576	15	4623
2026-01-07 00:51:56.21	268.60	63.20	-27.3	-29.3	17.7	2.09e-03	0	43	102	1048576	14	4513
2026-01-07 00:51:59.22	265.88	62.60	-27.7	-29.6	17.3	0.00e+00	0	44	102	1048576	15	4487
2026-01-07 00:52:02.23	263.29	61.95	-28.3	-30.4	16.7	0.00e+00	0	43	102	1048576	16	4614
2026-01-07 00:52:05.26	260.83	61.26	-29.6	-32.1	14.9	0.00e+00	0	44	102	1048576	19	4801
2026-01-07 00:52:08.28	258.52	60.53	-30.4	-33.7	13.4	3.80e-06	0	44	102	1048576	20	5313
2026-01-07 00:52:11.30	256.33	59.77	-31.3	-35.6	11.5	2.84e-03	0	43	102	1048576	22	5870
2026-01-07 00:52:14.31	254.28	58.99	-31.3	-35.3	11.6	3.06e-03	0	43	102	1048576	22	5731
2026-01-07 00:52:17.34	252.34	58.19	-31.6	-36.1	10.7	6.00e-03	0	43	102	1048576	23	6023
2026-01-07 00:52:20.36	250.51	57.36	-30.8	-34.6	12.4	1.92e-03	0	44	102	1048576	21	5557
2026-01-07 00:52:23.38	248.80	56.53	-30.5	-33.6	13.1	6.09e-04	0	44	102	1048576	21	5159
2026-01-07 00:52:26.40	247.19	55.68	-30.1	-33.0	13.9	2.74e-03	0	43	102	1048576	20	5031
2026-01-07 00:52:29.42	245.67	54.82	-29.3	-31.9	15.2	0.00e+00	0	43	102	1048576	18	4850
2026-01-07 00:52:32.44	244.24	53.96	-29.3	-31.9	15.2	1.96e-03	0	43	102	1048576	18	4877
2026-01-07 00:52:35.46	242.90	53.10	-30.1	-33.2	13.6	1.64e-03	0	43	102	1048576	20	5132
2026-01-07 00:52:38.49	241.63	52.23	-29.9	-32.6	14.1	2.14e-03	0	43	102	1048576	20	4881
2026-01-07 00:52:41.51	240.43	51.37	-30.6	-34.0	12.8	1.47e-03	0	43	102	1048576	21	5305
2026-01-07 00:52:44.52	239.31	50.51	-30.7	-34.3	12.6	1.61e-03	0	44	102	1048576	21	5450
2026-01-07 00:52:47.54	238.24	49.66	-30.7	-34.1	12.7	3.20e-05	0	44	102	1048576	21	5366
2026-01-07 00:52:50.55	237.24	48.81	-30.7	-34.3	12.6	7.85e-05	0	44	102	1048576	21	5446
2026-01-07 00:52:53.56	236.29	47.97	-30.7	-34.2	12.7	8.23e-05	0	44	102	1048576	21	5411
2026-01-07 00:52:56.59	235.39	47.14	-30.5	-33.7	13.0	4.42e-05	0	44	102	1048576	21	5190
2026-01-07 00:52:59.60	234.53	46.32	-30.7	-34.4	12.5	1.23e-04	0	43	102	1048576	21	5498
2026-01-07 00:53:02.61	233.72	45.50	-30.8	-34.6	12.3	1.16e-03	0	43	102	1048576	21	5595
2026-01-07 00:53:05.62	232.96	44.70	-30.9	-34.8	12.1	8.92e-04	0	44	102	1048576	21	5694
2026-01-07 00:53:08.64	232.22	43.91	-31.2	-35.4	11.4	9.10e-04	0	43	102	1048576	22	5842
2026-01-07 00:53:11.66	231.53	43.12	-31.3	-35.8	11.1	1.53e-03	0	44	102	1048576	22	6023
2026-01-07 00:53:14.68	230.86	42.35	-31.6	-36.1	10.5	6.02e-03	0	44	102	1048576	23	6064
2026-01-07 00:53:17.70	230.23	41.59	-31.7	-36.4	10.3	6.20e-03	0	44	102	1048576	23	6237
2026-01-07 00:53:20.72	229.63	40.84	-32.2	-37.8	8.7	2.73e-02	0	43	102	1048576	24	6883
2026-01-07 00:53:23.73	229.05	40.11	-32.4	-39.1	7.8	7.33e-02	0	44	102	1048576	24	7716
2026-01-07 00:53:26.76	228.50	39.38	-32.0	-37.4	9.2	2.34e-02	0	44	102	1048576	24	6650
2026-01-07 00:53:29.78	227.98	38.67	-31.7	-36.7	10.0	1.09e-02	0	44	102	1048576	23	6394
2026-01-07 00:53:32.80	227.47	37.96	-31.7	-36.6	10.0	1.02e-02	0	44	102	1048576	23	6334
2026-01-07 00:53:35.83	226.99	37.27	-31.6	-36.4	10.2	8.50e-03	0	44	102	1048576	23	6220
2026-01-07 00:53:38.84	226.53	36.60	-31.1	-35.0	11.5	1.34e-03	0	44	102	1048576	22	5657
2026-01-07 00:53:41.86	226.09	35.93	-30.8	-34.8	12.0	2.25e-04	0	43	102	1048576	21	5681
2026-01-07 00:53:44.88	225.66	35.28	-30.6	-34.2	12.4	1.20e-04	0	44	102	1048576	21	5417
2026-01-07 00:53:47.90	225.25	34.64	-31.0	-35.3	11.7	2.39e-03	0	44	102	1048576	21	5904
2026-01-07 00:53:50.92	224.86	34.00	-30.5	-34.0	12.5	2.10e-03	0	44	102	1048576	21	5350
2026-01-07 00:53:53.94	224.49	33.38	-30.6	-34.2	12.4	2.09e-03	0	44	102	1048576	21	5421
2026-01-07 00:53:56.96	224.12	32.77	-31.1	-35.2	11.4	2.79e-03	0	44	102	1048576	22	5777
2026-01-07 00:53:59.98	223.77	32.18	-31.4	-36.2	10.6	5.58e-03	0	44	102	1048576	22	6248
2026-01-07 00:54:02.99	223.44	31.59	-31.6	-36.5	10.0	9.09e-03	0	44	102	1048576	23	6310
2026-01-07 00:54:06.02	223.11	31.01	-31.6	-36.6	9.9	8.98e-03	0	43	102	1048576	23	6354
2026-01-07 00:54:09.03	222.80	30.45	-31.5	-36.5	10.4	4.58e-03	0	44	102	1048576	22	6388
2026-01-07 00:54:12.05	222.50	29.89	-31.2	-35.6	11.0	3.46e-03	0	44	102	1048576	22	5967
2026-01-07 00:54:15.07	222.21	29.34	-31.4	-36.2	10.6	5.08e-03	0	43	102	1048576	22	6254
2026-01-07 00:54:18.08	221.93	28.81	-31.4	-36.1	10.7	5.24e-03	0	44	102	1048576	22	6214
2026-01-07 00:54:21.11	221.65	28.28	-31.4	-36.2	10.6	5.78e-03	0	44	102	1048576	22	6254
2026-01-07 00:54:24.12	221.39	27.76	-31.0	-34.8	11.6	8.11e-04	0	44	102	1048576	22	5592
2026-01-07 00:54:27.15	221.14	27.25	-30.7	-34.5	12.0	3.78e-04	0	44	102	1048576	21	5583
2026-01-07 00:54:30.17	220.89	26.74	-30.6	-34.2	12.3	1.58e-04	0	44	102	1048576	21	5450
2026-01-07 00:54:33.18	220.65	26.25	-30.7	-34.6	12.0	2.82e-04	0	44	102	1048576	21	5622
2026-01-07 00:54:36.19	220.42	25.77	-30.8	-34.9	11.7	4.90e-04	0	44	102	1048576	21	5764
2026-01-07 00:54:39.20	220.20	25.29	-30.7	-34.6	11.9	3.70e-04	0	44	102	1048576	21	5639
2026-01-07 00:54:42.21	219.98	24.83	-30.5	-34.0	12.3	5.39e-04	0	44	102	1048576	21	5399
2026-01-07 00:54:45.23	219.77	24.37	-30.4	-34.2	12.4	6.23e-04	0	44	102	1048576	20	5564
2026-01-07 00:54:48.24	219.57	23.91	-30.4	-34.3	12.3	7.44e-04	0	44	102	1048576	20	5621
2026-01-07 00:54:51.26	219.37	23.47	-30.6	-34.4	12.0	2.37e-04	0	44	102	1048576	21	5548
2026-01-07 00:54:54.28	219.18	23.03	-30.6	-34.3	12.0	3.13e-04	0	44	102	1048576	21	5526
2026-01-07 00:54:57.31	218.99	22.60	-30.3	-34.1	12.5	1.33e-04	0	44	102	1048576	20	5559
2026-01-07 00:55:00.33	218.81	22.17	-30.5	-34.5	12.2	1.19e-04	0	44	102	1048576	20	5726
2026-01-07 00:55:03.35	218.63	21.75	-29.9	-32.9	13.3	4.09e-04	0	44	102	1048576	20	5069
2026-01-07 00:55:06.37	218.46	21.34	-29.8	-33.0	13.6	3.62e-04	0	43	102	1048576	19	5202
2026-01-07 00:55:09.40	218.29	20.93	-29.8	-33.1	13.5	3.48e-04	0	43	102	1048576	19	5269
2026-01-07 00:55:12.42	218.13	20.53	-30.1	-33.5	12.9	3.45e-04	0	44	102	1048576	20	5316
2026-01-07 00:55:15.42	217.98	20.14	-30.2	-33.9	12.6	2.73e-04	0	44	102	1048576	20	5477
2026-01-07 00:55:18.44	217.82	19.75	-30.2	-33.8	12.6	8.01e-05	0	44	102	1048576	20	5433
2026-01-07 00:55:21.47	217.67	19.37	-30.2	-33.6	12.7	1.90e-04	0	43	102	1048576	20	5381
2026-01-07 00:55:24.49	217.53	19.00	-30.1	-33.6	12.7	1.94e-04	0	44	102	1048576	20	5349
2026-01-07 00:55:27.51	217.38	18.62	-30.2	-33.9	12.5	3.13e-04	0	43	102	1048576	20	5508
2026-01-07 00:55:30.53	217.24	18.26	-30.3	-34.1	12.3	4.12e-04	0	43	102	1048576	20	5578
2026-01-07 00:55:33.55	217.11	17.90	-30.1	-33.7	12.6	3.17e-04	0	44	102	1048576	20	5415
2026-01-07 00:55:36.56	216.98	17.54	-30.1	-33.6	12.6	3.11e-04	0	44	102	1048576	20	5363
2026-01-07 00:55:39.59	216.85	17.19	-30.1	-33.5	12.6	1.04e-04	0	44	102	1048576	20	5357
2026-01-07 00:55:42.60	216.72	16.85	-30.1	-33.5	12.6	9.84e-05	0	44	102	1048576	20	5346
2026-01-07 00:55:45.63	216.60	16.51	-30.0	-33.4	12.7	1.03e-04	0	44	102	1048576	20	5319
2026-01-07 00:55:48.66	216.48	16.17	-30.0	-33.4	12.7	7.32e-05	0	44	102	1048576	20	5285
2026-01-07 00:55:51.68	216.36	15.84	-30.0	-33.2	12.8	7.24e-05	0	44	102	1048576	20	5243
2026-01-07 00:55:54.70	216.25	15.51	-30.0	-33.3	12.7	8.31e-05	0	44	102	1048576	20	5257
2026-01-07 00:55:57.72	216.14	15.19	-30.2	-33.8	12.3	2.82e-04	0	44	102	1048576	20	5467
2026-01-07 00:56:00.74	216.03	14.87	-30.3	-33.8	11.9	5.75e-04	0	44	102	1048576	21	5374
2026-01-07 00:56:03.76	215.92	14.55	-30.3	-34.3	12.0	3.23e-04	0	44	102	1048576	20	5703
2026-01-07 00:56:06.78	215.82	14.24	-30.4	-34.5	11.2	5.55e-04	0	43	102	1048576	20	5767
2026-01-07 00:56:09.80	215.72	13.93	-30.2	-34.0	12.1	2.52e-04	0	44	102	1048576	20	5582
2026-01-07 00:56:12.81	215.62	13.63	-30.3	-34.3	11.9	4.62e-04	0	44	102	1048576	20	5703
2026-01-07 00:56:15.83	215.52	13.33	-30.3	-34.5	11.7	5.62e-04	0	44	102	1048576	20	5790
2026-01-07 00:56:18.84	215.43	13.03	-30.3	-34.5	11.7	2.35e-03	0	44	102	1048576	20	5802
2026-01-07 00:56:21.85	215.33	12.74	-30.4	-34.7	11.5	2.45e-03	0	44	102	1048576	20	5906
2026-01-07 00:56:24.87	215.24	12.45	-30.4	-34.6	11.6	2.26e-03	0	44	102	1048576	20	5833
2026-01-07 00:56:27.89	215.15	12.17	-30.4	-34.6	11.5	9.77e-04	0	44	102	1048576	20	5859
2026-01-07 00:56:30.91	215.07	11.88	-30.3	-34.5	11.5	8.31e-04	0	44	102	1048576	20	5836
2026-01-07 00:56:33.92	214.98	11.60	-30.3	-34.5	11.6	1.97e-03	0	43	102	1048576	20	5811
2026-01-07 00:56:36.94	214.90	11.33	-30.4	-34.9	11.3	1.52e-03	0	44	102	1048576	20	5999
2026-01-07 00:56:39.97	214.82	11.05	-30.5	-34.6	11.1	1.75e-03	0	43	102	1048576	21	5782
2026-01-07 00:56:42.99	214.74	10.78	-30.5	-34.8	10.9	2.20e-03	0	43	102	1048576	21	5853
2026-01-07 00:56:46.01	214.66	10.51	-30.6	-35.1	10.7	3.12e-03	0	44	102	1048576	21	6018
2026-01-07 00:56:49.03	214.58	10.25	-30.6	-35.0	10.7	3.41e-03	0	44	102	1048576	21	5975
2026-01-07 00:56:52.06	214.50	9.99	-30.7	-35.3	10.5	3.88e-03	0	44	102	1048576	21	6134
2026-01-07 00:56:55.08	214.43	9.73	-30.7	-35.4	10.4	4.40e-03	0	44	102	1048576	21	6157
2026-01-07 00:56:58.10	214.36	9.47	-30.9	-36.0	9.9	8.48e-03	0	43	102	1048576	21	6513
2026-01-07 00:57:01.13	214.29	9.21	-30.9	-36.1	9.8	1.13e-02	0	44	102	1048576	21	6569
2026-01-07 00:57:04.14	214.22	8.96	-30.8	-35.9	10.0	9.86e-03	0	43	102	1048576	21	6437
2026-01-07 00:57:07.16	214.15	8.71	-30.7	-35.6	10.1	9.52e-03	0	43	102	1048576	21	6316
2026-01-07 00:57:10.19	214.08	8.47	-30.6	-35.3	10.3	5.15e-03	0	44	102	1048576	21	6132
2026-01-07 00:57:13.21	214.01	8.22	-30.8	-35.8	9.8	8.85e-03	0	44	102	1048576	21	6439
2026-01-07 00:57:16.22	213.95	7.98	-30.6	-35.2	10.3	4.78e-03	0	44	102	1048576	21	6136
2026-01-07 00:57:19.23	213.89	7.74	-30.6	-35.2	10.3	4.86e-03	0	44	102	1048576	21	6104
2026-01-07 00:57:22.23	213.82	7.50	-30.5	-35.1	10.4	5.00e-03	0	44	102	1048576	21	6077
2026-01-07 00:57:25.24	213.76	7.27	-30.7	-35.5	10.0	6.58e-03	0	44	102	1048576	21	6266
2026-01-07 00:57:28.26	213.70	7.04	-32.8	-47.1	3.9	1.49e+00	0	44	104	1048576	25	18785

#Closed at: 2026-01-07 00:57:31
#Recorded file [1 MB]: D:/data/31010_260107_034534.dat