passes_logs/2026/01/07/R2M6_AANII_01/R2M6_AANII_01__20260107_022611_NOAA_20_JPSS-1_rec.log

#Pass ID: 20260107_022611_NOAA 20 (JPSS-1)
#Satellite: NOAA 20 (JPSS-1)
#Configuration: NOAA 20
#almurnet v.1.7.20240730
#Start time: 2026-01-07 02:26:10

#Version: 2.2.20231116
#Station: R2M6_AANII_01
#Location: 30.233357 lon 59.946436 lat
#TLE: 1 43013U 17073A   26006.30790171  .00000126  00000+0  80695-4 0  9991
#TLE: 2 43013  98.7629 307.3394 0001808  51.8724 308.2615 14.19533762421505

#Time	Az	El	Level	Level2	SNR	BER	BlckErr	Temp	State	Recorded	gain1	gain2
2026-01-07 02:26:10.99	9.86	6.99	-32.3	-43.1	4.0	1.46e+00	0	41	0	0	24	12363
2026-01-07 02:26:14.01	9.56	7.17	-32.1	-40.5	5.4	5.24e-01	0	41	102	1048576	24	9537
2026-01-07 02:26:17.03	9.26	7.36	-32.1	-40.4	5.5	5.37e-01	0	41	102	1048576	24	9416
2026-01-07 02:26:20.05	8.96	7.54	-32.2	-41.2	5.1	5.69e-01	0	41	102	1048576	24	10139
2026-01-07 02:26:23.08	8.65	7.73	-31.8	-38.5	6.9	2.32e-01	0	41	102	1048576	24	7734
2026-01-07 02:26:26.11	8.34	7.92	-31.3	-36.5	8.8	4.02e-02	0	42	102	1048576	23	6565
2026-01-07 02:26:29.11	8.03	8.11	-30.9	-35.4	10.1	8.07e-03	0	42	102	1048576	22	6071
2026-01-07 02:26:32.12	7.71	8.30	-30.9	-35.8	9.9	6.58e-03	0	42	102	1048576	21	6374
2026-01-07 02:26:35.14	7.39	8.49	-30.9	-36.0	10.1	5.63e-03	0	42	102	1048576	21	6444
2026-01-07 02:26:38.15	7.06	8.68	-31.0	-36.2	9.9	7.51e-03	0	42	102	1048576	21	6575
2026-01-07 02:26:41.16	6.73	8.87	-30.9	-36.0	10.1	9.68e-03	0	42	102	1048576	21	6454
2026-01-07 02:26:44.18	6.39	9.06	-30.9	-36.0	10.2	9.15e-03	0	42	102	1048576	21	6429
2026-01-07 02:26:47.19	6.05	9.25	-30.8	-35.7	10.4	4.72e-03	0	42	102	1048576	21	6263
2026-01-07 02:26:50.20	5.71	9.44	-30.9	-35.7	10.4	4.36e-03	0	42	102	1048576	21	6301
2026-01-07 02:26:53.23	5.36	9.63	-30.9	-35.7	10.4	4.03e-03	0	42	102	1048576	21	6270
2026-01-07 02:26:56.24	5.00	9.83	-30.9	-35.7	10.5	3.63e-03	0	42	102	1048576	21	6268
2026-01-07 02:26:59.25	4.64	10.02	-30.8	-35.6	10.6	6.94e-03	0	42	102	1048576	21	6216
2026-01-07 02:27:02.27	4.28	10.21	-31.0	-35.9	10.3	8.40e-03	0	43	102	1048576	21	6381
2026-01-07 02:27:05.29	3.91	10.41	-30.9	-35.8	10.4	8.31e-03	0	42	102	1048576	21	6296
2026-01-07 02:27:08.30	3.53	10.60	-30.9	-35.6	10.6	7.07e-03	0	43	102	1048576	21	6200
2026-01-07 02:27:11.32	3.15	10.80	-30.8	-35.4	10.8	5.33e-03	0	42	102	1048576	21	6114
2026-01-07 02:27:14.35	2.77	10.99	-30.7	-35.1	11.0	4.80e-03	0	43	102	1048576	21	5961
2026-01-07 02:27:17.36	2.38	11.19	-30.7	-35.1	11.0	1.77e-03	0	43	102	1048576	21	5927
2026-01-07 02:27:20.37	1.98	11.38	-30.7	-35.1	11.1	4.68e-03	0	42	102	1048576	21	5933
2026-01-07 02:27:23.38	1.58	11.58	-30.7	-35.0	11.1	4.49e-03	0	43	102	1048576	21	5895
2026-01-07 02:27:26.40	1.17	11.77	-30.5	-34.4	11.6	3.46e-03	0	43	102	1048576	21	5598
2026-01-07 02:27:29.42	0.76	11.97	-30.4	-34.4	11.9	3.21e-03	0	43	102	1048576	20	5742
2026-01-07 02:27:32.43	0.34	12.16	-30.4	-34.0	11.9	3.08e-03	0	43	102	1048576	21	5456
2026-01-07 02:27:35.46	359.92	12.36	-30.3	-34.2	12.2	2.41e-04	0	43	102	1048576	20	5635
2026-01-07 02:27:38.47	359.49	12.56	-30.3	-34.2	12.1	3.08e-04	0	43	102	1048576	20	5646
2026-01-07 02:27:41.49	359.05	12.75	-30.3	-34.2	12.2	3.68e-04	0	43	102	1048576	20	5634
2026-01-07 02:27:44.51	358.61	12.95	-30.4	-34.4	12.1	2.39e-04	0	43	102	1048576	20	5698
2026-01-07 02:27:47.53	358.16	13.14	-30.3	-34.2	12.2	2.37e-04	0	43	102	1048576	20	5620
2026-01-07 02:27:50.55	357.70	13.34	-30.4	-34.3	12.1	2.15e-04	0	43	102	1048576	20	5656
2026-01-07 02:27:53.58	357.24	13.54	-30.4	-34.4	12.1	2.89e-04	0	43	102	1048576	20	5688
2026-01-07 02:27:56.60	356.78	13.73	-30.8	-35.1	11.2	9.34e-04	0	43	102	1048576	21	5934
2026-01-07 02:27:59.63	356.30	13.93	-30.8	-35.1	11.2	1.24e-03	0	43	102	1048576	21	5911
2026-01-07 02:28:02.65	355.82	14.12	-30.9	-35.4	11.0	1.74e-03	0	43	102	1048576	21	6075
2026-01-07 02:28:05.66	355.34	14.31	-30.6	-34.6	11.6	8.48e-04	0	43	102	1048576	21	5686
2026-01-07 02:28:08.68	354.84	14.51	-30.6	-34.5	11.7	5.41e-04	0	43	102	1048576	21	5626
2026-01-07 02:28:11.69	354.35	14.70	-30.7	-34.7	11.5	9.29e-04	0	43	102	1048576	21	5732
2026-01-07 02:28:14.71	353.84	14.89	-30.9	-35.4	11.0	3.20e-03	0	43	102	1048576	21	6072
2026-01-07 02:28:17.73	353.33	15.08	-30.9	-35.3	11.1	3.03e-03	0	43	102	1048576	21	6019
2026-01-07 02:28:20.74	352.81	15.27	-30.9	-35.5	11.1	3.46e-03	0	43	102	1048576	21	6074
2026-01-07 02:28:23.76	352.29	15.46	-30.9	-35.3	11.2	3.04e-03	0	43	102	1048576	21	6014
2026-01-07 02:28:26.79	351.75	15.65	-30.8	-35.1	11.3	2.51e-03	0	43	102	1048576	21	5876
2026-01-07 02:28:29.81	351.21	15.84	-30.8	-35.2	11.3	1.21e-03	0	43	102	1048576	21	5931
2026-01-07 02:28:32.81	350.67	16.02	-30.8	-35.1	11.3	3.01e-03	0	43	102	1048576	21	5899
2026-01-07 02:28:35.83	350.11	16.21	-30.6	-34.3	12.0	2.86e-03	0	43	102	1048576	21	5540
2026-01-07 02:28:38.85	349.55	16.39	-30.5	-34.5	12.2	2.57e-03	0	43	102	1048576	20	5725
2026-01-07 02:28:41.87	348.99	16.57	-30.5	-34.0	12.2	2.15e-03	0	43	102	1048576	21	5392
2026-01-07 02:28:44.89	348.41	16.75	-30.3	-33.9	12.6	1.60e-03	0	43	102	1048576	20	5473
2026-01-07 02:28:47.91	347.83	16.93	-30.2	-33.6	12.8	5.43e-04	0	43	102	1048576	20	5335
2026-01-07 02:28:50.94	347.24	17.11	-30.0	-33.0	13.2	3.89e-05	0	43	102	1048576	20	5111
2026-01-07 02:28:53.96	346.65	17.29	-29.8	-33.0	13.6	4.50e-06	0	43	102	1048576	19	5226
2026-01-07 02:28:56.98	346.04	17.46	-29.7	-32.7	13.8	4.50e-06	0	43	102	1048576	19	5096
2026-01-07 02:29:00.00	345.43	17.63	-29.6	-32.4	14.1	3.00e-06	0	43	102	1048576	19	4967
2026-01-07 02:29:03.02	344.82	17.80	-29.8	-32.9	13.7	2.42e-03	0	43	102	1048576	19	5173
2026-01-07 02:29:06.04	344.19	17.97	-29.8	-33.0	13.7	2.43e-03	0	43	102	1048576	19	5208
2026-01-07 02:29:09.06	343.56	18.13	-29.7	-32.7	13.8	4.50e-06	0	43	102	1048576	19	5103
2026-01-07 02:29:12.08	342.93	18.29	-29.4	-32.1	14.2	2.20e-06	0	43	102	1048576	19	4863
2026-01-07 02:29:15.10	342.28	18.45	-29.5	-32.6	14.3	1.50e-06	0	43	102	1048576	18	5169
2026-01-07 02:29:18.12	341.63	18.61	-29.7	-32.8	13.8	8.30e-06	0	43	102	1048576	19	5132
2026-01-07 02:29:21.14	340.97	18.76	-29.8	-32.4	13.7	7.60e-06	0	43	102	1048576	20	4886
2026-01-07 02:29:24.16	340.31	18.91	-29.6	-32.6	13.9	4.50e-06	0	43	102	1048576	19	5072
2026-01-07 02:29:27.18	339.64	19.06	-29.7	-32.6	13.8	7.00e-07	0	43	102	1048576	19	5045
2026-01-07 02:29:30.20	338.96	19.20	-29.5	-32.2	14.2	9.91e-05	0	43	102	1048576	19	4897
2026-01-07 02:29:33.20	338.28	19.34	-29.4	-32.4	14.5	6.94e-05	0	43	102	1048576	18	5072
2026-01-07 02:29:36.21	337.59	19.48	-29.2	-31.8	14.8	0.00e+00	0	43	102	1048576	18	4878
2026-01-07 02:29:39.22	336.90	19.61	-28.9	-31.6	15.2	0.00e+00	0	43	102	1048576	17	4929
2026-01-07 02:29:42.24	336.20	19.74	-28.9	-31.5	15.3	0.00e+00	0	43	102	1048576	17	4890
2026-01-07 02:29:45.26	335.49	19.86	-28.8	-31.3	15.4	0.00e+00	0	43	102	1048576	17	4810
2026-01-07 02:29:48.28	334.77	19.98	-28.8	-31.4	15.3	0.00e+00	0	43	102	1048576	17	4851
2026-01-07 02:29:51.31	334.05	20.10	-28.7	-31.2	15.5	0.00e+00	0	43	102	1048576	17	4787
2026-01-07 02:29:54.32	333.33	20.21	-28.7	-31.2	15.5	0.00e+00	0	43	102	1048576	17	4794
2026-01-07 02:29:57.34	332.60	20.32	-28.9	-31.6	15.2	0.00e+00	0	43	102	1048576	17	4918
2026-01-07 02:30:00.36	331.86	20.43	-29.1	-31.6	14.9	0.00e+00	0	43	102	1048576	18	4814
2026-01-07 02:30:03.38	331.12	20.53	-29.2	-31.9	14.8	7.00e-07	0	43	102	1048576	18	4909
2026-01-07 02:30:06.39	330.38	20.62	-29.3	-32.2	14.6	7.00e-07	0	43	102	1048576	18	5014
2026-01-07 02:30:09.42	329.62	20.71	-29.2	-31.9	14.8	0.00e+00	0	43	102	1048576	18	4895
2026-01-07 02:30:12.44	328.87	20.80	-29.3	-32.0	14.7	0.00e+00	0	43	102	1048576	18	4946
2026-01-07 02:30:15.47	328.11	20.88	-29.4	-32.5	14.4	1.83e-05	0	43	102	1048576	18	5103
2026-01-07 02:30:18.49	327.35	20.95	-29.7	-32.6	14.1	1.40e-04	0	43	102	1048576	19	5027
2026-01-07 02:30:21.51	326.58	21.02	-29.6	-32.5	14.1	1.50e-06	0	43	102	1048576	19	4999
2026-01-07 02:30:24.53	325.81	21.09	-29.7	-32.8	13.9	8.30e-06	0	43	102	1048576	19	5121
2026-01-07 02:30:27.55	325.04	21.14	-30.0	-33.4	13.5	1.22e-05	0	43	102	1048576	19	5329
2026-01-07 02:30:30.56	324.26	21.20	-29.9	-32.8	13.5	1.22e-05	0	43	102	1048576	20	5024
2026-01-07 02:30:33.58	323.49	21.25	-30.3	-33.8	12.9	4.50e-05	0	43	102	1048576	20	5397
2026-01-07 02:30:36.60	322.71	21.29	-30.7	-34.7	11.9	3.01e-04	0	43	102	1048576	21	5663
2026-01-07 02:30:39.62	321.92	21.33	-30.5	-34.4	12.5	1.14e-04	0	43	102	1048576	20	5639
2026-01-07 02:30:42.64	321.14	21.36	-30.4	-34.2	12.6	1.02e-04	0	43	102	1048576	20	5549
2026-01-07 02:30:45.65	320.35	21.38	-29.4	-33.2	12.6	8.31e-05	0	43	102	1048576	20	5585
2026-01-07 02:30:48.67	319.57	21.40	-30.2	-33.6	11.9	5.79e-05	0	43	102	1048576	20	5331
2026-01-07 02:30:51.69	318.78	21.42	-30.1	-33.3	13.2	9.10e-06	0	43	102	1048576	20	5187
2026-01-07 02:30:54.71	317.99	21.43	-30.2	-33.6	13.0	4.42e-05	0	43	102	1048576	20	5304
2026-01-07 02:30:57.73	317.20	21.43	-30.2	-33.7	13.0	4.11e-05	0	43	102	1048576	20	5340
2026-01-07 02:31:00.74	316.41	21.43	-30.2	-33.5	13.1	2.68e-03	0	43	102	1048576	20	5286
2026-01-07 02:31:03.77	315.62	21.42	-30.1	-33.2	13.3	2.63e-03	0	43	102	1048576	20	5169
2026-01-07 02:31:06.78	314.84	21.40	-30.1	-33.3	13.2	2.67e-03	0	44	102	1048576	20	5212
2026-01-07 02:31:09.80	314.05	21.38	-30.1	-33.1	13.3	2.58e-03	0	43	102	1048576	20	5141
2026-01-07 02:31:12.82	313.26	21.36	-29.9	-32.8	13.5	1.06e-05	0	44	102	1048576	20	5017
2026-01-07 02:31:15.83	312.48	21.33	-30.0	-33.5	13.5	3.00e-06	0	43	102	1048576	19	5361
2026-01-07 02:31:18.85	311.70	21.29	-29.5	-32.1	14.4	2.54e-03	0	43	102	1048576	19	4868
2026-01-07 02:31:21.88	310.91	21.25	-29.8	-32.8	13.9	2.46e-03	0	43	102	1048576	19	5126
2026-01-07 02:31:24.90	310.14	21.20	-29.2	-31.7	14.9	2.22e-03	0	43	102	1048576	18	4843
2026-01-07 02:31:27.93	309.36	21.14	-29.1	-31.5	15.1	2.40e-03	0	43	102	1048576	18	4775
2026-01-07 02:31:30.96	308.58	21.08	-28.9	-31.0	15.4	2.17e-03	0	43	102	1048576	18	4609
2026-01-07 02:31:33.98	307.81	21.02	-28.9	-31.6	15.3	2.08e-03	0	43	102	1048576	17	4912
2026-01-07 02:31:37.00	307.04	20.95	-29.2	-31.9	14.9	0.00e+00	0	43	102	1048576	18	4887
2026-01-07 02:31:40.02	306.28	20.87	-28.6	-31.0	15.6	0.00e+00	0	43	102	1048576	17	4703
2026-01-07 02:31:43.04	305.52	20.79	-28.5	-30.5	15.9	0.00e+00	0	43	102	1048576	17	4574
2026-01-07 02:31:46.06	304.76	20.71	-28.6	-30.9	15.7	0.00e+00	0	43	102	1048576	17	4693
2026-01-07 02:31:49.08	304.01	20.62	-28.6	-30.9	15.7	7.00e-07	0	43	102	1048576	17	4680
2026-01-07 02:31:52.09	303.27	20.52	-28.7	-31.1	15.5	0.00e+00	0	43	102	1048576	17	4744
2026-01-07 02:31:55.11	302.53	20.42	-28.8	-31.3	15.4	0.00e+00	0	43	102	1048576	17	4823
2026-01-07 02:31:58.13	301.79	20.32	-29.1	-31.6	15.0	7.00e-07	0	43	102	1048576	18	4812
2026-01-07 02:32:01.15	301.06	20.21	-29.3	-32.0	14.7	3.80e-06	0	44	102	1048576	18	4948
2026-01-07 02:32:04.16	300.33	20.10	-29.4	-32.4	14.4	0.00e+00	0	43	102	1048576	18	5098
2026-01-07 02:32:07.18	299.61	19.98	-29.7	-32.6	13.9	3.80e-06	0	43	102	1048576	19	5055
2026-01-07 02:32:10.21	298.89	19.86	-29.5	-32.3	14.2	1.50e-06	0	43	102	1048576	19	4939
2026-01-07 02:32:13.23	298.18	19.73	-29.8	-33.0	13.7	7.60e-06	0	43	102	1048576	19	5209
2026-01-07 02:32:16.24	297.48	19.60	-29.9	-33.4	13.5	2.99e-03	0	43	102	1048576	19	5354
2026-01-07 02:32:19.26	296.78	19.47	-29.9	-33.2	13.5	2.99e-03	0	43	102	1048576	19	5290
2026-01-07 02:32:22.28	296.09	19.33	-29.9	-33.3	13.5	2.96e-03	0	43	102	1048576	19	5309
2026-01-07 02:32:25.30	295.41	19.19	-29.8	-33.1	13.6	1.75e-05	0	43	102	1048576	19	5255
2026-01-07 02:32:28.32	294.73	19.05	-29.9	-33.4	13.3	1.22e-05	0	43	102	1048576	19	5376
2026-01-07 02:32:31.34	294.06	18.90	-30.0	-33.5	13.3	2.44e-05	0	44	102	1048576	19	5398
2026-01-07 02:32:34.36	293.39	18.75	-29.7	-32.9	13.7	3.06e-03	0	44	102	1048576	19	5153
2026-01-07 02:32:37.38	292.73	18.60	-30.5	-34.5	12.2	3.31e-03	0	44	102	1048576	20	5735
2026-01-07 02:32:40.40	292.08	18.44	-30.3	-34.0	12.5	3.28e-03	0	43	102	1048576	20	5504
2026-01-07 02:32:43.41	291.43	18.28	-30.5	-34.2	12.0	2.70e-03	0	43	102	1048576	21	5508
2026-01-07 02:32:46.43	290.80	18.12	-30.5	-34.0	12.1	3.60e-03	0	43	102	1048576	21	5425
2026-01-07 02:32:49.45	290.16	17.95	-29.9	-32.9	13.2	3.21e-03	0	44	102	1048576	20	5099
2026-01-07 02:32:52.46	289.54	17.79	-30.0	-33.1	13.1	2.97e-05	0	43	102	1048576	20	5145
2026-01-07 02:32:55.48	288.92	17.62	-30.0	-33.0	13.1	2.98e-03	0	43	102	1048576	20	5131
2026-01-07 02:32:58.50	288.31	17.45	-29.8	-33.2	13.4	2.67e-03	0	43	102	1048576	19	5289
2026-01-07 02:33:01.52	287.71	17.27	-29.8	-33.0	13.5	2.36e-03	0	43	102	1048576	19	5224
2026-01-07 02:33:04.54	287.11	17.10	-30.0	-33.0	13.1	2.69e-03	0	44	102	1048576	20	5128
2026-01-07 02:33:07.55	286.52	16.92	-30.0	-33.2	13.0	3.12e-03	0	43	102	1048576	20	5205
2026-01-07 02:33:10.57	285.94	16.74	-30.0	-33.2	13.0	6.56e-05	0	43	102	1048576	20	5196
2026-01-07 02:33:13.60	285.36	16.56	-29.8	-33.2	13.4	1.29e-05	0	44	102	1048576	19	5281
2026-01-07 02:33:16.61	284.79	16.38	-30.1	-33.4	12.8	3.58e-05	0	43	102	1048576	20	5284
2026-01-07 02:33:19.62	284.23	16.19	-30.4	-34.3	12.2	2.46e-04	0	43	102	1048576	20	5643
2026-01-07 02:33:22.64	283.68	16.01	-30.2	-33.9	12.4	1.69e-04	0	43	102	1048576	20	5509
2026-01-07 02:33:25.66	283.13	15.82	-30.2	-33.7	12.6	1.16e-04	0	43	102	1048576	20	5422
2026-01-07 02:33:28.66	282.59	15.64	-30.3	-34.2	12.2	1.71e-04	0	44	102	1048576	20	5607
2026-01-07 02:33:31.68	282.05	15.45	-30.2	-33.7	12.5	1.46e-04	0	44	102	1048576	20	5422
2026-01-07 02:33:34.70	281.53	15.26	-29.7	-33.0	12.8	6.86e-05	0	43	102	1048576	20	5279
2026-01-07 02:33:37.72	281.01	15.07	-30.2	-33.8	12.2	8.23e-05	0	43	102	1048576	20	5458
2026-01-07 02:33:40.75	280.49	14.87	-30.4	-34.3	12.0	2.78e-04	0	44	102	1048576	20	5685
2026-01-07 02:33:43.76	279.98	14.68	-30.3	-34.3	12.1	2.87e-04	0	44	102	1048576	20	5680
2026-01-07 02:33:46.79	279.48	14.49	-30.0	-33.3	12.8	7.24e-05	0	43	102	1048576	20	5264
2026-01-07 02:33:49.80	278.99	14.29	-29.9	-33.1	12.8	3.89e-04	0	43	102	1048576	20	5203
2026-01-07 02:33:52.83	278.50	14.10	-30.0	-33.3	12.7	6.72e-04	0	44	102	1048576	20	5278
2026-01-07 02:33:55.85	278.02	13.90	-30.0	-33.4	12.6	3.00e-04	0	44	102	1048576	20	5323
2026-01-07 02:33:58.87	277.54	13.71	-30.0	-33.3	12.7	4.37e-04	0	43	102	1048576	20	5277
2026-01-07 02:34:01.88	277.07	13.51	-29.9	-32.9	12.9	1.28e-03	0	43	102	1048576	20	5127
2026-01-07 02:34:04.90	276.61	13.32	-30.0	-33.7	12.8	4.04e-05	0	44	102	1048576	19	5516
2026-01-07 02:34:07.91	276.16	13.12	-29.9	-33.6	12.9	3.53e-04	0	43	102	1048576	19	5479
2026-01-07 02:34:10.93	275.70	12.93	-30.0	-33.3	12.6	3.33e-04	0	44	102	1048576	20	5294
2026-01-07 02:34:13.95	275.26	12.73	-29.8	-33.2	13.1	3.80e-04	0	43	102	1048576	19	5351
2026-01-07 02:34:16.97	274.82	12.53	-29.9	-33.7	12.8	3.82e-04	0	43	102	1048576	19	5535
2026-01-07 02:34:19.99	274.39	12.34	-29.5	-32.6	13.5	3.38e-04	0	43	102	1048576	19	5093
2026-01-07 02:34:23.01	273.96	12.14	-29.4	-32.2	13.7	3.80e-06	0	44	102	1048576	19	4973
2026-01-07 02:34:26.03	273.54	11.94	-29.3	-32.5	13.8	3.00e-06	0	43	102	1048576	18	5189
2026-01-07 02:34:29.06	273.12	11.74	-29.4	-32.7	13.7	5.30e-06	0	43	102	1048576	18	5252
2026-01-07 02:34:32.07	272.72	11.55	-29.8	-33.2	13.0	3.12e-05	0	43	102	1048576	19	5358
2026-01-07 02:34:35.09	272.31	11.35	-29.8	-33.3	12.9	4.80e-05	0	43	102	1048576	19	5388
2026-01-07 02:34:38.11	271.91	11.16	-29.8	-33.2	13.0	1.04e-03	0	43	102	1048576	19	5349
2026-01-07 02:34:41.13	271.52	10.96	-29.6	-32.9	13.2	3.89e-05	0	44	102	1048576	19	5227
2026-01-07 02:34:44.15	271.13	10.76	-29.7	-33.1	13.0	2.97e-05	0	43	102	1048576	19	5308
2026-01-07 02:34:47.17	270.75	10.57	-29.8	-33.3	12.8	5.87e-05	0	43	102	1048576	19	5407
2026-01-07 02:34:50.18	270.37	10.37	-29.7	-33.1	12.9	4.57e-05	0	43	102	1048576	19	5336
2026-01-07 02:34:53.20	270.00	10.18	-29.7	-33.2	12.8	5.49e-05	0	43	102	1048576	19	5370
2026-01-07 02:34:56.21	269.63	9.99	-28.5	-31.5	13.3	1.67e-05	0	44	102	1048576	19	5076
2026-01-07 02:34:59.23	269.27	9.79	-29.8	-33.3	11.4	6.48e-05	0	43	102	1048576	19	5428
2026-01-07 02:35:02.26	268.91	9.60	-29.9	-33.7	12.5	4.62e-03	0	44	102	1048576	19	5562
2026-01-07 02:35:05.28	268.56	9.41	-29.8	-33.6	12.5	5.25e-03	0	43	102	1048576	19	5540
2026-01-07 02:35:08.29	268.21	9.21	-30.3	-34.6	11.3	9.83e-04	0	43	102	1048576	20	5919
2026-01-07 02:35:11.31	267.87	9.02	-30.0	-34.1	12.1	2.68e-04	0	43	102	1048576	19	5757
2026-01-07 02:35:14.34	267.53	8.83	-30.0	-33.6	12.0	3.66e-04	0	43	102	1048576	20	5462
2026-01-07 02:35:17.36	267.19	8.64	-30.1	-34.0	11.7	5.49e-04	0	43	102	1048576	20	5618
2026-01-07 02:35:20.38	266.86	8.45	-30.2	-34.3	11.4	5.46e-03	0	43	102	1048576	20	5781
2026-01-07 02:35:23.40	266.54	8.26	-30.2	-34.4	11.4	4.86e-03	0	44	102	1048576	20	5805
2026-01-07 02:35:26.43	266.22	8.07	-30.1	-34.1	11.5	4.60e-03	0	43	102	1048576	20	5705
2026-01-07 02:35:29.45	265.90	7.88	-30.2	-34.4	11.3	4.45e-03	0	43	102	1048576	20	5837
2026-01-07 02:35:32.46	265.59	7.69	-30.3	-34.7	11.1	5.46e-03	0	43	102	1048576	20	5977
2026-01-07 02:35:35.47	265.28	7.50	-30.4	-35.0	10.8	5.95e-03	0	43	102	1048576	20	6153
2026-01-07 02:35:38.49	264.97	7.32	-30.3	-34.8	11.0	1.99e-03	0	43	102	1048576	20	6021
2026-01-07 02:35:41.51	264.67	7.13	-30.3	-34.8	11.0	5.44e-03	0	43	102	1048576	20	6009
2026-01-07 02:35:44.53	264.38	6.94	-33.2	-47.6	3.8	1.49e+00	0	43	104	1048576	26	18742

#Closed at: 2026-01-07 02:35:45
#Recorded file [1 MB]: D:/data/31010_260107_052612.dat