passes_logs/2026/01/07/R2M6_AANII_01/R2M6_AANII_01__20260107_013539_NOAA_21_JPSS-2_rec.log

#Pass ID: 20260107_013539_NOAA 21 (JPSS-2)
#Satellite: NOAA 21 (JPSS-2)
#Configuration: NOAA 21
#almurnet v.1.7.20240730
#Start time: 2026-01-07 01:36:55

#Version: 2.2.20231116
#Station: R2M6_AANII_01
#Location: 30.233357 lon 59.946436 lat
#TLE: 1 54234U 22150A   26005.56767909  .00000152  00000+0  92756-4 0  9990
#TLE: 2 54234  98.7490 306.5820 0001036 340.2747  19.8389 14.19532370163472

#Time	Az	El	Level	Level2	SNR	BER	BlckErr	Temp	State	Recorded	gain1	gain2
2026-01-07 01:36:55.59	6.93	12.95	-33.1	-44.3	3.8	8.47e-01	0	43	0	0	26	13057
2026-01-07 01:36:58.61	6.65	13.21	-33.7	-45.9	3.8	1.49e+00	0	44	104	0	27	14574
2026-01-07 01:37:01.63	6.36	13.48	-33.8	-46.0	3.8	1.49e+00	0	44	104	0	27	14679
2026-01-07 01:37:04.65	6.07	13.74	-33.9	-46.2	3.8	1.49e+00	0	43	104	0	27	14817
2026-01-07 01:37:07.67	5.77	14.01	-33.9	-46.2	3.8	1.49e+00	0	43	104	0	27	14777
2026-01-07 01:37:10.69	5.46	14.28	-33.9	-46.2	3.8	1.49e+00	0	44	104	0	27	14824
2026-01-07 01:37:13.71	5.15	14.55	-34.0	-46.3	3.8	1.49e+00	0	44	104	0	27	14875
2026-01-07 01:37:16.72	4.84	14.82	-33.9	-45.6	3.8	1.49e+00	0	44	104	0	28	13877
2026-01-07 01:37:19.74	4.52	15.10	-34.0	-46.2	3.8	1.49e+00	0	44	104	0	27	14794
2026-01-07 01:37:22.75	4.19	15.38	-33.8	-46.0	3.8	1.49e+00	0	44	104	0	27	14651
2026-01-07 01:37:25.77	3.85	15.66	-33.7	-45.7	3.8	1.49e+00	0	44	104	0	27	14326
2026-01-07 01:37:28.78	3.51	15.94	-33.3	-45.1	3.8	1.49e+00	0	44	104	0	26	14021
2026-01-07 01:37:31.81	3.17	16.23	-33.2	-44.5	3.8	1.49e+00	0	43	104	0	26	13259
2026-01-07 01:37:34.83	2.81	16.51	-33.1	-44.1	3.8	1.49e+00	0	44	104	0	26	12661
2026-01-07 01:37:37.85	2.45	16.80	-33.1	-43.6	3.8	1.49e+00	0	44	104	0	26	12045
2026-01-07 01:37:40.87	2.08	17.09	-33.2	-44.5	3.8	1.49e+00	0	44	104	0	26	13153
2026-01-07 01:37:43.88	1.70	17.39	-33.1	-44.0	3.8	1.49e+00	0	44	104	0	26	12567
2026-01-07 01:37:46.90	1.32	17.68	-31.6	-36.6	7.3	1.72e-01	0	44	102	1048576	23	6383
2026-01-07 01:37:49.92	0.93	17.98	-30.5	-34.0	9.8	1.01e-02	0	43	102	1048576	21	5372
2026-01-07 01:37:52.95	0.53	18.28	-30.2	-33.7	9.7	4.36e-03	0	44	102	1048576	20	5350
2026-01-07 01:37:55.97	0.12	18.59	-30.2	-33.5	10.4	4.32e-03	0	44	102	1048576	20	5267
2026-01-07 01:37:59.00	359.70	18.89	-28.7	-31.1	13.1	4.95e-05	0	44	102	1048576	17	4749
2026-01-07 01:38:02.01	359.28	19.20	-27.7	-29.8	14.4	4.62e-03	0	43	102	1048576	15	4552
2026-01-07 01:38:05.04	358.84	19.51	-27.3	-29.4	15.0	0.00e+00	0	44	102	1048576	14	4544
2026-01-07 01:38:08.05	358.40	19.82	-27.3	-29.2	15.1	4.35e-03	0	44	102	1048576	14	4505
2026-01-07 01:38:11.07	357.94	20.13	-27.2	-29.0	15.2	5.17e-04	0	43	102	1048576	14	4424
2026-01-07 01:38:14.10	357.48	20.45	-27.1	-28.9	15.3	4.84e-03	0	44	102	1048576	14	4398
2026-01-07 01:38:17.12	357.01	20.76	-27.2	-28.9	15.2	4.18e-03	0	43	102	1048576	14	4418
2026-01-07 01:38:20.14	356.53	21.08	-27.3	-29.4	15.0	4.59e-03	0	44	102	1048576	14	4546
2026-01-07 01:38:23.16	356.03	21.40	-27.0	-29.0	15.5	0.00e+00	0	43	102	1048576	13	4545
2026-01-07 01:38:26.17	355.53	21.73	-26.8	-28.7	15.7	0.00e+00	0	44	102	1048576	13	4452
2026-01-07 01:38:29.19	355.02	22.05	-27.1	-28.8	15.3	0.00e+00	0	44	102	1048576	14	4372
2026-01-07 01:38:32.21	354.49	22.38	-26.4	-27.8	16.1	0.00e+00	0	44	102	1048576	13	4215
2026-01-07 01:38:35.24	353.95	22.71	-26.4	-28.2	16.2	3.62e-03	0	44	102	1048576	12	4422
2026-01-07 01:38:38.26	353.41	23.03	-26.5	-28.3	16.1	0.00e+00	0	43	102	1048576	12	4473
2026-01-07 01:38:41.27	352.85	23.36	-26.3	-28.0	16.3	0.00e+00	0	44	102	1048576	12	4377
2026-01-07 01:38:44.29	352.28	23.70	-26.4	-28.2	16.2	0.00e+00	0	44	102	1048576	12	4435
2026-01-07 01:38:47.31	351.69	24.03	-26.8	-28.7	15.7	0.00e+00	0	44	102	1048576	13	4454
2026-01-07 01:38:50.33	351.09	24.36	-26.4	-27.6	16.3	0.00e+00	0	44	102	1048576	13	4164
2026-01-07 01:38:53.34	350.49	24.69	-26.5	-28.0	16.1	0.00e+00	0	44	102	1048576	13	4259
2026-01-07 01:38:56.36	349.86	25.03	-26.8	-28.7	15.7	0.00e+00	0	44	102	1048576	13	4471
2026-01-07 01:38:59.39	349.22	25.37	-26.5	-27.9	16.2	0.00e+00	0	44	102	1048576	13	4242
2026-01-07 01:39:02.41	348.57	25.70	-26.4	-28.1	16.3	0.00e+00	0	44	102	1048576	12	4402
2026-01-07 01:39:05.42	347.91	26.04	-26.4	-28.2	16.3	0.00e+00	0	44	102	1048576	12	4437
2026-01-07 01:39:08.44	347.23	26.37	-26.4	-27.8	16.3	0.00e+00	0	44	102	1048576	13	4202
2026-01-07 01:39:11.45	346.54	26.70	-26.6	-28.0	16.1	0.00e+00	0	44	102	1048576	13	4265
2026-01-07 01:39:14.45	345.83	27.04	-27.1	-28.9	15.4	0.00e+00	0	44	102	1048576	14	4388
2026-01-07 01:39:17.48	345.10	27.37	-27.3	-29.2	15.3	0.00e+00	0	44	102	1048576	14	4482
2026-01-07 01:39:20.49	344.37	27.70	-27.2	-28.9	15.4	0.00e+00	0	43	102	1048576	14	4397
2026-01-07 01:39:23.50	343.61	28.03	-27.3	-29.2	15.3	0.00e+00	0	43	102	1048576	14	4473
2026-01-07 01:39:26.52	342.84	28.36	-27.2	-28.9	15.5	0.00e+00	0	44	102	1048576	14	4393
2026-01-07 01:39:29.53	342.06	28.69	-27.2	-29.0	15.4	0.00e+00	0	44	102	1048576	14	4428
2026-01-07 01:39:32.56	341.25	29.01	-27.2	-29.1	14.1	0.00e+00	0	43	102	1048576	14	4448
2026-01-07 01:39:35.58	340.43	29.34	-26.9	-28.9	15.6	0.00e+00	0	44	102	1048576	13	4503
2026-01-07 01:39:38.60	339.59	29.65	-26.9	-28.7	15.8	0.00e+00	0	43	102	1048576	13	4451
2026-01-07 01:39:41.62	338.74	29.97	-26.7	-28.3	16.0	1.20e-03	0	44	102	1048576	13	4349
2026-01-07 01:39:44.64	337.87	30.28	-26.8	-28.5	15.9	2.73e-04	0	44	102	1048576	13	4402
2026-01-07 01:39:47.66	336.98	30.59	-27.1	-28.7	15.6	2.08e-04	0	44	102	1048576	14	4340
2026-01-07 01:39:50.69	336.07	30.89	-27.1	-28.7	15.6	5.03e-04	0	43	102	1048576	14	4335
2026-01-07 01:39:53.71	335.15	31.19	-27.2	-29.1	15.4	1.98e-05	0	44	102	1048576	14	4449
2026-01-07 01:39:56.73	334.21	31.48	-27.5	-29.5	15.1	7.17e-05	0	44	102	1048576	14	4583
2026-01-07 01:39:59.75	333.25	31.77	-27.5	-29.6	15.1	5.10e-04	0	44	102	1048576	14	4605
2026-01-07 01:40:02.77	332.28	32.05	-27.8	-29.8	14.7	2.16e-04	0	44	102	1048576	15	4530
2026-01-07 01:40:05.80	331.28	32.32	-27.6	-29.4	14.9	6.18e-04	0	43	102	1048576	15	4434
2026-01-07 01:40:08.82	330.28	32.58	-27.8	-29.7	14.8	0.00e+00	0	43	102	1048576	15	4525
2026-01-07 01:40:11.84	329.25	32.84	-28.0	-29.7	14.7	0.00e+00	0	44	102	1048576	16	4385
2026-01-07 01:40:14.85	328.22	33.09	-28.2	-30.3	14.3	7.00e-07	0	44	102	1048576	16	4567
2026-01-07 01:40:17.87	327.16	33.33	-27.8	-29.8	14.7	0.00e+00	0	44	102	1048576	15	4548
2026-01-07 01:40:20.89	326.09	33.56	-27.7	-29.6	14.8	0.00e+00	0	44	102	1048576	15	4489
2026-01-07 01:40:23.91	325.00	33.78	-27.6	-29.3	15.0	0.00e+00	0	44	102	1048576	15	4388
2026-01-07 01:40:26.93	323.90	33.99	-27.6	-29.5	14.9	0.00e+00	0	44	102	1048576	15	4449
2026-01-07 01:40:29.96	322.78	34.19	-28.2	-30.3	14.3	7.00e-07	0	43	102	1048576	16	4582
2026-01-07 01:40:32.98	321.66	34.38	-28.3	-30.4	14.3	7.00e-07	0	43	102	1048576	16	4595
2026-01-07 01:40:35.99	320.52	34.55	-28.2	-30.3	14.3	0.00e+00	0	44	102	1048576	16	4580
2026-01-07 01:40:39.01	319.36	34.72	-28.2	-30.2	14.3	3.69e-03	0	44	102	1048576	16	4554
2026-01-07 01:40:42.03	318.20	34.87	-28.1	-30.0	14.5	0.00e+00	0	44	102	1048576	16	4467
2026-01-07 01:40:45.04	317.03	35.00	-27.8	-29.9	14.7	3.74e-03	0	44	102	1048576	15	4563
2026-01-07 01:40:48.06	315.84	35.13	-28.4	-30.8	14.0	2.20e-06	0	44	102	1048576	16	4722
2026-01-07 01:40:51.07	314.65	35.24	-28.1	-30.1	14.5	1.95e-03	0	44	102	1048576	16	4491
2026-01-07 01:40:54.09	313.45	35.34	-28.3	-30.6	14.2	3.98e-03	0	44	102	1048576	16	4638
2026-01-07 01:40:57.12	312.24	35.42	-28.1	-30.0	14.5	3.76e-03	0	44	102	1048576	16	4489
2026-01-07 01:41:00.14	311.03	35.49	-28.2	-30.3	14.4	3.07e-03	0	44	102	1048576	16	4555
2026-01-07 01:41:03.16	309.81	35.55	-28.4	-30.8	14.1	2.41e-03	0	44	102	1048576	16	4718
2026-01-07 01:41:06.18	308.58	35.59	-28.4	-30.7	14.2	4.16e-03	0	43	102	1048576	16	4673
2026-01-07 01:41:09.20	307.36	35.61	-28.8	-31.1	13.6	7.60e-06	0	44	102	1048576	17	4710
2026-01-07 01:41:12.21	306.14	35.62	-28.2	-30.2	14.4	3.89e-03	0	44	102	1048576	16	4538
2026-01-07 01:41:15.23	304.91	35.62	-28.1	-30.0	14.5	0.00e+00	0	44	102	1048576	16	4475
2026-01-07 01:41:18.25	303.68	35.60	-28.1	-30.0	14.5	2.20e-06	0	44	102	1048576	16	4484
2026-01-07 01:41:21.26	302.47	35.56	-27.7	-29.6	14.9	0.00e+00	0	44	102	1048576	15	4463
2026-01-07 01:41:24.27	301.25	35.51	-27.8	-29.9	14.7	0.00e+00	0	44	102	1048576	15	4562
2026-01-07 01:41:27.27	300.04	35.45	-27.8	-29.8	14.7	7.00e-07	0	43	102	1048576	15	4547
2026-01-07 01:41:30.29	298.83	35.37	-28.2	-30.1	14.5	7.00e-07	0	44	102	1048576	16	4519
2026-01-07 01:41:33.31	297.62	35.28	-27.9	-30.1	14.6	7.00e-07	0	44	102	1048576	15	4639
2026-01-07 01:41:36.32	296.43	35.17	-28.8	-31.1	13.5	7.60e-06	0	44	102	1048576	17	4719
2026-01-07 01:41:39.34	295.24	35.05	-28.5	-30.4	14.0	1.50e-06	0	43	102	1048576	17	4498
2026-01-07 01:41:42.35	294.06	34.92	-28.7	-30.8	13.7	6.80e-06	0	43	102	1048576	17	4627
2026-01-07 01:41:45.38	292.89	34.77	-28.4	-30.1	14.1	3.00e-06	0	44	102	1048576	17	4415
2026-01-07 01:41:48.40	291.73	34.61	-27.6	-29.3	15.0	1.50e-06	0	43	102	1048576	15	4404
2026-01-07 01:41:51.42	290.58	34.44	-27.6	-29.5	14.9	0.00e+00	0	44	102	1048576	15	4435
2026-01-07 01:41:54.44	289.45	34.25	-27.6	-29.4	14.9	0.00e+00	0	44	102	1048576	15	4410
2026-01-07 01:41:57.47	288.32	34.05	-27.9	-30.1	14.6	1.50e-06	0	44	102	1048576	15	4635
2026-01-07 01:42:00.48	287.22	33.85	-27.7	-29.6	14.8	0.00e+00	0	44	102	1048576	15	4479
2026-01-07 01:42:03.50	286.13	33.63	-27.9	-30.2	14.5	0.00e+00	0	44	102	1048576	15	4664
2026-01-07 01:42:06.52	285.05	33.40	-28.2	-30.2	14.4	2.80e-03	0	43	102	1048576	16	4541
2026-01-07 01:42:09.53	283.99	33.17	-27.5	-29.2	15.0	0.00e+00	0	44	102	1048576	15	4361
2026-01-07 01:42:12.55	282.94	32.92	-27.8	-29.9	14.6	6.30e-04	0	44	102	1048576	15	4591
2026-01-07 01:42:15.58	281.90	32.67	-27.7	-29.6	14.8	7.01e-05	0	43	102	1048576	15	4493
2026-01-07 01:42:18.60	280.89	32.40	-27.1	-28.7	15.6	4.08e-03	0	44	102	1048576	14	4346
2026-01-07 01:42:21.60	279.90	32.13	-27.4	-29.4	15.2	4.87e-03	0	43	102	1048576	14	4525
2026-01-07 01:42:24.62	278.91	31.86	-27.6	-29.3	14.9	4.19e-03	0	44	102	1048576	15	4408
2026-01-07 01:42:27.64	277.95	31.57	-27.1	-28.7	15.5	2.84e-03	0	43	102	1048576	14	4348
2026-01-07 01:42:30.65	277.00	31.28	-27.6	-29.5	14.8	0.00e+00	0	43	102	1048576	15	4454
2026-01-07 01:42:33.67	276.07	30.99	-27.7	-29.6	14.7	2.53e-03	0	44	102	1048576	15	4484
2026-01-07 01:42:36.69	275.16	30.68	-27.5	-29.3	14.9	0.00e+00	0	44	102	1048576	15	4402
2026-01-07 01:42:39.70	274.26	30.38	-27.7	-29.6	14.7	4.02e-03	0	43	102	1048576	15	4490
2026-01-07 01:42:42.72	273.38	30.07	-28.3	-30.6	14.0	3.80e-06	0	43	102	1048576	16	4673
2026-01-07 01:42:45.74	272.52	29.75	-26.7	-27.8	16.0	0.00e+00	0	43	102	1048576	14	4105
2026-01-07 01:42:48.76	271.68	29.43	-27.1	-28.7	15.5	0.00e+00	0	44	102	1048576	14	4355
2026-01-07 01:42:51.78	270.85	29.11	-27.2	-28.9	15.4	0.00e+00	0	43	102	1048576	14	4394
2026-01-07 01:42:54.79	270.04	28.79	-27.0	-28.5	15.6	0.00e+00	0	44	102	1048576	14	4276
2026-01-07 01:42:57.81	269.24	28.46	-27.3	-29.1	15.2	0.00e+00	0	44	102	1048576	14	4467
2026-01-07 01:43:00.84	268.46	28.13	-27.4	-29.0	15.0	0.00e+00	0	44	102	1048576	15	4308
2026-01-07 01:43:03.86	267.69	27.80	-26.6	-27.7	16.0	0.00e+00	0	44	102	1048576	14	4084
2026-01-07 01:43:06.88	266.95	27.46	-26.3	-27.5	16.3	0.00e+00	0	44	102	1048576	13	4140
2026-01-07 01:43:09.90	266.21	27.13	-27.5	-29.2	15.5	0.00e+00	0	44	102	1048576	14	4386
2026-01-07 01:43:12.92	265.50	26.79	-27.0	-28.6	15.4	0.00e+00	0	44	102	1048576	14	4326
2026-01-07 01:43:15.94	264.79	26.46	-26.8	-28.7	15.7	0.00e+00	0	44	102	1048576	13	4444
2026-01-07 01:43:18.96	264.11	26.12	-27.3	-29.2	15.1	4.09e-03	0	44	102	1048576	14	4503
2026-01-07 01:43:21.97	263.43	25.79	-26.6	-28.2	15.9	0.00e+00	0	44	102	1048576	13	4324
2026-01-07 01:43:24.99	262.78	25.45	-26.4	-28.2	16.2	3.51e-03	0	44	102	1048576	12	4434
2026-01-07 01:43:28.01	262.13	25.11	-26.8	-28.7	15.6	0.00e+00	0	44	102	1048576	13	4474
2026-01-07 01:43:31.03	261.50	24.78	-26.7	-28.5	15.7	2.38e-04	0	44	102	1048576	13	4402
2026-01-07 01:43:34.05	260.88	24.44	-26.4	-27.7	16.2	0.00e+00	0	44	102	1048576	13	4179
2026-01-07 01:43:37.07	260.28	24.10	-26.0	-27.2	16.7	3.83e-04	0	44	102	1048576	12	4162
2026-01-07 01:43:40.09	259.69	23.77	-26.3	-27.9	16.3	2.21e-05	0	44	102	1048576	12	4364
2026-01-07 01:43:43.09	259.11	23.44	-26.6	-28.3	15.8	2.55e-03	0	44	102	1048576	13	4345
2026-01-07 01:43:46.11	258.54	23.11	-26.6	-28.2	15.8	1.57e-03	0	43	102	1048576	13	4337
2026-01-07 01:43:49.14	257.99	22.78	-26.7	-28.5	15.7	3.81e-05	0	44	102	1048576	13	4403
2026-01-07 01:43:52.16	257.44	22.45	-27.0	-29.0	15.4	0.00e+00	0	44	102	1048576	13	4560
2026-01-07 01:43:55.18	256.91	22.12	-26.7	-28.5	15.6	6.49e-04	0	44	102	1048576	13	4424
2026-01-07 01:43:58.20	256.39	21.79	-26.4	-28.2	16.1	9.10e-06	0	44	102	1048576	12	4451
2026-01-07 01:44:01.22	255.88	21.47	-26.3	-28.0	16.2	0.00e+00	0	43	102	1048576	12	4379
2026-01-07 01:44:04.22	255.39	21.15	-26.8	-28.6	15.6	2.20e-06	0	43	102	1048576	13	4432
2026-01-07 01:44:07.25	254.90	20.82	-26.3	-28.1	16.1	3.00e-06	0	44	102	1048576	12	4418
2026-01-07 01:44:10.27	254.42	20.51	-26.1	-27.7	16.3	7.60e-06	0	44	102	1048576	12	4297
2026-01-07 01:44:13.29	253.95	20.19	-26.4	-28.2	16.0	9.90e-06	0	43	102	1048576	12	4443
2026-01-07 01:44:16.31	253.49	19.87	-26.9	-28.9	15.3	0.00e+00	0	44	102	1048576	13	4531
2026-01-07 01:44:19.34	253.04	19.56	-26.9	-29.0	15.3	6.10e-06	0	44	102	1048576	13	4561
2026-01-07 01:44:22.37	252.60	19.25	-26.5	-28.0	15.8	0.00e+00	0	44	102	1048576	13	4286
2026-01-07 01:44:25.39	252.17	18.94	-26.7	-28.5	15.5	0.00e+00	0	44	102	1048576	13	4427
2026-01-07 01:44:28.41	251.75	18.63	-26.8	-28.7	15.4	0.00e+00	0	44	102	1048576	13	4467
2026-01-07 01:44:31.44	251.33	18.33	-27.3	-29.2	14.8	0.00e+00	0	44	102	1048576	14	4525
2026-01-07 01:44:34.46	250.93	18.02	-27.9	-30.2	14.0	1.50e-06	0	43	102	1048576	15	4692
2026-01-07 01:44:37.48	250.53	17.72	-27.1	-28.9	15.0	0.00e+00	0	44	102	1048576	14	4426
2026-01-07 01:44:40.50	250.14	17.42	-27.0	-29.1	15.1	0.00e+00	0	44	102	1048576	13	4607
2026-01-07 01:44:43.52	249.76	17.13	-27.0	-28.8	15.1	0.00e+00	0	44	102	1048576	14	4383
2026-01-07 01:44:46.55	249.38	16.83	-27.2	-29.2	14.8	0.00e+00	0	44	102	1048576	14	4501
2026-01-07 01:44:49.56	249.02	16.54	-27.2	-29.0	14.9	4.89e-03	0	44	102	1048576	14	4455
2026-01-07 01:44:52.58	248.66	16.26	-27.2	-29.2	14.7	0.00e+00	0	44	102	1048576	14	4520
2026-01-07 01:44:55.60	248.30	15.97	-27.2	-29.2	14.7	5.21e-03	0	43	102	1048576	14	4516
2026-01-07 01:44:58.62	247.96	15.68	-27.2	-29.2	14.7	4.14e-03	0	44	102	1048576	14	4505
2026-01-07 01:45:01.63	247.62	15.40	-27.2	-29.2	14.7	0.00e+00	0	44	102	1048576	14	4516
2026-01-07 01:45:04.64	247.29	15.12	-27.2	-29.1	14.7	6.37e-03	0	44	102	1048576	14	4496
2026-01-07 01:45:07.66	246.96	14.85	-27.2	-29.1	14.7	5.57e-03	0	44	102	1048576	14	4492
2026-01-07 01:45:10.67	246.64	14.57	-27.3	-29.4	14.5	4.98e-03	0	44	102	1048576	14	4588
2026-01-07 01:45:13.69	246.33	14.30	-27.4	-29.7	14.3	4.32e-04	0	44	102	1048576	14	4664
2026-01-07 01:45:16.71	246.02	14.03	-27.8	-30.0	13.9	4.86e-03	0	44	102	1048576	15	4650
2026-01-07 01:45:19.74	245.71	13.76	-27.7	-29.8	14.0	2.20e-06	0	43	102	1048576	15	4593
2026-01-07 01:45:22.76	245.42	13.49	-27.7	-29.9	13.9	5.34e-04	0	44	102	1048576	15	4626
2026-01-07 01:45:25.78	245.12	13.22	-27.6	-29.6	14.1	7.00e-07	0	44	102	1048576	15	4522
2026-01-07 01:45:28.80	244.84	12.96	-27.4	-29.7	14.3	3.64e-04	0	44	102	1048576	14	4681
2026-01-07 01:45:31.82	244.56	12.70	-27.5	-29.7	14.2	2.20e-06	0	44	102	1048576	14	4690
2026-01-07 01:45:34.84	244.28	12.44	-27.8	-30.0	13.8	1.98e-05	0	44	102	1048576	15	4668
2026-01-07 01:45:37.87	244.01	12.19	-27.7	-29.9	13.8	4.50e-06	0	44	102	1048576	15	4642
2026-01-07 01:45:40.88	243.74	11.93	-27.9	-30.3	13.6	1.37e-05	0	44	102	1048576	15	4771
2026-01-07 01:45:43.91	243.48	11.68	-28.2	-30.5	13.3	1.75e-05	0	44	102	1048576	16	4687
2026-01-07 01:45:46.93	243.22	11.43	-28.3	-30.7	13.2	2.74e-05	0	44	102	1048576	16	4764
2026-01-07 01:45:49.95	242.97	11.18	-28.3	-30.7	13.1	2.97e-05	0	44	102	1048576	16	4777
2026-01-07 01:45:52.97	242.72	10.93	-28.2	-30.4	13.3	1.60e-05	0	44	102	1048576	16	4679
2026-01-07 01:45:55.99	242.47	10.69	-27.9	-30.3	13.4	7.60e-06	0	44	102	1048576	15	4774
2026-01-07 01:45:59.01	242.23	10.45	-27.9	-30.4	13.4	1.67e-05	0	44	102	1048576	15	4789
2026-01-07 01:46:02.01	242.00	10.21	-28.2	-30.6	13.1	2.51e-05	0	44	102	1048576	16	4752
2026-01-07 01:46:05.03	241.77	9.97	-28.4	-31.1	12.8	7.17e-05	0	43	102	1048576	16	4895
2026-01-07 01:46:08.03	241.54	9.73	-28.3	-30.8	13.0	4.65e-05	0	43	102	1048576	16	4800
2026-01-07 01:46:11.04	241.32	9.50	-28.4	-31.0	12.8	5.87e-05	0	44	102	1048576	16	4876
2026-01-07 01:46:14.06	241.09	9.27	-28.4	-30.6	12.7	7.24e-05	0	44	102	1048576	17	4647
2026-01-07 01:46:17.08	240.88	9.03	-28.4	-30.7	12.6	1.02e-04	0	44	102	1048576	17	4679
2026-01-07 01:46:20.10	240.66	8.80	-28.4	-31.2	12.6	9.61e-05	0	44	102	1048576	16	4950
2026-01-07 01:46:23.13	240.45	8.57	-28.5	-30.8	12.5	1.01e-04	0	44	102	1048576	17	4725
2026-01-07 01:46:26.16	240.24	8.35	-28.6	-31.1	12.3	6.29e-03	0	44	102	1048576	17	4799
2026-01-07 01:46:29.17	240.04	8.12	-28.5	-30.9	12.4	1.43e-04	0	44	102	1048576	17	4752
2026-01-07 01:46:32.20	239.84	7.90	-28.5	-31.3	12.4	6.22e-03	0	44	102	1048576	16	4993
2026-01-07 01:46:35.22	239.64	7.68	-28.3	-30.8	12.7	5.59e-03	0	44	102	1048576	16	4831
2026-01-07 01:46:38.24	239.45	7.46	-28.4	-31.2	12.5	5.29e-03	0	44	102	1048576	16	4946
2026-01-07 01:46:41.26	239.26	7.24	-28.5	-31.0	12.2	1.87e-04	0	44	102	1048576	17	4796
2026-01-07 01:46:44.27	239.07	7.02	-32.8	-45.0	3.8	1.49e+00	0	44	104	1048576	25	14606

#Closed at: 2026-01-07 01:46:45
#Recorded file [1 MB]: D:/data/31010_260107_043746.dat