passes_logs/2026/01/07/R2M6_AANII_01/R2M6_AANII_01__20260107_085852_NOAA_20_JPSS-1_rec.log

#Pass ID: 20260107_085852_NOAA 20 (JPSS-1)
#Satellite: NOAA 20 (JPSS-1)
#Configuration: NOAA 20
#almurnet v.1.7.20240730
#Start time: 2026-01-07 08:58:52

#Version: 2.2.20231116
#Station: R2M6_AANII_01
#Location: 30.233357 lon 59.946436 lat
#TLE: 1 43013U 17073A   26006.30790171  .00000126  00000+0  80695-4 0  9991
#TLE: 2 43013  98.7629 307.3394 0001808  51.8724 308.2615 14.19533762421505

#Time	Az	El	Level	Level2	SNR	BER	BlckErr	Temp	State	Recorded	gain1	gain2
2026-01-07 08:58:52.06	118.91	6.97	-31.8	-38.7	4.6	1.36e+00	0	40	0	0	25	7942
2026-01-07 08:58:55.07	118.71	7.18	-31.8	-39.1	6.3	2.57e-01	0	41	102	1048576	24	8274
2026-01-07 08:58:58.10	118.51	7.40	-31.8	-38.9	6.4	2.81e-01	0	41	102	1048576	24	8115
2026-01-07 08:59:01.11	118.30	7.61	-31.8	-38.9	6.5	2.02e-01	0	41	102	1048576	24	8065
2026-01-07 08:59:04.13	118.10	7.83	-31.8	-38.6	6.7	2.73e-01	0	41	102	1048576	24	7876
2026-01-07 08:59:07.15	117.89	8.05	-31.2	-36.1	9.1	2.94e-02	0	41	102	1048576	23	6347
2026-01-07 08:59:10.17	117.67	8.28	-30.9	-34.9	10.1	6.86e-03	0	41	102	1048576	23	5708
2026-01-07 08:59:13.19	117.46	8.50	-30.8	-34.7	10.3	5.59e-03	0	41	102	1048576	23	5617
2026-01-07 08:59:16.21	117.24	8.73	-30.7	-34.8	10.7	3.30e-03	0	42	102	1048576	22	5767
2026-01-07 08:59:19.24	117.01	8.96	-30.8	-34.9	10.7	2.36e-03	0	42	102	1048576	22	5766
2026-01-07 08:59:22.25	116.78	9.18	-30.9	-35.2	10.5	3.67e-03	0	42	102	1048576	22	5919
2026-01-07 08:59:25.27	116.55	9.41	-30.8	-34.8	10.8	2.37e-03	0	42	102	1048576	22	5715
2026-01-07 08:59:28.29	116.32	9.65	-30.8	-34.6	11.0	2.00e-03	0	42	102	1048576	22	5635
2026-01-07 08:59:31.30	116.08	9.88	-30.7	-34.3	11.3	1.14e-03	0	42	102	1048576	22	5492
2026-01-07 08:59:34.33	115.83	10.12	-30.6	-34.2	11.4	1.25e-03	0	42	102	1048576	22	5418
2026-01-07 08:59:37.35	115.59	10.35	-30.7	-34.3	11.3	1.25e-03	0	42	102	1048576	22	5480
2026-01-07 08:59:40.37	115.34	10.59	-30.5	-33.7	11.8	4.42e-04	0	42	102	1048576	22	5227
2026-01-07 08:59:43.39	115.08	10.83	-30.6	-33.9	11.7	6.45e-04	0	42	102	1048576	22	5281
2026-01-07 08:59:46.40	114.82	11.08	-30.5	-33.7	11.8	4.81e-04	0	42	102	1048576	22	5217
2026-01-07 08:59:49.43	114.55	11.32	-30.5	-33.8	11.8	4.36e-04	0	42	102	1048576	22	5262
2026-01-07 08:59:52.44	114.29	11.57	-30.5	-33.9	11.8	3.91e-04	0	42	102	1048576	22	5273
2026-01-07 08:59:55.45	114.01	11.81	-30.4	-33.4	12.2	2.82e-04	0	42	102	1048576	22	5070
2026-01-07 08:59:58.47	113.73	12.06	-30.5	-33.6	12.0	2.97e-04	0	42	102	1048576	22	5140
2026-01-07 09:00:01.49	113.45	12.32	-30.5	-33.5	12.1	2.32e-04	0	42	102	1048576	22	5109
2026-01-07 09:00:04.51	113.16	12.57	-30.4	-33.3	12.3	1.68e-04	0	42	102	1048576	22	5024
2026-01-07 09:00:07.53	112.87	12.83	-30.3	-33.1	12.5	1.14e-04	0	42	102	1048576	22	4930
2026-01-07 09:00:10.54	112.57	13.08	-30.2	-33.3	12.7	1.05e-04	0	42	102	1048576	21	5129
2026-01-07 09:00:13.56	112.27	13.34	-30.2	-33.3	12.7	7.78e-05	0	43	102	1048576	21	5110
2026-01-07 09:00:16.58	111.96	13.60	-30.3	-33.4	12.6	1.18e-04	0	42	102	1048576	21	5151
2026-01-07 09:00:19.61	111.64	13.87	-30.2	-33.1	12.8	6.56e-05	0	42	102	1048576	21	5047
2026-01-07 09:00:22.63	111.32	14.13	-30.2	-33.2	12.8	6.63e-05	0	43	102	1048576	21	5089
2026-01-07 09:00:25.65	110.99	14.40	-30.3	-33.5	12.6	8.92e-05	0	42	102	1048576	21	5196
2026-01-07 09:00:28.67	110.66	14.67	-30.4	-33.7	12.5	1.39e-04	0	42	102	1048576	21	5275
2026-01-07 09:00:31.68	110.32	14.94	-30.5	-34.0	12.3	1.90e-04	0	43	102	1048576	21	5395
2026-01-07 09:00:34.70	109.97	15.22	-30.6	-34.1	12.3	2.23e-04	0	43	102	1048576	21	5436
2026-01-07 09:00:37.72	109.62	15.49	-30.4	-33.7	12.6	1.06e-04	0	43	102	1048576	21	5236
2026-01-07 09:00:40.74	109.26	15.77	-30.4	-33.7	12.5	1.39e-04	0	43	102	1048576	21	5260
2026-01-07 09:00:43.76	108.89	16.05	-30.5	-33.8	12.5	8.77e-05	0	43	102	1048576	21	5298
2026-01-07 09:00:46.77	108.52	16.33	-30.4	-33.7	12.6	8.92e-05	0	43	102	1048576	21	5246
2026-01-07 09:00:49.79	108.14	16.61	-30.5	-34.0	12.4	1.36e-04	0	43	102	1048576	21	5373
2026-01-07 09:00:52.81	107.75	16.90	-30.5	-34.0	12.4	1.65e-04	0	43	102	1048576	21	5380
2026-01-07 09:00:55.83	107.36	17.19	-30.5	-33.9	12.5	9.76e-05	0	43	102	1048576	21	5331
2026-01-07 09:00:58.85	106.95	17.48	-30.6	-34.1	12.4	1.38e-04	0	43	102	1048576	21	5416
2026-01-07 09:01:01.88	106.54	17.77	-30.5	-34.0	12.5	1.33e-04	0	43	102	1048576	21	5361
2026-01-07 09:01:04.91	106.12	18.06	-30.7	-34.6	12.1	2.60e-04	0	43	102	1048576	21	5605
2026-01-07 09:01:07.93	105.69	18.36	-30.4	-33.6	12.8	5.95e-05	0	43	102	1048576	21	5207
2026-01-07 09:01:10.95	105.25	18.66	-30.3	-33.3	13.0	3.73e-05	0	43	102	1048576	21	5083
2026-01-07 09:01:13.97	104.81	18.96	-30.2	-33.0	13.2	2.82e-05	0	43	102	1048576	21	4958
2026-01-07 09:01:16.98	104.35	19.26	-30.2	-32.9	13.3	2.44e-05	0	43	102	1048576	21	4930
2026-01-07 09:01:20.01	103.89	19.56	-30.2	-32.9	13.3	2.28e-05	0	43	102	1048576	21	4935
2026-01-07 09:01:23.02	103.42	19.86	-30.1	-32.8	13.4	1.44e-05	0	43	102	1048576	21	4875
2026-01-07 09:01:26.05	102.93	20.17	-30.2	-32.8	13.4	1.22e-05	0	43	102	1048576	21	4891
2026-01-07 09:01:29.05	102.45	20.47	-30.0	-32.3	13.8	3.80e-06	0	43	102	1048576	21	4701
2026-01-07 09:01:32.07	101.94	20.78	-30.0	-32.3	13.8	6.80e-06	0	43	102	1048576	21	4700
2026-01-07 09:01:35.09	101.43	21.09	-30.0	-32.4	13.8	3.80e-06	0	43	102	1048576	21	4729
2026-01-07 09:01:38.11	100.91	21.41	-30.2	-32.9	13.4	9.90e-06	0	43	102	1048576	21	4916
2026-01-07 09:01:41.13	100.37	21.72	-30.3	-33.2	13.2	1.52e-05	0	43	102	1048576	21	5024
2026-01-07 09:01:44.14	99.83	22.03	-30.4	-33.4	13.1	2.97e-05	0	43	102	1048576	21	5092
2026-01-07 09:01:47.16	99.27	22.35	-30.4	-33.5	13.1	1.67e-05	0	43	102	1048576	21	5125
2026-01-07 09:01:50.18	98.70	22.66	-30.5	-33.8	12.9	4.80e-05	0	43	102	1048576	21	5256
2026-01-07 09:01:53.20	98.13	22.98	-30.7	-34.2	12.6	9.91e-05	0	43	102	1048576	21	5407
2026-01-07 09:01:56.21	97.54	23.30	-30.5	-33.8	12.9	7.17e-05	0	43	102	1048576	21	5244
2026-01-07 09:01:59.23	96.93	23.61	-30.6	-33.9	12.9	5.26e-05	0	43	102	1048576	21	5273
2026-01-07 09:02:02.25	96.32	23.93	-30.4	-33.5	13.2	2.28e-05	0	43	102	1048576	21	5109
2026-01-07 09:02:05.26	95.69	24.25	-30.4	-33.5	13.2	2.51e-05	0	43	102	1048576	21	5112
2026-01-07 09:02:08.28	95.05	24.57	-30.4	-33.5	13.2	2.74e-05	0	43	102	1048576	21	5116
2026-01-07 09:02:11.30	94.39	24.89	-30.2	-32.9	13.6	9.90e-06	0	43	102	1048576	21	4897
2026-01-07 09:02:14.33	93.72	25.21	-30.1	-32.6	13.8	3.80e-06	0	43	102	1048576	21	4784
2026-01-07 09:02:17.34	93.04	25.52	-30.1	-32.4	13.9	3.00e-06	0	43	102	1048576	21	4733
2026-01-07 09:02:20.35	92.35	25.84	-30.2	-32.8	13.7	5.30e-06	0	43	102	1048576	21	4850
2026-01-07 09:02:23.36	91.64	26.15	-30.2	-32.7	13.8	6.10e-06	0	43	102	1048576	21	4818
2026-01-07 09:02:26.38	90.91	26.47	-30.0	-32.3	13.9	1.50e-06	0	43	102	1048576	21	4696
2026-01-07 09:02:29.39	90.18	26.78	-30.3	-33.1	13.5	1.29e-05	0	43	102	1048576	21	4960
2026-01-07 09:02:32.41	89.42	27.09	-30.1	-32.4	14.0	6.80e-06	0	43	102	1048576	21	4713
2026-01-07 09:02:35.42	88.66	27.40	-30.2	-32.9	13.7	3.80e-06	0	43	102	1048576	21	4892
2026-01-07 09:02:38.42	87.88	27.70	-30.6	-33.9	12.9	3.28e-05	0	43	102	1048576	21	5279
2026-01-07 09:02:41.45	87.08	28.01	-30.9	-34.7	12.4	1.59e-04	0	43	102	1048576	21	5601
2026-01-07 09:02:44.46	86.26	28.31	-31.1	-34.7	12.2	2.80e-04	0	43	102	1048576	22	5476
2026-01-07 09:02:47.48	85.43	28.61	-31.3	-35.4	11.6	6.82e-04	0	43	102	1048576	22	5786
2026-01-07 09:02:50.49	84.59	28.90	-31.4	-35.8	11.4	9.41e-04	0	43	102	1048576	22	5945
2026-01-07 09:02:53.50	83.73	29.19	-31.7	-36.2	10.8	2.52e-03	0	43	102	1048576	23	6042
2026-01-07 09:02:56.52	82.86	29.47	-31.6	-35.8	11.1	2.01e-03	0	43	102	1048576	23	5862
2026-01-07 09:02:59.53	81.97	29.75	-32.0	-37.2	10.0	6.19e-03	0	43	102	1048576	23	6590
2026-01-07 09:03:02.54	81.06	30.03	-32.0	-36.8	9.9	9.18e-03	0	43	102	1048576	24	6236
2026-01-07 09:03:05.56	80.14	30.30	-31.9	-36.4	10.2	5.27e-03	0	43	102	1048576	24	6060
2026-01-07 09:03:08.59	79.20	30.56	-31.7	-35.8	10.7	3.73e-03	0	43	102	1048576	24	5736
2026-01-07 09:03:11.61	78.25	30.82	-31.8	-36.2	10.4	4.63e-03	0	43	102	1048576	24	5925
2026-01-07 09:03:14.63	77.28	31.07	-31.7	-35.6	10.8	2.56e-03	0	43	102	1048576	24	5672
2026-01-07 09:03:17.64	76.30	31.31	-31.4	-34.7	11.5	9.48e-04	0	43	102	1048576	24	5255
2026-01-07 09:03:20.67	75.30	31.55	-31.4	-34.6	11.6	5.90e-04	0	43	102	1048576	24	5214
2026-01-07 09:03:23.69	74.28	31.77	-31.5	-35.0	11.3	7.28e-04	0	43	102	1048576	24	5390
2026-01-07 09:03:26.71	73.26	31.99	-31.4	-34.6	11.7	8.38e-04	0	43	102	1048576	24	5201
2026-01-07 09:03:29.73	72.22	32.20	-31.4	-34.6	11.6	6.21e-04	0	43	102	1048576	24	5209
2026-01-07 09:03:32.73	71.17	32.40	-31.4	-34.8	11.5	8.25e-04	0	43	102	1048576	24	5282
2026-01-07 09:03:35.74	70.11	32.59	-31.3	-34.7	11.9	4.49e-04	0	43	102	1048576	23	5350
2026-01-07 09:03:38.75	69.03	32.77	-31.3	-34.9	11.8	6.27e-04	0	43	102	1048576	23	5422
2026-01-07 09:03:41.78	67.94	32.94	-31.3	-34.7	11.9	4.26e-04	0	43	102	1048576	23	5366
2026-01-07 09:03:44.80	66.84	33.10	-30.9	-33.7	12.5	1.25e-04	0	43	102	1048576	23	4974
2026-01-07 09:03:47.82	65.73	33.25	-30.6	-33.4	13.1	3.28e-05	0	43	102	1048576	22	4959
2026-01-07 09:03:50.85	64.60	33.38	-30.3	-32.6	13.7	7.60e-06	0	43	102	1048576	22	4669
2026-01-07 09:03:53.87	63.47	33.51	-30.7	-33.6	13.0	1.60e-05	0	43	102	1048576	22	5026
2026-01-07 09:03:56.88	62.34	33.62	-30.8	-33.8	12.8	4.04e-05	0	43	102	1048576	22	5118
2026-01-07 09:03:59.90	61.19	33.72	-30.7	-33.5	13.1	2.74e-05	0	43	102	1048576	22	4989
2026-01-07 09:04:02.90	60.05	33.80	-31.0	-34.4	12.4	1.43e-04	0	43	102	1048576	22	5318
2026-01-07 09:04:05.93	58.89	33.87	-30.8	-33.9	12.8	7.85e-05	0	43	102	1048576	22	5117
2026-01-07 09:04:08.95	57.72	33.93	-30.8	-34.0	12.7	9.23e-05	0	43	102	1048576	22	5166
2026-01-07 09:04:11.97	56.56	33.98	-30.9	-34.0	12.7	7.09e-05	0	43	102	1048576	22	5184
2026-01-07 09:04:14.99	55.39	34.01	-30.7	-33.6	13.0	4.19e-05	0	43	102	1048576	22	5005
2026-01-07 09:04:18.00	54.22	34.03	-30.9	-34.2	12.6	8.54e-05	0	43	102	1048576	22	5256
2026-01-07 09:04:21.02	53.05	34.04	-30.6	-33.3	13.2	2.13e-05	0	43	102	1048576	22	4905
2026-01-07 09:04:24.05	51.88	34.03	-30.6	-33.4	13.1	2.51e-05	0	43	102	1048576	22	4954
2026-01-07 09:04:27.07	50.71	34.01	-31.1	-34.8	12.2	2.30e-04	0	43	102	1048576	22	5514
2026-01-07 09:04:30.09	49.54	33.97	-31.1	-34.7	12.2	3.24e-04	0	43	102	1048576	22	5459
2026-01-07 09:04:33.11	48.38	33.92	-31.3	-35.5	11.7	5.29e-04	0	43	102	1048576	22	5791
2026-01-07 09:04:36.14	47.21	33.86	-31.5	-35.5	11.3	7.47e-04	0	43	102	1048576	23	5710
2026-01-07 09:04:39.16	46.05	33.79	-31.6	-35.7	11.2	1.60e-03	0	43	102	1048576	23	5792
2026-01-07 09:04:42.17	44.91	33.70	-31.3	-34.9	11.7	4.68e-04	0	43	102	1048576	23	5431
2026-01-07 09:04:45.19	43.77	33.60	-31.5	-35.6	11.2	1.09e-03	0	43	102	1048576	23	5761
2026-01-07 09:04:48.22	42.63	33.49	-31.7	-36.0	10.9	2.07e-03	0	43	102	1048576	23	5915
2026-01-07 09:04:51.24	41.50	33.36	-31.5	-35.5	11.3	1.12e-03	0	43	102	1048576	23	5705
2026-01-07 09:04:54.25	40.39	33.22	-31.3	-34.9	11.6	5.19e-04	0	43	102	1048576	23	5452
2026-01-07 09:04:57.27	39.28	33.07	-31.5	-35.5	11.3	1.42e-03	0	43	102	1048576	23	5730
2026-01-07 09:05:00.29	38.18	32.91	-31.3	-34.8	11.7	5.74e-04	0	43	102	1048576	23	5412
2026-01-07 09:05:03.31	37.09	32.74	-31.1	-34.3	12.1	3.31e-04	0	43	102	1048576	23	5212
2026-01-07 09:05:06.32	36.02	32.56	-31.2	-34.5	11.9	3.08e-04	0	43	102	1048576	23	5282
2026-01-07 09:05:09.33	34.97	32.37	-31.1	-34.3	12.1	2.64e-04	0	43	102	1048576	23	5187
2026-01-07 09:05:12.35	33.92	32.17	-31.3	-34.8	11.7	4.31e-04	0	43	102	1048576	23	5427
2026-01-07 09:05:15.37	32.88	31.96	-31.7	-36.1	10.8	1.99e-03	0	43	102	1048576	23	6023
2026-01-07 09:05:18.39	31.86	31.74	-31.5	-35.6	11.2	1.56e-03	0	43	102	1048576	23	5770
2026-01-07 09:05:21.41	30.85	31.51	-31.4	-35.3	11.3	1.03e-03	0	43	102	1048576	23	5633
2026-01-07 09:05:24.42	29.86	31.28	-31.5	-35.5	11.2	1.50e-03	0	43	102	1048576	23	5742
2026-01-07 09:05:27.44	28.88	31.03	-31.8	-36.6	10.4	3.48e-03	0	43	102	1048576	23	6227
2026-01-07 09:05:30.46	27.92	30.78	-31.8	-36.6	10.4	4.16e-03	0	43	102	1048576	23	6236
2026-01-07 09:05:33.47	26.97	30.53	-31.8	-36.4	10.5	3.66e-03	0	43	102	1048576	23	6160
2026-01-07 09:05:36.50	26.04	30.26	-31.7	-36.1	10.7	3.28e-03	0	43	102	1048576	23	6027
2026-01-07 09:05:39.52	25.12	29.99	-31.5	-35.5	11.2	1.72e-03	0	43	102	1048576	23	5720
2026-01-07 09:05:42.54	24.22	29.72	-31.3	-35.0	11.6	8.74e-04	0	43	102	1048576	23	5503
2026-01-07 09:05:45.55	23.34	29.44	-31.2	-34.9	11.6	4.91e-04	0	43	102	1048576	23	5457
2026-01-07 09:05:48.58	22.46	29.15	-31.4	-35.4	11.2	1.35e-03	0	43	102	1048576	23	5666
2026-01-07 09:05:51.60	21.61	28.86	-31.3	-35.1	11.4	1.28e-03	0	43	102	1048576	23	5567
2026-01-07 09:05:54.62	20.77	28.57	-31.1	-34.3	12.0	2.88e-04	0	43	102	1048576	23	5207
2026-01-07 09:05:57.64	19.94	28.27	-31.0	-34.1	12.1	2.30e-04	0	43	102	1048576	23	5126
2026-01-07 09:06:00.64	19.14	27.97	-31.1	-34.3	12.0	2.88e-04	0	43	102	1048576	23	5210
2026-01-07 09:06:03.66	18.35	27.67	-30.7	-33.7	12.7	7.40e-05	0	43	102	1048576	22	5097
2026-01-07 09:06:06.67	17.57	27.37	-30.5	-33.2	13.0	4.57e-05	0	43	102	1048576	22	4895
2026-01-07 09:06:09.69	16.81	27.06	-30.3	-32.7	13.4	1.60e-05	0	43	102	1048576	22	4709
2026-01-07 09:06:12.71	16.06	26.75	-29.5	-31.6	14.7	0.00e+00	0	43	102	1048576	20	4551
2026-01-07 09:06:15.73	15.33	26.44	-29.3	-31.1	15.0	0.00e+00	0	43	102	1048576	20	4397
2026-01-07 09:06:18.75	14.61	26.12	-29.3	-31.5	15.1	0.00e+00	0	43	102	1048576	19	4644
2026-01-07 09:06:21.76	13.91	25.81	-29.6	-32.1	14.7	0.00e+00	0	43	102	1048576	19	4837
2026-01-07 09:06:24.79	13.21	25.49	-29.0	-30.8	15.4	0.00e+00	0	43	102	1048576	19	4413
2026-01-07 09:06:27.81	12.53	25.18	-29.0	-30.8	15.5	0.00e+00	0	43	102	1048576	19	4405
2026-01-07 09:06:30.83	11.87	24.86	-28.9	-30.5	15.7	0.00e+00	0	43	102	1048576	19	4322
2026-01-07 09:06:33.85	11.22	24.54	-28.9	-30.6	15.5	0.00e+00	0	43	102	1048576	19	4355
2026-01-07 09:06:36.87	10.58	24.22	-29.0	-30.6	15.5	0.00e+00	0	43	102	1048576	19	4370
2026-01-07 09:06:39.89	9.96	23.91	-29.1	-30.9	15.3	0.00e+00	0	43	102	1048576	19	4461
2026-01-07 09:06:42.91	9.35	23.59	-29.2	-31.4	15.1	0.00e+00	0	43	102	1048576	19	4601
2026-01-07 09:06:45.92	8.75	23.28	-29.3	-31.5	15.0	0.00e+00	0	43	102	1048576	19	4644
2026-01-07 09:06:48.94	8.17	22.96	-29.4	-31.7	14.9	0.00e+00	0	43	102	1048576	19	4697
2026-01-07 09:06:51.97	7.59	22.64	-29.4	-31.8	14.7	0.00e+00	0	43	102	1048576	19	4757
2026-01-07 09:06:55.00	7.03	22.33	-29.5	-32.0	14.6	0.00e+00	0	43	102	1048576	19	4806
2026-01-07 09:06:58.01	6.48	22.01	-29.5	-32.1	14.6	7.00e-07	0	43	102	1048576	19	4829
2026-01-07 09:07:01.03	5.94	21.70	-29.6	-32.2	14.5	7.00e-07	0	43	102	1048576	19	4876
2026-01-07 09:07:04.04	5.41	21.39	-29.7	-32.5	14.3	7.00e-07	0	43	102	1048576	19	4985
2026-01-07 09:07:07.06	4.89	21.08	-29.8	-32.9	14.0	1.50e-06	0	43	102	1048576	19	5143
2026-01-07 09:07:10.08	4.38	20.77	-30.0	-33.3	13.7	2.20e-06	0	43	102	1048576	19	5286
2026-01-07 09:07:13.10	3.88	20.47	-30.1	-33.2	13.4	1.06e-05	0	43	102	1048576	20	5160
2026-01-07 09:07:16.12	3.40	20.16	-30.1	-33.2	13.4	1.37e-05	0	43	102	1048576	20	5165
2026-01-07 09:07:19.14	2.92	19.86	-30.3	-33.8	13.0	3.58e-05	0	43	102	1048576	20	5396
2026-01-07 09:07:22.16	2.45	19.55	-30.3	-33.9	12.9	5.03e-05	0	43	102	1048576	20	5440
2026-01-07 09:07:25.18	1.99	19.25	-30.3	-33.8	13.0	4.95e-05	0	43	102	1048576	20	5387
2026-01-07 09:07:28.20	1.54	18.95	-30.3	-33.7	13.0	3.50e-05	0	43	102	1048576	20	5354
2026-01-07 09:07:31.22	1.10	18.66	-30.3	-33.9	12.9	4.42e-05	0	43	102	1048576	20	5433
2026-01-07 09:07:34.25	0.67	18.36	-30.4	-34.2	12.6	9.00e-05	0	43	102	1048576	20	5562
2026-01-07 09:07:37.26	0.24	18.07	-30.6	-34.2	12.3	1.44e-04	0	43	102	1048576	21	5441
2026-01-07 09:07:40.28	359.83	17.77	-30.8	-34.7	11.9	3.99e-04	0	43	102	1048576	21	5683
2026-01-07 09:07:43.30	359.42	17.48	-30.9	-35.0	11.7	4.92e-04	0	43	102	1048576	21	5806
2026-01-07 09:07:46.32	359.02	17.20	-30.7	-34.0	12.1	3.17e-04	0	43	102	1048576	22	5277
2026-01-07 09:07:49.33	358.63	16.91	-30.9	-34.6	11.6	4.39e-04	0	43	102	1048576	22	5506
2026-01-07 09:07:52.36	358.25	16.63	-30.7	-33.9	12.1	3.07e-04	0	43	102	1048576	22	5232
2026-01-07 09:07:55.37	357.87	16.35	-30.5	-33.5	12.3	1.72e-04	0	43	102	1048576	22	5084
2026-01-07 09:07:58.39	357.50	16.06	-30.6	-33.9	12.1	3.36e-04	0	43	102	1048576	22	5226
2026-01-07 09:08:01.41	357.14	15.79	-30.4	-33.1	12.6	9.15e-05	0	43	102	1048576	22	4920
2026-01-07 09:08:04.42	356.78	15.51	-30.4	-33.2	12.5	1.30e-04	0	43	102	1048576	22	4979
2026-01-07 09:08:07.44	356.44	15.24	-30.6	-33.8	12.1	2.14e-04	0	43	102	1048576	22	5196
2026-01-07 09:08:10.46	356.09	14.96	-30.6	-33.9	12.0	2.34e-04	0	43	102	1048576	22	5229
2026-01-07 09:08:13.47	355.76	14.70	-30.7	-34.3	11.7	4.59e-04	0	43	102	1048576	22	5400
2026-01-07 09:08:16.49	355.43	14.43	-30.6	-33.7	12.1	3.04e-04	0	43	102	1048576	22	5180
2026-01-07 09:08:19.50	355.10	14.16	-30.5	-33.5	12.2	2.37e-04	0	43	102	1048576	22	5094
2026-01-07 09:08:22.51	354.79	13.90	-30.5	-33.6	12.1	2.01e-04	0	43	102	1048576	22	5155
2026-01-07 09:08:25.53	354.48	13.64	-30.3	-33.0	12.6	9.38e-05	0	43	102	1048576	22	4907
2026-01-07 09:08:28.56	354.17	13.37	-30.5	-33.5	12.2	2.16e-04	0	43	102	1048576	22	5081
2026-01-07 09:08:31.59	353.87	13.12	-30.6	-33.9	11.8	5.31e-04	0	43	102	1048576	22	5261
2026-01-07 09:08:34.60	353.57	12.86	-30.8	-34.5	11.4	8.03e-04	0	43	102	1048576	22	5534
2026-01-07 09:08:37.62	353.28	12.61	-30.7	-34.4	11.5	8.29e-04	0	43	102	1048576	22	5492
2026-01-07 09:08:40.64	353.00	12.35	-30.9	-34.9	11.0	1.49e-03	0	43	102	1048576	22	5716
2026-01-07 09:08:43.66	352.72	12.10	-30.8	-34.6	11.3	1.16e-03	0	43	102	1048576	22	5577
2026-01-07 09:08:46.68	352.44	11.85	-30.9	-35.0	10.9	1.82e-03	0	43	102	1048576	22	5780
2026-01-07 09:08:49.69	352.17	11.61	-30.9	-35.1	10.8	2.51e-03	0	44	102	1048576	22	5829
2026-01-07 09:08:52.71	351.91	11.36	-30.9	-35.1	10.8	2.48e-03	0	43	102	1048576	22	5840
2026-01-07 09:08:55.74	351.64	11.12	-30.8	-34.8	11.1	1.61e-03	0	44	102	1048576	22	5670
2026-01-07 09:08:58.74	351.39	10.88	-30.8	-34.8	11.0	1.86e-03	0	43	102	1048576	22	5698
2026-01-07 09:09:01.76	351.14	10.64	-30.8	-34.9	10.9	2.12e-03	0	43	102	1048576	22	5717
2026-01-07 09:09:04.78	350.89	10.40	-30.9	-35.1	10.8	2.37e-03	0	43	102	1048576	22	5822
2026-01-07 09:09:07.80	350.64	10.16	-31.0	-35.4	10.5	3.94e-03	0	43	102	1048576	22	5992
2026-01-07 09:09:10.82	350.40	9.93	-31.1	-35.7	10.3	5.32e-03	0	43	102	1048576	22	6148
2026-01-07 09:09:13.84	350.17	9.70	-31.2	-36.0	10.0	7.33e-03	0	43	102	1048576	22	6309
2026-01-07 09:09:16.86	349.94	9.46	-31.2	-36.3	9.8	9.80e-03	0	43	102	1048576	22	6435
2026-01-07 09:09:19.88	349.71	9.23	-31.1	-36.0	10.0	7.69e-03	0	43	102	1048576	22	6309
2026-01-07 09:09:22.89	349.48	9.01	-31.1	-35.9	10.0	7.29e-03	0	43	102	1048576	22	6245
2026-01-07 09:09:25.91	349.26	8.78	-31.1	-35.9	10.0	6.97e-03	0	43	102	1048576	22	6248
2026-01-07 09:09:28.93	349.05	8.56	-31.1	-36.0	9.9	8.40e-03	0	43	102	1048576	22	6302
2026-01-07 09:09:31.95	348.83	8.33	-31.2	-36.2	9.7	1.24e-02	0	43	102	1048576	22	6443
2026-01-07 09:09:34.96	348.62	8.11	-31.2	-36.5	9.4	1.36e-02	0	43	102	1048576	22	6603
2026-01-07 09:09:37.97	348.42	7.89	-31.2	-36.4	9.4	1.57e-02	0	43	102	1048576	22	6579
2026-01-07 09:09:41.00	348.21	7.67	-31.1	-36.2	9.6	1.20e-02	0	43	102	1048576	22	6464
2026-01-07 09:09:44.01	348.01	7.46	-31.2	-36.5	9.3	1.64e-02	0	43	102	1048576	22	6649
2026-01-07 09:09:47.04	347.82	7.24	-31.2	-36.7	9.1	2.06e-02	0	43	102	1048576	22	6771
2026-01-07 09:09:50.05	347.62	7.03	-32.9	-46.2	3.8	1.49e+00	0	44	104	1048576	25	16590
2026-01-07 09:09:53.08	347.43	6.82	-33.7	-47.9	3.8	1.49e+00	0	43	104	1048576	27	18545

#Closed at: 2026-01-07 09:09:53
#Recorded file [1 MB]: D:/data/31010_260107_115853.dat