passes_logs/2026/01/07/R2M6_AANII_01/R2M6_AANII_01__20260107_162650_FENGYUN_3E_rec.log

#Pass ID: 20260107_162650_FENGYUN 3E
#Satellite: FENGYUN 3E
#Configuration: FENGYUN 3E
#almurnet v.1.7.20240730
#Start time: 2026-01-07 16:26:51

#Version: 2.2.20231116
#Station: R2M6_AANII_01
#Location: 30.233357 lon 59.946436 lat
#TLE: 1 49008U 21062A   26006.26767912  .00000427  00000+0  22170-3 0  9993
#TLE: 2 49008  98.7475  11.4982 0001602 156.1158 204.0093 14.19885456233607

#Time	Az	El	Level	Level2	SNR	BER	BlckErr	Temp	State	Recorded	gain1	gain2
2026-01-07 16:26:51.71	221.86	7.08	-27.0	-28.1	5.7	7.31e-01	0	41	0	0	14	4078
2026-01-07 16:26:54.72	222.18	7.26	-28.4	-30.0	10.8	3.48e-03	0	41	102	1048576	17	4298
2026-01-07 16:26:57.75	222.52	7.43	-27.5	-28.2	12.2	2.53e-04	0	41	102	1048576	16	3895
2026-01-07 16:27:00.76	222.85	7.61	-26.9	-27.9	12.9	7.09e-05	0	41	102	1048576	14	4030
2026-01-07 16:27:03.77	223.19	7.79	-26.7	-27.4	13.2	2.63e-05	0	42	102	1048576	14	3901
2026-01-07 16:27:06.79	223.53	7.97	-26.7	-27.3	13.3	1.94e-05	0	42	102	1048576	14	3860
2026-01-07 16:27:09.81	223.88	8.14	-26.7	-27.4	13.2	2.74e-05	0	42	102	1048576	14	3908
2026-01-07 16:27:12.83	224.23	8.32	-26.6	-27.2	13.3	1.83e-05	0	42	102	1048576	14	3845
2026-01-07 16:27:15.85	224.58	8.50	-26.5	-26.8	13.6	8.00e-06	0	42	102	1048576	14	3749
2026-01-07 16:27:18.87	224.94	8.68	-26.3	-26.9	13.8	4.50e-06	0	42	102	1048576	13	3870
2026-01-07 16:27:21.89	225.31	8.86	-26.2	-26.7	14.0	5.70e-06	0	42	102	1048576	13	3820
2026-01-07 16:27:24.91	225.67	9.04	-26.2	-26.6	14.0	3.40e-06	0	42	102	1048576	13	3784
2026-01-07 16:27:27.93	226.05	9.22	-26.1	-26.5	14.2	0.00e+00	0	42	102	1048576	13	3758
2026-01-07 16:27:30.94	226.42	9.40	-26.2	-26.6	14.0	5.70e-06	0	42	102	1048576	13	3796
2026-01-07 16:27:33.96	226.81	9.58	-26.1	-26.5	14.2	3.40e-06	0	42	102	1048576	13	3755
2026-01-07 16:27:36.97	227.19	9.76	-26.1	-26.6	14.1	2.20e-06	0	42	102	1048576	13	3783
2026-01-07 16:27:40.02	227.58	9.95	-26.2	-26.7	14.0	2.20e-06	0	42	102	1048576	13	3818
2026-01-07 16:27:42.75	227.94	10.11	-26.2	-26.7	14.0	3.40e-06	0	43	102	1048576	13	3817
2026-01-07 16:27:46.05	228.38	10.31	-26.1	-26.4	14.2	1.10e-06	0	42	102	1048576	13	3748
2026-01-07 16:27:48.79	228.75	10.47	-25.9	-25.9	14.5	0.00e+00	0	42	102	1048576	13	3625
2026-01-07 16:27:52.09	229.19	10.67	-26.0	-26.7	14.4	0.00e+00	0	43	102	1048576	12	3897
2026-01-07 16:27:54.83	229.57	10.84	-26.0	-26.7	14.4	1.10e-06	0	43	102	1048576	12	3902
2026-01-07 16:27:58.13	230.03	11.04	-26.0	-26.8	14.3	2.20e-06	0	43	102	1048576	12	3950
2026-01-07 16:28:00.86	230.41	11.20	-26.0	-26.6	14.5	0.00e+00	0	43	102	1048576	12	3891
2026-01-07 16:28:04.17	230.89	11.40	-25.8	-26.2	14.7	1.10e-06	0	43	102	1048576	12	3786
2026-01-07 16:28:06.90	231.28	11.56	-25.8	-26.2	14.7	3.40e-06	0	43	102	1048576	12	3784
2026-01-07 16:28:10.21	231.76	11.76	-26.0	-26.6	14.5	1.10e-06	0	43	102	1048576	12	3884
2026-01-07 16:28:12.94	232.16	11.93	-25.9	-26.6	14.5	0.00e+00	0	43	102	1048576	12	3878
2026-01-07 16:28:16.26	232.66	12.13	-25.7	-26.1	14.8	2.20e-06	0	43	102	1048576	12	3756
2026-01-07 16:28:18.98	233.07	12.29	-25.5	-25.7	15.1	0.00e+00	0	43	102	1048576	12	3661
2026-01-07 16:28:22.28	233.58	12.49	-25.5	-25.6	15.1	0.00e+00	0	43	102	1048576	12	3635
2026-01-07 16:28:25.01	234.00	12.65	-25.5	-25.5	15.2	0.00e+00	0	43	102	1048576	12	3630
2026-01-07 16:28:28.32	234.52	12.85	-25.4	-25.9	15.3	0.00e+00	0	43	102	1048576	11	3811
2026-01-07 16:28:31.05	234.95	13.01	-25.3	-25.6	15.4	0.00e+00	0	43	102	1048576	11	3749
2026-01-07 16:28:34.35	235.48	13.20	-25.2	-25.4	15.6	0.00e+00	0	43	102	1048576	11	3692
2026-01-07 16:28:37.09	235.92	13.37	-25.2	-25.5	15.5	0.00e+00	0	43	102	1048576	11	3710
2026-01-07 16:28:40.40	236.47	13.56	-25.3	-25.6	15.5	0.00e+00	0	43	102	1048576	11	3744
2026-01-07 16:28:43.13	236.92	13.72	-25.4	-25.9	15.4	0.00e+00	0	43	102	1048576	11	3803
2026-01-07 16:28:46.44	237.48	13.91	-25.2	-25.4	15.6	0.00e+00	0	43	102	1048576	11	3691
2026-01-07 16:28:49.17	237.94	14.07	-25.1	-25.3	15.7	0.00e+00	0	43	102	1048576	11	3656
2026-01-07 16:28:52.48	238.51	14.26	-25.1	-25.2	15.7	0.00e+00	0	43	102	1048576	11	3648
2026-01-07 16:28:55.21	238.98	14.42	-25.2	-25.5	15.7	0.00e+00	0	43	102	1048576	11	3701
2026-01-07 16:28:58.52	239.57	14.61	-24.8	-25.1	16.1	0.00e+00	0	43	102	1048576	10	3731
2026-01-07 16:29:01.24	240.05	14.76	-24.7	-24.9	16.2	0.00e+00	0	43	102	1048576	10	3672
2026-01-07 16:29:04.55	240.64	14.95	-24.9	-25.2	16.0	0.00e+00	0	43	102	1048576	10	3745
2026-01-07 16:29:07.28	241.14	15.10	-24.9	-25.3	16.1	0.00e+00	0	43	102	1048576	10	3770
2026-01-07 16:29:10.59	241.75	15.29	-24.8	-25.2	16.1	0.00e+00	0	43	102	1048576	10	3728
2026-01-07 16:29:13.33	242.26	15.44	-25.1	-25.8	15.8	0.00e+00	0	43	102	1048576	10	3875
2026-01-07 16:29:16.64	242.88	15.62	-25.1	-25.7	15.9	0.00e+00	0	43	102	1048576	10	3853
2026-01-07 16:29:19.37	243.40	15.77	-25.1	-25.8	15.8	0.00e+00	0	43	102	1048576	10	3867
2026-01-07 16:29:22.68	244.03	15.94	-25.0	-25.5	16.0	0.00e+00	0	43	102	1048576	10	3809
2026-01-07 16:29:25.41	244.56	16.09	-24.9	-25.4	16.0	0.00e+00	0	43	102	1048576	10	3782
2026-01-07 16:29:28.72	245.21	16.26	-24.5	-24.4	16.6	0.00e+00	0	43	102	1048576	10	3552
2026-01-07 16:29:31.44	245.75	16.40	-24.4	-24.6	16.7	0.00e+00	0	43	102	1048576	9	3705
2026-01-07 16:29:34.75	246.41	16.57	-24.7	-25.3	16.3	0.00e+00	0	43	102	1048576	9	3875
2026-01-07 16:29:37.49	246.96	16.71	-24.6	-25.1	16.5	0.00e+00	0	43	102	1048576	9	3824
2026-01-07 16:29:40.79	247.63	16.87	-24.5	-24.9	16.6	0.00e+00	0	43	102	1048576	9	3765
2026-01-07 16:29:43.53	248.20	17.01	-24.5	-24.9	16.7	0.00e+00	0	43	102	1048576	9	3763
2026-01-07 16:29:46.84	248.89	17.17	-24.7	-25.2	16.4	0.00e+00	0	43	102	1048576	9	3848
2026-01-07 16:29:49.56	249.46	17.29	-24.4	-24.7	16.7	0.00e+00	0	43	102	1048576	9	3725
2026-01-07 16:29:52.86	250.15	17.45	-24.4	-24.8	16.7	0.00e+00	0	43	102	1048576	9	3734
2026-01-07 16:29:55.59	250.74	17.57	-24.4	-24.7	16.7	0.00e+00	0	43	102	1048576	9	3727
2026-01-07 16:29:58.91	251.45	17.72	-24.4	-24.6	16.8	0.00e+00	0	43	102	1048576	9	3710
2026-01-07 16:30:01.64	252.04	17.84	-24.6	-25.2	16.5	0.00e+00	0	43	102	1048576	9	3838
2026-01-07 16:30:04.95	252.77	17.98	-24.6	-25.1	16.5	0.00e+00	0	43	102	1048576	9	3820
2026-01-07 16:30:07.70	253.38	18.10	-24.6	-25.0	16.6	0.00e+00	0	43	102	1048576	9	3804
2026-01-07 16:30:11.01	254.11	18.23	-24.3	-24.5	16.9	0.00e+00	0	44	102	1048576	9	3667
2026-01-07 16:30:13.74	254.73	18.34	-24.5	-24.9	16.6	0.00e+00	0	43	102	1048576	9	3765
2026-01-07 16:30:17.05	255.47	18.47	-24.3	-24.5	16.9	0.00e+00	0	43	102	1048576	9	3678
2026-01-07 16:30:19.77	256.09	18.57	-24.2	-24.3	16.9	0.00e+00	0	43	102	1048576	9	3637
2026-01-07 16:30:23.07	256.85	18.69	-24.3	-24.4	16.9	1.10e-06	0	43	102	1048576	9	3644
2026-01-07 16:30:25.79	257.48	18.78	-24.2	-24.2	17.0	0.00e+00	0	43	102	1048576	9	3615
2026-01-07 16:30:29.10	258.25	18.89	-24.3	-24.4	16.9	0.00e+00	0	43	102	1048576	9	3649
2026-01-07 16:30:31.83	258.88	18.98	-24.3	-24.4	16.9	3.40e-06	0	43	102	1048576	9	3654
2026-01-07 16:30:35.14	259.66	19.09	-24.0	-23.9	17.2	0.00e+00	0	44	102	1048576	9	3549
2026-01-07 16:30:37.87	260.31	19.17	-24.2	-24.2	17.0	4.50e-06	0	43	102	1048576	9	3607
2026-01-07 16:30:41.18	261.10	19.26	-24.1	-24.1	17.1	0.00e+00	0	43	102	1048576	9	3578
2026-01-07 16:30:43.92	261.75	19.34	-24.1	-24.1	17.1	0.00e+00	0	43	102	1048576	9	3592
2026-01-07 16:30:47.23	262.55	19.42	-24.0	-23.8	17.2	0.00e+00	0	43	102	1048576	9	3532
2026-01-07 16:30:49.95	263.21	19.49	-24.4	-24.6	16.8	0.00e+00	0	44	102	1048576	9	3696
2026-01-07 16:30:53.26	264.01	19.56	-24.3	-24.5	16.9	0.00e+00	0	44	102	1048576	9	3675
2026-01-07 16:30:55.99	264.67	19.62	-24.3	-24.4	17.0	0.00e+00	0	44	102	1048576	9	3654
2026-01-07 16:30:59.30	265.48	19.69	-24.4	-24.7	16.8	0.00e+00	0	44	102	1048576	9	3731
2026-01-07 16:31:02.03	266.15	19.74	-24.3	-24.4	17.0	0.00e+00	0	44	102	1048576	9	3645
2026-01-07 16:31:05.34	266.97	19.79	-24.0	-23.9	17.2	0.00e+00	0	44	102	1048576	9	3545
2026-01-07 16:31:08.08	267.65	19.83	-24.0	-23.9	17.3	0.00e+00	0	44	102	1048576	9	3537
2026-01-07 16:31:11.38	268.47	19.88	-24.2	-24.3	17.0	0.00e+00	0	44	102	1048576	9	3634
2026-01-07 16:31:14.12	269.15	19.91	-24.3	-24.5	16.9	0.00e+00	0	44	102	1048576	9	3679
2026-01-07 16:31:17.42	269.97	19.95	-24.3	-24.5	17.0	0.00e+00	0	44	102	1048576	9	3665
2026-01-07 16:31:20.16	270.65	19.97	-24.2	-24.3	17.0	0.00e+00	0	44	102	1048576	9	3636
2026-01-07 16:31:23.47	271.48	20.00	-24.3	-24.4	17.0	0.00e+00	0	44	102	1048576	9	3665
2026-01-07 16:31:26.21	272.16	20.01	-24.2	-24.3	17.0	0.00e+00	0	44	102	1048576	9	3638
2026-01-07 16:31:29.53	272.99	20.03	-24.2	-24.2	17.1	0.00e+00	0	44	102	1048576	9	3611
2026-01-07 16:31:32.25	273.67	20.03	-24.1	-23.9	17.3	0.00e+00	0	44	102	1048576	9	3549
2026-01-07 16:31:35.56	274.50	20.04	-24.0	-23.8	17.3	0.00e+00	0	43	102	1048576	9	3526
2026-01-07 16:31:38.29	275.19	20.03	-23.9	-23.6	17.4	0.00e+00	0	44	102	1048576	9	3480
2026-01-07 16:31:41.59	276.01	20.03	-24.2	-24.3	17.0	0.00e+00	0	44	102	1048576	9	3635
2026-01-07 16:31:44.33	276.70	20.01	-24.3	-24.4	17.0	0.00e+00	0	44	102	1048576	9	3644
2026-01-07 16:31:47.64	277.53	20.00	-24.4	-24.7	16.8	0.00e+00	0	44	102	1048576	9	3722
2026-01-07 16:31:50.37	278.21	19.98	-24.5	-24.9	16.8	0.00e+00	0	44	102	1048576	9	3757
2026-01-07 16:31:53.68	279.03	19.95	-24.5	-24.8	16.8	0.00e+00	0	44	102	1048576	9	3747
2026-01-07 16:31:56.41	279.71	19.92	-24.3	-24.4	17.0	0.00e+00	0	44	102	1048576	9	3642
2026-01-07 16:31:59.71	280.53	19.88	-24.2	-24.3	17.1	0.00e+00	0	44	102	1048576	9	3618
2026-01-07 16:32:02.44	281.21	19.84	-24.3	-24.5	17.0	0.00e+00	0	44	102	1048576	9	3677
2026-01-07 16:32:05.75	282.02	19.79	-24.3	-24.5	17.0	0.00e+00	0	44	102	1048576	9	3664
2026-01-07 16:32:08.49	282.70	19.74	-24.0	-23.7	17.3	0.00e+00	0	44	102	1048576	9	3509
2026-01-07 16:32:11.79	283.51	19.68	-24.1	-24.0	17.2	0.00e+00	0	44	102	1048576	9	3564
2026-01-07 16:32:14.53	284.18	19.63	-24.1	-24.0	17.2	0.00e+00	0	44	102	1048576	9	3562
2026-01-07 16:32:17.85	284.98	19.56	-24.3	-24.4	17.0	0.00e+00	0	44	102	1048576	9	3653
2026-01-07 16:32:20.58	285.65	19.50	-24.5	-24.9	16.7	0.00e+00	0	44	102	1048576	9	3770
2026-01-07 16:32:23.89	286.44	19.42	-24.4	-24.8	16.8	0.00e+00	0	43	102	1048576	9	3737
2026-01-07 16:32:26.61	287.10	19.35	-24.6	-25.0	16.7	0.00e+00	0	44	102	1048576	9	3781
2026-01-07 16:32:29.93	287.89	19.26	-24.5	-24.9	16.7	0.00e+00	0	44	102	1048576	9	3774
2026-01-07 16:32:32.65	288.54	19.18	-24.4	-24.7	16.9	0.00e+00	0	44	102	1048576	9	3723
2026-01-07 16:32:35.96	289.32	19.08	-24.3	-24.5	16.9	0.00e+00	0	43	102	1048576	9	3679
2026-01-07 16:32:38.69	289.96	19.00	-24.3	-24.5	16.9	0.00e+00	0	44	102	1048576	9	3684
2026-01-07 16:32:41.98	290.73	18.89	-24.3	-24.5	16.9	0.00e+00	0	44	102	1048576	9	3673
2026-01-07 16:32:44.71	291.36	18.80	-24.5	-24.9	16.7	0.00e+00	0	44	102	1048576	9	3773
2026-01-07 16:32:48.02	292.12	18.69	-24.6	-25.0	16.5	0.00e+00	0	44	102	1048576	9	3792
2026-01-07 16:32:50.76	292.75	18.59	-24.5	-24.9	16.7	0.00e+00	0	44	102	1048576	9	3772
2026-01-07 16:32:54.06	293.50	18.46	-24.5	-24.9	16.7	0.00e+00	0	44	102	1048576	9	3777
2026-01-07 16:32:56.79	294.11	18.36	-24.5	-24.9	16.7	0.00e+00	0	44	102	1048576	9	3762
2026-01-07 16:33:00.11	294.85	18.23	-24.4	-24.7	16.8	0.00e+00	0	44	102	1048576	9	3710
2026-01-07 16:33:02.85	295.46	18.12	-24.7	-25.3	16.5	0.00e+00	0	44	102	1048576	9	3852
2026-01-07 16:33:06.16	296.19	17.98	-24.5	-24.9	16.7	0.00e+00	0	44	102	1048576	9	3759
2026-01-07 16:33:08.89	296.79	17.87	-24.4	-24.6	16.8	0.00e+00	0	44	102	1048576	9	3706
2026-01-07 16:33:12.20	297.50	17.72	-24.7	-25.3	16.5	0.00e+00	0	44	102	1048576	9	3852
2026-01-07 16:33:14.94	298.09	17.60	-24.8	-25.6	16.3	0.00e+00	0	44	102	1048576	9	3923
2026-01-07 16:33:18.25	298.80	17.45	-24.9	-25.7	16.2	0.00e+00	0	44	102	1048576	9	3947
2026-01-07 16:33:20.98	299.37	17.33	-25.0	-26.0	16.1	0.00e+00	0	44	102	1048576	9	4025
2026-01-07 16:33:24.27	300.06	17.17	-24.8	-25.6	16.3	0.00e+00	0	44	102	1048576	9	3944
2026-01-07 16:33:26.99	300.62	17.04	-24.8	-25.1	16.3	0.00e+00	0	44	102	1048576	10	3705
2026-01-07 16:33:30.29	301.30	16.88	-24.9	-25.2	16.2	0.00e+00	0	44	102	1048576	10	3747
2026-01-07 16:33:33.03	301.86	16.75	-24.9	-25.2	16.2	0.00e+00	0	44	102	1048576	10	3729
2026-01-07 16:33:36.33	302.52	16.58	-25.0	-25.6	16.0	0.00e+00	0	44	102	1048576	10	3820
2026-01-07 16:33:39.06	303.06	16.44	-25.0	-25.4	16.0	0.00e+00	0	44	102	1048576	10	3782
2026-01-07 16:33:42.37	303.72	16.27	-25.0	-25.4	16.0	1.10e-06	0	44	102	1048576	10	3789
2026-01-07 16:33:45.10	304.25	16.13	-25.0	-25.4	16.1	0.00e+00	0	43	102	1048576	10	3783
2026-01-07 16:33:48.41	304.89	15.96	-25.0	-25.5	16.1	0.00e+00	0	44	102	1048576	10	3803
2026-01-07 16:33:51.14	305.41	15.81	-24.9	-25.2	16.2	0.00e+00	0	44	102	1048576	10	3742
2026-01-07 16:33:54.46	306.04	15.63	-24.7	-24.8	16.4	0.00e+00	0	44	102	1048576	10	3647
2026-01-07 16:33:57.20	306.55	15.49	-24.8	-25.1	16.2	0.00e+00	0	44	102	1048576	10	3710
2026-01-07 16:34:00.52	307.17	15.31	-25.3	-26.1	15.8	0.00e+00	0	44	102	1048576	10	3940
2026-01-07 16:34:03.25	307.67	15.16	-25.5	-26.6	15.4	0.00e+00	0	44	102	1048576	10	4067
2026-01-07 16:34:06.56	308.27	14.97	-25.7	-26.6	15.2	0.00e+00	0	44	102	1048576	11	3960
2026-01-07 16:34:09.30	308.76	14.82	-25.8	-26.6	15.1	0.00e+00	0	44	102	1048576	11	3979
2026-01-07 16:34:12.61	309.34	14.63	-25.6	-26.2	15.3	0.00e+00	0	44	102	1048576	11	3882
2026-01-07 16:34:15.34	309.82	14.48	-25.5	-26.0	15.5	0.00e+00	0	44	102	1048576	11	3823
2026-01-07 16:34:18.65	310.39	14.29	-25.4	-25.8	15.6	0.00e+00	0	44	102	1048576	11	3782
2026-01-07 16:34:21.38	310.86	14.13	-25.5	-26.0	15.5	0.00e+00	0	44	102	1048576	11	3816
2026-01-07 16:34:24.68	311.42	13.94	-25.7	-26.5	15.2	0.00e+00	0	44	102	1048576	11	3942
2026-01-07 16:34:27.42	311.88	13.78	-25.9	-27.0	14.9	1.10e-06	0	44	102	1048576	11	4062
2026-01-07 16:34:30.72	312.43	13.59	-25.9	-26.9	14.9	0.00e+00	0	44	102	1048576	11	4053
2026-01-07 16:34:33.46	312.88	13.43	-25.8	-26.8	15.0	0.00e+00	0	44	102	1048576	11	4028
2026-01-07 16:34:36.77	313.41	13.24	-25.8	-26.7	15.0	0.00e+00	0	44	102	1048576	11	4004
2026-01-07 16:34:39.50	313.85	13.08	-25.6	-26.2	15.3	0.00e+00	0	44	102	1048576	11	3875
2026-01-07 16:34:42.81	314.37	12.89	-25.5	-26.0	15.4	0.00e+00	0	44	102	1048576	11	3816
2026-01-07 16:34:45.53	314.80	12.72	-25.5	-26.1	15.3	0.00e+00	0	44	102	1048576	11	3846
2026-01-07 16:34:48.83	315.31	12.53	-25.8	-26.6	15.0	0.00e+00	0	44	102	1048576	11	3972
2026-01-07 16:34:51.57	315.72	12.37	-26.0	-26.7	14.6	1.10e-06	0	44	102	1048576	12	3905
2026-01-07 16:34:54.88	316.22	12.17	-26.5	-27.7	14.1	2.20e-06	0	44	102	1048576	12	4150
2026-01-07 16:34:57.60	316.63	12.01	-26.2	-27.2	14.4	1.10e-06	0	44	102	1048576	12	4021
2026-01-07 16:35:00.90	317.11	11.81	-26.1	-26.9	14.5	0.00e+00	0	44	102	1048576	12	3946
2026-01-07 16:35:03.63	317.51	11.65	-26.0	-26.7	14.6	0.00e+00	0	44	102	1048576	12	3900
2026-01-07 16:35:06.94	317.99	11.45	-25.7	-26.0	15.0	0.00e+00	0	44	102	1048576	12	3737
2026-01-07 16:35:09.68	318.38	11.29	-25.8	-26.2	14.9	0.00e+00	0	44	102	1048576	12	3769
2026-01-07 16:35:12.99	318.84	11.09	-26.0	-26.7	14.6	2.20e-06	0	44	102	1048576	12	3901
2026-01-07 16:35:15.73	319.22	10.93	-26.2	-27.1	14.4	0.00e+00	0	44	102	1048576	12	3990
2026-01-07 16:35:19.04	319.68	10.73	-26.6	-28.0	13.8	6.80e-06	0	44	102	1048576	12	4233
2026-01-07 16:35:21.76	320.04	10.57	-26.9	-28.3	13.4	1.14e-05	0	44	102	1048576	13	4204
2026-01-07 16:35:25.08	320.49	10.37	-26.7	-27.7	13.7	5.70e-06	0	44	102	1048576	13	4048
2026-01-07 16:35:27.81	320.85	10.21	-26.6	-27.5	13.8	6.80e-06	0	44	102	1048576	13	4000
2026-01-07 16:35:31.12	321.28	10.01	-26.4	-27.0	14.1	5.70e-06	0	44	102	1048576	13	3883
2026-01-07 16:35:33.85	321.64	9.85	-26.4	-27.0	14.1	1.10e-06	0	44	102	1048576	13	3881
2026-01-07 16:35:37.16	322.06	9.65	-26.5	-27.2	14.0	4.50e-06	0	44	102	1048576	13	3931
2026-01-07 16:35:39.89	322.40	9.49	-26.5	-27.4	13.8	3.40e-06	0	44	102	1048576	13	3971
2026-01-07 16:35:43.19	322.82	9.30	-26.6	-27.5	13.7	1.37e-05	0	44	102	1048576	13	4016
2026-01-07 16:35:45.93	323.15	9.13	-26.7	-27.7	13.6	1.14e-05	0	44	102	1048576	13	4072
2026-01-07 16:35:49.24	323.56	8.94	-26.7	-27.7	13.6	4.50e-06	0	44	102	1048576	13	4064
2026-01-07 16:35:51.97	323.89	8.78	-26.7	-27.7	13.6	3.40e-06	0	44	102	1048576	13	4066
2026-01-07 16:35:55.29	324.28	8.58	-26.8	-28.0	13.4	1.37e-05	0	44	102	1048576	13	4135
2026-01-07 16:35:58.02	324.60	8.42	-26.8	-28.0	13.4	3.08e-05	0	44	102	1048576	13	4128
2026-01-07 16:36:01.33	324.99	8.23	-27.0	-28.0	13.1	4.00e-05	0	44	102	1048576	14	4038
2026-01-07 16:36:04.06	325.30	8.07	-27.0	-28.0	13.1	3.31e-05	0	44	102	1048576	14	4041
2026-01-07 16:36:07.38	325.68	7.87	-26.9	-27.8	13.2	1.94e-05	0	44	102	1048576	14	3998
2026-01-07 16:36:10.11	325.98	7.71	-26.9	-27.9	13.1	2.97e-05	0	44	102	1048576	14	4012
2026-01-07 16:36:13.41	326.35	7.52	-27.0	-28.1	13.0	4.57e-05	0	44	102	1048576	14	4063
2026-01-07 16:36:16.15	326.65	7.36	-27.1	-28.2	12.9	6.17e-05	0	44	102	1048576	14	4085
2026-01-07 16:36:19.46	327.01	7.17	-26.9	-27.8	13.2	5.37e-05	0	44	102	1048576	14	3978
2026-01-07 16:36:22.19	327.30	7.01	-33.2	-42.7	3.8	8.46e-01	0	44	104	1048576	26	10803

#Closed at: 2026-01-07 16:36:23
#Recorded file [1 MB]: D:/data/31010_260107_192653.dat