passes_logs/2026/01/07/R2M6_AANII_01/R2M6_AANII_01__20260107_083844_SUOMI_NPP_rec.log

#Pass ID: 20260107_083844_SUOMI NPP
#Satellite: SUOMI NPP
#Configuration: NPP
#almurnet v.1.7.20240730
#Start time: 2026-01-07 08:38:45

#Version: 2.2.20231116
#Station: R2M6_AANII_01
#Location: 30.233357 lon 59.946436 lat
#TLE: 1 37849U 11061A   26005.94084933  .00000134  00000+0  84554-4 0  9990
#TLE: 2 37849  98.7803 308.0679 0002567  79.1029 281.0436 14.19522657735426

#Time	Az	El	Level	Level2	SNR	BER	BlckErr	Temp	State	Recorded	gain1	gain2
2026-01-07 08:38:45.45	106.15	7.04	-31.8	-37.1	4.6	1.36e+00	0	41	0	0	25	6613
2026-01-07 08:38:48.46	105.90	7.24	-31.7	-36.5	6.9	1.73e-01	0	41	102	1048576	24	6301
2026-01-07 08:38:51.48	105.64	7.44	-31.9	-37.8	6.0	2.57e-01	0	41	102	1048576	24	7104
2026-01-07 08:38:54.50	105.38	7.64	-31.6	-36.0	7.3	1.66e-01	0	41	102	1048576	24	5952
2026-01-07 08:38:57.52	105.11	7.85	-31.0	-33.9	9.4	1.95e-02	0	41	102	1048576	23	5043
2026-01-07 08:39:00.55	104.84	8.05	-31.1	-34.2	9.3	1.46e-02	0	41	102	1048576	23	5137
2026-01-07 08:39:03.57	104.56	8.26	-31.2	-34.6	8.9	2.20e-02	0	41	102	1048576	23	5319
2026-01-07 08:39:06.60	104.28	8.47	-31.0	-33.9	9.5	1.56e-02	0	41	102	1048576	23	5027
2026-01-07 08:39:09.61	104.00	8.67	-31.0	-33.9	9.6	1.76e-02	0	41	102	1048576	23	5003
2026-01-07 08:39:12.64	103.71	8.88	-30.7	-33.2	10.5	3.86e-03	0	42	102	1048576	22	4790
2026-01-07 08:39:15.66	103.42	9.09	-30.6	-32.8	10.8	2.72e-03	0	42	102	1048576	22	4649
2026-01-07 08:39:18.68	103.13	9.30	-30.7	-33.2	10.5	4.38e-03	0	42	102	1048576	22	4785
2026-01-07 08:39:21.70	102.83	9.52	-30.5	-32.6	11.0	1.87e-03	0	42	102	1048576	22	4555
2026-01-07 08:39:24.72	102.52	9.73	-30.6	-32.7	11.0	1.72e-03	0	42	102	1048576	22	4578
2026-01-07 08:39:27.74	102.21	9.95	-30.7	-33.1	10.6	3.35e-03	0	42	102	1048576	22	4762
2026-01-07 08:39:30.75	101.90	10.16	-30.8	-33.4	10.4	3.96e-03	0	42	102	1048576	22	4872
2026-01-07 08:39:33.76	101.58	10.38	-30.9	-33.6	10.3	4.13e-03	0	42	102	1048576	22	4954
2026-01-07 08:39:36.78	101.26	10.59	-30.8	-33.5	10.4	7.79e-03	0	42	102	1048576	22	4892
2026-01-07 08:39:39.80	100.93	10.81	-30.4	-32.0	11.6	9.33e-04	0	42	102	1048576	22	4326
2026-01-07 08:39:42.83	100.60	11.03	-30.6	-32.5	11.3	1.31e-03	0	42	102	1048576	22	4506
2026-01-07 08:39:45.85	100.26	11.25	-30.7	-33.0	10.8	2.70e-03	0	42	102	1048576	22	4692
2026-01-07 08:39:48.87	99.92	11.48	-30.8	-33.4	10.6	3.36e-03	0	42	102	1048576	22	4825
2026-01-07 08:39:51.89	99.57	11.70	-30.9	-33.6	10.4	4.06e-03	0	42	102	1048576	22	4905
2026-01-07 08:39:54.91	99.21	11.92	-30.9	-33.4	10.6	3.85e-03	0	42	102	1048576	22	4843
2026-01-07 08:39:57.93	98.85	12.15	-30.9	-33.4	10.6	2.92e-03	0	42	102	1048576	22	4841
2026-01-07 08:40:00.94	98.49	12.37	-30.6	-32.7	11.2	2.36e-03	0	43	102	1048576	22	4547
2026-01-07 08:40:03.97	98.11	12.60	-30.4	-31.9	11.8	4.16e-04	0	43	102	1048576	22	4289
2026-01-07 08:40:06.99	97.74	12.83	-30.3	-32.0	12.0	3.17e-04	0	43	102	1048576	21	4414
2026-01-07 08:40:10.01	97.35	13.06	-30.1	-31.6	12.4	1.85e-04	0	42	102	1048576	21	4274
2026-01-07 08:40:13.03	96.96	13.28	-30.1	-31.4	12.6	9.61e-05	0	43	102	1048576	21	4183
2026-01-07 08:40:16.05	96.57	13.51	-30.2	-31.8	12.2	1.80e-04	0	43	102	1048576	21	4344
2026-01-07 08:40:19.07	96.17	13.75	-30.0	-31.3	12.6	1.24e-04	0	43	102	1048576	21	4179
2026-01-07 08:40:22.08	95.76	13.98	-30.1	-31.5	12.5	8.31e-05	0	42	102	1048576	21	4240
2026-01-07 08:40:25.11	95.34	14.21	-30.2	-31.9	12.3	1.77e-04	0	43	102	1048576	21	4350
2026-01-07 08:40:28.14	94.92	14.44	-30.3	-31.9	12.3	1.46e-04	0	43	102	1048576	21	4337
2026-01-07 08:40:31.16	94.49	14.68	-30.1	-31.5	12.6	6.10e-05	0	43	102	1048576	21	4211
2026-01-07 08:40:34.18	94.05	14.91	-30.1	-31.3	12.7	9.53e-05	0	43	102	1048576	21	4158
2026-01-07 08:40:37.19	93.61	15.14	-30.0	-31.4	12.6	1.25e-04	0	43	102	1048576	21	4228
2026-01-07 08:40:40.21	93.16	15.38	-30.1	-31.8	12.3	1.33e-04	0	43	102	1048576	21	4350
2026-01-07 08:40:43.23	92.71	15.62	-30.5	-32.8	11.6	3.94e-04	0	43	102	1048576	21	4706
2026-01-07 08:40:46.25	92.24	15.85	-30.5	-32.8	11.7	7.88e-04	0	43	102	1048576	21	4689
2026-01-07 08:40:49.28	91.77	16.09	-30.5	-32.8	11.7	6.04e-04	0	43	102	1048576	21	4695
2026-01-07 08:40:52.30	91.29	16.33	-30.7	-33.3	11.4	9.12e-04	0	43	102	1048576	21	4858
2026-01-07 08:40:55.32	90.80	16.56	-30.7	-33.4	11.3	1.58e-03	0	43	102	1048576	21	4923
2026-01-07 08:40:58.34	90.31	16.80	-30.7	-33.3	11.3	1.14e-03	0	43	102	1048576	21	4882
2026-01-07 08:41:01.36	89.81	17.04	-30.8	-33.7	11.2	2.04e-03	0	43	102	1048576	21	5010
2026-01-07 08:41:04.38	89.30	17.28	-30.5	-32.8	11.8	5.19e-04	0	43	102	1048576	21	4669
2026-01-07 08:41:07.40	88.78	17.51	-30.3	-32.2	12.2	2.59e-04	0	43	102	1048576	21	4469
2026-01-07 08:41:10.42	88.25	17.75	-30.5	-32.6	11.9	3.68e-04	0	43	102	1048576	21	4613
2026-01-07 08:41:13.43	87.71	17.99	-30.6	-33.0	11.7	4.42e-04	0	43	102	1048576	21	4737
2026-01-07 08:41:16.45	87.17	18.22	-30.7	-33.2	11.5	9.59e-04	0	43	102	1048576	21	4830
2026-01-07 08:41:19.47	86.62	18.46	-30.3	-32.1	12.4	2.61e-04	0	43	102	1048576	21	4432
2026-01-07 08:41:22.49	86.06	18.69	-30.4	-32.3	12.3	1.59e-04	0	43	102	1048576	21	4480
2026-01-07 08:41:25.50	85.49	18.93	-30.4	-32.3	12.3	1.49e-04	0	43	102	1048576	21	4495
2026-01-07 08:41:28.51	84.91	19.16	-30.6	-32.8	11.9	5.29e-04	0	43	102	1048576	21	4674
2026-01-07 08:41:31.52	84.32	19.39	-30.4	-32.3	12.3	1.98e-04	0	43	102	1048576	21	4482
2026-01-07 08:41:34.55	83.72	19.62	-30.1	-31.4	13.0	5.03e-05	0	43	102	1048576	21	4182
2026-01-07 08:41:37.57	83.12	19.86	-30.0	-31.3	13.0	2.74e-05	0	43	102	1048576	21	4143
2026-01-07 08:41:40.60	82.50	20.09	-30.1	-31.3	12.9	5.49e-05	0	43	102	1048576	21	4175
2026-01-07 08:41:43.63	81.87	20.31	-29.9	-31.5	13.2	1.75e-05	0	43	102	1048576	20	4316
2026-01-07 08:41:46.63	81.24	20.54	-29.4	-30.0	14.2	3.80e-06	0	43	102	1048576	20	3877
2026-01-07 08:41:49.65	80.60	20.76	-29.2	-30.0	14.5	2.20e-06	0	43	102	1048576	19	3939
2026-01-07 08:41:52.66	79.95	20.99	-29.2	-30.0	14.5	0.00e+00	0	43	102	1048576	19	3956
2026-01-07 08:41:55.68	79.28	21.21	-29.3	-30.2	14.4	0.00e+00	0	43	102	1048576	19	4003
2026-01-07 08:41:58.70	78.61	21.43	-29.4	-30.4	14.3	2.20e-06	0	43	102	1048576	19	4072
2026-01-07 08:42:01.72	77.93	21.64	-29.4	-30.5	14.3	5.30e-06	0	43	102	1048576	19	4090
2026-01-07 08:42:04.74	77.24	21.86	-29.2	-29.9	14.6	0.00e+00	0	43	102	1048576	19	3925
2026-01-07 08:42:07.76	76.54	22.07	-29.2	-30.0	14.6	4.50e-06	0	43	102	1048576	19	3936
2026-01-07 08:42:10.77	75.83	22.27	-29.2	-30.1	14.6	7.60e-06	0	43	102	1048576	19	3953
2026-01-07 08:42:13.79	75.11	22.48	-29.1	-29.6	14.9	0.00e+00	0	43	102	1048576	19	3817
2026-01-07 08:42:16.79	74.38	22.68	-28.9	-29.5	15.3	7.00e-07	0	43	102	1048576	18	3873
2026-01-07 08:42:19.82	73.64	22.88	-29.1	-30.2	14.8	1.50e-06	0	43	102	1048576	18	4077
2026-01-07 08:42:22.84	72.89	23.07	-29.1	-30.0	15.0	2.20e-06	0	43	102	1048576	18	4030
2026-01-07 08:42:25.86	72.13	23.26	-29.1	-30.2	14.8	2.20e-06	0	43	102	1048576	18	4078
2026-01-07 08:42:28.88	71.37	23.45	-28.9	-29.7	15.3	0.00e+00	0	43	102	1048576	18	3920
2026-01-07 08:42:31.89	70.59	23.63	-28.9	-29.7	15.2	0.00e+00	0	43	102	1048576	18	3938
2026-01-07 08:42:34.92	69.81	23.81	-28.9	-29.6	15.3	0.00e+00	0	43	102	1048576	18	3908
2026-01-07 08:42:37.93	69.01	23.98	-28.7	-29.2	15.5	0.00e+00	0	43	102	1048576	18	3783
2026-01-07 08:42:40.95	68.21	24.15	-28.8	-29.4	15.4	0.00e+00	0	43	102	1048576	18	3840
2026-01-07 08:42:43.98	67.40	24.31	-28.8	-29.4	15.4	0.00e+00	0	43	102	1048576	18	3852
2026-01-07 08:42:47.00	66.58	24.47	-28.9	-29.7	15.2	0.00e+00	0	43	102	1048576	18	3928
2026-01-07 08:42:50.02	65.75	24.62	-28.9	-29.7	15.3	0.00e+00	0	43	102	1048576	18	3917
2026-01-07 08:42:53.04	64.91	24.77	-28.8	-29.3	15.5	0.00e+00	0	43	102	1048576	18	3822
2026-01-07 08:42:56.06	64.07	24.91	-28.9	-29.6	15.3	0.00e+00	0	43	102	1048576	18	3900
2026-01-07 08:42:59.08	63.22	25.04	-29.2	-30.4	14.8	0.00e+00	0	43	102	1048576	18	4128
2026-01-07 08:43:02.09	62.36	25.17	-30.0	-31.6	13.4	3.80e-06	0	43	102	1048576	20	4294
2026-01-07 08:43:05.11	61.50	25.29	-30.4	-32.2	12.6	1.27e-04	0	43	102	1048576	21	4415
2026-01-07 08:43:08.13	60.63	25.40	-30.3	-31.8	13.0	3.28e-05	0	43	102	1048576	21	4268
2026-01-07 08:43:11.16	59.75	25.51	-30.3	-31.9	12.9	5.26e-05	0	43	102	1048576	21	4301
2026-01-07 08:43:14.18	58.87	25.61	-30.1	-31.2	13.2	2.67e-05	0	43	102	1048576	21	4100
2026-01-07 08:43:17.20	57.98	25.71	-30.1	-31.2	13.3	2.28e-05	0	43	102	1048576	21	4089
2026-01-07 08:43:20.22	57.08	25.79	-30.0	-31.5	13.4	1.14e-05	0	43	102	1048576	20	4276
2026-01-07 08:43:23.24	56.19	25.87	-30.3	-31.9	12.9	6.94e-05	0	43	102	1048576	21	4308
2026-01-07 08:43:26.25	55.29	25.94	-30.2	-31.5	13.1	2.97e-05	0	43	102	1048576	21	4205
2026-01-07 08:43:29.27	54.38	26.01	-30.0	-30.9	13.5	9.90e-06	0	43	102	1048576	21	4005
2026-01-07 08:43:32.28	53.47	26.06	-30.4	-32.2	12.7	4.88e-05	0	43	102	1048576	21	4407
2026-01-07 08:43:35.31	52.56	26.11	-30.7	-33.0	12.1	1.92e-04	0	43	102	1048576	21	4692
2026-01-07 08:43:38.33	51.64	26.15	-30.6	-32.6	12.5	1.60e-04	0	43	102	1048576	21	4535
2026-01-07 08:43:41.36	50.72	26.18	-30.1	-31.2	13.3	3.58e-05	0	43	102	1048576	21	4097
2026-01-07 08:43:44.37	49.81	26.21	-29.8	-31.0	13.8	3.80e-06	0	43	102	1048576	20	4118
2026-01-07 08:43:47.39	48.89	26.22	-30.5	-32.8	12.6	7.62e-05	0	43	102	1048576	20	4713
2026-01-07 08:43:50.41	47.97	26.23	-30.5	-32.5	12.4	1.87e-04	0	43	102	1048576	21	4536
2026-01-07 08:43:53.42	47.05	26.23	-30.1	-31.4	13.2	3.66e-05	0	43	102	1048576	21	4166
2026-01-07 08:43:56.45	46.13	26.22	-29.4	-30.1	14.4	2.20e-06	0	43	102	1048576	20	3858
2026-01-07 08:43:59.47	45.21	26.20	-29.4	-30.3	14.5	0.00e+00	0	43	102	1048576	19	4011
2026-01-07 08:44:02.49	44.29	26.18	-29.1	-29.6	15.0	7.00e-07	0	43	102	1048576	19	3799
2026-01-07 08:44:05.51	43.37	26.15	-29.2	-29.7	15.0	7.00e-07	0	43	102	1048576	19	3843
2026-01-07 08:44:08.53	42.46	26.11	-28.3	-28.1	16.2	0.00e+00	0	43	102	1048576	18	3505
2026-01-07 08:44:11.55	41.55	26.06	-28.9	-29.6	15.3	0.00e+00	0	43	102	1048576	18	3901
2026-01-07 08:44:14.58	40.63	26.00	-28.8	-29.3	15.5	0.00e+00	0	43	102	1048576	18	3800
2026-01-07 08:44:17.59	39.73	25.94	-29.5	-30.6	14.4	1.50e-06	0	43	102	1048576	19	4080
2026-01-07 08:44:20.62	38.83	25.87	-29.2	-29.7	14.9	0.00e+00	0	43	102	1048576	19	3835
2026-01-07 08:44:23.63	37.93	25.79	-29.1	-29.4	15.1	0.00e+00	0	43	102	1048576	19	3754
2026-01-07 08:44:26.66	37.04	25.70	-29.3	-30.0	14.7	0.00e+00	0	43	102	1048576	19	3917
2026-01-07 08:44:29.68	36.15	25.61	-29.5	-30.6	14.4	0.00e+00	0	43	102	1048576	19	4062
2026-01-07 08:44:32.69	35.27	25.51	-30.0	-31.3	13.6	3.80e-06	0	43	102	1048576	20	4200
2026-01-07 08:44:35.71	34.40	25.40	-29.4	-29.7	14.6	3.00e-06	0	43	102	1048576	20	3748
2026-01-07 08:44:38.73	33.53	25.28	-29.6	-30.8	14.3	7.00e-07	0	43	102	1048576	19	4133
2026-01-07 08:44:41.75	32.67	25.16	-29.8	-31.4	13.9	4.50e-06	0	43	102	1048576	19	4309
2026-01-07 08:44:44.76	31.81	25.03	-29.9	-31.6	13.7	3.80e-06	0	43	102	1048576	19	4378
2026-01-07 08:44:47.78	30.97	24.90	-30.0	-31.4	13.4	8.30e-06	0	43	102	1048576	20	4240
2026-01-07 08:44:50.80	30.12	24.76	-30.1	-31.7	13.2	4.42e-05	0	43	102	1048576	20	4326
2026-01-07 08:44:53.81	29.29	24.61	-29.9	-31.3	13.5	1.37e-05	0	43	102	1048576	20	4207
2026-01-07 08:44:56.83	28.47	24.46	-30.1	-31.9	13.1	3.12e-05	0	43	102	1048576	20	4396
2026-01-07 08:44:59.86	27.65	24.30	-30.1	-31.8	13.2	3.05e-05	0	43	102	1048576	20	4364
2026-01-07 08:45:02.89	26.84	24.14	-29.9	-31.2	13.5	9.10e-06	0	43	102	1048576	20	4179
2026-01-07 08:45:05.91	26.04	23.97	-29.8	-31.0	13.6	9.10e-06	0	43	102	1048576	20	4130
2026-01-07 08:45:08.93	25.24	23.80	-30.4	-32.7	12.5	8.62e-05	0	43	102	1048576	20	4706
2026-01-07 08:45:11.95	24.46	23.62	-30.3	-31.9	12.6	1.43e-04	0	43	102	1048576	21	4328
2026-01-07 08:45:14.97	23.69	23.44	-30.3	-32.0	12.6	1.18e-04	0	43	102	1048576	21	4368
2026-01-07 08:45:17.99	22.92	23.26	-30.4	-32.3	12.4	8.92e-05	0	43	102	1048576	21	4455
2026-01-07 08:45:21.02	22.17	23.07	-30.7	-33.2	11.6	5.84e-04	0	43	102	1048576	21	4801
2026-01-07 08:45:24.04	21.42	22.87	-29.9	-30.9	13.3	3.20e-05	0	43	102	1048576	21	4024
2026-01-07 08:45:27.06	20.68	22.67	-29.8	-31.1	13.5	6.10e-06	0	43	102	1048576	20	4178
2026-01-07 08:45:30.09	19.95	22.47	-30.2	-32.1	12.8	4.11e-05	0	43	102	1048576	20	4487
2026-01-07 08:45:33.10	19.24	22.27	-30.5	-32.4	12.2	2.30e-04	0	43	102	1048576	21	4512
2026-01-07 08:45:36.12	18.53	22.06	-30.0	-31.1	13.2	2.74e-05	0	43	102	1048576	21	4065
2026-01-07 08:45:39.14	17.83	21.85	-29.3	-29.7	14.3	1.50e-06	0	43	102	1048576	20	3758
2026-01-07 08:45:42.17	17.14	21.64	-29.3	-30.1	14.5	0.00e+00	0	43	102	1048576	19	3954
2026-01-07 08:45:45.18	16.47	21.42	-29.1	-29.7	14.7	0.00e+00	0	43	102	1048576	19	3863
2026-01-07 08:45:48.21	15.80	21.20	-29.1	-29.7	14.7	7.00e-07	0	43	102	1048576	19	3842
2026-01-07 08:45:51.22	15.14	20.99	-29.1	-29.7	14.6	0.00e+00	0	43	102	1048576	19	3861
2026-01-07 08:45:54.25	14.49	20.76	-29.3	-30.2	14.1	1.50e-06	0	43	102	1048576	19	4015
2026-01-07 08:45:57.28	13.84	20.54	-29.2	-30.1	14.0	3.80e-06	0	43	102	1048576	19	3964
2026-01-07 08:46:00.31	13.21	20.31	-29.7	-31.4	13.3	7.60e-06	0	43	102	1048576	19	4371
2026-01-07 08:46:03.31	12.59	20.09	-29.8	-31.4	13.3	1.52e-05	0	44	102	1048576	19	4373
2026-01-07 08:46:06.32	11.98	19.86	-29.6	-31.1	13.5	1.06e-05	0	43	102	1048576	19	4273
2026-01-07 08:46:09.33	11.38	19.63	-29.7	-30.8	12.2	1.55e-04	0	43	102	1048576	20	4111
2026-01-07 08:46:12.35	10.79	19.40	-28.9	-29.2	13.9	0.00e+00	0	43	102	1048576	19	3731
2026-01-07 08:46:15.37	10.20	19.16	-28.5	-28.7	14.7	0.00e+00	0	44	102	1048576	18	3683
2026-01-07 08:46:18.39	9.62	18.93	-28.7	-29.3	14.9	0.00e+00	0	43	102	1048576	18	3826
2026-01-07 08:46:21.41	9.06	18.70	-29.2	-30.4	13.9	7.00e-07	0	43	102	1048576	18	4135
2026-01-07 08:46:24.43	8.50	18.46	-29.2	-30.4	13.6	9.90e-06	0	43	102	1048576	18	4142
2026-01-07 08:46:27.44	7.95	18.23	-29.0	-29.9	13.9	7.00e-07	0	44	102	1048576	18	4012
2026-01-07 08:46:30.47	7.41	17.99	-28.8	-29.6	11.9	7.01e-05	0	44	102	1048576	18	3943
2026-01-07 08:46:33.48	6.88	17.76	-29.1	-30.6	11.5	3.68e-04	0	44	102	1048576	18	4236
2026-01-07 08:46:36.51	6.35	17.52	-29.4	-30.9	13.7	7.60e-06	0	44	102	1048576	18	4314
2026-01-07 08:46:39.51	5.84	17.29	-29.3	-30.8	13.6	6.10e-06	0	44	102	1048576	18	4268
2026-01-07 08:46:42.54	5.33	17.05	-29.4	-31.1	12.9	2.67e-05	0	44	102	1048576	18	4365
2026-01-07 08:46:45.56	4.83	16.81	-29.4	-30.6	13.0	2.21e-05	0	44	102	1048576	19	4139
2026-01-07 08:46:48.58	4.34	16.58	-29.9	-31.4	12.5	1.20e-04	0	43	102	1048576	20	4286
2026-01-07 08:46:51.62	3.85	16.34	-29.8	-31.2	13.1	6.33e-05	0	43	102	1048576	20	4209
2026-01-07 08:46:54.62	3.38	16.10	-29.7	-30.8	13.3	1.06e-05	0	43	102	1048576	20	4088
2026-01-07 08:46:57.64	2.91	15.87	-29.3	-30.3	14.0	7.00e-07	0	43	102	1048576	19	4026
2026-01-07 08:47:00.64	2.45	15.63	-29.9	-31.8	13.1	1.60e-05	0	43	102	1048576	19	4472
2026-01-07 08:47:03.67	2.00	15.40	-30.4	-32.7	12.1	1.78e-04	0	43	102	1048576	20	4728
2026-01-07 08:47:06.69	1.55	15.16	-30.4	-32.4	11.9	3.49e-04	0	43	102	1048576	21	4522
2026-01-07 08:47:09.70	1.11	14.93	-29.9	-30.9	12.9	6.40e-05	0	43	102	1048576	21	4039
2026-01-07 08:47:12.72	0.68	14.70	-29.7	-30.9	13.2	1.98e-05	0	43	102	1048576	20	4127
2026-01-07 08:47:15.74	0.26	14.47	-30.0	-31.8	12.6	6.17e-05	0	43	102	1048576	20	4404
2026-01-07 08:47:18.76	359.84	14.23	-30.0	-31.9	12.6	1.22e-04	0	43	102	1048576	20	4445
2026-01-07 08:47:21.79	359.42	14.00	-29.8	-31.3	12.9	9.53e-05	0	43	102	1048576	20	4257
2026-01-07 08:47:24.80	359.02	13.77	-29.5	-30.5	13.5	3.80e-06	0	44	102	1048576	20	4004
2026-01-07 08:47:27.81	358.62	13.54	-29.6	-30.7	13.3	8.30e-06	0	43	102	1048576	20	4076
2026-01-07 08:47:30.83	358.23	13.31	-29.4	-30.1	13.7	6.80e-06	0	43	102	1048576	20	3921
2026-01-07 08:47:33.85	357.84	13.08	-29.6	-30.6	13.3	1.67e-05	0	43	102	1048576	20	4052
2026-01-07 08:47:36.87	357.46	12.86	-29.7	-30.9	13.1	4.19e-05	0	43	102	1048576	20	4148
2026-01-07 08:47:39.90	357.09	12.63	-29.9	-31.6	12.6	1.02e-04	0	43	102	1048576	20	4362
2026-01-07 08:47:42.92	356.72	12.40	-29.9	-31.5	12.7	7.78e-05	0	44	102	1048576	20	4338
2026-01-07 08:47:45.94	356.35	12.18	-29.8	-31.4	12.7	7.17e-05	0	43	102	1048576	20	4296
2026-01-07 08:47:48.96	356.00	11.95	-29.7	-31.1	13.0	4.95e-05	0	43	102	1048576	20	4201
2026-01-07 08:47:51.98	355.64	11.73	-30.3	-32.6	12.0	3.20e-04	0	43	102	1048576	20	4698
2026-01-07 08:47:54.99	355.30	11.51	-30.8	-33.9	10.7	1.74e-03	0	43	102	1048576	21	5116
2026-01-07 08:47:58.01	354.96	11.29	-30.6	-33.3	11.0	3.06e-03	0	43	102	1048576	21	4898
2026-01-07 08:48:01.03	354.62	11.07	-30.4	-32.5	11.6	1.14e-03	0	43	102	1048576	21	4597
2026-01-07 08:48:04.04	354.29	10.85	-30.0	-31.3	12.4	1.46e-04	0	43	102	1048576	21	4190
2026-01-07 08:48:07.07	353.97	10.63	-29.8	-31.0	12.6	8.77e-05	0	43	102	1048576	21	4091
2026-01-07 08:48:10.08	353.65	10.42	-30.2	-32.1	11.8	2.96e-04	0	44	102	1048576	21	4450
2026-01-07 08:48:13.10	353.33	10.20	-30.7	-33.5	10.7	1.78e-03	0	43	102	1048576	21	5000
2026-01-07 08:48:16.13	353.02	9.99	-30.9	-34.2	10.2	5.84e-03	0	43	102	1048576	21	5280
2026-01-07 08:48:19.14	352.71	9.77	-30.9	-33.7	10.2	6.46e-03	0	44	102	1048576	22	5002
2026-01-07 08:48:22.16	352.41	9.56	-30.9	-33.7	10.2	5.39e-03	0	43	102	1048576	22	4997
2026-01-07 08:48:25.17	352.12	9.35	-30.8	-33.5	10.4	4.05e-03	0	44	102	1048576	22	4901
2026-01-07 08:48:28.20	351.82	9.14	-30.8	-33.4	10.5	4.32e-03	0	44	102	1048576	22	4862
2026-01-07 08:48:31.22	351.54	8.93	-30.8	-33.4	10.4	4.45e-03	0	43	102	1048576	22	4880
2026-01-07 08:48:34.24	351.25	8.72	-30.9	-33.8	10.1	6.68e-03	0	43	102	1048576	22	5022
2026-01-07 08:48:37.26	350.97	8.51	-31.1	-34.7	9.3	1.57e-02	0	43	102	1048576	22	5448
2026-01-07 08:48:40.28	350.70	8.30	-31.1	-34.5	9.4	1.78e-02	0	43	102	1048576	22	5356
2026-01-07 08:48:43.30	350.42	8.10	-30.9	-34.0	9.8	1.18e-02	0	44	102	1048576	22	5157
2026-01-07 08:48:46.32	350.16	7.89	-30.7	-33.2	10.5	4.97e-03	0	43	102	1048576	22	4798
2026-01-07 08:48:49.34	349.89	7.69	-30.3	-32.4	11.3	1.15e-03	0	43	102	1048576	21	4595
2026-01-07 08:48:52.37	349.63	7.49	-30.0	-31.7	11.8	5.61e-04	0	43	102	1048576	21	4353
2026-01-07 08:48:55.39	349.38	7.29	-30.0	-31.7	11.7	5.96e-04	0	43	102	1048576	21	4358
2026-01-07 08:48:58.40	349.12	7.09	-32.1	-38.4	6.5	7.56e-03	0	43	102	1048576	24	7422
2026-01-07 08:49:01.42	348.87	6.89	-33.5	-45.8	3.8	1.49e+00	0	43	104	1048576	27	14746

#Closed at: 2026-01-07 08:49:01
#Recorded file [1 MB]: D:/data/31010_260107_113847.dat