passes_logs/2026/01/07/R2M6_AANII_01/R2M6_AANII_01__20260107_132604_AQUA_rec.log

#Pass ID: 20260107_132604_AQUA
#Satellite: AQUA
#Configuration: AQUA
#almurnet v.1.7.20240730
#Start time: 2026-01-07 13:26:03

#Version: 2.2.20231116
#Station: R2M6_AANII_01
#Location: 30.233357 lon 59.946436 lat
#TLE: 1 27424U 02022A   26004.96787593  .00001598  00000+0  32997-3 0  9996
#TLE: 2 27424  98.4069 331.2279 0002002  90.2377   0.6092 14.61798176259425

#Time	Az	El	Level	Level2	SNR	BER	BlckErr	Temp	State	Recorded	gain1	gain2
2026-01-07 13:26:03.46	209.19	6.96	-30.9	-35.7	5.2	7.11e-01	0	41	0	0	24	6228
2026-01-07 13:26:06.47	209.50	7.17	-31.9	-39.1	12.4	6.07e-01	0	41	102	524288	24	8208
2026-01-07 13:26:09.49	209.81	7.38	-31.7	-38.1	13.3	6.12e-01	0	41	102	524288	24	7472
2026-01-07 13:26:12.52	210.13	7.59	-31.2	-35.8	15.1	6.07e-01	0	41	102	524288	24	6106
2026-01-07 13:26:15.55	210.45	7.80	-30.8	-34.8	16.3	6.06e-01	0	41	102	524288	23	5701
2026-01-07 13:26:18.57	210.78	8.01	-30.9	-35.0	16.2	6.05e-01	0	41	102	524288	23	5800
2026-01-07 13:26:21.60	211.12	8.22	-30.4	-33.6	17.2	6.07e-01	0	41	102	524288	23	5198
2026-01-07 13:26:24.61	211.45	8.44	-30.4	-34.0	17.2	6.08e-01	0	41	102	524288	22	5471
2026-01-07 13:26:27.64	211.80	8.65	-30.5	-34.3	17.0	6.04e-01	0	42	102	524288	22	5586
2026-01-07 13:26:30.66	212.15	8.87	-30.3	-33.6	17.5	6.07e-01	0	42	102	524288	22	5304
2026-01-07 13:26:33.68	212.50	9.09	-30.1	-33.2	17.8	6.06e-01	0	42	102	524288	22	5131
2026-01-07 13:26:36.70	212.86	9.31	-30.3	-33.5	17.6	6.07e-01	0	42	102	524288	22	5256
2026-01-07 13:26:39.73	213.23	9.53	-30.0	-32.8	18.1	6.08e-01	0	42	102	524288	22	4959
2026-01-07 13:26:42.75	213.60	9.75	-30.1	-33.0	18.0	6.08e-01	0	42	102	524288	22	5035
2026-01-07 13:26:45.76	213.98	9.98	-30.0	-32.7	18.3	6.07e-01	0	42	102	524288	22	4917
2026-01-07 13:26:48.79	214.37	10.20	-30.0	-32.7	18.3	6.06e-01	0	42	102	524288	22	4919
2026-01-07 13:26:51.81	214.76	10.43	-30.0	-32.7	18.3	6.07e-01	0	42	102	524288	22	4920
2026-01-07 13:26:54.83	215.15	10.66	-30.1	-33.1	18.0	6.05e-01	0	42	102	524288	22	5062
2026-01-07 13:26:57.85	215.56	10.88	-30.2	-33.2	17.9	6.08e-01	0	42	102	524288	22	5130
2026-01-07 13:27:00.87	215.97	11.11	-30.3	-33.7	17.6	6.06e-01	0	42	102	524288	22	5331
2026-01-07 13:27:03.90	216.38	11.34	-29.9	-32.4	18.5	6.07e-01	0	42	102	524288	22	4826
2026-01-07 13:27:06.92	216.81	11.58	-29.9	-33.1	18.4	6.09e-01	0	42	102	524288	21	5164
2026-01-07 13:27:09.94	217.24	11.81	-30.1	-33.4	18.2	6.06e-01	0	42	102	524288	21	5291
2026-01-07 13:27:12.97	217.68	12.04	-29.9	-32.8	18.6	6.05e-01	0	42	102	524288	21	5050
2026-01-07 13:27:15.98	218.12	12.28	-30.0	-33.1	18.5	6.07e-01	0	42	102	524288	21	5171
2026-01-07 13:27:19.00	218.57	12.51	-29.9	-32.8	18.7	6.06e-01	0	42	102	524288	21	5036
2026-01-07 13:27:22.02	219.03	12.75	-29.8	-32.6	18.8	6.06e-01	0	43	102	524288	21	4981
2026-01-07 13:27:25.04	219.50	12.99	-29.9	-32.9	18.6	6.07e-01	0	42	102	524288	21	5095
2026-01-07 13:27:28.06	219.98	13.23	-29.8	-32.5	18.9	6.07e-01	0	43	102	524288	21	4938
2026-01-07 13:27:31.08	220.46	13.47	-29.7	-32.2	19.1	6.08e-01	0	43	102	524288	21	4827
2026-01-07 13:27:34.09	220.95	13.71	-29.8	-32.4	19.0	6.06e-01	0	43	102	524288	21	4909
2026-01-07 13:27:37.09	221.45	13.95	-30.0	-33.2	18.5	6.07e-01	0	42	102	524288	21	5169
2026-01-07 13:27:40.11	221.96	14.19	-29.7	-32.3	19.1	6.06e-01	0	43	102	524288	21	4847
2026-01-07 13:27:43.12	222.48	14.43	-29.6	-32.1	19.2	6.07e-01	0	43	102	524288	21	4777
2026-01-07 13:27:46.13	223.00	14.67	-29.5	-31.9	19.4	6.05e-01	0	43	102	524288	21	4706
2026-01-07 13:27:49.15	223.54	14.92	-29.7	-32.1	19.2	6.06e-01	0	43	102	524288	21	4786
2026-01-07 13:27:52.18	224.08	15.16	-29.7	-32.2	19.2	6.05e-01	0	43	102	524288	21	4800
2026-01-07 13:27:55.21	224.64	15.41	-29.5	-31.8	19.5	6.06e-01	0	43	102	524288	21	4659
2026-01-07 13:27:58.22	225.20	15.65	-29.5	-31.7	19.5	6.06e-01	0	43	102	524288	21	4637
2026-01-07 13:28:01.25	225.78	15.90	-29.6	-31.9	19.4	6.07e-01	0	43	102	524288	21	4713
2026-01-07 13:28:04.27	226.36	16.14	-29.5	-31.8	19.5	6.08e-01	0	43	102	524288	21	4682
2026-01-07 13:28:07.29	226.95	16.39	-29.5	-31.8	19.5	6.05e-01	0	43	102	524288	21	4672
2026-01-07 13:28:10.31	227.56	16.63	-29.5	-31.6	19.6	6.09e-01	0	43	102	524288	21	4615
2026-01-07 13:28:13.33	228.17	16.88	-29.5	-31.8	19.6	6.06e-01	0	43	102	524288	21	4658
2026-01-07 13:28:16.35	228.80	17.12	-29.5	-31.8	19.6	6.08e-01	0	43	102	524288	21	4660
2026-01-07 13:28:19.37	229.43	17.37	-29.5	-31.7	19.6	6.05e-01	0	43	102	524288	21	4639
2026-01-07 13:28:22.40	230.08	17.61	-29.5	-31.6	19.7	6.08e-01	0	43	102	524288	21	4602
2026-01-07 13:28:25.42	230.73	17.85	-29.6	-32.0	19.5	6.06e-01	0	43	102	524288	21	4714
2026-01-07 13:28:28.44	231.40	18.09	-29.7	-32.1	19.4	6.06e-01	0	43	102	524288	21	4761
2026-01-07 13:28:31.46	232.08	18.33	-29.7	-32.1	19.4	6.04e-01	0	43	102	524288	21	4773
2026-01-07 13:28:34.47	232.77	18.57	-29.5	-31.8	19.6	6.06e-01	0	43	102	524288	21	4649
2026-01-07 13:28:37.50	233.47	18.81	-29.6	-31.8	19.6	6.08e-01	0	43	102	524288	21	4656
2026-01-07 13:28:40.52	234.18	19.05	-29.5	-31.7	19.7	6.08e-01	0	43	102	524288	21	4628
2026-01-07 13:28:43.53	234.90	19.28	-29.5	-31.6	19.8	6.06e-01	0	43	102	524288	21	4583
2026-01-07 13:28:46.55	235.64	19.52	-29.5	-31.7	19.8	6.06e-01	0	43	102	524288	21	4605
2026-01-07 13:28:49.56	236.38	19.75	-29.5	-31.7	19.8	6.05e-01	0	43	102	524288	21	4609
2026-01-07 13:28:52.59	237.14	19.97	-29.6	-31.7	19.7	6.07e-01	0	43	102	524288	21	4617
2026-01-07 13:28:55.60	237.91	20.20	-29.7	-32.2	19.4	6.06e-01	0	43	102	524288	21	4780
2026-01-07 13:28:58.61	238.69	20.42	-29.6	-31.8	19.7	6.07e-01	0	43	102	524288	21	4643
2026-01-07 13:29:01.64	239.48	20.64	-29.7	-32.0	19.6	6.06e-01	0	43	102	524288	21	4712
2026-01-07 13:29:04.66	240.29	20.86	-29.9	-32.5	19.3	6.07e-01	0	43	102	524288	21	4882
2026-01-07 13:29:07.69	241.10	21.07	-29.7	-32.2	19.5	6.07e-01	0	43	102	524288	21	4763
2026-01-07 13:29:10.71	241.93	21.28	-29.8	-32.2	19.5	6.05e-01	0	43	102	524288	21	4783
2026-01-07 13:29:13.72	242.77	21.49	-29.7	-32.1	19.6	6.07e-01	0	43	102	524288	21	4744
2026-01-07 13:29:16.74	243.62	21.69	-29.8	-32.4	19.4	6.05e-01	0	43	102	524288	21	4825
2026-01-07 13:29:19.74	244.48	21.88	-29.8	-32.2	19.5	6.06e-01	0	43	102	524288	21	4773
2026-01-07 13:29:22.76	245.35	22.07	-30.0	-32.8	19.1	6.09e-01	0	43	102	524288	21	4977
2026-01-07 13:29:25.78	246.23	22.26	-29.8	-32.5	19.3	6.08e-01	0	43	102	524288	21	4893
2026-01-07 13:29:28.78	247.12	22.44	-30.1	-33.2	18.9	6.06e-01	0	43	102	524288	21	5137
2026-01-07 13:29:31.80	248.03	22.62	-29.8	-32.4	19.4	6.05e-01	0	43	102	524288	21	4852
2026-01-07 13:29:34.82	248.94	22.79	-29.8	-32.5	19.3	6.05e-01	0	43	102	524288	21	4895
2026-01-07 13:29:37.84	249.87	22.95	-30.0	-33.1	18.9	6.07e-01	0	43	102	524288	21	5095
2026-01-07 13:29:40.86	250.80	23.11	-29.9	-32.6	19.3	6.07e-01	0	43	102	524288	21	4932
2026-01-07 13:29:43.88	251.75	23.26	-30.2	-33.4	18.8	6.05e-01	0	43	102	524288	21	5234
2026-01-07 13:29:46.91	252.70	23.40	-29.9	-32.5	19.4	6.08e-01	0	43	102	524288	21	4863
2026-01-07 13:29:49.92	253.66	23.54	-29.8	-32.4	19.4	6.07e-01	0	43	102	524288	21	4846
2026-01-07 13:29:52.95	254.64	23.67	-29.9	-32.6	19.3	6.08e-01	0	43	102	524288	21	4897
2026-01-07 13:29:55.97	255.62	23.79	-29.9	-32.7	19.3	6.06e-01	0	43	102	524288	21	4933
2026-01-07 13:29:58.99	256.60	23.91	-30.0	-32.7	19.3	6.07e-01	0	43	102	524288	21	4953
2026-01-07 13:30:02.01	257.60	24.01	-29.9	-32.6	19.4	6.06e-01	0	43	102	524288	21	4887
2026-01-07 13:30:05.03	258.60	24.11	-29.9	-32.7	19.3	6.08e-01	0	43	102	524288	21	4938
2026-01-07 13:30:08.05	259.60	24.20	-30.0	-32.8	19.2	6.07e-01	0	43	102	524288	21	4984
2026-01-07 13:30:11.07	260.61	24.28	-30.2	-33.2	19.0	6.07e-01	0	43	102	524288	21	5128
2026-01-07 13:30:14.09	261.63	24.35	-30.0	-32.9	19.2	6.06e-01	0	43	102	524288	21	5008
2026-01-07 13:30:17.11	262.65	24.42	-29.9	-32.7	19.3	6.07e-01	0	43	102	524288	21	4920
2026-01-07 13:30:20.13	263.68	24.47	-29.6	-32.2	19.4	6.08e-01	0	43	102	524288	21	4880
2026-01-07 13:30:23.14	264.70	24.52	-29.5	-32.0	19.6	6.06e-01	0	43	102	524288	21	4783
2026-01-07 13:30:26.16	265.73	24.55	-29.8	-32.4	19.4	6.07e-01	0	43	102	524288	21	4893
2026-01-07 13:30:29.17	266.76	24.58	-29.3	-32.3	19.6	6.05e-01	0	43	102	524288	20	5056
2026-01-07 13:30:32.19	267.80	24.60	-29.5	-32.6	19.4	6.05e-01	0	43	102	524288	20	5136
2026-01-07 13:30:35.21	268.83	24.61	-29.5	-32.5	19.5	6.06e-01	0	43	102	524288	20	5080
2026-01-07 13:30:38.24	269.87	24.60	-29.8	-32.9	19.5	6.07e-01	0	43	102	524288	20	5123
2026-01-07 13:30:41.25	270.90	24.59	-29.9	-33.0	19.5	6.05e-01	0	43	102	524288	20	5154
2026-01-07 13:30:44.28	271.94	24.57	-29.8	-32.9	19.5	6.09e-01	0	44	102	524288	20	5119
2026-01-07 13:30:47.29	272.97	24.54	-29.9	-33.1	19.4	6.04e-01	0	43	102	524288	20	5188
2026-01-07 13:30:50.32	274.00	24.51	-29.8	-33.0	19.3	6.08e-01	0	43	102	524288	20	5210
2026-01-07 13:30:53.33	275.02	24.46	-29.9	-33.3	19.1	6.07e-01	0	43	102	524288	20	5310
2026-01-07 13:30:56.36	276.05	24.40	-30.2	-33.4	18.8	6.05e-01	0	43	102	524288	21	5237
2026-01-07 13:30:59.38	277.07	24.34	-29.7	-32.2	19.5	6.08e-01	0	43	102	524288	21	4803
2026-01-07 13:31:02.40	278.08	24.26	-29.9	-32.5	19.5	6.08e-01	0	43	102	524288	21	4853
2026-01-07 13:31:05.43	279.09	24.18	-29.9	-32.5	19.5	6.04e-01	0	43	102	524288	21	4859
2026-01-07 13:31:08.44	280.09	24.09	-30.0	-32.7	19.3	6.06e-01	0	43	102	524288	21	4932
2026-01-07 13:31:11.46	281.09	23.99	-29.9	-32.5	19.5	6.06e-01	0	43	102	524288	21	4851
2026-01-07 13:31:14.48	282.08	23.88	-29.8	-32.2	19.6	6.05e-01	0	43	102	524288	21	4762
2026-01-07 13:31:17.48	283.05	23.76	-30.0	-32.9	19.2	6.06e-01	0	43	102	524288	21	4994
2026-01-07 13:31:20.51	284.03	23.64	-29.8	-32.3	19.5	6.07e-01	0	43	102	524288	21	4798
2026-01-07 13:31:23.52	285.00	23.51	-29.9	-32.5	19.4	6.07e-01	0	43	102	524288	21	4871
2026-01-07 13:31:26.55	285.96	23.37	-29.9	-32.4	19.5	6.08e-01	0	43	102	524288	21	4846
2026-01-07 13:31:29.57	286.90	23.22	-29.9	-32.4	19.5	6.07e-01	0	43	102	524288	21	4837
2026-01-07 13:31:32.58	287.84	23.07	-29.9	-32.4	19.5	6.06e-01	0	44	102	524288	21	4844
2026-01-07 13:31:35.61	288.77	22.91	-29.9	-32.5	19.4	6.08e-01	0	43	102	524288	21	4863
2026-01-07 13:31:38.64	289.70	22.75	-29.9	-32.6	19.4	6.07e-01	0	43	102	524288	21	4893
2026-01-07 13:31:41.66	290.61	22.58	-30.0	-32.7	19.3	6.07e-01	0	43	102	524288	21	4932
2026-01-07 13:31:44.69	291.51	22.40	-29.9	-32.7	19.4	6.09e-01	0	43	102	524288	21	4920
2026-01-07 13:31:47.71	292.40	22.22	-30.1	-33.0	19.1	6.05e-01	0	43	102	524288	21	5042
2026-01-07 13:31:50.74	293.28	22.03	-30.1	-33.1	19.1	6.05e-01	0	43	102	524288	21	5080
2026-01-07 13:31:53.76	294.14	21.84	-30.2	-33.5	18.9	6.06e-01	0	43	102	524288	21	5206
2026-01-07 13:31:56.77	295.00	21.64	-29.9	-32.5	19.4	6.09e-01	0	43	102	524288	21	4871
2026-01-07 13:31:59.79	295.84	21.44	-30.0	-32.9	19.1	6.05e-01	0	43	102	524288	21	5042
2026-01-07 13:32:02.80	296.67	21.24	-29.6	-32.0	19.6	6.07e-01	0	43	102	524288	21	4745
2026-01-07 13:32:05.83	297.49	21.03	-29.8	-32.2	19.6	6.08e-01	0	43	102	524288	21	4784
2026-01-07 13:32:08.84	298.30	20.82	-29.7	-32.2	19.5	6.07e-01	0	43	102	524288	21	4787
2026-01-07 13:32:11.86	299.10	20.60	-29.2	-32.0	19.5	6.06e-01	0	43	102	524288	20	5004
2026-01-07 13:32:14.88	299.88	20.38	-26.2	-31.8	18.4	6.07e-01	0	43	102	524288	14	6903
2026-01-07 13:32:17.90	300.66	20.16	-30.0	-33.3	19.1	6.08e-01	0	43	102	524288	20	5312
2026-01-07 13:32:20.92	301.42	19.93	-29.9	-33.1	19.3	6.07e-01	0	43	102	524288	20	5207
2026-01-07 13:32:23.94	302.17	19.71	-29.9	-33.3	19.2	6.06e-01	0	43	102	524288	20	5275
2026-01-07 13:32:26.97	302.92	19.48	-30.2	-33.4	18.8	6.07e-01	0	43	102	524288	21	5200
2026-01-07 13:32:30.00	303.65	19.24	-29.7	-32.1	19.6	6.07e-01	0	43	102	524288	21	4732
2026-01-07 13:32:33.01	304.36	19.01	-29.7	-32.0	19.6	6.08e-01	0	43	102	524288	21	4709
2026-01-07 13:32:36.03	305.07	18.78	-29.7	-32.0	19.6	6.06e-01	0	43	102	524288	21	4707
2026-01-07 13:32:39.06	305.76	18.54	-29.8	-32.3	19.4	6.08e-01	0	43	102	524288	21	4811
2026-01-07 13:32:42.07	306.44	18.30	-29.8	-32.3	19.4	6.07e-01	0	43	102	524288	21	4820
2026-01-07 13:32:45.10	307.12	18.06	-29.9	-32.6	19.2	6.07e-01	0	43	102	524288	21	4906
2026-01-07 13:32:48.12	307.78	17.82	-29.6	-31.8	19.7	6.04e-01	0	43	102	524288	21	4651
2026-01-07 13:32:51.15	308.43	17.58	-29.7	-32.2	19.5	6.02e-01	0	43	102	524288	21	4768
2026-01-07 13:32:54.17	309.07	17.34	-29.6	-31.9	19.7	6.02e-01	0	43	102	524288	21	4671
2026-01-07 13:32:57.19	309.70	17.10	-29.5	-31.7	19.7	6.02e-01	0	43	102	524288	21	4623
2026-01-07 13:33:00.20	310.32	16.86	-29.6	-32.0	19.6	6.02e-01	0	43	102	524288	21	4717
2026-01-07 13:33:03.22	310.93	16.61	-29.6	-31.8	19.6	6.03e-01	0	43	102	524288	21	4669
2026-01-07 13:33:06.24	311.52	16.37	-29.6	-31.8	19.6	6.03e-01	0	43	102	524288	21	4654
2026-01-07 13:33:09.26	312.11	16.13	-29.5	-31.7	19.7	6.03e-01	0	43	102	524288	21	4633
2026-01-07 13:33:12.27	312.69	15.88	-29.7	-32.1	19.5	6.04e-01	0	43	102	524288	21	4741
2026-01-07 13:33:15.29	313.26	15.64	-29.6	-31.8	19.6	6.02e-01	0	43	102	524288	21	4651
2026-01-07 13:33:18.30	313.81	15.40	-29.7	-32.1	19.4	6.03e-01	0	43	102	524288	21	4758
2026-01-07 13:33:21.32	314.36	15.16	-29.6	-32.0	19.5	6.02e-01	0	43	102	524288	21	4713
2026-01-07 13:33:24.34	314.90	14.91	-29.7	-32.1	19.4	6.01e-01	0	44	102	524288	21	4764
2026-01-07 13:33:27.36	315.44	14.67	-29.7	-32.2	19.3	6.03e-01	0	43	102	524288	21	4796
2026-01-07 13:33:30.39	315.96	14.43	-29.8	-32.4	19.2	6.05e-01	0	43	102	524288	21	4874
2026-01-07 13:33:33.41	316.47	14.19	-29.6	-32.0	19.4	6.05e-01	0	43	102	524288	21	4716
2026-01-07 13:33:36.43	316.98	13.95	-29.8	-32.5	19.1	6.02e-01	0	43	102	524288	21	4900
2026-01-07 13:33:39.45	317.48	13.71	-29.8	-32.5	19.1	6.03e-01	0	43	102	524288	21	4908
2026-01-07 13:33:42.47	317.96	13.47	-29.9	-32.7	19.0	6.01e-01	0	43	102	524288	21	4955
2026-01-07 13:33:45.48	318.44	13.24	-29.9	-32.7	19.0	6.03e-01	0	43	102	524288	21	4952
2026-01-07 13:33:48.50	318.92	13.00	-29.9	-32.7	19.0	6.01e-01	0	43	102	524288	21	4970
2026-01-07 13:33:51.52	319.38	12.77	-29.8	-32.4	19.1	6.04e-01	0	43	102	524288	21	4872
2026-01-07 13:33:54.54	319.84	12.53	-29.8	-32.4	19.1	6.01e-01	0	43	102	524288	21	4852
2026-01-07 13:33:57.56	320.29	12.30	-29.8	-32.5	19.0	6.02e-01	0	43	102	524288	21	4914
2026-01-07 13:34:00.57	320.73	12.07	-29.9	-32.9	18.8	6.02e-01	0	43	102	524288	21	5039
2026-01-07 13:34:03.59	321.16	11.83	-30.0	-32.9	18.7	6.04e-01	0	43	102	524288	21	5052
2026-01-07 13:34:06.60	321.59	11.60	-30.0	-33.2	18.5	6.02e-01	0	43	102	524288	21	5161
2026-01-07 13:34:09.62	322.01	11.37	-30.1	-33.3	18.5	6.02e-01	0	43	102	524288	21	5201
2026-01-07 13:34:12.64	322.43	11.15	-30.1	-33.4	18.4	6.02e-01	0	43	102	524288	21	5240
2026-01-07 13:34:15.66	322.83	10.92	-30.3	-33.8	18.1	6.05e-01	0	43	102	524288	21	5420
2026-01-07 13:34:18.68	323.23	10.69	-30.3	-34.0	18.0	6.02e-01	0	43	102	524288	21	5483
2026-01-07 13:34:21.70	323.63	10.47	-30.3	-33.8	18.0	6.04e-01	0	43	102	524288	21	5419
2026-01-07 13:34:24.72	324.02	10.24	-30.1	-33.4	18.3	6.03e-01	0	43	102	524288	21	5250
2026-01-07 13:34:27.74	324.40	10.02	-30.1	-33.3	18.3	6.03e-01	0	43	102	524288	21	5230
2026-01-07 13:34:30.75	324.77	9.80	-30.1	-33.5	18.2	6.00e-01	0	43	102	524288	21	5288
2026-01-07 13:34:33.77	325.15	9.58	-30.2	-33.6	18.1	6.03e-01	0	43	102	524288	21	5361
2026-01-07 13:34:36.79	325.51	9.36	-30.3	-34.0	17.9	6.02e-01	0	43	102	524288	21	5504
2026-01-07 13:34:39.81	325.87	9.15	-30.3	-34.1	17.8	6.00e-01	0	43	102	524288	21	5553
2026-01-07 13:34:42.84	326.22	8.93	-30.3	-34.1	17.8	6.03e-01	0	43	102	524288	21	5548
2026-01-07 13:34:45.85	326.57	8.71	-30.4	-34.3	17.6	6.03e-01	0	43	102	524288	21	5637
2026-01-07 13:34:48.85	326.91	8.50	-30.4	-34.2	17.7	6.02e-01	0	43	102	524288	21	5609
2026-01-07 13:34:51.87	327.25	8.29	-30.4	-34.3	17.6	6.01e-01	0	43	102	524288	21	5639
2026-01-07 13:34:54.89	327.58	8.08	-30.3	-34.2	17.6	6.02e-01	0	43	102	524288	21	5590
2026-01-07 13:34:57.91	327.91	7.87	-30.4	-34.4	17.4	6.06e-01	0	43	102	524288	21	5708
2026-01-07 13:35:00.93	328.23	7.66	-30.5	-34.8	17.1	6.06e-01	0	43	102	524288	21	5872
2026-01-07 13:35:03.94	328.55	7.45	-30.4	-34.6	17.3	6.03e-01	0	43	102	524288	21	5775
2026-01-07 13:35:06.96	328.86	7.25	-30.8	-35.2	16.4	6.02e-01	0	43	102	524288	22	5959
2026-01-07 13:35:09.97	329.17	7.04	-33.6	-51.8	3.8	7.50e-01	0	43	104	524288	27	29288

#Closed at: 2026-01-07 13:35:10
#Recorded file [0 MB]: D:/data/31010_260107_162605.dat