passes_logs/2026/01/23/planumMaritime01/planumMaritime01__20260123_020507_METEOR-M2_4_rec.log

#Pass ID: 20260123_020507_METEOR-M2 4
#Satellite: METEOR-M2 4
#Configuration: METEOR-M2 4
#Start time: 2026-01-23 02:05:12.314447

#LorettStation: 1.0.0 05.05.2024
#Station: planumMaritime01
#Location: 37.49445 lon 55.92918 lat
#TLE: 1 59051U 24039A   26022.29319476  .00000093  00000+0  61251-4 0  9991
#TLE: 2 59051  98.6827 343.5783 0006168 226.6585 133.4080 14.22408788 98527

#Time	Az	El	Level	SNR
2026-01-23 02:05:14.478711	6.0	10.2	-76.8	0.0
2026-01-23 02:05:16.746252	5.8	10.4	-76.9	0.0
2026-01-23 02:05:19.016674	5.6	10.5	-73.0	0.0
2026-01-23 02:05:21.285728	5.5	10.7	-74.9	0.0
2026-01-23 02:05:23.558086	5.3	10.9	-71.1	0.0
2026-01-23 02:05:25.829053	5.1	11.1	-74.5	0.0
2026-01-23 02:05:28.103889	5.0	11.3	-70.8	0.0
2026-01-23 02:05:30.376623	4.8	11.5	-72.5	0.0
2026-01-23 02:05:32.645745	4.6	11.7	-73.1	0.0
2026-01-23 02:05:34.916252	4.4	11.9	-70.7	0.0
2026-01-23 02:05:37.188212	4.2	12.1	-73.3	0.0
2026-01-23 02:05:39.457282	4.0	12.2	-73.3	0.0
2026-01-23 02:05:41.726340	3.9	12.4	-70.6	0.0
2026-01-23 02:05:43.996038	3.7	12.6	-71.3	0.0
2026-01-23 02:05:46.268218	3.5	12.8	-70.9	0.0
2026-01-23 02:05:48.538040	3.3	13.0	-73.0	0.0
2026-01-23 02:05:50.810166	3.1	13.2	-69.8	0.0
2026-01-23 02:05:53.084118	2.9	13.4	-70.0	0.0
2026-01-23 02:05:55.362132	2.7	13.6	-70.4	0.0
2026-01-23 02:05:57.632673	2.4	13.8	-70.9	0.0
2026-01-23 02:05:59.905205	2.2	14.1	-71.9	0.0
2026-01-23 02:06:02.175886	2.0	14.3	-72.9	0.0
2026-01-23 02:06:04.449420	1.8	14.5	-71.6	0.0
2026-01-23 02:06:06.718767	1.6	14.7	-72.1	0.0
2026-01-23 02:06:08.982222	1.3	14.9	-72.6	0.0
2026-01-23 02:06:11.250647	1.1	15.1	-70.4	0.0
2026-01-23 02:06:13.518704	0.9	15.3	-72.9	0.0
2026-01-23 02:06:15.787364	0.7	15.5	-70.8	0.0
2026-01-23 02:06:18.056306	0.4	15.8	-72.4	0.0
2026-01-23 02:06:20.325135	0.2	16.0	-71.9	0.0
2026-01-23 02:06:22.596785	359.9	16.2	-72.8	0.0
2026-01-23 02:06:24.871414	359.7	16.4	-71.5	0.0
2026-01-23 02:06:27.143528	359.4	16.6	-73.2	0.0
2026-01-23 02:06:29.420677	359.2	16.9	-73.0	0.0
2026-01-23 02:06:31.694072	358.9	17.1	-70.9	0.0
2026-01-23 02:06:33.971204	358.6	17.3	-72.5	0.0
2026-01-23 02:06:36.244784	358.4	17.5	-73.5	0.0
2026-01-23 02:06:38.509404	358.1	17.8	-73.0	0.0
2026-01-23 02:06:40.765725	357.8	18.0	-73.6	0.0
2026-01-23 02:06:43.026501	357.5	18.2	-73.9	0.0
2026-01-23 02:06:45.296836	357.2	18.5	-74.5	1.8
2026-01-23 02:06:47.569839	356.9	18.7	-74.3	2.5
2026-01-23 02:06:49.831624	356.6	18.9	-74.3	0.3
2026-01-23 02:06:52.089586	356.3	19.2	-72.1	0.0
2026-01-23 02:06:54.350121	356.0	19.4	-72.1	0.0
2026-01-23 02:06:56.609380	355.7	19.7	-70.7	0.0
2026-01-23 02:06:58.869814	355.4	19.9	-67.6	0.0
2026-01-23 02:07:01.130982	355.1	20.2	-73.7	0.0
2026-01-23 02:07:03.403180	354.8	20.4	-74.1	0.9
2026-01-23 02:07:05.673307	354.4	20.6	-73.4	0.0
2026-01-23 02:07:07.943415	354.1	20.9	-73.6	0.0
2026-01-23 02:07:10.218810	353.7	21.2	-73.5	1.0
2026-01-23 02:07:12.492233	353.4	21.4	-73.5	0.0
2026-01-23 02:07:14.766217	353.0	21.7	-73.5	0.2
2026-01-23 02:07:17.039689	352.7	21.9	-74.1	2.4
2026-01-23 02:07:19.311871	352.3	22.2	-72.5	0.0
2026-01-23 02:07:21.585771	351.9	22.4	-72.0	0.0
2026-01-23 02:07:23.848329	351.5	22.7	-74.2	1.2
2026-01-23 02:07:26.122288	351.2	22.9	-70.7	0.0
2026-01-23 02:07:28.394874	350.8	23.2	-73.1	0.0
2026-01-23 02:07:30.665672	350.4	23.5	-73.3	0.0
2026-01-23 02:07:32.938707	349.9	23.7	-72.4	0.2
2026-01-23 02:07:35.211672	349.5	24.0	-73.0	0.0
2026-01-23 02:07:37.481281	349.1	24.3	-74.3	1.0
2026-01-23 02:07:39.757331	348.7	24.5	-73.6	1.1
2026-01-23 02:07:42.029464	348.2	24.8	-73.1	1.2
2026-01-23 02:07:44.307463	347.8	25.1	-72.1	0.0
2026-01-23 02:07:46.581082	347.3	25.3	-72.2	0.0
2026-01-23 02:07:48.857115	346.9	25.6	-74.1	1.1
2026-01-23 02:07:51.132459	346.4	25.9	-73.6	1.4
2026-01-23 02:07:53.407698	345.9	26.2	-73.3	0.0
2026-01-23 02:07:55.682423	345.4	26.4	-72.6	0.0
2026-01-23 02:07:57.955351	344.9	26.7	-73.9	3.1
2026-01-23 02:08:00.226482	344.4	27.0	-73.8	2.9
2026-01-23 02:08:02.496565	343.9	27.3	-72.6	1.0
2026-01-23 02:08:04.766068	343.4	27.5	-72.7	0.0
2026-01-23 02:08:07.041604	342.9	27.8	-73.5	2.0
2026-01-23 02:08:09.316802	342.3	28.1	-73.9	4.0
2026-01-23 02:08:11.590590	341.8	28.3	-74.4	3.4
2026-01-23 02:08:13.850959	341.2	28.6	-74.1	3.2
2026-01-23 02:08:16.113466	340.6	28.9	-74.0	0.5
2026-01-23 02:08:18.388850	340.1	29.2	-74.0	1.3
2026-01-23 02:08:20.669763	339.5	29.4	-75.0	2.9
2026-01-23 02:08:22.943455	338.9	29.7	-74.4	2.8
2026-01-23 02:08:25.216339	338.3	30.0	-75.2	4.1
2026-01-23 02:08:27.493313	337.6	30.2	-74.8	2.9
2026-01-23 02:08:29.768087	337.0	30.5	-75.2	6.0
2026-01-23 02:08:32.041438	336.4	30.8	-76.1	6.8
2026-01-23 02:08:34.318268	335.7	31.0	-76.0	4.1
2026-01-23 02:08:36.594579	335.1	31.3	-76.5	3.6
2026-01-23 02:08:38.870097	334.4	31.6	-75.7	6.6
2026-01-23 02:08:41.147019	333.7	31.8	-75.0	3.3
2026-01-23 02:08:43.420385	333.0	32.1	-76.8	6.3
2026-01-23 02:08:45.679888	332.3	32.3	-77.2	7.3
2026-01-23 02:08:47.938525	331.6	32.6	-76.2	7.3
2026-01-23 02:08:50.202525	330.8	32.8	-76.6	7.0
2026-01-23 02:08:52.462335	330.1	33.1	-76.1	7.8
2026-01-23 02:08:54.721907	329.4	33.3	-77.3	9.6
2026-01-23 02:08:56.980550	328.6	33.5	-77.3	9.1
2026-01-23 02:08:59.240094	327.8	33.8	-77.3	9.3
2026-01-23 02:09:01.493845	327.1	34.0	-75.6	7.0
2026-01-23 02:09:03.750071	326.3	34.2	-75.7	8.4
2026-01-23 02:09:06.007480	325.5	34.4	-76.1	7.0
2026-01-23 02:09:08.272656	324.6	34.7	-76.8	5.6
2026-01-23 02:09:10.543323	323.8	34.9	-76.4	7.4
2026-01-23 02:09:12.818477	323.0	35.1	-77.8	8.8
2026-01-23 02:09:15.092095	322.1	35.3	-76.7	7.8
2026-01-23 02:09:17.367069	321.3	35.4	-77.4	8.9
2026-01-23 02:09:19.642253	320.4	35.6	-77.5	8.7
2026-01-23 02:09:21.915824	319.5	35.8	-78.0	8.0
2026-01-23 02:09:24.189932	318.6	36.0	-78.3	9.7
2026-01-23 02:09:26.464644	317.7	36.1	-78.6	9.7
2026-01-23 02:09:28.740364	316.8	36.3	-77.2	6.6
2026-01-23 02:09:31.013522	315.9	36.5	-78.1	7.7
2026-01-23 02:09:33.289356	315.0	36.6	-78.5	10.6
2026-01-23 02:09:35.561719	314.0	36.7	-78.7	9.0
2026-01-23 02:09:37.839736	313.1	36.9	-78.9	10.6
2026-01-23 02:09:40.113628	312.1	37.0	-78.1	8.9
2026-01-23 02:09:42.382362	311.2	37.1	-77.8	9.6
2026-01-23 02:09:44.658517	310.2	37.2	-78.1	9.9
2026-01-23 02:09:46.931136	309.2	37.3	-78.0	9.1
2026-01-23 02:09:49.208245	308.3	37.3	-78.0	9.2
2026-01-23 02:09:51.486393	307.3	37.4	-78.3	6.8
2026-01-23 02:09:53.759488	306.3	37.5	-77.9	7.6
2026-01-23 02:09:56.033600	305.3	37.5	-77.2	5.8
2026-01-23 02:09:58.304664	304.3	37.6	-77.7	7.3
2026-01-23 02:10:00.574609	303.3	37.6	-78.2	8.2
2026-01-23 02:10:02.840612	302.4	37.6	-76.5	4.6
2026-01-23 02:10:05.112174	301.4	37.6	-76.6	6.5
2026-01-23 02:10:07.382118	300.4	37.7	-77.4	8.7
2026-01-23 02:10:09.650035	299.4	37.6	-77.1	9.1
2026-01-23 02:10:11.923253	298.4	37.6	-77.4	9.3
2026-01-23 02:10:14.200226	297.4	37.6	-76.9	5.7
2026-01-23 02:10:16.475413	296.4	37.6	-76.8	6.8
2026-01-23 02:10:18.750251	295.4	37.5	-77.6	8.5
2026-01-23 02:10:21.027835	294.4	37.5	-77.6	7.2
2026-01-23 02:10:23.300213	293.4	37.4	-77.7	4.0
2026-01-23 02:10:25.573544	292.5	37.3	-77.2	3.7
2026-01-23 02:10:27.849148	291.5	37.3	-77.8	8.2
2026-01-23 02:10:30.123210	290.5	37.2	-78.4	7.4
2026-01-23 02:10:32.397585	289.5	37.1	-78.2	7.1
2026-01-23 02:10:34.665850	288.6	37.0	-78.1	6.3
2026-01-23 02:10:36.925833	287.7	36.8	-78.3	8.0
2026-01-23 02:10:39.195157	286.7	36.7	-78.3	8.4
2026-01-23 02:10:41.465853	285.8	36.6	-77.5	8.1
2026-01-23 02:10:43.734528	284.8	36.4	-77.9	10.3
2026-01-23 02:10:45.996852	283.9	36.3	-78.0	10.3
2026-01-23 02:10:48.254685	283.0	36.1	-77.9	9.9
2026-01-23 02:10:50.513495	282.1	36.0	-77.5	7.9
2026-01-23 02:10:52.769529	281.2	35.8	-77.6	10.3
2026-01-23 02:10:55.026979	280.4	35.6	-76.8	6.7
2026-01-23 02:10:57.286528	279.5	35.4	-78.3	10.3
2026-01-23 02:10:59.547001	278.6	35.2	-78.9	9.4
2026-01-23 02:11:01.812286	277.8	35.0	-78.6	10.6
2026-01-23 02:11:04.070795	277.0	34.8	-79.3	9.7
2026-01-23 02:11:06.327114	276.1	34.6	-78.0	8.1
2026-01-23 02:11:08.583385	275.3	34.4	-78.9	10.3
2026-01-23 02:11:10.853420	274.5	34.2	-78.7	9.1
2026-01-23 02:11:13.126312	273.7	34.0	-79.0	10.6
2026-01-23 02:11:15.390941	272.9	33.7	-79.0	11.5
2026-01-23 02:11:17.657864	272.1	33.5	-78.5	10.4
2026-01-23 02:11:19.928367	271.4	33.3	-77.5	7.9
2026-01-23 02:11:22.194091	270.6	33.0	-78.2	11.6
2026-01-23 02:11:24.463779	269.9	32.8	-78.5	11.6
2026-01-23 02:11:26.732279	269.1	32.5	-78.7	11.2
2026-01-23 02:11:29.006890	268.4	32.3	-78.5	10.5
2026-01-23 02:11:31.282300	267.7	32.0	-78.8	12.4
2026-01-23 02:11:33.554257	267.0	31.8	-78.9	11.7
2026-01-23 02:11:35.833639	266.3	31.5	-79.2	11.9
2026-01-23 02:11:38.109618	265.6	31.3	-79.1	12.2
2026-01-23 02:11:40.385915	265.0	31.0	-79.2	11.9
2026-01-23 02:11:42.655139	264.3	30.7	-78.9	12.9
2026-01-23 02:11:44.922152	263.7	30.5	-78.8	12.1
2026-01-23 02:11:47.188649	263.1	30.2	-78.6	12.8
2026-01-23 02:11:49.456402	262.4	29.9	-78.7	12.5
2026-01-23 02:11:51.721605	261.8	29.6	-78.7	13.2
2026-01-23 02:11:53.988994	261.2	29.4	-78.6	11.5
2026-01-23 02:11:56.255961	260.6	29.1	-79.0	12.9
2026-01-23 02:11:58.526443	260.0	28.8	-79.0	12.7
2026-01-23 02:12:00.799878	259.5	28.6	-78.3	8.6
2026-01-23 02:12:03.067625	258.9	28.3	-79.0	11.3
2026-01-23 02:12:05.332575	258.4	28.0	-79.3	11.9
2026-01-23 02:12:07.593445	257.8	27.7	-78.7	11.8
2026-01-23 02:12:09.854610	257.3	27.5	-79.0	11.8
2026-01-23 02:12:12.118630	256.8	27.2	-78.5	10.9
2026-01-23 02:12:14.387141	256.3	26.9	-78.6	12.1
2026-01-23 02:12:16.652502	255.7	26.6	-78.6	13.1
2026-01-23 02:12:18.920873	255.2	26.4	-78.2	10.6
2026-01-23 02:12:21.191010	254.8	26.1	-79.1	11.8
2026-01-23 02:12:23.458555	254.3	25.8	-78.8	10.7
2026-01-23 02:12:25.725897	253.8	25.5	-78.6	11.6
2026-01-23 02:12:27.997427	253.3	25.3	-78.7	12.2
2026-01-23 02:12:30.265934	252.9	25.0	-78.8	12.6
2026-01-23 02:12:32.532497	252.4	24.7	-79.0	12.8
2026-01-23 02:12:34.799082	252.0	24.5	-79.0	12.8
2026-01-23 02:12:37.073490	251.6	24.2	-78.9	12.6
2026-01-23 02:12:39.345611	251.1	23.9	-79.0	12.9
2026-01-23 02:12:41.617227	250.7	23.6	-79.0	13.2
2026-01-23 02:12:43.886457	250.3	23.4	-79.1	13.1
2026-01-23 02:12:46.159089	249.9	23.1	-79.3	13.1
2026-01-23 02:12:48.429959	249.5	22.9	-79.5	11.9
2026-01-23 02:12:50.708652	249.1	22.6	-79.2	11.5
2026-01-23 02:12:52.982102	248.7	22.3	-79.4	12.5
2026-01-23 02:12:55.254874	248.3	22.1	-79.5	13.1
2026-01-23 02:12:57.526918	248.0	21.8	-79.5	12.6
2026-01-23 02:12:59.802649	247.6	21.6	-79.2	11.3
2026-01-23 02:13:02.078374	247.3	21.3	-79.4	12.2
2026-01-23 02:13:04.353246	246.9	21.0	-79.9	12.8
2026-01-23 02:13:06.627164	246.5	20.8	-79.6	12.6
2026-01-23 02:13:08.900762	246.2	20.5	-79.4	13.1
2026-01-23 02:13:11.157841	245.9	20.3	-79.6	11.9
2026-01-23 02:13:13.415917	245.5	20.0	-79.5	12.9
2026-01-23 02:13:15.673643	245.2	19.8	-79.6	12.8
2026-01-23 02:13:17.934770	244.9	19.6	-79.4	11.1
2026-01-23 02:13:20.194706	244.6	19.3	-79.5	10.9
2026-01-23 02:13:22.454091	244.3	19.1	-79.6	11.4
2026-01-23 02:13:24.712240	244.0	18.8	-79.4	12.0
2026-01-23 02:13:26.971287	243.7	18.6	-79.7	11.7
2026-01-23 02:13:29.231913	243.4	18.4	-79.6	11.9
2026-01-23 02:13:31.493556	243.1	18.1	-79.0	11.3
2026-01-23 02:13:33.762501	242.8	17.9	-79.8	11.5
2026-01-23 02:13:36.037255	242.5	17.7	-79.8	10.8
2026-01-23 02:13:38.309851	242.2	17.4	-79.6	11.1
2026-01-23 02:13:40.585623	242.0	17.2	-79.4	9.2
2026-01-23 02:13:42.859634	241.7	17.0	-79.4	10.4
2026-01-23 02:13:45.137914	241.4	16.7	-79.8	11.4
2026-01-23 02:13:47.412650	241.2	16.5	-79.4	11.5
2026-01-23 02:13:49.682558	240.9	16.3	-79.1	11.6
2026-01-23 02:13:51.950343	240.7	16.1	-79.4	9.8
2026-01-23 02:13:54.222681	240.4	15.8	-79.7	11.1
2026-01-23 02:13:56.493123	240.2	15.6	-79.5	11.4
2026-01-23 02:13:58.769550	239.9	15.4	-79.6	10.5
2026-01-23 02:14:01.047695	239.7	15.2	-79.7	10.2
2026-01-23 02:14:03.324914	239.5	15.0	-80.1	9.7
2026-01-23 02:14:05.594021	239.2	14.7	-80.2	9.9
2026-01-23 02:14:07.863967	239.0	14.5	-80.1	10.6
2026-01-23 02:14:10.136656	238.8	14.3	-80.0	10.7
2026-01-23 02:14:12.410089	238.6	14.1	-79.9	10.7
2026-01-23 02:14:14.680444	238.3	13.9	-80.2	10.3
2026-01-23 02:14:16.947957	238.1	13.7	-79.8	10.1
2026-01-23 02:14:19.217651	237.9	13.5	-80.2	10.7
2026-01-23 02:14:21.491458	237.7	13.3	-80.1	10.7
2026-01-23 02:14:23.766225	237.5	13.1	-80.3	10.2
2026-01-23 02:14:26.039469	237.3	12.9	-80.4	9.6
2026-01-23 02:14:28.315989	237.1	12.7	-80.4	10.3
2026-01-23 02:14:30.593427	236.9	12.5	-79.9	10.9
2026-01-23 02:14:32.871263	236.7	12.3	-80.0	11.4
2026-01-23 02:14:35.141239	236.5	12.1	-80.3	9.6
2026-01-23 02:14:37.407517	236.3	11.9	-79.8	9.6
2026-01-23 02:14:39.670583	236.1	11.7	-80.5	10.7
2026-01-23 02:14:41.934022	235.9	11.5	-80.2	9.6
2026-01-23 02:14:44.199224	235.8	11.3	-80.4	10.1
2026-01-23 02:14:46.467151	235.6	11.1	-80.1	10.3
2026-01-23 02:14:48.732734	235.4	10.9	-80.0	11.1
2026-01-23 02:14:50.997541	235.2	10.7	-80.7	7.6
2026-01-23 02:14:53.254486	235.1	10.6	-83.5	6.0
2026-01-23 02:14:55.509855	234.9	10.4	-86.0	0.0
2026-01-23 02:14:57.764776	234.7	10.2	-85.9	0.0
#Closed at: 2026-01-23 02:05:07.321157