passes_logs/2026/01/23/planumMaritime01/planumMaritime01__20260123_081541_METOP-B_rec.log

#Pass ID: 20260123_081541_METOP-B
#Satellite: METOP-B
#Configuration: METOP-B
#Start time: 2026-01-23 08:15:46.069636

#LorettStation: 1.0.0 05.05.2024
#Station: planumMaritime01
#Location: 37.49445 lon 55.92918 lat
#TLE: 1 38771U 12049A   26022.26844106  .00000290  00000+0  15256-3 0  9997
#TLE: 2 38771  98.6737  76.5287 0003095  62.1759 297.9732 14.21426510692530

#Time	Az	El	Level	SNR
2026-01-23 08:15:48.237880	6.2	10.2	-64.5	0.0
2026-01-23 08:15:50.492838	6.0	10.4	-62.0	0.0
2026-01-23 08:15:52.746117	5.8	10.5	-63.1	0.0
2026-01-23 08:15:54.998922	5.7	10.7	-62.8	0.0
2026-01-23 08:15:57.252797	5.5	10.9	-62.8	0.0
2026-01-23 08:15:59.506739	5.3	11.1	-62.1	0.0
2026-01-23 08:16:01.763516	5.2	11.3	-63.1	0.0
2026-01-23 08:16:04.018480	5.0	11.5	-61.2	0.0
2026-01-23 08:16:06.271312	4.8	11.7	-60.1	0.0
2026-01-23 08:16:08.525074	4.6	11.9	-61.8	0.0
2026-01-23 08:16:10.777933	4.5	12.1	-62.4	0.0
2026-01-23 08:16:13.030708	4.3	12.2	-62.9	0.0
2026-01-23 08:16:15.283769	4.1	12.4	-62.5	0.0
2026-01-23 08:16:17.536357	3.9	12.6	-57.9	0.0
2026-01-23 08:16:19.792151	3.7	12.8	-64.0	0.0
2026-01-23 08:16:22.046820	3.5	13.0	-61.8	0.0
2026-01-23 08:16:24.302888	3.3	13.2	-62.7	0.0
2026-01-23 08:16:26.560161	3.1	13.4	-62.5	0.0
2026-01-23 08:16:28.813676	2.9	13.6	-63.3	0.0
2026-01-23 08:16:31.068543	2.7	13.8	-62.1	0.0
2026-01-23 08:16:33.322162	2.5	14.1	-62.8	0.0
2026-01-23 08:16:35.574740	2.3	14.3	-61.7	0.0
2026-01-23 08:16:37.829435	2.1	14.5	-62.0	0.0
2026-01-23 08:16:40.082949	1.9	14.7	-61.3	0.0
2026-01-23 08:16:42.333301	1.7	14.9	-61.4	0.0
2026-01-23 08:16:44.588843	1.4	15.1	-62.5	0.0
2026-01-23 08:16:46.841155	1.2	15.3	-60.4	0.0
2026-01-23 08:16:49.092810	1.0	15.5	-63.0	0.0
2026-01-23 08:16:51.343731	0.8	15.7	-62.0	0.0
2026-01-23 08:16:53.596181	0.5	16.0	-60.8	0.0
2026-01-23 08:16:55.851997	0.3	16.2	-64.9	0.0
2026-01-23 08:16:58.103406	0.0	16.4	-64.9	0.0
2026-01-23 08:17:00.355888	359.8	16.6	-63.1	0.0
2026-01-23 08:17:02.613614	359.5	16.9	-64.6	0.0
2026-01-23 08:17:04.865567	359.3	17.1	-62.3	0.0
2026-01-23 08:17:07.120192	359.0	17.3	-63.0	0.0
2026-01-23 08:17:09.377931	358.8	17.5	-63.1	0.0
2026-01-23 08:17:11.632209	358.5	17.8	-62.2	0.0
2026-01-23 08:17:13.883378	358.2	18.0	-64.0	0.0
2026-01-23 08:17:16.138434	357.9	18.2	-62.8	0.0
2026-01-23 08:17:18.391885	357.7	18.5	-62.4	0.0
2026-01-23 08:17:20.645443	357.4	18.7	-63.9	0.0
2026-01-23 08:17:22.900040	357.1	19.0	-62.5	0.0
2026-01-23 08:17:25.154009	356.8	19.2	-63.0	0.0
2026-01-23 08:17:27.406787	356.5	19.4	-62.2	0.0
2026-01-23 08:17:29.662665	356.2	19.7	-62.3	0.0
2026-01-23 08:17:31.918763	355.9	19.9	-62.1	0.0
2026-01-23 08:17:34.171454	355.6	20.2	-64.1	0.0
2026-01-23 08:17:36.425143	355.2	20.4	-64.3	0.0
2026-01-23 08:17:38.678917	354.9	20.7	-64.7	0.0
2026-01-23 08:17:40.933831	354.6	20.9	-65.2	0.0
2026-01-23 08:17:43.188768	354.2	21.2	-65.0	0.0
2026-01-23 08:17:45.440479	353.9	21.4	-63.8	0.0
2026-01-23 08:17:47.693355	353.6	21.7	-62.9	0.0
2026-01-23 08:17:49.946837	353.2	21.9	-62.7	0.0
2026-01-23 08:17:52.199824	352.8	22.2	-64.5	0.0
2026-01-23 08:17:54.452540	352.5	22.5	-65.2	0.0
2026-01-23 08:17:56.704411	352.1	22.7	-64.0	0.0
2026-01-23 08:17:58.958364	351.7	23.0	-64.1	0.0
2026-01-23 08:18:01.211084	351.3	23.2	-64.6	0.0
2026-01-23 08:18:03.464039	351.0	23.5	-63.8	0.0
2026-01-23 08:18:05.716713	350.6	23.8	-61.8	0.0
2026-01-23 08:18:07.969517	350.1	24.0	-62.0	0.0
2026-01-23 08:18:10.222326	349.7	24.3	-62.6	0.0
2026-01-23 08:18:12.475301	349.3	24.6	-62.3	0.0
2026-01-23 08:18:14.728951	348.9	24.8	-64.3	0.0
2026-01-23 08:18:16.980781	348.5	25.1	-64.4	0.0
2026-01-23 08:18:19.233474	348.0	25.4	-65.6	0.0
2026-01-23 08:18:21.487305	347.6	25.7	-64.1	0.0
2026-01-23 08:18:23.741088	347.1	25.9	-65.3	0.0
2026-01-23 08:18:25.996024	346.6	26.2	-65.5	0.0
2026-01-23 08:18:28.249838	346.2	26.5	-65.0	0.0
2026-01-23 08:18:30.503668	345.7	26.8	-64.2	0.0
2026-01-23 08:18:32.756442	345.2	27.0	-65.5	0.0
2026-01-23 08:18:35.007618	344.7	27.3	-63.2	0.0
2026-01-23 08:18:37.258171	344.2	27.6	-63.8	0.0
2026-01-23 08:18:39.510874	343.7	27.9	-63.6	0.0
2026-01-23 08:18:41.762534	343.1	28.2	-64.0	0.0
2026-01-23 08:18:44.014404	342.6	28.4	-64.4	0.0
2026-01-23 08:18:46.267053	342.0	28.7	-65.5	0.0
2026-01-23 08:18:48.518831	341.5	29.0	-66.1	0.0
2026-01-23 08:18:50.772123	340.9	29.3	-66.9	0.0
2026-01-23 08:18:53.023794	340.3	29.5	-65.9	0.0
2026-01-23 08:18:55.274330	339.8	29.8	-66.4	0.0
2026-01-23 08:18:57.529715	339.2	30.1	-66.1	0.0
2026-01-23 08:18:59.781986	338.6	30.4	-65.9	0.0
2026-01-23 08:19:02.034872	337.9	30.6	-64.8	0.0
2026-01-23 08:19:04.289413	337.3	30.9	-65.6	0.0
2026-01-23 08:19:06.541769	336.7	31.2	-65.5	0.0
2026-01-23 08:19:08.793167	336.0	31.5	-67.2	0.0
2026-01-23 08:19:11.047946	335.4	31.7	-66.9	0.0
2026-01-23 08:19:13.300449	334.7	32.0	-68.7	0.0
2026-01-23 08:19:15.551483	334.0	32.3	-69.4	1.2
2026-01-23 08:19:17.805322	333.3	32.5	-69.0	0.0
2026-01-23 08:19:20.057577	332.6	32.8	-67.6	0.0
2026-01-23 08:19:22.309110	331.9	33.0	-66.1	0.0
2026-01-23 08:19:24.563921	331.2	33.3	-67.2	0.7
2026-01-23 08:19:26.819453	330.4	33.5	-66.6	0.0
2026-01-23 08:19:29.069397	329.7	33.8	-65.5	0.0
2026-01-23 08:19:31.321703	328.9	34.0	-67.7	3.4
2026-01-23 08:19:33.574896	328.1	34.3	-66.9	0.0
2026-01-23 08:19:35.827813	327.3	34.5	-66.7	0.7
2026-01-23 08:19:38.082008	326.5	34.7	-68.4	2.6
2026-01-23 08:19:40.334697	325.7	35.0	-68.4	0.5
2026-01-23 08:19:42.589962	324.9	35.2	-69.5	2.7
2026-01-23 08:19:44.844103	324.1	35.4	-68.1	0.9
2026-01-23 08:19:47.096361	323.2	35.6	-67.6	2.7
2026-01-23 08:19:49.350916	322.4	35.8	-68.0	0.0
2026-01-23 08:19:51.603950	321.5	36.0	-68.5	0.0
2026-01-23 08:19:53.854650	320.6	36.2	-70.1	2.5
2026-01-23 08:19:56.106939	319.8	36.4	-69.2	0.8
2026-01-23 08:19:58.359928	318.9	36.5	-70.8	1.7
2026-01-23 08:20:00.611732	318.0	36.7	-70.9	4.4
2026-01-23 08:20:02.865375	317.0	36.9	-71.7	6.7
2026-01-23 08:20:05.118234	316.1	37.0	-69.3	3.8
2026-01-23 08:20:07.369806	315.2	37.2	-69.8	0.9
2026-01-23 08:20:09.619679	314.3	37.3	-69.5	2.0
2026-01-23 08:20:11.873557	313.3	37.5	-69.9	2.3
2026-01-23 08:20:14.124695	312.4	37.6	-69.8	0.0
2026-01-23 08:20:16.378944	311.4	37.7	-69.5	5.1
2026-01-23 08:20:18.629712	310.4	37.8	-69.0	1.5
2026-01-23 08:20:20.880477	309.4	37.9	-68.9	4.8
2026-01-23 08:20:23.131276	308.5	38.0	-67.6	0.6
2026-01-23 08:20:25.385493	307.5	38.1	-69.0	2.4
2026-01-23 08:20:27.636734	306.5	38.1	-66.6	0.0
2026-01-23 08:20:29.890546	305.5	38.2	-68.8	0.3
2026-01-23 08:20:32.144131	304.5	38.2	-67.8	0.0
2026-01-23 08:20:34.396519	303.5	38.3	-69.9	0.3
2026-01-23 08:20:36.651057	302.5	38.3	-66.6	0.0
2026-01-23 08:20:38.904077	301.5	38.3	-68.6	2.6
2026-01-23 08:20:41.155970	300.5	38.3	-66.2	0.0
2026-01-23 08:20:43.408544	299.5	38.3	-69.1	2.9
2026-01-23 08:20:45.661093	298.5	38.3	-67.1	0.0
2026-01-23 08:20:47.914474	297.5	38.3	-68.2	0.0
2026-01-23 08:20:50.165236	296.5	38.3	-68.4	0.0
2026-01-23 08:20:52.421323	295.5	38.2	-71.1	5.2
2026-01-23 08:20:54.674621	294.5	38.2	-68.5	0.0
2026-01-23 08:20:56.924611	293.5	38.1	-70.0	0.0
2026-01-23 08:20:59.176765	292.5	38.0	-71.4	3.5
2026-01-23 08:21:01.429955	291.5	38.0	-70.3	1.6
2026-01-23 08:21:03.682053	290.5	37.9	-70.6	3.4
2026-01-23 08:21:05.933548	289.5	37.8	-69.9	2.2
2026-01-23 08:21:08.182751	288.6	37.7	-69.8	1.2
2026-01-23 08:21:10.435018	287.6	37.6	-70.8	2.1
2026-01-23 08:21:12.687338	286.7	37.4	-70.7	6.6
2026-01-23 08:21:14.939205	285.7	37.3	-70.1	3.4
2026-01-23 08:21:17.191335	284.8	37.2	-73.0	4.8
2026-01-23 08:21:19.443422	283.8	37.0	-72.5	6.8
2026-01-23 08:21:21.695321	282.9	36.8	-71.0	2.8
2026-01-23 08:21:23.949349	282.0	36.7	-70.8	4.0
2026-01-23 08:21:26.201563	281.1	36.5	-72.2	4.1
2026-01-23 08:21:28.454424	280.2	36.3	-73.1	6.6
2026-01-23 08:21:30.706474	279.3	36.1	-71.5	4.8
2026-01-23 08:21:32.960238	278.5	35.9	-73.1	7.4
2026-01-23 08:21:35.210941	277.6	35.7	-71.4	4.5
2026-01-23 08:21:37.466881	276.7	35.5	-72.0	5.1
2026-01-23 08:21:39.718520	275.9	35.3	-73.1	5.8
2026-01-23 08:21:41.968958	275.1	35.1	-70.5	2.3
2026-01-23 08:21:44.221781	274.2	34.9	-71.7	6.0
2026-01-23 08:21:46.473739	273.4	34.7	-72.3	6.0
2026-01-23 08:21:48.725127	272.6	34.4	-72.5	5.9
2026-01-23 08:21:50.976151	271.9	34.2	-72.6	6.1
2026-01-23 08:21:53.229506	271.1	34.0	-71.9	5.5
2026-01-23 08:21:55.480628	270.3	33.7	-71.7	4.8
2026-01-23 08:21:57.734025	269.6	33.5	-71.9	6.3
2026-01-23 08:21:59.985579	268.8	33.2	-71.5	5.8
2026-01-23 08:22:02.241420	268.1	33.0	-71.9	5.8
2026-01-23 08:22:04.494785	267.4	32.7	-72.1	6.8
2026-01-23 08:22:06.745853	266.7	32.4	-73.0	7.6
2026-01-23 08:22:08.998659	266.0	32.2	-73.4	5.8
2026-01-23 08:22:11.251781	265.3	31.9	-72.2	4.1
2026-01-23 08:22:13.503277	264.6	31.6	-72.3	3.7
2026-01-23 08:22:15.757740	264.0	31.4	-73.4	5.5
2026-01-23 08:22:18.012042	263.3	31.1	-73.3	5.5
2026-01-23 08:22:20.263685	262.7	30.8	-72.4	3.6
2026-01-23 08:22:22.514506	262.1	30.6	-73.2	6.3
2026-01-23 08:22:24.768047	261.4	30.3	-72.7	6.9
2026-01-23 08:22:27.021030	260.8	30.0	-73.0	7.5
2026-01-23 08:22:29.273916	260.2	29.7	-72.3	5.9
2026-01-23 08:22:31.527245	259.6	29.5	-73.2	7.1
2026-01-23 08:22:33.779465	259.1	29.2	-73.1	6.6
2026-01-23 08:22:36.028246	258.5	28.9	-73.2	7.2
2026-01-23 08:22:38.280059	257.9	28.6	-72.0	6.1
2026-01-23 08:22:40.532108	257.4	28.3	-72.5	6.7
2026-01-23 08:22:42.784208	256.9	28.1	-72.5	5.7
2026-01-23 08:22:45.034264	256.3	27.8	-73.0	6.9
2026-01-23 08:22:47.292374	255.8	27.5	-71.9	5.2
2026-01-23 08:22:49.542063	255.3	27.2	-73.1	6.9
2026-01-23 08:22:51.793344	254.8	26.9	-73.0	5.4
2026-01-23 08:22:54.043302	254.3	26.7	-72.7	6.4
2026-01-23 08:22:56.293903	253.8	26.4	-72.6	4.9
2026-01-23 08:22:58.545866	253.4	26.1	-72.5	5.6
2026-01-23 08:23:00.797699	252.9	25.8	-73.0	4.9
2026-01-23 08:23:03.050391	252.4	25.6	-72.6	5.9
2026-01-23 08:23:05.304261	252.0	25.3	-71.8	2.6
2026-01-23 08:23:07.557714	251.5	25.0	-73.6	7.2
2026-01-23 08:23:09.810789	251.1	24.7	-73.9	6.7
2026-01-23 08:23:12.065831	250.7	24.5	-74.2	6.3
2026-01-23 08:23:14.317323	250.3	24.2	-74.3	7.0
2026-01-23 08:23:16.567381	249.8	23.9	-74.2	7.4
2026-01-23 08:23:18.819198	249.4	23.7	-73.9	7.2
2026-01-23 08:23:21.070736	249.0	23.4	-74.0	7.5
2026-01-23 08:23:23.322777	248.6	23.1	-73.5	5.9
2026-01-23 08:23:25.571982	248.3	22.9	-74.0	7.5
2026-01-23 08:23:27.827195	247.9	22.6	-73.7	7.5
2026-01-23 08:23:30.078880	247.5	22.3	-73.9	6.3
2026-01-23 08:23:32.331685	247.1	22.1	-73.7	6.7
2026-01-23 08:23:34.585658	246.8	21.8	-73.6	5.8
2026-01-23 08:23:36.839729	246.4	21.6	-74.2	3.7
2026-01-23 08:23:39.094366	246.1	21.3	-74.0	6.1
2026-01-23 08:23:41.349496	245.7	21.1	-74.1	6.9
2026-01-23 08:23:43.600982	245.4	20.8	-74.7	7.1
2026-01-23 08:23:45.855530	245.1	20.6	-73.7	6.5
2026-01-23 08:23:48.110513	244.7	20.3	-74.0	5.2
2026-01-23 08:23:50.365845	244.4	20.1	-73.5	4.6
2026-01-23 08:23:52.619225	244.1	19.8	-74.1	5.9
2026-01-23 08:23:54.870992	243.8	19.6	-73.5	4.3
2026-01-23 08:23:57.123062	243.5	19.3	-74.1	4.8
2026-01-23 08:23:59.375141	243.2	19.1	-73.4	4.8
2026-01-23 08:24:01.628962	242.9	18.8	-73.8	4.4
2026-01-23 08:24:03.879608	242.6	18.6	-73.2	0.8
2026-01-23 08:24:06.134977	242.3	18.4	-74.2	5.2
2026-01-23 08:24:08.388687	242.0	18.1	-73.8	5.7
2026-01-23 08:24:10.642773	241.8	17.9	-73.3	3.9
2026-01-23 08:24:12.894541	241.5	17.7	-73.9	3.8
2026-01-23 08:24:15.149497	241.2	17.4	-73.9	4.8
2026-01-23 08:24:17.399377	241.0	17.2	-73.2	3.9
2026-01-23 08:24:19.651759	240.7	17.0	-73.8	5.7
2026-01-23 08:24:21.902884	240.4	16.7	-73.9	4.3
2026-01-23 08:24:24.156800	240.2	16.5	-73.9	4.1
2026-01-23 08:24:26.411320	239.9	16.3	-73.9	4.4
2026-01-23 08:24:28.666160	239.7	16.1	-74.6	5.1
2026-01-23 08:24:30.917294	239.5	15.8	-74.4	4.0
2026-01-23 08:24:33.169720	239.2	15.6	-74.6	5.2
2026-01-23 08:24:35.419558	239.0	15.4	-74.5	4.9
2026-01-23 08:24:37.669552	238.7	15.2	-74.7	4.6
2026-01-23 08:24:39.920003	238.5	15.0	-75.0	5.4
2026-01-23 08:24:42.174195	238.3	14.8	-74.7	3.6
2026-01-23 08:24:44.426732	238.1	14.6	-74.9	5.0
2026-01-23 08:24:46.683821	237.9	14.3	-74.8	4.3
2026-01-23 08:24:48.936786	237.6	14.1	-74.4	2.0
2026-01-23 08:24:51.188966	237.4	13.9	-73.7	3.4
2026-01-23 08:24:53.438194	237.2	13.7	-74.3	1.9
2026-01-23 08:24:55.689735	237.0	13.5	-74.4	4.2
2026-01-23 08:24:57.942654	236.8	13.3	-74.3	4.3
2026-01-23 08:25:00.197313	236.6	13.1	-74.3	3.7
2026-01-23 08:25:02.451066	236.4	12.9	-73.9	1.9
2026-01-23 08:25:04.706484	236.2	12.7	-73.0	0.6
2026-01-23 08:25:06.958571	236.0	12.5	-73.4	0.5
2026-01-23 08:25:09.213701	235.8	12.3	-73.6	1.8
2026-01-23 08:25:11.464843	235.7	12.1	-74.0	2.7
2026-01-23 08:25:13.719657	235.5	11.9	-74.1	2.5
2026-01-23 08:25:15.972871	235.3	11.7	-74.8	1.2
2026-01-23 08:25:18.225260	235.1	11.5	-74.9	3.2
2026-01-23 08:25:20.474445	234.9	11.4	-75.2	3.2
2026-01-23 08:25:22.731100	234.8	11.2	-74.9	3.5
2026-01-23 08:25:24.984942	234.6	11.0	-74.1	3.9
2026-01-23 08:25:27.238157	234.4	10.8	-75.3	2.9
2026-01-23 08:25:29.493981	234.3	10.6	-76.0	0.0
2026-01-23 08:25:31.745497	234.1	10.4	-77.9	0.0
2026-01-23 08:25:33.999388	233.9	10.2	-78.8	0.0
#Closed at: 2026-01-23 08:15:41.076066