passes_logs/2026/01/23/planumMaritime01/planumMaritime01__20260123_153515_METEOR-M2_3_rec.log

#Pass ID: 20260123_153515_METEOR-M2 3
#Satellite: METEOR-M2 3
#Configuration: METEOR-M2 3
#Start time: 2026-01-23 15:35:20.839262

#LorettStation: 1.0.0 05.05.2024
#Station: planumMaritime01
#Location: 37.49445 lon 55.92918 lat
#TLE: 1 57166U 23091A   26023.00621388  .00000059  00000+0  44764-4 0  9993
#TLE: 2 57166  98.6315  80.8125 0003239 219.6840 140.4103 14.24032037133859

#Time	Az	El	Level	SNR
2026-01-23 15:35:23.010568	76.8	10.1	-73.1	0.0
2026-01-23 15:35:24.141968	76.6	10.2	-74.1	0.0
2026-01-23 15:35:25.274438	76.4	10.2	-74.5	0.0
2026-01-23 15:35:26.402617	76.3	10.3	-74.6	0.0
2026-01-23 15:35:27.532900	76.1	10.3	-76.7	0.0
2026-01-23 15:35:28.663553	75.9	10.4	-77.3	0.0
2026-01-23 15:35:29.797139	75.7	10.4	-75.8	0.0
2026-01-23 15:35:30.928171	75.6	10.5	-76.0	0.0
2026-01-23 15:35:32.059415	75.4	10.5	-73.7	0.0
2026-01-23 15:35:33.191158	75.2	10.6	-71.9	0.0
2026-01-23 15:35:34.320240	75.0	10.6	-71.5	0.0
2026-01-23 15:35:35.449589	74.8	10.7	-69.4	0.0
2026-01-23 15:35:36.580372	74.7	10.7	-70.3	0.0
2026-01-23 15:35:37.708848	74.5	10.8	-70.5	0.0
2026-01-23 15:35:38.840308	74.3	10.9	-69.2	0.0
2026-01-23 15:35:39.969694	74.1	10.9	-72.4	0.0
2026-01-23 15:35:41.100245	73.9	11.0	-67.8	0.0
2026-01-23 15:35:42.232107	73.7	11.0	-71.6	0.0
2026-01-23 15:35:43.363924	73.6	11.1	-72.2	0.0
2026-01-23 15:35:44.496169	73.4	11.1	-71.6	0.0
2026-01-23 15:35:45.630642	73.2	11.2	-72.1	0.0
2026-01-23 15:35:46.764166	73.0	11.2	-65.5	0.0
2026-01-23 15:35:47.895553	72.8	11.3	-67.5	0.0
2026-01-23 15:35:49.030953	72.6	11.3	-72.0	0.0
2026-01-23 15:35:50.163625	72.4	11.4	-70.2	0.0
2026-01-23 15:35:51.298551	72.3	11.4	-68.1	0.0
2026-01-23 15:35:52.433447	72.1	11.5	-71.2	0.0
2026-01-23 15:35:53.566222	71.9	11.5	-70.1	0.0
2026-01-23 15:35:54.699604	71.7	11.6	-69.3	0.0
2026-01-23 15:35:55.834207	71.5	11.6	-70.8	0.0
2026-01-23 15:35:56.966753	71.3	11.7	-71.6	0.0
2026-01-23 15:35:58.101504	71.1	11.7	-70.4	0.0
2026-01-23 15:35:59.241822	70.9	11.8	-71.4	0.0
2026-01-23 15:36:00.378268	70.7	11.8	-70.6	0.0
2026-01-23 15:36:01.513501	70.5	11.9	-70.5	0.0
2026-01-23 15:36:02.651330	70.3	11.9	-64.9	0.0
2026-01-23 15:36:03.786791	70.1	12.0	-71.1	0.0
2026-01-23 15:36:04.925626	69.9	12.0	-69.6	0.0
2026-01-23 15:36:06.063072	69.7	12.1	-70.9	0.0
2026-01-23 15:36:07.197181	69.5	12.1	-71.0	0.0
2026-01-23 15:36:08.331441	69.3	12.1	-70.4	0.0
2026-01-23 15:36:09.466372	69.1	12.2	-71.6	0.0
2026-01-23 15:36:10.598888	68.9	12.2	-66.0	0.0
2026-01-23 15:36:11.733872	68.7	12.3	-72.4	0.0
2026-01-23 15:36:12.866006	68.5	12.3	-72.4	0.0
2026-01-23 15:36:13.996651	68.3	12.4	-70.0	0.0
2026-01-23 15:36:15.130808	68.1	12.4	-69.8	0.0
2026-01-23 15:36:16.266942	67.9	12.5	-71.5	0.0
2026-01-23 15:36:17.401624	67.7	12.5	-71.3	0.0
2026-01-23 15:36:18.534446	67.5	12.6	-66.2	0.0
2026-01-23 15:36:19.670871	67.3	12.6	-69.2	0.0
2026-01-23 15:36:20.808862	67.1	12.6	-70.2	0.0
2026-01-23 15:36:21.945133	66.9	12.7	-69.3	0.0
2026-01-23 15:36:23.081511	66.7	12.7	-70.3	0.0
2026-01-23 15:36:24.216812	66.5	12.8	-70.4	0.0
2026-01-23 15:36:25.353905	66.3	12.8	-71.7	0.0
2026-01-23 15:36:26.490674	66.1	12.9	-71.2	0.0
2026-01-23 15:36:27.628687	65.8	12.9	-71.4	0.0
2026-01-23 15:36:28.765719	65.6	13.0	-71.5	0.0
2026-01-23 15:36:29.901159	65.4	13.0	-70.7	0.0
2026-01-23 15:36:31.037431	65.2	13.0	-70.3	0.0
2026-01-23 15:36:32.174505	65.0	13.1	-72.0	0.0
2026-01-23 15:36:33.312038	64.8	13.1	-70.9	0.0
2026-01-23 15:36:34.447075	64.6	13.2	-70.8	0.0
2026-01-23 15:36:35.583090	64.4	13.2	-71.0	0.0
2026-01-23 15:36:36.720276	64.1	13.2	-71.0	0.0
2026-01-23 15:36:37.856736	63.9	13.3	-70.5	0.0
2026-01-23 15:36:38.993798	63.7	13.3	-72.0	0.0
2026-01-23 15:36:40.130539	63.5	13.4	-70.5	0.0
2026-01-23 15:36:41.268512	63.3	13.4	-70.3	0.0
2026-01-23 15:36:42.404926	63.1	13.4	-70.3	0.0
2026-01-23 15:36:43.540622	62.8	13.5	-70.6	0.0
2026-01-23 15:36:44.678149	62.6	13.5	-70.5	0.0
2026-01-23 15:36:45.813806	62.4	13.5	-70.3	0.0
2026-01-23 15:36:46.948338	62.2	13.6	-70.3	0.0
2026-01-23 15:36:48.082424	62.0	13.6	-71.7	0.0
2026-01-23 15:36:49.218466	61.7	13.7	-70.4	0.0
2026-01-23 15:36:50.354016	61.5	13.7	-69.7	0.0
2026-01-23 15:36:51.490668	61.3	13.7	-68.5	0.0
2026-01-23 15:36:52.625523	61.1	13.8	-68.5	0.0
2026-01-23 15:36:53.760963	60.9	13.8	-69.0	0.0
2026-01-23 15:36:54.895954	60.6	13.8	-69.9	0.0
2026-01-23 15:36:56.032935	60.4	13.9	-70.1	0.0
2026-01-23 15:36:57.167730	60.2	13.9	-70.7	0.0
2026-01-23 15:36:58.306924	60.0	13.9	-70.9	0.0
2026-01-23 15:36:59.444402	59.7	14.0	-69.5	0.0
2026-01-23 15:37:00.581304	59.5	14.0	-71.0	0.0
2026-01-23 15:37:01.717148	59.3	14.0	-70.8	0.0
2026-01-23 15:37:02.856794	59.0	14.1	-70.9	0.0
2026-01-23 15:37:03.995815	58.8	14.1	-70.5	0.0
2026-01-23 15:37:05.132972	58.6	14.1	-71.2	0.0
2026-01-23 15:37:06.271258	58.4	14.2	-71.0	0.0
2026-01-23 15:37:07.408802	58.1	14.2	-69.8	0.0
2026-01-23 15:37:08.544991	57.9	14.2	-70.5	0.0
2026-01-23 15:37:09.681469	57.7	14.2	-69.8	0.0
2026-01-23 15:37:10.818448	57.4	14.3	-70.2	0.0
2026-01-23 15:37:11.954893	57.2	14.3	-70.1	0.0
2026-01-23 15:37:13.094900	57.0	14.3	-70.7	0.0
2026-01-23 15:37:14.231296	56.7	14.4	-70.5	0.0
2026-01-23 15:37:15.368216	56.5	14.4	-70.8	0.0
2026-01-23 15:37:16.501687	56.3	14.4	-69.6	0.0
2026-01-23 15:37:17.639145	56.0	14.4	-70.5	0.0
2026-01-23 15:37:18.774208	55.8	14.5	-64.4	0.0
2026-01-23 15:37:19.907962	55.6	14.5	-69.6	0.0
2026-01-23 15:37:21.043092	55.3	14.5	-71.0	0.0
2026-01-23 15:37:22.178193	55.1	14.5	-69.1	0.0
2026-01-23 15:37:23.314054	54.9	14.6	-69.5	0.0
2026-01-23 15:37:24.446804	54.6	14.6	-68.9	0.0
2026-01-23 15:37:25.578441	54.4	14.6	-70.2	0.0
2026-01-23 15:37:26.711192	54.2	14.6	-65.4	0.0
2026-01-23 15:37:27.838635	53.9	14.6	-69.3	0.0
2026-01-23 15:37:28.967560	53.7	14.7	-69.1	0.0
2026-01-23 15:37:30.096923	53.5	14.7	-68.9	0.0
2026-01-23 15:37:31.228979	53.2	14.7	-67.6	0.0
2026-01-23 15:37:32.358544	53.0	14.7	-68.2	0.0
2026-01-23 15:37:33.489601	52.7	14.7	-68.1	0.0
2026-01-23 15:37:34.621584	52.5	14.8	-66.0	0.0
2026-01-23 15:37:35.751411	52.3	14.8	-68.5	0.0
2026-01-23 15:37:36.885014	52.0	14.8	-65.9	0.0
2026-01-23 15:37:38.017162	51.8	14.8	-67.7	0.0
2026-01-23 15:37:39.145603	51.6	14.8	-68.6	0.0
2026-01-23 15:37:40.278697	51.3	14.9	-67.8	0.0
2026-01-23 15:37:41.409876	51.1	14.9	-68.9	0.0
2026-01-23 15:37:42.538335	50.8	14.9	-69.3	0.0
2026-01-23 15:37:43.670505	50.6	14.9	-67.6	0.0
2026-01-23 15:37:44.798912	50.4	14.9	-69.2	0.0
2026-01-23 15:37:45.934549	50.1	14.9	-68.9	0.0
2026-01-23 15:37:47.066845	49.9	14.9	-68.5	0.0
2026-01-23 15:37:48.202071	49.6	15.0	-66.5	0.0
2026-01-23 15:37:49.336507	49.4	15.0	-65.3	0.0
2026-01-23 15:37:50.472700	49.1	15.0	-66.4	0.0
2026-01-23 15:37:51.609700	48.9	15.0	-66.3	0.0
2026-01-23 15:37:52.744707	48.7	15.0	-66.7	0.0
2026-01-23 15:37:53.881448	48.4	15.0	-66.7	0.0
2026-01-23 15:37:55.016453	48.2	15.0	-65.6	0.0
2026-01-23 15:37:56.152231	47.9	15.0	-67.5	0.0
2026-01-23 15:37:57.291180	47.7	15.0	-67.6	0.0
2026-01-23 15:37:58.427871	47.4	15.1	-67.3	0.0
2026-01-23 15:37:59.565617	47.2	15.1	-67.8	0.0
2026-01-23 15:38:00.700245	47.0	15.1	-67.3	0.0
2026-01-23 15:38:01.835954	46.7	15.1	-66.2	0.0
2026-01-23 15:38:02.972839	46.5	15.1	-66.6	0.0
2026-01-23 15:38:04.110724	46.2	15.1	-65.1	0.0
2026-01-23 15:38:05.248492	46.0	15.1	-65.8	0.0
2026-01-23 15:38:06.383022	45.7	15.1	-66.6	0.0
2026-01-23 15:38:07.516774	45.5	15.1	-60.7	0.0
2026-01-23 15:38:08.649144	45.2	15.1	-64.7	0.0
2026-01-23 15:38:09.783996	45.0	15.1	-65.6	0.0
2026-01-23 15:38:10.917464	44.8	15.1	-64.2	0.0
2026-01-23 15:38:12.049868	44.5	15.1	-66.2	0.0
2026-01-23 15:38:13.180951	44.3	15.1	-64.2	0.0
2026-01-23 15:38:14.315366	44.0	15.1	-66.5	0.0
2026-01-23 15:38:15.445919	43.8	15.1	-66.5	0.0
2026-01-23 15:38:16.577036	43.5	15.1	-65.7	0.0
2026-01-23 15:38:17.707909	43.3	15.1	-65.2	0.0
2026-01-23 15:38:18.838852	43.1	15.1	-64.3	0.0
2026-01-23 15:38:19.968914	42.8	15.1	-66.0	0.0
2026-01-23 15:38:21.104545	42.6	15.1	-64.5	0.0
2026-01-23 15:38:22.238091	42.3	15.1	-65.5	0.0
2026-01-23 15:38:23.369769	42.1	15.1	-64.1	0.0
2026-01-23 15:38:24.504381	41.8	15.1	-64.0	0.0
2026-01-23 15:38:25.637702	41.6	15.1	-65.5	0.0
2026-01-23 15:38:26.773376	41.3	15.1	-65.2	0.0
2026-01-23 15:38:27.910988	41.1	15.1	-65.0	0.0
2026-01-23 15:38:29.045613	40.9	15.1	-62.8	0.0
2026-01-23 15:38:30.180903	40.6	15.1	-60.0	0.0
2026-01-23 15:38:31.318054	40.4	15.1	-63.2	0.0
2026-01-23 15:38:32.451186	40.1	15.1	-64.9	0.0
2026-01-23 15:38:33.586954	39.9	15.1	-63.0	0.0
2026-01-23 15:38:34.720403	39.6	15.1	-62.0	0.0
2026-01-23 15:38:35.854251	39.4	15.1	-62.0	0.0
2026-01-23 15:38:36.985912	39.2	15.0	-65.8	0.0
2026-01-23 15:38:38.118075	38.9	15.0	-61.7	0.0
2026-01-23 15:38:39.252161	38.7	15.0	-63.4	0.0
2026-01-23 15:38:40.387999	38.4	15.0	-61.9	0.0
2026-01-23 15:38:41.523675	38.2	15.0	-63.1	0.0
2026-01-23 15:38:42.657787	37.9	15.0	-62.7	0.0
2026-01-23 15:38:43.794311	37.7	15.0	-65.2	0.0
2026-01-23 15:38:44.930022	37.5	15.0	-63.8	0.0
2026-01-23 15:38:46.067564	37.2	15.0	-65.0	0.0
2026-01-23 15:38:47.202763	37.0	14.9	-64.8	0.0
2026-01-23 15:38:48.337511	36.7	14.9	-63.3	0.0
2026-01-23 15:38:49.474544	36.5	14.9	-64.4	0.0
2026-01-23 15:38:50.610731	36.3	14.9	-60.3	0.0
2026-01-23 15:38:51.746954	36.0	14.9	-61.4	0.0
2026-01-23 15:38:52.886158	35.8	14.9	-63.2	0.0
2026-01-23 15:38:54.026368	35.5	14.8	-61.9	0.0
2026-01-23 15:38:55.165072	35.3	14.8	-66.3	0.0
2026-01-23 15:38:56.304668	35.1	14.8	-64.2	0.0
2026-01-23 15:38:57.439317	34.8	14.8	-63.4	0.0
2026-01-23 15:38:58.578483	34.6	14.8	-61.4	0.0
2026-01-23 15:38:59.714970	34.3	14.8	-60.0	0.0
2026-01-23 15:39:00.853926	34.1	14.7	-61.7	0.0
2026-01-23 15:39:01.991713	33.9	14.7	-61.0	0.0
2026-01-23 15:39:03.128443	33.6	14.7	-61.6	0.0
2026-01-23 15:39:04.268290	33.4	14.7	-62.3	0.0
2026-01-23 15:39:05.405948	33.1	14.7	-62.8	0.0
2026-01-23 15:39:06.542227	32.9	14.6	-61.8	0.0
2026-01-23 15:39:07.681075	32.7	14.6	-62.6	0.0
2026-01-23 15:39:08.819941	32.4	14.6	-63.0	0.0
2026-01-23 15:39:09.957717	32.2	14.6	-62.9	0.0
2026-01-23 15:39:11.093124	32.0	14.5	-62.0	0.0
2026-01-23 15:39:12.231202	31.7	14.5	-63.3	0.0
2026-01-23 15:39:13.368400	31.5	14.5	-62.2	0.0
2026-01-23 15:39:14.505031	31.3	14.5	-64.5	0.0
2026-01-23 15:39:15.640992	31.0	14.4	-63.2	0.0
2026-01-23 15:39:16.777372	30.8	14.4	-61.7	0.0
2026-01-23 15:39:17.911844	30.6	14.4	-64.6	0.0
2026-01-23 15:39:19.051327	30.3	14.4	-63.2	0.0
2026-01-23 15:39:20.189964	30.1	14.3	-63.8	0.0
2026-01-23 15:39:21.322050	29.9	14.3	-59.0	0.0
2026-01-23 15:39:22.454007	29.6	14.3	-64.0	0.0
2026-01-23 15:39:23.588130	29.4	14.3	-64.1	0.0
2026-01-23 15:39:24.723772	29.2	14.2	-67.3	0.0
2026-01-23 15:39:25.856122	28.9	14.2	-63.0	0.0
2026-01-23 15:39:26.989527	28.7	14.2	-63.7	0.0
2026-01-23 15:39:28.121385	28.5	14.1	-64.3	0.0
2026-01-23 15:39:29.256018	28.3	14.1	-64.0	0.0
2026-01-23 15:39:30.390951	28.0	14.1	-65.8	0.0
2026-01-23 15:39:31.525697	27.8	14.0	-65.0	0.0
2026-01-23 15:39:32.662570	27.6	14.0	-65.5	0.0
2026-01-23 15:39:33.793809	27.4	14.0	-62.5	0.0
2026-01-23 15:39:34.923377	27.1	13.9	-62.5	0.0
2026-01-23 15:39:36.053252	26.9	13.9	-64.5	0.0
2026-01-23 15:39:37.181904	26.7	13.9	-63.6	0.0
2026-01-23 15:39:38.311170	26.5	13.8	-65.3	0.0
2026-01-23 15:39:39.442855	26.2	13.8	-63.4	0.0
2026-01-23 15:39:40.572612	26.0	13.8	-64.7	0.0
2026-01-23 15:39:41.703027	25.8	13.7	-65.2	0.0
2026-01-23 15:39:42.834434	25.6	13.7	-64.9	0.0
2026-01-23 15:39:43.967494	25.4	13.7	-63.7	0.0
2026-01-23 15:39:45.098722	25.1	13.6	-65.4	0.0
2026-01-23 15:39:46.228778	24.9	13.6	-65.5	0.0
2026-01-23 15:39:47.358375	24.7	13.6	-63.5	0.0
2026-01-23 15:39:48.488555	24.5	13.5	-64.3	0.0
2026-01-23 15:39:49.620051	24.3	13.5	-65.6	0.0
2026-01-23 15:39:50.750415	24.0	13.5	-65.3	0.0
2026-01-23 15:39:51.879563	23.8	13.4	-64.5	0.0
2026-01-23 15:39:53.009173	23.6	13.4	-63.2	0.0
2026-01-23 15:39:54.143670	23.4	13.3	-67.8	0.0
2026-01-23 15:39:55.277132	23.2	13.3	-65.5	0.0
2026-01-23 15:39:56.405532	23.0	13.3	-65.0	0.0
2026-01-23 15:39:57.538704	22.7	13.2	-66.4	0.0
2026-01-23 15:39:58.678132	22.5	13.2	-64.6	0.0
2026-01-23 15:39:59.813078	22.3	13.1	-65.9	0.0
2026-01-23 15:40:00.949657	22.1	13.1	-66.0	0.0
2026-01-23 15:40:02.087565	21.9	13.1	-66.7	0.0
2026-01-23 15:40:03.224623	21.7	13.0	-67.1	0.0
2026-01-23 15:40:04.364036	21.5	13.0	-66.4	0.0
2026-01-23 15:40:05.500009	21.3	12.9	-66.3	0.0
2026-01-23 15:40:06.638197	21.0	12.9	-64.8	0.0
2026-01-23 15:40:07.775537	20.8	12.8	-65.3	0.0
2026-01-23 15:40:08.912526	20.6	12.8	-65.1	0.0
2026-01-23 15:40:10.049841	20.4	12.8	-66.7	0.0
2026-01-23 15:40:11.183335	20.2	12.7	-66.9	0.0
2026-01-23 15:40:12.322125	20.0	12.7	-67.7	0.0
2026-01-23 15:40:13.458036	19.8	12.6	-65.9	0.0
2026-01-23 15:40:14.593540	19.6	12.6	-65.9	0.0
2026-01-23 15:40:15.731424	19.4	12.5	-66.0	0.0
2026-01-23 15:40:16.867057	19.2	12.5	-68.5	0.0
2026-01-23 15:40:18.005299	19.0	12.5	-67.4	0.0
2026-01-23 15:40:19.145883	18.8	12.4	-65.6	0.0
2026-01-23 15:40:20.284687	18.6	12.4	-66.1	0.0
2026-01-23 15:40:21.421157	18.4	12.3	-65.5	0.0
2026-01-23 15:40:22.561984	18.2	12.3	-66.9	0.0
2026-01-23 15:40:23.698130	18.0	12.2	-67.3	0.0
2026-01-23 15:40:24.834772	17.8	12.2	-67.9	0.0
2026-01-23 15:40:25.972878	17.6	12.1	-70.2	0.0
2026-01-23 15:40:27.108714	17.4	12.1	-66.5	0.0
2026-01-23 15:40:28.245180	17.2	12.0	-65.6	0.0
2026-01-23 15:40:29.379018	17.0	12.0	-66.8	0.0
2026-01-23 15:40:30.514911	16.8	11.9	-66.1	0.0
2026-01-23 15:40:31.647118	16.6	11.9	-67.1	0.0
2026-01-23 15:40:32.780610	16.4	11.8	-67.9	0.0
2026-01-23 15:40:33.916008	16.2	11.8	-66.3	0.0
2026-01-23 15:40:35.050681	16.0	11.7	-67.9	0.0
2026-01-23 15:40:36.182289	15.8	11.7	-67.8	0.0
2026-01-23 15:40:37.319427	15.6	11.6	-66.8	0.0
2026-01-23 15:40:38.459077	15.4	11.6	-68.2	0.0
2026-01-23 15:40:39.596171	15.2	11.5	-66.7	0.0
2026-01-23 15:40:40.731998	15.0	11.5	-67.4	0.0
2026-01-23 15:40:41.867887	14.9	11.4	-66.6	0.0
2026-01-23 15:40:43.007796	14.7	11.4	-67.1	0.0
2026-01-23 15:40:44.146810	14.5	11.3	-66.4	0.0
2026-01-23 15:40:45.285153	14.3	11.3	-67.3	0.0
2026-01-23 15:40:46.421453	14.1	11.2	-66.0	0.0
2026-01-23 15:40:47.557363	13.9	11.2	-67.6	0.0
2026-01-23 15:40:48.694543	13.7	11.1	-67.1	0.0
2026-01-23 15:40:49.831210	13.5	11.1	-67.5	0.0
2026-01-23 15:40:50.967204	13.4	11.0	-67.9	0.0
2026-01-23 15:40:52.105823	13.2	11.0	-67.6	0.0
2026-01-23 15:40:53.241474	13.0	10.9	-69.2	0.0
2026-01-23 15:40:54.377662	12.8	10.9	-66.4	0.0
2026-01-23 15:40:55.513107	12.6	10.8	-66.7	0.0
2026-01-23 15:40:56.648167	12.5	10.8	-68.9	0.0
2026-01-23 15:40:57.785883	12.3	10.7	-69.3	0.0
2026-01-23 15:40:58.923713	12.1	10.7	-74.5	0.0
2026-01-23 15:41:00.063919	11.9	10.6	-78.3	0.0
2026-01-23 15:41:01.198716	11.7	10.6	-75.4	0.0
2026-01-23 15:41:02.331172	11.6	10.5	-75.3	0.0
2026-01-23 15:41:03.465563	11.4	10.5	-75.1	0.0
2026-01-23 15:41:04.600481	11.2	10.4	-74.8	0.0
2026-01-23 15:41:05.735847	11.0	10.4	-76.2	0.0
2026-01-23 15:41:06.871078	10.9	10.3	-75.3	0.0
2026-01-23 15:41:08.006776	10.7	10.2	-76.0	0.0
2026-01-23 15:41:09.139544	10.5	10.2	-77.6	0.0
2026-01-23 15:41:10.273792	10.3	10.1	-77.1	0.0
2026-01-23 15:41:11.409614	10.2	10.1	-77.9	0.0
2026-01-23 15:41:12.549146	10.0	10.0	-78.4	0.0
#Closed at: 2026-01-23 15:35:15.842197