passes_logs/2026/01/23/planumMaritime01/planumMaritime01__20260123_184337_METOP-C_rec.log

#Pass ID: 20260123_184337_METOP-C
#Satellite: METOP-C
#Configuration: METOP-C
#Start time: 2026-01-23 18:43:42.157144

#LorettStation: 1.0.0 05.05.2024
#Station: planumMaritime01
#Location: 37.49445 lon 55.92918 lat
#TLE: 1 43689U 18087A   26022.92846919  .00000264  00000+0  14063-3 0  9992
#TLE: 2 43689  98.6864  85.0540 0000969 168.2635 191.8565 14.21502852374199

#Time	Az	El	Level	SNR
2026-01-23 18:43:44.332394	185.3	10.2	-73.0	0.0
2026-01-23 18:43:46.585008	185.4	10.4	-71.9	0.0
2026-01-23 18:43:48.837095	185.6	10.6	-71.7	0.0
2026-01-23 18:43:51.086738	185.7	10.8	-70.7	0.0
2026-01-23 18:43:53.339667	185.8	11.0	-70.4	0.0
2026-01-23 18:43:55.590762	186.0	11.1	-70.5	0.0
2026-01-23 18:43:57.845686	186.1	11.3	-71.4	0.0
2026-01-23 18:44:00.099149	186.2	11.5	-70.3	0.0
2026-01-23 18:44:02.351684	186.4	11.7	-70.5	0.0
2026-01-23 18:44:04.604796	186.5	11.9	-70.6	0.0
2026-01-23 18:44:06.855671	186.6	12.1	-71.0	0.0
2026-01-23 18:44:09.109675	186.8	12.4	-70.7	0.0
2026-01-23 18:44:11.363764	186.9	12.6	-69.7	0.0
2026-01-23 18:44:13.616131	187.1	12.8	-70.6	0.0
2026-01-23 18:44:15.868341	187.2	13.0	-70.3	0.0
2026-01-23 18:44:18.120627	187.4	13.2	-71.6	0.0
2026-01-23 18:44:20.376142	187.5	13.4	-70.8	0.0
2026-01-23 18:44:22.629889	187.7	13.6	-70.7	0.7
2026-01-23 18:44:24.880657	187.8	13.8	-70.4	0.0
2026-01-23 18:44:27.134724	188.0	14.1	-69.9	0.0
2026-01-23 18:44:29.388775	188.2	14.3	-69.3	0.0
2026-01-23 18:44:31.642322	188.3	14.5	-69.3	0.0
2026-01-23 18:44:33.893879	188.5	14.7	-69.8	0.0
2026-01-23 18:44:36.145463	188.7	14.9	-70.1	0.0
2026-01-23 18:44:38.398935	188.8	15.2	-70.6	0.0
2026-01-23 18:44:40.652611	189.0	15.4	-68.6	0.0
2026-01-23 18:44:42.907769	189.2	15.6	-69.6	0.0
2026-01-23 18:44:45.157982	189.4	15.9	-69.3	0.0
2026-01-23 18:44:47.407922	189.5	16.1	-71.0	0.0
2026-01-23 18:44:49.658567	189.7	16.3	-70.6	0.0
2026-01-23 18:44:51.910803	189.9	16.6	-70.5	0.0
2026-01-23 18:44:54.162151	190.1	16.8	-70.7	0.0
2026-01-23 18:44:56.414232	190.3	17.1	-69.2	0.0
2026-01-23 18:44:58.666821	190.5	17.3	-70.0	0.0
2026-01-23 18:45:00.918771	190.7	17.6	-69.3	0.0
2026-01-23 18:45:03.171605	190.9	17.8	-69.8	0.0
2026-01-23 18:45:05.425389	191.1	18.1	-69.5	0.0
2026-01-23 18:45:07.678195	191.3	18.3	-70.5	0.0
2026-01-23 18:45:09.933191	191.5	18.6	-69.5	0.0
2026-01-23 18:45:12.186817	191.7	18.8	-70.2	0.0
2026-01-23 18:45:14.439683	192.0	19.1	-69.1	0.0
2026-01-23 18:45:16.694085	192.2	19.4	-69.7	0.0
2026-01-23 18:45:18.948663	192.4	19.6	-70.3	0.0
2026-01-23 18:45:21.202107	192.6	19.9	-69.5	0.0
2026-01-23 18:45:23.459783	192.9	20.2	-69.6	0.0
2026-01-23 18:45:25.714434	193.1	20.4	-70.6	0.0
2026-01-23 18:45:27.967764	193.4	20.7	-69.8	0.0
2026-01-23 18:45:30.223347	193.6	21.0	-69.1	0.0
2026-01-23 18:45:32.477463	193.9	21.3	-69.4	0.0
2026-01-23 18:45:34.731775	194.1	21.6	-69.5	0.0
2026-01-23 18:45:36.984989	194.4	21.9	-69.2	0.0
2026-01-23 18:45:39.240856	194.6	22.1	-70.3	2.3
2026-01-23 18:45:41.493553	194.9	22.4	-69.3	0.0
2026-01-23 18:45:43.751754	195.2	22.7	-68.4	0.0
2026-01-23 18:45:46.005325	195.5	23.0	-68.7	0.0
2026-01-23 18:45:48.260241	195.8	23.3	-69.3	0.0
2026-01-23 18:45:50.515032	196.0	23.6	-68.7	0.0
2026-01-23 18:45:52.766871	196.3	23.9	-68.6	0.0
2026-01-23 18:45:55.020951	196.6	24.3	-69.2	0.0
2026-01-23 18:45:57.273930	197.0	24.6	-70.4	1.6
2026-01-23 18:45:59.527504	197.3	24.9	-68.9	0.0
2026-01-23 18:46:01.783062	197.6	25.2	-69.7	2.4
2026-01-23 18:46:04.038294	197.9	25.5	-69.8	0.0
2026-01-23 18:46:06.294262	198.3	25.8	-69.1	0.0
2026-01-23 18:46:08.545499	198.6	26.2	-69.9	0.0
2026-01-23 18:46:10.800497	198.9	26.5	-69.9	4.1
2026-01-23 18:46:13.053458	199.3	26.8	-69.5	3.7
2026-01-23 18:46:15.306530	199.7	27.2	-69.8	3.3
2026-01-23 18:46:17.561921	200.0	27.5	-69.4	3.6
2026-01-23 18:46:19.815733	200.4	27.9	-70.5	4.3
2026-01-23 18:46:22.066611	200.8	28.2	-70.1	3.4
2026-01-23 18:46:24.321003	201.2	28.6	-70.1	4.2
2026-01-23 18:46:26.574030	201.6	28.9	-70.6	4.4
2026-01-23 18:46:28.826939	202.0	29.3	-70.5	3.6
2026-01-23 18:46:31.076837	202.4	29.6	-71.4	5.9
2026-01-23 18:46:33.329600	202.8	30.0	-71.3	5.1
2026-01-23 18:46:35.581544	203.3	30.3	-71.0	4.6
2026-01-23 18:46:37.834968	203.7	30.7	-72.3	9.2
2026-01-23 18:46:40.086662	204.2	31.1	-71.9	6.9
2026-01-23 18:46:42.339990	204.7	31.4	-71.9	5.7
2026-01-23 18:46:44.594617	205.1	31.8	-71.6	6.2
2026-01-23 18:46:46.846527	205.6	32.2	-71.4	5.6
2026-01-23 18:46:49.101829	206.1	32.6	-72.6	7.4
2026-01-23 18:46:51.355898	206.6	32.9	-72.3	8.1
2026-01-23 18:46:53.607788	207.2	33.3	-72.3	9.9
2026-01-23 18:46:55.861521	207.7	33.7	-72.5	10.8
2026-01-23 18:46:58.115233	208.3	34.1	-72.6	11.0
2026-01-23 18:47:00.363289	208.8	34.5	-73.3	12.8
2026-01-23 18:47:02.618323	209.4	34.9	-72.7	13.1
2026-01-23 18:47:04.871891	210.0	35.3	-73.1	13.2
2026-01-23 18:47:07.123259	210.6	35.7	-72.7	11.3
2026-01-23 18:47:09.379430	211.2	36.1	-73.4	13.2
2026-01-23 18:47:11.632187	211.9	36.5	-73.0	12.8
2026-01-23 18:47:13.884046	212.5	36.9	-72.5	11.5
2026-01-23 18:47:16.139041	213.2	37.3	-72.7	14.0
2026-01-23 18:47:18.391281	213.8	37.7	-72.6	14.4
2026-01-23 18:47:20.642474	214.5	38.1	-72.7	13.9
2026-01-23 18:47:22.895707	215.3	38.5	-72.8	13.6
2026-01-23 18:47:25.149194	216.0	38.9	-72.8	12.8
2026-01-23 18:47:27.403374	216.7	39.3	-72.9	13.3
2026-01-23 18:47:29.654733	217.5	39.7	-72.9	11.9
2026-01-23 18:47:31.909707	218.3	40.0	-72.5	11.9
2026-01-23 18:47:34.160527	219.1	40.4	-72.4	11.2
2026-01-23 18:47:36.411161	219.9	40.8	-72.7	11.4
2026-01-23 18:47:38.662422	220.8	41.2	-72.7	11.4
2026-01-23 18:47:40.913378	221.7	41.6	-72.3	11.7
2026-01-23 18:47:43.164202	222.5	42.0	-72.3	11.4
2026-01-23 18:47:45.414669	223.4	42.4	-71.9	10.5
2026-01-23 18:47:47.669587	224.4	42.7	-72.3	13.2
2026-01-23 18:47:49.919812	225.3	43.1	-72.4	12.7
2026-01-23 18:47:52.171059	226.3	43.5	-72.2	12.3
2026-01-23 18:47:54.421882	227.3	43.8	-72.0	11.2
2026-01-23 18:47:56.673423	228.3	44.2	-72.0	13.0
2026-01-23 18:47:58.923816	229.3	44.5	-72.1	13.2
2026-01-23 18:48:01.176042	230.4	44.9	-71.7	12.4
2026-01-23 18:48:03.430323	231.5	45.2	-71.7	12.0
2026-01-23 18:48:05.684571	232.6	45.5	-72.0	11.5
2026-01-23 18:48:07.936970	233.7	45.8	-71.8	12.5
2026-01-23 18:48:10.188325	234.9	46.2	-71.5	10.9
2026-01-23 18:48:12.438230	236.1	46.4	-72.3	12.6
2026-01-23 18:48:14.687461	237.2	46.7	-72.4	13.0
2026-01-23 18:48:16.936575	238.5	47.0	-72.3	12.4
2026-01-23 18:48:19.187081	239.7	47.3	-71.8	11.1
2026-01-23 18:48:21.438398	240.9	47.5	-72.3	12.4
2026-01-23 18:48:23.691950	242.2	47.7	-71.8	12.2
2026-01-23 18:48:25.943935	243.5	47.9	-71.9	12.1
2026-01-23 18:48:28.197469	244.8	48.1	-71.4	12.2
2026-01-23 18:48:30.449619	246.1	48.3	-71.9	13.7
2026-01-23 18:48:32.704568	247.5	48.5	-71.9	12.8
2026-01-23 18:48:34.956105	248.8	48.7	-71.1	10.9
2026-01-23 18:48:37.206115	250.2	48.8	-71.6	11.2
2026-01-23 18:48:39.458199	251.6	48.9	-72.0	11.6
2026-01-23 18:48:41.705703	253.0	49.0	-72.0	9.1
2026-01-23 18:48:43.957310	254.4	49.1	-71.5	9.8
2026-01-23 18:48:46.211886	255.8	49.2	-72.3	11.8
2026-01-23 18:48:48.464103	257.2	49.2	-71.6	9.6
2026-01-23 18:48:50.716223	258.6	49.3	-72.0	9.9
2026-01-23 18:48:52.968550	260.0	49.3	-72.5	12.0
2026-01-23 18:48:55.222507	261.4	49.3	-72.1	9.7
2026-01-23 18:48:57.474999	262.9	49.3	-71.9	11.9
2026-01-23 18:48:59.726918	264.3	49.2	-72.1	11.2
2026-01-23 18:49:01.976173	265.7	49.2	-71.0	6.9
2026-01-23 18:49:04.229077	267.1	49.1	-71.4	10.0
2026-01-23 18:49:06.482301	268.5	49.0	-71.4	9.3
2026-01-23 18:49:08.734592	269.9	48.9	-70.5	7.1
2026-01-23 18:49:10.987828	271.2	48.7	-71.0	8.0
2026-01-23 18:49:13.240817	272.6	48.6	-71.3	10.1
2026-01-23 18:49:15.492917	273.9	48.4	-70.3	9.8
2026-01-23 18:49:17.745952	275.3	48.3	-71.0	8.6
2026-01-23 18:49:20.000936	276.6	48.1	-69.5	6.7
2026-01-23 18:49:22.249045	277.9	47.9	-69.5	9.3
2026-01-23 18:49:24.500885	279.2	47.6	-70.3	10.7
2026-01-23 18:49:26.753176	280.4	47.4	-71.2	10.7
2026-01-23 18:49:29.004809	281.7	47.1	-70.0	6.9
2026-01-23 18:49:31.259972	282.9	46.9	-69.3	5.5
2026-01-23 18:49:33.513808	284.1	46.6	-69.2	3.9
2026-01-23 18:49:35.767875	285.3	46.3	-69.2	7.0
2026-01-23 18:49:38.021249	286.4	46.0	-69.5	8.2
2026-01-23 18:49:40.275888	287.6	45.7	-68.3	2.4
2026-01-23 18:49:42.527265	288.7	45.4	-68.9	7.2
2026-01-23 18:49:44.787740	289.8	45.1	-68.9	7.5
2026-01-23 18:49:47.039950	290.9	44.7	-67.8	6.8
2026-01-23 18:49:49.294220	291.9	44.4	-68.6	3.2
2026-01-23 18:49:51.546006	292.9	44.1	-70.3	7.1
2026-01-23 18:49:53.798779	294.0	43.7	-69.7	3.3
2026-01-23 18:49:56.052674	294.9	43.3	-68.5	3.3
2026-01-23 18:49:58.306681	295.9	43.0	-69.5	7.5
2026-01-23 18:50:00.560677	296.8	42.6	-70.6	4.1
2026-01-23 18:50:02.815655	297.8	42.2	-69.1	4.2
2026-01-23 18:50:05.071289	298.7	41.8	-71.0	3.8
2026-01-23 18:50:07.323629	299.5	41.5	-70.5	9.0
2026-01-23 18:50:09.577136	300.4	41.1	-68.8	5.0
2026-01-23 18:50:11.829231	301.2	40.7	-69.0	6.0
2026-01-23 18:50:14.082490	302.0	40.3	-70.6	7.6
2026-01-23 18:50:16.332981	302.8	39.9	-68.2	0.0
2026-01-23 18:50:18.588255	303.6	39.5	-68.7	0.0
2026-01-23 18:50:20.841974	304.4	39.1	-70.4	6.2
2026-01-23 18:50:23.100190	305.1	38.7	-70.7	7.7
2026-01-23 18:50:25.353867	305.8	38.3	-67.2	0.0
2026-01-23 18:50:27.606452	306.5	37.9	-65.6	0.0
2026-01-23 18:50:29.860760	307.2	37.5	-68.8	5.4
2026-01-23 18:50:32.113216	307.9	37.1	-68.9	3.8
2026-01-23 18:50:34.366493	308.6	36.7	-70.4	4.7
2026-01-23 18:50:36.617331	309.2	36.3	-69.7	6.9
2026-01-23 18:50:38.869469	309.8	35.9	-69.9	6.6
2026-01-23 18:50:41.121832	310.4	35.5	-70.3	3.6
2026-01-23 18:50:43.375853	311.0	35.2	-70.0	4.9
2026-01-23 18:50:45.624673	311.6	34.8	-70.1	4.9
2026-01-23 18:50:47.876831	312.2	34.4	-70.1	6.2
2026-01-23 18:50:50.128753	312.7	34.0	-68.7	2.7
2026-01-23 18:50:52.382385	313.3	33.6	-70.4	0.0
2026-01-23 18:50:54.634737	313.8	33.2	-68.3	0.0
2026-01-23 18:50:56.890715	314.3	32.8	-69.9	4.1
2026-01-23 18:50:59.144439	314.8	32.5	-69.8	1.5
2026-01-23 18:51:01.399489	315.3	32.1	-70.0	2.1
2026-01-23 18:51:03.654307	315.8	31.7	-68.6	3.0
2026-01-23 18:51:05.907234	316.3	31.3	-67.7	0.5
2026-01-23 18:51:08.161625	316.8	31.0	-68.4	1.4
2026-01-23 18:51:10.415818	317.2	30.6	-67.2	0.5
2026-01-23 18:51:12.669177	317.7	30.3	-68.2	3.7
2026-01-23 18:51:14.925962	318.1	29.9	-68.1	1.8
2026-01-23 18:51:17.179117	318.5	29.5	-68.2	3.9
2026-01-23 18:51:19.437411	318.9	29.2	-68.0	0.3
2026-01-23 18:51:21.690508	319.3	28.8	-66.9	0.0
2026-01-23 18:51:23.944804	319.7	28.5	-66.2	0.0
2026-01-23 18:51:26.197690	320.1	28.1	-68.5	0.5
2026-01-23 18:51:28.450464	320.5	27.8	-68.5	1.2
2026-01-23 18:51:30.703266	320.9	27.5	-68.9	0.0
2026-01-23 18:51:32.960212	321.3	27.1	-69.6	0.0
2026-01-23 18:51:35.212328	321.6	26.8	-69.4	0.1
2026-01-23 18:51:37.464964	322.0	26.5	-69.0	0.0
2026-01-23 18:51:39.718467	322.3	26.1	-70.4	1.3
2026-01-23 18:51:41.971426	322.7	25.8	-70.4	0.0
2026-01-23 18:51:44.224334	323.0	25.5	-70.2	0.0
2026-01-23 18:51:46.477796	323.3	25.2	-69.1	0.0
2026-01-23 18:51:48.730735	323.6	24.9	-69.4	0.0
2026-01-23 18:51:50.986883	323.9	24.5	-68.8	0.0
2026-01-23 18:51:53.244464	324.2	24.2	-69.2	0.0
2026-01-23 18:51:55.498753	324.5	23.9	-67.1	0.0
2026-01-23 18:51:57.751254	324.8	23.6	-67.9	0.0
2026-01-23 18:52:00.004483	325.1	23.3	-67.4	0.0
2026-01-23 18:52:02.254114	325.4	23.0	-67.3	0.0
2026-01-23 18:52:04.507714	325.7	22.7	-67.8	0.0
2026-01-23 18:52:06.761411	326.0	22.4	-67.2	0.0
2026-01-23 18:52:09.018651	326.2	22.1	-67.0	0.0
2026-01-23 18:52:11.271099	326.5	21.9	-68.2	0.0
2026-01-23 18:52:13.521803	326.8	21.6	-67.8	0.0
2026-01-23 18:52:15.774859	327.0	21.3	-68.3	0.0
2026-01-23 18:52:18.027518	327.3	21.0	-68.2	0.0
2026-01-23 18:52:20.282073	327.5	20.7	-69.0	0.0
2026-01-23 18:52:22.535216	327.8	20.5	-66.7	0.0
2026-01-23 18:52:24.786995	328.0	20.2	-67.3	0.0
2026-01-23 18:52:27.040738	328.2	19.9	-68.3	0.0
2026-01-23 18:52:29.295384	328.5	19.7	-65.5	0.0
2026-01-23 18:52:31.548400	328.7	19.4	-67.2	0.0
2026-01-23 18:52:33.804043	328.9	19.1	-66.9	0.0
2026-01-23 18:52:36.057966	329.1	18.9	-66.0	0.0
2026-01-23 18:52:38.310894	329.3	18.6	-66.8	0.0
2026-01-23 18:52:40.566760	329.6	18.4	-65.9	0.0
2026-01-23 18:52:42.821753	329.8	18.1	-65.7	0.0
2026-01-23 18:52:45.073424	330.0	17.9	-64.6	0.0
2026-01-23 18:52:47.329050	330.2	17.6	-64.7	0.0
2026-01-23 18:52:49.581511	330.4	17.4	-64.9	0.0
2026-01-23 18:52:51.834029	330.6	17.1	-62.9	0.0
2026-01-23 18:52:54.085821	330.8	16.9	-65.4	0.0
2026-01-23 18:52:56.340817	330.9	16.6	-63.6	0.0
2026-01-23 18:52:58.593303	331.1	16.4	-62.9	0.0
2026-01-23 18:53:00.848611	331.3	16.2	-64.8	0.0
2026-01-23 18:53:03.100695	331.5	15.9	-64.8	0.0
2026-01-23 18:53:05.352273	331.7	15.7	-65.6	0.0
2026-01-23 18:53:07.605808	331.9	15.5	-64.8	0.0
2026-01-23 18:53:09.858237	332.0	15.2	-65.5	0.0
2026-01-23 18:53:12.112931	332.2	15.0	-64.7	0.0
2026-01-23 18:53:14.365884	332.4	14.8	-64.7	0.0
2026-01-23 18:53:16.618861	332.5	14.6	-65.3	0.0
2026-01-23 18:53:18.870959	332.7	14.3	-65.5	0.0
2026-01-23 18:53:21.123520	332.9	14.1	-63.6	0.0
2026-01-23 18:53:23.377126	333.0	13.9	-65.7	0.0
2026-01-23 18:53:25.629917	333.2	13.7	-64.0	0.0
2026-01-23 18:53:27.883897	333.3	13.5	-65.2	0.0
2026-01-23 18:53:30.138351	333.5	13.3	-66.9	0.0
2026-01-23 18:53:32.389595	333.6	13.1	-63.8	0.0
2026-01-23 18:53:34.642835	333.8	12.9	-64.1	0.0
2026-01-23 18:53:36.896218	333.9	12.6	-65.0	0.0
2026-01-23 18:53:39.151931	334.1	12.4	-60.2	0.0
2026-01-23 18:53:41.407871	334.2	12.2	-59.9	0.0
2026-01-23 18:53:43.663276	334.4	12.0	-60.9	0.0
2026-01-23 18:53:45.916514	334.5	11.8	-62.7	0.0
2026-01-23 18:53:48.168711	334.7	11.6	-65.4	0.0
2026-01-23 18:53:50.422031	334.8	11.4	-65.7	0.0
2026-01-23 18:53:52.673731	334.9	11.2	-68.8	0.0
2026-01-23 18:53:54.927384	335.1	11.1	-65.6	0.0
2026-01-23 18:53:57.182447	335.2	10.9	-58.1	0.0
2026-01-23 18:53:59.437649	335.3	10.7	-64.0	0.0
2026-01-23 18:54:01.695221	335.4	10.5	-67.3	0.0
2026-01-23 18:54:03.948692	335.6	10.3	-70.3	0.0
2026-01-23 18:54:06.204614	335.7	10.1	-72.5	0.0
#Closed at: 2026-01-23 18:43:37.162505