passes_logs/2026/01/23/planumMaritime01/planumMaritime01__20260123_162601_METOP-B_rec.log

#Pass ID: 20260123_162601_METOP-B
#Satellite: METOP-B
#Configuration: METOP-B
#Start time: 2026-01-23 16:26:06.466669

#LorettStation: 1.0.0 05.05.2024
#Station: planumMaritime01
#Location: 37.49445 lon 55.92918 lat
#TLE: 1 38771U 12049A   26022.97235704  .00000260  00000+0  13896-3 0  9998
#TLE: 2 38771  98.6736  77.2202 0003075  60.7389 299.4096 14.21426861692635

#Time	Az	El	Level	SNR
2026-01-23 16:26:08.642836	121.4	10.2	-75.6	0.0
2026-01-23 16:26:10.896548	121.3	10.4	-75.4	0.0
2026-01-23 16:26:13.150193	121.1	10.5	-74.6	0.0
2026-01-23 16:26:15.402912	120.9	10.7	-74.6	0.0
2026-01-23 16:26:17.654220	120.7	10.9	-73.0	0.0
2026-01-23 16:26:19.905035	120.5	11.1	-72.6	0.0
2026-01-23 16:26:22.154033	120.3	11.3	-73.6	0.0
2026-01-23 16:26:24.405451	120.1	11.4	-73.2	0.0
2026-01-23 16:26:26.662435	119.9	11.6	-73.2	0.0
2026-01-23 16:26:28.917289	119.7	11.8	-72.8	0.0
2026-01-23 16:26:31.168807	119.5	12.0	-72.8	0.7
2026-01-23 16:26:33.425678	119.3	12.2	-72.8	1.1
2026-01-23 16:26:35.680916	119.1	12.4	-74.2	0.8
2026-01-23 16:26:37.933362	118.9	12.6	-73.7	0.5
2026-01-23 16:26:40.185269	118.7	12.8	-73.3	0.0
2026-01-23 16:26:42.439195	118.4	13.0	-73.7	0.0
2026-01-23 16:26:44.694999	118.2	13.2	-73.2	0.9
2026-01-23 16:26:46.946625	118.0	13.4	-72.9	0.0
2026-01-23 16:26:49.203026	117.8	13.6	-73.3	0.0
2026-01-23 16:26:51.457813	117.5	13.8	-72.7	0.0
2026-01-23 16:26:53.709677	117.3	14.0	-72.2	0.0
2026-01-23 16:26:55.963780	117.0	14.2	-71.9	0.0
2026-01-23 16:26:58.215838	116.8	14.4	-73.0	0.0
2026-01-23 16:27:00.469469	116.6	14.6	-73.6	0.8
2026-01-23 16:27:02.722714	116.3	14.8	-72.8	0.0
2026-01-23 16:27:04.973241	116.1	15.0	-73.1	0.0
2026-01-23 16:27:07.225504	115.8	15.2	-72.9	0.0
2026-01-23 16:27:09.476384	115.5	15.4	-74.2	0.2
2026-01-23 16:27:11.730482	115.3	15.6	-72.5	0.0
2026-01-23 16:27:13.983060	115.0	15.8	-72.8	0.0
2026-01-23 16:27:16.236922	114.7	16.0	-73.6	1.5
2026-01-23 16:27:18.490089	114.5	16.2	-73.0	0.0
2026-01-23 16:27:20.746578	114.2	16.4	-73.2	0.2
2026-01-23 16:27:22.997978	113.9	16.7	-72.1	0.9
2026-01-23 16:27:25.253519	113.6	16.9	-73.0	1.0
2026-01-23 16:27:27.510494	113.3	17.1	-73.7	1.9
2026-01-23 16:27:29.761795	113.0	17.3	-71.4	0.0
2026-01-23 16:27:32.013910	112.7	17.5	-72.0	0.0
2026-01-23 16:27:34.264200	112.4	17.7	-72.1	0.0
2026-01-23 16:27:36.517518	112.1	18.0	-71.6	0.0
2026-01-23 16:27:38.770793	111.8	18.2	-72.6	0.0
2026-01-23 16:27:41.025020	111.5	18.4	-71.3	0.0
2026-01-23 16:27:43.276993	111.2	18.6	-71.8	0.0
2026-01-23 16:27:45.527602	110.8	18.9	-72.0	0.0
2026-01-23 16:27:47.780919	110.5	19.1	-72.8	2.7
2026-01-23 16:27:50.035886	110.2	19.3	-71.9	0.0
2026-01-23 16:27:52.289666	109.8	19.6	-71.4	0.0
2026-01-23 16:27:54.539888	109.5	19.8	-72.7	0.2
2026-01-23 16:27:56.795314	109.1	20.0	-72.6	0.9
2026-01-23 16:27:59.051006	108.7	20.2	-72.6	1.5
2026-01-23 16:28:01.302336	108.4	20.5	-72.4	3.7
2026-01-23 16:28:03.557398	108.0	20.7	-72.8	0.6
2026-01-23 16:28:05.809597	107.6	21.0	-72.0	2.1
2026-01-23 16:28:08.066675	107.2	21.2	-72.8	2.4
2026-01-23 16:28:10.321697	106.9	21.4	-72.8	4.1
2026-01-23 16:28:12.577808	106.5	21.7	-72.5	2.1
2026-01-23 16:28:14.831769	106.1	21.9	-72.1	1.7
2026-01-23 16:28:17.086314	105.7	22.1	-73.1	2.8
2026-01-23 16:28:19.335759	105.2	22.4	-71.9	0.0
2026-01-23 16:28:21.586770	104.8	22.6	-71.4	1.8
2026-01-23 16:28:23.841932	104.4	22.9	-72.1	1.7
2026-01-23 16:28:26.095130	104.0	23.1	-72.3	2.3
2026-01-23 16:28:28.346450	103.5	23.4	-72.0	2.2
2026-01-23 16:28:30.597192	103.1	23.6	-72.0	3.8
2026-01-23 16:28:32.850284	102.6	23.8	-71.8	2.1
2026-01-23 16:28:35.101007	102.2	24.1	-72.2	4.0
2026-01-23 16:28:37.352792	101.7	24.3	-71.8	3.2
2026-01-23 16:28:39.605027	101.2	24.6	-71.9	5.3
2026-01-23 16:28:41.856437	100.7	24.8	-70.9	0.0
2026-01-23 16:28:44.107057	100.2	25.1	-72.0	5.2
2026-01-23 16:28:46.362267	99.7	25.3	-71.7	0.0
2026-01-23 16:28:48.615144	99.2	25.5	-71.6	2.7
2026-01-23 16:28:50.863024	98.7	25.8	-71.9	6.1
2026-01-23 16:28:53.114040	98.2	26.0	-71.6	2.1
2026-01-23 16:28:55.364450	97.7	26.3	-72.5	4.4
2026-01-23 16:28:57.618876	97.1	26.5	-71.4	2.9
2026-01-23 16:28:59.872767	96.6	26.8	-72.7	3.4
2026-01-23 16:29:02.126226	96.0	27.0	-72.3	4.2
2026-01-23 16:29:04.377210	95.4	27.2	-72.1	3.3
2026-01-23 16:29:06.629392	94.9	27.5	-72.1	4.8
2026-01-23 16:29:08.881163	94.3	27.7	-71.9	4.2
2026-01-23 16:29:11.134628	93.7	28.0	-71.8	3.1
2026-01-23 16:29:13.390508	93.1	28.2	-71.5	2.4
2026-01-23 16:29:15.642911	92.5	28.4	-69.1	0.0
2026-01-23 16:29:17.893403	91.9	28.6	-69.9	0.0
2026-01-23 16:29:20.147584	91.2	28.9	-69.8	0.0
2026-01-23 16:29:22.399041	90.6	29.1	-70.5	2.1
2026-01-23 16:29:24.658034	90.0	29.3	-70.1	0.0
2026-01-23 16:29:26.910120	89.3	29.6	-70.8	3.2
2026-01-23 16:29:29.161467	88.6	29.8	-71.6	2.1
2026-01-23 16:29:31.413989	88.0	30.0	-67.8	0.0
2026-01-23 16:29:33.664375	87.3	30.2	-71.2	2.4
2026-01-23 16:29:35.917077	86.6	30.4	-70.3	0.0
2026-01-23 16:29:38.171630	85.9	30.6	-71.7	0.0
2026-01-23 16:29:40.421089	85.2	30.8	-68.8	0.0
2026-01-23 16:29:42.672769	84.5	31.0	-70.3	3.0
2026-01-23 16:29:44.925129	83.7	31.2	-70.1	2.8
2026-01-23 16:29:47.177295	83.0	31.4	-71.6	4.9
2026-01-23 16:29:49.432800	82.3	31.6	-71.0	4.7
2026-01-23 16:29:51.685775	81.5	31.8	-70.3	0.3
2026-01-23 16:29:53.937691	80.8	32.0	-69.5	1.7
2026-01-23 16:29:56.191463	80.0	32.2	-71.7	5.9
2026-01-23 16:29:58.442531	79.2	32.3	-70.1	1.9
2026-01-23 16:30:00.695223	78.4	32.5	-71.4	1.7
2026-01-23 16:30:02.950377	77.6	32.7	-70.1	4.4
2026-01-23 16:30:05.203709	76.8	32.8	-69.3	0.9
2026-01-23 16:30:07.456317	76.0	33.0	-70.8	4.3
2026-01-23 16:30:09.708192	75.2	33.1	-69.5	0.0
2026-01-23 16:30:11.959410	74.4	33.3	-68.8	0.6
2026-01-23 16:30:14.210006	73.5	33.4	-66.6	0.0
2026-01-23 16:30:16.463175	72.7	33.5	-69.3	0.0
2026-01-23 16:30:18.719691	71.9	33.6	-68.3	0.0
2026-01-23 16:30:20.976791	71.0	33.7	-67.2	0.0
2026-01-23 16:30:23.229372	70.1	33.9	-69.4	0.0
2026-01-23 16:30:25.482984	69.3	34.0	-68.6	0.0
2026-01-23 16:30:27.735931	68.4	34.0	-66.2	0.0
2026-01-23 16:30:29.988653	67.5	34.1	-67.0	0.0
2026-01-23 16:30:32.240948	66.7	34.2	-69.3	0.0
2026-01-23 16:30:34.491400	65.8	34.3	-66.8	0.0
2026-01-23 16:30:36.742768	64.9	34.3	-66.9	0.0
2026-01-23 16:30:38.994879	64.0	34.4	-68.0	0.0
2026-01-23 16:30:41.251144	63.1	34.4	-67.8	0.0
2026-01-23 16:30:43.505553	62.2	34.5	-67.2	0.0
2026-01-23 16:30:45.759057	61.3	34.5	-65.1	0.0
2026-01-23 16:30:48.013481	60.4	34.5	-67.1	0.0
2026-01-23 16:30:50.267072	59.5	34.6	-66.2	0.0
2026-01-23 16:30:52.520939	58.7	34.6	-65.7	0.0
2026-01-23 16:30:54.773945	57.8	34.6	-66.0	0.0
2026-01-23 16:30:57.029071	56.9	34.5	-66.3	0.0
2026-01-23 16:30:59.282958	56.0	34.5	-67.7	0.0
2026-01-23 16:31:01.536155	55.1	34.5	-68.0	1.0
2026-01-23 16:31:03.791831	54.2	34.5	-67.3	0.0
2026-01-23 16:31:06.047423	53.3	34.4	-65.6	0.0
2026-01-23 16:31:08.299237	52.4	34.4	-65.4	0.0
2026-01-23 16:31:10.550476	51.5	34.3	-64.7	0.0
2026-01-23 16:31:12.803938	50.6	34.3	-66.9	0.0
2026-01-23 16:31:15.056793	49.7	34.2	-68.1	0.0
2026-01-23 16:31:17.309245	48.9	34.1	-67.6	0.0
2026-01-23 16:31:19.564097	48.0	34.0	-67.4	0.0
2026-01-23 16:31:21.819054	47.1	33.9	-68.0	0.0
2026-01-23 16:31:24.073390	46.3	33.8	-66.5	0.0
2026-01-23 16:31:26.327246	45.4	33.7	-65.5	0.0
2026-01-23 16:31:28.579143	44.6	33.6	-64.7	0.0
2026-01-23 16:31:30.837915	43.7	33.5	-66.8	0.0
2026-01-23 16:31:33.092197	42.9	33.4	-65.1	0.0
2026-01-23 16:31:35.345979	42.1	33.2	-64.1	0.0
2026-01-23 16:31:37.597795	41.2	33.1	-64.5	0.0
2026-01-23 16:31:39.849699	40.4	33.0	-64.7	0.0
2026-01-23 16:31:42.104070	39.6	32.8	-65.8	0.0
2026-01-23 16:31:44.356767	38.8	32.7	-66.2	0.0
2026-01-23 16:31:46.610295	38.0	32.5	-64.3	0.0
2026-01-23 16:31:48.864451	37.2	32.3	-64.5	0.0
2026-01-23 16:31:51.117235	36.5	32.2	-64.4	0.0
2026-01-23 16:31:53.371133	35.7	32.0	-64.5	0.0
2026-01-23 16:31:55.624294	34.9	31.8	-64.9	0.0
2026-01-23 16:31:57.879388	34.2	31.6	-62.9	0.0
2026-01-23 16:32:00.130852	33.4	31.4	-63.8	0.0
2026-01-23 16:32:02.385212	32.7	31.2	-63.8	0.0
2026-01-23 16:32:04.638087	32.0	31.0	-64.2	0.0
2026-01-23 16:32:06.894043	31.3	30.8	-62.7	0.0
2026-01-23 16:32:09.149271	30.6	30.6	-60.4	0.0
2026-01-23 16:32:11.402135	29.9	30.4	-62.9	0.0
2026-01-23 16:32:13.658472	29.2	30.2	-61.0	0.0
2026-01-23 16:32:15.915409	28.5	30.0	-63.9	0.0
2026-01-23 16:32:18.167120	27.8	29.8	-64.1	0.0
2026-01-23 16:32:20.416812	27.2	29.5	-62.5	0.0
2026-01-23 16:32:22.670824	26.5	29.3	-60.8	0.0
2026-01-23 16:32:24.920829	25.9	29.1	-61.4	0.0
2026-01-23 16:32:27.174038	25.3	28.9	-63.0	0.0
2026-01-23 16:32:29.424975	24.6	28.6	-62.2	0.0
2026-01-23 16:32:31.677098	24.0	28.4	-62.5	0.0
2026-01-23 16:32:33.937531	23.4	28.2	-64.4	0.0
2026-01-23 16:32:36.189765	22.8	27.9	-61.8	0.0
2026-01-23 16:32:38.444235	22.2	27.7	-63.0	0.0
2026-01-23 16:32:40.699123	21.6	27.5	-62.4	0.0
2026-01-23 16:32:42.952800	21.1	27.2	-60.0	0.0
2026-01-23 16:32:45.208080	20.5	27.0	-62.1	0.0
2026-01-23 16:32:47.460767	20.0	26.8	-62.8	0.0
2026-01-23 16:32:49.715424	19.4	26.5	-63.1	0.0
2026-01-23 16:32:51.967080	18.9	26.3	-61.0	0.0
2026-01-23 16:32:54.221061	18.3	26.0	-62.9	0.0
2026-01-23 16:32:56.477975	17.8	25.8	-61.0	0.0
2026-01-23 16:32:58.732154	17.3	25.5	-61.6	0.0
2026-01-23 16:33:00.983665	16.8	25.3	-61.9	0.0
2026-01-23 16:33:03.240667	16.3	25.1	-61.7	0.0
2026-01-23 16:33:05.493360	15.8	24.8	-62.6	0.0
2026-01-23 16:33:07.748151	15.3	24.6	-61.0	0.0
2026-01-23 16:33:10.002825	14.9	24.3	-60.7	0.0
2026-01-23 16:33:12.258685	14.4	24.1	-60.9	0.0
2026-01-23 16:33:14.514429	13.9	23.8	-60.8	0.0
2026-01-23 16:33:16.767533	13.5	23.6	-59.0	0.0
2026-01-23 16:33:19.023227	13.0	23.4	-61.1	0.0
2026-01-23 16:33:21.275361	12.6	23.1	-60.2	0.0
2026-01-23 16:33:23.531064	12.2	22.9	-58.7	0.0
2026-01-23 16:33:25.785888	11.8	22.6	-60.4	0.0
2026-01-23 16:33:28.040090	11.3	22.4	-63.4	0.0
2026-01-23 16:33:30.294425	10.9	22.2	-63.9	0.0
2026-01-23 16:33:32.548732	10.5	21.9	-61.8	0.0
2026-01-23 16:33:34.803370	10.1	21.7	-64.2	0.0
2026-01-23 16:33:37.057236	9.7	21.4	-62.4	0.0
2026-01-23 16:33:39.310940	9.3	21.2	-63.0	0.0
2026-01-23 16:33:41.562778	9.0	21.0	-59.9	0.0
2026-01-23 16:33:43.815259	8.6	20.7	-61.0	0.0
2026-01-23 16:33:46.070552	8.2	20.5	-64.0	0.0
2026-01-23 16:33:48.326829	7.9	20.3	-63.0	0.0
2026-01-23 16:33:50.579321	7.5	20.0	-63.6	0.0
2026-01-23 16:33:52.834027	7.1	19.8	-63.0	0.0
2026-01-23 16:33:55.085567	6.8	19.6	-62.5	0.0
2026-01-23 16:33:57.339390	6.5	19.4	-62.2	0.0
2026-01-23 16:33:59.593435	6.1	19.1	-63.2	0.0
2026-01-23 16:34:01.846108	5.8	18.9	-63.0	0.0
2026-01-23 16:34:04.100928	5.5	18.7	-62.0	0.0
2026-01-23 16:34:06.354737	5.1	18.4	-63.5	0.0
2026-01-23 16:34:08.608510	4.8	18.2	-60.4	0.0
2026-01-23 16:34:10.860751	4.5	18.0	-63.4	0.0
2026-01-23 16:34:13.113969	4.2	17.8	-64.2	0.0
2026-01-23 16:34:15.366466	3.9	17.6	-65.4	0.0
2026-01-23 16:34:17.617787	3.6	17.3	-64.7	0.0
2026-01-23 16:34:19.868577	3.3	17.1	-63.8	0.0
2026-01-23 16:34:22.123044	3.0	16.9	-65.7	0.0
2026-01-23 16:34:24.374596	2.7	16.7	-64.7	0.0
2026-01-23 16:34:26.630987	2.5	16.5	-61.3	0.0
2026-01-23 16:34:28.884891	2.2	16.3	-63.7	0.0
2026-01-23 16:34:31.140849	1.9	16.1	-65.9	0.0
2026-01-23 16:34:33.395377	1.6	15.8	-65.4	0.0
2026-01-23 16:34:35.646393	1.4	15.6	-64.2	0.0
2026-01-23 16:34:37.902078	1.1	15.4	-65.1	0.0
2026-01-23 16:34:40.155929	0.9	15.2	-62.6	0.0
2026-01-23 16:34:42.411958	0.6	15.0	-64.7	0.0
2026-01-23 16:34:44.666969	0.4	14.8	-63.0	0.0
2026-01-23 16:34:46.919004	0.1	14.6	-64.5	0.0
2026-01-23 16:34:49.170553	359.9	14.4	-65.5	0.0
2026-01-23 16:34:51.426391	359.6	14.2	-67.0	0.0
2026-01-23 16:34:53.681020	359.4	14.0	-66.2	0.0
2026-01-23 16:34:55.936894	359.2	13.8	-65.3	0.0
2026-01-23 16:34:58.194731	358.9	13.6	-65.3	0.0
2026-01-23 16:35:00.447296	358.7	13.4	-64.1	0.0
2026-01-23 16:35:02.699110	358.5	13.2	-64.2	0.0
2026-01-23 16:35:04.954603	358.3	13.0	-66.9	0.0
2026-01-23 16:35:07.207216	358.0	12.8	-65.8	0.0
2026-01-23 16:35:09.459650	357.8	12.6	-65.9	0.0
2026-01-23 16:35:11.715068	357.6	12.4	-65.7	0.0
2026-01-23 16:35:13.969051	357.4	12.3	-65.2	0.0
2026-01-23 16:35:16.221287	357.2	12.1	-63.6	0.0
2026-01-23 16:35:18.474001	357.0	11.9	-65.9	0.0
2026-01-23 16:35:20.725938	356.8	11.7	-62.6	0.0
2026-01-23 16:35:22.978702	356.6	11.5	-61.8	0.0
2026-01-23 16:35:25.231383	356.4	11.3	-63.4	0.0
2026-01-23 16:35:27.486076	356.2	11.1	-61.9	0.0
2026-01-23 16:35:29.738385	356.0	11.0	-63.8	0.0
2026-01-23 16:35:31.990949	355.8	10.8	-62.6	0.0
2026-01-23 16:35:34.245199	355.7	10.6	-62.1	0.0
2026-01-23 16:35:36.496988	355.5	10.4	-64.0	0.0
2026-01-23 16:35:38.751442	355.3	10.2	-70.7	0.0
2026-01-23 16:35:41.008330	355.1	10.1	-74.1	0.0
#Closed at: 2026-01-23 16:26:01.471407