passes_logs/2026/01/23/planumMaritime01/planumMaritime01__20260123_115430_METEOR-M2_4_rec.log

#Pass ID: 20260123_115430_METEOR-M2 4
#Satellite: METEOR-M2 4
#Configuration: METEOR-M2 4
#Start time: 2026-01-23 11:54:35.367877

#LorettStation: 1.0.0 05.05.2024
#Station: planumMaritime01
#Location: 37.49445 lon 55.92918 lat
#TLE: 1 59051U 24039A   26022.29319476  .00000093  00000+0  61251-4 0  9991
#TLE: 2 59051  98.6827 343.5783 0006168 226.6585 133.4080 14.22408788 98527

#Time	Az	El	Level	SNR
2026-01-23 11:54:37.537533	181.8	10.2	-80.8	0.0
2026-01-23 11:54:39.792627	181.9	10.4	-79.7	0.0
2026-01-23 11:54:42.051800	182.0	10.6	-78.5	1.7
2026-01-23 11:54:44.310451	182.1	10.8	-77.1	4.5
2026-01-23 11:54:46.571209	182.2	11.0	-76.5	5.3
2026-01-23 11:54:48.825201	182.3	11.2	-76.0	5.8
2026-01-23 11:54:51.083446	182.4	11.4	-75.9	4.8
2026-01-23 11:54:53.345229	182.6	11.6	-75.1	6.4
2026-01-23 11:54:55.601282	182.7	11.8	-76.4	6.0
2026-01-23 11:54:57.858741	182.8	12.0	-76.7	5.3
2026-01-23 11:55:00.129298	182.9	12.2	-75.9	4.9
2026-01-23 11:55:02.407265	183.1	12.4	-75.9	6.5
2026-01-23 11:55:04.680410	183.2	12.6	-76.5	5.7
2026-01-23 11:55:06.955850	183.3	12.8	-76.5	5.7
2026-01-23 11:55:09.233315	183.4	13.0	-76.2	5.2
2026-01-23 11:55:11.510656	183.6	13.3	-76.3	6.9
2026-01-23 11:55:13.786284	183.7	13.5	-76.3	7.2
2026-01-23 11:55:16.064321	183.8	13.7	-76.3	6.8
2026-01-23 11:55:18.342815	184.0	13.9	-76.0	7.1
2026-01-23 11:55:20.617030	184.1	14.1	-75.9	3.9
2026-01-23 11:55:22.895695	184.3	14.4	-76.0	6.6
2026-01-23 11:55:25.169757	184.4	14.6	-76.2	7.3
2026-01-23 11:55:27.447286	184.5	14.8	-76.4	7.7
2026-01-23 11:55:29.729472	184.7	15.1	-75.7	6.7
2026-01-23 11:55:32.007309	184.8	15.3	-75.9	6.2
2026-01-23 11:55:34.286667	185.0	15.5	-76.0	7.4
2026-01-23 11:55:36.563940	185.1	15.8	-76.0	6.3
2026-01-23 11:55:38.839329	185.3	16.0	-76.0	6.3
2026-01-23 11:55:41.114682	185.5	16.3	-76.8	7.0
2026-01-23 11:55:43.390283	185.6	16.5	-76.7	6.2
2026-01-23 11:55:45.658430	185.8	16.8	-76.4	6.4
2026-01-23 11:55:47.924019	186.0	17.0	-76.3	7.2
2026-01-23 11:55:50.189456	186.1	17.3	-76.2	5.9
2026-01-23 11:55:52.455242	186.3	17.5	-76.2	5.6
2026-01-23 11:55:54.718673	186.5	17.8	-76.3	5.9
2026-01-23 11:55:56.984304	186.6	18.0	-76.3	6.3
2026-01-23 11:55:59.251760	186.8	18.3	-75.8	6.4
2026-01-23 11:56:01.516387	187.0	18.6	-76.7	7.6
2026-01-23 11:56:03.780218	187.2	18.8	-76.3	5.5
2026-01-23 11:56:06.041121	187.4	19.1	-76.1	6.1
2026-01-23 11:56:08.304370	187.6	19.4	-76.2	5.8
2026-01-23 11:56:10.568073	187.8	19.6	-75.8	7.1
2026-01-23 11:56:12.831242	188.0	19.9	-76.0	7.9
2026-01-23 11:56:15.090674	188.2	20.2	-75.8	6.9
2026-01-23 11:56:17.352184	188.4	20.5	-76.3	8.7
2026-01-23 11:56:19.618565	188.6	20.8	-75.9	6.4
2026-01-23 11:56:21.882085	188.8	21.0	-76.5	7.8
2026-01-23 11:56:24.154539	189.0	21.3	-76.4	7.4
2026-01-23 11:56:26.428627	189.3	21.6	-76.2	7.4
2026-01-23 11:56:28.702453	189.5	21.9	-76.3	6.6
2026-01-23 11:56:30.978383	189.7	22.2	-76.3	7.7
2026-01-23 11:56:33.255520	189.9	22.5	-75.1	4.9
2026-01-23 11:56:35.536628	190.2	22.9	-75.3	6.9
2026-01-23 11:56:37.813371	190.4	23.2	-76.5	7.5
2026-01-23 11:56:40.071542	190.7	23.5	-76.5	7.7
2026-01-23 11:56:42.330491	190.9	23.8	-76.1	7.5
2026-01-23 11:56:44.590207	191.2	24.1	-76.4	7.1
2026-01-23 11:56:46.851136	191.5	24.4	-76.4	6.3
2026-01-23 11:56:49.109932	191.7	24.8	-76.3	6.7
2026-01-23 11:56:51.366703	192.0	25.1	-76.5	7.3
2026-01-23 11:56:53.630348	192.3	25.4	-76.5	7.8
2026-01-23 11:56:55.888369	192.6	25.8	-76.4	7.9
2026-01-23 11:56:58.148424	192.9	26.1	-76.4	7.9
2026-01-23 11:57:00.405766	193.2	26.5	-76.0	6.0
2026-01-23 11:57:02.667394	193.5	26.8	-76.4	7.0
2026-01-23 11:57:04.942360	193.8	27.2	-76.5	8.3
2026-01-23 11:57:07.217780	194.1	27.5	-76.0	8.5
2026-01-23 11:57:09.490881	194.4	27.9	-76.8	9.7
2026-01-23 11:57:11.768318	194.8	28.2	-76.6	9.1
2026-01-23 11:57:14.045968	195.1	28.6	-76.8	8.5
2026-01-23 11:57:16.319014	195.4	29.0	-76.8	9.2
2026-01-23 11:57:18.592129	195.8	29.4	-77.0	8.8
2026-01-23 11:57:20.864496	196.2	29.7	-76.7	8.5
2026-01-23 11:57:23.140135	196.5	30.1	-77.0	9.0
2026-01-23 11:57:25.420250	196.9	30.5	-77.2	10.2
2026-01-23 11:57:27.694330	197.3	30.9	-77.1	9.7
2026-01-23 11:57:29.962978	197.7	31.3	-77.5	10.3
2026-01-23 11:57:32.234197	198.1	31.7	-77.3	10.7
2026-01-23 11:57:34.512064	198.6	32.1	-77.1	11.0
2026-01-23 11:57:36.785829	199.0	32.5	-77.5	10.6
2026-01-23 11:57:39.059970	199.4	32.9	-77.2	10.5
2026-01-23 11:57:41.330736	199.9	33.3	-77.4	11.4
2026-01-23 11:57:43.605713	200.3	33.8	-77.5	11.3
2026-01-23 11:57:45.879833	200.8	34.2	-77.3	11.0
2026-01-23 11:57:48.151178	201.3	34.6	-77.2	10.6
2026-01-23 11:57:50.424936	201.8	35.0	-77.3	11.5
2026-01-23 11:57:52.696742	202.3	35.5	-78.1	11.9
2026-01-23 11:57:54.963562	202.9	35.9	-77.8	12.4
2026-01-23 11:57:57.234122	203.4	36.3	-78.2	12.0
2026-01-23 11:57:59.505275	204.0	36.8	-77.9	12.4
2026-01-23 11:58:01.774222	204.5	37.2	-78.0	12.8
2026-01-23 11:58:04.048270	205.1	37.7	-77.9	12.9
2026-01-23 11:58:06.322220	205.7	38.1	-77.9	13.2
2026-01-23 11:58:08.590734	206.3	38.6	-78.2	12.5
2026-01-23 11:58:10.844625	207.0	39.0	-77.9	12.3
2026-01-23 11:58:13.112458	207.6	39.5	-78.0	13.0
2026-01-23 11:58:15.385428	208.3	40.0	-77.8	12.7
2026-01-23 11:58:17.653720	209.0	40.4	-78.1	12.8
2026-01-23 11:58:19.926262	209.7	40.9	-78.5	13.1
2026-01-23 11:58:22.194573	210.5	41.3	-78.5	12.1
2026-01-23 11:58:24.463373	211.2	41.8	-78.4	12.0
2026-01-23 11:58:26.740929	212.0	42.3	-78.4	12.0
2026-01-23 11:58:29.018061	212.8	42.7	-78.5	12.2
2026-01-23 11:58:31.299043	213.6	43.2	-78.4	11.6
2026-01-23 11:58:33.576413	214.5	43.7	-78.2	11.2
2026-01-23 11:58:35.853561	215.3	44.1	-79.0	11.5
2026-01-23 11:58:38.132428	216.2	44.6	-78.9	10.9
2026-01-23 11:58:40.403175	217.2	45.1	-79.1	11.1
2026-01-23 11:58:42.661380	218.1	45.5	-78.8	10.9
2026-01-23 11:58:44.923315	219.1	46.0	-79.1	10.6
2026-01-23 11:58:47.185568	220.1	46.4	-78.4	10.5
2026-01-23 11:58:49.443569	221.1	46.8	-78.9	11.0
2026-01-23 11:58:51.703936	222.2	47.3	-78.9	10.8
2026-01-23 11:58:53.966699	223.2	47.7	-79.3	9.9
2026-01-23 11:58:56.222019	224.4	48.1	-79.6	10.3
2026-01-23 11:58:58.478701	225.5	48.5	-79.6	10.7
2026-01-23 11:59:00.735271	226.7	48.9	-79.8	10.0
2026-01-23 11:59:02.995533	227.9	49.3	-79.5	8.8
2026-01-23 11:59:05.272335	229.1	49.7	-79.6	9.9
2026-01-23 11:59:07.546926	230.4	50.1	-80.2	10.5
2026-01-23 11:59:09.824132	231.7	50.5	-79.8	9.9
2026-01-23 11:59:12.101518	233.0	50.8	-79.9	10.0
2026-01-23 11:59:14.377715	234.4	51.1	-80.2	9.1
2026-01-23 11:59:16.651949	235.8	51.5	-80.3	10.8
2026-01-23 11:59:18.922620	237.2	51.8	-80.0	8.6
2026-01-23 11:59:21.187597	238.7	52.1	-80.0	9.6
2026-01-23 11:59:23.455349	240.2	52.3	-80.0	9.4
2026-01-23 11:59:25.720464	241.7	52.6	-79.4	9.6
2026-01-23 11:59:27.989225	243.2	52.8	-79.8	9.8
2026-01-23 11:59:30.262111	244.8	53.0	-80.0	8.4
2026-01-23 11:59:32.536704	246.3	53.2	-79.8	7.8
2026-01-23 11:59:34.814411	247.9	53.4	-80.5	7.3
2026-01-23 11:59:37.087579	249.6	53.5	-79.5	6.0
2026-01-23 11:59:39.357958	251.2	53.7	-80.0	7.6
2026-01-23 11:59:41.629392	252.8	53.8	-80.0	6.4
2026-01-23 11:59:43.896767	254.5	53.9	-80.2	8.3
2026-01-23 11:59:46.168463	256.1	53.9	-79.9	4.8
2026-01-23 11:59:48.444589	257.8	54.0	-80.3	5.1
2026-01-23 11:59:50.714372	259.5	54.0	-80.4	7.8
2026-01-23 11:59:52.984383	261.2	53.9	-79.3	5.3
2026-01-23 11:59:55.249232	262.8	53.9	-79.5	6.2
2026-01-23 11:59:57.515894	264.5	53.8	-78.7	1.6
2026-01-23 11:59:59.782737	266.1	53.8	-77.7	3.4
2026-01-23 12:00:02.047371	267.7	53.6	-77.2	3.1
2026-01-23 12:00:04.312029	269.4	53.5	-77.7	8.0
2026-01-23 12:00:06.582736	271.0	53.4	-77.8	4.7
2026-01-23 12:00:08.848935	272.6	53.2	-77.0	2.2
2026-01-23 12:00:11.113469	274.1	53.0	-76.5	3.5
2026-01-23 12:00:13.380182	275.7	52.8	-77.1	2.9
2026-01-23 12:00:15.645651	277.2	52.5	-77.7	0.0
2026-01-23 12:00:17.912032	278.7	52.3	-76.9	4.2
2026-01-23 12:00:20.181101	280.2	52.0	-76.3	0.0
2026-01-23 12:00:22.449582	281.6	51.7	-76.9	4.5
2026-01-23 12:00:24.717176	283.0	51.4	-77.2	2.8
2026-01-23 12:00:26.985453	284.4	51.1	-76.0	0.1
2026-01-23 12:00:29.256194	285.8	50.7	-75.4	1.7
2026-01-23 12:00:31.528600	287.1	50.4	-76.2	1.7
2026-01-23 12:00:33.805806	288.4	50.0	-75.0	0.0
2026-01-23 12:00:36.079901	289.7	49.6	-75.8	0.9
2026-01-23 12:00:38.354558	290.9	49.3	-76.1	3.3
2026-01-23 12:00:40.629341	292.1	48.9	-76.6	5.0
2026-01-23 12:00:42.903188	293.3	48.4	-75.3	2.3
2026-01-23 12:00:45.161308	294.4	48.0	-76.0	1.2
2026-01-23 12:00:47.416884	295.5	47.6	-74.6	2.4
2026-01-23 12:00:49.677137	296.6	47.2	-76.0	0.2
2026-01-23 12:00:51.933783	297.6	46.8	-76.6	3.5
2026-01-23 12:00:54.192581	298.6	46.3	-75.5	0.0
2026-01-23 12:00:56.448828	299.6	45.9	-76.2	2.5
2026-01-23 12:00:58.712298	300.6	45.4	-76.1	2.4
2026-01-23 12:01:00.971926	301.5	45.0	-77.5	4.8
2026-01-23 12:01:03.229516	302.4	44.5	-75.5	0.0
2026-01-23 12:01:05.486367	303.3	44.1	-76.3	2.0
2026-01-23 12:01:07.749110	304.2	43.6	-78.0	2.9
2026-01-23 12:01:10.020690	305.0	43.1	-76.4	2.2
2026-01-23 12:01:12.294420	305.8	42.7	-76.6	5.0
2026-01-23 12:01:14.570192	306.6	42.2	-75.9	0.9
2026-01-23 12:01:16.840956	307.4	41.8	-77.1	5.6
2026-01-23 12:01:19.113470	308.2	41.3	-75.0	3.5
2026-01-23 12:01:21.389045	308.9	40.8	-75.8	0.0
2026-01-23 12:01:23.661782	309.6	40.4	-75.3	2.3
2026-01-23 12:01:25.939255	310.3	39.9	-76.2	6.0
2026-01-23 12:01:28.218550	311.0	39.5	-75.4	0.0
2026-01-23 12:01:30.489605	311.6	39.0	-74.8	0.0
2026-01-23 12:01:32.759954	312.2	38.5	-74.8	0.0
2026-01-23 12:01:35.031544	312.9	38.1	-75.0	1.4
2026-01-23 12:01:37.305270	313.5	37.6	-77.0	7.3
2026-01-23 12:01:39.583737	314.0	37.2	-75.4	2.1
2026-01-23 12:01:41.858359	314.6	36.8	-76.1	6.0
2026-01-23 12:01:44.133507	315.2	36.3	-74.8	2.8
2026-01-23 12:01:46.411548	315.7	35.9	-75.0	5.4
2026-01-23 12:01:48.686304	316.2	35.4	-76.2	5.2
2026-01-23 12:01:50.960667	316.7	35.0	-74.2	5.8
2026-01-23 12:01:53.237289	317.2	34.6	-75.4	1.5
2026-01-23 12:01:55.508220	317.7	34.2	-72.8	5.6
2026-01-23 12:01:57.779530	318.2	33.7	-74.6	3.5
2026-01-23 12:02:00.051101	318.7	33.3	-75.3	3.4
2026-01-23 12:02:02.325382	319.1	32.9	-72.6	0.1
2026-01-23 12:02:04.598096	319.6	32.5	-75.5	6.0
2026-01-23 12:02:06.868392	320.0	32.1	-74.9	3.1
2026-01-23 12:02:09.140994	320.4	31.7	-73.7	1.2
2026-01-23 12:02:11.412878	320.8	31.3	-74.6	4.4
2026-01-23 12:02:13.684293	321.2	30.9	-75.0	3.6
2026-01-23 12:02:15.950346	321.6	30.5	-74.8	3.0
2026-01-23 12:02:18.215692	322.0	30.1	-72.0	0.0
2026-01-23 12:02:20.483663	322.4	29.8	-74.4	1.9
2026-01-23 12:02:22.748736	322.7	29.4	-74.2	2.8
2026-01-23 12:02:25.013722	323.1	29.0	-74.5	3.8
2026-01-23 12:02:27.281325	323.4	28.6	-73.1	0.0
2026-01-23 12:02:29.550002	323.8	28.3	-75.0	1.8
2026-01-23 12:02:31.826406	324.1	27.9	-75.0	2.0
2026-01-23 12:02:34.097225	324.4	27.6	-73.1	0.0
2026-01-23 12:02:36.374236	324.7	27.2	-74.8	1.5
2026-01-23 12:02:38.646338	325.0	26.8	-74.3	0.0
2026-01-23 12:02:40.921455	325.4	26.5	-73.1	0.0
2026-01-23 12:02:43.195226	325.7	26.2	-72.8	0.0
2026-01-23 12:02:45.463919	325.9	25.8	-74.4	0.0
2026-01-23 12:02:47.716791	326.2	25.5	-66.6	0.0
2026-01-23 12:02:49.971817	326.5	25.1	-71.8	0.0
2026-01-23 12:02:52.228222	326.8	24.8	-73.7	0.1
2026-01-23 12:02:54.481626	327.0	24.5	-73.6	0.0
2026-01-23 12:02:56.740356	327.3	24.2	-73.5	0.0
2026-01-23 12:02:58.997455	327.6	23.9	-72.2	0.0
2026-01-23 12:03:01.254542	327.8	23.5	-71.4	0.0
2026-01-23 12:03:03.513143	328.1	23.2	-72.1	0.0
2026-01-23 12:03:05.772885	328.3	22.9	-72.6	0.0
2026-01-23 12:03:08.031926	328.6	22.6	-72.0	0.0
2026-01-23 12:03:10.291428	328.8	22.3	-72.2	0.0
2026-01-23 12:03:12.559536	329.0	22.0	-73.4	0.0
2026-01-23 12:03:14.829408	329.2	21.7	-70.7	0.0
2026-01-23 12:03:17.095861	329.5	21.4	-72.0	0.0
2026-01-23 12:03:19.364393	329.7	21.1	-70.9	0.0
2026-01-23 12:03:21.631203	329.9	20.9	-71.1	0.0
2026-01-23 12:03:23.897743	330.1	20.6	-70.6	0.0
2026-01-23 12:03:26.164668	330.3	20.3	-69.9	0.0
2026-01-23 12:03:28.433196	330.5	20.0	-70.1	0.0
2026-01-23 12:03:30.707520	330.7	19.7	-71.4	0.0
2026-01-23 12:03:32.983317	330.9	19.5	-70.6	0.0
2026-01-23 12:03:35.255054	331.1	19.2	-69.6	0.0
2026-01-23 12:03:37.529349	331.3	18.9	-71.7	0.0
2026-01-23 12:03:39.805402	331.5	18.7	-69.2	0.0
2026-01-23 12:03:42.074857	331.7	18.4	-69.7	0.0
2026-01-23 12:03:44.344763	331.9	18.1	-69.7	0.0
2026-01-23 12:03:46.616323	332.0	17.9	-70.3	0.0
2026-01-23 12:03:48.887335	332.2	17.6	-67.9	0.0
2026-01-23 12:03:51.158740	332.4	17.4	-69.6	0.0
2026-01-23 12:03:53.426869	332.6	17.1	-69.2	0.0
2026-01-23 12:03:55.700333	332.7	16.9	-68.7	0.0
2026-01-23 12:03:57.972578	332.9	16.6	-67.6	0.0
2026-01-23 12:04:00.246007	333.1	16.4	-66.1	0.0
2026-01-23 12:04:02.512420	333.2	16.1	-68.7	0.0
2026-01-23 12:04:04.780252	333.4	15.9	-69.5	0.0
2026-01-23 12:04:07.043120	333.5	15.7	-68.2	0.0
2026-01-23 12:04:09.311129	333.7	15.4	-69.6	0.0
2026-01-23 12:04:11.578368	333.8	15.2	-70.9	0.0
2026-01-23 12:04:13.845825	334.0	15.0	-68.0	0.0
2026-01-23 12:04:16.119597	334.1	14.7	-69.5	0.0
2026-01-23 12:04:18.391224	334.3	14.5	-71.8	0.0
2026-01-23 12:04:20.666340	334.4	14.3	-71.5	0.0
2026-01-23 12:04:22.938859	334.6	14.1	-73.4	0.0
2026-01-23 12:04:25.213370	334.7	13.8	-72.9	0.0
2026-01-23 12:04:27.485475	334.8	13.6	-70.2	0.0
2026-01-23 12:04:29.759296	335.0	13.4	-72.7	0.0
2026-01-23 12:04:32.037445	335.1	13.2	-71.5	0.0
2026-01-23 12:04:34.310466	335.2	13.0	-70.0	0.0
2026-01-23 12:04:36.587792	335.4	12.7	-72.0	0.0
2026-01-23 12:04:38.862393	335.5	12.5	-74.0	0.0
2026-01-23 12:04:41.141327	335.6	12.3	-73.3	0.0
2026-01-23 12:04:43.415409	335.7	12.1	-73.3	0.0
2026-01-23 12:04:45.685657	335.9	11.9	-74.3	0.0
2026-01-23 12:04:47.961809	336.0	11.7	-72.4	0.0
2026-01-23 12:04:50.217984	336.1	11.5	-73.6	0.0
2026-01-23 12:04:52.474768	336.2	11.3	-73.7	0.0
2026-01-23 12:04:54.730050	336.3	11.1	-72.5	0.0
2026-01-23 12:04:56.984154	336.4	10.9	-71.1	0.0
2026-01-23 12:04:59.239020	336.6	10.7	-69.8	0.0
2026-01-23 12:05:01.493223	336.7	10.5	-71.2	0.0
2026-01-23 12:05:03.748640	336.8	10.3	-76.6	0.0
2026-01-23 12:05:06.003831	336.9	10.1	-78.8	0.0
#Closed at: 2026-01-23 11:54:30.373447