passes_logs/2026/01/23/planumMaritime01/planumMaritime01__20260123_085347_METOP-C_rec.log

#Pass ID: 20260123_085347_METOP-C
#Satellite: METOP-C
#Configuration: METOP-C
#Start time: 2026-01-23 08:53:52.912850

#LorettStation: 1.0.0 05.05.2024
#Station: planumMaritime01
#Location: 37.49445 lon 55.92918 lat
#TLE: 1 43689U 18087A   26022.22459080  .00000298  00000+0  15592-3 0  9999
#TLE: 2 43689  98.6865  84.3613 0000931 169.4045 190.7152 14.21502507374096

#Time	Az	El	Level	SNR
2026-01-23 08:53:55.077681	5.1	10.2	-63.5	0.0
2026-01-23 08:53:57.331071	4.9	10.3	-64.6	0.0
2026-01-23 08:53:59.584159	4.7	10.5	-62.3	0.0
2026-01-23 08:54:01.836219	4.5	10.7	-61.8	0.0
2026-01-23 08:54:04.088227	4.4	10.9	-61.1	0.0
2026-01-23 08:54:06.342872	4.2	11.1	-60.8	0.0
2026-01-23 08:54:08.595264	4.0	11.3	-59.5	0.0
2026-01-23 08:54:10.846388	3.8	11.4	-59.9	0.0
2026-01-23 08:54:13.096472	3.6	11.6	-58.9	0.0
2026-01-23 08:54:15.353232	3.4	11.8	-61.4	0.0
2026-01-23 08:54:17.608850	3.2	12.0	-62.1	0.0
2026-01-23 08:54:19.862971	3.0	12.2	-64.2	0.0
2026-01-23 08:54:22.116511	2.8	12.4	-61.5	0.0
2026-01-23 08:54:24.368847	2.6	12.6	-58.5	0.0
2026-01-23 08:54:26.624093	2.4	12.8	-64.9	0.0
2026-01-23 08:54:28.878982	2.2	13.0	-64.8	0.0
2026-01-23 08:54:31.131906	2.0	13.2	-59.0	0.0
2026-01-23 08:54:33.388840	1.7	13.3	-62.0	0.0
2026-01-23 08:54:35.640437	1.5	13.5	-62.1	0.0
2026-01-23 08:54:37.891994	1.3	13.7	-63.0	0.0
2026-01-23 08:54:40.145307	1.1	13.9	-63.1	0.0
2026-01-23 08:54:42.396718	0.8	14.1	-62.7	0.0
2026-01-23 08:54:44.650840	0.6	14.3	-63.8	0.0
2026-01-23 08:54:46.901476	0.4	14.5	-65.7	0.0
2026-01-23 08:54:49.155360	0.1	14.8	-64.9	0.0
2026-01-23 08:54:51.408686	359.9	15.0	-62.2	0.0
2026-01-23 08:54:53.662033	359.6	15.2	-62.2	0.0
2026-01-23 08:54:55.917772	359.4	15.4	-64.3	0.0
2026-01-23 08:54:58.173352	359.1	15.6	-63.3	0.0
2026-01-23 08:55:00.428591	358.9	15.8	-63.7	0.0
2026-01-23 08:55:02.679074	358.6	16.0	-64.8	0.0
2026-01-23 08:55:04.932920	358.3	16.2	-61.5	0.0
2026-01-23 08:55:07.185709	358.1	16.4	-63.0	0.0
2026-01-23 08:55:09.441562	357.8	16.6	-64.5	0.0
2026-01-23 08:55:11.694054	357.5	16.9	-63.6	0.0
2026-01-23 08:55:13.948187	357.2	17.1	-66.4	0.0
2026-01-23 08:55:16.201778	357.0	17.3	-64.6	0.0
2026-01-23 08:55:18.452946	356.7	17.5	-62.2	0.0
2026-01-23 08:55:20.707699	356.4	17.7	-67.7	0.0
2026-01-23 08:55:22.962043	356.1	18.0	-63.7	0.0
2026-01-23 08:55:25.218411	355.8	18.2	-64.0	0.0
2026-01-23 08:55:27.471382	355.5	18.4	-64.5	0.0
2026-01-23 08:55:29.727565	355.1	18.6	-63.0	0.0
2026-01-23 08:55:31.981721	354.8	18.9	-60.4	0.0
2026-01-23 08:55:34.238935	354.5	19.1	-63.0	0.0
2026-01-23 08:55:36.495786	354.2	19.3	-63.6	0.0
2026-01-23 08:55:38.750702	353.8	19.6	-63.8	0.0
2026-01-23 08:55:41.005317	353.5	19.8	-63.2	0.0
2026-01-23 08:55:43.258092	353.2	20.0	-63.9	0.0
2026-01-23 08:55:45.514044	352.8	20.3	-63.4	0.0
2026-01-23 08:55:47.768478	352.5	20.5	-63.9	0.0
2026-01-23 08:55:50.021713	352.1	20.7	-63.6	0.0
2026-01-23 08:55:52.272510	351.7	21.0	-64.1	0.0
2026-01-23 08:55:54.525215	351.4	21.2	-64.0	0.0
2026-01-23 08:55:56.777982	351.0	21.4	-63.9	0.0
2026-01-23 08:55:59.029998	350.6	21.7	-65.8	0.0
2026-01-23 08:56:01.283819	350.2	21.9	-64.9	0.0
2026-01-23 08:56:03.537774	349.8	22.2	-64.6	0.0
2026-01-23 08:56:05.790275	349.4	22.4	-66.3	0.0
2026-01-23 08:56:08.046260	349.0	22.6	-61.6	0.0
2026-01-23 08:56:10.305433	348.6	22.9	-63.5	0.0
2026-01-23 08:56:12.558936	348.2	23.1	-64.7	0.0
2026-01-23 08:56:14.813205	347.7	23.4	-64.5	0.0
2026-01-23 08:56:17.066627	347.3	23.6	-64.8	0.0
2026-01-23 08:56:19.319031	346.9	23.9	-63.8	0.0
2026-01-23 08:56:21.570200	346.4	24.1	-64.6	0.0
2026-01-23 08:56:23.822931	345.9	24.4	-65.0	0.0
2026-01-23 08:56:26.073948	345.5	24.6	-63.5	0.0
2026-01-23 08:56:28.327129	345.0	24.9	-64.8	0.0
2026-01-23 08:56:30.581247	344.5	25.1	-64.1	0.0
2026-01-23 08:56:32.835289	344.0	25.4	-64.8	0.0
2026-01-23 08:56:35.091209	343.5	25.6	-65.8	0.0
2026-01-23 08:56:37.344851	343.0	25.9	-66.3	0.0
2026-01-23 08:56:39.602939	342.5	26.1	-66.0	0.0
2026-01-23 08:56:41.852681	342.0	26.4	-64.5	0.0
2026-01-23 08:56:44.104136	341.5	26.6	-64.0	0.0
2026-01-23 08:56:46.362190	340.9	26.8	-66.0	0.0
2026-01-23 08:56:48.612798	340.4	27.1	-62.8	0.0
2026-01-23 08:56:50.862999	339.8	27.3	-66.7	0.0
2026-01-23 08:56:53.113392	339.3	27.6	-65.3	0.0
2026-01-23 08:56:55.365160	338.7	27.8	-65.5	0.0
2026-01-23 08:56:57.618077	338.1	28.1	-65.7	0.0
2026-01-23 08:56:59.872440	337.5	28.3	-64.4	0.0
2026-01-23 08:57:02.125609	336.9	28.5	-67.6	0.0
2026-01-23 08:57:04.380174	336.3	28.8	-67.0	0.0
2026-01-23 08:57:06.635618	335.7	29.0	-66.7	0.0
2026-01-23 08:57:08.888533	335.1	29.3	-65.7	0.0
2026-01-23 08:57:11.139858	334.5	29.5	-67.7	0.0
2026-01-23 08:57:13.392821	333.8	29.7	-67.5	0.0
2026-01-23 08:57:15.648269	333.2	30.0	-68.7	0.0
2026-01-23 08:57:17.897566	332.5	30.2	-67.3	0.0
2026-01-23 08:57:20.153385	331.8	30.4	-69.4	0.0
2026-01-23 08:57:22.407087	331.1	30.6	-69.3	0.4
2026-01-23 08:57:24.661762	330.5	30.8	-67.5	0.0
2026-01-23 08:57:26.915765	329.8	31.1	-68.6	0.0
2026-01-23 08:57:29.168563	329.0	31.3	-69.0	0.0
2026-01-23 08:57:31.423459	328.3	31.5	-68.3	0.0
2026-01-23 08:57:33.676247	327.6	31.7	-65.1	0.0
2026-01-23 08:57:35.930084	326.9	31.9	-67.6	0.0
2026-01-23 08:57:38.181699	326.1	32.1	-64.3	0.0
2026-01-23 08:57:40.432073	325.4	32.3	-68.4	0.0
2026-01-23 08:57:42.683919	324.6	32.5	-67.2	0.0
2026-01-23 08:57:44.938434	323.8	32.7	-66.3	0.0
2026-01-23 08:57:47.190926	323.0	32.8	-67.1	0.0
2026-01-23 08:57:49.442885	322.2	33.0	-66.1	0.6
2026-01-23 08:57:51.692829	321.4	33.2	-68.9	1.3
2026-01-23 08:57:53.949624	320.6	33.3	-69.6	1.6
2026-01-23 08:57:56.201778	319.8	33.5	-68.0	0.8
2026-01-23 08:57:58.455516	319.0	33.6	-71.3	5.7
2026-01-23 08:58:00.708026	318.2	33.8	-70.9	4.8
2026-01-23 08:58:02.958496	317.3	33.9	-70.9	2.0
2026-01-23 08:58:05.211972	316.5	34.1	-71.2	2.1
2026-01-23 08:58:07.464262	315.6	34.2	-70.9	5.8
2026-01-23 08:58:09.714006	314.8	34.3	-68.8	0.0
2026-01-23 08:58:11.964237	313.9	34.4	-67.5	1.8
2026-01-23 08:58:14.220081	313.0	34.5	-70.8	6.3
2026-01-23 08:58:16.473446	312.1	34.6	-70.1	2.2
2026-01-23 08:58:18.725798	311.3	34.7	-69.9	0.3
2026-01-23 08:58:20.979402	310.4	34.8	-70.2	3.4
2026-01-23 08:58:23.232947	309.5	34.9	-68.2	0.0
2026-01-23 08:58:25.487789	308.6	34.9	-70.1	0.0
2026-01-23 08:58:27.739857	307.7	35.0	-69.6	3.0
2026-01-23 08:58:29.991058	306.8	35.0	-69.5	0.0
2026-01-23 08:58:32.243169	305.9	35.1	-67.4	0.0
2026-01-23 08:58:34.497551	305.0	35.1	-69.2	1.3
2026-01-23 08:58:36.748067	304.1	35.1	-68.3	2.3
2026-01-23 08:58:39.000436	303.1	35.2	-68.2	0.0
2026-01-23 08:58:41.253222	302.2	35.2	-65.2	0.0
2026-01-23 08:58:43.505726	301.3	35.2	-68.7	1.4
2026-01-23 08:58:45.756818	300.4	35.2	-67.1	0.0
2026-01-23 08:58:48.008391	299.5	35.2	-70.0	4.2
2026-01-23 08:58:50.260323	298.6	35.1	-68.8	1.2
2026-01-23 08:58:52.515454	297.7	35.1	-70.8	0.4
2026-01-23 08:58:54.769053	296.8	35.1	-69.0	2.3
2026-01-23 08:58:57.022758	295.9	35.0	-70.8	3.4
2026-01-23 08:58:59.272183	295.0	35.0	-68.5	0.6
2026-01-23 08:59:01.523225	294.1	34.9	-70.5	4.4
2026-01-23 08:59:03.776648	293.2	34.8	-68.4	0.0
2026-01-23 08:59:06.028508	292.3	34.8	-69.5	3.2
2026-01-23 08:59:08.283068	291.4	34.7	-71.1	6.0
2026-01-23 08:59:10.534798	290.5	34.6	-69.5	4.1
2026-01-23 08:59:12.785703	289.6	34.5	-70.9	3.4
2026-01-23 08:59:15.038502	288.8	34.4	-72.7	5.1
2026-01-23 08:59:17.290103	287.9	34.3	-71.5	7.2
2026-01-23 08:59:19.542854	287.0	34.1	-72.3	4.7
2026-01-23 08:59:21.796415	286.2	34.0	-70.3	5.5
2026-01-23 08:59:24.048524	285.3	33.9	-72.5	6.5
2026-01-23 08:59:26.300960	284.5	33.7	-71.5	5.0
2026-01-23 08:59:28.553640	283.7	33.6	-70.6	5.7
2026-01-23 08:59:30.810545	282.8	33.4	-72.8	4.2
2026-01-23 08:59:33.063501	282.0	33.3	-71.7	7.1
2026-01-23 08:59:35.318571	281.2	33.1	-70.9	3.8
2026-01-23 08:59:37.573123	280.4	32.9	-71.6	5.4
2026-01-23 08:59:39.828854	279.6	32.7	-72.1	7.4
2026-01-23 08:59:42.085121	278.8	32.6	-71.7	6.6
2026-01-23 08:59:44.338584	278.1	32.4	-71.1	5.0
2026-01-23 08:59:46.589241	277.3	32.2	-71.1	4.4
2026-01-23 08:59:48.843348	276.6	32.0	-71.3	3.9
2026-01-23 08:59:51.096581	275.8	31.8	-70.9	5.8
2026-01-23 08:59:53.349320	275.1	31.6	-71.1	5.6
2026-01-23 08:59:55.605005	274.3	31.4	-72.0	5.8
2026-01-23 08:59:57.858004	273.6	31.2	-72.3	6.2
2026-01-23 09:00:00.111022	272.9	31.0	-71.6	3.7
2026-01-23 09:00:02.366053	272.2	30.7	-71.9	5.6
2026-01-23 09:00:04.618369	271.5	30.5	-71.8	3.0
2026-01-23 09:00:06.869752	270.8	30.3	-71.2	6.0
2026-01-23 09:00:09.120441	270.2	30.1	-72.6	8.3
2026-01-23 09:00:11.370112	269.5	29.8	-71.5	7.7
2026-01-23 09:00:13.622457	268.9	29.6	-71.8	8.5
2026-01-23 09:00:15.874368	268.2	29.4	-71.6	8.0
2026-01-23 09:00:18.127598	267.6	29.1	-70.8	7.2
2026-01-23 09:00:20.380305	267.0	28.9	-72.4	7.2
2026-01-23 09:00:22.633136	266.4	28.7	-72.3	5.8
2026-01-23 09:00:24.881929	265.7	28.4	-72.8	6.4
2026-01-23 09:00:27.134625	265.2	28.2	-72.7	4.4
2026-01-23 09:00:29.387621	264.6	27.9	-71.7	2.1
2026-01-23 09:00:31.642265	264.0	27.7	-72.0	4.1
2026-01-23 09:00:33.895003	263.4	27.5	-72.5	5.2
2026-01-23 09:00:36.145843	262.9	27.2	-72.7	7.1
2026-01-23 09:00:38.396789	262.3	27.0	-72.6	6.6
2026-01-23 09:00:40.647791	261.8	26.7	-72.9	6.2
2026-01-23 09:00:42.898011	261.2	26.5	-72.9	4.7
2026-01-23 09:00:45.150682	260.7	26.2	-73.1	6.8
2026-01-23 09:00:47.402830	260.2	26.0	-72.3	6.4
2026-01-23 09:00:49.652337	259.7	25.7	-72.6	6.9
2026-01-23 09:00:51.901798	259.2	25.5	-73.0	7.1
2026-01-23 09:00:54.152934	258.7	25.2	-72.8	7.4
2026-01-23 09:00:56.406566	258.2	25.0	-73.0	7.0
2026-01-23 09:00:58.658170	257.7	24.7	-72.9	6.1
2026-01-23 09:01:00.911797	257.2	24.5	-73.1	6.6
2026-01-23 09:01:03.165049	256.8	24.2	-73.3	7.6
2026-01-23 09:01:05.416327	256.3	24.0	-73.6	6.9
2026-01-23 09:01:07.669168	255.9	23.7	-73.5	8.5
2026-01-23 09:01:09.929180	255.4	23.5	-72.9	7.0
2026-01-23 09:01:12.181011	255.0	23.2	-73.6	6.7
2026-01-23 09:01:14.435078	254.6	23.0	-73.7	6.3
2026-01-23 09:01:16.687185	254.1	22.7	-74.1	7.9
2026-01-23 09:01:18.937665	253.7	22.5	-73.7	6.2
2026-01-23 09:01:21.192453	253.3	22.2	-73.5	5.4
2026-01-23 09:01:23.446023	252.9	22.0	-73.3	7.2
2026-01-23 09:01:25.699707	252.5	21.8	-74.2	7.8
2026-01-23 09:01:27.954700	252.1	21.5	-73.8	5.1
2026-01-23 09:01:30.206770	251.7	21.3	-74.0	6.7
2026-01-23 09:01:32.458916	251.4	21.0	-74.1	8.0
2026-01-23 09:01:34.711413	251.0	20.8	-73.9	7.7
2026-01-23 09:01:36.961212	250.6	20.6	-73.9	5.4
2026-01-23 09:01:39.212380	250.3	20.3	-73.8	5.6
2026-01-23 09:01:41.462631	249.9	20.1	-73.5	5.8
2026-01-23 09:01:43.715153	249.6	19.9	-74.0	6.1
2026-01-23 09:01:45.965412	249.2	19.6	-74.1	4.1
2026-01-23 09:01:48.216085	248.9	19.4	-74.0	4.8
2026-01-23 09:01:50.467945	248.6	19.2	-74.1	7.1
2026-01-23 09:01:52.721762	248.2	18.9	-74.0	5.3
2026-01-23 09:01:54.972910	247.9	18.7	-74.5	5.7
2026-01-23 09:01:57.223488	247.6	18.5	-74.1	6.1
2026-01-23 09:01:59.473960	247.3	18.2	-74.0	6.0
2026-01-23 09:02:01.725043	247.0	18.0	-74.2	6.2
2026-01-23 09:02:03.976811	246.7	17.8	-74.4	6.1
2026-01-23 09:02:06.233365	246.4	17.6	-74.3	5.9
2026-01-23 09:02:08.486744	246.1	17.4	-73.8	4.5
2026-01-23 09:02:10.739114	245.8	17.1	-74.0	4.5
2026-01-23 09:02:12.992142	245.5	16.9	-73.7	3.6
2026-01-23 09:02:15.247664	245.2	16.7	-73.6	3.5
2026-01-23 09:02:17.500381	244.9	16.5	-73.3	0.0
2026-01-23 09:02:19.756813	244.6	16.3	-73.5	0.0
2026-01-23 09:02:22.009138	244.4	16.0	-73.4	0.0
2026-01-23 09:02:24.265955	244.1	15.8	-73.7	0.0
2026-01-23 09:02:26.515793	243.8	15.6	-73.4	0.0
2026-01-23 09:02:28.769815	243.6	15.4	-73.3	0.0
2026-01-23 09:02:31.020594	243.3	15.2	-73.0	0.0
2026-01-23 09:02:33.276585	243.1	15.0	-73.3	0.0
2026-01-23 09:02:35.528733	242.8	14.8	-73.3	0.0
2026-01-23 09:02:37.782006	242.6	14.6	-73.2	0.0
2026-01-23 09:02:40.035171	242.3	14.4	-73.0	0.0
2026-01-23 09:02:42.285678	242.1	14.2	-73.0	0.0
2026-01-23 09:02:44.540736	241.9	14.0	-73.0	0.0
2026-01-23 09:02:46.794020	241.6	13.8	-72.6	0.0
2026-01-23 09:02:49.044897	241.4	13.6	-72.7	0.0
2026-01-23 09:02:51.296620	241.2	13.4	-72.5	0.0
2026-01-23 09:02:53.551382	241.0	13.2	-73.1	0.0
2026-01-23 09:02:55.802179	240.8	13.0	-72.0	0.0
2026-01-23 09:02:58.056467	240.5	12.8	-72.5	0.0
2026-01-23 09:03:00.308770	240.3	12.6	-71.7	0.0
2026-01-23 09:03:02.562078	240.1	12.4	-71.7	0.0
2026-01-23 09:03:04.814285	239.9	12.2	-71.4	0.0
2026-01-23 09:03:07.065555	239.7	12.0	-71.4	0.0
2026-01-23 09:03:09.317984	239.5	11.8	-71.9	0.0
2026-01-23 09:03:11.573051	239.3	11.6	-71.6	0.0
2026-01-23 09:03:13.823516	239.1	11.5	-73.3	0.0
2026-01-23 09:03:16.074229	238.9	11.3	-72.4	0.0
2026-01-23 09:03:18.325636	238.7	11.1	-70.3	0.0
2026-01-23 09:03:20.577433	238.5	10.9	-73.4	0.0
2026-01-23 09:03:22.829011	238.3	10.7	-75.3	0.0
2026-01-23 09:03:25.082243	238.2	10.5	-75.6	0.0
2026-01-23 09:03:27.333969	238.0	10.4	-77.0	0.0
2026-01-23 09:03:29.585024	237.8	10.2	-77.2	0.0
#Closed at: 2026-01-23 08:53:47.919807