passes_logs/2026/01/23/planumMaritime01/planumMaritime01__20260123_063521_METOP-B_rec.log

#Pass ID: 20260123_063521_METOP-B
#Satellite: METOP-B
#Configuration: METOP-B
#Start time: 2026-01-23 06:35:26.951144

#LorettStation: 1.0.0 05.05.2024
#Station: planumMaritime01
#Location: 37.49445 lon 55.92918 lat
#TLE: 1 38771U 12049A   26022.26844106  .00000290  00000+0  15256-3 0  9997
#TLE: 2 38771  98.6737  76.5287 0003095  62.1759 297.9732 14.21426510692530

#Time	Az	El	Level	SNR
2026-01-23 06:35:29.142713	24.6	10.2	-69.5	0.0
2026-01-23 06:35:31.396950	24.7	10.4	-65.5	0.0
2026-01-23 06:35:33.648555	24.9	10.6	-62.4	0.0
2026-01-23 06:35:35.902512	25.0	10.7	-61.0	0.0
2026-01-23 06:35:38.155264	25.1	10.9	-57.5	0.0
2026-01-23 06:35:40.408024	25.3	11.1	-54.0	0.0
2026-01-23 06:35:42.664946	25.4	11.3	-58.7	0.0
2026-01-23 06:35:44.917696	25.5	11.5	-57.7	0.0
2026-01-23 06:35:47.170711	25.7	11.7	-60.0	0.0
2026-01-23 06:35:49.423433	25.8	11.9	-57.9	0.0
2026-01-23 06:35:51.675887	26.0	12.1	-59.0	0.0
2026-01-23 06:35:53.929190	26.1	12.3	-56.5	0.0
2026-01-23 06:35:56.183597	26.3	12.5	-58.0	0.0
2026-01-23 06:35:58.437008	26.4	12.7	-57.3	0.0
2026-01-23 06:36:00.690510	26.6	12.9	-58.4	0.0
2026-01-23 06:36:02.942284	26.7	13.1	-55.4	0.0
2026-01-23 06:36:05.197104	26.9	13.4	-56.9	0.0
2026-01-23 06:36:07.452457	27.0	13.6	-57.0	0.0
2026-01-23 06:36:09.703820	27.2	13.8	-59.6	0.0
2026-01-23 06:36:11.956710	27.4	14.0	-57.1	0.0
2026-01-23 06:36:14.211223	27.5	14.2	-56.1	0.0
2026-01-23 06:36:16.465186	27.7	14.4	-55.8	0.0
2026-01-23 06:36:18.716602	27.9	14.6	-54.6	0.0
2026-01-23 06:36:20.970532	28.0	14.9	-54.6	0.0
2026-01-23 06:36:23.222717	28.2	15.1	-56.3	0.0
2026-01-23 06:36:25.476826	28.4	15.3	-51.6	0.0
2026-01-23 06:36:27.729795	28.6	15.5	-55.5	0.0
2026-01-23 06:36:29.981751	28.8	15.8	-59.0	0.0
2026-01-23 06:36:32.235381	28.9	16.0	-53.0	0.0
2026-01-23 06:36:34.488385	29.1	16.2	-59.8	0.0
2026-01-23 06:36:36.742863	29.3	16.5	-57.7	0.0
2026-01-23 06:36:38.993142	29.5	16.7	-56.2	0.0
2026-01-23 06:36:41.243797	29.7	17.0	-57.6	0.0
2026-01-23 06:36:43.498834	29.9	17.2	-55.6	0.0
2026-01-23 06:36:45.751553	30.1	17.4	-57.6	0.0
2026-01-23 06:36:48.004974	30.3	17.7	-59.6	0.0
2026-01-23 06:36:50.258156	30.5	17.9	-58.8	0.0
2026-01-23 06:36:52.509877	30.7	18.2	-59.5	0.0
2026-01-23 06:36:54.764759	31.0	18.4	-61.1	0.0
2026-01-23 06:36:57.019901	31.2	18.7	-57.9	0.0
2026-01-23 06:36:59.272557	31.4	18.9	-54.8	0.0
2026-01-23 06:37:01.525274	31.6	19.2	-58.2	0.0
2026-01-23 06:37:03.778185	31.9	19.5	-57.1	0.0
2026-01-23 06:37:06.031949	32.1	19.7	-60.3	0.0
2026-01-23 06:37:08.286696	32.3	20.0	-58.7	0.0
2026-01-23 06:37:10.539543	32.6	20.3	-62.1	0.0
2026-01-23 06:37:12.793363	32.8	20.5	-60.9	0.0
2026-01-23 06:37:15.048406	33.1	20.8	-58.4	0.0
2026-01-23 06:37:17.302869	33.3	21.1	-59.7	0.0
2026-01-23 06:37:19.551353	33.6	21.4	-60.0	0.0
2026-01-23 06:37:21.802008	33.8	21.6	-61.1	0.0
2026-01-23 06:37:24.055452	34.1	21.9	-61.7	0.0
2026-01-23 06:37:26.309186	34.4	22.2	-61.0	0.0
2026-01-23 06:37:28.569234	34.7	22.5	-58.5	0.0
2026-01-23 06:37:30.824021	35.0	22.8	-58.2	0.0
2026-01-23 06:37:33.079693	35.2	23.1	-59.3	0.0
2026-01-23 06:37:35.334654	35.5	23.4	-62.9	0.0
2026-01-23 06:37:37.586477	35.8	23.7	-61.7	0.0
2026-01-23 06:37:39.842598	36.1	24.0	-58.6	0.0
2026-01-23 06:37:42.092369	36.4	24.3	-64.4	0.0
2026-01-23 06:37:44.341416	36.8	24.6	-63.7	0.0
2026-01-23 06:37:46.592860	37.1	24.9	-60.6	0.0
2026-01-23 06:37:48.839869	37.4	25.2	-65.2	0.0
2026-01-23 06:37:51.089278	37.8	25.5	-63.2	0.0
2026-01-23 06:37:53.340362	38.1	25.9	-65.4	0.0
2026-01-23 06:37:55.591476	38.4	26.2	-67.6	0.0
2026-01-23 06:37:57.843766	38.8	26.5	-65.4	0.0
2026-01-23 06:38:00.095031	39.2	26.8	-65.0	0.0
2026-01-23 06:38:02.347878	39.5	27.2	-63.7	0.0
2026-01-23 06:38:04.598262	39.9	27.5	-66.5	0.0
2026-01-23 06:38:06.855090	40.3	27.8	-66.3	0.0
2026-01-23 06:38:09.107956	40.7	28.2	-66.8	0.0
2026-01-23 06:38:11.360643	41.1	28.5	-65.1	0.0
2026-01-23 06:38:13.613211	41.5	28.9	-66.0	0.0
2026-01-23 06:38:15.864703	41.9	29.2	-64.9	0.0
2026-01-23 06:38:18.115347	42.4	29.6	-67.6	0.0
2026-01-23 06:38:20.367326	42.8	29.9	-68.0	0.0
2026-01-23 06:38:22.620979	43.2	30.3	-66.8	0.0
2026-01-23 06:38:24.874378	43.7	30.6	-66.8	0.0
2026-01-23 06:38:27.128014	44.2	31.0	-67.1	0.0
2026-01-23 06:38:29.381828	44.6	31.3	-67.2	0.0
2026-01-23 06:38:31.635365	45.1	31.7	-67.7	0.0
2026-01-23 06:38:33.885837	45.6	32.1	-65.6	0.0
2026-01-23 06:38:36.137889	46.1	32.4	-65.9	0.0
2026-01-23 06:38:38.391203	46.7	32.8	-66.2	0.0
2026-01-23 06:38:40.644071	47.2	33.2	-68.3	1.1
2026-01-23 06:38:42.895754	47.7	33.6	-65.0	0.0
2026-01-23 06:38:45.150542	48.3	33.9	-66.7	0.0
2026-01-23 06:38:47.398639	48.9	34.3	-67.3	0.0
2026-01-23 06:38:49.650634	49.5	34.7	-65.8	0.0
2026-01-23 06:38:51.902920	50.1	35.1	-65.0	0.0
2026-01-23 06:38:54.154021	50.7	35.5	-67.4	1.9
2026-01-23 06:38:56.405563	51.3	35.8	-66.2	0.0
2026-01-23 06:38:58.656001	51.9	36.2	-69.0	4.7
2026-01-23 06:39:00.907573	52.6	36.6	-69.6	5.7
2026-01-23 06:39:03.158761	53.3	37.0	-67.8	1.8
2026-01-23 06:39:05.412255	54.0	37.4	-68.6	2.9
2026-01-23 06:39:07.665095	54.7	37.8	-68.9	4.6
2026-01-23 06:39:09.917845	55.4	38.2	-68.1	4.3
2026-01-23 06:39:12.169768	56.1	38.5	-68.9	5.1
2026-01-23 06:39:14.421477	56.9	38.9	-68.8	5.1
2026-01-23 06:39:16.675932	57.6	39.3	-68.2	3.7
2026-01-23 06:39:18.928598	58.4	39.7	-66.7	1.5
2026-01-23 06:39:21.180876	59.2	40.1	-67.7	3.4
2026-01-23 06:39:23.432688	60.1	40.5	-67.6	1.7
2026-01-23 06:39:25.684410	60.9	40.8	-70.4	5.7
2026-01-23 06:39:27.939332	61.8	41.2	-68.3	3.0
2026-01-23 06:39:30.191088	62.7	41.6	-68.7	2.4
2026-01-23 06:39:32.442502	63.6	41.9	-67.7	0.0
2026-01-23 06:39:34.694256	64.5	42.3	-68.4	1.4
2026-01-23 06:39:36.949702	65.5	42.6	-67.4	0.9
2026-01-23 06:39:39.203787	66.4	43.0	-68.7	4.4
2026-01-23 06:39:41.453739	67.4	43.3	-69.4	3.8
2026-01-23 06:39:43.705241	68.4	43.7	-68.3	5.2
2026-01-23 06:39:45.956280	69.5	44.0	-68.5	3.3
2026-01-23 06:39:48.207242	70.5	44.3	-67.7	5.2
2026-01-23 06:39:50.465260	71.6	44.6	-68.0	1.1
2026-01-23 06:39:52.716640	72.7	44.9	-66.5	0.0
2026-01-23 06:39:54.968663	73.8	45.2	-66.4	0.6
2026-01-23 06:39:57.219281	75.0	45.5	-68.3	4.8
2026-01-23 06:39:59.469376	76.1	45.8	-68.3	5.8
2026-01-23 06:40:01.722129	77.3	46.1	-67.7	2.0
2026-01-23 06:40:03.976921	78.5	46.3	-67.3	4.0
2026-01-23 06:40:06.227030	79.7	46.5	-67.5	1.3
2026-01-23 06:40:08.479140	80.9	46.8	-68.3	2.8
2026-01-23 06:40:10.731565	82.2	47.0	-67.7	2.5
2026-01-23 06:40:12.983069	83.4	47.2	-67.1	3.8
2026-01-23 06:40:15.234761	84.7	47.4	-66.3	0.0
2026-01-23 06:40:17.485013	86.0	47.5	-67.5	1.8
2026-01-23 06:40:19.735437	87.3	47.7	-68.6	2.3
2026-01-23 06:40:21.985998	88.7	47.8	-68.6	0.6
2026-01-23 06:40:24.236248	90.0	48.0	-68.9	4.0
2026-01-23 06:40:26.488603	91.3	48.1	-69.5	3.0
2026-01-23 06:40:28.740862	92.7	48.2	-69.5	2.6
2026-01-23 06:40:30.993115	94.1	48.2	-69.2	3.6
2026-01-23 06:40:33.245975	95.4	48.3	-68.6	2.6
2026-01-23 06:40:35.499317	96.8	48.3	-69.0	2.2
2026-01-23 06:40:37.753023	98.2	48.4	-68.4	2.9
2026-01-23 06:40:40.003615	99.6	48.4	-67.0	0.0
2026-01-23 06:40:42.255580	100.9	48.4	-68.3	4.0
2026-01-23 06:40:44.508047	102.3	48.3	-68.7	1.2
2026-01-23 06:40:46.762866	103.7	48.3	-69.8	5.9
2026-01-23 06:40:49.016469	105.1	48.2	-68.2	0.0
2026-01-23 06:40:51.269019	106.4	48.1	-70.2	6.0
2026-01-23 06:40:53.522679	107.8	48.0	-67.9	3.0
2026-01-23 06:40:55.773932	109.1	47.9	-69.2	4.9
2026-01-23 06:40:58.023593	110.4	47.8	-68.4	2.8
2026-01-23 06:41:00.276102	111.8	47.7	-68.8	2.8
2026-01-23 06:41:02.528824	113.1	47.5	-70.7	7.1
2026-01-23 06:41:04.779821	114.4	47.3	-70.0	6.9
2026-01-23 06:41:07.035333	115.7	47.1	-71.0	6.7
2026-01-23 06:41:09.287863	116.9	46.9	-70.9	6.3
2026-01-23 06:41:11.539722	118.2	46.7	-70.3	8.0
2026-01-23 06:41:13.795165	119.4	46.5	-70.3	6.0
2026-01-23 06:41:16.047970	120.6	46.2	-70.6	7.9
2026-01-23 06:41:18.297872	121.8	46.0	-71.1	7.9
2026-01-23 06:41:20.551215	123.0	45.7	-71.0	6.3
2026-01-23 06:41:22.804096	124.1	45.4	-70.7	9.6
2026-01-23 06:41:25.055071	125.3	45.1	-70.8	9.0
2026-01-23 06:41:27.306577	126.4	44.8	-71.1	7.3
2026-01-23 06:41:29.557087	127.5	44.5	-70.9	9.5
2026-01-23 06:41:31.807850	128.5	44.2	-71.5	10.2
2026-01-23 06:41:34.059840	129.6	43.9	-71.2	7.6
2026-01-23 06:41:36.311546	130.6	43.5	-71.1	8.3
2026-01-23 06:41:38.566353	131.6	43.2	-71.5	8.3
2026-01-23 06:41:40.819389	132.6	42.9	-71.7	8.6
2026-01-23 06:41:43.068850	133.6	42.5	-71.5	7.3
2026-01-23 06:41:45.320757	134.5	42.1	-72.2	6.0
2026-01-23 06:41:47.574504	135.4	41.8	-72.4	8.7
2026-01-23 06:41:49.825966	136.3	41.4	-72.0	6.7
2026-01-23 06:41:52.078577	137.2	41.1	-71.7	6.9
2026-01-23 06:41:54.330861	138.1	40.7	-71.5	4.4
2026-01-23 06:41:56.584054	138.9	40.3	-71.6	5.5
2026-01-23 06:41:58.837489	139.8	39.9	-72.6	7.7
2026-01-23 06:42:01.088362	140.6	39.5	-72.3	7.0
2026-01-23 06:42:03.340325	141.3	39.2	-72.1	5.4
2026-01-23 06:42:05.587131	142.1	38.8	-72.1	6.7
2026-01-23 06:42:07.837954	142.9	38.4	-72.1	8.6
2026-01-23 06:42:10.089207	143.6	38.0	-71.8	8.7
2026-01-23 06:42:12.341587	144.3	37.6	-71.6	9.0
2026-01-23 06:42:14.594982	145.0	37.2	-71.6	7.5
2026-01-23 06:42:16.848679	145.7	36.8	-71.6	8.6
2026-01-23 06:42:19.099833	146.4	36.4	-71.9	7.6
2026-01-23 06:42:21.351231	147.0	36.1	-71.7	7.9
2026-01-23 06:42:23.602038	147.7	35.7	-72.2	8.4
2026-01-23 06:42:25.853722	148.3	35.3	-71.6	8.8
2026-01-23 06:42:28.105624	148.9	34.9	-72.1	8.3
2026-01-23 06:42:30.357806	149.5	34.5	-71.8	7.7
2026-01-23 06:42:32.611552	150.1	34.1	-72.4	8.2
2026-01-23 06:42:34.863867	150.6	33.8	-72.5	9.1
2026-01-23 06:42:37.116629	151.2	33.4	-72.3	7.3
2026-01-23 06:42:39.366552	151.7	33.0	-72.4	8.7
2026-01-23 06:42:41.618742	152.3	32.6	-72.3	8.1
2026-01-23 06:42:43.868881	152.8	32.3	-71.8	7.7
2026-01-23 06:42:46.121654	153.3	31.9	-73.0	8.8
2026-01-23 06:42:48.375638	153.8	31.5	-71.6	5.1
2026-01-23 06:42:50.627335	154.3	31.2	-72.2	6.4
2026-01-23 06:42:52.878151	154.7	30.8	-72.8	7.4
2026-01-23 06:42:55.131620	155.2	30.4	-73.0	6.6
2026-01-23 06:42:57.388945	155.7	30.1	-70.0	2.4
2026-01-23 06:42:59.638552	156.1	29.7	-71.7	6.0
2026-01-23 06:43:01.890347	156.5	29.4	-72.1	6.2
2026-01-23 06:43:04.138919	157.0	29.0	-71.9	5.4
2026-01-23 06:43:06.390265	157.4	28.7	-72.2	7.3
2026-01-23 06:43:08.643595	157.8	28.3	-70.7	1.5
2026-01-23 06:43:10.898209	158.2	28.0	-72.2	7.4
2026-01-23 06:43:13.152830	158.6	27.6	-72.0	4.1
2026-01-23 06:43:15.404649	159.0	27.3	-71.7	6.1
2026-01-23 06:43:17.657305	159.3	27.0	-71.9	3.9
2026-01-23 06:43:19.907734	159.7	26.6	-72.3	4.8
2026-01-23 06:43:22.161484	160.1	26.3	-71.9	6.6
2026-01-23 06:43:24.415735	160.4	26.0	-71.8	5.2
2026-01-23 06:43:26.666141	160.8	25.7	-71.5	2.0
2026-01-23 06:43:28.918191	161.1	25.3	-72.0	5.7
2026-01-23 06:43:31.170399	161.4	25.0	-72.6	6.4
2026-01-23 06:43:33.421243	161.8	24.7	-72.5	5.6
2026-01-23 06:43:35.672160	162.1	24.4	-72.0	5.7
2026-01-23 06:43:37.923949	162.4	24.1	-72.0	3.0
2026-01-23 06:43:40.176645	162.7	23.8	-72.2	5.6
2026-01-23 06:43:42.431789	163.0	23.5	-72.4	4.6
2026-01-23 06:43:44.685927	163.3	23.2	-71.6	3.2
2026-01-23 06:43:46.934922	163.6	22.9	-72.2	3.4
2026-01-23 06:43:49.187191	163.9	22.6	-72.4	4.3
2026-01-23 06:43:51.440483	164.2	22.3	-72.7	3.0
2026-01-23 06:43:53.693876	164.4	22.0	-72.3	3.4
2026-01-23 06:43:55.945990	164.7	21.7	-72.4	4.6
2026-01-23 06:43:58.198588	165.0	21.4	-72.1	3.3
2026-01-23 06:44:00.453535	165.2	21.1	-72.5	3.2
2026-01-23 06:44:02.707044	165.5	20.9	-71.8	2.6
2026-01-23 06:44:04.958736	165.8	20.6	-72.2	2.8
2026-01-23 06:44:07.208908	166.0	20.3	-72.7	4.3
2026-01-23 06:44:09.461367	166.2	20.0	-72.7	2.3
2026-01-23 06:44:11.712753	166.5	19.8	-72.4	3.4
2026-01-23 06:44:13.966084	166.7	19.5	-73.2	3.0
2026-01-23 06:44:16.219700	167.0	19.2	-73.1	3.8
2026-01-23 06:44:18.472575	167.2	19.0	-73.4	3.3
2026-01-23 06:44:20.728150	167.4	18.7	-71.3	0.7
2026-01-23 06:44:22.980392	167.6	18.5	-72.6	2.6
2026-01-23 06:44:25.232746	167.8	18.2	-72.7	1.4
2026-01-23 06:44:27.488839	168.1	18.0	-73.1	2.1
2026-01-23 06:44:29.740498	168.3	17.7	-72.6	2.7
2026-01-23 06:44:31.991723	168.5	17.5	-73.3	4.5
2026-01-23 06:44:34.243988	168.7	17.2	-73.7	3.6
2026-01-23 06:44:36.495807	168.9	17.0	-73.1	3.5
2026-01-23 06:44:38.749613	169.1	16.7	-73.7	3.2
2026-01-23 06:44:41.001197	169.3	16.5	-74.3	3.0
2026-01-23 06:44:43.253964	169.5	16.3	-74.4	2.5
2026-01-23 06:44:45.506919	169.7	16.0	-74.3	3.5
2026-01-23 06:44:47.759711	169.8	15.8	-74.7	4.7
2026-01-23 06:44:50.011327	170.0	15.6	-74.3	3.6
2026-01-23 06:44:52.263212	170.2	15.3	-74.5	3.7
2026-01-23 06:44:54.511877	170.4	15.1	-74.4	3.0
2026-01-23 06:44:56.765044	170.6	14.9	-74.3	4.2
2026-01-23 06:44:59.023754	170.7	14.6	-74.7	4.9
2026-01-23 06:45:01.274693	170.9	14.4	-74.9	4.4
2026-01-23 06:45:03.527611	171.1	14.2	-75.1	3.9
2026-01-23 06:45:05.781345	171.2	14.0	-74.5	3.5
2026-01-23 06:45:08.031896	171.4	13.8	-74.0	3.5
2026-01-23 06:45:10.287948	171.6	13.6	-74.6	3.4
2026-01-23 06:45:12.540542	171.7	13.3	-74.2	3.0
2026-01-23 06:45:14.789888	171.9	13.1	-73.9	3.5
2026-01-23 06:45:17.041917	172.0	12.9	-74.4	3.6
2026-01-23 06:45:19.294789	172.2	12.7	-73.7	3.1
2026-01-23 06:45:21.546643	172.3	12.5	-73.8	2.7
2026-01-23 06:45:23.800992	172.5	12.3	-73.9	3.6
2026-01-23 06:45:26.052457	172.6	12.1	-73.4	1.2
2026-01-23 06:45:28.303960	172.8	11.9	-72.9	0.0
2026-01-23 06:45:30.556855	172.9	11.7	-74.1	0.5
2026-01-23 06:45:32.809055	173.0	11.5	-73.8	0.3
2026-01-23 06:45:35.065123	173.2	11.3	-73.6	0.0
2026-01-23 06:45:37.320407	173.3	11.1	-74.4	0.0
2026-01-23 06:45:39.573021	173.5	10.9	-75.2	3.3
2026-01-23 06:45:41.827490	173.6	10.7	-73.2	0.0
2026-01-23 06:45:44.081193	173.7	10.5	-73.7	0.0
2026-01-23 06:45:46.331586	173.9	10.3	-76.7	0.0
2026-01-23 06:45:48.582517	174.0	10.1	-80.5	0.0
#Closed at: 2026-01-23 06:35:21.958465