passes_logs/2026/01/23/planumMaritime01/planumMaritime01__20260123_180530_METOP-B_rec.log

#Pass ID: 20260123_180530_METOP-B
#Satellite: METOP-B
#Configuration: METOP-B
#Start time: 2026-01-23 18:05:35.407499

#LorettStation: 1.0.0 05.05.2024
#Station: planumMaritime01
#Location: 37.49445 lon 55.92918 lat
#TLE: 1 38771U 12049A   26022.97235704  .00000260  00000+0  13896-3 0  9998
#TLE: 2 38771  98.6736  77.2202 0003075  60.7389 299.4096 14.21426861692635

#Time	Az	El	Level	SNR
2026-01-23 18:05:37.581709	181.2	10.2	-72.9	0.0
2026-01-23 18:05:39.834711	181.4	10.4	-71.6	0.0
2026-01-23 18:05:42.089412	181.5	10.6	-71.4	0.0
2026-01-23 18:05:44.340085	181.6	10.8	-71.0	0.0
2026-01-23 18:05:46.592324	181.7	11.0	-71.3	0.0
2026-01-23 18:05:48.845629	181.8	11.2	-70.8	0.0
2026-01-23 18:05:51.099687	181.9	11.4	-70.8	0.0
2026-01-23 18:05:53.354620	182.0	11.6	-70.3	0.0
2026-01-23 18:05:55.611326	182.1	11.8	-71.1	0.0
2026-01-23 18:05:57.863864	182.3	12.0	-71.0	0.0
2026-01-23 18:06:00.116814	182.4	12.2	-71.6	0.0
2026-01-23 18:06:02.371617	182.5	12.4	-71.6	0.2
2026-01-23 18:06:04.626411	182.6	12.6	-71.3	0.0
2026-01-23 18:06:06.881137	182.7	12.8	-70.9	0.0
2026-01-23 18:06:09.134886	182.9	13.0	-71.4	0.0
2026-01-23 18:06:11.390127	183.0	13.3	-71.3	0.0
2026-01-23 18:06:13.643874	183.1	13.5	-71.0	0.0
2026-01-23 18:06:15.897534	183.3	13.7	-70.4	0.0
2026-01-23 18:06:18.148818	183.4	13.9	-70.4	0.0
2026-01-23 18:06:20.401997	183.5	14.1	-69.6	0.0
2026-01-23 18:06:22.658161	183.7	14.4	-69.9	0.0
2026-01-23 18:06:24.913670	183.8	14.6	-70.4	0.2
2026-01-23 18:06:27.166824	183.9	14.8	-68.9	0.0
2026-01-23 18:06:29.423922	184.1	15.0	-68.8	0.0
2026-01-23 18:06:31.679523	184.2	15.3	-69.8	0.5
2026-01-23 18:06:33.933047	184.4	15.5	-70.6	1.1
2026-01-23 18:06:36.188285	184.5	15.8	-70.1	0.0
2026-01-23 18:06:38.441536	184.7	16.0	-71.0	0.0
2026-01-23 18:06:40.695091	184.8	16.2	-70.5	0.0
2026-01-23 18:06:42.951231	185.0	16.5	-69.9	0.0
2026-01-23 18:06:45.204106	185.1	16.7	-70.3	0.0
2026-01-23 18:06:47.456124	185.3	17.0	-70.5	0.0
2026-01-23 18:06:49.717349	185.5	17.2	-69.9	0.0
2026-01-23 18:06:51.969115	185.6	17.5	-69.6	0.0
2026-01-23 18:06:54.221600	185.8	17.7	-69.1	0.0
2026-01-23 18:06:56.475158	186.0	18.0	-69.2	0.0
2026-01-23 18:06:58.729035	186.2	18.3	-69.9	0.0
2026-01-23 18:07:00.988293	186.3	18.5	-69.6	0.0
2026-01-23 18:07:03.241985	186.5	18.8	-69.4	0.0
2026-01-23 18:07:05.496519	186.7	19.1	-69.4	0.0
2026-01-23 18:07:07.751292	186.9	19.3	-69.3	0.0
2026-01-23 18:07:10.004140	187.1	19.6	-69.6	0.0
2026-01-23 18:07:12.258812	187.3	19.9	-68.9	0.0
2026-01-23 18:07:14.514137	187.5	20.2	-69.3	0.0
2026-01-23 18:07:16.767263	187.7	20.5	-69.3	0.0
2026-01-23 18:07:19.022713	187.9	20.7	-68.9	0.0
2026-01-23 18:07:21.275103	188.1	21.0	-69.4	0.0
2026-01-23 18:07:23.530653	188.3	21.3	-69.3	0.0
2026-01-23 18:07:25.787678	188.5	21.6	-68.8	0.0
2026-01-23 18:07:28.042464	188.7	21.9	-68.9	0.0
2026-01-23 18:07:30.296521	189.0	22.2	-69.6	0.0
2026-01-23 18:07:32.547315	189.2	22.5	-68.3	0.0
2026-01-23 18:07:34.800122	189.4	22.8	-68.9	0.0
2026-01-23 18:07:37.052393	189.7	23.1	-68.7	0.0
2026-01-23 18:07:39.306694	189.9	23.5	-68.8	0.0
2026-01-23 18:07:41.559215	190.1	23.8	-68.5	0.0
2026-01-23 18:07:43.811393	190.4	24.1	-69.5	0.0
2026-01-23 18:07:46.063449	190.7	24.4	-69.1	0.0
2026-01-23 18:07:48.316367	190.9	24.7	-69.5	1.3
2026-01-23 18:07:50.570062	191.2	25.1	-69.0	0.4
2026-01-23 18:07:52.824801	191.5	25.4	-68.8	0.0
2026-01-23 18:07:55.079241	191.7	25.8	-69.4	2.7
2026-01-23 18:07:57.333184	192.0	26.1	-69.0	0.0
2026-01-23 18:07:59.588908	192.3	26.4	-68.8	0.0
2026-01-23 18:08:01.845266	192.6	26.8	-69.3	0.0
2026-01-23 18:08:04.098650	192.9	27.1	-69.7	0.0
2026-01-23 18:08:06.352336	193.2	27.5	-69.2	0.0
2026-01-23 18:08:08.605531	193.5	27.9	-70.3	4.2
2026-01-23 18:08:10.858966	193.9	28.2	-70.2	1.4
2026-01-23 18:08:13.116579	194.2	28.6	-69.6	1.4
2026-01-23 18:08:15.369068	194.5	29.0	-70.1	1.0
2026-01-23 18:08:17.623726	194.9	29.4	-70.7	1.2
2026-01-23 18:08:19.874780	195.2	29.7	-70.8	0.8
2026-01-23 18:08:22.128526	195.6	30.1	-71.3	5.6
2026-01-23 18:08:24.382589	196.0	30.5	-71.0	4.9
2026-01-23 18:08:26.635753	196.4	30.9	-71.0	4.5
2026-01-23 18:08:28.888392	196.7	31.3	-71.1	3.7
2026-01-23 18:08:31.140594	197.1	31.7	-71.3	4.7
2026-01-23 18:08:33.391470	197.5	32.1	-72.0	8.2
2026-01-23 18:08:35.642492	198.0	32.5	-71.9	6.0
2026-01-23 18:08:37.897879	198.4	32.9	-71.3	3.2
2026-01-23 18:08:40.151340	198.8	33.3	-71.3	5.0
2026-01-23 18:08:42.404583	199.3	33.8	-71.6	6.9
2026-01-23 18:08:44.659444	199.8	34.2	-71.6	8.6
2026-01-23 18:08:46.911141	200.2	34.6	-71.9	8.7
2026-01-23 18:08:49.162696	200.7	35.0	-72.0	8.3
2026-01-23 18:08:51.413682	201.2	35.5	-71.8	8.2
2026-01-23 18:08:53.664298	201.7	35.9	-71.8	9.8
2026-01-23 18:08:55.914465	202.3	36.4	-72.0	10.5
2026-01-23 18:08:58.168226	202.8	36.8	-72.3	10.1
2026-01-23 18:09:00.420772	203.4	37.3	-72.2	11.1
2026-01-23 18:09:02.674669	203.9	37.7	-72.7	11.4
2026-01-23 18:09:04.925981	204.5	38.2	-73.1	11.7
2026-01-23 18:09:07.177102	205.1	38.6	-73.0	11.4
2026-01-23 18:09:09.429011	205.7	39.1	-73.3	11.3
2026-01-23 18:09:11.682788	206.4	39.6	-73.6	11.6
2026-01-23 18:09:13.934632	207.0	40.0	-73.7	11.7
2026-01-23 18:09:16.185689	207.7	40.5	-73.4	11.3
2026-01-23 18:09:18.439431	208.4	41.0	-73.2	11.0
2026-01-23 18:09:20.693405	209.1	41.4	-73.0	10.8
2026-01-23 18:09:22.947242	209.9	41.9	-73.3	10.7
2026-01-23 18:09:25.202706	210.6	42.4	-73.0	11.3
2026-01-23 18:09:27.457392	211.4	42.8	-72.6	10.7
2026-01-23 18:09:29.709978	212.2	43.3	-72.1	10.7
2026-01-23 18:09:31.965392	213.1	43.8	-72.4	11.0
2026-01-23 18:09:34.218034	213.9	44.3	-72.1	11.0
2026-01-23 18:09:36.468085	214.8	44.7	-71.9	10.8
2026-01-23 18:09:38.720775	215.7	45.2	-72.2	10.2
2026-01-23 18:09:40.975211	216.6	45.7	-72.0	9.8
2026-01-23 18:09:43.228033	217.6	46.1	-72.0	8.8
2026-01-23 18:09:45.481289	218.6	46.6	-72.2	10.6
2026-01-23 18:09:47.732239	219.6	47.0	-72.2	9.9
2026-01-23 18:09:49.985037	220.6	47.5	-72.1	10.6
2026-01-23 18:09:52.233003	221.7	47.9	-72.2	11.3
2026-01-23 18:09:54.487376	222.8	48.4	-72.0	10.4
2026-01-23 18:09:56.737146	223.9	48.8	-71.8	10.0
2026-01-23 18:09:58.994048	225.1	49.2	-71.9	10.0
2026-01-23 18:10:01.246442	226.3	49.6	-72.2	10.8
2026-01-23 18:10:03.498355	227.5	50.0	-72.0	9.9
2026-01-23 18:10:05.749295	228.8	50.4	-72.1	9.5
2026-01-23 18:10:08.000936	230.1	50.8	-72.6	9.8
2026-01-23 18:10:10.257269	231.4	51.2	-72.4	10.6
2026-01-23 18:10:12.511099	232.8	51.5	-72.5	10.4
2026-01-23 18:10:14.764413	234.2	51.9	-72.7	10.4
2026-01-23 18:10:17.015943	235.6	52.2	-72.5	9.7
2026-01-23 18:10:19.268276	237.1	52.5	-72.6	10.3
2026-01-23 18:10:21.519109	238.6	52.8	-72.7	10.2
2026-01-23 18:10:23.771475	240.1	53.1	-72.4	9.7
2026-01-23 18:10:26.025355	241.6	53.3	-72.6	10.3
2026-01-23 18:10:28.278680	243.2	53.6	-72.5	10.3
2026-01-23 18:10:30.532849	244.8	53.8	-72.3	9.5
2026-01-23 18:10:32.784004	246.4	54.0	-72.3	9.0
2026-01-23 18:10:35.035521	248.0	54.2	-72.1	10.0
2026-01-23 18:10:37.290293	249.7	54.3	-72.4	10.1
2026-01-23 18:10:39.543326	251.4	54.4	-72.2	9.6
2026-01-23 18:10:41.798601	253.0	54.5	-72.5	10.6
2026-01-23 18:10:44.049932	254.7	54.6	-72.6	11.1
2026-01-23 18:10:46.302720	256.4	54.7	-72.1	10.9
2026-01-23 18:10:48.558969	258.1	54.7	-72.2	10.5
2026-01-23 18:10:50.810246	259.8	54.7	-71.9	10.2
2026-01-23 18:10:53.061399	261.5	54.7	-71.6	10.4
2026-01-23 18:10:55.314426	263.2	54.6	-70.8	8.9
2026-01-23 18:10:57.566938	264.9	54.5	-71.6	9.8
2026-01-23 18:10:59.817145	266.6	54.4	-71.3	6.3
2026-01-23 18:11:02.071043	268.3	54.3	-70.7	5.3
2026-01-23 18:11:04.324259	269.9	54.2	-70.7	6.3
2026-01-23 18:11:06.574686	271.6	54.0	-70.9	9.4
2026-01-23 18:11:08.825767	273.2	53.8	-71.3	7.9
2026-01-23 18:11:11.078388	274.8	53.6	-71.4	8.0
2026-01-23 18:11:13.330825	276.4	53.4	-70.3	7.6
2026-01-23 18:11:15.581911	277.9	53.1	-69.5	5.5
2026-01-23 18:11:17.832459	279.4	52.9	-71.1	6.1
2026-01-23 18:11:20.088500	280.9	52.6	-70.6	6.3
2026-01-23 18:11:22.343095	282.4	52.3	-70.6	6.9
2026-01-23 18:11:24.594680	283.8	51.9	-69.5	6.7
2026-01-23 18:11:26.845144	285.2	51.6	-69.1	4.1
2026-01-23 18:11:29.097311	286.5	51.2	-70.3	8.0
2026-01-23 18:11:31.345831	287.9	50.9	-70.0	6.0
2026-01-23 18:11:33.598706	289.2	50.5	-67.9	1.1
2026-01-23 18:11:35.850500	290.4	50.1	-66.0	0.0
2026-01-23 18:11:38.103845	291.7	49.7	-68.4	6.4
2026-01-23 18:11:40.356524	292.9	49.3	-68.8	3.2
2026-01-23 18:11:42.607818	294.0	48.9	-67.8	1.1
2026-01-23 18:11:44.860680	295.2	48.4	-68.8	3.8
2026-01-23 18:11:47.116256	296.3	48.0	-68.0	4.9
2026-01-23 18:11:49.369747	297.4	47.6	-67.5	1.5
2026-01-23 18:11:51.623437	298.4	47.1	-67.5	0.5
2026-01-23 18:11:53.877226	299.4	46.7	-68.2	0.0
2026-01-23 18:11:56.130638	300.4	46.2	-68.7	3.2
2026-01-23 18:11:58.384599	301.4	45.8	-69.0	5.5
2026-01-23 18:12:00.637260	302.3	45.3	-67.9	0.5
2026-01-23 18:12:02.891118	303.2	44.8	-68.7	5.8
2026-01-23 18:12:05.143339	304.1	44.4	-69.6	6.0
2026-01-23 18:12:07.395733	305.0	43.9	-69.8	5.2
2026-01-23 18:12:09.649878	305.8	43.4	-70.7	6.7
2026-01-23 18:12:11.902137	306.6	42.9	-69.6	2.8
2026-01-23 18:12:14.155377	307.4	42.5	-70.5	6.7
2026-01-23 18:12:16.406820	308.1	42.0	-69.0	3.5
2026-01-23 18:12:18.660303	308.9	41.5	-69.4	4.7
2026-01-23 18:12:20.912351	309.6	41.1	-69.7	2.1
2026-01-23 18:12:23.164013	310.3	40.6	-70.5	7.5
2026-01-23 18:12:25.414147	311.0	40.1	-70.0	2.5
2026-01-23 18:12:27.665580	311.6	39.7	-70.2	2.8
2026-01-23 18:12:29.920934	312.3	39.2	-68.7	0.6
2026-01-23 18:12:32.172213	312.9	38.8	-70.3	2.5
2026-01-23 18:12:34.423304	313.5	38.3	-69.6	5.9
2026-01-23 18:12:36.674705	314.1	37.8	-70.2	5.5
2026-01-23 18:12:38.925626	314.7	37.4	-69.4	4.0
2026-01-23 18:12:41.179304	315.2	36.9	-70.5	5.4
2026-01-23 18:12:43.431806	315.8	36.5	-70.9	2.9
2026-01-23 18:12:45.684309	316.3	36.1	-69.8	4.0
2026-01-23 18:12:47.940302	316.8	35.6	-68.6	1.0
2026-01-23 18:12:50.194370	317.3	35.2	-69.8	3.2
2026-01-23 18:12:52.449803	317.8	34.8	-69.4	2.0
2026-01-23 18:12:54.703837	318.3	34.3	-69.6	1.9
2026-01-23 18:12:56.958715	318.7	33.9	-68.2	0.0
2026-01-23 18:12:59.213368	319.2	33.5	-69.9	2.1
2026-01-23 18:13:01.466015	319.6	33.1	-68.8	0.0
2026-01-23 18:13:03.720140	320.1	32.7	-68.8	0.0
2026-01-23 18:13:05.974576	320.5	32.3	-69.1	1.7
2026-01-23 18:13:08.228175	320.9	31.8	-68.2	0.5
2026-01-23 18:13:10.482547	321.3	31.4	-66.6	0.0
2026-01-23 18:13:12.733279	321.7	31.1	-67.1	1.2
2026-01-23 18:13:14.987318	322.1	30.7	-66.3	0.0
2026-01-23 18:13:17.238953	322.4	30.3	-67.1	0.0
2026-01-23 18:13:19.495041	322.8	29.9	-66.8	0.0
2026-01-23 18:13:21.746186	323.2	29.5	-67.1	1.2
2026-01-23 18:13:23.999427	323.5	29.1	-67.5	0.0
2026-01-23 18:13:26.254448	323.9	28.8	-67.8	0.0
2026-01-23 18:13:28.508774	324.2	28.4	-67.6	0.0
2026-01-23 18:13:30.760314	324.5	28.0	-68.2	0.0
2026-01-23 18:13:33.013805	324.8	27.7	-69.9	0.0
2026-01-23 18:13:35.265554	325.1	27.3	-66.5	0.0
2026-01-23 18:13:37.520457	325.4	27.0	-70.1	0.0
2026-01-23 18:13:39.774864	325.7	26.6	-68.9	0.0
2026-01-23 18:13:42.028529	326.0	26.3	-68.8	0.0
2026-01-23 18:13:44.282546	326.3	25.9	-68.5	0.0
2026-01-23 18:13:46.536459	326.6	25.6	-69.0	0.0
2026-01-23 18:13:48.789463	326.9	25.3	-67.7	0.0
2026-01-23 18:13:51.044636	327.1	24.9	-67.5	0.0
2026-01-23 18:13:53.299188	327.4	24.6	-68.2	0.0
2026-01-23 18:13:55.548300	327.7	24.3	-68.3	0.0
2026-01-23 18:13:57.805862	327.9	24.0	-66.7	0.0
2026-01-23 18:14:00.058300	328.2	23.6	-67.1	0.0
2026-01-23 18:14:02.309975	328.4	23.3	-63.6	0.0
2026-01-23 18:14:04.563258	328.7	23.0	-65.4	0.0
2026-01-23 18:14:06.817031	328.9	22.7	-64.8	0.0
2026-01-23 18:14:09.069248	329.1	22.4	-65.4	0.0
2026-01-23 18:14:11.321580	329.3	22.1	-65.7	0.0
2026-01-23 18:14:13.575613	329.6	21.8	-64.4	0.0
2026-01-23 18:14:15.827594	329.8	21.5	-65.7	0.0
2026-01-23 18:14:18.081455	330.0	21.2	-64.7	0.0
2026-01-23 18:14:20.333533	330.2	20.9	-66.3	0.0
2026-01-23 18:14:22.586440	330.4	20.6	-63.6	0.0
2026-01-23 18:14:24.839874	330.6	20.4	-65.8	0.0
2026-01-23 18:14:27.093201	330.8	20.1	-65.4	0.0
2026-01-23 18:14:29.345890	331.0	19.8	-65.5	0.0
2026-01-23 18:14:31.598162	331.2	19.5	-65.6	0.0
2026-01-23 18:14:33.850874	331.4	19.3	-62.7	0.0
2026-01-23 18:14:36.103099	331.6	19.0	-66.3	0.0
2026-01-23 18:14:38.358178	331.8	18.7	-63.8	0.0
2026-01-23 18:14:40.613326	331.9	18.5	-63.6	0.0
2026-01-23 18:14:42.865491	332.1	18.2	-63.3	0.0
2026-01-23 18:14:45.121423	332.3	17.9	-60.3	0.0
2026-01-23 18:14:47.372434	332.5	17.7	-61.9	0.0
2026-01-23 18:14:49.625310	332.6	17.4	-62.7	0.0
2026-01-23 18:14:51.879243	332.8	17.2	-62.6	0.0
2026-01-23 18:14:54.132047	333.0	16.9	-62.0	0.0
2026-01-23 18:14:56.386643	333.1	16.7	-61.0	0.0
2026-01-23 18:14:58.639198	333.3	16.5	-60.7	0.0
2026-01-23 18:15:00.891446	333.4	16.2	-62.6	0.0
2026-01-23 18:15:03.145130	333.6	16.0	-61.0	0.0
2026-01-23 18:15:05.396216	333.7	15.7	-60.4	0.0
2026-01-23 18:15:07.650153	333.9	15.5	-58.5	0.0
2026-01-23 18:15:09.906009	334.0	15.3	-64.1	0.0
2026-01-23 18:15:12.160433	334.2	15.0	-62.8	0.0
2026-01-23 18:15:14.415016	334.3	14.8	-63.7	0.0
2026-01-23 18:15:16.664167	334.5	14.6	-62.9	0.0
2026-01-23 18:15:18.916322	334.6	14.4	-60.4	0.0
2026-01-23 18:15:21.173407	334.7	14.1	-64.2	0.0
2026-01-23 18:15:23.423422	334.9	13.9	-65.7	0.0
2026-01-23 18:15:25.675815	335.0	13.7	-64.4	0.0
2026-01-23 18:15:27.931309	335.1	13.5	-64.8	0.0
2026-01-23 18:15:30.183821	335.3	13.3	-63.9	0.0
2026-01-23 18:15:32.437621	335.4	13.0	-66.2	0.0
2026-01-23 18:15:34.690469	335.5	12.8	-67.5	0.0
2026-01-23 18:15:36.948961	335.7	12.6	-66.9	0.0
2026-01-23 18:15:39.202241	335.8	12.4	-67.5	0.0
2026-01-23 18:15:41.455935	335.9	12.2	-66.8	0.0
2026-01-23 18:15:43.708316	336.0	12.0	-69.3	0.0
2026-01-23 18:15:45.959459	336.1	11.8	-68.8	0.0
2026-01-23 18:15:48.214843	336.3	11.6	-69.7	0.0
2026-01-23 18:15:50.466988	336.4	11.4	-70.1	0.0
2026-01-23 18:15:52.718883	336.5	11.2	-67.1	0.0
2026-01-23 18:15:54.972895	336.6	11.0	-68.7	0.0
2026-01-23 18:15:57.226503	336.7	10.8	-65.8	0.0
2026-01-23 18:15:59.479562	336.8	10.6	-66.6	0.0
2026-01-23 18:16:01.728074	336.9	10.4	-69.2	0.0
2026-01-23 18:16:03.982945	337.0	10.2	-71.6	0.0
2026-01-23 18:16:06.236761	337.1	10.0	-73.3	0.0
#Closed at: 2026-01-23 18:05:30.412787