passes_logs/2026/01/10/T1/T1__20260110_074218_SUOMI_NPP_rec.log

#Pass ID: 20260110_074218_SUOMI NPP
#Satellite: SUOMI NPP
#Configuration: NPP
#almurnet v.1.7.20251203
#Start time: 2026-01-10 07:42:18

#Version: 2.0.20230620
#Station: T1
#Location: 37.570604 lon 55.790049 lat
#TLE: 1 37849U 11061A   26008.83076692  .00000095  00000+0  66074-4 0  9997
#TLE: 2 37849  98.7806 310.9327 0002533  74.3004 285.8451 14.19523607735834

#Time	Az	El	Level	Level2	SNR	BER	BlckErr	Temp	State	Recorded	gain1	gain2
2026-01-10 07:42:18.97	85.86	5.02	-52.2	-67.4	3.8	1.49e+00	0	41	0	0	76	20108
2026-01-10 07:42:21.98	85.53	5.17	-52.2	-67.3	3.8	1.49e+00	0	41	104	0	75	21194
2026-01-10 07:42:25.00	85.19	5.32	-52.2	-67.3	3.8	1.49e+00	0	41	104	0	75	21172
2026-01-10 07:42:28.01	84.85	5.47	-52.2	-67.3	3.8	1.49e+00	0	41	104	0	75	21163
2026-01-10 07:42:31.02	84.51	5.62	-52.2	-67.3	3.8	1.49e+00	0	41	104	0	75	21190
2026-01-10 07:42:34.03	84.16	5.77	-52.2	-67.3	3.8	1.49e+00	0	41	104	0	75	21187
2026-01-10 07:42:37.05	83.81	5.92	-52.2	-67.3	3.8	1.49e+00	0	41	104	0	75	21154
2026-01-10 07:42:40.06	83.46	6.06	-52.2	-67.3	3.8	1.49e+00	0	42	104	0	75	21184
2026-01-10 07:42:43.07	83.10	6.21	-52.1	-67.3	3.8	1.49e+00	0	42	104	0	75	21093
2026-01-10 07:42:46.08	82.74	6.36	-52.1	-67.2	3.8	1.49e+00	0	42	104	0	75	20932
2026-01-10 07:42:49.09	82.37	6.51	-52.2	-67.2	3.8	1.49e+00	0	42	104	0	75	20905
2026-01-10 07:42:52.10	82.01	6.65	-52.1	-67.2	3.8	1.49e+00	0	42	104	0	75	20923
2026-01-10 07:42:55.12	81.63	6.80	-52.1	-67.2	3.8	1.49e+00	0	42	104	0	75	20949
2026-01-10 07:42:58.13	81.26	6.95	-52.1	-67.2	3.8	1.49e+00	0	42	104	0	75	20971
2026-01-10 07:43:01.14	80.88	7.10	-52.1	-67.2	3.8	1.49e+00	0	42	104	0	75	20883
2026-01-10 07:43:04.15	80.49	7.24	-52.1	-67.0	3.8	1.49e+00	0	42	104	0	75	20479
2026-01-10 07:43:07.17	80.10	7.39	-52.1	-67.1	3.8	1.49e+00	0	42	104	0	75	20647
2026-01-10 07:43:10.18	79.71	7.53	-52.1	-67.1	3.8	1.49e+00	0	42	104	0	75	20542
2026-01-10 07:43:13.20	79.31	7.68	-52.1	-67.0	3.8	1.49e+00	0	43	104	0	75	20346
2026-01-10 07:43:16.21	78.91	7.82	-52.1	-66.7	3.8	1.49e+00	0	43	104	0	75	19641
2026-01-10 07:43:19.22	78.51	7.97	-52.1	-67.0	3.8	1.49e+00	0	43	104	0	75	20349
2026-01-10 07:43:22.24	78.10	8.11	-52.1	-67.3	3.8	1.49e+00	0	42	104	0	75	21089
2026-01-10 07:43:25.25	77.69	8.25	-52.1	-66.5	3.8	1.49e+00	0	42	104	0	75	19283
2026-01-10 07:43:28.26	77.27	8.40	-52.0	-65.6	3.8	1.49e+00	0	43	104	0	75	17342
2026-01-10 07:43:31.28	76.85	8.54	-52.0	-64.6	3.9	1.49e+00	0	43	104	0	75	15479
2026-01-10 07:43:34.29	76.43	8.68	-50.4	-56.2	9.7	2.21e-02	0	43	0	4194304	72	7015
2026-01-10 07:43:37.30	76.00	8.82	-49.8	-54.8	11.2	1.42e-03	0	43	0	10485760	71	6323
2026-01-10 07:43:40.32	75.56	8.96	-51.7	-61.5	5.2	4.55e-01	0	43	0	15728640	73	12164
2026-01-10 07:43:43.33	75.13	9.10	-50.1	-55.4	10.7	1.47e-02	0	43	0	16777216	72	6353
2026-01-10 07:43:46.34	74.68	9.24	-51.0	-57.9	8.3	1.14e+00	0	43	0	18874368	72	8469
2026-01-10 07:43:49.34	74.24	9.37	-50.6	-56.7	9.3	3.55e-02	0	43	0	20971520	73	6974
2026-01-10 07:43:52.42	73.78	9.51	-49.8	-54.7	11.4	1.29e-03	0	43	0	27262976	71	6209
2026-01-10 07:43:55.38	73.33	9.64	-49.2	-53.4	12.8	1.31e-04	0	43	0	32505856	70	5684
2026-01-10 07:43:58.53	72.85	9.78	-48.6	-52.2	14.0	1.50e-06	0	43	0	38797312	68	5553
2026-01-10 07:44:01.39	72.41	9.91	-47.8	-51.1	15.0	0.00e+00	0	43	0	44040192	67	5163
2026-01-10 07:44:04.55	71.92	10.05	-47.5	-50.7	15.3	0.00e+00	0	43	0	49283072	66	5264
2026-01-10 07:44:07.41	71.48	10.17	-47.7	-51.0	15.0	0.00e+00	0	43	0	54525952	66	5428
2026-01-10 07:44:10.56	70.98	10.31	-47.6	-50.8	15.2	7.00e-07	0	43	0	60817408	66	5333
2026-01-10 07:44:13.43	70.52	10.43	-47.1	-50.0	16.0	0.00e+00	0	43	0	66060288	66	4843
2026-01-10 07:44:16.58	70.01	10.56	-47.2	-50.4	15.7	0.00e+00	0	43	0	72351744	66	5065
2026-01-10 07:44:19.44	69.55	10.68	-47.4	-50.7	15.3	0.00e+00	0	43	0	77594624	66	5236
2026-01-10 07:44:22.70	69.02	10.82	-48.0	-51.7	14.4	7.00e-07	0	43	0	83886080	66	5872
2026-01-10 07:44:25.60	68.54	10.94	-48.0	-51.6	14.4	7.00e-07	0	43	0	89128960	66	5843
2026-01-10 07:44:28.99	67.97	11.07	-47.6	-51.0	15.0	0.00e+00	0	43	0	95420416	66	5445
2026-01-10 07:44:31.71	67.52	11.18	-47.4	-50.7	15.3	0.00e+00	0	43	0	100663296	66	5271
2026-01-10 07:44:35.01	66.96	11.31	-47.6	-51.0	15.1	0.00e+00	0	43	0	106954752	66	5403
2026-01-10 07:44:37.73	66.50	11.42	-48.1	-51.8	14.3	0.00e+00	0	43	0	112197632	66	5963
2026-01-10 07:44:41.04	65.93	11.54	-47.7	-51.1	14.9	0.00e+00	0	43	0	118489088	66	5504
2026-01-10 07:44:43.76	65.45	11.64	-47.6	-50.9	15.1	0.00e+00	0	43	0	122683392	66	5356
2026-01-10 07:44:47.05	64.88	11.77	-47.5	-50.8	15.2	0.00e+00	0	43	0	128974848	66	5328
2026-01-10 07:44:49.87	64.38	11.87	-47.8	-51.4	14.7	0.00e+00	0	43	0	134217728	66	5657
2026-01-10 07:44:53.02	63.82	11.98	-48.1	-51.8	14.3	0.00e+00	0	43	0	140509184	66	5966
2026-01-10 07:44:55.88	63.31	12.08	-47.7	-51.2	15.0	0.00e+00	0	43	0	145752064	66	5532
2026-01-10 07:44:59.14	62.73	12.19	-47.6	-51.0	15.1	0.00e+00	0	43	0	152043520	66	5404
2026-01-10 07:45:02.31	62.15	12.30	-48.1	-51.8	14.3	1.50e-06	0	43	0	158334976	66	5936
2026-01-10 07:45:05.32	61.60	12.40	-48.3	-52.2	13.9	1.50e-06	0	43	0	163577856	67	5876
2026-01-10 07:45:08.34	61.05	12.49	-47.9	-51.6	14.5	7.00e-07	0	43	0	168820736	67	5490
2026-01-10 07:45:11.37	60.49	12.59	-47.1	-50.1	15.9	0.00e+00	0	43	0	175112192	66	4915
2026-01-10 07:45:14.42	59.92	12.68	-47.1	-50.1	15.9	0.00e+00	0	43	0	180355072	65	5194
2026-01-10 07:45:17.29	59.38	12.77	-47.0	-50.0	16.0	0.00e+00	0	43	0	185597952	65	5154
2026-01-10 07:45:20.44	58.79	12.86	-47.1	-50.2	15.9	0.00e+00	0	43	0	191889408	65	5229
2026-01-10 07:45:23.31	58.24	12.94	-46.9	-49.9	16.1	0.00e+00	0	43	0	197132288	65	5085
2026-01-10 07:45:26.45	57.64	13.03	-46.9	-49.9	16.1	0.00e+00	0	44	0	203423744	65	5087
2026-01-10 07:45:29.37	57.08	13.10	-47.5	-50.8	15.3	0.00e+00	0	43	0	208666624	65	5609
2026-01-10 07:45:32.66	56.45	13.19	-48.0	-51.6	14.6	0.00e+00	0	43	0	214958080	66	5822
2026-01-10 07:45:35.46	55.91	13.26	-47.9	-51.5	14.7	0.00e+00	0	43	0	220200960	66	5747
2026-01-10 07:45:38.62	55.29	13.33	-47.9	-51.4	14.7	0.00e+00	0	43	0	225443840	66	5705
2026-01-10 07:45:41.48	54.73	13.40	-47.7	-51.1	15.0	0.00e+00	0	43	0	231735296	66	5501
2026-01-10 07:45:44.64	54.11	13.47	-47.8	-51.3	14.8	0.00e+00	0	43	0	236978176	66	5632
2026-01-10 07:45:47.50	53.55	13.53	-47.5	-50.8	15.3	0.00e+00	0	44	0	242221056	66	5326
2026-01-10 07:45:50.65	52.92	13.59	-47.2	-50.4	15.7	0.00e+00	0	43	0	248512512	66	5069
2026-01-10 07:45:54.11	52.23	13.66	-47.1	-50.2	15.9	0.00e+00	0	43	0	254803968	66	4927
2026-01-10 07:45:56.83	51.69	13.71	-47.3	-50.5	15.6	0.00e+00	0	43	0	260046848	65	5448
2026-01-10 07:46:00.12	51.03	13.76	-47.5	-50.8	15.3	0.00e+00	0	43	0	266338304	65	5651
2026-01-10 07:46:02.91	50.47	13.81	-47.4	-50.7	15.3	7.00e-07	0	43	0	271581184	65	5563
2026-01-10 07:46:06.20	49.80	13.85	-47.2	-50.3	15.7	0.00e+00	0	44	0	277872640	65	5335
2026-01-10 07:46:09.19	49.20	13.90	-47.3	-50.5	15.5	0.00e+00	0	43	0	283115520	65	5459
2026-01-10 07:46:12.20	48.59	13.93	-47.4	-50.7	15.4	0.00e+00	0	43	0	289406976	65	5544
2026-01-10 07:46:15.21	47.97	13.97	-47.8	-51.3	14.8	0.00e+00	0	43	0	294649856	66	5642
2026-01-10 07:46:18.28	47.35	14.00	-47.5	-50.9	15.2	0.00e+00	0	43	0	299892736	66	5367
2026-01-10 07:46:21.27	46.74	14.03	-47.4	-50.7	15.5	0.00e+00	0	44	0	306184192	66	5224
2026-01-10 07:46:24.38	46.10	14.06	-47.2	-50.4	15.7	0.00e+00	0	44	0	311427072	66	5071
2026-01-10 07:46:27.28	45.51	14.08	-47.0	-50.1	15.9	0.00e+00	0	43	0	317718528	65	5190
2026-01-10 07:46:30.43	44.86	14.10	-47.1	-50.3	15.7	0.00e+00	0	43	0	322961408	65	5335
2026-01-10 07:46:33.30	44.27	14.11	-47.2	-50.5	15.5	0.00e+00	0	43	0	328204288	65	5418
2026-01-10 07:46:36.51	43.61	14.13	-47.2	-50.4	15.6	0.00e+00	0	43	0	334495744	65	5362
2026-01-10 07:46:39.36	43.02	14.13	-46.8	-49.7	16.2	0.00e+00	0	43	0	339738624	65	4980
2026-01-10 07:46:42.65	42.34	14.14	-46.7	-49.7	16.2	0.00e+00	0	43	0	346030080	65	4959
2026-01-10 07:46:45.49	41.76	14.14	-47.2	-50.4	15.5	0.00e+00	0	43	0	351272960	65	5399
2026-01-10 07:46:48.56	41.12	14.14	-47.0	-50.3	15.5	0.00e+00	0	43	0	357564416	65	5320
2026-01-10 07:46:51.70	40.48	14.14	-47.0	-50.4	15.2	0.00e+00	0	43	0	362807296	65	5391
2026-01-10 07:46:54.85	39.83	14.13	-47.3	-50.9	14.7	0.00e+00	0	44	0	369098752	65	5674
2026-01-10 07:46:57.71	39.24	14.12	-47.1	-50.8	14.8	0.00e+00	0	44	0	374341632	65	5606
2026-01-10 07:47:01.04	38.56	14.10	-46.9	-50.4	15.1	0.00e+00	0	43	0	380633088	65	5402
2026-01-10 07:47:03.76	38.00	14.08	-46.5	-49.9	15.5	0.00e+00	0	44	0	385875968	64	5387
2026-01-10 07:47:07.05	37.32	14.06	-46.5	-49.9	15.5	0.00e+00	0	44	0	392167424	64	5386
2026-01-10 07:47:09.98	36.72	14.04	-46.8	-50.3	15.1	0.00e+00	0	43	0	397410304	64	5650
2026-01-10 07:47:13.00	36.11	14.01	-46.7	-50.1	15.3	0.00e+00	0	43	0	402653184	64	5507
2026-01-10 07:47:16.01	35.49	13.98	-46.1	-49.3	16.1	0.00e+00	0	43	0	408944640	64	5006
2026-01-10 07:47:19.00	34.88	13.94	-46.1	-49.4	16.0	0.00e+00	0	43	0	414187520	64	5058
2026-01-10 07:47:22.01	34.27	13.90	-46.4	-49.8	15.7	0.00e+00	0	43	0	419430400	64	5283
2026-01-10 07:47:25.02	33.66	13.86	-46.3	-49.4	16.0	0.00e+00	0	44	0	425721856	64	5070
2026-01-10 07:47:28.02	33.06	13.82	-46.5	-49.8	15.5	0.00e+00	0	44	0	430964736	64	5311
2026-01-10 07:47:31.03	32.45	13.77	-46.6	-50.0	15.3	0.00e+00	0	43	0	436207616	64	5434
2026-01-10 07:47:34.04	31.85	13.72	-46.5	-49.9	15.4	0.00e+00	0	44	0	442499072	64	5390
2026-01-10 07:47:37.05	31.25	13.67	-46.6	-50.0	15.3	0.00e+00	0	44	0	447741952	64	5416
2026-01-10 07:47:40.06	30.65	13.61	-46.2	-49.3	15.9	0.00e+00	0	44	0	454033408	64	5024
2026-01-10 07:47:43.07	30.05	13.55	-46.2	-49.3	16.0	0.00e+00	0	44	0	459276288	63	5330
2026-01-10 07:47:46.05	29.46	13.49	-46.0	-49.2	16.2	0.00e+00	0	43	0	464519168	63	5226
2026-01-10 07:47:49.27	28.83	13.42	-45.8	-49.0	16.3	0.00e+00	0	43	0	470810624	63	5126
2026-01-10 07:47:52.13	28.27	13.36	-46.2	-49.6	15.7	0.00e+00	0	43	0	476053504	63	5496
2026-01-10 07:47:55.65	27.59	13.28	-46.4	-49.9	15.4	0.00e+00	0	43	0	482344960	63	5709
2026-01-10 07:47:58.37	27.06	13.21	-46.5	-50.0	15.3	0.00e+00	0	44	0	487587840	63	5730
2026-01-10 07:48:01.67	26.43	13.13	-46.3	-49.8	15.4	0.00e+00	0	44	0	493879296	64	5283
2026-01-10 07:48:04.50	25.88	13.05	-46.4	-49.8	15.3	0.00e+00	0	44	0	499122176	64	5338
2026-01-10 07:48:07.69	25.28	12.97	-46.3	-49.7	15.5	0.00e+00	0	44	0	505413632	64	5220
2026-01-10 07:48:10.84	24.68	12.88	-46.1	-49.3	15.9	0.00e+00	0	44	0	511705088	63	5288
2026-01-10 07:48:13.70	24.14	12.80	-46.1	-49.4	15.8	0.00e+00	0	43	0	516947968	63	5343
2026-01-10 07:48:16.92	23.54	12.70	-46.2	-49.5	15.6	0.00e+00	0	43	0	523239424	63	5425
2026-01-10 07:48:19.84	23.00	12.61	-46.1	-49.2	15.9	0.00e+00	0	44	0	528482304	63	5279
2026-01-10 07:48:22.99	22.41	12.51	-45.7	-48.8	16.3	0.00e+00	0	43	0	533725184	63	5011
2026-01-10 07:48:25.86	21.89	12.42	-45.6	-48.9	16.2	0.00e+00	0	44	0	538968064	63	5061
2026-01-10 07:48:29.01	21.31	12.32	-45.6	-49.1	16.0	0.00e+00	0	44	0	545259520	63	5192
2026-01-10 07:48:31.87	20.80	12.22	-46.0	-49.9	15.2	0.00e+00	0	44	0	550502400	63	5672
2026-01-10 07:48:35.02	20.23	12.12	-46.5	-50.4	14.7	0.00e+00	0	43	0	556793856	63	6017
2026-01-10 07:48:37.89	19.72	12.02	-46.5	-50.3	14.7	0.00e+00	0	44	0	562036736	64	5615
2026-01-10 07:48:41.05	19.16	11.91	-46.4	-50.1	14.9	0.00e+00	0	44	0	568328192	64	5475
2026-01-10 07:48:44.02	18.64	11.80	-46.5	-49.9	15.0	0.00e+00	0	44	0	573571072	64	5382
2026-01-10 07:48:47.18	18.09	11.68	-46.4	-49.9	15.0	0.00e+00	0	43	0	579862528	64	5353
2026-01-10 07:48:50.04	17.59	11.58	-46.2	-50.1	14.8	0.00e+00	0	44	0	585105408	64	5471
2026-01-10 07:48:53.34	17.02	11.45	-46.0	-50.1	14.7	0.00e+00	0	44	0	591396864	64	5498
2026-01-10 07:48:56.06	16.56	11.35	-46.1	-50.5	14.5	0.00e+00	0	43	0	596639744	63	6076
2026-01-10 07:48:59.62	15.96	11.21	-46.0	-50.5	14.4	7.00e-07	0	44	0	602931200	63	6085
2026-01-10 07:49:02.35	15.50	11.10	-45.7	-49.7	15.1	0.00e+00	0	44	0	608174080	63	5543
2026-01-10 07:49:05.64	14.96	10.97	-46.1	-49.7	15.1	0.00e+00	0	44	0	614465536	63	5577
2026-01-10 07:49:08.45	14.49	10.85	-46.9	-50.9	13.8	5.30e-06	0	44	0	619708416	64	6061
2026-01-10 07:49:11.59	13.98	10.72	-47.1	-51.6	13.2	4.88e-05	0	44	0	624951296	65	6154
2026-01-10 07:49:15.09	13.41	10.58	-46.7	-51.2	13.5	1.37e-05	0	44	0	632291328	65	5864
2026-01-10 07:49:17.81	12.98	10.46	-46.3	-50.6	14.1	3.80e-06	0	43	0	636485632	64	5827
2026-01-10 07:49:21.06	12.46	10.33	-46.2	-51.2	13.6	6.10e-06	0	43	0	642777088	63	6588
2026-01-10 07:49:24.27	11.96	10.19	-46.6	-53.3	11.4	7.73e-04	0	44	0	649068544	63	8437
2026-01-10 07:49:27.31	11.48	10.06	-47.3	-54.5	10.0	6.01e-03	0	44	0	654311424	65	8632
2026-01-10 07:49:30.61	10.97	9.91	-47.0	-53.5	11.0	1.55e-03	0	43	0	660602880	65	7650
2026-01-10 07:49:33.33	10.56	9.79	-46.6	-53.0	11.5	7.50e-04	0	44	0	665845760	65	7265
2026-01-10 07:49:36.63	10.06	9.65	-46.4	-52.6	11.9	3.12e-04	0	44	0	672137216	64	7338
2026-01-10 07:49:39.96	9.56	9.50	-46.5	-52.0	12.4	2.05e-04	0	43	0	678428672	64	6851
2026-01-10 07:49:42.68	9.16	9.37	-46.4	-51.6	12.9	5.18e-05	0	44	0	683671552	64	6570
2026-01-10 07:49:45.97	8.67	9.23	-46.5	-51.3	13.2	1.83e-05	0	44	0	689963008	64	6301
2026-01-10 07:49:49.06	8.22	9.08	-46.6	-51.0	13.5	1.75e-05	0	44	0	695205888	64	6078
2026-01-10 07:49:52.38	7.74	8.93	-49.1	-66.2	3.8	1.49e+00	0	44	104	699400192	70	24796
2026-01-10 07:49:55.36	7.32	8.79	-51.0	-66.4	3.8	1.49e+00	0	44	104	699400192	72	22576
2026-01-10 07:49:58.66	6.85	8.64	-51.3	-66.5	3.8	1.49e+00	0	44	104	699400192	73	21546
2026-01-10 07:50:01.39	6.47	8.51	-51.3	-66.5	3.8	1.49e+00	0	44	104	699400192	73	21719
2026-01-10 07:50:04.72	6.01	8.36	-51.2	-66.6	3.8	1.49e+00	0	43	104	699400192	73	21812
2026-01-10 07:50:07.49	5.63	8.22	-51.4	-66.6	3.8	1.49e+00	0	44	104	699400192	73	21762
2026-01-10 07:50:10.79	5.18	8.07	-51.4	-66.5	3.8	1.49e+00	0	44	104	699400192	73	21579
2026-01-10 07:50:13.52	4.82	7.94	-51.3	-66.5	3.8	1.49e+00	0	44	104	699400192	73	21741
2026-01-10 07:50:16.82	4.38	7.78	-51.2	-66.5	3.8	1.49e+00	0	43	104	699400192	73	21675
2026-01-10 07:50:19.54	4.02	7.65	-51.2	-66.4	3.8	1.49e+00	0	43	104	699400192	73	21480
2026-01-10 07:50:22.84	3.59	7.49	-51.2	-66.5	3.8	1.49e+00	0	43	104	699400192	73	21603
2026-01-10 07:50:25.57	3.24	7.36	-51.1	-66.4	3.8	1.49e+00	0	44	104	699400192	73	21467
2026-01-10 07:50:28.87	2.82	7.20	-51.2	-66.4	3.8	1.49e+00	0	44	104	699400192	73	21474
2026-01-10 07:50:31.59	2.48	7.07	-51.1	-66.4	3.8	1.49e+00	0	44	104	699400192	73	21442
2026-01-10 07:50:34.89	2.06	6.91	-51.1	-66.4	3.8	1.49e+00	0	44	104	699400192	73	21469
2026-01-10 07:50:37.62	1.73	6.78	-51.1	-66.4	3.8	1.49e+00	0	44	104	699400192	73	21438
2026-01-10 07:50:40.92	1.32	6.61	-51.1	-66.4	3.8	1.49e+00	0	44	104	699400192	73	21506
2026-01-10 07:50:43.65	0.99	6.48	-51.1	-66.5	3.8	1.49e+00	0	44	104	699400192	73	21575
2026-01-10 07:50:46.95	0.60	6.32	-51.1	-66.5	3.8	1.49e+00	0	44	104	699400192	73	21511
2026-01-10 07:50:49.67	0.27	6.19	-51.2	-66.4	3.8	1.49e+00	0	44	104	699400192	73	21468
2026-01-10 07:50:52.97	359.89	6.02	-51.1	-66.5	3.8	1.49e+00	0	44	104	699400192	73	21565
2026-01-10 07:50:55.70	359.57	5.89	-51.1	-66.5	3.8	1.49e+00	0	44	104	699400192	73	21532
2026-01-10 07:50:59.00	359.19	5.73	-51.1	-66.5	3.8	1.49e+00	0	44	104	699400192	73	21510
2026-01-10 07:51:01.73	358.88	5.59	-51.2	-66.5	3.8	1.49e+00	0	44	104	699400192	73	21583
2026-01-10 07:51:05.03	358.51	5.43	-51.2	-66.5	3.8	1.49e+00	0	44	104	699400192	73	21515
2026-01-10 07:51:07.75	358.20	5.30	-51.2	-66.5	3.8	1.49e+00	0	44	104	699400192	73	21579
2026-01-10 07:51:11.05	357.84	5.13	-51.2	-66.5	3.8	1.49e+00	0	44	104	699400192	73	21554
2026-01-10 07:51:13.78	357.54	5.00	-51.2	-66.5	3.8	1.49e+00	0	44	104	699400192	73	21595

#Closed at: 2026-01-10 07:51:15
#Recorded file [699 MB]: D:/Data/31040_260110_104218.dat