passes_logs/2026/01/10/T1/T1__20260110_213100_SUOMI_NPP_rec.log

#Pass ID: 20260110_213100_SUOMI NPP
#Satellite: SUOMI NPP
#Configuration: NPP
#almurnet v.1.7.20251203
#Start time: 2026-01-10 21:31:00

#Version: 2.0.20230620
#Station: T1
#Location: 37.570604 lon 55.790049 lat
#TLE: 1 37849U 11061A   26009.81756760  .00000113  00000+0  74747-4 0  9994
#TLE: 2 37849  98.7806 311.9110 0002525  72.5604 287.5848 14.19524046735974

#Time	Az	El	Level	Level2	SNR	BER	BlckErr	Temp	State	Recorded	gain1	gain2
2026-01-10 21:31:00.20	42.34	4.99	-49.8	-65.3	3.8	1.49e+00	0	38	0	0	71	21109
2026-01-10 21:31:02.21	42.59	5.07	-49.8	-65.3	3.8	1.49e+00	0	38	104	0	70	22375
2026-01-10 21:31:04.22	42.85	5.15	-49.8	-65.3	3.8	1.49e+00	0	38	104	0	70	22315
2026-01-10 21:31:06.23	43.10	5.22	-49.8	-65.3	3.8	1.49e+00	0	38	104	0	70	22357
2026-01-10 21:31:08.23	43.36	5.30	-49.8	-65.3	3.8	1.49e+00	0	38	104	0	70	22310
2026-01-10 21:31:10.24	43.62	5.38	-49.8	-65.3	3.8	1.49e+00	0	38	104	0	70	22319
2026-01-10 21:31:12.25	43.88	5.45	-49.8	-65.3	3.8	1.49e+00	0	38	104	0	70	22342
2026-01-10 21:31:14.26	44.15	5.53	-49.8	-65.3	3.8	1.49e+00	0	39	104	0	70	22292
2026-01-10 21:31:16.27	44.41	5.61	-49.8	-65.3	3.8	1.49e+00	0	39	104	0	70	22389
2026-01-10 21:31:18.28	44.68	5.68	-49.8	-65.3	3.8	1.49e+00	0	39	104	0	70	22324
2026-01-10 21:31:20.28	44.94	5.76	-49.8	-65.3	3.8	1.49e+00	0	39	104	0	70	22327
2026-01-10 21:31:22.29	45.21	5.83	-49.8	-65.2	3.8	1.49e+00	0	39	104	0	70	22202
2026-01-10 21:31:24.30	45.48	5.91	-49.8	-65.2	3.8	1.49e+00	0	39	104	0	70	22196
2026-01-10 21:31:26.31	45.75	5.98	-49.8	-65.3	3.8	1.49e+00	0	39	104	0	70	22339
2026-01-10 21:31:28.32	46.02	6.06	-49.8	-65.3	3.8	1.49e+00	0	39	104	0	70	22293
2026-01-10 21:31:30.33	46.29	6.13	-49.8	-65.3	3.8	1.49e+00	0	39	104	0	70	22270
2026-01-10 21:31:32.33	46.57	6.20	-49.8	-65.2	3.8	1.49e+00	0	39	104	0	70	22186
2026-01-10 21:31:34.34	46.84	6.28	-49.8	-65.2	3.8	1.49e+00	0	39	104	0	70	22201
2026-01-10 21:31:36.35	47.12	6.35	-49.8	-65.3	3.8	1.49e+00	0	39	104	0	70	22336
2026-01-10 21:31:38.36	47.40	6.42	-49.8	-65.3	3.8	1.49e+00	0	39	104	0	70	22277
2026-01-10 21:31:40.37	47.68	6.49	-49.8	-65.3	3.8	1.49e+00	0	39	104	0	70	22327
2026-01-10 21:31:42.38	47.96	6.57	-49.8	-65.3	3.8	1.49e+00	0	39	104	0	70	22273
2026-01-10 21:31:44.39	48.24	6.64	-49.8	-65.3	3.8	1.49e+00	0	39	104	0	70	22289
2026-01-10 21:31:46.40	48.53	6.71	-49.8	-65.2	3.8	1.49e+00	0	40	104	0	70	22258
2026-01-10 21:31:48.41	48.81	6.78	-49.8	-65.3	3.8	1.49e+00	0	39	104	0	70	22285
2026-01-10 21:31:50.41	49.10	6.85	-49.8	-65.3	3.8	1.49e+00	0	40	104	0	70	22297
2026-01-10 21:31:52.42	49.39	6.92	-49.8	-65.3	3.8	1.49e+00	0	40	104	0	70	22331
2026-01-10 21:31:54.43	49.68	6.99	-49.8	-65.3	3.8	1.49e+00	0	40	104	0	70	22266
2026-01-10 21:31:56.44	49.97	7.06	-49.8	-65.3	3.8	1.49e+00	0	40	104	0	70	22298
2026-01-10 21:31:58.45	50.26	7.13	-49.8	-65.2	3.8	1.49e+00	0	40	104	0	70	22231
2026-01-10 21:32:00.46	50.55	7.19	-49.8	-65.2	3.8	1.49e+00	0	40	104	0	70	22257
2026-01-10 21:32:02.47	50.85	7.26	-49.8	-65.2	3.8	1.49e+00	0	40	104	0	70	22215
2026-01-10 21:32:04.47	51.14	7.33	-49.8	-65.3	3.8	1.49e+00	0	40	104	0	70	22301
2026-01-10 21:32:06.49	51.44	7.40	-49.8	-65.2	3.8	1.49e+00	0	40	104	0	70	22214
2026-01-10 21:32:08.49	51.74	7.46	-49.8	-65.2	3.8	1.49e+00	0	40	104	0	70	22245
2026-01-10 21:32:10.50	52.04	7.53	-49.8	-65.2	3.8	1.49e+00	0	40	104	0	70	22148
2026-01-10 21:32:12.51	52.34	7.59	-49.8	-65.3	3.8	1.49e+00	0	40	104	0	70	22287
2026-01-10 21:32:14.52	52.64	7.66	-49.8	-65.2	3.8	1.49e+00	0	40	104	0	70	22239
2026-01-10 21:32:16.53	52.95	7.72	-49.8	-65.2	3.8	1.49e+00	0	40	104	0	70	22246
2026-01-10 21:32:18.54	53.25	7.79	-49.8	-65.2	3.8	1.49e+00	0	40	104	0	70	22174
2026-01-10 21:32:20.55	53.56	7.85	-49.8	-65.2	3.8	1.49e+00	0	40	104	0	70	22116
2026-01-10 21:32:22.56	53.87	7.91	-49.8	-65.2	3.8	1.49e+00	0	40	104	0	70	22114
2026-01-10 21:32:24.57	54.18	7.97	-49.8	-65.2	3.8	1.49e+00	0	40	104	0	70	22144
2026-01-10 21:32:26.57	54.49	8.04	-49.8	-65.3	3.8	1.49e+00	0	40	104	0	70	22331
2026-01-10 21:32:28.58	54.80	8.10	-49.8	-65.3	3.8	1.49e+00	0	40	104	0	70	22273
2026-01-10 21:32:30.59	55.11	8.16	-49.8	-65.3	3.8	1.49e+00	0	40	104	0	70	22411
2026-01-10 21:32:32.60	55.43	8.22	-49.8	-65.2	3.8	1.49e+00	0	40	104	0	70	22250
2026-01-10 21:32:34.61	55.74	8.28	-49.8	-65.2	3.8	1.49e+00	0	40	104	0	70	22053
2026-01-10 21:32:36.62	56.06	8.34	-49.8	-65.1	3.8	1.49e+00	0	40	104	0	70	21955
2026-01-10 21:32:38.63	56.38	8.39	-49.8	-65.1	3.8	1.49e+00	0	40	104	0	70	21897
2026-01-10 21:32:40.64	56.70	8.45	-49.8	-65.2	3.8	1.49e+00	0	40	104	0	70	22082
2026-01-10 21:32:42.65	57.02	8.51	-49.8	-65.1	3.8	1.49e+00	0	40	104	0	70	21980
2026-01-10 21:32:44.66	57.34	8.56	-49.8	-65.2	3.8	1.49e+00	0	40	104	0	70	22035
2026-01-10 21:32:46.66	57.66	8.62	-49.8	-65.2	3.8	1.49e+00	0	40	104	0	70	22164
2026-01-10 21:32:48.67	57.98	8.67	-49.8	-65.3	3.8	1.49e+00	0	40	104	0	70	22274
2026-01-10 21:32:50.68	58.31	8.73	-49.8	-65.2	3.8	1.49e+00	0	40	104	0	70	22198
2026-01-10 21:32:52.69	58.64	8.78	-49.8	-65.2	3.8	1.49e+00	0	40	104	0	70	22253
2026-01-10 21:32:54.70	58.96	8.83	-49.8	-65.3	3.8	1.49e+00	0	40	104	0	70	22264
2026-01-10 21:32:56.71	59.29	8.89	-49.8	-65.2	3.8	1.49e+00	0	40	104	0	70	22149
2026-01-10 21:32:58.72	59.62	8.94	-49.8	-65.0	3.8	1.49e+00	0	40	104	0	70	21747
2026-01-10 21:33:00.73	59.95	8.99	-49.8	-65.0	3.8	1.49e+00	0	40	104	0	70	21688
2026-01-10 21:33:02.73	60.29	9.04	-49.8	-65.0	3.8	1.49e+00	0	40	104	0	70	21702
2026-01-10 21:33:04.74	60.62	9.09	-49.4	-59.1	4.4	1.49e+00	0	40	104	0	70	10922
2026-01-10 21:33:06.75	60.95	9.14	-48.2	-54.2	9.6	8.05e-01	0	40	0	2097152	68	6989
2026-01-10 21:33:08.76	61.29	9.18	-47.4	-52.5	11.4	7.32e-04	0	40	0	5242880	66	6456
2026-01-10 21:33:10.77	61.63	9.23	-47.2	-52.0	11.9	3.74e-04	0	40	0	9437184	66	6074
2026-01-10 21:33:12.78	61.96	9.28	-46.9	-51.3	12.5	1.68e-04	0	40	0	13631488	65	5971
2026-01-10 21:33:14.78	62.30	9.32	-46.8	-51.1	12.8	3.66e-05	0	40	0	16777216	65	5803
2026-01-10 21:33:16.79	62.64	9.37	-46.6	-50.8	13.0	3.89e-05	0	40	0	20971520	65	5640
2026-01-10 21:33:18.79	62.98	9.41	-47.0	-51.5	12.3	9.53e-05	0	40	0	24117248	65	6128
2026-01-10 21:33:20.80	63.32	9.45	-46.7	-51.0	12.8	6.79e-05	0	40	0	28311552	65	5761
2026-01-10 21:33:22.81	63.66	9.50	-46.4	-50.4	13.5	1.52e-05	0	40	0	31457280	64	5700
2026-01-10 21:33:24.82	64.01	9.54	-46.2	-50.1	13.8	4.50e-06	0	40	0	35651584	64	5470
2026-01-10 21:33:26.82	64.35	9.58	-46.4	-50.3	13.6	6.10e-06	0	40	0	39845888	64	5656
2026-01-10 21:33:28.83	64.70	9.62	-46.7	-51.0	12.9	3.66e-05	0	40	0	42991616	64	6089
2026-01-10 21:33:30.83	65.04	9.66	-46.8	-51.2	12.7	5.56e-05	0	40	0	47185920	64	6213
2026-01-10 21:33:32.84	65.39	9.69	-46.5	-50.6	13.3	1.83e-05	0	40	0	50331648	64	5792
2026-01-10 21:33:34.85	65.74	9.73	-46.4	-50.3	13.6	8.30e-06	0	40	0	54525952	64	5623
2026-01-10 21:33:36.86	66.09	9.77	-46.2	-50.0	13.8	4.50e-06	0	40	0	58720256	64	5445
2026-01-10 21:33:38.87	66.44	9.80	-46.4	-50.4	13.5	1.22e-05	0	41	0	61865984	64	5696
2026-01-10 21:33:40.87	66.78	9.84	-46.6	-50.7	13.2	1.83e-05	0	41	0	66060288	64	5886
2026-01-10 21:33:42.88	67.14	9.87	-46.5	-50.6	13.3	1.98e-05	0	40	0	69206016	64	5842
2026-01-10 21:33:44.89	67.49	9.90	-46.7	-51.0	12.9	2.59e-05	0	40	0	73400320	64	6095
2026-01-10 21:33:46.89	67.84	9.93	-47.0	-51.6	12.3	1.14e-04	0	41	0	76546048	64	6501
2026-01-10 21:33:48.90	68.19	9.97	-47.5	-52.7	11.2	7.67e-04	0	40	0	80740352	65	7020
2026-01-10 21:33:50.91	68.55	10.00	-47.6	-52.9	10.9	2.78e-03	0	41	0	84934656	66	6783
2026-01-10 21:33:52.92	68.90	10.02	-47.6	-52.8	11.1	1.89e-03	0	40	0	88080384	66	6689
2026-01-10 21:33:54.92	69.26	10.05	-47.4	-52.4	11.5	1.26e-03	0	40	0	92274688	66	6412
2026-01-10 21:33:56.93	69.62	10.08	-47.2	-52.0	12.0	4.09e-04	0	41	0	95420416	66	6062
2026-01-10 21:33:58.94	69.97	10.11	-47.3	-52.0	11.9	2.97e-04	0	41	0	99614720	66	6075
2026-01-10 21:34:00.95	70.33	10.13	-47.4	-52.0	12.0	3.69e-04	0	40	0	103809024	66	6095
2026-01-10 21:34:02.95	70.69	10.16	-47.3	-51.9	12.0	2.82e-04	0	40	0	106954752	66	6026
2026-01-10 21:34:04.96	71.05	10.18	-47.2	-51.7	12.3	2.33e-04	0	40	0	111149056	66	5856
2026-01-10 21:34:06.97	71.41	10.20	-47.2	-51.7	12.3	1.68e-04	0	40	0	114294784	66	5867
2026-01-10 21:34:08.97	71.77	10.22	-47.1	-51.5	12.4	2.06e-04	0	40	0	118489088	66	5753
2026-01-10 21:34:10.98	72.13	10.24	-47.1	-51.5	12.5	1.27e-04	0	40	0	122683392	66	5727
2026-01-10 21:34:12.98	72.49	10.26	-47.0	-51.3	12.6	7.40e-05	0	40	0	125829120	65	5967
2026-01-10 21:34:14.99	72.85	10.28	-46.8	-50.9	13.0	3.96e-05	0	41	0	130023424	65	5714
2026-01-10 21:34:16.99	73.21	10.30	-46.7	-50.7	13.2	1.06e-05	0	40	0	133169152	65	5561
2026-01-10 21:34:19.00	73.57	10.32	-46.5	-50.4	13.5	1.06e-05	0	41	0	137363456	64	5682
2026-01-10 21:34:21.01	73.93	10.33	-46.6	-50.6	13.3	1.52e-05	0	41	0	141557760	64	5835
2026-01-10 21:34:23.02	74.30	10.35	-46.6	-50.6	13.4	1.29e-05	0	40	0	144703488	64	5790
2026-01-10 21:34:25.02	74.66	10.36	-46.4	-50.3	13.6	9.10e-06	0	40	0	148897792	64	5608
2026-01-10 21:34:27.03	75.02	10.37	-46.3	-50.1	13.9	3.80e-06	0	40	0	152043520	64	5488
2026-01-10 21:34:29.04	75.39	10.38	-46.4	-50.3	13.7	4.50e-06	0	40	0	156237824	64	5634
2026-01-10 21:34:31.05	75.75	10.39	-46.6	-50.6	13.3	2.13e-05	0	41	0	159383552	64	5823
2026-01-10 21:34:33.05	76.12	10.40	-46.6	-50.5	13.4	2.13e-05	0	40	0	163577856	64	5760
2026-01-10 21:34:35.06	76.48	10.41	-46.3	-50.1	13.8	7.60e-06	0	40	0	167772160	64	5521
2026-01-10 21:34:37.07	76.85	10.42	-46.0	-49.8	14.3	3.80e-06	0	40	0	170917888	63	5603
2026-01-10 21:34:39.07	77.21	10.43	-46.1	-49.8	14.2	3.00e-06	0	40	0	175112192	63	5630
2026-01-10 21:34:41.08	77.58	10.43	-46.2	-49.9	14.2	0.00e+00	0	41	0	178257920	63	5684
2026-01-10 21:34:43.08	77.94	10.44	-46.0	-49.5	14.5	0.00e+00	0	41	0	182452224	63	5435
2026-01-10 21:34:45.09	78.31	10.44	-45.8	-49.2	14.9	7.00e-07	0	40	0	186646528	63	5233
2026-01-10 21:34:47.10	78.67	10.44	-45.8	-49.2	14.8	0.00e+00	0	41	0	189792256	63	5219
2026-01-10 21:34:49.10	79.04	10.44	-46.0	-49.6	14.5	0.00e+00	0	40	0	193986560	63	5480
2026-01-10 21:34:51.11	79.40	10.44	-46.2	-50.0	14.1	2.20e-06	0	41	0	197132288	63	5734
2026-01-10 21:34:53.12	79.77	10.44	-46.1	-49.8	14.3	1.50e-06	0	41	0	201326592	63	5613
2026-01-10 21:34:55.12	80.13	10.44	-46.1	-49.7	14.3	1.50e-06	0	40	0	205520896	63	5588
2026-01-10 21:34:57.13	80.50	10.44	-46.0	-49.6	14.5	7.00e-07	0	40	0	208666624	63	5482
2026-01-10 21:34:59.13	80.86	10.43	-46.0	-49.6	14.4	0.00e+00	0	41	0	212860928	63	5491
2026-01-10 21:35:01.14	81.23	10.43	-46.1	-49.7	14.3	7.00e-07	0	41	0	216006656	63	5543
2026-01-10 21:35:03.14	81.59	10.42	-46.1	-49.7	14.4	7.00e-07	0	41	0	220200960	63	5558
2026-01-10 21:35:05.15	81.96	10.42	-45.8	-49.3	14.7	0.00e+00	0	41	0	223346688	63	5335
2026-01-10 21:35:07.16	82.33	10.41	-45.6	-49.1	14.9	0.00e+00	0	41	0	227540992	63	5181
2026-01-10 21:35:09.17	82.69	10.40	-45.5	-48.9	15.1	0.00e+00	0	40	0	231735296	62	5354
2026-01-10 21:35:11.18	83.06	10.39	-45.7	-49.1	14.9	0.00e+00	0	40	0	234881024	62	5498
2026-01-10 21:35:13.18	83.42	10.38	-45.7	-49.2	14.9	0.00e+00	0	41	0	239075328	62	5531
2026-01-10 21:35:15.19	83.78	10.37	-45.4	-48.8	15.3	0.00e+00	0	40	0	242221056	62	5283
2026-01-10 21:35:17.20	84.15	10.35	-45.1	-48.4	15.7	0.00e+00	0	40	0	246415360	62	5042
2026-01-10 21:35:19.21	84.51	10.34	-44.9	-48.0	15.9	0.00e+00	0	41	0	250609664	61	5138
2026-01-10 21:35:21.21	84.87	10.32	-44.9	-48.1	15.8	0.00e+00	0	41	0	253755392	61	5184
2026-01-10 21:35:23.22	85.24	10.31	-45.2	-48.5	15.5	0.00e+00	0	41	0	257949696	61	5408
2026-01-10 21:35:25.23	85.60	10.29	-45.3	-48.6	15.4	0.00e+00	0	41	0	261095424	61	5515
2026-01-10 21:35:27.24	85.96	10.27	-45.4	-48.8	15.2	0.00e+00	0	40	0	265289728	61	5618
2026-01-10 21:35:29.24	86.32	10.25	-45.4	-48.7	15.3	0.00e+00	0	41	0	269484032	61	5578
2026-01-10 21:35:31.25	86.68	10.23	-45.3	-48.6	15.4	0.00e+00	0	40	0	272629760	61	5512
2026-01-10 21:35:33.25	87.04	10.21	-45.4	-48.8	15.2	0.00e+00	0	41	0	276824064	61	5611
2026-01-10 21:35:35.26	87.40	10.19	-45.5	-48.9	15.1	0.00e+00	0	40	0	279969792	61	5689
2026-01-10 21:35:37.27	87.76	10.17	-45.6	-48.9	15.1	0.00e+00	0	40	0	284164096	61	5705
2026-01-10 21:35:39.28	88.12	10.14	-45.7	-49.1	14.9	0.00e+00	0	41	0	287309824	62	5502
2026-01-10 21:35:41.28	88.48	10.12	-45.7	-49.1	14.8	0.00e+00	0	41	0	291504128	62	5499
2026-01-10 21:35:43.29	88.84	10.09	-45.6	-49.0	15.1	0.00e+00	0	41	0	295698432	62	5407
2026-01-10 21:35:45.30	89.20	10.06	-45.8	-49.3	14.7	1.50e-06	0	40	0	298844160	62	5636
2026-01-10 21:35:47.31	89.56	10.04	-46.0	-49.7	14.3	0.00e+00	0	40	0	303038464	62	5890
2026-01-10 21:35:49.31	89.91	10.01	-46.2	-49.9	14.1	3.80e-06	0	40	0	306184192	63	5674
2026-01-10 21:35:51.32	90.27	9.98	-45.9	-49.4	14.5	0.00e+00	0	40	0	310378496	63	5396
2026-01-10 21:35:53.33	90.62	9.95	-45.6	-49.0	14.9	1.50e-06	0	41	0	314572800	63	5154
2026-01-10 21:35:55.33	90.97	9.92	-45.6	-48.9	15.1	0.00e+00	0	41	0	317718528	63	5064
2026-01-10 21:35:57.34	91.33	9.88	-45.2	-48.4	15.5	0.00e+00	0	41	0	321912832	62	5061
2026-01-10 21:35:59.34	91.68	9.85	-45.1	-48.2	15.7	0.00e+00	0	40	0	325058560	62	4970
2026-01-10 21:36:01.35	92.03	9.82	-44.9	-47.9	16.0	0.00e+00	0	41	0	329252864	61	5067
2026-01-10 21:36:03.36	92.38	9.78	-44.7	-47.7	16.2	0.00e+00	0	41	0	333447168	61	4957
2026-01-10 21:36:05.37	92.73	9.75	-44.8	-47.8	16.1	0.00e+00	0	41	0	336592896	61	5040
2026-01-10 21:36:07.38	93.08	9.71	-45.1	-48.2	15.7	0.00e+00	0	41	0	340787200	61	5247
2026-01-10 21:36:09.38	93.43	9.67	-45.1	-48.2	15.6	0.00e+00	0	41	0	343932928	61	5275
2026-01-10 21:36:11.39	93.78	9.63	-45.3	-48.5	15.4	0.00e+00	0	41	0	348127232	61	5441
2026-01-10 21:36:13.40	94.12	9.59	-45.3	-48.5	15.4	0.00e+00	0	41	0	351272960	61	5440
2026-01-10 21:36:15.40	94.47	9.55	-45.3	-48.5	15.4	0.00e+00	0	41	0	355467264	61	5417
2026-01-10 21:36:17.41	94.81	9.51	-45.2	-48.3	15.5	0.00e+00	0	41	0	359661568	61	5319
2026-01-10 21:36:19.42	95.16	9.47	-45.0	-48.2	15.8	0.00e+00	0	40	0	362807296	61	5222
2026-01-10 21:36:21.42	95.50	9.43	-45.4	-48.6	15.3	0.00e+00	0	41	0	367001600	61	5524
2026-01-10 21:36:23.43	95.84	9.38	-45.3	-48.6	15.3	0.00e+00	0	41	0	370147328	61	5503
2026-01-10 21:36:25.44	96.18	9.34	-45.4	-48.7	15.2	0.00e+00	0	40	0	374341632	61	5548
2026-01-10 21:36:27.45	96.52	9.29	-45.0	-48.1	15.8	0.00e+00	0	41	0	378535936	61	5181
2026-01-10 21:36:29.45	96.86	9.25	-44.7	-47.7	16.2	0.00e+00	0	41	0	381681664	61	4945
2026-01-10 21:36:31.46	97.20	9.20	-44.9	-47.9	15.9	0.00e+00	0	41	0	385875968	61	5097
2026-01-10 21:36:33.47	97.54	9.15	-45.1	-48.2	15.7	0.00e+00	0	41	0	389021696	61	5249
2026-01-10 21:36:35.47	97.87	9.10	-45.3	-48.5	15.4	0.00e+00	0	40	0	393216000	61	5422
2026-01-10 21:36:37.48	98.21	9.05	-45.3	-48.5	15.4	0.00e+00	0	40	0	397410304	61	5413
2026-01-10 21:36:39.49	98.54	9.00	-46.2	-49.8	14.4	0.00e+00	0	40	0	400556032	62	5962
2026-01-10 21:36:41.50	98.87	8.95	-50.5	-65.6	3.8	1.49e+00	0	40	104	401604608	71	21823
2026-01-10 21:36:43.51	99.21	8.90	-50.3	-65.8	3.8	1.49e+00	0	40	104	401604608	71	22407
2026-01-10 21:36:45.52	99.54	8.85	-50.4	-65.9	3.8	1.49e+00	0	40	104	401604608	71	22721
2026-01-10 21:36:47.53	99.87	8.80	-50.5	-66.0	3.8	1.49e+00	0	40	104	401604608	71	22903
2026-01-10 21:36:49.54	100.19	8.74	-50.6	-66.0	3.8	1.49e+00	0	41	104	401604608	71	22940
2026-01-10 21:36:51.55	100.52	8.69	-50.5	-66.0	3.8	1.49e+00	0	41	104	401604608	71	22936
2026-01-10 21:36:53.55	100.85	8.63	-50.6	-66.1	3.8	1.49e+00	0	41	104	401604608	71	23127
2026-01-10 21:36:55.56	101.17	8.58	-50.5	-66.1	3.8	1.49e+00	0	41	104	401604608	71	23139
2026-01-10 21:36:57.57	101.49	8.52	-50.4	-66.1	3.8	1.49e+00	0	40	104	401604608	71	23089
2026-01-10 21:36:59.58	101.82	8.47	-50.6	-66.1	3.8	1.49e+00	0	41	104	401604608	71	23093
2026-01-10 21:37:01.59	102.14	8.41	-50.7	-66.0	3.8	1.49e+00	0	41	104	401604608	72	21652
2026-01-10 21:37:03.60	102.46	8.35	-50.7	-66.0	3.8	1.49e+00	0	41	104	401604608	72	21662
2026-01-10 21:37:05.60	102.77	8.29	-50.7	-66.0	3.8	1.49e+00	0	41	104	401604608	72	21671
2026-01-10 21:37:07.61	103.09	8.23	-50.7	-66.0	3.8	1.49e+00	0	40	104	401604608	72	21642
2026-01-10 21:37:09.62	103.41	8.17	-50.7	-66.0	3.8	1.49e+00	0	41	104	401604608	72	21620
2026-01-10 21:37:11.63	103.72	8.11	-50.7	-66.0	3.8	1.49e+00	0	41	104	401604608	72	21624
2026-01-10 21:37:13.64	104.04	8.05	-50.7	-66.0	3.8	1.49e+00	0	41	104	401604608	72	21576
2026-01-10 21:37:15.65	104.35	7.99	-50.7	-66.0	3.8	1.49e+00	0	41	104	401604608	72	21588
2026-01-10 21:37:17.65	104.66	7.93	-50.7	-66.0	3.8	1.49e+00	0	41	104	401604608	72	21596
2026-01-10 21:37:19.66	104.97	7.86	-50.6	-66.0	3.8	1.49e+00	0	41	104	401604608	72	21585
2026-01-10 21:37:21.67	105.28	7.80	-50.6	-66.0	3.8	1.49e+00	0	41	104	401604608	72	21576
2026-01-10 21:37:23.68	105.58	7.73	-50.6	-66.0	3.8	1.49e+00	0	41	104	401604608	72	21594
2026-01-10 21:37:25.69	105.89	7.67	-50.6	-66.0	3.8	1.49e+00	0	41	104	401604608	72	21577
2026-01-10 21:37:27.70	106.19	7.60	-50.6	-66.0	3.8	1.49e+00	0	41	104	401604608	72	21538
2026-01-10 21:37:29.71	106.50	7.54	-50.6	-66.0	3.8	1.49e+00	0	41	104	401604608	72	21561
2026-01-10 21:37:31.71	106.80	7.47	-50.6	-66.0	3.8	1.49e+00	0	41	104	401604608	72	21567
2026-01-10 21:37:33.72	107.10	7.41	-50.6	-65.9	3.8	1.49e+00	0	41	104	401604608	72	21424
2026-01-10 21:37:35.73	107.40	7.34	-50.6	-66.0	3.8	1.49e+00	0	41	104	401604608	72	21558
2026-01-10 21:37:37.74	107.70	7.27	-50.6	-66.0	3.8	1.49e+00	0	41	104	401604608	72	21597
2026-01-10 21:37:39.75	107.99	7.20	-50.6	-66.0	3.8	1.49e+00	0	41	104	401604608	72	21521
2026-01-10 21:37:41.75	108.29	7.13	-50.6	-66.0	3.8	1.49e+00	0	40	104	401604608	72	21510
2026-01-10 21:37:43.77	108.58	7.07	-50.6	-65.9	3.8	1.49e+00	0	41	104	401604608	72	21385
2026-01-10 21:37:45.77	108.87	7.00	-50.6	-65.9	3.8	1.49e+00	0	40	104	401604608	72	21475
2026-01-10 21:37:47.78	109.16	6.93	-50.6	-65.9	3.8	1.49e+00	0	41	104	401604608	72	21444
2026-01-10 21:37:49.79	109.45	6.86	-50.6	-65.9	3.8	1.49e+00	0	41	104	401604608	72	21464
2026-01-10 21:37:51.80	109.74	6.78	-50.6	-65.9	3.8	1.49e+00	0	41	104	401604608	72	21502
2026-01-10 21:37:53.81	110.03	6.71	-50.6	-65.9	3.8	1.49e+00	0	41	104	401604608	72	21453
2026-01-10 21:37:55.82	110.32	6.64	-50.6	-65.9	3.8	1.49e+00	0	41	104	401604608	72	21455
2026-01-10 21:37:57.82	110.60	6.57	-50.6	-65.9	3.8	1.49e+00	0	41	104	401604608	72	21451
2026-01-10 21:37:59.83	110.88	6.50	-50.6	-65.9	3.8	1.49e+00	0	41	104	401604608	72	21450
2026-01-10 21:38:01.84	111.16	6.42	-50.6	-65.9	3.8	1.49e+00	0	41	104	401604608	72	21502
2026-01-10 21:38:03.85	111.45	6.35	-50.6	-65.9	3.8	1.49e+00	0	41	104	401604608	72	21426
2026-01-10 21:38:05.86	111.72	6.28	-50.6	-65.9	3.8	1.49e+00	0	41	104	401604608	72	21443
2026-01-10 21:38:07.87	112.00	6.20	-50.6	-66.0	3.8	1.49e+00	0	41	104	401604608	72	21519
2026-01-10 21:38:09.88	112.28	6.13	-50.6	-65.9	3.8	1.49e+00	0	41	104	401604608	72	21442
2026-01-10 21:38:11.89	112.55	6.06	-50.6	-65.9	3.8	1.49e+00	0	40	104	401604608	72	21365
2026-01-10 21:38:13.90	112.83	5.98	-50.6	-66.0	3.8	1.49e+00	0	40	104	401604608	72	21535
2026-01-10 21:38:15.90	113.10	5.91	-50.6	-65.9	3.8	1.49e+00	0	41	104	401604608	72	21417
2026-01-10 21:38:17.91	113.37	5.83	-50.6	-65.9	3.8	1.49e+00	0	40	104	401604608	72	21420
2026-01-10 21:38:19.92	113.64	5.75	-50.6	-65.9	3.8	1.49e+00	0	41	104	401604608	72	21435
2026-01-10 21:38:21.93	113.91	5.68	-50.6	-65.9	3.8	1.49e+00	0	41	104	401604608	72	21446
2026-01-10 21:38:23.93	114.17	5.60	-50.6	-65.9	3.8	1.49e+00	0	41	104	401604608	72	21423
2026-01-10 21:38:25.94	114.44	5.52	-50.6	-65.9	3.8	1.49e+00	0	40	104	401604608	72	21437
2026-01-10 21:38:27.95	114.70	5.45	-50.6	-65.9	3.8	1.49e+00	0	40	104	401604608	72	21381
2026-01-10 21:38:29.96	114.97	5.37	-50.6	-65.9	3.8	1.49e+00	0	41	104	401604608	72	21474
2026-01-10 21:38:31.97	115.23	5.29	-50.6	-65.9	3.8	1.49e+00	0	41	104	401604608	72	21403
2026-01-10 21:38:33.98	115.49	5.21	-50.6	-65.9	3.8	1.49e+00	0	41	104	401604608	72	21477
2026-01-10 21:38:35.99	115.75	5.14	-50.6	-65.9	3.8	1.49e+00	0	41	104	401604608	72	21457
2026-01-10 21:38:38.00	116.00	5.06	-50.6	-65.9	3.8	1.49e+00	0	41	104	401604608	72	21398
2026-01-10 21:38:40.00	116.26	4.98	-50.6	-65.9	3.8	1.49e+00	0	40	104	401604608	72	21443

#Closed at: 2026-01-10 21:38:41
#Recorded file [401 MB]: D:/Data/31040_260111_003100.dat