passes_logs/2026/01/10/T1/T1__20260110_002857_FENGYUN_3D_rec.log

#Pass ID: 20260110_002857_FENGYUN 3D
#Satellite: FENGYUN 3D
#Configuration: FENGYUN 3D
#almurnet v.1.7.20251203
#Start time: 2026-01-10 00:28:59

#Version: 2.0.20230620
#Station: T1
#Location: 37.570604 lon 55.790049 lat
#TLE: 1 43010U 17072A   26009.29492227  .00000158  00000+0  96483-4 0  9996
#TLE: 2 43010  98.9936 341.0229 0002153 117.3665 242.7729 14.19694440422446

#Time	Az	El	Level	Level2	SNR	BER	BlckErr	Temp	State	Recorded	gain1	gain2
2026-01-10 00:28:59.18	27.52	5.13	-50.3	-62.9	3.8	8.46e-01	0	41	104	0	71	16022
2026-01-10 00:29:02.19	27.74	5.31	-50.3	-62.8	3.8	8.46e-01	0	41	104	0	71	15941
2026-01-10 00:29:05.20	27.97	5.50	-50.3	-62.8	3.8	8.46e-01	0	42	104	0	71	15842
2026-01-10 00:29:08.22	28.20	5.69	-50.3	-62.8	3.8	8.48e-01	0	42	104	0	71	15865
2026-01-10 00:29:11.23	28.44	5.88	-50.3	-62.8	3.8	8.47e-01	0	42	104	0	71	15835
2026-01-10 00:29:14.24	28.68	6.07	-50.3	-62.8	3.8	8.46e-01	0	42	104	0	71	15860
2026-01-10 00:29:17.25	28.92	6.27	-50.3	-62.8	3.8	8.46e-01	0	42	104	0	71	15765
2026-01-10 00:29:20.27	29.17	6.46	-50.3	-62.7	3.8	8.47e-01	0	42	104	0	71	15637
2026-01-10 00:29:23.28	29.41	6.65	-50.3	-62.6	3.8	8.46e-01	0	42	104	0	71	15459
2026-01-10 00:29:26.29	29.66	6.85	-50.3	-62.6	3.8	8.47e-01	0	42	104	0	71	15427
2026-01-10 00:29:29.31	29.92	7.05	-50.2	-62.7	3.8	8.46e-01	0	42	104	0	71	15614
2026-01-10 00:29:32.32	30.17	7.25	-50.3	-62.9	3.8	8.47e-01	0	42	104	0	71	15962
2026-01-10 00:29:35.33	30.44	7.44	-50.3	-62.9	3.8	8.47e-01	0	43	104	0	71	15968
2026-01-10 00:29:38.35	30.70	7.65	-50.3	-62.9	3.8	8.47e-01	0	43	104	0	71	16020
2026-01-10 00:29:41.36	30.97	7.85	-50.3	-62.9	3.8	8.47e-01	0	43	104	0	71	16005
2026-01-10 00:29:44.37	31.24	8.05	-50.3	-62.8	3.8	8.48e-01	0	43	104	0	71	15828
2026-01-10 00:29:47.38	31.51	8.25	-50.2	-62.2	3.8	8.47e-01	0	43	104	0	71	14841
2026-01-10 00:29:50.40	31.79	8.46	-50.2	-61.8	3.8	8.48e-01	0	43	104	0	71	14114
2026-01-10 00:29:53.41	32.07	8.66	-50.3	-62.6	3.8	8.47e-01	0	43	104	0	71	15440
2026-01-10 00:29:56.42	32.36	8.87	-50.0	-60.8	3.8	8.46e-01	0	43	104	0	71	12557
2026-01-10 00:29:59.44	32.65	9.08	-49.5	-57.4	4.9	8.20e-01	0	43	0	0	71	8495
2026-01-10 00:30:02.47	32.94	9.29	-47.3	-51.1	10.6	8.18e-04	0	43	0	3145728	65	5847
2026-01-10 00:30:05.48	33.24	9.50	-44.2	-46.7	15.2	0.00e+00	0	43	0	19922944	60	4668
2026-01-10 00:30:08.50	33.55	9.71	-43.5	-45.8	16.1	0.00e+00	0	43	0	36700160	59	4466
2026-01-10 00:30:11.51	33.85	9.92	-43.3	-45.6	16.3	0.00e+00	0	43	0	53477376	58	4631
2026-01-10 00:30:14.52	34.16	10.14	-43.0	-45.2	16.7	0.00e+00	0	43	0	71303168	58	4425
2026-01-10 00:30:17.53	34.48	10.35	-42.7	-44.8	17.1	0.00e+00	0	43	0	88080384	57	4464
2026-01-10 00:30:20.54	34.80	10.57	-42.5	-44.6	17.3	0.00e+00	0	43	0	104857600	57	4344
2026-01-10 00:30:23.55	35.12	10.78	-42.5	-44.6	17.4	0.00e+00	0	43	0	121634816	56	4600
2026-01-10 00:30:26.56	35.45	11.00	-42.4	-44.5	17.5	0.00e+00	0	43	0	138412032	56	4573
2026-01-10 00:30:29.56	35.78	11.22	-42.6	-44.8	17.2	0.00e+00	0	44	0	155189248	56	4726
2026-01-10 00:30:32.57	36.12	11.44	-42.4	-44.5	17.5	0.00e+00	0	44	0	173015040	56	4561
2026-01-10 00:30:35.58	36.46	11.66	-42.2	-44.2	17.8	0.00e+00	0	43	0	189792256	56	4427
2026-01-10 00:30:38.59	36.81	11.88	-41.9	-43.9	18.0	0.00e+00	0	43	0	206569472	55	4501
2026-01-10 00:30:41.95	37.20	12.13	-41.9	-43.9	17.9	0.00e+00	0	44	0	225443840	55	4521
2026-01-10 00:30:44.71	37.53	12.34	-42.0	-44.1	17.5	0.00e+00	0	43	0	241172480	55	4607
2026-01-10 00:30:48.00	37.93	12.59	-41.8	-43.9	17.4	0.00e+00	0	44	0	258998272	55	4535
2026-01-10 00:30:50.72	38.26	12.79	-41.8	-43.9	17.4	0.00e+00	0	43	0	274726912	55	4529
2026-01-10 00:30:54.01	38.67	13.04	-42.0	-44.1	17.4	0.00e+00	0	43	0	292552704	55	4615
2026-01-10 00:30:56.74	39.02	13.25	-42.0	-44.1	17.6	0.00e+00	0	43	0	308281344	55	4642
2026-01-10 00:31:00.03	39.44	13.50	-42.0	-44.0	17.8	0.00e+00	0	44	0	327155712	55	4592
2026-01-10 00:31:02.75	39.79	13.71	-41.7	-43.7	18.2	0.00e+00	0	44	0	341835776	55	4398
2026-01-10 00:31:06.05	40.23	13.96	-41.5	-43.5	18.3	0.00e+00	0	44	0	360710144	54	4574
2026-01-10 00:31:08.98	40.62	14.19	-41.6	-43.5	18.3	0.00e+00	0	44	0	377487360	54	4581
2026-01-10 00:31:12.27	41.07	14.45	-41.4	-43.4	18.5	0.00e+00	0	44	0	396361728	54	4504
2026-01-10 00:31:15.00	41.45	14.66	-41.3	-43.2	18.7	0.00e+00	0	44	0	411041792	54	4440
2026-01-10 00:31:18.25	41.91	14.92	-41.3	-43.3	18.8	0.00e+00	0	44	0	428867584	54	4443
2026-01-10 00:31:21.35	42.35	15.16	-41.3	-43.2	18.9	0.00e+00	0	43	0	446693376	54	4414
2026-01-10 00:31:24.36	42.79	15.40	-40.9	-42.8	19.2	0.00e+00	0	44	0	463470592	53	4462
2026-01-10 00:31:27.37	43.23	15.64	-41.1	-43.0	19.0	0.00e+00	0	44	0	480247808	53	4565
2026-01-10 00:31:30.38	43.68	15.88	-41.0	-42.9	19.1	0.00e+00	0	44	0	498073600	53	4530
2026-01-10 00:31:33.47	44.15	16.12	-41.0	-42.8	19.2	0.00e+00	0	44	0	514850816	53	4480
2026-01-10 00:31:36.37	44.60	16.35	-40.8	-42.7	19.4	0.00e+00	0	44	0	531628032	53	4403
2026-01-10 00:31:39.38	45.07	16.60	-40.8	-42.6	19.4	0.00e+00	0	44	0	548405248	53	4388
2026-01-10 00:31:42.39	45.55	16.84	-40.9	-42.8	19.3	0.00e+00	0	44	0	565182464	53	4459
2026-01-10 00:31:45.40	46.04	17.08	-40.7	-42.6	19.5	0.00e+00	0	44	0	581959680	53	4361
2026-01-10 00:31:48.39	46.53	17.32	-40.7	-42.5	19.6	0.00e+00	0	43	0	598736896	53	4317
2026-01-10 00:31:51.39	47.03	17.56	-40.4	-42.3	19.8	0.00e+00	0	44	0	615514112	52	4444
2026-01-10 00:31:54.40	47.55	17.81	-40.6	-42.5	19.7	0.00e+00	0	44	0	632291328	52	4547
2026-01-10 00:31:57.41	48.06	18.05	-40.6	-42.4	19.7	0.00e+00	0	44	0	649068544	52	4515
2026-01-10 00:32:00.42	48.59	18.30	-40.5	-42.4	19.8	0.00e+00	0	44	0	666894336	52	4497
2026-01-10 00:32:03.51	49.14	18.55	-40.3	-42.1	20.0	0.00e+00	0	44	0	683671552	52	4354
2026-01-10 00:32:06.37	49.66	18.78	-40.3	-42.1	20.0	0.00e+00	0	44	0	700448768	52	4379
2026-01-10 00:32:09.53	50.24	19.03	-40.2	-42.0	20.1	0.00e+00	0	44	0	718274560	52	4329
2026-01-10 00:32:12.40	50.77	19.27	-40.3	-42.1	20.1	0.00e+00	0	44	0	734003200	52	4346
2026-01-10 00:32:15.63	51.39	19.53	-40.2	-42.0	20.2	0.00e+00	0	44	0	751828992	52	4298
2026-01-10 00:32:18.50	51.94	19.76	-40.0	-41.8	20.3	0.00e+00	0	44	0	768606208	52	4228
2026-01-10 00:32:21.65	52.55	20.01	-40.2	-41.9	20.2	0.00e+00	0	44	0	786432000	52	4289
2026-01-10 00:32:24.52	53.12	20.24	-40.1	-41.8	20.4	0.00e+00	0	44	0	802160640	51	4481
2026-01-10 00:32:27.67	53.76	20.50	-40.2	-42.0	20.2	0.00e+00	0	44	0	819986432	51	4583
2026-01-10 00:32:30.54	54.35	20.73	-40.2	-42.0	20.3	0.00e+00	0	44	0	835715072	51	4559
2026-01-10 00:32:33.69	55.00	20.98	-39.7	-41.4	20.8	0.00e+00	0	44	0	853540864	51	4273
2026-01-10 00:32:36.56	55.61	21.20	-39.8	-41.6	20.7	0.00e+00	0	44	0	870318080	51	4346
2026-01-10 00:32:39.71	56.28	21.45	-39.8	-41.5	20.7	0.00e+00	0	44	0	887095296	51	4336
2026-01-10 00:32:42.87	56.97	21.70	-39.8	-41.5	20.7	0.00e+00	0	44	0	905969664	51	4324
2026-01-10 00:32:45.88	57.64	21.93	-39.8	-41.7	20.3	0.00e+00	0	44	0	922746880	51	4395
2026-01-10 00:32:48.89	58.31	22.16	-39.8	-41.7	20.3	0.00e+00	0	44	0	939524096	51	4395
2026-01-10 00:32:51.84	58.98	22.39	-39.5	-41.3	20.7	0.00e+00	0	44	0	956301312	50	4458
2026-01-10 00:32:54.98	59.71	22.63	-39.4	-41.2	20.8	0.00e+00	0	44	0	973078528	50	4401
2026-01-10 00:32:57.85	60.38	22.84	-39.7	-41.5	20.5	0.00e+00	0	44	0	989855744	50	4578
2026-01-10 00:33:01.01	61.13	23.08	-39.1	-40.9	21.1	0.00e+00	0	44	0	1007681536	50	4263
2026-01-10 00:33:03.88	61.82	23.29	-39.1	-40.9	21.1	0.00e+00	0	44	0	1023410176	50	4252
2026-01-10 00:33:07.03	62.59	23.51	-39.3	-41.1	20.8	0.00e+00	0	44	0	1041235968	50	4372
2026-01-10 00:33:09.89	63.30	23.72	-39.3	-41.1	20.9	0.00e+00	0	44	0	1056964608	50	4349
2026-01-10 00:33:13.04	64.09	23.94	-39.1	-40.8	21.1	0.00e+00	0	44	0	1074790400	50	4228
2026-01-10 00:33:15.91	64.82	24.14	-39.1	-40.9	21.0	0.00e+00	0	44	0	1091567616	50	4285
2026-01-10 00:33:19.06	65.63	24.35	-39.1	-40.9	21.1	0.00e+00	0	44	0	1109393408	50	4260
2026-01-10 00:33:21.93	66.38	24.54	-39.0	-40.7	21.2	0.00e+00	0	44	0	1125122048	50	4190
2026-01-10 00:33:25.08	67.22	24.75	-39.1	-40.8	21.1	0.00e+00	0	44	0	1142947840	49	4485
2026-01-10 00:33:28.60	68.16	24.97	-39.1	-40.8	21.1	0.00e+00	0	44	0	1162870784	49	4489
2026-01-10 00:33:31.32	68.90	25.14	-39.2	-41.0	21.0	0.00e+00	0	44	0	1177550848	49	4548
2026-01-10 00:33:34.61	69.80	25.34	-38.7	-40.5	21.4	0.00e+00	0	44	0	1196425216	49	4314
2026-01-10 00:33:37.48	70.59	25.51	-38.9	-40.7	21.3	0.00e+00	0	44	0	1212153856	49	4407
2026-01-10 00:33:40.62	71.47	25.69	-38.8	-40.6	21.3	0.00e+00	0	44	0	1229979648	49	4375
2026-01-10 00:33:43.78	72.37	25.86	-38.8	-40.6	21.4	0.00e+00	0	44	0	1247805440	49	4349
2026-01-10 00:33:46.64	73.19	26.01	-38.8	-40.6	21.4	0.00e+00	0	44	0	1264582656	49	4351
2026-01-10 00:33:49.79	74.10	26.18	-38.9	-40.6	21.3	0.00e+00	0	44	0	1281359872	49	4388
2026-01-10 00:33:52.70	74.95	26.32	-38.7	-40.5	21.4	0.00e+00	0	44	0	1298137088	49	4327
2026-01-10 00:33:56.09	75.95	26.48	-38.7	-40.4	21.4	0.00e+00	0	44	0	1317011456	49	4288
2026-01-10 00:33:58.82	76.76	26.60	-38.8	-40.6	21.4	0.00e+00	0	44	0	1332740096	49	4363
2026-01-10 00:34:02.16	77.76	26.74	-38.9	-40.7	21.2	0.00e+00	0	44	0	1351614464	49	4437
2026-01-10 00:34:05.22	78.69	26.87	-38.8	-40.6	21.3	0.00e+00	0	44	0	1368391680	49	4373
2026-01-10 00:34:08.26	79.62	26.98	-38.5	-40.2	21.7	0.00e+00	0	44	0	1385168896	49	4186
2026-01-10 00:34:11.27	80.54	27.09	-38.5	-40.3	21.6	0.00e+00	0	44	0	1402994688	48	4460
2026-01-10 00:34:14.27	81.47	27.18	-38.5	-40.2	21.7	0.00e+00	0	44	0	1419771904	48	4417
2026-01-10 00:34:17.28	82.40	27.28	-38.8	-40.6	21.3	0.00e+00	0	44	0	1436549120	48	4609
2026-01-10 00:34:20.37	83.37	27.36	-38.7	-40.5	21.4	0.00e+00	0	44	0	1454374912	48	4587
2026-01-10 00:34:23.33	84.29	27.43	-38.9	-40.8	21.2	0.00e+00	0	44	0	1470103552	48	4714
2026-01-10 00:34:26.63	85.33	27.51	-38.7	-40.5	21.4	0.00e+00	0	44	0	1488977920	48	4592
2026-01-10 00:34:29.46	86.23	27.56	-38.6	-40.4	21.5	0.00e+00	0	44	0	1504706560	48	4506
2026-01-10 00:34:32.61	87.23	27.61	-38.6	-40.4	21.6	0.00e+00	0	44	0	1522532352	48	4499
2026-01-10 00:34:35.75	88.23	27.66	-38.5	-40.3	21.6	0.00e+00	0	44	0	1540358144	48	4456
2026-01-10 00:34:38.61	89.15	27.69	-38.4	-40.2	21.7	0.00e+00	0	44	0	1556086784	48	4412
2026-01-10 00:34:41.76	90.15	27.71	-38.7	-40.5	21.5	0.00e+00	0	44	0	1573912576	48	4571
2026-01-10 00:34:44.63	91.07	27.73	-38.7	-40.5	21.5	0.00e+00	0	44	0	1590689792	48	4547
2026-01-10 00:34:48.11	92.19	27.74	-38.7	-40.4	21.5	0.00e+00	0	44	0	1609564160	48	4544
2026-01-10 00:34:50.83	93.06	27.74	-38.6	-40.4	21.5	0.00e+00	0	44	0	1625292800	48	4536
2026-01-10 00:34:54.13	94.12	27.72	-38.5	-40.3	21.6	0.00e+00	0	44	0	1644167168	48	4448
2026-01-10 00:34:57.06	95.06	27.70	-38.6	-40.4	21.6	0.00e+00	0	44	0	1659895808	48	4507
2026-01-10 00:35:00.20	96.06	27.68	-38.8	-40.6	21.3	0.00e+00	0	44	0	1677721600	48	4649
2026-01-10 00:35:03.54	97.13	27.63	-38.8	-40.6	21.3	0.00e+00	0	44	0	1696595968	48	4631
2026-01-10 00:35:06.26	97.99	27.59	-38.9	-40.7	21.2	0.00e+00	0	44	0	1712324608	48	4692
2026-01-10 00:35:09.62	99.06	27.53	-38.7	-40.4	21.5	0.00e+00	0	44	0	1731198976	48	4543
2026-01-10 00:35:12.67	100.03	27.47	-38.7	-40.5	21.4	0.00e+00	0	44	0	1747976192	48	4567
2026-01-10 00:35:15.98	101.07	27.39	-38.8	-40.6	21.4	0.00e+00	0	44	0	1766850560	48	4604
2026-01-10 00:35:18.70	101.92	27.32	-38.7	-40.5	21.5	0.00e+00	0	44	0	1781530624	48	4547
2026-01-10 00:35:22.00	102.95	27.22	-38.7	-40.5	21.5	0.00e+00	0	44	0	1800404992	48	4565
2026-01-10 00:35:24.72	103.79	27.13	-38.6	-40.4	21.6	0.00e+00	0	44	0	1816133632	48	4496
2026-01-10 00:35:28.01	104.81	27.02	-39.0	-40.9	21.1	0.00e+00	0	44	0	1833959424	48	4760
2026-01-10 00:35:30.92	105.70	26.91	-39.1	-40.9	21.1	0.00e+00	0	44	0	1850736640	48	4767
2026-01-10 00:35:34.75	106.86	26.76	-39.0	-40.8	21.2	0.00e+00	0	44	0	1871708160	49	4488
2026-01-10 00:35:37.51	107.69	26.65	-39.3	-41.1	20.9	0.00e+00	0	44	0	1887436800	49	4625
2026-01-10 00:35:41.04	108.75	26.49	-38.8	-40.6	21.4	0.00e+00	0	44	0	1907359744	49	4376
2026-01-10 00:35:44.05	109.64	26.35	-39.1	-40.9	21.1	0.00e+00	0	44	0	1924136960	49	4507
2026-01-10 00:35:47.06	110.52	26.20	-39.1	-40.9	21.1	0.00e+00	0	44	0	1940914176	49	4524
2026-01-10 00:35:50.07	111.40	26.05	-39.1	-40.9	21.1	0.00e+00	0	44	0	1958739968	49	4503
2026-01-10 00:35:53.08	112.27	25.89	-39.2	-41.0	21.0	0.00e+00	0	44	0	1975517184	49	4577
2026-01-10 00:35:56.85	113.34	25.68	-38.8	-40.6	21.4	0.00e+00	0	44	0	1996488704	49	4372
2026-01-10 00:35:59.58	114.11	25.52	-39.1	-41.0	21.0	0.00e+00	0	44	0	2012217344	49	4548
2026-01-10 00:36:03.21	115.12	25.31	-39.4	-41.2	20.8	0.00e+00	0	44	0	2032140288	49	4702
2026-01-10 00:36:05.93	115.87	25.14	-39.4	-41.2	20.9	0.00e+00	0	44	0	2047868928	49	4657
2026-01-10 00:36:09.25	116.77	24.93	-39.4	-41.2	20.8	0.00e+00	0	44	0	2066743296	49	4669
2026-01-10 00:36:11.96	117.50	24.76	-39.3	-41.1	20.9	0.00e+00	0	44	0	2081423360	49	4627
2026-01-10 00:36:15.26	118.37	24.55	-39.2	-41.1	20.9	0.00e+00	0	44	0	2100297728	49	4602
2026-01-10 00:36:17.98	119.09	24.36	-39.3	-41.2	20.9	0.00e+00	0	44	0	2114977792	49	4659
2026-01-10 00:36:21.28	119.94	24.14	-39.4	-41.3	20.7	0.00e+00	0	44	0	2133852160	49	4714
2026-01-10 00:36:24.01	120.64	23.95	-39.5	-41.3	20.6	0.00e+00	0	44	0	2149580800	49	4745
2026-01-10 00:36:27.30	121.47	23.72	-39.4	-41.2	20.7	0.00e+00	0	44	0	2167406592	49	4696
2026-01-10 00:36:30.08	122.16	23.52	-39.5	-41.3	20.7	0.00e+00	0	44	0	2183135232	49	4714
2026-01-10 00:36:33.59	123.02	23.26	-39.4	-41.2	20.7	0.00e+00	0	44	0	2203058176	49	4697
2026-01-10 00:36:36.31	123.68	23.06	-39.3	-41.1	20.9	0.00e+00	0	44	0	2218786816	49	4630
2026-01-10 00:36:39.61	124.47	22.81	-39.6	-41.4	20.6	0.00e+00	0	44	0	2236612608	49	4790
2026-01-10 00:36:42.33	125.11	22.61	-39.6	-41.4	20.6	0.00e+00	0	44	0	2252341248	49	4797
2026-01-10 00:36:45.64	125.88	22.36	-39.6	-41.4	20.6	0.00e+00	0	44	0	2271215616	49	4779
2026-01-10 00:36:48.37	126.50	22.15	-39.6	-41.4	20.6	0.00e+00	0	44	0	2286944256	49	4796
2026-01-10 00:36:51.67	127.24	21.89	-40.0	-41.9	20.2	0.00e+00	0	44	0	2304770048	50	4773
2026-01-10 00:36:54.39	127.85	21.68	-40.1	-42.0	20.1	0.00e+00	0	44	0	2320498688	50	4818
2026-01-10 00:36:57.69	128.57	21.42	-39.8	-41.6	20.4	0.00e+00	0	44	0	2338324480	50	4642
2026-01-10 00:37:00.68	129.21	21.18	-39.9	-41.7	20.3	0.00e+00	0	44	0	2356150272	50	4690
2026-01-10 00:37:03.69	129.85	20.94	-40.0	-41.9	20.1	0.00e+00	0	44	0	2372927488	50	4773
2026-01-10 00:37:06.76	130.49	20.69	-40.0	-41.9	20.1	0.00e+00	0	44	0	2389704704	50	4793
2026-01-10 00:37:09.65	131.09	20.46	-40.1	-42.0	20.0	0.00e+00	0	44	0	2406481920	50	4847
2026-01-10 00:37:12.80	131.73	20.21	-40.2	-42.1	19.9	0.00e+00	0	44	0	2423259136	51	4638
2026-01-10 00:37:15.66	132.30	19.97	-40.2	-42.1	19.9	0.00e+00	0	44	0	2440036352	51	4621
2026-01-10 00:37:18.81	132.91	19.72	-40.4	-42.3	19.7	0.00e+00	0	44	0	2457862144	51	4744
2026-01-10 00:37:21.73	133.48	19.48	-40.6	-42.6	19.5	0.00e+00	0	44	0	2473590784	51	4893
2026-01-10 00:37:25.00	134.10	19.21	-40.7	-42.6	19.3	0.00e+00	0	44	0	2492465152	52	4644
2026-01-10 00:37:27.86	134.64	18.98	-40.7	-42.7	19.3	0.00e+00	0	44	0	2508193792	52	4663
2026-01-10 00:37:31.01	135.22	18.72	-40.7	-42.7	19.2	0.00e+00	0	44	0	2526019584	52	4671
2026-01-10 00:37:33.88	135.74	18.49	-40.7	-42.7	19.3	0.00e+00	0	44	0	2542796800	52	4667
2026-01-10 00:37:37.10	136.31	18.22	-41.0	-42.9	19.0	0.00e+00	0	44	0	2560622592	52	4808
2026-01-10 00:37:40.01	136.82	17.99	-41.0	-42.9	19.0	0.00e+00	0	44	0	2576351232	52	4811
2026-01-10 00:37:43.16	137.37	17.73	-40.9	-42.8	19.2	0.00e+00	0	44	0	2594177024	52	4734
2026-01-10 00:37:46.14	137.87	17.48	-40.7	-42.6	19.3	0.00e+00	0	44	0	2610954240	52	4633
2026-01-10 00:37:49.51	138.44	17.21	-40.8	-42.8	19.2	0.00e+00	0	44	0	2629828608	52	4715
2026-01-10 00:37:52.23	138.89	16.99	-40.7	-42.6	19.3	0.00e+00	0	44	0	2645557248	52	4633
2026-01-10 00:37:55.53	139.42	16.72	-40.9	-42.8	19.2	0.00e+00	0	44	0	2664431616	52	4738
2026-01-10 00:37:58.25	139.85	16.50	-41.0	-43.0	19.0	0.00e+00	0	44	0	2679111680	52	4825
2026-01-10 00:38:01.58	140.38	16.23	-41.1	-43.1	18.9	0.00e+00	0	44	0	2697986048	52	4913
2026-01-10 00:38:04.36	140.81	16.01	-41.3	-43.3	18.7	0.00e+00	0	44	0	2713714688	53	4706
2026-01-10 00:38:07.79	141.33	15.73	-41.3	-43.4	18.6	0.00e+00	0	44	0	2732589056	53	4762
2026-01-10 00:38:10.51	141.74	15.51	-41.5	-43.5	18.5	0.00e+00	0	44	0	2748317696	53	4854
2026-01-10 00:38:13.81	142.22	15.25	-41.7	-43.8	18.3	0.00e+00	0	44	0	2767192064	53	4998
2026-01-10 00:38:16.56	142.62	15.03	-41.6	-43.7	18.3	0.00e+00	0	44	0	2781872128	54	4692
2026-01-10 00:38:19.86	143.09	14.77	-41.4	-43.4	18.6	0.00e+00	0	44	0	2800746496	54	4540
2026-01-10 00:38:22.58	143.47	14.55	-41.5	-43.5	18.5	0.00e+00	0	44	0	2816475136	54	4557
2026-01-10 00:38:25.88	143.93	14.29	-41.6	-43.6	18.4	0.00e+00	0	44	0	2835349504	54	4612
2026-01-10 00:38:28.60	144.30	14.08	-41.6	-43.6	18.3	0.00e+00	0	44	0	2850029568	54	4640
2026-01-10 00:38:31.85	144.74	13.82	-41.7	-43.7	18.3	0.00e+00	0	44	0	2867855360	54	4670
2026-01-10 00:38:34.71	145.11	13.60	-41.5	-43.5	18.4	0.00e+00	0	44	0	2884632576	54	4582
2026-01-10 00:38:37.87	145.53	13.36	-41.7	-43.7	18.2	0.00e+00	0	44	0	2902458368	54	4703
2026-01-10 00:38:40.73	145.89	13.14	-41.8	-43.9	18.1	0.00e+00	0	44	0	2918187008	54	4763
2026-01-10 00:38:43.89	146.29	12.89	-41.9	-44.1	17.9	0.00e+00	0	44	0	2936012800	54	4873
2026-01-10 00:38:46.75	146.65	12.67	-42.0	-44.2	17.8	0.00e+00	0	44	0	2951741440	54	4939
2026-01-10 00:38:49.90	147.03	12.43	-42.0	-44.1	17.8	0.00e+00	0	44	0	2969567232	55	4644
2026-01-10 00:38:52.77	147.38	12.22	-42.0	-44.1	17.8	0.00e+00	0	44	0	2986344448	55	4619
2026-01-10 00:38:56.25	147.79	11.95	-42.1	-44.3	17.7	0.00e+00	0	44	0	3005218816	55	4708
2026-01-10 00:38:59.25	148.14	11.73	-42.4	-44.5	17.4	0.00e+00	0	44	0	3021996032	55	4863
2026-01-10 00:39:02.23	148.49	11.51	-42.3	-44.5	17.5	0.00e+00	0	44	0	3039821824	55	4826
2026-01-10 00:39:05.31	148.84	11.28	-42.6	-44.8	17.1	0.00e+00	0	44	0	3056599040	55	4995
2026-01-10 00:39:08.30	149.17	11.06	-42.6	-44.8	17.1	0.00e+00	0	44	0	3073376256	55	5040
2026-01-10 00:39:11.31	149.50	10.84	-42.9	-45.1	16.9	0.00e+00	0	44	0	3090153472	56	4917
2026-01-10 00:39:14.32	149.83	10.62	-42.9	-45.2	16.9	0.00e+00	0	44	0	3106930688	56	4942
2026-01-10 00:39:17.33	150.15	10.40	-43.0	-45.2	16.8	0.00e+00	0	44	0	3124756480	56	4976
2026-01-10 00:39:20.63	150.50	10.16	-43.0	-45.3	16.8	0.00e+00	0	44	0	3142582272	57	4712
2026-01-10 00:39:23.57	150.80	9.95	-43.2	-45.5	16.5	0.00e+00	0	44	0	3159359488	57	4826
2026-01-10 00:39:26.87	151.14	9.71	-43.1	-45.4	16.6	0.00e+00	0	44	0	3178233856	57	4765
2026-01-10 00:39:29.59	151.42	9.52	-43.3	-45.6	16.4	0.00e+00	0	44	0	3192913920	57	4917
2026-01-10 00:39:32.91	151.75	9.29	-43.5	-45.8	16.2	0.00e+00	0	44	0	3211788288	57	5006
2026-01-10 00:39:35.64	152.01	9.09	-43.7	-46.1	15.9	0.00e+00	0	44	0	3227516928	57	5162
2026-01-10 00:39:38.94	152.33	8.86	-51.2	-63.6	3.8	8.46e-01	0	44	104	3233808384	73	15563
2026-01-10 00:39:41.67	152.59	8.67	-51.7	-63.9	3.8	8.46e-01	0	44	104	3233808384	74	15145
2026-01-10 00:39:44.96	152.90	8.45	-51.9	-64.1	3.8	8.47e-01	0	44	104	3233808384	74	15451
2026-01-10 00:39:47.69	153.16	8.26	-52.0	-64.1	3.8	8.47e-01	0	44	104	3233808384	74	15565
2026-01-10 00:39:50.99	153.46	8.03	-51.9	-64.2	3.8	8.46e-01	0	44	104	3233808384	74	15661
2026-01-10 00:39:53.72	153.70	7.85	-52.2	-64.2	3.8	8.46e-01	0	44	104	3233808384	75	14828
2026-01-10 00:39:57.02	154.00	7.62	-52.1	-64.2	3.8	8.47e-01	0	44	104	3233808384	75	14795
2026-01-10 00:39:59.74	154.24	7.44	-52.0	-64.2	3.8	8.47e-01	0	44	104	3233808384	75	14804
2026-01-10 00:40:03.04	154.52	7.22	-52.0	-64.2	3.8	8.46e-01	0	44	104	3233808384	75	14721
2026-01-10 00:40:05.77	154.76	7.04	-52.0	-64.1	3.8	8.47e-01	0	44	104	3233808384	75	14688
2026-01-10 00:40:09.07	155.04	6.82	-52.0	-64.2	3.8	8.48e-01	0	44	104	3233808384	75	14739
2026-01-10 00:40:11.80	155.26	6.64	-52.0	-64.2	3.8	8.46e-01	0	44	104	3233808384	75	14778
2026-01-10 00:40:15.10	155.54	6.42	-52.0	-64.2	3.8	8.47e-01	0	44	104	3233808384	75	14725
2026-01-10 00:40:17.82	155.76	6.25	-52.0	-64.1	3.8	8.47e-01	0	44	104	3233808384	75	14667
2026-01-10 00:40:21.12	156.02	6.03	-52.0	-64.2	3.8	8.46e-01	0	44	104	3233808384	75	14730
2026-01-10 00:40:23.85	156.24	5.86	-52.0	-64.1	3.8	8.48e-01	0	44	104	3233808384	75	14697
2026-01-10 00:40:27.15	156.50	5.65	-52.0	-64.1	3.8	8.48e-01	0	44	104	3233808384	75	14666
2026-01-10 00:40:29.88	156.71	5.47	-52.0	-64.2	3.8	8.47e-01	0	44	104	3233808384	75	14724
2026-01-10 00:40:33.18	156.96	5.26	-51.9	-64.2	3.8	8.48e-01	0	44	104	3233808384	75	14732
2026-01-10 00:40:35.90	157.16	5.09	-51.9	-64.2	3.8	8.47e-01	0	44	104	3233808384	75	14717

#Closed at: 2026-01-10 00:40:39
#Recorded file [3233 MB]: D:/Data/31040_260110_032859.dat