passes_logs/2026/01/10/T1/T1__20260110_134521_FENGYUN_3E_rec.log

#Pass ID: 20260110_134521_FENGYUN 3E
#Satellite: FENGYUN 3E
#Configuration: FENGYUN 3E
#almurnet v.1.7.20251203
#Start time: 2026-01-10 13:45:21

#Version: 2.0.20230620
#Station: T1
#Location: 37.570604 lon 55.790049 lat
#TLE: 1 49008U 21062A   26009.86154543 -.00000176  00000+0 -62220-4 0  9996
#TLE: 2 49008  98.7486  15.0498 0001782 147.3871 212.7416 14.19883371234110

#Time	Az	El	Level	Level2	SNR	BER	BlckErr	Temp	State	Recorded	gain1	gain2
2026-01-10 13:45:21.38	146.14	4.98	-47.3	-59.7	3.8	8.46e-01	0	38	0	0	64	15514
2026-01-10 13:45:24.39	146.07	5.20	-47.3	-59.7	3.8	8.47e-01	0	38	104	0	65	14646
2026-01-10 13:45:27.40	146.00	5.41	-47.3	-59.8	3.8	8.47e-01	0	38	104	0	65	14733
2026-01-10 13:45:30.42	145.93	5.63	-47.3	-59.8	3.8	8.46e-01	0	38	104	0	65	14739
2026-01-10 13:45:33.43	145.85	5.85	-47.3	-59.7	3.8	8.47e-01	0	38	104	0	65	14611
2026-01-10 13:45:36.44	145.78	6.07	-47.3	-59.7	3.8	8.46e-01	0	39	104	0	65	14641
2026-01-10 13:45:39.46	145.70	6.30	-47.3	-59.7	3.8	8.47e-01	0	39	104	0	65	14687
2026-01-10 13:45:42.47	145.63	6.52	-47.3	-59.7	3.8	8.47e-01	0	39	104	0	65	14692
2026-01-10 13:45:45.48	145.55	6.75	-47.3	-59.7	3.8	8.46e-01	0	39	104	0	65	14571
2026-01-10 13:45:48.50	145.47	6.98	-47.3	-59.8	3.8	8.47e-01	0	39	104	0	65	14741
2026-01-10 13:45:51.51	145.39	7.21	-47.3	-59.7	3.8	8.46e-01	0	39	104	0	65	14691
2026-01-10 13:45:54.52	145.31	7.44	-47.3	-59.7	3.8	8.46e-01	0	39	104	0	65	14588
2026-01-10 13:45:57.53	145.22	7.68	-47.3	-59.7	3.8	8.47e-01	0	40	104	0	65	14672
2026-01-10 13:46:00.55	145.14	7.92	-47.2	-59.7	3.8	8.48e-01	0	39	104	0	65	14614
2026-01-10 13:46:03.56	145.05	8.16	-47.3	-59.7	3.8	8.46e-01	0	39	104	0	65	14639
2026-01-10 13:46:06.57	144.97	8.40	-47.3	-59.7	3.8	8.47e-01	0	40	104	0	65	14667
2026-01-10 13:46:09.59	144.88	8.64	-47.3	-59.7	3.8	8.47e-01	0	40	104	0	65	14632
2026-01-10 13:46:12.60	144.78	8.89	-47.3	-59.7	3.8	8.47e-01	0	40	104	0	65	14688
2026-01-10 13:46:15.61	144.69	9.14	-47.3	-59.8	3.8	8.47e-01	0	40	104	0	65	14755
2026-01-10 13:46:18.63	144.60	9.39	-47.3	-59.7	3.8	8.48e-01	0	40	104	0	65	14695
2026-01-10 13:46:21.64	144.50	9.64	-47.3	-59.7	3.8	8.47e-01	0	40	104	0	65	14672
2026-01-10 13:46:24.65	144.40	9.90	-47.3	-59.7	3.8	8.47e-01	0	40	104	0	65	14704
2026-01-10 13:46:27.67	144.30	10.16	-47.3	-59.7	3.8	8.46e-01	0	40	104	0	65	14680
2026-01-10 13:46:30.68	144.20	10.42	-47.3	-59.8	3.8	8.47e-01	0	40	104	0	65	14715
2026-01-10 13:46:33.69	144.10	10.69	-47.3	-59.7	3.8	8.48e-01	0	40	104	0	65	14614
2026-01-10 13:46:36.70	143.99	10.95	-47.3	-59.8	3.8	8.47e-01	0	40	104	0	65	14715
2026-01-10 13:46:39.71	143.88	11.22	-47.3	-59.8	3.8	8.47e-01	0	40	104	0	65	14760
2026-01-10 13:46:42.73	143.77	11.50	-47.3	-59.8	3.8	8.47e-01	0	40	104	0	65	14730
2026-01-10 13:46:45.74	143.66	11.77	-47.3	-59.7	3.8	8.47e-01	0	40	104	0	65	14645
2026-01-10 13:46:48.76	143.54	12.05	-47.3	-59.7	3.8	8.46e-01	0	40	104	0	65	14653
2026-01-10 13:46:51.77	143.43	12.33	-47.3	-59.8	3.8	8.46e-01	0	40	104	0	65	14714
2026-01-10 13:46:54.78	143.31	12.62	-47.3	-59.8	3.8	8.47e-01	0	40	104	0	65	14752
2026-01-10 13:46:57.79	143.18	12.91	-47.3	-59.7	3.8	8.46e-01	0	40	104	0	65	14677
2026-01-10 13:47:00.81	143.06	13.20	-47.3	-59.8	3.8	8.47e-01	0	41	104	0	65	14766
2026-01-10 13:47:03.82	142.93	13.49	-47.3	-59.7	3.8	8.47e-01	0	40	104	0	65	14703
2026-01-10 13:47:06.83	142.80	13.79	-47.3	-59.8	3.8	8.47e-01	0	40	104	0	65	14712
2026-01-10 13:47:09.84	142.67	14.09	-47.3	-59.7	3.8	8.45e-01	0	41	104	0	65	14693
2026-01-10 13:47:12.86	142.53	14.40	-47.3	-59.7	3.8	8.46e-01	0	41	104	0	65	14695
2026-01-10 13:47:15.87	142.39	14.71	-47.3	-59.8	3.8	8.47e-01	0	41	104	0	65	14764
2026-01-10 13:47:18.84	142.25	15.02	-47.3	-59.7	3.8	8.48e-01	0	41	104	0	65	14689
2026-01-10 13:47:21.85	142.11	15.34	-47.3	-59.8	3.8	8.46e-01	0	40	104	0	65	14717
2026-01-10 13:47:24.87	141.96	15.66	-47.3	-59.8	3.8	8.46e-01	0	40	104	0	65	14826
2026-01-10 13:47:27.88	141.81	15.98	-47.3	-59.8	3.8	8.47e-01	0	40	104	0	65	14736
2026-01-10 13:47:30.89	141.65	16.31	-47.3	-59.8	3.8	8.47e-01	0	41	104	0	65	14807
2026-01-10 13:47:33.91	141.49	16.65	-47.2	-59.7	3.8	8.47e-01	0	41	104	0	65	14684
2026-01-10 13:47:36.92	141.33	16.98	-47.2	-59.7	3.8	8.47e-01	0	41	104	0	65	14695
2026-01-10 13:47:39.93	141.16	17.33	-47.3	-59.8	3.8	8.47e-01	0	41	104	0	65	14714
2026-01-10 13:47:42.95	140.99	17.67	-47.3	-59.8	3.8	8.47e-01	0	41	104	0	65	14739
2026-01-10 13:47:45.96	140.82	18.03	-47.2	-59.8	3.8	8.47e-01	0	41	104	0	65	14785
2026-01-10 13:47:48.97	140.64	18.38	-47.3	-59.7	3.8	8.46e-01	0	41	104	0	65	14648
2026-01-10 13:47:51.99	140.45	18.75	-47.3	-59.8	3.8	8.47e-01	0	41	104	0	65	14746
2026-01-10 13:47:55.00	140.27	19.11	-47.2	-59.8	3.8	8.47e-01	0	41	104	0	65	14721
2026-01-10 13:47:58.01	140.07	19.48	-47.3	-59.7	3.8	8.47e-01	0	41	104	0	65	14663
2026-01-10 13:48:01.02	139.88	19.86	-47.3	-59.8	3.8	8.47e-01	0	41	104	0	65	14743
2026-01-10 13:48:04.04	139.67	20.24	-47.3	-59.7	3.8	8.46e-01	0	41	104	0	65	14676
2026-01-10 13:48:07.05	139.46	20.63	-47.3	-59.7	3.8	8.47e-01	0	41	104	0	65	14702
2026-01-10 13:48:10.06	139.25	21.03	-47.3	-59.7	3.8	8.46e-01	0	41	104	0	65	14621
2026-01-10 13:48:13.08	139.03	21.43	-47.3	-59.8	3.8	8.47e-01	0	41	104	0	65	14835
2026-01-10 13:48:16.09	138.80	21.83	-47.2	-59.7	3.8	8.46e-01	0	41	104	0	65	14703
2026-01-10 13:48:19.10	138.57	22.24	-47.3	-59.7	3.8	8.46e-01	0	41	104	0	65	14675
2026-01-10 13:48:22.11	138.33	22.66	-47.2	-59.7	3.8	8.47e-01	0	41	104	0	65	14700
2026-01-10 13:48:25.12	138.09	23.08	-47.2	-59.8	3.8	8.47e-01	0	41	104	0	65	14743
2026-01-10 13:48:28.14	137.83	23.52	-47.2	-59.7	3.8	8.47e-01	0	41	104	0	65	14696
2026-01-10 13:48:31.15	137.57	23.95	-47.3	-59.7	3.8	8.45e-01	0	41	104	0	65	14681
2026-01-10 13:48:34.17	137.31	24.40	-47.2	-59.7	3.8	8.46e-01	0	41	104	0	65	14636
2026-01-10 13:48:37.18	137.03	24.85	-47.2	-59.7	3.8	8.47e-01	0	41	104	0	65	14689
2026-01-10 13:48:40.19	136.75	25.31	-47.2	-59.8	3.8	8.48e-01	0	41	104	0	65	14731
2026-01-10 13:48:43.21	136.46	25.77	-47.2	-59.8	3.8	8.47e-01	0	41	104	0	65	14749
2026-01-10 13:48:46.22	136.15	26.24	-47.2	-59.7	3.8	8.46e-01	0	41	104	0	65	14686
2026-01-10 13:48:49.23	135.84	26.72	-47.3	-59.7	3.8	8.46e-01	0	41	104	0	65	14618
2026-01-10 13:48:52.25	135.52	27.21	-47.3	-59.8	3.8	8.46e-01	0	41	104	0	65	14721
2026-01-10 13:48:55.26	135.19	27.71	-47.3	-59.7	3.8	8.46e-01	0	41	104	0	65	14588
2026-01-10 13:48:58.27	134.85	28.21	-47.2	-59.8	3.8	8.46e-01	0	41	104	0	65	14726
2026-01-10 13:49:01.28	134.50	28.72	-47.2	-59.7	3.8	8.48e-01	0	41	104	0	65	14606
2026-01-10 13:49:04.30	134.13	29.24	-47.2	-59.7	3.8	8.47e-01	0	41	104	0	65	14666
2026-01-10 13:49:07.31	133.76	29.77	-47.2	-59.7	3.8	8.47e-01	0	41	104	0	65	14648
2026-01-10 13:49:10.32	133.37	30.31	-47.2	-59.7	3.8	8.46e-01	0	41	104	0	65	14627
2026-01-10 13:49:13.33	132.97	30.85	-47.2	-59.7	3.8	8.46e-01	0	41	104	0	65	14675
2026-01-10 13:49:16.34	132.55	31.41	-47.2	-59.7	3.8	8.47e-01	0	41	104	0	65	14644
2026-01-10 13:49:19.36	132.12	31.97	-47.2	-59.7	3.8	8.48e-01	0	41	104	0	65	14636
2026-01-10 13:49:22.37	131.67	32.54	-47.2	-59.7	3.8	8.48e-01	0	41	104	0	65	14668
2026-01-10 13:49:25.38	131.21	33.12	-47.2	-59.7	3.8	8.48e-01	0	41	104	0	65	14701
2026-01-10 13:49:28.40	130.72	33.72	-47.2	-59.7	3.8	8.46e-01	0	41	104	0	65	14700
2026-01-10 13:49:31.41	130.23	34.31	-47.2	-59.7	3.8	8.46e-01	0	41	104	0	65	14662
2026-01-10 13:49:34.42	129.71	34.92	-47.2	-59.7	3.8	8.46e-01	0	41	104	0	65	14691
2026-01-10 13:49:37.43	129.17	35.54	-47.2	-59.7	3.8	8.47e-01	0	41	104	0	65	14667
2026-01-10 13:49:40.45	128.61	36.17	-47.2	-59.7	3.8	8.48e-01	0	41	104	0	65	14652
2026-01-10 13:49:43.46	128.03	36.80	-47.2	-59.7	3.8	8.47e-01	0	41	104	0	65	14629
2026-01-10 13:49:46.47	127.42	37.44	-47.2	-59.7	3.8	8.47e-01	0	41	104	0	65	14617
2026-01-10 13:49:49.49	126.79	38.10	-47.3	-59.7	3.8	8.48e-01	0	41	104	0	65	14636
2026-01-10 13:49:52.50	126.13	38.76	-47.2	-59.7	3.8	8.47e-01	0	41	104	0	65	14631
2026-01-10 13:49:55.51	125.45	39.43	-47.2	-59.7	3.8	8.47e-01	0	41	104	0	65	14637
2026-01-10 13:49:58.52	124.74	40.11	-47.3	-59.8	3.8	8.47e-01	0	41	104	0	65	14816
2026-01-10 13:50:01.54	123.99	40.80	-47.3	-59.8	3.8	8.47e-01	0	41	104	0	65	14793
2026-01-10 13:50:04.55	123.21	41.49	-47.3	-59.8	3.8	8.47e-01	0	41	104	0	65	14721
2026-01-10 13:50:07.56	122.40	42.19	-47.3	-59.7	3.8	8.47e-01	0	41	104	0	65	14670
2026-01-10 13:50:10.57	121.55	42.89	-47.3	-59.7	3.8	8.47e-01	0	41	104	0	65	14686
2026-01-10 13:50:13.59	120.66	43.61	-47.3	-59.7	3.8	8.47e-01	0	41	104	0	65	14672
2026-01-10 13:50:16.60	119.74	44.33	-47.3	-59.7	3.8	8.48e-01	0	41	104	0	65	14694
2026-01-10 13:50:19.61	118.77	45.05	-47.3	-59.7	3.8	8.46e-01	0	41	104	0	65	14705
2026-01-10 13:50:22.62	117.75	45.77	-47.3	-59.7	3.8	8.47e-01	0	41	104	0	65	14638
2026-01-10 13:50:25.64	116.68	46.51	-47.3	-59.7	3.8	8.48e-01	0	41	104	0	65	14620
2026-01-10 13:50:28.65	115.57	47.23	-47.2	-59.7	3.8	8.45e-01	0	41	104	0	65	14662
2026-01-10 13:50:31.66	114.40	47.96	-47.3	-59.7	3.8	8.47e-01	0	41	104	0	65	14664
2026-01-10 13:50:34.67	113.17	48.69	-47.3	-59.7	3.8	8.47e-01	0	41	104	0	65	14685
2026-01-10 13:50:37.69	111.88	49.42	-47.3	-59.8	3.8	8.45e-01	0	41	104	0	65	14729
2026-01-10 13:50:40.70	110.54	50.14	-47.3	-59.7	3.8	8.46e-01	0	41	104	0	65	14663
2026-01-10 13:50:43.71	109.12	50.85	-47.3	-59.7	3.8	8.47e-01	0	41	104	0	65	14661
2026-01-10 13:50:46.73	107.64	51.56	-47.3	-59.7	3.8	8.46e-01	0	41	104	0	65	14687
2026-01-10 13:50:49.74	106.08	52.26	-47.3	-59.7	3.8	8.48e-01	0	41	104	0	65	14577
2026-01-10 13:50:52.75	104.45	52.94	-47.3	-59.8	3.8	8.48e-01	0	41	104	0	65	14716
2026-01-10 13:50:55.76	102.75	53.60	-47.3	-59.7	3.8	8.46e-01	0	41	104	0	65	14619
2026-01-10 13:50:58.78	100.96	54.25	-47.3	-59.7	3.8	8.47e-01	0	41	104	0	65	14675
2026-01-10 13:51:01.79	99.10	54.88	-47.3	-59.7	3.8	8.47e-01	0	41	104	0	65	14633
2026-01-10 13:51:04.80	97.15	55.48	-47.3	-59.7	3.8	8.46e-01	0	41	104	0	65	14639
2026-01-10 13:51:07.82	95.11	56.05	-47.3	-59.7	3.8	8.47e-01	0	41	104	0	65	14641
2026-01-10 13:51:10.83	93.00	56.60	-47.3	-59.8	3.8	8.47e-01	0	41	104	0	65	14746
2026-01-10 13:51:13.84	90.80	57.10	-47.3	-59.7	3.8	8.46e-01	0	41	104	0	65	14671
2026-01-10 13:51:16.85	88.52	57.57	-47.3	-59.7	3.8	8.47e-01	0	41	104	0	65	14702
2026-01-10 13:51:19.87	86.16	58.00	-47.3	-59.8	3.8	8.47e-01	0	41	104	0	65	14723
2026-01-10 13:51:22.88	83.74	58.39	-47.3	-59.7	3.8	8.47e-01	0	41	104	0	65	14632
2026-01-10 13:51:25.89	81.25	58.73	-47.3	-59.7	3.8	8.47e-01	0	41	104	0	65	14654
2026-01-10 13:51:28.90	78.69	59.01	-47.3	-59.8	3.8	8.49e-01	0	41	104	0	65	14769
2026-01-10 13:51:31.92	76.08	59.25	-47.2	-59.8	3.8	8.47e-01	0	41	104	0	65	14720
2026-01-10 13:51:34.93	73.44	59.43	-47.3	-59.7	3.8	8.47e-01	0	41	104	0	65	14678
2026-01-10 13:51:37.94	70.76	59.55	-47.3	-59.7	3.8	8.48e-01	0	41	104	0	65	14617
2026-01-10 13:51:40.96	68.06	59.62	-47.3	-59.8	3.8	8.47e-01	0	41	104	0	65	14711
2026-01-10 13:51:43.97	65.35	59.63	-47.2	-59.7	3.8	8.46e-01	0	41	104	0	65	14638
2026-01-10 13:51:46.98	62.66	59.58	-47.3	-59.8	3.8	8.46e-01	0	41	104	0	65	14728
2026-01-10 13:51:49.99	59.97	59.48	-47.3	-59.7	3.8	8.47e-01	0	41	104	0	65	14687
2026-01-10 13:51:53.01	57.31	59.31	-47.3	-59.8	3.8	8.46e-01	0	41	104	0	65	14785
2026-01-10 13:51:56.02	54.69	59.09	-47.3	-59.7	3.8	8.46e-01	0	41	104	0	65	14656
2026-01-10 13:51:59.03	52.13	58.82	-47.3	-59.7	3.8	8.47e-01	0	41	104	0	65	14629
2026-01-10 13:52:02.04	49.62	58.50	-47.2	-59.7	3.8	8.46e-01	0	41	104	0	65	14700
2026-01-10 13:52:05.05	47.17	58.13	-47.3	-59.7	3.8	8.47e-01	0	41	104	0	65	14654
2026-01-10 13:52:08.07	44.79	57.72	-47.3	-59.7	3.8	8.46e-01	0	41	104	0	65	14663
2026-01-10 13:52:11.08	42.49	57.26	-47.3	-59.8	3.8	8.46e-01	0	41	104	0	65	14791
2026-01-10 13:52:14.09	40.27	56.77	-47.3	-59.8	3.8	8.48e-01	0	41	104	0	65	14778
2026-01-10 13:52:17.11	38.13	56.23	-47.3	-59.8	3.8	8.46e-01	0	41	104	0	65	14721
2026-01-10 13:52:20.12	36.07	55.67	-47.3	-59.7	3.8	8.47e-01	0	41	104	0	65	14669
2026-01-10 13:52:23.13	34.10	55.08	-47.3	-59.8	3.8	8.47e-01	0	41	104	0	65	14762
2026-01-10 13:52:26.15	32.21	54.46	-47.3	-59.8	3.8	8.46e-01	0	41	104	0	65	14730
2026-01-10 13:52:29.16	30.40	53.82	-47.3	-59.8	3.8	8.46e-01	0	41	104	0	65	14801
2026-01-10 13:52:32.17	28.68	53.17	-47.3	-59.8	3.8	8.48e-01	0	41	104	0	65	14720
2026-01-10 13:52:35.19	27.02	52.49	-47.3	-59.8	3.8	8.47e-01	0	41	104	0	65	14757
2026-01-10 13:52:38.20	25.45	51.80	-47.3	-59.8	3.8	8.48e-01	0	41	104	0	65	14797
2026-01-10 13:52:41.21	23.95	51.10	-47.3	-59.7	3.8	8.47e-01	0	41	104	0	65	14701
2026-01-10 13:52:44.23	22.51	50.39	-47.3	-59.8	3.8	8.46e-01	0	41	104	0	65	14775
2026-01-10 13:52:47.24	21.14	49.67	-47.3	-59.8	3.8	8.47e-01	0	41	104	0	65	14814
2026-01-10 13:52:50.25	19.84	48.95	-47.3	-59.8	3.8	8.45e-01	0	41	104	0	65	14791
2026-01-10 13:52:53.26	18.60	48.23	-47.3	-59.8	3.8	8.47e-01	0	41	104	0	65	14742
2026-01-10 13:52:56.28	17.41	47.50	-47.3	-59.8	3.8	8.47e-01	0	41	104	0	65	14825
2026-01-10 13:52:59.29	16.28	46.77	-47.3	-59.8	3.8	8.47e-01	0	41	104	0	65	14877
2026-01-10 13:53:02.31	15.20	46.04	-47.3	-59.8	3.8	8.45e-01	0	41	104	0	65	14783
2026-01-10 13:53:05.32	14.17	45.32	-47.3	-59.8	3.8	8.46e-01	0	41	104	0	65	14823
2026-01-10 13:53:08.33	13.19	44.60	-47.3	-59.8	3.8	8.47e-01	0	41	104	0	65	14755
2026-01-10 13:53:11.35	12.25	43.88	-47.3	-59.8	3.8	8.47e-01	0	41	104	0	65	14800
2026-01-10 13:53:14.36	11.35	43.17	-47.3	-59.8	3.8	8.47e-01	0	41	104	0	65	14780
2026-01-10 13:53:17.37	10.49	42.46	-47.3	-59.8	3.8	8.45e-01	0	41	104	0	65	14830
2026-01-10 13:53:20.39	9.67	41.76	-47.3	-59.8	3.8	8.47e-01	0	41	104	0	65	14793
2026-01-10 13:53:23.40	8.88	41.07	-47.3	-59.9	3.8	8.46e-01	0	41	104	0	65	14930
2026-01-10 13:53:26.41	8.13	40.38	-47.3	-59.9	3.8	8.46e-01	0	41	104	0	65	14920
2026-01-10 13:53:29.43	7.41	39.70	-47.3	-59.8	3.8	8.48e-01	0	41	104	0	65	14874
2026-01-10 13:53:32.44	6.72	39.03	-47.3	-59.8	3.8	8.47e-01	0	41	104	0	65	14726
2026-01-10 13:53:35.45	6.06	38.37	-47.3	-59.8	3.8	8.47e-01	0	41	104	0	65	14853
2026-01-10 13:53:38.47	5.42	37.72	-47.4	-59.8	3.8	8.46e-01	0	41	104	0	65	14844
2026-01-10 13:53:41.48	4.81	37.07	-47.3	-59.8	3.8	8.47e-01	0	41	104	0	65	14854
2026-01-10 13:53:44.49	4.22	36.44	-47.4	-59.8	3.8	8.47e-01	0	41	104	0	65	14838
2026-01-10 13:53:47.51	3.65	35.81	-47.4	-59.9	3.8	8.46e-01	0	41	104	0	65	14911
2026-01-10 13:53:50.52	3.11	35.19	-47.3	-59.8	3.8	8.47e-01	0	41	104	0	65	14783
2026-01-10 13:53:53.53	2.59	34.58	-47.3	-59.8	3.8	8.48e-01	0	41	104	0	65	14798
2026-01-10 13:53:56.55	2.08	33.98	-47.4	-59.8	3.8	8.47e-01	0	41	104	0	65	14851
2026-01-10 13:53:59.56	1.60	33.39	-47.4	-59.9	3.8	8.46e-01	0	41	104	0	65	14942
2026-01-10 13:54:02.57	1.13	32.81	-47.4	-59.9	3.8	8.47e-01	0	41	104	0	65	14885
2026-01-10 13:54:05.59	0.68	32.24	-47.3	-59.8	3.8	8.46e-01	0	41	104	0	65	14812
2026-01-10 13:54:08.60	0.24	31.67	-47.4	-59.9	3.8	8.48e-01	0	41	104	0	65	14890
2026-01-10 13:54:11.61	359.82	31.12	-47.4	-59.9	3.8	8.47e-01	0	41	104	0	65	14957
2026-01-10 13:54:14.63	359.42	30.57	-47.4	-59.9	3.8	8.46e-01	0	41	104	0	65	14930
2026-01-10 13:54:17.64	359.03	30.03	-47.4	-59.9	3.8	8.47e-01	0	41	104	0	65	14903
2026-01-10 13:54:20.65	358.65	29.50	-47.4	-59.8	3.8	8.46e-01	0	41	104	0	65	14863
2026-01-10 13:54:23.66	358.28	28.98	-47.4	-59.8	3.8	8.47e-01	0	41	104	0	65	14869
2026-01-10 13:54:26.68	357.93	28.47	-47.4	-59.9	3.8	8.47e-01	0	41	104	0	65	14890
2026-01-10 13:54:29.69	357.59	27.97	-47.4	-59.9	3.8	8.47e-01	0	41	104	0	65	14892
2026-01-10 13:54:32.71	357.25	27.47	-47.4	-59.9	3.8	8.47e-01	0	41	104	0	65	14915
2026-01-10 13:54:35.72	356.93	26.98	-47.4	-59.8	3.8	8.48e-01	0	40	104	0	65	14863
2026-01-10 13:54:38.73	356.62	26.50	-47.4	-59.9	3.8	8.47e-01	0	41	104	0	65	14948
2026-01-10 13:54:41.75	356.32	26.03	-47.4	-59.8	3.8	8.46e-01	0	41	104	0	65	14856
2026-01-10 13:54:44.76	356.02	25.56	-47.4	-59.9	3.8	8.47e-01	0	41	104	0	65	14999
2026-01-10 13:54:47.77	355.74	25.10	-47.4	-59.8	3.8	8.47e-01	0	41	104	0	65	14867
2026-01-10 13:54:50.78	355.46	24.65	-47.5	-60.0	3.8	8.46e-01	0	41	104	0	65	15053
2026-01-10 13:54:53.80	355.20	24.20	-47.4	-59.9	3.8	8.46e-01	0	41	104	0	65	14967
2026-01-10 13:54:56.81	354.94	23.77	-47.5	-60.0	3.8	8.48e-01	0	41	104	0	65	15097
2026-01-10 13:54:59.82	354.68	23.34	-47.4	-60.0	3.8	8.47e-01	0	41	104	0	65	15092
2026-01-10 13:55:02.84	354.44	22.91	-47.5	-59.9	3.8	8.48e-01	0	41	104	0	65	14928
2026-01-10 13:55:05.85	354.20	22.49	-47.5	-59.9	3.8	8.46e-01	0	41	104	0	65	14990
2026-01-10 13:55:08.86	353.97	22.08	-47.5	-59.9	3.8	8.45e-01	0	41	104	0	65	15038
2026-01-10 13:55:11.87	353.74	21.67	-47.5	-59.9	3.8	8.48e-01	0	41	104	0	65	14929
2026-01-10 13:55:14.88	353.52	21.27	-47.5	-59.9	3.8	8.47e-01	0	41	104	0	65	15000
2026-01-10 13:55:17.90	353.31	20.88	-47.5	-59.9	3.8	8.48e-01	0	41	104	0	65	14885
2026-01-10 13:55:20.91	353.10	20.49	-47.5	-59.9	3.8	8.46e-01	0	41	104	0	65	15045
2026-01-10 13:55:23.92	352.90	20.11	-47.4	-59.9	3.8	8.45e-01	0	41	104	0	65	14984
2026-01-10 13:55:26.94	352.70	19.73	-47.5	-59.9	3.8	8.46e-01	0	41	104	0	65	14904
2026-01-10 13:55:29.95	352.51	19.36	-47.5	-60.0	3.8	8.47e-01	0	41	104	0	65	15077
2026-01-10 13:55:32.96	352.32	18.99	-47.5	-59.9	3.8	8.47e-01	0	41	104	0	65	15043
2026-01-10 13:55:35.98	352.14	18.63	-47.5	-60.0	3.8	8.47e-01	0	41	104	0	65	15080
2026-01-10 13:55:38.99	351.96	18.27	-47.5	-59.9	3.8	8.47e-01	0	41	104	0	65	15004
2026-01-10 13:55:42.01	351.78	17.92	-47.5	-59.9	3.8	8.47e-01	0	41	104	0	65	14978
2026-01-10 13:55:45.02	351.61	17.57	-47.5	-59.9	3.8	8.48e-01	0	41	104	0	65	14988
2026-01-10 13:55:48.03	351.45	17.22	-47.5	-60.0	3.8	8.46e-01	0	41	104	0	65	15179
2026-01-10 13:55:51.04	351.29	16.89	-47.5	-60.0	3.8	8.48e-01	0	41	104	0	65	15078
2026-01-10 13:55:54.06	351.13	16.55	-47.5	-59.9	3.8	8.46e-01	0	41	104	0	65	14989
2026-01-10 13:55:57.07	350.97	16.22	-47.5	-59.9	3.8	8.47e-01	0	41	104	0	65	14991
2026-01-10 13:56:00.08	350.82	15.90	-47.5	-59.9	3.8	8.47e-01	0	41	104	0	65	15001
2026-01-10 13:56:03.10	350.68	15.57	-47.5	-59.9	3.8	8.46e-01	0	41	104	0	65	14989
2026-01-10 13:56:06.11	350.53	15.26	-47.5	-60.0	3.8	8.47e-01	0	41	104	0	65	15056
2026-01-10 13:56:09.12	350.39	14.94	-47.5	-59.9	3.8	8.47e-01	0	41	104	0	65	15008
2026-01-10 13:56:12.14	350.26	14.63	-47.5	-59.9	3.8	8.47e-01	0	41	104	0	65	15000
2026-01-10 13:56:15.15	350.12	14.33	-47.4	-59.9	3.8	8.47e-01	0	41	104	0	65	15002
2026-01-10 13:56:18.16	349.99	14.02	-47.4	-60.0	3.8	8.47e-01	0	41	104	0	65	15155
2026-01-10 13:56:21.18	349.86	13.72	-47.5	-59.9	3.8	8.46e-01	0	41	104	0	65	15047
2026-01-10 13:56:24.19	349.74	13.43	-47.5	-59.9	3.8	8.47e-01	0	41	104	0	65	15007
2026-01-10 13:56:27.20	349.61	13.14	-47.5	-59.9	3.8	8.47e-01	0	41	104	0	65	15017
2026-01-10 13:56:30.21	349.49	12.85	-47.5	-60.0	3.8	8.46e-01	0	41	104	0	65	15068
2026-01-10 13:56:33.23	349.37	12.56	-47.6	-60.0	3.8	8.47e-01	0	41	104	0	65	15175
2026-01-10 13:56:36.24	349.26	12.28	-47.6	-60.0	3.8	8.47e-01	0	41	104	0	65	15078
2026-01-10 13:56:39.25	349.15	12.00	-47.6	-60.0	3.8	8.48e-01	0	41	104	0	65	15148
2026-01-10 13:56:42.26	349.04	11.73	-47.5	-60.0	3.8	8.46e-01	0	41	104	0	65	15077
2026-01-10 13:56:45.28	348.93	11.45	-47.5	-59.9	3.8	8.46e-01	0	41	104	0	65	15019
2026-01-10 13:56:48.29	348.82	11.18	-47.5	-60.0	3.8	8.46e-01	0	41	104	0	65	15071
2026-01-10 13:56:51.30	348.72	10.91	-47.6	-60.0	3.8	8.46e-01	0	40	104	0	65	15104
2026-01-10 13:56:54.31	348.62	10.65	-47.5	-60.0	3.8	8.47e-01	0	40	104	0	65	15115
2026-01-10 13:56:57.32	348.52	10.39	-47.6	-59.9	3.8	8.47e-01	0	41	104	0	65	15043
2026-01-10 13:57:00.34	348.42	10.13	-47.6	-59.9	3.8	8.47e-01	0	41	104	0	65	14972
2026-01-10 13:57:03.35	348.32	9.87	-47.6	-59.9	3.8	8.48e-01	0	41	104	0	65	15043
2026-01-10 13:57:06.36	348.23	9.62	-47.6	-59.9	3.8	8.47e-01	0	41	104	0	65	14959
2026-01-10 13:57:09.38	348.14	9.37	-47.6	-60.0	3.8	8.47e-01	0	41	104	0	65	15135
2026-01-10 13:57:12.39	348.05	9.12	-47.5	-59.9	3.8	8.48e-01	0	41	104	0	65	14988
2026-01-10 13:57:15.40	347.96	8.87	-47.6	-59.9	3.8	8.46e-01	0	41	104	0	65	15035
2026-01-10 13:57:18.42	347.87	8.63	-47.5	-59.9	3.8	8.48e-01	0	41	104	0	65	15016
2026-01-10 13:57:21.43	347.78	8.38	-47.5	-59.9	3.8	8.48e-01	0	41	104	0	65	14981
2026-01-10 13:57:24.44	347.70	8.14	-47.5	-59.9	3.8	8.48e-01	0	41	104	0	65	14990
2026-01-10 13:57:27.46	347.62	7.91	-47.4	-59.9	3.8	8.47e-01	0	41	104	0	65	14999
2026-01-10 13:57:30.47	347.54	7.67	-47.4	-59.9	3.8	8.47e-01	0	41	104	0	65	15033
2026-01-10 13:57:33.48	347.46	7.44	-47.4	-59.9	3.8	8.47e-01	0	41	104	0	65	14923
2026-01-10 13:57:36.50	347.38	7.20	-47.3	-59.9	3.8	8.47e-01	0	41	104	0	65	14955
2026-01-10 13:57:39.51	347.30	6.98	-47.3	-59.9	3.8	8.47e-01	0	40	104	0	65	14899
2026-01-10 13:57:42.53	347.23	6.75	-47.4	-59.8	3.8	8.47e-01	0	41	104	0	65	14842
2026-01-10 13:57:45.54	347.16	6.52	-47.3	-59.9	3.8	8.47e-01	0	41	104	0	65	14963
2026-01-10 13:57:48.55	347.08	6.30	-47.3	-59.9	3.8	8.46e-01	0	41	104	0	65	14897
2026-01-10 13:57:51.57	347.01	6.08	-47.4	-59.9	3.8	8.47e-01	0	41	104	0	65	15029
2026-01-10 13:57:54.58	346.94	5.86	-47.3	-59.9	3.8	8.46e-01	0	41	104	0	65	14917
2026-01-10 13:57:57.59	346.87	5.64	-47.3	-59.9	3.8	8.46e-01	0	41	104	0	64	15821
2026-01-10 13:58:00.60	346.81	5.42	-47.3	-59.8	3.8	8.46e-01	0	41	104	0	64	15749
2026-01-10 13:58:03.62	346.74	5.21	-47.3	-59.9	3.8	8.46e-01	0	40	104	0	64	15808
2026-01-10 13:58:06.63	346.68	4.99	-47.3	-59.8	3.8	8.46e-01	0	40	104	0	64	15658

#Closed at: 2026-01-10 13:58:07
#Recorded file [0 MB]: D:/Data/31040_260110_164521.dat