passes_logs/2026/01/10/T1/T1__20260110_224026_NOAA_21_JPSS-2_rec.log

#Pass ID: 20260110_224026_NOAA 21 (JPSS-2)
#Satellite: NOAA 21 (JPSS-2)
#Configuration: NOAA 21
#almurnet v.1.7.20251203
#Start time: 2026-01-10 22:40:28

#Version: 2.0.20230620
#Station: T1
#Location: 37.570604 lon 55.790049 lat
#TLE: 1 54234U 22150A   26009.79679979  .00000100  00000+0  68070-4 0  9993
#TLE: 2 54234  98.7494 310.7596 0000833 322.2782  37.8335 14.19533646164071

#Time	Az	El	Level	Level2	SNR	BER	BlckErr	Temp	State	Recorded	gain1	gain2
2026-01-10 22:40:28.13	24.28	5.09	-49.8	-63.2	3.8	1.49e+00	0	37	0	0	71	16538
2026-01-10 22:40:31.14	24.46	5.29	-49.8	-63.2	3.8	1.49e+00	0	37	104	0	70	17644
2026-01-10 22:40:34.15	24.64	5.49	-49.8	-63.2	3.8	1.49e+00	0	37	104	0	70	17504
2026-01-10 22:40:37.16	24.83	5.69	-49.8	-63.2	3.8	1.49e+00	0	38	104	0	70	17501
2026-01-10 22:40:40.17	25.01	5.89	-49.8	-63.1	3.8	1.49e+00	0	38	104	0	70	17475
2026-01-10 22:40:43.19	25.20	6.09	-49.8	-63.2	3.8	1.49e+00	0	38	104	0	70	17545
2026-01-10 22:40:46.20	25.40	6.30	-49.8	-63.2	3.8	1.49e+00	0	38	104	0	70	17548
2026-01-10 22:40:49.21	25.59	6.50	-49.8	-63.2	3.8	1.49e+00	0	38	104	0	70	17583
2026-01-10 22:40:52.23	25.79	6.71	-49.8	-63.2	3.8	1.49e+00	0	38	104	0	70	17499
2026-01-10 22:40:55.24	25.99	6.92	-49.8	-63.1	3.8	1.49e+00	0	38	104	0	70	17432
2026-01-10 22:40:58.25	26.19	7.13	-49.8	-63.2	3.8	1.49e+00	0	38	104	0	70	17525
2026-01-10 22:41:01.27	26.40	7.34	-49.8	-63.1	3.8	1.49e+00	0	38	104	0	70	17434
2026-01-10 22:41:04.28	26.61	7.55	-49.8	-62.9	3.8	1.49e+00	0	38	104	0	70	16891
2026-01-10 22:41:07.29	26.82	7.77	-49.8	-62.7	3.8	1.49e+00	0	38	104	0	70	16671
2026-01-10 22:41:10.31	27.04	7.98	-49.8	-62.8	3.8	1.49e+00	0	39	104	0	70	16861
2026-01-10 22:41:13.32	27.25	8.20	-49.7	-62.2	3.8	1.49e+00	0	39	104	0	70	15681
2026-01-10 22:41:16.33	27.47	8.42	-49.7	-62.1	3.8	1.49e+00	0	39	104	0	70	15412
2026-01-10 22:41:19.35	27.70	8.64	-49.7	-61.9	3.8	1.49e+00	0	39	104	0	70	15116
2026-01-10 22:41:22.36	27.93	8.86	-49.4	-59.2	4.3	1.46e+00	0	39	104	0	70	11131
2026-01-10 22:41:25.37	28.16	9.09	-49.2	-57.7	5.0	6.50e-01	0	39	0	0	70	9294
2026-01-10 22:41:28.38	28.39	9.31	-46.2	-50.0	12.0	1.07e-04	0	39	0	0	63	5760
2026-01-10 22:41:31.39	28.63	9.54	-44.9	-47.9	14.0	7.00e-07	0	39	0	0	61	5074
2026-01-10 22:41:34.40	28.87	9.77	-44.5	-47.4	14.6	0.00e+00	0	39	0	0	60	5048
2026-01-10 22:41:37.41	29.11	10.00	-44.1	-46.8	15.2	0.00e+00	0	39	0	0	60	4720
2026-01-10 22:41:40.42	29.36	10.23	-43.8	-46.2	15.8	0.00e+00	0	39	0	0	59	4684
2026-01-10 22:41:43.43	29.61	10.47	-43.5	-45.9	16.1	0.00e+00	0	39	0	0	58	4766
2026-01-10 22:41:46.45	29.87	10.70	-43.4	-45.6	16.4	0.00e+00	0	39	0	0	58	4648
2026-01-10 22:41:49.46	30.13	10.94	-43.4	-45.7	16.4	0.00e+00	0	39	0	0	58	4652
2026-01-10 22:41:52.47	30.39	11.18	-43.3	-45.5	16.5	0.00e+00	0	39	0	0	58	4595
2026-01-10 22:41:55.48	30.66	11.42	-43.2	-45.5	16.5	0.00e+00	0	39	0	0	58	4557
2026-01-10 22:41:58.49	30.93	11.66	-43.4	-45.6	16.4	0.00e+00	0	39	0	0	58	4635
2026-01-10 22:42:01.50	31.21	11.91	-43.3	-45.4	16.6	0.00e+00	0	39	0	0	58	4532
2026-01-10 22:42:04.51	31.49	12.16	-43.5	-45.7	16.4	0.00e+00	0	39	0	0	58	4680
2026-01-10 22:42:07.52	31.77	12.41	-43.3	-45.5	16.6	0.00e+00	0	40	0	0	58	4559
2026-01-10 22:42:10.53	32.06	12.66	-43.0	-45.2	16.8	0.00e+00	0	39	0	0	57	4674
2026-01-10 22:42:13.54	32.36	12.91	-42.9	-45.1	16.9	0.00e+00	0	40	0	0	57	4629
2026-01-10 22:42:16.55	32.66	13.16	-42.9	-45.1	17.0	0.00e+00	0	40	0	0	57	4608
2026-01-10 22:42:19.56	32.96	13.42	-43.0	-45.1	17.0	0.00e+00	0	40	0	0	57	4637
2026-01-10 22:42:22.57	33.27	13.68	-43.1	-45.2	16.9	0.00e+00	0	40	0	0	57	4702
2026-01-10 22:42:25.58	33.58	13.94	-43.0	-45.1	17.1	0.00e+00	0	40	0	0	57	4600
2026-01-10 22:42:28.59	33.90	14.20	-43.0	-45.2	17.0	0.00e+00	0	39	0	0	57	4660
2026-01-10 22:42:31.60	34.23	14.47	-42.9	-45.0	17.1	0.00e+00	0	40	0	0	57	4573
2026-01-10 22:42:34.62	34.56	14.74	-42.9	-45.0	17.2	0.00e+00	0	40	0	0	57	4566
2026-01-10 22:42:37.63	34.90	15.00	-43.0	-45.1	17.1	0.00e+00	0	40	0	0	57	4637
2026-01-10 22:42:40.64	35.24	15.28	-43.1	-45.3	16.9	0.00e+00	0	40	0	0	57	4750
2026-01-10 22:42:43.65	35.59	15.55	-42.9	-45.0	17.2	0.00e+00	0	40	0	0	57	4596
2026-01-10 22:42:46.66	35.95	15.82	-42.9	-45.0	17.2	0.00e+00	0	40	0	0	57	4591
2026-01-10 22:42:49.67	36.31	16.10	-43.1	-45.2	17.0	0.00e+00	0	40	0	0	57	4705
2026-01-10 22:42:52.68	36.68	16.38	-43.0	-45.1	17.2	0.00e+00	0	40	0	0	57	4607
2026-01-10 22:42:55.69	37.05	16.66	-42.8	-44.8	17.4	0.00e+00	0	40	0	0	57	4492
2026-01-10 22:42:58.70	37.43	16.95	-42.8	-44.8	17.4	0.00e+00	0	40	0	0	57	4480
2026-01-10 22:43:01.71	37.82	17.23	-42.9	-44.9	17.4	0.00e+00	0	40	0	0	57	4514
2026-01-10 22:43:04.71	38.22	17.52	-42.8	-44.9	17.4	0.00e+00	0	40	0	0	57	4517
2026-01-10 22:43:07.73	38.62	17.81	-42.8	-44.9	17.4	0.00e+00	0	40	0	0	57	4499
2026-01-10 22:43:10.74	39.03	18.11	-42.8	-44.8	17.5	0.00e+00	0	40	0	0	57	4456
2026-01-10 22:43:13.74	39.45	18.40	-42.8	-44.8	17.5	0.00e+00	0	40	0	0	57	4476
2026-01-10 22:43:16.76	39.88	18.70	-42.8	-44.8	17.6	0.00e+00	0	40	0	0	57	4464
2026-01-10 22:43:19.77	40.31	19.00	-42.7	-44.8	17.6	0.00e+00	0	40	0	0	57	4449
2026-01-10 22:43:22.78	40.75	19.30	-42.8	-44.8	17.5	0.00e+00	0	40	0	0	57	4486
2026-01-10 22:43:25.78	41.20	19.60	-42.7	-44.7	17.7	0.00e+00	0	40	0	0	57	4395
2026-01-10 22:43:28.79	41.66	19.90	-42.5	-44.5	17.8	0.00e+00	0	40	0	0	56	4550
2026-01-10 22:43:31.80	42.13	20.21	-42.4	-44.3	18.0	0.00e+00	0	40	0	0	56	4477
2026-01-10 22:43:34.81	42.61	20.52	-42.4	-44.3	18.1	0.00e+00	0	40	0	0	56	4454
2026-01-10 22:43:37.82	43.10	20.83	-42.2	-44.1	18.2	0.00e+00	0	40	0	0	56	4372
2026-01-10 22:43:40.83	43.60	21.14	-42.3	-44.2	18.1	0.00e+00	0	40	0	0	56	4419
2026-01-10 22:43:43.84	44.11	21.46	-41.8	-43.6	18.5	0.00e+00	0	40	0	0	55	4389
2026-01-10 22:43:46.86	44.63	21.77	-41.8	-43.6	18.6	0.00e+00	0	40	0	0	55	4378
2026-01-10 22:43:49.87	45.15	22.09	-41.8	-43.6	18.6	0.00e+00	0	40	0	0	55	4365
2026-01-10 22:43:52.88	45.69	22.41	-41.7	-43.6	18.6	0.00e+00	0	40	0	0	55	4359
2026-01-10 22:43:55.88	46.24	22.73	-41.6	-43.5	18.6	0.00e+00	0	40	0	0	55	4295
2026-01-10 22:43:58.89	46.80	23.05	-41.6	-43.4	18.7	0.00e+00	0	40	0	0	54	4511
2026-01-10 22:44:01.90	47.38	23.37	-41.8	-43.6	18.6	0.00e+00	0	40	0	0	54	4625
2026-01-10 22:44:04.91	47.96	23.70	-41.7	-43.5	18.6	0.00e+00	0	40	0	0	54	4571
2026-01-10 22:44:07.92	48.56	24.02	-41.5	-43.3	18.7	0.00e+00	0	40	0	0	54	4491
2026-01-10 22:44:10.93	49.16	24.35	-41.5	-43.3	18.8	0.00e+00	0	40	0	0	54	4482
2026-01-10 22:44:13.94	49.79	24.67	-41.8	-43.7	18.6	0.00e+00	0	40	0	0	54	4675
2026-01-10 22:44:16.95	50.42	25.00	-41.9	-43.8	18.5	0.00e+00	0	40	0	0	54	4707
2026-01-10 22:44:19.96	51.07	25.33	-42.0	-43.8	18.3	0.00e+00	0	40	0	0	54	4759
2026-01-10 22:44:22.97	51.73	25.66	-42.1	-44.0	18.2	0.00e+00	0	40	0	0	54	4841
2026-01-10 22:44:25.98	52.40	25.99	-42.4	-44.3	18.0	0.00e+00	0	40	0	0	55	4729
2026-01-10 22:44:28.99	53.09	26.31	-42.4	-44.4	18.0	0.00e+00	0	40	0	0	55	4765
2026-01-10 22:44:32.01	53.79	26.64	-42.3	-44.2	18.0	0.00e+00	0	40	0	0	55	4683
2026-01-10 22:44:35.02	54.51	26.97	-42.3	-44.2	18.1	0.00e+00	0	40	0	0	55	4697
2026-01-10 22:44:38.03	55.24	27.30	-42.6	-44.5	17.8	0.00e+00	0	40	0	0	55	4849
2026-01-10 22:44:41.04	55.98	27.62	-42.8	-44.8	17.7	0.00e+00	0	40	0	0	56	4730
2026-01-10 22:44:44.05	56.74	27.94	-43.0	-45.0	17.6	0.00e+00	0	40	0	0	56	4848
2026-01-10 22:44:47.06	57.52	28.27	-42.7	-44.6	17.9	0.00e+00	0	40	0	0	56	4645
2026-01-10 22:44:50.07	58.31	28.59	-42.9	-44.8	17.7	0.00e+00	0	40	0	0	56	4758
2026-01-10 22:44:53.08	59.12	28.90	-43.0	-45.0	17.6	0.00e+00	0	40	0	0	56	4844
2026-01-10 22:44:56.09	59.94	29.22	-42.9	-44.9	17.6	0.00e+00	0	40	0	0	56	4772
2026-01-10 22:44:59.10	60.78	29.53	-42.5	-44.4	18.1	0.00e+00	0	40	0	0	56	4542
2026-01-10 22:45:02.10	61.63	29.84	-42.5	-44.4	18.1	0.00e+00	0	40	0	0	56	4523
2026-01-10 22:45:05.12	62.50	30.15	-42.7	-44.7	17.9	0.00e+00	0	40	0	0	56	4676
2026-01-10 22:45:08.13	63.39	30.45	-42.8	-44.7	18.0	0.00e+00	0	40	0	0	56	4680
2026-01-10 22:45:11.14	64.29	30.75	-42.5	-44.4	18.2	0.00e+00	0	40	0	0	56	4530
2026-01-10 22:45:14.14	65.21	31.04	-42.6	-44.5	18.2	0.00e+00	0	40	0	0	56	4567
2026-01-10 22:45:17.15	66.15	31.33	-42.5	-44.4	18.4	0.00e+00	0	41	0	0	56	4498
2026-01-10 22:45:20.16	67.10	31.61	-42.9	-44.8	17.9	0.00e+00	0	40	0	0	56	4755
2026-01-10 22:45:23.17	68.07	31.88	-42.9	-44.9	17.9	0.00e+00	0	40	0	0	56	4771
2026-01-10 22:45:26.19	69.06	32.15	-42.9	-44.8	18.0	0.00e+00	0	40	0	0	56	4752
2026-01-10 22:45:29.20	70.06	32.42	-43.4	-45.5	17.3	0.00e+00	0	40	0	0	57	4821
2026-01-10 22:45:32.21	71.07	32.67	-43.6	-45.6	17.2	0.00e+00	0	40	0	0	57	4899
2026-01-10 22:45:35.22	72.11	32.92	-43.4	-45.3	17.4	0.00e+00	0	40	0	0	57	4758
2026-01-10 22:45:38.23	73.16	33.16	-43.8	-45.8	17.1	0.00e+00	0	40	0	0	58	4759
2026-01-10 22:45:41.25	74.22	33.39	-43.5	-45.5	17.4	0.00e+00	0	40	0	0	58	4583
2026-01-10 22:45:44.26	75.30	33.61	-43.6	-45.6	17.2	0.00e+00	0	40	0	0	58	4615
2026-01-10 22:45:47.27	76.39	33.82	-43.5	-45.6	17.4	0.00e+00	0	41	0	0	58	4601
2026-01-10 22:45:50.28	77.50	34.02	-43.8	-45.8	17.0	0.00e+00	0	40	0	0	58	4759
2026-01-10 22:45:53.29	78.62	34.21	-43.8	-45.9	17.2	0.00e+00	0	41	0	0	58	4771
2026-01-10 22:45:56.30	79.75	34.39	-43.9	-46.0	17.0	0.00e+00	0	40	0	0	58	4824
2026-01-10 22:45:59.31	80.90	34.56	-43.6	-45.6	17.5	0.00e+00	0	40	0	0	58	4639
2026-01-10 22:46:02.32	82.05	34.71	-43.7	-45.8	17.1	0.00e+00	0	40	0	0	58	4742
2026-01-10 22:46:05.34	83.22	34.86	-43.6	-45.7	17.3	0.00e+00	0	40	0	0	58	4696
2026-01-10 22:46:08.34	84.40	34.99	-43.8	-45.9	17.1	0.00e+00	0	40	0	0	58	4805
2026-01-10 22:46:11.35	85.58	35.11	-44.1	-46.3	16.8	0.00e+00	0	41	0	0	58	5011
2026-01-10 22:46:14.36	86.77	35.21	-44.2	-46.4	16.7	0.00e+00	0	40	0	0	59	4786
2026-01-10 22:46:17.37	87.98	35.30	-43.9	-46.0	16.9	0.00e+00	0	40	0	0	59	4592
2026-01-10 22:46:20.38	89.18	35.38	-44.1	-46.2	16.9	0.00e+00	0	40	0	0	59	4680
2026-01-10 22:46:23.39	90.39	35.45	-43.7	-45.7	17.3	0.00e+00	0	41	0	0	59	4409
2026-01-10 22:46:26.41	91.62	35.50	-43.9	-45.9	17.1	0.00e+00	0	40	0	0	59	4541
2026-01-10 22:46:29.42	92.84	35.53	-43.9	-45.9	17.1	0.00e+00	0	41	0	0	59	4544
2026-01-10 22:46:32.43	94.06	35.56	-43.6	-45.6	17.5	0.00e+00	0	40	0	0	59	4346
2026-01-10 22:46:35.44	95.28	35.56	-43.7	-45.8	17.4	0.00e+00	0	40	0	0	59	4444
2026-01-10 22:46:38.45	96.51	35.56	-43.6	-45.6	17.4	0.00e+00	0	41	0	0	59	4374
2026-01-10 22:46:41.46	97.73	35.54	-43.8	-45.9	17.2	0.00e+00	0	41	0	0	59	4502
2026-01-10 22:46:44.47	98.95	35.50	-44.1	-46.2	16.9	0.00e+00	0	41	0	0	59	4685
2026-01-10 22:46:47.48	100.17	35.45	-44.0	-46.1	17.1	0.00e+00	0	40	0	0	59	4613
2026-01-10 22:46:50.49	101.38	35.39	-44.0	-46.1	17.0	0.00e+00	0	41	0	0	59	4629
2026-01-10 22:46:53.50	102.59	35.31	-44.2	-46.4	16.9	0.00e+00	0	41	0	0	59	4760
2026-01-10 22:46:56.51	103.79	35.22	-44.7	-47.0	16.3	0.00e+00	0	40	0	0	60	4818
2026-01-10 22:46:59.52	104.99	35.11	-44.1	-46.2	16.9	0.00e+00	0	40	0	0	60	4438
2026-01-10 22:47:02.53	106.18	35.00	-44.0	-46.0	17.1	0.00e+00	0	41	0	0	59	4587
2026-01-10 22:47:05.54	107.35	34.86	-44.0	-46.1	17.1	0.00e+00	0	41	0	0	59	4611
2026-01-10 22:47:08.56	108.53	34.72	-44.3	-46.4	16.8	0.00e+00	0	40	0	0	59	4787
2026-01-10 22:47:11.57	109.69	34.56	-44.1	-46.2	17.0	0.00e+00	0	41	0	0	59	4674
2026-01-10 22:47:14.58	110.83	34.40	-44.1	-46.1	17.1	0.00e+00	0	40	0	0	59	4626
2026-01-10 22:47:17.59	111.97	34.22	-44.1	-46.2	17.0	0.00e+00	0	41	0	0	59	4686
2026-01-10 22:47:20.58	113.08	34.03	-44.0	-46.1	17.2	0.00e+00	0	40	0	0	59	4612
2026-01-10 22:47:23.59	114.19	33.83	-43.9	-45.9	17.3	0.00e+00	0	40	0	0	59	4527
2026-01-10 22:47:26.60	115.29	33.62	-44.3	-46.5	16.8	0.00e+00	0	41	0	0	59	4827
2026-01-10 22:47:29.61	116.37	33.39	-44.0	-46.0	17.2	0.00e+00	0	41	0	0	59	4570
2026-01-10 22:47:32.61	117.44	33.16	-44.0	-46.0	17.3	0.00e+00	0	41	0	0	59	4589
2026-01-10 22:47:35.63	118.49	32.92	-44.2	-46.3	17.1	0.00e+00	0	40	0	0	59	4711
2026-01-10 22:47:38.64	119.53	32.68	-43.8	-45.8	17.5	0.00e+00	0	41	0	0	59	4463
2026-01-10 22:47:41.65	120.55	32.42	-43.6	-45.5	17.8	0.00e+00	0	41	0	0	58	4591
2026-01-10 22:47:44.67	121.56	32.16	-43.7	-45.7	17.7	0.00e+00	0	41	0	0	58	4658
2026-01-10 22:47:47.67	122.55	31.89	-43.6	-45.6	17.7	0.00e+00	0	41	0	0	58	4616
2026-01-10 22:47:50.68	123.52	31.61	-43.5	-45.4	18.0	0.00e+00	0	41	0	0	58	4520
2026-01-10 22:47:53.69	124.48	31.33	-43.4	-45.4	18.0	0.00e+00	0	41	0	0	58	4502
2026-01-10 22:47:56.70	125.42	31.04	-43.7	-45.6	17.8	0.00e+00	0	40	0	0	58	4625
2026-01-10 22:47:59.71	126.34	30.74	-43.5	-45.5	17.9	0.00e+00	0	41	0	0	58	4560
2026-01-10 22:48:02.72	127.25	30.44	-43.5	-45.4	18.0	0.00e+00	0	41	0	0	58	4515
2026-01-10 22:48:05.72	128.14	30.14	-43.7	-45.7	17.8	0.00e+00	0	40	0	0	58	4682
2026-01-10 22:48:08.74	129.01	29.83	-43.5	-45.4	18.1	0.00e+00	0	41	0	0	58	4502
2026-01-10 22:48:11.75	129.87	29.52	-43.2	-45.0	18.3	0.00e+00	0	41	0	0	58	4338
2026-01-10 22:48:14.76	130.71	29.21	-43.0	-44.9	18.4	0.00e+00	0	41	0	0	58	4275
2026-01-10 22:48:17.77	131.54	28.89	-43.1	-45.0	18.5	0.00e+00	0	41	0	0	58	4308
2026-01-10 22:48:20.78	132.35	28.57	-43.3	-45.1	18.3	0.00e+00	0	41	0	0	58	4376
2026-01-10 22:48:23.79	133.15	28.25	-43.6	-45.6	18.0	0.00e+00	0	41	0	0	58	4609
2026-01-10 22:48:26.81	133.93	27.92	-43.3	-45.2	18.3	0.00e+00	0	41	0	0	58	4406
2026-01-10 22:48:29.81	134.69	27.60	-43.2	-45.0	18.5	0.00e+00	0	41	0	0	58	4334
2026-01-10 22:48:32.83	135.44	27.27	-43.3	-45.2	18.4	0.00e+00	0	41	0	0	58	4419
2026-01-10 22:48:35.84	136.17	26.94	-43.2	-45.1	18.4	0.00e+00	0	41	0	0	58	4357
2026-01-10 22:48:38.85	136.89	26.61	-43.3	-45.2	18.4	0.00e+00	0	41	0	0	58	4405
2026-01-10 22:48:41.86	137.60	26.28	-43.3	-45.1	18.4	0.00e+00	0	41	0	0	58	4390
2026-01-10 22:48:44.87	138.29	25.95	-43.5	-45.4	18.3	0.00e+00	0	41	0	0	58	4495
2026-01-10 22:48:47.88	138.96	25.62	-43.3	-45.2	18.5	0.00e+00	0	41	0	0	58	4392
2026-01-10 22:48:50.89	139.63	25.29	-43.1	-44.9	18.7	0.00e+00	0	41	0	0	58	4269
2026-01-10 22:48:53.90	140.28	24.96	-43.1	-44.9	18.7	0.00e+00	0	41	0	0	58	4277
2026-01-10 22:48:56.91	140.91	24.63	-43.1	-45.0	18.7	0.00e+00	0	41	0	0	58	4292
2026-01-10 22:48:59.92	141.54	24.30	-43.1	-44.9	18.6	0.00e+00	0	41	0	0	58	4282
2026-01-10 22:49:02.93	142.15	23.97	-43.1	-44.9	18.6	0.00e+00	0	41	0	0	58	4290
2026-01-10 22:49:05.94	142.74	23.64	-43.2	-45.1	18.5	0.00e+00	0	41	0	0	58	4362
2026-01-10 22:49:08.96	143.33	23.32	-43.3	-45.2	18.5	0.00e+00	0	41	0	0	58	4398
2026-01-10 22:49:11.97	143.91	22.99	-43.5	-45.3	18.3	0.00e+00	0	41	0	0	58	4486
2026-01-10 22:49:14.98	144.47	22.67	-43.7	-45.6	18.1	0.00e+00	0	41	0	0	58	4625
2026-01-10 22:49:17.98	145.02	22.34	-43.8	-45.7	18.0	0.00e+00	0	41	0	0	58	4687
2026-01-10 22:49:21.00	145.56	22.02	-43.6	-45.5	18.1	0.00e+00	0	41	0	0	58	4594
2026-01-10 22:49:24.01	146.09	21.70	-43.7	-45.7	17.9	0.00e+00	0	41	0	0	58	4686
2026-01-10 22:49:27.02	146.61	21.38	-43.9	-45.8	17.8	0.00e+00	0	41	0	0	58	4755
2026-01-10 22:49:30.03	147.12	21.07	-44.0	-45.9	17.8	0.00e+00	0	41	0	0	58	4805
2026-01-10 22:49:33.04	147.62	20.75	-43.8	-45.7	18.0	0.00e+00	0	41	0	0	58	4683
2026-01-10 22:49:36.04	148.11	20.44	-43.8	-45.7	17.9	0.00e+00	0	41	0	0	58	4705
2026-01-10 22:49:39.05	148.59	20.13	-43.9	-45.9	17.8	0.00e+00	0	41	0	0	58	4776
2026-01-10 22:49:42.06	149.06	19.82	-43.8	-45.7	18.0	0.00e+00	0	41	0	0	58	4671
2026-01-10 22:49:45.07	149.52	19.51	-43.5	-45.4	18.3	0.00e+00	0	41	0	0	58	4500
2026-01-10 22:49:48.08	149.97	19.21	-43.5	-45.4	18.2	0.00e+00	0	41	0	0	58	4523
2026-01-10 22:49:51.09	150.42	18.90	-43.5	-45.3	18.3	0.00e+00	0	41	0	0	58	4487
2026-01-10 22:49:54.10	150.85	18.60	-43.4	-45.3	18.4	0.00e+00	0	41	0	0	58	4450
2026-01-10 22:49:57.11	151.28	18.30	-43.6	-45.5	18.2	0.00e+00	0	41	0	0	58	4572
2026-01-10 22:50:00.12	151.70	18.01	-43.7	-45.7	18.0	0.00e+00	0	41	0	0	58	4676
2026-01-10 22:50:03.13	152.11	17.71	-43.9	-45.9	17.8	0.00e+00	0	41	0	0	58	4782
2026-01-10 22:50:06.14	152.51	17.42	-43.9	-45.9	17.8	1.77e-03	0	41	0	0	58	4781
2026-01-10 22:50:09.15	152.91	17.13	-44.0	-46.0	17.7	4.00e-03	0	41	0	0	58	4829
2026-01-10 22:50:12.16	153.30	16.84	-44.1	-46.1	17.6	0.00e+00	0	41	0	0	58	4883
2026-01-10 22:50:15.17	153.68	16.55	-44.2	-46.2	17.5	0.00e+00	0	41	0	0	59	4686
2026-01-10 22:50:18.18	154.05	16.27	-44.2	-46.2	17.5	0.00e+00	0	41	0	0	59	4677
2026-01-10 22:50:21.19	154.42	15.99	-44.2	-46.3	17.4	0.00e+00	0	41	0	0	59	4721
2026-01-10 22:50:24.20	154.78	15.71	-44.2	-46.3	17.3	0.00e+00	0	41	0	0	59	4727
2026-01-10 22:50:27.22	155.14	15.43	-44.4	-46.5	17.1	0.00e+00	0	41	0	0	59	4859
2026-01-10 22:50:30.23	155.49	15.15	-44.4	-46.5	17.0	0.00e+00	0	41	0	0	59	4869
2026-01-10 22:50:33.24	155.83	14.88	-44.5	-46.7	16.9	0.00e+00	0	41	0	0	59	4950
2026-01-10 22:50:36.24	156.16	14.61	-44.5	-46.7	17.0	0.00e+00	0	41	0	0	60	4701
2026-01-10 22:50:39.26	156.49	14.34	-44.4	-46.5	17.2	0.00e+00	0	41	0	0	60	4591
2026-01-10 22:50:42.26	156.82	14.07	-44.5	-46.6	17.1	0.00e+00	0	41	0	0	60	4633
2026-01-10 22:50:45.28	157.14	13.81	-44.4	-46.5	17.2	0.00e+00	0	41	0	0	60	4587
2026-01-10 22:50:48.29	157.45	13.54	-44.7	-46.8	16.9	0.00e+00	0	41	0	0	60	4733
2026-01-10 22:50:51.30	157.76	13.28	-44.7	-46.8	16.8	0.00e+00	0	41	0	0	60	4739
2026-01-10 22:50:54.31	158.06	13.02	-44.8	-47.0	16.6	0.00e+00	0	41	0	0	60	4838
2026-01-10 22:50:57.32	158.36	12.77	-44.9	-47.1	16.5	0.00e+00	0	41	0	0	60	4897
2026-01-10 22:51:00.33	158.66	12.51	-44.9	-47.1	16.5	0.00e+00	0	41	0	0	60	4913
2026-01-10 22:51:03.34	158.94	12.26	-44.7	-46.9	16.7	0.00e+00	0	41	0	0	60	4795
2026-01-10 22:51:06.35	159.23	12.01	-44.8	-47.0	16.7	0.00e+00	0	41	0	0	60	4822
2026-01-10 22:51:09.36	159.51	11.76	-44.9	-47.1	13.5	0.00e+00	0	41	0	0	60	4918
2026-01-10 22:51:12.38	159.78	11.51	-44.8	-47.0	16.7	0.00e+00	0	41	0	0	60	4827
2026-01-10 22:51:15.39	160.05	11.27	-45.0	-47.2	16.4	2.04e-02	0	41	0	0	61	4675
2026-01-10 22:51:18.40	160.32	11.03	-44.9	-47.1	16.5	2.26e-03	0	41	0	0	61	4618
2026-01-10 22:51:21.41	160.58	10.78	-45.3	-47.6	16.0	0.00e+00	0	41	0	0	61	4880
2026-01-10 22:51:24.42	160.84	10.55	-45.5	-47.9	15.7	0.00e+00	0	41	0	0	61	5088
2026-01-10 22:51:27.43	161.09	10.31	-45.5	-48.0	15.6	0.00e+00	0	41	0	0	61	5112
2026-01-10 22:51:30.44	161.34	10.07	-45.7	-48.2	15.4	0.00e+00	0	41	0	0	62	4930
2026-01-10 22:51:33.45	161.59	9.84	-45.7	-48.2	15.3	0.00e+00	0	41	0	0	62	4961
2026-01-10 22:51:36.46	161.83	9.61	-45.8	-48.4	15.2	0.00e+00	0	41	0	0	62	5062
2026-01-10 22:51:39.47	162.07	9.38	-45.7	-48.1	15.4	0.00e+00	0	41	0	0	62	4909
2026-01-10 22:51:42.48	162.30	9.15	-45.8	-48.3	15.2	0.00e+00	0	41	0	0	62	4999
2026-01-10 22:51:45.50	162.54	8.92	-51.8	-64.5	3.8	1.49e+00	0	41	104	0	74	16152
2026-01-10 22:51:48.51	162.77	8.69	-52.1	-65.3	3.8	1.49e+00	0	41	104	0	74	17816
2026-01-10 22:51:51.52	162.99	8.47	-52.1	-65.5	3.8	1.49e+00	0	41	104	0	75	17122
2026-01-10 22:51:54.54	163.21	8.25	-52.6	-65.5	3.8	1.49e+00	0	41	104	0	75	17279
2026-01-10 22:51:57.55	163.43	8.03	-52.5	-65.6	3.8	1.49e+00	0	41	104	0	75	17310
2026-01-10 22:52:00.56	163.65	7.81	-52.6	-65.6	3.8	1.49e+00	0	41	104	0	75	17389
2026-01-10 22:52:03.58	163.86	7.59	-52.7	-65.6	3.8	1.49e+00	0	41	104	0	76	16445
2026-01-10 22:52:06.59	164.07	7.37	-52.6	-65.6	3.8	1.49e+00	0	41	104	0	76	16359
2026-01-10 22:52:09.60	164.27	7.16	-52.5	-65.6	3.8	1.49e+00	0	41	104	0	76	16348
2026-01-10 22:52:12.62	164.48	6.94	-52.5	-65.6	3.8	1.49e+00	0	41	104	0	76	16322
2026-01-10 22:52:15.63	164.68	6.73	-52.5	-65.6	3.8	1.49e+00	0	41	104	0	76	16333
2026-01-10 22:52:18.64	164.88	6.52	-52.5	-65.5	3.8	1.49e+00	0	41	104	0	76	16248
2026-01-10 22:52:21.66	165.07	6.31	-52.5	-65.6	3.8	1.49e+00	0	41	104	0	76	16338
2026-01-10 22:52:24.67	165.27	6.11	-52.5	-65.5	3.8	1.49e+00	0	41	104	0	76	16291
2026-01-10 22:52:27.68	165.46	5.90	-52.5	-65.5	3.8	1.49e+00	0	41	104	0	76	16265
2026-01-10 22:52:30.69	165.64	5.70	-52.5	-65.5	3.8	1.49e+00	0	41	104	0	76	16289
2026-01-10 22:52:33.71	165.83	5.49	-52.5	-65.5	3.8	1.49e+00	0	41	104	0	76	16236
2026-01-10 22:52:36.72	166.01	5.29	-52.5	-65.5	3.8	1.49e+00	0	41	104	0	76	16276
2026-01-10 22:52:39.73	166.19	5.09	-52.5	-65.5	3.8	1.49e+00	0	41	104	0	76	16279

#Closed at: 2026-01-10 22:52:42
#Recorded file [0 MB]: D:/Data/31040_260111_014028.dat