passes_logs/2026/01/10/T1/T1__20260110_110009_SUOMI_NPP_rec.log

#Pass ID: 20260110_110009_SUOMI NPP
#Satellite: SUOMI NPP
#Configuration: NPP
#almurnet v.1.7.20251203
#Start time: 2026-01-10 11:00:08

#Version: 2.0.20230620
#Station: T1
#Location: 37.570604 lon 55.790049 lat
#TLE: 1 37849U 11061A   26009.81756760  .00000113  00000+0  74747-4 0  9994
#TLE: 2 37849  98.7806 311.9110 0002525  72.5604 287.5848 14.19524046735974

#Time	Az	El	Level	Level2	SNR	BER	BlckErr	Temp	State	Recorded	gain1	gain2
2026-01-10 11:00:08.51	192.34	4.97	-49.8	-65.7	3.8	1.49e+00	0	40	0	0	70	23494
2026-01-10 11:00:11.52	192.52	5.17	-49.8	-65.7	3.8	1.49e+00	0	40	104	0	70	23399
2026-01-10 11:00:14.53	192.69	5.37	-49.8	-65.7	3.8	1.49e+00	0	40	104	0	70	23496
2026-01-10 11:00:17.54	192.87	5.58	-49.8	-65.6	3.8	1.49e+00	0	40	104	0	70	23291
2026-01-10 11:00:20.55	193.05	5.78	-49.8	-65.5	3.8	1.49e+00	0	40	104	0	70	22826
2026-01-10 11:00:23.56	193.23	5.99	-49.8	-65.6	3.8	1.49e+00	0	40	104	0	70	23100
2026-01-10 11:00:26.57	193.41	6.20	-49.8	-65.5	3.8	1.49e+00	0	41	104	0	70	23036
2026-01-10 11:00:29.58	193.60	6.40	-49.7	-65.0	3.8	1.49e+00	0	41	104	0	70	21725
2026-01-10 11:00:32.60	193.79	6.62	-49.7	-64.6	3.8	1.49e+00	0	41	104	0	70	20736
2026-01-10 11:00:35.61	193.98	6.83	-49.7	-64.4	3.8	1.49e+00	0	41	104	0	70	20150
2026-01-10 11:00:38.62	194.18	7.04	-49.7	-64.3	3.8	1.49e+00	0	41	104	0	70	19861
2026-01-10 11:00:41.63	194.38	7.26	-49.7	-64.4	3.8	1.49e+00	0	41	104	0	70	20289
2026-01-10 11:00:44.64	194.58	7.47	-49.8	-65.7	3.8	1.49e+00	0	41	104	0	70	23351
2026-01-10 11:00:47.66	194.78	7.69	-49.6	-62.0	4.2	1.49e+00	0	41	104	0	70	15256
2026-01-10 11:00:50.67	194.99	7.91	-48.5	-55.6	8.7	7.67e-02	0	41	0	5242880	69	7722
2026-01-10 11:00:53.68	195.20	8.13	-47.2	-52.2	12.1	4.41e-04	0	41	0	10485760	66	6228
2026-01-10 11:00:56.69	195.41	8.36	-46.7	-51.2	13.0	2.97e-05	0	41	0	15728640	65	5914
2026-01-10 11:00:59.70	195.63	8.58	-46.9	-51.6	12.6	8.92e-05	0	41	0	22020096	65	6198
2026-01-10 11:01:02.72	195.84	8.81	-47.9	-53.9	10.3	3.71e-03	0	41	0	27262976	66	7586
2026-01-10 11:01:05.73	196.07	9.04	-48.6	-56.5	7.7	5.64e-02	0	42	0	33554432	67	9635
2026-01-10 11:01:08.74	196.29	9.27	-49.2	-58.0	6.6	1.60e-01	0	42	0	38797312	69	10290
2026-01-10 11:01:11.74	196.52	9.50	-48.4	-54.4	9.8	4.59e-01	0	42	0	44040192	68	7173
2026-01-10 11:01:14.75	196.75	9.73	-46.2	-49.9	14.4	0.00e+00	0	42	0	50331648	64	5372
2026-01-10 11:01:17.76	196.99	9.97	-46.0	-49.5	14.9	0.00e+00	0	42	0	55574528	63	5442
2026-01-10 11:01:20.76	197.23	10.21	-45.9	-49.5	14.9	7.00e-07	0	42	0	61865984	63	5443
2026-01-10 11:01:23.77	197.47	10.45	-45.7	-49.2	15.1	0.00e+00	0	42	0	67108864	63	5226
2026-01-10 11:01:26.78	197.72	10.69	-45.7	-49.1	15.2	0.00e+00	0	42	0	72351744	63	5162
2026-01-10 11:01:29.77	197.97	10.93	-45.7	-49.1	15.2	0.00e+00	0	42	0	78643200	63	5171
2026-01-10 11:01:32.78	198.22	11.17	-45.7	-49.2	15.0	0.00e+00	0	42	0	83886080	63	5260
2026-01-10 11:01:35.78	198.48	11.42	-45.7	-49.2	14.9	0.00e+00	0	42	0	89128960	63	5244
2026-01-10 11:01:38.78	198.74	11.67	-45.7	-49.4	14.2	0.00e+00	0	42	0	95420416	62	5710
2026-01-10 11:01:41.79	199.01	11.92	-45.2	-49.1	13.5	1.06e-05	0	42	0	100663296	62	5504
2026-01-10 11:01:44.80	199.29	12.17	-44.9	-49.0	13.0	3.28e-05	0	42	0	106954752	61	5767
2026-01-10 11:01:47.81	199.56	12.43	-45.2	-49.2	13.5	1.37e-05	0	42	0	112197632	61	5856
2026-01-10 11:01:50.81	199.84	12.68	-45.7	-49.3	14.4	1.50e-06	0	42	0	117440512	61	5933
2026-01-10 11:01:53.81	200.13	12.94	-45.7	-48.9	15.5	0.00e+00	0	42	0	123731968	62	5378
2026-01-10 11:01:56.82	200.42	13.20	-45.9	-49.1	15.3	0.00e+00	0	42	0	128974848	62	5489
2026-01-10 11:01:59.82	200.72	13.47	-45.8	-49.1	15.4	0.00e+00	0	42	0	134217728	62	5476
2026-01-10 11:02:02.82	201.02	13.73	-45.7	-49.0	15.6	0.00e+00	0	42	0	140509184	62	5404
2026-01-10 11:02:05.82	201.32	14.00	-45.3	-48.5	15.8	0.00e+00	0	42	0	145752064	62	5140
2026-01-10 11:02:08.83	201.63	14.27	-45.3	-48.6	15.6	0.00e+00	0	42	0	152043520	62	5164
2026-01-10 11:02:11.83	201.95	14.54	-45.4	-48.7	15.8	0.00e+00	0	42	0	157286400	62	5235
2026-01-10 11:02:14.84	202.27	14.81	-45.4	-48.6	15.9	0.00e+00	0	42	0	162529280	62	5163
2026-01-10 11:02:17.85	202.60	15.09	-45.6	-48.8	15.8	0.00e+00	0	42	0	168820736	62	5296
2026-01-10 11:02:20.85	202.94	15.37	-45.5	-48.6	16.1	0.00e+00	0	42	0	174063616	62	5166
2026-01-10 11:02:23.86	203.28	15.65	-45.6	-48.6	16.0	0.00e+00	0	42	0	179306496	62	5189
2026-01-10 11:02:26.87	203.63	15.93	-45.7	-48.7	16.0	0.00e+00	0	42	0	185597952	62	5226
2026-01-10 11:02:29.88	203.98	16.22	-45.8	-48.8	15.8	0.00e+00	0	42	0	190840832	62	5311
2026-01-10 11:02:32.88	204.34	16.51	-45.9	-49.0	15.6	0.00e+00	0	42	0	197132288	62	5449
2026-01-10 11:02:35.89	204.71	16.80	-46.0	-49.2	15.5	0.00e+00	0	42	0	202375168	62	5565
2026-01-10 11:02:38.89	205.08	17.09	-45.9	-49.1	15.6	0.00e+00	0	42	0	207618048	62	5495
2026-01-10 11:02:41.89	205.46	17.39	-45.9	-49.1	15.6	0.00e+00	0	42	0	213909504	62	5509
2026-01-10 11:02:44.89	205.85	17.68	-45.9	-49.0	15.7	0.00e+00	0	42	0	219152384	62	5430
2026-01-10 11:02:47.89	206.24	17.98	-45.7	-48.8	15.9	0.00e+00	0	42	0	224395264	62	5310
2026-01-10 11:02:50.90	206.65	18.29	-45.6	-48.6	16.1	0.00e+00	0	43	0	230686720	62	5176
2026-01-10 11:02:53.91	207.06	18.59	-45.7	-48.7	16.0	0.00e+00	0	43	0	235929600	62	5236
2026-01-10 11:02:56.92	207.48	18.90	-46.0	-49.2	15.6	0.00e+00	0	42	0	242221056	62	5559
2026-01-10 11:02:59.92	207.91	19.21	-46.2	-49.5	15.2	0.00e+00	0	42	0	247463936	63	5426
2026-01-10 11:03:02.92	208.34	19.52	-46.3	-49.6	15.2	0.00e+00	0	42	0	252706816	63	5473
2026-01-10 11:03:05.93	208.79	19.83	-46.3	-49.6	15.2	0.00e+00	0	42	0	258998272	63	5469
2026-01-10 11:03:08.93	209.24	20.15	-46.2	-49.4	15.4	0.00e+00	0	42	0	264241152	63	5346
2026-01-10 11:03:11.93	209.71	20.47	-45.9	-49.0	15.7	0.00e+00	0	42	0	269484032	63	5130
2026-01-10 11:03:14.94	210.18	20.79	-45.9	-49.0	15.7	0.00e+00	0	42	0	275775488	63	5114
2026-01-10 11:03:17.93	210.66	21.11	-46.1	-49.3	15.4	0.00e+00	0	43	0	281018368	63	5308
2026-01-10 11:03:20.94	211.15	21.44	-46.1	-49.3	15.4	0.00e+00	0	42	0	286261248	63	5310
2026-01-10 11:03:23.95	211.66	21.77	-46.4	-49.7	15.0	0.00e+00	0	42	0	292552704	63	5577
2026-01-10 11:03:26.95	212.17	22.09	-46.2	-49.4	15.3	0.00e+00	0	42	0	297795584	63	5398
2026-01-10 11:03:29.96	212.69	22.43	-45.9	-48.9	15.9	0.00e+00	0	42	0	304087040	63	5092
2026-01-10 11:03:32.97	213.23	22.76	-45.7	-48.6	16.1	0.00e+00	0	43	0	309329920	63	4915
2026-01-10 11:03:35.97	213.78	23.09	-45.9	-48.9	15.8	0.00e+00	0	42	0	314572800	63	5093
2026-01-10 11:03:38.98	214.33	23.43	-45.9	-48.9	15.8	0.00e+00	0	42	0	320864256	63	5098
2026-01-10 11:03:41.98	214.90	23.77	-45.6	-48.5	16.2	0.00e+00	0	43	0	326107136	63	4867
2026-01-10 11:03:44.97	215.48	24.11	-45.3	-48.0	16.7	0.00e+00	0	43	0	331350016	62	4868
2026-01-10 11:03:47.98	216.08	24.45	-45.5	-48.4	16.3	0.00e+00	0	42	0	337641472	62	5063
2026-01-10 11:03:50.98	216.68	24.79	-45.8	-48.9	15.8	0.00e+00	0	43	0	342884352	62	5399
2026-01-10 11:03:53.98	217.30	25.13	-45.9	-49.1	15.8	0.00e+00	0	43	0	349175808	62	5472
2026-01-10 11:03:56.99	217.94	25.48	-45.5	-48.3	16.4	0.00e+00	0	42	0	354418688	62	5033
2026-01-10 11:03:59.99	218.58	25.82	-45.7	-48.6	16.2	0.00e+00	0	43	0	359661568	62	5172
2026-01-10 11:04:03.00	219.24	26.17	-45.6	-48.5	16.2	0.00e+00	0	43	0	365953024	62	5145
2026-01-10 11:04:06.01	219.92	26.51	-45.6	-48.5	16.3	0.00e+00	0	42	0	371195904	62	5113
2026-01-10 11:04:09.01	220.61	26.86	-45.5	-48.4	16.4	0.00e+00	0	43	0	376438784	62	5052
2026-01-10 11:04:12.01	221.31	27.20	-45.5	-48.4	16.4	0.00e+00	0	43	0	382730240	62	5077
2026-01-10 11:04:15.02	222.03	27.55	-45.2	-48.0	16.7	0.00e+00	0	43	0	387973120	62	4845
2026-01-10 11:04:18.02	222.77	27.89	-45.3	-48.1	16.8	0.00e+00	0	43	0	394264576	62	4872
2026-01-10 11:04:21.02	223.52	28.24	-45.5	-48.4	16.4	0.00e+00	0	43	0	399507456	62	5067
2026-01-10 11:04:24.03	224.28	28.58	-45.6	-48.5	16.3	0.00e+00	0	43	0	404750336	62	5134
2026-01-10 11:04:27.03	225.07	28.92	-45.9	-48.9	16.0	0.00e+00	0	43	0	411041792	62	5369
2026-01-10 11:04:30.03	225.86	29.26	-46.0	-49.0	15.9	0.00e+00	0	43	0	416284672	63	5124
2026-01-10 11:04:33.04	226.68	29.60	-47.2	-50.5	14.9	7.00e-07	0	43	0	421527552	64	5759
2026-01-10 11:04:36.05	227.52	29.94	-46.4	-49.7	15.1	0.00e+00	0	43	0	427819008	64	5227
2026-01-10 11:04:39.06	228.37	30.27	-46.6	-50.0	14.8	0.00e+00	0	43	0	433061888	64	5456
2026-01-10 11:04:42.07	229.24	30.60	-47.6	-51.5	13.4	7.60e-06	0	43	0	439353344	65	6101
2026-01-10 11:04:45.07	230.12	30.93	-47.9	-52.2	12.7	4.65e-05	0	43	0	444596224	66	6247
2026-01-10 11:04:48.07	231.02	31.25	-47.8	-52.0	12.8	3.66e-05	0	43	0	449839104	66	6109
2026-01-10 11:04:51.07	231.94	31.57	-48.3	-53.1	11.8	2.94e-04	0	43	0	456130560	67	6531
2026-01-10 11:04:54.07	232.87	31.88	-48.1	-52.4	12.5	3.14e-04	0	43	0	461373440	67	6035
2026-01-10 11:04:57.06	233.83	32.19	-47.8	-51.9	13.1	4.50e-05	0	43	0	466616320	67	5657
2026-01-10 11:05:00.07	234.80	32.49	-48.1	-52.3	12.6	6.56e-05	0	43	0	472907776	67	5984
2026-01-10 11:05:03.07	235.79	32.79	-48.6	-53.5	11.5	5.00e-04	0	43	0	478150656	67	6869
2026-01-10 11:05:06.08	236.80	33.08	-48.2	-52.6	12.2	2.70e-04	0	43	0	483393536	67	6187
2026-01-10 11:05:09.08	237.82	33.36	-47.9	-52.0	12.9	6.25e-05	0	43	0	489684992	67	5732
2026-01-10 11:05:12.09	238.87	33.64	-48.5	-53.2	11.8	2.90e-04	0	43	0	494927872	67	6580
2026-01-10 11:05:15.09	239.93	33.90	-47.3	-51.0	13.8	7.60e-06	0	43	0	501219328	66	5457
2026-01-10 11:05:18.11	241.01	34.16	-46.6	-49.8	15.1	0.00e+00	0	43	0	506462208	64	5328
2026-01-10 11:05:21.11	242.11	34.41	-48.1	-52.3	12.7	4.50e-05	0	43	0	511705088	66	6320
2026-01-10 11:05:24.11	243.22	34.65	-47.0	-50.5	14.5	7.00e-07	0	43	0	517996544	65	5426
2026-01-10 11:05:27.11	244.34	34.88	-45.9	-48.9	16.2	0.00e+00	0	43	0	523239424	63	5062
2026-01-10 11:05:30.11	245.48	35.10	-46.4	-49.6	15.5	0.00e+00	0	43	0	528482304	63	5482
2026-01-10 11:05:33.11	246.64	35.31	-46.5	-49.7	15.3	0.00e+00	0	43	0	534773760	64	5260
2026-01-10 11:05:36.12	247.81	35.50	-45.7	-48.6	16.5	0.00e+00	0	43	0	540016640	63	4880
2026-01-10 11:05:39.13	248.99	35.69	-46.4	-49.5	15.6	0.00e+00	0	43	0	546308096	63	5432
2026-01-10 11:05:42.13	250.19	35.86	-46.0	-49.0	16.2	0.00e+00	0	43	0	551550976	63	5104
2026-01-10 11:05:45.14	251.40	36.01	-46.4	-49.6	15.6	0.00e+00	0	43	0	556793856	63	5474
2026-01-10 11:05:48.15	252.62	36.16	-46.6	-49.8	15.3	0.00e+00	0	43	0	563085312	63	5648
2026-01-10 11:05:51.16	253.85	36.29	-47.2	-50.6	14.6	1.50e-06	0	43	0	568328192	65	5511
2026-01-10 11:05:54.16	255.09	36.41	-46.5	-49.6	15.6	0.00e+00	0	43	0	573571072	64	5179
2026-01-10 11:05:57.16	256.34	36.51	-46.2	-49.1	16.1	0.00e+00	0	43	0	579862528	63	5190
2026-01-10 11:06:00.16	257.59	36.59	-47.0	-50.4	14.9	0.00e+00	0	43	0	585105408	64	5665
2026-01-10 11:06:03.17	258.85	36.67	-47.4	-51.0	14.4	1.50e-06	0	43	0	591396864	65	5753
2026-01-10 11:06:06.17	260.11	36.72	-47.0	-50.4	15.0	0.00e+00	0	43	0	596639744	65	5354
2026-01-10 11:06:09.18	261.38	36.76	-47.1	-50.5	14.9	0.00e+00	0	43	0	601882624	65	5413
2026-01-10 11:06:12.18	262.65	36.79	-47.2	-50.7	14.6	1.50e-06	0	43	0	608174080	65	5562
2026-01-10 11:06:15.18	263.92	36.80	-47.3	-50.8	14.6	0.00e+00	0	43	0	613416960	65	5629
2026-01-10 11:06:18.19	265.20	36.79	-47.2	-50.5	15.0	0.00e+00	0	43	0	618659840	65	5433
2026-01-10 11:06:21.19	266.47	36.77	-47.4	-50.9	14.5	0.00e+00	0	43	0	624951296	66	5357
2026-01-10 11:06:24.20	267.74	36.74	-47.8	-51.6	13.9	3.00e-06	0	43	0	630194176	66	5800
2026-01-10 11:06:27.20	269.00	36.69	-47.6	-51.3	14.3	7.60e-06	0	43	0	635437056	66	5627
2026-01-10 11:06:30.20	270.26	36.62	-47.1	-50.5	15.0	7.00e-07	0	43	0	641728512	66	5112
2026-01-10 11:06:33.20	271.51	36.54	-47.6	-51.3	14.4	0.00e+00	0	43	0	646971392	66	5604
2026-01-10 11:06:36.20	272.76	36.44	-49.2	-53.8	12.1	2.74e-04	0	43	0	653262848	68	6690
2026-01-10 11:06:39.21	274.00	36.33	-48.5	-52.6	13.2	1.44e-05	0	43	0	658505728	68	5826
2026-01-10 11:06:42.21	275.23	36.21	-47.7	-51.1	14.5	7.00e-07	0	43	0	663748608	67	5200
2026-01-10 11:06:45.22	276.45	36.07	-48.5	-52.6	13.1	4.50e-06	0	43	0	670040064	67	6185
2026-01-10 11:06:48.22	277.66	35.91	-48.2	-51.9	13.9	6.80e-06	0	43	0	675282944	68	5356
2026-01-10 11:06:51.22	278.86	35.75	-49.7	-54.7	11.2	3.06e-04	0	43	0	680525824	69	6961
2026-01-10 11:06:54.23	280.05	35.57	-49.5	-54.2	11.6	4.01e-04	0	43	0	686817280	70	6246
2026-01-10 11:06:57.24	281.22	35.38	-50.2	-56.0	9.8	1.26e-02	0	43	0	692060160	71	7240
2026-01-10 11:07:00.24	282.38	35.18	-49.7	-54.8	11.1	1.27e-03	0	43	0	698351616	70	6661
2026-01-10 11:07:03.24	283.52	34.96	-50.6	-57.1	8.8	3.18e-02	0	43	0	703594496	71	8221
2026-01-10 11:07:06.25	284.65	34.74	-49.9	-55.3	10.6	5.74e-03	0	43	0	708837376	71	6668
2026-01-10 11:07:09.25	285.77	34.50	-48.3	-52.1	13.8	9.10e-06	0	43	0	715128832	68	5465
2026-01-10 11:07:12.25	286.86	34.26	-48.0	-51.5	14.2	3.80e-06	0	43	0	720371712	67	5441
2026-01-10 11:07:15.26	287.94	34.00	-48.3	-52.0	13.8	4.50e-06	0	43	0	725614592	67	5756
2026-01-10 11:07:18.26	289.01	33.74	-49.3	-53.8	12.0	2.31e-04	0	43	0	731906048	69	6315
2026-01-10 11:07:21.26	290.05	33.47	-48.2	-52.0	13.9	3.00e-06	0	43	0	737148928	68	5426
2026-01-10 11:07:24.27	291.08	33.19	-49.0	-53.3	12.5	5.34e-05	0	43	0	743440384	68	6341
2026-01-10 11:07:27.28	292.10	32.91	-47.0	-50.0	15.6	0.00e+00	0	43	0	748683264	66	4868
2026-01-10 11:07:30.28	293.09	32.61	-47.5	-51.0	14.7	0.00e+00	0	43	0	753926144	65	5779
2026-01-10 11:07:33.29	294.07	32.31	-47.3	-50.6	15.0	0.00e+00	0	43	0	760217600	65	5492
2026-01-10 11:07:36.29	295.02	32.01	-48.7	-52.9	12.7	3.89e-05	0	43	0	765460480	67	6418
2026-01-10 11:07:39.29	295.96	31.70	-46.3	-49.2	16.3	0.00e+00	0	43	0	770703360	64	4952
2026-01-10 11:07:42.29	296.88	31.39	-46.2	-49.1	16.6	0.00e+00	0	43	0	776994816	63	5165
2026-01-10 11:07:45.29	297.79	31.07	-46.7	-49.7	15.8	0.00e+00	0	43	0	782237696	64	5274
2026-01-10 11:07:48.29	298.68	30.74	-46.3	-49.1	16.5	0.00e+00	0	43	0	787480576	63	5189
2026-01-10 11:07:51.29	299.54	30.42	-47.1	-50.4	15.2	0.00e+00	0	43	0	793772032	65	5378
2026-01-10 11:07:54.30	300.40	30.09	-45.6	-48.2	17.3	0.00e+00	0	43	0	799014912	62	4980
2026-01-10 11:07:57.30	301.23	29.75	-46.7	-49.7	15.8	0.00e+00	0	43	0	805306368	63	5588
2026-01-10 11:08:00.31	302.05	29.42	-46.0	-48.8	16.6	0.00e+00	0	43	0	810549248	63	5021
2026-01-10 11:08:03.32	302.86	29.08	-46.1	-49.0	16.5	0.00e+00	0	43	0	815792128	62	5432
2026-01-10 11:08:06.32	303.64	28.74	-46.6	-49.7	15.7	0.00e+00	0	43	0	822083584	64	5265
2026-01-10 11:08:09.32	304.41	28.40	-45.6	-48.3	17.2	0.00e+00	0	43	0	827326464	62	5018
2026-01-10 11:08:12.32	305.16	28.06	-47.0	-50.4	15.2	0.00e+00	0	43	0	832569344	64	5660
2026-01-10 11:08:15.33	305.90	27.72	-45.7	-48.3	17.1	0.00e+00	0	43	0	838860800	63	4735
2026-01-10 11:08:18.32	306.62	27.38	-45.7	-48.3	17.1	0.00e+00	0	43	0	844103680	62	5016
2026-01-10 11:08:21.33	307.33	27.03	-46.3	-49.3	16.1	0.00e+00	0	43	0	850395136	64	4984
2026-01-10 11:08:24.32	308.02	26.69	-45.9	-48.7	16.7	0.00e+00	0	43	0	855638016	63	4959
2026-01-10 11:08:27.33	308.70	26.35	-46.9	-50.2	15.2	0.00e+00	0	43	0	860880896	64	5559
2026-01-10 11:08:30.33	309.36	26.00	-46.0	-48.8	16.6	0.00e+00	0	43	0	867172352	63	5021
2026-01-10 11:08:33.33	310.01	25.66	-46.2	-49.2	16.1	0.00e+00	0	43	0	872415232	63	5276
2026-01-10 11:08:36.34	310.65	25.32	-47.4	-51.3	14.0	3.00e-06	0	43	0	877658112	65	5986
2026-01-10 11:08:39.35	311.28	24.98	-45.9	-48.9	16.4	0.00e+00	0	43	0	883949568	63	5093
2026-01-10 11:08:42.35	311.88	24.64	-45.0	-47.6	17.5	0.00e+00	0	43	0	889192448	61	4924
2026-01-10 11:08:45.35	312.48	24.30	-46.2	-49.3	16.0	0.00e+00	0	43	0	894435328	62	5598
2026-01-10 11:08:48.35	313.07	23.96	-46.1	-49.1	16.2	0.00e+00	0	43	0	900726784	63	5171
2026-01-10 11:08:51.36	313.64	23.63	-45.2	-47.9	17.3	0.00e+00	0	43	0	905969664	62	4783
2026-01-10 11:08:54.37	314.20	23.29	-45.4	-48.1	16.9	0.00e+00	0	43	0	912261120	62	4922
2026-01-10 11:08:57.37	314.75	22.96	-45.4	-48.1	17.0	0.00e+00	0	43	0	917504000	62	4917
2026-01-10 11:09:00.38	315.29	22.63	-44.7	-47.3	17.8	0.00e+00	0	43	0	922746880	61	4711
2026-01-10 11:09:03.38	315.81	22.30	-44.8	-47.5	17.5	0.00e+00	0	43	0	929038336	61	4842
2026-01-10 11:09:06.38	316.33	21.97	-45.5	-48.4	16.7	0.00e+00	0	43	0	934281216	61	5369
2026-01-10 11:09:09.39	316.84	21.65	-45.2	-48.0	17.0	0.00e+00	0	43	0	940572672	61	5150
2026-01-10 11:09:12.40	317.33	21.32	-44.8	-47.5	17.5	0.00e+00	0	43	0	945815552	61	4826
2026-01-10 11:09:15.41	317.82	21.00	-44.9	-47.5	17.4	0.00e+00	0	43	0	951058432	61	4854
2026-01-10 11:09:18.42	318.30	20.68	-45.1	-47.8	17.1	0.00e+00	0	43	0	957349888	61	5033
2026-01-10 11:09:21.42	318.76	20.36	-45.2	-48.1	16.9	0.00e+00	0	43	0	962592768	61	5190
2026-01-10 11:09:24.42	319.22	20.05	-45.1	-48.0	16.9	0.00e+00	0	43	0	967835648	61	5134
2026-01-10 11:09:27.42	319.67	19.74	-45.0	-47.8	17.3	0.00e+00	0	43	0	974127104	61	4999
2026-01-10 11:09:30.42	320.11	19.43	-44.9	-47.7	17.2	0.00e+00	0	43	0	979369984	61	4948
2026-01-10 11:09:33.42	320.54	19.12	-45.0	-47.8	17.1	0.00e+00	0	43	0	985661440	61	5007
2026-01-10 11:09:36.42	320.96	18.82	-44.7	-47.4	17.5	0.00e+00	0	43	0	990904320	61	4769
2026-01-10 11:09:39.43	321.37	18.51	-44.6	-47.2	17.6	0.00e+00	0	43	0	996147200	61	4680
2026-01-10 11:09:42.43	321.78	18.21	-44.9	-47.5	17.3	0.00e+00	0	43	0	1002438656	61	4854
2026-01-10 11:09:45.44	322.18	17.91	-45.9	-48.9	16.1	0.00e+00	0	43	0	1007681536	62	5369
2026-01-10 11:09:48.45	322.57	17.62	-46.4	-50.1	14.9	0.00e+00	0	43	0	1012924416	63	5817
2026-01-10 11:09:51.46	322.96	17.32	-46.6	-50.7	14.1	2.20e-06	0	43	0	1019215872	64	5916
2026-01-10 11:09:54.46	323.33	17.03	-46.6	-50.4	14.5	2.20e-06	0	43	0	1024458752	64	5673
2026-01-10 11:09:57.46	323.70	16.74	-46.1	-49.3	15.5	0.00e+00	0	43	0	1030750208	64	5005
2026-01-10 11:10:00.46	324.06	16.45	-45.6	-48.6	16.4	0.00e+00	0	43	0	1035993088	63	4884
2026-01-10 11:10:03.46	324.42	16.17	-45.6	-48.6	16.3	0.00e+00	0	43	0	1041235968	63	4896
2026-01-10 11:10:06.47	324.77	15.89	-46.3	-49.7	15.2	0.00e+00	0	43	0	1047527424	63	5553
2026-01-10 11:10:09.47	325.11	15.61	-46.0	-49.9	15.0	0.00e+00	0	43	0	1052770304	63	5696
2026-01-10 11:10:12.47	325.45	15.33	-45.9	-49.8	15.0	0.00e+00	0	43	0	1058013184	63	5653
2026-01-10 11:10:15.48	325.78	15.05	-45.6	-49.1	15.8	0.00e+00	0	43	0	1064304640	62	5496
2026-01-10 11:10:18.49	326.11	14.78	-45.5	-48.8	16.0	0.00e+00	0	43	0	1069547520	62	5326
2026-01-10 11:10:21.49	326.43	14.51	-45.6	-48.8	16.0	0.00e+00	0	43	0	1074790400	62	5321
2026-01-10 11:10:24.50	326.75	14.24	-45.8	-49.0	15.8	0.00e+00	0	43	0	1081081856	62	5461
2026-01-10 11:10:27.50	327.06	13.98	-46.1	-49.4	15.5	0.00e+00	0	43	0	1086324736	62	5675
2026-01-10 11:10:30.50	327.36	13.71	-45.7	-49.0	15.8	0.00e+00	0	43	0	1092616192	62	5403
2026-01-10 11:10:33.50	327.66	13.45	-45.6	-48.8	16.1	0.00e+00	0	43	0	1097859072	62	5282
2026-01-10 11:10:36.50	327.95	13.19	-45.4	-48.4	16.3	0.00e+00	0	43	0	1103101952	62	5076
2026-01-10 11:10:39.50	328.24	12.93	-45.7	-48.8	16.0	0.00e+00	0	43	0	1109393408	62	5284
2026-01-10 11:10:42.50	328.52	12.68	-46.0	-49.4	15.4	0.00e+00	0	43	0	1114636288	62	5657
2026-01-10 11:10:45.51	328.80	12.42	-45.9	-49.4	15.3	0.00e+00	0	43	0	1119879168	62	5707
2026-01-10 11:10:48.51	329.08	12.17	-46.1	-49.7	15.1	0.00e+00	0	43	0	1126170624	63	5530
2026-01-10 11:10:51.52	329.35	11.92	-46.2	-49.7	15.0	0.00e+00	0	43	0	1131413504	63	5582
2026-01-10 11:10:54.52	329.62	11.67	-46.1	-49.4	15.2	7.00e-07	0	43	0	1137704960	63	5396
2026-01-10 11:10:57.53	329.88	11.43	-46.2	-49.5	15.2	0.00e+00	0	43	0	1142947840	63	5451
2026-01-10 11:11:00.53	330.14	11.19	-46.2	-49.6	15.1	0.00e+00	0	43	0	1148190720	63	5493
2026-01-10 11:11:03.53	330.39	10.94	-46.2	-49.7	14.9	0.00e+00	0	43	0	1154482176	63	5571
2026-01-10 11:11:06.54	330.64	10.70	-46.3	-49.9	14.7	0.00e+00	0	43	0	1159725056	63	5708
2026-01-10 11:11:09.54	330.89	10.47	-46.3	-49.8	14.8	0.00e+00	0	43	0	1164967936	63	5651
2026-01-10 11:11:12.54	331.13	10.23	-46.1	-49.5	15.2	0.00e+00	0	43	0	1171259392	63	5404
2026-01-10 11:11:15.54	331.37	10.00	-45.9	-49.3	15.3	0.00e+00	0	43	0	1176502272	63	5311
2026-01-10 11:11:18.54	331.61	9.76	-45.7	-49.1	15.5	0.00e+00	0	43	0	1181745152	63	5190
2026-01-10 11:11:21.54	331.84	9.53	-45.5	-49.0	15.6	0.00e+00	0	43	0	1188036608	62	5407
2026-01-10 11:11:24.54	332.07	9.31	-45.7	-49.2	15.4	0.00e+00	0	43	0	1193279488	62	5542
2026-01-10 11:11:27.55	332.29	9.08	-45.5	-48.8	15.8	0.00e+00	0	43	0	1199570944	62	5292
2026-01-10 11:11:30.56	332.51	8.85	-50.7	-66.1	3.8	1.49e+00	0	43	104	1201668096	72	21941
2026-01-10 11:11:33.57	332.73	8.63	-51.1	-66.4	3.8	1.49e+00	0	43	104	1201668096	72	22624
2026-01-10 11:11:36.58	332.95	8.41	-50.8	-66.4	3.8	1.49e+00	0	43	104	1201668096	72	22778
2026-01-10 11:11:39.59	333.16	8.18	-51.3	-66.5	3.8	1.49e+00	0	43	104	1201668096	73	21718
2026-01-10 11:11:42.60	333.37	7.97	-51.0	-66.5	3.8	1.49e+00	0	43	104	1201668096	73	21697
2026-01-10 11:11:45.62	333.58	7.75	-51.3	-66.5	3.8	1.49e+00	0	43	104	1201668096	73	21654
2026-01-10 11:11:48.63	333.78	7.53	-51.2	-66.5	3.8	1.49e+00	0	43	104	1201668096	73	21530
2026-01-10 11:11:51.64	333.99	7.32	-51.1	-66.5	3.8	1.49e+00	0	43	104	1201668096	73	21558
2026-01-10 11:11:54.65	334.18	7.10	-51.1	-66.4	3.8	1.49e+00	0	43	104	1201668096	73	21491
2026-01-10 11:11:57.66	334.38	6.89	-51.1	-66.4	3.8	1.49e+00	0	43	104	1201668096	73	21491
2026-01-10 11:12:00.68	334.57	6.68	-51.1	-66.4	3.8	1.49e+00	0	43	104	1201668096	73	21443
2026-01-10 11:12:03.69	334.76	6.47	-51.1	-66.4	3.8	1.49e+00	0	43	104	1201668096	73	21375
2026-01-10 11:12:06.70	334.95	6.27	-51.0	-66.4	3.8	1.49e+00	0	43	104	1201668096	73	21503
2026-01-10 11:12:09.71	335.14	6.06	-51.0	-66.4	3.8	1.49e+00	0	43	104	1201668096	73	21434
2026-01-10 11:12:12.73	335.32	5.86	-51.1	-66.4	3.8	1.49e+00	0	43	104	1201668096	73	21411
2026-01-10 11:12:15.74	335.50	5.65	-51.1	-66.4	3.8	1.49e+00	0	43	104	1201668096	73	21435
2026-01-10 11:12:18.75	335.68	5.45	-51.1	-66.4	3.8	1.49e+00	0	43	104	1201668096	73	21395
2026-01-10 11:12:21.76	335.86	5.25	-51.1	-66.4	3.8	1.49e+00	0	43	104	1201668096	73	21358
2026-01-10 11:12:24.78	336.03	5.05	-51.1	-66.4	3.8	1.49e+00	0	43	104	1201668096	73	21390

#Closed at: 2026-01-10 11:12:26
#Recorded file [1201 MB]: D:/Data/31040_260110_140008.dat