passes_logs/2026/01/10/T1/T1__20260110_005112_AQUA_rec.log

#Pass ID: 20260110_005112_AQUA
#Satellite: AQUA
#Configuration: AQUA
#almurnet v.1.7.20251203
#Start time: 2026-01-10 00:51:13

#Version: 2.0.20230620
#Station: T1
#Location: 37.570604 lon 55.790049 lat
#TLE: 1 27424U 02022A   26009.00333547  .00001046  00000+0  21942-3 0  9998
#TLE: 2 27424  98.4075 335.3304 0002025  85.7625 349.1392 14.61808998260011

#Time	Az	El	Level	Level2	SNR	BER	BlckErr	Temp	State	Recorded	gain1	gain2
2026-01-10 00:51:13.26	20.60	5.08	-50.5	-73.2	3.8	7.46e-01	0	41	104	0	71	52422
2026-01-10 00:51:16.27	20.72	5.30	-50.5	-73.2	3.8	7.44e-01	0	41	104	0	71	52532
2026-01-10 00:51:19.28	20.83	5.52	-50.5	-73.2	3.8	7.45e-01	0	42	104	0	71	52220
2026-01-10 00:51:22.30	20.95	5.75	-50.5	-72.9	3.8	7.49e-01	0	42	104	0	71	50911
2026-01-10 00:51:25.31	21.07	5.97	-50.5	-72.8	3.8	7.46e-01	0	42	104	0	71	50101
2026-01-10 00:51:28.32	21.20	6.20	-50.5	-72.8	3.8	7.45e-01	0	42	104	0	71	50025
2026-01-10 00:51:31.34	21.32	6.43	-50.5	-72.9	3.8	7.49e-01	0	42	104	0	71	50821
2026-01-10 00:51:34.35	21.45	6.67	-50.5	-73.3	3.8	7.46e-01	0	42	104	0	71	53268
2026-01-10 00:51:37.36	21.58	6.90	-50.5	-72.3	3.8	7.49e-01	0	42	104	0	71	47571
2026-01-10 00:51:40.37	21.71	7.14	-50.5	-69.4	4.3	7.34e-01	0	42	104	0	71	33740
2026-01-10 00:51:43.39	21.84	7.38	-50.4	-68.3	4.8	7.18e-01	0	42	104	0	71	29726
2026-01-10 00:51:46.40	21.98	7.62	-50.4	-68.8	4.3	7.23e-01	0	43	104	0	71	31745
2026-01-10 00:51:49.41	22.12	7.87	-50.4	-67.4	5.3	7.05e-01	0	43	0	0	71	26767
2026-01-10 00:51:52.42	22.25	8.12	-50.4	-66.1	6.1	6.83e-01	0	43	0	3145728	71	23122
2026-01-10 00:51:55.44	22.40	8.37	-50.4	-66.5	5.8	6.88e-01	0	43	0	7864320	71	24345
2026-01-10 00:51:58.45	22.54	8.62	-50.4	-66.2	6.0	6.85e-01	0	43	0	11534336	71	23510
2026-01-10 00:52:01.46	22.69	8.88	-50.3	-64.8	7.2	6.59e-01	0	43	0	16777216	71	19957
2026-01-10 00:52:04.48	22.84	9.14	-50.7	-66.3	6.0	6.87e-01	0	43	0	22020096	71	23650
2026-01-10 00:52:07.49	22.99	9.40	-51.5	-70.2	3.8	7.28e-01	0	43	104	25165824	73	33056
2026-01-10 00:52:10.50	23.15	9.66	-49.7	-54.6	17.9	6.05e-01	0	43	0	29884416	71	6137
2026-01-10 00:52:13.51	23.30	9.93	-49.7	-54.3	18.0	6.03e-01	0	43	0	35651584	71	5957
2026-01-10 00:52:16.56	23.47	10.20	-49.4	-53.7	18.7	6.03e-01	0	43	0	41418752	70	5909
2026-01-10 00:52:19.56	23.63	10.48	-48.6	-52.4	20.0	6.05e-01	0	43	0	47185920	69	5394
2026-01-10 00:52:22.57	23.80	10.75	-48.2	-51.8	20.6	6.05e-01	0	43	0	52953088	68	5314
2026-01-10 00:52:25.57	23.97	11.03	-47.8	-51.2	21.1	6.05e-01	0	43	0	58195968	67	5239
2026-01-10 00:52:28.98	24.16	11.35	-47.9	-51.2	21.2	6.04e-01	0	43	0	64487424	67	5266
2026-01-10 00:52:31.70	24.32	11.61	-47.8	-51.2	21.1	6.03e-01	0	43	0	69730304	67	5275
2026-01-10 00:52:34.99	24.52	11.93	-47.6	-51.2	21.2	6.04e-01	0	43	0	76021760	67	5271
2026-01-10 00:52:37.80	24.69	12.21	-47.4	-51.2	21.1	6.05e-01	0	43	0	81264640	66	5544
2026-01-10 00:52:41.27	24.91	12.55	-47.1	-50.9	21.5	6.05e-01	0	43	0	87556096	66	5370
2026-01-10 00:52:44.00	25.08	12.83	-47.1	-50.7	21.7	6.01e-01	0	43	0	92798976	66	5240
2026-01-10 00:52:47.29	25.30	13.16	-47.1	-51.0	21.5	6.04e-01	0	43	0	99090432	66	5419
2026-01-10 00:52:50.11	25.49	13.45	-47.0	-50.7	21.8	6.05e-01	0	44	0	104333312	65	5564
2026-01-10 00:52:53.27	25.70	13.79	-47.2	-50.7	21.8	6.04e-01	0	43	0	110100480	65	5541
2026-01-10 00:52:56.13	25.90	14.09	-47.2	-50.5	22.0	6.04e-01	0	43	0	115867648	65	5431
2026-01-10 00:52:59.32	26.13	14.43	-47.2	-50.5	22.0	6.06e-01	0	43	0	121634816	65	5421
2026-01-10 00:53:02.18	26.33	14.75	-47.2	-50.5	22.0	6.05e-01	0	43	0	126877696	65	5435
2026-01-10 00:53:05.53	26.58	15.12	-47.1	-50.4	22.1	6.04e-01	0	43	0	133169152	65	5391
2026-01-10 00:53:08.26	26.79	15.42	-46.9	-50.5	22.1	6.04e-01	0	43	0	138412032	65	5440
2026-01-10 00:53:11.55	27.05	15.80	-46.6	-50.4	22.2	6.04e-01	0	44	0	144703488	65	5375
2026-01-10 00:53:14.28	27.26	16.11	-46.6	-50.3	22.3	6.03e-01	0	44	0	149422080	64	5608
2026-01-10 00:53:17.57	27.53	16.50	-46.6	-50.1	22.5	6.04e-01	0	43	0	155713536	64	5472
2026-01-10 00:53:20.38	27.77	16.83	-46.8	-50.2	22.4	6.05e-01	0	43	0	160956416	64	5529
2026-01-10 00:53:23.68	28.05	17.23	-46.9	-50.2	22.4	6.05e-01	0	44	0	167247872	64	5566
2026-01-10 00:53:26.40	28.29	17.57	-47.0	-50.1	22.6	6.05e-01	0	44	0	172490752	64	5489
2026-01-10 00:53:29.70	28.58	17.98	-46.9	-50.0	22.7	6.05e-01	0	43	0	178782208	64	5425
2026-01-10 00:53:32.69	28.86	18.36	-47.0	-50.0	22.5	6.04e-01	0	44	0	184025088	64	5461
2026-01-10 00:53:35.70	29.15	18.75	-47.2	-50.1	22.6	6.04e-01	0	44	0	189792256	65	5191
2026-01-10 00:53:38.75	29.44	19.15	-46.9	-50.0	22.7	6.01e-01	0	44	0	195559424	65	5109
2026-01-10 00:53:41.70	29.74	19.54	-46.8	-49.9	22.8	6.03e-01	0	44	0	200802304	65	5082
2026-01-10 00:53:44.71	30.05	19.94	-46.9	-50.1	22.6	6.04e-01	0	44	0	206569472	65	5197
2026-01-10 00:53:47.71	30.36	20.36	-47.2	-50.1	22.6	6.03e-01	0	44	0	212336640	65	5215
2026-01-10 00:53:50.72	30.69	20.78	-46.6	-50.0	22.7	6.03e-01	0	44	0	218103808	65	5155
2026-01-10 00:53:53.64	31.01	21.19	-46.3	-50.2	22.5	6.03e-01	0	44	0	223346688	64	5556
2026-01-10 00:53:56.79	31.37	21.64	-46.8	-50.2	22.5	6.04e-01	0	44	0	229113856	64	5587
2026-01-10 00:53:59.66	31.71	22.07	-47.1	-50.2	22.6	6.06e-01	0	44	0	234881024	64	5535
2026-01-10 00:54:02.81	32.09	22.54	-47.3	-50.4	22.3	6.04e-01	0	44	0	240648192	65	5391
2026-01-10 00:54:05.66	32.45	22.97	-47.3	-50.4	22.3	6.02e-01	0	44	0	245891072	65	5388
2026-01-10 00:54:09.25	32.91	23.52	-47.5	-50.5	22.3	6.04e-01	0	43	0	252706816	65	5447
2026-01-10 00:54:12.01	33.28	23.96	-47.3	-50.6	22.2	6.04e-01	0	44	0	257949696	65	5468
2026-01-10 00:54:15.85	33.81	24.57	-47.1	-50.3	22.5	6.03e-01	0	44	0	265289728	65	5320
2026-01-10 00:54:18.58	34.20	25.02	-47.3	-50.4	22.4	6.04e-01	0	44	0	270008320	65	5362
2026-01-10 00:54:22.22	34.73	25.62	-46.8	-50.2	22.6	6.03e-01	0	44	0	276824064	65	5225
2026-01-10 00:54:24.94	35.15	26.08	-46.7	-50.3	22.5	6.04e-01	0	44	0	282066944	65	5321
2026-01-10 00:54:28.23	35.67	26.65	-47.1	-50.2	22.6	6.06e-01	0	44	0	288358400	65	5270
2026-01-10 00:54:31.08	36.13	27.15	-47.2	-50.5	22.4	6.04e-01	0	44	0	293601280	65	5407
2026-01-10 00:54:34.55	36.72	27.76	-47.0	-49.9	22.8	6.05e-01	0	44	0	300417024	65	5094
2026-01-10 00:54:37.28	37.19	28.26	-46.7	-50.1	22.7	6.06e-01	0	44	0	305135616	65	5198
2026-01-10 00:54:40.57	37.79	28.87	-46.6	-49.9	22.9	6.06e-01	0	44	0	311427072	64	5368
2026-01-10 00:54:43.30	38.30	29.38	-47.0	-50.0	22.9	6.03e-01	0	44	0	316669952	64	5441
2026-01-10 00:54:46.68	38.96	30.02	-47.2	-50.1	22.8	6.04e-01	0	44	0	322961408	65	5178
2026-01-10 00:54:49.70	39.57	30.61	-47.1	-49.9	22.9	6.05e-01	0	44	0	328728576	65	5075
2026-01-10 00:54:52.99	40.26	31.26	-47.2	-50.1	22.7	6.04e-01	0	44	0	334495744	65	5202
2026-01-10 00:54:55.71	40.85	31.81	-47.3	-50.1	22.7	6.04e-01	0	44	0	339738624	65	5205
2026-01-10 00:54:59.15	41.64	32.51	-47.4	-50.2	22.6	6.03e-01	0	44	0	346554368	65	5276
2026-01-10 00:55:02.22	42.36	33.14	-47.4	-50.4	22.5	6.02e-01	0	44	0	352321536	65	5352
2026-01-10 00:55:05.11	43.07	33.75	-47.5	-50.5	22.4	6.06e-01	0	44	0	357564416	65	5451
2026-01-10 00:55:08.31	43.89	34.43	-47.8	-50.9	22.1	6.05e-01	0	44	0	363331584	66	5359
2026-01-10 00:55:11.18	44.65	35.05	-47.9	-51.0	22.0	6.06e-01	0	44	0	369098752	66	5431
2026-01-10 00:55:14.33	45.53	35.74	-48.1	-51.1	21.8	6.06e-01	0	44	0	374865920	66	5521
2026-01-10 00:55:17.20	46.36	36.37	-47.8	-51.2	21.8	6.06e-01	0	44	0	380108800	66	5575
2026-01-10 00:55:20.37	47.31	37.08	-48.2	-51.4	21.6	6.04e-01	0	44	0	385875968	67	5366
2026-01-10 00:55:23.24	48.21	37.73	-48.2	-51.3	21.8	6.04e-01	0	44	0	391643136	67	5282
2026-01-10 00:55:26.74	49.36	38.53	-48.1	-51.2	21.8	6.03e-01	0	44	0	397934592	67	5256
2026-01-10 00:55:29.46	50.30	39.15	-48.2	-51.3	21.7	6.04e-01	0	44	0	403177472	67	5329
2026-01-10 00:55:32.76	51.48	39.92	-48.2	-51.3	21.7	6.05e-01	0	44	0	409468928	67	5302
2026-01-10 00:55:35.48	52.50	40.55	-48.0	-51.1	21.9	6.05e-01	0	44	0	414187520	67	5186
2026-01-10 00:55:38.78	53.79	41.32	-47.5	-50.3	22.7	6.03e-01	0	44	0	420478976	66	5012
2026-01-10 00:55:41.51	54.91	41.95	-47.4	-50.1	22.8	6.05e-01	0	44	0	425721856	66	4925
2026-01-10 00:55:44.80	56.31	42.72	-46.9	-49.6	23.3	6.02e-01	0	44	0	432013312	65	4888
2026-01-10 00:55:47.53	57.53	43.35	-46.8	-49.5	23.4	6.02e-01	0	44	0	437256192	65	4851
2026-01-10 00:55:50.82	59.06	44.11	-46.7	-49.3	23.7	6.04e-01	0	44	0	443023360	65	4715
2026-01-10 00:55:53.87	60.55	44.81	-46.7	-49.3	23.6	6.05e-01	0	44	0	448790528	65	4744
2026-01-10 00:55:57.16	62.23	45.55	-46.7	-49.3	23.7	6.04e-01	0	44	0	455081984	65	4716
2026-01-10 00:56:00.20	63.86	46.23	-46.8	-49.4	23.5	6.05e-01	0	44	0	460849152	65	4795
2026-01-10 00:56:03.45	65.67	46.93	-46.7	-49.4	23.6	6.05e-01	0	44	0	466616320	65	4764
2026-01-10 00:56:06.26	67.31	47.52	-46.8	-49.4	23.6	6.05e-01	0	44	0	472383488	65	4770
2026-01-10 00:56:09.41	69.22	48.17	-46.9	-49.6	23.4	6.03e-01	0	44	0	478150656	65	4876
2026-01-10 00:56:12.27	71.02	48.73	-46.9	-49.6	23.4	6.05e-01	0	44	0	483393536	65	4891
2026-01-10 00:56:15.43	73.09	49.33	-46.9	-49.7	23.3	6.04e-01	0	44	0	489160704	65	4927
2026-01-10 00:56:18.34	75.07	49.85	-46.9	-49.6	23.3	6.03e-01	0	44	0	494927872	65	4914
2026-01-10 00:56:21.64	77.39	50.40	-47.1	-49.8	23.1	6.03e-01	0	44	0	500695040	65	5038
2026-01-10 00:56:24.36	79.37	50.82	-46.9	-49.6	23.3	6.03e-01	0	44	0	505937920	65	4906
2026-01-10 00:56:27.57	81.77	51.28	-47.0	-49.8	23.1	6.03e-01	0	44	0	512229376	65	5024
2026-01-10 00:56:30.98	84.40	51.71	-47.0	-49.9	23.0	6.05e-01	0	44	0	518520832	65	5096
2026-01-10 00:56:33.71	86.56	52.01	-47.0	-49.8	23.1	6.03e-01	0	44	0	523763712	65	5039
2026-01-10 00:56:37.00	89.22	52.33	-47.2	-50.1	22.9	6.04e-01	0	44	0	530055168	65	5196
2026-01-10 00:56:39.84	91.56	52.55	-47.5	-50.4	22.7	6.03e-01	0	44	0	535298048	65	5349
2026-01-10 00:56:43.28	94.43	52.75	-47.4	-50.4	22.5	6.04e-01	0	44	0	541589504	65	5378
2026-01-10 00:56:46.00	96.72	52.86	-47.5	-50.3	22.8	6.04e-01	0	44	0	546832384	65	5285
2026-01-10 00:56:49.29	99.51	52.92	-47.4	-50.2	22.8	6.04e-01	0	44	0	552599552	65	5246
2026-01-10 00:56:52.02	101.84	52.93	-47.5	-50.2	22.8	6.03e-01	0	44	0	557842432	65	5270
2026-01-10 00:56:55.32	104.64	52.87	-47.7	-50.6	22.5	6.04e-01	0	44	0	564133888	66	5198
2026-01-10 00:56:58.04	106.94	52.78	-47.7	-50.7	22.4	6.04e-01	0	44	0	569376768	66	5250
2026-01-10 00:57:01.33	109.70	52.60	-48.0	-50.9	22.2	6.04e-01	0	44	0	575143936	66	5376
2026-01-10 00:57:04.06	111.95	52.40	-47.8	-50.6	22.4	6.06e-01	0	44	0	580386816	66	5196
2026-01-10 00:57:07.62	114.84	52.08	-47.7	-50.6	22.5	6.03e-01	0	44	0	587202560	66	5189
2026-01-10 00:57:10.35	117.02	51.78	-47.6	-50.5	22.6	6.00e-01	0	44	0	592445440	66	5107
2026-01-10 00:57:13.65	119.58	51.37	-47.9	-50.7	22.3	6.05e-01	0	44	0	598212608	66	5266
2026-01-10 00:57:16.72	121.90	50.95	-47.7	-50.6	22.4	6.04e-01	0	44	0	604504064	66	5198
2026-01-10 00:57:19.83	124.18	50.47	-47.5	-50.6	22.5	6.04e-01	0	44	0	610271232	66	5174
2026-01-10 00:57:22.86	126.33	49.97	-48.0	-51.0	22.1	6.06e-01	0	44	0	616038400	66	5424
2026-01-10 00:57:25.87	128.40	49.44	-47.9	-50.9	22.2	6.02e-01	0	44	0	621281280	66	5354
2026-01-10 00:57:28.88	130.39	48.88	-47.8	-50.7	22.3	6.02e-01	0	44	0	627048448	66	5259
2026-01-10 00:57:31.91	132.32	48.28	-47.7	-50.6	22.4	6.04e-01	0	44	0	632815616	66	5213
2026-01-10 00:57:35.00	134.22	47.65	-47.7	-50.5	22.5	6.04e-01	0	44	0	638582784	66	5151
2026-01-10 00:57:37.86	135.90	47.05	-47.7	-50.6	22.4	6.04e-01	0	44	0	643825664	66	5216
2026-01-10 00:57:41.02	137.69	46.36	-47.9	-50.8	22.2	6.04e-01	0	44	0	649592832	66	5336
2026-01-10 00:57:43.88	139.24	45.73	-47.9	-51.0	22.1	6.03e-01	0	44	0	655360000	66	5405
2026-01-10 00:57:47.04	140.88	45.02	-48.0	-51.0	22.1	6.04e-01	0	44	0	661127168	66	5462
2026-01-10 00:57:49.90	142.30	44.36	-47.4	-50.3	22.8	6.03e-01	0	44	0	666370048	66	5016
2026-01-10 00:57:53.05	143.80	43.64	-47.5	-50.4	22.7	6.03e-01	0	44	0	672137216	66	5055
2026-01-10 00:57:55.91	145.10	42.97	-47.7	-50.6	22.5	6.03e-01	0	44	0	677904384	66	5183
2026-01-10 00:57:59.13	146.50	42.22	-47.9	-50.8	22.3	6.06e-01	0	44	0	683671552	66	5292
2026-01-10 00:58:02.44	147.88	41.44	-47.8	-50.7	22.4	6.02e-01	0	44	0	689963008	66	5230
2026-01-10 00:58:05.18	148.97	40.80	-48.0	-51.1	22.0	6.03e-01	0	44	0	695205888	66	5495
2026-01-10 00:58:08.54	150.25	40.01	-47.7	-50.6	22.5	6.03e-01	0	44	0	701497344	67	4881
2026-01-10 00:58:11.67	151.38	39.29	-48.2	-51.3	21.8	6.02e-01	0	44	0	707264512	67	5302
2026-01-10 00:58:14.98	152.53	38.52	-48.0	-50.9	22.1	6.05e-01	0	44	0	713555968	67	5099
2026-01-10 00:58:17.70	153.43	37.90	-47.9	-50.8	22.2	6.02e-01	0	44	0	718798848	67	5034
2026-01-10 00:58:21.17	154.53	37.11	-47.7	-50.7	22.3	6.04e-01	0	44	0	725090304	67	4934
2026-01-10 00:58:24.21	155.46	36.42	-47.8	-50.7	22.3	6.05e-01	0	44	0	730857472	66	5223
2026-01-10 00:58:28.01	156.56	35.58	-47.4	-50.2	22.9	6.05e-01	0	44	0	738197504	66	4943
2026-01-10 00:58:30.75	157.32	34.98	-46.9	-49.8	23.1	6.04e-01	0	44	0	742916096	65	5016
2026-01-10 00:58:34.55	158.32	34.15	-46.6	-49.3	23.6	6.05e-01	0	44	0	750256128	65	4725
2026-01-10 00:58:37.65	159.11	33.49	-46.7	-49.3	23.6	6.04e-01	0	44	0	756023296	65	4747
2026-01-10 00:58:41.04	159.93	32.78	-46.6	-49.3	23.6	6.05e-01	0	44	0	762314752	65	4736
2026-01-10 00:58:43.76	160.56	32.22	-46.2	-48.9	23.9	6.06e-01	0	44	0	767557632	64	4796
2026-01-10 00:58:47.06	161.31	31.54	-46.5	-49.1	23.8	6.04e-01	0	44	0	773849088	64	4889
2026-01-10 00:58:49.78	161.89	31.00	-46.6	-49.3	23.6	6.01e-01	0	44	0	778567680	64	5000
2026-01-10 00:58:53.02	162.57	30.36	-46.5	-49.0	23.9	6.04e-01	0	44	0	784859136	64	4869
2026-01-10 00:58:55.89	163.14	29.80	-46.5	-49.1	23.8	6.05e-01	0	44	0	790102016	64	4892
2026-01-10 00:58:59.04	163.75	29.20	-46.5	-49.1	23.8	6.03e-01	0	44	0	795869184	64	4913
2026-01-10 00:59:01.90	164.29	28.66	-46.6	-49.2	23.7	6.01e-01	0	44	0	801636352	64	4931
2026-01-10 00:59:05.06	164.85	28.08	-46.5	-49.1	23.7	6.08e-01	0	44	0	807403520	64	4906
2026-01-10 00:59:08.22	165.40	27.50	-46.7	-49.4	23.5	6.02e-01	0	44	0	813170688	64	5087
2026-01-10 00:59:11.31	165.92	26.95	-47.0	-49.7	23.2	6.05e-01	0	44	0	818937856	64	5250
2026-01-10 00:59:14.61	166.45	26.37	-47.1	-49.8	23.1	6.05e-01	0	44	0	825229312	64	5324
2026-01-10 00:59:17.33	166.88	25.90	-46.9	-49.7	23.1	6.03e-01	0	44	0	830472192	64	5254
2026-01-10 00:59:20.64	167.38	25.34	-46.9	-49.6	23.3	6.05e-01	0	44	0	836763648	64	5209
2026-01-10 00:59:23.74	167.83	24.83	-47.0	-49.9	22.9	6.02e-01	0	44	0	842530816	64	5401
2026-01-10 00:59:26.95	168.29	24.30	-47.0	-50.0	22.9	6.01e-01	0	44	0	848297984	64	5426
2026-01-10 00:59:29.81	168.68	23.84	-47.2	-50.2	22.7	6.04e-01	0	44	0	854065152	65	5221
2026-01-10 00:59:32.96	169.10	23.34	-47.2	-50.1	22.8	6.02e-01	0	44	0	859832320	65	5189
2026-01-10 00:59:35.91	169.48	22.89	-47.1	-50.0	22.8	6.06e-01	0	44	0	865075200	65	5140
2026-01-10 00:59:39.07	169.87	22.40	-47.0	-50.0	22.9	6.03e-01	0	44	0	871366656	65	5114
2026-01-10 00:59:42.02	170.23	21.96	-47.0	-50.0	22.8	6.06e-01	0	44	0	876609536	65	5125
2026-01-10 00:59:45.03	170.58	21.52	-46.8	-49.8	23.0	6.05e-01	0	44	0	882376704	65	5028
2026-01-10 00:59:48.04	170.93	21.08	-47.0	-49.9	22.9	6.03e-01	0	44	0	888143872	65	5091
2026-01-10 00:59:51.05	171.26	20.65	-47.1	-50.1	22.7	6.05e-01	0	44	0	893911040	65	5181
2026-01-10 00:59:54.06	171.58	20.23	-46.9	-50.1	22.7	6.05e-01	0	44	0	899153920	65	5170
2026-01-10 00:59:57.13	171.91	19.81	-46.7	-50.0	22.8	6.06e-01	0	44	0	904921088	65	5151
2026-01-10 01:00:00.75	172.28	19.32	-47.0	-50.3	22.5	6.04e-01	0	44	0	911736832	65	5288
2026-01-10 01:00:03.48	172.55	18.95	-47.0	-50.0	22.8	6.04e-01	0	44	0	916979712	65	5144
2026-01-10 01:00:06.77	172.86	18.52	-46.9	-49.9	22.9	6.03e-01	0	44	0	923271168	65	5087
2026-01-10 01:00:09.49	173.12	18.17	-47.0	-49.9	22.9	6.03e-01	0	44	0	927989760	65	5079
2026-01-10 01:00:12.79	173.42	17.75	-46.8	-49.8	23.0	6.05e-01	0	44	0	934281216	65	5000
2026-01-10 01:00:15.81	173.69	17.37	-46.8	-49.8	23.0	6.02e-01	0	44	0	940048384	65	4996
2026-01-10 01:00:19.28	173.99	16.95	-46.7	-49.7	23.1	6.05e-01	0	44	0	946339840	65	4932
2026-01-10 01:00:22.30	174.25	16.58	-46.7	-49.7	23.0	6.05e-01	0	44	0	952107008	65	4938
2026-01-10 01:00:25.31	174.49	16.22	-46.8	-49.8	22.9	6.04e-01	0	43	0	957874176	65	5004
2026-01-10 01:00:28.40	174.74	15.86	-46.9	-49.9	22.8	6.04e-01	0	44	0	963641344	65	5095
2026-01-10 01:00:31.26	174.97	15.53	-46.8	-49.9	22.8	6.06e-01	0	44	0	968884224	65	5083
2026-01-10 01:00:34.42	175.21	15.17	-46.7	-49.9	22.8	6.05e-01	0	44	0	975175680	65	5069
2026-01-10 01:00:37.30	175.42	14.85	-46.6	-50.0	22.7	6.03e-01	0	44	0	980418560	65	5101
2026-01-10 01:00:40.45	175.66	14.50	-46.6	-50.1	22.6	6.06e-01	0	44	0	986185728	65	5181
2026-01-10 01:00:43.37	175.86	14.18	-46.6	-50.0	22.6	6.04e-01	0	44	0	991952896	65	5143
2026-01-10 01:00:46.67	176.10	13.82	-46.7	-50.1	22.5	6.01e-01	0	44	0	997720064	65	5189
2026-01-10 01:00:49.49	176.29	13.52	-46.7	-50.2	22.5	6.03e-01	0	44	0	1002962944	65	5226
2026-01-10 01:00:52.64	176.50	13.19	-46.7	-50.2	22.4	6.04e-01	0	44	0	1009254400	65	5266
2026-01-10 01:00:55.98	176.72	12.85	-46.8	-50.1	22.4	6.05e-01	0	44	0	1015545856	65	5200
2026-01-10 01:00:58.85	176.90	12.55	-47.1	-50.4	22.2	6.03e-01	0	44	0	1020788736	65	5355
2026-01-10 01:01:02.00	177.10	12.24	-47.2	-50.5	22.0	6.04e-01	0	43	0	1026555904	65	5442
2026-01-10 01:01:04.86	177.27	11.95	-47.1	-50.4	22.1	6.04e-01	0	44	0	1031798784	65	5388
2026-01-10 01:01:08.10	177.47	11.64	-47.1	-50.5	22.1	6.06e-01	0	44	0	1038090240	65	5428
2026-01-10 01:01:10.96	177.64	11.36	-47.1	-50.7	21.9	6.04e-01	0	44	0	1043333120	65	5529
2026-01-10 01:01:14.03	177.81	11.07	-47.0	-50.7	21.8	6.05e-01	0	43	0	1049100288	65	5541
2026-01-10 01:01:17.04	177.98	10.78	-46.9	-50.7	21.7	6.04e-01	0	44	0	1054867456	65	5592
2026-01-10 01:01:20.05	178.15	10.50	-46.7	-50.8	21.6	6.04e-01	0	44	0	1060634624	65	5637
2026-01-10 01:01:23.06	178.31	10.22	-46.6	-50.9	21.6	6.04e-01	0	44	0	1066401792	65	5663
2026-01-10 01:01:26.07	178.47	9.95	-46.5	-50.8	21.6	6.05e-01	0	43	0	1071644672	65	5611
2026-01-10 01:01:29.20	178.64	9.67	-46.4	-50.9	21.4	6.01e-01	0	43	0	1077936128	64	6031
2026-01-10 01:01:32.07	178.79	9.41	-46.4	-51.0	21.4	6.02e-01	0	44	0	1083179008	64	6062
2026-01-10 01:01:35.60	178.96	9.10	-46.5	-51.2	21.2	6.04e-01	0	44	0	1089470464	64	6226
2026-01-10 01:01:38.33	179.10	8.87	-52.2	-72.7	3.9	7.43e-01	0	44	104	1092091904	75	39536
2026-01-10 01:01:41.63	179.26	8.58	-53.0	-74.3	3.8	7.44e-01	0	44	104	1092091904	76	44677
2026-01-10 01:01:44.39	179.39	8.35	-53.8	-74.4	3.8	7.44e-01	0	44	104	1092091904	78	40390
2026-01-10 01:01:47.81	179.55	8.06	-54.1	-74.5	3.8	7.47e-01	0	43	104	1092091904	78	40585
2026-01-10 01:01:50.54	179.67	7.83	-54.3	-74.5	3.8	7.43e-01	0	43	104	1092091904	79	38455
2026-01-10 01:01:53.84	179.82	7.56	-54.4	-74.5	3.8	7.47e-01	0	44	104	1092091904	79	38617
2026-01-10 01:01:56.57	179.94	7.34	-54.2	-74.5	3.8	7.48e-01	0	44	104	1092091904	79	38678
2026-01-10 01:01:59.87	180.09	7.07	-54.1	-74.6	3.8	7.44e-01	0	44	104	1092091904	79	38748
2026-01-10 01:02:02.59	180.21	6.86	-54.0	-74.6	3.8	7.42e-01	0	43	104	1092091904	79	38782
2026-01-10 01:02:05.89	180.34	6.60	-53.8	-74.5	3.8	7.47e-01	0	44	104	1092091904	78	40763
2026-01-10 01:02:08.62	180.46	6.38	-53.8	-74.5	3.8	7.45e-01	0	44	104	1092091904	78	40765
2026-01-10 01:02:11.92	180.59	6.13	-53.8	-74.5	3.8	7.46e-01	0	43	104	1092091904	78	40712
2026-01-10 01:02:14.65	180.70	5.92	-53.8	-74.5	3.8	7.45e-01	0	43	104	1092091904	78	40678
2026-01-10 01:02:17.95	180.83	5.67	-53.8	-74.5	3.8	7.46e-01	0	43	104	1092091904	78	40774
2026-01-10 01:02:20.67	180.94	5.46	-53.8	-74.5	3.8	7.41e-01	0	44	104	1092091904	78	40635
2026-01-10 01:02:23.97	181.07	5.22	-53.8	-74.5	3.8	7.48e-01	0	43	104	1092091904	78	40746
2026-01-10 01:02:26.69	181.17	5.02	-53.8	-74.4	3.8	7.45e-01	0	43	104	1092091904	78	40508

#Closed at: 2026-01-10 01:02:28
#Recorded file [1092 MB]: D:/Data/31040_260110_035113.dat