passes_logs/2026/01/10/T1/T1__20260110_035446_FENGYUN_3E_rec.log

#Pass ID: 20260110_035446_FENGYUN 3E
#Satellite: FENGYUN 3E
#Configuration: FENGYUN 3E
#almurnet v.1.7.20251203
#Start time: 2026-01-10 03:54:49

#Version: 2.0.20230620
#Station: T1
#Location: 37.570604 lon 55.790049 lat
#TLE: 1 49008U 21062A   26009.29780149 -.00000002  00000+0  19895-4 0  9997
#TLE: 2 49008  98.7484  14.4929 0001744 148.2300 211.8982 14.19883977234036

#Time	Az	El	Level	Level2	SNR	BER	BlckErr	Temp	State	Recorded	gain1	gain2
2026-01-10 03:54:49.02	16.71	5.17	-51.3	-63.0	3.8	8.45e-01	0	41	0	0	73	13442
2026-01-10 03:54:53.03	16.73	5.46	-51.3	-61.9	3.8	8.46e-01	0	41	104	0	72	12645
2026-01-10 03:54:57.04	16.76	5.75	-51.1	-61.0	3.8	8.45e-01	0	42	104	0	72	11319
2026-01-10 03:55:01.06	16.79	6.04	-51.2	-61.4	3.8	8.46e-01	0	42	104	0	72	11904
2026-01-10 03:55:05.08	16.82	6.34	-51.3	-62.3	3.8	8.47e-01	0	42	104	0	72	13236
2026-01-10 03:55:09.10	16.85	6.64	-51.3	-62.4	3.8	8.47e-01	0	42	104	0	72	13394
2026-01-10 03:55:13.12	16.88	6.95	-51.4	-62.8	3.8	8.45e-01	0	42	104	0	72	14034
2026-01-10 03:55:17.14	16.91	7.26	-51.0	-60.0	4.1	8.42e-01	0	42	0	0	72	10076
2026-01-10 03:55:21.15	16.94	7.57	-50.1	-55.7	6.5	2.85e-01	0	42	0	7340032	71	6529
2026-01-10 03:55:25.17	16.97	7.89	-49.2	-53.4	8.7	3.87e-02	0	43	0	36700160	69	5645
2026-01-10 03:55:29.19	17.00	8.21	-48.9	-52.7	9.5	1.69e-02	0	43	0	65011712	68	5470
2026-01-10 03:55:33.21	17.03	8.54	-48.9	-52.7	9.5	1.47e-02	0	43	0	94371840	68	5465
2026-01-10 03:55:37.22	17.06	8.87	-49.5	-54.1	8.0	5.76e-02	0	43	0	123731968	68	6432
2026-01-10 03:55:41.29	17.09	9.20	-51.7	-62.9	3.8	8.46e-01	0	43	104	146800640	72	14136
2026-01-10 03:55:45.76	17.12	9.58	-45.3	-47.0	15.3	0.00e+00	0	43	0	175112192	61	4282
2026-01-10 03:55:49.83	17.15	9.93	-44.4	-45.8	16.4	0.00e+00	0	43	0	204472320	58	4441
2026-01-10 03:55:53.84	17.19	10.28	-44.1	-45.5	16.7	0.00e+00	0	43	0	232783872	58	4282
2026-01-10 03:55:58.13	17.22	10.66	-43.6	-44.9	17.3	0.00e+00	0	43	0	264241152	57	4233
2026-01-10 03:56:02.13	17.25	11.01	-43.1	-44.4	17.8	0.00e+00	0	43	0	293601280	57	3990
2026-01-10 03:56:06.14	17.29	11.38	-43.2	-44.4	17.8	0.00e+00	0	43	0	321912832	56	4237
2026-01-10 03:56:10.22	17.32	11.75	-43.2	-44.4	17.9	0.00e+00	0	43	0	351272960	56	4220
2026-01-10 03:56:14.23	17.35	12.13	-42.9	-44.0	18.3	0.00e+00	0	43	0	380633088	56	4042
2026-01-10 03:56:18.24	17.39	12.51	-42.9	-44.1	18.3	0.00e+00	0	43	0	408944640	56	4053
2026-01-10 03:56:22.25	17.42	12.90	-42.8	-43.9	18.4	0.00e+00	0	43	0	438304768	56	3978
2026-01-10 03:56:26.27	17.46	13.29	-42.6	-43.7	18.5	0.00e+00	0	43	0	466616320	55	4118
2026-01-10 03:56:30.28	17.49	13.69	-42.5	-43.6	18.6	0.00e+00	0	43	0	495976448	55	4071
2026-01-10 03:56:34.56	17.53	14.13	-42.6	-43.6	18.6	0.00e+00	0	43	0	527433728	55	4094
2026-01-10 03:56:38.57	17.57	14.54	-42.3	-43.4	18.9	0.00e+00	0	43	0	555745280	55	3960
2026-01-10 03:56:42.59	17.61	14.96	-42.3	-43.4	18.9	0.00e+00	0	43	0	585105408	54	4197
2026-01-10 03:56:46.65	17.65	15.40	-42.1	-43.1	19.2	0.00e+00	0	44	0	614465536	54	4064
2026-01-10 03:56:50.66	17.68	15.84	-41.9	-42.9	19.3	0.00e+00	0	43	0	642777088	54	3993
2026-01-10 03:56:54.68	17.72	16.28	-42.0	-43.0	19.3	0.00e+00	0	44	0	672137216	54	4014
2026-01-10 03:56:58.69	17.76	16.73	-41.9	-42.9	19.4	0.00e+00	0	44	0	701497344	54	3978
2026-01-10 03:57:02.73	17.80	17.20	-41.8	-42.8	19.4	0.00e+00	0	44	0	730857472	54	3958
2026-01-10 03:57:06.74	17.85	17.67	-41.5	-42.5	19.8	0.00e+00	0	44	0	759169024	53	4022
2026-01-10 03:57:10.75	17.89	18.15	-41.5	-42.6	19.7	0.00e+00	0	43	0	788529152	53	4053
2026-01-10 03:57:14.76	17.93	18.64	-41.3	-42.3	19.9	0.00e+00	0	43	0	816840704	53	3950
2026-01-10 03:57:18.75	17.97	19.14	-41.1	-42.1	20.2	0.00e+00	0	44	0	846200832	52	4074
2026-01-10 03:57:22.76	18.02	19.65	-40.9	-41.9	20.4	0.00e+00	0	44	0	874512384	52	3977
2026-01-10 03:57:26.77	18.07	20.17	-40.8	-41.7	20.5	0.00e+00	0	43	0	903872512	52	3909
2026-01-10 03:57:30.85	18.11	20.71	-40.7	-41.6	20.6	0.00e+00	0	44	0	933232640	52	3844
2026-01-10 03:57:35.22	18.17	21.30	-40.8	-41.8	20.5	0.00e+00	0	44	0	964689920	52	3921
2026-01-10 03:57:39.33	18.22	21.87	-41.0	-42.0	20.3	0.00e+00	0	44	0	995098624	52	4019
2026-01-10 03:57:43.50	18.27	22.47	-41.0	-42.0	20.3	0.00e+00	0	44	0	1024458752	52	4008
2026-01-10 03:57:47.78	18.33	23.09	-41.1	-42.0	20.3	0.00e+00	0	44	0	1055916032	52	4049
2026-01-10 03:57:51.78	18.38	23.68	-40.9	-41.8	20.5	0.00e+00	0	44	0	1084227584	52	3939
2026-01-10 03:57:55.79	18.43	24.30	-40.6	-41.5	20.8	0.00e+00	0	44	0	1113587712	51	4033
2026-01-10 03:57:59.80	18.49	24.92	-40.5	-41.4	20.9	0.00e+00	0	44	0	1141899264	51	4002
2026-01-10 03:58:03.82	18.55	25.57	-40.5	-41.4	20.9	0.00e+00	0	44	0	1171259392	51	3996
2026-01-10 03:58:07.83	18.61	26.22	-40.3	-41.2	21.2	0.00e+00	0	44	0	1200619520	51	3887
2026-01-10 03:58:11.84	18.67	26.90	-40.3	-41.2	21.1	0.00e+00	0	44	0	1228931072	51	3907
2026-01-10 03:58:15.85	18.73	27.59	-40.2	-41.1	21.3	0.00e+00	0	44	0	1258291200	51	3848
2026-01-10 03:58:19.87	18.80	28.30	-40.2	-41.1	21.3	0.00e+00	0	44	0	1286602752	51	3851
2026-01-10 03:58:24.08	18.87	29.07	-40.2	-41.1	21.3	0.00e+00	0	44	0	1318060032	51	3853
2026-01-10 03:58:28.16	18.94	29.83	-40.3	-41.2	21.2	0.00e+00	0	44	0	1347420160	50	4100
2026-01-10 03:58:32.09	19.02	30.58	-40.3	-41.2	21.3	0.00e+00	0	44	0	1375731712	50	4112
2026-01-10 03:58:36.18	19.10	31.39	-40.1	-41.0	21.4	0.00e+00	0	44	0	1405091840	50	4011
2026-01-10 03:58:40.26	19.18	32.21	-40.1	-41.0	21.4	0.00e+00	0	44	0	1434451968	50	4035
2026-01-10 03:58:44.32	19.26	33.06	-40.4	-41.3	21.2	0.00e+00	0	44	0	1463812096	50	4152
2026-01-10 03:58:48.33	19.35	33.92	-40.4	-41.3	21.2	0.00e+00	0	44	0	1493172224	50	4166
2026-01-10 03:58:52.72	19.45	34.89	-40.5	-41.4	21.1	0.00e+00	0	44	0	1524629504	50	4223
2026-01-10 03:58:57.12	19.55	35.89	-40.3	-41.2	21.2	0.00e+00	0	44	0	1556086784	50	4143
2026-01-10 03:59:01.14	19.65	36.84	-40.0	-41.0	21.5	0.00e+00	0	44	0	1585446912	50	4008
2026-01-10 03:59:05.10	19.76	37.79	-40.3	-41.2	21.3	0.00e+00	0	44	0	1613758464	50	4119
2026-01-10 03:59:09.44	19.88	38.88	-40.4	-41.3	21.3	0.00e+00	0	44	0	1645215744	50	4152
2026-01-10 03:59:13.42	20.00	39.90	-40.4	-41.3	21.3	0.00e+00	0	44	0	1673527296	50	4148
2026-01-10 03:59:17.43	20.12	40.96	-40.2	-41.1	21.4	0.00e+00	0	44	0	1702887424	50	4063
2026-01-10 03:59:21.45	20.25	42.06	-40.4	-41.3	21.2	0.00e+00	0	44	0	1732247552	50	4174
2026-01-10 03:59:25.49	20.40	43.20	-40.8	-41.7	20.9	0.00e+00	0	44	0	1760559104	50	4369
2026-01-10 03:59:29.51	20.55	44.37	-40.6	-41.5	21.1	0.00e+00	0	44	0	1789919232	51	4043
2026-01-10 03:59:33.52	20.71	45.56	-40.9	-41.8	20.8	0.00e+00	0	44	0	1819279360	51	4183
2026-01-10 03:59:37.53	20.88	46.80	-41.5	-42.5	20.1	0.00e+00	0	44	0	1847590912	52	4243
2026-01-10 03:59:41.54	21.06	48.07	-41.3	-42.2	20.3	0.00e+00	0	44	0	1876951040	52	4134
2026-01-10 03:59:45.56	21.27	49.39	-41.4	-42.3	20.2	0.00e+00	0	44	0	1905262592	52	4185
2026-01-10 03:59:49.57	21.48	50.74	-41.7	-42.7	19.9	0.00e+00	0	44	0	1934622720	53	4104
2026-01-10 03:59:53.59	21.72	52.14	-41.7	-42.7	20.0	0.00e+00	0	44	0	1963982848	53	4102
2026-01-10 03:59:57.55	21.98	53.55	-42.0	-43.0	19.7	0.00e+00	0	44	0	1992294400	54	4008
2026-01-10 04:00:01.66	22.27	55.06	-41.9	-42.8	19.8	0.00e+00	0	44	0	2021654528	54	3958
2026-01-10 04:00:05.68	22.58	56.58	-42.3	-43.3	19.3	0.00e+00	0	44	0	2051014656	54	4165
2026-01-10 04:00:09.69	22.94	58.14	-41.8	-42.8	19.9	0.00e+00	0	44	0	2080374784	54	3915
2026-01-10 04:00:13.70	23.33	59.74	-42.0	-43.0	19.6	0.00e+00	0	44	0	2108686336	53	4261
2026-01-10 04:00:17.82	23.79	61.43	-41.4	-42.3	20.2	0.00e+00	0	44	0	2138046464	53	3938
2026-01-10 04:00:21.83	24.29	63.11	-40.7	-41.6	20.9	0.00e+00	0	44	0	2167406592	52	3837
2026-01-10 04:00:25.84	24.88	64.83	-40.7	-41.6	21.0	0.00e+00	0	44	0	2196766720	51	4069
2026-01-10 04:00:29.86	25.56	66.60	-40.8	-41.8	20.8	0.00e+00	0	44	0	2225078272	51	4150
2026-01-10 04:00:33.87	26.36	68.39	-40.4	-41.3	21.2	0.00e+00	0	44	0	2254438400	51	3932
2026-01-10 04:00:37.88	27.31	70.22	-40.0	-40.8	21.4	0.00e+00	0	44	0	2283798528	50	3930
2026-01-10 04:00:42.22	28.58	72.23	-40.6	-41.5	21.0	0.00e+00	0	44	0	2315255808	51	4042
2026-01-10 04:00:46.50	30.17	74.24	-40.6	-41.5	21.1	0.00e+00	0	44	0	2345664512	50	4256
2026-01-10 04:00:50.51	32.10	76.14	-39.6	-40.5	22.0	0.00e+00	0	44	0	2375024640	50	3788
2026-01-10 04:00:54.52	34.66	78.05	-39.1	-39.9	22.4	0.00e+00	0	44	0	2403336192	49	3772
2026-01-10 04:00:58.54	38.22	79.95	-39.0	-39.8	22.5	0.00e+00	0	44	0	2432696320	48	3948
2026-01-10 04:01:02.55	43.43	81.81	-39.0	-39.8	22.5	0.00e+00	0	44	0	2462056448	48	3956
2026-01-10 04:01:06.56	51.64	83.57	-39.2	-40.1	22.3	0.00e+00	0	44	0	2490368000	48	4061
2026-01-10 04:01:10.61	65.75	85.14	-39.3	-40.2	22.2	0.00e+00	0	44	0	2519728128	48	4111
2026-01-10 04:01:14.61	89.66	86.17	-39.1	-40.0	22.4	0.00e+00	0	44	0	2549088256	48	4016
2026-01-10 04:01:18.62	121.33	86.24	-39.3	-40.1	22.1	0.00e+00	0	44	0	2577399808	48	4098
2026-01-10 04:01:22.63	146.53	85.29	-39.6	-40.5	21.9	0.00e+00	0	44	0	2606759936	48	4250
2026-01-10 04:01:26.65	161.45	83.77	-39.1	-39.9	22.3	0.00e+00	0	44	0	2635071488	48	4002
2026-01-10 04:01:30.66	170.14	82.02	-39.3	-40.1	22.2	0.00e+00	0	44	0	2664431616	48	4093
2026-01-10 04:01:34.76	175.72	80.12	-39.0	-39.8	22.5	0.00e+00	0	44	0	2693791744	48	3955
2026-01-10 04:01:38.78	179.40	78.22	-39.3	-40.2	22.2	0.00e+00	0	44	0	2723151872	48	4106
2026-01-10 04:01:42.87	182.08	76.27	-40.3	-41.2	21.3	0.00e+00	0	44	0	2752512000	50	4120
2026-01-10 04:01:47.01	184.10	74.31	-40.3	-41.2	21.4	0.00e+00	0	44	0	2782920704	50	4121
2026-01-10 04:01:51.03	185.62	72.41	-40.7	-41.5	20.9	0.00e+00	0	44	0	2811232256	50	4291
2026-01-10 04:01:55.04	186.83	70.55	-40.9	-41.8	20.8	0.00e+00	0	44	0	2840592384	51	4156
2026-01-10 04:01:59.06	187.82	68.70	-40.6	-41.6	20.9	0.00e+00	0	44	0	2869952512	51	4064
2026-01-10 04:02:03.29	188.69	66.80	-40.0	-40.9	21.6	0.00e+00	0	44	0	2900361216	50	3990
2026-01-10 04:02:07.31	189.38	65.03	-40.6	-41.5	21.0	0.00e+00	0	44	0	2928672768	50	4258
2026-01-10 04:02:11.32	189.98	63.29	-40.8	-41.7	20.8	0.00e+00	0	44	0	2958032896	51	4122
2026-01-10 04:02:15.74	190.54	61.43	-41.2	-42.2	20.4	0.00e+00	0	44	0	2989490176	52	4105
2026-01-10 04:02:19.75	190.99	59.78	-42.4	-43.5	19.1	0.00e+00	0	44	0	3018850304	54	4253
2026-01-10 04:02:23.76	191.38	58.17	-42.4	-43.5	19.2	0.00e+00	0	44	0	3048210432	54	4261
2026-01-10 04:02:27.64	191.72	56.66	-41.6	-42.6	19.9	0.00e+00	0	44	0	3075473408	54	3833
2026-01-10 04:02:31.65	192.04	55.13	-42.2	-43.2	19.4	0.00e+00	0	44	0	3104833536	54	4110
2026-01-10 04:02:35.67	192.33	53.65	-41.6	-42.6	20.0	0.00e+00	0	44	0	3133145088	54	3852
2026-01-10 04:02:39.76	192.59	52.17	-41.8	-42.8	19.8	0.00e+00	0	44	0	3163553792	53	4161
2026-01-10 04:02:43.99	192.84	50.70	-41.7	-42.6	19.9	0.00e+00	0	44	0	3193962496	53	4093
2026-01-10 04:02:48.00	193.06	49.34	-41.7	-42.7	19.9	0.00e+00	0	44	0	3223322624	53	4107
2026-01-10 04:02:52.32	193.28	47.92	-41.1	-42.0	20.5	0.00e+00	0	44	0	3253731328	52	4035
2026-01-10 04:02:56.33	193.46	46.65	-40.9	-41.9	20.4	0.00e+00	0	44	0	3283091456	52	3962
2026-01-10 04:03:00.49	193.64	45.36	-41.2	-42.2	20.2	0.00e+00	0	44	0	3313500160	52	4105
2026-01-10 04:03:04.77	193.81	44.08	-40.7	-41.6	20.9	0.00e+00	0	44	0	3343908864	51	4070
2026-01-10 04:03:08.78	193.95	42.92	-40.4	-41.3	21.1	0.00e+00	0	44	0	3373268992	51	3958
2026-01-10 04:03:12.93	194.10	41.75	-40.8	-41.7	20.8	0.00e+00	0	44	0	3402629120	51	4138
2026-01-10 04:03:16.94	194.23	40.66	-40.8	-41.7	20.9	0.00e+00	0	44	0	3431989248	51	4118
2026-01-10 04:03:20.95	194.35	39.60	-40.4	-41.3	21.0	0.00e+00	0	44	0	3460300800	51	3949
2026-01-10 04:03:24.96	194.46	38.57	-40.1	-41.0	21.4	0.00e+00	0	44	0	3489660928	50	4016
2026-01-10 04:03:29.18	194.58	37.52	-40.3	-41.2	21.3	0.00e+00	0	44	0	3520069632	50	4102
2026-01-10 04:03:33.26	194.68	36.53	-40.5	-41.4	21.1	0.00e+00	0	44	0	3549429760	50	4199
2026-01-10 04:03:37.27	194.78	35.59	-40.5	-41.4	21.0	0.00e+00	0	44	0	3578789888	50	4238
2026-01-10 04:03:41.55	194.88	34.61	-40.4	-41.3	21.2	0.00e+00	0	44	0	3609198592	50	4171
2026-01-10 04:03:45.56	194.97	33.73	-40.3	-41.2	21.2	0.00e+00	0	44	0	3638558720	50	4144
2026-01-10 04:03:49.57	195.05	32.87	-40.2	-41.1	21.3	0.00e+00	0	44	0	3667918848	50	4088
2026-01-10 04:03:53.59	195.14	32.03	-40.2	-41.1	21.3	0.00e+00	0	44	0	3696230400	50	4071
2026-01-10 04:03:57.60	195.21	31.21	-40.2	-41.1	21.3	0.00e+00	0	44	0	3725590528	50	4073
2026-01-10 04:04:01.61	195.29	30.42	-40.3	-41.2	21.3	0.00e+00	0	44	0	3753902080	50	4106
2026-01-10 04:04:05.62	195.36	29.65	-40.2	-41.1	21.4	0.00e+00	0	44	0	3783262208	50	4055
2026-01-10 04:04:09.99	195.43	28.83	-40.4	-41.3	21.1	0.00e+00	0	44	0	3814719488	50	4191
2026-01-10 04:04:14.02	195.50	28.10	-40.6	-41.5	21.0	0.00e+00	0	44	0	3844079616	50	4265
2026-01-10 04:04:18.05	195.56	27.38	-40.6	-41.5	20.9	0.00e+00	0	44	0	3872391168	50	4285
2026-01-10 04:04:22.05	195.63	26.69	-40.6	-41.5	20.7	0.00e+00	0	44	0	3901751296	50	4286
2026-01-10 04:04:26.07	195.69	26.01	-40.7	-41.7	20.8	0.00e+00	0	44	0	3931111424	51	4110
2026-01-10 04:04:30.03	195.74	25.36	-40.8	-41.7	20.7	0.00e+00	0	44	0	3959422976	51	4134
2026-01-10 04:04:34.10	195.80	24.71	-41.0	-41.9	20.5	0.00e+00	0	44	0	3988783104	51	4233
2026-01-10 04:04:38.12	195.85	24.08	-41.0	-41.9	20.5	0.00e+00	0	44	0	4017094656	51	4237
2026-01-10 04:04:42.13	195.91	23.47	-41.1	-42.0	20.4	0.00e+00	0	44	0	4046454784	51	4289
2026-01-10 04:04:46.14	195.96	22.87	-41.1	-42.1	20.3	0.00e+00	0	44	0	4075814912	52	4054
2026-01-10 04:04:50.55	196.01	22.23	-41.0	-42.0	20.3	0.00e+00	0	44	0	4107272192	52	4034
2026-01-10 04:04:54.58	196.06	21.65	-41.0	-42.0	20.4	0.00e+00	0	44	0	4136632320	52	4009
2026-01-10 04:04:58.59	196.11	21.10	-41.1	-42.0	20.3	0.00e+00	0	44	0	4165992448	52	4048
2026-01-10 04:05:02.63	196.15	20.55	-41.2	-42.2	20.1	0.00e+00	0	44	0	4194304000	52	4127
2026-01-10 04:05:06.65	196.20	20.01	-41.4	-42.3	20.0	0.00e+00	0	44	0	4223664128	52	4189
2026-01-10 04:05:10.66	196.24	19.49	-41.4	-42.4	19.9	0.00e+00	0	44	0	4253024256	52	4211
2026-01-10 04:05:15.01	196.28	18.93	-41.5	-42.4	19.8	0.00e+00	0	44	0	4283432960	52	4241
2026-01-10 04:05:19.27	196.33	18.40	-41.6	-42.6	19.7	0.00e+00	0	44	0	4314890240	52	4321
2026-01-10 04:05:23.28	196.37	17.91	-41.5	-42.6	19.7	0.00e+00	0	44	0	4344250368	52	4304
2026-01-10 04:05:27.32	196.41	17.43	-41.7	-42.8	19.6	0.00e+00	0	44	0	4372561920	52	4396
2026-01-10 04:05:31.33	196.45	16.96	-41.7	-42.7	19.6	0.00e+00	0	44	0	4401922048	52	4366
2026-01-10 04:05:35.35	196.48	16.49	-41.7	-42.8	19.5	0.00e+00	0	44	0	4431282176	52	4395
2026-01-10 04:05:39.69	196.52	16.00	-41.9	-43.0	19.3	0.00e+00	0	44	0	4462739456	53	4243
2026-01-10 04:05:43.67	196.56	15.56	-42.0	-43.1	19.2	0.00e+00	0	44	0	4491051008	53	4303
2026-01-10 04:05:47.68	196.59	15.12	-42.1	-43.2	19.1	0.00e+00	0	44	0	4520411136	53	4362
2026-01-10 04:05:51.79	196.63	14.68	-42.3	-43.4	18.8	0.00e+00	0	44	0	4549771264	54	4230
2026-01-10 04:05:55.80	196.66	14.26	-42.5	-43.7	18.6	0.00e+00	0	44	0	4578082816	54	4359
2026-01-10 04:05:59.81	196.70	13.85	-42.7	-43.9	18.4	0.00e+00	0	44	0	4607442944	55	4212
2026-01-10 04:06:03.86	196.73	13.44	-42.9	-44.1	18.2	0.00e+00	0	44	0	4636803072	55	4301
2026-01-10 04:06:07.94	196.76	13.03	-43.0	-44.2	18.0	0.00e+00	0	44	0	4666163200	55	4376
2026-01-10 04:06:11.95	196.79	12.64	-43.2	-44.5	17.8	0.00e+00	0	44	0	4695523328	55	4509
2026-01-10 04:06:15.96	196.82	12.25	-43.5	-44.7	17.6	0.00e+00	0	44	0	4723834880	56	4381
2026-01-10 04:06:20.00	196.85	11.86	-43.6	-44.9	17.5	0.00e+00	0	44	0	4753195008	56	4458
2026-01-10 04:06:24.05	196.88	11.49	-43.8	-45.1	17.3	0.00e+00	0	44	0	4782555136	57	4301
2026-01-10 04:06:28.06	196.91	11.12	-43.8	-45.2	17.1	0.00e+00	0	44	0	4810866688	57	4351
2026-01-10 04:06:32.07	196.94	10.75	-43.9	-45.2	17.0	0.00e+00	0	44	0	4840226816	57	4390
2026-01-10 04:06:36.32	196.97	10.37	-43.8	-45.1	17.1	0.00e+00	0	44	0	4870635520	57	4326
2026-01-10 04:06:40.33	197.00	10.02	-43.9	-45.2	17.0	0.00e+00	0	44	0	4899995648	57	4390
2026-01-10 04:06:44.34	197.03	9.67	-43.9	-45.3	16.9	0.00e+00	0	44	0	4929355776	57	4417
2026-01-10 04:06:48.40	197.06	9.32	-44.1	-45.5	16.7	0.00e+00	0	44	0	4957667328	57	4539
2026-01-10 04:06:52.48	197.08	8.98	-44.0	-45.4	16.8	0.00e+00	0	44	0	4988076032	57	4462
2026-01-10 04:06:56.49	197.11	8.64	-53.1	-63.9	3.8	8.48e-01	0	44	104	4991221760	75	13290
2026-01-10 04:07:00.51	197.14	8.31	-53.4	-64.2	3.8	8.46e-01	0	44	104	4991221760	76	13047
2026-01-10 04:07:04.53	197.16	7.99	-53.5	-64.3	3.8	8.46e-01	0	44	104	4991221760	76	13114
2026-01-10 04:07:08.55	197.19	7.66	-53.4	-64.2	3.8	8.46e-01	0	44	104	4991221760	76	13091
2026-01-10 04:07:12.56	197.21	7.35	-53.4	-64.2	3.8	8.46e-01	0	44	104	4991221760	76	13041
2026-01-10 04:07:16.60	197.24	7.03	-53.2	-64.1	3.8	8.45e-01	0	44	104	4991221760	76	12951
2026-01-10 04:07:20.61	197.26	6.72	-53.3	-64.2	3.8	8.48e-01	0	44	104	4991221760	76	13024
2026-01-10 04:07:24.63	197.29	6.41	-53.3	-64.2	3.8	8.47e-01	0	44	104	4991221760	76	13030
2026-01-10 04:07:28.65	197.31	6.11	-53.3	-64.1	3.8	8.48e-01	0	44	104	4991221760	76	12882
2026-01-10 04:07:32.66	197.33	5.81	-53.2	-64.1	3.8	8.47e-01	0	44	104	4991221760	76	12929
2026-01-10 04:07:36.68	197.36	5.52	-53.3	-64.1	3.8	8.47e-01	0	44	104	4991221760	76	12901
2026-01-10 04:07:40.70	197.38	5.22	-53.3	-64.1	3.8	8.47e-01	0	44	104	4991221760	76	12951

#Closed at: 2026-01-10 04:07:44
#Recorded file [4991 MB]: D:/Data/31040_260110_065449.dat