passes_logs/2026/01/10/T1/T1__20260110_215102_NOAA_20_JPSS-1_rec.log

#Pass ID: 20260110_215102_NOAA 20 (JPSS-1)
#Satellite: NOAA 20 (JPSS-1)
#Configuration: NOAA 20
#almurnet v.1.7.20251203
#Start time: 2026-01-10 21:51:03

#Version: 2.0.20230620
#Station: T1
#Location: 37.570604 lon 55.790049 lat
#TLE: 1 43013U 17073A   26009.69119415  .00000109  00000+0  72598-4 0  9996
#TLE: 2 43013  98.7631 310.6868 0001678  46.7442 313.3874 14.19534878421981

#Time	Az	El	Level	Level2	SNR	BER	BlckErr	Temp	State	Recorded	gain1	gain2
2026-01-10 21:51:03.90	34.36	5.09	-49.9	-65.3	3.8	1.49e+00	0	37	0	0	71	21223
2026-01-10 21:51:06.90	34.67	5.24	-49.9	-65.3	3.8	1.49e+00	0	37	104	0	70	22415
2026-01-10 21:51:09.92	35.00	5.40	-49.9	-65.3	3.8	1.49e+00	0	37	104	0	70	22336
2026-01-10 21:51:12.93	35.32	5.55	-49.9	-65.3	3.8	1.49e+00	0	37	104	0	70	22406
2026-01-10 21:51:15.94	35.65	5.71	-49.9	-65.3	3.8	1.49e+00	0	38	104	0	70	22470
2026-01-10 21:51:18.96	35.98	5.86	-49.9	-65.3	3.8	1.49e+00	0	38	104	0	70	22299
2026-01-10 21:51:21.97	36.32	6.02	-49.9	-65.3	3.8	1.49e+00	0	38	104	0	70	22304
2026-01-10 21:51:24.98	36.66	6.17	-49.9	-65.3	3.8	1.49e+00	0	38	104	0	70	22293
2026-01-10 21:51:28.00	37.00	6.33	-49.9	-65.3	3.8	1.49e+00	0	38	104	0	70	22272
2026-01-10 21:51:31.01	37.34	6.49	-49.9	-65.3	3.8	1.49e+00	0	38	104	0	70	22282
2026-01-10 21:51:34.02	37.69	6.64	-49.9	-65.3	3.8	1.49e+00	0	38	104	0	70	22265
2026-01-10 21:51:37.03	38.05	6.80	-49.9	-65.3	3.8	1.49e+00	0	38	104	0	70	22323
2026-01-10 21:51:40.05	38.40	6.95	-49.9	-65.2	3.8	1.49e+00	0	38	104	0	70	22151
2026-01-10 21:51:43.06	38.76	7.11	-49.9	-65.2	3.8	1.49e+00	0	38	104	0	70	22197
2026-01-10 21:51:46.07	39.13	7.26	-49.9	-65.2	3.8	1.49e+00	0	38	104	0	70	22050
2026-01-10 21:51:49.08	39.49	7.42	-49.9	-65.2	3.8	1.49e+00	0	39	104	0	70	22052
2026-01-10 21:51:52.10	39.87	7.58	-49.9	-65.3	3.8	1.49e+00	0	39	104	0	70	22321
2026-01-10 21:51:55.11	40.24	7.73	-49.9	-65.3	3.8	1.49e+00	0	39	104	0	70	22280
2026-01-10 21:51:58.12	40.62	7.89	-49.9	-65.3	3.8	1.49e+00	0	39	104	0	70	22346
2026-01-10 21:52:01.14	41.00	8.04	-49.9	-65.2	3.8	1.49e+00	0	39	104	0	70	22048
2026-01-10 21:52:04.15	41.39	8.20	-49.8	-65.2	3.8	1.49e+00	0	39	104	0	70	22172
2026-01-10 21:52:07.16	41.78	8.35	-49.9	-65.2	3.8	1.49e+00	0	39	104	0	70	22150
2026-01-10 21:52:10.18	42.18	8.51	-49.8	-65.1	3.8	1.49e+00	0	39	104	0	70	21831
2026-01-10 21:52:13.19	42.58	8.66	-49.8	-65.1	3.8	1.49e+00	0	39	104	0	70	21794
2026-01-10 21:52:16.20	42.98	8.82	-49.9	-65.2	3.8	1.49e+00	0	39	104	0	70	22055
2026-01-10 21:52:19.22	43.39	8.97	-49.7	-63.0	3.8	1.49e+00	0	39	104	0	70	17142
2026-01-10 21:52:22.23	43.80	9.13	-49.7	-64.2	3.8	1.49e+00	0	39	104	0	70	19644
2026-01-10 21:52:25.24	44.21	9.28	-46.4	-50.3	13.5	3.73e-05	0	39	0	4194304	64	5642
2026-01-10 21:52:28.25	44.63	9.43	-46.1	-49.8	14.2	2.20e-06	0	39	0	9437184	63	5615
2026-01-10 21:52:31.26	45.06	9.59	-45.3	-48.6	15.4	0.00e+00	0	39	0	14680064	62	5168
2026-01-10 21:52:34.27	45.49	9.74	-45.3	-48.5	15.6	0.00e+00	0	39	0	20971520	62	5144
2026-01-10 21:52:37.29	45.92	9.89	-45.4	-48.6	15.5	0.00e+00	0	39	0	26214400	62	5181
2026-01-10 21:52:40.29	46.36	10.04	-45.4	-48.6	15.4	0.00e+00	0	39	0	32505856	62	5181
2026-01-10 21:52:43.31	46.80	10.19	-45.3	-48.6	15.5	0.00e+00	0	39	0	37748736	62	5161
2026-01-10 21:52:46.31	47.24	10.34	-45.3	-48.4	15.6	0.00e+00	0	39	0	42991616	62	5100
2026-01-10 21:52:49.33	47.69	10.49	-45.5	-48.8	15.3	0.00e+00	0	39	0	49283072	62	5285
2026-01-10 21:52:52.34	48.15	10.64	-45.4	-48.7	15.4	0.00e+00	0	39	0	54525952	62	5231
2026-01-10 21:52:55.35	48.61	10.79	-45.3	-48.4	15.7	0.00e+00	0	39	0	60817408	62	5086
2026-01-10 21:52:58.36	49.07	10.94	-45.4	-48.5	15.6	0.00e+00	0	39	0	66060288	62	5154
2026-01-10 21:53:01.37	49.54	11.09	-45.5	-48.7	15.4	0.00e+00	0	39	0	71303168	62	5268
2026-01-10 21:53:04.38	50.01	11.23	-45.5	-48.8	15.3	0.00e+00	0	39	0	77594624	62	5309
2026-01-10 21:53:07.39	50.49	11.38	-45.5	-48.7	15.4	0.00e+00	0	39	0	82837504	62	5243
2026-01-10 21:53:10.40	50.97	11.52	-45.6	-48.8	15.3	0.00e+00	0	39	0	89128960	62	5331
2026-01-10 21:53:13.41	51.46	11.67	-45.4	-48.7	15.5	0.00e+00	0	39	0	94371840	62	5225
2026-01-10 21:53:16.42	51.95	11.81	-45.6	-48.8	15.3	0.00e+00	0	39	0	99614720	62	5334
2026-01-10 21:53:19.43	52.45	11.95	-45.8	-49.2	15.0	0.00e+00	0	39	0	105906176	62	5534
2026-01-10 21:53:22.43	52.95	12.09	-45.8	-49.2	15.0	0.00e+00	0	39	0	111149056	62	5531
2026-01-10 21:53:25.45	53.45	12.23	-46.0	-49.5	14.7	0.00e+00	0	39	0	116391936	62	5727
2026-01-10 21:53:28.45	53.96	12.37	-46.0	-49.5	14.6	0.00e+00	0	39	0	122683392	62	5766
2026-01-10 21:53:31.46	54.48	12.50	-46.1	-49.7	14.5	7.00e-07	0	39	0	127926272	62	5882
2026-01-10 21:53:34.48	55.00	12.64	-46.2	-49.8	14.3	7.00e-07	0	40	0	134217728	63	5642
2026-01-10 21:53:37.49	55.52	12.77	-46.2	-49.8	14.4	0.00e+00	0	39	0	139460608	63	5632
2026-01-10 21:53:40.50	56.05	12.90	-46.4	-50.1	14.1	0.00e+00	0	40	0	144703488	63	5809
2026-01-10 21:53:43.51	56.58	13.04	-46.5	-50.3	14.0	3.00e-06	0	39	0	150994944	63	5963
2026-01-10 21:53:46.52	57.12	13.16	-46.5	-50.3	13.9	3.00e-06	0	40	0	156237824	63	5971
2026-01-10 21:53:49.54	57.67	13.29	-46.5	-50.2	14.1	2.20e-06	0	39	0	161480704	63	5879
2026-01-10 21:53:52.55	58.21	13.42	-46.4	-50.1	14.2	2.20e-06	0	39	0	167772160	63	5799
2026-01-10 21:53:55.56	58.77	13.54	-46.6	-50.4	13.8	4.50e-06	0	40	0	173015040	63	6023
2026-01-10 21:53:58.57	59.32	13.67	-46.7	-50.6	13.5	7.60e-06	0	40	0	179306496	64	5828
2026-01-10 21:54:01.58	59.88	13.79	-46.8	-50.8	13.4	1.22e-05	0	39	0	184549376	64	5954
2026-01-10 21:54:04.59	60.45	13.90	-46.6	-50.5	13.6	7.60e-06	0	40	0	189792256	64	5760
2026-01-10 21:54:07.60	61.02	14.02	-46.3	-50.0	14.2	2.20e-06	0	40	0	196083712	64	5427
2026-01-10 21:54:10.61	61.59	14.14	-46.3	-49.9	14.3	1.50e-06	0	40	0	201326592	64	5368
2026-01-10 21:54:13.62	62.17	14.25	-46.3	-50.0	14.2	0.00e+00	0	39	0	207618048	64	5451
2026-01-10 21:54:16.63	62.75	14.36	-46.3	-50.0	14.2	1.50e-06	0	40	0	212860928	64	5405
2026-01-10 21:54:19.65	63.34	14.47	-46.1	-49.6	14.6	0.00e+00	0	39	0	218103808	64	5185
2026-01-10 21:54:22.66	63.93	14.57	-45.6	-48.8	15.4	0.00e+00	0	40	0	224395264	63	5038
2026-01-10 21:54:25.67	64.53	14.68	-45.2	-48.2	16.0	0.00e+00	0	39	0	229638144	62	4973
2026-01-10 21:54:28.68	65.13	14.78	-45.3	-48.3	16.0	0.00e+00	0	40	0	234881024	62	5011
2026-01-10 21:54:31.69	65.73	14.88	-45.5	-48.6	15.7	0.00e+00	0	39	0	241172480	62	5191
2026-01-10 21:54:34.70	66.34	14.97	-45.3	-48.4	15.8	0.00e+00	0	40	0	246415360	62	5081
2026-01-10 21:54:37.71	66.95	15.06	-45.3	-48.3	15.9	0.00e+00	0	39	0	252706816	62	5036
2026-01-10 21:54:40.72	67.56	15.15	-45.3	-48.3	16.0	0.00e+00	0	39	0	257949696	62	5010
2026-01-10 21:54:43.73	68.18	15.24	-45.4	-48.5	15.8	0.00e+00	0	40	0	263192576	62	5150
2026-01-10 21:54:46.74	68.80	15.33	-45.6	-48.8	15.5	0.00e+00	0	40	0	269484032	62	5325
2026-01-10 21:54:49.75	69.43	15.41	-45.8	-49.0	15.3	0.00e+00	0	40	0	274726912	62	5427
2026-01-10 21:54:52.77	70.06	15.49	-45.8	-49.1	15.2	0.00e+00	0	40	0	281018368	62	5526
2026-01-10 21:54:55.78	70.69	15.56	-45.9	-49.2	15.1	0.00e+00	0	39	0	286261248	62	5588
2026-01-10 21:54:58.79	71.32	15.64	-45.9	-49.3	15.1	0.00e+00	0	40	0	291504128	62	5596
2026-01-10 21:55:01.79	71.96	15.71	-45.9	-49.2	15.1	0.00e+00	0	39	0	297795584	62	5531
2026-01-10 21:55:04.81	72.60	15.77	-45.8	-49.0	15.2	0.00e+00	0	39	0	303038464	62	5464
2026-01-10 21:55:07.82	73.24	15.84	-45.8	-49.1	15.2	0.00e+00	0	40	0	308281344	62	5498
2026-01-10 21:55:10.83	73.89	15.90	-46.0	-49.3	15.0	0.00e+00	0	40	0	314572800	62	5634
2026-01-10 21:55:13.84	74.54	15.96	-45.6	-48.9	15.4	0.00e+00	0	40	0	319815680	62	5351
2026-01-10 21:55:16.85	75.19	16.01	-45.5	-48.6	15.7	0.00e+00	0	40	0	326107136	62	5208
2026-01-10 21:55:19.86	75.84	16.06	-45.6	-48.7	15.6	0.00e+00	0	40	0	331350016	62	5241
2026-01-10 21:55:22.87	76.50	16.11	-45.6	-48.8	15.6	0.00e+00	0	40	0	336592896	62	5300
2026-01-10 21:55:25.88	77.16	16.15	-45.8	-49.1	15.2	0.00e+00	0	40	0	342884352	62	5484
2026-01-10 21:55:28.89	77.81	16.19	-45.8	-49.1	15.3	0.00e+00	0	40	0	348127232	62	5473
2026-01-10 21:55:31.90	78.48	16.23	-45.7	-49.0	15.4	0.00e+00	0	39	0	354418688	62	5406
2026-01-10 21:55:34.91	79.14	16.26	-45.5	-48.6	15.7	0.00e+00	0	40	0	359661568	62	5194
2026-01-10 21:55:37.92	79.80	16.29	-45.3	-48.4	15.9	0.00e+00	0	40	0	364904448	62	5099
2026-01-10 21:55:40.93	80.47	16.31	-45.6	-48.8	15.5	0.00e+00	0	40	0	371195904	62	5327
2026-01-10 21:55:43.94	81.13	16.34	-45.4	-48.6	15.7	0.00e+00	0	40	0	376438784	62	5214
2026-01-10 21:55:46.95	81.80	16.35	-45.4	-48.7	15.6	0.00e+00	0	39	0	381681664	62	5219
2026-01-10 21:55:49.96	82.47	16.37	-45.4	-48.6	15.7	0.00e+00	0	39	0	387973120	62	5168
2026-01-10 21:55:52.97	83.14	16.38	-45.2	-48.3	16.0	0.00e+00	0	39	0	393216000	62	5000
2026-01-10 21:55:55.98	83.80	16.39	-45.3	-48.5	15.8	0.00e+00	0	40	0	399507456	62	5117
2026-01-10 21:55:58.99	84.47	16.39	-45.3	-48.6	15.6	0.00e+00	0	40	0	404750336	62	5194
2026-01-10 21:56:02.00	85.14	16.39	-45.2	-48.3	15.9	0.00e+00	0	40	0	409993216	62	5031
2026-01-10 21:56:05.01	85.81	16.39	-45.0	-48.0	16.2	0.00e+00	0	40	0	416284672	62	4854
2026-01-10 21:56:08.02	86.48	16.38	-45.0	-48.1	16.2	0.00e+00	0	40	0	421527552	61	5173
2026-01-10 21:56:11.03	87.15	16.37	-45.0	-48.2	16.1	0.00e+00	0	40	0	426770432	61	5244
2026-01-10 21:56:14.04	87.82	16.35	-45.3	-48.4	15.8	0.00e+00	0	40	0	433061888	61	5395
2026-01-10 21:56:17.05	88.48	16.33	-45.4	-48.6	15.7	0.00e+00	0	40	0	438304768	61	5522
2026-01-10 21:56:20.06	89.15	16.31	-45.3	-48.5	15.8	0.00e+00	0	40	0	444596224	61	5413
2026-01-10 21:56:23.07	89.82	16.29	-45.0	-48.1	16.2	0.00e+00	0	40	0	449839104	61	5168
2026-01-10 21:56:26.08	90.48	16.26	-45.2	-48.2	16.0	0.00e+00	0	40	0	455081984	61	5254
2026-01-10 21:56:29.10	91.15	16.22	-45.2	-48.2	16.1	0.00e+00	0	40	0	461373440	61	5269
2026-01-10 21:56:32.11	91.81	16.19	-44.9	-47.9	16.3	0.00e+00	0	40	0	466616320	61	5062
2026-01-10 21:56:35.12	92.47	16.15	-44.9	-47.8	16.4	0.00e+00	0	40	0	472907776	61	5039
2026-01-10 21:56:38.13	93.13	16.10	-44.9	-47.8	16.4	0.00e+00	0	40	0	478150656	61	5013
2026-01-10 21:56:41.15	93.78	16.05	-44.8	-47.7	16.5	0.00e+00	0	40	0	483393536	61	4949
2026-01-10 21:56:44.15	94.44	16.00	-44.9	-47.8	16.4	0.00e+00	0	40	0	489684992	61	5002
2026-01-10 21:56:47.17	95.09	15.95	-44.7	-47.5	16.7	0.00e+00	0	40	0	494927872	61	4834
2026-01-10 21:56:50.18	95.74	15.89	-44.7	-47.5	16.7	0.00e+00	0	40	0	500170752	61	4853
2026-01-10 21:56:53.19	96.39	15.83	-45.0	-47.9	16.3	0.00e+00	0	40	0	506462208	61	5060
2026-01-10 21:56:56.19	97.03	15.77	-45.2	-48.2	16.1	7.00e-07	0	40	0	511705088	61	5239
2026-01-10 21:56:59.21	97.67	15.70	-44.8	-47.7	16.5	0.00e+00	0	40	0	517996544	61	4951
2026-01-10 21:57:02.22	98.31	15.63	-44.4	-47.2	17.0	0.00e+00	0	40	0	523239424	60	4940
2026-01-10 21:57:05.23	98.95	15.56	-44.2	-46.9	17.3	0.00e+00	0	40	0	528482304	60	4787
2026-01-10 21:57:08.23	99.58	15.48	-44.3	-47.0	17.2	0.00e+00	0	39	0	534773760	60	4817
2026-01-10 21:57:11.24	100.21	15.40	-44.4	-47.0	17.1	0.00e+00	0	40	0	540016640	60	4859
2026-01-10 21:57:14.25	100.84	15.32	-44.6	-47.4	16.8	0.00e+00	0	39	0	546308096	60	5077
2026-01-10 21:57:17.26	101.46	15.23	-44.4	-47.2	17.0	0.00e+00	0	40	0	551550976	60	4949
2026-01-10 21:57:20.28	102.08	15.14	-44.2	-46.8	17.4	0.00e+00	0	40	0	556793856	60	4748
2026-01-10 21:57:23.28	102.70	15.05	-44.2	-46.8	17.4	0.00e+00	0	40	0	563085312	60	4736
2026-01-10 21:57:26.29	103.31	14.96	-44.5	-47.3	16.9	0.00e+00	0	40	0	568328192	60	5031
2026-01-10 21:57:29.30	103.92	14.86	-44.9	-47.9	16.4	0.00e+00	0	40	0	573571072	60	5358
2026-01-10 21:57:32.30	104.52	14.76	-45.0	-47.9	16.3	0.00e+00	0	39	0	579862528	60	5376
2026-01-10 21:57:35.31	105.12	14.66	-44.9	-47.8	16.4	0.00e+00	0	39	0	585105408	60	5300
2026-01-10 21:57:38.32	105.72	14.56	-45.1	-48.0	16.2	0.00e+00	0	40	0	591396864	60	5462
2026-01-10 21:57:41.33	106.31	14.45	-44.9	-47.7	16.5	0.00e+00	0	40	0	596639744	60	5277
2026-01-10 21:57:44.34	106.90	14.34	-45.0	-48.0	16.2	0.00e+00	0	40	0	601882624	60	5406
2026-01-10 21:57:47.35	107.48	14.23	-45.7	-49.0	15.3	0.00e+00	0	40	0	608174080	62	5447
2026-01-10 21:57:50.36	108.06	14.12	-46.3	-50.0	14.3	7.00e-07	0	40	0	613416960	63	5753
2026-01-10 21:57:53.37	108.64	14.00	-46.5	-50.2	14.0	4.50e-06	0	40	0	618659840	63	5914
2026-01-10 21:57:56.38	109.21	13.88	-46.6	-50.4	13.9	1.50e-06	0	40	0	624951296	63	6032
2026-01-10 21:57:59.39	109.78	13.76	-46.6	-50.4	13.7	7.60e-06	0	40	0	630194176	64	5688
2026-01-10 21:58:02.40	110.34	13.64	-46.3	-50.1	14.1	1.50e-06	0	40	0	636485632	64	5479
2026-01-10 21:58:05.41	110.90	13.52	-46.1	-49.7	14.4	0.00e+00	0	40	0	641728512	64	5241
2026-01-10 21:58:08.42	111.45	13.39	-46.2	-49.9	14.2	3.00e-06	0	40	0	646971392	64	5366
2026-01-10 21:58:11.43	112.00	13.26	-46.4	-50.3	13.8	2.20e-06	0	40	0	653262848	64	5626
2026-01-10 21:58:14.44	112.55	13.13	-46.7	-50.8	13.4	1.52e-05	0	40	0	658505728	64	5933
2026-01-10 21:58:17.45	113.09	13.00	-46.7	-50.7	13.4	1.37e-05	0	40	0	664797184	64	5908
2026-01-10 21:58:20.46	113.62	12.87	-46.3	-50.0	14.1	2.20e-06	0	40	0	670040064	64	5459
2026-01-10 21:58:23.47	114.15	12.74	-46.3	-49.9	14.2	7.00e-07	0	40	0	675282944	64	5368
2026-01-10 21:58:26.48	114.68	12.60	-46.2	-49.8	14.2	7.00e-07	0	40	0	681574400	64	5326
2026-01-10 21:58:29.49	115.20	12.47	-46.1	-49.6	14.5	7.00e-07	0	40	0	686817280	64	5174
2026-01-10 21:58:32.50	115.71	12.33	-45.6	-48.9	15.3	0.00e+00	0	40	0	692060160	63	5048
2026-01-10 21:58:35.51	116.23	12.19	-45.7	-49.0	15.1	0.00e+00	0	40	0	698351616	63	5109
2026-01-10 21:58:38.52	116.73	12.05	-46.0	-49.4	14.7	0.00e+00	0	40	0	703594496	63	5369
2026-01-10 21:58:41.53	117.24	11.91	-46.1	-49.7	14.5	0.00e+00	0	40	0	709885952	63	5544
2026-01-10 21:58:44.54	117.73	11.76	-46.2	-49.8	14.3	0.00e+00	0	40	0	715128832	63	5646
2026-01-10 21:58:47.56	118.23	11.62	-46.1	-49.6	14.5	0.00e+00	0	40	0	720371712	63	5494
2026-01-10 21:58:50.57	118.72	11.47	-45.6	-48.9	15.1	7.00e-07	0	40	0	726663168	63	5078
2026-01-10 21:58:53.58	119.20	11.33	-45.4	-48.5	15.6	0.00e+00	0	40	0	731906048	62	5147
2026-01-10 21:58:56.58	119.68	11.18	-45.6	-48.9	15.1	0.00e+00	0	40	0	737148928	62	5389
2026-01-10 21:58:59.59	120.15	11.03	-45.7	-49.0	15.0	0.00e+00	0	40	0	743440384	62	5464
2026-01-10 21:59:02.60	120.62	10.89	-45.6	-48.8	15.2	0.00e+00	0	40	0	748683264	62	5334
2026-01-10 21:59:05.61	121.09	10.74	-45.8	-49.2	14.9	0.00e+00	0	40	0	754974720	62	5549
2026-01-10 21:59:08.62	121.55	10.59	-45.7	-49.2	14.9	0.00e+00	0	40	0	760217600	62	5533
2026-01-10 21:59:11.63	122.00	10.44	-45.6	-48.9	15.1	0.00e+00	0	40	0	765460480	62	5343
2026-01-10 21:59:14.64	122.46	10.28	-45.5	-48.7	15.3	0.00e+00	0	40	0	771751936	62	5260
2026-01-10 21:59:17.65	122.90	10.13	-45.8	-49.3	14.7	0.00e+00	0	40	0	776994816	62	5602
2026-01-10 21:59:20.66	123.35	9.98	-46.0	-49.5	14.5	0.00e+00	0	40	0	783286272	62	5756
2026-01-10 21:59:23.67	123.78	9.83	-45.8	-49.2	14.7	0.00e+00	0	40	0	788529152	62	5572
2026-01-10 21:59:26.68	124.22	9.67	-45.6	-48.9	15.1	0.00e+00	0	40	0	793772032	62	5344
2026-01-10 21:59:29.69	124.65	9.52	-45.9	-49.4	14.5	0.00e+00	0	40	0	800063488	62	5720
2026-01-10 21:59:32.70	125.07	9.36	-46.0	-49.7	14.2	3.00e-06	0	40	0	805306368	62	5856
2026-01-10 21:59:35.71	125.49	9.21	-46.1	-49.8	14.1	7.00e-07	0	40	0	810549248	62	5940
2026-01-10 21:59:38.72	125.91	9.05	-45.8	-49.4	14.5	0.00e+00	0	40	0	816840704	62	5684
2026-01-10 21:59:41.74	126.32	8.90	-50.5	-65.6	3.8	1.49e+00	0	40	104	818937856	71	21979
2026-01-10 21:59:44.75	126.73	8.74	-50.5	-65.9	3.8	1.49e+00	0	40	104	818937856	71	22643
2026-01-10 21:59:47.76	127.13	8.59	-50.7	-65.9	3.8	1.49e+00	0	40	104	818937856	72	21502
2026-01-10 21:59:50.77	127.53	8.43	-50.7	-66.0	3.8	1.49e+00	0	40	104	818937856	72	21555
2026-01-10 21:59:53.79	127.93	8.27	-50.4	-66.0	3.8	1.49e+00	0	40	104	818937856	72	21674
2026-01-10 21:59:56.80	128.32	8.12	-50.4	-66.0	3.8	1.49e+00	0	40	104	818937856	72	21743
2026-01-10 21:59:59.81	128.71	7.96	-50.7	-66.0	3.8	1.49e+00	0	40	104	818937856	72	21709
2026-01-10 22:00:02.82	129.09	7.80	-50.6	-66.0	3.8	1.49e+00	0	40	104	818937856	72	21667
2026-01-10 22:00:05.84	129.47	7.64	-50.7	-66.0	3.8	1.49e+00	0	40	104	818937856	72	21571
2026-01-10 22:00:08.85	129.84	7.49	-50.6	-66.0	3.8	1.49e+00	0	40	104	818937856	72	21656
2026-01-10 22:00:11.86	130.22	7.33	-50.6	-66.0	3.8	1.49e+00	0	40	104	818937856	72	21558
2026-01-10 22:00:14.88	130.58	7.17	-50.6	-66.0	3.8	1.49e+00	0	40	104	818937856	72	21635
2026-01-10 22:00:17.89	130.95	7.01	-50.6	-66.0	3.8	1.49e+00	0	40	104	818937856	72	21552
2026-01-10 22:00:20.90	131.31	6.86	-50.7	-66.0	3.8	1.49e+00	0	40	104	818937856	72	21583
2026-01-10 22:00:23.91	131.66	6.70	-50.6	-66.0	3.8	1.49e+00	0	40	104	818937856	72	21522
2026-01-10 22:00:26.93	132.02	6.54	-50.6	-65.9	3.8	1.49e+00	0	40	104	818937856	72	21504
2026-01-10 22:00:29.94	132.37	6.38	-50.6	-66.0	3.8	1.49e+00	0	40	104	818937856	72	21540
2026-01-10 22:00:32.95	132.71	6.23	-50.6	-65.9	3.8	1.49e+00	0	40	104	818937856	72	21494
2026-01-10 22:00:35.96	133.05	6.07	-50.6	-66.0	3.8	1.49e+00	0	40	104	818937856	72	21596
2026-01-10 22:00:38.98	133.39	5.91	-50.6	-66.0	3.8	1.49e+00	0	40	104	818937856	72	21508
2026-01-10 22:00:41.99	133.73	5.75	-50.6	-66.0	3.8	1.49e+00	0	40	104	818937856	72	21534
2026-01-10 22:00:45.00	134.06	5.60	-50.6	-65.9	3.8	1.49e+00	0	40	104	818937856	72	21444
2026-01-10 22:00:48.02	134.39	5.44	-50.6	-65.9	3.8	1.49e+00	0	40	104	818937856	72	21487
2026-01-10 22:00:51.03	134.71	5.28	-50.6	-66.0	3.8	1.49e+00	0	40	104	818937856	72	21531
2026-01-10 22:00:54.04	135.03	5.13	-50.6	-65.9	3.8	1.49e+00	0	40	104	818937856	72	21438
2026-01-10 22:00:57.06	135.35	4.97	-50.6	-65.9	3.8	1.49e+00	0	40	104	818937856	72	21442

#Closed at: 2026-01-10 22:00:58
#Recorded file [818 MB]: D:/Data/31040_260111_005103.dat