passes_logs/2026/01/10/T1/T1__20260110_013010_NOAA_20_JPSS-1_rec.log

#Pass ID: 20260110_013010_NOAA 20 (JPSS-1)
#Satellite: NOAA 20 (JPSS-1)
#Configuration: NOAA 20
#almurnet v.1.7.20251203
#Start time: 2026-01-10 01:30:11

#Version: 2.0.20230620
#Station: T1
#Location: 37.570604 lon 55.790049 lat
#TLE: 1 43013U 17073A   26009.26828276  .00000112  00000+0  74203-4 0  9990
#TLE: 2 43013  98.7631 310.2683 0001700  47.4387 312.6933 14.19534764421920

#Time	Az	El	Level	Level2	SNR	BER	BlckErr	Temp	State	Recorded	gain1	gain2
2026-01-10 01:30:11.57	5.65	5.08	-51.1	-67.1	3.8	1.49e+00	0	38	0	0	73	23291
2026-01-10 01:30:14.58	5.39	5.26	-51.0	-66.9	3.8	1.49e+00	0	38	104	0	74	21294
2026-01-10 01:30:17.59	5.13	5.44	-51.0	-66.9	3.8	1.49e+00	0	38	104	0	74	21274
2026-01-10 01:30:20.61	4.86	5.62	-51.0	-66.9	3.8	1.49e+00	0	38	104	0	74	21317
2026-01-10 01:30:23.62	4.59	5.79	-51.0	-66.9	3.8	1.49e+00	0	38	104	0	74	21377
2026-01-10 01:30:26.63	4.32	5.97	-51.0	-66.9	3.8	1.49e+00	0	38	104	0	74	21370
2026-01-10 01:30:29.65	4.04	6.15	-51.0	-66.9	3.8	1.49e+00	0	38	104	0	74	21338
2026-01-10 01:30:32.66	3.76	6.33	-51.0	-66.9	3.8	1.49e+00	0	39	104	0	74	21351
2026-01-10 01:30:35.67	3.47	6.51	-51.0	-66.9	3.8	1.49e+00	0	39	104	0	74	21468
2026-01-10 01:30:38.69	3.18	6.70	-51.0	-66.8	3.8	1.49e+00	0	39	104	0	74	21252
2026-01-10 01:30:41.70	2.89	6.88	-51.0	-66.8	3.8	1.49e+00	0	39	104	0	74	21135
2026-01-10 01:30:44.71	2.59	7.06	-51.0	-66.8	3.8	1.49e+00	0	39	104	0	74	21180
2026-01-10 01:30:47.73	2.29	7.25	-51.0	-66.6	3.8	1.49e+00	0	39	104	0	74	20668
2026-01-10 01:30:50.74	1.98	7.43	-50.9	-66.3	3.8	1.49e+00	0	39	104	0	73	21211
2026-01-10 01:30:53.75	1.68	7.61	-50.9	-66.1	3.8	1.49e+00	0	39	104	0	73	20755
2026-01-10 01:30:56.76	1.36	7.80	-50.9	-65.8	3.8	1.49e+00	0	39	104	0	73	20020
2026-01-10 01:30:59.78	1.05	7.98	-51.0	-66.7	3.8	1.49e+00	0	39	104	0	73	22209
2026-01-10 01:31:02.79	0.72	8.17	-50.9	-65.9	3.8	1.49e+00	0	39	104	0	73	20193
2026-01-10 01:31:05.80	0.40	8.36	-50.6	-61.3	5.0	8.07e-01	0	39	0	1048576	73	11895
2026-01-10 01:31:08.81	0.07	8.54	-50.1	-58.3	7.3	1.71e-01	0	40	0	7340032	72	8922
2026-01-10 01:31:11.83	359.73	8.73	-49.7	-56.4	9.2	3.34e-02	0	39	0	12582912	71	7611
2026-01-10 01:31:14.84	359.40	8.92	-49.6	-56.1	9.5	1.32e-02	0	40	0	18874368	71	7348
2026-01-10 01:31:17.85	359.05	9.11	-50.5	-60.1	5.8	1.25e-01	0	40	0	24117248	71	11640
2026-01-10 01:31:20.86	358.71	9.30	-48.1	-53.5	12.3	5.44e-04	0	40	0	27262976	68	6461
2026-01-10 01:31:23.87	358.35	9.49	-47.7	-53.2	12.4	2.02e-04	0	40	0	32505856	67	6596
2026-01-10 01:31:26.88	358.00	9.67	-47.8	-53.0	12.7	9.46e-05	0	40	0	38797312	67	6431
2026-01-10 01:31:29.86	357.64	9.86	-48.0	-53.0	12.7	9.46e-05	0	40	0	44040192	67	6442
2026-01-10 01:31:32.87	357.27	10.05	-48.0	-52.8	12.9	6.48e-05	0	40	0	49283072	67	6325
2026-01-10 01:31:35.88	356.90	10.24	-48.0	-52.7	13.0	5.11e-05	0	40	0	55574528	67	6238
2026-01-10 01:31:38.88	356.52	10.43	-48.0	-52.8	13.0	4.80e-05	0	40	0	60817408	67	6280
2026-01-10 01:31:41.95	356.14	10.63	-47.8	-52.7	13.0	5.18e-05	0	40	0	67108864	67	6235
2026-01-10 01:31:44.82	355.77	10.81	-47.9	-52.7	13.1	2.82e-05	0	40	0	72351744	67	6207
2026-01-10 01:31:47.97	355.36	11.01	-47.7	-52.6	13.2	2.82e-05	0	40	0	77594624	67	6136
2026-01-10 01:31:50.89	354.97	11.20	-47.6	-52.3	13.5	9.90e-06	0	40	0	83886080	66	6299
2026-01-10 01:31:54.03	354.55	11.40	-47.1	-51.9	13.9	3.80e-06	0	40	0	89128960	66	6051
2026-01-10 01:31:56.90	354.16	11.58	-47.0	-51.9	13.9	7.00e-07	0	40	0	94371840	66	6016
2026-01-10 01:32:00.05	353.73	11.78	-46.5	-51.7	14.1	7.00e-07	0	40	0	100663296	65	6238
2026-01-10 01:32:02.91	353.33	11.96	-46.4	-51.7	14.1	2.20e-06	0	40	0	105906176	64	6607
2026-01-10 01:32:06.26	352.86	12.17	-46.0	-51.6	14.2	1.50e-06	0	40	0	112197632	64	6545
2026-01-10 01:32:09.26	352.43	12.37	-46.1	-51.8	14.1	0.00e+00	0	40	0	117440512	63	7112
2026-01-10 01:32:12.27	351.99	12.56	-46.1	-51.8	14.1	0.00e+00	0	40	0	123731968	63	7105
2026-01-10 01:32:15.28	351.55	12.75	-46.6	-51.7	14.2	7.00e-07	0	40	0	128974848	63	7021
2026-01-10 01:32:18.29	351.10	12.94	-46.9	-51.8	14.2	3.80e-06	0	40	0	135266304	64	6648
2026-01-10 01:32:21.30	350.65	13.13	-47.2	-51.6	14.3	3.00e-06	0	40	0	140509184	65	6141
2026-01-10 01:32:24.31	350.18	13.32	-47.8	-51.7	14.2	0.00e+00	0	40	0	145752064	66	5900
2026-01-10 01:32:27.34	349.72	13.51	-48.0	-51.8	14.1	3.00e-06	0	40	0	152043520	66	5991
2026-01-10 01:32:30.38	349.24	13.70	-47.9	-51.8	14.1	3.00e-06	0	40	0	157286400	66	5982
2026-01-10 01:32:33.49	348.74	13.90	-47.7	-51.9	14.1	7.00e-07	0	40	0	163577856	66	6010
2026-01-10 01:32:36.35	348.28	14.08	-47.6	-51.7	14.2	1.50e-06	0	40	0	168820736	66	5908
2026-01-10 01:32:39.51	347.76	14.28	-47.8	-51.7	14.3	7.00e-07	0	40	0	175112192	66	5906
2026-01-10 01:32:42.37	347.29	14.45	-48.1	-52.0	14.0	3.00e-06	0	40	0	180355072	66	6115
2026-01-10 01:32:45.60	346.75	14.65	-48.2	-52.2	13.7	7.60e-06	0	40	0	185597952	67	5923
2026-01-10 01:32:48.54	346.25	14.84	-48.1	-52.3	13.7	5.30e-06	0	40	0	191889408	67	5943
2026-01-10 01:32:51.70	345.71	15.03	-47.8	-52.1	13.9	5.30e-06	0	40	0	197132288	67	5793
2026-01-10 01:32:54.73	345.18	15.21	-47.7	-52.2	13.8	5.30e-06	0	40	0	203423744	67	5884
2026-01-10 01:32:57.83	344.63	15.40	-47.7	-52.0	13.9	4.50e-06	0	40	0	208666624	67	5787
2026-01-10 01:33:00.84	344.09	15.58	-47.7	-52.0	14.0	1.50e-06	0	40	0	214958080	67	5737
2026-01-10 01:33:03.85	343.55	15.76	-47.4	-51.6	14.4	7.00e-07	0	40	0	220200960	66	5812
2026-01-10 01:33:06.86	343.00	15.94	-47.3	-51.4	14.7	0.00e+00	0	40	0	225443840	66	5676
2026-01-10 01:33:09.87	342.44	16.12	-47.3	-51.0	15.1	0.00e+00	0	40	0	231735296	66	5410
2026-01-10 01:33:12.88	341.87	16.30	-47.4	-50.9	15.1	0.00e+00	0	40	0	236978176	66	5346
2026-01-10 01:33:15.89	341.30	16.47	-47.5	-50.8	15.2	0.00e+00	0	40	0	243269632	66	5339
2026-01-10 01:33:18.97	340.71	16.65	-47.2	-50.5	15.5	0.00e+00	0	40	0	248512512	66	5136
2026-01-10 01:33:21.86	340.15	16.81	-46.8	-49.9	16.1	0.00e+00	0	40	0	253755392	65	5084
2026-01-10 01:33:25.01	339.53	16.99	-46.8	-49.8	16.2	0.00e+00	0	40	0	260046848	65	5010
2026-01-10 01:33:27.87	338.96	17.15	-46.4	-49.5	16.5	0.00e+00	0	40	0	265289728	64	5129
2026-01-10 01:33:31.02	338.33	17.32	-46.3	-49.4	16.6	0.00e+00	0	40	0	271581184	64	5072
2026-01-10 01:33:33.89	337.74	17.47	-46.3	-49.2	16.8	0.00e+00	0	40	0	276824064	64	4963
2026-01-10 01:33:37.04	337.09	17.64	-46.0	-49.0	17.0	0.00e+00	0	40	0	282066944	64	4827
2026-01-10 01:33:39.90	336.50	17.79	-45.9	-49.2	16.8	0.00e+00	0	40	0	288358400	63	5262
2026-01-10 01:33:43.05	335.84	17.95	-46.2	-49.1	17.0	0.00e+00	0	40	0	293601280	63	5192
2026-01-10 01:33:45.92	335.23	18.10	-46.3	-49.0	17.0	0.00e+00	0	40	0	298844160	63	5152
2026-01-10 01:33:49.08	334.55	18.25	-46.2	-49.3	16.8	0.00e+00	0	40	0	305135616	63	5280
2026-01-10 01:33:52.36	333.84	18.41	-46.5	-49.5	16.6	0.00e+00	0	40	0	311427072	63	5408
2026-01-10 01:33:55.08	333.25	18.54	-46.5	-49.5	16.6	0.00e+00	0	40	0	316669952	64	5107
2026-01-10 01:33:58.49	332.49	18.70	-46.4	-49.5	16.5	0.00e+00	0	40	0	322961408	64	5147
2026-01-10 01:34:01.57	331.81	18.84	-46.4	-49.5	16.6	0.00e+00	0	40	0	328204288	64	5110
2026-01-10 01:34:04.58	331.13	18.98	-46.1	-48.9	17.1	0.00e+00	0	40	0	334495744	64	4794
2026-01-10 01:34:07.59	330.45	19.11	-46.1	-48.8	17.2	0.00e+00	0	40	0	339738624	64	4749
2026-01-10 01:34:10.60	329.76	19.23	-46.0	-48.8	17.3	0.00e+00	0	40	0	344981504	63	4993
2026-01-10 01:34:13.85	329.01	19.36	-45.9	-48.8	17.3	0.00e+00	0	40	0	351272960	63	4995
2026-01-10 01:34:16.74	328.33	19.48	-45.8	-48.6	17.5	0.00e+00	0	40	0	356515840	63	4915
2026-01-10 01:34:19.89	327.59	19.60	-45.9	-48.8	17.3	0.00e+00	0	40	0	362807296	63	4988
2026-01-10 01:34:22.76	326.91	19.70	-45.9	-48.5	17.6	0.00e+00	0	40	0	368050176	63	4843
2026-01-10 01:34:26.01	326.14	19.82	-45.9	-48.5	17.5	0.00e+00	0	40	0	374341632	63	4854
2026-01-10 01:34:28.86	325.46	19.91	-45.9	-48.6	17.5	0.00e+00	0	40	0	379584512	63	4887
2026-01-10 01:34:32.11	324.67	20.02	-46.0	-49.0	17.1	0.00e+00	0	40	0	385875968	63	5114
2026-01-10 01:34:35.44	323.86	20.12	-46.2	-49.0	17.1	0.00e+00	0	40	0	392167424	63	5144
2026-01-10 01:34:38.21	323.18	20.20	-46.4	-49.2	17.0	0.00e+00	0	40	0	397410304	63	5220
2026-01-10 01:34:41.63	322.34	20.29	-46.4	-49.2	17.0	0.00e+00	0	40	0	403701760	63	5230
2026-01-10 01:34:44.45	321.65	20.37	-46.5	-49.4	16.8	0.00e+00	0	40	0	408944640	63	5352
2026-01-10 01:34:47.74	320.83	20.45	-46.6	-49.7	16.5	0.00e+00	0	40	0	415236096	63	5536
2026-01-10 01:34:50.46	320.15	20.51	-46.7	-49.8	16.2	0.00e+00	0	40	0	420478976	64	5335
2026-01-10 01:34:53.79	319.31	20.58	-46.9	-50.0	16.1	0.00e+00	0	40	0	426770432	64	5427
2026-01-10 01:34:56.58	318.61	20.63	-46.9	-50.0	16.1	0.00e+00	0	40	0	432013312	64	5438
2026-01-10 01:34:59.81	317.79	20.69	-47.2	-50.4	15.7	0.00e+00	0	40	0	437256192	65	5376
2026-01-10 01:35:02.67	317.07	20.73	-47.3	-50.5	15.6	0.00e+00	0	40	0	443547648	65	5428
2026-01-10 01:35:05.92	316.24	20.78	-47.4	-50.6	15.5	0.00e+00	0	40	0	448790528	65	5496
2026-01-10 01:35:08.85	315.49	20.81	-47.3	-50.7	15.4	0.00e+00	0	40	0	455081984	65	5561
2026-01-10 01:35:12.12	314.66	20.85	-47.4	-50.7	15.4	0.00e+00	0	40	0	460324864	65	5574
2026-01-10 01:35:14.99	313.92	20.87	-47.4	-50.5	15.6	0.00e+00	0	41	0	466616320	65	5459
2026-01-10 01:35:18.05	313.14	20.89	-47.5	-50.7	15.4	0.00e+00	0	40	0	471859200	65	5553
2026-01-10 01:35:21.06	312.36	20.90	-47.5	-50.7	15.4	0.00e+00	0	40	0	477102080	65	5565
2026-01-10 01:35:24.07	311.59	20.91	-47.5	-50.8	15.3	0.00e+00	0	40	0	483393536	65	5619
2026-01-10 01:35:27.08	310.81	20.92	-47.4	-50.7	15.4	0.00e+00	0	40	0	488636416	65	5575
2026-01-10 01:35:30.09	310.04	20.91	-47.2	-50.5	15.6	0.00e+00	0	40	0	494927872	65	5424
2026-01-10 01:35:33.10	309.27	20.91	-47.1	-50.2	15.9	0.00e+00	0	40	0	500170752	65	5246
2026-01-10 01:35:36.11	308.49	20.89	-47.2	-50.2	15.9	0.00e+00	0	40	0	505413632	65	5270
2026-01-10 01:35:39.47	307.63	20.87	-47.1	-50.1	16.0	0.00e+00	0	40	0	511705088	65	5187
2026-01-10 01:35:42.22	306.92	20.85	-47.0	-49.9	16.2	0.00e+00	0	40	0	516947968	65	5093
2026-01-10 01:35:45.52	306.08	20.82	-46.9	-49.8	16.2	0.00e+00	0	40	0	523239424	65	5033
2026-01-10 01:35:48.24	305.38	20.78	-46.9	-49.8	16.3	0.00e+00	0	40	0	528482304	65	5034
2026-01-10 01:35:51.72	304.50	20.74	-46.3	-49.0	17.1	0.00e+00	0	40	0	534773760	64	4864
2026-01-10 01:35:54.43	303.81	20.69	-46.3	-49.0	17.1	0.00e+00	0	40	0	540016640	64	4843
2026-01-10 01:35:57.73	302.97	20.64	-46.3	-49.0	17.0	0.00e+00	0	40	0	546308096	64	4859
2026-01-10 01:36:00.45	302.29	20.58	-46.3	-49.0	17.1	0.00e+00	0	40	0	551550976	64	4861
2026-01-10 01:36:03.79	301.45	20.52	-46.1	-48.7	17.3	0.00e+00	0	40	0	557842432	64	4696
2026-01-10 01:36:06.58	300.75	20.45	-46.0	-48.6	17.6	0.00e+00	0	40	0	563085312	63	4901
2026-01-10 01:36:09.88	299.93	20.37	-45.8	-48.3	17.9	0.00e+00	0	40	0	569376768	63	4717
2026-01-10 01:36:12.60	299.25	20.30	-45.6	-48.1	18.1	0.00e+00	0	40	0	574619648	63	4605
2026-01-10 01:36:16.07	298.40	20.21	-46.0	-48.5	17.6	0.00e+00	0	40	0	580911104	63	4863
2026-01-10 01:36:18.87	297.71	20.13	-46.2	-48.8	17.3	0.00e+00	0	40	0	586153984	63	5041
2026-01-10 01:36:22.31	296.87	20.02	-45.8	-48.3	17.9	0.00e+00	0	40	0	592445440	63	4732
2026-01-10 01:36:25.04	296.21	19.93	-45.9	-48.4	17.7	0.00e+00	0	40	0	597688320	63	4791
2026-01-10 01:36:28.33	295.42	19.82	-46.3	-48.9	17.2	0.00e+00	0	40	0	603979776	63	5097
2026-01-10 01:36:31.10	294.76	19.73	-46.6	-49.3	16.9	0.00e+00	0	40	0	609222656	63	5306
2026-01-10 01:36:34.67	293.91	19.60	-46.7	-49.5	16.5	0.00e+00	0	40	0	615514112	64	5148
2026-01-10 01:36:37.58	293.23	19.49	-46.7	-49.4	16.6	0.00e+00	0	40	0	620756992	64	5100
2026-01-10 01:36:40.87	292.46	19.36	-46.8	-49.6	16.5	0.00e+00	0	40	0	627048448	64	5212
2026-01-10 01:36:43.59	291.83	19.25	-47.2	-50.3	15.9	0.00e+00	0	40	0	632291328	65	5286
2026-01-10 01:36:47.24	290.99	19.09	-47.3	-50.4	15.8	0.00e+00	0	40	0	639631360	65	5360
2026-01-10 01:36:50.17	290.32	18.97	-47.2	-50.2	15.9	0.00e+00	0	40	0	644874240	65	5271
2026-01-10 01:36:53.92	289.48	18.80	-47.0	-50.0	16.0	0.00e+00	0	40	0	652214272	65	5152
2026-01-10 01:36:56.70	288.86	18.67	-47.1	-50.1	16.0	0.00e+00	0	40	0	656408576	65	5169
2026-01-10 01:37:00.59	288.00	18.49	-47.4	-50.5	15.6	0.00e+00	0	40	0	663748608	65	5446
2026-01-10 01:37:03.34	287.39	18.36	-47.4	-50.6	15.5	0.00e+00	0	40	0	668991488	65	5502
2026-01-10 01:37:07.10	286.58	18.17	-47.0	-50.0	16.1	0.00e+00	0	40	0	676331520	65	5134
2026-01-10 01:37:09.92	285.98	18.03	-47.1	-50.0	16.1	0.00e+00	0	40	0	681574400	65	5154
2026-01-10 01:37:13.12	285.30	17.86	-47.3	-50.4	15.7	0.00e+00	0	40	0	687865856	65	5377
2026-01-10 01:37:15.98	284.70	17.72	-47.5	-50.8	15.3	0.00e+00	0	40	0	693108736	65	5628
2026-01-10 01:37:19.14	284.04	17.55	-47.5	-50.6	15.5	0.00e+00	0	40	0	699400192	65	5524
2026-01-10 01:37:22.13	283.43	17.39	-47.4	-50.6	15.5	0.00e+00	0	40	0	704643072	65	5465
2026-01-10 01:37:25.14	282.82	17.22	-47.5	-50.7	15.4	0.00e+00	0	40	0	709885952	65	5566
2026-01-10 01:37:28.15	282.21	17.06	-47.5	-50.7	15.4	0.00e+00	0	40	0	716177408	65	5555
2026-01-10 01:37:31.16	281.62	16.89	-47.5	-50.7	15.4	0.00e+00	0	40	0	721420288	65	5575
2026-01-10 01:37:34.26	281.01	16.71	-47.3	-50.4	15.7	0.00e+00	0	40	0	727711744	65	5347
2026-01-10 01:37:37.16	280.45	16.55	-47.3	-50.4	15.6	0.00e+00	0	40	0	732954624	65	5401
2026-01-10 01:37:40.49	279.81	16.36	-47.6	-51.0	15.1	0.00e+00	0	40	0	739246080	65	5732
2026-01-10 01:37:43.35	279.26	16.19	-47.6	-50.9	15.1	0.00e+00	0	40	0	744488960	66	5400
2026-01-10 01:37:46.50	278.67	16.00	-47.3	-50.4	15.6	0.00e+00	0	40	0	749731840	66	5096
2026-01-10 01:37:49.37	278.14	15.83	-47.2	-50.4	15.6	0.00e+00	0	40	0	756023296	66	5084
2026-01-10 01:37:52.53	277.57	15.64	-47.7	-51.0	15.1	0.00e+00	0	40	0	761266176	66	5424
2026-01-10 01:37:55.39	277.05	15.47	-47.9	-51.4	14.7	7.00e-07	0	40	0	766509056	66	5663
2026-01-10 01:37:58.66	276.47	15.27	-47.8	-51.4	14.7	0.00e+00	0	40	0	772800512	66	5658
2026-01-10 01:38:01.38	275.99	15.11	-48.0	-51.5	14.6	2.20e-06	0	40	0	778043392	66	5751
2026-01-10 01:38:04.64	275.42	14.91	-48.1	-51.7	14.4	7.00e-07	0	40	0	784334848	66	5873
2026-01-10 01:38:07.74	274.89	14.72	-48.1	-51.6	14.4	1.50e-06	0	40	0	789577728	66	5825
2026-01-10 01:38:10.74	274.38	14.53	-48.0	-51.5	14.5	1.50e-06	0	40	0	795869184	66	5766
2026-01-10 01:38:13.76	273.87	14.34	-48.1	-51.7	14.3	7.00e-07	0	40	0	801112064	66	5878
2026-01-10 01:38:16.77	273.38	14.15	-48.2	-51.8	14.2	1.50e-06	0	40	0	807403520	66	5956
2026-01-10 01:38:19.77	272.89	13.96	-47.9	-51.3	14.7	0.00e+00	0	40	0	812646400	66	5639
2026-01-10 01:38:23.15	272.34	13.75	-47.7	-51.0	15.0	0.00e+00	0	40	0	818937856	66	5459
2026-01-10 01:38:26.28	271.85	13.55	-47.5	-50.7	15.3	0.00e+00	0	40	0	825229312	66	5247
2026-01-10 01:38:29.17	271.39	13.37	-47.5	-50.8	15.2	0.00e+00	0	40	0	830472192	66	5280
2026-01-10 01:38:32.32	270.91	13.17	-47.5	-50.8	15.1	0.00e+00	0	40	0	835715072	66	5325
2026-01-10 01:38:35.23	270.46	12.99	-47.3	-50.6	15.4	0.00e+00	0	40	0	842006528	66	5204
2026-01-10 01:38:38.53	269.97	12.78	-47.2	-50.3	15.6	0.00e+00	0	40	0	848297984	66	5025
2026-01-10 01:38:41.27	269.56	12.60	-47.0	-50.1	15.8	0.00e+00	0	40	0	852492288	66	4913
2026-01-10 01:38:44.56	269.08	12.39	-47.1	-50.2	15.8	0.00e+00	0	40	0	858783744	66	4938
2026-01-10 01:38:47.29	268.68	12.22	-47.0	-50.0	15.9	0.00e+00	0	40	0	864026624	66	4869
2026-01-10 01:38:51.00	268.15	11.98	-46.8	-49.9	16.1	0.00e+00	0	40	0	871366656	65	5046
2026-01-10 01:38:53.72	267.77	11.81	-46.8	-49.8	16.1	0.00e+00	0	40	0	876609536	65	5028
2026-01-10 01:38:57.01	267.31	11.60	-46.8	-49.8	16.0	0.00e+00	0	40	0	882900992	65	5025
2026-01-10 01:38:59.77	266.93	11.42	-46.8	-49.8	16.1	0.00e+00	0	40	0	888143872	65	5002
2026-01-10 01:39:03.19	266.47	11.20	-46.7	-49.7	16.1	0.00e+00	0	40	0	894435328	65	4963
2026-01-10 01:39:06.02	266.09	11.02	-46.8	-49.9	16.0	0.00e+00	0	40	0	899678208	65	5053
2026-01-10 01:39:09.32	265.66	10.81	-47.0	-50.1	15.7	0.00e+00	0	40	0	905969664	65	5180
2026-01-10 01:39:12.04	265.31	10.64	-47.1	-50.2	15.7	0.00e+00	0	40	0	910163968	65	5251
2026-01-10 01:39:15.33	264.89	10.43	-47.2	-50.4	15.4	0.00e+00	0	40	0	916455424	65	5373
2026-01-10 01:39:18.44	264.49	10.23	-47.1	-50.3	15.5	0.00e+00	0	40	0	922746880	65	5308
2026-01-10 01:39:21.31	264.14	10.05	-47.2	-50.6	15.2	0.00e+00	0	40	0	927989760	65	5475
2026-01-10 01:39:24.46	263.75	9.85	-47.1	-50.6	15.2	0.00e+00	0	40	0	934281216	65	5493
2026-01-10 01:39:27.33	263.40	9.67	-47.2	-50.6	15.1	0.00e+00	0	40	0	939524096	65	5506
2026-01-10 01:39:30.64	263.01	9.46	-47.2	-50.5	15.3	0.00e+00	0	40	0	945815552	65	5403
2026-01-10 01:39:33.57	262.66	9.27	-47.2	-50.4	15.3	0.00e+00	0	40	0	951058432	65	5369
2026-01-10 01:39:36.71	262.29	9.08	-47.3	-50.6	15.1	0.00e+00	0	40	0	957349888	65	5484
2026-01-10 01:39:39.59	261.96	8.90	-52.3	-67.4	3.8	1.49e+00	0	40	104	959447040	75	21363
2026-01-10 01:39:42.74	261.61	8.70	-52.6	-67.7	3.8	1.49e+00	0	40	104	959447040	75	22050
2026-01-10 01:39:45.61	261.28	8.52	-52.6	-67.7	3.8	1.49e+00	0	40	104	959447040	75	22252
2026-01-10 01:39:48.77	260.93	8.32	-52.7	-67.8	3.8	1.49e+00	0	40	104	959447040	76	21162
2026-01-10 01:39:51.64	260.62	8.14	-52.6	-67.8	3.8	1.49e+00	0	40	104	959447040	76	21176
2026-01-10 01:39:54.79	260.28	7.95	-52.6	-67.8	3.8	1.49e+00	0	40	104	959447040	76	21255
2026-01-10 01:39:57.66	259.98	7.77	-52.7	-67.8	3.8	1.49e+00	0	40	104	959447040	76	21151
2026-01-10 01:40:00.82	259.65	7.58	-52.6	-67.8	3.8	1.49e+00	0	40	104	959447040	76	21108
2026-01-10 01:40:03.69	259.35	7.40	-52.6	-67.8	3.8	1.49e+00	0	40	104	959447040	76	21058
2026-01-10 01:40:06.84	259.03	7.21	-52.6	-67.7	3.8	1.49e+00	0	40	104	959447040	76	20993
2026-01-10 01:40:09.71	258.74	7.03	-52.6	-67.8	3.8	1.49e+00	0	40	104	959447040	76	21054
2026-01-10 01:40:12.87	258.42	6.84	-52.6	-67.8	3.8	1.49e+00	0	40	104	959447040	76	21124
2026-01-10 01:40:15.74	258.14	6.67	-52.6	-67.7	3.8	1.49e+00	0	40	104	959447040	76	20962
2026-01-10 01:40:18.89	257.83	6.48	-52.6	-67.7	3.8	1.49e+00	0	40	104	959447040	76	20968
2026-01-10 01:40:21.76	257.56	6.30	-52.6	-67.8	3.8	1.49e+00	0	40	104	959447040	76	21028
2026-01-10 01:40:24.92	257.26	6.11	-52.6	-67.7	3.8	1.49e+00	0	40	104	959447040	76	20968
2026-01-10 01:40:27.79	256.99	5.94	-52.6	-67.7	3.8	1.49e+00	0	40	104	959447040	76	20996
2026-01-10 01:40:30.95	256.70	5.75	-52.6	-67.8	3.8	1.49e+00	0	40	104	959447040	76	21021
2026-01-10 01:40:33.82	256.44	5.58	-52.6	-67.7	3.8	1.49e+00	0	40	104	959447040	76	20915
2026-01-10 01:40:36.97	256.16	5.40	-52.6	-67.8	3.8	1.49e+00	0	40	104	959447040	76	21101
2026-01-10 01:40:39.84	255.90	5.23	-52.6	-67.8	3.8	1.49e+00	0	40	104	959447040	76	21079
2026-01-10 01:40:43.00	255.62	5.04	-52.6	-67.7	3.8	1.49e+00	0	40	104	959447040	76	21001

#Closed at: 2026-01-10 01:40:45
#Recorded file [959 MB]: D:/Data/31040_260110_043011.dat