passes_logs/2026/01/10/T1/T1__20260110_103008_NOAA_21_JPSS-2_rec.log

#Pass ID: 20260110_103008_NOAA 21 (JPSS-2)
#Satellite: NOAA 21 (JPSS-2)
#Configuration: NOAA 21
#almurnet v.1.7.20251203
#Start time: 2026-01-10 10:30:08

#Version: 2.0.20230620
#Station: T1
#Location: 37.570604 lon 55.790049 lat
#TLE: 1 54234U 22150A   26009.79679979  .00000100  00000+0  68070-4 0  9993
#TLE: 2 54234  98.7494 310.7596 0000833 322.2782  37.8335 14.19533646164071

#Time	Az	El	Level	Level2	SNR	BER	BlckErr	Temp	State	Recorded	gain1	gain2
2026-01-10 10:30:08.50	178.49	5.02	-50.5	-64.2	3.8	1.49e+00	0	37	0	0	73	16612
2026-01-10 10:30:11.51	178.59	5.24	-48.7	-63.6	3.8	1.49e+00	0	38	104	0	69	19454
2026-01-10 10:30:14.52	178.69	5.45	-48.7	-63.5	3.8	1.49e+00	0	38	104	0	69	19317
2026-01-10 10:30:17.53	178.79	5.67	-48.6	-63.6	3.8	1.49e+00	0	38	104	0	69	19513
2026-01-10 10:30:20.54	178.90	5.88	-48.6	-63.7	3.8	1.49e+00	0	38	104	0	69	19738
2026-01-10 10:30:23.56	179.01	6.10	-48.6	-63.8	3.8	1.49e+00	0	38	104	0	69	19964
2026-01-10 10:30:26.57	179.12	6.32	-48.6	-63.7	3.8	1.49e+00	0	39	104	0	69	19756
2026-01-10 10:30:29.58	179.23	6.55	-48.5	-62.7	3.8	1.49e+00	0	38	104	0	69	17572
2026-01-10 10:30:32.60	179.34	6.77	-48.5	-60.9	4.0	1.48e+00	0	39	104	0	68	15152
2026-01-10 10:30:35.61	179.45	7.00	-48.4	-62.2	3.8	1.49e+00	0	39	104	0	68	17680
2026-01-10 10:30:38.63	179.57	7.23	-48.6	-62.9	3.8	1.49e+00	0	39	104	0	68	19039
2026-01-10 10:30:41.64	179.68	7.46	-47.3	-54.9	7.4	1.86e-01	0	39	0	0	66	8511
2026-01-10 10:30:44.65	179.80	7.69	-45.6	-49.9	12.4	2.55e-04	0	39	0	0	63	5712
2026-01-10 10:30:47.66	179.92	7.92	-44.3	-47.7	14.6	0.00e+00	0	39	0	0	60	5236
2026-01-10 10:30:50.68	180.04	8.16	-44.0	-47.0	15.2	0.00e+00	0	39	0	0	59	5143
2026-01-10 10:30:53.69	180.17	8.40	-44.6	-48.1	14.3	0.00e+00	0	39	0	0	59	5801
2026-01-10 10:30:56.70	180.29	8.64	-46.0	-50.8	11.5	5.48e-04	0	39	0	0	62	6718
2026-01-10 10:30:59.72	180.42	8.88	-47.1	-54.4	7.8	5.85e-02	0	39	0	0	64	8968
2026-01-10 10:31:02.73	180.55	9.13	-47.7	-57.3	5.3	5.40e-01	0	40	0	0	66	11270
2026-01-10 10:31:05.74	180.68	9.37	-47.0	-52.0	10.2	1.89e-01	0	40	0	0	66	6084
2026-01-10 10:31:08.75	180.82	9.62	-46.5	-50.6	11.7	9.60e-04	0	40	0	0	65	5479
2026-01-10 10:31:11.76	180.95	9.88	-44.8	-47.5	14.9	0.00e+00	0	40	0	0	61	4843
2026-01-10 10:31:14.77	181.09	10.13	-44.7	-47.3	15.1	0.00e+00	0	40	0	0	61	4726
2026-01-10 10:31:17.78	181.23	10.39	-44.1	-46.6	15.8	0.00e+00	0	40	0	0	60	4638
2026-01-10 10:31:20.79	181.37	10.65	-43.8	-46.2	16.2	0.00e+00	0	40	0	0	59	4675
2026-01-10 10:31:23.80	181.52	10.91	-43.5	-46.0	16.4	0.00e+00	0	40	0	0	59	4551
2026-01-10 10:31:26.81	181.67	11.17	-43.4	-45.8	16.5	0.00e+00	0	40	0	0	58	4747
2026-01-10 10:31:29.82	181.82	11.44	-43.4	-45.7	16.6	0.00e+00	0	40	0	0	58	4705
2026-01-10 10:31:32.83	181.97	11.71	-43.3	-45.7	16.7	0.00e+00	0	40	0	0	58	4674
2026-01-10 10:31:35.84	182.12	11.99	-43.3	-45.6	16.8	0.00e+00	0	40	0	0	58	4621
2026-01-10 10:31:38.86	182.28	12.26	-43.3	-45.5	16.8	0.00e+00	0	40	0	0	58	4592
2026-01-10 10:31:41.87	182.44	12.54	-43.3	-45.6	16.8	0.00e+00	0	40	0	0	58	4619
2026-01-10 10:31:44.88	182.61	12.82	-43.4	-45.6	16.8	0.00e+00	0	40	0	0	58	4617
2026-01-10 10:31:47.89	182.77	13.11	-43.2	-45.4	17.0	0.00e+00	0	40	0	0	58	4496
2026-01-10 10:31:50.90	182.94	13.40	-43.2	-45.4	17.0	0.00e+00	0	40	0	0	58	4515
2026-01-10 10:31:53.91	183.12	13.69	-43.1	-45.2	17.1	0.00e+00	0	41	0	0	58	4437
2026-01-10 10:31:56.92	183.29	13.99	-42.9	-45.0	17.3	0.00e+00	0	40	0	0	57	4598
2026-01-10 10:31:59.93	183.47	14.28	-42.8	-44.9	17.4	0.00e+00	0	40	0	0	57	4532
2026-01-10 10:32:02.94	183.66	14.59	-43.0	-45.0	17.3	0.00e+00	0	40	0	0	57	4590
2026-01-10 10:32:05.95	183.84	14.89	-42.9	-45.0	17.4	0.00e+00	0	40	0	0	57	4552
2026-01-10 10:32:08.96	184.03	15.20	-43.0	-45.1	17.2	0.00e+00	0	40	0	0	57	4626
2026-01-10 10:32:11.97	184.23	15.51	-42.8	-44.9	17.4	0.00e+00	0	41	0	0	57	4513
2026-01-10 10:32:14.99	184.43	15.83	-42.8	-44.9	17.4	0.00e+00	0	40	0	0	57	4508
2026-01-10 10:32:18.00	184.63	16.15	-42.8	-44.9	17.4	0.00e+00	0	40	0	0	57	4526
2026-01-10 10:32:21.01	184.84	16.48	-42.7	-44.8	17.5	0.00e+00	0	40	0	0	57	4474
2026-01-10 10:32:24.02	185.05	16.81	-42.7	-44.8	17.6	0.00e+00	0	41	0	0	57	4463
2026-01-10 10:32:27.03	185.26	17.14	-42.8	-44.9	17.4	0.00e+00	0	40	0	0	57	4537
2026-01-10 10:32:30.04	185.48	17.48	-42.7	-44.8	17.5	0.00e+00	0	40	0	0	57	4493
2026-01-10 10:32:33.05	185.71	17.82	-42.8	-44.9	17.4	0.00e+00	0	41	0	0	57	4518
2026-01-10 10:32:36.06	185.94	18.16	-42.7	-44.8	17.5	0.00e+00	0	41	0	0	57	4473
2026-01-10 10:32:39.06	186.17	18.51	-42.8	-44.9	17.4	0.00e+00	0	41	0	0	57	4511
2026-01-10 10:32:42.07	186.41	18.87	-42.9	-45.0	17.4	0.00e+00	0	41	0	0	57	4558
2026-01-10 10:32:45.09	186.66	19.23	-42.9	-45.0	17.3	0.00e+00	0	41	0	0	57	4586
2026-01-10 10:32:48.10	186.91	19.59	-43.1	-45.2	17.2	0.00e+00	0	41	0	0	57	4699
2026-01-10 10:32:51.10	187.16	19.96	-43.0	-45.1	17.3	0.00e+00	0	41	0	0	57	4633
2026-01-10 10:32:54.11	187.43	20.33	-43.0	-45.0	17.3	0.00e+00	0	41	0	0	57	4585
2026-01-10 10:32:57.12	187.70	20.71	-42.8	-44.8	17.5	0.00e+00	0	41	0	0	57	4478
2026-01-10 10:33:00.13	187.97	21.09	-42.6	-44.6	17.6	0.00e+00	0	41	0	0	57	4389
2026-01-10 10:33:03.14	188.25	21.48	-42.4	-44.4	17.9	0.00e+00	0	41	0	0	56	4505
2026-01-10 10:33:06.15	188.54	21.88	-42.2	-44.2	18.1	0.00e+00	0	41	0	0	56	4407
2026-01-10 10:33:09.16	188.84	22.28	-41.6	-43.5	18.5	0.00e+00	0	41	0	0	55	4318
2026-01-10 10:33:12.17	189.14	22.69	-41.4	-43.2	18.8	0.00e+00	0	41	0	0	54	4432
2026-01-10 10:33:15.18	189.45	23.10	-41.4	-43.3	18.8	0.00e+00	0	41	0	0	54	4453
2026-01-10 10:33:18.19	189.77	23.51	-41.5	-43.3	18.7	0.00e+00	0	41	0	0	54	4487
2026-01-10 10:33:21.20	190.10	23.94	-41.5	-43.4	18.7	0.00e+00	0	41	0	0	54	4500
2026-01-10 10:33:24.21	190.44	24.37	-41.6	-43.4	18.7	0.00e+00	0	41	0	0	54	4532
2026-01-10 10:33:27.22	190.78	24.80	-41.7	-43.5	18.6	0.00e+00	0	41	0	0	54	4589
2026-01-10 10:33:30.23	191.14	25.24	-41.8	-43.6	18.5	0.00e+00	0	41	0	0	54	4630
2026-01-10 10:33:33.24	191.51	25.69	-41.9	-43.8	18.4	0.00e+00	0	41	0	0	54	4714
2026-01-10 10:33:36.25	191.88	26.15	-42.1	-43.9	18.3	0.00e+00	0	41	0	0	54	4802
2026-01-10 10:33:39.26	192.27	26.61	-42.2	-44.2	18.0	0.00e+00	0	41	0	0	55	4656
2026-01-10 10:33:42.27	192.66	27.08	-42.4	-44.3	17.9	0.00e+00	0	41	0	0	55	4754
2026-01-10 10:33:45.28	193.07	27.55	-42.9	-44.8	17.5	0.00e+00	0	41	0	0	56	4744
2026-01-10 10:33:48.29	193.49	28.03	-42.9	-44.9	17.5	0.00e+00	0	41	0	0	56	4765
2026-01-10 10:33:51.30	193.93	28.52	-43.1	-45.1	17.3	0.00e+00	0	41	0	0	56	4915
2026-01-10 10:33:54.31	194.37	29.01	-43.1	-45.1	17.3	0.00e+00	0	41	0	0	57	4639
2026-01-10 10:33:57.32	194.83	29.52	-42.8	-44.8	17.5	0.00e+00	0	41	0	0	57	4473
2026-01-10 10:34:00.33	195.31	30.02	-42.8	-44.7	17.6	0.00e+00	0	41	0	0	57	4430
2026-01-10 10:34:03.34	195.80	30.54	-42.7	-44.7	17.7	0.00e+00	0	41	0	0	57	4424
2026-01-10 10:34:06.35	196.30	31.06	-42.5	-44.5	17.9	0.00e+00	0	41	0	0	57	4317
2026-01-10 10:34:09.36	196.82	31.59	-42.5	-44.4	17.9	0.00e+00	0	41	0	0	56	4544
2026-01-10 10:34:12.37	197.36	32.13	-42.5	-44.4	18.0	0.00e+00	0	41	0	0	56	4536
2026-01-10 10:34:15.38	197.92	32.67	-42.6	-44.5	18.0	0.00e+00	0	41	0	0	56	4563
2026-01-10 10:34:18.39	198.49	33.22	-42.6	-44.5	17.9	0.00e+00	0	41	0	0	56	4579
2026-01-10 10:34:21.40	199.08	33.78	-43.1	-45.1	17.4	0.00e+00	0	41	0	0	56	4915
2026-01-10 10:34:24.41	199.70	34.35	-43.7	-45.8	16.7	0.00e+00	0	41	0	0	58	4749
2026-01-10 10:34:27.42	200.33	34.92	-44.2	-46.4	16.1	0.00e+00	0	41	0	0	59	4801
2026-01-10 10:34:30.43	200.99	35.50	-44.3	-46.6	16.0	0.00e+00	0	41	0	0	59	4907
2026-01-10 10:34:33.44	201.67	36.08	-44.1	-46.4	16.2	0.00e+00	0	41	0	0	59	4761
2026-01-10 10:34:36.45	202.38	36.67	-44.2	-46.5	16.1	0.00e+00	0	41	0	0	59	4822
2026-01-10 10:34:39.46	203.11	37.27	-44.3	-46.5	16.1	0.00e+00	0	41	0	0	59	4850
2026-01-10 10:34:42.47	203.87	37.87	-44.1	-46.3	16.3	0.00e+00	0	41	0	0	59	4727
2026-01-10 10:34:45.48	204.65	38.47	-44.3	-46.5	16.0	0.00e+00	0	41	0	0	59	4847
2026-01-10 10:34:48.49	205.47	39.09	-44.7	-47.2	15.4	0.00e+00	0	41	0	0	60	4931
2026-01-10 10:34:51.50	206.32	39.70	-44.7	-47.1	15.5	0.00e+00	0	41	0	0	60	4898
2026-01-10 10:34:54.50	207.19	40.32	-44.9	-47.4	15.3	0.00e+00	0	41	0	0	60	5052
2026-01-10 10:34:57.51	208.10	40.94	-44.5	-46.8	15.8	0.00e+00	0	41	0	0	60	4718
2026-01-10 10:35:00.52	209.05	41.57	-44.6	-47.0	15.7	0.00e+00	0	41	0	0	60	4826
2026-01-10 10:35:03.53	210.04	42.19	-44.4	-46.8	15.8	0.00e+00	0	41	0	0	60	4730
2026-01-10 10:35:06.54	211.06	42.82	-44.6	-47.0	15.6	0.00e+00	0	41	0	0	60	4860
2026-01-10 10:35:09.55	212.12	43.45	-45.3	-47.9	14.8	0.00e+00	0	41	0	0	61	5085
2026-01-10 10:35:12.56	213.23	44.08	-45.2	-47.8	14.9	0.00e+00	0	41	0	0	61	4987
2026-01-10 10:35:15.57	214.38	44.70	-45.0	-47.5	15.2	7.00e-07	0	41	0	0	61	4832
2026-01-10 10:35:18.58	215.57	45.33	-44.6	-47.0	15.6	0.00e+00	0	41	0	0	61	4586
2026-01-10 10:35:21.59	216.81	45.94	-44.3	-46.5	16.1	0.00e+00	0	41	0	0	60	4596
2026-01-10 10:35:24.60	218.10	46.56	-44.4	-46.6	16.1	0.00e+00	0	41	0	0	60	4641
2026-01-10 10:35:27.61	219.44	47.16	-44.6	-47.0	15.7	0.00e+00	0	41	0	0	60	4835
2026-01-10 10:35:30.62	220.84	47.76	-44.7	-47.0	15.6	0.00e+00	0	41	0	0	60	4864
2026-01-10 10:35:33.63	222.28	48.34	-44.8	-47.1	15.5	0.00e+00	0	41	0	0	60	4907
2026-01-10 10:35:36.65	223.79	48.92	-45.0	-47.4	15.1	0.00e+00	0	41	0	0	60	5092
2026-01-10 10:35:39.66	225.34	49.48	-44.5	-46.8	15.8	0.00e+00	0	41	0	0	60	4736
2026-01-10 10:35:42.67	226.96	50.02	-44.5	-46.9	15.8	0.00e+00	0	41	0	0	60	4799
2026-01-10 10:35:45.68	228.63	50.54	-44.0	-46.2	16.3	0.00e+00	0	41	0	0	59	4684
2026-01-10 10:35:48.69	230.35	51.05	-43.7	-45.8	16.8	0.00e+00	0	41	0	0	59	4474
2026-01-10 10:35:51.70	232.14	51.53	-43.4	-45.4	17.1	0.00e+00	0	41	0	0	58	4542
2026-01-10 10:35:54.71	233.98	51.99	-43.4	-45.5	17.2	0.00e+00	0	41	0	0	58	4555
2026-01-10 10:35:57.72	235.88	52.42	-43.4	-45.5	17.1	0.00e+00	0	41	0	0	58	4547
2026-01-10 10:36:00.73	237.83	52.82	-43.3	-45.4	17.2	0.00e+00	0	41	0	0	58	4527
2026-01-10 10:36:03.74	239.83	53.19	-43.6	-45.7	16.9	0.00e+00	0	41	0	0	58	4660
2026-01-10 10:36:06.75	241.88	53.52	-43.2	-45.2	17.3	0.00e+00	0	41	0	0	58	4396
2026-01-10 10:36:09.76	243.97	53.82	-44.0	-46.2	16.2	0.00e+00	0	42	0	0	58	4967
2026-01-10 10:36:12.77	246.11	54.09	-43.3	-45.4	16.9	0.00e+00	0	41	0	0	58	4503
2026-01-10 10:36:15.78	248.28	54.31	-43.4	-45.4	17.2	0.00e+00	0	41	0	0	58	4516
2026-01-10 10:36:18.80	250.49	54.50	-43.2	-45.2	17.3	0.00e+00	0	42	0	0	58	4423
2026-01-10 10:36:21.80	252.71	54.64	-43.0	-44.9	17.6	0.00e+00	0	41	0	0	57	4535
2026-01-10 10:36:24.81	254.95	54.74	-43.1	-45.1	17.5	0.00e+00	0	41	0	0	57	4634
2026-01-10 10:36:27.83	257.22	54.79	-43.2	-45.2	17.3	0.00e+00	0	41	0	0	57	4683
2026-01-10 10:36:30.84	259.48	54.81	-43.2	-45.2	17.3	0.00e+00	0	42	0	0	57	4687
2026-01-10 10:36:33.85	261.74	54.77	-43.4	-45.4	17.2	0.00e+00	0	41	0	0	57	4783
2026-01-10 10:36:36.86	263.99	54.70	-43.7	-45.9	16.6	0.00e+00	0	41	0	0	58	4791
2026-01-10 10:36:39.87	266.23	54.58	-43.0	-45.0	17.6	0.00e+00	0	41	0	0	58	4327
2026-01-10 10:36:42.88	268.44	54.42	-43.0	-44.9	17.5	0.00e+00	0	41	0	0	57	4523
2026-01-10 10:36:45.89	270.63	54.22	-43.3	-45.4	17.1	0.00e+00	0	42	0	0	57	4769
2026-01-10 10:36:48.90	272.79	53.98	-42.7	-44.6	17.9	0.00e+00	0	42	0	0	57	4343
2026-01-10 10:36:51.91	274.90	53.70	-43.1	-45.1	17.4	0.00e+00	0	41	0	0	57	4615
2026-01-10 10:36:54.92	276.97	53.39	-43.5	-45.6	17.0	0.00e+00	0	42	0	0	57	4913
2026-01-10 10:36:57.93	279.00	53.04	-43.6	-45.6	17.0	0.00e+00	0	41	0	0	57	4919
2026-01-10 10:37:00.94	280.98	52.65	-43.3	-45.4	17.3	0.00e+00	0	41	0	0	57	4784
2026-01-10 10:37:03.95	282.90	52.24	-43.4	-45.4	17.1	0.00e+00	0	41	0	0	57	4783
2026-01-10 10:37:06.97	284.77	51.80	-44.3	-46.6	16.0	0.00e+00	0	41	0	0	59	4878
2026-01-10 10:37:09.98	286.59	51.33	-44.7	-47.1	15.5	0.00e+00	0	42	0	0	60	4905
2026-01-10 10:37:12.99	288.34	50.85	-43.9	-46.1	16.6	0.00e+00	0	42	0	0	59	4614
2026-01-10 10:37:16.00	290.04	50.33	-44.2	-46.4	16.4	0.00e+00	0	41	0	0	59	4768
2026-01-10 10:37:19.01	291.69	49.80	-43.9	-46.1	16.6	0.00e+00	0	41	0	0	59	4624
2026-01-10 10:37:22.02	293.27	49.26	-44.2	-46.3	16.4	0.00e+00	0	42	0	0	59	4755
2026-01-10 10:37:25.03	294.80	48.69	-44.4	-46.7	16.0	0.00e+00	0	41	0	0	59	4969
2026-01-10 10:37:28.04	296.27	48.12	-44.7	-47.0	15.8	0.00e+00	0	42	0	0	60	4817
2026-01-10 10:37:31.05	297.69	47.53	-44.5	-46.8	15.9	0.00e+00	0	42	0	0	60	4751
2026-01-10 10:37:34.07	299.06	46.93	-44.7	-47.1	15.7	0.00e+00	0	42	0	0	60	4913
2026-01-10 10:37:37.08	300.38	46.32	-44.3	-46.6	16.2	0.00e+00	0	42	0	0	60	4620
2026-01-10 10:37:40.09	301.65	45.71	-44.4	-46.8	16.0	0.00e+00	0	42	0	0	60	4720
2026-01-10 10:37:43.10	302.87	45.10	-44.7	-47.1	15.7	0.00e+00	0	41	0	0	60	4906
2026-01-10 10:37:46.11	304.04	44.48	-45.2	-47.7	15.1	7.00e-07	0	42	0	0	61	4965
2026-01-10 10:37:49.12	305.16	43.85	-45.5	-48.2	14.6	7.00e-07	0	42	0	0	61	5230
2026-01-10 10:37:52.14	306.25	43.23	-44.7	-47.1	15.7	0.00e+00	0	42	0	0	61	4628
2026-01-10 10:37:55.14	307.29	42.60	-44.6	-47.0	15.7	0.00e+00	0	41	0	0	61	4563
2026-01-10 10:37:58.15	308.30	41.98	-44.8	-47.3	15.5	0.00e+00	0	42	0	0	61	4724
2026-01-10 10:38:01.16	309.27	41.36	-44.5	-46.8	15.8	0.00e+00	0	42	0	0	61	4479
2026-01-10 10:38:04.18	310.20	40.73	-45.1	-47.6	15.1	0.00e+00	0	42	0	0	61	4926
2026-01-10 10:38:07.18	311.09	40.12	-45.2	-47.7	15.1	0.00e+00	0	42	0	0	61	4954
2026-01-10 10:38:10.19	311.96	39.50	-44.8	-47.2	15.6	0.00e+00	0	42	0	0	61	4678
2026-01-10 10:38:13.21	312.79	38.89	-44.5	-46.8	16.0	0.00e+00	0	41	0	0	60	4726
2026-01-10 10:38:16.22	313.59	38.28	-44.0	-46.1	16.6	0.00e+00	0	42	0	0	59	4622
2026-01-10 10:38:19.22	314.36	37.68	-44.3	-46.5	16.1	0.00e+00	0	41	0	0	59	4867
2026-01-10 10:38:22.23	315.11	37.09	-44.3	-46.5	16.2	0.00e+00	0	42	0	0	59	4837
2026-01-10 10:38:25.24	315.83	36.50	-44.0	-46.1	16.6	0.00e+00	0	42	0	0	59	4647
2026-01-10 10:38:28.25	316.52	35.91	-43.9	-46.0	16.6	0.00e+00	0	42	0	0	59	4592
2026-01-10 10:38:31.26	317.19	35.34	-43.9	-46.0	16.6	0.00e+00	0	42	0	0	59	4592
2026-01-10 10:38:34.27	317.84	34.77	-43.3	-45.3	17.3	0.00e+00	0	42	0	0	58	4481
2026-01-10 10:38:37.29	318.47	34.20	-43.6	-45.7	16.9	0.00e+00	0	42	0	0	58	4669
2026-01-10 10:38:40.30	319.07	33.64	-43.8	-46.0	16.7	0.00e+00	0	42	0	0	58	4826
2026-01-10 10:38:43.31	319.66	33.09	-43.1	-45.2	17.5	0.00e+00	0	42	0	0	58	4401
2026-01-10 10:38:46.32	320.22	32.54	-43.1	-45.2	17.4	0.00e+00	0	42	0	0	58	4426
2026-01-10 10:38:49.33	320.77	32.01	-42.8	-44.8	17.8	0.00e+00	0	42	0	0	57	4485
2026-01-10 10:38:52.34	321.30	31.48	-42.7	-44.6	18.0	0.00e+00	0	42	0	0	57	4375
2026-01-10 10:38:55.34	321.81	30.95	-42.4	-44.3	18.2	0.00e+00	0	42	0	0	56	4486
2026-01-10 10:38:58.35	322.31	30.44	-42.7	-44.7	17.8	0.00e+00	0	42	0	0	56	4678
2026-01-10 10:39:01.35	322.79	29.93	-42.8	-44.9	17.6	0.00e+00	0	42	0	0	56	4777
2026-01-10 10:39:04.37	323.26	29.42	-42.8	-44.8	17.7	0.00e+00	0	42	0	0	56	4723
2026-01-10 10:39:07.36	323.72	28.93	-42.5	-44.5	18.1	0.00e+00	0	42	0	0	56	4552
2026-01-10 10:39:10.37	324.16	28.44	-42.5	-44.4	18.1	0.00e+00	0	42	0	0	56	4524
2026-01-10 10:39:13.39	324.59	27.96	-42.5	-44.5	18.0	0.00e+00	0	42	0	0	56	4582
2026-01-10 10:39:16.39	325.00	27.48	-42.4	-44.4	18.1	0.00e+00	0	42	0	0	56	4502
2026-01-10 10:39:19.41	325.41	27.01	-42.5	-44.5	18.0	0.00e+00	0	42	0	0	56	4552
2026-01-10 10:39:22.42	325.80	26.55	-42.5	-44.4	18.0	0.00e+00	0	42	0	0	56	4536
2026-01-10 10:39:25.43	326.18	26.10	-42.6	-44.5	18.0	0.00e+00	0	42	0	0	56	4580
2026-01-10 10:39:28.44	326.56	25.65	-42.5	-44.5	18.0	0.00e+00	0	42	0	0	56	4567
2026-01-10 10:39:31.45	326.92	25.20	-42.3	-44.2	18.2	0.00e+00	0	42	0	0	56	4434
2026-01-10 10:39:34.46	327.27	24.77	-42.4	-44.4	18.1	0.00e+00	0	42	0	0	56	4500
2026-01-10 10:39:37.47	327.61	24.34	-42.2	-44.3	18.1	0.00e+00	0	42	0	0	56	4466
2026-01-10 10:39:40.48	327.95	23.91	-42.2	-44.3	18.1	0.00e+00	0	42	0	0	56	4450
2026-01-10 10:39:43.49	328.27	23.49	-42.3	-44.2	18.2	0.00e+00	0	42	0	0	56	4433
2026-01-10 10:39:46.50	328.59	23.08	-42.3	-44.2	18.2	0.00e+00	0	42	0	0	56	4416
2026-01-10 10:39:49.51	328.90	22.67	-42.2	-44.2	18.2	0.00e+00	0	42	0	0	56	4393
2026-01-10 10:39:52.52	329.20	22.27	-42.3	-44.2	18.1	0.00e+00	0	42	0	0	56	4422
2026-01-10 10:39:55.54	329.50	21.87	-42.4	-44.3	18.1	0.00e+00	0	42	0	0	56	4485
2026-01-10 10:39:58.55	329.79	21.48	-42.6	-44.6	17.8	0.00e+00	0	42	0	0	56	4624
2026-01-10 10:40:01.55	330.07	21.10	-42.6	-44.6	17.8	0.00e+00	0	42	0	0	56	4644
2026-01-10 10:40:04.57	330.34	20.72	-42.7	-44.8	17.7	0.00e+00	0	42	0	0	56	4723
2026-01-10 10:40:07.58	330.61	20.34	-42.8	-44.8	17.6	0.00e+00	0	42	0	0	56	4744
2026-01-10 10:40:10.59	330.87	19.97	-42.8	-44.8	17.5	0.00e+00	0	42	0	0	56	4757
2026-01-10 10:40:13.60	331.13	19.61	-42.8	-44.9	17.5	0.00e+00	0	42	0	0	56	4761
2026-01-10 10:40:16.61	331.38	19.25	-42.4	-44.4	17.9	0.00e+00	0	42	0	0	56	4516
2026-01-10 10:40:19.62	331.62	18.89	-42.2	-44.2	18.0	0.00e+00	0	42	0	0	56	4436
2026-01-10 10:40:22.63	331.86	18.54	-42.4	-44.5	17.9	0.00e+00	0	42	0	0	56	4550
2026-01-10 10:40:25.64	332.10	18.19	-42.2	-44.3	18.1	0.00e+00	0	42	0	0	56	4443
2026-01-10 10:40:28.65	332.32	17.85	-42.2	-44.3	18.1	0.00e+00	0	42	0	0	56	4446
2026-01-10 10:40:31.66	332.55	17.52	-42.4	-44.4	18.0	0.00e+00	0	42	0	0	56	4494
2026-01-10 10:40:34.67	332.77	17.18	-42.4	-44.4	18.0	0.00e+00	0	42	0	0	56	4515
2026-01-10 10:40:37.68	332.98	16.85	-42.5	-44.5	17.9	0.00e+00	0	42	0	0	56	4574
2026-01-10 10:40:40.69	333.20	16.53	-42.6	-44.7	17.6	0.00e+00	0	42	0	0	56	4697
2026-01-10 10:40:43.70	333.40	16.21	-42.9	-44.9	17.4	0.00e+00	0	42	0	0	56	4813
2026-01-10 10:40:46.71	333.60	15.89	-43.1	-45.2	17.2	0.00e+00	0	42	0	0	56	4928
2026-01-10 10:40:49.73	333.80	15.57	-43.2	-45.3	17.0	0.00e+00	0	42	0	0	57	4755
2026-01-10 10:40:52.74	334.00	15.26	-43.2	-45.4	17.0	0.00e+00	0	42	0	0	57	4790
2026-01-10 10:40:55.74	334.19	14.96	-43.0	-45.4	17.0	0.00e+00	0	42	0	0	57	4782
2026-01-10 10:40:58.76	334.38	14.66	-43.1	-45.5	16.9	0.00e+00	0	42	0	0	57	4816
2026-01-10 10:41:01.77	334.56	14.36	-43.2	-45.4	17.0	0.00e+00	0	42	0	0	57	4799
2026-01-10 10:41:04.78	334.74	14.06	-43.3	-45.5	16.9	0.00e+00	0	42	0	0	57	4826
2026-01-10 10:41:07.78	334.92	13.77	-43.4	-45.6	16.8	0.00e+00	0	42	0	0	57	4898
2026-01-10 10:41:10.79	335.09	13.48	-43.3	-45.6	16.7	0.00e+00	0	42	0	0	57	4897
2026-01-10 10:41:13.80	335.27	13.19	-43.4	-45.7	16.6	0.00e+00	0	42	0	0	57	4956
2026-01-10 10:41:16.81	335.43	12.91	-43.5	-45.8	16.5	0.00e+00	0	42	0	0	57	4993
2026-01-10 10:41:19.82	335.60	12.63	-43.7	-45.9	16.4	0.00e+00	0	42	0	0	57	5099
2026-01-10 10:41:22.83	335.76	12.35	-43.9	-46.3	16.1	0.00e+00	0	42	0	0	58	5000
2026-01-10 10:41:25.84	335.92	12.08	-43.5	-45.8	16.5	0.00e+00	0	42	0	0	58	4747
2026-01-10 10:41:28.85	336.08	11.81	-43.6	-46.2	16.2	0.00e+00	0	42	0	0	58	4930
2026-01-10 10:41:31.86	336.23	11.54	-43.4	-46.0	16.3	0.00e+00	0	42	0	0	58	4825
2026-01-10 10:41:34.87	336.38	11.28	-43.6	-46.3	16.0	0.00e+00	0	42	0	0	58	5023
2026-01-10 10:41:37.88	336.53	11.01	-43.7	-46.3	16.0	0.00e+00	0	42	0	0	58	4998
2026-01-10 10:41:40.89	336.68	10.75	-43.7	-46.3	15.9	0.00e+00	0	42	0	0	58	5037
2026-01-10 10:41:43.90	336.82	10.50	-43.6	-46.1	16.2	0.00e+00	0	42	0	0	58	4907
2026-01-10 10:41:46.91	336.97	10.24	-43.7	-46.2	16.1	0.00e+00	0	42	0	0	58	4944
2026-01-10 10:41:49.92	337.11	9.99	-43.6	-46.1	16.2	0.00e+00	0	42	0	0	58	4879
2026-01-10 10:41:52.93	337.24	9.74	-43.6	-46.1	16.1	0.00e+00	0	42	0	0	58	4884
2026-01-10 10:41:55.94	337.38	9.49	-43.6	-46.1	16.1	0.00e+00	0	42	0	0	58	4887
2026-01-10 10:41:58.94	337.51	9.25	-43.6	-46.2	16.0	0.00e+00	0	42	0	0	58	4958
2026-01-10 10:42:01.96	337.65	9.00	-49.5	-62.4	3.8	1.61e-03	0	42	104	0	69	16933
2026-01-10 10:42:04.97	337.78	8.76	-49.9	-64.0	3.8	1.49e+00	0	42	104	0	71	18134
2026-01-10 10:42:07.99	337.90	8.52	-50.6	-64.2	3.8	1.49e+00	0	42	104	0	71	18562
2026-01-10 10:42:11.00	338.03	8.29	-50.4	-64.2	3.8	1.49e+00	0	42	104	0	72	17558
2026-01-10 10:42:14.01	338.15	8.05	-51.0	-64.2	3.8	1.49e+00	0	42	104	0	73	16596
2026-01-10 10:42:17.03	338.28	7.82	-50.9	-64.2	3.8	1.49e+00	0	42	104	0	73	16622
2026-01-10 10:42:20.04	338.40	7.59	-51.1	-64.2	3.8	1.49e+00	0	42	104	0	73	16573
2026-01-10 10:42:23.05	338.52	7.36	-51.1	-64.2	3.8	1.49e+00	0	42	104	0	73	16583
2026-01-10 10:42:26.06	338.64	7.13	-50.9	-64.2	3.8	1.49e+00	0	42	104	0	73	16563
2026-01-10 10:42:29.08	338.75	6.91	-51.0	-64.1	3.8	1.49e+00	0	42	104	0	73	16443
2026-01-10 10:42:32.09	338.87	6.69	-51.0	-64.1	3.8	1.49e+00	0	42	104	0	73	16460
2026-01-10 10:42:35.10	338.98	6.46	-51.0	-64.1	3.8	1.49e+00	0	42	104	0	73	16433
2026-01-10 10:42:38.12	339.09	6.24	-51.0	-64.1	3.8	1.49e+00	0	42	104	0	73	16480
2026-01-10 10:42:41.13	339.20	6.03	-51.0	-64.1	3.8	1.49e+00	0	42	104	0	73	16480
2026-01-10 10:42:44.14	339.31	5.81	-51.0	-64.1	3.8	1.49e+00	0	42	104	0	73	16466
2026-01-10 10:42:47.16	339.42	5.60	-51.0	-64.2	3.8	1.49e+00	0	42	104	0	73	16531
2026-01-10 10:42:50.17	339.52	5.39	-51.0	-64.1	3.8	1.49e+00	0	42	104	0	73	16465
2026-01-10 10:42:53.18	339.63	5.18	-51.0	-64.1	3.8	1.49e+00	0	42	104	0	73	16418
2026-01-10 10:42:56.20	339.73	4.97	-51.0	-64.1	3.8	1.49e+00	0	43	104	0	73	16480

#Closed at: 2026-01-10 10:42:57
#Recorded file [0 MB]: D:/Data/31040_260110_133008.dat