passes_logs/2026/01/10/T1/T1__20260110_080159_NOAA_20_JPSS-1_rec.log

#Pass ID: 20260110_080159_NOAA 20 (JPSS-1)
#Satellite: NOAA 20 (JPSS-1)
#Configuration: NOAA 20
#almurnet v.1.7.20251203
#Start time: 2026-01-10 08:02:00

#Version: 2.0.20230620
#Station: T1
#Location: 37.570604 lon 55.790049 lat
#TLE: 1 43013U 17073A   26009.26828276  .00000112  00000+0  74203-4 0  9990
#TLE: 2 43013  98.7631 310.2683 0001700  47.4387 312.6933 14.19534764421920

#Time	Az	El	Level	Level2	SNR	BER	BlckErr	Temp	State	Recorded	gain1	gain2
2026-01-10 08:02:00.78	99.57	5.08	-50.5	-65.7	3.8	1.49e+00	0	41	0	0	72	20880
2026-01-10 08:02:03.79	99.28	5.25	-50.5	-65.7	3.8	1.49e+00	0	41	104	0	72	20794
2026-01-10 08:02:06.81	98.99	5.43	-50.5	-65.7	3.8	1.49e+00	0	41	104	0	72	20808
2026-01-10 08:02:09.82	98.70	5.60	-50.5	-65.7	3.8	1.49e+00	0	41	104	0	72	20812
2026-01-10 08:02:12.83	98.41	5.77	-50.5	-65.7	3.8	1.49e+00	0	41	104	0	72	20839
2026-01-10 08:02:15.85	98.11	5.94	-50.5	-65.7	3.8	1.49e+00	0	42	104	0	72	20899
2026-01-10 08:02:18.86	97.81	6.12	-50.5	-65.7	3.8	1.49e+00	0	42	104	0	72	20950
2026-01-10 08:02:21.87	97.50	6.29	-50.4	-65.7	3.8	1.49e+00	0	42	104	0	72	20810
2026-01-10 08:02:24.89	97.19	6.46	-50.4	-65.5	3.8	1.49e+00	0	42	104	0	72	20532
2026-01-10 08:02:27.90	96.88	6.64	-50.4	-65.4	3.8	1.49e+00	0	42	104	0	72	20291
2026-01-10 08:02:30.91	96.56	6.81	-50.4	-65.4	3.8	1.49e+00	0	42	104	0	72	20300
2026-01-10 08:02:33.93	96.24	6.99	-50.4	-65.4	3.8	1.49e+00	0	42	104	0	72	20233
2026-01-10 08:02:36.94	95.92	7.16	-50.4	-65.2	3.8	1.49e+00	0	42	104	0	72	19804
2026-01-10 08:02:39.95	95.59	7.34	-50.4	-65.1	3.8	1.49e+00	0	42	104	0	72	19569
2026-01-10 08:02:42.97	95.26	7.51	-50.4	-65.6	3.8	1.49e+00	0	42	104	0	72	20562
2026-01-10 08:02:45.98	94.92	7.69	-50.4	-65.7	3.8	1.49e+00	0	43	104	0	72	20805
2026-01-10 08:02:48.99	94.58	7.87	-50.4	-64.9	3.8	1.49e+00	0	42	104	0	72	19135
2026-01-10 08:02:52.00	94.23	8.04	-50.3	-63.8	3.8	1.49e+00	0	42	104	0	72	16836
2026-01-10 08:02:55.02	93.88	8.22	-50.4	-65.5	3.8	1.49e+00	0	43	104	0	72	20442
2026-01-10 08:02:58.03	93.53	8.40	-49.7	-58.1	6.4	5.36e-01	0	43	0	2097152	71	9235
2026-01-10 08:03:01.04	93.17	8.57	-48.4	-53.7	10.7	4.91e-03	0	43	0	7340032	68	6619
2026-01-10 08:03:04.06	92.81	8.75	-48.8	-54.9	9.6	6.99e-03	0	43	0	13631488	68	7555
2026-01-10 08:03:07.07	92.44	8.93	-50.2	-61.6	4.4	6.67e-01	0	43	0	18874368	70	14644
2026-01-10 08:03:10.08	92.07	9.11	-49.8	-58.9	5.7	1.38e+00	0	43	104	18874368	71	10163
2026-01-10 08:03:13.27	91.67	9.30	-49.5	-57.1	7.6	1.11e+00	0	43	0	19922944	70	8663
2026-01-10 08:03:16.24	91.29	9.47	-50.0	-59.2	5.6	3.99e-01	0	43	0	20971520	71	10434
2026-01-10 08:03:19.60	90.86	9.67	-50.2	-60.3	5.0	7.56e-01	0	43	0	27262976	71	11855
2026-01-10 08:03:22.35	90.50	9.83	-49.7	-57.7	7.3	1.05e-01	0	43	0	28311552	70	9313
2026-01-10 08:03:25.69	90.06	10.03	-47.7	-52.4	12.1	5.23e-04	0	43	0	32505856	67	6037
2026-01-10 08:03:28.56	89.68	10.20	-47.0	-51.0	13.5	9.90e-06	0	43	0	37748736	66	5436
2026-01-10 08:03:31.74	89.25	10.39	-47.1	-51.1	13.4	1.22e-05	0	43	0	42991616	66	5514
2026-01-10 08:03:34.75	88.84	10.57	-47.0	-50.9	13.6	8.30e-06	0	43	0	49283072	66	5385
2026-01-10 08:03:37.76	88.42	10.74	-47.0	-50.8	13.7	9.10e-06	0	43	0	54525952	66	5340
2026-01-10 08:03:40.78	88.00	10.92	-47.1	-51.2	13.4	6.80e-06	0	43	0	60817408	66	5538
2026-01-10 08:03:43.74	87.58	11.09	-46.9	-50.8	13.7	3.80e-06	0	43	0	66060288	65	5654
2026-01-10 08:03:46.77	87.15	11.27	-47.0	-51.2	13.4	1.90e-05	0	43	0	71303168	65	5868
2026-01-10 08:03:49.77	86.71	11.45	-47.1	-51.3	13.3	4.42e-05	0	43	0	77594624	65	5928
2026-01-10 08:03:52.78	86.27	11.62	-46.9	-51.0	13.6	1.14e-05	0	43	0	82837504	65	5732
2026-01-10 08:03:55.74	85.83	11.80	-46.9	-50.9	13.7	4.50e-06	0	43	0	88080384	65	5689
2026-01-10 08:03:59.10	85.32	11.99	-46.8	-50.9	13.7	6.10e-06	0	43	0	94371840	65	5673
2026-01-10 08:04:01.82	84.91	12.15	-46.9	-51.0	13.6	6.10e-06	0	43	0	99614720	65	5747
2026-01-10 08:04:05.17	84.39	12.34	-46.8	-50.9	13.7	8.30e-06	0	43	0	105906176	65	5712
2026-01-10 08:04:08.22	83.91	12.52	-46.8	-50.8	13.8	9.10e-06	0	43	0	112197632	65	5618
2026-01-10 08:04:11.47	83.40	12.71	-46.6	-50.3	14.3	1.50e-06	0	43	0	117440512	65	5318
2026-01-10 08:04:14.37	82.93	12.87	-46.6	-50.2	14.4	1.50e-06	0	43	0	123731968	65	5267
2026-01-10 08:04:17.38	82.44	13.04	-46.4	-49.9	14.7	0.00e+00	0	43	0	128974848	64	5388
2026-01-10 08:04:20.39	81.95	13.21	-46.3	-49.8	14.8	0.00e+00	0	43	0	134217728	64	5319
2026-01-10 08:04:23.40	81.45	13.38	-46.1	-49.5	15.1	0.00e+00	0	43	0	140509184	64	5140
2026-01-10 08:04:26.40	80.95	13.55	-46.1	-49.5	15.1	0.00e+00	0	43	0	145752064	64	5148
2026-01-10 08:04:29.41	80.44	13.72	-46.0	-49.3	15.4	0.00e+00	0	43	0	152043520	64	4987
2026-01-10 08:04:32.41	79.92	13.88	-46.1	-49.3	15.4	0.00e+00	0	43	0	157286400	63	5290
2026-01-10 08:04:35.42	79.40	14.05	-46.0	-49.1	15.6	0.00e+00	0	43	0	162529280	63	5212
2026-01-10 08:04:38.43	78.87	14.21	-45.9	-49.1	15.7	0.00e+00	0	43	0	168820736	63	5178
2026-01-10 08:04:41.44	78.34	14.37	-45.8	-48.9	15.8	0.00e+00	0	43	0	174063616	63	5060
2026-01-10 08:04:44.46	77.79	14.53	-45.7	-48.7	16.1	0.00e+00	0	43	0	179306496	63	4945
2026-01-10 08:04:47.46	77.25	14.69	-45.4	-48.3	16.4	0.00e+00	0	43	0	185597952	62	5013
2026-01-10 08:04:50.47	76.70	14.85	-45.5	-48.4	16.3	0.00e+00	0	43	0	190840832	62	5092
2026-01-10 08:04:53.48	76.14	15.01	-45.5	-48.4	16.3	0.00e+00	0	43	0	197132288	62	5090
2026-01-10 08:04:56.49	75.57	15.16	-45.4	-48.3	16.5	0.00e+00	0	43	0	202375168	62	4996
2026-01-10 08:04:59.50	75.00	15.31	-45.5	-48.4	16.3	0.00e+00	0	43	0	207618048	62	5095
2026-01-10 08:05:02.51	74.43	15.46	-45.7	-48.7	16.1	0.00e+00	0	43	0	213909504	62	5232
2026-01-10 08:05:05.52	73.85	15.61	-45.8	-48.8	16.0	0.00e+00	0	43	0	219152384	62	5304
2026-01-10 08:05:08.53	73.26	15.76	-45.8	-48.8	15.9	0.00e+00	0	43	0	224395264	62	5328
2026-01-10 08:05:11.54	72.67	15.90	-45.7	-48.7	16.1	0.00e+00	0	44	0	230686720	62	5261
2026-01-10 08:05:14.54	72.07	16.04	-45.6	-48.6	16.2	0.00e+00	0	43	0	235929600	62	5172
2026-01-10 08:05:17.55	71.47	16.18	-45.7	-48.7	16.1	0.00e+00	0	43	0	242221056	62	5232
2026-01-10 08:05:20.56	70.86	16.32	-45.4	-48.3	16.5	0.00e+00	0	43	0	247463936	62	5010
2026-01-10 08:05:23.57	70.24	16.45	-45.2	-48.0	16.8	0.00e+00	0	43	0	252706816	62	4828
2026-01-10 08:05:26.58	69.62	16.58	-45.2	-48.0	16.8	0.00e+00	0	44	0	258998272	62	4818
2026-01-10 08:05:29.58	69.00	16.71	-45.1	-47.9	16.9	0.00e+00	0	43	0	264241152	62	4783
2026-01-10 08:05:32.59	68.36	16.84	-45.2	-48.0	16.8	0.00e+00	0	43	0	270532608	62	4836
2026-01-10 08:05:35.60	67.73	16.96	-45.2	-48.0	16.8	0.00e+00	0	44	0	275775488	62	4815
2026-01-10 08:05:38.64	67.08	17.08	-45.1	-47.8	17.0	0.00e+00	0	43	0	281018368	62	4732
2026-01-10 08:05:41.69	66.42	17.20	-45.2	-48.0	16.9	0.00e+00	0	43	0	287309824	62	4820
2026-01-10 08:05:44.66	65.78	17.31	-45.1	-47.8	17.0	0.00e+00	0	44	0	292552704	62	4732
2026-01-10 08:05:47.80	65.09	17.43	-45.3	-48.2	16.6	0.00e+00	0	44	0	298844160	62	4933
2026-01-10 08:05:50.86	64.42	17.54	-45.2	-48.0	16.8	0.00e+00	0	44	0	304087040	62	4851
2026-01-10 08:05:54.01	63.72	17.64	-45.2	-48.0	16.8	0.00e+00	0	43	0	310378496	62	4857
2026-01-10 08:05:56.88	63.08	17.74	-45.1	-47.9	16.9	0.00e+00	0	44	0	315621376	62	4761
2026-01-10 08:06:00.06	62.37	17.84	-45.1	-47.9	16.9	0.00e+00	0	43	0	321912832	62	4781
2026-01-10 08:06:03.33	61.63	17.94	-45.2	-48.0	16.8	0.00e+00	0	44	0	327155712	62	4841
2026-01-10 08:06:06.05	61.01	18.02	-45.3	-48.1	16.7	0.00e+00	0	44	0	332398592	62	4913
2026-01-10 08:06:09.58	60.20	18.12	-45.7	-48.7	16.1	0.00e+00	0	44	0	339738624	62	5276
2026-01-10 08:06:12.30	59.58	18.19	-45.9	-48.9	15.9	0.00e+00	0	44	0	344981504	62	5395
2026-01-10 08:06:15.60	58.82	18.27	-45.8	-48.8	16.0	0.00e+00	0	44	0	350224384	62	5312
2026-01-10 08:06:18.32	58.18	18.34	-45.6	-48.6	16.2	0.00e+00	0	44	0	355467264	62	5163
2026-01-10 08:06:21.62	57.41	18.41	-45.8	-48.8	16.1	0.00e+00	0	43	0	361758720	62	5284
2026-01-10 08:06:24.52	56.73	18.47	-45.9	-49.0	15.8	0.00e+00	0	44	0	367001600	62	5431
2026-01-10 08:06:27.53	56.03	18.53	-46.1	-49.2	15.6	0.00e+00	0	44	0	373293056	62	5563
2026-01-10 08:06:30.54	55.32	18.58	-46.2	-49.5	15.3	0.00e+00	0	44	0	378535936	63	5432
2026-01-10 08:06:33.58	54.60	18.63	-46.1	-49.3	15.6	0.00e+00	0	44	0	384827392	63	5281
2026-01-10 08:06:36.75	53.84	18.68	-46.0	-49.2	15.7	0.00e+00	0	43	0	390070272	63	5241
2026-01-10 08:06:39.70	53.14	18.72	-46.1	-49.3	15.5	0.00e+00	0	43	0	396361728	63	5313
2026-01-10 08:06:43.09	52.33	18.76	-46.1	-49.3	15.5	0.00e+00	0	44	0	402653184	63	5309
2026-01-10 08:06:45.81	51.68	18.79	-46.1	-49.3	15.6	0.00e+00	0	43	0	406847488	63	5305
2026-01-10 08:06:49.15	50.88	18.82	-46.0	-49.1	15.7	0.00e+00	0	43	0	413138944	63	5193
2026-01-10 08:06:51.88	50.22	18.84	-45.9	-49.0	15.9	0.00e+00	0	44	0	418381824	63	5107
2026-01-10 08:06:55.20	49.42	18.86	-46.0	-49.2	15.6	0.00e+00	0	44	0	424673280	63	5248
2026-01-10 08:06:58.00	48.75	18.87	-46.2	-49.4	15.5	0.00e+00	0	44	0	429916160	63	5342
2026-01-10 08:07:01.30	47.95	18.87	-45.9	-48.9	15.9	0.00e+00	0	44	0	436207616	63	5093
2026-01-10 08:07:04.02	47.30	18.88	-45.5	-48.4	16.4	0.00e+00	0	43	0	441450496	63	4801
2026-01-10 08:07:07.31	46.51	18.87	-45.6	-48.6	16.2	0.00e+00	0	44	0	447741952	63	4873
2026-01-10 08:07:10.15	45.82	18.87	-45.6	-48.5	16.3	0.00e+00	0	44	0	452984832	63	4836
2026-01-10 08:07:13.61	44.99	18.85	-45.5	-48.4	16.4	0.00e+00	0	44	0	459276288	63	4781
2026-01-10 08:07:16.33	44.33	18.84	-45.3	-48.1	16.6	0.00e+00	0	44	0	464519168	62	4926
2026-01-10 08:07:19.63	43.54	18.81	-45.2	-48.0	16.8	0.00e+00	0	44	0	470810624	62	4818
2026-01-10 08:07:22.52	42.85	18.79	-45.3	-48.1	16.7	0.00e+00	0	43	0	476053504	62	4878
2026-01-10 08:07:25.85	42.05	18.75	-45.1	-47.9	16.9	0.00e+00	0	44	0	482344960	62	4764
2026-01-10 08:07:28.86	41.33	18.71	-45.0	-47.7	17.1	0.00e+00	0	44	0	487587840	61	4943
2026-01-10 08:07:31.86	40.62	18.67	-44.8	-47.6	17.1	0.00e+00	0	44	0	493879296	61	4880
2026-01-10 08:07:34.87	39.91	18.63	-44.6	-47.3	17.4	0.00e+00	0	44	0	499122176	61	4716
2026-01-10 08:07:37.87	39.20	18.58	-44.7	-47.3	17.3	0.00e+00	0	44	0	504365056	61	4748
2026-01-10 08:07:40.88	38.49	18.52	-44.8	-47.5	17.2	0.00e+00	0	44	0	510656512	61	4867
2026-01-10 08:07:43.89	37.78	18.46	-44.9	-47.7	17.0	0.00e+00	0	44	0	515899392	61	4951
2026-01-10 08:07:46.90	37.08	18.40	-45.0	-47.8	17.0	0.00e+00	0	44	0	522190848	61	4997
2026-01-10 08:07:49.88	36.38	18.33	-45.1	-47.9	16.8	0.00e+00	0	44	0	527433728	61	5095
2026-01-10 08:07:52.90	35.68	18.26	-45.1	-47.9	16.8	0.00e+00	0	44	0	532676608	61	5074
2026-01-10 08:07:55.90	34.99	18.19	-45.3	-48.3	16.5	0.00e+00	0	44	0	538968064	61	5287
2026-01-10 08:07:58.91	34.30	18.11	-45.4	-48.5	16.2	0.00e+00	0	43	0	544210944	61	5447
2026-01-10 08:08:01.88	33.63	18.02	-45.3	-48.4	16.3	0.00e+00	0	44	0	549453824	61	5398
2026-01-10 08:08:04.89	32.94	17.94	-45.5	-48.6	16.1	0.00e+00	0	44	0	555745280	61	5523
2026-01-10 08:08:07.90	32.26	17.84	-45.8	-48.9	15.9	0.00e+00	0	43	0	560988160	62	5363
2026-01-10 08:08:10.91	31.59	17.75	-45.6	-48.7	16.1	0.00e+00	0	44	0	567279616	62	5248
2026-01-10 08:08:13.95	30.91	17.65	-45.6	-48.6	16.2	0.00e+00	0	44	0	572522496	62	5189
2026-01-10 08:08:16.99	30.24	17.55	-45.6	-48.6	16.1	0.00e+00	0	44	0	577765376	62	5179
2026-01-10 08:08:19.99	29.58	17.44	-45.6	-48.6	16.1	0.00e+00	0	44	0	584056832	62	5183
2026-01-10 08:08:23.00	28.93	17.33	-45.5	-48.5	16.3	0.00e+00	0	44	0	589299712	62	5112
2026-01-10 08:08:26.02	28.27	17.22	-45.5	-48.6	16.1	0.00e+00	0	43	0	595591168	62	5210
2026-01-10 08:08:29.02	27.63	17.10	-45.6	-49.0	15.8	0.00e+00	0	43	0	600834048	62	5413
2026-01-10 08:08:32.03	26.99	16.98	-45.3	-48.7	16.0	0.00e+00	0	43	0	606076928	62	5242
2026-01-10 08:08:35.04	26.35	16.86	-45.4	-48.8	16.0	0.00e+00	0	44	0	612368384	62	5281
2026-01-10 08:08:38.05	25.72	16.73	-45.7	-49.1	15.6	0.00e+00	0	44	0	617611264	62	5506
2026-01-10 08:08:41.06	25.10	16.61	-45.9	-49.2	15.5	0.00e+00	0	44	0	623902720	62	5577
2026-01-10 08:08:44.07	24.48	16.48	-46.0	-49.2	15.5	0.00e+00	0	43	0	629145600	62	5590
2026-01-10 08:08:47.10	23.86	16.34	-46.1	-49.6	15.2	0.00e+00	0	44	0	634388480	62	5792
2026-01-10 08:08:50.11	23.25	16.21	-46.1	-49.6	15.1	0.00e+00	0	44	0	640679936	62	5849
2026-01-10 08:08:53.12	22.65	16.07	-45.8	-49.3	15.5	0.00e+00	0	44	0	645922816	62	5608
2026-01-10 08:08:56.17	22.05	15.92	-45.8	-49.2	15.5	0.00e+00	0	44	0	652214272	62	5551
2026-01-10 08:08:59.11	21.47	15.78	-45.9	-49.3	15.4	0.00e+00	0	44	0	657457152	62	5642
2026-01-10 08:09:02.65	20.78	15.61	-46.0	-49.5	15.3	0.00e+00	0	44	0	663748608	62	5764
2026-01-10 08:09:05.50	20.23	15.47	-46.1	-49.8	15.0	0.00e+00	0	44	0	668991488	62	5930
2026-01-10 08:09:08.80	19.61	15.31	-46.1	-49.8	14.9	0.00e+00	0	43	0	675282944	62	5972
2026-01-10 08:09:11.52	19.09	15.17	-46.2	-49.7	15.1	0.00e+00	0	44	0	680525824	62	5863
2026-01-10 08:09:14.82	18.48	15.00	-46.1	-49.3	15.4	0.00e+00	0	43	0	686817280	63	5315
2026-01-10 08:09:17.54	17.98	14.86	-46.3	-49.6	15.1	0.00e+00	0	44	0	692060160	63	5518
2026-01-10 08:09:20.87	17.37	14.69	-46.6	-50.2	14.4	0.00e+00	0	44	0	698351616	64	5564
2026-01-10 08:09:23.59	16.88	14.55	-46.4	-50.1	14.5	7.00e-07	0	43	0	703594496	64	5510
2026-01-10 08:09:27.14	16.25	14.36	-46.2	-50.4	14.2	4.50e-06	0	44	0	709885952	64	5722
2026-01-10 08:09:30.20	15.71	14.19	-46.2	-50.5	14.1	1.50e-06	0	44	0	715128832	64	5775
2026-01-10 08:09:33.08	15.20	14.04	-46.0	-50.2	14.5	1.50e-06	0	44	0	721420288	63	5920
2026-01-10 08:09:36.33	14.64	13.86	-46.1	-50.3	14.4	1.50e-06	0	44	0	726663168	63	5950
2026-01-10 08:09:39.19	14.16	13.70	-46.3	-50.3	14.4	0.00e+00	0	44	0	731906048	63	5947
2026-01-10 08:09:42.51	13.60	13.52	-46.6	-50.4	14.1	3.00e-06	0	44	0	738197504	64	5719
2026-01-10 08:09:45.37	13.12	13.36	-46.2	-50.1	14.5	1.50e-06	0	44	0	743440384	64	5508
2026-01-10 08:09:48.85	12.55	13.16	-46.0	-49.8	14.9	0.00e+00	0	44	0	750780416	63	5617
2026-01-10 08:09:51.58	12.11	13.01	-45.9	-49.8	14.8	0.00e+00	0	44	0	756023296	63	5631
2026-01-10 08:09:54.87	11.58	12.82	-45.5	-49.8	14.9	0.00e+00	0	44	0	761266176	62	5941
2026-01-10 08:09:57.64	11.14	12.66	-45.3	-49.7	15.0	0.00e+00	0	43	0	766509056	62	5870
2026-01-10 08:10:01.44	10.54	12.45	-45.5	-49.5	15.2	0.00e+00	0	44	0	773849088	62	5726
2026-01-10 08:10:04.19	10.12	12.29	-45.6	-49.3	15.3	0.00e+00	0	44	0	779091968	62	5654
2026-01-10 08:10:08.00	9.54	12.07	-45.6	-49.2	15.4	0.00e+00	0	44	0	786432000	62	5561
2026-01-10 08:10:11.08	9.07	11.89	-45.2	-48.7	15.9	0.00e+00	0	44	0	791674880	62	5252
2026-01-10 08:10:14.08	8.63	11.72	-45.2	-48.7	15.9	0.00e+00	0	44	0	797966336	62	5251
2026-01-10 08:10:17.20	8.17	11.53	-45.2	-48.6	16.0	0.00e+00	0	44	0	803209216	62	5217
2026-01-10 08:10:20.16	7.74	11.36	-45.0	-48.6	16.0	0.00e+00	0	44	0	809500672	62	5162
2026-01-10 08:10:23.52	7.26	11.17	-45.0	-48.3	16.3	0.00e+00	0	44	0	815792128	61	5295
2026-01-10 08:10:26.51	6.84	10.99	-45.0	-48.3	16.2	0.00e+00	0	44	0	821035008	61	5311
2026-01-10 08:10:29.80	6.38	10.80	-45.0	-48.6	15.9	0.00e+00	0	44	0	827326464	61	5517
2026-01-10 08:10:32.53	6.00	10.64	-45.0	-48.8	15.8	0.00e+00	0	44	0	832569344	61	5625
2026-01-10 08:10:35.87	5.55	10.44	-45.0	-48.6	15.9	0.00e+00	0	44	0	838860800	61	5510
2026-01-10 08:10:38.85	5.15	10.26	-45.3	-48.7	15.8	0.00e+00	0	44	0	844103680	61	5572
2026-01-10 08:10:42.14	4.71	10.07	-45.7	-49.2	15.4	0.00e+00	0	44	0	850395136	61	5869
2026-01-10 08:10:45.02	4.34	9.90	-45.7	-49.2	15.3	0.00e+00	0	44	0	855638016	62	5579
2026-01-10 08:10:48.30	3.91	9.71	-45.8	-49.1	15.4	0.00e+00	0	44	0	861929472	62	5486
2026-01-10 08:10:51.71	3.48	9.51	-45.0	-48.9	15.6	0.00e+00	0	44	0	868220928	62	5382
2026-01-10 08:10:54.44	3.14	9.35	-44.5	-48.9	15.6	0.00e+00	0	44	0	873463808	61	5681
2026-01-10 08:10:57.73	2.73	9.15	-45.3	-49.1	15.4	0.00e+00	0	44	0	879755264	61	5820
2026-01-10 08:11:00.78	2.35	8.97	-46.6	-52.0	12.8	0.00e+00	0	44	0	884998144	63	7268
2026-01-10 08:11:03.65	2.01	8.80	-50.7	-66.2	3.8	1.49e+00	0	44	104	886046720	72	22015
2026-01-10 08:11:06.81	1.63	8.62	-51.0	-66.3	3.8	1.49e+00	0	44	104	886046720	72	22303
2026-01-10 08:11:09.68	1.29	8.45	-50.8	-66.4	3.8	1.49e+00	0	44	104	886046720	72	22583
2026-01-10 08:11:12.83	0.92	8.27	-51.1	-66.4	3.8	1.49e+00	0	44	104	886046720	73	21289
2026-01-10 08:11:15.70	0.59	8.10	-51.0	-66.4	3.8	1.49e+00	0	44	104	886046720	73	21391
2026-01-10 08:11:18.86	0.23	7.91	-51.2	-66.4	3.8	1.49e+00	0	44	104	886046720	73	21387
2026-01-10 08:11:21.73	359.91	7.75	-51.0	-66.3	3.8	1.49e+00	0	44	104	886046720	73	21241
2026-01-10 08:11:24.88	359.56	7.56	-51.2	-66.4	3.8	1.49e+00	0	43	104	886046720	73	21375
2026-01-10 08:11:27.75	359.25	7.40	-50.9	-66.3	3.8	1.49e+00	0	44	104	886046720	73	21251
2026-01-10 08:11:30.91	358.90	7.21	-51.0	-66.4	3.8	1.49e+00	0	44	104	886046720	73	21266
2026-01-10 08:11:33.78	358.60	7.04	-51.0	-66.3	3.8	1.49e+00	0	44	104	886046720	73	21253
2026-01-10 08:11:36.94	358.26	6.86	-51.0	-66.3	3.8	1.49e+00	0	44	104	886046720	73	21149
2026-01-10 08:11:39.81	357.96	6.70	-51.0	-66.3	3.8	1.49e+00	0	44	104	886046720	73	21075
2026-01-10 08:11:42.96	357.64	6.51	-51.0	-66.3	3.8	1.49e+00	0	44	104	886046720	73	21106
2026-01-10 08:11:45.83	357.35	6.35	-51.0	-66.3	3.8	1.49e+00	0	44	104	886046720	73	21209
2026-01-10 08:11:48.99	357.03	6.17	-51.0	-66.3	3.8	1.49e+00	0	44	104	886046720	73	21177
2026-01-10 08:11:51.85	356.75	6.00	-51.0	-66.3	3.8	1.49e+00	0	44	104	886046720	73	21157
2026-01-10 08:11:55.01	356.44	5.82	-51.0	-66.3	3.8	1.49e+00	0	44	104	886046720	73	21192
2026-01-10 08:11:57.88	356.16	5.66	-51.0	-66.3	3.8	1.49e+00	0	44	104	886046720	73	21062
2026-01-10 08:12:01.03	355.86	5.48	-51.0	-66.3	3.8	1.49e+00	0	44	104	886046720	73	21120
2026-01-10 08:12:03.90	355.59	5.32	-51.0	-66.3	3.8	1.49e+00	0	44	104	886046720	73	21102
2026-01-10 08:12:07.06	355.29	5.14	-51.0	-66.3	3.8	1.49e+00	0	44	104	886046720	73	21137
2026-01-10 08:12:09.95	355.02	4.98	-51.0	-66.3	3.8	1.49e+00	0	44	104	886046720	73	21097

#Closed at: 2026-01-10 08:12:11
#Recorded file [886 MB]: D:/Data/31040_260110_110200.dat