passes_logs/2026/01/10/T1/T1__20260110_023958_FENGYUN_3G_rec.log

#Pass ID: 20260110_023958_FENGYUN 3G
#Satellite: FENGYUN 3G
#Configuration: FENGYUN 3G
#almurnet v.1.7.20251203
#Start time: 2026-01-10 02:39:57

#Version: 2.0.20230620
#Station: T1
#Location: 37.570604 lon 55.790049 lat
#TLE: 1 56232U 23055A   26009.25964270  .00031369  00000+0  49445-3 0  9995
#TLE: 2 56232  49.9935  85.5429 0004254   0.7108 359.3865 15.53213378155304

#Time	Az	El	Level	Level2	SNR	BER	BlckErr	Temp	State	Recorded	gain1	gain2
2026-01-10 02:39:57.97	257.96	4.99	-52.2	-70.8	3.8	8.46e-01	0	41	0	0	76	29933
2026-01-10 02:39:59.97	257.76	5.13	-52.2	-70.8	3.8	8.47e-01	0	41	104	0	76	29803
2026-01-10 02:40:01.98	257.56	5.28	-52.2	-70.7	3.8	8.47e-01	0	41	104	0	76	29608
2026-01-10 02:40:03.99	257.36	5.43	-52.1	-70.8	3.8	8.47e-01	0	41	104	0	76	29703
2026-01-10 02:40:06.00	257.15	5.58	-52.1	-70.7	3.8	8.46e-01	0	41	104	0	76	29586
2026-01-10 02:40:08.01	256.95	5.73	-52.1	-70.7	3.8	8.47e-01	0	41	104	0	76	29567
2026-01-10 02:40:10.02	256.73	5.89	-52.1	-70.8	3.8	8.47e-01	0	41	104	0	76	29709
2026-01-10 02:40:12.02	256.52	6.04	-52.1	-70.8	3.8	8.46e-01	0	41	104	0	76	29699
2026-01-10 02:40:14.03	256.30	6.20	-52.1	-70.7	3.8	8.47e-01	0	41	104	0	76	29687
2026-01-10 02:40:16.04	256.08	6.35	-52.1	-70.7	3.8	8.47e-01	0	41	104	0	76	29463
2026-01-10 02:40:18.05	255.86	6.51	-52.1	-70.5	3.8	8.47e-01	0	41	104	0	76	28958
2026-01-10 02:40:20.06	255.63	6.67	-52.1	-70.6	3.8	8.47e-01	0	41	104	0	76	29047
2026-01-10 02:40:22.07	255.40	6.83	-52.1	-70.7	3.8	8.47e-01	0	41	104	0	76	29558
2026-01-10 02:40:24.07	255.17	6.99	-52.1	-70.8	3.8	8.46e-01	0	41	104	0	76	29923
2026-01-10 02:40:26.08	254.93	7.15	-52.1	-70.9	3.8	8.46e-01	0	41	104	0	76	30175
2026-01-10 02:40:28.09	254.68	7.31	-52.1	-70.8	3.8	8.47e-01	0	41	104	0	76	29943
2026-01-10 02:40:30.10	254.44	7.48	-52.1	-70.8	3.8	8.48e-01	0	41	104	0	76	29772
2026-01-10 02:40:32.11	254.19	7.64	-52.1	-70.8	3.8	8.48e-01	0	41	104	0	76	29900
2026-01-10 02:40:34.12	253.93	7.81	-52.1	-70.7	3.8	8.47e-01	0	41	104	0	76	29448
2026-01-10 02:40:36.12	253.68	7.97	-52.1	-70.6	3.8	8.47e-01	0	41	104	0	76	29016
2026-01-10 02:40:38.13	253.41	8.14	-52.1	-70.7	3.8	8.47e-01	0	41	104	0	76	29669
2026-01-10 02:40:40.14	253.15	8.31	-52.0	-70.7	3.8	8.47e-01	0	41	104	0	76	29657
2026-01-10 02:40:42.15	252.88	8.49	-52.0	-70.2	3.8	8.46e-01	0	41	104	0	76	27796
2026-01-10 02:40:44.16	252.60	8.66	-51.9	-67.1	4.2	8.46e-01	0	41	0	0	75	20541
2026-01-10 02:40:46.17	252.32	8.83	-51.2	-60.1	9.3	3.81e-01	0	41	0	0	74	9785
2026-01-10 02:40:48.18	252.03	9.01	-49.7	-55.1	14.6	8.05e-03	0	41	0	0	71	6505
2026-01-10 02:40:50.18	251.75	9.19	-52.1	-67.8	4.1	8.00e-06	0	41	0	0	74	23728
2026-01-10 02:40:52.19	251.45	9.36	-48.1	-52.0	17.7	2.68e-01	0	41	0	0	68	5409
2026-01-10 02:40:54.15	251.16	9.54	-50.0	-55.9	13.7	0.00e+00	0	41	0	0	70	7564
2026-01-10 02:40:56.35	250.83	9.74	-46.6	-49.8	19.7	0.00e+00	0	41	0	0	65	4998
2026-01-10 02:40:58.38	250.51	9.92	-46.7	-49.8	19.8	0.00e+00	0	41	0	0	65	5012
2026-01-10 02:41:00.48	250.18	10.11	-46.4	-49.5	20.2	0.00e+00	0	41	0	0	64	5108
2026-01-10 02:41:02.69	249.83	10.32	-46.3	-49.3	20.3	0.00e+00	0	41	0	0	64	5001
2026-01-10 02:41:04.69	249.50	10.50	-46.2	-49.1	20.6	0.00e+00	0	41	0	0	63	5175
2026-01-10 02:41:06.70	249.17	10.69	-45.8	-48.5	21.2	0.00e+00	0	41	0	0	63	4868
2026-01-10 02:41:08.71	248.83	10.88	-45.0	-47.5	22.0	0.00e+00	0	41	0	0	62	4593
2026-01-10 02:41:10.67	248.49	11.07	-44.9	-47.5	22.2	0.00e+00	0	41	0	0	61	4825
2026-01-10 02:41:12.80	248.12	11.27	-45.0	-47.5	22.1	0.00e+00	0	41	0	0	61	4858
2026-01-10 02:41:14.81	247.76	11.47	-44.7	-47.2	22.5	0.00e+00	0	41	0	0	61	4686
2026-01-10 02:41:16.82	247.40	11.66	-44.8	-47.3	22.4	0.00e+00	0	41	0	0	61	4731
2026-01-10 02:41:18.83	247.03	11.86	-44.5	-47.0	22.7	0.00e+00	0	41	0	0	61	4561
2026-01-10 02:41:20.84	246.65	12.06	-44.4	-46.8	22.8	0.00e+00	0	41	0	0	60	4746
2026-01-10 02:41:22.84	246.27	12.26	-44.2	-46.6	23.0	0.00e+00	0	41	0	0	60	4606
2026-01-10 02:41:24.85	245.88	12.46	-44.2	-46.5	23.0	0.00e+00	0	41	0	0	60	4597
2026-01-10 02:41:26.85	245.48	12.66	-44.3	-46.7	22.9	0.00e+00	0	41	0	0	60	4660
2026-01-10 02:41:28.85	245.08	12.86	-44.4	-46.8	22.9	0.00e+00	0	41	0	0	60	4714
2026-01-10 02:41:30.86	244.67	13.07	-44.3	-46.7	23.0	0.00e+00	0	41	0	0	60	4675
2026-01-10 02:41:32.87	244.25	13.27	-43.9	-46.2	23.4	0.00e+00	0	41	0	0	59	4682
2026-01-10 02:41:34.93	243.81	13.49	-43.7	-45.9	23.7	0.00e+00	0	41	0	0	59	4534
2026-01-10 02:41:36.98	243.36	13.70	-43.9	-46.2	23.5	0.00e+00	0	41	0	0	59	4673
2026-01-10 02:41:39.02	242.91	13.91	-43.7	-46.0	23.6	0.00e+00	0	41	0	0	59	4566
2026-01-10 02:41:41.06	242.45	14.13	-43.7	-46.0	23.6	0.00e+00	0	41	0	0	59	4577
2026-01-10 02:41:43.15	241.97	14.35	-43.9	-46.2	23.5	0.00e+00	0	41	0	0	59	4680
2026-01-10 02:41:45.15	241.50	14.56	-43.7	-46.0	23.7	0.00e+00	0	41	0	0	59	4555
2026-01-10 02:41:47.16	241.02	14.78	-43.4	-45.6	24.0	0.00e+00	0	41	0	0	58	4641
2026-01-10 02:41:49.16	240.54	14.99	-43.2	-45.4	24.2	0.00e+00	0	41	0	0	58	4541
2026-01-10 02:41:51.17	240.04	15.21	-43.5	-45.7	24.0	0.00e+00	0	41	0	0	58	4679
2026-01-10 02:41:53.56	239.44	15.47	-43.2	-45.4	24.2	0.00e+00	0	41	0	0	58	4530
2026-01-10 02:41:55.57	238.92	15.69	-43.2	-45.4	24.3	0.00e+00	0	41	0	0	58	4522
2026-01-10 02:41:57.58	238.39	15.91	-43.0	-45.2	24.4	0.00e+00	0	41	0	0	58	4430
2026-01-10 02:41:59.59	237.85	16.13	-43.0	-45.2	24.5	0.00e+00	0	41	0	0	57	4672
2026-01-10 02:42:01.57	237.31	16.35	-42.9	-45.1	24.6	0.00e+00	0	41	0	0	57	4626
2026-01-10 02:42:03.58	236.76	16.57	-43.0	-45.2	24.4	0.00e+00	0	41	0	0	57	4699
2026-01-10 02:42:05.85	236.11	16.83	-43.1	-45.3	24.3	0.00e+00	0	41	0	0	57	4747
2026-01-10 02:42:07.80	235.55	17.04	-43.0	-45.2	24.4	0.00e+00	0	41	0	0	57	4667
2026-01-10 02:42:09.98	234.91	17.29	-42.6	-44.7	24.9	0.00e+00	0	41	0	0	57	4418
2026-01-10 02:42:11.99	234.31	17.51	-42.4	-44.5	25.1	0.00e+00	0	41	0	0	56	4571
2026-01-10 02:42:13.99	233.69	17.74	-42.5	-44.6	25.0	0.00e+00	0	41	0	0	56	4603
2026-01-10 02:42:16.00	233.07	17.96	-42.7	-44.8	24.8	0.00e+00	0	41	0	0	56	4749
2026-01-10 02:42:18.01	232.43	18.18	-42.7	-44.8	24.8	0.00e+00	0	41	0	0	56	4747
2026-01-10 02:42:20.01	231.79	18.41	-42.6	-44.7	24.9	0.00e+00	0	41	0	0	56	4691
2026-01-10 02:42:22.14	231.09	18.64	-42.4	-44.5	25.0	0.00e+00	0	41	0	0	56	4581
2026-01-10 02:42:24.15	230.41	18.87	-42.0	-44.1	25.4	0.00e+00	0	41	0	0	56	4352
2026-01-10 02:42:26.16	229.73	19.09	-42.2	-44.3	25.3	0.00e+00	0	41	0	0	56	4458
2026-01-10 02:42:28.16	229.03	19.31	-42.5	-44.6	25.0	0.00e+00	0	41	0	0	56	4632
2026-01-10 02:42:30.44	228.23	19.56	-42.6	-44.7	24.9	0.00e+00	0	41	0	0	56	4704
2026-01-10 02:42:32.48	227.49	19.78	-42.5	-44.6	25.0	0.00e+00	0	41	0	0	56	4646
2026-01-10 02:42:34.48	226.76	20.00	-42.0	-44.0	25.5	0.00e+00	0	41	0	0	56	4338
2026-01-10 02:42:36.49	226.01	20.22	-41.6	-43.6	25.7	0.00e+00	0	41	0	0	55	4372
2026-01-10 02:42:38.50	225.24	20.43	-41.6	-43.6	25.7	0.00e+00	0	41	0	0	54	4649
2026-01-10 02:42:40.50	224.47	20.64	-41.7	-43.8	25.6	0.00e+00	0	41	0	0	54	4710
2026-01-10 02:42:42.67	223.62	20.87	-41.4	-43.4	25.9	0.00e+00	0	41	0	0	54	4545
2026-01-10 02:42:44.74	222.79	21.08	-41.6	-43.6	25.7	0.00e+00	0	41	0	0	54	4647
2026-01-10 02:42:46.75	221.98	21.28	-41.8	-43.8	25.5	0.00e+00	0	41	0	0	54	4753
2026-01-10 02:42:48.76	221.15	21.48	-41.7	-43.8	25.6	0.00e+00	0	41	0	0	54	4731
2026-01-10 02:42:50.76	220.31	21.68	-41.8	-43.9	25.4	0.00e+00	0	42	0	0	54	4791
2026-01-10 02:42:52.77	219.46	21.87	-41.7	-43.8	25.6	0.00e+00	0	41	0	0	54	4715
2026-01-10 02:42:54.77	218.60	22.06	-41.3	-43.4	25.9	0.00e+00	0	42	0	0	54	4496
2026-01-10 02:42:56.78	217.72	22.25	-41.4	-43.4	26.0	0.00e+00	0	42	0	0	54	4503
2026-01-10 02:42:58.69	216.87	22.42	-41.4	-43.4	25.9	0.00e+00	0	41	0	0	54	4535
2026-01-10 02:43:00.70	215.97	22.59	-41.5	-43.5	25.8	0.00e+00	0	41	0	0	54	4590
2026-01-10 02:43:02.71	215.05	22.76	-41.3	-43.3	25.9	0.00e+00	0	41	0	0	54	4486
2026-01-10 02:43:04.71	214.13	22.93	-41.0	-42.9	26.3	0.00e+00	0	41	0	0	54	4287
2026-01-10 02:43:06.73	213.19	23.09	-41.0	-43.0	26.3	0.00e+00	0	41	0	0	53	4546
2026-01-10 02:43:08.80	212.21	23.25	-41.1	-43.1	26.2	0.00e+00	0	41	0	0	53	4619
2026-01-10 02:43:10.83	211.24	23.40	-41.2	-43.3	26.0	0.00e+00	0	41	0	0	53	4707
2026-01-10 02:43:12.84	210.27	23.54	-41.1	-43.1	26.1	0.00e+00	0	41	0	0	53	4639
2026-01-10 02:43:14.84	209.29	23.67	-41.1	-43.1	26.2	0.00e+00	0	41	0	0	53	4600
2026-01-10 02:43:16.85	208.30	23.80	-41.3	-43.3	25.9	0.00e+00	0	42	0	0	53	4731
2026-01-10 02:43:18.86	207.30	23.92	-41.0	-42.9	25.9	0.00e+00	0	41	0	0	53	4537
2026-01-10 02:43:20.85	206.30	24.03	-41.1	-43.1	26.2	0.00e+00	0	41	0	0	53	4644
2026-01-10 02:43:22.85	205.29	24.13	-41.4	-43.5	25.9	0.00e+00	0	41	0	0	53	4832
2026-01-10 02:43:24.87	204.26	24.23	-41.0	-43.0	26.3	0.00e+00	0	41	0	0	53	4546
2026-01-10 02:43:26.97	203.19	24.32	-41.4	-43.4	25.9	0.00e+00	0	41	0	0	53	4808
2026-01-10 02:43:29.22	202.03	24.41	-41.3	-43.3	25.9	0.00e+00	0	41	0	0	53	4757
2026-01-10 02:43:31.25	200.97	24.48	-41.3	-43.3	25.9	0.00e+00	0	41	0	0	53	4759
2026-01-10 02:43:33.26	199.92	24.54	-41.3	-43.3	26.0	0.00e+00	0	41	0	0	53	4748
2026-01-10 02:43:35.27	198.87	24.59	-41.4	-43.4	25.9	0.00e+00	0	42	0	0	53	4808
2026-01-10 02:43:37.28	197.81	24.63	-41.5	-43.6	25.8	0.00e+00	0	41	0	0	54	4605
2026-01-10 02:43:39.29	196.75	24.67	-41.2	-43.2	26.2	0.00e+00	0	41	0	0	54	4401
2026-01-10 02:43:41.29	195.70	24.69	-40.6	-42.5	26.6	0.00e+00	0	42	0	0	53	4339
2026-01-10 02:43:43.22	194.67	24.70	-40.6	-42.5	26.6	0.00e+00	0	41	0	0	53	4329
2026-01-10 02:43:45.30	193.57	24.71	-40.6	-42.6	26.6	0.00e+00	0	41	0	0	53	4342
2026-01-10 02:43:47.34	192.49	24.70	-40.9	-42.9	26.3	0.00e+00	0	41	0	0	53	4519
2026-01-10 02:43:49.35	191.43	24.69	-41.4	-43.4	25.9	0.00e+00	0	41	0	0	53	4805
2026-01-10 02:43:51.35	190.37	24.67	-41.2	-43.2	26.1	0.00e+00	0	42	0	0	53	4686
2026-01-10 02:43:53.36	189.31	24.63	-41.0	-42.9	26.3	0.00e+00	0	41	0	0	53	4534
2026-01-10 02:43:55.36	188.26	24.59	-41.1	-43.1	26.1	0.00e+00	0	41	0	0	53	4636
2026-01-10 02:43:57.37	187.21	24.54	-40.7	-42.7	26.5	0.00e+00	0	41	0	0	53	4412
2026-01-10 02:43:59.38	186.16	24.48	-40.5	-42.5	26.7	0.00e+00	0	41	0	0	52	4547
2026-01-10 02:44:01.38	185.12	24.41	-40.8	-42.8	26.4	0.00e+00	0	41	0	0	52	4735
2026-01-10 02:44:03.42	184.07	24.33	-41.5	-43.5	25.8	0.00e+00	0	41	0	0	53	4849
2026-01-10 02:44:05.42	183.04	24.25	-41.7	-43.7	25.6	0.00e+00	0	42	0	0	54	4702
2026-01-10 02:44:07.43	182.01	24.15	-41.1	-43.0	26.2	0.00e+00	0	41	0	0	54	4340
2026-01-10 02:44:09.44	181.00	24.05	-41.3	-43.3	26.0	0.00e+00	0	41	0	0	54	4459
2026-01-10 02:44:11.44	179.99	23.94	-41.6	-43.7	25.7	0.00e+00	0	42	0	0	54	4682
2026-01-10 02:44:13.45	178.99	23.82	-41.2	-43.2	26.1	0.00e+00	0	41	0	0	54	4432
2026-01-10 02:44:15.88	177.79	23.67	-41.0	-43.0	26.2	0.00e+00	0	41	0	0	54	4296
2026-01-10 02:44:17.91	176.80	23.53	-40.7	-42.7	26.4	0.00e+00	0	41	0	0	53	4425
2026-01-10 02:44:19.91	175.83	23.39	-40.9	-42.9	26.3	0.00e+00	0	41	0	0	53	4534
2026-01-10 02:44:21.92	174.87	23.25	-40.9	-42.8	26.3	0.00e+00	0	41	0	0	53	4486
2026-01-10 02:44:23.92	173.93	23.09	-40.6	-42.6	26.6	0.00e+00	0	42	0	0	53	4354
2026-01-10 02:44:25.93	172.99	22.93	-40.6	-42.6	26.6	0.00e+00	0	41	0	0	52	4599
2026-01-10 02:44:28.29	171.90	22.74	-40.7	-42.6	26.5	0.00e+00	0	41	0	0	52	4651
2026-01-10 02:44:30.44	170.93	22.56	-40.9	-42.8	26.3	0.00e+00	0	41	0	0	52	4757
2026-01-10 02:44:32.62	169.95	22.36	-40.9	-42.9	26.3	0.00e+00	0	42	0	0	52	4791
2026-01-10 02:44:34.64	169.06	22.18	-40.9	-42.9	26.2	0.00e+00	0	42	0	0	52	4800
2026-01-10 02:44:36.67	168.18	21.99	-41.6	-43.6	25.7	0.00e+00	0	41	0	0	53	4915
2026-01-10 02:44:38.61	167.34	21.81	-41.3	-43.3	26.0	0.00e+00	0	41	0	0	53	4723
2026-01-10 02:44:40.62	166.50	21.61	-40.9	-42.8	26.4	0.00e+00	0	42	0	0	53	4490
2026-01-10 02:44:42.87	165.56	21.39	-41.3	-43.4	25.9	0.00e+00	0	42	0	0	53	4782
2026-01-10 02:44:44.88	164.74	21.19	-42.0	-44.1	25.3	0.00e+00	0	41	0	0	54	4925
2026-01-10 02:44:46.98	163.89	20.98	-41.7	-43.8	25.5	0.00e+00	0	42	0	0	55	4468
2026-01-10 02:44:49.21	163.01	20.74	-41.2	-43.3	26.0	0.00e+00	0	41	0	0	54	4462
2026-01-10 02:44:51.22	162.23	20.53	-41.4	-43.4	25.9	0.00e+00	0	42	0	0	54	4539
2026-01-10 02:44:53.23	161.46	20.32	-41.8	-43.9	25.6	1.14e-05	0	42	0	0	54	4761
2026-01-10 02:44:55.29	160.68	20.10	-42.2	-44.3	25.2	0.00e+00	0	41	0	0	54	5001
2026-01-10 02:44:57.30	159.94	19.88	-42.3	-44.4	25.1	0.00e+00	0	42	0	0	55	4787
2026-01-10 02:44:59.30	159.21	19.67	-42.1	-44.2	25.2	0.00e+00	0	41	0	0	55	4665
2026-01-10 02:45:01.31	158.49	19.45	-42.1	-44.3	25.2	0.00e+00	0	42	0	0	55	4708
2026-01-10 02:45:03.31	157.79	19.23	-42.5	-44.7	24.8	0.00e+00	0	42	0	0	55	4938
2026-01-10 02:45:05.32	157.10	19.01	-42.4	-44.6	25.0	0.00e+00	0	41	0	0	56	4601
2026-01-10 02:45:07.33	156.42	18.78	-42.2	-44.3	25.3	0.00e+00	0	42	0	0	56	4444
2026-01-10 02:45:09.35	155.74	18.56	-42.4	-44.6	25.0	0.00e+00	0	41	0	0	56	4611
2026-01-10 02:45:11.35	155.09	18.34	-42.5	-44.7	24.9	0.00e+00	0	41	0	0	56	4656
2026-01-10 02:45:13.36	154.45	18.11	-42.3	-44.4	25.2	0.00e+00	0	41	0	0	56	4532
2026-01-10 02:45:15.36	153.81	17.89	-42.2	-44.4	25.2	0.00e+00	0	42	0	0	56	4508
2026-01-10 02:45:17.37	153.19	17.66	-42.6	-44.8	24.8	0.00e+00	0	42	0	0	56	4718
2026-01-10 02:45:19.37	152.58	17.44	-42.7	-44.8	24.8	0.00e+00	0	42	0	0	56	4748
2026-01-10 02:45:21.38	151.99	17.21	-42.7	-44.9	24.8	0.00e+00	0	42	0	0	56	4773
2026-01-10 02:45:23.39	151.40	16.99	-42.8	-45.0	24.6	0.00e+00	0	42	0	0	56	4821
2026-01-10 02:45:25.40	150.82	16.77	-42.6	-44.8	24.8	0.00e+00	0	41	0	0	56	4727
2026-01-10 02:45:27.40	150.25	16.54	-42.6	-44.7	24.8	0.00e+00	0	42	0	0	56	4704
2026-01-10 02:45:29.41	149.70	16.32	-43.0	-45.2	24.4	0.00e+00	0	41	0	0	56	4983
2026-01-10 02:45:31.42	149.15	16.10	-43.2	-45.5	24.2	0.00e+00	0	42	0	0	57	4818
2026-01-10 02:45:33.42	148.62	15.88	-43.3	-45.6	24.1	0.00e+00	0	42	0	0	57	4883
2026-01-10 02:45:35.43	148.09	15.66	-43.3	-45.6	24.1	0.00e+00	0	41	0	0	57	4890
2026-01-10 02:45:37.44	147.57	15.44	-43.4	-45.7	23.9	0.00e+00	0	42	0	0	57	4965
2026-01-10 02:45:39.51	147.05	15.21	-43.2	-45.5	24.2	0.00e+00	0	41	0	0	57	4823
2026-01-10 02:45:41.51	146.56	15.00	-43.3	-45.6	24.0	0.00e+00	0	42	0	0	57	4912
2026-01-10 02:45:43.65	146.04	14.77	-43.7	-46.0	23.7	0.00e+00	0	42	0	0	58	4824
2026-01-10 02:45:45.65	145.56	14.55	-43.9	-46.2	23.5	0.00e+00	0	42	0	0	58	4965
2026-01-10 02:45:47.66	145.09	14.34	-43.9	-46.3	23.4	0.00e+00	0	42	0	0	58	4984
2026-01-10 02:45:49.66	144.63	14.13	-43.8	-46.2	23.5	0.00e+00	0	42	0	0	58	4941
2026-01-10 02:45:51.67	144.18	13.92	-44.0	-46.4	23.3	0.00e+00	0	42	0	0	58	5057
2026-01-10 02:45:53.62	143.75	13.71	-44.1	-46.5	23.2	0.00e+00	0	42	0	0	58	5149
2026-01-10 02:45:55.69	143.30	13.50	-44.1	-46.5	23.2	0.00e+00	0	41	0	0	59	4839
2026-01-10 02:45:57.70	142.87	13.29	-44.3	-46.7	23.0	0.00e+00	0	41	0	0	59	4945
2026-01-10 02:45:59.70	142.45	13.08	-44.3	-46.7	22.9	0.00e+00	0	42	0	0	59	4955
2026-01-10 02:46:01.71	142.04	12.88	-44.2	-46.6	23.0	0.00e+00	0	42	0	0	59	4923
2026-01-10 02:46:04.07	141.56	12.64	-44.2	-46.7	23.0	0.00e+00	0	42	0	0	59	4952
2026-01-10 02:46:06.11	141.16	12.43	-44.5	-47.0	22.7	0.00e+00	0	42	0	0	59	5148
2026-01-10 02:46:08.11	140.77	12.23	-44.8	-47.4	22.3	0.00e+00	0	42	0	0	60	5072
2026-01-10 02:46:10.12	140.38	12.03	-44.7	-47.3	22.4	0.00e+00	0	42	0	0	60	5003
2026-01-10 02:46:12.13	140.01	11.83	-44.8	-47.3	22.3	0.00e+00	0	42	0	0	60	5032
2026-01-10 02:46:14.16	139.63	11.64	-44.7	-47.3	22.4	0.00e+00	0	42	0	0	60	5004
2026-01-10 02:46:16.17	139.27	11.44	-45.0	-47.6	22.0	0.00e+00	0	41	0	0	60	5216
2026-01-10 02:46:18.18	138.91	11.25	-45.2	-47.8	21.8	0.00e+00	0	42	0	0	61	5041
2026-01-10 02:46:20.19	138.56	11.05	-45.1	-47.8	21.9	0.00e+00	0	42	0	0	61	4999
2026-01-10 02:46:22.19	138.22	10.86	-45.2	-47.8	21.8	0.00e+00	0	42	0	0	61	5039
2026-01-10 02:46:24.20	137.88	10.67	-45.3	-47.9	21.7	0.00e+00	0	42	0	0	61	5097
2026-01-10 02:46:26.21	137.55	10.49	-45.3	-48.0	21.6	0.00e+00	0	42	0	0	61	5152
2026-01-10 02:46:28.21	137.22	10.30	-45.4	-48.1	21.5	0.00e+00	0	42	0	0	61	5186
2026-01-10 02:46:30.25	136.90	10.11	-45.4	-48.1	21.6	0.00e+00	0	42	0	0	61	5172
2026-01-10 02:46:32.26	136.58	9.93	-45.4	-48.2	21.4	0.00e+00	0	42	0	0	61	5221
2026-01-10 02:46:34.26	136.27	9.75	-45.9	-48.7	21.0	0.00e+00	0	42	0	0	62	5254
2026-01-10 02:46:36.27	135.96	9.57	-46.0	-48.9	20.8	0.00e+00	0	42	0	0	62	5344
2026-01-10 02:46:38.27	135.67	9.39	-45.7	-48.5	21.1	0.00e+00	0	41	0	0	62	5134
2026-01-10 02:46:40.29	135.37	9.21	-45.7	-48.5	21.1	0.00e+00	0	42	0	0	62	5133
2026-01-10 02:46:42.29	135.08	9.03	-45.8	-48.7	20.9	0.00e+00	0	42	0	0	62	5248
2026-01-10 02:46:44.30	134.79	8.86	-52.3	-71.0	3.8	9.61e-04	0	42	104	0	75	32343
2026-01-10 02:46:46.37	134.50	8.68	-52.5	-71.3	3.8	8.47e-01	0	42	104	0	75	33638
2026-01-10 02:46:48.45	134.22	8.50	-52.8	-71.5	3.8	8.46e-01	0	42	104	0	76	32392
2026-01-10 02:46:50.52	133.94	8.32	-52.9	-71.6	3.8	8.45e-01	0	42	104	0	76	32724
2026-01-10 02:46:52.53	133.67	8.15	-52.9	-71.6	3.8	8.47e-01	0	42	104	0	76	32903
2026-01-10 02:46:54.53	133.41	7.98	-53.0	-71.7	3.8	8.48e-01	0	42	104	0	76	32980
2026-01-10 02:46:56.54	133.15	7.81	-52.9	-71.7	3.8	8.47e-01	0	42	104	0	76	33170
2026-01-10 02:46:58.55	132.90	7.65	-52.7	-71.7	3.8	8.47e-01	0	42	104	0	76	33228
2026-01-10 02:47:00.56	132.65	7.48	-52.6	-71.7	3.8	8.47e-01	0	42	104	0	76	33122
2026-01-10 02:47:02.57	132.40	7.32	-52.8	-71.7	3.8	8.47e-01	0	42	104	0	76	33198
2026-01-10 02:47:04.59	132.16	7.15	-52.8	-71.7	3.8	8.47e-01	0	42	104	0	76	33062
2026-01-10 02:47:06.60	131.92	6.99	-52.8	-71.6	3.8	8.47e-01	0	42	104	0	76	32887
2026-01-10 02:47:08.61	131.68	6.83	-52.8	-71.6	3.8	8.47e-01	0	42	104	0	76	32926
2026-01-10 02:47:10.62	131.45	6.67	-52.8	-71.7	3.8	8.48e-01	0	42	104	0	76	32975
2026-01-10 02:47:12.63	131.22	6.51	-52.8	-71.7	3.8	8.47e-01	0	42	104	0	76	32936
2026-01-10 02:47:14.64	131.00	6.36	-52.8	-71.7	3.8	8.47e-01	0	42	104	0	76	32976
2026-01-10 02:47:16.64	130.78	6.20	-52.8	-71.6	3.8	8.47e-01	0	42	104	0	76	32926
2026-01-10 02:47:18.64	130.56	6.05	-52.8	-71.6	3.8	8.47e-01	0	42	104	0	76	32763
2026-01-10 02:47:20.64	130.34	5.89	-52.8	-71.6	3.8	8.47e-01	0	42	104	0	76	32789
2026-01-10 02:47:22.65	130.13	5.74	-52.8	-71.6	3.8	8.49e-01	0	42	104	0	76	32923
2026-01-10 02:47:24.66	129.92	5.59	-52.8	-71.6	3.8	8.47e-01	0	42	104	0	76	32870
2026-01-10 02:47:26.67	129.72	5.44	-52.8	-71.6	3.8	8.47e-01	0	42	104	0	76	32835
2026-01-10 02:47:28.68	129.52	5.29	-52.8	-71.6	3.8	8.48e-01	0	42	104	0	76	32793
2026-01-10 02:47:30.69	129.32	5.14	-52.8	-71.6	3.8	8.46e-01	0	42	104	0	76	32771
2026-01-10 02:47:32.70	129.12	4.99	-52.8	-71.6	3.8	8.46e-01	0	42	104	0	76	32683

#Closed at: 2026-01-10 02:47:33
#Recorded file [0 MB]: D:/Data/31040_260110_053957.dat