passes_logs/2026/01/10/T1/T1__20260110_091937_SUOMI_NPP_rec.log

#Pass ID: 20260110_091937_SUOMI NPP
#Satellite: SUOMI NPP
#Configuration: NPP
#almurnet v.1.7.20251203
#Start time: 2026-01-10 09:19:38

#Version: 2.0.20230620
#Station: T1
#Location: 37.570604 lon 55.790049 lat
#TLE: 1 37849U 11061A   26009.81756760  .00000113  00000+0  74747-4 0  9994
#TLE: 2 37849  98.7806 311.9110 0002525  72.5604 287.5848 14.19524046735974

#Time	Az	El	Level	Level2	SNR	BER	BlckErr	Temp	State	Recorded	gain1	gain2
2026-01-10 09:19:38.36	139.15	5.09	-50.4	-65.6	3.8	1.49e+00	0	39	0	0	72	20711
2026-01-10 09:19:41.34	139.04	5.30	-50.4	-65.4	3.8	1.49e+00	0	39	104	0	72	20276
2026-01-10 09:19:44.34	138.94	5.51	-50.3	-65.1	3.8	1.49e+00	0	39	104	0	72	19580
2026-01-10 09:19:47.33	138.83	5.73	-50.3	-64.3	3.8	1.49e+00	0	39	104	0	72	17872
2026-01-10 09:19:50.31	138.72	5.94	-50.2	-63.3	3.8	1.48e+00	0	39	104	0	72	15805
2026-01-10 09:19:53.30	138.61	6.16	-50.2	-62.6	4.1	1.44e+00	0	39	0	0	72	14574
2026-01-10 09:19:56.29	138.50	6.38	-50.2	-62.9	4.0	1.47e+00	0	39	104	0	72	15198
2026-01-10 09:19:59.29	138.38	6.60	-50.3	-64.4	3.8	1.49e+00	0	40	104	0	72	18015
2026-01-10 09:20:02.29	138.26	6.82	-50.3	-64.9	3.8	1.49e+00	0	40	104	0	72	19124
2026-01-10 09:20:05.28	138.15	7.05	-50.2	-63.6	3.8	1.49e+00	0	40	104	0	72	16453
2026-01-10 09:20:08.27	138.03	7.27	-50.0	-60.5	4.7	1.22e+00	0	40	0	0	72	11456
2026-01-10 09:20:11.26	137.90	7.50	-49.2	-56.1	8.1	1.06e-01	0	40	0	6291456	70	7750
2026-01-10 09:20:14.25	137.78	7.73	-47.3	-51.6	12.5	2.27e-04	0	40	0	11534336	66	5836
2026-01-10 09:20:17.24	137.65	7.96	-46.1	-49.5	14.6	0.00e+00	0	40	0	16777216	64	5111
2026-01-10 09:20:20.24	137.52	8.20	-46.1	-49.6	14.6	0.00e+00	0	40	0	23068672	63	5484
2026-01-10 09:20:23.23	137.39	8.43	-47.6	-52.3	11.9	1.10e-04	0	40	0	28311552	65	6688
2026-01-10 09:20:26.23	137.26	8.67	-49.3	-56.6	7.7	4.89e-02	0	40	0	34603008	69	8707
2026-01-10 09:20:29.22	137.12	8.91	-50.0	-60.6	4.7	6.52e-01	0	40	0	39845888	70	13046
2026-01-10 09:20:32.20	136.98	9.15	-49.1	-55.9	8.2	9.07e-02	0	40	0	40894464	70	7586
2026-01-10 09:20:35.18	136.84	9.40	-47.7	-52.2	12.0	2.30e-03	0	40	0	42991616	67	5905
2026-01-10 09:20:38.16	136.70	9.64	-48.0	-52.9	11.4	1.23e-03	0	40	0	48234496	68	6045
2026-01-10 09:20:41.15	136.56	9.89	-48.5	-54.7	9.4	9.28e-03	0	41	0	54525952	67	7811
2026-01-10 09:20:44.13	136.41	10.14	-48.1	-53.4	10.9	6.19e-03	0	41	0	59768832	67	6734
2026-01-10 09:20:47.12	136.26	10.40	-46.3	-49.7	14.6	2.20e-06	0	40	0	65011712	64	5279
2026-01-10 09:20:50.10	136.10	10.65	-45.3	-48.1	16.3	0.00e+00	0	41	0	71303168	62	4913
2026-01-10 09:20:53.09	135.95	10.91	-45.2	-48.0	16.3	0.00e+00	0	41	0	76546048	61	5128
2026-01-10 09:20:56.08	135.79	11.17	-46.6	-50.3	14.2	7.00e-07	0	41	0	81788928	63	5951
2026-01-10 09:20:59.06	135.63	11.44	-47.1	-51.4	13.1	3.43e-05	0	41	0	88080384	65	6015
2026-01-10 09:21:02.05	135.46	11.70	-45.7	-48.9	15.5	0.00e+00	0	40	0	93323264	63	5053
2026-01-10 09:21:05.04	135.29	11.97	-44.9	-47.6	16.8	0.00e+00	0	41	0	98566144	61	4888
2026-01-10 09:21:08.03	135.12	12.24	-45.1	-48.0	16.4	0.00e+00	0	41	0	104857600	61	5113
2026-01-10 09:21:11.02	134.94	12.52	-46.5	-50.1	14.4	7.00e-07	0	41	0	110100480	63	5818
2026-01-10 09:21:14.01	134.76	12.80	-46.5	-50.2	14.3	0.00e+00	0	41	0	115343360	64	5545
2026-01-10 09:21:16.99	134.58	13.08	-45.2	-48.0	16.4	0.00e+00	0	41	0	121634816	62	4859
2026-01-10 09:21:19.97	134.40	13.36	-44.8	-47.4	17.0	0.00e+00	0	41	0	126877696	61	4796
2026-01-10 09:21:22.96	134.21	13.64	-45.6	-48.7	15.8	0.00e+00	0	41	0	132120576	61	5546
2026-01-10 09:21:25.95	134.01	13.93	-46.5	-50.1	14.5	7.00e-07	0	41	0	138412032	63	5832
2026-01-10 09:21:28.93	133.82	14.23	-45.6	-48.7	15.8	0.00e+00	0	41	0	143654912	63	4949
2026-01-10 09:21:31.92	133.61	14.52	-45.1	-47.8	16.6	0.00e+00	0	41	0	148897792	62	4758
2026-01-10 09:21:34.91	133.41	14.82	-45.4	-48.3	16.2	0.00e+00	0	41	0	155189248	61	5306
2026-01-10 09:21:37.89	133.20	15.12	-46.0	-49.3	15.3	0.00e+00	0	41	0	160432128	62	5629
2026-01-10 09:21:40.88	132.98	15.43	-45.6	-48.6	15.9	0.00e+00	0	41	0	165675008	62	5186
2026-01-10 09:21:43.87	132.76	15.74	-44.9	-47.6	16.8	0.00e+00	0	41	0	171966464	61	4903
2026-01-10 09:21:46.84	132.54	16.05	-45.4	-48.4	16.1	0.00e+00	0	41	0	177209344	61	5351
2026-01-10 09:21:49.82	132.31	16.36	-45.8	-49.1	15.5	0.00e+00	0	41	0	182452224	62	5503
2026-01-10 09:21:52.81	132.08	16.68	-45.4	-48.4	16.2	0.00e+00	0	41	0	188743680	62	5065
2026-01-10 09:21:55.81	131.84	17.01	-45.0	-47.9	16.6	0.00e+00	0	41	0	193986560	61	5042
2026-01-10 09:21:58.80	131.59	17.34	-45.3	-48.2	16.3	0.00e+00	0	41	0	199229440	61	5254
2026-01-10 09:22:01.79	131.34	17.67	-45.2	-48.1	16.4	0.00e+00	0	41	0	205520896	61	5193
2026-01-10 09:22:04.78	131.09	18.00	-45.0	-47.8	16.7	0.00e+00	0	41	0	210763776	61	5027
2026-01-10 09:22:07.78	130.82	18.35	-45.2	-48.1	16.4	0.00e+00	0	41	0	217055232	61	5187
2026-01-10 09:22:10.76	130.56	18.69	-45.3	-48.2	16.4	0.00e+00	0	41	0	222298112	61	5232
2026-01-10 09:22:13.75	130.28	19.04	-45.0	-47.8	16.7	0.00e+00	0	41	0	227540992	61	4987
2026-01-10 09:22:16.73	130.00	19.39	-45.5	-48.5	16.0	0.00e+00	0	41	0	233832448	61	5438
2026-01-10 09:22:19.71	129.72	19.74	-45.8	-48.9	15.7	0.00e+00	0	41	0	239075328	62	5378
2026-01-10 09:22:22.69	129.42	20.10	-45.7	-48.7	15.9	0.00e+00	0	41	0	244318208	62	5276
2026-01-10 09:22:25.67	129.12	20.46	-45.9	-49.1	15.5	0.00e+00	0	41	0	250609664	62	5476
2026-01-10 09:22:28.66	128.81	20.83	-46.2	-49.5	15.2	0.00e+00	0	41	0	255852544	63	5426
2026-01-10 09:22:31.65	128.50	21.21	-45.7	-48.7	15.8	0.00e+00	0	41	0	261095424	63	4977
2026-01-10 09:22:34.63	128.17	21.59	-45.6	-48.5	16.1	0.00e+00	0	41	0	267386880	62	5153
2026-01-10 09:22:37.62	127.84	21.97	-45.9	-49.0	15.6	0.00e+00	0	41	0	272629760	62	5453
2026-01-10 09:22:40.61	127.50	22.36	-45.5	-48.6	16.0	0.00e+00	0	41	0	277872640	62	5171
2026-01-10 09:22:43.60	127.15	22.75	-45.9	-49.2	15.4	0.00e+00	0	41	0	284164096	62	5566
2026-01-10 09:22:46.59	126.79	23.15	-46.0	-49.3	15.3	0.00e+00	0	41	0	289406976	63	5324
2026-01-10 09:22:49.57	126.42	23.55	-46.1	-49.3	15.4	0.00e+00	0	41	0	294649856	63	5306
2026-01-10 09:22:52.56	126.04	23.96	-46.0	-49.1	15.6	0.00e+00	0	41	0	300941312	63	5213
2026-01-10 09:22:55.55	125.65	24.37	-45.9	-49.0	15.8	0.00e+00	0	41	0	306184192	63	5114
2026-01-10 09:22:58.53	125.25	24.79	-46.5	-49.9	14.7	0.00e+00	0	41	0	311427072	63	5721
2026-01-10 09:23:01.52	124.84	25.21	-46.2	-49.5	15.2	0.00e+00	0	41	0	317718528	63	5418
2026-01-10 09:23:04.51	124.42	25.64	-46.2	-49.4	15.3	0.00e+00	0	41	0	322961408	63	5371
2026-01-10 09:23:07.50	123.98	26.07	-46.0	-49.1	15.5	0.00e+00	0	41	0	328204288	63	5218
2026-01-10 09:23:10.49	123.54	26.51	-45.5	-48.4	16.2	0.00e+00	0	41	0	334495744	62	5078
2026-01-10 09:23:13.47	123.08	26.96	-46.0	-49.1	15.6	0.00e+00	0	41	0	339738624	62	5524
2026-01-10 09:23:16.45	122.61	27.40	-46.2	-49.5	15.2	0.00e+00	0	41	0	344981504	63	5431
2026-01-10 09:23:19.44	122.12	27.86	-45.9	-49.0	15.7	0.00e+00	0	41	0	351272960	63	5124
2026-01-10 09:23:22.42	121.62	28.32	-46.5	-49.9	14.7	0.00e+00	0	41	0	356515840	63	5714
2026-01-10 09:23:25.41	121.11	28.78	-46.5	-49.9	14.8	0.00e+00	0	41	0	361758720	63	5687
2026-01-10 09:23:28.40	120.58	29.25	-46.4	-49.8	14.9	0.00e+00	0	41	0	368050176	63	5642
2026-01-10 09:23:31.39	120.03	29.73	-46.0	-49.2	15.5	0.00e+00	0	41	0	373293056	63	5279
2026-01-10 09:23:34.38	119.47	30.21	-46.1	-49.4	15.3	0.00e+00	0	41	0	378535936	63	5400
2026-01-10 09:23:37.36	118.89	30.69	-46.4	-49.8	15.0	0.00e+00	0	41	0	384827392	63	5608
2026-01-10 09:23:40.36	118.29	31.18	-46.8	-50.3	14.3	0.00e+00	0	41	0	390070272	64	5638
2026-01-10 09:23:43.34	117.67	31.67	-47.0	-50.7	13.9	2.20e-06	0	41	0	395313152	64	5922
2026-01-10 09:23:46.34	117.04	32.17	-47.0	-50.7	13.9	1.50e-06	0	41	0	401604608	65	5537
2026-01-10 09:23:49.32	116.38	32.67	-46.8	-50.4	14.3	3.00e-06	0	41	0	406847488	65	5373
2026-01-10 09:23:52.32	115.70	33.18	-46.4	-49.7	15.0	0.00e+00	0	41	0	412090368	64	5255
2026-01-10 09:23:55.30	115.00	33.69	-47.1	-50.9	13.8	5.30e-06	0	41	0	418381824	64	6030
2026-01-10 09:23:58.30	114.28	34.21	-46.5	-50.0	14.7	0.00e+00	0	41	0	423624704	64	5452
2026-01-10 09:24:01.28	113.54	34.72	-46.4	-50.0	14.7	0.00e+00	0	41	0	428867584	64	5411
2026-01-10 09:24:04.27	112.77	35.24	-47.3	-51.3	13.4	4.50e-06	0	41	0	435159040	65	5983
2026-01-10 09:24:07.26	111.97	35.77	-47.9	-52.3	12.5	1.27e-04	0	41	0	440401920	66	6283
2026-01-10 09:24:10.24	111.16	36.29	-47.7	-51.9	12.8	7.62e-05	0	41	0	445644800	66	6037
2026-01-10 09:24:13.23	110.31	36.82	-46.8	-50.3	14.3	7.00e-07	0	41	0	451936256	65	5313
2026-01-10 09:24:16.22	109.43	37.34	-46.0	-49.0	15.6	0.00e+00	0	41	0	457179136	64	4857
2026-01-10 09:24:19.20	108.53	37.87	-46.6	-50.1	14.6	0.00e+00	0	41	0	462422016	64	5507
2026-01-10 09:24:22.19	107.60	38.40	-46.6	-50.1	14.6	0.00e+00	0	41	0	468713472	64	5502
2026-01-10 09:24:25.18	106.63	38.92	-47.0	-50.8	13.9	5.30e-06	0	41	0	473956352	64	5958
2026-01-10 09:24:28.17	105.64	39.45	-47.5	-51.6	13.0	2.67e-05	0	41	0	480247808	65	6167
2026-01-10 09:24:31.15	104.61	39.97	-47.1	-50.8	13.8	9.10e-06	0	41	0	485490688	65	5644
2026-01-10 09:24:34.15	103.54	40.49	-46.2	-49.5	15.2	0.00e+00	0	41	0	490733568	64	5108
2026-01-10 09:24:37.14	102.45	41.01	-47.4	-51.5	13.2	1.83e-05	0	41	0	497025024	65	6082
2026-01-10 09:24:40.13	101.31	41.52	-46.1	-49.2	15.4	0.00e+00	0	41	0	502267904	64	4969
2026-01-10 09:24:43.13	100.14	42.03	-46.6	-50.0	14.6	0.00e+00	0	41	0	507510784	64	5446
2026-01-10 09:24:46.12	98.93	42.52	-46.5	-50.0	14.6	0.00e+00	0	41	0	513802240	64	5441
2026-01-10 09:24:49.11	97.69	43.01	-46.9	-50.6	14.1	5.30e-06	0	41	0	519045120	65	5503
2026-01-10 09:24:52.11	96.40	43.49	-44.9	-47.8	16.7	0.00e+00	0	41	0	524288000	61	5014
2026-01-10 09:24:55.11	95.07	43.96	-44.4	-47.0	17.4	0.00e+00	0	41	0	530579456	59	5148
2026-01-10 09:24:58.11	93.71	44.42	-46.6	-50.6	14.0	7.00e-07	0	41	0	535822336	63	6186
2026-01-10 09:25:01.10	92.31	44.87	-46.0	-49.5	15.1	0.00e+00	0	41	0	541065216	63	5461
2026-01-10 09:25:04.09	90.87	45.29	-45.5	-48.7	15.7	0.00e+00	0	41	0	547356672	63	4949
2026-01-10 09:25:07.08	89.39	45.71	-45.0	-48.2	16.4	0.00e+00	0	41	0	552599552	61	5247
2026-01-10 09:25:10.08	87.87	46.10	-44.7	-47.6	16.9	0.00e+00	0	41	0	557842432	60	5184
2026-01-10 09:25:13.07	86.31	46.48	-46.3	-50.1	14.5	7.00e-07	0	41	0	564133888	63	5810
2026-01-10 09:25:16.06	84.72	46.83	-47.5	-52.7	11.9	1.07e-04	0	41	0	569376768	65	6979
2026-01-10 09:25:19.05	83.09	47.16	-47.9	-54.0	10.6	6.43e-03	0	41	0	574619648	66	7632
2026-01-10 09:25:22.04	81.43	47.47	-47.2	-52.2	12.3	2.73e-04	0	41	0	580911104	66	6212
2026-01-10 09:25:25.03	79.74	47.76	-47.2	-51.7	12.9	6.94e-05	0	41	0	586153984	66	5891
2026-01-10 09:25:28.01	78.03	48.02	-46.3	-50.1	14.4	0.00e+00	0	41	0	592445440	64	5497
2026-01-10 09:25:31.01	76.27	48.25	-46.3	-50.1	14.5	0.00e+00	0	41	0	597688320	64	5469
2026-01-10 09:25:34.00	74.50	48.45	-45.7	-49.2	15.4	0.00e+00	0	41	0	602931200	63	5235
2026-01-10 09:25:36.99	72.70	48.63	-46.3	-50.3	14.4	7.00e-07	0	41	0	609222656	63	5954
2026-01-10 09:25:39.98	70.89	48.77	-44.8	-47.8	16.5	0.00e+00	0	41	0	614465536	61	5041
2026-01-10 09:25:42.96	69.06	48.88	-44.2	-46.9	17.4	0.00e+00	0	41	0	619708416	59	5082
2026-01-10 09:25:45.96	67.22	48.97	-46.0	-49.6	15.0	1.50e-06	0	41	0	625999872	62	5830
2026-01-10 09:25:48.94	65.38	49.01	-46.1	-50.1	14.3	3.80e-06	0	41	0	631242752	63	5829
2026-01-10 09:25:51.94	63.52	49.03	-45.7	-49.4	15.1	0.00e+00	0	41	0	636485632	62	5701
2026-01-10 09:25:54.93	61.66	49.02	-45.6	-49.1	15.4	0.00e+00	0	41	0	642777088	63	5167
2026-01-10 09:25:57.92	59.82	48.97	-45.0	-48.1	16.3	0.00e+00	0	41	0	648019968	61	5189
2026-01-10 09:26:00.92	57.97	48.89	-44.7	-47.6	16.9	0.00e+00	0	41	0	653262848	60	5215
2026-01-10 09:26:03.92	56.13	48.78	-45.3	-48.6	15.9	0.00e+00	0	41	0	659554304	62	5206
2026-01-10 09:26:06.92	54.31	48.64	-46.1	-50.0	14.5	0.00e+00	0	41	0	664797184	63	5751
2026-01-10 09:26:09.91	52.52	48.47	-45.9	-49.7	14.9	0.00e+00	0	41	0	670040064	62	5889
2026-01-10 09:26:12.89	50.75	48.27	-46.5	-50.5	14.1	1.50e-06	0	41	0	676331520	63	6095
2026-01-10 09:26:15.89	48.99	48.04	-45.7	-49.2	15.4	0.00e+00	0	41	0	681574400	63	5220
2026-01-10 09:26:18.88	47.27	47.78	-46.3	-50.2	14.5	0.00e+00	0	41	0	687865856	63	5872
2026-01-10 09:26:21.88	45.57	47.50	-46.6	-50.6	13.9	0.00e+00	0	41	0	693108736	64	5852
2026-01-10 09:26:24.87	43.91	47.19	-46.1	-49.6	15.0	0.00e+00	0	41	0	698351616	63	5516
2026-01-10 09:26:27.85	42.29	46.86	-46.2	-49.8	14.8	0.00e+00	0	41	0	704643072	63	5654
2026-01-10 09:26:30.85	40.70	46.51	-46.6	-50.7	14.0	3.80e-06	0	41	0	709885952	64	5879
2026-01-10 09:26:33.83	39.15	46.14	-46.3	-50.0	14.5	3.00e-06	0	41	0	715128832	64	5454
2026-01-10 09:26:36.83	37.63	45.74	-45.9	-49.5	15.1	7.00e-07	0	41	0	721420288	63	5406
2026-01-10 09:26:39.82	36.15	45.33	-45.7	-49.1	15.6	0.00e+00	0	41	0	726663168	62	5494
2026-01-10 09:26:42.81	34.71	44.91	-45.5	-48.8	15.9	0.00e+00	0	41	0	731906048	62	5286
2026-01-10 09:26:45.80	33.31	44.47	-46.3	-50.0	14.7	7.00e-07	0	41	0	738197504	63	5724
2026-01-10 09:26:48.79	31.95	44.01	-45.8	-49.3	15.3	0.00e+00	0	41	0	743440384	62	5631
2026-01-10 09:26:51.78	30.63	43.55	-45.9	-49.3	15.4	0.00e+00	0	41	0	748683264	63	5300
2026-01-10 09:26:54.77	29.34	43.07	-45.4	-48.6	16.0	0.00e+00	0	41	0	754974720	62	5187
2026-01-10 09:26:57.76	28.10	42.58	-44.5	-47.3	17.1	0.00e+00	0	41	0	760217600	61	4757
2026-01-10 09:27:00.76	26.89	42.09	-44.8	-47.8	16.7	0.00e+00	0	41	0	765460480	60	5316
2026-01-10 09:27:03.75	25.72	41.58	-45.4	-48.5	16.2	0.00e+00	0	41	0	771751936	61	5441
2026-01-10 09:27:06.74	24.58	41.08	-46.7	-50.6	14.0	6.10e-06	0	41	0	776994816	64	5804
2026-01-10 09:27:09.74	23.48	40.56	-47.5	-52.4	12.2	3.18e-04	0	41	0	782237696	66	6389
2026-01-10 09:27:12.73	22.42	40.04	-46.3	-50.1	14.4	0.00e+00	0	41	0	788529152	64	5487
2026-01-10 09:27:15.73	21.39	39.52	-46.2	-49.8	15.0	0.00e+00	0	41	0	793772032	63	5612
2026-01-10 09:27:18.72	20.39	39.00	-47.0	-51.2	13.4	1.29e-05	0	41	0	800063488	64	6241
2026-01-10 09:27:21.71	19.43	38.47	-46.6	-50.4	14.2	0.00e+00	0	41	0	805306368	64	5722
2026-01-10 09:27:24.70	18.49	37.95	-47.3	-52.2	12.3	5.26e-05	0	41	0	810549248	65	6631
2026-01-10 09:27:27.69	17.59	37.42	-47.0	-51.7	12.8	1.58e-04	0	41	0	816840704	65	6263
2026-01-10 09:27:30.69	16.71	36.89	-48.3	-54.2	10.4	4.19e-03	0	41	0	822083584	67	7407
2026-01-10 09:27:33.68	15.86	36.37	-47.4	-51.8	12.8	9.99e-05	0	41	0	827326464	66	5970
2026-01-10 09:27:36.67	15.04	35.85	-45.8	-49.0	15.6	0.00e+00	0	41	0	833617920	63	5128
2026-01-10 09:27:39.67	14.25	35.33	-46.0	-49.4	15.3	0.00e+00	0	41	0	838860800	63	5356
2026-01-10 09:27:42.66	13.48	34.81	-46.5	-50.3	14.3	7.00e-07	0	41	0	844103680	64	5597
2026-01-10 09:27:45.65	12.74	34.29	-47.8	-52.4	12.2	7.85e-05	0	41	0	850395136	66	6417
2026-01-10 09:27:48.64	12.02	33.78	-47.7	-52.5	12.1	3.67e-04	0	41	0	855638016	67	6127
2026-01-10 09:27:51.64	11.32	33.27	-46.8	-50.8	13.8	4.80e-05	0	41	0	860880896	65	5654
2026-01-10 09:27:54.64	10.64	32.76	-46.1	-49.4	15.2	0.00e+00	0	41	0	867172352	63	5366
2026-01-10 09:27:57.63	9.98	32.26	-46.4	-50.1	14.5	0.00e+00	0	41	0	872415232	64	5473
2026-01-10 09:28:00.62	9.35	31.77	-47.7	-52.5	12.2	2.06e-04	0	41	0	877658112	66	6474
2026-01-10 09:28:03.61	8.73	31.27	-46.4	-49.8	14.8	5.30e-06	0	41	0	883949568	64	5315
2026-01-10 09:28:06.59	8.14	30.79	-45.7	-48.7	15.9	0.00e+00	0	41	0	889192448	62	5278
2026-01-10 09:28:09.59	7.56	30.30	-46.9	-50.8	13.8	3.00e-06	0	41	0	894435328	64	5963
2026-01-10 09:28:12.58	7.00	29.82	-47.7	-52.5	12.2	2.10e-04	0	41	0	900726784	66	6427
2026-01-10 09:28:15.57	6.45	29.35	-47.0	-51.1	13.5	3.00e-06	0	41	0	905969664	65	5849
2026-01-10 09:28:18.57	5.92	28.88	-46.6	-50.3	14.3	0.00e+00	0	41	0	912261120	64	5636
2026-01-10 09:28:21.56	5.41	28.42	-45.9	-49.2	15.5	0.00e+00	0	41	0	917504000	63	5227
2026-01-10 09:28:24.55	4.91	27.96	-46.0	-49.3	15.4	0.00e+00	0	41	0	922746880	63	5312
2026-01-10 09:28:27.55	4.42	27.51	-45.9	-49.2	15.5	0.00e+00	0	41	0	929038336	63	5237
2026-01-10 09:28:30.54	3.95	27.06	-46.4	-49.9	14.8	0.00e+00	0	41	0	934281216	63	5703
2026-01-10 09:28:33.53	3.49	26.62	-47.5	-52.0	12.6	7.62e-05	0	41	0	939524096	65	6493
2026-01-10 09:28:36.53	3.05	26.18	-47.5	-51.9	12.7	6.02e-05	0	41	0	945815552	66	6060
2026-01-10 09:28:39.52	2.61	25.74	-47.1	-51.2	13.4	3.80e-06	0	41	0	951058432	65	5900
2026-01-10 09:28:42.51	2.19	25.32	-46.3	-50.0	14.6	0.00e+00	0	41	0	956301312	64	5418
2026-01-10 09:28:45.51	1.78	24.89	-45.5	-48.6	16.0	0.00e+00	0	41	0	962592768	62	5208
2026-01-10 09:28:48.50	1.39	24.48	-45.7	-49.0	15.7	0.00e+00	0	41	0	967835648	62	5427
2026-01-10 09:28:51.48	1.00	24.07	-46.1	-50.0	14.7	7.00e-07	0	41	0	973078528	63	5752
2026-01-10 09:28:54.48	0.62	23.66	-46.0	-49.8	14.8	7.00e-07	0	41	0	979369984	63	5649
2026-01-10 09:28:57.47	0.25	23.26	-45.7	-49.2	15.4	0.00e+00	0	41	0	984612864	63	5241
2026-01-10 09:29:00.46	359.90	22.86	-45.6	-48.9	15.7	0.00e+00	0	41	0	989855744	63	5069
2026-01-10 09:29:03.47	359.54	22.47	-45.3	-48.5	16.1	0.00e+00	0	41	0	996147200	62	5101
2026-01-10 09:29:06.47	359.20	22.08	-45.5	-48.7	15.9	0.00e+00	0	41	0	1001390080	62	5234
2026-01-10 09:29:09.48	358.87	21.69	-46.2	-49.7	15.0	0.00e+00	0	41	0	1007681536	62	5898
2026-01-10 09:29:12.49	358.55	21.31	-46.5	-50.2	14.4	0.00e+00	0	41	0	1012924416	63	5905
2026-01-10 09:29:15.49	358.23	20.94	-46.2	-49.6	15.0	0.00e+00	0	41	0	1018167296	63	5492
2026-01-10 09:29:18.50	357.92	20.57	-45.9	-49.2	15.4	0.00e+00	0	41	0	1024458752	63	5229
2026-01-10 09:29:21.51	357.62	20.20	-46.0	-49.3	15.3	0.00e+00	0	41	0	1029701632	63	5303
2026-01-10 09:29:24.52	357.33	19.84	-46.1	-49.7	14.9	0.00e+00	0	41	0	1034944512	63	5588
2026-01-10 09:29:27.53	357.04	19.48	-45.9	-49.6	14.8	0.00e+00	0	41	0	1041235968	63	5517
2026-01-10 09:29:30.54	356.76	19.13	-45.7	-49.3	15.2	0.00e+00	0	41	0	1046478848	63	5329
2026-01-10 09:29:33.54	356.49	18.78	-45.5	-49.0	15.6	0.00e+00	0	41	0	1052770304	62	5418
2026-01-10 09:29:36.55	356.22	18.44	-45.4	-48.6	16.0	0.00e+00	0	41	0	1058013184	62	5190
2026-01-10 09:29:39.56	355.96	18.10	-45.3	-48.4	16.1	0.00e+00	0	41	0	1063256064	62	5079
2026-01-10 09:29:42.57	355.70	17.76	-45.3	-48.5	16.0	0.00e+00	0	41	0	1069547520	62	5138
2026-01-10 09:29:45.57	355.45	17.43	-45.7	-49.1	15.5	0.00e+00	0	41	0	1074790400	62	5472
2026-01-10 09:29:48.58	355.21	17.10	-46.4	-49.9	14.7	0.00e+00	0	41	0	1080033280	63	5721
2026-01-10 09:29:51.59	354.97	16.78	-46.4	-50.6	13.9	3.80e-06	0	41	0	1086324736	64	5794
2026-01-10 09:29:54.60	354.74	16.46	-46.8	-51.6	12.9	1.98e-05	0	41	0	1091567616	64	6567
2026-01-10 09:29:57.61	354.51	16.14	-46.7	-51.7	12.9	5.64e-05	0	41	0	1097859072	64	6578
2026-01-10 09:30:00.61	354.29	15.83	-46.7	-51.3	13.2	2.36e-05	0	41	0	1103101952	64	6304
2026-01-10 09:30:03.62	354.07	15.52	-46.5	-50.6	13.9	5.30e-06	0	41	0	1108344832	64	5826
2026-01-10 09:30:06.63	353.86	15.21	-46.4	-50.4	14.1	2.20e-06	0	41	0	1114636288	64	5671
2026-01-10 09:30:09.64	353.65	14.91	-46.4	-50.2	14.3	7.00e-07	0	41	0	1119879168	64	5591
2026-01-10 09:30:12.65	353.45	14.61	-46.4	-50.4	14.1	3.00e-06	0	41	0	1125122048	64	5710
2026-01-10 09:30:15.65	353.25	14.31	-46.3	-50.2	14.4	3.80e-06	0	41	0	1131413504	64	5534
2026-01-10 09:30:18.66	353.05	14.02	-46.5	-50.6	13.9	8.30e-06	0	41	0	1136656384	64	5814
2026-01-10 09:30:21.67	352.86	13.73	-46.4	-50.6	13.9	6.80e-06	0	41	0	1142947840	64	5828
2026-01-10 09:30:24.67	352.67	13.44	-46.3	-50.4	14.0	0.00e+00	0	41	0	1148190720	64	5692
2026-01-10 09:30:27.68	352.49	13.16	-45.9	-50.2	14.3	3.80e-06	0	41	0	1153433600	63	5870
2026-01-10 09:30:30.68	352.31	12.88	-45.2	-50.3	14.2	2.20e-06	0	41	0	1159725056	62	6308
2026-01-10 09:30:33.69	352.13	12.60	-44.7	-50.7	13.8	2.20e-06	0	41	0	1164967936	61	7014
2026-01-10 09:30:36.69	351.96	12.33	-44.8	-51.1	13.3	1.37e-05	0	41	0	1170210816	61	7343
2026-01-10 09:30:39.70	351.79	12.05	-45.3	-51.7	12.7	4.95e-05	0	41	0	1176502272	61	7898
2026-01-10 09:30:42.70	351.62	11.78	-46.1	-52.0	12.5	1.02e-04	0	41	0	1181745152	62	7663
2026-01-10 09:30:45.71	351.46	11.52	-46.2	-51.7	12.7	6.33e-05	0	41	0	1188036608	63	6997
2026-01-10 09:30:48.71	351.30	11.25	-46.1	-51.3	13.1	1.75e-05	0	41	0	1193279488	63	6718
2026-01-10 09:30:51.72	351.14	10.99	-45.9	-51.2	13.3	2.05e-05	0	41	0	1198522368	63	6585
2026-01-10 09:30:54.73	350.99	10.73	-45.2	-50.3	14.1	0.00e+00	0	41	0	1204813824	62	6312
2026-01-10 09:30:57.73	350.84	10.48	-45.4	-50.1	14.4	0.00e+00	0	41	0	1210056704	62	6134
2026-01-10 09:31:00.74	350.69	10.22	-45.6	-49.8	14.6	0.00e+00	0	41	0	1215299584	62	5969
2026-01-10 09:31:03.75	350.54	9.97	-46.3	-50.2	14.2	7.00e-07	0	41	0	1221591040	63	5872
2026-01-10 09:31:06.76	350.40	9.72	-46.4	-50.3	14.1	1.50e-06	0	41	0	1226833920	63	5935
2026-01-10 09:31:09.77	350.26	9.47	-46.2	-50.6	13.8	3.80e-06	0	41	0	1233125376	63	6139
2026-01-10 09:31:12.77	350.12	9.23	-46.0	-50.8	13.5	4.50e-06	0	41	0	1238368256	63	6311
2026-01-10 09:31:15.78	349.99	8.99	-47.9	-53.8	10.7	1.22e-05	0	41	0	1243611136	66	7506
2026-01-10 09:31:18.80	349.85	8.75	-49.4	-66.1	3.8	1.49e+00	0	41	104	1244659712	70	24416
2026-01-10 09:31:21.81	349.72	8.51	-50.7	-66.2	3.8	1.49e+00	0	41	104	1244659712	71	23449
2026-01-10 09:31:24.81	349.60	8.27	-50.7	-66.2	3.8	1.49e+00	0	41	104	1244659712	72	22261
2026-01-10 09:31:27.82	349.47	8.04	-50.7	-66.2	3.8	1.49e+00	0	41	104	1244659712	72	22204
2026-01-10 09:31:30.83	349.35	7.81	-50.8	-66.2	3.8	1.49e+00	0	41	104	1244659712	72	22204
2026-01-10 09:31:33.84	349.22	7.57	-51.1	-66.3	3.8	1.49e+00	0	41	104	1244659712	72	22301
2026-01-10 09:31:36.85	349.11	7.35	-50.9	-66.3	3.8	1.49e+00	0	41	104	1244659712	72	22297
2026-01-10 09:31:39.86	348.99	7.12	-51.0	-66.2	3.8	1.49e+00	0	41	104	1244659712	72	22144
2026-01-10 09:31:42.87	348.87	6.90	-50.7	-66.2	3.8	1.49e+00	0	41	104	1244659712	72	22134
2026-01-10 09:31:45.88	348.76	6.67	-50.9	-66.2	3.8	1.49e+00	0	41	104	1244659712	72	22102
2026-01-10 09:31:48.89	348.65	6.45	-50.8	-66.2	3.8	1.49e+00	0	41	104	1244659712	72	22112
2026-01-10 09:31:51.90	348.54	6.23	-50.9	-66.2	3.8	1.49e+00	0	41	104	1244659712	72	22186
2026-01-10 09:31:54.91	348.43	6.01	-50.9	-66.2	3.8	1.49e+00	0	41	104	1244659712	72	22109
2026-01-10 09:31:57.91	348.32	5.80	-50.8	-66.2	3.8	1.49e+00	0	41	104	1244659712	72	22062
2026-01-10 09:32:00.92	348.22	5.59	-50.9	-66.2	3.8	1.49e+00	0	41	104	1244659712	72	22023
2026-01-10 09:32:03.93	348.12	5.37	-50.8	-66.1	3.8	1.49e+00	0	41	104	1244659712	72	21946
2026-01-10 09:32:06.94	348.01	5.16	-50.8	-66.2	3.8	1.49e+00	0	41	104	1244659712	72	22021
2026-01-10 09:32:09.95	347.92	4.95	-50.8	-66.1	3.8	1.49e+00	0	41	104	1244659712	72	21984

#Closed at: 2026-01-10 09:32:10
#Recorded file [1244 MB]: D:/Data/31040_260110_121938.dat