passes_logs/2026/01/10/T1/T1__20260110_235216_AQUA_rec.log

#Pass ID: 20260110_235216_AQUA
#Satellite: AQUA
#Configuration: AQUA
#almurnet v.1.7.20251203
#Start time: 2026-01-10 23:52:18

#Version: 2.0.20230620
#Station: T1
#Location: 37.570604 lon 55.790049 lat
#TLE: 1 27424U 02022A   26009.89520876  .00001045  00000+0  21914-3 0  9996
#TLE: 2 27424  98.4076 336.2372 0002032  84.5955   1.0356 14.61811442260144

#Time	Az	El	Level	Level2	SNR	BER	BlckErr	Temp	State	Recorded	gain1	gain2
2026-01-10 23:52:18.30	33.15	5.11	-52.4	-73.5	3.8	7.48e-01	0	41	0	0	75	42950
2026-01-10 23:52:21.31	33.47	5.29	-52.4	-73.4	3.8	7.47e-01	0	41	104	0	75	42870
2026-01-10 23:52:24.32	33.80	5.47	-52.4	-73.4	3.8	7.46e-01	0	41	104	0	75	42594
2026-01-10 23:52:27.34	34.13	5.65	-52.4	-73.4	3.8	7.46e-01	0	41	104	0	75	42484
2026-01-10 23:52:30.35	34.47	5.83	-52.4	-73.4	3.8	7.46e-01	0	41	104	0	75	42707
2026-01-10 23:52:33.36	34.81	6.01	-52.4	-73.4	3.8	7.46e-01	0	41	104	0	75	42891
2026-01-10 23:52:36.37	35.15	6.19	-52.4	-73.4	3.8	7.44e-01	0	41	104	0	75	42826
2026-01-10 23:52:39.39	35.50	6.37	-52.4	-73.3	3.8	7.47e-01	0	42	104	0	75	42361
2026-01-10 23:52:42.40	35.85	6.55	-52.4	-73.4	3.8	7.47e-01	0	42	104	0	75	42487
2026-01-10 23:52:45.42	36.21	6.73	-52.4	-73.3	3.8	7.47e-01	0	42	104	0	75	42138
2026-01-10 23:52:48.43	36.57	6.91	-52.4	-73.2	3.8	7.48e-01	0	42	104	0	75	41727
2026-01-10 23:52:51.44	36.94	7.10	-52.4	-73.2	3.8	7.47e-01	0	42	104	0	75	41784
2026-01-10 23:52:54.46	37.31	7.28	-52.4	-73.2	3.8	7.46e-01	0	42	104	0	75	41676
2026-01-10 23:52:57.47	37.69	7.46	-52.4	-73.4	3.8	7.47e-01	0	42	104	0	75	42542
2026-01-10 23:53:00.48	38.07	7.65	-52.4	-73.0	3.8	7.46e-01	0	42	104	0	75	40901
2026-01-10 23:53:03.50	38.46	7.84	-52.4	-73.2	3.8	7.45e-01	0	42	104	0	75	41783
2026-01-10 23:53:06.51	38.85	8.02	-52.4	-73.3	3.8	7.48e-01	0	42	104	0	75	42222
2026-01-10 23:53:09.52	39.25	8.21	-52.4	-73.4	3.8	7.45e-01	0	42	104	0	75	42740
2026-01-10 23:53:12.54	39.65	8.39	-52.4	-73.0	3.8	7.47e-01	0	42	104	0	75	40876
2026-01-10 23:53:15.55	40.06	8.58	-52.4	-71.9	3.8	7.43e-01	0	43	104	0	75	35958
2026-01-10 23:53:18.56	40.47	8.77	-52.4	-73.1	3.8	7.49e-01	0	42	104	0	75	41246
2026-01-10 23:53:21.58	40.89	8.96	-52.4	-72.2	3.8	7.45e-01	0	43	104	0	75	37118
2026-01-10 23:53:24.59	41.32	9.14	-51.8	-69.6	5.1	7.26e-01	0	43	0	1572864	74	29175
2026-01-10 23:53:27.60	41.75	9.33	-48.6	-56.8	14.9	6.06e-01	0	43	0	4718592	69	8910
2026-01-10 23:53:30.61	42.18	9.52	-47.4	-52.9	19.3	6.01e-01	0	42	0	10485760	66	6790
2026-01-10 23:53:33.62	42.63	9.71	-48.4	-52.0	20.2	6.05e-01	0	42	0	16252928	67	5781
2026-01-10 23:53:36.63	43.08	9.90	-47.9	-52.0	20.2	6.03e-01	0	43	0	21495808	67	5760
2026-01-10 23:53:39.64	43.53	10.09	-48.2	-51.8	20.4	6.05e-01	0	43	0	27262976	67	5613
2026-01-10 23:53:42.65	43.99	10.27	-47.8	-51.7	20.5	6.03e-01	0	43	0	33030144	67	5585
2026-01-10 23:53:45.67	44.46	10.46	-47.0	-51.8	20.5	6.03e-01	0	43	0	38797312	66	5928
2026-01-10 23:53:48.68	44.93	10.65	-47.3	-51.5	20.7	6.02e-01	0	43	0	44040192	65	6095
2026-01-10 23:53:51.69	45.41	10.84	-47.8	-51.8	20.5	6.04e-01	0	43	0	49807360	66	5934
2026-01-10 23:53:54.70	45.90	11.03	-48.0	-51.6	20.7	6.01e-01	0	43	0	55574528	66	5829
2026-01-10 23:53:57.71	46.39	11.22	-48.2	-51.5	20.8	6.02e-01	0	43	0	61341696	66	5766
2026-01-10 23:54:00.72	46.89	11.41	-48.1	-51.5	20.7	6.05e-01	0	43	0	66584576	67	5463
2026-01-10 23:54:03.73	47.40	11.60	-48.0	-51.5	20.8	6.02e-01	0	43	0	72351744	67	5414
2026-01-10 23:54:06.74	47.92	11.79	-48.0	-51.3	21.0	6.02e-01	0	43	0	78118912	67	5297
2026-01-10 23:54:09.75	48.44	11.97	-48.0	-51.1	21.2	6.04e-01	0	43	0	83886080	67	5198
2026-01-10 23:54:12.76	48.96	12.16	-48.1	-51.3	21.1	6.03e-01	0	43	0	89653248	67	5280
2026-01-10 23:54:15.76	49.50	12.35	-47.9	-51.1	21.2	6.02e-01	0	43	0	94896128	67	5184
2026-01-10 23:54:18.77	50.04	12.53	-47.8	-51.1	21.2	6.05e-01	0	43	0	100663296	67	5184
2026-01-10 23:54:21.79	50.59	12.72	-47.6	-51.1	21.2	6.03e-01	0	43	0	106430464	67	5193
2026-01-10 23:54:24.80	51.15	12.91	-47.6	-50.9	21.4	6.04e-01	0	43	0	111673344	67	5070
2026-01-10 23:54:27.81	51.71	13.09	-47.7	-51.1	21.2	6.03e-01	0	43	0	117440512	67	5178
2026-01-10 23:54:30.82	52.28	13.27	-47.7	-50.9	21.3	6.03e-01	0	43	0	123207680	67	5090
2026-01-10 23:54:33.82	52.86	13.46	-47.8	-50.9	21.4	6.02e-01	0	43	0	128974848	67	5056
2026-01-10 23:54:36.84	53.45	13.64	-47.7	-50.8	21.5	6.02e-01	0	43	0	134742016	67	4994
2026-01-10 23:54:39.85	54.04	13.82	-47.8	-50.9	21.4	6.05e-01	0	43	0	139984896	67	5084
2026-01-10 23:54:42.85	54.64	14.00	-47.6	-50.6	21.7	6.03e-01	0	43	0	145752064	67	4907
2026-01-10 23:54:45.86	55.25	14.17	-47.7	-50.7	21.6	6.02e-01	0	43	0	151519232	67	4969
2026-01-10 23:54:48.87	55.87	14.35	-47.7	-50.7	21.6	6.03e-01	0	43	0	157286400	67	4942
2026-01-10 23:54:51.88	56.49	14.52	-47.7	-50.7	21.6	6.04e-01	0	43	0	162529280	67	4966
2026-01-10 23:54:54.89	57.12	14.70	-47.7	-50.7	21.7	6.05e-01	0	43	0	168296448	67	4948
2026-01-10 23:54:57.90	57.76	14.87	-47.7	-50.6	21.7	6.02e-01	0	43	0	174063616	67	4914
2026-01-10 23:55:00.91	58.41	15.04	-47.7	-50.6	21.6	6.04e-01	0	43	0	179830784	67	4925
2026-01-10 23:55:03.92	59.06	15.21	-47.7	-50.6	21.6	6.03e-01	0	43	0	185073664	67	4926
2026-01-10 23:55:06.93	59.73	15.37	-47.6	-50.6	21.8	6.05e-01	0	43	0	190840832	67	4874
2026-01-10 23:55:09.94	60.40	15.53	-47.5	-50.6	21.8	6.05e-01	0	43	0	196608000	67	4875
2026-01-10 23:55:12.95	61.08	15.70	-47.6	-50.5	21.8	6.02e-01	0	43	0	202375168	67	4843
2026-01-10 23:55:15.96	61.76	15.85	-47.7	-50.7	21.7	6.03e-01	0	43	0	208142336	67	4941
2026-01-10 23:55:18.97	62.46	16.01	-47.5	-50.4	22.0	6.05e-01	0	43	0	213385216	66	5061
2026-01-10 23:55:21.98	63.16	16.16	-47.5	-50.4	21.9	6.03e-01	0	43	0	219152384	66	5099
2026-01-10 23:55:24.99	63.87	16.31	-47.4	-50.3	22.0	6.05e-01	0	43	0	224919552	66	5000
2026-01-10 23:55:28.01	64.58	16.46	-47.6	-50.5	21.9	6.04e-01	0	43	0	230686720	66	5116
2026-01-10 23:55:31.01	65.31	16.60	-47.6	-50.4	21.9	6.04e-01	0	43	0	235929600	66	5087
2026-01-10 23:55:34.03	66.04	16.74	-47.6	-50.5	21.8	6.04e-01	0	43	0	241696768	66	5133
2026-01-10 23:55:37.04	66.78	16.88	-47.7	-50.6	21.7	6.03e-01	0	43	0	247463936	66	5212
2026-01-10 23:55:40.05	67.52	17.01	-47.6	-50.5	21.9	6.04e-01	0	43	0	253231104	66	5117
2026-01-10 23:55:43.06	68.27	17.14	-47.7	-50.6	21.7	6.04e-01	0	43	0	258473984	66	5196
2026-01-10 23:55:46.07	69.03	17.27	-47.7	-50.7	21.7	6.04e-01	0	43	0	264241152	66	5235
2026-01-10 23:55:49.08	69.80	17.39	-47.5	-50.4	22.0	6.05e-01	0	43	0	270008320	66	5069
2026-01-10 23:55:52.09	70.57	17.51	-47.6	-50.5	21.9	6.02e-01	0	43	0	275775488	66	5123
2026-01-10 23:55:55.10	71.34	17.63	-47.8	-50.7	21.7	6.05e-01	0	43	0	281018368	66	5271
2026-01-10 23:55:58.11	72.13	17.73	-47.5	-50.4	21.9	6.04e-01	0	43	0	286785536	66	5082
2026-01-10 23:56:01.12	72.92	17.84	-47.6	-50.5	21.9	6.03e-01	0	43	0	292552704	66	5112
2026-01-10 23:56:04.13	73.71	17.94	-47.6	-50.4	22.0	6.02e-01	0	43	0	298319872	66	5087
2026-01-10 23:56:07.14	74.51	18.04	-47.5	-50.4	21.9	6.03e-01	0	43	0	303562752	66	5097
2026-01-10 23:56:10.15	75.32	18.13	-47.6	-50.5	21.9	6.03e-01	0	43	0	309329920	66	5107
2026-01-10 23:56:13.16	76.13	18.21	-47.6	-50.5	21.9	6.02e-01	0	43	0	315097088	66	5142
2026-01-10 23:56:16.17	76.95	18.29	-47.6	-50.6	21.8	6.04e-01	0	43	0	320864256	66	5209
2026-01-10 23:56:19.18	77.77	18.37	-47.7	-50.6	21.8	6.01e-01	0	43	0	326631424	66	5180
2026-01-10 23:56:22.19	78.59	18.44	-47.6	-50.5	21.9	6.03e-01	0	43	0	331874304	66	5154
2026-01-10 23:56:25.20	79.42	18.51	-47.6	-50.6	21.8	6.07e-01	0	43	0	337641472	66	5171
2026-01-10 23:56:28.21	80.25	18.57	-47.5	-50.4	22.0	6.03e-01	0	43	0	343408640	66	5078
2026-01-10 23:56:31.22	81.08	18.62	-47.5	-50.5	21.9	6.04e-01	0	43	0	349175808	66	5131
2026-01-10 23:56:34.22	81.92	18.67	-47.5	-50.5	21.8	6.05e-01	0	43	0	354418688	66	5148
2026-01-10 23:56:37.23	82.76	18.71	-47.4	-50.4	22.0	6.03e-01	0	43	0	360185856	66	5048
2026-01-10 23:56:40.24	83.60	18.75	-47.3	-50.3	22.0	6.03e-01	0	43	0	365953024	66	5027
2026-01-10 23:56:43.25	84.45	18.78	-47.3	-50.4	22.0	6.02e-01	0	43	0	371720192	66	5086
2026-01-10 23:56:46.26	85.30	18.81	-47.4	-50.4	22.0	6.05e-01	0	43	0	377487360	66	5095
2026-01-10 23:56:49.28	86.15	18.83	-47.3	-50.4	22.0	6.00e-01	0	43	0	382730240	66	5079
2026-01-10 23:56:52.29	87.00	18.84	-47.4	-50.7	21.7	6.03e-01	0	43	0	388497408	66	5231
2026-01-10 23:56:55.29	87.84	18.85	-47.2	-50.5	22.0	6.03e-01	0	43	0	394264576	66	5103
2026-01-10 23:56:58.30	88.69	18.85	-47.4	-50.4	22.0	6.04e-01	0	43	0	399507456	66	5053
2026-01-10 23:57:01.31	89.54	18.85	-47.5	-50.6	21.8	6.03e-01	0	43	0	405274624	66	5169
2026-01-10 23:57:04.32	90.39	18.84	-47.3	-50.3	22.1	6.04e-01	0	43	0	411041792	66	5008
2026-01-10 23:57:07.33	91.24	18.82	-47.3	-50.4	22.0	6.04e-01	0	43	0	416808960	66	5064
2026-01-10 23:57:10.34	92.09	18.80	-47.5	-50.5	21.9	6.03e-01	0	43	0	422576128	66	5107
2026-01-10 23:57:13.35	92.94	18.77	-47.5	-50.4	22.1	6.04e-01	0	43	0	427819008	66	5061
2026-01-10 23:57:16.36	93.78	18.74	-47.6	-50.4	22.0	6.05e-01	0	43	0	433586176	66	5081
2026-01-10 23:57:19.37	94.63	18.70	-47.5	-50.4	22.0	6.07e-01	0	43	0	439353344	66	5057
2026-01-10 23:57:22.38	95.47	18.65	-47.4	-50.2	22.1	6.04e-01	0	43	0	445120512	66	4962
2026-01-10 23:57:25.39	96.31	18.60	-47.6	-50.5	21.9	6.05e-01	0	43	0	450363392	66	5106
2026-01-10 23:57:28.40	97.14	18.55	-47.4	-50.3	22.1	6.04e-01	0	43	0	456130560	66	4986
2026-01-10 23:57:31.41	97.97	18.49	-47.3	-50.1	22.2	6.03e-01	0	43	0	461897728	66	4916
2026-01-10 23:57:34.42	98.80	18.42	-47.5	-50.3	22.0	6.04e-01	0	43	0	467664896	66	5036
2026-01-10 23:57:37.44	99.63	18.35	-47.4	-50.2	22.2	6.05e-01	0	43	0	472907776	66	4928
2026-01-10 23:57:40.44	100.45	18.27	-47.5	-50.3	22.0	6.02e-01	0	43	0	478674944	66	5006
2026-01-10 23:57:43.45	101.26	18.19	-47.4	-50.3	22.1	6.05e-01	0	43	0	484442112	66	4999
2026-01-10 23:57:46.46	102.08	18.10	-47.3	-50.1	22.2	6.02e-01	0	43	0	490209280	66	4912
2026-01-10 23:57:49.46	102.88	18.00	-47.5	-50.3	22.0	6.05e-01	0	43	0	495976448	66	5025
2026-01-10 23:57:52.47	103.68	17.91	-47.2	-50.0	22.3	6.04e-01	0	43	0	501219328	66	4844
2026-01-10 23:57:55.49	104.48	17.80	-47.5	-50.3	22.0	6.04e-01	0	43	0	506986496	66	5009
2026-01-10 23:57:58.50	105.27	17.70	-47.3	-50.2	22.1	6.02e-01	0	43	0	512753664	66	4932
2026-01-10 23:58:01.51	106.05	17.59	-47.3	-50.2	22.1	6.03e-01	0	43	0	518520832	66	4951
2026-01-10 23:58:04.52	106.83	17.47	-47.3	-50.1	22.2	6.03e-01	0	43	0	523763712	66	4877
2026-01-10 23:58:07.52	107.60	17.35	-47.4	-50.2	22.1	6.05e-01	0	43	0	529530880	66	4979
2026-01-10 23:58:10.53	108.37	17.23	-47.2	-50.0	22.3	6.02e-01	0	43	0	535298048	66	4824
2026-01-10 23:58:13.55	109.13	17.10	-47.3	-50.1	22.2	6.02e-01	0	43	0	541065216	66	4904
2026-01-10 23:58:16.56	109.88	16.96	-47.3	-50.1	22.1	6.02e-01	0	43	0	546308096	66	4913
2026-01-10 23:58:19.57	110.63	16.83	-47.3	-50.2	22.1	6.04e-01	0	43	0	552075264	66	4970
2026-01-10 23:58:22.58	111.37	16.69	-47.2	-50.1	22.2	6.03e-01	0	43	0	557842432	66	4876
2026-01-10 23:58:25.59	112.10	16.55	-47.2	-50.2	22.1	6.04e-01	0	43	0	563609600	66	4938
2026-01-10 23:58:28.60	112.82	16.40	-47.4	-50.3	22.0	6.03e-01	0	43	0	568852480	66	5022
2026-01-10 23:58:31.61	113.54	16.25	-47.3	-50.1	22.2	6.05e-01	0	43	0	574619648	66	4920
2026-01-10 23:58:34.62	114.25	16.10	-47.4	-50.2	22.2	6.02e-01	0	43	0	580386816	66	4936
2026-01-10 23:58:37.63	114.95	15.94	-47.3	-50.1	22.1	6.04e-01	0	43	0	586153984	66	4913
2026-01-10 23:58:40.63	115.64	15.79	-47.3	-50.1	22.2	6.03e-01	0	43	0	591396864	66	4919
2026-01-10 23:58:43.64	116.33	15.63	-47.3	-50.1	22.2	6.05e-01	0	43	0	597164032	66	4912
2026-01-10 23:58:46.66	117.01	15.46	-47.4	-50.2	22.1	6.04e-01	0	43	0	602931200	66	4971
2026-01-10 23:58:49.67	117.68	15.30	-47.2	-50.1	22.2	6.04e-01	0	43	0	608698368	66	4876
2026-01-10 23:58:52.68	118.34	15.13	-47.3	-50.1	22.1	6.05e-01	0	43	0	614465536	66	4924
2026-01-10 23:58:55.69	119.00	14.96	-47.3	-50.2	22.1	6.02e-01	0	44	0	619708416	66	4948
2026-01-10 23:58:58.70	119.65	14.79	-47.4	-50.3	22.0	6.03e-01	0	43	0	625475584	66	5000
2026-01-10 23:59:01.71	120.29	14.62	-47.4	-50.2	22.1	6.03e-01	0	43	0	631242752	66	4944
2026-01-10 23:59:04.72	120.92	14.44	-47.5	-50.4	21.9	6.04e-01	0	43	0	637009920	66	5098
2026-01-10 23:59:07.73	121.55	14.27	-47.6	-50.5	21.9	6.03e-01	0	43	0	642252800	66	5103
2026-01-10 23:59:10.74	122.16	14.09	-47.6	-50.5	21.8	6.04e-01	0	43	0	648019968	66	5104
2026-01-10 23:59:13.75	122.77	13.91	-47.6	-50.5	21.8	6.04e-01	0	43	0	653787136	66	5139
2026-01-10 23:59:16.76	123.37	13.73	-47.6	-50.5	21.8	6.02e-01	0	43	0	659554304	66	5106
2026-01-10 23:59:19.77	123.97	13.54	-47.4	-50.3	21.9	6.05e-01	0	43	0	664797184	66	5013
2026-01-10 23:59:22.78	124.56	13.36	-47.5	-50.4	21.9	6.05e-01	0	43	0	670564352	66	5046
2026-01-10 23:59:25.79	125.13	13.18	-47.5	-50.4	21.8	6.01e-01	0	43	0	676331520	66	5077
2026-01-10 23:59:28.81	125.71	12.99	-47.6	-50.5	21.7	6.02e-01	0	43	0	682098688	66	5157
2026-01-10 23:59:31.82	126.27	12.80	-47.6	-50.5	21.6	6.03e-01	0	43	0	687865856	66	5155
2026-01-10 23:59:34.83	126.83	12.62	-47.7	-50.6	21.6	6.04e-01	0	43	0	693108736	66	5205
2026-01-10 23:59:37.84	127.38	12.43	-47.6	-50.5	21.7	6.03e-01	0	43	0	698875904	66	5158
2026-01-10 23:59:40.84	127.92	12.24	-47.5	-50.6	21.6	6.04e-01	0	43	0	704643072	66	5196
2026-01-10 23:59:43.85	128.45	12.05	-47.6	-50.8	21.4	6.04e-01	0	43	0	709885952	66	5323
2026-01-10 23:59:46.86	128.98	11.86	-47.5	-50.5	21.7	6.04e-01	0	43	0	715653120	66	5139
2026-01-10 23:59:49.87	129.50	11.67	-47.6	-50.7	21.5	6.04e-01	0	43	0	721420288	66	5233
2026-01-10 23:59:52.87	130.01	11.48	-47.7	-50.8	21.5	6.02e-01	0	43	0	727187456	66	5291
2026-01-10 23:59:55.88	130.52	11.29	-47.8	-50.9	21.3	6.02e-01	0	43	0	732954624	66	5383
2026-01-10 23:59:58.89	131.02	11.10	-47.9	-51.1	21.1	6.02e-01	0	44	0	738197504	66	5483
2026-01-11 00:00:01.90	131.51	10.91	-48.0	-51.2	21.0	6.04e-01	0	43	0	743964672	66	5558
2026-01-11 00:00:04.91	132.00	10.72	-47.9	-51.1	21.1	6.05e-01	0	43	0	749731840	66	5469
2026-01-11 00:00:07.92	132.48	10.53	-47.9	-51.0	21.1	6.03e-01	0	43	0	755499008	66	5459
2026-01-11 00:00:10.93	132.95	10.34	-48.0	-51.2	21.0	6.01e-01	0	43	0	760741888	66	5535
2026-01-11 00:00:13.93	133.42	10.15	-48.1	-51.3	20.9	6.07e-01	0	43	0	766509056	66	5638
2026-01-11 00:00:16.94	133.88	9.96	-48.0	-51.3	20.9	6.02e-01	0	44	0	772276224	66	5604
2026-01-11 00:00:19.95	134.33	9.77	-48.2	-51.5	20.7	6.04e-01	0	43	0	778043392	67	5448
2026-01-11 00:00:22.96	134.78	9.57	-48.2	-51.5	20.6	6.06e-01	0	43	0	783286272	67	5459
2026-01-11 00:00:25.97	135.22	9.38	-48.1	-51.3	20.8	6.03e-01	0	43	0	789053440	67	5310
2026-01-11 00:00:28.98	135.66	9.19	-48.3	-51.6	20.5	6.03e-01	0	43	0	794820608	67	5515
2026-01-11 00:00:31.99	136.09	9.00	-48.3	-51.7	20.4	6.06e-01	0	43	0	800587776	67	5557
2026-01-11 00:00:35.00	136.51	8.81	-53.6	-73.9	3.8	7.48e-01	0	43	104	802160640	78	37958
2026-01-11 00:00:38.01	136.93	8.63	-54.1	-74.0	3.8	7.43e-01	0	43	104	802160640	79	36476
2026-01-11 00:00:41.03	137.34	8.44	-54.2	-74.2	3.8	7.46e-01	0	43	104	802160640	79	36982
2026-01-11 00:00:44.04	137.75	8.25	-54.0	-74.2	3.8	7.45e-01	0	43	104	802160640	79	37324
2026-01-11 00:00:47.05	138.15	8.06	-54.4	-74.2	3.8	7.46e-01	0	44	104	802160640	79	37294
2026-01-11 00:00:50.07	138.55	7.87	-53.3	-74.3	3.8	7.42e-01	0	43	104	802160640	78	39598
2026-01-11 00:00:53.08	138.94	7.68	-53.9	-74.2	3.8	7.45e-01	0	43	104	802160640	78	39559
2026-01-11 00:00:56.09	139.33	7.50	-53.9	-74.2	3.8	7.48e-01	0	43	104	802160640	78	39484
2026-01-11 00:00:59.10	139.71	7.31	-53.9	-74.2	3.8	7.44e-01	0	44	104	802160640	78	39505
2026-01-11 00:01:02.12	140.08	7.12	-53.8	-74.2	3.8	7.44e-01	0	43	104	802160640	78	39416
2026-01-11 00:01:05.13	140.45	6.94	-53.8	-74.2	3.8	7.46e-01	0	43	104	802160640	78	39270
2026-01-11 00:01:08.14	140.82	6.75	-53.8	-74.2	3.8	7.47e-01	0	44	104	802160640	78	39356
2026-01-11 00:01:11.16	141.18	6.57	-53.8	-74.2	3.8	7.44e-01	0	44	104	802160640	78	39377
2026-01-11 00:01:14.17	141.54	6.39	-53.8	-74.2	3.8	7.45e-01	0	43	104	802160640	78	39425
2026-01-11 00:01:17.18	141.89	6.20	-53.8	-74.2	3.8	7.49e-01	0	44	104	802160640	78	39302
2026-01-11 00:01:20.19	142.23	6.02	-53.8	-74.2	3.8	7.44e-01	0	44	104	802160640	78	39369
2026-01-11 00:01:23.20	142.57	5.84	-53.8	-74.2	3.8	7.46e-01	0	44	104	802160640	78	39254
2026-01-11 00:01:26.22	142.91	5.66	-53.8	-74.2	3.8	7.43e-01	0	43	104	802160640	78	39348
2026-01-11 00:01:29.23	143.25	5.48	-53.8	-74.2	3.8	7.48e-01	0	43	104	802160640	78	39383
2026-01-11 00:01:32.24	143.58	5.30	-53.8	-74.2	3.8	7.45e-01	0	43	104	802160640	78	39354
2026-01-11 00:01:35.26	143.90	5.12	-5
