passes_logs/2026/01/10/T1/T1__20260110_121400_NOAA_21_JPSS-2_rec.log

#Pass ID: 20260110_121400_NOAA 21 (JPSS-2)
#Satellite: NOAA 21 (JPSS-2)
#Configuration: NOAA 21
#almurnet v.1.7.20251203
#Start time: 2026-01-10 12:14:02

#Version: 2.0.20230620
#Station: T1
#Location: 37.570604 lon 55.790049 lat
#TLE: 1 54234U 22150A   26009.79679979  .00000100  00000+0  68070-4 0  9993
#TLE: 2 54234  98.7494 310.7596 0000833 322.2782  37.8335 14.19533646164071

#Time	Az	El	Level	Level2	SNR	BER	BlckErr	Temp	State	Recorded	gain1	gain2
2026-01-10 12:14:02.51	241.82	5.09	-50.4	-63.5	3.8	1.49e+00	0	42	0	0	72	16286
2026-01-10 12:14:04.51	242.07	5.17	-50.4	-63.5	3.8	1.49e+00	0	42	104	0	72	16237
2026-01-10 12:14:06.52	242.32	5.25	-50.4	-63.5	3.8	1.49e+00	0	42	104	0	72	16189
2026-01-10 12:14:08.53	242.58	5.33	-50.4	-63.5	3.8	1.49e+00	0	42	104	0	72	16230
2026-01-10 12:14:10.53	242.83	5.41	-50.4	-63.5	3.8	1.49e+00	0	42	104	0	72	16250
2026-01-10 12:14:12.54	243.09	5.49	-50.4	-63.5	3.8	1.49e+00	0	42	104	0	72	16239
2026-01-10 12:14:14.55	243.35	5.57	-50.4	-63.5	3.8	1.49e+00	0	42	104	0	72	16299
2026-01-10 12:14:16.56	243.61	5.65	-50.4	-63.5	3.8	1.49e+00	0	42	104	0	72	16220
2026-01-10 12:14:18.57	243.88	5.73	-50.4	-63.5	3.8	1.49e+00	0	43	104	0	72	16222
2026-01-10 12:14:20.58	244.14	5.81	-50.4	-63.5	3.8	1.49e+00	0	43	104	0	72	16262
2026-01-10 12:14:22.59	244.41	5.89	-50.4	-63.5	3.8	1.49e+00	0	43	104	0	72	16279
2026-01-10 12:14:24.59	244.67	5.97	-50.4	-63.5	3.8	1.49e+00	0	43	104	0	72	16230
2026-01-10 12:14:26.60	244.94	6.05	-50.4	-63.5	3.8	1.49e+00	0	43	104	0	72	16288
2026-01-10 12:14:28.61	245.21	6.13	-50.4	-63.5	3.8	1.49e+00	0	43	104	0	72	16253
2026-01-10 12:14:30.62	245.48	6.21	-50.4	-63.5	3.8	1.49e+00	0	43	104	0	72	16256
2026-01-10 12:14:32.63	245.75	6.29	-50.4	-63.5	3.8	1.49e+00	0	43	104	0	72	16213
2026-01-10 12:14:34.64	246.03	6.37	-50.4	-63.5	3.8	1.49e+00	0	43	104	0	72	16192
2026-01-10 12:14:36.64	246.30	6.44	-50.4	-63.5	3.8	1.49e+00	0	43	104	0	72	16199
2026-01-10 12:14:38.65	246.58	6.52	-50.4	-63.5	3.8	1.49e+00	0	43	104	0	72	16189
2026-01-10 12:14:40.66	246.86	6.60	-50.4	-63.5	3.8	1.49e+00	0	43	104	0	72	16187
2026-01-10 12:14:42.67	247.14	6.67	-50.4	-63.5	3.8	1.49e+00	0	43	104	0	72	16197
2026-01-10 12:14:44.68	247.42	6.75	-50.4	-63.5	3.8	1.49e+00	0	43	104	0	72	16157
2026-01-10 12:14:46.69	247.70	6.83	-50.4	-63.4	3.8	1.49e+00	0	43	104	0	72	16103
2026-01-10 12:14:48.70	247.98	6.90	-50.4	-63.4	3.8	1.49e+00	0	43	104	0	72	16113
2026-01-10 12:14:50.70	248.27	6.98	-50.4	-63.4	3.8	1.49e+00	0	43	104	0	72	16095
2026-01-10 12:14:52.71	248.55	7.05	-50.4	-63.5	3.8	1.49e+00	0	43	104	0	72	16219
2026-01-10 12:14:54.72	248.84	7.13	-50.4	-63.5	3.8	1.49e+00	0	43	104	0	72	16166
2026-01-10 12:14:56.73	249.13	7.20	-50.4	-63.4	3.8	1.49e+00	0	43	104	0	72	16069
2026-01-10 12:14:58.74	249.42	7.27	-50.4	-63.4	3.8	1.49e+00	0	43	104	0	72	15996
2026-01-10 12:15:00.75	249.72	7.35	-50.3	-63.4	3.8	1.49e+00	0	43	104	0	72	16075
2026-01-10 12:15:02.75	250.01	7.42	-50.4	-63.5	3.8	1.49e+00	0	43	104	0	72	16196
2026-01-10 12:15:04.76	250.30	7.49	-50.4	-63.5	3.8	1.49e+00	0	43	104	0	72	16174
2026-01-10 12:15:06.77	250.60	7.56	-50.4	-63.4	3.8	1.49e+00	0	43	104	0	72	16074
2026-01-10 12:15:08.78	250.90	7.63	-50.3	-63.3	3.8	1.49e+00	0	43	104	0	72	15824
2026-01-10 12:15:10.79	251.20	7.70	-50.3	-63.2	3.8	1.49e+00	0	43	104	0	72	15654
2026-01-10 12:15:12.79	251.50	7.77	-50.3	-63.1	3.8	1.49e+00	0	43	104	0	72	15420
2026-01-10 12:15:14.80	251.80	7.84	-50.3	-63.2	3.8	1.49e+00	0	43	104	0	72	15601
2026-01-10 12:15:16.81	252.10	7.91	-50.3	-63.4	3.8	1.49e+00	0	43	104	0	72	15956
2026-01-10 12:15:18.82	252.41	7.98	-50.3	-63.4	3.8	1.49e+00	0	43	104	0	72	16077
2026-01-10 12:15:20.83	252.71	8.05	-50.4	-63.3	3.8	1.49e+00	0	43	104	0	72	15905
2026-01-10 12:15:22.84	253.02	8.12	-50.3	-62.9	3.8	1.49e+00	0	43	104	0	72	15205
2026-01-10 12:15:24.85	253.33	8.19	-50.3	-63.0	3.8	1.49e+00	0	43	104	0	72	15334
2026-01-10 12:15:26.86	253.64	8.25	-50.4	-63.4	3.8	1.49e+00	0	43	104	0	72	16021
2026-01-10 12:15:28.87	253.95	8.32	-50.4	-63.4	3.8	1.49e+00	0	43	104	0	72	15999
2026-01-10 12:15:30.88	254.27	8.39	-50.3	-63.1	3.8	1.49e+00	0	43	104	0	72	15525
2026-01-10 12:15:32.89	254.58	8.45	-50.4	-63.2	3.8	1.49e+00	0	43	104	0	72	15611
2026-01-10 12:15:34.89	254.89	8.51	-50.4	-63.3	3.8	1.49e+00	0	43	104	0	72	15896
2026-01-10 12:15:36.90	255.21	8.58	-50.2	-61.6	3.9	1.49e+00	0	44	104	0	72	13010
2026-01-10 12:15:38.91	255.53	8.64	-50.2	-61.2	4.0	1.48e+00	0	44	104	0	72	12384
2026-01-10 12:15:40.92	255.85	8.70	-50.2	-62.2	3.8	1.49e+00	0	43	104	0	72	13967
2026-01-10 12:15:42.93	256.17	8.77	-48.2	-52.9	9.2	4.15e-02	0	44	0	0	68	6034
2026-01-10 12:15:44.94	256.49	8.83	-45.5	-48.3	13.9	1.90e-05	0	44	0	0	63	4747
2026-01-10 12:15:46.95	256.82	8.89	-44.6	-47.1	15.1	0.00e+00	0	44	0	0	61	4641
2026-01-10 12:15:48.95	257.14	8.95	-45.4	-48.3	14.0	2.20e-06	0	44	0	0	61	5288
2026-01-10 12:15:50.96	257.47	9.01	-47.1	-50.9	11.2	4.45e-04	0	43	0	0	64	6038
2026-01-10 12:15:52.97	257.80	9.07	-48.1	-53.1	8.9	6.31e-03	0	43	0	0	66	6950
2026-01-10 12:15:54.98	258.13	9.13	-46.9	-50.7	11.4	3.17e-04	0	44	0	0	64	5876
2026-01-10 12:15:56.99	258.46	9.18	-47.0	-50.9	11.1	8.18e-03	0	44	0	0	66	5387
2026-01-10 12:15:58.99	258.79	9.24	-46.8	-50.4	11.6	7.39e-04	0	44	0	0	65	5398
2026-01-10 12:16:01.00	259.12	9.30	-46.2	-49.6	12.5	1.10e-04	0	44	0	0	64	5175
2026-01-10 12:16:03.01	259.45	9.35	-45.6	-48.5	13.7	9.90e-06	0	44	0	0	63	4846
2026-01-10 12:16:05.02	259.79	9.41	-44.9	-47.6	14.6	0.00e+00	0	44	0	0	61	4887
2026-01-10 12:16:07.02	260.12	9.46	-44.9	-47.6	14.7	0.00e+00	0	44	0	0	61	4880
2026-01-10 12:16:09.03	260.46	9.51	-44.6	-47.3	14.9	0.00e+00	0	44	0	0	61	4710
2026-01-10 12:16:11.04	260.80	9.57	-44.3	-46.9	15.4	0.00e+00	0	44	0	0	60	4765
2026-01-10 12:16:13.05	261.14	9.62	-44.2	-46.7	15.5	0.00e+00	0	44	0	0	60	4678
2026-01-10 12:16:15.05	261.48	9.67	-44.0	-46.4	15.9	0.00e+00	0	44	0	0	60	4499
2026-01-10 12:16:17.06	261.82	9.72	-44.1	-46.4	15.8	0.00e+00	0	44	0	0	60	4543
2026-01-10 12:16:19.06	262.16	9.77	-44.1	-46.4	15.8	0.00e+00	0	43	0	0	60	4527
2026-01-10 12:16:21.07	262.51	9.82	-44.1	-46.4	15.8	0.00e+00	0	44	0	0	60	4530
2026-01-10 12:16:23.08	262.85	9.86	-44.0	-46.3	15.9	0.00e+00	0	44	0	0	59	4708
2026-01-10 12:16:25.08	263.20	9.91	-43.9	-46.3	15.9	0.00e+00	0	44	0	0	59	4720
2026-01-10 12:16:27.09	263.54	9.96	-43.9	-46.3	15.9	0.00e+00	0	43	0	0	59	4732
2026-01-10 12:16:29.10	263.89	10.00	-43.9	-46.3	15.9	0.00e+00	0	43	0	0	59	4714
2026-01-10 12:16:31.10	264.24	10.05	-43.8	-46.2	16.0	0.00e+00	0	44	0	0	59	4655
2026-01-10 12:16:33.11	264.59	10.09	-44.0	-46.3	15.8	0.00e+00	0	44	0	0	59	4730
2026-01-10 12:16:35.12	264.94	10.13	-43.9	-46.2	15.9	0.00e+00	0	44	0	0	59	4670
2026-01-10 12:16:37.12	265.29	10.17	-43.9	-46.2	16.0	0.00e+00	0	44	0	0	59	4665
2026-01-10 12:16:39.13	265.65	10.21	-47.4	-61.8	3.8	1.49e+00	0	44	104	0	66	18946
2026-01-10 12:16:41.14	266.00	10.25	-47.3	-61.7	3.8	1.49e+00	0	44	104	0	66	18675
2026-01-10 12:16:43.15	266.36	10.29	-47.3	-61.8	3.8	1.49e+00	0	44	104	0	66	18748
2026-01-10 12:16:45.16	266.71	10.33	-47.2	-61.7	3.8	1.49e+00	0	44	104	0	66	18662
2026-01-10 12:16:47.17	267.07	10.37	-47.2	-61.7	3.8	1.49e+00	0	44	104	0	66	18625
2026-01-10 12:16:49.18	267.43	10.40	-47.2	-61.7	3.8	1.49e+00	0	44	104	0	66	18570
2026-01-10 12:16:51.19	267.79	10.44	-47.2	-61.7	3.8	1.49e+00	0	44	104	0	66	18521
2026-01-10 12:16:53.19	268.14	10.47	-47.2	-61.7	3.8	1.49e+00	0	44	104	0	66	18559
2026-01-10 12:16:55.20	268.51	10.51	-47.2	-61.7	3.8	1.49e+00	0	44	104	0	66	18616
2026-01-10 12:16:57.21	268.87	10.54	-47.2	-61.7	3.8	1.49e+00	0	44	104	0	66	18690
2026-01-10 12:16:59.22	269.23	10.57	-47.3	-61.7	3.8	1.49e+00	0	44	104	0	66	18645
2026-01-10 12:17:01.23	269.59	10.60	-47.2	-61.7	3.8	1.49e+00	0	43	104	0	66	18691
2026-01-10 12:17:03.24	269.95	10.63	-47.2	-61.7	3.8	1.49e+00	0	44	104	0	66	18664
2026-01-10 12:17:05.25	270.32	10.66	-47.2	-61.7	3.8	1.49e+00	0	44	104	0	66	18670
2026-01-10 12:17:07.26	270.68	10.69	-47.2	-61.7	3.8	1.49e+00	0	44	104	0	66	18625
2026-01-10 12:17:09.27	271.05	10.71	-47.2	-61.7	3.8	1.49e+00	0	44	104	0	66	18678
2026-01-10 12:17:11.28	271.41	10.74	-47.3	-61.7	3.8	1.49e+00	0	44	104	0	66	18691
2026-01-10 12:17:13.28	271.78	10.76	-47.3	-61.7	3.8	1.49e+00	0	44	104	0	66	18718
2026-01-10 12:17:15.29	272.15	10.79	-47.3	-61.8	3.8	1.49e+00	0	44	104	0	66	18775
2026-01-10 12:17:17.30	272.51	10.81	-47.2	-61.8	3.8	1.49e+00	0	43	104	0	66	18754
2026-01-10 12:17:19.30	272.88	10.83	-47.2	-61.7	3.8	1.49e+00	0	44	104	0	66	18704
2026-01-10 12:17:21.31	273.25	10.85	-47.2	-61.8	3.8	1.49e+00	0	44	104	0	66	18768
2026-01-10 12:17:23.31	273.62	10.87	-47.2	-61.8	3.8	1.49e+00	0	44	104	0	66	18744
2026-01-10 12:17:25.32	273.99	10.89	-47.2	-61.8	3.8	1.49e+00	0	44	104	0	66	18829
2026-01-10 12:17:27.33	274.36	10.91	-47.2	-61.8	3.8	1.49e+00	0	44	104	0	66	18741
2026-01-10 12:17:29.34	274.73	10.92	-47.2	-61.8	3.8	1.49e+00	0	44	104	0	66	18746
2026-01-10 12:17:31.35	275.10	10.94	-47.2	-61.7	3.8	1.49e+00	0	44	104	0	66	18678
2026-01-10 12:17:33.36	275.47	10.95	-47.3	-61.8	3.8	1.49e+00	0	44	104	0	66	18782
2026-01-10 12:17:35.37	275.84	10.96	-47.2	-61.8	3.8	1.49e+00	0	44	104	0	66	18743
2026-01-10 12:17:37.37	276.21	10.98	-47.2	-61.8	3.8	1.49e+00	0	44	104	0	66	18756
2026-01-10 12:17:39.38	276.58	10.99	-47.2	-61.7	3.8	1.49e+00	0	44	104	0	66	18724
2026-01-10 12:17:41.39	276.96	11.00	-47.3	-61.8	3.8	1.49e+00	0	44	104	0	66	18782
2026-01-10 12:17:43.40	277.33	11.01	-47.3	-61.8	3.8	1.49e+00	0	44	104	0	66	18768
2026-01-10 12:17:45.41	277.70	11.01	-47.2	-61.7	3.8	1.49e+00	0	44	104	0	66	18689
2026-01-10 12:17:47.42	278.07	11.02	-47.2	-61.7	3.8	1.49e+00	0	44	104	0	66	18624
2026-01-10 12:17:49.42	278.44	11.03	-47.2	-61.7	3.8	1.49e+00	0	44	104	0	66	18725
2026-01-10 12:17:51.43	278.82	11.03	-47.2	-61.7	3.8	1.49e+00	0	44	104	0	66	18726
2026-01-10 12:17:53.44	279.19	11.03	-47.2	-61.7	3.8	1.49e+00	0	43	104	0	66	18693
2026-01-10 12:17:55.45	279.56	11.04	-47.2	-61.7	3.8	1.49e+00	0	44	104	0	66	18730
2026-01-10 12:17:57.46	279.94	11.04	-47.2	-61.7	3.8	1.49e+00	0	44	104	0	66	18681
2026-01-10 12:17:59.47	280.31	11.04	-47.2	-61.7	3.8	1.49e+00	0	44	104	0	66	18707
2026-01-10 12:18:01.48	280.68	11.04	-47.2	-61.7	3.8	1.49e+00	0	44	104	0	66	18711
2026-01-10 12:18:03.48	281.06	11.03	-47.2	-61.8	3.8	1.49e+00	0	44	104	0	66	18763
2026-01-10 12:18:05.49	281.43	11.03	-47.2	-61.7	3.8	1.49e+00	0	44	104	0	66	18694
2026-01-10 12:18:07.50	281.80	11.03	-47.2	-61.7	3.8	1.49e+00	0	44	104	0	66	18708
2026-01-10 12:18:09.51	282.17	11.02	-47.2	-61.7	3.8	1.49e+00	0	44	104	0	66	18634
2026-01-10 12:18:11.52	282.55	11.02	-47.2	-61.7	3.8	1.49e+00	0	44	104	0	66	18671
2026-01-10 12:18:13.53	282.92	11.01	-47.2	-61.7	3.8	1.49e+00	0	44	104	0	66	18714
2026-01-10 12:18:15.54	283.29	11.00	-47.2	-61.7	3.8	1.49e+00	0	44	104	0	66	18712
2026-01-10 12:18:17.55	283.66	10.99	-47.2	-61.7	3.8	1.49e+00	0	44	104	0	66	18720
2026-01-10 12:18:19.55	284.03	10.98	-47.2	-61.7	3.8	1.49e+00	0	44	104	0	66	18670
2026-01-10 12:18:21.56	284.41	10.97	-47.2	-61.7	3.8	1.49e+00	0	44	104	0	66	18666
2026-01-10 12:18:23.57	284.78	10.96	-47.2	-61.8	3.8	1.49e+00	0	44	104	0	66	18757
2026-01-10 12:18:25.58	285.15	10.94	-47.2	-61.7	3.8	1.49e+00	0	44	104	0	66	18718
2026-01-10 12:18:27.59	285.52	10.93	-47.2	-61.7	3.8	1.49e+00	0	44	104	0	66	18655
2026-01-10 12:18:29.60	285.89	10.91	-47.2	-61.7	3.8	1.49e+00	0	44	104	0	66	18661
2026-01-10 12:18:31.61	286.26	10.89	-47.2	-61.8	3.8	1.49e+00	0	44	104	0	66	18781
2026-01-10 12:18:33.62	286.63	10.88	-47.2	-61.7	3.8	1.49e+00	0	44	104	0	66	18698
2026-01-10 12:18:35.62	286.99	10.86	-47.2	-61.7	3.8	1.49e+00	0	44	104	0	66	18654
2026-01-10 12:18:37.63	287.36	10.84	-47.3	-61.7	3.8	1.49e+00	0	44	104	0	66	18625
2026-01-10 12:18:39.64	287.73	10.82	-47.2	-61.7	3.8	1.49e+00	0	44	104	0	66	18713
2026-01-10 12:18:41.64	288.09	10.79	-47.3	-61.7	3.8	1.49e+00	0	44	104	0	66	18682
2026-01-10 12:18:43.65	288.46	10.77	-47.3	-61.7	3.8	1.49e+00	0	44	104	0	66	18715
2026-01-10 12:18:45.66	288.83	10.75	-47.3	-61.7	3.8	1.49e+00	0	44	104	0	66	18655
2026-01-10 12:18:47.67	289.19	10.72	-47.3	-61.7	3.8	1.49e+00	0	44	104	0	66	18717
2026-01-10 12:18:49.68	289.56	10.70	-47.3	-61.7	3.8	1.49e+00	0	44	104	0	66	18711
2026-01-10 12:18:51.69	289.92	10.67	-47.3	-61.7	3.8	1.49e+00	0	44	104	0	66	18666
2026-01-10 12:18:53.69	290.28	10.64	-47.3	-61.7	3.8	1.49e+00	0	44	104	0	66	18711
2026-01-10 12:18:55.70	290.65	10.61	-47.3	-61.7	3.8	1.49e+00	0	44	104	0	66	18722
2026-01-10 12:18:57.71	291.01	10.58	-47.3	-61.7	3.8	1.49e+00	0	44	104	0	66	18697
2026-01-10 12:18:59.72	291.37	10.55	-47.3	-61.8	3.8	1.49e+00	0	44	104	0	66	18765
2026-01-10 12:19:01.73	291.73	10.52	-47.3	-61.7	3.8	1.49e+00	0	44	104	0	66	18665
2026-01-10 12:19:03.74	292.09	10.48	-47.3	-61.7	3.8	1.49e+00	0	44	104	0	66	18662
2026-01-10 12:19:05.75	292.45	10.45	-47.3	-61.7	3.8	1.49e+00	0	44	104	0	66	18680
2026-01-10 12:19:07.75	292.80	10.42	-47.3	-61.7	3.8	1.49e+00	0	44	104	0	66	18676
2026-01-10 12:19:09.76	293.16	10.38	-47.3	-61.7	3.8	1.49e+00	0	44	104	0	66	18720
2026-01-10 12:19:11.77	293.52	10.34	-47.3	-61.7	3.8	1.49e+00	0	44	104	0	66	18637
2026-01-10 12:19:13.78	293.87	10.31	-47.3	-61.8	3.8	1.49e+00	0	44	104	0	66	18758
2026-01-10 12:19:15.79	294.23	10.27	-47.3	-61.7	3.8	1.49e+00	0	44	104	0	66	18681
2026-01-10 12:19:17.80	294.58	10.23	-47.3	-61.7	3.8	1.49e+00	0	44	104	0	66	18673
2026-01-10 12:19:19.81	294.93	10.19	-47.3	-61.8	3.8	1.49e+00	0	44	104	0	66	18739
2026-01-10 12:19:21.82	295.29	10.15	-47.3	-61.7	3.8	1.49e+00	0	44	104	0	66	18683
2026-01-10 12:19:23.83	295.64	10.10	-47.3	-61.7	3.8	1.49e+00	0	44	104	0	66	18720
2026-01-10 12:19:25.83	295.98	10.06	-47.3	-61.7	3.8	1.49e+00	0	44	104	0	66	18724
2026-01-10 12:19:27.84	296.33	10.02	-47.3	-61.7	3.8	1.49e+00	0	44	104	0	66	18696
2026-01-10 12:19:29.85	296.68	9.97	-47.3	-61.7	3.8	1.49e+00	0	44	104	0	66	18692
2026-01-10 12:19:31.86	297.03	9.93	-47.3	-61.8	3.8	1.49e+00	0	44	104	0	66	18790
2026-01-10 12:19:33.87	297.37	9.88	-47.3	-61.8	3.8	1.49e+00	0	44	104	0	66	18736
2026-01-10 12:19:35.87	297.72	9.84	-47.3	-61.7	3.8	1.49e+00	0	44	104	0	66	18703
2026-01-10 12:19:37.88	298.06	9.79	-47.3	-61.7	3.8	1.49e+00	0	44	104	0	66	18724
2026-01-10 12:19:39.89	298.40	9.74	-47.3	-61.7	3.8	1.49e+00	0	44	104	0	66	18725
2026-01-10 12:19:41.90	298.74	9.69	-47.4	-61.7	3.8	1.49e+00	0	44	104	0	66	18720
2026-01-10 12:19:43.91	299.08	9.64	-47.3	-61.7	3.8	1.49e+00	0	44	104	0	66	18683
2026-01-10 12:19:45.92	299.42	9.59	-47.3	-61.8	3.8	1.49e+00	0	44	104	0	66	18806
2026-01-10 12:19:47.93	299.76	9.54	-47.3	-61.8	3.8	1.49e+00	0	44	104	0	66	18764
2026-01-10 12:19:49.94	300.10	9.48	-47.3	-61.7	3.8	1.49e+00	0	44	104	0	66	18628
2026-01-10 12:19:51.95	300.43	9.43	-47.3	-61.8	3.8	1.49e+00	0	44	104	0	66	18784
2026-01-10 12:19:53.95	300.76	9.38	-47.3	-61.7	3.8	1.49e+00	0	44	104	0	66	18678
2026-01-10 12:19:55.96	301.10	9.32	-47.3	-61.8	3.8	1.49e+00	0	44	104	0	66	18770
2026-01-10 12:19:57.97	301.43	9.27	-47.3	-61.8	3.8	1.49e+00	0	44	104	0	66	18808
2026-01-10 12:19:59.98	301.76	9.21	-47.3	-61.7	3.8	1.49e+00	0	44	104	0	66	18693
2026-01-10 12:20:01.99	302.09	9.15	-47.3	-61.7	3.8	1.49e+00	0	44	104	0	66	18721
2026-01-10 12:20:04.00	302.41	9.10	-47.3	-61.7	3.8	1.49e+00	0	44	104	0	66	18695
2026-01-10 12:20:06.00	302.74	9.04	-47.3	-61.7	3.8	1.49e+00	0	44	104	0	66	18719
2026-01-10 12:20:08.01	303.06	8.98	-47.3	-61.7	3.8	1.49e+00	0	44	104	0	66	18715
2026-01-10 12:20:10.02	303.39	8.92	-47.3	-61.8	3.8	1.49e+00	0	44	104	0	66	18733
2026-01-10 12:20:12.03	303.71	8.86	-47.3	-61.7	3.8	1.49e+00	0	44	104	0	66	18717
2026-01-10 12:20:14.04	304.03	8.80	-47.3	-61.8	3.8	1.49e+00	0	44	104	0	66	18775
2026-01-10 12:20:16.05	304.35	8.74	-47.3	-61.7	3.8	1.49e+00	0	44	104	0	66	18723
2026-01-10 12:20:18.06	304.67	8.68	-47.3	-61.7	3.8	1.49e+00	0	44	104	0	66	18686
2026-01-10 12:20:20.06	304.99	8.61	-47.3	-61.8	3.8	1.49e+00	0	44	104	0	66	18747
2026-01-10 12:20:22.07	305.30	8.55	-47.3	-61.7	3.8	1.49e+00	0	44	104	0	66	18671
2026-01-10 12:20:24.08	305.62	8.49	-47.3	-61.7	3.8	1.49e+00	0	44	104	0	66	18666
2026-01-10 12:20:26.09	305.93	8.42	-47.3	-61.7	3.8	1.49e+00	0	44	104	0	66	18716
2026-01-10 12:20:28.10	306.24	8.36	-47.3	-61.7	3.8	1.49e+00	0	44	104	0	66	18723
2026-01-10 12:20:30.11	306.55	8.29	-47.3	-61.7	3.8	1.49e+00	0	44	104	0	66	18703
2026-01-10 12:20:32.12	306.86	8.23	-47.3	-61.7	3.8	1.49e+00	0	44	104	0	66	18690
2026-01-10 12:20:34.13	307.17	8.16	-47.3	-61.7	3.8	1.49e+00	0	44	104	0	66	18703
2026-01-10 12:20:36.14	307.48	8.09	-47.3	-61.7	3.8	1.49e+00	0	44	104	0	66	18728
2026-01-10 12:20:38.14	307.78	8.03	-47.3	-61.7	3.8	1.49e+00	0	44	104	0	66	18646
2026-01-10 12:20:40.15	308.09	7.96	-47.3	-61.7	3.8	1.49e+00	0	44	104	0	66	18667
2026-01-10 12:20:42.16	308.39	7.89	-47.3	-61.8	3.8	1.49e+00	0	44	104	0	66	18748
2026-01-10 12:20:44.17	308.69	7.82	-47.3	-61.7	3.8	1.49e+00	0	44	104	0	66	18715
2026-01-10 12:20:46.18	308.99	7.75	-47.3	-61.8	3.8	1.49e+00	0	44	104	0	66	18763
2026-01-10 12:20:48.19	309.29	7.68	-47.3	-61.7	3.8	1.49e+00	0	44	104	0	66	18704
2026-01-10 12:20:50.20	309.58	7.61	-47.3	-61.7	3.8	1.49e+00	0	44	104	0	66	18579
2026-01-10 12:20:52.20	309.88	7.54	-47.3	-61.8	3.8	1.49e+00	0	44	104	0	66	18741
2026-01-10 12:20:54.21	310.17	7.47	-47.3	-61.7	3.8	1.49e+00	0	44	104	0	66	18656
2026-01-10 12:20:56.22	310.47	7.40	-47.3	-61.7	3.8	1.49e+00	0	44	104	0	66	18656
2026-01-10 12:20:58.23	310.76	7.32	-47.3	-61.7	3.8	1.49e+00	0	44	104	0	66	18669
2026-01-10 12:21:00.24	311.05	7.25	-47.3	-61.7	3.8	1.49e+00	0	44	104	0	66	18674
2026-01-10 12:21:02.25	311.34	7.18	-47.3	-61.7	3.8	1.49e+00	0	44	104	0	66	18694
2026-01-10 12:21:04.26	311.62	7.10	-47.3	-61.8	3.8	1.49e+00	0	44	104	0	66	18737
2026-01-10 12:21:06.27	311.91	7.03	-47.3	-61.7	3.8	1.49e+00	0	44	104	0	66	18645
2026-01-10 12:21:08.27	312.19	6.96	-47.3	-61.7	3.8	1.49e+00	0	44	104	0	66	18685
2026-01-10 12:21:10.29	312.48	6.88	-47.3	-61.7	3.8	1.49e+00	0	44	104	0	66	18655
2026-01-10 12:21:12.29	312.76	6.81	-47.3	-61.7	3.8	1.49e+00	0	44	104	0	66	18706
2026-01-10 12:21:14.30	313.04	6.73	-47.3	-61.7	3.8	1.49e+00	0	44	104	0	66	18702
2026-01-10 12:21:16.31	313.31	6.66	-47.3	-61.7	3.8	1.49e+00	0	44	104	0	66	18693
2026-01-10 12:21:18.32	313.59	6.58	-47.3	-61.7	3.8	1.49e+00	0	44	104	0	66	18662
2026-01-10 12:21:20.33	313.87	6.50	-47.3	-61.7	3.8	1.49e+00	0	44	104	0	66	18617
2026-01-10 12:21:22.34	314.14	6.43	-47.3	-61.7	3.8	1.49e+00	0	44	104	0	66	18677
2026-01-10 12:21:24.35	314.42	6.35	-47.3	-61.7	3.8	1.49e+00	0	44	104	0	66	18677
2026-01-10 12:21:26.36	314.69	6.27	-47.3	-61.7	3.8	1.49e+00	0	44	104	0	66	18589
2026-01-10 12:21:28.37	314.96	6.20	-47.3	-61.7	3.8	1.49e+00	0	44	104	0	66	18708
2026-01-10 12:21:30.38	315.23	6.12	-47.3	-61.7	3.8	1.49e+00	0	44	104	0	66	18686
2026-01-10 12:21:32.38	315.49	6.04	-47.3	-61.7	3.8	1.49e+00	0	44	104	0	66	18717
2026-01-10 12:21:34.39	315.76	5.96	-47.3	-61.8	3.8	1.49e+00	0	44	104	0	66	18735
2026-01-10 12:21:36.40	316.02	5.88	-47.3	-61.7	3.8	1.49e+00	0	44	104	0	66	18717
2026-01-10 12:21:38.41	316.29	5.81	-47.3	-61.7	3.8	1.49e+00	0	44	104	0	66	18690
2026-01-10 12:21:40.42	316.55	5.73	-47.3	-61.8	3.8	1.49e+00	0	44	104	0	66	18766
2026-01-10 12:21:42.43	316.81	5.65	-47.3	-61.8	3.8	1.49e+00	0	44	104	0	66	18759
2026-01-10 12:21:44.44	317.07	5.57	-47.3	-61.7	3.8	1.49e+00	0	44	104	0	66	18706
2026-01-10 12:21:46.45	317.33	5.49	-47.3	-61.7	3.8	1.49e+00	0	44	104	0	66	18680
2026-01-10 12:21:48.46	317.58	5.41	-47.3	-61.7	3.8	1.49e+00	0	44	104	0	66	18680
2026-01-10 12:21:50.47	317.84	5.33	-47.3	-61.7	3.8	1.49e+00	0	44	104	0	66	18729
2026-01-10 12:21:52.47	318.09	5.25	-47.3	-61.7	3.8	1.49e+00	0	44	104	0	66	18679
2026-01-10 12:21:54.48	318.34	5.17	-47.3	-61.7	3.8	1.49e+00	0	44	104	0	66	18673
2026-01-10 12:21:56.49	318.59	5.09	-47.3	-61.7	3.8	1.49e+00	0	44	104	0	66	18692
2026-01-10 12:21:58.50	318.84	5.00	-47.3	-61.7	3.8	1.49e+00	0	44	104	0	66	18660

#Closed at: 2026-01-10 12:21:59
#Recorded file [0 MB]: D:/Data/31040_260110_151402.dat