passes_logs/2026/01/10/T1/T1__20260110_152621_FENGYUN_3E_rec.log

#Pass ID: 20260110_152621_FENGYUN 3E
#Satellite: FENGYUN 3E
#Configuration: FENGYUN 3E
#almurnet v.1.7.20251203
#Start time: 2026-01-10 15:26:22

#Version: 2.0.20230620
#Station: T1
#Location: 37.570604 lon 55.790049 lat
#TLE: 1 49008U 21062A   26009.86154543 -.00000176  00000+0 -62220-4 0  9996
#TLE: 2 49008  98.7486  15.0498 0001782 147.3871 212.7416 14.19883371234110

#Time	Az	El	Level	Level2	SNR	BER	BlckErr	Temp	State	Recorded	gain1	gain2
2026-01-10 15:26:22.94	200.19	5.10	-47.1	-59.5	3.8	8.47e-01	0	40	0	0	63	16006
2026-01-10 15:26:25.95	200.40	5.29	-47.0	-59.4	3.8	8.48e-01	0	41	104	0	64	14936
2026-01-10 15:26:28.96	200.61	5.49	-47.0	-59.4	3.8	8.47e-01	0	41	104	0	64	14987
2026-01-10 15:26:31.98	200.83	5.68	-47.0	-59.4	3.8	8.47e-01	0	41	104	0	64	14940
2026-01-10 15:26:34.99	201.05	5.88	-47.0	-59.3	3.8	8.47e-01	0	41	104	0	64	14874
2026-01-10 15:26:38.00	201.28	6.08	-47.0	-59.4	3.8	8.48e-01	0	41	104	0	64	14960
2026-01-10 15:26:41.01	201.50	6.28	-47.0	-59.4	3.8	8.47e-01	0	41	104	0	64	15021
2026-01-10 15:26:44.03	201.73	6.48	-47.0	-59.4	3.8	8.46e-01	0	41	104	0	64	14965
2026-01-10 15:26:47.04	201.96	6.68	-47.0	-59.4	3.8	8.47e-01	0	41	104	0	64	14992
2026-01-10 15:26:50.06	202.20	6.88	-47.0	-59.4	3.8	8.46e-01	0	42	104	0	64	14962
2026-01-10 15:26:53.07	202.44	7.09	-47.0	-59.4	3.8	8.47e-01	0	42	104	0	64	14977
2026-01-10 15:26:56.08	202.68	7.29	-47.0	-59.4	3.8	8.48e-01	0	42	104	0	64	14900
2026-01-10 15:26:59.09	202.92	7.50	-47.0	-59.3	3.8	8.46e-01	0	42	104	0	64	14878
2026-01-10 15:27:02.11	203.17	7.71	-47.0	-59.4	3.8	8.47e-01	0	42	104	0	64	14919
2026-01-10 15:27:05.12	203.42	7.92	-46.9	-59.4	3.8	8.47e-01	0	42	104	0	64	14949
2026-01-10 15:27:08.13	203.68	8.13	-47.0	-59.4	3.8	8.48e-01	0	42	104	0	64	14959
2026-01-10 15:27:11.14	203.94	8.34	-47.0	-59.5	3.8	8.48e-01	0	42	104	0	64	15096
2026-01-10 15:27:14.16	204.20	8.55	-47.0	-59.4	3.8	8.46e-01	0	42	104	0	64	14886
2026-01-10 15:27:17.17	204.47	8.77	-47.0	-59.4	3.8	8.48e-01	0	42	104	0	64	14924
2026-01-10 15:27:20.18	204.74	8.98	-47.0	-59.4	3.8	8.47e-01	0	42	104	0	64	14886
2026-01-10 15:27:23.20	205.01	9.20	-47.0	-59.4	3.8	8.47e-01	0	42	104	0	64	14971
2026-01-10 15:27:26.21	205.29	9.42	-47.0	-59.4	3.8	8.46e-01	0	42	104	0	64	14884
2026-01-10 15:27:29.22	205.57	9.64	-47.0	-59.4	3.8	8.47e-01	0	42	104	0	64	14975
2026-01-10 15:27:32.24	205.86	9.86	-46.9	-59.4	3.8	8.47e-01	0	43	104	0	64	14948
2026-01-10 15:27:35.25	206.15	10.08	-46.9	-59.4	3.8	8.47e-01	0	43	104	0	64	14893
2026-01-10 15:27:38.26	206.44	10.30	-47.0	-59.4	3.8	8.47e-01	0	43	104	0	64	14980
2026-01-10 15:27:41.28	206.74	10.53	-47.0	-59.4	3.8	8.47e-01	0	43	104	0	64	14964
2026-01-10 15:27:44.29	207.04	10.76	-47.0	-59.4	3.8	8.46e-01	0	43	104	0	64	14981
2026-01-10 15:27:47.30	207.35	10.98	-47.0	-59.4	3.8	8.48e-01	0	43	104	0	64	14901
2026-01-10 15:27:50.32	207.66	11.21	-47.0	-59.4	3.8	8.46e-01	0	43	104	0	64	14976
2026-01-10 15:27:53.33	207.98	11.44	-47.0	-59.4	3.8	8.46e-01	0	43	104	0	64	15006
2026-01-10 15:27:56.34	208.30	11.68	-47.0	-59.4	3.8	8.46e-01	0	43	104	0	64	15034
2026-01-10 15:27:59.36	208.63	11.91	-46.9	-59.4	3.8	8.47e-01	0	43	104	0	64	15039
2026-01-10 15:28:02.37	208.96	12.14	-47.0	-59.4	3.8	8.46e-01	0	43	104	0	64	14954
2026-01-10 15:28:05.38	209.30	12.38	-47.0	-59.4	3.8	8.47e-01	0	43	104	0	64	14938
2026-01-10 15:28:08.40	209.64	12.62	-47.0	-59.4	3.8	8.48e-01	0	43	104	0	64	15000
2026-01-10 15:28:11.41	209.99	12.86	-47.0	-59.4	3.8	8.46e-01	0	43	104	0	64	14993
2026-01-10 15:28:14.42	210.35	13.10	-47.0	-59.4	3.8	8.47e-01	0	43	104	0	64	14944
2026-01-10 15:28:17.44	210.71	13.34	-47.0	-59.4	3.8	8.47e-01	0	43	104	0	64	14946
2026-01-10 15:28:20.45	211.07	13.58	-47.0	-59.5	3.8	8.47e-01	0	43	104	0	64	15092
2026-01-10 15:28:23.46	211.44	13.83	-47.0	-59.4	3.8	8.48e-01	0	43	104	0	64	14971
2026-01-10 15:28:26.48	211.82	14.08	-47.0	-59.4	3.8	8.46e-01	0	43	104	0	64	14955
2026-01-10 15:28:29.49	212.20	14.32	-47.0	-59.4	3.8	8.46e-01	0	43	104	0	64	14918
2026-01-10 15:28:32.50	212.59	14.57	-47.0	-59.4	3.8	8.47e-01	0	43	104	0	64	14958
2026-01-10 15:28:35.52	212.99	14.82	-47.1	-59.4	3.8	8.46e-01	0	43	104	0	64	14994
2026-01-10 15:28:38.53	213.39	15.07	-47.1	-59.4	3.8	8.47e-01	0	43	104	0	64	14988
2026-01-10 15:28:41.54	213.80	15.33	-47.1	-59.4	3.8	8.47e-01	0	43	104	0	64	14950
2026-01-10 15:28:44.55	214.21	15.58	-47.1	-59.4	3.8	8.47e-01	0	43	104	0	64	14977
2026-01-10 15:28:47.57	214.64	15.84	-47.1	-59.4	3.8	8.48e-01	0	43	104	0	64	15021
2026-01-10 15:28:50.58	215.06	16.09	-47.1	-59.4	3.8	8.48e-01	0	43	104	0	64	14996
2026-01-10 15:28:53.59	215.50	16.35	-47.1	-59.4	3.8	8.46e-01	0	43	104	0	64	15047
2026-01-10 15:28:56.61	215.95	16.61	-47.1	-59.4	3.8	8.47e-01	0	43	104	0	64	15043
2026-01-10 15:28:59.62	216.40	16.87	-47.1	-59.4	3.8	8.47e-01	0	43	104	0	64	14927
2026-01-10 15:29:02.63	216.86	17.13	-47.1	-59.4	3.8	8.47e-01	0	43	104	0	64	14986
2026-01-10 15:29:05.64	217.32	17.39	-47.1	-59.4	3.8	8.47e-01	0	43	104	0	64	14939
2026-01-10 15:29:08.66	217.80	17.65	-47.1	-59.4	3.8	8.47e-01	0	43	104	0	64	15009
2026-01-10 15:29:11.67	218.28	17.92	-47.0	-59.4	3.8	8.47e-01	0	43	104	0	64	15014
2026-01-10 15:29:14.68	218.77	18.18	-47.0	-59.4	3.8	8.46e-01	0	43	104	0	64	15015
2026-01-10 15:29:17.70	219.27	18.45	-47.0	-59.4	3.8	8.48e-01	0	43	104	0	64	14921
2026-01-10 15:29:20.71	219.78	18.71	-47.0	-59.4	3.8	8.47e-01	0	43	104	0	64	14947
2026-01-10 15:29:23.73	220.30	18.98	-47.0	-59.4	3.8	8.46e-01	0	43	104	0	64	14924
2026-01-10 15:29:26.74	220.83	19.25	-47.0	-59.4	3.8	8.47e-01	0	43	104	0	64	14952
2026-01-10 15:29:29.75	221.36	19.52	-47.0	-59.4	3.8	8.46e-01	0	43	104	0	64	15005
2026-01-10 15:29:32.77	221.91	19.79	-46.9	-59.4	3.8	8.47e-01	0	44	104	0	64	14996
2026-01-10 15:29:35.78	222.46	20.05	-47.0	-59.4	3.8	8.46e-01	0	43	104	0	64	14991
2026-01-10 15:29:38.79	223.02	20.32	-47.0	-59.4	3.8	8.49e-01	0	43	104	0	64	14939
2026-01-10 15:29:41.81	223.60	20.59	-47.0	-59.5	3.8	8.47e-01	0	43	104	0	64	15069
2026-01-10 15:29:44.82	224.18	20.86	-47.0	-59.4	3.8	8.47e-01	0	43	104	0	64	15025
2026-01-10 15:29:47.83	224.77	21.13	-47.0	-59.4	3.8	8.47e-01	0	44	104	0	64	14994
2026-01-10 15:29:50.85	225.38	21.40	-47.0	-59.4	3.8	8.48e-01	0	43	104	0	64	14936
2026-01-10 15:29:53.86	225.99	21.67	-47.0	-59.4	3.8	8.46e-01	0	44	104	0	64	14964
2026-01-10 15:29:56.88	226.62	21.94	-47.0	-59.4	3.8	8.47e-01	0	44	104	0	64	14998
2026-01-10 15:29:59.89	227.25	22.20	-47.0	-59.4	3.8	8.47e-01	0	43	104	0	64	14942
2026-01-10 15:30:02.90	227.89	22.47	-47.0	-59.4	3.8	8.48e-01	0	44	104	0	64	14967
2026-01-10 15:30:05.91	228.55	22.73	-47.0	-59.4	3.8	8.48e-01	0	44	104	0	64	15051
2026-01-10 15:30:08.93	229.22	23.00	-47.0	-59.4	3.8	8.47e-01	0	44	104	0	64	14956
2026-01-10 15:30:11.94	229.90	23.26	-47.0	-59.4	3.8	8.47e-01	0	43	104	0	64	15038
2026-01-10 15:30:14.96	230.59	23.52	-47.0	-59.4	3.8	8.46e-01	0	43	104	0	64	15025
2026-01-10 15:30:17.97	231.29	23.78	-47.0	-59.4	3.8	8.46e-01	0	44	104	0	64	14953
2026-01-10 15:30:20.98	232.00	24.04	-47.0	-59.4	3.8	8.48e-01	0	44	104	0	64	14883
2026-01-10 15:30:23.99	232.72	24.30	-47.0	-59.3	3.8	8.47e-01	0	44	104	0	64	14851
2026-01-10 15:30:27.00	233.46	24.55	-47.0	-59.4	3.8	8.46e-01	0	44	104	0	64	14929
2026-01-10 15:30:30.02	234.20	24.80	-47.0	-59.4	3.8	8.47e-01	0	44	104	0	64	14972
2026-01-10 15:30:33.03	234.96	25.05	-47.0	-59.4	3.8	8.47e-01	0	44	104	0	64	14971
2026-01-10 15:30:36.05	235.73	25.30	-47.0	-59.4	3.8	8.47e-01	0	44	104	0	64	14955
2026-01-10 15:30:39.06	236.51	25.54	-47.0	-59.4	3.8	8.46e-01	0	44	104	0	64	14940
2026-01-10 15:30:42.07	237.31	25.78	-47.0	-59.4	3.8	8.47e-01	0	43	104	0	64	14931
2026-01-10 15:30:45.08	238.11	26.01	-47.0	-59.4	3.8	8.47e-01	0	44	104	0	64	14937
2026-01-10 15:30:48.10	238.93	26.24	-47.0	-59.4	3.8	8.46e-01	0	44	104	0	64	14939
2026-01-10 15:30:51.11	239.76	26.47	-47.0	-59.4	3.8	8.47e-01	0	44	104	0	64	14930
2026-01-10 15:30:54.12	240.60	26.69	-47.0	-59.4	3.8	8.47e-01	0	44	104	0	64	15038
2026-01-10 15:30:57.13	241.45	26.91	-47.0	-59.4	3.8	8.47e-01	0	43	104	0	64	15011
2026-01-10 15:31:00.15	242.31	27.12	-47.0	-59.4	3.8	8.47e-01	0	44	104	0	64	15001
2026-01-10 15:31:03.16	243.18	27.33	-46.9	-59.4	3.8	8.46e-01	0	44	104	0	64	14955
2026-01-10 15:31:06.18	244.07	27.53	-47.0	-59.4	3.8	8.47e-01	0	43	104	0	64	14914
2026-01-10 15:31:09.19	244.97	27.73	-46.9	-59.4	3.8	8.48e-01	0	44	104	0	64	14908
2026-01-10 15:31:12.20	245.87	27.91	-47.0	-59.4	3.8	8.46e-01	0	44	104	0	64	14978
2026-01-10 15:31:15.21	246.79	28.10	-46.9	-59.4	3.8	8.46e-01	0	44	104	0	64	14894
2026-01-10 15:31:18.23	247.72	28.27	-47.0	-59.4	3.8	8.47e-01	0	44	104	0	64	14939
2026-01-10 15:31:21.24	248.65	28.44	-46.9	-59.4	3.8	8.46e-01	0	44	104	0	64	14893
2026-01-10 15:31:24.25	249.60	28.60	-47.0	-59.4	3.8	8.46e-01	0	44	104	0	64	14935
2026-01-10 15:31:27.26	250.55	28.76	-47.0	-59.4	3.8	8.47e-01	0	44	104	0	64	14954
2026-01-10 15:31:30.28	251.52	28.91	-47.0	-59.4	3.8	8.47e-01	0	44	104	0	64	14930
2026-01-10 15:31:33.29	252.49	29.04	-46.9	-59.4	3.8	8.47e-01	0	44	104	0	64	14960
2026-01-10 15:31:36.30	253.47	29.17	-47.0	-59.4	3.8	8.47e-01	0	44	104	0	64	14945
2026-01-10 15:31:39.32	254.46	29.30	-47.0	-59.4	3.8	8.46e-01	0	44	104	0	64	14991
2026-01-10 15:31:42.33	255.45	29.41	-47.0	-59.4	3.8	8.47e-01	0	44	104	0	64	14986
2026-01-10 15:31:45.35	256.45	29.51	-47.0	-59.5	3.8	8.48e-01	0	44	104	0	64	15079
2026-01-10 15:31:48.36	257.46	29.61	-47.0	-59.5	3.8	8.47e-01	0	44	104	0	64	15059
2026-01-10 15:31:51.37	258.47	29.70	-47.0	-59.4	3.8	8.46e-01	0	44	104	0	64	14982
2026-01-10 15:31:54.39	259.49	29.77	-47.0	-59.4	3.8	8.47e-01	0	44	104	0	64	14890
2026-01-10 15:31:57.40	260.52	29.84	-47.0	-59.4	3.8	8.46e-01	0	43	104	0	64	14997
2026-01-10 15:32:00.41	261.54	29.90	-47.0	-59.4	3.8	8.47e-01	0	44	104	0	64	14943
2026-01-10 15:32:03.42	262.57	29.94	-47.0	-59.4	3.8	8.47e-01	0	44	104	0	64	14940
2026-01-10 15:32:06.44	263.60	29.98	-47.0	-59.3	3.8	8.47e-01	0	44	104	0	64	14841
2026-01-10 15:32:09.45	264.64	30.01	-47.0	-59.4	3.8	8.47e-01	0	44	104	0	64	14903
2026-01-10 15:32:12.46	265.67	30.03	-46.9	-59.4	3.8	8.46e-01	0	44	104	0	64	14956
2026-01-10 15:32:15.48	266.71	30.03	-47.0	-59.4	3.8	8.47e-01	0	44	104	0	64	14937
2026-01-10 15:32:18.49	267.74	30.03	-47.0	-59.5	3.8	8.47e-01	0	44	104	0	64	15066
2026-01-10 15:32:21.51	268.78	30.02	-47.0	-59.4	3.8	8.47e-01	0	44	104	0	64	14948
2026-01-10 15:32:24.52	269.82	30.00	-47.0	-59.4	3.8	8.47e-01	0	44	104	0	64	14917
2026-01-10 15:32:27.53	270.85	29.96	-47.0	-59.4	3.8	8.47e-01	0	44	104	0	64	14967
2026-01-10 15:32:30.55	271.88	29.92	-47.0	-59.4	3.8	8.48e-01	0	44	104	0	64	14923
2026-01-10 15:32:33.56	272.90	29.87	-47.0	-59.3	3.8	8.47e-01	0	44	104	0	64	14874
2026-01-10 15:32:36.57	273.93	29.81	-47.0	-59.4	3.8	8.47e-01	0	44	104	0	64	14886
2026-01-10 15:32:39.59	274.95	29.73	-47.0	-59.3	3.8	8.48e-01	0	44	104	0	64	14862
2026-01-10 15:32:42.60	275.96	29.65	-47.0	-59.4	3.8	8.46e-01	0	44	104	0	64	14938
2026-01-10 15:32:45.61	276.97	29.56	-46.9	-59.3	3.8	8.46e-01	0	44	104	0	64	14871
2026-01-10 15:32:48.63	277.97	29.46	-47.0	-59.4	3.8	8.47e-01	0	44	104	0	64	14955
2026-01-10 15:32:51.64	278.97	29.35	-47.0	-59.4	3.8	8.46e-01	0	44	104	0	64	14987
2026-01-10 15:32:54.65	279.96	29.24	-47.0	-59.4	3.8	8.47e-01	0	44	104	0	64	14929
2026-01-10 15:32:57.67	280.94	29.11	-47.0	-59.4	3.8	8.46e-01	0	44	104	0	64	14922
2026-01-10 15:33:00.68	281.92	28.98	-47.0	-59.4	3.8	8.47e-01	0	44	104	0	64	14920
2026-01-10 15:33:03.69	282.88	28.83	-46.9	-59.3	3.8	8.46e-01	0	44	104	0	64	14860
2026-01-10 15:33:06.71	283.84	28.68	-47.0	-59.4	3.8	8.47e-01	0	44	104	0	64	14961
2026-01-10 15:33:09.72	284.79	28.53	-47.0	-59.4	3.8	8.47e-01	0	44	104	0	64	14901
2026-01-10 15:33:12.73	285.73	28.36	-47.0	-59.4	3.8	8.47e-01	0	44	104	0	64	14956
2026-01-10 15:33:15.75	286.66	28.19	-47.0	-59.4	3.8	8.46e-01	0	44	104	0	64	14974
2026-01-10 15:33:18.76	287.57	28.01	-47.0	-59.4	3.8	8.48e-01	0	44	104	0	64	14976
2026-01-10 15:33:21.77	288.48	27.82	-47.0	-59.4	3.8	8.48e-01	0	44	104	0	64	14965
2026-01-10 15:33:24.79	289.38	27.63	-47.0	-59.4	3.8	8.47e-01	0	44	104	0	64	14948
2026-01-10 15:33:27.80	290.27	27.43	-47.0	-59.4	3.8	8.47e-01	0	44	104	0	64	14906
2026-01-10 15:33:30.82	291.15	27.23	-47.0	-59.4	3.8	8.47e-01	0	44	104	0	64	14908
2026-01-10 15:33:33.83	292.01	27.02	-47.0	-59.4	3.8	8.47e-01	0	44	104	0	64	14929
2026-01-10 15:33:36.84	292.86	26.81	-47.0	-59.4	3.8	8.47e-01	0	44	104	0	64	14979
2026-01-10 15:33:39.86	293.71	26.59	-47.0	-59.3	3.8	8.47e-01	0	44	104	0	64	14878
2026-01-10 15:33:42.87	294.54	26.37	-47.0	-59.4	3.8	8.46e-01	0	44	104	0	64	14915
2026-01-10 15:33:45.88	295.36	26.14	-47.0	-59.3	3.8	8.46e-01	0	44	104	0	64	14845
2026-01-10 15:33:48.90	296.17	25.91	-47.0	-59.4	3.8	8.46e-01	0	44	104	0	64	14958
2026-01-10 15:33:51.91	296.96	25.67	-47.0	-59.4	3.8	8.46e-01	0	44	104	0	64	14917
2026-01-10 15:33:54.92	297.75	25.43	-47.0	-59.4	3.8	8.46e-01	0	44	104	0	64	14970
2026-01-10 15:33:57.93	298.52	25.19	-46.9	-59.4	3.8	8.46e-01	0	44	104	0	64	14886
2026-01-10 15:34:00.95	299.28	24.95	-47.0	-59.4	3.8	8.47e-01	0	44	104	0	64	14944
2026-01-10 15:34:03.96	300.03	24.70	-47.0	-59.3	3.8	8.47e-01	0	43	104	0	64	14875
2026-01-10 15:34:06.97	300.77	24.45	-47.0	-59.4	3.8	8.47e-01	0	44	104	0	64	14979
2026-01-10 15:34:09.99	301.50	24.19	-47.0	-59.4	3.8	8.45e-01	0	44	104	0	64	14978
2026-01-10 15:34:13.00	302.21	23.94	-47.0	-59.4	3.8	8.47e-01	0	44	104	0	64	14954
2026-01-10 15:34:16.01	302.92	23.68	-47.0	-59.4	3.8	8.47e-01	0	44	104	0	64	15035
2026-01-10 15:34:19.02	303.61	23.42	-46.9	-59.4	3.8	8.47e-01	0	44	104	0	64	14961
2026-01-10 15:34:22.04	304.29	23.16	-47.0	-59.4	3.8	8.48e-01	0	44	104	0	64	14992
2026-01-10 15:34:25.05	304.96	22.90	-47.0	-59.4	3.8	8.47e-01	0	44	104	0	64	14970
2026-01-10 15:34:28.06	305.62	22.64	-47.0	-59.5	3.8	8.47e-01	0	44	104	0	64	15079
2026-01-10 15:34:31.08	306.27	22.37	-47.0	-59.4	3.8	8.48e-01	0	44	104	0	64	14996
2026-01-10 15:34:34.09	306.90	22.11	-47.0	-59.4	3.8	8.46e-01	0	44	104	0	64	14969
2026-01-10 15:34:37.10	307.53	21.84	-47.0	-59.4	3.8	8.47e-01	0	44	104	0	64	15001
2026-01-10 15:34:40.11	308.15	21.58	-47.0	-59.4	3.8	8.46e-01	0	44	104	0	64	14902
2026-01-10 15:34:43.13	308.75	21.31	-47.0	-59.4	3.8	8.47e-01	0	44	104	0	64	14947
2026-01-10 15:34:46.14	309.35	21.05	-47.0	-59.3	3.8	8.46e-01	0	44	104	0	64	14875
2026-01-10 15:34:49.15	309.94	20.78	-47.0	-59.4	3.8	8.47e-01	0	44	104	0	64	14967
2026-01-10 15:34:52.16	310.51	20.51	-47.0	-59.4	3.8	8.47e-01	0	44	104	0	64	14971
2026-01-10 15:34:55.17	311.08	20.25	-47.0	-59.4	3.8	8.47e-01	0	44	104	0	64	15031
2026-01-10 15:34:58.19	311.64	19.98	-47.0	-59.4	3.8	8.46e-01	0	44	104	0	64	14975
2026-01-10 15:35:01.20	312.18	19.71	-46.9	-59.4	3.8	8.47e-01	0	44	104	0	64	14993
2026-01-10 15:35:04.21	312.72	19.45	-47.0	-59.5	3.8	8.47e-01	0	44	104	0	64	15079
2026-01-10 15:35:07.23	313.25	19.18	-47.0	-59.4	3.8	8.47e-01	0	44	104	0	64	14938
2026-01-10 15:35:10.24	313.77	18.92	-47.0	-59.4	3.8	8.47e-01	0	44	104	0	64	14935
2026-01-10 15:35:13.25	314.28	18.65	-47.0	-59.4	3.8	8.46e-01	0	44	104	0	64	14907
2026-01-10 15:35:16.27	314.79	18.39	-47.0	-59.4	3.8	8.46e-01	0	44	104	0	64	14962
2026-01-10 15:35:19.28	315.28	18.12	-47.0	-59.4	3.8	8.47e-01	0	44	104	0	64	14987
2026-01-10 15:35:22.30	315.77	17.86	-47.0	-59.4	3.8	8.47e-01	0	44	104	0	64	14976
2026-01-10 15:35:25.31	316.25	17.60	-47.0	-59.4	3.8	8.47e-01	0	44	104	0	64	14889
2026-01-10 15:35:28.32	316.72	17.34	-47.0	-59.4	3.8	8.47e-01	0	44	104	0	64	14954
2026-01-10 15:35:31.34	317.18	17.08	-47.0	-59.4	3.8	8.46e-01	0	44	104	0	64	14977
2026-01-10 15:35:34.35	317.64	16.82	-47.0	-59.4	3.8	8.48e-01	0	44	104	0	64	14974
2026-01-10 15:35:37.36	318.08	16.57	-47.0	-59.4	3.8	8.47e-01	0	44	104	0	64	14972
2026-01-10 15:35:40.37	318.52	16.31	-47.0	-59.4	3.8	8.47e-01	0	44	104	0	64	14956
2026-01-10 15:35:43.39	318.96	16.05	-47.0	-59.4	3.8	8.47e-01	0	44	104	0	64	14979
2026-01-10 15:35:46.40	319.38	15.80	-47.0	-59.4	3.8	8.46e-01	0	44	104	0	64	15014
2026-01-10 15:35:49.41	319.80	15.55	-47.0	-59.4	3.8	8.47e-01	0	44	104	0	64	14959
2026-01-10 15:35:52.43	320.21	15.30	-47.0	-59.4	3.8	8.46e-01	0	44	104	0	64	14945
2026-01-10 15:35:55.44	320.62	15.05	-47.0	-59.5	3.8	8.47e-01	0	44	104	0	64	15136
2026-01-10 15:35:58.45	321.02	14.80	-47.0	-59.4	3.8	8.47e-01	0	44	104	0	64	14931
2026-01-10 15:36:01.47	321.41	14.55	-46.9	-59.4	3.8	8.47e-01	0	44	104	0	64	14978
2026-01-10 15:36:04.48	321.80	14.30	-47.0	-59.4	3.8	8.46e-01	0	44	104	0	64	14985
2026-01-10 15:36:07.49	322.18	14.06	-47.0	-59.4	3.8	8.47e-01	0	44	104	0	64	15021
2026-01-10 15:36:10.51	322.55	13.81	-47.0	-59.4	3.8	8.46e-01	0	44	104	0	64	14998
2026-01-10 15:36:13.52	322.92	13.57	-47.0	-59.5	3.8	8.47e-01	0	44	104	0	64	15084
2026-01-10 15:36:16.53	323.28	13.33	-47.0	-59.4	3.8	8.48e-01	0	44	104	0	64	15034
2026-01-10 15:36:19.55	323.64	13.09	-47.0	-59.4	3.8	8.47e-01	0	44	104	0	64	15044
2026-01-10 15:36:22.56	323.99	12.86	-47.0	-59.4	3.8	8.47e-01	0	44	104	0	64	14947
2026-01-10 15:36:25.57	324.34	12.62	-47.0	-59.4	3.8	8.47e-01	0	44	104	0	64	14993
2026-01-10 15:36:28.59	324.68	12.38	-47.0	-59.4	3.8	8.46e-01	0	44	104	0	64	14967
2026-01-10 15:36:31.60	325.01	12.15	-47.0	-59.4	3.8	8.47e-01	0	44	104	0	64	15001
2026-01-10 15:36:34.61	325.34	11.92	-47.0	-59.4	3.8	8.48e-01	0	44	104	0	64	14927
2026-01-10 15:36:37.63	325.67	11.69	-47.0	-59.4	3.8	8.46e-01	0	44	104	0	64	14964
2026-01-10 15:36:40.64	325.99	11.46	-47.0	-59.4	3.8	8.46e-01	0	44	104	0	64	14997
2026-01-10 15:36:43.65	326.31	11.23	-47.0	-59.4	3.8	8.48e-01	0	44	104	0	64	14988
2026-01-10 15:36:46.67	326.62	11.00	-47.0	-59.4	3.8	8.46e-01	0	44	104	0	64	14985
2026-01-10 15:36:49.68	326.93	10.78	-46.9	-59.4	3.8	8.47e-01	0	44	104	0	64	14925
2026-01-10 15:36:52.69	327.23	10.55	-47.0	-59.4	3.8	8.47e-01	0	44	104	0	64	14906
2026-01-10 15:36:55.70	327.53	10.33	-47.0	-59.4	3.8	8.47e-01	0	44	104	0	64	15040
2026-01-10 15:36:58.72	327.82	10.11	-47.0	-59.5	3.8	8.48e-01	0	44	104	0	64	15072
2026-01-10 15:37:01.73	328.11	9.89	-47.0	-59.4	3.8	8.47e-01	0	44	104	0	64	15012
2026-01-10 15:37:04.74	328.39	9.67	-47.0	-59.5	3.8	8.47e-01	0	44	104	0	64	15065
2026-01-10 15:37:07.76	328.68	9.45	-47.0	-59.4	3.8	8.47e-01	0	44	104	0	64	15015
2026-01-10 15:37:10.77	328.95	9.24	-47.0	-59.4	3.8	8.46e-01	0	44	104	0	64	14982
2026-01-10 15:37:13.78	329.23	9.02	-47.0	-59.4	3.8	8.47e-01	0	44	104	0	64	14959
2026-01-10 15:37:16.80	329.50	8.81	-46.9	-59.4	3.8	8.47e-01	0	44	104	0	64	14926
2026-01-10 15:37:19.81	329.76	8.60	-47.0	-59.4	3.8	8.46e-01	0	44	104	0	64	15047
2026-01-10 15:37:22.82	330.03	8.39	-47.0	-59.4	3.8	8.47e-01	0	44	104	0	64	15050
2026-01-10 15:37:25.84	330.29	8.18	-47.0	-59.4	3.8	8.47e-01	0	44	104	0	64	15044
2026-01-10 15:37:28.85	330.54	7.97	-47.0	-59.4	3.8	8.47e-01	0	44	104	0	64	15044
2026-01-10 15:37:31.86	330.79	7.76	-47.0	-59.4	3.8	8.48e-01	0	44	104	0	64	15019
2026-01-10 15:37:34.88	331.04	7.55	-47.0	-59.4	3.8	8.46e-01	0	44	104	0	64	15000
2026-01-10 15:37:37.89	331.29	7.35	-47.0	-59.4	3.8	8.46e-01	0	44	104	0	64	14985
2026-01-10 15:37:40.90	331.53	7.15	-47.0	-59.4	3.8	8.46e-01	0	44	104	0	64	15013
2026-01-10 15:37:43.91	331.77	6.95	-47.0	-59.4	3.8	8.47e-01	0	44	104	0	64	14934
2026-01-10 15:37:46.93	332.00	6.74	-47.0	-59.4	3.8	8.46e-01	0	44	104	0	64	14941
2026-01-10 15:37:49.94	332.24	6.54	-47.0	-59.4	3.8	8.47e-01	0	44	104	0	64	14992
2026-01-10 15:37:52.95	332.47	6.35	-47.0	-59.5	3.8	8.46e-01	0	44	104	0	64	15090
2026-01-10 15:37:55.97	332.69	6.15	-47.0	-59.4	3.8	8.47e-01	0	44	104	0	64	15033
2026-01-10 15:37:58.98	332.92	5.95	-47.0	-59.5	3.8	8.47e-01	0	44	104	0	64	15078
2026-01-10 15:38:01.99	333.14	5.76	-47.0	-59.4	3.8	8.46e-01	0	44	104	0	64	15023
2026-01-10 15:38:05.01	333.36	5.56	-47.0	-59.4	3.8	8.47e-01	0	44	104	0	64	15035
2026-01-10 15:38:08.02	333.57	5.37	-47.0	-59.5	3.8	8.46e-01	0	44	104	0	64	15081
2026-01-10 15:38:11.03	333.79	5.18	-47.0	-59.4	3.8	8.47e-01	0	44	104	0	64	14980
2026-01-10 15:38:14.04	334.00	4.99	-47.0	-59.4	3.8	8.46e-01	0	44	104	0	64	14991

#Closed at: 2026-01-10 15:38:15
#Recorded file [0 MB]: D:/Data/31040_260110_182622.dat