passes_logs/2026/01/10/T1/T1__20260110_115928_FENGYUN_3D_rec.log

#Pass ID: 20260110_115928_FENGYUN 3D
#Satellite: FENGYUN 3D
#Configuration: FENGYUN 3D
#almurnet v.1.7.20251203
#Start time: 2026-01-10 11:59:27

#Version: 2.0.20230620
#Station: T1
#Location: 37.570604 lon 55.790049 lat
#TLE: 1 43010U 17072A   26009.92921666 -.00000228  00000+0 -86059-4 0  9998
#TLE: 2 43010  98.9936 341.6668 0002176 116.7510 243.3888 14.19693142422537

#Time	Az	El	Level	Level2	SNR	BER	BlckErr	Temp	State	Recorded	gain1	gain2
2026-01-10 11:59:27.70	160.99	4.98	-50.3	-62.4	3.8	8.48e-01	0	41	0	0	72	14327
2026-01-10 11:59:31.71	161.00	5.27	-50.2	-62.2	3.8	8.46e-01	0	41	104	0	72	13982
2026-01-10 11:59:35.72	161.02	5.56	-50.2	-62.3	3.8	8.47e-01	0	41	104	0	72	14154
2026-01-10 11:59:39.74	161.03	5.86	-50.2	-62.1	3.8	8.47e-01	0	41	104	0	72	13778
2026-01-10 11:59:43.76	161.05	6.16	-50.0	-61.0	3.8	8.46e-01	0	42	104	0	72	12123
2026-01-10 11:59:47.78	161.06	6.46	-49.8	-58.9	4.2	8.39e-01	0	42	0	0	71	10164
2026-01-10 11:59:51.80	161.08	6.77	-49.1	-55.9	5.6	7.06e-01	0	42	0	0	70	7626
2026-01-10 11:59:55.81	161.09	7.08	-48.0	-52.9	8.2	7.60e-02	0	42	0	22020096	68	6052
2026-01-10 11:59:59.83	161.11	7.39	-46.3	-49.9	11.1	3.45e-03	0	42	0	44040192	64	5395
2026-01-10 12:00:03.84	161.12	7.71	-45.0	-48.0	13.1	5.03e-05	0	42	0	67108864	62	4819
2026-01-10 12:00:07.85	161.14	8.03	-44.3	-47.0	14.1	1.10e-06	0	42	0	89128960	60	4862
2026-01-10 12:00:11.87	161.16	8.36	-45.1	-48.2	12.9	3.08e-05	0	42	0	112197632	61	5247
2026-01-10 12:00:15.89	161.17	8.69	-47.6	-52.4	8.5	2.89e-02	0	43	0	134217728	66	6364
2026-01-10 12:00:19.90	161.19	9.02	-50.0	-61.0	3.8	8.46e-01	0	42	104	145752064	70	13632
2026-01-10 12:00:23.91	161.20	9.36	-48.4	-53.8	7.2	8.34e-01	0	42	104	150994944	68	6689
2026-01-10 12:00:27.93	161.22	9.71	-44.2	-46.9	14.3	0.00e+00	0	43	0	171966464	60	4801
2026-01-10 12:00:31.93	161.24	10.06	-42.8	-45.2	16.0	0.00e+00	0	43	0	193986560	57	4664
2026-01-10 12:00:35.95	161.25	10.41	-42.0	-44.2	16.9	4.03e-03	0	43	0	217055232	56	4440
2026-01-10 12:00:39.96	161.27	10.77	-41.5	-43.7	17.2	0.00e+00	0	43	0	239075328	55	4419
2026-01-10 12:00:43.98	161.29	11.14	-41.4	-43.6	17.4	0.00e+00	0	43	0	262144000	54	4600
2026-01-10 12:00:47.99	161.30	11.51	-41.4	-43.5	17.4	0.00e+00	0	43	0	284164096	54	4573
2026-01-10 12:00:52.01	161.32	11.88	-41.3	-43.4	17.6	0.00e+00	0	43	0	307232768	54	4502
2026-01-10 12:00:56.02	161.34	12.26	-41.2	-43.3	17.7	0.00e+00	0	43	0	330301440	54	4451
2026-01-10 12:01:00.03	161.35	12.65	-41.2	-43.3	17.7	0.00e+00	0	43	0	352321536	54	4464
2026-01-10 12:01:04.03	161.37	13.04	-40.8	-42.8	18.1	0.00e+00	0	43	0	374341632	53	4483
2026-01-10 12:01:08.05	161.39	13.44	-40.7	-42.8	18.2	0.00e+00	0	43	0	397410304	53	4445
2026-01-10 12:01:12.06	161.41	13.85	-40.5	-42.5	18.3	0.00e+00	0	43	0	420478976	53	4338
2026-01-10 12:01:16.07	161.42	14.27	-40.6	-42.7	18.2	0.00e+00	0	43	0	442499072	53	4401
2026-01-10 12:01:20.08	161.44	14.69	-40.3	-42.3	18.5	0.00e+00	0	43	0	465567744	52	4487
2026-01-10 12:01:24.09	161.46	15.12	-40.4	-42.4	18.5	0.00e+00	0	43	0	487587840	52	4497
2026-01-10 12:01:28.10	161.48	15.55	-40.2	-42.2	18.7	0.00e+00	0	43	0	510656512	52	4412
2026-01-10 12:01:32.12	161.50	16.00	-40.1	-42.1	18.8	0.00e+00	0	43	0	532676608	52	4347
2026-01-10 12:01:36.13	161.52	16.45	-39.9	-41.9	19.0	0.00e+00	0	43	0	555745280	51	4523
2026-01-10 12:01:40.14	161.54	16.91	-39.9	-41.9	19.1	0.00e+00	0	43	0	577765376	51	4505
2026-01-10 12:01:44.15	161.56	17.38	-39.7	-41.7	19.3	0.00e+00	0	43	0	600834048	51	4395
2026-01-10 12:01:48.17	161.58	17.86	-39.5	-41.4	19.5	0.00e+00	0	43	0	622854144	51	4285
2026-01-10 12:01:52.18	161.60	18.35	-39.4	-41.3	19.6	0.00e+00	0	43	0	645922816	50	4482
2026-01-10 12:01:56.19	161.62	18.85	-39.2	-41.1	18.1	0.00e+00	0	43	0	667942912	50	4377
2026-01-10 12:02:00.20	161.64	19.36	-39.1	-40.9	19.9	0.00e+00	0	43	0	691011584	50	4282
2026-01-10 12:02:04.22	161.66	19.88	-39.0	-40.8	20.0	0.00e+00	0	43	0	713031680	50	4236
2026-01-10 12:02:08.23	161.68	20.41	-38.9	-40.8	20.1	0.00e+00	0	43	0	736100352	49	4442
2026-01-10 12:02:12.25	161.70	20.96	-38.9	-40.7	20.0	0.00e+00	0	43	0	758120448	49	4441
2026-01-10 12:02:16.26	161.72	21.51	-38.8	-40.7	20.1	0.00e+00	0	43	0	781189120	49	4403
2026-01-10 12:02:20.27	161.74	22.08	-38.8	-40.7	20.1	0.00e+00	0	43	0	804257792	49	4392
2026-01-10 12:02:24.28	161.77	22.66	-38.7	-40.6	20.2	0.00e+00	0	44	0	826277888	49	4369
2026-01-10 12:02:28.30	161.79	23.25	-38.6	-40.4	20.3	0.00e+00	0	43	0	848297984	49	4275
2026-01-10 12:02:32.31	161.81	23.86	-38.6	-40.4	20.3	0.00e+00	0	43	0	871366656	49	4275
2026-01-10 12:02:36.32	161.84	24.48	-38.5	-40.3	20.5	0.00e+00	0	44	0	894435328	48	4468
2026-01-10 12:02:40.33	161.86	25.12	-38.3	-40.1	20.6	0.00e+00	0	44	0	916455424	48	4364
2026-01-10 12:02:44.34	161.89	25.77	-38.2	-40.0	20.7	0.00e+00	0	43	0	939524096	48	4317
2026-01-10 12:02:48.35	161.91	26.44	-38.1	-39.9	20.8	0.00e+00	0	44	0	961544192	48	4284
2026-01-10 12:02:52.37	161.94	27.13	-38.2	-40.0	20.8	0.00e+00	0	43	0	984612864	48	4307
2026-01-10 12:02:56.38	161.97	27.83	-38.3	-40.1	20.6	0.00e+00	0	43	0	1006632960	48	4386
2026-01-10 12:03:00.40	161.99	28.56	-38.4	-40.2	20.6	0.00e+00	0	44	0	1029701632	48	4405
2026-01-10 12:03:04.41	162.02	29.30	-38.2	-40.0	20.7	0.00e+00	0	44	0	1051721728	48	4319
2026-01-10 12:03:08.42	162.05	30.06	-38.2	-40.0	20.7	0.00e+00	0	44	0	1074790400	48	4315
2026-01-10 12:03:12.44	162.08	30.84	-38.2	-40.1	20.7	0.00e+00	0	44	0	1096810496	48	4342
2026-01-10 12:03:16.45	162.11	31.65	-38.1	-39.9	20.8	0.00e+00	0	43	0	1119879168	48	4272
2026-01-10 12:03:20.46	162.14	32.48	-37.5	-39.3	21.0	0.00e+00	0	44	0	1141899264	47	4228
2026-01-10 12:03:24.47	162.17	33.33	-37.8	-39.6	20.8	0.00e+00	0	43	0	1164967936	47	4379
2026-01-10 12:03:28.49	162.21	34.20	-37.6	-39.4	21.0	0.00e+00	0	43	0	1186988032	47	4290
2026-01-10 12:03:32.50	162.24	35.10	-37.7	-39.5	20.9	0.00e+00	0	43	0	1210056704	46	4583
2026-01-10 12:03:36.52	162.28	36.03	-37.6	-39.4	21.1	0.00e+00	0	44	0	1233125376	46	4504
2026-01-10 12:03:40.53	162.32	36.99	-37.2	-38.9	21.4	0.00e+00	0	44	0	1255145472	46	4273
2026-01-10 12:03:44.54	162.36	37.97	-37.4	-39.2	21.2	0.00e+00	0	44	0	1277165568	46	4425
2026-01-10 12:03:48.55	162.40	38.98	-37.9	-39.7	20.7	0.00e+00	0	44	0	1300234240	46	4689
2026-01-10 12:03:52.56	162.44	40.02	-37.9	-39.7	20.8	0.00e+00	0	44	0	1323302912	46	4662
2026-01-10 12:03:56.57	162.48	41.10	-38.1	-39.9	20.6	0.00e+00	0	44	0	1345323008	46	4780
2026-01-10 12:04:00.58	162.53	42.21	-38.1	-39.9	20.6	0.00e+00	0	44	0	1368391680	47	4533
2026-01-10 12:04:04.60	162.58	43.35	-38.2	-40.0	20.6	0.00e+00	0	44	0	1390411776	47	4576
2026-01-10 12:04:08.61	162.63	44.53	-37.9	-39.7	20.8	0.00e+00	0	43	0	1413480448	47	4421
2026-01-10 12:04:12.62	162.69	45.74	-37.8	-39.5	21.0	0.00e+00	0	44	0	1435500544	47	4340
2026-01-10 12:04:16.63	162.74	46.99	-38.0	-39.8	20.8	0.00e+00	0	44	0	1458569216	47	4487
2026-01-10 12:04:20.65	162.81	48.28	-37.8	-39.5	21.1	0.00e+00	0	44	0	1480589312	47	4331
2026-01-10 12:04:24.66	162.87	49.61	-38.1	-39.9	20.8	0.00e+00	0	44	0	1503657984	47	4523
2026-01-10 12:04:28.67	162.94	50.98	-38.1	-39.9	20.7	0.00e+00	0	44	0	1525678080	47	4518
2026-01-10 12:04:32.69	163.02	52.40	-39.6	-41.4	19.6	0.00e+00	0	44	0	1548746752	49	4808
2026-01-10 12:04:36.70	163.10	53.85	-39.4	-41.2	19.8	0.00e+00	0	44	0	1570766848	50	4435
2026-01-10 12:04:40.71	163.20	55.34	-39.2	-41.0	20.1	0.00e+00	0	44	0	1593835520	50	4322
2026-01-10 12:04:44.72	163.30	56.88	-38.9	-40.7	20.4	0.00e+00	0	44	0	1615855616	49	4414
2026-01-10 12:04:48.74	163.41	58.46	-38.6	-40.4	20.5	0.00e+00	0	44	0	1638924288	49	4289
2026-01-10 12:04:52.75	163.53	60.08	-37.8	-39.6	21.0	0.00e+00	0	44	0	1660944384	47	4343
2026-01-10 12:04:56.76	163.67	61.75	-37.7	-39.5	21.1	0.00e+00	0	44	0	1684013056	47	4310
2026-01-10 12:05:00.77	163.82	63.46	-37.2	-38.9	21.5	0.00e+00	0	44	0	1707081728	46	4266
2026-01-10 12:05:04.78	164.00	65.21	-37.3	-39.0	21.4	0.00e+00	0	44	0	1729101824	46	4339
2026-01-10 12:05:08.79	164.21	67.00	-37.0	-38.8	21.6	0.00e+00	0	44	0	1751121920	46	4196
2026-01-10 12:05:12.80	164.45	68.82	-36.6	-38.3	22.0	0.00e+00	0	44	0	1774190592	45	4230
2026-01-10 12:05:16.82	164.74	70.69	-36.8	-38.5	21.8	0.00e+00	0	43	0	1797259264	44	4575
2026-01-10 12:05:20.83	165.10	72.59	-36.5	-38.3	22.0	0.00e+00	0	44	0	1819279360	44	4448
2026-01-10 12:05:24.84	165.54	74.52	-36.5	-38.3	21.9	0.00e+00	0	44	0	1842348032	44	4461
2026-01-10 12:05:28.86	166.12	76.49	-36.1	-37.8	22.4	0.00e+00	0	44	0	1864368128	44	4199
2026-01-10 12:05:32.87	166.89	78.47	-35.7	-37.4	22.5	0.00e+00	0	44	0	1887436800	43	4275
2026-01-10 12:05:36.88	168.00	80.48	-35.1	-36.8	22.9	0.00e+00	0	44	0	1909456896	42	4209
2026-01-10 12:05:40.89	169.69	82.50	-34.6	-36.2	23.3	0.00e+00	0	44	0	1932525568	40	4441
2026-01-10 12:05:44.90	172.65	84.52	-35.0	-36.7	22.9	0.00e+00	0	44	0	1954545664	40	4681
2026-01-10 12:05:48.91	179.05	86.53	-35.4	-37.1	22.7	0.00e+00	0	44	0	1977614336	41	4616
2026-01-10 12:05:52.92	201.27	88.39	-36.3	-38.0	21.9	0.00e+00	0	44	0	1999634432	43	4593
2026-01-10 12:05:56.93	290.71	88.69	-36.3	-38.0	22.2	0.00e+00	0	44	0	2022703104	43	4562
2026-01-10 12:06:00.94	322.47	86.93	-35.9	-37.6	22.3	0.00e+00	0	44	0	2044723200	43	4382
2026-01-10 12:06:04.95	330.31	84.94	-34.9	-36.6	23.0	0.00e+00	0	44	0	2067791872	41	4359
2026-01-10 12:06:08.96	333.70	82.92	-34.5	-36.2	23.3	0.00e+00	0	44	0	2089811968	40	4412
2026-01-10 12:06:12.97	335.58	80.90	-35.1	-36.8	22.9	0.00e+00	0	44	0	2112880640	41	4485
2026-01-10 12:06:16.98	336.77	78.89	-35.2	-36.9	22.8	0.00e+00	0	44	0	2134900736	41	4528
2026-01-10 12:06:20.99	337.60	76.90	-35.6	-37.3	22.6	0.00e+00	0	44	0	2157969408	41	4748
2026-01-10 12:06:25.01	338.21	74.94	-36.1	-37.8	22.2	0.00e+00	0	44	0	2179989504	42	4740
2026-01-10 12:06:29.02	338.68	73.00	-36.0	-37.7	22.4	0.00e+00	0	44	0	2203058176	43	4407
2026-01-10 12:06:33.03	339.05	71.10	-36.5	-38.2	22.0	0.00e+00	0	44	0	2225078272	43	4702
2026-01-10 12:06:37.04	339.36	69.23	-36.6	-38.3	21.9	0.00e+00	0	44	0	2248146944	43	4754
2026-01-10 12:06:41.06	339.61	67.39	-36.7	-38.4	21.9	0.00e+00	0	44	0	2271215616	44	4502
2026-01-10 12:06:45.07	339.82	65.60	-37.1	-38.9	21.5	0.00e+00	0	44	0	2293235712	45	4512
2026-01-10 12:06:49.08	340.01	63.85	-37.3	-39.0	21.5	0.00e+00	0	44	0	2315255808	45	4572
2026-01-10 12:06:53.09	340.17	62.14	-37.6	-39.4	21.2	0.00e+00	0	44	0	2338324480	45	4770
2026-01-10 12:06:57.10	340.31	60.47	-37.6	-39.4	21.2	0.00e+00	0	44	0	2361393152	46	4497
2026-01-10 12:07:01.11	340.44	58.84	-38.0	-39.8	20.9	0.00e+00	0	44	0	2383413248	46	4732
2026-01-10 12:07:05.13	340.55	57.25	-38.6	-40.5	20.3	0.00e+00	0	44	0	2406481920	47	4830
2026-01-10 12:07:09.14	340.65	55.71	-39.0	-40.9	20.1	0.00e+00	0	44	0	2428502016	48	4808
2026-01-10 12:07:13.15	340.75	54.21	-38.8	-40.6	20.4	0.00e+00	0	44	0	2451570688	48	4650
2026-01-10 12:07:17.16	340.83	52.76	-38.8	-40.5	20.7	0.00e+00	0	44	0	2473590784	49	4328
2026-01-10 12:07:21.17	340.91	51.34	-38.6	-40.4	20.8	0.00e+00	0	44	0	2496659456	48	4507
2026-01-10 12:07:25.18	340.99	49.97	-37.8	-39.5	21.4	0.00e+00	0	44	0	2518679552	47	4292
2026-01-10 12:07:29.20	341.05	48.63	-38.3	-40.0	20.9	0.00e+00	0	44	0	2541748224	47	4591
2026-01-10 12:07:33.21	341.12	47.34	-37.7	-39.4	21.5	0.00e+00	0	44	0	2563768320	47	4244
2026-01-10 12:07:37.22	341.18	46.09	-37.6	-39.2	21.6	0.00e+00	0	44	0	2586836992	46	4436
2026-01-10 12:07:41.24	341.24	44.87	-37.8	-39.5	21.4	0.00e+00	0	44	0	2608857088	46	4565
2026-01-10 12:07:45.25	341.29	43.68	-37.6	-39.3	21.5	0.00e+00	0	44	0	2631925760	46	4452
2026-01-10 12:07:49.26	341.34	42.54	-37.7	-39.5	21.4	0.00e+00	0	44	0	2653945856	46	4550
2026-01-10 12:07:53.27	341.39	41.43	-37.5	-39.2	21.6	0.00e+00	0	44	0	2677014528	46	4402
2026-01-10 12:07:57.28	341.44	40.35	-37.2	-38.9	21.8	0.00e+00	0	44	0	2699034624	46	4268
2026-01-10 12:08:01.29	341.48	39.30	-37.4	-39.1	21.6	0.00e+00	0	44	0	2722103296	46	4388
2026-01-10 12:08:05.30	341.52	38.29	-37.4	-39.1	21.7	0.00e+00	0	44	0	2745171968	46	4368
2026-01-10 12:08:09.32	341.56	37.30	-37.2	-38.9	21.9	0.00e+00	0	44	0	2767192064	46	4248
2026-01-10 12:08:13.33	341.60	36.34	-37.4	-39.1	21.6	0.00e+00	0	44	0	2789212160	46	4388
2026-01-10 12:08:17.34	341.64	35.41	-37.2	-38.9	21.8	0.00e+00	0	44	0	2812280832	46	4287
2026-01-10 12:08:21.36	341.68	34.51	-37.4	-39.1	21.7	0.00e+00	0	44	0	2835349504	46	4371
2026-01-10 12:08:25.37	341.71	33.63	-37.7	-39.4	21.3	0.00e+00	0	44	0	2857369600	46	4544
2026-01-10 12:08:29.39	341.75	32.78	-37.8	-39.5	21.3	0.00e+00	0	44	0	2880438272	46	4571
2026-01-10 12:08:33.40	341.78	31.95	-37.8	-39.5	21.3	0.00e+00	0	44	0	2902458368	46	4598
2026-01-10 12:08:37.41	341.81	31.14	-37.9	-39.6	21.2	0.00e+00	0	44	0	2925527040	46	4642
2026-01-10 12:08:41.42	341.85	30.36	-37.9	-39.7	21.2	0.00e+00	0	44	0	2947547136	46	4673
2026-01-10 12:08:45.43	341.88	29.59	-38.1	-39.9	21.0	0.00e+00	0	44	0	2970615808	47	4505
2026-01-10 12:08:49.44	341.91	28.85	-38.1	-39.9	21.0	0.00e+00	0	44	0	2992635904	47	4504
2026-01-10 12:08:53.45	341.94	28.12	-37.9	-39.6	21.2	0.00e+00	0	44	0	3015704576	47	4377
2026-01-10 12:08:57.46	341.97	27.42	-37.8	-39.5	21.3	0.00e+00	0	44	0	3037724672	47	4297
2026-01-10 12:09:01.47	342.00	26.73	-37.9	-39.6	21.2	0.00e+00	0	44	0	3060793344	47	4349
2026-01-10 12:09:05.48	342.02	26.06	-38.0	-39.7	21.1	0.00e+00	0	44	0	3082813440	47	4436
2026-01-10 12:09:09.50	342.05	25.40	-38.2	-39.9	20.9	0.00e+00	0	44	0	3105882112	47	4542
2026-01-10 12:09:13.51	342.08	24.77	-38.2	-40.0	20.8	0.00e+00	0	44	0	3127902208	47	4582
2026-01-10 12:09:17.52	342.11	24.14	-38.0	-39.8	21.0	0.00e+00	0	44	0	3150970880	47	4452
2026-01-10 12:09:21.52	342.13	23.53	-38.0	-39.7	21.0	0.00e+00	0	44	0	3172990976	47	4435
2026-01-10 12:09:25.54	342.16	22.94	-38.0	-39.8	21.0	0.00e+00	0	44	0	3196059648	47	4455
2026-01-10 12:09:29.55	342.18	22.36	-38.1	-39.9	20.9	0.00e+00	0	44	0	3218079744	47	4497
2026-01-10 12:09:33.56	342.21	21.79	-38.2	-40.1	20.8	0.00e+00	0	44	0	3241148416	47	4604
2026-01-10 12:09:37.57	342.23	21.23	-38.4	-40.2	20.6	0.00e+00	0	44	0	3263168512	47	4705
2026-01-10 12:09:41.58	342.26	20.69	-38.6	-40.4	20.5	0.00e+00	0	44	0	3286237184	47	4777
2026-01-10 12:09:45.59	342.28	20.16	-38.8	-40.6	20.5	0.00e+00	0	44	0	3308257280	48	4633
2026-01-10 12:09:49.60	342.30	19.64	-39.0	-40.8	20.3	0.00e+00	0	44	0	3331325952	48	4733
2026-01-10 12:09:53.62	342.33	19.13	-39.1	-40.9	20.2	0.00e+00	0	44	0	3353346048	48	4780
2026-01-10 12:09:57.63	342.35	18.63	-39.3	-41.1	20.1	0.00e+00	0	44	0	3376414720	49	4629
2026-01-10 12:10:01.64	342.37	18.14	-39.5	-41.3	19.9	0.00e+00	0	44	0	3398434816	49	4722
2026-01-10 12:10:05.66	342.40	17.65	-39.6	-41.5	19.7	0.00e+00	0	44	0	3421503488	49	4815
2026-01-10 12:10:09.67	342.42	17.18	-39.9	-41.8	19.5	0.00e+00	0	44	0	3444572160	50	4707
2026-01-10 12:10:13.69	342.44	16.72	-39.9	-41.9	19.4	0.00e+00	0	44	0	3466592256	50	4760
2026-01-10 12:10:17.70	342.47	16.27	-40.1	-42.1	19.2	0.00e+00	0	44	0	3489660928	50	4871
2026-01-10 12:10:21.71	342.49	15.82	-40.0	-42.0	19.2	0.00e+00	0	44	0	3511681024	51	4573
2026-01-10 12:10:25.73	342.51	15.38	-40.1	-42.2	19.0	0.00e+00	0	44	0	3534749696	51	4654
2026-01-10 12:10:29.75	342.53	14.95	-40.3	-42.3	18.9	0.00e+00	0	44	0	3556769792	51	4733
2026-01-10 12:10:33.75	342.55	14.53	-40.2	-42.2	18.9	0.00e+00	0	44	0	3579838464	51	4687
2026-01-10 12:10:37.76	342.57	14.12	-40.3	-42.4	18.8	0.00e+00	0	44	0	3601858560	51	4792
2026-01-10 12:10:41.78	342.60	13.71	-40.4	-42.5	18.6	0.00e+00	0	44	0	3624927232	51	4867
2026-01-10 12:10:45.78	342.62	13.31	-40.3	-42.4	18.7	0.00e+00	0	44	0	3646947328	51	4789
2026-01-10 12:10:49.80	342.64	12.91	-40.4	-42.5	18.6	0.00e+00	0	44	0	3670016000	51	4857
2026-01-10 12:10:53.81	342.66	12.53	-40.5	-42.6	18.5	0.00e+00	0	44	0	3692036096	51	4920
2026-01-10 12:10:57.82	342.68	12.14	-40.6	-42.8	18.3	0.00e+00	0	44	0	3715104768	52	4706
2026-01-10 12:11:01.83	342.70	11.77	-40.7	-42.8	18.3	0.00e+00	0	44	0	3737124864	52	4719
2026-01-10 12:11:05.85	342.72	11.40	-40.8	-43.0	18.1	0.00e+00	0	44	0	3760193536	52	4820
2026-01-10 12:11:09.86	342.74	11.03	-40.9	-43.1	17.9	0.00e+00	0	44	0	3782213632	52	4917
2026-01-10 12:11:13.87	342.76	10.67	-40.9	-43.1	17.9	0.00e+00	0	44	0	3805282304	52	4908
2026-01-10 12:11:17.87	342.78	10.32	-41.2	-43.4	17.7	0.00e+00	0	44	0	3827302400	52	5062
2026-01-10 12:11:21.89	342.80	9.97	-41.4	-43.7	17.4	0.00e+00	0	44	0	3850371072	53	4927
2026-01-10 12:11:25.90	342.82	9.62	-41.5	-43.8	17.2	0.00e+00	0	44	0	3873439744	53	5029
2026-01-10 12:11:29.91	342.84	9.28	-41.3	-43.7	17.3	0.00e+00	0	44	0	3895459840	53	4959
2026-01-10 12:11:33.93	342.86	8.95	-47.4	-54.4	7.2	2.20e-06	0	44	0	3918528512	65	8483
2026-01-10 12:11:37.95	342.88	8.62	-49.9	-63.0	3.8	8.46e-01	0	44	104	3918528512	71	16138
2026-01-10 12:11:41.96	342.90	8.29	-50.7	-63.1	3.8	8.48e-01	0	44	104	3918528512	72	15520
2026-01-10 12:11:45.98	342.92	7.97	-51.0	-63.2	3.8	8.47e-01	0	44	104	3918528512	72	15686
2026-01-10 12:11:50.00	342.94	7.65	-51.1	-63.2	3.8	8.47e-01	0	44	104	3918528512	72	15604
2026-01-10 12:11:54.02	342.96	7.34	-51.1	-63.1	3.8	8.47e-01	0	44	104	3918528512	72	15578
2026-01-10 12:11:58.03	342.98	7.02	-50.9	-63.1	3.8	8.47e-01	0	44	104	3918528512	72	15514
2026-01-10 12:12:02.05	343.00	6.72	-50.8	-63.1	3.8	8.47e-01	0	44	104	3918528512	72	15494
2026-01-10 12:12:06.07	343.02	6.41	-50.8	-63.1	3.8	8.47e-01	0	44	104	3918528512	72	15440
2026-01-10 12:12:10.09	343.04	6.11	-50.8	-63.1	3.8	8.45e-01	0	44	104	3918528512	72	15476
2026-01-10 12:12:14.10	343.06	5.82	-50.8	-63.1	3.8	8.45e-01	0	44	104	3918528512	72	15429
2026-01-10 12:12:18.12	343.08	5.52	-50.8	-63.1	3.8	8.47e-01	0	44	104	3918528512	72	15458
2026-01-10 12:12:22.14	343.10	5.23	-50.8	-63.1	3.8	8.48e-01	0	44	104	3918528512	72	15458
2026-01-10 12:12:26.16	343.12	4.95	-50.8	-63.0	3.8	8.47e-01	0	44	104	3918528512	72	15377

#Closed at: 2026-01-10 12:12:27
#Recorded file [3918 MB]: D:/Data/31040_260110_145927.dat