passes_logs/2026/01/10/T1/T1__20260110_053525_FENGYUN_3E_rec.log

#Pass ID: 20260110_053525_FENGYUN 3E
#Satellite: FENGYUN 3E
#Configuration: FENGYUN 3E
#almurnet v.1.7.20251203
#Start time: 2026-01-10 05:35:25

#Version: 2.0.20230620
#Station: T1
#Location: 37.570604 lon 55.790049 lat
#TLE: 1 49008U 21062A   26009.29780149 -.00000002  00000+0  19895-4 0  9997
#TLE: 2 49008  98.7484  14.4929 0001744 148.2300 211.8982 14.19883977234036

#Time	Az	El	Level	Level2	SNR	BER	BlckErr	Temp	State	Recorded	gain1	gain2
2026-01-10 05:35:25.94	6.73	5.04	-52.6	-63.8	3.8	8.46e-01	0	37	0	0	74	13933
2026-01-10 05:35:28.95	6.49	5.23	-51.5	-63.1	3.8	8.48e-01	0	37	104	0	73	13650
2026-01-10 05:35:31.97	6.25	5.41	-51.5	-63.2	3.8	8.48e-01	0	37	104	0	73	13748
2026-01-10 05:35:34.98	6.01	5.60	-51.5	-63.2	3.8	8.46e-01	0	38	104	0	73	13791
2026-01-10 05:35:37.99	5.77	5.78	-51.5	-63.2	3.8	8.48e-01	0	38	104	0	73	13884
2026-01-10 05:35:41.01	5.52	5.97	-51.5	-63.3	3.8	8.49e-01	0	38	104	0	73	13946
2026-01-10 05:35:44.02	5.27	6.16	-51.5	-63.3	3.8	8.47e-01	0	38	104	0	73	13909
2026-01-10 05:35:47.03	5.01	6.35	-51.5	-63.3	3.8	8.47e-01	0	38	104	0	73	13990
2026-01-10 05:35:50.04	4.75	6.54	-51.5	-63.4	3.8	8.47e-01	0	38	104	0	73	14075
2026-01-10 05:35:53.05	4.49	6.73	-51.5	-63.4	3.8	8.47e-01	0	38	104	0	73	14087
2026-01-10 05:35:56.07	4.22	6.92	-51.5	-62.9	3.8	8.47e-01	0	38	104	0	73	13341
2026-01-10 05:35:59.08	3.95	7.12	-51.4	-62.4	3.8	8.46e-01	0	39	104	0	73	12601
2026-01-10 05:36:02.09	3.68	7.31	-51.3	-61.7	3.8	8.46e-01	0	38	104	0	73	11610
2026-01-10 05:36:05.10	3.40	7.50	-51.2	-60.8	3.9	8.44e-01	0	39	104	0	73	10516
2026-01-10 05:36:08.12	3.12	7.70	-51.4	-62.1	3.8	8.46e-01	0	39	104	0	73	12176
2026-01-10 05:36:11.13	2.84	7.90	-51.4	-62.2	3.8	8.47e-01	0	39	104	0	73	12275
2026-01-10 05:36:14.14	2.55	8.09	-50.3	-56.0	6.3	2.97e-01	0	39	0	2097152	71	6752
2026-01-10 05:36:17.16	2.25	8.29	-48.8	-52.3	10.0	1.08e-02	0	39	0	24117248	68	5224
2026-01-10 05:36:20.17	1.96	8.49	-46.9	-49.3	12.9	6.98e-05	0	39	0	45088768	64	4686
2026-01-10 05:36:23.18	1.66	8.69	-45.9	-47.8	14.5	1.10e-06	0	39	0	67108864	62	4432
2026-01-10 05:36:26.19	1.35	8.89	-46.4	-48.5	13.8	6.80e-06	0	39	0	89128960	62	4800
2026-01-10 05:36:29.41	1.02	9.10	-47.7	-50.4	11.7	3.64e-03	0	39	0	112197632	66	4733
2026-01-10 05:36:32.34	0.71	9.30	-50.4	-55.3	6.8	6.22e-01	0	39	0	124780544	71	6240
2026-01-10 05:36:35.84	0.34	9.53	-45.1	-46.7	15.6	0.00e+00	0	39	0	149946368	60	4369
2026-01-10 05:36:38.56	0.05	9.72	-45.1	-46.8	15.6	0.00e+00	0	39	0	169869312	60	4398
2026-01-10 05:36:41.85	359.69	9.94	-44.7	-46.4	15.9	0.00e+00	0	39	0	192937984	60	4213
2026-01-10 05:36:44.82	359.36	10.14	-44.5	-46.1	16.1	0.00e+00	0	39	0	214958080	58	4597
2026-01-10 05:36:48.60	358.93	10.40	-43.9	-45.6	16.7	0.00e+00	0	39	0	242221056	58	4292
2026-01-10 05:36:51.33	358.62	10.59	-43.6	-45.4	16.8	0.00e+00	0	39	0	262144000	57	4476
2026-01-10 05:36:55.07	358.18	10.85	-43.3	-45.1	17.1	0.00e+00	0	39	0	288358400	56	4593
2026-01-10 05:36:58.01	357.83	11.05	-43.2	-45.1	17.1	0.00e+00	0	39	0	310378496	56	4590
2026-01-10 05:37:01.02	357.47	11.26	-43.4	-45.4	16.9	0.00e+00	0	39	0	331350016	56	4722
2026-01-10 05:37:04.03	357.11	11.47	-43.4	-45.3	17.0	0.00e+00	0	39	0	353370112	56	4682
2026-01-10 05:37:07.04	356.73	11.68	-43.3	-45.2	17.1	0.00e+00	0	39	0	375390208	56	4616
2026-01-10 05:37:10.05	356.36	11.89	-43.0	-44.9	17.3	0.00e+00	0	39	0	397410304	56	4487
2026-01-10 05:37:13.06	355.97	12.10	-43.0	-44.9	17.4	0.00e+00	0	40	0	418381824	56	4462
2026-01-10 05:37:16.06	355.58	12.31	-43.2	-45.0	17.3	0.00e+00	0	39	0	440401920	56	4520
2026-01-10 05:37:19.18	355.17	12.53	-43.3	-44.9	17.4	0.00e+00	0	40	0	462422016	56	4493
2026-01-10 05:37:22.05	354.79	12.73	-43.4	-44.9	17.5	0.00e+00	0	40	0	483393536	56	4467
2026-01-10 05:37:25.20	354.37	12.95	-43.3	-44.7	17.6	0.00e+00	0	40	0	506462208	56	4368
2026-01-10 05:37:28.06	353.97	13.16	-43.4	-44.8	17.6	0.00e+00	0	40	0	527433728	56	4415
2026-01-10 05:37:31.39	353.51	13.39	-43.1	-44.3	18.0	0.00e+00	0	40	0	550502400	56	4192
2026-01-10 05:37:34.11	353.13	13.59	-43.1	-44.3	18.1	0.00e+00	0	40	0	570425344	56	4160
2026-01-10 05:37:37.77	352.60	13.85	-43.0	-44.3	18.1	0.00e+00	0	40	0	596639744	56	4146
2026-01-10 05:37:40.53	352.20	14.05	-43.3	-44.5	17.9	0.00e+00	0	40	0	616562688	56	4269
2026-01-10 05:37:44.26	351.64	14.31	-43.3	-44.5	17.9	0.00e+00	0	40	0	643825664	56	4272
2026-01-10 05:37:47.02	351.23	14.51	-43.1	-44.3	18.1	0.00e+00	0	39	0	663748608	56	4184
2026-01-10 05:37:51.04	350.61	14.80	-43.2	-44.4	18.0	0.00e+00	0	39	0	693108736	56	4225
2026-01-10 05:37:53.83	350.18	14.99	-43.2	-44.4	18.0	0.00e+00	0	40	0	713031680	56	4242
2026-01-10 05:37:57.27	349.63	15.24	-42.8	-44.0	18.5	0.00e+00	0	40	0	738197504	56	4008
2026-01-10 05:38:00.07	349.18	15.44	-42.8	-44.0	18.5	0.00e+00	0	40	0	758120448	56	4007
2026-01-10 05:38:03.54	348.62	15.69	-42.6	-43.8	18.6	0.00e+00	0	40	0	783286272	56	3930
2026-01-10 05:38:06.27	348.17	15.88	-42.4	-43.5	18.8	0.00e+00	0	40	0	803209216	55	4032
2026-01-10 05:38:09.56	347.61	16.12	-42.2	-43.3	18.9	0.00e+00	0	40	0	826277888	55	3958
2026-01-10 05:38:12.28	347.15	16.31	-42.4	-43.6	18.7	0.00e+00	0	40	0	846200832	55	4082
2026-01-10 05:38:15.64	346.57	16.55	-42.3	-43.5	18.8	0.00e+00	0	40	0	870318080	55	4013
2026-01-10 05:38:18.49	346.07	16.75	-42.4	-43.7	18.7	0.00e+00	0	40	0	890241024	55	4116
2026-01-10 05:38:21.85	345.47	16.98	-42.1	-43.4	18.9	0.00e+00	0	40	0	915406848	55	3959
2026-01-10 05:38:24.57	344.98	17.17	-42.1	-43.3	19.1	0.00e+00	0	40	0	934281216	55	3920
2026-01-10 05:38:27.86	344.38	17.40	-42.0	-43.2	19.2	0.00e+00	0	40	0	958398464	54	4104
2026-01-10 05:38:30.58	343.87	17.59	-41.8	-42.9	19.4	0.00e+00	0	40	0	978321408	54	3992
2026-01-10 05:38:33.88	343.25	17.82	-41.8	-42.8	19.5	0.00e+00	0	40	0	1002438656	54	3945
2026-01-10 05:38:36.60	342.73	18.01	-41.8	-42.8	19.5	0.00e+00	0	40	0	1021313024	54	3926
2026-01-10 05:38:40.17	342.04	18.25	-42.0	-43.0	19.3	0.00e+00	0	40	0	1047527424	54	4029
2026-01-10 05:38:42.95	341.49	18.44	-42.2	-43.3	19.1	0.00e+00	0	40	0	1067450368	54	4161
2026-01-10 05:38:46.25	340.83	18.66	-42.0	-43.1	19.3	0.00e+00	0	40	0	1091567616	54	4064
2026-01-10 05:38:48.97	340.28	18.84	-41.8	-42.9	19.4	0.00e+00	0	40	0	1110441984	54	3964
2026-01-10 05:38:52.53	339.55	19.08	-41.6	-42.6	19.7	0.00e+00	0	40	0	1136656384	53	4097
2026-01-10 05:38:55.44	338.94	19.27	-41.6	-42.7	19.6	0.00e+00	0	40	0	1157627904	53	4131
2026-01-10 05:38:58.74	338.25	19.48	-41.7	-42.9	19.4	0.00e+00	0	40	0	1181745152	53	4212
2026-01-10 05:39:01.48	337.66	19.66	-41.8	-42.9	19.4	0.00e+00	0	40	0	1201668096	53	4216
2026-01-10 05:39:04.78	336.95	19.86	-41.9	-43.0	19.3	0.00e+00	0	40	0	1224736768	53	4266
2026-01-10 05:39:07.81	336.28	20.05	-41.7	-42.8	19.5	0.00e+00	0	40	0	1246756864	53	4189
2026-01-10 05:39:10.84	335.61	20.24	-41.7	-42.8	19.5	0.00e+00	0	40	0	1268776960	53	4151
2026-01-10 05:39:13.85	334.94	20.42	-41.4	-42.4	19.9	0.00e+00	0	40	0	1290797056	53	3970
2026-01-10 05:39:16.85	334.25	20.60	-41.4	-42.4	19.9	0.00e+00	0	40	0	1312817152	53	3985
2026-01-10 05:39:19.86	333.56	20.77	-41.3	-42.4	19.9	0.00e+00	0	40	0	1333788672	53	3978
2026-01-10 05:39:22.87	332.86	20.95	-41.5	-42.5	19.8	0.00e+00	0	40	0	1355808768	53	4011
2026-01-10 05:39:25.88	332.15	21.12	-41.3	-42.3	19.9	0.00e+00	0	40	0	1376780288	53	3938
2026-01-10 05:39:28.89	331.44	21.28	-41.4	-42.4	19.8	0.00e+00	0	40	0	1398800384	53	4002
2026-01-10 05:39:31.98	330.69	21.45	-41.2	-42.2	20.0	0.00e+00	0	40	0	1420820480	53	3897
2026-01-10 05:39:34.90	329.98	21.60	-41.1	-42.0	20.2	0.00e+00	0	40	0	1442840576	52	4047
2026-01-10 05:39:37.91	329.24	21.75	-41.0	-42.0	20.2	0.00e+00	0	40	0	1463812096	52	4023
2026-01-10 05:39:40.92	328.50	21.90	-41.2	-42.1	20.1	0.00e+00	0	40	0	1485832192	52	4098
2026-01-10 05:39:43.93	327.74	22.05	-41.1	-42.1	20.1	0.00e+00	0	40	0	1507852288	52	4073
2026-01-10 05:39:46.93	326.99	22.19	-41.0	-42.0	20.2	0.00e+00	0	40	0	1528823808	52	4009
2026-01-10 05:39:49.94	326.22	22.33	-40.9	-41.9	20.3	0.00e+00	0	40	0	1550843904	52	3990
2026-01-10 05:39:52.95	325.44	22.46	-40.7	-41.7	20.5	0.00e+00	0	40	0	1572864000	52	3887
2026-01-10 05:39:55.96	324.66	22.58	-40.7	-41.6	20.5	0.00e+00	0	40	0	1594884096	52	3858
2026-01-10 05:39:58.96	323.88	22.70	-40.8	-41.8	20.4	0.00e+00	0	40	0	1615855616	52	3934
2026-01-10 05:40:01.97	323.08	22.82	-41.0	-42.0	20.2	0.00e+00	0	40	0	1637875712	52	4016
2026-01-10 05:40:04.97	322.29	22.93	-41.1	-42.1	20.1	0.00e+00	0	40	0	1659895808	52	4089
2026-01-10 05:40:07.98	321.48	23.03	-41.0	-42.0	20.2	0.00e+00	0	40	0	1680867328	52	4039
2026-01-10 05:40:11.01	320.67	23.13	-41.2	-42.2	20.1	0.00e+00	0	40	0	1702887424	52	4107
2026-01-10 05:40:14.02	319.85	23.23	-41.0	-41.9	20.3	0.00e+00	0	40	0	1724907520	52	4004
2026-01-10 05:40:17.03	319.03	23.31	-40.9	-41.8	20.4	0.00e+00	0	40	0	1746927616	52	3955
2026-01-10 05:40:20.04	318.21	23.40	-40.8	-41.7	20.4	0.00e+00	0	40	0	1768947712	52	3908
2026-01-10 05:40:23.05	317.38	23.47	-40.7	-41.9	20.3	0.00e+00	0	40	0	1789919232	52	3981
2026-01-10 05:40:26.10	316.53	23.54	-40.8	-41.8	20.4	0.00e+00	0	40	0	1811939328	51	4190
2026-01-10 05:40:29.07	315.71	23.60	-41.2	-42.2	20.1	0.00e+00	0	40	0	1833959424	51	4349
2026-01-10 05:40:32.36	314.79	23.66	-40.8	-41.8	20.5	0.00e+00	0	40	0	1857028096	51	4167
2026-01-10 05:40:35.18	314.00	23.71	-41.0	-41.9	20.3	0.00e+00	0	40	0	1877999616	51	4230
2026-01-10 05:40:38.88	312.96	23.76	-41.0	-41.9	20.3	0.00e+00	0	40	0	1904214016	51	4236
2026-01-10 05:40:41.60	312.20	23.79	-40.8	-41.8	20.5	0.00e+00	0	40	0	1924136960	51	4149
2026-01-10 05:40:45.09	311.21	23.82	-40.8	-41.7	20.5	0.00e+00	0	40	0	1949302784	51	4124
2026-01-10 05:40:48.13	310.35	23.84	-41.0	-41.9	20.3	0.00e+00	0	40	0	1971322880	51	4230
2026-01-10 05:40:51.90	309.28	23.86	-41.1	-42.0	20.2	0.00e+00	0	40	0	1998585856	51	4274
2026-01-10 05:40:54.65	308.50	23.86	-41.0	-42.0	20.3	0.00e+00	0	40	0	2018508800	51	4265
2026-01-10 05:40:58.42	307.44	23.86	-41.0	-42.0	20.3	0.00e+00	0	40	0	2045771776	51	4246
2026-01-10 05:41:01.16	306.66	23.85	-41.0	-42.0	20.3	0.00e+00	0	40	0	2065694720	51	4262
2026-01-10 05:41:05.15	305.53	23.83	-40.8	-41.8	20.5	0.00e+00	0	40	0	2094006272	51	4167
2026-01-10 05:41:07.89	304.76	23.80	-41.0	-41.9	20.3	0.00e+00	0	40	0	2113929216	51	4241
2026-01-10 05:41:11.77	303.66	23.76	-40.9	-41.8	20.4	0.00e+00	0	40	0	2142240768	51	4161
2026-01-10 05:41:14.52	302.89	23.73	-41.0	-41.9	20.3	0.00e+00	0	40	0	2161115136	51	4219
2026-01-10 05:41:18.06	301.90	23.67	-41.1	-42.0	20.2	0.00e+00	0	40	0	2187329536	51	4287
2026-01-10 05:41:21.06	301.06	23.62	-40.8	-41.8	20.5	0.00e+00	0	40	0	2209349632	51	4146
2026-01-10 05:41:24.18	300.19	23.55	-41.1	-42.0	20.2	0.00e+00	0	40	0	2231369728	51	4276
2026-01-10 05:41:27.05	299.39	23.49	-40.9	-41.9	20.4	0.00e+00	0	40	0	2252341248	51	4200
2026-01-10 05:41:30.20	298.52	23.41	-41.0	-42.0	20.3	0.00e+00	0	40	0	2275409920	51	4247
2026-01-10 05:41:33.35	297.66	23.33	-41.0	-41.9	20.3	0.00e+00	0	40	0	2297430016	51	4213
2026-01-10 05:41:36.21	296.87	23.25	-40.8	-41.7	20.5	0.00e+00	0	40	0	2318401536	51	4126
2026-01-10 05:41:39.50	295.98	23.15	-40.8	-41.7	20.4	0.00e+00	0	40	0	2342518784	51	4139
2026-01-10 05:41:42.37	295.21	23.05	-40.8	-41.7	20.5	0.00e+00	0	40	0	2362441728	51	4131
2026-01-10 05:41:45.52	294.36	22.95	-41.0	-41.9	20.3	0.00e+00	0	40	0	2385510400	51	4215
2026-01-10 05:41:48.38	293.60	22.84	-40.9	-41.8	20.4	0.00e+00	0	40	0	2405433344	51	4181
2026-01-10 05:41:51.53	292.76	22.72	-40.7	-41.6	20.6	0.00e+00	0	40	0	2428502016	51	4074
2026-01-10 05:41:54.39	292.01	22.61	-40.9	-41.8	20.4	0.00e+00	0	40	0	2449473536	51	4164
2026-01-10 05:41:57.63	291.17	22.47	-40.7	-41.6	20.6	0.00e+00	0	40	0	2472542208	51	4093
2026-01-10 05:42:00.49	290.43	22.35	-40.8	-41.7	20.5	0.00e+00	0	40	0	2493513728	51	4115
2026-01-10 05:42:03.63	289.63	22.21	-41.0	-41.9	20.4	0.00e+00	0	40	0	2515533824	51	4220
2026-01-10 05:42:07.10	288.75	22.04	-41.1	-42.0	20.2	0.00e+00	0	40	0	2541748224	51	4281
2026-01-10 05:42:09.82	288.06	21.91	-41.0	-41.9	20.3	0.00e+00	0	40	0	2560622592	51	4214
2026-01-10 05:42:13.12	287.24	21.75	-40.9	-41.8	20.4	0.00e+00	0	40	0	2584739840	51	4183
2026-01-10 05:42:16.08	286.51	21.60	-40.8	-41.7	20.5	0.00e+00	0	40	0	2605711360	51	4130
2026-01-10 05:42:19.77	285.61	21.40	-41.2	-42.1	20.0	0.00e+00	0	40	0	2632974336	52	4098
2026-01-10 05:42:22.73	284.90	21.24	-41.4	-42.4	19.8	0.00e+00	0	40	0	2653945856	52	4203
2026-01-10 05:42:26.50	284.00	21.03	-41.1	-42.0	20.1	0.00e+00	0	40	0	2681208832	52	4051
2026-01-10 05:42:29.28	283.35	20.87	-41.0	-42.0	20.2	0.00e+00	0	40	0	2701131776	52	4006
2026-01-10 05:42:32.97	282.49	20.66	-41.0	-42.0	20.2	0.00e+00	0	40	0	2728394752	52	4025
2026-01-10 05:42:35.70	281.87	20.50	-41.1	-42.0	20.2	0.00e+00	0	40	0	2747269120	52	4036
2026-01-10 05:42:39.06	281.10	20.29	-41.2	-42.2	20.0	0.00e+00	0	40	0	2772434944	52	4119
2026-01-10 05:42:41.87	280.47	20.12	-41.4	-42.3	19.9	0.00e+00	0	40	0	2792357888	52	4181
2026-01-10 05:42:45.25	279.73	19.91	-41.3	-42.2	20.0	0.00e+00	0	40	0	2816475136	52	4139
2026-01-10 05:42:47.97	279.13	19.74	-41.1	-42.1	20.1	0.00e+00	0	40	0	2836398080	52	4069
2026-01-10 05:42:51.26	278.42	19.53	-41.3	-42.3	19.9	0.00e+00	0	40	0	2860515328	52	4169
2026-01-10 05:42:54.32	277.77	19.33	-41.5	-42.4	19.8	0.00e+00	0	40	0	2882535424	52	4232
2026-01-10 05:42:57.35	277.13	19.14	-41.5	-42.5	19.7	0.00e+00	0	40	0	2904555520	52	4287
2026-01-10 05:43:00.36	276.51	18.94	-41.4	-42.4	19.8	0.00e+00	0	40	0	2925527040	52	4209
2026-01-10 05:43:03.37	275.89	18.74	-41.5	-42.5	19.7	0.00e+00	0	40	0	2947547136	52	4254
2026-01-10 05:43:06.38	275.29	18.53	-41.6	-42.6	19.6	0.00e+00	0	40	0	2968518656	52	4328
2026-01-10 05:43:09.47	274.67	18.32	-41.9	-42.9	19.3	0.00e+00	0	40	0	2991587328	53	4220
2026-01-10 05:43:12.35	274.10	18.13	-41.7	-42.8	19.4	0.00e+00	0	40	0	3012558848	53	4153
2026-01-10 05:43:15.50	273.49	17.91	-42.0	-43.1	19.1	0.00e+00	0	40	0	3034578944	53	4294
2026-01-10 05:43:18.36	272.95	17.71	-42.1	-43.1	19.1	0.00e+00	0	40	0	3055550464	53	4327
2026-01-10 05:43:21.51	272.35	17.49	-41.8	-42.8	19.3	0.00e+00	0	40	0	3078619136	53	4158
2026-01-10 05:43:24.38	271.82	17.29	-41.7	-42.7	19.4	0.00e+00	0	40	0	3098542080	53	4136
2026-01-10 05:43:27.53	271.24	17.07	-42.1	-43.2	19.0	0.00e+00	0	40	0	3121610752	53	4347
2026-01-10 05:43:30.41	270.72	16.87	-42.1	-43.2	19.0	0.00e+00	0	40	0	3142582272	53	4348
2026-01-10 05:43:33.56	270.16	16.65	-42.0	-43.0	19.1	0.00e+00	0	40	0	3165650944	53	4266
2026-01-10 05:43:36.43	269.65	16.44	-42.0	-43.0	19.1	0.00e+00	0	40	0	3185573888	53	4288
2026-01-10 05:43:39.63	269.10	16.22	-42.0	-43.0	19.1	0.00e+00	0	40	0	3208642560	53	4284
2026-01-10 05:43:42.49	268.61	16.01	-42.5	-43.6	18.6	0.00e+00	0	40	0	3229614080	54	4306
2026-01-10 05:43:45.65	268.08	15.79	-42.5	-43.6	18.6	0.00e+00	0	40	0	3252682752	54	4325
2026-01-10 05:43:48.66	267.58	15.57	-42.6	-43.7	18.5	0.00e+00	0	40	0	3274702848	54	4368
2026-01-10 05:43:52.24	267.00	15.31	-42.8	-43.9	18.3	0.00e+00	0	40	0	3299868672	55	4223
2026-01-10 05:43:54.96	266.56	15.12	-42.7	-43.8	18.4	0.00e+00	0	40	0	3319791616	55	4151
2026-01-10 05:43:58.25	266.04	14.88	-42.4	-43.5	18.7	0.00e+00	0	40	0	3343908864	55	4010
2026-01-10 05:44:00.97	265.62	14.69	-42.4	-43.5	18.7	0.00e+00	0	40	0	3362783232	55	4018
2026-01-10 05:44:04.27	265.11	14.45	-42.8	-43.9	18.4	0.00e+00	0	40	0	3386900480	56	3972
2026-01-10 05:44:06.99	264.70	14.26	-42.9	-44.0	18.3	0.00e+00	0	40	0	3406823424	56	4014
2026-01-10 05:44:10.29	264.20	14.02	-42.9	-44.0	18.3	0.00e+00	0	40	0	3429892096	56	4031
2026-01-10 05:44:13.01	263.80	13.82	-43.0	-44.1	18.2	0.00e+00	0	40	0	3449815040	56	4070
2026-01-10 05:44:16.30	263.33	13.59	-43.2	-44.3	18.0	0.00e+00	0	40	0	3473932288	56	4178
2026-01-10 05:44:19.15	262.92	13.39	-43.4	-44.5	17.7	0.00e+00	0	40	0	3494903808	56	4289
2026-01-10 05:44:22.30	262.48	13.16	-43.4	-44.6	17.7	0.00e+00	0	40	0	3516923904	56	4326
2026-01-10 05:44:25.45	262.04	12.94	-43.3	-44.4	17.8	0.00e+00	0	40	0	3539992576	56	4234
2026-01-10 05:44:28.32	261.65	12.73	-43.4	-44.5	17.7	0.00e+00	0	40	0	3560964096	56	4272
2026-01-10 05:44:31.47	261.22	12.51	-43.3	-44.5	17.8	0.00e+00	0	40	0	3582984192	56	4249
2026-01-10 05:44:34.34	260.84	12.31	-43.4	-44.6	17.7	0.00e+00	0	40	0	3603955712	56	4307
2026-01-10 05:44:37.48	260.43	12.08	-43.4	-44.6	17.6	0.00e+00	0	40	0	3627024384	56	4337
2026-01-10 05:44:40.35	260.06	11.88	-43.3	-44.5	17.7	0.00e+00	0	40	0	3647995904	56	4275
2026-01-10 05:44:43.51	259.66	11.66	-43.5	-44.7	17.5	0.00e+00	0	40	0	3670016000	56	4390
2026-01-10 05:44:46.37	259.31	11.46	-43.8	-45.1	17.1	0.00e+00	0	40	0	3690987520	57	4320
2026-01-10 05:44:49.44	258.93	11.25	-43.9	-45.2	17.0	0.00e+00	0	40	0	3713007616	57	4378
2026-01-10 05:44:52.45	258.56	11.04	-43.8	-45.0	17.2	0.00e+00	0	40	0	3735027712	57	4282
2026-01-10 05:44:55.46	258.20	10.83	-43.6	-44.8	17.3	0.00e+00	0	40	0	3757047808	57	4186
2026-01-10 05:44:58.47	257.85	10.62	-43.7	-44.9	17.3	0.00e+00	0	40	0	3778019328	57	4198
2026-01-10 05:45:01.48	257.50	10.41	-44.1	-45.4	16.8	0.00e+00	0	40	0	3800039424	57	4446
2026-01-10 05:45:04.48	257.15	10.20	-44.4	-45.7	16.5	0.00e+00	0	40	0	3821010944	58	4364
2026-01-10 05:45:07.49	256.81	10.00	-44.4	-45.7	16.5	0.00e+00	0	40	0	3843031040	58	4362
2026-01-10 05:45:10.50	256.48	9.79	-44.2	-45.5	16.7	0.00e+00	0	40	0	3865051136	58	4244
2026-01-10 05:45:13.51	256.15	9.59	-44.1	-45.4	16.7	0.00e+00	0	40	0	3887071232	58	4214
2026-01-10 05:45:16.52	255.82	9.39	-44.0	-45.3	16.7	0.00e+00	0	40	0	3908042752	58	4170
2026-01-10 05:45:19.53	255.50	9.18	-44.0	-45.3	16.8	0.00e+00	0	40	0	3930062848	58	4174
2026-01-10 05:45:22.54	255.18	8.98	-44.5	-45.9	16.3	0.00e+00	0	40	0	3952082944	58	4448
2026-01-10 05:45:25.55	254.87	8.78	-52.9	-63.8	3.8	8.46e-01	0	40	104	3954180096	75	13213
2026-01-10 05:45:28.59	254.56	8.58	-53.3	-64.0	3.8	8.49e-01	0	40	104	3954180096	75	13504
2026-01-10 05:45:31.60	254.26	8.38	-53.4	-64.2	3.8	8.47e-01	0	40	104	3954180096	76	13039
2026-01-10 05:45:34.61	253.96	8.18	-53.4	-64.2	3.8	8.47e-01	0	40	104	3954180096	76	13062
2026-01-10 05:45:37.62	253.66	7.98	-53.3	-64.2	3.8	8.46e-01	0	40	104	3954180096	76	13077
2026-01-10 05:45:40.64	253.37	7.78	-53.3	-64.2	3.8	8.49e-01	0	40	104	3954180096	76	13080
2026-01-10 05:45:43.65	253.08	7.58	-53.3	-64.2	3.8	8.47e-01	0	40	104	3954180096	76	13060
