passes_logs/2026/01/10/T1/T1__20260110_230957_SUOMI_NPP_rec.log

#Pass ID: 20260110_230957_SUOMI NPP
#Satellite: SUOMI NPP
#Configuration: NPP
#almurnet v.1.7.20251203
#Start time: 2026-01-10 23:09:58

#Version: 2.0.20230620
#Station: T1
#Location: 37.570604 lon 55.790049 lat
#TLE: 1 37849U 11061A   26009.81756760  .00000113  00000+0  74747-4 0  9994
#TLE: 2 37849  98.7806 311.9110 0002525  72.5604 287.5848 14.19524046735974

#Time	Az	El	Level	Level2	SNR	BER	BlckErr	Temp	State	Recorded	gain1	gain2
2026-01-10 23:09:58.45	20.75	5.06	-51.4	-67.1	3.8	1.49e+00	0	39	0	0	74	21843
2026-01-10 23:10:02.46	20.90	5.34	-51.4	-67.0	3.8	1.49e+00	0	40	104	0	73	22998
2026-01-10 23:10:06.48	21.05	5.62	-51.4	-67.0	3.8	1.49e+00	0	40	104	0	73	22894
2026-01-10 23:10:10.50	21.20	5.91	-51.4	-66.9	3.8	1.49e+00	0	40	104	0	73	22714
2026-01-10 23:10:14.51	21.36	6.20	-51.4	-67.0	3.8	1.49e+00	0	40	104	0	73	22786
2026-01-10 23:10:18.53	21.52	6.49	-51.4	-67.1	3.8	1.49e+00	0	40	104	0	73	23046
2026-01-10 23:10:22.55	21.68	6.78	-51.4	-66.8	3.8	1.49e+00	0	40	104	0	73	22491
2026-01-10 23:10:26.57	21.85	7.08	-51.3	-65.7	3.8	1.49e+00	0	40	104	0	73	19778
2026-01-10 23:10:30.59	22.02	7.38	-51.3	-65.4	3.8	1.49e+00	0	41	104	0	73	19105
2026-01-10 23:10:34.60	22.19	7.69	-51.3	-65.4	3.8	1.49e+00	0	41	104	0	73	19007
2026-01-10 23:10:38.62	22.37	7.99	-51.2	-64.1	4.1	1.48e+00	0	41	0	0	73	16315
2026-01-10 23:10:42.64	22.54	8.30	-51.2	-63.7	4.1	1.42e+00	0	41	0	0	73	15633
2026-01-10 23:10:46.66	22.73	8.62	-51.1	-62.3	4.6	1.14e+00	0	41	0	2097152	73	13362
2026-01-10 23:10:50.67	22.91	8.94	-51.0	-61.7	4.9	7.30e-01	0	41	0	9437184	73	12435
2026-01-10 23:10:54.69	23.10	9.26	-50.3	-57.2	5.1	1.49e+00	0	41	104	14680064	72	7856
2026-01-10 23:10:58.70	23.29	9.59	-49.3	-54.3	11.5	7.00e-04	0	41	0	20971520	70	6305
2026-01-10 23:11:02.72	23.49	9.92	-49.0	-53.5	12.3	2.15e-04	0	42	0	28311552	70	5780
2026-01-10 23:11:06.74	23.69	10.25	-48.4	-52.4	13.5	1.52e-05	0	41	0	36700160	68	5691
2026-01-10 23:11:10.75	23.90	10.59	-48.2	-52.0	13.9	1.50e-06	0	41	0	44040192	68	5415
2026-01-10 23:11:14.76	24.11	10.94	-48.1	-51.8	14.0	1.50e-06	0	42	0	51380224	67	5639
2026-01-10 23:11:18.78	24.32	11.28	-47.6	-51.1	14.8	1.50e-06	0	41	0	58720256	66	5475
2026-01-10 23:11:22.79	24.54	11.64	-47.5	-51.0	14.8	0.00e+00	0	41	0	66060288	66	5429
2026-01-10 23:11:26.80	24.77	11.99	-47.4	-50.8	15.0	0.00e+00	0	42	0	74448896	66	5339
2026-01-10 23:11:30.81	25.00	12.36	-47.1	-50.4	15.4	0.00e+00	0	42	0	81788928	65	5401
2026-01-10 23:11:34.82	25.23	12.72	-46.8	-49.9	15.9	0.00e+00	0	42	0	89128960	65	5082
2026-01-10 23:11:38.83	25.47	13.10	-46.6	-49.6	16.2	0.00e+00	0	42	0	96468992	65	4918
2026-01-10 23:11:42.85	25.72	13.48	-46.3	-49.2	16.6	0.00e+00	0	42	0	103809024	64	4961
2026-01-10 23:11:46.86	25.97	13.86	-46.7	-49.8	16.0	0.00e+00	0	42	0	111149056	64	5303
2026-01-10 23:11:50.88	26.23	14.25	-46.5	-49.5	16.3	0.00e+00	0	42	0	119537664	64	5122
2026-01-10 23:11:54.89	26.49	14.65	-46.4	-49.4	16.5	0.00e+00	0	42	0	126877696	64	5052
2026-01-10 23:11:58.91	26.76	15.05	-46.3	-49.3	16.5	0.00e+00	0	42	0	134217728	64	5007
2026-01-10 23:12:02.92	27.04	15.46	-46.0	-48.9	17.0	0.00e+00	0	42	0	141557760	63	5089
2026-01-10 23:12:06.93	27.32	15.87	-45.9	-48.8	17.1	0.00e+00	0	42	0	148897792	63	5003
2026-01-10 23:12:10.94	27.62	16.29	-46.1	-49.1	16.8	0.00e+00	0	42	0	156237824	63	5181
2026-01-10 23:12:14.96	27.92	16.72	-45.9	-48.8	17.1	0.00e+00	0	42	0	164626432	63	5012
2026-01-10 23:12:18.97	28.23	17.15	-45.9	-48.7	17.2	0.00e+00	0	42	0	171966464	63	4963
2026-01-10 23:12:22.98	28.54	17.59	-46.2	-48.9	17.1	0.00e+00	0	42	0	179306496	63	5087
2026-01-10 23:12:26.99	28.87	18.04	-46.1	-48.7	17.2	0.00e+00	0	42	0	186646528	63	4945
2026-01-10 23:12:31.00	29.21	18.50	-46.0	-48.7	17.3	0.00e+00	0	42	0	193986560	63	4931
2026-01-10 23:12:35.01	29.55	18.96	-46.1	-48.7	17.2	0.00e+00	0	42	0	201326592	63	4967
2026-01-10 23:12:39.03	29.91	19.43	-46.1	-48.8	17.2	0.00e+00	0	42	0	209715200	63	4990
2026-01-10 23:12:43.04	30.28	19.91	-46.0	-48.6	17.3	0.00e+00	0	42	0	217055232	63	4910
2026-01-10 23:12:47.06	30.65	20.40	-46.2	-48.8	17.2	0.00e+00	0	42	0	224395264	63	5002
2026-01-10 23:12:51.07	31.04	20.90	-46.1	-48.8	17.2	0.00e+00	0	42	0	231735296	63	5032
2026-01-10 23:12:55.08	31.45	21.40	-46.1	-48.7	17.3	0.00e+00	0	42	0	239075328	63	4972
2026-01-10 23:12:59.09	31.86	21.92	-46.3	-49.0	17.0	0.00e+00	0	42	0	246415360	63	5144
2026-01-10 23:13:03.10	32.29	22.44	-46.0	-48.7	17.4	0.00e+00	0	42	0	254803968	63	4953
2026-01-10 23:13:07.12	32.73	22.97	-46.1	-48.8	17.3	0.00e+00	0	42	0	262144000	63	5010
2026-01-10 23:13:11.13	33.19	23.52	-46.2	-48.9	17.2	0.00e+00	0	42	0	269484032	63	5059
2026-01-10 23:13:15.14	33.66	24.07	-46.3	-49.1	17.0	0.00e+00	0	42	0	276824064	63	5174
2026-01-10 23:13:19.14	34.15	24.63	-46.3	-49.1	17.1	0.00e+00	0	42	0	284164096	63	5171
2026-01-10 23:13:23.16	34.66	25.20	-46.4	-49.1	17.0	0.00e+00	0	42	0	292552704	63	5198
2026-01-10 23:13:27.17	35.18	25.79	-46.6	-49.5	16.6	0.00e+00	0	42	0	299892736	64	5120
2026-01-10 23:13:31.18	35.73	26.38	-46.8	-49.6	16.5	0.00e+00	0	42	0	307232768	64	5194
2026-01-10 23:13:35.20	36.29	26.98	-47.0	-49.8	16.4	0.00e+00	0	42	0	314572800	64	5336
2026-01-10 23:13:39.21	36.88	27.60	-46.7	-49.5	16.6	0.00e+00	0	43	0	321912832	64	5136
2026-01-10 23:13:43.22	37.49	28.22	-47.4	-50.5	15.7	0.00e+00	0	42	0	329252864	65	5426
2026-01-10 23:13:47.23	38.12	28.86	-47.8	-51.1	15.1	7.00e-07	0	42	0	337641472	66	5512
2026-01-10 23:13:51.24	38.77	29.51	-48.4	-52.1	14.2	0.00e+00	0	42	0	344981504	67	5790
2026-01-10 23:13:55.26	39.46	30.17	-48.0	-51.3	15.0	7.00e-07	0	42	0	352321536	67	5295
2026-01-10 23:13:59.27	40.17	30.83	-47.9	-51.1	15.1	0.00e+00	0	42	0	359661568	67	5216
2026-01-10 23:14:03.29	40.91	31.52	-47.6	-50.7	15.6	0.00e+00	0	42	0	367001600	67	4933
2026-01-10 23:14:07.30	41.69	32.21	-48.0	-51.4	14.9	0.00e+00	0	42	0	374341632	67	5345
2026-01-10 23:14:11.30	42.49	32.91	-47.5	-50.6	15.6	0.00e+00	0	42	0	382730240	67	4924
2026-01-10 23:14:15.31	43.33	33.62	-46.7	-49.5	16.7	0.00e+00	0	42	0	390070272	65	4846
2026-01-10 23:14:19.32	44.21	34.34	-47.3	-50.4	15.8	0.00e+00	0	43	0	397410304	65	5357
2026-01-10 23:14:23.33	45.13	35.07	-47.4	-50.4	15.7	0.00e+00	0	42	0	404750336	65	5395
2026-01-10 23:14:27.34	46.08	35.81	-47.0	-49.8	16.4	0.00e+00	0	42	0	412090368	65	5032
2026-01-10 23:14:31.35	47.09	36.56	-47.1	-50.0	16.2	0.00e+00	0	42	0	420478976	65	5135
2026-01-10 23:14:35.36	48.14	37.32	-46.5	-49.2	17.0	0.00e+00	0	42	0	427819008	64	4927
2026-01-10 23:14:39.38	49.24	38.08	-46.3	-48.9	17.3	0.00e+00	0	42	0	435159040	64	4808
2026-01-10 23:14:43.39	50.39	38.85	-46.4	-49.1	17.1	0.00e+00	0	42	0	442499072	64	4888
2026-01-10 23:14:47.40	51.59	39.62	-46.5	-49.1	17.1	0.00e+00	0	42	0	449839104	64	4910
2026-01-10 23:14:51.41	52.86	40.39	-46.3	-49.0	17.2	0.00e+00	0	42	0	457179136	64	4818
2026-01-10 23:14:55.42	54.18	41.17	-46.9	-49.6	16.5	0.00e+00	0	42	0	465567744	64	5211
2026-01-10 23:14:59.44	55.57	41.95	-46.9	-49.7	16.6	0.00e+00	0	42	0	472907776	65	4936
2026-01-10 23:15:03.45	57.03	42.72	-46.9	-49.8	16.4	0.00e+00	0	42	0	480247808	65	4995
2026-01-10 23:15:07.46	58.56	43.49	-46.8	-49.6	16.6	0.00e+00	0	42	0	487587840	64	5189
2026-01-10 23:15:11.47	60.16	44.25	-46.6	-49.3	16.9	0.00e+00	0	42	0	494927872	64	5028
2026-01-10 23:15:15.48	61.84	44.99	-47.6	-50.7	15.7	0.00e+00	0	42	0	502267904	65	5536
2026-01-10 23:15:19.50	63.60	45.73	-47.6	-50.8	15.4	0.00e+00	0	43	0	510656512	67	4998
2026-01-10 23:15:23.51	65.44	46.45	-46.8	-49.6	16.7	0.00e+00	0	42	0	517996544	65	4914
2026-01-10 23:15:27.52	67.36	47.14	-46.4	-49.0	17.2	0.00e+00	0	42	0	525336576	64	4849
2026-01-10 23:15:31.53	69.37	47.82	-46.4	-49.0	17.2	0.00e+00	0	43	0	532676608	64	4866
2026-01-10 23:15:35.54	71.47	48.46	-46.6	-49.4	16.9	0.00e+00	0	42	0	540016640	64	5061
2026-01-10 23:15:39.55	73.65	49.07	-46.6	-49.2	17.0	0.00e+00	0	43	0	547356672	64	4974
2026-01-10 23:15:43.56	75.92	49.64	-46.6	-49.3	16.8	0.00e+00	0	43	0	555745280	64	5038
2026-01-10 23:15:47.57	78.27	50.17	-47.3	-50.2	16.1	0.00e+00	0	42	0	563085312	65	5256
2026-01-10 23:15:51.58	80.70	50.65	-48.0	-51.4	14.8	0.00e+00	0	43	0	570425344	67	5383
2026-01-10 23:15:55.60	83.21	51.09	-47.1	-50.1	16.1	0.00e+00	0	42	0	577765376	66	4923
2026-01-10 23:15:59.61	85.78	51.47	-46.0	-48.6	17.5	0.00e+00	0	42	0	585105408	64	4647
2026-01-10 23:16:03.62	88.42	51.79	-46.9	-49.8	16.4	0.00e+00	0	42	0	592445440	64	5339
2026-01-10 23:16:07.64	91.11	52.05	-46.3	-48.9	17.2	0.00e+00	0	42	0	600834048	64	4814
2026-01-10 23:16:11.65	93.84	52.25	-46.9	-49.8	16.4	0.00e+00	0	42	0	608174080	64	5327
2026-01-10 23:16:15.66	96.60	52.38	-46.9	-49.6	16.6	0.00e+00	0	42	0	615514112	64	5211
2026-01-10 23:16:19.67	99.38	52.44	-47.4	-50.5	15.8	0.00e+00	0	42	0	622854144	66	5139
2026-01-10 23:16:23.69	102.17	52.43	-48.0	-51.3	15.0	0.00e+00	0	43	0	630194176	66	5608
2026-01-10 23:16:27.70	104.94	52.36	-46.3	-48.9	17.3	0.00e+00	0	43	0	637534208	64	4804
2026-01-10 23:16:31.71	107.70	52.22	-46.1	-48.6	17.7	0.00e+00	0	43	0	645922816	63	4893
2026-01-10 23:16:35.73	110.43	52.01	-45.6	-48.0	18.2	0.00e+00	0	43	0	653262848	62	4816
2026-01-10 23:16:39.73	113.10	51.74	-46.4	-49.1	17.2	0.00e+00	0	43	0	660602880	63	5200
2026-01-10 23:16:43.75	115.73	51.40	-47.4	-50.5	15.8	0.00e+00	0	42	0	667942912	65	5411
2026-01-10 23:16:47.76	118.30	51.01	-46.2	-48.7	17.5	0.00e+00	0	42	0	675282944	64	4693
2026-01-10 23:16:51.78	120.80	50.56	-46.4	-49.0	17.3	0.00e+00	0	43	0	683671552	63	5154
2026-01-10 23:16:55.78	123.21	50.07	-46.5	-49.3	17.0	0.00e+00	0	42	0	691011584	64	5006
2026-01-10 23:16:59.80	125.56	49.53	-46.7	-49.4	16.8	0.00e+00	0	42	0	698351616	64	5074
2026-01-10 23:17:03.81	127.81	48.95	-46.9	-49.7	16.5	0.00e+00	0	42	0	705691648	65	4962
2026-01-10 23:17:07.83	129.99	48.33	-46.6	-49.3	17.0	0.00e+00	0	42	0	713031680	64	4993
2026-01-10 23:17:11.84	132.07	47.68	-48.5	-52.1	14.2	7.00e-07	0	42	0	720371712	67	5823
2026-01-10 23:17:15.84	134.07	47.00	-50.1	-54.9	11.6	1.50e-04	0	43	0	728760320	70	6777
2026-01-10 23:17:19.84	135.97	46.30	-49.6	-53.9	12.7	3.66e-05	0	42	0	736100352	70	5994
2026-01-10 23:17:23.85	137.80	45.58	-49.1	-53.1	13.4	5.30e-06	0	43	0	743440384	69	5831
2026-01-10 23:17:27.86	139.55	44.84	-50.4	-55.5	10.9	2.69e-03	0	43	0	750780416	72	6461
2026-01-10 23:17:31.88	141.22	44.08	-51.3	-58.4	7.9	3.50e-02	0	43	0	758120448	73	8505
2026-01-10 23:17:35.90	142.81	43.31	-51.9	-61.0	5.7	1.30e-01	0	43	0	766509056	74	10885
2026-01-10 23:17:39.91	144.33	42.54	-52.1	-62.1	5.0	2.21e-02	0	43	0	773849088	74	12351
2026-01-10 23:17:43.92	145.78	41.77	-51.2	-57.9	8.4	5.73e-02	0	43	0	774897664	74	7624
2026-01-10 23:17:47.94	147.16	40.98	-48.9	-52.7	13.8	9.90e-06	0	43	0	783286272	69	5546
2026-01-10 23:17:51.95	148.47	40.20	-49.0	-52.8	13.6	2.89e-05	0	43	0	790626304	70	5293
2026-01-10 23:17:55.96	149.73	39.43	-50.2	-55.0	11.4	1.57e-04	0	43	0	797966336	70	6869
2026-01-10 23:17:59.97	150.92	38.65	-47.6	-50.6	15.6	0.00e+00	0	43	0	805306368	67	4903
2026-01-10 23:18:03.98	152.07	37.88	-48.9	-52.7	13.8	7.00e-07	0	43	0	812646400	68	5876
2026-01-10 23:18:07.99	153.16	37.11	-46.9	-49.8	16.4	0.00e+00	0	43	0	819986432	65	4988
2026-01-10 23:18:12.00	154.20	36.36	-47.7	-50.9	15.4	0.00e+00	0	43	0	828375040	65	5684
2026-01-10 23:18:16.01	155.19	35.61	-46.7	-49.5	16.7	0.00e+00	0	43	0	835715072	65	4828
2026-01-10 23:18:20.03	156.15	34.86	-48.2	-51.8	14.5	0.00e+00	0	43	0	843055104	67	5607
2026-01-10 23:18:24.05	157.06	34.13	-49.6	-54.3	12.2	2.29e-04	0	43	0	850395136	70	6292
2026-01-10 23:18:28.05	157.93	33.40	-47.8	-51.1	15.2	0.00e+00	0	43	0	857735168	67	5183
2026-01-10 23:18:32.07	158.76	32.69	-48.5	-52.4	13.9	3.80e-06	0	43	0	865075200	67	5993
2026-01-10 23:18:36.09	159.57	31.98	-48.2	-51.8	14.6	2.20e-06	0	43	0	873463808	68	5314
2026-01-10 23:18:40.10	160.33	31.29	-47.2	-50.1	16.0	0.00e+00	0	43	0	880803840	66	4920
2026-01-10 23:18:44.11	161.07	30.61	-47.4	-50.5	15.7	0.00e+00	0	43	0	888143872	65	5433
2026-01-10 23:18:48.12	161.77	29.94	-49.1	-53.1	13.3	9.10e-06	0	43	0	895483904	69	5830
2026-01-10 23:18:52.13	162.45	29.28	-48.9	-52.8	13.6	1.37e-05	0	43	0	902823936	69	5636
2026-01-10 23:18:56.15	163.10	28.63	-46.9	-49.8	16.3	0.00e+00	0	43	0	911212544	65	5000
2026-01-10 23:19:00.16	163.73	27.99	-47.0	-49.9	16.2	0.00e+00	0	43	0	918552576	65	5082
2026-01-10 23:19:04.17	164.33	27.37	-47.0	-49.9	16.2	0.00e+00	0	43	0	925892608	65	5078
2026-01-10 23:19:08.18	164.91	26.75	-46.2	-48.8	17.2	0.00e+00	0	43	0	933232640	64	4750
2026-01-10 23:19:12.19	165.47	26.15	-47.5	-50.6	15.5	0.00e+00	0	43	0	940572672	65	5523
2026-01-10 23:19:16.20	166.01	25.55	-49.0	-53.1	13.3	2.13e-05	0	43	0	947912704	68	6132
2026-01-10 23:19:20.22	166.53	24.97	-49.0	-52.9	13.4	1.83e-05	0	43	0	956301312	69	5674
2026-01-10 23:19:24.23	167.03	24.40	-47.5	-50.7	15.4	0.00e+00	0	43	0	963641344	67	4933
2026-01-10 23:19:28.24	167.52	23.83	-46.5	-49.3	16.7	0.00e+00	0	43	0	970981376	64	5002
2026-01-10 23:19:32.25	167.99	23.28	-47.4	-50.5	15.6	0.00e+00	0	43	0	978321408	65	5452
2026-01-10 23:19:36.26	168.44	22.74	-48.0	-51.6	14.5	0.00e+00	0	43	0	985661440	67	5509
2026-01-10 23:19:40.27	168.88	22.20	-47.4	-50.7	15.4	0.00e+00	0	43	0	993001472	66	5235
2026-01-10 23:19:44.28	169.30	21.68	-46.8	-49.7	16.3	0.00e+00	0	43	0	1001390080	65	4977
2026-01-10 23:19:48.30	169.71	21.16	-46.9	-50.0	16.0	0.00e+00	0	43	0	1008730112	65	5112
2026-01-10 23:19:52.31	170.11	20.66	-47.1	-50.1	16.0	0.00e+00	0	43	0	1016070144	65	5192
2026-01-10 23:19:56.32	170.50	20.16	-46.5	-49.4	16.6	0.00e+00	0	43	0	1023410176	65	4777
2026-01-10 23:20:00.33	170.87	19.67	-46.0	-48.8	17.1	0.00e+00	0	43	0	1030750208	64	4758
2026-01-10 23:20:04.35	171.23	19.19	-46.4	-49.2	16.9	0.00e+00	0	43	0	1038090240	63	5253
2026-01-10 23:20:08.36	171.58	18.72	-46.6	-49.5	16.6	0.00e+00	0	43	0	1046478848	63	5406
2026-01-10 23:20:12.37	171.92	18.26	-47.0	-50.0	16.0	0.00e+00	0	42	0	1053818880	64	5464
2026-01-10 23:20:16.38	172.26	17.80	-47.5	-50.8	15.2	0.00e+00	0	43	0	1061158912	65	5616
2026-01-10 23:20:20.39	172.58	17.35	-47.8	-51.3	14.8	0.00e+00	0	43	0	1068498944	66	5622
2026-01-10 23:20:24.40	172.89	16.91	-47.6	-51.0	15.0	0.00e+00	0	43	0	1075838976	66	5415
2026-01-10 23:20:28.41	173.20	16.47	-47.5	-50.9	15.1	0.00e+00	0	43	0	1083179008	66	5352
2026-01-10 23:20:32.43	173.49	16.05	-47.0	-50.2	15.8	0.00e+00	0	43	0	1091567616	66	4929
2026-01-10 23:20:36.44	173.78	15.62	-46.7	-49.7	16.2	0.00e+00	0	43	0	1098907648	65	4974
2026-01-10 23:20:40.45	174.06	15.21	-46.5	-49.5	16.4	0.00e+00	0	43	0	1106247680	64	5135
2026-01-10 23:20:44.46	174.33	14.80	-46.2	-49.1	16.7	0.00e+00	0	43	0	1113587712	64	4921
2026-01-10 23:20:48.48	174.60	14.40	-46.2	-49.1	16.7	0.00e+00	0	43	0	1120927744	64	4921
2026-01-10 23:20:52.49	174.86	14.00	-46.3	-49.2	16.6	0.00e+00	0	43	0	1129316352	64	4979
2026-01-10 23:20:56.50	175.12	13.61	-46.4	-49.5	16.4	0.00e+00	0	43	0	1136656384	64	5137
2026-01-10 23:21:00.52	175.36	13.23	-46.6	-49.8	16.1	0.00e+00	0	43	0	1143996416	64	5292
2026-01-10 23:21:04.53	175.60	12.85	-46.8	-49.9	15.9	0.00e+00	0	43	0	1151336448	64	5396
2026-01-10 23:21:08.54	175.84	12.48	-46.6	-49.5	15.8	9.68e-05	0	43	0	1158676480	64	5155
2026-01-10 23:21:12.55	176.07	12.11	-46.3	-49.2	16.6	0.00e+00	0	43	0	1166016512	64	4973
2026-01-10 23:21:16.56	176.29	11.75	-46.3	-49.3	16.5	0.00e+00	0	43	0	1174405120	64	4998
2026-01-10 23:21:20.57	176.51	11.39	-46.3	-49.5	16.3	0.00e+00	0	43	0	1181745152	64	5108
2026-01-10 23:21:24.59	176.73	11.03	-46.3	-49.7	16.1	0.00e+00	0	43	0	1189085184	64	5240
2026-01-10 23:21:28.60	176.94	10.69	-46.4	-50.1	15.7	0.00e+00	0	43	0	1196425216	64	5510
2026-01-10 23:21:32.61	177.14	10.34	-46.7	-50.6	15.2	0.00e+00	0	43	0	1203765248	64	5794
2026-01-10 23:21:36.63	177.34	10.00	-46.9	-50.9	14.8	7.00e-07	0	43	0	1211105280	64	6047
2026-01-10 23:21:40.63	177.54	9.67	-47.2	-51.4	14.4	0.00e+00	0	43	0	1219493888	65	6017
2026-01-10 23:21:44.65	177.73	9.34	-47.3	-51.4	14.3	1.50e-06	0	43	0	1226833920	65	6061
2026-01-10 23:21:48.66	177.92	9.01	-48.2	-53.3	12.6	1.50e-06	0	43	0	1234173952	66	7110
2026-01-10 23:21:52.68	178.11	8.69	-52.3	-67.6	3.8	1.49e+00	0	43	104	1235222528	75	21977
2026-01-10 23:21:56.70	178.29	8.37	-52.6	-67.7	3.8	1.49e+00	0	43	104	1235222528	75	22034
2026-01-10 23:22:00.72	178.46	8.05	-52.7	-67.8	3.8	1.49e+00	0	43	104	1235222528	75	22366
2026-01-10 23:22:04.73	178.64	7.74	-52.3	-67.7	3.8	1.49e+00	0	43	104	1235222528	76	20850
2026-01-10 23:22:08.75	178.81	7.43	-52.5	-67.6	3.8	1.49e+00	0	43	104	1235222528	76	20761
2026-01-10 23:22:12.77	178.97	7.13	-52.5	-67.6	3.8	1.49e+00	0	43	104	1235222528	76	20647
2026-01-10 23:22:16.78	179.14	6.82	-52.2	-67.6	3.8	1.49e+00	0	43	104	1235222528	76	20714
2026-01-10 23:22:20.80	179.30	6.53	-52.3	-67.5	3.8	1.49e+00	0	43	104	1235222528	76	20473
2026-01-10 23:22:24.82	179.46	6.23	-52.3	-67.5	3.8	1.49e+00	0	43	104	1235222528	76	20533
2026-01-10 23:22:28.84	179.61	5.94	-52.3	-67.5	3.8	1.49e+00	0	43	104	1235222528	76	20536
2026-01-10 23:22:32.85	179.76	5.65	-52.3	-67.5	3.8	1.49e+00	0	43	104	1235222528	76	20396
2026-01-10 23:22:36.87	179.91	5.37	-52.2	-67.4	3.8	1.49e+00	0	43	104	1235222528	76	20282
2026-01-10 23:22:40.89	180.06	5.08	-52.1	-67.4	3.8	1.49e+00	0	43	104	1235222528	76	20096

#Closed at: 2026-01-10 23:22:43
#Recorded file [1235 MB]: D:/Data/31040_260111_020958.dat