passes_logs/2026/01/10/T1/T1__20260110_085245_KHAYYAM_rec.log

#Pass ID: 20260110_085245_KHAYYAM
#Satellite: KHAYYAM
#Configuration: KHAYYAM_480M
#almurnet v.1.7.20251203
#Start time: 2026-01-10 08:52:46

#Version: 2.0.20230620
#Station: T1
#Location: 37.570604 lon 55.790049 lat
#TLE: 1 53370U 22096A   26009.96900081  .00005797  00000+0  23664-3 0  9998
#TLE: 2 53370  97.3557 277.0694 0001291  96.0659 264.0726 15.24786278190477

#Time	Az	El	Level	Level2	SNR	BER	BlckErr	Temp	State	Recorded	gain1	gain2
2026-01-10 08:52:46.75	204.62	5.07	-53.3	-57.7	3.6	0.00e+00	0	46	0	0	78	23604
2026-01-10 08:52:48.75	204.84	5.21	-53.2	-57.7	3.7	0.00e+00	0	46	104	0	77	25024
2026-01-10 08:52:50.74	205.06	5.36	-53.2	-57.7	3.7	0.00e+00	0	47	104	0	77	24955
2026-01-10 08:52:52.74	205.28	5.50	-53.2	-57.7	3.7	0.00e+00	0	47	104	0	77	25062
2026-01-10 08:52:54.74	205.50	5.64	-53.2	-57.7	3.7	0.00e+00	0	47	104	0	77	24938
2026-01-10 08:52:56.74	205.73	5.79	-53.2	-57.7	3.7	0.00e+00	0	47	104	0	77	24956
2026-01-10 08:52:58.74	205.96	5.94	-53.2	-57.7	3.7	0.00e+00	0	47	104	0	77	24932
2026-01-10 08:53:00.73	206.19	6.08	-53.2	-57.7	3.7	0.00e+00	0	47	104	0	77	24929
2026-01-10 08:53:02.73	206.43	6.23	-53.2	-57.7	3.7	0.00e+00	0	48	104	0	77	25030
2026-01-10 08:53:04.73	206.66	6.38	-53.2	-57.7	3.7	0.00e+00	0	48	104	0	77	25019
2026-01-10 08:53:06.73	206.91	6.53	-53.2	-57.7	3.7	0.00e+00	0	48	104	0	77	25029
2026-01-10 08:53:08.72	207.15	6.68	-53.3	-57.7	3.7	0.00e+00	0	48	104	0	77	25077
2026-01-10 08:53:10.72	207.40	6.83	-53.3	-57.7	3.7	0.00e+00	0	48	104	0	77	25043
2026-01-10 08:53:12.72	207.65	6.98	-53.2	-57.7	3.7	0.00e+00	0	49	104	0	77	25071
2026-01-10 08:53:14.72	207.90	7.13	-53.2	-57.7	3.7	0.00e+00	0	49	104	0	77	25046
2026-01-10 08:53:16.71	208.16	7.29	-53.2	-57.7	3.7	0.00e+00	0	49	104	0	77	24945
2026-01-10 08:53:18.71	208.42	7.44	-53.2	-57.7	3.7	0.00e+00	0	49	104	0	77	24926
2026-01-10 08:53:20.70	208.68	7.60	-53.2	-57.7	3.7	0.00e+00	0	49	104	0	77	24934
2026-01-10 08:53:22.70	208.95	7.75	-53.2	-57.7	3.7	0.00e+00	0	49	104	0	77	25018
2026-01-10 08:53:24.70	209.22	7.91	-53.2	-57.7	3.7	0.00e+00	0	49	104	0	77	25017
2026-01-10 08:53:26.70	209.50	8.07	-53.3	-57.7	3.7	0.00e+00	0	49	104	0	77	25043
2026-01-10 08:53:28.69	209.77	8.23	-53.2	-57.7	3.7	0.00e+00	0	49	104	0	77	24986
2026-01-10 08:53:30.69	210.06	8.39	-53.3	-57.7	3.7	0.00e+00	0	49	104	0	77	25068
2026-01-10 08:53:32.69	210.34	8.55	-53.3	-57.7	3.7	0.00e+00	0	49	104	0	77	24972
2026-01-10 08:53:34.69	210.63	8.71	-53.3	-57.7	3.7	0.00e+00	0	49	104	0	77	25028
2026-01-10 08:53:36.69	210.93	8.87	-53.2	-57.7	3.7	0.00e+00	0	50	104	0	77	24957
2026-01-10 08:53:38.69	211.22	9.03	-53.2	-57.7	3.7	0.00e+00	0	50	104	0	77	25015
2026-01-10 08:53:40.68	211.52	9.20	-53.1	-57.6	3.7	0.00e+00	0	50	104	0	77	24530
2026-01-10 08:53:42.67	211.83	9.36	-53.4	-57.7	3.7	0.00e+00	0	50	104	0	77	25008
2026-01-10 08:53:44.67	212.14	9.53	-53.5	-57.9	3.7	0.00e+00	0	50	104	0	77	25409
2026-01-10 08:53:46.67	212.45	9.69	-53.8	-58.2	3.7	0.00e+00	0	50	104	0	78	25057
2026-01-10 08:53:48.67	212.77	9.86	-53.5	-57.9	3.7	0.00e+00	0	50	104	0	78	24164
2026-01-10 08:53:50.67	213.10	10.03	-53.6	-58.0	3.7	0.00e+00	0	50	104	0	78	24369
2026-01-10 08:53:52.67	213.43	10.20	-41.1	-42.1	14.0	9.32e-03	0	50	0	67108864	54	15575
2026-01-10 08:53:54.67	213.76	10.37	-36.9	-38.3	16.0	0.00e+00	0	51	0	192937984	46	15836
2026-01-10 08:53:56.67	214.10	10.54	-36.8	-37.7	16.3	0.00e+00	0	51	0	310378496	45	15741
2026-01-10 08:53:58.67	214.44	10.71	-37.0	-37.9	16.1	0.00e+00	0	51	0	427819008	45	16113
2026-01-10 08:54:00.66	214.78	10.88	-36.7	-37.6	16.2	0.00e+00	0	51	0	553648128	45	15592
2026-01-10 08:54:02.66	215.13	11.05	-36.1	-37.0	16.8	0.00e+00	0	51	0	671088640	44	15413
2026-01-10 08:54:04.66	215.49	11.23	-35.9	-36.8	16.6	0.00e+00	0	51	0	788529152	43	15932
2026-01-10 08:54:06.66	215.85	11.40	-36.0	-36.9	16.6	0.00e+00	0	51	0	905969664	43	16080
2026-01-10 08:54:08.66	216.22	11.58	-35.7	-36.6	16.9	0.00e+00	0	51	0	1031798784	43	15609
2026-01-10 08:54:10.66	216.59	11.76	-35.9	-36.8	16.7	0.00e+00	0	51	0	1149239296	43	15917
2026-01-10 08:54:12.66	216.97	11.93	-35.6	-36.5	16.8	0.00e+00	0	51	0	1266679808	43	15361
2026-01-10 08:54:14.65	217.35	12.11	-35.7	-36.6	16.9	0.00e+00	0	51	0	1392508928	43	15550
2026-01-10 08:54:16.65	217.74	12.29	-35.7	-36.6	16.8	0.00e+00	0	52	0	1509949440	43	15575
2026-01-10 08:54:18.65	218.14	12.47	-35.5	-36.4	16.9	0.00e+00	0	52	0	1627389952	42	16058
2026-01-10 08:54:20.64	218.54	12.65	-35.5	-36.4	17.0	0.00e+00	0	52	0	1744830464	42	16101
2026-01-10 08:54:22.64	218.94	12.83	-35.5	-36.4	17.1	0.00e+00	0	52	0	1870659584	42	16117
2026-01-10 08:54:24.64	219.35	13.01	-35.3	-36.2	17.1	0.00e+00	0	52	0	1988100096	42	15737
2026-01-10 08:54:26.63	219.77	13.19	-35.1	-36.0	16.9	0.00e+00	0	52	0	2105540608	42	15448
2026-01-10 08:54:28.63	220.19	13.37	-35.0	-35.9	17.0	0.00e+00	0	52	0	2222981120	42	15167
2026-01-10 08:54:30.63	220.62	13.56	-35.0	-35.9	17.3	0.00e+00	0	52	0	2348810240	41	16108
2026-01-10 08:54:32.63	221.06	13.74	-35.0	-35.9	17.4	0.00e+00	0	52	0	2466250752	41	16030
2026-01-10 08:54:34.63	221.51	13.93	-34.7	-35.6	17.5	0.00e+00	0	52	0	2583691264	41	15607
2026-01-10 08:54:36.62	221.95	14.11	-34.8	-35.7	17.5	0.00e+00	0	52	0	2709520384	41	15773
2026-01-10 08:54:38.62	222.41	14.29	-34.6	-35.5	17.6	0.00e+00	0	52	0	2826960896	41	15464
2026-01-10 08:54:40.61	222.87	14.48	-34.7	-35.6	17.4	0.00e+00	0	52	0	2944401408	41	15588
2026-01-10 08:54:42.61	223.34	14.66	-34.3	-35.2	17.7	0.00e+00	0	52	0	3070230528	40	15730
2026-01-10 08:54:44.61	223.82	14.85	-34.2	-35.1	17.9	0.00e+00	0	52	0	3187671040	40	15524
2026-01-10 08:54:46.61	224.30	15.04	-34.3	-35.2	17.7	0.00e+00	0	52	0	3305111552	40	15758
2026-01-10 08:54:48.61	224.79	15.22	-34.2	-35.1	17.8	0.00e+00	0	52	0	3430940672	40	15523
2026-01-10 08:54:50.60	225.29	15.41	-34.1	-34.9	17.9	0.00e+00	0	52	0	3548381184	40	15289
2026-01-10 08:54:52.60	225.79	15.60	-34.2	-35.1	18.0	0.00e+00	0	52	0	3665821696	39	16437
2026-01-10 08:54:54.60	226.31	15.78	-34.1	-35.0	18.2	0.00e+00	0	52	0	3783262208	39	16284
2026-01-10 08:54:56.59	226.82	15.97	-33.9	-34.8	18.3	0.00e+00	0	53	0	3900702720	39	15994
2026-01-10 08:54:58.59	227.35	16.15	-33.9	-34.8	18.0	0.00e+00	0	52	0	4026531840	39	15979
2026-01-10 08:55:00.59	227.89	16.34	-33.9	-34.8	18.0	0.00e+00	0	52	0	4143972352	39	15974
2026-01-10 08:55:02.58	228.43	16.52	-33.7	-34.6	18.4	0.00e+00	0	52	0	4261412864	39	15526
2026-01-10 08:55:04.58	228.98	16.71	-33.9	-34.8	18.1	0.00e+00	0	53	0	4387241984	39	15941
2026-01-10 08:55:06.58	229.54	16.90	-33.5	-34.4	18.5	0.00e+00	0	52	0	4504682496	39	15160
2026-01-10 08:55:08.57	230.10	17.08	-33.5	-34.4	18.5	0.00e+00	0	53	0	4622123008	39	15195
2026-01-10 08:55:10.57	230.68	17.26	-33.4	-34.3	18.5	0.00e+00	0	53	0	4747952128	38	15941
2026-01-10 08:55:12.57	231.26	17.45	-33.3	-34.2	18.6	0.00e+00	0	53	0	4865392640	38	15736
2026-01-10 08:55:14.57	231.85	17.63	-33.1	-34.0	18.6	0.00e+00	0	52	0	4982833152	38	15409
2026-01-10 08:55:16.57	232.45	17.81	-33.2	-34.1	18.6	0.00e+00	0	52	0	5100273664	38	15488
2026-01-10 08:55:18.56	233.05	17.99	-33.1	-34.0	18.6	0.00e+00	0	52	0	5226102784	38	15391
2026-01-10 08:55:20.56	233.67	18.17	-33.0	-33.9	18.6	0.00e+00	0	53	0	5343543296	38	15256
2026-01-10 08:55:22.56	234.29	18.35	-32.8	-33.7	18.8	0.00e+00	0	53	0	5460983808	37	15672
2026-01-10 08:55:24.56	234.93	18.52	-32.8	-33.7	18.8	0.00e+00	0	53	0	5586812928	37	15801
2026-01-10 08:55:26.56	235.57	18.70	-32.7	-33.6	18.9	0.00e+00	0	53	0	5704253440	37	15548
2026-01-10 08:55:28.55	236.21	18.87	-32.9	-33.8	18.5	0.00e+00	0	53	0	5821693952	37	15968
2026-01-10 08:55:30.55	236.87	19.04	-32.7	-33.6	19.0	0.00e+00	0	53	0	5939134464	37	15502
2026-01-10 08:55:32.55	237.54	19.21	-32.9	-33.7	18.6	0.00e+00	0	53	0	6064963584	37	15829
2026-01-10 08:55:34.54	238.21	19.38	-32.5	-33.4	19.0	0.00e+00	0	53	0	6182404096	37	15203
2026-01-10 08:55:36.54	238.89	19.55	-32.6	-33.4	18.9	0.00e+00	0	53	0	6299844608	37	15275
2026-01-10 08:55:38.54	239.58	19.71	-32.4	-33.3	19.1	0.00e+00	0	53	0	6417285120	36	15849
2026-01-10 08:55:40.53	240.28	19.87	-32.7	-33.5	18.7	0.00e+00	0	53	0	6543114240	36	16371
2026-01-10 08:55:42.53	240.98	20.03	-32.3	-33.2	19.1	0.00e+00	0	53	0	6660554752	36	15688
2026-01-10 08:55:44.53	241.70	20.18	-32.5	-33.4	19.0	0.00e+00	0	53	0	6777995264	36	16022
2026-01-10 08:55:46.53	242.42	20.34	-32.3	-33.1	19.1	0.00e+00	0	53	0	6903824384	36	15648
2026-01-10 08:55:48.53	243.16	20.49	-32.3	-33.2	19.1	0.00e+00	0	53	0	7021264896	36	15738
2026-01-10 08:55:50.53	243.90	20.63	-31.0	-31.8	18.8	0.00e+00	0	53	0	7138705408	33	16012
2026-01-10 08:55:52.53	244.64	20.78	-30.8	-31.7	19.1	0.00e+00	0	53	0	7264534528	33	15663
2026-01-10 08:55:54.53	245.40	20.92	-30.9	-31.7	18.9	0.00e+00	0	53	0	7381975040	33	15799
2026-01-10 08:55:56.53	246.16	21.06	-30.7	-31.6	19.2	0.00e+00	0	53	0	7499415552	33	15543
2026-01-10 08:55:58.53	246.93	21.19	-30.8	-31.6	19.0	0.00e+00	0	53	0	7625244672	33	15627
2026-01-10 08:56:00.53	247.71	21.32	-30.7	-31.5	18.9	0.00e+00	0	53	0	7742685184	33	15458
2026-01-10 08:56:02.53	248.50	21.44	-30.8	-31.6	18.8	0.00e+00	0	53	0	7860125696	33	15628
2026-01-10 08:56:04.53	249.29	21.56	-30.6	-31.5	19.0	0.00e+00	0	53	0	7977566208	33	15380
2026-01-10 08:56:06.53	250.09	21.68	-30.4	-31.3	19.3	0.00e+00	0	53	0	8103395328	32	15907
2026-01-10 08:56:08.53	250.89	21.79	-30.6	-31.5	19.0	0.00e+00	0	53	0	8220835840	32	16259
2026-01-10 08:56:10.53	251.71	21.90	-30.5	-31.3	19.1	0.00e+00	0	53	0	8338276352	32	15966
2026-01-10 08:56:12.53	252.52	22.00	-30.5	-31.4	19.1	0.00e+00	0	53	0	8464105472	32	16123
2026-01-10 08:56:14.52	253.34	22.10	-30.3	-31.2	19.1	0.00e+00	0	53	0	8581545984	32	15739
2026-01-10 08:56:16.52	254.17	22.19	-30.2	-31.1	19.2	0.00e+00	0	53	0	8698986496	32	15519
2026-01-10 08:56:18.52	255.01	22.28	-30.3	-31.1	19.3	0.00e+00	0	53	0	8824815616	32	15643
2026-01-10 08:56:20.52	255.85	22.36	-30.2	-31.0	19.4	0.00e+00	0	53	0	8942256128	32	15431
2026-01-10 08:56:22.52	256.69	22.44	-30.5	-31.4	18.9	0.00e+00	0	53	0	9059696640	32	16052
2026-01-10 08:56:24.52	257.54	22.51	-30.2	-31.0	19.4	0.00e+00	0	53	0	9177137152	32	15467
2026-01-10 08:56:26.52	258.40	22.57	-30.5	-31.3	19.2	0.00e+00	0	53	0	9302966272	32	16008
2026-01-10 08:56:28.52	259.25	22.63	-30.3	-31.2	19.3	0.00e+00	0	53	0	9420406784	32	15752
2026-01-10 08:56:30.52	260.11	22.69	-30.2	-31.1	19.4	0.00e+00	0	53	0	9537847296	32	15515
2026-01-10 08:56:32.52	260.98	22.73	-30.3	-31.2	19.1	0.00e+00	0	53	0	9663676416	32	15708
2026-01-10 08:56:34.52	261.84	22.77	-30.1	-31.0	19.1	0.00e+00	0	53	0	9781116928	32	15358
2026-01-10 08:56:36.51	262.71	22.81	-30.3	-31.2	19.2	0.00e+00	0	53	0	9898557440	32	15702
2026-01-10 08:56:38.52	263.58	22.84	-30.3	-31.2	19.3	0.00e+00	0	53	0	10024386560	32	15667
2026-01-10 08:56:40.51	264.45	22.86	-54.1	-58.4	3.7	0.00e+00	0	53	104	10083106816	78	25491
2026-01-10 08:56:42.50	265.32	22.88	-54.0	-58.3	3.7	0.00e+00	0	53	104	10083106816	78	25177
2026-01-10 08:56:44.51	266.19	22.89	-54.0	-58.3	3.7	0.00e+00	0	53	104	10083106816	78	25283
2026-01-10 08:56:46.51	267.07	22.90	-54.0	-58.6	3.7	0.00e+00	0	53	104	10083106816	78	26011
2026-01-10 08:56:48.51	267.94	22.90	-54.1	-58.7	3.7	0.00e+00	0	53	104	10083106816	78	26391
2026-01-10 08:56:50.51	268.82	22.89	-54.0	-58.6	3.7	0.00e+00	0	53	104	10083106816	78	26159
2026-01-10 08:56:52.51	269.69	22.88	-53.8	-58.4	3.7	0.00e+00	0	53	104	10083106816	78	25555
2026-01-10 08:56:54.51	270.56	22.86	-54.0	-58.5	3.7	0.00e+00	0	52	104	10083106816	78	25788
2026-01-10 08:56:56.51	271.43	22.83	-54.0	-58.6	3.7	0.00e+00	0	53	104	10083106816	78	25979
2026-01-10 08:56:58.51	272.30	22.80	-54.2	-58.7	3.7	0.00e+00	0	52	104	10083106816	79	25056
2026-01-10 08:57:00.51	273.17	22.76	-54.1	-58.7	3.7	0.00e+00	0	53	104	10083106816	79	24953
2026-01-10 08:57:02.51	274.03	22.72	-53.9	-58.3	3.7	0.00e+00	0	53	104	10083106816	79	23793
2026-01-10 08:57:04.51	274.89	22.67	-54.1	-58.5	3.7	0.00e+00	0	52	104	10083106816	79	24341
2026-01-10 08:57:06.51	275.75	22.61	-54.0	-58.7	3.6	0.00e+00	0	52	104	10083106816	79	24831
2026-01-10 08:57:08.51	276.60	22.55	-54.1	-58.5	3.7	0.00e+00	0	52	104	10083106816	79	24468
2026-01-10 08:57:10.50	277.45	22.48	-54.2	-58.6	3.7	0.00e+00	0	52	104	10083106816	79	24784
2026-01-10 08:57:12.50	278.29	22.41	-54.1	-58.6	3.7	0.00e+00	0	52	104	10083106816	79	24540
2026-01-10 08:57:14.51	279.14	22.33	-54.1	-58.4	3.7	0.00e+00	0	52	104	10083106816	79	24155
2026-01-10 08:57:16.51	279.97	22.25	-54.2	-58.7	3.7	0.00e+00	0	52	104	10083106816	79	24809
2026-01-10 08:57:18.50	280.80	22.16	-54.1	-58.7	3.7	0.00e+00	0	52	104	10083106816	79	24880
2026-01-10 08:57:20.50	281.63	22.06	-54.2	-58.7	3.7	0.00e+00	0	52	104	10083106816	79	24885
2026-01-10 08:57:22.50	282.44	21.96	-54.3	-58.7	3.7	0.00e+00	0	52	104	10083106816	79	24998
2026-01-10 08:57:24.50	283.26	21.86	-53.9	-58.4	3.7	0.00e+00	0	52	104	10083106816	79	24172
2026-01-10 08:57:26.49	284.06	21.75	-53.9	-58.2	3.7	0.00e+00	0	52	104	10083106816	79	23491
2026-01-10 08:57:28.50	284.87	21.64	-54.2	-58.7	3.7	0.00e+00	0	52	104	10083106816	79	24831
2026-01-10 08:57:30.49	285.65	21.52	-54.0	-58.5	3.7	0.00e+00	0	52	104	10083106816	79	24446
2026-01-10 08:57:32.50	286.45	21.40	-54.1	-58.5	3.6	0.00e+00	0	52	104	10083106816	79	24446
2026-01-10 08:57:34.50	287.22	21.27	-54.2	-58.6	3.7	2.29e-04	0	52	104	10083106816	79	24778
2026-01-10 08:57:36.50	288.00	21.14	-54.0	-58.4	3.7	2.29e-04	0	52	104	10083106816	79	24095
2026-01-10 08:57:38.50	288.76	21.01	-54.1	-58.5	3.6	2.29e-04	0	52	104	10083106816	79	24307
2026-01-10 08:57:40.49	289.52	20.87	-54.1	-58.2	3.7	2.29e-04	0	52	104	10083106816	79	23542
2026-01-10 08:57:42.49	290.26	20.73	-53.6	-58.0	3.7	2.29e-04	0	52	104	10083106816	79	22932
2026-01-10 08:57:44.49	291.01	20.59	-53.9	-58.4	3.7	2.29e-04	0	52	104	10083106816	79	24082
2026-01-10 08:57:46.48	291.74	20.44	-54.0	-58.5	3.7	2.29e-04	0	52	104	10083106816	79	24282
2026-01-10 08:57:48.48	292.46	20.29	-54.1	-58.5	3.7	2.29e-04	0	52	104	10083106816	79	24363
2026-01-10 08:57:50.48	293.18	20.14	-54.1	-58.2	3.7	2.29e-04	0	52	104	10083106816	79	23488
2026-01-10 08:57:52.48	293.89	19.98	-53.8	-57.7	3.7	2.29e-04	0	52	104	10083106816	79	22344
2026-01-10 08:57:54.48	294.59	19.83	-53.9	-58.0	3.7	2.29e-04	0	52	104	10083106816	79	22921
2026-01-10 08:57:56.48	295.28	19.66	-54.1	-58.5	3.7	2.29e-04	0	52	104	10083106816	79	24451
2026-01-10 08:57:58.47	295.96	19.50	-54.3	-58.7	3.7	2.29e-04	0	52	104	10083106816	79	24858
2026-01-10 08:58:00.47	296.64	19.34	-54.0	-58.2	3.7	2.29e-04	0	52	104	10083106816	79	23541
2026-01-10 08:58:02.47	297.31	19.17	-53.8	-58.0	3.7	2.29e-04	0	52	104	10083106816	79	23119
2026-01-10 08:58:04.47	297.97	19.00	-53.9	-58.3	3.7	2.29e-04	0	52	104	10083106816	79	23691
2026-01-10 08:58:06.46	298.61	18.83	-54.1	-58.4	3.7	2.29e-04	0	52	104	10083106816	79	24152
2026-01-10 08:58:08.46	299.26	18.66	-53.8	-57.9	3.7	2.29e-04	0	52	104	10083106816	79	22714
2026-01-10 08:58:10.46	299.89	18.48	-53.7	-57.6	3.7	2.29e-04	0	52	104	10083106816	79	22064
2026-01-10 08:58:12.46	300.52	18.31	-53.8	-57.8	3.7	2.29e-04	0	52	104	10083106816	79	22508
2026-01-10 08:58:14.45	301.13	18.13	-53.7	-58.1	3.7	2.29e-04	0	52	104	10083106816	79	23340
2026-01-10 08:58:16.45	301.74	17.95	-53.9	-58.2	3.7	2.29e-04	0	52	104	10083106816	79	23544
2026-01-10 08:58:18.45	302.34	17.77	-53.7	-57.9	3.7	2.29e-04	0	52	104	10083106816	79	22652
2026-01-10 08:58:20.45	302.94	17.59	-53.8	-58.0	3.7	2.29e-04	0	52	104	10083106816	79	22927
2026-01-10 08:58:22.45	303.52	17.41	-54.3	-58.6	3.7	2.29e-04	0	52	104	10083106816	79	24697
2026-01-10 08:58:24.45	304.10	17.23	-54.2	-58.5	3.7	2.29e-04	0	52	104	10083106816	79	24322
2026-01-10 08:58:26.45	304.67	17.05	-54.0	-58.5	3.7	2.29e-04	0	52	104	10083106816	79	24372
2026-01-10 08:58:28.45	305.23	16.87	-54.0	-58.5	3.7	2.29e-04	0	52	104	10083106816	79	24377
2026-01-10 08:58:30.45	305.78	16.68	-53.8	-58.4	3.7	2.29e-04	0	52	104	10083106816	79	23970
2026-01-10 08:58:32.45	306.32	16.50	-53.8	-58.1	3.7	2.29e-04	0	52	104	10083106816	79	23381
2026-01-10 08:58:34.45	306.86	16.31	-53.9	-58.5	3.7	2.29e-04	0	52	104	10083106816	79	24408
2026-01-10 08:58:36.45	307.39	16.13	-53.8	-58.3	3.7	0.00e+00	0	52	104	10083106816	79	23934
2026-01-10 08:58:38.45	307.91	15.94	-53.7	-58.2	3.7	0.00e+00	0	52	104	10083106816	79	23602
2026-01-10 08:58:40.44	308.42	15.76	-53.9	-58.4	3.7	0.00e+00	0	52	104	10083106816	79	24234
2026-01-10 08:58:42.44	308.93	15.58	-53.6	-58.2	3.7	0.00e+00	0	52	104	10083106816	79	23640
2026-01-10 08:58:44.44	309.43	15.39	-53.3	-58.1	3.7	0.00e+00	0	52	104	10083106816	78	24703
2026-01-10 08:58:46.44	309.93	15.21	-53.0	-57.8	3.7	0.00e+00	0	52	104	10083106816	78	23818
2026-01-10 08:58:48.44	310.41	15.02	-53.3	-58.0	3.7	0.00e+00	0	52	104	10083106816	78	24442
2026-01-10 08:58:50.44	310.89	14.84	-53.8	-58.3	3.7	0.00e+00	0	52	104	10083106816	78	25258
2026-01-10 08:58:52.44	311.36	14.65	-53.8	-58.4	3.7	0.00e+00	0	52	104	10083106816	78	25404
2026-01-10 08:58:54.44	311.83	14.47	-53.8	-58.3	3.7	0.00e+00	0	52	104	10083106816	78	25329
2026-01-10 08:58:56.44	312.28	14.29	-53.4	-58.1	3.7	0.00e+00	0	52	104	10083106816	78	24580
2026-01-10 08:58:58.44	312.74	14.10	-52.5	-57.2	3.7	0.00e+00	0	52	104	10083106816	76	25009
2026-01-10 08:59:00.45	313.18	13.92	-53.5	-58.2	3.7	0.00e+00	0	52	104	10083106816	77	26577
2026-01-10 08:59:02.45	313.62	13.74	-53.5	-58.2	3.7	0.00e+00	0	52	104	10083106816	78	24935
2026-01-10 08:59:04.46	314.06	13.55	-53.5	-58.2	3.7	0.00e+00	0	52	104	10083106816	78	24901
2026-01-10 08:59:06.46	314.48	13.37	-53.7	-58.4	3.7	0.00e+00	0	52	104	10083106816	78	25455
2026-01-10 08:59:08.46	314.90	13.19	-53.9	-58.4	3.7	0.00e+00	0	52	104	10083106816	78	25540
2026-01-10 08:59:10.46	315.32	13.01	-53.6	-58.1	3.7	0.00e+00	0	52	104	10083106816	78	24792
2026-01-10 08:59:12.46	315.72	12.83	-53.5	-58.2	3.7	0.00e+00	0	52	104	10083106816	78	25060
2026-01-10 08:59:14.45	316.12	12.65	-53.2	-58.1	3.7	0.00e+00	0	52	104	10083106816	78	24798
2026-01-10 08:59:16.45	316.52	12.48	-52.8	-57.8	3.7	0.00e+00	0	52	104	10083106816	77	25253
2026-01-10 08:59:18.45	316.91	12.30	-52.7	-57.6	3.7	0.00e+00	0	52	104	10083106816	76	26230
2026-01-10 08:59:20.45	317.30	12.12	-52.3	-57.4	3.7	0.00e+00	0	52	104	10083106816	76	25521
2026-01-10 08:59:22.45	317.68	11.95	-52.2	-57.3	3.7	0.00e+00	0	52	104	10083106816	76	25187
2026-01-10 08:59:24.45	318.05	11.77	-52.0	-57.4	3.7	0.00e+00	0	52	104	10083106816	76	25418
2026-01-10 08:59:26.44	318.42	11.60	-52.1	-57.5	3.7	0.00e+00	0	52	104	10083106816	75	27399
2026-01-10 08:59:28.43	318.78	11.42	-52.3	-57.6	3.7	0.00e+00	0	52	104	10083106816	75	27558
2026-01-10 08:59:30.44	319.14	11.25	-52.5	-57.7	3.7	0.00e+00	0	52	104	10083106816	75	28023
2026-01-10 08:59:32.43	319.49	11.08	-52.7	-57.8	3.7	0.00e+00	0	52	104	10083106816	76	26648
2026-01-10 08:59:34.43	319.84	10.91	-52.9	-57.9	3.7	0.00e+00	0	52	104	10083106816	76	27146
2026-01-10 08:59:36.43	320.18	10.74	-51.6	-57.0	3.7	0.00e+00	0	52	104	10083106816	75	25753
2026-01-10 08:59:38.43	320.52	10.57	-51.7	-57.3	3.7	0.00e+00	0	52	104	10083106816	75	26605
2026-01-10 08:59:40.43	320.86	10.40	-51.9	-57.4	3.7	0.00e+00	0	52	104	10083106816	75	27156
2026-01-10 08:59:42.43	321.19	10.23	-53.5	-58.2	3.7	0.00e+00	0	52	104	10083106816	77	26524
2026-01-10 08:59:44.43	321.51	10.06	-53.0	-57.9	3.7	0.00e+00	0	52	104	10083106816	77	25437
2026-01-10 08:59:46.42	321.83	9.90	-53.0	-57.8	3.7	0.00e+00	0	52	104	10083106816	77	25108
2026-01-10 08:59:48.43	322.15	9.73	-52.8	-57.9	3.7	0.00e+00	0	52	104	10083106816	77	25541
2026-01-10 08:59:50.43	322.46	9.56	-52.9	-57.9	3.7	0.00e+00	0	52	104	10083106816	76	27129
2026-01-10 08:59:52.43	322.77	9.40	-52.5	-57.7	3.7	0.00e+00	0	52	104	10083106816	76	26485
2026-01-10 08:59:54.42	323.07	9.24	-52.1	-57.4	3.7	0.00e+00	0	52	104	10083106816	76	25531
2026-01-10 08:59:56.42	323.37	9.08	-51.3	-56.9	3.7	0.00e+00	0	52	104	10083106816	74	27126
2026-01-10 08:59:58.41	323.67	8.92	-53.2	-58.2	3.7	0.00e+00	0	52	104	10083106816	78	24890
2026-01-10 09:00:00.42	323.96	8.75	-53.0	-58.0	3.7	0.00e+00	0	52	104	10083106816	76	27298
2026-01-10 09:00:02.42	324.25	8.59	-53.4	-58.0	3.7	0.00e+00	0	52	104	10083106816	78	24435
2026-01-10 09:00:04.42	324.53	8.44	-54.3	-58.6	3.7	0.00e+00	0	52	104	10083106816	79	24743
2026-01-10 09:00:06.42	324.81	8.28	-53.6	-58.2	3.7	0.00e+00	0	52	104	10083106816	78	24867
2026-01-10 09:00:08.42	325.09	8.12	-53.9	-58.5	3.7	0.00e+00	0	52	104	10083106816	79	24467
2026-01-10 09:00:10.42	325.36	7.96	-54.0	-58.4	3.7	0.00e+00	0	52	104	10083106816	79	24077
2026-01-10 09:00:12.42	325.63	7.81	-53.5	-57.4	3.7	0.00e+00	0	52	104	10083106816	78	22829
2026-01-10 09:00:14.42	325.90	7.65	-54.2	-58.7	3.7	0.00e+00	0	52	104	10083106816	79	24946
2026-01-10 09:00:16.41	326.16	7.50	-53.5	-57.9	3.7	0.00e+00	0	52	104	10083106816	79	22720
2026-01-10 09:00:18.41	326.42	7.35	-54.0	-58.4	3.7	0.00e+00	0	52	104	10083106816	79	24122
2026-01-10 09:00:20.40	326.67	7.20	-53.9	-58.3	3.7	0.00e+00	0	52	104	10083106816	79	23936
2026-01-10 09:00:22.41	326.93	7.05	-54.0	-58.4	3.7	0.00e+00	0	52	104	10083106816	79	24058
2026-01-10 09:00:24.40	327.18	6.90	-54.0	-58.4	3.6	0.00e+00	0	52	104	10083106816	79	24065
2026-01-10 09:00:26.39	327.42	6.75	-53.9	-58.3	3.7	0.00e+00	0	52	104	10083106816	79	23900
2026-01-10 09:00:28.39	327.66	6.60	-53.9	-58.4	3.7	0.00e+00	0	52	104	10083106816	79	24022
2026-01-10 09:00:30.39	327.91	6.45	-53.9	-58.4	3.7	0.00e+00	0	52	104	10083106816	79	24050
2026-01-10 09:00:32.38	328.14	6.30	-53.9	-58.4	3.7	0.00e+00	0	52	104	10083106816	79	24010
2026-01-10 09:00:34.38	328.38	6.16	-53.9	-58.3	3.7	0.00e+00	0	52	104	10083106816	79	23946
2026-01-10 09:00:36.39	328.61	6.01	-53.9	-58.3	3.7	0.00e+00	0	52	104	10083106816	79	23905
2026-01-10 09:00:38.39	328.84	5.87	-54.0	-58.4	3.7	0.00e+00	0	52	104	10083106816	79	23979
2026-01-10 09:00:40.39	329.06	5.72	-53.9	-58.3	3.7	0.00e+00	0	52	104	10083106816	79	23964
2026-01-10 09:00:42.39	329.29	5.58	-53.9	-58.3	3.7	0.00e+00	0	52	104	10083106816	79	23864
2026-01-10 09:00:44.39	329.51	5.44	-54.0	-58.4	3.7	0.00e+00	0	52	104	10083106816	79	24021
2026-01-10 09:00:46.38	329.73	5.30	-53.9	-58.3	3.7	0.00e+00	0	52	104	10083106816	79	23881
2026-01-10 09:00:48.38	329.94	5.15	-53.9	-58.3	3.7	0.00e+00	0	52	104	100831068
