passes_logs/2026/01/10/T1/T1__20260110_094003_NOAA_20_JPSS-1_rec.log

#Pass ID: 20260110_094003_NOAA 20 (JPSS-1)
#Satellite: NOAA 20 (JPSS-1)
#Configuration: NOAA 20
#almurnet v.1.7.20251203
#Start time: 2026-01-10 09:40:06

#Version: 2.0.20230620
#Station: T1
#Location: 37.570604 lon 55.790049 lat
#TLE: 1 43013U 17073A   26009.69119415  .00000109  00000+0  72598-4 0  9996
#TLE: 2 43013  98.7631 310.6868 0001678  46.7442 313.3874 14.19534878421981

#Time	Az	El	Level	Level2	SNR	BER	BlckErr	Temp	State	Recorded	gain1	gain2
2026-01-10 09:40:06.01	152.11	5.15	-50.1	-65.5	3.8	1.49e+00	0	37	0	0	72	20422
2026-01-10 09:40:10.02	152.06	5.44	-50.1	-65.7	3.8	1.49e+00	0	38	104	0	72	20794
2026-01-10 09:40:14.04	152.00	5.73	-50.1	-65.5	3.8	1.49e+00	0	38	104	0	72	20390
2026-01-10 09:40:18.06	151.95	6.03	-50.1	-64.9	3.8	1.49e+00	0	38	104	0	72	19161
2026-01-10 09:40:22.07	151.89	6.33	-50.0	-63.9	3.8	1.49e+00	0	38	104	0	72	16919
2026-01-10 09:40:26.08	151.84	6.64	-49.9	-61.5	4.4	1.35e+00	0	38	0	0	71	13580
2026-01-10 09:40:30.10	151.78	6.94	-49.5	-58.4	6.1	3.30e-01	0	38	0	7340032	71	9535
2026-01-10 09:40:34.11	151.72	7.25	-48.8	-55.5	8.8	4.27e-02	0	39	0	14680064	69	7704
2026-01-10 09:40:38.12	151.66	7.57	-47.6	-52.6	11.7	1.10e-03	0	39	0	23068672	67	6153
2026-01-10 09:40:42.13	151.60	7.89	-46.9	-51.0	13.3	2.97e-05	0	39	0	30408704	65	5776
2026-01-10 09:40:46.15	151.53	8.21	-47.0	-51.3	13.0	2.28e-05	0	39	0	37748736	65	5968
2026-01-10 09:40:50.16	151.47	8.54	-48.2	-54.1	10.1	5.19e-03	0	39	0	45088768	67	7327
2026-01-10 09:40:54.17	151.40	8.87	-49.8	-60.6	4.8	6.32e-01	0	39	0	52428800	70	12991
2026-01-10 09:40:58.18	151.33	9.21	-48.7	-55.1	9.6	5.28e-03	0	39	0	55574528	68	7753
2026-01-10 09:41:02.18	151.26	9.55	-47.9	-53.0	11.3	8.15e-04	0	39	0	60817408	67	6487
2026-01-10 09:41:06.19	151.19	9.89	-46.0	-49.4	15.0	9.40e-03	0	39	0	68157440	64	5083
2026-01-10 09:41:10.20	151.11	10.24	-45.7	-48.9	15.7	0.00e+00	0	39	0	75497472	63	5043
2026-01-10 09:41:14.20	151.03	10.59	-45.6	-48.8	15.8	8.22e-04	0	39	0	82837504	63	4987
2026-01-10 09:41:18.22	150.95	10.95	-45.6	-48.8	15.8	0.00e+00	0	39	0	90177536	63	5010
2026-01-10 09:41:22.22	150.87	11.32	-45.5	-48.6	16.0	0.00e+00	0	39	0	97517568	63	4904
2026-01-10 09:41:26.23	150.79	11.69	-45.4	-48.5	16.1	1.72e-04	0	39	0	105906176	62	5134
2026-01-10 09:41:30.24	150.70	12.06	-45.2	-48.2	16.4	0.00e+00	0	39	0	113246208	62	4971
2026-01-10 09:41:34.25	150.61	12.45	-45.3	-48.4	16.2	0.00e+00	0	39	0	120586240	62	5081
2026-01-10 09:41:38.26	150.52	12.83	-45.1	-48.1	16.6	0.00e+00	0	39	0	127926272	62	4907
2026-01-10 09:41:42.27	150.43	13.23	-45.0	-47.9	16.8	0.00e+00	0	39	0	135266304	61	5051
2026-01-10 09:41:46.28	150.33	13.63	-45.0	-47.8	16.9	0.00e+00	0	39	0	142606336	61	5027
2026-01-10 09:41:50.29	150.23	14.04	-45.0	-47.8	16.9	0.00e+00	0	40	0	150994944	61	5004
2026-01-10 09:41:54.30	150.13	14.45	-44.8	-47.6	17.1	0.00e+00	0	40	0	158334976	61	4907
2026-01-10 09:41:58.31	150.02	14.87	-44.7	-47.4	17.3	0.00e+00	0	39	0	165675008	61	4786
2026-01-10 09:42:02.32	149.91	15.30	-44.7	-47.5	17.3	0.00e+00	0	39	0	173015040	61	4838
2026-01-10 09:42:06.32	149.80	15.74	-44.8	-47.5	17.3	0.00e+00	0	40	0	180355072	61	4838
2026-01-10 09:42:10.33	149.68	16.18	-44.6	-47.3	17.5	0.00e+00	0	39	0	187695104	61	4720
2026-01-10 09:42:14.34	149.56	16.63	-44.7	-47.3	17.6	0.00e+00	0	40	0	196083712	61	4708
2026-01-10 09:42:18.35	149.43	17.09	-44.7	-47.3	17.6	0.00e+00	0	40	0	203423744	61	4718
2026-01-10 09:42:22.35	149.30	17.56	-44.7	-47.4	17.5	0.00e+00	0	40	0	210763776	61	4775
2026-01-10 09:42:26.37	149.17	18.04	-44.7	-47.3	17.6	0.00e+00	0	40	0	218103808	61	4735
2026-01-10 09:42:30.38	149.03	18.53	-44.6	-47.2	17.6	0.00e+00	0	40	0	225443840	61	4700
2026-01-10 09:42:34.39	148.89	19.02	-44.7	-47.3	17.6	0.00e+00	0	40	0	232783872	61	4749
2026-01-10 09:42:38.40	148.74	19.53	-44.8	-47.5	17.5	0.00e+00	0	40	0	241172480	61	4818
2026-01-10 09:42:42.41	148.59	20.05	-44.7	-47.2	17.7	0.00e+00	0	40	0	248512512	61	4694
2026-01-10 09:42:46.42	148.43	20.58	-44.7	-47.3	17.7	0.00e+00	0	40	0	255852544	61	4712
2026-01-10 09:42:50.43	148.26	21.11	-44.8	-47.3	17.7	0.00e+00	0	40	0	263192576	61	4758
2026-01-10 09:42:54.44	148.09	21.67	-44.5	-47.0	18.0	0.00e+00	0	40	0	270532608	61	4571
2026-01-10 09:42:58.44	147.91	22.23	-44.5	-47.0	18.0	0.00e+00	0	40	0	277872640	60	4832
2026-01-10 09:43:02.45	147.73	22.80	-44.6	-47.3	17.7	0.00e+00	0	40	0	286261248	60	5005
2026-01-10 09:43:06.46	147.53	23.39	-44.6	-47.3	17.8	0.00e+00	0	40	0	293601280	60	4985
2026-01-10 09:43:10.47	147.33	23.99	-44.7	-47.3	17.7	0.00e+00	0	40	0	300941312	60	5026
2026-01-10 09:43:14.48	147.12	24.60	-45.0	-47.7	17.3	0.00e+00	0	40	0	308281344	60	5272
2026-01-10 09:43:18.49	146.91	25.23	-45.2	-48.0	17.1	0.00e+00	0	40	0	315621376	61	5121
2026-01-10 09:43:22.50	146.68	25.88	-45.5	-48.3	16.8	0.00e+00	0	40	0	322961408	61	5327
2026-01-10 09:43:26.51	146.44	26.54	-45.8	-48.8	16.3	0.00e+00	0	40	0	331350016	62	5295
2026-01-10 09:43:30.52	146.19	27.21	-46.0	-49.1	16.1	0.00e+00	0	40	0	338690048	62	5465
2026-01-10 09:43:34.53	145.93	27.90	-46.4	-49.6	15.5	0.00e+00	0	40	0	346030080	63	5504
2026-01-10 09:43:38.53	145.66	28.61	-46.8	-50.2	14.9	0.00e+00	0	40	0	353370112	64	5559
2026-01-10 09:43:42.54	145.38	29.33	-47.3	-50.9	14.2	7.00e-07	0	40	0	360710144	65	5668
2026-01-10 09:43:46.55	145.08	30.08	-47.4	-51.2	13.9	1.50e-06	0	40	0	368050176	65	5876
2026-01-10 09:43:50.56	144.77	30.84	-47.7	-51.7	13.5	9.90e-06	0	40	0	376438784	66	5887
2026-01-10 09:43:54.57	144.44	31.62	-47.9	-52.0	13.1	3.20e-05	0	40	0	383778816	66	6113
2026-01-10 09:43:58.58	144.09	32.43	-48.3	-52.8	12.3	2.01e-04	0	40	0	391118848	67	6285
2026-01-10 09:44:02.59	143.73	33.25	-48.3	-52.7	12.4	2.06e-04	0	40	0	398458880	67	6244
2026-01-10 09:44:06.60	143.35	34.10	-48.3	-52.9	12.2	2.00e-04	0	40	0	405798912	67	6355
2026-01-10 09:44:10.61	142.94	34.96	-48.2	-52.6	12.5	1.75e-04	0	40	0	413138944	67	6170
2026-01-10 09:44:14.61	142.51	35.85	-47.9	-52.1	13.0	5.26e-05	0	40	0	421527552	67	5799
2026-01-10 09:44:18.62	142.06	36.76	-48.1	-52.4	12.7	5.95e-05	0	40	0	428867584	67	6010
2026-01-10 09:44:22.63	141.58	37.70	-48.2	-52.6	12.4	1.23e-04	0	40	0	436207616	67	6142
2026-01-10 09:44:26.64	141.07	38.66	-48.3	-52.8	12.2	2.53e-04	0	40	0	443547648	67	6315
2026-01-10 09:44:30.65	140.53	39.65	-48.1	-52.6	12.5	1.52e-04	0	40	0	450887680	67	6146
2026-01-10 09:44:34.65	139.96	40.66	-47.9	-52.1	13.0	4.57e-05	0	40	0	458227712	67	5802
2026-01-10 09:44:38.66	139.34	41.69	-47.5	-51.5	13.6	1.37e-05	0	40	0	466616320	67	5410
2026-01-10 09:44:42.67	138.69	42.76	-47.2	-50.7	14.3	1.50e-06	0	40	0	473956352	66	5272
2026-01-10 09:44:46.68	137.99	43.85	-46.9	-50.3	14.8	0.00e+00	0	40	0	481296384	65	5315
2026-01-10 09:44:50.69	137.23	44.96	-46.5	-49.7	15.4	0.00e+00	0	40	0	488636416	64	5277
2026-01-10 09:44:54.70	136.42	46.10	-46.0	-48.9	16.3	0.00e+00	0	40	0	495976448	63	5058
2026-01-10 09:44:58.70	135.55	47.27	-45.9	-48.7	16.3	0.00e+00	0	40	0	503316480	63	4973
2026-01-10 09:45:02.71	134.61	48.46	-46.3	-49.4	15.7	0.00e+00	0	40	0	511705088	63	5376
2026-01-10 09:45:06.72	133.59	49.67	-46.0	-49.0	16.2	0.00e+00	0	40	0	519045120	63	5107
2026-01-10 09:45:10.73	132.49	50.91	-45.0	-47.7	17.4	0.00e+00	0	40	0	526385152	62	4670
2026-01-10 09:45:14.74	131.29	52.17	-44.8	-47.4	17.7	0.00e+00	0	40	0	533725184	61	4772
2026-01-10 09:45:18.75	129.98	53.45	-44.7	-47.2	17.8	0.00e+00	0	40	0	541065216	61	4682
2026-01-10 09:45:22.75	128.55	54.74	-45.3	-48.1	16.9	0.00e+00	0	40	0	549453824	61	5205
2026-01-10 09:45:26.76	126.98	56.05	-46.3	-49.4	15.7	0.00e+00	0	40	0	556793856	63	5365
2026-01-10 09:45:30.77	125.26	57.36	-48.2	-52.6	12.4	7.70e-05	0	40	0	564133888	66	6535
2026-01-10 09:45:34.78	123.36	58.68	-48.0	-52.2	12.8	9.00e-05	0	40	0	571473920	67	5883
2026-01-10 09:45:38.80	121.26	59.99	-46.7	-50.0	15.1	7.00e-07	0	40	0	578813952	65	5116
2026-01-10 09:45:42.80	118.94	61.29	-45.7	-48.5	16.5	0.00e+00	0	40	0	586153984	63	4842
2026-01-10 09:45:46.81	116.36	62.57	-44.2	-46.7	18.3	0.00e+00	0	40	0	594542592	60	4657
2026-01-10 09:45:50.82	113.49	63.82	-44.5	-47.0	17.9	0.00e+00	0	40	0	601882624	60	4849
2026-01-10 09:45:54.83	110.30	65.02	-45.4	-48.2	16.8	0.00e+00	0	40	0	609222656	61	5251
2026-01-10 09:45:58.84	106.76	66.17	-46.7	-50.1	14.9	0.00e+00	0	40	0	616562688	64	5490
2026-01-10 09:46:02.85	102.84	67.24	-47.3	-51.0	13.8	2.20e-06	0	39	0	623902720	65	5779
2026-01-10 09:46:06.86	98.52	68.21	-47.1	-50.8	14.2	1.50e-06	0	40	0	631242752	65	5608
2026-01-10 09:46:10.87	93.78	69.06	-46.1	-49.2	15.8	0.00e+00	0	40	0	639631360	63	5265
2026-01-10 09:46:14.88	88.65	69.78	-46.3	-49.6	15.4	0.00e+00	0	40	0	646971392	63	5474
2026-01-10 09:46:18.89	83.16	70.34	-46.6	-50.0	15.1	0.00e+00	0	40	0	654311424	63	5764
2026-01-10 09:46:22.90	77.38	70.72	-46.6	-49.9	15.1	0.00e+00	0	40	0	661651456	64	5376
2026-01-10 09:46:26.91	71.41	70.90	-46.5	-49.9	15.1	0.00e+00	0	40	0	668991488	64	5343
2026-01-10 09:46:30.92	65.39	70.90	-45.7	-48.6	16.4	0.00e+00	0	40	0	676331520	63	4911
2026-01-10 09:46:34.93	59.44	70.69	-46.0	-49.0	16.1	0.00e+00	0	40	0	684720128	63	5110
2026-01-10 09:46:38.94	53.68	70.29	-45.9	-48.8	16.2	0.00e+00	0	40	0	692060160	63	5016
2026-01-10 09:46:42.95	48.22	69.72	-47.2	-50.9	14.2	1.50e-06	0	40	0	699400192	65	5658
2026-01-10 09:46:46.96	43.12	69.00	-47.9	-52.1	12.9	2.89e-05	0	40	0	706740224	66	6142
2026-01-10 09:46:50.97	38.43	68.13	-47.9	-52.2	12.9	5.72e-05	0	40	0	714080256	66	6203
2026-01-10 09:46:54.98	34.15	67.15	-48.3	-52.8	12.2	1.36e-04	0	40	0	721420288	67	6337
2026-01-10 09:46:58.99	30.27	66.08	-46.4	-49.5	15.5	0.00e+00	0	40	0	729808896	64	5142
2026-01-10 09:47:03.00	26.76	64.93	-45.6	-48.4	16.7	0.00e+00	0	40	0	737148928	63	4790
2026-01-10 09:47:07.01	23.61	63.73	-44.8	-47.3	17.7	0.00e+00	0	40	0	744488960	61	4759
2026-01-10 09:47:11.02	20.77	62.48	-44.9	-47.7	17.3	0.00e+00	0	40	0	751828992	61	4940
2026-01-10 09:47:15.03	18.22	61.20	-45.6	-48.4	16.6	0.00e+00	0	40	0	759169024	61	5402
2026-01-10 09:47:19.01	15.94	59.91	-46.2	-49.3	15.8	0.00e+00	0	40	0	766509056	63	5289
2026-01-10 09:47:23.02	13.86	58.60	-47.1	-50.6	14.4	2.20e-06	0	40	0	774897664	65	5523
2026-01-10 09:47:27.03	11.97	57.29	-47.3	-51.0	14.0	2.20e-06	0	40	0	782237696	65	5741
2026-01-10 09:47:31.03	10.27	55.98	-46.4	-49.6	15.4	0.00e+00	0	40	0	789577728	64	5180
2026-01-10 09:47:35.04	8.71	54.68	-45.4	-48.1	16.9	0.00e+00	0	40	0	796917760	62	4916
2026-01-10 09:47:39.05	7.30	53.39	-45.0	-47.7	17.3	0.00e+00	0	40	0	804257792	62	4666
2026-01-10 09:47:43.06	6.00	52.12	-45.1	-47.8	17.2	0.00e+00	0	40	0	811597824	61	5010
2026-01-10 09:47:47.06	4.81	50.87	-46.5	-49.6	15.5	0.00e+00	0	40	0	819986432	63	5516
2026-01-10 09:47:51.08	3.71	49.64	-46.9	-50.4	14.7	0.00e+00	0	40	0	827326464	64	5665
2026-01-10 09:47:55.08	2.71	48.43	-47.1	-50.7	14.3	7.00e-07	0	40	0	834666496	64	5914
2026-01-10 09:47:59.09	1.77	47.24	-47.1	-50.8	14.2	3.00e-06	0	40	0	842006528	65	5621
2026-01-10 09:48:03.09	0.91	46.09	-46.8	-50.2	14.8	0.00e+00	0	40	0	849346560	65	5257
2026-01-10 09:48:07.11	0.10	44.95	-46.8	-50.2	14.8	7.00e-07	0	40	0	856686592	65	5262
2026-01-10 09:48:11.11	359.36	43.84	-46.9	-50.5	14.5	7.00e-07	0	40	0	865075200	65	5455
2026-01-10 09:48:15.12	358.66	42.76	-47.9	-52.1	13.0	2.67e-05	0	39	0	872415232	66	6153
2026-01-10 09:48:19.13	358.01	41.70	-47.7	-51.8	13.2	4.88e-05	0	40	0	879755264	66	5970
2026-01-10 09:48:23.14	357.40	40.67	-47.4	-51.3	13.7	3.80e-06	0	40	0	887095296	66	5638
2026-01-10 09:48:27.15	356.83	39.67	-47.5	-51.3	13.8	1.22e-05	0	40	0	894435328	66	5623
2026-01-10 09:48:31.16	356.29	38.69	-46.9	-50.4	14.6	7.00e-07	0	40	0	901775360	65	5376
2026-01-10 09:48:35.17	355.79	37.73	-46.7	-50.3	14.7	0.00e+00	0	40	0	910163968	65	5288
2026-01-10 09:48:39.18	355.31	36.80	-46.7	-50.3	14.7	0.00e+00	0	40	0	917504000	65	5317
2026-01-10 09:48:43.19	354.87	35.89	-47.1	-51.0	13.9	3.80e-06	0	40	0	924844032	65	5774
2026-01-10 09:48:47.19	354.44	35.01	-47.2	-51.0	14.0	7.00e-07	0	40	0	932184064	65	5725
2026-01-10 09:48:51.20	354.04	34.15	-47.3	-51.1	13.9	3.80e-06	0	40	0	939524096	65	5803
2026-01-10 09:48:55.21	353.66	33.31	-47.6	-51.6	13.4	1.37e-05	0	40	0	946864128	65	6163
2026-01-10 09:48:59.22	353.30	32.49	-47.8	-52.1	12.9	6.86e-05	0	39	0	955252736	66	6176
2026-01-10 09:49:03.23	352.96	31.69	-47.7	-51.8	13.2	2.51e-05	0	40	0	962592768	66	5927
2026-01-10 09:49:07.24	352.63	30.91	-47.8	-51.9	13.0	3.35e-05	0	40	0	969932800	66	6054
2026-01-10 09:49:11.24	352.33	30.15	-47.8	-52.0	12.9	4.27e-05	0	40	0	977272832	66	6125
2026-01-10 09:49:15.25	352.03	29.41	-47.6	-51.7	13.2	3.28e-05	0	40	0	984612864	66	5908
2026-01-10 09:49:19.26	351.75	28.69	-47.6	-51.7	13.3	1.37e-05	0	40	0	991952896	66	5858
2026-01-10 09:49:23.27	351.48	27.99	-47.6	-51.6	13.3	1.83e-05	0	40	0	1000341504	66	5811
2026-01-10 09:49:27.28	351.23	27.30	-47.0	-51.0	13.9	1.50e-06	0	40	0	1007681536	66	5431
2026-01-10 09:49:31.29	350.98	26.63	-46.7	-50.5	14.4	2.20e-06	0	40	0	1015021568	65	5450
2026-01-10 09:49:35.30	350.75	25.97	-46.9	-50.7	14.2	2.20e-06	0	40	0	1022361600	65	5570
2026-01-10 09:49:39.31	350.52	25.33	-46.3	-50.3	14.6	0.00e+00	0	40	0	1029701632	64	5612
2026-01-10 09:49:43.32	350.31	24.71	-46.0	-49.9	15.0	0.00e+00	0	40	0	1037041664	64	5363
2026-01-10 09:49:47.32	350.10	24.10	-45.8	-49.3	15.6	0.00e+00	0	40	0	1045430272	63	5309
2026-01-10 09:49:51.33	349.90	23.50	-45.9	-49.1	15.8	0.00e+00	0	40	0	1052770304	63	5207
2026-01-10 09:49:55.34	349.71	22.91	-45.8	-49.0	15.9	0.00e+00	0	40	0	1060110336	63	5159
2026-01-10 09:49:59.34	349.53	22.34	-46.1	-49.4	15.5	0.00e+00	0	40	0	1067450368	63	5361
2026-01-10 09:50:03.35	349.36	21.78	-46.3	-49.5	15.4	0.00e+00	0	40	0	1074790400	63	5448
2026-01-10 09:50:07.36	349.19	21.24	-46.4	-49.8	15.1	0.00e+00	0	40	0	1082130432	63	5604
2026-01-10 09:50:11.37	349.03	20.70	-46.3	-49.8	15.1	0.00e+00	0	40	0	1090519040	63	5626
2026-01-10 09:50:15.38	348.87	20.17	-46.6	-50.1	14.8	7.00e-07	0	40	0	1097859072	63	5841
2026-01-10 09:50:19.39	348.72	19.66	-46.3	-50.3	14.5	7.00e-07	0	40	0	1105199104	63	5991
2026-01-10 09:50:23.40	348.57	19.15	-46.1	-50.6	14.3	0.00e+00	0	40	0	1112539136	63	6145
2026-01-10 09:50:27.41	348.43	18.66	-46.2	-50.5	14.3	7.00e-07	0	40	0	1119879168	63	6118
2026-01-10 09:50:31.42	348.30	18.17	-46.2	-50.5	14.3	1.50e-06	0	40	0	1127219200	63	6121
2026-01-10 09:50:35.43	348.17	17.70	-46.2	-50.7	14.1	0.00e+00	0	40	0	1135607808	63	6226
2026-01-10 09:50:39.44	348.04	17.23	-46.4	-50.7	14.1	0.00e+00	0	40	0	1142947840	63	6244
2026-01-10 09:50:43.45	347.92	16.77	-46.7	-50.8	13.9	3.80e-06	0	40	0	1150287872	64	5962
2026-01-10 09:50:47.45	347.80	16.32	-46.9	-51.1	13.6	1.06e-05	0	40	0	1157627904	64	6184
2026-01-10 09:50:51.46	347.69	15.88	-46.9	-51.2	13.5	1.14e-05	0	40	0	1164967936	64	6240
2026-01-10 09:50:55.47	347.58	15.45	-47.1	-51.5	13.2	2.51e-05	0	40	0	1172307968	64	6442
2026-01-10 09:50:59.48	347.47	15.02	-47.2	-51.5	13.2	2.44e-05	0	40	0	1180696576	65	6069
2026-01-10 09:51:03.49	347.37	14.60	-47.1	-51.3	13.3	1.90e-05	0	40	0	1188036608	65	5990
2026-01-10 09:51:07.50	347.27	14.19	-47.1	-51.5	13.2	2.74e-05	0	40	0	1195376640	65	6100
2026-01-10 09:51:11.51	347.18	13.78	-47.0	-51.5	13.2	1.75e-05	0	40	0	1202716672	65	6090
2026-01-10 09:51:15.52	347.08	13.38	-46.8	-51.3	13.4	1.37e-05	0	40	0	1210056704	65	5925
2026-01-10 09:51:19.53	346.99	12.99	-46.8	-51.1	13.5	9.90e-06	0	40	0	1218445312	65	5815
2026-01-10 09:51:23.54	346.90	12.60	-46.6	-50.9	13.6	9.90e-06	0	40	0	1225785344	65	5714
2026-01-10 09:51:27.55	346.82	12.22	-46.1	-50.8	13.7	3.00e-06	0	40	0	1233125376	64	5983
2026-01-10 09:51:31.56	346.74	11.85	-46.0	-51.0	13.7	6.10e-06	0	40	0	1240465408	63	6443
2026-01-10 09:51:35.57	346.66	11.48	-45.7	-50.9	13.7	1.06e-05	0	40	0	1247805440	63	6392
2026-01-10 09:51:39.58	346.58	11.12	-45.5	-51.0	13.6	5.30e-06	0	39	0	1255145472	63	6447
2026-01-10 09:51:43.59	346.50	10.76	-45.4	-51.2	13.4	1.37e-05	0	40	0	1263534080	62	7011
2026-01-10 09:51:47.59	346.43	10.40	-45.0	-51.3	13.2	1.75e-05	0	40	0	1270874112	62	7119
2026-01-10 09:51:51.60	346.36	10.06	-44.8	-51.7	12.8	4.34e-05	0	40	0	1278214144	61	7844
2026-01-10 09:51:55.61	346.29	9.71	-44.4	-51.6	12.9	6.25e-05	0	40	0	1285554176	60	8194
2026-01-10 09:51:59.62	346.22	9.37	-44.2	-51.7	12.7	9.68e-05	0	40	0	1292894208	60	8320
2026-01-10 09:52:03.63	346.16	9.04	-44.3	-52.0	12.4	1.07e-04	0	40	0	1300234240	59	9073
2026-01-10 09:52:07.64	346.10	8.71	-50.3	-66.1	3.9	1.49e+00	0	40	104	1303379968	71	23140
2026-01-10 09:52:11.66	346.03	8.38	-50.7	-66.2	3.8	1.49e+00	0	40	104	1303379968	72	22191
2026-01-10 09:52:15.67	345.97	8.06	-50.7	-66.3	3.8	1.49e+00	0	40	104	1303379968	72	22418
2026-01-10 09:52:19.68	345.92	7.74	-51.0	-66.3	3.8	1.49e+00	0	40	104	1303379968	72	22369
2026-01-10 09:52:23.70	345.86	7.43	-50.9	-66.3	3.8	1.49e+00	0	40	104	1303379968	72	22307
2026-01-10 09:52:27.71	345.80	7.12	-50.9	-66.3	3.8	1.49e+00	0	40	104	1303379968	72	22394
2026-01-10 09:52:31.72	345.75	6.81	-50.8	-66.3	3.8	1.49e+00	0	40	104	1303379968	72	22266
2026-01-10 09:52:35.73	345.70	6.51	-50.9	-66.2	3.8	1.49e+00	0	40	104	1303379968	72	22258
2026-01-10 09:52:39.75	345.65	6.21	-50.9	-66.2	3.8	1.49e+00	0	40	104	1303379968	72	22141
2026-01-10 09:52:43.76	345.60	5.91	-50.9	-66.2	3.8	1.49e+00	0	40	104	1303379968	72	22168
2026-01-10 09:52:47.78	345.55	5.62	-50.9	-66.2	3.8	1.49e+00	0	40	104	1303379968	72	22102
2026-01-10 09:52:51.79	345.50	5.33	-50.9	-66.2	3.8	1.49e+00	0	40	104	1303379968	72	22195
2026-01-10 09:52:55.80	345.46	5.04	-50.9	-66.2	3.8	1.49e+00	0	40	104	1303379968	72	22100

#Closed at: 2026-01-10 09:52:57
#Recorded file [1303 MB]: D:/Data/31040_260110_124006.dat