passes_logs/2026/01/10/T1/T1__20260110_112132_NOAA_20_JPSS-1_rec.log

#Pass ID: 20260110_112132_NOAA 20 (JPSS-1)
#Satellite: NOAA 20 (JPSS-1)
#Configuration: NOAA 20
#almurnet v.1.7.20251203
#Start time: 2026-01-10 11:21:32

#Version: 2.0.20230620
#Station: T1
#Location: 37.570604 lon 55.790049 lat
#TLE: 1 43013U 17073A   26009.69119415  .00000109  00000+0  72598-4 0  9996
#TLE: 2 43013  98.7631 310.6868 0001678  46.7442 313.3874 14.19534878421981

#Time	Az	El	Level	Level2	SNR	BER	BlckErr	Temp	State	Recorded	gain1	gain2
2026-01-10 11:21:32.46	207.06	5.02	-50.5	-65.7	3.8	1.49e+00	0	40	0	0	72	20915
2026-01-10 11:21:35.47	207.30	5.21	-50.4	-65.7	3.8	1.49e+00	0	41	104	0	72	20961
2026-01-10 11:21:38.48	207.55	5.39	-50.5	-65.7	3.8	1.49e+00	0	41	104	0	72	20849
2026-01-10 11:21:41.50	207.80	5.58	-50.4	-65.6	3.8	1.49e+00	0	41	104	0	72	20690
2026-01-10 11:21:44.51	208.05	5.77	-50.4	-65.7	3.8	1.49e+00	0	41	104	0	72	20781
2026-01-10 11:21:47.52	208.31	5.95	-50.4	-65.7	3.8	1.49e+00	0	41	104	0	72	20831
2026-01-10 11:21:50.54	208.57	6.14	-50.4	-65.7	3.8	1.49e+00	0	41	104	0	72	20828
2026-01-10 11:21:53.55	208.83	6.33	-50.4	-65.7	3.8	1.49e+00	0	41	104	0	72	20802
2026-01-10 11:21:56.56	209.10	6.52	-50.4	-65.2	3.8	1.49e+00	0	41	104	0	72	19738
2026-01-10 11:21:59.57	209.37	6.72	-50.4	-65.2	3.8	1.49e+00	0	41	104	0	72	19697
2026-01-10 11:22:02.59	209.64	6.91	-50.4	-65.4	3.8	1.49e+00	0	42	104	0	72	20147
2026-01-10 11:22:05.60	209.92	7.10	-50.4	-64.8	3.8	1.49e+00	0	42	104	0	72	18886
2026-01-10 11:22:08.61	210.20	7.30	-50.3	-64.1	3.8	1.49e+00	0	41	104	0	72	17354
2026-01-10 11:22:11.63	210.48	7.49	-50.3	-64.2	3.8	1.49e+00	0	42	104	0	72	17519
2026-01-10 11:22:14.64	210.77	7.69	-50.3	-64.2	3.8	1.49e+00	0	42	104	0	72	17487
2026-01-10 11:22:17.65	211.06	7.88	-50.4	-65.4	3.8	1.49e+00	0	42	104	0	72	20197
2026-01-10 11:22:20.67	211.35	8.08	-50.0	-60.5	4.8	1.26e+00	0	42	0	0	72	11471
2026-01-10 11:22:23.68	211.65	8.28	-48.2	-53.4	11.0	4.68e-03	0	42	0	5242880	68	6367
2026-01-10 11:22:26.69	211.95	8.48	-46.5	-50.2	14.1	3.00e-06	0	42	0	11534336	65	5248
2026-01-10 11:22:29.71	212.26	8.68	-46.5	-50.2	14.1	1.50e-06	0	42	0	16777216	64	5587
2026-01-10 11:22:32.72	212.57	8.88	-47.9	-52.7	11.6	2.20e-04	0	42	0	23068672	66	6629
2026-01-10 11:22:35.73	212.89	9.09	-47.2	-51.3	13.0	1.80e-02	0	42	0	28311552	66	5631
2026-01-10 11:22:38.75	213.21	9.29	-48.9	-55.4	8.9	2.19e-01	0	42	0	33554432	69	7572
2026-01-10 11:22:41.75	213.53	9.49	-48.2	-53.2	11.3	9.71e-04	0	42	0	39845888	68	6259
2026-01-10 11:22:44.76	213.86	9.70	-47.2	-51.4	13.0	5.79e-05	0	42	0	45088768	66	5690
2026-01-10 11:22:47.77	214.19	9.90	-46.7	-50.5	13.9	1.50e-06	0	42	0	51380224	65	5443
2026-01-10 11:22:50.78	214.52	10.11	-46.3	-49.8	14.6	0.00e+00	0	42	0	56623104	64	5314
2026-01-10 11:22:53.79	214.86	10.32	-46.2	-49.7	14.8	0.00e+00	0	42	0	61865984	64	5243
2026-01-10 11:22:56.80	215.21	10.53	-46.0	-49.3	15.1	0.00e+00	0	42	0	68157440	64	5036
2026-01-10 11:22:59.81	215.56	10.74	-45.8	-49.0	15.5	0.00e+00	0	43	0	73400320	63	5110
2026-01-10 11:23:02.82	215.92	10.95	-45.9	-49.1	15.4	0.00e+00	0	43	0	79691776	63	5205
2026-01-10 11:23:05.83	216.28	11.16	-45.9	-49.1	15.5	0.00e+00	0	42	0	84934656	63	5187
2026-01-10 11:23:08.84	216.64	11.37	-45.9	-49.2	15.4	0.00e+00	0	43	0	90177536	63	5247
2026-01-10 11:23:11.84	217.01	11.58	-45.8	-49.0	15.6	0.00e+00	0	43	0	96468992	63	5106
2026-01-10 11:23:14.85	217.39	11.79	-45.8	-49.0	15.6	0.00e+00	0	43	0	101711872	63	5123
2026-01-10 11:23:17.86	217.77	12.01	-45.9	-49.1	15.5	0.00e+00	0	43	0	106954752	63	5186
2026-01-10 11:23:20.87	218.16	12.22	-46.0	-49.4	15.3	0.00e+00	0	43	0	113246208	63	5346
2026-01-10 11:23:23.88	218.55	12.44	-46.0	-49.3	15.3	0.00e+00	0	43	0	118489088	63	5306
2026-01-10 11:23:26.89	218.95	12.66	-46.0	-49.3	15.4	0.00e+00	0	43	0	124780544	63	5282
2026-01-10 11:23:29.90	219.35	12.87	-45.8	-48.9	15.7	0.00e+00	0	43	0	130023424	63	5057
2026-01-10 11:23:32.91	219.76	13.09	-45.8	-48.9	15.7	0.00e+00	0	43	0	135266304	63	5076
2026-01-10 11:23:35.92	220.18	13.31	-45.8	-48.8	15.8	0.00e+00	0	43	0	141557760	63	5033
2026-01-10 11:23:38.93	220.60	13.53	-45.6	-48.6	16.0	0.00e+00	0	43	0	146800640	63	4907
2026-01-10 11:23:41.94	221.02	13.75	-45.6	-48.7	16.0	0.00e+00	0	43	0	152043520	63	4948
2026-01-10 11:23:44.94	221.46	13.97	-45.6	-48.6	16.0	0.00e+00	0	43	0	158334976	63	4920
2026-01-10 11:23:47.95	221.90	14.19	-45.8	-48.9	15.8	0.00e+00	0	43	0	163577856	63	5061
2026-01-10 11:23:50.96	222.34	14.41	-45.8	-48.9	15.8	0.00e+00	0	43	0	169869312	63	5055
2026-01-10 11:23:53.97	222.80	14.63	-45.7	-48.8	15.9	0.00e+00	0	43	0	175112192	63	5010
2026-01-10 11:23:56.98	223.26	14.85	-45.7	-48.7	16.0	0.00e+00	0	43	0	180355072	63	4960
2026-01-10 11:23:59.99	223.72	15.07	-45.7	-48.7	16.0	0.00e+00	0	43	0	186646528	63	4974
2026-01-10 11:24:03.00	224.19	15.29	-45.6	-48.6	16.1	0.00e+00	0	43	0	191889408	63	4900
2026-01-10 11:24:06.01	224.67	15.52	-45.5	-48.5	16.3	0.00e+00	0	43	0	198180864	63	4836
2026-01-10 11:24:09.02	225.16	15.74	-45.5	-48.4	16.3	0.00e+00	0	43	0	203423744	63	4768
2026-01-10 11:24:12.03	225.65	15.96	-45.5	-48.3	16.4	0.00e+00	0	43	0	208666624	62	5029
2026-01-10 11:24:15.04	226.15	16.18	-45.3	-48.1	16.6	0.00e+00	0	43	0	214958080	62	4902
2026-01-10 11:24:18.05	226.66	16.40	-45.3	-48.0	16.7	0.00e+00	0	43	0	220200960	62	4869
2026-01-10 11:24:21.06	227.18	16.63	-45.2	-48.0	16.8	0.00e+00	0	43	0	225443840	62	4825
2026-01-10 11:24:24.06	227.70	16.85	-45.2	-48.0	16.8	0.00e+00	0	43	0	231735296	62	4852
2026-01-10 11:24:27.07	228.23	17.07	-45.2	-48.0	16.8	0.00e+00	0	43	0	236978176	62	4831
2026-01-10 11:24:30.08	228.77	17.29	-45.3	-48.2	16.6	0.00e+00	0	43	0	243269632	62	4940
2026-01-10 11:24:33.08	229.31	17.51	-45.4	-48.3	16.5	0.00e+00	0	43	0	248512512	62	4996
2026-01-10 11:24:36.10	229.87	17.73	-45.7	-48.6	16.2	0.00e+00	0	43	0	253755392	62	5212
2026-01-10 11:24:39.10	230.43	17.95	-45.7	-48.7	16.1	0.00e+00	0	43	0	260046848	62	5243
2026-01-10 11:24:42.11	231.00	18.17	-45.5	-48.3	16.5	0.00e+00	0	43	0	265289728	62	5022
2026-01-10 11:24:45.12	231.57	18.39	-45.3	-48.1	16.8	0.00e+00	0	43	0	270532608	62	4884
2026-01-10 11:24:48.13	232.16	18.61	-45.2	-48.0	16.9	0.00e+00	0	43	0	276824064	62	4825
2026-01-10 11:24:51.14	232.75	18.82	-45.0	-47.7	17.1	0.00e+00	0	43	0	282066944	62	4690
2026-01-10 11:24:54.15	233.36	19.04	-44.8	-47.5	17.3	0.00e+00	0	43	0	288358400	61	4836
2026-01-10 11:24:57.15	233.96	19.25	-44.5	-47.1	17.7	0.00e+00	0	43	0	293601280	60	4888
2026-01-10 11:25:00.16	234.58	19.46	-44.4	-47.0	17.8	0.00e+00	0	43	0	298844160	60	4825
2026-01-10 11:25:03.17	235.21	19.67	-44.5	-47.1	17.7	0.00e+00	0	43	0	305135616	60	4919
2026-01-10 11:25:06.18	235.85	19.88	-44.3	-46.9	17.9	0.00e+00	0	43	0	310378496	60	4764
2026-01-10 11:25:09.19	236.49	20.09	-44.4	-46.9	17.9	0.00e+00	0	43	0	315621376	60	4803
2026-01-10 11:25:12.20	237.14	20.30	-44.6	-47.2	17.7	0.00e+00	0	43	0	321912832	60	4932
2026-01-10 11:25:15.20	237.80	20.50	-44.6	-47.2	17.7	0.00e+00	0	43	0	327155712	60	4936
2026-01-10 11:25:18.21	238.47	20.70	-44.5	-47.1	17.7	0.00e+00	0	43	0	333447168	60	4876
2026-01-10 11:25:21.22	239.15	20.90	-44.6	-47.2	17.7	0.00e+00	0	43	0	338690048	60	4945
2026-01-10 11:25:24.23	239.84	21.09	-44.8	-47.4	17.5	0.00e+00	0	43	0	343932928	60	5046
2026-01-10 11:25:27.24	240.53	21.29	-44.7	-47.3	17.5	0.00e+00	0	43	0	350224384	60	5009
2026-01-10 11:25:30.25	241.23	21.48	-45.0	-47.6	17.3	0.00e+00	0	43	0	355467264	60	5206
2026-01-10 11:25:33.26	241.95	21.67	-45.2	-48.0	16.9	0.00e+00	0	43	0	361758720	61	5108
2026-01-10 11:25:36.27	242.67	21.85	-45.3	-48.1	16.8	0.00e+00	0	43	0	367001600	61	5183
2026-01-10 11:25:39.28	243.40	22.03	-45.2	-48.0	16.9	0.00e+00	0	43	0	372244480	61	5124
2026-01-10 11:25:42.29	244.13	22.21	-45.4	-48.2	16.7	0.00e+00	0	43	0	378535936	61	5258
2026-01-10 11:25:45.30	244.88	22.39	-45.5	-48.3	16.6	0.00e+00	0	43	0	383778816	61	5299
2026-01-10 11:25:48.31	245.63	22.56	-45.3	-48.0	16.8	0.00e+00	0	43	0	389021696	61	5147
2026-01-10 11:25:51.31	246.39	22.72	-45.1	-47.9	17.0	0.00e+00	0	43	0	395313152	61	5056
2026-01-10 11:25:54.32	247.16	22.89	-45.5	-48.3	16.6	0.00e+00	0	43	0	400556032	61	5330
2026-01-10 11:25:57.33	247.94	23.04	-45.7	-48.6	16.3	0.00e+00	0	43	0	406847488	62	5210
2026-01-10 11:26:00.34	248.72	23.20	-45.8	-48.8	16.1	0.00e+00	0	43	0	412090368	62	5337
2026-01-10 11:26:03.35	249.51	23.35	-45.9	-48.9	16.0	0.00e+00	0	43	0	417333248	62	5369
2026-01-10 11:26:06.36	250.31	23.49	-46.3	-49.5	15.4	0.00e+00	0	43	0	423624704	63	5440
2026-01-10 11:26:09.37	251.12	23.63	-46.5	-49.7	15.2	0.00e+00	0	43	0	428867584	63	5585
2026-01-10 11:26:12.38	251.93	23.76	-46.2	-49.3	15.6	0.00e+00	0	43	0	434110464	63	5324
2026-01-10 11:26:15.38	252.75	23.89	-45.9	-49.0	15.9	0.00e+00	0	43	0	440401920	63	5110
2026-01-10 11:26:18.39	253.57	24.02	-46.1	-49.2	15.7	0.00e+00	0	43	0	445644800	63	5244
2026-01-10 11:26:21.40	254.41	24.13	-46.5	-49.9	15.0	0.00e+00	0	43	0	451936256	63	5696
2026-01-10 11:26:24.41	255.25	24.25	-46.4	-49.7	15.2	0.00e+00	0	43	0	457179136	63	5556
2026-01-10 11:26:27.41	256.09	24.35	-46.3	-49.5	15.4	0.00e+00	0	43	0	462422016	63	5436
2026-01-10 11:26:30.42	256.94	24.45	-46.6	-50.1	14.8	0.00e+00	0	43	0	468713472	64	5466
2026-01-10 11:26:33.43	257.79	24.55	-46.8	-50.3	14.5	0.00e+00	0	43	0	473956352	64	5644
2026-01-10 11:26:36.44	258.65	24.63	-46.5	-49.9	14.9	7.00e-07	0	43	0	479199232	64	5373
2026-01-10 11:26:39.45	259.51	24.72	-46.3	-49.6	15.3	0.00e+00	0	43	0	485490688	64	5163
2026-01-10 11:26:42.45	260.38	24.79	-46.5	-49.9	15.0	0.00e+00	0	43	0	490733568	64	5375
2026-01-10 11:26:45.46	261.25	24.86	-46.3	-49.6	15.3	0.00e+00	0	43	0	497025024	64	5163
2026-01-10 11:26:48.47	262.13	24.92	-45.8	-48.8	16.1	0.00e+00	0	43	0	502267904	63	5037
2026-01-10 11:26:51.48	263.00	24.97	-45.6	-48.5	16.4	0.00e+00	0	43	0	507510784	63	4861
2026-01-10 11:26:54.48	263.88	25.02	-45.6	-48.5	16.4	0.00e+00	0	43	0	513802240	63	4844
2026-01-10 11:26:57.49	264.77	25.06	-45.6	-48.5	16.4	0.00e+00	0	43	0	519045120	63	4828
2026-01-10 11:27:00.50	265.65	25.10	-45.7	-48.6	16.3	0.00e+00	0	43	0	524288000	63	4892
2026-01-10 11:27:03.51	266.54	25.12	-46.0	-49.1	15.8	0.00e+00	0	43	0	530579456	63	5164
2026-01-10 11:27:06.52	267.43	25.14	-46.5	-49.8	15.1	0.00e+00	0	43	0	535822336	63	5613
2026-01-10 11:27:09.53	268.31	25.15	-45.9	-49.0	15.9	0.00e+00	0	43	0	542113792	63	5114
2026-01-10 11:27:12.54	269.20	25.16	-45.6	-48.6	16.2	0.00e+00	0	43	0	547356672	63	4917
2026-01-10 11:27:15.54	270.09	25.16	-45.7	-48.8	16.1	0.00e+00	0	43	0	552599552	63	5004
2026-01-10 11:27:18.56	270.98	25.15	-45.8	-48.8	16.1	0.00e+00	0	43	0	558891008	63	5023
2026-01-10 11:27:21.56	271.87	25.13	-45.6	-48.6	16.3	0.00e+00	0	43	0	564133888	63	4875
2026-01-10 11:27:24.57	272.75	25.11	-45.4	-48.3	16.6	0.00e+00	0	43	0	570425344	62	5012
2026-01-10 11:27:27.59	273.64	25.08	-45.8	-48.8	16.1	0.00e+00	0	43	0	575668224	62	5288
2026-01-10 11:27:30.59	274.52	25.04	-45.8	-48.7	16.1	0.00e+00	0	43	0	580911104	62	5266
2026-01-10 11:27:33.60	275.40	24.99	-45.2	-48.0	16.9	0.00e+00	0	43	0	587202560	62	4818
2026-01-10 11:27:36.61	276.28	24.94	-45.6	-48.5	16.4	0.00e+00	0	43	0	592445440	62	5103
2026-01-10 11:27:39.61	277.15	24.88	-46.3	-49.5	15.4	0.00e+00	0	43	0	597688320	63	5437
2026-01-10 11:27:42.62	278.03	24.82	-46.0	-49.1	15.8	0.00e+00	0	43	0	603979776	63	5199
2026-01-10 11:27:45.63	278.89	24.75	-46.2	-49.3	15.7	0.00e+00	0	43	0	609222656	63	5298
2026-01-10 11:27:48.64	279.76	24.67	-45.6	-48.6	16.3	0.00e+00	0	43	0	615514112	63	4872
2026-01-10 11:27:51.65	280.62	24.59	-46.1	-49.2	15.7	0.00e+00	0	43	0	620756992	63	5231
2026-01-10 11:27:54.66	281.47	24.49	-46.1	-49.2	15.7	0.00e+00	0	43	0	625999872	63	5259
2026-01-10 11:27:57.67	282.32	24.40	-45.6	-48.6	16.3	0.00e+00	0	43	0	632291328	63	4871
2026-01-10 11:28:00.68	283.17	24.29	-45.8	-48.8	16.1	0.00e+00	0	43	0	637534208	63	5008
2026-01-10 11:28:03.69	284.00	24.18	-45.5	-48.3	16.5	0.00e+00	0	43	0	642777088	63	4755
2026-01-10 11:28:06.70	284.84	24.07	-45.2	-47.9	16.9	0.00e+00	0	43	0	649068544	62	4803
2026-01-10 11:28:09.72	285.67	23.95	-45.2	-48.0	16.8	0.00e+00	0	43	0	654311424	62	4855
2026-01-10 11:28:12.73	286.49	23.82	-45.3	-48.0	16.8	0.00e+00	0	43	0	660602880	62	4864
2026-01-10 11:28:15.74	287.30	23.69	-45.1	-47.9	17.0	0.00e+00	0	43	0	665845760	62	4772
2026-01-10 11:28:18.75	288.11	23.55	-44.8	-47.5	17.3	0.00e+00	0	43	0	671088640	61	4863
2026-01-10 11:28:21.76	288.91	23.41	-44.6	-47.2	17.6	0.00e+00	0	43	0	677380096	61	4686
2026-01-10 11:28:24.77	289.70	23.27	-44.4	-47.0	17.8	0.00e+00	0	43	0	682622976	60	4837
2026-01-10 11:28:27.77	290.48	23.12	-44.1	-46.6	18.1	0.00e+00	0	43	0	688914432	60	4634
2026-01-10 11:28:30.78	291.26	22.96	-44.2	-46.7	18.1	0.00e+00	0	43	0	694157312	60	4685
2026-01-10 11:28:33.79	292.03	22.80	-44.0	-46.4	18.3	0.00e+00	0	43	0	699400192	60	4525
2026-01-10 11:28:36.81	292.79	22.64	-44.2	-46.6	18.1	0.00e+00	0	43	0	705691648	59	4892
2026-01-10 11:28:39.81	293.54	22.47	-44.7	-47.3	17.5	0.00e+00	0	43	0	710934528	60	5027
2026-01-10 11:28:42.82	294.29	22.30	-44.7	-47.2	17.5	0.00e+00	0	43	0	716177408	60	4979
2026-01-10 11:28:45.83	295.03	22.12	-44.5	-47.1	17.7	0.00e+00	0	43	0	722468864	60	4876
2026-01-10 11:28:48.83	295.75	21.94	-44.5	-47.0	17.8	0.00e+00	0	43	0	727711744	60	4826
2026-01-10 11:28:51.84	296.47	21.76	-44.6	-47.1	17.6	0.00e+00	0	43	0	734003200	60	4909
2026-01-10 11:28:54.85	297.19	21.58	-45.4	-48.2	16.6	0.00e+00	0	43	0	739246080	61	5271
2026-01-10 11:28:57.86	297.89	21.39	-45.8	-48.9	16.0	0.00e+00	0	43	0	744488960	62	5368
2026-01-10 11:29:00.87	298.59	21.20	-46.0	-49.0	15.8	0.00e+00	0	43	0	750780416	62	5446
2026-01-10 11:29:03.88	299.27	21.00	-45.7	-48.6	16.2	0.00e+00	0	43	0	756023296	62	5214
2026-01-10 11:29:06.88	299.95	20.81	-45.3	-48.1	16.8	0.00e+00	0	43	0	761266176	62	4874
2026-01-10 11:29:09.89	300.62	20.61	-45.1	-47.9	16.9	0.00e+00	0	43	0	767557632	62	4766
2026-01-10 11:29:12.90	301.28	20.41	-45.5	-48.4	16.4	0.00e+00	0	43	0	772800512	62	5063
2026-01-10 11:29:15.92	301.94	20.20	-45.6	-48.5	16.3	0.00e+00	0	43	0	779091968	62	5151
2026-01-10 11:29:18.93	302.58	20.00	-45.8	-48.8	16.0	0.00e+00	0	43	0	784334848	62	5295
2026-01-10 11:29:21.94	303.22	19.79	-45.6	-48.4	16.3	0.00e+00	0	43	0	789577728	62	5100
2026-01-10 11:29:24.95	303.85	19.58	-45.3	-48.1	16.7	0.00e+00	0	43	0	795869184	62	4901
2026-01-10 11:29:27.96	304.47	19.38	-45.4	-48.2	16.6	0.00e+00	0	43	0	801112064	62	4979
2026-01-10 11:29:30.96	305.08	19.16	-45.4	-48.3	16.5	0.00e+00	0	43	0	807403520	62	5009
2026-01-10 11:29:33.97	305.68	18.95	-45.3	-48.2	16.6	0.00e+00	0	43	0	812646400	62	4958
2026-01-10 11:29:36.98	306.27	18.74	-45.5	-48.5	16.3	0.00e+00	0	43	0	817889280	62	5103
2026-01-10 11:29:39.99	306.86	18.52	-45.5	-48.4	16.4	0.00e+00	0	44	0	824180736	62	5079
2026-01-10 11:29:43.00	307.44	18.31	-45.8	-48.9	15.9	0.00e+00	0	43	0	829423616	62	5362
2026-01-10 11:29:46.00	308.01	18.09	-46.2	-49.5	15.3	0.00e+00	0	43	0	834666496	63	5450
2026-01-10 11:29:49.01	308.57	17.87	-46.0	-49.2	15.6	0.00e+00	0	43	0	840957952	63	5235
2026-01-10 11:29:52.02	309.12	17.66	-45.2	-48.2	16.5	0.00e+00	0	43	0	846200832	62	4953
2026-01-10 11:29:55.03	309.67	17.44	-45.9	-49.1	15.6	0.00e+00	0	44	0	852492288	62	5526
2026-01-10 11:29:58.04	310.21	17.22	-46.1	-49.4	15.4	0.00e+00	0	43	0	857735168	62	5676
2026-01-10 11:30:01.05	310.74	17.00	-45.6	-48.6	16.1	0.00e+00	0	43	0	862978048	62	5178
2026-01-10 11:30:04.06	311.27	16.78	-45.8	-48.8	15.9	0.00e+00	0	43	0	869269504	62	5335
2026-01-10 11:30:07.07	311.78	16.56	-46.0	-49.2	15.5	0.00e+00	0	43	0	874512384	62	5584
2026-01-10 11:30:10.08	312.29	16.34	-45.7	-48.9	15.9	0.00e+00	0	43	0	879755264	62	5342
2026-01-10 11:30:13.09	312.80	16.12	-45.5	-48.7	16.0	0.00e+00	0	43	0	886046720	62	5243
2026-01-10 11:30:16.10	313.29	15.90	-46.0	-49.5	15.3	0.00e+00	0	43	0	891289600	62	5724
2026-01-10 11:30:19.11	313.78	15.68	-45.9	-49.2	15.5	0.00e+00	0	43	0	897581056	62	5530
2026-01-10 11:30:22.12	314.26	15.46	-45.8	-49.0	15.7	0.00e+00	0	43	0	902823936	62	5435
2026-01-10 11:30:25.13	314.73	15.24	-45.9	-49.1	15.6	0.00e+00	0	43	0	908066816	62	5491
2026-01-10 11:30:28.14	315.20	15.02	-46.4	-49.9	14.7	0.00e+00	0	43	0	914358272	63	5697
2026-01-10 11:30:31.15	315.66	14.80	-46.0	-49.3	15.3	0.00e+00	0	43	0	919601152	63	5310
2026-01-10 11:30:34.16	316.12	14.58	-45.5	-48.7	15.9	0.00e+00	0	43	0	924844032	63	4971
2026-01-10 11:30:37.16	316.56	14.36	-45.7	-49.3	15.4	0.00e+00	0	43	0	931135488	62	5615
2026-01-10 11:30:40.17	317.00	14.14	-46.0	-49.7	15.0	0.00e+00	0	43	0	936378368	62	5856
2026-01-10 11:30:43.18	317.44	13.93	-45.8	-49.2	15.5	0.00e+00	0	43	0	942669824	62	5547
2026-01-10 11:30:46.19	317.87	13.71	-45.6	-48.8	15.8	0.00e+00	0	43	0	947912704	62	5329
2026-01-10 11:30:49.20	318.29	13.49	-45.7	-49.1	15.5	0.00e+00	0	44	0	953155584	62	5492
2026-01-10 11:30:52.21	318.71	13.28	-46.0	-49.7	14.9	0.00e+00	0	43	0	959447040	62	5866
2026-01-10 11:30:55.22	319.12	13.06	-45.9	-49.4	15.2	0.00e+00	0	43	0	964689920	62	5713
2026-01-10 11:30:58.23	319.53	12.85	-45.8	-49.2	15.4	0.00e+00	0	43	0	970981376	62	5546
2026-01-10 11:31:01.23	319.92	12.63	-46.0	-49.5	15.1	0.00e+00	0	44	0	976224256	62	5764
2026-01-10 11:31:04.24	320.32	12.42	-46.1	-49.9	14.7	1.50e-06	0	43	0	981467136	62	6033
2026-01-10 11:31:07.25	320.71	12.20	-46.1	-50.0	14.6	0.00e+00	0	43	0	987758592	62	6066
2026-01-10 11:31:10.26	321.09	11.99	-46.2	-49.7	14.9	7.00e-07	0	43	0	993001472	63	5537
2026-01-10 11:31:13.27	321.47	11.78	-46.0	-49.4	15.2	0.00e+00	0	43	0	999292928	63	5345
2026-01-10 11:31:16.28	321.84	11.57	-45.9	-49.3	15.2	0.00e+00	0	43	0	1004535808	63	5332
2026-01-10 11:31:19.29	322.21	11.36	-46.0	-49.5	15.1	0.00e+00	0	44	0	1009778688	63	5410
2026-01-10 11:31:22.30	322.57	11.15	-46.2	-49.8	14.8	3.80e-06	0	44	0	1016070144	63	5594
2026-01-10 11:31:25.31	322.93	10.94	-46.1	-49.7	14.8	0.00e+00	0	43	0	1021313024	63	5573
2026-01-10 11:31:28.32	323.28	10.73	-45.9	-50.0	14.6	7.00e-07	0	44	0	1026555904	63	5767
2026-01-10 11:31:31.33	323.63	10.53	-45.9	-50.4	14.1	7.00e-07	0	44	0	1032847360	63	6014
2026-01-10 11:31:34.34	323.98	10.32	-46.0	-50.6	13.9	4.50e-06	0	44	0	1038090240	63	6155
2026-01-10 11:31:37.34	324.31	10.12	-45.8	-50.3	14.2	2.20e-06	0	44	0	1044381696	63	5977
2026-01-10 11:31:40.35	324.65	9.91	-45.9	-50.2	14.2	7.00e-07	0	44	0	1049624576	63	5904
2026-01-10 11:31:43.36	324.98	9.71	-46.2	-50.4	14.1	1.50e-06	0	44	0	1054867456	63	6021
2026-01-10 11:31:46.37	325.30	9.51	-46.3	-50.3	14.1	1.50e-06	0	44	0	1061158912	63	5967
2026-01-10 11:31:49.38	325.62	9.31	-46.4	-50.6	13.8	3.00e-06	0	44	0	1066401792	63	6158
2026-01-10 11:31:52.39	325.94	9.10	-46.6	-50.9	13.4	1.52e-05	0	43	0	1071644672	64	6023
2026-01-10 11:31:55.41	326.26	8.90	-50.7	-65.9	3.8	1.49e+00	0	43	104	1074790400	72	21439
2026-01-10 11:31:58.42	326.56	8.71	-50.5	-66.2	3.8	1.49e+00	0	43	104	1074790400	72	22165
2026-01-10 11:32:01.43	326.87	8.51	-51.1	-66.3	3.8	1.49e+00	0	43	104	1074790400	72	22381
2026-01-10 11:32:04.45	327.17	8.31	-50.9	-66.3	3.8	1.49e+00	0	43	104	1074790400	72	22386
2026-01-10 11:32:07.46	327.47	8.11	-51.0	-66.3	3.8	1.49e+00	0	43	104	1074790400	72	22470
2026-01-10 11:32:10.47	327.76	7.92	-51.1	-66.3	3.8	1.49e+00	0	44	104	1074790400	73	21101
2026-01-10 11:32:13.48	328.05	7.72	-50.9	-66.3	3.8	1.49e+00	0	43	104	1074790400	73	21047
2026-01-10 11:32:16.50	328.34	7.53	-50.9	-66.3	3.8	1.49e+00	0	43	104	1074790400	73	21033
2026-01-10 11:32:19.51	328.62	7.34	-50.9	-66.2	3.8	1.49e+00	0	44	104	1074790400	73	20934
2026-01-10 11:32:22.52	328.90	7.14	-50.9	-66.2	3.8	1.49e+00	0	44	104	1074790400	73	20959
2026-01-10 11:32:25.53	329.18	6.95	-50.9	-66.2	3.8	1.49e+00	0	43	104	1074790400	73	20992
2026-01-10 11:32:28.55	329.45	6.76	-50.9	-66.2	3.8	1.49e+00	0	43	104	1074790400	73	20854
2026-01-10 11:32:31.56	329.72	6.57	-50.9	-66.2	3.8	1.49e+00	0	43	104	1074790400	73	20907
2026-01-10 11:32:34.57	329.98	6.39	-50.9	-66.2	3.8	1.49e+00	0	44	104	1074790400	73	20977
2026-01-10 11:32:37.58	330.24	6.20	-50.9	-66.2	3.8	1.49e+00	0	43	104	1074790400	73	20872
2026-01-10 11:32:40.60	330.50	6.01	-50.9	-66.2	3.8	1.49e+00	0	43	104	1074790400	73	20957
2026-01-10 11:32:43.61	330.76	5.83	-50.9	-66.2	3.8	1.49e+00	0	43	104	1074790400	73	20913
2026-01-10 11:32:46.62	331.01	5.64	-50.9	-66.2	3.8	1.49e+00	0	43	104	1074790400	73	20889
2026-01-10 11:32:49.64	331.26	5.46	-50.9	-66.2	3.8	1.49e+00	0	44	104	1074790400	73	20982
2026-01-10 11:32:52.65	331.51	5.27	-50.9	-66.2	3.8	1.49e+00	0	43	104	1074790400	73	20879
2026-01-10 11:32:55.66	331.75	5.09	-50.9	-66.2	3.8	1.49e+00	0	44	104	1074790400	73	20846

#Closed at: 2026-01-10 11:32:58
#Recorded file [1074 MB]: D:/Data/31040_260110_142132.dat