passes_logs/2026/01/10/T1/T1__20260110_020900_FENGYUN_3D_rec.log

#Pass ID: 20260110_020900_FENGYUN 3D
#Satellite: FENGYUN 3D
#Configuration: FENGYUN 3D
#almurnet v.1.7.20251203
#Start time: 2026-01-10 02:09:00

#Version: 2.0.20230620
#Station: T1
#Location: 37.570604 lon 55.790049 lat
#TLE: 1 43010U 17072A   26009.29492227  .00000158  00000+0  96483-4 0  9996
#TLE: 2 43010  98.9936 341.0229 0002153 117.3665 242.7729 14.19694440422446

#Time	Az	El	Level	Level2	SNR	BER	BlckErr	Temp	State	Recorded	gain1	gain2
2026-01-10 02:09:00.21	14.32	5.01	-50.3	-64.1	3.8	8.46e-01	0	36	0	0	72	17286
2026-01-10 02:09:03.22	14.26	5.22	-51.3	-63.9	3.8	8.46e-01	0	36	104	0	74	15053
2026-01-10 02:09:06.23	14.21	5.44	-51.3	-63.6	3.8	8.47e-01	0	37	104	0	74	14681
2026-01-10 02:09:09.24	14.16	5.66	-51.3	-63.3	3.8	8.48e-01	0	37	104	0	74	14178
2026-01-10 02:09:12.25	14.11	5.87	-51.3	-63.1	3.8	8.47e-01	0	37	104	0	74	13778
2026-01-10 02:09:15.27	14.05	6.10	-51.2	-62.8	3.8	8.47e-01	0	37	104	0	74	13409
2026-01-10 02:09:18.28	14.00	6.32	-51.2	-62.6	3.8	8.46e-01	0	37	104	0	74	12987
2026-01-10 02:09:21.29	13.94	6.54	-51.2	-62.5	3.8	8.47e-01	0	37	104	0	74	12900
2026-01-10 02:09:24.31	13.88	6.77	-51.3	-63.5	3.8	8.47e-01	0	37	104	0	74	14392
2026-01-10 02:09:27.32	13.82	7.00	-51.3	-63.7	3.8	8.47e-01	0	38	104	0	74	14864
2026-01-10 02:09:30.33	13.76	7.23	-50.9	-60.4	4.2	8.43e-01	0	38	0	0	73	10678
2026-01-10 02:09:33.35	13.70	7.46	-50.0	-56.4	6.3	3.36e-01	0	38	0	3145728	72	7175
2026-01-10 02:09:36.36	13.64	7.70	-49.0	-53.7	8.9	4.39e-02	0	38	0	19922944	70	5916
2026-01-10 02:09:39.37	13.57	7.93	-48.2	-52.2	10.5	5.95e-03	0	38	0	37748736	68	5556
2026-01-10 02:09:42.38	13.51	8.17	-47.4	-50.9	11.7	1.00e-03	0	38	0	54525952	66	5382
2026-01-10 02:09:45.39	13.44	8.41	-47.2	-50.7	11.9	5.37e-04	0	38	0	71303168	66	5253
2026-01-10 02:09:48.40	13.37	8.66	-47.5	-51.1	11.5	1.15e-03	0	38	0	88080384	66	5477
2026-01-10 02:09:51.42	13.31	8.91	-48.9	-53.6	9.0	2.25e-02	0	38	0	104857600	68	6547
2026-01-10 02:09:54.43	13.23	9.15	-47.7	-51.6	11.1	7.90e-04	0	38	0	122683392	65	6166
2026-01-10 02:09:57.43	13.16	9.40	-45.9	-48.9	14.0	0.00e+00	0	38	0	134217728	62	5366
2026-01-10 02:10:00.44	13.09	9.66	-49.9	-57.2	5.7	5.69e-01	0	38	0	144703488	71	8291
2026-01-10 02:10:03.57	13.01	9.92	-48.2	-52.7	10.0	2.12e-02	0	38	0	162529280	68	5857
2026-01-10 02:10:06.44	12.94	10.17	-46.2	-49.4	13.3	6.06e-05	0	38	0	178257920	64	5079
2026-01-10 02:10:09.78	12.85	10.46	-45.6	-48.6	14.2	1.10e-06	0	38	0	197132288	62	5201
2026-01-10 02:10:12.68	12.78	10.71	-45.2	-48.1	14.8	0.00e+00	0	38	0	213909504	61	5166
2026-01-10 02:10:15.83	12.69	10.99	-44.7	-47.3	15.6	0.00e+00	0	39	0	231735296	60	5025
2026-01-10 02:10:18.69	12.61	11.25	-43.7	-46.0	16.9	0.00e+00	0	39	0	247463936	59	4582
2026-01-10 02:10:21.86	12.52	11.54	-43.4	-45.8	17.1	0.00e+00	0	39	0	265289728	58	4708
2026-01-10 02:10:24.72	12.44	11.80	-43.3	-45.6	17.3	0.00e+00	0	39	0	282066944	58	4627
2026-01-10 02:10:28.28	12.34	12.13	-43.2	-45.5	17.4	0.00e+00	0	39	0	301989888	58	4566
2026-01-10 02:10:31.00	12.25	12.38	-43.2	-45.4	17.6	0.00e+00	0	39	0	316669952	58	4502
2026-01-10 02:10:34.29	12.15	12.70	-43.1	-45.2	17.7	0.00e+00	0	39	0	335544320	58	4432
2026-01-10 02:10:37.08	12.06	12.96	-43.1	-45.2	17.7	0.00e+00	0	39	0	351272960	57	4694
2026-01-10 02:10:40.66	11.95	13.31	-43.0	-45.1	17.9	0.00e+00	0	39	0	371195904	57	4637
2026-01-10 02:10:43.54	11.85	13.60	-42.7	-44.8	18.2	0.00e+00	0	39	0	386924544	57	4466
2026-01-10 02:10:46.69	11.75	13.91	-42.6	-44.8	18.3	0.00e+00	0	39	0	404750336	57	4445
2026-01-10 02:10:49.85	11.64	14.23	-42.6	-44.7	18.4	0.00e+00	0	39	0	422576128	56	4663
2026-01-10 02:10:52.81	11.53	14.53	-42.5	-44.6	18.5	0.00e+00	0	39	0	439353344	56	4612
2026-01-10 02:10:56.10	11.41	14.87	-42.2	-44.3	18.7	0.00e+00	0	39	0	458227712	56	4475
2026-01-10 02:10:58.97	11.31	15.17	-42.1	-44.2	18.9	0.00e+00	0	39	0	473956352	56	4400
2026-01-10 02:11:02.25	11.18	15.52	-42.1	-44.2	18.9	0.00e+00	0	39	0	492830720	56	4409
2026-01-10 02:11:05.25	11.06	15.84	-41.8	-43.8	19.1	0.00e+00	0	39	0	509607936	55	4487
2026-01-10 02:11:08.55	10.93	16.20	-41.7	-43.7	19.1	0.00e+00	0	39	0	528482304	55	4439
2026-01-10 02:11:11.28	10.82	16.50	-41.7	-43.7	19.2	0.00e+00	0	39	0	543162368	55	4441
2026-01-10 02:11:14.67	10.68	16.88	-41.6	-43.6	19.3	0.00e+00	0	39	0	563085312	55	4347
2026-01-10 02:11:17.70	10.55	17.23	-41.6	-43.6	19.3	0.00e+00	0	39	0	579862528	55	4342
2026-01-10 02:11:20.99	10.40	17.61	-41.5	-43.4	19.5	0.00e+00	0	39	0	597688320	54	4543
2026-01-10 02:11:23.72	10.28	17.93	-41.5	-43.4	19.5	0.00e+00	0	39	0	613416960	54	4517
2026-01-10 02:11:27.17	10.12	18.34	-41.5	-43.5	19.4	0.00e+00	0	39	0	633339904	54	4551
2026-01-10 02:11:29.98	9.98	18.67	-41.6	-43.5	19.4	0.00e+00	0	39	0	649068544	54	4590
2026-01-10 02:11:33.28	9.82	19.08	-41.5	-43.4	19.5	0.00e+00	0	39	0	666894336	54	4527
2026-01-10 02:11:36.01	9.68	19.41	-41.4	-43.3	19.6	0.00e+00	0	39	0	682622976	54	4475
2026-01-10 02:11:39.30	9.51	19.83	-41.4	-43.2	19.7	0.00e+00	0	39	0	701497344	54	4438
2026-01-10 02:11:42.22	9.36	20.20	-41.3	-43.1	19.8	0.00e+00	0	39	0	717225984	54	4380
2026-01-10 02:11:45.22	9.19	20.59	-41.4	-43.2	19.7	0.00e+00	0	39	0	734003200	54	4433
2026-01-10 02:11:48.23	9.02	20.98	-41.3	-43.2	19.8	0.00e+00	0	39	0	751828992	54	4419
2026-01-10 02:11:51.14	8.86	21.37	-41.2	-43.1	19.9	0.00e+00	0	39	0	767557632	54	4350
2026-01-10 02:11:54.30	8.67	21.80	-40.9	-42.7	20.2	0.00e+00	0	39	0	785383424	53	4438
2026-01-10 02:11:57.17	8.49	22.20	-40.8	-42.6	20.4	0.00e+00	0	39	0	802160640	53	4374
2026-01-10 02:12:00.31	8.30	22.63	-40.6	-42.4	20.6	0.00e+00	0	39	0	818937856	53	4249
2026-01-10 02:12:03.18	8.11	23.04	-40.4	-42.2	20.8	0.00e+00	0	39	0	835715072	52	4406
2026-01-10 02:12:06.45	7.89	23.51	-40.4	-42.1	20.8	0.00e+00	0	39	0	853540864	52	4381
2026-01-10 02:12:09.17	7.71	23.91	-40.4	-42.1	20.8	0.00e+00	0	39	0	869269504	52	4377
2026-01-10 02:12:12.98	7.44	24.48	-40.5	-42.2	20.7	0.00e+00	0	39	0	890241024	52	4436
2026-01-10 02:12:15.73	7.23	24.90	-40.3	-42.1	20.8	0.00e+00	0	39	0	905969664	52	4361
2026-01-10 02:12:19.47	6.95	25.48	-40.4	-42.2	20.8	0.00e+00	0	39	0	926941184	52	4401
2026-01-10 02:12:22.47	6.72	25.95	-40.2	-42.0	21.0	0.00e+00	0	39	0	943718400	52	4298
2026-01-10 02:12:25.62	6.46	26.45	-40.2	-42.0	21.0	0.00e+00	0	39	0	961544192	52	4296
2026-01-10 02:12:28.77	6.20	26.97	-40.4	-42.1	20.9	0.00e+00	0	39	0	979369984	52	4379
2026-01-10 02:12:31.64	5.95	27.44	-40.4	-42.2	20.8	0.00e+00	0	39	0	995098624	52	4394
2026-01-10 02:12:34.79	5.67	27.97	-40.4	-42.1	20.9	0.00e+00	0	39	0	1012924416	52	4367
2026-01-10 02:12:37.73	5.40	28.48	-40.0	-41.8	21.2	0.00e+00	0	39	0	1029701632	52	4205
2026-01-10 02:12:41.03	5.08	29.05	-39.9	-41.6	21.4	0.00e+00	0	39	0	1048576000	51	4383
2026-01-10 02:12:43.75	4.81	29.54	-39.9	-41.7	21.4	0.00e+00	0	39	0	1063256064	51	4395
2026-01-10 02:12:47.04	4.48	30.13	-39.9	-41.6	21.4	0.00e+00	0	39	0	1082130432	51	4364
2026-01-10 02:12:49.77	4.19	30.64	-39.9	-41.6	21.5	0.00e+00	0	39	0	1097859072	51	4351
2026-01-10 02:12:53.08	3.82	31.26	-39.8	-41.5	21.5	0.00e+00	0	39	0	1115684864	51	4337
2026-01-10 02:12:56.31	3.45	31.87	-39.8	-41.5	21.5	0.00e+00	0	39	0	1134559232	51	4325
2026-01-10 02:12:59.18	3.11	32.43	-39.6	-41.3	21.7	0.00e+00	0	39	0	1150287872	51	4232
2026-01-10 02:13:02.49	2.70	33.09	-39.8	-41.5	21.5	0.00e+00	0	39	0	1169162240	51	4313
2026-01-10 02:13:05.22	2.35	33.63	-39.8	-41.5	21.6	0.00e+00	0	39	0	1184890880	51	4304
2026-01-10 02:13:08.51	1.91	34.31	-39.6	-41.3	21.7	0.00e+00	0	39	0	1202716672	51	4220
2026-01-10 02:13:11.23	1.54	34.88	-39.7	-41.4	21.7	0.00e+00	0	39	0	1218445312	51	4250
2026-01-10 02:13:14.53	1.06	35.58	-39.7	-41.4	21.6	0.00e+00	0	39	0	1236271104	51	4284
2026-01-10 02:13:17.25	0.65	36.16	-39.8	-41.5	21.6	0.00e+00	0	39	0	1251999744	51	4332
2026-01-10 02:13:20.55	0.14	36.89	-39.6	-41.3	21.8	0.00e+00	0	39	0	1270874112	51	4212
2026-01-10 02:13:23.27	359.69	37.49	-39.7	-41.4	21.7	0.00e+00	0	39	0	1285554176	51	4264
2026-01-10 02:13:26.59	359.13	38.25	-39.6	-41.3	21.8	0.00e+00	0	39	0	1304428544	51	4202
2026-01-10 02:13:29.66	358.58	38.96	-39.8	-41.5	21.6	0.00e+00	0	39	0	1322254336	51	4310
2026-01-10 02:13:32.99	357.96	39.74	-39.7	-41.4	21.6	0.00e+00	0	39	0	1340080128	51	4279
2026-01-10 02:13:35.71	357.43	40.39	-40.0	-41.8	21.3	0.00e+00	0	39	0	1355808768	51	4458
2026-01-10 02:13:39.04	356.75	41.20	-40.3	-42.1	21.1	0.00e+00	0	39	0	1374683136	51	4615
2026-01-10 02:13:41.76	356.16	41.87	-39.9	-41.7	21.5	0.00e+00	0	39	0	1390411776	51	4396
2026-01-10 02:13:45.06	355.42	42.69	-40.0	-41.7	21.4	0.00e+00	0	39	0	1408237568	51	4408
2026-01-10 02:13:47.78	354.78	43.38	-40.1	-41.8	21.3	0.00e+00	0	39	0	1423966208	51	4491
2026-01-10 02:13:51.01	353.98	44.21	-39.9	-41.7	21.5	0.00e+00	0	39	0	1441792000	51	4392
2026-01-10 02:13:53.88	353.24	44.95	-40.0	-41.8	21.4	0.00e+00	0	39	0	1458569216	51	4453
2026-01-10 02:13:57.03	352.38	45.78	-40.1	-41.9	21.3	0.00e+00	0	39	0	1475346432	51	4500
2026-01-10 02:13:59.90	351.55	46.55	-40.0	-41.7	21.5	0.00e+00	0	39	0	1492123648	51	4398
2026-01-10 02:14:03.20	350.55	47.43	-40.1	-41.8	21.4	0.00e+00	0	39	0	1509949440	51	4464
2026-01-10 02:14:05.99	349.66	48.19	-40.4	-42.2	21.0	0.00e+00	0	39	0	1525678080	51	4681
2026-01-10 02:14:09.12	348.60	49.05	-40.6	-42.4	20.8	0.00e+00	0	39	0	1543503872	51	4794
2026-01-10 02:14:12.26	347.48	49.91	-40.5	-42.3	20.8	0.00e+00	0	39	0	1561329664	52	4458
2026-01-10 02:14:15.12	346.40	50.70	-41.0	-42.8	20.4	0.00e+00	0	39	0	1578106880	52	4726
2026-01-10 02:14:18.44	345.08	51.62	-40.8	-42.6	20.6	0.00e+00	0	39	0	1595932672	52	4607
2026-01-10 02:14:21.16	343.93	52.37	-40.8	-42.5	20.6	0.00e+00	0	39	0	1611661312	52	4582
2026-01-10 02:14:24.79	342.30	53.38	-40.7	-42.5	20.6	0.00e+00	0	39	0	1631584256	52	4572
2026-01-10 02:14:27.54	340.99	54.13	-40.9	-42.7	20.5	0.00e+00	0	39	0	1647312896	52	4666
2026-01-10 02:14:31.25	339.11	55.15	-40.7	-42.4	20.7	0.00e+00	0	39	0	1668284416	52	4531
2026-01-10 02:14:33.98	337.63	55.89	-40.5	-42.2	20.9	0.00e+00	0	39	0	1684013056	52	4441
2026-01-10 02:14:37.28	335.75	56.76	-40.6	-42.4	20.5	0.00e+00	0	39	0	1701838848	52	4525
2026-01-10 02:14:40.27	333.93	57.54	-40.5	-42.3	20.6	0.00e+00	0	39	0	1718616064	52	4468
2026-01-10 02:14:43.28	331.99	58.31	-40.3	-42.1	20.8	0.00e+00	0	39	0	1736441856	52	4347
2026-01-10 02:14:46.35	329.89	59.07	-40.4	-42.2	20.7	0.00e+00	0	39	0	1753219072	52	4408
2026-01-10 02:14:49.31	327.76	59.77	-40.3	-42.1	20.8	0.00e+00	0	39	0	1769996288	52	4347
2026-01-10 02:14:52.49	325.33	60.50	-40.1	-41.9	20.9	0.00e+00	0	39	0	1787822080	52	4289
2026-01-10 02:14:55.35	323.03	61.11	-40.2	-42.0	20.8	0.00e+00	0	39	0	1803550720	52	4337
2026-01-10 02:14:58.50	320.37	61.74	-40.0	-41.8	21.0	0.00e+00	0	39	0	1821376512	51	4485
2026-01-10 02:15:01.37	317.83	62.28	-40.0	-41.8	21.1	0.00e+00	0	39	0	1838153728	51	4475
2026-01-10 02:15:04.52	314.91	62.81	-39.8	-41.5	21.3	0.00e+00	0	39	0	1855979520	51	4339
2026-01-10 02:15:07.40	312.13	63.24	-39.5	-41.3	21.6	0.00e+00	0	39	0	1871708160	51	4210
2026-01-10 02:15:10.72	308.80	63.67	-39.1	-40.8	21.9	0.00e+00	0	39	0	1890582528	50	4233
2026-01-10 02:15:13.45	305.99	63.97	-39.2	-41.0	21.8	0.00e+00	0	39	0	1905262592	50	4293
2026-01-10 02:15:16.74	302.50	64.25	-38.9	-40.7	22.0	0.00e+00	0	39	0	1924136960	49	4395
2026-01-10 02:15:19.47	299.56	64.41	-39.0	-40.7	22.0	0.00e+00	0	39	0	1939865600	49	4437
2026-01-10 02:15:22.76	295.96	64.53	-38.6	-40.3	22.4	0.00e+00	0	39	0	1957691392	49	4218
2026-01-10 02:15:25.48	292.97	64.56	-39.1	-40.9	21.9	0.00e+00	0	39	0	1973420032	49	4501
2026-01-10 02:15:28.72	289.41	64.51	-38.6	-40.3	22.4	0.00e+00	0	39	0	1991245824	49	4201
2026-01-10 02:15:31.84	286.00	64.38	-38.6	-40.3	22.4	0.00e+00	0	39	0	2009071616	49	4227
2026-01-10 02:15:34.85	282.77	64.19	-38.7	-40.4	22.3	0.00e+00	0	39	0	2025848832	49	4266
2026-01-10 02:15:37.86	279.59	63.91	-39.0	-40.7	22.0	0.00e+00	0	39	0	2042626048	49	4422
2026-01-10 02:15:40.87	276.50	63.58	-38.9	-40.6	22.1	0.00e+00	0	39	0	2060451840	49	4373
2026-01-10 02:15:43.87	273.52	63.17	-39.4	-41.2	21.6	0.00e+00	0	39	0	2077229056	49	4688
2026-01-10 02:15:46.91	270.60	62.70	-39.3	-41.1	21.7	0.00e+00	0	39	0	2094006272	49	4616
2026-01-10 02:15:49.79	267.95	62.21	-39.5	-41.3	21.5	0.00e+00	0	39	0	2109734912	49	4726
2026-01-10 02:15:52.95	265.17	61.61	-39.6	-41.4	21.4	0.00e+00	0	39	0	2127560704	49	4777
2026-01-10 02:15:55.86	262.73	61.01	-39.5	-41.2	21.6	0.00e+00	0	39	0	2144337920	50	4432
2026-01-10 02:15:59.01	260.22	60.33	-39.9	-41.7	21.2	0.00e+00	0	39	0	2162163712	50	4660
2026-01-10 02:16:01.87	258.05	59.67	-39.8	-41.5	21.3	0.00e+00	0	39	0	2177892352	50	4578
2026-01-10 02:16:05.02	255.80	58.91	-39.7	-41.4	21.4	0.00e+00	0	39	0	2195718144	50	4514
2026-01-10 02:16:07.89	253.86	58.20	-40.3	-42.1	20.8	0.00e+00	0	39	0	2211446784	51	4619
2026-01-10 02:16:11.04	251.84	57.39	-40.3	-42.1	20.9	0.00e+00	0	39	0	2229272576	51	4602
2026-01-10 02:16:13.91	250.11	56.64	-39.9	-41.7	21.2	0.00e+00	0	39	0	2246049792	51	4401
2026-01-10 02:16:17.05	248.32	55.80	-40.0	-41.8	21.1	0.00e+00	0	39	0	2262827008	51	4464
2026-01-10 02:16:19.92	246.78	55.02	-40.4	-42.2	20.8	0.00e+00	0	39	0	2279604224	51	4653
2026-01-10 02:16:23.07	245.18	54.16	-40.3	-42.1	20.9	0.00e+00	0	39	0	2297430016	51	4604
2026-01-10 02:16:26.10	243.73	53.32	-40.1	-41.8	21.1	0.00e+00	0	39	0	2314207232	51	4480
2026-01-10 02:16:29.31	242.29	52.43	-40.4	-42.2	20.8	0.00e+00	0	39	0	2332033024	51	4656
2026-01-10 02:16:32.32	241.01	51.59	-40.3	-42.1	20.9	0.00e+00	0	39	0	2349858816	51	4609
2026-01-10 02:16:35.50	239.73	50.71	-40.3	-42.1	20.8	0.00e+00	0	39	0	2366636032	51	4641
2026-01-10 02:16:38.36	238.65	49.91	-40.0	-41.8	21.1	0.00e+00	0	39	0	2383413248	51	4462
2026-01-10 02:16:41.52	237.52	49.04	-40.2	-42.0	21.0	0.00e+00	0	39	0	2401239040	51	4549
2026-01-10 02:16:44.40	236.54	48.25	-39.8	-41.6	21.2	0.00e+00	0	39	0	2416967680	51	4366
2026-01-10 02:16:47.62	235.50	47.37	-39.8	-41.6	21.3	0.00e+00	0	39	0	2435842048	51	4341
2026-01-10 02:16:50.48	234.63	46.60	-39.2	-40.9	21.8	0.00e+00	0	39	0	2451570688	50	4287
2026-01-10 02:16:53.63	233.72	45.76	-39.3	-41.0	21.7	0.00e+00	0	39	0	2469396480	50	4323
2026-01-10 02:16:56.87	232.83	44.90	-39.4	-41.1	21.7	0.00e+00	0	39	0	2487222272	50	4355
2026-01-10 02:16:59.81	232.07	44.14	-39.6	-41.4	21.4	0.00e+00	0	39	0	2503999488	50	4510
2026-01-10 02:17:03.11	231.25	43.29	-39.3	-41.0	21.7	0.00e+00	0	39	0	2522873856	50	4332
2026-01-10 02:17:05.83	230.61	42.59	-39.1	-40.8	21.9	0.00e+00	0	39	0	2537553920	50	4222
2026-01-10 02:17:09.14	229.87	41.77	-39.3	-41.1	21.7	0.00e+00	0	39	0	2556428288	50	4361
2026-01-10 02:17:12.21	229.21	41.01	-39.4	-41.2	21.6	0.00e+00	0	39	0	2574254080	50	4406
2026-01-10 02:17:15.08	228.62	40.31	-39.2	-41.0	21.7	0.00e+00	0	39	0	2589982720	50	4309
2026-01-10 02:17:18.31	227.99	39.54	-39.3	-41.0	21.6	0.00e+00	0	39	0	2607808512	50	4337
2026-01-10 02:17:21.17	227.46	38.86	-39.3	-41.1	21.6	0.00e+00	0	39	0	2624585728	50	4350
2026-01-10 02:17:24.66	226.84	38.05	-39.1	-40.9	21.8	0.00e+00	0	39	0	2643460096	50	4247
2026-01-10 02:17:27.51	226.35	37.41	-39.1	-40.9	21.7	0.00e+00	0	39	0	2660237312	50	4265
2026-01-10 02:17:30.86	225.81	36.66	-39.3	-41.1	21.5	0.00e+00	0	39	0	2679111680	50	4374
2026-01-10 02:17:33.58	225.38	36.06	-39.4	-41.1	21.5	0.00e+00	0	39	0	2693791744	50	4369
2026-01-10 02:17:36.87	224.89	35.35	-39.2	-41.0	21.6	0.00e+00	0	39	0	2712666112	50	4313
2026-01-10 02:17:39.83	224.46	34.72	-39.3	-41.0	21.6	0.00e+00	0	39	0	2729443328	50	4323
2026-01-10 02:17:43.57	223.95	33.94	-39.4	-41.1	21.5	0.00e+00	0	39	0	2750414848	50	4352
2026-01-10 02:17:46.34	223.58	33.37	-39.7	-41.5	21.2	0.00e+00	0	39	0	2766143488	50	4595
2026-01-10 02:17:50.10	223.10	32.62	-39.6	-41.4	21.3	0.00e+00	0	39	0	2787115008	50	4497
2026-01-10 02:17:53.10	222.74	32.03	-39.3	-41.0	21.6	0.00e+00	0	39	0	2803892224	50	4335
2026-01-10 02:17:56.25	222.37	31.42	-39.3	-41.0	21.6	0.00e+00	0	39	0	2821718016	50	4337
2026-01-10 02:17:59.12	222.05	30.88	-39.4	-41.1	21.5	0.00e+00	0	39	0	2837446656	50	4380
2026-01-10 02:18:02.27	221.71	30.29	-39.5	-41.3	21.4	0.00e+00	0	39	0	2855272448	50	4451
2026-01-10 02:18:05.23	221.39	29.75	-39.6	-41.4	21.3	0.00e+00	0	39	0	2872049664	50	4519
2026-01-10 02:18:08.77	221.04	29.11	-39.7	-41.5	21.2	0.00e+00	0	39	0	2891972608	50	4554
2026-01-10 02:18:11.49	220.77	28.63	-39.7	-41.4	21.2	0.00e+00	0	39	0	2906652672	50	4539
2026-01-10 02:18:14.78	220.46	28.06	-39.8	-41.5	21.2	0.00e+00	0	39	0	2925527040	50	4589
2026-01-10 02:18:17.62	220.20	27.57	-39.8	-41.5	21.1	0.00e+00	0	39	0	2941255680	50	4592
2026-01-10 02:18:20.77	219.92	27.04	-39.7	-41.4	21.3	0.00e+00	0	39	0	2959081472	50	4532
2026-01-10 02:18:23.63	219.68	26.57	-39.7	-41.5	21.2	0.00e+00	0	39	0	2975858688	50	4550
2026-01-10 02:18:26.91	219.41	26.04	-39.8	-41.5	21.1	0.00e+00	0	39	0	2993684480	50	4594
2026-01-10 02:18:29.63	219.19	25.61	-40.0	-41.8	20.9	0.00e+00	0	39	0	3009413120	50	4716
2026-01-10 02:18:33.19	218.91	25.05	-39.8	-41.6	21.0	0.00e+00	0	39	0	3029336064	50	4633
2026-01-10 02:18:35.91	218.71	24.63	-39.9	-41.6	21.0	0.00e+00	0	39	0	3045064704	50	4643
2026-01-10 02:18:39.20	218.47	24.13	-39.9	-41.7	21.0	0.00e+00	0	39	0	3062890496	50	4655
2026-01-10 02:18:41.97	218.27	23.72	-39.9	-41.7	20.9	0.00e+00	0	40	0	3078619136	50	4700
2026-01-10 02:18:45.26	218.04	23.24	-40.1	-41.9	20.8	0.00e+00	0	39	0	3097493504	50	4782
2026-01-10 02:18:47.99	217.86	22.85	-40.2	-42.0	20.7	0.00e+00	0	39	0	3112173568	51	4588
2026-01-10 02:18:51.28	217.65	22.38	-40.2	-42.0	20.7	0.00e+00	0	39	0	3131047936	51	4581
2026-01-10 02:18:54.01	217.48	22.00	-40.2	-42.0	20.6	0.00e+00	0	39	0	3145728000	51	4578
2026-01-10 02:18:57.68	217.25	21.49	-40.3	-42.1	20.6	0.00e+00	0	39	0	3166699520	51	4626
2026-01-10 02:19:00.62	217.08	21.09	-40.4	-42.2	20.5	0.00e+00	0	39	0	3183476736	51	4696
2026-01-10 02:19:04.36	216.86	20.60	-40.6	-42.4	20.2	0.00e+00	0	39	0	3204448256	52	4533
2026-01-10 02:19:07.09	216.71	20.24	-40.8	-42.6	20.0	0.00e+00	0	39	0	3220176896	52	4646
2026-01-10 02:19:10.98	216.50	19.74	-40.9	-42.8	19.9	0.00e+00	0	39	0	3242196992	52	4743
2026-01-10 02:19:13.73	216.35	19.39	-40.9	-42.8	19.9	0.00e+00	0	39	0	3256877056	52	4745
2026-01-10 02:19:17.47	216.16	18.93	-41.0	-42.9	19.8	0.00e+00	0	39	0	3277848576	52	4781
2026-01-10 02:19:20.35	216.01	18.57	-41.0	-42.9	19.8	0.00e+00	0	39	0	3294625792	52	4777
2026-01-10 02:19:23.65	215.85	18.18	-40.9	-42.8	19.9	0.00e+00	0	40	0	3312451584	52	4726
2026-01-10 02:19:26.37	215.73	17.85	-40.9	-42.8	19.9	0.00e+00	0	40	0	3328180224	52	4709
2026-01-10 02:19:29.67	215.57	17.46	-40.8	-42.6	20.0	0.00e+00	0	39	0	3347054592	52	4645
2026-01-10 02:19:32.48	215.45	17.14	-40.9	-42.7	19.9	0.00e+00	0	40	0	3362783232	52	4691
2026-01-10 02:19:35.63	215.31	16.78	-41.0	-42.8	19.8	0.00e+00	0	40	0	3380609024	52	4747
2026-01-10 02:19:39.12	215.16	16.39	-41.2	-43.1	19.6	0.00e+00	0	39	0	3400531968	53	4608
2026-01-10 02:19:41.84	215.04	16.08	-41.3	-43.2	19.4	0.00e+00	0	39	0	3415212032	53	4676
2026-01-10 02:19:45.14	214.91	15.72	-41.6	-43.5	19.1	0.00e+00	0	39	0	3434086400	53	4852
2026-01-10 02:19:48.21	214.78	15.39	-41.7	-43.7	19.0	0.00e+00	0	40	0	3450863616	54	4653
2026-01-10 02:19:51.24	214.67	15.07	-41.8	-43.8	18.9	0.00e+00	0	39	0	3468689408	54	4729
2026-01-10 02:19:54.54	214.54	14.72	-42.0	-44.0	18.7	0.00e+00	0	39	0	3486515200	54	4858
2026-01-10 02:19:57.26	214.44	14.44	-42.1	-44.1	18.5	0.00e+00	0	39	0	3502243840	54	4917
2026-01-10 02:20:00.55	214.32	14.10	-42.2	-44.3	18.4	0.00e+00	0	40	0	3520069632	55	4707
2026-01-10 02:20:03.28	214.22	13.82	-42.3	-44.3	18.3	0.00e+00	0	39	0	3535798272	55	4758
2026-01-10 02:20:06.57	214.11	13.49	-42.6	-44.7	18.0	0.00e+00	0	40	0	3554672640	55	4941
2026-01-10 02:20:09.29	214.01	13.23	-42.8	-44.8	18.0	0.00e+00	0	40	0	3569352704	56	4757
2026-01-10 02:20:12.59	213.90	12.90	-42.8	-44.9	17.9	0.00e+00	0	40	0	3588227072	56	4793
2026-01-10 02:20:15.52	213.81	12.62	-43.1	-45.2	17.7	0.00e+00	0	39	0	3605004288	56	4932
2026-01-10 02:20:18.53	213.71	12.33	-43.0	-45.1	17.7	0.00e+00	0	40	0	3621781504	57	4619
2026-01-10 02:20:21.54	213.62	12.05	-43.1	-45.2	17.6	0.00e+00	0	39	0	3638558720	57	4675
2026-01-10 02:20:24.54	213.53	11.77	-43.2	-45.3	17.5	0.00e+00	0	39	0	3655335936	57	4719
2026-01-10 02:20:27.56	213.44	11.49	-43.2	-45.4	17.4	0.00e+00	0	39	0	3672113152	57	4784
2026-01-10 02:20:30.56	213.35	11.22	-43.3	-45.5	17.3	0.00e+00	0	39	0	3689938944	57	4848
2026-01-10 02:20:33.57	213.26	10.94	-43.4	-45.5	17.3	0.00e+00	0	40	0	3706716160	57	4852
2026-01-10 02:20:36.58	213.18	10.67	-43.4	-45.6	17.2	0.00e+00	0	39	0	3723493376	57	4878
2026-01-10 02:20:39.58	213.09	10.41	-43.3	-45.5	17.2	0.00e+00	0	39	0	3740270592	57	4850
2026-01-10 02:20:42.59	213.01	10.15	-43.5	-45.7	17.0	0.00e+00	0	40	0	3757047808	57	4948
2026-01-10 02:20:45.63	212.93	9.88	-43.5	-45.7	17.1	0.00e+00	0	39	0	3773825024	58	4670
2026-01-10 02:20:49.26	212.84	9.57	-43.5	-45.7	17.0	0.00e+00	0	39	0	3794796544	58	4669
2026-01-10 02:20:52.01	212.77	9.34	-43.6	-45.8	16.9	0.00e+00	0	40	0	3809476608	58	4721
2026-01-10 02:20:55.78	212.67	9.02	-43.7	-45.9	16.8	0.00e+00	0	39	0	3831496704	58	4779
2026-01-10 02:20:58.50	212.60	8.80	-52.2	-64.4	3.8	8.47e-01	0	39	104	3837788160	75	15081
2026-01-10 02:21:02.27	212.51	8.49	-52.6	-64.7	3.8	8.47e-01	0	40	104	3837788160	75	15733
2026-01-10 02:21:05.10	212.45	8.26	-52.7	-64.8	3.8	8.46e-01	0	39	104	3837788160	76	14990
2026-01-10 02:21:08.26	212.37	8.01	-52.8	-64.9	3.8	8.46e-01	0	40	104	3837788160	76	15074
2026-01-10 02:21:11.18	212.31	7.77	-52.8	-64.8	3.8	8.47e-01	0	40	104	3837788160	76	15025
2026-01-10 02:21:14.45	212.23	7.51	-52.5	-64.9	3.8	8.47e-01	0	40	104	3837788160	76	15086
2026-01-10 02:21:17.37	212.17	7.29	-52.6	-64.8	3.8	8.47e-01	0	40	104	3837788160	76	14982
2026-01-10 02:21:20.88	212.10	7.01	-52.6	-64.9	3.8	8.47e-01	0	40	104	3837788160	76	15052
2026-01-10 02:21:23.60	212.04	6.81	-52.6	-64.8	3.8	8.47e-01	0	40	104	3837788160	76	14967
2026-01-10 02:21:26.91	211.97	6.55	-52.6	-64.8	3.8	8.47e-01	0	40	104	3837788160	76	14989
2026-01-10 02:21:29.63	211.91	6.35	-52.6	-64.8	3.8	8.47e-01	0	40	104	3837788160	76	14982
2026-01-10 02:21:32.93	211.85	6.10	-52.6	-64.8	3.8	8.47e-01	0	40	104	3837788160	76	14967
2026-01-10 02:21:35.66	211.80	5.90	-52.6	-64.8	3.8	8.46e-01	0	40	104	3837788160	76	14971
2026-01-10 02:21:38.96	211.73	5.66	-52.6	-64.8	3.8	8.48e-01	0	40	104	3837788160	76	14963
2026-01-10 02:21:41.68	211.68	5.46	-52.6	-64.9	3.8	8.46e-01	0	40	104	3837788160	76	15061
2026-01-10 02:21:44.98	211.62	5.22	-52.6	-64.8	3.8	8.47e-01	0	40	104	3837788160	76	15027
2026-01-10 02:21:47.71	211.57	5.03	-52.6	-64.8	3.8	8.47e-01	0	40	104	3837788160	76	14968

#Closed at: 2026-01-10 02:21:49
#Recorded file [3837 MB]: D:/Data/31040_260110_050900.dat