passes_logs/2026/01/10/T1/T1__20260110_010343_FENGYUN_3G_rec.log

#Pass ID: 20260110_010343_FENGYUN 3G
#Satellite: FENGYUN 3G
#Configuration: FENGYUN 3G
#almurnet v.1.7.20251203
#Start time: 2026-01-10 01:03:45

#Version: 2.0.20230620
#Station: T1
#Location: 37.570604 lon 55.790049 lat
#TLE: 1 56232U 23055A   26009.25964270  .00031369  00000+0  49445-3 0  9995
#TLE: 2 56232  49.9935  85.5429 0004254   0.7108 359.3865 15.53213378155304

#Time	Az	El	Level	Level2	SNR	BER	BlckErr	Temp	State	Recorded	gain1	gain2
2026-01-10 01:03:45.37	241.65	5.18	-51.7	-70.4	3.8	8.38e-01	0	42	0	0	75	30212
2026-01-10 01:03:47.37	241.48	5.33	-51.7	-70.4	3.8	8.46e-01	0	42	104	0	75	30251
2026-01-10 01:03:49.38	241.30	5.49	-51.7	-70.5	3.8	8.46e-01	0	42	104	0	75	30539
2026-01-10 01:03:51.39	241.12	5.64	-51.7	-70.5	3.8	8.47e-01	0	42	104	0	75	30574
2026-01-10 01:03:53.40	240.94	5.80	-51.7	-70.5	3.8	8.46e-01	0	42	104	0	75	30509
2026-01-10 01:03:55.41	240.75	5.96	-51.7	-70.4	3.8	8.46e-01	0	42	104	0	75	30170
2026-01-10 01:03:57.42	240.57	6.12	-51.7	-70.3	3.8	8.48e-01	0	42	104	0	75	29715
2026-01-10 01:03:59.42	240.38	6.28	-51.7	-70.3	3.8	8.48e-01	0	42	104	0	75	29889
2026-01-10 01:04:01.43	240.18	6.44	-51.7	-70.4	3.8	8.47e-01	0	42	104	0	75	30340
2026-01-10 01:04:03.44	239.99	6.60	-51.7	-70.4	3.8	8.47e-01	0	42	104	0	75	30113
2026-01-10 01:04:05.45	239.79	6.77	-51.7	-70.4	3.8	8.46e-01	0	42	104	0	75	30260
2026-01-10 01:04:07.46	239.58	6.93	-51.7	-70.5	3.8	8.47e-01	0	42	104	0	75	30477
2026-01-10 01:04:09.47	239.38	7.10	-51.7	-70.3	3.8	8.47e-01	0	42	104	0	75	29972
2026-01-10 01:04:11.47	239.17	7.27	-51.7	-70.2	3.8	8.47e-01	0	42	104	0	75	29377
2026-01-10 01:04:13.48	238.95	7.44	-51.7	-69.9	3.8	8.47e-01	0	42	104	0	75	28665
2026-01-10 01:04:15.49	238.74	7.61	-51.6	-69.5	3.8	8.48e-01	0	42	104	0	75	27142
2026-01-10 01:04:17.50	238.52	7.78	-51.6	-69.2	3.8	8.48e-01	0	42	104	0	75	26402
2026-01-10 01:04:19.51	238.29	7.96	-51.7	-70.0	3.8	8.46e-01	0	42	104	0	75	28866
2026-01-10 01:04:21.52	238.06	8.13	-51.7	-70.4	3.8	8.47e-01	0	42	104	0	75	30044
2026-01-10 01:04:23.53	237.83	8.31	-51.6	-69.6	3.8	8.47e-01	0	42	104	0	75	27589
2026-01-10 01:04:25.54	237.59	8.49	-51.6	-69.2	3.8	8.48e-01	0	42	104	0	75	26405
2026-01-10 01:04:27.55	237.35	8.67	-51.3	-63.0	6.2	7.69e-01	0	42	0	0	74	13670
2026-01-10 01:04:29.56	237.11	8.85	-50.2	-56.9	12.3	9.58e-02	0	42	0	0	72	7604
2026-01-10 01:04:31.57	236.86	9.04	-48.7	-53.4	16.1	8.52e-04	0	42	0	0	69	6026
2026-01-10 01:04:33.58	236.61	9.22	-49.3	-54.5	15.5	0.00e+00	0	42	0	0	69	6831
2026-01-10 01:04:35.74	236.33	9.42	-45.8	-48.7	20.4	1.67e-04	0	42	0	0	63	4962
2026-01-10 01:04:37.68	236.08	9.61	-46.7	-50.0	18.7	1.60e-05	0	42	0	0	65	5153
2026-01-10 01:04:39.87	235.79	9.81	-44.5	-47.1	22.2	0.00e+00	0	42	0	0	60	4896
2026-01-10 01:04:41.88	235.51	10.01	-44.6	-47.2	22.2	0.00e+00	0	42	0	0	60	4935
2026-01-10 01:04:43.89	235.24	10.20	-44.2	-46.7	22.6	0.00e+00	0	42	0	0	60	4705
2026-01-10 01:04:45.89	234.96	10.40	-44.2	-46.7	22.6	0.00e+00	0	42	0	0	60	4700
2026-01-10 01:04:47.90	234.67	10.60	-44.5	-47.0	22.3	0.00e+00	0	42	0	0	60	4837
2026-01-10 01:04:49.90	234.38	10.79	-44.6	-47.2	22.2	0.00e+00	0	42	0	0	60	4945
2026-01-10 01:04:51.91	234.08	11.00	-44.6	-47.1	22.3	0.00e+00	0	42	0	0	60	4911
2026-01-10 01:04:54.03	233.76	11.21	-44.1	-46.5	22.8	0.00e+00	0	42	0	0	60	4594
2026-01-10 01:04:56.24	233.42	11.44	-44.0	-46.4	23.0	0.00e+00	0	42	0	0	59	4797
2026-01-10 01:04:58.55	233.05	11.68	-44.0	-46.4	23.0	0.00e+00	0	43	0	0	59	4800
2026-01-10 01:05:00.56	232.73	11.89	-43.6	-46.0	23.4	0.00e+00	0	42	0	0	59	4556
2026-01-10 01:05:02.57	232.40	12.10	-43.7	-46.0	23.3	0.00e+00	0	42	0	0	59	4597
2026-01-10 01:05:04.57	232.07	12.31	-43.9	-46.3	23.1	0.00e+00	0	43	0	0	59	4747
2026-01-10 01:05:06.58	231.72	12.53	-44.0	-46.4	23.0	0.00e+00	0	42	0	0	59	4813
2026-01-10 01:05:08.59	231.38	12.75	-43.8	-46.1	23.3	0.00e+00	0	42	0	0	59	4643
2026-01-10 01:05:10.69	231.00	12.98	-43.4	-45.7	23.7	0.00e+00	0	42	0	0	58	4673
2026-01-10 01:05:13.00	230.58	13.23	-43.4	-45.7	23.6	0.00e+00	0	43	0	0	58	4699
2026-01-10 01:05:15.01	230.21	13.46	-43.5	-45.8	23.6	0.00e+00	0	43	0	0	58	4707
2026-01-10 01:05:17.01	229.84	13.68	-43.5	-45.8	23.6	0.00e+00	0	42	0	0	58	4750
2026-01-10 01:05:19.03	229.45	13.91	-43.4	-45.8	23.6	0.00e+00	0	42	0	0	58	4709
2026-01-10 01:05:21.04	229.05	14.14	-43.3	-45.6	23.9	0.00e+00	0	42	0	0	58	4623
2026-01-10 01:05:23.05	228.65	14.37	-43.1	-45.4	24.1	0.00e+00	0	42	0	0	58	4495
2026-01-10 01:05:25.05	228.24	14.61	-42.8	-45.0	24.4	0.00e+00	0	42	0	0	57	4578
2026-01-10 01:05:27.06	227.82	14.85	-42.7	-44.9	24.6	0.00e+00	0	42	0	0	57	4495
2026-01-10 01:05:29.07	227.39	15.08	-42.9	-45.1	24.4	0.00e+00	0	42	0	0	57	4609
2026-01-10 01:05:31.07	226.96	15.32	-43.0	-45.2	24.3	0.00e+00	0	42	0	0	57	4672
2026-01-10 01:05:33.06	226.52	15.57	-42.8	-45.0	24.4	0.00e+00	0	42	0	0	57	4562
2026-01-10 01:05:35.21	226.03	15.83	-42.5	-44.7	24.7	0.00e+00	0	42	0	0	57	4394
2026-01-10 01:05:37.18	225.57	16.07	-42.1	-44.2	25.2	0.00e+00	0	42	0	0	56	4402
2026-01-10 01:05:39.19	225.10	16.32	-41.8	-43.9	25.3	0.00e+00	0	42	0	0	55	4535
2026-01-10 01:05:41.19	224.61	16.57	-42.4	-44.5	24.8	0.00e+00	0	43	0	0	55	4846
2026-01-10 01:05:43.20	224.12	16.82	-42.5	-44.6	24.6	0.00e+00	0	42	0	0	55	4917
2026-01-10 01:05:45.21	223.61	17.08	-42.5	-44.7	24.6	0.00e+00	0	42	0	0	55	4956
2026-01-10 01:05:47.21	223.10	17.33	-42.1	-44.2	25.0	0.00e+00	0	42	0	0	55	4695
2026-01-10 01:05:49.22	222.57	17.59	-41.8	-43.9	25.2	0.00e+00	0	43	0	0	55	4540
2026-01-10 01:05:51.23	222.03	17.85	-41.5	-43.5	25.6	0.00e+00	0	42	0	0	54	4575
2026-01-10 01:05:53.24	221.48	18.12	-42.0	-44.1	25.1	0.00e+00	0	42	0	0	54	4912
2026-01-10 01:05:55.24	220.92	18.38	-42.0	-44.1	25.2	0.00e+00	0	42	0	0	54	4889
2026-01-10 01:05:57.25	220.34	18.64	-41.9	-44.0	25.2	0.00e+00	0	42	0	0	54	4866
2026-01-10 01:05:59.26	219.76	18.91	-41.8	-43.9	25.3	0.00e+00	0	42	0	0	54	4768
2026-01-10 01:06:01.26	219.16	19.18	-41.6	-43.7	25.5	0.00e+00	0	42	0	0	54	4655
2026-01-10 01:06:03.27	218.54	19.45	-41.8	-43.9	25.4	0.00e+00	0	43	0	0	54	4770
2026-01-10 01:06:05.25	217.93	19.71	-41.6	-43.7	25.5	0.00e+00	0	42	0	0	54	4660
2026-01-10 01:06:07.46	217.22	20.01	-41.8	-43.8	25.4	0.00e+00	0	42	0	0	54	4759
2026-01-10 01:06:09.47	216.57	20.28	-41.3	-43.4	25.8	0.00e+00	0	42	0	0	54	4498
2026-01-10 01:06:11.47	215.90	20.55	-41.2	-43.2	26.0	0.00e+00	0	42	0	0	54	4400
2026-01-10 01:06:13.48	215.22	20.83	-40.7	-42.6	26.5	0.00e+00	0	42	0	0	53	4380
2026-01-10 01:06:15.49	214.52	21.10	-40.9	-42.9	26.2	0.00e+00	0	42	0	0	53	4518
2026-01-10 01:06:17.49	213.81	21.37	-41.4	-43.4	25.8	0.00e+00	0	42	0	0	53	4778
2026-01-10 01:06:19.50	213.08	21.65	-41.6	-43.6	25.6	0.00e+00	0	42	0	0	53	4919
2026-01-10 01:06:21.72	212.26	21.95	-41.0	-43.0	26.2	0.00e+00	0	42	0	0	53	4569
2026-01-10 01:06:23.72	211.50	22.22	-40.9	-42.9	26.2	0.00e+00	0	42	0	0	53	4544
2026-01-10 01:06:25.73	210.72	22.49	-40.4	-42.3	26.8	0.00e+00	0	42	0	0	52	4481
2026-01-10 01:06:27.73	209.93	22.76	-40.6	-42.6	26.6	0.00e+00	0	42	0	0	52	4615
2026-01-10 01:06:29.70	209.14	23.02	-40.6	-42.6	26.6	0.00e+00	0	42	0	0	52	4630
2026-01-10 01:06:31.74	208.30	23.30	-40.9	-42.9	26.2	0.00e+00	0	42	0	0	52	4792
2026-01-10 01:06:33.81	207.43	23.57	-40.7	-42.7	26.5	0.00e+00	0	42	0	0	52	4670
2026-01-10 01:06:35.84	206.56	23.83	-40.5	-42.5	26.6	0.00e+00	0	42	0	0	52	4571
2026-01-10 01:06:37.85	205.68	24.09	-40.6	-42.6	26.6	0.00e+00	0	42	0	0	52	4616
2026-01-10 01:06:39.85	204.79	24.35	-40.3	-42.2	26.9	0.00e+00	0	42	0	0	52	4427
2026-01-10 01:06:41.86	203.88	24.60	-40.2	-42.1	27.0	0.00e+00	0	42	0	0	52	4375
2026-01-10 01:06:43.87	202.95	24.85	-40.2	-42.1	26.9	0.00e+00	0	42	0	0	52	4383
2026-01-10 01:06:45.87	202.01	25.10	-40.4	-42.3	26.8	0.00e+00	0	42	0	0	52	4489
2026-01-10 01:06:47.88	201.05	25.34	-40.1	-42.0	27.0	0.00e+00	0	42	0	0	52	4336
2026-01-10 01:06:49.89	200.07	25.57	-40.1	-42.0	27.0	0.00e+00	0	43	0	0	52	4339
2026-01-10 01:06:51.89	199.08	25.80	-40.1	-42.0	27.1	0.00e+00	0	42	0	0	52	4314
2026-01-10 01:06:53.90	198.07	26.03	-40.2	-42.1	26.9	0.00e+00	0	42	0	0	52	4375
2026-01-10 01:06:55.90	197.04	26.24	-40.0	-41.9	27.2	0.00e+00	0	42	0	0	51	4526
2026-01-10 01:06:57.91	196.00	26.45	-40.0	-42.0	27.1	0.00e+00	0	42	0	0	51	4548
2026-01-10 01:06:59.95	194.92	26.66	-40.2	-42.1	27.0	0.00e+00	0	42	0	0	51	4612
2026-01-10 01:07:02.43	193.59	26.90	-39.9	-41.8	27.3	0.00e+00	0	42	0	0	51	4471
2026-01-10 01:07:04.44	192.50	27.09	-39.9	-41.9	27.3	0.00e+00	0	42	0	0	51	4495
2026-01-10 01:07:06.48	191.37	27.26	-40.1	-42.0	27.1	0.00e+00	0	42	0	0	51	4577
2026-01-10 01:07:08.48	190.26	27.43	-39.7	-41.6	27.5	0.00e+00	0	42	0	0	51	4368
2026-01-10 01:07:10.49	189.12	27.59	-39.3	-41.2	27.8	0.00e+00	0	42	0	0	50	4410
2026-01-10 01:07:12.50	187.98	27.73	-39.5	-41.4	27.6	0.00e+00	0	42	0	0	50	4504
2026-01-10 01:07:14.50	186.82	27.87	-39.3	-41.1	27.8	0.00e+00	0	42	0	0	50	4390
2026-01-10 01:07:16.86	185.45	28.02	-39.5	-41.3	27.7	0.00e+00	0	42	0	0	50	4479
2026-01-10 01:07:19.01	184.19	28.14	-40.1	-42.1	27.1	0.00e+00	0	42	0	0	50	4873
2026-01-10 01:07:21.27	182.85	28.25	-40.2	-42.1	27.0	0.00e+00	0	42	0	0	51	4641
2026-01-10 01:07:23.43	181.56	28.34	-40.3	-42.2	27.0	0.00e+00	0	42	0	0	51	4676
2026-01-10 01:07:25.59	180.26	28.42	-40.4	-42.4	26.8	0.00e+00	0	42	0	0	51	4787
2026-01-10 01:07:27.62	179.04	28.48	-40.3	-42.3	26.9	0.00e+00	0	42	0	0	51	4715
2026-01-10 01:07:29.62	177.83	28.53	-39.9	-41.8	27.2	0.00e+00	0	42	0	0	51	4479
2026-01-10 01:07:31.63	176.60	28.56	-40.2	-42.1	27.0	0.00e+00	0	42	0	0	51	4613
2026-01-10 01:07:33.64	175.38	28.58	-40.1	-42.1	26.9	0.00e+00	0	42	0	0	51	4599
2026-01-10 01:07:35.64	174.16	28.59	-40.0	-41.9	27.3	0.00e+00	0	42	0	0	51	4508
2026-01-10 01:07:37.65	172.94	28.58	-40.0	-41.9	27.3	0.00e+00	0	42	0	0	51	4523
2026-01-10 01:07:39.66	171.72	28.57	-40.2	-42.1	27.1	0.00e+00	0	42	0	0	51	4624
2026-01-10 01:07:41.84	170.39	28.53	-40.0	-42.0	27.2	0.00e+00	0	42	0	0	51	4558
2026-01-10 01:07:43.84	169.18	28.49	-40.2	-42.2	26.9	0.00e+00	0	42	0	0	51	4667
2026-01-10 01:07:45.84	167.97	28.43	-40.1	-42.0	27.1	0.00e+00	0	42	0	0	51	4581
2026-01-10 01:07:47.85	166.77	28.36	-40.4	-42.3	26.9	0.00e+00	0	42	0	0	51	4753
2026-01-10 01:07:49.85	165.57	28.28	-40.3	-42.2	27.0	0.00e+00	0	42	0	0	51	4697
2026-01-10 01:07:51.86	164.38	28.18	-40.2	-42.1	27.1	0.00e+00	0	42	0	0	51	4643
2026-01-10 01:07:53.90	163.18	28.08	-40.5	-42.4	26.9	0.00e+00	0	42	0	0	51	4813
2026-01-10 01:07:55.83	162.05	27.96	-40.2	-42.1	27.0	0.00e+00	0	42	0	0	51	4644
2026-01-10 01:07:57.85	160.88	27.83	-40.2	-42.2	27.0	0.00e+00	0	42	0	0	51	4654
2026-01-10 01:07:59.86	159.72	27.69	-40.4	-42.3	26.9	0.00e+00	0	42	0	0	51	4746
2026-01-10 01:08:01.89	158.57	27.54	-40.1	-42.1	27.1	0.00e+00	0	42	0	0	51	4610
2026-01-10 01:08:03.97	157.40	27.38	-39.8	-41.8	27.3	0.00e+00	0	42	0	0	51	4449
2026-01-10 01:08:05.97	156.29	27.21	-39.8	-41.8	27.2	0.00e+00	0	42	0	0	51	4453
2026-01-10 01:08:07.98	155.19	27.03	-40.0	-41.9	27.3	0.00e+00	0	42	0	0	51	4518
2026-01-10 01:08:10.20	153.98	26.82	-39.3	-41.1	27.9	0.00e+00	0	42	0	0	50	4389
2026-01-10 01:08:12.20	152.92	26.63	-39.6	-41.5	27.6	0.00e+00	0	42	0	0	50	4560
2026-01-10 01:08:14.21	151.86	26.42	-40.6	-42.6	26.7	0.00e+00	0	42	0	0	51	4872
2026-01-10 01:08:16.21	150.83	26.21	-40.4	-42.4	26.8	0.00e+00	0	42	0	0	52	4516
2026-01-10 01:08:18.28	149.77	25.99	-40.0	-41.9	27.1	0.00e+00	0	42	0	0	52	4291
2026-01-10 01:08:20.37	148.72	25.75	-40.4	-42.4	26.8	0.00e+00	0	42	0	0	51	4811
2026-01-10 01:08:22.40	147.72	25.52	-40.4	-42.4	26.8	0.00e+00	0	42	0	0	51	4778
2026-01-10 01:08:24.41	146.75	25.28	-40.6	-42.6	26.6	0.00e+00	0	42	0	0	52	4629
2026-01-10 01:08:26.41	145.80	25.04	-40.5	-42.4	26.7	0.00e+00	0	42	0	0	52	4537
2026-01-10 01:08:28.42	144.86	24.80	-40.8	-42.8	26.5	0.00e+00	0	42	0	0	52	4716
2026-01-10 01:08:30.42	143.94	24.55	-40.5	-42.5	26.7	0.00e+00	0	42	0	0	52	4562
2026-01-10 01:08:32.43	143.04	24.29	-40.8	-42.8	26.4	0.00e+00	0	42	0	0	52	4723
2026-01-10 01:08:34.43	142.15	24.04	-40.5	-42.5	26.7	0.00e+00	0	42	0	0	52	4552
2026-01-10 01:08:36.55	141.23	23.76	-40.2	-42.1	27.0	0.00e+00	0	42	0	0	52	4389
2026-01-10 01:08:38.75	140.30	23.48	-40.4	-42.4	26.8	0.00e+00	0	42	0	0	52	4497
2026-01-10 01:08:40.75	139.47	23.21	-40.9	-42.9	26.3	0.00e+00	0	42	0	0	52	4796
2026-01-10 01:08:42.76	138.65	22.94	-40.7	-42.8	26.4	0.00e+00	0	42	0	0	52	4718
2026-01-10 01:08:44.76	137.85	22.68	-40.5	-42.5	26.7	0.00e+00	0	42	0	0	52	4551
2026-01-10 01:08:46.77	137.06	22.41	-40.8	-42.8	26.4	0.00e+00	0	42	0	0	52	4735
2026-01-10 01:08:48.71	136.32	22.15	-41.0	-43.0	26.1	0.00e+00	0	42	0	0	52	4843
2026-01-10 01:08:50.72	135.56	21.87	-41.0	-43.1	26.2	0.00e+00	0	42	0	0	52	4873
2026-01-10 01:08:52.71	134.83	21.60	-41.2	-43.2	26.0	0.00e+00	0	42	0	0	52	4965
2026-01-10 01:08:54.72	134.11	21.33	-41.0	-43.0	26.2	0.00e+00	0	42	0	0	53	4587
2026-01-10 01:08:56.73	133.40	21.06	-41.1	-43.2	26.0	0.00e+00	0	42	0	0	53	4655
2026-01-10 01:08:58.74	132.71	20.79	-41.5	-43.6	25.7	0.00e+00	0	42	0	0	53	4891
2026-01-10 01:09:00.74	132.03	20.51	-41.8	-44.0	25.3	0.00e+00	0	42	0	0	54	4819
2026-01-10 01:09:02.75	131.36	20.24	-41.3	-43.4	25.8	0.00e+00	0	42	0	0	54	4524
2026-01-10 01:09:04.81	130.70	19.96	-41.5	-43.6	25.7	0.00e+00	0	42	0	0	54	4617
2026-01-10 01:09:06.83	130.06	19.69	-41.6	-43.7	25.6	0.00e+00	0	42	0	0	54	4674
2026-01-10 01:09:08.83	129.44	19.42	-41.6	-43.6	25.5	0.00e+00	0	42	0	0	54	4644
2026-01-10 01:09:10.84	128.83	19.16	-41.8	-43.9	25.4	0.00e+00	0	42	0	0	54	4777
2026-01-10 01:09:12.85	128.23	18.89	-42.0	-44.1	25.2	0.00e+00	0	42	0	0	54	4913
2026-01-10 01:09:14.86	127.65	18.62	-41.8	-43.9	25.4	0.00e+00	0	42	0	0	54	4768
2026-01-10 01:09:16.86	127.08	18.36	-41.8	-43.9	25.3	0.00e+00	0	42	0	0	54	4791
2026-01-10 01:09:18.96	126.49	18.09	-42.0	-44.1	25.2	0.00e+00	0	42	0	0	54	4892
2026-01-10 01:09:20.96	125.95	17.83	-42.0	-44.1	25.1	0.00e+00	0	42	0	0	54	4923
2026-01-10 01:09:22.97	125.41	17.57	-42.2	-44.3	25.0	0.00e+00	0	42	0	0	54	5016
2026-01-10 01:09:25.12	124.85	17.29	-42.4	-44.6	24.7	0.00e+00	0	42	0	0	55	4885
2026-01-10 01:09:27.16	124.33	17.03	-42.2	-44.4	24.9	0.00e+00	0	42	0	0	55	4792
2026-01-10 01:09:29.23	123.81	16.77	-42.3	-44.4	24.8	0.00e+00	0	42	0	0	55	4793
2026-01-10 01:09:31.44	123.27	16.49	-42.6	-44.8	24.5	0.00e+00	0	42	0	0	55	5024
2026-01-10 01:09:33.45	122.79	16.24	-42.9	-45.2	24.3	0.00e+00	0	42	0	0	56	4930
2026-01-10 01:09:35.46	122.32	15.99	-42.9	-45.1	24.4	0.00e+00	0	42	0	0	56	4900
2026-01-10 01:09:37.46	121.86	15.75	-42.7	-44.9	24.5	0.00e+00	0	42	0	0	56	4787
2026-01-10 01:09:39.58	121.39	15.49	-42.8	-45.0	24.5	0.00e+00	0	42	0	0	56	4825
2026-01-10 01:09:41.59	120.95	15.25	-43.0	-45.2	24.2	0.00e+00	0	42	0	0	56	4969
2026-01-10 01:09:43.83	120.47	14.98	-43.3	-45.6	23.9	0.00e+00	0	42	0	0	57	4897
2026-01-10 01:09:45.83	120.05	14.75	-43.6	-45.9	23.6	0.00e+00	0	42	0	0	58	4800
2026-01-10 01:09:47.87	119.63	14.51	-43.7	-46.1	23.4	0.00e+00	0	42	0	0	58	4879
2026-01-10 01:09:49.99	119.20	14.26	-43.6	-45.9	23.6	0.00e+00	0	42	0	0	58	4800
2026-01-10 01:09:52.24	118.75	14.00	-43.7	-46.0	23.5	0.00e+00	0	42	0	0	58	4850
2026-01-10 01:09:54.27	118.36	13.77	-43.9	-46.3	23.3	0.00e+00	0	42	0	0	58	4987
2026-01-10 01:09:56.28	117.98	13.55	-44.0	-46.4	23.1	0.00e+00	0	42	0	0	58	5096
2026-01-10 01:09:58.28	117.61	13.32	-44.0	-46.4	23.0	0.00e+00	0	42	0	0	58	5087
2026-01-10 01:10:00.29	117.25	13.10	-43.9	-46.3	23.2	0.00e+00	0	42	0	0	58	5012
2026-01-10 01:10:02.30	116.89	12.88	-44.1	-46.5	23.0	0.00e+00	0	42	0	0	58	5145
2026-01-10 01:10:04.30	116.54	12.66	-44.2	-46.7	22.8	0.00e+00	0	42	0	0	59	4928
2026-01-10 01:10:06.31	116.19	12.45	-44.3	-46.8	22.6	0.00e+00	0	42	0	0	59	5032
2026-01-10 01:10:08.25	115.87	12.24	-44.4	-46.9	22.5	0.00e+00	0	42	0	0	59	5090
2026-01-10 01:10:10.32	115.52	12.02	-44.4	-46.9	22.5	0.00e+00	0	42	0	0	59	5098
2026-01-10 01:10:12.35	115.20	11.81	-44.5	-47.0	22.5	0.00e+00	0	42	0	0	59	5108
2026-01-10 01:10:14.36	114.88	11.60	-44.6	-47.2	22.3	0.00e+00	0	42	0	0	59	5254
2026-01-10 01:10:16.37	114.56	11.39	-44.6	-47.2	22.2	0.00e+00	0	42	0	0	60	4953
2026-01-10 01:10:18.37	114.26	11.19	-44.6	-47.2	22.2	0.00e+00	0	42	0	0	60	4953
2026-01-10 01:10:20.37	113.96	10.99	-45.0	-47.7	21.7	0.00e+00	0	42	0	0	60	5256
2026-01-10 01:10:22.38	113.66	10.79	-45.2	-47.9	21.5	0.00e+00	0	42	0	0	60	5345
2026-01-10 01:10:24.39	113.37	10.59	-45.3	-48.0	21.3	0.00e+00	0	42	0	0	61	5157
2026-01-10 01:10:26.48	113.07	10.38	-45.1	-47.8	21.5	0.00e+00	0	42	0	0	61	5036
2026-01-10 01:10:28.49	112.79	10.19	-44.9	-47.6	21.8	0.00e+00	0	42	0	0	61	4876
2026-01-10 01:10:30.49	112.52	10.00	-44.9	-47.5	21.8	0.00e+00	0	42	0	0	61	4848
2026-01-10 01:10:32.61	112.23	9.79	-45.0	-47.8	21.6	0.00e+00	0	42	0	0	61	4985
2026-01-10 01:10:34.65	111.97	9.60	-45.5	-48.3	21.0	0.00e+00	0	42	0	0	61	5334
2026-01-10 01:10:36.72	111.70	9.41	-45.6	-48.6	20.7	0.00e+00	0	42	0	0	61	5467
2026-01-10 01:10:38.73	111.44	9.22	-45.9	-48.9	20.4	0.00e+00	0	42	0	0	62	5348
2026-01-10 01:10:40.74	111.19	9.04	-45.8	-48.8	20.5	0.00e+00	0	42	0	0	62	5317
2026-01-10 01:10:42.74	110.94	8.85	-52.1	-70.6	3.8	7.38e-03	0	42	104	0	74	32896
2026-01-10 01:10:44.75	110.70	8.67	-52.3	-71.0	3.8	8.06e-01	0	42	104	0	75	32393
2026-01-10 01:10:46.76	110.46	8.49	-52.4	-71.1	3.8	8.47e-01	0	42	104	0	75	32914
2026-01-10 01:10:48.77	110.23	8.31	-52.3	-71.3	3.8	8.48e-01	0	42	104	0	75	33383
2026-01-10 01:10:50.78	110.00	8.14	-52.3	-71.3	3.8	8.47e-01	0	42	104	0	75	33523
2026-01-10 01:10:52.79	109.77	7.96	-52.4	-71.4	3.8	8.47e-01	0	42	104	0	75	33721
2026-01-10 01:10:54.80	109.55	7.79	-52.4	-71.4	3.8	8.46e-01	0	42	104	0	75	33872
2026-01-10 01:10:56.80	109.33	7.62	-52.4	-71.4	3.8	8.46e-01	0	42	104	0	75	33905
2026-01-10 01:10:58.81	109.11	7.44	-52.3	-71.4	3.8	8.47e-01	0	42	104	0	75	33993
2026-01-10 01:11:00.82	108.90	7.28	-52.3	-71.5	3.8	8.47e-01	0	42	104	0	75	34099
2026-01-10 01:11:02.83	108.69	7.11	-52.5	-71.4	3.8	8.47e-01	0	42	104	0	75	33991
2026-01-10 01:11:05.09	108.46	6.92	-52.6	-71.4	3.8	8.47e-01	0	42	104	0	75	33926
2026-01-10 01:11:07.10	108.26	6.75	-52.5	-71.4	3.8	8.48e-01	0	42	104	0	75	33787
2026-01-10 01:11:09.11	108.06	6.59	-52.5	-71.4	3.8	8.47e-01	0	42	104	0	75	33815
2026-01-10 01:11:11.12	107.87	6.43	-52.5	-71.4	3.8	8.47e-01	0	42	104	0	75	33713
2026-01-10 01:11:13.13	107.68	6.27	-52.5	-71.4	3.8	8.47e-01	0	42	104	0	75	33782
2026-01-10 01:11:15.14	107.49	6.11	-52.5	-71.4	3.8	8.47e-01	0	42	104	0	75	33814
2026-01-10 01:11:17.14	107.30	5.95	-52.5	-71.4	3.8	8.47e-01	0	42	104	0	75	33773
2026-01-10 01:11:19.15	107.12	5.79	-52.5	-71.3	3.8	8.46e-01	0	42	104	0	75	33662
2026-01-10 01:11:21.16	106.94	5.64	-52.5	-71.3	3.8	8.46e-01	0	42	104	0	75	33674
2026-01-10 01:11:23.17	106.76	5.48	-52.5	-71.3	3.8	8.48e-01	0	42	104	0	75	33629
2026-01-10 01:11:25.18	106.58	5.33	-52.5	-71.4	3.8	8.46e-01	0	42	104	0	75	33697
2026-01-10 01:11:27.19	106.41	5.17	-52.5	-71.4	3.8	8.47e-01	0	42	104	0	75	33700
2026-01-10 01:11:29.19	106.24	5.02	-52.5	-71.4	3.8	8.47e-01	0	42	104	0	75	33732

#Closed at: 2026-01-10 01:11:31
#Recorded file [0 MB]: D:/Data/31040_260110_040345.dat