passes_logs/2026/01/10/T1/T1__20260110_022853_AQUA_rec.log

#Pass ID: 20260110_022853_AQUA
#Satellite: AQUA
#Configuration: AQUA
#almurnet v.1.7.20251203
#Start time: 2026-01-10 02:28:55

#Version: 2.0.20230620
#Station: T1
#Location: 37.570604 lon 55.790049 lat
#TLE: 1 27424U 02022A   26009.00333547  .00001046  00000+0  21942-3 0  9998
#TLE: 2 27424  98.4075 335.3304 0002025  85.7625 349.1392 14.61808998260011

#Time	Az	El	Level	Level2	SNR	BER	BlckErr	Temp	State	Recorded	gain1	gain2
2026-01-10 02:28:55.23	6.34	5.12	-50.7	-73.9	3.9	7.43e-01	0	37	0	0	71	56861
2026-01-10 02:28:58.23	6.13	5.33	-51.1	-73.8	3.8	7.44e-01	0	38	104	0	72	53104
2026-01-10 02:29:01.25	5.92	5.53	-51.0	-73.7	3.8	7.46e-01	0	38	104	0	72	52654
2026-01-10 02:29:04.26	5.70	5.75	-51.0	-73.7	3.8	7.45e-01	0	38	104	0	72	52496
2026-01-10 02:29:07.27	5.48	5.96	-51.0	-73.7	3.8	7.47e-01	0	38	104	0	72	52724
2026-01-10 02:29:10.28	5.26	6.17	-51.1	-73.7	3.8	7.45e-01	0	38	104	0	72	52756
2026-01-10 02:29:13.30	5.03	6.39	-51.1	-73.8	3.8	7.47e-01	0	38	104	0	72	52963
2026-01-10 02:29:16.31	4.80	6.60	-51.0	-73.7	3.8	7.47e-01	0	38	104	0	72	52541
2026-01-10 02:29:19.32	4.56	6.82	-51.0	-73.6	3.8	7.49e-01	0	38	104	0	72	51776
2026-01-10 02:29:22.34	4.32	7.04	-51.0	-73.4	3.8	7.43e-01	0	38	104	0	72	50897
2026-01-10 02:29:25.35	4.08	7.26	-51.0	-73.1	3.8	7.47e-01	0	39	104	0	72	48929
2026-01-10 02:29:28.37	3.83	7.48	-51.0	-73.1	3.8	7.44e-01	0	39	104	0	72	48760
2026-01-10 02:29:31.38	3.57	7.71	-51.0	-73.8	3.8	7.48e-01	0	39	104	0	72	53070
2026-01-10 02:29:34.39	3.32	7.93	-50.8	-71.5	3.8	7.42e-01	0	39	104	0	72	40597
2026-01-10 02:29:37.40	3.05	8.16	-50.3	-68.1	3.8	7.46e-01	0	39	104	0	72	27430
2026-01-10 02:29:40.41	2.79	8.39	-49.8	-65.8	3.8	7.48e-01	0	39	104	0	71	22497
2026-01-10 02:29:43.43	2.52	8.62	-49.4	-64.7	3.8	7.46e-01	0	39	104	0	70	20992
2026-01-10 02:29:46.44	2.24	8.86	-49.4	-64.9	3.8	7.46e-01	0	39	104	0	70	21299
2026-01-10 02:29:49.45	1.96	9.09	-50.2	-68.1	3.8	7.44e-01	0	39	104	0	71	29209
2026-01-10 02:29:52.47	1.67	9.33	-50.3	-71.2	3.9	7.40e-01	0	40	104	0	72	39254
2026-01-10 02:29:55.48	1.38	9.57	-48.4	-61.5	3.8	7.46e-01	0	39	104	0	68	16252
2026-01-10 02:29:58.49	1.08	9.81	-48.5	-61.5	3.8	7.46e-01	0	39	104	0	68	16155
2026-01-10 02:30:01.50	0.78	10.05	-50.9	-71.2	3.9	7.41e-01	0	39	104	0	72	39237
2026-01-10 02:30:04.51	0.47	10.30	-51.3	-68.1	3.8	7.43e-01	0	39	104	0	73	26128
2026-01-10 02:30:07.53	0.15	10.54	-51.2	-67.0	3.8	7.49e-01	0	40	104	0	74	21721
2026-01-10 02:30:10.54	359.83	10.79	-52.1	-71.7	3.8	7.45e-01	0	40	104	0	75	35252
2026-01-10 02:30:13.54	359.51	11.04	-48.2	-61.2	3.8	7.45e-01	0	40	104	0	68	15632
2026-01-10 02:30:16.55	359.18	11.29	-47.7	-60.9	3.8	7.47e-01	0	39	104	0	67	16049
2026-01-10 02:30:19.56	358.84	11.55	-51.6	-66.7	4.0	7.44e-01	0	40	104	0	75	19687
2026-01-10 02:30:22.58	358.49	11.80	-49.5	-62.8	3.8	7.49e-01	0	40	104	0	70	16701
2026-01-10 02:30:25.66	358.13	12.07	-48.1	-61.2	3.8	7.42e-01	0	40	104	0	68	15615
2026-01-10 02:30:28.64	357.77	12.33	-49.8	-63.1	3.8	7.48e-01	0	40	104	0	71	16410
2026-01-10 02:30:31.73	357.39	12.60	-47.7	-50.9	21.7	6.02e-01	0	40	0	0	67	5078
2026-01-10 02:30:35.11	356.97	12.89	-47.5	-50.7	22.1	6.05e-01	0	40	0	6291456	66	5236
2026-01-10 02:30:37.88	356.62	13.14	-47.6	-50.7	22.1	6.03e-01	0	40	0	11534336	66	5276
2026-01-10 02:30:41.17	356.19	13.43	-47.8	-51.2	21.6	5.99e-01	0	40	0	17825792	66	5529
2026-01-10 02:30:44.04	355.81	13.69	-47.5	-50.7	22.0	5.99e-01	0	40	0	23068672	66	5272
2026-01-10 02:30:47.19	355.39	13.97	-47.5	-50.6	22.2	6.01e-01	0	40	0	28835840	66	5204
2026-01-10 02:30:50.07	354.99	14.24	-47.4	-50.4	22.4	6.01e-01	0	40	0	34603008	66	5096
2026-01-10 02:30:53.39	354.52	14.54	-47.3	-50.4	22.3	6.03e-01	0	40	0	40894464	66	5100
2026-01-10 02:30:56.26	354.11	14.81	-47.3	-50.4	22.4	6.01e-01	0	40	0	46137344	66	5079
2026-01-10 02:30:59.54	353.63	15.11	-47.6	-50.6	22.2	6.02e-01	0	40	0	52428800	66	5209
2026-01-10 02:31:02.42	353.20	15.38	-47.6	-50.6	22.3	6.03e-01	0	40	0	57671680	66	5163
2026-01-10 02:31:06.15	352.63	15.74	-47.5	-50.5	22.4	5.99e-01	0	40	0	64487424	66	5116
2026-01-10 02:31:08.94	352.19	16.00	-47.3	-50.6	22.4	6.01e-01	0	40	0	69730304	66	5172
2026-01-10 02:31:13.07	351.52	16.40	-47.0	-50.2	22.6	6.02e-01	0	40	0	77594624	66	4966
2026-01-10 02:31:15.82	351.07	16.67	-47.1	-50.2	22.7	6.03e-01	0	40	0	82837504	66	4947
2026-01-10 02:31:19.58	350.44	17.03	-47.4	-50.3	22.6	6.02e-01	0	40	0	89653248	66	4994
2026-01-10 02:31:22.43	349.95	17.31	-47.2	-50.2	22.7	6.04e-01	0	40	0	94896128	66	4952
2026-01-10 02:31:26.55	349.22	17.72	-46.6	-50.2	22.7	6.02e-01	0	40	0	102760448	65	5234
2026-01-10 02:31:29.32	348.72	17.99	-46.6	-50.3	22.6	5.99e-01	0	40	0	108003328	64	5645
2026-01-10 02:31:33.07	348.02	18.36	-46.5	-50.2	22.7	6.03e-01	0	40	0	114819072	64	5549
2026-01-10 02:31:36.06	347.46	18.66	-46.5	-50.4	22.5	6.03e-01	0	40	0	120586240	64	5671
2026-01-10 02:31:39.74	346.74	19.03	-46.9	-50.3	22.6	6.03e-01	0	40	0	127401984	64	5633
2026-01-10 02:31:42.48	346.20	19.31	-47.3	-50.3	22.7	6.00e-01	0	40	0	132644864	65	5316
2026-01-10 02:31:46.08	345.47	19.67	-47.3	-50.2	22.7	6.03e-01	0	40	0	139460608	65	5272
2026-01-10 02:31:49.00	344.86	19.97	-47.4	-50.3	22.6	6.02e-01	0	40	0	144703488	65	5333
2026-01-10 02:31:52.02	344.22	20.27	-47.4	-50.4	22.6	6.03e-01	0	40	0	150470656	65	5354
2026-01-10 02:31:55.03	343.56	20.58	-47.1	-50.5	22.5	6.04e-01	0	40	0	156237824	65	5432
2026-01-10 02:31:58.03	342.90	20.89	-47.3	-50.5	22.5	6.01e-01	0	40	0	162004992	65	5454
2026-01-10 02:32:01.05	342.22	21.19	-47.2	-50.6	22.4	6.03e-01	0	40	0	167772160	65	5482
2026-01-10 02:32:04.06	341.52	21.50	-46.5	-50.3	22.6	6.01e-01	0	40	0	173015040	65	5334
2026-01-10 02:32:07.07	340.81	21.80	-46.7	-50.3	22.7	6.03e-01	0	40	0	178782208	65	5319
2026-01-10 02:32:10.17	340.06	22.12	-47.5	-50.5	22.5	6.02e-01	0	40	0	184549376	65	5451
2026-01-10 02:32:13.14	339.33	22.42	-47.5	-50.7	22.4	6.04e-01	0	40	0	190316544	66	5235
2026-01-10 02:32:16.15	338.57	22.72	-47.4	-50.5	22.5	6.04e-01	0	41	0	196083712	66	5133
2026-01-10 02:32:19.16	337.80	23.02	-47.5	-50.4	22.6	6.01e-01	0	40	0	201326592	66	5092
2026-01-10 02:32:22.58	336.90	23.36	-47.5	-50.7	22.3	6.01e-01	0	41	0	208142336	66	5267
2026-01-10 02:32:25.30	336.17	23.63	-47.6	-50.6	22.4	6.01e-01	0	40	0	212860928	66	5216
2026-01-10 02:32:28.52	335.29	23.95	-47.7	-50.6	22.5	6.04e-01	0	41	0	219152384	66	5196
2026-01-10 02:32:31.53	334.45	24.24	-47.6	-50.6	22.4	6.02e-01	0	41	0	224919552	66	5207
2026-01-10 02:32:34.54	333.60	24.53	-47.5	-50.5	22.6	6.01e-01	0	40	0	230162432	66	5154
2026-01-10 02:32:37.55	332.73	24.82	-47.5	-50.4	22.7	6.01e-01	0	40	0	235929600	66	5078
2026-01-10 02:32:40.56	331.84	25.10	-47.4	-50.5	22.5	6.02e-01	0	40	0	241696768	66	5130
2026-01-10 02:32:43.57	330.93	25.38	-47.5	-50.6	22.5	6.00e-01	0	40	0	247463936	66	5193
2026-01-10 02:32:46.58	330.01	25.65	-47.2	-50.4	22.7	6.01e-01	0	40	0	252706816	66	5077
2026-01-10 02:32:49.59	329.07	25.92	-46.9	-50.4	22.7	6.01e-01	0	40	0	258473984	65	5356
2026-01-10 02:32:52.63	328.10	26.19	-47.4	-50.4	22.6	6.02e-01	0	40	0	264241152	65	5386
2026-01-10 02:32:55.78	327.08	26.46	-47.3	-50.2	22.8	6.01e-01	0	40	0	270008320	65	5279
2026-01-10 02:32:58.81	326.08	26.71	-47.4	-50.4	22.7	6.02e-01	0	40	0	275775488	65	5367
2026-01-10 02:33:02.34	324.90	27.00	-47.2	-50.4	22.7	6.02e-01	0	40	0	282591232	65	5378
2026-01-10 02:33:05.15	323.94	27.22	-47.0	-50.1	22.9	6.01e-01	0	40	0	287834112	65	5209
2026-01-10 02:33:08.44	322.80	27.46	-47.1	-50.0	23.0	6.02e-01	0	40	0	294125568	65	5146
2026-01-10 02:33:11.17	321.85	27.66	-47.1	-50.1	23.0	6.01e-01	0	41	0	298844160	65	5194
2026-01-10 02:33:14.73	320.58	27.91	-47.2	-50.2	22.9	6.03e-01	0	41	0	305659904	65	5245
2026-01-10 02:33:17.45	319.59	28.09	-46.9	-49.9	23.1	6.03e-01	0	41	0	310902784	65	5094
2026-01-10 02:33:20.74	318.39	28.30	-47.0	-49.9	23.2	6.03e-01	0	41	0	317194240	65	5052
2026-01-10 02:33:23.51	317.36	28.47	-47.0	-50.1	23.0	6.02e-01	0	41	0	321912832	65	5170
2026-01-10 02:33:27.11	316.01	28.67	-47.1	-50.0	23.0	6.03e-01	0	41	0	328728576	65	5148
2026-01-10 02:33:29.84	314.98	28.81	-47.1	-50.0	23.1	6.03e-01	0	41	0	333971456	65	5111
2026-01-10 02:33:33.18	313.70	28.97	-47.1	-50.0	23.1	6.03e-01	0	41	0	340262912	65	5109
2026-01-10 02:33:36.00	312.61	29.10	-47.3	-50.2	22.8	6.04e-01	0	41	0	345505792	65	5242
2026-01-10 02:33:39.15	311.38	29.22	-47.1	-49.8	23.2	6.03e-01	0	40	0	351272960	65	5021
2026-01-10 02:33:42.02	310.25	29.33	-47.6	-50.5	22.5	6.01e-01	0	41	0	357040128	66	5122
2026-01-10 02:33:45.16	309.01	29.43	-47.3	-50.1	23.0	6.01e-01	0	41	0	362807296	66	4879
2026-01-10 02:33:48.14	307.83	29.51	-47.2	-49.8	23.2	6.04e-01	0	41	0	368574464	66	4750
2026-01-10 02:33:51.72	306.40	29.59	-47.3	-50.0	23.1	6.03e-01	0	41	0	374865920	65	5113
2026-01-10 02:33:54.55	305.26	29.64	-46.9	-49.6	23.5	5.99e-01	0	41	0	380108800	65	4895
2026-01-10 02:33:57.85	303.93	29.68	-47.0	-49.7	23.4	6.01e-01	0	41	0	386400256	66	4698
2026-01-10 02:34:00.57	302.83	29.70	-46.7	-49.3	23.4	6.05e-01	0	41	0	391643136	65	4759
2026-01-10 02:34:03.87	301.50	29.71	-47.5	-50.4	22.8	6.01e-01	0	41	0	397934592	66	5066
2026-01-10 02:34:06.72	300.35	29.71	-47.8	-50.8	22.2	6.00e-01	0	41	0	403177472	66	5332
2026-01-10 02:34:09.87	299.07	29.69	-47.6	-50.4	22.7	6.01e-01	0	41	0	408944640	66	5083
2026-01-10 02:34:12.73	297.92	29.66	-47.3	-49.9	23.2	6.03e-01	0	41	0	414711808	66	4799
2026-01-10 02:34:15.99	296.61	29.61	-47.8	-50.6	22.5	6.02e-01	0	41	0	420478976	66	5207
2026-01-10 02:34:18.72	295.51	29.56	-47.5	-50.2	22.9	6.02e-01	0	41	0	425721856	66	4966
2026-01-10 02:34:22.01	294.20	29.48	-47.6	-50.3	22.8	6.06e-01	0	41	0	432013312	66	5033
2026-01-10 02:34:24.73	293.11	29.40	-48.6	-51.7	21.4	6.02e-01	0	41	0	436731904	68	5277
2026-01-10 02:34:28.03	291.81	29.29	-48.0	-51.1	21.9	6.01e-01	0	41	0	443023360	67	5211
2026-01-10 02:34:30.75	290.74	29.19	-48.0	-50.9	22.3	6.04e-01	0	41	0	448266240	66	5341
2026-01-10 02:34:34.05	289.46	29.06	-47.3	-50.0	23.0	6.01e-01	0	41	0	454557696	66	4836
2026-01-10 02:34:36.77	288.41	28.93	-48.4	-51.7	21.5	6.04e-01	0	41	0	459276288	67	5531
2026-01-10 02:34:40.13	287.12	28.76	-48.2	-51.2	22.0	6.02e-01	0	40	0	466092032	67	5220
2026-01-10 02:34:43.17	285.97	28.60	-48.7	-51.8	21.3	6.03e-01	0	41	0	471334912	69	5022
2026-01-10 02:34:46.17	284.85	28.43	-48.1	-51.0	22.2	6.01e-01	0	41	0	477102080	68	4821
2026-01-10 02:34:49.18	283.73	28.25	-48.7	-51.9	21.3	6.03e-01	0	41	0	482869248	68	5389
2026-01-10 02:34:52.11	282.66	28.06	-48.2	-51.2	22.0	6.02e-01	0	41	0	488112128	68	4938
2026-01-10 02:34:55.50	281.43	27.83	-47.9	-50.7	22.4	6.01e-01	0	41	0	494403584	67	4967
2026-01-10 02:34:58.23	280.46	27.64	-48.2	-51.1	22.0	6.01e-01	0	41	0	499646464	67	5204
2026-01-10 02:35:02.00	279.14	27.36	-48.1	-51.0	22.0	6.01e-01	0	41	0	506986496	67	5115
2026-01-10 02:35:04.91	278.13	27.14	-48.3	-51.3	21.8	6.01e-01	0	41	0	512229376	67	5293
2026-01-10 02:35:08.20	277.02	26.87	-48.0	-50.9	22.2	6.01e-01	0	41	0	518520832	67	5056
2026-01-10 02:35:11.21	276.01	26.63	-48.3	-51.3	21.8	6.00e-01	0	41	0	524288000	67	5300
2026-01-10 02:35:14.51	274.93	26.35	-48.3	-51.3	21.8	6.01e-01	0	41	0	530055168	67	5325
2026-01-10 02:35:17.23	274.05	26.11	-48.3	-51.4	21.8	6.03e-01	0	41	0	535298048	67	5361
2026-01-10 02:35:20.53	273.00	25.82	-48.3	-51.3	21.9	6.03e-01	0	41	0	541589504	68	5003
2026-01-10 02:35:23.25	272.15	25.58	-49.0	-52.2	21.0	6.04e-01	0	41	0	546832384	68	5568
2026-01-10 02:35:26.55	271.14	25.27	-48.7	-51.9	21.4	6.01e-01	0	41	0	552599552	68	5348
2026-01-10 02:35:29.27	270.32	25.02	-48.4	-51.5	21.7	6.00e-01	0	41	0	557842432	68	5123
2026-01-10 02:35:32.64	269.33	24.70	-48.4	-51.7	21.5	6.02e-01	0	41	0	564133888	68	5224
2026-01-10 02:35:35.37	268.54	24.44	-48.5	-51.6	21.6	6.04e-01	0	41	0	569376768	68	5179
2026-01-10 02:35:38.79	267.57	24.11	-48.6	-51.7	21.5	6.04e-01	0	41	0	575668224	68	5264
2026-01-10 02:35:41.52	266.81	23.84	-48.5	-51.6	21.5	6.00e-01	0	41	0	580911104	68	5217
2026-01-10 02:35:44.81	265.91	23.52	-48.6	-51.8	21.4	6.02e-01	0	41	0	587202560	68	5304
2026-01-10 02:35:47.66	265.15	23.23	-48.6	-51.6	21.6	6.04e-01	0	41	0	592445440	68	5203
2026-01-10 02:35:51.14	264.24	22.88	-48.6	-51.7	21.5	6.02e-01	0	41	0	598736896	68	5248
2026-01-10 02:35:53.90	263.53	22.60	-48.4	-51.6	21.6	6.04e-01	0	41	0	603979776	68	5160
2026-01-10 02:35:57.20	262.71	22.27	-48.4	-51.5	21.6	6.04e-01	0	41	0	610271232	68	5159
2026-01-10 02:35:59.92	262.04	21.99	-48.3	-51.4	21.8	6.03e-01	0	41	0	615514112	68	5072
2026-01-10 02:36:03.20	261.25	21.66	-48.5	-51.7	21.5	6.02e-01	0	41	0	621805568	68	5240
2026-01-10 02:36:06.21	260.54	21.35	-48.3	-51.4	21.7	6.01e-01	0	41	0	627048448	68	5073
2026-01-10 02:36:09.21	259.85	21.04	-48.5	-51.6	21.5	6.01e-01	0	41	0	632815616	68	5217
2026-01-10 02:36:12.17	259.18	20.74	-48.3	-51.4	21.7	6.02e-01	0	41	0	638582784	68	5069
2026-01-10 02:36:15.71	258.40	20.38	-48.2	-51.3	21.7	6.00e-01	0	41	0	644874240	68	5036
2026-01-10 02:36:18.51	257.80	20.09	-48.3	-51.4	21.7	6.02e-01	0	41	0	650117120	68	5059
2026-01-10 02:36:21.80	257.10	19.76	-48.3	-51.4	20.7	6.01e-01	0	41	0	656408576	68	5071
2026-01-10 02:36:24.52	256.54	19.48	-48.5	-51.7	21.4	6.05e-01	0	41	0	661651456	68	5246
2026-01-10 02:36:27.82	255.87	19.15	-48.3	-51.3	21.8	5.99e-01	0	41	0	667418624	68	5000
2026-01-10 02:36:31.26	255.19	18.80	-48.4	-51.5	21.6	6.01e-01	0	41	0	674234368	68	5138
2026-01-10 02:36:34.12	254.64	18.51	-48.3	-51.4	21.6	6.05e-01	0	41	0	679477248	68	5088
2026-01-10 02:36:37.40	254.02	18.18	-48.3	-51.4	21.6	6.01e-01	0	41	0	685768704	68	5083
2026-01-10 02:36:40.27	253.49	17.90	-48.4	-51.4	21.7	6.04e-01	0	41	0	691011584	68	5075
2026-01-10 02:36:43.61	252.88	17.56	-48.4	-51.5	21.6	6.01e-01	0	41	0	697303040	68	5110
2026-01-10 02:36:46.33	252.40	17.29	-48.3	-51.4	21.6	6.02e-01	0	41	0	702545920	68	5087
2026-01-10 02:36:49.63	251.83	16.97	-48.5	-51.6	21.4	6.02e-01	0	41	0	708313088	68	5214
2026-01-10 02:36:52.35	251.36	16.70	-48.3	-51.3	21.8	6.06e-01	0	41	0	713555968	68	4993
2026-01-10 02:36:55.66	250.81	16.38	-48.4	-51.5	21.6	6.00e-01	0	41	0	719847424	68	5101
2026-01-10 02:36:58.73	250.31	16.09	-48.4	-51.5	21.6	6.01e-01	0	41	0	725614592	68	5106
2026-01-10 02:37:01.60	249.85	15.81	-48.5	-51.6	21.4	6.01e-01	0	41	0	730857472	68	5214
2026-01-10 02:37:04.93	249.33	15.49	-48.4	-51.5	21.5	6.02e-01	0	41	0	737148928	68	5117
2026-01-10 02:37:07.66	248.92	15.23	-48.4	-51.5	21.5	6.02e-01	0	41	0	742391808	68	5116
2026-01-10 02:37:10.96	248.42	14.92	-48.6	-51.7	21.3	6.02e-01	0	41	0	748683264	68	5252
2026-01-10 02:37:13.68	248.02	14.67	-48.6	-51.8	21.2	6.02e-01	0	41	0	753926144	68	5281
2026-01-10 02:37:17.08	247.54	14.35	-48.4	-51.4	21.6	6.02e-01	0	41	0	760217600	68	5063
2026-01-10 02:37:20.11	247.11	14.07	-48.5	-51.7	21.3	6.04e-01	0	41	0	765984768	68	5225
2026-01-10 02:37:23.93	246.58	13.73	-48.5	-51.7	21.2	6.03e-01	0	41	0	772800512	68	5258
2026-01-10 02:37:26.79	246.20	13.47	-48.4	-51.5	21.4	6.00e-01	0	41	0	778043392	68	5115
2026-01-10 02:37:30.08	245.77	13.17	-48.5	-51.7	21.3	6.03e-01	0	41	0	784334848	68	5220
2026-01-10 02:37:32.85	245.41	12.92	-48.7	-51.9	21.0	6.03e-01	0	41	0	789577728	68	5401
2026-01-10 02:37:36.27	244.98	12.62	-48.6	-51.8	21.1	6.01e-01	0	41	0	795869184	68	5321
2026-01-10 02:37:39.00	244.64	12.38	-48.7	-51.9	21.0	6.03e-01	0	41	0	801112064	68	5388
2026-01-10 02:37:42.30	244.24	12.09	-48.7	-51.9	21.0	6.00e-01	0	41	0	807403520	68	5390
2026-01-10 02:37:45.10	243.90	11.85	-48.8	-52.1	20.8	6.02e-01	0	41	0	812646400	68	5496
2026-01-10 02:37:48.34	243.52	11.57	-48.9	-52.1	20.8	6.01e-01	0	41	0	818937856	68	5519
2026-01-10 02:37:51.34	243.18	11.32	-48.9	-52.2	20.7	6.03e-01	0	41	0	824180736	68	5542
2026-01-10 02:37:54.36	242.84	11.06	-49.0	-52.3	20.5	6.02e-01	0	41	0	829947904	68	5641
2026-01-10 02:37:57.37	242.51	10.81	-48.9	-52.2	20.6	6.04e-01	0	41	0	835715072	68	5564
2026-01-10 02:38:00.38	242.18	10.56	-48.9	-52.3	20.5	6.03e-01	0	41	0	841482240	68	5616
2026-01-10 02:38:03.39	241.86	10.31	-49.1	-52.5	20.4	6.03e-01	0	41	0	846725120	68	5726
2026-01-10 02:38:06.39	241.55	10.07	-49.1	-52.5	20.3	5.99e-01	0	41	0	852492288	68	5780
2026-01-10 02:38:09.41	241.24	9.82	-49.2	-52.8	20.0	6.02e-01	0	41	0	858259456	69	5608
2026-01-10 02:38:12.45	240.93	9.58	-49.2	-52.7	20.1	6.03e-01	0	41	0	864026624	69	5569
2026-01-10 02:38:15.53	240.63	9.33	-49.0	-52.4	20.4	6.03e-01	0	41	0	869793792	69	5397
2026-01-10 02:38:18.42	240.35	9.10	-49.1	-52.5	20.3	6.01e-01	0	41	0	875036672	69	5447
2026-01-10 02:38:21.57	240.05	8.86	-54.3	-74.2	3.8	7.46e-01	0	41	104	877658112	79	37243
2026-01-10 02:38:24.44	239.78	8.63	-54.4	-74.6	3.8	7.44e-01	0	41	104	877658112	79	39010
2026-01-10 02:38:27.61	239.49	8.39	-54.3	-74.7	3.8	7.48e-01	0	41	104	877658112	79	39566
2026-01-10 02:38:30.56	239.22	8.16	-54.4	-74.8	3.8	7.45e-01	0	41	104	877658112	79	39680
2026-01-10 02:38:33.72	238.94	7.92	-54.2	-74.8	3.8	7.46e-01	0	41	104	877658112	79	39802
2026-01-10 02:38:36.59	238.69	7.70	-54.2	-74.8	3.8	7.46e-01	0	41	104	877658112	79	39722
2026-01-10 02:38:39.75	238.42	7.47	-54.4	-74.8	3.8	7.47e-01	0	41	104	877658112	79	39658
2026-01-10 02:38:42.62	238.18	7.25	-54.2	-74.8	3.8	7.47e-01	0	41	104	877658112	79	39652
2026-01-10 02:38:45.77	237.92	7.02	-54.2	-74.7	3.8	7.45e-01	0	41	104	877658112	79	39462
2026-01-10 02:38:48.64	237.69	6.81	-54.1	-74.7	3.8	7.46e-01	0	41	104	877658112	79	39496
2026-01-10 02:38:51.80	237.44	6.58	-54.1	-74.7	3.8	7.43e-01	0	41	104	877658112	79	39444
2026-01-10 02:38:54.67	237.21	6.37	-54.1	-74.7	3.8	7.46e-01	0	41	104	877658112	79	39340
2026-01-10 02:38:57.82	236.97	6.15	-54.1	-74.7	3.8	7.47e-01	0	41	104	877658112	79	39355
2026-01-10 02:39:00.66	236.75	5.94	-54.2	-74.7	3.8	7.45e-01	0	41	104	877658112	79	39290
2026-01-10 02:39:03.81	236.52	5.72	-54.2	-74.7	3.8	7.49e-01	0	41	104	877658112	79	39439
2026-01-10 02:39:06.68	236.30	5.52	-54.2	-74.7	3.8	7.44e-01	0	41	104	877658112	79	39301
2026-01-10 02:39:09.84	236.08	5.30	-54.1	-74.7	3.8	7.45e-01	0	41	104	877658112	79	39278
2026-01-10 02:39:12.71	235.87	5.10	-54.1	-74.7	3.8	7.47e-01	0	41	104	877658112	79	39294

#Closed at: 2026-01-10 02:39:15
#Recorded file [877 MB]: D:/Data/31040_260110_052855.dat