passes_logs/2026/01/10/T1/T1__20260110_233038_NOAA_20_JPSS-1_rec.log

#Pass ID: 20260110_233038_NOAA 20 (JPSS-1)
#Satellite: NOAA 20 (JPSS-1)
#Configuration: NOAA 20
#almurnet v.1.7.20251203
#Start time: 2026-01-10 23:30:38

#Version: 2.0.20230620
#Station: T1
#Location: 37.570604 lon 55.790049 lat
#TLE: 1 43013U 17073A   26009.69119415  .00000109  00000+0  72598-4 0  9996
#TLE: 2 43013  98.7631 310.6868 0001678  46.7442 313.3874 14.19534878421981

#Time	Az	El	Level	Level2	SNR	BER	BlckErr	Temp	State	Recorded	gain1	gain2
2026-01-10 23:30:38.37	17.57	5.03	-51.7	-67.0	3.8	1.49e+00	0	40	0	0	74	21695
2026-01-10 23:30:42.39	17.63	5.31	-51.7	-66.8	3.8	1.49e+00	0	40	104	0	74	21141
2026-01-10 23:30:46.40	17.68	5.60	-51.7	-66.0	3.8	1.49e+00	0	41	104	0	74	19253
2026-01-10 23:30:50.42	17.74	5.90	-51.6	-65.6	3.8	1.49e+00	0	41	104	0	74	18398
2026-01-10 23:30:54.44	17.80	6.19	-51.7	-66.2	3.8	1.49e+00	0	41	104	0	74	19645
2026-01-10 23:30:58.46	17.85	6.49	-51.7	-66.3	3.8	1.49e+00	0	41	104	0	74	20048
2026-01-10 23:31:02.48	17.91	6.79	-51.7	-66.2	3.8	1.49e+00	0	41	104	0	74	19650
2026-01-10 23:31:06.49	17.97	7.10	-51.7	-66.3	3.8	1.49e+00	0	41	104	0	74	19851
2026-01-10 23:31:10.51	18.03	7.41	-51.6	-64.5	3.8	1.49e+00	0	41	104	0	74	16167
2026-01-10 23:31:14.53	18.10	7.73	-51.3	-61.5	4.9	8.13e-01	0	41	0	4194304	74	11533
2026-01-10 23:31:18.54	18.16	8.04	-51.0	-59.9	6.0	3.69e-01	0	42	0	11534336	74	9539
2026-01-10 23:31:22.56	18.22	8.36	-50.9	-59.3	6.4	2.39e-01	0	42	0	18874368	73	9440
2026-01-10 23:31:26.58	18.29	8.69	-50.8	-58.9	6.8	1.76e-01	0	42	0	27262976	73	8994
2026-01-10 23:31:30.59	18.35	9.02	-51.0	-59.8	6.0	3.28e-01	0	42	0	34603008	73	10055
2026-01-10 23:31:34.61	18.42	9.36	-48.9	-53.2	12.8	2.23e-04	0	42	0	36700160	69	5864
2026-01-10 23:31:38.63	18.49	9.70	-48.9	-53.2	12.8	4.04e-05	0	42	0	44040192	69	5890
2026-01-10 23:31:42.63	18.56	10.04	-48.6	-52.6	13.4	3.05e-05	0	42	0	51380224	68	5817
2026-01-10 23:31:46.65	18.63	10.39	-47.5	-50.8	14.9	0.00e+00	0	42	0	59768832	67	5034
2026-01-10 23:31:50.66	18.70	10.74	-47.4	-50.8	15.1	0.00e+00	0	42	0	67108864	66	5281
2026-01-10 23:31:54.67	18.77	11.10	-47.3	-50.6	15.3	0.00e+00	0	42	0	74448896	66	5164
2026-01-10 23:31:58.69	18.85	11.46	-47.0	-50.1	15.7	0.00e+00	0	42	0	81788928	65	5204
2026-01-10 23:32:02.70	18.92	11.83	-46.9	-50.1	15.7	0.00e+00	0	42	0	89128960	65	5197
2026-01-10 23:32:06.71	19.00	12.21	-46.6	-49.6	16.2	0.00e+00	0	42	0	96468992	65	4925
2026-01-10 23:32:10.72	19.08	12.59	-46.9	-50.0	15.8	0.00e+00	0	42	0	104857600	65	5150
2026-01-10 23:32:14.73	19.16	12.98	-46.7	-49.6	16.3	0.00e+00	0	42	0	112197632	65	4924
2026-01-10 23:32:18.74	19.24	13.37	-46.7	-49.7	16.2	0.00e+00	0	42	0	119537664	65	4971
2026-01-10 23:32:22.75	19.33	13.77	-46.6	-49.6	16.3	0.00e+00	0	42	0	126877696	65	4879
2026-01-10 23:32:26.77	19.41	14.18	-46.5	-49.5	16.5	0.00e+00	0	42	0	134217728	64	5116
2026-01-10 23:32:30.78	19.50	14.59	-46.3	-49.3	16.6	0.00e+00	0	43	0	142606336	64	5031
2026-01-10 23:32:34.80	19.59	15.01	-46.3	-49.4	16.6	0.00e+00	0	42	0	149946368	64	5071
2026-01-10 23:32:38.81	19.69	15.44	-46.4	-49.5	16.4	0.00e+00	0	43	0	157286400	64	5158
2026-01-10 23:32:42.82	19.78	15.87	-46.6	-49.8	16.2	0.00e+00	0	42	0	164626432	64	5290
2026-01-10 23:32:46.83	19.88	16.31	-46.8	-49.9	16.1	0.00e+00	0	42	0	171966464	64	5390
2026-01-10 23:32:50.84	19.98	16.77	-47.0	-50.2	15.9	0.00e+00	0	42	0	179306496	64	5530
2026-01-10 23:32:54.85	20.08	17.23	-46.9	-50.1	16.0	0.00e+00	0	42	0	187695104	64	5490
2026-01-10 23:32:58.87	20.18	17.70	-47.0	-50.2	15.9	0.00e+00	0	43	0	195035136	64	5542
2026-01-10 23:33:02.88	20.29	18.17	-47.2	-50.6	15.5	0.00e+00	0	43	0	202375168	65	5481
2026-01-10 23:33:06.90	20.40	18.66	-47.3	-50.7	15.4	0.00e+00	0	43	0	209715200	65	5556
2026-01-10 23:33:10.91	20.51	19.16	-47.5	-51.0	15.1	0.00e+00	0	43	0	217055232	65	5744
2026-01-10 23:33:14.93	20.63	19.67	-47.6	-51.0	15.2	7.00e-07	0	43	0	225443840	65	5739
2026-01-10 23:33:18.94	20.75	20.18	-47.7	-51.0	15.1	7.00e-07	0	43	0	232783872	66	5456
2026-01-10 23:33:22.96	20.87	20.71	-47.6	-51.0	15.2	7.00e-07	0	43	0	240123904	66	5410
2026-01-10 23:33:26.97	21.00	21.25	-47.7	-51.0	15.1	0.00e+00	0	43	0	247463936	66	5440
2026-01-10 23:33:30.98	21.13	21.80	-47.7	-51.0	15.2	0.00e+00	0	43	0	254803968	66	5419
2026-01-10 23:33:35.00	21.27	22.37	-47.7	-51.1	15.1	7.00e-07	0	43	0	262144000	66	5478
2026-01-10 23:33:39.01	21.41	22.94	-47.5	-50.7	15.4	0.00e+00	0	43	0	270532608	66	5274
2026-01-10 23:33:43.02	21.55	23.53	-47.3	-50.5	15.7	0.00e+00	0	43	0	277872640	66	5136
2026-01-10 23:33:47.03	21.70	24.14	-47.1	-50.2	16.0	0.00e+00	0	43	0	285212672	66	4954
2026-01-10 23:33:51.05	21.85	24.75	-47.1	-50.1	16.0	0.00e+00	0	43	0	292552704	65	5217
2026-01-10 23:33:55.05	22.01	25.38	-47.1	-50.2	16.0	0.00e+00	0	43	0	299892736	65	5234
2026-01-10 23:33:59.07	22.18	26.03	-47.3	-50.3	15.9	0.00e+00	0	43	0	307232768	65	5333
2026-01-10 23:34:03.09	22.35	26.70	-47.5	-50.7	15.6	0.00e+00	0	43	0	315621376	65	5533
2026-01-10 23:34:07.10	22.53	27.38	-47.9	-51.2	15.0	0.00e+00	0	43	0	322961408	66	5590
2026-01-10 23:34:11.12	22.72	28.07	-48.3	-51.8	14.4	0.00e+00	0	43	0	330301440	67	5624
2026-01-10 23:34:15.13	22.91	28.79	-48.4	-52.0	14.3	0.00e+00	0	43	0	337641472	67	5751
2026-01-10 23:34:19.15	23.12	29.52	-48.3	-51.8	14.5	7.00e-07	0	43	0	344981504	67	5642
2026-01-10 23:34:23.16	23.33	30.27	-48.3	-51.9	14.4	7.00e-07	0	43	0	352321536	67	5680
2026-01-10 23:34:27.18	23.55	31.05	-48.6	-52.4	13.9	4.50e-06	0	43	0	360710144	67	6038
2026-01-10 23:34:31.19	23.78	31.84	-48.8	-52.7	13.7	3.00e-06	0	43	0	368050176	68	5921
2026-01-10 23:34:35.20	24.02	32.65	-48.4	-52.4	14.1	6.10e-06	0	43	0	375390208	68	5710
2026-01-10 23:34:39.21	24.28	33.49	-48.2	-52.0	14.5	0.00e+00	0	43	0	382730240	68	5405
2026-01-10 23:34:43.22	24.54	34.35	-47.7	-51.0	15.3	0.00e+00	0	43	0	390070272	67	5131
2026-01-10 23:34:47.24	24.82	35.23	-47.6	-50.7	15.6	0.00e+00	0	43	0	398458880	67	4957
2026-01-10 23:34:51.25	25.12	36.14	-47.4	-50.5	15.8	0.00e+00	0	43	0	405798912	66	5138
2026-01-10 23:34:55.27	25.43	37.08	-47.1	-50.1	16.2	0.00e+00	0	43	0	413138944	66	4890
2026-01-10 23:34:59.28	25.76	38.04	-47.5	-50.7	15.7	0.00e+00	0	43	0	420478976	66	5227
2026-01-10 23:35:03.30	26.11	39.03	-47.6	-50.6	15.7	0.00e+00	0	43	0	427819008	66	5215
2026-01-10 23:35:07.31	26.48	40.04	-47.5	-50.6	15.8	0.00e+00	0	43	0	435159040	66	5179
2026-01-10 23:35:11.32	26.87	41.08	-47.8	-51.1	15.3	0.00e+00	0	43	0	443547648	66	5468
2026-01-10 23:35:15.34	27.29	42.16	-47.7	-50.9	15.5	0.00e+00	0	43	0	450887680	66	5361
2026-01-10 23:35:19.36	27.73	43.27	-47.9	-51.2	15.2	0.00e+00	0	43	0	458227712	66	5564
2026-01-10 23:35:23.37	28.21	44.40	-48.5	-52.1	14.2	1.50e-06	0	43	0	465567744	67	5837
2026-01-10 23:35:27.38	28.72	45.57	-48.3	-51.9	14.5	0.00e+00	0	43	0	472907776	67	5665
2026-01-10 23:35:31.40	29.28	46.77	-48.3	-52.0	14.4	0.00e+00	0	43	0	481296384	67	5729
2026-01-10 23:35:35.41	29.87	48.01	-48.8	-52.7	13.8	3.00e-06	0	43	0	488636416	68	5919
2026-01-10 23:35:39.42	30.51	49.27	-47.5	-50.6	15.8	0.00e+00	0	43	0	495976448	66	5213
2026-01-10 23:35:43.43	31.21	50.57	-46.4	-49.1	17.2	0.00e+00	0	43	0	503316480	64	4875
2026-01-10 23:35:47.44	31.97	51.90	-45.3	-47.6	18.6	0.00e+00	0	43	0	510656512	62	4610
2026-01-10 23:35:51.45	32.80	53.26	-44.9	-47.2	19.1	0.00e+00	0	43	0	517996544	61	4665
2026-01-10 23:35:55.47	33.71	54.66	-44.8	-47.1	19.2	0.00e+00	0	43	0	526385152	61	4604
2026-01-10 23:35:59.48	34.72	56.09	-45.0	-47.3	19.0	0.00e+00	0	43	0	533725184	61	4722
2026-01-10 23:36:03.49	35.83	57.54	-46.0	-48.5	17.8	0.00e+00	0	43	0	541065216	62	5147
2026-01-10 23:36:07.51	37.07	59.03	-45.1	-47.4	18.9	0.00e+00	0	43	0	548405248	62	4504
2026-01-10 23:36:11.52	38.46	60.53	-44.6	-46.8	19.4	0.00e+00	0	43	0	555745280	61	4465
2026-01-10 23:36:15.53	40.02	62.05	-43.6	-45.7	20.3	0.00e+00	0	43	0	563085312	59	4394
2026-01-10 23:36:19.54	41.79	63.59	-44.6	-46.8	19.3	0.00e+00	0	43	0	571473920	59	4987
2026-01-10 23:36:23.56	43.80	65.14	-45.4	-47.7	18.6	0.00e+00	0	43	0	578813952	61	4955
2026-01-10 23:36:27.57	46.12	66.69	-46.8	-49.6	16.7	0.00e+00	0	43	0	586153984	64	5174
2026-01-10 23:36:31.58	48.79	68.23	-48.2	-51.6	14.8	7.00e-07	0	43	0	593494016	67	5499
2026-01-10 23:36:35.59	51.89	69.74	-47.7	-50.8	15.6	0.00e+00	0	43	0	600834048	66	5300
2026-01-10 23:36:39.60	55.53	71.21	-47.5	-50.6	15.8	0.00e+00	0	43	0	608174080	66	5199
2026-01-10 23:36:43.62	59.82	72.62	-48.5	-52.1	14.2	7.00e-07	0	43	0	616562688	67	5799
2026-01-10 23:36:47.63	64.87	73.94	-47.6	-50.7	15.7	0.00e+00	0	43	0	623902720	67	4932
2026-01-10 23:36:51.64	70.81	75.13	-47.3	-50.3	16.1	0.00e+00	0	43	0	631242752	66	4989
2026-01-10 23:36:55.65	77.75	76.15	-48.2	-51.7	14.7	7.00e-07	0	43	0	638582784	67	5530
2026-01-10 23:36:59.66	85.69	76.95	-48.5	-52.2	14.3	0.00e+00	0	43	0	645922816	67	5861
2026-01-10 23:37:03.68	94.53	77.49	-48.2	-51.6	14.9	0.00e+00	0	43	0	654311424	68	5194
2026-01-10 23:37:07.69	103.91	77.71	-48.6	-52.3	14.3	1.50e-06	0	43	0	661651456	68	5629
2026-01-10 23:37:11.71	113.41	77.60	-48.8	-52.5	14.0	0.00e+00	0	43	0	668991488	68	5781
2026-01-10 23:37:15.72	122.49	77.18	-49.2	-53.0	13.5	3.80e-06	0	43	0	676331520	69	5754
2026-01-10 23:37:19.74	130.80	76.47	-49.8	-54.3	12.3	7.85e-05	0	43	0	683671552	70	6279
2026-01-10 23:37:23.75	138.11	75.52	-49.6	-53.8	12.7	1.37e-05	0	43	0	691011584	70	5950
2026-01-10 23:37:27.76	144.41	74.39	-49.7	-54.2	12.4	1.52e-04	0	43	0	699400192	70	6245
2026-01-10 23:37:31.78	149.79	73.11	-48.3	-51.6	15.0	7.00e-07	0	43	0	706740224	68	5178
2026-01-10 23:37:35.79	154.33	71.73	-46.6	-49.3	17.1	0.00e+00	0	43	0	714080256	65	4748
2026-01-10 23:37:39.81	158.20	70.27	-47.4	-50.4	16.0	0.00e+00	0	43	0	721420288	65	5345
2026-01-10 23:37:43.82	161.49	68.76	-48.8	-52.4	14.1	7.00e-07	0	43	0	728760320	68	5679
2026-01-10 23:37:47.83	164.31	67.23	-48.3	-51.6	15.0	0.00e+00	0	43	0	737148928	68	5199
2026-01-10 23:37:51.84	166.75	65.68	-46.2	-48.8	17.5	0.00e+00	0	43	0	744488960	64	4719
2026-01-10 23:37:55.85	168.86	64.13	-45.0	-47.2	19.0	0.00e+00	0	43	0	751828992	61	4690
2026-01-10 23:37:59.87	170.72	62.58	-45.0	-47.3	19.0	0.00e+00	0	43	0	759169024	60	4986
2026-01-10 23:38:03.88	172.35	61.05	-45.5	-47.9	18.4	0.00e+00	0	43	0	766509056	61	5072
2026-01-10 23:38:07.90	173.80	59.53	-46.8	-49.5	16.7	0.00e+00	0	43	0	773849088	65	4858
2026-01-10 23:38:11.91	175.09	58.03	-48.2	-51.6	14.8	0.00e+00	0	43	0	782237696	67	5505
2026-01-10 23:38:15.93	176.25	56.56	-46.0	-48.5	17.7	0.00e+00	0	43	0	789577728	64	4585
2026-01-10 23:38:19.94	177.29	55.12	-45.6	-48.0	18.3	0.00e+00	0	43	0	796917760	63	4595
2026-01-10 23:38:23.95	178.23	53.71	-46.3	-49.0	17.4	0.00e+00	0	43	0	804257792	63	5134
2026-01-10 23:38:27.97	179.09	52.32	-47.3	-50.3	16.0	0.00e+00	0	43	0	811597824	65	5329
2026-01-10 23:38:31.98	179.87	50.98	-49.2	-53.3	13.3	3.80e-06	0	43	0	818937856	69	5932
2026-01-10 23:38:36.00	180.59	49.66	-49.7	-54.1	12.4	2.39e-04	0	43	0	827326464	71	5840
2026-01-10 23:38:40.01	181.25	48.38	-49.5	-53.6	12.9	1.56e-04	0	43	0	834666496	70	5828
2026-01-10 23:38:44.02	181.86	47.13	-50.2	-55.0	11.4	5.81e-04	0	43	0	842006528	70	6855
2026-01-10 23:38:48.04	182.43	45.91	-47.8	-50.9	15.3	0.00e+00	0	43	0	849346560	67	5089
2026-01-10 23:38:52.05	182.95	44.73	-46.3	-48.9	17.3	0.00e+00	0	43	0	856686592	64	4808
2026-01-10 23:38:56.06	183.44	43.58	-47.4	-50.4	15.9	0.00e+00	0	43	0	864026624	65	5377
2026-01-10 23:39:00.07	183.90	42.46	-46.2	-48.8	17.3	0.00e+00	0	43	0	872415232	64	4754
2026-01-10 23:39:04.07	184.32	41.37	-46.5	-49.1	17.2	0.00e+00	0	43	0	879755264	63	5205
2026-01-10 23:39:08.08	184.72	40.31	-48.0	-51.4	15.0	0.00e+00	0	43	0	887095296	67	5342
2026-01-10 23:39:12.10	185.10	39.28	-46.7	-49.5	16.7	0.00e+00	0	43	0	894435328	65	4869
2026-01-10 23:39:16.11	185.45	38.28	-47.8	-51.0	15.4	0.00e+00	0	43	0	901775360	66	5404
2026-01-10 23:39:20.12	185.79	37.31	-49.5	-54.1	12.4	1.40e-04	0	43	0	910163968	69	6521
2026-01-10 23:39:24.14	186.10	36.36	-48.3	-51.8	14.6	0.00e+00	0	43	0	917504000	68	5301
2026-01-10 23:39:28.16	186.40	35.44	-47.4	-50.5	15.8	0.00e+00	0	43	0	924844032	66	5129
2026-01-10 23:39:32.17	186.69	34.54	-48.9	-52.7	13.8	3.00e-06	0	43	0	932184064	68	5881
2026-01-10 23:39:36.18	186.96	33.67	-50.4	-55.7	10.7	2.15e-03	0	43	0	939524096	71	6964
2026-01-10 23:39:40.20	187.21	32.82	-49.7	-54.1	12.3	3.30e-04	0	43	0	946864128	71	5797
2026-01-10 23:39:44.21	187.46	32.00	-48.9	-52.6	13.9	2.20e-06	0	43	0	955252736	69	5500
2026-01-10 23:39:48.23	187.69	31.20	-49.0	-52.8	13.6	9.10e-06	0	43	0	962592768	69	5632
2026-01-10 23:39:52.24	187.91	30.41	-48.5	-52.0	14.4	7.00e-07	0	43	0	969932800	69	5158
2026-01-10 23:39:56.25	188.13	29.65	-48.3	-51.8	14.7	0.00e+00	0	43	0	977272832	68	5283
2026-01-10 23:40:00.26	188.33	28.91	-48.0	-51.4	15.0	0.00e+00	0	43	0	984612864	68	5084
2026-01-10 23:40:04.28	188.53	28.19	-47.4	-50.5	15.7	0.00e+00	0	43	0	993001472	66	5148
2026-01-10 23:40:08.29	188.71	27.48	-47.1	-50.1	16.1	0.00e+00	0	43	0	1000341504	66	4876
2026-01-10 23:40:12.30	188.89	26.79	-46.8	-49.7	16.5	0.00e+00	0	43	0	1007681536	65	4946
2026-01-10 23:40:16.31	189.06	26.12	-46.8	-49.7	16.4	0.00e+00	0	43	0	1015021568	65	4981
2026-01-10 23:40:20.33	189.23	25.47	-46.8	-49.7	16.4	0.00e+00	0	43	0	1022361600	65	4969
2026-01-10 23:40:24.34	189.39	24.83	-46.7	-49.5	16.6	0.00e+00	0	43	0	1029701632	65	4844
2026-01-10 23:40:28.35	189.54	24.20	-46.4	-49.2	16.9	0.00e+00	0	43	0	1038090240	64	4955
2026-01-10 23:40:32.37	189.69	23.59	-46.0	-48.6	17.5	0.00e+00	0	43	0	1045430272	63	4893
2026-01-10 23:40:36.38	189.84	23.00	-46.0	-48.6	17.5	0.00e+00	0	43	0	1052770304	63	4923
2026-01-10 23:40:40.40	189.98	22.41	-46.0	-48.7	17.5	0.00e+00	0	43	0	1060110336	63	4944
2026-01-10 23:40:44.41	190.11	21.84	-46.0	-48.7	17.4	0.00e+00	0	43	0	1067450368	63	4953
2026-01-10 23:40:48.43	190.24	21.28	-46.2	-49.0	17.2	0.00e+00	0	43	0	1074790400	63	5119
2026-01-10 23:40:52.44	190.37	20.74	-46.3	-49.0	17.1	0.00e+00	0	43	0	1083179008	63	5146
2026-01-10 23:40:56.45	190.49	20.21	-46.3	-49.0	17.0	0.00e+00	0	43	0	1090519040	63	5155
2026-01-10 23:41:00.46	190.61	19.68	-46.4	-49.2	17.0	0.00e+00	0	43	0	1097859072	63	5228
2026-01-10 23:41:04.48	190.72	19.17	-46.4	-49.3	16.8	0.00e+00	0	43	0	1105199104	63	5287
2026-01-10 23:41:08.49	190.83	18.67	-46.6	-49.5	16.6	0.00e+00	0	43	0	1112539136	63	5433
2026-01-10 23:41:12.51	190.94	18.18	-46.7	-49.7	16.3	0.00e+00	0	43	0	1119879168	64	5238
2026-01-10 23:41:16.52	191.05	17.69	-46.8	-49.9	16.1	0.00e+00	0	43	0	1128267776	64	5379
2026-01-10 23:41:20.54	191.15	17.22	-46.8	-49.8	16.1	0.00e+00	0	43	0	1135607808	64	5322
2026-01-10 23:41:24.55	191.25	16.75	-46.8	-49.9	16.0	0.00e+00	0	43	0	1142947840	64	5378
2026-01-10 23:41:28.56	191.35	16.30	-46.8	-49.8	16.1	0.00e+00	0	43	0	1150287872	64	5338
2026-01-10 23:41:32.57	191.44	15.85	-46.6	-49.7	16.2	0.00e+00	0	43	0	1157627904	64	5268
2026-01-10 23:41:36.59	191.53	15.41	-46.5	-49.6	16.3	0.00e+00	0	43	0	1166016512	64	5190
2026-01-10 23:41:40.61	191.62	14.98	-46.5	-49.6	16.3	0.00e+00	0	43	0	1173356544	64	5163
2026-01-10 23:41:44.62	191.71	14.56	-46.4	-49.4	16.4	0.00e+00	0	43	0	1180696576	64	5091
2026-01-10 23:41:48.63	191.79	14.14	-46.6	-49.7	16.1	0.00e+00	0	43	0	1188036608	64	5249
2026-01-10 23:41:52.64	191.88	13.73	-46.7	-49.8	16.0	0.00e+00	0	43	0	1195376640	64	5312
2026-01-10 23:41:56.66	191.96	13.33	-46.8	-49.9	15.9	0.00e+00	0	43	0	1202716672	64	5402
2026-01-10 23:42:00.68	192.04	12.93	-46.7	-50.0	15.8	0.00e+00	0	43	0	1211105280	64	5412
2026-01-10 23:42:04.69	192.12	12.54	-46.8	-50.1	15.6	7.00e-07	0	43	0	1218445312	64	5513
2026-01-10 23:42:08.70	192.19	12.15	-46.9	-50.3	15.5	0.00e+00	0	43	0	1225785344	64	5603
2026-01-10 23:42:12.71	192.27	11.78	-47.0	-50.4	15.3	0.00e+00	0	43	0	1233125376	64	5715
2026-01-10 23:42:16.73	192.34	11.40	-47.1	-50.6	15.1	0.00e+00	0	43	0	1240465408	65	5479
2026-01-10 23:42:20.75	192.41	11.04	-47.3	-50.9	14.8	0.00e+00	0	43	0	1248854016	65	5673
2026-01-10 23:42:24.76	192.48	10.68	-47.2	-50.8	14.8	7.00e-07	0	43	0	1256194048	65	5639
2026-01-10 23:42:28.77	192.55	10.32	-47.3	-51.0	14.7	0.00e+00	0	43	0	1263534080	65	5726
2026-01-10 23:42:32.79	192.62	9.97	-47.4	-51.1	14.5	7.00e-07	0	43	0	1270874112	65	5822
2026-01-10 23:42:36.80	192.68	9.62	-47.2	-50.8	14.7	7.00e-07	0	43	0	1278214144	65	5635
2026-01-10 23:42:40.82	192.75	9.28	-47.2	-50.8	14.8	1.50e-06	0	43	0	1285554176	65	5647
2026-01-10 23:42:44.83	192.81	8.94	-50.2	-57.6	8.7	2.60e-03	0	43	0	1293942784	70	9273
2026-01-10 23:42:48.85	192.87	8.61	-52.2	-67.5	3.8	1.49e+00	0	43	104	1293942784	75	21709
2026-01-10 23:42:52.87	192.93	8.28	-52.5	-67.7	3.8	1.49e+00	0	43	104	1293942784	75	22079
2026-01-10 23:42:56.88	192.99	7.96	-52.5	-67.8	3.8	1.49e+00	0	44	104	1293942784	76	21086
2026-01-10 23:43:00.90	193.05	7.64	-52.5	-67.7	3.8	1.49e+00	0	43	104	1293942784	76	21016
2026-01-10 23:43:04.92	193.11	7.32	-52.6	-67.8	3.8	1.49e+00	0	43	104	1293942784	76	21040
2026-01-10 23:43:08.94	193.16	7.01	-52.5	-67.8	3.8	1.49e+00	0	43	104	1293942784	76	21058
2026-01-10 23:43:12.95	193.22	6.70	-52.5	-67.7	3.8	1.49e+00	0	43	104	1293942784	76	20960
2026-01-10 23:43:16.97	193.27	6.39	-52.5	-67.7	3.8	1.49e+00	0	43	104	1293942784	76	20890
2026-01-10 23:43:20.99	193.33	6.09	-52.5	-67.7	3.8	1.49e+00	0	43	104	1293942784	76	20808
2026-01-10 23:43:25.00	193.38	5.80	-52.5	-67.7	3.8	1.49e+00	0	44	104	1293942784	76	20898
2026-01-10 23:43:29.02	193.43	5.50	-52.5	-67.7	3.8	1.49e+00	0	43	104	1293942784	76	20893
2026-01-10 23:43:33.04	193.48	5.21	-52.5	-67.7	3.8	1.49e+00	0	43	104	1293942784	76	20862

#Closed at: 2026-01-10 23:43:37
#Recorded file [1293 MB]: D:/Data/31040_260111_023038.dat