passes_logs/2026/01/10/T1/T1__20260110_071839_KHAYYAM_rec.log

#Pass ID: 20260110_071839_KHAYYAM
#Satellite: KHAYYAM
#Configuration: KHAYYAM_480M
#almurnet v.1.7.20251203
#Start time: 2026-01-10 07:18:40

#Version: 2.0.20230620
#Station: T1
#Location: 37.570604 lon 55.790049 lat
#TLE: 1 53370U 22096A   26009.31274807  .00006498  00000+0  26496-3 0  9992
#TLE: 2 53370  97.3557 276.4248 0001271  95.0973 265.0410 15.24779729190374

#Time	Az	El	Level	Level2	SNR	BER	BlckErr	Temp	State	Recorded	gain1	gain2
2026-01-10 07:18:40.70	142.45	5.14	-53.7	-58.1	3.6	0.00e+00	0	45	0	0	79	23399
2026-01-10 07:18:42.71	142.34	5.30	-53.7	-58.1	3.7	0.00e+00	0	46	104	0	78	24667
2026-01-10 07:18:44.71	142.23	5.46	-53.7	-58.1	3.7	0.00e+00	0	46	104	0	78	24615
2026-01-10 07:18:46.72	142.12	5.62	-53.7	-58.1	3.7	0.00e+00	0	46	104	0	78	24615
2026-01-10 07:18:48.73	142.01	5.79	-53.7	-58.1	3.7	0.00e+00	0	46	104	0	78	24720
2026-01-10 07:18:50.74	141.89	5.95	-53.7	-58.1	3.7	0.00e+00	0	46	104	0	78	24593
2026-01-10 07:18:52.75	141.77	6.12	-53.7	-58.1	3.7	0.00e+00	0	47	104	0	78	24652
2026-01-10 07:18:54.75	141.66	6.29	-53.7	-58.1	3.7	0.00e+00	0	47	104	0	78	24607
2026-01-10 07:18:56.76	141.53	6.46	-53.6	-58.1	3.7	0.00e+00	0	47	104	0	78	24647
2026-01-10 07:18:58.77	141.41	6.63	-53.7	-58.1	3.7	0.00e+00	0	47	104	0	78	24593
2026-01-10 07:19:00.78	141.29	6.80	-53.6	-58.1	3.7	0.00e+00	0	47	104	0	78	24548
2026-01-10 07:19:02.79	141.16	6.98	-53.6	-58.1	3.7	0.00e+00	0	47	104	0	78	24545
2026-01-10 07:19:04.80	141.03	7.15	-53.6	-58.1	3.7	0.00e+00	0	48	104	0	78	24581
2026-01-10 07:19:06.81	140.90	7.33	-53.6	-58.1	3.7	0.00e+00	0	48	104	0	78	24555
2026-01-10 07:19:08.81	140.77	7.51	-53.6	-58.0	3.7	0.00e+00	0	48	104	0	78	24520
2026-01-10 07:19:10.83	140.63	7.69	-53.6	-58.0	3.7	0.00e+00	0	48	104	0	78	24391
2026-01-10 07:19:12.83	140.49	7.87	-53.6	-58.0	3.7	0.00e+00	0	48	104	0	78	24429
2026-01-10 07:19:14.84	140.35	8.05	-53.6	-58.0	3.7	0.00e+00	0	48	104	0	78	24340
2026-01-10 07:19:16.85	140.21	8.24	-53.6	-58.0	3.7	0.00e+00	0	48	104	0	78	24292
2026-01-10 07:19:18.86	140.07	8.43	-53.6	-58.0	3.7	0.00e+00	0	48	104	0	78	24470
2026-01-10 07:19:20.87	139.92	8.61	-53.6	-58.0	3.7	0.00e+00	0	48	104	0	78	24522
2026-01-10 07:19:22.88	139.77	8.81	-53.6	-58.0	3.7	0.00e+00	0	48	104	0	78	24507
2026-01-10 07:19:24.89	139.62	9.00	-53.6	-58.0	3.7	0.00e+00	0	48	104	0	78	24520
2026-01-10 07:19:26.89	139.46	9.19	-53.5	-58.1	3.7	0.00e+00	0	49	104	0	78	24582
2026-01-10 07:19:28.90	139.31	9.39	-53.6	-58.2	3.7	0.00e+00	0	49	104	0	78	24808
2026-01-10 07:19:30.91	139.15	9.59	-53.8	-58.3	3.7	0.00e+00	0	49	104	0	78	25293
2026-01-10 07:19:32.88	138.99	9.78	-53.8	-58.3	3.7	0.00e+00	0	49	104	0	78	25160
2026-01-10 07:19:34.88	138.82	9.98	-53.7	-58.1	3.7	0.00e+00	0	49	104	0	78	24580
2026-01-10 07:19:36.88	138.65	10.19	-53.8	-58.3	3.7	0.00e+00	0	49	104	0	78	25195
2026-01-10 07:19:38.89	138.48	10.39	-53.8	-58.3	3.7	0.00e+00	0	49	104	0	78	25193
2026-01-10 07:19:40.90	138.31	10.60	-53.7	-58.2	3.7	0.00e+00	0	49	104	0	78	25045
2026-01-10 07:19:42.90	138.13	10.81	-53.8	-58.3	3.7	0.00e+00	0	49	104	0	78	25244
2026-01-10 07:19:44.91	137.95	11.02	-53.7	-58.2	3.7	0.00e+00	0	49	104	0	78	24815
2026-01-10 07:19:46.97	137.76	11.24	-54.0	-58.4	3.7	0.00e+00	0	49	104	0	78	25568
2026-01-10 07:19:48.88	137.58	11.45	-54.0	-58.4	3.7	0.00e+00	0	49	104	0	78	25410
2026-01-10 07:19:50.88	137.39	11.67	-54.0	-58.4	3.7	0.00e+00	0	49	104	0	78	25564
2026-01-10 07:19:52.89	137.20	11.89	-54.0	-58.4	3.7	0.00e+00	0	49	104	0	78	25596
2026-01-10 07:19:54.89	137.00	12.11	-53.8	-58.3	3.7	0.00e+00	0	49	104	0	78	25145
2026-01-10 07:19:56.90	136.80	12.34	-54.0	-58.4	3.7	0.00e+00	0	50	104	0	78	25547
2026-01-10 07:19:58.87	136.59	12.57	-53.9	-58.2	3.7	0.00e+00	0	49	104	0	78	24942
2026-01-10 07:20:00.88	136.38	12.80	-53.8	-58.1	3.7	0.00e+00	0	50	104	0	78	24547
2026-01-10 07:20:02.89	136.17	13.03	-54.1	-58.5	3.7	0.00e+00	0	50	104	0	78	25715
2026-01-10 07:20:04.89	135.95	13.27	-54.0	-58.3	3.7	0.00e+00	0	50	104	0	78	25222
2026-01-10 07:20:06.89	135.73	13.51	-53.9	-58.4	3.7	0.00e+00	0	50	104	0	78	25675
2026-01-10 07:20:08.90	135.50	13.75	-54.0	-58.5	3.7	0.00e+00	0	50	104	0	78	25754
2026-01-10 07:20:10.85	135.27	13.99	-53.7	-58.2	3.7	0.00e+00	0	50	104	0	78	25011
2026-01-10 07:20:12.84	135.04	14.24	-53.7	-58.3	3.7	0.00e+00	0	50	104	0	78	25141
2026-01-10 07:20:14.85	134.80	14.49	-53.9	-58.2	3.7	0.00e+00	0	50	104	0	78	24984
2026-01-10 07:20:16.86	134.55	14.74	-53.7	-58.2	3.7	0.00e+00	0	50	104	0	78	25019
2026-01-10 07:20:18.86	134.30	15.00	-54.0	-58.3	3.7	0.00e+00	0	50	104	0	78	25175
2026-01-10 07:20:20.87	134.04	15.26	-53.9	-58.2	3.7	0.00e+00	0	50	104	0	78	24997
2026-01-10 07:20:22.87	133.78	15.52	-53.8	-58.0	3.7	0.00e+00	0	50	104	0	78	24410
2026-01-10 07:20:24.86	133.51	15.78	-53.8	-58.0	3.7	0.00e+00	0	50	104	0	78	24502
2026-01-10 07:20:26.87	133.24	16.05	-53.9	-58.1	3.7	0.00e+00	0	50	104	0	78	24655
2026-01-10 07:20:28.88	132.96	16.33	-53.8	-58.0	3.7	0.00e+00	0	50	104	0	78	24317
2026-01-10 07:20:31.06	132.64	16.63	-54.2	-58.6	3.7	0.00e+00	0	50	104	0	79	24663
2026-01-10 07:20:33.23	132.33	16.93	-53.9	-58.2	3.7	0.00e+00	0	50	104	0	79	23470
2026-01-10 07:20:35.24	132.02	17.22	-53.6	-58.1	3.7	0.00e+00	0	50	104	0	79	23251
2026-01-10 07:20:37.25	131.72	17.51	-53.6	-58.1	3.7	0.00e+00	0	50	104	0	79	23263
2026-01-10 07:20:39.25	131.40	17.80	-53.4	-57.5	3.7	0.00e+00	0	50	104	0	78	23039
2026-01-10 07:20:41.26	131.08	18.09	-53.5	-57.6	3.7	0.00e+00	0	50	104	0	78	23331
2026-01-10 07:20:43.27	130.75	18.39	-53.8	-58.1	3.7	0.00e+00	0	50	104	0	78	24792
2026-01-10 07:20:45.28	130.41	18.69	-53.9	-58.3	3.7	0.00e+00	0	50	104	0	78	25154
2026-01-10 07:20:47.66	130.00	19.06	-53.4	-57.6	3.7	0.00e+00	0	50	104	0	78	23384
2026-01-10 07:20:49.70	129.64	19.37	-53.6	-58.0	3.7	0.00e+00	0	50	104	0	78	24485
2026-01-10 07:20:51.71	129.28	19.69	-53.9	-58.1	3.7	0.00e+00	0	50	104	0	78	24692
2026-01-10 07:20:53.71	128.90	20.01	-53.8	-58.1	3.7	0.00e+00	0	51	104	0	78	24609
2026-01-10 07:20:55.72	128.52	20.33	-54.2	-58.4	3.7	0.00e+00	0	51	104	0	79	24225
2026-01-10 07:20:58.08	128.06	20.72	-54.2	-58.5	3.7	0.00e+00	0	50	104	0	79	24481
2026-01-10 07:21:00.12	127.65	21.06	-54.0	-58.2	3.7	0.00e+00	0	50	104	0	79	23446
2026-01-10 07:21:02.33	127.19	21.43	-54.2	-58.5	3.7	0.00e+00	0	51	104	0	79	24464
2026-01-10 07:21:04.71	126.69	21.83	-54.1	-58.6	3.7	0.00e+00	0	51	104	0	79	24683
2026-01-10 07:21:06.87	126.22	22.21	-53.6	-58.3	3.7	0.00e+00	0	51	104	0	79	23735
2026-01-10 07:21:09.05	125.73	22.59	-53.5	-58.2	3.7	0.00e+00	0	51	104	0	78	24984
2026-01-10 07:21:11.23	125.22	22.97	-54.1	-58.5	3.7	0.00e+00	0	51	104	0	78	25792
2026-01-10 07:21:13.53	124.67	23.39	-54.3	-58.6	3.7	0.00e+00	0	51	104	0	79	24742
2026-01-10 07:21:15.69	124.15	23.78	-54.1	-58.3	3.7	0.00e+00	0	50	104	0	79	23882
2026-01-10 07:21:17.87	123.60	24.18	-54.0	-58.3	3.7	0.00e+00	0	51	104	0	79	23859
2026-01-10 07:21:20.05	123.03	24.59	-54.1	-58.5	3.7	0.00e+00	0	51	104	0	79	24378
2026-01-10 07:21:22.20	122.46	25.00	-54.2	-58.7	3.7	0.00e+00	0	51	104	0	79	24857
2026-01-10 07:21:24.44	121.84	25.43	-54.2	-58.6	3.7	0.00e+00	0	51	104	0	79	24753
2026-01-10 07:21:26.62	121.22	25.85	-54.3	-58.6	3.7	0.00e+00	0	51	104	0	79	24733
2026-01-10 07:21:29.11	120.49	26.34	-54.3	-58.7	3.7	0.00e+00	0	51	104	0	79	24811
2026-01-10 07:21:31.29	119.83	26.77	-54.3	-58.8	3.7	0.00e+00	0	51	104	0	79	25126
2026-01-10 07:21:33.47	119.15	27.20	-54.2	-58.7	3.7	0.00e+00	0	51	104	0	79	24861
2026-01-10 07:21:35.87	118.38	27.69	-53.7	-58.3	3.7	0.00e+00	0	51	104	0	79	23732
2026-01-10 07:21:37.88	117.71	28.10	-53.9	-58.3	3.7	0.00e+00	0	51	104	0	79	23934
2026-01-10 07:21:39.89	117.02	28.51	-54.3	-58.7	3.7	0.00e+00	0	51	104	0	79	24991
2026-01-10 07:21:41.98	116.29	28.95	-54.3	-58.7	3.7	0.00e+00	0	51	104	0	79	24844
2026-01-10 07:21:43.98	115.57	29.37	-53.9	-58.4	3.7	0.00e+00	0	51	104	0	79	24091
2026-01-10 07:21:45.99	114.82	29.79	-54.0	-58.5	3.7	0.00e+00	0	51	104	0	79	24400
2026-01-10 07:21:48.15	113.99	30.25	-53.9	-58.6	3.7	0.00e+00	0	51	104	0	79	24570
2026-01-10 07:21:50.16	113.19	30.67	-53.5	-58.3	3.7	0.00e+00	0	51	104	0	78	25260
2026-01-10 07:21:52.45	112.26	31.16	-53.7	-58.3	3.7	0.00e+00	0	51	104	0	78	25099
2026-01-10 07:21:54.49	111.40	31.60	-53.4	-58.2	3.7	0.00e+00	0	51	104	0	78	24917
2026-01-10 07:21:56.45	110.55	32.02	-54.2	-58.6	3.7	0.00e+00	0	51	104	0	79	24617
2026-01-10 07:21:58.46	109.66	32.45	-54.4	-58.7	3.6	0.00e+00	0	51	104	0	79	24980
2026-01-10 07:22:00.46	108.74	32.87	-54.2	-58.7	3.7	0.00e+00	0	51	104	0	79	24841
2026-01-10 07:22:02.47	107.80	33.30	-54.1	-58.4	3.7	0.00e+00	0	51	104	0	79	24189
2026-01-10 07:22:04.51	106.81	33.74	-54.1	-58.6	3.7	0.00e+00	0	51	104	0	79	24637
2026-01-10 07:22:06.51	105.81	34.16	-54.3	-58.7	3.7	0.00e+00	0	51	104	0	79	24973
2026-01-10 07:22:08.64	104.72	34.61	-54.1	-58.6	3.7	0.00e+00	0	51	104	0	79	24687
2026-01-10 07:22:10.65	103.66	35.03	-54.2	-58.6	3.7	0.00e+00	0	51	104	0	79	24793
2026-01-10 07:22:12.66	102.57	35.44	-54.2	-58.4	3.7	0.00e+00	0	51	104	0	79	24204
2026-01-10 07:22:14.66	101.45	35.85	-53.7	-58.2	3.7	0.00e+00	0	51	104	0	79	23440
2026-01-10 07:22:16.64	100.32	36.25	-54.1	-58.6	3.7	0.00e+00	0	51	104	0	79	24741
2026-01-10 07:22:18.64	99.15	36.64	-54.4	-58.8	3.7	0.00e+00	0	51	104	0	79	25303
2026-01-10 07:22:20.65	97.94	37.03	-54.2	-58.8	3.7	0.00e+00	0	51	104	0	79	25133
2026-01-10 07:22:22.66	96.70	37.41	-54.4	-58.8	3.7	0.00e+00	0	51	104	0	79	25163
2026-01-10 07:22:24.67	95.43	37.77	-54.1	-58.7	3.7	0.00e+00	0	51	104	0	79	24882
2026-01-10 07:22:26.67	94.13	38.13	-54.2	-58.8	3.7	0.00e+00	0	51	104	0	79	25102
2026-01-10 07:22:28.60	92.85	38.46	-54.3	-58.7	3.7	0.00e+00	0	51	104	0	79	25055
2026-01-10 07:22:30.65	91.47	38.80	-53.7	-58.5	3.7	0.00e+00	0	51	104	0	79	24325
2026-01-10 07:22:32.80	89.98	39.14	-54.3	-58.8	3.7	0.00e+00	0	51	104	0	79	25325
2026-01-10 07:22:34.84	88.54	39.45	-53.4	-58.3	3.7	0.00e+00	0	51	104	0	78	25277
2026-01-10 07:22:36.84	87.10	39.73	-53.6	-58.5	3.7	0.00e+00	0	51	104	0	78	25743
2026-01-10 07:22:38.85	85.63	40.00	-53.3	-58.2	3.7	0.00e+00	0	51	104	0	78	24896
2026-01-10 07:22:40.85	84.14	40.25	-53.8	-58.5	3.7	0.00e+00	0	51	104	0	78	25788
2026-01-10 07:22:42.86	82.62	40.48	-53.3	-58.3	3.7	0.00e+00	0	51	104	0	78	25132
2026-01-10 07:22:44.86	81.09	40.68	-53.7	-58.5	3.7	0.00e+00	0	51	104	0	78	25852
2026-01-10 07:22:46.87	79.53	40.87	-54.0	-58.7	3.7	0.00e+00	0	51	104	0	78	26309
2026-01-10 07:22:48.87	77.96	41.03	-54.4	-58.9	3.7	0.00e+00	0	51	104	0	79	25586
2026-01-10 07:22:50.88	76.36	41.18	-54.2	-58.7	3.7	0.00e+00	0	51	104	0	79	25036
2026-01-10 07:22:52.88	74.76	41.29	-54.3	-58.9	3.7	0.00e+00	0	51	104	0	79	25419
2026-01-10 07:22:54.89	73.14	41.39	-54.0	-58.4	3.7	0.00e+00	0	51	104	0	79	24175
2026-01-10 07:22:56.89	71.53	41.45	-54.2	-58.5	3.7	0.00e+00	0	51	104	0	79	24393
2026-01-10 07:22:58.90	69.89	41.50	-54.0	-58.5	3.7	0.00e+00	0	51	104	0	79	24462
2026-01-10 07:23:01.00	68.18	41.52	-54.5	-58.9	3.7	0.00e+00	0	51	104	0	79	25613
2026-01-10 07:23:03.00	66.56	41.51	-54.5	-58.9	3.7	0.00e+00	0	51	104	0	79	25627
2026-01-10 07:23:05.01	64.92	41.48	-54.6	-58.9	3.7	0.00e+00	0	51	104	0	79	25634
2026-01-10 07:23:07.01	63.30	41.42	-54.3	-58.7	3.7	0.00e+00	0	51	104	0	79	24938
2026-01-10 07:23:09.02	61.68	41.34	-54.5	-58.8	3.7	0.00e+00	0	51	104	0	79	25382
2026-01-10 07:23:11.02	60.08	41.23	-54.5	-59.0	3.7	0.00e+00	0	51	104	0	79	25753
2026-01-10 07:23:13.03	58.48	41.10	-54.4	-58.8	3.7	0.00e+00	0	51	104	0	79	25257
2026-01-10 07:23:15.04	56.90	40.95	-54.3	-58.4	3.7	0.00e+00	0	51	104	0	79	24224
2026-01-10 07:23:17.05	55.33	40.77	-54.3	-58.6	3.7	0.00e+00	0	51	104	0	79	24605
2026-01-10 07:23:19.05	53.79	40.57	-54.4	-58.8	3.7	0.00e+00	0	51	104	0	79	25211
2026-01-10 07:23:21.10	52.23	40.35	-54.1	-58.4	3.7	0.00e+00	0	51	104	0	79	24153
2026-01-10 07:23:23.14	50.71	40.10	-54.4	-58.5	3.7	0.00e+00	0	51	104	0	79	24508
2026-01-10 07:23:25.21	49.18	39.84	-54.1	-58.2	3.7	0.00e+00	0	51	104	0	79	23602
2026-01-10 07:23:27.22	47.73	39.56	-54.2	-58.4	3.7	0.00e+00	0	51	104	0	79	24113
2026-01-10 07:23:29.23	46.30	39.27	-54.2	-58.6	3.7	0.00e+00	0	51	104	0	79	24608
2026-01-10 07:23:31.23	44.91	38.96	-54.1	-58.4	3.7	0.00e+00	0	51	104	0	79	23988
2026-01-10 07:23:33.24	43.54	38.63	-54.2	-58.4	3.7	0.00e+00	0	51	104	0	79	24122
2026-01-10 07:23:35.25	42.20	38.29	-54.3	-58.7	3.7	0.00e+00	0	51	104	0	79	24809
2026-01-10 07:23:37.26	40.89	37.94	-53.9	-58.0	3.7	0.00e+00	0	51	104	0	79	23101
2026-01-10 07:23:39.36	39.56	37.56	-53.4	-57.7	3.7	0.00e+00	0	51	104	0	78	23497
2026-01-10 07:23:41.37	38.31	37.19	-53.7	-57.7	3.7	0.00e+00	0	51	104	0	78	23630
2026-01-10 07:23:43.50	37.02	36.78	-54.1	-58.3	3.7	0.00e+00	0	51	104	0	78	25329
2026-01-10 07:23:45.57	35.80	36.38	-54.3	-58.8	3.7	0.00e+00	0	51	104	0	79	25225
2026-01-10 07:23:47.58	34.64	35.98	-52.5	-55.7	3.7	0.00e+00	0	51	104	0	77	19741
2026-01-10 07:23:49.59	33.52	35.58	-51.7	-54.6	3.7	0.00e+00	0	51	104	0	75	19692
2026-01-10 07:23:51.60	32.42	35.16	-53.2	-56.7	3.7	0.00e+00	0	51	104	0	77	22209
2026-01-10 07:23:53.61	31.36	34.75	-52.5	-55.5	3.7	0.00e+00	0	51	104	0	77	19473
2026-01-10 07:23:55.82	30.22	34.29	-53.4	-57.0	3.7	0.00e+00	0	51	104	0	77	23042
2026-01-10 07:23:57.99	29.14	33.83	-53.7	-57.5	3.7	0.00e+00	0	51	104	0	78	23059
2026-01-10 07:24:00.16	28.09	33.37	-53.5	-58.1	3.7	0.00e+00	0	51	104	0	78	24545
2026-01-10 07:24:02.36	27.05	32.90	-53.9	-58.3	3.7	0.00e+00	0	51	104	0	78	25247
2026-01-10 07:24:04.53	26.06	32.44	-53.9	-58.2	3.7	0.00e+00	0	51	104	0	78	25017
2026-01-10 07:24:07.07	24.94	31.90	-52.3	-57.4	3.7	0.00e+00	0	51	104	0	76	25635
2026-01-10 07:24:09.08	24.09	31.47	-53.3	-58.2	3.7	0.00e+00	0	51	104	0	77	26453
2026-01-10 07:24:11.09	23.25	31.05	-54.0	-58.4	3.7	0.00e+00	0	51	104	0	78	25493
2026-01-10 07:24:13.03	22.47	30.64	-53.9	-58.3	3.7	0.00e+00	0	51	104	0	78	25148
2026-01-10 07:24:15.13	21.65	30.19	-53.7	-57.9	3.7	0.00e+00	0	51	104	0	78	24035
2026-01-10 07:24:17.17	20.88	29.77	-53.5	-57.5	3.7	0.00e+00	0	51	104	0	78	23036
2026-01-10 07:24:19.22	20.12	29.34	-53.9	-58.2	3.7	0.00e+00	0	51	104	0	78	24856
2026-01-10 07:24:21.42	19.33	28.88	-54.1	-58.5	3.7	0.00e+00	0	51	104	0	78	25792
2026-01-10 07:24:23.50	18.61	28.45	-54.0	-58.4	3.7	0.00e+00	0	51	104	0	78	25576
2026-01-10 07:24:25.51	17.93	28.04	-53.7	-58.1	3.7	0.00e+00	0	51	104	0	78	24570
2026-01-10 07:24:27.52	17.27	27.63	-53.7	-58.0	3.7	0.00e+00	0	51	104	0	78	24352
2026-01-10 07:24:29.52	16.63	27.23	-54.0	-58.5	3.7	0.00e+00	0	51	104	0	78	25841
2026-01-10 07:24:31.58	16.00	26.82	-53.8	-58.3	3.7	0.00e+00	0	51	104	0	78	25097
2026-01-10 07:24:33.66	15.37	26.41	-53.9	-58.0	3.7	0.00e+00	0	51	104	0	78	24514
2026-01-10 07:24:35.85	14.73	25.99	-53.5	-57.5	3.7	0.00e+00	0	51	104	0	78	23052
2026-01-10 07:24:37.85	14.16	25.60	-53.9	-58.1	3.7	0.00e+00	0	51	104	0	78	24798
2026-01-10 07:24:39.86	13.60	25.22	-53.5	-58.1	3.7	0.00e+00	0	51	104	0	78	24572
2026-01-10 07:24:42.01	13.03	24.81	-53.4	-58.1	3.7	0.00e+00	0	51	104	0	78	24538
2026-01-10 07:24:44.02	12.50	24.43	-52.8	-56.8	3.7	0.00e+00	0	51	104	0	77	22440
2026-01-10 07:24:46.02	11.99	24.07	-52.8	-56.7	3.7	0.00e+00	0	51	104	0	77	22137
2026-01-10 07:24:48.03	11.49	23.70	-53.0	-56.5	3.7	0.00e+00	0	51	104	0	76	23127
2026-01-10 07:24:50.04	11.01	23.34	-52.5	-55.7	3.7	0.00e+00	0	51	104	0	76	20928
2026-01-10 07:24:52.04	10.54	22.98	-52.9	-56.2	3.7	0.00e+00	0	51	104	0	76	22341
2026-01-10 07:24:54.05	10.08	22.63	-53.1	-56.8	3.7	0.00e+00	0	51	104	0	76	23749
2026-01-10 07:24:56.05	9.63	22.28	-53.3	-57.2	3.7	0.00e+00	0	51	104	0	77	23559
2026-01-10 07:24:58.06	9.20	21.93	-53.5	-57.6	3.7	0.00e+00	0	51	104	0	77	24640
2026-01-10 07:25:00.32	8.72	21.55	-53.0	-56.8	3.7	0.00e+00	0	51	104	0	77	22445
2026-01-10 07:25:02.33	8.30	21.21	-52.3	-55.8	3.7	0.00e+00	0	51	104	0	76	21317
2026-01-10 07:25:04.33	7.90	20.88	-53.5	-57.9	3.7	0.00e+00	0	51	104	0	77	25578
2026-01-10 07:25:06.36	7.50	20.55	-53.5	-57.9	3.7	0.00e+00	0	51	104	0	77	25539
2026-01-10 07:25:08.36	7.12	20.23	-53.1	-57.2	3.7	0.00e+00	0	51	104	0	77	23505
2026-01-10 07:25:10.50	6.72	19.89	-52.3	-56.4	3.7	0.00e+00	0	51	104	0	76	22809
2026-01-10 07:25:12.50	6.36	19.58	-51.1	-56.4	3.7	0.00e+00	0	51	104	0	73	26926
2026-01-10 07:25:14.51	6.00	19.26	-51.1	-55.6	3.7	0.00e+00	0	51	104	0	73	24784
2026-01-10 07:25:16.52	5.65	18.96	-51.3	-55.6	3.7	0.00e+00	0	51	104	0	73	24662
2026-01-10 07:25:18.53	5.31	18.65	-51.8	-56.0	3.7	0.00e+00	0	51	104	0	74	24284
2026-01-10 07:25:20.53	4.98	18.35	-52.2	-56.4	3.7	0.00e+00	0	51	104	0	75	24192
2026-01-10 07:25:22.58	4.65	18.05	-52.4	-56.6	3.7	0.00e+00	0	51	104	0	75	24735
2026-01-10 07:25:24.65	4.33	17.75	-52.4	-56.7	3.7	0.00e+00	0	51	104	0	75	24829
2026-01-10 07:25:26.66	4.02	17.46	-52.8	-57.0	3.7	0.00e+00	0	51	104	0	76	24336
2026-01-10 07:25:28.81	3.69	17.16	-53.2	-57.1	3.7	0.00e+00	0	51	104	0	76	24648
2026-01-10 07:25:30.82	3.40	16.88	-52.8	-57.0	3.7	0.00e+00	0	51	104	0	76	24522
2026-01-10 07:25:32.82	3.11	16.60	-51.5	-56.6	3.7	0.00e+00	0	51	104	0	75	24585
2026-01-10 07:25:34.83	2.83	16.33	-51.2	-56.5	3.7	0.00e+00	0	51	104	0	74	25746
2026-01-10 07:25:36.83	2.55	16.06	-51.8	-57.1	3.7	0.00e+00	0	51	104	0	74	27698
2026-01-10 07:25:38.84	2.28	15.79	-52.7	-57.8	3.7	0.00e+00	0	51	104	0	76	26733
2026-01-10 07:25:40.85	2.02	15.53	-52.5	-57.7	3.7	0.00e+00	0	51	104	0	76	26410
2026-01-10 07:25:42.85	1.76	15.27	-52.2	-56.4	3.7	0.00e+00	0	51	104	0	76	22859
2026-01-10 07:25:44.86	1.51	15.01	-51.4	-56.0	3.7	0.00e+00	0	51	104	0	74	24513
2026-01-10 07:25:46.90	1.25	14.75	-50.9	-55.7	3.7	0.00e+00	0	51	104	0	73	24941
2026-01-10 07:25:48.90	1.01	14.50	-52.5	-56.5	3.7	0.00e+00	0	51	104	0	75	24278
2026-01-10 07:25:50.91	0.77	14.25	-51.4	-56.7	3.7	0.00e+00	0	51	104	0	74	26482
2026-01-10 07:25:52.99	0.53	13.99	-51.7	-56.9	3.7	0.00e+00	0	51	104	0	74	27107
2026-01-10 07:25:55.00	0.30	13.75	-51.7	-56.9	3.7	0.00e+00	0	51	104	0	74	26983
2026-01-10 07:25:57.00	0.08	13.51	-52.9	-57.4	3.7	0.00e+00	0	51	104	0	76	25643
2026-01-10 07:25:59.01	359.86	13.27	-53.1	-57.5	3.7	0.00e+00	0	51	104	0	76	25730
2026-01-10 07:26:01.02	359.65	13.04	-52.8	-56.9	3.7	0.00e+00	0	51	104	0	77	22739
2026-01-10 07:26:03.03	359.44	12.81	-52.6	-56.7	3.7	0.00e+00	0	51	104	0	76	23628
2026-01-10 07:26:05.13	359.22	12.57	-52.8	-56.8	3.7	0.00e+00	0	51	104	0	76	23773
2026-01-10 07:26:07.13	359.02	12.34	-52.8	-56.8	3.7	0.00e+00	0	51	104	0	76	23796
2026-01-10 07:26:09.14	358.82	12.12	-53.4	-57.8	3.7	0.00e+00	0	51	104	0	77	25345
2026-01-10 07:26:11.29	358.61	11.88	-53.0	-57.5	3.7	0.00e+00	0	51	104	0	76	25798
2026-01-10 07:26:13.50	358.40	11.64	-53.3	-57.7	3.7	0.00e+00	0	51	104	0	77	24917
2026-01-10 07:26:15.50	358.21	11.42	-53.4	-58.1	3.7	0.00e+00	0	51	104	0	77	26084
2026-01-10 07:26:17.51	358.03	11.21	-51.6	-57.4	3.7	0.00e+00	0	51	104	0	75	27008
2026-01-10 07:26:19.52	357.85	11.00	-48.5	-55.3	3.7	0.00e+00	0	51	104	0	68	31878
2026-01-10 07:26:21.53	357.67	10.79	-48.4	-55.2	3.8	0.00e+00	0	51	104	0	68	31398
2026-01-10 07:26:23.54	357.50	10.58	-48.9	-55.6	3.7	0.00e+00	0	51	104	0	69	31029
2026-01-10 07:26:25.54	357.33	10.37	-50.8	-56.8	3.7	0.00e+00	0	51	104	0	72	29951
2026-01-10 07:26:27.65	357.15	10.16	-50.9	-56.7	3.7	0.00e+00	0	51	104	0	73	28091
2026-01-10 07:26:29.65	356.99	9.96	-50.8	-56.5	3.7	0.00e+00	0	51	104	0	72	29057
2026-01-10 07:26:32.00	356.80	9.72	-48.4	-54.8	3.8	0.00e+00	0	51	104	0	68	29829
2026-01-10 07:26:34.01	356.64	9.53	-47.2	-53.7	3.9	0.00e+00	0	51	104	0	66	29669
2026-01-10 07:26:36.01	356.49	9.33	-47.0	-53.6	3.9	0.00e+00	0	51	104	0	64	32753
2026-01-10 07:26:38.02	356.34	9.14	-47.9	-54.3	3.8	0.00e+00	0	51	104	0	67	29854
2026-01-10 07:26:40.03	356.19	8.95	-49.1	-55.4	3.7	0.00e+00	0	52	104	0	68	32115
2026-01-10 07:26:42.03	356.04	8.76	-52.8	-57.9	3.7	0.00e+00	0	52	104	0	77	25467
2026-01-10 07:26:44.04	355.89	8.57	-53.8	-58.1	3.7	0.00e+00	0	51	104	0	78	24739
2026-01-10 07:26:46.05	355.75	8.38	-53.1	-58.1	3.7	0.00e+00	0	51	104	0	77	26016
2026-01-10 07:26:48.06	355.61	8.20	-53.9	-58.5	3.7	0.00e+00	0	51	104	0	79	24490
2026-01-10 07:26:50.07	355.47	8.01	-53.8	-58.5	3.7	0.00e+00	0	52	104	0	78	25963
2026-01-10 07:26:52.08	355.34	7.83	-53.8	-58.6	3.7	0.00e+00	0	51	104	0	79	24701
2026-01-10 07:26:54.08	355.21	7.65	-54.1	-58.6	3.7	0.00e+00	0	51	104	0	79	24707
2026-01-10 07:26:56.09	355.07	7.48	-54.0	-58.6	3.7	0.00e+00	0	51	104	0	79	24657
2026-01-10 07:26:58.10	354.94	7.30	-54.3	-58.8	3.7	0.00e+00	0	52	104	0	79	25326
2026-01-10 07:27:00.11	354.82	7.12	-53.6	-58.5	3.7	0.00e+00	0	51	104	0	79	24418
2026-01-10 07:27:02.12	354.69	6.95	-54.4	-59.0	3.7	0.00e+00	0	51	104	0	79	25763
2026-01-10 07:27:04.13	354.57	6.78	-54.4	-58.9	3.7	0.00e+00	0	51	104	0	79	25459
2026-01-10 07:27:06.18	354.45	6.60	-54.2	-58.7	3.7	0.00e+00	0	51	104	0	79	24911
2026-01-10 07:27:08.12	354.33	6.44	-53.9	-58.4	3.7	0.00e+00	0	51	104	0	78	25533
2026-01-10 07:27:10.35	354.20	6.25	-54.0	-58.4	3.7	0.00e+00	0	51	104	0	78	25645
2026-01-10 07:27:12.36	354.09	6.09	-54.0	-58.4	3.7	0.00e+00	0	51	104	0	78	25626
2026-01-10 07:27:14.37	353.97	5.92	-54.0	-58.4	3.7	0.00e+00	0	51	104	0	78	25604
2026-01-10 07:27:16.37	353.86	5.76	-54.0	-58.4	3.7	0.00e+00	0	51	104	0	78	25627
2026-01-10 07:27:18.38	353.75	5.60	-54.0	-58.4	3.7	0.00e+00	0	51	104	0	78	25507
2026-01-10 07:27:20.39	353.64	5.43	-53.9	-58.4	3.7	0.00e+00	0	51	104	0	78	25436
2026-01-10 07:27:22.40	353.53	5.27	-54.0	-58.4	3.7	0.00e+00	0	51	104	0	78	25484
2026-01-10 07:27:24.41	353.43	5.12	-54.0	-58.4	3.7	0.00e+00	0	51	104	0	78	25477
2026-01-10 07:27:26.42	353.33	4.96	-54.0	-58.4	3.7	0.00e+00	0	51	104	0	78	25505

#Closed at: 2026-01-10 07:27:27
#Recorded file [0 MB]: D:/Data/31040_260110_101840.dat