passes_logs/2026/01/10/T1/T1__20260110_201242_KHAYYAM_rec.log

#Pass ID: 20260110_201242_KHAYYAM
#Satellite: KHAYYAM
#Configuration: KHAYYAM_480M
#almurnet v.1.7.20251203
#Start time: 2026-01-10 20:12:43

#Version: 2.0.20230620
#Station: T1
#Location: 37.570604 lon 55.790049 lat
#TLE: 1 53370U 22096A   26009.83775054  .00006427  00000+0  26206-3 0  9990
#TLE: 2 53370  97.3557 276.9405 0001290  95.9016 264.2369 15.24785942190459

#Time	Az	El	Level	Level2	SNR	BER	BlckErr	Temp	State	Recorded	gain1	gain2
2026-01-10 20:12:43.27	32.10	5.09	-49.5	-55.1	3.5	0.00e+00	0	45	0	0	69	29364
2026-01-10 20:12:45.28	32.34	5.22	-49.5	-55.1	3.7	0.00e+00	0	46	104	0	69	29322
2026-01-10 20:12:47.28	32.58	5.36	-49.5	-55.0	3.7	0.00e+00	0	46	104	0	69	29042
2026-01-10 20:12:49.29	32.82	5.50	-49.5	-55.1	3.7	0.00e+00	0	47	104	0	69	29321
2026-01-10 20:12:51.30	33.07	5.63	-49.5	-55.1	3.7	0.00e+00	0	47	104	0	69	29293
2026-01-10 20:12:53.31	33.32	5.77	-49.5	-55.1	3.7	0.00e+00	0	47	104	0	69	29345
2026-01-10 20:12:55.32	33.57	5.91	-49.5	-55.1	3.7	0.00e+00	0	47	104	0	69	29359
2026-01-10 20:12:57.33	33.82	6.05	-49.5	-55.0	3.7	0.00e+00	0	47	104	0	69	29140
2026-01-10 20:12:59.33	34.08	6.19	-49.4	-55.1	3.7	0.00e+00	0	47	104	0	69	29199
2026-01-10 20:13:01.34	34.34	6.33	-49.5	-55.1	3.7	0.00e+00	0	47	104	0	69	29272
2026-01-10 20:13:03.35	34.61	6.47	-49.5	-55.1	3.7	0.00e+00	0	48	104	0	69	29365
2026-01-10 20:13:05.35	34.87	6.62	-49.5	-55.1	3.7	0.00e+00	0	48	104	0	69	29426
2026-01-10 20:13:07.36	35.14	6.76	-49.5	-55.1	3.7	0.00e+00	0	48	104	0	69	29321
2026-01-10 20:13:09.37	35.42	6.90	-49.5	-55.1	3.7	0.00e+00	0	48	104	0	69	29376
2026-01-10 20:13:11.38	35.69	7.05	-49.5	-55.1	3.7	0.00e+00	0	48	104	0	69	29250
2026-01-10 20:13:13.39	35.98	7.19	-49.5	-55.1	3.7	0.00e+00	0	48	104	0	69	29275
2026-01-10 20:13:15.40	36.26	7.34	-49.5	-55.1	3.7	0.00e+00	0	48	104	0	69	29329
2026-01-10 20:13:17.40	36.55	7.48	-49.5	-55.1	3.7	0.00e+00	0	48	104	0	69	29337
2026-01-10 20:13:19.41	36.84	7.63	-49.5	-55.1	3.7	0.00e+00	0	49	104	0	69	29425
2026-01-10 20:13:21.42	37.13	7.78	-49.5	-55.1	3.7	0.00e+00	0	49	104	0	69	29453
2026-01-10 20:13:23.43	37.43	7.92	-49.5	-55.1	3.7	0.00e+00	0	49	104	0	69	29358
2026-01-10 20:13:25.44	37.73	8.07	-49.5	-55.1	3.7	0.00e+00	0	49	104	0	69	29395
2026-01-10 20:13:27.45	38.04	8.22	-49.5	-55.1	3.7	0.00e+00	0	49	104	0	69	29349
2026-01-10 20:13:29.46	38.35	8.37	-49.5	-55.1	3.7	0.00e+00	0	49	104	0	69	29408
2026-01-10 20:13:31.47	38.66	8.52	-49.5	-55.1	3.7	0.00e+00	0	49	104	0	69	29352
2026-01-10 20:13:33.48	38.98	8.67	-49.4	-55.1	3.7	0.00e+00	0	49	104	0	69	29386
2026-01-10 20:13:35.48	39.30	8.82	-49.5	-55.1	3.7	0.00e+00	0	49	104	0	69	29353
2026-01-10 20:13:37.49	39.63	8.97	-49.4	-55.1	3.7	0.00e+00	0	49	104	0	69	29319
2026-01-10 20:13:39.50	39.96	9.13	-49.5	-55.1	3.7	0.00e+00	0	49	104	0	69	29380
2026-01-10 20:13:41.51	40.29	9.28	-49.5	-55.1	3.7	0.00e+00	0	49	104	0	69	29338
2026-01-10 20:13:43.52	40.63	9.43	-49.5	-55.1	3.7	0.00e+00	0	49	104	0	69	29356
2026-01-10 20:13:45.53	40.97	9.59	-49.5	-55.1	3.7	0.00e+00	0	50	104	0	69	29329
2026-01-10 20:13:47.54	41.32	9.74	-49.5	-55.1	3.7	0.00e+00	0	50	104	0	69	29329
2026-01-10 20:13:49.54	41.67	9.90	-49.5	-55.1	3.7	0.00e+00	0	50	104	0	69	29307
2026-01-10 20:13:51.55	42.03	10.05	-49.5	-55.1	3.7	0.00e+00	0	50	104	0	69	29337
2026-01-10 20:13:53.56	42.39	10.21	-49.5	-55.1	3.7	0.00e+00	0	50	104	0	69	29382
2026-01-10 20:13:55.57	42.75	10.37	-49.5	-55.1	3.7	0.00e+00	0	50	104	0	69	29378
2026-01-10 20:13:57.58	43.12	10.52	-49.5	-55.1	3.7	0.00e+00	0	50	104	0	69	29417
2026-01-10 20:13:59.59	43.50	10.68	-49.5	-55.1	3.7	0.00e+00	0	50	104	0	69	29374
2026-01-10 20:14:01.60	43.88	10.84	-49.5	-55.1	3.7	0.00e+00	0	50	104	0	69	29466
2026-01-10 20:14:03.60	44.26	11.00	-49.5	-55.1	3.7	0.00e+00	0	50	104	0	69	29290
2026-01-10 20:14:05.61	44.65	11.16	-49.5	-55.1	3.7	0.00e+00	0	50	104	0	69	29346
2026-01-10 20:14:07.62	45.05	11.32	-49.5	-55.1	3.7	0.00e+00	0	50	104	0	69	29390
2026-01-10 20:14:09.63	45.45	11.48	-49.5	-55.1	3.7	0.00e+00	0	50	104	0	69	29393
2026-01-10 20:14:11.64	45.85	11.64	-49.5	-55.1	3.7	0.00e+00	0	50	104	0	69	29453
2026-01-10 20:14:13.65	46.27	11.80	-49.5	-55.1	3.7	0.00e+00	0	50	104	0	69	29327
2026-01-10 20:14:15.65	46.68	11.95	-49.5	-55.1	3.7	0.00e+00	0	50	104	0	69	29372
2026-01-10 20:14:17.66	47.10	12.12	-49.5	-55.1	3.7	0.00e+00	0	50	104	0	69	29454
2026-01-10 20:14:19.67	47.53	12.28	-49.5	-55.1	3.7	0.00e+00	0	50	104	0	69	29407
2026-01-10 20:14:21.68	47.96	12.44	-49.5	-55.1	3.7	0.00e+00	0	51	104	0	69	29468
2026-01-10 20:14:23.69	48.40	12.60	-49.4	-55.1	3.7	0.00e+00	0	50	104	0	69	29403
2026-01-10 20:14:25.70	48.85	12.76	-49.5	-55.1	3.7	0.00e+00	0	50	104	0	69	29430
2026-01-10 20:14:27.71	49.30	12.92	-49.5	-55.1	3.7	0.00e+00	0	51	104	0	69	29396
2026-01-10 20:14:29.71	49.75	13.08	-49.4	-55.1	3.7	0.00e+00	0	50	104	0	69	29369
2026-01-10 20:14:31.72	50.21	13.24	-49.5	-55.1	3.7	0.00e+00	0	50	104	0	69	29400
2026-01-10 20:14:33.73	50.68	13.40	-49.5	-55.1	3.7	0.00e+00	0	50	104	0	69	29410
2026-01-10 20:14:35.74	51.16	13.57	-49.4	-55.1	3.7	0.00e+00	0	50	104	0	69	29383
2026-01-10 20:14:37.75	51.64	13.73	-49.5	-55.1	3.7	0.00e+00	0	50	104	0	69	29355
2026-01-10 20:14:39.76	52.13	13.89	-49.5	-55.2	3.7	0.00e+00	0	50	104	0	69	29515
2026-01-10 20:14:41.77	52.62	14.05	-49.5	-55.1	3.7	0.00e+00	0	51	104	0	69	29399
2026-01-10 20:14:43.78	53.12	14.21	-49.5	-55.1	3.7	0.00e+00	0	51	104	0	69	29385
2026-01-10 20:14:45.79	53.63	14.37	-49.5	-55.1	3.7	0.00e+00	0	51	104	0	69	29407
2026-01-10 20:14:47.80	54.14	14.53	-49.5	-55.1	3.7	0.00e+00	0	51	104	0	69	29406
2026-01-10 20:14:49.81	54.66	14.69	-49.5	-55.1	3.7	0.00e+00	0	50	104	0	69	29397
2026-01-10 20:14:51.81	55.18	14.84	-49.5	-55.1	3.7	0.00e+00	0	51	104	0	69	29413
2026-01-10 20:14:53.82	55.71	15.00	-49.5	-55.1	3.7	0.00e+00	0	51	104	0	69	29381
2026-01-10 20:14:55.83	56.25	15.16	-49.5	-55.1	3.7	0.00e+00	0	51	104	0	69	29452
2026-01-10 20:14:57.84	56.80	15.31	-49.5	-55.1	3.7	0.00e+00	0	51	104	0	69	29433
2026-01-10 20:14:59.85	57.35	15.47	-49.5	-55.1	3.7	0.00e+00	0	51	104	0	69	29473
2026-01-10 20:15:01.86	57.91	15.62	-49.5	-55.2	3.7	0.00e+00	0	51	104	0	69	29487
2026-01-10 20:15:03.87	58.48	15.78	-49.5	-55.2	3.7	0.00e+00	0	51	104	0	69	29511
2026-01-10 20:15:05.87	59.05	15.93	-49.5	-55.1	3.7	0.00e+00	0	51	104	0	69	29455
2026-01-10 20:15:07.88	59.62	16.08	-49.5	-55.2	3.7	0.00e+00	0	51	104	0	69	29493
2026-01-10 20:15:09.89	60.21	16.23	-49.5	-55.2	3.7	0.00e+00	0	51	104	0	69	29492
2026-01-10 20:15:11.90	60.80	16.38	-49.5	-55.1	3.7	0.00e+00	0	51	104	0	69	29444
2026-01-10 20:15:13.91	61.40	16.53	-49.5	-55.1	3.7	0.00e+00	0	51	104	0	69	29444
2026-01-10 20:15:15.92	62.01	16.67	-49.5	-55.1	3.7	0.00e+00	0	51	104	0	69	29399
2026-01-10 20:15:17.93	62.63	16.81	-49.5	-55.1	3.7	0.00e+00	0	51	104	0	69	29379
2026-01-10 20:15:19.94	63.25	16.96	-49.5	-55.2	3.7	0.00e+00	0	51	104	0	69	29484
2026-01-10 20:15:21.94	63.87	17.10	-49.5	-55.1	3.7	0.00e+00	0	51	104	0	69	29446
2026-01-10 20:15:23.95	64.50	17.23	-49.5	-55.2	3.7	0.00e+00	0	51	104	0	69	29526
2026-01-10 20:15:25.96	65.15	17.37	-49.4	-55.1	3.7	0.00e+00	0	51	104	0	69	29482
2026-01-10 20:15:27.97	65.79	17.51	-49.5	-55.1	3.7	0.00e+00	0	51	104	0	69	29402
2026-01-10 20:15:29.98	66.45	17.64	-49.5	-55.1	3.7	0.00e+00	0	51	104	0	69	29420
2026-01-10 20:15:31.99	67.11	17.77	-49.5	-55.1	3.7	0.00e+00	0	51	104	0	69	29482
2026-01-10 20:15:33.99	67.77	17.89	-49.4	-55.2	3.7	0.00e+00	0	51	104	0	69	29564
2026-01-10 20:15:36.00	68.45	18.02	-49.5	-55.2	3.7	0.00e+00	0	51	104	0	69	29579
2026-01-10 20:15:38.01	69.13	18.14	-49.5	-55.1	3.7	0.00e+00	0	51	104	0	69	29460
2026-01-10 20:15:40.02	69.81	18.26	-49.5	-55.1	3.7	0.00e+00	0	51	104	0	69	29399
2026-01-10 20:15:42.03	70.51	18.38	-49.5	-55.1	3.7	0.00e+00	0	51	104	0	69	29458
2026-01-10 20:15:44.04	71.21	18.49	-49.5	-55.2	3.7	0.00e+00	0	51	104	0	69	29505
2026-01-10 20:15:46.05	71.91	18.60	-49.5	-55.2	3.7	0.00e+00	0	51	104	0	69	29522
2026-01-10 20:15:48.06	72.62	18.71	-49.5	-55.1	3.6	0.00e+00	0	51	104	0	69	29473
2026-01-10 20:15:50.07	73.34	18.81	-49.5	-55.2	3.7	0.00e+00	0	51	104	0	69	29498
2026-01-10 20:15:52.07	74.06	18.91	-49.5	-55.2	3.7	0.00e+00	0	51	104	0	69	29509
2026-01-10 20:15:54.08	74.79	19.01	-49.5	-55.1	3.7	0.00e+00	0	51	104	0	69	29397
2026-01-10 20:15:56.09	75.52	19.10	-49.5	-55.1	3.7	0.00e+00	0	51	104	0	69	29461
2026-01-10 20:15:58.10	76.26	19.19	-49.5	-55.2	3.7	0.00e+00	0	51	104	0	69	29525
2026-01-10 20:16:00.11	77.00	19.28	-49.5	-55.2	3.7	0.00e+00	0	51	104	0	69	29485
2026-01-10 20:16:02.12	77.75	19.36	-49.5	-55.2	3.7	0.00e+00	0	51	104	0	69	29575
2026-01-10 20:16:04.13	78.50	19.44	-49.5	-55.1	3.7	0.00e+00	0	51	104	0	69	29430
2026-01-10 20:16:06.14	79.26	19.51	-49.5	-55.1	3.7	0.00e+00	0	51	104	0	69	29454
2026-01-10 20:16:08.14	80.01	19.58	-49.5	-55.2	3.7	0.00e+00	0	51	104	0	69	29528
2026-01-10 20:16:10.15	80.78	19.65	-49.5	-55.2	3.7	0.00e+00	0	51	104	0	69	29543
2026-01-10 20:16:12.16	81.55	19.71	-49.5	-55.1	3.7	0.00e+00	0	51	104	0	69	29471
2026-01-10 20:16:14.17	82.32	19.76	-49.5	-55.1	3.7	0.00e+00	0	51	104	0	69	29439
2026-01-10 20:16:16.18	83.09	19.82	-49.5	-55.2	3.7	0.00e+00	0	51	104	0	69	29513
2026-01-10 20:16:18.19	83.87	19.86	-49.5	-55.2	3.7	0.00e+00	0	51	104	0	69	29500
2026-01-10 20:16:20.20	84.65	19.91	-49.5	-55.1	3.7	0.00e+00	0	51	104	0	69	29469
2026-01-10 20:16:22.21	85.43	19.95	-49.5	-55.2	3.7	0.00e+00	0	51	104	0	69	29522
2026-01-10 20:16:24.21	86.22	19.98	-49.5	-55.2	3.7	0.00e+00	0	51	104	0	69	29571
2026-01-10 20:16:26.22	87.00	20.01	-49.5	-55.1	3.7	0.00e+00	0	51	104	0	69	29410
2026-01-10 20:16:28.23	87.79	20.03	-49.5	-55.1	3.7	0.00e+00	0	51	104	0	69	29400
2026-01-10 20:16:30.24	88.58	20.05	-49.5	-55.1	3.7	0.00e+00	0	51	104	0	69	29452
2026-01-10 20:16:32.25	89.37	20.07	-49.5	-55.1	3.7	0.00e+00	0	51	104	0	69	29407
2026-01-10 20:16:34.26	90.16	20.07	-49.5	-55.1	3.7	0.00e+00	0	51	104	0	69	29483
2026-01-10 20:16:36.27	90.96	20.08	-49.5	-55.2	3.7	0.00e+00	0	51	104	0	69	29541
2026-01-10 20:16:38.28	91.75	20.08	-49.5	-55.1	3.7	0.00e+00	0	51	104	0	69	29483
2026-01-10 20:16:40.28	92.54	20.07	-49.5	-55.2	3.7	0.00e+00	0	51	104	0	69	29513
2026-01-10 20:16:42.29	93.33	20.06	-49.5	-55.2	3.7	0.00e+00	0	51	104	0	69	29517
2026-01-10 20:16:44.30	94.12	20.05	-49.5	-55.1	3.7	0.00e+00	0	51	104	0	69	29478
2026-01-10 20:16:46.31	94.91	20.03	-49.5	-55.1	3.7	0.00e+00	0	51	104	0	69	29477
2026-01-10 20:16:48.32	95.70	20.00	-49.5	-55.2	3.6	0.00e+00	0	51	104	0	69	29593
2026-01-10 20:16:50.33	96.49	19.97	-49.5	-55.1	3.7	0.00e+00	0	51	104	0	69	29462
2026-01-10 20:16:52.34	97.27	19.94	-49.5	-55.1	3.7	0.00e+00	0	51	104	0	69	29425
2026-01-10 20:16:54.34	98.05	19.90	-49.5	-55.2	3.7	0.00e+00	0	51	104	0	69	29516
2026-01-10 20:16:56.35	98.84	19.86	-49.5	-55.2	3.7	0.00e+00	0	51	104	0	69	29488
2026-01-10 20:16:58.36	99.61	19.81	-49.5	-55.2	3.7	0.00e+00	0	51	104	0	69	29494
2026-01-10 20:17:00.37	100.39	19.76	-49.5	-55.2	3.7	0.00e+00	0	51	104	0	69	29494
2026-01-10 20:17:02.38	101.16	19.70	-49.5	-55.2	3.7	0.00e+00	0	51	104	0	69	29551
2026-01-10 20:17:04.39	101.93	19.64	-49.5	-55.1	3.7	0.00e+00	0	51	104	0	69	29459
2026-01-10 20:17:06.39	102.69	19.57	-49.5	-55.1	3.7	0.00e+00	0	51	104	0	69	29471
2026-01-10 20:17:08.41	103.46	19.50	-49.5	-55.1	3.7	0.00e+00	0	51	104	0	69	29394
2026-01-10 20:17:10.41	104.22	19.43	-49.5	-55.2	3.7	0.00e+00	0	51	104	0	69	29505
2026-01-10 20:17:12.42	104.97	19.35	-49.5	-55.2	3.7	0.00e+00	0	52	104	0	69	29503
2026-01-10 20:17:14.43	105.72	19.26	-49.5	-55.2	3.7	0.00e+00	0	51	104	0	69	29515
2026-01-10 20:17:16.44	106.46	19.18	-49.5	-55.2	3.7	0.00e+00	0	51	104	0	69	29578
2026-01-10 20:17:18.45	107.20	19.09	-49.5	-55.2	3.7	0.00e+00	0	51	104	0	69	29558
2026-01-10 20:17:20.45	107.93	18.99	-49.5	-55.2	3.7	0.00e+00	0	51	104	0	69	29493
2026-01-10 20:17:22.46	108.66	18.90	-49.5	-55.2	3.7	0.00e+00	0	52	104	0	69	29507
2026-01-10 20:17:24.46	109.39	18.79	-49.5	-55.2	3.7	0.00e+00	0	51	104	0	69	29507
2026-01-10 20:17:26.48	110.11	18.69	-49.5	-55.1	3.7	0.00e+00	0	51	104	0	69	29476
2026-01-10 20:17:28.48	110.82	18.58	-49.5	-55.2	3.7	0.00e+00	0	51	104	0	69	29521
2026-01-10 20:17:30.49	111.52	18.47	-49.5	-55.2	3.7	0.00e+00	0	52	104	0	69	29543
2026-01-10 20:17:32.50	112.23	18.35	-49.5	-55.2	3.7	0.00e+00	0	51	104	0	69	29510
2026-01-10 20:17:34.51	112.92	18.24	-49.5	-55.1	3.7	0.00e+00	0	51	104	0	69	29442
2026-01-10 20:17:36.52	113.61	18.12	-49.5	-55.2	3.7	0.00e+00	0	51	104	0	69	29530
2026-01-10 20:17:38.53	114.29	17.99	-49.5	-55.2	3.7	0.00e+00	0	51	104	0	69	29495
2026-01-10 20:17:40.54	114.97	17.87	-49.5	-55.2	3.7	0.00e+00	0	51	104	0	69	29546
2026-01-10 20:17:42.54	115.64	17.74	-49.5	-55.2	3.7	0.00e+00	0	51	104	0	69	29529
2026-01-10 20:17:44.55	116.30	17.61	-49.5	-55.1	3.7	0.00e+00	0	51	104	0	69	29399
2026-01-10 20:17:46.56	116.96	17.47	-49.5	-55.2	3.7	0.00e+00	0	52	104	0	69	29543
2026-01-10 20:17:48.57	117.61	17.34	-49.5	-55.2	3.7	0.00e+00	0	51	104	0	69	29528
2026-01-10 20:17:50.58	118.25	17.20	-49.5	-55.2	3.7	0.00e+00	0	51	104	0	69	29512
2026-01-10 20:17:52.59	118.89	17.06	-49.5	-55.1	3.7	0.00e+00	0	51	104	0	69	29458
2026-01-10 20:17:54.59	119.51	16.92	-49.5	-55.2	3.7	0.00e+00	0	52	104	0	69	29490
2026-01-10 20:17:56.60	120.14	16.78	-49.5	-55.1	3.7	0.00e+00	0	51	104	0	69	29446
2026-01-10 20:17:58.61	120.75	16.63	-49.5	-55.2	3.7	0.00e+00	0	51	104	0	69	29574
2026-01-10 20:18:00.62	121.36	16.48	-49.5	-55.1	3.7	0.00e+00	0	51	104	0	69	29483
2026-01-10 20:18:02.63	121.97	16.34	-49.5	-55.2	3.7	0.00e+00	0	51	104	0	69	29628
2026-01-10 20:18:04.63	122.56	16.19	-49.5	-55.2	3.7	0.00e+00	0	51	104	0	69	29498
2026-01-10 20:18:06.64	123.15	16.04	-49.5	-55.2	3.7	0.00e+00	0	51	104	0	69	29491
2026-01-10 20:18:08.65	123.73	15.88	-49.5	-55.2	3.7	0.00e+00	0	51	104	0	69	29521
2026-01-10 20:18:10.66	124.30	15.73	-49.5	-55.2	3.7	0.00e+00	0	51	104	0	69	29527
2026-01-10 20:18:12.67	124.87	15.57	-49.5	-55.2	3.7	0.00e+00	0	51	104	0	69	29629
2026-01-10 20:18:14.68	125.43	15.42	-49.5	-55.2	3.7	0.00e+00	0	51	104	0	69	29586
2026-01-10 20:18:16.69	125.99	15.26	-49.5	-55.1	3.7	0.00e+00	0	51	104	0	69	29464
2026-01-10 20:18:18.69	126.53	15.10	-49.5	-55.2	3.7	0.00e+00	0	52	104	0	69	29529
2026-01-10 20:18:20.70	127.08	14.95	-49.5	-55.1	3.7	0.00e+00	0	52	104	0	69	29398
2026-01-10 20:18:22.71	127.61	14.79	-49.5	-55.2	3.7	0.00e+00	0	51	104	0	69	29536
2026-01-10 20:18:24.72	128.14	14.63	-49.5	-55.2	3.7	0.00e+00	0	51	104	0	69	29538
2026-01-10 20:18:26.73	128.66	14.47	-49.5	-55.2	3.7	0.00e+00	0	51	104	0	69	29531
2026-01-10 20:18:28.74	129.17	14.31	-49.5	-55.2	3.7	0.00e+00	0	52	104	0	69	29536
2026-01-10 20:18:30.74	129.68	14.14	-49.5	-55.2	3.7	0.00e+00	0	51	104	0	69	29516
2026-01-10 20:18:32.75	130.18	13.98	-49.5	-55.2	3.7	0.00e+00	0	51	104	0	69	29526
2026-01-10 20:18:34.76	130.68	13.82	-49.5	-55.2	3.7	0.00e+00	0	52	104	0	69	29539
2026-01-10 20:18:36.77	131.17	13.66	-49.5	-55.2	3.7	0.00e+00	0	51	104	0	69	29485
2026-01-10 20:18:38.78	131.65	13.50	-49.5	-55.2	3.7	0.00e+00	0	51	104	0	69	29573
2026-01-10 20:18:40.79	132.13	13.33	-49.5	-55.2	3.7	0.00e+00	0	51	104	0	69	29615
2026-01-10 20:18:42.79	132.59	13.17	-49.5	-55.1	3.7	0.00e+00	0	51	104	0	69	29446
2026-01-10 20:18:44.80	133.06	13.01	-49.5	-55.1	3.7	0.00e+00	0	51	104	0	69	29480
2026-01-10 20:18:46.81	133.52	12.85	-49.5	-55.1	3.7	0.00e+00	0	52	104	0	69	29452
2026-01-10 20:18:48.82	133.97	12.68	-49.5	-55.2	3.7	0.00e+00	0	51	104	0	69	29527
2026-01-10 20:18:50.83	134.42	12.52	-49.5	-55.2	3.7	0.00e+00	0	51	104	0	69	29653
2026-01-10 20:18:52.84	134.86	12.36	-49.5	-55.2	3.7	0.00e+00	0	52	104	0	69	29522
2026-01-10 20:18:54.85	135.29	12.19	-49.5	-55.2	3.7	0.00e+00	0	51	104	0	69	29532
2026-01-10 20:18:56.86	135.72	12.03	-49.5	-55.2	3.7	0.00e+00	0	51	104	0	69	29542
2026-01-10 20:18:58.87	136.14	11.87	-49.5	-55.2	3.7	0.00e+00	0	51	104	0	69	29527
2026-01-10 20:19:00.87	136.56	11.71	-49.5	-55.1	3.7	0.00e+00	0	52	104	0	69	29480
2026-01-10 20:19:02.89	136.98	11.55	-49.5	-55.2	3.7	0.00e+00	0	51	104	0	69	29500
2026-01-10 20:19:04.89	137.38	11.38	-49.5	-55.1	3.7	0.00e+00	0	51	104	0	69	29463
2026-01-10 20:19:06.90	137.78	11.22	-49.5	-55.2	3.7	0.00e+00	0	52	104	0	69	29538
2026-01-10 20:19:08.91	138.18	11.06	-49.5	-55.2	3.7	0.00e+00	0	52	104	0	69	29520
2026-01-10 20:19:10.92	138.57	10.90	-49.5	-55.2	3.7	0.00e+00	0	51	104	0	69	29566
2026-01-10 20:19:12.93	138.96	10.74	-49.5	-55.2	3.7	0.00e+00	0	51	104	0	69	29543
2026-01-10 20:19:14.94	139.34	10.58	-49.5	-55.2	3.7	0.00e+00	0	52	104	0	69	29514
2026-01-10 20:19:16.95	139.72	10.42	-49.5	-55.2	3.7	0.00e+00	0	52	104	0	69	29512
2026-01-10 20:19:18.95	140.09	10.26	-49.5	-55.2	3.7	0.00e+00	0	52	104	0	69	29609
2026-01-10 20:19:20.96	140.45	10.11	-49.5	-55.2	3.7	0.00e+00	0	51	104	0	69	29526
2026-01-10 20:19:22.97	140.81	9.95	-49.5	-55.1	3.7	0.00e+00	0	52	104	0	69	29367
2026-01-10 20:19:24.98	141.17	9.79	-49.5	-55.1	3.7	0.00e+00	0	52	104	0	69	29457
2026-01-10 20:19:26.99	141.52	9.63	-49.5	-55.2	3.7	0.00e+00	0	51	104	0	69	29576
2026-01-10 20:19:29.00	141.87	9.48	-49.5	-55.2	3.6	0.00e+00	0	51	104	0	69	29547
2026-01-10 20:19:31.01	142.22	9.32	-49.5	-55.2	3.7	0.00e+00	0	52	104	0	69	29600
2026-01-10 20:19:33.01	142.55	9.17	-49.5	-55.2	3.7	0.00e+00	0	52	104	0	69	29512
2026-01-10 20:19:35.02	142.89	9.01	-49.5	-55.2	3.7	0.00e+00	0	52	104	0	69	29514
2026-01-10 20:19:37.03	143.22	8.86	-49.5	-55.2	3.7	0.00e+00	0	51	104	0	69	29528
2026-01-10 20:19:39.04	143.55	8.71	-49.5	-55.1	3.7	0.00e+00	0	52	104	0	69	29450
2026-01-10 20:19:41.05	143.87	8.55	-49.5	-55.1	3.7	0.00e+00	0	51	104	0	69	29476
2026-01-10 20:19:43.06	144.19	8.40	-49.5	-55.2	3.7	0.00e+00	0	52	104	0	69	29579
2026-01-10 20:19:45.07	144.50	8.25	-49.5	-55.2	3.7	0.00e+00	0	51	104	0	69	29607
2026-01-10 20:19:47.07	144.81	8.10	-49.5	-55.2	3.7	0.00e+00	0	51	104	0	69	29506
2026-01-10 20:19:49.08	145.12	7.95	-49.5	-55.2	3.7	0.00e+00	0	52	104	0	69	29609
2026-01-10 20:19:51.09	145.42	7.80	-49.5	-55.2	3.7	0.00e+00	0	52	104	0	69	29515
2026-01-10 20:19:53.10	145.72	7.65	-49.5	-55.2	3.7	0.00e+00	0	52	104	0	69	29573
2026-01-10 20:19:55.10	146.01	7.50	-49.5	-55.2	3.7	0.00e+00	0	52	104	0	69	29585
2026-01-10 20:19:57.11	146.30	7.35	-49.5	-55.2	3.7	0.00e+00	0	52	104	0	69	29602
2026-01-10 20:19:59.12	146.59	7.21	-49.5	-55.2	3.7	0.00e+00	0	51	104	0	69	29538
2026-01-10 20:20:01.13	146.87	7.06	-49.5	-55.2	3.7	0.00e+00	0	52	104	0	69	29484
2026-01-10 20:20:03.14	147.15	6.91	-49.5	-55.2	3.7	0.00e+00	0	51	104	0	69	29496
2026-01-10 20:20:05.15	147.43	6.77	-49.5	-55.2	3.7	0.00e+00	0	51	104	0	69	29525
2026-01-10 20:20:07.16	147.71	6.62	-49.5	-55.2	3.7	0.00e+00	0	52	104	0	69	29571
2026-01-10 20:20:09.17	147.98	6.48	-49.5	-55.2	3.7	0.00e+00	0	51	104	0	69	29568
2026-01-10 20:20:11.17	148.24	6.34	-49.5	-55.2	3.7	0.00e+00	0	52	104	0	69	29582
2026-01-10 20:20:13.18	148.51	6.19	-49.5	-55.2	3.7	0.00e+00	0	52	104	0	69	29507
2026-01-10 20:20:15.19	148.77	6.05	-49.5	-55.1	3.7	0.00e+00	0	52	104	0	69	29475
2026-01-10 20:20:17.20	149.03	5.91	-49.5	-55.2	3.7	0.00e+00	0	52	104	0	69	29574
2026-01-10 20:20:19.21	149.28	5.77	-49.5	-55.2	3.7	0.00e+00	0	52	104	0	69	29585
2026-01-10 20:20:21.22	149.53	5.63	-49.5	-55.2	3.7	0.00e+00	0	51	104	0	69	29506
2026-01-10 20:20:23.23	149.78	5.49	-49.5	-55.2	3.7	0.00e+00	0	52	104	0	69	29535
2026-01-10 20:20:25.23	150.03	5.35	-49.5	-55.2	3.7	0.00e+00	0	51	104	0	69	29583
2026-01-10 20:20:27.24	150.27	5.21	-49.5	-55.2	3.7	0.00e+00	0	52	104	0	69	29597
2026-01-10 20:20:29.25	150.51	5.08	-49.5	-55.2	3.7	0.00e+00	0	52	104	0	69	29617
2026-01-10 20:20:31.26	150.75	4.94	-49.5	-55.2	3.7	0.00e+00	0	52	104	0	69	29625

#Closed at: 2026-01-10 20:20:32
#Recorded file [0 MB]: D:/Data/31040_260110_231243.dat