passes_logs/2025/01/29/XPeterburg/XPeterburg__20250129_190346_FENGYUN_3F_rec.log

#Pass ID: 20250129_190346_FENGYUN 3F
#Satellite: FENGYUN 3F
#Configuration: FENGYUN 3F
#Start time: 2025-01-29 19:03:42

#Version: 1.5.20200625
#Station: XPeterburg
#Location: 30.318091 lon 59.932769 lat
#TLE: 1 57490U 23111A   25028.86673620  .00000250  00000+0  13826-3 0  9997
#TLE: 2 57490  98.7439 101.6423 0001620 124.8904 235.2425 14.19984104 77290

#Time	Az	El	Level	Level2	SNR	BER	Gain	Gain2
2025-01-29 19:03:42.28	142.84	68.24	-38.6	-41.4	3.3	8383243	94	6750
2025-01-29 19:03:42.68	142.69	68.41	-38.1	-51.6	3.5	8305995	73	23312
2025-01-29 19:03:43.08	142.54	68.59	-38.5	-41.0	3.3	8425415	94	6534
2025-01-29 19:03:43.48	142.39	68.77	-38.4	-41.9	3.6	8433300	94	7371
2025-01-29 19:03:43.88	142.24	68.94	-38.3	-40.6	3.3	8406600	94	6349
2025-01-29 19:03:44.29	142.08	69.12	-38.3	-41.8	3.6	8441539	94	7329
2025-01-29 19:03:44.69	141.92	69.30	-38.2	-40.1	3.3	8431388	94	6104
2025-01-29 19:03:45.09	141.76	69.48	-38.1	-41.3	3.6	8405754	94	7089
2025-01-29 19:03:45.49	141.59	69.66	-38.0	-39.5	3.3	8424716	94	5808
2025-01-29 19:03:45.90	141.42	69.84	-38.0	-40.6	3.6	8411087	94	6700
2025-01-29 19:03:46.30	141.24	70.02	-37.9	-39.3	3.4	8406314	94	5744
2025-01-29 19:03:46.70	141.07	70.19	-38.0	-40.7	3.6	8389514	94	6776
2025-01-29 19:03:47.10	140.89	70.37	-37.8	-39.0	3.4	8438392	94	5635
2025-01-29 19:03:47.50	140.71	70.55	-37.6	-40.2	3.6	8383380	93	6583
2025-01-29 19:03:47.91	140.52	70.73	-37.3	-38.0	3.7	8395385	93	5322
2025-01-29 19:03:48.31	140.33	70.91	-37.0	-37.4	3.8	8358386	92	5141
2025-01-29 19:03:48.71	140.13	71.09	-37.1	-37.7	3.8	8315036	92	5239
2025-01-29 19:03:49.11	139.94	71.27	-37.4	-39.8	3.7	8385646	92	6506
2025-01-29 19:03:49.51	139.73	71.45	-37.3	-38.2	3.7	8376159	92	5459
2025-01-29 19:03:49.92	139.52	71.63	-37.0	-37.4	3.8	8341873	92	5149
2025-01-29 19:03:50.32	139.31	71.81	-36.8	-37.0	4.0	8307037	91	5077
2025-01-29 19:03:50.72	139.10	71.99	-36.5	-36.4	4.2	8183235	91	4822
2025-01-29 19:03:51.12	138.88	72.17	-36.8	-36.9	4.1	8162715	91	5025
2025-01-29 19:03:51.53	138.65	72.35	-36.9	-37.3	4.0	8262073	91	5171
2025-01-29 19:03:51.93	138.42	72.53	-36.8	-37.0	4.1	8267108	91	5046
2025-01-29 19:03:52.33	138.18	72.71	-36.6	-36.5	4.2	8189426	91	4855
2025-01-29 19:03:52.73	137.94	72.89	-36.5	-36.4	4.3	8082733	91	4838
2025-01-29 19:03:53.14	137.69	73.07	-36.7	-36.9	4.1	8178806	91	5005
2025-01-29 19:03:53.54	137.44	73.25	-37.0	-37.7	3.9	8248901	91	5303
2025-01-29 19:03:53.94	137.19	73.43	-36.9	-37.4	3.9	8304622	91	5224
2025-01-29 19:03:54.34	136.93	73.61	-36.8	-37.0	4.0	8280475	91	5047
2025-01-29 19:03:54.74	136.66	73.79	-36.8	-37.1	4.0	8237880	91	5105
2025-01-29 19:03:55.15	136.38	73.97	-36.9	-37.3	4.0	8232891	91	5166
2025-01-29 19:03:55.55	136.09	74.15	-37.1	-37.8	3.9	8261180	91	5362
2025-01-29 19:03:55.95	135.81	74.33	-37.3	-39.9	3.7	8343830	91	6643
2025-01-29 19:03:56.35	135.51	74.51	-37.3	-38.5	3.7	8388095	91	5671
2025-01-29 19:03:56.75	135.21	74.68	-37.0	-37.5	3.9	8312335	91	5244
2025-01-29 19:03:57.16	134.89	74.87	-36.9	-37.4	4.0	8271366	91	5203
2025-01-29 19:03:57.56	134.58	75.04	-37.0	-37.7	3.9	8255264	91	5299
2025-01-29 19:03:57.96	134.25	75.22	-37.1	-37.9	3.8	8313720	91	5378
2025-01-29 19:03:58.36	133.92	75.40	-37.0	-37.6	3.9	8300811	91	5295
2025-01-29 19:03:58.77	133.57	75.58	-36.9	-37.4	4.0	8283531	91	5202
2025-01-29 19:03:59.17	133.22	75.76	-37.1	-37.9	3.9	8267189	91	5392
2025-01-29 19:03:59.57	132.86	75.93	-37.4	-39.8	3.9	8382488	91	6532
2025-01-29 19:03:59.97	132.49	76.11	-37.5	-38.6	3.6	8375461	92	5613
2025-01-29 19:04:00.37	132.11	76.29	-37.6	-40.4	3.6	8429855	92	6800
2025-01-29 19:04:00.78	131.71	76.47	-37.6	-39.0	3.6	8412654	92	5781
2025-01-29 19:04:01.18	131.31	76.64	-37.5	-40.0	3.7	8386848	92	6595
2025-01-29 19:04:01.58	130.90	76.82	-37.4	-38.4	3.7	8385486	92	5532
2025-01-29 19:04:01.98	130.47	76.99	-37.3	-39.4	3.7	8376674	92	6289
2025-01-29 19:04:02.38	130.04	77.16	-37.2	-38.0	3.8	8406131	92	5436
2025-01-29 19:04:02.78	129.59	77.34	-37.2	-39.3	3.7	8333370	92	6230
2025-01-29 19:04:03.19	129.12	77.51	-37.4	-38.7	3.7	8405033	92	5713
2025-01-29 19:04:03.59	128.65	77.68	-37.5	-38.6	3.6	8352481	92	5575
2025-01-29 19:04:03.99	128.16	77.86	-37.7	-39.9	3.6	8415985	92	6288
2025-01-29 19:04:04.39	127.66	78.03	-38.0	-39.9	3.4	8383998	92	6141
2025-01-29 19:04:04.80	127.13	78.20	-38.2	-41.0	3.5	8433940	93	6787
2025-01-29 19:04:05.20	126.60	78.37	-38.4	-40.7	3.3	8395568	93	6424
2025-01-29 19:04:05.60	126.05	78.54	-38.4	-41.9	3.6	8447467	93	7355
2025-01-29 19:04:06.00	125.48	78.70	-38.4	-40.4	3.3	8429695	93	6264
2025-01-29 19:04:06.40	124.90	78.87	-38.3	-41.8	3.6	8418022	93	7324
2025-01-29 19:04:06.81	124.29	79.04	-38.2	-39.4	3.3	8400867	94	5677
2025-01-29 19:04:07.21	123.67	79.20	-37.9	-40.0	3.6	8374889	94	6308
2025-01-29 19:04:07.61	123.03	79.37	-37.8	-38.3	3.4	8437511	94	5227
2025-01-29 19:04:08.01	122.37	79.53	-37.6	-39.8	3.6	8376445	93	6291
2025-01-29 19:04:08.41	121.69	79.69	-37.7	-38.6	3.5	8405822	93	5449
2025-01-29 19:04:08.82	120.97	79.85	-37.5	-39.5	3.6	8400329	93	6161
2025-01-29 19:04:09.22	120.24	80.01	-37.4	-38.0	3.7	8419738	93	5270
2025-01-29 19:04:09.62	119.50	80.17	-37.2	-39.1	3.7	8383449	92	6111
2025-01-29 19:04:10.02	118.72	80.32	-37.0	-37.4	3.9	8397296	92	5177
2025-01-29 19:04:10.42	117.92	80.47	-37.2	-37.7	3.7	8327556	92	5228
2025-01-29 19:04:10.83	117.08	80.63	-37.5	-39.4	3.7	8411235	92	6148
2025-01-29 19:04:11.23	116.23	80.78	-37.4	-38.3	3.6	8399574	92	5494
2025-01-29 19:04:11.63	115.34	80.92	-36.9	-37.9	4.2	8381595	92	5558
2025-01-29 19:04:12.03	114.43	81.07	-36.8	-37.1	4.1	8247127	91	5084
2025-01-29 19:04:12.44	113.47	81.22	-37.2	-38.1	3.8	8266204	91	5496
2025-01-29 19:04:12.84	112.50	81.36	-37.6	-40.1	3.7	8356693	92	6548
2025-01-29 19:04:13.24	111.49	81.49	-37.7	-39.1	3.5	8403133	92	5830
2025-01-29 19:04:13.64	110.45	81.63	-37.5	-39.9	3.7	8419635	92	6534
2025-01-29 19:04:14.04	109.38	81.76	-37.4	-38.5	3.4	8401405	92	5560
2025-01-29 19:04:14.45	108.24	81.90	-37.5	-40.1	3.6	8410984	92	6662
2025-01-29 19:04:14.85	107.10	82.02	-37.7	-39.3	3.5	8414485	92	5901
2025-01-29 19:04:15.25	105.92	82.15	-37.6	-40.3	3.6	8371089	92	6731
2025-01-29 19:04:15.65	104.70	82.27	-37.4	-38.4	3.7	8395820	92	5520
2025-01-29 19:04:16.06	103.41	82.39	-37.2	-39.3	3.7	8376228	92	6268
2025-01-29 19:04:16.46	102.11	82.50	-37.6	-39.3	3.5	8425769	92	5994
2025-01-29 19:04:16.86	100.77	82.61	-37.8	-41.0	3.6	8389595	92	7173
2025-01-29 19:04:17.26	99.40	82.71	-37.6	-39.4	3.6	8429786	92	6056
2025-01-29 19:04:17.66	97.98	82.81	-37.2	-38.0	3.7	8370311	92	5369
2025-01-29 19:04:18.07	96.49	82.91	-37.3	-38.1	3.7	8355628	92	5435
2025-01-29 19:04:18.47	94.99	83.00	-37.5	-40.1	3.6	8368652	92	6669
2025-01-29 19:04:18.87	93.46	83.09	-37.5	-38.8	3.5	8396621	92	5729
2025-01-29 19:04:19.27	91.88	83.17	-37.5	-40.3	3.6	8405857	92	6782
2025-01-29 19:04:19.67	90.27	83.25	-37.6	-39.2	3.4	8399734	92	5913
2025-01-29 19:04:20.08	88.58	83.32	-37.9	-41.5	3.6	8382190	92	7429
2025-01-29 19:04:20.48	86.90	83.38	-37.8	-40.0	3.4	8429718	92	6289
2025-01-29 19:04:20.88	85.19	83.44	-37.7	-41.0	3.6	8387363	92	7197
2025-01-29 19:04:21.28	83.45	83.50	-37.6	-39.5	3.5	8409358	92	6113
2025-01-29 19:04:21.68	81.68	83.55	-37.7	-41.0	3.6	8390991	92	7145
2025-01-29 19:04:22.09	79.84	83.59	-37.8	-40.1	3.5	8436767	92	6385
2025-01-29 19:04:22.49	78.02	83.62	-37.8	-39.9	3.4	8385498	92	6230
2025-01-29 19:04:22.89	76.18	83.65	-37.7	-40.1	3.5	8431320	92	6471
2025-01-29 19:04:23.29	74.33	83.67	-37.6	-39.0	3.5	8393566	92	5763
2025-01-29 19:04:23.69	72.47	83.69	-37.5	-39.5	3.7	8406829	92	6211
2025-01-29 19:04:24.10	70.56	83.70	-37.4	-38.3	3.6	8369956	92	5460
2025-01-29 19:04:24.50	68.69	83.70	-37.5	-39.8	3.7	8430324	92	6440
2025-01-29 19:04:24.90	66.82	83.69	-37.7	-39.4	3.4	8388118	92	5987
2025-01-29 19:04:25.30	64.95	83.68	-37.9	-41.5	3.6	8392284	92	7433
2025-01-29 19:04:25.70	63.09	83.66	-37.9	-40.0	3.3	8404415	92	6261
2025-01-29 19:04:26.11	61.21	83.64	-37.8	-41.0	3.6	8420906	92	7113
2025-01-29 19:04:26.51	59.38	83.60	-37.8	-39.5	3.4	8395969	92	6032
2025-01-29 19:04:26.91	57.57	83.57	-37.7	-40.9	3.6	8389492	92	7057
2025-01-29 19:04:27.31	55.79	83.52	-37.8	-39.8	3.4	8427474	92	6197
2025-01-29 19:04:27.72	53.99	83.47	-37.9	-41.3	3.6	8395500	92	7308
2025-01-29 19:04:28.12	52.26	83.41	-38.0	-40.1	3.4	8415298	93	6204
2025-01-29 19:04:28.52	50.56	83.35	-38.1	-41.5	3.6	8416397	93	7270
2025-01-29 19:04:28.92	48.90	83.28	-38.1	-40.1	3.4	8439136	93	6204
2025-01-29 19:04:29.32	47.27	83.21	-38.0	-41.0	3.6	8396381	93	6935
2025-01-29 19:04:29.73	45.64	83.13	-38.2	-40.3	3.4	8381893	94	6222
2025-01-29 19:04:30.13	44.09	83.05	-38.2	-40.0	3.3	8386734	94	5996
2025-01-29 19:04:30.53	42.57	82.96	-38.2	-40.5	3.5	8377910	94	6443
2025-01-29 19:04:30.93	41.10	82.86	-38.1	-39.4	3.3	8411396	94	5730
2025-01-29 19:04:31.33	39.66	82.76	-38.0	-40.2	3.5	8436355	94	6302
2025-01-29 19:04:31.74	38.23	82.66	-38.1	-39.5	3.3	8402183	94	5771
2025-01-29 19:04:32.14	36.88	82.55	-38.1	-40.9	3.6	8404666	94	6738
2025-01-29 19:04:32.54	35.56	82.44	-38.2	-39.8	3.3	8416877	94	5917
2025-01-29 19:04:32.94	34.28	82.33	-38.2	-41.2	3.6	8417736	94	6965
2025-01-29 19:04:33.35	33.01	82.20	-38.1	-39.7	3.3	8396186	94	5882
2025-01-29 19:04:33.75	31.82	82.08	-38.2	-41.3	3.6	8437614	94	7030
2025-01-29 19:04:34.15	30.65	81.96	-38.3	-40.2	3.3	8426696	94	6138
2025-01-29 19:04:34.55	29.53	81.83	-38.2	-41.2	3.6	8390201	94	7010
2025-01-29 19:04:34.95	28.44	81.70	-38.0	-39.4	3.3	8416511	94	5758
2025-01-29 19:04:35.36	27.36	81.56	-38.1	-40.9	3.6	8409015	94	6794
2025-01-29 19:04:35.76	26.34	81.42	-38.2	-40.1	3.4	8432476	94	6145
2025-01-29 19:04:36.16	25.35	81.29	-38.2	-41.3	3.6	8378551	94	7028
2025-01-29 19:04:36.56	24.39	81.14	-38.1	-39.9	3.4	8425735	94	6047
2025-01-29 19:04:36.96	23.47	81.00	-37.9	-38.9	3.3	8392902	94	5506
2025-01-29 19:04:37.37	22.55	80.85	-38.0	-39.7	3.5	8430404	94	5984
2025-01-29 19:04:37.77	21.68	80.70	-38.1	-39.5	3.3	8393920	94	5769
2025-01-29 19:04:38.17	20.85	80.55	-37.9	-39.5	3.4	8435874	94	5886
2025-01-29 19:04:38.57	20.03	80.40	-37.8	-39.1	3.3	8397777	93	5677
2025-01-29 19:04:38.98	19.23	80.24	-38.0	-40.4	3.5	8426914	93	6487
2025-01-29 19:04:39.38	18.47	80.09	-38.1	-40.0	3.3	8421272	93	6135
2025-01-29 19:04:39.78	17.73	79.93	-38.1	-41.1	3.6	8425552	93	6931
2025-01-29 19:04:40.18	17.02	79.77	-37.8	-39.0	3.3	8399253	93	5638
2025-01-29 19:04:40.58	16.33	79.61	-37.4	-39.0	3.7	8427360	93	5967
2025-01-29 19:04:40.99	15.64	79.45	-37.4	-37.7	3.6	8400341	93	5083
2025-01-29 19:04:41.39	15.00	79.29	-37.6	-39.7	3.6	8369945	93	6255
2025-01-29 19:04:41.79	14.37	79.12	-37.5	-38.0	3.5	8404426	93	5210
2025-01-29 19:04:42.19	13.76	78.96	-37.5	-39.4	3.7	8403156	93	6114
2025-01-29 19:04:42.59	13.17	78.79	-37.6	-38.5	3.5	8402309	93	5423
2025-01-29 19:04:43.00	12.58	78.62	-38.0	-40.9	3.6	8373882	93	6882
2025-01-29 19:04:43.40	12.02	78.45	-38.0	-39.7	3.4	8439971	93	6041
2025-01-29 19:04:43.80	11.48	78.29	-37.7	-40.1	3.6	8390510	93	6493
2025-01-29 19:04:44.20	10.96	78.12	-37.7	-39.0	3.6	8418766	93	5748
2025-01-29 19:04:44.61	10.44	77.94	-37.8	-39.1	3.4	8375358	93	5709
2025-01-29 19:04:45.01	9.95	77.77	-38.0	-40.3	3.4	8443336	93	6441
2025-01-29 19:04:45.41	9.47	77.60	-37.9	-39.5	3.3	8405673	93	5938
2025-01-29 19:04:45.81	9.00	77.43	-37.7	-39.6	3.6	8432727	93	6156
2025-01-29 19:04:46.21	8.55	77.26	-37.1	-37.6	3.8	8381538	92	5217
2025-01-29 19:04:46.62	8.10	77.08	-37.2	-39.5	3.7	8363903	92	6376
2025-01-29 19:04:47.02	7.67	76.90	-37.5	-38.9	3.5	8378883	92	5781
2025-01-29 19:04:47.42	7.25	76.73	-37.5	-40.4	3.6	8398612	92	6897
2025-01-29 19:04:47.82	6.84	76.56	-37.4	-38.5	3.6	8391563	92	5591
2025-01-29 19:04:48.22	6.45	76.38	-37.1	-39.1	3.7	8361625	92	6194
2025-01-29 19:04:48.62	6.07	76.21	-37.1	-37.7	3.8	8376216	92	5265
2025-01-29 19:04:49.03	5.68	76.03	-37.2	-37.8	3.7	8325748	92	5321
2025-01-29 19:04:49.43	5.32	75.85	-37.1	-37.7	3.8	8309955	92	5265
2025-01-29 19:04:49.83	4.96	75.67	-37.1	-39.0	3.7	8333187	92	6134
2025-01-29 19:04:50.23	4.62	75.50	-37.3	-38.1	3.7	8385795	92	5436
2025-01-29 19:04:50.63	4.28	75.32	-37.4	-39.9	3.7	8345008	92	6535
2025-01-29 19:04:51.04	3.94	75.14	-37.5	-38.9	3.6	8409301	92	5788
2025-01-29 19:04:51.44	3.62	74.96	-37.5	-40.1	3.7	8386001	92	6606
2025-01-29 19:04:51.84	3.31	74.78	-37.4	-38.7	3.7	8427280	92	5727
2025-01-29 19:04:52.24	3.00	74.60	-37.3	-38.1	3.7	8369018	92	5374
2025-01-29 19:04:52.64	2.70	74.43	-37.1	-37.9	3.9	8400260	92	5417
2025-01-29 19:04:53.05	2.40	74.24	-37.0	-37.1	3.8	8320644	92	4975
2025-01-29 19:04:53.45	2.12	74.07	-37.0	-37.0	3.8	8318584	92	4958
2025-01-29 19:04:53.85	1.84	73.89	-37.0	-38.5	3.7	8321971	92	5834
2025-01-29 19:04:54.25	1.57	73.71	-36.8	-36.7	4.0	8336826	92	4857
2025-01-29 19:04:54.65	1.31	73.53	-36.7	-36.5	4.1	8221252	91	4853
2025-01-29 19:04:55.06	1.04	73.35	-36.6	-36.3	4.1	8200298	91	4773
2025-01-29 19:04:55.46	0.79	73.17	-36.7	-36.7	4.1	8186897	91	4921
2025-01-29 19:04:55.86	0.54	72.99	-36.8	-37.1	4.0	8249439	91	5043
2025-01-29 19:04:56.26	0.30	72.81	-36.9	-37.2	4.0	8256694	91	5113
2025-01-29 19:04:56.66	0.06	72.63	-37.1	-37.9	3.8	8285739	91	5393
2025-01-29 19:04:57.07	359.83	72.45	-37.4	-39.5	3.7	8406829	91	6224
2025-01-29 19:04:57.47	359.60	72.27	-37.5	-38.9	3.5	8372737	92	5750
2025-01-29 19:04:57.87	359.38	72.09	-37.7	-39.8	3.6	8434410	92	6286
2025-01-29 19:04:58.27	359.16	71.91	-37.6	-38.9	3.5	8383358	92	5734
2025-01-29 19:04:58.67	358.95	71.73	-37.6	-39.8	3.7	8398612	92	6316
2025-01-29 19:04:59.08	358.73	71.55	-37.6	-39.2	3.5	8389194	92	5861
2025-01-29 19:04:59.48	358.53	71.37	-37.9	-41.0	3.6	8427234	92	7095
2025-01-29 19:04:59.88	358.33	71.19	-37.9	-39.9	3.4	8400501	92	6192
2025-01-29 19:05:00.28	358.13	71.02	-37.8	-40.9	3.6	8397159	92	7064
2025-01-29 19:05:00.68	357.94	70.84	-37.6	-39.0	3.5	8410766	92	5753
2025-01-29 19:05:01.09	357.75	70.66	-37.6	-40.3	3.6	8401748	92	6703
2025-01-29 19:05:01.49	357.57	70.48	-38.7	-41.5	3.3	8395969	94	6802
2025-01-29 19:05:01.89	357.39	70.30	-38.8	-43.0	3.6	8415653	94	8031

#Closed at: 2025-01-29 19:05:02