passes_logs/2025/01/29/XPeterburg/XPeterburg__20250129_091113_FENGYUN_3F_rec.log

#Pass ID: 20250129_091113_FENGYUN 3F
#Satellite: FENGYUN 3F
#Configuration: FENGYUN 3F
#Start time: 2025-01-29 09:11:06

#Version: 1.5.20200625
#Station: XPeterburg
#Location: 30.318091 lon 59.932769 lat
#TLE: 1 57490U 23111A   25028.86673620  .00000250  00000+0  13826-3 0  9997
#TLE: 2 57490  98.7439 101.6423 0001620 124.8904 235.2425 14.19984104 77290

#Time	Az	El	Level	Level2	SNR	BER	Gain	Gain2
2025-01-29 09:11:06.79	22.19	67.24	-38.9	-41.5	3.3	8389377	95	6589
2025-01-29 09:11:07.19	22.21	67.42	-38.5	-53.2	3.5	8223747	72	26512
2025-01-29 09:11:07.59	22.24	67.60	-38.9	-41.8	3.3	8409164	94	6908
2025-01-29 09:11:07.99	22.27	67.78	-39.0	-43.1	3.6	8355457	95	7845
2025-01-29 09:11:08.40	22.30	67.97	-39.0	-41.6	3.3	8420928	95	6661
2025-01-29 09:11:08.80	22.34	68.15	-39.0	-43.1	3.6	8425243	95	7845
2025-01-29 09:11:09.20	22.37	68.34	-39.0	-41.6	3.3	8437030	95	6655
2025-01-29 09:11:09.60	22.40	68.52	-39.0	-42.9	3.6	8396553	95	7752
2025-01-29 09:11:10.00	22.43	68.70	-38.9	-41.5	3.3	8427898	95	6600
2025-01-29 09:11:10.41	22.46	68.89	-38.9	-42.8	3.6	8396919	95	7696
2025-01-29 09:11:10.81	22.50	69.07	-38.8	-41.3	3.3	8425792	95	6556
2025-01-29 09:11:11.21	22.53	69.26	-38.7	-42.0	3.6	8410148	95	7203
2025-01-29 09:11:11.61	22.57	69.44	-38.6	-40.8	3.4	8440876	95	6337
2025-01-29 09:11:12.01	22.60	69.63	-38.4	-39.5	3.3	8394058	95	5603
2025-01-29 09:11:12.41	22.64	69.81	-37.9	-39.2	3.6	8427291	94	5731
2025-01-29 09:11:12.82	22.68	70.00	-37.5	-37.8	3.7	8389183	93	5102
2025-01-29 09:11:13.22	22.71	70.19	-37.2	-38.5	4.0	8387546	92	5718
2025-01-29 09:11:13.62	22.75	70.38	-37.3	-37.9	3.7	8326068	92	5312
2025-01-29 09:11:14.02	22.79	70.56	-37.3	-37.8	3.8	8337306	92	5256
2025-01-29 09:11:14.42	22.83	70.75	-36.8	-36.6	4.1	8309955	92	4794
2025-01-29 09:11:14.83	22.87	70.94	-36.6	-36.4	4.4	8135890	91	4849
2025-01-29 09:11:15.23	22.92	71.13	-36.6	-36.5	4.4	7968269	91	4876
2025-01-29 09:11:15.63	22.96	71.32	-36.6	-36.5	4.5	7955039	91	4848
2025-01-29 09:11:16.03	23.00	71.51	-35.9	-35.3	4.8	7703132	90	4588
2025-01-29 09:11:16.43	23.05	71.70	-35.5	-34.9	5.4	7345424	89	4579
2025-01-29 09:11:16.84	23.09	71.89	-35.6	-35.2	5.3	5775020	89	4708
2025-01-29 09:11:17.24	23.14	72.08	-36.3	-36.7	4.6	7516639	89	5184
2025-01-29 09:11:17.64	23.18	72.27	-36.8	-37.7	4.0	8144165	90	5438
2025-01-29 09:11:18.04	23.23	72.46	-36.6	-37.0	4.2	8237697	90	5168
2025-01-29 09:11:18.44	23.28	72.65	-36.1	-35.6	4.7	7958015	90	4662
2025-01-29 09:11:18.85	23.33	72.85	-35.9	-35.2	4.9	7569271	90	4540
2025-01-29 09:11:19.25	23.39	73.04	-35.9	-35.1	4.9	7433498	90	4507
2025-01-29 09:11:19.65	23.44	73.23	-36.0	-35.5	4.7	7527271	90	4643
2025-01-29 09:11:20.05	23.49	73.42	-36.0	-35.3	4.8	7635120	90	4574
2025-01-29 09:11:20.45	23.55	73.61	-35.9	-35.1	4.9	7493740	90	4503
2025-01-29 09:11:20.85	23.60	73.80	-35.9	-35.2	4.9	7496337	90	4543
2025-01-29 09:11:21.26	23.66	74.00	-36.1	-35.7	4.8	7519569	90	4710
2025-01-29 09:11:21.66	23.72	74.20	-36.2	-35.9	4.6	7715103	90	4765
2025-01-29 09:11:22.06	23.78	74.39	-36.4	-36.5	4.5	7886512	90	4978
2025-01-29 09:11:22.46	23.85	74.58	-36.2	-36.1	4.6	7928009	90	4853
2025-01-29 09:11:22.87	23.91	74.78	-35.9	-35.3	5.0	7510162	90	4593
2025-01-29 09:11:23.27	23.98	74.97	-35.9	-35.2	5.0	7357498	90	4577
2025-01-29 09:11:23.67	24.05	75.17	-36.0	-35.5	4.9	7496669	90	4645
2025-01-29 09:11:24.07	24.12	75.36	-36.2	-35.9	4.7	7673274	90	4775
2025-01-29 09:11:24.48	24.19	75.56	-36.1	-35.7	4.9	7589962	90	4721
2025-01-29 09:11:24.88	24.26	75.76	-35.9	-35.3	5.1	7454566	90	4575
2025-01-29 09:11:25.28	24.34	75.95	-36.1	-35.8	4.9	7428371	90	4755
2025-01-29 09:11:25.68	24.42	76.15	-36.3	-36.3	4.7	7528324	90	4915
2025-01-29 09:11:26.08	24.50	76.35	-36.5	-36.8	4.5	7730186	90	5072
2025-01-29 09:11:26.49	24.58	76.55	-36.7	-37.4	4.3	8001880	90	5313
2025-01-29 09:11:26.89	24.67	76.74	-36.7	-37.2	4.4	8079402	90	5210
2025-01-29 09:11:27.29	24.75	76.94	-36.4	-36.5	4.7	7900577	90	4976
2025-01-29 09:11:27.69	24.84	77.14	-36.6	-37.1	4.5	7693187	90	5181
2025-01-29 09:11:28.09	24.94	77.33	-37.3	-38.3	4.0	8166812	91	5532
2025-01-29 09:11:28.50	25.03	77.54	-37.3	-38.2	4.0	8258216	91	5490
2025-01-29 09:11:28.90	25.13	77.73	-36.7	-36.6	4.4	8210998	91	4872
2025-01-29 09:11:29.30	25.24	77.93	-36.6	-36.4	4.6	7725311	91	4787
2025-01-29 09:11:29.70	25.34	78.13	-37.2	-37.8	4.1	8031429	91	5276
2025-01-29 09:11:30.10	25.45	78.33	-37.7	-40.0	3.7	8342227	92	6413
2025-01-29 09:11:30.50	25.56	78.53	-37.7	-39.0	3.8	8413101	92	5695
2025-01-29 09:11:30.91	25.69	78.73	-37.5	-38.2	3.8	8318733	92	5332
2025-01-29 09:11:31.31	25.81	78.93	-37.8	-40.1	3.7	8372028	92	6475
2025-01-29 09:11:31.71	25.93	79.13	-37.7	-38.5	3.7	8363948	92	5400
2025-01-29 09:11:32.11	26.06	79.33	-37.4	-37.7	3.9	8321525	92	5106
2025-01-29 09:11:32.51	26.20	79.53	-37.4	-37.8	3.9	8257164	92	5162
2025-01-29 09:11:32.92	26.35	79.73	-37.9	-40.6	3.7	8352275	92	6726
2025-01-29 09:11:33.32	26.49	79.93	-38.2	-39.8	3.5	8405536	93	5943
2025-01-29 09:11:33.72	26.65	80.13	-37.8	-39.9	3.7	8371227	93	6282
2025-01-29 09:11:34.12	26.81	80.33	-37.7	-38.5	3.8	8409038	93	5436
2025-01-29 09:11:34.52	26.97	80.53	-37.9	-39.0	3.6	8365528	93	5559
2025-01-29 09:11:34.93	27.15	80.73	-38.2	-40.5	3.6	8413055	93	6413
2025-01-29 09:11:35.33	27.33	80.93	-38.3	-40.2	3.4	8400398	93	6113
2025-01-29 09:11:35.73	27.52	81.14	-38.5	-41.3	3.5	8430667	94	6814
2025-01-29 09:11:36.13	27.72	81.34	-38.7	-41.1	3.3	8400924	94	6468
2025-01-29 09:11:36.53	27.93	81.54	-38.7	-42.1	3.5	8433540	94	7226
2025-01-29 09:11:36.93	28.15	81.74	-38.7	-40.8	3.3	8393646	94	6286
2025-01-29 09:11:37.34	28.38	81.94	-38.5	-41.3	3.6	8404232	94	6863
2025-01-29 09:11:37.74	28.62	82.14	-38.1	-39.2	3.5	8409164	94	5544
2025-01-29 09:11:38.14	28.87	82.34	-37.9	-39.9	3.6	8414497	94	6183
2025-01-29 09:11:38.54	29.14	82.54	-37.8	-38.5	3.7	8369167	93	5363
2025-01-29 09:11:38.94	29.42	82.74	-37.5	-37.7	3.9	8305492	93	5061
2025-01-29 09:11:39.35	29.73	82.95	-37.0	-36.9	4.3	8260562	92	4860
2025-01-29 09:11:39.75	30.05	83.15	-36.8	-36.9	4.6	8003837	91	4957
2025-01-29 09:11:40.15	30.38	83.35	-36.8	-36.9	4.5	7734558	91	4978
2025-01-29 09:11:40.55	30.74	83.55	-36.8	-37.1	4.4	7946136	91	5045
2025-01-29 09:11:40.95	31.12	83.75	-36.9	-37.1	4.4	8017730	91	5081
2025-01-29 09:11:41.36	31.53	83.96	-37.0	-37.6	4.3	8138786	91	5239
2025-01-29 09:11:41.76	31.97	84.16	-37.3	-38.1	4.1	8230316	91	5437
2025-01-29 09:11:42.16	32.43	84.36	-37.2	-37.9	4.2	8139701	91	5334
2025-01-29 09:11:42.56	32.93	84.56	-37.3	-38.2	4.2	8107681	91	5450
2025-01-29 09:11:42.97	33.48	84.76	-37.8	-40.5	3.7	8238590	92	6777
2025-01-29 09:11:43.37	34.06	84.96	-38.3	-41.0	3.5	8435371	93	6648
2025-01-29 09:11:43.77	34.69	85.16	-38.3	-40.4	3.4	8388713	93	6236
2025-01-29 09:11:44.17	35.37	85.35	-37.9	-39.6	3.7	8425701	93	5976
2025-01-29 09:11:44.57	36.11	85.55	-37.6	-38.3	3.8	8359485	93	5327
2025-01-29 09:11:44.97	36.92	85.75	-37.8	-40.1	3.7	8325759	93	6401
2025-01-29 09:11:45.38	37.83	85.95	-37.8	-39.0	3.7	8372142	93	5650
2025-01-29 09:11:45.78	38.81	86.14	-37.6	-38.1	3.8	8365001	93	5209
2025-01-29 09:11:46.18	39.89	86.34	-37.2	-37.6	4.1	8295650	92	5129
2025-01-29 09:11:46.58	41.10	86.53	-37.1	-37.3	4.2	8183223	92	5012
2025-01-29 09:11:46.98	42.44	86.72	-37.5	-38.3	3.9	8197963	92	5399
2025-01-29 09:11:47.39	43.99	86.91	-37.9	-41.0	3.7	8389423	92	7002
2025-01-29 09:11:47.79	45.70	87.10	-37.4	-38.0	4.0	8416866	92	5297
2025-01-29 09:11:48.19	47.65	87.28	-36.6	-36.4	4.7	8059272	91	4793
2025-01-29 09:11:48.59	49.86	87.46	-37.1	-37.7	4.2	7869712	91	5286
2025-01-29 09:11:48.99	52.42	87.63	-37.5	-38.5	3.8	8293395	92	5484
2025-01-29 09:11:49.39	55.37	87.80	-37.1	-38.6	3.8	8396873	92	5846
2025-01-29 09:11:49.80	58.90	87.97	-36.4	-35.9	4.9	8141464	91	4639
2025-01-29 09:11:50.20	62.94	88.13	-36.3	-36.2	4.9	7260452	90	4880
2025-01-29 09:11:50.60	67.68	88.27	-36.9	-37.8	4.2	7885185	90	5451
2025-01-29 09:11:51.00	73.22	88.40	-37.4	-38.3	4.1	8242366	91	5512
2025-01-29 09:11:51.40	79.67	88.51	-37.0	-37.2	4.4	8138477	91	5064
2025-01-29 09:11:51.81	87.25	88.60	-36.9	-37.0	4.5	7820114	91	4980
2025-01-29 09:11:52.21	95.51	88.67	-37.1	-37.5	4.4	8002372	91	5172
2025-01-29 09:11:52.61	104.39	88.70	-37.5	-38.5	4.1	8205333	91	5518
2025-01-29 09:11:53.01	113.52	88.70	-38.0	-40.7	3.7	8231609	92	6738
2025-01-29 09:11:53.41	122.43	88.67	-38.4	-40.4	3.6	8407814	93	6218
2025-01-29 09:11:53.81	130.74	88.61	-38.6	-40.2	3.5	8378036	94	5936
2025-01-29 09:11:54.22	138.38	88.52	-38.6	-40.9	3.5	8435943	94	6391
2025-01-29 09:11:54.62	144.88	88.41	-38.7	-40.5	3.4	8405651	94	6052
2025-01-29 09:11:55.02	150.48	88.28	-38.5	-40.6	3.7	8423137	94	6278
2025-01-29 09:11:55.42	155.26	88.14	-38.2	-39.0	3.6	8379673	94	5398
2025-01-29 09:11:55.82	159.34	87.98	-38.2	-40.2	3.8	8422668	94	6198
2025-01-29 09:11:56.22	162.82	87.82	-38.2	-38.9	3.6	8387672	94	5384
2025-01-29 09:11:56.63	165.89	87.65	-38.0	-39.8	3.7	8387752	94	6030
2025-01-29 09:11:57.03	168.46	87.47	-37.9	-38.2	3.7	8365631	94	5102
2025-01-29 09:11:57.43	170.70	87.29	-37.9	-39.5	3.7	8398349	94	5905
2025-01-29 09:11:57.83	172.66	87.11	-37.7	-38.1	3.9	8317462	93	5129
2025-01-29 09:11:58.23	174.38	86.92	-37.6	-37.7	4.0	8251350	93	4990
2025-01-29 09:11:58.64	175.94	86.73	-37.8	-38.4	3.9	8260688	93	5236
2025-01-29 09:11:59.04	177.30	86.54	-38.1	-40.0	3.8	8399974	93	6158
2025-01-29 09:11:59.44	178.51	86.35	-38.1	-39.4	3.7	8344390	93	5668
2025-01-29 09:11:59.84	179.60	86.15	-38.0	-40.2	3.7	8345375	93	6369
2025-01-29 09:12:00.24	180.59	85.96	-38.0	-39.2	3.7	8395420	93	5639
2025-01-29 09:12:00.65	181.51	85.76	-38.0	-40.5	3.7	8342720	93	6564
2025-01-29 09:12:01.05	182.32	85.56	-37.7	-38.4	4.0	8371719	93	5353
2025-01-29 09:12:01.45	183.07	85.37	-37.3	-37.0	4.2	8162384	93	4775
2025-01-29 09:12:01.85	183.75	85.17	-37.8	-38.6	3.8	8240261	93	5382
2025-01-29 09:12:02.25	184.38	84.97	-38.2	-40.6	3.7	8409484	93	6498
2025-01-29 09:12:02.65	184.96	84.77	-38.0	-39.1	3.7	8362907	93	5603
2025-01-29 09:12:03.06	185.51	84.57	-37.6	-39.1	4.1	8409896	93	5823
2025-01-29 09:12:03.46	186.01	84.37	-37.6	-37.8	4.0	8301670	93	5040
2025-01-29 09:12:03.86	186.48	84.17	-37.7	-38.2	3.9	8246955	93	5202
2025-01-29 09:12:04.26	186.92	83.97	-37.8	-38.4	3.8	8286918	93	5298
2025-01-29 09:12:04.66	187.32	83.77	-37.7	-38.2	3.9	8313674	93	5226
2025-01-29 09:12:05.07	187.71	83.56	-37.5	-37.7	4.0	8306247	93	5034
2025-01-29 09:12:05.47	188.07	83.36	-37.6	-38.0	3.9	8247779	93	5124
2025-01-29 09:12:05.87	188.41	83.16	-37.8	-38.5	3.8	8274627	93	5344
2025-01-29 09:12:06.27	188.73	82.96	-38.2	-41.1	3.7	8430828	93	6811
2025-01-29 09:12:06.68	189.03	82.75	-38.3	-39.9	3.5	8385326	93	5952
2025-01-29 09:12:07.08	189.32	82.55	-37.8	-39.8	3.7	8378654	93	6165
2025-01-29 09:12:07.48	189.58	82.35	-37.5	-37.6	3.9	8300354	93	4991
2025-01-29 09:12:07.88	189.84	82.15	-37.8	-39.9	3.7	8312530	93	6260
2025-01-29 09:12:08.29	190.09	81.95	-38.1	-39.8	3.6	8411464	93	5966
2025-01-29 09:12:08.69	190.32	81.75	-37.7	-38.2	3.7	8357929	93	5200
2025-01-29 09:12:09.09	190.54	81.54	-37.4	-37.3	3.9	8303466	93	4874
2025-01-29 09:12:09.49	190.74	81.34	-37.6	-38.1	3.8	8294094	93	5169
2025-01-29 09:12:09.89	190.94	81.14	-38.0	-40.0	3.7	8423927	93	6186
2025-01-29 09:12:10.30	191.14	80.94	-37.9	-38.8	3.6	8382041	93	5452
2025-01-29 09:12:10.70	191.32	80.74	-37.7	-39.6	3.8	8382179	93	6078
2025-01-29 09:12:11.10	191.49	80.54	-37.8	-38.5	3.7	8363353	93	5314
2025-01-29 09:12:11.50	191.66	80.34	-37.8	-39.9	3.7	8407733	93	6272
2025-01-29 09:12:11.90	191.82	80.14	-38.0	-39.0	3.6	8386562	93	5556
2025-01-29 09:12:12.31	191.98	79.93	-37.8	-39.9	3.7	8356349	93	6241
2025-01-29 09:12:12.71	192.13	79.73	-37.7	-38.0	3.7	8385944	93	5125
2025-01-29 09:12:13.11	192.27	79.53	-37.7	-39.5	3.7	8348602	93	6072
2025-01-29 09:12:13.51	192.40	79.33	-37.8	-38.6	3.7	8371089	93	5400
2025-01-29 09:12:13.91	192.53	79.13	-37.9	-40.2	3.7	8370529	93	6380
2025-01-29 09:12:14.32	192.66	78.93	-37.8	-38.6	3.7	8402046	93	5399
2025-01-29 09:12:14.72	192.79	78.73	-37.7	-39.4	3.7	8350078	93	5981
2025-01-29 09:12:15.12	192.90	78.53	-37.6	-38.2	3.8	8374580	93	5267
2025-01-29 09:12:15.52	193.02	78.33	-37.7	-38.2	3.7	8347675	93	5181
2025-01-29 09:12:15.92	193.13	78.13	-37.6	-38.8	4.0	8373825	93	5662
2025-01-29 09:12:16.33	193.24	77.93	-37.4	-37.2	3.9	8305412	93	4825
2025-01-29 09:12:16.73	193.34	77.73	-37.3	-37.4	4.0	8266296	92	4977
2025-01-29 09:12:17.13	193.44	77.53	-37.1	-36.9	4.1	8230625	92	4842
2025-01-29 09:12:17.53	193.53	77.34	-37.1	-37.2	4.0	8208847	92	4949
2025-01-29 09:12:17.94	193.63	77.13	-37.3	-37.7	4.0	8228610	92	5137
2025-01-29 09:12:18.34	193.72	76.94	-37.3	-37.9	3.9	8296920	92	5237
2025-01-29 09:12:18.74	193.81	76.74	-37.3	-37.7	4.0	8263950	92	5186
2025-01-29 09:12:19.14	193.89	76.54	-37.2	-37.5	4.0	8242206	92	5083
2025-01-29 09:12:19.54	193.97	76.35	-37.2	-37.6	4.0	8251739	92	5152
2025-01-29 09:12:19.95	194.06	76.15	-37.2	-37.6	4.0	8262096	92	5145
2025-01-29 09:12:20.35	194.13	75.95	-37.1	-37.2	4.1	8255744	92	4970
2025-01-29 09:12:20.75	194.21	75.75	-36.9	-36.7	4.3	8144714	92	4798
2025-01-29 09:12:21.15	194.28	75.56	-36.8	-36.4	4.3	8067947	92	4721
2025-01-29 09:12:21.55	194.35	75.36	-36.7	-36.6	4.5	7977207	91	4880
2025-01-29 09:12:21.96	194.43	75.16	-36.4	-35.9	4.7	7823375	91	4648
2025-01-29 09:12:22.36	194.49	74.97	-36.3	-35.7	4.8	7646461	91	4572
2025-01-29 09:12:22.76	194.56	74.77	-36.6	-36.3	4.6	7631824	91	4788
2025-01-29 09:12:23.16	194.62	74.58	-36.6	-36.5	4.4	7893733	91	4871
2025-01-29 09:12:23.56	194.69	74.39	-36.4	-35.9	4.7	7805866	91	4659
2025-01-29 09:12:23.96	194.75	74.19	-35.8	-35.1	5.0	7444049	90	4541
2025-01-29 09:12:24.37	194.81	74.00	-35.8	-35.6	5.1	7336406	89	4818
2025-01-29 09:12:24.77	194.87	73.80	-36.0	-36.1	4.8	7342128	89	4971
2025-01-29 09:12:25.17	194.92	73.61	-36.1	-36.3	4.7	7775493	89	5037
2025-01-29 09:12:25.57	194.98	73.42	-36.1	-36.3	4.7	7783664	89	5005
2025-01-29 09:12:25.98	195.03	73.22	-36.2	-36.5	4.6	7794078	89	5073
2025-01-29 09:12:26.38	195.09	73.03	-36.3	-36.7	4.5	7879440	89	5142
2025-01-29 09:12:26.78	195.14	72.84	-36.3	-36.8	4.4	7968807	89	5166
2025-01-29 09:12:27.18	195.19	72.65	-36.2	-36.3	4.6	7910831	89	5010
2025-01-29 09:12:27.58	195.24	72.45	-36.2	-36.4	4.5	7879325	89	5026
2025-01-29 09:12:27.98	195.29	72.26	-36.2	-36.4	4.6	7809356	89	5048
2025-01-29 09:12:28.39	195.34	72.07	-36.0	-35.9	4.8	7758968	89	4884
2025-01-29 09:12:28.79	195.38	71.88	-36.0	-35.9	4.8	7616558	89	4858
2025-01-29 09:12:29.19	195.43	71.69	-36.1	-36.4	4.7	7607608	89	5052
2025-01-29 09:12:29.59	195.47	71.50	-36.3	-36.7	4.6	7783103	89	5176
2025-01-29 09:12:30.00	195.51	71.31	-36.5	-36.7	4.3	7911735	90	5070
2025-01-29 09:12:30.40	195.56	71.12	-36.4	-36.6	4.3	8062511	90	5028
2025-01-29 09:12:30.80	195.60	70.93	-36.5	-36.7	4.2	8117088	90	5066
2025-01-29 09:12:31.20	195.64	70.74	-36.7	-37.2	4.1	8185501	90	5236
2025-01-29 09:12:31.60	195.68	70.55	-36.8	-37.7	3.9	8223232	90	5459
2025-01-29 09:12:32.01	195.72	70.36	-37.6	-40.0	3.7	8340442	92	6550

#Closed at: 2025-01-29 09:12:32