passes_logs/2026/01/26/PlanumMoscow/PlanumMoscow__20260126_005849_METEOR-M2_4_rec.log

#Pass ID: 20260126_005849_METEOR-M2 4
#Satellite: METEOR-M2 4
#Configuration: METEOR-M2 4
#Start time: 2026-01-26 00:58:54.940440

#LorettStation: 1.0.0 05.05.2024
#Station: PlanumMoscow
#Location: 37.6253844 lon 55.6713361 lat
#TLE: 1 59051U 24039A   25293.94737965  .00000087  00000+0  58459-4 0  9998
#TLE: 2 59051  98.6671 251.7071 0007726 135.4772 224.7028 14.22388966 85257

#Time	Az	El	Level	SNR
2026-01-26 01:02:33.378984	18.5	29.4	-58.4	5.1
2026-01-26 01:02:35.624491	18.6	29.8	-59.2	5.3
2026-01-26 01:02:37.868998	18.6	30.2	-59.0	4.7
2026-01-26 01:02:40.113551	18.6	30.6	-59.1	4.4
2026-01-26 01:02:42.362068	18.7	31.1	-59.4	4.6
2026-01-26 01:02:44.606575	18.7	31.5	-59.4	4.7
2026-01-26 01:02:46.849625	18.7	32.0	-59.2	4.8
2026-01-26 01:02:49.093149	18.8	32.5	-58.9	4.2
2026-01-26 01:02:51.337695	18.8	32.9	-59.5	4.3
2026-01-26 01:02:53.582209	18.9	33.4	-59.6	4.5
2026-01-26 01:02:55.826236	18.9	33.9	-59.6	4.4
2026-01-26 01:02:58.073783	19.0	34.4	-58.8	3.4
2026-01-26 01:03:00.318330	19.0	34.9	-59.0	4.3
2026-01-26 01:03:02.562380	19.1	35.4	-59.0	4.1
2026-01-26 01:03:04.805442	19.1	35.9	-58.7	4.3
2026-01-26 01:03:07.049453	19.2	36.5	-58.8	3.8
2026-01-26 01:03:09.293968	19.2	37.0	-59.4	3.8
2026-01-26 01:03:11.537531	19.3	37.5	-59.1	2.8
2026-01-26 01:03:13.787047	19.3	38.1	-58.7	3.1
2026-01-26 01:03:16.030589	19.4	38.7	-57.9	2.5
2026-01-26 01:03:18.275096	19.4	39.2	-58.3	1.9
2026-01-26 01:03:20.518649	19.5	39.8	-58.8	2.3
2026-01-26 01:03:22.762659	19.6	40.4	-58.5	2.4
2026-01-26 01:03:25.007174	19.6	41.0	-57.9	0.1
2026-01-26 01:03:27.251719	19.7	41.6	-57.9	1.6
2026-01-26 01:03:29.495241	19.8	42.3	-58.7	3.1
2026-01-26 01:03:31.739286	19.8	42.9	-58.4	3.1
2026-01-26 01:03:33.983807	19.9	43.5	-58.1	1.7
2026-01-26 01:03:36.227826	20.0	44.2	-57.8	0.7
2026-01-26 01:03:38.471865	20.0	44.9	-58.5	0.3
2026-01-26 01:03:40.716372	20.1	45.5	-58.5	2.3
2026-01-26 01:03:42.961405	20.2	46.2	-58.7	2.0
2026-01-26 01:03:45.205424	20.3	46.9	-58.5	2.2
2026-01-26 01:03:47.449931	20.4	47.7	-58.0	0.4
2026-01-26 01:03:49.694475	20.5	48.4	-58.5	1.5
2026-01-26 01:03:51.938493	20.6	49.1	-59.0	2.0
2026-01-26 01:03:54.188039	20.7	49.9	-59.0	1.4
2026-01-26 01:03:56.432553	20.8	50.6	-58.7	0.7
2026-01-26 01:03:58.677097	20.9	51.4	-58.3	0.3
2026-01-26 01:04:00.919650	21.0	52.2	-58.7	0.6
2026-01-26 01:04:03.164156	21.2	53.0	-58.9	0.0
2026-01-26 01:04:05.407701	21.3	53.8	-59.0	1.9
2026-01-26 01:04:07.651720	21.5	54.7	-59.3	0.0
2026-01-26 01:04:09.896264	21.6	55.5	-59.7	1.1
2026-01-26 01:04:12.139779	21.8	56.4	-59.3	0.0
2026-01-26 01:04:14.384322	21.9	57.2	-59.6	0.0
2026-01-26 01:04:16.633335	22.1	58.1	-59.5	0.1
2026-01-26 01:04:18.877346	22.3	59.0	-59.8	0.0
2026-01-26 01:04:21.121890	22.5	59.9	-60.0	0.0
2026-01-26 01:04:23.365909	22.7	60.9	-60.1	0.0
2026-01-26 01:04:25.608958	23.0	61.8	-60.5	0.0
2026-01-26 01:04:27.853472	23.2	62.8	-60.7	0.0
2026-01-26 01:04:30.098017	23.5	63.7	-60.8	0.0
2026-01-26 01:04:32.341577	23.8	64.7	-61.0	0.0
2026-01-26 01:04:34.586092	24.1	65.7	-61.0	0.0
2026-01-26 01:04:36.829140	24.5	66.7	-60.9	0.0
2026-01-26 01:04:39.072663	24.8	67.7	-61.0	1.9
2026-01-26 01:04:41.316704	25.3	68.7	-61.1	2.4
2026-01-26 01:04:43.561219	25.7	69.8	-61.2	3.4
2026-01-26 01:04:45.804267	26.3	70.8	-60.8	3.8
2026-01-26 01:04:48.047807	26.9	71.9	-61.2	4.3
2026-01-26 01:04:50.291872	27.5	72.9	-61.8	4.2
2026-01-26 01:04:52.536387	28.3	74.0	-62.2	4.0
2026-01-26 01:04:54.780398	29.2	75.1	-62.5	5.0
2026-01-26 01:04:57.025943	30.2	76.2	-62.5	4.7
2026-01-26 01:04:59.271463	31.4	77.2	-62.9	4.1
2026-01-26 01:05:01.516016	32.8	78.3	-63.2	4.5
2026-01-26 01:05:03.759044	34.5	79.4	-63.0	5.4
2026-01-26 01:05:06.003086	36.6	80.5	-63.7	5.5
2026-01-26 01:05:08.247600	39.3	81.6	-63.9	6.7
2026-01-26 01:05:10.491634	42.7	82.6	-63.6	8.0
2026-01-26 01:05:12.738654	47.3	83.6	-63.6	7.8
2026-01-26 01:05:14.982711	53.6	84.6	-63.9	8.1
2026-01-26 01:05:17.227217	62.5	85.5	-63.8	9.0
2026-01-26 01:05:19.471237	75.2	86.2	-64.1	8.5
2026-01-26 01:05:21.716283	92.7	86.7	-64.2	8.7
2026-01-26 01:05:23.959805	113.2	86.8	-64.4	9.2
2026-01-26 01:05:26.203863	132.3	86.4	-64.4	9.9
2026-01-26 01:05:28.447421	147.0	85.8	-64.8	10.0
2026-01-26 01:05:30.692432	157.3	85.0	-65.0	10.3
2026-01-26 01:05:32.936977	164.5	84.0	-65.2	10.2
2026-01-26 01:05:35.180997	169.7	83.0	-65.2	10.2
2026-01-26 01:05:37.426053	173.6	82.0	-65.6	10.5
2026-01-26 01:05:39.670568	176.5	80.9	-65.2	11.0
2026-01-26 01:05:41.913615	178.8	79.8	-65.7	10.6
2026-01-26 01:05:44.157626	180.7	78.8	-65.7	10.8
2026-01-26 01:05:46.401637	182.2	77.7	-65.6	10.6
2026-01-26 01:05:48.646175	183.5	76.6	-66.0	9.8
2026-01-26 01:05:50.892191	184.6	75.5	-66.2	9.9
2026-01-26 01:05:53.135244	185.5	74.4	-66.3	10.2
2026-01-26 01:05:55.379304	186.3	73.3	-66.2	10.5
2026-01-26 01:05:57.623819	187.0	72.3	-66.4	10.9
2026-01-26 01:05:59.868364	187.6	71.2	-66.5	11.0
2026-01-26 01:06:02.118385	188.2	70.2	-66.6	11.4
2026-01-26 01:06:04.362892	188.7	69.1	-67.0	10.8
2026-01-26 01:06:06.606943	189.1	68.1	-67.5	10.7
2026-01-26 01:06:08.850962	189.5	67.1	-67.4	10.3
2026-01-26 01:06:11.097013	189.9	66.0	-67.3	10.0
2026-01-26 01:06:13.341520	190.2	65.0	-67.3	9.1
2026-01-26 01:06:15.585539	190.5	64.1	-67.0	8.8
2026-01-26 01:06:17.828094	190.8	63.1	-66.9	9.2
2026-01-26 01:06:20.072599	191.1	62.1	-66.3	8.8
2026-01-26 01:06:22.341112	191.3	61.2	-66.0	9.1
2026-01-26 01:06:24.584656	191.5	60.2	-65.9	9.1
2026-01-26 01:06:26.828188	191.7	59.3	-66.0	8.5
2026-01-26 01:06:29.109718	191.9	58.4	-65.8	7.6
2026-01-26 01:06:31.356272	192.1	57.5	-65.8	7.0
2026-01-26 01:06:33.600332	192.3	56.6	-65.9	6.9
2026-01-26 01:06:35.846350	192.5	55.7	-65.7	6.8
2026-01-26 01:06:38.090390	192.6	54.9	-65.6	7.7
2026-01-26 01:06:40.334410	192.8	54.1	-65.6	8.1
2026-01-26 01:06:42.578917	192.9	53.2	-65.8	7.4
2026-01-26 01:06:44.822463	193.0	52.4	-66.0	7.8
2026-01-26 01:06:47.065986	193.2	51.6	-66.2	8.0
2026-01-26 01:06:49.309516	193.3	50.8	-66.2	7.8
2026-01-26 01:06:51.553535	193.4	50.0	-66.3	7.6
2026-01-26 01:06:53.797576	193.5	49.3	-66.6	7.3
2026-01-26 01:06:56.041101	193.6	48.5	-66.1	7.3
2026-01-26 01:06:58.285160	193.7	47.8	-66.5	7.9
2026-01-26 01:07:00.529667	193.8	47.1	-66.6	9.0
2026-01-26 01:07:02.772693	193.9	46.4	-66.3	8.1
2026-01-26 01:07:05.017230	194.0	45.7	-66.6	8.1
2026-01-26 01:07:07.261745	194.0	45.0	-66.4	9.1
2026-01-26 01:07:09.505787	194.1	44.3	-66.1	8.9
2026-01-26 01:07:11.749807	194.2	43.6	-65.8	8.8
2026-01-26 01:07:13.993848	194.3	43.0	-66.0	9.2
2026-01-26 01:07:16.237867	194.3	42.3	-65.7	10.3
2026-01-26 01:07:18.481878	194.4	41.7	-65.5	9.5
2026-01-26 01:07:20.727424	194.5	41.1	-65.7	10.0
2026-01-26 01:07:22.971939	194.5	40.5	-65.4	9.5
2026-01-26 01:07:25.215981	194.6	39.9	-65.6	10.1
2026-01-26 01:07:27.459001	194.7	39.3	-65.5	10.2
2026-01-26 01:07:29.702547	194.7	38.7	-65.2	10.6
2026-01-26 01:07:31.947054	194.8	38.1	-65.4	11.1
2026-01-26 01:07:34.191095	194.8	37.6	-65.0	10.1
2026-01-26 01:07:36.440115	194.9	37.0	-65.2	10.6
2026-01-26 01:07:38.684126	194.9	36.5	-65.2	10.5
2026-01-26 01:07:40.928167	195.0	35.9	-65.3	9.8
2026-01-26 01:07:43.172188	195.0	35.4	-64.8	9.4
2026-01-26 01:07:45.416227	195.1	34.9	-64.9	11.1
2026-01-26 01:07:47.660734	195.1	34.4	-65.4	10.9
2026-01-26 01:07:49.903784	195.2	33.9	-65.5	11.6
2026-01-26 01:07:52.148298	195.2	33.4	-65.4	12.3
2026-01-26 01:07:54.391858	195.3	32.9	-65.5	11.7
2026-01-26 01:07:56.636862	195.3	32.4	-65.8	12.3
2026-01-26 01:07:58.881376	195.3	32.0	-65.7	12.0
2026-01-26 01:08:01.125417	195.4	31.5	-65.8	12.5
2026-01-26 01:08:03.369956	195.4	31.0	-65.6	12.0
2026-01-26 01:08:05.614017	195.4	30.6	-65.4	11.9
2026-01-26 01:08:07.862531	195.5	30.2	-65.7	11.1
2026-01-26 01:08:10.107038	195.5	29.7	-65.6	12.0
2026-01-26 01:08:12.351587	195.6	29.3	-65.6	12.8
2026-01-26 01:08:14.595112	195.6	28.9	-65.5	12.3
2026-01-26 01:08:16.838656	195.6	28.5	-66.0	12.2
2026-01-26 01:08:19.083163	195.7	28.1	-65.5	12.4
2026-01-26 01:08:21.326715	195.7	27.6	-65.1	11.5
2026-01-26 01:08:23.571230	195.7	27.3	-65.7	12.9
2026-01-26 01:08:25.815262	195.8	26.9	-65.2	12.0
2026-01-26 01:08:28.059776	195.8	26.5	-64.6	11.8
2026-01-26 01:08:30.303787	195.8	26.1	-65.5	12.0
2026-01-26 01:08:32.547333	195.8	25.7	-64.2	9.6
2026-01-26 01:08:34.791848	195.9	25.4	-65.5	12.0
2026-01-26 01:08:37.034897	195.9	25.0	-65.3	11.9
2026-01-26 01:08:39.278926	195.9	24.6	-65.5	11.8
2026-01-26 01:08:41.522471	196.0	24.3	-65.1	11.6
2026-01-26 01:08:43.766986	196.0	23.9	-65.5	12.0
2026-01-26 01:08:46.010029	196.0	23.6	-65.8	12.3
2026-01-26 01:08:48.254536	196.0	23.2	-65.3	12.0
2026-01-26 01:08:50.499051	196.1	22.9	-65.3	12.4
2026-01-26 01:08:52.743594	196.1	22.6	-64.4	11.7
2026-01-26 01:08:54.987614	196.1	22.2	-65.1	11.6
2026-01-26 01:08:57.232157	196.1	21.9	-65.0	12.1
2026-01-26 01:08:59.478664	196.2	21.6	-64.4	11.6
2026-01-26 01:09:01.728172	196.2	21.3	-65.1	12.1
2026-01-26 01:09:03.971719	196.2	21.0	-65.2	12.3
2026-01-26 01:09:06.215730	196.2	20.7	-65.3	12.0
2026-01-26 01:09:08.460273	196.3	20.4	-64.3	10.7
2026-01-26 01:09:10.702824	196.3	20.1	-65.4	11.7
2026-01-26 01:09:12.947331	196.3	19.8	-65.6	11.6
2026-01-26 01:09:15.191838	196.3	19.5	-64.9	10.6
2026-01-26 01:09:17.441355	196.4	19.2	-65.1	11.3
2026-01-26 01:09:19.687366	196.4	18.9	-65.6	11.8
2026-01-26 01:09:21.931873	196.4	18.6	-63.6	8.4
2026-01-26 01:09:24.175884	196.4	18.3	-65.5	11.4
2026-01-26 01:09:26.420896	196.4	18.0	-65.3	11.1
2026-01-26 01:09:28.665403	196.5	17.8	-65.4	11.9
2026-01-26 01:09:30.909909	196.5	17.5	-65.1	11.4
2026-01-26 01:09:33.154416	196.5	17.2	-65.4	11.6
2026-01-26 01:09:35.398923	196.5	17.0	-65.3	11.3
2026-01-26 01:09:37.643430	196.5	16.7	-64.9	10.1
2026-01-26 01:09:39.892442	196.6	16.5	-64.9	11.2
2026-01-26 01:09:42.136453	196.6	16.2	-64.9	10.8
2026-01-26 01:09:44.380465	196.6	15.9	-64.5	10.8
2026-01-26 01:09:46.624476	196.6	15.7	-64.9	10.9
2026-01-26 01:09:48.868487	196.6	15.4	-64.4	10.6
2026-01-26 01:09:51.112499	196.6	15.2	-64.8	9.8
2026-01-26 01:09:53.357006	196.7	15.0	-64.7	9.3
2026-01-26 01:09:55.601017	196.7	14.7	-64.8	9.7
2026-01-26 01:09:57.845027	196.7	14.5	-64.7	9.5
2026-01-26 01:10:00.089534	196.7	14.2	-64.8	8.8
2026-01-26 01:10:02.333546	196.7	14.0	-65.1	9.9
2026-01-26 01:10:04.580053	196.8	13.8	-64.9	10.0
2026-01-26 01:10:06.824560	196.8	13.5	-64.5	9.6
2026-01-26 01:10:09.069067	196.8	13.3	-64.6	9.8
2026-01-26 01:10:11.318575	196.8	13.1	-64.7	8.9
2026-01-26 01:10:13.563082	196.8	12.9	-64.8	9.3
2026-01-26 01:10:15.807093	196.8	12.6	-64.2	8.8
2026-01-26 01:10:18.056610	196.9	12.4	-64.6	8.9
2026-01-26 01:10:20.301117	196.9	12.2	-64.4	9.2
2026-01-26 01:10:22.545624	196.9	12.0	-64.1	7.8
2026-01-26 01:10:24.789635	196.9	11.8	-63.6	7.6
2026-01-26 01:10:27.034142	196.9	11.6	-64.4	7.3
2026-01-26 01:10:29.278649	196.9	11.4	-64.2	7.8
2026-01-26 01:10:31.522660	196.9	11.2	-63.8	7.1
2026-01-26 01:10:33.766175	197.0	10.9	-64.0	8.1
2026-01-26 01:10:36.010682	197.0	10.7	-63.7	8.0
2026-01-26 01:10:38.255189	197.0	10.5	-63.8	7.9
2026-01-26 01:10:40.504697	197.0	10.3	-63.5	7.6
2026-01-26 01:10:42.748707	197.0	10.1	-63.9	7.7
2026-01-26 01:10:44.994214	197.0	9.9	-63.9	6.9
2026-01-26 01:10:47.238224	197.0	9.7	-63.5	6.6
2026-01-26 01:10:49.482243	197.1	9.5	-63.6	6.4
2026-01-26 01:10:51.726282	197.1	9.4	-63.6	5.2
2026-01-26 01:10:53.970788	197.1	9.2	-62.9	5.0
2026-01-26 01:10:56.214333	197.1	9.0	-63.6	5.8
2026-01-26 01:10:58.458848	197.1	8.8	-63.7	5.9
2026-01-26 01:11:00.703355	197.1	8.6	-63.6	5.1
2026-01-26 01:11:02.947403	197.1	8.4	-63.6	6.2
2026-01-26 01:11:05.191414	197.2	8.2	-63.4	5.3
2026-01-26 01:11:07.435921	197.2	8.0	-62.6	4.0
2026-01-26 01:11:09.680427	197.2	7.9	-63.5	3.6
2026-01-26 01:11:11.926447	197.2	7.7	-63.1	4.5
2026-01-26 01:11:14.169989	197.2	7.5	-63.1	4.5
2026-01-26 01:11:16.414496	197.2	7.3	-63.1	3.3
2026-01-26 01:11:18.663043	197.2	7.1	-62.9	3.6
2026-01-26 01:11:20.907550	197.3	7.0	-62.3	4.6
2026-01-26 01:11:23.152056	197.3	6.8	-63.2	3.5
2026-01-26 01:11:25.396068	197.3	6.6	-63.1	3.1
2026-01-26 01:11:27.640086	197.3	6.5	-63.2	1.6
2026-01-26 01:11:29.883624	197.3	6.3	-62.9	4.2
2026-01-26 01:11:32.127643	197.3	6.1	-62.8	3.3
2026-01-26 01:11:34.377151	197.3	5.9	-66.2	0.9
2026-01-26 01:11:36.620714	197.3	5.8	-68.9	0.0
2026-01-26 01:11:38.864733	197.4	5.6	-68.1	0.0
2026-01-26 01:11:41.106802	197.4	5.4	-67.0	0.0
2026-01-26 01:11:43.350848	197.4	5.3	-69.0	0.0
2026-01-26 01:11:45.595356	197.4	5.1	-66.2	0.0
2026-01-26 01:11:47.840863	197.4	5.0	-65.8	0.0
#Closed at: 2026-01-26 00:58:49.942565