passes_logs/2026/01/26/PlanumMoscow/PlanumMoscow__20260126_174039_METEOR-M2_3_rec.log

#Pass ID: 20260126_174039_METEOR-M2 3
#Satellite: METEOR-M2 3
#Configuration: METEOR-M2 3
#Start time: 2026-01-26 17:40:44.865746

#LorettStation: 1.0.0 05.05.2024
#Station: PlanumMoscow
#Location: 37.6253844 lon 55.6713361 lat
#TLE: 1 57166U 23091A   25293.99389264  .00000062  00000+0  46113-4 0  9997
#TLE: 2 57166  98.6457 348.4330 0004759 135.3141 224.8422 14.24016546120475

#Time	Az	El	Level	SNR
2026-01-26 17:44:23.331361	156.7	29.9	-63.6	10.8
2026-01-26 17:44:25.573372	156.7	30.4	-64.5	13.1
2026-01-26 17:44:27.816918	156.6	30.8	-64.5	12.8
2026-01-26 17:44:30.063433	156.6	31.3	-64.0	12.4
2026-01-26 17:44:32.306940	156.5	31.7	-64.3	12.5
2026-01-26 17:44:34.550485	156.5	32.2	-64.1	11.9
2026-01-26 17:44:36.794497	156.4	32.7	-64.2	13.0
2026-01-26 17:44:39.038507	156.3	33.1	-64.2	13.6
2026-01-26 17:44:41.283014	156.3	33.6	-64.6	13.6
2026-01-26 17:44:43.527521	156.2	34.1	-64.0	12.4
2026-01-26 17:44:45.773036	156.1	34.6	-64.6	13.3
2026-01-26 17:44:48.017543	156.1	35.1	-64.7	13.6
2026-01-26 17:44:50.261553	156.0	35.7	-64.8	14.3
2026-01-26 17:44:52.507564	155.9	36.2	-64.8	13.6
2026-01-26 17:44:54.755072	155.9	36.7	-65.0	14.2
2026-01-26 17:44:56.999083	155.8	37.3	-64.7	14.4
2026-01-26 17:44:59.243590	155.7	37.8	-64.5	13.9
2026-01-26 17:45:01.493098	155.6	38.4	-64.7	13.8
2026-01-26 17:45:03.737605	155.5	39.0	-64.6	13.8
2026-01-26 17:45:05.981626	155.4	39.5	-64.9	14.5
2026-01-26 17:45:08.225182	155.3	40.1	-64.9	14.2
2026-01-26 17:45:10.469696	155.2	40.7	-64.6	13.5
2026-01-26 17:45:12.714203	155.1	41.4	-64.8	13.5
2026-01-26 17:45:14.959238	155.0	42.0	-64.7	13.5
2026-01-26 17:45:17.204258	154.9	42.6	-64.8	13.7
2026-01-26 17:45:19.447310	154.8	43.3	-64.9	13.2
2026-01-26 17:45:21.692330	154.7	43.9	-64.8	13.6
2026-01-26 17:45:23.936877	154.5	44.6	-65.3	13.4
2026-01-26 17:45:26.182905	154.4	45.3	-65.3	13.0
2026-01-26 17:45:28.426941	154.3	46.0	-65.0	12.4
2026-01-26 17:45:30.671456	154.1	46.7	-65.4	12.5
2026-01-26 17:45:32.917469	154.0	47.4	-65.1	12.3
2026-01-26 17:45:35.162016	153.8	48.1	-65.3	11.5
2026-01-26 17:45:37.406531	153.6	48.8	-65.1	11.0
2026-01-26 17:45:39.651078	153.4	49.6	-65.1	11.7
2026-01-26 17:45:41.894100	153.2	50.4	-65.7	12.1
2026-01-26 17:45:44.137153	153.1	51.1	-65.3	11.7
2026-01-26 17:45:46.381710	152.8	51.9	-65.8	12.1
2026-01-26 17:45:48.626216	152.6	52.7	-65.7	12.0
2026-01-26 17:45:50.873733	152.4	53.5	-65.8	10.5
2026-01-26 17:45:53.117258	152.1	54.4	-66.1	10.3
2026-01-26 17:45:55.361808	151.9	55.2	-66.5	11.2
2026-01-26 17:45:57.605819	151.6	56.1	-66.5	11.0
2026-01-26 17:45:59.851374	151.3	56.9	-66.3	10.0
2026-01-26 17:46:02.095393	151.0	57.8	-65.7	9.3
2026-01-26 17:46:04.339428	150.6	58.7	-66.1	8.3
2026-01-26 17:46:06.588440	150.3	59.6	-66.4	8.5
2026-01-26 17:46:08.832947	149.9	60.5	-66.5	8.9
2026-01-26 17:46:11.077454	149.4	61.4	-66.2	8.9
2026-01-26 17:46:13.321960	149.0	62.4	-66.0	8.6
2026-01-26 17:46:15.570476	148.5	63.3	-66.5	9.6
2026-01-26 17:46:17.814983	148.0	64.3	-66.1	9.5
2026-01-26 17:46:20.059026	147.4	65.3	-66.3	9.5
2026-01-26 17:46:22.303533	146.7	66.2	-66.4	9.5
2026-01-26 17:46:24.574086	146.0	67.2	-66.5	9.0
2026-01-26 17:46:26.818592	145.2	68.2	-66.4	9.0
2026-01-26 17:46:29.062628	144.4	69.3	-66.4	8.6
2026-01-26 17:46:31.306647	143.4	70.3	-66.8	8.2
2026-01-26 17:46:33.550171	142.4	71.3	-66.4	7.7
2026-01-26 17:46:35.794678	141.2	72.3	-66.4	7.8
2026-01-26 17:46:38.039185	139.8	73.3	-66.3	7.7
2026-01-26 17:46:40.282701	138.3	74.3	-66.7	7.6
2026-01-26 17:46:42.527208	136.6	75.4	-66.7	7.6
2026-01-26 17:46:44.771715	134.5	76.4	-66.2	7.8
2026-01-26 17:46:47.016252	132.2	77.4	-66.4	7.3
2026-01-26 17:46:49.263264	129.4	78.3	-66.5	8.5
2026-01-26 17:46:51.506818	126.1	79.3	-66.0	8.8
2026-01-26 17:46:53.751333	122.2	80.2	-66.1	9.9
2026-01-26 17:46:55.997840	117.5	81.1	-65.8	9.3
2026-01-26 17:46:58.241356	111.8	81.9	-65.2	9.1
2026-01-26 17:47:00.485863	104.9	82.6	-66.0	9.7
2026-01-26 17:47:02.730370	96.8	83.1	-65.9	9.7
2026-01-26 17:47:04.975886	87.3	83.5	-66.4	10.0
2026-01-26 17:47:07.222393	76.9	83.8	-66.0	8.6
2026-01-26 17:47:09.468909	66.2	83.8	-66.1	9.4
2026-01-26 17:47:11.713464	55.7	83.6	-66.4	9.5
2026-01-26 17:47:13.962477	46.3	83.1	-66.6	9.2
2026-01-26 17:47:16.206984	38.1	82.6	-66.0	9.1
2026-01-26 17:47:18.451490	31.2	81.9	-65.8	10.9
2026-01-26 17:47:20.695997	25.4	81.1	-64.5	8.3
2026-01-26 17:47:22.945514	20.7	80.2	-65.2	10.2
2026-01-26 17:47:25.193022	16.7	79.3	-64.4	9.2
2026-01-26 17:47:27.439035	13.4	78.4	-65.5	10.2
2026-01-26 17:47:29.683541	10.6	77.4	-65.1	8.2
2026-01-26 17:47:31.926562	8.2	76.4	-65.5	8.5
2026-01-26 17:47:34.171069	6.2	75.4	-65.4	8.0
2026-01-26 17:47:36.415584	4.4	74.4	-65.3	8.0
2026-01-26 17:47:38.660132	2.9	73.4	-65.2	8.1
2026-01-26 17:47:40.909144	1.6	72.3	-65.3	8.6
2026-01-26 17:47:43.152699	0.4	71.3	-65.0	8.3
2026-01-26 17:47:45.397215	359.3	70.3	-64.7	8.7
2026-01-26 17:47:47.641226	358.3	69.3	-64.9	8.7
2026-01-26 17:47:49.884773	357.5	68.3	-65.4	8.3
2026-01-26 17:47:52.129288	356.7	67.3	-64.9	7.1
2026-01-26 17:47:54.373827	356.0	66.3	-64.8	7.0
2026-01-26 17:47:56.622412	355.4	65.3	-64.0	6.4
2026-01-26 17:47:58.866919	354.8	64.4	-63.9	6.2
2026-01-26 17:48:01.111433	354.2	63.4	-64.0	6.8
2026-01-26 17:48:03.357941	353.7	62.5	-64.2	5.1
2026-01-26 17:48:05.601992	353.3	61.5	-64.7	4.7
2026-01-26 17:48:07.846507	352.9	60.6	-63.3	4.6
2026-01-26 17:48:10.091058	352.5	59.7	-63.1	5.5
2026-01-26 17:48:12.337574	352.1	58.8	-63.7	5.4
2026-01-26 17:48:14.581115	351.8	57.9	-63.7	4.8
2026-01-26 17:48:16.823679	351.4	57.0	-63.8	4.1
2026-01-26 17:48:19.067690	351.1	56.2	-63.9	4.7
2026-01-26 17:48:21.311246	350.9	55.3	-64.2	5.4
2026-01-26 17:48:23.554306	350.6	54.5	-64.2	5.0
2026-01-26 17:48:25.798364	350.3	53.6	-64.2	3.8
2026-01-26 17:48:28.042879	350.1	52.8	-63.2	3.5
2026-01-26 17:48:30.286946	349.9	52.0	-63.7	2.9
2026-01-26 17:48:32.530966	349.7	51.2	-63.1	3.7
2026-01-26 17:48:34.774512	349.5	50.5	-63.4	3.9
2026-01-26 17:48:37.019019	349.3	49.7	-63.5	3.6
2026-01-26 17:48:39.262542	349.1	49.0	-63.6	3.1
2026-01-26 17:48:41.506583	348.9	48.2	-63.6	4.4
2026-01-26 17:48:43.752108	348.8	47.5	-63.5	4.0
2026-01-26 17:48:45.997171	348.6	46.8	-62.8	4.1
2026-01-26 17:48:48.241222	348.5	46.1	-62.9	3.9
2026-01-26 17:48:50.485729	348.3	45.4	-63.2	4.7
2026-01-26 17:48:52.729747	348.2	44.7	-63.3	5.4
2026-01-26 17:48:54.976294	348.1	44.0	-63.0	5.5
2026-01-26 17:48:57.220809	347.9	43.4	-62.5	5.9
2026-01-26 17:48:59.467349	347.8	42.7	-62.4	4.8
2026-01-26 17:49:01.711856	347.7	42.1	-62.5	5.1
2026-01-26 17:49:03.956868	347.6	41.5	-62.5	5.7
2026-01-26 17:49:06.202375	347.5	40.9	-62.0	5.4
2026-01-26 17:49:08.446890	347.4	40.3	-62.3	4.9
2026-01-26 17:49:10.690455	347.3	39.7	-62.1	6.0
2026-01-26 17:49:12.934971	347.2	39.1	-62.0	4.7
2026-01-26 17:49:15.180517	347.1	38.5	-61.8	4.9
2026-01-26 17:49:17.425024	347.0	38.0	-62.3	5.6
2026-01-26 17:49:19.673086	347.0	37.4	-61.6	4.9
2026-01-26 17:49:21.919594	346.9	36.9	-62.2	6.1
2026-01-26 17:49:24.170658	346.8	36.3	-62.0	5.4
2026-01-26 17:49:26.414669	346.7	35.8	-61.5	5.1
2026-01-26 17:49:28.659185	346.7	35.3	-61.4	4.3
2026-01-26 17:49:30.907731	346.6	34.8	-61.6	4.9
2026-01-26 17:49:33.152246	346.5	34.3	-62.2	5.9
2026-01-26 17:49:35.396298	346.5	33.8	-62.1	6.2
2026-01-26 17:49:37.640318	346.4	33.3	-62.1	5.1
2026-01-26 17:49:39.884824	346.3	32.8	-62.1	5.9
2026-01-26 17:49:42.129382	346.3	32.3	-61.9	6.1
2026-01-26 17:49:44.374906	346.2	31.9	-62.0	5.8
2026-01-26 17:49:46.620466	346.2	31.4	-62.3	5.5
2026-01-26 17:49:48.864486	346.1	31.0	-62.2	5.8
2026-01-26 17:49:51.109033	346.1	30.5	-62.5	5.8
2026-01-26 17:49:53.353547	346.0	30.1	-62.7	5.9
2026-01-26 17:49:55.599094	346.0	29.7	-62.7	5.7
2026-01-26 17:49:57.843600	345.9	29.2	-62.3	5.4
2026-01-26 17:50:00.090108	345.9	28.8	-62.2	5.6
2026-01-26 17:50:02.334655	345.8	28.4	-62.7	6.1
2026-01-26 17:50:04.578698	345.8	28.0	-62.5	6.6
2026-01-26 17:50:06.823245	345.8	27.6	-62.2	5.5
2026-01-26 17:50:09.066770	345.7	27.2	-62.4	5.0
2026-01-26 17:50:11.311321	345.7	26.8	-62.4	5.4
2026-01-26 17:50:13.555340	345.6	26.4	-61.8	5.0
2026-01-26 17:50:15.800888	345.6	26.1	-61.9	5.6
2026-01-26 17:50:18.045413	345.6	25.7	-62.4	5.4
2026-01-26 17:50:20.289920	345.5	25.3	-61.9	5.2
2026-01-26 17:50:22.534468	345.5	25.0	-62.3	5.7
2026-01-26 17:50:24.778488	345.5	24.6	-61.8	4.9
2026-01-26 17:50:27.023033	345.4	24.3	-62.3	4.8
2026-01-26 17:50:29.267540	345.4	23.9	-62.2	5.7
2026-01-26 17:50:31.512047	345.4	23.6	-61.7	4.7
2026-01-26 17:50:33.756059	345.4	23.2	-62.5	4.8
2026-01-26 17:50:36.000566	345.3	22.9	-62.2	4.7
2026-01-26 17:50:38.245073	345.3	22.6	-61.9	4.5
2026-01-26 17:50:40.489580	345.3	22.2	-62.6	5.7
2026-01-26 17:50:42.733591	345.3	21.9	-62.8	5.9
2026-01-26 17:50:44.977602	345.2	21.6	-62.7	5.2
2026-01-26 17:50:47.221613	345.2	21.3	-62.4	5.2
2026-01-26 17:50:49.466120	345.2	21.0	-62.6	5.8
2026-01-26 17:50:51.715628	345.2	20.7	-61.7	4.6
2026-01-26 17:50:53.960135	345.1	20.4	-62.5	5.7
2026-01-26 17:50:56.204642	345.1	20.1	-62.0	5.1
2026-01-26 17:50:58.450654	345.1	19.8	-61.6	4.4
2026-01-26 17:51:00.695171	345.1	19.5	-62.7	5.0
2026-01-26 17:51:02.940214	345.0	19.2	-62.7	5.5
2026-01-26 17:51:05.184721	345.0	18.9	-61.6	3.9
2026-01-26 17:51:07.428236	345.0	18.6	-62.3	5.4
2026-01-26 17:51:09.672743	345.0	18.4	-62.4	5.1
2026-01-26 17:51:11.917794	345.0	18.1	-62.0	5.1
2026-01-26 17:51:14.162300	345.0	17.8	-62.7	5.2
2026-01-26 17:51:16.405826	344.9	17.5	-62.9	5.0
2026-01-26 17:51:18.649870	344.9	17.3	-63.0	5.1
2026-01-26 17:51:20.893900	344.9	17.0	-62.7	5.3
2026-01-26 17:51:23.137958	344.9	16.8	-62.9	5.7
2026-01-26 17:51:25.384978	344.9	16.5	-62.3	4.4
2026-01-26 17:51:27.629485	344.9	16.2	-62.6	4.8
2026-01-26 17:51:29.874528	344.8	16.0	-62.7	5.4
2026-01-26 17:51:32.125044	344.8	15.7	-62.7	4.5
2026-01-26 17:51:34.370591	344.8	15.5	-62.8	5.0
2026-01-26 17:51:36.614119	344.8	15.3	-63.2	5.0
2026-01-26 17:51:38.859674	344.8	15.0	-63.0	5.5
2026-01-26 17:51:41.103686	344.8	14.8	-62.9	4.9
2026-01-26 17:51:43.348193	344.8	14.5	-62.6	4.2
2026-01-26 17:51:45.592245	344.8	14.3	-63.0	5.3
2026-01-26 17:51:47.836759	344.7	14.1	-63.1	4.9
2026-01-26 17:51:50.083306	344.7	13.8	-62.6	3.8
2026-01-26 17:51:52.327822	344.7	13.6	-63.4	5.3
2026-01-26 17:51:54.572368	344.7	13.4	-63.4	5.6
2026-01-26 17:51:56.817378	344.7	13.2	-63.4	5.1
2026-01-26 17:51:59.061439	344.7	12.9	-63.2	5.5
2026-01-26 17:52:01.304962	344.7	12.7	-63.5	5.9
2026-01-26 17:52:03.549469	344.7	12.5	-63.4	5.4
2026-01-26 17:52:05.796520	344.7	12.3	-63.2	4.7
2026-01-26 17:52:08.044036	344.7	12.1	-62.8	5.2
2026-01-26 17:52:10.288584	344.6	11.9	-62.2	3.0
2026-01-26 17:52:12.532108	344.6	11.7	-62.5	4.1
2026-01-26 17:52:14.776169	344.6	11.4	-62.8	5.2
2026-01-26 17:52:17.020675	344.6	11.2	-62.9	4.2
2026-01-26 17:52:19.264686	344.6	11.0	-62.8	4.8
2026-01-26 17:52:21.509699	344.6	10.8	-63.8	6.0
2026-01-26 17:52:23.753738	344.6	10.6	-63.7	5.8
2026-01-26 17:52:25.997285	344.6	10.4	-63.2	6.2
2026-01-26 17:52:28.242810	344.6	10.2	-62.9	5.5
2026-01-26 17:52:30.491863	344.6	10.0	-63.1	4.8
2026-01-26 17:52:32.736379	344.6	9.8	-63.8	6.2
2026-01-26 17:52:34.982423	344.6	9.7	-64.1	5.0
2026-01-26 17:52:37.231435	344.6	9.5	-63.8	4.7
2026-01-26 17:52:39.479470	344.6	9.3	-63.5	4.0
2026-01-26 17:52:41.723977	344.5	9.1	-64.1	5.3
2026-01-26 17:52:43.967501	344.5	8.9	-64.2	6.3
2026-01-26 17:52:46.214553	344.5	8.7	-63.7	5.2
2026-01-26 17:52:48.458571	344.5	8.5	-63.4	5.8
2026-01-26 17:52:50.703117	344.5	8.3	-63.7	4.7
2026-01-26 17:52:52.946641	344.5	8.2	-63.7	4.9
2026-01-26 17:52:55.192717	344.5	8.0	-63.2	4.7
2026-01-26 17:52:57.437233	344.5	7.8	-63.7	6.3
2026-01-26 17:52:59.681779	344.5	7.6	-63.4	5.5
2026-01-26 17:53:01.929297	344.5	7.4	-63.6	6.6
2026-01-26 17:53:04.173348	344.5	7.3	-64.0	5.5
2026-01-26 17:53:06.417855	344.5	7.1	-62.7	2.7
2026-01-26 17:53:08.662372	344.5	6.9	-63.9	2.5
2026-01-26 17:53:10.905423	344.5	6.7	-63.5	4.3
2026-01-26 17:53:13.149442	344.5	6.6	-63.8	3.7
2026-01-26 17:53:15.394989	344.5	6.4	-63.0	1.0
2026-01-26 17:53:17.638040	344.5	6.2	-63.2	0.8
2026-01-26 17:53:19.882060	344.5	6.1	-64.3	2.8
2026-01-26 17:53:22.126606	344.5	5.9	-66.2	0.0
2026-01-26 17:53:24.370626	344.5	5.7	-67.8	0.0
2026-01-26 17:53:26.614669	344.5	5.6	-67.4	2.3
2026-01-26 17:53:28.859184	344.5	5.4	-64.3	0.0
2026-01-26 17:53:31.102732	344.5	5.2	-66.1	0.0
2026-01-26 17:53:33.347247	344.5	5.1	-67.0	0.0
#Closed at: 2026-01-26 17:40:39.867113