passes_logs/2026/01/26/PlanumMoscow/PlanumMoscow__20260126_170153_METOP-B_rec.log

#Pass ID: 20260126_170153_METOP-B
#Satellite: METOP-B
#Configuration: METOP-B
#Start time: 2026-01-26 17:01:58.359438

#LorettStation: 1.0.0 05.05.2024
#Station: PlanumMoscow
#Location: 37.6253844 lon 55.6713361 lat
#TLE: 1 38771U 12049A   25293.92766658  .00000266  00000+0  14193-3 0  9996
#TLE: 2 38771  98.6882 344.7603 0001609 341.5209  18.5909 14.21379342679275

#Time	Az	El	Level	SNR
2026-01-26 17:05:36.797993	133.5	28.6	-62.1	5.4
2026-01-26 17:05:39.043012	133.2	28.9	-61.3	6.5
2026-01-26 17:05:41.289519	132.9	29.3	-61.4	5.5
2026-01-26 17:05:43.533569	132.6	29.7	-62.2	6.3
2026-01-26 17:05:45.777605	132.3	30.1	-62.4	6.8
2026-01-26 17:05:48.021151	132.0	30.5	-62.7	4.4
2026-01-26 17:05:50.265666	131.7	30.9	-63.6	7.2
2026-01-26 17:05:52.511709	131.4	31.3	-62.7	5.0
2026-01-26 17:05:54.756216	131.0	31.8	-62.6	4.7
2026-01-26 17:05:57.000235	130.7	32.2	-61.1	3.7
2026-01-26 17:05:59.248287	130.3	32.6	-61.4	5.0
2026-01-26 17:06:01.492794	130.0	33.0	-62.8	7.9
2026-01-26 17:06:03.736834	129.6	33.5	-62.7	6.5
2026-01-26 17:06:05.981341	129.2	33.9	-62.3	8.6
2026-01-26 17:06:08.227901	128.8	34.4	-63.4	9.3
2026-01-26 17:06:10.472416	128.4	34.8	-63.3	9.0
2026-01-26 17:06:12.716923	128.0	35.3	-62.5	5.3
2026-01-26 17:06:14.960479	127.6	35.7	-62.5	8.5
2026-01-26 17:06:17.206986	127.1	36.2	-61.5	5.1
2026-01-26 17:06:19.451493	126.7	36.7	-63.0	7.3
2026-01-26 17:06:21.696008	126.2	37.1	-61.4	3.0
2026-01-26 17:06:23.943524	125.7	37.6	-63.7	8.3
2026-01-26 17:06:26.187575	125.2	38.1	-62.2	6.4
2026-01-26 17:06:28.431640	124.7	38.6	-63.1	8.0
2026-01-26 17:06:30.677147	124.2	39.1	-61.3	1.4
2026-01-26 17:06:32.924159	123.6	39.6	-63.1	8.2
2026-01-26 17:06:35.171220	123.0	40.1	-62.9	6.9
2026-01-26 17:06:37.415734	122.5	40.6	-63.2	7.1
2026-01-26 17:06:39.659768	121.9	41.1	-63.3	7.6
2026-01-26 17:06:41.904779	121.2	41.6	-61.7	7.5
2026-01-26 17:06:44.148797	120.6	42.1	-62.7	5.2
2026-01-26 17:06:46.393342	119.9	42.6	-62.8	4.6
2026-01-26 17:06:48.637361	119.3	43.2	-63.3	7.9
2026-01-26 17:06:50.880904	118.5	43.7	-63.6	6.6
2026-01-26 17:06:53.125419	117.8	44.2	-63.5	8.9
2026-01-26 17:06:55.369926	117.1	44.7	-63.1	7.5
2026-01-26 17:06:57.614002	116.3	45.3	-63.2	7.8
2026-01-26 17:06:59.857519	115.5	45.8	-63.4	8.5
2026-01-26 17:07:02.101567	114.6	46.3	-63.4	7.9
2026-01-26 17:07:04.346074	113.8	46.9	-63.3	8.5
2026-01-26 17:07:06.592650	112.9	47.4	-62.8	8.4
2026-01-26 17:07:08.838157	112.0	47.9	-62.3	6.3
2026-01-26 17:07:11.082672	111.0	48.4	-62.3	7.1
2026-01-26 17:07:13.326715	110.0	49.0	-63.1	6.4
2026-01-26 17:07:15.573736	109.0	49.5	-63.3	7.4
2026-01-26 17:07:17.818283	107.9	50.0	-62.2	5.7
2026-01-26 17:07:20.062789	106.8	50.5	-63.1	5.9
2026-01-26 17:07:22.306818	105.7	51.0	-63.4	6.1
2026-01-26 17:07:24.551351	104.5	51.5	-60.8	5.5
2026-01-26 17:07:26.795407	103.3	52.0	-63.4	7.2
2026-01-26 17:07:29.039913	102.1	52.5	-61.8	4.3
2026-01-26 17:07:31.284430	100.8	52.9	-63.3	6.1
2026-01-26 17:07:33.532481	99.4	53.4	-63.9	5.9
2026-01-26 17:07:35.776501	98.1	53.9	-62.6	0.0
2026-01-26 17:07:38.020513	96.6	54.3	-61.3	0.4
2026-01-26 17:07:40.263556	95.2	54.7	-63.5	4.9
2026-01-26 17:07:42.507079	93.7	55.1	-61.3	0.0
2026-01-26 17:07:44.751121	92.1	55.5	-63.0	3.4
2026-01-26 17:07:46.995628	90.5	55.9	-63.6	5.7
2026-01-26 17:07:49.243672	88.9	56.2	-64.1	7.3
2026-01-26 17:07:51.488179	87.2	56.5	-64.1	5.3
2026-01-26 17:07:53.731743	85.5	56.8	-64.1	4.6
2026-01-26 17:07:55.975792	83.8	57.1	-63.6	5.8
2026-01-26 17:07:58.219803	82.0	57.4	-62.9	0.6
2026-01-26 17:08:00.463823	80.2	57.6	-63.5	4.7
2026-01-26 17:08:02.707864	78.4	57.8	-62.9	3.8
2026-01-26 17:08:04.951916	76.5	58.0	-63.4	3.7
2026-01-26 17:08:07.195432	74.6	58.1	-63.2	5.8
2026-01-26 17:08:09.439938	72.7	58.2	-63.3	5.5
2026-01-26 17:08:11.683980	70.8	58.3	-62.8	2.6
2026-01-26 17:08:13.928496	68.8	58.4	-62.8	3.9
2026-01-26 17:08:16.172508	66.9	58.4	-62.3	2.3
2026-01-26 17:08:18.416542	65.0	58.4	-62.0	3.1
2026-01-26 17:08:20.669585	63.0	58.4	-62.9	3.0
2026-01-26 17:08:22.937633	61.1	58.3	-63.0	2.2
2026-01-26 17:08:25.182147	59.1	58.2	-62.4	0.0
2026-01-26 17:08:27.427181	57.2	58.1	-63.0	0.0
2026-01-26 17:08:29.671688	55.4	57.9	-61.0	0.0
2026-01-26 17:08:31.914707	53.5	57.7	-63.0	1.8
2026-01-26 17:08:34.156296	51.7	57.5	-62.0	0.0
2026-01-26 17:08:36.399331	49.9	57.3	-62.8	0.0
2026-01-26 17:08:38.642846	48.1	57.0	-62.5	0.0
2026-01-26 17:08:40.886423	46.4	56.7	-62.4	0.0
2026-01-26 17:08:43.130434	44.7	56.4	-61.1	0.0
2026-01-26 17:08:45.373979	43.0	56.1	-61.4	0.0
2026-01-26 17:08:47.617030	41.4	55.8	-61.2	0.0
2026-01-26 17:08:49.860091	39.8	55.4	-62.5	0.0
2026-01-26 17:08:52.103620	38.3	55.0	-61.3	0.0
2026-01-26 17:08:54.346675	36.8	54.6	-61.8	0.6
2026-01-26 17:08:56.591216	35.4	54.2	-62.5	0.0
2026-01-26 17:08:58.833245	34.0	53.7	-61.4	0.3
2026-01-26 17:09:01.075799	32.6	53.3	-61.8	0.0
2026-01-26 17:09:03.318837	31.3	52.8	-62.3	0.0
2026-01-26 17:09:05.565849	30.0	52.3	-62.0	0.0
2026-01-26 17:09:07.810860	28.8	51.9	-62.1	0.0
2026-01-26 17:09:10.054925	27.6	51.4	-61.8	0.0
2026-01-26 17:09:12.299451	26.4	50.9	-61.8	0.0
2026-01-26 17:09:14.542997	25.3	50.4	-61.0	0.0
2026-01-26 17:09:16.787513	24.2	49.9	-61.2	0.0
2026-01-26 17:09:19.033527	23.2	49.4	-59.5	0.0
2026-01-26 17:09:21.283035	22.2	48.8	-60.8	0.0
2026-01-26 17:09:23.527047	21.2	48.3	-60.4	0.0
2026-01-26 17:09:25.771058	20.2	47.8	-61.3	0.8
2026-01-26 17:09:28.014585	19.3	47.3	-60.2	0.0
2026-01-26 17:09:30.258101	18.5	46.7	-61.3	1.0
2026-01-26 17:09:32.501120	17.6	46.2	-61.3	0.1
2026-01-26 17:09:34.744635	16.8	45.7	-61.3	3.9
2026-01-26 17:09:36.989657	16.0	45.2	-61.3	2.6
2026-01-26 17:09:39.231686	15.2	44.6	-60.8	0.5
2026-01-26 17:09:41.473714	14.5	44.1	-61.0	3.0
2026-01-26 17:09:43.716744	13.7	43.6	-60.9	2.2
2026-01-26 17:09:45.962259	13.0	43.1	-61.1	4.3
2026-01-26 17:09:48.205774	12.4	42.5	-59.9	3.1
2026-01-26 17:09:50.450786	11.7	42.0	-60.4	4.8
2026-01-26 17:09:52.694302	11.1	41.5	-60.8	4.9
2026-01-26 17:09:54.937818	10.5	41.0	-60.3	4.0
2026-01-26 17:09:57.183325	9.9	40.5	-60.2	0.0
2026-01-26 17:09:59.427337	9.3	40.0	-58.6	0.1
2026-01-26 17:10:01.675357	8.7	39.5	-62.0	4.8
2026-01-26 17:10:03.917883	8.2	39.0	-61.4	3.6
2026-01-26 17:10:06.162390	7.7	38.5	-61.2	4.6
2026-01-26 17:10:08.406402	7.2	38.0	-61.9	4.4
2026-01-26 17:10:10.653928	6.7	37.6	-60.9	2.2
2026-01-26 17:10:12.896964	6.2	37.1	-60.4	1.5
2026-01-26 17:10:15.140479	5.7	36.6	-60.8	3.0
2026-01-26 17:10:17.383498	5.3	36.1	-61.6	1.7
2026-01-26 17:10:19.627509	4.8	35.7	-62.1	4.6
2026-01-26 17:10:21.872528	4.4	35.2	-62.2	2.7
2026-01-26 17:10:24.114064	4.0	34.8	-61.2	2.8
2026-01-26 17:10:26.357083	3.6	34.3	-61.1	2.2
2026-01-26 17:10:28.599607	3.2	33.9	-60.3	2.4
2026-01-26 17:10:30.844131	2.8	33.4	-59.4	1.3
2026-01-26 17:10:33.088163	2.5	33.0	-61.3	3.8
2026-01-26 17:10:35.333174	2.1	32.6	-61.6	4.7
2026-01-26 17:10:37.576193	1.7	32.2	-61.4	2.5
2026-01-26 17:10:39.820700	1.4	31.7	-61.0	2.0
2026-01-26 17:10:42.064720	1.1	31.3	-62.4	4.6
2026-01-26 17:10:44.308731	0.7	30.9	-61.8	3.4
2026-01-26 17:10:46.552246	0.4	30.5	-61.4	3.5
2026-01-26 17:10:48.795266	0.1	30.1	-61.1	3.2
2026-01-26 17:10:51.039774	359.8	29.7	-60.8	2.2
2026-01-26 17:10:53.284290	359.5	29.3	-61.2	4.1
2026-01-26 17:10:55.528797	359.2	28.9	-60.6	2.7
2026-01-26 17:10:57.777809	359.0	28.6	-59.8	0.9
2026-01-26 17:11:00.021822	358.7	28.2	-60.0	1.4
2026-01-26 17:11:02.265833	358.4	27.8	-61.0	4.5
2026-01-26 17:11:04.509348	358.2	27.4	-62.8	4.2
2026-01-26 17:11:06.753359	357.9	27.1	-60.8	3.2
2026-01-26 17:11:08.996874	357.7	26.7	-61.0	2.2
2026-01-26 17:11:11.240389	357.4	26.4	-61.1	2.8
2026-01-26 17:11:13.483913	357.2	26.0	-61.4	3.9
2026-01-26 17:11:15.727925	357.0	25.7	-60.5	3.1
2026-01-26 17:11:17.972944	356.7	25.3	-61.6	4.6
2026-01-26 17:11:20.217470	356.5	25.0	-61.5	3.4
2026-01-26 17:11:22.460984	356.3	24.6	-62.5	3.4
2026-01-26 17:11:24.702994	356.1	24.3	-62.4	0.0
2026-01-26 17:11:26.946005	355.9	24.0	-62.7	3.0
2026-01-26 17:11:29.188034	355.7	23.7	-62.8	3.7
2026-01-26 17:11:31.432044	355.5	23.3	-62.3	3.5
2026-01-26 17:11:33.675064	355.3	23.0	-63.2	3.1
2026-01-26 17:11:35.918084	355.1	22.7	-61.8	1.9
2026-01-26 17:11:38.159598	354.9	22.4	-63.2	3.2
2026-01-26 17:11:40.403609	354.7	22.1	-63.0	2.9
2026-01-26 17:11:42.649135	354.5	21.8	-62.2	0.6
2026-01-26 17:11:44.893642	354.4	21.5	-62.9	3.3
2026-01-26 17:11:47.137158	354.2	21.2	-62.3	3.1
2026-01-26 17:11:49.380168	354.0	20.9	-61.6	1.5
2026-01-26 17:11:51.622178	353.9	20.6	-62.7	2.6
2026-01-26 17:11:53.865694	353.7	20.3	-63.2	4.6
2026-01-26 17:11:56.111706	353.5	20.0	-63.5	3.6
2026-01-26 17:11:58.355221	353.4	19.8	-62.1	0.6
2026-01-26 17:12:00.596744	353.2	19.5	-62.2	0.0
2026-01-26 17:12:02.839764	353.1	19.2	-63.1	2.1
2026-01-26 17:12:05.082775	352.9	18.9	-62.8	2.2
2026-01-26 17:12:07.325785	352.8	18.7	-62.6	1.8
2026-01-26 17:12:09.568805	352.7	18.4	-62.3	3.3
2026-01-26 17:12:11.810825	352.5	18.1	-62.7	3.7
2026-01-26 17:12:14.057846	352.4	17.9	-62.1	1.2
2026-01-26 17:12:16.299352	352.2	17.6	-60.0	0.0
2026-01-26 17:12:18.541370	352.1	17.4	-61.9	0.9
2026-01-26 17:12:20.784886	352.0	17.1	-61.5	0.0
2026-01-26 17:12:23.027914	351.9	16.8	-62.3	0.0
2026-01-26 17:12:25.270420	351.7	16.6	-60.8	0.0
2026-01-26 17:12:27.512935	351.6	16.4	-60.6	0.0
2026-01-26 17:12:29.757452	351.5	16.1	-62.8	1.0
2026-01-26 17:12:32.001465	351.4	15.9	-62.9	1.6
2026-01-26 17:12:34.245476	351.3	15.6	-61.6	3.2
2026-01-26 17:12:36.489497	351.1	15.4	-62.4	3.5
2026-01-26 17:12:38.736519	351.0	15.2	-62.5	1.2
2026-01-26 17:12:40.980530	350.9	14.9	-61.4	0.0
2026-01-26 17:12:43.222046	350.8	14.7	-63.3	3.5
2026-01-26 17:12:45.468074	350.7	14.5	-62.3	0.0
2026-01-26 17:12:47.712084	350.6	14.2	-62.2	0.0
2026-01-26 17:12:49.954600	350.5	14.0	-63.2	0.8
2026-01-26 17:12:52.196618	350.4	13.8	-61.4	0.0
2026-01-26 17:12:54.439143	350.3	13.6	-61.7	0.0
2026-01-26 17:12:56.683649	350.2	13.3	-63.6	0.0
2026-01-26 17:12:58.928660	350.1	13.1	-62.7	0.0
2026-01-26 17:13:01.174682	350.0	12.9	-62.7	0.0
2026-01-26 17:13:03.419189	349.9	12.7	-62.5	0.0
2026-01-26 17:13:05.663201	349.8	12.5	-61.2	0.0
2026-01-26 17:13:07.907726	349.7	12.3	-61.7	0.0
2026-01-26 17:13:10.150746	349.7	12.1	-63.4	0.0
2026-01-26 17:13:12.394768	349.6	11.9	-63.1	0.0
2026-01-26 17:13:14.637787	349.5	11.7	-62.2	0.0
2026-01-26 17:13:16.879798	349.4	11.5	-62.0	0.0
2026-01-26 17:13:19.125305	349.3	11.3	-61.3	0.0
2026-01-26 17:13:21.368324	349.2	11.1	-63.5	0.0
2026-01-26 17:13:23.611345	349.1	10.9	-61.8	0.2
2026-01-26 17:13:25.860358	349.1	10.7	-63.1	0.0
2026-01-26 17:13:28.104369	349.0	10.5	-62.8	0.6
2026-01-26 17:13:30.348380	348.9	10.3	-63.8	0.8
2026-01-26 17:13:32.590894	348.8	10.1	-62.3	0.0
2026-01-26 17:13:34.831904	348.8	9.9	-63.4	0.7
2026-01-26 17:13:37.074429	348.7	9.7	-61.8	0.0
2026-01-26 17:13:39.316447	348.6	9.5	-62.8	0.0
2026-01-26 17:13:41.560966	348.5	9.3	-63.2	0.0
2026-01-26 17:13:43.802480	348.5	9.1	-62.6	0.0
2026-01-26 17:13:46.045995	348.4	8.9	-63.0	0.0
2026-01-26 17:13:48.286509	348.3	8.8	-62.3	0.0
2026-01-26 17:13:50.528529	348.3	8.6	-62.2	0.0
2026-01-26 17:13:52.772542	348.2	8.4	-62.8	0.0
2026-01-26 17:13:55.016048	348.1	8.2	-62.6	0.0
2026-01-26 17:13:57.256563	348.1	8.0	-64.1	0.0
2026-01-26 17:13:59.499591	348.0	7.9	-63.3	0.0
2026-01-26 17:14:01.742602	347.9	7.7	-63.9	0.0
2026-01-26 17:14:03.990614	347.9	7.5	-63.4	0.0
2026-01-26 17:14:06.231129	347.8	7.3	-63.6	0.0
2026-01-26 17:14:08.473645	347.7	7.2	-62.9	0.0
2026-01-26 17:14:10.716656	347.7	7.0	-63.0	0.0
2026-01-26 17:14:12.960677	347.6	6.8	-62.6	0.0
2026-01-26 17:14:15.203687	347.6	6.7	-61.5	0.0
2026-01-26 17:14:17.448698	347.5	6.5	-62.1	0.0
2026-01-26 17:14:19.691223	347.5	6.3	-63.0	0.0
2026-01-26 17:14:21.933739	347.4	6.2	-63.7	0.0
2026-01-26 17:14:24.176246	347.3	6.0	-64.1	0.0
2026-01-26 17:14:26.418761	347.3	5.8	-67.4	0.0
2026-01-26 17:14:28.663268	347.2	5.7	-64.9	0.0
2026-01-26 17:14:30.904287	347.2	5.5	-67.1	2.5
2026-01-26 17:14:33.147802	347.1	5.4	-67.0	1.2
2026-01-26 17:14:35.391831	347.1	5.2	-67.3	0.0
2026-01-26 17:14:37.633841	347.0	5.0	-69.6	0.0
#Closed at: 2026-01-26 17:01:53.361222