passes_logs/2026/01/26/PlanumMoscow/PlanumMoscow__20260126_071159_METOP-B_rec.log

#Pass ID: 20260126_071159_METOP-B
#Satellite: METOP-B
#Configuration: METOP-B
#Start time: 2026-01-26 07:12:04.253981

#LorettStation: 1.0.0 05.05.2024
#Station: PlanumMoscow
#Location: 37.6253844 lon 55.6713361 lat
#TLE: 1 38771U 12049A   25293.92766658  .00000266  00000+0  14193-3 0  9996
#TLE: 2 38771  98.6882 344.7603 0001609 341.5209  18.5909 14.21379342679275

#Time	Az	El	Level	SNR
2026-01-26 07:15:42.758481	18.3	29.4	-61.5	4.9
2026-01-26 07:15:45.002021	18.3	29.8	-61.9	4.8
2026-01-26 07:15:47.243574	18.4	30.3	-61.9	4.3
2026-01-26 07:15:49.487584	18.4	30.7	-61.5	0.0
2026-01-26 07:15:51.730108	18.4	31.2	-61.4	3.2
2026-01-26 07:15:53.972164	18.5	31.6	-61.3	2.7
2026-01-26 07:15:56.216679	18.5	32.1	-62.5	4.8
2026-01-26 07:15:58.460246	18.5	32.5	-61.1	2.0
2026-01-26 07:16:00.702771	18.6	33.0	-61.5	3.7
2026-01-26 07:16:02.945820	18.6	33.5	-60.5	1.0
2026-01-26 07:16:05.189832	18.7	34.0	-61.0	0.6
2026-01-26 07:16:07.434346	18.7	34.5	-60.7	0.8
2026-01-26 07:16:09.681407	18.7	35.0	-61.1	0.7
2026-01-26 07:16:11.925418	18.8	35.5	-61.1	0.0
2026-01-26 07:16:14.169965	18.8	36.0	-60.0	0.0
2026-01-26 07:16:16.414984	18.9	36.5	-59.6	2.0
2026-01-26 07:16:18.662540	18.9	37.1	-60.0	0.0
2026-01-26 07:16:20.905558	19.0	37.6	-61.2	1.0
2026-01-26 07:16:23.149109	19.0	38.2	-60.1	0.0
2026-01-26 07:16:25.395138	19.1	38.7	-61.4	2.6
2026-01-26 07:16:27.638683	19.1	39.3	-62.3	3.5
2026-01-26 07:16:29.882206	19.2	39.9	-61.1	4.0
2026-01-26 07:16:32.125784	19.2	40.5	-61.5	4.0
2026-01-26 07:16:34.372300	19.3	41.1	-59.3	0.0
2026-01-26 07:16:36.615823	19.3	41.7	-61.1	3.4
2026-01-26 07:16:38.859872	19.4	42.3	-60.3	3.6
2026-01-26 07:16:41.101908	19.4	43.0	-60.4	1.0
2026-01-26 07:16:43.348455	19.5	43.6	-60.6	2.4
2026-01-26 07:16:45.592489	19.6	44.3	-60.8	2.7
2026-01-26 07:16:47.835509	19.6	44.9	-60.5	2.1
2026-01-26 07:16:50.079558	19.7	45.6	-60.4	1.0
2026-01-26 07:16:52.323117	19.8	46.3	-60.4	0.0
2026-01-26 07:16:54.566632	19.9	47.0	-61.2	0.0
2026-01-26 07:16:56.809163	19.9	47.7	-60.0	0.0
2026-01-26 07:16:59.052717	20.0	48.5	-60.8	0.0
2026-01-26 07:17:01.296728	20.1	49.2	-60.9	0.0
2026-01-26 07:17:03.541739	20.2	50.0	-61.2	1.7
2026-01-26 07:17:05.788788	20.3	50.7	-61.4	3.7
2026-01-26 07:17:08.032807	20.4	51.5	-61.0	3.2
2026-01-26 07:17:10.276856	20.5	52.3	-61.3	3.1
2026-01-26 07:17:12.519884	20.6	53.1	-61.6	3.1
2026-01-26 07:17:14.764941	20.7	53.9	-61.4	3.2
2026-01-26 07:17:17.008465	20.8	54.8	-62.0	3.7
2026-01-26 07:17:19.251523	21.0	55.6	-61.7	1.7
2026-01-26 07:17:21.494055	21.1	56.5	-62.2	3.0
2026-01-26 07:17:23.738066	21.2	57.3	-62.2	1.9
2026-01-26 07:17:25.982611	21.4	58.2	-62.6	1.8
2026-01-26 07:17:28.226631	21.5	59.1	-62.6	1.0
2026-01-26 07:17:30.470711	21.7	60.0	-62.3	2.8
2026-01-26 07:17:32.714730	21.9	61.0	-62.4	0.9
2026-01-26 07:17:34.959258	22.1	61.9	-63.3	4.5
2026-01-26 07:17:37.202310	22.3	62.9	-63.3	5.5
2026-01-26 07:17:39.445344	22.5	63.8	-63.8	5.5
2026-01-26 07:17:41.691408	22.8	64.8	-64.0	4.5
2026-01-26 07:17:43.934933	23.1	65.8	-64.2	6.2
2026-01-26 07:17:46.178998	23.4	66.8	-64.5	5.2
2026-01-26 07:17:48.426043	23.7	67.8	-65.2	5.0
2026-01-26 07:17:50.670550	24.0	68.8	-65.1	4.0
2026-01-26 07:17:52.915119	24.4	69.9	-65.4	4.8
2026-01-26 07:17:55.157151	24.9	70.9	-65.7	5.1
2026-01-26 07:17:57.400696	25.4	72.0	-65.7	5.8
2026-01-26 07:17:59.645203	26.0	73.0	-65.8	3.7
2026-01-26 07:18:01.889710	26.6	74.1	-65.9	4.1
2026-01-26 07:18:04.132244	27.3	75.2	-66.0	5.1
2026-01-26 07:18:06.376292	28.2	76.3	-66.0	6.3
2026-01-26 07:18:08.619337	29.2	77.4	-66.1	5.6
2026-01-26 07:18:10.863347	30.4	78.5	-65.7	5.5
2026-01-26 07:18:13.111892	31.9	79.6	-65.8	4.8
2026-01-26 07:18:15.355415	33.7	80.7	-66.1	3.3
2026-01-26 07:18:17.598465	36.0	81.8	-66.8	2.8
2026-01-26 07:18:19.841988	39.1	82.8	-66.9	1.8
2026-01-26 07:18:22.086546	43.1	83.9	-67.7	1.9
2026-01-26 07:18:24.330557	48.9	84.9	-67.8	0.0
2026-01-26 07:18:26.574568	57.4	85.8	-67.7	0.0
2026-01-26 07:18:28.817624	70.4	86.6	-68.3	0.0
2026-01-26 07:18:31.058668	89.7	87.2	-67.7	0.2
2026-01-26 07:18:33.302710	114.0	87.3	-67.8	2.2
2026-01-26 07:18:35.546740	136.2	86.9	-67.4	4.5
2026-01-26 07:18:37.790791	151.9	86.2	-67.2	4.2
2026-01-26 07:18:40.034315	162.1	85.3	-67.1	4.6
2026-01-26 07:18:42.278325	168.9	84.3	-67.4	5.4
2026-01-26 07:18:44.523384	173.7	83.3	-67.1	6.1
2026-01-26 07:18:46.767890	177.1	82.2	-67.1	5.9
2026-01-26 07:18:49.010462	179.7	81.1	-67.3	5.4
2026-01-26 07:18:51.254978	181.7	80.1	-68.0	5.0
2026-01-26 07:18:53.497539	183.3	79.0	-67.9	5.3
2026-01-26 07:18:55.741557	184.7	77.9	-67.4	5.6
2026-01-26 07:18:57.986064	185.8	76.8	-67.7	5.3
2026-01-26 07:19:00.233625	186.7	75.7	-67.6	5.0
2026-01-26 07:19:02.477141	187.5	74.6	-67.7	5.0
2026-01-26 07:19:04.719242	188.2	73.5	-67.5	5.5
2026-01-26 07:19:06.961300	188.7	72.4	-67.4	6.7
2026-01-26 07:19:09.207329	189.3	71.4	-67.5	6.4
2026-01-26 07:19:11.449851	189.7	70.3	-67.8	6.0
2026-01-26 07:19:13.694395	190.2	69.3	-67.2	6.1
2026-01-26 07:19:15.937912	190.5	68.2	-66.7	5.3
2026-01-26 07:19:18.182436	190.9	67.2	-66.4	5.7
2026-01-26 07:19:20.424990	191.2	66.2	-66.4	5.2
2026-01-26 07:19:22.669019	191.5	65.2	-66.2	5.5
2026-01-26 07:19:24.911580	191.7	64.2	-66.3	4.5
2026-01-26 07:19:27.155102	192.0	63.2	-66.9	4.4
2026-01-26 07:19:29.398652	192.2	62.3	-66.5	3.8
2026-01-26 07:19:31.642682	192.4	61.3	-66.9	3.5
2026-01-26 07:19:33.885749	192.6	60.4	-66.5	2.4
2026-01-26 07:19:36.129264	192.8	59.5	-66.6	1.6
2026-01-26 07:19:38.372289	192.9	58.6	-66.5	2.0
2026-01-26 07:19:40.616343	193.1	57.7	-66.1	2.0
2026-01-26 07:19:42.859876	193.2	56.8	-65.6	3.1
2026-01-26 07:19:45.103391	193.4	55.9	-65.0	4.8
2026-01-26 07:19:47.347937	193.5	55.1	-65.1	4.7
2026-01-26 07:19:49.594964	193.6	54.2	-64.7	5.9
2026-01-26 07:19:51.838025	193.7	53.4	-64.6	6.6
2026-01-26 07:19:54.081540	193.8	52.6	-64.8	5.8
2026-01-26 07:19:56.325574	194.0	51.8	-64.1	6.4
2026-01-26 07:19:58.573619	194.1	51.0	-63.7	5.3
2026-01-26 07:20:00.817142	194.1	50.2	-63.3	4.6
2026-01-26 07:20:03.060209	194.2	49.5	-63.2	5.5
2026-01-26 07:20:05.302741	194.3	48.7	-63.5	4.6
2026-01-26 07:20:07.548798	194.4	48.0	-64.1	4.7
2026-01-26 07:20:09.792323	194.5	47.3	-63.7	5.8
2026-01-26 07:20:12.035837	194.6	46.5	-63.3	4.3
2026-01-26 07:20:14.277411	194.6	45.8	-63.1	5.2
2026-01-26 07:20:16.520451	194.7	45.2	-62.6	4.7
2026-01-26 07:20:18.762976	194.8	44.5	-62.8	5.8
2026-01-26 07:20:21.006994	194.8	43.8	-62.2	3.9
2026-01-26 07:20:23.252006	194.9	43.2	-62.0	5.7
2026-01-26 07:20:25.496017	195.0	42.5	-62.2	5.6
2026-01-26 07:20:27.740535	195.0	41.9	-61.9	5.5
2026-01-26 07:20:29.985546	195.1	41.3	-61.9	4.2
2026-01-26 07:20:32.230576	195.1	40.7	-61.8	5.1
2026-01-26 07:20:34.473098	195.2	40.1	-62.0	3.1
2026-01-26 07:20:36.716165	195.2	39.5	-62.3	5.9
2026-01-26 07:20:38.958740	195.3	38.9	-62.0	4.8
2026-01-26 07:20:41.202766	195.3	38.3	-62.0	5.2
2026-01-26 07:20:43.446777	195.4	37.7	-61.4	3.3
2026-01-26 07:20:45.690303	195.4	37.2	-61.7	0.0
2026-01-26 07:20:47.933831	195.5	36.7	-62.2	5.7
2026-01-26 07:20:50.176887	195.5	36.1	-62.1	5.1
2026-01-26 07:20:52.420411	195.6	35.6	-61.8	6.9
2026-01-26 07:20:54.661971	195.6	35.1	-61.4	6.3
2026-01-26 07:20:56.905990	195.6	34.6	-61.4	6.1
2026-01-26 07:20:59.150037	195.7	34.1	-62.3	6.4
2026-01-26 07:21:01.393056	195.7	33.6	-62.6	4.4
2026-01-26 07:21:03.639101	195.8	33.1	-61.5	4.0
2026-01-26 07:21:05.882616	195.8	32.6	-61.5	4.5
2026-01-26 07:21:08.126139	195.8	32.1	-61.2	4.0
2026-01-26 07:21:10.370181	195.9	31.7	-61.0	3.3
2026-01-26 07:21:12.614201	195.9	31.2	-61.0	4.0
2026-01-26 07:21:14.857222	195.9	30.8	-61.9	4.9
2026-01-26 07:21:17.100768	196.0	30.3	-61.8	5.6
2026-01-26 07:21:19.344796	196.0	29.9	-61.1	4.6
2026-01-26 07:21:21.586861	196.0	29.5	-61.9	3.7
2026-01-26 07:21:23.829393	196.1	29.0	-62.1	5.1
2026-01-26 07:21:26.071956	196.1	28.6	-62.5	5.2
2026-01-26 07:21:28.315479	196.1	28.2	-62.1	6.3
2026-01-26 07:21:30.559003	196.1	27.8	-60.9	6.6
2026-01-26 07:21:32.802565	196.2	27.4	-62.5	4.9
2026-01-26 07:21:35.045090	196.2	27.0	-61.4	5.6
2026-01-26 07:21:37.288634	196.2	26.6	-62.1	7.2
2026-01-26 07:21:39.531163	196.2	26.3	-60.5	0.0
2026-01-26 07:21:41.774702	196.3	25.9	-62.3	7.3
2026-01-26 07:21:44.021731	196.3	25.5	-61.1	5.4
2026-01-26 07:21:46.266750	196.3	25.2	-62.2	5.5
2026-01-26 07:21:48.510296	196.3	24.8	-61.7	4.9
2026-01-26 07:21:50.754317	196.4	24.4	-62.2	5.8
2026-01-26 07:21:53.000338	196.4	24.1	-63.2	5.3
2026-01-26 07:21:55.242882	196.4	23.7	-62.3	2.8
2026-01-26 07:21:57.485950	196.4	23.4	-62.7	6.0
2026-01-26 07:21:59.733549	196.5	23.1	-62.5	4.6
2026-01-26 07:22:01.977572	196.5	22.7	-61.8	4.0
2026-01-26 07:22:04.220672	196.5	22.4	-61.8	3.4
2026-01-26 07:22:06.465687	196.5	22.1	-62.7	4.6
2026-01-26 07:22:08.710203	196.6	21.8	-61.3	4.2
2026-01-26 07:22:10.954221	196.6	21.4	-62.8	5.6
2026-01-26 07:22:13.198263	196.6	21.1	-62.8	3.8
2026-01-26 07:22:15.443786	196.6	20.8	-62.7	4.7
2026-01-26 07:22:17.686814	196.6	20.5	-62.5	3.9
2026-01-26 07:22:19.928882	196.7	20.2	-63.1	5.0
2026-01-26 07:22:22.171414	196.7	19.9	-63.1	4.6
2026-01-26 07:22:24.414464	196.7	19.6	-63.2	6.4
2026-01-26 07:22:26.658492	196.7	19.3	-62.5	4.5
2026-01-26 07:22:28.902007	196.7	19.0	-61.1	0.0
2026-01-26 07:22:31.145575	196.8	18.8	-61.9	3.1
2026-01-26 07:22:33.391082	196.8	18.5	-62.0	0.8
2026-01-26 07:22:35.634626	196.8	18.2	-62.2	3.9
2026-01-26 07:22:37.878638	196.8	17.9	-61.5	5.0
2026-01-26 07:22:40.123208	196.8	17.7	-60.3	0.0
2026-01-26 07:22:42.366731	196.8	17.4	-59.6	0.0
2026-01-26 07:22:44.609264	196.9	17.1	-61.0	0.0
2026-01-26 07:22:46.851816	196.9	16.9	-60.5	0.0
2026-01-26 07:22:49.098845	196.9	16.6	-60.4	0.0
2026-01-26 07:22:51.340901	196.9	16.3	-59.4	0.0
2026-01-26 07:22:53.583936	196.9	16.1	-59.6	0.0
2026-01-26 07:22:55.827957	196.9	15.8	-59.9	0.0
2026-01-26 07:22:58.074008	197.0	15.6	-62.9	5.5
2026-01-26 07:23:00.317027	197.0	15.3	-62.4	4.0
2026-01-26 07:23:02.559598	197.0	15.1	-62.5	5.3
2026-01-26 07:23:04.803123	197.0	14.9	-63.0	3.4
2026-01-26 07:23:07.046179	197.0	14.6	-62.3	2.5
2026-01-26 07:23:09.291709	197.0	14.4	-62.1	2.4
2026-01-26 07:23:11.536225	197.1	14.2	-60.9	3.1
2026-01-26 07:23:13.778781	197.1	13.9	-61.7	0.0
2026-01-26 07:23:16.023298	197.1	13.7	-61.3	0.0
2026-01-26 07:23:18.267853	197.1	13.5	-63.4	1.2
2026-01-26 07:23:20.511894	197.1	13.2	-62.2	0.0
2026-01-26 07:23:22.753952	197.1	13.0	-60.7	0.0
2026-01-26 07:23:24.996988	197.2	12.8	-59.9	0.0
2026-01-26 07:23:27.240008	197.2	12.6	-60.2	0.0
2026-01-26 07:23:29.482598	197.2	12.4	-61.2	0.0
2026-01-26 07:23:31.727122	197.2	12.1	-61.4	0.0
2026-01-26 07:23:33.971667	197.2	11.9	-59.4	0.0
2026-01-26 07:23:36.215189	197.2	11.7	-61.3	0.0
2026-01-26 07:23:38.458239	197.2	11.5	-59.8	0.0
2026-01-26 07:23:40.702746	197.3	11.3	-61.3	0.0
2026-01-26 07:23:42.945787	197.3	11.1	-61.5	0.0
2026-01-26 07:23:45.188311	197.3	10.9	-62.1	0.0
2026-01-26 07:23:47.434347	197.3	10.7	-62.7	0.0
2026-01-26 07:23:49.677405	197.3	10.5	-62.0	0.0
2026-01-26 07:23:51.921424	197.3	10.3	-61.0	0.0
2026-01-26 07:23:54.165479	197.3	10.1	-60.1	0.0
2026-01-26 07:23:56.409002	197.3	9.9	-59.6	0.0
2026-01-26 07:23:58.651557	197.4	9.7	-61.7	0.0
2026-01-26 07:24:00.895086	197.4	9.5	-61.0	0.0
2026-01-26 07:24:03.139097	197.4	9.3	-61.7	0.0
2026-01-26 07:24:05.381683	197.4	9.1	-61.5	0.0
2026-01-26 07:24:07.626701	197.4	8.9	-61.3	0.0
2026-01-26 07:24:09.872793	197.4	8.7	-61.2	0.0
2026-01-26 07:24:12.116812	197.4	8.6	-58.8	0.0
2026-01-26 07:24:14.361318	197.4	8.4	-61.2	0.0
2026-01-26 07:24:16.605330	197.5	8.2	-59.2	0.0
2026-01-26 07:24:18.848365	197.5	8.0	-61.0	0.0
2026-01-26 07:24:21.092889	197.5	7.8	-61.1	0.0
2026-01-26 07:24:23.335909	197.5	7.6	-59.5	0.0
2026-01-26 07:24:25.578936	197.5	7.5	-58.4	0.0
2026-01-26 07:24:27.822451	197.5	7.3	-60.5	0.0
2026-01-26 07:24:30.065967	197.5	7.1	-60.0	0.0
2026-01-26 07:24:32.310483	197.5	6.9	-58.3	0.0
2026-01-26 07:24:34.558007	197.6	6.8	-57.4	0.0
2026-01-26 07:24:36.802514	197.6	6.6	-60.3	0.0
2026-01-26 07:24:39.046526	197.6	6.4	-59.9	0.0
2026-01-26 07:24:41.289050	197.6	6.2	-61.0	0.0
2026-01-26 07:24:43.538567	197.6	6.1	-60.1	0.0
2026-01-26 07:24:45.782579	197.6	5.9	-63.4	0.0
2026-01-26 07:24:48.026598	197.6	5.7	-68.1	0.0
2026-01-26 07:24:50.272617	197.6	5.6	-69.7	0.0
2026-01-26 07:24:52.518630	197.6	5.4	-70.6	0.0
2026-01-26 07:24:54.762641	197.7	5.3	-70.2	0.0
2026-01-26 07:24:57.005662	197.7	5.1	-70.7	0.0
2026-01-26 07:24:59.249178	197.7	4.9	-70.6	0.0
#Closed at: 2026-01-26 07:11:59.255355