passes_logs/2025/01/12/SPB_Silybum_02/SPB_Silybum_02__20250112_060156_TERRA_rec.log

#Pass ID: 20250112_060156_TERRA
#Satellite: TERRA
#Configuration: TERRA
#Start time: 2025-01-12 06:01:54

#Version: 2.0.20230423
#Station: SPB_Silybum_02
#Location: 30.233357 lon 59.946436 lat
#TLE: 1 25994U 99068A   25011.77277381  .00000769  00000+0  16824-3 0  9997
#TLE: 2 25994  98.0222  74.9057 0003526  79.1717  32.7508 14.60388914333608

#Time	Az	El	Level	Level2	SNR	BER	Gain	Gain2
2025-01-12 06:01:56.96	38.35	4.01	
2025-01-12 06:01:57.80	38.46	4.05	
2025-01-12 06:01:58.62	38.57	4.08	
2025-01-12 06:01:59.44	38.68	4.12	
2025-01-12 06:02:00.26	38.79	4.15	
2025-01-12 06:02:01.08	38.90	4.18	
2025-01-12 06:02:01.90	39.01	4.21	
2025-01-12 06:02:02.72	39.13	4.25	
2025-01-12 06:02:03.54	39.24	4.28	
2025-01-12 06:02:04.36	39.35	4.31	
2025-01-12 06:02:05.18	39.46	4.35	
2025-01-12 06:02:06.00	39.58	4.38	
2025-01-12 06:02:06.84	39.69	4.41	
2025-01-12 06:02:07.66	39.81	4.45	
2025-01-12 06:02:08.48	39.92	4.48	
2025-01-12 06:02:09.30	40.03	4.51	
2025-01-12 06:02:10.12	40.15	4.55	
2025-01-12 06:02:10.94	40.26	4.58	
2025-01-12 06:02:11.77	40.38	4.61	
2025-01-12 06:02:12.59	40.49	4.64	
2025-01-12 06:02:13.41	40.61	4.68	
2025-01-12 06:02:14.23	40.73	4.71	
2025-01-12 06:02:15.05	40.84	4.74	
2025-01-12 06:02:15.88	40.96	4.77	
2025-01-12 06:02:16.69	41.07	4.81	
2025-01-12 06:02:17.52	41.19	4.84	
2025-01-12 06:02:18.34	41.31	4.87	
2025-01-12 06:02:19.16	41.43	4.90	
2025-01-12 06:02:19.99	41.55	4.94	
2025-01-12 06:02:20.81	41.66	4.97	
2025-01-12 06:02:21.63	41.78	5.00	
2025-01-12 06:02:22.45	41.90	5.03	
2025-01-12 06:02:23.27	42.02	5.07	
2025-01-12 06:02:24.09	42.14	5.10	
2025-01-12 06:02:24.92	42.26	5.13	
2025-01-12 06:02:25.74	42.38	5.16	
2025-01-12 06:02:26.57	42.50	5.19	
2025-01-12 06:02:27.40	42.62	5.23	
2025-01-12 06:02:28.22	42.74	5.26	
2025-01-12 06:02:29.04	42.86	5.29	
2025-01-12 06:02:29.86	42.98	5.32	
2025-01-12 06:02:30.69	43.11	5.35	
2025-01-12 06:02:31.51	43.23	5.38	
2025-01-12 06:02:32.33	43.35	5.42	
2025-01-12 06:02:33.16	43.47	5.45	
2025-01-12 06:02:33.98	43.60	5.48	
2025-01-12 06:02:34.81	43.72	5.51	
2025-01-12 06:02:35.63	43.84	5.54	
2025-01-12 06:02:36.46	43.97	5.57	
2025-01-12 06:02:37.29	44.09	5.60	
2025-01-12 06:02:38.11	44.22	5.64	
2025-01-12 06:02:38.93	44.34	5.67	
2025-01-12 06:02:39.75	44.46	5.70	
2025-01-12 06:02:40.57	44.59	5.73	
2025-01-12 06:02:41.39	44.71	5.76	
2025-01-12 06:02:42.22	44.84	5.79	
2025-01-12 06:02:43.04	44.97	5.82	
2025-01-12 06:02:43.86	45.09	5.85	
2025-01-12 06:02:44.69	45.22	5.88	
2025-01-12 06:02:45.51	45.35	5.91	
2025-01-12 06:02:46.33	45.47	5.94	
2025-01-12 06:02:47.15	45.60	5.97	
2025-01-12 06:02:47.97	45.73	6.00	
2025-01-12 06:02:48.80	45.85	6.03	
2025-01-12 06:02:49.62	45.98	6.06	
2025-01-12 06:02:50.45	46.11	6.09	
2025-01-12 06:02:51.27	46.24	6.12	
2025-01-12 06:02:52.09	46.37	6.15	
2025-01-12 06:02:52.93	46.50	6.18	
2025-01-12 06:02:53.75	46.63	6.21	
2025-01-12 06:02:54.57	46.76	6.24	
2025-01-12 06:02:55.39	46.89	6.27	
2025-01-12 06:02:56.21	47.02	6.30	
2025-01-12 06:02:57.03	47.15	6.33	
2025-01-12 06:02:57.85	47.28	6.36	
2025-01-12 06:02:58.67	47.41	6.39	
2025-01-12 06:02:59.49	47.54	6.42	
2025-01-12 06:03:00.31	47.67	6.45	
2025-01-12 06:03:01.14	47.80	6.48	
2025-01-12 06:03:01.96	47.94	6.51	
2025-01-12 06:03:02.79	48.07	6.54	
2025-01-12 06:03:03.61	48.20	6.56	
2025-01-12 06:03:04.43	48.34	6.59	
2025-01-12 06:03:05.25	48.47	6.62	
2025-01-12 06:03:06.07	48.60	6.65	
2025-01-12 06:03:06.89	48.73	6.68	
2025-01-12 06:03:07.71	48.87	6.71	
2025-01-12 06:03:08.54	49.00	6.74	
2025-01-12 06:03:09.36	49.14	6.76	
2025-01-12 06:03:10.18	49.27	6.79	
2025-01-12 06:03:11.00	49.41	6.82	
2025-01-12 06:03:11.82	49.54	6.85	
2025-01-12 06:03:12.65	49.68	6.87	
2025-01-12 06:03:13.47	49.82	6.90	
2025-01-12 06:03:14.29	49.95	6.93	
2025-01-12 06:03:15.12	50.09	6.96	
2025-01-12 06:03:15.95	50.23	6.99	
2025-01-12 06:03:16.77	50.36	7.01	
2025-01-12 06:03:17.59	50.50	7.04	
2025-01-12 06:03:18.42	50.64	7.07	
2025-01-12 06:03:19.24	50.78	7.09	
2025-01-12 06:03:20.06	50.92	7.12	
2025-01-12 06:03:20.88	51.05	7.15	
2025-01-12 06:03:21.71	51.19	7.17	
2025-01-12 06:03:22.52	51.33	7.20	
2025-01-12 06:03:23.35	51.47	7.23	
2025-01-12 06:03:24.16	51.61	7.25	
2025-01-12 06:03:24.98	51.75	7.28	
2025-01-12 06:03:25.80	51.89	7.31	
2025-01-12 06:03:26.63	52.03	7.33	
2025-01-12 06:03:27.45	52.17	7.36	
2025-01-12 06:03:28.27	52.31	7.38	
2025-01-12 06:03:29.09	52.45	7.41	
2025-01-12 06:03:29.91	52.59	7.43	
2025-01-12 06:03:30.72	52.73	7.46	
2025-01-12 06:03:31.54	52.87	7.49	
2025-01-12 06:03:32.37	53.02	7.51	
2025-01-12 06:03:33.19	53.16	7.54	
2025-01-12 06:03:34.03	53.31	7.56	
2025-01-12 06:03:34.84	53.45	7.59	
2025-01-12 06:03:35.66	53.59	7.61	
2025-01-12 06:03:36.48	53.73	7.64	
2025-01-12 06:03:37.31	53.88	7.66	
2025-01-12 06:03:38.13	54.02	7.68	
2025-01-12 06:03:38.96	54.17	7.71	
2025-01-12 06:03:39.80	54.31	7.73	
2025-01-12 06:03:40.62	54.46	7.76	
2025-01-12 06:03:41.44	54.60	7.78	
2025-01-12 06:03:42.26	54.75	7.81	
2025-01-12 06:03:43.08	54.89	7.83	
2025-01-12 06:03:43.90	55.04	7.85	
2025-01-12 06:03:44.72	55.18	7.88	
2025-01-12 06:03:45.54	55.33	7.90	
2025-01-12 06:03:46.36	55.48	7.92	
2025-01-12 06:03:47.18	55.62	7.95	
2025-01-12 06:03:48.01	55.77	7.97	
2025-01-12 06:03:48.83	55.92	7.99	
2025-01-12 06:03:49.65	56.07	8.01	
2025-01-12 06:03:50.47	56.21	8.04	
2025-01-12 06:03:51.29	56.36	8.06	
2025-01-12 06:03:52.12	56.51	8.08	
2025-01-12 06:03:52.94	56.66	8.10	
2025-01-12 06:03:53.77	56.81	8.13	
2025-01-12 06:03:54.60	56.96	8.15	
2025-01-12 06:03:55.42	57.11	8.17	
2025-01-12 06:03:56.25	57.26	8.19	
2025-01-12 06:03:57.07	57.41	8.21	
2025-01-12 06:03:57.89	57.56	8.23	
2025-01-12 06:03:58.71	57.71	8.26	
2025-01-12 06:03:59.53	57.86	8.28	
2025-01-12 06:04:00.35	58.01	8.30	
2025-01-12 06:04:01.18	58.16	8.32	
2025-01-12 06:04:02.00	58.31	8.34	
2025-01-12 06:04:02.82	58.46	8.36	
2025-01-12 06:04:03.64	58.61	8.38	
2025-01-12 06:04:04.46	58.76	8.40	
2025-01-12 06:04:05.28	58.91	8.42	
2025-01-12 06:04:06.10	59.07	8.44	
2025-01-12 06:04:06.92	59.22	8.46	
2025-01-12 06:04:07.74	59.37	8.48	
2025-01-12 06:04:08.58	59.53	8.50	
2025-01-12 06:04:09.41	59.68	8.52	
2025-01-12 06:04:10.23	59.83	8.54	
2025-01-12 06:04:11.06	59.99	8.56	
2025-01-12 06:04:11.88	60.14	8.58	
2025-01-12 06:04:12.71	60.30	8.60	
2025-01-12 06:04:13.53	60.45	8.61	
2025-01-12 06:04:14.37	60.61	8.63	
2025-01-12 06:04:15.18	60.76	8.65	
2025-01-12 06:04:16.01	60.92	8.67	
2025-01-12 06:04:16.83	61.07	8.69	
2025-01-12 06:04:17.65	61.23	8.70	
2025-01-12 06:04:18.47	61.38	8.72	
2025-01-12 06:04:19.29	61.54	8.74	
2025-01-12 06:04:20.11	61.69	8.76	
2025-01-12 06:04:20.93	61.85	8.77	
2025-01-12 06:04:21.75	62.00	8.79	
2025-01-12 06:04:22.57	62.16	8.81	
2025-01-12 06:04:23.40	62.32	8.82	
2025-01-12 06:04:24.22	62.47	8.84	
2025-01-12 06:04:25.03	62.63	8.86	
2025-01-12 06:04:25.85	62.79	8.87	
2025-01-12 06:04:26.69	62.95	8.89	
2025-01-12 06:04:27.51	63.10	8.91	
2025-01-12 06:04:28.33	63.26	8.92	
2025-01-12 06:04:29.15	63.42	8.94	
2025-01-12 06:04:29.97	63.58	8.95	
2025-01-12 06:04:30.79	63.73	8.97	
2025-01-12 06:04:31.62	63.89	8.98	
2025-01-12 06:04:32.44	64.05	9.00	
2025-01-12 06:04:33.26	64.21	9.01	
2025-01-12 06:04:34.08	64.37	9.03	
2025-01-12 06:04:34.90	64.53	9.04	
2025-01-12 06:04:35.72	64.69	9.05	
2025-01-12 06:04:36.54	64.84	9.07	
2025-01-12 06:04:37.36	65.00	9.08	
2025-01-12 06:04:38.18	65.16	9.10	
2025-01-12 06:04:39.00	65.32	9.11	
2025-01-12 06:04:39.82	65.48	9.12	
2025-01-12 06:04:40.64	65.64	9.14	
2025-01-12 06:04:41.47	65.80	9.15	
2025-01-12 06:04:42.29	65.96	9.16	
2025-01-12 06:04:43.11	66.12	9.17	
2025-01-12 06:04:43.93	66.28	9.19	
2025-01-12 06:04:44.75	66.44	9.20	
2025-01-12 06:04:45.58	66.61	9.21	
2025-01-12 06:04:46.40	66.77	9.22	
2025-01-12 06:04:47.22	66.93	9.23	
2025-01-12 06:04:48.04	67.09	9.25	
2025-01-12 06:04:48.87	67.25	9.26	
2025-01-12 06:04:49.69	67.41	9.27	
2025-01-12 06:04:50.51	67.58	9.28	
2025-01-12 06:04:51.35	67.74	9.29	
2025-01-12 06:04:52.17	67.90	9.30	
2025-01-12 06:04:52.99	68.07	9.31	
2025-01-12 06:04:53.83	68.23	9.32	
2025-01-12 06:04:54.65	68.39	9.33	
2025-01-12 06:04:55.47	68.56	9.34	
2025-01-12 06:04:56.30	68.72	9.35	
2025-01-12 06:04:57.12	68.88	9.36	
2025-01-12 06:04:57.95	69.05	9.37	
2025-01-12 06:04:58.77	69.21	9.38	
2025-01-12 06:04:59.60	69.37	9.39	
2025-01-12 06:05:00.41	69.54	9.40	
2025-01-12 06:05:01.23	69.70	9.40	
2025-01-12 06:05:02.05	69.86	9.41	
2025-01-12 06:05:02.87	70.02	9.42	
2025-01-12 06:05:03.69	70.19	9.43	
2025-01-12 06:05:04.51	70.35	9.44	
2025-01-12 06:05:05.33	70.51	9.44	
2025-01-12 06:05:06.15	70.68	9.45	
2025-01-12 06:05:06.97	70.84	9.46	
2025-01-12 06:05:07.80	71.01	9.47	
2025-01-12 06:05:08.63	71.17	9.47	
2025-01-12 06:05:09.46	71.34	9.48	
2025-01-12 06:05:10.28	71.50	9.49	
2025-01-12 06:05:11.10	71.67	9.49	
2025-01-12 06:05:11.92	71.83	9.50	
2025-01-12 06:05:12.74	72.00	9.50	
2025-01-12 06:05:13.57	72.16	9.51	
2025-01-12 06:05:14.39	72.33	9.51	
2025-01-12 06:05:15.21	72.49	9.52	
2025-01-12 06:05:16.03	72.65	9.52	
2025-01-12 06:05:16.85	72.82	9.53	
2025-01-12 06:05:17.67	72.98	9.53	
2025-01-12 06:05:18.50	73.15	9.54	
2025-01-12 06:05:19.33	73.32	9.54	
2025-01-12 06:05:20.15	73.48	9.55	
2025-01-12 06:05:20.97	73.65	9.55	
2025-01-12 06:05:21.80	73.81	9.55	
2025-01-12 06:05:22.62	73.98	9.56	
2025-01-12 06:05:23.44	74.14	9.56	
2025-01-12 06:05:24.26	74.31	9.56	
2025-01-12 06:05:25.09	74.48	9.57	
2025-01-12 06:05:25.93	74.64	9.57	
2025-01-12 06:05:26.75	74.81	9.57	
2025-01-12 06:05:27.57	74.97	9.57	
2025-01-12 06:05:28.39	75.14	9.58	
2025-01-12 06:05:29.21	75.30	9.58	
2025-01-12 06:05:30.03	75.47	9.58	
2025-01-12 06:05:30.85	75.64	9.58	
2025-01-12 06:05:31.68	75.80	9.58	
2025-01-12 06:05:32.51	75.97	9.58	
2025-01-12 06:05:33.32	76.13	9.58	
2025-01-12 06:05:34.14	76.30	9.59	
2025-01-12 06:05:34.96	76.46	9.59	
2025-01-12 06:05:35.79	76.63	9.59	
2025-01-12 06:05:36.62	76.80	9.59	
2025-01-12 06:05:37.44	76.96	9.59	
2025-01-12 06:05:38.26	77.13	9.59	
2025-01-12 06:05:39.08	77.29	9.59	
2025-01-12 06:05:39.91	77.46	9.58	
2025-01-12 06:05:40.73	77.63	9.58	
2025-01-12 06:05:41.55	77.79	9.58	
2025-01-12 06:05:42.37	77.96	9.58	
2025-01-12 06:05:43.19	78.12	9.58	
2025-01-12 06:05:44.01	78.29	9.58	
2025-01-12 06:05:44.84	78.46	9.58	
2025-01-12 06:05:45.66	78.62	9.57	
2025-01-12 06:05:46.48	78.79	9.57	
2025-01-12 06:05:47.31	78.95	9.57	
2025-01-12 06:05:48.13	79.12	9.57	
2025-01-12 06:05:48.95	79.28	9.56	
2025-01-12 06:05:49.77	79.45	9.56	
2025-01-12 06:05:50.59	79.61	9.56	
2025-01-12 06:05:51.41	79.78	9.55	
2025-01-12 06:05:52.25	79.95	9.55	
2025-01-12 06:05:53.07	80.11	9.55	
2025-01-12 06:05:53.89	80.28	9.54	
2025-01-12 06:05:54.71	80.44	9.54	
2025-01-12 06:05:55.53	80.61	9.53	
2025-01-12 06:05:56.35	80.77	9.53	
2025-01-12 06:05:57.17	80.94	9.52	
2025-01-12 06:05:57.99	81.10	9.52	
2025-01-12 06:05:58.81	81.26	9.51	
2025-01-12 06:05:59.63	81.43	9.51	
2025-01-12 06:06:00.47	81.60	9.50	
2025-01-12 06:06:01.29	81.76	9.50	
2025-01-12 06:06:02.11	81.93	9.49	
2025-01-12 06:06:02.93	82.09	9.48	
2025-01-12 06:06:03.75	82.25	9.48	
2025-01-12 06:06:04.57	82.42	9.47	
2025-01-12 06:06:05.39	82.58	9.46	
2025-01-12 06:06:06.22	82.75	9.46	
2025-01-12 06:06:07.04	82.91	9.45	
2025-01-12 06:06:07.86	83.08	9.44	
2025-01-12 06:06:08.68	83.24	9.43	
2025-01-12 06:06:09.50	83.40	9.43	
2025-01-12 06:06:10.32	83.57	9.42	
2025-01-12 06:06:11.15	83.73	9.41	
2025-01-12 06:06:11.96	83.89	9.40	
2025-01-12 06:06:12.79	84.06	9.39	
2025-01-12 06:06:13.61	84.22	9.39	
2025-01-12 06:06:14.43	84.38	9.38	
2025-01-12 06:06:15.26	84.55	9.37	
2025-01-12 06:06:16.08	84.71	9.36	
2025-01-12 06:06:16.90	84.88	9.35	
2025-01-12 06:06:17.74	85.04	9.34	
2025-01-12 06:06:18.56	85.20	9.33	
2025-01-12 06:06:19.38	85.37	9.32	
2025-01-12 06:06:20.20	85.53	9.31	
2025-01-12 06:06:21.02	85.69	9.30	
2025-01-12 06:06:21.85	85.86	9.29	
2025-01-12 06:06:22.67	86.02	9.28	
2025-01-12 06:06:23.48	86.18	9.27	
2025-01-12 06:06:24.31	86.34	9.25	
2025-01-12 06:06:25.13	86.50	9.24	
2025-01-12 06:06:25.95	86.66	9.23	
2025-01-12 06:06:26.77	86.82	9.22	
2025-01-12 06:06:27.61	86.99	9.21	
2025-01-12 06:06:28.43	87.15	9.20	
2025-01-12 06:06:29.25	87.31	9.18	
2025-01-12 06:06:30.07	87.47	9.17	
2025-01-12 06:06:30.90	87.63	9.16	
2025-01-12 06:06:31.71	87.79	9.15	
2025-01-12 06:06:32.54	87.95	9.13	
2025-01-12 06:06:33.36	88.12	9.12	
2025-01-12 06:06:34.18	88.28	9.11	
2025-01-12 06:06:35.00	88.43	9.09	
2025-01-12 06:06:35.82	88.59	9.08	
2025-01-12 06:06:36.66	88.76	9.06	
2025-01-12 06:06:37.48	88.92	9.05	
2025-01-12 06:06:38.31	89.08	9.04	
2025-01-12 06:06:39.14	89.24	9.02	
2025-01-12 06:06:39.96	89.40	9.01	
2025-01-12 06:06:40.78	89.56	8.99	
2025-01-12 06:06:41.60	89.72	8.98	
2025-01-12 06:06:42.43	89.88	8.96	
2025-01-12 06:06:43.25	90.03	8.95	
2025-01-12 06:06:44.07	90.19	8.93	
2025-01-12 06:06:44.89	90.35	8.92	
2025-01-12 06:06:45.72	90.51	8.90	
2025-01-12 06:06:46.54	90.67	8.88	
2025-01-12 06:06:47.36	90.82	8.87	
2025-01-12 06:06:48.18	90.98	8.85	
2025-01-12 06:06:49.00	91.14	8.84	
2025-01-12 06:06:49.82	91.29	8.82	
2025-01-12 06:06:50.64	91.45	8.80	
2025-01-12 06:06:51.46	91.61	8.78	
2025-01-12 06:06:52.28	91.76	8.77	
2025-01-12 06:06:53.09	91.92	8.75	
2025-01-12 06:06:53.92	92.08	8.73	
2025-01-12 06:06:54.74	92.23	8.72	
2025-01-12 06:06:55.56	92.39	8.70	
2025-01-12 06:06:56.37	92.54	8.68	
2025-01-12 06:06:57.20	92.70	8.66	
2025-01-12 06:06:58.02	92.85	8.64	
2025-01-12 06:06:58.84	93.01	8.63	
2025-01-12 06:06:59.66	93.16	8.61	
2025-01-12 06:07:00.48	93.31	8.59	
2025-01-12 06:07:01.30	93.47	8.57	
2025-01-12 06:07:02.12	93.62	8.55	
2025-01-12 06:07:02.94	93.78	8.53	
2025-01-12 06:07:03.76	93.93	8.51	
2025-01-12 06:07:04.58	94.08	8.49	
2025-01-12 06:07:05.40	94.24	8.47	
2025-01-12 06:07:06.22	94.39	8.45	
2025-01-12 06:07:07.04	94.54	8.43	
2025-01-12 06:07:07.86	94.69	8.41	
2025-01-12 06:07:08.68	94.84	8.39	
2025-01-12 06:07:09.50	95.00	8.37	
2025-01-12 06:07:10.32	95.15	8.35	
2025-01-12 06:07:11.15	95.30	8.33	
2025-01-12 06:07:11.97	95.45	8.31	
2025-01-12 06:07:12.79	95.60	8.29	
2025-01-12 06:07:13.61	95.75	8.27	
2025-01-12 06:07:14.43	95.90	8.25	
2025-01-12 06:07:15.26	96.06	8.23	
2025-01-12 06:07:16.07	96.21	8.21	
2025-01-12 06:07:16.89	96.36	8.18	
2025-01-12 06:07:17.72	96.51	8.16	
2025-01-12 06:07:18.54	96.66	8.14	
2025-01-12 06:07:19.36	96.80	8.12	
2025-01-12 06:07:20.17	96.95	8.10	
2025-01-12 06:07:20.99	97.10	8.07	
2025-01-12 06:07:21.81	97.25	8.05	
2025-01-12 06:07:22.64	97.40	8.03	
2025-01-12 06:07:23.46	97.55	8.01	
2025-01-12 06:07:24.28	97.69	7.98	
2025-01-12 06:07:25.10	97.84	7.96	
2025-01-12 06:07:25.93	97.99	7.94	
2025-01-12 06:07:26.75	98.14	7.91	
2025-01-12 06:07:27.57	98.28	7.89	
2025-01-12 06:07:28.40	98.43	7.87	
2025-01-12 06:07:29.22	98.58	7.84	
2025-01-12 06:07:30.05	98.73	7.82	
2025-01-12 06:07:30.86	98.87	7.80	
2025-01-12 06:07:31.70	99.02	7.77	
2025-01-12 06:07:32.52	99.16	7.75	
2025-01-12 06:07:33.34	99.31	7.72	
2025-01-12 06:07:34.16	99.45	7.70	
2025-01-12 06:07:34.98	99.60	7.67	
2025-01-12 06:07:35.80	99.74	7.65	
2025-01-12 06:07:36.63	99.89	7.62	
2025-01-12 06:07:37.45	100.03	7.60	
2025-01-12 06:07:38.28	100.18	7.57	
2025-01-12 06:07:39.11	100.32	7.55	
2025-01-12 06:07:39.94	100.47	7.52	
2025-01-12 06:07:40.76	100.61	7.50	
2025-01-12 06:07:41.58	100.75	7.47	
2025-01-12 06:07:42.40	100.89	7.45	
2025-01-12 06:07:43.22	101.04	7.42	
2025-01-12 06:07:44.04	101.18	7.39	
2025-01-12 06:07:44.86	101.32	7.37	
2025-01-12 06:07:45.68	101.46	7.34	
2025-01-12 06:07:46.50	101.60	7.32	
2025-01-12 06:07:47.32	101.74	7.29	
2025-01-12 06:07:48.14	101.88	7.26	
2025-01-12 06:07:48.96	102.02	7.24	
2025-01-12 06:07:49.78	102.16	7.21	
2025-01-12 06:07:50.60	102.30	7.18	
2025-01-12 06:07:51.42	102.44	7.16	
2025-01-12 06:07:52.24	102.58	7.13	
2025-01-12 06:07:53.07	102.72	7.10	
2025-01-12 06:07:53.89	102.86	7.08	
2025-01-12 06:07:54.71	103.00	7.05	
2025-01-12 06:07:55.53	103.13	7.02	
2025-01-12 06:07:56.35	103.27	7.00	
2025-01-12 06:07:57.17	103.41	6.97	
2025-01-12 06:07:57.99	103.55	6.94	
2025-01-12 06:07:58.81	103.68	6.91	
2025-01-12 06:07:59.64	103.82	6.88	
2025-01-12 06:08:00.46	103.96	6.86	
2025-01-12 06:08:01.29	104.09	6.83	
2025-01-12 06:08:02.11	104.23	6.80	
2025-01-12 06:08:02.93	104.37	6.77	
2025-01-12 06:08:03.75	104.50	6.74	
2025-01-12 06:08:04.57	104.64	6.72	
2025-01-12 06:08:05.41	104.77	6.69	
2025-01-12 06:08:06.24	104.91	6.66	
2025-01-12 06:08:07.07	105.04	6.63	
2025-01-12 06:08:07.88	105.18	6.60	
2025-01-12 06:08:08.70	105.31	6.57	
2025-01-12 06:08:09.53	105.45	6.54	
2025-01-12 06:08:10.35	105.58	6.51	
2025-01-12 06:08:11.18	105.71	6.48	
2025-01-12 06:08:12.01	105.85	6.45	
2025-01-12 06:08:12.83	105.98	6.43	
2025-01-12 06:08:13.65	106.11	6.40	
2025-01-12 06:08:14.47	106.24	6.37	
2025-01-12 06:08:15.29	106.37	6.34	
2025-01-12 06:08:16.11	106.50	6.31	
2025-01-12 06:08:16.94	106.64	6.28	
2025-01-12 06:08:17.75	106.77	6.25	
2025-01-12 06:08:18.57	106.90	6.22	
2025-01-12 06:08:19.40	107.03	6.19	
2025-01-12 06:08:20.22	107.16	6.16	
2025-01-12 06:08:21.04	107.29	6.13	
2025-01-12 06:08:21.86	107.41	6.10	
2025-01-12 06:08:22.69	107.54	6.07	
2025-01-12 06:08:23.51	107.67	6.04	
2025-01-12 06:08:24.33	107.80	6.01	
2025-01-12 06:08:25.15	107.93	5.98	
2025-01-12 06:08:25.97	108.06	5.95	
2025-01-12 06:08:26.79	108.18	5.92	
2025-01-12 06:08:27.61	108.31	5.88	
2025-01-12 06:08:28.43	108.44	5.85	
2025-01-12 06:08:29.25	108.56	5.82	
2025-01-12 06:08:30.07	108.69	5.79	
2025-01-12 06:08:30.90	108.82	5.76	
2025-01-12 06:08:31.72	108.94	5.73	
2025-01-12 06:08:32.54	109.07	5.70	
2025-01-12 06:08:33.36	109.19	5.67	
2025-01-12 06:08:34.19	109.32	5.64	
2025-01-12 06:08:35.01	109.44	5.61	
2025-01-12 06:08:35.83	109.57	5.57	
2025-01-12 06:08:36.65	109.69	5.54	
2025-01-12 06:08:37.47	109.82	5.51	
2025-01-12 06:08:38.30	109.94	5.48	
2025-01-12 06:08:39.11	110.06	5.45	
2025-01-12 06:08:39.93	110.19	5.42	
2025-01-12 06:08:40.75	110.31	5.38	
2025-01-12 06:08:41.57	110.43	5.35	
2025-01-12 06:08:42.39	110.55	5.32	
2025-01-12 06:08:43.21	110.67	5.29	
2025-01-12 06:08:44.03	110.80	5.26	
2025-01-12 06:08:44.85	110.92	5.23	
2025-01-12 06:08:45.67	111.04	5.19	
2025-01-12 06:08:46.49	111.16	5.16	
2025-01-12 06:08:47.31	111.28	5.13	
2025-01-12 06:08:48.13	111.40	5.10	
2025-01-12 06:08:48.96	111.52	5.06	
2025-01-12 06:08:49.79	111.64	5.03	
2025-01-12 06:08:50.61	111.76	5.00	
2025-01-12 06:08:51.43	111.88	4.97	
2025-01-12 06:08:52.25	112.00	4.93	
2025-01-12 06:08:53.07	112.12	4.90	
2025-01-12 06:08:53.89	112.23	4.87	
2025-01-12 06:08:54.72	112.35	4.84	
2025-01-12 06:08:55.55	112.47	4.80	
2025-01-12 06:08:56.38	112.59	4.77	
2025-01-12 06:08:57.20	112.71	4.74	
2025-01-12 06:08:58.02	112.82	4.70	
2025-01-12 06:08:58.84	112.94	4.67	
2025-01-12 06:08:59.66	113.06	4.64	
2025-01-12 06:09:00.47	113.17	4.61	
2025-01-12 06:09:01.29	113.29	4.57	
2025-01-12 06:09:02.12	113.40	4.54	
2025-01-12 06:09:02.94	113.52	4.51	
2025-01-12 06:09:03.76	113.63	4.47	
2025-01-12 06:09:04.59	113.75	4.44	
2025-01-12 06:09:05.41	113.86	4.41	
2025-01-12 06:09:06.24	113.98	4.37	
2025-01-12 06:09:07.06	114.09	4.34	
2025-01-12 06:09:07.88	114.21	4.31	
2025-01-12 06:09:08.70	114.32	4.27	
2025-01-12 06:09:09.51	114.43	4.24	
2025-01-12 06:09:10.33	114.54	4.21	
2025-01-12 06:09:11.15	114.66	4.17	
2025-01-12 06:09:11.97	114.77	4.14	
2025-01-12 06:09:12.80	114.88	4.11	
2025-01-12 06:09:13.63	114.99	4.07	
2025-01-12 06:09:14.45	115.10	4.04	
2025-01-12 06:09:15.27	115.22	4.00	

#Closed at: 2025-01-12 06:09:15