passes_logs/2025/01/12/SPB_Silybum_02/SPB_Silybum_02__20250112_091616_TERRA_rec.log

#Pass ID: 20250112_091616_TERRA
#Satellite: TERRA
#Configuration: TERRA
#Start time: 2025-01-12 09:16:16

#Version: 2.0.20230423
#Station: SPB_Silybum_02
#Location: 30.233357 lon 59.946436 lat
#TLE: 1 25994U 99068A   25011.77277381  .00000769  00000+0  16824-3 0  9997
#TLE: 2 25994  98.0222  74.9057 0003526  79.1717  32.7508 14.60388914333608

#Time	Az	El	Level	Level2	SNR	BER	Gain	Gain2
2025-01-12 09:16:18.40	12.55	4.10	
2025-01-12 09:16:19.64	12.50	4.19	
2025-01-12 09:16:20.87	12.44	4.27	
2025-01-12 09:16:22.10	12.39	4.36	
2025-01-12 09:16:23.33	12.33	4.45	
2025-01-12 09:16:24.56	12.28	4.53	
2025-01-12 09:16:25.79	12.22	4.62	
2025-01-12 09:16:27.04	12.16	4.71	
2025-01-12 09:16:28.27	12.11	4.79	
2025-01-12 09:16:29.52	12.05	4.88	
2025-01-12 09:16:30.76	11.99	4.97	
2025-01-12 09:16:31.98	11.94	5.06	
2025-01-12 09:16:33.23	11.88	5.15	
2025-01-12 09:16:34.47	11.82	5.24	
2025-01-12 09:16:35.70	11.76	5.33	
2025-01-12 09:16:36.93	11.70	5.42	
2025-01-12 09:16:38.17	11.64	5.51	
2025-01-12 09:16:39.40	11.58	5.60	
2025-01-12 09:16:40.63	11.52	5.69	
2025-01-12 09:16:41.86	11.46	5.78	
2025-01-12 09:16:43.09	11.39	5.87	
2025-01-12 09:16:44.32	11.33	5.96	
2025-01-12 09:16:45.55	11.27	6.05	
2025-01-12 09:16:46.79	11.21	6.14	
2025-01-12 09:16:48.02	11.14	6.24	
2025-01-12 09:16:49.25	11.08	6.33	
2025-01-12 09:16:50.49	11.01	6.42	
2025-01-12 09:16:51.72	10.95	6.52	
2025-01-12 09:16:52.96	10.88	6.61	
2025-01-12 09:16:54.19	10.82	6.70	
2025-01-12 09:16:55.42	10.75	6.80	
2025-01-12 09:16:56.65	10.68	6.89	
2025-01-12 09:16:57.88	10.62	6.99	
2025-01-12 09:16:59.11	10.55	7.08	
2025-01-12 09:17:00.34	10.48	7.18	
2025-01-12 09:17:01.58	10.41	7.27	
2025-01-12 09:17:02.83	10.34	7.37	
2025-01-12 09:17:04.06	10.27	7.47	
2025-01-12 09:17:05.30	10.20	7.57	
2025-01-12 09:17:06.54	10.13	7.67	
2025-01-12 09:17:07.77	10.06	7.76	
2025-01-12 09:17:09.00	9.98	7.86	
2025-01-12 09:17:10.23	9.91	7.96	
2025-01-12 09:17:11.47	9.84	8.06	
2025-01-12 09:17:12.70	9.76	8.16	
2025-01-12 09:17:13.94	9.69	8.26	
2025-01-12 09:17:15.17	9.61	8.36	
2025-01-12 09:17:16.40	9.54	8.46	
2025-01-12 09:17:17.63	9.46	8.56	
2025-01-12 09:17:18.86	9.38	8.66	
2025-01-12 09:17:20.09	9.31	8.76	
2025-01-12 09:17:21.32	9.23	8.87	
2025-01-12 09:17:22.55	9.15	8.97	
2025-01-12 09:17:23.79	9.07	9.07	
2025-01-12 09:17:25.02	8.99	9.18	
2025-01-12 09:17:26.24	8.91	9.28	
2025-01-12 09:17:27.48	8.83	9.38	
2025-01-12 09:17:28.72	8.74	9.49	
2025-01-12 09:17:29.95	8.66	9.60	
2025-01-12 09:17:31.18	8.58	9.70	
2025-01-12 09:17:32.42	8.49	9.81	
2025-01-12 09:17:33.65	8.41	9.91	
2025-01-12 09:17:34.88	8.32	10.02	
2025-01-12 09:17:36.11	8.24	10.13	
2025-01-12 09:17:37.34	8.15	10.24	
2025-01-12 09:17:38.60	8.06	10.35	
2025-01-12 09:17:39.83	7.97	10.46	
2025-01-12 09:17:41.06	7.88	10.56	
2025-01-12 09:17:42.29	7.79	10.67	
2025-01-12 09:17:43.53	7.70	10.79	
2025-01-12 09:17:44.77	7.61	10.90	
2025-01-12 09:17:46.00	7.51	11.01	
2025-01-12 09:17:47.23	7.42	11.12	
2025-01-12 09:17:48.46	7.33	11.23	
2025-01-12 09:17:49.69	7.23	11.34	
2025-01-12 09:17:50.94	7.14	11.46	
2025-01-12 09:17:52.17	7.04	11.57	
2025-01-12 09:17:53.40	6.94	11.69	
2025-01-12 09:17:54.63	6.84	11.80	
2025-01-12 09:17:55.86	6.74	11.92	
2025-01-12 09:17:57.09	6.64	12.03	
2025-01-12 09:17:58.32	6.54	12.15	
2025-01-12 09:17:59.55	6.44	12.27	
2025-01-12 09:18:00.77	6.34	12.38	
2025-01-12 09:18:02.00	6.24	12.50	
2025-01-12 09:18:03.23	6.13	12.62	
2025-01-12 09:18:04.46	6.03	12.74	
2025-01-12 09:18:05.70	5.92	12.86	
2025-01-12 09:18:06.95	5.81	12.98	
2025-01-12 09:18:08.20	5.70	13.10	
2025-01-12 09:18:09.43	5.59	13.22	
2025-01-12 09:18:10.66	5.48	13.35	
2025-01-12 09:18:11.90	5.37	13.47	
2025-01-12 09:18:13.14	5.25	13.59	
2025-01-12 09:18:14.37	5.14	13.72	
2025-01-12 09:18:15.60	5.03	13.84	
2025-01-12 09:18:16.85	4.91	13.97	
2025-01-12 09:18:18.09	4.79	14.09	
2025-01-12 09:18:19.32	4.67	14.22	
2025-01-12 09:18:20.56	4.55	14.35	
2025-01-12 09:18:21.79	4.43	14.47	
2025-01-12 09:18:23.02	4.31	14.60	
2025-01-12 09:18:24.25	4.19	14.73	
2025-01-12 09:18:25.48	4.07	14.86	
2025-01-12 09:18:26.71	3.94	14.99	
2025-01-12 09:18:27.94	3.82	15.12	
2025-01-12 09:18:29.17	3.69	15.25	
2025-01-12 09:18:30.41	3.56	15.38	
2025-01-12 09:18:31.64	3.43	15.51	
2025-01-12 09:18:32.87	3.30	15.65	
2025-01-12 09:18:34.10	3.17	15.78	
2025-01-12 09:18:35.34	3.03	15.91	
2025-01-12 09:18:36.57	2.90	16.05	
2025-01-12 09:18:37.79	2.76	16.18	
2025-01-12 09:18:39.02	2.62	16.32	
2025-01-12 09:18:40.24	2.49	16.45	
2025-01-12 09:18:41.48	2.34	16.59	
2025-01-12 09:18:42.71	2.20	16.73	
2025-01-12 09:18:43.95	2.06	16.87	
2025-01-12 09:18:45.17	1.92	17.01	
2025-01-12 09:18:46.41	1.77	17.15	
2025-01-12 09:18:47.64	1.62	17.29	
2025-01-12 09:18:48.87	1.47	17.43	
2025-01-12 09:18:50.10	1.32	17.58	
2025-01-12 09:18:51.33	1.17	17.72	
2025-01-12 09:18:52.56	1.01	17.86	
2025-01-12 09:18:53.79	0.86	18.01	
2025-01-12 09:18:55.02	0.70	18.15	
2025-01-12 09:18:56.25	0.54	18.30	
2025-01-12 09:18:57.48	0.38	18.44	
2025-01-12 09:18:58.73	0.22	18.59	
2025-01-12 09:18:59.96	0.05	18.74	
2025-01-12 09:19:01.19	359.89	18.89	
2025-01-12 09:19:02.42	359.72	19.04	
2025-01-12 09:19:03.66	359.55	19.19	
2025-01-12 09:19:04.90	359.38	19.34	
2025-01-12 09:19:06.14	359.20	19.50	
2025-01-12 09:19:07.37	359.03	19.65	
2025-01-12 09:19:08.60	358.85	19.80	
2025-01-12 09:19:09.83	358.68	19.96	
2025-01-12 09:19:11.06	358.49	20.11	
2025-01-12 09:19:12.29	358.31	20.27	
2025-01-12 09:19:13.53	358.13	20.42	
2025-01-12 09:19:14.76	357.94	20.58	
2025-01-12 09:19:15.99	357.75	20.74	
2025-01-12 09:19:17.22	357.56	20.90	
2025-01-12 09:19:18.45	357.37	21.06	
2025-01-12 09:19:19.68	357.17	21.22	
2025-01-12 09:19:20.90	356.98	21.38	
2025-01-12 09:19:22.15	356.78	21.54	
2025-01-12 09:19:23.38	356.57	21.70	
2025-01-12 09:19:24.61	356.37	21.87	
2025-01-12 09:19:25.84	356.16	22.03	
2025-01-12 09:19:27.09	355.95	22.20	
2025-01-12 09:19:28.31	355.74	22.36	
2025-01-12 09:19:29.54	355.53	22.53	
2025-01-12 09:19:30.79	355.31	22.70	
2025-01-12 09:19:32.02	355.09	22.87	
2025-01-12 09:19:33.25	354.87	23.03	
2025-01-12 09:19:34.48	354.65	23.20	
2025-01-12 09:19:35.71	354.42	23.37	
2025-01-12 09:19:36.96	354.19	23.55	
2025-01-12 09:19:38.19	353.96	23.72	
2025-01-12 09:19:39.42	353.73	23.89	
2025-01-12 09:19:40.65	353.49	24.06	
2025-01-12 09:19:41.88	353.25	24.24	
2025-01-12 09:19:43.11	353.01	24.41	
2025-01-12 09:19:44.34	352.76	24.59	
2025-01-12 09:19:45.57	352.51	24.76	
2025-01-12 09:19:46.81	352.26	24.94	
2025-01-12 09:19:48.04	352.01	25.12	
2025-01-12 09:19:49.27	351.75	25.30	
2025-01-12 09:19:50.50	351.49	25.48	
2025-01-12 09:19:51.75	351.22	25.66	
2025-01-12 09:19:52.98	350.95	25.84	
2025-01-12 09:19:54.21	350.68	26.02	
2025-01-12 09:19:55.45	350.41	26.20	
2025-01-12 09:19:56.67	350.14	26.38	
2025-01-12 09:19:57.90	349.86	26.56	
2025-01-12 09:19:59.14	349.57	26.75	
2025-01-12 09:20:00.36	349.29	26.93	
2025-01-12 09:20:01.59	349.00	27.11	
2025-01-12 09:20:02.82	348.70	27.30	
2025-01-12 09:20:04.05	348.40	27.48	
2025-01-12 09:20:05.28	348.10	27.67	
2025-01-12 09:20:06.52	347.80	27.86	
2025-01-12 09:20:07.75	347.49	28.05	
2025-01-12 09:20:08.98	347.18	28.23	
2025-01-12 09:20:10.21	346.86	28.42	
2025-01-12 09:20:11.44	346.54	28.61	
2025-01-12 09:20:12.67	346.22	28.80	
2025-01-12 09:20:13.90	345.89	28.98	
2025-01-12 09:20:15.13	345.56	29.17	
2025-01-12 09:20:16.36	345.22	29.36	
2025-01-12 09:20:17.59	344.88	29.55	
2025-01-12 09:20:18.82	344.54	29.74	
2025-01-12 09:20:20.05	344.19	29.93	
2025-01-12 09:20:21.28	343.83	30.12	
2025-01-12 09:20:22.52	343.47	30.32	
2025-01-12 09:20:23.76	343.11	30.51	
2025-01-12 09:20:24.99	342.74	30.70	
2025-01-12 09:20:26.22	342.37	30.89	
2025-01-12 09:20:27.46	341.99	31.08	
2025-01-12 09:20:28.69	341.61	31.27	
2025-01-12 09:20:29.91	341.23	31.46	
2025-01-12 09:20:31.14	340.84	31.65	
2025-01-12 09:20:32.39	340.44	31.84	
2025-01-12 09:20:33.62	340.04	32.03	
2025-01-12 09:20:34.85	339.64	32.22	
2025-01-12 09:20:36.08	339.23	32.41	
2025-01-12 09:20:37.31	338.81	32.60	
2025-01-12 09:20:38.55	338.39	32.79	
2025-01-12 09:20:39.77	337.97	32.98	
2025-01-12 09:20:41.01	337.54	33.17	
2025-01-12 09:20:42.24	337.10	33.35	
2025-01-12 09:20:43.46	336.67	33.54	
2025-01-12 09:20:44.71	336.22	33.73	
2025-01-12 09:20:45.94	335.76	33.91	
2025-01-12 09:20:47.17	335.31	34.10	
2025-01-12 09:20:48.39	334.85	34.28	
2025-01-12 09:20:49.63	334.38	34.46	
2025-01-12 09:20:50.86	333.91	34.64	
2025-01-12 09:20:52.09	333.43	34.82	
2025-01-12 09:20:53.32	332.95	35.00	
2025-01-12 09:20:54.55	332.46	35.18	
2025-01-12 09:20:55.77	331.97	35.36	
2025-01-12 09:20:57.01	331.47	35.53	
2025-01-12 09:20:58.24	330.97	35.71	
2025-01-12 09:20:59.49	330.45	35.88	
2025-01-12 09:21:00.73	329.93	36.05	
2025-01-12 09:21:01.96	329.40	36.22	
2025-01-12 09:21:03.19	328.88	36.39	
2025-01-12 09:21:04.42	328.35	36.56	
2025-01-12 09:21:05.67	327.80	36.72	
2025-01-12 09:21:06.90	327.25	36.88	
2025-01-12 09:21:08.13	326.70	37.04	
2025-01-12 09:21:09.36	326.15	37.20	
2025-01-12 09:21:10.61	325.58	37.36	
2025-01-12 09:21:11.84	325.01	37.51	
2025-01-12 09:21:13.07	324.44	37.66	
2025-01-12 09:21:14.30	323.87	37.81	
2025-01-12 09:21:15.55	323.27	37.96	
2025-01-12 09:21:16.78	322.69	38.10	
2025-01-12 09:21:18.01	322.09	38.24	
2025-01-12 09:21:19.24	321.50	38.37	
2025-01-12 09:21:20.47	320.89	38.51	
2025-01-12 09:21:21.70	320.28	38.64	
2025-01-12 09:21:22.95	319.66	38.77	
2025-01-12 09:21:24.18	319.04	38.89	
2025-01-12 09:21:25.42	318.41	39.01	
2025-01-12 09:21:26.65	317.79	39.13	
2025-01-12 09:21:27.88	317.15	39.24	
2025-01-12 09:21:29.12	316.51	39.36	
2025-01-12 09:21:30.34	315.88	39.46	
2025-01-12 09:21:31.58	315.23	39.57	
2025-01-12 09:21:32.82	314.57	39.67	
2025-01-12 09:21:34.06	313.91	39.76	
2025-01-12 09:21:35.28	313.26	39.85	
2025-01-12 09:21:36.51	312.60	39.94	
2025-01-12 09:21:37.74	311.93	40.02	
2025-01-12 09:21:38.98	311.26	40.10	
2025-01-12 09:21:40.22	310.58	40.18	
2025-01-12 09:21:41.45	309.91	40.25	
2025-01-12 09:21:42.68	309.23	40.32	
2025-01-12 09:21:43.91	308.55	40.38	
2025-01-12 09:21:45.14	307.86	40.44	
2025-01-12 09:21:46.37	307.18	40.49	
2025-01-12 09:21:47.60	306.49	40.54	
2025-01-12 09:21:48.84	305.80	40.58	
2025-01-12 09:21:50.09	305.09	40.62	
2025-01-12 09:21:51.32	304.40	40.66	
2025-01-12 09:21:52.55	303.70	40.69	
2025-01-12 09:21:53.78	303.01	40.72	
2025-01-12 09:21:55.01	302.31	40.74	
2025-01-12 09:21:56.24	301.61	40.75	
2025-01-12 09:21:57.48	300.91	40.76	
2025-01-12 09:21:58.73	300.20	40.77	
2025-01-12 09:21:59.96	299.50	40.77	
2025-01-12 09:22:01.19	298.80	40.77	
2025-01-12 09:22:02.41	298.11	40.76	
2025-01-12 09:22:03.65	297.40	40.75	
2025-01-12 09:22:04.88	296.70	40.73	
2025-01-12 09:22:06.10	296.01	40.71	
2025-01-12 09:22:07.33	295.32	40.68	
2025-01-12 09:22:08.57	294.62	40.65	
2025-01-12 09:22:09.80	293.92	40.61	
2025-01-12 09:22:11.03	293.23	40.57	
2025-01-12 09:22:12.25	292.55	40.53	
2025-01-12 09:22:13.49	291.85	40.48	
2025-01-12 09:22:14.72	291.17	40.42	
2025-01-12 09:22:15.95	290.48	40.37	
2025-01-12 09:22:17.18	289.80	40.30	
2025-01-12 09:22:18.41	289.13	40.23	
2025-01-12 09:22:19.64	288.45	40.16	
2025-01-12 09:22:20.88	287.77	40.09	
2025-01-12 09:22:22.11	287.10	40.01	
2025-01-12 09:22:23.34	286.44	39.92	
2025-01-12 09:22:24.56	285.78	39.83	
2025-01-12 09:22:25.81	285.12	39.74	
2025-01-12 09:22:27.04	284.46	39.64	
2025-01-12 09:22:28.27	283.81	39.54	
2025-01-12 09:22:29.51	283.16	39.44	
2025-01-12 09:22:30.74	282.52	39.33	
2025-01-12 09:22:31.98	281.88	39.22	
2025-01-12 09:22:33.21	281.25	39.10	
2025-01-12 09:22:34.44	280.62	38.98	
2025-01-12 09:22:35.67	279.99	38.86	
2025-01-12 09:22:36.90	279.38	38.74	
2025-01-12 09:22:38.13	278.76	38.61	
2025-01-12 09:22:39.37	278.15	38.47	
2025-01-12 09:22:40.63	277.53	38.34	
2025-01-12 09:22:41.86	276.93	38.20	
2025-01-12 09:22:43.09	276.34	38.06	
2025-01-12 09:22:44.32	275.75	37.92	
2025-01-12 09:22:45.55	275.17	37.77	
2025-01-12 09:22:46.78	274.59	37.62	
2025-01-12 09:22:48.01	274.02	37.47	
2025-01-12 09:22:49.24	273.46	37.32	
2025-01-12 09:22:50.48	272.89	37.16	
2025-01-12 09:22:51.71	272.34	37.00	
2025-01-12 09:22:52.95	271.78	36.84	
2025-01-12 09:22:54.18	271.24	36.68	
2025-01-12 09:22:55.41	270.70	36.51	
2025-01-12 09:22:56.64	270.17	36.35	
2025-01-12 09:22:57.87	269.64	36.18	
2025-01-12 09:22:59.10	269.12	36.01	
2025-01-12 09:23:00.34	268.60	35.84	
2025-01-12 09:23:01.57	268.09	35.66	
2025-01-12 09:23:02.80	267.58	35.49	
2025-01-12 09:23:04.03	267.08	35.31	
2025-01-12 09:23:05.26	266.59	35.13	
2025-01-12 09:23:06.50	266.10	34.95	
2025-01-12 09:23:07.74	265.61	34.77	
2025-01-12 09:23:08.97	265.13	34.59	
2025-01-12 09:23:10.20	264.66	34.41	
2025-01-12 09:23:11.43	264.20	34.23	
2025-01-12 09:23:12.67	263.73	34.04	
2025-01-12 09:23:13.90	263.27	33.86	
2025-01-12 09:23:15.14	262.82	33.67	
2025-01-12 09:23:16.37	262.38	33.48	
2025-01-12 09:23:17.60	261.94	33.29	
2025-01-12 09:23:18.83	261.50	33.11	
2025-01-12 09:23:20.07	261.07	32.92	
2025-01-12 09:23:21.31	260.64	32.73	
2025-01-12 09:23:22.54	260.22	32.54	
2025-01-12 09:23:23.77	259.81	32.35	
2025-01-12 09:23:25.00	259.40	32.16	
2025-01-12 09:23:26.23	258.99	31.97	
2025-01-12 09:23:27.47	258.59	31.77	
2025-01-12 09:23:28.70	258.20	31.58	
2025-01-12 09:23:29.94	257.80	31.39	
2025-01-12 09:23:31.17	257.42	31.20	
2025-01-12 09:23:32.40	257.04	31.01	
2025-01-12 09:23:33.65	256.66	30.81	
2025-01-12 09:23:34.89	256.28	30.62	
2025-01-12 09:23:36.14	255.91	30.43	
2025-01-12 09:23:37.37	255.55	30.23	
2025-01-12 09:23:38.60	255.19	30.04	
2025-01-12 09:23:39.83	254.84	29.85	
2025-01-12 09:23:41.06	254.49	29.66	
2025-01-12 09:23:42.30	254.14	29.47	
2025-01-12 09:23:43.54	253.80	29.28	
2025-01-12 09:23:44.78	253.46	29.09	
2025-01-12 09:23:46.01	253.13	28.90	
2025-01-12 09:23:47.24	252.80	28.71	
2025-01-12 09:23:48.48	252.47	28.52	
2025-01-12 09:23:49.71	252.15	28.33	
2025-01-12 09:23:50.94	251.84	28.14	
2025-01-12 09:23:52.18	251.52	27.95	
2025-01-12 09:23:53.41	251.21	27.76	
2025-01-12 09:23:54.64	250.91	27.58	
2025-01-12 09:23:55.87	250.61	27.39	
2025-01-12 09:23:57.10	250.31	27.20	
2025-01-12 09:23:58.34	250.01	27.02	
2025-01-12 09:23:59.58	249.72	26.83	
2025-01-12 09:24:00.81	249.43	26.65	
2025-01-12 09:24:02.04	249.15	26.46	
2025-01-12 09:24:03.28	248.87	26.28	
2025-01-12 09:24:04.51	248.59	26.10	
2025-01-12 09:24:05.74	248.32	25.91	
2025-01-12 09:24:06.97	248.05	25.73	
2025-01-12 09:24:08.20	247.78	25.55	
2025-01-12 09:24:09.43	247.52	25.37	
2025-01-12 09:24:10.68	247.26	25.19	
2025-01-12 09:24:11.93	246.99	25.01	
2025-01-12 09:24:13.16	246.74	24.83	
2025-01-12 09:24:14.39	246.49	24.65	
2025-01-12 09:24:15.62	246.24	24.48	
2025-01-12 09:24:16.85	245.99	24.30	
2025-01-12 09:24:18.08	245.75	24.13	
2025-01-12 09:24:19.33	245.51	23.95	
2025-01-12 09:24:20.56	245.27	23.78	
2025-01-12 09:24:21.79	245.04	23.60	
2025-01-12 09:24:23.02	244.81	23.43	
2025-01-12 09:24:24.25	244.58	23.26	
2025-01-12 09:24:25.48	244.35	23.09	
2025-01-12 09:24:26.71	244.13	22.92	
2025-01-12 09:24:27.94	243.91	22.75	
2025-01-12 09:24:29.18	243.69	22.58	
2025-01-12 09:24:30.41	243.47	22.41	
2025-01-12 09:24:31.63	243.26	22.25	
2025-01-12 09:24:32.87	243.05	22.08	
2025-01-12 09:24:34.10	242.84	21.92	
2025-01-12 09:24:35.35	242.63	21.75	
2025-01-12 09:24:36.58	242.42	21.59	
2025-01-12 09:24:37.81	242.22	21.42	
2025-01-12 09:24:39.04	242.02	21.26	
2025-01-12 09:24:40.28	241.82	21.10	
2025-01-12 09:24:41.51	241.63	20.94	
2025-01-12 09:24:42.74	241.44	20.78	
2025-01-12 09:24:43.97	241.25	20.62	
2025-01-12 09:24:45.20	241.06	20.46	
2025-01-12 09:24:46.44	240.87	20.30	
2025-01-12 09:24:47.67	240.68	20.15	
2025-01-12 09:24:48.90	240.50	19.99	
2025-01-12 09:24:50.13	240.32	19.84	
2025-01-12 09:24:51.36	240.14	19.68	
2025-01-12 09:24:52.61	239.96	19.52	
2025-01-12 09:24:53.84	239.79	19.37	
2025-01-12 09:24:55.07	239.61	19.22	
2025-01-12 09:24:56.30	239.44	19.07	
2025-01-12 09:24:57.53	239.27	18.92	
2025-01-12 09:24:58.78	239.10	18.77	
2025-01-12 09:25:00.01	238.94	18.62	
2025-01-12 09:25:01.24	238.77	18.47	
2025-01-12 09:25:02.48	238.61	18.32	
2025-01-12 09:25:03.72	238.45	18.17	
2025-01-12 09:25:04.96	238.29	18.02	
2025-01-12 09:25:06.19	238.13	17.88	
2025-01-12 09:25:07.42	237.97	17.73	
2025-01-12 09:25:08.66	237.82	17.59	
2025-01-12 09:25:09.89	237.67	17.45	
2025-01-12 09:25:11.12	237.51	17.30	
2025-01-12 09:25:12.35	237.36	17.16	
2025-01-12 09:25:13.60	237.21	17.02	
2025-01-12 09:25:14.83	237.07	16.88	
2025-01-12 09:25:16.06	236.92	16.74	
2025-01-12 09:25:17.29	236.78	16.60	
2025-01-12 09:25:18.52	236.64	16.46	
2025-01-12 09:25:19.75	236.50	16.32	
2025-01-12 09:25:20.99	236.36	16.19	
2025-01-12 09:25:22.22	236.22	16.05	
2025-01-12 09:25:23.47	236.08	15.91	
2025-01-12 09:25:24.70	235.94	15.78	
2025-01-12 09:25:25.93	235.81	15.64	
2025-01-12 09:25:27.16	235.68	15.51	
2025-01-12 09:25:28.39	235.55	15.38	
2025-01-12 09:25:29.62	235.42	15.24	
2025-01-12 09:25:30.85	235.29	15.11	
2025-01-12 09:25:32.08	235.16	14.98	
2025-01-12 09:25:33.31	235.03	14.85	
2025-01-12 09:25:34.54	234.91	14.72	
2025-01-12 09:25:35.77	234.78	14.59	
2025-01-12 09:25:37.00	234.66	14.46	
2025-01-12 09:25:38.25	234.54	14.33	
2025-01-12 09:25:39.48	234.42	14.21	
2025-01-12 09:25:40.71	234.30	14.08	
2025-01-12 09:25:41.94	234.18	13.95	
2025-01-12 09:25:43.18	234.06	13.83	
2025-01-12 09:25:44.41	233.94	13.70	
2025-01-12 09:25:45.65	233.83	13.58	
2025-01-12 09:25:46.88	233.71	13.45	
2025-01-12 09:25:48.11	233.60	13.33	
2025-01-12 09:25:49.34	233.49	13.21	
2025-01-12 09:25:50.57	233.38	13.09	
2025-01-12 09:25:51.82	233.27	12.96	
2025-01-12 09:25:53.05	233.16	12.84	
2025-01-12 09:25:54.28	233.05	12.72	
2025-01-12 09:25:55.52	232.94	12.60	
2025-01-12 09:25:56.75	232.83	12.48	
2025-01-12 09:25:57.98	232.73	12.36	
2025-01-12 09:25:59.21	232.63	12.25	
2025-01-12 09:26:00.44	232.52	12.13	
2025-01-12 09:26:01.67	232.42	12.01	
2025-01-12 09:26:02.91	232.32	11.89	
2025-01-12 09:26:04.14	232.22	11.78	
2025-01-12 09:26:05.37	232.12	11.66	
2025-01-12 09:26:06.60	232.02	11.55	
2025-01-12 09:26:07.83	231.92	11.43	
2025-01-12 09:26:09.06	231.82	11.32	
2025-01-12 09:26:10.31	231.73	11.21	
2025-01-12 09:26:11.54	231.63	11.09	
2025-01-12 09:26:12.77	231.53	10.98	
2025-01-12 09:26:14.00	231.44	10.87	
2025-01-12 09:26:15.23	231.35	10.76	
2025-01-12 09:26:16.46	231.26	10.65	
2025-01-12 09:26:17.69	231.16	10.54	
2025-01-12 09:26:18.92	231.07	10.43	
2025-01-12 09:26:20.15	230.98	10.32	
2025-01-12 09:26:21.41	230.89	10.21	
2025-01-12 09:26:22.64	230.80	10.10	
2025-01-12 09:26:23.87	230.72	9.99	
2025-01-12 09:26:25.10	230.63	9.88	
2025-01-12 09:26:26.33	230.54	9.77	
2025-01-12 09:26:27.57	230.46	9.67	
2025-01-12 09:26:28.81	230.37	9.56	
2025-01-12 09:26:30.04	230.29	9.45	
2025-01-12 09:26:31.29	230.20	9.35	
2025-01-12 09:26:32.52	230.12	9.24	
2025-01-12 09:26:33.76	230.04	9.14	
2025-01-12 09:26:34.99	229.95	9.03	
2025-01-12 09:26:36.24	229.87	8.93	
2025-01-12 09:26:37.49	229.79	8.82	
2025-01-12 09:26:38.73	229.71	8.72	
2025-01-12 09:26:39.96	229.63	8.62	
2025-01-12 09:26:41.20	229.55	8.51	
2025-01-12 09:26:42.44	229.47	8.41	
2025-01-12 09:26:43.67	229.40	8.31	
2025-01-12 09:26:44.92	229.32	8.21	
2025-01-12 09:26:46.15	229.24	8.11	
2025-01-12 09:26:47.38	229.17	8.01	
2025-01-12 09:26:48.63	229.09	7.91	
2025-01-12 09:26:49.88	229.02	7.81	
2025-01-12 09:26:51.11	228.94	7.71	
2025-01-12 09:26:52.33	228.87	7.61	
2025-01-12 09:26:53.56	228.80	7.51	
2025-01-12 09:26:54.79	228.72	7.42	
2025-01-12 09:26:56.02	228.65	7.32	
2025-01-12 09:26:57.25	228.58	7.22	
2025-01-12 09:26:58.49	228.51	7.13	
2025-01-12 09:26:59.72	228.44	7.03	
2025-01-12 09:27:00.96	228.37	6.93	
2025-01-12 09:27:02.20	228.30	6.84	
2025-01-12 09:27:03.43	228.23	6.74	
2025-01-12 09:27:04.67	228.17	6.65	
2025-01-12 09:27:05.90	228.10	6.55	
2025-01-12 09:27:07.14	228.03	6.46	
2025-01-12 09:27:08.36	227.97	6.36	
2025-01-12 09:27:09.59	227.90	6.27	
2025-01-12 09:27:10.84	227.83	6.18	
2025-01-12 09:27:12.07	227.77	6.08	
2025-01-12 09:27:13.30	227.70	5.99	
2025-01-12 09:27:14.53	227.64	5.90	
2025-01-12 09:27:15.77	227.58	5.81	
2025-01-12 09:27:16.99	227.51	5.72	
2025-01-12 09:27:18.22	227.45	5.63	
2025-01-12 09:27:19.46	227.39	5.54	
2025-01-12 09:27:20.69	227.33	5.45	
2025-01-12 09:27:21.92	227.27	5.36	
2025-01-12 09:27:23.15	227.21	5.27	
2025-01-12 09:27:24.39	227.14	5.18	
2025-01-12 09:27:25.62	227.08	5.09	
2025-01-12 09:27:26.89	227.02	4.99	
2025-01-12 09:27:28.13	226.96	4.91	
2025-01-12 09:27:29.36	226.90	4.82	
2025-01-12 09:27:30.59	226.85	4.73	
2025-01-12 09:27:31.83	226.79	4.64	
2025-01-12 09:27:33.06	226.73	4.55	
2025-01-12 09:27:34.30	226.67	4.47	
2025-01-12 09:27:35.54	226.62	4.38	
2025-01-12 09:27:36.77	226.56	4.29	
2025-01-12 09:27:38.00	226.50	4.21	
2025-01-12 09:27:39.24	226.45	4.12	
2025-01-12 09:27:40.47	226.39	4.03	

#Closed at: 2025-01-12 09:27:41