passes_logs/2025/01/12/SPB_Silybum_02/SPB_Silybum_02__20250112_092212_SUOMI_NPP_rec.log

#Pass ID: 20250112_092212_SUOMI NPP
#Satellite: SUOMI NPP
#Configuration: NPP
#Start time: 2025-01-12 09:27:47

#Version: 2.0.20230423
#Station: SPB_Silybum_02
#Location: 30.233357 lon 59.946436 lat
#TLE: 1 37849U 11061A   25011.81852258  .00000147  00000+0  90749-4 0  9992
#TLE: 2 37849  98.7442 312.8475 0001799  45.9067 314.2257 14.19536766684464

#Time	Az	El	Level	Level2	SNR	BER	Gain	Gain2
2025-01-12 09:27:49.16	84.32	42.07	
2025-01-12 09:27:49.98	83.95	42.17	
2025-01-12 09:27:50.80	83.58	42.27	
2025-01-12 09:27:51.62	83.21	42.36	
2025-01-12 09:27:52.44	82.83	42.46	
2025-01-12 09:27:53.26	82.45	42.55	
2025-01-12 09:27:54.09	82.07	42.65	
2025-01-12 09:27:54.90	81.69	42.74	
2025-01-12 09:27:55.72	81.31	42.83	
2025-01-12 09:27:56.55	80.92	42.92	
2025-01-12 09:27:57.37	80.53	43.01	
2025-01-12 09:27:58.19	80.14	43.10	
2025-01-12 09:27:59.01	79.75	43.18	
2025-01-12 09:27:59.83	79.36	43.27	
2025-01-12 09:28:00.65	78.96	43.35	
2025-01-12 09:28:01.47	78.56	43.43	
2025-01-12 09:28:02.29	78.16	43.51	
2025-01-12 09:28:03.12	77.75	43.59	
2025-01-12 09:28:03.94	77.35	43.67	
2025-01-12 09:28:04.76	76.94	43.74	
2025-01-12 09:28:05.58	76.53	43.82	
2025-01-12 09:28:06.40	76.12	43.89	
2025-01-12 09:28:07.22	75.71	43.96	
2025-01-12 09:28:08.04	75.30	44.03	
2025-01-12 09:28:08.86	74.88	44.10	
2025-01-12 09:28:09.68	74.47	44.17	
2025-01-12 09:28:10.50	74.05	44.23	
2025-01-12 09:28:11.32	73.63	44.30	
2025-01-12 09:28:12.14	73.20	44.36	
2025-01-12 09:28:12.96	72.78	44.42	
2025-01-12 09:28:13.79	72.35	44.48	
2025-01-12 09:28:14.61	71.92	44.54	
2025-01-12 09:28:15.44	71.49	44.59	
2025-01-12 09:28:16.28	71.05	44.65	
2025-01-12 09:28:17.10	70.62	44.70	
2025-01-12 09:28:17.92	70.18	44.75	
2025-01-12 09:28:18.75	69.74	44.80	
2025-01-12 09:28:19.57	69.31	44.84	
2025-01-12 09:28:20.39	68.87	44.89	
2025-01-12 09:28:21.21	68.43	44.93	
2025-01-12 09:28:22.05	67.98	44.97	
2025-01-12 09:28:22.89	67.53	45.01	
2025-01-12 09:28:23.71	67.09	45.05	
2025-01-12 09:28:24.53	66.65	45.09	
2025-01-12 09:28:25.35	66.20	45.12	
2025-01-12 09:28:26.17	65.76	45.15	
2025-01-12 09:28:26.99	65.32	45.18	
2025-01-12 09:28:27.82	64.86	45.21	
2025-01-12 09:28:28.64	64.42	45.23	
2025-01-12 09:28:29.46	63.97	45.26	
2025-01-12 09:28:30.28	63.52	45.28	
2025-01-12 09:28:31.10	63.07	45.30	
2025-01-12 09:28:31.93	62.62	45.32	
2025-01-12 09:28:32.76	62.16	45.34	
2025-01-12 09:28:33.58	61.71	45.35	
2025-01-12 09:28:34.41	61.26	45.36	
2025-01-12 09:28:35.23	60.81	45.37	
2025-01-12 09:28:36.05	60.36	45.38	
2025-01-12 09:28:36.88	59.90	45.39	
2025-01-12 09:28:37.70	59.45	45.39	
2025-01-12 09:28:38.52	59.00	45.39	
2025-01-12 09:28:39.34	58.54	45.39	
2025-01-12 09:28:40.16	58.09	45.39	
2025-01-12 09:28:40.98	57.64	45.39	
2025-01-12 09:28:41.80	57.19	45.38	
2025-01-12 09:28:42.62	56.74	45.38	
2025-01-12 09:28:43.45	56.28	45.37	
2025-01-12 09:28:44.28	55.83	45.35	
2025-01-12 09:28:45.10	55.38	45.34	
2025-01-12 09:28:45.92	54.93	45.32	
2025-01-12 09:28:46.74	54.48	45.31	
2025-01-12 09:28:47.56	54.03	45.29	
2025-01-12 09:28:48.38	53.58	45.27	
2025-01-12 09:28:49.20	53.13	45.24	
2025-01-12 09:28:50.03	52.68	45.22	
2025-01-12 09:28:50.85	52.24	45.19	
2025-01-12 09:28:51.67	51.79	45.16	
2025-01-12 09:28:52.49	51.35	45.13	
2025-01-12 09:28:53.31	50.90	45.10	
2025-01-12 09:28:54.13	50.46	45.06	
2025-01-12 09:28:54.95	50.02	45.03	
2025-01-12 09:28:55.77	49.58	44.99	
2025-01-12 09:28:56.61	49.13	44.95	
2025-01-12 09:28:57.43	48.69	44.91	
2025-01-12 09:28:58.27	48.24	44.86	
2025-01-12 09:28:59.08	47.81	44.82	
2025-01-12 09:28:59.91	47.37	44.77	
2025-01-12 09:29:00.72	46.95	44.72	
2025-01-12 09:29:01.55	46.51	44.67	
2025-01-12 09:29:02.37	46.08	44.61	
2025-01-12 09:29:03.19	45.65	44.56	
2025-01-12 09:29:04.01	45.22	44.50	
2025-01-12 09:29:04.84	44.79	44.45	
2025-01-12 09:29:05.66	44.37	44.39	
2025-01-12 09:29:06.48	43.95	44.32	
2025-01-12 09:29:07.29	43.53	44.26	
2025-01-12 09:29:08.12	43.11	44.20	
2025-01-12 09:29:08.93	42.69	44.13	
2025-01-12 09:29:09.76	42.27	44.06	
2025-01-12 09:29:10.58	41.86	43.99	
2025-01-12 09:29:11.40	41.45	43.92	
2025-01-12 09:29:12.22	41.04	43.85	
2025-01-12 09:29:13.05	40.62	43.78	
2025-01-12 09:29:13.87	40.22	43.70	
2025-01-12 09:29:14.69	39.81	43.63	
2025-01-12 09:29:15.51	39.41	43.55	
2025-01-12 09:29:16.33	39.01	43.47	
2025-01-12 09:29:17.15	38.61	43.39	
2025-01-12 09:29:17.97	38.22	43.30	
2025-01-12 09:29:18.79	37.82	43.22	
2025-01-12 09:29:19.61	37.43	43.14	
2025-01-12 09:29:20.43	37.04	43.05	
2025-01-12 09:29:21.25	36.65	42.96	
2025-01-12 09:29:22.08	36.26	42.87	
2025-01-12 09:29:22.90	35.88	42.78	
2025-01-12 09:29:23.72	35.50	42.69	
2025-01-12 09:29:24.54	35.12	42.60	
2025-01-12 09:29:25.36	34.74	42.50	
2025-01-12 09:29:26.18	34.36	42.41	
2025-01-12 09:29:27.00	33.99	42.31	
2025-01-12 09:29:27.83	33.62	42.22	
2025-01-12 09:29:28.65	33.25	42.12	
2025-01-12 09:29:29.47	32.88	42.02	
2025-01-12 09:29:30.29	32.52	41.92	
2025-01-12 09:29:31.11	32.16	41.82	
2025-01-12 09:29:31.93	31.80	41.71	
2025-01-12 09:29:32.75	31.44	41.61	
2025-01-12 09:29:33.58	31.08	41.51	
2025-01-12 09:29:34.40	30.73	41.40	
2025-01-12 09:29:35.22	30.38	41.29	
2025-01-12 09:29:36.04	30.03	41.19	
2025-01-12 09:29:36.86	29.69	41.08	
2025-01-12 09:29:37.68	29.35	40.97	
2025-01-12 09:29:38.50	29.01	40.86	
2025-01-12 09:29:39.32	28.67	40.75	
2025-01-12 09:29:40.14	28.33	40.64	
2025-01-12 09:29:40.96	28.00	40.53	
2025-01-12 09:29:41.78	27.67	40.42	
2025-01-12 09:29:42.60	27.34	40.30	
2025-01-12 09:29:43.43	27.01	40.19	
2025-01-12 09:29:44.24	26.69	40.07	
2025-01-12 09:29:45.06	26.37	39.96	
2025-01-12 09:29:45.88	26.05	39.84	
2025-01-12 09:29:46.70	25.73	39.73	
2025-01-12 09:29:47.52	25.42	39.61	
2025-01-12 09:29:48.35	25.10	39.49	
2025-01-12 09:29:49.17	24.79	39.37	
2025-01-12 09:29:49.99	24.48	39.25	
2025-01-12 09:29:50.82	24.17	39.13	
2025-01-12 09:29:51.64	23.87	39.01	
2025-01-12 09:29:52.47	23.56	38.89	
2025-01-12 09:29:53.29	23.26	38.77	
2025-01-12 09:29:54.11	22.97	38.65	
2025-01-12 09:29:54.93	22.67	38.52	
2025-01-12 09:29:55.77	22.37	38.40	
2025-01-12 09:29:56.59	22.08	38.28	
2025-01-12 09:29:57.41	21.80	38.15	
2025-01-12 09:29:58.23	21.51	38.03	
2025-01-12 09:29:59.05	21.23	37.91	
2025-01-12 09:29:59.87	20.95	37.78	
2025-01-12 09:30:00.69	20.67	37.66	
2025-01-12 09:30:01.51	20.39	37.53	
2025-01-12 09:30:02.35	20.11	37.41	
2025-01-12 09:30:03.17	19.84	37.28	
2025-01-12 09:30:03.99	19.56	37.15	
2025-01-12 09:30:04.82	19.29	37.03	
2025-01-12 09:30:05.64	19.03	36.90	
2025-01-12 09:30:06.45	18.77	36.78	
2025-01-12 09:30:07.27	18.50	36.65	
2025-01-12 09:30:08.10	18.24	36.52	
2025-01-12 09:30:08.92	17.98	36.40	
2025-01-12 09:30:09.73	17.73	36.27	
2025-01-12 09:30:10.55	17.47	36.14	
2025-01-12 09:30:11.37	17.22	36.02	
2025-01-12 09:30:12.20	16.97	35.89	
2025-01-12 09:30:13.01	16.72	35.76	
2025-01-12 09:30:13.83	16.48	35.63	
2025-01-12 09:30:14.65	16.23	35.51	
2025-01-12 09:30:15.47	15.99	35.38	
2025-01-12 09:30:16.29	15.75	35.25	
2025-01-12 09:30:17.11	15.51	35.12	
2025-01-12 09:30:17.93	15.28	34.99	
2025-01-12 09:30:18.75	15.04	34.87	
2025-01-12 09:30:19.58	14.81	34.74	
2025-01-12 09:30:20.40	14.57	34.61	
2025-01-12 09:30:21.22	14.35	34.48	
2025-01-12 09:30:22.05	14.12	34.35	
2025-01-12 09:30:22.87	13.89	34.22	
2025-01-12 09:30:23.70	13.66	34.09	
2025-01-12 09:30:24.51	13.44	33.97	
2025-01-12 09:30:25.34	13.22	33.84	
2025-01-12 09:30:26.16	13.00	33.71	
2025-01-12 09:30:26.98	12.79	33.58	
2025-01-12 09:30:27.80	12.57	33.45	
2025-01-12 09:30:28.62	12.36	33.33	
2025-01-12 09:30:29.44	12.15	33.20	
2025-01-12 09:30:30.26	11.94	33.07	
2025-01-12 09:30:31.08	11.73	32.94	
2025-01-12 09:30:31.90	11.52	32.82	
2025-01-12 09:30:32.72	11.32	32.69	
2025-01-12 09:30:33.55	11.11	32.56	
2025-01-12 09:30:34.37	10.91	32.43	
2025-01-12 09:30:35.19	10.71	32.31	
2025-01-12 09:30:36.01	10.51	32.18	
2025-01-12 09:30:36.83	10.31	32.06	
2025-01-12 09:30:37.66	10.11	31.93	
2025-01-12 09:30:38.48	9.92	31.80	
2025-01-12 09:30:39.30	9.73	31.68	
2025-01-12 09:30:40.12	9.54	31.55	
2025-01-12 09:30:40.95	9.35	31.42	
2025-01-12 09:30:41.77	9.16	31.30	
2025-01-12 09:30:42.59	8.97	31.17	
2025-01-12 09:30:43.41	8.79	31.05	
2025-01-12 09:30:44.24	8.60	30.92	
2025-01-12 09:30:45.05	8.42	30.80	
2025-01-12 09:30:45.87	8.24	30.67	
2025-01-12 09:30:46.71	8.06	30.55	
2025-01-12 09:30:47.53	7.88	30.42	
2025-01-12 09:30:48.35	7.70	30.30	
2025-01-12 09:30:49.17	7.53	30.17	
2025-01-12 09:30:50.01	7.35	30.05	
2025-01-12 09:30:50.83	7.18	29.93	
2025-01-12 09:30:51.65	7.01	29.80	
2025-01-12 09:30:52.47	6.84	29.68	
2025-01-12 09:30:53.30	6.66	29.56	
2025-01-12 09:30:54.11	6.50	29.44	
2025-01-12 09:30:54.93	6.33	29.31	
2025-01-12 09:30:55.75	6.17	29.19	
2025-01-12 09:30:56.57	6.01	29.07	
2025-01-12 09:30:57.39	5.84	28.95	
2025-01-12 09:30:58.21	5.68	28.83	
2025-01-12 09:30:59.05	5.52	28.71	
2025-01-12 09:30:59.87	5.36	28.59	
2025-01-12 09:31:00.69	5.20	28.47	
2025-01-12 09:31:01.51	5.05	28.35	
2025-01-12 09:31:02.33	4.89	28.23	
2025-01-12 09:31:03.16	4.74	28.11	
2025-01-12 09:31:03.98	4.59	27.99	
2025-01-12 09:31:04.80	4.43	27.87	
2025-01-12 09:31:05.62	4.28	27.75	
2025-01-12 09:31:06.44	4.13	27.63	
2025-01-12 09:31:07.26	3.99	27.51	
2025-01-12 09:31:08.08	3.84	27.40	
2025-01-12 09:31:08.90	3.69	27.28	
2025-01-12 09:31:09.72	3.55	27.16	
2025-01-12 09:31:10.54	3.41	27.05	
2025-01-12 09:31:11.37	3.26	26.93	
2025-01-12 09:31:12.19	3.12	26.81	
2025-01-12 09:31:13.01	2.98	26.70	
2025-01-12 09:31:13.83	2.84	26.58	
2025-01-12 09:31:14.66	2.70	26.47	
2025-01-12 09:31:15.48	2.56	26.35	
2025-01-12 09:31:16.31	2.43	26.24	
2025-01-12 09:31:17.14	2.29	26.12	
2025-01-12 09:31:17.98	2.15	26.00	
2025-01-12 09:31:18.80	2.02	25.89	
2025-01-12 09:31:19.62	1.88	25.78	
2025-01-12 09:31:20.45	1.75	25.66	
2025-01-12 09:31:21.28	1.62	25.55	
2025-01-12 09:31:22.10	1.49	25.44	
2025-01-12 09:31:22.93	1.36	25.32	
2025-01-12 09:31:23.76	1.23	25.21	
2025-01-12 09:31:24.58	1.10	25.10	
2025-01-12 09:31:25.40	0.98	24.99	
2025-01-12 09:31:26.22	0.85	24.88	
2025-01-12 09:31:27.04	0.73	24.77	
2025-01-12 09:31:27.86	0.61	24.66	
2025-01-12 09:31:28.69	0.48	24.55	
2025-01-12 09:31:29.51	0.36	24.44	
2025-01-12 09:31:30.34	0.24	24.33	
2025-01-12 09:31:31.16	0.12	24.22	
2025-01-12 09:31:31.98	0.00	24.11	
2025-01-12 09:31:32.80	359.88	24.00	
2025-01-12 09:31:33.62	359.77	23.89	
2025-01-12 09:31:34.44	359.65	23.79	
2025-01-12 09:31:35.26	359.53	23.68	
2025-01-12 09:31:36.08	359.42	23.57	
2025-01-12 09:31:36.90	359.31	23.47	
2025-01-12 09:31:37.72	359.19	23.36	
2025-01-12 09:31:38.54	359.08	23.25	
2025-01-12 09:31:39.38	358.97	23.15	
2025-01-12 09:31:40.20	358.86	23.04	
2025-01-12 09:31:41.02	358.75	22.94	
2025-01-12 09:31:41.85	358.64	22.83	
2025-01-12 09:31:42.66	358.53	22.73	
2025-01-12 09:31:43.48	358.42	22.62	
2025-01-12 09:31:44.30	358.31	22.52	
2025-01-12 09:31:45.13	358.21	22.41	
2025-01-12 09:31:45.94	358.10	22.31	
2025-01-12 09:31:46.78	357.99	22.21	
2025-01-12 09:31:47.60	357.89	22.10	
2025-01-12 09:31:48.42	357.79	22.00	
2025-01-12 09:31:49.24	357.68	21.90	
2025-01-12 09:31:50.06	357.58	21.80	
2025-01-12 09:31:50.88	357.48	21.70	
2025-01-12 09:31:51.70	357.38	21.60	
2025-01-12 09:31:52.52	357.28	21.50	
2025-01-12 09:31:53.36	357.18	21.39	
2025-01-12 09:31:54.18	357.08	21.29	
2025-01-12 09:31:54.99	356.98	21.19	
2025-01-12 09:31:55.82	356.89	21.09	
2025-01-12 09:31:56.64	356.79	21.00	
2025-01-12 09:31:57.46	356.69	20.90	
2025-01-12 09:31:58.28	356.60	20.80	
2025-01-12 09:31:59.11	356.50	20.70	
2025-01-12 09:31:59.93	356.41	20.60	
2025-01-12 09:32:00.75	356.31	20.50	
2025-01-12 09:32:01.56	356.22	20.41	
2025-01-12 09:32:02.38	356.13	20.31	
2025-01-12 09:32:03.21	356.04	20.21	
2025-01-12 09:32:04.03	355.95	20.12	
2025-01-12 09:32:04.84	355.86	20.02	
2025-01-12 09:32:05.66	355.77	19.92	
2025-01-12 09:32:06.48	355.68	19.83	
2025-01-12 09:32:07.30	355.59	19.73	
2025-01-12 09:32:08.13	355.50	19.64	
2025-01-12 09:32:08.96	355.41	19.54	
2025-01-12 09:32:09.78	355.32	19.45	
2025-01-12 09:32:10.61	355.24	19.35	
2025-01-12 09:32:11.43	355.15	19.26	
2025-01-12 09:32:12.25	355.06	19.17	
2025-01-12 09:32:13.08	354.98	19.07	
2025-01-12 09:32:13.91	354.89	18.98	
2025-01-12 09:32:14.73	354.81	18.88	
2025-01-12 09:32:15.54	354.73	18.79	
2025-01-12 09:32:16.38	354.64	18.70	
2025-01-12 09:32:17.19	354.56	18.61	
2025-01-12 09:32:18.02	354.48	18.52	
2025-01-12 09:32:18.84	354.40	18.42	
2025-01-12 09:32:19.66	354.32	18.33	
2025-01-12 09:32:20.48	354.24	18.24	
2025-01-12 09:32:21.30	354.16	18.15	
2025-01-12 09:32:22.13	354.08	18.06	
2025-01-12 09:32:22.94	354.00	17.97	
2025-01-12 09:32:23.76	353.92	17.88	
2025-01-12 09:32:24.58	353.84	17.79	
2025-01-12 09:32:25.41	353.76	17.70	
2025-01-12 09:32:26.22	353.69	17.62	
2025-01-12 09:32:27.05	353.61	17.53	
2025-01-12 09:32:27.87	353.53	17.44	
2025-01-12 09:32:28.69	353.46	17.35	
2025-01-12 09:32:29.51	353.38	17.26	
2025-01-12 09:32:30.33	353.31	17.17	
2025-01-12 09:32:31.15	353.23	17.09	
2025-01-12 09:32:31.97	353.16	17.00	
2025-01-12 09:32:32.80	353.09	16.91	
2025-01-12 09:32:33.63	353.01	16.83	
2025-01-12 09:32:34.45	352.94	16.74	
2025-01-12 09:32:35.28	352.87	16.65	
2025-01-12 09:32:36.10	352.80	16.57	
2025-01-12 09:32:36.92	352.73	16.48	
2025-01-12 09:32:37.74	352.65	16.40	
2025-01-12 09:32:38.56	352.58	16.31	
2025-01-12 09:32:39.40	352.51	16.22	
2025-01-12 09:32:40.22	352.44	16.14	
2025-01-12 09:32:41.05	352.37	16.05	
2025-01-12 09:32:41.87	352.31	15.97	
2025-01-12 09:32:42.69	352.24	15.89	
2025-01-12 09:32:43.51	352.17	15.80	
2025-01-12 09:32:44.33	352.10	15.72	
2025-01-12 09:32:45.16	352.03	15.64	
2025-01-12 09:32:45.98	351.97	15.55	
2025-01-12 09:32:46.81	351.90	15.47	
2025-01-12 09:32:47.63	351.83	15.39	
2025-01-12 09:32:48.45	351.77	15.31	
2025-01-12 09:32:49.27	351.70	15.22	
2025-01-12 09:32:50.10	351.64	15.14	
2025-01-12 09:32:50.92	351.57	15.06	
2025-01-12 09:32:51.74	351.51	14.98	
2025-01-12 09:32:52.57	351.45	14.90	
2025-01-12 09:32:53.39	351.38	14.82	
2025-01-12 09:32:54.20	351.32	14.74	
2025-01-12 09:32:55.02	351.26	14.66	
2025-01-12 09:32:55.85	351.19	14.58	
2025-01-12 09:32:56.67	351.13	14.50	
2025-01-12 09:32:57.49	351.07	14.42	
2025-01-12 09:32:58.31	351.01	14.34	
2025-01-12 09:32:59.13	350.95	14.26	
2025-01-12 09:32:59.95	350.89	14.18	
2025-01-12 09:33:00.79	350.83	14.10	
2025-01-12 09:33:01.61	350.77	14.02	
2025-01-12 09:33:02.44	350.71	13.94	
2025-01-12 09:33:03.27	350.65	13.86	
2025-01-12 09:33:04.10	350.59	13.79	
2025-01-12 09:33:04.92	350.53	13.71	
2025-01-12 09:33:05.75	350.47	13.63	
2025-01-12 09:33:06.58	350.41	13.55	
2025-01-12 09:33:07.41	350.35	13.47	
2025-01-12 09:33:08.24	350.30	13.40	
2025-01-12 09:33:09.06	350.24	13.32	
2025-01-12 09:33:09.88	350.18	13.24	
2025-01-12 09:33:10.70	350.13	13.17	
2025-01-12 09:33:11.52	350.07	13.09	
2025-01-12 09:33:12.34	350.01	13.02	
2025-01-12 09:33:13.16	349.96	12.94	
2025-01-12 09:33:13.98	349.90	12.87	
2025-01-12 09:33:14.82	349.85	12.79	
2025-01-12 09:33:15.64	349.79	12.72	
2025-01-12 09:33:16.46	349.74	12.64	
2025-01-12 09:33:17.28	349.69	12.57	
2025-01-12 09:33:18.11	349.63	12.49	
2025-01-12 09:33:18.93	349.58	12.42	
2025-01-12 09:33:19.76	349.52	12.34	
2025-01-12 09:33:20.58	349.47	12.27	
2025-01-12 09:33:21.41	349.42	12.20	
2025-01-12 09:33:22.23	349.37	12.12	
2025-01-12 09:33:23.05	349.31	12.05	
2025-01-12 09:33:23.89	349.26	11.98	
2025-01-12 09:33:24.70	349.21	11.90	
2025-01-12 09:33:25.53	349.16	11.83	
2025-01-12 09:33:26.35	349.11	11.76	
2025-01-12 09:33:27.17	349.06	11.69	
2025-01-12 09:33:27.99	349.01	11.61	
2025-01-12 09:33:28.81	348.96	11.54	
2025-01-12 09:33:29.62	348.91	11.47	
2025-01-12 09:33:30.45	348.86	11.40	
2025-01-12 09:33:31.27	348.81	11.33	
2025-01-12 09:33:32.09	348.76	11.26	
2025-01-12 09:33:32.91	348.71	11.19	
2025-01-12 09:33:33.73	348.66	11.12	
2025-01-12 09:33:34.55	348.61	11.05	
2025-01-12 09:33:35.36	348.57	10.98	
2025-01-12 09:33:36.18	348.52	10.91	
2025-01-12 09:33:37.00	348.47	10.84	
2025-01-12 09:33:37.82	348.42	10.77	
2025-01-12 09:33:38.66	348.38	10.70	
2025-01-12 09:33:39.48	348.33	10.63	
2025-01-12 09:33:40.30	348.28	10.56	
2025-01-12 09:33:41.12	348.24	10.49	
2025-01-12 09:33:41.94	348.19	10.42	
2025-01-12 09:33:42.75	348.15	10.35	
2025-01-12 09:33:43.58	348.10	10.28	
2025-01-12 09:33:44.40	348.05	10.22	
2025-01-12 09:33:45.22	348.01	10.15	
2025-01-12 09:33:46.05	347.96	10.08	
2025-01-12 09:33:46.87	347.92	10.01	
2025-01-12 09:33:47.69	347.87	9.94	
2025-01-12 09:33:48.51	347.83	9.88	
2025-01-12 09:33:49.33	347.79	9.81	
2025-01-12 09:33:50.16	347.74	9.74	
2025-01-12 09:33:50.98	347.70	9.68	
2025-01-12 09:33:51.81	347.65	9.61	
2025-01-12 09:33:52.63	347.61	9.54	
2025-01-12 09:33:53.46	347.57	9.47	
2025-01-12 09:33:54.28	347.52	9.41	
2025-01-12 09:33:55.10	347.48	9.34	
2025-01-12 09:33:55.93	347.44	9.27	
2025-01-12 09:33:56.75	347.40	9.21	
2025-01-12 09:33:57.57	347.35	9.14	
2025-01-12 09:33:58.39	347.31	9.08	
2025-01-12 09:33:59.21	347.27	9.01	
2025-01-12 09:34:00.03	347.23	8.95	
2025-01-12 09:34:00.85	347.19	8.88	
2025-01-12 09:34:01.68	347.15	8.82	
2025-01-12 09:34:02.50	347.11	8.75	
2025-01-12 09:34:03.31	347.07	8.69	
2025-01-12 09:34:04.13	347.03	8.62	
2025-01-12 09:34:04.95	346.99	8.56	
2025-01-12 09:34:05.77	346.95	8.50	
2025-01-12 09:34:06.59	346.91	8.43	
2025-01-12 09:34:07.41	346.87	8.37	
2025-01-12 09:34:08.23	346.83	8.31	
2025-01-12 09:34:09.05	346.79	8.24	
2025-01-12 09:34:09.87	346.75	8.18	
2025-01-12 09:34:10.69	346.71	8.12	
2025-01-12 09:34:11.51	346.67	8.05	
2025-01-12 09:34:12.33	346.63	7.99	
2025-01-12 09:34:13.17	346.59	7.92	
2025-01-12 09:34:13.98	346.55	7.86	
2025-01-12 09:34:14.80	346.52	7.80	
2025-01-12 09:34:15.62	346.48	7.74	
2025-01-12 09:34:16.44	346.44	7.68	
2025-01-12 09:34:17.26	346.40	7.61	
2025-01-12 09:34:18.08	346.37	7.55	
2025-01-12 09:34:18.90	346.33	7.49	
2025-01-12 09:34:19.72	346.29	7.43	
2025-01-12 09:34:20.54	346.26	7.37	
2025-01-12 09:34:21.37	346.22	7.31	
2025-01-12 09:34:22.19	346.18	7.24	
2025-01-12 09:34:23.01	346.15	7.18	
2025-01-12 09:34:23.83	346.11	7.12	
2025-01-12 09:34:24.65	346.07	7.06	
2025-01-12 09:34:25.48	346.04	7.00	
2025-01-12 09:34:26.30	346.00	6.94	
2025-01-12 09:34:27.12	345.97	6.88	
2025-01-12 09:34:27.94	345.93	6.82	
2025-01-12 09:34:28.76	345.90	6.76	
2025-01-12 09:34:29.58	345.86	6.70	
2025-01-12 09:34:30.40	345.83	6.64	
2025-01-12 09:34:31.22	345.79	6.58	
2025-01-12 09:34:32.04	345.76	6.52	
2025-01-12 09:34:32.86	345.72	6.46	
2025-01-12 09:34:33.68	345.69	6.40	
2025-01-12 09:34:34.51	345.65	6.34	
2025-01-12 09:34:35.33	345.62	6.28	
2025-01-12 09:34:36.15	345.59	6.22	
2025-01-12 09:34:36.97	345.55	6.16	
2025-01-12 09:34:37.80	345.52	6.10	
2025-01-12 09:34:38.62	345.49	6.04	
2025-01-12 09:34:39.44	345.45	5.99	
2025-01-12 09:34:40.27	345.42	5.93	
2025-01-12 09:34:41.09	345.39	5.87	
2025-01-12 09:34:41.91	345.35	5.81	
2025-01-12 09:34:42.73	345.32	5.75	
2025-01-12 09:34:43.55	345.29	5.69	
2025-01-12 09:34:44.37	345.26	5.64	
2025-01-12 09:34:45.19	345.22	5.58	
2025-01-12 09:34:46.01	345.19	5.52	
2025-01-12 09:34:46.83	345.16	5.46	
2025-01-12 09:34:47.65	345.13	5.41	
2025-01-12 09:34:48.47	345.10	5.35	
2025-01-12 09:34:49.29	345.07	5.29	
2025-01-12 09:34:50.11	345.04	5.24	
2025-01-12 09:34:50.93	345.00	5.18	
2025-01-12 09:34:51.75	344.97	5.12	
2025-01-12 09:34:52.59	344.94	5.06	
2025-01-12 09:34:53.41	344.91	5.01	
2025-01-12 09:34:54.23	344.88	4.95	
2025-01-12 09:34:55.05	344.85	4.89	
2025-01-12 09:34:55.87	344.82	4.84	
2025-01-12 09:34:56.70	344.79	4.78	
2025-01-12 09:34:57.52	344.76	4.73	
2025-01-12 09:34:58.35	344.73	4.67	
2025-01-12 09:34:59.17	344.70	4.61	
2025-01-12 09:35:00.01	344.67	4.56	
2025-01-12 09:35:00.83	344.64	4.50	
2025-01-12 09:35:01.65	344.61	4.45	
2025-01-12 09:35:02.47	344.58	4.39	
2025-01-12 09:35:03.29	344.55	4.33	
2025-01-12 09:35:04.11	344.52	4.28	
2025-01-12 09:35:04.93	344.49	4.22	
2025-01-12 09:35:05.75	344.46	4.17	
2025-01-12 09:35:06.57	344.43	4.11	
2025-01-12 09:35:07.39	344.41	4.06	
2025-01-12 09:35:08.23	344.38	4.00	

#Closed at: 2025-01-12 09:35:08