passes_logs/2025/01/12/SPB_Silybum_02/SPB_Silybum_02__20250112_013644_AQUA_rec.log

#Pass ID: 20250112_013644_AQUA
#Satellite: AQUA
#Configuration: AQUA
#Start time: 2025-01-12 01:36:44

#Version: 2.0.20230423
#Station: SPB_Silybum_02
#Location: 30.233357 lon 59.946436 lat
#TLE: 1 27424U 02022A   25010.89862733  .00001944  00000+0  40909-3 0  9991
#TLE: 2 27424  98.3577 327.5256 0001581 116.2883 319.2080 14.60667727207024

#Time	Az	El	Level	Level2	SNR	BER	Gain	Gain2
2025-01-12 01:36:46.39	15.87	4.14	
2025-01-12 01:36:47.62	15.86	4.23	
2025-01-12 01:36:48.85	15.84	4.32	
2025-01-12 01:36:50.08	15.83	4.41	
2025-01-12 01:36:51.31	15.81	4.50	
2025-01-12 01:36:52.54	15.80	4.59	
2025-01-12 01:36:53.78	15.78	4.68	
2025-01-12 01:36:55.03	15.76	4.77	
2025-01-12 01:36:56.26	15.75	4.86	
2025-01-12 01:36:57.49	15.73	4.95	
2025-01-12 01:36:58.72	15.72	5.04	
2025-01-12 01:36:59.95	15.70	5.13	
2025-01-12 01:37:01.18	15.69	5.23	
2025-01-12 01:37:02.41	15.67	5.32	
2025-01-12 01:37:03.65	15.65	5.41	
2025-01-12 01:37:04.87	15.64	5.50	
2025-01-12 01:37:06.12	15.62	5.60	
2025-01-12 01:37:07.36	15.60	5.69	
2025-01-12 01:37:08.59	15.58	5.79	
2025-01-12 01:37:09.82	15.57	5.88	
2025-01-12 01:37:11.05	15.55	5.98	
2025-01-12 01:37:12.28	15.53	6.07	
2025-01-12 01:37:13.51	15.51	6.17	
2025-01-12 01:37:14.74	15.50	6.26	
2025-01-12 01:37:15.97	15.48	6.36	
2025-01-12 01:37:17.22	15.46	6.46	
2025-01-12 01:37:18.45	15.44	6.56	
2025-01-12 01:37:19.70	15.42	6.66	
2025-01-12 01:37:20.93	15.40	6.75	
2025-01-12 01:37:22.16	15.38	6.85	
2025-01-12 01:37:23.39	15.36	6.95	
2025-01-12 01:37:24.63	15.35	7.05	
2025-01-12 01:37:25.86	15.33	7.15	
2025-01-12 01:37:27.10	15.31	7.25	
2025-01-12 01:37:28.34	15.29	7.35	
2025-01-12 01:37:29.57	15.27	7.45	
2025-01-12 01:37:30.80	15.25	7.56	
2025-01-12 01:37:32.03	15.22	7.66	
2025-01-12 01:37:33.28	15.20	7.76	
2025-01-12 01:37:34.51	15.18	7.87	
2025-01-12 01:37:35.74	15.16	7.97	
2025-01-12 01:37:36.98	15.14	8.07	
2025-01-12 01:37:38.21	15.12	8.18	
2025-01-12 01:37:39.44	15.10	8.28	
2025-01-12 01:37:40.69	15.08	8.39	
2025-01-12 01:37:41.92	15.05	8.50	
2025-01-12 01:37:43.15	15.03	8.60	
2025-01-12 01:37:44.38	15.01	8.71	
2025-01-12 01:37:45.61	14.99	8.82	
2025-01-12 01:37:46.84	14.96	8.92	
2025-01-12 01:37:48.07	14.94	9.03	
2025-01-12 01:37:49.31	14.92	9.14	
2025-01-12 01:37:50.53	14.89	9.25	
2025-01-12 01:37:51.76	14.87	9.36	
2025-01-12 01:37:53.00	14.84	9.47	
2025-01-12 01:37:54.23	14.82	9.58	
2025-01-12 01:37:55.46	14.79	9.69	
2025-01-12 01:37:56.69	14.77	9.81	
2025-01-12 01:37:57.93	14.74	9.92	
2025-01-12 01:37:59.16	14.72	10.03	
2025-01-12 01:38:00.39	14.69	10.15	
2025-01-12 01:38:01.62	14.67	10.26	
2025-01-12 01:38:02.85	14.64	10.38	
2025-01-12 01:38:04.08	14.61	10.49	
2025-01-12 01:38:05.32	14.59	10.61	
2025-01-12 01:38:06.55	14.56	10.72	
2025-01-12 01:38:07.78	14.53	10.84	
2025-01-12 01:38:09.01	14.51	10.96	
2025-01-12 01:38:10.25	14.48	11.08	
2025-01-12 01:38:11.48	14.45	11.20	
2025-01-12 01:38:12.71	14.42	11.32	
2025-01-12 01:38:13.94	14.39	11.44	
2025-01-12 01:38:15.17	14.36	11.56	
2025-01-12 01:38:16.40	14.33	11.68	
2025-01-12 01:38:17.63	14.30	11.80	
2025-01-12 01:38:18.86	14.27	11.93	
2025-01-12 01:38:20.09	14.24	12.05	
2025-01-12 01:38:21.33	14.21	12.18	
2025-01-12 01:38:22.56	14.18	12.30	
2025-01-12 01:38:23.79	14.15	12.43	
2025-01-12 01:38:25.04	14.12	12.56	
2025-01-12 01:38:26.28	14.09	12.68	
2025-01-12 01:38:27.51	14.06	12.81	
2025-01-12 01:38:28.76	14.02	12.94	
2025-01-12 01:38:29.99	13.99	13.07	
2025-01-12 01:38:31.22	13.96	13.20	
2025-01-12 01:38:32.46	13.92	13.34	
2025-01-12 01:38:33.70	13.89	13.47	
2025-01-12 01:38:34.92	13.85	13.60	
2025-01-12 01:38:36.16	13.82	13.74	
2025-01-12 01:38:37.39	13.78	13.87	
2025-01-12 01:38:38.63	13.75	14.01	
2025-01-12 01:38:39.86	13.71	14.14	
2025-01-12 01:38:41.09	13.67	14.28	
2025-01-12 01:38:42.32	13.64	14.42	
2025-01-12 01:38:43.57	13.60	14.56	
2025-01-12 01:38:44.80	13.56	14.70	
2025-01-12 01:38:46.03	13.52	14.84	
2025-01-12 01:38:47.27	13.49	14.98	
2025-01-12 01:38:48.49	13.45	15.12	
2025-01-12 01:38:49.72	13.41	15.26	
2025-01-12 01:38:50.95	13.37	15.41	
2025-01-12 01:38:52.19	13.33	15.55	
2025-01-12 01:38:53.43	13.29	15.70	
2025-01-12 01:38:54.68	13.24	15.85	
2025-01-12 01:38:55.91	13.20	16.00	
2025-01-12 01:38:57.14	13.16	16.15	
2025-01-12 01:38:58.37	13.12	16.29	
2025-01-12 01:38:59.61	13.07	16.45	
2025-01-12 01:39:00.83	13.03	16.60	
2025-01-12 01:39:02.06	12.99	16.75	
2025-01-12 01:39:03.30	12.94	16.90	
2025-01-12 01:39:04.53	12.89	17.06	
2025-01-12 01:39:05.77	12.85	17.22	
2025-01-12 01:39:07.01	12.80	17.37	
2025-01-12 01:39:08.23	12.76	17.53	
2025-01-12 01:39:09.47	12.71	17.69	
2025-01-12 01:39:10.70	12.66	17.85	
2025-01-12 01:39:11.93	12.61	18.01	
2025-01-12 01:39:13.17	12.56	18.18	
2025-01-12 01:39:14.41	12.51	18.34	
2025-01-12 01:39:15.64	12.46	18.51	
2025-01-12 01:39:16.88	12.41	18.68	
2025-01-12 01:39:18.11	12.36	18.84	
2025-01-12 01:39:19.35	12.30	19.01	
2025-01-12 01:39:20.59	12.25	19.18	
2025-01-12 01:39:21.82	12.19	19.35	
2025-01-12 01:39:23.05	12.14	19.53	
2025-01-12 01:39:24.30	12.08	19.70	
2025-01-12 01:39:25.53	12.03	19.88	
2025-01-12 01:39:26.76	11.97	20.05	
2025-01-12 01:39:27.99	11.91	20.23	
2025-01-12 01:39:29.23	11.85	20.41	
2025-01-12 01:39:30.46	11.79	20.59	
2025-01-12 01:39:31.69	11.73	20.77	
2025-01-12 01:39:32.93	11.67	20.96	
2025-01-12 01:39:34.16	11.61	21.14	
2025-01-12 01:39:35.39	11.55	21.33	
2025-01-12 01:39:36.62	11.48	21.52	
2025-01-12 01:39:37.88	11.42	21.71	
2025-01-12 01:39:39.11	11.35	21.90	
2025-01-12 01:39:40.35	11.29	22.10	
2025-01-12 01:39:41.59	11.22	22.29	
2025-01-12 01:39:42.82	11.15	22.49	
2025-01-12 01:39:44.06	11.08	22.68	
2025-01-12 01:39:45.29	11.01	22.88	
2025-01-12 01:39:46.53	10.94	23.09	
2025-01-12 01:39:47.76	10.87	23.29	
2025-01-12 01:39:49.00	10.79	23.49	
2025-01-12 01:39:50.24	10.72	23.70	
2025-01-12 01:39:51.48	10.64	23.91	
2025-01-12 01:39:52.72	10.57	24.12	
2025-01-12 01:39:53.95	10.49	24.33	
2025-01-12 01:39:55.18	10.41	24.54	
2025-01-12 01:39:56.41	10.33	24.75	
2025-01-12 01:39:57.64	10.25	24.97	
2025-01-12 01:39:58.89	10.17	25.19	
2025-01-12 01:40:00.13	10.08	25.41	
2025-01-12 01:40:01.36	10.00	25.63	
2025-01-12 01:40:02.59	9.91	25.86	
2025-01-12 01:40:03.84	9.82	26.09	
2025-01-12 01:40:05.07	9.73	26.32	
2025-01-12 01:40:06.32	9.64	26.55	
2025-01-12 01:40:07.55	9.55	26.78	
2025-01-12 01:40:08.78	9.46	27.01	
2025-01-12 01:40:10.02	9.36	27.25	
2025-01-12 01:40:11.25	9.26	27.49	
2025-01-12 01:40:12.48	9.17	27.73	
2025-01-12 01:40:13.72	9.07	27.97	
2025-01-12 01:40:14.95	8.97	28.22	
2025-01-12 01:40:16.19	8.86	28.47	
2025-01-12 01:40:17.42	8.76	28.72	
2025-01-12 01:40:18.66	8.65	28.97	
2025-01-12 01:40:19.90	8.54	29.23	
2025-01-12 01:40:21.13	8.43	29.48	
2025-01-12 01:40:22.35	8.32	29.74	
2025-01-12 01:40:23.59	8.20	30.00	
2025-01-12 01:40:24.82	8.09	30.26	
2025-01-12 01:40:26.05	7.97	30.53	
2025-01-12 01:40:27.28	7.85	30.80	
2025-01-12 01:40:28.52	7.73	31.07	
2025-01-12 01:40:29.75	7.60	31.34	
2025-01-12 01:40:30.97	7.48	31.62	
2025-01-12 01:40:32.21	7.35	31.90	
2025-01-12 01:40:33.44	7.22	32.18	
2025-01-12 01:40:34.67	7.08	32.46	
2025-01-12 01:40:35.90	6.94	32.75	
2025-01-12 01:40:37.13	6.81	33.04	
2025-01-12 01:40:38.36	6.66	33.33	
2025-01-12 01:40:39.59	6.52	33.63	
2025-01-12 01:40:40.82	6.37	33.93	
2025-01-12 01:40:42.06	6.22	34.23	
2025-01-12 01:40:43.29	6.07	34.53	
2025-01-12 01:40:44.53	5.91	34.84	
2025-01-12 01:40:45.75	5.75	35.15	
2025-01-12 01:40:46.99	5.59	35.46	
2025-01-12 01:40:48.22	5.42	35.78	
2025-01-12 01:40:49.47	5.25	36.10	
2025-01-12 01:40:50.70	5.08	36.43	
2025-01-12 01:40:51.94	4.90	36.75	
2025-01-12 01:40:53.17	4.72	37.08	
2025-01-12 01:40:54.40	4.53	37.41	
2025-01-12 01:40:55.63	4.35	37.75	
2025-01-12 01:40:56.87	4.15	38.09	
2025-01-12 01:40:58.10	3.96	38.43	
2025-01-12 01:40:59.35	3.75	38.78	
2025-01-12 01:41:00.57	3.55	39.12	
2025-01-12 01:41:01.80	3.34	39.47	
2025-01-12 01:41:03.03	3.12	39.83	
2025-01-12 01:41:04.27	2.90	40.19	
2025-01-12 01:41:05.50	2.68	40.55	
2025-01-12 01:41:06.73	2.44	40.91	
2025-01-12 01:41:07.96	2.21	41.28	
2025-01-12 01:41:09.19	1.97	41.65	
2025-01-12 01:41:10.42	1.72	42.03	
2025-01-12 01:41:11.65	1.47	42.41	
2025-01-12 01:41:12.89	1.21	42.79	
2025-01-12 01:41:14.12	0.94	43.18	
2025-01-12 01:41:15.36	0.66	43.57	
2025-01-12 01:41:16.59	0.38	43.96	
2025-01-12 01:41:17.82	0.10	44.35	
2025-01-12 01:41:19.05	359.80	44.75	
2025-01-12 01:41:20.29	359.50	45.16	
2025-01-12 01:41:21.53	359.18	45.57	
2025-01-12 01:41:22.76	358.87	45.97	
2025-01-12 01:41:24.00	358.54	46.39	
2025-01-12 01:41:25.23	358.20	46.81	
2025-01-12 01:41:26.46	357.85	47.22	
2025-01-12 01:41:27.71	357.49	47.65	
2025-01-12 01:41:28.94	357.13	48.08	
2025-01-12 01:41:30.17	356.75	48.51	
2025-01-12 01:41:31.41	356.36	48.94	
2025-01-12 01:41:32.65	355.96	49.38	
2025-01-12 01:41:33.88	355.55	49.82	
2025-01-12 01:41:35.11	355.13	50.26	
2025-01-12 01:41:36.34	354.69	50.70	
2025-01-12 01:41:37.58	354.24	51.15	
2025-01-12 01:41:38.81	353.78	51.60	
2025-01-12 01:41:40.04	353.30	52.05	
2025-01-12 01:41:41.27	352.81	52.50	
2025-01-12 01:41:42.52	352.29	52.96	
2025-01-12 01:41:43.75	351.77	53.42	
2025-01-12 01:41:44.98	351.23	53.88	
2025-01-12 01:41:46.21	350.67	54.34	
2025-01-12 01:41:47.45	350.08	54.80	
2025-01-12 01:41:48.68	349.49	55.26	
2025-01-12 01:41:49.91	348.87	55.73	
2025-01-12 01:41:51.15	348.23	56.20	
2025-01-12 01:41:52.38	347.57	56.66	
2025-01-12 01:41:53.61	346.88	57.13	
2025-01-12 01:41:54.84	346.17	57.59	
2025-01-12 01:41:56.08	345.43	58.06	
2025-01-12 01:41:57.31	344.68	58.53	
2025-01-12 01:41:58.55	343.88	58.99	
2025-01-12 01:41:59.78	343.07	59.45	
2025-01-12 01:42:01.03	342.21	59.92	
2025-01-12 01:42:02.27	341.33	60.38	
2025-01-12 01:42:03.49	340.42	60.83	
2025-01-12 01:42:04.72	339.48	61.28	
2025-01-12 01:42:05.95	338.50	61.73	
2025-01-12 01:42:07.18	337.49	62.18	
2025-01-12 01:42:08.41	336.44	62.61	
2025-01-12 01:42:09.64	335.35	63.05	
2025-01-12 01:42:10.89	334.20	63.48	
2025-01-12 01:42:12.12	333.03	63.90	
2025-01-12 01:42:13.35	331.81	64.31	
2025-01-12 01:42:14.59	330.54	64.72	
2025-01-12 01:42:15.82	329.24	65.11	
2025-01-12 01:42:17.05	327.88	65.49	
2025-01-12 01:42:18.29	326.47	65.87	
2025-01-12 01:42:19.52	325.03	66.23	
2025-01-12 01:42:20.75	323.53	66.58	
2025-01-12 01:42:21.98	321.98	66.91	
2025-01-12 01:42:23.20	320.40	67.23	
2025-01-12 01:42:24.44	318.74	67.54	
2025-01-12 01:42:25.68	317.04	67.83	
2025-01-12 01:42:26.91	315.30	68.10	
2025-01-12 01:42:28.15	313.49	68.36	
2025-01-12 01:42:29.39	311.65	68.59	
2025-01-12 01:42:30.61	309.79	68.80	
2025-01-12 01:42:31.84	307.88	69.00	
2025-01-12 01:42:33.08	305.91	69.17	
2025-01-12 01:42:34.32	303.92	69.32	
2025-01-12 01:42:35.55	301.91	69.44	
2025-01-12 01:42:36.78	299.87	69.54	
2025-01-12 01:42:38.03	297.79	69.62	
2025-01-12 01:42:39.26	295.72	69.67	
2025-01-12 01:42:40.49	293.64	69.70	
2025-01-12 01:42:41.72	291.57	69.70	
2025-01-12 01:42:42.95	289.49	69.67	
2025-01-12 01:42:44.19	287.40	69.63	
2025-01-12 01:42:45.43	285.33	69.55	
2025-01-12 01:42:46.66	283.29	69.46	
2025-01-12 01:42:47.90	281.26	69.33	
2025-01-12 01:42:49.13	279.28	69.19	
2025-01-12 01:42:50.37	277.31	69.02	
2025-01-12 01:42:51.60	275.39	68.83	
2025-01-12 01:42:52.84	273.49	68.62	
2025-01-12 01:42:54.07	271.65	68.39	
2025-01-12 01:42:55.30	269.86	68.14	
2025-01-12 01:42:56.54	268.10	67.87	
2025-01-12 01:42:57.77	266.40	67.58	
2025-01-12 01:42:59.00	264.75	67.28	
2025-01-12 01:43:00.23	263.14	66.96	
2025-01-12 01:43:01.47	261.57	66.62	
2025-01-12 01:43:02.69	260.08	66.28	
2025-01-12 01:43:03.92	258.62	65.92	
2025-01-12 01:43:05.15	257.22	65.54	
2025-01-12 01:43:06.39	255.84	65.16	
2025-01-12 01:43:07.62	254.53	64.76	
2025-01-12 01:43:08.85	253.26	64.36	
2025-01-12 01:43:10.10	252.02	63.94	
2025-01-12 01:43:11.34	250.83	63.52	
2025-01-12 01:43:12.58	249.68	63.09	
2025-01-12 01:43:13.82	248.58	62.65	
2025-01-12 01:43:15.05	247.52	62.22	
2025-01-12 01:43:16.28	246.50	61.77	
2025-01-12 01:43:17.51	245.52	61.32	
2025-01-12 01:43:18.74	244.57	60.87	
2025-01-12 01:43:19.98	243.65	60.41	
2025-01-12 01:43:21.21	242.77	59.95	
2025-01-12 01:43:22.45	241.91	59.49	
2025-01-12 01:43:23.68	241.09	59.03	
2025-01-12 01:43:24.91	240.30	58.56	
2025-01-12 01:43:26.14	239.54	58.10	
2025-01-12 01:43:27.39	238.79	57.62	
2025-01-12 01:43:28.63	238.07	57.15	
2025-01-12 01:43:29.85	237.39	56.69	
2025-01-12 01:43:31.08	236.73	56.22	
2025-01-12 01:43:32.33	236.08	55.75	
2025-01-12 01:43:33.56	235.45	55.28	
2025-01-12 01:43:34.80	234.85	54.82	
2025-01-12 01:43:36.03	234.27	54.35	
2025-01-12 01:43:37.26	233.71	53.89	
2025-01-12 01:43:38.51	233.15	53.42	
2025-01-12 01:43:39.74	232.63	52.96	
2025-01-12 01:43:40.96	232.12	52.51	
2025-01-12 01:43:42.20	231.62	52.05	
2025-01-12 01:43:43.43	231.14	51.60	
2025-01-12 01:43:44.66	230.68	51.15	
2025-01-12 01:43:45.89	230.23	50.70	
2025-01-12 01:43:47.13	229.79	50.26	
2025-01-12 01:43:48.36	229.36	49.81	
2025-01-12 01:43:49.59	228.95	49.37	
2025-01-12 01:43:50.82	228.55	48.94	
2025-01-12 01:43:52.07	228.15	48.50	
2025-01-12 01:43:53.30	227.78	48.07	
2025-01-12 01:43:54.53	227.41	47.64	
2025-01-12 01:43:55.76	227.05	47.22	
2025-01-12 01:43:56.99	226.70	46.80	
2025-01-12 01:43:58.22	226.37	46.38	
2025-01-12 01:43:59.46	226.03	45.96	
2025-01-12 01:44:00.69	225.71	45.55	
2025-01-12 01:44:01.92	225.40	45.14	
2025-01-12 01:44:03.15	225.10	44.74	
2025-01-12 01:44:04.40	224.80	44.33	
2025-01-12 01:44:05.63	224.51	43.94	
2025-01-12 01:44:06.86	224.23	43.54	
2025-01-12 01:44:08.09	223.95	43.15	
2025-01-12 01:44:09.32	223.69	42.77	
2025-01-12 01:44:10.56	223.42	42.38	
2025-01-12 01:44:11.79	223.17	42.00	
2025-01-12 01:44:13.02	222.92	41.62	
2025-01-12 01:44:14.25	222.68	41.25	
2025-01-12 01:44:15.48	222.44	40.88	
2025-01-12 01:44:16.71	222.21	40.51	
2025-01-12 01:44:17.96	221.98	40.15	
2025-01-12 01:44:19.20	221.76	39.78	
2025-01-12 01:44:20.45	221.54	39.42	
2025-01-12 01:44:21.68	221.32	39.07	
2025-01-12 01:44:22.91	221.12	38.72	
2025-01-12 01:44:24.15	220.91	38.37	
2025-01-12 01:44:25.38	220.72	38.03	
2025-01-12 01:44:26.61	220.52	37.69	
2025-01-12 01:44:27.84	220.33	37.35	
2025-01-12 01:44:29.07	220.15	37.02	
2025-01-12 01:44:30.30	219.97	36.69	
2025-01-12 01:44:31.53	219.79	36.36	
2025-01-12 01:44:32.77	219.62	36.04	
2025-01-12 01:44:34.01	219.44	35.72	
2025-01-12 01:44:35.24	219.28	35.40	
2025-01-12 01:44:36.49	219.11	35.08	
2025-01-12 01:44:37.72	218.95	34.77	
2025-01-12 01:44:38.95	218.79	34.46	
2025-01-12 01:44:40.18	218.64	34.16	
2025-01-12 01:44:41.42	218.49	33.85	
2025-01-12 01:44:42.65	218.34	33.55	
2025-01-12 01:44:43.88	218.19	33.25	
2025-01-12 01:44:45.11	218.05	32.96	
2025-01-12 01:44:46.35	217.91	32.67	
2025-01-12 01:44:47.58	217.77	32.38	
2025-01-12 01:44:48.81	217.64	32.09	
2025-01-12 01:44:50.05	217.50	31.81	
2025-01-12 01:44:51.29	217.37	31.53	
2025-01-12 01:44:52.53	217.24	31.25	
2025-01-12 01:44:53.76	217.12	30.97	
2025-01-12 01:44:54.99	217.00	30.70	
2025-01-12 01:44:56.23	216.87	30.43	
2025-01-12 01:44:57.46	216.76	30.16	
2025-01-12 01:44:58.69	216.64	29.90	
2025-01-12 01:44:59.92	216.52	29.64	
2025-01-12 01:45:01.15	216.41	29.38	
2025-01-12 01:45:02.38	216.30	29.12	
2025-01-12 01:45:03.62	216.19	28.86	
2025-01-12 01:45:04.85	216.08	28.61	
2025-01-12 01:45:06.08	215.98	28.36	
2025-01-12 01:45:07.32	215.87	28.11	
2025-01-12 01:45:08.56	215.77	27.86	
2025-01-12 01:45:09.79	215.67	27.62	
2025-01-12 01:45:11.02	215.57	27.38	
2025-01-12 01:45:12.25	215.48	27.14	
2025-01-12 01:45:13.48	215.38	26.90	
2025-01-12 01:45:14.72	215.29	26.67	
2025-01-12 01:45:15.95	215.19	26.44	
2025-01-12 01:45:17.18	215.10	26.20	
2025-01-12 01:45:18.41	215.01	25.98	
2025-01-12 01:45:19.64	214.92	25.75	
2025-01-12 01:45:20.87	214.84	25.53	
2025-01-12 01:45:22.10	214.75	25.30	
2025-01-12 01:45:23.33	214.67	25.08	
2025-01-12 01:45:24.56	214.58	24.86	
2025-01-12 01:45:25.79	214.50	24.65	
2025-01-12 01:45:27.03	214.42	24.43	
2025-01-12 01:45:28.26	214.34	24.22	
2025-01-12 01:45:29.50	214.26	24.00	
2025-01-12 01:45:30.73	214.19	23.79	
2025-01-12 01:45:31.97	214.11	23.58	
2025-01-12 01:45:33.20	214.03	23.38	
2025-01-12 01:45:34.43	213.96	23.17	
2025-01-12 01:45:35.66	213.89	22.97	
2025-01-12 01:45:36.91	213.82	22.77	
2025-01-12 01:45:38.15	213.74	22.57	
2025-01-12 01:45:39.39	213.67	22.37	
2025-01-12 01:45:40.62	213.61	22.17	
2025-01-12 01:45:41.86	213.54	21.98	
2025-01-12 01:45:43.09	213.47	21.78	
2025-01-12 01:45:44.32	213.40	21.59	
2025-01-12 01:45:45.55	213.34	21.40	
2025-01-12 01:45:46.78	213.27	21.21	
2025-01-12 01:45:48.01	213.21	21.03	
2025-01-12 01:45:49.24	213.15	20.84	
2025-01-12 01:45:50.49	213.09	20.65	
2025-01-12 01:45:51.72	213.03	20.47	
2025-01-12 01:45:52.96	212.96	20.29	
2025-01-12 01:45:54.19	212.91	20.11	
2025-01-12 01:45:55.43	212.85	19.93	
2025-01-12 01:45:56.66	212.79	19.75	
2025-01-12 01:45:57.89	212.73	19.58	
2025-01-12 01:45:59.12	212.68	19.40	
2025-01-12 01:46:00.35	212.62	19.23	
2025-01-12 01:46:01.58	212.56	19.06	
2025-01-12 01:46:02.81	212.51	18.89	
2025-01-12 01:46:04.04	212.46	18.72	
2025-01-12 01:46:05.27	212.40	18.55	
2025-01-12 01:46:06.51	212.35	18.38	
2025-01-12 01:46:07.74	212.30	18.22	
2025-01-12 01:46:08.97	212.25	18.05	
2025-01-12 01:46:10.20	212.20	17.89	
2025-01-12 01:46:11.45	212.15	17.72	
2025-01-12 01:46:12.68	212.10	17.56	
2025-01-12 01:46:13.91	212.05	17.40	
2025-01-12 01:46:15.14	212.00	17.24	
2025-01-12 01:46:16.38	211.95	17.09	
2025-01-12 01:46:17.61	211.91	16.93	
2025-01-12 01:46:18.84	211.86	16.77	
2025-01-12 01:46:20.07	211.82	16.62	
2025-01-12 01:46:21.29	211.77	16.47	
2025-01-12 01:46:22.52	211.73	16.32	
2025-01-12 01:46:23.76	211.68	16.16	
2025-01-12 01:46:24.99	211.64	16.01	
2025-01-12 01:46:26.22	211.60	15.86	
2025-01-12 01:46:27.45	211.55	15.72	
2025-01-12 01:46:28.69	211.51	15.57	
2025-01-12 01:46:29.92	211.47	15.42	
2025-01-12 01:46:31.15	211.43	15.28	
2025-01-12 01:46:32.38	211.39	15.13	
2025-01-12 01:46:33.61	211.35	14.99	
2025-01-12 01:46:34.84	211.31	14.84	
2025-01-12 01:46:36.08	211.27	14.70	
2025-01-12 01:46:37.31	211.23	14.56	
2025-01-12 01:46:38.54	211.19	14.42	
2025-01-12 01:46:39.78	211.15	14.28	
2025-01-12 01:46:41.01	211.11	14.14	
2025-01-12 01:46:42.24	211.08	14.01	
2025-01-12 01:46:43.48	211.04	13.87	
2025-01-12 01:46:44.70	211.00	13.73	
2025-01-12 01:46:45.93	210.97	13.60	
2025-01-12 01:46:47.17	210.93	13.46	
2025-01-12 01:46:48.40	210.89	13.33	
2025-01-12 01:46:49.63	210.86	13.20	
2025-01-12 01:46:50.87	210.82	13.07	
2025-01-12 01:46:52.11	210.79	12.93	
2025-01-12 01:46:53.34	210.76	12.80	
2025-01-12 01:46:54.57	210.72	12.67	
2025-01-12 01:46:55.80	210.69	12.55	
2025-01-12 01:46:57.04	210.66	12.42	
2025-01-12 01:46:58.27	210.62	12.29	
2025-01-12 01:46:59.50	210.59	12.16	
2025-01-12 01:47:00.74	210.56	12.04	
2025-01-12 01:47:01.97	210.53	11.91	
2025-01-12 01:47:03.21	210.50	11.79	
2025-01-12 01:47:04.44	210.47	11.66	
2025-01-12 01:47:05.67	210.43	11.54	
2025-01-12 01:47:06.90	210.40	11.42	
2025-01-12 01:47:08.16	210.37	11.29	
2025-01-12 01:47:09.38	210.34	11.17	
2025-01-12 01:47:10.61	210.31	11.05	
2025-01-12 01:47:11.86	210.29	10.93	
2025-01-12 01:47:13.09	210.26	10.81	
2025-01-12 01:47:14.32	210.23	10.69	
2025-01-12 01:47:15.55	210.20	10.58	
2025-01-12 01:47:16.80	210.17	10.46	
2025-01-12 01:47:18.03	210.14	10.34	
2025-01-12 01:47:19.27	210.12	10.22	
2025-01-12 01:47:20.50	210.09	10.11	
2025-01-12 01:47:21.73	210.06	9.99	
2025-01-12 01:47:22.96	210.03	9.88	
2025-01-12 01:47:24.19	210.01	9.77	
2025-01-12 01:47:25.43	209.98	9.65	
2025-01-12 01:47:26.68	209.96	9.54	
2025-01-12 01:47:27.92	209.93	9.43	
2025-01-12 01:47:29.15	209.90	9.31	
2025-01-12 01:47:30.38	209.88	9.20	
2025-01-12 01:47:31.61	209.85	9.09	
2025-01-12 01:47:32.84	209.83	8.98	
2025-01-12 01:47:34.08	209.80	8.87	
2025-01-12 01:47:35.31	209.78	8.77	
2025-01-12 01:47:36.54	209.76	8.66	
2025-01-12 01:47:37.78	209.73	8.55	
2025-01-12 01:47:39.01	209.71	8.44	
2025-01-12 01:47:40.24	209.69	8.34	
2025-01-12 01:47:41.48	209.66	8.23	
2025-01-12 01:47:42.70	209.64	8.12	
2025-01-12 01:47:43.95	209.62	8.02	
2025-01-12 01:47:45.18	209.59	7.91	
2025-01-12 01:47:46.41	209.57	7.81	
2025-01-12 01:47:47.65	209.55	7.70	
2025-01-12 01:47:48.88	209.53	7.60	
2025-01-12 01:47:50.11	209.50	7.50	
2025-01-12 01:47:51.35	209.48	7.39	
2025-01-12 01:47:52.59	209.46	7.29	
2025-01-12 01:47:53.84	209.44	7.19	
2025-01-12 01:47:55.07	209.42	7.09	
2025-01-12 01:47:56.30	209.40	6.99	
2025-01-12 01:47:57.54	209.38	6.89	
2025-01-12 01:47:58.77	209.36	6.79	
2025-01-12 01:48:00.00	209.34	6.69	
2025-01-12 01:48:01.23	209.32	6.59	
2025-01-12 01:48:02.47	209.30	6.49	
2025-01-12 01:48:03.69	209.28	6.39	
2025-01-12 01:48:04.93	209.26	6.29	
2025-01-12 01:48:06.16	209.24	6.20	
2025-01-12 01:48:07.39	209.22	6.10	
2025-01-12 01:48:08.62	209.20	6.00	
2025-01-12 01:48:09.86	209.18	5.91	
2025-01-12 01:48:11.09	209.16	5.81	
2025-01-12 01:48:12.32	209.14	5.72	
2025-01-12 01:48:13.56	209.12	5.62	
2025-01-12 01:48:14.81	209.11	5.52	
2025-01-12 01:48:16.04	209.09	5.43	
2025-01-12 01:48:17.28	209.07	5.34	
2025-01-12 01:48:18.51	209.05	5.24	
2025-01-12 01:48:19.74	209.03	5.15	
2025-01-12 01:48:20.97	209.02	5.06	
2025-01-12 01:48:22.20	209.00	4.97	
2025-01-12 01:48:23.43	208.98	4.87	
2025-01-12 01:48:24.66	208.96	4.78	
2025-01-12 01:48:25.89	208.95	4.69	
2025-01-12 01:48:27.13	208.93	4.60	
2025-01-12 01:48:28.36	208.91	4.51	
2025-01-12 01:48:29.59	208.90	4.42	
2025-01-12 01:48:30.83	208.88	4.33	
2025-01-12 01:48:32.08	208.86	4.24	
2025-01-12 01:48:33.31	208.85	4.15	
2025-01-12 01:48:34.55	208.83	4.06	

#Closed at: 2025-01-12 01:48:35