passes_logs/2025/01/12/SPB_Silybum_02/SPB_Silybum_02__20250112_185237_TERRA_rec.log

#Pass ID: 20250112_185237_TERRA
#Satellite: TERRA
#Configuration: TERRA
#Start time: 2025-01-12 18:52:37

#Version: 2.0.20230423
#Station: SPB_Silybum_02
#Location: 30.233357 lon 59.946436 lat
#TLE: 1 25994U 99068A   25011.77277381  .00000769  00000+0  16824-3 0  9997
#TLE: 2 25994  98.0222  74.9057 0003526  79.1717  32.7508 14.60388914333608

#Time	Az	El	Level	Level2	SNR	BER	Gain	Gain2
2025-01-12 18:52:39.93	172.32	4.19	
2025-01-12 18:52:41.16	172.35	4.28	
2025-01-12 18:52:42.41	172.38	4.37	
2025-01-12 18:52:43.64	172.41	4.46	
2025-01-12 18:52:44.87	172.44	4.55	
2025-01-12 18:52:46.10	172.47	4.64	
2025-01-12 18:52:47.35	172.50	4.73	
2025-01-12 18:52:48.58	172.53	4.82	
2025-01-12 18:52:49.81	172.56	4.91	
2025-01-12 18:52:51.05	172.59	5.00	
2025-01-12 18:52:52.29	172.63	5.10	
2025-01-12 18:52:53.52	172.66	5.19	
2025-01-12 18:52:54.75	172.69	5.28	
2025-01-12 18:52:55.99	172.72	5.37	
2025-01-12 18:52:57.22	172.75	5.47	
2025-01-12 18:52:58.46	172.79	5.56	
2025-01-12 18:52:59.71	172.82	5.66	
2025-01-12 18:53:00.94	172.85	5.75	
2025-01-12 18:53:02.17	172.88	5.84	
2025-01-12 18:53:03.41	172.92	5.94	
2025-01-12 18:53:04.66	172.95	6.04	
2025-01-12 18:53:05.89	172.99	6.13	
2025-01-12 18:53:07.12	173.02	6.23	
2025-01-12 18:53:08.38	173.05	6.33	
2025-01-12 18:53:09.61	173.09	6.42	
2025-01-12 18:53:10.83	173.12	6.52	
2025-01-12 18:53:12.07	173.16	6.62	
2025-01-12 18:53:13.30	173.19	6.72	
2025-01-12 18:53:14.53	173.23	6.82	
2025-01-12 18:53:15.76	173.26	6.91	
2025-01-12 18:53:16.99	173.30	7.01	
2025-01-12 18:53:18.22	173.33	7.11	
2025-01-12 18:53:19.45	173.37	7.21	
2025-01-12 18:53:20.70	173.41	7.32	
2025-01-12 18:53:21.93	173.44	7.42	
2025-01-12 18:53:23.18	173.48	7.52	
2025-01-12 18:53:24.41	173.52	7.62	
2025-01-12 18:53:25.66	173.56	7.73	
2025-01-12 18:53:26.89	173.59	7.83	
2025-01-12 18:53:28.14	173.63	7.93	
2025-01-12 18:53:29.37	173.67	8.04	
2025-01-12 18:53:30.60	173.71	8.14	
2025-01-12 18:53:31.83	173.75	8.25	
2025-01-12 18:53:33.06	173.79	8.35	
2025-01-12 18:53:34.31	173.83	8.46	
2025-01-12 18:53:35.54	173.86	8.57	
2025-01-12 18:53:36.78	173.90	8.67	
2025-01-12 18:53:38.01	173.94	8.78	
2025-01-12 18:53:39.24	173.98	8.89	
2025-01-12 18:53:40.47	174.03	9.00	
2025-01-12 18:53:41.70	174.07	9.11	
2025-01-12 18:53:42.93	174.11	9.21	
2025-01-12 18:53:44.16	174.15	9.32	
2025-01-12 18:53:45.39	174.19	9.43	
2025-01-12 18:53:46.61	174.23	9.54	
2025-01-12 18:53:47.85	174.28	9.66	
2025-01-12 18:53:49.08	174.32	9.77	
2025-01-12 18:53:50.31	174.36	9.88	
2025-01-12 18:53:51.54	174.40	9.99	
2025-01-12 18:53:52.77	174.45	10.11	
2025-01-12 18:53:54.00	174.49	10.22	
2025-01-12 18:53:55.23	174.54	10.34	
2025-01-12 18:53:56.46	174.58	10.45	
2025-01-12 18:53:57.69	174.63	10.57	
2025-01-12 18:53:58.92	174.67	10.68	
2025-01-12 18:54:00.15	174.72	10.80	
2025-01-12 18:54:01.38	174.76	10.92	
2025-01-12 18:54:02.61	174.81	11.04	
2025-01-12 18:54:03.85	174.86	11.16	
2025-01-12 18:54:05.08	174.91	11.28	
2025-01-12 18:54:06.31	174.95	11.40	
2025-01-12 18:54:07.54	175.00	11.52	
2025-01-12 18:54:08.77	175.05	11.64	
2025-01-12 18:54:10.01	175.10	11.76	
2025-01-12 18:54:11.25	175.15	11.89	
2025-01-12 18:54:12.48	175.20	12.01	
2025-01-12 18:54:13.71	175.25	12.14	
2025-01-12 18:54:14.94	175.30	12.26	
2025-01-12 18:54:16.17	175.35	12.39	
2025-01-12 18:54:17.40	175.40	12.51	
2025-01-12 18:54:18.63	175.45	12.64	
2025-01-12 18:54:19.86	175.50	12.77	
2025-01-12 18:54:21.11	175.56	12.90	
2025-01-12 18:54:22.34	175.61	13.03	
2025-01-12 18:54:23.57	175.66	13.16	
2025-01-12 18:54:24.81	175.72	13.29	
2025-01-12 18:54:26.04	175.77	13.42	
2025-01-12 18:54:27.26	175.83	13.55	
2025-01-12 18:54:28.49	175.88	13.68	
2025-01-12 18:54:29.72	175.94	13.82	
2025-01-12 18:54:30.96	176.00	13.95	
2025-01-12 18:54:32.19	176.05	14.09	
2025-01-12 18:54:33.43	176.11	14.23	
2025-01-12 18:54:34.67	176.17	14.37	
2025-01-12 18:54:35.90	176.23	14.50	
2025-01-12 18:54:37.13	176.29	14.64	
2025-01-12 18:54:38.38	176.35	14.78	
2025-01-12 18:54:39.62	176.41	14.93	
2025-01-12 18:54:40.88	176.47	15.07	
2025-01-12 18:54:42.10	176.53	15.21	
2025-01-12 18:54:43.34	176.60	15.36	
2025-01-12 18:54:44.57	176.66	15.50	
2025-01-12 18:54:45.80	176.72	15.65	
2025-01-12 18:54:47.03	176.79	15.79	
2025-01-12 18:54:48.26	176.85	15.94	
2025-01-12 18:54:49.49	176.92	16.09	
2025-01-12 18:54:50.72	176.98	16.24	
2025-01-12 18:54:51.95	177.05	16.39	
2025-01-12 18:54:53.20	177.12	16.54	
2025-01-12 18:54:54.43	177.18	16.69	
2025-01-12 18:54:55.66	177.25	16.84	
2025-01-12 18:54:56.90	177.32	17.00	
2025-01-12 18:54:58.14	177.39	17.15	
2025-01-12 18:54:59.38	177.46	17.31	
2025-01-12 18:55:00.63	177.54	17.47	
2025-01-12 18:55:01.86	177.61	17.63	
2025-01-12 18:55:03.09	177.68	17.79	
2025-01-12 18:55:04.32	177.75	17.95	
2025-01-12 18:55:05.55	177.83	18.11	
2025-01-12 18:55:06.78	177.90	18.27	
2025-01-12 18:55:08.01	177.98	18.44	
2025-01-12 18:55:09.24	178.06	18.60	
2025-01-12 18:55:10.47	178.13	18.77	
2025-01-12 18:55:11.72	178.21	18.94	
2025-01-12 18:55:12.97	178.30	19.11	
2025-01-12 18:55:14.20	178.38	19.28	
2025-01-12 18:55:15.43	178.46	19.45	
2025-01-12 18:55:16.67	178.54	19.62	
2025-01-12 18:55:17.92	178.62	19.80	
2025-01-12 18:55:19.16	178.71	19.98	
2025-01-12 18:55:20.39	178.79	20.15	
2025-01-12 18:55:21.62	178.88	20.33	
2025-01-12 18:55:22.85	178.97	20.51	
2025-01-12 18:55:24.08	179.05	20.69	
2025-01-12 18:55:25.31	179.14	20.87	
2025-01-12 18:55:26.55	179.23	21.05	
2025-01-12 18:55:27.79	179.33	21.24	
2025-01-12 18:55:29.02	179.42	21.42	
2025-01-12 18:55:30.25	179.51	21.61	
2025-01-12 18:55:31.48	179.61	21.80	
2025-01-12 18:55:32.72	179.70	21.99	
2025-01-12 18:55:33.95	179.80	22.18	
2025-01-12 18:55:35.18	179.90	22.38	
2025-01-12 18:55:36.43	180.00	22.57	
2025-01-12 18:55:37.67	180.10	22.77	
2025-01-12 18:55:38.89	180.20	22.97	
2025-01-12 18:55:40.13	180.30	23.17	
2025-01-12 18:55:41.38	180.41	23.37	
2025-01-12 18:55:42.61	180.52	23.57	
2025-01-12 18:55:43.84	180.62	23.78	
2025-01-12 18:55:45.07	180.73	23.98	
2025-01-12 18:55:46.30	180.84	24.19	
2025-01-12 18:55:47.53	180.95	24.40	
2025-01-12 18:55:48.76	181.07	24.61	
2025-01-12 18:55:49.99	181.18	24.82	
2025-01-12 18:55:51.24	181.30	25.04	
2025-01-12 18:55:52.46	181.42	25.26	
2025-01-12 18:55:53.69	181.54	25.47	
2025-01-12 18:55:54.92	181.66	25.69	
2025-01-12 18:55:56.15	181.78	25.91	
2025-01-12 18:55:57.38	181.90	26.14	
2025-01-12 18:55:58.63	182.03	26.37	
2025-01-12 18:55:59.86	182.16	26.59	
2025-01-12 18:56:01.09	182.29	26.82	
2025-01-12 18:56:02.33	182.42	27.06	
2025-01-12 18:56:03.57	182.56	27.29	
2025-01-12 18:56:04.82	182.70	27.53	
2025-01-12 18:56:06.05	182.83	27.77	
2025-01-12 18:56:07.28	182.97	28.01	
2025-01-12 18:56:08.51	183.12	28.25	
2025-01-12 18:56:09.76	183.26	28.49	
2025-01-12 18:56:10.99	183.41	28.74	
2025-01-12 18:56:12.22	183.56	28.99	
2025-01-12 18:56:13.45	183.71	29.24	
2025-01-12 18:56:14.69	183.86	29.49	
2025-01-12 18:56:15.92	184.02	29.75	
2025-01-12 18:56:17.15	184.18	30.00	
2025-01-12 18:56:18.39	184.34	30.26	
2025-01-12 18:56:19.64	184.50	30.53	
2025-01-12 18:56:20.89	184.67	30.80	
2025-01-12 18:56:22.13	184.84	31.06	
2025-01-12 18:56:23.36	185.02	31.33	
2025-01-12 18:56:24.60	185.19	31.60	
2025-01-12 18:56:25.85	185.37	31.88	
2025-01-12 18:56:27.08	185.55	32.16	
2025-01-12 18:56:28.31	185.74	32.43	
2025-01-12 18:56:29.54	185.92	32.71	
2025-01-12 18:56:30.79	186.12	33.00	
2025-01-12 18:56:32.04	186.31	33.29	
2025-01-12 18:56:33.27	186.51	33.58	
2025-01-12 18:56:34.49	186.71	33.87	
2025-01-12 18:56:35.72	186.91	34.16	
2025-01-12 18:56:36.95	187.12	34.46	
2025-01-12 18:56:38.18	187.33	34.75	
2025-01-12 18:56:39.42	187.55	35.06	
2025-01-12 18:56:40.65	187.77	35.36	
2025-01-12 18:56:41.90	188.00	35.67	
2025-01-12 18:56:43.13	188.23	35.98	
2025-01-12 18:56:44.36	188.46	36.29	
2025-01-12 18:56:45.59	188.70	36.60	
2025-01-12 18:56:46.82	188.94	36.92	
2025-01-12 18:56:48.06	189.19	37.24	
2025-01-12 18:56:49.29	189.44	37.56	
2025-01-12 18:56:50.53	189.70	37.89	
2025-01-12 18:56:51.76	189.96	38.22	
2025-01-12 18:56:52.99	190.23	38.55	
2025-01-12 18:56:54.22	190.50	38.88	
2025-01-12 18:56:55.46	190.78	39.22	
2025-01-12 18:56:56.69	191.06	39.56	
2025-01-12 18:56:57.92	191.35	39.90	
2025-01-12 18:56:59.15	191.65	40.24	
2025-01-12 18:57:00.37	191.95	40.59	
2025-01-12 18:57:01.61	192.26	40.94	
2025-01-12 18:57:02.84	192.58	41.29	
2025-01-12 18:57:04.07	192.90	41.65	
2025-01-12 18:57:05.30	193.23	42.00	
2025-01-12 18:57:06.53	193.57	42.36	
2025-01-12 18:57:07.77	193.92	42.73	
2025-01-12 18:57:09.00	194.27	43.09	
2025-01-12 18:57:10.23	194.63	43.46	
2025-01-12 18:57:11.46	195.00	43.83	
2025-01-12 18:57:12.70	195.38	44.21	
2025-01-12 18:57:13.95	195.77	44.59	
2025-01-12 18:57:15.18	196.17	44.96	
2025-01-12 18:57:16.41	196.58	45.34	
2025-01-12 18:57:17.64	196.99	45.73	
2025-01-12 18:57:18.87	197.42	46.11	
2025-01-12 18:57:20.10	197.86	46.49	
2025-01-12 18:57:21.34	198.31	46.89	
2025-01-12 18:57:22.57	198.77	47.28	
2025-01-12 18:57:23.80	199.24	47.67	
2025-01-12 18:57:25.03	199.72	48.06	
2025-01-12 18:57:26.26	200.22	48.45	
2025-01-12 18:57:27.51	200.74	48.86	
2025-01-12 18:57:28.74	201.26	49.25	
2025-01-12 18:57:29.97	201.79	49.65	
2025-01-12 18:57:31.20	202.34	50.05	
2025-01-12 18:57:32.43	202.91	50.45	
2025-01-12 18:57:33.66	203.49	50.85	
2025-01-12 18:57:34.89	204.08	51.26	
2025-01-12 18:57:36.12	204.69	51.66	
2025-01-12 18:57:37.35	205.32	52.06	
2025-01-12 18:57:38.59	205.97	52.47	
2025-01-12 18:57:39.82	206.64	52.87	
2025-01-12 18:57:41.04	207.31	53.27	
2025-01-12 18:57:42.27	208.01	53.67	
2025-01-12 18:57:43.50	208.73	54.06	
2025-01-12 18:57:44.73	209.47	54.46	
2025-01-12 18:57:45.96	210.23	54.86	
2025-01-12 18:57:47.20	211.02	55.26	
2025-01-12 18:57:48.43	211.83	55.65	
2025-01-12 18:57:49.66	212.66	56.04	
2025-01-12 18:57:50.89	213.51	56.42	
2025-01-12 18:57:52.12	214.38	56.81	
2025-01-12 18:57:53.36	215.29	57.19	
2025-01-12 18:57:54.61	216.23	57.57	
2025-01-12 18:57:55.84	217.18	57.94	
2025-01-12 18:57:57.06	218.15	58.30	
2025-01-12 18:57:58.29	219.15	58.66	
2025-01-12 18:57:59.53	220.19	59.02	
2025-01-12 18:58:00.75	221.24	59.36	
2025-01-12 18:58:01.99	222.34	59.70	
2025-01-12 18:58:03.21	223.45	60.03	
2025-01-12 18:58:04.44	224.59	60.36	
2025-01-12 18:58:05.69	225.78	60.68	
2025-01-12 18:58:06.95	227.02	60.99	
2025-01-12 18:58:08.18	228.25	61.29	
2025-01-12 18:58:09.41	229.51	61.57	
2025-01-12 18:58:10.67	230.84	61.85	
2025-01-12 18:58:11.91	232.17	62.12	
2025-01-12 18:58:13.14	233.52	62.37	
2025-01-12 18:58:14.37	234.89	62.61	
2025-01-12 18:58:15.60	236.29	62.83	
2025-01-12 18:58:16.83	237.72	63.04	
2025-01-12 18:58:18.08	239.20	63.24	
2025-01-12 18:58:19.32	240.69	63.43	
2025-01-12 18:58:20.55	242.19	63.59	
2025-01-12 18:58:21.78	243.71	63.75	
2025-01-12 18:58:23.01	245.24	63.88	
2025-01-12 18:58:24.24	246.80	64.00	
2025-01-12 18:58:25.47	248.37	64.10	
2025-01-12 18:58:26.70	249.95	64.18	
2025-01-12 18:58:27.93	251.54	64.25	
2025-01-12 18:58:29.16	253.14	64.30	
2025-01-12 18:58:30.39	254.75	64.33	
2025-01-12 18:58:31.62	256.36	64.34	
2025-01-12 18:58:32.86	257.98	64.34	
2025-01-12 18:58:34.09	259.59	64.32	
2025-01-12 18:58:35.32	261.19	64.28	
2025-01-12 18:58:36.56	262.80	64.22	
2025-01-12 18:58:37.80	264.40	64.14	
2025-01-12 18:58:39.03	265.98	64.05	
2025-01-12 18:58:40.26	267.54	63.94	
2025-01-12 18:58:41.49	269.08	63.81	
2025-01-12 18:58:42.74	270.63	63.67	
2025-01-12 18:58:43.97	272.14	63.51	
2025-01-12 18:58:45.23	273.66	63.33	
2025-01-12 18:58:46.46	275.13	63.14	
2025-01-12 18:58:47.69	276.57	62.93	
2025-01-12 18:58:48.92	277.98	62.72	
2025-01-12 18:58:50.15	279.37	62.48	
2025-01-12 18:58:51.39	280.74	62.24	
2025-01-12 18:58:52.62	282.07	61.98	
2025-01-12 18:58:53.85	283.37	61.71	
2025-01-12 18:58:55.08	284.65	61.43	
2025-01-12 18:58:56.31	285.89	61.14	
2025-01-12 18:58:57.54	287.11	60.84	
2025-01-12 18:58:58.77	288.30	60.53	
2025-01-12 18:59:00.01	289.46	60.21	
2025-01-12 18:59:01.25	290.60	59.88	
2025-01-12 18:59:02.48	291.70	59.54	
2025-01-12 18:59:03.71	292.78	59.20	
2025-01-12 18:59:04.94	293.82	58.85	
2025-01-12 18:59:06.17	294.84	58.50	
2025-01-12 18:59:07.40	295.82	58.14	
2025-01-12 18:59:08.63	296.79	57.77	
2025-01-12 18:59:09.86	297.72	57.40	
2025-01-12 18:59:11.09	298.64	57.02	
2025-01-12 18:59:12.32	299.52	56.64	
2025-01-12 18:59:13.56	300.39	56.26	
2025-01-12 18:59:14.79	301.23	55.87	
2025-01-12 18:59:16.02	302.05	55.48	
2025-01-12 18:59:17.25	302.84	55.09	
2025-01-12 18:59:18.50	303.62	54.69	
2025-01-12 18:59:19.73	304.37	54.29	
2025-01-12 18:59:20.96	305.10	53.90	
2025-01-12 18:59:22.22	305.83	53.49	
2025-01-12 18:59:23.46	306.52	53.09	
2025-01-12 18:59:24.70	307.20	52.68	
2025-01-12 18:59:25.93	307.85	52.28	
2025-01-12 18:59:27.16	308.49	51.88	
2025-01-12 18:59:28.39	309.11	51.48	
2025-01-12 18:59:29.62	309.71	51.08	
2025-01-12 18:59:30.85	310.30	50.68	
2025-01-12 18:59:32.09	310.87	50.28	
2025-01-12 18:59:33.32	311.43	49.88	
2025-01-12 18:59:34.55	311.97	49.48	
2025-01-12 18:59:35.78	312.50	49.09	
2025-01-12 18:59:37.01	313.01	48.69	
2025-01-12 18:59:38.24	313.51	48.30	
2025-01-12 18:59:39.49	314.01	47.90	
2025-01-12 18:59:40.72	314.48	47.51	
2025-01-12 18:59:41.95	314.95	47.12	
2025-01-12 18:59:43.18	315.40	46.73	
2025-01-12 18:59:44.41	315.84	46.35	
2025-01-12 18:59:45.65	316.28	45.96	
2025-01-12 18:59:46.89	316.70	45.58	
2025-01-12 18:59:48.13	317.12	45.19	
2025-01-12 18:59:49.35	317.51	44.82	
2025-01-12 18:59:50.58	317.90	44.45	
2025-01-12 18:59:51.82	318.29	44.07	
2025-01-12 18:59:53.05	318.66	43.70	
2025-01-12 18:59:54.28	319.03	43.33	
2025-01-12 18:59:55.51	319.39	42.97	
2025-01-12 18:59:56.74	319.73	42.61	
2025-01-12 18:59:57.99	320.08	42.24	
2025-01-12 18:59:59.23	320.42	41.88	
2025-01-12 19:00:00.46	320.74	41.53	
2025-01-12 19:00:01.70	321.06	41.17	
2025-01-12 19:00:02.93	321.38	40.83	
2025-01-12 19:00:04.16	321.68	40.48	
2025-01-12 19:00:05.40	321.98	40.13	
2025-01-12 19:00:06.64	322.28	39.79	
2025-01-12 19:00:07.87	322.57	39.45	
2025-01-12 19:00:09.10	322.85	39.12	
2025-01-12 19:00:10.33	323.12	38.78	
2025-01-12 19:00:11.56	323.39	38.45	
2025-01-12 19:00:12.79	323.65	38.13	
2025-01-12 19:00:14.02	323.91	37.80	
2025-01-12 19:00:15.25	324.17	37.48	
2025-01-12 19:00:16.48	324.42	37.16	
2025-01-12 19:00:17.73	324.66	36.84	
2025-01-12 19:00:18.96	324.90	36.52	
2025-01-12 19:00:20.20	325.14	36.21	
2025-01-12 19:00:21.43	325.37	35.90	
2025-01-12 19:00:22.66	325.60	35.60	
2025-01-12 19:00:23.89	325.82	35.29	
2025-01-12 19:00:25.14	326.04	34.99	
2025-01-12 19:00:26.37	326.25	34.69	
2025-01-12 19:00:27.60	326.46	34.39	
2025-01-12 19:00:28.86	326.67	34.10	
2025-01-12 19:00:30.09	326.88	33.80	
2025-01-12 19:00:31.32	327.07	33.52	
2025-01-12 19:00:32.56	327.27	33.23	
2025-01-12 19:00:33.79	327.46	32.95	
2025-01-12 19:00:35.02	327.65	32.67	
2025-01-12 19:00:36.25	327.84	32.39	
2025-01-12 19:00:37.48	328.02	32.11	
2025-01-12 19:00:38.72	328.20	31.84	
2025-01-12 19:00:39.95	328.38	31.57	
2025-01-12 19:00:41.18	328.55	31.30	
2025-01-12 19:00:42.41	328.72	31.04	
2025-01-12 19:00:43.65	328.89	30.77	
2025-01-12 19:00:44.89	329.06	30.51	
2025-01-12 19:00:46.12	329.22	30.25	
2025-01-12 19:00:47.36	329.38	29.99	
2025-01-12 19:00:48.59	329.54	29.74	
2025-01-12 19:00:49.82	329.69	29.48	
2025-01-12 19:00:51.06	329.84	29.23	
2025-01-12 19:00:52.29	329.99	28.98	
2025-01-12 19:00:53.51	330.14	28.74	
2025-01-12 19:00:54.74	330.29	28.50	
2025-01-12 19:00:55.97	330.43	28.26	
2025-01-12 19:00:57.20	330.57	28.02	
2025-01-12 19:00:58.43	330.71	27.78	
2025-01-12 19:00:59.66	330.85	27.54	
2025-01-12 19:01:00.91	330.99	27.31	
2025-01-12 19:01:02.14	331.12	27.08	
2025-01-12 19:01:03.37	331.25	26.85	
2025-01-12 19:01:04.60	331.38	26.62	
2025-01-12 19:01:05.83	331.51	26.39	
2025-01-12 19:01:07.07	331.63	26.17	
2025-01-12 19:01:08.31	331.76	25.94	
2025-01-12 19:01:09.54	331.88	25.73	
2025-01-12 19:01:10.78	332.00	25.51	
2025-01-12 19:01:12.01	332.12	25.29	
2025-01-12 19:01:13.25	332.24	25.07	
2025-01-12 19:01:14.48	332.36	24.86	
2025-01-12 19:01:15.72	332.47	24.65	
2025-01-12 19:01:16.96	332.58	24.44	
2025-01-12 19:01:18.20	332.70	24.23	
2025-01-12 19:01:19.43	332.81	24.02	
2025-01-12 19:01:20.66	332.91	23.82	
2025-01-12 19:01:21.89	333.02	23.62	
2025-01-12 19:01:23.14	333.13	23.41	
2025-01-12 19:01:24.37	333.23	23.21	
2025-01-12 19:01:25.61	333.34	23.01	
2025-01-12 19:01:26.84	333.44	22.82	
2025-01-12 19:01:28.07	333.54	22.62	
2025-01-12 19:01:29.30	333.64	22.43	
2025-01-12 19:01:30.55	333.74	22.24	
2025-01-12 19:01:31.79	333.84	22.04	
2025-01-12 19:01:33.02	333.93	21.86	
2025-01-12 19:01:34.25	334.03	21.67	
2025-01-12 19:01:35.48	334.12	21.48	
2025-01-12 19:01:36.72	334.21	21.30	
2025-01-12 19:01:37.95	334.30	21.11	
2025-01-12 19:01:39.18	334.39	20.93	
2025-01-12 19:01:40.42	334.48	20.75	
2025-01-12 19:01:41.65	334.57	20.57	
2025-01-12 19:01:42.88	334.66	20.39	
2025-01-12 19:01:44.12	334.75	20.22	
2025-01-12 19:01:45.38	334.83	20.04	
2025-01-12 19:01:46.61	334.92	19.86	
2025-01-12 19:01:47.84	335.00	19.69	
2025-01-12 19:01:49.07	335.08	19.52	
2025-01-12 19:01:50.30	335.16	19.35	
2025-01-12 19:01:51.53	335.24	19.18	
2025-01-12 19:01:52.77	335.32	19.01	
2025-01-12 19:01:54.00	335.40	18.85	
2025-01-12 19:01:55.23	335.48	18.68	
2025-01-12 19:01:56.46	335.56	18.52	
2025-01-12 19:01:57.69	335.63	18.36	
2025-01-12 19:01:58.92	335.71	18.20	
2025-01-12 19:02:00.15	335.78	18.04	
2025-01-12 19:02:01.38	335.86	17.88	
2025-01-12 19:02:02.61	335.93	17.72	
2025-01-12 19:02:03.85	336.00	17.56	
2025-01-12 19:02:05.08	336.08	17.40	
2025-01-12 19:02:06.31	336.15	17.25	
2025-01-12 19:02:07.54	336.22	17.09	
2025-01-12 19:02:08.77	336.29	16.94	
2025-01-12 19:02:10.02	336.36	16.79	
2025-01-12 19:02:11.25	336.43	16.64	
2025-01-12 19:02:12.48	336.49	16.49	
2025-01-12 19:02:13.72	336.56	16.34	
2025-01-12 19:02:14.97	336.63	16.19	
2025-01-12 19:02:16.20	336.69	16.04	
2025-01-12 19:02:17.43	336.76	15.89	
2025-01-12 19:02:18.66	336.82	15.75	
2025-01-12 19:02:19.90	336.89	15.60	
2025-01-12 19:02:21.13	336.95	15.46	
2025-01-12 19:02:22.36	337.01	15.32	
2025-01-12 19:02:23.60	337.08	15.17	
2025-01-12 19:02:24.83	337.14	15.03	
2025-01-12 19:02:26.05	337.20	14.89	
2025-01-12 19:02:27.29	337.26	14.75	
2025-01-12 19:02:28.52	337.32	14.62	
2025-01-12 19:02:29.75	337.38	14.48	
2025-01-12 19:02:30.98	337.44	14.34	
2025-01-12 19:02:32.21	337.49	14.21	
2025-01-12 19:02:33.44	337.55	14.07	
2025-01-12 19:02:34.67	337.61	13.94	
2025-01-12 19:02:35.90	337.66	13.81	
2025-01-12 19:02:37.13	337.72	13.67	
2025-01-12 19:02:38.37	337.78	13.54	
2025-01-12 19:02:39.60	337.83	13.41	
2025-01-12 19:02:40.85	337.89	13.28	
2025-01-12 19:02:42.08	337.94	13.15	
2025-01-12 19:02:43.31	338.00	13.02	
2025-01-12 19:02:44.54	338.05	12.89	
2025-01-12 19:02:45.77	338.10	12.76	
2025-01-12 19:02:47.00	338.15	12.64	
2025-01-12 19:02:48.23	338.21	12.51	
2025-01-12 19:02:49.47	338.26	12.39	
2025-01-12 19:02:50.71	338.31	12.26	
2025-01-12 19:02:51.96	338.36	12.14	
2025-01-12 19:02:53.19	338.41	12.01	
2025-01-12 19:02:54.42	338.46	11.89	
2025-01-12 19:02:55.65	338.51	11.77	
2025-01-12 19:02:56.89	338.56	11.65	
2025-01-12 19:02:58.13	338.61	11.53	
2025-01-12 19:02:59.37	338.66	11.41	
2025-01-12 19:03:00.60	338.71	11.29	
2025-01-12 19:03:01.83	338.76	11.17	
2025-01-12 19:03:03.07	338.80	11.05	
2025-01-12 19:03:04.31	338.85	10.93	
2025-01-12 19:03:05.56	338.90	10.81	
2025-01-12 19:03:06.79	338.94	10.70	
2025-01-12 19:03:08.01	338.99	10.58	
2025-01-12 19:03:09.24	339.04	10.47	
2025-01-12 19:03:10.47	339.08	10.35	
2025-01-12 19:03:11.70	339.13	10.24	
2025-01-12 19:03:12.93	339.17	10.13	
2025-01-12 19:03:14.16	339.21	10.01	
2025-01-12 19:03:15.39	339.26	9.90	
2025-01-12 19:03:16.62	339.30	9.79	
2025-01-12 19:03:17.86	339.35	9.68	
2025-01-12 19:03:19.09	339.39	9.57	
2025-01-12 19:03:20.32	339.43	9.46	
2025-01-12 19:03:21.54	339.47	9.35	
2025-01-12 19:03:22.77	339.51	9.24	
2025-01-12 19:03:24.02	339.56	9.13	
2025-01-12 19:03:25.25	339.60	9.02	
2025-01-12 19:03:26.49	339.64	8.92	
2025-01-12 19:03:27.74	339.68	8.81	
2025-01-12 19:03:28.97	339.72	8.70	
2025-01-12 19:03:30.20	339.76	8.60	
2025-01-12 19:03:31.43	339.80	8.49	
2025-01-12 19:03:32.66	339.84	8.39	
2025-01-12 19:03:33.90	339.88	8.28	
2025-01-12 19:03:35.15	339.92	8.18	
2025-01-12 19:03:36.38	339.96	8.07	
2025-01-12 19:03:37.61	340.00	7.97	
2025-01-12 19:03:38.84	340.04	7.87	
2025-01-12 19:03:40.07	340.08	7.77	
2025-01-12 19:03:41.31	340.12	7.66	
2025-01-12 19:03:42.54	340.15	7.56	
2025-01-12 19:03:43.77	340.19	7.46	
2025-01-12 19:03:45.00	340.23	7.36	
2025-01-12 19:03:46.24	340.27	7.26	
2025-01-12 19:03:47.48	340.30	7.16	
2025-01-12 19:03:48.70	340.34	7.06	
2025-01-12 19:03:49.93	340.37	6.96	
2025-01-12 19:03:51.17	340.41	6.87	
2025-01-12 19:03:52.40	340.45	6.77	
2025-01-12 19:03:53.62	340.48	6.67	
2025-01-12 19:03:54.86	340.52	6.57	
2025-01-12 19:03:56.09	340.55	6.48	
2025-01-12 19:03:57.32	340.59	6.38	
2025-01-12 19:03:58.55	340.62	6.29	
2025-01-12 19:03:59.78	340.66	6.19	
2025-01-12 19:04:01.00	340.69	6.10	
2025-01-12 19:04:02.24	340.73	6.00	
2025-01-12 19:04:03.48	340.76	5.91	
2025-01-12 19:04:04.70	340.79	5.81	
2025-01-12 19:04:05.93	340.83	5.72	
2025-01-12 19:04:07.17	340.86	5.63	
2025-01-12 19:04:08.40	340.90	5.53	
2025-01-12 19:04:09.63	340.93	5.44	
2025-01-12 19:04:10.86	340.96	5.35	
2025-01-12 19:04:12.09	340.99	5.26	
2025-01-12 19:04:13.32	341.03	5.17	
2025-01-12 19:04:14.55	341.06	5.08	
2025-01-12 19:04:15.78	341.09	4.98	
2025-01-12 19:04:17.01	341.12	4.89	
2025-01-12 19:04:18.25	341.15	4.80	
2025-01-12 19:04:19.49	341.19	4.71	
2025-01-12 19:04:20.74	341.22	4.62	
2025-01-12 19:04:21.97	341.25	4.53	
2025-01-12 19:04:23.20	341.28	4.45	
2025-01-12 19:04:24.43	341.31	4.36	
2025-01-12 19:04:25.66	341.34	4.27	
2025-01-12 19:04:26.90	341.37	4.18	
2025-01-12 19:04:28.14	341.40	4.09	
2025-01-12 19:04:29.37	341.43	4.01	

#Closed at: 2025-01-12 19:04:29