passes_logs/2025/01/12/SPB_Silybum_02/SPB_Silybum_02__20250112_111300_AQUA_rec.log

#Pass ID: 20250112_111300_AQUA
#Satellite: AQUA
#Configuration: AQUA
#Start time: 2025-01-12 11:15:39

#Version: 2.0.20230423
#Station: SPB_Silybum_02
#Location: 30.233357 lon 59.946436 lat
#TLE: 1 27424U 02022A   25011.85338958  .00001740  00000+0  36730-3 0  9996
#TLE: 2 27424  98.3583 328.4891 0001585 114.5213 298.5366 14.60670077207161

#Time	Az	El	Level	Level2	SNR	BER	Gain	Gain2
2025-01-12 11:15:41.18	153.48	20.17	
2025-01-12 11:15:42.21	153.46	20.32	
2025-01-12 11:15:43.23	153.43	20.48	
2025-01-12 11:15:44.26	153.41	20.63	
2025-01-12 11:15:45.29	153.38	20.79	
2025-01-12 11:15:46.33	153.36	20.94	
2025-01-12 11:15:47.35	153.33	21.10	
2025-01-12 11:15:48.38	153.30	21.26	
2025-01-12 11:15:49.41	153.28	21.42	
2025-01-12 11:15:50.43	153.25	21.58	
2025-01-12 11:15:51.46	153.22	21.74	
2025-01-12 11:15:52.48	153.20	21.90	
2025-01-12 11:15:53.50	153.17	22.06	
2025-01-12 11:15:54.53	153.14	22.23	
2025-01-12 11:15:55.56	153.11	22.39	
2025-01-12 11:15:56.59	153.08	22.56	
2025-01-12 11:15:57.63	153.05	22.73	
2025-01-12 11:15:58.66	153.02	22.90	
2025-01-12 11:15:59.69	152.99	23.07	
2025-01-12 11:16:00.71	152.96	23.24	
2025-01-12 11:16:01.74	152.93	23.42	
2025-01-12 11:16:02.76	152.90	23.59	
2025-01-12 11:16:03.79	152.87	23.77	
2025-01-12 11:16:04.82	152.83	23.94	
2025-01-12 11:16:05.85	152.80	24.12	
2025-01-12 11:16:06.88	152.77	24.30	
2025-01-12 11:16:07.90	152.73	24.48	
2025-01-12 11:16:08.93	152.70	24.66	
2025-01-12 11:16:09.95	152.67	24.85	
2025-01-12 11:16:10.98	152.63	25.03	
2025-01-12 11:16:12.01	152.59	25.22	
2025-01-12 11:16:13.05	152.56	25.41	
2025-01-12 11:16:14.07	152.52	25.60	
2025-01-12 11:16:15.11	152.48	25.79	
2025-01-12 11:16:16.13	152.45	25.98	
2025-01-12 11:16:17.16	152.41	26.18	
2025-01-12 11:16:18.18	152.37	26.37	
2025-01-12 11:16:19.21	152.33	26.57	
2025-01-12 11:16:20.23	152.29	26.76	
2025-01-12 11:16:21.26	152.25	26.96	
2025-01-12 11:16:22.29	152.21	27.16	
2025-01-12 11:16:23.32	152.17	27.37	
2025-01-12 11:16:24.34	152.13	27.57	
2025-01-12 11:16:25.37	152.09	27.78	
2025-01-12 11:16:26.40	152.04	27.99	
2025-01-12 11:16:27.43	152.00	28.20	
2025-01-12 11:16:28.45	151.96	28.41	
2025-01-12 11:16:29.48	151.91	28.62	
2025-01-12 11:16:30.51	151.86	28.83	
2025-01-12 11:16:31.53	151.82	29.05	
2025-01-12 11:16:32.56	151.77	29.27	
2025-01-12 11:16:33.58	151.72	29.49	
2025-01-12 11:16:34.61	151.68	29.71	
2025-01-12 11:16:35.63	151.63	29.93	
2025-01-12 11:16:36.66	151.58	30.16	
2025-01-12 11:16:37.68	151.53	30.38	
2025-01-12 11:16:38.71	151.47	30.61	
2025-01-12 11:16:39.74	151.42	30.84	
2025-01-12 11:16:40.77	151.37	31.08	
2025-01-12 11:16:41.79	151.31	31.31	
2025-01-12 11:16:42.82	151.26	31.55	
2025-01-12 11:16:43.85	151.20	31.79	
2025-01-12 11:16:44.89	151.15	32.03	
2025-01-12 11:16:45.91	151.09	32.27	
2025-01-12 11:16:46.94	151.03	32.52	
2025-01-12 11:16:47.97	150.97	32.77	
2025-01-12 11:16:49.00	150.91	33.02	
2025-01-12 11:16:50.02	150.85	33.27	
2025-01-12 11:16:51.05	150.79	33.52	
2025-01-12 11:16:52.07	150.72	33.78	
2025-01-12 11:16:53.10	150.66	34.04	
2025-01-12 11:16:54.13	150.59	34.30	
2025-01-12 11:16:55.15	150.53	34.56	
2025-01-12 11:16:56.18	150.46	34.82	
2025-01-12 11:16:57.20	150.39	35.09	
2025-01-12 11:16:58.24	150.32	35.36	
2025-01-12 11:16:59.27	150.25	35.64	
2025-01-12 11:17:00.31	150.17	35.91	
2025-01-12 11:17:01.34	150.10	36.19	
2025-01-12 11:17:02.36	150.02	36.47	
2025-01-12 11:17:03.39	149.94	36.75	
2025-01-12 11:17:04.41	149.87	37.03	
2025-01-12 11:17:05.44	149.79	37.32	
2025-01-12 11:17:06.48	149.70	37.62	
2025-01-12 11:17:07.52	149.62	37.91	
2025-01-12 11:17:08.55	149.53	38.21	
2025-01-12 11:17:09.57	149.45	38.50	
2025-01-12 11:17:10.61	149.36	38.81	
2025-01-12 11:17:11.63	149.27	39.11	
2025-01-12 11:17:12.66	149.18	39.42	
2025-01-12 11:17:13.68	149.08	39.72	
2025-01-12 11:17:14.71	148.99	40.04	
2025-01-12 11:17:15.73	148.89	40.35	
2025-01-12 11:17:16.76	148.79	40.67	
2025-01-12 11:17:17.78	148.69	40.98	
2025-01-12 11:17:18.81	148.59	41.31	
2025-01-12 11:17:19.85	148.48	41.64	
2025-01-12 11:17:20.87	148.37	41.96	
2025-01-12 11:17:21.91	148.26	42.30	
2025-01-12 11:17:22.94	148.15	42.64	
2025-01-12 11:17:23.96	148.03	42.97	
2025-01-12 11:17:24.99	147.91	43.31	
2025-01-12 11:17:26.01	147.80	43.66	
2025-01-12 11:17:27.04	147.67	44.00	
2025-01-12 11:17:28.06	147.55	44.35	
2025-01-12 11:17:29.09	147.42	44.71	
2025-01-12 11:17:30.11	147.29	45.06	
2025-01-12 11:17:31.14	147.15	45.42	
2025-01-12 11:17:32.17	147.01	45.79	
2025-01-12 11:17:33.19	146.87	46.15	
2025-01-12 11:17:34.22	146.72	46.52	
2025-01-12 11:17:35.24	146.58	46.89	
2025-01-12 11:17:36.28	146.42	47.27	
2025-01-12 11:17:37.31	146.26	47.65	
2025-01-12 11:17:38.34	146.10	48.03	
2025-01-12 11:17:39.36	145.94	48.42	
2025-01-12 11:17:40.39	145.77	48.81	
2025-01-12 11:17:41.42	145.60	49.20	
2025-01-12 11:17:42.44	145.42	49.60	
2025-01-12 11:17:43.47	145.24	50.00	
2025-01-12 11:17:44.50	145.05	50.40	
2025-01-12 11:17:45.53	144.85	50.81	
2025-01-12 11:17:46.55	144.66	51.21	
2025-01-12 11:17:47.58	144.45	51.63	
2025-01-12 11:17:48.61	144.24	52.04	
2025-01-12 11:17:49.64	144.02	52.46	
2025-01-12 11:17:50.66	143.80	52.88	
2025-01-12 11:17:51.69	143.57	53.31	
2025-01-12 11:17:52.71	143.34	53.74	
2025-01-12 11:17:53.75	143.09	54.18	
2025-01-12 11:17:54.78	142.84	54.61	
2025-01-12 11:17:55.82	142.58	55.06	
2025-01-12 11:17:56.85	142.31	55.50	
2025-01-12 11:17:57.89	142.03	55.95	
2025-01-12 11:17:58.91	141.74	56.40	
2025-01-12 11:17:59.94	141.45	56.85	
2025-01-12 11:18:00.98	141.14	57.31	
2025-01-12 11:18:02.01	140.82	57.77	
2025-01-12 11:18:03.04	140.49	58.23	
2025-01-12 11:18:04.06	140.15	58.69	
2025-01-12 11:18:05.10	139.80	59.16	
2025-01-12 11:18:06.14	139.43	59.64	
2025-01-12 11:18:07.17	139.05	60.11	
2025-01-12 11:18:08.19	138.66	60.58	
2025-01-12 11:18:09.21	138.26	61.05	
2025-01-12 11:18:10.24	137.83	61.53	
2025-01-12 11:18:11.27	137.39	62.01	
2025-01-12 11:18:12.30	136.93	62.50	
2025-01-12 11:18:13.33	136.45	62.98	
2025-01-12 11:18:14.36	135.95	63.47	
2025-01-12 11:18:15.39	135.43	63.96	
2025-01-12 11:18:16.41	134.89	64.45	
2025-01-12 11:18:17.44	134.33	64.94	
2025-01-12 11:18:18.47	133.73	65.43	
2025-01-12 11:18:19.49	133.12	65.92	
2025-01-12 11:18:20.52	132.47	66.41	
2025-01-12 11:18:21.56	131.79	66.91	
2025-01-12 11:18:22.58	131.08	67.40	
2025-01-12 11:18:23.62	130.33	67.90	
2025-01-12 11:18:24.65	129.54	68.39	
2025-01-12 11:18:25.67	128.73	68.88	
2025-01-12 11:18:26.70	127.86	69.37	
2025-01-12 11:18:27.72	126.96	69.85	
2025-01-12 11:18:28.74	126.01	70.33	
2025-01-12 11:18:29.77	125.00	70.81	
2025-01-12 11:18:30.79	123.94	71.29	
2025-01-12 11:18:31.82	122.81	71.76	
2025-01-12 11:18:32.84	121.64	72.22	
2025-01-12 11:18:33.87	120.38	72.69	
2025-01-12 11:18:34.90	119.05	73.15	
2025-01-12 11:18:35.92	117.65	73.59	
2025-01-12 11:18:36.96	116.15	74.04	
2025-01-12 11:18:37.99	114.57	74.47	
2025-01-12 11:18:39.01	112.92	74.89	
2025-01-12 11:18:40.04	111.15	75.30	
2025-01-12 11:18:41.07	109.27	75.70	
2025-01-12 11:18:42.09	107.31	76.07	
2025-01-12 11:18:43.12	105.22	76.44	
2025-01-12 11:18:44.15	103.01	76.79	
2025-01-12 11:18:45.17	100.70	77.12	
2025-01-12 11:18:46.19	98.27	77.42	
2025-01-12 11:18:47.22	95.69	77.71	
2025-01-12 11:18:48.26	92.97	77.97	
2025-01-12 11:18:49.29	90.16	78.20	
2025-01-12 11:18:50.31	87.27	78.41	
2025-01-12 11:18:51.34	84.25	78.58	
2025-01-12 11:18:52.36	81.17	78.72	
2025-01-12 11:18:53.39	77.99	78.84	
2025-01-12 11:18:54.41	74.79	78.91	
2025-01-12 11:18:55.44	71.52	78.95	
2025-01-12 11:18:56.46	68.27	78.96	
2025-01-12 11:18:57.49	65.00	78.93	
2025-01-12 11:18:58.51	61.78	78.87	
2025-01-12 11:18:59.54	58.58	78.77	
2025-01-12 11:19:00.56	55.48	78.64	
2025-01-12 11:19:01.59	52.43	78.47	
2025-01-12 11:19:02.62	49.47	78.28	
2025-01-12 11:19:03.64	46.65	78.05	
2025-01-12 11:19:04.69	43.87	77.80	
2025-01-12 11:19:05.71	41.28	77.52	
2025-01-12 11:19:06.74	38.78	77.22	
2025-01-12 11:19:07.76	36.44	76.90	
2025-01-12 11:19:08.79	34.19	76.56	
2025-01-12 11:19:09.82	32.05	76.20	
2025-01-12 11:19:10.84	30.05	75.83	
2025-01-12 11:19:11.87	28.15	75.44	
2025-01-12 11:19:12.90	26.34	75.03	
2025-01-12 11:19:13.93	24.64	74.61	
2025-01-12 11:19:14.95	23.05	74.19	
2025-01-12 11:19:15.99	21.52	73.75	
2025-01-12 11:19:17.01	20.10	73.30	
2025-01-12 11:19:18.04	18.74	72.85	
2025-01-12 11:19:19.07	17.46	72.39	
2025-01-12 11:19:20.09	16.26	71.93	
2025-01-12 11:19:21.13	15.11	71.45	
2025-01-12 11:19:22.16	14.02	70.97	
2025-01-12 11:19:23.18	13.00	70.50	
2025-01-12 11:19:24.21	12.03	70.01	
2025-01-12 11:19:25.25	11.09	69.52	
2025-01-12 11:19:26.27	10.22	69.04	
2025-01-12 11:19:27.30	9.39	68.55	
2025-01-12 11:19:28.32	8.60	68.06	
2025-01-12 11:19:29.35	7.84	67.57	
2025-01-12 11:19:30.38	7.12	67.08	
2025-01-12 11:19:31.40	6.44	66.59	
2025-01-12 11:19:32.43	5.78	66.10	
2025-01-12 11:19:33.46	5.15	65.61	
2025-01-12 11:19:34.48	4.56	65.12	
2025-01-12 11:19:35.51	3.98	64.63	
2025-01-12 11:19:36.53	3.44	64.14	
2025-01-12 11:19:37.56	2.91	63.66	
2025-01-12 11:19:38.58	2.41	63.17	
2025-01-12 11:19:39.61	1.92	62.69	
2025-01-12 11:19:40.64	1.46	62.20	
2025-01-12 11:19:41.66	1.02	61.73	
2025-01-12 11:19:42.69	0.59	61.25	
2025-01-12 11:19:43.71	0.18	60.78	
2025-01-12 11:19:44.74	359.78	60.30	
2025-01-12 11:19:45.76	359.40	59.83	
2025-01-12 11:19:46.78	359.03	59.37	
2025-01-12 11:19:47.81	358.67	58.90	
2025-01-12 11:19:48.83	358.33	58.44	
2025-01-12 11:19:49.86	358.00	57.98	
2025-01-12 11:19:50.88	357.68	57.53	
2025-01-12 11:19:51.91	357.37	57.07	
2025-01-12 11:19:52.93	357.07	56.62	
2025-01-12 11:19:53.96	356.78	56.17	
2025-01-12 11:19:54.98	356.51	55.73	
2025-01-12 11:19:56.00	356.24	55.29	
2025-01-12 11:19:57.03	355.97	54.85	
2025-01-12 11:19:58.07	355.71	54.41	
2025-01-12 11:19:59.09	355.47	53.98	
2025-01-12 11:20:00.12	355.23	53.55	
2025-01-12 11:20:01.14	355.00	53.13	
2025-01-12 11:20:02.17	354.77	52.70	
2025-01-12 11:20:03.19	354.56	52.29	
2025-01-12 11:20:04.22	354.34	51.87	
2025-01-12 11:20:05.25	354.13	51.46	
2025-01-12 11:20:06.28	353.93	51.04	
2025-01-12 11:20:07.30	353.74	50.64	
2025-01-12 11:20:08.32	353.55	50.24	
2025-01-12 11:20:09.36	353.36	49.84	
2025-01-12 11:20:10.39	353.18	49.44	
2025-01-12 11:20:11.41	353.01	49.05	
2025-01-12 11:20:12.44	352.84	48.66	
2025-01-12 11:20:13.47	352.67	48.27	
2025-01-12 11:20:14.50	352.51	47.89	
2025-01-12 11:20:15.52	352.35	47.51	
2025-01-12 11:20:16.56	352.20	47.13	
2025-01-12 11:20:17.58	352.05	46.76	
2025-01-12 11:20:18.61	351.90	46.39	
2025-01-12 11:20:19.64	351.76	46.02	
2025-01-12 11:20:20.66	351.62	45.66	
2025-01-12 11:20:21.69	351.48	45.30	
2025-01-12 11:20:22.71	351.35	44.94	
2025-01-12 11:20:23.74	351.22	44.59	
2025-01-12 11:20:24.77	351.09	44.24	
2025-01-12 11:20:25.81	350.96	43.89	
2025-01-12 11:20:26.83	350.84	43.54	
2025-01-12 11:20:27.86	350.72	43.20	
2025-01-12 11:20:28.89	350.61	42.86	
2025-01-12 11:20:29.92	350.49	42.53	
2025-01-12 11:20:30.94	350.38	42.20	
2025-01-12 11:20:31.97	350.27	41.87	
2025-01-12 11:20:32.99	350.17	41.54	
2025-01-12 11:20:34.01	350.06	41.22	
2025-01-12 11:20:35.04	349.96	40.90	
2025-01-12 11:20:36.06	349.86	40.59	
2025-01-12 11:20:37.09	349.76	40.27	
2025-01-12 11:20:38.11	349.67	39.96	
2025-01-12 11:20:39.13	349.58	39.65	
2025-01-12 11:20:40.16	349.48	39.35	
2025-01-12 11:20:41.18	349.39	39.04	
2025-01-12 11:20:42.21	349.30	38.74	
2025-01-12 11:20:43.23	349.22	38.45	
2025-01-12 11:20:44.26	349.13	38.15	
2025-01-12 11:20:45.29	349.05	37.86	
2025-01-12 11:20:46.31	348.97	37.57	
2025-01-12 11:20:47.34	348.89	37.28	
2025-01-12 11:20:48.38	348.81	36.99	
2025-01-12 11:20:49.40	348.73	36.71	
2025-01-12 11:20:50.42	348.65	36.43	
2025-01-12 11:20:51.45	348.58	36.15	
2025-01-12 11:20:52.47	348.51	35.88	
2025-01-12 11:20:53.50	348.43	35.61	
2025-01-12 11:20:54.53	348.36	35.34	
2025-01-12 11:20:55.56	348.29	35.07	
2025-01-12 11:20:56.58	348.23	34.80	
2025-01-12 11:20:57.61	348.16	34.54	
2025-01-12 11:20:58.64	348.09	34.28	
2025-01-12 11:20:59.68	348.03	34.02	
2025-01-12 11:21:00.71	347.96	33.76	
2025-01-12 11:21:01.75	347.90	33.50	
2025-01-12 11:21:02.78	347.84	33.25	
2025-01-12 11:21:03.81	347.78	33.00	
2025-01-12 11:21:04.85	347.72	32.75	
2025-01-12 11:21:05.88	347.66	32.50	
2025-01-12 11:21:06.92	347.60	32.26	
2025-01-12 11:21:07.94	347.54	32.02	
2025-01-12 11:21:08.97	347.49	31.78	
2025-01-12 11:21:09.99	347.43	31.54	
2025-01-12 11:21:11.01	347.38	31.31	
2025-01-12 11:21:12.06	347.32	31.07	
2025-01-12 11:21:13.08	347.27	30.84	
2025-01-12 11:21:14.11	347.22	30.61	
2025-01-12 11:21:15.13	347.17	30.38	
2025-01-12 11:21:16.17	347.12	30.16	
2025-01-12 11:21:17.20	347.07	29.93	
2025-01-12 11:21:18.23	347.02	29.71	
2025-01-12 11:21:19.26	346.97	29.49	
2025-01-12 11:21:20.28	346.93	29.27	
2025-01-12 11:21:21.31	346.88	29.05	
2025-01-12 11:21:22.35	346.84	28.84	
2025-01-12 11:21:23.38	346.79	28.62	
2025-01-12 11:21:24.40	346.75	28.41	
2025-01-12 11:21:25.43	346.70	28.20	
2025-01-12 11:21:26.46	346.66	28.00	
2025-01-12 11:21:27.48	346.62	27.79	
2025-01-12 11:21:28.51	346.58	27.59	
2025-01-12 11:21:29.55	346.53	27.38	
2025-01-12 11:21:30.58	346.49	27.18	
2025-01-12 11:21:31.61	346.45	26.98	
2025-01-12 11:21:32.63	346.41	26.78	
2025-01-12 11:21:33.65	346.38	26.59	
2025-01-12 11:21:34.68	346.34	26.39	
2025-01-12 11:21:35.71	346.30	26.20	
2025-01-12 11:21:36.73	346.26	26.00	
2025-01-12 11:21:37.76	346.23	25.81	
2025-01-12 11:21:38.78	346.19	25.63	
2025-01-12 11:21:39.82	346.15	25.44	
2025-01-12 11:21:40.85	346.12	25.25	
2025-01-12 11:21:41.88	346.08	25.06	
2025-01-12 11:21:42.90	346.05	24.88	
2025-01-12 11:21:43.93	346.02	24.70	
2025-01-12 11:21:44.96	345.98	24.52	
2025-01-12 11:21:45.98	345.95	24.34	
2025-01-12 11:21:47.01	345.92	24.16	
2025-01-12 11:21:48.04	345.89	23.98	
2025-01-12 11:21:49.06	345.85	23.81	
2025-01-12 11:21:50.10	345.82	23.63	
2025-01-12 11:21:51.13	345.79	23.46	
2025-01-12 11:21:52.15	345.76	23.29	
2025-01-12 11:21:53.18	345.73	23.11	
2025-01-12 11:21:54.20	345.70	22.95	
2025-01-12 11:21:55.23	345.67	22.78	
2025-01-12 11:21:56.25	345.64	22.61	
2025-01-12 11:21:57.28	345.62	22.45	
2025-01-12 11:21:58.31	345.59	22.28	
2025-01-12 11:21:59.33	345.56	22.12	
2025-01-12 11:22:00.38	345.53	21.95	
2025-01-12 11:22:01.41	345.50	21.79	
2025-01-12 11:22:02.43	345.48	21.63	
2025-01-12 11:22:03.46	345.45	21.47	
2025-01-12 11:22:04.49	345.43	21.31	
2025-01-12 11:22:05.51	345.40	21.16	
2025-01-12 11:22:06.54	345.37	21.00	
2025-01-12 11:22:07.56	345.35	20.85	
2025-01-12 11:22:08.58	345.33	20.69	
2025-01-12 11:22:09.61	345.30	20.54	
2025-01-12 11:22:10.63	345.28	20.39	
2025-01-12 11:22:11.68	345.25	20.23	
2025-01-12 11:22:12.72	345.23	20.08	
2025-01-12 11:22:13.74	345.20	19.93	
2025-01-12 11:22:14.77	345.18	19.79	
2025-01-12 11:22:15.81	345.16	19.64	
2025-01-12 11:22:16.84	345.14	19.49	
2025-01-12 11:22:17.88	345.11	19.34	
2025-01-12 11:22:18.91	345.09	19.20	
2025-01-12 11:22:19.93	345.07	19.06	
2025-01-12 11:22:20.96	345.05	18.91	
2025-01-12 11:22:21.99	345.03	18.77	
2025-01-12 11:22:23.01	345.01	18.63	
2025-01-12 11:22:24.03	344.99	18.49	
2025-01-12 11:22:25.06	344.96	18.35	
2025-01-12 11:22:26.09	344.94	18.22	
2025-01-12 11:22:27.11	344.92	18.08	
2025-01-12 11:22:28.14	344.90	17.94	
2025-01-12 11:22:29.16	344.88	17.81	
2025-01-12 11:22:30.18	344.87	17.67	
2025-01-12 11:22:31.21	344.85	17.54	
2025-01-12 11:22:32.24	344.83	17.41	
2025-01-12 11:22:33.26	344.81	17.28	
2025-01-12 11:22:34.29	344.79	17.14	
2025-01-12 11:22:35.33	344.77	17.01	
2025-01-12 11:22:36.36	344.75	16.88	
2025-01-12 11:22:37.39	344.74	16.75	
2025-01-12 11:22:38.41	344.72	16.62	
2025-01-12 11:22:39.44	344.70	16.50	
2025-01-12 11:22:40.47	344.68	16.37	
2025-01-12 11:22:41.49	344.67	16.24	
2025-01-12 11:22:42.52	344.65	16.12	
2025-01-12 11:22:43.54	344.63	15.99	
2025-01-12 11:22:44.57	344.62	15.87	
2025-01-12 11:22:45.61	344.60	15.74	
2025-01-12 11:22:46.63	344.58	15.62	
2025-01-12 11:22:47.66	344.57	15.50	
2025-01-12 11:22:48.68	344.55	15.38	
2025-01-12 11:22:49.70	344.54	15.26	
2025-01-12 11:22:50.73	344.52	15.14	
2025-01-12 11:22:51.76	344.50	15.02	
2025-01-12 11:22:52.78	344.49	14.90	
2025-01-12 11:22:53.81	344.47	14.78	
2025-01-12 11:22:54.84	344.46	14.66	
2025-01-12 11:22:55.86	344.44	14.55	
2025-01-12 11:22:56.88	344.43	14.43	
2025-01-12 11:22:57.91	344.42	14.31	
2025-01-12 11:22:58.93	344.40	14.20	
2025-01-12 11:22:59.96	344.39	14.08	
2025-01-12 11:23:00.98	344.37	13.97	
2025-01-12 11:23:02.00	344.36	13.86	
2025-01-12 11:23:03.03	344.35	13.75	
2025-01-12 11:23:04.05	344.33	13.63	
2025-01-12 11:23:05.07	344.32	13.52	
2025-01-12 11:23:06.10	344.31	13.41	
2025-01-12 11:23:07.14	344.29	13.30	
2025-01-12 11:23:08.17	344.28	13.19	
2025-01-12 11:23:09.19	344.27	13.08	
2025-01-12 11:23:10.22	344.25	12.97	
2025-01-12 11:23:11.25	344.24	12.86	
2025-01-12 11:23:12.27	344.23	12.76	
2025-01-12 11:23:13.30	344.22	12.65	
2025-01-12 11:23:14.32	344.21	12.54	
2025-01-12 11:23:15.35	344.19	12.44	
2025-01-12 11:23:16.38	344.18	12.33	
2025-01-12 11:23:17.40	344.17	12.22	
2025-01-12 11:23:18.43	344.16	12.12	
2025-01-12 11:23:19.46	344.15	12.02	
2025-01-12 11:23:20.49	344.14	11.91	
2025-01-12 11:23:21.51	344.12	11.81	
2025-01-12 11:23:22.54	344.11	11.71	
2025-01-12 11:23:23.56	344.10	11.60	
2025-01-12 11:23:24.59	344.09	11.50	
2025-01-12 11:23:25.62	344.08	11.40	
2025-01-12 11:23:26.64	344.07	11.30	
2025-01-12 11:23:27.67	344.06	11.20	
2025-01-12 11:23:28.71	344.05	11.10	
2025-01-12 11:23:29.75	344.04	11.00	
2025-01-12 11:23:30.77	344.03	10.90	
2025-01-12 11:23:31.80	344.02	10.80	
2025-01-12 11:23:32.82	344.01	10.70	
2025-01-12 11:23:33.85	344.00	10.60	
2025-01-12 11:23:34.87	343.99	10.51	
2025-01-12 11:23:35.90	343.98	10.41	
2025-01-12 11:23:36.92	343.97	10.31	
2025-01-12 11:23:37.94	343.96	10.22	
2025-01-12 11:23:38.97	343.95	10.12	
2025-01-12 11:23:39.99	343.94	10.03	
2025-01-12 11:23:41.02	343.93	9.93	
2025-01-12 11:23:42.05	343.92	9.84	
2025-01-12 11:23:43.07	343.91	9.74	
2025-01-12 11:23:44.12	343.90	9.65	
2025-01-12 11:23:45.16	343.89	9.55	
2025-01-12 11:23:46.18	343.88	9.46	
2025-01-12 11:23:47.21	343.88	9.37	
2025-01-12 11:23:48.23	343.87	9.28	
2025-01-12 11:23:49.26	343.86	9.18	
2025-01-12 11:23:50.30	343.85	9.09	
2025-01-12 11:23:51.35	343.84	9.00	
2025-01-12 11:23:52.37	343.83	8.91	
2025-01-12 11:23:53.40	343.83	8.82	
2025-01-12 11:23:54.43	343.82	8.73	
2025-01-12 11:23:55.45	343.81	8.64	
2025-01-12 11:23:56.48	343.80	8.55	
2025-01-12 11:23:57.51	343.79	8.46	
2025-01-12 11:23:58.53	343.79	8.37	
2025-01-12 11:23:59.56	343.78	8.28	
2025-01-12 11:24:00.58	343.77	8.20	
2025-01-12 11:24:01.61	343.76	8.11	
2025-01-12 11:24:02.63	343.76	8.02	
2025-01-12 11:24:03.66	343.75	7.94	
2025-01-12 11:24:04.69	343.74	7.85	
2025-01-12 11:24:05.71	343.73	7.76	
2025-01-12 11:24:06.73	343.73	7.68	
2025-01-12 11:24:07.77	343.72	7.59	
2025-01-12 11:24:08.79	343.71	7.51	
2025-01-12 11:24:09.82	343.70	7.42	
2025-01-12 11:24:10.85	343.70	7.34	
2025-01-12 11:24:11.89	343.69	7.25	
2025-01-12 11:24:12.91	343.68	7.17	
2025-01-12 11:24:13.94	343.68	7.08	
2025-01-12 11:24:14.96	343.67	7.00	
2025-01-12 11:24:15.99	343.66	6.92	
2025-01-12 11:24:17.02	343.66	6.83	
2025-01-12 11:24:18.05	343.65	6.75	
2025-01-12 11:24:19.10	343.64	6.67	
2025-01-12 11:24:20.12	343.64	6.59	
2025-01-12 11:24:21.15	343.63	6.50	
2025-01-12 11:24:22.18	343.63	6.42	
2025-01-12 11:24:23.20	343.62	6.34	
2025-01-12 11:24:24.23	343.61	6.26	
2025-01-12 11:24:25.26	343.61	6.18	
2025-01-12 11:24:26.28	343.60	6.10	
2025-01-12 11:24:27.31	343.60	6.02	
2025-01-12 11:24:28.34	343.59	5.94	
2025-01-12 11:24:29.37	343.58	5.86	
2025-01-12 11:24:30.40	343.58	5.78	
2025-01-12 11:24:31.43	343.57	5.70	
2025-01-12 11:24:32.45	343.57	5.62	
2025-01-12 11:24:33.48	343.56	5.55	
2025-01-12 11:24:34.50	343.56	5.47	
2025-01-12 11:24:35.53	343.55	5.39	
2025-01-12 11:24:36.55	343.55	5.31	
2025-01-12 11:24:37.57	343.54	5.24	
2025-01-12 11:24:38.60	343.54	5.16	
2025-01-12 11:24:39.63	343.53	5.08	
2025-01-12 11:24:40.65	343.53	5.01	
2025-01-12 11:24:41.68	343.52	4.93	
2025-01-12 11:24:42.71	343.52	4.85	
2025-01-12 11:24:43.73	343.51	4.78	
2025-01-12 11:24:44.76	343.51	4.70	
2025-01-12 11:24:45.78	343.50	4.63	
2025-01-12 11:24:46.81	343.50	4.55	
2025-01-12 11:24:47.83	343.49	4.48	
2025-01-12 11:24:48.86	343.49	4.40	
2025-01-12 11:24:49.89	343.48	4.33	
2025-01-12 11:24:50.91	343.48	4.25	
2025-01-12 11:24:51.94	343.47	4.18	
2025-01-12 11:24:52.97	343.47	4.11	
2025-01-12 11:24:53.99	343.46	4.03	

#Closed at: 2025-01-12 11:24:54