passes_logs/2025/01/12/SPB_Silybum_02/SPB_Silybum_02__20250112_171545_TERRA_rec.log

#Pass ID: 20250112_171545_TERRA
#Satellite: TERRA
#Configuration: TERRA
#Start time: 2025-01-12 17:15:44

#Version: 2.0.20230423
#Station: SPB_Silybum_02
#Location: 30.233357 lon 59.946436 lat
#TLE: 1 25994U 99068A   25011.77277381  .00000769  00000+0  16824-3 0  9997
#TLE: 2 25994  98.0222  74.9057 0003526  79.1717  32.7508 14.60388914333608

#Time	Az	El	Level	Level2	SNR	BER	Gain	Gain2
2025-01-12 17:15:46.05	122.44	4.03	
2025-01-12 17:15:47.28	122.36	4.11	
2025-01-12 17:15:48.51	122.28	4.19	
2025-01-12 17:15:49.74	122.20	4.28	
2025-01-12 17:15:50.98	122.12	4.36	
2025-01-12 17:15:52.21	122.04	4.44	
2025-01-12 17:15:53.44	121.96	4.53	
2025-01-12 17:15:54.67	121.88	4.61	
2025-01-12 17:15:55.90	121.80	4.69	
2025-01-12 17:15:57.13	121.72	4.78	
2025-01-12 17:15:58.38	121.64	4.86	
2025-01-12 17:15:59.61	121.55	4.95	
2025-01-12 17:16:00.85	121.47	5.03	
2025-01-12 17:16:02.08	121.38	5.12	
2025-01-12 17:16:03.31	121.30	5.20	
2025-01-12 17:16:04.54	121.21	5.29	
2025-01-12 17:16:05.77	121.13	5.37	
2025-01-12 17:16:07.03	121.04	5.46	
2025-01-12 17:16:08.27	120.95	5.55	
2025-01-12 17:16:09.51	120.86	5.64	
2025-01-12 17:16:10.74	120.78	5.72	
2025-01-12 17:16:11.97	120.69	5.81	
2025-01-12 17:16:13.20	120.60	5.90	
2025-01-12 17:16:14.43	120.51	5.99	
2025-01-12 17:16:15.66	120.42	6.07	
2025-01-12 17:16:16.90	120.33	6.16	
2025-01-12 17:16:18.13	120.23	6.25	
2025-01-12 17:16:19.36	120.14	6.34	
2025-01-12 17:16:20.60	120.05	6.43	
2025-01-12 17:16:21.83	119.96	6.52	
2025-01-12 17:16:23.07	119.86	6.61	
2025-01-12 17:16:24.30	119.77	6.70	
2025-01-12 17:16:25.53	119.67	6.79	
2025-01-12 17:16:26.76	119.57	6.88	
2025-01-12 17:16:27.99	119.48	6.97	
2025-01-12 17:16:29.23	119.38	7.06	
2025-01-12 17:16:30.47	119.28	7.15	
2025-01-12 17:16:31.70	119.18	7.24	
2025-01-12 17:16:32.94	119.08	7.34	
2025-01-12 17:16:34.17	118.98	7.43	
2025-01-12 17:16:35.40	118.88	7.52	
2025-01-12 17:16:36.63	118.78	7.61	
2025-01-12 17:16:37.86	118.67	7.71	
2025-01-12 17:16:39.11	118.57	7.80	
2025-01-12 17:16:40.34	118.46	7.89	
2025-01-12 17:16:41.57	118.36	7.99	
2025-01-12 17:16:42.80	118.25	8.08	
2025-01-12 17:16:44.03	118.15	8.18	
2025-01-12 17:16:45.26	118.04	8.27	
2025-01-12 17:16:46.50	117.93	8.37	
2025-01-12 17:16:47.72	117.82	8.46	
2025-01-12 17:16:48.96	117.71	8.56	
2025-01-12 17:16:50.19	117.60	8.65	
2025-01-12 17:16:51.42	117.49	8.75	
2025-01-12 17:16:52.65	117.38	8.85	
2025-01-12 17:16:53.90	117.27	8.94	
2025-01-12 17:16:55.14	117.15	9.04	
2025-01-12 17:16:56.39	117.03	9.14	
2025-01-12 17:16:57.62	116.92	9.24	
2025-01-12 17:16:58.85	116.80	9.34	
2025-01-12 17:17:00.08	116.69	9.44	
2025-01-12 17:17:01.33	116.57	9.54	
2025-01-12 17:17:02.56	116.45	9.64	
2025-01-12 17:17:03.78	116.33	9.73	
2025-01-12 17:17:05.02	116.21	9.83	
2025-01-12 17:17:06.26	116.08	9.94	
2025-01-12 17:17:07.49	115.96	10.04	
2025-01-12 17:17:08.72	115.84	10.14	
2025-01-12 17:17:09.95	115.71	10.24	
2025-01-12 17:17:11.18	115.59	10.34	
2025-01-12 17:17:12.43	115.46	10.44	
2025-01-12 17:17:13.66	115.33	10.54	
2025-01-12 17:17:14.90	115.20	10.65	
2025-01-12 17:17:16.13	115.07	10.75	
2025-01-12 17:17:17.36	114.94	10.85	
2025-01-12 17:17:18.59	114.81	10.96	
2025-01-12 17:17:19.83	114.68	11.06	
2025-01-12 17:17:21.07	114.55	11.17	
2025-01-12 17:17:22.30	114.41	11.27	
2025-01-12 17:17:23.54	114.27	11.38	
2025-01-12 17:17:24.78	114.14	11.48	
2025-01-12 17:17:26.00	114.00	11.59	
2025-01-12 17:17:27.23	113.86	11.69	
2025-01-12 17:17:28.46	113.72	11.80	
2025-01-12 17:17:29.69	113.58	11.91	
2025-01-12 17:17:30.93	113.44	12.01	
2025-01-12 17:17:32.16	113.29	12.12	
2025-01-12 17:17:33.39	113.15	12.23	
2025-01-12 17:17:34.64	113.00	12.34	
2025-01-12 17:17:35.87	112.86	12.45	
2025-01-12 17:17:37.10	112.71	12.56	
2025-01-12 17:17:38.34	112.56	12.67	
2025-01-12 17:17:39.57	112.41	12.78	
2025-01-12 17:17:40.80	112.26	12.89	
2025-01-12 17:17:42.03	112.10	13.00	
2025-01-12 17:17:43.26	111.95	13.11	
2025-01-12 17:17:44.50	111.79	13.22	
2025-01-12 17:17:45.75	111.63	13.33	
2025-01-12 17:17:47.00	111.47	13.45	
2025-01-12 17:17:48.24	111.31	13.56	
2025-01-12 17:17:49.47	111.15	13.67	
2025-01-12 17:17:50.70	110.99	13.78	
2025-01-12 17:17:51.95	110.82	13.90	
2025-01-12 17:17:53.18	110.66	14.01	
2025-01-12 17:17:54.42	110.49	14.13	
2025-01-12 17:17:55.66	110.32	14.24	
2025-01-12 17:17:56.89	110.15	14.36	
2025-01-12 17:17:58.12	109.98	14.47	
2025-01-12 17:17:59.35	109.81	14.59	
2025-01-12 17:18:00.60	109.64	14.70	
2025-01-12 17:18:01.83	109.46	14.82	
2025-01-12 17:18:03.07	109.28	14.94	
2025-01-12 17:18:04.31	109.11	15.05	
2025-01-12 17:18:05.54	108.93	15.17	
2025-01-12 17:18:06.78	108.74	15.29	
2025-01-12 17:18:08.01	108.56	15.41	
2025-01-12 17:18:09.24	108.38	15.53	
2025-01-12 17:18:10.47	108.19	15.64	
2025-01-12 17:18:11.70	108.01	15.76	
2025-01-12 17:18:12.93	107.82	15.88	
2025-01-12 17:18:14.16	107.63	16.00	
2025-01-12 17:18:15.40	107.43	16.12	
2025-01-12 17:18:16.64	107.24	16.24	
2025-01-12 17:18:17.87	107.04	16.36	
2025-01-12 17:18:19.12	106.84	16.49	
2025-01-12 17:18:20.35	106.65	16.61	
2025-01-12 17:18:21.58	106.45	16.73	
2025-01-12 17:18:22.83	106.24	16.85	
2025-01-12 17:18:24.06	106.04	16.98	
2025-01-12 17:18:25.29	105.83	17.10	
2025-01-12 17:18:26.53	105.62	17.22	
2025-01-12 17:18:27.77	105.41	17.35	
2025-01-12 17:18:29.00	105.20	17.47	
2025-01-12 17:18:30.23	104.99	17.59	
2025-01-12 17:18:31.46	104.77	17.72	
2025-01-12 17:18:32.69	104.56	17.84	
2025-01-12 17:18:33.93	104.33	17.97	
2025-01-12 17:18:35.17	104.11	18.09	
2025-01-12 17:18:36.40	103.89	18.22	
2025-01-12 17:18:37.63	103.67	18.34	
2025-01-12 17:18:38.86	103.44	18.47	
2025-01-12 17:18:40.09	103.21	18.59	
2025-01-12 17:18:41.32	102.98	18.72	
2025-01-12 17:18:42.55	102.75	18.85	
2025-01-12 17:18:43.78	102.51	18.97	
2025-01-12 17:18:45.02	102.27	19.10	
2025-01-12 17:18:46.26	102.03	19.23	
2025-01-12 17:18:47.50	101.79	19.36	
2025-01-12 17:18:48.73	101.55	19.48	
2025-01-12 17:18:49.96	101.30	19.61	
2025-01-12 17:18:51.19	101.05	19.74	
2025-01-12 17:18:52.42	100.80	19.87	
2025-01-12 17:18:53.65	100.55	19.99	
2025-01-12 17:18:54.88	100.30	20.12	
2025-01-12 17:18:56.11	100.04	20.25	
2025-01-12 17:18:57.36	99.78	20.38	
2025-01-12 17:18:58.59	99.52	20.51	
2025-01-12 17:18:59.83	99.25	20.64	
2025-01-12 17:19:01.08	98.98	20.77	
2025-01-12 17:19:02.31	98.71	20.90	
2025-01-12 17:19:03.55	98.44	21.03	
2025-01-12 17:19:04.78	98.17	21.16	
2025-01-12 17:19:06.01	97.89	21.29	
2025-01-12 17:19:07.24	97.62	21.42	
2025-01-12 17:19:08.49	97.33	21.55	
2025-01-12 17:19:09.73	97.05	21.68	
2025-01-12 17:19:06.39	97.81	21.33	
2025-01-12 17:19:07.62	97.53	21.46	
2025-01-12 17:19:08.85	97.25	21.59	
2025-01-12 17:19:10.08	96.96	21.72	
2025-01-12 17:19:11.31	96.68	21.84	
2025-01-12 17:19:12.55	96.39	21.97	
2025-01-12 17:19:13.78	96.10	22.10	
2025-01-12 17:19:15.01	95.80	22.23	
2025-01-12 17:19:16.24	95.51	22.36	
2025-01-12 17:19:17.47	95.21	22.49	
2025-01-12 17:19:18.70	94.91	22.62	
2025-01-12 17:19:19.93	94.60	22.75	
2025-01-12 17:19:21.17	94.29	22.88	
2025-01-12 17:19:22.40	93.98	23.01	
2025-01-12 17:19:23.63	93.67	23.13	
2025-01-12 17:19:24.86	93.36	23.26	
2025-01-12 17:19:26.09	93.04	23.39	
2025-01-12 17:19:27.32	92.72	23.52	
2025-01-12 17:19:28.55	92.40	23.64	
2025-01-12 17:19:29.79	92.07	23.77	
2025-01-12 17:19:31.02	91.74	23.90	
2025-01-12 17:19:32.25	91.41	24.02	
2025-01-12 17:19:33.48	91.07	24.15	
2025-01-12 17:19:34.71	90.74	24.28	
2025-01-12 17:19:35.94	90.40	24.40	
2025-01-12 17:19:37.17	90.05	24.53	
2025-01-12 17:19:38.40	89.71	24.65	
2025-01-12 17:19:39.63	89.36	24.77	
2025-01-12 17:19:40.88	89.00	24.90	
2025-01-12 17:19:42.11	88.65	25.02	
2025-01-12 17:19:43.34	88.29	25.14	
2025-01-12 17:19:44.57	87.93	25.27	
2025-01-12 17:19:45.82	87.56	25.39	
2025-01-12 17:19:47.05	87.20	25.51	
2025-01-12 17:19:48.28	86.83	25.63	
2025-01-12 17:19:49.51	86.46	25.75	
2025-01-12 17:19:50.75	86.08	25.87	
2025-01-12 17:19:51.98	85.70	25.98	
2025-01-12 17:19:53.22	85.32	26.10	
2025-01-12 17:19:54.45	84.94	26.22	
2025-01-12 17:19:55.69	84.55	26.33	
2025-01-12 17:19:56.94	84.15	26.45	
2025-01-12 17:19:58.17	83.76	26.56	
2025-01-12 17:19:59.40	83.36	26.68	
2025-01-12 17:20:00.63	82.97	26.79	
2025-01-12 17:20:01.86	82.56	26.90	
2025-01-12 17:20:03.09	82.16	27.01	
2025-01-12 17:20:04.32	81.75	27.11	
2025-01-12 17:20:05.55	81.34	27.22	
2025-01-12 17:20:06.78	80.93	27.33	
2025-01-12 17:20:08.01	80.52	27.43	
2025-01-12 17:20:09.24	80.10	27.54	
2025-01-12 17:20:10.48	79.68	27.64	
2025-01-12 17:20:11.72	79.25	27.74	
2025-01-12 17:20:12.95	78.82	27.84	
2025-01-12 17:20:14.19	78.39	27.94	
2025-01-12 17:20:15.42	77.96	28.04	
2025-01-12 17:20:16.67	77.52	28.13	
2025-01-12 17:20:17.91	77.08	28.23	
2025-01-12 17:20:19.14	76.64	28.32	
2025-01-12 17:20:20.37	76.19	28.41	
2025-01-12 17:20:21.60	75.75	28.50	
2025-01-12 17:20:22.84	75.30	28.59	
2025-01-12 17:20:24.07	74.85	28.68	
2025-01-12 17:20:25.30	74.39	28.76	
2025-01-12 17:20:26.54	73.93	28.85	
2025-01-12 17:20:27.77	73.48	28.93	
2025-01-12 17:20:29.00	73.02	29.01	
2025-01-12 17:20:30.23	72.55	29.09	
2025-01-12 17:20:31.46	72.09	29.16	
2025-01-12 17:20:32.71	71.62	29.24	
2025-01-12 17:20:33.95	71.14	29.31	
2025-01-12 17:20:35.18	70.67	29.38	
2025-01-12 17:20:36.41	70.20	29.45	
2025-01-12 17:20:37.66	69.71	29.52	
2025-01-12 17:20:38.89	69.24	29.58	
2025-01-12 17:20:40.13	68.75	29.64	
2025-01-12 17:20:41.36	68.27	29.71	
2025-01-12 17:20:42.59	67.79	29.76	
2025-01-12 17:20:43.84	67.30	29.82	
2025-01-12 17:20:45.08	66.81	29.88	
2025-01-12 17:20:46.30	66.32	29.93	
2025-01-12 17:20:47.54	65.83	29.98	
2025-01-12 17:20:48.77	65.34	30.02	
2025-01-12 17:20:50.00	64.84	30.07	
2025-01-12 17:20:51.23	64.35	30.11	
2025-01-12 17:20:52.46	63.85	30.15	
2025-01-12 17:20:53.69	63.36	30.19	
2025-01-12 17:20:54.92	62.86	30.23	
2025-01-12 17:20:56.15	62.36	30.26	
2025-01-12 17:20:57.39	61.86	30.29	
2025-01-12 17:20:58.62	61.35	30.32	
2025-01-12 17:20:59.85	60.85	30.35	
2025-01-12 17:21:01.08	60.35	30.37	
2025-01-12 17:21:02.31	59.85	30.40	
2025-01-12 17:21:03.56	59.33	30.42	
2025-01-12 17:21:04.79	58.83	30.43	
2025-01-12 17:21:06.02	58.32	30.45	
2025-01-12 17:21:07.27	57.81	30.46	
2025-01-12 17:21:08.50	57.30	30.47	
2025-01-12 17:21:09.73	56.80	30.48	
2025-01-12 17:21:10.96	56.29	30.48	
2025-01-12 17:21:12.19	55.79	30.48	
2025-01-12 17:21:13.41	55.28	30.48	
2025-01-12 17:21:14.65	54.77	30.48	
2025-01-12 17:21:15.88	54.27	30.48	
2025-01-12 17:21:17.11	53.76	30.47	
2025-01-12 17:21:18.34	53.25	30.46	
2025-01-12 17:21:19.57	52.75	30.45	
2025-01-12 17:21:20.80	52.24	30.43	
2025-01-12 17:21:22.03	51.74	30.42	
2025-01-12 17:21:23.28	51.23	30.40	
2025-01-12 17:21:24.53	50.72	30.37	
2025-01-12 17:21:25.77	50.21	30.35	
2025-01-12 17:21:27.01	49.70	30.32	
2025-01-12 17:21:28.24	49.20	30.29	
2025-01-12 17:21:29.47	48.70	30.26	
2025-01-12 17:21:30.71	48.20	30.23	
2025-01-12 17:21:31.94	47.70	30.19	
2025-01-12 17:21:33.17	47.21	30.15	
2025-01-12 17:21:34.40	46.71	30.11	
2025-01-12 17:21:35.64	46.21	30.07	
2025-01-12 17:21:36.87	45.72	30.02	
2025-01-12 17:21:38.10	45.23	29.98	
2025-01-12 17:21:39.33	44.74	29.93	
2025-01-12 17:21:40.56	44.26	29.87	
2025-01-12 17:21:41.81	43.76	29.82	
2025-01-12 17:21:43.05	43.27	29.76	
2025-01-12 17:21:44.29	42.79	29.70	
2025-01-12 17:21:45.53	42.30	29.64	
2025-01-12 17:21:46.76	41.82	29.58	
2025-01-12 17:21:47.99	41.35	29.52	
2025-01-12 17:21:49.22	40.87	29.45	
2025-01-12 17:21:50.46	40.40	29.38	
2025-01-12 17:21:51.69	39.93	29.31	
2025-01-12 17:21:52.92	39.46	29.24	
2025-01-12 17:21:54.15	38.99	29.16	
2025-01-12 17:21:55.38	38.53	29.09	
2025-01-12 17:21:56.63	38.06	29.01	
2025-01-12 17:21:57.86	37.60	28.93	
2025-01-12 17:21:59.09	37.15	28.85	
2025-01-12 17:22:00.32	36.69	28.77	
2025-01-12 17:22:01.56	36.24	28.68	
2025-01-12 17:22:02.79	35.79	28.59	
2025-01-12 17:22:04.03	35.34	28.50	
2025-01-12 17:22:05.25	34.90	28.42	
2025-01-12 17:22:06.50	34.45	28.32	
2025-01-12 17:22:07.73	34.01	28.23	
2025-01-12 17:22:08.96	33.57	28.14	
2025-01-12 17:22:10.19	33.14	28.04	
2025-01-12 17:22:11.43	32.71	27.94	
2025-01-12 17:22:12.67	32.27	27.85	
2025-01-12 17:22:13.92	31.84	27.74	
2025-01-12 17:22:15.14	31.42	27.64	
2025-01-12 17:22:16.37	31.00	27.54	
2025-01-12 17:22:17.60	30.59	27.44	
2025-01-12 17:22:18.84	30.17	27.33	
2025-01-12 17:22:20.09	29.75	27.23	
2025-01-12 17:22:21.32	29.34	27.12	
2025-01-12 17:22:22.55	28.94	27.01	
2025-01-12 17:22:23.78	28.54	26.90	
2025-01-12 17:22:25.02	28.13	26.79	
2025-01-12 17:22:26.26	27.73	26.68	
2025-01-12 17:22:27.49	27.34	26.57	
2025-01-12 17:22:28.72	26.95	26.45	
2025-01-12 17:22:29.96	26.56	26.34	
2025-01-12 17:22:31.19	26.18	26.23	
2025-01-12 17:22:32.41	25.80	26.11	
2025-01-12 17:22:33.64	25.42	25.99	
2025-01-12 17:22:34.87	25.04	25.88	
2025-01-12 17:22:36.11	24.67	25.76	
2025-01-12 17:22:37.34	24.30	25.64	
2025-01-12 17:22:38.58	23.92	25.52	
2025-01-12 17:22:39.81	23.56	25.40	
2025-01-12 17:22:41.04	23.20	25.28	
2025-01-12 17:22:42.26	22.84	25.16	
2025-01-12 17:22:43.51	22.48	25.04	
2025-01-12 17:22:44.75	22.13	24.91	
2025-01-12 17:22:45.99	21.77	24.79	
2025-01-12 17:22:47.23	21.42	24.67	
2025-01-12 17:22:48.46	21.08	24.54	
2025-01-12 17:22:49.69	20.74	24.42	
2025-01-12 17:22:50.92	20.40	24.29	
2025-01-12 17:22:52.15	20.06	24.17	
2025-01-12 17:22:53.38	19.73	24.04	
2025-01-12 17:22:54.61	19.40	23.92	
2025-01-12 17:22:55.85	19.07	23.79	
2025-01-12 17:22:57.09	18.75	23.66	
2025-01-12 17:22:58.34	18.42	23.53	
2025-01-12 17:22:59.57	18.10	23.41	
2025-01-12 17:23:00.80	17.78	23.28	
2025-01-12 17:23:02.03	17.47	23.15	
2025-01-12 17:23:03.27	17.16	23.02	
2025-01-12 17:23:04.49	16.85	22.90	
2025-01-12 17:23:05.73	16.54	22.77	
2025-01-12 17:23:06.97	16.24	22.64	
2025-01-12 17:23:08.20	15.94	22.51	
2025-01-12 17:23:09.43	15.64	22.38	
2025-01-12 17:23:10.67	15.34	22.25	
2025-01-12 17:23:11.91	15.05	22.12	
2025-01-12 17:23:13.15	14.76	21.99	
2025-01-12 17:23:14.38	14.47	21.87	
2025-01-12 17:23:15.63	14.18	21.74	
2025-01-12 17:23:16.86	13.90	21.61	
2025-01-12 17:23:18.10	13.62	21.48	
2025-01-12 17:23:19.34	13.34	21.35	
2025-01-12 17:23:20.57	13.06	21.22	
2025-01-12 17:23:21.82	12.79	21.09	
2025-01-12 17:23:23.07	12.51	20.96	
2025-01-12 17:23:24.31	12.24	20.83	
2025-01-12 17:23:25.54	11.98	20.70	
2025-01-12 17:23:26.77	11.72	20.57	
2025-01-12 17:23:28.01	11.45	20.44	
2025-01-12 17:23:29.25	11.19	20.31	
2025-01-12 17:23:30.48	10.94	20.19	
2025-01-12 17:23:31.72	10.68	20.06	
2025-01-12 17:23:32.95	10.43	19.93	
2025-01-12 17:23:34.19	10.18	19.80	
2025-01-12 17:23:35.43	9.93	19.67	
2025-01-12 17:23:36.67	9.69	19.55	
2025-01-12 17:23:37.90	9.44	19.42	
2025-01-12 17:23:39.13	9.20	19.29	
2025-01-12 17:23:40.37	8.96	19.16	
2025-01-12 17:23:41.61	8.73	19.04	
2025-01-12 17:23:42.84	8.49	18.91	
2025-01-12 17:23:44.08	8.26	18.78	
2025-01-12 17:23:45.31	8.03	18.66	
2025-01-12 17:23:46.54	7.80	18.53	
2025-01-12 17:23:47.77	7.58	18.41	
2025-01-12 17:23:49.00	7.35	18.28	
2025-01-12 17:23:50.23	7.13	18.16	
2025-01-12 17:23:51.48	6.91	18.03	
2025-01-12 17:23:52.72	6.69	17.91	
2025-01-12 17:23:53.95	6.47	17.79	
2025-01-12 17:23:55.19	6.26	17.66	
2025-01-12 17:23:56.42	6.04	17.54	
2025-01-12 17:23:57.67	5.83	17.41	
2025-01-12 17:23:58.91	5.62	17.29	
2025-01-12 17:24:00.14	5.41	17.17	
2025-01-12 17:24:01.38	5.21	17.04	
2025-01-12 17:24:02.61	5.01	16.92	
2025-01-12 17:24:03.84	4.80	16.80	
2025-01-12 17:24:05.07	4.61	16.68	
2025-01-12 17:24:06.31	4.41	16.56	
2025-01-12 17:24:07.55	4.21	16.44	
2025-01-12 17:24:08.80	4.01	16.32	
2025-01-12 17:24:10.03	3.82	16.20	
2025-01-12 17:24:11.28	3.62	16.07	
2025-01-12 17:24:12.51	3.44	15.96	
2025-01-12 17:24:13.74	3.25	15.84	
2025-01-12 17:24:14.98	3.06	15.72	
2025-01-12 17:24:16.23	2.87	15.60	
2025-01-12 17:24:17.46	2.69	15.48	
2025-01-12 17:24:18.71	2.51	15.36	
2025-01-12 17:24:19.94	2.33	15.24	
2025-01-12 17:24:21.18	2.15	15.13	
2025-01-12 17:24:22.42	1.97	15.01	
2025-01-12 17:24:23.65	1.79	14.89	
2025-01-12 17:24:24.88	1.62	14.78	
2025-01-12 17:24:26.11	1.45	14.66	
2025-01-12 17:24:27.36	1.28	14.55	
2025-01-12 17:24:28.59	1.11	14.43	
2025-01-12 17:24:29.82	0.94	14.32	
2025-01-12 17:24:31.05	0.77	14.20	
2025-01-12 17:24:32.29	0.61	14.09	
2025-01-12 17:24:33.52	0.44	13.98	
2025-01-12 17:24:34.75	0.28	13.86	
2025-01-12 17:24:35.99	0.12	13.75	
2025-01-12 17:24:37.22	359.96	13.64	
2025-01-12 17:24:38.45	359.80	13.53	
2025-01-12 17:24:39.68	359.64	13.42	
2025-01-12 17:24:40.91	359.49	13.31	
2025-01-12 17:24:42.15	359.33	13.19	
2025-01-12 17:24:43.38	359.18	13.08	
2025-01-12 17:24:44.61	359.03	12.97	
2025-01-12 17:24:45.84	358.88	12.86	
2025-01-12 17:24:47.07	358.73	12.76	
2025-01-12 17:24:48.30	358.58	12.65	
2025-01-12 17:24:49.55	358.43	12.54	
2025-01-12 17:24:50.78	358.28	12.43	
2025-01-12 17:24:52.02	358.14	12.32	
2025-01-12 17:24:53.25	357.99	12.21	
2025-01-12 17:24:54.48	357.85	12.11	
2025-01-12 17:24:55.71	357.71	12.00	
2025-01-12 17:24:56.96	357.57	11.89	
2025-01-12 17:24:58.19	357.43	11.78	
2025-01-12 17:24:59.42	357.29	11.68	
2025-01-12 17:25:00.65	357.16	11.57	
2025-01-12 17:25:01.90	357.02	11.47	
2025-01-12 17:25:03.13	356.88	11.36	
2025-01-12 17:25:04.35	356.75	11.26	
2025-01-12 17:25:05.59	356.62	11.15	
2025-01-12 17:25:06.83	356.48	11.05	
2025-01-12 17:25:08.06	356.35	10.95	
2025-01-12 17:25:09.29	356.23	10.84	
2025-01-12 17:25:10.52	356.10	10.74	
2025-01-12 17:25:11.75	355.97	10.64	
2025-01-12 17:25:12.99	355.84	10.54	
2025-01-12 17:25:14.22	355.72	10.44	
2025-01-12 17:25:15.45	355.59	10.33	
2025-01-12 17:25:16.69	355.47	10.23	
2025-01-12 17:25:17.92	355.35	10.13	
2025-01-12 17:25:19.15	355.22	10.03	
2025-01-12 17:25:20.38	355.10	9.93	
2025-01-12 17:25:21.61	354.98	9.83	
2025-01-12 17:25:22.85	354.86	9.73	
2025-01-12 17:25:24.09	354.75	9.63	
2025-01-12 17:25:25.32	354.63	9.54	
2025-01-12 17:25:26.55	354.51	9.44	
2025-01-12 17:25:27.78	354.40	9.34	
2025-01-12 17:25:29.01	354.28	9.24	
2025-01-12 17:25:30.25	354.17	9.14	
2025-01-12 17:25:31.48	354.06	9.05	
2025-01-12 17:25:32.71	353.94	8.95	
2025-01-12 17:25:33.94	353.83	8.85	
2025-01-12 17:25:35.17	353.72	8.76	
2025-01-12 17:25:36.40	353.61	8.66	
2025-01-12 17:25:37.63	353.50	8.57	
2025-01-12 17:25:38.87	353.40	8.47	
2025-01-12 17:25:40.11	353.29	8.38	
2025-01-12 17:25:41.34	353.18	8.28	
2025-01-12 17:25:42.57	353.08	8.19	
2025-01-12 17:25:43.80	352.97	8.09	
2025-01-12 17:25:45.03	352.87	8.00	
2025-01-12 17:25:46.27	352.76	7.91	
2025-01-12 17:25:47.50	352.66	7.81	
2025-01-12 17:25:48.75	352.56	7.72	
2025-01-12 17:25:49.97	352.46	7.63	
2025-01-12 17:25:51.20	352.36	7.54	
2025-01-12 17:25:52.44	352.26	7.44	
2025-01-12 17:25:53.67	352.16	7.35	
2025-01-12 17:25:54.90	352.06	7.26	
2025-01-12 17:25:56.13	351.96	7.17	
2025-01-12 17:25:57.36	351.87	7.08	
2025-01-12 17:25:58.59	351.77	6.99	
2025-01-12 17:25:59.82	351.68	6.90	
2025-01-12 17:26:01.05	351.58	6.81	
2025-01-12 17:26:02.28	351.49	6.72	
2025-01-12 17:26:03.51	351.39	6.63	
2025-01-12 17:26:04.74	351.30	6.54	
2025-01-12 17:26:05.98	351.21	6.45	
2025-01-12 17:26:07.21	351.12	6.36	
2025-01-12 17:26:08.44	351.03	6.28	
2025-01-12 17:26:09.67	350.94	6.19	
2025-01-12 17:26:10.91	350.85	6.10	
2025-01-12 17:26:12.15	350.76	6.01	
2025-01-12 17:26:13.39	350.67	5.92	
2025-01-12 17:26:14.62	350.58	5.84	
2025-01-12 17:26:15.86	350.49	5.75	
2025-01-12 17:26:17.10	350.41	5.66	
2025-01-12 17:26:18.35	350.32	5.57	
2025-01-12 17:26:19.58	350.23	5.49	
2025-01-12 17:26:20.80	350.15	5.40	
2025-01-12 17:26:22.03	350.07	5.32	
2025-01-12 17:26:23.28	349.98	5.23	
2025-01-12 17:26:24.53	349.90	5.15	
2025-01-12 17:26:25.76	349.81	5.06	
2025-01-12 17:26:26.99	349.73	4.98	
2025-01-12 17:26:28.22	349.65	4.89	
2025-01-12 17:26:29.46	349.57	4.81	
2025-01-12 17:26:30.69	349.49	4.73	
2025-01-12 17:26:31.93	349.41	4.64	
2025-01-12 17:26:33.17	349.33	4.56	
2025-01-12 17:26:34.40	349.25	4.47	
2025-01-12 17:26:35.63	349.17	4.39	
2025-01-12 17:26:36.88	349.09	4.31	
2025-01-12 17:26:38.11	349.02	4.23	
2025-01-12 17:26:39.34	348.94	4.14	
2025-01-12 17:26:40.56	348.86	4.06	

#Closed at: 2025-01-12 17:26:41