passes_logs/2025/01/12/SPB_Silybum_02/SPB_Silybum_02__20250112_105417_TERRA_rec.log

#Pass ID: 20250112_105417_TERRA
#Satellite: TERRA
#Configuration: TERRA
#Start time: 2025-01-12 10:54:16

#Version: 2.0.20230423
#Station: SPB_Silybum_02
#Location: 30.233357 lon 59.946436 lat
#TLE: 1 25994U 99068A   25011.77277381  .00000769  00000+0  16824-3 0  9997
#TLE: 2 25994  98.0222  74.9057 0003526  79.1717  32.7508 14.60388914333608

#Time	Az	El	Level	Level2	SNR	BER	Gain	Gain2
2025-01-12 10:54:18.44	6.83	4.05	
2025-01-12 10:54:19.47	6.71	4.11	
2025-01-12 10:54:20.50	6.59	4.16	
2025-01-12 10:54:21.52	6.47	4.21	
2025-01-12 10:54:22.55	6.35	4.26	
2025-01-12 10:54:23.58	6.23	4.32	
2025-01-12 10:54:24.60	6.11	4.37	
2025-01-12 10:54:25.62	5.99	4.42	
2025-01-12 10:54:26.65	5.87	4.47	
2025-01-12 10:54:27.67	5.74	4.52	
2025-01-12 10:54:28.70	5.62	4.58	
2025-01-12 10:54:29.72	5.50	4.63	
2025-01-12 10:54:30.75	5.37	4.68	
2025-01-12 10:54:31.77	5.25	4.73	
2025-01-12 10:54:32.81	5.12	4.79	
2025-01-12 10:54:33.83	5.00	4.84	
2025-01-12 10:54:34.86	4.87	4.89	
2025-01-12 10:54:35.88	4.75	4.94	
2025-01-12 10:54:36.91	4.62	4.99	
2025-01-12 10:54:37.93	4.49	5.05	
2025-01-12 10:54:38.95	4.37	5.10	
2025-01-12 10:54:39.99	4.24	5.15	
2025-01-12 10:54:41.02	4.11	5.20	
2025-01-12 10:54:42.06	3.98	5.26	
2025-01-12 10:54:43.10	3.84	5.31	
2025-01-12 10:54:44.14	3.71	5.36	
2025-01-12 10:54:45.18	3.58	5.41	
2025-01-12 10:54:46.20	3.45	5.47	
2025-01-12 10:54:47.23	3.32	5.52	
2025-01-12 10:54:48.26	3.18	5.57	
2025-01-12 10:54:49.28	3.05	5.62	
2025-01-12 10:54:50.32	2.91	5.67	
2025-01-12 10:54:51.34	2.78	5.73	
2025-01-12 10:54:52.37	2.65	5.78	
2025-01-12 10:54:53.40	2.51	5.83	
2025-01-12 10:54:54.43	2.37	5.88	
2025-01-12 10:54:55.45	2.24	5.93	
2025-01-12 10:54:56.49	2.10	5.99	
2025-01-12 10:54:57.52	1.96	6.04	
2025-01-12 10:54:58.55	1.82	6.09	
2025-01-12 10:54:59.58	1.68	6.14	
2025-01-12 10:55:00.60	1.55	6.19	
2025-01-12 10:55:01.62	1.41	6.24	
2025-01-12 10:55:02.66	1.26	6.30	
2025-01-12 10:55:03.69	1.12	6.35	
2025-01-12 10:55:04.73	0.98	6.40	
2025-01-12 10:55:05.76	0.84	6.45	
2025-01-12 10:55:06.80	0.69	6.50	
2025-01-12 10:55:07.82	0.55	6.56	
2025-01-12 10:55:08.85	0.41	6.61	
2025-01-12 10:55:09.89	0.26	6.66	
2025-01-12 10:55:10.91	0.12	6.71	
2025-01-12 10:55:11.94	359.97	6.76	
2025-01-12 10:55:12.97	359.82	6.81	
2025-01-12 10:55:14.00	359.68	6.86	
2025-01-12 10:55:15.02	359.53	6.91	
2025-01-12 10:55:16.05	359.38	6.97	
2025-01-12 10:55:17.08	359.23	7.02	
2025-01-12 10:55:18.10	359.09	7.07	
2025-01-12 10:55:19.15	358.93	7.12	
2025-01-12 10:55:20.17	358.78	7.17	
2025-01-12 10:55:21.19	358.64	7.22	
2025-01-12 10:55:22.22	358.48	7.27	
2025-01-12 10:55:23.25	358.33	7.32	
2025-01-12 10:55:24.28	358.18	7.37	
2025-01-12 10:55:25.30	358.03	7.42	
2025-01-12 10:55:26.33	357.87	7.47	
2025-01-12 10:55:27.36	357.72	7.52	
2025-01-12 10:55:28.40	357.56	7.57	
2025-01-12 10:55:29.44	357.40	7.63	
2025-01-12 10:55:30.46	357.25	7.67	
2025-01-12 10:55:31.49	357.09	7.73	
2025-01-12 10:55:32.52	356.93	7.78	
2025-01-12 10:55:33.54	356.78	7.82	
2025-01-12 10:55:34.57	356.62	7.87	
2025-01-12 10:55:35.59	356.46	7.92	
2025-01-12 10:55:36.62	356.30	7.97	
2025-01-12 10:55:37.65	356.14	8.02	
2025-01-12 10:55:38.67	355.98	8.07	
2025-01-12 10:55:39.70	355.82	8.12	
2025-01-12 10:55:40.73	355.66	8.17	
2025-01-12 10:55:41.76	355.49	8.22	
2025-01-12 10:55:42.78	355.33	8.27	
2025-01-12 10:55:43.81	355.17	8.32	
2025-01-12 10:55:44.84	355.00	8.37	
2025-01-12 10:55:45.88	354.84	8.42	
2025-01-12 10:55:46.90	354.67	8.46	
2025-01-12 10:55:47.93	354.50	8.51	
2025-01-12 10:55:48.95	354.34	8.56	
2025-01-12 10:55:49.98	354.17	8.61	
2025-01-12 10:55:51.02	354.00	8.66	
2025-01-12 10:55:52.04	353.83	8.71	
2025-01-12 10:55:53.07	353.66	8.75	
2025-01-12 10:55:54.10	353.49	8.80	
2025-01-12 10:55:55.12	353.32	8.85	
2025-01-12 10:55:56.15	353.15	8.90	
2025-01-12 10:55:57.18	352.98	8.94	
2025-01-12 10:55:58.20	352.81	8.99	
2025-01-12 10:55:59.23	352.64	9.04	
2025-01-12 10:56:00.26	352.46	9.09	
2025-01-12 10:56:01.29	352.29	9.13	
2025-01-12 10:56:02.33	352.11	9.18	
2025-01-12 10:56:03.35	351.94	9.23	
2025-01-12 10:56:04.37	351.76	9.27	
2025-01-12 10:56:05.41	351.58	9.32	
2025-01-12 10:56:06.43	351.41	9.36	
2025-01-12 10:56:07.46	351.23	9.41	
2025-01-12 10:56:08.49	351.05	9.46	
2025-01-12 10:56:09.51	350.87	9.50	
2025-01-12 10:56:10.54	350.69	9.55	
2025-01-12 10:56:11.57	350.51	9.59	
2025-01-12 10:56:12.59	350.33	9.64	
2025-01-12 10:56:13.62	350.15	9.68	
2025-01-12 10:56:14.66	349.96	9.73	
2025-01-12 10:56:15.68	349.78	9.77	
2025-01-12 10:56:16.71	349.60	9.82	
2025-01-12 10:56:17.74	349.41	9.86	
2025-01-12 10:56:18.76	349.23	9.90	
2025-01-12 10:56:19.79	349.04	9.95	
2025-01-12 10:56:20.83	348.86	9.99	
2025-01-12 10:56:21.85	348.67	10.04	
2025-01-12 10:56:22.89	348.48	10.08	
2025-01-12 10:56:23.92	348.29	10.12	
2025-01-12 10:56:24.94	348.11	10.17	
2025-01-12 10:56:25.97	347.92	10.21	
2025-01-12 10:56:27.00	347.73	10.25	
2025-01-12 10:56:28.02	347.54	10.29	
2025-01-12 10:56:29.05	347.35	10.34	
2025-01-12 10:56:30.07	347.16	10.38	
2025-01-12 10:56:31.11	346.96	10.42	
2025-01-12 10:56:32.14	346.77	10.46	
2025-01-12 10:56:33.16	346.58	10.50	
2025-01-12 10:56:34.19	346.38	10.54	
2025-01-12 10:56:35.21	346.19	10.58	
2025-01-12 10:56:36.24	345.99	10.62	
2025-01-12 10:56:37.28	345.80	10.66	
2025-01-12 10:56:38.30	345.60	10.70	
2025-01-12 10:56:39.33	345.40	10.74	
2025-01-12 10:56:40.37	345.20	10.78	
2025-01-12 10:56:41.39	345.01	10.82	
2025-01-12 10:56:42.41	344.81	10.86	
2025-01-12 10:56:43.44	344.61	10.90	
2025-01-12 10:56:44.47	344.41	10.94	
2025-01-12 10:56:45.49	344.21	10.98	
2025-01-12 10:56:46.54	344.01	11.02	
2025-01-12 10:56:47.56	343.81	11.06	
2025-01-12 10:56:48.58	343.61	11.09	
2025-01-12 10:56:49.61	343.40	11.13	
2025-01-12 10:56:50.63	343.20	11.17	
2025-01-12 10:56:51.66	343.00	11.20	
2025-01-12 10:56:52.69	342.79	11.24	
2025-01-12 10:56:53.71	342.59	11.28	
2025-01-12 10:56:54.74	342.38	11.31	
2025-01-12 10:56:55.76	342.18	11.35	
2025-01-12 10:56:56.79	341.97	11.38	
2025-01-12 10:56:57.82	341.76	11.42	
2025-01-12 10:56:58.84	341.56	11.45	
2025-01-12 10:56:59.87	341.35	11.49	
2025-01-12 10:57:00.89	341.14	11.52	
2025-01-12 10:57:01.92	340.93	11.56	
2025-01-12 10:57:02.94	340.72	11.59	
2025-01-12 10:57:03.97	340.51	11.62	
2025-01-12 10:57:05.00	340.30	11.66	
2025-01-12 10:57:06.03	340.09	11.69	
2025-01-12 10:57:07.05	339.88	11.72	
2025-01-12 10:57:08.07	339.67	11.75	
2025-01-12 10:57:09.10	339.46	11.78	
2025-01-12 10:57:10.14	339.24	11.82	
2025-01-12 10:57:11.17	339.03	11.85	
2025-01-12 10:57:12.20	338.81	11.88	
2025-01-12 10:57:13.22	338.60	11.91	
2025-01-12 10:57:14.26	338.38	11.94	
2025-01-12 10:57:15.29	338.16	11.97	
2025-01-12 10:57:16.33	337.95	12.00	
2025-01-12 10:57:17.36	337.73	12.03	
2025-01-12 10:57:18.38	337.51	12.06	
2025-01-12 10:57:19.41	337.29	12.09	
2025-01-12 10:57:20.44	337.08	12.11	
2025-01-12 10:57:21.46	336.86	12.14	
2025-01-12 10:57:22.51	336.63	12.17	
2025-01-12 10:57:23.53	336.42	12.20	
2025-01-12 10:57:24.56	336.20	12.22	
2025-01-12 10:57:25.59	335.98	12.25	
2025-01-12 10:57:26.62	335.75	12.28	
2025-01-12 10:57:27.64	335.53	12.30	
2025-01-12 10:57:28.67	335.31	12.33	
2025-01-12 10:57:29.69	335.09	12.35	
2025-01-12 10:57:30.72	334.87	12.38	
2025-01-12 10:57:31.76	334.64	12.40	
2025-01-12 10:57:32.79	334.42	12.42	
2025-01-12 10:57:33.81	334.20	12.45	
2025-01-12 10:57:34.84	333.97	12.47	
2025-01-12 10:57:35.87	333.75	12.49	
2025-01-12 10:57:36.90	333.52	12.52	
2025-01-12 10:57:37.94	333.30	12.54	
2025-01-12 10:57:38.98	333.07	12.56	
2025-01-12 10:57:40.01	332.84	12.58	
2025-01-12 10:57:41.04	332.61	12.60	
2025-01-12 10:57:42.06	332.39	12.62	
2025-01-12 10:57:43.09	332.16	12.64	
2025-01-12 10:57:44.13	331.93	12.66	
2025-01-12 10:57:45.16	331.70	12.68	
2025-01-12 10:57:46.19	331.48	12.70	
2025-01-12 10:57:47.21	331.25	12.72	
2025-01-12 10:57:48.24	331.02	12.74	
2025-01-12 10:57:49.27	330.79	12.75	
2025-01-12 10:57:50.31	330.56	12.77	
2025-01-12 10:57:51.35	330.33	12.79	
2025-01-12 10:57:52.38	330.10	12.80	
2025-01-12 10:57:53.40	329.87	12.82	
2025-01-12 10:57:54.43	329.64	12.83	
2025-01-12 10:57:55.45	329.41	12.85	
2025-01-12 10:57:56.48	329.18	12.86	
2025-01-12 10:57:57.50	328.95	12.88	
2025-01-12 10:57:58.53	328.72	12.89	
2025-01-12 10:57:59.56	328.48	12.91	
2025-01-12 10:58:00.58	328.26	12.92	
2025-01-12 10:58:01.62	328.02	12.93	
2025-01-12 10:58:02.64	327.79	12.94	
2025-01-12 10:58:03.67	327.56	12.95	
2025-01-12 10:58:04.70	327.32	12.97	
2025-01-12 10:58:05.73	327.09	12.98	
2025-01-12 10:58:06.76	326.86	12.99	
2025-01-12 10:58:07.79	326.62	13.00	
2025-01-12 10:58:08.81	326.39	13.01	
2025-01-12 10:58:09.84	326.16	13.01	
2025-01-12 10:58:10.87	325.92	13.02	
2025-01-12 10:58:11.90	325.69	13.03	
2025-01-12 10:58:12.93	325.46	13.04	
2025-01-12 10:58:13.96	325.22	13.05	
2025-01-12 10:58:14.99	324.99	13.05	
2025-01-12 10:58:16.02	324.75	13.06	
2025-01-12 10:58:17.04	324.52	13.06	
2025-01-12 10:58:18.08	324.28	13.07	
2025-01-12 10:58:19.11	324.05	13.07	
2025-01-12 10:58:20.15	323.81	13.08	
2025-01-12 10:58:21.18	323.58	13.08	
2025-01-12 10:58:22.20	323.34	13.09	
2025-01-12 10:58:23.23	323.11	13.09	
2025-01-12 10:58:24.27	322.87	13.09	
2025-01-12 10:58:25.30	322.63	13.10	
2025-01-12 10:58:26.32	322.40	13.10	
2025-01-12 10:58:27.35	322.17	13.10	
2025-01-12 10:58:28.38	321.93	13.10	
2025-01-12 10:58:29.42	321.69	13.10	
2025-01-12 10:58:30.45	321.46	13.10	
2025-01-12 10:58:31.48	321.22	13.10	
2025-01-12 10:58:32.51	320.99	13.10	
2025-01-12 10:58:33.53	320.75	13.10	
2025-01-12 10:58:34.56	320.52	13.10	
2025-01-12 10:58:35.58	320.28	13.09	
2025-01-12 10:58:36.61	320.05	13.09	
2025-01-12 10:58:37.63	319.82	13.09	
2025-01-12 10:58:38.66	319.58	13.08	
2025-01-12 10:58:39.69	319.34	13.08	
2025-01-12 10:58:40.71	319.11	13.07	
2025-01-12 10:58:41.74	318.88	13.07	
2025-01-12 10:58:42.77	318.64	13.06	
2025-01-12 10:58:43.80	318.41	13.06	
2025-01-12 10:58:44.83	318.17	13.05	
2025-01-12 10:58:45.87	317.94	13.05	
2025-01-12 10:58:46.89	317.70	13.04	
2025-01-12 10:58:47.92	317.47	13.03	
2025-01-12 10:58:48.97	317.23	13.02	
2025-01-12 10:58:49.99	317.00	13.01	
2025-01-12 10:58:51.02	316.76	13.01	
2025-01-12 10:58:52.04	316.53	13.00	
2025-01-12 10:58:53.07	316.30	12.99	
2025-01-12 10:58:54.10	316.06	12.98	
2025-01-12 10:58:55.12	315.83	12.97	
2025-01-12 10:58:56.16	315.60	12.95	
2025-01-12 10:58:57.20	315.36	12.94	
2025-01-12 10:58:58.23	315.13	12.93	
2025-01-12 10:58:59.25	314.90	12.92	
2025-01-12 10:59:00.29	314.67	12.90	
2025-01-12 10:59:01.31	314.44	12.89	
2025-01-12 10:59:02.35	314.20	12.88	
2025-01-12 10:59:03.40	313.96	12.86	
2025-01-12 10:59:04.42	313.74	12.85	
2025-01-12 10:59:05.45	313.50	12.83	
2025-01-12 10:59:06.48	313.27	12.82	
2025-01-12 10:59:07.51	313.04	12.80	
2025-01-12 10:59:08.53	312.81	12.79	
2025-01-12 10:59:09.56	312.58	12.77	
2025-01-12 10:59:10.59	312.35	12.75	
2025-01-12 10:59:11.61	312.13	12.74	
2025-01-12 10:59:12.64	311.90	12.72	
2025-01-12 10:59:13.67	311.67	12.70	
2025-01-12 10:59:14.69	311.44	12.68	
2025-01-12 10:59:15.72	311.21	12.66	
2025-01-12 10:59:16.75	310.99	12.64	
2025-01-12 10:59:17.77	310.76	12.62	
2025-01-12 10:59:18.80	310.53	12.60	
2025-01-12 10:59:19.82	310.31	12.58	
2025-01-12 10:59:20.85	310.08	12.56	
2025-01-12 10:59:21.88	309.86	12.54	
2025-01-12 10:59:22.90	309.63	12.52	
2025-01-12 10:59:23.93	309.41	12.49	
2025-01-12 10:59:24.95	309.18	12.47	
2025-01-12 10:59:25.98	308.96	12.45	
2025-01-12 10:59:27.01	308.73	12.42	
2025-01-12 10:59:28.03	308.51	12.40	
2025-01-12 10:59:29.08	308.28	12.38	
2025-01-12 10:59:30.10	308.06	12.35	
2025-01-12 10:59:31.13	307.84	12.33	
2025-01-12 10:59:32.15	307.62	12.30	
2025-01-12 10:59:33.18	307.40	12.28	
2025-01-12 10:59:34.20	307.18	12.25	
2025-01-12 10:59:35.23	306.96	12.22	
2025-01-12 10:59:36.25	306.74	12.20	
2025-01-12 10:59:37.28	306.52	12.17	
2025-01-12 10:59:38.30	306.30	12.14	
2025-01-12 10:59:39.33	306.08	12.11	
2025-01-12 10:59:40.37	305.86	12.09	
2025-01-12 10:59:41.41	305.64	12.06	
2025-01-12 10:59:42.45	305.42	12.03	
2025-01-12 10:59:43.47	305.20	12.00	
2025-01-12 10:59:44.50	304.98	11.97	
2025-01-12 10:59:45.52	304.77	11.94	
2025-01-12 10:59:46.54	304.56	11.91	
2025-01-12 10:59:47.56	304.34	11.88	
2025-01-12 10:59:48.60	304.12	11.85	
2025-01-12 10:59:49.64	303.91	11.82	
2025-01-12 10:59:50.67	303.69	11.78	
2025-01-12 10:59:51.70	303.48	11.75	
2025-01-12 10:59:52.73	303.27	11.72	
2025-01-12 10:59:53.75	303.06	11.69	
2025-01-12 10:59:54.78	302.84	11.66	
2025-01-12 10:59:55.81	302.63	11.62	
2025-01-12 10:59:56.85	302.42	11.59	
2025-01-12 10:59:57.89	302.21	11.55	
2025-01-12 10:59:58.91	302.00	11.52	
2025-01-12 10:59:59.94	301.79	11.49	
2025-01-12 11:00:00.96	301.58	11.45	
2025-01-12 11:00:01.99	301.37	11.42	
2025-01-12 11:00:03.02	301.16	11.38	
2025-01-12 11:00:04.04	300.96	11.35	
2025-01-12 11:00:05.07	300.75	11.31	
2025-01-12 11:00:06.12	300.54	11.27	
2025-01-12 11:00:07.14	300.34	11.24	
2025-01-12 11:00:08.17	300.13	11.20	
2025-01-12 11:00:09.19	299.93	11.16	
2025-01-12 11:00:10.23	299.72	11.13	
2025-01-12 11:00:11.26	299.52	11.09	
2025-01-12 11:00:12.28	299.32	11.05	
2025-01-12 11:00:13.31	299.12	11.01	
2025-01-12 11:00:14.34	298.91	10.97	
2025-01-12 11:00:15.36	298.71	10.94	
2025-01-12 11:00:16.39	298.51	10.90	
2025-01-12 11:00:17.42	298.31	10.86	
2025-01-12 11:00:18.44	298.12	10.82	
2025-01-12 11:00:19.47	297.92	10.78	
2025-01-12 11:00:20.50	297.72	10.74	
2025-01-12 11:00:21.52	297.52	10.70	
2025-01-12 11:00:22.55	297.33	10.66	
2025-01-12 11:00:23.58	297.13	10.62	
2025-01-12 11:00:24.60	296.93	10.58	
2025-01-12 11:00:25.63	296.74	10.54	
2025-01-12 11:00:26.65	296.55	10.50	
2025-01-12 11:00:27.68	296.35	10.46	
2025-01-12 11:00:28.70	296.16	10.42	
2025-01-12 11:00:29.73	295.97	10.37	
2025-01-12 11:00:30.76	295.77	10.33	
2025-01-12 11:00:31.79	295.58	10.29	
2025-01-12 11:00:32.83	295.39	10.25	
2025-01-12 11:00:33.86	295.20	10.20	
2025-01-12 11:00:34.88	295.01	10.16	
2025-01-12 11:00:35.90	294.82	10.12	
2025-01-12 11:00:36.93	294.63	10.07	
2025-01-12 11:00:37.95	294.45	10.03	
2025-01-12 11:00:38.99	294.26	9.99	
2025-01-12 11:00:40.02	294.07	9.94	
2025-01-12 11:00:41.04	293.89	9.90	
2025-01-12 11:00:42.07	293.70	9.86	
2025-01-12 11:00:43.10	293.51	9.81	
2025-01-12 11:00:44.12	293.33	9.77	
2025-01-12 11:00:45.14	293.15	9.72	
2025-01-12 11:00:46.17	292.97	9.68	
2025-01-12 11:00:47.19	292.78	9.63	
2025-01-12 11:00:48.23	292.60	9.59	
2025-01-12 11:00:49.25	292.42	9.54	
2025-01-12 11:00:50.29	292.24	9.50	
2025-01-12 11:00:51.31	292.06	9.45	
2025-01-12 11:00:52.34	291.88	9.40	
2025-01-12 11:00:53.37	291.70	9.36	
2025-01-12 11:00:54.39	291.52	9.31	
2025-01-12 11:00:55.42	291.35	9.27	
2025-01-12 11:00:56.44	291.17	9.22	
2025-01-12 11:00:57.48	290.99	9.17	
2025-01-12 11:00:58.51	290.82	9.13	
2025-01-12 11:00:59.53	290.64	9.08	
2025-01-12 11:01:00.56	290.47	9.03	
2025-01-12 11:01:01.59	290.29	8.98	
2025-01-12 11:01:02.61	290.12	8.94	
2025-01-12 11:01:03.65	289.95	8.89	
2025-01-12 11:01:04.69	289.77	8.84	
2025-01-12 11:01:05.71	289.60	8.79	
2025-01-12 11:01:06.74	289.43	8.75	
2025-01-12 11:01:07.76	289.26	8.70	
2025-01-12 11:01:08.79	289.09	8.65	
2025-01-12 11:01:09.83	288.92	8.60	
2025-01-12 11:01:10.87	288.75	8.55	
2025-01-12 11:01:11.89	288.59	8.50	
2025-01-12 11:01:12.92	288.42	8.46	
2025-01-12 11:01:13.95	288.25	8.41	
2025-01-12 11:01:14.99	288.08	8.36	
2025-01-12 11:01:16.01	287.92	8.31	
2025-01-12 11:01:17.04	287.76	8.26	
2025-01-12 11:01:18.07	287.59	8.21	
2025-01-12 11:01:19.11	287.43	8.16	
2025-01-12 11:01:20.13	287.26	8.11	
2025-01-12 11:01:21.16	287.10	8.06	
2025-01-12 11:01:22.18	286.94	8.01	
2025-01-12 11:01:23.21	286.78	7.96	
2025-01-12 11:01:24.23	286.62	7.91	
2025-01-12 11:01:25.26	286.46	7.86	
2025-01-12 11:01:26.29	286.30	7.81	
2025-01-12 11:01:27.31	286.14	7.76	
2025-01-12 11:01:28.34	285.99	7.71	
2025-01-12 11:01:29.37	285.83	7.66	
2025-01-12 11:01:30.40	285.67	7.61	
2025-01-12 11:01:31.42	285.52	7.56	
2025-01-12 11:01:32.45	285.36	7.51	
2025-01-12 11:01:33.47	285.21	7.46	
2025-01-12 11:01:34.50	285.05	7.41	
2025-01-12 11:01:35.52	284.90	7.36	
2025-01-12 11:01:36.55	284.74	7.31	
2025-01-12 11:01:37.58	284.59	7.26	
2025-01-12 11:01:38.60	284.44	7.21	
2025-01-12 11:01:39.63	284.29	7.16	
2025-01-12 11:01:40.66	284.14	7.11	
2025-01-12 11:01:41.68	283.99	7.06	
2025-01-12 11:01:42.71	283.84	7.01	
2025-01-12 11:01:43.74	283.69	6.96	
2025-01-12 11:01:44.76	283.54	6.90	
2025-01-12 11:01:45.79	283.39	6.85	
2025-01-12 11:01:46.81	283.25	6.80	
2025-01-12 11:01:47.84	283.10	6.75	
2025-01-12 11:01:48.87	282.95	6.70	
2025-01-12 11:01:49.89	282.81	6.65	
2025-01-12 11:01:50.92	282.66	6.60	
2025-01-12 11:01:51.95	282.52	6.55	
2025-01-12 11:01:52.99	282.37	6.49	
2025-01-12 11:01:54.02	282.23	6.44	
2025-01-12 11:01:55.04	282.09	6.39	
2025-01-12 11:01:56.07	281.94	6.34	
2025-01-12 11:01:57.09	281.80	6.29	
2025-01-12 11:01:58.12	281.66	6.23	
2025-01-12 11:01:59.15	281.52	6.18	
2025-01-12 11:02:00.17	281.38	6.13	
2025-01-12 11:02:01.20	281.24	6.08	
2025-01-12 11:02:02.23	281.10	6.03	
2025-01-12 11:02:03.26	280.96	5.98	
2025-01-12 11:02:04.29	280.83	5.92	
2025-01-12 11:02:05.32	280.69	5.87	
2025-01-12 11:02:06.34	280.55	5.82	
2025-01-12 11:02:07.37	280.41	5.77	
2025-01-12 11:02:08.39	280.28	5.72	
2025-01-12 11:02:09.42	280.14	5.66	
2025-01-12 11:02:10.46	280.01	5.61	
2025-01-12 11:02:11.48	279.88	5.56	
2025-01-12 11:02:12.51	279.74	5.51	
2025-01-12 11:02:13.55	279.61	5.45	
2025-01-12 11:02:14.58	279.47	5.40	
2025-01-12 11:02:15.61	279.34	5.35	
2025-01-12 11:02:16.64	279.21	5.30	
2025-01-12 11:02:17.66	279.08	5.24	
2025-01-12 11:02:18.69	278.95	5.19	
2025-01-12 11:02:19.71	278.82	5.14	
2025-01-12 11:02:20.74	278.69	5.09	
2025-01-12 11:02:21.79	278.56	5.03	
2025-01-12 11:02:22.82	278.43	4.98	
2025-01-12 11:02:23.84	278.30	4.93	
2025-01-12 11:02:24.87	278.17	4.88	
2025-01-12 11:02:25.89	278.05	4.83	
2025-01-12 11:02:26.92	277.92	4.77	
2025-01-12 11:02:27.94	277.80	4.72	
2025-01-12 11:02:28.97	277.67	4.67	
2025-01-12 11:02:30.00	277.55	4.62	
2025-01-12 11:02:31.04	277.42	4.56	
2025-01-12 11:02:32.08	277.30	4.51	
2025-01-12 11:02:33.11	277.17	4.46	
2025-01-12 11:02:34.13	277.05	4.41	
2025-01-12 11:02:35.15	276.93	4.35	
2025-01-12 11:02:36.20	276.80	4.30	
2025-01-12 11:02:37.22	276.68	4.25	
2025-01-12 11:02:38.26	276.56	4.19	
2025-01-12 11:02:39.30	276.44	4.14	
2025-01-12 11:02:40.32	276.32	4.09	
2025-01-12 11:02:41.35	276.20	4.04	

#Closed at: 2025-01-12 11:02:42