passes_logs/2025/01/12/SPB_Silybum_02/SPB_Silybum_02__20250112_203234_TERRA_rec.log

#Pass ID: 20250112_203234_TERRA
#Satellite: TERRA
#Configuration: TERRA
#Start time: 2025-01-12 20:32:34

#Version: 2.0.20230423
#Station: SPB_Silybum_02
#Location: 30.233357 lon 59.946436 lat
#TLE: 1 25994U 99068A   25011.77277381  .00000769  00000+0  16824-3 0  9997
#TLE: 2 25994  98.0222  74.9057 0003526  79.1717  32.7508 14.60388914333608

#Time	Az	El	Level	Level2	SNR	BER	Gain	Gain2
2025-01-12 20:32:36.06	228.90	4.07	
2025-01-12 20:32:37.09	229.02	4.12	
2025-01-12 20:32:38.12	229.14	4.17	
2025-01-12 20:32:39.14	229.26	4.22	
2025-01-12 20:32:40.18	229.38	4.28	
2025-01-12 20:32:41.21	229.50	4.33	
2025-01-12 20:32:42.23	229.62	4.38	
2025-01-12 20:32:43.26	229.75	4.44	
2025-01-12 20:32:44.29	229.87	4.49	
2025-01-12 20:32:45.31	229.99	4.54	
2025-01-12 20:32:46.33	230.12	4.59	
2025-01-12 20:32:47.36	230.24	4.65	
2025-01-12 20:32:48.38	230.36	4.70	
2025-01-12 20:32:49.41	230.49	4.75	
2025-01-12 20:32:50.44	230.62	4.81	
2025-01-12 20:32:51.46	230.74	4.86	
2025-01-12 20:32:52.49	230.87	4.91	
2025-01-12 20:32:53.52	231.00	4.97	
2025-01-12 20:32:54.54	231.12	5.02	
2025-01-12 20:32:55.57	231.25	5.07	
2025-01-12 20:32:56.59	231.38	5.12	
2025-01-12 20:32:57.62	231.51	5.18	
2025-01-12 20:32:58.65	231.64	5.23	
2025-01-12 20:32:59.69	231.77	5.28	
2025-01-12 20:33:00.71	231.90	5.34	
2025-01-12 20:33:01.74	232.03	5.39	
2025-01-12 20:33:02.76	232.16	5.44	
2025-01-12 20:33:03.79	232.30	5.50	
2025-01-12 20:33:04.81	232.43	5.55	
2025-01-12 20:33:05.84	232.56	5.60	
2025-01-12 20:33:06.87	232.69	5.65	
2025-01-12 20:33:07.89	232.83	5.71	
2025-01-12 20:33:08.92	232.96	5.76	
2025-01-12 20:33:09.94	233.10	5.81	
2025-01-12 20:33:10.97	233.23	5.87	
2025-01-12 20:33:12.01	233.37	5.92	
2025-01-12 20:33:13.04	233.51	5.97	
2025-01-12 20:33:14.06	233.64	6.03	
2025-01-12 20:33:15.08	233.78	6.08	
2025-01-12 20:33:16.11	233.92	6.13	
2025-01-12 20:33:17.15	234.06	6.18	
2025-01-12 20:33:18.18	234.20	6.24	
2025-01-12 20:33:19.20	234.34	6.29	
2025-01-12 20:33:20.23	234.48	6.34	
2025-01-12 20:33:21.26	234.62	6.40	
2025-01-12 20:33:22.29	234.76	6.45	
2025-01-12 20:33:23.31	234.90	6.50	
2025-01-12 20:33:24.35	235.05	6.56	
2025-01-12 20:33:25.38	235.19	6.61	
2025-01-12 20:33:26.42	235.34	6.66	
2025-01-12 20:33:27.45	235.48	6.72	
2025-01-12 20:33:28.47	235.63	6.77	
2025-01-12 20:33:29.49	235.77	6.82	
2025-01-12 20:33:30.53	235.92	6.87	
2025-01-12 20:33:31.55	236.06	6.93	
2025-01-12 20:33:32.58	236.21	6.98	
2025-01-12 20:33:33.60	236.36	7.03	
2025-01-12 20:33:34.63	236.51	7.08	
2025-01-12 20:33:35.66	236.66	7.14	
2025-01-12 20:33:36.68	236.80	7.19	
2025-01-12 20:33:37.70	236.95	7.24	
2025-01-12 20:33:38.72	237.10	7.29	
2025-01-12 20:33:39.75	237.25	7.34	
2025-01-12 20:33:40.78	237.41	7.40	
2025-01-12 20:33:41.80	237.56	7.45	
2025-01-12 20:33:42.82	237.71	7.50	
2025-01-12 20:33:43.87	237.87	7.55	
2025-01-12 20:33:44.92	238.02	7.61	
2025-01-12 20:33:45.94	238.18	7.66	
2025-01-12 20:33:46.97	238.33	7.71	
2025-01-12 20:33:47.99	238.49	7.76	
2025-01-12 20:33:49.02	238.64	7.82	
2025-01-12 20:33:50.06	238.80	7.87	
2025-01-12 20:33:51.09	238.96	7.92	
2025-01-12 20:33:52.12	239.12	7.97	
2025-01-12 20:33:53.14	239.28	8.02	
2025-01-12 20:33:54.17	239.44	8.08	
2025-01-12 20:33:55.19	239.59	8.13	
2025-01-12 20:33:56.21	239.75	8.18	
2025-01-12 20:33:57.24	239.91	8.23	
2025-01-12 20:33:58.27	240.08	8.28	
2025-01-12 20:33:59.29	240.24	8.33	
2025-01-12 20:34:00.32	240.40	8.38	
2025-01-12 20:34:01.35	240.56	8.43	
2025-01-12 20:34:02.38	240.73	8.49	
2025-01-12 20:34:03.40	240.89	8.54	
2025-01-12 20:34:04.43	241.06	8.59	
2025-01-12 20:34:05.45	241.22	8.64	
2025-01-12 20:34:06.49	241.39	8.69	
2025-01-12 20:34:07.52	241.56	8.74	
2025-01-12 20:34:08.54	241.72	8.79	
2025-01-12 20:34:09.57	241.89	8.84	
2025-01-12 20:34:10.59	242.06	8.89	
2025-01-12 20:34:11.62	242.23	8.94	
2025-01-12 20:34:12.65	242.40	8.99	
2025-01-12 20:34:13.68	242.57	9.04	
2025-01-12 20:34:14.70	242.74	9.09	
2025-01-12 20:34:15.73	242.91	9.14	
2025-01-12 20:34:16.75	243.09	9.19	
2025-01-12 20:34:17.79	243.26	9.24	
2025-01-12 20:34:18.83	243.44	9.29	
2025-01-12 20:34:19.85	243.61	9.34	
2025-01-12 20:34:20.87	243.78	9.39	
2025-01-12 20:34:21.90	243.96	9.44	
2025-01-12 20:34:22.92	244.13	9.49	
2025-01-12 20:34:23.95	244.31	9.54	
2025-01-12 20:34:24.97	244.49	9.59	
2025-01-12 20:34:26.00	244.67	9.64	
2025-01-12 20:34:27.02	244.84	9.68	
2025-01-12 20:34:28.04	245.02	9.73	
2025-01-12 20:34:29.09	245.21	9.78	
2025-01-12 20:34:30.11	245.39	9.83	
2025-01-12 20:34:31.14	245.57	9.88	
2025-01-12 20:34:32.16	245.75	9.93	
2025-01-12 20:34:33.19	245.93	9.97	
2025-01-12 20:34:34.21	246.11	10.02	
2025-01-12 20:34:35.24	246.30	10.07	
2025-01-12 20:34:36.27	246.48	10.12	
2025-01-12 20:34:37.29	246.67	10.16	
2025-01-12 20:34:38.32	246.85	10.21	
2025-01-12 20:34:39.35	247.04	10.26	
2025-01-12 20:34:40.37	247.22	10.31	
2025-01-12 20:34:41.40	247.41	10.35	
2025-01-12 20:34:42.43	247.60	10.40	
2025-01-12 20:34:43.45	247.79	10.45	
2025-01-12 20:34:44.48	247.98	10.49	
2025-01-12 20:34:45.51	248.17	10.54	
2025-01-12 20:34:46.55	248.36	10.58	
2025-01-12 20:34:47.59	248.55	10.63	
2025-01-12 20:34:48.61	248.74	10.68	
2025-01-12 20:34:49.64	248.94	10.72	
2025-01-12 20:34:50.68	249.13	10.77	
2025-01-12 20:34:51.70	249.33	10.81	
2025-01-12 20:34:52.73	249.52	10.86	
2025-01-12 20:34:53.77	249.72	10.90	
2025-01-12 20:34:54.80	249.91	10.95	
2025-01-12 20:34:55.82	250.11	10.99	
2025-01-12 20:34:56.85	250.31	11.04	
2025-01-12 20:34:57.87	250.50	11.08	
2025-01-12 20:34:58.89	250.70	11.12	
2025-01-12 20:34:59.92	250.90	11.17	
2025-01-12 20:35:00.94	251.10	11.21	
2025-01-12 20:35:01.96	251.29	11.25	
2025-01-12 20:35:02.99	251.50	11.29	
2025-01-12 20:35:04.01	251.69	11.34	
2025-01-12 20:35:05.03	251.90	11.38	
2025-01-12 20:35:06.07	252.10	11.42	
2025-01-12 20:35:07.10	252.30	11.46	
2025-01-12 20:35:08.12	252.51	11.51	
2025-01-12 20:35:09.15	252.71	11.55	
2025-01-12 20:35:10.18	252.92	11.59	
2025-01-12 20:35:11.20	253.12	11.63	
2025-01-12 20:35:12.23	253.33	11.67	
2025-01-12 20:35:13.25	253.53	11.71	
2025-01-12 20:35:14.28	253.74	11.75	
2025-01-12 20:35:15.31	253.95	11.79	
2025-01-12 20:35:16.34	254.16	11.83	
2025-01-12 20:35:17.38	254.37	11.87	
2025-01-12 20:35:18.41	254.58	11.91	
2025-01-12 20:35:19.44	254.79	11.95	
2025-01-12 20:35:20.47	255.00	11.99	
2025-01-12 20:35:21.49	255.21	12.03	
2025-01-12 20:35:22.51	255.42	12.06	
2025-01-12 20:35:23.54	255.63	12.10	
2025-01-12 20:35:24.58	255.85	12.14	
2025-01-12 20:35:25.60	256.06	12.18	
2025-01-12 20:35:26.63	256.27	12.22	
2025-01-12 20:35:27.66	256.49	12.25	
2025-01-12 20:35:28.69	256.70	12.29	
2025-01-12 20:35:29.71	256.92	12.32	
2025-01-12 20:35:30.73	257.13	12.36	
2025-01-12 20:35:31.76	257.35	12.40	
2025-01-12 20:35:32.78	257.57	12.43	
2025-01-12 20:35:33.81	257.79	12.47	
2025-01-12 20:35:34.83	258.00	12.50	
2025-01-12 20:35:35.85	258.22	12.54	
2025-01-12 20:35:36.88	258.44	12.57	
2025-01-12 20:35:37.90	258.66	12.60	
2025-01-12 20:35:38.93	258.88	12.64	
2025-01-12 20:35:39.95	259.10	12.67	
2025-01-12 20:35:40.98	259.32	12.70	
2025-01-12 20:35:42.01	259.54	12.74	
2025-01-12 20:35:43.05	259.77	12.77	
2025-01-12 20:35:44.07	259.99	12.80	
2025-01-12 20:35:45.10	260.21	12.83	
2025-01-12 20:35:46.13	260.44	12.86	
2025-01-12 20:35:47.15	260.66	12.89	
2025-01-12 20:35:48.18	260.89	12.92	
2025-01-12 20:35:49.20	261.11	12.95	
2025-01-12 20:35:50.23	261.34	12.98	
2025-01-12 20:35:51.25	261.56	13.01	
2025-01-12 20:35:52.28	261.79	13.04	
2025-01-12 20:35:53.32	262.02	13.07	
2025-01-12 20:35:54.36	262.25	13.10	
2025-01-12 20:35:55.39	262.48	13.13	
2025-01-12 20:35:56.42	262.71	13.16	
2025-01-12 20:35:57.45	262.94	13.19	
2025-01-12 20:35:58.48	263.17	13.21	
2025-01-12 20:35:59.51	263.40	13.24	
2025-01-12 20:36:00.53	263.63	13.26	
2025-01-12 20:36:01.56	263.86	13.29	
2025-01-12 20:36:02.58	264.09	13.32	
2025-01-12 20:36:03.61	264.32	13.34	
2025-01-12 20:36:04.63	264.55	13.37	
2025-01-12 20:36:05.66	264.79	13.39	
2025-01-12 20:36:06.68	265.02	13.41	
2025-01-12 20:36:07.71	265.25	13.44	
2025-01-12 20:36:08.75	265.49	13.46	
2025-01-12 20:36:09.78	265.72	13.48	
2025-01-12 20:36:10.80	265.96	13.51	
2025-01-12 20:36:11.82	266.19	13.53	
2025-01-12 20:36:12.85	266.42	13.55	
2025-01-12 20:36:13.87	266.66	13.57	
2025-01-12 20:36:14.90	266.90	13.59	
2025-01-12 20:36:15.92	267.13	13.61	
2025-01-12 20:36:16.96	267.37	13.63	
2025-01-12 20:36:17.99	267.61	13.65	
2025-01-12 20:36:19.03	267.85	13.67	
2025-01-12 20:36:20.06	268.08	13.69	
2025-01-12 20:36:21.11	268.33	13.71	
2025-01-12 20:36:22.13	268.56	13.73	
2025-01-12 20:36:23.16	268.80	13.75	
2025-01-12 20:36:24.19	269.04	13.76	
2025-01-12 20:36:25.22	269.28	13.78	
2025-01-12 20:36:26.25	269.52	13.80	
2025-01-12 20:36:27.27	269.76	13.81	
2025-01-12 20:36:28.30	270.00	13.83	
2025-01-12 20:36:29.34	270.24	13.84	
2025-01-12 20:36:30.37	270.48	13.86	
2025-01-12 20:36:31.39	270.72	13.87	
2025-01-12 20:36:32.42	270.96	13.88	
2025-01-12 20:36:33.45	271.21	13.90	
2025-01-12 20:36:34.47	271.45	13.91	
2025-01-12 20:36:35.50	271.69	13.92	
2025-01-12 20:36:36.53	271.93	13.93	
2025-01-12 20:36:37.55	272.17	13.94	
2025-01-12 20:36:38.58	272.41	13.96	
2025-01-12 20:36:39.60	272.65	13.97	
2025-01-12 20:36:40.63	272.90	13.98	
2025-01-12 20:36:41.68	273.14	13.99	
2025-01-12 20:36:42.72	273.39	14.00	
2025-01-12 20:36:43.75	273.63	14.00	
2025-01-12 20:36:44.77	273.87	14.01	
2025-01-12 20:36:45.80	274.12	14.02	
2025-01-12 20:36:46.83	274.36	14.03	
2025-01-12 20:36:47.85	274.60	14.03	
2025-01-12 20:36:48.88	274.85	14.04	
2025-01-12 20:36:49.91	275.09	14.05	
2025-01-12 20:36:50.93	275.33	14.05	
2025-01-12 20:36:51.97	275.58	14.06	
2025-01-12 20:36:52.99	275.82	14.06	
2025-01-12 20:36:54.03	276.07	14.07	
2025-01-12 20:36:55.08	276.32	14.07	
2025-01-12 20:36:56.11	276.56	14.07	
2025-01-12 20:36:57.14	276.81	14.08	
2025-01-12 20:36:58.17	277.05	14.08	
2025-01-12 20:36:59.19	277.29	14.08	
2025-01-12 20:37:00.21	277.54	14.08	
2025-01-12 20:37:01.24	277.78	14.08	
2025-01-12 20:37:02.27	278.02	14.08	
2025-01-12 20:37:03.29	278.27	14.08	
2025-01-12 20:37:04.32	278.51	14.08	
2025-01-12 20:37:05.35	278.76	14.08	
2025-01-12 20:37:06.37	279.00	14.08	
2025-01-12 20:37:07.40	279.24	14.08	
2025-01-12 20:37:08.42	279.49	14.08	
2025-01-12 20:37:09.45	279.73	14.07	
2025-01-12 20:37:10.48	279.97	14.07	
2025-01-12 20:37:11.50	280.22	14.07	
2025-01-12 20:37:12.52	280.46	14.06	
2025-01-12 20:37:13.55	280.70	14.06	
2025-01-12 20:37:14.57	280.94	14.05	
2025-01-12 20:37:15.60	281.19	14.05	
2025-01-12 20:37:16.63	281.43	14.04	
2025-01-12 20:37:17.65	281.67	14.04	
2025-01-12 20:37:18.68	281.92	14.03	
2025-01-12 20:37:19.70	282.16	14.02	
2025-01-12 20:37:20.73	282.40	14.02	
2025-01-12 20:37:21.77	282.65	14.01	
2025-01-12 20:37:22.79	282.89	14.00	
2025-01-12 20:37:23.81	283.13	13.99	
2025-01-12 20:37:24.84	283.37	13.98	
2025-01-12 20:37:25.87	283.61	13.97	
2025-01-12 20:37:26.89	283.86	13.96	
2025-01-12 20:37:27.92	284.10	13.95	
2025-01-12 20:37:28.95	284.34	13.94	
2025-01-12 20:37:29.97	284.58	13.93	
2025-01-12 20:37:31.00	284.82	13.91	
2025-01-12 20:37:32.02	285.06	13.90	
2025-01-12 20:37:33.04	285.30	13.89	
2025-01-12 20:37:34.07	285.54	13.88	
2025-01-12 20:37:35.10	285.78	13.86	
2025-01-12 20:37:36.14	286.02	13.85	
2025-01-12 20:37:37.16	286.26	13.83	
2025-01-12 20:37:38.18	286.50	13.82	
2025-01-12 20:37:39.21	286.74	13.80	
2025-01-12 20:37:40.24	286.98	13.79	
2025-01-12 20:37:41.26	287.22	13.77	
2025-01-12 20:37:42.29	287.45	13.75	
2025-01-12 20:37:43.31	287.69	13.73	
2025-01-12 20:37:44.34	287.93	13.72	
2025-01-12 20:37:45.36	288.16	13.70	
2025-01-12 20:37:46.39	288.40	13.68	
2025-01-12 20:37:47.41	288.64	13.66	
2025-01-12 20:37:48.43	288.87	13.64	
2025-01-12 20:37:49.46	289.11	13.62	
2025-01-12 20:37:50.49	289.35	13.60	
2025-01-12 20:37:51.51	289.58	13.58	
2025-01-12 20:37:52.53	289.81	13.56	
2025-01-12 20:37:53.55	290.05	13.54	
2025-01-12 20:37:54.58	290.28	13.52	
2025-01-12 20:37:55.60	290.51	13.50	
2025-01-12 20:37:56.63	290.75	13.47	
2025-01-12 20:37:57.67	290.98	13.45	
2025-01-12 20:37:58.71	291.22	13.43	
2025-01-12 20:37:59.74	291.45	13.40	
2025-01-12 20:38:00.76	291.68	13.38	
2025-01-12 20:38:01.78	291.91	13.35	
2025-01-12 20:38:02.81	292.14	13.33	
2025-01-12 20:38:03.85	292.38	13.30	
2025-01-12 20:38:04.88	292.61	13.28	
2025-01-12 20:38:05.90	292.84	13.25	
2025-01-12 20:38:06.93	293.07	13.23	
2025-01-12 20:38:07.97	293.30	13.20	
2025-01-12 20:38:09.00	293.53	13.17	
2025-01-12 20:38:10.04	293.76	13.14	
2025-01-12 20:38:11.06	293.99	13.12	
2025-01-12 20:38:12.09	294.21	13.09	
2025-01-12 20:38:13.13	294.44	13.06	
2025-01-12 20:38:14.16	294.67	13.03	
2025-01-12 20:38:15.18	294.89	13.00	
2025-01-12 20:38:16.21	295.12	12.97	
2025-01-12 20:38:17.24	295.35	12.94	
2025-01-12 20:38:18.26	295.57	12.91	
2025-01-12 20:38:19.31	295.80	12.88	
2025-01-12 20:38:20.33	296.02	12.85	
2025-01-12 20:38:21.36	296.24	12.82	
2025-01-12 20:38:22.38	296.46	12.79	
2025-01-12 20:38:23.41	296.69	12.75	
2025-01-12 20:38:24.44	296.91	12.72	
2025-01-12 20:38:25.47	297.13	12.69	
2025-01-12 20:38:26.49	297.35	12.66	
2025-01-12 20:38:27.51	297.57	12.62	
2025-01-12 20:38:28.54	297.79	12.59	
2025-01-12 20:38:29.58	298.01	12.56	
2025-01-12 20:38:30.62	298.23	12.52	
2025-01-12 20:38:31.66	298.45	12.49	
2025-01-12 20:38:32.68	298.67	12.45	
2025-01-12 20:38:33.71	298.88	12.42	
2025-01-12 20:38:34.73	299.10	12.38	
2025-01-12 20:38:35.76	299.31	12.35	
2025-01-12 20:38:36.78	299.53	12.31	
2025-01-12 20:38:37.82	299.74	12.27	
2025-01-12 20:38:38.85	299.96	12.24	
2025-01-12 20:38:39.87	300.17	12.20	
2025-01-12 20:38:40.90	300.38	12.16	
2025-01-12 20:38:41.92	300.60	12.13	
2025-01-12 20:38:42.95	300.81	12.09	
2025-01-12 20:38:43.97	301.02	12.05	
2025-01-12 20:38:45.00	301.23	12.01	
2025-01-12 20:38:46.02	301.44	11.97	
2025-01-12 20:38:47.05	301.65	11.94	
2025-01-12 20:38:48.07	301.85	11.90	
2025-01-12 20:38:49.11	302.06	11.86	
2025-01-12 20:38:50.14	302.27	11.82	
2025-01-12 20:38:51.17	302.48	11.78	
2025-01-12 20:38:52.20	302.69	11.74	
2025-01-12 20:38:53.22	302.89	11.70	
2025-01-12 20:38:54.25	303.10	11.66	
2025-01-12 20:38:55.27	303.30	11.62	
2025-01-12 20:38:56.30	303.50	11.58	
2025-01-12 20:38:57.33	303.71	11.53	
2025-01-12 20:38:58.37	303.91	11.49	
2025-01-12 20:38:59.39	304.11	11.45	
2025-01-12 20:39:00.42	304.32	11.41	
2025-01-12 20:39:01.44	304.52	11.37	
2025-01-12 20:39:02.46	304.72	11.33	
2025-01-12 20:39:03.49	304.92	11.28	
2025-01-12 20:39:04.51	305.11	11.24	
2025-01-12 20:39:05.54	305.31	11.20	
2025-01-12 20:39:06.56	305.51	11.16	
2025-01-12 20:39:07.60	305.71	11.11	
2025-01-12 20:39:08.62	305.90	11.07	
2025-01-12 20:39:09.65	306.10	11.03	
2025-01-12 20:39:10.68	306.30	10.98	
2025-01-12 20:39:11.70	306.49	10.94	
2025-01-12 20:39:12.72	306.68	10.89	
2025-01-12 20:39:13.75	306.88	10.85	
2025-01-12 20:39:14.78	307.07	10.80	
2025-01-12 20:39:15.82	307.27	10.76	
2025-01-12 20:39:16.86	307.46	10.71	
2025-01-12 20:39:17.88	307.65	10.67	
2025-01-12 20:39:18.91	307.84	10.62	
2025-01-12 20:39:19.94	308.03	10.58	
2025-01-12 20:39:20.97	308.22	10.53	
2025-01-12 20:39:21.99	308.41	10.49	
2025-01-12 20:39:23.03	308.60	10.44	
2025-01-12 20:39:24.06	308.79	10.39	
2025-01-12 20:39:25.08	308.97	10.35	
2025-01-12 20:39:26.11	309.16	10.30	
2025-01-12 20:39:27.13	309.34	10.25	
2025-01-12 20:39:28.18	309.53	10.21	
2025-01-12 20:39:29.20	309.72	10.16	
2025-01-12 20:39:30.23	309.90	10.11	
2025-01-12 20:39:31.25	310.08	10.07	
2025-01-12 20:39:32.28	310.26	10.02	
2025-01-12 20:39:33.32	310.45	9.97	
2025-01-12 20:39:34.34	310.63	9.92	
2025-01-12 20:39:35.37	310.81	9.88	
2025-01-12 20:39:36.40	310.99	9.83	
2025-01-12 20:39:37.43	311.17	9.78	
2025-01-12 20:39:38.45	311.35	9.73	
2025-01-12 20:39:39.48	311.53	9.68	
2025-01-12 20:39:40.52	311.71	9.63	
2025-01-12 20:39:41.55	311.88	9.59	
2025-01-12 20:39:42.57	312.06	9.54	
2025-01-12 20:39:43.62	312.24	9.49	
2025-01-12 20:39:44.65	312.41	9.44	
2025-01-12 20:39:45.69	312.59	9.39	
2025-01-12 20:39:46.71	312.76	9.34	
2025-01-12 20:39:47.74	312.94	9.29	
2025-01-12 20:39:48.77	313.11	9.24	
2025-01-12 20:39:49.79	313.28	9.19	
2025-01-12 20:39:50.83	313.45	9.14	
2025-01-12 20:39:51.85	313.62	9.09	
2025-01-12 20:39:52.88	313.79	9.04	
2025-01-12 20:39:53.91	313.96	8.99	
2025-01-12 20:39:54.93	314.13	8.94	
2025-01-12 20:39:55.98	314.30	8.89	
2025-01-12 20:39:57.01	314.47	8.84	
2025-01-12 20:39:58.05	314.64	8.79	
2025-01-12 20:39:59.07	314.80	8.74	
2025-01-12 20:40:00.10	314.97	8.69	
2025-01-12 20:40:01.12	315.13	8.64	
2025-01-12 20:40:02.16	315.30	8.59	
2025-01-12 20:40:03.20	315.47	8.54	
2025-01-12 20:40:04.22	315.63	8.49	
2025-01-12 20:40:05.25	315.79	8.44	
2025-01-12 20:40:06.27	315.95	8.39	
2025-01-12 20:40:07.30	316.12	8.34	
2025-01-12 20:40:08.33	316.28	8.29	
2025-01-12 20:40:09.35	316.44	8.24	
2025-01-12 20:40:10.37	316.59	8.19	
2025-01-12 20:40:11.40	316.75	8.13	
2025-01-12 20:40:12.43	316.91	8.08	
2025-01-12 20:40:13.45	317.07	8.03	
2025-01-12 20:40:14.48	317.23	7.98	
2025-01-12 20:40:15.50	317.38	7.93	
2025-01-12 20:40:16.53	317.54	7.88	
2025-01-12 20:40:17.55	317.70	7.83	
2025-01-12 20:40:18.58	317.85	7.78	
2025-01-12 20:40:19.61	318.01	7.72	
2025-01-12 20:40:20.63	318.16	7.67	
2025-01-12 20:40:21.67	318.31	7.62	
2025-01-12 20:40:22.69	318.47	7.57	
2025-01-12 20:40:23.72	318.62	7.52	
2025-01-12 20:40:24.75	318.77	7.47	
2025-01-12 20:40:25.77	318.92	7.41	
2025-01-12 20:40:26.80	319.07	7.36	
2025-01-12 20:40:27.83	319.22	7.31	
2025-01-12 20:40:28.85	319.37	7.26	
2025-01-12 20:40:29.88	319.52	7.21	
2025-01-12 20:40:30.91	319.67	7.15	
2025-01-12 20:40:31.93	319.82	7.10	
2025-01-12 20:40:32.96	319.96	7.05	
2025-01-12 20:40:33.98	320.11	7.00	
2025-01-12 20:40:35.01	320.26	6.95	
2025-01-12 20:40:36.03	320.40	6.89	
2025-01-12 20:40:37.08	320.55	6.84	
2025-01-12 20:40:38.12	320.70	6.79	
2025-01-12 20:40:39.14	320.84	6.74	
2025-01-12 20:40:40.17	320.98	6.68	
2025-01-12 20:40:41.19	321.12	6.63	
2025-01-12 20:40:42.22	321.27	6.58	
2025-01-12 20:40:43.25	321.41	6.53	
2025-01-12 20:40:44.28	321.55	6.47	
2025-01-12 20:40:45.30	321.69	6.42	
2025-01-12 20:40:46.34	321.83	6.37	
2025-01-12 20:40:47.37	321.97	6.32	
2025-01-12 20:40:48.39	322.11	6.27	
2025-01-12 20:40:49.43	322.25	6.21	
2025-01-12 20:40:50.45	322.39	6.16	
2025-01-12 20:40:51.47	322.52	6.11	
2025-01-12 20:40:52.49	322.66	6.06	
2025-01-12 20:40:53.52	322.80	6.00	
2025-01-12 20:40:54.54	322.93	5.95	
2025-01-12 20:40:55.57	323.07	5.90	
2025-01-12 20:40:56.59	323.20	5.85	
2025-01-12 20:40:57.62	323.34	5.79	
2025-01-12 20:40:58.65	323.47	5.74	
2025-01-12 20:40:59.67	323.60	5.69	
2025-01-12 20:41:00.69	323.74	5.64	
2025-01-12 20:41:01.72	323.87	5.58	
2025-01-12 20:41:02.74	324.00	5.53	
2025-01-12 20:41:03.77	324.13	5.48	
2025-01-12 20:41:04.79	324.26	5.43	
2025-01-12 20:41:05.83	324.39	5.37	
2025-01-12 20:41:06.85	324.52	5.32	
2025-01-12 20:41:07.88	324.65	5.27	
2025-01-12 20:41:08.91	324.78	5.22	
2025-01-12 20:41:09.93	324.91	5.17	
2025-01-12 20:41:10.97	325.04	5.11	
2025-01-12 20:41:12.00	325.17	5.06	
2025-01-12 20:41:13.02	325.29	5.01	
2025-01-12 20:41:14.05	325.42	4.95	
2025-01-12 20:41:15.07	325.55	4.90	
2025-01-12 20:41:16.10	325.67	4.85	
2025-01-12 20:41:17.14	325.80	4.80	
2025-01-12 20:41:18.17	325.92	4.74	
2025-01-12 20:41:19.20	326.05	4.69	
2025-01-12 20:41:20.22	326.17	4.64	
2025-01-12 20:41:21.26	326.30	4.59	
2025-01-12 20:41:22.29	326.42	4.53	
2025-01-12 20:41:23.31	326.54	4.48	
2025-01-12 20:41:24.34	326.66	4.43	
2025-01-12 20:41:25.37	326.79	4.38	
2025-01-12 20:41:26.39	326.91	4.33	
2025-01-12 20:41:27.43	327.03	4.27	
2025-01-12 20:41:28.46	327.15	4.22	
2025-01-12 20:41:29.48	327.27	4.17	
2025-01-12 20:41:30.51	327.39	4.12	
2025-01-12 20:41:31.54	327.51	4.06	
2025-01-12 20:41:32.56	327.62	4.01	

#Closed at: 2025-01-12 20:41:32