passes_logs/2025/01/12/SPB_Silybum_02/SPB_Silybum_02__20250112_110221_SUOMI_NPP_rec.log

#Pass ID: 20250112_110221_SUOMI NPP
#Satellite: SUOMI NPP
#Configuration: NPP
#Start time: 2025-01-12 11:02:49

#Version: 2.0.20230423
#Station: SPB_Silybum_02
#Location: 30.233357 lon 59.946436 lat
#TLE: 1 37849U 11061A   25011.81852258  .00000147  00000+0  90749-4 0  9992
#TLE: 2 37849  98.7442 312.8475 0001799  45.9067 314.2257 14.19536766684464

#Time	Az	El	Level	Level2	SNR	BER	Gain	Gain2
2025-01-12 11:02:51.50	183.00	6.07	
2025-01-12 11:02:52.94	183.06	6.17	
2025-01-12 11:02:54.37	183.13	6.27	
2025-01-12 11:02:55.81	183.19	6.38	
2025-01-12 11:02:57.28	183.26	6.49	
2025-01-12 11:02:58.72	183.32	6.59	
2025-01-12 11:03:00.16	183.39	6.70	
2025-01-12 11:03:01.60	183.45	6.80	
2025-01-12 11:03:03.03	183.52	6.91	
2025-01-12 11:03:04.47	183.58	7.02	
2025-01-12 11:03:05.90	183.65	7.12	
2025-01-12 11:03:07.34	183.72	7.23	
2025-01-12 11:03:08.79	183.79	7.34	
2025-01-12 11:03:10.22	183.86	7.45	
2025-01-12 11:03:11.66	183.92	7.56	
2025-01-12 11:03:13.10	183.99	7.67	
2025-01-12 11:03:14.54	184.06	7.78	
2025-01-12 11:03:15.98	184.13	7.89	
2025-01-12 11:03:17.42	184.20	8.00	
2025-01-12 11:03:18.85	184.27	8.11	
2025-01-12 11:03:20.31	184.35	8.22	
2025-01-12 11:03:21.74	184.42	8.33	
2025-01-12 11:03:23.17	184.49	8.44	
2025-01-12 11:03:24.61	184.57	8.56	
2025-01-12 11:03:26.04	184.64	8.67	
2025-01-12 11:03:27.48	184.71	8.78	
2025-01-12 11:03:28.92	184.79	8.90	
2025-01-12 11:03:30.35	184.86	9.01	
2025-01-12 11:03:31.79	184.94	9.13	
2025-01-12 11:03:33.22	185.02	9.24	
2025-01-12 11:03:34.68	185.09	9.36	
2025-01-12 11:03:36.12	185.17	9.48	
2025-01-12 11:03:37.57	185.25	9.60	
2025-01-12 11:03:39.02	185.33	9.72	
2025-01-12 11:03:40.45	185.41	9.83	
2025-01-12 11:03:41.88	185.49	9.95	
2025-01-12 11:03:43.32	185.57	10.07	
2025-01-12 11:03:44.76	185.65	10.19	
2025-01-12 11:03:46.21	185.73	10.31	
2025-01-12 11:03:47.65	185.82	10.44	
2025-01-12 11:03:49.09	185.90	10.56	
2025-01-12 11:03:50.52	185.98	10.68	
2025-01-12 11:03:51.96	186.07	10.80	
2025-01-12 11:03:53.40	186.15	10.93	
2025-01-12 11:03:54.83	186.24	11.05	
2025-01-12 11:03:56.26	186.33	11.17	
2025-01-12 11:03:57.71	186.41	11.30	
2025-01-12 11:03:59.16	186.50	11.43	
2025-01-12 11:04:00.60	186.59	11.55	
2025-01-12 11:04:02.05	186.68	11.68	
2025-01-12 11:04:03.49	186.77	11.81	
2025-01-12 11:04:04.92	186.86	11.94	
2025-01-12 11:04:06.36	186.95	12.06	
2025-01-12 11:04:07.81	187.05	12.20	
2025-01-12 11:04:09.25	187.14	12.33	
2025-01-12 11:04:10.69	187.24	12.46	
2025-01-12 11:04:12.12	187.33	12.59	
2025-01-12 11:04:13.56	187.43	12.72	
2025-01-12 11:04:15.01	187.52	12.85	
2025-01-12 11:04:16.43	187.62	12.98	
2025-01-12 11:04:17.87	187.72	13.12	
2025-01-12 11:04:19.30	187.82	13.25	
2025-01-12 11:04:20.74	187.92	13.39	
2025-01-12 11:04:22.17	188.02	13.52	
2025-01-12 11:04:23.61	188.12	13.66	
2025-01-12 11:04:25.06	188.22	13.80	
2025-01-12 11:04:26.49	188.32	13.93	
2025-01-12 11:04:27.95	188.43	14.08	
2025-01-12 11:04:29.38	188.54	14.21	
2025-01-12 11:04:30.82	188.64	14.35	
2025-01-12 11:04:32.28	188.75	14.50	
2025-01-12 11:04:33.72	188.86	14.64	
2025-01-12 11:04:35.15	188.97	14.78	
2025-01-12 11:04:36.60	189.08	14.92	
2025-01-12 11:04:38.04	189.19	15.07	
2025-01-12 11:04:39.49	189.30	15.21	
2025-01-12 11:04:40.92	189.42	15.36	
2025-01-12 11:04:42.36	189.53	15.51	
2025-01-12 11:04:43.80	189.65	15.65	
2025-01-12 11:04:45.23	189.76	15.80	
2025-01-12 11:04:46.66	189.88	15.95	
2025-01-12 11:04:48.10	190.00	16.10	
2025-01-12 11:04:49.53	190.12	16.25	
2025-01-12 11:04:50.97	190.24	16.40	
2025-01-12 11:04:52.41	190.36	16.55	
2025-01-12 11:04:53.86	190.49	16.70	
2025-01-12 11:04:55.31	190.61	16.86	
2025-01-12 11:04:56.74	190.74	17.01	
2025-01-12 11:04:58.18	190.86	17.17	
2025-01-12 11:04:59.62	190.99	17.32	
2025-01-12 11:05:01.07	191.12	17.48	
2025-01-12 11:05:02.50	191.25	17.64	
2025-01-12 11:05:03.95	191.39	17.80	
2025-01-12 11:05:05.39	191.52	17.96	
2025-01-12 11:05:06.83	191.66	18.12	
2025-01-12 11:05:08.26	191.79	18.28	
2025-01-12 11:05:09.70	191.93	18.44	
2025-01-12 11:05:11.15	192.07	18.60	
2025-01-12 11:05:12.58	192.21	18.77	
2025-01-12 11:05:14.01	192.35	18.93	
2025-01-12 11:05:15.45	192.49	19.10	
2025-01-12 11:05:16.90	192.64	19.27	
2025-01-12 11:05:18.34	192.79	19.43	
2025-01-12 11:05:19.77	192.93	19.60	
2025-01-12 11:05:21.21	193.08	19.77	
2025-01-12 11:05:22.67	193.24	19.95	
2025-01-12 11:05:24.13	193.39	20.12	
2025-01-12 11:05:25.56	193.55	20.29	
2025-01-12 11:05:26.99	193.70	20.46	
2025-01-12 11:05:28.43	193.86	20.64	
2025-01-12 11:05:29.87	194.02	20.82	
2025-01-12 11:05:31.30	194.18	20.99	
2025-01-12 11:05:32.74	194.35	21.17	
2025-01-12 11:05:34.17	194.51	21.35	
2025-01-12 11:05:35.61	194.68	21.53	
2025-01-12 11:05:37.05	194.85	21.71	
2025-01-12 11:05:38.48	195.02	21.89	
2025-01-12 11:05:39.92	195.19	22.07	
2025-01-12 11:05:41.36	195.36	22.26	
2025-01-12 11:05:42.81	195.54	22.44	
2025-01-12 11:05:44.25	195.72	22.63	
2025-01-12 11:05:45.68	195.90	22.82	
2025-01-12 11:05:47.13	196.09	23.01	
2025-01-12 11:05:48.57	196.27	23.20	
2025-01-12 11:05:50.00	196.46	23.38	
2025-01-12 11:05:51.43	196.65	23.58	
2025-01-12 11:05:52.87	196.84	23.77	
2025-01-12 11:05:54.31	197.03	23.96	
2025-01-12 11:05:55.74	197.23	24.16	
2025-01-12 11:05:57.18	197.43	24.35	
2025-01-12 11:05:58.63	197.63	24.55	
2025-01-12 11:06:00.07	197.84	24.75	
2025-01-12 11:06:01.50	198.04	24.95	
2025-01-12 11:06:02.94	198.25	25.15	
2025-01-12 11:06:04.38	198.46	25.35	
2025-01-12 11:06:05.82	198.68	25.56	
2025-01-12 11:06:07.27	198.90	25.76	
2025-01-12 11:06:08.70	199.11	25.97	
2025-01-12 11:06:10.14	199.34	26.17	
2025-01-12 11:06:11.58	199.56	26.38	
2025-01-12 11:06:13.02	199.79	26.59	
2025-01-12 11:06:14.45	200.02	26.80	
2025-01-12 11:06:15.89	200.26	27.01	
2025-01-12 11:06:17.34	200.49	27.22	
2025-01-12 11:06:18.78	200.74	27.44	
2025-01-12 11:06:20.22	200.98	27.65	
2025-01-12 11:06:21.65	201.22	27.86	
2025-01-12 11:06:23.09	201.47	28.08	
2025-01-12 11:06:24.55	201.73	28.30	
2025-01-12 11:06:25.99	201.99	28.52	
2025-01-12 11:06:27.42	202.25	28.74	
2025-01-12 11:06:28.86	202.51	28.96	
2025-01-12 11:06:30.30	202.78	29.18	
2025-01-12 11:06:31.73	203.05	29.41	
2025-01-12 11:06:33.17	203.32	29.63	
2025-01-12 11:06:34.62	203.60	29.86	
2025-01-12 11:06:36.07	203.89	30.09	
2025-01-12 11:06:37.52	204.18	30.32	
2025-01-12 11:06:38.95	204.47	30.54	
2025-01-12 11:06:40.40	204.76	30.78	
2025-01-12 11:06:41.86	205.06	31.01	
2025-01-12 11:06:43.30	205.37	31.24	
2025-01-12 11:06:44.73	205.67	31.47	
2025-01-12 11:06:46.17	205.98	31.71	
2025-01-12 11:06:47.62	206.30	31.94	
2025-01-12 11:06:49.06	206.62	32.18	
2025-01-12 11:06:50.49	206.95	32.41	
2025-01-12 11:06:51.93	207.28	32.65	
2025-01-12 11:06:53.36	207.61	32.89	
2025-01-12 11:06:54.79	207.94	33.13	
2025-01-12 11:06:56.23	208.29	33.37	
2025-01-12 11:06:57.66	208.64	33.61	
2025-01-12 11:06:59.10	208.99	33.85	
2025-01-12 11:07:00.53	209.35	34.09	
2025-01-12 11:07:01.97	209.71	34.33	
2025-01-12 11:07:03.40	210.08	34.57	
2025-01-12 11:07:04.84	210.45	34.82	
2025-01-12 11:07:06.28	210.84	35.06	
2025-01-12 11:07:07.72	211.22	35.31	
2025-01-12 11:07:09.15	211.61	35.55	
2025-01-12 11:07:10.59	212.01	35.80	
2025-01-12 11:07:12.02	212.41	36.04	
2025-01-12 11:07:13.47	212.83	36.29	
2025-01-12 11:07:14.91	213.24	36.53	
2025-01-12 11:07:16.35	213.66	36.78	
2025-01-12 11:07:17.80	214.10	37.03	
2025-01-12 11:07:19.25	214.54	37.28	
2025-01-12 11:07:20.72	214.99	37.53	
2025-01-12 11:07:22.15	215.43	37.78	
2025-01-12 11:07:23.59	215.89	38.02	
2025-01-12 11:07:25.03	216.35	38.27	
2025-01-12 11:07:26.46	216.82	38.52	
2025-01-12 11:07:27.90	217.29	38.76	
2025-01-12 11:07:29.34	217.78	39.01	
2025-01-12 11:07:30.79	218.27	39.25	
2025-01-12 11:07:32.23	218.77	39.50	
2025-01-12 11:07:33.66	219.27	39.74	
2025-01-12 11:07:35.10	219.78	39.98	
2025-01-12 11:07:36.54	220.30	40.23	
2025-01-12 11:07:37.97	220.83	40.47	
2025-01-12 11:07:39.43	221.37	40.71	
2025-01-12 11:07:40.86	221.91	40.95	
2025-01-12 11:07:42.30	222.47	41.18	
2025-01-12 11:07:43.74	223.03	41.42	
2025-01-12 11:07:45.18	223.59	41.66	
2025-01-12 11:07:46.63	224.17	41.89	
2025-01-12 11:07:48.07	224.76	42.12	
2025-01-12 11:07:49.51	225.35	42.35	
2025-01-12 11:07:50.94	225.95	42.58	
2025-01-12 11:07:52.38	226.56	42.80	
2025-01-12 11:07:53.82	227.18	43.02	
2025-01-12 11:07:55.25	227.80	43.24	
2025-01-12 11:07:56.68	228.43	43.46	
2025-01-12 11:07:58.12	229.07	43.68	
2025-01-12 11:07:59.56	229.72	43.89	
2025-01-12 11:08:01.00	230.38	44.10	
2025-01-12 11:08:02.44	231.05	44.30	
2025-01-12 11:08:03.87	231.73	44.51	
2025-01-12 11:08:05.31	232.41	44.71	
2025-01-12 11:08:06.75	233.11	44.90	
2025-01-12 11:08:08.19	233.81	45.10	
2025-01-12 11:08:09.63	234.52	45.29	
2025-01-12 11:08:11.06	235.23	45.47	
2025-01-12 11:08:12.50	235.96	45.65	
2025-01-12 11:08:13.95	236.70	45.83	
2025-01-12 11:08:15.40	237.45	46.00	
2025-01-12 11:08:16.83	238.20	46.17	
2025-01-12 11:08:18.27	238.96	46.33	
2025-01-12 11:08:19.73	239.74	46.49	
2025-01-12 11:08:21.16	240.51	46.64	
2025-01-12 11:08:22.60	241.29	46.79	
2025-01-12 11:08:24.03	242.08	46.93	
2025-01-12 11:08:25.47	242.87	47.07	
2025-01-12 11:08:26.91	243.68	47.20	
2025-01-12 11:08:28.34	244.48	47.33	
2025-01-12 11:08:29.77	245.29	47.45	
2025-01-12 11:08:31.21	246.12	47.56	
2025-01-12 11:08:32.64	246.94	47.67	
2025-01-12 11:08:34.10	247.78	47.78	
2025-01-12 11:08:35.55	248.63	47.87	
2025-01-12 11:08:36.99	249.47	47.96	
2025-01-12 11:08:38.43	250.32	48.04	
2025-01-12 11:08:39.86	251.17	48.12	
2025-01-12 11:08:41.30	252.03	48.19	
2025-01-12 11:08:42.74	252.89	48.25	
2025-01-12 11:08:44.19	253.76	48.31	
2025-01-12 11:08:45.62	254.62	48.36	
2025-01-12 11:08:47.06	255.49	48.40	
2025-01-12 11:08:48.49	256.36	48.44	
2025-01-12 11:08:49.93	257.23	48.47	
2025-01-12 11:08:51.36	258.10	48.49	
2025-01-12 11:08:52.82	258.99	48.50	
2025-01-12 11:08:54.27	259.87	48.51	
2025-01-12 11:08:55.71	260.75	48.51	
2025-01-12 11:08:57.14	261.62	48.51	
2025-01-12 11:08:58.58	262.49	48.49	
2025-01-12 11:09:00.01	263.36	48.47	
2025-01-12 11:09:01.45	264.24	48.44	
2025-01-12 11:09:02.90	265.11	48.41	
2025-01-12 11:09:04.33	265.98	48.37	
2025-01-12 11:09:05.77	266.84	48.32	
2025-01-12 11:09:07.22	267.71	48.26	
2025-01-12 11:09:08.65	268.57	48.20	
2025-01-12 11:09:10.09	269.43	48.13	
2025-01-12 11:09:11.53	270.28	48.06	
2025-01-12 11:09:12.96	271.12	47.98	
2025-01-12 11:09:14.40	271.97	47.89	
2025-01-12 11:09:15.85	272.81	47.79	
2025-01-12 11:09:17.28	273.64	47.69	
2025-01-12 11:09:18.72	274.47	47.58	
2025-01-12 11:09:20.15	275.29	47.47	
2025-01-12 11:09:21.58	276.10	47.35	
2025-01-12 11:09:23.02	276.91	47.23	
2025-01-12 11:09:24.45	277.71	47.10	
2025-01-12 11:09:25.88	278.50	46.96	
2025-01-12 11:09:27.34	279.30	46.82	
2025-01-12 11:09:28.79	280.09	46.67	
2025-01-12 11:09:30.23	280.86	46.52	
2025-01-12 11:09:31.66	281.62	46.36	
2025-01-12 11:09:33.11	282.39	46.20	
2025-01-12 11:09:34.54	283.14	46.04	
2025-01-12 11:09:35.97	283.88	45.87	
2025-01-12 11:09:37.41	284.61	45.69	
2025-01-12 11:09:38.86	285.34	45.51	
2025-01-12 11:09:40.30	286.06	45.33	
2025-01-12 11:09:41.75	286.78	45.14	
2025-01-12 11:09:43.18	287.48	44.95	
2025-01-12 11:09:44.64	288.18	44.75	
2025-01-12 11:09:46.07	288.86	44.55	
2025-01-12 11:09:47.50	289.54	44.35	
2025-01-12 11:09:48.94	290.21	44.15	
2025-01-12 11:09:50.38	290.87	43.94	
2025-01-12 11:09:51.83	291.52	43.73	
2025-01-12 11:09:53.28	292.17	43.51	
2025-01-12 11:09:54.71	292.80	43.29	
2025-01-12 11:09:56.15	293.43	43.08	
2025-01-12 11:09:57.59	294.04	42.85	
2025-01-12 11:09:59.03	294.65	42.63	
2025-01-12 11:10:00.48	295.26	42.40	
2025-01-12 11:10:01.92	295.85	42.17	
2025-01-12 11:10:03.37	296.44	41.94	
2025-01-12 11:10:04.80	297.01	41.71	
2025-01-12 11:10:06.24	297.58	41.48	
2025-01-12 11:10:07.69	298.14	41.24	
2025-01-12 11:10:09.14	298.70	41.00	
2025-01-12 11:10:10.57	299.24	40.77	
2025-01-12 11:10:12.01	299.77	40.53	
2025-01-12 11:10:13.47	300.31	40.29	
2025-01-12 11:10:14.93	300.84	40.04	
2025-01-12 11:10:16.38	301.35	39.80	
2025-01-12 11:10:17.81	301.85	39.56	
2025-01-12 11:10:19.25	302.35	39.32	
2025-01-12 11:10:20.69	302.84	39.07	
2025-01-12 11:10:22.12	303.32	38.83	
2025-01-12 11:10:23.55	303.79	38.59	
2025-01-12 11:10:24.99	304.26	38.34	
2025-01-12 11:10:26.43	304.73	38.10	
2025-01-12 11:10:27.87	305.18	37.85	
2025-01-12 11:10:29.30	305.63	37.61	
2025-01-12 11:10:30.76	306.07	37.36	
2025-01-12 11:10:32.19	306.51	37.11	
2025-01-12 11:10:33.63	306.94	36.87	
2025-01-12 11:10:35.06	307.36	36.62	
2025-01-12 11:10:36.50	307.77	36.38	
2025-01-12 11:10:37.93	308.18	36.14	
2025-01-12 11:10:39.38	308.59	35.89	
2025-01-12 11:10:40.82	308.99	35.64	
2025-01-12 11:10:42.26	309.38	35.40	
2025-01-12 11:10:43.69	309.76	35.16	
2025-01-12 11:10:45.13	310.14	34.91	
2025-01-12 11:10:46.56	310.52	34.67	
2025-01-12 11:10:47.99	310.88	34.43	
2025-01-12 11:10:49.43	311.25	34.19	
2025-01-12 11:10:50.87	311.61	33.95	
2025-01-12 11:10:52.33	311.97	33.71	
2025-01-12 11:10:53.77	312.32	33.47	
2025-01-12 11:10:55.21	312.66	33.23	
2025-01-12 11:10:56.64	313.00	32.99	
2025-01-12 11:10:58.10	313.34	32.75	
2025-01-12 11:10:59.54	313.67	32.52	
2025-01-12 11:11:00.97	313.99	32.28	
2025-01-12 11:11:02.40	314.31	32.05	
2025-01-12 11:11:03.84	314.63	31.82	
2025-01-12 11:11:05.28	314.94	31.58	
2025-01-12 11:11:06.72	315.25	31.35	
2025-01-12 11:11:08.16	315.55	31.12	
2025-01-12 11:11:09.59	315.84	30.89	
2025-01-12 11:11:11.03	316.14	30.66	
2025-01-12 11:11:12.46	316.43	30.44	
2025-01-12 11:11:13.91	316.72	30.21	
2025-01-12 11:11:15.34	317.00	29.99	
2025-01-12 11:11:16.78	317.28	29.76	
2025-01-12 11:11:18.22	317.55	29.54	
2025-01-12 11:11:19.66	317.82	29.32	
2025-01-12 11:11:21.09	318.09	29.10	
2025-01-12 11:11:22.53	318.35	28.88	
2025-01-12 11:11:23.96	318.61	28.66	
2025-01-12 11:11:25.41	318.87	28.44	
2025-01-12 11:11:26.85	319.13	28.22	
2025-01-12 11:11:28.28	319.38	28.01	
2025-01-12 11:11:29.72	319.62	27.79	
2025-01-12 11:11:31.15	319.87	27.58	
2025-01-12 11:11:32.59	320.11	27.37	
2025-01-12 11:11:34.04	320.35	27.15	
2025-01-12 11:11:35.48	320.58	26.94	
2025-01-12 11:11:36.91	320.81	26.74	
2025-01-12 11:11:38.34	321.04	26.53	
2025-01-12 11:11:39.78	321.27	26.32	
2025-01-12 11:11:41.22	321.49	26.12	
2025-01-12 11:11:42.66	321.71	25.91	
2025-01-12 11:11:44.09	321.93	25.71	
2025-01-12 11:11:45.53	322.14	25.51	
2025-01-12 11:11:46.96	322.35	25.31	
2025-01-12 11:11:48.40	322.56	25.11	
2025-01-12 11:11:49.84	322.77	24.91	
2025-01-12 11:11:51.27	322.97	24.71	
2025-01-12 11:11:52.71	323.18	24.52	
2025-01-12 11:11:54.14	323.37	24.32	
2025-01-12 11:11:55.58	323.57	24.13	
2025-01-12 11:11:57.02	323.77	23.94	
2025-01-12 11:11:58.45	323.96	23.74	
2025-01-12 11:11:59.90	324.15	23.55	
2025-01-12 11:12:01.33	324.34	23.36	
2025-01-12 11:12:02.77	324.52	23.17	
2025-01-12 11:12:04.20	324.71	22.99	
2025-01-12 11:12:05.64	324.89	22.80	
2025-01-12 11:12:07.11	325.07	22.61	
2025-01-12 11:12:08.55	325.25	22.43	
2025-01-12 11:12:09.98	325.43	22.25	
2025-01-12 11:12:11.45	325.60	22.06	
2025-01-12 11:12:12.89	325.78	21.88	
2025-01-12 11:12:14.33	325.95	21.70	
2025-01-12 11:12:15.76	326.11	21.52	
2025-01-12 11:12:17.20	326.28	21.34	
2025-01-12 11:12:18.64	326.44	21.16	
2025-01-12 11:12:20.08	326.61	20.99	
2025-01-12 11:12:21.51	326.77	20.81	
2025-01-12 11:12:22.94	326.92	20.64	
2025-01-12 11:12:24.38	327.08	20.47	
2025-01-12 11:12:25.82	327.24	20.30	
2025-01-12 11:12:27.25	327.39	20.13	
2025-01-12 11:12:28.69	327.54	19.96	
2025-01-12 11:12:30.12	327.69	19.79	
2025-01-12 11:12:31.57	327.84	19.62	
2025-01-12 11:12:33.02	327.99	19.45	
2025-01-12 11:12:34.46	328.14	19.28	
2025-01-12 11:12:35.89	328.28	19.12	
2025-01-12 11:12:37.33	328.42	18.95	
2025-01-12 11:12:38.77	328.57	18.79	
2025-01-12 11:12:40.21	328.71	18.63	
2025-01-12 11:12:41.64	328.84	18.47	
2025-01-12 11:12:43.07	328.98	18.31	
2025-01-12 11:12:44.51	329.12	18.15	
2025-01-12 11:12:45.95	329.25	17.99	
2025-01-12 11:12:47.38	329.38	17.83	
2025-01-12 11:12:48.82	329.52	17.67	
2025-01-12 11:12:50.26	329.65	17.52	
2025-01-12 11:12:51.70	329.78	17.36	
2025-01-12 11:12:53.14	329.90	17.21	
2025-01-12 11:12:54.57	330.03	17.05	
2025-01-12 11:12:56.02	330.16	16.90	
2025-01-12 11:12:57.46	330.28	16.75	
2025-01-12 11:12:58.90	330.40	16.60	
2025-01-12 11:13:00.34	330.53	16.45	
2025-01-12 11:13:01.78	330.65	16.30	
2025-01-12 11:13:03.22	330.77	16.15	
2025-01-12 11:13:04.66	330.89	16.00	
2025-01-12 11:13:06.09	331.00	15.85	
2025-01-12 11:13:07.54	331.12	15.71	
2025-01-12 11:13:08.99	331.24	15.56	
2025-01-12 11:13:10.43	331.35	15.41	
2025-01-12 11:13:11.87	331.47	15.27	
2025-01-12 11:13:13.30	331.58	15.13	
2025-01-12 11:13:14.74	331.69	14.98	
2025-01-12 11:13:16.18	331.80	14.84	
2025-01-12 11:13:17.61	331.91	14.70	
2025-01-12 11:13:19.04	332.02	14.56	
2025-01-12 11:13:20.48	332.12	14.42	
2025-01-12 11:13:21.91	332.23	14.29	
2025-01-12 11:13:23.35	332.33	14.15	
2025-01-12 11:13:24.78	332.44	14.01	
2025-01-12 11:13:26.22	332.54	13.87	
2025-01-12 11:13:27.66	332.65	13.74	
2025-01-12 11:13:29.09	332.75	13.60	
2025-01-12 11:13:30.55	332.85	13.47	
2025-01-12 11:13:31.99	332.95	13.33	
2025-01-12 11:13:33.43	333.05	13.20	
2025-01-12 11:13:34.88	333.15	13.06	
2025-01-12 11:13:36.31	333.25	12.93	
2025-01-12 11:13:37.75	333.34	12.80	
2025-01-12 11:13:39.19	333.44	12.67	
2025-01-12 11:13:40.62	333.53	12.54	
2025-01-12 11:13:42.07	333.63	12.41	
2025-01-12 11:13:43.51	333.72	12.28	
2025-01-12 11:13:44.94	333.82	12.15	
2025-01-12 11:13:46.39	333.91	12.02	
2025-01-12 11:13:47.83	334.00	11.90	
2025-01-12 11:13:49.27	334.09	11.77	
2025-01-12 11:13:50.70	334.18	11.65	
2025-01-12 11:13:52.14	334.27	11.52	
2025-01-12 11:13:53.58	334.36	11.40	
2025-01-12 11:13:55.01	334.45	11.27	
2025-01-12 11:13:56.45	334.53	11.15	
2025-01-12 11:13:57.89	334.62	11.03	
2025-01-12 11:13:59.32	334.71	10.90	
2025-01-12 11:14:00.77	334.79	10.78	
2025-01-12 11:14:02.21	334.88	10.66	
2025-01-12 11:14:03.64	334.96	10.54	
2025-01-12 11:14:05.09	335.04	10.42	
2025-01-12 11:14:06.52	335.13	10.30	
2025-01-12 11:14:07.96	335.21	10.18	
2025-01-12 11:14:09.40	335.29	10.06	
2025-01-12 11:14:10.83	335.37	9.94	
2025-01-12 11:14:12.28	335.45	9.82	
2025-01-12 11:14:13.74	335.53	9.71	
2025-01-12 11:14:15.18	335.61	9.59	
2025-01-12 11:14:16.60	335.69	9.47	
2025-01-12 11:14:18.05	335.77	9.36	
2025-01-12 11:14:19.49	335.84	9.24	
2025-01-12 11:14:20.92	335.92	9.13	
2025-01-12 11:14:22.36	336.00	9.02	
2025-01-12 11:14:23.80	336.07	8.90	
2025-01-12 11:14:25.25	336.15	8.79	
2025-01-12 11:14:26.68	336.22	8.68	
2025-01-12 11:14:28.13	336.30	8.56	
2025-01-12 11:14:29.57	336.37	8.45	
2025-01-12 11:14:31.00	336.44	8.34	
2025-01-12 11:14:32.44	336.52	8.23	
2025-01-12 11:14:33.88	336.59	8.12	
2025-01-12 11:14:35.31	336.66	8.01	
2025-01-12 11:14:36.76	336.73	7.90	
2025-01-12 11:14:38.20	336.80	7.79	
2025-01-12 11:14:39.64	336.87	7.68	
2025-01-12 11:14:41.08	336.94	7.57	
2025-01-12 11:14:42.52	337.01	7.46	
2025-01-12 11:14:43.96	337.08	7.36	
2025-01-12 11:14:45.39	337.15	7.25	
2025-01-12 11:14:46.83	337.22	7.14	
2025-01-12 11:14:48.27	337.29	7.04	
2025-01-12 11:14:49.71	337.35	6.93	
2025-01-12 11:14:51.14	337.42	6.83	
2025-01-12 11:14:52.58	337.48	6.72	
2025-01-12 11:14:54.02	337.55	6.62	
2025-01-12 11:14:55.46	337.62	6.51	
2025-01-12 11:14:56.89	337.68	6.41	
2025-01-12 11:14:58.32	337.74	6.31	
2025-01-12 11:14:59.76	337.81	6.21	
2025-01-12 11:15:01.20	337.87	6.10	
2025-01-12 11:15:02.63	337.94	6.00	
2025-01-12 11:15:04.07	338.00	5.90	
2025-01-12 11:15:05.50	338.06	5.80	
2025-01-12 11:15:06.94	338.12	5.70	
2025-01-12 11:15:08.38	338.18	5.60	
2025-01-12 11:15:09.83	338.25	5.50	
2025-01-12 11:15:11.26	338.31	5.40	
2025-01-12 11:15:12.70	338.37	5.30	
2025-01-12 11:15:14.13	338.43	5.20	
2025-01-12 11:15:15.57	338.49	5.10	
2025-01-12 11:15:17.01	338.55	5.00	
2025-01-12 11:15:18.46	338.61	4.90	
2025-01-12 11:15:19.90	338.67	4.80	
2025-01-12 11:15:21.35	338.72	4.71	
2025-01-12 11:15:22.79	338.78	4.61	
2025-01-12 11:15:24.23	338.84	4.51	
2025-01-12 11:15:25.66	338.90	4.42	
2025-01-12 11:15:27.10	338.95	4.32	
2025-01-12 11:15:28.53	339.01	4.22	
2025-01-12 11:15:29.97	339.07	4.13	
2025-01-12 11:15:31.40	339.12	4.03	

#Closed at: 2025-01-12 11:15:32