passes_logs/2025/01/12/SPB_Silybum_02/SPB_Silybum_02__20250112_031435_AQUA_rec.log

#Pass ID: 20250112_031435_AQUA
#Satellite: AQUA
#Configuration: AQUA
#Start time: 2025-01-12 03:14:35

#Version: 2.0.20230423
#Station: SPB_Silybum_02
#Location: 30.233357 lon 59.946436 lat
#TLE: 1 27424U 02022A   25010.89862733  .00001944  00000+0  40909-3 0  9991
#TLE: 2 27424  98.3577 327.5256 0001581 116.2883 319.2080 14.60667727207024

#Time	Az	El	Level	Level2	SNR	BER	Gain	Gain2
2025-01-12 03:14:37.11	9.72	4.07	
2025-01-12 03:14:38.14	9.62	4.14	
2025-01-12 03:14:39.16	9.53	4.20	
2025-01-12 03:14:40.18	9.44	4.26	
2025-01-12 03:14:41.22	9.34	4.32	
2025-01-12 03:14:42.25	9.24	4.38	
2025-01-12 03:14:43.28	9.15	4.44	
2025-01-12 03:14:44.30	9.05	4.50	
2025-01-12 03:14:45.33	8.96	4.57	
2025-01-12 03:14:46.36	8.86	4.63	
2025-01-12 03:14:47.38	8.76	4.69	
2025-01-12 03:14:48.41	8.66	4.75	
2025-01-12 03:14:49.44	8.56	4.81	
2025-01-12 03:14:50.46	8.46	4.88	
2025-01-12 03:14:51.50	8.36	4.94	
2025-01-12 03:14:52.53	8.26	5.00	
2025-01-12 03:14:53.56	8.16	5.06	
2025-01-12 03:14:54.58	8.06	5.13	
2025-01-12 03:14:55.61	7.96	5.19	
2025-01-12 03:14:56.63	7.86	5.25	
2025-01-12 03:14:57.67	7.75	5.32	
2025-01-12 03:14:58.70	7.65	5.38	
2025-01-12 03:14:59.72	7.55	5.44	
2025-01-12 03:15:00.74	7.44	5.50	
2025-01-12 03:15:01.77	7.34	5.57	
2025-01-12 03:15:02.79	7.23	5.63	
2025-01-12 03:15:03.82	7.13	5.69	
2025-01-12 03:15:04.86	7.02	5.76	
2025-01-12 03:15:05.88	6.91	5.82	
2025-01-12 03:15:06.90	6.81	5.88	
2025-01-12 03:15:07.93	6.70	5.95	
2025-01-12 03:15:08.95	6.59	6.01	
2025-01-12 03:15:09.98	6.48	6.08	
2025-01-12 03:15:11.01	6.37	6.14	
2025-01-12 03:15:12.03	6.26	6.20	
2025-01-12 03:15:13.06	6.15	6.27	
2025-01-12 03:15:14.09	6.04	6.33	
2025-01-12 03:15:15.11	5.93	6.40	
2025-01-12 03:15:16.14	5.82	6.46	
2025-01-12 03:15:17.16	5.70	6.52	
2025-01-12 03:15:18.19	5.59	6.59	
2025-01-12 03:15:19.21	5.48	6.65	
2025-01-12 03:15:20.24	5.36	6.72	
2025-01-12 03:15:21.27	5.25	6.78	
2025-01-12 03:15:22.29	5.13	6.85	
2025-01-12 03:15:23.32	5.02	6.91	
2025-01-12 03:15:24.34	4.90	6.98	
2025-01-12 03:15:25.37	4.78	7.04	
2025-01-12 03:15:26.40	4.66	7.11	
2025-01-12 03:15:27.42	4.55	7.17	
2025-01-12 03:15:28.46	4.43	7.24	
2025-01-12 03:15:29.48	4.31	7.30	
2025-01-12 03:15:30.51	4.19	7.37	
2025-01-12 03:15:31.53	4.07	7.43	
2025-01-12 03:15:32.56	3.94	7.50	
2025-01-12 03:15:33.59	3.82	7.56	
2025-01-12 03:15:34.61	3.70	7.63	
2025-01-12 03:15:35.64	3.58	7.69	
2025-01-12 03:15:36.67	3.45	7.76	
2025-01-12 03:15:37.70	3.33	7.83	
2025-01-12 03:15:38.72	3.20	7.89	
2025-01-12 03:15:39.75	3.08	7.96	
2025-01-12 03:15:40.79	2.95	8.03	
2025-01-12 03:15:41.81	2.82	8.09	
2025-01-12 03:15:42.84	2.69	8.16	
2025-01-12 03:15:43.86	2.56	8.22	
2025-01-12 03:15:44.90	2.43	8.29	
2025-01-12 03:15:45.93	2.30	8.36	
2025-01-12 03:15:46.95	2.17	8.42	
2025-01-12 03:15:47.97	2.04	8.49	
2025-01-12 03:15:49.00	1.91	8.56	
2025-01-12 03:15:50.03	1.78	8.62	
2025-01-12 03:15:51.06	1.64	8.69	
2025-01-12 03:15:52.09	1.51	8.76	
2025-01-12 03:15:53.11	1.38	8.82	
2025-01-12 03:15:54.14	1.24	8.89	
2025-01-12 03:15:55.18	1.10	8.96	
2025-01-12 03:15:56.21	0.97	9.02	
2025-01-12 03:15:57.23	0.83	9.09	
2025-01-12 03:15:58.26	0.69	9.16	
2025-01-12 03:15:59.29	0.55	9.23	
2025-01-12 03:16:00.31	0.41	9.29	
2025-01-12 03:16:01.35	0.27	9.36	
2025-01-12 03:16:02.37	0.13	9.43	
2025-01-12 03:16:03.40	359.99	9.49	
2025-01-12 03:16:04.43	359.85	9.56	
2025-01-12 03:16:05.46	359.70	9.63	
2025-01-12 03:16:06.48	359.56	9.70	
2025-01-12 03:16:07.53	359.41	9.76	
2025-01-12 03:16:08.56	359.27	9.83	
2025-01-12 03:16:09.58	359.12	9.90	
2025-01-12 03:16:10.61	358.98	9.97	
2025-01-12 03:16:11.64	358.83	10.04	
2025-01-12 03:16:12.66	358.68	10.10	
2025-01-12 03:16:13.69	358.53	10.17	
2025-01-12 03:16:14.71	358.38	10.24	
2025-01-12 03:16:15.74	358.23	10.30	
2025-01-12 03:16:16.77	358.08	10.37	
2025-01-12 03:16:17.79	357.93	10.44	
2025-01-12 03:16:18.81	357.78	10.51	
2025-01-12 03:16:19.84	357.62	10.58	
2025-01-12 03:16:20.87	357.47	10.64	
2025-01-12 03:16:21.89	357.31	10.71	
2025-01-12 03:16:22.92	357.16	10.78	
2025-01-12 03:16:23.95	357.00	10.85	
2025-01-12 03:16:24.98	356.84	10.91	
2025-01-12 03:16:26.00	356.68	10.98	
2025-01-12 03:16:27.03	356.52	11.05	
2025-01-12 03:16:28.06	356.36	11.12	
2025-01-12 03:16:29.08	356.20	11.19	
2025-01-12 03:16:30.11	356.04	11.25	
2025-01-12 03:16:31.14	355.88	11.32	
2025-01-12 03:16:32.18	355.71	11.39	
2025-01-12 03:16:33.20	355.55	11.46	
2025-01-12 03:16:34.23	355.39	11.52	
2025-01-12 03:16:35.25	355.22	11.59	
2025-01-12 03:16:36.28	355.05	11.66	
2025-01-12 03:16:37.32	354.88	11.73	
2025-01-12 03:16:38.35	354.71	11.80	
2025-01-12 03:16:39.39	354.54	11.87	
2025-01-12 03:16:40.42	354.37	11.93	
2025-01-12 03:16:41.44	354.20	12.00	
2025-01-12 03:16:42.47	354.03	12.07	
2025-01-12 03:16:43.50	353.86	12.14	
2025-01-12 03:16:44.52	353.69	12.20	
2025-01-12 03:16:45.55	353.51	12.27	
2025-01-12 03:16:46.58	353.33	12.34	
2025-01-12 03:16:47.60	353.16	12.40	
2025-01-12 03:16:48.63	352.98	12.47	
2025-01-12 03:16:49.66	352.80	12.54	
2025-01-12 03:16:50.69	352.62	12.61	
2025-01-12 03:16:51.71	352.45	12.67	
2025-01-12 03:16:52.74	352.26	12.74	
2025-01-12 03:16:53.76	352.08	12.81	
2025-01-12 03:16:54.80	351.90	12.88	
2025-01-12 03:16:55.82	351.72	12.94	
2025-01-12 03:16:56.85	351.53	13.01	
2025-01-12 03:16:57.88	351.35	13.08	
2025-01-12 03:16:58.90	351.16	13.14	
2025-01-12 03:16:59.93	350.97	13.21	
2025-01-12 03:17:00.97	350.78	13.28	
2025-01-12 03:17:01.99	350.60	13.34	
2025-01-12 03:17:03.02	350.41	13.41	
2025-01-12 03:17:04.05	350.21	13.48	
2025-01-12 03:17:05.07	350.02	13.54	
2025-01-12 03:17:06.10	349.83	13.61	
2025-01-12 03:17:07.13	349.64	13.67	
2025-01-12 03:17:08.17	349.44	13.74	
2025-01-12 03:17:09.20	349.24	13.81	
2025-01-12 03:17:10.22	349.05	13.87	
2025-01-12 03:17:11.25	348.85	13.94	
2025-01-12 03:17:12.28	348.65	14.00	
2025-01-12 03:17:13.30	348.45	14.07	
2025-01-12 03:17:14.33	348.25	14.13	
2025-01-12 03:17:15.37	348.05	14.20	
2025-01-12 03:17:16.39	347.85	14.26	
2025-01-12 03:17:17.42	347.65	14.33	
2025-01-12 03:17:18.46	347.44	14.39	
2025-01-12 03:17:19.48	347.24	14.46	
2025-01-12 03:17:20.51	347.03	14.52	
2025-01-12 03:17:21.54	346.82	14.58	
2025-01-12 03:17:22.57	346.61	14.65	
2025-01-12 03:17:23.60	346.40	14.71	
2025-01-12 03:17:24.62	346.19	14.78	
2025-01-12 03:17:25.65	345.98	14.84	
2025-01-12 03:17:26.67	345.77	14.90	
2025-01-12 03:17:27.70	345.56	14.96	
2025-01-12 03:17:28.73	345.35	15.03	
2025-01-12 03:17:29.75	345.13	15.09	
2025-01-12 03:17:30.79	344.91	15.15	
2025-01-12 03:17:31.82	344.70	15.21	
2025-01-12 03:17:32.84	344.48	15.28	
2025-01-12 03:17:33.87	344.26	15.34	
2025-01-12 03:17:34.90	344.04	15.40	
2025-01-12 03:17:35.93	343.82	15.46	
2025-01-12 03:17:36.96	343.60	15.52	
2025-01-12 03:17:38.00	343.37	15.58	
2025-01-12 03:17:39.03	343.15	15.64	
2025-01-12 03:17:40.05	342.93	15.70	
2025-01-12 03:17:41.08	342.70	15.76	
2025-01-12 03:17:42.10	342.47	15.82	
2025-01-12 03:17:43.12	342.25	15.88	
2025-01-12 03:17:44.15	342.02	15.94	
2025-01-12 03:17:45.18	341.79	16.00	
2025-01-12 03:17:46.20	341.56	16.06	
2025-01-12 03:17:47.23	341.33	16.12	
2025-01-12 03:17:48.26	341.10	16.17	
2025-01-12 03:17:49.28	340.86	16.23	
2025-01-12 03:17:50.31	340.63	16.29	
2025-01-12 03:17:51.33	340.40	16.34	
2025-01-12 03:17:52.36	340.16	16.40	
2025-01-12 03:17:53.38	339.92	16.46	
2025-01-12 03:17:54.41	339.69	16.51	
2025-01-12 03:17:55.44	339.45	16.57	
2025-01-12 03:17:56.47	339.21	16.62	
2025-01-12 03:17:57.49	338.97	16.68	
2025-01-12 03:17:58.52	338.72	16.73	
2025-01-12 03:17:59.55	338.48	16.79	
2025-01-12 03:18:00.57	338.24	16.84	
2025-01-12 03:18:01.60	337.99	16.89	
2025-01-12 03:18:02.62	337.75	16.95	
2025-01-12 03:18:03.65	337.50	17.00	
2025-01-12 03:18:04.67	337.26	17.05	
2025-01-12 03:18:05.70	337.01	17.10	
2025-01-12 03:18:06.74	336.76	17.16	
2025-01-12 03:18:07.78	336.50	17.21	
2025-01-12 03:18:08.80	336.25	17.26	
2025-01-12 03:18:09.85	335.99	17.31	
2025-01-12 03:18:10.87	335.74	17.36	
2025-01-12 03:18:11.90	335.49	17.41	
2025-01-12 03:18:12.92	335.24	17.46	
2025-01-12 03:18:13.96	334.98	17.50	
2025-01-12 03:18:15.00	334.72	17.55	
2025-01-12 03:18:16.03	334.46	17.60	
2025-01-12 03:18:17.06	334.20	17.65	
2025-01-12 03:18:18.09	333.94	17.69	
2025-01-12 03:18:19.11	333.68	17.74	
2025-01-12 03:18:20.15	333.42	17.79	
2025-01-12 03:18:21.19	333.15	17.83	
2025-01-12 03:18:22.21	332.89	17.88	
2025-01-12 03:18:23.24	332.63	17.92	
2025-01-12 03:18:24.27	332.36	17.96	
2025-01-12 03:18:25.29	332.10	18.01	
2025-01-12 03:18:26.33	331.83	18.05	
2025-01-12 03:18:27.36	331.57	18.09	
2025-01-12 03:18:28.38	331.30	18.13	
2025-01-12 03:18:29.41	331.03	18.17	
2025-01-12 03:18:30.44	330.76	18.21	
2025-01-12 03:18:31.47	330.49	18.25	
2025-01-12 03:18:32.49	330.22	18.29	
2025-01-12 03:18:33.54	329.95	18.33	
2025-01-12 03:18:34.57	329.67	18.37	
2025-01-12 03:18:35.59	329.40	18.41	
2025-01-12 03:18:36.62	329.13	18.45	
2025-01-12 03:18:37.65	328.85	18.48	
2025-01-12 03:18:38.69	328.58	18.52	
2025-01-12 03:18:39.72	328.30	18.55	
2025-01-12 03:18:40.74	328.03	18.59	
2025-01-12 03:18:41.77	327.75	18.62	
2025-01-12 03:18:42.81	327.47	18.66	
2025-01-12 03:18:43.84	327.19	18.69	
2025-01-12 03:18:40.29	328.15	18.57	
2025-01-12 03:18:41.32	327.87	18.61	
2025-01-12 03:18:42.35	327.59	18.64	
2025-01-12 03:18:43.38	327.31	18.67	
2025-01-12 03:18:44.42	327.03	18.71	
2025-01-12 03:18:45.44	326.75	18.74	
2025-01-12 03:18:46.47	326.47	18.77	
2025-01-12 03:18:47.50	326.19	18.80	
2025-01-12 03:18:48.52	325.91	18.83	
2025-01-12 03:18:49.55	325.63	18.86	
2025-01-12 03:18:50.59	325.35	18.89	
2025-01-12 03:18:51.62	325.06	18.91	
2025-01-12 03:18:52.64	324.78	18.94	
2025-01-12 03:18:53.67	324.50	18.97	
2025-01-12 03:18:54.69	324.21	18.99	
2025-01-12 03:18:55.73	323.93	19.02	
2025-01-12 03:18:56.75	323.64	19.04	
2025-01-12 03:18:57.78	323.36	19.07	
2025-01-12 03:18:58.81	323.07	19.09	
2025-01-12 03:18:59.83	322.78	19.11	
2025-01-12 03:19:00.85	322.50	19.13	
2025-01-12 03:19:01.89	322.21	19.16	
2025-01-12 03:19:02.91	321.92	19.18	
2025-01-12 03:19:03.94	321.63	19.20	
2025-01-12 03:19:04.96	321.35	19.21	
2025-01-12 03:19:05.99	321.06	19.23	
2025-01-12 03:19:07.03	320.76	19.25	
2025-01-12 03:19:08.07	320.47	19.27	
2025-01-12 03:19:09.10	320.18	19.28	
2025-01-12 03:19:10.13	319.89	19.30	
2025-01-12 03:19:11.16	319.60	19.31	
2025-01-12 03:19:12.19	319.30	19.33	
2025-01-12 03:19:13.23	319.01	19.34	
2025-01-12 03:19:14.27	318.71	19.35	
2025-01-12 03:19:15.31	318.42	19.36	
2025-01-12 03:19:16.34	318.13	19.38	
2025-01-12 03:19:17.36	317.83	19.39	
2025-01-12 03:19:18.39	317.54	19.40	
2025-01-12 03:19:19.42	317.25	19.40	
2025-01-12 03:19:20.46	316.95	19.41	
2025-01-12 03:19:21.49	316.66	19.42	
2025-01-12 03:19:22.51	316.37	19.43	
2025-01-12 03:19:23.54	316.07	19.43	
2025-01-12 03:19:24.57	315.78	19.44	
2025-01-12 03:19:25.60	315.48	19.44	
2025-01-12 03:19:26.64	315.19	19.44	
2025-01-12 03:19:27.67	314.89	19.45	
2025-01-12 03:19:28.70	314.60	19.45	
2025-01-12 03:19:29.72	314.30	19.45	
2025-01-12 03:19:30.75	314.01	19.45	
2025-01-12 03:19:31.78	313.72	19.45	
2025-01-12 03:19:32.82	313.42	19.45	
2025-01-12 03:19:33.85	313.12	19.45	
2025-01-12 03:19:34.89	312.83	19.44	
2025-01-12 03:19:35.91	312.53	19.44	
2025-01-12 03:19:36.93	312.24	19.44	
2025-01-12 03:19:37.96	311.95	19.43	
2025-01-12 03:19:38.99	311.65	19.43	
2025-01-12 03:19:40.02	311.36	19.42	
2025-01-12 03:19:41.04	311.07	19.41	
2025-01-12 03:19:42.07	310.77	19.40	
2025-01-12 03:19:43.11	310.48	19.40	
2025-01-12 03:19:44.13	310.19	19.39	
2025-01-12 03:19:45.16	309.89	19.38	
2025-01-12 03:19:46.19	309.60	19.37	
2025-01-12 03:19:47.21	309.31	19.35	
2025-01-12 03:19:48.24	309.02	19.34	
2025-01-12 03:19:49.27	308.73	19.33	
2025-01-12 03:19:50.31	308.43	19.31	
2025-01-12 03:19:51.33	308.14	19.30	
2025-01-12 03:19:52.36	307.85	19.28	
2025-01-12 03:19:53.38	307.56	19.27	
2025-01-12 03:19:54.41	307.27	19.25	
2025-01-12 03:19:55.43	306.98	19.23	
2025-01-12 03:19:56.46	306.69	19.22	
2025-01-12 03:19:57.49	306.40	19.20	
2025-01-12 03:19:58.51	306.11	19.18	
2025-01-12 03:19:59.54	305.83	19.16	
2025-01-12 03:20:00.56	305.54	19.14	
2025-01-12 03:20:01.59	305.25	19.12	
2025-01-12 03:20:02.62	304.96	19.09	
2025-01-12 03:20:03.64	304.68	19.07	
2025-01-12 03:20:04.67	304.39	19.05	
2025-01-12 03:20:05.69	304.11	19.02	
2025-01-12 03:20:06.72	303.82	19.00	
2025-01-12 03:20:07.74	303.54	18.97	
2025-01-12 03:20:08.77	303.25	18.94	
2025-01-12 03:20:09.80	302.97	18.92	
2025-01-12 03:20:10.82	302.69	18.89	
2025-01-12 03:20:11.85	302.41	18.86	
2025-01-12 03:20:12.88	302.12	18.83	
2025-01-12 03:20:13.91	301.84	18.80	
2025-01-12 03:20:14.94	301.56	18.77	
2025-01-12 03:20:15.96	301.28	18.74	
2025-01-12 03:20:16.99	301.00	18.71	
2025-01-12 03:20:18.05	300.71	18.68	
2025-01-12 03:20:19.08	300.43	18.64	
2025-01-12 03:20:20.10	300.16	18.61	
2025-01-12 03:20:21.13	299.88	18.58	
2025-01-12 03:20:22.16	299.60	18.54	
2025-01-12 03:20:23.18	299.33	18.51	
2025-01-12 03:20:24.21	299.05	18.47	
2025-01-12 03:20:25.24	298.78	18.43	
2025-01-12 03:20:26.26	298.50	18.40	
2025-01-12 03:20:27.29	298.23	18.36	
2025-01-12 03:20:28.31	297.96	18.32	
2025-01-12 03:20:29.34	297.69	18.28	
2025-01-12 03:20:30.36	297.42	18.24	
2025-01-12 03:20:31.39	297.15	18.20	
2025-01-12 03:20:32.43	296.88	18.16	
2025-01-12 03:20:33.45	296.61	18.12	
2025-01-12 03:20:34.48	296.34	18.08	
2025-01-12 03:20:35.51	296.07	18.04	
2025-01-12 03:20:36.53	295.81	17.99	
2025-01-12 03:20:37.56	295.54	17.95	
2025-01-12 03:20:38.60	295.27	17.91	
2025-01-12 03:20:39.62	295.01	17.86	
2025-01-12 03:20:40.66	294.75	17.82	
2025-01-12 03:20:41.69	294.48	17.77	
2025-01-12 03:20:42.72	294.22	17.72	
2025-01-12 03:20:43.75	293.96	17.68	
2025-01-12 03:20:44.79	293.70	17.63	
2025-01-12 03:20:45.81	293.44	17.58	
2025-01-12 03:20:46.84	293.18	17.54	
2025-01-12 03:20:47.86	292.93	17.49	
2025-01-12 03:20:48.90	292.67	17.44	
2025-01-12 03:20:49.93	292.41	17.39	
2025-01-12 03:20:50.95	292.16	17.34	
2025-01-12 03:20:51.98	291.90	17.29	
2025-01-12 03:20:53.01	291.65	17.24	
2025-01-12 03:20:54.03	291.40	17.19	
2025-01-12 03:20:55.07	291.15	17.14	
2025-01-12 03:20:56.09	290.90	17.09	
2025-01-12 03:20:57.12	290.65	17.03	
2025-01-12 03:20:58.14	290.40	16.98	
2025-01-12 03:20:59.17	290.16	16.93	
2025-01-12 03:21:00.19	289.91	16.88	
2025-01-12 03:21:01.22	289.66	16.82	
2025-01-12 03:21:02.25	289.42	16.77	
2025-01-12 03:21:03.27	289.18	16.71	
2025-01-12 03:21:04.29	288.94	16.66	
2025-01-12 03:21:05.32	288.69	16.60	
2025-01-12 03:21:06.35	288.45	16.55	
2025-01-12 03:21:07.38	288.21	16.49	
2025-01-12 03:21:08.40	287.98	16.44	
2025-01-12 03:21:09.44	287.74	16.38	
2025-01-12 03:21:10.48	287.50	16.32	
2025-01-12 03:21:11.51	287.26	16.26	
2025-01-12 03:21:12.54	287.02	16.21	
2025-01-12 03:21:13.56	286.79	16.15	
2025-01-12 03:21:14.59	286.56	16.09	
2025-01-12 03:21:15.62	286.33	16.03	
2025-01-12 03:21:16.65	286.09	15.97	
2025-01-12 03:21:17.67	285.87	15.92	
2025-01-12 03:21:18.70	285.64	15.86	
2025-01-12 03:21:19.74	285.40	15.80	
2025-01-12 03:21:20.78	285.17	15.74	
2025-01-12 03:21:21.80	284.95	15.68	
2025-01-12 03:21:22.84	284.72	15.61	
2025-01-12 03:21:23.86	284.50	15.55	
2025-01-12 03:21:24.89	284.28	15.49	
2025-01-12 03:21:25.91	284.05	15.43	
2025-01-12 03:21:26.94	283.83	15.37	
2025-01-12 03:21:27.96	283.61	15.31	
2025-01-12 03:21:29.00	283.39	15.25	
2025-01-12 03:21:30.03	283.17	15.18	
2025-01-12 03:21:31.05	282.96	15.12	
2025-01-12 03:21:32.08	282.74	15.06	
2025-01-12 03:21:33.10	282.53	15.00	
2025-01-12 03:21:34.13	282.31	14.93	
2025-01-12 03:21:35.16	282.10	14.87	
2025-01-12 03:21:36.20	281.88	14.81	
2025-01-12 03:21:37.24	281.67	14.74	
2025-01-12 03:21:38.26	281.46	14.68	
2025-01-12 03:21:39.29	281.25	14.62	
2025-01-12 03:21:40.32	281.04	14.55	
2025-01-12 03:21:41.34	280.83	14.49	
2025-01-12 03:21:42.37	280.63	14.42	
2025-01-12 03:21:43.40	280.42	14.36	
2025-01-12 03:21:44.42	280.22	14.29	
2025-01-12 03:21:45.44	280.01	14.23	
2025-01-12 03:21:46.48	279.81	14.16	
2025-01-12 03:21:47.51	279.61	14.10	
2025-01-12 03:21:48.53	279.41	14.03	
2025-01-12 03:21:49.56	279.21	13.97	
2025-01-12 03:21:50.58	279.01	13.90	
2025-01-12 03:21:51.61	278.81	13.84	
2025-01-12 03:21:52.64	278.61	13.77	
2025-01-12 03:21:53.66	278.42	13.70	
2025-01-12 03:21:54.69	278.22	13.64	
2025-01-12 03:21:55.71	278.03	13.57	
2025-01-12 03:21:56.74	277.83	13.51	
2025-01-12 03:21:57.78	277.64	13.44	
2025-01-12 03:21:58.83	277.44	13.37	
2025-01-12 03:21:59.87	277.25	13.30	
2025-01-12 03:22:00.89	277.06	13.24	
2025-01-12 03:22:01.92	276.87	13.17	
2025-01-12 03:22:02.95	276.68	13.10	
2025-01-12 03:22:03.97	276.50	13.04	
2025-01-12 03:22:05.00	276.31	12.97	
2025-01-12 03:22:06.04	276.13	12.90	
2025-01-12 03:22:07.07	275.94	12.83	
2025-01-12 03:22:08.09	275.76	12.77	
2025-01-12 03:22:09.12	275.58	12.70	
2025-01-12 03:22:10.15	275.39	12.63	
2025-01-12 03:22:11.18	275.21	12.56	
2025-01-12 03:22:12.21	275.03	12.50	
2025-01-12 03:22:13.23	274.86	12.43	
2025-01-12 03:22:14.26	274.68	12.36	
2025-01-12 03:22:15.28	274.50	12.29	
2025-01-12 03:22:16.32	274.32	12.23	
2025-01-12 03:22:17.35	274.15	12.16	
2025-01-12 03:22:18.38	273.97	12.09	
2025-01-12 03:22:19.41	273.80	12.02	
2025-01-12 03:22:20.45	273.62	11.95	
2025-01-12 03:22:21.47	273.45	11.89	
2025-01-12 03:22:22.50	273.28	11.82	
2025-01-12 03:22:23.54	273.11	11.75	
2025-01-12 03:22:24.57	272.94	11.68	
2025-01-12 03:22:25.59	272.77	11.61	
2025-01-12 03:22:26.62	272.60	11.54	
2025-01-12 03:22:27.65	272.44	11.48	
2025-01-12 03:22:28.69	272.27	11.41	
2025-01-12 03:22:29.71	272.11	11.34	
2025-01-12 03:22:30.74	271.94	11.27	
2025-01-12 03:22:31.76	271.78	11.20	
2025-01-12 03:22:32.80	271.61	11.14	
2025-01-12 03:22:33.83	271.45	11.07	
2025-01-12 03:22:34.86	271.29	11.00	
2025-01-12 03:22:35.89	271.13	10.93	
2025-01-12 03:22:36.91	270.97	10.86	
2025-01-12 03:22:37.95	270.81	10.79	
2025-01-12 03:22:38.98	270.65	10.73	
2025-01-12 03:22:40.00	270.50	10.66	
2025-01-12 03:22:41.03	270.34	10.59	
2025-01-12 03:22:42.07	270.19	10.52	
2025-01-12 03:22:43.10	270.03	10.45	
2025-01-12 03:22:44.12	269.88	10.39	
2025-01-12 03:22:45.15	269.72	10.32	
2025-01-12 03:22:46.18	269.57	10.25	
2025-01-12 03:22:47.20	269.42	10.18	
2025-01-12 03:22:48.23	269.27	10.11	
2025-01-12 03:22:49.25	269.12	10.05	
2025-01-12 03:22:50.28	268.97	9.98	
2025-01-12 03:22:51.31	268.82	9.91	
2025-01-12 03:22:52.33	268.68	9.84	
2025-01-12 03:22:53.36	268.53	9.77	
2025-01-12 03:22:54.38	268.39	9.71	
2025-01-12 03:22:55.41	268.24	9.64	
2025-01-12 03:22:56.44	268.09	9.57	
2025-01-12 03:22:57.46	267.95	9.50	
2025-01-12 03:22:58.49	267.81	9.44	
2025-01-12 03:22:59.53	267.66	9.37	
2025-01-12 03:23:00.55	267.52	9.30	
2025-01-12 03:23:01.58	267.38	9.23	
2025-01-12 03:23:02.62	267.24	9.17	
2025-01-12 03:23:03.66	267.10	9.10	
2025-01-12 03:23:04.69	266.96	9.03	
2025-01-12 03:23:05.71	266.82	8.96	
2025-01-12 03:23:06.73	266.69	8.90	
2025-01-12 03:23:07.76	266.55	8.83	
2025-01-12 03:23:08.79	266.41	8.76	
2025-01-12 03:23:09.81	266.28	8.70	
2025-01-12 03:23:10.85	266.14	8.63	
2025-01-12 03:23:11.88	266.01	8.56	
2025-01-12 03:23:12.90	265.88	8.49	
2025-01-12 03:23:13.93	265.74	8.43	
2025-01-12 03:23:14.96	265.61	8.36	
2025-01-12 03:23:15.98	265.48	8.29	
2025-01-12 03:23:17.01	265.35	8.23	
2025-01-12 03:23:18.04	265.22	8.16	
2025-01-12 03:23:19.07	265.09	8.09	
2025-01-12 03:23:20.10	264.96	8.03	
2025-01-12 03:23:21.13	264.83	7.96	
2025-01-12 03:23:22.15	264.70	7.90	
2025-01-12 03:23:23.18	264.58	7.83	
2025-01-12 03:23:24.20	264.45	7.76	
2025-01-12 03:23:25.23	264.33	7.70	
2025-01-12 03:23:26.26	264.20	7.63	
2025-01-12 03:23:27.29	264.08	7.56	
2025-01-12 03:23:28.31	263.95	7.50	
2025-01-12 03:23:29.34	263.83	7.43	
2025-01-12 03:23:30.37	263.71	7.37	
2025-01-12 03:23:31.39	263.59	7.30	
2025-01-12 03:23:32.42	263.47	7.24	
2025-01-12 03:23:33.45	263.34	7.17	
2025-01-12 03:23:34.48	263.22	7.10	
2025-01-12 03:23:35.51	263.10	7.04	
2025-01-12 03:23:36.56	262.98	6.97	
2025-01-12 03:23:37.60	262.86	6.91	
2025-01-12 03:23:38.62	262.75	6.84	
2025-01-12 03:23:39.65	262.63	6.78	
2025-01-12 03:23:40.67	262.51	6.71	
2025-01-12 03:23:41.70	262.40	6.65	
2025-01-12 03:23:42.72	262.28	6.58	
2025-01-12 03:23:43.75	262.17	6.52	
2025-01-12 03:23:44.78	262.05	6.45	
2025-01-12 03:23:45.81	261.94	6.39	
2025-01-12 03:23:46.85	261.83	6.32	
2025-01-12 03:23:47.88	261.71	6.26	
2025-01-12 03:23:48.91	261.60	6.19	
2025-01-12 03:23:49.93	261.49	6.13	
2025-01-12 03:23:50.96	261.38	6.07	
2025-01-12 03:23:51.98	261.27	6.00	
2025-01-12 03:23:53.02	261.16	5.94	
2025-01-12 03:23:54.04	261.05	5.87	
2025-01-12 03:23:55.07	260.94	5.81	
2025-01-12 03:23:56.10	260.83	5.75	
2025-01-12 03:23:57.12	260.73	5.68	
2025-01-12 03:23:58.15	260.62	5.62	
2025-01-12 03:23:59.18	260.51	5.55	
2025-01-12 03:24:00.23	260.40	5.49	
2025-01-12 03:24:01.26	260.30	5.43	
2025-01-12 03:24:02.29	260.19	5.36	
2025-01-12 03:24:03.31	260.09	5.30	
2025-01-12 03:24:04.34	259.98	5.24	
2025-01-12 03:24:05.36	259.88	5.17	
2025-01-12 03:24:06.39	259.78	5.11	
2025-01-12 03:24:07.42	259.67	5.05	
2025-01-12 03:24:08.44	259.57	4.99	
2025-01-12 03:24:09.47	259.47	4.92	
2025-01-12 03:24:10.49	259.37	4.86	
2025-01-12 03:24:11.52	259.27	4.80	
2025-01-12 03:24:12.55	259.17	4.74	
2025-01-12 03:24:13.57	259.07	4.67	
2025-01-12 03:24:14.61	258.97	4.61	
2025-01-12 03:24:15.65	258.87	4.55	
2025-01-12 03:24:16.69	258.77	4.49	
2025-01-12 03:24:17.72	258.67	4.42	
2025-01-12 03:24:18.74	258.58	4.36	
2025-01-12 03:24:19.77	258.48	4.30	
2025-01-12 03:24:20.80	258.38	4.24	
2025-01-12 03:24:21.84	258.29	4.18	
2025-01-12 03:24:22.86	258.19	4.11	
2025-01-12 03:24:23.89	258.10	4.05	

#Closed at: 2025-01-12 03:24:24