passes_logs/2025/01/12/SPB_Silybum_02/SPB_Silybum_02__20250112_093658_AQUA_rec.log

#Pass ID: 20250112_093658_AQUA
#Satellite: AQUA
#Configuration: AQUA
#Start time: 2025-01-12 09:36:57

#Version: 2.0.20230423
#Station: SPB_Silybum_02
#Location: 30.233357 lon 59.946436 lat
#TLE: 1 27424U 02022A   25011.85338958  .00001740  00000+0  36730-3 0  9996
#TLE: 2 27424  98.3583 328.4891 0001585 114.5213 298.5366 14.60670077207161

#Time	Az	El	Level	Level2	SNR	BER	Gain	Gain2
2025-01-12 09:36:59.81	106.13	4.05	
2025-01-12 09:37:00.85	106.04	4.11	
2025-01-12 09:37:01.88	105.95	4.18	
2025-01-12 09:37:02.90	105.86	4.24	
2025-01-12 09:37:03.92	105.77	4.30	
2025-01-12 09:37:04.94	105.68	4.37	
2025-01-12 09:37:05.97	105.59	4.43	
2025-01-12 09:37:07.00	105.50	4.49	
2025-01-12 09:37:08.02	105.40	4.56	
2025-01-12 09:37:09.05	105.31	4.62	
2025-01-12 09:37:10.07	105.22	4.69	
2025-01-12 09:37:11.10	105.13	4.75	
2025-01-12 09:37:12.13	105.03	4.81	
2025-01-12 09:37:13.16	104.94	4.88	
2025-01-12 09:37:14.19	104.84	4.94	
2025-01-12 09:37:15.21	104.75	5.01	
2025-01-12 09:37:16.24	104.65	5.07	
2025-01-12 09:37:17.27	104.56	5.14	
2025-01-12 09:37:18.29	104.46	5.20	
2025-01-12 09:37:19.32	104.36	5.27	
2025-01-12 09:37:20.35	104.26	5.33	
2025-01-12 09:37:21.37	104.17	5.40	
2025-01-12 09:37:22.40	104.07	5.46	
2025-01-12 09:37:23.42	103.97	5.53	
2025-01-12 09:37:24.45	103.87	5.59	
2025-01-12 09:37:25.47	103.77	5.66	
2025-01-12 09:37:26.51	103.67	5.73	
2025-01-12 09:37:27.54	103.57	5.79	
2025-01-12 09:37:28.58	103.47	5.86	
2025-01-12 09:37:29.61	103.36	5.93	
2025-01-12 09:37:30.63	103.26	5.99	
2025-01-12 09:37:31.66	103.16	6.06	
2025-01-12 09:37:32.69	103.05	6.12	
2025-01-12 09:37:33.71	102.95	6.19	
2025-01-12 09:37:34.74	102.84	6.26	
2025-01-12 09:37:35.77	102.74	6.32	
2025-01-12 09:37:36.79	102.63	6.39	
2025-01-12 09:37:37.82	102.53	6.46	
2025-01-12 09:37:38.86	102.42	6.53	
2025-01-12 09:37:39.89	102.31	6.59	
2025-01-12 09:37:40.92	102.20	6.66	
2025-01-12 09:37:41.94	102.10	6.73	
2025-01-12 09:37:42.97	101.99	6.80	
2025-01-12 09:37:43.99	101.88	6.86	
2025-01-12 09:37:45.02	101.77	6.93	
2025-01-12 09:37:46.05	101.66	7.00	
2025-01-12 09:37:47.08	101.54	7.07	
2025-01-12 09:37:48.10	101.43	7.13	
2025-01-12 09:37:49.13	101.32	7.20	
2025-01-12 09:37:50.16	101.21	7.27	
2025-01-12 09:37:51.18	101.09	7.34	
2025-01-12 09:37:52.21	100.98	7.41	
2025-01-12 09:37:53.23	100.86	7.47	
2025-01-12 09:37:54.26	100.75	7.54	
2025-01-12 09:37:55.29	100.63	7.61	
2025-01-12 09:37:56.32	100.52	7.68	
2025-01-12 09:37:57.35	100.40	7.75	
2025-01-12 09:37:58.37	100.28	7.82	
2025-01-12 09:37:59.40	100.16	7.89	
2025-01-12 09:38:00.42	100.04	7.96	
2025-01-12 09:38:01.46	99.92	8.03	
2025-01-12 09:38:02.48	99.80	8.10	
2025-01-12 09:38:03.51	99.68	8.17	
2025-01-12 09:38:04.53	99.56	8.24	
2025-01-12 09:38:05.56	99.44	8.31	
2025-01-12 09:38:06.58	99.32	8.37	
2025-01-12 09:38:07.61	99.19	8.44	
2025-01-12 09:38:08.65	99.07	8.52	
2025-01-12 09:38:09.67	98.94	8.58	
2025-01-12 09:38:10.70	98.82	8.66	
2025-01-12 09:38:11.73	98.69	8.73	
2025-01-12 09:38:12.75	98.56	8.80	
2025-01-12 09:38:13.78	98.43	8.87	
2025-01-12 09:38:14.80	98.31	8.94	
2025-01-12 09:38:15.83	98.18	9.01	
2025-01-12 09:38:16.86	98.05	9.08	
2025-01-12 09:38:17.89	97.92	9.15	
2025-01-12 09:38:18.93	97.78	9.22	
2025-01-12 09:38:19.95	97.65	9.29	
2025-01-12 09:38:20.98	97.52	9.36	
2025-01-12 09:38:22.00	97.39	9.43	
2025-01-12 09:38:23.03	97.25	9.50	
2025-01-12 09:38:24.05	97.12	9.58	
2025-01-12 09:38:25.08	96.98	9.65	
2025-01-12 09:38:26.10	96.85	9.72	
2025-01-12 09:38:27.12	96.71	9.79	
2025-01-12 09:38:28.15	96.57	9.86	
2025-01-12 09:38:29.17	96.44	9.93	
2025-01-12 09:38:30.20	96.30	10.00	
2025-01-12 09:38:31.24	96.16	10.08	
2025-01-12 09:38:32.26	96.02	10.15	
2025-01-12 09:38:33.29	95.88	10.22	
2025-01-12 09:38:34.31	95.73	10.29	
2025-01-12 09:38:35.34	95.59	10.37	
2025-01-12 09:38:36.37	95.45	10.44	
2025-01-12 09:38:37.39	95.30	10.51	
2025-01-12 09:38:38.42	95.16	10.58	
2025-01-12 09:38:39.45	95.01	10.65	
2025-01-12 09:38:40.47	94.87	10.73	
2025-01-12 09:38:41.50	94.72	10.80	
2025-01-12 09:38:42.52	94.57	10.87	
2025-01-12 09:38:43.55	94.42	10.94	
2025-01-12 09:38:44.57	94.27	11.02	
2025-01-12 09:38:45.60	94.12	11.09	
2025-01-12 09:38:46.62	93.97	11.16	
2025-01-12 09:38:47.65	93.82	11.24	
2025-01-12 09:38:48.69	93.66	11.31	
2025-01-12 09:38:49.72	93.51	11.38	
2025-01-12 09:38:50.74	93.35	11.46	
2025-01-12 09:38:51.77	93.20	11.53	
2025-01-12 09:38:52.80	93.04	11.60	
2025-01-12 09:38:53.82	92.88	11.67	
2025-01-12 09:38:54.84	92.73	11.75	
2025-01-12 09:38:55.88	92.56	11.82	
2025-01-12 09:38:56.91	92.40	11.90	
2025-01-12 09:38:57.94	92.24	11.97	
2025-01-12 09:38:58.96	92.08	12.04	
2025-01-12 09:38:59.99	91.92	12.12	
2025-01-12 09:39:01.02	91.75	12.19	
2025-01-12 09:39:02.04	91.59	12.26	
2025-01-12 09:39:03.08	91.42	12.34	
2025-01-12 09:39:04.11	91.26	12.41	
2025-01-12 09:39:05.13	91.09	12.48	
2025-01-12 09:39:06.17	90.92	12.56	
2025-01-12 09:39:07.21	90.75	12.63	
2025-01-12 09:39:08.24	90.58	12.71	
2025-01-12 09:39:09.28	90.41	12.78	
2025-01-12 09:39:10.31	90.23	12.85	
2025-01-12 09:39:11.33	90.06	12.93	
2025-01-12 09:39:12.36	89.89	13.00	
2025-01-12 09:39:13.38	89.71	13.07	
2025-01-12 09:39:14.40	89.54	13.15	
2025-01-12 09:39:15.43	89.36	13.22	
2025-01-12 09:39:16.46	89.19	13.30	
2025-01-12 09:39:17.48	89.01	13.37	
2025-01-12 09:39:18.51	88.83	13.44	
2025-01-12 09:39:19.53	88.65	13.52	
2025-01-12 09:39:20.55	88.47	13.59	
2025-01-12 09:39:21.58	88.29	13.66	
2025-01-12 09:39:22.62	88.10	13.74	
2025-01-12 09:39:23.64	87.92	13.81	
2025-01-12 09:39:24.67	87.73	13.88	
2025-01-12 09:39:25.70	87.55	13.96	
2025-01-12 09:39:26.74	87.36	14.03	
2025-01-12 09:39:27.78	87.17	14.10	
2025-01-12 09:39:28.80	86.98	14.18	
2025-01-12 09:39:29.83	86.79	14.25	
2025-01-12 09:39:30.85	86.60	14.32	
2025-01-12 09:39:31.88	86.40	14.40	
2025-01-12 09:39:32.91	86.21	14.47	
2025-01-12 09:39:33.93	86.02	14.54	
2025-01-12 09:39:34.96	85.82	14.62	
2025-01-12 09:39:35.98	85.63	14.69	
2025-01-12 09:39:37.01	85.43	14.76	
2025-01-12 09:39:38.03	85.23	14.83	
2025-01-12 09:39:39.06	85.03	14.91	
2025-01-12 09:39:40.10	84.83	14.98	
2025-01-12 09:39:41.14	84.62	15.05	
2025-01-12 09:39:42.17	84.42	15.12	
2025-01-12 09:39:43.19	84.22	15.20	
2025-01-12 09:39:44.22	84.01	15.27	
2025-01-12 09:39:45.24	83.81	15.34	
2025-01-12 09:39:46.26	83.60	15.41	
2025-01-12 09:39:47.29	83.39	15.48	
2025-01-12 09:39:48.31	83.19	15.55	
2025-01-12 09:39:49.35	82.97	15.63	
2025-01-12 09:39:50.39	82.76	15.70	
2025-01-12 09:39:51.42	82.55	15.77	
2025-01-12 09:39:52.44	82.34	15.84	
2025-01-12 09:39:53.47	82.12	15.91	
2025-01-12 09:39:54.50	81.90	15.98	
2025-01-12 09:39:55.52	81.69	16.05	
2025-01-12 09:39:56.55	81.47	16.12	
2025-01-12 09:39:57.58	81.25	16.19	
2025-01-12 09:39:58.60	81.03	16.26	
2025-01-12 09:39:59.63	80.81	16.33	
2025-01-12 09:40:00.65	80.59	16.40	
2025-01-12 09:40:01.68	80.37	16.47	
2025-01-12 09:40:02.70	80.14	16.54	
2025-01-12 09:40:03.72	79.92	16.61	
2025-01-12 09:40:04.75	79.69	16.67	
2025-01-12 09:40:05.78	79.46	16.74	
2025-01-12 09:40:06.80	79.24	16.81	
2025-01-12 09:40:07.83	79.01	16.88	
2025-01-12 09:40:08.86	78.78	16.95	
2025-01-12 09:40:09.90	78.54	17.02	
2025-01-12 09:40:10.92	78.31	17.08	
2025-01-12 09:40:11.95	78.07	17.15	
2025-01-12 09:40:12.97	77.84	17.21	
2025-01-12 09:40:14.00	77.60	17.28	
2025-01-12 09:40:15.03	77.37	17.35	
2025-01-12 09:40:16.05	77.13	17.41	
2025-01-12 09:40:17.07	76.89	17.48	
2025-01-12 09:40:18.10	76.65	17.54	
2025-01-12 09:40:19.13	76.41	17.61	
2025-01-12 09:40:20.17	76.16	17.67	
2025-01-12 09:40:21.21	75.91	17.74	
2025-01-12 09:40:22.23	75.67	17.80	
2025-01-12 09:40:23.26	75.42	17.87	
2025-01-12 09:40:24.29	75.17	17.93	
2025-01-12 09:40:25.31	74.93	17.99	
2025-01-12 09:40:26.34	74.68	18.05	
2025-01-12 09:40:27.37	74.43	18.12	
2025-01-12 09:40:28.39	74.18	18.18	
2025-01-12 09:40:29.42	73.92	18.24	
2025-01-12 09:40:30.46	73.66	18.30	
2025-01-12 09:40:31.49	73.41	18.36	
2025-01-12 09:40:32.51	73.15	18.42	
2025-01-12 09:40:33.53	72.90	18.48	
2025-01-12 09:40:34.57	72.64	18.54	
2025-01-12 09:40:35.60	72.38	18.60	
2025-01-12 09:40:36.62	72.12	18.66	
2025-01-12 09:40:37.65	71.86	18.72	
2025-01-12 09:40:38.67	71.60	18.77	
2025-01-12 09:40:39.72	71.33	18.83	
2025-01-12 09:40:40.74	71.06	18.89	
2025-01-12 09:40:41.77	70.80	18.94	
2025-01-12 09:40:42.80	70.53	19.00	
2025-01-12 09:40:43.82	70.26	19.06	
2025-01-12 09:40:44.85	69.99	19.11	
2025-01-12 09:40:45.87	69.73	19.16	
2025-01-12 09:40:46.91	69.45	19.22	
2025-01-12 09:40:47.94	69.18	19.27	
2025-01-12 09:40:48.96	68.91	19.32	
2025-01-12 09:40:49.99	68.63	19.38	
2025-01-12 09:40:51.02	68.36	19.43	
2025-01-12 09:40:52.06	68.08	19.48	
2025-01-12 09:40:53.08	67.80	19.53	
2025-01-12 09:40:54.10	67.53	19.58	
2025-01-12 09:40:55.13	67.25	19.63	
2025-01-12 09:40:56.17	66.97	19.68	
2025-01-12 09:40:57.19	66.69	19.73	
2025-01-12 09:40:58.22	66.40	19.78	
2025-01-12 09:40:59.24	66.12	19.82	
2025-01-12 09:41:00.27	65.84	19.87	
2025-01-12 09:41:01.29	65.56	19.91	
2025-01-12 09:41:02.32	65.27	19.96	
2025-01-12 09:41:03.34	64.99	20.00	
2025-01-12 09:41:04.36	64.70	20.05	
2025-01-12 09:41:05.39	64.41	20.09	
2025-01-12 09:41:06.42	64.13	20.13	
2025-01-12 09:41:07.44	63.84	20.18	
2025-01-12 09:41:08.47	63.55	20.22	
2025-01-12 09:41:09.50	63.25	20.26	
2025-01-12 09:41:10.52	62.97	20.30	
2025-01-12 09:41:11.55	62.67	20.34	
2025-01-12 09:41:12.57	62.38	20.38	
2025-01-12 09:41:13.60	62.09	20.41	
2025-01-12 09:41:14.63	61.79	20.45	
2025-01-12 09:41:15.65	61.50	20.49	
2025-01-12 09:41:16.69	61.20	20.52	
2025-01-12 09:41:17.72	60.90	20.56	
2025-01-12 09:41:18.75	60.60	20.59	
2025-01-12 09:41:19.77	60.30	20.63	
2025-01-12 09:41:20.80	60.00	20.66	
2025-01-12 09:41:21.82	59.70	20.69	
2025-01-12 09:41:22.85	59.40	20.72	
2025-01-12 09:41:23.87	59.10	20.75	
2025-01-12 09:41:24.90	58.80	20.78	
2025-01-12 09:41:25.93	58.50	20.81	
2025-01-12 09:41:26.96	58.19	20.84	
2025-01-12 09:41:27.98	57.89	20.87	
2025-01-12 09:41:29.01	57.59	20.90	
2025-01-12 09:41:30.03	57.29	20.92	
2025-01-12 09:41:31.06	56.98	20.95	
2025-01-12 09:41:32.09	56.67	20.97	
2025-01-12 09:41:33.11	56.37	20.99	
2025-01-12 09:41:34.14	56.06	21.02	
2025-01-12 09:41:35.16	55.76	21.04	
2025-01-12 09:41:36.19	55.45	21.06	
2025-01-12 09:41:37.22	55.14	21.08	
2025-01-12 09:41:38.24	54.83	21.10	
2025-01-12 09:41:39.27	54.52	21.12	
2025-01-12 09:41:40.29	54.22	21.14	
2025-01-12 09:41:41.32	53.91	21.15	
2025-01-12 09:41:42.34	53.60	21.17	
2025-01-12 09:41:43.37	53.29	21.18	
2025-01-12 09:41:44.40	52.98	21.20	
2025-01-12 09:41:45.42	52.67	21.21	
2025-01-12 09:41:46.45	52.35	21.23	
2025-01-12 09:41:47.47	52.05	21.24	
2025-01-12 09:41:48.51	51.73	21.25	
2025-01-12 09:41:49.54	51.42	21.26	
2025-01-12 09:41:50.57	51.10	21.27	
2025-01-12 09:41:51.60	50.79	21.28	
2025-01-12 09:41:52.62	50.48	21.28	
2025-01-12 09:41:53.67	50.16	21.29	
2025-01-12 09:41:54.71	49.85	21.30	
2025-01-12 09:41:55.73	49.53	21.30	
2025-01-12 09:41:56.76	49.22	21.31	
2025-01-12 09:41:57.78	48.91	21.31	
2025-01-12 09:41:58.80	48.60	21.31	
2025-01-12 09:41:59.82	48.29	21.31	
2025-01-12 09:42:00.84	47.98	21.31	
2025-01-12 09:42:01.87	47.66	21.31	
2025-01-12 09:42:02.89	47.35	21.31	
2025-01-12 09:42:03.93	47.04	21.31	
2025-01-12 09:42:04.97	46.72	21.31	
2025-01-12 09:42:06.00	46.41	21.30	
2025-01-12 09:42:07.02	46.09	21.30	
2025-01-12 09:42:08.04	45.78	21.29	
2025-01-12 09:42:09.07	45.47	21.29	
2025-01-12 09:42:10.10	45.16	21.28	
2025-01-12 09:42:11.12	44.85	21.27	
2025-01-12 09:42:12.14	44.54	21.26	
2025-01-12 09:42:13.17	44.23	21.25	
2025-01-12 09:42:14.19	43.92	21.24	
2025-01-12 09:42:15.23	43.60	21.23	
2025-01-12 09:42:16.26	43.29	21.22	
2025-01-12 09:42:17.28	42.98	21.21	
2025-01-12 09:42:18.31	42.67	21.19	
2025-01-12 09:42:19.34	42.36	21.18	
2025-01-12 09:42:20.36	42.05	21.16	
2025-01-12 09:42:21.39	41.74	21.15	
2025-01-12 09:42:22.41	41.43	21.13	
2025-01-12 09:42:23.44	41.12	21.11	
2025-01-12 09:42:24.46	40.82	21.09	
2025-01-12 09:42:25.49	40.51	21.07	
2025-01-12 09:42:26.51	40.20	21.05	
2025-01-12 09:42:27.55	39.89	21.03	
2025-01-12 09:42:28.58	39.58	21.01	
2025-01-12 09:42:29.61	39.28	20.98	
2025-01-12 09:42:30.63	38.97	20.96	
2025-01-12 09:42:31.66	38.67	20.94	
2025-01-12 09:42:32.69	38.36	20.91	
2025-01-12 09:42:33.72	38.06	20.88	
2025-01-12 09:42:34.74	37.76	20.86	
2025-01-12 09:42:35.77	37.45	20.83	
2025-01-12 09:42:36.80	37.15	20.80	
2025-01-12 09:42:37.82	36.85	20.77	
2025-01-12 09:42:38.85	36.55	20.74	
2025-01-12 09:42:39.87	36.25	20.71	
2025-01-12 09:42:40.90	35.95	20.68	
2025-01-12 09:42:41.93	35.65	20.65	
2025-01-12 09:42:42.97	35.35	20.61	
2025-01-12 09:42:44.01	35.05	20.58	
2025-01-12 09:42:45.04	34.75	20.54	
2025-01-12 09:42:46.06	34.45	20.51	
2025-01-12 09:42:47.10	34.15	20.47	
2025-01-12 09:42:48.13	33.86	20.44	
2025-01-12 09:42:49.15	33.57	20.40	
2025-01-12 09:42:50.18	33.27	20.36	
2025-01-12 09:42:51.22	32.98	20.32	
2025-01-12 09:42:52.25	32.68	20.28	
2025-01-12 09:42:53.28	32.39	20.24	
2025-01-12 09:42:54.31	32.10	20.20	
2025-01-12 09:42:55.35	31.81	20.16	
2025-01-12 09:42:56.39	31.52	20.11	
2025-01-12 09:42:57.44	31.22	20.07	
2025-01-12 09:42:58.46	30.94	20.03	
2025-01-12 09:42:59.49	30.65	19.98	
2025-01-12 09:43:00.51	30.37	19.94	
2025-01-12 09:43:01.54	30.08	19.89	
2025-01-12 09:43:02.57	29.80	19.85	
2025-01-12 09:43:03.59	29.52	19.80	
2025-01-12 09:43:04.61	29.24	19.75	
2025-01-12 09:43:05.64	28.96	19.71	
2025-01-12 09:43:06.67	28.68	19.66	
2025-01-12 09:43:07.69	28.40	19.61	
2025-01-12 09:43:08.72	28.12	19.56	
2025-01-12 09:43:09.74	27.85	19.51	
2025-01-12 09:43:10.77	27.57	19.46	
2025-01-12 09:43:11.79	27.30	19.41	
2025-01-12 09:43:12.82	27.03	19.35	
2025-01-12 09:43:13.84	26.76	19.30	
2025-01-12 09:43:14.87	26.48	19.25	
2025-01-12 09:43:15.89	26.22	19.20	
2025-01-12 09:43:16.93	25.94	19.14	
2025-01-12 09:43:17.96	25.67	19.09	
2025-01-12 09:43:18.99	25.40	19.03	
2025-01-12 09:43:20.01	25.14	18.98	
2025-01-12 09:43:21.05	24.87	18.92	
2025-01-12 09:43:22.07	24.61	18.87	
2025-01-12 09:43:23.10	24.35	18.81	
2025-01-12 09:43:24.13	24.08	18.75	
2025-01-12 09:43:25.15	23.82	18.69	
2025-01-12 09:43:26.18	23.56	18.64	
2025-01-12 09:43:27.22	23.30	18.58	
2025-01-12 09:43:28.24	23.04	18.52	
2025-01-12 09:43:29.28	22.78	18.46	
2025-01-12 09:43:30.30	22.53	18.40	
2025-01-12 09:43:31.33	22.27	18.34	
2025-01-12 09:43:32.37	22.02	18.28	
2025-01-12 09:43:33.39	21.77	18.22	
2025-01-12 09:43:34.42	21.51	18.15	
2025-01-12 09:43:35.45	21.26	18.09	
2025-01-12 09:43:36.48	21.01	18.03	
2025-01-12 09:43:37.50	20.77	17.97	
2025-01-12 09:43:38.54	20.52	17.90	
2025-01-12 09:43:39.57	20.27	17.84	
2025-01-12 09:43:40.59	20.03	17.78	
2025-01-12 09:43:41.62	19.78	17.71	
2025-01-12 09:43:42.65	19.54	17.65	
2025-01-12 09:43:43.68	19.30	17.59	
2025-01-12 09:43:44.71	19.05	17.52	
2025-01-12 09:43:45.73	18.82	17.46	
2025-01-12 09:43:46.75	18.58	17.39	
2025-01-12 09:43:47.78	18.34	17.32	
2025-01-12 09:43:48.81	18.11	17.26	
2025-01-12 09:43:49.83	17.87	17.19	
2025-01-12 09:43:50.85	17.64	17.13	
2025-01-12 09:43:51.88	17.41	17.06	
2025-01-12 09:43:52.91	17.17	16.99	
2025-01-12 09:43:53.95	16.94	16.92	
2025-01-12 09:43:54.97	16.71	16.86	
2025-01-12 09:43:56.00	16.48	16.79	
2025-01-12 09:43:57.03	16.26	16.72	
2025-01-12 09:43:58.05	16.03	16.65	
2025-01-12 09:43:59.08	15.81	16.58	
2025-01-12 09:44:00.12	15.58	16.52	
2025-01-12 09:44:01.15	15.36	16.45	
2025-01-12 09:44:02.17	15.14	16.38	
2025-01-12 09:44:03.20	14.92	16.31	
2025-01-12 09:44:04.24	14.69	16.24	
2025-01-12 09:44:05.26	14.48	16.17	
2025-01-12 09:44:06.29	14.26	16.10	
2025-01-12 09:44:07.33	14.04	16.03	
2025-01-12 09:44:08.36	13.82	15.96	
2025-01-12 09:44:09.39	13.61	15.89	
2025-01-12 09:44:10.41	13.40	15.82	
2025-01-12 09:44:11.44	13.19	15.75	
2025-01-12 09:44:12.47	12.97	15.67	
2025-01-12 09:44:13.49	12.77	15.60	
2025-01-12 09:44:14.52	12.56	15.53	
2025-01-12 09:44:15.54	12.35	15.46	
2025-01-12 09:44:16.57	12.14	15.39	
2025-01-12 09:44:17.60	11.94	15.32	
2025-01-12 09:44:18.62	11.74	15.25	
2025-01-12 09:44:19.64	11.53	15.18	
2025-01-12 09:44:20.67	11.33	15.10	
2025-01-12 09:44:21.70	11.13	15.03	
2025-01-12 09:44:22.73	10.93	14.96	
2025-01-12 09:44:23.75	10.73	14.89	
2025-01-12 09:44:24.78	10.53	14.82	
2025-01-12 09:44:25.80	10.34	14.74	
2025-01-12 09:44:26.82	10.14	14.67	
2025-01-12 09:44:27.85	9.95	14.60	
2025-01-12 09:44:28.89	9.75	14.53	
2025-01-12 09:44:29.92	9.56	14.45	
2025-01-12 09:44:30.94	9.37	14.38	
2025-01-12 09:44:31.97	9.17	14.31	
2025-01-12 09:44:32.99	8.99	14.24	
2025-01-12 09:44:34.02	8.80	14.16	
2025-01-12 09:44:35.06	8.61	14.09	
2025-01-12 09:44:36.08	8.42	14.02	
2025-01-12 09:44:37.11	8.24	13.94	
2025-01-12 09:44:38.14	8.05	13.87	
2025-01-12 09:44:39.16	7.87	13.80	
2025-01-12 09:44:40.19	7.68	13.72	
2025-01-12 09:44:41.22	7.50	13.65	
2025-01-12 09:44:42.26	7.32	13.58	
2025-01-12 09:44:43.28	7.14	13.50	
2025-01-12 09:44:44.31	6.96	13.43	
2025-01-12 09:44:45.35	6.78	13.36	
2025-01-12 09:44:46.37	6.60	13.28	
2025-01-12 09:44:47.40	6.43	13.21	
2025-01-12 09:44:48.42	6.25	13.14	
2025-01-12 09:44:49.45	6.08	13.06	
2025-01-12 09:44:50.48	5.91	12.99	
2025-01-12 09:44:51.50	5.74	12.92	
2025-01-12 09:44:52.53	5.56	12.84	
2025-01-12 09:44:53.56	5.39	12.77	
2025-01-12 09:44:54.58	5.22	12.70	
2025-01-12 09:44:55.61	5.06	12.62	
2025-01-12 09:44:56.63	4.89	12.55	
2025-01-12 09:44:57.66	4.72	12.48	
2025-01-12 09:44:58.69	4.56	12.40	
2025-01-12 09:44:59.71	4.39	12.33	
2025-01-12 09:45:00.74	4.23	12.26	
2025-01-12 09:45:01.77	4.06	12.18	
2025-01-12 09:45:02.79	3.90	12.11	
2025-01-12 09:45:03.83	3.74	12.04	
2025-01-12 09:45:04.86	3.58	11.96	
2025-01-12 09:45:05.88	3.42	11.89	
2025-01-12 09:45:06.91	3.26	11.82	
2025-01-12 09:45:07.93	3.10	11.74	
2025-01-12 09:45:08.96	2.95	11.67	
2025-01-12 09:45:09.98	2.79	11.60	
2025-01-12 09:45:11.01	2.64	11.53	
2025-01-12 09:45:12.04	2.48	11.45	
2025-01-12 09:45:13.06	2.33	11.38	
2025-01-12 09:45:14.09	2.17	11.31	
2025-01-12 09:45:15.11	2.02	11.24	
2025-01-12 09:45:16.14	1.87	11.16	
2025-01-12 09:45:17.17	1.72	11.09	
2025-01-12 09:45:18.21	1.57	11.02	
2025-01-12 09:45:19.23	1.42	10.94	
2025-01-12 09:45:20.26	1.27	10.87	
2025-01-12 09:45:21.28	1.13	10.80	
2025-01-12 09:45:22.31	0.98	10.73	
2025-01-12 09:45:23.33	0.84	10.66	
2025-01-12 09:45:24.36	0.69	10.58	
2025-01-12 09:45:25.38	0.55	10.51	
2025-01-12 09:45:26.41	0.41	10.44	
2025-01-12 09:45:27.43	0.26	10.37	
2025-01-12 09:45:28.46	0.12	10.30	
2025-01-12 09:45:29.50	359.98	10.22	
2025-01-12 09:45:30.53	359.84	10.15	
2025-01-12 09:45:31.56	359.70	10.08	
2025-01-12 09:45:32.58	359.56	10.01	
2025-01-12 09:45:33.61	359.42	9.94	
2025-01-12 09:45:34.63	359.29	9.87	
2025-01-12 09:45:35.66	359.15	9.79	
2025-01-12 09:45:36.68	359.02	9.72	
2025-01-12 09:45:37.71	358.88	9.65	
2025-01-12 09:45:38.73	358.75	9.58	
2025-01-12 09:45:39.76	358.61	9.51	
2025-01-12 09:45:40.80	358.48	9.44	
2025-01-12 09:45:41.82	358.35	9.37	
2025-01-12 09:45:42.85	358.22	9.30	
2025-01-12 09:45:43.88	358.09	9.23	
2025-01-12 09:45:44.91	357.96	9.16	
2025-01-12 09:45:45.95	357.83	9.08	
2025-01-12 09:45:46.97	357.70	9.01	
2025-01-12 09:45:48.00	357.57	8.94	
2025-01-12 09:45:49.02	357.44	8.87	
2025-01-12 09:45:50.05	357.32	8.80	
2025-01-12 09:45:51.08	357.19	8.73	
2025-01-12 09:45:52.10	357.07	8.66	
2025-01-12 09:45:53.13	356.94	8.59	
2025-01-12 09:45:54.15	356.82	8.52	
2025-01-12 09:45:55.18	356.70	8.45	
2025-01-12 09:45:56.20	356.57	8.39	
2025-01-12 09:45:57.23	356.45	8.32	
2025-01-12 09:45:58.25	356.33	8.25	
2025-01-12 09:45:59.28	356.21	8.18	
2025-01-12 09:46:00.31	356.09	8.11	
2025-01-12 09:46:01.33	355.97	8.04	
2025-01-12 09:46:02.35	355.85	7.97	
2025-01-12 09:46:03.38	355.74	7.90	
2025-01-12 09:46:04.42	355.62	7.83	
2025-01-12 09:46:05.46	355.50	7.76	
2025-01-12 09:46:06.49	355.38	7.69	
2025-01-12 09:46:07.51	355.27	7.63	
2025-01-12 09:46:08.54	355.15	7.56	
2025-01-12 09:46:09.56	355.04	7.49	
2025-01-12 09:46:10.59	354.93	7.42	
2025-01-12 09:46:11.61	354.81	7.35	
2025-01-12 09:46:12.64	354.70	7.28	
2025-01-12 09:46:13.66	354.59	7.22	
2025-01-12 09:46:14.69	354.48	7.15	
2025-01-12 09:46:15.72	354.37	7.08	
2025-01-12 09:46:16.75	354.26	7.01	
2025-01-12 09:46:17.77	354.15	6.95	
2025-01-12 09:46:18.81	354.04	6.88	
2025-01-12 09:46:19.83	353.93	6.81	
2025-01-12 09:46:20.86	353.82	6.74	
2025-01-12 09:46:21.89	353.71	6.68	
2025-01-12 09:46:22.91	353.61	6.61	
2025-01-12 09:46:23.94	353.50	6.54	
2025-01-12 09:46:24.97	353.40	6.48	
2025-01-12 09:46:26.00	353.29	6.41	
2025-01-12 09:46:27.02	353.19	6.34	
2025-01-12 09:46:28.05	353.08	6.28	
2025-01-12 09:46:29.09	352.98	6.21	
2025-01-12 09:46:30.11	352.87	6.14	
2025-01-12 09:46:31.15	352.77	6.08	
2025-01-12 09:46:32.18	352.67	6.01	
2025-01-12 09:46:33.20	352.57	5.94	
2025-01-12 09:46:34.23	352.47	5.88	
2025-01-12 09:46:35.27	352.37	5.81	
2025-01-12 09:46:36.29	352.27	5.75	
2025-01-12 09:46:37.33	352.17	5.68	
2025-01-12 09:46:38.36	352.07	5.61	
2025-01-12 09:46:39.39	351.97	5.55	
2025-01-12 09:46:40.42	351.87	5.48	
2025-01-12 09:46:41.45	351.77	5.42	
2025-01-12 09:46:42.47	351.68	5.35	
2025-01-12 09:46:43.51	351.58	5.29	
2025-01-12 09:46:44.54	351.48	5.22	
2025-01-12 09:46:45.56	351.39	5.16	
2025-01-12 09:46:46.59	351.29	5.09	
2025-01-12 09:46:47.61	351.20	5.03	
2025-01-12 09:46:48.64	351.10	4.96	
2025-01-12 09:46:49.67	351.01	4.90	
2025-01-12 09:46:50.69	350.92	4.84	
2025-01-12 09:46:51.73	350.82	4.77	
2025-01-12 09:46:52.76	350.73	4.71	
2025-01-12 09:46:53.78	350.64	4.64	
2025-01-12 09:46:54.81	350.55	4.58	
2025-01-12 09:46:55.83	350.46	4.52	
2025-01-12 09:46:56.86	350.37	4.45	
2025-01-12 09:46:57.89	350.28	4.39	
2025-01-12 09:46:58.92	350.19	4.33	
2025-01-12 09:46:59.94	350.10	4.26	
2025-01-12 09:47:00.98	350.01	4.20	
2025-01-12 09:47:02.01	349.92	4.14	
2025-01-12 09:47:03.03	349.83	4.07	
2025-01-12 09:47:04.05	349.75	4.01	

#Closed at: 2025-01-12 09:47:04