passes_logs/2025/01/12/SPB_Silybum_02/SPB_Silybum_02__20250112_074424_SUOMI_NPP_rec.log

#Pass ID: 20250112_074424_SUOMI NPP
#Satellite: SUOMI NPP
#Configuration: NPP
#Start time: 2025-01-12 07:50:19

#Version: 2.0.20230423
#Station: SPB_Silybum_02
#Location: 30.233357 lon 59.946436 lat
#TLE: 1 37849U 11061A   25011.81852258  .00000147  00000+0  90749-4 0  9992
#TLE: 2 37849  98.7442 312.8475 0001799  45.9067 314.2257 14.19536766684464

#Time	Az	El	Level	Level2	SNR	BER	Gain	Gain2
2025-01-12 07:50:21.43	25.14	15.95	
2025-01-12 07:50:22.04	25.01	15.94	
2025-01-12 07:50:22.66	24.88	15.93	
2025-01-12 07:50:23.27	24.75	15.91	
2025-01-12 07:50:23.89	24.61	15.90	
2025-01-12 07:50:24.50	24.48	15.89	
2025-01-12 07:50:25.12	24.35	15.87	
2025-01-12 07:50:25.73	24.22	15.86	
2025-01-12 07:50:26.34	24.09	15.84	
2025-01-12 07:50:26.96	23.96	15.83	
2025-01-12 07:50:27.57	23.83	15.82	
2025-01-12 07:50:28.19	23.70	15.80	
2025-01-12 07:50:28.80	23.57	15.79	
2025-01-12 07:50:29.42	23.44	15.77	
2025-01-12 07:50:30.03	23.31	15.76	
2025-01-12 07:50:30.65	23.18	15.74	
2025-01-12 07:50:31.26	23.05	15.73	
2025-01-12 07:50:31.88	22.92	15.71	
2025-01-12 07:50:32.49	22.79	15.70	
2025-01-12 07:50:33.11	22.66	15.68	
2025-01-12 07:50:33.73	22.53	15.67	
2025-01-12 07:50:34.35	22.40	15.65	
2025-01-12 07:50:34.96	22.27	15.63	
2025-01-12 07:50:35.57	22.14	15.62	
2025-01-12 07:50:36.19	22.01	15.60	
2025-01-12 07:50:36.81	21.88	15.58	
2025-01-12 07:50:37.43	21.75	15.57	
2025-01-12 07:50:38.04	21.62	15.55	
2025-01-12 07:50:38.65	21.50	15.53	
2025-01-12 07:50:39.27	21.37	15.52	
2025-01-12 07:50:39.88	21.24	15.50	
2025-01-12 07:50:40.50	21.11	15.48	
2025-01-12 07:50:41.13	20.98	15.47	
2025-01-12 07:50:41.74	20.86	15.45	
2025-01-12 07:50:42.36	20.73	15.43	
2025-01-12 07:50:42.97	20.60	15.41	
2025-01-12 07:50:43.58	20.47	15.40	
2025-01-12 07:50:44.20	20.35	15.38	
2025-01-12 07:50:44.82	20.22	15.36	
2025-01-12 07:50:45.43	20.09	15.34	
2025-01-12 07:50:46.04	19.97	15.32	
2025-01-12 07:50:46.66	19.84	15.30	
2025-01-12 07:50:47.28	19.71	15.29	
2025-01-12 07:50:47.90	19.59	15.27	
2025-01-12 07:50:48.51	19.46	15.25	
2025-01-12 07:50:49.12	19.34	15.23	
2025-01-12 07:50:49.74	19.21	15.21	
2025-01-12 07:50:50.36	19.08	15.19	
2025-01-12 07:50:50.97	18.96	15.17	
2025-01-12 07:50:51.59	18.83	15.15	
2025-01-12 07:50:52.20	18.71	15.13	
2025-01-12 07:50:52.82	18.59	15.11	
2025-01-12 07:50:53.44	18.46	15.09	
2025-01-12 07:50:54.05	18.34	15.07	
2025-01-12 07:50:54.67	18.21	15.05	
2025-01-12 07:50:55.30	18.08	15.03	
2025-01-12 07:50:55.91	17.96	15.01	
2025-01-12 07:50:56.53	17.84	14.99	
2025-01-12 07:50:57.15	17.71	14.97	
2025-01-12 07:50:57.76	17.59	14.95	
2025-01-12 07:50:58.38	17.47	14.93	
2025-01-12 07:50:58.99	17.34	14.91	
2025-01-12 07:50:59.61	17.22	14.89	
2025-01-12 07:51:00.23	17.10	14.87	
2025-01-12 07:51:00.85	16.97	14.84	
2025-01-12 07:51:01.47	16.85	14.82	
2025-01-12 07:51:02.09	16.73	14.80	
2025-01-12 07:51:02.70	16.61	14.78	
2025-01-12 07:51:03.32	16.48	14.76	
2025-01-12 07:51:03.93	16.36	14.74	
2025-01-12 07:51:04.56	16.24	14.71	
2025-01-12 07:51:05.17	16.12	14.69	
2025-01-12 07:51:05.79	16.00	14.67	
2025-01-12 07:51:06.40	15.88	14.65	
2025-01-12 07:51:07.02	15.76	14.63	
2025-01-12 07:51:07.64	15.63	14.60	
2025-01-12 07:51:08.25	15.52	14.58	
2025-01-12 07:51:08.87	15.39	14.56	
2025-01-12 07:51:09.48	15.28	14.54	
2025-01-12 07:51:10.10	15.16	14.51	
2025-01-12 07:51:10.72	15.03	14.49	
2025-01-12 07:51:11.33	14.92	14.47	
2025-01-12 07:51:11.95	14.80	14.44	
2025-01-12 07:51:12.56	14.68	14.42	
2025-01-12 07:51:13.19	14.56	14.40	
2025-01-12 07:51:13.81	14.44	14.37	
2025-01-12 07:51:14.42	14.32	14.35	
2025-01-12 07:51:15.04	14.20	14.33	
2025-01-12 07:51:15.65	14.08	14.30	
2025-01-12 07:51:16.28	13.96	14.28	
2025-01-12 07:51:16.90	13.85	14.25	
2025-01-12 07:51:17.53	13.73	14.23	
2025-01-12 07:51:18.15	13.61	14.20	
2025-01-12 07:51:18.78	13.49	14.18	
2025-01-12 07:51:19.39	13.37	14.16	
2025-01-12 07:51:20.01	13.25	14.13	
2025-01-12 07:51:20.64	13.13	14.11	
2025-01-12 07:51:21.25	13.02	14.08	
2025-01-12 07:51:21.87	12.90	14.06	
2025-01-12 07:51:22.49	12.79	14.03	
2025-01-12 07:51:23.10	12.67	14.01	
2025-01-12 07:51:23.73	12.55	13.98	
2025-01-12 07:51:24.34	12.44	13.96	
2025-01-12 07:51:24.96	12.32	13.93	
2025-01-12 07:51:25.58	12.21	13.91	
2025-01-12 07:51:26.19	12.09	13.88	
2025-01-12 07:51:26.80	11.98	13.85	
2025-01-12 07:51:27.42	11.87	13.83	
2025-01-12 07:51:28.03	11.75	13.80	
2025-01-12 07:51:28.65	11.64	13.78	
2025-01-12 07:51:29.26	11.53	13.75	
2025-01-12 07:51:29.87	11.41	13.73	
2025-01-12 07:51:30.49	11.30	13.70	
2025-01-12 07:51:31.10	11.19	13.67	
2025-01-12 07:51:31.72	11.07	13.65	
2025-01-12 07:51:32.33	10.96	13.62	
2025-01-12 07:51:32.94	10.85	13.60	
2025-01-12 07:51:33.56	10.74	13.57	
2025-01-12 07:51:34.18	10.62	13.54	
2025-01-12 07:51:34.79	10.51	13.52	
2025-01-12 07:51:35.40	10.40	13.49	
2025-01-12 07:51:36.02	10.29	13.46	
2025-01-12 07:51:36.64	10.18	13.44	
2025-01-12 07:51:37.26	10.07	13.41	
2025-01-12 07:51:37.87	9.96	13.38	
2025-01-12 07:51:38.49	9.85	13.36	
2025-01-12 07:51:39.10	9.74	13.33	
2025-01-12 07:51:39.73	9.62	13.30	
2025-01-12 07:51:40.35	9.51	13.27	
2025-01-12 07:51:40.96	9.40	13.25	
2025-01-12 07:51:41.58	9.29	13.22	
2025-01-12 07:51:42.21	9.18	13.19	
2025-01-12 07:51:42.84	9.07	13.16	
2025-01-12 07:51:43.46	8.96	13.13	
2025-01-12 07:51:44.07	8.85	13.11	
2025-01-12 07:51:44.69	8.74	13.08	
2025-01-12 07:51:45.30	8.64	13.05	
2025-01-12 07:51:45.91	8.53	13.02	
2025-01-12 07:51:46.53	8.42	13.00	
2025-01-12 07:51:47.14	8.31	12.97	
2025-01-12 07:51:47.76	8.21	12.94	
2025-01-12 07:51:48.37	8.10	12.91	
2025-01-12 07:51:48.99	7.99	12.88	
2025-01-12 07:51:49.60	7.89	12.86	
2025-01-12 07:51:50.22	7.78	12.83	
2025-01-12 07:51:50.83	7.67	12.80	
2025-01-12 07:51:51.45	7.57	12.77	
2025-01-12 07:51:52.06	7.46	12.74	
2025-01-12 07:51:52.69	7.35	12.71	
2025-01-12 07:51:53.30	7.25	12.68	
2025-01-12 07:51:53.93	7.14	12.66	
2025-01-12 07:51:54.55	7.03	12.63	
2025-01-12 07:51:55.18	6.93	12.60	
2025-01-12 07:51:55.79	6.82	12.57	
2025-01-12 07:51:56.41	6.72	12.54	
2025-01-12 07:51:57.02	6.61	12.51	
2025-01-12 07:51:57.64	6.51	12.48	
2025-01-12 07:51:58.25	6.41	12.45	
2025-01-12 07:51:58.87	6.30	12.42	
2025-01-12 07:51:59.48	6.20	12.39	
2025-01-12 07:52:00.10	6.10	12.36	
2025-01-12 07:52:00.71	5.99	12.33	
2025-01-12 07:52:01.33	5.89	12.31	
2025-01-12 07:52:01.95	5.79	12.28	
2025-01-12 07:52:02.56	5.68	12.25	
2025-01-12 07:52:03.17	5.58	12.22	
2025-01-12 07:52:03.79	5.48	12.19	
2025-01-12 07:52:04.42	5.38	12.16	
2025-01-12 07:52:05.04	5.27	12.13	
2025-01-12 07:52:05.67	5.17	12.10	
2025-01-12 07:52:06.28	5.07	12.07	
2025-01-12 07:52:06.90	4.97	12.04	
2025-01-12 07:52:07.51	4.87	12.01	
2025-01-12 07:52:08.13	4.77	11.98	
2025-01-12 07:52:08.74	4.67	11.95	
2025-01-12 07:52:09.36	4.57	11.92	
2025-01-12 07:52:09.97	4.47	11.89	
2025-01-12 07:52:10.58	4.37	11.86	
2025-01-12 07:52:11.20	4.27	11.83	
2025-01-12 07:52:11.81	4.17	11.80	
2025-01-12 07:52:12.43	4.07	11.77	
2025-01-12 07:52:13.05	3.97	11.73	
2025-01-12 07:52:13.66	3.87	11.70	
2025-01-12 07:52:14.28	3.77	11.67	
2025-01-12 07:52:14.89	3.68	11.64	
2025-01-12 07:52:15.51	3.58	11.61	
2025-01-12 07:52:16.12	3.48	11.58	
2025-01-12 07:52:16.74	3.38	11.55	
2025-01-12 07:52:17.37	3.28	11.52	
2025-01-12 07:52:17.99	3.19	11.49	
2025-01-12 07:52:18.60	3.09	11.46	
2025-01-12 07:52:19.22	2.99	11.43	
2025-01-12 07:52:19.84	2.89	11.40	
2025-01-12 07:52:20.46	2.80	11.37	
2025-01-12 07:52:21.08	2.70	11.33	
2025-01-12 07:52:21.69	2.61	11.30	
2025-01-12 07:52:22.30	2.51	11.27	
2025-01-12 07:52:22.92	2.41	11.24	
2025-01-12 07:52:23.53	2.32	11.21	
2025-01-12 07:52:24.14	2.23	11.18	
2025-01-12 07:52:24.76	2.13	11.15	
2025-01-12 07:52:25.38	2.04	11.12	
2025-01-12 07:52:25.99	1.94	11.09	
2025-01-12 07:52:26.61	1.85	11.05	
2025-01-12 07:52:27.22	1.75	11.02	
2025-01-12 07:52:27.84	1.66	10.99	
2025-01-12 07:52:28.45	1.57	10.96	
2025-01-12 07:52:29.07	1.47	10.93	
2025-01-12 07:52:29.68	1.38	10.90	
2025-01-12 07:52:30.30	1.29	10.87	
2025-01-12 07:52:30.93	1.19	10.83	
2025-01-12 07:52:31.54	1.10	10.80	
2025-01-12 07:52:32.16	1.01	10.77	
2025-01-12 07:52:32.77	0.91	10.74	
2025-01-12 07:52:33.39	0.82	10.71	
2025-01-12 07:52:34.01	0.73	10.68	
2025-01-12 07:52:34.62	0.64	10.64	
2025-01-12 07:52:35.24	0.55	10.61	
2025-01-12 07:52:35.85	0.46	10.58	
2025-01-12 07:52:36.47	0.36	10.55	
2025-01-12 07:52:37.08	0.27	10.52	
2025-01-12 07:52:37.70	0.18	10.48	
2025-01-12 07:52:38.33	0.09	10.45	
2025-01-12 07:52:38.94	0.00	10.42	
2025-01-12 07:52:39.56	359.91	10.39	
2025-01-12 07:52:40.17	359.82	10.36	
2025-01-12 07:52:40.79	359.73	10.32	
2025-01-12 07:52:41.41	359.64	10.29	
2025-01-12 07:52:42.02	359.55	10.26	
2025-01-12 07:52:42.63	359.46	10.23	
2025-01-12 07:52:43.25	359.38	10.20	
2025-01-12 07:52:43.86	359.29	10.16	
2025-01-12 07:52:44.48	359.20	10.13	
2025-01-12 07:52:45.10	359.11	10.10	
2025-01-12 07:52:45.71	359.02	10.07	
2025-01-12 07:52:46.33	358.93	10.04	
2025-01-12 07:52:46.94	358.85	10.00	
2025-01-12 07:52:47.56	358.76	9.97	
2025-01-12 07:52:48.17	358.67	9.94	
2025-01-12 07:52:48.79	358.58	9.91	
2025-01-12 07:52:49.40	358.50	9.87	
2025-01-12 07:52:50.01	358.41	9.84	
2025-01-12 07:52:50.63	358.33	9.81	
2025-01-12 07:52:51.24	358.24	9.78	
2025-01-12 07:52:51.86	358.15	9.74	
2025-01-12 07:52:52.48	358.07	9.71	
2025-01-12 07:52:53.09	357.98	9.68	
2025-01-12 07:52:53.71	357.90	9.65	
2025-01-12 07:52:54.34	357.81	9.61	
2025-01-12 07:52:54.95	357.72	9.58	
2025-01-12 07:52:55.57	357.64	9.55	
2025-01-12 07:52:56.19	357.55	9.52	
2025-01-12 07:52:56.82	357.47	9.48	
2025-01-12 07:52:57.43	357.38	9.45	
2025-01-12 07:52:58.05	357.30	9.42	
2025-01-12 07:52:58.67	357.22	9.38	
2025-01-12 07:52:59.28	357.13	9.35	
2025-01-12 07:52:59.90	357.05	9.32	
2025-01-12 07:53:00.51	356.97	9.29	
2025-01-12 07:53:01.13	356.88	9.25	
2025-01-12 07:53:01.75	356.80	9.22	
2025-01-12 07:53:02.36	356.72	9.19	
2025-01-12 07:53:02.99	356.63	9.16	
2025-01-12 07:53:03.61	356.55	9.12	
2025-01-12 07:53:04.22	356.47	9.09	
2025-01-12 07:53:04.84	356.38	9.06	
2025-01-12 07:53:05.47	356.30	9.02	
2025-01-12 07:53:06.10	356.22	8.99	
2025-01-12 07:53:06.71	356.14	8.96	
2025-01-12 07:53:07.33	356.06	8.92	
2025-01-12 07:53:07.94	355.97	8.89	
2025-01-12 07:53:08.56	355.89	8.86	
2025-01-12 07:53:09.18	355.81	8.83	
2025-01-12 07:53:09.79	355.73	8.79	
2025-01-12 07:53:10.41	355.65	8.76	
2025-01-12 07:53:11.02	355.57	8.73	
2025-01-12 07:53:11.65	355.49	8.69	
2025-01-12 07:53:12.26	355.41	8.66	
2025-01-12 07:53:12.87	355.33	8.63	
2025-01-12 07:53:13.49	355.25	8.59	
2025-01-12 07:53:14.11	355.17	8.56	
2025-01-12 07:53:14.72	355.09	8.53	
2025-01-12 07:53:15.34	355.02	8.50	
2025-01-12 07:53:15.95	354.94	8.46	
2025-01-12 07:53:16.57	354.86	8.43	
2025-01-12 07:53:17.18	354.78	8.40	
2025-01-12 07:53:17.80	354.70	8.36	
2025-01-12 07:53:18.41	354.63	8.33	
2025-01-12 07:53:19.03	354.55	8.30	
2025-01-12 07:53:19.64	354.47	8.27	
2025-01-12 07:53:20.26	354.39	8.23	
2025-01-12 07:53:20.87	354.32	8.20	
2025-01-12 07:53:21.50	354.24	8.17	
2025-01-12 07:53:22.12	354.16	8.13	
2025-01-12 07:53:22.73	354.08	8.10	
2025-01-12 07:53:23.35	354.01	8.07	
2025-01-12 07:53:23.96	353.93	8.03	
2025-01-12 07:53:24.58	353.85	8.00	
2025-01-12 07:53:25.19	353.78	7.97	
2025-01-12 07:53:25.81	353.70	7.93	
2025-01-12 07:53:26.42	353.63	7.90	
2025-01-12 07:53:27.04	353.55	7.87	
2025-01-12 07:53:27.66	353.48	7.83	
2025-01-12 07:53:28.28	353.40	7.80	
2025-01-12 07:53:28.89	353.33	7.77	
2025-01-12 07:53:29.51	353.25	7.73	
2025-01-12 07:53:30.12	353.18	7.70	
2025-01-12 07:53:30.74	353.10	7.67	
2025-01-12 07:53:31.35	353.03	7.64	
2025-01-12 07:53:31.98	352.95	7.60	
2025-01-12 07:53:32.60	352.88	7.57	
2025-01-12 07:53:33.21	352.81	7.54	
2025-01-12 07:53:33.83	352.73	7.50	
2025-01-12 07:53:34.44	352.66	7.47	
2025-01-12 07:53:35.07	352.58	7.44	
2025-01-12 07:53:35.69	352.51	7.40	
2025-01-12 07:53:36.30	352.44	7.37	
2025-01-12 07:53:36.93	352.37	7.34	
2025-01-12 07:53:37.54	352.29	7.30	
2025-01-12 07:53:38.16	352.22	7.27	
2025-01-12 07:53:38.78	352.15	7.24	
2025-01-12 07:53:39.39	352.08	7.20	
2025-01-12 07:53:40.01	352.00	7.17	
2025-01-12 07:53:40.64	351.93	7.14	
2025-01-12 07:53:41.25	351.86	7.10	
2025-01-12 07:53:41.87	351.79	7.07	
2025-01-12 07:53:42.48	351.72	7.04	
2025-01-12 07:53:43.10	351.65	7.00	
2025-01-12 07:53:43.73	351.57	6.97	
2025-01-12 07:53:44.36	351.50	6.94	
2025-01-12 07:53:44.97	351.43	6.90	
2025-01-12 07:53:45.58	351.36	6.87	
2025-01-12 07:53:46.20	351.29	6.84	
2025-01-12 07:53:46.82	351.22	6.80	
2025-01-12 07:53:47.43	351.15	6.77	
2025-01-12 07:53:48.05	351.08	6.74	
2025-01-12 07:53:48.66	351.01	6.70	
2025-01-12 07:53:49.28	350.94	6.67	
2025-01-12 07:53:49.89	350.88	6.64	
2025-01-12 07:53:50.50	350.81	6.61	
2025-01-12 07:53:51.11	350.74	6.57	
2025-01-12 07:53:51.73	350.67	6.54	
2025-01-12 07:53:52.35	350.60	6.51	
2025-01-12 07:53:52.96	350.53	6.47	
2025-01-12 07:53:53.58	350.46	6.44	
2025-01-12 07:53:54.19	350.40	6.41	
2025-01-12 07:53:54.81	350.33	6.37	
2025-01-12 07:53:55.42	350.26	6.34	
2025-01-12 07:53:56.04	350.19	6.31	
2025-01-12 07:53:56.65	350.13	6.27	
2025-01-12 07:53:57.27	350.06	6.24	
2025-01-12 07:53:57.89	349.99	6.21	
2025-01-12 07:53:58.51	349.92	6.17	
2025-01-12 07:53:59.13	349.86	6.14	
2025-01-12 07:53:59.75	349.79	6.11	
2025-01-12 07:54:00.37	349.72	6.07	
2025-01-12 07:54:00.99	349.66	6.04	
2025-01-12 07:54:01.60	349.59	6.01	
2025-01-12 07:54:02.22	349.53	5.98	
2025-01-12 07:54:02.85	349.46	5.94	
2025-01-12 07:54:03.46	349.39	5.91	
2025-01-12 07:54:04.08	349.33	5.88	
2025-01-12 07:54:04.69	349.26	5.84	
2025-01-12 07:54:05.31	349.20	5.81	
2025-01-12 07:54:05.92	349.13	5.78	
2025-01-12 07:54:06.54	349.07	5.74	
2025-01-12 07:54:07.16	349.00	5.71	
2025-01-12 07:54:07.77	348.94	5.68	
2025-01-12 07:54:08.39	348.87	5.64	
2025-01-12 07:54:09.01	348.81	5.61	
2025-01-12 07:54:09.63	348.74	5.58	
2025-01-12 07:54:10.24	348.68	5.55	
2025-01-12 07:54:10.86	348.62	5.51	
2025-01-12 07:54:11.47	348.55	5.48	
2025-01-12 07:54:12.09	348.49	5.45	
2025-01-12 07:54:12.71	348.43	5.41	
2025-01-12 07:54:13.32	348.36	5.38	
2025-01-12 07:54:13.94	348.30	5.35	
2025-01-12 07:54:14.55	348.24	5.32	
2025-01-12 07:54:15.16	348.17	5.28	
2025-01-12 07:54:15.78	348.11	5.25	
2025-01-12 07:54:16.39	348.05	5.22	
2025-01-12 07:54:17.01	347.99	5.18	
2025-01-12 07:54:17.63	347.92	5.15	
2025-01-12 07:54:18.24	347.86	5.12	
2025-01-12 07:54:18.86	347.80	5.09	
2025-01-12 07:54:19.47	347.74	5.05	
2025-01-12 07:54:20.09	347.68	5.02	
2025-01-12 07:54:20.70	347.62	4.99	
2025-01-12 07:54:21.32	347.55	4.95	
2025-01-12 07:54:21.93	347.49	4.92	
2025-01-12 07:54:22.55	347.43	4.89	
2025-01-12 07:54:23.17	347.37	4.86	
2025-01-12 07:54:23.78	347.31	4.82	
2025-01-12 07:54:24.40	347.25	4.79	
2025-01-12 07:54:25.01	347.19	4.76	
2025-01-12 07:54:25.63	347.13	4.72	
2025-01-12 07:54:26.24	347.07	4.69	
2025-01-12 07:54:26.86	347.01	4.66	
2025-01-12 07:54:27.49	346.95	4.63	
2025-01-12 07:54:28.10	346.89	4.59	
2025-01-12 07:54:28.72	346.83	4.56	
2025-01-12 07:54:29.34	346.77	4.53	
2025-01-12 07:54:29.95	346.71	4.50	
2025-01-12 07:54:30.58	346.65	4.46	
2025-01-12 07:54:31.20	346.59	4.43	
2025-01-12 07:54:31.81	346.53	4.40	
2025-01-12 07:54:32.43	346.47	4.36	
2025-01-12 07:54:33.04	346.41	4.33	
2025-01-12 07:54:33.67	346.35	4.30	
2025-01-12 07:54:34.29	346.30	4.27	
2025-01-12 07:54:34.91	346.24	4.23	
2025-01-12 07:54:35.53	346.18	4.20	
2025-01-12 07:54:36.14	346.12	4.17	
2025-01-12 07:54:36.77	346.06	4.13	
2025-01-12 07:54:37.39	346.00	4.10	
2025-01-12 07:54:38.00	345.95	4.07	
2025-01-12 07:54:38.62	345.89	4.04	
2025-01-12 07:54:39.24	345.83	4.00	

#Closed at: 2025-01-12 07:54:39