passes_logs/2025/01/12/SPB_Silybum_02/SPB_Silybum_02__20250112_124558_SUOMI_NPP_rec.log

#Pass ID: 20250112_124558_SUOMI NPP
#Satellite: SUOMI NPP
#Configuration: NPP
#Start time: 2025-01-12 12:45:58

#Version: 2.0.20230423
#Station: SPB_Silybum_02
#Location: 30.233357 lon 59.946436 lat
#TLE: 1 37849U 11061A   25011.81852258  .00000147  00000+0  90749-4 0  9992
#TLE: 2 37849  98.7442 312.8475 0001799  45.9067 314.2257 14.19536766684464

#Time	Az	El	Level	Level2	SNR	BER	Gain	Gain2
2025-01-12 12:46:00.94	239.45	4.09	
2025-01-12 12:46:01.97	239.57	4.14	
2025-01-12 12:46:02.99	239.68	4.18	
2025-01-12 12:46:04.02	239.80	4.23	
2025-01-12 12:46:05.05	239.92	4.27	
2025-01-12 12:46:06.09	240.04	4.32	
2025-01-12 12:46:07.11	240.16	4.36	
2025-01-12 12:46:08.14	240.28	4.41	
2025-01-12 12:46:09.16	240.40	4.45	
2025-01-12 12:46:10.19	240.52	4.49	
2025-01-12 12:46:11.21	240.64	4.54	
2025-01-12 12:46:12.24	240.77	4.58	
2025-01-12 12:46:13.26	240.89	4.63	
2025-01-12 12:46:14.29	241.01	4.67	
2025-01-12 12:46:15.31	241.13	4.72	
2025-01-12 12:46:16.34	241.26	4.76	
2025-01-12 12:46:17.37	241.38	4.80	
2025-01-12 12:46:18.39	241.50	4.85	
2025-01-12 12:46:19.42	241.63	4.89	
2025-01-12 12:46:20.44	241.75	4.94	
2025-01-12 12:46:21.49	241.88	4.98	
2025-01-12 12:46:22.53	242.01	5.02	
2025-01-12 12:46:23.55	242.13	5.07	
2025-01-12 12:46:24.58	242.26	5.11	
2025-01-12 12:46:25.60	242.38	5.16	
2025-01-12 12:46:26.64	242.51	5.20	
2025-01-12 12:46:27.67	242.64	5.24	
2025-01-12 12:46:28.70	242.77	5.29	
2025-01-12 12:46:29.72	242.89	5.33	
2025-01-12 12:46:30.75	243.02	5.37	
2025-01-12 12:46:31.77	243.15	5.42	
2025-01-12 12:46:32.81	243.28	5.46	
2025-01-12 12:46:33.83	243.41	5.51	
2025-01-12 12:46:34.86	243.54	5.55	
2025-01-12 12:46:35.88	243.67	5.59	
2025-01-12 12:46:36.91	243.80	5.64	
2025-01-12 12:46:37.93	243.93	5.68	
2025-01-12 12:46:38.96	244.06	5.72	
2025-01-12 12:46:39.98	244.19	5.76	
2025-01-12 12:46:41.01	244.32	5.81	
2025-01-12 12:46:42.03	244.45	5.85	
2025-01-12 12:46:43.06	244.59	5.89	
2025-01-12 12:46:44.08	244.72	5.94	
2025-01-12 12:46:45.10	244.85	5.98	
2025-01-12 12:46:46.13	244.99	6.02	
2025-01-12 12:46:47.15	245.12	6.06	
2025-01-12 12:46:48.17	245.25	6.11	
2025-01-12 12:46:49.20	245.39	6.15	
2025-01-12 12:46:50.22	245.52	6.19	
2025-01-12 12:46:51.25	245.66	6.23	
2025-01-12 12:46:52.29	245.80	6.28	
2025-01-12 12:46:53.31	245.93	6.32	
2025-01-12 12:46:54.33	246.07	6.36	
2025-01-12 12:46:55.36	246.21	6.40	
2025-01-12 12:46:56.39	246.34	6.45	
2025-01-12 12:46:57.42	246.48	6.49	
2025-01-12 12:46:58.44	246.62	6.53	
2025-01-12 12:46:59.47	246.76	6.57	
2025-01-12 12:47:00.49	246.90	6.61	
2025-01-12 12:47:01.52	247.04	6.65	
2025-01-12 12:47:02.56	247.18	6.70	
2025-01-12 12:47:03.58	247.32	6.74	
2025-01-12 12:47:04.61	247.46	6.78	
2025-01-12 12:47:05.65	247.60	6.82	
2025-01-12 12:47:06.68	247.74	6.86	
2025-01-12 12:47:07.70	247.89	6.90	
2025-01-12 12:47:08.72	248.03	6.95	
2025-01-12 12:47:09.75	248.17	6.99	
2025-01-12 12:47:10.77	248.31	7.03	
2025-01-12 12:47:11.79	248.45	7.07	
2025-01-12 12:47:12.81	248.60	7.11	
2025-01-12 12:47:13.84	248.74	7.15	
2025-01-12 12:47:14.88	248.89	7.19	
2025-01-12 12:47:15.91	249.03	7.23	
2025-01-12 12:47:16.95	249.18	7.27	
2025-01-12 12:47:17.99	249.33	7.31	
2025-01-12 12:47:19.01	249.47	7.35	
2025-01-12 12:47:20.04	249.62	7.39	
2025-01-12 12:47:21.06	249.77	7.43	
2025-01-12 12:47:22.10	249.92	7.47	
2025-01-12 12:47:23.13	250.06	7.51	
2025-01-12 12:47:24.15	250.21	7.55	
2025-01-12 12:47:25.18	250.36	7.59	
2025-01-12 12:47:26.20	250.51	7.63	
2025-01-12 12:47:27.23	250.66	7.67	
2025-01-12 12:47:28.27	250.81	7.71	
2025-01-12 12:47:29.30	250.96	7.75	
2025-01-12 12:47:30.32	251.11	7.79	
2025-01-12 12:47:31.35	251.26	7.83	
2025-01-12 12:47:32.37	251.41	7.87	
2025-01-12 12:47:33.39	251.56	7.91	
2025-01-12 12:47:34.43	251.71	7.95	
2025-01-12 12:47:35.46	251.87	7.99	
2025-01-12 12:47:36.48	252.02	8.02	
2025-01-12 12:47:37.51	252.17	8.06	
2025-01-12 12:47:38.55	252.33	8.10	
2025-01-12 12:47:39.58	252.48	8.14	
2025-01-12 12:47:40.61	252.64	8.18	
2025-01-12 12:47:41.63	252.79	8.22	
2025-01-12 12:47:42.66	252.95	8.25	
2025-01-12 12:47:43.68	253.10	8.29	
2025-01-12 12:47:44.72	253.26	8.33	
2025-01-12 12:47:45.74	253.41	8.37	
2025-01-12 12:47:46.77	253.57	8.40	
2025-01-12 12:47:47.79	253.73	8.44	
2025-01-12 12:47:48.81	253.88	8.48	
2025-01-12 12:47:49.85	254.04	8.52	
2025-01-12 12:47:50.88	254.20	8.55	
2025-01-12 12:47:51.90	254.36	8.59	
2025-01-12 12:47:52.92	254.52	8.63	
2025-01-12 12:47:53.95	254.68	8.66	
2025-01-12 12:47:54.98	254.84	8.70	
2025-01-12 12:47:56.00	255.00	8.73	
2025-01-12 12:47:57.03	255.16	8.77	
2025-01-12 12:47:58.05	255.32	8.81	
2025-01-12 12:47:59.08	255.48	8.84	
2025-01-12 12:48:00.10	255.64	8.88	
2025-01-12 12:48:01.13	255.80	8.91	
2025-01-12 12:48:02.15	255.96	8.95	
2025-01-12 12:48:03.18	256.13	8.98	
2025-01-12 12:48:04.20	256.29	9.02	
2025-01-12 12:48:05.22	256.45	9.05	
2025-01-12 12:48:06.25	256.62	9.09	
2025-01-12 12:48:07.27	256.78	9.12	
2025-01-12 12:48:08.30	256.94	9.16	
2025-01-12 12:48:09.33	257.11	9.19	
2025-01-12 12:48:10.36	257.27	9.22	
2025-01-12 12:48:11.38	257.44	9.26	
2025-01-12 12:48:12.42	257.61	9.29	
2025-01-12 12:48:13.46	257.78	9.33	
2025-01-12 12:48:14.49	257.94	9.36	
2025-01-12 12:48:15.53	258.11	9.39	
2025-01-12 12:48:16.55	258.28	9.43	
2025-01-12 12:48:17.58	258.45	9.46	
2025-01-12 12:48:18.61	258.62	9.49	
2025-01-12 12:48:19.63	258.78	9.52	
2025-01-12 12:48:20.66	258.95	9.56	
2025-01-12 12:48:21.68	259.12	9.59	
2025-01-12 12:48:22.71	259.29	9.62	
2025-01-12 12:48:23.74	259.46	9.65	
2025-01-12 12:48:24.76	259.63	9.68	
2025-01-12 12:48:25.80	259.81	9.71	
2025-01-12 12:48:26.83	259.98	9.75	
2025-01-12 12:48:27.86	260.15	9.78	
2025-01-12 12:48:28.89	260.32	9.81	
2025-01-12 12:48:29.91	260.49	9.84	
2025-01-12 12:48:30.94	260.67	9.87	
2025-01-12 12:48:31.97	260.84	9.90	
2025-01-12 12:48:33.00	261.01	9.93	
2025-01-12 12:48:34.03	261.19	9.96	
2025-01-12 12:48:35.06	261.36	9.99	
2025-01-12 12:48:36.08	261.53	10.02	
2025-01-12 12:48:37.11	261.71	10.05	
2025-01-12 12:48:38.15	261.89	10.08	
2025-01-12 12:48:39.17	262.06	10.11	
2025-01-12 12:48:40.20	262.24	10.14	
2025-01-12 12:48:41.22	262.41	10.16	
2025-01-12 12:48:42.25	262.59	10.19	
2025-01-12 12:48:43.28	262.77	10.22	
2025-01-12 12:48:44.30	262.94	10.25	
2025-01-12 12:48:45.33	263.12	10.28	
2025-01-12 12:48:46.36	263.30	10.30	
2025-01-12 12:48:47.39	263.48	10.33	
2025-01-12 12:48:48.41	263.65	10.36	
2025-01-12 12:48:49.44	263.83	10.38	
2025-01-12 12:48:50.47	264.01	10.41	
2025-01-12 12:48:51.49	264.19	10.44	
2025-01-12 12:48:52.52	264.37	10.46	
2025-01-12 12:48:53.56	264.55	10.49	
2025-01-12 12:48:54.58	264.73	10.52	
2025-01-12 12:48:55.61	264.91	10.54	
2025-01-12 12:48:56.64	265.09	10.57	
2025-01-12 12:48:57.67	265.27	10.59	
2025-01-12 12:48:58.70	265.46	10.62	
2025-01-12 12:48:59.71	265.63	10.64	
2025-01-12 12:49:00.74	265.82	10.67	
2025-01-12 12:49:01.77	266.00	10.69	
2025-01-12 12:49:02.80	266.18	10.71	
2025-01-12 12:49:03.83	266.37	10.74	
2025-01-12 12:49:04.85	266.55	10.76	
2025-01-12 12:49:05.88	266.73	10.78	
2025-01-12 12:49:06.90	266.91	10.81	
2025-01-12 12:49:07.93	267.10	10.83	
2025-01-12 12:49:08.96	267.28	10.85	
2025-01-12 12:49:09.98	267.47	10.87	
2025-01-12 12:49:11.01	267.65	10.90	
2025-01-12 12:49:12.03	267.84	10.92	
2025-01-12 12:49:13.06	268.02	10.94	
2025-01-12 12:49:14.08	268.21	10.96	
2025-01-12 12:49:15.11	268.39	10.98	
2025-01-12 12:49:16.14	268.58	11.00	
2025-01-12 12:49:17.16	268.76	11.02	
2025-01-12 12:49:18.18	268.95	11.04	
2025-01-12 12:49:19.21	269.14	11.06	
2025-01-12 12:49:20.23	269.32	11.08	
2025-01-12 12:49:21.26	269.51	11.10	
2025-01-12 12:49:22.29	269.70	11.12	
2025-01-12 12:49:23.32	269.89	11.14	
2025-01-12 12:49:24.35	270.07	11.16	
2025-01-12 12:49:25.38	270.26	11.18	
2025-01-12 12:49:26.41	270.45	11.20	
2025-01-12 12:49:27.43	270.64	11.21	
2025-01-12 12:49:28.47	270.83	11.23	
2025-01-12 12:49:29.50	271.02	11.25	
2025-01-12 12:49:30.53	271.21	11.27	
2025-01-12 12:49:31.57	271.40	11.28	
2025-01-12 12:49:32.59	271.59	11.30	
2025-01-12 12:49:33.61	271.78	11.32	
2025-01-12 12:49:34.65	271.97	11.33	
2025-01-12 12:49:35.67	272.16	11.35	
2025-01-12 12:49:36.70	272.35	11.36	
2025-01-12 12:49:37.72	272.54	11.38	
2025-01-12 12:49:38.76	272.73	11.39	
2025-01-12 12:49:39.79	272.92	11.41	
2025-01-12 12:49:40.81	273.11	11.42	
2025-01-12 12:49:41.84	273.31	11.44	
2025-01-12 12:49:42.87	273.50	11.45	
2025-01-12 12:49:43.89	273.69	11.47	
2025-01-12 12:49:44.92	273.88	11.48	
2025-01-12 12:49:45.95	274.07	11.49	
2025-01-12 12:49:46.98	274.27	11.50	
2025-01-12 12:49:48.01	274.46	11.52	
2025-01-12 12:49:49.03	274.65	11.53	
2025-01-12 12:49:50.06	274.84	11.54	
2025-01-12 12:49:51.08	275.04	11.55	
2025-01-12 12:49:52.12	275.23	11.56	
2025-01-12 12:49:53.14	275.42	11.58	
2025-01-12 12:49:54.17	275.62	11.59	
2025-01-12 12:49:55.20	275.81	11.60	
2025-01-12 12:49:56.23	276.00	11.61	
2025-01-12 12:49:57.27	276.20	11.62	
2025-01-12 12:49:58.31	276.40	11.63	
2025-01-12 12:49:59.34	276.59	11.64	
2025-01-12 12:50:00.36	276.78	11.64	
2025-01-12 12:50:01.38	276.98	11.65	
2025-01-12 12:50:02.41	277.17	11.66	
2025-01-12 12:50:03.44	277.37	11.67	
2025-01-12 12:50:04.48	277.56	11.68	
2025-01-12 12:50:05.51	277.76	11.69	
2025-01-12 12:50:06.54	277.95	11.69	
2025-01-12 12:50:07.57	278.15	11.70	
2025-01-12 12:50:08.59	278.34	11.71	
2025-01-12 12:50:09.62	278.54	11.71	
2025-01-12 12:50:10.65	278.73	11.72	
2025-01-12 12:50:11.67	278.93	11.73	
2025-01-12 12:50:12.69	279.12	11.73	
2025-01-12 12:50:13.72	279.32	11.74	
2025-01-12 12:50:14.76	279.51	11.74	
2025-01-12 12:50:15.80	279.71	11.75	
2025-01-12 12:50:16.83	279.91	11.75	
2025-01-12 12:50:17.85	280.10	11.75	
2025-01-12 12:50:18.88	280.30	11.76	
2025-01-12 12:50:19.90	280.49	11.76	
2025-01-12 12:50:20.94	280.69	11.76	
2025-01-12 12:50:21.96	280.88	11.77	
2025-01-12 12:50:22.99	281.08	11.77	
2025-01-12 12:50:24.02	281.28	11.77	
2025-01-12 12:50:25.04	281.47	11.77	
2025-01-12 12:50:26.07	281.67	11.78	
2025-01-12 12:50:27.09	281.86	11.78	
2025-01-12 12:50:28.11	282.05	11.78	
2025-01-12 12:50:29.14	282.25	11.78	
2025-01-12 12:50:30.16	282.44	11.78	
2025-01-12 12:50:31.20	282.64	11.78	
2025-01-12 12:50:32.23	282.84	11.78	
2025-01-12 12:50:33.27	283.04	11.78	
2025-01-12 12:50:34.30	283.23	11.78	
2025-01-12 12:50:35.33	283.43	11.78	
2025-01-12 12:50:36.35	283.62	11.78	
2025-01-12 12:50:37.38	283.82	11.77	
2025-01-12 12:50:38.41	284.02	11.77	
2025-01-12 12:50:39.43	284.21	11.77	
2025-01-12 12:50:40.46	284.41	11.77	
2025-01-12 12:50:41.48	284.60	11.76	
2025-01-12 12:50:42.51	284.80	11.76	
2025-01-12 12:50:43.53	284.99	11.76	
2025-01-12 12:50:44.55	285.18	11.75	
2025-01-12 12:50:45.58	285.38	11.75	
2025-01-12 12:50:46.61	285.58	11.75	
2025-01-12 12:50:47.63	285.77	11.74	
2025-01-12 12:50:48.66	285.96	11.74	
2025-01-12 12:50:49.70	286.16	11.73	
2025-01-12 12:50:50.73	286.36	11.72	
2025-01-12 12:50:51.75	286.55	11.72	
2025-01-12 12:50:52.77	286.74	11.71	
2025-01-12 12:50:53.79	286.94	11.71	
2025-01-12 12:50:54.82	287.13	11.70	
2025-01-12 12:50:55.84	287.33	11.69	
2025-01-12 12:50:56.88	287.52	11.69	
2025-01-12 12:50:57.92	287.72	11.68	
2025-01-12 12:50:58.95	287.91	11.67	
2025-01-12 12:50:59.97	288.11	11.66	
2025-01-12 12:51:00.99	288.30	11.65	
2025-01-12 12:51:02.02	288.49	11.64	
2025-01-12 12:51:03.05	288.69	11.64	
2025-01-12 12:51:04.07	288.88	11.63	
2025-01-12 12:51:05.10	289.07	11.62	
2025-01-12 12:51:06.13	289.27	11.61	
2025-01-12 12:51:07.16	289.46	11.60	
2025-01-12 12:51:08.19	289.66	11.59	
2025-01-12 12:51:09.21	289.85	11.58	
2025-01-12 12:51:10.24	290.04	11.56	
2025-01-12 12:51:11.27	290.23	11.55	
2025-01-12 12:51:12.29	290.42	11.54	
2025-01-12 12:51:13.31	290.62	11.53	
2025-01-12 12:51:14.34	290.81	11.52	
2025-01-12 12:51:15.36	291.00	11.51	
2025-01-12 12:51:16.39	291.19	11.49	
2025-01-12 12:51:17.41	291.38	11.48	
2025-01-12 12:51:18.44	291.57	11.47	
2025-01-12 12:51:19.46	291.76	11.45	
2025-01-12 12:51:20.50	291.96	11.44	
2025-01-12 12:51:21.52	292.15	11.42	
2025-01-12 12:51:22.55	292.34	11.41	
2025-01-12 12:51:23.57	292.53	11.40	
2025-01-12 12:51:24.59	292.72	11.38	
2025-01-12 12:51:25.62	292.91	11.37	
2025-01-12 12:51:26.64	293.10	11.35	
2025-01-12 12:51:27.68	293.29	11.33	
2025-01-12 12:51:28.71	293.48	11.32	
2025-01-12 12:51:29.73	293.67	11.30	
2025-01-12 12:51:30.76	293.86	11.29	
2025-01-12 12:51:31.79	294.05	11.27	
2025-01-12 12:51:32.82	294.24	11.25	
2025-01-12 12:51:33.84	294.42	11.23	
2025-01-12 12:51:34.87	294.61	11.22	
2025-01-12 12:51:35.89	294.80	11.20	
2025-01-12 12:51:36.92	294.99	11.18	
2025-01-12 12:51:37.94	295.17	11.16	
2025-01-12 12:51:38.99	295.36	11.14	
2025-01-12 12:51:40.01	295.55	11.13	
2025-01-12 12:51:41.05	295.74	11.11	
2025-01-12 12:51:42.08	295.93	11.09	
2025-01-12 12:51:43.10	296.11	11.07	
2025-01-12 12:51:44.14	296.30	11.05	
2025-01-12 12:51:45.17	296.49	11.03	
2025-01-12 12:51:46.19	296.67	11.01	
2025-01-12 12:51:47.22	296.86	10.99	
2025-01-12 12:51:48.24	297.04	10.96	
2025-01-12 12:51:49.27	297.23	10.94	
2025-01-12 12:51:50.29	297.41	10.92	
2025-01-12 12:51:51.32	297.60	10.90	
2025-01-12 12:51:52.34	297.78	10.88	
2025-01-12 12:51:53.37	297.96	10.86	
2025-01-12 12:51:54.39	298.14	10.83	
2025-01-12 12:51:55.42	298.33	10.81	
2025-01-12 12:51:56.44	298.51	10.79	
2025-01-12 12:51:57.47	298.69	10.77	
2025-01-12 12:51:58.49	298.87	10.74	
2025-01-12 12:51:59.52	299.06	10.72	
2025-01-12 12:52:00.54	299.24	10.70	
2025-01-12 12:52:01.56	299.42	10.67	
2025-01-12 12:52:02.59	299.60	10.65	
2025-01-12 12:52:03.61	299.78	10.62	
2025-01-12 12:52:04.65	299.96	10.60	
2025-01-12 12:52:05.67	300.14	10.57	
2025-01-12 12:52:06.71	300.32	10.55	
2025-01-12 12:52:07.75	300.51	10.52	
2025-01-12 12:52:08.78	300.69	10.50	
2025-01-12 12:52:09.80	300.86	10.47	
2025-01-12 12:52:10.83	301.04	10.44	
2025-01-12 12:52:11.86	301.22	10.42	
2025-01-12 12:52:12.89	301.40	10.39	
2025-01-12 12:52:13.93	301.58	10.37	
2025-01-12 12:52:14.95	301.76	10.34	
2025-01-12 12:52:15.98	301.94	10.31	
2025-01-12 12:52:17.00	302.11	10.28	
2025-01-12 12:52:18.03	302.29	10.26	
2025-01-12 12:52:19.05	302.46	10.23	
2025-01-12 12:52:20.08	302.64	10.20	
2025-01-12 12:52:21.10	302.81	10.17	
2025-01-12 12:52:22.13	302.99	10.14	
2025-01-12 12:52:23.16	303.17	10.12	
2025-01-12 12:52:24.20	303.34	10.09	
2025-01-12 12:52:25.23	303.52	10.06	
2025-01-12 12:52:26.25	303.69	10.03	
2025-01-12 12:52:27.28	303.86	10.00	
2025-01-12 12:52:28.30	304.04	9.97	
2025-01-12 12:52:29.33	304.21	9.94	
2025-01-12 12:52:30.35	304.38	9.91	
2025-01-12 12:52:31.38	304.55	9.88	
2025-01-12 12:52:32.41	304.73	9.85	
2025-01-12 12:52:33.43	304.90	9.82	
2025-01-12 12:52:34.46	305.07	9.79	
2025-01-12 12:52:35.48	305.24	9.76	
2025-01-12 12:52:36.50	305.41	9.73	
2025-01-12 12:52:37.53	305.58	9.70	
2025-01-12 12:52:38.55	305.75	9.67	
2025-01-12 12:52:39.58	305.92	9.63	
2025-01-12 12:52:40.61	306.09	9.60	
2025-01-12 12:52:41.64	306.26	9.57	
2025-01-12 12:52:42.66	306.42	9.54	
2025-01-12 12:52:43.70	306.59	9.51	
2025-01-12 12:52:44.73	306.76	9.47	
2025-01-12 12:52:45.77	306.93	9.44	
2025-01-12 12:52:46.80	307.10	9.41	
2025-01-12 12:52:47.83	307.26	9.37	
2025-01-12 12:52:48.85	307.43	9.34	
2025-01-12 12:52:49.88	307.60	9.31	
2025-01-12 12:52:50.91	307.76	9.28	
2025-01-12 12:52:51.94	307.93	9.24	
2025-01-12 12:52:52.96	308.09	9.21	
2025-01-12 12:52:53.99	308.26	9.17	
2025-01-12 12:52:55.02	308.42	9.14	
2025-01-12 12:52:56.04	308.58	9.11	
2025-01-12 12:52:57.08	308.75	9.07	
2025-01-12 12:52:58.11	308.91	9.04	
2025-01-12 12:52:59.13	309.07	9.00	
2025-01-12 12:53:00.15	309.23	8.97	
2025-01-12 12:53:01.19	309.40	8.93	
2025-01-12 12:53:02.21	309.56	8.90	
2025-01-12 12:53:03.24	309.72	8.86	
2025-01-12 12:53:04.26	309.88	8.83	
2025-01-12 12:53:05.29	310.04	8.79	
2025-01-12 12:53:06.31	310.20	8.76	
2025-01-12 12:53:07.34	310.36	8.72	
2025-01-12 12:53:08.36	310.52	8.68	
2025-01-12 12:53:09.40	310.68	8.65	
2025-01-12 12:53:10.43	310.83	8.61	
2025-01-12 12:53:11.45	310.99	8.58	
2025-01-12 12:53:12.48	311.15	8.54	
2025-01-12 12:53:13.50	311.31	8.50	
2025-01-12 12:53:14.53	311.46	8.47	
2025-01-12 12:53:15.56	311.62	8.43	
2025-01-12 12:53:16.58	311.77	8.39	
2025-01-12 12:53:17.62	311.93	8.35	
2025-01-12 12:53:18.65	312.09	8.32	
2025-01-12 12:53:19.67	312.24	8.28	
2025-01-12 12:53:20.69	312.39	8.24	
2025-01-12 12:53:21.71	312.55	8.21	
2025-01-12 12:53:22.74	312.70	8.17	
2025-01-12 12:53:23.76	312.85	8.13	
2025-01-12 12:53:24.80	313.01	8.09	
2025-01-12 12:53:25.83	313.16	8.05	
2025-01-12 12:53:26.85	313.31	8.02	
2025-01-12 12:53:27.88	313.46	7.98	
2025-01-12 12:53:28.91	313.62	7.94	
2025-01-12 12:53:29.94	313.77	7.90	
2025-01-12 12:53:30.96	313.92	7.86	
2025-01-12 12:53:31.99	314.07	7.82	
2025-01-12 12:53:33.01	314.22	7.79	
2025-01-12 12:53:34.04	314.37	7.75	
2025-01-12 12:53:35.08	314.52	7.71	
2025-01-12 12:53:36.10	314.67	7.67	
2025-01-12 12:53:37.13	314.81	7.63	
2025-01-12 12:53:38.16	314.96	7.59	
2025-01-12 12:53:39.18	315.11	7.55	
2025-01-12 12:53:40.21	315.26	7.51	
2025-01-12 12:53:41.23	315.40	7.47	
2025-01-12 12:53:42.26	315.55	7.43	
2025-01-12 12:53:43.29	315.69	7.39	
2025-01-12 12:53:44.31	315.84	7.35	
2025-01-12 12:53:45.35	315.99	7.31	
2025-01-12 12:53:46.38	316.13	7.27	
2025-01-12 12:53:47.40	316.27	7.23	
2025-01-12 12:53:48.42	316.42	7.19	
2025-01-12 12:53:49.45	316.56	7.15	
2025-01-12 12:53:50.47	316.70	7.11	
2025-01-12 12:53:51.50	316.85	7.07	
2025-01-12 12:53:52.52	316.99	7.03	
2025-01-12 12:53:53.55	317.13	6.99	
2025-01-12 12:53:54.57	317.27	6.95	
2025-01-12 12:53:55.60	317.41	6.91	
2025-01-12 12:53:56.63	317.56	6.87	
2025-01-12 12:53:57.65	317.69	6.83	
2025-01-12 12:53:58.68	317.84	6.78	
2025-01-12 12:53:59.70	317.97	6.74	
2025-01-12 12:54:00.72	318.11	6.70	
2025-01-12 12:54:01.75	318.25	6.66	
2025-01-12 12:54:02.77	318.39	6.62	
2025-01-12 12:54:03.80	318.53	6.58	
2025-01-12 12:54:04.82	318.67	6.54	
2025-01-12 12:54:05.86	318.80	6.50	
2025-01-12 12:54:06.88	318.94	6.45	
2025-01-12 12:54:07.92	319.08	6.41	
2025-01-12 12:54:08.95	319.22	6.37	
2025-01-12 12:54:09.97	319.35	6.33	
2025-01-12 12:54:11.00	319.49	6.29	
2025-01-12 12:54:12.02	319.62	6.24	
2025-01-12 12:54:13.05	319.76	6.20	
2025-01-12 12:54:14.07	319.89	6.16	
2025-01-12 12:54:15.10	320.02	6.12	
2025-01-12 12:54:16.12	320.16	6.08	
2025-01-12 12:54:17.15	320.29	6.03	
2025-01-12 12:54:18.17	320.42	5.99	
2025-01-12 12:54:19.20	320.56	5.95	
2025-01-12 12:54:20.22	320.69	5.91	
2025-01-12 12:54:21.25	320.82	5.86	
2025-01-12 12:54:22.27	320.95	5.82	
2025-01-12 12:54:23.30	321.08	5.78	
2025-01-12 12:54:24.34	321.21	5.74	
2025-01-12 12:54:25.37	321.34	5.69	
2025-01-12 12:54:26.39	321.47	5.65	
2025-01-12 12:54:27.41	321.60	5.61	
2025-01-12 12:54:28.44	321.73	5.57	
2025-01-12 12:54:29.47	321.86	5.52	
2025-01-12 12:54:30.49	321.99	5.48	
2025-01-12 12:54:31.51	322.12	5.44	
2025-01-12 12:54:32.54	322.25	5.39	
2025-01-12 12:54:33.57	322.37	5.35	
2025-01-12 12:54:34.59	322.50	5.31	
2025-01-12 12:54:35.61	322.63	5.26	
2025-01-12 12:54:36.64	322.75	5.22	
2025-01-12 12:54:37.67	322.88	5.18	
2025-01-12 12:54:38.69	323.00	5.14	
2025-01-12 12:54:39.72	323.13	5.09	
2025-01-12 12:54:40.75	323.25	5.05	
2025-01-12 12:54:41.77	323.38	5.00	
2025-01-12 12:54:42.80	323.50	4.96	
2025-01-12 12:54:43.84	323.63	4.92	
2025-01-12 12:54:44.88	323.75	4.87	
2025-01-12 12:54:45.90	323.88	4.83	
2025-01-12 12:54:46.93	324.00	4.79	
2025-01-12 12:54:47.96	324.12	4.74	
2025-01-12 12:54:48.99	324.24	4.70	
2025-01-12 12:54:50.02	324.37	4.65	
2025-01-12 12:54:51.04	324.49	4.61	
2025-01-12 12:54:52.07	324.61	4.57	
2025-01-12 12:54:53.09	324.73	4.52	
2025-01-12 12:54:54.11	324.85	4.48	
2025-01-12 12:54:55.14	324.97	4.44	
2025-01-12 12:54:56.17	325.09	4.39	
2025-01-12 12:54:57.19	325.21	4.35	
2025-01-12 12:54:58.22	325.33	4.30	
2025-01-12 12:54:59.25	325.44	4.26	
2025-01-12 12:55:00.30	325.57	4.22	
2025-01-12 12:55:01.33	325.68	4.17	
2025-01-12 12:55:02.35	325.80	4.13	
2025-01-12 12:55:03.37	325.92	4.08	
2025-01-12 12:55:04.40	326.03	4.04	

#Closed at: 2025-01-12 12:55:05