passes_logs/2025/01/12/SPB_Silybum_02/SPB_Silybum_02__20250112_024953_SUOMI_NPP_rec.log

#Pass ID: 20250112_024953_SUOMI NPP
#Satellite: SUOMI NPP
#Configuration: NPP
#Start time: 2025-01-12 02:49:51

#Version: 2.0.20230423
#Station: SPB_Silybum_02
#Location: 30.233357 lon 59.946436 lat
#TLE: 1 37849U 11061A   25010.83173011  .00000170  00000+0  10148-3 0  9996
#TLE: 2 37849  98.7441 311.8732 0001811  47.3940 312.7388 14.19536379684322

#Time	Az	El	Level	Level2	SNR	BER	Gain	Gain2
2025-01-12 02:49:53.64	14.10	4.03	
2025-01-12 02:49:54.87	13.99	4.10	
2025-01-12 02:49:56.11	13.87	4.16	
2025-01-12 02:49:57.34	13.76	4.23	
2025-01-12 02:49:58.57	13.64	4.29	
2025-01-12 02:49:59.80	13.53	4.36	
2025-01-12 02:50:01.04	13.41	4.43	
2025-01-12 02:50:02.27	13.30	4.49	
2025-01-12 02:50:03.50	13.18	4.56	
2025-01-12 02:50:04.73	13.06	4.63	
2025-01-12 02:50:05.95	12.95	4.69	
2025-01-12 02:50:07.18	12.83	4.76	
2025-01-12 02:50:08.41	12.71	4.82	
2025-01-12 02:50:09.64	12.59	4.89	
2025-01-12 02:50:10.89	12.47	4.96	
2025-01-12 02:50:12.13	12.35	5.03	
2025-01-12 02:50:13.36	12.23	5.09	
2025-01-12 02:50:14.59	12.11	5.16	
2025-01-12 02:50:15.84	11.98	5.23	
2025-01-12 02:50:17.09	11.86	5.29	
2025-01-12 02:50:18.32	11.73	5.36	
2025-01-12 02:50:19.55	11.61	5.43	
2025-01-12 02:50:20.79	11.49	5.50	
2025-01-12 02:50:22.03	11.36	5.56	
2025-01-12 02:50:23.26	11.23	5.63	
2025-01-12 02:50:24.49	11.11	5.70	
2025-01-12 02:50:25.72	10.98	5.76	
2025-01-12 02:50:26.95	10.85	5.83	
2025-01-12 02:50:28.19	10.72	5.90	
2025-01-12 02:50:29.42	10.60	5.97	
2025-01-12 02:50:30.65	10.47	6.03	
2025-01-12 02:50:31.88	10.34	6.10	
2025-01-12 02:50:33.12	10.21	6.17	
2025-01-12 02:50:34.36	10.07	6.24	
2025-01-12 02:50:35.59	9.94	6.30	
2025-01-12 02:50:36.82	9.81	6.37	
2025-01-12 02:50:38.06	9.67	6.44	
2025-01-12 02:50:39.29	9.54	6.51	
2025-01-12 02:50:40.53	9.41	6.57	
2025-01-12 02:50:41.77	9.27	6.64	
2025-01-12 02:50:43.00	9.13	6.71	
2025-01-12 02:50:44.23	9.00	6.78	
2025-01-12 02:50:45.46	8.86	6.84	
2025-01-12 02:50:46.69	8.72	6.91	
2025-01-12 02:50:47.92	8.59	6.98	
2025-01-12 02:50:49.17	8.44	7.05	
2025-01-12 02:50:50.40	8.30	7.12	
2025-01-12 02:50:51.63	8.16	7.18	
2025-01-12 02:50:52.87	8.02	7.25	
2025-01-12 02:50:54.10	7.88	7.32	
2025-01-12 02:50:55.34	7.74	7.39	
2025-01-12 02:50:56.57	7.59	7.45	
2025-01-12 02:50:57.80	7.45	7.52	
2025-01-12 02:50:59.03	7.31	7.59	
2025-01-12 02:51:00.26	7.16	7.66	
2025-01-12 02:51:01.49	7.02	7.73	
2025-01-12 02:51:02.74	6.87	7.79	
2025-01-12 02:51:03.96	6.72	7.86	
2025-01-12 02:51:05.20	6.57	7.93	
2025-01-12 02:51:06.43	6.42	8.00	
2025-01-12 02:51:07.67	6.27	8.06	
2025-01-12 02:51:08.90	6.12	8.13	
2025-01-12 02:51:10.13	5.97	8.20	
2025-01-12 02:51:11.36	5.82	8.27	
2025-01-12 02:51:12.61	5.67	8.34	
2025-01-12 02:51:13.85	5.51	8.40	
2025-01-12 02:51:15.08	5.36	8.47	
2025-01-12 02:51:16.33	5.20	8.54	
2025-01-12 02:51:17.56	5.05	8.61	
2025-01-12 02:51:18.80	4.89	8.68	
2025-01-12 02:51:20.04	4.73	8.74	
2025-01-12 02:51:21.27	4.58	8.81	
2025-01-12 02:51:22.50	4.42	8.88	
2025-01-12 02:51:23.73	4.26	8.95	
2025-01-12 02:51:24.96	4.10	9.01	
2025-01-12 02:51:26.21	3.94	9.08	
2025-01-12 02:51:27.44	3.78	9.15	
2025-01-12 02:51:28.67	3.61	9.22	
2025-01-12 02:51:29.90	3.45	9.28	
2025-01-12 02:51:31.13	3.29	9.35	
2025-01-12 02:51:32.36	3.12	9.42	
2025-01-12 02:51:33.59	2.96	9.49	
2025-01-12 02:51:34.84	2.79	9.55	
2025-01-12 02:51:36.09	2.62	9.62	
2025-01-12 02:51:37.32	2.45	9.69	
2025-01-12 02:51:38.55	2.29	9.76	
2025-01-12 02:51:39.78	2.12	9.82	
2025-01-12 02:51:41.02	1.95	9.89	
2025-01-12 02:51:42.25	1.77	9.96	
2025-01-12 02:51:43.48	1.60	10.02	
2025-01-12 02:51:44.71	1.43	10.09	
2025-01-12 02:51:45.94	1.26	10.16	
2025-01-12 02:51:47.19	1.08	10.22	
2025-01-12 02:51:48.41	0.91	10.29	
2025-01-12 02:51:49.65	0.73	10.36	
2025-01-12 02:51:50.88	0.56	10.42	
2025-01-12 02:51:52.11	0.38	10.49	
2025-01-12 02:51:53.34	0.20	10.56	
2025-01-12 02:51:54.58	0.02	10.62	
2025-01-12 02:51:55.82	359.84	10.69	
2025-01-12 02:51:57.05	359.66	10.75	
2025-01-12 02:51:58.28	359.48	10.82	
2025-01-12 02:51:59.51	359.30	10.88	
2025-01-12 02:52:00.74	359.11	10.95	
2025-01-12 02:52:01.97	358.93	11.02	
2025-01-12 02:52:03.20	358.75	11.08	
2025-01-12 02:52:04.42	358.56	11.15	
2025-01-12 02:52:05.66	358.38	11.21	
2025-01-12 02:52:06.89	358.19	11.28	
2025-01-12 02:52:08.12	358.00	11.34	
2025-01-12 02:52:09.35	357.81	11.40	
2025-01-12 02:52:10.58	357.62	11.47	
2025-01-12 02:52:11.81	357.43	11.53	
2025-01-12 02:52:13.04	357.24	11.60	
2025-01-12 02:52:14.27	357.05	11.66	
2025-01-12 02:52:15.51	356.85	11.73	
2025-01-12 02:52:16.75	356.66	11.79	
2025-01-12 02:52:17.98	356.46	11.85	
2025-01-12 02:52:19.22	356.27	11.92	
2025-01-12 02:52:20.46	356.07	11.98	
2025-01-12 02:52:21.69	355.87	12.04	
2025-01-12 02:52:22.92	355.67	12.11	
2025-01-12 02:52:24.15	355.48	12.17	
2025-01-12 02:52:25.38	355.28	12.23	
2025-01-12 02:52:26.61	355.08	12.29	
2025-01-12 02:52:27.84	354.87	12.36	
2025-01-12 02:52:29.07	354.67	12.42	
2025-01-12 02:52:30.31	354.47	12.48	
2025-01-12 02:52:31.54	354.26	12.54	
2025-01-12 02:52:32.77	354.06	12.60	
2025-01-12 02:52:34.00	353.85	12.66	
2025-01-12 02:52:35.23	353.64	12.72	
2025-01-12 02:52:36.46	353.44	12.79	
2025-01-12 02:52:37.70	353.23	12.85	
2025-01-12 02:52:38.94	353.02	12.91	
2025-01-12 02:52:40.19	352.80	12.97	
2025-01-12 02:52:41.42	352.59	13.03	
2025-01-12 02:52:42.65	352.38	13.09	
2025-01-12 02:52:43.89	352.16	13.15	
2025-01-12 02:52:45.12	351.95	13.21	
2025-01-12 02:52:46.35	351.74	13.26	
2025-01-12 02:52:47.59	351.52	13.32	
2025-01-12 02:52:48.82	351.30	13.38	
2025-01-12 02:52:50.05	351.08	13.44	
2025-01-12 02:52:51.28	350.87	13.50	
2025-01-12 02:52:52.52	350.65	13.55	
2025-01-12 02:52:53.75	350.43	13.61	
2025-01-12 02:52:54.99	350.20	13.67	
2025-01-12 02:52:56.23	349.98	13.73	
2025-01-12 02:52:57.47	349.76	13.78	
2025-01-12 02:52:58.71	349.53	13.84	
2025-01-12 02:52:59.94	349.31	13.89	
2025-01-12 02:53:01.19	349.08	13.95	
2025-01-12 02:53:02.42	348.85	14.01	
2025-01-12 02:53:03.65	348.63	14.06	
2025-01-12 02:53:04.88	348.40	14.11	
2025-01-12 02:53:06.11	348.17	14.17	
2025-01-12 02:53:07.34	347.94	14.22	
2025-01-12 02:53:08.57	347.71	14.28	
2025-01-12 02:53:09.80	347.48	14.33	
2025-01-12 02:53:11.03	347.25	14.38	
2025-01-12 02:53:12.27	347.01	14.43	
2025-01-12 02:53:13.50	346.78	14.49	
2025-01-12 02:53:14.73	346.55	14.54	
2025-01-12 02:53:15.96	346.31	14.59	
2025-01-12 02:53:17.20	346.07	14.64	
2025-01-12 02:53:18.43	345.84	14.69	
2025-01-12 02:53:19.66	345.60	14.74	
2025-01-12 02:53:20.89	345.36	14.79	
2025-01-12 02:53:22.12	345.12	14.84	
2025-01-12 02:53:23.35	344.88	14.89	
2025-01-12 02:53:24.58	344.64	14.94	
2025-01-12 02:53:25.81	344.40	14.98	
2025-01-12 02:53:27.04	344.16	15.03	
2025-01-12 02:53:28.27	343.91	15.08	
2025-01-12 02:53:29.50	343.67	15.12	
2025-01-12 02:53:30.75	343.42	15.17	
2025-01-12 02:53:31.99	343.17	15.22	
2025-01-12 02:53:33.22	342.93	15.26	
2025-01-12 02:53:34.47	342.68	15.31	
2025-01-12 02:53:35.70	342.43	15.35	
2025-01-12 02:53:36.94	342.18	15.40	
2025-01-12 02:53:38.16	341.93	15.44	
2025-01-12 02:53:39.39	341.68	15.48	
2025-01-12 02:53:40.62	341.43	15.53	
2025-01-12 02:53:41.85	341.18	15.57	
2025-01-12 02:53:43.08	340.93	15.61	
2025-01-12 02:53:44.31	340.67	15.65	
2025-01-12 02:53:45.55	340.42	15.69	
2025-01-12 02:53:46.78	340.16	15.73	
2025-01-12 02:53:48.01	339.91	15.77	
2025-01-12 02:53:49.24	339.65	15.81	
2025-01-12 02:53:50.47	339.40	15.85	
2025-01-12 02:53:51.70	339.14	15.89	
2025-01-12 02:53:52.93	338.88	15.92	
2025-01-12 02:53:54.16	338.62	15.96	
2025-01-12 02:53:55.41	338.36	16.00	
2025-01-12 02:53:56.63	338.10	16.03	
2025-01-12 02:53:57.86	337.84	16.07	
2025-01-12 02:53:59.09	337.58	16.10	
2025-01-12 02:54:00.34	337.32	16.14	
2025-01-12 02:54:01.57	337.05	16.17	
2025-01-12 02:54:02.81	336.79	16.21	
2025-01-12 02:54:04.04	336.53	16.24	
2025-01-12 02:54:05.27	336.26	16.27	
2025-01-12 02:54:06.51	336.00	16.30	
2025-01-12 02:54:07.74	335.73	16.33	
2025-01-12 02:54:08.97	335.46	16.36	
2025-01-12 02:54:10.20	335.20	16.39	
2025-01-12 02:54:11.43	334.93	16.42	
2025-01-12 02:54:12.66	334.67	16.45	
2025-01-12 02:54:13.91	334.39	16.48	
2025-01-12 02:54:15.14	334.13	16.51	
2025-01-12 02:54:16.37	333.86	16.53	
2025-01-12 02:54:17.60	333.59	16.56	
2025-01-12 02:54:18.85	333.31	16.58	
2025-01-12 02:54:20.08	333.04	16.61	
2025-01-12 02:54:21.31	332.77	16.63	
2025-01-12 02:54:22.55	332.50	16.66	
2025-01-12 02:54:23.79	332.23	16.68	
2025-01-12 02:54:25.04	331.95	16.70	
2025-01-12 02:54:26.27	331.68	16.72	
2025-01-12 02:54:27.49	331.41	16.74	
2025-01-12 02:54:28.74	331.13	16.76	
2025-01-12 02:54:29.97	330.86	16.78	
2025-01-12 02:54:31.22	330.58	16.80	
2025-01-12 02:54:32.46	330.30	16.82	
2025-01-12 02:54:33.69	330.03	16.84	
2025-01-12 02:54:34.92	329.75	16.86	
2025-01-12 02:54:36.15	329.48	16.87	
2025-01-12 02:54:37.38	329.20	16.89	
2025-01-12 02:54:38.62	328.93	16.90	
2025-01-12 02:54:39.85	328.65	16.92	
2025-01-12 02:54:41.09	328.37	16.93	
2025-01-12 02:54:42.34	328.09	16.94	
2025-01-12 02:54:43.57	327.81	16.96	
2025-01-12 02:54:44.80	327.54	16.97	
2025-01-12 02:54:46.03	327.26	16.98	
2025-01-12 02:54:47.26	326.98	16.99	
2025-01-12 02:54:48.49	326.71	17.00	
2025-01-12 02:54:49.72	326.43	17.01	
2025-01-12 02:54:50.96	326.15	17.02	
2025-01-12 02:54:52.19	325.87	17.02	
2025-01-12 02:54:53.42	325.59	17.03	
2025-01-12 02:54:54.65	325.31	17.04	
2025-01-12 02:54:55.88	325.04	17.04	
2025-01-12 02:54:57.11	324.76	17.05	
2025-01-12 02:54:58.34	324.48	17.05	
2025-01-12 02:54:59.58	324.20	17.05	
2025-01-12 02:55:00.82	323.92	17.06	
2025-01-12 02:55:02.05	323.64	17.06	
2025-01-12 02:55:03.29	323.36	17.06	
2025-01-12 02:55:04.52	323.08	17.06	
2025-01-12 02:55:05.74	322.80	17.06	
2025-01-12 02:55:06.97	322.52	17.06	
2025-01-12 02:55:08.20	322.25	17.06	
2025-01-12 02:55:09.43	321.97	17.05	
2025-01-12 02:55:10.66	321.69	17.05	
2025-01-12 02:55:11.90	321.41	17.05	
2025-01-12 02:55:13.13	321.13	17.04	
2025-01-12 02:55:14.38	320.85	17.04	
2025-01-12 02:55:15.61	320.57	17.03	
2025-01-12 02:55:16.84	320.29	17.03	
2025-01-12 02:55:18.08	320.01	17.02	
2025-01-12 02:55:19.31	319.73	17.01	
2025-01-12 02:55:20.54	319.45	17.00	
2025-01-12 02:55:21.77	319.18	16.99	
2025-01-12 02:55:23.01	318.90	16.98	
2025-01-12 02:55:24.24	318.62	16.97	
2025-01-12 02:55:25.46	318.34	16.96	
2025-01-12 02:55:26.70	318.07	16.95	
2025-01-12 02:55:27.94	317.79	16.94	
2025-01-12 02:55:29.18	317.51	16.93	
2025-01-12 02:55:30.41	317.23	16.91	
2025-01-12 02:55:31.64	316.96	16.90	
2025-01-12 02:55:32.87	316.68	16.88	
2025-01-12 02:55:34.10	316.41	16.87	
2025-01-12 02:55:35.34	316.13	16.85	
2025-01-12 02:55:36.57	315.85	16.83	
2025-01-12 02:55:37.80	315.58	16.81	
2025-01-12 02:55:39.03	315.30	16.80	
2025-01-12 02:55:40.27	315.03	16.78	
2025-01-12 02:55:41.51	314.75	16.76	
2025-01-12 02:55:42.74	314.48	16.74	
2025-01-12 02:55:43.98	314.21	16.71	
2025-01-12 02:55:45.21	313.93	16.69	
2025-01-12 02:55:46.44	313.66	16.67	
2025-01-12 02:55:47.67	313.39	16.65	
2025-01-12 02:55:48.90	313.12	16.62	
2025-01-12 02:55:50.13	312.85	16.60	
2025-01-12 02:55:51.36	312.58	16.57	
2025-01-12 02:55:52.59	312.31	16.55	
2025-01-12 02:55:53.82	312.04	16.52	
2025-01-12 02:55:55.06	311.77	16.49	
2025-01-12 02:55:56.31	311.50	16.47	
2025-01-12 02:55:57.54	311.23	16.44	
2025-01-12 02:55:58.77	310.96	16.41	
2025-01-12 02:56:00.01	310.69	16.38	
2025-01-12 02:56:01.24	310.43	16.35	
2025-01-12 02:56:02.47	310.16	16.32	
2025-01-12 02:56:03.70	309.90	16.29	
2025-01-12 02:56:04.93	309.63	16.26	
2025-01-12 02:56:06.17	309.36	16.23	
2025-01-12 02:56:07.40	309.10	16.19	
2025-01-12 02:56:08.65	308.83	16.16	
2025-01-12 02:56:09.88	308.57	16.12	
2025-01-12 02:56:11.12	308.31	16.09	
2025-01-12 02:56:12.35	308.05	16.06	
2025-01-12 02:56:13.59	307.78	16.02	
2025-01-12 02:56:14.82	307.52	15.98	
2025-01-12 02:56:16.05	307.27	15.95	
2025-01-12 02:56:17.29	307.00	15.91	
2025-01-12 02:56:18.53	306.75	15.87	
2025-01-12 02:56:19.76	306.49	15.83	
2025-01-12 02:56:21.00	306.23	15.79	
2025-01-12 02:56:22.23	305.97	15.75	
2025-01-12 02:56:23.45	305.72	15.71	
2025-01-12 02:56:24.69	305.46	15.67	
2025-01-12 02:56:25.92	305.21	15.63	
2025-01-12 02:56:27.15	304.96	15.59	
2025-01-12 02:56:28.38	304.70	15.55	
2025-01-12 02:56:29.61	304.45	15.51	
2025-01-12 02:56:30.84	304.20	15.47	
2025-01-12 02:56:32.08	303.95	15.42	
2025-01-12 02:56:33.32	303.70	15.38	
2025-01-12 02:56:34.55	303.45	15.33	
2025-01-12 02:56:35.78	303.20	15.29	
2025-01-12 02:56:37.03	302.95	15.24	
2025-01-12 02:56:38.26	302.70	15.20	
2025-01-12 02:56:39.49	302.46	15.15	
2025-01-12 02:56:40.72	302.21	15.10	
2025-01-12 02:56:41.96	301.97	15.06	
2025-01-12 02:56:43.20	301.72	15.01	
2025-01-12 02:56:44.43	301.48	14.96	
2025-01-12 02:56:45.66	301.24	14.91	
2025-01-12 02:56:46.89	301.00	14.87	
2025-01-12 02:56:48.12	300.76	14.82	
2025-01-12 02:56:49.36	300.51	14.77	
2025-01-12 02:56:50.59	300.28	14.72	
2025-01-12 02:56:51.82	300.04	14.67	
2025-01-12 02:56:53.05	299.80	14.62	
2025-01-12 02:56:54.28	299.56	14.56	
2025-01-12 02:56:55.51	299.33	14.51	
2025-01-12 02:56:56.75	299.09	14.46	
2025-01-12 02:56:57.99	298.86	14.41	
2025-01-12 02:56:59.23	298.62	14.36	
2025-01-12 02:57:00.46	298.39	14.30	
2025-01-12 02:57:01.69	298.16	14.25	
2025-01-12 02:57:02.93	297.93	14.20	
2025-01-12 02:57:04.16	297.70	14.14	
2025-01-12 02:57:05.39	297.47	14.09	
2025-01-12 02:57:06.63	297.24	14.03	
2025-01-12 02:57:07.87	297.01	13.98	
2025-01-12 02:57:09.11	296.78	13.92	
2025-01-12 02:57:10.34	296.56	13.87	
2025-01-12 02:57:11.57	296.33	13.81	
2025-01-12 02:57:12.80	296.11	13.75	
2025-01-12 02:57:14.03	295.89	13.70	
2025-01-12 02:57:15.26	295.66	13.64	
2025-01-12 02:57:16.49	295.44	13.58	
2025-01-12 02:57:17.72	295.22	13.53	
2025-01-12 02:57:18.95	295.00	13.47	
2025-01-12 02:57:20.19	294.78	13.41	
2025-01-12 02:57:21.42	294.57	13.35	
2025-01-12 02:57:22.66	294.35	13.29	
2025-01-12 02:57:23.91	294.13	13.23	
2025-01-12 02:57:25.14	293.91	13.18	
2025-01-12 02:57:26.37	293.70	13.12	
2025-01-12 02:57:27.60	293.49	13.06	
2025-01-12 02:57:28.83	293.27	13.00	
2025-01-12 02:57:30.06	293.06	12.94	
2025-01-12 02:57:31.29	292.85	12.88	
2025-01-12 02:57:32.52	292.64	12.82	
2025-01-12 02:57:33.76	292.43	12.76	
2025-01-12 02:57:34.98	292.22	12.70	
2025-01-12 02:57:36.22	292.02	12.63	
2025-01-12 02:57:37.45	291.81	12.57	
2025-01-12 02:57:38.69	291.60	12.51	
2025-01-12 02:57:39.92	291.40	12.45	
2025-01-12 02:57:41.16	291.19	12.39	
2025-01-12 02:57:42.39	290.99	12.32	
2025-01-12 02:57:43.62	290.79	12.26	
2025-01-12 02:57:44.85	290.59	12.20	
2025-01-12 02:57:46.09	290.39	12.14	
2025-01-12 02:57:47.33	290.18	12.07	
2025-01-12 02:57:48.56	289.99	12.01	
2025-01-12 02:57:49.80	289.79	11.95	
2025-01-12 02:57:51.03	289.59	11.88	
2025-01-12 02:57:52.26	289.39	11.82	
2025-01-12 02:57:53.49	289.20	11.76	
2025-01-12 02:57:54.72	289.00	11.69	
2025-01-12 02:57:55.95	288.81	11.63	
2025-01-12 02:57:57.19	288.62	11.56	
2025-01-12 02:57:58.43	288.42	11.50	
2025-01-12 02:57:59.66	288.23	11.43	
2025-01-12 02:58:00.89	288.04	11.37	
2025-01-12 02:58:02.13	287.85	11.30	
2025-01-12 02:58:03.37	287.66	11.24	
2025-01-12 02:58:04.60	287.48	11.17	
2025-01-12 02:58:05.84	287.29	11.11	
2025-01-12 02:58:07.07	287.10	11.04	
2025-01-12 02:58:08.30	286.92	10.98	
2025-01-12 02:58:09.53	286.73	10.91	
2025-01-12 02:58:10.77	286.55	10.85	
2025-01-12 02:58:12.01	286.37	10.78	
2025-01-12 02:58:13.25	286.18	10.71	
2025-01-12 02:58:14.48	286.00	10.65	
2025-01-12 02:58:15.71	285.82	10.58	
2025-01-12 02:58:16.94	285.64	10.52	
2025-01-12 02:58:18.18	285.46	10.45	
2025-01-12 02:58:19.41	285.29	10.38	
2025-01-12 02:58:20.64	285.11	10.32	
2025-01-12 02:58:21.87	284.93	10.25	
2025-01-12 02:58:23.11	284.76	10.18	
2025-01-12 02:58:24.35	284.58	10.12	
2025-01-12 02:58:25.57	284.41	10.05	
2025-01-12 02:58:26.81	284.24	9.98	
2025-01-12 02:58:28.04	284.06	9.92	
2025-01-12 02:58:29.29	283.89	9.85	
2025-01-12 02:58:30.53	283.72	9.78	
2025-01-12 02:58:31.77	283.55	9.71	
2025-01-12 02:58:33.00	283.38	9.65	
2025-01-12 02:58:34.23	283.21	9.58	
2025-01-12 02:58:35.46	283.04	9.51	
2025-01-12 02:58:36.69	282.88	9.44	
2025-01-12 02:58:37.93	282.71	9.38	
2025-01-12 02:58:39.16	282.55	9.31	
2025-01-12 02:58:40.39	282.38	9.24	
2025-01-12 02:58:41.63	282.22	9.17	
2025-01-12 02:58:42.86	282.06	9.11	
2025-01-12 02:58:44.09	281.89	9.04	
2025-01-12 02:58:45.33	281.73	8.97	
2025-01-12 02:58:46.56	281.57	8.90	
2025-01-12 02:58:47.79	281.41	8.84	
2025-01-12 02:58:49.02	281.26	8.77	
2025-01-12 02:58:50.26	281.10	8.70	
2025-01-12 02:58:51.50	280.94	8.63	
2025-01-12 02:58:52.75	280.78	8.56	
2025-01-12 02:58:53.98	280.62	8.49	
2025-01-12 02:58:55.21	280.47	8.43	
2025-01-12 02:58:56.44	280.31	8.36	
2025-01-12 02:58:57.68	280.16	8.29	
2025-01-12 02:58:58.93	280.00	8.22	
2025-01-12 02:59:00.16	279.85	8.15	
2025-01-12 02:59:01.39	279.70	8.09	
2025-01-12 02:59:02.62	279.55	8.02	
2025-01-12 02:59:03.86	279.40	7.95	
2025-01-12 02:59:05.09	279.25	7.88	
2025-01-12 02:59:06.33	279.10	7.81	
2025-01-12 02:59:07.56	278.95	7.75	
2025-01-12 02:59:08.80	278.81	7.68	
2025-01-12 02:59:10.02	278.66	7.61	
2025-01-12 02:59:11.26	278.51	7.54	
2025-01-12 02:59:12.49	278.37	7.48	
2025-01-12 02:59:13.73	278.22	7.41	
2025-01-12 02:59:14.96	278.08	7.34	
2025-01-12 02:59:16.19	277.94	7.27	
2025-01-12 02:59:17.42	277.80	7.20	
2025-01-12 02:59:18.65	277.65	7.14	
2025-01-12 02:59:19.89	277.51	7.07	
2025-01-12 02:59:21.13	277.37	7.00	
2025-01-12 02:59:22.38	277.23	6.93	
2025-01-12 02:59:23.61	277.09	6.86	
2025-01-12 02:59:24.84	276.95	6.80	
2025-01-12 02:59:26.08	276.81	6.73	
2025-01-12 02:59:27.31	276.68	6.66	
2025-01-12 02:59:28.54	276.54	6.59	
2025-01-12 02:59:29.77	276.41	6.52	
2025-01-12 02:59:31.02	276.27	6.46	
2025-01-12 02:59:32.27	276.13	6.39	
2025-01-12 02:59:33.51	276.00	6.32	
2025-01-12 02:59:34.75	275.86	6.25	
2025-01-12 02:59:35.98	275.73	6.18	
2025-01-12 02:59:37.21	275.60	6.12	
2025-01-12 02:59:38.44	275.47	6.05	
2025-01-12 02:59:39.67	275.34	5.98	
2025-01-12 02:59:40.92	275.21	5.91	
2025-01-12 02:59:42.15	275.08	5.85	
2025-01-12 02:59:43.38	274.95	5.78	
2025-01-12 02:59:44.63	274.82	5.71	
2025-01-12 02:59:45.86	274.69	5.64	
2025-01-12 02:59:47.09	274.56	5.58	
2025-01-12 02:59:48.32	274.44	5.51	
2025-01-12 02:59:49.55	274.31	5.44	
2025-01-12 02:59:50.78	274.19	5.38	
2025-01-12 02:59:52.01	274.06	5.31	
2025-01-12 02:59:53.24	273.94	5.24	
2025-01-12 02:59:54.48	273.82	5.17	
2025-01-12 02:59:55.72	273.69	5.11	
2025-01-12 02:59:56.95	273.57	5.04	
2025-01-12 02:59:58.18	273.45	4.97	
2025-01-12 02:59:59.41	273.33	4.91	
2025-01-12 03:00:00.64	273.21	4.84	
2025-01-12 03:00:01.87	273.09	4.77	
2025-01-12 03:00:03.10	272.97	4.71	
2025-01-12 03:00:04.34	272.85	4.64	
2025-01-12 03:00:05.57	272.73	4.57	
2025-01-12 03:00:06.81	272.61	4.51	
2025-01-12 03:00:08.04	272.49	4.44	
2025-01-12 03:00:09.27	272.38	4.37	
2025-01-12 03:00:10.50	272.26	4.31	
2025-01-12 03:00:11.74	272.15	4.24	
2025-01-12 03:00:12.98	272.03	4.18	
2025-01-12 03:00:14.21	271.92	4.11	
2025-01-12 03:00:15.44	271.80	4.04	

#Closed at: 2025-01-12 03:00:16