passes_logs/2025/01/12/SPB_Silybum_02/SPB_Silybum_02__20250112_010923_SUOMI_NPP_rec.log

#Pass ID: 20250112_010923_SUOMI NPP
#Satellite: SUOMI NPP
#Configuration: NPP
#Start time: 2025-01-12 01:09:23

#Version: 2.0.20230423
#Station: SPB_Silybum_02
#Location: 30.233357 lon 59.946436 lat
#TLE: 1 37849U 11061A   25010.83173011  .00000170  00000+0  10148-3 0  9996
#TLE: 2 37849  98.7441 311.8732 0001811  47.3940 312.7388 14.19536379684322

#Time	Az	El	Level	Level2	SNR	BER	Gain	Gain2
2025-01-12 01:09:25.80	15.69	4.14	
2025-01-12 01:09:27.23	15.64	4.23	
2025-01-12 01:09:28.67	15.60	4.33	
2025-01-12 01:09:30.10	15.55	4.43	
2025-01-12 01:09:31.54	15.50	4.53	
2025-01-12 01:09:32.97	15.45	4.62	
2025-01-12 01:09:34.41	15.41	4.72	
2025-01-12 01:09:35.84	15.36	4.82	
2025-01-12 01:09:37.28	15.31	4.92	
2025-01-12 01:09:38.71	15.26	5.02	
2025-01-12 01:09:40.15	15.21	5.12	
2025-01-12 01:09:41.58	15.16	5.22	
2025-01-12 01:09:43.03	15.11	5.32	
2025-01-12 01:09:44.50	15.05	5.42	
2025-01-12 01:09:45.94	15.00	5.52	
2025-01-12 01:09:47.39	14.95	5.63	
2025-01-12 01:09:48.82	14.90	5.73	
2025-01-12 01:09:50.26	14.85	5.83	
2025-01-12 01:09:51.69	14.79	5.93	
2025-01-12 01:09:53.14	14.74	6.04	
2025-01-12 01:09:54.58	14.68	6.14	
2025-01-12 01:09:56.03	14.63	6.24	
2025-01-12 01:09:57.47	14.57	6.35	
2025-01-12 01:09:58.91	14.52	6.45	
2025-01-12 01:10:00.36	14.46	6.56	
2025-01-12 01:10:01.83	14.41	6.67	
2025-01-12 01:10:03.27	14.35	6.77	
2025-01-12 01:10:04.70	14.29	6.88	
2025-01-12 01:10:06.14	14.23	6.98	
2025-01-12 01:10:07.57	14.18	7.09	
2025-01-12 01:10:09.01	14.12	7.20	
2025-01-12 01:10:10.44	14.06	7.31	
2025-01-12 01:10:11.88	14.00	7.41	
2025-01-12 01:10:13.32	13.94	7.52	
2025-01-12 01:10:14.76	13.88	7.63	
2025-01-12 01:10:16.19	13.82	7.74	
2025-01-12 01:10:17.64	13.76	7.85	
2025-01-12 01:10:19.07	13.69	7.96	
2025-01-12 01:10:20.51	13.63	8.07	
2025-01-12 01:10:21.94	13.57	8.19	
2025-01-12 01:10:23.38	13.51	8.30	
2025-01-12 01:10:24.82	13.44	8.41	
2025-01-12 01:10:26.26	13.38	8.52	
2025-01-12 01:10:27.71	13.31	8.64	
2025-01-12 01:10:29.15	13.25	8.75	
2025-01-12 01:10:30.58	13.18	8.86	
2025-01-12 01:10:32.01	13.11	8.98	
2025-01-12 01:10:33.46	13.04	9.09	
2025-01-12 01:10:34.92	12.98	9.21	
2025-01-12 01:10:36.36	12.91	9.33	
2025-01-12 01:10:37.79	12.84	9.44	
2025-01-12 01:10:39.24	12.77	9.56	
2025-01-12 01:10:40.68	12.70	9.68	
2025-01-12 01:10:42.11	12.63	9.80	
2025-01-12 01:10:43.55	12.55	9.92	
2025-01-12 01:10:44.99	12.48	10.04	
2025-01-12 01:10:46.42	12.41	10.16	
2025-01-12 01:10:47.86	12.34	10.28	
2025-01-12 01:10:49.30	12.26	10.40	
2025-01-12 01:10:50.73	12.19	10.52	
2025-01-12 01:10:52.17	12.11	10.64	
2025-01-12 01:10:53.60	12.04	10.76	
2025-01-12 01:10:55.05	11.96	10.89	
2025-01-12 01:10:56.49	11.88	11.01	
2025-01-12 01:10:57.92	11.80	11.13	
2025-01-12 01:10:59.35	11.72	11.26	
2025-01-12 01:11:00.82	11.64	11.39	
2025-01-12 01:11:02.25	11.56	11.51	
2025-01-12 01:11:03.68	11.48	11.64	
2025-01-12 01:11:05.12	11.40	11.76	
2025-01-12 01:11:06.56	11.32	11.89	
2025-01-12 01:11:07.99	11.23	12.02	
2025-01-12 01:11:09.42	11.15	12.15	
2025-01-12 01:11:10.86	11.06	12.28	
2025-01-12 01:11:12.29	10.98	12.41	
2025-01-12 01:11:13.73	10.89	12.54	
2025-01-12 01:11:15.17	10.80	12.67	
2025-01-12 01:11:16.60	10.71	12.80	
2025-01-12 01:11:18.04	10.63	12.93	
2025-01-12 01:11:19.47	10.54	13.07	
2025-01-12 01:11:20.91	10.44	13.20	
2025-01-12 01:11:22.34	10.35	13.34	
2025-01-12 01:11:23.78	10.26	13.47	
2025-01-12 01:11:25.22	10.17	13.61	
2025-01-12 01:11:26.65	10.07	13.74	
2025-01-12 01:11:28.09	9.98	13.88	
2025-01-12 01:11:29.53	9.88	14.02	
2025-01-12 01:11:30.96	9.78	14.16	
2025-01-12 01:11:32.41	9.68	14.30	
2025-01-12 01:11:33.85	9.58	14.44	
2025-01-12 01:11:35.29	9.48	14.58	
2025-01-12 01:11:36.72	9.38	14.72	
2025-01-12 01:11:38.16	9.28	14.86	
2025-01-12 01:11:39.60	9.18	15.01	
2025-01-12 01:11:41.05	9.07	15.15	
2025-01-12 01:11:42.50	8.96	15.30	
2025-01-12 01:11:43.93	8.86	15.44	
2025-01-12 01:11:45.38	8.75	15.59	
2025-01-12 01:11:46.81	8.64	15.74	
2025-01-12 01:11:48.27	8.53	15.89	
2025-01-12 01:11:49.71	8.42	16.04	
2025-01-12 01:11:51.17	8.30	16.19	
2025-01-12 01:11:52.61	8.19	16.34	
2025-01-12 01:11:54.06	8.07	16.49	
2025-01-12 01:11:55.52	7.96	16.64	
2025-01-12 01:11:56.95	7.84	16.80	
2025-01-12 01:11:58.39	7.72	16.95	
2025-01-12 01:11:59.82	7.60	17.10	
2025-01-12 01:12:01.25	7.48	17.26	
2025-01-12 01:12:02.69	7.36	17.41	
2025-01-12 01:12:04.12	7.24	17.57	
2025-01-12 01:12:05.57	7.11	17.73	
2025-01-12 01:12:07.00	6.98	17.89	
2025-01-12 01:12:08.46	6.86	18.05	
2025-01-12 01:12:09.89	6.73	18.21	
2025-01-12 01:12:11.33	6.60	18.37	
2025-01-12 01:12:12.76	6.46	18.53	
2025-01-12 01:12:14.20	6.33	18.69	
2025-01-12 01:12:15.63	6.20	18.86	
2025-01-12 01:12:17.07	6.06	19.02	
2025-01-12 01:12:18.50	5.92	19.19	
2025-01-12 01:12:19.95	5.78	19.36	
2025-01-12 01:12:21.39	5.64	19.52	
2025-01-12 01:12:22.83	5.50	19.69	
2025-01-12 01:12:24.27	5.35	19.86	
2025-01-12 01:12:25.72	5.20	20.03	
2025-01-12 01:12:27.15	5.06	20.21	
2025-01-12 01:12:28.59	4.91	20.38	
2025-01-12 01:12:30.03	4.76	20.55	
2025-01-12 01:12:31.47	4.60	20.73	
2025-01-12 01:12:32.90	4.45	20.90	
2025-01-12 01:12:34.34	4.29	21.08	
2025-01-12 01:12:35.77	4.13	21.25	
2025-01-12 01:12:37.21	3.97	21.43	
2025-01-12 01:12:38.64	3.81	21.61	
2025-01-12 01:12:40.08	3.65	21.79	
2025-01-12 01:12:41.52	3.48	21.97	
2025-01-12 01:12:42.97	3.31	22.16	
2025-01-12 01:12:44.41	3.14	22.34	
2025-01-12 01:12:45.84	2.97	22.53	
2025-01-12 01:12:47.28	2.79	22.71	
2025-01-12 01:12:48.73	2.61	22.90	
2025-01-12 01:12:50.17	2.43	23.09	
2025-01-12 01:12:51.61	2.25	23.28	
2025-01-12 01:12:53.05	2.07	23.47	
2025-01-12 01:12:54.49	1.88	23.66	
2025-01-12 01:12:55.93	1.69	23.85	
2025-01-12 01:12:57.37	1.50	24.05	
2025-01-12 01:12:58.81	1.31	24.24	
2025-01-12 01:13:00.24	1.11	24.44	
2025-01-12 01:13:01.68	0.91	24.63	
2025-01-12 01:13:03.11	0.71	24.83	
2025-01-12 01:13:04.55	0.51	25.03	
2025-01-12 01:13:05.98	0.31	25.23	
2025-01-12 01:13:07.43	0.10	25.43	
2025-01-12 01:13:08.88	359.88	25.63	
2025-01-12 01:13:10.32	359.67	25.84	
2025-01-12 01:13:11.76	359.45	26.04	
2025-01-12 01:13:13.20	359.23	26.25	
2025-01-12 01:13:14.63	359.01	26.45	
2025-01-12 01:13:16.07	358.78	26.66	
2025-01-12 01:13:17.51	358.55	26.87	
2025-01-12 01:13:18.95	358.32	27.08	
2025-01-12 01:13:20.40	358.08	27.29	
2025-01-12 01:13:21.84	357.84	27.50	
2025-01-12 01:13:23.27	357.60	27.72	
2025-01-12 01:13:24.72	357.36	27.93	
2025-01-12 01:13:26.16	357.11	28.15	
2025-01-12 01:13:27.61	356.85	28.37	
2025-01-12 01:13:29.04	356.60	28.58	
2025-01-12 01:13:30.48	356.34	28.80	
2025-01-12 01:13:31.91	356.08	29.02	
2025-01-12 01:13:33.36	355.81	29.24	
2025-01-12 01:13:34.81	355.54	29.46	
2025-01-12 01:13:36.24	355.27	29.69	
2025-01-12 01:13:37.68	354.99	29.91	
2025-01-12 01:13:39.12	354.71	30.13	
2025-01-12 01:13:40.56	354.42	30.36	
2025-01-12 01:13:42.00	354.13	30.59	
2025-01-12 01:13:43.43	353.84	30.81	
2025-01-12 01:13:44.87	353.54	31.04	
2025-01-12 01:13:46.31	353.24	31.27	
2025-01-12 01:13:47.74	352.93	31.50	
2025-01-12 01:13:49.19	352.62	31.73	
2025-01-12 01:13:50.63	352.30	31.97	
2025-01-12 01:13:52.07	351.98	32.20	
2025-01-12 01:13:53.50	351.66	32.43	
2025-01-12 01:13:54.93	351.33	32.66	
2025-01-12 01:13:56.38	350.99	32.90	
2025-01-12 01:13:57.82	350.65	33.14	
2025-01-12 01:13:59.27	350.30	33.37	
2025-01-12 01:14:00.70	349.95	33.61	
2025-01-12 01:14:02.14	349.60	33.85	
2025-01-12 01:14:03.58	349.24	34.09	
2025-01-12 01:14:05.01	348.87	34.32	
2025-01-12 01:14:06.45	348.50	34.56	
2025-01-12 01:14:07.88	348.13	34.80	
2025-01-12 01:14:09.32	347.74	35.04	
2025-01-12 01:14:10.76	347.36	35.28	
2025-01-12 01:14:12.19	346.96	35.52	
2025-01-12 01:14:13.63	346.56	35.76	
2025-01-12 01:14:15.08	346.15	36.00	
2025-01-12 01:14:16.52	345.74	36.25	
2025-01-12 01:14:17.95	345.32	36.49	
2025-01-12 01:14:19.39	344.90	36.73	
2025-01-12 01:14:20.84	344.46	36.97	
2025-01-12 01:14:22.29	344.02	37.21	
2025-01-12 01:14:23.73	343.58	37.45	
2025-01-12 01:14:25.18	343.12	37.70	
2025-01-12 01:14:26.61	342.67	37.94	
2025-01-12 01:14:28.05	342.20	38.18	
2025-01-12 01:14:29.48	341.73	38.41	
2025-01-12 01:14:30.92	341.25	38.65	
2025-01-12 01:14:32.36	340.77	38.89	
2025-01-12 01:14:33.80	340.27	39.13	
2025-01-12 01:14:35.23	339.78	39.36	
2025-01-12 01:14:36.67	339.27	39.60	
2025-01-12 01:14:38.11	338.75	39.84	
2025-01-12 01:14:39.56	338.23	40.07	
2025-01-12 01:14:40.99	337.70	40.30	
2025-01-12 01:14:42.43	337.16	40.53	
2025-01-12 01:14:43.87	336.61	40.76	
2025-01-12 01:14:45.30	336.06	40.99	
2025-01-12 01:14:46.74	335.50	41.22	
2025-01-12 01:14:48.18	334.93	41.44	
2025-01-12 01:14:49.61	334.35	41.66	
2025-01-12 01:14:51.05	333.77	41.88	
2025-01-12 01:14:52.48	333.18	42.10	
2025-01-12 01:14:53.92	332.58	42.32	
2025-01-12 01:14:55.36	331.96	42.53	
2025-01-12 01:14:56.80	331.35	42.74	
2025-01-12 01:14:58.25	330.71	42.95	
2025-01-12 01:14:59.69	330.08	43.16	
2025-01-12 01:15:01.12	329.44	43.36	
2025-01-12 01:15:02.56	328.79	43.56	
2025-01-12 01:15:03.99	328.13	43.76	
2025-01-12 01:15:05.42	327.47	43.95	
2025-01-12 01:15:06.86	326.79	44.14	
2025-01-12 01:15:08.30	326.11	44.33	
2025-01-12 01:15:09.73	325.42	44.51	
2025-01-12 01:15:11.17	324.72	44.69	
2025-01-12 01:15:12.62	324.01	44.87	
2025-01-12 01:15:14.06	323.29	45.04	
2025-01-12 01:15:15.49	322.57	45.20	
2025-01-12 01:15:16.92	321.84	45.36	
2025-01-12 01:15:18.36	321.11	45.52	
2025-01-12 01:15:19.80	320.36	45.67	
2025-01-12 01:15:21.24	319.61	45.82	
2025-01-12 01:15:22.69	318.84	45.97	
2025-01-12 01:15:24.13	318.07	46.10	
2025-01-12 01:15:25.56	317.30	46.24	
2025-01-12 01:15:27.02	316.51	46.37	
2025-01-12 01:15:28.45	315.73	46.49	
2025-01-12 01:15:29.89	314.94	46.60	
2025-01-12 01:15:31.32	314.14	46.71	
2025-01-12 01:15:32.76	313.34	46.82	
2025-01-12 01:15:34.19	312.54	46.91	
2025-01-12 01:15:35.63	311.72	47.01	
2025-01-12 01:15:37.07	310.90	47.09	
2025-01-12 01:15:38.51	310.08	47.17	
2025-01-12 01:15:39.94	309.26	47.25	
2025-01-12 01:15:41.38	308.42	47.31	
2025-01-12 01:15:42.82	307.59	47.37	
2025-01-12 01:15:44.28	306.74	47.43	
2025-01-12 01:15:45.71	305.91	47.47	
2025-01-12 01:15:47.14	305.07	47.52	
2025-01-12 01:15:48.58	304.22	47.55	
2025-01-12 01:15:50.01	303.38	47.58	
2025-01-12 01:15:51.45	302.53	47.60	
2025-01-12 01:15:52.90	301.68	47.61	
2025-01-12 01:15:54.33	300.83	47.62	
2025-01-12 01:15:55.77	299.98	47.62	
2025-01-12 01:15:57.21	299.13	47.61	
2025-01-12 01:15:58.64	298.29	47.59	
2025-01-12 01:16:00.09	297.44	47.57	
2025-01-12 01:16:01.52	296.60	47.55	
2025-01-12 01:16:02.96	295.75	47.51	
2025-01-12 01:16:04.39	294.91	47.47	
2025-01-12 01:16:05.82	294.08	47.42	
2025-01-12 01:16:07.26	293.24	47.37	
2025-01-12 01:16:08.70	292.40	47.31	
2025-01-12 01:16:10.14	291.57	47.24	
2025-01-12 01:16:11.58	290.74	47.17	
2025-01-12 01:16:13.02	289.92	47.08	
2025-01-12 01:16:14.48	289.09	47.00	
2025-01-12 01:16:15.92	288.28	46.90	
2025-01-12 01:16:17.36	287.47	46.80	
2025-01-12 01:16:18.79	286.67	46.70	
2025-01-12 01:16:20.22	285.87	46.59	
2025-01-12 01:16:21.68	285.07	46.47	
2025-01-12 01:16:23.11	284.29	46.35	
2025-01-12 01:16:24.55	283.51	46.22	
2025-01-12 01:16:26.00	282.73	46.09	
2025-01-12 01:16:27.45	281.95	45.95	
2025-01-12 01:16:28.90	281.19	45.80	
2025-01-12 01:16:30.33	280.44	45.65	
2025-01-12 01:16:31.78	279.69	45.50	
2025-01-12 01:16:33.22	278.95	45.34	
2025-01-12 01:16:34.65	278.22	45.18	
2025-01-12 01:16:36.10	277.49	45.01	
2025-01-12 01:16:37.54	276.78	44.84	
2025-01-12 01:16:38.99	276.06	44.66	
2025-01-12 01:16:40.42	275.37	44.48	
2025-01-12 01:16:41.86	274.67	44.30	
2025-01-12 01:16:43.30	273.99	44.11	
2025-01-12 01:16:44.75	273.31	43.92	
2025-01-12 01:16:46.19	272.64	43.72	
2025-01-12 01:16:47.62	271.98	43.53	
2025-01-12 01:16:49.07	271.33	43.32	
2025-01-12 01:16:50.51	270.68	43.12	
2025-01-12 01:16:51.94	270.05	42.91	
2025-01-12 01:16:53.37	269.43	42.70	
2025-01-12 01:16:54.81	268.81	42.49	
2025-01-12 01:16:56.24	268.20	42.28	
2025-01-12 01:16:57.67	267.61	42.06	
2025-01-12 01:16:59.13	267.00	41.84	
2025-01-12 01:17:00.57	266.42	41.62	
2025-01-12 01:17:02.01	265.84	41.39	
2025-01-12 01:17:03.45	265.27	41.17	
2025-01-12 01:17:04.88	264.71	40.94	
2025-01-12 01:17:06.32	264.15	40.71	
2025-01-12 01:17:07.76	263.61	40.48	
2025-01-12 01:17:09.22	263.06	40.24	
2025-01-12 01:17:10.66	262.53	40.01	
2025-01-12 01:17:12.09	262.01	39.78	
2025-01-12 01:17:13.53	261.49	39.54	
2025-01-12 01:17:14.96	260.99	39.31	
2025-01-12 01:17:16.41	260.48	39.07	
2025-01-12 01:17:17.85	259.99	38.83	
2025-01-12 01:17:19.28	259.51	38.59	
2025-01-12 01:17:20.72	259.03	38.35	
2025-01-12 01:17:22.15	258.56	38.11	
2025-01-12 01:17:23.60	258.09	37.87	
2025-01-12 01:17:25.04	257.63	37.63	
2025-01-12 01:17:26.47	257.18	37.39	
2025-01-12 01:17:27.91	256.74	37.15	
2025-01-12 01:17:29.35	256.30	36.90	
2025-01-12 01:17:30.79	255.87	36.66	
2025-01-12 01:17:32.23	255.44	36.42	
2025-01-12 01:17:33.66	255.03	36.18	
2025-01-12 01:17:35.10	254.61	35.94	
2025-01-12 01:17:36.53	254.21	35.70	
2025-01-12 01:17:37.97	253.81	35.45	
2025-01-12 01:17:39.40	253.42	35.21	
2025-01-12 01:17:40.83	253.03	34.97	
2025-01-12 01:17:42.29	252.64	34.73	
2025-01-12 01:17:43.73	252.26	34.49	
2025-01-12 01:17:45.18	251.89	34.25	
2025-01-12 01:17:46.61	251.52	34.01	
2025-01-12 01:17:48.05	251.16	33.77	
2025-01-12 01:17:49.49	250.81	33.53	
2025-01-12 01:17:50.92	250.46	33.30	
2025-01-12 01:17:52.36	250.11	33.06	
2025-01-12 01:17:53.80	249.77	32.82	
2025-01-12 01:17:55.24	249.44	32.59	
2025-01-12 01:17:56.67	249.11	32.35	
2025-01-12 01:17:58.10	248.78	32.12	
2025-01-12 01:17:59.55	248.46	31.88	
2025-01-12 01:18:01.00	248.14	31.65	
2025-01-12 01:18:02.45	247.83	31.42	
2025-01-12 01:18:03.89	247.52	31.18	
2025-01-12 01:18:05.32	247.22	30.96	
2025-01-12 01:18:06.76	246.92	30.73	
2025-01-12 01:18:08.20	246.62	30.50	
2025-01-12 01:18:09.63	246.34	30.27	
2025-01-12 01:18:11.07	246.05	30.05	
2025-01-12 01:18:12.51	245.77	29.82	
2025-01-12 01:18:13.94	245.49	29.60	
2025-01-12 01:18:15.40	245.21	29.37	
2025-01-12 01:18:16.83	244.94	29.15	
2025-01-12 01:18:18.27	244.68	28.93	
2025-01-12 01:18:19.72	244.41	28.71	
2025-01-12 01:18:21.16	244.15	28.49	
2025-01-12 01:18:22.59	243.90	28.27	
2025-01-12 01:18:24.04	243.64	28.05	
2025-01-12 01:18:25.48	243.39	27.84	
2025-01-12 01:18:26.93	243.15	27.62	
2025-01-12 01:18:28.37	242.90	27.40	
2025-01-12 01:18:29.82	242.66	27.19	
2025-01-12 01:18:31.27	242.42	26.98	
2025-01-12 01:18:32.73	242.19	26.76	
2025-01-12 01:18:34.16	241.96	26.56	
2025-01-12 01:18:35.61	241.73	26.35	
2025-01-12 01:18:37.06	241.51	26.14	
2025-01-12 01:18:39.50	241.13	25.79	
2025-01-12 01:18:40.94	240.92	25.58	
2025-01-12 01:18:42.37	240.71	25.38	
2025-01-12 01:18:43.81	240.50	25.18	
2025-01-12 01:18:45.24	240.29	24.98	
2025-01-12 01:18:46.69	240.08	24.78	
2025-01-12 01:18:48.13	239.88	24.58	
2025-01-12 01:18:49.58	239.68	24.38	
2025-01-12 01:18:51.02	239.48	24.18	
2025-01-12 01:18:52.45	239.29	23.99	
2025-01-12 01:18:53.91	239.10	23.79	
2025-01-12 01:18:55.34	238.91	23.60	
2025-01-12 01:18:56.78	238.72	23.41	
2025-01-12 01:18:58.21	238.54	23.22	
2025-01-12 01:18:59.65	238.35	23.03	
2025-01-12 01:19:01.09	238.17	22.84	
2025-01-12 01:19:02.53	237.99	22.65	
2025-01-12 01:19:03.97	237.82	22.47	
2025-01-12 01:19:05.41	237.64	22.28	
2025-01-12 01:19:06.84	237.47	22.10	
2025-01-12 01:19:08.28	237.30	21.91	
2025-01-12 01:19:09.71	237.14	21.73	
2025-01-12 01:19:11.15	236.97	21.55	
2025-01-12 01:19:12.58	236.81	21.37	
2025-01-12 01:19:14.01	236.65	21.19	
2025-01-12 01:19:15.45	236.49	21.01	
2025-01-12 01:19:16.88	236.33	20.84	
2025-01-12 01:19:18.31	236.17	20.66	
2025-01-12 01:19:19.77	236.02	20.48	
2025-01-12 01:19:21.20	235.86	20.31	
2025-01-12 01:19:22.64	235.71	20.14	
2025-01-12 01:19:24.08	235.56	19.97	
2025-01-12 01:19:25.51	235.42	19.80	
2025-01-12 01:19:26.95	235.27	19.62	
2025-01-12 01:19:28.39	235.13	19.45	
2025-01-12 01:19:29.82	234.98	19.29	
2025-01-12 01:19:31.26	234.84	19.12	
2025-01-12 01:19:32.70	234.70	18.95	
2025-01-12 01:19:34.14	234.57	18.79	
2025-01-12 01:19:35.58	234.43	18.62	
2025-01-12 01:19:37.01	234.30	18.46	
2025-01-12 01:19:38.45	234.16	18.30	
2025-01-12 01:19:39.89	234.03	18.13	
2025-01-12 01:19:41.34	233.90	17.97	
2025-01-12 01:19:42.78	233.77	17.81	
2025-01-12 01:19:44.22	233.64	17.65	
2025-01-12 01:19:45.65	233.52	17.49	
2025-01-12 01:19:47.09	233.39	17.34	
2025-01-12 01:19:48.53	233.27	17.18	
2025-01-12 01:19:49.96	233.15	17.03	
2025-01-12 01:19:51.40	233.02	16.87	
2025-01-12 01:19:52.84	232.90	16.72	
2025-01-12 01:19:54.27	232.79	16.56	
2025-01-12 01:19:55.71	232.67	16.41	
2025-01-12 01:19:57.15	232.55	16.26	
2025-01-12 01:19:58.60	232.44	16.11	
2025-01-12 01:20:00.04	232.32	15.96	
2025-01-12 01:20:01.49	232.21	15.81	
2025-01-12 01:20:02.93	232.10	15.66	
2025-01-12 01:20:04.37	231.99	15.51	
2025-01-12 01:20:05.81	231.88	15.36	
2025-01-12 01:20:07.24	231.77	15.22	
2025-01-12 01:20:08.68	231.66	15.07	
2025-01-12 01:20:10.13	231.56	14.93	
2025-01-12 01:20:11.57	231.45	14.78	
2025-01-12 01:20:13.01	231.35	14.64	
2025-01-12 01:20:14.46	231.25	14.50	
2025-01-12 01:20:15.91	231.14	14.35	
2025-01-12 01:20:17.35	231.04	14.21	
2025-01-12 01:20:18.79	230.94	14.07	
2025-01-12 01:20:20.24	230.84	13.93	
2025-01-12 01:20:21.67	230.75	13.79	
2025-01-12 01:20:23.11	230.65	13.66	
2025-01-12 01:20:24.54	230.55	13.52	
2025-01-12 01:20:25.97	230.46	13.38	
2025-01-12 01:20:27.41	230.37	13.25	
2025-01-12 01:20:28.85	230.27	13.11	
2025-01-12 01:20:30.28	230.18	12.98	
2025-01-12 01:20:31.73	230.09	12.84	
2025-01-12 01:20:33.18	230.00	12.71	
2025-01-12 01:20:34.62	229.91	12.58	
2025-01-12 01:20:36.06	229.82	12.44	
2025-01-12 01:20:37.49	229.73	12.31	
2025-01-12 01:20:38.93	229.64	12.18	
2025-01-12 01:20:40.37	229.56	12.05	
2025-01-12 01:20:41.81	229.47	11.92	
2025-01-12 01:20:43.26	229.39	11.79	
2025-01-12 01:20:44.70	229.30	11.67	
2025-01-12 01:20:46.13	229.22	11.54	
2025-01-12 01:20:47.58	229.14	11.41	
2025-01-12 01:20:49.02	229.05	11.28	
2025-01-12 01:20:50.45	228.97	11.16	
2025-01-12 01:20:51.89	228.89	11.03	
2025-01-12 01:20:53.33	228.81	10.91	
2025-01-12 01:20:54.78	228.73	10.78	
2025-01-12 01:20:56.21	228.66	10.66	
2025-01-12 01:20:57.65	228.58	10.54	
2025-01-12 01:20:59.09	228.50	10.42	
2025-01-12 01:21:00.52	228.42	10.30	
2025-01-12 01:21:01.96	228.35	10.17	
2025-01-12 01:21:03.41	228.27	10.05	
2025-01-12 01:21:04.84	228.20	9.93	
2025-01-12 01:21:06.28	228.13	9.81	
2025-01-12 01:21:07.71	228.05	9.69	
2025-01-12 01:21:09.16	227.98	9.57	
2025-01-12 01:21:10.60	227.91	9.46	
2025-01-12 01:21:12.04	227.84	9.34	
2025-01-12 01:21:13.47	227.77	9.22	
2025-01-12 01:21:14.91	227.70	9.11	
2025-01-12 01:21:16.35	227.63	8.99	
2025-01-12 01:21:17.79	227.56	8.87	
2025-01-12 01:21:19.24	227.49	8.76	
2025-01-12 01:21:20.69	227.42	8.64	
2025-01-12 01:21:22.12	227.36	8.53	
2025-01-12 01:21:23.56	227.29	8.42	
2025-01-12 01:21:25.00	227.22	8.30	
2025-01-12 01:21:26.43	227.16	8.19	
2025-01-12 01:21:27.87	227.09	8.08	
2025-01-12 01:21:29.31	227.03	7.97	
2025-01-12 01:21:30.74	226.96	7.86	
2025-01-12 01:21:32.18	226.90	7.74	
2025-01-12 01:21:33.62	226.84	7.63	
2025-01-12 01:21:35.06	226.78	7.52	
2025-01-12 01:21:36.51	226.71	7.41	
2025-01-12 01:21:37.95	226.65	7.30	
2025-01-12 01:21:39.38	226.59	7.20	
2025-01-12 01:21:40.83	226.53	7.09	
2025-01-12 01:21:42.28	226.47	6.98	
2025-01-12 01:21:43.71	226.41	6.87	
2025-01-12 01:21:45.15	226.35	6.76	
2025-01-12 01:21:46.58	226.29	6.66	
2025-01-12 01:21:48.03	226.23	6.55	
2025-01-12 01:21:49.47	226.18	6.45	
2025-01-12 01:21:50.91	226.12	6.34	
2025-01-12 01:21:52.35	226.06	6.24	
2025-01-12 01:21:53.80	226.01	6.13	
2025-01-12 01:21:55.24	225.95	6.03	
2025-01-12 01:21:56.68	225.89	5.92	
2025-01-12 01:21:58.12	225.84	5.82	
2025-01-12 01:21:59.55	225.79	5.72	
2025-01-12 01:22:01.00	225.73	5.61	
2025-01-12 01:22:02.44	225.68	5.51	
2025-01-12 01:22:03.87	225.62	5.41	
2025-01-12 01:22:05.31	225.57	5.31	
2025-01-12 01:22:06.75	225.52	5.21	
2025-01-12 01:22:08.19	225.47	5.11	
2025-01-12 01:22:09.62	225.41	5.01	
2025-01-12 01:22:11.06	225.36	4.91	
2025-01-12 01:22:12.50	225.31	4.81	
2025-01-12 01:22:13.95	225.26	4.71	
2025-01-12 01:22:15.38	225.21	4.61	
2025-01-12 01:22:16.82	225.16	4.51	
2025-01-12 01:22:18.26	225.11	4.41	
2025-01-12 01:22:19.70	225.06	4.31	
2025-01-12 01:22:21.14	225.01	4.21	
2025-01-12 01:22:22.58	224.96	4.12	
2025-01-12 01:22:24.02	224.92	4.02	

#Closed at: 2025-01-12 01:22:24