passes_logs/2025/01/12/SPB_Silybum_02/SPB_Silybum_02__20250112_042951_SUOMI_NPP_rec.log

#Pass ID: 20250112_042951_SUOMI NPP
#Satellite: SUOMI NPP
#Configuration: NPP
#Start time: 2025-01-12 04:29:52

#Version: 2.0.20230423
#Station: SPB_Silybum_02
#Location: 30.233357 lon 59.946436 lat
#TLE: 1 37849U 11061A   25010.83173011  .00000170  00000+0  10148-3 0  9996
#TLE: 2 37849  98.7441 311.8732 0001811  47.3940 312.7388 14.19536379684322

#Time	Az	El	Level	Level2	SNR	BER	Gain	Gain2
2025-01-12 04:29:54.13	18.75	4.09	
2025-01-12 04:29:54.94	18.65	4.12	
2025-01-12 04:29:55.77	18.54	4.15	
2025-01-12 04:29:56.59	18.44	4.18	
2025-01-12 04:29:57.41	18.34	4.21	
2025-01-12 04:29:58.23	18.23	4.24	
2025-01-12 04:29:59.05	18.13	4.27	
2025-01-12 04:29:59.87	18.03	4.30	
2025-01-12 04:30:00.69	17.92	4.33	
2025-01-12 04:30:01.51	17.82	4.36	
2025-01-12 04:30:02.34	17.71	4.38	
2025-01-12 04:30:03.15	17.61	4.41	
2025-01-12 04:30:03.97	17.50	4.44	
2025-01-12 04:30:04.79	17.40	4.47	
2025-01-12 04:30:05.61	17.29	4.50	
2025-01-12 04:30:06.44	17.19	4.53	
2025-01-12 04:30:07.25	17.08	4.55	
2025-01-12 04:30:08.09	16.97	4.58	
2025-01-12 04:30:08.91	16.87	4.61	
2025-01-12 04:30:09.73	16.76	4.64	
2025-01-12 04:30:10.55	16.65	4.67	
2025-01-12 04:30:11.37	16.55	4.70	
2025-01-12 04:30:12.19	16.44	4.72	
2025-01-12 04:30:13.01	16.33	4.75	
2025-01-12 04:30:13.84	16.22	4.78	
2025-01-12 04:30:14.67	16.11	4.81	
2025-01-12 04:30:15.50	16.00	4.84	
2025-01-12 04:30:16.31	15.90	4.86	
2025-01-12 04:30:17.14	15.79	4.89	
2025-01-12 04:30:17.96	15.68	4.92	
2025-01-12 04:30:18.78	15.57	4.95	
2025-01-12 04:30:19.59	15.46	4.97	
2025-01-12 04:30:20.42	15.35	5.00	
2025-01-12 04:30:21.24	15.24	5.03	
2025-01-12 04:30:22.05	15.13	5.06	
2025-01-12 04:30:22.87	15.02	5.08	
2025-01-12 04:30:23.70	14.91	5.11	
2025-01-12 04:30:24.52	14.80	5.14	
2025-01-12 04:30:25.34	14.69	5.16	
2025-01-12 04:30:26.16	14.58	5.19	
2025-01-12 04:30:26.98	14.47	5.22	
2025-01-12 04:30:27.80	14.36	5.24	
2025-01-12 04:30:28.62	14.25	5.27	
2025-01-12 04:30:29.44	14.14	5.30	
2025-01-12 04:30:30.26	14.03	5.32	
2025-01-12 04:30:31.08	13.91	5.35	
2025-01-12 04:30:31.90	13.80	5.38	
2025-01-12 04:30:32.72	13.69	5.40	
2025-01-12 04:30:33.54	13.58	5.43	
2025-01-12 04:30:34.36	13.46	5.45	
2025-01-12 04:30:35.18	13.35	5.48	
2025-01-12 04:30:36.00	13.24	5.51	
2025-01-12 04:30:36.83	13.12	5.53	
2025-01-12 04:30:37.64	13.01	5.56	
2025-01-12 04:30:38.47	12.90	5.58	
2025-01-12 04:30:39.29	12.78	5.61	
2025-01-12 04:30:40.11	12.67	5.63	
2025-01-12 04:30:40.93	12.55	5.66	
2025-01-12 04:30:41.76	12.44	5.69	
2025-01-12 04:30:42.58	12.32	5.71	
2025-01-12 04:30:43.40	12.21	5.74	
2025-01-12 04:30:44.22	12.09	5.76	
2025-01-12 04:30:45.04	11.98	5.79	
2025-01-12 04:30:45.86	11.86	5.81	
2025-01-12 04:30:46.68	11.75	5.84	
2025-01-12 04:30:47.50	11.63	5.86	
2025-01-12 04:30:48.32	11.51	5.89	
2025-01-12 04:30:49.14	11.40	5.91	
2025-01-12 04:30:49.96	11.28	5.93	
2025-01-12 04:30:50.78	11.16	5.96	
2025-01-12 04:30:51.62	11.04	5.98	
2025-01-12 04:30:52.44	10.93	6.01	
2025-01-12 04:30:53.26	10.81	6.03	
2025-01-12 04:30:54.09	10.69	6.06	
2025-01-12 04:30:54.91	10.57	6.08	
2025-01-12 04:30:55.73	10.45	6.10	
2025-01-12 04:30:56.55	10.34	6.13	
2025-01-12 04:30:57.39	10.21	6.15	
2025-01-12 04:30:58.22	10.09	6.18	
2025-01-12 04:30:59.04	9.98	6.20	
2025-01-12 04:30:59.88	9.85	6.22	
2025-01-12 04:31:00.70	9.73	6.25	
2025-01-12 04:31:01.52	9.62	6.27	
2025-01-12 04:31:02.34	9.50	6.29	
2025-01-12 04:31:03.16	9.38	6.32	
2025-01-12 04:31:03.98	9.26	6.34	
2025-01-12 04:31:04.80	9.14	6.36	
2025-01-12 04:31:05.61	9.02	6.38	
2025-01-12 04:31:06.43	8.90	6.41	
2025-01-12 04:31:07.25	8.78	6.43	
2025-01-12 04:31:08.07	8.65	6.45	
2025-01-12 04:31:08.89	8.53	6.47	
2025-01-12 04:31:09.71	8.41	6.50	
2025-01-12 04:31:10.53	8.29	6.52	
2025-01-12 04:31:11.35	8.17	6.54	
2025-01-12 04:31:12.17	8.05	6.56	
2025-01-12 04:31:12.99	7.93	6.58	
2025-01-12 04:31:13.81	7.80	6.61	
2025-01-12 04:31:14.63	7.68	6.63	
2025-01-12 04:31:15.45	7.56	6.65	
2025-01-12 04:31:16.27	7.44	6.67	
2025-01-12 04:31:17.10	7.31	6.69	
2025-01-12 04:31:17.92	7.19	6.71	
2025-01-12 04:31:18.74	7.06	6.73	
2025-01-12 04:31:19.57	6.94	6.76	
2025-01-12 04:31:20.39	6.82	6.78	
2025-01-12 04:31:21.22	6.69	6.80	
2025-01-12 04:31:22.05	6.56	6.82	
2025-01-12 04:31:22.87	6.44	6.84	
2025-01-12 04:31:23.68	6.32	6.86	
2025-01-12 04:31:24.51	6.19	6.88	
2025-01-12 04:31:25.33	6.07	6.90	
2025-01-12 04:31:26.16	5.94	6.92	
2025-01-12 04:31:26.98	5.82	6.94	
2025-01-12 04:31:27.80	5.69	6.96	
2025-01-12 04:31:28.63	5.56	6.98	
2025-01-12 04:31:29.45	5.44	7.00	
2025-01-12 04:31:30.27	5.31	7.02	
2025-01-12 04:31:31.10	5.18	7.04	
2025-01-12 04:31:31.92	5.06	7.06	
2025-01-12 04:31:32.75	4.93	7.08	
2025-01-12 04:31:33.59	4.80	7.10	
2025-01-12 04:31:34.41	4.67	7.12	
2025-01-12 04:31:35.23	4.55	7.14	
2025-01-12 04:31:36.05	4.42	7.15	
2025-01-12 04:31:36.87	4.29	7.17	
2025-01-12 04:31:37.69	4.16	7.19	
2025-01-12 04:31:38.52	4.04	7.21	
2025-01-12 04:31:39.33	3.91	7.23	
2025-01-12 04:31:40.17	3.78	7.25	
2025-01-12 04:31:40.99	3.65	7.26	
2025-01-12 04:31:41.81	3.52	7.28	
2025-01-12 04:31:42.64	3.39	7.30	
2025-01-12 04:31:43.46	3.26	7.32	
2025-01-12 04:31:44.29	3.13	7.33	
2025-01-12 04:31:45.13	3.00	7.35	
2025-01-12 04:31:45.95	2.87	7.37	
2025-01-12 04:31:46.78	2.74	7.39	
2025-01-12 04:31:47.60	2.61	7.40	
2025-01-12 04:31:48.42	2.48	7.42	
2025-01-12 04:31:49.24	2.35	7.44	
2025-01-12 04:31:50.07	2.22	7.45	
2025-01-12 04:31:50.89	2.09	7.47	
2025-01-12 04:31:51.71	1.96	7.49	
2025-01-12 04:31:52.53	1.83	7.50	
2025-01-12 04:31:53.35	1.70	7.52	
2025-01-12 04:31:54.17	1.57	7.54	
2025-01-12 04:31:55.00	1.44	7.55	
2025-01-12 04:31:55.82	1.31	7.57	
2025-01-12 04:31:56.65	1.18	7.58	
2025-01-12 04:31:57.47	1.05	7.60	
2025-01-12 04:31:58.28	0.92	7.61	
2025-01-12 04:31:59.10	0.78	7.63	
2025-01-12 04:31:59.92	0.65	7.64	
2025-01-12 04:32:00.74	0.52	7.66	
2025-01-12 04:32:01.56	0.39	7.67	
2025-01-12 04:32:02.38	0.26	7.69	
2025-01-12 04:32:03.20	0.13	7.70	
2025-01-12 04:32:04.03	359.99	7.72	
2025-01-12 04:32:04.85	359.86	7.73	
2025-01-12 04:32:05.69	359.72	7.75	
2025-01-12 04:32:06.52	359.59	7.76	
2025-01-12 04:32:07.34	359.46	7.77	
2025-01-12 04:32:08.16	359.32	7.79	
2025-01-12 04:32:08.99	359.19	7.80	
2025-01-12 04:32:09.80	359.06	7.81	
2025-01-12 04:32:10.64	358.92	7.83	
2025-01-12 04:32:11.46	358.79	7.84	
2025-01-12 04:32:12.29	358.65	7.85	
2025-01-12 04:32:13.12	358.52	7.87	
2025-01-12 04:32:13.94	358.38	7.88	
2025-01-12 04:32:14.76	358.25	7.89	
2025-01-12 04:32:15.58	358.12	7.90	
2025-01-12 04:32:16.41	357.98	7.92	
2025-01-12 04:32:17.24	357.85	7.93	
2025-01-12 04:32:18.06	357.71	7.94	
2025-01-12 04:32:18.88	357.58	7.95	
2025-01-12 04:32:19.70	357.44	7.96	
2025-01-12 04:32:20.53	357.31	7.98	
2025-01-12 04:32:21.35	357.17	7.99	
2025-01-12 04:32:22.17	357.04	8.00	
2025-01-12 04:32:23.00	356.90	8.01	
2025-01-12 04:32:23.82	356.77	8.02	
2025-01-12 04:32:24.65	356.63	8.03	
2025-01-12 04:32:25.48	356.49	8.04	
2025-01-12 04:32:26.30	356.36	8.05	
2025-01-12 04:32:27.12	356.22	8.06	
2025-01-12 04:32:27.94	356.09	8.07	
2025-01-12 04:32:28.76	355.95	8.08	
2025-01-12 04:32:29.58	355.81	8.09	
2025-01-12 04:32:30.40	355.68	8.10	
2025-01-12 04:32:31.22	355.54	8.11	
2025-01-12 04:32:32.04	355.41	8.12	
2025-01-12 04:32:32.86	355.27	8.13	
2025-01-12 04:32:33.68	355.13	8.14	
2025-01-12 04:32:34.51	355.00	8.15	
2025-01-12 04:32:35.33	354.86	8.16	
2025-01-12 04:32:36.15	354.72	8.17	
2025-01-12 04:32:36.97	354.59	8.18	
2025-01-12 04:32:37.80	354.45	8.19	
2025-01-12 04:32:38.62	354.31	8.19	
2025-01-12 04:32:39.44	354.18	8.20	
2025-01-12 04:32:40.26	354.04	8.21	
2025-01-12 04:32:41.08	353.90	8.22	
2025-01-12 04:32:41.91	353.76	8.23	
2025-01-12 04:32:42.73	353.63	8.23	
2025-01-12 04:32:43.55	353.49	8.24	
2025-01-12 04:32:44.37	353.35	8.25	
2025-01-12 04:32:45.19	353.21	8.25	
2025-01-12 04:32:46.01	353.08	8.26	
2025-01-12 04:32:46.83	352.94	8.27	
2025-01-12 04:32:47.65	352.80	8.27	
2025-01-12 04:32:48.47	352.66	8.28	
2025-01-12 04:32:49.29	352.53	8.29	
2025-01-12 04:32:50.12	352.39	8.29	
2025-01-12 04:32:50.95	352.25	8.30	
2025-01-12 04:32:51.77	352.11	8.31	
2025-01-12 04:32:52.59	351.97	8.31	
2025-01-12 04:32:53.41	351.83	8.32	
2025-01-12 04:32:54.23	351.70	8.32	
2025-01-12 04:32:55.05	351.56	8.33	
2025-01-12 04:32:55.88	351.42	8.33	
2025-01-12 04:32:56.71	351.28	8.34	
2025-01-12 04:32:57.53	351.14	8.34	
2025-01-12 04:32:58.35	351.00	8.35	
2025-01-12 04:32:59.17	350.86	8.35	
2025-01-12 04:32:59.99	350.73	8.36	
2025-01-12 04:33:00.81	350.59	8.36	
2025-01-12 04:33:01.63	350.45	8.36	
2025-01-12 04:33:02.45	350.31	8.37	
2025-01-12 04:33:03.28	350.17	8.37	
2025-01-12 04:33:04.10	350.03	8.37	
2025-01-12 04:33:04.92	349.89	8.38	
2025-01-12 04:33:05.76	349.75	8.38	
2025-01-12 04:33:06.58	349.61	8.38	
2025-01-12 04:33:07.40	349.48	8.39	
2025-01-12 04:33:08.22	349.34	8.39	
2025-01-12 04:33:09.06	349.20	8.39	
2025-01-12 04:33:09.88	349.06	8.39	
2025-01-12 04:33:10.70	348.92	8.40	
2025-01-12 04:33:11.52	348.78	8.40	
2025-01-12 04:33:12.35	348.64	8.40	
2025-01-12 04:33:13.16	348.50	8.40	
2025-01-12 04:33:13.99	348.36	8.40	
2025-01-12 04:33:14.81	348.22	8.40	
2025-01-12 04:33:15.63	348.08	8.41	
2025-01-12 04:33:16.45	347.95	8.41	
2025-01-12 04:33:17.27	347.81	8.41	
2025-01-12 04:33:18.09	347.67	8.41	
2025-01-12 04:33:18.91	347.53	8.41	
2025-01-12 04:33:19.74	347.39	8.41	
2025-01-12 04:33:20.57	347.25	8.41	
2025-01-12 04:33:21.38	347.11	8.41	
2025-01-12 04:33:22.21	346.97	8.41	
2025-01-12 04:33:23.03	346.83	8.41	
2025-01-12 04:33:23.85	346.69	8.41	
2025-01-12 04:33:24.67	346.55	8.41	
2025-01-12 04:33:25.49	346.42	8.41	
2025-01-12 04:33:26.31	346.28	8.41	
2025-01-12 04:33:27.13	346.14	8.41	
2025-01-12 04:33:27.95	346.00	8.41	
2025-01-12 04:33:28.77	345.86	8.40	
2025-01-12 04:33:29.59	345.72	8.40	
2025-01-12 04:33:30.41	345.58	8.40	
2025-01-12 04:33:31.25	345.44	8.40	
2025-01-12 04:33:32.07	345.30	8.40	
2025-01-12 04:33:32.89	345.16	8.40	
2025-01-12 04:33:33.71	345.02	8.39	
2025-01-12 04:33:34.54	344.88	8.39	
2025-01-12 04:33:35.37	344.74	8.39	
2025-01-12 04:33:36.19	344.61	8.38	
2025-01-12 04:33:37.03	344.46	8.38	
2025-01-12 04:33:37.86	344.32	8.38	
2025-01-12 04:33:38.68	344.18	8.38	
2025-01-12 04:33:39.50	344.05	8.37	
2025-01-12 04:33:40.32	343.91	8.37	
2025-01-12 04:33:41.14	343.77	8.36	
2025-01-12 04:33:41.96	343.63	8.36	
2025-01-12 04:33:42.79	343.49	8.36	
2025-01-12 04:33:43.63	343.35	8.35	
2025-01-12 04:33:44.45	343.21	8.35	
2025-01-12 04:33:45.27	343.07	8.34	
2025-01-12 04:33:46.09	342.93	8.34	
2025-01-12 04:33:46.91	342.80	8.33	
2025-01-12 04:33:47.73	342.66	8.33	
2025-01-12 04:33:48.56	342.52	8.32	
2025-01-12 04:33:49.38	342.38	8.32	
2025-01-12 04:33:50.20	342.24	8.31	
2025-01-12 04:33:51.03	342.10	8.31	
2025-01-12 04:33:51.84	341.97	8.30	
2025-01-12 04:33:52.68	341.83	8.30	
2025-01-12 04:33:53.50	341.69	8.29	
2025-01-12 04:33:54.32	341.55	8.28	
2025-01-12 04:33:55.14	341.41	8.28	
2025-01-12 04:33:55.96	341.28	8.27	
2025-01-12 04:33:56.78	341.14	8.26	
2025-01-12 04:33:57.61	341.00	8.26	
2025-01-12 04:33:58.43	340.86	8.25	
2025-01-12 04:33:59.24	340.73	8.24	
2025-01-12 04:34:00.07	340.59	8.24	
2025-01-12 04:34:00.88	340.45	8.23	
2025-01-12 04:34:01.72	340.31	8.22	
2025-01-12 04:34:02.54	340.17	8.21	
2025-01-12 04:34:03.36	340.04	8.21	
2025-01-12 04:34:04.18	339.90	8.20	
2025-01-12 04:34:05.00	339.76	8.19	
2025-01-12 04:34:05.82	339.63	8.18	
2025-01-12 04:34:06.64	339.49	8.17	
2025-01-12 04:34:07.47	339.35	8.16	
2025-01-12 04:34:08.29	339.22	8.15	
2025-01-12 04:34:09.11	339.08	8.15	
2025-01-12 04:34:09.93	338.94	8.14	
2025-01-12 04:34:10.75	338.81	8.13	
2025-01-12 04:34:11.57	338.67	8.12	
2025-01-12 04:34:12.39	338.54	8.11	
2025-01-12 04:34:13.22	338.40	8.10	
2025-01-12 04:34:14.03	338.26	8.09	
2025-01-12 04:34:14.86	338.13	8.08	
2025-01-12 04:34:15.68	337.99	8.07	
2025-01-12 04:34:16.50	337.86	8.06	
2025-01-12 04:34:17.32	337.72	8.05	
2025-01-12 04:34:18.14	337.59	8.04	
2025-01-12 04:34:18.97	337.45	8.03	
2025-01-12 04:34:19.79	337.31	8.02	
2025-01-12 04:34:20.61	337.18	8.00	
2025-01-12 04:34:21.43	337.04	7.99	
2025-01-12 04:34:22.25	336.91	7.98	
2025-01-12 04:34:23.07	336.77	7.97	
2025-01-12 04:34:23.89	336.64	7.96	
2025-01-12 04:34:24.71	336.50	7.95	
2025-01-12 04:34:25.53	336.37	7.93	
2025-01-12 04:34:26.36	336.23	7.92	
2025-01-12 04:34:27.18	336.10	7.91	
2025-01-12 04:34:28.00	335.97	7.90	
2025-01-12 04:34:28.82	335.83	7.89	
2025-01-12 04:34:29.64	335.70	7.87	
2025-01-12 04:34:30.46	335.57	7.86	
2025-01-12 04:34:31.28	335.43	7.85	
2025-01-12 04:34:32.10	335.30	7.83	
2025-01-12 04:34:32.92	335.16	7.82	
2025-01-12 04:34:33.75	335.03	7.81	
2025-01-12 04:34:34.57	334.90	7.79	
2025-01-12 04:34:35.39	334.76	7.78	
2025-01-12 04:34:36.21	334.63	7.77	
2025-01-12 04:34:37.03	334.50	7.75	
2025-01-12 04:34:37.85	334.37	7.74	
2025-01-12 04:34:38.68	334.23	7.72	
2025-01-12 04:34:39.50	334.10	7.71	
2025-01-12 04:34:40.32	333.97	7.70	
2025-01-12 04:34:41.14	333.84	7.68	
2025-01-12 04:34:41.96	333.70	7.67	
2025-01-12 04:34:42.79	333.57	7.65	
2025-01-12 04:34:43.61	333.44	7.64	
2025-01-12 04:34:44.44	333.31	7.62	
2025-01-12 04:34:45.28	333.17	7.61	
2025-01-12 04:34:46.11	333.04	7.59	
2025-01-12 04:34:46.95	332.90	7.57	
2025-01-12 04:34:47.77	332.77	7.56	
2025-01-12 04:34:48.60	332.64	7.54	
2025-01-12 04:34:49.42	332.51	7.53	
2025-01-12 04:34:50.24	332.38	7.51	
2025-01-12 04:34:51.06	332.25	7.49	
2025-01-12 04:34:51.88	332.12	7.48	
2025-01-12 04:34:52.70	331.99	7.46	
2025-01-12 04:34:53.52	331.86	7.45	
2025-01-12 04:34:54.35	331.73	7.43	
2025-01-12 04:34:55.17	331.60	7.41	
2025-01-12 04:34:56.00	331.47	7.39	
2025-01-12 04:34:56.82	331.34	7.38	
2025-01-12 04:34:57.64	331.21	7.36	
2025-01-12 04:34:58.46	331.08	7.34	
2025-01-12 04:34:59.28	330.95	7.33	
2025-01-12 04:35:00.10	330.82	7.31	
2025-01-12 04:35:00.92	330.69	7.29	
2025-01-12 04:35:01.74	330.57	7.27	
2025-01-12 04:35:02.57	330.44	7.25	
2025-01-12 04:35:03.38	330.31	7.24	
2025-01-12 04:35:04.20	330.18	7.22	
2025-01-12 04:35:05.02	330.05	7.20	
2025-01-12 04:35:05.86	329.92	7.18	
2025-01-12 04:35:06.68	329.80	7.16	
2025-01-12 04:35:07.49	329.67	7.14	
2025-01-12 04:35:08.31	329.54	7.13	
2025-01-12 04:35:09.14	329.41	7.11	
2025-01-12 04:35:09.96	329.29	7.09	
2025-01-12 04:35:10.78	329.16	7.07	
2025-01-12 04:35:11.60	329.04	7.05	
2025-01-12 04:35:12.42	328.91	7.03	
2025-01-12 04:35:13.26	328.78	7.01	
2025-01-12 04:35:14.08	328.65	6.99	
2025-01-12 04:35:14.90	328.53	6.97	
2025-01-12 04:35:15.73	328.40	6.95	
2025-01-12 04:35:16.55	328.28	6.93	
2025-01-12 04:35:17.37	328.15	6.91	
2025-01-12 04:35:18.19	328.03	6.89	
2025-01-12 04:35:19.01	327.90	6.87	
2025-01-12 04:35:19.83	327.78	6.85	
2025-01-12 04:35:20.66	327.65	6.83	
2025-01-12 04:35:21.47	327.53	6.81	
2025-01-12 04:35:22.29	327.40	6.79	
2025-01-12 04:35:23.12	327.28	6.77	
2025-01-12 04:35:23.94	327.15	6.75	
2025-01-12 04:35:24.76	327.03	6.73	
2025-01-12 04:35:25.58	326.91	6.70	
2025-01-12 04:35:26.40	326.78	6.68	
2025-01-12 04:35:27.22	326.66	6.66	
2025-01-12 04:35:28.05	326.54	6.64	
2025-01-12 04:35:28.87	326.41	6.62	
2025-01-12 04:35:29.69	326.29	6.60	
2025-01-12 04:35:30.51	326.17	6.58	
2025-01-12 04:35:31.33	326.05	6.55	
2025-01-12 04:35:32.15	325.93	6.53	
2025-01-12 04:35:32.97	325.80	6.51	
2025-01-12 04:35:33.79	325.68	6.49	
2025-01-12 04:35:34.61	325.56	6.46	
2025-01-12 04:35:35.43	325.44	6.44	
2025-01-12 04:35:36.25	325.32	6.42	
2025-01-12 04:35:37.07	325.20	6.40	
2025-01-12 04:35:37.90	325.08	6.37	
2025-01-12 04:35:38.72	324.96	6.35	
2025-01-12 04:35:39.54	324.84	6.33	
2025-01-12 04:35:40.36	324.72	6.31	
2025-01-12 04:35:41.19	324.59	6.28	
2025-01-12 04:35:42.01	324.48	6.26	
2025-01-12 04:35:42.83	324.36	6.24	
2025-01-12 04:35:43.65	324.24	6.21	
2025-01-12 04:35:44.47	324.12	6.19	
2025-01-12 04:35:45.31	324.00	6.17	
2025-01-12 04:35:46.13	323.88	6.14	
2025-01-12 04:35:46.95	323.76	6.12	
2025-01-12 04:35:47.77	323.64	6.09	
2025-01-12 04:35:48.59	323.52	6.07	
2025-01-12 04:35:49.41	323.40	6.05	
2025-01-12 04:35:50.23	323.29	6.02	
2025-01-12 04:35:51.05	323.17	6.00	
2025-01-12 04:35:51.87	323.05	5.97	
2025-01-12 04:35:52.71	322.93	5.95	
2025-01-12 04:35:53.53	322.82	5.92	
2025-01-12 04:35:54.35	322.70	5.90	
2025-01-12 04:35:55.17	322.58	5.88	
2025-01-12 04:35:55.99	322.47	5.85	
2025-01-12 04:35:56.83	322.35	5.83	
2025-01-12 04:35:57.64	322.23	5.80	
2025-01-12 04:35:58.46	322.12	5.78	
2025-01-12 04:35:59.29	322.00	5.75	
2025-01-12 04:36:00.10	321.89	5.73	
2025-01-12 04:36:00.93	321.77	5.70	
2025-01-12 04:36:01.75	321.66	5.67	
2025-01-12 04:36:02.57	321.54	5.65	
2025-01-12 04:36:03.39	321.43	5.62	
2025-01-12 04:36:04.21	321.31	5.60	
2025-01-12 04:36:05.04	321.20	5.57	
2025-01-12 04:36:05.87	321.08	5.55	
2025-01-12 04:36:06.69	320.97	5.52	
2025-01-12 04:36:07.53	320.85	5.49	
2025-01-12 04:36:08.35	320.74	5.47	
2025-01-12 04:36:09.17	320.63	5.44	
2025-01-12 04:36:10.00	320.51	5.42	
2025-01-12 04:36:10.82	320.40	5.39	
2025-01-12 04:36:11.64	320.29	5.36	
2025-01-12 04:36:12.46	320.17	5.34	
2025-01-12 04:36:13.28	320.06	5.31	
2025-01-12 04:36:14.10	319.95	5.28	
2025-01-12 04:36:14.93	319.84	5.26	
2025-01-12 04:36:15.74	319.73	5.23	
2025-01-12 04:36:16.57	319.62	5.20	
2025-01-12 04:36:17.38	319.51	5.18	
2025-01-12 04:36:18.20	319.40	5.15	
2025-01-12 04:36:19.02	319.29	5.12	
2025-01-12 04:36:19.84	319.17	5.10	
2025-01-12 04:36:20.67	319.06	5.07	
2025-01-12 04:36:21.49	318.95	5.04	
2025-01-12 04:36:22.31	318.84	5.01	
2025-01-12 04:36:23.13	318.73	4.99	
2025-01-12 04:36:23.96	318.62	4.96	
2025-01-12 04:36:24.77	318.52	4.93	
2025-01-12 04:36:25.59	318.41	4.91	
2025-01-12 04:36:26.41	318.30	4.88	
2025-01-12 04:36:27.24	318.19	4.85	
2025-01-12 04:36:28.07	318.08	4.82	
2025-01-12 04:36:28.89	317.97	4.79	
2025-01-12 04:36:29.71	317.86	4.77	
2025-01-12 04:36:30.53	317.76	4.74	
2025-01-12 04:36:31.35	317.65	4.71	
2025-01-12 04:36:32.17	317.54	4.68	
2025-01-12 04:36:33.00	317.43	4.65	
2025-01-12 04:36:33.84	317.32	4.63	
2025-01-12 04:36:34.67	317.22	4.60	
2025-01-12 04:36:35.48	317.11	4.57	
2025-01-12 04:36:36.31	317.00	4.54	
2025-01-12 04:36:37.13	316.90	4.51	
2025-01-12 04:36:37.95	316.79	4.48	
2025-01-12 04:36:38.79	316.68	4.45	
2025-01-12 04:36:39.62	316.58	4.43	
2025-01-12 04:36:40.44	316.47	4.40	
2025-01-12 04:36:41.26	316.37	4.37	
2025-01-12 04:36:42.09	316.26	4.34	
2025-01-12 04:36:42.90	316.16	4.31	
2025-01-12 04:36:43.73	316.05	4.28	
2025-01-12 04:36:44.56	315.95	4.25	
2025-01-12 04:36:45.38	315.84	4.22	
2025-01-12 04:36:46.20	315.74	4.19	
2025-01-12 04:36:47.02	315.64	4.17	
2025-01-12 04:36:47.85	315.53	4.14	
2025-01-12 04:36:48.67	315.43	4.11	
2025-01-12 04:36:49.50	315.33	4.08	
2025-01-12 04:36:50.32	315.22	4.05	
2025-01-12 04:36:51.14	315.12	4.02	

#Closed at: 2025-01-12 04:36:51