passes_logs/2025/01/12/SPB_Silybum_02/SPB_Silybum_02__20250112_230143_AQUA_rec.log

#Pass ID: 20250112_230143_AQUA
#Satellite: AQUA
#Configuration: AQUA
#Start time: 2025-01-12 23:01:41

#Version: 2.0.20230423
#Station: SPB_Silybum_02
#Location: 30.233357 lon 59.946436 lat
#TLE: 1 27424U 02022A   25012.20730597  .00001826  00000+0  38477-3 0  9996
#TLE: 2 27424  98.3584 328.8461 0001605 114.2253 358.7733 14.60671943207219

#Time	Az	El	Level	Level2	SNR	BER	Gain	Gain2
2025-01-12 23:01:44.00	37.98	4.01	
2025-01-12 23:01:44.82	38.09	4.04	
2025-01-12 23:01:45.64	38.19	4.08	
2025-01-12 23:01:46.46	38.30	4.11	
2025-01-12 23:01:47.28	38.41	4.15	
2025-01-12 23:01:48.11	38.52	4.18	
2025-01-12 23:01:48.93	38.63	4.22	
2025-01-12 23:01:49.75	38.74	4.25	
2025-01-12 23:01:50.57	38.85	4.28	
2025-01-12 23:01:51.39	38.96	4.32	
2025-01-12 23:01:52.21	39.07	4.35	
2025-01-12 23:01:53.04	39.18	4.39	
2025-01-12 23:01:53.87	39.30	4.42	
2025-01-12 23:01:54.69	39.41	4.46	
2025-01-12 23:01:55.50	39.52	4.49	
2025-01-12 23:01:56.32	39.63	4.53	
2025-01-12 23:01:57.15	39.74	4.56	
2025-01-12 23:01:57.96	39.85	4.59	
2025-01-12 23:01:58.78	39.97	4.63	
2025-01-12 23:01:59.60	40.08	4.66	
2025-01-12 23:02:00.43	40.19	4.70	
2025-01-12 23:02:01.26	40.31	4.73	
2025-01-12 23:02:02.07	40.42	4.77	
2025-01-12 23:02:02.89	40.53	4.80	
2025-01-12 23:02:03.72	40.65	4.83	
2025-01-12 23:02:04.54	40.76	4.87	
2025-01-12 23:02:05.38	40.88	4.90	
2025-01-12 23:02:06.20	41.00	4.94	
2025-01-12 23:02:07.02	41.11	4.97	
2025-01-12 23:02:07.84	41.23	5.01	
2025-01-12 23:02:08.67	41.35	5.04	
2025-01-12 23:02:09.49	41.46	5.07	
2025-01-12 23:02:10.31	41.58	5.11	
2025-01-12 23:02:11.13	41.69	5.14	
2025-01-12 23:02:11.95	41.81	5.17	
2025-01-12 23:02:12.77	41.93	5.21	
2025-01-12 23:02:13.59	42.05	5.24	
2025-01-12 23:02:14.41	42.16	5.28	
2025-01-12 23:02:15.23	42.28	5.31	
2025-01-12 23:02:16.05	42.40	5.34	
2025-01-12 23:02:16.87	42.52	5.38	
2025-01-12 23:02:17.69	42.64	5.41	
2025-01-12 23:02:18.52	42.76	5.44	
2025-01-12 23:02:19.34	42.88	5.48	
2025-01-12 23:02:20.17	43.00	5.51	
2025-01-12 23:02:21.01	43.12	5.54	
2025-01-12 23:02:21.82	43.24	5.58	
2025-01-12 23:02:22.64	43.36	5.61	
2025-01-12 23:02:23.47	43.49	5.64	
2025-01-12 23:02:24.29	43.61	5.67	
2025-01-12 23:02:25.11	43.73	5.71	
2025-01-12 23:02:25.93	43.85	5.74	
2025-01-12 23:02:26.76	43.98	5.77	
2025-01-12 23:02:27.58	44.10	5.81	
2025-01-12 23:02:28.40	44.22	5.84	
2025-01-12 23:02:29.23	44.35	5.87	
2025-01-12 23:02:30.05	44.47	5.90	
2025-01-12 23:02:30.87	44.59	5.94	
2025-01-12 23:02:31.68	44.72	5.97	
2025-01-12 23:02:32.50	44.84	6.00	
2025-01-12 23:02:33.32	44.97	6.03	
2025-01-12 23:02:34.14	45.09	6.07	
2025-01-12 23:02:34.97	45.22	6.10	
2025-01-12 23:02:35.81	45.35	6.13	
2025-01-12 23:02:36.63	45.47	6.16	
2025-01-12 23:02:37.47	45.60	6.20	
2025-01-12 23:02:38.30	45.73	6.23	
2025-01-12 23:02:39.12	45.86	6.26	
2025-01-12 23:02:39.94	45.98	6.29	
2025-01-12 23:02:40.77	46.11	6.32	
2025-01-12 23:02:41.59	46.24	6.36	
2025-01-12 23:02:42.41	46.37	6.39	
2025-01-12 23:02:43.23	46.49	6.42	
2025-01-12 23:02:44.05	46.62	6.45	
2025-01-12 23:02:44.87	46.75	6.48	
2025-01-12 23:02:45.69	46.88	6.51	
2025-01-12 23:02:46.51	47.01	6.54	
2025-01-12 23:02:47.34	47.14	6.57	
2025-01-12 23:02:48.16	47.27	6.61	
2025-01-12 23:02:48.97	47.40	6.64	
2025-01-12 23:02:49.80	47.53	6.67	
2025-01-12 23:02:50.62	47.66	6.70	
2025-01-12 23:02:51.44	47.79	6.73	
2025-01-12 23:02:52.26	47.93	6.76	
2025-01-12 23:02:53.08	48.06	6.79	
2025-01-12 23:02:53.91	48.19	6.82	
2025-01-12 23:02:54.74	48.32	6.85	
2025-01-12 23:02:55.57	48.46	6.88	
2025-01-12 23:02:56.39	48.59	6.91	
2025-01-12 23:02:57.21	48.72	6.94	
2025-01-12 23:02:58.03	48.86	6.97	
2025-01-12 23:02:58.85	48.99	7.00	
2025-01-12 23:02:59.68	49.13	7.03	
2025-01-12 23:03:00.51	49.26	7.06	
2025-01-12 23:03:01.32	49.40	7.09	
2025-01-12 23:03:02.15	49.53	7.12	
2025-01-12 23:03:02.97	49.67	7.15	
2025-01-12 23:03:03.79	49.80	7.18	
2025-01-12 23:03:04.62	49.94	7.21	
2025-01-12 23:03:05.44	50.08	7.24	
2025-01-12 23:03:06.27	50.22	7.27	
2025-01-12 23:03:07.09	50.35	7.30	
2025-01-12 23:03:07.91	50.49	7.33	
2025-01-12 23:03:08.73	50.63	7.36	
2025-01-12 23:03:09.55	50.76	7.39	
2025-01-12 23:03:10.37	50.90	7.41	
2025-01-12 23:03:11.19	51.04	7.44	
2025-01-12 23:03:12.01	51.18	7.47	
2025-01-12 23:03:12.84	51.32	7.50	
2025-01-12 23:03:13.66	51.46	7.53	
2025-01-12 23:03:14.48	51.60	7.56	
2025-01-12 23:03:15.30	51.74	7.59	
2025-01-12 23:03:16.12	51.88	7.61	
2025-01-12 23:03:16.94	52.02	7.64	
2025-01-12 23:03:17.76	52.16	7.67	
2025-01-12 23:03:18.58	52.30	7.70	
2025-01-12 23:03:19.41	52.44	7.72	
2025-01-12 23:03:20.23	52.58	7.75	
2025-01-12 23:03:21.05	52.72	7.78	
2025-01-12 23:03:21.87	52.86	7.81	
2025-01-12 23:03:22.69	53.01	7.83	
2025-01-12 23:03:23.51	53.15	7.86	
2025-01-12 23:03:24.33	53.29	7.89	
2025-01-12 23:03:25.15	53.43	7.91	
2025-01-12 23:03:25.97	53.58	7.94	
2025-01-12 23:03:26.79	53.72	7.97	
2025-01-12 23:03:27.61	53.87	7.99	
2025-01-12 23:03:28.43	54.01	8.02	
2025-01-12 23:03:29.25	54.15	8.05	
2025-01-12 23:03:30.08	54.30	8.07	
2025-01-12 23:03:30.91	54.45	8.10	
2025-01-12 23:03:31.75	54.60	8.13	
2025-01-12 23:03:32.58	54.74	8.15	
2025-01-12 23:03:33.40	54.89	8.18	
2025-01-12 23:03:34.23	55.04	8.20	
2025-01-12 23:03:35.05	55.18	8.23	
2025-01-12 23:03:35.87	55.33	8.25	
2025-01-12 23:03:36.70	55.48	8.28	
2025-01-12 23:03:37.52	55.62	8.30	
2025-01-12 23:03:38.34	55.77	8.33	
2025-01-12 23:03:39.16	55.92	8.35	
2025-01-12 23:03:39.98	56.07	8.38	
2025-01-12 23:03:40.80	56.22	8.40	
2025-01-12 23:03:41.62	56.36	8.43	
2025-01-12 23:03:42.44	56.51	8.45	
2025-01-12 23:03:43.26	56.66	8.48	
2025-01-12 23:03:44.08	56.81	8.50	
2025-01-12 23:03:44.90	56.96	8.52	
2025-01-12 23:03:45.73	57.11	8.55	
2025-01-12 23:03:46.55	57.26	8.57	
2025-01-12 23:03:47.36	57.41	8.60	
2025-01-12 23:03:48.19	57.56	8.62	
2025-01-12 23:03:49.00	57.71	8.64	
2025-01-12 23:03:49.82	57.86	8.66	
2025-01-12 23:03:50.65	58.01	8.69	
2025-01-12 23:03:51.47	58.17	8.71	
2025-01-12 23:03:52.29	58.32	8.73	
2025-01-12 23:03:53.11	58.47	8.76	
2025-01-12 23:03:53.94	58.62	8.78	
2025-01-12 23:03:54.76	58.78	8.80	
2025-01-12 23:03:55.58	58.93	8.82	
2025-01-12 23:03:56.40	59.08	8.84	
2025-01-12 23:03:57.22	59.24	8.87	
2025-01-12 23:03:58.04	59.39	8.89	
2025-01-12 23:03:58.86	59.54	8.91	
2025-01-12 23:03:59.68	59.70	8.93	
2025-01-12 23:04:00.50	59.85	8.95	
2025-01-12 23:04:01.33	60.01	8.97	
2025-01-12 23:04:02.15	60.16	8.99	
2025-01-12 23:04:02.97	60.32	9.01	
2025-01-12 23:04:03.79	60.47	9.04	
2025-01-12 23:04:04.61	60.63	9.06	
2025-01-12 23:04:05.45	60.79	9.08	
2025-01-12 23:04:06.27	60.94	9.10	
2025-01-12 23:04:07.09	61.10	9.12	
2025-01-12 23:04:07.91	61.25	9.14	
2025-01-12 23:04:08.73	61.41	9.16	
2025-01-12 23:04:09.55	61.57	9.18	
2025-01-12 23:04:10.37	61.72	9.19	
2025-01-12 23:04:11.19	61.88	9.21	
2025-01-12 23:04:12.02	62.04	9.23	
2025-01-12 23:04:12.84	62.20	9.25	
2025-01-12 23:04:13.67	62.36	9.27	
2025-01-12 23:04:14.49	62.52	9.29	
2025-01-12 23:04:15.32	62.68	9.31	
2025-01-12 23:04:16.14	62.84	9.33	
2025-01-12 23:04:16.96	62.99	9.34	
2025-01-12 23:04:17.79	63.15	9.36	
2025-01-12 23:04:18.61	63.31	9.38	
2025-01-12 23:04:19.43	63.47	9.40	
2025-01-12 23:04:20.25	63.63	9.41	
2025-01-12 23:04:21.08	63.79	9.43	
2025-01-12 23:04:21.90	63.95	9.45	
2025-01-12 23:04:22.74	64.12	9.47	
2025-01-12 23:04:23.57	64.28	9.48	
2025-01-12 23:04:24.39	64.44	9.50	
2025-01-12 23:04:25.21	64.60	9.51	
2025-01-12 23:04:26.03	64.76	9.53	
2025-01-12 23:04:26.85	64.92	9.55	
2025-01-12 23:04:27.68	65.09	9.56	
2025-01-12 23:04:28.49	65.25	9.58	
2025-01-12 23:04:29.31	65.41	9.59	
2025-01-12 23:04:30.13	65.57	9.61	
2025-01-12 23:04:30.95	65.73	9.62	
2025-01-12 23:04:31.77	65.89	9.64	
2025-01-12 23:04:32.59	66.06	9.65	
2025-01-12 23:04:33.41	66.22	9.67	
2025-01-12 23:04:34.23	66.38	9.68	
2025-01-12 23:04:35.06	66.55	9.70	
2025-01-12 23:04:35.88	66.71	9.71	
2025-01-12 23:04:36.70	66.87	9.72	
2025-01-12 23:04:37.53	67.04	9.74	
2025-01-12 23:04:38.35	67.20	9.75	
2025-01-12 23:04:39.17	67.36	9.76	
2025-01-12 23:04:39.99	67.53	9.78	
2025-01-12 23:04:40.82	67.69	9.79	
2025-01-12 23:04:41.63	67.86	9.80	
2025-01-12 23:04:42.45	68.02	9.82	
2025-01-12 23:04:43.27	68.19	9.83	
2025-01-12 23:04:44.09	68.35	9.84	
2025-01-12 23:04:44.91	68.51	9.85	
2025-01-12 23:04:45.73	68.68	9.86	
2025-01-12 23:04:46.55	68.84	9.87	
2025-01-12 23:04:47.37	69.01	9.89	
2025-01-12 23:04:48.20	69.18	9.90	
2025-01-12 23:04:49.02	69.34	9.91	
2025-01-12 23:04:49.85	69.51	9.92	
2025-01-12 23:04:50.67	69.68	9.93	
2025-01-12 23:04:51.49	69.84	9.94	
2025-01-12 23:04:52.31	70.01	9.95	
2025-01-12 23:04:53.13	70.17	9.96	
2025-01-12 23:04:53.95	70.34	9.97	
2025-01-12 23:04:54.79	70.51	9.98	
2025-01-12 23:04:55.61	70.68	9.99	
2025-01-12 23:04:56.43	70.84	10.00	
2025-01-12 23:04:57.25	71.01	10.01	
2025-01-12 23:04:58.07	71.18	10.02	
2025-01-12 23:04:58.89	71.34	10.02	
2025-01-12 23:04:59.71	71.51	10.03	
2025-01-12 23:05:00.53	71.68	10.04	
2025-01-12 23:05:01.35	71.84	10.05	
2025-01-12 23:05:02.17	72.01	10.06	
2025-01-12 23:05:02.99	72.18	10.06	
2025-01-12 23:05:03.81	72.35	10.07	
2025-01-12 23:05:04.63	72.51	10.08	
2025-01-12 23:05:05.45	72.68	10.08	
2025-01-12 23:05:06.29	72.85	10.09	
2025-01-12 23:05:07.11	73.02	10.10	
2025-01-12 23:05:07.93	73.19	10.10	
2025-01-12 23:05:08.75	73.36	10.11	
2025-01-12 23:05:09.57	73.53	10.12	
2025-01-12 23:05:10.39	73.69	10.12	
2025-01-12 23:05:11.23	73.87	10.13	
2025-01-12 23:05:12.05	74.03	10.13	
2025-01-12 23:05:12.88	74.20	10.14	
2025-01-12 23:05:13.71	74.38	10.14	
2025-01-12 23:05:14.54	74.55	10.15	
2025-01-12 23:05:15.36	74.71	10.15	
2025-01-12 23:05:16.18	74.88	10.16	
2025-01-12 23:05:17.01	75.05	10.16	
2025-01-12 23:05:17.84	75.22	10.16	
2025-01-12 23:05:18.66	75.39	10.17	
2025-01-12 23:05:19.49	75.56	10.17	
2025-01-12 23:05:20.31	75.73	10.17	
2025-01-12 23:05:21.13	75.90	10.18	
2025-01-12 23:05:21.96	76.07	10.18	
2025-01-12 23:05:22.78	76.24	10.18	
2025-01-12 23:05:23.61	76.41	10.19	
2025-01-12 23:05:24.44	76.58	10.19	
2025-01-12 23:05:25.26	76.75	10.19	
2025-01-12 23:05:26.08	76.92	10.19	
2025-01-12 23:05:26.90	77.09	10.19	
2025-01-12 23:05:27.71	77.26	10.19	
2025-01-12 23:05:28.54	77.43	10.20	
2025-01-12 23:05:29.36	77.60	10.20	
2025-01-12 23:05:30.18	77.77	10.20	
2025-01-12 23:05:31.01	77.94	10.20	
2025-01-12 23:05:31.83	78.11	10.20	
2025-01-12 23:05:32.65	78.28	10.20	
2025-01-12 23:05:33.47	78.45	10.20	
2025-01-12 23:05:34.30	78.62	10.20	
2025-01-12 23:05:35.12	78.79	10.20	
2025-01-12 23:05:35.94	78.96	10.20	
2025-01-12 23:05:36.76	79.12	10.20	
2025-01-12 23:05:37.59	79.30	10.19	
2025-01-12 23:05:38.41	79.46	10.19	
2025-01-12 23:05:39.23	79.63	10.19	
2025-01-12 23:05:40.05	79.80	10.19	
2025-01-12 23:05:40.87	79.97	10.19	
2025-01-12 23:05:41.69	80.14	10.18	
2025-01-12 23:05:42.51	80.31	10.18	
2025-01-12 23:05:43.33	80.48	10.18	
2025-01-12 23:05:44.15	80.65	10.18	
2025-01-12 23:05:44.96	80.81	10.17	
2025-01-12 23:05:45.81	80.99	10.17	
2025-01-12 23:05:46.63	81.16	10.17	
2025-01-12 23:05:47.45	81.33	10.16	
2025-01-12 23:05:48.27	81.50	10.16	
2025-01-12 23:05:49.09	81.67	10.16	
2025-01-12 23:05:49.91	81.83	10.15	
2025-01-12 23:05:50.73	82.00	10.15	
2025-01-12 23:05:51.57	82.18	10.14	
2025-01-12 23:05:52.40	82.35	10.14	
2025-01-12 23:05:53.22	82.51	10.13	
2025-01-12 23:05:54.04	82.68	10.13	
2025-01-12 23:05:54.86	82.85	10.12	
2025-01-12 23:05:55.68	83.02	10.11	
2025-01-12 23:05:56.50	83.19	10.11	
2025-01-12 23:05:57.33	83.36	10.10	
2025-01-12 23:05:58.14	83.52	10.10	
2025-01-12 23:05:58.96	83.69	10.09	
2025-01-12 23:05:59.78	83.86	10.08	
2025-01-12 23:06:00.62	84.03	10.08	
2025-01-12 23:06:01.44	84.20	10.07	
2025-01-12 23:06:02.25	84.36	10.06	
2025-01-12 23:06:03.07	84.53	10.05	
2025-01-12 23:06:03.91	84.70	10.05	
2025-01-12 23:06:04.73	84.87	10.04	
2025-01-12 23:06:05.55	85.04	10.03	
2025-01-12 23:06:06.38	85.21	10.02	
2025-01-12 23:06:07.21	85.38	10.01	
2025-01-12 23:06:08.03	85.54	10.00	
2025-01-12 23:06:08.85	85.71	9.99	
2025-01-12 23:06:09.67	85.88	9.98	
2025-01-12 23:06:10.49	86.04	9.98	
2025-01-12 23:06:11.31	86.21	9.97	
2025-01-12 23:06:12.14	86.38	9.96	
2025-01-12 23:06:12.96	86.55	9.95	
2025-01-12 23:06:13.77	86.71	9.94	
2025-01-12 23:06:14.61	86.88	9.92	
2025-01-12 23:06:15.43	87.05	9.91	
2025-01-12 23:06:16.25	87.21	9.90	
2025-01-12 23:06:17.07	87.38	9.89	
2025-01-12 23:06:17.90	87.55	9.88	
2025-01-12 23:06:18.72	87.71	9.87	
2025-01-12 23:06:19.56	87.88	9.86	
2025-01-12 23:06:20.38	88.05	9.85	
2025-01-12 23:06:21.20	88.21	9.83	
2025-01-12 23:06:22.02	88.38	9.82	
2025-01-12 23:06:22.84	88.54	9.81	
2025-01-12 23:06:23.66	88.71	9.80	
2025-01-12 23:06:24.48	88.87	9.78	
2025-01-12 23:06:25.30	89.03	9.77	
2025-01-12 23:06:26.13	89.20	9.76	
2025-01-12 23:06:26.96	89.37	9.74	
2025-01-12 23:06:27.78	89.53	9.73	
2025-01-12 23:06:28.60	89.69	9.72	
2025-01-12 23:06:29.42	89.86	9.70	
2025-01-12 23:06:30.24	90.02	9.69	
2025-01-12 23:06:31.06	90.18	9.67	
2025-01-12 23:06:31.88	90.35	9.66	
2025-01-12 23:06:32.70	90.51	9.65	
2025-01-12 23:06:33.52	90.67	9.63	
2025-01-12 23:06:34.34	90.84	9.62	
2025-01-12 23:06:35.16	91.00	9.60	
2025-01-12 23:06:36.00	91.16	9.59	
2025-01-12 23:06:36.82	91.33	9.57	
2025-01-12 23:06:37.64	91.49	9.55	
2025-01-12 23:06:38.46	91.65	9.54	
2025-01-12 23:06:39.28	91.81	9.52	
2025-01-12 23:06:40.11	91.97	9.51	
2025-01-12 23:06:40.93	92.14	9.49	
2025-01-12 23:06:41.75	92.30	9.47	
2025-01-12 23:06:42.57	92.46	9.46	
2025-01-12 23:06:43.39	92.62	9.44	
2025-01-12 23:06:44.21	92.78	9.42	
2025-01-12 23:06:45.03	92.94	9.40	
2025-01-12 23:06:45.85	93.10	9.39	
2025-01-12 23:06:46.69	93.26	9.37	
2025-01-12 23:06:47.51	93.42	9.35	
2025-01-12 23:06:48.36	93.59	9.33	
2025-01-12 23:06:49.18	93.75	9.31	
2025-01-12 23:06:50.00	93.90	9.30	
2025-01-12 23:06:50.83	94.07	9.28	
2025-01-12 23:06:51.65	94.22	9.26	
2025-01-12 23:06:52.47	94.38	9.24	
2025-01-12 23:06:53.30	94.54	9.22	
2025-01-12 23:06:54.12	94.70	9.20	
2025-01-12 23:06:54.95	94.86	9.18	
2025-01-12 23:06:55.77	95.02	9.16	
2025-01-12 23:06:56.59	95.17	9.14	
2025-01-12 23:06:57.41	95.33	9.12	
2025-01-12 23:06:58.23	95.49	9.10	
2025-01-12 23:06:59.05	95.64	9.08	
2025-01-12 23:06:59.86	95.80	9.06	
2025-01-12 23:07:00.68	95.95	9.04	
2025-01-12 23:07:01.50	96.11	9.02	
2025-01-12 23:07:02.33	96.27	9.00	
2025-01-12 23:07:03.15	96.42	8.98	
2025-01-12 23:07:03.97	96.58	8.96	
2025-01-12 23:07:04.80	96.74	8.94	
2025-01-12 23:07:05.62	96.89	8.92	
2025-01-12 23:07:06.44	97.04	8.89	
2025-01-12 23:07:07.26	97.20	8.87	
2025-01-12 23:07:08.08	97.35	8.85	
2025-01-12 23:07:08.90	97.51	8.83	
2025-01-12 23:07:09.73	97.66	8.81	
2025-01-12 23:07:10.55	97.82	8.78	
2025-01-12 23:07:11.37	97.97	8.76	
2025-01-12 23:07:12.19	98.12	8.74	
2025-01-12 23:07:13.02	98.28	8.72	
2025-01-12 23:07:13.84	98.43	8.69	
2025-01-12 23:07:14.66	98.58	8.67	
2025-01-12 23:07:15.48	98.73	8.65	
2025-01-12 23:07:16.31	98.89	8.62	
2025-01-12 23:07:17.14	99.04	8.60	
2025-01-12 23:07:17.96	99.19	8.58	
2025-01-12 23:07:18.78	99.34	8.55	
2025-01-12 23:07:19.60	99.49	8.53	
2025-01-12 23:07:20.42	99.64	8.51	
2025-01-12 23:07:21.24	99.79	8.48	
2025-01-12 23:07:22.07	99.94	8.46	
2025-01-12 23:07:22.89	100.09	8.43	
2025-01-12 23:07:23.71	100.24	8.41	
2025-01-12 23:07:24.54	100.39	8.38	
2025-01-12 23:07:25.36	100.54	8.36	
2025-01-12 23:07:26.18	100.69	8.33	
2025-01-12 23:07:27.01	100.84	8.31	
2025-01-12 23:07:27.83	100.99	8.28	
2025-01-12 23:07:28.65	101.13	8.26	
2025-01-12 23:07:29.48	101.28	8.23	
2025-01-12 23:07:30.30	101.43	8.21	
2025-01-12 23:07:31.13	101.58	8.18	
2025-01-12 23:07:31.95	101.73	8.15	
2025-01-12 23:07:32.77	101.87	8.13	
2025-01-12 23:07:33.60	102.02	8.10	
2025-01-12 23:07:34.43	102.17	8.08	
2025-01-12 23:07:35.25	102.31	8.05	
2025-01-12 23:07:36.07	102.46	8.02	
2025-01-12 23:07:36.89	102.60	8.00	
2025-01-12 23:07:37.71	102.75	7.97	
2025-01-12 23:07:38.53	102.89	7.94	
2025-01-12 23:07:39.35	103.04	7.92	
2025-01-12 23:07:40.17	103.18	7.89	
2025-01-12 23:07:41.00	103.32	7.86	
2025-01-12 23:07:41.82	103.47	7.83	
2025-01-12 23:07:42.65	103.61	7.81	
2025-01-12 23:07:43.49	103.76	7.78	
2025-01-12 23:07:44.32	103.90	7.75	
2025-01-12 23:07:45.14	104.04	7.72	
2025-01-12 23:07:45.98	104.19	7.69	
2025-01-12 23:07:46.81	104.33	7.67	
2025-01-12 23:07:47.63	104.47	7.64	
2025-01-12 23:07:48.46	104.62	7.61	
2025-01-12 23:07:49.28	104.76	7.58	
2025-01-12 23:07:50.10	104.90	7.55	
2025-01-12 23:07:50.92	105.04	7.52	
2025-01-12 23:07:51.74	105.18	7.50	
2025-01-12 23:07:52.56	105.32	7.47	
2025-01-12 23:07:53.38	105.46	7.44	
2025-01-12 23:07:54.20	105.60	7.41	
2025-01-12 23:07:55.02	105.73	7.38	
2025-01-12 23:07:55.84	105.87	7.35	
2025-01-12 23:07:56.66	106.01	7.32	
2025-01-12 23:07:57.48	106.15	7.29	
2025-01-12 23:07:58.30	106.29	7.26	
2025-01-12 23:07:59.12	106.42	7.24	
2025-01-12 23:07:59.94	106.56	7.21	
2025-01-12 23:08:00.76	106.70	7.18	
2025-01-12 23:08:01.59	106.83	7.15	
2025-01-12 23:08:02.42	106.97	7.12	
2025-01-12 23:08:03.25	107.11	7.09	
2025-01-12 23:08:04.07	107.25	7.06	
2025-01-12 23:08:04.89	107.38	7.03	
2025-01-12 23:08:05.71	107.52	7.00	
2025-01-12 23:08:06.54	107.65	6.96	
2025-01-12 23:08:07.36	107.79	6.93	
2025-01-12 23:08:08.19	107.92	6.90	
2025-01-12 23:08:09.03	108.06	6.87	
2025-01-12 23:08:09.85	108.19	6.84	
2025-01-12 23:08:10.67	108.32	6.81	
2025-01-12 23:08:11.49	108.46	6.78	
2025-01-12 23:08:12.31	108.59	6.75	
2025-01-12 23:08:13.13	108.72	6.72	
2025-01-12 23:08:13.95	108.85	6.69	
2025-01-12 23:08:14.77	108.99	6.66	
2025-01-12 23:08:15.61	109.12	6.62	
2025-01-12 23:08:16.43	109.25	6.59	
2025-01-12 23:08:17.25	109.38	6.56	
2025-01-12 23:08:18.07	109.51	6.53	
2025-01-12 23:08:18.89	109.64	6.50	
2025-01-12 23:08:19.71	109.77	6.47	
2025-01-12 23:08:20.55	109.90	6.44	
2025-01-12 23:08:21.37	110.03	6.40	
2025-01-12 23:08:22.19	110.16	6.37	
2025-01-12 23:08:23.01	110.29	6.34	
2025-01-12 23:08:23.83	110.42	6.31	
2025-01-12 23:08:24.66	110.55	6.28	
2025-01-12 23:08:25.47	110.68	6.24	
2025-01-12 23:08:26.29	110.80	6.21	
2025-01-12 23:08:27.11	110.93	6.18	
2025-01-12 23:08:27.93	111.06	6.15	
2025-01-12 23:08:28.76	111.19	6.12	
2025-01-12 23:08:29.58	111.31	6.08	
2025-01-12 23:08:30.40	111.44	6.05	
2025-01-12 23:08:31.24	111.57	6.02	
2025-01-12 23:08:32.06	111.69	5.98	
2025-01-12 23:08:32.89	111.82	5.95	
2025-01-12 23:08:33.71	111.94	5.92	
2025-01-12 23:08:34.53	112.07	5.89	
2025-01-12 23:08:35.35	112.19	5.85	
2025-01-12 23:08:36.18	112.32	5.82	
2025-01-12 23:08:37.00	112.44	5.79	
2025-01-12 23:08:37.82	112.56	5.75	
2025-01-12 23:08:38.65	112.69	5.72	
2025-01-12 23:08:39.47	112.81	5.69	
2025-01-12 23:08:40.29	112.93	5.65	
2025-01-12 23:08:41.13	113.06	5.62	
2025-01-12 23:08:41.95	113.18	5.59	
2025-01-12 23:08:42.77	113.30	5.55	
2025-01-12 23:08:43.60	113.43	5.52	
2025-01-12 23:08:44.42	113.55	5.49	
2025-01-12 23:08:45.24	113.67	5.45	
2025-01-12 23:08:46.06	113.79	5.42	
2025-01-12 23:08:46.88	113.91	5.39	
2025-01-12 23:08:47.70	114.03	5.35	
2025-01-12 23:08:48.52	114.15	5.32	
2025-01-12 23:08:49.34	114.27	5.28	
2025-01-12 23:08:50.16	114.39	5.25	
2025-01-12 23:08:50.99	114.51	5.22	
2025-01-12 23:08:51.81	114.62	5.18	
2025-01-12 23:08:52.64	114.74	5.15	
2025-01-12 23:08:53.46	114.86	5.11	
2025-01-12 23:08:54.28	114.98	5.08	
2025-01-12 23:08:55.10	115.10	5.05	
2025-01-12 23:08:55.93	115.21	5.01	
2025-01-12 23:08:56.75	115.33	4.98	
2025-01-12 23:08:57.57	115.45	4.94	
2025-01-12 23:08:58.39	115.56	4.91	
2025-01-12 23:08:59.20	115.68	4.88	
2025-01-12 23:09:00.04	115.80	4.84	
2025-01-12 23:09:00.86	115.91	4.81	
2025-01-12 23:09:01.68	116.03	4.77	
2025-01-12 23:09:02.50	116.14	4.74	
2025-01-12 23:09:03.32	116.25	4.70	
2025-01-12 23:09:04.14	116.37	4.67	
2025-01-12 23:09:04.96	116.48	4.63	
2025-01-12 23:09:05.78	116.60	4.60	
2025-01-12 23:09:06.60	116.71	4.56	
2025-01-12 23:09:07.42	116.82	4.53	
2025-01-12 23:09:08.24	116.93	4.49	
2025-01-12 23:09:09.06	117.05	4.46	
2025-01-12 23:09:09.88	117.16	4.42	
2025-01-12 23:09:10.70	117.27	4.39	
2025-01-12 23:09:11.52	117.38	4.36	
2025-01-12 23:09:12.34	117.49	4.32	
2025-01-12 23:09:13.16	117.60	4.29	
2025-01-12 23:09:13.98	117.72	4.25	
2025-01-12 23:09:14.81	117.83	4.21	
2025-01-12 23:09:15.63	117.94	4.18	
2025-01-12 23:09:16.45	118.05	4.14	
2025-01-12 23:09:17.27	118.16	4.11	
2025-01-12 23:09:18.09	118.27	4.07	
2025-01-12 23:09:18.91	118.38	4.04	

#Closed at: 2025-01-12 23:09:19