passes_logs/2025/01/12/SPB_Silybum_02/SPB_Silybum_02__20250112_073834_TERRA_rec.log

#Pass ID: 20250112_073834_TERRA
#Satellite: TERRA
#Configuration: TERRA
#Start time: 2025-01-12 07:38:33

#Version: 2.0.20230423
#Station: SPB_Silybum_02
#Location: 30.233357 lon 59.946436 lat
#TLE: 1 25994U 99068A   25011.77277381  .00000769  00000+0  16824-3 0  9997
#TLE: 2 25994  98.0222  74.9057 0003526  79.1717  32.7508 14.60388914333608

#Time	Az	El	Level	Level2	SNR	BER	Gain	Gain2
2025-01-12 07:38:35.54	20.84	4.05	
2025-01-12 07:38:36.77	20.89	4.14	
2025-01-12 07:38:38.02	20.95	4.23	
2025-01-12 07:38:39.24	21.00	4.31	
2025-01-12 07:38:40.47	21.06	4.40	
2025-01-12 07:38:41.70	21.12	4.48	
2025-01-12 07:38:42.94	21.18	4.57	
2025-01-12 07:38:44.16	21.23	4.65	
2025-01-12 07:38:45.41	21.29	4.74	
2025-01-12 07:38:46.64	21.35	4.83	
2025-01-12 07:38:47.88	21.41	4.92	
2025-01-12 07:38:49.11	21.47	5.01	
2025-01-12 07:38:50.34	21.53	5.09	
2025-01-12 07:38:51.57	21.59	5.18	
2025-01-12 07:38:52.80	21.65	5.27	
2025-01-12 07:38:54.04	21.71	5.36	
2025-01-12 07:38:55.27	21.77	5.45	
2025-01-12 07:38:56.50	21.83	5.54	
2025-01-12 07:38:57.73	21.89	5.63	
2025-01-12 07:38:58.97	21.96	5.72	
2025-01-12 07:39:00.21	22.02	5.81	
2025-01-12 07:39:01.44	22.08	5.90	
2025-01-12 07:39:02.67	22.15	5.99	
2025-01-12 07:39:03.90	22.21	6.08	
2025-01-12 07:39:05.13	22.27	6.18	
2025-01-12 07:39:06.36	22.34	6.27	
2025-01-12 07:39:07.59	22.40	6.36	
2025-01-12 07:39:08.83	22.47	6.45	
2025-01-12 07:39:10.05	22.54	6.55	
2025-01-12 07:39:11.28	22.60	6.64	
2025-01-12 07:39:12.52	22.67	6.73	
2025-01-12 07:39:13.75	22.74	6.83	
2025-01-12 07:39:14.98	22.80	6.92	
2025-01-12 07:39:16.21	22.87	7.02	
2025-01-12 07:39:17.44	22.94	7.11	
2025-01-12 07:39:18.67	23.01	7.21	
2025-01-12 07:39:19.90	23.08	7.31	
2025-01-12 07:39:21.13	23.15	7.40	
2025-01-12 07:39:22.36	23.22	7.50	
2025-01-12 07:39:23.60	23.29	7.60	
2025-01-12 07:39:24.83	23.36	7.69	
2025-01-12 07:39:26.06	23.43	7.79	
2025-01-12 07:39:27.29	23.50	7.89	
2025-01-12 07:39:28.52	23.58	7.99	
2025-01-12 07:39:29.75	23.65	8.09	
2025-01-12 07:39:30.98	23.72	8.19	
2025-01-12 07:39:32.23	23.80	8.29	
2025-01-12 07:39:33.46	23.87	8.39	
2025-01-12 07:39:34.69	23.95	8.49	
2025-01-12 07:39:35.92	24.02	8.59	
2025-01-12 07:39:37.16	24.10	8.69	
2025-01-12 07:39:38.39	24.18	8.80	
2025-01-12 07:39:39.64	24.25	8.90	
2025-01-12 07:39:40.87	24.33	9.00	
2025-01-12 07:39:42.10	24.41	9.11	
2025-01-12 07:39:43.33	24.49	9.21	
2025-01-12 07:39:44.56	24.57	9.31	
2025-01-12 07:39:45.79	24.65	9.42	
2025-01-12 07:39:47.03	24.73	9.52	
2025-01-12 07:39:48.26	24.81	9.63	
2025-01-12 07:39:49.50	24.89	9.74	
2025-01-12 07:39:50.73	24.98	9.84	
2025-01-12 07:39:51.95	25.06	9.95	
2025-01-12 07:39:53.19	25.14	10.06	
2025-01-12 07:39:54.42	25.23	10.17	
2025-01-12 07:39:55.65	25.31	10.27	
2025-01-12 07:39:56.88	25.40	10.38	
2025-01-12 07:39:58.11	25.48	10.49	
2025-01-12 07:39:59.36	25.57	10.60	
2025-01-12 07:40:00.59	25.66	10.71	
2025-01-12 07:40:01.82	25.75	10.82	
2025-01-12 07:40:03.05	25.84	10.94	
2025-01-12 07:40:04.29	25.93	11.05	
2025-01-12 07:40:05.52	26.02	11.16	
2025-01-12 07:40:06.74	26.11	11.27	
2025-01-12 07:40:07.98	26.20	11.39	
2025-01-12 07:40:09.21	26.29	11.50	
2025-01-12 07:40:10.44	26.38	11.62	
2025-01-12 07:40:11.67	26.48	11.73	
2025-01-12 07:40:12.90	26.57	11.85	
2025-01-12 07:40:14.13	26.67	11.96	
2025-01-12 07:40:15.36	26.76	12.08	
2025-01-12 07:40:16.59	26.86	12.20	
2025-01-12 07:40:17.82	26.96	12.31	
2025-01-12 07:40:19.05	27.06	12.43	
2025-01-12 07:40:20.28	27.16	12.55	
2025-01-12 07:40:21.51	27.26	12.67	
2025-01-12 07:40:22.75	27.36	12.79	
2025-01-12 07:40:23.99	27.46	12.91	
2025-01-12 07:40:25.22	27.56	13.03	
2025-01-12 07:40:26.45	27.67	13.16	
2025-01-12 07:40:27.68	27.77	13.28	
2025-01-12 07:40:28.91	27.88	13.40	
2025-01-12 07:40:30.14	27.98	13.53	
2025-01-12 07:40:31.39	28.09	13.65	
2025-01-12 07:40:32.63	28.20	13.78	
2025-01-12 07:40:33.86	28.31	13.90	
2025-01-12 07:40:35.11	28.42	14.03	
2025-01-12 07:40:36.34	28.53	14.16	
2025-01-12 07:40:37.57	28.64	14.29	
2025-01-12 07:40:38.80	28.76	14.41	
2025-01-12 07:40:40.03	28.87	14.54	
2025-01-12 07:40:41.26	28.98	14.67	
2025-01-12 07:40:42.49	29.10	14.80	
2025-01-12 07:40:43.74	29.22	14.94	
2025-01-12 07:40:44.97	29.34	15.07	
2025-01-12 07:40:46.20	29.46	15.20	
2025-01-12 07:40:47.43	29.58	15.33	
2025-01-12 07:40:48.67	29.70	15.47	
2025-01-12 07:40:49.91	29.82	15.60	
2025-01-12 07:40:51.14	29.94	15.74	
2025-01-12 07:40:52.37	30.07	15.87	
2025-01-12 07:40:53.60	30.19	16.01	
2025-01-12 07:40:54.84	30.32	16.15	
2025-01-12 07:40:56.09	30.45	16.29	
2025-01-12 07:40:57.32	30.58	16.43	
2025-01-12 07:40:58.55	30.71	16.57	
2025-01-12 07:40:59.78	30.84	16.71	
2025-01-12 07:41:01.00	30.98	16.85	
2025-01-12 07:41:02.25	31.11	16.99	
2025-01-12 07:41:03.49	31.25	17.13	
2025-01-12 07:41:04.73	31.39	17.28	
2025-01-12 07:41:05.96	31.52	17.42	
2025-01-12 07:41:07.19	31.66	17.57	
2025-01-12 07:41:08.43	31.81	17.71	
2025-01-12 07:41:09.66	31.95	17.86	
2025-01-12 07:41:10.89	32.09	18.01	
2025-01-12 07:41:12.12	32.24	18.16	
2025-01-12 07:41:13.36	32.39	18.31	
2025-01-12 07:41:14.58	32.53	18.45	
2025-01-12 07:41:15.81	32.68	18.61	
2025-01-12 07:41:17.05	32.83	18.76	
2025-01-12 07:41:18.28	32.99	18.91	
2025-01-12 07:41:19.51	33.14	19.06	
2025-01-12 07:41:20.74	33.30	19.22	
2025-01-12 07:41:21.97	33.45	19.37	
2025-01-12 07:41:23.20	33.61	19.53	
2025-01-12 07:41:24.43	33.77	19.68	
2025-01-12 07:41:25.67	33.94	19.84	
2025-01-12 07:41:26.90	34.10	20.00	
2025-01-12 07:41:28.13	34.27	20.16	
2025-01-12 07:41:29.36	34.44	20.32	
2025-01-12 07:41:30.61	34.61	20.48	
2025-01-12 07:41:31.84	34.78	20.65	
2025-01-12 07:41:33.07	34.95	20.81	
2025-01-12 07:41:34.31	35.13	20.97	
2025-01-12 07:41:35.56	35.31	21.14	
2025-01-12 07:41:36.79	35.49	21.31	
2025-01-12 07:41:38.02	35.67	21.47	
2025-01-12 07:41:39.26	35.85	21.64	
2025-01-12 07:41:40.50	36.04	21.81	
2025-01-12 07:41:41.73	36.23	21.98	
2025-01-12 07:41:42.96	36.42	22.15	
2025-01-12 07:41:44.19	36.61	22.32	
2025-01-12 07:41:45.42	36.80	22.50	
2025-01-12 07:41:46.65	37.00	22.67	
2025-01-12 07:41:47.88	37.19	22.84	
2025-01-12 07:41:49.12	37.39	23.02	
2025-01-12 07:41:50.34	37.60	23.19	
2025-01-12 07:41:51.57	37.80	23.37	
2025-01-12 07:41:52.82	38.01	23.55	
2025-01-12 07:41:54.05	38.22	23.73	
2025-01-12 07:41:55.28	38.43	23.91	
2025-01-12 07:41:56.51	38.65	24.09	
2025-01-12 07:41:57.75	38.87	24.28	
2025-01-12 07:41:58.97	39.08	24.46	
2025-01-12 07:42:00.22	39.31	24.64	
2025-01-12 07:42:01.45	39.53	24.83	
2025-01-12 07:42:02.67	39.76	25.01	
2025-01-12 07:42:03.91	39.99	25.20	
2025-01-12 07:42:05.15	40.23	25.39	
2025-01-12 07:42:06.37	40.46	25.58	
2025-01-12 07:42:07.61	40.70	25.77	
2025-01-12 07:42:08.83	40.94	25.96	
2025-01-12 07:42:10.06	41.19	26.15	
2025-01-12 07:42:11.30	41.44	26.34	
2025-01-12 07:42:12.53	41.69	26.54	
2025-01-12 07:42:13.76	41.94	26.73	
2025-01-12 07:42:15.00	42.20	26.93	
2025-01-12 07:42:16.23	42.46	27.13	
2025-01-12 07:42:17.46	42.73	27.32	
2025-01-12 07:42:18.69	42.99	27.52	
2025-01-12 07:42:19.92	43.26	27.72	
2025-01-12 07:42:21.15	43.54	27.92	
2025-01-12 07:42:22.39	43.82	28.12	
2025-01-12 07:42:23.62	44.10	28.32	
2025-01-12 07:42:24.85	44.38	28.53	
2025-01-12 07:42:26.08	44.67	28.73	
2025-01-12 07:42:27.31	44.96	28.94	
2025-01-12 07:42:28.55	45.26	29.14	
2025-01-12 07:42:29.78	45.56	29.35	
2025-01-12 07:42:31.01	45.87	29.56	
2025-01-12 07:42:32.24	46.17	29.76	
2025-01-12 07:42:33.47	46.49	29.97	
2025-01-12 07:42:34.70	46.80	30.18	
2025-01-12 07:42:35.93	47.12	30.39	
2025-01-12 07:42:37.18	47.45	30.60	
2025-01-12 07:42:38.42	47.78	30.82	
2025-01-12 07:42:39.65	48.12	31.03	
2025-01-12 07:42:40.87	48.45	31.24	
2025-01-12 07:42:42.11	48.80	31.46	
2025-01-12 07:42:43.35	49.15	31.67	
2025-01-12 07:42:44.58	49.50	31.89	
2025-01-12 07:42:45.81	49.85	32.10	
2025-01-12 07:42:47.04	50.21	32.32	
2025-01-12 07:42:48.29	50.59	32.53	
2025-01-12 07:42:49.53	50.96	32.75	
2025-01-12 07:42:50.76	51.34	32.97	
2025-01-12 07:42:51.99	51.72	33.19	
2025-01-12 07:42:53.23	52.11	33.40	
2025-01-12 07:42:54.45	52.50	33.62	
2025-01-12 07:42:55.68	52.89	33.84	
2025-01-12 07:42:56.93	53.30	34.06	
2025-01-12 07:42:58.16	53.71	34.28	
2025-01-12 07:42:59.39	54.12	34.50	
2025-01-12 07:43:00.62	54.54	34.71	
2025-01-12 07:43:01.86	54.97	34.93	
2025-01-12 07:43:03.09	55.40	35.15	
2025-01-12 07:43:04.32	55.84	35.37	
2025-01-12 07:43:05.55	56.28	35.59	
2025-01-12 07:43:06.78	56.73	35.80	
2025-01-12 07:43:08.01	57.19	36.02	
2025-01-12 07:43:09.24	57.65	36.24	
2025-01-12 07:43:10.47	58.11	36.45	
2025-01-12 07:43:11.71	58.59	36.67	
2025-01-12 07:43:12.94	59.07	36.88	
2025-01-12 07:43:14.17	59.56	37.10	
2025-01-12 07:43:15.40	60.05	37.31	
2025-01-12 07:43:16.63	60.55	37.52	
2025-01-12 07:43:17.86	61.05	37.74	
2025-01-12 07:43:19.09	61.57	37.95	
2025-01-12 07:43:20.32	62.09	38.15	
2025-01-12 07:43:21.58	62.63	38.37	
2025-01-12 07:43:22.81	63.16	38.57	
2025-01-12 07:43:24.04	63.70	38.78	
2025-01-12 07:43:25.27	64.25	38.98	
2025-01-12 07:43:26.50	64.80	39.19	
2025-01-12 07:43:27.73	65.36	39.39	
2025-01-12 07:43:28.98	65.94	39.59	
2025-01-12 07:43:30.21	66.51	39.79	
2025-01-12 07:43:31.44	67.09	39.98	
2025-01-12 07:43:32.69	67.69	40.18	
2025-01-12 07:43:33.91	68.28	40.36	
2025-01-12 07:43:35.16	68.90	40.56	
2025-01-12 07:43:36.41	69.52	40.74	
2025-01-12 07:43:37.64	70.13	40.93	
2025-01-12 07:43:38.87	70.76	41.11	
2025-01-12 07:43:40.10	71.39	41.29	
2025-01-12 07:43:41.33	72.03	41.46	
2025-01-12 07:43:42.56	72.67	41.63	
2025-01-12 07:43:43.80	73.33	41.80	
2025-01-12 07:43:45.02	73.99	41.96	
2025-01-12 07:43:46.25	74.65	42.13	
2025-01-12 07:43:47.48	75.33	42.29	
2025-01-12 07:43:48.72	76.01	42.44	
2025-01-12 07:43:49.95	76.70	42.59	
2025-01-12 07:43:51.18	77.39	42.74	
2025-01-12 07:43:52.41	78.09	42.88	
2025-01-12 07:43:53.64	78.79	43.02	
2025-01-12 07:43:54.87	79.50	43.16	
2025-01-12 07:43:56.10	80.22	43.29	
2025-01-12 07:43:57.33	80.94	43.41	
2025-01-12 07:43:58.56	81.67	43.53	
2025-01-12 07:43:59.79	82.41	43.65	
2025-01-12 07:44:01.02	83.15	43.76	
2025-01-12 07:44:02.27	83.90	43.87	
2025-01-12 07:44:03.49	84.65	43.97	
2025-01-12 07:44:04.72	85.40	44.07	
2025-01-12 07:44:05.96	86.17	44.16	
2025-01-12 07:44:07.18	86.92	44.25	
2025-01-12 07:44:08.42	87.70	44.33	
2025-01-12 07:44:09.65	88.47	44.41	
2025-01-12 07:44:10.88	89.24	44.48	
2025-01-12 07:44:12.11	90.02	44.54	
2025-01-12 07:44:13.34	90.80	44.60	
2025-01-12 07:44:14.57	91.59	44.66	
2025-01-12 07:44:15.80	92.38	44.70	
2025-01-12 07:44:17.03	93.16	44.75	
2025-01-12 07:44:18.26	93.96	44.78	
2025-01-12 07:44:19.50	94.76	44.81	
2025-01-12 07:44:20.72	95.54	44.84	
2025-01-12 07:44:21.95	96.34	44.86	
2025-01-12 07:44:23.20	97.15	44.87	
2025-01-12 07:44:24.43	97.94	44.88	
2025-01-12 07:44:25.66	98.74	44.88	
2025-01-12 07:44:26.89	99.54	44.87	
2025-01-12 07:44:28.12	100.33	44.86	
2025-01-12 07:44:29.35	101.13	44.85	
2025-01-12 07:44:30.57	101.92	44.82	
2025-01-12 07:44:31.81	102.72	44.80	
2025-01-12 07:44:33.04	103.51	44.76	
2025-01-12 07:44:34.27	104.30	44.72	
2025-01-12 07:44:35.50	105.09	44.67	
2025-01-12 07:44:36.74	105.88	44.62	
2025-01-12 07:44:37.97	106.66	44.56	
2025-01-12 07:44:39.20	107.44	44.50	
2025-01-12 07:44:40.43	108.22	44.43	
2025-01-12 07:44:41.66	108.99	44.36	
2025-01-12 07:44:42.89	109.76	44.28	
2025-01-12 07:44:44.12	110.53	44.19	
2025-01-12 07:44:45.35	111.29	44.10	
2025-01-12 07:44:46.58	112.05	44.01	
2025-01-12 07:44:47.82	112.81	43.91	
2025-01-12 07:44:49.05	113.55	43.80	
2025-01-12 07:44:50.29	114.30	43.69	
2025-01-12 07:44:51.51	115.03	43.57	
2025-01-12 07:44:52.74	115.77	43.45	
2025-01-12 07:44:53.97	116.49	43.33	
2025-01-12 07:44:55.20	117.21	43.20	
2025-01-12 07:44:56.43	117.93	43.07	
2025-01-12 07:44:57.66	118.64	42.93	
2025-01-12 07:44:58.91	119.35	42.78	
2025-01-12 07:45:00.14	120.05	42.64	
2025-01-12 07:45:01.39	120.75	42.48	
2025-01-12 07:45:02.62	121.43	42.33	
2025-01-12 07:45:03.84	122.10	42.17	
2025-01-12 07:45:05.08	122.77	42.01	
2025-01-12 07:45:06.31	123.44	41.85	
2025-01-12 07:45:07.54	124.09	41.68	
2025-01-12 07:45:08.77	124.74	41.51	
2025-01-12 07:45:10.02	125.40	41.33	
2025-01-12 07:45:11.26	126.04	41.15	
2025-01-12 07:45:12.49	126.66	40.97	
2025-01-12 07:45:13.72	127.28	40.79	
2025-01-12 07:45:14.95	127.90	40.60	
2025-01-12 07:45:16.18	128.51	40.41	
2025-01-12 07:45:17.41	129.11	40.22	
2025-01-12 07:45:18.64	129.70	40.03	
2025-01-12 07:45:19.87	130.28	39.84	
2025-01-12 07:45:21.10	130.86	39.64	
2025-01-12 07:45:22.33	131.43	39.44	
2025-01-12 07:45:23.57	132.00	39.24	
2025-01-12 07:45:24.80	132.56	39.04	
2025-01-12 07:45:26.04	133.12	38.83	
2025-01-12 07:45:27.27	133.66	38.62	
2025-01-12 07:45:28.52	134.20	38.41	
2025-01-12 07:45:29.75	134.73	38.21	
2025-01-12 07:45:30.98	135.26	38.00	
2025-01-12 07:45:32.21	135.77	37.78	
2025-01-12 07:45:33.44	136.28	37.57	
2025-01-12 07:45:34.68	136.79	37.36	
2025-01-12 07:45:35.92	137.29	37.14	
2025-01-12 07:45:37.14	137.77	36.93	
2025-01-12 07:45:38.39	138.27	36.71	
2025-01-12 07:45:39.62	138.74	36.49	
2025-01-12 07:45:40.87	139.22	36.27	
2025-01-12 07:45:42.10	139.68	36.06	
2025-01-12 07:45:43.33	140.14	35.84	
2025-01-12 07:45:44.56	140.59	35.62	
2025-01-12 07:45:45.79	141.04	35.40	
2025-01-12 07:45:47.02	141.48	35.18	
2025-01-12 07:45:48.25	141.91	34.96	
2025-01-12 07:45:49.48	142.34	34.74	
2025-01-12 07:45:50.73	142.77	34.52	
2025-01-12 07:45:51.96	143.18	34.30	
2025-01-12 07:45:53.19	143.60	34.08	
2025-01-12 07:45:54.43	144.00	33.86	
2025-01-12 07:45:55.66	144.40	33.64	
2025-01-12 07:45:56.89	144.80	33.43	
2025-01-12 07:45:58.13	145.19	33.21	
2025-01-12 07:45:59.36	145.57	32.99	
2025-01-12 07:46:00.60	145.95	32.77	
2025-01-12 07:46:01.83	146.33	32.55	
2025-01-12 07:46:03.08	146.70	32.33	
2025-01-12 07:46:04.31	147.07	32.11	
2025-01-12 07:46:05.53	147.42	31.90	
2025-01-12 07:46:06.78	147.78	31.68	
2025-01-12 07:46:08.01	148.13	31.46	
2025-01-12 07:46:09.24	148.47	31.25	
2025-01-12 07:46:10.47	148.81	31.04	
2025-01-12 07:46:11.70	149.15	30.82	
2025-01-12 07:46:12.93	149.48	30.61	
2025-01-12 07:46:14.17	149.81	30.40	
2025-01-12 07:46:15.40	150.13	30.18	
2025-01-12 07:46:16.62	150.45	29.98	
2025-01-12 07:46:17.85	150.76	29.77	
2025-01-12 07:46:19.09	151.07	29.56	
2025-01-12 07:46:20.32	151.38	29.35	
2025-01-12 07:46:21.55	151.68	29.14	
2025-01-12 07:46:22.78	151.98	28.93	
2025-01-12 07:46:24.01	152.27	28.73	
2025-01-12 07:46:25.24	152.56	28.52	
2025-01-12 07:46:26.47	152.85	28.32	
2025-01-12 07:46:27.70	153.13	28.11	
2025-01-12 07:46:28.93	153.41	27.91	
2025-01-12 07:46:30.16	153.68	27.71	
2025-01-12 07:46:31.39	153.96	27.51	
2025-01-12 07:46:32.62	154.22	27.31	
2025-01-12 07:46:33.86	154.49	27.11	
2025-01-12 07:46:35.09	154.75	26.91	
2025-01-12 07:46:36.32	155.01	26.72	
2025-01-12 07:46:37.55	155.27	26.52	
2025-01-12 07:46:38.78	155.52	26.33	
2025-01-12 07:46:40.01	155.77	26.13	
2025-01-12 07:46:41.25	156.02	25.94	
2025-01-12 07:46:42.49	156.26	25.74	
2025-01-12 07:46:43.72	156.50	25.55	
2025-01-12 07:46:44.95	156.74	25.36	
2025-01-12 07:46:46.18	156.97	25.17	
2025-01-12 07:46:47.41	157.21	24.98	
2025-01-12 07:46:48.64	157.43	24.80	
2025-01-12 07:46:49.87	157.66	24.61	
2025-01-12 07:46:51.10	157.88	24.43	
2025-01-12 07:46:52.33	158.10	24.24	
2025-01-12 07:46:53.56	158.32	24.06	
2025-01-12 07:46:54.81	158.54	23.87	
2025-01-12 07:46:56.04	158.75	23.69	
2025-01-12 07:46:57.26	158.96	23.51	
2025-01-12 07:46:58.49	159.17	23.33	
2025-01-12 07:46:59.72	159.37	23.16	
2025-01-12 07:47:00.96	159.58	22.98	
2025-01-12 07:47:02.19	159.78	22.80	
2025-01-12 07:47:03.42	159.98	22.63	
2025-01-12 07:47:04.65	160.18	22.45	
2025-01-12 07:47:05.88	160.37	22.28	
2025-01-12 07:47:07.11	160.56	22.11	
2025-01-12 07:47:08.36	160.75	21.93	
2025-01-12 07:47:09.59	160.94	21.76	
2025-01-12 07:47:10.82	161.13	21.59	
2025-01-12 07:47:12.05	161.31	21.42	
2025-01-12 07:47:13.27	161.49	21.26	
2025-01-12 07:47:14.50	161.67	21.09	
2025-01-12 07:47:15.74	161.85	20.92	
2025-01-12 07:47:16.97	162.02	20.76	
2025-01-12 07:47:18.19	162.20	20.59	
2025-01-12 07:47:19.43	162.37	20.43	
2025-01-12 07:47:20.66	162.54	20.27	
2025-01-12 07:47:21.89	162.71	20.11	
2025-01-12 07:47:23.13	162.88	19.95	
2025-01-12 07:47:24.36	163.04	19.79	
2025-01-12 07:47:25.60	163.20	19.63	
2025-01-12 07:47:26.83	163.36	19.47	
2025-01-12 07:47:28.06	163.52	19.31	
2025-01-12 07:47:29.28	163.68	19.16	
2025-01-12 07:47:30.51	163.84	19.00	
2025-01-12 07:47:31.74	163.99	18.85	
2025-01-12 07:47:32.99	164.15	18.69	
2025-01-12 07:47:34.23	164.30	18.54	
2025-01-12 07:47:35.46	164.45	18.39	
2025-01-12 07:47:36.70	164.60	18.23	
2025-01-12 07:47:37.93	164.75	18.08	
2025-01-12 07:47:39.16	164.89	17.94	
2025-01-12 07:47:40.39	165.03	17.79	
2025-01-12 07:47:41.63	165.18	17.64	
2025-01-12 07:47:42.85	165.32	17.49	
2025-01-12 07:47:44.08	165.46	17.35	
2025-01-12 07:47:45.31	165.60	17.20	
2025-01-12 07:47:46.55	165.73	17.06	
2025-01-12 07:47:47.78	165.87	16.91	
2025-01-12 07:47:49.01	166.00	16.77	
2025-01-12 07:47:50.23	166.14	16.63	
2025-01-12 07:47:51.46	166.27	16.49	
2025-01-12 07:47:52.69	166.40	16.35	
2025-01-12 07:47:53.92	166.53	16.21	
2025-01-12 07:47:55.15	166.65	16.07	
2025-01-12 07:47:56.38	166.78	15.93	
2025-01-12 07:47:57.62	166.91	15.79	
2025-01-12 07:47:58.85	167.03	15.66	
2025-01-12 07:48:00.07	167.16	15.52	
2025-01-12 07:48:01.31	167.28	15.39	
2025-01-12 07:48:02.54	167.40	15.25	
2025-01-12 07:48:03.77	167.52	15.12	
2025-01-12 07:48:05.02	167.64	14.98	
2025-01-12 07:48:06.24	167.76	14.85	
2025-01-12 07:48:07.48	167.87	14.72	
2025-01-12 07:48:08.71	167.99	14.59	
2025-01-12 07:48:09.94	168.10	14.46	
2025-01-12 07:48:11.17	168.22	14.33	
2025-01-12 07:48:12.40	168.33	14.20	
2025-01-12 07:48:13.63	168.44	14.07	
2025-01-12 07:48:14.86	168.55	13.94	
2025-01-12 07:48:16.09	168.66	13.82	
2025-01-12 07:48:17.32	168.77	13.69	
2025-01-12 07:48:18.55	168.88	13.56	
2025-01-12 07:48:19.78	168.99	13.44	
2025-01-12 07:48:21.01	169.09	13.31	
2025-01-12 07:48:22.25	169.20	13.19	
2025-01-12 07:48:23.49	169.30	13.06	
2025-01-12 07:48:24.72	169.41	12.94	
2025-01-12 07:48:25.95	169.51	12.82	
2025-01-12 07:48:27.18	169.61	12.70	
2025-01-12 07:48:28.41	169.71	12.58	
2025-01-12 07:48:29.64	169.81	12.46	
2025-01-12 07:48:30.88	169.91	12.34	
2025-01-12 07:48:32.11	170.01	12.22	
2025-01-12 07:48:33.34	170.10	12.10	
2025-01-12 07:48:34.57	170.20	11.98	
2025-01-12 07:48:35.81	170.30	11.86	
2025-01-12 07:48:37.05	170.39	11.74	
2025-01-12 07:48:38.29	170.49	11.63	
2025-01-12 07:48:39.52	170.58	11.51	
2025-01-12 07:48:40.75	170.67	11.40	
2025-01-12 07:48:41.99	170.77	11.28	
2025-01-12 07:48:43.24	170.86	11.16	
2025-01-12 07:48:44.47	170.95	11.05	
2025-01-12 07:48:45.70	171.04	10.94	
2025-01-12 07:48:46.93	171.13	10.83	
2025-01-12 07:48:48.16	171.22	10.71	
2025-01-12 07:48:49.39	171.30	10.60	
2025-01-12 07:48:50.62	171.39	10.49	
2025-01-12 07:48:51.85	171.48	10.38	
2025-01-12 07:48:53.08	171.56	10.27	
2025-01-12 07:48:54.31	171.65	10.16	
2025-01-12 07:48:55.54	171.73	10.05	
2025-01-12 07:48:56.77	171.82	9.94	
2025-01-12 07:48:58.00	171.90	9.84	
2025-01-12 07:48:59.24	171.98	9.73	
2025-01-12 07:49:00.51	172.07	9.62	
2025-01-12 07:49:01.76	172.15	9.51	
2025-01-12 07:49:03.00	172.23	9.40	
2025-01-12 07:49:04.23	172.31	9.30	
2025-01-12 07:49:05.46	172.39	9.19	
2025-01-12 07:49:06.70	172.47	9.08	
2025-01-12 07:49:07.93	172.55	8.98	
2025-01-12 07:49:09.17	172.63	8.88	
2025-01-12 07:49:10.40	172.70	8.77	
2025-01-12 07:49:11.63	172.78	8.67	
2025-01-12 07:49:12.86	172.85	8.57	
2025-01-12 07:49:14.09	172.93	8.46	
2025-01-12 07:49:15.32	173.00	8.36	
2025-01-12 07:49:16.55	173.08	8.26	
2025-01-12 07:49:17.79	173.15	8.16	
2025-01-12 07:49:19.04	173.23	8.06	
2025-01-12 07:49:20.27	173.30	7.96	
2025-01-12 07:49:21.50	173.37	7.86	
2025-01-12 07:49:22.74	173.45	7.76	
2025-01-12 07:49:23.98	173.52	7.66	
2025-01-12 07:49:25.21	173.59	7.56	
2025-01-12 07:49:26.45	173.66	7.46	
2025-01-12 07:49:27.68	173.73	7.36	
2025-01-12 07:49:28.91	173.80	7.27	
2025-01-12 07:49:30.14	173.87	7.17	
2025-01-12 07:49:31.37	173.94	7.07	
2025-01-12 07:49:32.61	174.00	6.98	
2025-01-12 07:49:33.84	174.07	6.88	
2025-01-12 07:49:35.07	174.14	6.78	
2025-01-12 07:49:36.30	174.20	6.69	
2025-01-12 07:49:37.53	174.27	6.59	
2025-01-12 07:49:38.77	174.34	6.50	
2025-01-12 07:49:40.00	174.40	6.41	
2025-01-12 07:49:41.23	174.47	6.31	
2025-01-12 07:49:42.46	174.53	6.22	
2025-01-12 07:49:43.69	174.60	6.13	
2025-01-12 07:49:44.92	174.66	6.03	
2025-01-12 07:49:46.15	174.72	5.94	
2025-01-12 07:49:47.38	174.78	5.85	
2025-01-12 07:49:48.63	174.85	5.76	
2025-01-12 07:49:49.86	174.91	5.66	
2025-01-12 07:49:51.10	174.97	5.57	
2025-01-12 07:49:52.33	175.03	5.48	
2025-01-12 07:49:53.58	175.10	5.39	
2025-01-12 07:49:54.81	175.16	5.30	
2025-01-12 07:49:56.04	175.22	5.21	
2025-01-12 07:49:57.27	175.28	5.12	
2025-01-12 07:49:58.50	175.33	5.03	
2025-01-12 07:49:59.73	175.39	4.94	
2025-01-12 07:50:00.96	175.45	4.86	
2025-01-12 07:50:02.19	175.51	4.77	
2025-01-12 07:50:03.43	175.57	4.68	
2025-01-12 07:50:04.66	175.63	4.59	
2025-01-12 07:50:05.89	175.68	4.50	
2025-01-12 07:50:07.12	175.74	4.42	
2025-01-12 07:50:08.35	175.80	4.33	
2025-01-12 07:50:09.58	175.85	4.24	
2025-01-12 07:50:10.81	175.91	4.16	
2025-01-12 07:50:12.05	175.96	4.07	

#Closed at: 2025-01-12 07:50:13