passes_logs/2025/01/12/SPB_Silybum_02/SPB_Silybum_02__20250112_231015_SUOMI_NPP_rec.log

#Pass ID: 20250112_231015_SUOMI NPP
#Satellite: SUOMI NPP
#Configuration: NPP
#Start time: 2025-01-12 23:10:15

#Version: 2.0.20230423
#Station: SPB_Silybum_02
#Location: 30.233357 lon 59.946436 lat
#TLE: 1 37849U 11061A   25012.17094835  .00000145  00000+0  89644-4 0  9991
#TLE: 2 37849  98.7443 313.1954 0001789  45.3429 314.7892 14.19536935684510

#Time	Az	El	Level	Level2	SNR	BER	Gain	Gain2
2025-01-12 23:10:17.84	22.87	4.14	
2025-01-12 23:10:19.28	22.95	4.23	
2025-01-12 23:10:20.72	23.04	4.33	
2025-01-12 23:10:22.15	23.12	4.42	
2025-01-12 23:10:23.59	23.20	4.51	
2025-01-12 23:10:25.04	23.29	4.60	
2025-01-12 23:10:26.47	23.37	4.69	
2025-01-12 23:10:27.91	23.45	4.79	
2025-01-12 23:10:29.34	23.54	4.88	
2025-01-12 23:10:30.79	23.62	4.97	
2025-01-12 23:10:32.23	23.71	5.07	
2025-01-12 23:10:33.67	23.80	5.16	
2025-01-12 23:10:35.11	23.88	5.26	
2025-01-12 23:10:36.54	23.97	5.35	
2025-01-12 23:10:37.98	24.06	5.45	
2025-01-12 23:10:39.42	24.15	5.54	
2025-01-12 23:10:40.85	24.24	5.64	
2025-01-12 23:10:42.29	24.33	5.73	
2025-01-12 23:10:43.73	24.42	5.83	
2025-01-12 23:10:45.16	24.51	5.93	
2025-01-12 23:10:46.59	24.60	6.02	
2025-01-12 23:10:48.03	24.69	6.12	
2025-01-12 23:10:49.46	24.78	6.22	
2025-01-12 23:10:50.90	24.88	6.32	
2025-01-12 23:10:52.35	24.97	6.41	
2025-01-12 23:10:53.78	25.06	6.51	
2025-01-12 23:10:55.21	25.16	6.61	
2025-01-12 23:10:56.65	25.25	6.71	
2025-01-12 23:10:58.09	25.35	6.81	
2025-01-12 23:10:59.52	25.45	6.91	
2025-01-12 23:11:00.97	25.54	7.01	
2025-01-12 23:11:02.41	25.64	7.11	
2025-01-12 23:11:03.84	25.74	7.21	
2025-01-12 23:11:05.28	25.84	7.31	
2025-01-12 23:11:06.71	25.94	7.41	
2025-01-12 23:11:08.15	26.04	7.51	
2025-01-12 23:11:09.60	26.14	7.62	
2025-01-12 23:11:11.04	26.24	7.72	
2025-01-12 23:11:12.47	26.34	7.82	
2025-01-12 23:11:13.91	26.45	7.92	
2025-01-12 23:11:15.34	26.55	8.03	
2025-01-12 23:11:16.78	26.66	8.13	
2025-01-12 23:11:18.23	26.76	8.24	
2025-01-12 23:11:19.69	26.87	8.34	
2025-01-12 23:11:21.12	26.98	8.45	
2025-01-12 23:11:22.56	27.08	8.55	
2025-01-12 23:11:23.99	27.19	8.66	
2025-01-12 23:11:25.43	27.30	8.76	
2025-01-12 23:11:26.88	27.41	8.87	
2025-01-12 23:11:28.31	27.52	8.98	
2025-01-12 23:11:29.75	27.63	9.08	
2025-01-12 23:11:31.18	27.74	9.19	
2025-01-12 23:11:32.63	27.86	9.30	
2025-01-12 23:11:34.07	27.97	9.41	
2025-01-12 23:11:35.51	28.08	9.52	
2025-01-12 23:11:36.96	28.20	9.63	
2025-01-12 23:11:38.40	28.32	9.73	
2025-01-12 23:11:39.83	28.43	9.84	
2025-01-12 23:11:41.27	28.55	9.95	
2025-01-12 23:11:42.72	28.67	10.07	
2025-01-12 23:11:44.16	28.79	10.18	
2025-01-12 23:11:45.60	28.91	10.29	
2025-01-12 23:11:47.03	29.03	10.40	
2025-01-12 23:11:48.46	29.15	10.51	
2025-01-12 23:11:49.90	29.27	10.62	
2025-01-12 23:11:51.34	29.40	10.74	
2025-01-12 23:11:52.77	29.52	10.85	
2025-01-12 23:11:54.21	29.64	10.96	
2025-01-12 23:11:55.64	29.77	11.08	
2025-01-12 23:11:57.09	29.90	11.19	
2025-01-12 23:11:58.54	30.03	11.31	
2025-01-12 23:11:59.97	30.16	11.42	
2025-01-12 23:12:01.40	30.29	11.54	
2025-01-12 23:12:02.85	30.42	11.65	
2025-01-12 23:12:04.28	30.55	11.77	
2025-01-12 23:12:05.72	30.68	11.89	
2025-01-12 23:12:07.16	30.82	12.01	
2025-01-12 23:12:08.59	30.95	12.12	
2025-01-12 23:12:10.03	31.09	12.24	
2025-01-12 23:12:11.46	31.22	12.36	
2025-01-12 23:12:12.89	31.36	12.48	
2025-01-12 23:12:14.33	31.50	12.60	
2025-01-12 23:12:15.78	31.64	12.72	
2025-01-12 23:12:17.22	31.78	12.84	
2025-01-12 23:12:18.65	31.92	12.96	
2025-01-12 23:12:20.10	32.07	13.08	
2025-01-12 23:12:21.53	32.21	13.20	
2025-01-12 23:12:22.97	32.36	13.33	
2025-01-12 23:12:24.42	32.51	13.45	
2025-01-12 23:12:25.85	32.66	13.57	
2025-01-12 23:12:27.30	32.81	13.70	
2025-01-12 23:12:28.74	32.96	13.82	
2025-01-12 23:12:30.18	33.11	13.95	
2025-01-12 23:12:31.61	33.26	14.07	
2025-01-12 23:12:33.05	33.42	14.20	
2025-01-12 23:12:34.49	33.57	14.32	
2025-01-12 23:12:35.92	33.73	14.45	
2025-01-12 23:12:37.36	33.89	14.58	
2025-01-12 23:12:38.81	34.05	14.71	
2025-01-12 23:12:40.26	34.21	14.83	
2025-01-12 23:12:41.69	34.37	14.96	
2025-01-12 23:12:43.13	34.53	15.09	
2025-01-12 23:12:44.57	34.70	15.22	
2025-01-12 23:12:46.00	34.87	15.35	
2025-01-12 23:12:47.43	35.03	15.48	
2025-01-12 23:12:48.87	35.20	15.61	
2025-01-12 23:12:50.31	35.37	15.74	
2025-01-12 23:12:51.74	35.54	15.87	
2025-01-12 23:12:53.18	35.72	16.01	
2025-01-12 23:12:54.61	35.89	16.14	
2025-01-12 23:12:56.05	36.07	16.27	
2025-01-12 23:12:57.48	36.24	16.40	
2025-01-12 23:12:58.92	36.42	16.54	
2025-01-12 23:13:00.37	36.61	16.68	
2025-01-12 23:13:01.80	36.79	16.81	
2025-01-12 23:13:03.24	36.97	16.95	
2025-01-12 23:13:04.69	37.16	17.08	
2025-01-12 23:13:06.12	37.35	17.22	
2025-01-12 23:13:07.56	37.54	17.36	
2025-01-12 23:13:09.01	37.73	17.49	
2025-01-12 23:13:10.45	37.92	17.63	
2025-01-12 23:13:11.88	38.11	17.77	
2025-01-12 23:13:13.32	38.31	17.91	
2025-01-12 23:13:14.75	38.51	18.05	
2025-01-12 23:13:16.19	38.71	18.19	
2025-01-12 23:13:17.63	38.91	18.33	
2025-01-12 23:13:19.06	39.11	18.47	
2025-01-12 23:13:20.51	39.32	18.61	
2025-01-12 23:13:21.95	39.52	18.75	
2025-01-12 23:13:23.39	39.73	18.90	
2025-01-12 23:13:24.82	39.94	19.04	
2025-01-12 23:13:26.26	40.15	19.18	
2025-01-12 23:13:27.70	40.37	19.33	
2025-01-12 23:13:29.13	40.58	19.47	
2025-01-12 23:13:30.57	40.80	19.62	
2025-01-12 23:13:32.00	41.02	19.76	
2025-01-12 23:13:33.44	41.24	19.91	
2025-01-12 23:13:34.88	41.47	20.05	
2025-01-12 23:13:36.34	41.70	20.20	
2025-01-12 23:13:37.77	41.92	20.35	
2025-01-12 23:13:39.21	42.16	20.49	
2025-01-12 23:13:40.65	42.39	20.64	
2025-01-12 23:13:42.11	42.63	20.79	
2025-01-12 23:13:43.55	42.86	20.94	
2025-01-12 23:13:44.98	43.10	21.09	
2025-01-12 23:13:46.43	43.35	21.24	
2025-01-12 23:13:47.87	43.59	21.39	
2025-01-12 23:13:49.30	43.84	21.54	
2025-01-12 23:13:50.73	44.08	21.69	
2025-01-12 23:13:52.17	44.33	21.84	
2025-01-12 23:13:53.60	44.59	21.99	
2025-01-12 23:13:55.04	44.84	22.14	
2025-01-12 23:13:56.47	45.10	22.29	
2025-01-12 23:13:57.93	45.36	22.45	
2025-01-12 23:13:59.36	45.63	22.60	
2025-01-12 23:14:00.79	45.89	22.75	
2025-01-12 23:14:02.23	46.16	22.90	
2025-01-12 23:14:03.67	46.43	23.06	
2025-01-12 23:14:05.10	46.70	23.21	
2025-01-12 23:14:06.55	46.98	23.36	
2025-01-12 23:14:07.99	47.26	23.52	
2025-01-12 23:14:09.44	47.54	23.67	
2025-01-12 23:14:10.88	47.83	23.83	
2025-01-12 23:14:12.31	48.12	23.98	
2025-01-12 23:14:13.75	48.41	24.14	
2025-01-12 23:14:15.18	48.70	24.29	
2025-01-12 23:14:16.62	48.99	24.45	
2025-01-12 23:14:18.06	49.29	24.60	
2025-01-12 23:14:19.49	49.59	24.76	
2025-01-12 23:14:20.93	49.90	24.91	
2025-01-12 23:14:22.37	50.20	25.07	
2025-01-12 23:14:23.80	50.51	25.22	
2025-01-12 23:14:25.24	50.82	25.38	
2025-01-12 23:14:26.68	51.14	25.54	
2025-01-12 23:14:28.12	51.46	25.69	
2025-01-12 23:14:29.57	51.79	25.85	
2025-01-12 23:14:31.00	52.11	26.01	
2025-01-12 23:14:32.44	52.44	26.16	
2025-01-12 23:14:33.89	52.77	26.32	
2025-01-12 23:14:35.32	53.11	26.47	
2025-01-12 23:14:36.75	53.44	26.63	
2025-01-12 23:14:38.18	53.78	26.78	
2025-01-12 23:14:39.63	54.13	26.94	
2025-01-12 23:14:41.07	54.48	27.09	
2025-01-12 23:14:42.50	54.83	27.25	
2025-01-12 23:14:43.93	55.18	27.40	
2025-01-12 23:14:45.37	55.54	27.56	
2025-01-12 23:14:46.81	55.90	27.71	
2025-01-12 23:14:48.24	56.26	27.86	
2025-01-12 23:14:49.67	56.63	28.02	
2025-01-12 23:14:51.11	57.00	28.17	
2025-01-12 23:14:52.54	57.38	28.32	
2025-01-12 23:14:53.98	57.76	28.47	
2025-01-12 23:14:55.41	58.14	28.62	
2025-01-12 23:14:56.85	58.52	28.77	
2025-01-12 23:14:58.28	58.91	28.92	
2025-01-12 23:14:59.72	59.30	29.07	
2025-01-12 23:15:01.15	59.70	29.22	
2025-01-12 23:15:02.60	60.10	29.37	
2025-01-12 23:15:04.05	60.51	29.52	
2025-01-12 23:15:05.48	60.92	29.67	
2025-01-12 23:15:06.93	61.33	29.81	
2025-01-12 23:15:08.37	61.75	29.96	
2025-01-12 23:15:09.81	62.17	30.10	
2025-01-12 23:15:11.25	62.59	30.25	
2025-01-12 23:15:12.69	63.02	30.39	
2025-01-12 23:15:14.13	63.45	30.53	
2025-01-12 23:15:15.57	63.88	30.67	
2025-01-12 23:15:17.02	64.32	30.81	
2025-01-12 23:15:18.45	64.76	30.95	
2025-01-12 23:15:19.91	65.21	31.09	
2025-01-12 23:15:21.34	65.66	31.22	
2025-01-12 23:15:22.79	66.11	31.36	
2025-01-12 23:15:24.23	66.57	31.49	
2025-01-12 23:15:25.66	67.03	31.62	
2025-01-12 23:15:27.10	67.49	31.75	
2025-01-12 23:15:28.54	67.96	31.88	
2025-01-12 23:15:29.99	68.43	32.01	
2025-01-12 23:15:31.42	68.90	32.13	
2025-01-12 23:15:32.86	69.38	32.26	
2025-01-12 23:15:34.29	69.86	32.38	
2025-01-12 23:15:35.75	70.35	32.50	
2025-01-12 23:15:37.20	70.85	32.62	
2025-01-12 23:15:38.63	71.34	32.74	
2025-01-12 23:15:40.07	71.83	32.85	
2025-01-12 23:15:41.51	72.33	32.97	
2025-01-12 23:15:42.95	72.84	33.08	
2025-01-12 23:15:44.38	73.34	33.19	
2025-01-12 23:15:45.83	73.85	33.30	
2025-01-12 23:15:47.26	74.36	33.40	
2025-01-12 23:15:48.70	74.88	33.50	
2025-01-12 23:15:50.13	75.40	33.60	
2025-01-12 23:15:51.57	75.92	33.70	
2025-01-12 23:15:53.00	76.44	33.80	
2025-01-12 23:15:54.43	76.97	33.89	
2025-01-12 23:15:55.87	77.50	33.98	
2025-01-12 23:15:57.31	78.03	34.07	
2025-01-12 23:15:58.74	78.57	34.16	
2025-01-12 23:16:00.19	79.11	34.24	
2025-01-12 23:16:01.63	79.66	34.33	
2025-01-12 23:16:03.08	80.21	34.41	
2025-01-12 23:16:04.52	80.76	34.48	
2025-01-12 23:16:05.97	81.31	34.56	
2025-01-12 23:16:07.41	81.86	34.63	
2025-01-12 23:16:08.84	82.42	34.69	
2025-01-12 23:16:10.27	82.97	34.76	
2025-01-12 23:16:11.71	83.53	34.82	
2025-01-12 23:16:13.14	84.09	34.88	
2025-01-12 23:16:14.61	84.67	34.94	
2025-01-12 23:16:16.05	85.23	34.99	
2025-01-12 23:16:17.49	85.80	35.04	
2025-01-12 23:16:18.94	86.38	35.09	
2025-01-12 23:16:20.38	86.95	35.14	
2025-01-12 23:16:21.83	87.53	35.18	
2025-01-12 23:16:23.28	88.10	35.22	
2025-01-12 23:16:24.72	88.68	35.25	
2025-01-12 23:16:26.15	89.25	35.28	
2025-01-12 23:16:27.62	89.84	35.31	
2025-01-12 23:16:29.05	90.42	35.34	
2025-01-12 23:16:30.49	91.00	35.36	
2025-01-12 23:16:31.93	91.58	35.38	
2025-01-12 23:16:33.36	92.16	35.39	
2025-01-12 23:16:34.81	92.74	35.41	
2025-01-12 23:16:36.25	93.33	35.42	
2025-01-12 23:16:37.69	93.91	35.42	
2025-01-12 23:16:39.12	94.49	35.43	
2025-01-12 23:16:40.56	95.07	35.43	
2025-01-12 23:16:41.99	95.65	35.42	
2025-01-12 23:16:43.42	96.23	35.42	
2025-01-12 23:16:44.87	96.81	35.41	
2025-01-12 23:16:46.31	97.40	35.39	
2025-01-12 23:16:47.75	97.98	35.38	
2025-01-12 23:16:49.19	98.56	35.36	
2025-01-12 23:16:50.62	99.14	35.33	
2025-01-12 23:16:52.05	99.71	35.31	
2025-01-12 23:16:53.48	100.29	35.28	
2025-01-12 23:16:54.92	100.86	35.25	
2025-01-12 23:16:56.36	101.44	35.21	
2025-01-12 23:16:57.79	102.01	35.17	
2025-01-12 23:16:59.23	102.58	35.13	
2025-01-12 23:17:00.66	103.15	35.09	
2025-01-12 23:17:02.10	103.72	35.04	
2025-01-12 23:17:03.55	104.29	34.99	
2025-01-12 23:17:04.99	104.86	34.93	
2025-01-12 23:17:06.42	105.42	34.88	
2025-01-12 23:17:07.86	105.99	34.82	
2025-01-12 23:17:09.30	106.55	34.75	
2025-01-12 23:17:10.74	107.11	34.69	
2025-01-12 23:17:12.17	107.66	34.62	
2025-01-12 23:17:13.61	108.21	34.55	
2025-01-12 23:17:15.04	108.76	34.48	
2025-01-12 23:17:16.49	109.32	34.40	
2025-01-12 23:17:17.92	109.86	34.32	
2025-01-12 23:17:19.36	110.40	34.24	
2025-01-12 23:17:20.80	110.95	34.15	
2025-01-12 23:17:22.24	111.48	34.07	
2025-01-12 23:17:23.67	112.02	33.98	
2025-01-12 23:17:25.12	112.55	33.88	
2025-01-12 23:17:26.55	113.08	33.79	
2025-01-12 23:17:27.99	113.61	33.69	
2025-01-12 23:17:29.42	114.13	33.59	
2025-01-12 23:17:30.86	114.65	33.49	
2025-01-12 23:17:32.30	115.17	33.39	
2025-01-12 23:17:33.73	115.68	33.28	
2025-01-12 23:17:35.17	116.19	33.18	
2025-01-12 23:17:36.60	116.69	33.07	
2025-01-12 23:17:38.04	117.20	32.95	
2025-01-12 23:17:39.48	117.70	32.84	
2025-01-12 23:17:40.91	118.19	32.72	
2025-01-12 23:17:42.34	118.68	32.61	
2025-01-12 23:17:43.78	119.17	32.49	
2025-01-12 23:17:45.21	119.65	32.37	
2025-01-12 23:17:46.65	120.14	32.24	
2025-01-12 23:17:48.10	120.62	32.12	
2025-01-12 23:17:49.53	121.09	31.99	
2025-01-12 23:17:50.97	121.57	31.86	
2025-01-12 23:17:52.42	122.04	31.73	
2025-01-12 23:17:53.86	122.50	31.60	
2025-01-12 23:17:55.29	122.96	31.47	
2025-01-12 23:17:56.73	123.42	31.34	
2025-01-12 23:17:58.16	123.87	31.20	
2025-01-12 23:17:59.59	124.32	31.07	
2025-01-12 23:18:01.04	124.77	30.93	
2025-01-12 23:18:02.48	125.21	30.79	
2025-01-12 23:18:03.91	125.65	30.65	
2025-01-12 23:18:05.35	126.08	30.51	
2025-01-12 23:18:06.78	126.51	30.37	
2025-01-12 23:18:08.22	126.94	30.22	
2025-01-12 23:18:09.65	127.36	30.08	
2025-01-12 23:18:11.08	127.78	29.94	
2025-01-12 23:18:12.53	128.20	29.79	
2025-01-12 23:18:13.96	128.61	29.64	
2025-01-12 23:18:15.39	129.01	29.50	
2025-01-12 23:18:16.83	129.42	29.35	
2025-01-12 23:18:18.27	129.82	29.20	
2025-01-12 23:18:19.71	130.22	29.05	
2025-01-12 23:18:21.15	130.62	28.90	
2025-01-12 23:18:22.58	131.00	28.75	
2025-01-12 23:18:24.02	131.39	28.59	
2025-01-12 23:18:25.46	131.78	28.44	
2025-01-12 23:18:26.90	132.16	28.29	
2025-01-12 23:18:28.35	132.54	28.13	
2025-01-12 23:18:29.78	132.91	27.98	
2025-01-12 23:18:31.21	133.27	27.83	
2025-01-12 23:18:32.64	133.64	27.67	
2025-01-12 23:18:34.08	134.00	27.52	
2025-01-12 23:18:35.52	134.36	27.36	
2025-01-12 23:18:36.96	134.72	27.21	
2025-01-12 23:18:38.40	135.07	27.05	
2025-01-12 23:18:39.84	135.42	26.90	
2025-01-12 23:18:41.28	135.77	26.74	
2025-01-12 23:18:42.71	136.11	26.58	
2025-01-12 23:18:44.16	136.45	26.43	
2025-01-12 23:18:45.60	136.78	26.27	
2025-01-12 23:18:47.04	137.12	26.11	
2025-01-12 23:18:48.48	137.45	25.96	
2025-01-12 23:18:49.92	137.77	25.80	
2025-01-12 23:18:51.37	138.10	25.64	
2025-01-12 23:18:52.81	138.42	25.48	
2025-01-12 23:18:54.25	138.74	25.33	
2025-01-12 23:18:55.69	139.05	25.17	
2025-01-12 23:18:57.12	139.36	25.01	
2025-01-12 23:18:58.56	139.67	24.86	
2025-01-12 23:19:00.01	139.98	24.70	
2025-01-12 23:19:01.46	140.28	24.54	
2025-01-12 23:19:02.90	140.58	24.38	
2025-01-12 23:19:04.33	140.87	24.23	
2025-01-12 23:19:05.77	141.17	24.07	
2025-01-12 23:19:07.21	141.46	23.91	
2025-01-12 23:19:08.64	141.74	23.76	
2025-01-12 23:19:10.08	142.03	23.60	
2025-01-12 23:19:11.52	142.31	23.45	
2025-01-12 23:19:12.95	142.59	23.29	
2025-01-12 23:19:14.38	142.86	23.14	
2025-01-12 23:19:15.83	143.14	22.98	
2025-01-12 23:19:17.28	143.41	22.83	
2025-01-12 23:19:18.71	143.68	22.68	
2025-01-12 23:19:20.15	143.95	22.52	
2025-01-12 23:19:21.60	144.21	22.37	
2025-01-12 23:19:23.04	144.48	22.21	
2025-01-12 23:19:24.47	144.73	22.06	
2025-01-12 23:19:25.91	144.99	21.91	
2025-01-12 23:19:27.34	145.24	21.76	
2025-01-12 23:19:28.78	145.49	21.61	
2025-01-12 23:19:30.22	145.74	21.45	
2025-01-12 23:19:31.65	145.99	21.30	
2025-01-12 23:19:33.10	146.23	21.15	
2025-01-12 23:19:34.54	146.48	21.00	
2025-01-12 23:19:35.97	146.71	20.85	
2025-01-12 23:19:37.41	146.95	20.70	
2025-01-12 23:19:38.87	147.19	20.55	
2025-01-12 23:19:40.31	147.42	20.40	
2025-01-12 23:19:41.76	147.66	20.25	
2025-01-12 23:19:43.20	147.89	20.10	
2025-01-12 23:19:44.65	148.11	19.96	
2025-01-12 23:19:46.07	148.34	19.81	
2025-01-12 23:19:47.51	148.56	19.66	
2025-01-12 23:19:48.95	148.78	19.52	
2025-01-12 23:19:50.38	149.00	19.37	
2025-01-12 23:19:51.82	149.21	19.23	
2025-01-12 23:19:53.26	149.43	19.08	
2025-01-12 23:19:54.69	149.64	18.94	
2025-01-12 23:19:56.12	149.85	18.80	
2025-01-12 23:19:57.57	150.06	18.65	
2025-01-12 23:19:59.01	150.26	18.51	
2025-01-12 23:20:00.45	150.47	18.37	
2025-01-12 23:20:01.88	150.67	18.22	
2025-01-12 23:20:03.34	150.87	18.08	
2025-01-12 23:20:04.78	151.07	17.94	
2025-01-12 23:20:06.23	151.27	17.80	
2025-01-12 23:20:07.66	151.47	17.66	
2025-01-12 23:20:09.10	151.66	17.52	
2025-01-12 23:20:10.55	151.86	17.38	
2025-01-12 23:20:11.98	152.05	17.24	
2025-01-12 23:20:13.43	152.24	17.10	
2025-01-12 23:20:14.86	152.42	16.97	
2025-01-12 23:20:16.30	152.61	16.83	
2025-01-12 23:20:17.73	152.79	16.69	
2025-01-12 23:20:19.17	152.97	16.56	
2025-01-12 23:20:20.60	153.15	16.42	
2025-01-12 23:20:22.03	153.33	16.29	
2025-01-12 23:20:23.46	153.51	16.15	
2025-01-12 23:20:24.90	153.68	16.02	
2025-01-12 23:20:26.34	153.86	15.89	
2025-01-12 23:20:27.77	154.03	15.75	
2025-01-12 23:20:29.21	154.20	15.62	
2025-01-12 23:20:30.64	154.37	15.49	
2025-01-12 23:20:32.08	154.54	15.36	
2025-01-12 23:20:33.51	154.71	15.23	
2025-01-12 23:20:34.94	154.87	15.10	
2025-01-12 23:20:36.40	155.04	14.96	
2025-01-12 23:20:37.83	155.20	14.83	
2025-01-12 23:20:39.27	155.36	14.71	
2025-01-12 23:20:40.71	155.52	14.58	
2025-01-12 23:20:42.14	155.68	14.45	
2025-01-12 23:20:43.58	155.84	14.32	
2025-01-12 23:20:45.01	155.99	14.19	
2025-01-12 23:20:46.45	156.15	14.07	
2025-01-12 23:20:47.89	156.30	13.94	
2025-01-12 23:20:49.32	156.46	13.81	
2025-01-12 23:20:50.75	156.61	13.69	
2025-01-12 23:20:52.19	156.76	13.56	
2025-01-12 23:20:53.62	156.90	13.44	
2025-01-12 23:20:55.07	157.05	13.32	
2025-01-12 23:20:56.51	157.20	13.19	
2025-01-12 23:20:57.94	157.34	13.07	
2025-01-12 23:20:59.38	157.49	12.95	
2025-01-12 23:21:00.83	157.63	12.82	
2025-01-12 23:21:02.27	157.78	12.70	
2025-01-12 23:21:03.71	157.92	12.58	
2025-01-12 23:21:05.16	158.06	12.46	
2025-01-12 23:21:06.60	158.20	12.34	
2025-01-12 23:21:08.03	158.33	12.22	
2025-01-12 23:21:09.47	158.47	12.10	
2025-01-12 23:21:10.90	158.60	11.98	
2025-01-12 23:21:12.34	158.74	11.86	
2025-01-12 23:21:13.78	158.87	11.74	
2025-01-12 23:21:15.22	159.00	11.62	
2025-01-12 23:21:16.65	159.13	11.51	
2025-01-12 23:21:18.09	159.27	11.39	
2025-01-12 23:21:19.52	159.39	11.27	
2025-01-12 23:21:20.96	159.52	11.16	
2025-01-12 23:21:22.40	159.65	11.04	
2025-01-12 23:21:23.84	159.78	10.93	
2025-01-12 23:21:25.28	159.90	10.81	
2025-01-12 23:21:26.72	160.03	10.70	
2025-01-12 23:21:28.15	160.15	10.58	
2025-01-12 23:21:29.59	160.27	10.47	
2025-01-12 23:21:31.02	160.39	10.36	
2025-01-12 23:21:32.45	160.51	10.25	
2025-01-12 23:21:33.89	160.63	10.13	
2025-01-12 23:21:35.32	160.75	10.02	
2025-01-12 23:21:36.76	160.87	9.91	
2025-01-12 23:21:38.19	160.99	9.80	
2025-01-12 23:21:39.63	161.10	9.69	
2025-01-12 23:21:41.07	161.22	9.58	
2025-01-12 23:21:42.51	161.34	9.47	
2025-01-12 23:21:43.95	161.45	9.36	
2025-01-12 23:21:45.39	161.56	9.25	
2025-01-12 23:21:46.84	161.68	9.14	
2025-01-12 23:21:48.27	161.79	9.03	
2025-01-12 23:21:49.71	161.90	8.92	
2025-01-12 23:21:51.14	162.01	8.82	
2025-01-12 23:21:52.58	162.12	8.71	
2025-01-12 23:21:54.01	162.23	8.60	
2025-01-12 23:21:55.44	162.33	8.50	
2025-01-12 23:21:56.88	162.44	8.39	
2025-01-12 23:21:58.32	162.55	8.28	
2025-01-12 23:21:59.75	162.65	8.18	
2025-01-12 23:22:01.18	162.76	8.08	
2025-01-12 23:22:02.61	162.86	7.97	
2025-01-12 23:22:04.05	162.96	7.87	
2025-01-12 23:22:05.47	163.06	7.76	
2025-01-12 23:22:06.91	163.17	7.66	
2025-01-12 23:22:08.34	163.27	7.56	
2025-01-12 23:22:09.78	163.37	7.45	
2025-01-12 23:22:11.21	163.47	7.35	
2025-01-12 23:22:12.65	163.57	7.25	
2025-01-12 23:22:14.08	163.66	7.15	
2025-01-12 23:22:15.53	163.76	7.05	
2025-01-12 23:22:16.97	163.86	6.94	
2025-01-12 23:22:18.40	163.96	6.84	
2025-01-12 23:22:19.84	164.05	6.74	
2025-01-12 23:22:21.27	164.15	6.64	
2025-01-12 23:22:22.71	164.24	6.54	
2025-01-12 23:22:24.14	164.34	6.44	
2025-01-12 23:22:25.58	164.43	6.34	
2025-01-12 23:22:27.01	164.52	6.25	
2025-01-12 23:22:28.45	164.62	6.15	
2025-01-12 23:22:29.88	164.71	6.05	
2025-01-12 23:22:31.33	164.80	5.95	
2025-01-12 23:22:32.78	164.89	5.85	
2025-01-12 23:22:34.21	164.98	5.76	
2025-01-12 23:22:35.64	165.07	5.66	
2025-01-12 23:22:37.08	165.16	5.56	
2025-01-12 23:22:38.51	165.25	5.47	
2025-01-12 23:22:39.95	165.33	5.37	
2025-01-12 23:22:41.40	165.42	5.27	
2025-01-12 23:22:42.84	165.51	5.18	
2025-01-12 23:22:44.27	165.60	5.08	
2025-01-12 23:22:45.71	165.68	4.99	
2025-01-12 23:22:47.16	165.77	4.89	
2025-01-12 23:22:48.59	165.85	4.80	
2025-01-12 23:22:50.03	165.94	4.70	
2025-01-12 23:22:51.46	166.02	4.61	
2025-01-12 23:22:52.90	166.10	4.52	
2025-01-12 23:22:54.34	166.19	4.42	
2025-01-12 23:22:55.78	166.27	4.33	
2025-01-12 23:22:57.24	166.35	4.23	
2025-01-12 23:22:58.68	166.43	4.14	
2025-01-12 23:23:00.12	166.51	4.05	

#Closed at: 2025-01-12 23:23:00