passes_logs/2025/01/12/SPB_Silybum_02/SPB_Silybum_02__20250112_060749_SUOMI_NPP_rec.log

#Pass ID: 20250112_060749_SUOMI NPP
#Satellite: SUOMI NPP
#Configuration: NPP
#Start time: 2025-01-12 06:09:21

#Version: 2.0.20230423
#Station: SPB_Silybum_02
#Location: 30.233357 lon 59.946436 lat
#TLE: 1 37849U 11061A   25011.81852258  .00000147  00000+0  90749-4 0  9992
#TLE: 2 37849  98.7442 312.8475 0001799  45.9067 314.2257 14.19536766684464

#Time	Az	El	Level	Level2	SNR	BER	Gain	Gain2
2025-01-12 06:09:23.75	30.33	6.85	
2025-01-12 06:09:24.36	30.23	6.87	
2025-01-12 06:09:24.98	30.14	6.88	
2025-01-12 06:09:25.59	30.04	6.89	
2025-01-12 06:09:26.21	29.95	6.91	
2025-01-12 06:09:26.82	29.86	6.92	
2025-01-12 06:09:27.44	29.76	6.94	
2025-01-12 06:09:28.05	29.67	6.95	
2025-01-12 06:09:28.67	29.57	6.97	
2025-01-12 06:09:29.28	29.48	6.98	
2025-01-12 06:09:29.90	29.38	6.99	
2025-01-12 06:09:30.52	29.29	7.01	
2025-01-12 06:09:31.13	29.19	7.02	
2025-01-12 06:09:31.75	29.10	7.04	
2025-01-12 06:09:32.38	29.00	7.05	
2025-01-12 06:09:32.99	28.90	7.06	
2025-01-12 06:09:33.61	28.81	7.08	
2025-01-12 06:09:34.22	28.71	7.09	
2025-01-12 06:09:34.84	28.62	7.10	
2025-01-12 06:09:35.45	28.52	7.12	
2025-01-12 06:09:36.07	28.43	7.13	
2025-01-12 06:09:36.69	28.33	7.14	
2025-01-12 06:09:37.31	28.23	7.16	
2025-01-12 06:09:37.92	28.14	7.17	
2025-01-12 06:09:38.54	28.04	7.18	
2025-01-12 06:09:39.15	27.94	7.20	
2025-01-12 06:09:39.78	27.85	7.21	
2025-01-12 06:09:40.40	27.75	7.22	
2025-01-12 06:09:41.01	27.65	7.24	
2025-01-12 06:09:41.63	27.56	7.25	
2025-01-12 06:09:42.25	27.46	7.26	
2025-01-12 06:09:42.87	27.36	7.27	
2025-01-12 06:09:43.48	27.27	7.29	
2025-01-12 06:09:44.10	27.17	7.30	
2025-01-12 06:09:44.71	27.07	7.31	
2025-01-12 06:09:45.34	26.97	7.32	
2025-01-12 06:09:45.95	26.88	7.34	
2025-01-12 06:09:46.57	26.78	7.35	
2025-01-12 06:09:47.18	26.68	7.36	
2025-01-12 06:09:47.80	26.58	7.37	
2025-01-12 06:09:48.42	26.48	7.38	
2025-01-12 06:09:49.03	26.39	7.40	
2025-01-12 06:09:49.64	26.29	7.41	
2025-01-12 06:09:50.26	26.19	7.42	
2025-01-12 06:09:50.89	26.09	7.43	
2025-01-12 06:09:51.50	26.00	7.44	
2025-01-12 06:09:52.13	25.90	7.45	
2025-01-12 06:09:52.74	25.80	7.47	
2025-01-12 06:09:53.36	25.70	7.48	
2025-01-12 06:09:53.99	25.60	7.49	
2025-01-12 06:09:54.62	25.50	7.50	
2025-01-12 06:09:55.24	25.40	7.51	
2025-01-12 06:09:55.87	25.30	7.52	
2025-01-12 06:09:56.49	25.20	7.53	
2025-01-12 06:09:57.10	25.10	7.54	
2025-01-12 06:09:57.72	25.00	7.55	
2025-01-12 06:09:58.33	24.90	7.57	
2025-01-12 06:09:58.95	24.80	7.58	
2025-01-12 06:09:59.57	24.70	7.59	
2025-01-12 06:10:00.20	24.60	7.60	
2025-01-12 06:10:00.82	24.50	7.61	
2025-01-12 06:10:01.43	24.41	7.62	
2025-01-12 06:10:02.05	24.31	7.63	
2025-01-12 06:10:02.67	24.21	7.64	
2025-01-12 06:10:03.28	24.11	7.65	
2025-01-12 06:10:03.90	24.01	7.66	
2025-01-12 06:10:04.51	23.91	7.67	
2025-01-12 06:10:05.13	23.81	7.68	
2025-01-12 06:10:05.76	23.71	7.69	
2025-01-12 06:10:06.37	23.61	7.70	
2025-01-12 06:10:06.99	23.51	7.71	
2025-01-12 06:10:07.60	23.41	7.72	
2025-01-12 06:10:08.22	23.31	7.73	
2025-01-12 06:10:08.83	23.21	7.74	
2025-01-12 06:10:09.45	23.11	7.75	
2025-01-12 06:10:10.07	23.01	7.76	
2025-01-12 06:10:10.68	22.91	7.76	
2025-01-12 06:10:11.30	22.81	7.77	
2025-01-12 06:10:11.92	22.71	7.78	
2025-01-12 06:10:12.53	22.61	7.79	
2025-01-12 06:10:13.15	22.50	7.80	
2025-01-12 06:10:13.76	22.41	7.81	
2025-01-12 06:10:14.38	22.30	7.82	
2025-01-12 06:10:14.99	22.20	7.83	
2025-01-12 06:10:15.61	22.10	7.84	
2025-01-12 06:10:16.22	22.00	7.84	
2025-01-12 06:10:16.84	21.90	7.85	
2025-01-12 06:10:17.47	21.80	7.86	
2025-01-12 06:10:18.09	21.70	7.87	
2025-01-12 06:10:18.70	21.60	7.88	
2025-01-12 06:10:19.31	21.50	7.88	
2025-01-12 06:10:19.93	21.39	7.89	
2025-01-12 06:10:20.55	21.29	7.90	
2025-01-12 06:10:21.16	21.19	7.91	
2025-01-12 06:10:21.78	21.09	7.92	
2025-01-12 06:10:22.40	20.99	7.92	
2025-01-12 06:10:23.03	20.89	7.93	
2025-01-12 06:10:23.64	20.78	7.94	
2025-01-12 06:10:24.26	20.68	7.95	
2025-01-12 06:10:24.87	20.58	7.95	
2025-01-12 06:10:25.48	20.48	7.96	
2025-01-12 06:10:26.10	20.38	7.97	
2025-01-12 06:10:26.71	20.28	7.98	
2025-01-12 06:10:27.33	20.18	7.98	
2025-01-12 06:10:27.94	20.07	7.99	
2025-01-12 06:10:28.56	19.97	8.00	
2025-01-12 06:10:29.18	19.87	8.00	
2025-01-12 06:10:29.79	19.77	8.01	
2025-01-12 06:10:30.40	19.67	8.02	
2025-01-12 06:10:31.02	19.57	8.02	
2025-01-12 06:10:31.63	19.46	8.03	
2025-01-12 06:10:32.25	19.36	8.03	
2025-01-12 06:10:32.87	19.26	8.04	
2025-01-12 06:10:33.48	19.16	8.05	
2025-01-12 06:10:34.10	19.05	8.05	
2025-01-12 06:10:34.73	18.95	8.06	
2025-01-12 06:10:35.34	18.85	8.07	
2025-01-12 06:10:35.96	18.75	8.07	
2025-01-12 06:10:36.58	18.64	8.08	
2025-01-12 06:10:37.19	18.54	8.08	
2025-01-12 06:10:37.81	18.44	8.09	
2025-01-12 06:10:38.42	18.34	8.09	
2025-01-12 06:10:39.04	18.23	8.10	
2025-01-12 06:10:39.65	18.13	8.10	
2025-01-12 06:10:40.27	18.03	8.11	
2025-01-12 06:10:40.88	17.93	8.11	
2025-01-12 06:10:41.50	17.82	8.12	
2025-01-12 06:10:42.11	17.72	8.12	
2025-01-12 06:10:42.73	17.62	8.13	
2025-01-12 06:10:43.34	17.52	8.13	
2025-01-12 06:10:43.96	17.41	8.14	
2025-01-12 06:10:44.57	17.31	8.14	
2025-01-12 06:10:45.20	17.20	8.15	
2025-01-12 06:10:45.81	17.10	8.15	
2025-01-12 06:10:46.43	17.00	8.16	
2025-01-12 06:10:47.04	16.90	8.16	
2025-01-12 06:10:47.66	16.79	8.17	
2025-01-12 06:10:48.27	16.69	8.17	
2025-01-12 06:10:48.89	16.59	8.17	
2025-01-12 06:10:49.52	16.48	8.18	
2025-01-12 06:10:50.14	16.38	8.18	
2025-01-12 06:10:50.75	16.28	8.18	
2025-01-12 06:10:51.37	16.17	8.19	
2025-01-12 06:10:51.99	16.07	8.19	
2025-01-12 06:10:52.60	15.97	8.20	
2025-01-12 06:10:53.22	15.86	8.20	
2025-01-12 06:10:53.83	15.76	8.20	
2025-01-12 06:10:54.45	15.66	8.21	
2025-01-12 06:10:55.07	15.55	8.21	
2025-01-12 06:10:55.70	15.45	8.21	
2025-01-12 06:10:56.32	15.34	8.21	
2025-01-12 06:10:56.93	15.24	8.22	
2025-01-12 06:10:57.54	15.14	8.22	
2025-01-12 06:10:58.16	15.03	8.22	
2025-01-12 06:10:58.77	14.93	8.23	
2025-01-12 06:10:59.39	14.83	8.23	
2025-01-12 06:11:00.01	14.72	8.23	
2025-01-12 06:11:00.63	14.62	8.23	
2025-01-12 06:11:01.24	14.51	8.24	
2025-01-12 06:11:01.86	14.41	8.24	
2025-01-12 06:11:02.49	14.30	8.24	
2025-01-12 06:11:03.10	14.20	8.24	
2025-01-12 06:11:03.72	14.10	8.24	
2025-01-12 06:11:04.34	13.99	8.25	
2025-01-12 06:11:04.95	13.89	8.25	
2025-01-12 06:11:05.57	13.79	8.25	
2025-01-12 06:11:06.18	13.68	8.25	
2025-01-12 06:11:06.80	13.58	8.25	
2025-01-12 06:11:07.41	13.48	8.25	
2025-01-12 06:11:08.03	13.37	8.25	
2025-01-12 06:11:08.65	13.27	8.26	
2025-01-12 06:11:09.26	13.17	8.26	
2025-01-12 06:11:09.88	13.06	8.26	
2025-01-12 06:11:10.50	12.96	8.26	
2025-01-12 06:11:11.11	12.85	8.26	
2025-01-12 06:11:11.73	12.75	8.26	
2025-01-12 06:11:12.34	12.65	8.26	
2025-01-12 06:11:12.96	12.54	8.26	
2025-01-12 06:11:13.58	12.44	8.26	
2025-01-12 06:11:14.20	12.33	8.26	
2025-01-12 06:11:14.82	12.23	8.26	
2025-01-12 06:11:15.44	12.12	8.26	
2025-01-12 06:11:16.06	12.02	8.26	
2025-01-12 06:11:16.68	11.92	8.26	
2025-01-12 06:11:17.29	11.81	8.26	
2025-01-12 06:11:17.91	11.71	8.26	
2025-01-12 06:11:18.52	11.61	8.26	
2025-01-12 06:11:19.14	11.50	8.26	
2025-01-12 06:11:19.75	11.40	8.26	
2025-01-12 06:11:20.37	11.29	8.26	
2025-01-12 06:11:20.99	11.19	8.26	
2025-01-12 06:11:21.61	11.09	8.26	
2025-01-12 06:11:22.23	10.98	8.26	
2025-01-12 06:11:22.85	10.88	8.26	
2025-01-12 06:11:23.48	10.77	8.26	
2025-01-12 06:11:24.10	10.67	8.26	
2025-01-12 06:11:24.71	10.56	8.25	
2025-01-12 06:11:25.33	10.46	8.25	
2025-01-12 06:11:25.94	10.36	8.25	
2025-01-12 06:11:26.56	10.25	8.25	
2025-01-12 06:11:27.18	10.15	8.25	
2025-01-12 06:11:27.79	10.04	8.25	
2025-01-12 06:11:28.41	9.94	8.25	
2025-01-12 06:11:29.02	9.84	8.24	
2025-01-12 06:11:29.64	9.73	8.24	
2025-01-12 06:11:30.27	9.63	8.24	
2025-01-12 06:11:30.88	9.52	8.24	
2025-01-12 06:11:31.50	9.42	8.24	
2025-01-12 06:11:32.12	9.32	8.23	
2025-01-12 06:11:32.74	9.21	8.23	
2025-01-12 06:11:33.35	9.11	8.23	
2025-01-12 06:11:33.97	9.01	8.23	
2025-01-12 06:11:34.58	8.90	8.22	
2025-01-12 06:11:35.20	8.80	8.22	
2025-01-12 06:11:35.82	8.69	8.22	
2025-01-12 06:11:36.43	8.59	8.22	
2025-01-12 06:11:37.05	8.49	8.21	
2025-01-12 06:11:37.66	8.39	8.21	
2025-01-12 06:11:38.28	8.28	8.21	
2025-01-12 06:11:38.89	8.18	8.20	
2025-01-12 06:11:39.51	8.08	8.20	
2025-01-12 06:11:40.13	7.97	8.20	
2025-01-12 06:11:40.74	7.87	8.19	
2025-01-12 06:11:41.36	7.77	8.19	
2025-01-12 06:11:41.97	7.66	8.19	
2025-01-12 06:11:42.59	7.56	8.18	
2025-01-12 06:11:43.20	7.46	8.18	
2025-01-12 06:11:43.82	7.35	8.18	
2025-01-12 06:11:44.44	7.25	8.17	
2025-01-12 06:11:45.05	7.15	8.17	
2025-01-12 06:11:45.67	7.04	8.16	
2025-01-12 06:11:46.28	6.94	8.16	
2025-01-12 06:11:46.90	6.84	8.15	
2025-01-12 06:11:47.51	6.74	8.15	
2025-01-12 06:11:48.13	6.63	8.15	
2025-01-12 06:11:48.74	6.53	8.14	
2025-01-12 06:11:49.36	6.43	8.14	
2025-01-12 06:11:49.98	6.32	8.13	
2025-01-12 06:11:50.59	6.22	8.13	
2025-01-12 06:11:51.21	6.12	8.12	
2025-01-12 06:11:51.83	6.02	8.12	
2025-01-12 06:11:52.44	5.91	8.11	
2025-01-12 06:11:53.06	5.81	8.11	
2025-01-12 06:11:53.67	5.71	8.10	
2025-01-12 06:11:54.29	5.61	8.10	
2025-01-12 06:11:54.91	5.50	8.09	
2025-01-12 06:11:55.52	5.40	8.09	
2025-01-12 06:11:56.14	5.30	8.08	
2025-01-12 06:11:56.75	5.20	8.07	
2025-01-12 06:11:57.37	5.09	8.07	
2025-01-12 06:11:57.99	4.99	8.06	
2025-01-12 06:11:58.60	4.89	8.06	
2025-01-12 06:11:59.22	4.79	8.05	
2025-01-12 06:11:59.84	4.68	8.04	
2025-01-12 06:12:00.47	4.58	8.04	
2025-01-12 06:12:01.08	4.48	8.03	
2025-01-12 06:12:01.70	4.37	8.03	
2025-01-12 06:12:02.32	4.27	8.02	
2025-01-12 06:12:02.93	4.17	8.01	
2025-01-12 06:12:03.55	4.07	8.01	
2025-01-12 06:12:04.16	3.97	8.00	
2025-01-12 06:12:04.78	3.86	7.99	
2025-01-12 06:12:05.40	3.76	7.99	
2025-01-12 06:12:06.01	3.66	7.98	
2025-01-12 06:12:06.64	3.56	7.97	
2025-01-12 06:12:07.26	3.46	7.96	
2025-01-12 06:12:07.88	3.35	7.96	
2025-01-12 06:12:08.49	3.25	7.95	
2025-01-12 06:12:09.11	3.15	7.94	
2025-01-12 06:12:09.74	3.05	7.94	
2025-01-12 06:12:10.36	2.94	7.93	
2025-01-12 06:12:10.98	2.84	7.92	
2025-01-12 06:12:11.59	2.74	7.91	
2025-01-12 06:12:12.21	2.64	7.90	
2025-01-12 06:12:12.82	2.54	7.90	
2025-01-12 06:12:13.44	2.44	7.89	
2025-01-12 06:12:14.07	2.34	7.88	
2025-01-12 06:12:14.69	2.23	7.87	
2025-01-12 06:12:15.31	2.13	7.86	
2025-01-12 06:12:15.93	2.03	7.86	
2025-01-12 06:12:16.55	1.93	7.85	
2025-01-12 06:12:17.16	1.83	7.84	
2025-01-12 06:12:17.78	1.73	7.83	
2025-01-12 06:12:18.39	1.63	7.82	
2025-01-12 06:12:19.02	1.53	7.81	
2025-01-12 06:12:19.63	1.43	7.80	
2025-01-12 06:12:20.25	1.33	7.80	
2025-01-12 06:12:20.86	1.23	7.79	
2025-01-12 06:12:21.48	1.12	7.78	
2025-01-12 06:12:22.09	1.03	7.77	
2025-01-12 06:12:22.71	0.92	7.76	
2025-01-12 06:12:23.32	0.83	7.75	
2025-01-12 06:12:23.94	0.72	7.74	
2025-01-12 06:12:24.57	0.62	7.73	
2025-01-12 06:12:25.19	0.52	7.72	
2025-01-12 06:12:25.80	0.42	7.71	
2025-01-12 06:12:26.42	0.32	7.70	
2025-01-12 06:12:27.03	0.22	7.69	
2025-01-12 06:12:27.65	0.12	7.68	
2025-01-12 06:12:28.26	0.02	7.67	
2025-01-12 06:12:28.88	359.92	7.66	
2025-01-12 06:12:29.49	359.83	7.65	
2025-01-12 06:12:30.11	359.73	7.64	
2025-01-12 06:12:30.74	359.62	7.63	
2025-01-12 06:12:31.35	359.53	7.62	
2025-01-12 06:12:31.97	359.43	7.61	
2025-01-12 06:12:32.58	359.33	7.60	
2025-01-12 06:12:33.20	359.23	7.59	
2025-01-12 06:12:33.81	359.13	7.58	
2025-01-12 06:12:34.44	359.03	7.57	
2025-01-12 06:12:35.06	358.93	7.56	
2025-01-12 06:12:35.67	358.83	7.55	
2025-01-12 06:12:36.29	358.73	7.54	
2025-01-12 06:12:36.90	358.64	7.53	
2025-01-12 06:12:37.52	358.54	7.52	
2025-01-12 06:12:38.14	358.44	7.51	
2025-01-12 06:12:38.76	358.34	7.49	
2025-01-12 06:12:39.37	358.24	7.48	
2025-01-12 06:12:39.99	358.14	7.47	
2025-01-12 06:12:40.61	358.04	7.46	
2025-01-12 06:12:41.22	357.95	7.45	
2025-01-12 06:12:41.84	357.85	7.44	
2025-01-12 06:12:42.45	357.75	7.43	
2025-01-12 06:12:43.07	357.65	7.41	
2025-01-12 06:12:43.69	357.55	7.40	
2025-01-12 06:12:44.31	357.46	7.39	
2025-01-12 06:12:44.92	357.36	7.38	
2025-01-12 06:12:45.54	357.26	7.37	
2025-01-12 06:12:46.15	357.16	7.35	
2025-01-12 06:12:46.77	357.07	7.34	
2025-01-12 06:12:47.39	356.97	7.33	
2025-01-12 06:12:48.00	356.87	7.32	
2025-01-12 06:12:48.62	356.78	7.31	
2025-01-12 06:12:49.24	356.68	7.29	
2025-01-12 06:12:49.85	356.58	7.28	
2025-01-12 06:12:50.48	356.48	7.27	
2025-01-12 06:12:51.10	356.39	7.26	
2025-01-12 06:12:51.72	356.29	7.24	
2025-01-12 06:12:52.33	356.19	7.23	
2025-01-12 06:12:52.95	356.10	7.22	
2025-01-12 06:12:53.57	356.00	7.20	
2025-01-12 06:12:54.18	355.90	7.19	
2025-01-12 06:12:54.80	355.81	7.18	
2025-01-12 06:12:55.42	355.71	7.16	
2025-01-12 06:12:56.04	355.61	7.15	
2025-01-12 06:12:56.65	355.52	7.14	
2025-01-12 06:12:57.27	355.42	7.12	
2025-01-12 06:12:57.88	355.33	7.11	
2025-01-12 06:12:58.50	355.23	7.10	
2025-01-12 06:12:59.12	355.13	7.08	
2025-01-12 06:12:59.73	355.04	7.07	
2025-01-12 06:13:00.36	354.94	7.06	
2025-01-12 06:13:00.99	354.84	7.04	
2025-01-12 06:13:01.61	354.75	7.03	
2025-01-12 06:13:02.23	354.65	7.02	
2025-01-12 06:13:02.84	354.56	7.00	
2025-01-12 06:13:03.46	354.46	6.99	
2025-01-12 06:13:04.07	354.37	6.97	
2025-01-12 06:13:04.69	354.27	6.96	
2025-01-12 06:13:05.30	354.18	6.95	
2025-01-12 06:13:05.92	354.09	6.93	
2025-01-12 06:13:06.54	353.99	6.92	
2025-01-12 06:13:07.15	353.90	6.90	
2025-01-12 06:13:07.77	353.80	6.89	
2025-01-12 06:13:08.38	353.71	6.87	
2025-01-12 06:13:09.01	353.61	6.86	
2025-01-12 06:13:09.63	353.52	6.84	
2025-01-12 06:13:10.25	353.42	6.83	
2025-01-12 06:13:10.86	353.33	6.81	
2025-01-12 06:13:11.48	353.24	6.80	
2025-01-12 06:13:12.10	353.14	6.78	
2025-01-12 06:13:12.71	353.05	6.77	
2025-01-12 06:13:13.33	352.96	6.75	
2025-01-12 06:13:13.96	352.86	6.74	
2025-01-12 06:13:14.57	352.77	6.72	
2025-01-12 06:13:15.19	352.67	6.71	
2025-01-12 06:13:15.80	352.58	6.69	
2025-01-12 06:13:16.42	352.49	6.68	
2025-01-12 06:13:17.04	352.40	6.66	
2025-01-12 06:13:17.65	352.30	6.65	
2025-01-12 06:13:18.27	352.21	6.63	
2025-01-12 06:13:18.89	352.12	6.62	
2025-01-12 06:13:19.50	352.03	6.60	
2025-01-12 06:13:20.13	351.93	6.59	
2025-01-12 06:13:20.75	351.84	6.57	
2025-01-12 06:13:21.36	351.75	6.55	
2025-01-12 06:13:21.98	351.65	6.54	
2025-01-12 06:13:22.59	351.56	6.52	
2025-01-12 06:13:23.21	351.47	6.51	
2025-01-12 06:13:23.83	351.38	6.49	
2025-01-12 06:13:24.46	351.29	6.47	
2025-01-12 06:13:25.07	351.20	6.46	
2025-01-12 06:13:25.70	351.10	6.44	
2025-01-12 06:13:26.33	351.01	6.42	
2025-01-12 06:13:26.95	350.92	6.41	
2025-01-12 06:13:27.56	350.83	6.39	
2025-01-12 06:13:28.18	350.73	6.37	
2025-01-12 06:13:28.79	350.64	6.36	
2025-01-12 06:13:29.41	350.55	6.34	
2025-01-12 06:13:30.03	350.46	6.33	
2025-01-12 06:13:30.66	350.37	6.31	
2025-01-12 06:13:31.27	350.28	6.29	
2025-01-12 06:13:31.90	350.19	6.27	
2025-01-12 06:13:32.52	350.10	6.26	
2025-01-12 06:13:33.13	350.01	6.24	
2025-01-12 06:13:33.75	349.92	6.22	
2025-01-12 06:13:34.37	349.83	6.21	
2025-01-12 06:13:34.98	349.74	6.19	
2025-01-12 06:13:35.60	349.65	6.17	
2025-01-12 06:13:36.21	349.56	6.16	
2025-01-12 06:13:36.83	349.47	6.14	
2025-01-12 06:13:37.44	349.38	6.12	
2025-01-12 06:13:38.06	349.29	6.10	
2025-01-12 06:13:38.67	349.20	6.09	
2025-01-12 06:13:39.31	349.11	6.07	
2025-01-12 06:13:39.93	349.02	6.05	
2025-01-12 06:13:40.55	348.93	6.03	
2025-01-12 06:13:41.16	348.84	6.02	
2025-01-12 06:13:41.78	348.75	6.00	
2025-01-12 06:13:42.39	348.67	5.98	
2025-01-12 06:13:43.01	348.58	5.96	
2025-01-12 06:13:43.64	348.49	5.94	
2025-01-12 06:13:44.25	348.40	5.93	
2025-01-12 06:13:44.87	348.31	5.91	
2025-01-12 06:13:45.48	348.22	5.89	
2025-01-12 06:13:46.10	348.14	5.87	
2025-01-12 06:13:46.72	348.05	5.85	
2025-01-12 06:13:47.34	347.96	5.84	
2025-01-12 06:13:47.95	347.87	5.82	
2025-01-12 06:13:48.57	347.79	5.80	
2025-01-12 06:13:49.18	347.70	5.78	
2025-01-12 06:13:49.80	347.61	5.76	
2025-01-12 06:13:50.42	347.52	5.74	
2025-01-12 06:13:51.03	347.44	5.73	
2025-01-12 06:13:51.65	347.35	5.71	
2025-01-12 06:13:52.27	347.26	5.69	
2025-01-12 06:13:52.89	347.18	5.67	
2025-01-12 06:13:53.50	347.09	5.65	
2025-01-12 06:13:54.13	347.00	5.63	
2025-01-12 06:13:54.75	346.92	5.61	
2025-01-12 06:13:55.37	346.83	5.60	
2025-01-12 06:13:55.99	346.74	5.58	
2025-01-12 06:13:56.60	346.66	5.56	
2025-01-12 06:13:57.22	346.57	5.54	
2025-01-12 06:13:57.83	346.49	5.52	
2025-01-12 06:13:58.44	346.40	5.50	
2025-01-12 06:13:59.06	346.32	5.48	
2025-01-12 06:13:59.69	346.23	5.46	
2025-01-12 06:14:00.31	346.14	5.44	
2025-01-12 06:14:00.92	346.06	5.42	
2025-01-12 06:14:01.54	345.97	5.41	
2025-01-12 06:14:02.15	345.89	5.39	
2025-01-12 06:14:02.77	345.80	5.37	
2025-01-12 06:14:03.38	345.72	5.35	
2025-01-12 06:14:04.00	345.63	5.33	
2025-01-12 06:14:04.61	345.55	5.31	
2025-01-12 06:14:05.23	345.47	5.29	
2025-01-12 06:14:05.84	345.38	5.27	
2025-01-12 06:14:06.46	345.30	5.25	
2025-01-12 06:14:07.08	345.21	5.23	
2025-01-12 06:14:07.70	345.13	5.21	
2025-01-12 06:14:08.32	345.05	5.19	
2025-01-12 06:14:08.93	344.96	5.17	
2025-01-12 06:14:09.55	344.88	5.15	
2025-01-12 06:14:10.16	344.80	5.13	
2025-01-12 06:14:10.78	344.71	5.11	
2025-01-12 06:14:11.39	344.63	5.09	
2025-01-12 06:14:12.01	344.55	5.07	
2025-01-12 06:14:12.63	344.46	5.05	
2025-01-12 06:14:13.25	344.38	5.03	
2025-01-12 06:14:13.88	344.30	5.01	
2025-01-12 06:14:14.50	344.21	4.99	
2025-01-12 06:14:15.13	344.13	4.97	
2025-01-12 06:14:15.75	344.04	4.95	
2025-01-12 06:14:16.36	343.96	4.93	
2025-01-12 06:14:16.98	343.88	4.91	
2025-01-12 06:14:17.59	343.80	4.89	
2025-01-12 06:14:18.21	343.72	4.87	
2025-01-12 06:14:18.83	343.64	4.85	
2025-01-12 06:14:19.44	343.55	4.83	
2025-01-12 06:14:20.06	343.47	4.81	
2025-01-12 06:14:20.68	343.39	4.79	
2025-01-12 06:14:21.29	343.31	4.77	
2025-01-12 06:14:21.91	343.23	4.75	
2025-01-12 06:14:22.53	343.15	4.73	
2025-01-12 06:14:23.15	343.07	4.71	
2025-01-12 06:14:23.77	342.98	4.68	
2025-01-12 06:14:24.38	342.90	4.66	
2025-01-12 06:14:25.00	342.82	4.64	
2025-01-12 06:14:25.63	342.74	4.62	
2025-01-12 06:14:26.25	342.66	4.60	
2025-01-12 06:14:26.86	342.58	4.58	
2025-01-12 06:14:27.48	342.50	4.56	
2025-01-12 06:14:28.09	342.42	4.54	
2025-01-12 06:14:28.71	342.34	4.52	
2025-01-12 06:14:29.33	342.26	4.50	
2025-01-12 06:14:29.94	342.18	4.48	
2025-01-12 06:14:30.56	342.10	4.45	
2025-01-12 06:14:31.18	342.02	4.43	
2025-01-12 06:14:31.80	341.94	4.41	
2025-01-12 06:14:32.42	341.86	4.39	
2025-01-12 06:14:33.04	341.78	4.37	
2025-01-12 06:14:33.66	341.70	4.35	
2025-01-12 06:14:34.27	341.63	4.33	
2025-01-12 06:14:34.89	341.55	4.31	
2025-01-12 06:14:35.50	341.47	4.28	
2025-01-12 06:14:36.12	341.39	4.26	
2025-01-12 06:14:36.74	341.31	4.24	
2025-01-12 06:14:37.35	341.23	4.22	
2025-01-12 06:14:37.97	341.15	4.20	
2025-01-12 06:14:38.58	341.08	4.18	
2025-01-12 06:14:39.20	341.00	4.16	
2025-01-12 06:14:39.82	340.92	4.13	
2025-01-12 06:14:40.43	340.84	4.11	
2025-01-12 06:14:41.05	340.77	4.09	
2025-01-12 06:14:41.66	340.69	4.07	
2025-01-12 06:14:42.28	340.61	4.05	
2025-01-12 06:14:42.90	340.53	4.03	
2025-01-12 06:14:43.51	340.46	4.00	

#Closed at: 2025-01-12 06:14:43