passes_logs/2025/01/12/SPB_Silybum_02/SPB_Silybum_02__20250112_154113_TERRA_rec.log

#Pass ID: 20250112_154113_TERRA
#Satellite: TERRA
#Configuration: TERRA
#Start time: 2025-01-12 15:41:11

#Version: 2.0.20230423
#Station: SPB_Silybum_02
#Location: 30.233357 lon 59.946436 lat
#TLE: 1 25994U 99068A   25011.77277381  .00000769  00000+0  16824-3 0  9997
#TLE: 2 25994  98.0222  74.9057 0003526  79.1717  32.7508 14.60388914333608

#Time	Az	El	Level	Level2	SNR	BER	Gain	Gain2
2025-01-12 15:41:13.50	72.29	4.01	
2025-01-12 15:41:14.32	72.19	4.05	
2025-01-12 15:41:15.14	72.08	4.09	
2025-01-12 15:41:15.98	71.97	4.13	
2025-01-12 15:41:16.80	71.87	4.16	
2025-01-12 15:41:17.62	71.76	4.20	
2025-01-12 15:41:18.44	71.65	4.24	
2025-01-12 15:41:19.26	71.55	4.27	
2025-01-12 15:41:20.09	71.44	4.31	
2025-01-12 15:41:20.92	71.33	4.35	
2025-01-12 15:41:21.74	71.22	4.38	
2025-01-12 15:41:22.56	71.11	4.42	
2025-01-12 15:41:23.38	71.00	4.46	
2025-01-12 15:41:24.22	70.89	4.49	
2025-01-12 15:41:25.04	70.78	4.53	
2025-01-12 15:41:25.86	70.67	4.57	
2025-01-12 15:41:26.68	70.56	4.60	
2025-01-12 15:41:27.52	70.45	4.64	
2025-01-12 15:41:28.34	70.34	4.68	
2025-01-12 15:41:29.16	70.23	4.71	
2025-01-12 15:41:29.98	70.12	4.75	
2025-01-12 15:41:30.80	70.01	4.78	
2025-01-12 15:41:31.62	69.90	4.82	
2025-01-12 15:41:32.44	69.78	4.86	
2025-01-12 15:41:33.27	69.67	4.89	
2025-01-12 15:41:34.09	69.56	4.93	
2025-01-12 15:41:34.90	69.45	4.96	
2025-01-12 15:41:35.73	69.33	5.00	
2025-01-12 15:41:36.55	69.22	5.04	
2025-01-12 15:41:37.38	69.10	5.07	
2025-01-12 15:41:38.20	68.99	5.11	
2025-01-12 15:41:39.02	68.87	5.14	
2025-01-12 15:41:39.84	68.76	5.18	
2025-01-12 15:41:40.66	68.64	5.22	
2025-01-12 15:41:41.48	68.53	5.25	
2025-01-12 15:41:42.30	68.41	5.29	
2025-01-12 15:41:43.13	68.30	5.32	
2025-01-12 15:41:43.96	68.18	5.36	
2025-01-12 15:41:44.78	68.06	5.39	
2025-01-12 15:41:45.60	67.94	5.43	
2025-01-12 15:41:46.42	67.83	5.46	
2025-01-12 15:41:47.26	67.71	5.50	
2025-01-12 15:41:48.08	67.59	5.54	
2025-01-12 15:41:48.91	67.47	5.57	
2025-01-12 15:41:49.73	67.35	5.61	
2025-01-12 15:41:50.55	67.23	5.64	
2025-01-12 15:41:51.37	67.11	5.68	
2025-01-12 15:41:52.19	66.99	5.71	
2025-01-12 15:41:53.01	66.87	5.75	
2025-01-12 15:41:53.84	66.75	5.78	
2025-01-12 15:41:54.66	66.63	5.82	
2025-01-12 15:41:55.49	66.51	5.85	
2025-01-12 15:41:56.31	66.39	5.89	
2025-01-12 15:41:57.14	66.27	5.92	
2025-01-12 15:41:57.96	66.14	5.96	
2025-01-12 15:41:58.78	66.02	5.99	
2025-01-12 15:41:59.60	65.90	6.02	
2025-01-12 15:42:00.41	65.78	6.06	
2025-01-12 15:42:01.23	65.66	6.09	
2025-01-12 15:42:02.05	65.53	6.13	
2025-01-12 15:42:02.87	65.41	6.16	
2025-01-12 15:42:03.69	65.28	6.19	
2025-01-12 15:42:04.51	65.16	6.23	
2025-01-12 15:42:05.33	65.04	6.26	
2025-01-12 15:42:06.14	64.91	6.30	
2025-01-12 15:42:06.96	64.79	6.33	
2025-01-12 15:42:07.78	64.66	6.36	
2025-01-12 15:42:08.62	64.53	6.40	
2025-01-12 15:42:09.44	64.41	6.43	
2025-01-12 15:42:10.26	64.28	6.46	
2025-01-12 15:42:11.08	64.15	6.50	
2025-01-12 15:42:11.90	64.03	6.53	
2025-01-12 15:42:12.72	63.90	6.56	
2025-01-12 15:42:13.54	63.77	6.60	
2025-01-12 15:42:14.36	63.64	6.63	
2025-01-12 15:42:15.18	63.52	6.66	
2025-01-12 15:42:16.02	63.38	6.70	
2025-01-12 15:42:16.84	63.25	6.73	
2025-01-12 15:42:17.66	63.12	6.76	
2025-01-12 15:42:18.48	63.00	6.80	
2025-01-12 15:42:19.30	62.87	6.83	
2025-01-12 15:42:20.12	62.73	6.86	
2025-01-12 15:42:20.95	62.60	6.89	
2025-01-12 15:42:21.77	62.47	6.93	
2025-01-12 15:42:22.59	62.34	6.96	
2025-01-12 15:42:23.42	62.21	6.99	
2025-01-12 15:42:24.24	62.08	7.02	
2025-01-12 15:42:25.07	61.94	7.06	
2025-01-12 15:42:25.89	61.81	7.09	
2025-01-12 15:42:26.71	61.68	7.12	
2025-01-12 15:42:27.55	61.54	7.15	
2025-01-12 15:42:28.37	61.41	7.18	
2025-01-12 15:42:29.18	61.27	7.21	
2025-01-12 15:42:30.01	61.14	7.25	
2025-01-12 15:42:30.83	61.00	7.28	
2025-01-12 15:42:31.64	60.87	7.31	
2025-01-12 15:42:32.48	60.73	7.34	
2025-01-12 15:42:33.30	60.60	7.37	
2025-01-12 15:42:34.12	60.46	7.40	
2025-01-12 15:42:34.96	60.32	7.43	
2025-01-12 15:42:35.79	60.18	7.46	
2025-01-12 15:42:36.61	60.05	7.50	
2025-01-12 15:42:37.43	59.91	7.53	
2025-01-12 15:42:38.25	59.77	7.56	
2025-01-12 15:42:39.07	59.63	7.59	
2025-01-12 15:42:39.90	59.50	7.62	
2025-01-12 15:42:40.73	59.36	7.65	
2025-01-12 15:42:41.55	59.22	7.68	
2025-01-12 15:42:42.37	59.08	7.71	
2025-01-12 15:42:43.19	58.94	7.74	
2025-01-12 15:42:44.01	58.80	7.77	
2025-01-12 15:42:44.84	58.66	7.80	
2025-01-12 15:42:45.66	58.52	7.83	
2025-01-12 15:42:46.48	58.38	7.86	
2025-01-12 15:42:47.30	58.24	7.88	
2025-01-12 15:42:48.12	58.09	7.91	
2025-01-12 15:42:48.95	57.95	7.94	
2025-01-12 15:42:49.77	57.81	7.97	
2025-01-12 15:42:50.59	57.67	8.00	
2025-01-12 15:42:51.41	57.53	8.03	
2025-01-12 15:42:52.23	57.38	8.06	
2025-01-12 15:42:53.07	57.24	8.09	
2025-01-12 15:42:53.90	57.09	8.12	
2025-01-12 15:42:54.72	56.95	8.14	
2025-01-12 15:42:55.54	56.80	8.17	
2025-01-12 15:42:56.37	56.66	8.20	
2025-01-12 15:42:57.20	56.51	8.23	
2025-01-12 15:42:58.02	56.37	8.26	
2025-01-12 15:42:58.84	56.22	8.28	
2025-01-12 15:42:59.68	56.07	8.31	
2025-01-12 15:43:00.49	55.93	8.34	
2025-01-12 15:43:01.32	55.78	8.36	
2025-01-12 15:43:02.14	55.64	8.39	
2025-01-12 15:43:02.96	55.49	8.42	
2025-01-12 15:43:03.78	55.34	8.45	
2025-01-12 15:43:04.60	55.20	8.47	
2025-01-12 15:43:05.43	55.05	8.50	
2025-01-12 15:43:06.25	54.90	8.52	
2025-01-12 15:43:07.08	54.75	8.55	
2025-01-12 15:43:07.90	54.60	8.58	
2025-01-12 15:43:08.74	54.45	8.60	
2025-01-12 15:43:09.56	54.30	8.63	
2025-01-12 15:43:10.38	54.15	8.65	
2025-01-12 15:43:11.20	54.00	8.68	
2025-01-12 15:43:12.02	53.85	8.71	
2025-01-12 15:43:12.84	53.70	8.73	
2025-01-12 15:43:13.66	53.55	8.76	
2025-01-12 15:43:14.48	53.40	8.78	
2025-01-12 15:43:15.30	53.25	8.81	
2025-01-12 15:43:16.12	53.10	8.83	
2025-01-12 15:43:16.94	52.95	8.85	
2025-01-12 15:43:17.76	52.79	8.88	
2025-01-12 15:43:18.59	52.64	8.90	
2025-01-12 15:43:19.42	52.49	8.93	
2025-01-12 15:43:20.24	52.33	8.95	
2025-01-12 15:43:21.06	52.18	8.97	
2025-01-12 15:43:21.88	52.03	9.00	
2025-01-12 15:43:22.70	51.87	9.02	
2025-01-12 15:43:23.53	51.72	9.04	
2025-01-12 15:43:24.36	51.56	9.07	
2025-01-12 15:43:25.18	51.41	9.09	
2025-01-12 15:43:26.00	51.26	9.11	
2025-01-12 15:43:26.83	51.10	9.14	
2025-01-12 15:43:27.65	50.94	9.16	
2025-01-12 15:43:28.47	50.79	9.18	
2025-01-12 15:43:29.29	50.63	9.20	
2025-01-12 15:43:30.11	50.48	9.22	
2025-01-12 15:43:30.93	50.32	9.24	
2025-01-12 15:43:31.75	50.17	9.27	
2025-01-12 15:43:32.57	50.01	9.29	
2025-01-12 15:43:33.39	49.85	9.31	
2025-01-12 15:43:34.22	49.69	9.33	
2025-01-12 15:43:35.04	49.54	9.35	
2025-01-12 15:43:35.86	49.38	9.37	
2025-01-12 15:43:36.67	49.22	9.39	
2025-01-12 15:43:37.49	49.07	9.41	
2025-01-12 15:43:38.32	48.91	9.43	
2025-01-12 15:43:39.15	48.75	9.45	
2025-01-12 15:43:39.98	48.58	9.47	
2025-01-12 15:43:40.81	48.42	9.49	
2025-01-12 15:43:41.63	48.26	9.51	
2025-01-12 15:43:42.45	48.11	9.53	
2025-01-12 15:43:43.27	47.95	9.55	
2025-01-12 15:43:44.09	47.79	9.57	
2025-01-12 15:43:44.91	47.63	9.59	
2025-01-12 15:43:45.75	47.46	9.61	
2025-01-12 15:43:46.58	47.30	9.62	
2025-01-12 15:43:47.40	47.14	9.64	
2025-01-12 15:43:48.22	46.98	9.66	
2025-01-12 15:43:49.04	46.82	9.68	
2025-01-12 15:43:49.86	46.66	9.69	
2025-01-12 15:43:50.68	46.49	9.71	
2025-01-12 15:43:51.51	46.33	9.73	
2025-01-12 15:43:52.33	46.17	9.75	
2025-01-12 15:43:53.16	46.01	9.76	
2025-01-12 15:43:53.99	45.84	9.78	
2025-01-12 15:43:54.81	45.68	9.80	
2025-01-12 15:43:55.63	45.52	9.81	
2025-01-12 15:43:56.45	45.35	9.83	
2025-01-12 15:43:57.29	45.19	9.84	
2025-01-12 15:43:58.11	45.02	9.86	
2025-01-12 15:43:58.93	44.86	9.87	
2025-01-12 15:43:59.76	44.69	9.89	
2025-01-12 15:44:00.58	44.53	9.90	
2025-01-12 15:44:01.40	44.37	9.92	
2025-01-12 15:44:02.24	44.20	9.93	
2025-01-12 15:44:03.06	44.03	9.95	
2025-01-12 15:44:03.88	43.87	9.96	
2025-01-12 15:44:04.70	43.70	9.98	
2025-01-12 15:44:05.52	43.54	9.99	
2025-01-12 15:44:06.34	43.37	10.00	
2025-01-12 15:44:07.16	43.21	10.02	
2025-01-12 15:44:07.98	43.04	10.03	
2025-01-12 15:44:08.80	42.88	10.04	
2025-01-12 15:44:09.62	42.71	10.06	
2025-01-12 15:44:10.45	42.55	10.07	
2025-01-12 15:44:11.26	42.38	10.08	
2025-01-12 15:44:12.08	42.22	10.09	
2025-01-12 15:44:12.91	42.05	10.10	
2025-01-12 15:44:13.73	41.88	10.12	
2025-01-12 15:44:14.55	41.71	10.13	
2025-01-12 15:44:15.38	41.55	10.14	
2025-01-12 15:44:16.21	41.38	10.15	
2025-01-12 15:44:17.03	41.21	10.16	
2025-01-12 15:44:17.86	41.04	10.17	
2025-01-12 15:44:18.68	40.87	10.18	
2025-01-12 15:44:19.50	40.71	10.19	
2025-01-12 15:44:20.32	40.54	10.20	
2025-01-12 15:44:21.15	40.37	10.21	
2025-01-12 15:44:21.97	40.20	10.22	
2025-01-12 15:44:22.79	40.03	10.23	
2025-01-12 15:44:23.61	39.87	10.24	
2025-01-12 15:44:24.43	39.70	10.25	
2025-01-12 15:44:25.25	39.53	10.26	
2025-01-12 15:44:26.08	39.36	10.26	
2025-01-12 15:44:26.90	39.19	10.27	
2025-01-12 15:44:27.73	39.02	10.28	
2025-01-12 15:44:28.56	38.85	10.29	
2025-01-12 15:44:29.38	38.68	10.29	
2025-01-12 15:44:30.20	38.51	10.30	
2025-01-12 15:44:31.02	38.34	10.31	
2025-01-12 15:44:31.84	38.18	10.32	
2025-01-12 15:44:32.68	38.00	10.32	
2025-01-12 15:44:33.49	37.84	10.33	
2025-01-12 15:44:34.31	37.67	10.33	
2025-01-12 15:44:35.13	37.50	10.34	
2025-01-12 15:44:35.95	37.33	10.35	
2025-01-12 15:44:36.77	37.16	10.35	
2025-01-12 15:44:37.60	36.99	10.36	
2025-01-12 15:44:38.42	36.82	10.36	
2025-01-12 15:44:39.24	36.65	10.37	
2025-01-12 15:44:40.06	36.48	10.37	
2025-01-12 15:44:40.88	36.31	10.37	
2025-01-12 15:44:41.70	36.14	10.38	
2025-01-12 15:44:42.52	35.97	10.38	
2025-01-12 15:44:43.34	35.80	10.39	
2025-01-12 15:44:44.16	35.63	10.39	
2025-01-12 15:44:44.98	35.46	10.39	
2025-01-12 15:44:45.81	35.29	10.40	
2025-01-12 15:44:46.63	35.12	10.40	
2025-01-12 15:44:47.45	34.95	10.40	
2025-01-12 15:44:48.27	34.78	10.40	
2025-01-12 15:44:49.09	34.61	10.41	
2025-01-12 15:44:49.91	34.44	10.41	
2025-01-12 15:44:50.73	34.27	10.41	
2025-01-12 15:44:51.55	34.10	10.41	
2025-01-12 15:44:52.37	33.93	10.41	
2025-01-12 15:44:53.18	33.76	10.41	
2025-01-12 15:44:54.00	33.59	10.41	
2025-01-12 15:44:54.82	33.42	10.41	
2025-01-12 15:44:55.64	33.25	10.41	
2025-01-12 15:44:56.46	33.08	10.41	
2025-01-12 15:44:57.29	32.91	10.41	
2025-01-12 15:44:58.12	32.74	10.41	
2025-01-12 15:44:58.94	32.57	10.41	
2025-01-12 15:44:59.76	32.40	10.41	
2025-01-12 15:45:00.58	32.23	10.41	
2025-01-12 15:45:01.40	32.06	10.41	
2025-01-12 15:45:02.22	31.89	10.41	
2025-01-12 15:45:03.04	31.72	10.40	
2025-01-12 15:45:03.87	31.54	10.40	
2025-01-12 15:45:04.69	31.37	10.40	
2025-01-12 15:45:05.51	31.20	10.40	
2025-01-12 15:45:06.33	31.03	10.39	
2025-01-12 15:45:07.15	30.86	10.39	
2025-01-12 15:45:07.97	30.69	10.39	
2025-01-12 15:45:08.80	30.52	10.38	
2025-01-12 15:45:09.62	30.35	10.38	
2025-01-12 15:45:10.44	30.18	10.38	
2025-01-12 15:45:11.27	30.01	10.37	
2025-01-12 15:45:12.09	29.84	10.37	
2025-01-12 15:45:12.92	29.67	10.36	
2025-01-12 15:45:13.75	29.50	10.36	
2025-01-12 15:45:14.57	29.33	10.35	
2025-01-12 15:45:15.39	29.16	10.35	
2025-01-12 15:45:16.21	28.99	10.34	
2025-01-12 15:45:17.04	28.82	10.34	
2025-01-12 15:45:17.87	28.65	10.33	
2025-01-12 15:45:18.69	28.48	10.32	
2025-01-12 15:45:19.52	28.31	10.32	
2025-01-12 15:45:20.35	28.14	10.31	
2025-01-12 15:45:21.17	27.97	10.30	
2025-01-12 15:45:21.99	27.80	10.30	
2025-01-12 15:45:22.82	27.63	10.29	
2025-01-12 15:45:23.64	27.46	10.28	
2025-01-12 15:45:24.47	27.29	10.27	
2025-01-12 15:45:25.30	27.12	10.27	
2025-01-12 15:45:26.12	26.95	10.26	
2025-01-12 15:45:26.94	26.79	10.25	
2025-01-12 15:45:27.76	26.62	10.24	
2025-01-12 15:45:28.59	26.45	10.23	
2025-01-12 15:45:29.41	26.28	10.22	
2025-01-12 15:45:30.24	26.11	10.21	
2025-01-12 15:45:31.06	25.94	10.20	
2025-01-12 15:45:31.89	25.77	10.19	
2025-01-12 15:45:32.71	25.61	10.18	
2025-01-12 15:45:33.53	25.44	10.17	
2025-01-12 15:45:34.35	25.27	10.16	
2025-01-12 15:45:35.18	25.11	10.15	
2025-01-12 15:45:36.00	24.94	10.14	
2025-01-12 15:45:36.82	24.77	10.13	
2025-01-12 15:45:37.67	24.60	10.12	
2025-01-12 15:45:38.49	24.43	10.11	
2025-01-12 15:45:39.31	24.27	10.09	
2025-01-12 15:45:40.13	24.10	10.08	
2025-01-12 15:45:40.97	23.93	10.07	
2025-01-12 15:45:41.79	23.77	10.06	
2025-01-12 15:45:42.61	23.60	10.05	
2025-01-12 15:45:43.43	23.44	10.03	
2025-01-12 15:45:44.25	23.27	10.02	
2025-01-12 15:45:45.07	23.11	10.01	
2025-01-12 15:45:45.90	22.94	9.99	
2025-01-12 15:45:46.72	22.77	9.98	
2025-01-12 15:45:47.55	22.61	9.97	
2025-01-12 15:45:48.39	22.44	9.95	
2025-01-12 15:45:49.21	22.27	9.94	
2025-01-12 15:45:50.03	22.11	9.92	
2025-01-12 15:45:50.85	21.95	9.91	
2025-01-12 15:45:51.67	21.78	9.89	
2025-01-12 15:45:52.50	21.62	9.88	
2025-01-12 15:45:53.32	21.46	9.86	
2025-01-12 15:45:54.15	21.29	9.85	
2025-01-12 15:45:54.97	21.13	9.83	
2025-01-12 15:45:55.79	20.96	9.82	
2025-01-12 15:45:56.61	20.80	9.80	
2025-01-12 15:45:57.43	20.64	9.78	
2025-01-12 15:45:58.25	20.48	9.77	
2025-01-12 15:45:59.07	20.32	9.75	
2025-01-12 15:45:59.89	20.15	9.73	
2025-01-12 15:46:00.71	19.99	9.72	
2025-01-12 15:46:01.53	19.83	9.70	
2025-01-12 15:46:02.35	19.67	9.68	
2025-01-12 15:46:03.18	19.51	9.66	
2025-01-12 15:46:04.01	19.35	9.65	
2025-01-12 15:46:04.83	19.19	9.63	
2025-01-12 15:46:05.65	19.03	9.61	
2025-01-12 15:46:06.46	18.87	9.59	
2025-01-12 15:46:07.29	18.71	9.57	
2025-01-12 15:46:08.11	18.55	9.55	
2025-01-12 15:46:08.95	18.38	9.53	
2025-01-12 15:46:09.77	18.22	9.52	
2025-01-12 15:46:10.59	18.07	9.50	
2025-01-12 15:46:11.42	17.91	9.48	
2025-01-12 15:46:12.25	17.75	9.46	
2025-01-12 15:46:13.08	17.59	9.44	
2025-01-12 15:46:13.91	17.43	9.42	
2025-01-12 15:46:14.73	17.27	9.40	
2025-01-12 15:46:15.55	17.11	9.38	
2025-01-12 15:46:16.37	16.95	9.36	
2025-01-12 15:46:17.19	16.80	9.34	
2025-01-12 15:46:18.01	16.64	9.31	
2025-01-12 15:46:18.83	16.48	9.29	
2025-01-12 15:46:19.67	16.32	9.27	
2025-01-12 15:46:20.49	16.17	9.25	
2025-01-12 15:46:21.31	16.01	9.23	
2025-01-12 15:46:22.13	15.86	9.21	
2025-01-12 15:46:22.95	15.70	9.18	
2025-01-12 15:46:23.77	15.55	9.16	
2025-01-12 15:46:24.60	15.39	9.14	
2025-01-12 15:46:25.42	15.24	9.12	
2025-01-12 15:46:26.24	15.08	9.10	
2025-01-12 15:46:27.07	14.93	9.07	
2025-01-12 15:46:27.89	14.77	9.05	
2025-01-12 15:46:28.70	14.62	9.03	
2025-01-12 15:46:29.53	14.47	9.00	
2025-01-12 15:46:30.35	14.31	8.98	
2025-01-12 15:46:31.17	14.16	8.96	
2025-01-12 15:46:31.99	14.01	8.93	
2025-01-12 15:46:32.81	13.86	8.91	
2025-01-12 15:46:33.63	13.71	8.89	
2025-01-12 15:46:34.45	13.55	8.86	
2025-01-12 15:46:35.27	13.40	8.84	
2025-01-12 15:46:36.09	13.25	8.81	
2025-01-12 15:46:36.91	13.10	8.79	
2025-01-12 15:46:37.73	12.95	8.76	
2025-01-12 15:46:38.56	12.80	8.74	
2025-01-12 15:46:39.39	12.65	8.71	
2025-01-12 15:46:40.20	12.50	8.69	
2025-01-12 15:46:41.03	12.35	8.66	
2025-01-12 15:46:41.85	12.20	8.64	
2025-01-12 15:46:42.67	12.05	8.61	
2025-01-12 15:46:43.49	11.91	8.59	
2025-01-12 15:46:44.31	11.76	8.56	
2025-01-12 15:46:45.13	11.61	8.53	
2025-01-12 15:46:45.95	11.46	8.51	
2025-01-12 15:46:46.77	11.32	8.48	
2025-01-12 15:46:47.60	11.17	8.45	
2025-01-12 15:46:48.42	11.02	8.43	
2025-01-12 15:46:49.24	10.87	8.40	
2025-01-12 15:46:50.06	10.73	8.37	
2025-01-12 15:46:50.88	10.58	8.35	
2025-01-12 15:46:51.70	10.44	8.32	
2025-01-12 15:46:52.53	10.29	8.29	
2025-01-12 15:46:53.35	10.15	8.26	
2025-01-12 15:46:54.17	10.00	8.24	
2025-01-12 15:46:54.99	9.86	8.21	
2025-01-12 15:46:55.81	9.71	8.18	
2025-01-12 15:46:56.63	9.57	8.15	
2025-01-12 15:46:57.45	9.43	8.13	
2025-01-12 15:46:58.28	9.28	8.10	
2025-01-12 15:46:59.10	9.14	8.07	
2025-01-12 15:46:59.92	9.00	8.04	
2025-01-12 15:47:00.74	8.86	8.01	
2025-01-12 15:47:01.56	8.71	7.98	
2025-01-12 15:47:02.39	8.57	7.95	
2025-01-12 15:47:03.21	8.43	7.93	
2025-01-12 15:47:04.02	8.29	7.90	
2025-01-12 15:47:04.85	8.15	7.87	
2025-01-12 15:47:05.67	8.01	7.84	
2025-01-12 15:47:06.48	7.87	7.81	
2025-01-12 15:47:07.31	7.73	7.78	
2025-01-12 15:47:08.12	7.59	7.75	
2025-01-12 15:47:08.95	7.45	7.72	
2025-01-12 15:47:09.77	7.31	7.69	
2025-01-12 15:47:10.60	7.17	7.66	
2025-01-12 15:47:11.44	7.03	7.63	
2025-01-12 15:47:12.26	6.89	7.60	
2025-01-12 15:47:13.08	6.76	7.57	
2025-01-12 15:47:13.90	6.62	7.54	
2025-01-12 15:47:14.72	6.48	7.51	
2025-01-12 15:47:15.54	6.35	7.48	
2025-01-12 15:47:16.36	6.21	7.45	
2025-01-12 15:47:17.19	6.07	7.42	
2025-01-12 15:47:18.01	5.94	7.39	
2025-01-12 15:47:18.83	5.80	7.35	
2025-01-12 15:47:19.65	5.67	7.32	
2025-01-12 15:47:20.47	5.54	7.29	
2025-01-12 15:47:21.29	5.40	7.26	
2025-01-12 15:47:22.11	5.27	7.23	
2025-01-12 15:47:22.93	5.13	7.20	
2025-01-12 15:47:23.76	5.00	7.17	
2025-01-12 15:47:24.58	4.87	7.13	
2025-01-12 15:47:25.40	4.73	7.10	
2025-01-12 15:47:26.22	4.60	7.07	
2025-01-12 15:47:27.04	4.47	7.04	
2025-01-12 15:47:27.87	4.34	7.01	
2025-01-12 15:47:28.70	4.20	6.97	
2025-01-12 15:47:29.52	4.07	6.94	
2025-01-12 15:47:30.34	3.94	6.91	
2025-01-12 15:47:31.16	3.81	6.88	
2025-01-12 15:47:31.99	3.68	6.85	
2025-01-12 15:47:32.82	3.55	6.81	
2025-01-12 15:47:33.64	3.42	6.78	
2025-01-12 15:47:34.46	3.29	6.75	
2025-01-12 15:47:35.28	3.16	6.71	
2025-01-12 15:47:36.10	3.03	6.68	
2025-01-12 15:47:36.92	2.91	6.65	
2025-01-12 15:47:37.75	2.78	6.62	
2025-01-12 15:47:38.58	2.65	6.58	
2025-01-12 15:47:39.41	2.52	6.55	
2025-01-12 15:47:40.23	2.39	6.52	
2025-01-12 15:47:41.05	2.27	6.48	
2025-01-12 15:47:41.87	2.14	6.45	
2025-01-12 15:47:42.69	2.02	6.41	
2025-01-12 15:47:43.51	1.89	6.38	
2025-01-12 15:47:44.33	1.77	6.35	
2025-01-12 15:47:45.17	1.64	6.31	
2025-01-12 15:47:45.99	1.51	6.28	
2025-01-12 15:47:46.81	1.39	6.25	
2025-01-12 15:47:47.63	1.27	6.21	
2025-01-12 15:47:48.45	1.14	6.18	
2025-01-12 15:47:49.27	1.02	6.14	
2025-01-12 15:47:50.10	0.89	6.11	
2025-01-12 15:47:50.92	0.77	6.08	
2025-01-12 15:47:51.74	0.65	6.04	
2025-01-12 15:47:52.57	0.53	6.01	
2025-01-12 15:47:53.39	0.40	5.97	
2025-01-12 15:47:54.21	0.28	5.94	
2025-01-12 15:47:55.04	0.16	5.90	
2025-01-12 15:47:55.87	0.04	5.87	
2025-01-12 15:47:56.71	359.92	5.83	
2025-01-12 15:47:57.53	359.80	5.80	
2025-01-12 15:47:58.35	359.68	5.76	
2025-01-12 15:47:59.17	359.56	5.73	
2025-01-12 15:47:59.99	359.44	5.69	
2025-01-12 15:48:00.81	359.32	5.66	
2025-01-12 15:48:01.63	359.20	5.62	
2025-01-12 15:48:02.45	359.08	5.59	
2025-01-12 15:48:03.27	358.97	5.55	
2025-01-12 15:48:04.09	358.85	5.52	
2025-01-12 15:48:04.91	358.73	5.48	
2025-01-12 15:48:05.73	358.61	5.45	
2025-01-12 15:48:06.55	358.50	5.41	
2025-01-12 15:48:07.39	358.38	5.38	
2025-01-12 15:48:08.22	358.26	5.34	
2025-01-12 15:48:09.04	358.15	5.31	
2025-01-12 15:48:09.86	358.03	5.27	
2025-01-12 15:48:10.68	357.92	5.24	
2025-01-12 15:48:11.50	357.80	5.20	
2025-01-12 15:48:12.33	357.69	5.16	
2025-01-12 15:48:13.15	357.57	5.13	
2025-01-12 15:48:13.97	357.46	5.09	
2025-01-12 15:48:14.80	357.34	5.06	
2025-01-12 15:48:15.62	357.23	5.02	
2025-01-12 15:48:16.44	357.12	4.98	
2025-01-12 15:48:17.27	357.00	4.95	
2025-01-12 15:48:18.09	356.89	4.91	
2025-01-12 15:48:18.91	356.78	4.88	
2025-01-12 15:48:19.73	356.67	4.84	
2025-01-12 15:48:20.56	356.56	4.80	
2025-01-12 15:48:21.38	356.45	4.77	
2025-01-12 15:48:22.20	356.34	4.73	
2025-01-12 15:48:23.02	356.23	4.70	
2025-01-12 15:48:23.84	356.12	4.66	
2025-01-12 15:48:24.66	356.01	4.62	
2025-01-12 15:48:25.48	355.90	4.59	
2025-01-12 15:48:26.32	355.79	4.55	
2025-01-12 15:48:27.14	355.68	4.51	
2025-01-12 15:48:27.96	355.57	4.48	
2025-01-12 15:48:28.80	355.46	4.44	
2025-01-12 15:48:29.62	355.35	4.40	
2025-01-12 15:48:30.44	355.24	4.37	
2025-01-12 15:48:31.26	355.13	4.33	
2025-01-12 15:48:32.08	355.03	4.29	
2025-01-12 15:48:32.90	354.92	4.26	
2025-01-12 15:48:33.72	354.82	4.22	
2025-01-12 15:48:34.56	354.71	4.18	
2025-01-12 15:48:35.38	354.60	4.15	
2025-01-12 15:48:36.20	354.50	4.11	
2025-01-12 15:48:37.02	354.39	4.07	
2025-01-12 15:48:37.84	354.29	4.04	
2025-01-12 15:48:38.67	354.18	4.00	

#Closed at: 2025-01-12 15:48:38