passes_logs/2025/01/12/SPB_Silybum_02/SPB_Silybum_02__20250112_125145_AQUA_rec.log

#Pass ID: 20250112_125145_AQUA
#Satellite: AQUA
#Configuration: AQUA
#Start time: 2025-01-12 12:55:11

#Version: 2.0.20230423
#Station: SPB_Silybum_02
#Location: 30.233357 lon 59.946436 lat
#TLE: 1 27424U 02022A   25011.85338958  .00001740  00000+0  36730-3 0  9996
#TLE: 2 27424  98.3583 328.4891 0001585 114.5213 298.5366 14.60670077207161

#Time	Az	El	Level	Level2	SNR	BER	Gain	Gain2
2025-01-12 12:55:13.20	239.42	18.61	
2025-01-12 12:55:14.01	239.62	18.67	
2025-01-12 12:55:14.84	239.82	18.73	
2025-01-12 12:55:15.66	240.02	18.78	
2025-01-12 12:55:16.49	240.22	18.84	
2025-01-12 12:55:17.32	240.43	18.89	
2025-01-12 12:55:18.15	240.63	18.95	
2025-01-12 12:55:18.97	240.84	19.00	
2025-01-12 12:55:19.79	241.04	19.06	
2025-01-12 12:55:20.60	241.25	19.11	
2025-01-12 12:55:21.43	241.45	19.17	
2025-01-12 12:55:22.26	241.66	19.22	
2025-01-12 12:55:23.08	241.87	19.27	
2025-01-12 12:55:23.90	242.08	19.33	
2025-01-12 12:55:24.72	242.29	19.38	
2025-01-12 12:55:25.54	242.50	19.43	
2025-01-12 12:55:26.36	242.71	19.49	
2025-01-12 12:55:27.18	242.92	19.54	
2025-01-12 12:55:28.00	243.13	19.59	
2025-01-12 12:55:28.82	243.35	19.64	
2025-01-12 12:55:29.64	243.56	19.69	
2025-01-12 12:55:30.46	243.77	19.75	
2025-01-12 12:55:31.28	243.99	19.80	
2025-01-12 12:55:32.10	244.20	19.85	
2025-01-12 12:55:32.92	244.42	19.90	
2025-01-12 12:55:33.74	244.64	19.95	
2025-01-12 12:55:34.56	244.86	20.00	
2025-01-12 12:55:35.38	245.08	20.05	
2025-01-12 12:55:36.19	245.29	20.10	
2025-01-12 12:55:37.01	245.51	20.15	
2025-01-12 12:55:37.83	245.73	20.19	
2025-01-12 12:55:38.65	245.96	20.24	
2025-01-12 12:55:39.49	246.18	20.29	
2025-01-12 12:55:40.31	246.41	20.34	
2025-01-12 12:55:41.13	246.63	20.39	
2025-01-12 12:55:41.95	246.85	20.43	
2025-01-12 12:55:42.77	247.08	20.48	
2025-01-12 12:55:43.62	247.31	20.53	
2025-01-12 12:55:44.44	247.54	20.58	
2025-01-12 12:55:45.26	247.77	20.62	
2025-01-12 12:55:46.07	247.99	20.67	
2025-01-12 12:55:46.89	248.22	20.71	
2025-01-12 12:55:47.71	248.45	20.76	
2025-01-12 12:55:48.54	248.68	20.80	
2025-01-12 12:55:49.36	248.92	20.85	
2025-01-12 12:55:50.19	249.15	20.89	
2025-01-12 12:55:51.01	249.38	20.93	
2025-01-12 12:55:51.83	249.61	20.98	
2025-01-12 12:55:52.66	249.85	21.02	
2025-01-12 12:55:53.48	250.08	21.06	
2025-01-12 12:55:54.30	250.32	21.10	
2025-01-12 12:55:55.12	250.55	21.14	
2025-01-12 12:55:55.95	250.79	21.19	
2025-01-12 12:55:56.77	251.03	21.23	
2025-01-12 12:55:57.59	251.27	21.27	
2025-01-12 12:55:58.41	251.51	21.31	
2025-01-12 12:55:59.23	251.74	21.35	
2025-01-12 12:56:00.05	251.98	21.39	
2025-01-12 12:56:00.88	252.23	21.42	
2025-01-12 12:56:01.70	252.47	21.46	
2025-01-12 12:56:02.52	252.71	21.50	
2025-01-12 12:56:03.34	252.95	21.54	
2025-01-12 12:56:04.16	253.19	21.57	
2025-01-12 12:56:04.98	253.43	21.61	
2025-01-12 12:56:05.80	253.68	21.65	
2025-01-12 12:56:06.63	253.93	21.68	
2025-01-12 12:56:07.44	254.17	21.72	
2025-01-12 12:56:08.27	254.41	21.75	
2025-01-12 12:56:09.09	254.66	21.79	
2025-01-12 12:56:09.91	254.91	21.82	
2025-01-12 12:56:10.75	255.16	21.85	
2025-01-12 12:56:11.57	255.41	21.89	
2025-01-12 12:56:12.39	255.65	21.92	
2025-01-12 12:56:13.22	255.91	21.95	
2025-01-12 12:56:14.04	256.16	21.98	
2025-01-12 12:56:14.86	256.40	22.01	
2025-01-12 12:56:15.68	256.65	22.04	
2025-01-12 12:56:16.50	256.90	22.07	
2025-01-12 12:56:17.31	257.15	22.10	
2025-01-12 12:56:18.13	257.40	22.13	
2025-01-12 12:56:18.95	257.66	22.16	
2025-01-12 12:56:19.77	257.91	22.19	
2025-01-12 12:56:20.59	258.16	22.21	
2025-01-12 12:56:21.42	258.42	22.24	
2025-01-12 12:56:22.24	258.67	22.27	
2025-01-12 12:56:23.06	258.92	22.29	
2025-01-12 12:56:23.89	259.18	22.32	
2025-01-12 12:56:24.70	259.43	22.34	
2025-01-12 12:56:25.53	259.69	22.37	
2025-01-12 12:56:26.35	259.95	22.39	
2025-01-12 12:56:27.17	260.20	22.41	
2025-01-12 12:56:27.98	260.46	22.44	
2025-01-12 12:56:28.80	260.71	22.46	
2025-01-12 12:56:29.62	260.97	22.48	
2025-01-12 12:56:30.44	261.23	22.50	
2025-01-12 12:56:31.26	261.49	22.52	
2025-01-12 12:56:32.08	261.75	22.54	
2025-01-12 12:56:32.92	262.01	22.56	
2025-01-12 12:56:33.74	262.27	22.58	
2025-01-12 12:56:34.56	262.53	22.60	
2025-01-12 12:56:35.38	262.79	22.61	
2025-01-12 12:56:36.20	263.05	22.63	
2025-01-12 12:56:37.02	263.31	22.65	
2025-01-12 12:56:37.84	263.57	22.66	
2025-01-12 12:56:38.67	263.83	22.68	
2025-01-12 12:56:39.49	264.09	22.69	
2025-01-12 12:56:40.30	264.35	22.71	
2025-01-12 12:56:41.13	264.61	22.72	
2025-01-12 12:56:41.95	264.88	22.73	
2025-01-12 12:56:42.77	265.14	22.75	
2025-01-12 12:56:43.59	265.40	22.76	
2025-01-12 12:56:44.41	265.66	22.77	
2025-01-12 12:56:45.23	265.92	22.78	
2025-01-12 12:56:46.05	266.19	22.79	
2025-01-12 12:56:46.87	266.45	22.80	
2025-01-12 12:56:47.69	266.71	22.81	
2025-01-12 12:56:48.51	266.98	22.82	
2025-01-12 12:56:49.33	267.24	22.82	
2025-01-12 12:56:50.15	267.50	22.83	
2025-01-12 12:56:50.97	267.76	22.84	
2025-01-12 12:56:51.80	268.03	22.84	
2025-01-12 12:56:52.62	268.29	22.85	
2025-01-12 12:56:53.43	268.56	22.85	
2025-01-12 12:56:54.27	268.83	22.86	
2025-01-12 12:56:55.09	269.09	22.86	
2025-01-12 12:56:55.91	269.35	22.86	
2025-01-12 12:56:56.73	269.62	22.87	
2025-01-12 12:56:57.55	269.88	22.87	
2025-01-12 12:56:58.37	270.14	22.87	
2025-01-12 12:56:59.19	270.41	22.87	
2025-01-12 12:57:00.01	270.67	22.87	
2025-01-12 12:57:00.84	270.94	22.87	
2025-01-12 12:57:01.66	271.20	22.87	
2025-01-12 12:57:02.48	271.47	22.86	
2025-01-12 12:57:03.30	271.73	22.86	
2025-01-12 12:57:04.12	271.99	22.86	
2025-01-12 12:57:04.93	272.25	22.85	
2025-01-12 12:57:05.75	272.52	22.85	
2025-01-12 12:57:06.57	272.78	22.85	
2025-01-12 12:57:07.39	273.04	22.84	
2025-01-12 12:57:08.21	273.31	22.83	
2025-01-12 12:57:09.03	273.57	22.83	
2025-01-12 12:57:09.85	273.83	22.82	
2025-01-12 12:57:10.67	274.10	22.81	
2025-01-12 12:57:11.49	274.36	22.80	
2025-01-12 12:57:12.31	274.62	22.79	
2025-01-12 12:57:13.13	274.88	22.78	
2025-01-12 12:57:13.96	275.15	22.77	
2025-01-12 12:57:14.78	275.41	22.76	
2025-01-12 12:57:15.59	275.67	22.75	
2025-01-12 12:57:16.42	275.93	22.74	
2025-01-12 12:57:17.24	276.20	22.73	
2025-01-12 12:57:18.07	276.46	22.71	
2025-01-12 12:57:18.89	276.72	22.70	
2025-01-12 12:57:19.71	276.98	22.69	
2025-01-12 12:57:20.53	277.24	22.67	
2025-01-12 12:57:21.34	277.50	22.66	
2025-01-12 12:57:22.18	277.77	22.64	
2025-01-12 12:57:23.00	278.02	22.62	
2025-01-12 12:57:23.82	278.28	22.61	
2025-01-12 12:57:24.64	278.54	22.59	
2025-01-12 12:57:25.46	278.80	22.57	
2025-01-12 12:57:26.28	279.06	22.55	
2025-01-12 12:57:27.10	279.32	22.53	
2025-01-12 12:57:27.92	279.58	22.51	
2025-01-12 12:57:28.76	279.84	22.49	
2025-01-12 12:57:29.59	280.10	22.47	
2025-01-12 12:57:30.41	280.36	22.45	
2025-01-12 12:57:31.23	280.61	22.42	
2025-01-12 12:57:32.05	280.87	22.40	
2025-01-12 12:57:32.87	281.12	22.38	
2025-01-12 12:57:33.69	281.38	22.35	
2025-01-12 12:57:34.51	281.63	22.33	
2025-01-12 12:57:35.33	281.89	22.31	
2025-01-12 12:57:36.17	282.15	22.28	
2025-01-12 12:57:36.99	282.40	22.25	
2025-01-12 12:57:37.82	282.66	22.23	
2025-01-12 12:57:38.64	282.91	22.20	
2025-01-12 12:57:39.47	283.16	22.17	
2025-01-12 12:57:40.28	283.41	22.14	
2025-01-12 12:57:41.11	283.67	22.12	
2025-01-12 12:57:41.93	283.92	22.09	
2025-01-12 12:57:42.75	284.17	22.06	
2025-01-12 12:57:43.57	284.42	22.03	
2025-01-12 12:57:44.39	284.66	22.00	
2025-01-12 12:57:45.21	284.91	21.97	
2025-01-12 12:57:46.03	285.16	21.93	
2025-01-12 12:57:46.85	285.41	21.90	
2025-01-12 12:57:47.67	285.66	21.87	
2025-01-12 12:57:48.49	285.90	21.84	
2025-01-12 12:57:49.31	286.15	21.80	
2025-01-12 12:57:50.14	286.40	21.77	
2025-01-12 12:57:50.96	286.64	21.74	
2025-01-12 12:57:51.80	286.89	21.70	
2025-01-12 12:57:52.62	287.13	21.66	
2025-01-12 12:57:53.44	287.38	21.63	
2025-01-12 12:57:54.26	287.62	21.59	
2025-01-12 12:57:55.08	287.86	21.56	
2025-01-12 12:57:55.90	288.10	21.52	
2025-01-12 12:57:56.74	288.35	21.48	
2025-01-12 12:57:57.56	288.59	21.44	
2025-01-12 12:57:58.38	288.83	21.41	
2025-01-12 12:57:59.20	289.07	21.37	
2025-01-12 12:58:00.02	289.30	21.33	
2025-01-12 12:58:00.83	289.54	21.29	
2025-01-12 12:58:01.65	289.78	21.25	
2025-01-12 12:58:02.47	290.01	21.21	
2025-01-12 12:58:03.30	290.25	21.17	
2025-01-12 12:58:04.12	290.49	21.13	
2025-01-12 12:58:04.93	290.72	21.09	
2025-01-12 12:58:05.75	290.95	21.04	
2025-01-12 12:58:06.58	291.19	21.00	
2025-01-12 12:58:07.41	291.42	20.96	
2025-01-12 12:58:08.23	291.65	20.92	
2025-01-12 12:58:09.05	291.88	20.87	
2025-01-12 12:58:09.87	292.11	20.83	
2025-01-12 12:58:10.69	292.34	20.78	
2025-01-12 12:58:11.51	292.57	20.74	
2025-01-12 12:58:12.33	292.80	20.70	
2025-01-12 12:58:13.15	293.03	20.65	
2025-01-12 12:58:13.97	293.26	20.60	
2025-01-12 12:58:14.80	293.48	20.56	
2025-01-12 12:58:15.61	293.71	20.51	
2025-01-12 12:58:16.43	293.93	20.47	
2025-01-12 12:58:17.26	294.16	20.42	
2025-01-12 12:58:18.09	294.38	20.37	
2025-01-12 12:58:18.92	294.61	20.32	
2025-01-12 12:58:19.74	294.83	20.28	
2025-01-12 12:58:20.56	295.05	20.23	
2025-01-12 12:58:21.38	295.27	20.18	
2025-01-12 12:58:22.20	295.49	20.13	
2025-01-12 12:58:23.02	295.71	20.08	
2025-01-12 12:58:23.84	295.93	20.03	
2025-01-12 12:58:24.66	296.15	19.98	
2025-01-12 12:58:25.48	296.37	19.93	
2025-01-12 12:58:26.30	296.58	19.88	
2025-01-12 12:58:27.13	296.80	19.83	
2025-01-12 12:58:27.95	297.01	19.78	
2025-01-12 12:58:28.77	297.23	19.73	
2025-01-12 12:58:29.59	297.44	19.68	
2025-01-12 12:58:30.41	297.65	19.63	
2025-01-12 12:58:31.23	297.86	19.58	
2025-01-12 12:58:32.05	298.08	19.52	
2025-01-12 12:58:32.87	298.29	19.47	
2025-01-12 12:58:33.69	298.50	19.42	
2025-01-12 12:58:34.52	298.71	19.37	
2025-01-12 12:58:35.34	298.91	19.31	
2025-01-12 12:58:36.16	299.12	19.26	
2025-01-12 12:58:36.98	299.33	19.21	
2025-01-12 12:58:37.80	299.53	19.15	
2025-01-12 12:58:38.62	299.74	19.10	
2025-01-12 12:58:39.46	299.95	19.04	
2025-01-12 12:58:40.29	300.15	18.99	
2025-01-12 12:58:41.11	300.36	18.94	
2025-01-12 12:58:41.94	300.56	18.88	
2025-01-12 12:58:42.76	300.76	18.83	
2025-01-12 12:58:43.58	300.96	18.77	
2025-01-12 12:58:44.39	301.16	18.72	
2025-01-12 12:58:45.23	301.36	18.66	
2025-01-12 12:58:46.05	301.56	18.60	
2025-01-12 12:58:46.87	301.76	18.55	
2025-01-12 12:58:47.70	301.96	18.49	
2025-01-12 12:58:48.52	302.15	18.44	
2025-01-12 12:58:49.34	302.35	18.38	
2025-01-12 12:58:50.16	302.54	18.32	
2025-01-12 12:58:51.00	302.74	18.26	
2025-01-12 12:58:51.82	302.93	18.21	
2025-01-12 12:58:52.64	303.13	18.15	
2025-01-12 12:58:53.46	303.32	18.09	
2025-01-12 12:58:54.28	303.51	18.04	
2025-01-12 12:58:55.10	303.70	17.98	
2025-01-12 12:58:55.92	303.89	17.92	
2025-01-12 12:58:56.74	304.08	17.86	
2025-01-12 12:58:57.58	304.27	17.81	
2025-01-12 12:58:58.41	304.46	17.75	
2025-01-12 12:58:59.23	304.64	17.69	
2025-01-12 12:59:00.05	304.83	17.63	
2025-01-12 12:59:00.87	305.01	17.57	
2025-01-12 12:59:01.69	305.20	17.51	
2025-01-12 12:59:02.52	305.38	17.45	
2025-01-12 12:59:03.36	305.57	17.39	
2025-01-12 12:59:04.18	305.75	17.34	
2025-01-12 12:59:05.00	305.93	17.28	
2025-01-12 12:59:05.82	306.11	17.22	
2025-01-12 12:59:06.64	306.29	17.16	
2025-01-12 12:59:07.46	306.47	17.10	
2025-01-12 12:59:08.28	306.65	17.04	
2025-01-12 12:59:09.10	306.82	16.98	
2025-01-12 12:59:09.92	307.00	16.92	
2025-01-12 12:59:10.74	307.18	16.86	
2025-01-12 12:59:11.57	307.35	16.80	
2025-01-12 12:59:12.38	307.53	16.74	
2025-01-12 12:59:13.20	307.70	16.68	
2025-01-12 12:59:14.03	307.88	16.62	
2025-01-12 12:59:14.85	308.05	16.56	
2025-01-12 12:59:15.68	308.22	16.50	
2025-01-12 12:59:16.50	308.39	16.44	
2025-01-12 12:59:17.33	308.56	16.38	
2025-01-12 12:59:18.15	308.73	16.32	
2025-01-12 12:59:18.97	308.90	16.26	
2025-01-12 12:59:19.80	309.07	16.20	
2025-01-12 12:59:20.62	309.24	16.14	
2025-01-12 12:59:21.45	309.41	16.08	
2025-01-12 12:59:22.27	309.57	16.02	
2025-01-12 12:59:23.09	309.74	15.96	
2025-01-12 12:59:23.91	309.90	15.90	
2025-01-12 12:59:24.73	310.07	15.84	
2025-01-12 12:59:25.55	310.23	15.78	
2025-01-12 12:59:26.37	310.39	15.72	
2025-01-12 12:59:27.18	310.55	15.66	
2025-01-12 12:59:28.00	310.71	15.59	
2025-01-12 12:59:28.83	310.88	15.53	
2025-01-12 12:59:29.64	311.03	15.47	
2025-01-12 12:59:30.46	311.19	15.41	
2025-01-12 12:59:31.28	311.35	15.35	
2025-01-12 12:59:32.10	311.51	15.29	
2025-01-12 12:59:32.93	311.67	15.23	
2025-01-12 12:59:33.74	311.82	15.17	
2025-01-12 12:59:34.57	311.98	15.11	
2025-01-12 12:59:35.40	312.14	15.05	
2025-01-12 12:59:36.22	312.29	14.98	
2025-01-12 12:59:37.04	312.44	14.92	
2025-01-12 12:59:37.86	312.60	14.86	
2025-01-12 12:59:38.68	312.75	14.80	
2025-01-12 12:59:39.50	312.90	14.74	
2025-01-12 12:59:40.32	313.05	14.68	
2025-01-12 12:59:41.14	313.20	14.62	
2025-01-12 12:59:41.96	313.35	14.56	
2025-01-12 12:59:42.78	313.50	14.50	
2025-01-12 12:59:43.59	313.65	14.44	
2025-01-12 12:59:44.42	313.80	14.37	
2025-01-12 12:59:45.24	313.95	14.31	
2025-01-12 12:59:46.06	314.09	14.25	
2025-01-12 12:59:46.88	314.24	14.19	
2025-01-12 12:59:47.72	314.39	14.13	
2025-01-12 12:59:48.54	314.53	14.07	
2025-01-12 12:59:49.36	314.68	14.01	
2025-01-12 12:59:50.19	314.82	13.95	
2025-01-12 12:59:51.01	314.96	13.88	
2025-01-12 12:59:51.83	315.11	13.82	
2025-01-12 12:59:52.65	315.25	13.76	
2025-01-12 12:59:53.47	315.39	13.70	
2025-01-12 12:59:54.29	315.53	13.64	
2025-01-12 12:59:55.11	315.67	13.58	
2025-01-12 12:59:55.93	315.81	13.52	
2025-01-12 12:59:56.76	315.95	13.46	
2025-01-12 12:59:57.59	316.09	13.40	
2025-01-12 12:59:58.41	316.23	13.34	
2025-01-12 12:59:59.24	316.36	13.27	
2025-01-12 13:00:00.05	316.50	13.21	
2025-01-12 13:00:00.87	316.63	13.15	
2025-01-12 13:00:01.68	316.77	13.09	
2025-01-12 13:00:02.52	316.91	13.03	
2025-01-12 13:00:03.35	317.04	12.97	
2025-01-12 13:00:04.17	317.18	12.91	
2025-01-12 13:00:04.99	317.31	12.85	
2025-01-12 13:00:05.81	317.44	12.79	
2025-01-12 13:00:06.63	317.57	12.73	
2025-01-12 13:00:07.45	317.70	12.67	
2025-01-12 13:00:08.28	317.84	12.61	
2025-01-12 13:00:09.10	317.97	12.55	
2025-01-12 13:00:09.92	318.09	12.49	
2025-01-12 13:00:10.74	318.22	12.43	
2025-01-12 13:00:11.55	318.35	12.37	
2025-01-12 13:00:12.37	318.48	12.31	
2025-01-12 13:00:13.19	318.61	12.25	
2025-01-12 13:00:14.01	318.73	12.19	
2025-01-12 13:00:14.83	318.86	12.13	
2025-01-12 13:00:15.65	318.98	12.07	
2025-01-12 13:00:16.47	319.11	12.01	
2025-01-12 13:00:17.29	319.23	11.95	
2025-01-12 13:00:18.12	319.36	11.89	
2025-01-12 13:00:18.95	319.48	11.83	
2025-01-12 13:00:19.77	319.61	11.77	
2025-01-12 13:00:20.59	319.73	11.71	
2025-01-12 13:00:21.41	319.85	11.65	
2025-01-12 13:00:22.23	319.97	11.59	
2025-01-12 13:00:23.05	320.09	11.53	
2025-01-12 13:00:23.87	320.22	11.47	
2025-01-12 13:00:24.71	320.34	11.41	
2025-01-12 13:00:25.53	320.46	11.35	
2025-01-12 13:00:26.35	320.58	11.29	
2025-01-12 13:00:27.18	320.70	11.23	
2025-01-12 13:00:28.00	320.81	11.17	
2025-01-12 13:00:28.82	320.93	11.11	
2025-01-12 13:00:29.65	321.05	11.05	
2025-01-12 13:00:30.47	321.17	10.99	
2025-01-12 13:00:31.30	321.28	10.93	
2025-01-12 13:00:32.12	321.40	10.87	
2025-01-12 13:00:32.94	321.51	10.81	
2025-01-12 13:00:33.78	321.63	10.75	
2025-01-12 13:00:34.59	321.74	10.70	
2025-01-12 13:00:35.41	321.86	10.64	
2025-01-12 13:00:36.23	321.97	10.58	
2025-01-12 13:00:37.06	322.09	10.52	
2025-01-12 13:00:37.88	322.20	10.46	
2025-01-12 13:00:38.70	322.31	10.40	
2025-01-12 13:00:39.52	322.42	10.34	
2025-01-12 13:00:40.34	322.53	10.29	
2025-01-12 13:00:41.16	322.64	10.23	
2025-01-12 13:00:41.98	322.75	10.17	
2025-01-12 13:00:42.80	322.86	10.11	
2025-01-12 13:00:43.62	322.97	10.05	
2025-01-12 13:00:44.44	323.08	10.00	
2025-01-12 13:00:45.26	323.19	9.94	
2025-01-12 13:00:46.08	323.29	9.88	
2025-01-12 13:00:46.90	323.40	9.82	
2025-01-12 13:00:47.72	323.51	9.76	
2025-01-12 13:00:48.54	323.61	9.71	
2025-01-12 13:00:49.36	323.72	9.65	
2025-01-12 13:00:50.18	323.82	9.59	
2025-01-12 13:00:51.01	323.93	9.53	
2025-01-12 13:00:51.83	324.04	9.48	
2025-01-12 13:00:52.66	324.14	9.42	
2025-01-12 13:00:53.48	324.24	9.36	
2025-01-12 13:00:54.30	324.35	9.30	
2025-01-12 13:00:55.12	324.45	9.25	
2025-01-12 13:00:55.94	324.55	9.19	
2025-01-12 13:00:56.76	324.66	9.13	
2025-01-12 13:00:57.58	324.76	9.08	
2025-01-12 13:00:58.40	324.86	9.02	
2025-01-12 13:00:59.22	324.96	8.96	
2025-01-12 13:01:00.04	325.06	8.91	
2025-01-12 13:01:00.86	325.16	8.85	
2025-01-12 13:01:01.68	325.26	8.79	
2025-01-12 13:01:02.50	325.36	8.74	
2025-01-12 13:01:03.32	325.46	8.68	
2025-01-12 13:01:04.14	325.56	8.63	
2025-01-12 13:01:04.96	325.65	8.57	
2025-01-12 13:01:05.78	325.75	8.51	
2025-01-12 13:01:06.60	325.85	8.46	
2025-01-12 13:01:07.42	325.95	8.40	
2025-01-12 13:01:08.24	326.04	8.35	
2025-01-12 13:01:09.06	326.14	8.29	
2025-01-12 13:01:09.90	326.24	8.23	
2025-01-12 13:01:10.72	326.33	8.18	
2025-01-12 13:01:11.54	326.43	8.12	
2025-01-12 13:01:12.36	326.52	8.07	
2025-01-12 13:01:13.19	326.62	8.01	
2025-01-12 13:01:14.01	326.71	7.95	
2025-01-12 13:01:14.83	326.80	7.90	
2025-01-12 13:01:15.66	326.90	7.84	
2025-01-12 13:01:16.48	326.99	7.79	
2025-01-12 13:01:17.31	327.08	7.73	
2025-01-12 13:01:18.13	327.18	7.68	
2025-01-12 13:01:18.95	327.27	7.62	
2025-01-12 13:01:19.77	327.36	7.57	
2025-01-12 13:01:20.59	327.45	7.51	
2025-01-12 13:01:21.41	327.54	7.46	
2025-01-12 13:01:22.23	327.63	7.40	
2025-01-12 13:01:23.05	327.72	7.35	
2025-01-12 13:01:23.87	327.81	7.30	
2025-01-12 13:01:24.70	327.90	7.24	
2025-01-12 13:01:25.51	327.99	7.19	
2025-01-12 13:01:26.34	328.08	7.13	
2025-01-12 13:01:27.16	328.16	7.08	
2025-01-12 13:01:27.98	328.25	7.02	
2025-01-12 13:01:28.79	328.34	6.97	
2025-01-12 13:01:29.62	328.43	6.92	
2025-01-12 13:01:30.44	328.51	6.86	
2025-01-12 13:01:31.26	328.60	6.81	
2025-01-12 13:01:32.08	328.69	6.76	
2025-01-12 13:01:32.90	328.77	6.70	
2025-01-12 13:01:33.72	328.86	6.65	
2025-01-12 13:01:34.53	328.94	6.60	
2025-01-12 13:01:35.36	329.03	6.54	
2025-01-12 13:01:36.18	329.11	6.49	
2025-01-12 13:01:37.00	329.20	6.43	
2025-01-12 13:01:37.82	329.28	6.38	
2025-01-12 13:01:38.64	329.36	6.33	
2025-01-12 13:01:39.46	329.45	6.28	
2025-01-12 13:01:40.29	329.53	6.22	
2025-01-12 13:01:41.11	329.61	6.17	
2025-01-12 13:01:41.93	329.69	6.12	
2025-01-12 13:01:42.76	329.78	6.06	
2025-01-12 13:01:43.58	329.86	6.01	
2025-01-12 13:01:44.40	329.94	5.96	
2025-01-12 13:01:45.22	330.02	5.91	
2025-01-12 13:01:46.04	330.10	5.85	
2025-01-12 13:01:46.87	330.18	5.80	
2025-01-12 13:01:47.70	330.27	5.75	
2025-01-12 13:01:48.53	330.35	5.69	
2025-01-12 13:01:49.35	330.43	5.64	
2025-01-12 13:01:50.17	330.50	5.59	
2025-01-12 13:01:51.00	330.58	5.54	
2025-01-12 13:01:51.82	330.66	5.49	
2025-01-12 13:01:52.64	330.74	5.43	
2025-01-12 13:01:53.46	330.82	5.38	
2025-01-12 13:01:54.28	330.90	5.33	
2025-01-12 13:01:55.10	330.98	5.28	
2025-01-12 13:01:55.92	331.05	5.23	
2025-01-12 13:01:56.75	331.13	5.18	
2025-01-12 13:01:57.57	331.21	5.12	
2025-01-12 13:01:58.39	331.28	5.07	
2025-01-12 13:01:59.21	331.36	5.02	
2025-01-12 13:02:00.03	331.44	4.97	
2025-01-12 13:02:00.85	331.51	4.92	
2025-01-12 13:02:01.67	331.59	4.87	
2025-01-12 13:02:02.49	331.66	4.82	
2025-01-12 13:02:03.31	331.74	4.77	
2025-01-12 13:02:04.14	331.81	4.71	
2025-01-12 13:02:04.96	331.89	4.66	
2025-01-12 13:02:05.78	331.96	4.61	
2025-01-12 13:02:06.59	332.03	4.56	
2025-01-12 13:02:07.41	332.11	4.51	
2025-01-12 13:02:08.23	332.18	4.46	
2025-01-12 13:02:09.05	332.25	4.41	
2025-01-12 13:02:09.87	332.32	4.36	
2025-01-12 13:02:10.70	332.40	4.31	
2025-01-12 13:02:11.52	332.47	4.26	
2025-01-12 13:02:12.34	332.54	4.21	
2025-01-12 13:02:13.16	332.61	4.16	
2025-01-12 13:02:13.99	332.69	4.11	
2025-01-12 13:02:14.81	332.76	4.06	
2025-01-12 13:02:15.63	332.83	4.01	

#Closed at: 2025-01-12 13:02:15