passes_logs/2025/01/15/Regia/Regia__20250115_002156_AQUA_rec.log

#Pass ID: 20250115_002156_AQUA
#Satellite: AQUA
#Configuration: AQUA
#Start time: 2025-01-15 00:22:01.796691

#LorettStation: 1.0.0 05.05.2024
#Station: Regia
#Location: 37.494653 lon 55.929028 lat
#TLE: 1 27424U 02022A   25013.90877924  .00001664  00000+0  35162-3 0  9998
#TLE: 2 27424  98.3586 330.5629 0001670 112.6023 302.1910 14.60677775207428

#Time	Az	El	Level	SNR
2025-01-15 00:22:04.436409	23.6	15.3	-70.2	0.0
2025-01-15 00:22:05.551276	23.7	15.4	-70.5	0.0
2025-01-15 00:22:06.666136	23.7	15.6	-70.3	0.0
2025-01-15 00:22:07.781002	23.8	15.7	-70.3	0.0
2025-01-15 00:22:08.895760	23.9	15.8	-70.1	0.0
2025-01-15 00:22:10.010689	23.9	16.0	-70.5	0.0
2025-01-15 00:22:11.125554	24.0	16.1	-70.5	0.0
2025-01-15 00:22:12.240501	24.1	16.2	-70.5	0.0
2025-01-15 00:22:13.355361	24.1	16.3	-70.4	0.0
2025-01-15 00:22:14.469886	24.2	16.5	-70.3	0.0
2025-01-15 00:22:15.584747	24.3	16.6	-70.4	0.0
2025-01-15 00:22:16.698141	24.3	16.8	-70.5	0.0
2025-01-15 00:22:17.811923	24.4	16.9	-70.4	0.0
2025-01-15 00:22:18.926698	24.5	17.0	-70.5	0.0
2025-01-15 00:22:20.041629	24.5	17.2	-70.5	0.0
2025-01-15 00:22:21.156738	24.6	17.3	-70.5	0.0
2025-01-15 00:22:22.270292	24.7	17.4	-70.4	0.0
2025-01-15 00:22:23.382779	24.7	17.6	-70.5	0.0
2025-01-15 00:22:24.495542	24.8	17.7	-70.4	0.0
2025-01-15 00:22:25.608460	24.9	17.9	-70.3	0.0
2025-01-15 00:22:26.721533	25.0	18.0	-70.4	0.0
2025-01-15 00:22:27.834332	25.0	18.2	-70.4	0.0
2025-01-15 00:22:28.949288	25.1	18.3	-70.4	0.0
2025-01-15 00:22:30.064741	25.2	18.5	-70.5	0.0
2025-01-15 00:22:31.177534	25.3	18.6	-70.4	0.0
2025-01-15 00:22:32.290643	25.3	18.7	-70.4	0.0
2025-01-15 00:22:33.404113	25.4	18.9	-70.4	0.0
2025-01-15 00:22:34.518521	25.5	19.0	-70.4	0.0
2025-01-15 00:22:35.634391	25.6	19.2	-70.3	0.0
2025-01-15 00:22:36.747073	25.7	19.3	-70.5	0.0
2025-01-15 00:22:37.860756	25.7	19.5	-70.3	0.0
2025-01-15 00:22:38.977379	25.8	19.7	-70.4	0.0
2025-01-15 00:22:40.091725	25.9	19.8	-70.5	0.0
2025-01-15 00:22:41.206623	26.0	20.0	-70.5	0.0
2025-01-15 00:22:42.321547	26.1	20.1	-70.4	0.0
2025-01-15 00:22:43.436548	26.2	20.3	-70.2	0.0
2025-01-15 00:22:44.549255	26.3	20.4	-70.2	0.0
2025-01-15 00:22:45.661922	26.3	20.6	-70.3	0.0
2025-01-15 00:22:46.774953	26.4	20.8	-70.4	0.0
2025-01-15 00:22:47.888223	26.5	20.9	-70.5	0.0
2025-01-15 00:22:49.003409	26.6	21.1	-70.3	0.0
2025-01-15 00:22:50.117238	26.7	21.2	-70.4	0.0
2025-01-15 00:22:51.230120	26.8	21.4	-70.5	0.0
2025-01-15 00:22:52.344909	26.9	21.6	-70.6	0.0
2025-01-15 00:22:53.460121	27.0	21.7	-70.3	0.0
2025-01-15 00:22:54.573641	27.1	21.9	-70.6	0.0
2025-01-15 00:22:55.686751	27.2	22.1	-70.3	0.0
2025-01-15 00:22:56.801779	27.3	22.3	-70.6	0.0
2025-01-15 00:22:57.917179	27.4	22.4	-70.4	0.0
2025-01-15 00:22:59.031498	27.5	22.6	-70.2	0.0
2025-01-15 00:23:00.144990	27.6	22.8	-70.6	0.0
2025-01-15 00:23:01.258208	27.7	23.0	-70.4	0.0
2025-01-15 00:23:02.372480	27.8	23.1	-70.4	0.0
2025-01-15 00:23:03.487398	27.9	23.3	-70.6	0.0
2025-01-15 00:23:04.600366	28.0	23.5	-70.6	0.0
2025-01-15 00:23:05.713357	28.1	23.7	-70.4	0.0
2025-01-15 00:23:06.828012	28.2	23.9	-70.5	0.0
2025-01-15 00:23:07.942230	28.3	24.0	-70.4	0.0
2025-01-15 00:23:09.054935	28.4	24.2	-70.5	0.0
2025-01-15 00:23:10.168917	28.5	24.4	-70.4	0.0
2025-01-15 00:23:11.285511	28.6	24.6	-70.4	0.0
2025-01-15 00:23:12.399828	28.8	24.8	-70.6	0.0
2025-01-15 00:23:13.512927	28.9	25.0	-70.6	0.0
2025-01-15 00:23:14.626423	29.0	25.2	-70.5	0.0
2025-01-15 00:23:15.738616	29.1	25.4	-70.5	0.0
2025-01-15 00:23:16.853753	29.2	25.6	-70.4	0.0
2025-01-15 00:23:17.968705	29.3	25.7	-70.5	0.0
2025-01-15 00:23:19.083736	29.5	25.9	-70.3	0.0
2025-01-15 00:23:20.198298	29.6	26.1	-70.5	0.0
2025-01-15 00:23:21.312182	29.7	26.3	-70.4	0.0
2025-01-15 00:23:22.427608	29.9	26.5	-70.4	0.0
2025-01-15 00:23:23.542361	30.0	26.7	-70.4	0.0
2025-01-15 00:23:24.655157	30.1	27.0	-70.5	0.0
2025-01-15 00:23:25.768062	30.2	27.2	-70.5	0.0
2025-01-15 00:23:26.883700	30.4	27.4	-70.5	0.0
2025-01-15 00:23:27.998639	30.5	27.6	-70.4	0.0
2025-01-15 00:23:29.114067	30.7	27.8	-70.4	0.0
2025-01-15 00:23:30.227754	30.8	28.0	-70.6	0.0
2025-01-15 00:23:31.341308	30.9	28.2	-70.5	0.0
2025-01-15 00:23:32.456712	31.1	28.4	-70.5	0.0
2025-01-15 00:23:33.572848	31.2	28.6	-70.3	0.0
2025-01-15 00:23:34.686012	31.4	28.9	-70.5	0.0
2025-01-15 00:23:35.799552	31.5	29.1	-70.5	0.0
2025-01-15 00:23:36.915077	31.7	29.3	-70.4	0.0
2025-01-15 00:23:38.028595	31.8	29.5	-70.7	0.0
2025-01-15 00:23:39.141793	32.0	29.8	-70.6	0.0
2025-01-15 00:23:40.255678	32.1	30.0	-70.5	0.0
2025-01-15 00:23:41.370470	32.3	30.2	-70.6	0.0
2025-01-15 00:23:42.485413	32.5	30.4	-70.6	0.0
2025-01-15 00:23:43.600549	32.6	30.7	-70.5	0.0
2025-01-15 00:23:44.714172	32.8	30.9	-70.4	0.0
2025-01-15 00:23:45.827020	33.0	31.2	-70.5	0.0
2025-01-15 00:23:46.940505	33.1	31.4	-70.3	0.0
2025-01-15 00:23:48.054470	33.3	31.6	-70.4	0.0
2025-01-15 00:23:49.169006	33.5	31.9	-70.2	0.0
2025-01-15 00:23:50.283067	33.7	32.1	-70.2	0.0
2025-01-15 00:23:51.395600	33.9	32.4	-70.4	0.0
2025-01-15 00:23:52.510712	34.0	32.6	-70.6	0.0
2025-01-15 00:23:53.626034	34.2	32.9	-70.5	0.0
2025-01-15 00:23:54.740743	34.4	33.1	-70.5	0.0
2025-01-15 00:23:55.854272	34.6	33.4	-70.6	0.0
2025-01-15 00:23:56.969134	34.8	33.6	-70.6	0.0
2025-01-15 00:23:58.084215	35.0	33.9	-70.4	0.0
2025-01-15 00:23:59.199074	35.2	34.1	-70.5	0.0
2025-01-15 00:24:00.313265	35.4	34.4	-70.3	0.0
2025-01-15 00:24:01.426675	35.7	34.7	-70.7	0.0
2025-01-15 00:24:02.541164	35.9	34.9	-70.6	0.0
2025-01-15 00:24:03.656425	36.1	35.2	-70.5	0.0
2025-01-15 00:24:04.771689	36.3	35.5	-70.5	0.0
2025-01-15 00:24:05.887178	36.5	35.7	-70.5	0.0
2025-01-15 00:24:07.003049	36.8	36.0	-70.5	0.0
2025-01-15 00:24:08.117200	37.0	36.3	-70.4	0.0
2025-01-15 00:24:09.229900	37.2	36.6	-70.6	0.0
2025-01-15 00:24:10.342899	37.5	36.8	-70.5	0.0
2025-01-15 00:24:11.455897	37.7	37.1	-70.5	0.0
2025-01-15 00:24:12.570527	38.0	37.4	-70.5	0.0
2025-01-15 00:24:13.685072	38.2	37.7	-70.5	0.0
2025-01-15 00:24:14.799492	38.5	38.0	-70.6	0.0
2025-01-15 00:24:15.914783	38.7	38.3	-70.6	0.0
2025-01-15 00:24:17.027746	39.0	38.5	-70.5	0.0
2025-01-15 00:24:18.142064	39.3	38.8	-70.6	0.0
2025-01-15 00:24:19.257305	39.6	39.1	-70.0	0.0
2025-01-15 00:24:20.372173	39.9	39.4	-70.6	0.0
2025-01-15 00:24:21.487429	40.1	39.7	-70.4	0.0
2025-01-15 00:24:22.600122	40.4	40.0	-70.5	0.0
2025-01-15 00:24:23.713150	40.7	40.3	-70.4	0.0
2025-01-15 00:24:24.825909	41.0	40.6	-70.4	0.0
2025-01-15 00:24:25.939321	41.3	40.9	-70.5	0.0
2025-01-15 00:24:27.054024	41.7	41.2	-70.7	0.0
2025-01-15 00:24:28.167884	42.0	41.6	-70.4	0.0
2025-01-15 00:24:29.280680	42.3	41.9	-70.5	0.0
2025-01-15 00:24:30.393184	42.7	42.2	-70.5	0.0
2025-01-15 00:24:31.506321	43.0	42.5	-70.4	0.0
2025-01-15 00:24:32.621201	43.3	42.8	-70.5	0.0
2025-01-15 00:24:33.737066	43.7	43.1	-70.5	0.0
2025-01-15 00:24:34.851994	44.1	43.4	-70.6	0.0
2025-01-15 00:24:35.966617	44.4	43.8	-70.5	0.0
2025-01-15 00:24:37.081485	44.8	44.1	-70.5	0.0
2025-01-15 00:24:38.195710	45.2	44.4	-70.4	0.0
2025-01-15 00:24:39.308576	45.6	44.7	-70.4	0.0
2025-01-15 00:24:40.422117	46.0	45.1	-70.6	0.0
2025-01-15 00:24:41.538018	46.4	45.4	-70.4	0.0
2025-01-15 00:24:42.653165	46.8	45.7	-70.3	0.0
2025-01-15 00:24:43.768032	47.3	46.1	-70.5	0.0
2025-01-15 00:24:44.880827	47.7	46.4	-70.4	0.0
2025-01-15 00:24:45.993528	48.1	46.7	-70.5	0.0
2025-01-15 00:24:47.111719	48.6	47.1	-70.4	0.0
2025-01-15 00:24:48.226751	49.1	47.4	-70.7	0.0
2025-01-15 00:24:49.343250	49.5	47.7	-70.6	0.0
2025-01-15 00:24:50.458187	50.0	48.1	-70.6	0.0
2025-01-15 00:24:51.572513	50.5	48.4	-70.5	0.0
2025-01-15 00:24:52.685699	51.0	48.7	-70.5	0.0
2025-01-15 00:24:53.799033	51.6	49.1	-70.3	0.0
2025-01-15 00:24:54.914064	52.1	49.4	-70.4	0.0
2025-01-15 00:24:56.028999	52.6	49.7	-70.5	0.0
2025-01-15 00:24:57.143853	53.2	50.1	-70.7	0.0
2025-01-15 00:24:58.259795	53.8	50.4	-70.3	0.0
2025-01-15 00:24:59.375279	54.3	50.8	-70.5	0.0
2025-01-15 00:25:00.491197	54.9	51.1	-70.5	0.0
2025-01-15 00:25:01.606063	55.5	51.4	-70.4	0.0
2025-01-15 00:25:02.722523	56.2	51.8	-70.4	0.0
2025-01-15 00:25:03.837101	56.8	52.1	-70.5	0.0
2025-01-15 00:25:04.950413	57.5	52.4	-70.5	0.0
2025-01-15 00:25:06.064710	58.1	52.8	-70.6	0.0
2025-01-15 00:25:07.179573	58.8	53.1	-70.5	0.0
2025-01-15 00:25:08.294146	59.5	53.4	-70.6	0.0
2025-01-15 00:25:09.407427	60.2	53.7	-70.4	0.0
2025-01-15 00:25:10.522060	60.9	54.1	-70.4	0.0
2025-01-15 00:25:11.637921	61.7	54.4	-70.5	0.0
2025-01-15 00:25:12.753703	62.4	54.7	-70.6	0.0
2025-01-15 00:25:13.868634	63.2	55.0	-70.5	0.0
2025-01-15 00:25:14.983782	64.0	55.3	-70.5	0.0
2025-01-15 00:25:16.098987	64.8	55.6	-70.5	0.0
2025-01-15 00:25:17.213068	65.7	55.9	-70.7	0.0
2025-01-15 00:25:18.326185	66.5	56.2	-70.6	0.0
2025-01-15 00:25:19.439462	67.4	56.5	-70.5	0.0
2025-01-15 00:25:20.554518	68.3	56.8	-70.6	0.0
2025-01-15 00:25:21.669875	69.2	57.1	-70.1	0.0
2025-01-15 00:25:22.782568	70.1	57.4	-70.3	0.0
2025-01-15 00:25:23.895878	71.1	57.7	-70.3	0.0
2025-01-15 00:25:25.010782	72.0	57.9	-70.5	0.0
2025-01-15 00:25:26.124437	73.0	58.2	-70.4	0.0
2025-01-15 00:25:27.237502	74.0	58.5	-70.5	0.0
2025-01-15 00:25:28.351446	75.0	58.7	-70.5	0.0
2025-01-15 00:25:29.467308	76.1	58.9	-70.6	0.0
2025-01-15 00:25:30.582127	77.1	59.2	-70.7	0.0
2025-01-15 00:25:31.696993	78.2	59.4	-70.3	0.0
2025-01-15 00:25:32.810199	79.3	59.6	-70.6	0.0
2025-01-15 00:25:33.922335	80.4	59.8	-70.5	0.0
2025-01-15 00:25:35.037247	81.5	60.0	-70.4	0.0
2025-01-15 00:25:36.152230	82.7	60.2	-70.5	0.0
2025-01-15 00:25:37.267341	83.9	60.4	-70.4	0.0
2025-01-15 00:25:38.381976	85.0	60.6	-70.5	0.0
2025-01-15 00:25:39.495062	86.2	60.7	-70.5	0.0
2025-01-15 00:25:40.609751	87.5	60.9	-70.5	0.0
2025-01-15 00:25:41.725611	88.7	61.0	-70.5	0.0
2025-01-15 00:25:42.838686	89.9	61.1	-70.5	0.0
2025-01-15 00:25:43.952233	91.2	61.3	-70.6	0.0
2025-01-15 00:25:45.067148	92.4	61.4	-70.6	0.0
2025-01-15 00:25:46.184085	93.7	61.5	-70.7	0.0
2025-01-15 00:25:47.299429	95.0	61.5	-70.4	0.0
2025-01-15 00:25:48.413975	96.3	61.6	-70.4	0.0
2025-01-15 00:25:49.528105	97.6	61.7	-70.5	0.0
2025-01-15 00:25:50.641377	98.9	61.7	-70.4	0.0
2025-01-15 00:25:51.753952	100.2	61.7	-70.6	0.0
2025-01-15 00:25:52.869163	101.5	61.7	-70.2	0.0
2025-01-15 00:25:53.983947	102.8	61.7	-70.0	0.0
2025-01-15 00:25:55.099589	104.1	61.7	-70.5	0.0
2025-01-15 00:25:56.214533	105.4	61.7	-70.5	0.0
2025-01-15 00:25:57.330388	106.7	61.7	-70.5	0.0
2025-01-15 00:25:58.444548	108.0	61.6	-70.4	0.0
2025-01-15 00:25:59.558174	109.3	61.6	-70.5	0.0
2025-01-15 00:26:00.673384	110.6	61.5	-70.6	0.0
2025-01-15 00:26:01.790252	111.9	61.4	-70.5	0.0
2025-01-15 00:26:02.905192	113.2	61.3	-70.4	0.0
2025-01-15 00:26:04.021127	114.4	61.2	-70.5	0.0
2025-01-15 00:26:05.136210	115.7	61.1	-70.5	0.0
2025-01-15 00:26:06.249754	116.9	61.0	-70.3	0.0
2025-01-15 00:26:07.363463	118.1	60.8	-70.6	0.0
2025-01-15 00:26:08.478646	119.3	60.7	-70.6	0.0
2025-01-15 00:26:09.593373	120.5	60.5	-70.5	0.0
2025-01-15 00:26:10.707653	121.7	60.3	-70.4	0.0
2025-01-15 00:26:11.820387	122.9	60.2	-70.6	0.0
2025-01-15 00:26:12.933382	124.0	60.0	-70.6	0.0
2025-01-15 00:26:14.046495	125.1	59.8	-70.5	0.0
2025-01-15 00:26:15.162365	126.3	59.5	-70.6	0.0
2025-01-15 00:26:16.277286	127.4	59.3	-70.6	0.0
2025-01-15 00:26:17.393045	128.4	59.1	-70.7	0.0
2025-01-15 00:26:18.508677	129.5	58.9	-70.6	0.0
2025-01-15 00:26:19.623150	130.5	58.6	-70.5	0.0
2025-01-15 00:26:20.738092	131.5	58.4	-70.3	0.0
2025-01-15 00:26:21.854079	132.5	58.1	-70.3	0.0
2025-01-15 00:26:22.969016	133.5	57.8	-70.2	0.0
2025-01-15 00:26:24.083377	134.5	57.6	-70.5	0.0
2025-01-15 00:26:25.196279	135.4	57.3	-70.4	0.0
2025-01-15 00:26:26.310233	136.3	57.0	-70.5	0.0
2025-01-15 00:26:27.425095	137.2	56.7	-70.6	0.0
2025-01-15 00:26:28.540033	138.1	56.4	-70.5	0.0
2025-01-15 00:26:29.655188	139.0	56.1	-70.6	0.0
2025-01-15 00:26:30.770117	139.8	55.8	-70.5	0.0
2025-01-15 00:26:31.885048	140.6	55.5	-70.1	0.0
2025-01-15 00:26:32.999915	141.5	55.2	-70.5	0.0
2025-01-15 00:26:34.114339	142.2	54.9	-70.6	0.0
2025-01-15 00:26:35.229200	143.0	54.6	-70.5	0.0
2025-01-15 00:26:36.343284	143.8	54.3	-70.4	0.0
2025-01-15 00:26:37.456746	144.5	53.9	-70.6	0.0
2025-01-15 00:26:38.571848	145.2	53.6	-70.6	0.0
2025-01-15 00:26:39.686852	146.0	53.3	-70.5	0.0
2025-01-15 00:26:40.799383	146.6	53.0	-70.4	0.0
2025-01-15 00:26:41.912542	147.3	52.6	-70.4	0.0
2025-01-15 00:26:43.028380	148.0	52.3	-70.6	0.0
2025-01-15 00:26:44.143309	148.6	52.0	-70.5	0.0
2025-01-15 00:26:45.258176	149.3	51.6	-70.5	0.0
2025-01-15 00:26:46.372560	149.9	51.3	-70.6	0.0
2025-01-15 00:26:47.487361	150.5	50.9	-70.6	0.0
2025-01-15 00:26:48.600360	151.1	50.6	-70.7	0.0
2025-01-15 00:26:49.713719	151.6	50.3	-70.6	0.0
2025-01-15 00:26:50.825993	152.2	49.9	-70.3	0.0
2025-01-15 00:26:51.939385	152.8	49.6	-70.1	0.0
2025-01-15 00:26:53.054422	153.3	49.3	-70.6	0.0
2025-01-15 00:26:54.168357	153.8	48.9	-70.3	0.0
2025-01-15 00:26:55.281808	154.4	48.6	-70.5	0.0
2025-01-15 00:26:56.396357	154.9	48.2	-70.5	0.0
2025-01-15 00:26:57.511225	155.4	47.9	-70.6	0.0
2025-01-15 00:26:58.626654	155.8	47.6	-70.5	0.0
2025-01-15 00:26:59.741533	156.3	47.2	-70.6	0.0
2025-01-15 00:27:00.856744	156.8	46.9	-70.5	0.0
2025-01-15 00:27:01.972030	157.2	46.6	-70.6	0.0
2025-01-15 00:27:03.085120	157.7	46.2	-70.5	0.0
2025-01-15 00:27:04.198853	158.1	45.9	-70.5	0.0
2025-01-15 00:27:05.314097	158.5	45.6	-70.7	0.0
2025-01-15 00:27:06.429351	158.9	45.2	-70.5	0.0
2025-01-15 00:27:07.544558	159.4	44.9	-70.4	0.0
2025-01-15 00:27:08.658597	159.8	44.6	-70.6	0.0
2025-01-15 00:27:09.771410	160.1	44.2	-70.4	0.0
2025-01-15 00:27:10.886539	160.5	43.9	-70.5	0.0
2025-01-15 00:27:12.001358	160.9	43.6	-70.5	0.0
2025-01-15 00:27:13.114135	161.3	43.3	-70.5	0.0
2025-01-15 00:27:14.227975	161.6	42.9	-70.5	0.0
2025-01-15 00:27:15.343178	162.0	42.6	-70.5	0.0
2025-01-15 00:27:16.458191	162.3	42.3	-70.5	0.0
2025-01-15 00:27:17.573458	162.7	42.0	-70.4	0.0
2025-01-15 00:27:18.686540	163.0	41.7	-70.5	0.0
2025-01-15 00:27:19.799257	163.3	41.4	-70.5	0.0
2025-01-15 00:27:20.914820	163.7	41.1	-70.5	0.0
2025-01-15 00:27:22.028521	164.0	40.7	-70.5	0.0
2025-01-15 00:27:23.141742	164.3	40.4	-70.4	0.0
2025-01-15 00:27:24.257136	164.6	40.1	-70.6	0.0
2025-01-15 00:27:25.372774	164.9	39.8	-70.3	0.0
2025-01-15 00:27:26.487707	165.2	39.5	-70.5	0.0
2025-01-15 00:27:27.602574	165.5	39.2	-70.5	0.0
2025-01-15 00:27:28.717516	165.8	38.9	-70.6	0.0
2025-01-15 00:27:29.832292	166.0	38.6	-70.5	0.0
2025-01-15 00:27:30.947245	166.3	38.3	-70.5	0.0
2025-01-15 00:27:32.061684	166.6	38.1	-70.3	0.0
2025-01-15 00:27:33.175500	166.8	37.8	-70.5	0.0
2025-01-15 00:27:34.289964	167.1	37.5	-70.5	0.0
2025-01-15 00:27:35.404820	167.3	37.2	-70.6	0.0
2025-01-15 00:27:36.520070	167.6	36.9	-70.4	0.0
2025-01-15 00:27:37.634250	167.8	36.6	-70.6	0.0
2025-01-15 00:27:38.750327	168.1	36.4	-70.6	0.0
2025-01-15 00:27:39.864572	168.3	36.1	-70.5	0.0
2025-01-15 00:27:40.977218	168.5	35.8	-70.3	0.0
2025-01-15 00:27:42.089714	168.8	35.5	-70.5	0.0
2025-01-15 00:27:43.203741	169.0	35.3	-70.5	0.0
2025-01-15 00:27:44.317985	169.2	35.0	-70.4	0.0
2025-01-15 00:27:45.432889	169.4	34.7	-70.4	0.0
2025-01-15 00:27:46.546738	169.6	34.5	-70.5	0.0
2025-01-15 00:27:47.660184	169.9	34.2	-70.4	0.0
2025-01-15 00:27:48.775289	170.1	33.9	-70.7	0.0
2025-01-15 00:27:49.890528	170.3	33.7	-70.5	0.0
2025-01-15 00:27:51.003124	170.5	33.4	-70.5	0.0
2025-01-15 00:27:52.116843	170.7	33.2	-70.4	0.0
2025-01-15 00:27:53.231707	170.9	32.9	-70.4	0.0
2025-01-15 00:27:54.346704	171.0	32.7	-70.3	0.0
2025-01-15 00:27:55.462472	171.2	32.4	-70.4	0.0
2025-01-15 00:27:56.574788	171.4	32.2	-70.4	0.0
2025-01-15 00:27:57.687143	171.6	31.9	-70.5	0.0
2025-01-15 00:27:58.800646	171.8	31.7	-70.3	0.0
2025-01-15 00:27:59.913687	172.0	31.4	-70.6	0.0
2025-01-15 00:28:01.026428	172.1	31.2	-70.5	0.0
2025-01-15 00:28:02.140311	172.3	30.9	-70.4	0.0
2025-01-15 00:28:03.255169	172.5	30.7	-70.5	0.0
2025-01-15 00:28:04.370122	172.6	30.5	-70.5	0.0
2025-01-15 00:28:05.484876	172.8	30.2	-70.5	0.0
2025-01-15 00:28:06.600094	173.0	30.0	-70.4	0.0
2025-01-15 00:28:07.716137	173.1	29.8	-70.6	0.0
2025-01-15 00:28:08.828843	173.3	29.5	-70.5	0.0
2025-01-15 00:28:09.942731	173.4	29.3	-70.4	0.0
2025-01-15 00:28:11.057597	173.6	29.1	-70.7	0.0
2025-01-15 00:28:12.172540	173.7	28.9	-70.5	0.0
2025-01-15 00:28:13.287399	173.9	28.7	-70.5	0.0
2025-01-15 00:28:14.402262	174.0	28.4	-70.6	0.0
2025-01-15 00:28:15.517701	174.2	28.2	-70.5	0.0
2025-01-15 00:28:16.632651	174.3	28.0	-70.5	0.0
2025-01-15 00:28:17.747510	174.5	27.8	-70.4	0.0
2025-01-15 00:28:18.861654	174.6	27.6	-70.6	0.0
2025-01-15 00:28:19.975506	174.7	27.4	-70.7	0.0
2025-01-15 00:28:21.089096	174.9	27.2	-70.5	0.0
2025-01-15 00:28:22.202981	175.0	26.9	-70.5	0.0
2025-01-15 00:28:23.318250	175.1	26.7	-70.4	0.0
2025-01-15 00:28:24.433698	175.3	26.5	-70.4	0.0
2025-01-15 00:28:25.548898	175.4	26.3	-70.5	0.0
2025-01-15 00:28:26.664728	175.5	26.1	-70.5	0.0
2025-01-15 00:28:27.779591	175.7	25.9	-70.5	0.0
2025-01-15 00:28:28.894539	175.8	25.7	-70.5	0.0
2025-01-15 00:28:30.008924	175.9	25.5	-70.6	0.0
2025-01-15 00:28:31.122009	176.0	25.3	-70.8	0.0
2025-01-15 00:28:32.236313	176.1	25.1	-70.6	0.0
2025-01-15 00:28:33.351096	176.3	24.9	-70.4	0.0
2025-01-15 00:28:34.464855	176.4	24.8	-70.6	0.0
2025-01-15 00:28:35.578096	176.5	24.6	-70.6	0.0
2025-01-15 00:28:36.693900	176.6	24.4	-70.7	0.0
2025-01-15 00:28:37.809067	176.7	24.2	-70.7	0.0
2025-01-15 00:28:38.925326	176.8	24.0	-70.5	0.0
2025-01-15 00:28:40.039973	176.9	23.8	-70.4	0.0
2025-01-15 00:28:41.153091	177.0	23.6	-70.6	0.0
2025-01-15 00:28:42.266810	177.2	23.4	-70.6	0.0
2025-01-15 00:28:43.381672	177.3	23.3	-70.5	0.0
2025-01-15 00:28:44.496781	177.4	23.1	-70.6	0.0
2025-01-15 00:28:45.611993	177.5	22.9	-70.7	0.0
2025-01-15 00:28:46.725385	177.6	22.7	-70.7	0.0
2025-01-15 00:28:47.838931	177.7	22.6	-70.6	0.0
2025-01-15 00:28:48.952538	177.8	22.4	-70.6	0.0
2025-01-15 00:28:50.065994	177.9	22.2	-70.6	0.0
2025-01-15 00:28:51.180814	178.0	22.0	-70.5	0.0
2025-01-15 00:28:52.296086	178.1	21.9	-70.6	0.0
2025-01-15 00:28:53.411957	178.2	21.7	-70.2	0.0
2025-01-15 00:28:54.524844	178.3	21.5	-70.6	0.0
2025-01-15 00:28:55.638229	178.3	21.4	-70.7	0.0
2025-01-15 00:28:56.753187	178.4	21.2	-70.5	0.0
2025-01-15 00:28:57.868038	178.5	21.0	-70.6	0.0
2025-01-15 00:28:58.982905	178.6	20.9	-70.6	0.0
2025-01-15 00:29:00.097579	178.7	20.7	-70.6	0.0
2025-01-15 00:29:01.210679	178.8	20.5	-70.6	0.0
2025-01-15 00:29:02.325326	178.9	20.4	-70.6	0.0
2025-01-15 00:29:03.440634	179.0	20.2	-70.6	0.0
2025-01-15 00:29:04.555618	179.1	20.0	-70.5	0.0
2025-01-15 00:29:05.670483	179.1	19.9	-70.6	0.0
2025-01-15 00:29:06.785408	179.2	19.7	-70.6	0.0
2025-01-15 00:29:07.899642	179.3	19.6	-70.6	0.0
2025-01-15 00:29:09.012825	179.4	19.4	-70.5	0.0
2025-01-15 00:29:10.125422	179.5	19.3	-70.5	0.0
2025-01-15 00:29:11.238362	179.6	19.1	-70.5	0.0
2025-01-15 00:29:12.353223	179.6	19.0	-70.7	0.0
2025-01-15 00:29:13.468365	179.7	18.8	-70.5	0.0
2025-01-15 00:29:14.581087	179.8	18.7	-70.6	0.0
2025-01-15 00:29:15.693851	179.9	18.5	-70.5	0.0
2025-01-15 00:29:16.809130	179.9	18.4	-70.5	0.0
2025-01-15 00:29:17.924077	180.0	18.2	-70.4	0.0
2025-01-15 00:29:19.038054	180.1	18.1	-70.6	0.0
2025-01-15 00:29:20.153329	180.2	17.9	-70.6	0.0
2025-01-15 00:29:21.269195	180.2	17.8	-70.6	0.0
2025-01-15 00:29:22.384379	180.3	17.6	-70.3	0.0
2025-01-15 00:29:23.499521	180.4	17.5	-70.6	0.0
2025-01-15 00:29:24.612750	180.5	17.4	-70.6	0.0
2025-01-15 00:29:25.726183	180.5	17.2	-70.5	0.0
2025-01-15 00:29:26.841464	180.6	17.1	-70.6	0.0
2025-01-15 00:29:27.957110	180.7	16.9	-70.6	0.0
2025-01-15 00:29:29.068788	180.7	16.8	-70.4	0.0
2025-01-15 00:29:30.183259	180.8	16.7	-70.7	0.0
2025-01-15 00:29:31.298120	180.9	16.5	-70.6	0.0
2025-01-15 00:29:32.414078	180.9	16.4	-70.5	0.0
2025-01-15 00:29:33.529936	181.0	16.2	-70.6	0.0
2025-01-15 00:29:34.644874	181.1	16.1	-70.5	0.0
2025-01-15 00:29:35.759741	181.1	16.0	-70.6	0.0
2025-01-15 00:29:36.874765	181.2	15.8	-70.6	0.0
2025-01-15 00:29:37.990805	181.3	15.7	-70.5	0.0
2025-01-15 00:29:39.104221	181.3	15.6	-70.5	0.0
2025-01-15 00:29:40.217511	181.4	15.5	-70.5	0.0
2025-01-15 00:29:41.333377	181.5	15.3	-70.6	0.0
2025-01-15 00:29:42.449338	181.5	15.2	-70.6	0.0
2025-01-15 00:29:43.564611	181.6	15.1	-70.6	0.0
2025-01-15 00:29:44.677448	181.6	14.9	-70.6	0.0
#Closed at: 2025-01-15 00:21:56.798371