passes_logs/2026/01/23/R2.0S_Moscow/R2.0S_Moscow__20260123_215613_NOAA_21_JPSS-2_rec.log

#Pass ID: 20260123_215613_NOAA 21 (JPSS-2)
#Satellite: NOAA 21 (JPSS-2)
#Configuration: NOAA-21
#almurnet v.1.7.20251203
#Start time: 2026-01-23 21:56:14

#Version: 2.2.20231116
#Station: R2.0S_Moscow
#Location: 37.707566 lon 55.798166 lat
#TLE: 1 54234U 22150A   26022.90705406  .00000208  00000+0  11937-3 0  9994
#TLE: 2 54234  98.7507 323.7115 0000669 231.3756 128.7360 14.19537879165931

#Time	Az	El	Level	Level2	SNR	BER	BlckErr	Temp	State	Recorded	gain1	gain2
2026-01-23 21:56:14.58	27.40	2.06	-42.7	-55.0	3.8	1.49e+00	0	52	0	0	57	14417
2026-01-23 21:56:17.60	27.65	2.22	-42.7	-55.0	3.8	1.49e+00	0	52	104	0	57	14462
2026-01-23 21:56:20.63	27.90	2.37	-42.7	-55.0	3.8	1.49e+00	0	52	104	0	57	14470
2026-01-23 21:56:23.67	28.15	2.53	-42.7	-55.0	3.8	1.49e+00	0	53	104	0	57	14428
2026-01-23 21:56:26.70	28.41	2.69	-42.7	-55.0	3.8	1.49e+00	0	53	104	0	57	14466
2026-01-23 21:56:29.73	28.67	2.84	-42.7	-55.0	3.8	1.49e+00	0	53	104	0	57	14457
2026-01-23 21:56:32.76	28.93	3.00	-42.7	-55.0	3.8	1.49e+00	0	53	104	0	57	14407
2026-01-23 21:56:35.79	29.19	3.16	-42.7	-55.0	3.8	1.49e+00	0	53	104	0	57	14429
2026-01-23 21:56:38.82	29.46	3.32	-42.7	-55.0	3.8	1.49e+00	0	54	104	0	57	14399
2026-01-23 21:56:41.86	29.73	3.48	-42.7	-55.0	3.8	1.49e+00	0	54	104	0	57	14423
2026-01-23 21:56:44.89	30.00	3.64	-42.7	-54.9	3.8	1.49e+00	0	54	104	0	57	14372
2026-01-23 21:56:47.92	30.27	3.80	-42.7	-55.0	3.8	1.49e+00	0	54	104	0	57	14400
2026-01-23 21:56:50.95	30.55	3.96	-42.7	-55.0	3.8	1.49e+00	0	54	104	0	57	14406
2026-01-23 21:56:53.98	30.83	4.12	-42.7	-55.0	3.8	1.49e+00	0	55	104	0	57	14388
2026-01-23 21:56:57.01	31.11	4.28	-42.7	-55.0	3.8	1.49e+00	0	55	104	0	57	14376
2026-01-23 21:57:00.04	31.40	4.44	-42.7	-55.0	3.8	1.49e+00	0	55	104	0	57	14397
2026-01-23 21:57:03.07	31.69	4.60	-42.7	-55.0	3.8	1.49e+00	0	55	104	0	57	14429
2026-01-23 21:57:06.10	31.98	4.76	-42.7	-55.0	3.8	1.49e+00	0	55	104	0	57	14397
2026-01-23 21:57:09.13	32.27	4.93	-42.7	-55.0	3.8	1.49e+00	0	55	104	0	57	14434
2026-01-23 21:57:12.16	32.57	5.09	-42.7	-55.0	3.8	1.49e+00	0	55	104	0	57	14385
2026-01-23 21:57:15.19	32.87	5.25	-42.7	-55.0	3.8	1.49e+00	0	56	104	0	57	14422
2026-01-23 21:57:18.22	33.18	5.42	-42.7	-55.0	3.8	1.49e+00	0	56	104	0	57	14407
2026-01-23 21:57:21.26	33.49	5.58	-42.7	-55.0	3.8	1.49e+00	0	56	104	0	57	14447
2026-01-23 21:57:24.29	33.80	5.75	-42.7	-55.0	3.8	1.49e+00	0	56	104	0	57	14416
2026-01-23 21:57:27.32	34.11	5.91	-42.7	-55.0	3.8	1.49e+00	0	56	104	0	57	14421
2026-01-23 21:57:30.35	34.43	6.08	-42.7	-54.9	3.8	1.49e+00	0	56	104	0	57	14372
2026-01-23 21:57:33.39	34.76	6.24	-42.7	-55.0	3.8	1.49e+00	0	56	104	0	57	14381
2026-01-23 21:57:36.42	35.08	6.41	-42.7	-54.9	3.8	1.49e+00	0	57	104	0	57	14356
2026-01-23 21:57:39.45	35.41	6.57	-42.7	-55.0	3.8	1.49e+00	0	57	104	0	57	14390
2026-01-23 21:57:42.48	35.74	6.74	-42.7	-55.0	3.8	1.49e+00	0	57	104	0	57	14387
2026-01-23 21:57:45.51	36.08	6.91	-42.7	-54.8	3.8	1.49e+00	0	57	104	0	57	14144
2026-01-23 21:57:48.55	36.42	7.07	-42.7	-54.9	3.8	1.49e+00	0	57	104	0	57	14311
2026-01-23 21:57:51.58	36.76	7.24	-42.7	-54.9	3.8	1.49e+00	0	57	104	0	57	14325
2026-01-23 21:57:54.61	37.11	7.41	-42.7	-54.8	3.8	1.49e+00	0	57	104	0	57	14186
2026-01-23 21:57:57.64	37.46	7.58	-42.6	-54.4	3.8	1.49e+00	0	57	104	0	57	13515
2026-01-23 21:58:00.67	37.81	7.74	-41.8	-49.1	5.1	9.66e-01	0	57	0	0	55	8177
2026-01-23 21:58:03.70	38.17	7.91	-40.0	-43.9	9.5	2.07e-02	0	58	0	9437184	52	5377
2026-01-23 21:58:06.73	38.54	8.08	-40.5	-44.4	9.6	1.24e-02	0	57	0	18874368	51	6012
2026-01-23 21:58:09.77	38.91	8.25	-41.8	-47.0	7.3	9.30e-02	0	57	0	24117248	54	6813
2026-01-23 21:58:12.79	39.28	8.42	-40.4	-44.1	9.9	1.01e-02	0	58	0	33554432	52	5517
2026-01-23 21:58:15.82	39.65	8.59	-40.4	-44.0	10.1	5.64e-03	0	58	0	42991616	52	5460
2026-01-23 21:58:18.85	40.03	8.75	-40.2	-43.6	10.7	3.12e-03	0	58	0	52428800	52	5190
2026-01-23 21:58:21.88	40.41	8.92	-40.4	-43.7	10.8	2.88e-03	0	58	0	61865984	52	5278
2026-01-23 21:58:24.91	40.80	9.09	-40.4	-43.7	10.9	2.18e-03	0	58	0	71303168	52	5230
2026-01-23 21:58:27.94	41.19	9.26	-40.5	-43.9	10.7	2.86e-03	0	58	0	80740352	52	5341
2026-01-23 21:58:30.97	41.59	9.43	-40.5	-44.0	10.7	3.29e-03	0	58	0	90177536	52	5403
2026-01-23 21:58:34.00	41.99	9.60	-40.6	-44.1	10.6	3.58e-03	0	58	0	99614720	52	5468
2026-01-23 21:58:37.03	42.40	9.77	-40.6	-43.9	10.8	2.70e-03	0	58	0	109051904	52	5400
2026-01-23 21:58:40.06	42.81	9.94	-40.3	-43.5	11.3	1.12e-03	0	58	0	118489088	52	5115
2026-01-23 21:58:43.09	43.22	10.10	-40.2	-43.2	11.6	7.48e-04	0	58	0	127926272	52	4965
2026-01-23 21:58:46.12	43.64	10.27	-40.3	-43.4	11.5	8.28e-04	0	58	0	137363456	52	5074
2026-01-23 21:58:49.15	44.07	10.44	-40.2	-43.2	11.8	5.26e-04	0	59	0	146800640	52	4928
2026-01-23 21:58:52.18	44.50	10.61	-40.1	-43.0	12.0	3.47e-04	0	59	0	156237824	52	4835
2026-01-23 21:58:55.21	44.93	10.78	-40.1	-42.8	12.2	2.20e-04	0	59	0	165675008	51	5037
2026-01-23 21:58:58.24	45.37	10.94	-40.1	-42.8	12.3	1.65e-04	0	59	0	175112192	51	5032
2026-01-23 21:59:01.26	45.81	11.11	-40.1	-42.9	12.2	1.89e-04	0	59	0	184549376	51	5063
2026-01-23 21:59:04.29	46.26	11.28	-40.1	-42.8	12.3	1.77e-04	0	59	0	193986560	51	5024
2026-01-23 21:59:07.32	46.71	11.44	-40.1	-42.8	12.4	1.68e-04	0	59	0	203423744	51	5015
2026-01-23 21:59:10.35	47.17	11.61	-40.2	-43.0	12.3	1.81e-04	0	59	0	213909504	51	5110
2026-01-23 21:59:13.38	47.64	11.77	-40.1	-42.8	12.4	1.65e-04	0	59	0	222298112	51	5024
2026-01-23 21:59:16.41	48.10	11.94	-40.0	-42.7	12.6	9.61e-05	0	59	0	232783872	51	4943
2026-01-23 21:59:19.44	48.58	12.10	-40.0	-42.6	12.7	7.85e-05	0	59	0	242221056	51	4896
2026-01-23 21:59:22.47	49.06	12.27	-39.9	-42.5	12.8	5.18e-05	0	59	0	251658240	51	4822
2026-01-23 21:59:25.50	49.54	12.43	-39.9	-42.5	12.8	8.16e-05	0	59	0	261095424	51	4862
2026-01-23 21:59:28.53	50.03	12.59	-40.0	-42.6	12.7	8.08e-05	0	59	0	270532608	51	4924
2026-01-23 21:59:31.56	50.52	12.75	-40.0	-42.6	12.8	6.94e-05	0	59	0	279969792	51	4875
2026-01-23 21:59:34.59	51.02	12.91	-40.1	-42.7	12.6	9.76e-05	0	59	0	289406976	51	4957
2026-01-23 21:59:37.62	51.53	13.07	-40.0	-42.6	12.8	6.17e-05	0	59	0	298844160	51	4872
2026-01-23 21:59:40.65	52.04	13.23	-40.0	-42.7	12.7	7.24e-05	0	59	0	308281344	51	4928
2026-01-23 21:59:43.68	52.56	13.39	-40.0	-42.6	12.7	6.25e-05	0	59	0	317718528	51	4893
2026-01-23 21:59:46.71	53.08	13.55	-40.1	-42.7	12.6	1.01e-04	0	59	0	327155712	51	4965
2026-01-23 21:59:49.74	53.60	13.70	-40.2	-42.9	12.4	1.38e-04	0	59	0	336592896	51	5079
2026-01-23 21:59:52.77	54.14	13.85	-40.2	-42.9	12.4	1.49e-04	0	59	0	346030080	51	5085
2026-01-23 21:59:55.80	54.67	14.01	-40.1	-42.8	12.6	9.61e-05	0	59	0	355467264	51	4987
2026-01-23 21:59:58.82	55.21	14.16	-40.0	-42.6	12.8	6.56e-05	0	60	0	364904448	51	4923
2026-01-23 22:00:01.85	55.76	14.31	-40.0	-42.6	12.8	4.65e-05	0	59	0	374341632	51	4914
2026-01-23 22:00:04.88	56.32	14.46	-40.1	-42.8	12.6	1.07e-04	0	60	0	383778816	51	5012
2026-01-23 22:00:07.91	56.87	14.60	-40.0	-42.6	12.7	9.91e-05	0	60	0	393216000	51	4884
2026-01-23 22:00:10.95	57.44	14.75	-40.0	-42.6	12.8	7.17e-05	0	60	0	402653184	51	4924
2026-01-23 22:00:13.98	58.01	14.89	-39.9	-42.5	12.9	3.81e-05	0	60	0	412090368	51	4826
2026-01-23 22:00:17.00	58.58	15.03	-40.0	-42.6	12.8	5.95e-05	0	60	0	421527552	51	4905
2026-01-23 22:00:20.03	59.16	15.17	-39.9	-42.5	12.8	7.40e-05	0	60	0	430964736	51	4849
2026-01-23 22:00:23.06	59.75	15.31	-40.1	-42.7	12.6	8.16e-05	0	60	0	440401920	51	4950
2026-01-23 22:00:26.08	60.34	15.44	-39.9	-42.4	13.0	4.42e-05	0	60	0	449839104	51	4786
2026-01-23 22:00:29.11	60.94	15.58	-39.8	-42.4	13.0	3.43e-05	0	59	0	459276288	51	4771
2026-01-23 22:00:32.14	61.54	15.71	-39.8	-42.3	13.0	4.73e-05	0	60	0	468713472	51	4710
2026-01-23 22:00:35.18	62.15	15.84	-39.8	-42.3	13.0	4.27e-05	0	60	0	478150656	51	4745
2026-01-23 22:00:38.21	62.76	15.96	-39.6	-41.9	13.4	1.06e-05	0	60	0	487587840	51	4543
2026-01-23 22:00:41.23	63.37	16.09	-39.5	-41.9	13.4	1.44e-05	0	60	0	497025024	51	4543
2026-01-23 22:00:44.26	63.99	16.21	-39.7	-42.1	13.1	2.44e-05	0	60	0	506462208	51	4644
2026-01-23 22:00:47.29	64.62	16.33	-39.7	-42.3	13.0	3.12e-05	0	60	0	515899392	51	4709
2026-01-23 22:00:50.32	65.25	16.45	-39.8	-42.3	12.9	4.88e-05	0	60	0	525336576	51	4739
2026-01-23 22:00:53.35	65.89	16.56	-39.7	-42.2	12.9	5.56e-05	0	60	0	534773760	51	4675
2026-01-23 22:00:56.38	66.53	16.67	-39.5	-42.0	13.1	4.73e-05	0	60	0	545259520	51	4589
2026-01-23 22:00:59.41	67.18	16.78	-39.6	-42.1	12.8	6.02e-05	0	60	0	554696704	51	4650
2026-01-23 22:01:02.43	67.82	16.88	-39.7	-42.4	12.3	2.30e-04	0	60	0	564133888	51	4809
2026-01-23 22:01:05.46	68.48	16.98	-39.6	-42.5	12.0	2.91e-04	0	60	0	573571072	51	4818
2026-01-23 22:01:08.49	69.14	17.08	-39.7	-42.7	11.5	9.12e-04	0	60	0	583008256	51	4950
2026-01-23 22:01:11.53	69.80	17.18	-39.7	-42.9	11.0	1.76e-03	0	60	0	592445440	51	5070
2026-01-23 22:01:14.56	70.47	17.27	-39.9	-43.7	9.8	9.74e-03	0	60	0	601882624	51	5579
2026-01-23 22:01:17.59	71.14	17.36	-39.9	-44.2	9.0	2.37e-02	0	60	0	611319808	51	5877
2026-01-23 22:01:20.62	71.82	17.44	-40.1	-44.5	8.6	3.44e-02	0	60	0	620756992	51	6098
2026-01-23 22:01:23.65	72.49	17.53	-40.1	-44.7	8.5	4.45e-02	0	60	0	630194176	51	6219
2026-01-23 22:01:26.68	73.18	17.60	-40.2	-44.8	8.3	4.81e-02	0	60	0	639631360	51	6310
2026-01-23 22:01:29.70	73.86	17.68	-40.2	-45.0	8.1	6.23e-02	0	60	0	649068544	51	6426
2026-01-23 22:01:32.73	74.55	17.75	-40.3	-45.0	8.2	5.61e-02	0	60	0	658505728	51	6421
2026-01-23 22:01:35.76	75.24	17.81	-40.2	-44.5	8.8	3.10e-02	0	60	0	667942912	51	6102
2026-01-23 22:01:38.79	75.94	17.88	-40.0	-44.1	9.3	1.86e-02	0	60	0	677380096	51	5825
2026-01-23 22:01:41.82	76.63	17.94	-40.0	-44.1	9.3	1.65e-02	0	60	0	686817280	51	5801
2026-01-23 22:01:44.85	77.33	17.99	-39.9	-43.8	9.6	1.38e-02	0	60	0	696254464	51	5630
2026-01-23 22:01:47.87	78.04	18.04	-39.9	-43.7	9.8	1.06e-02	0	60	0	705691648	51	5557
2026-01-23 22:01:50.90	78.74	18.09	-40.0	-44.0	9.5	1.39e-02	0	60	0	715128832	51	5747
2026-01-23 22:01:53.93	79.45	18.13	-40.2	-44.6	8.8	3.43e-02	0	60	0	724566016	51	6164
2026-01-23 22:01:56.96	80.16	18.17	-40.1	-44.2	9.3	2.23e-02	0	60	0	734003200	51	5882
2026-01-23 22:01:59.99	80.87	18.20	-39.9	-43.3	10.7	3.06e-03	0	61	0	743440384	51	5310
2026-01-23 22:02:03.02	81.58	18.23	-39.8	-42.9	11.4	1.09e-03	0	60	0	752877568	51	5047
2026-01-23 22:02:06.04	82.29	18.26	-39.7	-42.8	11.4	9.12e-04	0	61	0	762314752	51	5014
2026-01-23 22:02:09.07	83.01	18.28	-39.8	-42.7	11.8	4.76e-04	0	61	0	771751936	51	4932
2026-01-23 22:02:12.11	83.73	18.30	-39.8	-42.9	11.6	7.10e-04	0	60	0	781189120	51	5043
2026-01-23 22:02:15.14	84.44	18.31	-39.6	-42.8	11.3	1.23e-03	0	60	0	790626304	51	5012
2026-01-23 22:02:18.17	85.16	18.32	-39.7	-43.1	10.9	2.18e-03	0	61	0	800063488	51	5168
2026-01-23 22:02:21.20	85.88	18.33	-40.1	-43.6	10.5	4.01e-03	0	61	0	809500672	51	5520
2026-01-23 22:02:24.23	86.59	18.33	-40.0	-43.6	10.5	3.94e-03	0	61	0	818937856	51	5482
2026-01-23 22:02:27.26	87.31	18.32	-40.2	-43.9	10.2	6.81e-03	0	60	0	828375040	51	5668
2026-01-23 22:02:30.29	88.03	18.31	-40.0	-43.1	11.5	1.19e-03	0	60	0	837812224	51	5160
2026-01-23 22:02:33.32	88.75	18.30	-39.7	-42.6	12.1	2.88e-04	0	61	0	847249408	51	4875
2026-01-23 22:02:36.35	89.46	18.28	-39.6	-42.3	12.3	1.97e-04	0	60	0	856686592	51	4722
2026-01-23 22:02:39.38	90.18	18.26	-39.6	-42.3	12.6	1.07e-04	0	61	0	866123776	51	4733
2026-01-23 22:02:42.41	90.89	18.23	-39.5	-41.9	13.1	3.73e-05	0	61	0	875560960	50	4810
2026-01-23 22:02:45.44	91.61	18.20	-39.6	-42.1	13.1	3.73e-05	0	61	0	886046720	50	4914
2026-01-23 22:02:48.47	92.32	18.17	-39.6	-42.0	13.4	1.06e-05	0	61	0	894435328	50	4823
2026-01-23 22:02:51.49	93.03	18.13	-39.4	-41.7	13.7	7.60e-06	0	61	0	904921088	50	4671
2026-01-23 22:02:54.52	93.73	18.09	-39.3	-41.5	14.0	1.50e-06	0	61	0	914358272	50	4567
2026-01-23 22:02:57.55	94.44	18.04	-39.4	-41.6	13.9	4.50e-06	0	61	0	923795456	50	4650
2026-01-23 22:03:00.58	95.14	17.99	-39.4	-41.7	13.9	3.80e-06	0	61	0	933232640	50	4666
2026-01-23 22:03:03.61	95.85	17.93	-39.4	-41.6	14.0	1.50e-06	0	61	0	942669824	50	4600
2026-01-23 22:03:06.64	96.55	17.87	-39.3	-41.4	14.2	1.50e-06	0	61	0	952107008	50	4526
2026-01-23 22:03:09.66	97.24	17.81	-39.4	-41.7	13.9	4.50e-06	0	61	0	961544192	50	4670
2026-01-23 22:03:12.70	97.94	17.74	-39.5	-41.7	13.9	2.20e-06	0	60	0	970981376	50	4683
2026-01-23 22:03:15.72	98.62	17.67	-39.5	-41.8	13.9	6.80e-06	0	61	0	980418560	50	4712
2026-01-23 22:03:18.75	99.31	17.60	-39.5	-41.8	13.9	3.00e-06	0	61	0	989855744	50	4723
2026-01-23 22:03:21.78	100.00	17.52	-39.5	-41.7	13.9	1.50e-06	0	61	0	999292928	50	4675
2026-01-23 22:03:24.81	100.68	17.44	-39.4	-41.5	14.1	1.50e-06	0	61	0	1008730112	50	4597
2026-01-23 22:03:27.84	101.35	17.35	-39.3	-41.5	14.1	2.20e-06	0	61	0	1018167296	50	4570
2026-01-23 22:03:30.87	102.03	17.26	-39.3	-41.5	14.1	3.00e-06	0	61	0	1027604480	49	4854
2026-01-23 22:03:33.90	102.69	17.17	-39.4	-41.6	14.0	3.80e-06	0	61	0	1037041664	49	4916
2026-01-23 22:03:36.93	103.36	17.07	-39.4	-41.6	14.0	4.50e-06	0	61	0	1046478848	49	4906
2026-01-23 22:03:39.96	104.02	16.97	-39.4	-41.6	14.0	3.00e-06	0	61	0	1055916032	49	4923
2026-01-23 22:03:42.99	104.68	16.87	-39.4	-41.6	14.0	2.20e-06	0	61	0	1065353216	49	4904
2026-01-23 22:03:46.02	105.33	16.76	-39.6	-41.9	13.8	4.50e-06	0	61	0	1074790400	49	5049
2026-01-23 22:03:49.04	105.98	16.66	-39.5	-41.8	13.8	5.30e-06	0	61	0	1084227584	49	4993
2026-01-23 22:03:52.07	106.62	16.54	-39.5	-41.8	13.8	5.30e-06	0	61	0	1093664768	49	5024
2026-01-23 22:03:55.10	107.26	16.43	-39.5	-41.7	13.9	3.80e-06	0	61	0	1103101952	49	4977
2026-01-23 22:03:58.13	107.89	16.31	-39.7	-42.1	13.5	1.22e-05	0	61	0	1112539136	49	5169
2026-01-23 22:04:01.16	108.52	16.19	-39.8	-42.2	13.4	9.10e-06	0	61	0	1121976320	50	4964
2026-01-23 22:04:04.19	109.15	16.07	-39.8	-42.2	13.4	1.06e-05	0	61	0	1131413504	50	4976
2026-01-23 22:04:07.22	109.76	15.94	-39.7	-42.0	13.6	9.10e-06	0	61	0	1140850688	50	4864
2026-01-23 22:04:10.25	110.38	15.82	-39.8	-42.3	13.3	1.52e-05	0	61	0	1150287872	50	5000
2026-01-23 22:04:13.28	110.99	15.69	-40.0	-42.6	13.0	3.35e-05	0	61	0	1159725056	50	5160
2026-01-23 22:04:16.31	111.59	15.55	-39.9	-42.4	13.2	2.67e-05	0	61	0	1169162240	50	5073
2026-01-23 22:04:19.34	112.19	15.42	-39.8	-42.2	13.3	1.90e-05	0	61	0	1178599424	50	4963
2026-01-23 22:04:22.37	112.78	15.28	-39.8	-42.2	13.3	2.51e-05	0	61	0	1188036608	50	4982
2026-01-23 22:04:25.40	113.37	15.14	-39.9	-42.4	13.1	3.58e-05	0	61	0	1197473792	50	5095
2026-01-23 22:04:28.43	113.95	15.00	-40.0	-42.5	13.0	3.73e-05	0	61	0	1206910976	50	5148
2026-01-23 22:04:31.45	114.53	14.86	-40.0	-42.5	13.0	5.03e-05	0	61	0	1216348160	50	5132
2026-01-23 22:04:34.48	115.10	14.71	-39.9	-42.3	13.1	1.75e-05	0	61	0	1226833920	50	5036
2026-01-23 22:04:37.51	115.67	14.57	-39.7	-42.1	13.4	1.90e-05	0	61	0	1235222528	50	4903
2026-01-23 22:04:40.55	116.23	14.42	-39.8	-42.4	13.0	1.95e-04	0	61	0	1245708288	50	5073
2026-01-23 22:04:43.58	116.79	14.27	-39.9	-42.5	12.6	1.28e-04	0	61	0	1255145472	50	5135
2026-01-23 22:04:46.60	117.34	14.12	-39.9	-42.5	12.8	1.61e-04	0	61	0	1264582656	50	5102
2026-01-23 22:04:49.63	117.88	13.97	-39.9	-42.4	12.9	7.80e-04	0	61	0	1274019840	50	5079
2026-01-23 22:04:52.66	118.42	13.81	-39.8	-42.3	12.9	4.63e-04	0	61	0	1283457024	50	5036
2026-01-23 22:04:55.70	118.96	13.66	-39.5	-42.4	12.4	4.57e-03	0	61	0	1292894208	50	5048
2026-01-23 22:04:58.72	119.48	13.50	-39.0	-42.5	12.3	8.41e-03	0	61	0	1302331392	50	5132
2026-01-23 22:05:01.76	120.01	13.34	-39.8	-42.6	12.4	1.29e-03	0	61	0	1311768576	50	5194
2026-01-23 22:05:04.79	120.53	13.18	-38.8	-42.4	12.1	1.08e-02	0	61	0	1321205760	49	5379
2026-01-23 22:05:07.81	121.04	13.02	-38.5	-42.5	11.4	1.51e-02	3	61	0	1330642944	48	5733
2026-01-23 22:05:10.84	121.54	12.86	-39.5	-42.2	10.8	3.29e-02	0	61	0	1340080128	46	6235
2026-01-23 22:05:13.87	122.05	12.70	-39.9	-42.8	12.0	4.73e-01	0	61	0	1349517312	50	5288
2026-01-23 22:05:16.90	122.54	12.54	-39.7	-42.6	12.0	4.96e-02	0	61	0	1358954496	49	5505
2026-01-23 22:05:19.93	123.03	12.37	-38.8	-42.4	11.5	5.80e-02	0	61	0	1368391680	48	5710
2026-01-23 22:05:22.96	123.52	12.21	-39.3	-42.6	11.6	1.45e-02	0	61	0	1377828864	49	5489
2026-01-23 22:05:25.99	124.00	12.04	-39.5	-42.4	11.9	2.96e-02	0	61	0	1386217472	49	5390
2026-01-23 22:05:29.02	124.48	11.88	-38.5	-42.3	10.4	9.75e-02	4	61	0	1395654656	46	6315
2026-01-23 22:05:32.05	124.95	11.71	-23.4	-37.0	6.4	2.31e-01	6	61	0	1402994688	31	8138
2026-01-23 22:05:35.08	125.41	11.54	-35.3	-42.6	4.8	1.40e+00	0	61	104	1402994688	38	10396
2026-01-23 22:05:38.11	125.87	11.37	-27.9	-38.4	4.5	1.42e+00	0	61	104	1402994688	23	15205
2026-01-23 22:05:41.14	126.33	11.21	-21.9	-36.6	-1.4	1.50e+00	0	61	104	1402994688	22	13025
2026-01-23 22:05:44.17	126.78	11.04	-27.7	-41.7	5.0	1.46e+00	0	61	104	1402994688	31	13979
2026-01-23 22:05:47.20	127.22	10.87	-24.8	-38.1	4.8	1.47e+00	0	61	104	1402994688	20	17349
2026-01-23 22:05:50.22	127.66	10.70	-20.8	-34.7	3.8	1.50e+00	0	61	104	1402994688	10	20926
2026-01-23 22:05:53.25	128.09	10.53	-20.5	-32.3	3.8	1.51e+00	0	61	104	1402994688	9	16717
2026-01-23 22:05:56.28	128.52	10.36	-19.5	-32.7	3.5	1.50e+00	0	61	104	1402994688	10	16592
2026-01-23 22:05:59.31	128.95	10.19	-24.8	-37.8	3.4	1.51e+00	0	61	104	1402994688	15	22381
2026-01-23 22:06:02.34	129.37	10.02	-21.3	-32.7	3.4	1.52e+00	0	61	104	1402994688	12	14822
2026-01-23 22:06:05.37	129.79	9.85	-20.7	-32.6	3.7	1.52e+00	0	61	104	1402994688	12	14558
2026-01-23 22:06:08.39	130.20	9.68	-22.1	-35.6	3.5	1.51e+00	0	61	104	1402994688	17	15507
2026-01-23 22:06:11.42	130.60	9.51	-22.0	-34.1	3.6	1.52e+00	0	61	104	1402994688	15	14590
2026-01-23 22:06:14.45	131.00	9.34	-22.5	-37.4	3.4	1.51e+00	0	61	104	1402994688	18	17929
2026-01-23 22:06:17.48	131.40	9.17	-22.4	-32.2	3.5	1.51e+00	0	61	104	1402994688	7	18570
2026-01-23 22:06:20.51	131.79	9.00	-16.0	-33.7	3.0	1.50e+00	0	61	104	1402994688	4	26289
2026-01-23 22:06:23.53	132.18	8.83	-22.1	-35.7	3.5	1.51e+00	0	61	104	1402994688	13	19671
2026-01-23 22:06:26.56	132.57	8.65	-16.5	-28.4	4.0	1.51e+00	0	61	104	1402994688	8	11397
2026-01-23 22:06:29.59	132.95	8.48	-26.8	-41.2	3.8	1.51e+00	0	61	104	1402994688	22	22009
2026-01-23 22:06:32.62	133.32	8.31	-28.7	-45.6	4.1	1.51e+00	0	61	104	1402994688	27	27395
2026-01-23 22:06:35.64	133.69	8.14	-27.1	-43.4	3.7	1.51e+00	0	61	104	1402994688	18	35765
2026-01-23 22:06:38.67	134.06	7.97	-19.3	-38.8	5.2	1.51e+00	0	61	104	1402994688	14	26735
2026-01-23 22:06:41.70	134.42	7.80	-45.0	-57.6	3.8	1.49e+00	0	61	104	1402994688	60	16425
2026-01-23 22:06:44.74	134.78	7.63	-45.4	-58.0	3.8	1.49e+00	0	61	104	1402994688	61	16240
2026-01-23 22:06:47.77	135.14	7.46	-45.6	-58.1	3.8	1.49e+00	0	61	104	1402994688	61	16498
2026-01-23 22:06:50.80	135.49	7.29	-45.4	-57.8	3.8	1.49e+00	0	61	104	1402994688	61	15898
2026-01-23 22:06:53.83	135.84	7.12	-45.3	-57.6	3.8	1.49e+00	0	61	104	1402994688	61	15573
2026-01-23 22:06:56.86	136.18	6.95	-45.2	-57.6	3.8	1.49e+00	0	61	104	1402994688	61	15429
2026-01-23 22:06:59.89	136.52	6.79	-45.2	-57.5	3.8	1.49e+00	0	61	104	1402994688	61	15365
2026-01-23 22:07:02.92	136.85	6.62	-45.1	-57.5	3.8	1.49e+00	0	61	104	1402994688	61	15333
2026-01-23 22:07:05.96	137.19	6.45	-45.1	-57.5	3.8	1.49e+00	0	62	104	1402994688	61	15359
2026-01-23 22:07:08.99	137.52	6.28	-45.1	-57.5	3.8	1.49e+00	0	62	104	1402994688	61	15316
2026-01-23 22:07:12.02	137.84	6.11	-45.1	-57.4	3.8	1.49e+00	0	62	104	1402994688	61	15219
2026-01-23 22:07:15.05	138.16	5.94	-45.1	-57.5	3.8	1.49e+00	0	61	104	1402994688	61	15298
2026-01-23 22:07:18.09	138.48	5.78	-45.1	-57.5	3.8	1.49e+00	0	61	104	1402994688	61	15281
2026-01-23 22:07:21.12	138.79	5.61	-45.1	-57.5	3.8	1.49e+00	0	62	104	1402994688	61	15277
2026-01-23 22:07:24.15	139.11	5.44	-45.1	-57.5	3.8	1.49e+00	0	61	104	1402994688	61	15316
2026-01-23 22:07:27.18	139.41	5.28	-45.1	-57.4	3.8	1.49e+00	0	61	104	1402994688	61	15211
2026-01-23 22:07:30.21	139.72	5.11	-45.1	-57.5	3.8	1.49e+00	0	62	104	1402994688	61	15261
2026-01-23 22:07:33.24	140.02	4.95	-45.1	-57.5	3.8	1.49e+00	0	61	104	1402994688	61	15235
2026-01-23 22:07:36.28	140.32	4.78	-45.1	-57.5	3.8	1.49e+00	0	61	104	1402994688	61	15226
2026-01-23 22:07:39.31	140.61	4.62	-45.1	-57.5	3.8	1.49e+00	0	62	104	1402994688	61	15281
2026-01-23 22:07:42.34	140.90	4.45	-45.1	-57.4	3.8	1.49e+00	0	61	104	1402994688	61	15190
2026-01-23 22:07:45.37	141.19	4.29	-45.1	-57.4	3.8	1.49e+00	0	62	104	1402994688	61	15177
2026-01-23 22:07:48.41	141.47	4.13	-45.1	-57.4	3.8	1.49e+00	0	61	104	1402994688	61	15205
2026-01-23 22:07:51.44	141.76	3.96	-45.1	-57.4	3.8	1.49e+00	0	62	104	1402994688	61	15216
2026-01-23 22:07:54.47	142.03	3.80	-45.1	-57.4	3.8	1.49e+00	0	61	104	1402994688	61	15196
2026-01-23 22:07:57.50	142.31	3.64	-45.1	-57.4	3.8	1.49e+00	0	62	104	1402994688	61	15187
2026-01-23 22:08:00.53	142.58	3.48	-45.1	-57.4	3.8	1.49e+00	0	61	104	1402994688	61	15190
2026-01-23 22:08:03.56	142.85	3.32	-45.1	-57.5	3.8	1.49e+00	0	61	104	1402994688	61	15235
2026-01-23 22:08:06.60	143.12	3.15	-45.1	-57.5	3.8	1.49e+00	0	62	104	1402994688	61	15239
2026-01-23 22:08:09.63	143.39	2.99	-45.1	-57.4	3.8	1.49e+00	0	61	104	1402994688	61	15198
2026-01-23 22:08:12.66	143.65	2.83	-45.0	-57.4	3.8	1.49e+00	0	61	104	1402994688	61	15207
2026-01-23 22:08:15.69	143.91	2.67	-45.1	-57.4	3.8	1.49e+00	0	61	104	1402994688	61	15155
2026-01-23 22:08:18.72	144.16	2.52	-45.1	-57.4	3.8	1.49e+00	0	62	104	1402994688	61	15195
2026-01-23 22:08:21.75	144.42	2.36	-45.0	-57.4	3.8	1.49e+00	0	61	104	1402994688	61	15223
2026-01-23 22:08:24.79	144.67	2.20	-45.0	-57.4	3.8	1.49e+00	0	61	104	1402994688	61	15167
2026-01-23 22:08:27.82	144.92	2.04	-45.0	-57.4	3.8	1.49e+00	0	62	104	1402994688	61	15198

#Closed at: 2026-01-23 22:08:29
#Recorded file [1402 MB]: D:/lorett/data/31039_260124_005614.dat