passes_logs/2026/01/23/R2.0S_Moscow/R2.0S_Moscow__20260123_120900_AQUA_rec.log

#Pass ID: 20260123_120900_AQUA
#Satellite: AQUA
#Configuration: AQUA
#almurnet v.1.7.20251203
#Start time: 2026-01-23 12:09:36

#Version: 2.2.20231116
#Station: R2.0S_Moscow
#Location: 37.707566 lon 55.798166 lat
#TLE: 1 27424U 02022A   26022.49486490  .00002153  00000+0  44069-3 0  9997
#TLE: 2 27424  98.4099 349.0485 0001970  69.5876  43.4746 14.61847233261984

#Time	Az	El	Level	Level2	SNR	BER	BlckErr	Temp	State	Recorded	gain1	gain2
2026-01-23 12:09:36.54	176.93	4.45	-44.8	-59.6	3.8	1.49e+00	0	61	0	0	60	20761
2026-01-23 12:09:39.56	177.03	4.67	-46.3	-64.8	3.8	7.45e-01	0	62	104	0	63	31651
2026-01-23 12:09:42.59	177.14	4.89	-46.1	-64.6	3.8	7.44e-01	0	62	104	0	63	30790
2026-01-23 12:09:45.62	177.24	5.12	-45.6	-64.1	3.8	7.45e-01	0	61	104	0	63	29111
2026-01-23 12:09:48.65	177.34	5.34	-44.8	-62.0	3.8	7.43e-01	0	61	104	0	61	25596
2026-01-23 12:09:51.69	177.45	5.57	-44.8	-61.1	3.9	7.46e-01	0	62	104	0	61	23194
2026-01-23 12:09:54.72	177.56	5.80	-44.7	-58.2	4.8	7.15e-01	0	62	104	0	61	16508
2026-01-23 12:09:57.75	177.67	6.03	-44.5	-55.9	6.2	6.79e-01	0	62	0	1048576	61	12752
2026-01-23 12:10:00.78	177.78	6.27	-44.3	-53.8	8.2	6.42e-01	39	61	0	6815744	60	10542
2026-01-23 12:10:03.82	177.90	6.51	-44.2	-52.3	10.1	6.22e-01	0	62	0	12582912	59	9480
2026-01-23 12:10:06.84	178.01	6.74	-44.1	-51.6	10.9	6.18e-01	0	61	0	17825792	59	8721
2026-01-23 12:10:09.88	178.13	6.99	-44.1	-51.6	11.0	6.20e-01	0	61	0	23592960	59	8688
2026-01-23 12:10:12.91	178.25	7.23	-44.2	-52.3	10.2	6.22e-01	0	61	0	29360128	59	9390
2026-01-23 12:10:15.94	178.37	7.48	-44.2	-52.4	10.1	6.20e-01	0	62	0	35127296	59	9563
2026-01-23 12:10:18.97	178.50	7.73	-43.9	-51.1	11.4	6.17e-01	0	61	0	40894464	59	8220
2026-01-23 12:10:22.00	178.62	7.98	-43.2	-48.6	14.0	6.08e-01	0	62	0	46661632	58	6534
2026-01-23 12:10:25.04	178.75	8.24	-42.5	-46.9	15.8	6.07e-01	0	62	0	51904512	57	5683
2026-01-23 12:10:28.07	178.88	8.49	-42.1	-46.1	16.6	6.07e-01	0	62	0	57671680	56	5512
2026-01-23 12:10:31.10	179.01	8.75	-42.1	-46.0	16.8	6.07e-01	0	61	0	63438848	56	5432
2026-01-23 12:10:34.13	179.15	9.02	-44.6	-57.0	5.1	6.96e-01	0	62	0	69206016	60	15265
2026-01-23 12:10:37.16	179.29	9.29	-42.1	-45.9	17.0	6.07e-01	0	61	0	74448896	56	5372
2026-01-23 12:10:40.19	179.43	9.56	-42.1	-45.8	17.2	6.07e-01	0	62	0	80216064	56	5320
2026-01-23 12:10:43.22	179.57	9.83	-42.1	-45.8	17.3	6.06e-01	0	61	0	85983232	56	5296
2026-01-23 12:10:46.25	179.72	10.10	-42.1	-45.7	17.3	6.06e-01	0	61	0	91750400	56	5276
2026-01-23 12:10:49.27	179.87	10.38	-42.1	-45.7	17.4	6.05e-01	0	62	0	97517568	56	5256
2026-01-23 12:10:52.30	180.02	10.67	-42.1	-45.8	17.4	6.07e-01	0	61	0	102760448	56	5290
2026-01-23 12:10:55.33	180.17	10.95	-41.9	-45.3	17.8	6.06e-01	0	61	0	108527616	55	5312
2026-01-23 12:10:58.36	180.33	11.24	-41.8	-45.2	18.0	6.06e-01	0	62	0	114294784	55	5231
2026-01-23 12:11:01.39	180.49	11.54	-41.8	-45.1	18.0	6.07e-01	0	62	0	120061952	55	5208
2026-01-23 12:11:04.41	180.65	11.83	-41.9	-45.3	17.9	6.06e-01	0	61	0	125829120	55	5301
2026-01-23 12:11:07.44	180.82	12.13	-41.9	-45.4	17.8	6.05e-01	0	62	0	131072000	55	5373
2026-01-23 12:11:10.47	180.99	12.44	-41.9	-45.3	17.9	6.06e-01	0	62	0	136839168	55	5310
2026-01-23 12:11:13.50	181.17	12.75	-41.8	-45.2	18.1	6.07e-01	0	61	0	142606336	55	5227
2026-01-23 12:11:16.53	181.35	13.06	-41.8	-45.1	18.2	6.07e-01	0	62	0	148373504	55	5217
2026-01-23 12:11:19.56	181.53	13.38	-41.7	-44.8	18.5	6.07e-01	0	62	0	154140672	55	5036
2026-01-23 12:11:22.59	181.72	13.70	-41.7	-44.9	18.4	6.06e-01	0	62	0	159907840	55	5044
2026-01-23 12:11:25.62	181.91	14.03	-41.7	-44.9	18.5	6.07e-01	0	62	0	165675008	55	5061
2026-01-23 12:11:28.65	182.10	14.36	-41.7	-44.9	18.5	6.04e-01	0	62	0	170917888	55	5069
2026-01-23 12:11:31.67	182.30	14.70	-41.8	-45.0	18.4	6.07e-01	0	62	0	176685056	55	5123
2026-01-23 12:11:34.71	182.51	15.04	-41.7	-44.9	18.5	6.04e-01	0	61	0	182452224	55	5069
2026-01-23 12:11:37.74	182.72	15.39	-41.6	-44.7	18.7	6.07e-01	0	62	0	188219392	55	4947
2026-01-23 12:11:40.76	182.93	15.74	-41.6	-44.7	18.6	6.07e-01	0	61	0	193986560	55	4981
2026-01-23 12:11:43.80	183.15	16.10	-41.7	-44.8	18.6	6.09e-01	0	62	0	199753728	55	5034
2026-01-23 12:11:46.82	183.38	16.46	-41.7	-44.9	18.6	6.08e-01	0	62	0	204996608	55	5057
2026-01-23 12:11:49.85	183.61	16.83	-41.7	-44.8	18.5	6.06e-01	0	62	0	210763776	55	5024
2026-01-23 12:11:52.89	183.85	17.20	-41.6	-44.6	18.8	6.03e-01	0	62	0	216530944	55	4912
2026-01-23 12:11:55.92	184.09	17.59	-41.6	-44.6	18.9	6.07e-01	0	62	0	222298112	55	4894
2026-01-23 12:11:58.95	184.34	17.97	-41.7	-44.7	18.8	6.05e-01	0	62	0	228065280	55	4954
2026-01-23 12:12:01.98	184.59	18.36	-41.6	-44.7	18.9	6.05e-01	0	62	0	233832448	55	4931
2026-01-23 12:12:05.01	184.85	18.76	-41.7	-44.7	18.8	6.06e-01	0	62	0	239075328	55	4962
2026-01-23 12:12:08.04	185.12	19.17	-41.7	-44.7	18.8	6.07e-01	0	62	0	244842496	55	4975
2026-01-23 12:12:11.07	185.40	19.58	-41.6	-44.6	18.9	6.06e-01	0	61	0	250609664	55	4911
2026-01-23 12:12:14.10	185.69	20.00	-41.5	-44.5	19.1	6.08e-01	0	62	0	256376832	55	4834
2026-01-23 12:12:17.13	185.98	20.43	-41.6	-44.6	19.0	6.08e-01	0	62	0	262144000	55	4915
2026-01-23 12:12:20.16	186.28	20.86	-41.7	-44.7	18.9	6.07e-01	0	62	0	267911168	55	4935
2026-01-23 12:12:23.19	186.59	21.31	-41.8	-44.9	18.7	6.06e-01	0	62	0	273154048	55	5064
2026-01-23 12:12:26.21	186.91	21.75	-41.8	-44.9	18.7	6.07e-01	0	62	0	278921216	55	5078
2026-01-23 12:12:29.24	187.24	22.21	-41.8	-44.8	18.8	6.06e-01	0	62	0	284688384	55	5028
2026-01-23 12:12:32.27	187.58	22.68	-41.9	-44.9	18.7	6.03e-01	0	62	0	290455552	55	5096
2026-01-23 12:12:35.29	187.93	23.15	-41.9	-45.0	18.6	6.05e-01	0	62	0	296222720	55	5159
2026-01-23 12:12:38.32	188.29	23.63	-41.9	-45.0	18.6	6.04e-01	0	62	0	301989888	55	5148
2026-01-23 12:12:41.35	188.66	24.13	-41.9	-45.0	18.7	6.06e-01	0	62	0	307232768	55	5114
2026-01-23 12:12:44.38	189.04	24.63	-42.0	-45.1	18.5	6.08e-01	0	62	0	312999936	55	5207
2026-01-23 12:12:47.41	189.44	25.14	-42.0	-45.2	18.5	6.07e-01	0	62	0	318767104	55	5233
2026-01-23 12:12:50.44	189.85	25.66	-42.1	-45.2	18.5	6.08e-01	0	62	0	324534272	55	5260
2026-01-23 12:12:53.47	190.27	26.18	-41.9	-44.9	18.8	6.08e-01	0	62	0	330301440	55	5077
2026-01-23 12:12:56.50	190.71	26.72	-41.9	-44.9	18.8	6.06e-01	0	62	0	336068608	55	5100
2026-01-23 12:12:59.53	191.17	27.27	-41.8	-44.8	18.9	6.06e-01	0	62	0	341311488	55	5019
2026-01-23 12:13:02.56	191.64	27.83	-41.9	-44.9	18.8	6.05e-01	0	62	0	347078656	55	5067
2026-01-23 12:13:05.59	192.12	28.40	-41.6	-44.5	19.3	6.06e-01	0	62	0	352845824	55	4835
2026-01-23 12:13:08.61	192.63	28.98	-41.6	-44.4	19.3	6.07e-01	0	62	0	358612992	55	4793
2026-01-23 12:13:11.64	193.15	29.57	-41.7	-44.6	19.2	6.07e-01	0	62	0	364380160	55	4896
2026-01-23 12:13:14.67	193.70	30.17	-41.6	-44.5	19.3	6.09e-01	0	62	0	370147328	55	4829
2026-01-23 12:13:17.70	194.26	30.79	-41.7	-44.7	19.1	6.05e-01	0	62	0	375390208	55	4935
2026-01-23 12:13:20.72	194.85	31.41	-41.8	-44.7	19.1	6.06e-01	0	62	0	381157376	55	4968
2026-01-23 12:13:23.75	195.46	32.04	-41.9	-44.9	18.9	6.07e-01	0	62	0	386924544	55	5066
2026-01-23 12:13:26.78	196.09	32.69	-42.0	-45.1	18.7	6.04e-01	0	62	0	392691712	55	5176
2026-01-23 12:13:29.81	196.76	33.35	-42.2	-45.4	18.4	6.06e-01	0	62	0	398458880	55	5389
2026-01-23 12:13:32.84	197.45	34.01	-42.2	-45.4	18.5	6.05e-01	0	62	0	404226048	55	5357
2026-01-23 12:13:35.87	198.16	34.69	-42.5	-46.0	17.8	6.06e-01	0	62	0	409468928	55	5730
2026-01-23 12:13:38.90	198.92	35.38	-42.9	-46.5	17.4	6.07e-01	0	62	0	415236096	56	5769
2026-01-23 12:13:41.93	199.70	36.09	-42.9	-46.5	17.4	6.05e-01	0	62	0	421003264	56	5779
2026-01-23 12:13:44.96	200.52	36.80	-43.2	-47.0	16.9	6.07e-01	0	62	0	426770432	56	6118
2026-01-23 12:13:47.99	201.37	37.52	-43.2	-47.0	16.9	6.03e-01	0	62	0	432537600	56	6130
2026-01-23 12:13:51.02	202.27	38.25	-43.2	-47.0	17.0	6.08e-01	0	62	0	438304768	57	5749
2026-01-23 12:13:54.05	203.20	38.99	-43.0	-46.7	17.3	6.09e-01	0	62	0	443547648	57	5555
2026-01-23 12:13:57.07	204.18	39.74	-42.9	-46.5	17.5	6.05e-01	0	62	0	449314816	57	5441
2026-01-23 12:14:00.10	205.20	40.49	-42.6	-45.9	18.0	6.06e-01	0	62	0	455081984	57	5099
2026-01-23 12:14:03.13	206.28	41.25	-42.7	-46.1	17.9	6.05e-01	0	62	0	460849152	57	5186
2026-01-23 12:14:06.16	207.41	42.02	-42.3	-45.4	18.6	6.02e-01	0	62	0	466616320	56	5077
2026-01-23 12:14:09.19	208.59	42.80	-42.3	-45.4	18.6	6.05e-01	0	62	0	471859200	56	5047
2026-01-23 12:14:12.22	209.83	43.57	-42.1	-45.1	19.0	6.06e-01	0	62	0	477626368	56	4872
2026-01-23 12:14:15.25	211.14	44.35	-41.6	-44.4	19.6	6.06e-01	0	62	0	483393536	55	4768
2026-01-23 12:14:18.28	212.51	45.12	-41.5	-44.3	19.6	6.07e-01	0	62	0	489160704	54	5020
2026-01-23 12:14:21.31	213.94	45.90	-41.5	-44.3	19.6	6.04e-01	0	62	0	494927872	54	4986
2026-01-23 12:14:24.34	215.46	46.66	-41.5	-44.2	19.7	6.09e-01	0	62	0	500695040	54	4948
2026-01-23 12:14:27.37	217.04	47.43	-41.7	-44.6	19.3	6.04e-01	0	62	0	506462208	54	5168
2026-01-23 12:14:30.40	218.71	48.18	-41.8	-44.7	19.2	6.04e-01	0	62	0	511705088	54	5257
2026-01-23 12:14:33.41	220.44	48.91	-41.8	-44.7	19.2	6.07e-01	0	62	0	517472256	54	5253
2026-01-23 12:14:36.45	222.28	49.63	-41.6	-44.4	19.5	6.06e-01	0	62	0	523239424	54	5067
2026-01-23 12:14:39.48	224.20	50.33	-41.8	-44.7	19.2	6.06e-01	0	62	0	529006592	54	5270
2026-01-23 12:14:42.51	226.21	51.01	-42.2	-45.4	18.5	6.06e-01	0	62	0	534773760	55	5377
2026-01-23 12:14:45.54	228.31	51.66	-42.2	-45.3	18.6	6.05e-01	0	62	0	540540928	55	5325
2026-01-23 12:14:48.56	230.49	52.27	-41.9	-44.9	19.0	6.08e-01	0	62	0	545783808	55	5058
2026-01-23 12:14:51.59	232.78	52.85	-41.9	-45.0	18.8	6.08e-01	0	62	0	551550976	54	5438
2026-01-23 12:14:54.62	235.15	53.39	-41.7	-44.6	19.2	6.05e-01	0	62	0	557318144	54	5194
2026-01-23 12:14:57.64	237.59	53.88	-41.7	-44.9	19.0	6.08e-01	0	62	0	563085312	54	5377
2026-01-23 12:15:00.67	240.13	54.33	-42.3	-45.5	18.4	6.05e-01	0	62	0	568852480	55	5427
2026-01-23 12:15:03.70	242.74	54.72	-42.4	-45.8	18.2	6.07e-01	0	62	0	574619648	55	5621
2026-01-23 12:15:06.73	245.42	55.06	-42.5	-45.8	18.0	6.06e-01	0	62	0	579862528	55	5628
2026-01-23 12:15:09.76	248.16	55.33	-42.7	-46.1	17.8	6.06e-01	0	62	0	585629696	55	5831
2026-01-23 12:15:12.79	250.95	55.54	-42.6	-46.1	17.9	6.04e-01	0	62	0	591396864	55	5798
2026-01-23 12:15:15.81	253.76	55.69	-42.7	-46.2	17.7	6.04e-01	0	62	0	597164032	55	5909
2026-01-23 12:15:18.84	256.60	55.76	-43.0	-46.6	17.5	6.07e-01	0	62	0	602931200	56	5808
2026-01-23 12:15:21.87	259.45	55.77	-42.8	-46.3	17.7	6.05e-01	0	62	0	608174080	56	5652
2026-01-23 12:15:24.89	262.29	55.72	-42.6	-45.9	18.1	6.07e-01	0	62	0	613941248	56	5401
2026-01-23 12:15:27.92	265.11	55.59	-42.7	-46.1	17.9	6.06e-01	0	62	0	619708416	56	5499
2026-01-23 12:15:30.95	267.91	55.40	-42.7	-46.1	17.9	6.06e-01	0	62	0	625475584	56	5506
2026-01-23 12:15:33.98	270.66	55.15	-42.8	-46.3	17.7	6.08e-01	0	62	0	631242752	56	5651
2026-01-23 12:15:37.01	273.36	54.83	-42.6	-45.9	18.2	6.06e-01	0	62	0	637009920	56	5382
2026-01-23 12:15:40.04	275.99	54.46	-42.6	-46.0	18.1	6.05e-01	0	62	0	642777088	56	5413
2026-01-23 12:15:43.07	278.55	54.03	-42.7	-46.0	18.0	6.05e-01	0	62	0	648019968	56	5463
2026-01-23 12:15:46.10	281.02	53.55	-42.5	-45.9	18.2	6.06e-01	0	62	0	653787136	56	5348
2026-01-23 12:15:49.13	283.42	53.03	-42.5	-45.8	18.2	6.08e-01	0	62	0	659554304	56	5323
2026-01-23 12:15:52.16	285.72	52.46	-42.5	-45.9	18.3	6.09e-01	0	62	0	665321472	56	5343
2026-01-23 12:15:55.19	287.94	51.86	-42.6	-45.9	18.2	6.07e-01	0	62	0	671088640	56	5368
2026-01-23 12:15:58.22	290.06	51.22	-42.6	-46.0	18.1	6.06e-01	0	62	0	676331520	56	5409
2026-01-23 12:16:01.25	292.09	50.55	-42.7	-46.2	17.9	6.05e-01	0	62	0	682098688	56	5544
2026-01-23 12:16:04.28	294.04	49.86	-42.9	-46.4	17.6	6.07e-01	0	62	0	687865856	56	5703
2026-01-23 12:16:07.31	295.89	49.15	-42.9	-46.5	17.5	6.04e-01	0	62	0	693633024	56	5776
2026-01-23 12:16:10.34	297.66	48.42	-43.0	-46.6	17.4	6.06e-01	0	62	0	699400192	56	5855
2026-01-23 12:16:13.36	299.34	47.68	-42.6	-46.0	18.1	6.05e-01	0	62	0	705167360	56	5404
2026-01-23 12:16:16.39	300.95	46.93	-42.6	-46.0	18.1	6.08e-01	0	62	0	710934528	56	5409
2026-01-23 12:16:19.42	302.48	46.16	-42.5	-45.8	18.3	6.06e-01	0	62	0	716177408	56	5301
2026-01-23 12:16:22.45	303.93	45.40	-42.6	-45.9	18.2	6.07e-01	0	62	0	721944576	56	5369
2026-01-23 12:16:25.47	305.32	44.63	-42.5	-45.7	18.4	6.05e-01	0	62	0	727711744	56	5254
2026-01-23 12:16:28.50	306.64	43.85	-42.6	-45.9	18.2	6.06e-01	0	62	0	733478912	56	5367
2026-01-23 12:16:31.53	307.90	43.08	-42.6	-46.0	18.0	6.05e-01	0	62	0	739246080	56	5451
2026-01-23 12:16:34.56	309.10	42.31	-42.6	-45.9	18.2	6.07e-01	0	62	0	744488960	56	5384
2026-01-23 12:16:37.59	310.24	41.55	-42.8	-46.4	17.8	6.07e-01	0	62	0	750256128	56	5658
2026-01-23 12:16:40.61	311.33	40.79	-42.8	-46.3	17.8	6.06e-01	0	62	0	756023296	56	5597
2026-01-23 12:16:43.64	312.37	40.03	-42.6	-46.0	18.1	6.06e-01	0	62	0	761790464	56	5440
2026-01-23 12:16:46.67	313.36	39.29	-42.8	-46.3	17.8	6.06e-01	0	62	0	767557632	56	5600
2026-01-23 12:16:49.70	314.30	38.55	-42.8	-46.3	17.8	6.07e-01	0	62	0	773324800	56	5616
2026-01-23 12:16:52.73	315.21	37.82	-42.6	-45.9	18.2	6.07e-01	0	62	0	778567680	56	5371
2026-01-23 12:16:55.76	316.08	37.10	-42.3	-45.5	18.5	6.06e-01	0	62	0	784334848	56	5138
2026-01-23 12:16:58.79	316.90	36.39	-42.3	-45.5	18.5	6.08e-01	0	62	0	790102016	56	5126
2026-01-23 12:17:01.81	317.69	35.69	-42.2	-45.4	18.6	6.06e-01	0	62	0	795869184	56	5060
2026-01-23 12:17:04.84	318.45	35.00	-42.0	-45.0	19.0	6.04e-01	0	62	0	801636352	56	4866
2026-01-23 12:17:07.87	319.18	34.32	-41.7	-44.5	19.4	6.06e-01	0	62	0	807403520	55	4860
2026-01-23 12:17:10.90	319.88	33.65	-41.5	-44.3	19.5	6.04e-01	0	62	0	812646400	55	4729
2026-01-23 12:17:13.93	320.55	32.99	-41.6	-44.4	19.5	6.07e-01	0	62	0	818413568	55	4793
2026-01-23 12:17:16.96	321.19	32.35	-41.6	-44.4	19.4	6.05e-01	0	62	0	824180736	54	5062
2026-01-23 12:17:19.98	321.81	31.71	-41.5	-44.3	19.5	6.07e-01	0	62	0	829947904	54	5019
2026-01-23 12:17:23.01	322.41	31.09	-41.5	-44.3	19.5	6.06e-01	0	62	0	835715072	54	4990
2026-01-23 12:17:26.04	322.98	30.48	-41.5	-44.3	19.5	6.08e-01	0	62	0	841482240	54	4996
2026-01-23 12:17:29.07	323.53	29.87	-41.6	-44.4	19.2	6.08e-01	0	62	0	846725120	54	5092
2026-01-23 12:17:32.10	324.06	29.28	-41.7	-44.6	19.1	6.05e-01	0	62	0	852492288	54	5173
2026-01-23 12:17:35.13	324.57	28.70	-41.7	-44.7	18.9	6.08e-01	0	62	0	858259456	54	5255
2026-01-23 12:17:38.16	325.06	28.13	-41.7	-44.7	19.0	6.07e-01	0	62	0	864026624	54	5261
2026-01-23 12:17:41.18	325.54	27.57	-41.8	-44.8	18.8	6.07e-01	0	62	0	869793792	54	5330
2026-01-23 12:17:44.21	326.00	27.02	-41.9	-45.0	18.7	6.05e-01	0	62	0	875560960	54	5458
2026-01-23 12:17:47.24	326.44	26.49	-42.0	-45.2	18.4	6.06e-01	0	62	0	880803840	54	5563
2026-01-23 12:17:50.27	326.87	25.96	-42.1	-45.3	18.4	6.05e-01	0	62	0	886571008	54	5607
2026-01-23 12:17:53.29	327.29	25.44	-42.1	-45.3	18.2	6.05e-01	0	62	0	892338176	54	5622
2026-01-23 12:17:56.32	327.69	24.93	-42.1	-45.3	18.3	6.06e-01	0	62	0	898105344	54	5623
2026-01-23 12:17:59.35	328.08	24.43	-42.1	-45.4	18.2	6.04e-01	0	62	0	903872512	54	5669
2026-01-23 12:18:02.38	328.45	23.93	-42.1	-45.3	18.3	6.05e-01	0	62	0	909115392	54	5618
2026-01-23 12:18:05.41	328.82	23.45	-42.0	-45.2	18.4	6.08e-01	0	62	0	914882560	54	5555
2026-01-23 12:18:08.43	329.17	22.98	-42.0	-45.3	18.4	6.07e-01	0	62	0	920649728	54	5595
2026-01-23 12:18:11.47	329.52	22.51	-42.0	-45.3	18.3	6.08e-01	0	62	0	926416896	54	5605
2026-01-23 12:18:14.49	329.85	22.05	-42.1	-45.4	18.2	6.05e-01	0	62	0	932184064	54	5658
2026-01-23 12:18:17.52	330.17	21.60	-42.0	-45.2	18.4	6.06e-01	0	62	0	937951232	54	5571
2026-01-23 12:18:20.55	330.49	21.16	-41.8	-45.0	18.6	6.03e-01	0	62	0	943718400	54	5440
2026-01-23 12:18:23.58	330.79	20.72	-41.9	-45.1	18.4	6.08e-01	0	62	0	948961280	54	5512
2026-01-23 12:18:26.61	331.09	20.30	-41.8	-45.0	18.6	6.07e-01	0	62	0	954728448	54	5412
2026-01-23 12:18:29.64	331.38	19.88	-41.7	-44.7	18.8	6.07e-01	0	62	0	960495616	54	5278
2026-01-23 12:18:32.66	331.66	19.47	-41.6	-44.7	18.8	6.04e-01	0	62	0	966262784	54	5247
2026-01-23 12:18:35.69	331.93	19.06	-41.6	-44.8	18.7	6.04e-01	0	62	0	972029952	54	5283
2026-01-23 12:18:38.72	332.20	18.66	-41.7	-44.9	18.6	6.04e-01	0	62	0	977272832	54	5341
2026-01-23 12:18:41.75	332.46	18.27	-41.7	-44.9	18.5	6.06e-01	0	62	0	983040000	54	5384
2026-01-23 12:18:44.78	332.71	17.88	-41.8	-45.1	18.3	6.04e-01	0	62	0	988807168	54	5478
2026-01-23 12:18:47.81	332.96	17.50	-41.8	-45.2	18.2	6.06e-01	0	62	0	994574336	54	5543
2026-01-23 12:18:50.84	333.20	17.12	-41.8	-45.1	18.2	6.06e-01	0	62	0	1000341504	54	5487
2026-01-23 12:18:53.86	333.43	16.76	-41.7	-45.0	18.2	6.08e-01	0	62	0	1006108672	54	5461
2026-01-23 12:18:56.89	333.66	16.39	-41.6	-44.9	18.4	6.07e-01	0	62	0	1011875840	54	5371
2026-01-23 12:18:59.92	333.88	16.04	-41.6	-44.9	18.3	6.06e-01	0	62	0	1017118720	54	5355
2026-01-23 12:19:02.95	334.10	15.68	-41.6	-44.9	18.3	6.07e-01	0	62	0	1022885888	54	5349
2026-01-23 12:19:05.98	334.31	15.34	-41.5	-44.8	18.3	6.05e-01	0	62	0	1028653056	54	5298
2026-01-23 12:19:09.01	334.52	14.99	-41.5	-44.8	18.3	6.08e-01	0	62	0	1034420224	54	5308
2026-01-23 12:19:12.03	334.72	14.66	-41.5	-44.8	18.2	6.04e-01	0	62	0	1040187392	54	5323
2026-01-23 12:19:15.06	334.92	14.33	-41.5	-44.8	18.2	6.06e-01	0	62	0	1045430272	54	5323
2026-01-23 12:19:18.09	335.12	14.00	-41.5	-44.8	18.1	6.07e-01	0	62	0	1051197440	54	5322
2026-01-23 12:19:21.12	335.31	13.68	-41.4	-44.8	18.1	6.07e-01	0	62	0	1056964608	54	5290
2026-01-23 12:19:24.15	335.49	13.36	-41.6	-45.1	17.8	6.05e-01	0	62	0	1062731776	54	5471
2026-01-23 12:19:27.17	335.68	13.04	-41.5	-45.0	17.7	6.05e-01	0	62	0	1068498944	54	5445
2026-01-23 12:19:30.21	335.86	12.73	-41.7	-45.3	17.4	6.06e-01	0	62	0	1074266112	54	5619
2026-01-23 12:19:33.24	336.03	12.43	-41.5	-45.0	17.7	6.06e-01	0	62	0	1080033280	54	5423
2026-01-23 12:19:36.26	336.20	12.13	-41.7	-45.4	17.3	6.07e-01	0	62	0	1085276160	54	5670
2026-01-23 12:19:39.29	336.37	11.83	-41.6	-45.3	17.2	6.02e-01	0	62	0	1091043328	54	5652
2026-01-23 12:19:42.32	336.53	11.53	-41.5	-45.2	17.3	6.02e-01	0	62	0	1096810496	54	5566
2026-01-23 12:19:45.34	336.69	11.25	-41.5	-45.3	17.2	6.00e-01	0	62	0	1102577664	54	5620
2026-01-23 12:19:48.37	336.85	10.96	-41.8	-45.7	16.7	5.98e-01	0	62	0	1108344832	54	5903
2026-01-23 12:19:51.40	337.01	10.68	-41.7	-45.8	16.6	6.01e-01	0	62	0	1113587712	54	5931
2026-01-23 12:19:54.42	337.16	10.40	-41.5	-45.5	16.8	6.00e-01	0	62	0	1119354880	54	5735
2026-01-23 12:19:57.45	337.31	10.12	-41.5	-45.5	16.7	6.01e-01	0	62	0	1125122048	54	5733
2026-01-23 12:20:00.48	337.46	9.85	-41.6	-45.9	16.1	6.01e-01	0	62	0	1130889216	54	6048
2026-01-23 12:20:03.51	337.60	9.58	-41.8	-46.5	15.4	6.01e-01	0	62	0	1136656384	54	6445
2026-01-23 12:20:06.54	337.74	9.31	-41.7	-46.3	15.6	6.02e-01	0	62	0	1142423552	54	6279
2026-01-23 12:20:09.56	337.88	9.05	-41.4	-45.8	16.0	6.02e-01	0	62	0	1147666432	54	5967
2026-01-23 12:20:12.59	338.02	8.79	-41.3	-45.7	16.0	6.04e-01	0	62	0	1153433600	54	5873
2026-01-23 12:20:15.62	338.15	8.53	-41.1	-45.6	15.9	5.99e-01	0	62	0	1159200768	54	5813
2026-01-23 12:20:18.65	338.28	8.27	-41.1	-45.6	15.8	6.02e-01	0	62	0	1164967936	54	5820
2026-01-23 12:20:21.68	338.41	8.02	-43.8	-54.8	2.8	7.18e-01	0	62	104	1170210816	58	13291
2026-01-23 12:20:24.71	338.54	7.77	-45.9	-64.4	3.8	7.45e-01	0	62	104	1170210816	62	31879
2026-01-23 12:20:27.74	338.67	7.53	-46.3	-64.9	3.8	7.47e-01	0	62	104	1170210816	63	31950
2026-01-23 12:20:30.77	338.79	7.28	-46.4	-64.9	3.8	7.47e-01	0	62	104	1170210816	63	32076
2026-01-23 12:20:33.80	338.91	7.04	-46.3	-64.8	3.8	7.50e-01	0	62	104	1170210816	63	31763
2026-01-23 12:20:36.83	339.03	6.80	-46.3	-64.8	3.8	7.45e-01	0	62	104	1170210816	63	31718
2026-01-23 12:20:39.86	339.15	6.56	-46.3	-64.8	3.8	7.47e-01	0	62	104	1170210816	63	31487
2026-01-23 12:20:42.90	339.26	6.33	-46.2	-64.7	3.8	7.44e-01	0	62	104	1170210816	63	31416
2026-01-23 12:20:45.93	339.38	6.09	-46.2	-64.7	3.8	7.42e-01	0	62	104	1170210816	63	31441
2026-01-23 12:20:48.96	339.49	5.86	-46.2	-64.8	3.8	7.46e-01	0	62	104	1170210816	63	31505
2026-01-23 12:20:51.99	339.60	5.64	-46.2	-64.7	3.8	7.45e-01	0	62	104	1170210816	63	31378
2026-01-23 12:20:55.02	339.71	5.41	-46.2	-64.7	3.8	7.46e-01	0	62	104	1170210816	63	31361
2026-01-23 12:20:58.05	339.82	5.19	-46.2	-64.7	3.8	7.46e-01	0	62	104	1170210816	63	31403
2026-01-23 12:21:01.08	339.92	4.96	-46.2	-64.7	3.8	7.45e-01	0	62	104	1170210816	63	31306
2026-01-23 12:21:04.11	340.03	4.74	-46.2	-64.7	3.8	7.46e-01	0	62	104	1170210816	63	31366
2026-01-23 12:21:07.14	340.13	4.53	-46.2	-64.7	3.8	7.48e-01	0	62	104	1170210816	62	33145
2026-01-23 12:21:10.17	340.23	4.31	-46.2	-64.7	3.8	7.46e-01	0	62	104	1170210816	62	33142
2026-01-23 12:21:13.20	340.33	4.10	-46.2	-64.7	3.8	7.45e-01	0	62	104	1170210816	62	33103
2026-01-23 12:21:16.23	340.43	3.88	-46.2	-64.7	3.8	7.46e-01	0	62	104	1170210816	62	33071
2026-01-23 12:21:19.26	340.53	3.67	-46.2	-64.7	3.8	7.44e-01	0	62	104	1170210816	62	33070
2026-01-23 12:21:22.29	340.62	3.46	-46.2	-64.7	3.8	7.43e-01	0	62	104	1170210816	62	33071
2026-01-23 12:21:25.32	340.72	3.26	-46.1	-64.6	3.8	7.45e-01	0	62	104	1170210816	62	32584
2026-01-23 12:21:28.35	340.81	3.05	-46.1	-64.7	3.8	7.42e-01	0	62	104	1170210816	62	32971
2026-01-23 12:21:31.38	340.90	2.85	-46.2	-64.7	3.8	7.44e-01	0	62	104	1170210816	62	33005
2026-01-23 12:21:34.41	341.00	2.65	-46.2	-64.7	3.8	7.46e-01	0	62	104	1170210816	62	32942
2026-01-23 12:21:37.44	341.09	2.45	-46.1	-64.6	3.8	7.42e-01	0	62	104	1170210816	62	32912
2026-01-23 12:21:40.47	341.17	2.25	-46.1	-64.6	3.8	7.44e-01	0	62	104	1170210816	62	32884
2026-01-23 12:21:43.50	341.26	2.05	-46.1	-64.6	3.8	7.48e-01	0	62	104	1170210816	62	32903

#Closed at: 2026-01-23 12:21:45
#Recorded file [1170 MB]: D:/lorett/data/31039_260123_150936.dat