passes_logs/2026/01/23/R2.0S_Moscow/R2.0S_Moscow__20260123_005745_AQUA_rec.log

#Pass ID: 20260123_005745_AQUA
#Satellite: AQUA
#Configuration: AQUA
#almurnet v.1.7.20251203
#Start time: 2026-01-23 00:59:09

#Version: 2.2.20231116
#Station: R2.0S_Moscow
#Location: 37.707566 lon 55.798166 lat
#TLE: 1 27424U 02022A   26022.49486490  .00002153  00000+0  44069-3 0  9997
#TLE: 2 27424  98.4099 349.0485 0001970  69.5876  43.4746 14.61847233261984

#Time	Az	El	Level	Level2	SNR	BER	BlckErr	Temp	State	Recorded	gain1	gain2
2026-01-23 00:59:09.65	20.93	8.18	-45.0	-59.6	3.8	1.49e+00	0	61	0	0	61	19491
2026-01-23 00:59:12.69	21.05	8.43	-46.5	-64.9	3.8	7.47e-01	0	61	104	0	63	32110
2026-01-23 00:59:15.72	21.16	8.69	-46.1	-64.7	3.8	7.44e-01	0	61	104	0	63	31149
2026-01-23 00:59:18.75	21.29	8.95	-45.4	-63.9	3.8	7.47e-01	0	61	104	0	62	30104
2026-01-23 00:59:21.78	21.41	9.22	-45.2	-63.1	3.8	7.45e-01	0	61	104	0	62	27619
2026-01-23 00:59:24.81	21.53	9.48	-45.1	-62.6	3.8	7.46e-01	0	61	104	0	62	26108
2026-01-23 00:59:27.84	21.66	9.75	-45.1	-62.5	3.8	7.43e-01	0	61	104	0	62	25623
2026-01-23 00:59:30.87	21.79	10.03	-45.1	-57.8	5.3	6.99e-01	72	61	0	0	62	14998
2026-01-23 00:59:33.90	21.92	10.30	-45.2	-60.8	3.9	7.44e-01	0	61	104	0	62	21216
2026-01-23 00:59:36.93	22.05	10.58	-45.2	-59.0	4.7	7.18e-01	0	61	104	0	62	17088
2026-01-23 00:59:39.96	22.19	10.87	-44.8	-54.6	7.9	6.47e-01	86	61	0	3145728	61	10970
2026-01-23 00:59:43.00	22.33	11.16	-44.4	-52.3	10.3	6.16e-01	0	61	0	8912896	60	8949
2026-01-23 00:59:46.03	22.47	11.45	-44.5	-52.9	9.8	6.22e-01	0	61	0	14680064	60	9553
2026-01-23 00:59:49.06	22.62	11.74	-44.8	-54.7	7.9	6.45e-01	90	61	0	20447232	60	11784
2026-01-23 00:59:52.09	22.76	12.04	-44.2	-51.6	11.0	6.12e-01	0	61	0	26214400	60	8224
2026-01-23 00:59:55.12	22.91	12.34	-43.2	-47.9	15.2	6.01e-01	0	61	0	31457280	58	6042
2026-01-23 00:59:58.15	23.07	12.65	-42.3	-46.0	17.2	6.00e-01	0	61	0	37224448	56	5463
2026-01-23 01:00:01.18	23.22	12.96	-42.3	-46.0	17.2	6.02e-01	0	61	0	42991616	56	5446
2026-01-23 01:00:04.21	23.39	13.28	-43.1	-47.5	15.7	6.00e-01	0	61	0	48758784	56	6465
2026-01-23 01:00:07.24	23.55	13.60	-44.9	-55.4	6.6	6.63e-01	52	61	0	54001664	60	12730
2026-01-23 01:00:10.27	23.72	13.92	-41.8	-45.2	18.0	6.01e-01	0	61	0	59768832	55	5274
2026-01-23 01:00:13.30	23.89	14.25	-41.8	-45.1	18.2	6.00e-01	0	61	0	65011712	55	5185
2026-01-23 01:00:16.33	24.06	14.59	-41.7	-45.0	18.3	6.01e-01	0	61	0	70778880	55	5109
2026-01-23 01:00:19.36	24.24	14.92	-41.7	-45.0	18.3	6.02e-01	0	61	0	76546048	55	5103
2026-01-23 01:00:22.38	24.42	15.27	-41.7	-45.0	18.3	6.01e-01	0	61	0	82313216	55	5138
2026-01-23 01:00:25.41	24.61	15.62	-41.8	-45.0	18.3	5.99e-01	0	61	0	88080384	55	5145
2026-01-23 01:00:28.44	24.80	15.97	-41.8	-45.0	18.4	6.00e-01	0	61	0	93847552	55	5138
2026-01-23 01:00:31.46	25.00	16.33	-41.6	-44.8	18.6	6.03e-01	0	61	0	99090432	55	4991
2026-01-23 01:00:34.49	25.20	16.70	-41.7	-44.8	18.7	6.01e-01	0	61	0	104857600	55	5002
2026-01-23 01:00:37.52	25.40	17.07	-41.7	-44.9	18.6	6.02e-01	0	61	0	110624768	55	5066
2026-01-23 01:00:40.56	25.61	17.45	-41.8	-44.9	18.6	6.02e-01	0	61	0	116391936	55	5093
2026-01-23 01:00:43.59	25.83	17.83	-41.8	-44.9	18.6	6.00e-01	0	61	0	122159104	55	5074
2026-01-23 01:00:46.62	26.05	18.22	-41.7	-44.9	18.7	6.02e-01	0	61	0	127926272	55	5045
2026-01-23 01:00:49.64	26.28	18.62	-41.7	-44.7	18.8	6.00e-01	0	61	0	133169152	55	4981
2026-01-23 01:00:52.67	26.51	19.02	-41.7	-44.8	18.7	6.01e-01	0	61	0	138936320	55	5032
2026-01-23 01:00:55.69	26.75	19.43	-41.7	-44.8	18.8	6.00e-01	0	61	0	144703488	55	5003
2026-01-23 01:00:58.72	27.00	19.85	-41.7	-44.8	18.9	6.03e-01	0	61	0	150470656	55	4995
2026-01-23 01:01:01.75	27.25	20.27	-41.7	-44.7	18.9	5.99e-01	0	61	0	156237824	55	4958
2026-01-23 01:01:04.78	27.51	20.71	-41.8	-44.8	18.8	5.98e-01	0	61	0	162004992	55	5041
2026-01-23 01:01:07.81	27.78	21.15	-41.7	-44.8	18.9	6.02e-01	0	61	0	167247872	55	5000
2026-01-23 01:01:10.84	28.06	21.60	-41.8	-44.8	18.9	6.02e-01	0	61	0	173015040	55	5015
2026-01-23 01:01:13.87	28.34	22.05	-41.8	-44.9	18.8	6.00e-01	0	61	0	178782208	55	5062
2026-01-23 01:01:16.90	28.64	22.52	-41.8	-44.8	18.9	6.01e-01	0	61	0	184549376	55	5038
2026-01-23 01:01:19.93	28.94	22.99	-41.9	-44.9	18.8	6.02e-01	0	61	0	190316544	55	5091
2026-01-23 01:01:22.96	29.25	23.47	-42.0	-45.1	18.7	6.02e-01	0	61	0	196083712	55	5179
2026-01-23 01:01:25.99	29.57	23.97	-42.0	-45.1	18.6	6.01e-01	0	61	0	201326592	55	5208
2026-01-23 01:01:29.02	29.90	24.47	-42.0	-45.1	18.7	6.01e-01	0	61	0	207093760	55	5182
2026-01-23 01:01:32.05	30.25	24.98	-41.9	-44.9	18.9	6.02e-01	0	61	0	212860928	55	5066
2026-01-23 01:01:35.07	30.60	25.50	-42.0	-45.1	18.7	5.98e-01	0	61	0	218628096	55	5204
2026-01-23 01:01:38.10	30.96	26.03	-42.1	-45.2	18.6	6.00e-01	0	61	0	224395264	55	5249
2026-01-23 01:01:41.13	31.34	26.57	-41.7	-44.7	19.1	6.02e-01	0	61	0	230162432	55	4946
2026-01-23 01:01:44.16	31.74	27.13	-41.8	-44.9	19.0	6.02e-01	0	61	0	235405312	55	5043
2026-01-23 01:01:47.18	32.14	27.69	-41.8	-44.8	19.0	6.00e-01	0	61	0	241172480	55	5024
2026-01-23 01:01:50.21	32.56	28.26	-41.8	-44.8	19.0	6.02e-01	0	61	0	246939648	55	5011
2026-01-23 01:01:53.24	33.00	28.85	-41.6	-44.5	19.3	6.01e-01	0	60	0	252706816	55	4858
2026-01-23 01:01:56.27	33.45	29.45	-41.6	-44.4	19.4	5.99e-01	0	61	0	258473984	55	4812
2026-01-23 01:01:59.29	33.92	30.05	-41.6	-44.5	19.4	6.03e-01	0	61	0	263716864	55	4850
2026-01-23 01:02:02.33	34.41	30.68	-41.6	-44.5	19.4	6.02e-01	0	61	0	269484032	55	4837
2026-01-23 01:02:05.36	34.92	31.31	-41.8	-44.7	19.2	6.00e-01	0	61	0	275251200	55	4961
2026-01-23 01:02:08.39	35.45	31.96	-41.9	-44.8	19.0	6.00e-01	0	61	0	281018368	55	5037
2026-01-23 01:02:11.42	36.00	32.62	-41.9	-44.8	19.1	6.00e-01	0	61	0	286785536	55	5032
2026-01-23 01:02:14.44	36.57	33.29	-42.0	-45.1	18.8	6.02e-01	0	61	0	292552704	55	5177
2026-01-23 01:02:17.47	37.17	33.98	-42.1	-45.2	18.7	6.00e-01	0	61	0	298319872	55	5249
2026-01-23 01:02:20.50	37.80	34.68	-42.4	-45.7	18.2	6.00e-01	0	61	0	303562752	55	5581
2026-01-23 01:02:23.53	38.45	35.39	-42.6	-46.0	17.9	6.00e-01	0	61	0	309329920	55	5788
2026-01-23 01:02:26.56	39.13	36.12	-42.7	-46.1	17.9	6.02e-01	0	61	0	315097088	55	5829
2026-01-23 01:02:29.59	39.85	36.86	-43.1	-46.8	17.2	6.01e-01	0	61	0	320864256	56	5957
2026-01-23 01:02:32.62	40.59	37.61	-43.0	-46.7	17.4	6.01e-01	0	61	0	326631424	56	5883
2026-01-23 01:02:35.65	41.38	38.37	-43.2	-47.1	17.0	6.00e-01	0	61	0	331874304	57	5812
2026-01-23 01:02:38.67	42.20	39.15	-43.1	-46.8	17.3	6.00e-01	0	61	0	337641472	57	5644
2026-01-23 01:02:41.70	43.06	39.94	-42.9	-46.4	17.7	6.00e-01	0	61	0	343408640	57	5365
2026-01-23 01:02:44.73	43.97	40.74	-42.8	-46.2	17.9	6.01e-01	0	61	0	349175808	57	5271
2026-01-23 01:02:47.76	44.92	41.55	-42.5	-45.7	18.4	6.00e-01	0	61	0	354942976	57	4962
2026-01-23 01:02:50.79	45.92	42.38	-42.3	-45.5	18.7	6.03e-01	0	61	0	360710144	56	5107
2026-01-23 01:02:53.82	46.98	43.21	-42.2	-45.3	18.9	6.03e-01	0	61	0	366477312	56	4995
2026-01-23 01:02:56.84	48.09	44.05	-42.0	-44.9	19.2	6.01e-01	0	61	0	371720192	56	4792
2026-01-23 01:02:59.87	49.26	44.90	-41.7	-44.5	19.6	6.00e-01	0	61	0	377487360	55	4826
2026-01-23 01:03:02.90	50.50	45.75	-41.8	-44.6	19.4	6.03e-01	0	61	0	383254528	55	4918
2026-01-23 01:03:05.93	51.81	46.61	-41.5	-44.2	19.8	6.01e-01	0	61	0	389021696	55	4691
2026-01-23 01:03:08.96	53.19	47.47	-41.6	-44.4	19.8	6.05e-01	0	61	0	394788864	55	4768
2026-01-23 01:03:11.99	54.65	48.33	-41.7	-44.5	19.6	6.03e-01	0	61	0	400031744	55	4838
2026-01-23 01:03:15.01	56.19	49.19	-41.7	-44.5	19.7	6.03e-01	0	61	0	405798912	55	4827
2026-01-23 01:03:18.04	57.83	50.04	-41.7	-44.5	19.6	5.98e-01	0	61	0	411566080	55	4849
2026-01-23 01:03:21.07	59.55	50.88	-41.7	-44.5	19.6	6.02e-01	0	61	0	417333248	55	4845
2026-01-23 01:03:24.10	61.38	51.71	-41.7	-44.4	19.7	6.00e-01	0	61	0	423100416	55	4798
2026-01-23 01:03:27.13	63.31	52.53	-41.8	-44.6	19.6	6.02e-01	0	61	0	428867584	55	4884
2026-01-23 01:03:30.15	65.35	53.32	-41.9	-44.7	19.5	6.02e-01	0	61	0	434634752	55	4956
2026-01-23 01:03:33.18	67.50	54.09	-42.0	-44.9	19.3	6.02e-01	0	61	0	439877632	55	5050
2026-01-23 01:03:36.21	69.77	54.83	-42.1	-45.1	19.1	6.02e-01	0	61	0	445644800	55	5179
2026-01-23 01:03:39.24	72.16	55.53	-42.3	-45.4	18.8	6.03e-01	0	61	0	451411968	55	5387
2026-01-23 01:03:42.27	74.67	56.19	-42.5	-45.7	18.5	6.01e-01	0	61	0	457179136	55	5540
2026-01-23 01:03:45.29	77.28	56.80	-42.9	-46.2	18.1	6.01e-01	0	60	0	462946304	56	5579
2026-01-23 01:03:48.32	80.02	57.36	-43.2	-46.9	17.5	6.01e-01	0	60	0	468189184	57	5663
2026-01-23 01:03:51.35	82.87	57.86	-43.4	-47.2	17.0	6.02e-01	0	61	0	473956352	57	5921
2026-01-23 01:03:54.38	85.82	58.30	-43.3	-47.0	17.3	6.02e-01	0	61	0	479723520	57	5736
2026-01-23 01:03:57.41	88.87	58.67	-43.3	-47.0	17.2	6.02e-01	0	61	0	485490688	57	5786
2026-01-23 01:04:00.43	91.98	58.97	-43.4	-47.3	16.9	6.02e-01	0	61	0	491257856	57	5953
2026-01-23 01:04:03.46	95.16	59.19	-43.7	-47.7	16.5	6.01e-01	0	60	0	497025024	57	6249
2026-01-23 01:04:06.49	98.39	59.33	-43.5	-47.4	16.8	6.02e-01	0	60	0	502267904	57	6047
2026-01-23 01:04:09.52	101.64	59.38	-43.3	-47.1	17.1	6.01e-01	0	61	0	508035072	57	5816
2026-01-23 01:04:12.55	104.89	59.36	-43.3	-47.0	17.2	6.02e-01	0	60	0	513802240	57	5763
2026-01-23 01:04:15.57	108.12	59.25	-43.5	-47.3	16.9	6.01e-01	0	60	0	519569408	57	5978
2026-01-23 01:04:18.60	111.33	59.06	-43.5	-47.5	16.7	6.02e-01	0	61	0	525336576	57	6064
2026-01-23 01:04:21.63	114.47	58.79	-43.4	-47.3	16.9	6.00e-01	0	61	0	531103744	57	5947
2026-01-23 01:04:24.66	117.55	58.44	-43.0	-46.5	17.6	6.01e-01	0	61	0	536346624	57	5450
2026-01-23 01:04:27.68	120.53	58.03	-43.0	-46.5	17.7	6.00e-01	0	61	0	542113792	57	5427
2026-01-23 01:04:30.71	123.42	57.55	-43.0	-46.6	17.6	5.99e-01	0	61	0	547880960	57	5475
2026-01-23 01:04:33.74	126.20	57.01	-43.0	-46.5	17.7	5.98e-01	0	61	0	553648128	57	5442
2026-01-23 01:04:36.77	128.88	56.41	-42.4	-45.4	18.8	6.01e-01	0	60	0	559415296	56	5082
2026-01-23 01:04:39.80	131.43	55.77	-42.3	-45.3	18.8	6.01e-01	0	61	0	564658176	56	5041
2026-01-23 01:04:42.83	133.86	55.08	-42.3	-45.3	18.9	5.99e-01	0	61	0	570425344	56	4996
2026-01-23 01:04:45.86	136.18	54.35	-42.2	-45.2	19.0	6.02e-01	0	61	0	576192512	56	4964
2026-01-23 01:04:48.88	138.37	53.59	-42.4	-45.5	18.7	5.98e-01	0	61	0	581959680	56	5104
2026-01-23 01:04:51.91	140.46	52.80	-42.2	-45.3	18.8	6.00e-01	0	61	0	587726848	55	5282
2026-01-23 01:04:54.94	142.43	51.99	-42.0	-45.0	19.1	5.99e-01	0	61	0	593494016	55	5124
2026-01-23 01:04:57.96	144.29	51.17	-42.3	-45.4	18.7	6.00e-01	0	61	0	599261184	55	5346
2026-01-23 01:05:00.99	146.06	50.32	-42.2	-45.3	18.7	6.01e-01	0	61	0	604504064	55	5299
2026-01-23 01:05:04.02	147.73	49.47	-43.0	-46.6	17.5	6.02e-01	0	61	0	610271232	56	5845
2026-01-23 01:05:07.05	149.31	48.61	-42.7	-46.0	18.1	6.00e-01	0	61	0	616038400	56	5417
2026-01-23 01:05:10.07	150.80	47.75	-42.6	-45.9	18.2	6.00e-01	0	61	0	621805568	56	5363
2026-01-23 01:05:13.10	152.21	46.89	-42.6	-46.0	18.1	6.01e-01	0	61	0	627572736	56	5432
2026-01-23 01:05:16.13	153.55	46.02	-42.3	-45.5	18.6	6.00e-01	0	60	0	632815616	56	5126
2026-01-23 01:05:19.16	154.81	45.16	-42.2	-45.2	18.9	6.01e-01	0	61	0	638582784	56	4956
2026-01-23 01:05:22.19	156.01	44.31	-42.5	-45.8	18.3	6.00e-01	0	61	0	644349952	56	5324
2026-01-23 01:05:25.22	157.15	43.46	-42.3	-45.5	18.6	5.98e-01	0	61	0	650117120	56	5114
2026-01-23 01:05:28.24	158.22	42.62	-42.5	-45.8	18.2	6.02e-01	0	61	0	655884288	56	5320
2026-01-23 01:05:31.27	159.25	41.79	-42.7	-46.0	18.0	5.99e-01	0	60	0	661651456	56	5460
2026-01-23 01:05:34.30	160.22	40.97	-42.7	-46.2	17.9	6.00e-01	0	60	0	666894336	56	5546
2026-01-23 01:05:37.33	161.14	40.16	-42.8	-46.3	17.7	6.00e-01	0	61	0	672661504	56	5638
2026-01-23 01:05:40.35	162.02	39.37	-42.6	-45.9	18.1	6.01e-01	0	61	0	678428672	56	5381
2026-01-23 01:05:43.38	162.85	38.58	-42.7	-46.2	17.8	6.00e-01	0	61	0	684195840	56	5574
2026-01-23 01:05:46.41	163.65	37.81	-42.7	-46.2	17.8	6.04e-01	0	60	0	689963008	56	5531
2026-01-23 01:05:49.44	164.41	37.05	-42.6	-46.0	18.0	6.00e-01	0	60	0	695730176	56	5423
2026-01-23 01:05:52.47	165.14	36.30	-42.5	-45.8	18.2	6.05e-01	0	61	0	700973056	56	5287
2026-01-23 01:05:55.50	165.83	35.56	-42.1	-45.2	18.8	6.00e-01	0	61	0	706740224	56	4957
2026-01-23 01:05:58.53	166.50	34.84	-41.8	-44.7	19.2	6.02e-01	0	60	0	712507392	55	4936
2026-01-23 01:06:01.56	167.13	34.13	-41.7	-44.6	19.3	6.02e-01	0	61	0	718274560	55	4891
2026-01-23 01:06:04.58	167.74	33.44	-41.7	-44.7	19.2	5.99e-01	0	60	0	724041728	55	4934
2026-01-23 01:06:07.61	168.32	32.76	-41.6	-44.4	19.4	6.03e-01	0	60	0	729808896	55	4803
2026-01-23 01:06:10.65	168.88	32.09	-41.6	-44.5	19.3	6.01e-01	0	60	0	735051776	55	4840
2026-01-23 01:06:13.67	169.42	31.44	-41.5	-44.3	19.5	6.01e-01	0	60	0	740818944	55	4743
2026-01-23 01:06:16.70	169.93	30.80	-41.4	-44.2	19.6	6.02e-01	0	61	0	746586112	54	4937
2026-01-23 01:06:19.73	170.43	30.17	-41.3	-44.1	19.6	5.99e-01	0	60	0	752353280	54	4910
2026-01-23 01:06:22.76	170.91	29.55	-41.2	-43.9	19.8	6.02e-01	0	60	0	758120448	54	4805
2026-01-23 01:06:25.79	171.36	28.94	-41.2	-44.0	19.8	6.00e-01	0	61	0	763887616	54	4815
2026-01-23 01:06:28.82	171.81	28.35	-41.4	-44.1	19.6	5.99e-01	0	61	0	769130496	54	4920
2026-01-23 01:06:31.84	172.23	27.77	-41.5	-44.4	19.3	6.01e-01	0	61	0	774897664	54	5096
2026-01-23 01:06:34.87	172.64	27.20	-41.6	-44.5	19.2	6.01e-01	0	60	0	780664832	54	5155
2026-01-23 01:06:37.90	173.04	26.64	-41.7	-44.7	19.0	6.01e-01	0	61	0	786432000	54	5261
2026-01-23 01:06:40.93	173.42	26.09	-41.7	-44.7	19.0	6.00e-01	0	61	0	792199168	54	5239
2026-01-23 01:06:43.95	173.79	25.56	-41.7	-44.7	18.9	6.01e-01	0	61	0	797966336	54	5275
2026-01-23 01:06:46.98	174.15	25.03	-41.8	-44.9	18.8	5.99e-01	0	61	0	803209216	54	5345
2026-01-23 01:06:50.01	174.49	24.51	-41.8	-44.9	18.7	6.00e-01	0	60	0	808976384	54	5387
2026-01-23 01:06:53.04	174.83	24.01	-41.9	-45.1	18.5	6.01e-01	0	61	0	814743552	54	5508
2026-01-23 01:06:56.07	175.15	23.51	-41.9	-45.0	18.6	6.00e-01	0	61	0	820510720	54	5433
2026-01-23 01:06:59.10	175.46	23.02	-41.8	-45.0	18.6	6.03e-01	0	61	0	826277888	54	5420
2026-01-23 01:07:02.12	175.77	22.54	-41.9	-45.1	18.4	6.01e-01	0	61	0	832045056	54	5502
2026-01-23 01:07:05.15	176.06	22.07	-41.7	-44.8	18.7	6.01e-01	0	61	0	837287936	54	5325
2026-01-23 01:07:08.18	176.35	21.61	-41.7	-44.8	18.7	6.00e-01	0	61	0	843055104	54	5309
2026-01-23 01:07:11.21	176.63	21.16	-41.7	-44.7	18.8	6.01e-01	0	60	0	848822272	54	5271
2026-01-23 01:07:14.23	176.89	20.71	-41.7	-44.8	18.7	5.99e-01	0	60	0	854589440	54	5310
2026-01-23 01:07:17.26	177.16	20.28	-41.5	-44.5	19.0	6.01e-01	0	61	0	860356608	54	5146
2026-01-23 01:07:20.29	177.41	19.85	-41.5	-44.5	19.0	6.03e-01	0	60	0	865599488	54	5121
2026-01-23 01:07:23.31	177.66	19.43	-41.5	-44.5	19.0	5.99e-01	0	61	0	871366656	54	5128
2026-01-23 01:07:26.34	177.90	19.01	-41.5	-44.4	19.0	5.99e-01	0	60	0	877133824	54	5100
2026-01-23 01:07:29.37	178.13	18.60	-41.5	-44.6	18.9	6.00e-01	0	61	0	882900992	54	5166
2026-01-23 01:07:32.40	178.36	18.20	-41.6	-44.7	18.8	6.02e-01	0	61	0	888668160	54	5220
2026-01-23 01:07:35.42	178.58	17.81	-41.5	-44.6	18.8	6.02e-01	0	61	0	894435328	54	5177
2026-01-23 01:07:38.45	178.80	17.42	-41.5	-44.5	18.9	6.02e-01	0	61	0	899678208	54	5130
2026-01-23 01:07:41.48	179.01	17.04	-41.5	-44.5	18.9	6.01e-01	0	61	0	905445376	54	5143
2026-01-23 01:07:44.51	179.22	16.67	-41.5	-44.6	18.8	6.02e-01	0	61	0	911212544	54	5163
2026-01-23 01:07:47.54	179.42	16.30	-41.5	-44.5	18.9	6.01e-01	0	60	0	916979712	54	5120
2026-01-23 01:07:50.57	179.61	15.93	-41.4	-44.5	18.9	6.01e-01	0	60	0	922746880	54	5118
2026-01-23 01:07:53.60	179.80	15.58	-41.5	-44.6	18.8	6.02e-01	0	61	0	928514048	54	5161
2026-01-23 01:07:56.63	179.99	15.22	-41.4	-44.5	18.8	6.00e-01	0	60	0	933756928	54	5122
2026-01-23 01:07:59.65	180.17	14.88	-41.4	-44.5	18.8	5.99e-01	0	61	0	939524096	54	5129
2026-01-23 01:08:02.69	180.35	14.53	-41.4	-44.5	18.8	6.00e-01	0	60	0	945291264	54	5108
2026-01-23 01:08:05.71	180.52	14.20	-41.5	-44.6	18.6	6.02e-01	0	60	0	951058432	54	5187
2026-01-23 01:08:08.74	180.69	13.87	-41.5	-44.6	18.7	6.03e-01	0	60	0	956825600	54	5161
2026-01-23 01:08:11.77	180.86	13.54	-41.5	-44.7	18.5	6.02e-01	0	60	0	962592768	54	5256
2026-01-23 01:08:14.80	181.02	13.22	-41.5	-44.7	18.6	6.00e-01	0	60	0	967835648	54	5233
2026-01-23 01:08:17.82	181.18	12.90	-41.5	-44.6	18.6	6.01e-01	0	61	0	973602816	54	5200
2026-01-23 01:08:20.85	181.34	12.58	-41.5	-44.7	18.5	6.01e-01	0	61	0	979369984	54	5234
2026-01-23 01:08:23.88	181.49	12.28	-41.5	-44.7	18.5	6.03e-01	0	60	0	985137152	54	5219
2026-01-23 01:08:26.91	181.64	11.97	-41.5	-44.7	18.4	6.00e-01	0	60	0	990904320	54	5259
2026-01-23 01:08:29.94	181.78	11.67	-41.5	-44.8	18.3	5.99e-01	0	60	0	996671488	54	5284
2026-01-23 01:08:32.97	181.93	11.37	-41.6	-44.9	18.2	6.01e-01	0	61	0	1001914368	54	5363
2026-01-23 01:08:36.00	182.07	11.08	-41.6	-44.9	18.1	6.00e-01	0	61	0	1007681536	54	5385
2026-01-23 01:08:39.02	182.21	10.79	-41.7	-45.0	18.0	6.01e-01	0	60	0	1013448704	54	5454
2026-01-23 01:08:42.05	182.34	10.50	-41.8	-45.2	17.9	6.01e-01	0	60	0	1019215872	54	5567
2026-01-23 01:08:45.08	182.47	10.22	-41.9	-45.4	17.6	6.01e-01	0	60	0	1024983040	54	5701
2026-01-23 01:08:48.11	182.60	9.94	-41.8	-45.3	17.6	6.00e-01	0	61	0	1030750208	54	5648
2026-01-23 01:08:51.13	182.73	9.67	-41.9	-45.4	17.6	6.02e-01	0	60	0	1035993088	54	5681
2026-01-23 01:08:54.16	182.85	9.39	-41.9	-45.4	17.5	5.99e-01	0	60	0	1041760256	54	5701
2026-01-23 01:08:57.19	182.98	9.12	-41.8	-45.3	17.6	6.03e-01	0	60	0	1047527424	54	5643
2026-01-23 01:09:00.21	183.10	8.86	-41.9	-45.5	17.4	6.02e-01	0	61	0	1053294592	54	5759
2026-01-23 01:09:03.24	183.22	8.60	-41.9	-45.5	17.3	6.00e-01	0	60	0	1059061760	54	5770
2026-01-23 01:09:06.27	183.33	8.34	-41.9	-45.5	17.3	6.02e-01	0	60	0	1064828928	54	5786
2026-01-23 01:09:09.30	183.45	8.08	-41.9	-45.7	17.0	6.03e-01	0	60	0	1070071808	54	5916
2026-01-23 01:09:12.33	183.56	7.82	-45.7	-64.2	3.8	7.44e-01	0	61	104	1073741824	62	31225
2026-01-23 01:09:15.36	183.67	7.57	-46.1	-64.6	3.8	7.47e-01	0	60	104	1073741824	62	32774
2026-01-23 01:09:18.39	183.78	7.32	-46.3	-64.8	3.8	7.46e-01	0	61	104	1073741824	63	31489
2026-01-23 01:09:21.42	183.88	7.08	-46.3	-64.8	3.8	7.45e-01	0	61	104	1073741824	63	31543
2026-01-23 01:09:24.45	183.99	6.83	-46.3	-64.7	3.8	7.46e-01	0	61	104	1073741824	63	31404
2026-01-23 01:09:27.48	184.09	6.59	-46.2	-64.7	3.8	7.46e-01	0	60	104	1073741824	63	31100
2026-01-23 01:09:30.51	184.19	6.35	-46.2	-64.7	3.8	7.45e-01	0	61	104	1073741824	63	31156
2026-01-23 01:09:33.54	184.29	6.11	-46.2	-64.6	3.8	7.44e-01	0	61	104	1073741824	63	31057
2026-01-23 01:09:36.57	184.39	5.88	-46.2	-64.6	3.8	7.45e-01	0	61	104	1073741824	63	31024
2026-01-23 01:09:39.60	184.49	5.65	-46.2	-64.6	3.8	7.46e-01	0	61	104	1073741824	63	31024
2026-01-23 01:09:42.63	184.58	5.42	-46.2	-64.6	3.8	7.44e-01	0	61	104	1073741824	63	30989
2026-01-23 01:09:45.66	184.67	5.19	-46.2	-64.6	3.8	7.47e-01	0	61	104	1073741824	63	31035
2026-01-23 01:09:48.69	184.77	4.97	-46.1	-64.6	3.8	7.45e-01	0	61	104	1073741824	63	31006
2026-01-23 01:09:51.72	184.86	4.74	-46.1	-64.6	3.8	7.44e-01	0	61	104	1073741824	63	30976
2026-01-23 01:09:54.75	184.95	4.52	-46.1	-64.6	3.8	7.44e-01	0	61	104	1073741824	63	30934
2026-01-23 01:09:57.78	185.03	4.30	-46.1	-64.6	3.8	7.45e-01	0	61	104	1073741824	63	30928
2026-01-23 01:10:00.81	185.12	4.08	-46.1	-64.6	3.8	7.44e-01	0	61	104	1073741824	63	30926
2026-01-23 01:10:03.84	185.21	3.87	-46.1	-64.6	3.8	7.46e-01	0	61	104	1073741824	63	30896
2026-01-23 01:10:06.87	185.29	3.65	-46.1	-64.6	3.8	7.45e-01	0	61	104	1073741824	63	30892
2026-01-23 01:10:09.90	185.37	3.44	-46.1	-64.6	3.8	7.43e-01	0	61	104	1073741824	63	30883
2026-01-23 01:10:12.93	185.46	3.23	-46.1	-64.6	3.8	7.45e-01	0	61	104	1073741824	63	30823
2026-01-23 01:10:15.96	185.54	3.02	-46.1	-64.6	3.8	7.44e-01	0	61	104	1073741824	63	30857
2026-01-23 01:10:18.99	185.62	2.82	-46.1	-64.6	3.8	7.48e-01	0	61	104	1073741824	63	30851
2026-01-23 01:10:22.02	185.69	2.61	-46.1	-64.6	3.8	7.41e-01	0	61	104	1073741824	63	30877
2026-01-23 01:10:25.05	185.77	2.41	-46.1	-64.6	3.8	7.47e-01	0	61	104	1073741824	63	30806
2026-01-23 01:10:28.08	185.85	2.21	-46.1	-64.6	3.8	7.43e-01	0	61	104	1073741824	63	30813
2026-01-23 01:10:31.11	185.92	2.01	-46.1	-64.6	3.8	7.47e-01	0	61	104	1073741824	63	30885

#Closed at: 2026-01-23 01:10:33
#Recorded file [1073 MB]: D:/lorett/data/31039_260123_035909.dat