passes_logs/2026/01/23/R2.0S_Moscow/R2.0S_Moscow__20260123_192226_FENGYUN_3G_rec.log

#Pass ID: 20260123_192226_FENGYUN 3G
#Satellite: FENGYUN 3G
#Configuration: FENGYUN 3G
#almurnet v.1.7.20251203
#Start time: 2026-01-23 19:22:27

#Version: 2.2.20231116
#Station: R2.0S_Moscow
#Location: 37.707566 lon 55.798166 lat
#TLE: 1 56232U 23055A   26022.95932522  .00036289  00000+0  55235-3 0  9992
#TLE: 2 56232  49.9946  14.8507 0004090  68.3647 291.7756 15.54106507157434

#Time	Az	El	Level	Level2	SNR	BER	BlckErr	Temp	State	Recorded	gain1	gain2
2026-01-23 19:22:27.56	244.39	2.04	-44.2	-62.3	3.8	8.47e-01	0	51	0	0	60	28210
2026-01-23 19:22:30.60	244.19	2.24	-44.2	-62.3	3.8	8.46e-01	0	52	104	0	60	28202
2026-01-23 19:22:33.63	243.99	2.44	-44.2	-62.2	3.8	8.46e-01	0	52	104	0	60	27968
2026-01-23 19:22:36.66	243.79	2.65	-44.2	-62.2	3.8	8.45e-01	0	52	104	0	60	27931
2026-01-23 19:22:39.69	243.58	2.85	-44.2	-62.2	3.8	8.46e-01	0	52	104	0	60	27782
2026-01-23 19:22:42.73	243.37	3.06	-44.2	-62.2	3.8	8.47e-01	0	53	104	0	60	27899
2026-01-23 19:22:45.76	243.15	3.27	-44.2	-62.3	3.8	8.46e-01	0	53	104	0	60	28051
2026-01-23 19:22:48.79	242.93	3.48	-44.2	-62.2	3.8	8.46e-01	0	53	104	0	60	28021
2026-01-23 19:22:51.82	242.70	3.69	-44.2	-62.2	3.8	8.47e-01	0	53	104	0	60	27971
2026-01-23 19:22:54.86	242.47	3.91	-44.2	-62.3	3.8	8.46e-01	0	54	104	0	60	28036
2026-01-23 19:22:57.88	242.24	4.12	-44.1	-62.0	3.8	8.45e-01	0	54	104	0	60	27148
2026-01-23 19:23:00.92	241.99	4.34	-44.1	-61.4	3.8	8.46e-01	0	54	104	0	60	25512
2026-01-23 19:23:03.95	241.75	4.57	-44.1	-61.2	3.8	8.46e-01	0	54	104	0	60	24797
2026-01-23 19:23:06.98	241.49	4.79	-44.1	-61.7	3.8	8.45e-01	0	54	104	0	60	26204
2026-01-23 19:23:10.01	241.24	5.02	-44.1	-61.4	3.8	8.46e-01	0	55	104	0	60	25532
2026-01-23 19:23:13.05	240.97	5.25	-44.1	-60.3	3.8	8.46e-01	0	55	104	0	60	22334
2026-01-23 19:23:16.08	240.70	5.48	-44.1	-59.0	4.1	8.43e-01	0	55	0	0	60	19280
2026-01-23 19:23:19.11	240.42	5.72	-44.0	-58.7	4.2	8.38e-01	0	55	0	0	60	18611
2026-01-23 19:23:22.14	240.14	5.96	-44.0	-58.0	4.4	8.36e-01	0	55	0	0	60	17279
2026-01-23 19:23:25.17	239.85	6.20	-44.0	-55.8	5.5	7.95e-01	0	55	0	0	59	14181
2026-01-23 19:23:28.20	239.55	6.44	-43.5	-51.9	9.0	1.76e-01	0	55	0	3145728	59	9043
2026-01-23 19:23:31.23	239.25	6.69	-43.0	-49.8	11.3	7.33e-03	0	55	0	6291456	58	7526
2026-01-23 19:23:34.26	238.94	6.94	-43.4	-51.3	9.8	2.39e-03	0	56	0	9961472	58	8914
2026-01-23 19:23:37.30	238.62	7.19	-44.1	-58.8	4.2	1.14e-01	0	56	0	12058624	58	21194
2026-01-23 19:23:40.33	238.29	7.45	-43.5	-52.2	8.7	8.39e-01	0	56	0	13107200	58	9861
2026-01-23 19:23:43.36	237.95	7.71	-41.6	-46.3	14.8	4.79e-03	0	56	0	16252928	55	5932
2026-01-23 19:23:46.39	237.61	7.97	-41.2	-45.3	15.8	0.00e+00	0	56	0	19922944	54	5636
2026-01-23 19:23:49.42	237.26	8.23	-40.7	-44.3	16.8	1.85e-01	0	56	0	23068672	53	5317
2026-01-23 19:23:52.45	236.89	8.50	-42.3	-47.7	12.4	2.31e-03	0	56	0	25690112	56	6603
2026-01-23 19:23:55.48	236.52	8.78	-40.5	-44.0	17.1	0.00e+00	0	57	0	29360128	53	5135
2026-01-23 19:23:58.51	236.14	9.05	-40.6	-44.1	17.1	0.00e+00	0	57	0	32505856	53	5164
2026-01-23 19:24:01.54	235.75	9.34	-40.4	-43.7	17.5	0.00e+00	0	57	0	36175872	52	5244
2026-01-23 19:24:04.56	235.35	9.62	-40.2	-43.4	17.9	0.00e+00	0	57	0	39321600	52	5051
2026-01-23 19:24:07.59	234.93	9.91	-40.2	-43.4	17.9	0.00e+00	0	57	0	42991616	52	5051
2026-01-23 19:24:10.62	234.51	10.20	-40.3	-43.6	17.7	0.00e+00	0	57	0	46661632	52	5181
2026-01-23 19:24:13.65	234.07	10.50	-40.4	-43.7	17.6	0.00e+00	0	57	0	49807360	52	5259
2026-01-23 19:24:16.68	233.62	10.80	-40.4	-43.6	17.7	0.00e+00	0	57	0	53477376	52	5204
2026-01-23 19:24:19.70	233.16	11.10	-39.9	-42.8	18.7	0.00e+00	0	57	0	56623104	51	4993
2026-01-23 19:24:22.73	232.69	11.41	-39.9	-42.8	18.7	0.00e+00	0	57	0	59768832	51	4991
2026-01-23 19:24:25.76	232.20	11.72	-39.9	-42.9	18.6	0.00e+00	0	57	0	63438848	51	5050
2026-01-23 19:24:28.79	231.70	12.04	-39.9	-42.8	18.7	0.00e+00	0	58	0	66584576	51	5011
2026-01-23 19:24:31.82	231.18	12.36	-39.8	-42.6	19.0	0.00e+00	0	57	0	70254592	51	4876
2026-01-23 19:24:34.84	230.65	12.69	-39.6	-42.3	19.2	0.00e+00	0	58	0	73400320	51	4735
2026-01-23 19:24:37.87	230.10	13.02	-39.8	-42.6	18.9	0.00e+00	0	58	0	77070336	51	4904
2026-01-23 19:24:40.90	229.53	13.36	-39.7	-42.4	19.2	0.00e+00	0	58	0	80216064	51	4778
2026-01-23 19:24:43.93	228.95	13.70	-39.5	-42.1	19.5	0.00e+00	0	58	0	83886080	50	4901
2026-01-23 19:24:46.96	228.35	14.04	-39.3	-41.9	19.7	0.00e+00	0	58	0	87031808	50	4773
2026-01-23 19:24:49.98	227.73	14.39	-39.1	-41.6	20.0	0.00e+00	0	58	0	90701824	50	4635
2026-01-23 19:24:53.01	227.09	14.75	-39.3	-41.9	19.8	0.00e+00	0	58	0	93847552	50	4771
2026-01-23 19:24:56.04	226.43	15.11	-39.2	-41.8	19.9	0.00e+00	0	58	0	97517568	50	4711
2026-01-23 19:24:59.06	225.76	15.47	-38.8	-41.1	20.5	0.00e+00	0	58	0	100663296	49	4646
2026-01-23 19:25:02.09	225.05	15.84	-38.8	-41.2	20.5	0.00e+00	0	58	0	104333312	49	4666
2026-01-23 19:25:05.12	224.33	16.21	-38.7	-41.1	20.6	0.00e+00	0	58	0	107479040	49	4613
2026-01-23 19:25:08.15	223.58	16.59	-38.8	-41.2	20.6	0.00e+00	0	58	0	111149056	49	4666
2026-01-23 19:25:11.18	222.81	16.97	-38.6	-40.9	20.8	0.00e+00	0	59	0	114294784	48	4788
2026-01-23 19:25:14.21	222.02	17.35	-38.5	-40.7	21.0	0.00e+00	0	58	0	117964800	48	4683
2026-01-23 19:25:17.23	221.20	17.74	-38.6	-40.8	21.0	0.00e+00	0	58	0	121110528	48	4746
2026-01-23 19:25:20.26	220.35	18.13	-38.4	-40.5	21.3	0.00e+00	0	59	0	124780544	48	4580
2026-01-23 19:25:23.29	219.47	18.53	-38.0	-40.1	21.7	0.00e+00	0	59	0	127926272	48	4375
2026-01-23 19:25:26.32	218.57	18.93	-38.2	-40.3	21.4	0.00e+00	0	59	0	131596288	48	4493
2026-01-23 19:25:29.35	217.64	19.33	-38.5	-40.7	21.0	0.00e+00	0	59	0	134742016	48	4703
2026-01-23 19:25:32.38	216.67	19.73	-38.5	-40.8	21.1	0.00e+00	0	59	0	138412032	48	4709
2026-01-23 19:25:35.40	215.68	20.14	-37.8	-39.9	21.9	0.00e+00	0	59	0	141557760	47	4500
2026-01-23 19:25:38.43	214.65	20.54	-37.8	-39.8	21.9	0.00e+00	0	59	0	145227776	47	4488
2026-01-23 19:25:41.46	213.59	20.95	-38.2	-40.4	21.4	0.00e+00	0	59	0	148373504	47	4782
2026-01-23 19:25:44.49	212.49	21.36	-38.2	-40.4	21.5	0.00e+00	0	59	0	152043520	47	4760
2026-01-23 19:25:47.52	211.36	21.76	-37.7	-39.7	22.1	0.00e+00	0	59	0	155189248	47	4423
2026-01-23 19:25:50.55	210.19	22.17	-37.4	-39.3	22.5	0.00e+00	0	59	0	158859264	46	4468
2026-01-23 19:25:53.58	208.99	22.57	-37.4	-39.4	22.3	0.00e+00	0	59	0	162004992	46	4518
2026-01-23 19:25:56.61	207.74	22.97	-37.5	-39.5	22.2	0.00e+00	0	59	0	165675008	46	4566
2026-01-23 19:25:59.64	206.47	23.36	-37.3	-39.2	22.5	0.00e+00	0	59	0	168820736	46	4423
2026-01-23 19:26:02.66	205.15	23.75	-37.3	-39.2	22.6	0.00e+00	0	59	0	172490752	46	4393
2026-01-23 19:26:05.69	203.80	24.13	-37.2	-39.1	22.4	0.00e+00	0	59	0	175636480	46	4347
2026-01-23 19:26:08.72	202.40	24.50	-37.3	-39.2	22.6	0.00e+00	0	59	0	179306496	46	4412
2026-01-23 19:26:11.75	200.97	24.86	-36.9	-38.8	22.8	0.00e+00	0	59	0	182452224	45	4465
2026-01-23 19:26:14.78	199.50	25.21	-36.8	-38.6	22.1	0.00e+00	0	59	0	186122240	45	4389
2026-01-23 19:26:17.80	198.00	25.55	-36.7	-38.5	23.1	0.00e+00	0	59	0	189267968	45	4312
2026-01-23 19:26:20.83	196.46	25.87	-36.6	-38.3	23.3	0.00e+00	0	59	0	192937984	45	4231
2026-01-23 19:26:23.86	194.88	26.18	-36.6	-38.3	23.4	0.00e+00	0	59	0	196083712	44	4476
2026-01-23 19:26:26.89	193.26	26.47	-36.5	-38.3	23.4	0.00e+00	0	59	0	199753728	44	4455
2026-01-23 19:26:29.92	191.61	26.74	-36.4	-38.2	23.5	0.00e+00	0	59	0	202899456	44	4408
2026-01-23 19:26:32.95	189.93	27.00	-36.4	-38.1	23.6	0.00e+00	0	59	0	206569472	44	4372
2026-01-23 19:26:35.98	188.22	27.23	-36.0	-37.7	23.7	0.00e+00	0	59	0	209715200	43	4419
2026-01-23 19:26:39.01	186.49	27.43	-35.7	-37.4	24.1	0.00e+00	0	59	0	213385216	43	4273
2026-01-23 19:26:42.04	184.73	27.62	-36.0	-37.8	23.8	0.00e+00	0	59	0	216530944	43	4443
2026-01-23 19:26:45.07	182.95	27.77	-36.3	-38.1	23.5	0.00e+00	0	59	0	220200960	43	4600
2026-01-23 19:26:48.09	181.15	27.90	-36.4	-38.2	23.4	0.00e+00	0	60	0	223346688	43	4686
2026-01-23 19:26:51.12	179.34	28.01	-36.4	-38.2	23.4	0.00e+00	0	59	0	227016704	43	4689
2026-01-23 19:26:54.15	177.51	28.08	-36.6	-38.4	23.3	0.00e+00	0	59	0	230162432	43	4802
2026-01-23 19:26:57.18	175.68	28.13	-37.6	-39.5	22.8	0.00e+00	0	59	0	233832448	45	4824
2026-01-23 19:27:00.21	173.84	28.14	-37.2	-39.0	22.9	0.00e+00	0	59	0	236978176	45	4578
2026-01-23 19:27:03.24	172.01	28.13	-36.8	-38.6	23.2	0.00e+00	0	60	0	240648192	45	4389
2026-01-23 19:27:06.27	170.17	28.09	-36.4	-38.2	23.7	0.00e+00	0	60	0	243793920	44	4399
2026-01-23 19:27:09.30	168.35	28.02	-36.7	-38.4	23.5	0.00e+00	0	59	0	247463936	44	4533
2026-01-23 19:27:12.33	166.53	27.92	-36.8	-38.6	23.3	0.00e+00	0	59	0	250609664	44	4632
2026-01-23 19:27:15.36	164.73	27.79	-36.1	-37.8	24.1	0.00e+00	0	60	0	254279680	44	4216
2026-01-23 19:27:18.38	162.95	27.64	-36.9	-38.8	23.2	0.00e+00	0	59	0	257425408	44	4709
2026-01-23 19:27:21.41	161.19	27.46	-36.2	-37.9	24.0	0.00e+00	0	60	0	261095424	44	4264
2026-01-23 19:27:24.44	159.45	27.26	-36.3	-38.1	23.9	0.00e+00	0	59	0	264241152	44	4365
2026-01-23 19:27:27.46	157.74	27.03	-36.6	-38.4	23.5	0.00e+00	0	60	0	267911168	44	4534
2026-01-23 19:27:30.49	156.06	26.78	-36.6	-38.4	23.6	0.00e+00	0	60	0	271056896	44	4500
2026-01-23 19:27:33.52	154.41	26.52	-36.6	-38.4	23.6	0.00e+00	0	60	0	274726912	44	4524
2026-01-23 19:27:36.55	152.79	26.23	-36.5	-38.3	23.8	0.00e+00	0	60	0	277872640	44	4458
2026-01-23 19:27:39.58	151.20	25.92	-37.7	-39.7	22.4	0.00e+00	0	60	0	281542656	45	4970
2026-01-23 19:27:42.61	149.66	25.60	-37.4	-39.3	22.9	0.00e+00	0	59	0	284688384	46	4450
2026-01-23 19:27:45.63	148.15	25.27	-37.6	-39.7	22.5	0.00e+00	0	60	0	288358400	46	4654
2026-01-23 19:27:48.66	146.67	24.92	-37.6	-39.6	22.5	0.00e+00	0	60	0	291504128	46	4640
2026-01-23 19:27:51.69	145.24	24.56	-37.3	-39.3	22.8	0.00e+00	0	60	0	295174144	46	4447
2026-01-23 19:27:54.72	143.84	24.19	-37.6	-39.7	22.5	0.00e+00	0	60	0	298319872	46	4655
2026-01-23 19:27:57.75	142.48	23.81	-37.5	-39.5	22.6	0.00e+00	0	60	0	301989888	46	4552
2026-01-23 19:28:00.77	141.16	23.42	-37.2	-39.1	23.0	0.00e+00	0	60	0	305135616	46	4347
2026-01-23 19:28:03.80	139.88	23.03	-37.4	-39.3	22.7	0.00e+00	0	60	0	308805632	46	4490
2026-01-23 19:28:06.83	138.63	22.64	-37.8	-39.9	22.1	0.00e+00	0	60	0	311951360	46	4796
2026-01-23 19:28:09.86	137.42	22.23	-37.4	-39.4	22.7	0.00e+00	0	60	0	315621376	46	4511
2026-01-23 19:28:12.89	136.25	21.83	-37.8	-39.8	22.2	0.00e+00	0	60	0	318767104	46	4756
2026-01-23 19:28:15.93	135.11	21.43	-37.8	-39.9	22.1	0.00e+00	0	60	0	322437120	46	4769
2026-01-23 19:28:18.95	134.01	21.02	-38.0	-40.2	21.8	0.00e+00	0	60	0	325582848	46	4928
2026-01-23 19:28:21.98	132.95	20.61	-37.9	-40.0	22.0	0.00e+00	0	60	0	329252864	46	4837
2026-01-23 19:28:25.01	131.92	20.21	-38.3	-40.6	21.3	0.00e+00	0	60	0	332398592	47	4909
2026-01-23 19:28:28.04	130.92	19.80	-38.1	-40.2	21.7	0.00e+00	0	60	0	336068608	47	4694
2026-01-23 19:28:31.07	129.95	19.40	-38.1	-40.3	20.5	0.00e+00	0	60	0	339214336	46	5007
2026-01-23 19:28:34.10	129.01	19.00	-36.9	-40.2	20.6	3.40e-06	0	60	0	342884352	45	5259
2026-01-23 19:28:37.12	128.10	18.60	-38.3	-40.6	21.1	0.00e+00	0	60	0	346030080	47	4903
2026-01-23 19:28:40.15	127.22	18.20	-38.3	-40.6	18.9	0.00e+00	0	60	0	349700096	47	4898
2026-01-23 19:28:43.18	126.37	17.81	-38.4	-40.7	21.0	0.00e+00	0	60	0	352845824	47	4976
2026-01-23 19:28:46.21	125.55	17.42	-38.5	-40.9	20.7	0.00e+00	0	60	0	356515840	47	5095
2026-01-23 19:28:49.24	124.75	17.04	-38.7	-41.4	20.1	1.10e-06	0	60	0	359661568	48	5054
2026-01-23 19:28:52.26	123.98	16.66	-38.5	-41.3	19.7	0.00e+00	0	60	0	363331584	47	5306
2026-01-23 19:28:55.29	123.23	16.28	-38.7	-41.2	20.2	9.10e-06	0	60	0	366477312	47	5243
2026-01-23 19:28:58.32	122.50	15.91	-38.8	-41.8	19.2	1.10e-06	0	60	0	370147328	47	5605
2026-01-23 19:29:01.35	121.80	15.54	-37.7	-41.9	17.5	1.11e-04	0	60	0	373293056	47	5673
2026-01-23 19:29:04.38	121.12	15.17	-34.9	-41.6	15.3	9.09e-04	0	60	0	376963072	45	6192
2026-01-23 19:29:07.41	120.46	14.82	-37.8	-42.6	14.2	2.64e-03	0	60	0	380108800	45	6883
2026-01-23 19:29:10.44	119.81	14.46	-35.0	-42.6	13.3	5.97e-03	0	60	0	383778816	42	8190
2026-01-23 19:29:13.47	119.19	14.11	-35.4	-42.3	13.3	1.98e-02	0	60	0	386924544	40	8915
2026-01-23 19:29:16.49	118.59	13.77	-33.1	-41.8	13.0	9.16e-03	0	60	0	390594560	38	9434
2026-01-23 19:29:19.52	118.01	13.42	-36.8	-43.0	13.7	1.68e-02	0	60	0	393740288	40	9705
2026-01-23 19:29:22.55	117.44	13.09	-34.2	-42.9	15.3	1.54e-02	0	60	0	397410304	41	9008
2026-01-23 19:29:25.58	116.89	12.76	-32.0	-42.4	15.8	5.61e-03	0	60	0	400556032	40	8967
2026-01-23 19:29:28.61	116.35	12.43	-37.0	-42.7	15.2	4.31e-03	0	60	0	404226048	43	7822
2026-01-23 19:29:31.64	115.83	12.11	-32.8	-42.6	14.3	1.34e-02	0	60	0	407371776	41	8704
2026-01-23 19:29:34.66	115.33	11.79	-35.5	-43.1	11.4	1.93e-02	0	60	0	411041792	38	10986
2026-01-23 19:29:37.69	114.84	11.48	-33.5	-43.1	11.7	4.57e-02	0	60	0	414187520	38	10904
2026-01-23 19:29:40.72	114.36	11.17	-29.3	-42.2	9.7	1.17e-01	0	60	0	417857536	35	11698
2026-01-23 19:29:43.75	113.90	10.86	-30.8	-44.4	8.1	9.70e-02	0	60	0	421003264	32	17964
2026-01-23 19:29:46.78	113.45	10.56	-31.1	-45.4	7.1	3.46e-01	0	60	0	423624704	32	20250
2026-01-23 19:29:49.81	113.01	10.26	-31.7	-42.3	9.6	3.44e-01	0	60	0	426246144	32	14185
2026-01-23 19:29:52.83	112.59	9.97	-29.3	-43.1	8.2	2.97e-01	0	60	0	429391872	33	14690
2026-01-23 19:29:55.86	112.17	9.68	-28.9	-42.9	8.4	2.85e-01	0	60	0	432013312	32	15135
2026-01-23 19:29:58.89	111.77	9.40	-30.4	-42.5	8.6	2.73e-01	0	60	0	435159040	30	16247
2026-01-23 19:30:01.90	111.38	9.12	-32.9	-45.0	9.6	2.69e-01	0	60	0	437780480	38	13612
2026-01-23 19:30:04.93	111.00	8.84	-32.7	-44.4	10.0	2.22e-01	0	60	0	440926208	38	12745
2026-01-23 19:30:07.96	110.62	8.57	-33.7	-44.4	9.9	1.26e-01	0	61	0	444596224	39	12090
2026-01-23 19:30:10.98	110.26	8.30	-34.7	-44.6	10.1	1.26e-01	0	60	0	447741952	40	11673
2026-01-23 19:30:14.01	109.91	8.03	-34.0	-44.2	10.2	2.10e-01	0	60	0	450887680	38	12499
2026-01-23 19:30:17.04	109.56	7.77	-44.9	-63.1	3.8	8.46e-01	0	60	104	451936256	60	30867
2026-01-23 19:30:20.08	109.22	7.51	-45.4	-63.6	3.8	8.46e-01	0	61	104	451936256	61	31082
2026-01-23 19:30:23.11	108.90	7.25	-45.7	-64.0	3.8	8.46e-01	0	60	104	451936256	62	30657
2026-01-23 19:30:26.14	108.57	7.00	-45.5	-63.7	3.8	8.46e-01	0	60	104	451936256	62	29660
2026-01-23 19:30:29.17	108.26	6.75	-45.4	-63.5	3.8	8.45e-01	0	60	104	451936256	62	28705
2026-01-23 19:30:32.20	107.96	6.50	-45.2	-63.2	3.8	8.46e-01	0	60	104	451936256	61	29686
2026-01-23 19:30:35.23	107.66	6.26	-45.2	-63.2	3.8	8.46e-01	0	61	104	451936256	61	29648
2026-01-23 19:30:38.27	107.37	6.02	-45.1	-63.2	3.8	8.47e-01	0	61	104	451936256	61	29558
2026-01-23 19:30:41.30	107.08	5.78	-45.1	-63.2	3.8	8.47e-01	0	61	104	451936256	61	29628
2026-01-23 19:30:44.33	106.81	5.54	-45.1	-63.2	3.8	8.45e-01	0	61	104	451936256	61	29516
2026-01-23 19:30:47.36	106.54	5.31	-45.1	-63.2	3.8	8.46e-01	0	61	104	451936256	61	29532
2026-01-23 19:30:50.39	106.27	5.08	-45.1	-63.2	3.8	8.46e-01	0	61	104	451936256	61	29466
2026-01-23 19:30:53.42	106.01	4.85	-45.1	-63.2	3.8	8.46e-01	0	61	104	451936256	61	29490
2026-01-23 19:30:56.45	105.76	4.63	-45.1	-63.2	3.8	8.48e-01	0	61	104	451936256	61	29463
2026-01-23 19:30:59.48	105.51	4.41	-45.1	-63.2	3.8	8.47e-01	0	61	104	451936256	61	29532
2026-01-23 19:31:02.52	105.27	4.18	-45.1	-63.2	3.8	8.47e-01	0	60	104	451936256	61	29457
2026-01-23 19:31:05.55	105.03	3.97	-45.1	-63.2	3.8	8.45e-01	0	61	104	451936256	61	29440
2026-01-23 19:31:08.58	104.80	3.75	-45.1	-63.2	3.8	8.46e-01	0	61	104	451936256	60	31163
2026-01-23 19:31:11.61	104.58	3.54	-45.1	-63.2	3.8	8.46e-01	0	61	104	451936256	60	31256
2026-01-23 19:31:14.64	104.35	3.33	-45.1	-63.2	3.8	8.46e-01	0	61	104	451936256	60	31164
2026-01-23 19:31:17.68	104.14	3.12	-45.1	-63.2	3.8	8.46e-01	0	61	104	451936256	60	31179
2026-01-23 19:31:20.71	103.92	2.91	-45.1	-63.2	3.8	8.46e-01	0	61	104	451936256	60	31124
2026-01-23 19:31:23.74	103.72	2.70	-45.1	-63.2	3.8	8.46e-01	0	61	104	451936256	60	31175
2026-01-23 19:31:26.77	103.51	2.50	-45.1	-63.1	3.8	8.46e-01	0	61	104	451936256	60	31073
2026-01-23 19:31:29.80	103.31	2.30	-45.1	-63.2	3.8	8.46e-01	0	61	104	451936256	60	31203
2026-01-23 19:31:32.83	103.12	2.10	-45.1	-63.1	3.8	8.46e-01	0	61	104	451936256	60	31058

#Closed at: 2026-01-23 19:31:35
#Recorded file [451 MB]: D:/lorett/data/31039_260123_222227.dat