passes_logs/2026/01/23/R2.0S_Moscow/R2.0S_Moscow__20260123_222544_SUOMI_NPP_rec.log

#Pass ID: 20260123_222544_SUOMI NPP
#Satellite: SUOMI NPP
#Configuration: NPP
#almurnet v.1.7.20251203
#Start time: 2026-01-23 22:25:43

#Version: 2.2.20231116
#Station: R2.0S_Moscow
#Location: 37.707566 lon 55.798166 lat
#TLE: 1 37849U 11061A   26022.92790088  .00000200  00000+0  11571-3 0  9994
#TLE: 2 37849  98.7820 324.9085 0002258  50.1112 310.0263 14.19528452737839

#Time	Az	El	Level	Level2	SNR	BER	BlckErr	Temp	State	Recorded	gain1	gain2
2026-01-23 22:25:43.99	23.81	1.98	-42.7	-57.2	3.8	1.49e+00	0	52	0	0	57	18559
2026-01-23 22:25:48.03	24.07	2.21	-42.7	-57.2	3.8	1.49e+00	0	52	104	0	57	18546
2026-01-23 22:25:52.07	24.33	2.44	-42.7	-57.2	3.8	1.49e+00	0	52	104	0	57	18529
2026-01-23 22:25:56.11	24.59	2.67	-42.7	-57.1	3.8	1.49e+00	0	53	104	0	57	18510
2026-01-23 22:26:00.15	24.86	2.90	-42.7	-57.2	3.8	1.49e+00	0	53	104	0	57	18566
2026-01-23 22:26:04.19	25.13	3.13	-42.7	-57.1	3.8	1.49e+00	0	53	104	0	57	18472
2026-01-23 22:26:08.24	25.41	3.37	-42.6	-57.1	3.8	1.49e+00	0	53	104	0	57	18479
2026-01-23 22:26:12.28	25.69	3.61	-42.6	-57.1	3.8	1.49e+00	0	54	104	0	57	18475
2026-01-23 22:26:16.32	25.97	3.85	-42.6	-57.1	3.8	1.49e+00	0	54	104	0	57	18449
2026-01-23 22:26:20.36	26.26	4.09	-42.6	-57.2	3.8	1.49e+00	0	54	104	0	57	18522
2026-01-23 22:26:24.40	26.55	4.33	-42.7	-57.1	3.8	1.49e+00	0	54	104	0	57	18451
2026-01-23 22:26:28.44	26.85	4.58	-42.6	-57.1	3.8	1.49e+00	0	55	104	0	57	18511
2026-01-23 22:26:32.48	27.16	4.82	-42.6	-57.1	3.8	1.49e+00	0	55	104	0	57	18418
2026-01-23 22:26:36.53	27.46	5.07	-42.6	-57.1	3.8	1.49e+00	0	55	104	0	57	18492
2026-01-23 22:26:40.57	27.78	5.32	-42.6	-57.1	3.8	1.49e+00	0	55	104	0	57	18461
2026-01-23 22:26:44.61	28.09	5.57	-42.6	-57.1	3.8	1.49e+00	0	55	104	0	57	18489
2026-01-23 22:26:48.65	28.41	5.82	-42.6	-57.1	3.8	1.49e+00	0	56	104	0	57	18490
2026-01-23 22:26:52.70	28.74	6.08	-42.6	-57.1	3.8	1.49e+00	0	56	104	0	57	18384
2026-01-23 22:26:56.74	29.08	6.33	-42.6	-57.0	3.8	1.49e+00	0	56	104	0	57	18152
2026-01-23 22:27:00.77	29.41	6.59	-42.6	-56.7	3.8	1.49e+00	0	56	104	0	57	17634
2026-01-23 22:27:04.82	29.76	6.85	-42.6	-56.2	3.8	1.49e+00	0	56	104	0	57	16693
2026-01-23 22:27:08.86	30.11	7.11	-42.5	-55.4	3.8	1.47e+00	0	56	104	0	56	16062
2026-01-23 22:27:12.90	30.47	7.37	-42.3	-52.7	4.5	1.33e+00	0	57	0	0	56	11781
2026-01-23 22:27:16.95	30.83	7.64	-41.8	-49.9	5.9	3.99e-01	0	57	0	7340032	55	9023
2026-01-23 22:27:20.99	31.20	7.91	-41.1	-46.9	8.7	3.41e-02	0	57	0	14680064	54	6798
2026-01-23 22:27:25.03	31.57	8.18	-42.2	-50.3	6.0	1.42e-01	0	57	0	23068672	55	9421
2026-01-23 22:27:29.07	31.96	8.45	-41.6	-47.2	9.1	3.55e-02	0	57	0	27262976	55	6593
2026-01-23 22:27:33.10	32.34	8.72	-41.5	-46.8	9.5	1.64e-02	0	58	0	34603008	54	6671
2026-01-23 22:27:37.14	32.74	8.99	-41.5	-46.8	9.6	1.03e-02	0	58	0	41943040	54	6694
2026-01-23 22:27:41.18	33.14	9.27	-41.4	-46.1	10.6	5.47e-03	0	58	0	49283072	54	6159
2026-01-23 22:27:45.22	33.55	9.55	-41.5	-46.3	10.5	4.17e-03	0	58	0	56623104	54	6305
2026-01-23 22:27:49.26	33.97	9.83	-41.4	-46.0	10.9	2.65e-03	0	58	0	65011712	54	6081
2026-01-23 22:27:53.29	34.40	10.11	-41.5	-46.0	11.0	1.94e-03	0	58	0	72351744	54	6077
2026-01-23 22:27:57.33	34.83	10.39	-41.5	-46.0	11.1	2.54e-03	0	58	0	79691776	54	6070
2026-01-23 22:28:01.37	35.27	10.68	-41.7	-46.3	10.8	2.42e-03	0	58	0	87031808	54	6280
2026-01-23 22:28:05.41	35.72	10.97	-41.7	-46.2	10.9	2.30e-03	0	58	0	95420416	54	6232
2026-01-23 22:28:09.44	36.18	11.25	-41.6	-46.0	11.2	1.37e-03	0	58	0	102760448	54	6113
2026-01-23 22:28:13.48	36.65	11.55	-41.8	-46.4	10.9	2.11e-03	0	58	0	110100480	54	6414
2026-01-23 22:28:17.52	37.12	11.84	-41.9	-46.6	10.7	2.96e-03	0	58	0	117440512	54	6550
2026-01-23 22:28:21.56	37.61	12.13	-41.8	-46.3	11.0	2.19e-03	0	58	0	124780544	54	6340
2026-01-23 22:28:25.59	38.10	12.43	-41.8	-46.2	11.2	1.56e-03	0	59	0	133169152	54	6222
2026-01-23 22:28:29.63	38.61	12.73	-41.6	-45.8	11.7	6.35e-04	0	59	0	140509184	54	5924
2026-01-23 22:28:33.67	39.12	13.03	-41.4	-45.3	12.2	2.31e-04	0	59	0	147849216	54	5636
2026-01-23 22:28:37.71	39.65	13.33	-41.4	-45.2	12.3	1.46e-04	0	59	0	155189248	54	5581
2026-01-23 22:28:41.75	40.19	13.63	-41.4	-45.1	12.4	1.72e-04	0	59	0	163577856	54	5521
2026-01-23 22:28:45.79	40.73	13.94	-41.4	-45.1	12.4	1.41e-04	0	59	0	170917888	54	5516
2026-01-23 22:28:49.83	41.29	14.24	-41.4	-45.3	12.3	1.82e-04	0	59	0	178257920	54	5623
2026-01-23 22:28:53.86	41.86	14.55	-41.8	-45.9	11.7	5.35e-04	0	59	0	185597952	54	6059
2026-01-23 22:28:57.90	42.44	14.86	-41.8	-46.1	11.6	6.79e-04	0	59	0	192937984	54	6148
2026-01-23 22:29:01.94	43.03	15.17	-41.6	-45.6	12.0	4.36e-04	0	59	0	201326592	54	5817
2026-01-23 22:29:05.97	43.63	15.48	-41.4	-45.2	12.4	1.47e-04	0	59	0	208666624	54	5549
2026-01-23 22:29:10.01	44.25	15.79	-41.3	-44.9	12.8	6.02e-05	0	59	0	216006656	54	5372
2026-01-23 22:29:14.05	44.88	16.11	-41.2	-44.7	13.0	3.28e-05	0	59	0	223346688	54	5279
2026-01-23 22:29:18.09	45.52	16.42	-40.9	-44.2	13.5	1.60e-05	0	60	0	230686720	53	5221
2026-01-23 22:29:22.13	46.17	16.73	-41.2	-44.8	13.1	2.28e-05	0	60	0	239075328	53	5606
2026-01-23 22:29:26.17	46.84	17.05	-41.5	-45.2	12.6	1.05e-04	0	59	0	246415360	53	5863
2026-01-23 22:29:30.20	47.52	17.36	-41.3	-44.9	12.8	5.26e-05	0	60	0	253755392	53	5695
2026-01-23 22:29:34.25	48.22	17.68	-41.5	-45.1	12.6	7.85e-05	0	59	0	261095424	53	5840
2026-01-23 22:29:38.29	48.93	18.00	-41.2	-44.7	13.1	4.34e-05	0	60	0	269484032	53	5542
2026-01-23 22:29:42.32	49.66	18.31	-40.9	-44.2	13.7	9.10e-06	0	60	0	276824064	53	5228
2026-01-23 22:29:46.36	50.40	18.63	-40.7	-43.8	14.1	1.50e-06	0	60	0	284164096	53	4985
2026-01-23 22:29:50.40	51.15	18.94	-40.6	-43.5	14.4	0.00e+00	0	60	0	291504128	52	5135
2026-01-23 22:29:54.44	51.92	19.25	-40.5	-43.4	14.5	0.00e+00	0	60	0	298844160	52	5067
2026-01-23 22:29:58.47	52.71	19.57	-40.3	-43.0	14.9	0.00e+00	0	60	0	307232768	52	4843
2026-01-23 22:30:02.51	53.51	19.88	-40.3	-43.1	14.7	0.00e+00	0	60	0	314572800	52	4920
2026-01-23 22:30:06.55	54.33	20.19	-40.5	-43.4	14.4	0.00e+00	0	60	0	321912832	52	5092
2026-01-23 22:30:10.59	55.16	20.49	-40.6	-43.5	14.4	7.00e-07	0	60	0	329252864	52	5159
2026-01-23 22:30:14.63	56.01	20.80	-40.4	-43.3	14.6	0.00e+00	0	60	0	337641472	52	5004
2026-01-23 22:30:18.66	56.88	21.10	-40.4	-43.2	14.7	0.00e+00	0	60	0	344981504	52	4968
2026-01-23 22:30:22.70	57.76	21.40	-40.8	-43.9	14.0	1.50e-06	0	60	0	352321536	52	5361
2026-01-23 22:30:26.74	58.66	21.69	-40.8	-43.8	14.0	4.50e-06	0	60	0	359661568	52	5315
2026-01-23 22:30:30.78	59.58	21.99	-41.0	-44.2	13.7	3.80e-06	0	60	0	367001600	52	5575
2026-01-23 22:30:34.81	60.51	22.27	-40.8	-43.9	14.1	7.00e-07	0	60	0	375390208	52	5349
2026-01-23 22:30:38.85	61.47	22.56	-41.4	-45.1	12.8	6.02e-05	0	60	0	382730240	53	5795
2026-01-23 22:30:42.89	62.44	22.83	-40.9	-44.1	13.8	3.80e-06	0	60	0	390070272	53	5168
2026-01-23 22:30:46.93	63.42	23.11	-41.5	-45.2	12.6	9.46e-05	0	60	0	397410304	53	5900
2026-01-23 22:30:50.97	64.42	23.37	-41.5	-45.1	12.8	6.33e-05	0	60	0	405798912	53	5800
2026-01-23 22:30:55.01	65.44	23.63	-41.9	-46.0	11.9	3.71e-04	0	60	0	413138944	54	6066
2026-01-23 22:30:59.05	66.48	23.89	-41.7	-45.5	12.4	1.17e-04	0	61	0	420478976	54	5742
2026-01-23 22:31:03.06	67.53	24.13	-42.4	-47.0	10.9	1.40e-03	0	60	0	427819008	55	6453
2026-01-23 22:31:07.10	68.59	24.37	-42.6	-47.3	10.5	3.53e-03	0	60	0	435159040	55	6716
2026-01-23 22:31:11.14	69.68	24.60	-41.7	-45.5	12.4	1.33e-04	0	60	0	443547648	55	5438
2026-01-23 22:31:15.18	70.78	24.82	-43.1	-48.5	9.4	1.03e-02	0	60	0	450887680	56	7286
2026-01-23 22:31:19.22	71.89	25.04	-43.1	-48.5	9.5	1.41e-02	0	61	0	458227712	56	7220
2026-01-23 22:31:23.25	73.02	25.24	-42.8	-47.7	10.4	5.57e-03	0	61	0	465567744	56	6593
2026-01-23 22:31:27.29	74.17	25.43	-43.0	-48.2	9.8	7.66e-03	0	60	0	472907776	56	6998
2026-01-23 22:31:31.33	75.32	25.61	-43.0	-48.2	9.8	1.16e-02	0	61	0	481296384	57	6620
2026-01-23 22:31:35.37	76.49	25.78	-43.4	-49.4	8.5	3.73e-02	0	61	0	488636416	57	7595
2026-01-23 22:31:39.40	77.67	25.94	-42.8	-47.7	10.3	5.11e-03	0	61	0	495976448	57	6222
2026-01-23 22:31:43.44	78.87	26.09	-42.5	-47.0	11.1	1.58e-03	0	60	0	503316480	56	6087
2026-01-23 22:31:47.48	80.07	26.22	-42.8	-47.8	10.2	3.87e-03	0	60	0	511705088	56	6653
2026-01-23 22:31:51.52	81.28	26.34	-42.8	-47.7	10.4	4.72e-03	0	61	0	519045120	56	6588
2026-01-23 22:31:55.56	82.51	26.45	-42.5	-46.9	11.3	1.02e-03	0	61	0	526385152	56	6003
2026-01-23 22:31:59.60	83.74	26.55	-42.8	-47.7	10.4	5.18e-03	0	61	0	533725184	56	6604
2026-01-23 22:32:03.64	84.98	26.63	-42.4	-46.7	11.5	7.57e-04	0	61	0	541065216	56	5900
2026-01-23 22:32:07.68	86.22	26.70	-42.5	-46.9	11.3	1.70e-03	0	61	0	549453824	56	6036
2026-01-23 22:32:11.72	87.47	26.75	-42.7	-47.4	10.7	2.31e-03	0	61	0	556793856	56	6384
2026-01-23 22:32:15.76	88.72	26.79	-42.3	-46.4	11.8	4.32e-04	0	61	0	564133888	56	5665
2026-01-23 22:32:19.79	89.97	26.82	-42.8	-47.5	10.6	3.99e-03	0	61	0	571473920	56	6494
2026-01-23 22:32:23.83	91.23	26.83	-42.5	-46.8	11.4	8.93e-04	0	61	0	579862528	56	5959
2026-01-23 22:32:27.87	92.48	26.83	-42.3	-46.3	11.9	3.90e-04	0	61	0	587202560	56	5614
2026-01-23 22:32:31.91	93.74	26.81	-42.9	-47.7	10.5	3.50e-03	0	61	0	594542592	56	6613
2026-01-23 22:32:35.95	94.99	26.77	-42.6	-46.9	11.2	1.78e-03	0	61	0	601882624	56	6044
2026-01-23 22:32:39.99	96.24	26.73	-42.3	-46.4	11.9	3.29e-04	0	61	0	609222656	56	5668
2026-01-23 22:32:44.03	97.49	26.67	-42.0	-45.8	12.5	1.65e-04	0	61	0	617611264	56	5300
2026-01-23 22:32:48.06	98.73	26.59	-42.0	-46.0	12.2	2.52e-04	0	61	0	624951296	55	5744
2026-01-23 22:32:52.10	99.97	26.50	-41.5	-45.0	13.1	4.57e-05	0	61	0	632291328	55	5117
2026-01-23 22:32:56.14	101.19	26.40	-42.2	-46.3	11.8	1.62e-04	0	61	0	639631360	54	6309
2026-01-23 22:33:00.18	102.41	26.28	-42.3	-46.6	11.4	1.16e-03	0	61	0	648019968	55	6169
2026-01-23 22:33:04.21	103.62	26.16	-41.5	-45.0	13.1	5.49e-05	0	61	0	655360000	55	5121
2026-01-23 22:33:08.25	104.82	26.01	-40.9	-43.8	14.3	1.50e-06	0	61	0	662700032	53	5021
2026-01-23 22:33:12.29	106.01	25.86	-41.7	-45.2	13.0	5.26e-05	0	61	0	670040064	54	5556
2026-01-23 22:33:16.33	107.19	25.69	-41.0	-44.1	14.0	4.50e-06	0	61	0	677380096	54	4890
2026-01-23 22:33:20.37	108.36	25.52	-40.8	-43.7	14.4	2.20e-06	0	61	0	685768704	53	4972
2026-01-23 22:33:24.41	109.51	25.33	-40.3	-42.9	15.2	0.00e+00	0	61	0	693108736	52	4811
2026-01-23 22:33:28.45	110.65	25.13	-41.1	-44.3	13.8	3.00e-06	0	61	0	700448768	52	5627
2026-01-23 22:33:32.49	111.78	24.92	-40.7	-43.5	14.6	7.00e-07	0	61	0	707788800	53	4862
2026-01-23 22:33:36.53	112.89	24.70	-40.6	-43.4	14.7	0.00e+00	0	61	0	716177408	52	5073
2026-01-23 22:33:40.57	113.99	24.48	-40.8	-43.8	14.3	1.50e-06	0	61	0	723517440	52	5310
2026-01-23 22:33:44.61	115.07	24.24	-40.6	-43.4	14.8	0.00e+00	0	61	0	730857472	52	5043
2026-01-23 22:33:48.65	116.13	24.00	-40.8	-43.7	14.4	7.00e-07	0	61	0	738197504	52	5251
2026-01-23 22:33:52.68	117.17	23.75	-40.8	-43.7	14.4	0.00e+00	0	61	0	745537536	52	5278
2026-01-23 22:33:56.72	118.21	23.49	-41.5	-44.9	13.1	3.05e-05	0	61	0	753926144	53	5710
2026-01-23 22:34:00.76	119.22	23.22	-41.0	-44.2	13.9	6.80e-06	0	61	0	761266176	53	5235
2026-01-23 22:34:04.80	120.22	22.95	-40.9	-43.9	14.2	7.00e-07	0	61	0	768606208	53	5090
2026-01-23 22:34:08.84	121.20	22.67	-41.1	-44.2	13.9	1.50e-06	0	61	0	775946240	53	5261
2026-01-23 22:34:12.87	122.16	22.39	-41.3	-44.7	13.4	6.10e-06	0	61	0	784334848	53	5532
2026-01-23 22:34:16.91	123.11	22.10	-41.3	-44.7	13.3	1.06e-05	0	61	0	791674880	53	5558
2026-01-23 22:34:20.95	124.04	21.81	-41.2	-44.5	13.5	1.06e-05	0	61	0	799014912	53	5460
2026-01-23 22:34:24.99	124.95	21.51	-41.6	-45.4	12.7	5.64e-05	0	61	0	806354944	53	5999
2026-01-23 22:34:29.02	125.84	21.22	-41.6	-45.3	12.7	1.23e-04	0	61	0	813694976	54	5623
2026-01-23 22:34:33.06	126.72	20.91	-40.8	-43.7	14.3	7.00e-07	0	61	0	822083584	53	4972
2026-01-23 22:34:37.10	127.58	20.61	-41.4	-45.0	13.0	1.98e-05	0	61	0	829423616	53	5741
2026-01-23 22:34:41.14	128.43	20.30	-41.9	-45.8	12.2	1.89e-04	0	61	0	836763648	54	5965
2026-01-23 22:34:45.17	129.25	19.99	-41.4	-44.9	13.0	4.34e-05	0	61	0	844103680	54	5386
2026-01-23 22:34:49.21	130.07	19.68	-40.7	-43.6	14.3	1.83e-05	0	61	0	852492288	52	5216
2026-01-23 22:34:53.25	130.86	19.36	-41.8	-45.7	12.1	9.28e-04	0	61	0	859832320	54	5871
2026-01-23 22:34:57.29	131.64	19.05	-41.3	-44.8	12.8	9.75e-04	0	61	0	867172352	53	5653
2026-01-23 22:35:01.33	132.41	18.73	-41.2	-44.7	13.0	1.01e-03	0	61	0	874512384	52	5868
2026-01-23 22:35:05.37	133.16	18.41	-40.8	-44.0	13.9	1.55e-02	0	61	0	881852416	52	5427
2026-01-23 22:35:09.41	133.89	18.09	-40.9	-44.1	13.7	3.04e-02	0	61	0	890241024	52	5475
2026-01-23 22:35:13.44	134.61	17.78	-41.2	-44.6	13.2	3.78e-04	0	61	0	897581056	53	5486
2026-01-23 22:35:17.48	135.32	17.46	-41.3	-44.9	12.9	8.67e-03	0	61	0	904921088	53	5696
2026-01-23 22:35:21.51	136.01	17.14	-41.9	-46.2	11.6	1.13e-03	0	61	0	912261120	54	6241
2026-01-23 22:35:25.55	136.68	16.82	-41.3	-45.0	12.8	2.42e-04	0	61	0	920649728	53	5743
2026-01-23 22:35:29.59	137.35	16.50	-41.0	-44.4	13.4	9.07e-05	0	61	0	927989760	52	5699
2026-01-23 22:35:33.63	138.00	16.19	-40.9	-44.1	13.6	2.03e-04	0	61	0	935329792	52	5508
2026-01-23 22:35:37.67	138.63	15.87	-40.8	-43.9	13.8	2.89e-05	0	61	0	942669824	52	5393
2026-01-23 22:35:41.70	139.25	15.56	-41.2	-44.8	13.0	3.66e-05	0	61	0	950009856	52	5944
2026-01-23 22:35:45.74	139.86	15.24	-41.6	-45.6	12.1	2.45e-04	0	61	0	958398464	53	6176
2026-01-23 22:35:49.78	140.46	14.93	-41.6	-45.6	12.1	3.63e-04	0	61	0	965738496	54	5804
2026-01-23 22:35:53.82	141.05	14.62	-41.4	-45.2	12.6	1.17e-04	0	61	0	973078528	54	5529
2026-01-23 22:35:57.86	141.62	14.31	-41.1	-44.7	13.0	4.34e-05	0	61	0	980418560	54	5254
2026-01-23 22:36:01.90	142.19	14.00	-41.0	-44.5	13.2	3.43e-05	0	61	0	988807168	53	5414
2026-01-23 22:36:05.93	142.74	13.69	-40.9	-44.4	13.3	1.37e-05	0	61	0	996147200	53	5350
2026-01-23 22:36:09.97	143.28	13.38	-41.4	-45.2	12.4	1.46e-04	0	61	0	1003487232	53	5863
2026-01-23 22:36:14.01	143.81	13.08	-41.8	-46.0	11.5	6.86e-04	0	61	0	1010827264	54	6125
2026-01-23 22:36:18.04	144.33	12.77	-41.6	-45.7	11.8	5.00e-04	0	61	0	1018167296	54	5870
2026-01-23 22:36:22.08	144.84	12.47	-41.4	-45.2	12.3	2.01e-04	0	61	0	1026555904	54	5588
2026-01-23 22:36:26.12	145.34	12.17	-41.8	-46.1	11.4	8.77e-04	0	61	0	1033895936	54	6176
2026-01-23 22:36:30.16	145.83	11.87	-41.9	-46.4	11.0	1.98e-03	0	61	0	1041235968	54	6369
2026-01-23 22:36:34.20	146.31	11.58	-41.9	-46.4	11.0	2.02e-03	0	61	0	1048576000	54	6404
2026-01-23 22:36:38.24	146.78	11.28	-41.6	-45.8	11.5	8.24e-04	0	61	0	1055916032	54	5972
2026-01-23 22:36:42.27	147.24	10.99	-41.9	-46.6	10.6	2.83e-03	0	61	0	1064304640	54	6560
2026-01-23 22:36:46.31	147.69	10.70	-41.8	-46.4	10.8	2.26e-03	0	61	0	1071644672	54	6402
2026-01-23 22:36:50.35	148.14	10.41	-41.7	-46.2	11.0	1.89e-03	0	61	0	1078984704	54	6256
2026-01-23 22:36:54.39	148.57	10.12	-41.6	-46.0	11.2	1.22e-03	0	61	0	1086324736	54	6116
2026-01-23 22:36:58.42	149.00	9.84	-41.8	-46.7	10.4	5.22e-03	0	61	0	1094713344	54	6581
2026-01-23 22:37:02.46	149.42	9.56	-42.1	-47.5	9.5	1.07e-02	0	61	0	1102053376	54	7256
2026-01-23 22:37:06.50	149.83	9.27	-42.1	-47.7	9.2	2.29e-02	0	62	0	1109393408	54	7436
2026-01-23 22:37:10.54	150.24	8.99	-42.0	-47.4	9.5	1.73e-02	0	61	0	1116733440	54	7186
2026-01-23 22:37:14.58	150.64	8.72	-41.7	-46.8	10.1	8.55e-03	0	61	0	1124073472	54	6651
2026-01-23 22:37:18.62	151.03	8.44	-41.6	-46.4	10.4	4.47e-03	0	61	0	1132462080	54	6419
2026-01-23 22:37:22.66	151.41	8.17	-41.4	-46.2	10.6	3.63e-03	0	61	0	1139802112	54	6203
2026-01-23 22:37:26.70	151.79	7.90	-44.5	-59.0	3.8	1.49e+00	0	61	104	1146093568	59	20331
2026-01-23 22:37:30.74	152.16	7.63	-45.4	-60.1	3.8	1.49e+00	0	61	104	1146093568	61	20664
2026-01-23 22:37:34.79	152.52	7.36	-45.5	-60.2	3.8	1.49e+00	0	61	104	1146093568	61	20911
2026-01-23 22:37:38.83	152.88	7.09	-45.3	-59.9	3.8	1.49e+00	0	61	104	1146093568	61	20152
2026-01-23 22:37:42.87	153.23	6.83	-45.2	-59.7	3.8	1.49e+00	0	61	104	1146093568	61	19835
2026-01-23 22:37:46.91	153.57	6.56	-45.1	-59.7	3.8	1.49e+00	0	61	104	1146093568	61	19787
2026-01-23 22:37:50.95	153.91	6.30	-45.1	-59.7	3.8	1.49e+00	0	61	104	1146093568	61	19785
2026-01-23 22:37:55.00	154.25	6.04	-45.1	-59.7	3.8	1.49e+00	0	61	104	1146093568	61	19775
2026-01-23 22:37:59.04	154.57	5.79	-45.1	-59.7	3.8	1.49e+00	0	61	104	1146093568	61	19694
2026-01-23 22:38:03.08	154.90	5.53	-45.1	-59.7	3.8	1.49e+00	0	61	104	1146093568	61	19700
2026-01-23 22:38:07.12	155.21	5.28	-45.1	-59.7	3.8	1.49e+00	0	61	104	1146093568	61	19680
2026-01-23 22:38:11.17	155.52	5.02	-45.1	-59.7	3.8	1.49e+00	0	61	104	1146093568	61	19663
2026-01-23 22:38:15.21	155.83	4.77	-45.1	-59.6	3.8	1.49e+00	0	61	104	1146093568	61	19614
2026-01-23 22:38:19.25	156.13	4.53	-45.1	-59.7	3.8	1.49e+00	0	61	104	1146093568	61	19650
2026-01-23 22:38:23.29	156.43	4.28	-45.1	-59.7	3.8	1.49e+00	0	62	104	1146093568	61	19630
2026-01-23 22:38:27.34	156.72	4.03	-45.0	-59.6	3.8	1.49e+00	0	61	104	1146093568	61	19605
2026-01-23 22:38:31.38	157.01	3.79	-45.1	-59.6	3.8	1.49e+00	0	61	104	1146093568	61	19607
2026-01-23 22:38:35.42	157.29	3.55	-45.0	-59.7	3.8	1.49e+00	0	61	104	1146093568	61	19632
2026-01-23 22:38:39.46	157.57	3.31	-45.0	-59.6	3.8	1.49e+00	0	61	104	1146093568	61	19524
2026-01-23 22:38:43.50	157.84	3.07	-45.0	-59.6	3.8	1.49e+00	0	61	104	1146093568	61	19598
2026-01-23 22:38:47.55	158.11	2.83	-45.0	-59.6	3.8	1.49e+00	0	61	104	1146093568	61	19562
2026-01-23 22:38:51.58	158.38	2.60	-45.0	-59.6	3.8	1.49e+00	0	61	104	1146093568	61	19563
2026-01-23 22:38:55.62	158.64	2.36	-45.0	-59.6	3.8	1.49e+00	0	61	104	1146093568	61	19554
2026-01-23 22:38:59.67	158.90	2.13	-45.0	-59.6	3.8	1.49e+00	0	61	104	1146093568	61	19520
2026-01-23 22:39:03.71	159.15	1.90	-45.0	-59.6	3.8	1.49e+00	0	61	104	1146093568	61	19509

#Closed at: 2026-01-23 22:39:04
#Recorded file [1146 MB]: D:/lorett/data/31039_260124_012543.dat