passes_logs/2026/01/23/R2.0S_Moscow/R2.0S_Moscow__20260123_044608_FENGYUN_3E_rec.log

#Pass ID: 20260123_044608_FENGYUN 3E
#Satellite: FENGYUN 3E
#Configuration: FENGYUN 3E
#almurnet v.1.7.20251203
#Start time: 2026-01-23 04:46:08

#Version: 2.2.20231116
#Station: R2.0S_Moscow
#Location: 37.707566 lon 55.798166 lat
#TLE: 1 49008U 21062A   26022.47529509  .00000460  00000+0  23724-3 0  9995
#TLE: 2 49008  98.7486  27.5157 0002334 123.7692 236.3707 14.19888297235908

#Time	Az	El	Level	Level2	SNR	BER	BlckErr	Temp	State	Recorded	gain1	gain2
2026-01-23 04:46:08.15	12.91	1.98	-40.7	-51.4	3.8	8.46e-01	0	51	0	0	52	12062
2026-01-23 04:46:12.19	12.78	2.23	-40.7	-51.4	3.8	8.46e-01	0	52	104	0	52	12085
2026-01-23 04:46:16.23	12.65	2.49	-40.7	-51.4	3.8	8.46e-01	0	52	104	0	52	12055
2026-01-23 04:46:20.27	12.52	2.74	-40.7	-51.4	3.8	8.46e-01	0	52	104	0	52	12081
2026-01-23 04:46:24.31	12.38	3.00	-40.7	-51.5	3.8	8.47e-01	0	53	104	0	52	12099
2026-01-23 04:46:28.34	12.25	3.26	-40.7	-51.4	3.8	8.46e-01	0	53	104	0	52	12064
2026-01-23 04:46:32.38	12.11	3.52	-40.7	-51.5	3.8	8.47e-01	0	53	104	0	52	12097
2026-01-23 04:46:36.42	11.96	3.79	-40.7	-51.4	3.8	8.46e-01	0	53	104	0	52	12010
2026-01-23 04:46:40.46	11.82	4.06	-40.6	-51.3	3.8	8.46e-01	0	54	104	0	52	11951
2026-01-23 04:46:44.49	11.67	4.32	-40.6	-51.1	3.8	8.45e-01	0	54	104	0	52	11585
2026-01-23 04:46:48.53	11.52	4.60	-40.6	-50.9	3.8	8.46e-01	0	54	104	0	52	11328
2026-01-23 04:46:52.57	11.36	4.87	-40.6	-51.1	3.8	8.46e-01	0	55	104	0	52	11574
2026-01-23 04:46:56.61	11.20	5.15	-40.6	-51.2	3.8	8.46e-01	0	55	104	0	52	11798
2026-01-23 04:47:00.65	11.04	5.43	-40.6	-51.4	3.8	8.47e-01	0	55	104	0	52	11980
2026-01-23 04:47:04.69	10.88	5.71	-40.6	-51.3	3.8	8.46e-01	0	55	104	0	52	11854
2026-01-23 04:47:08.73	10.71	6.00	-40.6	-51.2	3.8	8.46e-01	0	55	104	0	52	11774
2026-01-23 04:47:12.77	10.53	6.29	-40.6	-51.2	3.8	8.46e-01	0	56	104	0	52	11780
2026-01-23 04:47:16.81	10.36	6.58	-40.6	-51.3	3.8	8.46e-01	0	56	104	0	52	11898
2026-01-23 04:47:20.85	10.18	6.87	-40.6	-51.3	3.8	8.46e-01	0	56	104	0	52	11949
2026-01-23 04:47:24.89	9.99	7.17	-40.6	-51.4	3.8	8.45e-01	0	56	104	0	52	11999
2026-01-23 04:47:28.94	9.80	7.47	-40.6	-51.4	3.8	8.46e-01	0	56	104	0	52	12050
2026-01-23 04:47:32.98	9.61	7.78	-40.6	-51.3	3.8	8.46e-01	0	56	104	0	52	11930
2026-01-23 04:47:37.02	9.41	8.09	-40.5	-51.3	3.8	8.46e-01	0	57	104	0	52	11847
2026-01-23 04:47:41.06	9.21	8.40	-40.5	-51.2	3.8	8.47e-01	0	57	104	0	51	12488
2026-01-23 04:47:45.09	9.01	8.71	-40.5	-51.2	3.8	8.46e-01	0	57	104	0	51	12495
2026-01-23 04:47:49.13	8.79	9.03	-40.4	-51.2	3.8	8.45e-01	0	57	104	0	51	12460
2026-01-23 04:47:53.17	8.58	9.35	-40.4	-51.1	3.8	8.47e-01	0	57	104	0	51	12349
2026-01-23 04:47:57.21	8.36	9.68	-40.3	-51.1	3.8	8.46e-01	0	57	104	0	51	12287
2026-01-23 04:48:01.24	8.13	10.01	-40.4	-51.1	3.8	8.46e-01	0	57	104	0	51	12287
2026-01-23 04:48:05.28	7.90	10.34	-40.6	-51.3	3.8	8.45e-01	0	58	104	0	51	12551
2026-01-23 04:48:09.32	7.66	10.68	-40.4	-51.1	3.8	8.47e-01	0	58	104	0	51	12241
2026-01-23 04:48:13.36	7.41	11.02	-40.9	-51.5	3.8	8.46e-01	0	58	104	0	51	12915
2026-01-23 04:48:17.40	7.16	11.37	-41.4	-51.1	3.8	8.46e-01	0	58	104	0	53	10956
2026-01-23 04:48:21.44	6.91	11.72	-40.9	-45.8	6.3	2.69e-01	0	58	0	8388608	52	6301
2026-01-23 04:48:25.47	6.64	12.07	-39.4	-42.8	9.0	3.38e-02	0	58	0	37748736	49	5300
2026-01-23 04:48:29.51	6.37	12.43	-37.9	-40.2	11.9	7.23e-04	0	58	0	55574528	46	4683
2026-01-23 04:48:33.55	6.09	12.80	-36.8	-38.6	13.9	0.00e+00	0	58	0	84934656	44	4378
2026-01-23 04:48:37.59	5.81	13.17	-37.5	-39.5	13.1	3.54e-05	0	59	0	114294784	44	4858
2026-01-23 04:48:41.63	5.52	13.54	-37.2	-39.1	13.8	0.00e+00	0	59	0	143654912	45	4365
2026-01-23 04:48:45.66	5.22	13.92	-37.5	-39.4	13.7	8.00e-06	0	59	0	173015040	45	4511
2026-01-23 04:48:49.70	4.91	14.30	-37.4	-39.2	14.2	0.00e+00	0	59	0	201326592	45	4417
2026-01-23 04:48:53.74	4.59	14.69	-37.2	-38.9	14.7	0.00e+00	0	59	0	230686720	45	4255
2026-01-23 04:48:57.78	4.26	15.09	-37.1	-38.8	15.0	0.00e+00	0	59	0	260046848	45	4196
2026-01-23 04:49:01.82	3.93	15.49	-37.1	-38.7	15.3	0.00e+00	0	59	0	289406976	44	4395
2026-01-23 04:49:05.85	3.58	15.90	-37.1	-38.6	15.4	0.00e+00	0	59	0	317718528	44	4357
2026-01-23 04:49:09.90	3.23	16.31	-37.0	-38.6	15.5	0.00e+00	0	59	0	347078656	44	4354
2026-01-23 04:49:13.93	2.86	16.73	-37.2	-38.7	15.5	0.00e+00	0	59	0	376438784	44	4420
2026-01-23 04:49:17.98	2.48	17.15	-37.0	-38.6	15.7	0.00e+00	0	59	0	405798912	44	4346
2026-01-23 04:49:22.02	2.10	17.58	-37.0	-38.5	15.9	0.00e+00	0	59	0	435159040	44	4298
2026-01-23 04:49:26.06	1.70	18.02	-36.9	-38.4	16.1	0.00e+00	0	59	0	464519168	44	4267
2026-01-23 04:49:30.10	1.28	18.46	-36.6	-38.0	16.5	0.00e+00	0	59	0	492830720	44	4082
2026-01-23 04:49:34.13	0.86	18.91	-36.1	-37.4	16.9	0.00e+00	0	59	0	522190848	43	4022
2026-01-23 04:49:38.17	0.42	19.36	-36.0	-37.3	17.1	0.00e+00	0	59	0	551550976	42	4200
2026-01-23 04:49:42.21	359.97	19.83	-35.8	-37.1	17.3	0.00e+00	0	59	0	580911104	42	4104
2026-01-23 04:49:46.24	359.51	20.29	-35.9	-37.2	17.2	0.00e+00	0	59	0	609222656	42	4167
2026-01-23 04:49:50.28	359.03	20.77	-35.9	-37.2	17.2	0.00e+00	0	59	0	638582784	42	4166
2026-01-23 04:49:54.32	358.53	21.25	-35.7	-37.0	17.3	0.00e+00	0	60	0	667942912	42	4079
2026-01-23 04:49:58.36	358.02	21.74	-35.4	-36.6	17.7	0.00e+00	0	60	0	697303040	41	4110
2026-01-23 04:50:02.40	357.49	22.24	-35.4	-36.6	17.7	0.00e+00	0	60	0	726663168	40	4357
2026-01-23 04:50:06.43	356.94	22.74	-35.6	-36.9	17.4	0.00e+00	0	60	0	754974720	40	4521
2026-01-23 04:50:10.47	356.38	23.25	-35.8	-37.1	17.3	0.00e+00	0	60	0	784334848	41	4352
2026-01-23 04:50:14.51	355.79	23.77	-35.8	-37.0	17.3	0.00e+00	0	60	0	813694976	42	4083
2026-01-23 04:50:18.55	355.18	24.30	-35.8	-37.0	17.4	0.00e+00	0	60	0	843055104	41	4316
2026-01-23 04:50:22.59	354.56	24.83	-35.6	-36.9	17.6	0.00e+00	0	60	0	872415232	41	4261
2026-01-23 04:50:26.63	353.91	25.37	-35.9	-37.2	17.3	0.00e+00	0	60	0	900726784	41	4394
2026-01-23 04:50:30.67	353.23	25.92	-36.0	-37.2	17.3	0.00e+00	0	60	0	930086912	41	4437
2026-01-23 04:50:34.71	352.54	26.47	-35.9	-37.2	17.4	0.00e+00	0	60	0	959447040	42	4166
2026-01-23 04:50:38.75	351.82	27.03	-36.1	-37.3	17.3	0.00e+00	0	60	0	988807168	42	4235
2026-01-23 04:50:42.78	351.07	27.60	-35.8	-37.0	17.7	0.00e+00	0	60	0	1018167296	42	4078
2026-01-23 04:50:46.82	350.29	28.17	-35.6	-36.8	17.9	0.00e+00	0	60	0	1047527424	41	4203
2026-01-23 04:50:50.86	349.49	28.75	-35.2	-36.3	18.4	0.00e+00	0	60	0	1075838976	41	3993
2026-01-23 04:50:54.90	348.65	29.33	-35.1	-36.3	18.5	0.00e+00	0	60	0	1105199104	40	4199
2026-01-23 04:50:58.94	347.78	29.92	-35.2	-36.4	18.4	0.00e+00	0	60	0	1134559232	40	4264
2026-01-23 04:51:02.97	346.89	30.51	-35.3	-36.5	18.4	0.00e+00	0	60	0	1163919360	40	4312
2026-01-23 04:51:07.01	345.95	31.11	-35.4	-36.6	18.3	0.00e+00	0	60	0	1193279488	40	4370
2026-01-23 04:51:11.04	344.99	31.71	-35.4	-36.6	18.3	0.00e+00	0	60	0	1221591040	41	4117
2026-01-23 04:51:15.08	343.98	32.31	-35.5	-36.6	18.3	0.00e+00	0	60	0	1250951168	41	4139
2026-01-23 04:51:19.12	342.93	32.92	-35.4	-36.6	18.4	0.00e+00	0	60	0	1280311296	41	4117
2026-01-23 04:51:23.17	341.84	33.53	-35.1	-36.2	18.7	0.00e+00	0	60	0	1309671424	41	3946
2026-01-23 04:51:27.20	340.72	34.13	-34.9	-36.0	19.0	0.00e+00	0	60	0	1339031552	40	4070
2026-01-23 04:51:31.24	339.55	34.74	-34.9	-36.0	19.0	0.00e+00	0	61	0	1367343104	40	4054
2026-01-23 04:51:35.28	338.33	35.34	-34.8	-35.8	19.2	0.00e+00	0	60	0	1396703232	40	3992
2026-01-23 04:51:39.32	337.07	35.94	-34.9	-36.0	19.0	0.00e+00	0	60	0	1426063360	40	4081
2026-01-23 04:51:43.36	335.76	36.53	-35.5	-36.7	18.4	0.00e+00	0	60	0	1455423488	40	4414
2026-01-23 04:51:47.39	334.41	37.12	-35.6	-36.7	18.3	0.00e+00	0	61	0	1483735040	41	4178
2026-01-23 04:51:51.43	333.00	37.69	-35.3	-36.5	18.5	0.00e+00	0	60	0	1513095168	41	4060
2026-01-23 04:51:55.47	331.54	38.26	-35.5	-36.7	18.4	0.00e+00	0	60	0	1542455296	41	4154
2026-01-23 04:51:59.51	330.03	38.82	-35.5	-36.7	18.4	0.00e+00	0	60	0	1571815424	41	4155
2026-01-23 04:52:03.55	328.47	39.36	-35.5	-36.7	18.3	0.00e+00	0	60	0	1601175552	41	4164
2026-01-23 04:52:07.59	326.85	39.88	-35.6	-36.7	18.3	0.00e+00	0	60	0	1629487104	41	4185
2026-01-23 04:52:11.63	325.19	40.38	-35.8	-36.9	18.1	0.00e+00	0	60	0	1658847232	41	4288
2026-01-23 04:52:15.67	323.47	40.86	-35.2	-36.3	18.8	0.00e+00	0	60	0	1688207360	41	3975
2026-01-23 04:52:19.71	321.70	41.32	-35.3	-36.4	18.7	0.00e+00	0	61	0	1717567488	41	4017
2026-01-23 04:52:23.75	319.87	41.75	-35.5	-36.7	18.4	0.00e+00	0	61	0	1746927616	41	4178
2026-01-23 04:52:27.79	318.01	42.16	-35.8	-37.0	18.1	0.00e+00	0	61	0	1776287744	41	4297
2026-01-23 04:52:31.83	316.09	42.53	-35.1	-36.2	18.8	0.00e+00	0	61	0	1804599296	41	3947
2026-01-23 04:52:35.86	314.14	42.87	-35.2	-36.4	18.7	0.00e+00	0	61	0	1833959424	41	4013
2026-01-23 04:52:39.90	312.14	43.17	-35.5	-36.6	18.4	0.00e+00	0	61	0	1863319552	41	4142
2026-01-23 04:52:43.94	310.11	43.43	-35.7	-36.8	18.3	0.00e+00	0	61	0	1892679680	41	4235
2026-01-23 04:52:47.98	308.04	43.66	-35.7	-36.9	18.2	0.00e+00	0	61	0	1922039808	41	4246
2026-01-23 04:52:52.01	305.95	43.84	-35.3	-36.4	18.7	0.00e+00	0	61	0	1950351360	41	4017
2026-01-23 04:52:56.05	303.84	43.99	-35.4	-36.5	18.6	0.00e+00	0	61	0	1979711488	41	4079
2026-01-23 04:53:00.09	301.71	44.08	-35.3	-36.5	18.6	0.00e+00	0	61	0	2009071616	41	4060
2026-01-23 04:53:04.13	299.57	44.14	-35.3	-36.5	18.6	0.00e+00	0	61	0	2038431744	41	4072
2026-01-23 04:53:08.17	297.42	44.15	-35.4	-36.5	18.6	0.00e+00	0	61	0	2067791872	41	4081
2026-01-23 04:53:12.21	295.28	44.11	-35.5	-36.7	18.4	0.00e+00	0	61	0	2097152000	41	4171
2026-01-23 04:53:16.25	293.14	44.03	-35.5	-36.6	18.5	0.00e+00	0	61	0	2125463552	41	4119
2026-01-23 04:53:20.29	291.02	43.91	-35.4	-36.5	18.5	0.00e+00	0	61	0	2154823680	41	4096
2026-01-23 04:53:24.33	288.91	43.74	-35.2	-36.4	18.7	0.00e+00	0	61	0	2184183808	41	4005
2026-01-23 04:53:28.37	286.84	43.53	-35.2	-36.4	18.7	0.00e+00	0	61	0	2213543936	41	4007
2026-01-23 04:53:32.40	284.79	43.28	-35.1	-36.2	18.8	0.00e+00	0	61	0	2241855488	41	3941
2026-01-23 04:53:36.44	282.77	43.00	-34.7	-35.8	19.2	0.00e+00	0	61	0	2271215616	40	3986
2026-01-23 04:53:40.48	280.80	42.67	-35.1	-36.3	18.8	0.00e+00	0	61	0	2300575744	40	4205
2026-01-23 04:53:44.51	278.86	42.31	-35.4	-36.6	18.5	0.00e+00	0	61	0	2329935872	40	4367
2026-01-23 04:53:48.56	276.97	41.92	-34.9	-36.0	19.0	0.00e+00	0	61	0	2359296000	40	4094
2026-01-23 04:53:52.59	275.13	41.50	-35.2	-36.3	18.7	0.00e+00	0	61	0	2387607552	40	4241
2026-01-23 04:53:56.63	273.33	41.05	-35.4	-36.5	18.5	0.00e+00	0	61	0	2416967680	40	4334
2026-01-23 04:54:00.67	271.59	40.58	-35.3	-36.4	18.6	0.00e+00	0	61	0	2446327808	40	4290
2026-01-23 04:54:04.71	269.89	40.08	-35.4	-36.6	18.4	0.00e+00	0	61	0	2475687936	40	4350
2026-01-23 04:54:08.75	268.25	39.57	-35.4	-36.5	18.5	0.00e+00	0	61	0	2503999488	40	4329
2026-01-23 04:54:12.79	266.66	39.03	-35.3	-36.4	18.6	0.00e+00	0	61	0	2533359616	40	4272
2026-01-23 04:54:16.82	265.13	38.48	-35.1	-36.2	18.8	0.00e+00	0	61	0	2562719744	40	4180
2026-01-23 04:54:20.86	263.64	37.92	-35.2	-36.4	18.7	0.00e+00	0	61	0	2592079872	40	4246
2026-01-23 04:54:24.90	262.21	37.34	-35.3	-36.5	18.6	0.00e+00	0	61	0	2621440000	40	4298
2026-01-23 04:54:28.95	260.82	36.75	-35.0	-36.1	18.9	0.00e+00	0	61	0	2650800128	40	4136
2026-01-23 04:54:32.98	259.49	36.16	-35.0	-36.1	18.9	0.00e+00	0	61	0	2679111680	40	4132
2026-01-23 04:54:37.03	258.20	35.56	-35.1	-36.2	18.8	0.00e+00	0	61	0	2708471808	40	4176
2026-01-23 04:54:41.06	256.97	34.96	-34.7	-35.8	19.2	0.00e+00	0	61	0	2737831936	40	3962
2026-01-23 04:54:45.10	255.77	34.35	-34.9	-36.0	19.0	0.00e+00	0	61	0	2767192064	40	4055
2026-01-23 04:54:49.15	254.62	33.74	-34.9	-36.0	19.0	0.00e+00	0	61	0	2796552192	40	4055
2026-01-23 04:54:53.18	253.52	33.13	-34.9	-36.0	18.9	0.00e+00	0	61	0	2824863744	40	4074
2026-01-23 04:54:57.22	252.45	32.53	-34.9	-36.0	18.9	0.00e+00	0	61	0	2854223872	40	4092
2026-01-23 04:55:01.27	251.42	31.92	-34.6	-35.6	19.3	0.00e+00	0	61	0	2883584000	40	3905
2026-01-23 04:55:05.31	250.43	31.31	-34.7	-35.8	19.2	0.00e+00	0	61	0	2912944128	39	4226
2026-01-23 04:55:09.35	249.48	30.71	-35.1	-36.2	18.8	0.00e+00	0	61	0	2942304256	39	4412
2026-01-23 04:55:13.39	248.56	30.11	-35.5	-36.6	18.3	0.00e+00	0	61	0	2971664384	40	4389
2026-01-23 04:55:17.42	247.68	29.52	-35.5	-36.7	18.3	0.00e+00	0	61	0	2999975936	40	4393
2026-01-23 04:55:21.46	246.83	28.93	-35.0	-36.1	18.7	0.00e+00	0	61	0	3029336064	40	4145
2026-01-23 04:55:25.50	246.00	28.35	-35.0	-36.2	18.7	0.00e+00	0	61	0	3058696192	40	4161
2026-01-23 04:55:29.54	245.21	27.77	-35.3	-36.4	18.5	0.00e+00	0	61	0	3088056320	40	4278
2026-01-23 04:55:33.58	244.45	27.20	-35.1	-36.2	18.6	0.00e+00	0	61	0	3117416448	40	4189
2026-01-23 04:55:37.62	243.71	26.63	-35.3	-36.4	18.5	0.00e+00	0	61	0	3145728000	40	4290
2026-01-23 04:55:41.66	243.00	26.07	-35.3	-36.5	18.4	0.00e+00	0	61	0	3175088128	40	4302
2026-01-23 04:55:45.70	242.32	25.52	-35.2	-36.3	18.5	0.00e+00	0	61	0	3204448256	40	4242
2026-01-23 04:55:49.73	241.65	24.98	-35.2	-36.4	18.5	0.00e+00	0	61	0	3233808384	40	4250
2026-01-23 04:55:53.77	241.01	24.44	-35.5	-36.6	18.2	0.00e+00	0	61	0	3263168512	40	4377
2026-01-23 04:55:57.81	240.40	23.91	-35.5	-36.7	18.1	0.00e+00	0	61	0	3292528640	40	4432
2026-01-23 04:56:01.85	239.80	23.39	-35.3	-36.4	18.4	0.00e+00	0	61	0	3320840192	40	4289
2026-01-23 04:56:05.89	239.22	22.87	-35.4	-36.5	18.3	0.00e+00	0	61	0	3350200320	40	4335
2026-01-23 04:56:09.93	238.66	22.36	-35.5	-36.7	18.0	0.00e+00	0	61	0	3379560448	40	4437
2026-01-23 04:56:13.97	238.12	21.86	-35.5	-36.7	18.1	0.00e+00	0	61	0	3408920576	40	4421
2026-01-23 04:56:18.01	237.60	21.36	-35.8	-37.0	17.8	0.00e+00	0	61	0	3438280704	41	4329
2026-01-23 04:56:22.05	237.09	20.87	-35.9	-37.2	17.6	0.00e+00	0	61	0	3466592256	41	4405
2026-01-23 04:56:26.09	236.60	20.39	-35.8	-37.1	17.7	0.00e+00	0	61	0	3495952384	41	4342
2026-01-23 04:56:30.13	236.13	19.92	-36.0	-37.2	17.6	0.00e+00	0	61	0	3525312512	41	4414
2026-01-23 04:56:34.17	235.67	19.45	-36.3	-37.6	17.2	0.00e+00	0	61	0	3554672640	42	4383
2026-01-23 04:56:38.21	235.22	18.99	-36.4	-37.8	17.0	0.00e+00	0	61	0	3584032768	42	4444
2026-01-23 04:56:42.24	234.79	18.54	-36.4	-37.7	17.1	0.00e+00	0	61	0	3612344320	42	4399
2026-01-23 04:56:46.28	234.37	18.09	-36.4	-37.7	17.0	0.00e+00	0	61	0	3641704448	42	4403
2026-01-23 04:56:50.32	233.96	17.65	-36.5	-37.9	16.8	0.00e+00	0	61	0	3671064576	42	4508
2026-01-23 04:56:54.36	233.56	17.22	-36.6	-37.9	16.7	0.00e+00	0	61	0	3700424704	42	4539
2026-01-23 04:56:58.39	233.18	16.79	-36.6	-38.0	16.7	0.00e+00	0	61	0	3728736256	42	4552
2026-01-23 04:57:02.43	232.81	16.37	-36.7	-38.1	16.6	0.00e+00	0	61	0	3758096384	43	4371
2026-01-23 04:57:06.47	232.44	15.95	-37.0	-38.4	16.2	0.00e+00	0	61	0	3787456512	43	4525
2026-01-23 04:57:10.51	232.09	15.54	-37.1	-38.6	16.0	0.00e+00	0	61	0	3816816640	43	4641
2026-01-23 04:57:14.55	231.75	15.14	-37.1	-38.6	16.0	0.00e+00	0	61	0	3846176768	43	4630
2026-01-23 04:57:18.59	231.41	14.74	-37.0	-38.5	16.1	1.10e-06	0	61	0	3874488320	43	4570
2026-01-23 04:57:22.63	231.09	14.34	-37.0	-38.4	16.1	0.00e+00	0	61	0	3903848448	43	4530
2026-01-23 04:57:26.66	230.77	13.96	-37.0	-38.5	16.1	0.00e+00	0	61	0	3933208576	43	4549
2026-01-23 04:57:30.71	230.46	13.57	-37.2	-38.7	15.8	0.00e+00	0	61	0	3962568704	43	4662
2026-01-23 04:57:34.75	230.16	13.20	-37.6	-39.1	15.5	0.00e+00	0	61	0	3991928832	44	4649
2026-01-23 04:57:38.78	229.87	12.82	-37.8	-39.3	15.3	0.00e+00	0	61	0	4020240384	45	4486
2026-01-23 04:57:42.82	229.59	12.46	-37.8	-39.4	15.2	0.00e+00	0	61	0	4049600512	45	4531
2026-01-23 04:57:46.86	229.31	12.09	-37.9	-39.5	15.1	0.00e+00	0	61	0	4078960640	45	4561
2026-01-23 04:57:50.89	229.04	11.74	-38.0	-39.7	14.9	0.00e+00	0	61	0	4108320768	45	4664
2026-01-23 04:57:54.93	228.78	11.38	-38.1	-39.8	14.7	0.00e+00	0	61	0	4137680896	46	4489
2026-01-23 04:57:58.97	228.52	11.03	-38.3	-40.0	14.5	0.00e+00	0	61	0	4167041024	46	4590
2026-01-23 04:58:03.01	228.27	10.69	-38.4	-40.2	14.4	1.10e-06	0	61	0	4195352576	46	4657
2026-01-23 04:58:07.05	228.02	10.35	-38.5	-40.3	14.2	0.00e+00	0	61	0	4224712704	46	4735
2026-01-23 04:58:11.08	227.79	10.01	-38.5	-40.3	14.1	1.10e-06	0	61	0	4254072832	46	4756
2026-01-23 04:58:15.12	227.55	9.68	-38.5	-40.3	14.1	1.10e-06	0	61	0	4283432960	46	4713
2026-01-23 04:58:19.17	227.32	9.35	-38.4	-40.2	14.1	1.10e-06	0	61	0	4312793088	46	4686
2026-01-23 04:58:23.20	227.10	9.03	-38.5	-40.4	14.0	0.00e+00	0	61	0	4341104640	46	4777
2026-01-23 04:58:27.24	226.88	8.71	-38.5	-40.3	14.0	2.20e-06	0	61	0	4370464768	46	4755
2026-01-23 04:58:31.28	226.67	8.39	-38.6	-40.5	13.8	4.50e-06	0	61	0	4399824896	46	4847
2026-01-23 04:58:35.32	226.46	8.08	-38.7	-40.6	13.6	4.50e-06	0	61	0	4429185024	47	4638
2026-01-23 04:58:39.36	226.26	7.77	-45.3	-56.6	3.8	8.48e-01	0	61	104	4439670784	60	13790
2026-01-23 04:58:43.40	226.06	7.46	-45.6	-56.9	3.8	8.46e-01	0	61	104	4439670784	60	14268
2026-01-23 04:58:47.45	225.87	7.15	-45.5	-56.9	3.8	8.46e-01	0	62	104	4439670784	60	14258
2026-01-23 04:58:51.49	225.67	6.85	-45.5	-56.8	3.8	8.46e-01	0	61	104	4439670784	60	14082
2026-01-23 04:58:55.53	225.49	6.56	-45.4	-56.8	3.8	8.47e-01	0	61	104	4439670784	60	14077
2026-01-23 04:58:59.57	225.31	6.26	-45.4	-56.8	3.8	8.45e-01	0	61	104	4439670784	60	14063
2026-01-23 04:59:03.61	225.13	5.97	-45.4	-56.7	3.8	8.47e-01	0	61	104	4439670784	60	14032
2026-01-23 04:59:07.65	224.95	5.69	-45.4	-56.7	3.8	8.46e-01	0	61	104	4439670784	60	13997
2026-01-23 04:59:11.70	224.78	5.40	-45.4	-56.7	3.8	8.47e-01	0	61	104	4439670784	60	14015
2026-01-23 04:59:15.74	224.61	5.12	-45.4	-56.8	3.8	8.46e-01	0	62	104	4439670784	60	14080
2026-01-23 04:59:19.78	224.45	4.84	-45.4	-56.7	3.8	8.44e-01	0	61	104	4439670784	60	14035
2026-01-23 04:59:23.82	224.29	4.56	-45.4	-56.7	3.8	8.46e-01	0	61	104	4439670784	60	13995
2026-01-23 04:59:27.86	224.13	4.29	-45.4	-56.7	3.8	8.45e-01	0	61	104	4439670784	60	13992
2026-01-23 04:59:31.90	223.97	4.02	-45.4	-56.7	3.8	8.47e-01	0	61	104	4439670784	60	13979
2026-01-23 04:59:35.94	223.82	3.75	-45.4	-56.7	3.8	8.47e-01	0	61	104	4439670784	60	13937
2026-01-23 04:59:39.98	223.67	3.48	-45.4	-56.7	3.8	8.47e-01	0	61	104	4439670784	60	14002
2026-01-23 04:59:44.03	223.53	3.22	-45.2	-56.7	3.8	8.45e-01	0	61	104	4439670784	60	13980
2026-01-23 04:59:48.07	223.38	2.95	-45.4	-56.7	3.8	8.46e-01	0	62	104	4439670784	60	14008
2026-01-23 04:59:52.11	223.24	2.69	-45.4	-56.7	3.8	8.47e-01	0	62	104	4439670784	60	13971
2026-01-23 04:59:56.15	223.11	2.44	-45.4	-56.7	3.8	8.46e-01	0	61	104	4439670784	60	13982
2026-01-23 05:00:00.19	222.97	2.18	-45.4	-56.7	3.8	8.45e-01	0	61	104	4439670784	60	14000
2026-01-23 05:00:04.23	222.84	1.93	-45.4	-56.7	3.8	8.46e-01	0	62	104	4439670784	60	13996

#Closed at: 2026-01-23 05:00:05
#Recorded file [4439 MB]: D:/lorett/data/31039_260123_074607.dat