passes_logs/2026/01/23/R2.0S_Moscow/R2.0S_Moscow__20260123_083607_SUOMI_NPP_rec.log

#Pass ID: 20260123_083607_SUOMI NPP
#Satellite: SUOMI NPP
#Configuration: NPP
#almurnet v.1.7.20251203
#Start time: 2026-01-23 08:36:07

#Version: 2.2.20231116
#Station: R2.0S_Moscow
#Location: 37.707566 lon 55.798166 lat
#TLE: 1 37849U 11061A   26022.50498765  .00000208  00000+0  11976-3 0  9992
#TLE: 2 37849  98.7820 324.4892 0002275  50.8149 309.3229 14.19528284737775

#Time	Az	El	Level	Level2	SNR	BER	BlckErr	Temp	State	Recorded	gain1	gain2
2026-01-23 08:36:07.22	119.76	2.01	-17.1	-35.6	3.6	1.50e+00	0	51	0	0	9	24670
2026-01-23 08:36:11.26	119.53	2.25	-15.0	-33.5	3.7	1.50e+00	0	51	104	0	4	25770
2026-01-23 08:36:15.30	119.30	2.49	-19.9	-38.7	3.8	1.50e+00	0	52	104	0	11	31443
2026-01-23 08:36:19.35	119.06	2.73	-23.0	-38.6	4.0	1.50e+00	0	52	104	0	9	34777
2026-01-23 08:36:23.39	118.82	2.98	-20.8	-34.7	3.7	1.50e+00	0	52	104	0	1	35076
2026-01-23 08:36:27.43	118.57	3.22	-18.5	-37.1	3.7	1.50e+00	0	53	104	0	1	46197
2026-01-23 08:36:31.47	118.32	3.47	-14.7	-34.7	3.8	1.50e+00	0	53	104	0	4	29466
2026-01-23 08:36:35.52	118.06	3.71	-17.5	-36.7	3.5	1.50e+00	0	53	104	0	9	27899
2026-01-23 08:36:39.56	117.80	3.96	-21.8	-34.3	3.8	1.50e+00	0	54	104	0	1	33444
2026-01-23 08:36:43.60	117.54	4.21	-21.8	-38.5	3.9	1.50e+00	0	54	104	0	13	27171
2026-01-23 08:36:47.64	117.27	4.47	-22.2	-39.7	3.9	1.50e+00	0	54	104	0	14	29684
2026-01-23 08:36:51.68	117.00	4.72	-19.4	-38.1	4.0	1.50e+00	0	54	104	0	13	25871
2026-01-23 08:36:55.72	116.72	4.98	-21.9	-40.9	4.0	1.50e+00	0	54	104	0	13	35741
2026-01-23 08:36:59.76	116.43	5.24	-19.9	-38.0	3.8	1.50e+00	0	55	104	0	11	28827
2026-01-23 08:37:03.80	116.14	5.50	-21.0	-37.3	3.9	1.50e+00	0	55	104	0	9	29707
2026-01-23 08:37:07.84	115.85	5.76	-16.6	-33.3	4.1	1.50e+00	0	55	104	0	1	29767
2026-01-23 08:37:11.88	115.55	6.02	-16.5	-33.6	3.8	1.50e+00	0	55	104	0	4	26111
2026-01-23 08:37:15.92	115.24	6.29	-13.2	-31.9	3.9	1.50e+00	0	55	104	0	0	26897
2026-01-23 08:37:19.97	114.93	6.56	-15.0	-32.6	3.7	1.50e+00	0	56	104	0	0	29275
2026-01-23 08:37:24.01	114.61	6.83	-15.0	-32.3	3.9	1.50e+00	0	56	104	0	1	26558
2026-01-23 08:37:28.05	114.29	7.10	-19.3	-36.7	3.7	1.50e+00	0	56	104	0	9	27845
2026-01-23 08:37:32.09	113.96	7.37	-15.1	-30.9	3.8	1.50e+00	0	56	104	0	6	16965
2026-01-23 08:37:36.13	113.62	7.65	-18.3	-34.8	3.8	1.50e+00	0	56	104	0	8	23775
2026-01-23 08:37:40.18	113.27	7.93	-18.9	-35.0	3.8	1.50e+00	0	56	104	0	8	24164
2026-01-23 08:37:44.21	112.92	8.21	-20.0	-37.4	3.9	1.50e+00	0	57	104	0	10	28365
2026-01-23 08:37:48.25	112.57	8.49	-20.3	-36.9	3.9	1.50e+00	0	57	104	0	6	34032
2026-01-23 08:37:52.28	112.20	8.77	-21.2	-37.9	3.8	1.50e+00	0	57	104	0	13	25342
2026-01-23 08:37:56.32	111.83	9.06	-19.2	-36.1	4.1	1.50e+00	0	57	104	0	13	20578
2026-01-23 08:38:00.36	111.45	9.35	-32.2	-46.6	4.6	1.48e+00	0	57	104	0	33	21930
2026-01-23 08:38:04.40	111.06	9.64	-32.6	-48.6	6.0	1.42e+00	0	57	104	0	39	19575
2026-01-23 08:38:08.44	110.67	9.93	-33.1	-47.8	5.8	1.16e+00	0	58	0	1048576	33	25229
2026-01-23 08:38:12.47	110.27	10.23	-38.6	-55.1	4.0	1.50e+00	0	57	104	3145728	45	29144
2026-01-23 08:38:16.51	109.85	10.52	-33.9	-50.1	4.2	1.49e+00	0	58	104	3145728	38	24464
2026-01-23 08:38:20.55	109.43	10.82	-31.9	-50.1	3.9	1.50e+00	0	58	104	3145728	26	48829
2026-01-23 08:38:24.59	109.00	11.12	-32.4	-49.2	4.4	1.47e+00	0	58	104	3145728	42	17503
2026-01-23 08:38:28.62	108.57	11.43	-38.7	-49.1	6.3	3.05e-01	0	58	0	7340032	49	11663
2026-01-23 08:38:32.66	108.12	11.73	-32.0	-45.3	6.1	1.07e+00	0	58	0	11534336	38	14058
2026-01-23 08:38:36.70	107.66	12.04	-39.3	-48.4	6.7	3.36e-01	0	58	0	14680064	49	10723
2026-01-23 08:38:40.74	107.19	12.35	-40.1	-49.0	6.8	3.00e-01	0	58	0	22020096	51	10246
2026-01-23 08:38:44.78	106.72	12.66	-36.9	-53.2	4.2	1.48e+00	0	58	104	27262976	45	23375
2026-01-23 08:38:48.81	106.23	12.97	-36.5	-48.8	5.8	6.12e-01	0	58	0	31457280	44	14884
2026-01-23 08:38:52.85	105.73	13.29	-34.0	-46.7	7.4	3.56e-01	0	58	0	38797312	42	13253
2026-01-23 08:38:56.89	105.22	13.61	-37.1	-51.0	5.1	3.77e-01	0	58	0	44040192	47	16180
2026-01-23 08:39:00.93	104.70	13.93	-33.7	-45.5	8.9	1.21e-01	0	59	0	51380224	43	10824
2026-01-23 08:39:04.97	104.17	14.25	-41.3	-46.1	10.1	6.61e-02	0	58	0	59768832	51	7299
2026-01-23 08:39:09.01	103.62	14.57	-41.5	-47.0	9.7	5.42e-02	0	59	0	67108864	49	9087
2026-01-23 08:39:13.04	103.07	14.89	-38.4	-45.8	9.6	1.12e-02	0	59	0	74448896	46	9418
2026-01-23 08:39:17.08	102.50	15.22	-40.7	-46.4	10.8	8.45e-03	0	59	0	81788928	51	7620
2026-01-23 08:39:21.12	101.92	15.55	-40.8	-45.4	11.4	3.87e-03	0	59	0	89128960	52	6394
2026-01-23 08:39:25.16	101.32	15.88	-42.0	-46.6	10.9	4.21e-03	0	59	0	97517568	54	6567
2026-01-23 08:39:29.19	100.72	16.21	-41.6	-46.0	11.3	9.04e-04	0	59	0	104857600	52	6861
2026-01-23 08:39:33.23	100.09	16.54	-41.8	-46.5	11.0	3.31e-03	0	59	0	112197632	54	6457
2026-01-23 08:39:37.27	99.46	16.87	-42.4	-47.4	10.3	6.87e-03	0	59	0	119537664	55	6774
2026-01-23 08:39:41.31	98.81	17.20	-42.2	-46.8	10.9	3.04e-03	0	59	0	127926272	54	6689
2026-01-23 08:39:45.35	98.14	17.54	-42.4	-47.3	10.4	6.78e-03	0	59	0	135266304	55	6689
2026-01-23 08:39:49.38	97.46	17.87	-42.4	-47.2	10.6	4.10e-03	0	59	0	142606336	55	6583
2026-01-23 08:39:53.42	96.77	18.21	-42.5	-47.5	10.3	5.83e-03	0	59	0	149946368	55	6827
2026-01-23 08:39:57.46	96.06	18.54	-42.3	-46.9	10.8	2.07e-03	0	59	0	157286400	55	6410
2026-01-23 08:40:01.49	95.33	18.87	-42.3	-46.8	10.9	1.49e-03	0	60	0	165675008	55	6334
2026-01-23 08:40:05.53	94.59	19.21	-42.3	-46.8	11.0	1.84e-03	0	60	0	173015040	55	6324
2026-01-23 08:40:09.57	93.83	19.54	-41.9	-46.0	11.8	7.18e-04	0	59	0	180355072	55	5758
2026-01-23 08:40:13.61	93.05	19.87	-42.2	-46.6	11.2	1.20e-03	0	60	0	187695104	55	6186
2026-01-23 08:40:17.65	92.26	20.21	-42.0	-46.3	11.4	7.69e-04	0	59	0	196083712	55	5988
2026-01-23 08:40:21.68	91.45	20.54	-42.2	-46.8	10.8	2.21e-03	0	60	0	203423744	55	6297
2026-01-23 08:40:25.72	90.62	20.86	-41.9	-46.4	11.2	1.17e-03	0	60	0	210763776	55	6001
2026-01-23 08:40:29.76	89.78	21.19	-41.5	-45.6	11.8	3.62e-04	0	60	0	218103808	54	5811
2026-01-23 08:40:33.80	88.91	21.51	-41.6	-46.0	11.4	1.03e-03	0	59	0	225443840	54	6069
2026-01-23 08:40:37.84	88.03	21.83	-41.7	-46.0	11.4	9.85e-04	0	60	0	233832448	54	6101
2026-01-23 08:40:41.87	87.13	22.15	-41.3	-45.2	12.3	1.96e-04	0	60	0	241172480	54	5538
2026-01-23 08:40:45.91	86.21	22.46	-41.5	-45.5	12.1	3.58e-04	0	60	0	248512512	54	5732
2026-01-23 08:40:49.95	85.27	22.77	-41.2	-44.7	12.9	4.04e-05	0	60	0	255852544	54	5252
2026-01-23 08:40:53.99	84.31	23.07	-40.8	-44.0	13.7	6.10e-06	0	60	0	264241152	53	5155
2026-01-23 08:40:58.02	83.34	23.37	-41.2	-44.7	13.1	3.96e-05	0	60	0	271581184	53	5581
2026-01-23 08:41:02.06	82.34	23.66	-41.1	-44.6	13.2	2.05e-05	0	60	0	278921216	53	5502
2026-01-23 08:41:06.10	81.33	23.95	-41.3	-44.9	13.0	5.79e-05	0	60	0	286261248	53	5658
2026-01-23 08:41:10.14	80.30	24.23	-41.3	-44.9	13.0	7.09e-05	0	60	0	293601280	53	5707
2026-01-23 08:41:14.18	79.25	24.50	-41.3	-45.0	13.0	4.57e-05	0	60	0	301989888	53	5740
2026-01-23 08:41:18.22	78.18	24.77	-41.3	-44.9	13.0	3.58e-05	0	60	0	309329920	53	5709
2026-01-23 08:41:22.25	77.10	25.02	-41.2	-44.7	13.3	2.97e-05	0	60	0	316669952	53	5583
2026-01-23 08:41:26.29	75.99	25.27	-41.0	-44.3	13.7	9.90e-06	0	60	0	324009984	53	5291
2026-01-23 08:41:30.33	74.87	25.51	-40.9	-44.1	13.8	6.10e-06	0	60	0	332398592	53	5214
2026-01-23 08:41:34.37	73.74	25.73	-41.1	-44.6	13.4	1.44e-05	0	60	0	339738624	53	5471
2026-01-23 08:41:38.41	72.58	25.95	-41.4	-45.0	13.0	1.29e-05	0	60	0	347078656	53	5776
2026-01-23 08:41:42.45	71.41	26.16	-41.5	-45.3	12.6	7.01e-05	0	60	0	354418688	53	5964
2026-01-23 08:41:46.49	70.23	26.35	-42.1	-46.4	11.6	6.89e-04	0	60	0	361758720	54	6387
2026-01-23 08:41:50.53	69.03	26.53	-42.5	-47.3	10.7	2.40e-03	0	60	0	370147328	55	6658
2026-01-23 08:41:54.57	67.82	26.70	-41.8	-45.6	12.4	2.49e-04	0	60	0	377487360	55	5525
2026-01-23 08:41:58.60	66.60	26.85	-42.3	-46.8	11.3	8.35e-04	0	60	0	384827392	55	6292
2026-01-23 08:42:02.64	65.37	27.00	-42.4	-47.0	11.0	2.15e-03	0	60	0	392167424	55	6462
2026-01-23 08:42:06.68	64.12	27.12	-42.0	-46.2	11.9	4.15e-04	0	60	0	400556032	55	5883
2026-01-23 08:42:10.72	62.87	27.24	-42.2	-46.5	11.5	6.90e-04	0	60	0	407896064	55	6122
2026-01-23 08:42:14.76	61.61	27.33	-41.9	-45.9	12.2	3.96e-04	0	60	0	415236096	55	5693
2026-01-23 08:42:18.79	60.34	27.42	-42.4	-47.1	10.9	1.47e-03	0	60	0	422576128	55	6536
2026-01-23 08:42:22.83	59.06	27.48	-42.9	-48.4	9.8	7.61e-03	0	60	0	429916160	56	7137
2026-01-23 08:42:26.87	57.78	27.54	-42.2	-46.4	11.9	7.22e-04	0	60	0	438304768	56	5675
2026-01-23 08:42:30.91	56.50	27.57	-41.8	-45.8	12.4	1.08e-04	0	60	0	445644800	55	5600
2026-01-23 08:42:34.95	55.21	27.59	-42.1	-46.2	11.9	4.14e-04	0	60	0	452984832	55	5905
2026-01-23 08:42:38.99	53.93	27.60	-41.9	-45.8	12.4	1.75e-04	0	60	0	460324864	55	5635
2026-01-23 08:42:43.03	52.64	27.59	-42.0	-46.1	12.2	2.68e-04	0	60	0	468713472	55	5812
2026-01-23 08:42:47.06	51.36	27.56	-42.4	-47.1	11.1	1.13e-03	0	61	0	476053504	55	6506
2026-01-23 08:42:51.10	50.08	27.51	-41.7	-45.4	12.7	1.09e-04	0	60	0	483393536	55	5392
2026-01-23 08:42:55.14	48.80	27.45	-41.5	-45.0	13.2	1.90e-05	0	60	0	490733568	54	5445
2026-01-23 08:42:59.18	47.53	27.38	-41.4	-44.9	13.3	2.97e-05	0	61	0	498073600	54	5378
2026-01-23 08:43:03.21	46.27	27.29	-41.6	-45.2	13.0	1.67e-05	0	60	0	506462208	54	5565
2026-01-23 08:43:07.25	45.01	27.18	-41.9	-45.8	12.5	1.25e-04	0	61	0	513802240	54	5924
2026-01-23 08:43:11.29	43.76	27.06	-41.9	-45.9	12.4	8.54e-05	0	61	0	521142272	54	5993
2026-01-23 08:43:15.33	42.53	26.93	-42.1	-46.1	12.1	1.47e-04	0	61	0	528482304	54	6157
2026-01-23 08:43:19.36	41.30	26.78	-41.7	-45.2	13.1	5.03e-05	0	60	0	535822336	54	5549
2026-01-23 08:43:23.40	40.09	26.62	-41.9	-45.6	12.6	1.12e-04	0	60	0	544210944	54	5845
2026-01-23 08:43:27.44	38.89	26.45	-42.0	-46.0	12.3	1.49e-04	0	60	0	551550976	54	6070
2026-01-23 08:43:31.48	37.70	26.26	-42.3	-46.7	11.5	7.97e-04	0	60	0	558891008	55	6242
2026-01-23 08:43:35.52	36.52	26.06	-42.5	-47.1	11.0	2.24e-03	0	61	0	566231040	55	6550
2026-01-23 08:43:39.55	35.37	25.85	-42.8	-47.6	10.7	2.82e-03	0	61	0	574619648	56	6513
2026-01-23 08:43:43.59	34.23	25.63	-42.6	-47.2	11.0	1.75e-03	0	61	0	581959680	56	6268
2026-01-23 08:43:47.63	33.10	25.40	-42.4	-46.7	11.7	8.03e-04	0	60	0	589299712	56	5884
2026-01-23 08:43:51.67	31.99	25.16	-42.2	-46.5	11.9	3.49e-04	0	61	0	596639744	56	5731
2026-01-23 08:43:55.71	30.90	24.91	-41.6	-45.4	12.8	6.25e-05	0	61	0	603979776	55	5361
2026-01-23 08:43:59.75	29.83	24.65	-42.4	-46.9	11.3	1.38e-03	0	60	0	612368384	55	6394
2026-01-23 08:44:03.79	28.77	24.38	-42.5	-47.3	10.9	2.33e-03	0	61	0	619708416	55	6677
2026-01-23 08:44:07.82	27.74	24.11	-42.2	-46.6	11.6	8.65e-04	0	61	0	627048448	55	6194
2026-01-23 08:44:11.86	26.72	23.83	-42.4	-46.9	11.3	1.15e-03	0	61	0	634388480	55	6407
2026-01-23 08:44:15.90	25.72	23.54	-42.2	-46.6	11.7	6.18e-04	0	61	0	642777088	55	6142
2026-01-23 08:44:19.94	24.73	23.24	-41.7	-45.4	12.8	6.79e-05	0	61	0	650117120	55	5369
2026-01-23 08:44:23.97	23.77	22.94	-41.7	-45.4	12.7	3.96e-05	0	61	0	657457152	55	5401
2026-01-23 08:44:28.01	22.83	22.64	-41.3	-44.7	13.5	2.05e-05	0	61	0	664797184	54	5261
2026-01-23 08:44:32.04	21.91	22.33	-40.8	-43.8	14.4	0.00e+00	0	61	0	672137216	53	5018
2026-01-23 08:44:36.07	21.00	22.02	-41.0	-44.2	13.9	1.50e-06	0	61	0	680525824	53	5262
2026-01-23 08:44:40.11	20.11	21.70	-41.5	-45.2	13.0	4.19e-05	0	61	0	687865856	53	5882
2026-01-23 08:44:44.15	19.24	21.38	-41.6	-45.3	12.8	8.08e-05	0	61	0	695205888	54	5634
2026-01-23 08:44:48.19	18.39	21.06	-41.6	-45.2	12.9	2.67e-05	0	61	0	702545920	54	5580
2026-01-23 08:44:52.23	17.56	20.73	-41.0	-44.1	14.0	3.80e-06	0	61	0	710934528	53	5192
2026-01-23 08:44:56.26	16.74	20.40	-40.5	-43.3	14.8	0.00e+00	0	61	0	718274560	52	5027
2026-01-23 08:45:00.30	15.95	20.08	-40.9	-44.1	14.0	1.50e-06	0	61	0	725614592	52	5475
2026-01-23 08:45:04.34	15.16	19.75	-41.0	-44.3	13.8	2.20e-06	0	61	0	732954624	52	5603
2026-01-23 08:45:08.38	14.40	19.41	-41.0	-44.3	13.8	6.10e-06	0	61	0	740294656	52	5600
2026-01-23 08:45:12.42	13.65	19.08	-41.2	-44.5	13.5	9.10e-06	0	61	0	748683264	53	5456
2026-01-23 08:45:16.45	12.92	18.75	-41.2	-44.5	13.5	1.37e-05	0	61	0	756023296	53	5421
2026-01-23 08:45:20.49	12.21	18.42	-40.8	-43.8	14.2	0.00e+00	0	61	0	763363328	53	5011
2026-01-23 08:45:24.53	11.51	18.08	-41.1	-44.5	13.5	8.30e-06	0	61	0	770703360	53	5417
2026-01-23 08:45:28.57	10.83	17.75	-41.7	-45.6	12.3	2.04e-04	0	61	0	779091968	54	5799
2026-01-23 08:45:32.60	10.16	17.42	-41.4	-45.0	12.9	5.41e-05	0	61	0	786432000	54	5424
2026-01-23 08:45:36.64	9.50	17.09	-41.3	-44.9	12.9	3.89e-05	0	61	0	793772032	54	5390
2026-01-23 08:45:40.68	8.87	16.75	-41.7	-45.8	11.9	2.78e-04	0	61	0	801112064	54	5976
2026-01-23 08:45:44.72	8.24	16.42	-42.2	-46.9	10.7	2.64e-03	0	61	0	808452096	54	6736
2026-01-23 08:45:48.76	7.63	16.09	-41.6	-45.6	11.9	5.72e-04	0	61	0	816840704	54	5854
2026-01-23 08:45:52.79	7.03	15.77	-41.4	-45.4	12.1	1.88e-04	0	61	0	824180736	54	5678
2026-01-23 08:45:56.83	6.45	15.44	-41.8	-46.4	11.0	1.82e-03	0	61	0	831520768	54	6416
2026-01-23 08:46:00.86	5.88	15.12	-41.4	-45.6	11.5	6.37e-04	0	61	0	838860800	54	5844
2026-01-23 08:46:04.90	5.32	14.79	-41.0	-44.9	12.2	4.10e-04	0	61	0	846200832	54	5378
2026-01-23 08:46:08.94	4.77	14.47	-40.7	-44.7	12.0	4.70e-04	0	61	0	854589440	53	5557
2026-01-23 08:46:12.98	4.24	14.15	-41.0	-45.6	10.8	2.84e-03	0	61	0	861929472	53	6182
2026-01-23 08:46:17.02	3.72	13.83	-40.6	-45.0	11.0	1.40e-03	0	61	0	869269504	52	6131
2026-01-23 08:46:21.06	3.21	13.51	-40.6	-45.7	10.0	7.10e-03	0	61	0	876609536	52	6573
2026-01-23 08:46:25.09	2.71	13.20	-41.4	-49.6	5.9	2.28e-01	0	61	0	884998144	53	9765
2026-01-23 08:46:29.13	2.22	12.88	-41.4	-54.3	3.8	1.49e+00	0	61	104	889192448	53	16784
2026-01-23 08:46:33.17	1.74	12.57	-41.7	-55.9	3.8	1.49e+00	0	61	104	889192448	54	18993
2026-01-23 08:46:37.21	1.27	12.26	-40.8	-55.3	3.8	1.49e+00	0	61	104	889192448	53	18865
2026-01-23 08:46:41.25	0.81	11.96	-40.4	-55.0	3.8	1.49e+00	0	61	104	889192448	52	19366
2026-01-23 08:46:45.29	0.36	11.65	-40.1	-54.7	3.8	1.49e+00	0	61	104	889192448	52	18582
2026-01-23 08:46:49.33	359.92	11.35	-40.2	-54.8	3.8	1.49e+00	0	61	104	889192448	52	18875
2026-01-23 08:46:53.37	359.49	11.05	-40.0	-54.6	3.8	1.49e+00	0	61	104	889192448	52	18443
2026-01-23 08:46:57.40	359.07	10.75	-40.1	-54.7	3.8	1.49e+00	0	61	104	889192448	52	18648
2026-01-23 08:47:01.44	358.66	10.45	-40.1	-54.6	3.8	1.49e+00	0	61	104	889192448	51	19547
2026-01-23 08:47:05.48	358.26	10.16	-40.3	-54.9	3.8	1.49e+00	0	61	104	889192448	51	20096
2026-01-23 08:47:09.52	357.86	9.86	-40.2	-54.8	3.8	1.49e+00	0	61	104	889192448	51	20031
2026-01-23 08:47:13.56	357.47	9.57	-40.2	-54.8	3.8	1.49e+00	0	61	104	889192448	51	19922
2026-01-23 08:47:17.60	357.10	9.28	-40.1	-54.7	3.8	1.49e+00	0	61	104	889192448	51	19737
2026-01-23 08:47:21.64	356.72	9.00	-40.1	-54.7	3.8	1.49e+00	0	61	104	889192448	51	19625
2026-01-23 08:47:25.67	356.36	8.71	-40.1	-54.6	3.8	1.49e+00	0	61	104	889192448	51	19587
2026-01-23 08:47:29.71	356.00	8.43	-40.1	-54.7	3.8	1.49e+00	0	61	104	889192448	51	19717
2026-01-23 08:47:33.75	355.65	8.15	-40.2	-54.7	3.8	1.49e+00	0	61	104	889192448	51	19753
2026-01-23 08:47:37.79	355.31	7.87	-44.6	-59.1	3.8	1.49e+00	0	61	104	889192448	59	20580
2026-01-23 08:47:41.82	354.98	7.60	-45.4	-60.1	3.8	1.49e+00	0	61	104	889192448	61	20692
2026-01-23 08:47:45.86	354.65	7.32	-45.3	-60.0	3.8	1.49e+00	0	61	104	889192448	61	20479
2026-01-23 08:47:49.90	354.32	7.05	-45.3	-59.8	3.8	1.49e+00	0	61	104	889192448	61	20067
2026-01-23 08:47:53.95	354.01	6.78	-45.2	-59.8	3.8	1.49e+00	0	61	104	889192448	60	21107
2026-01-23 08:47:57.99	353.70	6.51	-45.1	-59.8	3.8	1.49e+00	0	61	104	889192448	60	21041
2026-01-23 08:48:02.03	353.39	6.25	-45.2	-59.7	3.8	1.49e+00	0	61	104	889192448	60	20973
2026-01-23 08:48:06.07	353.09	5.98	-45.1	-59.7	3.8	1.49e+00	0	61	104	889192448	60	20977
2026-01-23 08:48:10.11	352.80	5.72	-45.1	-59.7	3.8	1.49e+00	0	61	104	889192448	60	20998
2026-01-23 08:48:14.15	352.51	5.46	-45.1	-59.7	3.8	1.49e+00	0	61	104	889192448	60	20848
2026-01-23 08:48:18.19	352.23	5.20	-45.1	-59.7	3.8	1.49e+00	0	61	104	889192448	60	20964
2026-01-23 08:48:22.23	351.95	4.95	-45.1	-59.7	3.8	1.49e+00	0	61	104	889192448	60	20895
2026-01-23 08:48:26.28	351.68	4.69	-45.1	-59.7	3.8	1.49e+00	0	61	104	889192448	60	20883
2026-01-23 08:48:30.31	351.41	4.44	-45.1	-59.7	3.8	1.49e+00	0	61	104	889192448	60	20832
2026-01-23 08:48:34.36	351.15	4.19	-45.1	-59.7	3.8	1.49e+00	0	61	104	889192448	60	20884
2026-01-23 08:48:38.40	350.89	3.94	-45.1	-59.7	3.8	1.49e+00	0	61	104	889192448	60	20906
2026-01-23 08:48:42.44	350.64	3.69	-45.1	-59.7	3.8	1.49e+00	0	61	104	889192448	60	20838
2026-01-23 08:48:46.48	350.39	3.44	-45.1	-59.7	3.8	1.49e+00	0	61	104	889192448	60	20893
2026-01-23 08:48:50.52	350.14	3.20	-45.1	-59.7	3.8	1.49e+00	0	61	104	889192448	60	20813
2026-01-23 08:48:54.56	349.90	2.95	-45.1	-59.7	3.8	1.49e+00	0	61	104	889192448	60	20949
2026-01-23 08:48:58.61	349.67	2.71	-45.1	-59.7	3.8	1.49e+00	0	61	104	889192448	60	20822
2026-01-23 08:49:02.65	349.44	2.47	-45.1	-59.7	3.8	1.49e+00	0	61	104	889192448	60	20826
2026-01-23 08:49:06.69	349.21	2.24	-45.1	-59.7	3.8	1.49e+00	0	61	104	889192448	60	20882
2026-01-23 08:49:10.73	348.99	2.00	-45.1	-59.7	3.8	1.49e+00	0	61	104	889192448	60	20782

#Closed at: 2026-01-23 08:49:13
#Recorded file [889 MB]: D:/lorett/data/31039_260123_113607.dat