passes_logs/2026/01/23/R2.0S_Moscow/R2.0S_Moscow__20260123_101516_SUOMI_NPP_rec.log

#Pass ID: 20260123_101516_SUOMI NPP
#Satellite: SUOMI NPP
#Configuration: NPP
#almurnet v.1.7.20251203
#Start time: 2026-01-23 10:15:18

#Version: 2.2.20231116
#Station: R2.0S_Moscow
#Location: 37.707566 lon 55.798166 lat
#TLE: 1 37849U 11061A   26022.50498765  .00000208  00000+0  11976-3 0  9992
#TLE: 2 37849  98.7820 324.4892 0002275  50.8149 309.3229 14.19528284737775

#Time	Az	El	Level	Level2	SNR	BER	BlckErr	Temp	State	Recorded	gain1	gain2
2026-01-23 10:15:18.10	168.13	2.11	-43.9	-58.4	3.8	1.49e+00	0	52	0	0	59	19042
2026-01-23 10:15:22.14	168.19	2.37	-43.9	-58.4	3.8	1.49e+00	0	53	104	0	59	18999
2026-01-23 10:15:26.19	168.24	2.64	-43.9	-58.4	3.8	1.49e+00	0	53	104	0	59	19020
2026-01-23 10:15:30.23	168.30	2.90	-43.9	-58.4	3.8	1.49e+00	0	53	104	0	59	19049
2026-01-23 10:15:34.27	168.36	3.17	-43.9	-58.4	3.8	1.49e+00	0	54	104	0	59	19035
2026-01-23 10:15:38.32	168.42	3.44	-43.9	-58.4	3.8	1.49e+00	0	54	104	0	59	19014
2026-01-23 10:15:42.36	168.49	3.72	-43.9	-58.4	3.8	1.49e+00	0	54	104	0	59	19022
2026-01-23 10:15:46.40	168.55	3.99	-43.9	-58.4	3.8	1.49e+00	0	55	104	0	59	18971
2026-01-23 10:15:50.44	168.61	4.27	-43.9	-58.3	3.8	1.49e+00	0	55	104	0	59	18751
2026-01-23 10:15:54.48	168.68	4.56	-43.9	-57.9	3.8	1.49e+00	0	55	104	0	59	18061
2026-01-23 10:15:58.52	168.74	4.84	-43.8	-57.4	3.8	1.49e+00	0	55	104	0	59	16977
2026-01-23 10:16:02.56	168.81	5.13	-43.8	-56.9	3.8	1.49e+00	0	56	104	0	59	16079
2026-01-23 10:16:06.60	168.88	5.42	-43.8	-56.5	3.8	1.49e+00	0	56	104	0	59	15255
2026-01-23 10:16:10.64	168.95	5.72	-43.7	-56.0	4.0	1.49e+00	0	56	104	0	59	14427
2026-01-23 10:16:14.68	169.02	6.01	-43.7	-55.8	3.9	1.47e+00	0	56	104	0	59	14069
2026-01-23 10:16:18.73	169.09	6.32	-43.7	-56.0	4.0	1.48e+00	0	56	104	0	59	14452
2026-01-23 10:16:22.77	169.16	6.62	-43.8	-56.5	3.8	1.49e+00	0	56	104	0	59	15285
2026-01-23 10:16:26.81	169.24	6.93	-43.7	-56.0	3.8	1.49e+00	0	57	104	0	59	14472
2026-01-23 10:16:30.84	169.31	7.24	-43.5	-53.5	4.7	9.87e-01	0	57	0	2097152	59	10809
2026-01-23 10:16:34.88	169.39	7.56	-43.1	-50.5	6.6	2.46e-01	0	57	0	9437184	58	8150
2026-01-23 10:16:38.92	169.47	7.88	-42.6	-48.9	8.1	5.89e-02	0	57	0	16777216	57	7172
2026-01-23 10:16:42.97	169.55	8.20	-43.5	-54.8	4.2	1.36e+00	0	57	0	23068672	58	13359
2026-01-23 10:16:47.00	169.63	8.53	-42.7	-48.6	8.6	1.67e-01	0	57	0	28311552	57	6949
2026-01-23 10:16:51.04	169.72	8.86	-42.5	-48.0	9.2	2.28e-02	0	58	0	35651584	56	6827
2026-01-23 10:16:55.08	169.80	9.20	-42.5	-47.9	9.3	1.98e-02	0	58	0	44040192	56	6786
2026-01-23 10:16:59.12	169.89	9.54	-42.5	-47.7	9.6	1.26e-02	0	58	0	51380224	56	6630
2026-01-23 10:17:03.16	169.98	9.89	-42.4	-47.5	9.9	7.40e-03	0	58	0	58720256	56	6461
2026-01-23 10:17:07.20	170.07	10.24	-42.3	-47.2	10.3	6.65e-03	0	58	0	66060288	56	6210
2026-01-23 10:17:11.23	170.16	10.60	-42.1	-46.6	10.9	2.40e-03	0	58	0	74448896	56	5855
2026-01-23 10:17:15.27	170.25	10.96	-42.1	-46.5	11.1	1.62e-03	0	58	0	81788928	56	5750
2026-01-23 10:17:19.31	170.35	11.33	-41.9	-46.3	11.2	1.44e-03	0	58	0	89128960	55	5937
2026-01-23 10:17:23.35	170.45	11.70	-41.9	-46.2	11.3	1.06e-03	0	58	0	96468992	55	5860
2026-01-23 10:17:27.39	170.55	12.08	-41.8	-46.1	11.4	9.44e-04	0	59	0	103809024	55	5794
2026-01-23 10:17:31.42	170.65	12.46	-41.6	-45.6	11.9	4.13e-04	0	59	0	112197632	55	5515
2026-01-23 10:17:35.46	170.76	12.85	-41.5	-45.4	12.2	1.88e-04	0	59	0	119537664	55	5351
2026-01-23 10:17:39.50	170.87	13.25	-41.4	-45.1	12.5	1.13e-04	0	59	0	126877696	54	5508
2026-01-23 10:17:43.53	170.98	13.65	-41.4	-45.0	12.6	1.01e-04	0	59	0	134217728	54	5428
2026-01-23 10:17:47.57	171.09	14.06	-41.3	-44.9	12.8	6.86e-05	0	59	0	142606336	54	5382
2026-01-23 10:17:51.61	171.21	14.48	-41.3	-44.9	12.8	4.50e-05	0	59	0	149946368	54	5357
2026-01-23 10:17:55.65	171.33	14.90	-41.2	-44.6	13.1	4.27e-05	0	59	0	157286400	54	5210
2026-01-23 10:17:59.69	171.45	15.34	-41.1	-44.4	13.3	1.83e-05	0	59	0	164626432	54	5097
2026-01-23 10:18:03.73	171.58	15.77	-41.1	-44.4	13.4	1.52e-05	0	59	0	171966464	54	5080
2026-01-23 10:18:07.77	171.71	16.22	-41.1	-44.3	13.5	1.44e-05	0	59	0	180355072	54	5039
2026-01-23 10:18:11.81	171.84	16.68	-41.3	-44.7	13.1	2.21e-05	0	59	0	187695104	54	5262
2026-01-23 10:18:15.84	171.98	17.14	-41.4	-44.8	13.0	3.81e-05	0	60	0	195035136	54	5318
2026-01-23 10:18:19.88	172.12	17.61	-41.4	-45.0	12.8	5.72e-05	0	60	0	202375168	54	5425
2026-01-23 10:18:23.92	172.26	18.10	-41.6	-45.3	12.5	1.10e-04	0	60	0	210763776	54	5655
2026-01-23 10:18:27.97	172.41	18.59	-41.6	-45.3	12.6	8.31e-05	0	60	0	218103808	54	5605
2026-01-23 10:18:32.01	172.57	19.09	-41.7	-45.5	12.4	2.34e-04	0	60	0	225443840	54	5760
2026-01-23 10:18:36.04	172.72	19.60	-42.0	-46.1	11.8	4.48e-04	0	60	0	232783872	54	6142
2026-01-23 10:18:40.08	172.89	20.12	-42.2	-46.5	11.3	1.13e-03	0	60	0	240123904	55	6094
2026-01-23 10:18:44.12	173.06	20.66	-42.2	-46.6	11.3	9.45e-04	0	60	0	248512512	55	6142
2026-01-23 10:18:48.15	173.23	21.20	-42.3	-46.7	11.2	1.38e-03	0	60	0	255852544	55	6239
2026-01-23 10:18:52.19	173.41	21.76	-42.5	-47.0	10.8	2.08e-03	0	60	0	263192576	55	6472
2026-01-23 10:18:56.23	173.60	22.33	-42.4	-46.8	11.1	1.97e-03	0	60	0	270532608	55	6303
2026-01-23 10:19:00.27	173.79	22.91	-42.3	-46.5	11.4	1.01e-03	0	60	0	278921216	55	6108
2026-01-23 10:19:04.31	173.99	23.50	-42.1	-46.1	11.8	3.61e-04	0	60	0	286261248	55	5842
2026-01-23 10:19:08.34	174.20	24.11	-41.9	-45.7	12.3	2.17e-04	0	60	0	293601280	55	5576
2026-01-23 10:19:12.38	174.41	24.73	-42.0	-45.8	12.2	2.72e-04	0	60	0	300941312	55	5634
2026-01-23 10:19:16.42	174.64	25.37	-41.8	-45.5	12.4	8.01e-05	0	61	0	308281344	55	5404
2026-01-23 10:19:20.46	174.87	26.02	-41.7	-45.3	12.7	7.78e-05	0	60	0	316669952	55	5335
2026-01-23 10:19:24.50	175.11	26.69	-41.8	-45.6	12.4	1.32e-04	0	60	0	324009984	55	5472
2026-01-23 10:19:28.54	175.36	27.37	-41.8	-45.5	12.6	7.70e-05	0	61	0	331350016	55	5408
2026-01-23 10:19:32.57	175.62	28.07	-41.9	-45.8	12.2	1.62e-04	0	60	0	338690048	55	5612
2026-01-23 10:19:36.60	175.89	28.79	-42.2	-46.3	11.7	4.72e-04	0	61	0	347078656	55	5945
2026-01-23 10:19:40.64	176.18	29.53	-42.2	-46.3	11.7	5.35e-04	0	61	0	354418688	55	5980
2026-01-23 10:19:44.68	176.47	30.29	-42.1	-46.1	12.0	7.81e-04	0	61	0	361758720	55	5817
2026-01-23 10:19:48.72	176.79	31.06	-42.5	-46.8	11.2	9.59e-04	0	61	0	369098752	55	6281
2026-01-23 10:19:52.76	177.11	31.86	-42.4	-46.7	11.3	1.37e-03	0	61	0	376438784	55	6255
2026-01-23 10:19:56.80	177.45	32.67	-42.5	-46.9	10.9	2.92e-03	0	61	0	384827392	55	6393
2026-01-23 10:20:00.83	177.81	33.51	-42.6	-46.9	11.3	8.53e-04	0	61	0	392167424	56	6048
2026-01-23 10:20:04.87	178.19	34.37	-42.9	-47.5	10.8	2.18e-03	0	61	0	399507456	56	6428
2026-01-23 10:20:08.91	178.59	35.26	-42.8	-47.3	10.9	1.89e-03	0	61	0	406847488	56	6333
2026-01-23 10:20:12.95	179.01	36.17	-42.7	-47.0	11.2	1.53e-03	0	61	0	415236096	56	6127
2026-01-23 10:20:16.99	179.45	37.10	-42.3	-46.2	12.0	4.03e-04	0	61	0	422576128	56	5582
2026-01-23 10:20:21.03	179.92	38.06	-42.2	-45.9	12.4	2.35e-04	0	61	0	429916160	56	5373
2026-01-23 10:20:25.07	180.41	39.04	-42.6	-46.9	11.4	1.07e-03	0	61	0	437256192	56	6055
2026-01-23 10:20:29.11	180.94	40.05	-43.3	-48.7	9.4	9.14e-03	0	61	0	444596224	57	7038
2026-01-23 10:20:33.15	181.50	41.09	-43.2	-48.4	9.8	1.06e-02	0	61	0	452984832	57	6738
2026-01-23 10:20:37.18	182.09	42.15	-42.9	-47.4	10.8	2.37e-03	0	61	0	460324864	57	6030
2026-01-23 10:20:41.22	182.73	43.24	-42.4	-46.3	12.0	4.51e-04	0	61	0	467664896	56	5605
2026-01-23 10:20:45.25	183.41	44.36	-42.8	-47.1	11.2	9.59e-04	0	61	0	475004928	56	6185
2026-01-23 10:20:49.29	184.14	45.51	-43.0	-47.8	10.3	3.51e-03	0	61	0	482344960	56	6660
2026-01-23 10:20:53.33	184.92	46.68	-43.4	-48.7	9.4	1.91e-02	0	61	0	490733568	57	7030
2026-01-23 10:20:57.37	185.77	47.89	-43.6	-49.4	8.8	3.44e-02	0	61	0	498073600	58	7199
2026-01-23 10:21:01.40	186.68	49.12	-42.8	-47.2	11.0	1.39e-03	0	61	0	505413632	57	5867
2026-01-23 10:21:05.44	187.66	50.38	-42.0	-45.8	12.4	1.24e-04	0	61	0	512753664	55	5612
2026-01-23 10:21:09.48	188.74	51.66	-41.4	-44.6	13.7	1.50e-06	0	61	0	521142272	54	5165
2026-01-23 10:21:13.52	189.91	52.97	-41.0	-43.8	14.4	0.00e+00	0	61	0	528482304	53	5029
2026-01-23 10:21:17.55	191.18	54.30	-40.6	-43.3	15.0	1.50e-06	0	61	0	535822336	53	4733
2026-01-23 10:21:21.59	192.59	55.65	-40.2	-42.7	15.6	0.00e+00	0	61	0	543162368	51	4948
2026-01-23 10:21:25.63	194.13	57.01	-40.8	-43.5	14.7	0.00e+00	0	61	0	550502400	52	5155
2026-01-23 10:21:29.67	195.83	58.39	-40.9	-43.8	14.5	0.00e+00	0	61	0	558891008	52	5283
2026-01-23 10:21:33.70	197.72	59.77	-39.9	-42.2	16.2	0.00e+00	0	61	0	566231040	51	4673
2026-01-23 10:21:37.74	199.81	61.15	-40.1	-42.5	15.9	0.00e+00	0	61	0	573571072	50	5145
2026-01-23 10:21:41.78	202.16	62.53	-40.8	-43.5	14.8	0.00e+00	0	61	0	580911104	52	5131
2026-01-23 10:21:45.82	204.78	63.89	-41.0	-43.9	14.4	1.50e-06	0	61	0	589299712	52	5396
2026-01-23 10:21:49.86	207.72	65.22	-40.9	-43.7	14.6	7.00e-07	0	62	0	596639744	53	4940
2026-01-23 10:21:53.90	211.02	66.50	-41.8	-45.3	13.0	9.07e-05	0	61	0	603979776	54	5605
2026-01-23 10:21:57.94	214.73	67.73	-42.0	-45.6	12.5	3.26e-04	0	61	0	611319808	55	5506
2026-01-23 10:22:01.98	218.89	68.87	-42.5	-46.4	11.9	5.04e-04	0	62	0	618659840	56	5671
2026-01-23 10:22:06.01	223.54	69.91	-42.7	-47.0	11.4	7.84e-04	0	61	0	627048448	56	6079
2026-01-23 10:22:10.05	228.70	70.83	-43.4	-48.7	9.7	1.29e-02	0	62	0	634388480	57	6995
2026-01-23 10:22:14.09	234.37	71.59	-42.7	-47.0	11.3	1.85e-03	0	62	0	641728512	57	5778
2026-01-23 10:22:18.12	240.48	72.18	-42.4	-46.4	12.0	2.91e-04	0	61	0	649068544	56	5674
2026-01-23 10:22:22.16	246.96	72.56	-41.8	-45.3	12.9	2.51e-05	0	62	0	657457152	55	5285
2026-01-23 10:22:26.20	253.66	72.72	-41.8	-45.3	12.9	2.44e-05	0	62	0	664797184	54	5617
2026-01-23 10:22:30.24	260.40	72.66	-41.2	-44.3	13.9	5.30e-06	0	62	0	672137216	53	5314
2026-01-23 10:22:34.27	266.98	72.38	-42.2	-46.2	12.1	1.43e-04	0	61	0	679477248	54	6213
2026-01-23 10:22:38.31	273.28	71.89	-43.5	-49.1	9.2	4.06e-02	0	61	0	686817280	57	7360
2026-01-23 10:22:42.35	279.17	71.20	-43.7	-50.3	7.8	5.13e-02	0	61	0	695205888	58	7905
2026-01-23 10:22:46.39	284.56	70.35	-44.6	-53.9	5.0	3.04e-01	0	62	0	702545920	59	11375
2026-01-23 10:22:50.43	289.45	69.37	-44.9	-57.8	3.8	1.49e+00	0	62	104	708837376	60	16809
2026-01-23 10:22:54.47	293.83	68.27	-42.9	-47.3	10.9	4.32e-03	0	62	0	714080256	57	5944
2026-01-23 10:22:58.51	297.74	67.08	-42.7	-47.5	10.8	8.43e-04	0	62	0	722468864	56	6480
2026-01-23 10:23:02.54	301.21	65.83	-41.0	-43.9	14.3	1.37e-05	0	62	0	729808896	53	5072
2026-01-23 10:23:06.58	304.31	64.52	-40.8	-43.7	14.7	0.00e+00	0	62	0	737148928	52	5224
2026-01-23 10:23:10.63	307.07	63.17	-40.4	-43.0	15.3	0.00e+00	0	62	0	744488960	52	4823
2026-01-23 10:23:14.66	309.53	61.81	-39.0	-41.1	17.2	0.00e+00	0	62	0	752877568	50	4343
2026-01-23 10:23:18.70	311.74	60.44	-40.3	-43.0	15.2	7.00e-07	0	62	0	760217600	52	4823
2026-01-23 10:23:22.74	313.72	59.06	-40.8	-43.8	14.4	0.00e+00	0	62	0	767557632	52	5328
2026-01-23 10:23:26.78	315.50	57.68	-40.6	-43.3	14.9	0.00e+00	0	62	0	774897664	52	5025
2026-01-23 10:23:30.81	317.11	56.32	-41.1	-44.1	14.2	9.10e-06	0	62	0	782237696	54	4902
2026-01-23 10:23:34.85	318.57	54.97	-41.5	-44.8	13.5	2.20e-06	0	62	0	790626304	53	5631
2026-01-23 10:23:38.89	319.91	53.63	-40.3	-42.8	15.5	0.00e+00	0	62	0	797966336	52	4717
2026-01-23 10:23:42.92	321.12	52.32	-41.1	-43.9	14.4	7.00e-07	0	62	0	805306368	52	5395
2026-01-23 10:23:46.96	322.24	51.03	-40.4	-42.8	15.6	0.00e+00	0	62	0	812646400	51	5013
2026-01-23 10:23:51.00	323.26	49.77	-41.3	-44.4	13.9	1.50e-06	0	62	0	821035008	54	5057
2026-01-23 10:23:55.04	324.21	48.53	-42.0	-45.4	12.8	3.05e-05	0	62	0	828375040	55	5400
2026-01-23 10:23:59.08	325.09	47.31	-43.8	-49.6	8.6	5.72e-02	0	62	0	835715072	58	7361
2026-01-23 10:24:03.12	325.90	46.13	-42.2	-45.8	12.6	1.15e-04	0	62	0	843055104	56	5303
2026-01-23 10:24:07.16	326.65	44.97	-43.6	-49.2	9.0	6.65e-03	0	62	0	850395136	57	7416
2026-01-23 10:24:11.20	327.35	43.84	-41.5	-44.7	13.6	1.30e-04	0	62	0	858783744	55	4956
2026-01-23 10:24:15.23	328.01	42.75	-42.1	-45.9	12.5	3.43e-05	0	62	0	866123776	54	5999
2026-01-23 10:24:19.27	328.63	41.67	-41.4	-44.5	13.8	2.74e-05	0	62	0	873463808	54	5102
2026-01-23 10:24:23.31	329.20	40.63	-40.3	-42.8	15.5	0.00e+00	0	62	0	880803840	52	4711
2026-01-23 10:24:27.34	329.74	39.61	-42.5	-46.5	11.7	1.72e-04	0	62	0	888143872	55	6131
2026-01-23 10:24:31.38	330.25	38.62	-42.6	-46.8	11.6	6.16e-04	0	62	0	896532480	56	5959
2026-01-23 10:24:35.42	330.74	37.65	-41.3	-44.3	14.0	1.22e-05	0	62	0	903872512	54	4989
2026-01-23 10:24:39.45	331.19	36.72	-41.3	-44.4	13.9	7.00e-07	0	62	0	911212544	53	5351
2026-01-23 10:24:43.49	331.62	35.80	-42.2	-46.1	12.1	2.07e-04	0	62	0	918552576	55	5804
2026-01-23 10:24:47.53	332.03	34.91	-42.3	-46.3	11.9	4.61e-04	0	62	0	926941184	55	5936
2026-01-23 10:24:51.57	332.42	34.04	-42.5	-46.6	11.6	4.35e-04	0	62	0	934281216	55	6155
2026-01-23 10:24:55.61	332.79	33.20	-43.1	-47.7	10.5	3.09e-03	0	62	0	941621248	56	6626
2026-01-23 10:24:59.64	333.14	32.37	-43.0	-47.6	10.6	3.76e-03	0	62	0	948961280	57	6173
2026-01-23 10:25:03.68	333.47	31.57	-42.5	-46.5	11.8	7.60e-04	0	62	0	956301312	57	5445
2026-01-23 10:25:07.72	333.79	30.79	-42.4	-46.4	11.9	4.39e-04	0	62	0	964689920	56	5691
2026-01-23 10:25:11.76	334.10	30.03	-42.6	-46.7	11.6	9.77e-04	0	62	0	972029952	56	5889
2026-01-23 10:25:15.79	334.39	29.29	-42.8	-47.3	10.9	2.20e-03	0	62	0	979369984	56	6297
2026-01-23 10:25:19.83	334.67	28.56	-43.8	-50.4	7.7	3.43e-02	0	62	0	986710016	58	8003
2026-01-23 10:25:23.87	334.94	27.85	-43.2	-48.3	9.8	1.18e-02	0	62	0	995098624	58	6316
2026-01-23 10:25:27.91	335.20	27.16	-41.5	-44.9	13.2	9.30e-05	0	62	0	1002438656	55	5066
2026-01-23 10:25:31.95	335.44	26.49	-40.5	-43.3	14.8	0.00e+00	0	62	0	1009778688	53	4709
2026-01-23 10:25:35.98	335.68	25.84	-40.8	-43.7	14.4	7.00e-07	0	62	0	1017118720	52	5220
2026-01-23 10:25:40.02	335.91	25.19	-41.7	-45.3	12.7	7.47e-05	0	62	0	1024458752	53	5937
2026-01-23 10:25:44.05	336.13	24.57	-41.7	-45.3	12.6	9.61e-05	0	62	0	1032847360	54	5619
2026-01-23 10:25:48.09	336.34	23.96	-41.4	-44.8	13.1	3.43e-05	0	62	0	1040187392	54	5296
2026-01-23 10:25:52.13	336.55	23.36	-40.9	-44.1	13.7	4.50e-06	0	62	0	1047527424	53	5189
2026-01-23 10:25:56.16	336.75	22.77	-40.8	-43.9	13.8	6.10e-06	0	62	0	1054867456	53	5075
2026-01-23 10:26:00.20	336.94	22.20	-40.5	-43.5	14.2	1.50e-06	0	62	0	1063256064	53	4847
2026-01-23 10:26:04.24	337.13	21.64	-40.8	-44.0	13.5	5.30e-06	0	62	0	1070596096	53	5139
2026-01-23 10:26:08.28	337.31	21.09	-41.1	-44.7	12.7	8.08e-05	0	62	0	1077936128	53	5568
2026-01-23 10:26:12.32	337.48	20.56	-41.4	-45.4	11.7	5.55e-04	0	62	0	1085276160	53	6018
2026-01-23 10:26:16.36	337.65	20.03	-40.9	-44.6	12.4	1.78e-04	0	62	0	1092616192	53	5496
2026-01-23 10:26:20.39	337.81	19.52	-40.2	-43.5	13.4	2.28e-05	0	62	0	1101004800	52	5102
2026-01-23 10:26:24.43	337.97	19.01	-40.0	-43.2	13.6	6.80e-06	0	62	0	1108344832	51	5232
2026-01-23 10:26:28.47	338.13	18.52	-40.2	-43.5	13.2	1.75e-05	0	62	0	1115684864	51	5438
2026-01-23 10:26:32.51	338.28	18.03	-40.5	-44.1	12.5	9.61e-05	0	62	0	1123024896	51	5805
2026-01-23 10:26:36.54	338.42	17.56	-40.5	-44.2	12.2	1.75e-04	0	62	0	1130364928	51	5915
2026-01-23 10:26:40.59	338.56	17.09	-40.5	-44.4	11.9	3.63e-04	0	62	0	1138753536	51	6058
2026-01-23 10:26:44.62	338.70	16.63	-40.6	-44.8	11.3	1.04e-03	0	62	0	1146093568	51	6309
2026-01-23 10:26:48.66	338.84	16.18	-40.7	-45.5	10.3	4.66e-03	0	62	0	1153433600	52	6492
2026-01-23 10:26:52.70	338.97	15.74	-41.1	-46.8	8.9	2.57e-02	0	62	0	1160773632	52	7487
2026-01-23 10:26:56.74	339.09	15.31	-41.4	-48.2	7.3	1.13e-01	0	62	0	1169162240	53	8328
2026-01-23 10:27:00.77	339.22	14.88	-41.5	-49.4	6.1	3.09e-01	0	62	0	1176502272	53	9593
2026-01-23 10:27:04.81	339.34	14.46	-41.1	-54.1	3.8	8.56e-01	0	62	104	1178599424	54	15429
2026-01-23 10:27:08.85	339.46	14.05	-41.6	-52.5	4.3	1.32e+00	0	62	0	1182793728	54	12846
2026-01-23 10:27:12.89	339.57	13.64	-41.8	-55.2	3.8	1.42e+00	0	62	104	1182793728	55	16506
2026-01-23 10:27:16.92	339.69	13.25	-41.5	-54.1	3.8	1.49e+00	0	62	104	1182793728	54	15483
2026-01-23 10:27:20.96	339.80	12.85	-42.0	-55.2	3.8	1.49e+00	0	62	104	1182793728	54	17601
2026-01-23 10:27:25.00	339.91	12.47	-41.2	-55.1	3.8	1.49e+00	0	62	104	1182793728	53	18456
2026-01-23 10:27:29.03	340.01	12.09	-41.2	-55.5	3.8	1.49e+00	0	62	104	1182793728	53	19308
2026-01-23 10:27:33.07	340.12	11.71	-40.8	-55.2	3.8	1.49e+00	0	62	104	1182793728	53	18536
2026-01-23 10:27:37.11	340.22	11.35	-40.7	-55.2	3.8	1.49e+00	0	62	104	1182793728	53	18615
2026-01-23 10:27:41.15	340.32	10.98	-40.7	-55.2	3.8	1.49e+00	0	62	104	1182793728	53	18615
2026-01-23 10:27:45.19	340.41	10.62	-40.7	-55.2	3.8	1.49e+00	0	62	104	1182793728	53	18533
2026-01-23 10:27:49.23	340.51	10.27	-40.6	-55.1	3.8	1.49e+00	0	62	104	1182793728	53	18473
2026-01-23 10:27:53.27	340.60	9.92	-40.6	-55.1	3.8	1.49e+00	0	62	104	1182793728	52	19450
2026-01-23 10:27:57.30	340.70	9.58	-40.6	-55.1	3.8	1.49e+00	0	62	104	1182793728	52	19480
2026-01-23 10:28:01.34	340.79	9.24	-40.6	-55.2	3.8	1.49e+00	0	62	104	1182793728	52	19616
2026-01-23 10:28:05.38	340.87	8.91	-40.7	-55.2	3.8	1.49e+00	0	62	104	1182793728	52	19652
2026-01-23 10:28:09.42	340.96	8.58	-40.3	-54.8	3.8	1.49e+00	0	62	104	1182793728	52	18869
2026-01-23 10:28:13.45	341.05	8.25	-40.6	-55.1	3.8	1.49e+00	0	62	104	1182793728	52	19512
2026-01-23 10:28:17.49	341.13	7.93	-43.1	-57.4	3.8	1.49e+00	0	62	104	1182793728	56	20260
2026-01-23 10:28:21.53	341.21	7.62	-45.1	-59.8	3.8	1.49e+00	0	62	104	1182793728	60	21112
2026-01-23 10:28:25.57	341.29	7.30	-45.3	-60.0	3.8	1.49e+00	0	62	104	1182793728	61	20363
2026-01-23 10:28:29.61	341.37	6.99	-45.2	-59.8	3.8	1.49e+00	0	62	104	1182793728	61	20009
2026-01-23 10:28:33.66	341.45	6.69	-45.1	-59.7	3.8	1.49e+00	0	62	104	1182793728	61	19788
2026-01-23 10:28:37.70	341.53	6.38	-45.2	-59.7	3.8	1.49e+00	0	62	104	1182793728	61	19789
2026-01-23 10:28:41.74	341.61	6.08	-45.1	-59.7	3.8	1.49e+00	0	62	104	1182793728	61	19748
2026-01-23 10:28:45.78	341.68	5.79	-45.1	-59.7	3.8	1.49e+00	0	62	104	1182793728	61	19780
2026-01-23 10:28:49.82	341.75	5.50	-45.1	-59.7	3.8	1.49e+00	0	62	104	1182793728	61	19788
2026-01-23 10:28:53.86	341.83	5.21	-45.1	-59.7	3.8	1.49e+00	0	62	104	1182793728	61	19768
2026-01-23 10:28:57.90	341.90	4.92	-45.1	-59.7	3.8	1.49e+00	0	62	104	1182793728	60	20870
2026-01-23 10:29:01.91	341.97	4.64	-45.1	-59.7	3.8	1.49e+00	0	62	104	1182793728	60	21008
2026-01-23 10:29:05.95	342.04	4.36	-45.1	-59.7	3.8	1.49e+00	0	62	104	1182793728	60	20828
2026-01-23 10:29:09.99	342.11	4.08	-45.1	-59.7	3.8	1.49e+00	0	62	104	1182793728	60	20898
2026-01-23 10:29:14.03	342.17	3.81	-45.1	-59.7	3.8	1.49e+00	0	62	104	1182793728	60	20788
2026-01-23 10:29:18.07	342.24	3.54	-45.1	-59.7	3.8	1.49e+00	0	62	104	1182793728	60	20807
2026-01-23 10:29:22.11	342.31	3.27	-45.1	-59.7	3.8	1.49e+00	0	62	104	1182793728	60	20845
2026-01-23 10:29:26.15	342.37	3.00	-45.1	-59.7	3.8	1.49e+00	0	62	104	1182793728	60	20859
2026-01-23 10:29:30.19	342.44	2.74	-45.1	-59.7	3.8	1.49e+00	0	62	104	1182793728	60	20844
2026-01-23 10:29:34.23	342.50	2.48	-45.1	-59.7	3.8	1.49e+00	0	62	104	1182793728	60	20871
2026-01-23 10:29:38.27	342.56	2.22	-45.1	-59.7	3.8	1.49e+00	0	62	104	1182793728	60	20848

#Closed at: 2026-01-23 10:29:42
#Recorded file [1182 MB]: D:/lorett/data/31039_260123_131517.dat