passes_logs/2026/01/23/R2.0S_Moscow/R2.0S_Moscow__20260123_002444_SUOMI_NPP_rec.log

#Pass ID: 20260123_002444_SUOMI NPP
#Satellite: SUOMI NPP
#Configuration: NPP
#almurnet v.1.7.20251203
#Start time: 2026-01-23 00:24:44

#Version: 2.2.20231116
#Station: R2.0S_Moscow
#Location: 37.707566 lon 55.798166 lat
#TLE: 1 37849U 11061A   26022.50498765  .00000208  00000+0  11976-3 0  9992
#TLE: 2 37849  98.7820 324.4892 0002275  50.8149 309.3229 14.19528284737775

#Time	Az	El	Level	Level2	SNR	BER	BlckErr	Temp	State	Recorded	gain1	gain2
2026-01-23 00:24:44.69	13.52	2.05	-41.2	-55.7	3.8	1.49e+00	0	51	0	0	54	18707
2026-01-23 00:24:48.74	13.42	2.30	-41.2	-55.7	3.8	1.49e+00	0	51	104	0	54	18695
2026-01-23 00:24:52.78	13.31	2.56	-41.2	-55.8	3.8	1.49e+00	0	51	104	0	54	18751
2026-01-23 00:24:56.82	13.21	2.82	-41.2	-55.7	3.8	1.49e+00	0	52	104	0	54	18637
2026-01-23 00:25:00.86	13.10	3.08	-41.2	-55.7	3.8	1.49e+00	0	52	104	0	54	18692
2026-01-23 00:25:04.90	12.99	3.34	-41.2	-55.7	3.8	1.49e+00	0	52	104	0	54	18641
2026-01-23 00:25:08.94	12.88	3.61	-41.2	-55.7	3.8	1.49e+00	0	53	104	0	54	18657
2026-01-23 00:25:12.98	12.77	3.88	-41.2	-55.7	3.8	1.49e+00	0	53	104	0	54	18665
2026-01-23 00:25:17.02	12.65	4.15	-41.2	-55.6	3.8	1.49e+00	0	53	104	0	54	18385
2026-01-23 00:25:21.06	12.53	4.42	-41.2	-55.5	3.8	1.49e+00	0	53	104	0	54	18196
2026-01-23 00:25:25.10	12.41	4.70	-41.2	-55.4	3.8	1.49e+00	0	54	104	0	54	18051
2026-01-23 00:25:29.15	12.28	4.98	-41.2	-55.3	3.8	1.49e+00	0	54	104	0	54	17735
2026-01-23 00:25:33.19	12.16	5.26	-41.2	-54.8	3.8	1.49e+00	0	54	104	0	54	16857
2026-01-23 00:25:37.23	12.03	5.55	-41.1	-53.9	3.8	1.49e+00	0	55	104	0	54	15165
2026-01-23 00:25:41.27	11.90	5.84	-41.0	-52.9	4.0	1.47e+00	0	54	104	0	54	13495
2026-01-23 00:25:45.32	11.76	6.13	-41.0	-53.3	4.0	1.48e+00	0	55	104	0	54	14058
2026-01-23 00:25:49.36	11.62	6.42	-41.1	-55.0	3.8	1.49e+00	0	55	104	0	54	17252
2026-01-23 00:25:53.40	11.48	6.72	-41.2	-55.3	3.8	1.49e+00	0	55	104	0	54	17703
2026-01-23 00:25:57.44	11.33	7.02	-41.0	-53.1	3.8	1.48e+00	0	55	104	0	54	13874
2026-01-23 00:26:01.48	11.19	7.33	-40.9	-51.9	4.2	1.35e+00	0	56	0	0	53	12725
2026-01-23 00:26:05.52	11.03	7.64	-40.9	-51.7	4.3	1.31e+00	0	56	0	4194304	53	12476
2026-01-23 00:26:09.56	10.88	7.95	-41.0	-53.1	3.9	1.47e+00	0	56	104	4194304	53	14565
2026-01-23 00:26:13.60	10.72	8.26	-41.0	-54.5	3.8	1.45e+00	0	56	104	4194304	53	17164
2026-01-23 00:26:17.64	10.55	8.58	-41.3	-54.3	3.8	1.49e+00	0	56	104	4194304	54	15929
2026-01-23 00:26:21.68	10.39	8.90	-40.7	-55.1	3.8	1.48e+00	0	56	104	4194304	53	18410
2026-01-23 00:26:25.72	10.22	9.23	-41.4	-54.9	3.8	1.49e+00	0	57	104	4194304	54	17030
2026-01-23 00:26:29.76	10.04	9.56	-40.6	-55.2	3.8	1.49e+00	0	56	104	4194304	53	18529
2026-01-23 00:26:33.79	9.86	9.89	-40.6	-55.2	3.8	1.49e+00	0	57	104	4194304	53	18647
2026-01-23 00:26:37.83	9.68	10.23	-40.6	-54.7	3.8	1.49e+00	0	57	104	4194304	53	17597
2026-01-23 00:26:41.87	9.49	10.58	-40.5	-55.1	3.8	1.49e+00	0	57	104	4194304	52	19561
2026-01-23 00:26:45.91	9.29	10.92	-41.6	-54.4	3.8	1.49e+00	0	57	104	4194304	53	17065
2026-01-23 00:26:49.95	9.09	11.28	-42.2	-51.7	4.9	8.70e-01	0	57	0	5242880	54	11784
2026-01-23 00:26:53.99	8.89	11.63	-42.1	-50.1	6.0	3.98e-01	0	57	0	13631488	55	9238
2026-01-23 00:26:58.02	8.68	12.00	-41.6	-47.8	8.1	2.66e-01	0	57	0	18874368	53	7969
2026-01-23 00:27:02.06	8.46	12.36	-40.5	-45.3	10.4	3.64e-03	0	58	0	23068672	52	6310
2026-01-23 00:27:06.10	8.24	12.73	-40.8	-45.5	10.4	4.73e-03	0	58	0	31457280	52	6454
2026-01-23 00:27:10.14	8.01	13.11	-40.8	-45.2	11.0	3.12e-03	0	58	0	38797312	52	6273
2026-01-23 00:27:14.18	7.78	13.50	-40.7	-44.7	12.0	3.26e-04	0	58	0	46137344	52	5863
2026-01-23 00:27:18.22	7.54	13.88	-40.7	-44.4	12.5	1.32e-04	0	58	0	53477376	52	5721
2026-01-23 00:27:22.25	7.29	14.28	-40.8	-44.4	12.6	9.61e-05	0	58	0	61865984	52	5681
2026-01-23 00:27:26.29	7.04	14.68	-40.8	-44.5	12.7	1.20e-04	0	58	0	69206016	52	5752
2026-01-23 00:27:30.33	6.77	15.09	-40.9	-44.6	12.6	1.23e-04	0	58	0	76546048	52	5824
2026-01-23 00:27:34.36	6.50	15.50	-40.9	-44.5	12.7	8.69e-05	0	58	0	83886080	52	5785
2026-01-23 00:27:38.40	6.23	15.92	-41.0	-44.6	12.8	5.87e-05	0	58	0	91226112	52	5803
2026-01-23 00:27:42.43	5.94	16.34	-41.0	-44.5	13.0	2.74e-05	0	58	0	99614720	52	5741
2026-01-23 00:27:46.47	5.65	16.77	-41.1	-44.6	12.9	2.97e-05	0	58	0	106954752	52	5842
2026-01-23 00:27:50.51	5.34	17.21	-41.2	-44.7	12.9	5.18e-05	0	59	0	114294784	52	5914
2026-01-23 00:27:54.55	5.03	17.66	-41.3	-44.9	12.8	7.55e-05	0	59	0	121634816	53	5670
2026-01-23 00:27:58.59	4.70	18.11	-41.2	-44.8	12.9	4.57e-05	0	59	0	130023424	53	5603
2026-01-23 00:28:02.62	4.37	18.57	-41.3	-44.8	12.8	3.96e-05	0	59	0	137363456	53	5646
2026-01-23 00:28:06.66	4.03	19.04	-41.3	-44.9	12.9	3.89e-05	0	59	0	144703488	53	5697
2026-01-23 00:28:10.70	3.67	19.52	-41.5	-45.1	12.7	7.09e-05	0	59	0	152043520	53	5827
2026-01-23 00:28:14.73	3.30	20.00	-41.6	-45.4	12.4	1.04e-04	0	59	0	159383552	53	6032
2026-01-23 00:28:18.77	2.92	20.50	-42.0	-46.0	11.8	4.35e-04	0	59	0	167772160	54	6127
2026-01-23 00:28:22.81	2.53	21.00	-41.9	-45.9	12.0	5.91e-04	0	59	0	175112192	54	6029
2026-01-23 00:28:26.85	2.12	21.51	-41.9	-45.8	12.1	6.30e-04	0	59	0	182452224	54	5937
2026-01-23 00:28:30.88	1.70	22.03	-42.0	-46.1	11.8	4.10e-04	0	59	0	189792256	54	6148
2026-01-23 00:28:34.92	1.27	22.56	-41.9	-45.8	12.1	4.37e-04	0	59	0	197132288	54	5937
2026-01-23 00:28:38.96	0.82	23.09	-42.0	-46.1	11.9	4.43e-04	0	59	0	205520896	54	6139
2026-01-23 00:28:43.00	0.35	23.64	-42.3	-46.7	11.1	1.61e-03	0	59	0	212860928	55	6268
2026-01-23 00:28:47.04	359.86	24.20	-42.5	-47.1	10.8	2.56e-03	0	59	0	220200960	55	6551
2026-01-23 00:28:51.08	359.36	24.76	-42.2	-46.4	11.6	1.58e-03	0	59	0	227540992	55	5994
2026-01-23 00:28:55.12	358.84	25.34	-42.1	-46.3	11.6	4.86e-04	0	59	0	235929600	55	5928
2026-01-23 00:28:59.16	358.29	25.93	-42.4	-46.8	11.2	1.38e-03	0	59	0	243269632	55	6285
2026-01-23 00:29:03.20	357.73	26.52	-42.7	-47.3	10.8	2.28e-03	0	59	0	250609664	56	6305
2026-01-23 00:29:07.23	357.14	27.13	-42.4	-46.6	11.6	7.80e-04	0	59	0	257949696	56	5847
2026-01-23 00:29:11.27	356.53	27.74	-42.3	-46.3	11.9	2.84e-04	0	59	0	265289728	56	5637
2026-01-23 00:29:15.31	355.90	28.37	-42.6	-47.0	11.2	9.90e-04	0	60	0	273678336	56	6082
2026-01-23 00:29:19.35	355.24	29.01	-42.3	-47.1	11.1	7.18e-03	0	59	0	281018368	56	6157
2026-01-23 00:29:23.39	354.55	29.65	-42.7	-47.1	11.1	1.27e-03	0	59	0	288358400	56	6168
2026-01-23 00:29:27.42	353.84	30.31	-42.9	-47.6	10.6	3.14e-03	0	60	0	295698432	56	6533
2026-01-23 00:29:31.46	353.09	30.98	-43.0	-47.8	10.4	4.15e-03	0	60	0	304087040	56	6705
2026-01-23 00:29:35.50	352.31	31.66	-43.3	-48.6	9.4	8.97e-03	0	59	0	311427072	57	6881
2026-01-23 00:29:39.53	351.50	32.34	-43.3	-48.7	9.5	1.66e-02	0	60	0	318767104	57	6968
2026-01-23 00:29:43.57	350.65	33.04	-43.4	-48.8	9.3	1.51e-02	0	60	0	326107136	57	7104
2026-01-23 00:29:47.61	349.76	33.74	-43.6	-49.3	9.0	2.57e-02	0	60	0	333447168	58	7106
2026-01-23 00:29:51.65	348.83	34.45	-43.2	-48.3	10.1	7.44e-03	0	60	0	341835776	58	6277
2026-01-23 00:29:55.68	347.87	35.17	-43.2	-48.0	10.3	5.58e-03	0	60	0	349175808	58	6069
2026-01-23 00:29:59.72	346.85	35.90	-43.3	-48.3	10.1	4.55e-03	0	60	0	356515840	58	6286
2026-01-23 00:30:03.75	345.79	36.63	-43.2	-48.1	10.2	4.68e-03	0	60	0	363855872	58	6146
2026-01-23 00:30:07.79	344.68	37.37	-43.5	-48.8	9.5	1.96e-02	0	60	0	372244480	58	6662
2026-01-23 00:30:11.82	343.52	38.11	-43.2	-48.0	10.4	4.39e-03	0	60	0	379584512	58	6103
2026-01-23 00:30:15.86	342.31	38.85	-43.6	-49.1	9.2	2.36e-02	0	60	0	386924544	58	6915
2026-01-23 00:30:19.90	341.03	39.59	-42.7	-46.7	11.7	8.17e-04	0	60	0	394264576	57	5575
2026-01-23 00:30:23.94	339.69	40.34	-42.9	-47.2	11.2	1.40e-03	0	60	0	401604608	57	5910
2026-01-23 00:30:27.98	338.30	41.08	-43.7	-49.4	8.9	2.70e-02	0	60	0	409993216	58	7147
2026-01-23 00:30:32.02	336.83	41.81	-43.1	-47.6	10.8	4.28e-03	0	60	0	417333248	58	5793
2026-01-23 00:30:36.06	335.30	42.54	-43.4	-48.4	10.1	3.14e-03	0	60	0	424673280	57	6727
2026-01-23 00:30:40.09	333.70	43.25	-44.1	-50.7	7.7	8.17e-02	0	60	0	432013312	58	8344
2026-01-23 00:30:44.13	332.02	43.96	-43.8	-49.5	8.8	4.04e-02	0	60	0	439353344	58	7233
2026-01-23 00:30:48.17	330.27	44.64	-43.8	-49.6	8.7	1.94e-02	0	60	0	447741952	58	7339
2026-01-23 00:30:52.21	328.44	45.31	-42.9	-47.3	11.1	2.67e-03	0	60	0	455081984	57	5970
2026-01-23 00:30:56.25	326.53	45.96	-43.1	-47.7	10.7	2.97e-03	0	60	0	462422016	57	6208
2026-01-23 00:31:00.29	324.54	46.58	-42.0	-45.4	13.1	3.73e-05	0	60	0	469762048	56	5094
2026-01-23 00:31:04.33	322.48	47.16	-43.1	-47.8	10.7	2.91e-03	0	60	0	478150656	56	6652
2026-01-23 00:31:08.36	320.34	47.71	-43.1	-47.8	10.7	3.13e-03	0	60	0	485490688	57	6281
2026-01-23 00:31:12.40	318.13	48.23	-43.5	-48.7	9.6	3.22e-02	0	60	0	492830720	58	6639
2026-01-23 00:31:16.44	315.84	48.70	-42.5	-46.4	12.1	3.00e-04	0	60	0	500170752	57	5363
2026-01-23 00:31:20.47	313.48	49.13	-44.3	-51.5	7.0	6.78e-02	0	60	0	507510784	59	8562
2026-01-23 00:31:24.51	311.06	49.50	-43.4	-48.5	9.7	2.44e-02	0	60	0	515899392	58	6447
2026-01-23 00:31:28.55	308.59	49.82	-43.0	-47.6	10.9	1.17e-03	0	60	0	523239424	57	6143
2026-01-23 00:31:32.59	306.06	50.09	-43.4	-48.4	10.0	6.23e-03	0	60	0	530579456	58	6368
2026-01-23 00:31:36.63	303.49	50.30	-42.5	-46.4	12.1	7.74e-04	0	60	0	537919488	56	5668
2026-01-23 00:31:40.66	300.90	50.44	-41.5	-44.6	13.7	6.80e-06	0	60	0	546308096	54	5160
2026-01-23 00:31:44.70	298.28	50.53	-40.6	-43.2	15.0	0.00e+00	0	60	0	553648128	53	4701
2026-01-23 00:31:48.74	295.66	50.55	-41.6	-44.8	13.5	3.80e-06	0	60	0	560988160	54	5291
2026-01-23 00:31:52.78	293.03	50.50	-42.2	-46.0	12.4	8.01e-05	0	60	0	568328192	55	5724
2026-01-23 00:31:56.82	290.42	50.40	-42.2	-45.9	12.2	4.67e-04	0	60	0	575668224	55	5717
2026-01-23 00:32:00.85	287.84	50.23	-41.9	-45.5	12.8	5.79e-05	0	60	0	584056832	55	5412
2026-01-23 00:32:04.89	285.29	50.00	-41.9	-45.4	13.0	2.13e-05	0	60	0	591396864	55	5358
2026-01-23 00:32:08.93	282.77	49.71	-41.9	-45.4	12.9	1.01e-04	0	60	0	598736896	55	5371
2026-01-23 00:32:12.97	280.31	49.37	-42.6	-46.8	11.6	2.86e-04	0	60	0	606076928	55	6324
2026-01-23 00:32:17.01	277.91	48.97	-42.6	-46.6	11.8	4.26e-04	0	60	0	614465536	56	5851
2026-01-23 00:32:21.05	275.57	48.53	-43.0	-47.6	10.8	7.96e-04	0	60	0	621805568	56	6561
2026-01-23 00:32:25.08	273.31	48.04	-42.8	-47.0	11.4	1.30e-03	0	60	0	629145600	57	5771
2026-01-23 00:32:29.12	271.12	47.51	-42.9	-47.3	11.1	4.88e-03	0	60	0	636485632	57	5950
2026-01-23 00:32:33.16	269.00	46.94	-43.2	-48.0	10.5	4.05e-03	0	60	0	643825664	57	6425
2026-01-23 00:32:37.20	266.96	46.34	-43.4	-48.4	9.9	5.85e-03	0	60	0	652214272	57	6786
2026-01-23 00:32:41.23	265.00	45.72	-42.7	-46.9	11.4	4.88e-04	0	60	0	659554304	56	6052
2026-01-23 00:32:45.27	263.12	45.06	-42.8	-47.2	11.2	8.92e-04	0	61	0	666894336	56	6250
2026-01-23 00:32:49.30	261.32	44.38	-42.7	-46.9	11.5	2.64e-03	0	60	0	674234368	57	5680
2026-01-23 00:32:53.34	259.59	43.69	-43.0	-47.6	10.8	3.56e-03	0	60	0	682622976	57	6185
2026-01-23 00:32:57.38	257.94	42.98	-42.4	-46.2	12.2	3.28e-04	0	60	0	689963008	56	5566
2026-01-23 00:33:01.42	256.35	42.25	-41.3	-44.4	13.9	3.80e-06	0	60	0	697303040	54	5076
2026-01-23 00:33:05.46	254.84	41.52	-41.7	-45.0	13.2	2.67e-05	0	60	0	704643072	54	5460
2026-01-23 00:33:09.50	253.40	40.78	-43.0	-47.5	10.8	2.16e-03	0	60	0	711983104	56	6464
2026-01-23 00:33:13.53	252.02	40.04	-43.2	-48.1	10.3	8.71e-03	0	60	0	720371712	58	6198
2026-01-23 00:33:17.57	250.71	39.29	-42.4	-46.3	12.1	5.10e-04	0	60	0	727711744	56	5630
2026-01-23 00:33:21.61	249.45	38.55	-43.2	-48.2	10.1	5.96e-03	0	60	0	735051776	57	6594
2026-01-23 00:33:25.65	248.25	37.80	-42.7	-47.0	11.3	1.36e-03	0	61	0	742391808	57	5765
2026-01-23 00:33:29.68	247.10	37.06	-43.7	-49.7	8.6	3.20e-02	0	60	0	750780416	57	7819
2026-01-23 00:33:33.72	246.01	36.32	-44.1	-50.9	7.3	5.15e-02	0	60	0	758120448	58	8560
2026-01-23 00:33:37.76	244.96	35.59	-44.0	-50.6	7.6	1.84e-01	0	60	0	765460480	59	7785
2026-01-23 00:33:41.79	243.96	34.86	-43.0	-47.8	10.5	3.76e-03	0	61	0	772800512	57	6283
2026-01-23 00:33:45.83	243.00	34.14	-42.8	-47.2	11.1	1.79e-03	0	61	0	780140544	57	5857
2026-01-23 00:33:49.87	242.09	33.43	-42.8	-47.1	11.2	8.22e-04	0	61	0	788529152	56	6139
2026-01-23 00:33:53.91	241.21	32.73	-43.5	-48.9	9.3	2.50e-02	0	61	0	795869184	58	6774
2026-01-23 00:33:57.94	240.37	32.03	-43.3	-48.5	9.7	9.47e-03	0	61	0	803209216	58	6465
2026-01-23 00:34:01.98	239.57	31.35	-43.0	-47.7	10.5	3.63e-03	0	61	0	810549248	57	6244
2026-01-23 00:34:06.02	238.80	30.67	-44.1	-51.3	7.0	1.22e-01	0	61	0	817889280	58	8874
2026-01-23 00:34:10.05	238.06	30.00	-43.2	-48.4	9.7	2.13e-02	0	61	0	826277888	58	6393
2026-01-23 00:34:14.09	237.35	29.35	-42.3	-46.1	12.2	3.50e-04	0	61	0	833617920	56	5493
2026-01-23 00:34:18.13	236.67	28.70	-43.3	-48.8	9.3	1.16e-02	0	61	0	840957952	57	7052
2026-01-23 00:34:22.17	236.02	28.07	-42.9	-47.6	10.6	5.80e-03	0	61	0	848297984	57	6188
2026-01-23 00:34:26.21	235.39	27.44	-42.5	-46.5	11.9	2.67e-04	0	61	0	856686592	56	5788
2026-01-23 00:34:30.25	234.79	26.83	-42.6	-46.8	11.5	6.94e-04	0	61	0	864026624	56	5939
2026-01-23 00:34:34.28	234.21	26.22	-42.1	-45.9	12.5	2.76e-04	0	61	0	871366656	56	5345
2026-01-23 00:34:38.32	233.65	25.63	-42.5	-46.6	11.6	5.88e-04	0	61	0	878706688	56	5831
2026-01-23 00:34:42.36	233.11	25.04	-43.1	-48.2	10.0	8.38e-03	0	61	0	886046720	56	6990
2026-01-23 00:34:46.40	232.59	24.47	-42.7	-47.0	11.2	1.70e-03	0	61	0	894435328	56	6129
2026-01-23 00:34:50.44	232.09	23.90	-42.7	-47.1	11.0	1.62e-03	0	60	0	901775360	56	6163
2026-01-23 00:34:54.47	231.61	23.35	-42.4	-46.5	11.7	6.78e-04	0	61	0	909115392	56	5762
2026-01-23 00:34:58.51	231.15	22.81	-42.6	-47.1	11.0	1.35e-03	0	61	0	916455424	56	6174
2026-01-23 00:35:02.55	230.70	22.27	-42.4	-46.5	11.7	7.35e-04	0	61	0	924844032	56	5726
2026-01-23 00:35:06.60	230.26	21.74	-42.4	-46.5	11.7	4.87e-04	0	61	0	932184064	56	5770
2026-01-23 00:35:10.63	229.84	21.22	-43.3	-48.7	9.4	1.36e-02	0	61	0	939524096	57	6991
2026-01-23 00:35:14.67	229.44	20.72	-43.3	-48.9	9.1	2.72e-02	0	61	0	946864128	57	7203
2026-01-23 00:35:18.70	229.05	20.22	-43.0	-48.0	10.1	7.13e-03	0	61	0	954204160	57	6441
2026-01-23 00:35:22.74	228.67	19.72	-42.9	-47.8	10.2	5.64e-03	0	61	0	962592768	57	6317
2026-01-23 00:35:26.78	228.30	19.24	-43.0	-48.0	10.0	6.88e-03	0	61	0	969932800	57	6464
2026-01-23 00:35:30.82	227.95	18.77	-42.9	-48.0	10.1	5.94e-03	0	61	0	977272832	57	6423
2026-01-23 00:35:34.85	227.61	18.30	-42.8	-47.7	10.3	5.25e-03	0	61	0	984612864	57	6241
2026-01-23 00:35:38.89	227.27	17.84	-42.7	-47.5	10.6	4.18e-03	0	61	0	993001472	57	6093
2026-01-23 00:35:42.93	226.95	17.39	-42.7	-47.4	10.6	3.50e-03	0	61	0	1000341504	57	6038
2026-01-23 00:35:46.97	226.64	16.94	-42.8	-47.7	10.3	4.42e-03	0	61	0	1007681536	57	6227
2026-01-23 00:35:51.01	226.33	16.50	-42.7	-47.4	10.6	3.81e-03	0	61	0	1015021568	57	6027
2026-01-23 00:35:55.05	226.04	16.07	-42.4	-46.7	11.3	1.42e-03	0	61	0	1022361600	56	5895
2026-01-23 00:35:59.09	225.75	15.65	-42.3	-46.5	11.5	7.30e-04	0	61	0	1030750208	56	5728
2026-01-23 00:36:03.12	225.47	15.23	-42.2	-46.3	11.6	6.83e-04	0	61	0	1038090240	56	5655
2026-01-23 00:36:07.16	225.20	14.82	-42.4	-46.7	11.2	1.36e-03	0	61	0	1045430272	56	5913
2026-01-23 00:36:11.20	224.94	14.41	-42.6	-47.3	10.6	3.44e-03	0	61	0	1052770304	56	6283
2026-01-23 00:36:15.24	224.68	14.01	-42.7	-47.5	10.4	4.56e-03	0	61	0	1061158912	56	6450
2026-01-23 00:36:19.27	224.44	13.62	-42.7	-47.6	10.2	4.96e-03	0	61	0	1068498944	56	6540
2026-01-23 00:36:23.31	224.19	13.23	-42.7	-47.7	10.1	7.30e-03	0	61	0	1075838976	56	6619
2026-01-23 00:36:27.35	223.96	12.85	-42.7	-47.7	10.0	6.92e-03	0	61	0	1083179008	56	6639
2026-01-23 00:36:31.39	223.73	12.47	-42.7	-47.8	9.9	9.64e-03	0	61	0	1090519040	56	6708
2026-01-23 00:36:35.42	223.51	12.10	-42.8	-48.1	9.6	1.33e-02	0	61	0	1098907648	56	6924
2026-01-23 00:36:39.46	223.29	11.74	-42.8	-48.1	9.6	1.31e-02	0	61	0	1106247680	56	6918
2026-01-23 00:36:43.50	223.08	11.38	-42.8	-48.3	9.4	2.07e-02	0	60	0	1113587712	56	7062
2026-01-23 00:36:47.54	222.87	11.02	-42.8	-48.2	9.5	1.92e-02	0	60	0	1120927744	56	7033
2026-01-23 00:36:51.58	222.67	10.67	-42.8	-48.3	9.3	1.60e-02	0	61	0	1129316352	56	7081
2026-01-23 00:36:55.62	222.47	10.32	-42.7	-47.9	9.8	1.47e-02	0	61	0	1136656384	56	6730
2026-01-23 00:36:59.66	222.28	9.98	-42.7	-48.0	9.5	1.22e-02	0	61	0	1143996416	56	6875
2026-01-23 00:37:03.69	222.10	9.64	-42.6	-47.8	9.7	1.30e-02	0	61	0	1151336448	56	6678
2026-01-23 00:37:07.73	221.91	9.31	-42.6	-48.0	9.5	1.52e-02	0	61	0	1158676480	56	6828
2026-01-23 00:37:11.77	221.73	8.98	-42.7	-48.4	9.0	2.16e-02	0	61	0	1167065088	56	7146
2026-01-23 00:37:15.81	221.56	8.65	-42.8	-48.6	8.8	3.33e-02	0	61	0	1174405120	56	7294
2026-01-23 00:37:19.84	221.39	8.33	-42.8	-48.9	8.4	4.38e-02	0	61	0	1181745152	56	7568
2026-01-23 00:37:23.88	221.23	8.01	-42.8	-49.0	8.2	5.44e-02	0	61	0	1189085184	56	7718
2026-01-23 00:37:27.92	221.06	7.70	-45.1	-59.7	3.8	1.49e+00	0	61	104	1191182336	60	20925
2026-01-23 00:37:31.96	220.90	7.39	-45.3	-60.0	3.8	1.49e+00	0	61	104	1191182336	61	20308
2026-01-23 00:37:35.99	220.75	7.08	-45.2	-59.9	3.8	1.49e+00	0	61	104	1191182336	61	20081
2026-01-23 00:37:40.01	220.60	6.78	-45.2	-59.8	3.8	1.49e+00	0	61	104	1191182336	61	20010
2026-01-23 00:37:44.05	220.45	6.48	-45.2	-59.7	3.8	1.49e+00	0	61	104	1191182336	61	19810
2026-01-23 00:37:48.09	220.30	6.18	-45.2	-59.8	3.8	1.49e+00	0	61	104	1191182336	61	19851
2026-01-23 00:37:52.13	220.16	5.89	-45.2	-59.7	3.8	1.49e+00	0	61	104	1191182336	61	19740
2026-01-23 00:37:56.17	220.02	5.60	-45.1	-59.7	3.8	1.49e+00	0	61	104	1191182336	61	19779
2026-01-23 00:38:00.21	219.89	5.31	-45.1	-59.7	3.8	1.49e+00	0	61	104	1191182336	61	19789
2026-01-23 00:38:04.25	219.75	5.03	-45.1	-59.7	3.8	1.49e+00	0	61	104	1191182336	61	19708
2026-01-23 00:38:08.29	219.62	4.74	-45.1	-59.7	3.8	1.49e+00	0	61	104	1191182336	61	19766
2026-01-23 00:38:12.33	219.50	4.46	-45.1	-59.7	3.8	1.49e+00	0	61	104	1191182336	61	19752
2026-01-23 00:38:16.37	219.37	4.19	-45.1	-59.7	3.8	1.49e+00	0	61	104	1191182336	61	19704
2026-01-23 00:38:20.41	219.25	3.91	-45.1	-59.7	3.8	1.49e+00	0	61	104	1191182336	61	19694
2026-01-23 00:38:24.45	219.13	3.64	-45.1	-59.7	3.8	1.49e+00	0	61	104	1191182336	61	19701
2026-01-23 00:38:28.49	219.01	3.37	-45.1	-59.7	3.8	1.49e+00	0	61	104	1191182336	61	19743
2026-01-23 00:38:32.53	218.89	3.11	-45.1	-59.7	3.8	1.49e+00	0	61	104	1191182336	61	19815
2026-01-23 00:38:36.56	218.78	2.85	-45.1	-59.7	3.8	1.49e+00	0	61	104	1191182336	61	19689
2026-01-23 00:38:40.60	218.67	2.58	-45.1	-59.7	3.8	1.49e+00	0	61	104	1191182336	61	19667
2026-01-23 00:38:44.64	218.56	2.33	-45.1	-59.7	3.8	1.49e+00	0	61	104	1191182336	61	19650
2026-01-23 00:38:48.68	218.45	2.07	-45.1	-59.7	3.8	1.49e+00	0	61	104	1191182336	61	19694

#Closed at: 2026-01-23 00:38:51
#Recorded file [1191 MB]: D:/lorett/data/31039_260123_032444.dat