passes_logs/2026/01/23/R2.0S_Moscow/R2.0S_Moscow__20260123_103216_AQUA_rec.log

#Pass ID: 20260123_103216_AQUA
#Satellite: AQUA
#Configuration: AQUA
#almurnet v.1.7.20251203
#Start time: 2026-01-23 10:32:17

#Version: 2.2.20231116
#Station: R2.0S_Moscow
#Location: 37.707566 lon 55.798166 lat
#TLE: 1 27424U 02022A   26022.49486490  .00002153  00000+0  44069-3 0  9997
#TLE: 2 27424  98.4099 349.0485 0001970  69.5876  43.4746 14.61847233261984

#Time	Az	El	Level	Level2	SNR	BER	BlckErr	Temp	State	Recorded	gain1	gain2
2026-01-23 10:32:17.20	125.58	2.05	-10.7	-23.1	4.0	7.48e-01	0	56	0	0	0	9802
2026-01-23 10:32:20.22	125.41	2.24	-14.1	-30.1	3.7	7.47e-01	0	56	104	0	3	18309
2026-01-23 10:32:23.25	125.23	2.43	-14.6	-26.7	3.6	7.33e-01	0	56	104	0	0	14878
2026-01-23 10:32:26.29	125.04	2.62	-13.1	-28.5	3.4	7.60e-01	0	57	104	0	2	16221
2026-01-23 10:32:29.32	124.86	2.81	-15.7	-32.2	3.7	7.58e-01	0	57	104	0	6	19714
2026-01-23 10:32:32.35	124.67	3.00	-14.1	-29.5	3.7	7.50e-01	0	57	104	0	3	17126
2026-01-23 10:32:35.38	124.48	3.19	-17.8	-29.0	3.5	7.57e-01	0	57	104	0	2	17144
2026-01-23 10:32:38.41	124.29	3.39	-13.0	-25.7	3.5	7.47e-01	0	57	104	0	0	13201
2026-01-23 10:32:41.45	124.09	3.59	-15.0	-29.7	3.8	7.53e-01	0	57	104	0	1	19760
2026-01-23 10:32:44.48	123.89	3.78	-16.2	-28.0	3.4	7.57e-01	0	57	104	0	1	16269
2026-01-23 10:32:47.51	123.68	3.98	-10.9	-23.7	3.8	7.53e-01	0	58	104	0	0	10514
2026-01-23 10:32:50.54	123.48	4.18	-10.7	-27.8	3.7	7.55e-01	0	58	104	0	1	15825
2026-01-23 10:32:53.57	123.27	4.39	-17.1	-30.9	3.5	7.54e-01	0	58	104	0	3	20136
2026-01-23 10:32:56.60	123.06	4.59	-12.3	-25.4	3.7	7.44e-01	0	58	104	0	1	11957
2026-01-23 10:32:59.63	122.84	4.79	-15.7	-32.2	3.9	7.52e-01	0	58	104	0	5	20982
2026-01-23 10:33:02.66	122.62	5.00	-10.1	-23.8	3.8	7.59e-01	0	58	104	0	0	10605
2026-01-23 10:33:05.69	122.40	5.21	-11.8	-27.6	3.8	7.55e-01	0	58	104	0	0	16459
2026-01-23 10:33:08.72	122.17	5.42	-17.1	-31.5	3.4	7.58e-01	0	58	104	0	4	20342
2026-01-23 10:33:11.76	121.94	5.63	-16.8	-31.1	3.8	7.50e-01	0	58	104	0	5	18432
2026-01-23 10:33:14.79	121.71	5.84	-16.2	-31.0	3.5	7.54e-01	0	59	104	0	3	20370
2026-01-23 10:33:17.82	121.47	6.05	-10.6	-25.1	3.8	7.53e-01	0	58	104	0	0	12239
2026-01-23 10:33:20.85	121.23	6.27	-15.0	-31.3	3.7	7.53e-01	0	59	104	0	4	20022
2026-01-23 10:33:23.88	120.98	6.48	-14.8	-25.8	3.7	7.43e-01	0	59	104	0	0	13290
2026-01-23 10:33:26.91	120.73	6.70	-11.9	-24.3	3.8	7.50e-01	0	59	104	0	0	11186
2026-01-23 10:33:29.94	120.48	6.92	-12.8	-27.5	3.8	7.46e-01	0	59	104	0	0	16293
2026-01-23 10:33:32.97	120.22	7.14	-12.3	-25.4	3.6	7.43e-01	0	59	104	0	0	12796
2026-01-23 10:33:36.01	119.95	7.36	-13.4	-26.4	3.7	7.39e-01	0	59	104	0	2	12742
2026-01-23 10:33:39.03	119.69	7.59	-11.3	-22.9	3.7	7.49e-01	0	59	104	0	0	9574
2026-01-23 10:33:42.07	119.41	7.81	-11.8	-25.6	3.9	7.50e-01	0	59	104	0	0	12991
2026-01-23 10:33:45.10	119.14	8.04	-13.8	-29.5	3.6	7.51e-01	0	59	104	0	2	18226
2026-01-23 10:33:48.13	118.85	8.27	-13.7	-24.7	3.5	7.44e-01	0	59	104	0	0	11689
2026-01-23 10:33:51.16	118.57	8.50	-14.3	-29.1	3.8	7.55e-01	0	60	104	0	2	17381
2026-01-23 10:33:54.19	118.27	8.73	-11.2	-25.5	3.8	7.42e-01	0	60	104	0	0	12864
2026-01-23 10:33:57.21	117.98	8.97	-16.6	-30.9	3.7	7.55e-01	0	60	104	0	8	15209
2026-01-23 10:34:00.24	117.68	9.20	-12.1	-24.6	3.7	7.46e-01	0	60	104	0	0	11653
2026-01-23 10:34:03.27	117.37	9.44	-12.6	-27.0	3.7	7.53e-01	0	60	104	0	1	14465
2026-01-23 10:34:06.29	117.05	9.68	-16.4	-29.4	3.7	7.47e-01	0	60	104	0	4	16075
2026-01-23 10:34:09.32	116.73	9.92	-12.6	-25.7	3.8	7.38e-01	0	60	104	0	0	13191
2026-01-23 10:34:12.35	116.41	10.16	-17.6	-31.9	3.7	7.47e-01	0	60	104	0	8	16945
2026-01-23 10:34:15.38	116.08	10.41	-16.3	-30.3	3.7	7.52e-01	0	60	104	0	4	17705
2026-01-23 10:34:18.41	115.74	10.66	-13.1	-26.8	3.9	7.51e-01	0	60	104	0	1	14085
2026-01-23 10:34:21.44	115.40	10.90	-16.7	-33.8	3.8	7.47e-01	0	60	104	0	12	16698
2026-01-23 10:34:24.47	115.05	11.16	-19.9	-33.1	3.9	7.48e-01	0	60	104	0	9	18481
2026-01-23 10:34:27.50	114.69	11.41	-25.2	-38.8	4.3	7.46e-01	0	60	104	0	21	17874
2026-01-23 10:34:30.52	114.33	11.66	-14.8	-27.6	3.7	7.54e-01	0	60	104	0	0	16383
2026-01-23 10:34:33.55	113.95	11.92	-17.5	-29.9	3.6	7.43e-01	0	60	104	0	5	16050
2026-01-23 10:34:36.58	113.58	12.18	-37.8	-48.2	7.1	6.37e-01	67	60	104	0	48	11107
2026-01-23 10:34:39.61	113.19	12.44	-26.7	-38.4	3.5	7.51e-01	0	61	104	0	18	20133
2026-01-23 10:34:42.63	112.80	12.70	-32.5	-46.4	4.2	7.50e-01	0	61	104	0	34	20089
2026-01-23 10:34:45.66	112.40	12.96	-38.1	-49.4	5.9	6.61e-01	15	61	104	0	48	12756
2026-01-23 10:34:48.69	111.99	13.23	-31.7	-45.6	4.2	7.19e-01	0	61	104	0	43	11025
2026-01-23 10:34:51.72	111.57	13.49	-42.2	-46.4	16.0	6.05e-01	0	61	0	524288	55	6021
2026-01-23 10:34:54.75	111.15	13.76	-38.4	-45.7	11.9	6.57e-01	9	61	0	4718592	52	6609
2026-01-23 10:34:57.77	110.72	14.03	-37.0	-44.7	12.7	6.37e-01	9	61	0	9961472	52	5890
2026-01-23 10:35:00.80	110.27	14.31	-37.2	-45.0	5.1	7.07e-01	0	61	104	13107200	50	6808
2026-01-23 10:35:03.83	109.82	14.58	-39.0	-45.0	11.6	6.33e-01	10	61	0	16252928	49	7265
2026-01-23 10:35:06.86	109.36	14.86	-38.2	-44.6	8.0	6.59e-01	44	61	0	22020096	44	9228
2026-01-23 10:35:09.88	108.89	15.13	-41.5	-45.0	17.4	6.05e-01	0	61	0	27262976	54	5459
2026-01-23 10:35:12.91	108.42	15.41	-40.1	-45.5	11.6	6.08e-01	5	61	0	32505856	49	7647
2026-01-23 10:35:15.94	107.93	15.69	-40.7	-44.9	5.2	6.55e-01	1	61	104	34078720	41	11371
2026-01-23 10:35:18.97	107.43	15.98	-40.1	-44.9	15.4	6.08e-01	0	61	0	38797312	51	6398
2026-01-23 10:35:21.99	106.92	16.26	-40.0	-45.0	16.2	6.08e-01	0	61	0	44564480	50	6820
2026-01-23 10:35:25.02	106.40	16.55	-41.8	-45.1	17.0	6.07e-01	0	61	0	50331648	54	5505
2026-01-23 10:35:28.05	105.87	16.83	-40.4	-45.0	17.6	6.07e-01	0	61	0	56098816	52	6104
2026-01-23 10:35:31.08	105.33	17.12	-40.4	-45.4	17.5	6.07e-01	0	61	0	61865984	51	6726
2026-01-23 10:35:34.11	104.78	17.41	-40.8	-45.2	17.7	6.06e-01	0	61	0	67633152	53	5909
2026-01-23 10:35:37.13	104.21	17.70	-41.4	-44.9	18.0	6.07e-01	0	61	0	72876032	52	6051
2026-01-23 10:35:40.16	103.64	17.99	-40.7	-44.8	17.7	6.05e-01	0	61	0	78643200	53	5655
2026-01-23 10:35:43.19	103.05	18.29	-39.4	-45.3	17.6	6.06e-01	0	61	0	84410368	52	6281
2026-01-23 10:35:46.21	102.45	18.58	-39.8	-45.0	17.8	6.05e-01	0	61	0	90177536	50	6871
2026-01-23 10:35:49.24	101.84	18.87	-38.3	-44.8	17.1	6.08e-01	0	61	0	95944704	49	7051
2026-01-23 10:35:52.27	101.21	19.17	-40.1	-45.5	17.6	6.07e-01	0	61	0	101187584	53	6115
2026-01-23 10:35:55.30	100.58	19.46	-39.9	-45.6	17.6	6.07e-01	0	61	0	106954752	52	6534
2026-01-23 10:35:58.33	99.92	19.76	-40.3	-45.2	17.7	6.05e-01	0	62	0	112721920	52	6215
2026-01-23 10:36:01.36	99.26	20.05	-40.9	-45.2	17.8	6.07e-01	0	62	0	118489088	53	5915
2026-01-23 10:36:04.38	98.58	20.35	-41.9	-45.3	18.2	6.06e-01	0	61	0	124256256	54	5594
2026-01-23 10:36:07.41	97.89	20.64	-41.7	-45.4	18.1	6.06e-01	0	62	0	130023424	54	5686
2026-01-23 10:36:10.44	97.18	20.93	-42.1	-45.4	18.0	6.08e-01	0	62	0	135266304	54	5703
2026-01-23 10:36:13.46	96.47	21.23	-42.0	-45.6	17.7	6.07e-01	0	61	0	141033472	54	5814
2026-01-23 10:36:16.49	95.73	21.52	-42.1	-45.4	17.8	6.06e-01	0	62	0	146800640	54	5701
2026-01-23 10:36:19.52	94.98	21.81	-42.2	-45.6	17.9	6.06e-01	0	62	0	152567808	54	5807
2026-01-23 10:36:22.55	94.21	22.10	-42.1	-45.4	18.1	6.07e-01	0	61	0	158334976	54	5687
2026-01-23 10:36:25.58	93.43	22.39	-42.1	-45.6	17.9	6.06e-01	0	62	0	164102144	54	5806
2026-01-23 10:36:28.61	92.64	22.67	-42.1	-45.5	17.9	6.08e-01	0	61	0	169345024	55	5421
2026-01-23 10:36:31.64	91.83	22.96	-42.1	-45.5	17.6	6.06e-01	0	62	0	175112192	55	5459
2026-01-23 10:36:34.67	91.00	23.24	-42.1	-45.5	17.9	6.04e-01	0	62	0	180879360	55	5436
2026-01-23 10:36:37.70	90.16	23.51	-42.1	-45.5	18.0	6.07e-01	0	62	0	186646528	55	5421
2026-01-23 10:36:40.73	89.30	23.79	-42.2	-45.6	17.8	6.04e-01	0	62	0	192413696	55	5519
2026-01-23 10:36:43.76	88.43	24.06	-42.2	-45.6	17.8	6.05e-01	0	62	0	198180864	55	5519
2026-01-23 10:36:46.79	87.54	24.33	-42.1	-45.5	18.0	6.06e-01	0	62	0	203423744	55	5404
2026-01-23 10:36:49.81	86.63	24.59	-42.2	-45.6	17.9	6.06e-01	0	62	0	209190912	55	5518
2026-01-23 10:36:52.85	85.71	24.84	-42.2	-45.6	18.0	6.08e-01	0	62	0	214958080	55	5484
2026-01-23 10:36:55.88	84.77	25.10	-42.2	-45.5	18.0	6.06e-01	0	62	0	220725248	55	5452
2026-01-23 10:36:58.91	83.82	25.34	-42.1	-45.4	18.2	6.06e-01	0	62	0	226492416	55	5355
2026-01-23 10:37:01.94	82.85	25.58	-42.1	-45.4	18.2	6.06e-01	0	62	0	232259584	55	5347
2026-01-23 10:37:04.97	81.87	25.82	-41.9	-45.1	18.4	6.06e-01	0	62	0	237502464	55	5176
2026-01-23 10:37:08.00	80.87	26.04	-42.1	-45.4	18.2	6.06e-01	0	62	0	243269632	55	5355
2026-01-23 10:37:11.02	79.86	26.26	-42.1	-45.4	18.2	6.07e-01	0	62	0	249036800	55	5378
2026-01-23 10:37:14.05	78.84	26.47	-42.2	-45.5	18.1	6.06e-01	0	62	0	254803968	55	5461
2026-01-23 10:37:17.08	77.80	26.68	-42.1	-45.4	18.3	6.04e-01	0	62	0	260571136	55	5356
2026-01-23 10:37:20.11	76.74	26.87	-42.0	-45.1	18.5	6.05e-01	0	62	0	266338304	55	5214
2026-01-23 10:37:23.14	75.67	27.06	-42.0	-45.2	18.5	6.06e-01	0	62	0	271581184	55	5224
2026-01-23 10:37:26.16	74.60	27.23	-42.0	-45.2	18.6	6.05e-01	0	62	0	277348352	55	5225
2026-01-23 10:37:29.19	73.50	27.40	-41.9	-44.9	18.8	6.07e-01	0	62	0	283115520	55	5100
2026-01-23 10:37:32.22	72.40	27.56	-42.0	-45.2	18.6	6.05e-01	0	62	0	288882688	55	5235
2026-01-23 10:37:35.25	71.29	27.70	-41.9	-45.0	18.7	6.08e-01	0	62	0	294649856	55	5155
2026-01-23 10:37:38.28	70.16	27.84	-41.9	-44.9	18.8	6.07e-01	0	62	0	300417024	55	5077
2026-01-23 10:37:41.31	69.03	27.96	-41.9	-44.9	18.8	6.07e-01	0	62	0	305659904	55	5090
2026-01-23 10:37:44.34	67.88	28.07	-42.0	-45.0	18.7	6.06e-01	0	62	0	311427072	55	5156
2026-01-23 10:37:47.37	66.73	28.17	-42.0	-45.1	18.6	6.04e-01	0	62	0	317194240	55	5199
2026-01-23 10:37:50.40	65.58	28.26	-41.9	-45.0	18.8	6.05e-01	0	62	0	322961408	55	5108
2026-01-23 10:37:53.43	64.41	28.33	-41.9	-45.0	18.8	6.07e-01	0	62	0	328728576	55	5109
2026-01-23 10:37:56.45	63.25	28.39	-41.9	-45.0	18.8	6.06e-01	0	62	0	333971456	55	5114
2026-01-23 10:37:59.48	62.08	28.44	-42.0	-45.1	18.7	6.05e-01	0	62	0	339738624	55	5206
2026-01-23 10:38:02.51	60.90	28.48	-42.0	-45.1	18.7	6.06e-01	0	62	0	345505792	55	5184
2026-01-23 10:38:05.54	59.72	28.50	-42.0	-45.1	18.7	6.04e-01	0	62	0	351272960	55	5204
2026-01-23 10:38:08.56	58.55	28.52	-41.9	-45.0	18.8	6.07e-01	0	62	0	357040128	55	5129
2026-01-23 10:38:11.59	57.37	28.51	-42.0	-45.1	18.8	6.05e-01	0	62	0	362807296	55	5185
2026-01-23 10:38:14.62	56.19	28.50	-42.0	-45.0	18.8	6.07e-01	0	62	0	368574464	55	5133
2026-01-23 10:38:17.65	55.01	28.47	-42.0	-45.1	18.7	6.07e-01	0	62	0	373817344	55	5209
2026-01-23 10:38:20.67	53.84	28.43	-42.1	-45.2	18.6	6.08e-01	0	62	0	379584512	55	5265
2026-01-23 10:38:23.70	52.67	28.37	-42.1	-45.2	18.7	6.04e-01	0	62	0	385351680	55	5242
2026-01-23 10:38:26.73	51.51	28.31	-42.2	-45.4	18.4	6.03e-01	0	62	0	391118848	55	5394
2026-01-23 10:38:29.76	50.35	28.23	-42.1	-45.2	18.7	6.06e-01	0	62	0	396886016	55	5251
2026-01-23 10:38:32.79	49.19	28.14	-42.3	-45.5	18.4	6.04e-01	0	62	0	402128896	55	5420
2026-01-23 10:38:35.82	48.05	28.03	-42.4	-55.0	3.9	7.39e-01	0	62	104	403177472	55	16249
2026-01-23 10:38:38.84	46.91	27.92	-44.9	-59.9	3.9	7.45e-01	0	62	104	403177472	60	21384
2026-01-23 10:38:41.87	45.78	27.79	-42.6	-55.3	3.9	7.42e-01	0	62	104	403177472	57	14881
2026-01-23 10:38:44.90	44.66	27.65	-44.6	-58.8	3.8	7.49e-01	0	62	104	403177472	59	20053
2026-01-23 10:38:47.93	43.56	27.50	-45.6	-62.3	3.8	7.47e-01	0	62	104	403177472	61	26719
2026-01-23 10:38:50.96	42.46	27.34	-42.6	-55.2	3.8	7.45e-01	0	62	104	403177472	57	14795
2026-01-23 10:38:53.99	41.37	27.17	-45.6	-62.5	3.8	7.44e-01	0	62	104	403177472	61	27154
2026-01-23 10:38:57.02	40.30	27.00	-42.7	-55.5	3.8	7.45e-01	0	62	104	403177472	57	15336
2026-01-23 10:39:00.05	39.24	26.81	-43.5	-57.1	3.8	7.45e-01	0	62	104	403177472	57	18415
2026-01-23 10:39:03.07	38.20	26.61	-44.9	-60.1	3.8	7.44e-01	0	62	104	403177472	60	21886
2026-01-23 10:39:06.10	37.16	26.41	-42.7	-55.6	3.8	7.43e-01	0	62	104	403177472	57	15455
2026-01-23 10:39:09.13	36.14	26.19	-44.7	-59.6	3.8	7.44e-01	0	62	104	403177472	60	20764
2026-01-23 10:39:12.16	35.14	25.97	-45.8	-63.1	3.8	7.43e-01	0	62	104	403177472	62	27395
2026-01-23 10:39:15.19	34.15	25.74	-42.8	-55.7	3.8	7.46e-01	0	62	104	403177472	57	15604
2026-01-23 10:39:18.22	33.18	25.51	-44.3	-59.2	3.8	7.46e-01	0	62	104	403177472	60	19714
2026-01-23 10:39:21.24	32.22	25.27	-42.8	-55.6	3.8	7.44e-01	0	62	104	403177472	57	15564
2026-01-23 10:39:24.27	31.28	25.02	-44.1	-58.6	3.9	7.43e-01	0	62	104	403177472	60	18308
2026-01-23 10:39:27.30	30.35	24.77	-43.8	-57.7	3.7	7.44e-01	0	62	104	403177472	59	17510
2026-01-23 10:39:30.33	29.44	24.51	-42.8	-55.7	3.8	7.44e-01	0	62	104	403177472	57	15663
2026-01-23 10:39:33.36	28.54	24.25	-43.6	-57.1	3.8	7.43e-01	0	62	104	403177472	59	16363
2026-01-23 10:39:36.39	27.66	23.98	-45.4	-62.2	3.8	7.43e-01	0	62	104	403177472	61	26422
2026-01-23 10:39:39.41	26.80	23.71	-42.9	-55.9	3.8	7.48e-01	0	62	104	403177472	57	15944
2026-01-23 10:39:42.44	25.95	23.44	-45.0	-61.1	3.9	7.42e-01	0	62	104	403177472	61	23074
2026-01-23 10:39:45.47	25.12	23.16	-43.0	-56.0	3.8	7.44e-01	0	62	104	403177472	57	16166
2026-01-23 10:39:48.50	24.30	22.88	-42.8	-55.8	3.8	7.43e-01	0	62	104	403177472	57	15783
2026-01-23 10:39:51.53	23.50	22.60	-43.0	-55.9	3.8	7.48e-01	0	62	104	403177472	57	15987
2026-01-23 10:39:54.56	22.71	22.31	-42.8	-55.7	3.8	7.45e-01	0	62	104	403177472	57	15614
2026-01-23 10:39:57.59	21.94	22.02	-43.4	-56.7	3.8	7.47e-01	0	62	104	403177472	57	17632
2026-01-23 10:40:00.62	21.18	21.74	-43.2	-56.6	3.9	7.46e-01	0	62	104	403177472	58	16435
2026-01-23 10:40:03.64	20.45	21.45	-42.7	-55.6	3.8	7.44e-01	0	62	104	403177472	56	16466
2026-01-23 10:40:06.67	19.72	21.16	-43.6	-57.1	3.8	7.42e-01	0	62	104	403177472	58	17467
2026-01-23 10:40:09.70	19.01	20.86	-42.6	-55.4	3.8	7.43e-01	0	62	104	403177472	57	15160
2026-01-23 10:40:12.73	18.31	20.57	-44.1	-58.6	3.8	7.47e-01	0	62	104	403177472	60	18363
2026-01-23 10:40:15.77	17.62	20.28	-43.7	-57.3	3.8	7.45e-01	0	62	104	403177472	57	18748
2026-01-23 10:40:18.80	16.95	19.98	-42.5	-55.3	3.8	7.49e-01	0	62	104	403177472	56	15935
2026-01-23 10:40:21.83	16.30	19.69	-44.3	-59.2	3.8	7.46e-01	0	62	104	403177472	59	20883
2026-01-23 10:40:24.86	15.65	19.40	-42.4	-55.2	3.9	7.46e-01	0	62	104	403177472	56	15675
2026-01-23 10:40:27.89	15.02	19.10	-45.1	-61.1	3.8	7.49e-01	0	62	104	403177472	60	24529
2026-01-23 10:40:30.92	14.41	18.81	-44.5	-59.4	3.8	7.49e-01	0	62	104	403177472	59	21354
2026-01-23 10:40:33.95	13.80	18.52	-42.3	-55.1	3.8	7.45e-01	0	62	104	403177472	56	15408
2026-01-23 10:40:36.97	13.21	18.23	-44.0	-58.1	3.8	7.45e-01	0	62	104	403177472	58	19525
2026-01-23 10:40:40.00	12.63	17.94	-44.6	-59.6	3.8	7.43e-01	0	62	104	403177472	60	20611
2026-01-23 10:40:43.03	12.06	17.65	-42.3	-55.1	3.8	7.43e-01	0	62	104	403177472	56	15418
2026-01-23 10:40:46.06	11.51	17.36	-45.2	-62.7	3.8	7.44e-01	0	62	104	403177472	61	27892
2026-01-23 10:40:49.09	10.96	17.07	-42.4	-55.4	3.8	7.41e-01	0	62	104	403177472	56	16079
2026-01-23 10:40:52.12	10.43	16.78	-43.4	-57.3	3.8	7.43e-01	0	62	104	403177472	57	18808
2026-01-23 10:40:55.14	9.91	16.50	-44.1	-59.0	3.8	7.43e-01	0	62	104	403177472	59	20387
2026-01-23 10:40:58.17	9.39	16.22	-42.3	-55.2	3.8	7.44e-01	0	62	104	403177472	56	15593
2026-01-23 10:41:01.20	8.89	15.93	-43.1	-56.5	3.9	7.45e-01	0	62	104	403177472	57	17154
2026-01-23 10:41:04.23	8.40	15.65	-44.3	-59.2	3.8	7.44e-01	0	62	104	403177472	59	20902
2026-01-23 10:41:07.26	7.92	15.37	-41.5	-55.2	3.8	7.45e-01	0	62	104	403177472	55	16576
2026-01-23 10:41:10.28	7.45	15.10	-43.7	-62.0	3.8	7.47e-01	0	62	104	403177472	58	30537
2026-01-23 10:41:13.32	6.98	14.82	-41.9	-54.8	3.8	7.42e-01	0	62	104	403177472	55	15802
2026-01-23 10:41:16.35	6.53	14.54	-42.0	-55.2	3.8	7.44e-01	0	62	104	403177472	55	16662
2026-01-23 10:41:19.37	6.09	14.27	-42.6	-56.7	3.9	7.44e-01	0	62	104	403177472	57	17579
2026-01-23 10:41:22.40	5.65	14.00	-39.2	-54.9	3.8	7.44e-01	0	62	104	403177472	50	21407
2026-01-23 10:41:25.43	5.22	13.73	-39.5	-55.5	3.8	7.47e-01	0	62	104	403177472	50	22935
2026-01-23 10:41:28.46	4.80	13.47	-42.8	-57.3	3.9	7.45e-01	0	62	104	403177472	57	18939
2026-01-23 10:41:31.49	4.39	13.20	-41.8	-56.5	3.8	7.46e-01	0	62	104	403177472	55	19214
2026-01-23 10:41:34.52	3.99	12.94	-42.3	-60.9	3.8	7.46e-01	0	62	104	403177472	56	30249
2026-01-23 10:41:37.55	3.60	12.67	-42.9	-61.2	3.8	7.43e-01	0	62	104	403177472	57	29545
2026-01-23 10:41:40.58	3.21	12.41	-42.4	-61.2	3.8	7.45e-01	0	62	104	403177472	56	31253
2026-01-23 10:41:43.60	2.83	12.16	-41.5	-59.9	3.8	7.46e-01	0	62	104	403177472	54	30374
2026-01-23 10:41:46.63	2.46	11.90	-41.1	-60.1	3.8	7.40e-01	0	62	104	403177472	54	30836
2026-01-23 10:41:49.66	2.09	11.65	-41.8	-60.8	3.8	7.43e-01	0	62	104	403177472	54	33329
2026-01-23 10:41:52.69	1.74	11.39	-41.1	-60.0	3.8	7.45e-01	0	62	104	403177472	54	30605
2026-01-23 10:41:55.72	1.38	11.14	-41.0	-60.0	3.8	7.44e-01	0	62	104	403177472	54	30511
2026-01-23 10:41:58.75	1.04	10.89	-41.2	-60.1	3.8	7.46e-01	0	62	104	403177472	54	30983
2026-01-23 10:42:01.77	0.70	10.65	-41.1	-60.0	3.8	7.46e-01	0	62	104	403177472	54	30599
2026-01-23 10:42:04.80	0.37	10.40	-40.6	-59.5	3.8	7.45e-01	0	62	104	403177472	53	30389
2026-01-23 10:42:07.83	0.04	10.16	-40.8	-59.8	3.8	7.48e-01	0	62	104	403177472	53	31523
2026-01-23 10:42:10.86	359.72	9.92	-41.0	-60.0	3.8	7.46e-01	0	62	104	403177472	53	32189
2026-01-23 10:42:13.88	359.41	9.68	-41.0	-60.0	3.8	7.44e-01	0	62	104	403177472	53	32365
2026-01-23 10:42:16.91	359.10	9.44	-41.0	-60.0	3.8	7.44e-01	0	62	104	403177472	53	32271
2026-01-23 10:42:19.94	358.80	9.21	-41.0	-59.9	3.8	7.44e-01	0	62	104	403177472	53	32114
2026-01-23 10:42:22.97	358.50	8.97	-40.9	-59.9	3.8	7.45e-01	0	62	104	403177472	53	31821
2026-01-23 10:42:26.00	358.21	8.74	-40.9	-59.9	3.8	7.43e-01	0	62	104	403177472	53	31887
2026-01-23 10:42:29.02	357.92	8.51	-40.9	-59.9	3.8	7.43e-01	0	62	104	403177472	53	31888
2026-01-23 10:42:32.05	357.64	8.28	-40.9	-59.8	3.8	7.45e-01	0	62	104	403177472	53	31577
2026-01-23 10:42:35.08	357.36	8.05	-40.8	-59.8	3.8	7.45e-01	0	62	104	403177472	53	31471
2026-01-23 10:42:38.11	357.09	7.82	-45.8	-64.3	3.9	7.45e-01	0	62	104	403177472	62	31670
2026-01-23 10:42:41.14	356.82	7.60	-46.4	-65.0	3.8	7.49e-01	0	62	104	403177472	63	32261
2026-01-23 10:42:44.17	356.56	7.38	-46.5	-65.1	3.8	7.43e-01	0	62	104	403177472	63	32737
2026-01-23 10:42:47.21	356.30	7.16	-46.3	-64.9	3.8	7.42e-01	0	62	104	403177472	63	32059
2026-01-23 10:42:50.23	356.05	6.94	-46.4	-64.9	3.8	7.48e-01	0	62	104	403177472	63	32009
2026-01-23 10:42:53.26	355.80	6.72	-46.2	-64.8	3.8	7.44e-01	0	62	104	403177472	63	31562
2026-01-23 10:42:56.30	355.55	6.50	-46.2	-64.8	3.8	7.45e-01	0	62	104	403177472	63	31526
2026-01-23 10:42:59.33	355.31	6.29	-46.2	-64.8	3.8	7.47e-01	0	62	104	403177472	63	31494
2026-01-23 10:43:02.36	355.07	6.07	-46.2	-64.8	3.8	7.43e-01	0	62	104	403177472	63	31458
2026-01-23 10:43:05.39	354.84	5.86	-46.2	-64.8	3.8	7.45e-01	0	62	104	403177472	63	31497
2026-01-23 10:43:08.42	354.61	5.65	-46.2	-64.7	3.8	7.44e-01	0	62	104	403177472	63	31384
2026-01-23 10:43:11.45	354.39	5.44	-46.2	-64.7	3.8	7.46e-01	0	62	104	403177472	63	31401
2026-01-23 10:43:14.48	354.16	5.23	-46.2	-64.7	3.8	7.45e-01	0	62	104	403177472	62	33293
2026-01-23 10:43:17.51	353.95	5.03	-46.1	-64.7	3.8	7.46e-01	0	62	104	403177472	62	33155
2026-01-23 10:43:20.54	353.73	4.82	-46.2	-64.7	3.8	7.43e-01	0	62	104	403177472	62	33183
2026-01-23 10:43:23.57	353.52	4.62	-46.2	-64.7	3.8	7.46e-01	0	62	104	403177472	62	33179
2026-01-23 10:43:26.61	353.31	4.42	-46.1	-64.7	3.8	7.47e-01	0	62	104	403177472	62	33178
2026-01-23 10:43:29.64	353.11	4.22	-46.2	-64.6	3.8	7.45e-01	0	62	104	403177472	62	32907
2026-01-23 10:43:32.66	352.90	4.02	-43.8	-63.9	3.8	7.50e-01	0	62	104	403177472	60	33784
2026-01-23 10:43:35.70	352.71	3.82	-46.0	-64.7	3.8	7.42e-01	0	62	104	403177472	62	32985
2026-01-23 10:43:38.73	352.51	3.62	-45.7	-64.6	3.8	7.45e-01	0	62	104	403177472	62	32889
2026-01-23 10:43:41.76	352.32	3.43	-46.2	-64.7	3.8	7.45e-01	0	62	104	403177472	62	33101
2026-01-23 10:43:44.79	352.13	3.23	-46.1	-64.7	3.8	7.46e-01	0	62	104	403177472	62	33021
2026-01-23 10:43:47.82	351.94	3.04	-46.1	-64.7	3.8	7.45e-01	0	62	104	403177472	62	33076
2026-01-23 10:43:50.85	351.76	2.85	-45.7	-63.9	3.7	7.48e-01	0	62	104	403177472	61	31982
2026-01-23 10:43:53.88	351.58	2.66	-46.1	-64.6	3.8	7.46e-01	0	62	104	403177472	62	32899
2026-01-23 10:43:56.91	351.40	2.47	-46.2	-64.7	3.8	7.45e-01	0	62	104	403177472	62	33070
2026-01-23 10:43:59.95	351.22	2.28	-45.8	-64.2	3.8	7.44e-01	0	62	104	403177472	62	31246
2026-01-23 10:44:02.97	351.05	2.09	-45.7	-64.2	3.8	7.46e-01	0	62	104	403177472	62	31361

#Closed at: 2026-01-23 10:44:04
#Recorded file [403 MB]: D:/lorett/data/31039_260123_133217.dat