passes_logs/2026/01/23/R2.0S_Moscow/R2.0S_Moscow__20260123_174656_FENGYUN_3G_rec.log

#Pass ID: 20260123_174656_FENGYUN 3G
#Satellite: FENGYUN 3G
#Configuration: FENGYUN 3G
#almurnet v.1.7.20251203
#Start time: 2026-01-23 17:46:58

#Version: 2.2.20231116
#Station: R2.0S_Moscow
#Location: 37.707566 lon 55.798166 lat
#TLE: 1 56232U 23055A   26022.95932522  .00036289  00000+0  55235-3 0  9992
#TLE: 2 56232  49.9946  14.8507 0004090  68.3647 291.7756 15.54106507157434

#Time	Az	El	Level	Level2	SNR	BER	BlckErr	Temp	State	Recorded	gain1	gain2
2026-01-23 17:46:58.52	212.69	2.10	-44.0	-62.0	3.8	8.46e-01	0	51	0	0	59	28887
2026-01-23 17:47:00.54	212.47	2.22	-44.0	-62.0	3.8	8.45e-01	0	52	104	0	59	28885
2026-01-23 17:47:02.56	212.25	2.34	-44.0	-62.0	3.8	8.46e-01	0	52	104	0	59	28815
2026-01-23 17:47:04.58	212.03	2.46	-44.0	-62.0	3.8	8.45e-01	0	52	104	0	59	28835
2026-01-23 17:47:06.60	211.81	2.58	-44.0	-62.0	3.8	8.46e-01	0	52	104	0	59	28819
2026-01-23 17:47:08.63	211.58	2.70	-44.0	-62.0	3.8	8.47e-01	0	52	104	0	59	28840
2026-01-23 17:47:10.65	211.35	2.83	-44.0	-62.0	3.8	8.45e-01	0	53	104	0	59	28779
2026-01-23 17:47:12.67	211.12	2.95	-44.0	-62.0	3.8	8.46e-01	0	53	104	0	59	28884
2026-01-23 17:47:14.69	210.88	3.07	-44.0	-62.0	3.8	8.45e-01	0	53	104	0	59	28844
2026-01-23 17:47:16.71	210.64	3.19	-44.0	-62.0	3.8	8.46e-01	0	53	104	0	59	28757
2026-01-23 17:47:18.73	210.40	3.32	-44.0	-62.0	3.8	8.46e-01	0	53	104	0	59	28759
2026-01-23 17:47:20.75	210.16	3.44	-44.0	-62.0	3.8	8.46e-01	0	53	104	0	59	28800
2026-01-23 17:47:22.77	209.91	3.57	-44.0	-62.0	3.8	8.46e-01	0	54	104	0	59	28686
2026-01-23 17:47:24.80	209.66	3.69	-43.9	-62.0	3.8	8.45e-01	0	54	104	0	59	28774
2026-01-23 17:47:26.82	209.41	3.82	-44.0	-61.9	3.8	8.45e-01	0	54	104	0	59	28657
2026-01-23 17:47:28.84	209.15	3.94	-44.0	-62.0	3.8	8.47e-01	0	54	104	0	59	28680
2026-01-23 17:47:30.86	208.89	4.07	-44.0	-61.9	3.8	8.46e-01	0	54	104	0	59	28678
2026-01-23 17:47:32.88	208.63	4.20	-44.0	-61.9	3.8	8.46e-01	0	54	104	0	59	28595
2026-01-23 17:47:34.90	208.36	4.32	-43.9	-61.9	3.8	8.45e-01	0	54	104	0	59	28418
2026-01-23 17:47:36.92	208.09	4.45	-43.9	-61.9	3.8	8.47e-01	0	54	104	0	59	28461
2026-01-23 17:47:38.94	207.82	4.58	-44.0	-61.9	3.8	8.46e-01	0	54	104	0	59	28352
2026-01-23 17:47:40.96	207.54	4.71	-44.0	-61.9	3.8	8.48e-01	0	55	104	0	59	28633
2026-01-23 17:47:42.98	207.26	4.84	-43.9	-61.9	3.8	8.45e-01	0	54	104	0	59	28464
2026-01-23 17:47:45.00	206.98	4.97	-43.9	-61.9	3.8	8.46e-01	0	55	104	0	59	28570
2026-01-23 17:47:47.03	206.69	5.10	-43.9	-61.6	3.8	8.45e-01	0	55	104	0	59	27494
2026-01-23 17:47:49.04	206.40	5.23	-43.9	-61.7	3.8	8.45e-01	0	55	104	0	59	27904
2026-01-23 17:47:51.07	206.11	5.36	-43.9	-61.9	3.8	8.46e-01	0	55	104	0	59	28401
2026-01-23 17:47:53.09	205.81	5.49	-43.9	-61.8	3.8	8.46e-01	0	55	104	0	59	28344
2026-01-23 17:47:55.11	205.50	5.63	-43.9	-61.8	3.8	8.47e-01	0	55	104	0	59	28341
2026-01-23 17:47:57.13	205.20	5.76	-43.9	-61.9	3.8	8.47e-01	0	55	104	0	59	28425
2026-01-23 17:47:59.15	204.89	5.89	-43.9	-61.4	3.8	8.46e-01	0	55	104	0	59	26976
2026-01-23 17:48:01.17	204.57	6.03	-43.9	-60.4	3.8	8.46e-01	0	56	104	0	59	24029
2026-01-23 17:48:03.20	204.25	6.16	-43.9	-60.6	3.8	8.46e-01	0	56	104	0	59	24449
2026-01-23 17:48:05.22	203.93	6.30	-43.9	-61.3	3.8	8.47e-01	0	56	104	0	59	26670
2026-01-23 17:48:07.24	203.60	6.43	-43.9	-61.4	3.8	8.46e-01	0	56	104	0	59	26812
2026-01-23 17:48:09.26	203.27	6.57	-43.9	-60.2	3.8	8.46e-01	0	56	104	0	59	23359
2026-01-23 17:48:11.28	202.94	6.70	-43.8	-58.6	4.1	8.46e-01	0	56	104	0	59	19443
2026-01-23 17:48:13.30	202.60	6.84	-43.8	-58.2	4.3	8.38e-01	0	56	0	0	59	18644
2026-01-23 17:48:15.32	202.25	6.98	-43.8	-57.1	4.6	8.33e-01	0	56	0	0	59	16335
2026-01-23 17:48:17.34	201.90	7.11	-43.6	-54.4	6.3	6.86e-01	0	56	0	0	59	12054
2026-01-23 17:48:19.36	201.55	7.25	-43.2	-51.8	8.8	1.47e-01	0	56	0	2621440	58	9456
2026-01-23 17:48:21.38	201.19	7.39	-43.0	-50.8	9.9	3.53e-02	0	56	0	4718592	58	8450
2026-01-23 17:48:23.40	200.83	7.52	-43.5	-53.6	7.2	2.90e-02	0	56	0	6815744	58	11609
2026-01-23 17:48:25.42	200.46	7.66	-43.9	-60.8	3.8	4.60e-01	0	56	104	7340032	58	26588
2026-01-23 17:48:27.45	200.08	7.80	-42.9	-50.3	10.2	2.40e-01	0	57	0	8388608	57	8426
2026-01-23 17:48:29.47	199.71	7.94	-41.3	-45.9	14.8	9.29e-04	0	57	0	10485760	54	6053
2026-01-23 17:48:31.49	199.32	8.08	-41.2	-45.4	15.9	0.00e+00	0	57	0	13107200	53	6025
2026-01-23 17:48:33.51	198.94	8.22	-41.1	-45.2	15.9	4.95e-02	0	57	0	15204352	54	5590
2026-01-23 17:48:35.53	198.54	8.36	-41.2	-45.5	15.6	2.97e-01	0	56	0	16777216	54	5744
2026-01-23 17:48:37.55	198.14	8.50	-41.3	-45.7	15.1	8.91e-03	0	57	0	19398656	54	5922
2026-01-23 17:48:39.57	197.74	8.64	-40.9	-44.9	16.1	0.00e+00	0	57	0	21495808	53	5673
2026-01-23 17:48:41.59	197.33	8.78	-40.6	-44.2	16.9	0.00e+00	0	57	0	23592960	53	5229
2026-01-23 17:48:43.61	196.92	8.92	-40.6	-44.1	17.0	0.00e+00	0	57	0	26214400	53	5193
2026-01-23 17:48:45.63	196.50	9.06	-40.6	-44.2	16.9	0.00e+00	0	57	0	28311552	53	5261
2026-01-23 17:48:47.65	196.07	9.20	-40.8	-44.5	16.6	0.00e+00	0	57	0	30408704	53	5435
2026-01-23 17:48:49.66	195.64	9.34	-41.0	-44.8	16.4	0.00e+00	0	57	0	33030144	53	5605
2026-01-23 17:48:51.68	195.20	9.48	-40.9	-44.7	16.4	0.00e+00	0	57	0	35127296	53	5567
2026-01-23 17:48:53.70	194.76	9.62	-40.9	-44.7	16.5	0.00e+00	0	57	0	37224448	53	5544
2026-01-23 17:48:55.73	194.31	9.76	-40.7	-44.4	16.8	0.00e+00	0	57	0	39845888	53	5341
2026-01-23 17:48:57.74	193.86	9.90	-40.2	-43.3	17.9	0.00e+00	0	57	0	41943040	52	5033
2026-01-23 17:48:59.76	193.40	10.04	-40.2	-43.4	17.8	0.00e+00	0	57	0	44040192	52	5081
2026-01-23 17:49:01.78	192.93	10.18	-40.4	-43.8	17.5	0.00e+00	0	57	0	46661632	52	5288
2026-01-23 17:49:03.80	192.46	10.32	-40.5	-43.9	17.4	0.00e+00	0	57	0	48758784	52	5366
2026-01-23 17:49:05.82	191.98	10.46	-40.5	-43.9	17.4	0.00e+00	0	58	0	50855936	52	5373
2026-01-23 17:49:07.83	191.50	10.59	-40.5	-43.8	17.5	0.00e+00	0	58	0	53477376	52	5314
2026-01-23 17:49:09.86	191.01	10.73	-40.3	-43.5	17.8	0.00e+00	0	57	0	55574528	52	5102
2026-01-23 17:49:11.87	190.51	10.87	-40.1	-43.3	18.0	0.00e+00	0	58	0	57671680	52	4991
2026-01-23 17:49:13.89	190.01	11.01	-40.1	-43.2	18.1	0.00e+00	0	58	0	60293120	52	4938
2026-01-23 17:49:15.91	189.50	11.14	-40.2	-43.4	18.0	0.00e+00	0	58	0	62390272	52	5056
2026-01-23 17:49:17.93	188.98	11.28	-40.2	-43.3	18.0	0.00e+00	0	58	0	64487424	52	5006
2026-01-23 17:49:19.95	188.46	11.42	-40.2	-43.3	17.9	0.00e+00	0	58	0	67108864	52	5039
2026-01-23 17:49:21.97	187.93	11.55	-40.2	-43.4	18.0	0.00e+00	0	58	0	69206016	52	5044
2026-01-23 17:49:23.98	187.40	11.68	-40.2	-43.3	18.0	0.00e+00	0	58	0	71303168	52	5015
2026-01-23 17:49:26.00	186.86	11.82	-40.0	-42.9	18.5	0.00e+00	0	58	0	73924608	51	5096
2026-01-23 17:49:28.02	186.31	11.95	-40.0	-42.9	18.5	0.00e+00	0	58	0	76021760	51	5100
2026-01-23 17:49:30.04	185.76	12.08	-40.0	-43.0	18.4	0.00e+00	0	58	0	78118912	51	5143
2026-01-23 17:49:32.06	185.20	12.21	-40.3	-43.4	18.0	0.00e+00	0	58	0	80740352	51	5397
2026-01-23 17:49:34.08	184.63	12.34	-40.4	-43.7	17.8	0.00e+00	0	58	0	82837504	51	5561
2026-01-23 17:49:36.09	184.06	12.47	-40.6	-43.9	17.5	0.00e+00	0	58	0	84934656	51	5706
2026-01-23 17:49:38.11	183.48	12.59	-40.5	-43.8	17.6	0.00e+00	0	58	0	87556096	51	5655
2026-01-23 17:49:40.13	182.89	12.72	-40.3	-43.5	17.9	0.00e+00	0	58	0	89653248	51	5432
2026-01-23 17:49:42.15	182.29	12.84	-39.9	-42.9	18.6	0.00e+00	0	58	0	91750400	51	5056
2026-01-23 17:49:44.17	181.69	12.96	-39.8	-42.7	18.8	0.00e+00	0	58	0	94371840	51	4936
2026-01-23 17:49:46.19	181.09	13.08	-40.0	-43.0	18.5	0.00e+00	0	58	0	96468992	51	5132
2026-01-23 17:49:48.21	180.47	13.20	-40.2	-43.3	18.2	0.00e+00	0	58	0	98566144	51	5283
2026-01-23 17:49:50.23	179.85	13.32	-40.3	-43.4	18.0	0.00e+00	0	58	0	101187584	51	5368
2026-01-23 17:49:52.24	179.23	13.44	-40.1	-43.1	18.4	0.00e+00	0	58	0	103284736	51	5193
2026-01-23 17:49:54.26	178.60	13.55	-40.0	-43.0	18.5	0.00e+00	0	59	0	105381888	51	5103
2026-01-23 17:49:56.28	177.96	13.66	-39.9	-42.7	18.7	0.00e+00	0	58	0	108003328	51	4977
2026-01-23 17:49:58.30	177.32	13.77	-39.7	-42.6	18.9	0.00e+00	0	59	0	110100480	51	4877
2026-01-23 17:50:00.31	176.67	13.88	-39.7	-42.5	19.0	0.00e+00	0	59	0	112197632	51	4859
2026-01-23 17:50:02.34	176.01	13.98	-39.6	-42.3	19.2	0.00e+00	0	59	0	114819072	51	4750
2026-01-23 17:50:04.36	175.35	14.08	-39.6	-42.4	19.1	0.00e+00	0	59	0	116916224	51	4794
2026-01-23 17:50:06.38	174.68	14.18	-39.5	-42.2	19.4	0.00e+00	0	59	0	119013376	51	4690
2026-01-23 17:50:08.40	174.00	14.28	-39.5	-42.2	19.4	0.00e+00	0	58	0	121634816	51	4675
2026-01-23 17:50:10.41	173.33	14.38	-39.7	-42.2	19.6	0.00e+00	0	59	0	123731968	50	4981
2026-01-23 17:50:12.43	172.64	14.47	-39.5	-42.2	19.6	0.00e+00	0	59	0	125829120	50	4932
2026-01-23 17:50:14.45	171.95	14.56	-39.5	-42.1	19.5	0.00e+00	0	59	0	128450560	50	4921
2026-01-23 17:50:16.47	171.25	14.64	-39.4	-41.9	19.7	0.00e+00	0	59	0	130547712	50	4812
2026-01-23 17:50:18.49	170.55	14.73	-39.4	-42.0	19.7	0.00e+00	0	59	0	132644864	50	4830
2026-01-23 17:50:20.51	169.85	14.81	-39.2	-41.7	20.0	0.00e+00	0	59	0	135266304	50	4675
2026-01-23 17:50:22.53	169.14	14.88	-39.1	-41.5	20.2	0.00e+00	0	59	0	137363456	50	4589
2026-01-23 17:50:24.55	168.42	14.96	-39.3	-41.7	20.1	0.00e+00	0	59	0	139460608	50	4688
2026-01-23 17:50:26.57	167.70	15.03	-39.3	-41.8	20.0	0.00e+00	0	59	0	142082048	50	4732
2026-01-23 17:50:28.59	166.98	15.10	-39.5	-42.0	19.9	0.00e+00	0	59	0	144179200	50	4827
2026-01-23 17:50:30.61	166.25	15.16	-39.4	-41.9	19.9	0.00e+00	0	59	0	146276352	50	4803
2026-01-23 17:50:32.63	165.52	15.22	-39.5	-42.1	19.8	0.00e+00	0	59	0	148897792	50	4876
2026-01-23 17:50:34.65	164.78	15.28	-39.5	-42.0	19.8	0.00e+00	0	59	0	150994944	50	4842
2026-01-23 17:50:36.67	164.04	15.33	-39.5	-42.0	19.9	0.00e+00	0	59	0	153092096	50	4846
2026-01-23 17:50:38.69	163.30	15.38	-39.2	-41.7	20.2	0.00e+00	0	59	0	155713536	50	4676
2026-01-23 17:50:40.71	162.56	15.42	-39.3	-41.8	20.1	0.00e+00	0	59	0	157810688	50	4723
2026-01-23 17:50:42.73	161.81	15.46	-39.3	-41.8	20.1	0.00e+00	0	59	0	159907840	50	4755
2026-01-23 17:50:44.75	161.06	15.50	-39.6	-42.2	19.7	0.00e+00	0	59	0	162529280	50	4956
2026-01-23 17:50:46.77	160.31	15.53	-39.7	-42.3	19.6	0.00e+00	0	59	0	164626432	49	5324
2026-01-23 17:50:48.79	159.55	15.56	-40.0	-42.8	19.2	0.00e+00	0	59	0	166723584	50	5286
2026-01-23 17:50:50.80	158.80	15.59	-40.4	-43.3	18.6	0.00e+00	0	59	0	169345024	51	5339
2026-01-23 17:50:52.82	158.04	15.61	-40.1	-43.0	18.9	0.00e+00	0	59	0	171442176	51	5142
2026-01-23 17:50:54.84	157.28	15.63	-40.0	-42.8	19.1	0.00e+00	0	59	0	173539328	51	5003
2026-01-23 17:50:56.86	156.52	15.64	-39.8	-42.6	19.3	0.00e+00	0	59	0	176160768	51	4879
2026-01-23 17:50:58.88	155.76	15.65	-39.9	-42.7	19.2	0.00e+00	0	59	0	178257920	51	4945
2026-01-23 17:51:00.89	155.01	15.66	-39.6	-42.2	19.7	0.00e+00	0	59	0	180355072	51	4701
2026-01-23 17:51:02.91	154.25	15.66	-39.4	-42.0	19.9	0.00e+00	0	59	0	182976512	50	4857
2026-01-23 17:51:04.93	153.49	15.65	-39.2	-41.7	20.2	0.00e+00	0	59	0	185073664	50	4694
2026-01-23 17:51:06.95	152.73	15.64	-39.2	-41.7	20.1	0.00e+00	0	59	0	187170816	50	4698
2026-01-23 17:51:08.97	151.97	15.63	-39.5	-42.1	19.8	0.00e+00	0	59	0	189792256	50	4880
2026-01-23 17:51:10.99	151.21	15.62	-39.4	-42.0	19.9	0.00e+00	0	59	0	191889408	50	4855
2026-01-23 17:51:13.00	150.45	15.60	-39.8	-42.5	19.4	0.00e+00	0	59	0	193986560	50	5129
2026-01-23 17:51:15.02	149.70	15.57	-39.7	-42.4	19.5	0.00e+00	0	59	0	196608000	50	5095
2026-01-23 17:51:17.04	148.94	15.55	-39.7	-42.4	19.5	0.00e+00	0	59	0	198705152	50	5075
2026-01-23 17:51:19.06	148.19	15.51	-39.6	-42.3	19.6	0.00e+00	0	59	0	200802304	50	5029
2026-01-23 17:51:21.08	147.44	15.48	-39.6	-42.3	19.6	0.00e+00	0	59	0	203423744	50	5025
2026-01-23 17:51:23.10	146.69	15.44	-39.9	-42.8	19.0	0.00e+00	0	59	0	205520896	50	5310
2026-01-23 17:51:25.12	145.95	15.39	-39.7	-43.0	18.6	0.00e+00	0	59	0	207618048	50	5416
2026-01-23 17:51:27.14	145.20	15.35	-39.8	-42.6	18.8	1.60e-05	0	59	0	210239488	49	5505
2026-01-23 17:51:29.16	144.47	15.30	-38.9	-42.1	17.4	1.74e-04	0	59	0	212336640	45	6546
2026-01-23 17:51:31.18	143.73	15.24	-39.2	-41.9	18.5	1.27e-04	0	59	0	214433792	49	5078
2026-01-23 17:51:33.20	143.00	15.18	-36.8	-41.7	17.5	6.03e-04	0	60	0	217055232	47	5592
2026-01-23 17:51:35.21	142.27	15.12	-39.8	-42.7	17.7	1.93e-04	0	59	0	219152384	50	5252
2026-01-23 17:51:37.24	141.55	15.05	-38.9	-42.1	19.1	1.67e-04	0	60	0	221249536	48	5476
2026-01-23 17:51:39.26	140.83	14.98	-39.3	-41.9	19.8	4.50e-06	0	60	0	223870976	49	5069
2026-01-23 17:51:41.27	140.11	14.91	-39.5	-42.1	19.7	0.00e+00	0	60	0	225968128	49	5208
2026-01-23 17:51:43.29	139.40	14.84	-39.6	-42.4	19.2	0.00e+00	0	60	0	228065280	49	5371
2026-01-23 17:51:45.32	138.69	14.76	-39.4	-42.0	19.5	1.10e-06	0	59	0	230686720	49	5129
2026-01-23 17:51:47.33	137.99	14.68	-38.7	-41.6	19.3	1.19e-03	0	59	0	232783872	47	5484
2026-01-23 17:51:49.35	137.30	14.59	-39.0	-41.9	18.2	5.04e-03	0	60	0	234881024	48	5385
2026-01-23 17:51:51.37	136.61	14.50	-31.2	-42.6	11.0	2.68e-01	0	59	0	236978176	38	10305
2026-01-23 17:51:53.39	135.92	14.41	-31.6	-41.4	6.3	3.81e-01	0	59	0	238026752	26	17992
2026-01-23 17:51:55.41	135.24	14.32	-28.3	-42.0	11.9	5.59e-01	0	60	0	239075328	42	7645
2026-01-23 17:51:57.43	134.57	14.22	-38.4	-42.1	14.4	3.59e-01	0	60	0	240648192	47	5837
2026-01-23 17:51:59.45	133.90	14.12	-25.8	-41.4	9.4	3.82e-01	0	60	0	241696768	31	13484
2026-01-23 17:52:01.46	133.24	14.02	-27.9	-42.1	12.7	1.96e-01	0	60	0	243793920	42	7731
2026-01-23 17:52:03.49	132.58	13.92	-34.5	-42.2	10.6	5.13e-01	0	59	0	244842496	39	9368
2026-01-23 17:52:05.50	131.93	13.81	-26.7	-41.4	9.3	2.67e-01	0	59	0	245891072	32	12782
2026-01-23 17:52:07.52	131.28	13.70	-24.4	-38.1	6.5	6.06e-01	0	60	0	246415360	25	13040
2026-01-23 17:52:09.54	130.65	13.59	-26.3	-40.6	7.3	6.40e-01	0	60	0	246939648	27	15534
2026-01-23 17:52:11.56	130.01	13.48	-18.8	-34.5	3.9	4.78e-01	0	59	104	246939648	8	23035
2026-01-23 17:52:13.58	129.39	13.37	-31.2	-42.1	10.3	8.34e-01	0	60	0	246939648	31	14597
2026-01-23 17:52:15.60	128.77	13.25	-21.8	-45.2	4.0	6.44e-01	0	60	104	246939648	20	39267
2026-01-23 17:52:17.62	128.15	13.13	-21.1	-35.6	3.9	8.38e-01	0	60	104	246939648	7	27576
2026-01-23 17:52:19.63	127.55	13.01	-20.8	-37.5	4.0	8.35e-01	0	60	104	246939648	14	22936
2026-01-23 17:52:21.65	126.95	12.89	-18.3	-43.6	4.0	8.32e-01	0	60	104	246939648	20	32628
2026-01-23 17:52:23.67	126.35	12.77	-30.1	-40.9	4.5	8.24e-01	0	60	104	246939648	24	19081
2026-01-23 17:52:25.69	125.77	12.65	-23.7	-42.4	3.8	8.30e-01	0	59	104	246939648	17	33767
2026-01-23 17:52:27.71	125.18	12.52	-20.5	-38.4	3.7	8.24e-01	0	60	104	246939648	10	31999
2026-01-23 17:52:29.73	124.61	12.39	-23.7	-40.5	4.1	8.39e-01	0	60	104	246939648	13	34278
2026-01-23 17:52:31.75	124.04	12.26	-23.8	-48.5	4.3	8.35e-01	0	59	104	246939648	24	45716
2026-01-23 17:52:33.76	123.48	12.14	-25.2	-42.0	4.8	8.26e-01	0	60	104	246939648	19	28717
2026-01-23 17:52:35.78	122.93	12.01	-25.1	-41.8	7.4	6.86e-01	0	60	0	246939648	26	18918
2026-01-23 17:52:37.80	122.38	11.87	-34.6	-43.8	7.9	7.26e-01	0	60	0	246939648	34	14995
2026-01-23 17:52:39.82	121.84	11.74	-30.7	-43.6	10.5	3.15e-01	0	59	0	249036800	37	12341
2026-01-23 17:52:41.84	121.30	11.61	-28.8	-44.2	7.3	3.07e-01	0	60	0	250085376	31	18559
2026-01-23 17:52:43.86	120.77	11.47	-36.4	-44.3	13.1	8.42e-02	0	60	0	252182528	43	9454
2026-01-23 17:52:45.88	120.25	11.34	-29.5	-43.9	10.8	4.09e-02	0	60	0	254279680	39	11397
2026-01-23 17:52:47.90	119.74	11.20	-31.4	-44.1	7.6	1.46e-01	0	60	0	256376832	31	18448
2026-01-23 17:52:49.91	119.23	11.07	-25.5	-43.4	8.7	2.21e-01	0	60	0	258473984	29	19021
2026-01-23 17:52:51.93	118.72	10.93	-26.6	-43.8	7.9	3.45e-01	0	60	0	260046848	27	22387
2026-01-23 17:52:53.95	118.23	10.80	-22.4	-41.0	3.7	7.20e-01	0	60	104	260571136	7	51113
2026-01-23 17:52:55.97	117.74	10.66	-26.1	-44.6	3.4	7.52e-01	0	60	104	260571136	16	45997
2026-01-23 17:52:57.99	117.25	10.52	-24.6	-44.3	2.8	7.75e-01	0	60	104	260571136	19	37766
2026-01-23 17:53:00.01	116.77	10.38	-20.3	-44.8	3.8	8.30e-01	0	60	104	260571136	19	39955
2026-01-23 17:53:02.03	116.30	10.24	-25.4	-43.0	4.5	8.07e-01	0	60	0	260571136	21	28769
2026-01-23 17:53:04.05	115.83	10.10	-24.4	-42.0	5.2	7.60e-01	0	60	0	260571136	22	24257
2026-01-23 17:53:06.07	115.37	9.96	-20.7	-41.8	3.5	7.16e-01	0	60	104	260571136	12	42203
2026-01-23 17:53:08.08	114.92	9.83	-24.5	-41.7	4.8	7.57e-01	0	60	104	260571136	22	23464
2026-01-23 17:53:10.10	114.47	9.69	-18.6	-40.8	5.2	7.84e-01	0	60	0	260571136	18	26651
2026-01-23 17:53:12.12	114.03	9.55	-24.0	-44.9	3.9	8.22e-01	0	60	104	260571136	11	63692
2026-01-23 17:53:14.14	113.59	9.41	-19.1	-44.3	3.8	8.36e-01	0	60	104	260571136	12	56310
2026-01-23 17:53:16.16	113.16	9.27	-20.1	-44.1	4.0	8.32e-01	0	60	104	260571136	13	51916
2026-01-23 17:53:18.18	112.74	9.13	-24.1	-46.4	4.1	8.37e-01	0	60	104	260571136	15	60444
2026-01-23 17:53:20.20	112.32	8.99	-19.4	-45.3	4.2	7.16e-01	0	60	104	260571136	16	49894
2026-01-23 17:53:22.22	111.90	8.85	-24.5	-46.4	4.0	8.33e-01	0	60	104	260571136	20	45034
2026-01-23 17:53:24.24	111.49	8.71	-26.9	-45.3	4.3	8.36e-01	0	60	104	260571136	25	30023
2026-01-23 17:53:26.26	111.09	8.57	-24.0	-44.0	5.0	7.40e-01	0	60	0	260571136	21	32252
2026-01-23 17:53:28.27	110.69	8.43	-27.2	-44.0	5.7	7.22e-01	0	60	0	260571136	23	28794
2026-01-23 17:53:30.29	110.30	8.29	-28.9	-47.1	5.6	6.79e-01	0	60	0	260571136	29	29075
2026-01-23 17:53:32.31	109.91	8.15	-32.2	-46.2	9.8	5.20e-01	0	60	0	261095424	42	12483
2026-01-23 17:53:34.33	109.53	8.02	-35.7	-51.3	5.0	4.08e-01	0	60	0	261619712	44	19863
2026-01-23 17:53:36.35	109.15	7.88	-45.2	-63.2	3.9	8.16e-01	0	60	104	262144000	59	32989
2026-01-23 17:53:38.37	108.78	7.74	-45.1	-63.3	3.8	8.46e-01	0	60	104	262144000	60	31662
2026-01-23 17:53:40.39	108.41	7.60	-45.4	-63.7	3.8	8.46e-01	0	60	104	262144000	61	31129
2026-01-23 17:53:42.41	108.05	7.46	-45.7	-64.0	3.8	8.45e-01	0	60	104	262144000	62	30506
2026-01-23 17:53:44.44	107.69	7.33	-45.7	-64.0	3.8	8.46e-01	0	60	104	262144000	62	30481
2026-01-23 17:53:46.46	107.33	7.19	-45.5	-63.7	3.8	8.45e-01	0	60	104	262144000	62	29609
2026-01-23 17:53:48.48	106.98	7.05	-45.4	-63.6	3.8	8.47e-01	0	60	104	262144000	62	29152
2026-01-23 17:53:50.50	106.64	6.92	-45.4	-63.5	3.8	8.46e-01	0	60	104	262144000	62	28789
2026-01-23 17:53:52.52	106.30	6.78	-45.2	-63.3	3.8	8.46e-01	0	60	104	262144000	61	29923
2026-01-23 17:53:54.55	105.96	6.64	-45.2	-63.3	3.8	8.47e-01	0	60	104	262144000	61	29908
2026-01-23 17:53:56.57	105.63	6.51	-45.2	-63.3	3.8	8.45e-01	0	60	104	262144000	61	29795
2026-01-23 17:53:58.59	105.30	6.37	-45.2	-63.3	3.8	8.47e-01	0	60	104	262144000	61	29859
2026-01-23 17:54:00.61	104.98	6.24	-45.2	-63.3	3.8	8.46e-01	0	60	104	262144000	61	29820
2026-01-23 17:54:02.63	104.66	6.11	-45.2	-63.3	3.8	8.46e-01	0	60	104	262144000	61	29848
2026-01-23 17:54:04.65	104.35	5.97	-45.2	-63.3	3.8	8.45e-01	0	60	104	262144000	61	29826
2026-01-23 17:54:06.67	104.04	5.84	-45.2	-63.3	3.8	8.46e-01	0	60	104	262144000	61	29715
2026-01-23 17:54:08.69	103.73	5.71	-45.2	-63.3	3.8	8.46e-01	0	60	104	262144000	61	29723
2026-01-23 17:54:10.71	103.43	5.58	-45.1	-63.3	3.8	8.46e-01	0	60	104	262144000	61	29704
2026-01-23 17:54:12.73	103.13	5.44	-45.2	-63.3	3.8	8.47e-01	0	60	104	262144000	61	29713
2026-01-23 17:54:14.75	102.84	5.31	-45.2	-63.3	3.8	8.46e-01	0	60	104	262144000	61	29796
2026-01-23 17:54:16.77	102.55	5.18	-45.2	-63.3	3.8	8.46e-01	0	60	104	262144000	61	29694
2026-01-23 17:54:18.79	102.26	5.05	-45.2	-63.2	3.8	8.48e-01	0	60	104	262144000	61	29644
2026-01-23 17:54:20.82	101.98	4.92	-45.2	-63.2	3.8	8.46e-01	0	60	104	262144000	61	29676
2026-01-23 17:54:22.84	101.70	4.79	-45.2	-63.2	3.8	8.46e-01	0	60	104	262144000	60	31402
2026-01-23 17:54:24.86	101.42	4.66	-45.2	-63.2	3.8	8.47e-01	0	61	104	262144000	60	31406
2026-01-23 17:54:26.88	101.15	4.54	-45.2	-63.3	3.8	8.45e-01	0	60	104	262144000	60	31462
2026-01-23 17:54:28.90	100.88	4.41	-45.2	-63.2	3.8	8.44e-01	0	60	104	262144000	60	31387
2026-01-23 17:54:30.92	100.61	4.28	-45.1	-63.2	3.8	8.45e-01	0	61	104	262144000	60	31431
2026-01-23 17:54:32.94	100.35	4.15	-45.2	-63.2	3.8	8.45e-01	0	60	104	262144000	60	31290
2026-01-23 17:54:34.96	100.09	4.03	-45.1	-63.2	3.8	8.45e-01	0	60	104	262144000	60	31356
2026-01-23 17:54:36.99	99.83	3.90	-45.1	-63.2	3.8	8.46e-01	0	60	104	262144000	60	31348
2026-01-23 17:54:39.01	99.58	3.77	-45.2	-63.2	3.8	8.46e-01	0	60	104	262144000	60	31421
2026-01-23 17:54:41.03	99.33	3.65	-45.1	-63.2	3.8	8.46e-01	0	60	104	262144000	60	31389
2026-01-23 17:54:43.05	99.08	3.53	-45.1	-63.2	3.8	8.46e-01	0	60	104	262144000	60	31338
2026-01-23 17:54:45.07	98.84	3.40	-45.1	-63.2	3.8	8.46e-01	0	60	104	262144000	60	31353
2026-01-23 17:54:47.09	98.60	3.28	-45.1	-63.2	3.8	8.46e-01	0	60	104	262144000	60	31345
2026-01-23 17:54:49.11	98.36	3.16	-45.1	-63.2	3.8	8.45e-01	0	60	104	262144000	60	31255
2026-01-23 17:54:51.13	98.13	3.03	-45.1	-63.2	3.8	8.46e-01	0	60	104	262144000	60	31238
2026-01-23 17:54:53.16	97.89	2.91	-45.1	-63.2	3.8	8.46e-01	0	60	104	262144000	60	31250
2026-01-23 17:54:55.18	97.66	2.79	-45.1	-63.2	3.8	8.46e-01	0	60	104	262144000	60	31268
2026-01-23 17:54:57.20	97.44	2.67	-45.1	-63.2	3.8	8.46e-01	0	60	104	262144000	60	31316
2026-01-23 17:54:59.22	97.21	2.55	-45.1	-63.2	3.8	8.46e-01	0	60	104	262144000	60	31271
2026-01-23 17:55:01.24	96.99	2.43	-45.1	-63.2	3.8	8.47e-01	0	61	104	262144000	60	31217
2026-01-23 17:55:03.26	96.78	2.31	-45.1	-63.2	3.8	8.46e-01	0	60	104	262144000	60	31201
2026-01-23 17:55:05.28	96.56	2.19	-45.1	-63.2	3.8	8.47e-01	0	60	104	262144000	60	31244
2026-01-23 17:55:07.30	96.35	2.07	-45.1	-63.2	3.8	8.45e-01	0	61	104	262144000	60	31152

#Closed at: 2026-01-23 17:55:09
#Recorded file [262 MB]: D:/lorett/data/31039_260123_204658.dat