passes_logs/2026/01/23/R2.0S_Moscow/R2.0S_Moscow__20260123_143632_FENGYUN_3E_rec.log

#Pass ID: 20260123_143632_FENGYUN 3E
#Satellite: FENGYUN 3E
#Configuration: FENGYUN 3E
#almurnet v.1.7.20251203
#Start time: 2026-01-23 14:36:32

#Version: 2.2.20231116
#Station: R2.0S_Moscow
#Location: 37.707566 lon 55.798166 lat
#TLE: 1 49008U 21062A   26022.96857035  .00000014  00000+0  27449-4 0  9991
#TLE: 2 49008  98.7488  28.0032 0002359 122.8887 237.2516 14.19886951235971

#Time	Az	El	Level	Level2	SNR	BER	BlckErr	Temp	State	Recorded	gain1	gain2
2026-01-23 14:36:32.18	172.49	1.97	-43.5	-54.6	3.8	8.47e-01	0	52	0	0	58	12242
2026-01-23 14:36:36.22	172.58	2.22	-43.5	-54.6	3.8	8.46e-01	0	53	104	0	58	12241
2026-01-23 14:36:40.26	172.66	2.48	-43.5	-54.5	3.8	8.47e-01	0	53	104	0	58	12227
2026-01-23 14:36:44.30	172.75	2.75	-43.5	-54.6	3.8	8.45e-01	0	53	104	0	58	12242
2026-01-23 14:36:48.34	172.84	3.01	-43.5	-54.6	3.8	8.47e-01	0	53	104	0	58	12240
2026-01-23 14:36:52.38	172.93	3.28	-43.5	-54.5	3.8	8.46e-01	0	54	104	0	57	12938
2026-01-23 14:36:56.42	173.02	3.55	-43.5	-54.5	3.8	8.46e-01	0	54	104	0	57	12919
2026-01-23 14:37:00.46	173.11	3.82	-43.5	-54.5	3.8	8.46e-01	0	54	104	0	57	12844
2026-01-23 14:37:04.51	173.20	4.10	-43.4	-54.3	3.8	8.46e-01	0	55	104	0	57	12606
2026-01-23 14:37:08.55	173.30	4.38	-43.4	-53.7	3.8	8.46e-01	0	55	104	0	57	11765
2026-01-23 14:37:12.59	173.40	4.66	-43.2	-52.8	3.8	8.45e-01	0	55	104	0	57	10646
2026-01-23 14:37:16.64	173.50	4.94	-43.4	-53.7	3.8	8.46e-01	0	55	104	0	57	11771
2026-01-23 14:37:20.68	173.60	5.23	-43.3	-53.2	3.8	8.45e-01	0	55	104	0	57	11048
2026-01-23 14:37:24.72	173.70	5.52	-43.0	-51.2	4.1	8.39e-01	0	56	0	0	56	9305
2026-01-23 14:37:28.76	173.80	5.81	-42.7	-49.9	4.5	8.18e-01	0	56	0	0	56	8026
2026-01-23 14:37:32.80	173.91	6.11	-42.5	-49.4	4.8	7.99e-01	0	56	0	0	56	7586
2026-01-23 14:37:36.85	174.02	6.41	-42.5	-49.5	4.7	8.01e-01	0	56	0	0	56	7645
2026-01-23 14:37:40.89	174.13	6.71	-42.3	-48.9	4.9	7.89e-01	0	57	0	0	55	7594
2026-01-23 14:37:44.93	174.24	7.02	-41.4	-46.2	6.8	2.03e-01	0	57	0	12582912	53	6216
2026-01-23 14:37:48.98	174.36	7.33	-39.9	-43.3	9.8	1.50e-02	0	57	0	41943040	50	5285
2026-01-23 14:37:53.02	174.47	7.65	-38.7	-41.4	11.8	5.70e-04	0	57	0	71303168	48	4796
2026-01-23 14:37:57.07	174.59	7.97	-38.2	-40.8	12.2	2.66e-04	0	57	0	100663296	47	4745
2026-01-23 14:38:01.11	174.71	8.29	-42.3	-50.2	4.2	4.15e-01	0	58	0	127926272	54	9314
2026-01-23 14:38:05.15	174.84	8.62	-37.8	-40.1	13.4	1.48e-05	0	57	0	154140672	46	4651
2026-01-23 14:38:09.19	174.97	8.95	-37.8	-40.1	13.5	5.70e-06	0	58	0	183500800	46	4630
2026-01-23 14:38:13.23	175.09	9.28	-37.8	-40.1	13.6	4.50e-06	0	58	0	211812352	46	4627
2026-01-23 14:38:17.26	175.23	9.62	-37.7	-39.9	13.9	1.10e-06	0	58	0	241172480	46	4515
2026-01-23 14:38:21.30	175.36	9.97	-37.9	-40.1	13.8	3.40e-06	0	58	0	270532608	46	4631
2026-01-23 14:38:25.34	175.50	10.31	-37.8	-39.9	14.1	0.00e+00	0	58	0	299892736	46	4525
2026-01-23 14:38:29.38	175.64	10.67	-37.7	-39.8	14.3	1.10e-06	0	58	0	329252864	46	4468
2026-01-23 14:38:33.41	175.78	11.03	-37.6	-39.7	14.5	0.00e+00	0	58	0	358612992	46	4400
2026-01-23 14:38:37.45	175.93	11.39	-37.5	-39.5	14.6	0.00e+00	0	59	0	386924544	45	4585
2026-01-23 14:38:41.49	176.08	11.76	-37.4	-39.5	14.8	0.00e+00	0	59	0	416284672	45	4551
2026-01-23 14:38:45.54	176.24	12.14	-37.2	-39.2	15.1	0.00e+00	0	59	0	445644800	45	4407
2026-01-23 14:38:49.58	176.39	12.52	-37.2	-39.1	15.2	0.00e+00	0	59	0	475004928	45	4362
2026-01-23 14:38:53.62	176.56	12.90	-37.0	-38.9	15.4	0.00e+00	0	59	0	504365056	44	4540
2026-01-23 14:38:57.66	176.72	13.30	-36.9	-38.8	15.6	0.00e+00	0	59	0	532676608	44	4463
2026-01-23 14:39:01.70	176.89	13.69	-36.8	-38.6	15.7	0.00e+00	0	59	0	562036736	44	4368
2026-01-23 14:39:05.74	177.07	14.10	-36.7	-38.6	15.8	0.00e+00	0	59	0	591396864	44	4343
2026-01-23 14:39:09.78	177.25	14.51	-36.7	-38.6	15.8	0.00e+00	0	59	0	620756992	44	4355
2026-01-23 14:39:13.82	177.43	14.93	-36.5	-38.4	16.0	0.00e+00	0	60	0	650117120	44	4245
2026-01-23 14:39:17.86	177.62	15.36	-36.4	-38.3	15.9	0.00e+00	0	59	0	679477248	43	4448
2026-01-23 14:39:21.89	177.81	15.79	-36.2	-38.1	16.1	0.00e+00	0	60	0	707788800	43	4361
2026-01-23 14:39:25.93	178.01	16.23	-36.2	-38.1	16.2	0.00e+00	0	59	0	737148928	43	4344
2026-01-23 14:39:29.98	178.22	16.68	-36.2	-38.1	16.1	0.00e+00	0	60	0	766509056	43	4355
2026-01-23 14:39:34.01	178.43	17.13	-36.2	-38.1	16.1	0.00e+00	0	60	0	795869184	43	4377
2026-01-23 14:39:38.05	178.64	17.60	-36.0	-37.9	16.3	0.00e+00	0	60	0	825229312	42	4530
2026-01-23 14:39:42.09	178.87	18.07	-35.9	-37.7	16.4	0.00e+00	0	60	0	854589440	42	4427
2026-01-23 14:39:46.13	179.10	18.56	-35.7	-37.5	16.7	0.00e+00	0	60	0	882900992	42	4325
2026-01-23 14:39:50.16	179.33	19.05	-35.5	-37.3	16.9	0.00e+00	0	60	0	912261120	41	4446
2026-01-23 14:39:54.20	179.58	19.55	-35.3	-37.0	17.2	0.00e+00	0	60	0	941621248	41	4312
2026-01-23 14:39:58.24	179.83	20.06	-35.4	-37.1	17.1	0.00e+00	0	60	0	970981376	41	4371
2026-01-23 14:40:02.28	180.09	20.58	-35.3	-37.1	17.1	0.00e+00	0	60	0	999292928	41	4366
2026-01-23 14:40:06.32	180.36	21.11	-35.4	-37.2	17.0	0.00e+00	0	60	0	1028653056	41	4415
2026-01-23 14:40:10.36	180.64	21.66	-35.5	-37.4	16.8	0.00e+00	0	60	0	1058013184	41	4530
2026-01-23 14:40:14.40	180.92	22.21	-35.6	-37.4	16.8	0.00e+00	0	60	0	1087373312	41	4525
2026-01-23 14:40:18.43	181.22	22.77	-35.4	-37.1	17.1	0.00e+00	0	60	0	1115684864	41	4382
2026-01-23 14:40:22.47	181.53	23.35	-35.2	-36.9	17.4	0.00e+00	0	60	0	1145044992	41	4253
2026-01-23 14:40:26.51	181.85	23.94	-35.0	-36.6	17.7	0.00e+00	0	60	0	1174405120	40	4385
2026-01-23 14:40:30.56	182.18	24.55	-34.9	-36.5	17.8	0.00e+00	0	60	0	1203765248	40	4335
2026-01-23 14:40:34.60	182.52	25.16	-35.1	-36.8	17.6	0.00e+00	0	61	0	1233125376	40	4450
2026-01-23 14:40:38.64	182.88	25.79	-35.3	-37.0	17.3	0.00e+00	0	60	0	1262485504	40	4592
2026-01-23 14:40:42.68	183.25	26.43	-34.9	-36.6	17.7	0.00e+00	0	61	0	1290797056	40	4379
2026-01-23 14:40:46.72	183.64	27.09	-34.9	-36.6	17.7	0.00e+00	0	61	0	1320157184	40	4381
2026-01-23 14:40:50.76	184.04	27.76	-34.6	-36.2	18.0	0.00e+00	0	61	0	1349517312	40	4192
2026-01-23 14:40:54.79	184.46	28.45	-34.6	-36.2	18.1	0.00e+00	0	61	0	1378877440	39	4426
2026-01-23 14:40:58.83	184.89	29.16	-34.5	-36.1	18.3	0.00e+00	0	61	0	1408237568	39	4358
2026-01-23 14:41:02.87	185.35	29.88	-34.4	-36.0	18.5	0.00e+00	0	61	0	1436549120	39	4298
2026-01-23 14:41:06.91	185.82	30.61	-34.5	-36.1	18.4	0.00e+00	0	61	0	1465909248	39	4369
2026-01-23 14:41:10.94	186.32	31.36	-34.6	-36.2	18.3	0.00e+00	0	61	0	1495269376	39	4418
2026-01-23 14:41:14.98	186.84	32.14	-34.7	-36.3	18.2	0.00e+00	0	61	0	1524629504	39	4462
2026-01-23 14:41:19.02	187.39	32.93	-34.8	-36.4	18.0	0.00e+00	0	61	0	1553989632	39	4532
2026-01-23 14:41:23.06	187.96	33.73	-34.6	-36.3	18.2	0.00e+00	0	61	0	1582301184	39	4444
2026-01-23 14:41:27.10	188.56	34.56	-34.8	-36.4	18.1	0.00e+00	0	61	0	1611661312	39	4515
2026-01-23 14:41:31.14	189.19	35.40	-34.9	-36.6	18.0	0.00e+00	0	61	0	1641021440	39	4620
2026-01-23 14:41:35.18	189.85	36.27	-34.9	-36.6	18.0	0.00e+00	0	61	0	1670381568	39	4620
2026-01-23 14:41:39.22	190.56	37.15	-34.9	-36.5	18.1	0.00e+00	0	61	0	1699741696	39	4581
2026-01-23 14:41:43.26	191.29	38.05	-34.8	-36.5	18.0	0.00e+00	0	61	0	1729101824	39	4584
2026-01-23 14:41:47.30	192.07	38.97	-34.9	-36.6	17.8	0.00e+00	0	61	0	1757413376	40	4384
2026-01-23 14:41:51.33	192.90	39.91	-35.0	-36.7	17.8	0.00e+00	0	61	0	1786773504	40	4425
2026-01-23 14:41:55.37	193.77	40.87	-35.0	-36.6	17.9	0.00e+00	0	61	0	1816133632	40	4384
2026-01-23 14:41:59.41	194.70	41.85	-34.9	-36.5	18.1	0.00e+00	0	61	0	1845493760	40	4300
2026-01-23 14:42:03.45	195.68	42.84	-35.0	-36.7	17.9	0.00e+00	0	61	0	1874853888	40	4407
2026-01-23 14:42:07.49	196.73	43.86	-35.1	-36.8	17.8	0.00e+00	0	61	0	1904214016	40	4465
2026-01-23 14:42:11.53	197.85	44.89	-35.1	-36.7	17.9	0.00e+00	0	61	0	1932525568	40	4419
2026-01-23 14:42:15.57	199.03	45.93	-35.8	-36.9	18.0	0.00e+00	0	61	0	1961885696	41	4291
2026-01-23 14:42:19.61	200.30	46.99	-36.5	-37.8	17.3	0.00e+00	0	61	0	1991245824	42	4445
2026-01-23 14:42:23.64	201.66	48.05	-36.2	-37.5	17.6	0.00e+00	0	61	0	2020605952	42	4304
2026-01-23 14:42:27.68	203.11	49.13	-36.7	-38.0	17.0	0.00e+00	0	62	0	2048917504	42	4591
2026-01-23 14:42:31.72	204.67	50.21	-36.6	-37.9	17.2	0.00e+00	0	61	0	2078277632	42	4509
2026-01-23 14:42:35.76	206.34	51.29	-36.9	-38.2	16.9	0.00e+00	0	62	0	2107637760	43	4428
2026-01-23 14:42:39.79	208.13	52.37	-36.9	-38.2	17.0	0.00e+00	0	61	0	2136997888	44	4172
2026-01-23 14:42:43.83	210.06	53.44	-36.7	-38.0	17.1	0.00e+00	0	61	0	2165309440	43	4334
2026-01-23 14:42:47.87	212.14	54.50	-36.9	-38.3	16.8	0.00e+00	0	61	0	2194669568	43	4449
2026-01-23 14:42:51.91	214.37	55.55	-36.5	-37.7	17.4	0.00e+00	0	61	0	2224029696	43	4188
2026-01-23 14:42:55.96	216.78	56.57	-36.3	-37.5	17.5	0.00e+00	0	62	0	2253389824	43	4093
2026-01-23 14:43:00.00	219.36	57.55	-36.6	-37.9	17.1	0.00e+00	0	61	0	2282749952	43	4261
2026-01-23 14:43:04.03	222.12	58.49	-36.4	-37.7	17.3	0.00e+00	0	61	0	2311061504	43	4177
2026-01-23 14:43:08.07	225.09	59.38	-36.4	-37.7	17.3	0.00e+00	0	62	0	2340421632	43	4164
2026-01-23 14:43:12.11	228.25	60.21	-36.1	-37.3	17.7	0.00e+00	0	61	0	2369781760	43	3985
2026-01-23 14:43:16.15	231.62	60.96	-36.0	-37.2	17.9	0.00e+00	0	62	0	2399141888	42	4173
2026-01-23 14:43:20.19	235.18	61.64	-36.0	-37.2	17.8	0.00e+00	0	62	0	2428502016	42	4180
2026-01-23 14:43:24.23	238.93	62.22	-35.9	-37.2	17.9	0.00e+00	0	61	0	2457862144	42	4150
2026-01-23 14:43:28.26	242.83	62.69	-36.1	-37.3	17.7	0.00e+00	0	61	0	2486173696	42	4239
2026-01-23 14:43:32.30	246.87	63.05	-35.8	-37.0	18.1	0.00e+00	0	62	0	2515533824	42	4060
2026-01-23 14:43:36.34	251.03	63.30	-35.8	-37.1	18.0	0.00e+00	0	62	0	2544893952	42	4105
2026-01-23 14:43:40.38	255.24	63.42	-35.8	-37.0	18.0	0.00e+00	0	62	0	2574254080	42	4067
2026-01-23 14:43:44.41	259.46	63.41	-35.5	-36.6	18.4	0.00e+00	0	62	0	2603614208	42	3909
2026-01-23 14:43:48.45	263.67	63.27	-35.9	-37.1	17.9	0.00e+00	0	62	0	2631925760	42	4136
2026-01-23 14:43:52.49	267.81	63.01	-36.2	-37.5	17.6	0.00e+00	0	62	0	2661285888	42	4295
2026-01-23 14:43:56.53	271.84	62.64	-36.0	-37.3	17.8	0.00e+00	0	62	0	2690646016	42	4200
2026-01-23 14:44:00.57	275.73	62.15	-36.2	-37.4	17.6	0.00e+00	0	62	0	2720006144	42	4272
2026-01-23 14:44:04.60	279.44	61.56	-36.6	-37.9	17.2	0.00e+00	0	62	0	2749366272	42	4516
2026-01-23 14:44:08.64	282.97	60.87	-36.5	-37.8	17.3	0.00e+00	0	62	0	2778726400	42	4457
2026-01-23 14:44:12.68	286.31	60.11	-36.3	-37.5	17.5	0.00e+00	0	62	0	2807037952	42	4322
2026-01-23 14:44:16.71	289.44	59.28	-36.4	-37.7	17.4	0.00e+00	0	61	0	2836398080	42	4420
2026-01-23 14:44:20.75	292.37	58.38	-36.3	-37.6	17.4	0.00e+00	0	62	0	2865758208	43	4118
2026-01-23 14:44:24.79	295.11	57.44	-36.4	-37.7	17.3	0.00e+00	0	61	0	2895118336	43	4169
2026-01-23 14:44:28.83	297.67	56.45	-36.5	-37.8	17.3	0.00e+00	0	62	0	2923429888	43	4200
2026-01-23 14:44:32.86	300.04	55.44	-36.6	-37.9	17.2	0.00e+00	0	62	0	2952790016	43	4274
2026-01-23 14:44:36.90	302.25	54.39	-36.6	-37.9	17.1	0.00e+00	0	62	0	2982150144	43	4288
2026-01-23 14:44:40.94	304.30	53.34	-36.5	-37.8	17.3	0.00e+00	0	62	0	3011510272	43	4199
2026-01-23 14:44:44.98	306.21	52.26	-37.0	-38.4	16.7	0.00e+00	0	62	0	3040870400	43	4494
2026-01-23 14:44:49.01	307.99	51.19	-36.6	-37.9	17.2	0.00e+00	0	62	0	3069181952	43	4261
2026-01-23 14:44:53.05	309.64	50.11	-36.6	-37.8	17.2	0.00e+00	0	62	0	3098542080	43	4229
2026-01-23 14:44:57.09	311.18	49.03	-36.4	-37.6	17.4	0.00e+00	0	62	0	3127902208	43	4139
2026-01-23 14:45:01.13	312.62	47.96	-36.4	-37.7	17.4	0.00e+00	0	62	0	3157262336	43	4166
2026-01-23 14:45:05.17	313.97	46.90	-36.0	-37.1	17.5	0.00e+00	0	62	0	3185573888	42	4145
2026-01-23 14:45:09.21	315.23	45.85	-35.1	-36.2	18.8	0.00e+00	0	62	0	3214934016	41	3958
2026-01-23 14:45:13.25	316.41	44.82	-35.3	-36.4	18.7	0.00e+00	0	62	0	3244294144	40	4269
2026-01-23 14:45:17.28	317.51	43.80	-35.5	-36.7	18.4	0.00e+00	0	62	0	3273654272	40	4410
2026-01-23 14:45:21.32	318.55	42.79	-35.2	-36.3	18.7	0.00e+00	0	62	0	3303014400	40	4231
2026-01-23 14:45:25.37	319.53	41.80	-35.3	-36.4	18.6	0.00e+00	0	62	0	3332374528	40	4259
2026-01-23 14:45:29.41	320.45	40.83	-35.2	-36.4	18.7	0.00e+00	0	62	0	3360686080	40	4252
2026-01-23 14:45:33.45	321.31	39.87	-35.4	-36.6	18.4	0.00e+00	0	62	0	3390046208	40	4352
2026-01-23 14:45:37.49	322.13	38.94	-35.2	-36.3	18.7	0.00e+00	0	62	0	3419406336	40	4231
2026-01-23 14:45:41.53	322.91	38.02	-35.3	-36.4	18.6	0.00e+00	0	62	0	3448766464	40	4262
2026-01-23 14:45:45.57	323.64	37.13	-35.3	-36.5	18.5	0.00e+00	0	62	0	3478126592	40	4295
2026-01-23 14:45:49.61	324.34	36.25	-35.3	-36.5	18.5	0.00e+00	0	62	0	3506438144	40	4298
2026-01-23 14:45:53.64	325.00	35.40	-35.2	-36.3	18.7	0.00e+00	0	62	0	3535798272	40	4219
2026-01-23 14:45:57.68	325.63	34.56	-35.0	-36.1	18.8	0.00e+00	0	62	0	3565158400	40	4123
2026-01-23 14:46:01.72	326.23	33.74	-34.9	-36.1	18.9	0.00e+00	0	62	0	3594518528	40	4102
2026-01-23 14:46:05.76	326.80	32.94	-35.1	-36.2	18.8	0.00e+00	0	62	0	3623878656	40	4171
2026-01-23 14:46:09.79	327.34	32.15	-35.1	-36.2	18.7	0.00e+00	0	62	0	3653238784	40	4182
2026-01-23 14:46:13.83	327.86	31.39	-35.1	-36.2	18.7	0.00e+00	0	62	0	3681550336	40	4187
2026-01-23 14:46:17.87	328.35	30.64	-34.9	-35.9	19.0	0.00e+00	0	62	0	3710910464	40	4042
2026-01-23 14:46:21.91	328.83	29.91	-34.9	-36.0	18.9	0.00e+00	0	62	0	3740270592	40	4087
2026-01-23 14:46:25.95	329.28	29.19	-35.1	-36.2	18.6	0.00e+00	0	62	0	3769630720	40	4187
2026-01-23 14:46:29.99	329.72	28.49	-35.3	-36.4	18.4	0.00e+00	0	62	0	3798990848	40	4272
2026-01-23 14:46:34.03	330.14	27.81	-35.3	-36.4	18.4	0.00e+00	0	62	0	3827302400	40	4273
2026-01-23 14:46:38.07	330.54	27.14	-35.2	-36.3	18.6	0.00e+00	0	62	0	3856662528	40	4238
2026-01-23 14:46:42.11	330.92	26.49	-35.2	-36.3	18.6	0.00e+00	0	62	0	3886022656	40	4220
2026-01-23 14:46:46.15	331.30	25.85	-35.0	-36.2	18.7	0.00e+00	0	62	0	3915382784	40	4146
2026-01-23 14:46:50.19	331.65	25.22	-35.0	-36.1	18.7	0.00e+00	0	62	0	3944742912	40	4141
2026-01-23 14:46:54.23	332.00	24.61	-35.2	-36.4	18.4	0.00e+00	0	62	0	3973054464	40	4244
2026-01-23 14:46:58.26	332.33	24.01	-35.4	-36.6	18.2	0.00e+00	0	62	0	4002414592	40	4342
2026-01-23 14:47:02.30	332.65	23.43	-35.5	-36.7	18.1	0.00e+00	0	62	0	4031774720	40	4410
2026-01-23 14:47:06.34	332.96	22.85	-35.5	-36.7	18.0	0.00e+00	0	62	0	4061134848	40	4432
2026-01-23 14:47:10.38	333.26	22.29	-35.7	-36.9	17.8	0.00e+00	0	62	0	4090494976	41	4284
2026-01-23 14:47:14.42	333.54	21.74	-35.6	-36.8	17.8	0.00e+00	0	62	0	4118806528	41	4237
2026-01-23 14:47:18.45	333.82	21.20	-35.8	-37.0	17.6	0.00e+00	0	62	0	4148166656	41	4322
2026-01-23 14:47:22.49	334.09	20.67	-35.8	-37.1	17.5	0.00e+00	0	62	0	4177526784	41	4350
2026-01-23 14:47:26.53	334.36	20.15	-35.9	-37.2	17.4	0.00e+00	0	62	0	4206886912	41	4412
2026-01-23 14:47:30.57	334.61	19.65	-36.1	-37.5	17.1	0.00e+00	0	62	0	4235198464	41	4548
2026-01-23 14:47:34.60	334.85	19.15	-36.2	-37.6	17.0	0.00e+00	0	62	0	4264558592	41	4605
2026-01-23 14:47:38.64	335.09	18.66	-36.4	-37.7	16.7	0.00e+00	0	62	0	4293918720	42	4427
2026-01-23 14:47:42.68	335.33	18.18	-36.4	-37.7	16.6	0.00e+00	0	62	0	4323278848	42	4436
2026-01-23 14:47:46.72	335.55	17.71	-36.3	-37.7	16.6	0.00e+00	0	62	0	4352638976	42	4398
2026-01-23 14:47:50.76	335.77	17.25	-36.4	-37.8	16.5	0.00e+00	0	62	0	4380950528	42	4457
2026-01-23 14:47:54.80	335.98	16.79	-36.4	-37.8	16.4	0.00e+00	0	62	0	4410310656	42	4475
2026-01-23 14:47:58.84	336.19	16.35	-36.5	-38.0	16.1	0.00e+00	0	62	0	4439670784	42	4551
2026-01-23 14:48:02.88	336.39	15.91	-36.6	-38.0	16.1	0.00e+00	0	62	0	4469030912	42	4574
2026-01-23 14:48:06.92	336.59	15.48	-36.5	-37.9	16.1	0.00e+00	0	62	0	4498391040	42	4538
2026-01-23 14:48:10.96	336.78	15.05	-36.8	-38.3	15.6	0.00e+00	0	62	0	4527751168	43	4470
2026-01-23 14:48:15.00	336.97	14.64	-36.9	-38.5	15.3	0.00e+00	0	62	0	4556062720	43	4559
2026-01-23 14:48:19.04	337.15	14.23	-36.7	-38.2	15.6	0.00e+00	0	62	0	4585422848	43	4417
2026-01-23 14:48:23.08	337.33	13.82	-36.8	-38.5	15.2	0.00e+00	0	62	0	4614782976	43	4546
2026-01-23 14:48:27.12	337.50	13.43	-37.5	-39.3	14.3	1.10e-06	0	62	0	4644143104	44	4715
2026-01-23 14:48:31.16	337.67	13.04	-37.7	-39.5	13.8	6.80e-06	0	62	0	4673503232	44	4865
2026-01-23 14:48:35.20	337.83	12.65	-37.4	-39.2	14.1	2.20e-06	0	62	0	4701814784	44	4682
2026-01-23 14:48:39.23	337.99	12.27	-37.0	-38.7	14.5	0.00e+00	0	62	0	4731174912	44	4403
2026-01-23 14:48:43.27	338.15	11.90	-36.9	-38.6	14.4	0.00e+00	0	62	0	4760535040	44	4380
2026-01-23 14:48:47.31	338.31	11.53	-36.9	-38.7	14.2	0.00e+00	0	62	0	4789895168	44	4421
2026-01-23 14:48:51.35	338.46	11.17	-37.0	-38.8	13.9	0.00e+00	0	62	0	4819255296	44	4483
2026-01-23 14:48:55.38	338.60	10.81	-37.3	-39.3	13.3	1.60e-05	0	62	0	4848615424	44	4715
2026-01-23 14:48:59.42	338.75	10.46	-37.8	-40.0	12.3	1.17e-04	0	62	0	4876926976	45	4848
2026-01-23 14:49:03.46	338.89	10.12	-38.5	-41.1	11.0	1.38e-03	0	62	0	4906287104	46	5190
2026-01-23 14:49:07.50	339.03	9.77	-39.1	-42.2	9.7	9.43e-03	0	62	0	4935647232	47	5559
2026-01-23 14:49:11.54	339.16	9.43	-39.9	-43.7	8.0	5.14e-02	0	62	0	4965007360	49	5912
2026-01-23 14:49:15.58	339.30	9.10	-40.3	-44.7	7.0	1.37e-01	0	62	0	4994367488	50	6242
2026-01-23 14:49:19.62	339.43	8.77	-40.8	-47.4	4.8	6.02e-01	0	62	0	5016387584	52	7554
2026-01-23 14:49:23.66	339.56	8.45	-40.8	-47.4	4.7	8.03e-01	0	62	0	5016387584	52	7622
2026-01-23 14:49:27.70	339.68	8.13	-41.0	-48.7	4.2	8.36e-01	0	62	0	5016387584	52	8818
2026-01-23 14:49:31.74	339.81	7.81	-45.0	-56.0	3.8	8.46e-01	0	62	104	5016387584	59	13689
2026-01-23 14:49:35.78	339.93	7.50	-45.6	-56.9	3.8	8.45e-01	0	62	104	5016387584	60	14255
2026-01-23 14:49:39.83	340.05	7.19	-45.7	-57.0	3.8	8.47e-01	0	62	104	5016387584	60	14511
2026-01-23 14:49:43.87	340.16	6.88	-45.6	-56.9	3.8	8.46e-01	0	62	104	5016387584	60	14372
2026-01-23 14:49:47.91	340.28	6.58	-45.5	-56.9	3.8	8.46e-01	0	62	104	5016387584	60	14222
2026-01-23 14:49:51.95	340.39	6.28	-45.5	-56.8	3.8	8.46e-01	0	62	104	5016387584	60	14206
2026-01-23 14:49:55.99	340.50	5.98	-45.4	-56.8	3.8	8.47e-01	0	62	104	5016387584	60	14196
2026-01-23 14:50:00.04	340.61	5.69	-45.5	-56.8	3.8	8.46e-01	0	62	104	5016387584	60	14166
2026-01-23 14:50:04.08	340.72	5.40	-45.5	-56.8	3.8	8.48e-01	0	62	104	5016387584	60	14194
2026-01-23 14:50:08.12	340.82	5.12	-45.5	-56.8	3.8	8.45e-01	0	62	104	5016387584	60	14206
2026-01-23 14:50:12.16	340.93	4.83	-45.4	-56.8	3.8	8.46e-01	0	62	104	5016387584	60	14172
2026-01-23 14:50:16.21	341.03	4.55	-45.5	-56.8	3.8	8.46e-01	0	62	104	5016387584	60	14174
2026-01-23 14:50:20.25	341.13	4.27	-45.5	-56.8	3.8	8.47e-01	0	62	104	5016387584	60	14103
2026-01-23 14:50:24.29	341.23	4.00	-45.4	-56.8	3.8	8.47e-01	0	62	104	5016387584	60	14153
2026-01-23 14:50:28.33	341.33	3.73	-45.4	-56.8	3.8	8.46e-01	0	62	104	5016387584	60	14165
2026-01-23 14:50:32.37	341.42	3.46	-45.5	-56.8	3.8	8.45e-01	0	62	104	5016387584	60	14160
2026-01-23 14:50:36.41	341.52	3.19	-45.5	-56.8	3.8	8.46e-01	0	62	104	5016387584	60	14079
2026-01-23 14:50:40.46	341.61	2.93	-45.4	-56.8	3.8	8.46e-01	0	62	104	5016387584	60	14070
2026-01-23 14:50:44.50	341.70	2.67	-45.5	-56.8	3.8	8.46e-01	0	62	104	5016387584	60	14084
2026-01-23 14:50:48.54	341.79	2.41	-45.4	-56.8	3.8	8.47e-01	0	62	104	5016387584	60	14086
2026-01-23 14:50:52.58	341.88	2.15	-45.4	-56.8	3.8	8.46e-01	0	62	104	5016387584	60	14129

#Closed at: 2026-01-23 14:50:55
#Recorded file [5016 MB]: D:/lorett/data/31039_260123_173632.dat