passes_logs/2026/01/23/R2.0S_Moscow/R2.0S_Moscow__20260123_030248_FENGYUN_3D_rec.log

#Pass ID: 20260123_030248_FENGYUN 3D
#Satellite: FENGYUN 3D
#Configuration: FENGYUN 3D
#almurnet v.1.7.20251203
#Start time: 2026-01-23 03:02:48

#Version: 2.2.20231116
#Station: R2.0S_Moscow
#Location: 37.707566 lon 55.798166 lat
#TLE: 1 43010U 17072A   26022.47411728  .00000617  00000+0  31375-3 0  9996
#TLE: 2 43010  98.9952 354.4060 0002481  95.7964 264.3494 14.19699924424319

#Time	Az	El	Level	Level2	SNR	BER	BlckErr	Temp	State	Recorded	gain1	gain2
2026-01-23 03:02:48.33	11.89	2.00	-39.9	-51.5	3.8	8.46e-01	0	51	0	0	51	13698
2026-01-23 03:02:52.36	11.69	2.24	-39.9	-51.4	3.8	8.45e-01	0	52	104	0	51	13563
2026-01-23 03:02:56.40	11.49	2.48	-39.9	-51.5	3.8	8.45e-01	0	52	104	0	51	13620
2026-01-23 03:03:00.45	11.28	2.73	-39.9	-51.4	3.8	8.46e-01	0	52	104	0	51	13565
2026-01-23 03:03:04.49	11.07	2.97	-39.9	-51.4	3.8	8.46e-01	0	52	104	0	51	13569
2026-01-23 03:03:08.53	10.85	3.22	-39.9	-51.4	3.8	8.47e-01	0	53	104	0	51	13547
2026-01-23 03:03:12.57	10.63	3.47	-39.9	-51.4	3.8	8.46e-01	0	53	104	0	51	13565
2026-01-23 03:03:16.61	10.41	3.72	-39.9	-51.5	3.8	8.47e-01	0	53	104	0	51	13589
2026-01-23 03:03:20.65	10.18	3.98	-39.9	-51.5	3.8	8.45e-01	0	54	104	0	51	13598
2026-01-23 03:03:24.70	9.94	4.23	-39.9	-51.5	3.8	8.46e-01	0	54	104	0	51	13591
2026-01-23 03:03:28.74	9.71	4.49	-39.9	-51.4	3.8	8.45e-01	0	54	104	0	51	13534
2026-01-23 03:03:32.78	9.47	4.75	-39.9	-51.4	3.8	8.47e-01	0	54	104	0	51	13567
2026-01-23 03:03:36.82	9.22	5.01	-39.9	-51.5	3.8	8.46e-01	0	55	104	0	51	13571
2026-01-23 03:03:40.86	8.97	5.28	-39.9	-51.4	3.8	8.47e-01	0	55	104	0	51	13527
2026-01-23 03:03:44.90	8.71	5.54	-39.9	-51.5	3.8	8.47e-01	0	55	104	0	51	13581
2026-01-23 03:03:48.94	8.45	5.81	-39.9	-51.5	3.8	8.46e-01	0	55	104	0	51	13598
2026-01-23 03:03:52.98	8.19	6.08	-39.9	-51.4	3.8	8.47e-01	0	55	104	0	51	13535
2026-01-23 03:03:57.02	7.91	6.35	-39.9	-51.4	3.8	8.45e-01	0	56	104	0	51	13568
2026-01-23 03:04:01.06	7.64	6.63	-39.9	-51.4	3.8	8.46e-01	0	55	104	0	51	13546
2026-01-23 03:04:05.10	7.36	6.90	-39.9	-51.4	3.8	8.45e-01	0	56	104	0	51	13561
2026-01-23 03:04:09.14	7.07	7.18	-39.9	-51.4	3.8	8.46e-01	0	56	104	0	51	13542
2026-01-23 03:04:13.18	6.77	7.46	-39.8	-51.4	3.8	8.46e-01	0	56	104	0	51	13555
2026-01-23 03:04:17.22	6.47	7.75	-39.9	-51.5	3.8	8.45e-01	0	57	104	0	51	13577
2026-01-23 03:04:21.27	6.17	8.04	-39.9	-51.5	3.8	8.47e-01	0	56	104	0	51	13606
2026-01-23 03:04:25.30	5.85	8.32	-40.0	-51.6	3.8	8.45e-01	0	57	104	0	51	13817
2026-01-23 03:04:29.34	5.54	8.61	-40.0	-51.6	3.8	8.46e-01	0	57	104	0	51	13797
2026-01-23 03:04:33.38	5.21	8.91	-40.0	-51.6	3.8	8.46e-01	0	57	104	0	51	13842
2026-01-23 03:04:37.41	4.88	9.20	-40.1	-51.6	3.8	8.46e-01	0	57	104	0	51	13842
2026-01-23 03:04:41.45	4.54	9.50	-40.1	-51.6	3.8	8.47e-01	0	57	104	0	51	13885
2026-01-23 03:04:45.49	4.19	9.80	-40.1	-51.7	3.8	8.45e-01	0	57	104	0	51	13978
2026-01-23 03:04:49.53	3.83	10.11	-40.2	-51.8	3.8	8.45e-01	0	57	104	0	51	14057
2026-01-23 03:04:53.56	3.47	10.41	-40.2	-51.8	3.8	8.45e-01	0	58	104	0	51	14083
2026-01-23 03:04:57.60	3.10	10.72	-40.2	-51.8	3.8	8.46e-01	0	58	104	0	51	14068
2026-01-23 03:05:01.64	2.72	11.04	-40.0	-51.6	3.8	8.46e-01	0	58	104	0	51	13785
2026-01-23 03:05:05.67	2.33	11.35	-40.1	-51.7	3.8	8.45e-01	0	58	104	0	52	13146
2026-01-23 03:05:09.71	1.94	11.67	-40.3	-51.9	3.8	8.47e-01	0	58	104	0	52	13417
2026-01-23 03:05:13.75	1.53	11.99	-40.1	-51.7	3.8	8.46e-01	0	58	104	0	52	13165
2026-01-23 03:05:17.79	1.12	12.31	-40.4	-52.0	3.8	8.45e-01	0	58	104	0	52	13570
2026-01-23 03:05:21.82	0.69	12.64	-40.3	-51.8	3.8	8.45e-01	0	58	104	0	52	13266
2026-01-23 03:05:25.86	0.26	12.97	-40.4	-51.2	3.8	8.46e-01	0	58	104	0	52	12494
2026-01-23 03:05:29.90	359.81	13.30	-41.6	-51.9	3.8	6.73e-01	0	58	104	1048576	54	12058
2026-01-23 03:05:33.94	359.36	13.63	-39.6	-43.0	9.9	1.46e-02	0	59	0	17825792	51	5115
2026-01-23 03:05:37.97	358.89	13.97	-37.7	-40.1	12.9	7.66e-05	0	58	0	40894464	47	4604
2026-01-23 03:05:42.01	358.42	14.31	-38.3	-40.8	12.4	1.90e-04	0	59	0	63963136	47	4986
2026-01-23 03:05:46.05	357.93	14.65	-38.2	-40.5	12.7	7.89e-05	0	59	0	85983232	47	4869
2026-01-23 03:05:50.09	357.43	15.00	-37.8	-40.0	13.1	3.08e-05	0	59	0	109051904	47	4597
2026-01-23 03:05:54.13	356.92	15.34	-37.9	-40.2	12.8	8.69e-05	0	59	0	131072000	47	4703
2026-01-23 03:05:58.17	356.39	15.69	-38.6	-41.5	11.2	1.34e-03	0	59	0	154140672	47	5455
2026-01-23 03:06:02.21	355.85	16.05	-40.5	-46.0	6.2	2.36e-01	0	59	0	177209344	51	7281
2026-01-23 03:06:06.24	355.31	16.40	-40.9	-51.0	3.8	8.47e-01	0	59	104	181403648	52	12224
2026-01-23 03:06:10.28	354.74	16.76	-41.3	-52.2	3.8	8.46e-01	0	59	104	181403648	53	13249
2026-01-23 03:06:14.32	354.16	17.12	-40.9	-52.5	3.8	8.46e-01	0	59	104	181403648	53	13657
2026-01-23 03:06:18.36	353.57	17.48	-40.8	-52.4	3.8	8.46e-01	0	59	104	181403648	53	13437
2026-01-23 03:06:22.39	352.96	17.85	-40.7	-52.2	3.8	8.45e-01	0	60	104	181403648	53	13258
2026-01-23 03:06:26.43	352.34	18.21	-40.8	-52.3	3.8	8.45e-01	0	59	104	181403648	53	13404
2026-01-23 03:06:30.47	351.70	18.58	-40.8	-52.3	3.8	8.46e-01	0	59	104	181403648	53	13392
2026-01-23 03:06:34.51	351.05	18.95	-40.9	-52.5	3.8	8.47e-01	0	59	104	181403648	53	13689
2026-01-23 03:06:38.55	350.38	19.32	-41.1	-52.4	3.8	8.45e-01	0	59	104	181403648	53	13523
2026-01-23 03:06:42.58	349.69	19.70	-41.2	-52.8	3.8	8.46e-01	0	59	104	181403648	53	14082
2026-01-23 03:06:46.62	348.99	20.07	-41.2	-52.4	3.8	8.47e-01	0	60	104	181403648	53	13568
2026-01-23 03:06:50.65	348.27	20.45	-41.8	-50.9	4.0	8.44e-01	0	60	104	181403648	54	10716
2026-01-23 03:06:54.69	347.53	20.82	-41.7	-48.2	5.2	7.59e-01	0	60	0	181403648	54	7859
2026-01-23 03:06:58.73	346.77	21.20	-40.7	-46.1	4.6	8.42e-01	0	60	104	190840832	53	6564
2026-01-23 03:07:02.76	345.99	21.57	-38.8	-41.5	11.5	1.64e-03	0	60	0	206569472	49	4853
2026-01-23 03:07:06.80	345.19	21.95	-36.9	-38.8	14.4	2.20e-06	0	60	0	229638144	45	4484
2026-01-23 03:07:10.83	344.38	22.33	-36.3	-38.1	15.4	0.00e+00	0	60	0	252706816	44	4344
2026-01-23 03:07:14.88	343.54	22.70	-36.8	-38.6	15.3	0.00e+00	0	60	0	274726912	44	4608
2026-01-23 03:07:18.92	342.68	23.07	-36.6	-38.2	16.2	0.00e+00	0	60	0	297795584	44	4418
2026-01-23 03:07:22.96	341.80	23.45	-36.5	-38.1	16.4	0.00e+00	0	60	0	320864256	44	4373
2026-01-23 03:07:27.00	340.89	23.82	-36.2	-37.7	17.0	0.00e+00	0	60	0	342884352	44	4175
2026-01-23 03:07:31.05	339.97	24.18	-36.3	-37.8	16.9	0.00e+00	0	60	0	365953024	44	4227
2026-01-23 03:07:35.09	339.02	24.55	-36.4	-37.8	17.0	0.00e+00	0	60	0	389021696	44	4239
2026-01-23 03:07:39.12	338.06	24.91	-36.0	-37.4	17.5	0.00e+00	0	60	0	411041792	44	4050
2026-01-23 03:07:43.16	337.07	25.26	-36.1	-37.5	17.5	0.00e+00	0	60	0	434110464	44	4074
2026-01-23 03:07:47.20	336.06	25.62	-35.7	-37.1	17.8	0.00e+00	0	60	0	457179136	43	4120
2026-01-23 03:07:51.24	335.02	25.96	-35.9	-37.3	17.7	0.00e+00	0	60	0	479199232	43	4215
2026-01-23 03:07:55.28	333.96	26.30	-35.9	-37.3	17.7	0.00e+00	0	60	0	502267904	43	4232
2026-01-23 03:07:59.31	332.88	26.63	-35.8	-37.2	17.8	0.00e+00	0	60	0	525336576	43	4162
2026-01-23 03:08:03.36	331.77	26.96	-36.0	-37.4	17.6	0.00e+00	0	60	0	547356672	43	4278
2026-01-23 03:08:07.39	330.65	27.28	-35.8	-37.2	17.9	0.00e+00	0	60	0	570425344	43	4155
2026-01-23 03:08:11.43	329.50	27.58	-35.4	-36.7	18.3	0.00e+00	0	60	0	593494016	42	4168
2026-01-23 03:08:15.46	328.33	27.88	-35.7	-37.0	18.1	0.00e+00	0	60	0	615514112	42	4318
2026-01-23 03:08:19.50	327.14	28.17	-35.7	-37.1	18.0	0.00e+00	0	60	0	638582784	42	4356
2026-01-23 03:08:23.54	325.92	28.45	-35.6	-37.0	18.1	0.00e+00	0	60	0	661651456	42	4310
2026-01-23 03:08:27.58	324.68	28.71	-35.4	-36.7	18.4	0.00e+00	0	60	0	683671552	42	4154
2026-01-23 03:08:31.62	323.43	28.96	-35.6	-37.0	18.1	0.00e+00	0	60	0	706740224	42	4294
2026-01-23 03:08:35.66	322.15	29.20	-35.2	-36.4	18.6	0.00e+00	0	60	0	729808896	42	4051
2026-01-23 03:08:39.70	320.85	29.43	-35.3	-36.7	18.4	0.00e+00	0	60	0	751828992	42	4147
2026-01-23 03:08:43.74	319.54	29.64	-35.3	-36.6	18.5	0.00e+00	0	60	0	774897664	42	4107
2026-01-23 03:08:47.77	318.21	29.83	-35.4	-36.7	18.4	0.00e+00	0	60	0	797966336	42	4177
2026-01-23 03:08:51.82	316.86	30.01	-35.5	-36.8	18.3	0.00e+00	0	60	0	819986432	42	4218
2026-01-23 03:08:55.85	315.51	30.17	-35.5	-36.8	18.3	0.00e+00	0	60	0	843055104	42	4225
2026-01-23 03:08:59.89	314.13	30.31	-35.2	-36.5	18.6	0.00e+00	0	61	0	866123776	42	4068
2026-01-23 03:09:03.93	312.75	30.44	-35.2	-36.5	18.5	0.00e+00	0	60	0	888143872	42	4078
2026-01-23 03:09:07.97	311.35	30.54	-35.4	-36.7	18.4	0.00e+00	0	61	0	911212544	42	4167
2026-01-23 03:09:12.01	309.95	30.63	-35.1	-36.3	18.8	0.00e+00	0	60	0	934281216	42	3993
2026-01-23 03:09:16.05	308.54	30.70	-35.1	-36.4	18.7	0.00e+00	0	60	0	956301312	42	4033
2026-01-23 03:09:20.09	307.12	30.75	-35.0	-36.3	18.8	0.00e+00	0	60	0	979369984	42	3982
2026-01-23 03:09:24.13	305.70	30.78	-35.1	-36.4	18.6	0.00e+00	0	60	0	1002438656	41	4272
2026-01-23 03:09:28.17	304.28	30.79	-35.0	-36.2	18.8	0.00e+00	0	60	0	1024458752	41	4179
2026-01-23 03:09:32.21	302.86	30.78	-35.1	-36.4	18.7	0.00e+00	0	60	0	1047527424	41	4253
2026-01-23 03:09:36.25	301.44	30.75	-35.2	-36.4	18.6	0.00e+00	0	60	0	1070596096	41	4285
2026-01-23 03:09:40.29	300.02	30.70	-35.0	-36.2	18.8	0.00e+00	0	60	0	1092616192	41	4191
2026-01-23 03:09:44.33	298.61	30.63	-35.1	-36.4	18.7	0.00e+00	0	60	0	1115684864	41	4252
2026-01-23 03:09:48.37	297.21	30.54	-35.1	-36.4	18.7	0.00e+00	0	61	0	1138753536	41	4264
2026-01-23 03:09:52.40	295.82	30.43	-35.2	-36.5	18.6	0.00e+00	0	60	0	1160773632	41	4304
2026-01-23 03:09:56.44	294.43	30.31	-35.0	-36.3	18.8	0.00e+00	0	60	0	1183842304	41	4214
2026-01-23 03:10:00.48	293.05	30.17	-35.2	-36.5	18.6	0.00e+00	0	60	0	1206910976	41	4292
2026-01-23 03:10:04.52	291.69	30.00	-35.2	-36.5	18.6	0.00e+00	0	61	0	1228931072	41	4302
2026-01-23 03:10:08.56	290.34	29.83	-35.1	-36.4	18.6	0.00e+00	0	60	0	1251999744	41	4275
2026-01-23 03:10:12.60	289.01	29.63	-35.3	-36.6	18.5	0.00e+00	0	61	0	1275068416	41	4359
2026-01-23 03:10:16.63	287.70	29.42	-35.4	-36.7	18.4	0.00e+00	0	61	0	1297088512	41	4405
2026-01-23 03:10:20.67	286.40	29.20	-35.4	-36.7	18.4	0.00e+00	0	60	0	1320157184	41	4416
2026-01-23 03:10:24.71	285.12	28.96	-35.4	-36.7	18.4	0.00e+00	0	61	0	1343225856	41	4408
2026-01-23 03:10:28.75	283.86	28.70	-35.1	-36.4	18.6	0.00e+00	0	60	0	1365245952	41	4272
2026-01-23 03:10:32.79	282.62	28.44	-35.3	-36.7	18.4	0.00e+00	0	60	0	1388314624	41	4392
2026-01-23 03:10:36.83	281.40	28.16	-35.4	-36.7	18.4	0.00e+00	0	61	0	1411383296	41	4409
2026-01-23 03:10:40.87	280.21	27.87	-35.4	-36.8	18.3	0.00e+00	0	60	0	1433403392	41	4445
2026-01-23 03:10:44.91	279.03	27.57	-35.2	-36.5	18.5	0.00e+00	0	61	0	1456472064	41	4312
2026-01-23 03:10:48.95	277.88	27.26	-35.4	-36.7	18.4	0.00e+00	0	61	0	1479540736	41	4396
2026-01-23 03:10:52.99	276.75	26.95	-35.2	-36.4	18.6	0.00e+00	0	60	0	1501560832	41	4280
2026-01-23 03:10:57.03	275.64	26.62	-35.5	-36.8	18.2	0.00e+00	0	61	0	1524629504	41	4460
2026-01-23 03:11:01.06	274.55	26.29	-35.6	-36.9	18.1	0.00e+00	0	60	0	1547698176	41	4525
2026-01-23 03:11:05.11	273.49	25.94	-35.5	-36.9	18.1	0.00e+00	0	60	0	1569718272	41	4511
2026-01-23 03:11:09.15	272.45	25.60	-35.5	-36.8	18.2	0.00e+00	0	60	0	1592786944	41	4458
2026-01-23 03:11:13.18	271.44	25.24	-35.6	-37.0	18.0	0.00e+00	0	61	0	1615855616	41	4546
2026-01-23 03:11:17.22	270.44	24.89	-35.6	-37.0	18.0	0.00e+00	0	61	0	1637875712	41	4548
2026-01-23 03:11:21.26	269.47	24.53	-35.5	-36.9	18.1	0.00e+00	0	60	0	1660944384	41	4500
2026-01-23 03:11:25.29	268.52	24.16	-35.7	-37.0	17.9	0.00e+00	0	60	0	1684013056	41	4581
2026-01-23 03:11:29.33	267.60	23.79	-35.6	-37.0	18.0	0.00e+00	0	61	0	1706033152	41	4564
2026-01-23 03:11:33.37	266.69	23.42	-35.9	-37.3	17.7	0.00e+00	0	60	0	1729101824	42	4457
2026-01-23 03:11:37.41	265.81	23.05	-36.0	-37.5	17.5	0.00e+00	0	60	0	1752170496	42	4549
2026-01-23 03:11:41.45	264.94	22.67	-36.0	-37.4	17.5	0.00e+00	0	60	0	1774190592	42	4532
2026-01-23 03:11:45.49	264.10	22.30	-36.2	-37.6	17.3	0.00e+00	0	60	0	1797259264	43	4385
2026-01-23 03:11:49.53	263.28	21.92	-36.2	-37.7	17.2	0.00e+00	0	61	0	1820327936	43	4414
2026-01-23 03:11:53.57	262.48	21.54	-36.3	-37.7	17.2	0.00e+00	0	61	0	1842348032	43	4422
2026-01-23 03:11:57.60	261.70	21.16	-36.4	-37.9	17.0	0.00e+00	0	61	0	1865416704	43	4512
2026-01-23 03:12:01.64	260.93	20.78	-36.2	-37.7	17.2	0.00e+00	0	61	0	1888485376	43	4401
2026-01-23 03:12:05.68	260.19	20.41	-36.2	-37.6	17.2	0.00e+00	0	61	0	1910505472	43	4386
2026-01-23 03:12:09.72	259.46	20.03	-36.4	-37.8	17.1	0.00e+00	0	61	0	1933574144	43	4478
2026-01-23 03:12:13.76	258.75	19.65	-36.4	-37.9	16.9	0.00e+00	0	61	0	1956642816	43	4524
2026-01-23 03:12:17.80	258.06	19.28	-36.5	-38.0	16.9	0.00e+00	0	61	0	1978662912	43	4570
2026-01-23 03:12:21.83	257.39	18.91	-36.7	-38.2	16.6	0.00e+00	0	61	0	2001731584	43	4680
2026-01-23 03:12:25.87	256.73	18.53	-36.5	-38.0	16.8	0.00e+00	0	60	0	2024800256	43	4590
2026-01-23 03:12:29.91	256.09	18.16	-36.9	-38.5	16.6	0.00e+00	0	61	0	2046820352	44	4555
2026-01-23 03:12:33.95	255.46	17.80	-37.2	-38.7	16.2	0.00e+00	0	61	0	2069889024	44	4705
2026-01-23 03:12:37.99	254.85	17.43	-37.2	-38.9	16.1	0.00e+00	0	60	0	2092957696	45	4503
2026-01-23 03:12:42.03	254.26	17.07	-37.2	-38.9	16.1	0.00e+00	0	61	0	2114977792	45	4505
2026-01-23 03:12:46.06	253.68	16.70	-37.4	-39.0	15.9	0.00e+00	0	61	0	2138046464	45	4594
2026-01-23 03:12:50.10	253.11	16.35	-37.4	-39.1	15.8	0.00e+00	0	61	0	2161115136	45	4612
2026-01-23 03:12:54.14	252.55	15.99	-37.5	-39.2	15.7	0.00e+00	0	61	0	2183135232	45	4698
2026-01-23 03:12:58.18	252.01	15.63	-37.7	-39.4	15.4	0.00e+00	0	61	0	2206203904	45	4808
2026-01-23 03:13:02.22	251.48	15.28	-37.5	-39.2	15.7	0.00e+00	0	61	0	2229272576	46	4398
2026-01-23 03:13:06.25	250.97	14.93	-37.6	-39.3	15.6	0.00e+00	0	61	0	2251292672	46	4486
2026-01-23 03:13:10.29	250.46	14.59	-37.7	-39.4	15.4	1.10e-06	0	61	0	2274361344	46	4526
2026-01-23 03:13:14.33	249.97	14.24	-37.7	-39.4	15.4	0.00e+00	0	61	0	2297430016	46	4530
2026-01-23 03:13:18.38	249.49	13.90	-37.9	-39.7	15.1	0.00e+00	0	61	0	2319450112	46	4687
2026-01-23 03:13:22.41	249.02	13.56	-38.1	-39.9	14.9	1.10e-06	0	61	0	2342518784	46	4796
2026-01-23 03:13:26.45	248.56	13.23	-38.1	-40.0	14.8	0.00e+00	0	61	0	2365587456	46	4818
2026-01-23 03:13:30.49	248.12	12.90	-38.2	-40.1	14.7	0.00e+00	0	61	0	2387607552	46	4875
2026-01-23 03:13:34.53	247.68	12.57	-38.1	-40.0	14.7	0.00e+00	0	61	0	2410676224	47	4596
2026-01-23 03:13:38.57	247.25	12.24	-38.2	-40.1	14.7	0.00e+00	0	61	0	2433744896	47	4618
2026-01-23 03:13:42.60	246.83	11.92	-38.3	-40.3	14.5	2.20e-06	0	61	0	2455764992	47	4713
2026-01-23 03:13:46.64	246.42	11.59	-38.5	-40.5	14.2	4.50e-06	0	61	0	2478833664	47	4846
2026-01-23 03:13:50.68	246.02	11.27	-38.5	-40.5	14.2	5.70e-06	0	61	0	2500853760	47	4843
2026-01-23 03:13:54.72	245.63	10.96	-38.6	-40.6	14.0	4.50e-06	0	61	0	2523922432	47	4909
2026-01-23 03:13:58.76	245.25	10.65	-38.6	-40.7	14.0	4.50e-06	0	61	0	2546991104	47	4935
2026-01-23 03:14:02.80	244.87	10.34	-38.9	-41.0	13.7	4.50e-06	0	61	0	2570059776	48	4826
2026-01-23 03:14:06.84	244.50	10.03	-38.9	-41.1	13.6	1.14e-05	0	61	0	2592079872	48	4887
2026-01-23 03:14:10.88	244.14	9.72	-39.0	-41.1	13.5	1.94e-05	0	61	0	2615148544	48	4925
2026-01-23 03:14:14.92	243.79	9.42	-38.9	-41.0	13.6	1.71e-05	0	61	0	2638217216	48	4847
2026-01-23 03:14:18.96	243.45	9.12	-39.0	-41.2	13.4	1.94e-05	0	61	0	2660237312	48	4954
2026-01-23 03:14:23.00	243.11	8.82	-39.0	-41.3	13.3	2.97e-05	0	61	0	2683305984	48	4996
2026-01-23 03:14:27.03	242.78	8.53	-39.2	-41.5	13.1	3.89e-05	0	61	0	2706374656	48	5110
2026-01-23 03:14:31.07	242.46	8.24	-39.1	-41.4	13.1	4.11e-05	0	61	0	2728394752	48	5070
2026-01-23 03:14:35.10	242.14	7.95	-44.5	-55.7	3.8	7.84e-01	0	61	104	2749366272	59	13907
2026-01-23 03:14:39.14	241.83	7.66	-45.1	-56.8	3.8	8.45e-01	0	61	104	2749366272	60	15047
2026-01-23 03:14:43.18	241.53	7.38	-45.2	-57.0	3.8	8.47e-01	0	61	104	2749366272	60	15245
2026-01-23 03:14:47.22	241.23	7.09	-45.1	-56.9	3.8	8.45e-01	0	61	104	2749366272	60	15135
2026-01-23 03:14:51.26	240.94	6.81	-45.1	-56.8	3.8	8.46e-01	0	61	104	2749366272	60	15000
2026-01-23 03:14:55.30	240.65	6.54	-45.1	-56.8	3.8	8.46e-01	0	61	104	2749366272	60	14901
2026-01-23 03:14:59.34	240.37	6.26	-45.1	-56.8	3.8	8.45e-01	0	61	104	2749366272	60	14891
2026-01-23 03:15:03.38	240.10	5.99	-45.1	-56.8	3.8	8.47e-01	0	61	104	2749366272	60	14957
2026-01-23 03:15:07.42	239.83	5.72	-45.1	-56.8	3.8	8.46e-01	0	61	104	2749366272	60	14905
2026-01-23 03:15:11.46	239.56	5.45	-45.0	-56.8	3.8	8.46e-01	0	61	104	2749366272	60	14934
2026-01-23 03:15:15.50	239.30	5.18	-45.1	-56.8	3.8	8.45e-01	0	61	104	2749366272	60	14884
2026-01-23 03:15:19.54	239.04	4.92	-45.0	-56.8	3.8	8.46e-01	0	61	104	2749366272	60	14911
2026-01-23 03:15:23.59	238.79	4.65	-45.0	-56.8	3.8	8.47e-01	0	61	104	2749366272	60	14892
2026-01-23 03:15:27.63	238.55	4.39	-45.0	-56.8	3.8	8.46e-01	0	61	104	2749366272	60	14915
2026-01-23 03:15:31.67	238.31	4.14	-45.0	-56.7	3.8	8.47e-01	0	61	104	2749366272	60	14821
2026-01-23 03:15:35.71	238.07	3.88	-45.0	-56.7	3.8	8.45e-01	0	61	104	2749366272	60	14865
2026-01-23 03:15:39.76	237.84	3.63	-45.0	-56.7	3.8	8.46e-01	0	61	104	2749366272	60	14876
2026-01-23 03:15:43.80	237.61	3.37	-45.0	-56.7	3.8	8.46e-01	0	61	104	2749366272	60	14858
2026-01-23 03:15:47.84	237.38	3.12	-45.0	-56.8	3.8	8.46e-01	0	61	104	2749366272	60	14885
2026-01-23 03:15:51.88	237.16	2.87	-45.0	-56.7	3.8	8.47e-01	0	61	104	2749366272	60	14810
2026-01-23 03:15:55.92	236.94	2.63	-45.0	-56.7	3.8	8.46e-01	0	61	104	2749366272	60	14852
2026-01-23 03:15:59.96	236.73	2.38	-45.0	-56.7	3.8	8.47e-01	0	61	104	2749366272	60	14871
2026-01-23 03:16:04.00	236.52	2.14	-45.0	-56.8	3.8	8.47e-01	0	61	104	2749366272	60	14914
2026-01-23 03:16:08.04	236.32	1.90	-45.0	-56.7	3.8	8.46e-01	0	61	104	2749366272	60	14818

#Closed at: 2026-01-23 03:16:09
#Recorded file [2749 MB]: D:/lorett/data/31039_260123_060248.dat