passes_logs/2026/01/23/R2.0S_Moscow/R2.0S_Moscow__20260123_085608_NOAA_20_JPSS-1_rec.log

#Pass ID: 20260123_085608_NOAA 20 (JPSS-1)
#Satellite: NOAA 20 (JPSS-1)
#Configuration: NOAA 20
#almurnet v.1.7.20251203
#Start time: 2026-01-23 08:56:09

#Version: 2.2.20231116
#Station: R2.0S_Moscow
#Location: 37.707566 lon 55.798166 lat
#TLE: 1 43013U 17073A   26022.44900781  .00000193  00000+0  11233-3 0  9999
#TLE: 2 43013  98.7645 323.3100 0001197  28.8413 331.2829 14.19538802423792

#Time	Az	El	Level	Level2	SNR	BER	BlckErr	Temp	State	Recorded	gain1	gain2
2026-01-23 08:56:09.35	131.78	2.07	-14.9	-28.7	3.9	1.50e+00	0	52	0	0	0	18536
2026-01-23 08:56:13.38	131.61	2.32	-22.5	-37.9	3.2	1.50e+00	0	53	104	0	15	22763
2026-01-23 08:56:17.42	131.45	2.57	-17.2	-32.3	3.7	1.50e+00	0	53	104	0	10	15839
2026-01-23 08:56:21.46	131.28	2.82	-17.9	-33.3	3.6	1.50e+00	0	54	104	0	5	23844
2026-01-23 08:56:25.50	131.10	3.08	-20.1	-32.9	3.6	1.50e+00	0	54	104	0	7	20242
2026-01-23 08:56:29.54	130.93	3.34	-18.8	-32.0	3.4	1.51e+00	0	54	104	0	6	19214
2026-01-23 08:56:33.59	130.74	3.60	-20.5	-35.6	3.3	1.50e+00	0	54	104	0	12	20677
2026-01-23 08:56:37.62	130.56	3.86	-17.2	-32.9	3.5	1.50e+00	0	54	104	0	10	16983
2026-01-23 08:56:41.67	130.37	4.13	-17.1	-32.4	3.5	1.50e+00	0	55	104	0	6	20246
2026-01-23 08:56:45.71	130.18	4.40	-17.8	-30.5	3.7	1.50e+00	0	55	0	0	5	17129
2026-01-23 08:56:49.75	129.99	4.67	-20.8	-31.4	3.7	1.50e+00	0	55	104	0	2	22539
2026-01-23 08:56:53.79	129.79	4.94	-21.8	-34.7	3.7	1.50e+00	0	55	104	0	9	22184
2026-01-23 08:56:57.83	129.59	5.21	-22.3	-36.4	3.4	1.50e+00	0	56	104	0	12	22618
2026-01-23 08:57:01.87	129.38	5.49	-12.9	-25.0	4.1	1.50e+00	0	56	104	0	0	12164
2026-01-23 08:57:05.91	129.17	5.77	-19.6	-33.1	3.7	1.51e+00	0	56	104	0	9	18443
2026-01-23 08:57:09.95	128.95	6.05	-19.6	-34.1	3.4	1.50e+00	0	56	104	0	6	24513
2026-01-23 08:57:13.99	128.73	6.34	-16.5	-31.6	3.6	1.50e+00	0	56	104	0	9	15548
2026-01-23 08:57:18.03	128.51	6.62	-17.6	-33.2	3.7	1.50e+00	0	56	104	0	11	16654
2026-01-23 08:57:22.07	128.28	6.92	-16.8	-32.1	3.7	1.50e+00	0	57	104	0	7	18422
2026-01-23 08:57:26.11	128.05	7.21	-21.9	-36.2	3.6	1.50e+00	0	57	104	0	12	22210
2026-01-23 08:57:30.16	127.81	7.51	-22.2	-36.8	3.5	1.50e+00	0	57	104	0	13	22436
2026-01-23 08:57:34.20	127.57	7.81	-21.0	-34.7	3.5	1.50e+00	0	57	104	0	9	22240
2026-01-23 08:57:38.24	127.32	8.11	-27.2	-42.3	3.4	1.51e+00	0	57	104	0	22	25181
2026-01-23 08:57:42.27	127.06	8.41	-17.8	-33.1	3.7	1.51e+00	0	57	104	0	14	13746
2026-01-23 08:57:46.31	126.80	8.72	-22.7	-38.1	3.8	1.51e+00	0	57	104	0	17	20717
2026-01-23 08:57:50.35	126.54	9.03	-21.0	-34.3	3.3	1.51e+00	0	57	104	0	11	18860
2026-01-23 08:57:54.39	126.27	9.35	-21.4	-35.4	3.8	1.51e+00	0	58	104	0	15	16962
2026-01-23 08:57:58.43	125.99	9.67	-23.6	-39.2	3.5	1.51e+00	0	58	104	0	17	23443
2026-01-23 08:58:02.47	125.70	9.99	-19.3	-34.0	3.6	1.51e+00	0	58	104	0	14	15234
2026-01-23 08:58:06.50	125.41	10.32	-23.4	-36.7	3.8	1.51e+00	0	58	104	0	17	17572
2026-01-23 08:58:10.54	125.12	10.65	-22.4	-38.5	3.8	1.51e+00	0	58	0	0	23	15306
2026-01-23 08:58:14.58	124.81	10.98	-29.9	-42.4	4.3	1.51e+00	0	58	104	0	28	18049
2026-01-23 08:58:18.62	124.50	11.32	-33.7	-48.5	4.6	1.48e+00	0	58	104	0	36	22826
2026-01-23 08:58:22.66	124.18	11.66	-30.7	-45.5	3.8	1.51e+00	0	58	0	0	24	32220
2026-01-23 08:58:26.70	123.85	12.00	-30.6	-46.4	4.4	1.45e+00	0	59	104	0	32	22704
2026-01-23 08:58:30.74	123.52	12.35	-36.6	-46.6	4.3	1.46e+00	0	59	104	0	40	14617
2026-01-23 08:58:34.78	123.18	12.70	-37.5	-47.1	4.9	1.48e+00	0	59	104	0	45	11628
2026-01-23 08:58:38.81	122.83	13.06	-20.7	-42.8	4.3	1.16e+00	0	59	0	0	17	35580
2026-01-23 08:58:42.85	122.46	13.42	-31.5	-45.0	4.6	1.43e+00	0	59	104	0	24	30492
2026-01-23 08:58:46.89	122.09	13.78	-30.2	-47.9	6.0	3.49e-01	24	59	0	4194304	45	12791
2026-01-23 08:58:50.93	121.71	14.15	-40.4	-47.1	8.6	3.96e-01	0	59	0	7340032	46	11023
2026-01-23 08:58:54.96	121.33	14.53	-39.9	-47.8	8.6	2.09e-01	0	59	0	14680064	51	8872
2026-01-23 08:58:59.00	120.93	14.91	-41.0	-47.6	9.1	1.42e+00	0	59	0	19922944	51	8724
2026-01-23 08:59:03.04	120.52	15.29	-37.9	-47.8	7.3	2.90e-01	3	59	0	27262976	46	11820
2026-01-23 08:59:07.07	120.10	15.67	-38.0	-47.2	8.2	2.47e-01	1	59	0	34603008	43	13235
2026-01-23 08:59:11.11	119.66	16.07	-40.4	-47.6	8.4	4.53e-02	1	60	0	41943040	49	9739
2026-01-23 08:59:15.14	119.22	16.46	-41.9	-47.3	10.1	3.42e-02	0	59	0	49283072	53	7493
2026-01-23 08:59:19.17	118.77	16.86	-40.7	-47.3	10.0	3.81e-02	0	59	0	56623104	53	7485
2026-01-23 08:59:23.21	118.30	17.27	-41.9	-47.3	10.4	1.02e-02	0	59	0	65011712	55	6720
2026-01-23 08:59:27.24	117.82	17.68	-42.1	-46.7	11.1	3.91e-03	0	59	0	72351744	54	6582
2026-01-23 08:59:31.28	117.32	18.09	-42.2	-46.5	11.5	1.07e-03	0	60	0	79691776	54	6439
2026-01-23 08:59:35.32	116.81	18.51	-42.1	-46.4	11.7	6.90e-04	0	59	0	87031808	54	6349
2026-01-23 08:59:39.36	116.29	18.94	-42.2	-46.6	11.4	9.74e-04	0	60	0	95420416	55	6153
2026-01-23 08:59:43.39	115.75	19.37	-42.3	-46.7	11.3	9.70e-04	0	59	0	102760448	55	6223
2026-01-23 08:59:47.43	115.20	19.80	-42.4	-46.8	11.2	1.22e-03	0	60	0	110100480	55	6336
2026-01-23 08:59:51.47	114.62	20.24	-42.4	-46.9	11.1	1.60e-03	0	60	0	117440512	55	6411
2026-01-23 08:59:55.50	114.04	20.69	-42.3	-46.6	11.5	1.21e-03	0	60	0	124780544	55	6177
2026-01-23 08:59:59.54	113.43	21.13	-42.3	-46.7	11.4	9.25e-04	0	60	0	133169152	55	6217
2026-01-23 09:00:03.58	112.81	21.59	-42.2	-46.3	11.9	5.97e-04	0	60	0	140509184	55	5951
2026-01-23 09:00:07.62	112.17	22.05	-42.2	-46.4	11.8	4.97e-04	0	60	0	147849216	55	6007
2026-01-23 09:00:11.66	111.50	22.51	-42.3	-46.4	11.8	4.93e-04	0	60	0	155189248	55	6034
2026-01-23 09:00:15.69	110.82	22.97	-42.0	-45.9	12.3	1.90e-04	0	60	0	162529280	55	5694
2026-01-23 09:00:19.73	110.12	23.44	-42.2	-46.3	11.9	4.40e-04	0	60	0	170917888	55	5962
2026-01-23 09:00:23.77	109.40	23.92	-42.2	-46.3	11.9	3.67e-04	0	60	0	178257920	55	5972
2026-01-23 09:00:27.80	108.65	24.39	-42.3	-46.5	11.7	4.94e-04	0	60	0	185597952	55	6076
2026-01-23 09:00:31.84	107.88	24.87	-42.6	-47.0	11.3	1.09e-03	0	60	0	192937984	55	6453
2026-01-23 09:00:35.89	107.08	25.36	-42.9	-47.7	10.7	2.82e-03	0	60	0	201326592	56	6581
2026-01-23 09:00:39.93	106.26	25.84	-43.1	-48.0	10.4	3.93e-03	0	60	0	208666624	56	6872
2026-01-23 09:00:43.96	105.42	26.33	-43.2	-48.3	10.1	6.44e-03	0	60	0	216006656	56	7074
2026-01-23 09:00:48.00	104.55	26.82	-43.0	-47.8	10.6	3.46e-03	0	60	0	223346688	56	6677
2026-01-23 09:00:52.04	103.65	27.31	-43.1	-48.1	10.3	6.04e-03	0	60	0	230686720	57	6528
2026-01-23 09:00:56.08	102.72	27.81	-43.2	-48.2	10.2	5.72e-03	0	60	0	239075328	57	6624
2026-01-23 09:01:00.11	101.76	28.30	-43.2	-48.1	10.3	5.73e-03	0	60	0	246415360	57	6555
2026-01-23 09:01:04.15	100.78	28.79	-43.2	-48.3	10.2	6.53e-03	0	60	0	253755392	57	6667
2026-01-23 09:01:08.19	99.76	29.28	-43.2	-48.3	10.2	5.62e-03	0	60	0	261095424	57	6694
2026-01-23 09:01:12.23	98.71	29.77	-43.2	-48.1	10.3	5.45e-03	0	60	0	269484032	57	6568
2026-01-23 09:01:16.26	97.63	30.25	-43.1	-47.9	10.6	4.17e-03	0	60	0	276824064	57	6415
2026-01-23 09:01:20.30	96.51	30.73	-43.4	-48.8	9.6	9.59e-03	0	60	0	284164096	57	7095
2026-01-23 09:01:24.34	95.36	31.21	-43.8	-49.9	8.5	4.26e-02	0	60	0	291504128	58	7606
2026-01-23 09:01:28.38	94.18	31.68	-43.9	-50.1	8.4	4.65e-02	0	60	0	298844160	58	7733
2026-01-23 09:01:32.42	92.96	32.15	-44.0	-50.6	7.8	8.30e-02	0	61	0	307232768	58	8235
2026-01-23 09:01:36.46	91.71	32.60	-44.2	-51.3	7.2	1.40e-01	0	60	0	314572800	59	8415
2026-01-23 09:01:40.50	90.42	33.05	-44.3	-52.4	6.3	1.28e+00	0	60	0	321912832	60	9010
2026-01-23 09:01:44.53	89.10	33.49	-43.2	-52.6	6.0	3.27e-01	0	60	0	324009984	59	9761
2026-01-23 09:01:48.57	87.74	33.91	-44.3	-51.6	6.9	1.89e-01	0	60	0	331350016	59	8699
2026-01-23 09:01:52.61	86.34	34.33	-44.8	-55.6	4.0	1.48e+00	0	61	104	337641472	60	13008
2026-01-23 09:01:56.64	84.92	34.72	-43.7	-49.4	9.0	2.75e-02	0	61	0	343932928	59	6762
2026-01-23 09:02:00.68	83.45	35.10	-43.4	-48.5	10.0	9.61e-03	0	60	0	351272960	58	6476
2026-01-23 09:02:04.72	81.95	35.47	-42.7	-47.0	11.6	6.42e-04	0	61	0	358612992	57	5748
2026-01-23 09:02:08.76	80.42	35.81	-42.8	-47.0	11.6	7.22e-04	0	61	0	367001600	57	5738
2026-01-23 09:02:12.80	78.86	36.14	-42.7	-46.9	11.8	4.79e-04	0	60	0	374341632	57	5668
2026-01-23 09:02:16.83	77.27	36.44	-42.5	-46.4	12.3	1.79e-04	0	61	0	381681664	56	5667
2026-01-23 09:02:20.87	75.64	36.72	-42.3	-46.0	12.7	9.76e-05	0	61	0	389021696	56	5430
2026-01-23 09:02:24.91	73.99	36.98	-41.7	-45.0	13.6	3.80e-06	0	61	0	397410304	55	5115
2026-01-23 09:02:28.95	72.32	37.21	-41.7	-45.0	13.6	9.10e-06	0	61	0	404750336	55	5146
2026-01-23 09:02:32.98	70.63	37.41	-41.9	-45.5	13.1	3.58e-05	0	61	0	412090368	55	5416
2026-01-23 09:02:37.02	68.91	37.59	-41.5	-44.7	13.9	1.50e-06	0	61	0	419430400	54	5239
2026-01-23 09:02:41.06	67.18	37.73	-41.5	-44.6	14.0	3.00e-06	0	61	0	426770432	54	5207
2026-01-23 09:02:45.10	65.43	37.85	-41.9	-45.4	13.2	2.36e-05	0	61	0	435159040	54	5665
2026-01-23 09:02:49.14	63.67	37.94	-42.3	-46.2	12.4	7.47e-05	0	60	0	442499072	55	5863
2026-01-23 09:02:53.18	61.91	37.99	-42.5	-46.6	12.0	5.32e-04	0	61	0	449839104	55	6137
2026-01-23 09:02:57.21	60.14	38.02	-42.9	-47.2	11.4	7.26e-04	0	61	0	457179136	56	6254
2026-01-23 09:03:01.25	58.37	38.01	-42.9	-47.3	11.4	9.63e-04	0	61	0	465567744	56	6291
2026-01-23 09:03:05.29	56.60	37.97	-42.9	-47.1	11.6	7.18e-04	0	61	0	472907776	56	6135
2026-01-23 09:03:09.33	54.84	37.91	-43.3	-48.1	10.5	3.60e-03	0	61	0	480247808	57	6555
2026-01-23 09:03:13.36	53.09	37.81	-43.4	-48.3	10.3	4.98e-03	0	61	0	487587840	57	6698
2026-01-23 09:03:17.40	51.35	37.68	-43.6	-48.8	9.8	1.02e-02	0	61	0	494927872	57	7087
2026-01-23 09:03:21.44	49.62	37.52	-43.7	-49.1	9.5	1.84e-02	0	61	0	503316480	58	6934
2026-01-23 09:03:25.47	47.92	37.34	-43.6	-49.0	9.6	1.27e-02	0	61	0	510656512	58	6836
2026-01-23 09:03:29.51	46.24	37.12	-43.3	-48.1	10.5	4.28e-03	0	61	0	517996544	58	6201
2026-01-23 09:03:33.55	44.57	36.88	-42.9	-47.3	11.4	9.26e-04	0	61	0	525336576	57	5943
2026-01-23 09:03:37.59	42.94	36.62	-42.7	-46.7	12.0	4.52e-04	0	61	0	533725184	57	5576
2026-01-23 09:03:41.63	41.33	36.33	-42.2	-45.8	13.0	4.42e-05	0	61	0	541065216	56	5301
2026-01-23 09:03:45.66	39.75	36.02	-42.0	-45.5	13.3	1.67e-05	0	61	0	548405248	56	5104
2026-01-23 09:03:49.70	38.20	35.69	-42.3	-46.0	12.8	7.01e-05	0	61	0	555745280	56	5408
2026-01-23 09:03:53.74	36.69	35.34	-42.7	-46.8	12.0	3.60e-04	0	61	0	563085312	56	5947
2026-01-23 09:03:57.78	35.21	34.97	-42.8	-47.0	11.7	7.36e-04	0	61	0	571473920	56	6107
2026-01-23 09:04:01.81	33.76	34.58	-42.9	-47.2	11.4	8.35e-04	0	61	0	578813952	56	6259
2026-01-23 09:04:05.85	32.35	34.18	-42.9	-47.3	11.4	1.06e-03	0	61	0	586153984	56	6299
2026-01-23 09:04:09.89	30.97	33.76	-43.0	-47.4	11.2	1.24e-03	0	61	0	593494016	56	6376
2026-01-23 09:04:13.93	29.63	33.33	-42.8	-47.1	11.5	9.50e-04	0	61	0	601882624	56	6153
2026-01-23 09:04:17.97	28.33	32.89	-43.0	-47.3	11.2	1.12e-03	0	61	0	609222656	56	6330
2026-01-23 09:04:22.00	27.06	32.45	-43.2	-48.1	10.4	4.54e-03	0	61	0	616562688	57	6522
2026-01-23 09:04:26.04	25.82	31.99	-43.4	-48.4	10.1	6.37e-03	0	61	0	623902720	57	6779
2026-01-23 09:04:30.08	24.62	31.52	-43.5	-48.6	9.8	8.90e-03	0	61	0	631242752	57	6946
2026-01-23 09:04:34.12	23.46	31.05	-43.6	-49.2	9.3	1.88e-02	0	61	0	639631360	57	7385
2026-01-23 09:04:38.16	22.33	30.57	-43.3	-48.2	10.3	5.78e-03	0	61	0	646971392	57	6605
2026-01-23 09:04:42.20	21.23	30.09	-43.3	-48.4	10.1	6.85e-03	0	61	0	654311424	57	6752
2026-01-23 09:04:46.23	20.17	29.61	-43.0	-47.6	10.9	2.50e-03	0	61	0	661651456	57	6162
2026-01-23 09:04:50.27	19.13	29.12	-42.8	-47.1	11.5	1.01e-03	0	61	0	670040064	57	5798
2026-01-23 09:04:54.31	18.13	28.63	-42.7	-46.9	11.6	6.74e-04	0	61	0	677380096	57	5708
2026-01-23 09:04:58.35	17.16	28.14	-42.7	-46.8	11.7	5.77e-04	0	61	0	684720128	57	5637
2026-01-23 09:05:02.38	16.22	27.66	-42.5	-46.5	12.0	2.83e-04	0	61	0	692060160	56	5771
2026-01-23 09:05:06.42	15.31	27.17	-42.6	-46.6	11.9	4.24e-04	0	61	0	699400192	56	5821
2026-01-23 09:05:10.45	14.43	26.68	-42.5	-46.6	11.9	3.74e-04	0	61	0	707788800	56	5808
2026-01-23 09:05:14.49	13.57	26.19	-42.5	-46.5	12.0	3.39e-04	0	61	0	715128832	56	5763
2026-01-23 09:05:18.53	12.74	25.71	-42.5	-46.5	12.0	4.55e-04	0	61	0	722468864	56	5780
2026-01-23 09:05:22.57	11.93	25.22	-42.4	-46.4	12.0	2.96e-04	0	61	0	729808896	56	5706
2026-01-23 09:05:26.60	11.15	24.74	-42.4	-46.3	12.2	2.55e-04	0	61	0	738197504	56	5596
2026-01-23 09:05:30.64	10.39	24.27	-42.6	-46.8	11.6	5.71e-04	0	61	0	745537536	56	5947
2026-01-23 09:05:34.68	9.66	23.79	-42.5	-46.8	11.6	6.41e-04	0	61	0	752877568	56	5948
2026-01-23 09:05:38.72	8.95	23.32	-42.6	-46.8	11.5	7.77e-04	0	61	0	760217600	56	5983
2026-01-23 09:05:42.75	8.26	22.86	-42.7	-47.4	10.9	1.98e-03	0	61	0	767557632	56	6391
2026-01-23 09:05:46.79	7.59	22.40	-42.8	-47.5	10.8	2.72e-03	0	61	0	775946240	56	6430
2026-01-23 09:05:50.83	6.94	21.94	-42.8	-47.4	10.8	2.77e-03	0	61	0	783286272	56	6413
2026-01-23 09:05:54.87	6.31	21.48	-42.8	-47.4	10.9	2.65e-03	0	61	0	790626304	56	6365
2026-01-23 09:05:58.90	5.69	21.03	-42.6	-47.1	11.0	1.90e-03	0	61	0	797966336	56	6197
2026-01-23 09:06:02.94	5.10	20.59	-42.8	-47.5	10.5	3.38e-03	0	61	0	805306368	56	6458
2026-01-23 09:06:06.98	4.52	20.15	-42.8	-47.7	10.4	4.92e-03	0	61	0	813694976	56	6609
2026-01-23 09:06:11.02	3.96	19.71	-42.7	-47.5	10.5	3.81e-03	0	61	0	821035008	56	6463
2026-01-23 09:06:15.06	3.42	19.28	-42.6	-47.3	10.8	2.91e-03	0	61	0	828375040	56	6291
2026-01-23 09:06:19.10	2.89	18.86	-42.5	-47.2	10.8	2.51e-03	0	61	0	835715072	56	6235
2026-01-23 09:06:23.13	2.37	18.44	-42.6	-47.5	10.4	4.51e-03	0	61	0	844103680	56	6444
2026-01-23 09:06:27.17	1.87	18.02	-42.6	-47.6	10.3	4.97e-03	0	61	0	851443712	56	6498
2026-01-23 09:06:31.21	1.39	17.61	-42.5	-47.3	10.5	4.22e-03	0	61	0	858783744	56	6290
2026-01-23 09:06:35.25	0.91	17.20	-42.4	-47.3	10.4	4.53e-03	0	61	0	866123776	56	6275
2026-01-23 09:06:39.28	0.45	16.80	-42.3	-47.1	10.4	4.50e-03	0	61	0	873463808	56	6181
2026-01-23 09:06:43.32	0.01	16.40	-42.1	-47.0	10.3	5.64e-03	0	61	0	881852416	56	6094
2026-01-23 09:06:47.36	359.57	16.01	-42.1	-47.0	10.2	5.62e-03	0	61	0	889192448	56	6087
2026-01-23 09:06:51.40	359.15	15.62	-42.2	-47.4	9.6	1.08e-02	0	61	0	896532480	56	6393
2026-01-23 09:06:55.43	358.74	15.24	-42.1	-47.8	9.0	2.31e-02	0	61	0	903872512	56	6687
2026-01-23 09:06:59.47	358.33	14.86	-41.8	-47.4	9.0	2.60e-02	0	61	0	912261120	55	6748
2026-01-23 09:07:03.51	357.94	14.48	-41.6	-47.5	8.5	3.13e-02	0	61	0	919601152	55	6874
2026-01-23 09:07:07.55	357.56	14.11	-41.3	-47.5	8.2	6.49e-02	0	61	0	926941184	54	7239
2026-01-23 09:07:11.59	357.19	13.75	-41.3	-48.2	7.2	1.08e-01	0	61	0	934281216	54	7892
2026-01-23 09:07:15.63	356.83	13.38	-41.2	-48.1	7.2	1.26e-01	0	61	0	941621248	54	7762
2026-01-23 09:07:19.67	356.47	13.03	-41.5	-49.6	5.9	1.42e+00	0	61	0	945815552	54	9270
2026-01-23 09:07:23.72	356.13	12.67	-41.2	-50.9	4.8	7.12e-01	0	61	0	953155584	54	10689
2026-01-23 09:07:27.76	355.79	12.32	-41.1	-54.6	3.8	1.49e+00	0	61	104	955252736	54	16378
2026-01-23 09:07:31.79	355.46	11.98	-40.5	-55.0	3.8	1.49e+00	0	61	104	955252736	53	18270
2026-01-23 09:07:35.83	355.14	11.63	-40.4	-55.0	3.8	1.49e+00	0	61	104	955252736	52	19206
2026-01-23 09:07:39.86	354.83	11.30	-40.4	-54.9	3.8	1.49e+00	0	61	104	955252736	52	19126
2026-01-23 09:07:43.90	354.53	10.96	-40.3	-54.9	3.8	1.49e+00	0	61	104	955252736	52	19130
2026-01-23 09:07:47.94	354.23	10.63	-40.3	-54.9	3.8	1.49e+00	0	61	104	955252736	52	19036
2026-01-23 09:07:51.98	353.94	10.31	-40.3	-54.9	3.8	1.49e+00	0	61	104	955252736	52	19036
2026-01-23 09:07:56.01	353.66	9.98	-40.4	-54.9	3.8	1.49e+00	0	61	104	955252736	52	19160
2026-01-23 09:08:00.05	353.38	9.66	-40.4	-55.0	3.8	1.49e+00	0	61	104	955252736	52	19272
2026-01-23 09:08:04.08	353.11	9.35	-40.5	-55.0	3.8	1.49e+00	0	61	104	955252736	52	19330
2026-01-23 09:08:08.12	352.84	9.03	-40.5	-55.1	3.8	1.49e+00	0	61	104	955252736	52	19436
2026-01-23 09:08:12.16	352.58	8.72	-40.6	-55.1	3.8	1.49e+00	0	61	104	955252736	52	19530
2026-01-23 09:08:16.19	352.33	8.42	-40.5	-55.1	3.8	1.49e+00	0	61	104	955252736	52	19447
2026-01-23 09:08:20.23	352.08	8.11	-40.5	-55.0	3.8	1.49e+00	0	61	104	955252736	52	19384
2026-01-23 09:08:24.27	351.84	7.81	-44.3	-58.9	3.8	1.49e+00	0	61	104	955252736	59	20147
2026-01-23 09:08:28.31	351.60	7.52	-45.3	-60.0	3.8	1.49e+00	0	61	104	955252736	61	20361
2026-01-23 09:08:32.35	351.37	7.22	-45.3	-60.0	3.8	1.49e+00	0	61	104	955252736	61	20380
2026-01-23 09:08:36.39	351.14	6.93	-45.2	-59.8	3.8	1.49e+00	0	61	104	955252736	61	20045
2026-01-23 09:08:40.43	350.92	6.64	-45.2	-59.7	3.8	1.49e+00	0	61	104	955252736	60	20956
2026-01-23 09:08:44.47	350.70	6.36	-45.1	-59.7	3.8	1.49e+00	0	61	104	955252736	60	20936
2026-01-23 09:08:48.51	350.49	6.07	-45.1	-59.7	3.8	1.49e+00	0	61	104	955252736	60	21000
2026-01-23 09:08:52.55	350.28	5.79	-45.1	-59.7	3.8	1.49e+00	0	61	104	955252736	60	20934
2026-01-23 09:08:56.59	350.08	5.51	-45.1	-59.7	3.8	1.49e+00	0	61	104	955252736	60	20919
2026-01-23 09:09:00.62	349.88	5.24	-45.1	-59.7	3.8	1.49e+00	0	61	104	955252736	60	20884
2026-01-23 09:09:04.66	349.68	4.97	-45.1	-59.7	3.8	1.49e+00	0	62	104	955252736	60	20809
2026-01-23 09:09:08.70	349.49	4.70	-45.1	-59.7	3.8	1.49e+00	0	61	104	955252736	60	20883
2026-01-23 09:09:12.75	349.30	4.43	-45.1	-59.7	3.8	1.49e+00	0	61	104	955252736	60	20868
2026-01-23 09:09:16.79	349.11	4.16	-45.1	-59.7	3.8	1.49e+00	0	61	104	955252736	60	20780
2026-01-23 09:09:20.83	348.93	3.90	-44.9	-59.7	3.8	1.49e+00	0	61	104	955252736	60	20817
2026-01-23 09:09:24.86	348.76	3.64	-45.1	-59.7	3.8	1.49e+00	0	61	104	955252736	60	20852
2026-01-23 09:09:28.90	348.58	3.38	-45.1	-59.6	3.8	1.49e+00	0	61	104	955252736	60	20756
2026-01-23 09:09:32.94	348.41	3.12	-45.1	-59.6	3.8	1.49e+00	0	61	104	955252736	60	20689
2026-01-23 09:09:36.98	348.24	2.87	-45.0	-59.6	3.8	1.49e+00	0	61	104	955252736	60	20671
2026-01-23 09:09:41.02	348.08	2.61	-45.1	-59.6	3.8	1.49e+00	0	61	104	955252736	60	20760
2026-01-23 09:09:45.06	347.92	2.36	-45.0	-59.6	3.8	1.49e+00	0	62	104	955252736	60	20748
2026-01-23 09:09:49.10	347.76	2.11	-45.0	-59.6	3.8	1.49e+00	0	61	104	955252736	60	20715

#Closed at: 2026-01-23 09:09:52
#Recorded file [955 MB]: D:/lorett/data/31039_260123_115609.dat