passes_logs/2026/01/23/R2.0S_Moscow/R2.0S_Moscow__20260123_080706_NOAA_21_JPSS-2_rec.log

#Pass ID: 20260123_080706_NOAA 21 (JPSS-2)
#Satellite: NOAA 21 (JPSS-2)
#Configuration: NOAA-21
#almurnet v.1.7.20251203
#Start time: 2026-01-23 08:07:09

#Version: 2.2.20231116
#Station: R2.0S_Moscow
#Location: 37.707566 lon 55.798166 lat
#TLE: 1 54234U 22150A   26022.41365820  .00000211  00000+0  12084-3 0  9990
#TLE: 2 54234  98.7507 323.2240 0000658 234.5287 125.5828 14.19537645165864

#Time	Az	El	Level	Level2	SNR	BER	BlckErr	Temp	State	Recorded	gain1	gain2
2026-01-23 08:07:09.28	107.46	2.13	-33.0	-47.4	4.0	1.50e+00	0	51	0	0	37	19101
2026-01-23 08:07:12.32	107.24	2.30	-26.6	-45.5	3.9	1.51e+00	0	52	104	0	23	34111
2026-01-23 08:07:15.35	107.02	2.47	-29.5	-44.3	4.1	1.51e+00	0	52	104	0	29	21164
2026-01-23 08:07:18.37	106.79	2.63	-27.8	-44.8	3.9	1.51e+00	0	52	104	0	24	29707
2026-01-23 08:07:21.41	106.56	2.80	-21.1	-38.5	4.4	1.51e+00	0	52	104	0	33	8596
2026-01-23 08:07:24.44	106.33	2.97	-27.1	-40.4	3.7	1.51e+00	0	53	104	0	26	16048
2026-01-23 08:07:27.46	106.10	3.14	-29.6	-45.3	3.8	1.51e+00	0	53	104	0	20	39593
2026-01-23 08:07:30.50	105.86	3.31	-23.0	-39.3	3.8	1.51e+00	0	53	104	0	21	18843
2026-01-23 08:07:33.53	105.63	3.48	-32.5	-45.3	3.8	1.51e+00	0	53	104	0	26	28124
2026-01-23 08:07:36.56	105.38	3.66	-29.4	-44.5	3.9	1.50e+00	0	54	104	0	32	18103
2026-01-23 08:07:39.59	105.14	3.83	-33.8	-47.3	4.2	1.51e+00	0	54	104	0	35	21070
2026-01-23 08:07:42.62	104.89	4.00	-34.9	-48.3	4.2	1.50e+00	0	54	104	0	38	19914
2026-01-23 08:07:45.64	104.64	4.17	-28.6	-41.1	3.8	1.51e+00	0	54	104	0	29	14663
2026-01-23 08:07:48.68	104.39	4.35	-27.8	-41.0	3.6	1.51e+00	0	54	104	0	23	20414
2026-01-23 08:07:51.71	104.13	4.52	-22.8	-37.7	3.4	1.51e+00	0	54	104	0	7	34935
2026-01-23 08:07:54.74	103.87	4.70	-30.8	-42.4	3.4	1.51e+00	0	55	104	0	23	23997
2026-01-23 08:07:57.77	103.61	4.87	-29.8	-43.6	4.0	1.50e+00	0	55	104	0	31	17431
2026-01-23 08:08:00.80	103.34	5.05	-33.6	-48.5	3.9	1.51e+00	0	55	104	0	37	21513
2026-01-23 08:08:03.83	103.07	5.23	-25.9	-42.3	4.0	1.51e+00	0	55	104	0	22	25170
2026-01-23 08:08:06.86	102.80	5.40	-30.9	-47.6	3.9	1.51e+00	0	55	104	0	31	27606
2026-01-23 08:08:09.89	102.52	5.58	-24.1	-38.4	4.3	1.51e+00	0	55	104	0	24	14289
2026-01-23 08:08:12.92	102.24	5.76	-34.5	-47.8	4.1	1.51e+00	0	56	104	0	36	21121
2026-01-23 08:08:15.95	101.95	5.94	-22.3	-38.7	3.7	1.51e+00	0	56	104	0	18	20998
2026-01-23 08:08:18.98	101.67	6.12	-31.8	-46.7	4.1	1.50e+00	0	56	104	0	37	17489
2026-01-23 08:08:22.01	101.38	6.30	-27.3	-43.1	3.6	1.51e+00	0	56	104	0	15	41441
2026-01-23 08:08:25.04	101.08	6.48	-22.9	-37.7	3.8	1.51e+00	0	56	104	0	17	19693
2026-01-23 08:08:28.07	100.78	6.66	-30.7	-45.2	4.1	1.50e+00	0	56	104	0	35	16619
2026-01-23 08:08:31.10	100.48	6.85	-25.1	-38.3	4.0	1.50e+00	0	56	104	0	25	13275
2026-01-23 08:08:34.13	100.17	7.03	-33.8	-47.5	4.3	1.50e+00	0	56	104	0	38	18192
2026-01-23 08:08:37.16	99.86	7.21	-32.0	-45.4	4.1	1.50e+00	0	56	104	0	34	18002
2026-01-23 08:08:40.19	99.55	7.40	-33.9	-49.2	4.1	1.50e+00	0	57	104	0	38	22122
2026-01-23 08:08:43.22	99.23	7.58	-32.7	-44.3	3.9	1.51e+00	0	57	104	0	23	29696
2026-01-23 08:08:46.25	98.91	7.76	-33.2	-46.2	4.0	1.50e+00	0	57	104	0	34	19700
2026-01-23 08:08:49.28	98.58	7.95	-33.0	-44.9	4.2	1.49e+00	0	57	104	0	34	16983
2026-01-23 08:08:52.31	98.25	8.13	-34.3	-47.7	4.1	1.50e+00	0	57	104	0	36	21009
2026-01-23 08:08:55.34	97.92	8.32	-29.1	-43.1	3.5	1.50e+00	0	57	104	0	26	21857
2026-01-23 08:08:58.36	97.58	8.51	-32.8	-42.6	4.5	1.47e+00	0	57	104	0	31	15564
2026-01-23 08:09:01.39	97.23	8.69	-29.2	-41.2	4.3	1.48e+00	0	57	104	0	36	9841
2026-01-23 08:09:04.42	96.88	8.88	-34.4	-46.7	4.1	1.50e+00	0	57	104	0	41	13968
2026-01-23 08:09:07.44	96.53	9.07	-32.6	-48.6	4.1	1.50e+00	0	57	104	0	36	23273
2026-01-23 08:09:10.48	96.17	9.26	-38.8	-51.8	3.9	1.49e+00	0	58	104	0	47	17813
2026-01-23 08:09:13.50	95.81	9.44	-36.8	-51.1	4.0	1.50e+00	0	58	104	0	44	19422
2026-01-23 08:09:16.53	95.44	9.63	-39.6	-52.3	3.7	1.50e+00	0	57	104	0	36	35559
2026-01-23 08:09:19.56	95.07	9.82	-40.6	-50.3	4.1	1.48e+00	0	58	104	0	51	11849
2026-01-23 08:09:22.58	94.70	10.01	-30.9	-49.2	3.7	1.49e+00	0	58	104	0	47	13246
2026-01-23 08:09:25.61	94.31	10.20	-39.3	-47.0	6.1	1.48e+00	0	58	104	0	52	7636
2026-01-23 08:09:28.64	93.93	10.39	-39.3	-47.9	4.9	1.32e+00	0	58	104	0	50	9540
2026-01-23 08:09:31.67	93.53	10.58	-40.4	-46.4	6.5	2.35e-01	0	58	0	8388608	51	7565
2026-01-23 08:09:34.70	93.14	10.77	-39.1	-42.7	10.1	9.39e-03	0	58	0	17825792	48	5902
2026-01-23 08:09:37.73	92.73	10.96	-39.6	-43.8	9.0	1.47e-02	0	58	0	27262976	49	6287
2026-01-23 08:09:40.76	92.33	11.15	-40.1	-45.0	7.9	7.96e-02	0	58	0	36700160	51	6436
2026-01-23 08:09:43.78	91.91	11.34	-39.9	-44.7	8.1	6.84e-02	0	58	0	46137344	51	6217
2026-01-23 08:09:46.81	91.50	11.53	-40.0	-44.5	8.4	4.29e-02	0	58	0	55574528	50	6483
2026-01-23 08:09:49.84	91.07	11.72	-39.1	-42.6	10.6	4.03e-03	0	58	0	66060288	50	5161
2026-01-23 08:09:52.87	90.64	11.91	-40.7	-46.6	6.4	1.47e-01	0	58	0	74448896	51	7803
2026-01-23 08:09:55.90	90.20	12.10	-41.4	-52.2	3.8	1.48e+00	0	59	104	78643200	53	13226
2026-01-23 08:09:58.93	89.76	12.29	-42.2	-54.2	3.8	1.49e+00	0	58	104	78643200	54	15731
2026-01-23 08:10:01.96	89.32	12.48	-41.6	-53.9	3.8	1.49e+00	0	59	104	78643200	54	15166
2026-01-23 08:10:04.99	88.86	12.67	-41.4	-53.7	3.8	1.49e+00	0	59	104	78643200	53	15742
2026-01-23 08:10:08.01	88.41	12.86	-42.3	-54.2	3.8	1.49e+00	0	59	104	78643200	55	14714
2026-01-23 08:10:11.04	87.94	13.05	-40.7	-53.2	3.8	1.49e+00	0	59	104	78643200	52	15687
2026-01-23 08:10:14.07	87.47	13.23	-40.9	-53.3	3.8	1.49e+00	0	59	104	78643200	52	15814
2026-01-23 08:10:17.10	86.99	13.42	-41.9	-53.5	3.8	1.49e+00	0	59	104	78643200	55	13674
2026-01-23 08:10:20.13	86.51	13.61	-41.7	-51.7	3.9	1.48e+00	0	59	104	78643200	54	11701
2026-01-23 08:10:23.16	86.02	13.79	-40.8	-53.1	3.8	1.49e+00	0	59	104	78643200	53	14660
2026-01-23 08:10:26.19	85.52	13.98	-40.8	-50.3	4.1	1.47e+00	0	59	104	78643200	53	10553
2026-01-23 08:10:29.22	85.02	14.17	-40.4	-47.5	5.3	5.83e-01	0	59	0	79691776	52	8144
2026-01-23 08:10:32.25	84.51	14.35	-41.7	-52.5	3.9	1.49e+00	0	59	104	81788928	54	12841
2026-01-23 08:10:35.28	84.00	14.53	-39.9	-44.8	7.9	7.73e-02	0	59	0	87031808	51	6278
2026-01-23 08:10:38.30	83.48	14.71	-40.1	-45.4	7.3	1.21e-01	0	59	0	96468992	51	6738
2026-01-23 08:10:41.33	82.95	14.90	-40.0	-44.6	8.3	5.77e-02	0	59	0	105906176	51	6197
2026-01-23 08:10:44.36	82.42	15.08	-40.4	-45.2	7.8	7.69e-02	0	59	0	115343360	51	6645
2026-01-23 08:10:47.39	81.88	15.26	-40.3	-44.9	8.3	5.74e-02	0	59	0	124780544	51	6381
2026-01-23 08:10:50.42	81.33	15.43	-40.5	-45.3	8.1	5.91e-02	0	59	0	134217728	51	6663
2026-01-23 08:10:53.45	80.78	15.61	-40.6	-45.8	7.4	1.01e-01	0	59	0	143654912	51	7049
2026-01-23 08:10:56.48	80.22	15.78	-40.5	-45.8	7.2	1.30e-01	0	59	0	153092096	51	7108
2026-01-23 08:10:59.51	79.65	15.96	-41.9	-51.0	4.3	1.47e+00	0	59	104	158334976	54	10816
2026-01-23 08:11:02.54	79.08	16.13	-40.5	-45.4	7.9	6.46e-02	0	59	0	161480704	53	6010
2026-01-23 08:11:05.57	78.49	16.30	-40.3	-45.1	8.0	6.22e-02	0	60	0	170917888	52	6141
2026-01-23 08:11:08.60	77.91	16.47	-40.3	-45.4	7.5	1.12e-01	0	60	0	180355072	52	6355
2026-01-23 08:11:11.62	77.32	16.63	-40.2	-45.2	7.7	8.32e-02	0	60	0	189792256	52	6203
2026-01-23 08:11:14.65	76.72	16.80	-40.2	-45.0	8.0	7.57e-02	0	60	0	199229440	52	6099
2026-01-23 08:11:17.68	76.11	16.96	-39.9	-44.2	8.9	2.98e-02	0	59	0	208666624	51	5867
2026-01-23 08:11:20.71	75.50	17.12	-40.1	-44.6	8.5	3.83e-02	0	60	0	218103808	51	6178
2026-01-23 08:11:23.74	74.88	17.28	-40.2	-45.0	8.0	6.40e-02	0	60	0	227540992	51	6489
2026-01-23 08:11:26.77	74.25	17.43	-40.5	-45.8	7.2	1.34e-01	0	60	0	236978176	51	7108
2026-01-23 08:11:29.79	73.62	17.58	-40.5	-45.9	7.2	1.38e-01	0	60	0	246415360	51	7171
2026-01-23 08:11:32.82	72.98	17.73	-41.3	-49.3	4.7	8.01e-01	0	60	104	249561088	53	9395
2026-01-23 08:11:35.85	72.34	17.88	-40.4	-45.7	7.3	1.26e-01	0	60	0	254803968	52	6571
2026-01-23 08:11:38.88	71.69	18.02	-40.1	-44.6	8.6	4.24e-02	0	60	0	263192576	52	5845
2026-01-23 08:11:41.91	71.03	18.16	-40.0	-43.8	9.9	9.42e-03	0	60	0	273678336	51	5626
2026-01-23 08:11:44.94	70.37	18.30	-39.9	-43.3	10.7	3.30e-03	0	60	0	283115520	51	5326
2026-01-23 08:11:47.98	69.69	18.44	-39.9	-43.1	11.2	1.52e-03	0	60	0	292552704	51	5173
2026-01-23 08:11:51.01	69.02	18.57	-39.8	-42.6	12.1	2.57e-04	0	60	0	301989888	51	4906
2026-01-23 08:11:54.03	68.34	18.69	-39.8	-42.4	12.7	8.16e-05	0	60	0	311427072	51	4798
2026-01-23 08:11:57.06	67.65	18.82	-39.5	-41.9	13.4	1.22e-05	0	60	0	320864256	50	4778
2026-01-23 08:12:00.09	66.96	18.94	-39.5	-41.8	13.6	8.30e-06	0	60	0	330301440	50	4737
2026-01-23 08:12:03.12	66.26	19.05	-39.4	-41.7	13.8	7.60e-06	0	60	0	339738624	50	4655
2026-01-23 08:12:06.15	65.56	19.17	-39.5	-41.7	13.8	1.50e-06	0	60	0	349175808	50	4704
2026-01-23 08:12:09.17	64.85	19.27	-39.4	-41.6	14.0	3.80e-06	0	60	0	358612992	50	4644
2026-01-23 08:12:12.20	64.14	19.38	-39.4	-41.6	14.0	1.50e-06	0	60	0	368050176	50	4633
2026-01-23 08:12:15.23	63.42	19.48	-39.4	-41.6	14.0	1.50e-06	0	60	0	377487360	50	4623
2026-01-23 08:12:18.26	62.70	19.57	-39.5	-41.7	13.9	3.80e-06	0	60	0	386924544	50	4666
2026-01-23 08:12:21.30	61.97	19.67	-39.6	-41.9	13.8	3.80e-06	0	60	0	396361728	50	4761
2026-01-23 08:12:24.33	61.24	19.75	-39.6	-41.9	13.8	2.20e-06	0	60	0	405798912	50	4779
2026-01-23 08:12:27.35	60.51	19.83	-39.6	-41.8	13.9	3.00e-06	0	60	0	415236096	50	4747
2026-01-23 08:12:30.39	59.77	19.91	-39.5	-41.8	14.0	4.50e-06	0	60	0	424673280	50	4706
2026-01-23 08:12:33.41	59.03	19.99	-39.7	-41.9	13.8	5.30e-06	0	60	0	434110464	50	4804
2026-01-23 08:12:36.44	58.28	20.05	-39.9	-42.2	13.5	1.22e-05	0	60	0	443547648	50	4974
2026-01-23 08:12:39.47	57.53	20.12	-39.8	-42.2	13.6	1.06e-05	0	60	0	452984832	50	4946
2026-01-23 08:12:42.50	56.78	20.17	-39.7	-42.0	13.8	7.60e-06	0	60	0	462422016	50	4835
2026-01-23 08:12:45.53	56.02	20.23	-39.6	-41.8	14.0	3.80e-06	0	60	0	471859200	50	4754
2026-01-23 08:12:48.56	55.27	20.27	-39.8	-42.0	13.7	6.10e-06	0	60	0	481296384	50	4868
2026-01-23 08:12:51.59	54.51	20.32	-39.6	-41.9	13.9	4.50e-06	0	60	0	490733568	50	4781
2026-01-23 08:12:54.62	53.75	20.35	-39.5	-41.7	14.1	2.20e-06	0	60	0	500170752	50	4690
2026-01-23 08:12:57.64	52.99	20.39	-39.6	-41.8	14.0	2.20e-06	0	60	0	509607936	50	4749
2026-01-23 08:13:00.67	52.22	20.41	-39.7	-41.9	13.9	3.80e-06	0	60	0	519045120	50	4803
2026-01-23 08:13:03.70	51.46	20.43	-39.6	-41.8	14.0	3.00e-06	0	60	0	528482304	50	4729
2026-01-23 08:13:06.73	50.69	20.45	-39.6	-41.9	13.9	3.80e-06	0	60	0	537919488	50	4766
2026-01-23 08:13:09.76	49.92	20.46	-39.6	-41.9	13.9	3.80e-06	0	61	0	547356672	50	4780
2026-01-23 08:13:12.79	49.15	20.46	-39.8	-42.1	13.7	3.80e-06	0	60	0	556793856	50	4921
2026-01-23 08:13:15.81	48.39	20.46	-39.9	-42.3	13.4	1.06e-05	0	60	0	566231040	50	5035
2026-01-23 08:13:18.84	47.62	20.46	-39.9	-42.2	13.6	1.22e-05	0	60	0	575668224	50	4951
2026-01-23 08:13:21.87	46.86	20.45	-39.5	-41.6	14.2	1.50e-06	0	60	0	585105408	50	4650
2026-01-23 08:13:24.90	46.09	20.43	-39.5	-41.7	14.1	2.20e-06	0	60	0	594542592	50	4693
2026-01-23 08:13:27.93	45.32	20.41	-39.6	-41.8	14.1	3.00e-06	0	60	0	603979776	50	4714
2026-01-23 08:13:30.96	44.56	20.38	-39.6	-41.8	14.0	2.20e-06	0	60	0	614465536	50	4730
2026-01-23 08:13:33.98	43.80	20.35	-39.7	-42.0	13.8	3.80e-06	0	60	0	623902720	50	4840
2026-01-23 08:13:37.01	43.04	20.31	-39.7	-41.9	13.9	7.60e-06	0	61	0	633339904	50	4813
2026-01-23 08:13:40.05	42.28	20.27	-39.7	-42.0	13.9	1.50e-06	0	60	0	642777088	50	4824
2026-01-23 08:13:43.08	41.52	20.22	-39.6	-41.8	14.0	3.00e-06	0	61	0	652214272	50	4729
2026-01-23 08:13:46.11	40.77	20.17	-39.7	-42.0	13.9	2.20e-06	0	60	0	661651456	50	4818
2026-01-23 08:13:49.14	40.02	20.11	-39.7	-42.0	13.9	1.50e-06	0	60	0	671088640	50	4815
2026-01-23 08:13:52.17	39.27	20.05	-39.8	-42.1	13.7	9.90e-06	0	61	0	680525824	50	4904
2026-01-23 08:13:55.20	38.53	19.98	-39.8	-42.2	13.7	5.30e-06	0	61	0	689963008	50	4930
2026-01-23 08:13:58.23	37.79	19.90	-39.6	-41.9	14.0	7.00e-07	0	60	0	699400192	50	4764
2026-01-23 08:14:01.26	37.05	19.83	-39.7	-41.9	13.9	6.80e-06	0	61	0	708837376	50	4804
2026-01-23 08:14:04.28	36.32	19.74	-39.8	-42.2	13.7	5.30e-06	0	61	0	718274560	50	4933
2026-01-23 08:14:07.31	35.59	19.66	-39.9	-42.2	13.7	9.90e-06	0	61	0	727711744	50	4938
2026-01-23 08:14:10.34	34.86	19.57	-39.9	-42.2	13.6	6.80e-06	0	60	0	737148928	50	4952
2026-01-23 08:14:13.37	34.14	19.47	-39.9	-42.2	13.6	1.06e-05	0	61	0	746586112	50	4970
2026-01-23 08:14:16.40	33.43	19.37	-39.8	-42.1	13.7	3.80e-06	0	60	0	756023296	50	4926
2026-01-23 08:14:19.43	32.72	19.26	-39.8	-42.1	13.8	6.10e-06	0	61	0	765460480	50	4881
2026-01-23 08:14:22.46	32.01	19.16	-39.8	-42.1	13.8	6.10e-06	0	60	0	774897664	50	4877
2026-01-23 08:14:25.49	31.31	19.04	-39.8	-42.1	13.8	3.80e-06	0	61	0	784334848	50	4900
2026-01-23 08:14:28.51	30.62	18.93	-39.7	-41.9	14.0	3.80e-06	0	61	0	793772032	50	4779
2026-01-23 08:14:31.54	29.93	18.81	-39.7	-42.0	13.8	6.10e-06	0	60	0	803209216	50	4839
2026-01-23 08:14:34.56	29.25	18.68	-39.9	-42.3	13.6	9.90e-06	0	61	0	812646400	50	4990
2026-01-23 08:14:37.59	28.57	18.56	-40.0	-42.3	13.5	1.29e-05	0	60	0	822083584	50	5030
2026-01-23 08:14:40.61	27.90	18.42	-39.9	-42.3	13.6	1.22e-05	0	61	0	831520768	50	4997
2026-01-23 08:14:43.65	27.23	18.29	-39.8	-42.1	13.7	1.14e-05	0	61	0	840957952	50	4925
2026-01-23 08:14:46.67	26.57	18.15	-40.1	-42.5	13.3	1.67e-05	0	61	0	850395136	50	5110
2026-01-23 08:14:49.70	25.92	18.01	-40.1	-42.6	13.2	2.44e-05	0	61	0	859832320	50	5184
2026-01-23 08:14:52.73	25.27	17.87	-40.1	-42.5	13.3	1.06e-05	0	61	0	869269504	50	5107
2026-01-23 08:14:55.76	24.63	17.72	-39.8	-42.1	13.7	1.22e-05	0	61	0	878706688	50	4878
2026-01-23 08:14:58.79	23.99	17.57	-39.9	-42.3	13.5	1.44e-05	0	60	0	888143872	50	5007
2026-01-23 08:15:01.82	23.36	17.42	-40.1	-42.6	13.2	2.13e-05	0	61	0	897581056	50	5174
2026-01-23 08:15:04.85	22.74	17.27	-40.2	-42.7	13.1	3.73e-05	0	61	0	907018240	50	5227
2026-01-23 08:15:07.88	22.12	17.11	-39.9	-42.3	13.4	1.37e-05	0	61	0	916455424	50	4987
2026-01-23 08:15:10.91	21.51	16.95	-39.8	-42.1	13.6	1.50e-06	0	60	0	925892608	50	4877
2026-01-23 08:15:13.93	20.91	16.79	-39.8	-42.2	13.5	1.14e-05	0	61	0	935329792	50	4933
2026-01-23 08:15:16.96	20.31	16.62	-40.0	-42.4	13.3	1.67e-05	0	61	0	944766976	50	5067
2026-01-23 08:15:19.99	19.72	16.46	-40.1	-42.6	13.1	3.20e-05	0	61	0	955252736	50	5162
2026-01-23 08:15:23.01	19.14	16.29	-40.0	-42.5	13.1	2.82e-05	0	61	0	963641344	50	5135
2026-01-23 08:15:26.04	18.57	16.12	-40.0	-42.4	13.2	2.82e-05	0	61	0	974127104	50	5071
2026-01-23 08:15:29.07	18.00	15.95	-40.0	-42.5	13.2	2.67e-05	0	61	0	982515712	50	5108
2026-01-23 08:15:32.10	17.43	15.78	-40.1	-42.6	13.0	3.28e-05	0	60	0	993001472	50	5195
2026-01-23 08:15:35.13	16.88	15.60	-40.2	-42.8	12.8	5.18e-05	0	61	0	1002438656	50	5285
2026-01-23 08:15:38.16	16.33	15.43	-40.2	-42.8	12.8	4.80e-05	0	61	0	1011875840	51	4997
2026-01-23 08:15:41.19	15.78	15.25	-40.3	-42.9	12.7	7.70e-05	0	61	0	1021313024	51	5070
2026-01-23 08:15:44.21	15.25	15.07	-40.1	-42.7	12.9	4.80e-05	0	61	0	1030750208	51	4950
2026-01-23 08:15:47.24	14.72	14.89	-40.0	-42.6	13.0	4.50e-05	0	61	0	1040187392	51	4873
2026-01-23 08:15:50.27	14.19	14.71	-40.1	-42.7	12.8	4.88e-05	0	61	0	1049624576	51	4942
2026-01-23 08:15:53.30	13.67	14.53	-40.1	-42.7	12.7	7.24e-05	0	61	0	1059061760	51	4974
2026-01-23 08:15:56.33	13.16	14.35	-40.2	-42.9	12.5	1.25e-04	0	61	0	1068498944	51	5058
2026-01-23 08:15:59.36	12.66	14.16	-40.1	-42.7	12.5	1.25e-04	0	61	0	1077936128	51	4981
2026-01-23 08:16:02.39	12.16	13.98	-40.0	-42.7	12.5	1.22e-04	0	61	0	1087373312	51	4952
2026-01-23 08:16:05.42	11.67	13.79	-40.0	-42.7	12.4	1.33e-04	0	61	0	1096810496	51	4946
2026-01-23 08:16:08.45	11.18	13.61	-40.0	-42.8	12.2	2.12e-04	0	61	0	1106247680	51	5020
2026-01-23 08:16:11.48	10.70	13.42	-40.2	-43.1	11.9	4.26e-04	0	61	0	1115684864	51	5160
2026-01-23 08:16:14.51	10.23	13.24	-39.6	-42.3	12.5	1.40e-04	0	61	0	1125122048	51	4722
2026-01-23 08:16:17.54	9.76	13.05	-39.7	-42.6	11.8	4.01e-04	0	61	0	1134559232	51	4902
2026-01-23 08:16:20.57	9.30	12.86	-39.9	-43.0	11.3	1.22e-03	0	61	0	1143996416	51	5149
2026-01-23 08:16:23.60	8.84	12.67	-39.9	-43.0	11.2	1.27e-03	0	61	0	1153433600	51	5147
2026-01-23 08:16:26.63	8.39	12.48	-39.6	-42.7	11.0	1.57e-03	0	61	0	1162870784	50	5256
2026-01-23 08:16:29.65	7.95	12.29	-39.4	-42.7	10.5	3.82e-03	0	61	0	1172307968	50	5225
2026-01-23 08:16:32.69	7.51	12.10	-39.5	-43.0	9.8	9.62e-03	0	61	0	1181745152	50	5454
2026-01-23 08:16:35.72	7.08	11.92	-40.4	-45.6	7.2	1.10e-01	0	61	0	1191182336	51	6914
2026-01-23 08:16:38.74	6.66	11.73	-40.8	-48.2	5.0	6.60e-01	0	61	0	1200619520	52	8767
2026-01-23 08:16:41.77	6.24	11.54	-41.0	-51.7	3.9	1.49e+00	0	61	104	1202716672	52	13110
2026-01-23 08:16:44.80	5.82	11.35	-40.8	-52.7	3.8	1.49e+00	0	61	104	1202716672	53	13990
2026-01-23 08:16:47.84	5.41	11.16	-41.2	-53.0	3.8	1.49e+00	0	61	104	1202716672	53	14423
2026-01-23 08:16:50.86	5.01	10.97	-41.1	-53.2	3.8	1.49e+00	0	61	104	1202716672	53	14795
2026-01-23 08:16:53.89	4.61	10.78	-40.5	-52.8	3.8	1.49e+00	0	61	104	1202716672	52	15016
2026-01-23 08:16:56.92	4.21	10.59	-40.1	-52.5	3.8	1.49e+00	0	61	104	1202716672	52	14405
2026-01-23 08:16:59.95	3.82	10.40	-40.6	-53.0	3.8	1.49e+00	0	61	104	1202716672	52	15343
2026-01-23 08:17:02.98	3.44	10.21	-40.1	-52.4	3.8	1.49e+00	0	61	104	1202716672	52	14357
2026-01-23 08:17:06.01	3.06	10.02	-40.0	-52.4	3.8	1.49e+00	0	61	104	1202716672	51	15073
2026-01-23 08:17:09.04	2.69	9.83	-40.2	-52.5	3.8	1.49e+00	0	61	104	1202716672	51	15316
2026-01-23 08:17:12.07	2.32	9.65	-40.1	-52.4	3.8	1.49e+00	0	61	104	1202716672	51	15214
2026-01-23 08:17:15.10	1.96	9.46	-40.2	-52.5	3.8	1.49e+00	0	61	104	1202716672	51	15392
2026-01-23 08:17:18.12	1.60	9.27	-40.2	-52.5	3.8	1.49e+00	0	61	104	1202716672	51	15339
2026-01-23 08:17:21.15	1.24	9.08	-40.1	-52.4	3.8	1.49e+00	0	61	104	1202716672	51	15082
2026-01-23 08:17:24.18	0.89	8.90	-40.0	-52.4	3.8	1.49e+00	0	61	104	1202716672	51	15118
2026-01-23 08:17:27.21	0.55	8.71	-40.1	-52.5	3.8	1.49e+00	0	61	104	1202716672	51	15250
2026-01-23 08:17:30.24	0.21	8.52	-40.1	-52.4	3.8	1.49e+00	0	61	104	1202716672	51	15140
2026-01-23 08:17:33.27	359.87	8.34	-40.1	-52.4	3.8	1.49e+00	0	61	104	1202716672	51	15147
2026-01-23 08:17:36.29	359.54	8.15	-40.0	-52.4	3.8	1.49e+00	0	61	104	1202716672	51	15101
2026-01-23 08:17:39.32	359.21	7.97	-41.0	-53.4	3.8	1.49e+00	0	61	104	1202716672	52	16064
2026-01-23 08:17:42.35	358.89	7.78	-45.2	-57.7	3.8	1.49e+00	0	61	104	1202716672	60	16569
2026-01-23 08:17:45.38	358.57	7.60	-45.5	-57.9	3.8	1.49e+00	0	61	104	1202716672	61	16096
2026-01-23 08:17:48.42	358.26	7.42	-45.4	-57.9	3.8	1.49e+00	0	61	104	1202716672	61	15960
2026-01-23 08:17:51.45	357.95	7.23	-45.2	-57.7	3.8	1.49e+00	0	61	104	1202716672	61	15583
2026-01-23 08:17:54.48	357.64	7.05	-45.1	-57.5	3.8	1.49e+00	0	61	104	1202716672	61	15243
2026-01-23 08:17:57.51	357.34	6.87	-45.1	-57.5	3.8	1.49e+00	0	61	104	1202716672	61	15361
2026-01-23 08:18:00.53	357.04	6.69	-45.2	-57.5	3.8	1.49e+00	0	61	104	1202716672	61	15328
2026-01-23 08:18:03.56	356.74	6.51	-45.2	-57.5	3.8	1.49e+00	0	61	104	1202716672	61	15318
2026-01-23 08:18:06.60	356.45	6.33	-45.1	-57.5	3.8	1.49e+00	0	61	104	1202716672	61	15348
2026-01-23 08:18:09.63	356.16	6.15	-45.1	-57.5	3.8	1.49e+00	0	61	104	1202716672	60	16196
2026-01-23 08:18:12.66	355.88	5.97	-45.2	-57.5	3.8	1.49e+00	0	61	104	1202716672	60	16180
2026-01-23 08:18:15.69	355.60	5.79	-45.0	-57.5	3.8	1.49e+00	0	61	104	1202716672	60	16184
2026-01-23 08:18:18.72	355.32	5.61	-45.1	-57.5	3.8	1.49e+00	0	61	104	1202716672	60	16183
2026-01-23 08:18:21.76	355.05	5.43	-45.1	-57.5	3.8	1.49e+00	0	61	104	1202716672	60	16222
2026-01-23 08:18:24.79	354.78	5.25	-45.1	-57.5	3.8	1.49e+00	0	61	104	1202716672	60	16171
2026-01-23 08:18:27.82	354.51	5.08	-45.1	-57.5	3.8	1.49e+00	0	61	104	1202716672	60	16240
2026-01-23 08:18:30.85	354.25	4.90	-45.1	-57.5	3.8	1.49e+00	0	61	104	1202716672	60	16198
2026-01-23 08:18:33.88	353.99	4.73	-45.0	-57.5	3.8	1.49e+00	0	61	104	1202716672	60	16185
2026-01-23 08:18:36.91	353.73	4.55	-45.1	-57.4	3.8	1.49e+00	0	61	104	1202716672	60	16067
2026-01-23 08:18:39.94	353.48	4.38	-44.9	-57.4	3.8	1.49e+00	0	61	104	1202716672	60	16113
2026-01-23 08:18:42.97	353.23	4.20	-45.1	-57.4	3.8	1.49e+00	0	61	104	1202716672	60	16081
2026-01-23 08:18:46.01	352.98	4.03	-44.9	-57.4	3.8	1.49e+00	0	61	104	1202716672	60	16063
2026-01-23 08:18:49.04	352.74	3.86	-45.1	-57.4	3.8	1.49e+00	0	61	104	1202716672	60	16085
2026-01-23 08:18:52.07	352.50	3.69	-45.1	-57.5	3.8	1.49e+00	0	61	104	1202716672	60	16155
2026-01-23 08:18:55.10	352.26	3.52	-45.1	-57.4	3.8	1.49e+00	0	61	104	1202716672	60	16103
2026-01-23 08:18:58.13	352.02	3.35	-45.1	-57.4	3.8	1.49e+00	0	61	104	1202716672	60	16122
2026-01-23 08:19:01.16	351.79	3.18	-45.1	-57.4	3.8	1.49e+00	0	61	104	1202716672	60	16046
2026-01-23 08:19:04.19	351.56	3.01	-45.1	-57.5	3.8	1.49e+00	0	61	104	1202716672	60	16148
2026-01-23 08:19:07.22	351.33	2.84	-45.1	-57.5	3.8	1.49e+00	0	61	104	1202716672	60	16185
2026-01-23 08:19:10.25	351.11	2.67	-45.1	-57.5	3.8	1.49e+00	0	61	104	1202716672	60	16176
2026-01-23 08:19:13.28	350.89	2.50	-45.1	-57.4	3.8	1.49e+00	0	61	104	1202716672	60	16071
2026-01-23 08:19:16.31	350.67	2.33	-45.1	-57.5	3.8	1.49e+00	0	61	104	1202716672	60	16175
2026-01-23 08:19:19.34	350.45	2.17	-45.1	-57.5	3.8	1.49e+00	0	62	104	1202716672	60	16160
2026-01-23 08:19:22.37	350.24	2.00	-45.1	-57.4	3.8	1.49e+00	0	61	104	1202716672	60	16043

#Closed at: 2026-01-23 08:19:24
#Recorded file [1202 MB]: D:/lorett/data/31039_260123_110709.dat