passes_logs/2026/01/23/R2.0S_Moscow/R2.0S_Moscow__20260123_235835_AQUA_rec.log

#Pass ID: 20260123_235835_AQUA
#Satellite: AQUA
#Configuration: AQUA
#almurnet v.1.7.20251203
#Start time: 2026-01-23 23:58:35

#Version: 2.2.20231116
#Station: R2.0S_Moscow
#Location: 37.707566 lon 55.798166 lat
#TLE: 1 27424U 02022A   26022.96978264  .00001879  00000+0  38593-3 0  9993
#TLE: 2 27424  98.4100 349.5315 0001958  69.4371  21.4765 14.61848807262053

#Time	Az	El	Level	Level2	SNR	BER	BlckErr	Temp	State	Recorded	gain1	gain2
2026-01-23 23:58:35.64	26.80	2.01	-43.3	-61.6	3.8	7.46e-01	0	52	0	0	58	29082
2026-01-23 23:58:38.66	27.05	2.18	-43.3	-61.9	3.8	7.45e-01	0	52	104	0	57	32004
2026-01-23 23:58:41.69	27.29	2.36	-43.3	-62.0	3.8	7.44e-01	0	53	104	0	57	32368
2026-01-23 23:58:44.72	27.54	2.53	-43.2	-62.0	3.8	7.46e-01	0	53	104	0	57	32422
2026-01-23 23:58:47.75	27.79	2.70	-43.3	-62.0	3.8	7.45e-01	0	53	104	0	57	32300
2026-01-23 23:58:50.79	28.05	2.88	-43.2	-62.0	3.8	7.45e-01	0	53	104	0	57	32235
2026-01-23 23:58:53.82	28.31	3.05	-43.2	-62.0	3.8	7.42e-01	0	54	104	0	57	32340
2026-01-23 23:58:56.85	28.57	3.23	-43.2	-62.1	3.8	7.46e-01	0	54	104	0	57	32602
2026-01-23 23:58:59.88	28.84	3.40	-43.2	-62.0	3.8	7.41e-01	0	54	104	0	57	32519
2026-01-23 23:59:02.91	29.10	3.58	-43.2	-62.0	3.8	7.45e-01	0	54	104	0	57	32495
2026-01-23 23:59:05.95	29.38	3.76	-43.2	-62.0	3.8	7.45e-01	0	55	104	0	57	32501
2026-01-23 23:59:08.98	29.65	3.94	-43.2	-62.0	3.8	7.47e-01	0	55	104	0	57	32435
2026-01-23 23:59:12.01	29.93	4.12	-43.2	-62.0	3.8	7.41e-01	0	55	104	0	57	32551
2026-01-23 23:59:15.04	30.21	4.30	-43.3	-62.1	3.8	7.44e-01	0	55	104	0	57	32696
2026-01-23 23:59:18.07	30.50	4.48	-43.2	-62.0	3.8	7.43e-01	0	55	104	0	57	32485
2026-01-23 23:59:21.10	30.79	4.66	-43.2	-61.9	3.8	7.47e-01	0	55	104	0	57	31928
2026-01-23 23:59:24.14	31.08	4.85	-43.2	-62.0	3.8	7.44e-01	0	55	104	0	57	32209
2026-01-23 23:59:27.17	31.38	5.03	-43.2	-62.0	3.8	7.47e-01	0	55	104	0	57	32329
2026-01-23 23:59:30.20	31.68	5.21	-43.2	-62.0	3.8	7.48e-01	0	56	104	0	57	32311
2026-01-23 23:59:33.23	31.99	5.40	-43.2	-62.1	3.8	7.46e-01	0	56	104	0	57	32573
2026-01-23 23:59:36.27	32.30	5.59	-43.2	-62.1	3.8	7.43e-01	0	56	104	0	57	32581
2026-01-23 23:59:39.30	32.61	5.77	-43.2	-62.0	3.8	7.42e-01	0	56	104	0	57	32522
2026-01-23 23:59:42.33	32.93	5.96	-43.2	-62.0	3.8	7.46e-01	0	56	104	0	57	32382
2026-01-23 23:59:45.36	33.25	6.15	-43.2	-62.0	3.8	7.47e-01	0	56	104	0	57	32231
2026-01-23 23:59:48.40	33.58	6.34	-43.1	-61.9	3.8	7.47e-01	0	57	104	0	57	32147
2026-01-23 23:59:51.43	33.91	6.53	-43.2	-61.8	3.8	7.41e-01	0	57	104	0	57	31727
2026-01-23 23:59:54.46	34.24	6.72	-43.2	-61.8	3.8	7.47e-01	0	57	104	0	57	31762
2026-01-23 23:59:57.49	34.58	6.92	-43.2	-61.4	3.8	7.44e-01	0	57	104	0	57	30249
2026-01-24 00:00:00.52	34.93	7.11	-43.2	-61.6	3.8	7.48e-01	0	57	104	0	57	30849
2026-01-24 00:00:03.55	35.28	7.30	-43.2	-61.7	3.8	7.42e-01	0	57	104	0	57	31213
2026-01-24 00:00:06.58	35.63	7.50	-43.2	-62.0	3.8	7.44e-01	0	57	104	0	57	32264
2026-01-24 00:00:09.61	35.99	7.69	-43.2	-60.9	3.8	7.45e-01	0	57	104	0	57	28442
2026-01-24 00:00:12.64	36.36	7.89	-42.9	-54.8	6.0	6.87e-01	80	57	0	0	57	14076
2026-01-24 00:00:15.67	36.73	8.09	-42.0	-48.3	12.8	6.05e-01	0	57	0	5767168	56	7061
2026-01-24 00:00:18.70	37.10	8.29	-42.5	-55.8	5.6	7.04e-01	65	58	0	11010048	55	17780
2026-01-24 00:00:21.73	37.48	8.49	-42.2	-47.4	14.5	6.02e-01	0	58	0	15204352	56	6359
2026-01-24 00:00:24.76	37.87	8.68	-42.3	-47.4	14.7	6.02e-01	0	58	0	20971520	56	6350
2026-01-24 00:00:27.78	38.26	8.88	-41.9	-46.5	15.5	6.04e-01	0	58	0	26214400	55	6074
2026-01-24 00:00:30.81	38.66	9.09	-41.8	-46.3	15.7	6.03e-01	0	58	0	31981568	55	5959
2026-01-24 00:00:33.84	39.06	9.29	-41.7	-45.9	16.2	6.02e-01	0	58	0	37748736	55	5689
2026-01-24 00:00:36.87	39.47	9.49	-41.8	-45.9	16.4	6.01e-01	0	58	0	43515904	55	5714
2026-01-24 00:00:39.90	39.89	9.69	-41.9	-45.9	16.5	6.04e-01	0	58	0	49283072	55	5714
2026-01-24 00:00:42.93	40.31	9.90	-41.9	-45.9	16.4	6.03e-01	0	58	0	55050240	55	5694
2026-01-24 00:00:45.96	40.73	10.10	-41.9	-45.9	16.5	6.03e-01	0	58	0	60817408	55	5674
2026-01-24 00:00:48.99	41.17	10.30	-41.9	-45.9	16.4	6.03e-01	0	59	0	66060288	55	5679
2026-01-24 00:00:52.02	41.61	10.51	-41.8	-45.6	16.9	6.02e-01	0	58	0	71827456	55	5511
2026-01-24 00:00:55.04	42.05	10.71	-41.8	-45.5	17.1	6.01e-01	0	58	0	77594624	55	5451
2026-01-24 00:00:58.07	42.51	10.92	-41.9	-45.7	17.0	6.05e-01	0	59	0	83361792	55	5574
2026-01-24 00:01:01.10	42.97	11.13	-41.6	-45.3	17.2	6.02e-01	0	59	0	89128960	55	5287
2026-01-24 00:01:04.13	43.43	11.33	-41.7	-45.4	17.1	6.05e-01	0	59	0	94371840	55	5350
2026-01-24 00:01:07.16	43.91	11.54	-41.7	-45.3	17.3	6.01e-01	0	58	0	100139008	55	5284
2026-01-24 00:01:10.19	44.39	11.75	-41.7	-45.2	17.5	6.02e-01	0	59	0	105906176	55	5249
2026-01-24 00:01:13.22	44.88	11.96	-41.7	-45.2	17.6	6.02e-01	0	59	0	111673344	55	5246
2026-01-24 00:01:16.25	45.37	12.17	-41.7	-45.2	17.7	6.02e-01	0	59	0	117440512	55	5252
2026-01-24 00:01:19.27	45.87	12.37	-41.7	-45.2	17.7	6.02e-01	0	59	0	123207680	55	5271
2026-01-24 00:01:22.30	46.38	12.58	-41.7	-45.2	17.7	6.02e-01	0	59	0	128974848	55	5273
2026-01-24 00:01:25.33	46.90	12.79	-41.7	-45.2	17.6	6.02e-01	0	59	0	134217728	55	5248
2026-01-24 00:01:28.36	47.43	13.00	-41.5	-44.9	18.1	6.01e-01	0	59	0	139984896	54	5351
2026-01-24 00:01:31.40	47.96	13.21	-41.7	-45.2	17.8	6.02e-01	0	59	0	145752064	54	5554
2026-01-24 00:01:34.42	48.50	13.42	-41.7	-45.2	17.8	6.04e-01	0	59	0	151519232	54	5532
2026-01-24 00:01:37.45	49.05	13.62	-41.5	-44.9	18.1	6.02e-01	0	59	0	157286400	54	5355
2026-01-24 00:01:40.48	49.61	13.83	-41.7	-45.1	18.0	6.02e-01	0	59	0	162529280	54	5466
2026-01-24 00:01:43.51	50.17	14.04	-41.6	-44.9	18.1	6.02e-01	0	59	0	168296448	54	5348
2026-01-24 00:01:46.53	50.75	14.24	-41.6	-44.8	18.2	6.04e-01	0	59	0	174063616	54	5336
2026-01-24 00:01:49.56	51.33	14.45	-41.5	-44.7	18.3	6.02e-01	0	59	0	179830784	54	5269
2026-01-24 00:01:52.59	51.92	14.65	-41.5	-44.7	18.4	6.03e-01	0	59	0	185597952	54	5263
2026-01-24 00:01:55.62	52.52	14.86	-41.5	-44.7	18.4	6.04e-01	0	59	0	191365120	54	5254
2026-01-24 00:01:58.65	53.13	15.06	-41.5	-44.7	18.4	6.01e-01	0	60	0	197132288	54	5261
2026-01-24 00:02:01.68	53.74	15.27	-41.5	-44.7	18.4	6.01e-01	0	59	0	202375168	54	5267
2026-01-24 00:02:04.71	54.37	15.47	-41.5	-44.7	18.4	6.02e-01	0	59	0	208142336	54	5236
2026-01-24 00:02:07.74	55.00	15.67	-41.5	-44.7	18.4	6.00e-01	0	60	0	213909504	54	5253
2026-01-24 00:02:10.77	55.65	15.87	-41.4	-44.6	18.5	6.02e-01	0	60	0	219676672	54	5178
2026-01-24 00:02:13.79	56.30	16.06	-41.5	-44.7	18.5	6.01e-01	0	60	0	225443840	54	5224
2026-01-24 00:02:16.82	56.96	16.26	-41.5	-44.7	18.5	6.00e-01	0	60	0	230686720	54	5237
2026-01-24 00:02:19.85	57.63	16.45	-41.5	-44.7	18.4	6.02e-01	0	60	0	236453888	54	5258
2026-01-24 00:02:22.88	58.31	16.64	-41.4	-44.6	18.5	6.03e-01	0	60	0	242221056	54	5216
2026-01-24 00:02:25.91	59.00	16.83	-41.4	-44.6	18.6	5.98e-01	0	60	0	247988224	54	5182
2026-01-24 00:02:28.94	59.69	17.02	-41.6	-44.8	18.3	6.03e-01	0	60	0	253755392	54	5334
2026-01-24 00:02:31.97	60.40	17.21	-41.4	-44.6	18.6	6.02e-01	0	60	0	259522560	54	5170
2026-01-24 00:02:35.00	61.12	17.39	-41.5	-44.8	18.4	6.02e-01	0	60	0	265289728	54	5286
2026-01-24 00:02:38.02	61.84	17.57	-41.5	-44.6	18.5	6.05e-01	0	60	0	270532608	54	5209
2026-01-24 00:02:41.05	62.57	17.75	-41.5	-44.7	18.5	6.02e-01	0	60	0	276299776	54	5234
2026-01-24 00:02:44.08	63.32	17.92	-41.5	-44.7	18.5	6.01e-01	0	60	0	282066944	54	5236
2026-01-24 00:02:47.11	64.07	18.09	-41.6	-44.8	18.3	6.01e-01	0	60	0	287834112	54	5335
2026-01-24 00:02:50.13	64.82	18.26	-41.4	-44.6	18.4	6.03e-01	0	60	0	293601280	54	5210
2026-01-24 00:02:53.16	65.59	18.43	-41.6	-44.9	18.2	6.02e-01	0	60	0	298844160	54	5373
2026-01-24 00:02:56.19	66.37	18.59	-41.4	-44.6	18.4	6.02e-01	0	60	0	304611328	54	5215
2026-01-24 00:02:59.22	67.16	18.74	-41.5	-44.9	18.1	6.03e-01	0	60	0	310378496	54	5345
2026-01-24 00:03:02.25	67.95	18.90	-41.6	-45.1	17.8	6.03e-01	0	60	0	316145664	54	5477
2026-01-24 00:03:05.28	68.76	19.04	-41.6	-45.2	17.4	6.01e-01	0	60	0	321912832	54	5574
2026-01-24 00:03:08.31	69.57	19.19	-41.6	-45.3	17.2	6.02e-01	0	60	0	327680000	54	5650
2026-01-24 00:03:11.33	70.38	19.33	-41.7	-45.6	16.8	6.03e-01	0	60	0	332922880	54	5853
2026-01-24 00:03:14.36	71.21	19.46	-41.9	-46.5	15.7	6.03e-01	0	60	0	338690048	54	6440
2026-01-24 00:03:17.39	72.05	19.59	-41.8	-46.4	15.6	6.03e-01	0	60	0	344457216	54	6408
2026-01-24 00:03:20.42	72.89	19.72	-41.9	-46.6	15.4	6.02e-01	0	60	0	350224384	54	6548
2026-01-24 00:03:23.45	73.74	19.84	-41.9	-46.5	15.6	6.03e-01	0	60	0	355991552	54	6451
2026-01-24 00:03:26.47	74.59	19.95	-41.7	-46.1	15.8	6.02e-01	0	60	0	361758720	54	6179
2026-01-24 00:03:29.50	75.45	20.06	-41.8	-46.1	16.0	6.01e-01	0	60	0	367001600	54	6198
2026-01-24 00:03:32.53	76.32	20.16	-42.0	-46.4	15.9	6.00e-01	0	60	0	372768768	54	6356
2026-01-24 00:03:35.56	77.19	20.26	-41.8	-46.0	16.1	6.02e-01	0	60	0	378535936	54	6121
2026-01-24 00:03:38.59	78.07	20.35	-41.9	-45.9	16.5	6.01e-01	0	60	0	384303104	54	6041
2026-01-24 00:03:41.62	78.96	20.44	-42.1	-46.3	16.2	6.04e-01	0	60	0	390070272	54	6290
2026-01-24 00:03:44.64	79.85	20.52	-41.9	-46.1	16.3	6.02e-01	0	61	0	395837440	54	6165
2026-01-24 00:03:47.67	80.74	20.59	-41.8	-45.7	16.8	6.03e-01	0	60	0	401080320	54	5922
2026-01-24 00:03:50.70	81.64	20.66	-41.9	-45.9	16.7	6.02e-01	0	61	0	406847488	54	6004
2026-01-24 00:03:53.73	82.54	20.71	-41.8	-45.6	17.0	6.01e-01	0	60	0	412614656	54	5838
2026-01-24 00:03:56.76	83.45	20.77	-41.7	-45.5	16.9	6.02e-01	0	61	0	418381824	54	5779
2026-01-24 00:03:59.79	84.36	20.81	-41.7	-45.8	16.6	6.01e-01	0	60	0	424148992	54	5943
2026-01-24 00:04:02.81	85.27	20.85	-41.9	-46.2	16.2	6.03e-01	0	60	0	429916160	54	6242
2026-01-24 00:04:05.84	86.18	20.88	-41.9	-46.0	16.4	6.01e-01	0	60	0	435159040	54	6128
2026-01-24 00:04:08.87	87.10	20.91	-41.9	-46.0	16.5	6.01e-01	0	60	0	440926208	54	6091
2026-01-24 00:04:11.90	88.02	20.93	-41.9	-46.0	16.6	5.99e-01	0	61	0	446693376	54	6076
2026-01-24 00:04:14.93	88.94	20.94	-41.9	-45.7	17.0	6.03e-01	0	61	0	452460544	54	5893
2026-01-24 00:04:17.96	89.86	20.94	-41.8	-45.5	17.3	6.03e-01	0	61	0	458227712	54	5740
2026-01-24 00:04:20.99	90.78	20.94	-42.0	-45.6	17.4	6.03e-01	0	60	0	463994880	54	5822
2026-01-24 00:04:24.02	91.70	20.93	-41.9	-45.3	17.8	6.01e-01	0	61	0	469237760	54	5652
2026-01-24 00:04:27.04	92.61	20.91	-41.8	-45.2	18.0	6.03e-01	0	60	0	475004928	54	5562
2026-01-24 00:04:30.07	93.53	20.88	-41.7	-45.0	18.2	6.01e-01	0	61	0	480772096	54	5427
2026-01-24 00:04:33.10	94.44	20.85	-41.7	-45.0	18.3	6.02e-01	0	60	0	486539264	54	5436
2026-01-24 00:04:36.13	95.36	20.81	-41.8	-45.0	18.3	6.02e-01	0	61	0	492306432	54	5463
2026-01-24 00:04:39.16	96.27	20.77	-41.8	-45.1	18.2	6.02e-01	0	61	0	498073600	54	5523
2026-01-24 00:04:42.19	97.18	20.72	-41.8	-45.1	18.2	5.99e-01	0	61	0	503316480	54	5492
2026-01-24 00:04:45.21	98.08	20.66	-41.8	-45.1	18.2	6.02e-01	0	61	0	509083648	54	5524
2026-01-24 00:04:48.24	98.98	20.59	-41.8	-45.1	18.3	6.03e-01	0	61	0	514850816	54	5476
2026-01-24 00:04:51.27	99.87	20.52	-41.7	-44.9	18.4	6.03e-01	0	61	0	520617984	54	5387
2026-01-24 00:04:54.30	100.77	20.44	-41.9	-45.2	18.1	6.03e-01	0	61	0	526385152	54	5554
2026-01-24 00:04:57.32	101.65	20.35	-41.9	-45.3	18.0	6.02e-01	0	61	0	531628032	54	5640
2026-01-24 00:05:00.35	102.53	20.26	-41.7	-44.9	18.5	6.01e-01	0	61	0	537395200	54	5366
2026-01-24 00:05:03.38	103.41	20.17	-41.8	-45.2	18.2	6.03e-01	0	60	0	543162368	54	5542
2026-01-24 00:05:06.41	104.28	20.06	-41.7	-44.9	18.4	5.99e-01	0	61	0	548929536	54	5399
2026-01-24 00:05:09.44	105.15	19.95	-41.8	-45.0	18.3	6.03e-01	0	61	0	554696704	54	5458
2026-01-24 00:05:12.46	106.00	19.84	-41.7	-45.0	18.4	6.03e-01	0	61	0	560463872	54	5411
2026-01-24 00:05:15.49	106.85	19.72	-41.7	-45.0	18.3	6.01e-01	0	61	0	566231040	54	5437
2026-01-24 00:05:18.52	107.70	19.59	-41.7	-45.0	18.4	6.02e-01	0	61	0	571473920	54	5408
2026-01-24 00:05:21.55	108.54	19.46	-41.7	-45.0	18.4	6.00e-01	0	60	0	577241088	54	5410
2026-01-24 00:05:24.57	109.36	19.33	-41.8	-45.1	18.2	6.06e-01	0	61	0	583008256	54	5525
2026-01-24 00:05:27.61	110.19	19.19	-41.6	-44.8	18.5	6.03e-01	0	61	0	588775424	54	5323
2026-01-24 00:05:30.63	111.00	19.04	-41.7	-45.0	18.3	6.03e-01	0	61	0	594542592	54	5425
2026-01-24 00:05:33.66	111.81	18.89	-41.7	-44.9	18.4	6.02e-01	0	61	0	599785472	53	5704
2026-01-24 00:05:36.69	112.60	18.74	-41.7	-45.0	18.2	6.01e-01	0	61	0	605552640	53	5742
2026-01-24 00:05:39.71	113.39	18.58	-41.7	-45.0	17.9	6.03e-01	0	61	0	611319808	54	5440
2026-01-24 00:05:42.74	114.17	18.42	-41.6	-44.7	18.3	6.01e-01	0	61	0	617086976	54	5266
2026-01-24 00:05:45.77	114.94	18.25	-41.7	-45.1	17.9	6.01e-01	0	61	0	622854144	54	5485
2026-01-24 00:05:48.80	115.71	18.08	-41.7	-45.1	16.9	6.05e-01	0	60	0	628621312	53	5792
2026-01-24 00:05:51.83	116.46	17.91	-41.4	-44.9	16.1	6.03e-01	0	61	0	633864192	53	5663
2026-01-24 00:05:54.86	117.21	17.74	-41.5	-44.9	17.0	6.01e-01	1	61	0	639631360	53	5711
2026-01-24 00:05:57.89	117.95	17.56	-41.4	-45.0	15.6	6.03e-01	2	61	0	645398528	53	5724
2026-01-24 00:06:00.91	118.67	17.38	-41.3	-44.9	15.7	6.05e-01	3	61	0	651165696	53	5659
2026-01-24 00:06:03.95	119.39	17.19	-41.4	-44.9	15.4	6.06e-01	4	61	0	656408576	53	5708
2026-01-24 00:06:06.98	120.10	17.00	-41.5	-44.9	16.4	6.04e-01	2	61	0	662175744	53	5702
2026-01-24 00:06:10.01	120.81	16.81	-41.5	-44.8	16.1	6.03e-01	0	61	0	667942912	53	5628
2026-01-24 00:06:13.03	121.49	16.62	-41.5	-44.8	16.9	6.04e-01	0	61	0	673185792	53	5603
2026-01-24 00:06:16.06	122.18	16.43	-41.5	-44.7	17.7	6.03e-01	0	61	0	678952960	53	5581
2026-01-24 00:06:19.09	122.85	16.23	-41.6	-44.9	17.6	6.05e-01	0	61	0	684720128	53	5683
2026-01-24 00:06:22.12	123.52	16.04	-41.2	-44.8	17.4	6.02e-01	0	61	0	690487296	53	5644
2026-01-24 00:06:25.15	124.17	15.84	-41.4	-44.7	16.9	6.05e-01	3	61	0	696254464	53	5579
2026-01-24 00:06:28.18	124.82	15.64	-39.7	-44.7	13.1	6.05e-01	15	61	0	702021632	53	5558
2026-01-24 00:06:31.20	125.45	15.44	-41.0	-44.8	15.5	6.06e-01	7	61	0	707264512	53	5651
2026-01-24 00:06:34.23	126.08	15.23	-40.1	-44.8	15.0	6.07e-01	11	61	0	713031680	52	5936
2026-01-24 00:06:37.26	126.70	15.03	-41.0	-44.9	14.4	6.07e-01	8	61	0	718798848	52	6055
2026-01-24 00:06:40.28	127.31	14.82	-25.4	-40.8	5.6	6.93e-01	0	61	0	724041728	30	13285
2026-01-24 00:06:43.31	127.91	14.62	-35.9	-44.7	12.3	6.14e-01	50	61	0	728236032	47	7825
2026-01-24 00:06:46.34	128.51	14.41	-34.7	-44.1	11.8	6.15e-01	85	61	0	731906048	43	9207
2026-01-24 00:06:49.37	129.09	14.20	-35.0	-44.6	9.9	6.28e-01	92	61	0	737148928	39	12276
2026-01-24 00:06:52.40	129.67	13.99	-30.7	-43.0	9.2	6.31e-01	73	61	0	740818944	30	17095
2026-01-24 00:06:55.42	130.23	13.79	-24.0	-42.9	7.9	6.42e-01	89	61	0	741867520	27	20229
2026-01-24 00:06:58.45	130.79	13.58	-28.5	-42.7	4.8	7.23e-01	0	61	104	741867520	24	23457
2026-01-24 00:07:01.48	131.34	13.37	-34.6	-48.1	5.0	7.01e-01	0	61	104	741867520	43	14551
2026-01-24 00:07:04.51	131.89	13.16	-24.3	-43.4	5.2	7.28e-01	0	61	104	741867520	20	31966
2026-01-24 00:07:07.54	132.42	12.95	-24.7	-46.0	4.9	7.39e-01	0	61	104	741867520	24	34319
2026-01-24 00:07:10.57	132.95	12.74	-29.6	-45.4	5.0	7.08e-01	0	61	104	741867520	28	25504
2026-01-24 00:07:13.60	133.47	12.53	-30.9	-46.5	4.7	7.25e-01	0	61	104	741867520	34	20494
2026-01-24 00:07:16.62	133.98	12.32	-39.2	-47.5	4.9	7.12e-01	0	61	104	741867520	47	10780
2026-01-24 00:07:19.65	134.49	12.11	-42.2	-59.3	4.2	7.48e-01	0	61	104	741867520	54	28223
2026-01-24 00:07:22.68	134.98	11.90	-30.5	-49.3	3.9	7.71e-01	0	61	104	741867520	32	31514
2026-01-24 00:07:25.71	135.47	11.69	-40.6	-50.2	9.8	6.24e-01	44	61	104	741867520	53	10432
2026-01-24 00:07:28.74	135.96	11.48	-40.4	-48.4	9.3	6.25e-01	65	61	0	741867520	52	8988
2026-01-24 00:07:31.76	136.43	11.27	-39.9	-47.8	11.3	6.12e-01	35	61	0	741867520	52	8463
2026-01-24 00:07:34.79	136.90	11.06	-41.5	-47.8	12.2	6.15e-01	14	61	0	741867520	53	7966
2026-01-24 00:07:37.82	137.36	10.85	-40.9	-47.3	12.2	6.07e-01	9	61	0	741867520	52	7924
2026-01-24 00:07:40.85	137.81	10.64	-41.3	-47.5	11.3	6.16e-01	42	61	0	741867520	50	9170
2026-01-24 00:07:43.88	138.26	10.43	-28.0	-46.6	4.6	7.50e-01	0	61	104	741867520	27	30918
2026-01-24 00:07:46.91	138.70	10.23	-42.8	-56.2	5.3	6.99e-01	0	61	0	741867520	56	17496
2026-01-24 00:07:49.93	139.14	10.02	-42.8	-53.8	6.3	6.70e-01	85	61	0	741867520	56	13300
2026-01-24 00:07:52.97	139.57	9.81	-41.1	-45.6	15.0	6.03e-01	4	61	0	741867520	52	6498
2026-01-24 00:07:56.00	139.99	9.61	-41.6	-46.1	15.5	6.01e-01	0	61	0	741867520	53	6566
2026-01-24 00:07:59.02	140.40	9.40	-40.2	-46.4	11.3	6.21e-01	44	61	101	741867520	50	8062
2026-01-24 00:08:02.05	140.81	9.20	-41.7	-46.1	16.0	6.03e-01	0	61	101	741867520	54	6151
2026-01-24 00:08:05.08	141.22	9.00	-41.7	-45.9	16.3	6.04e-01	0	61	101	741867520	54	6013
2026-01-24 00:08:08.11	141.61	8.79	-41.8	-46.0	16.2	6.00e-01	0	61	101	741867520	54	6117
2026-01-24 00:08:11.14	142.01	8.59	-42.1	-46.6	15.7	6.01e-01	0	61	101	741867520	54	6496
2026-01-24 00:08:14.16	142.39	8.39	-42.0	-46.4	15.9	6.02e-01	0	61	101	741867520	54	6368
2026-01-24 00:08:17.19	142.77	8.19	-41.9	-46.2	16.0	6.01e-01	0	61	101	741867520	54	6226
2026-01-24 00:08:20.22	143.15	7.99	-41.8	-46.2	16.0	5.99e-01	0	61	101	741867520	54	6239
2026-01-24 00:08:23.25	143.52	7.79	-45.9	-64.4	3.8	7.45e-01	0	61	104	741867520	62	31902
2026-01-24 00:08:26.29	143.88	7.59	-46.4	-64.9	3.8	7.45e-01	0	61	104	741867520	63	32146
2026-01-24 00:08:29.32	144.24	7.39	-46.6	-65.1	3.8	7.43e-01	0	61	104	741867520	63	32863
2026-01-24 00:08:32.35	144.60	7.20	-46.4	-64.9	3.8	7.46e-01	0	61	104	741867520	63	32146
2026-01-24 00:08:35.38	144.95	7.00	-46.2	-64.8	3.8	7.43e-01	0	61	104	741867520	63	31514
2026-01-24 00:08:38.42	145.29	6.81	-46.2	-64.7	3.8	7.45e-01	0	61	104	741867520	63	31234
2026-01-24 00:08:41.45	145.63	6.61	-46.2	-64.7	3.8	7.45e-01	0	61	104	741867520	63	31163
2026-01-24 00:08:44.48	145.97	6.42	-46.2	-64.7	3.8	7.45e-01	0	62	104	741867520	63	31142
2026-01-24 00:08:47.51	146.30	6.23	-46.2	-64.7	3.8	7.44e-01	0	61	104	741867520	63	31153
2026-01-24 00:08:50.54	146.62	6.03	-46.1	-64.6	3.8	7.48e-01	0	61	104	741867520	63	31068
2026-01-24 00:08:53.58	146.95	5.84	-46.1	-64.6	3.8	7.47e-01	0	61	104	741867520	63	31034
2026-01-24 00:08:56.61	147.26	5.65	-46.1	-64.6	3.8	7.44e-01	0	61	104	741867520	63	31029
2026-01-24 00:08:59.64	147.58	5.46	-46.1	-64.6	3.8	7.47e-01	0	61	104	741867520	63	31030
2026-01-24 00:09:02.68	147.89	5.27	-46.1	-64.6	3.8	7.45e-01	0	61	104	741867520	63	31015
2026-01-24 00:09:05.71	148.19	5.09	-46.1	-64.6	3.8	7.43e-01	0	61	104	741867520	63	30939
2026-01-24 00:09:08.74	148.49	4.90	-46.1	-64.6	3.8	7.46e-01	0	61	104	741867520	63	30978
2026-01-24 00:09:11.77	148.79	4.71	-46.1	-64.6	3.8	7.44e-01	0	61	104	741867520	63	30972
2026-01-24 00:09:14.81	149.08	4.53	-46.1	-64.6	3.8	7.46e-01	0	62	104	741867520	63	30917
2026-01-24 00:09:17.84	149.37	4.34	-46.1	-64.6	3.8	7.45e-01	0	61	104	741867520	63	30918
2026-01-24 00:09:20.87	149.65	4.16	-46.1	-64.6	3.8	7.49e-01	0	61	104	741867520	63	30889
2026-01-24 00:09:23.91	149.93	3.98	-46.1	-64.6	3.8	7.44e-01	0	62	104	741867520	63	30871
2026-01-24 00:09:26.94	150.21	3.80	-46.1	-64.6	3.8	7.45e-01	0	62	104	741867520	63	30830
2026-01-24 00:09:29.97	150.49	3.62	-46.1	-64.6	3.8	7.46e-01	0	61	104	741867520	63	30879
2026-01-24 00:09:33.01	150.76	3.44	-46.1	-64.6	3.8	7.46e-01	0	62	104	741867520	63	30849
2026-01-24 00:09:36.04	151.02	3.26	-46.1	-64.6	3.8	7.46e-01	0	61	104	741867520	63	30889
2026-01-24 00:09:39.07	151.29	3.08	-46.1	-64.6	3.8	7.47e-01	0	62	104	741867520	63	30777
2026-01-24 00:09:42.10	151.55	2.90	-46.1	-64.6	3.8	7.49e-01	0	62	104	741867520	63	30829
2026-01-24 00:09:45.14	151.80	2.72	-46.1	-64.6	3.8	7.46e-01	0	61	104	741867520	63	30833
2026-01-24 00:09:48.17	152.06	2.55	-46.1	-64.6	3.8	7.44e-01	0	62	104	741867520	63	30789
2026-01-24 00:09:51.20	152.31	2.37	-46.1	-64.6	3.8	7.46e-01	0	62	104	741867520	63	30806
2026-01-24 00:09:54.24	152.56	2.20	-46.1	-64.6	3.8	7.43e-01	0	61	104	741867520	63	30803
2026-01-24 00:09:57.27	152.80	2.03	-46.1	-64.6	3.8	7.46e-01	0	61	104	741867520	63	30776

#Closed at: 2026-01-24 00:09:58
#Recorded file [741 MB]: D:/lorett/data/31039_260124_025835.dat