passes_logs/2026/01/23/R2.0S_Moscow/R2.0S_Moscow__20260123_125334_FENGYUN_3D_rec.log

#Pass ID: 20260123_125334_FENGYUN 3D
#Satellite: FENGYUN 3D
#Configuration: FENGYUN 3D
#almurnet v.1.7.20251203
#Start time: 2026-01-23 12:53:35

#Version: 2.2.20231116
#Station: R2.0S_Moscow
#Location: 37.707566 lon 55.798166 lat
#TLE: 1 43010U 17072A   26022.96745493  .00000490  00000+0  25355-3 0  9999
#TLE: 2 43010  98.9955 354.9072 0002484  95.6139 264.5320 14.19700039424383

#Time	Az	El	Level	Level2	SNR	BER	BlckErr	Temp	State	Recorded	gain1	gain2
2026-01-23 12:53:35.94	187.49	2.09	-44.1	-55.8	3.8	8.45e-01	0	53	0	0	60	13413
2026-01-23 12:53:39.98	187.67	2.34	-44.1	-55.8	3.8	8.46e-01	0	53	104	0	60	13414
2026-01-23 12:53:44.02	187.85	2.59	-44.1	-55.9	3.8	8.45e-01	0	53	104	0	60	13486
2026-01-23 12:53:48.06	188.03	2.84	-44.0	-55.8	3.8	8.46e-01	0	53	104	0	60	13401
2026-01-23 12:53:52.10	188.22	3.10	-44.0	-55.8	3.8	8.47e-01	0	54	104	0	60	13393
2026-01-23 12:53:56.14	188.41	3.35	-44.1	-55.7	3.8	8.46e-01	0	54	104	0	59	14009
2026-01-23 12:54:00.18	188.61	3.61	-44.1	-55.7	3.8	8.46e-01	0	54	104	0	59	14012
2026-01-23 12:54:04.22	188.81	3.87	-44.1	-55.7	3.8	8.46e-01	0	55	104	0	59	13963
2026-01-23 12:54:08.27	189.01	4.14	-44.1	-55.7	3.8	8.47e-01	0	55	104	0	59	13898
2026-01-23 12:54:12.31	189.22	4.40	-44.1	-55.6	3.8	8.46e-01	0	55	104	0	59	13853
2026-01-23 12:54:16.35	189.42	4.67	-44.1	-55.5	3.8	8.46e-01	0	55	104	0	59	13630
2026-01-23 12:54:20.39	189.64	4.94	-44.1	-55.3	3.8	8.46e-01	0	56	104	0	59	13356
2026-01-23 12:54:24.43	189.85	5.21	-44.0	-54.8	3.8	8.46e-01	0	55	104	0	59	12582
2026-01-23 12:54:28.47	190.07	5.49	-43.8	-53.2	3.9	8.44e-01	0	56	104	0	59	10491
2026-01-23 12:54:32.51	190.30	5.76	-43.5	-51.1	4.5	8.22e-01	0	56	0	0	59	8236
2026-01-23 12:54:36.55	190.53	6.05	-42.9	-49.0	5.7	6.51e-01	0	57	0	1048576	57	7258
2026-01-23 12:54:40.59	190.76	6.33	-42.6	-48.0	6.5	2.54e-01	0	57	0	24117248	57	6446
2026-01-23 12:54:44.64	191.00	6.61	-42.7	-48.2	6.3	2.87e-01	0	57	0	46137344	57	6630
2026-01-23 12:54:48.68	191.24	6.90	-42.8	-48.5	6.1	3.60e-01	0	57	0	69206016	57	6852
2026-01-23 12:54:52.72	191.48	7.20	-41.8	-46.1	8.1	8.21e-02	0	57	0	92274688	55	5835
2026-01-23 12:54:56.77	191.73	7.49	-40.3	-43.3	11.0	3.18e-03	0	57	0	114294784	52	5020
2026-01-23 12:55:00.81	191.99	7.79	-39.5	-42.0	12.3	2.45e-04	0	57	0	137363456	51	4598
2026-01-23 12:55:04.85	192.25	8.09	-40.0	-42.6	12.0	2.01e-04	0	57	0	160432128	50	5217
2026-01-23 12:55:08.89	192.52	8.39	-41.1	-44.5	10.1	1.52e-02	0	58	0	176160768	52	5784
2026-01-23 12:55:12.93	192.79	8.70	-38.9	-41.1	13.5	2.51e-05	0	58	0	198180864	49	4622
2026-01-23 12:55:16.97	193.06	9.01	-38.8	-41.0	13.6	1.37e-05	0	58	0	221249536	49	4587
2026-01-23 12:55:21.01	193.35	9.32	-38.7	-40.9	13.8	4.50e-06	0	58	0	244318208	49	4500
2026-01-23 12:55:25.06	193.63	9.64	-38.7	-40.9	13.8	1.02e-05	0	58	0	267386880	49	4501
2026-01-23 12:55:29.10	193.93	9.96	-38.7	-40.9	13.9	9.10e-06	0	58	0	289406976	49	4505
2026-01-23 12:55:33.14	194.23	10.29	-38.8	-41.0	13.8	8.00e-06	0	58	0	312475648	49	4578
2026-01-23 12:55:37.18	194.54	10.61	-38.8	-41.0	13.8	1.02e-05	0	59	0	334495744	49	4585
2026-01-23 12:55:41.22	194.85	10.94	-38.8	-41.0	13.8	6.80e-06	0	59	0	357564416	49	4569
2026-01-23 12:55:45.25	195.17	11.28	-38.7	-40.9	14.0	3.40e-06	0	59	0	380633088	49	4506
2026-01-23 12:55:49.30	195.50	11.62	-38.7	-40.9	14.0	5.70e-06	0	59	0	403701760	49	4502
2026-01-23 12:55:53.34	195.83	11.96	-38.6	-40.7	14.1	4.50e-06	0	59	0	425721856	49	4435
2026-01-23 12:55:57.38	196.18	12.31	-38.7	-40.8	14.1	3.40e-06	0	59	0	448790528	49	4464
2026-01-23 12:56:01.41	196.53	12.66	-38.5	-40.6	14.4	1.10e-06	0	59	0	471859200	48	4611
2026-01-23 12:56:05.45	196.89	13.01	-38.4	-40.4	14.6	1.10e-06	0	59	0	493879296	48	4518
2026-01-23 12:56:09.49	197.25	13.37	-38.4	-40.4	14.5	1.10e-06	0	59	0	516947968	48	4525
2026-01-23 12:56:13.53	197.63	13.74	-38.2	-40.2	14.8	2.20e-06	0	59	0	538968064	48	4402
2026-01-23 12:56:17.58	198.02	14.11	-38.1	-40.0	14.9	1.10e-06	0	59	0	562036736	48	4333
2026-01-23 12:56:21.62	198.41	14.48	-37.9	-39.8	15.0	0.00e+00	0	60	0	585105408	47	4486
2026-01-23 12:56:25.66	198.81	14.86	-37.9	-39.8	15.0	0.00e+00	0	60	0	608174080	47	4480
2026-01-23 12:56:29.70	199.23	15.24	-37.7	-39.6	15.3	0.00e+00	0	60	0	630194176	47	4369
2026-01-23 12:56:33.73	199.65	15.62	-37.7	-39.5	15.4	0.00e+00	0	60	0	653262848	47	4331
2026-01-23 12:56:37.77	200.09	16.01	-37.7	-39.5	15.4	0.00e+00	0	60	0	676331520	47	4322
2026-01-23 12:56:41.82	200.54	16.41	-37.5	-39.3	15.6	0.00e+00	0	60	0	698351616	47	4220
2026-01-23 12:56:45.86	200.99	16.81	-37.4	-39.2	15.8	0.00e+00	0	60	0	721420288	46	4399
2026-01-23 12:56:49.90	201.46	17.22	-37.4	-39.1	15.8	0.00e+00	0	60	0	744488960	46	4387
2026-01-23 12:56:53.94	201.95	17.63	-37.0	-38.7	16.2	0.00e+00	0	60	0	766509056	46	4182
2026-01-23 12:56:57.98	202.44	18.04	-37.0	-38.7	16.3	0.00e+00	0	60	0	789577728	45	4395
2026-01-23 12:57:02.02	202.95	18.46	-36.8	-38.5	16.5	0.00e+00	0	60	0	812646400	45	4307
2026-01-23 12:57:06.06	203.48	18.89	-37.2	-38.9	16.1	0.00e+00	0	60	0	834666496	45	4525
2026-01-23 12:57:10.10	204.01	19.32	-37.1	-38.9	16.1	0.00e+00	0	60	0	857735168	45	4518
2026-01-23 12:57:14.14	204.57	19.76	-36.8	-38.4	16.5	0.00e+00	0	60	0	880803840	45	4281
2026-01-23 12:57:18.18	205.13	20.20	-36.7	-38.3	16.6	0.00e+00	0	60	0	902823936	45	4238
2026-01-23 12:57:22.22	205.72	20.64	-36.5	-38.1	16.9	0.00e+00	0	60	0	925892608	44	4348
2026-01-23 12:57:26.26	206.32	21.09	-36.7	-38.4	16.7	0.00e+00	0	60	0	948961280	44	4497
2026-01-23 12:57:30.30	206.94	21.55	-36.8	-38.5	16.6	0.00e+00	0	60	0	970981376	44	4562
2026-01-23 12:57:34.34	207.57	22.01	-36.8	-38.4	16.6	0.00e+00	0	60	0	994050048	44	4531
2026-01-23 12:57:38.38	208.23	22.48	-36.4	-38.0	17.1	0.00e+00	0	60	0	1017118720	44	4302
2026-01-23 12:57:42.41	208.90	22.95	-36.2	-37.7	17.3	0.00e+00	0	61	0	1039138816	44	4174
2026-01-23 12:57:46.45	209.60	23.42	-36.2	-37.7	17.3	0.00e+00	0	61	0	1062207488	44	4178
2026-01-23 12:57:50.49	210.31	23.90	-36.1	-37.7	17.4	0.00e+00	0	61	0	1085276160	44	4149
2026-01-23 12:57:54.53	211.05	24.39	-36.3	-37.9	17.2	0.00e+00	0	60	0	1107296256	44	4243
2026-01-23 12:57:58.57	211.81	24.87	-36.1	-37.6	17.5	0.00e+00	0	61	0	1130364928	44	4130
2026-01-23 12:58:02.61	212.60	25.36	-36.0	-37.5	17.6	0.00e+00	0	61	0	1153433600	44	4060
2026-01-23 12:58:06.65	213.40	25.86	-35.9	-37.5	17.5	0.00e+00	0	61	0	1175453696	43	4295
2026-01-23 12:58:10.69	214.24	26.36	-35.8	-37.2	17.6	0.00e+00	0	61	0	1198522368	43	4188
2026-01-23 12:58:14.73	215.10	26.86	-35.5	-37.0	17.9	0.00e+00	0	61	0	1221591040	43	4071
2026-01-23 12:58:18.78	215.99	27.36	-35.6	-37.1	17.8	0.00e+00	0	61	0	1243611136	43	4099
2026-01-23 12:58:22.81	216.90	27.87	-35.6	-37.1	17.8	0.00e+00	0	61	0	1266679808	42	4357
2026-01-23 12:58:26.85	217.84	28.37	-35.5	-36.9	18.0	0.00e+00	0	61	0	1289748480	42	4272
2026-01-23 12:58:30.89	218.81	28.88	-35.6	-37.0	17.9	0.00e+00	0	61	0	1312817152	42	4325
2026-01-23 12:58:34.93	219.82	29.39	-35.4	-36.9	18.0	0.00e+00	0	61	0	1334837248	42	4263
2026-01-23 12:58:38.96	220.85	29.89	-35.4	-36.8	18.1	0.00e+00	0	61	0	1357905920	42	4228
2026-01-23 12:58:43.00	221.91	30.40	-35.4	-36.8	18.1	0.00e+00	0	61	0	1379926016	42	4207
2026-01-23 12:58:47.04	223.01	30.90	-35.3	-36.8	18.2	0.00e+00	0	61	0	1402994688	42	4198
2026-01-23 12:58:51.07	224.14	31.40	-35.3	-36.7	18.3	0.00e+00	0	61	0	1426063360	42	4159
2026-01-23 12:58:55.12	225.32	31.90	-35.2	-36.6	18.3	0.00e+00	0	61	0	1448083456	42	4135
2026-01-23 12:58:59.16	226.52	32.39	-35.3	-36.7	18.2	0.00e+00	0	61	0	1471152128	42	4190
2026-01-23 12:59:03.20	227.76	32.87	-35.2	-36.6	18.3	0.00e+00	0	61	0	1494220800	42	4105
2026-01-23 12:59:07.23	229.03	33.35	-35.4	-36.8	18.0	0.00e+00	0	61	0	1516240896	42	4240
2026-01-23 12:59:11.27	230.35	33.82	-35.3	-36.8	18.1	0.00e+00	0	61	0	1539309568	42	4203
2026-01-23 12:59:15.31	231.70	34.28	-35.3	-36.7	18.2	0.00e+00	0	61	0	1562378240	42	4166
2026-01-23 12:59:19.34	233.08	34.72	-35.1	-36.4	18.4	0.00e+00	0	61	0	1584398336	42	4047
2026-01-23 12:59:23.38	234.51	35.16	-35.2	-36.6	18.3	0.00e+00	0	61	0	1607467008	42	4115
2026-01-23 12:59:27.43	235.97	35.58	-35.2	-36.6	18.3	0.00e+00	0	61	0	1630535680	42	4130
2026-01-23 12:59:31.46	237.47	35.98	-35.1	-36.6	18.3	0.00e+00	0	61	0	1652555776	42	4112
2026-01-23 12:59:35.51	239.01	36.37	-35.1	-36.5	18.4	0.00e+00	0	61	0	1675624448	42	4068
2026-01-23 12:59:39.55	240.58	36.74	-35.0	-36.4	18.4	0.00e+00	0	61	0	1698693120	41	4272
2026-01-23 12:59:43.59	242.19	37.09	-34.9	-36.3	18.6	0.00e+00	0	61	0	1720713216	41	4216
2026-01-23 12:59:47.63	243.83	37.42	-34.9	-36.2	18.6	0.00e+00	0	61	0	1743781888	41	4180
2026-01-23 12:59:51.67	245.50	37.72	-35.1	-36.5	18.4	0.00e+00	0	61	0	1766850560	41	4295
2026-01-23 12:59:55.71	247.20	38.00	-34.8	-36.1	18.8	0.00e+00	0	62	0	1788870656	41	4123
2026-01-23 12:59:59.75	248.92	38.25	-34.8	-36.2	18.7	0.00e+00	0	61	0	1811939328	41	4146
2026-01-23 13:00:03.79	250.68	38.48	-34.9	-36.3	18.6	0.00e+00	0	61	0	1835008000	41	4211
2026-01-23 13:00:07.83	252.45	38.67	-34.9	-36.2	18.6	0.00e+00	0	61	0	1858076672	41	4191
2026-01-23 13:00:11.87	254.25	38.84	-34.9	-36.3	18.6	0.00e+00	0	61	0	1880096768	41	4208
2026-01-23 13:00:15.92	256.06	38.98	-34.7	-36.1	18.8	0.00e+00	0	61	0	1903165440	41	4111
2026-01-23 13:00:19.96	257.89	39.08	-35.1	-36.6	18.3	0.00e+00	0	61	0	1925185536	41	4346
2026-01-23 13:00:23.99	259.71	39.15	-34.9	-36.2	18.6	0.00e+00	0	61	0	1948254208	41	4179
2026-01-23 13:00:28.03	261.55	39.19	-34.9	-36.3	18.5	0.00e+00	0	61	0	1971322880	41	4231
2026-01-23 13:00:32.07	263.40	39.20	-34.8	-36.2	18.7	0.00e+00	0	61	0	1993342976	41	4155
2026-01-23 13:00:36.11	265.24	39.18	-34.8	-36.2	18.7	0.00e+00	0	62	0	2016411648	41	4152
2026-01-23 13:00:40.15	267.07	39.12	-34.9	-36.1	19.1	0.00e+00	0	61	0	2039480320	41	4136
2026-01-23 13:00:44.19	268.90	39.03	-34.9	-36.1	19.1	0.00e+00	0	61	0	2062548992	41	4132
2026-01-23 13:00:48.23	270.72	38.91	-34.8	-36.0	19.1	0.00e+00	0	61	0	2084569088	41	4089
2026-01-23 13:00:52.27	272.52	38.76	-35.0	-36.2	19.0	0.00e+00	0	61	0	2107637760	41	4180
2026-01-23 13:00:56.31	274.30	38.57	-34.9	-36.2	19.0	0.00e+00	0	61	0	2129657856	41	4148
2026-01-23 13:01:00.35	276.06	38.36	-34.9	-36.2	19.0	0.00e+00	0	61	0	2152726528	41	4146
2026-01-23 13:01:04.39	277.80	38.12	-34.9	-36.1	19.1	0.00e+00	0	62	0	2175795200	41	4135
2026-01-23 13:01:08.43	279.51	37.86	-34.8	-36.0	19.1	0.00e+00	0	62	0	2197815296	41	4093
2026-01-23 13:01:12.46	281.18	37.57	-35.1	-36.3	18.9	0.00e+00	0	62	0	2220883968	41	4237
2026-01-23 13:01:16.51	282.84	37.25	-34.9	-36.1	19.1	0.00e+00	0	61	0	2243952640	41	4145
2026-01-23 13:01:20.55	284.46	36.91	-34.8	-36.1	19.1	0.00e+00	0	62	0	2267021312	41	4101
2026-01-23 13:01:24.59	286.04	36.56	-34.9	-36.2	19.0	0.00e+00	0	62	0	2289041408	41	4157
2026-01-23 13:01:28.62	287.59	36.18	-35.1	-36.3	18.8	0.00e+00	0	61	0	2312110080	41	4235
2026-01-23 13:01:32.66	289.10	35.79	-35.2	-36.4	18.8	0.00e+00	0	61	0	2334130176	41	4286
2026-01-23 13:01:36.70	290.58	35.37	-35.1	-36.4	18.8	0.00e+00	0	61	0	2357198848	41	4244
2026-01-23 13:01:40.74	292.02	34.95	-35.2	-36.5	18.6	0.00e+00	0	62	0	2380267520	41	4337
2026-01-23 13:01:44.78	293.42	34.51	-35.3	-36.6	18.6	0.00e+00	0	62	0	2402287616	41	4349
2026-01-23 13:01:48.82	294.78	34.06	-35.3	-36.6	18.6	0.00e+00	0	62	0	2425356288	41	4357
2026-01-23 13:01:52.85	296.11	33.60	-35.2	-36.5	18.7	0.00e+00	0	62	0	2448424960	41	4328
2026-01-23 13:01:56.89	297.40	33.13	-35.3	-36.5	18.6	0.00e+00	0	62	0	2471493632	41	4328
2026-01-23 13:02:00.94	298.65	32.65	-35.4	-36.7	18.5	0.00e+00	0	62	0	2493513728	41	4400
2026-01-23 13:02:04.98	299.87	32.16	-35.5	-36.9	18.3	0.00e+00	0	62	0	2516582400	41	4494
2026-01-23 13:02:09.02	301.05	31.67	-35.5	-36.8	18.3	0.00e+00	0	62	0	2538602496	41	4464
2026-01-23 13:02:13.05	302.20	31.18	-35.3	-36.6	18.5	0.00e+00	0	62	0	2561671168	41	4386
2026-01-23 13:02:17.09	303.31	30.68	-35.7	-37.0	18.1	0.00e+00	0	61	0	2584739840	41	4591
2026-01-23 13:02:21.13	304.39	30.18	-35.8	-37.2	18.0	0.00e+00	0	62	0	2606759936	42	4397
2026-01-23 13:02:25.17	305.44	29.67	-35.5	-36.8	18.3	0.00e+00	0	62	0	2629828608	42	4222
2026-01-23 13:02:29.21	306.45	29.17	-35.8	-37.1	18.0	0.00e+00	0	62	0	2652897280	42	4381
2026-01-23 13:02:33.24	307.43	28.67	-35.8	-37.2	17.9	0.00e+00	0	62	0	2675965952	42	4405
2026-01-23 13:02:37.28	308.39	28.16	-36.0	-37.4	17.7	0.00e+00	0	62	0	2697986048	42	4518
2026-01-23 13:02:41.33	309.32	27.66	-35.8	-37.2	17.9	0.00e+00	0	61	0	2721054720	42	4414
2026-01-23 13:02:45.37	310.21	27.16	-35.6	-36.9	18.2	0.00e+00	0	62	0	2743074816	42	4269
2026-01-23 13:02:49.40	311.08	26.66	-35.8	-37.2	17.9	0.00e+00	0	61	0	2766143488	42	4399
2026-01-23 13:02:53.44	311.93	26.17	-35.8	-37.2	17.9	0.00e+00	0	62	0	2789212160	42	4395
2026-01-23 13:02:57.48	312.74	25.67	-35.7	-37.1	17.9	0.00e+00	0	62	0	2811232256	42	4359
2026-01-23 13:03:01.52	313.54	25.18	-35.9	-37.3	17.7	0.00e+00	0	62	0	2834300928	42	4492
2026-01-23 13:03:05.56	314.31	24.70	-36.0	-37.4	17.6	0.00e+00	0	62	0	2857369600	42	4525
2026-01-23 13:03:09.60	315.06	24.21	-36.1	-37.5	17.6	0.00e+00	0	62	0	2880438272	42	4565
2026-01-23 13:03:13.64	315.78	23.74	-36.1	-37.5	17.4	0.00e+00	0	62	0	2902458368	42	4598
2026-01-23 13:03:17.68	316.49	23.26	-36.2	-37.6	17.4	0.00e+00	0	61	0	2925527040	43	4379
2026-01-23 13:03:21.72	317.17	22.79	-36.1	-37.5	17.4	0.00e+00	0	62	0	2947547136	43	4334
2026-01-23 13:03:25.76	317.83	22.33	-36.2	-37.7	17.3	0.00e+00	0	61	0	2970615808	43	4399
2026-01-23 13:03:29.80	318.48	21.87	-36.4	-37.9	17.0	0.00e+00	0	61	0	2993684480	43	4533
2026-01-23 13:03:33.84	319.11	21.41	-36.5	-37.9	17.0	0.00e+00	0	62	0	3016753152	43	4545
2026-01-23 13:03:37.88	319.72	20.96	-36.6	-38.1	16.9	0.00e+00	0	62	0	3038773248	43	4601
2026-01-23 13:03:41.92	320.31	20.52	-37.1	-38.7	16.4	0.00e+00	0	62	0	3061841920	44	4664
2026-01-23 13:03:45.95	320.88	20.08	-37.2	-38.8	16.2	0.00e+00	0	62	0	3084910592	45	4481
2026-01-23 13:03:49.99	321.44	19.64	-37.2	-38.8	16.3	0.00e+00	0	62	0	3106930688	45	4452
2026-01-23 13:03:54.02	321.99	19.21	-37.2	-38.9	16.2	0.00e+00	0	62	0	3129999360	45	4497
2026-01-23 13:03:58.06	322.52	18.79	-37.4	-39.1	15.9	0.00e+00	0	62	0	3152019456	45	4610
2026-01-23 13:04:02.11	323.04	18.37	-37.4	-39.1	15.9	0.00e+00	0	62	0	3175088128	45	4624
2026-01-23 13:04:06.15	323.54	17.95	-37.5	-39.2	15.8	0.00e+00	0	62	0	3198156800	45	4666
2026-01-23 13:04:10.19	324.03	17.54	-37.4	-39.1	15.8	0.00e+00	0	62	0	3221225472	45	4622
2026-01-23 13:04:14.22	324.51	17.14	-37.5	-39.2	15.8	0.00e+00	0	62	0	3243245568	45	4674
2026-01-23 13:04:18.26	324.97	16.74	-37.6	-39.3	15.6	0.00e+00	0	62	0	3266314240	45	4758
2026-01-23 13:04:22.30	325.43	16.34	-37.6	-39.3	15.6	0.00e+00	0	62	0	3289382912	45	4741
2026-01-23 13:04:26.35	325.87	15.95	-37.6	-39.3	15.5	0.00e+00	0	62	0	3311403008	45	4755
2026-01-23 13:04:30.38	326.30	15.56	-37.9	-39.7	15.2	0.00e+00	0	62	0	3334471680	46	4661
2026-01-23 13:04:34.42	326.72	15.18	-37.9	-39.7	15.2	0.00e+00	0	62	0	3356491776	46	4671
2026-01-23 13:04:38.46	327.13	14.80	-38.0	-39.8	15.0	1.10e-06	0	62	0	3379560448	46	4726
2026-01-23 13:04:42.50	327.53	14.43	-37.9	-39.8	15.1	0.00e+00	0	62	0	3402629120	46	4711
2026-01-23 13:04:46.54	327.92	14.06	-38.1	-39.9	14.8	0.00e+00	0	62	0	3425697792	46	4810
2026-01-23 13:04:50.58	328.31	13.70	-38.2	-40.1	14.6	0.00e+00	0	62	0	3447717888	47	4629
2026-01-23 13:04:54.62	328.68	13.34	-38.4	-40.3	14.4	0.00e+00	0	62	0	3470786560	47	4751
2026-01-23 13:04:58.66	329.05	12.99	-38.5	-40.5	14.2	3.40e-06	0	62	0	3493855232	47	4853
2026-01-23 13:05:02.70	329.40	12.63	-38.5	-40.6	14.1	4.50e-06	0	62	0	3515875328	47	4879
2026-01-23 13:05:06.74	329.75	12.29	-38.6	-40.6	14.0	2.20e-06	0	62	0	3538944000	47	4921
2026-01-23 13:05:10.78	330.09	11.95	-38.7	-40.7	13.9	5.70e-06	0	62	0	3560964096	47	4975
2026-01-23 13:05:14.82	330.43	11.61	-38.6	-40.7	13.9	6.80e-06	0	62	0	3584032768	47	4954
2026-01-23 13:05:18.85	330.75	11.27	-38.6	-40.7	13.8	8.00e-06	0	62	0	3607101440	47	4966
2026-01-23 13:05:22.89	331.07	10.94	-38.8	-40.9	13.7	1.25e-05	0	62	0	3630170112	48	4802
2026-01-23 13:05:26.94	331.39	10.61	-38.8	-41.0	13.6	1.48e-05	0	62	0	3652190208	48	4829
2026-01-23 13:05:30.98	331.70	10.29	-38.9	-41.0	13.5	8.00e-06	0	62	0	3675258880	48	4864
2026-01-23 13:05:35.01	332.00	9.97	-38.9	-41.0	13.4	1.48e-05	0	62	0	3698327552	48	4863
2026-01-23 13:05:39.05	332.29	9.65	-38.9	-41.1	13.4	2.51e-05	0	62	0	3720347648	48	4880
2026-01-23 13:05:43.09	332.58	9.34	-38.8	-41.0	13.3	3.54e-05	0	62	0	3743416320	48	4858
2026-01-23 13:05:47.12	332.86	9.03	-39.0	-41.3	13.0	4.11e-05	0	62	0	3765436416	48	4998
2026-01-23 13:05:51.16	333.14	8.72	-39.1	-41.5	12.7	9.26e-05	0	62	0	3788505088	48	5101
2026-01-23 13:05:55.20	333.41	8.42	-39.1	-41.5	12.6	1.65e-04	0	62	0	3811573760	48	5147
2026-01-23 13:05:59.24	333.68	8.12	-39.2	-41.6	12.4	2.48e-04	0	62	0	3834642432	48	5215
2026-01-23 13:06:03.28	333.94	7.82	-44.8	-56.5	3.8	8.45e-01	0	62	104	3841982464	60	14498
2026-01-23 13:06:07.32	334.19	7.53	-45.2	-57.0	3.8	8.46e-01	0	62	104	3841982464	61	14392
2026-01-23 13:06:11.36	334.45	7.24	-45.2	-57.0	3.8	8.46e-01	0	62	104	3841982464	61	14436
2026-01-23 13:06:15.40	334.69	6.95	-45.2	-56.9	3.8	8.47e-01	0	62	104	3841982464	61	14345
2026-01-23 13:06:19.44	334.94	6.66	-45.1	-56.9	3.8	8.46e-01	0	62	104	3841982464	60	15072
2026-01-23 13:06:23.48	335.18	6.38	-45.1	-56.9	3.8	8.45e-01	0	62	104	3841982464	60	15125
2026-01-23 13:06:27.52	335.41	6.10	-45.1	-56.9	3.8	8.46e-01	0	62	104	3841982464	60	15126
2026-01-23 13:06:31.57	335.64	5.82	-45.1	-56.8	3.8	8.47e-01	0	62	104	3841982464	60	14962
2026-01-23 13:06:35.61	335.87	5.55	-45.1	-56.9	3.8	8.47e-01	0	62	104	3841982464	60	15080
2026-01-23 13:06:39.65	336.09	5.27	-45.0	-56.9	3.8	8.45e-01	0	62	104	3841982464	60	15055
2026-01-23 13:06:43.68	336.31	5.00	-45.1	-56.8	3.8	8.45e-01	0	62	104	3841982464	60	15036
2026-01-23 13:06:47.73	336.52	4.74	-45.1	-56.8	3.8	8.46e-01	0	62	104	3841982464	60	15021
2026-01-23 13:06:51.77	336.74	4.47	-45.1	-56.8	3.8	8.46e-01	0	62	104	3841982464	60	15006
2026-01-23 13:06:55.81	336.94	4.21	-45.1	-56.8	3.8	8.46e-01	0	62	104	3841982464	60	15046
2026-01-23 13:06:59.85	337.15	3.95	-45.1	-56.8	3.8	8.46e-01	0	62	104	3841982464	60	14969
2026-01-23 13:07:03.89	337.35	3.69	-45.1	-56.8	3.8	8.45e-01	0	62	104	3841982464	60	15032
2026-01-23 13:07:07.93	337.55	3.43	-45.0	-56.8	3.8	8.46e-01	0	62	104	3841982464	60	14948
2026-01-23 13:07:11.97	337.74	3.18	-45.1	-56.8	3.8	8.47e-01	0	62	104	3841982464	60	15019
2026-01-23 13:07:16.02	337.94	2.93	-45.1	-56.8	3.8	8.46e-01	0	62	104	3841982464	60	14986
2026-01-23 13:07:20.06	338.13	2.68	-45.1	-56.8	3.8	8.47e-01	0	62	104	3841982464	60	15019
2026-01-23 13:07:24.10	338.31	2.43	-45.1	-56.8	3.8	8.47e-01	0	62	104	3841982464	60	15022
2026-01-23 13:07:28.14	338.50	2.18	-45.1	-56.8	3.8	8.46e-01	0	62	104	3841982464	60	14950
2026-01-23 13:07:32.19	338.68	1.94	-45.1	-56.8	3.8	8.46e-01	0	62	104	3841982464	60	15012

#Closed at: 2026-01-23 13:07:32
#Recorded file [3841 MB]: D:/lorett/data/31039_260123_155335.dat