passes_logs/2026/01/23/R2.0S_Moscow/R2.0S_Moscow__20260123_115752_SUOMI_NPP_rec.log

#Pass ID: 20260123_115752_SUOMI NPP
#Satellite: SUOMI NPP
#Configuration: NPP
#almurnet v.1.7.20251203
#Start time: 2026-01-23 11:57:53

#Version: 2.2.20231116
#Station: R2.0S_Moscow
#Location: 37.707566 lon 55.798166 lat
#TLE: 1 37849U 11061A   26022.50498765  .00000208  00000+0  11976-3 0  9992
#TLE: 2 37849  98.7820 324.4892 0002275  50.8149 309.3229 14.19528284737775

#Time	Az	El	Level	Level2	SNR	BER	BlckErr	Temp	State	Recorded	gain1	gain2
2026-01-23 11:57:53.52	221.89	2.05	-44.2	-58.9	3.8	1.49e+00	0	52	0	0	60	19093
2026-01-23 11:57:56.55	222.17	2.20	-44.2	-58.9	3.8	1.49e+00	0	53	104	0	60	18998
2026-01-23 11:57:59.58	222.45	2.35	-44.2	-58.9	3.8	1.49e+00	0	53	104	0	60	18953
2026-01-23 11:58:02.61	222.73	2.50	-44.2	-58.9	3.8	1.49e+00	0	53	104	0	60	19039
2026-01-23 11:58:05.64	223.01	2.65	-44.2	-58.9	3.8	1.49e+00	0	54	104	0	60	19009
2026-01-23 11:58:08.67	223.29	2.80	-44.2	-58.9	3.8	1.49e+00	0	53	104	0	60	18964
2026-01-23 11:58:11.71	223.58	2.95	-44.2	-58.9	3.8	1.49e+00	0	54	104	0	60	19075
2026-01-23 11:58:14.74	223.87	3.09	-44.2	-58.9	3.8	1.49e+00	0	54	104	0	60	19011
2026-01-23 11:58:17.76	224.17	3.24	-44.2	-58.9	3.8	1.49e+00	0	54	104	0	60	18994
2026-01-23 11:58:20.80	224.46	3.39	-44.2	-58.9	3.8	1.49e+00	0	54	104	0	60	19001
2026-01-23 11:58:23.83	224.76	3.54	-44.2	-58.9	3.8	1.49e+00	0	54	104	0	60	19030
2026-01-23 11:58:26.86	225.07	3.69	-44.2	-58.9	3.8	1.49e+00	0	55	104	0	60	19065
2026-01-23 11:58:29.89	225.37	3.84	-44.2	-58.9	3.8	1.49e+00	0	55	104	0	60	18967
2026-01-23 11:58:32.92	225.68	4.00	-44.2	-58.8	3.8	1.49e+00	0	55	104	0	60	18937
2026-01-23 11:58:35.95	225.99	4.15	-44.2	-58.9	3.8	1.49e+00	0	55	104	0	60	18974
2026-01-23 11:58:38.98	226.31	4.30	-44.2	-58.9	3.8	1.49e+00	0	56	104	0	60	18949
2026-01-23 11:58:42.01	226.62	4.45	-44.2	-58.8	3.8	1.49e+00	0	56	104	0	60	18916
2026-01-23 11:58:45.04	226.95	4.60	-44.2	-58.9	3.8	1.49e+00	0	55	104	0	60	18958
2026-01-23 11:58:48.08	227.27	4.75	-44.2	-58.8	3.8	1.49e+00	0	56	104	0	60	18855
2026-01-23 11:58:51.11	227.60	4.90	-44.2	-58.9	3.8	1.49e+00	0	56	104	0	60	19017
2026-01-23 11:58:54.14	227.93	5.05	-44.2	-58.9	3.8	1.49e+00	0	56	104	0	60	18974
2026-01-23 11:58:57.17	228.26	5.20	-44.2	-58.8	3.8	1.49e+00	0	56	104	0	60	18945
2026-01-23 11:59:00.20	228.60	5.36	-44.2	-58.8	3.8	1.49e+00	0	56	104	0	60	18905
2026-01-23 11:59:03.22	228.94	5.51	-44.2	-58.8	3.8	1.49e+00	0	57	104	0	60	18886
2026-01-23 11:59:06.25	229.29	5.66	-44.2	-58.8	3.8	1.49e+00	0	57	104	0	60	18803
2026-01-23 11:59:09.28	229.63	5.81	-44.2	-58.7	3.8	1.49e+00	0	57	104	0	60	18645
2026-01-23 11:59:12.31	229.98	5.96	-44.2	-58.7	3.8	1.49e+00	0	57	104	0	60	18555
2026-01-23 11:59:15.34	230.34	6.11	-44.2	-58.6	3.8	1.49e+00	0	57	104	0	60	18397
2026-01-23 11:59:18.37	230.70	6.27	-44.2	-58.5	3.8	1.49e+00	0	57	104	0	60	18157
2026-01-23 11:59:21.40	231.06	6.42	-44.1	-58.2	3.8	1.49e+00	0	57	104	0	60	17597
2026-01-23 11:59:24.43	231.43	6.57	-44.1	-57.8	3.8	1.49e+00	0	57	104	0	60	16766
2026-01-23 11:59:27.46	231.80	6.72	-44.0	-57.0	3.8	1.49e+00	0	58	104	0	60	15299
2026-01-23 11:59:30.50	232.17	6.87	-44.0	-55.6	4.1	1.48e+00	0	58	0	0	59	13766
2026-01-23 11:59:33.53	232.55	7.02	-43.9	-54.0	4.6	1.02e+00	0	58	0	2097152	59	11449
2026-01-23 11:59:36.56	232.93	7.17	-43.6	-52.7	5.2	5.92e-01	0	58	0	8388608	59	9924
2026-01-23 11:59:39.59	233.31	7.32	-43.6	-52.7	5.3	5.62e-01	0	58	0	13631488	59	9861
2026-01-23 11:59:42.62	233.70	7.47	-43.7	-53.6	4.8	8.22e-01	0	58	0	19922944	59	10950
2026-01-23 11:59:45.65	234.09	7.63	-43.7	-52.9	5.1	7.07e-01	0	58	0	25165824	59	10111
2026-01-23 11:59:48.68	234.49	7.78	-43.2	-50.1	7.3	1.53e-01	0	58	0	30408704	58	7766
2026-01-23 11:59:51.72	234.89	7.93	-42.7	-48.3	9.1	2.14e-02	0	58	0	36700160	57	6713
2026-01-23 11:59:54.75	235.29	8.07	-42.8	-48.3	9.2	1.37e-02	0	58	0	41943040	57	6712
2026-01-23 11:59:57.78	235.70	8.22	-44.2	-58.3	3.8	1.20e+00	0	58	104	47185920	58	19906
2026-01-23 12:00:00.80	236.11	8.37	-42.5	-47.5	10.0	9.32e-03	0	59	0	50331648	57	6110
2026-01-23 12:00:03.83	236.53	8.52	-42.3	-47.2	10.4	5.57e-03	0	59	0	56623104	56	6224
2026-01-23 12:00:06.86	236.95	8.67	-42.4	-47.3	10.3	4.50e-03	0	59	0	61865984	56	6283
2026-01-23 12:00:09.89	237.38	8.82	-42.3	-47.1	10.4	3.82e-03	0	59	0	68157440	56	6179
2026-01-23 12:00:12.91	237.80	8.96	-42.1	-46.6	11.0	2.41e-03	0	59	0	73400320	56	5835
2026-01-23 12:00:15.94	238.24	9.11	-41.8	-46.0	11.5	1.02e-03	0	59	0	78643200	55	5737
2026-01-23 12:00:18.97	238.67	9.25	-41.8	-46.1	11.4	8.49e-04	0	59	0	84934656	55	5796
2026-01-23 12:00:22.00	239.11	9.40	-41.8	-46.0	11.4	8.32e-04	0	59	0	90177536	55	5787
2026-01-23 12:00:25.03	239.56	9.54	-41.5	-45.4	12.1	2.93e-04	0	59	0	96468992	55	5374
2026-01-23 12:00:28.06	240.01	9.69	-41.4	-45.1	12.4	1.17e-04	0	59	0	101711872	54	5522
2026-01-23 12:00:31.08	240.46	9.83	-41.5	-45.3	12.3	1.79e-04	0	59	0	108003328	54	5627
2026-01-23 12:00:34.11	240.92	9.97	-41.7	-45.8	11.7	5.06e-04	0	59	0	113246208	54	5954
2026-01-23 12:00:37.14	241.38	10.11	-41.8	-46.0	11.6	6.24e-04	0	59	0	118489088	54	6067
2026-01-23 12:00:40.18	241.85	10.25	-41.6	-45.6	11.9	3.71e-04	0	59	0	124780544	54	5832
2026-01-23 12:00:43.21	242.32	10.39	-41.7	-45.6	11.9	3.75e-04	0	59	0	130023424	54	5836
2026-01-23 12:00:46.23	242.80	10.53	-41.7	-45.7	11.9	5.19e-04	0	59	0	136314880	54	5887
2026-01-23 12:00:49.27	243.28	10.67	-41.7	-45.7	11.8	4.44e-04	0	59	0	141557760	54	5911
2026-01-23 12:00:52.30	243.77	10.81	-41.7	-45.6	12.0	3.50e-04	0	59	0	146800640	54	5817
2026-01-23 12:00:55.32	244.25	10.94	-41.7	-45.7	11.9	4.29e-04	0	60	0	153092096	54	5880
2026-01-23 12:00:58.35	244.75	11.08	-41.7	-45.7	11.9	3.56e-04	0	60	0	158334976	54	5871
2026-01-23 12:01:01.38	245.24	11.21	-41.7	-45.7	12.0	2.75e-04	0	60	0	164626432	54	5868
2026-01-23 12:01:04.41	245.75	11.34	-41.7	-45.5	12.1	3.10e-04	0	60	0	169869312	54	5784
2026-01-23 12:01:07.44	246.25	11.47	-41.9	-46.1	11.4	8.01e-04	0	60	0	176160768	54	6201
2026-01-23 12:01:10.47	246.76	11.60	-41.8	-45.9	11.7	8.12e-04	0	60	0	181403648	54	6019
2026-01-23 12:01:13.50	247.28	11.73	-41.8	-45.8	11.8	5.87e-04	0	60	0	186646528	54	5979
2026-01-23 12:01:16.53	247.80	11.86	-41.9	-46.0	11.6	5.48e-04	0	60	0	192937984	54	6120
2026-01-23 12:01:19.56	248.32	11.98	-42.0	-46.2	11.4	9.50e-04	0	60	0	198180864	54	6250
2026-01-23 12:01:22.59	248.85	12.11	-42.0	-46.2	11.4	9.02e-04	0	60	0	204472320	54	6226
2026-01-23 12:01:25.61	249.38	12.23	-42.0	-46.3	11.3	8.98e-04	0	60	0	209715200	54	6292
2026-01-23 12:01:28.64	249.92	12.35	-41.9	-46.2	11.5	8.57e-04	0	60	0	214958080	54	6216
2026-01-23 12:01:31.67	250.46	12.47	-42.1	-46.5	11.1	1.52e-03	0	60	0	221249536	54	6457
2026-01-23 12:01:34.70	251.00	12.58	-42.3	-46.9	10.7	2.51e-03	0	60	0	226492416	55	6360
2026-01-23 12:01:37.73	251.55	12.70	-42.4	-47.1	10.5	3.38e-03	0	60	0	232783872	55	6539
2026-01-23 12:01:40.76	252.11	12.81	-42.3	-47.1	10.5	3.69e-03	0	60	0	238026752	55	6514
2026-01-23 12:01:43.79	252.67	12.92	-42.4	-47.2	10.3	5.40e-03	0	60	0	244318208	55	6609
2026-01-23 12:01:46.81	253.23	13.03	-42.6	-47.7	9.9	9.29e-03	0	60	0	249561088	55	7014
2026-01-23 12:01:49.84	253.79	13.14	-42.6	-47.7	9.9	8.61e-03	0	60	0	254803968	55	7001
2026-01-23 12:01:52.87	254.36	13.25	-42.6	-47.7	9.8	8.42e-03	0	60	0	261095424	55	7023
2026-01-23 12:01:55.90	254.93	13.35	-42.7	-47.9	9.7	1.05e-02	0	60	0	266338304	55	7150
2026-01-23 12:01:58.93	255.51	13.45	-42.8	-47.9	9.8	8.89e-03	0	61	0	272629760	56	6771
2026-01-23 12:02:01.95	256.09	13.55	-42.7	-47.6	10.2	6.21e-03	0	61	0	277872640	56	6517
2026-01-23 12:02:04.98	256.68	13.64	-42.7	-47.9	9.9	8.01e-03	0	60	0	283115520	56	6739
2026-01-23 12:02:08.01	257.26	13.74	-42.8	-48.1	9.7	1.34e-02	0	61	0	289406976	56	6904
2026-01-23 12:02:11.03	257.85	13.83	-42.8	-47.9	9.9	9.39e-03	0	60	0	294649856	56	6730
2026-01-23 12:02:14.06	258.45	13.92	-42.7	-47.8	10.0	7.46e-03	0	60	0	300941312	56	6656
2026-01-23 12:02:17.09	259.05	14.01	-42.5	-47.2	10.6	4.04e-03	0	61	0	306184192	56	6274
2026-01-23 12:02:20.12	259.65	14.09	-42.2	-46.6	11.3	1.29e-03	0	61	0	312475648	56	5813
2026-01-23 12:02:23.14	260.25	14.17	-42.0	-46.1	11.7	7.41e-04	0	61	0	317718528	56	5505
2026-01-23 12:02:26.17	260.86	14.25	-41.9	-46.1	11.5	6.19e-04	0	61	0	322961408	55	5811
2026-01-23 12:02:29.20	261.47	14.32	-42.0	-46.2	11.4	7.41e-04	0	61	0	329252864	55	5923
2026-01-23 12:02:32.22	262.09	14.40	-42.0	-46.1	11.5	7.22e-04	0	60	0	334495744	55	5844
2026-01-23 12:02:35.25	262.70	14.47	-41.6	-45.4	12.3	1.73e-04	0	61	0	340787200	55	5383
2026-01-23 12:02:38.28	263.32	14.53	-41.8	-45.8	11.9	2.55e-04	0	61	0	346030080	55	5594
2026-01-23 12:02:41.30	263.95	14.60	-42.0	-46.2	11.5	7.82e-04	0	61	0	351272960	55	5874
2026-01-23 12:02:44.33	264.57	14.66	-41.8	-45.8	11.9	3.49e-04	0	61	0	357564416	55	5609
2026-01-23 12:02:47.35	265.20	14.72	-42.0	-46.3	11.3	1.06e-03	0	61	0	362807296	55	5991
2026-01-23 12:02:50.38	265.83	14.77	-42.2	-46.7	11.0	2.27e-03	0	60	0	369098752	55	6238
2026-01-23 12:02:53.40	266.46	14.82	-42.0	-46.3	11.3	1.08e-03	0	61	0	374341632	55	5962
2026-01-23 12:02:56.42	267.09	14.87	-42.5	-47.5	10.1	5.33e-03	0	61	0	379584512	55	6877
2026-01-23 12:02:59.45	267.72	14.92	-42.7	-47.6	10.1	8.17e-03	0	61	0	385875968	56	6565
2026-01-23 12:03:02.48	268.36	14.96	-42.0	-46.0	11.8	6.27e-04	0	61	0	391118848	56	5427
2026-01-23 12:03:05.51	269.00	15.00	-42.0	-46.4	11.2	8.53e-04	0	61	0	397410304	55	6037
2026-01-23 12:03:08.53	269.64	15.03	-42.1	-46.4	11.2	1.65e-03	0	61	0	402653184	55	6039
2026-01-23 12:03:11.56	270.28	15.07	-41.6	-45.5	12.1	3.31e-04	0	61	0	407896064	55	5432
2026-01-23 12:03:14.59	270.93	15.10	-41.7	-45.7	12.0	3.77e-04	0	61	0	414187520	55	5547
2026-01-23 12:03:17.61	271.57	15.12	-41.6	-45.5	12.1	3.09e-04	0	61	0	419430400	55	5440
2026-01-23 12:03:20.64	272.22	15.14	-41.7	-45.6	12.1	2.55e-04	0	61	0	425721856	55	5473
2026-01-23 12:03:23.67	272.86	15.16	-42.0	-46.2	11.4	9.74e-04	0	61	0	430964736	55	5916
2026-01-23 12:03:26.70	273.51	15.18	-41.7	-45.7	11.8	5.07e-04	0	61	0	437256192	55	5588
2026-01-23 12:03:29.72	274.16	15.19	-41.6	-45.5	12.1	2.01e-04	0	61	0	442499072	55	5429
2026-01-23 12:03:32.75	274.80	15.20	-42.0	-46.4	11.2	1.17e-03	0	61	0	447741952	55	6011
2026-01-23 12:03:35.78	275.45	15.21	-42.0	-46.2	11.3	1.11e-03	0	61	0	454033408	55	5909
2026-01-23 12:03:38.80	276.10	15.21	-42.0	-46.2	11.3	1.05e-03	0	61	0	459276288	55	5923
2026-01-23 12:03:41.83	276.75	15.21	-42.0	-46.2	11.4	1.13e-03	0	61	0	465567744	55	5907
2026-01-23 12:03:44.86	277.40	15.20	-41.9	-46.0	11.6	5.92e-04	0	61	0	470810624	55	5744
2026-01-23 12:03:47.89	278.04	15.19	-42.1	-46.6	10.9	1.93e-03	0	61	0	476053504	55	6183
2026-01-23 12:03:50.91	278.69	15.18	-41.9	-46.0	11.6	8.01e-04	0	61	0	482344960	55	5761
2026-01-23 12:03:53.94	279.34	15.17	-41.6	-45.6	12.0	2.76e-04	0	61	0	487587840	55	5471
2026-01-23 12:03:56.97	279.98	15.15	-41.8	-45.9	11.7	6.21e-04	0	61	0	493879296	55	5664
2026-01-23 12:04:00.00	280.63	15.13	-41.6	-45.5	12.0	3.33e-04	0	61	0	499122176	55	5440
2026-01-23 12:04:03.03	281.27	15.10	-41.6	-45.4	12.1	2.40e-04	0	61	0	505413632	54	5712
2026-01-23 12:04:06.06	281.92	15.07	-41.7	-45.8	11.8	4.06e-04	0	61	0	510656512	54	5928
2026-01-23 12:04:09.09	282.56	15.04	-41.3	-45.0	12.5	1.22e-04	0	61	0	515899392	54	5448
2026-01-23 12:04:12.12	283.20	15.01	-41.1	-44.6	13.0	3.96e-05	0	61	0	522190848	54	5195
2026-01-23 12:04:15.15	283.84	14.97	-41.4	-45.1	12.4	1.38e-04	0	61	0	527433728	54	5503
2026-01-23 12:04:18.18	284.47	14.93	-41.6	-45.5	12.0	2.85e-04	0	61	0	533725184	54	5754
2026-01-23 12:04:21.21	285.11	14.88	-41.5	-45.5	12.0	3.43e-04	0	61	0	538968064	54	5755
2026-01-23 12:04:24.24	285.74	14.83	-41.5	-45.5	11.9	4.03e-04	0	61	0	544210944	54	5780
2026-01-23 12:04:27.27	286.37	14.78	-41.5	-45.6	11.9	4.29e-04	0	61	0	550502400	54	5790
2026-01-23 12:04:30.29	287.00	14.73	-41.6	-45.8	11.6	6.72e-04	0	61	0	555745280	54	5925
2026-01-23 12:04:33.32	287.63	14.67	-41.7	-45.9	11.4	9.96e-04	0	61	0	562036736	54	6052
2026-01-23 12:04:36.35	288.25	14.61	-41.5	-45.6	11.8	5.08e-04	0	61	0	567279616	54	5794
2026-01-23 12:04:39.38	288.87	14.55	-41.3	-45.2	12.1	2.59e-04	0	61	0	573571072	54	5556
2026-01-23 12:04:42.41	289.49	14.48	-41.0	-44.6	12.7	1.11e-04	0	61	0	578813952	54	5199
2026-01-23 12:04:45.44	290.11	14.41	-40.9	-44.4	12.9	5.87e-05	0	61	0	584056832	53	5363
2026-01-23 12:04:48.46	290.72	14.34	-40.9	-44.4	12.9	4.95e-05	0	61	0	590348288	53	5389
2026-01-23 12:04:51.49	291.33	14.26	-40.5	-43.8	13.5	2.89e-05	0	61	0	595591168	53	4993
2026-01-23 12:04:54.52	291.94	14.19	-40.7	-44.1	13.1	3.50e-05	0	61	0	601882624	53	5208
2026-01-23 12:04:57.54	292.54	14.11	-41.0	-44.7	12.5	9.76e-05	0	61	0	607125504	53	5536
2026-01-23 12:05:00.57	293.14	14.02	-41.1	-44.8	12.3	2.39e-04	0	61	0	612368384	53	5643
2026-01-23 12:05:03.60	293.74	13.94	-41.2	-45.1	12.0	2.87e-04	0	61	0	618659840	53	5841
2026-01-23 12:05:06.62	294.33	13.85	-41.1	-44.7	12.5	1.43e-04	0	61	0	623902720	53	5585
2026-01-23 12:05:09.65	294.92	13.76	-40.8	-44.4	12.8	6.86e-05	0	61	0	630194176	53	5352
2026-01-23 12:05:12.68	295.50	13.67	-40.8	-44.3	12.9	3.58e-05	0	61	0	635437056	53	5321
2026-01-23 12:05:15.70	296.09	13.57	-40.6	-43.8	13.5	1.14e-05	0	61	0	640679936	52	5300
2026-01-23 12:05:18.74	296.67	13.47	-40.7	-44.0	13.3	1.22e-05	0	61	0	646971392	52	5411
2026-01-23 12:05:21.76	297.24	13.38	-40.8	-44.2	13.2	2.05e-05	0	61	0	652214272	52	5536
2026-01-23 12:05:24.79	297.81	13.27	-40.8	-44.2	13.2	1.75e-05	0	62	0	658505728	52	5556
2026-01-23 12:05:27.82	298.38	13.17	-41.1	-44.7	12.7	7.47e-05	0	61	0	663748608	52	5907
2026-01-23 12:05:30.85	298.94	13.06	-41.1	-44.7	12.7	7.01e-05	0	61	0	670040064	52	5883
2026-01-23 12:05:33.87	299.50	12.96	-41.0	-44.4	13.1	4.11e-05	0	61	0	675282944	52	5678
2026-01-23 12:05:36.90	300.06	12.85	-41.2	-44.8	12.7	1.16e-04	0	61	0	680525824	53	5624
2026-01-23 12:05:39.93	300.61	12.73	-41.1	-44.7	12.8	6.33e-05	0	61	0	686817280	53	5540
2026-01-23 12:05:42.96	301.16	12.62	-41.1	-44.7	12.8	5.95e-05	0	61	0	692060160	53	5582
2026-01-23 12:05:45.99	301.70	12.50	-41.4	-45.2	12.2	1.62e-04	0	61	0	698351616	53	5881
2026-01-23 12:05:49.02	302.24	12.39	-41.6	-45.7	11.7	4.96e-04	0	61	0	703594496	53	6273
2026-01-23 12:05:52.04	302.77	12.27	-41.6	-45.7	11.8	4.44e-04	0	61	0	708837376	53	6206
2026-01-23 12:05:55.07	303.30	12.15	-41.5	-45.4	12.0	3.42e-04	0	61	0	715128832	53	6056
2026-01-23 12:05:58.10	303.83	12.02	-41.9	-46.2	11.3	6.87e-04	0	61	0	720371712	54	6219
2026-01-23 12:06:01.13	304.35	11.90	-42.2	-46.9	10.4	4.15e-03	0	62	0	726663168	55	6418
2026-01-23 12:06:04.16	304.87	11.78	-42.2	-47.0	10.3	4.66e-03	0	62	0	731906048	55	6473
2026-01-23 12:06:07.19	305.38	11.65	-42.2	-47.0	10.3	5.10e-03	0	62	0	737148928	55	6456
2026-01-23 12:06:10.22	305.89	11.52	-42.3	-47.4	9.9	8.79e-03	0	61	0	743440384	55	6781
2026-01-23 12:06:13.25	306.40	11.39	-42.1	-46.7	10.6	4.96e-03	0	61	0	748683264	55	6260
2026-01-23 12:06:16.28	306.90	11.26	-41.9	-46.2	11.2	1.59e-03	0	61	0	754974720	55	5917
2026-01-23 12:06:19.30	307.39	11.13	-42.1	-46.8	10.6	3.22e-03	0	62	0	760217600	55	6293
2026-01-23 12:06:22.33	307.89	11.00	-42.4	-47.6	9.7	1.15e-02	0	61	0	766509056	55	6932
2026-01-23 12:06:25.36	308.37	10.86	-42.4	-47.7	9.6	1.22e-02	0	61	0	771751936	55	6989
2026-01-23 12:06:28.39	308.86	10.73	-42.4	-47.8	9.5	1.38e-02	0	61	0	776994816	55	7075
2026-01-23 12:06:31.42	309.34	10.59	-42.4	-47.7	9.6	1.41e-02	0	61	0	783286272	55	6973
2026-01-23 12:06:34.45	309.81	10.45	-42.2	-47.2	10.0	8.18e-03	0	61	0	788529152	55	6614
2026-01-23 12:06:37.48	310.28	10.32	-42.3	-47.4	9.9	8.32e-03	0	61	0	794820608	55	6737
2026-01-23 12:06:40.51	310.75	10.18	-42.2	-47.4	9.8	1.34e-02	0	61	0	800063488	55	6756
2026-01-23 12:06:43.54	311.21	10.04	-42.0	-46.8	10.4	6.65e-03	0	62	0	805306368	55	6304
2026-01-23 12:06:46.57	311.66	9.90	-41.9	-46.5	10.7	2.78e-03	0	61	0	811597824	55	6088
2026-01-23 12:06:49.60	312.12	9.76	-41.8	-46.4	10.7	2.84e-03	0	61	0	816840704	55	6046
2026-01-23 12:06:52.63	312.57	9.61	-42.2	-47.3	9.8	7.40e-03	0	62	0	823132160	55	6719
2026-01-23 12:06:55.66	313.01	9.47	-42.3	-47.7	9.5	1.43e-02	0	62	0	828375040	55	6978
2026-01-23 12:06:58.68	313.45	9.33	-42.3	-47.6	9.5	1.50e-02	0	62	0	834666496	55	6913
2026-01-23 12:07:01.71	313.89	9.18	-42.1	-47.3	9.7	1.03e-02	0	61	0	839909376	55	6662
2026-01-23 12:07:04.74	314.32	9.04	-42.0	-47.0	10.0	7.00e-03	0	62	0	845152256	55	6476
2026-01-23 12:07:07.77	314.75	8.90	-41.9	-46.7	10.4	4.91e-03	0	61	0	851443712	55	6214
2026-01-23 12:07:10.80	315.17	8.75	-41.8	-46.5	10.6	4.06e-03	0	61	0	856686592	55	6091
2026-01-23 12:07:13.83	315.59	8.60	-41.7	-46.3	10.8	2.48e-03	0	62	0	862978048	55	5926
2026-01-23 12:07:16.85	316.00	8.46	-41.8	-46.5	10.5	3.27e-03	0	61	0	868220928	55	6113
2026-01-23 12:07:19.88	316.41	8.31	-41.8	-46.5	10.6	3.57e-03	0	61	0	873463808	55	6084
2026-01-23 12:07:22.91	316.82	8.16	-41.7	-46.1	11.0	2.72e-03	0	61	0	879755264	55	5831
2026-01-23 12:07:25.94	317.23	8.02	-41.7	-46.1	11.0	1.70e-03	0	62	0	884998144	55	5796
2026-01-23 12:07:28.97	317.63	7.87	-44.8	-59.5	3.8	1.49e+00	0	62	104	886046720	60	20341
2026-01-23 12:07:32.00	318.02	7.72	-45.2	-59.8	3.8	1.49e+00	0	62	104	886046720	60	21226
2026-01-23 12:07:35.03	318.41	7.57	-45.3	-59.9	3.8	1.49e+00	0	62	104	886046720	61	20241
2026-01-23 12:07:38.06	318.80	7.42	-44.9	-59.8	3.8	1.49e+00	0	61	104	886046720	60	21212
2026-01-23 12:07:41.09	319.19	7.27	-45.2	-59.8	3.8	1.49e+00	0	62	104	886046720	60	21028
2026-01-23 12:07:44.12	319.57	7.13	-45.0	-59.7	3.8	1.49e+00	0	61	104	886046720	60	20908
2026-01-23 12:07:47.15	319.94	6.98	-45.1	-59.7	3.8	1.49e+00	0	62	104	886046720	60	20913
2026-01-23 12:07:50.19	320.32	6.83	-45.1	-59.7	3.8	1.49e+00	0	62	104	886046720	60	20842
2026-01-23 12:07:53.21	320.68	6.68	-45.1	-59.7	3.8	1.49e+00	0	62	104	886046720	60	20941
2026-01-23 12:07:56.24	321.05	6.53	-45.1	-59.7	3.8	1.49e+00	0	62	104	886046720	60	20955
2026-01-23 12:07:59.27	321.41	6.38	-45.1	-59.7	3.8	1.49e+00	0	62	104	886046720	60	20883
2026-01-23 12:08:02.31	321.77	6.23	-45.0	-59.7	3.8	1.49e+00	0	62	104	886046720	60	20952
2026-01-23 12:08:05.34	322.13	6.08	-45.1	-59.7	3.8	1.49e+00	0	62	104	886046720	60	20869
2026-01-23 12:08:08.37	322.48	5.93	-45.1	-59.7	3.8	1.49e+00	0	61	104	886046720	60	20826
2026-01-23 12:08:11.40	322.83	5.78	-45.1	-59.7	3.8	1.49e+00	0	62	104	886046720	60	20786
2026-01-23 12:08:14.43	323.17	5.63	-45.1	-59.7	3.8	1.49e+00	0	62	104	886046720	60	20823
2026-01-23 12:08:17.46	323.51	5.48	-45.1	-59.7	3.8	1.49e+00	0	62	104	886046720	60	20854
2026-01-23 12:08:20.49	323.85	5.33	-45.1	-59.7	3.8	1.49e+00	0	62	104	886046720	60	20857
2026-01-23 12:08:23.52	324.19	5.18	-45.0	-59.7	3.8	1.49e+00	0	62	104	886046720	60	20838
2026-01-23 12:08:26.55	324.52	5.03	-45.0	-59.7	3.8	1.49e+00	0	62	104	886046720	60	20793
2026-01-23 12:08:29.58	324.84	4.88	-45.0	-59.7	3.8	1.49e+00	0	62	104	886046720	60	20827
2026-01-23 12:08:32.61	325.17	4.73	-45.0	-59.7	3.8	1.49e+00	0	62	104	886046720	60	20893
2026-01-23 12:08:35.64	325.49	4.58	-45.1	-59.7	3.8	1.49e+00	0	62	104	886046720	60	20811
2026-01-23 12:08:38.66	325.81	4.43	-45.0	-59.6	3.8	1.49e+00	0	61	104	886046720	60	20772
2026-01-23 12:08:41.69	326.12	4.28	-45.1	-59.7	3.8	1.49e+00	0	62	104	886046720	60	20807
2026-01-23 12:08:44.72	326.44	4.14	-45.0	-59.7	3.8	1.49e+00	0	62	104	886046720	60	20792
2026-01-23 12:08:47.75	326.75	3.99	-45.1	-59.7	3.8	1.49e+00	0	62	104	886046720	60	20799
2026-01-23 12:08:50.78	327.05	3.84	-45.0	-59.7	3.8	1.49e+00	0	62	104	886046720	60	20802
2026-01-23 12:08:53.81	327.36	3.69	-45.0	-59.7	3.8	1.49e+00	0	62	104	886046720	60	20853
2026-01-23 12:08:56.84	327.66	3.54	-45.0	-59.7	3.8	1.49e+00	0	62	104	886046720	60	20795
2026-01-23 12:08:59.87	327.96	3.39	-45.0	-59.6	3.8	1.49e+00	0	62	104	886046720	60	20775
2026-01-23 12:09:02.90	328.25	3.25	-45.0	-59.7	3.8	1.49e+00	0	62	104	886046720	60	20803
2026-01-23 12:09:05.93	328.54	3.10	-45.0	-59.6	3.8	1.49e+00	0	62	104	886046720	60	20765
2026-01-23 12:09:08.96	328.83	2.95	-45.0	-59.6	3.8	1.49e+00	0	62	104	886046720	60	20774
2026-01-23 12:09:11.99	329.12	2.80	-45.0	-59.7	3.8	1.49e+00	0	62	104	886046720	60	20852
2026-01-23 12:09:15.02	329.40	2.66	-45.0	-59.6	3.8	1.49e+00	0	62	104	886046720	60	20734
2026-01-23 12:09:18.05	329.68	2.51	-45.0	-59.6	3.8	1.49e+00	0	62	104	886046720	60	20698
2026-01-23 12:09:21.09	329.96	2.36	-45.0	-59.6	3.8	1.49e+00	0	62	104	886046720	60	20596
2026-01-23 12:09:24.11	330.24	2.22	-44.8	-59.6	3.8	1.49e+00	0	62	104	886046720	60	20727
2026-01-23 12:09:27.15	330.51	2.07	-45.0	-59.7	3.8	1.49e+00	0	62	104	886046720	60	20780

#Closed at: 2026-01-23 12:09:29
#Recorded file [886 MB]: D:/lorett/data/31039_260123_145753.dat