passes_logs/2026/01/23/R2.0S_Moscow/R2.0S_Moscow__20260123_205837_FENGYUN_3G_rec.log

#Pass ID: 20260123_205837_FENGYUN 3G
#Satellite: FENGYUN 3G
#Configuration: FENGYUN 3G
#almurnet v.1.7.20251203
#Start time: 2026-01-23 20:58:38

#Version: 2.2.20231116
#Station: R2.0S_Moscow
#Location: 37.707566 lon 55.798166 lat
#TLE: 1 56232U 23055A   26022.95932522  .00036289  00000+0  55235-3 0  9992
#TLE: 2 56232  49.9946  14.8507 0004090  68.3647 291.7756 15.54106507157434

#Time	Az	El	Level	Level2	SNR	BER	BlckErr	Temp	State	Recorded	gain1	gain2
2026-01-23 20:58:38.28	261.21	2.07	-44.1	-62.1	3.8	8.46e-01	0	52	0	0	60	27468
2026-01-23 20:58:41.30	260.98	2.26	-44.1	-61.7	3.8	8.47e-01	0	52	104	0	60	26307
2026-01-23 20:58:44.34	260.76	2.46	-44.1	-61.7	3.8	8.47e-01	0	52	104	0	60	26299
2026-01-23 20:58:47.37	260.52	2.66	-44.1	-62.1	3.8	8.46e-01	0	52	104	0	60	27556
2026-01-23 20:58:50.40	260.29	2.86	-44.1	-62.2	3.8	8.46e-01	0	53	104	0	60	27762
2026-01-23 20:58:53.43	260.05	3.06	-44.1	-62.1	3.8	8.46e-01	0	53	104	0	60	27700
2026-01-23 20:58:56.46	259.80	3.27	-44.1	-62.1	3.8	8.46e-01	0	53	104	0	60	27407
2026-01-23 20:58:59.49	259.55	3.47	-44.1	-62.0	3.8	8.47e-01	0	53	104	0	60	27341
2026-01-23 20:59:02.53	259.29	3.68	-44.1	-62.1	3.8	8.46e-01	0	53	104	0	60	27595
2026-01-23 20:59:05.56	259.03	3.89	-44.1	-62.2	3.8	8.45e-01	0	54	104	0	60	27995
2026-01-23 20:59:08.59	258.76	4.11	-44.1	-62.2	3.8	8.47e-01	0	54	104	0	60	27927
2026-01-23 20:59:11.62	258.49	4.32	-44.1	-62.2	3.8	8.47e-01	0	54	104	0	60	27891
2026-01-23 20:59:14.65	258.21	4.54	-44.1	-62.1	3.8	8.47e-01	0	54	104	0	60	27484
2026-01-23 20:59:17.68	257.92	4.76	-44.1	-61.4	3.8	8.45e-01	0	54	104	0	60	25434
2026-01-23 20:59:20.71	257.63	4.98	-44.1	-60.9	3.8	8.45e-01	0	54	104	0	60	24084
2026-01-23 20:59:23.74	257.33	5.20	-44.1	-61.5	3.8	8.46e-01	0	55	104	0	60	25577
2026-01-23 20:59:26.77	257.02	5.43	-44.1	-61.8	3.8	8.46e-01	0	55	104	0	60	26628
2026-01-23 20:59:29.81	256.71	5.66	-44.1	-60.6	3.8	8.47e-01	0	55	104	0	60	23226
2026-01-23 20:59:32.84	256.39	5.89	-44.0	-59.3	4.1	8.44e-01	0	55	104	0	60	19856
2026-01-23 20:59:35.87	256.06	6.12	-44.0	-58.8	4.2	8.39e-01	0	55	0	0	60	18797
2026-01-23 20:59:38.90	255.73	6.35	-44.0	-57.4	4.7	8.31e-01	0	55	0	0	59	16954
2026-01-23 20:59:41.94	255.38	6.59	-43.7	-53.9	7.0	6.45e-01	0	56	0	1048576	59	11382
2026-01-23 20:59:44.97	255.03	6.83	-43.3	-51.1	9.9	5.82e-02	0	56	0	4718592	58	8679
2026-01-23 20:59:48.00	254.67	7.08	-43.4	-51.9	9.1	7.55e-03	0	56	0	7864320	58	9504
2026-01-23 20:59:51.03	254.30	7.32	-44.1	-59.7	4.0	1.13e-01	0	56	0	10485760	58	23344
2026-01-23 20:59:54.07	253.93	7.57	-43.5	-52.3	8.6	8.45e-01	0	56	0	11010048	58	9946
2026-01-23 20:59:57.10	253.54	7.82	-41.7	-46.4	14.7	3.20e-05	0	56	0	14680064	55	6004
2026-01-23 21:00:00.13	253.14	8.08	-41.5	-45.9	15.1	0.00e+00	0	56	0	18350080	54	6028
2026-01-23 21:00:03.15	252.74	8.34	-43.9	-57.2	4.9	2.63e-02	0	56	0	20971520	58	17649
2026-01-23 21:00:06.18	252.32	8.60	-40.8	-44.6	16.6	3.09e-03	0	57	0	24117248	53	5471
2026-01-23 21:00:09.21	251.90	8.86	-40.8	-44.4	16.7	0.00e+00	0	57	0	27787264	53	5390
2026-01-23 21:00:12.24	251.46	9.13	-40.7	-44.3	16.9	0.00e+00	0	57	0	30932992	53	5288
2026-01-23 21:00:15.27	251.01	9.40	-40.7	-44.3	16.9	0.00e+00	0	57	0	34603008	53	5299
2026-01-23 21:00:18.30	250.55	9.67	-40.6	-44.1	17.1	0.00e+00	0	57	0	37748736	53	5189
2026-01-23 21:00:21.32	250.08	9.94	-40.7	-44.2	17.1	0.00e+00	0	57	0	41418752	53	5234
2026-01-23 21:00:24.35	249.60	10.22	-40.6	-44.0	17.2	0.00e+00	0	57	0	44564480	53	5157
2026-01-23 21:00:27.38	249.10	10.51	-40.5	-43.9	17.4	0.00e+00	0	57	0	48234496	53	5093
2026-01-23 21:00:30.41	248.59	10.79	-40.3	-43.6	17.7	0.00e+00	0	57	0	51380224	52	5170
2026-01-23 21:00:33.44	248.07	11.08	-40.3	-43.4	17.9	0.00e+00	0	57	0	55050240	52	5086
2026-01-23 21:00:36.47	247.53	11.37	-40.1	-43.2	18.1	0.00e+00	0	57	0	58195968	52	4975
2026-01-23 21:00:39.49	246.98	11.67	-40.1	-43.1	18.3	0.00e+00	0	57	0	61865984	52	4879
2026-01-23 21:00:42.52	246.41	11.96	-39.9	-42.9	18.6	0.00e+00	0	57	0	65011712	51	5056
2026-01-23 21:00:45.55	245.83	12.27	-39.9	-42.8	18.7	0.00e+00	0	57	0	68681728	51	5000
2026-01-23 21:00:48.58	245.23	12.57	-39.8	-42.7	18.8	0.00e+00	0	58	0	71827456	51	4940
2026-01-23 21:00:51.61	244.61	12.88	-39.8	-42.6	18.9	0.00e+00	0	58	0	75497472	51	4911
2026-01-23 21:00:54.64	243.97	13.19	-39.7	-42.4	19.1	0.00e+00	0	58	0	78643200	51	4795
2026-01-23 21:00:57.66	243.32	13.50	-39.3	-41.9	19.7	0.00e+00	0	58	0	82313216	50	4761
2026-01-23 21:01:00.69	242.65	13.82	-39.4	-42.0	19.5	0.00e+00	0	58	0	85458944	50	4865
2026-01-23 21:01:03.72	241.96	14.14	-39.5	-42.2	19.5	0.00e+00	0	58	0	89128960	50	4928
2026-01-23 21:01:06.75	241.26	14.47	-39.5	-42.1	19.6	0.00e+00	0	58	0	92274688	50	4881
2026-01-23 21:01:09.78	240.53	14.79	-39.3	-41.8	19.8	0.00e+00	0	58	0	95944704	50	4734
2026-01-23 21:01:12.81	239.78	15.12	-39.2	-41.8	19.9	0.00e+00	0	58	0	99090432	50	4721
2026-01-23 21:01:15.83	239.01	15.45	-39.0	-41.4	20.3	0.00e+00	0	58	0	102760448	50	4532
2026-01-23 21:01:18.86	238.21	15.78	-38.8	-41.1	20.6	0.00e+00	0	58	0	105906176	49	4628
2026-01-23 21:01:21.89	237.40	16.12	-38.8	-41.1	20.6	0.00e+00	0	58	0	109576192	49	4615
2026-01-23 21:01:24.92	236.56	16.45	-38.8	-41.1	20.5	0.00e+00	0	58	0	112721920	49	4643
2026-01-23 21:01:27.95	235.69	16.79	-38.9	-41.3	20.4	0.00e+00	0	58	0	116391936	49	4718
2026-01-23 21:01:30.98	234.80	17.13	-38.8	-41.1	20.6	0.00e+00	0	58	0	119537664	49	4640
2026-01-23 21:01:34.00	233.89	17.47	-38.4	-40.6	21.1	0.00e+00	0	58	0	123207680	48	4639
2026-01-23 21:01:37.03	232.95	17.81	-38.8	-41.1	20.7	0.00e+00	0	58	0	126353408	48	4898
2026-01-23 21:01:40.06	231.98	18.15	-38.7	-41.0	20.8	0.00e+00	0	58	0	130023424	48	4815
2026-01-23 21:01:43.09	230.99	18.49	-38.5	-40.7	21.1	0.00e+00	0	59	0	133169152	48	4685
2026-01-23 21:01:46.12	229.97	18.82	-38.3	-40.4	21.4	0.00e+00	0	58	0	136839168	48	4529
2026-01-23 21:01:49.15	228.92	19.16	-38.4	-40.6	21.2	0.00e+00	0	58	0	139984896	48	4626
2026-01-23 21:01:52.18	227.84	19.49	-38.4	-40.6	21.2	0.00e+00	0	59	0	143654912	48	4626
2026-01-23 21:01:55.21	226.73	19.83	-38.0	-40.1	21.6	0.00e+00	0	59	0	146800640	48	4385
2026-01-23 21:01:58.23	225.60	20.15	-37.6	-39.6	22.1	0.00e+00	0	59	0	150470656	47	4376
2026-01-23 21:02:01.26	224.43	20.47	-37.7	-39.8	22.0	0.00e+00	0	58	0	153616384	47	4453
2026-01-23 21:02:04.29	223.23	20.79	-37.9	-40.0	21.8	0.00e+00	0	59	0	157286400	47	4580
2026-01-23 21:02:07.32	222.01	21.10	-37.9	-40.0	21.8	0.00e+00	0	59	0	160432128	47	4581
2026-01-23 21:02:10.35	220.75	21.41	-37.8	-39.8	22.0	0.00e+00	0	59	0	164102144	47	4461
2026-01-23 21:02:13.38	219.47	21.70	-37.8	-39.8	22.1	0.00e+00	0	59	0	167247872	47	4449
2026-01-23 21:02:16.40	218.16	21.99	-37.5	-39.5	22.3	0.00e+00	0	59	0	170917888	47	4314
2026-01-23 21:02:19.43	216.81	22.27	-37.5	-39.5	22.4	0.00e+00	0	59	0	174063616	46	4553
2026-01-23 21:02:22.46	215.44	22.53	-37.6	-39.6	22.3	0.00e+00	0	59	0	177733632	46	4615
2026-01-23 21:02:25.48	214.05	22.79	-37.2	-39.1	22.7	0.00e+00	0	59	0	180879360	46	4367
2026-01-23 21:02:28.51	212.62	23.03	-37.2	-39.1	22.7	0.00e+00	0	59	0	184549376	46	4369
2026-01-23 21:02:31.54	211.17	23.26	-37.5	-39.5	22.5	0.00e+00	0	59	0	187695104	46	4547
2026-01-23 21:02:34.57	209.69	23.47	-37.3	-39.2	22.7	0.00e+00	0	59	0	191365120	46	4394
2026-01-23 21:02:37.60	208.20	23.67	-37.1	-38.9	22.9	0.00e+00	0	59	0	194510848	46	4272
2026-01-23 21:02:40.63	206.68	23.85	-36.9	-38.8	23.0	0.00e+00	0	59	0	198180864	45	4454
2026-01-23 21:02:43.66	205.14	24.01	-37.2	-39.1	22.7	0.00e+00	0	59	0	201326592	45	4638
2026-01-23 21:02:46.68	203.58	24.16	-37.0	-38.9	22.9	0.00e+00	0	59	0	204996608	45	4506
2026-01-23 21:02:49.71	202.01	24.28	-37.5	-39.5	22.4	0.00e+00	0	59	0	208142336	45	4816
2026-01-23 21:02:52.74	200.42	24.39	-37.1	-39.0	22.9	0.00e+00	0	59	0	211812352	45	4557
2026-01-23 21:02:55.77	198.83	24.47	-37.6	-39.5	22.3	0.00e+00	0	59	0	214958080	45	4857
2026-01-23 21:02:58.80	197.22	24.53	-37.6	-39.7	22.2	0.00e+00	0	59	0	218628096	46	4655
2026-01-23 21:03:01.82	195.61	24.58	-37.4	-39.3	22.6	0.00e+00	0	59	0	221773824	46	4472
2026-01-23 21:03:04.85	194.00	24.60	-36.9	-38.7	23.1	0.00e+00	0	59	0	225443840	45	4432
2026-01-23 21:03:07.88	192.38	24.60	-37.0	-38.8	23.0	0.00e+00	0	59	0	228589568	45	4474
2026-01-23 21:03:10.91	190.76	24.58	-37.4	-39.4	22.4	0.00e+00	0	60	0	232259584	45	4771
2026-01-23 21:03:13.93	189.15	24.53	-37.1	-39.0	22.8	0.00e+00	0	59	0	235405312	45	4584
2026-01-23 21:03:16.96	187.55	24.47	-37.0	-38.8	22.9	0.00e+00	0	60	0	239075328	45	4480
2026-01-23 21:03:19.99	185.95	24.38	-36.9	-38.8	23.1	0.00e+00	0	60	0	242221056	45	4464
2026-01-23 21:03:23.02	184.36	24.27	-37.3	-39.2	22.7	0.00e+00	0	59	0	245891072	45	4664
2026-01-23 21:03:26.05	182.79	24.15	-37.7	-39.7	22.0	0.00e+00	0	60	0	249036800	46	4676
2026-01-23 21:03:29.07	181.24	24.00	-37.3	-39.2	22.4	0.00e+00	0	60	0	252706816	46	4414
2026-01-23 21:03:32.10	179.70	23.84	-37.5	-39.5	22.2	0.00e+00	0	59	0	255852544	46	4572
2026-01-23 21:03:35.13	178.18	23.66	-37.1	-39.0	22.7	0.00e+00	0	60	0	259522560	46	4327
2026-01-23 21:03:38.16	176.68	23.46	-36.9	-38.7	23.0	0.00e+00	0	60	0	262668288	45	4439
2026-01-23 21:03:41.19	175.21	23.25	-37.3	-39.2	22.9	0.00e+00	0	59	0	266338304	46	4407
2026-01-23 21:03:44.22	173.76	23.02	-37.0	-38.8	23.0	0.00e+00	0	60	0	269484032	45	4451
2026-01-23 21:03:47.25	172.33	22.77	-37.0	-38.9	22.9	0.00e+00	0	60	0	273154048	45	4541
2026-01-23 21:03:50.28	170.93	22.52	-37.1	-38.9	22.8	0.00e+00	0	60	0	276299776	44	4808
2026-01-23 21:03:53.30	169.56	22.25	-37.3	-39.2	22.6	0.00e+00	0	60	0	279969792	45	4701
2026-01-23 21:03:56.33	168.22	21.97	-38.0	-40.0	21.9	0.00e+00	0	60	0	283115520	46	4852
2026-01-23 21:03:59.36	166.91	21.69	-37.9	-39.9	22.1	0.00e+00	0	60	0	286785536	46	4807
2026-01-23 21:04:02.39	165.62	21.39	-37.4	-39.3	22.6	0.00e+00	0	60	0	289931264	46	4480
2026-01-23 21:04:05.42	164.37	21.08	-38.5	-40.7	21.2	0.00e+00	0	60	0	293601280	47	4979
2026-01-23 21:04:08.45	163.14	20.77	-38.0	-40.1	21.9	0.00e+00	0	60	0	296747008	47	4614
2026-01-23 21:04:11.47	161.95	20.46	-38.1	-40.3	21.7	0.00e+00	0	60	0	299892736	47	4712
2026-01-23 21:04:14.50	160.78	20.13	-38.1	-40.2	21.8	0.00e+00	0	60	0	303562752	47	4689
2026-01-23 21:04:17.53	159.65	19.80	-38.5	-40.7	21.3	0.00e+00	0	60	0	307232768	47	4950
2026-01-23 21:04:20.56	158.54	19.47	-38.2	-40.4	21.6	0.00e+00	0	60	0	310378496	47	4789
2026-01-23 21:04:23.59	157.46	19.14	-38.5	-40.7	21.3	0.00e+00	0	60	0	314048512	47	4947
2026-01-23 21:04:26.62	156.41	18.80	-38.2	-40.4	21.6	0.00e+00	0	60	0	317194240	47	4769
2026-01-23 21:04:29.64	155.39	18.47	-38.4	-40.6	21.4	0.00e+00	0	60	0	320864256	47	4912
2026-01-23 21:04:32.67	154.40	18.13	-38.4	-40.7	21.3	0.00e+00	0	60	0	324009984	47	4933
2026-01-23 21:04:35.70	153.43	17.79	-38.4	-40.6	21.3	0.00e+00	0	60	0	327680000	47	4924
2026-01-23 21:04:38.73	152.49	17.45	-38.7	-41.0	21.0	0.00e+00	0	60	0	330825728	47	5112
2026-01-23 21:04:41.76	151.58	17.11	-38.8	-41.1	20.8	0.00e+00	0	60	0	334495744	48	4905
2026-01-23 21:04:44.79	150.69	16.77	-38.8	-41.1	20.9	0.00e+00	0	60	0	337641472	48	4892
2026-01-23 21:04:47.81	149.83	16.43	-38.7	-41.0	20.9	0.00e+00	0	60	0	340787200	48	4843
2026-01-23 21:04:50.84	148.99	16.09	-39.2	-41.6	20.3	0.00e+00	0	60	0	344457216	48	5211
2026-01-23 21:04:53.87	148.17	15.76	-39.1	-41.6	20.3	0.00e+00	0	60	0	347602944	48	5183
2026-01-23 21:04:56.90	147.38	15.43	-39.3	-41.9	20.0	0.00e+00	0	60	0	351272960	49	5054
2026-01-23 21:04:59.93	146.61	15.10	-39.1	-41.6	20.3	0.00e+00	0	60	0	354942976	49	4890
2026-01-23 21:05:02.96	145.86	14.77	-39.4	-42.1	19.8	0.00e+00	0	60	0	358088704	49	5172
2026-01-23 21:05:05.99	145.13	14.44	-39.6	-42.4	19.0	0.00e+00	0	60	0	361758720	49	5353
2026-01-23 21:05:09.02	144.42	14.12	-39.6	-42.3	19.5	0.00e+00	0	60	0	364904448	49	5303
2026-01-23 21:05:12.04	143.73	13.80	-39.5	-42.4	19.0	1.10e-06	0	60	0	368574464	49	5398
2026-01-23 21:05:15.07	143.06	13.48	-39.8	-42.6	19.2	0.00e+00	0	60	0	371720192	50	5208
2026-01-23 21:05:18.10	142.41	13.17	-39.8	-42.7	19.1	0.00e+00	0	60	0	375390208	50	5229
2026-01-23 21:05:21.12	141.78	12.85	-39.7	-42.5	19.2	0.00e+00	0	60	0	378535936	50	5126
2026-01-23 21:05:24.16	141.16	12.55	-39.8	-42.7	18.9	0.00e+00	0	60	0	381681664	50	5244
2026-01-23 21:05:27.18	140.56	12.24	-40.1	-43.2	18.4	0.00e+00	0	60	0	385351680	50	5532
2026-01-23 21:05:30.21	139.98	11.94	-40.1	-43.4	18.0	0.00e+00	0	60	0	388497408	50	5705
2026-01-23 21:05:33.24	139.41	11.64	-39.9	-43.4	17.8	4.57e-05	0	60	0	392167424	50	5703
2026-01-23 21:05:36.27	138.86	11.34	-40.2	-43.8	16.9	4.50e-06	0	60	0	395313152	51	5631
2026-01-23 21:05:39.30	138.32	11.05	-39.6	-42.9	17.8	2.15e-03	0	60	0	398983168	49	5691
2026-01-23 21:05:42.32	137.80	10.76	-34.5	-42.1	15.4	5.87e-02	0	60	0	402128896	40	8681
2026-01-23 21:05:45.35	137.29	10.48	-26.8	-44.7	5.4	3.20e-01	0	60	0	404750336	29	22106
2026-01-23 21:05:48.38	136.79	10.20	-38.7	-54.4	4.4	7.13e-01	0	60	104	405274624	45	26972
2026-01-23 21:05:51.41	136.30	9.92	-40.7	-59.8	3.2	8.29e-01	0	60	104	405274624	46	47348
2026-01-23 21:05:54.44	135.83	9.64	-35.3	-55.7	3.9	8.42e-01	0	60	104	405274624	41	39500
2026-01-23 21:05:57.47	135.37	9.37	-28.7	-46.1	3.4	8.27e-01	0	60	104	405274624	13	65535
2026-01-23 21:06:00.50	134.92	9.10	-38.4	-51.3	4.0	8.22e-01	0	60	104	405274624	33	37722
2026-01-23 21:06:03.52	134.49	8.83	-17.8	-40.9	3.8	8.09e-01	0	60	104	405274624	9	45318
2026-01-23 21:06:06.55	134.06	8.57	-16.1	-41.3	3.7	8.07e-01	0	60	104	405274624	7	52932
2026-01-23 21:06:09.59	133.64	8.31	-22.3	-46.1	3.6	8.08e-01	0	60	104	405274624	16	55210
2026-01-23 21:06:12.61	133.24	8.05	-16.5	-41.6	3.7	8.08e-01	0	60	104	405274624	7	54728
2026-01-23 21:06:15.65	132.84	7.80	-44.4	-63.1	3.8	8.23e-01	0	60	104	405274624	60	30743
2026-01-23 21:06:18.68	132.46	7.54	-45.4	-63.7	3.8	8.45e-01	0	61	104	405274624	61	31213
2026-01-23 21:06:21.71	132.08	7.29	-45.7	-64.0	3.8	8.46e-01	0	60	104	405274624	61	32310
2026-01-23 21:06:24.74	131.71	7.05	-45.5	-63.8	3.8	8.45e-01	0	60	104	405274624	61	31467
2026-01-23 21:06:27.77	131.35	6.81	-45.4	-63.4	3.8	8.46e-01	0	60	104	405274624	61	30287
2026-01-23 21:06:30.80	131.00	6.56	-45.2	-63.3	3.8	8.46e-01	0	60	104	405274624	61	29891
2026-01-23 21:06:33.84	130.66	6.33	-45.2	-63.3	3.8	8.44e-01	0	60	104	405274624	61	29866
2026-01-23 21:06:36.87	130.32	6.09	-45.2	-63.3	3.8	8.47e-01	0	61	104	405274624	61	29751
2026-01-23 21:06:39.90	129.99	5.86	-45.2	-63.3	3.8	8.46e-01	0	60	104	405274624	61	29723
2026-01-23 21:06:42.93	129.67	5.63	-45.2	-63.3	3.8	8.45e-01	0	61	104	405274624	61	29757
2026-01-23 21:06:45.96	129.36	5.40	-45.2	-63.2	3.8	8.46e-01	0	60	104	405274624	61	29663
2026-01-23 21:06:49.00	129.05	5.17	-45.2	-63.3	3.8	8.46e-01	0	60	104	405274624	61	29701
2026-01-23 21:06:52.03	128.75	4.95	-45.2	-63.2	3.8	8.45e-01	0	60	104	405274624	61	29654
2026-01-23 21:06:55.06	128.46	4.73	-45.2	-63.2	3.8	8.47e-01	0	61	104	405274624	61	29641
2026-01-23 21:06:58.09	128.17	4.51	-45.2	-63.2	3.8	8.45e-01	0	60	104	405274624	61	29656
2026-01-23 21:07:01.12	127.89	4.29	-45.2	-63.2	3.8	8.46e-01	0	61	104	405274624	61	29563
2026-01-23 21:07:04.15	127.62	4.08	-44.9	-63.2	3.8	8.47e-01	0	61	104	405274624	61	29561
2026-01-23 21:07:07.18	127.35	3.87	-45.1	-63.2	3.8	8.46e-01	0	61	104	405274624	61	29578
2026-01-23 21:07:10.22	127.09	3.65	-45.1	-63.2	3.8	8.46e-01	0	61	104	405274624	61	29571
2026-01-23 21:07:13.25	126.83	3.45	-45.1	-63.2	3.8	8.47e-01	0	61	104	405274624	61	29550
2026-01-23 21:07:16.28	126.58	3.24	-45.1	-63.2	3.8	8.46e-01	0	61	104	405274624	61	29673
2026-01-23 21:07:19.31	126.33	3.04	-45.1	-63.2	3.8	8.47e-01	0	61	104	405274624	61	29543
2026-01-23 21:07:22.34	126.09	2.83	-45.1	-63.2	3.8	8.46e-01	0	60	104	405274624	61	29475
2026-01-23 21:07:25.37	125.85	2.63	-45.1	-63.2	3.8	8.45e-01	0	60	104	405274624	61	29590
2026-01-23 21:07:28.40	125.62	2.43	-45.1	-63.2	3.8	8.46e-01	0	61	104	405274624	61	29575
2026-01-23 21:07:31.43	125.39	2.24	-45.1	-63.2	3.8	8.46e-01	0	61	104	405274624	61	29547
2026-01-23 21:07:34.46	125.17	2.04	-45.1	-63.2	3.8	8.45e-01	0	61	104	405274624	61	29455

#Closed at: 2026-01-23 21:07:37
#Recorded file [405 MB]: D:/lorett/data/31039_260123_235838.dat