passes_logs/2026/01/23/R2.0S_Moscow/R2.0S_Moscow__20260123_004523_NOAA_20_JPSS-1_rec.log

#Pass ID: 20260123_004523_NOAA 20 (JPSS-1)
#Satellite: NOAA 20 (JPSS-1)
#Configuration: NOAA 20
#almurnet v.1.7.20251203
#Start time: 2026-01-23 00:45:23

#Version: 2.2.20231116
#Station: R2.0S_Moscow
#Location: 37.707566 lon 55.798166 lat
#TLE: 1 43013U 17073A   26022.44900781  .00000193  00000+0  11233-3 0  9999
#TLE: 2 43013  98.7645 323.3100 0001197  28.8413 331.2829 14.19538802423792

#Time	Az	El	Level	Level2	SNR	BER	BlckErr	Temp	State	Recorded	gain1	gain2
2026-01-23 00:45:23.46	12.05	2.00	-40.0	-54.6	3.8	1.49e+00	0	52	0	0	52	18331
2026-01-23 00:45:27.50	11.88	2.25	-40.0	-54.6	3.8	1.49e+00	0	52	104	0	52	18308
2026-01-23 00:45:31.54	11.70	2.50	-40.0	-54.5	3.8	1.49e+00	0	53	104	0	52	18297
2026-01-23 00:45:35.58	11.53	2.75	-40.1	-54.6	3.8	1.49e+00	0	53	104	0	51	19545
2026-01-23 00:45:39.62	11.35	3.00	-40.1	-54.6	3.8	1.49e+00	0	53	104	0	51	19591
2026-01-23 00:45:43.66	11.16	3.25	-40.1	-54.6	3.8	1.49e+00	0	54	104	0	51	19555
2026-01-23 00:45:47.71	10.98	3.51	-40.1	-54.6	3.8	1.49e+00	0	54	104	0	51	19569
2026-01-23 00:45:51.75	10.79	3.77	-40.0	-54.6	3.8	1.49e+00	0	54	104	0	51	19531
2026-01-23 00:45:55.79	10.59	4.03	-40.0	-54.6	3.8	1.49e+00	0	54	104	0	51	19523
2026-01-23 00:45:59.83	10.39	4.29	-40.0	-54.6	3.8	1.49e+00	0	54	104	0	51	19537
2026-01-23 00:46:03.87	10.19	4.55	-40.0	-54.6	3.8	1.49e+00	0	55	104	0	51	19495
2026-01-23 00:46:07.91	9.99	4.82	-40.0	-54.6	3.8	1.49e+00	0	55	104	0	51	19501
2026-01-23 00:46:11.95	9.78	5.09	-40.0	-54.6	3.8	1.49e+00	0	55	104	0	51	19477
2026-01-23 00:46:15.99	9.56	5.36	-40.0	-54.6	3.8	1.49e+00	0	55	104	0	51	19491
2026-01-23 00:46:20.04	9.34	5.64	-40.0	-54.6	3.8	1.49e+00	0	56	104	0	51	19435
2026-01-23 00:46:24.08	9.12	5.91	-40.0	-54.6	3.8	1.49e+00	0	56	104	0	51	19457
2026-01-23 00:46:28.12	8.89	6.19	-40.0	-54.6	3.8	1.49e+00	0	56	104	0	51	19495
2026-01-23 00:46:32.16	8.66	6.47	-40.0	-54.6	3.8	1.49e+00	0	56	104	0	51	19516
2026-01-23 00:46:36.20	8.42	6.76	-40.0	-54.6	3.8	1.49e+00	0	56	104	0	51	19519
2026-01-23 00:46:40.24	8.18	7.04	-40.0	-54.6	3.8	1.49e+00	0	56	104	0	51	19481
2026-01-23 00:46:44.28	7.93	7.33	-40.0	-54.6	3.8	1.49e+00	0	57	104	0	51	19494
2026-01-23 00:46:48.32	7.68	7.62	-40.0	-54.6	3.8	1.49e+00	0	57	104	0	51	19502
2026-01-23 00:46:52.36	7.42	7.92	-40.0	-54.6	3.8	1.49e+00	0	57	104	0	51	19484
2026-01-23 00:46:56.40	7.16	8.22	-40.1	-54.7	3.8	1.49e+00	0	57	104	0	51	19694
2026-01-23 00:47:00.44	6.89	8.52	-40.1	-54.7	3.8	1.49e+00	0	57	104	0	51	19692
2026-01-23 00:47:04.48	6.61	8.82	-40.1	-54.7	3.8	1.49e+00	0	57	104	0	51	19695
2026-01-23 00:47:08.51	6.33	9.13	-40.1	-54.7	3.8	1.49e+00	0	57	104	0	51	19730
2026-01-23 00:47:12.55	6.05	9.44	-40.2	-54.7	3.8	1.49e+00	0	57	104	0	51	19820
2026-01-23 00:47:16.59	5.75	9.75	-40.2	-54.8	3.8	1.49e+00	0	57	104	0	51	19929
2026-01-23 00:47:20.63	5.45	10.07	-40.0	-54.6	3.8	1.49e+00	0	58	104	0	51	19450
2026-01-23 00:47:24.67	5.14	10.39	-40.6	-55.2	3.8	1.49e+00	0	58	104	0	51	20975
2026-01-23 00:47:28.71	4.83	10.71	-40.2	-54.7	3.8	1.49e+00	0	58	104	0	51	19827
2026-01-23 00:47:32.74	4.50	11.03	-40.8	-55.4	3.8	1.49e+00	0	58	104	0	52	20203
2026-01-23 00:47:36.79	4.17	11.36	-40.3	-54.9	3.8	1.49e+00	0	58	104	0	52	18953
2026-01-23 00:47:40.82	3.84	11.70	-41.3	-55.7	3.8	1.49e+00	0	58	104	0	53	19637
2026-01-23 00:47:44.85	3.49	12.03	-40.5	-55.0	3.8	1.49e+00	0	59	104	0	52	19349
2026-01-23 00:47:48.89	3.13	12.37	-41.5	-55.7	3.8	1.49e+00	0	58	104	0	53	19744
2026-01-23 00:47:52.93	2.77	12.72	-40.7	-55.2	3.8	1.49e+00	0	59	104	0	52	19620
2026-01-23 00:47:56.97	2.40	13.06	-42.3	-54.5	3.9	1.46e+00	0	58	104	0	55	15238
2026-01-23 00:48:01.00	2.02	13.41	-42.2	-50.7	5.6	4.75e-01	0	59	0	1048576	55	9899
2026-01-23 00:48:05.04	1.63	13.77	-41.7	-48.2	7.8	1.09e-01	0	59	0	8388608	55	7412
2026-01-23 00:48:09.08	1.23	14.13	-41.2	-46.6	9.4	1.63e-02	0	59	0	16777216	54	6533
2026-01-23 00:48:13.11	0.81	14.49	-41.5	-47.0	9.2	2.10e-02	0	59	0	24117248	54	6844
2026-01-23 00:48:17.15	0.39	14.86	-41.6	-46.7	9.9	8.38e-03	0	59	0	31457280	54	6595
2026-01-23 00:48:21.19	359.96	15.23	-41.7	-46.7	10.1	9.96e-03	0	59	0	38797312	54	6591
2026-01-23 00:48:25.22	359.52	15.60	-41.8	-46.8	10.0	9.96e-03	0	59	0	47185920	54	6691
2026-01-23 00:48:29.26	359.06	15.98	-41.7	-46.6	10.3	4.80e-03	0	59	0	54525952	54	6501
2026-01-23 00:48:33.30	358.59	16.36	-41.7	-46.7	10.2	5.23e-03	0	59	0	61865984	54	6571
2026-01-23 00:48:37.33	358.11	16.75	-41.6	-46.4	10.3	4.52e-03	0	59	0	69206016	54	6408
2026-01-23 00:48:41.37	357.62	17.14	-41.5	-46.4	10.1	7.02e-03	0	59	0	76546048	54	6404
2026-01-23 00:48:45.41	357.11	17.53	-41.4	-46.5	9.9	8.39e-03	0	59	0	84934656	54	6475
2026-01-23 00:48:49.45	356.59	17.93	-41.3	-46.7	9.4	1.32e-02	0	59	0	92274688	54	6622
2026-01-23 00:48:53.48	356.06	18.34	-41.7	-50.2	5.8	3.03e-01	0	59	0	99614720	54	9880
2026-01-23 00:48:57.52	355.51	18.74	-41.6	-55.0	3.8	1.47e+00	0	60	104	102760448	54	17193
2026-01-23 00:49:01.56	354.94	19.15	-41.2	-55.4	3.8	1.49e+00	0	59	104	102760448	54	17954
2026-01-23 00:49:05.59	354.36	19.57	-41.2	-55.6	3.8	1.49e+00	0	60	104	102760448	54	18441
2026-01-23 00:49:09.63	353.77	19.98	-42.0	-56.0	3.8	1.49e+00	0	59	104	102760448	55	18244
2026-01-23 00:49:13.66	353.15	20.41	-41.6	-55.5	3.8	1.49e+00	0	60	104	102760448	54	18274
2026-01-23 00:49:17.70	352.52	20.83	-42.5	-53.8	4.2	1.47e+00	0	60	104	102760448	55	14184
2026-01-23 00:49:21.73	351.87	21.26	-42.1	-50.5	5.6	1.18e+00	0	60	104	103809024	55	9671
2026-01-23 00:49:25.77	351.20	21.69	-41.8	-48.0	8.2	5.73e-02	0	60	0	111149056	55	7236
2026-01-23 00:49:29.81	350.52	22.13	-41.4	-46.5	9.8	1.22e-02	0	60	0	118489088	54	6423
2026-01-23 00:49:33.85	349.81	22.56	-41.4	-46.1	10.5	3.06e-03	0	60	0	125829120	54	6148
2026-01-23 00:49:37.89	349.08	23.00	-41.9	-46.7	10.3	5.50e-03	0	60	0	133169152	54	6578
2026-01-23 00:49:41.92	348.33	23.45	-42.0	-46.8	10.5	3.35e-03	0	60	0	141557760	54	6664
2026-01-23 00:49:45.96	347.56	23.89	-42.0	-46.4	11.0	2.14e-03	0	60	0	148897792	54	6403
2026-01-23 00:49:49.99	346.77	24.34	-42.1	-46.6	10.9	2.08e-03	0	60	0	156237824	54	6533
2026-01-23 00:49:54.03	345.95	24.79	-42.3	-46.9	10.7	2.96e-03	0	60	0	163577856	55	6393
2026-01-23 00:49:58.07	345.11	25.24	-42.5	-47.4	10.2	5.88e-03	0	60	0	170917888	55	6795
2026-01-23 00:50:02.10	344.24	25.69	-42.7	-47.8	9.9	8.55e-03	0	60	0	179306496	55	7068
2026-01-23 00:50:06.14	343.35	26.14	-43.1	-48.3	9.7	1.20e-02	0	60	0	186646528	56	7063
2026-01-23 00:50:10.18	342.43	26.59	-42.9	-47.8	10.3	5.60e-03	0	60	0	193986560	56	6688
2026-01-23 00:50:14.22	341.49	27.04	-43.0	-48.0	10.1	6.10e-03	0	60	0	201326592	56	6854
2026-01-23 00:50:18.26	340.51	27.48	-43.0	-47.9	10.3	5.57e-03	0	60	0	208666624	56	6737
2026-01-23 00:50:22.29	339.52	27.93	-43.1	-47.9	10.3	5.07e-03	0	60	0	217055232	56	6794
2026-01-23 00:50:26.33	338.49	28.37	-43.1	-47.9	10.3	4.78e-03	0	60	0	224395264	56	6748
2026-01-23 00:50:30.37	337.43	28.81	-43.0	-47.7	10.6	3.50e-03	0	60	0	231735296	56	6646
2026-01-23 00:50:34.40	336.35	29.24	-43.0	-47.7	10.6	3.76e-03	0	60	0	239075328	56	6634
2026-01-23 00:50:38.44	335.23	29.67	-43.0	-47.7	10.6	3.53e-03	0	60	0	247463936	56	6628
2026-01-23 00:50:42.48	334.08	30.10	-43.2	-48.1	10.3	4.43e-03	0	60	0	254803968	56	6888
2026-01-23 00:50:46.52	332.90	30.51	-43.7	-49.4	8.8	2.77e-02	0	60	0	262144000	57	7609
2026-01-23 00:50:50.55	331.70	30.92	-43.8	-49.9	8.3	4.46e-02	0	60	0	269484032	58	7597
2026-01-23 00:50:54.59	330.46	31.32	-44.0	-50.4	7.9	7.11e-02	0	60	0	276824064	58	8032
2026-01-23 00:50:58.63	329.19	31.71	-44.1	-50.8	7.5	1.04e-01	0	60	0	285212672	58	8381
2026-01-23 00:51:02.66	327.89	32.09	-44.2	-51.4	6.9	1.61e-01	0	60	0	292552704	59	8529
2026-01-23 00:51:06.70	326.56	32.45	-44.5	-53.3	5.7	4.11e-01	0	60	0	299892736	60	10001
2026-01-23 00:51:10.74	325.20	32.80	-44.0	-50.8	7.6	1.32e-01	0	60	0	301989888	60	7492
2026-01-23 00:51:14.78	323.81	33.14	-43.8	-49.8	8.5	4.87e-02	0	61	0	309329920	59	7072
2026-01-23 00:51:18.82	322.39	33.46	-43.8	-49.7	8.5	3.79e-02	0	60	0	317718528	59	7005
2026-01-23 00:51:22.86	320.94	33.76	-43.8	-49.7	8.6	3.99e-02	0	60	0	325058560	59	6988
2026-01-23 00:51:26.90	319.47	34.05	-43.3	-48.3	10.0	9.69e-03	0	60	0	332398592	58	6329
2026-01-23 00:51:30.93	317.97	34.31	-43.0	-47.6	10.7	3.17e-03	0	60	0	339738624	58	5825
2026-01-23 00:51:34.97	316.45	34.56	-43.0	-47.6	10.7	2.80e-03	0	60	0	348127232	58	5851
2026-01-23 00:51:39.01	314.90	34.78	-42.8	-47.2	11.1	1.43e-03	0	60	0	355467264	57	5893
2026-01-23 00:51:43.05	313.33	34.98	-42.6	-46.7	11.7	5.91e-04	0	60	0	362807296	57	5564
2026-01-23 00:51:47.09	311.75	35.16	-42.5	-46.4	12.0	4.59e-04	0	61	0	370147328	56	5658
2026-01-23 00:51:51.13	310.15	35.32	-42.3	-46.1	12.4	1.26e-04	0	61	0	377487360	56	5471
2026-01-23 00:51:55.17	308.53	35.44	-42.1	-45.7	12.8	7.40e-05	0	61	0	385875968	56	5263
2026-01-23 00:51:59.20	306.91	35.55	-42.1	-45.6	12.8	5.18e-05	0	61	0	393216000	56	5204
2026-01-23 00:52:03.24	305.27	35.62	-41.9	-45.4	12.9	3.58e-05	0	60	0	400556032	55	5363
2026-01-23 00:52:07.28	303.63	35.67	-42.1	-45.8	12.4	1.28e-04	0	61	0	407896064	55	5620
2026-01-23 00:52:11.32	301.98	35.69	-42.4	-46.5	11.8	5.24e-04	0	61	0	416284672	55	6091
2026-01-23 00:52:15.35	300.34	35.69	-42.4	-46.3	11.9	3.11e-04	0	60	0	423624704	55	5972
2026-01-23 00:52:19.39	298.69	35.66	-42.4	-46.4	11.8	5.25e-04	0	61	0	430964736	55	6045
2026-01-23 00:52:23.43	297.05	35.60	-42.2	-46.0	12.4	1.07e-04	0	61	0	438304768	55	5747
2026-01-23 00:52:27.46	295.42	35.52	-42.9	-47.3	11.1	1.48e-03	0	60	0	445644800	56	6319
2026-01-23 00:52:31.51	293.79	35.41	-43.0	-47.4	10.9	1.99e-03	0	61	0	454033408	56	6416
2026-01-23 00:52:35.54	292.18	35.27	-43.1	-47.7	10.7	3.28e-03	0	61	0	461373440	56	6641
2026-01-23 00:52:39.59	290.58	35.11	-43.3	-48.4	10.0	7.82e-03	0	61	0	468713472	57	6733
2026-01-23 00:52:43.62	289.00	34.93	-43.4	-48.5	9.8	9.66e-03	0	61	0	476053504	57	6850
2026-01-23 00:52:47.66	287.44	34.72	-43.3	-48.4	9.9	1.05e-02	0	61	0	483393536	57	6781
2026-01-23 00:52:51.70	285.89	34.49	-43.3	-48.3	10.0	7.46e-03	0	61	0	491782144	57	6700
2026-01-23 00:52:55.74	284.38	34.23	-43.4	-48.6	9.7	1.04e-02	0	61	0	499122176	57	6905
2026-01-23 00:52:59.78	282.88	33.96	-43.1	-47.8	10.5	4.74e-03	0	61	0	506462208	57	6293
2026-01-23 00:53:03.82	281.41	33.67	-43.1	-47.8	10.6	3.26e-03	0	61	0	513802240	57	6294
2026-01-23 00:53:07.85	279.97	33.36	-43.2	-48.0	10.3	6.66e-03	0	61	0	522190848	57	6473
2026-01-23 00:53:11.89	278.56	33.03	-43.1	-47.7	10.6	3.12e-03	0	61	0	529530880	57	6274
2026-01-23 00:53:15.93	277.17	32.69	-43.4	-48.8	9.5	1.45e-02	0	61	0	536870912	57	7067
2026-01-23 00:53:19.97	275.81	32.33	-43.4	-48.7	9.5	1.40e-02	0	61	0	544210944	57	7014
2026-01-23 00:53:24.01	274.49	31.96	-43.4	-48.8	9.4	1.45e-02	0	61	0	551550976	57	7068
2026-01-23 00:53:28.04	273.20	31.58	-43.5	-48.9	9.3	1.51e-02	0	61	0	559939584	57	7203
2026-01-23 00:53:32.08	271.93	31.19	-43.6	-49.2	9.1	2.45e-02	0	61	0	567279616	57	7386
2026-01-23 00:53:36.12	270.70	30.79	-43.3	-48.5	9.7	1.30e-02	0	61	0	574619648	57	6844
2026-01-23 00:53:40.15	269.50	30.37	-43.3	-48.5	9.8	1.18e-02	0	61	0	581959680	57	6807
2026-01-23 00:53:44.19	268.32	29.95	-43.2	-48.2	10.1	7.73e-03	0	61	0	590348288	57	6595
2026-01-23 00:53:48.23	267.18	29.53	-43.3	-48.5	9.8	1.02e-02	0	61	0	597688320	57	6821
2026-01-23 00:53:52.27	266.07	29.09	-43.2	-48.2	10.0	8.56e-03	0	61	0	605028352	57	6584
2026-01-23 00:53:56.31	264.99	28.66	-42.9	-47.6	10.6	3.53e-03	0	61	0	612368384	57	6165
2026-01-23 00:54:00.34	263.94	28.21	-43.0	-47.7	10.5	4.51e-03	0	61	0	619708416	57	6208
2026-01-23 00:54:04.38	262.91	27.77	-42.5	-46.6	11.6	6.31e-04	0	61	0	628097024	57	5520
2026-01-23 00:54:08.42	261.92	27.32	-42.4	-46.4	11.9	4.11e-04	0	61	0	635437056	56	5694
2026-01-23 00:54:12.46	260.95	26.87	-42.1	-45.9	12.5	1.39e-04	0	61	0	642777088	56	5365
2026-01-23 00:54:16.50	260.01	26.42	-41.5	-44.8	13.4	1.29e-05	0	61	0	650117120	54	5311
2026-01-23 00:54:20.53	259.10	25.97	-41.5	-44.7	13.4	1.98e-05	0	61	0	658505728	54	5272
2026-01-23 00:54:24.57	258.21	25.52	-41.2	-44.3	13.9	3.00e-06	0	61	0	665845760	54	5028
2026-01-23 00:54:28.61	257.35	25.06	-41.1	-44.1	14.1	2.20e-06	0	61	0	673185792	53	5170
2026-01-23 00:54:32.65	256.51	24.61	-41.1	-44.2	13.9	4.50e-06	0	61	0	680525824	53	5274
2026-01-23 00:54:36.69	255.69	24.16	-41.0	-44.0	14.2	2.20e-06	0	61	0	687865856	53	5105
2026-01-23 00:54:40.72	254.90	23.71	-41.1	-44.1	14.0	3.00e-06	0	61	0	696254464	53	5201
2026-01-23 00:54:44.76	254.13	23.27	-41.3	-44.5	13.7	3.00e-06	0	61	0	703594496	53	5408
2026-01-23 00:54:48.80	253.39	22.82	-41.3	-44.6	13.5	9.90e-06	0	61	0	710934528	53	5492
2026-01-23 00:54:52.83	252.66	22.38	-41.6	-45.0	13.1	2.28e-05	0	61	0	718274560	53	5742
2026-01-23 00:54:56.88	251.96	21.94	-41.5	-45.0	13.1	3.12e-05	0	61	0	726663168	53	5740
2026-01-23 00:55:00.91	251.27	21.51	-41.4	-44.7	13.4	7.60e-06	0	61	0	734003200	53	5566
2026-01-23 00:55:04.95	250.60	21.07	-41.5	-45.0	13.1	2.89e-05	0	61	0	741343232	53	5727
2026-01-23 00:55:08.99	249.96	20.64	-41.6	-45.1	12.9	5.72e-05	0	61	0	748683264	53	5823
2026-01-23 00:55:13.03	249.33	20.22	-41.5	-45.0	13.1	3.43e-05	0	61	0	756023296	53	5744
2026-01-23 00:55:17.06	248.71	19.80	-41.8	-45.5	12.5	1.04e-04	0	61	0	764411904	54	5782
2026-01-23 00:55:21.10	248.12	19.38	-41.9	-45.7	12.3	1.43e-04	0	61	0	771751936	54	5864
2026-01-23 00:55:25.14	247.54	18.96	-41.9	-45.7	12.3	1.49e-04	0	61	0	779091968	54	5872
2026-01-23 00:55:29.18	246.97	18.55	-42.1	-46.0	11.9	3.90e-04	0	61	0	786432000	54	6122
2026-01-23 00:55:33.22	246.43	18.14	-42.1	-46.1	11.9	4.76e-04	0	61	0	794820608	54	6153
2026-01-23 00:55:37.25	245.89	17.74	-41.9	-45.8	12.1	3.19e-04	0	61	0	802160640	54	5970
2026-01-23 00:55:41.29	245.37	17.34	-42.1	-46.1	11.8	4.87e-04	0	61	0	809500672	54	6189
2026-01-23 00:55:45.33	244.87	16.95	-42.3	-46.8	11.1	1.63e-03	0	61	0	816840704	55	6276
2026-01-23 00:55:49.37	244.37	16.56	-42.3	-46.6	11.3	1.24e-03	0	61	0	824180736	55	6145
2026-01-23 00:55:53.41	243.89	16.17	-42.2	-46.4	11.5	8.58e-04	0	61	0	832569344	55	6008
2026-01-23 00:55:57.44	243.43	15.79	-42.2	-46.6	11.2	1.08e-03	0	61	0	839909376	55	6151
2026-01-23 00:56:01.48	242.97	15.41	-42.3	-46.9	10.9	2.13e-03	0	61	0	847249408	55	6357
2026-01-23 00:56:05.52	242.52	15.03	-42.2	-46.6	11.2	1.44e-03	0	61	0	854589440	55	6162
2026-01-23 00:56:09.55	242.09	14.66	-42.1	-46.4	11.4	1.01e-03	0	61	0	861929472	55	6012
2026-01-23 00:56:13.59	241.67	14.30	-42.3	-46.8	10.9	1.98e-03	0	61	0	870318080	55	6337
2026-01-23 00:56:17.62	241.26	13.94	-42.4	-47.1	10.6	3.31e-03	0	61	0	877658112	55	6538
2026-01-23 00:56:21.66	240.86	13.58	-42.3	-46.9	10.8	2.54e-03	0	61	0	884998144	55	6351
2026-01-23 00:56:25.70	240.46	13.22	-42.2	-46.7	10.9	2.10e-03	0	61	0	892338176	55	6262
2026-01-23 00:56:29.73	240.08	12.87	-42.3	-46.9	10.7	2.65e-03	0	61	0	900726784	55	6389
2026-01-23 00:56:33.77	239.71	12.52	-42.3	-47.0	10.7	3.39e-03	0	61	0	908066816	55	6453
2026-01-23 00:56:37.81	239.34	12.18	-42.3	-47.0	10.6	3.31e-03	0	61	0	915406848	55	6463
2026-01-23 00:56:41.84	238.99	11.84	-42.3	-47.0	10.6	3.71e-03	0	61	0	922746880	55	6456
2026-01-23 00:56:45.88	238.64	11.50	-42.4	-47.3	10.3	5.40e-03	0	61	0	930086912	55	6679
2026-01-23 00:56:49.92	238.30	11.17	-42.5	-47.7	9.8	9.27e-03	0	61	0	938475520	55	6988
2026-01-23 00:56:53.95	237.97	10.84	-42.6	-48.0	9.5	1.49e-02	0	61	0	945815552	55	7243
2026-01-23 00:56:57.99	237.65	10.52	-42.5	-47.7	9.7	1.20e-02	0	61	0	953155584	55	7039
2026-01-23 00:57:02.03	237.33	10.19	-42.4	-47.6	9.8	1.08e-02	0	61	0	960495616	55	6933
2026-01-23 00:57:06.07	237.02	9.87	-42.5	-47.9	9.5	1.61e-02	0	61	0	968884224	55	7139
2026-01-23 00:57:10.10	236.72	9.56	-42.6	-48.2	9.1	2.13e-02	0	61	0	976224256	55	7432
2026-01-23 00:57:14.13	236.42	9.25	-42.7	-48.5	8.8	3.04e-02	0	61	0	983564288	55	7691
2026-01-23 00:57:18.17	236.13	8.94	-42.7	-48.5	8.8	3.07e-02	0	61	0	990904320	55	7692
2026-01-23 00:57:22.20	235.85	8.63	-42.8	-48.5	8.9	2.93e-02	0	61	0	998244352	56	7281
2026-01-23 00:57:26.24	235.57	8.33	-42.8	-48.8	8.6	3.74e-02	0	61	0	1006632960	56	7500
2026-01-23 00:57:30.28	235.30	8.03	-42.9	-48.9	8.4	4.32e-02	0	61	0	1013972992	56	7625
2026-01-23 00:57:34.33	235.03	7.73	-45.0	-59.7	3.8	1.49e+00	0	61	104	1015021568	60	20908
2026-01-23 00:57:38.37	234.77	7.43	-45.3	-59.9	3.8	1.49e+00	0	61	104	1015021568	61	20216
2026-01-23 00:57:42.41	234.51	7.14	-45.2	-59.8	3.8	1.49e+00	0	61	104	1015021568	61	20034
2026-01-23 00:57:46.45	234.26	6.85	-45.2	-59.8	3.8	1.49e+00	0	61	104	1015021568	61	19857
2026-01-23 00:57:50.49	234.02	6.56	-45.1	-59.7	3.8	1.49e+00	0	61	104	1015021568	61	19689
2026-01-23 00:57:54.52	233.78	6.28	-45.1	-59.7	3.8	1.49e+00	0	61	104	1015021568	61	19639
2026-01-23 00:57:58.56	233.55	6.00	-45.1	-59.6	3.8	1.49e+00	0	61	104	1015021568	61	19596
2026-01-23 00:58:02.60	233.31	5.72	-45.1	-59.7	3.8	1.49e+00	0	61	104	1015021568	61	19763
2026-01-23 00:58:06.64	233.09	5.45	-45.1	-59.6	3.8	1.49e+00	0	61	104	1015021568	61	19600
2026-01-23 00:58:10.69	232.87	5.17	-45.1	-59.7	3.8	1.49e+00	0	61	104	1015021568	61	19650
2026-01-23 00:58:14.73	232.65	4.90	-45.1	-59.6	3.8	1.49e+00	0	61	104	1015021568	61	19610
2026-01-23 00:58:18.77	232.44	4.63	-45.0	-59.6	3.8	1.49e+00	0	61	104	1015021568	61	19526
2026-01-23 00:58:22.81	232.23	4.36	-45.0	-59.6	3.8	1.49e+00	0	61	104	1015021568	61	19474
2026-01-23 00:58:26.86	232.02	4.10	-45.0	-59.6	3.8	1.49e+00	0	61	104	1015021568	61	19441
2026-01-23 00:58:30.90	231.82	3.84	-45.0	-59.6	3.8	1.49e+00	0	61	104	1015021568	61	19448
2026-01-23 00:58:34.94	231.62	3.58	-45.0	-59.6	3.8	1.49e+00	0	61	104	1015021568	61	19422
2026-01-23 00:58:38.98	231.43	3.32	-45.0	-59.6	3.8	1.49e+00	0	61	104	1015021568	61	19442
2026-01-23 00:58:43.02	231.24	3.06	-45.0	-59.6	3.8	1.49e+00	0	61	104	1015021568	61	19476
2026-01-23 00:58:47.06	231.05	2.81	-45.0	-59.6	3.8	1.49e+00	0	61	104	1015021568	61	19471
2026-01-23 00:58:51.10	230.87	2.56	-45.0	-59.6	3.8	1.49e+00	0	61	104	1015021568	61	19419
2026-01-23 00:58:55.14	230.69	2.31	-45.0	-59.6	3.8	1.49e+00	0	61	104	1015021568	61	19485
2026-01-23 00:58:59.18	230.51	2.06	-45.0	-59.6	3.8	1.49e+00	0	61	104	1015021568	61	19402

#Closed at: 2026-01-23 00:59:02
#Recorded file [1015 MB]: D:/lorett/data/31039_260123_034523.dat