passes_logs/2026/01/23/R2.0S_Moscow/R2.0S_Moscow__20260123_023526_AQUA_rec.log

#Pass ID: 20260123_023526_AQUA
#Satellite: AQUA
#Configuration: AQUA
#almurnet v.1.7.20251203
#Start time: 2026-01-23 02:35:26

#Version: 2.2.20231116
#Station: R2.0S_Moscow
#Location: 37.707566 lon 55.798166 lat
#TLE: 1 27424U 02022A   26022.49486490  .00002153  00000+0  44069-3 0  9997
#TLE: 2 27424  98.4099 349.0485 0001970  69.5876  43.4746 14.61847233261984

#Time	Az	El	Level	Level2	SNR	BER	BlckErr	Temp	State	Recorded	gain1	gain2
2026-01-23 02:35:26.96	8.72	2.02	-40.9	-60.0	3.8	7.44e-01	0	51	0	0	53	32209
2026-01-23 02:35:30.00	8.54	2.21	-40.9	-59.9	3.8	7.44e-01	0	51	104	0	52	34053
2026-01-23 02:35:33.03	8.36	2.39	-40.9	-59.9	3.8	7.47e-01	0	51	104	0	52	34018
2026-01-23 02:35:36.06	8.17	2.58	-40.9	-59.9	3.8	7.43e-01	0	52	104	0	52	34030
2026-01-23 02:35:39.09	7.98	2.77	-40.9	-59.9	3.8	7.45e-01	0	52	104	0	52	33992
2026-01-23 02:35:42.12	7.79	2.96	-40.9	-59.9	3.8	7.43e-01	0	52	104	0	52	33999
2026-01-23 02:35:45.15	7.60	3.15	-40.9	-59.9	3.8	7.43e-01	0	52	104	0	52	33967
2026-01-23 02:35:48.18	7.40	3.34	-40.9	-59.9	3.8	7.45e-01	0	52	104	0	52	34003
2026-01-23 02:35:51.21	7.20	3.53	-40.9	-59.9	3.8	7.46e-01	0	53	104	0	52	33980
2026-01-23 02:35:54.24	7.00	3.73	-40.9	-59.9	3.8	7.44e-01	0	53	104	0	52	33936
2026-01-23 02:35:57.27	6.79	3.92	-40.9	-59.9	3.8	7.42e-01	0	53	104	0	52	33991
2026-01-23 02:36:00.30	6.58	4.12	-40.9	-59.9	3.8	7.44e-01	0	53	104	0	52	33922
2026-01-23 02:36:03.33	6.37	4.32	-40.9	-59.9	3.8	7.43e-01	0	53	104	0	52	33847
2026-01-23 02:36:06.36	6.15	4.52	-40.9	-59.9	3.8	7.45e-01	0	54	104	0	52	33899
2026-01-23 02:36:09.39	5.93	4.72	-40.9	-59.9	3.8	7.45e-01	0	54	104	0	52	33828
2026-01-23 02:36:12.42	5.71	4.92	-40.9	-59.9	3.8	7.43e-01	0	54	104	0	52	33814
2026-01-23 02:36:15.45	5.49	5.12	-40.9	-59.9	3.8	7.44e-01	0	54	104	0	52	33713
2026-01-23 02:36:18.48	5.25	5.33	-40.9	-59.9	3.8	7.44e-01	0	54	104	0	52	33758
2026-01-23 02:36:21.51	5.02	5.54	-40.9	-59.9	3.8	7.44e-01	0	54	104	0	52	33903
2026-01-23 02:36:24.54	4.78	5.74	-40.9	-59.9	3.8	7.46e-01	0	55	104	0	52	33740
2026-01-23 02:36:27.57	4.54	5.95	-40.9	-59.9	3.8	7.43e-01	0	55	104	0	52	33947
2026-01-23 02:36:30.60	4.29	6.16	-40.9	-59.9	3.8	7.46e-01	0	55	104	0	52	33738
2026-01-23 02:36:33.64	4.04	6.37	-40.9	-59.9	3.8	7.45e-01	0	55	104	0	52	33819
2026-01-23 02:36:36.67	3.79	6.59	-40.9	-59.9	3.8	7.44e-01	0	55	104	0	52	33788
2026-01-23 02:36:39.70	3.53	6.80	-40.9	-59.9	3.8	7.48e-01	0	55	104	0	52	33819
2026-01-23 02:36:42.73	3.27	7.02	-40.9	-59.9	3.8	7.44e-01	0	55	104	0	52	33707
2026-01-23 02:36:45.77	3.00	7.24	-40.9	-59.9	3.8	7.45e-01	0	55	104	0	52	33701
2026-01-23 02:36:48.80	2.73	7.45	-40.9	-59.9	3.8	7.43e-01	0	56	104	0	52	33796
2026-01-23 02:36:51.82	2.45	7.67	-40.9	-59.9	3.8	7.45e-01	0	56	104	0	52	33781
2026-01-23 02:36:54.85	2.17	7.90	-40.9	-59.9	3.8	7.44e-01	0	56	104	0	52	33829
2026-01-23 02:36:57.88	1.89	8.12	-40.9	-59.9	3.8	7.45e-01	0	56	104	0	52	33830
2026-01-23 02:37:00.91	1.59	8.34	-41.0	-60.0	3.8	7.46e-01	0	56	104	0	52	34101
2026-01-23 02:37:03.94	1.30	8.57	-40.9	-59.9	3.8	7.41e-01	0	56	104	0	52	33908
2026-01-23 02:37:06.96	1.00	8.80	-41.0	-60.0	3.8	7.48e-01	0	56	104	0	52	34321
2026-01-23 02:37:09.99	0.69	9.03	-40.9	-59.9	3.8	7.44e-01	0	56	104	0	52	33932
2026-01-23 02:37:13.01	0.38	9.26	-41.0	-60.0	3.8	7.44e-01	0	56	104	0	52	34124
2026-01-23 02:37:16.04	0.06	9.49	-40.9	-59.9	3.8	7.44e-01	0	56	104	0	52	33926
2026-01-23 02:37:19.07	359.74	9.73	-41.1	-60.1	3.8	7.45e-01	0	57	104	0	52	34602
2026-01-23 02:37:22.10	359.41	9.96	-40.9	-59.9	3.8	7.47e-01	0	57	104	0	52	34007
2026-01-23 02:37:25.13	359.07	10.20	-41.0	-60.0	3.8	7.45e-01	0	57	104	0	52	34445
2026-01-23 02:37:28.16	358.73	10.44	-40.8	-59.8	3.8	7.45e-01	0	57	104	0	52	33654
2026-01-23 02:37:31.19	358.38	10.68	-41.2	-60.2	3.8	7.46e-01	0	57	104	0	53	33235
2026-01-23 02:37:34.22	358.03	10.92	-41.0	-60.0	3.8	7.44e-01	0	57	104	0	53	32423
2026-01-23 02:37:37.25	357.66	11.17	-41.1	-60.0	3.8	7.45e-01	0	57	104	0	53	32484
2026-01-23 02:37:40.27	357.30	11.41	-41.0	-59.9	3.8	7.45e-01	0	57	104	0	53	31884
2026-01-23 02:37:43.31	356.92	11.66	-41.1	-59.6	3.8	7.45e-01	0	57	104	0	53	30911
2026-01-23 02:37:46.33	356.54	11.91	-42.0	-59.4	3.8	7.42e-01	0	57	104	0	55	26921
2026-01-23 02:37:49.36	356.15	12.16	-42.3	-53.3	6.9	6.63e-01	92	57	0	4194304	55	13374
2026-01-23 02:37:52.39	355.75	12.41	-42.1	-55.2	5.3	7.04e-01	0	57	0	7864320	55	16667
2026-01-23 02:37:55.42	355.35	12.67	-41.6	-60.4	3.8	7.49e-01	0	57	104	7864320	55	30310
2026-01-23 02:37:58.44	354.94	12.92	-42.0	-58.3	3.9	7.43e-01	0	58	104	7864320	55	23787
2026-01-23 02:38:01.47	354.52	13.18	-41.6	-60.1	3.8	7.44e-01	0	57	104	7864320	55	29273
2026-01-23 02:38:04.50	354.09	13.44	-41.6	-60.4	3.8	7.45e-01	0	58	104	7864320	55	30341
2026-01-23 02:38:07.53	353.65	13.70	-41.7	-60.6	3.8	7.44e-01	0	58	104	7864320	55	30923
2026-01-23 02:38:10.56	353.21	13.96	-41.7	-60.6	3.8	7.45e-01	0	58	104	7864320	55	30908
2026-01-23 02:38:13.59	352.75	14.22	-41.9	-60.8	3.8	7.42e-01	0	58	104	7864320	55	31617
2026-01-23 02:38:16.61	352.29	14.49	-41.8	-60.8	3.8	7.44e-01	0	58	104	7864320	55	31477
2026-01-23 02:38:19.64	351.82	14.75	-41.8	-60.8	3.8	7.44e-01	0	58	104	7864320	55	31571
2026-01-23 02:38:22.67	351.34	15.02	-41.8	-60.8	3.8	7.47e-01	0	58	104	7864320	55	31532
2026-01-23 02:38:25.70	350.85	15.29	-42.1	-61.1	3.8	7.43e-01	0	58	104	7864320	55	32612
2026-01-23 02:38:28.72	350.35	15.56	-42.0	-61.0	3.8	7.49e-01	0	58	104	7864320	55	32452
2026-01-23 02:38:31.75	349.84	15.83	-41.9	-60.8	3.8	7.48e-01	0	58	104	7864320	55	31762
2026-01-23 02:38:34.78	349.32	16.10	-42.0	-61.0	3.8	7.45e-01	0	58	104	7864320	55	32230
2026-01-23 02:38:37.81	348.79	16.38	-42.5	-61.3	3.8	7.47e-01	0	58	104	7864320	55	33570
2026-01-23 02:38:40.84	348.25	16.65	-42.5	-61.3	3.8	7.46e-01	0	58	104	7864320	55	33478
2026-01-23 02:38:43.86	347.70	16.92	-42.3	-61.2	3.8	7.45e-01	0	58	104	7864320	55	33189
2026-01-23 02:38:46.89	347.13	17.20	-42.5	-61.4	3.8	7.44e-01	0	58	104	7864320	55	33824
2026-01-23 02:38:49.92	346.56	17.48	-42.1	-61.0	3.8	7.51e-01	0	59	104	7864320	55	32541
2026-01-23 02:38:52.95	345.97	17.75	-42.1	-61.0	3.8	7.44e-01	0	59	104	7864320	55	32411
2026-01-23 02:38:55.97	345.38	18.03	-41.9	-60.8	3.8	7.44e-01	0	59	104	7864320	55	31572
2026-01-23 02:38:59.00	344.77	18.31	-42.0	-61.0	3.8	7.47e-01	0	59	104	7864320	55	32205
2026-01-23 02:39:02.03	344.15	18.59	-41.9	-60.8	3.8	7.45e-01	0	59	104	7864320	55	31630
2026-01-23 02:39:05.06	343.51	18.86	-41.8	-60.7	3.8	7.44e-01	0	59	104	7864320	55	31415
2026-01-23 02:39:08.09	342.87	19.14	-42.2	-60.8	3.8	7.47e-01	0	59	104	7864320	55	31639
2026-01-23 02:39:11.12	342.21	19.42	-42.0	-60.4	3.8	7.43e-01	0	59	104	7864320	55	30294
2026-01-23 02:39:14.15	341.53	19.70	-42.2	-60.9	3.8	7.46e-01	0	59	104	7864320	55	32103
2026-01-23 02:39:17.17	340.85	19.97	-42.8	-61.3	3.8	7.44e-01	0	59	104	7864320	57	30003
2026-01-23 02:39:20.20	340.15	20.25	-43.3	-51.6	10.0	6.21e-01	0	59	0	12058624	57	9772
2026-01-23 02:39:23.23	339.44	20.52	-43.0	-48.7	13.7	6.04e-01	0	59	0	17825792	57	7017
2026-01-23 02:39:26.26	338.71	20.79	-42.4	-46.8	16.0	6.05e-01	0	59	0	23068672	56	5953
2026-01-23 02:39:29.29	337.97	21.07	-41.9	-45.5	17.4	6.03e-01	0	59	0	28835840	55	5436
2026-01-23 02:39:32.32	337.22	21.34	-41.8	-45.2	17.9	6.05e-01	0	59	0	34603008	55	5252
2026-01-23 02:39:35.34	336.45	21.60	-41.6	-44.9	18.3	6.03e-01	0	59	0	40370176	55	5085
2026-01-23 02:39:38.38	335.67	21.87	-41.8	-45.0	18.4	6.04e-01	0	59	0	46137344	55	5157
2026-01-23 02:39:41.41	334.87	22.13	-41.8	-45.0	18.4	6.03e-01	0	59	0	51904512	55	5145
2026-01-23 02:39:44.43	334.07	22.39	-41.8	-45.1	18.4	6.04e-01	0	59	0	57147392	55	5164
2026-01-23 02:39:47.46	333.24	22.65	-41.9	-45.2	18.4	6.02e-01	0	59	0	62914560	55	5229
2026-01-23 02:39:50.49	332.40	22.90	-41.9	-45.0	18.6	6.04e-01	0	59	0	68681728	55	5142
2026-01-23 02:39:53.52	331.55	23.15	-41.9	-45.1	18.4	6.03e-01	0	59	0	74448896	55	5210
2026-01-23 02:39:56.55	330.68	23.40	-41.9	-45.2	18.4	6.02e-01	0	59	0	80216064	55	5220
2026-01-23 02:39:59.58	329.79	23.64	-41.9	-45.1	18.3	6.04e-01	0	59	0	85983232	55	5205
2026-01-23 02:40:02.61	328.90	23.87	-42.0	-45.2	18.5	6.03e-01	0	59	0	91226112	55	5260
2026-01-23 02:40:05.63	327.99	24.11	-41.9	-45.1	18.6	6.05e-01	0	59	0	96993280	55	5168
2026-01-23 02:40:08.66	327.06	24.33	-42.0	-45.3	18.4	6.03e-01	0	59	0	102760448	55	5291
2026-01-23 02:40:11.69	326.12	24.55	-42.0	-45.2	18.5	6.03e-01	0	59	0	108527616	55	5233
2026-01-23 02:40:14.72	325.17	24.76	-42.0	-45.2	18.5	6.05e-01	0	59	0	114294784	55	5236
2026-01-23 02:40:17.75	324.20	24.97	-41.9	-45.0	18.6	6.05e-01	0	59	0	120061952	55	5145
2026-01-23 02:40:20.78	323.22	25.17	-41.9	-45.0	18.7	6.04e-01	0	59	0	125304832	55	5149
2026-01-23 02:40:23.80	322.23	25.36	-41.9	-45.1	18.5	6.03e-01	0	60	0	131072000	55	5214
2026-01-23 02:40:26.83	321.23	25.55	-41.9	-45.1	18.6	6.04e-01	0	59	0	136839168	55	5174
2026-01-23 02:40:29.86	320.21	25.73	-42.0	-45.1	18.4	6.04e-01	0	59	0	142606336	55	5212
2026-01-23 02:40:32.89	319.18	25.89	-41.8	-45.0	18.7	6.03e-01	0	59	0	148373504	55	5106
2026-01-23 02:40:35.92	318.14	26.05	-42.0	-45.1	18.6	6.03e-01	0	59	0	154140672	55	5204
2026-01-23 02:40:38.94	317.09	26.20	-41.9	-45.0	18.6	6.03e-01	0	59	0	159383552	55	5115
2026-01-23 02:40:41.97	316.03	26.34	-41.9	-45.1	18.6	6.06e-01	0	59	0	165150720	55	5195
2026-01-23 02:40:45.00	314.96	26.47	-41.8	-44.9	18.8	6.04e-01	0	60	0	170917888	55	5066
2026-01-23 02:40:48.03	313.88	26.60	-41.9	-45.1	18.6	5.99e-01	0	59	0	176685056	55	5181
2026-01-23 02:40:51.06	312.79	26.71	-41.8	-44.9	18.9	6.04e-01	0	60	0	182452224	55	5059
2026-01-23 02:40:54.08	311.69	26.81	-42.0	-45.2	18.5	6.04e-01	0	60	0	188219392	55	5222
2026-01-23 02:40:57.11	310.59	26.89	-42.1	-45.4	18.2	6.05e-01	0	60	0	193462272	55	5392
2026-01-23 02:41:00.14	309.48	26.97	-42.3	-45.6	18.0	6.02e-01	0	60	0	199229440	55	5520
2026-01-23 02:41:03.16	308.37	27.04	-42.0	-45.1	18.6	6.03e-01	0	59	0	204996608	55	5195
2026-01-23 02:41:06.19	307.25	27.09	-42.1	-45.3	18.4	6.04e-01	0	60	0	210763776	55	5311
2026-01-23 02:41:09.22	306.13	27.14	-41.9	-45.0	18.7	6.03e-01	0	60	0	216530944	55	5148
2026-01-23 02:41:12.25	305.00	27.17	-42.0	-45.1	18.6	6.04e-01	0	60	0	221773824	55	5201
2026-01-23 02:41:15.28	303.87	27.19	-42.1	-45.4	18.4	6.07e-01	0	60	0	227540992	55	5347
2026-01-23 02:41:18.30	302.75	27.20	-42.3	-45.7	17.8	6.02e-01	0	60	0	233308160	55	5592
2026-01-23 02:41:21.33	301.62	27.19	-42.0	-45.2	18.3	6.02e-01	0	60	0	239075328	55	5277
2026-01-23 02:41:24.36	300.49	27.18	-42.2	-45.6	18.1	6.03e-01	0	59	0	244842496	55	5506
2026-01-23 02:41:27.39	299.36	27.15	-42.7	-46.5	17.4	6.05e-01	0	60	0	250609664	55	6075
2026-01-23 02:41:30.41	298.24	27.11	-41.9	-45.0	18.8	6.05e-01	0	60	0	256376832	55	5113
2026-01-23 02:41:33.44	297.12	27.06	-41.7	-44.7	19.1	6.06e-01	0	60	0	261619712	55	4956
2026-01-23 02:41:36.47	296.00	27.00	-41.8	-44.8	18.9	6.03e-01	0	60	0	267386880	55	5024
2026-01-23 02:41:39.50	294.89	26.92	-42.4	-45.9	17.9	6.05e-01	0	60	0	273154048	55	5662
2026-01-23 02:41:42.53	293.78	26.84	-41.8	-44.9	18.8	6.02e-01	0	60	0	278921216	55	5068
2026-01-23 02:41:45.56	292.68	26.74	-42.0	-45.2	18.4	6.02e-01	0	60	0	284688384	55	5238
2026-01-23 02:41:48.58	291.59	26.64	-42.1	-45.4	18.3	6.06e-01	0	60	0	289931264	55	5373
2026-01-23 02:41:51.61	290.51	26.52	-42.0	-45.2	18.5	6.03e-01	0	60	0	295698432	55	5240
2026-01-23 02:41:54.64	289.43	26.39	-42.4	-46.0	17.8	6.03e-01	0	60	0	301465600	55	5752
2026-01-23 02:41:57.66	288.36	26.25	-41.7	-44.7	19.1	6.03e-01	0	60	0	307232768	55	4963
2026-01-23 02:42:00.70	287.30	26.11	-42.3	-45.8	17.9	6.03e-01	0	60	0	312999936	55	5600
2026-01-23 02:42:03.72	286.26	25.95	-42.6	-46.4	17.4	6.02e-01	0	60	0	318767104	55	5995
2026-01-23 02:42:06.75	285.22	25.78	-41.8	-44.8	18.8	6.03e-01	0	60	0	324009984	55	5037
2026-01-23 02:42:09.78	284.20	25.61	-42.7	-46.4	17.3	6.03e-01	0	60	0	329777152	55	6057
2026-01-23 02:42:12.81	283.19	25.43	-41.9	-44.9	18.6	6.03e-01	0	60	0	335544320	55	5074
2026-01-23 02:42:15.83	282.19	25.24	-42.5	-46.1	17.7	6.03e-01	0	60	0	341311488	55	5811
2026-01-23 02:42:18.86	281.20	25.04	-42.3	-45.7	17.9	6.02e-01	0	60	0	347078656	55	5544
2026-01-23 02:42:21.89	280.23	24.83	-41.8	-44.9	18.8	6.03e-01	0	60	0	352845824	55	5067
2026-01-23 02:42:24.92	279.26	24.62	-42.2	-45.6	18.0	6.04e-01	0	60	0	358088704	55	5511
2026-01-23 02:42:27.95	278.32	24.40	-42.3	-45.7	17.9	6.03e-01	0	60	0	363855872	55	5572
2026-01-23 02:42:30.98	277.38	24.18	-42.5	-46.1	17.6	6.04e-01	0	60	0	369623040	55	5791
2026-01-23 02:42:34.01	276.46	23.95	-42.2	-45.6	17.9	6.03e-01	0	60	0	375390208	55	5476
2026-01-23 02:42:37.04	275.56	23.71	-42.0	-45.3	18.2	6.06e-01	0	60	0	381157376	55	5312
2026-01-23 02:42:40.07	274.67	23.47	-42.3	-45.8	17.8	6.02e-01	0	60	0	386924544	55	5623
2026-01-23 02:42:43.09	273.79	23.23	-42.2	-45.6	17.9	6.03e-01	0	60	0	392167424	55	5515
2026-01-23 02:42:46.12	272.93	22.98	-42.3	-45.8	17.8	6.04e-01	0	60	0	397934592	55	5630
2026-01-23 02:42:49.15	272.08	22.73	-42.2	-45.6	17.9	6.05e-01	0	60	0	403701760	55	5527
2026-01-23 02:42:52.18	271.25	22.47	-42.2	-45.5	18.1	6.02e-01	0	60	0	409468928	55	5455
2026-01-23 02:42:55.21	270.43	22.21	-42.2	-45.7	17.9	6.05e-01	0	60	0	415236096	55	5555
2026-01-23 02:42:58.23	269.63	21.95	-42.2	-45.5	18.1	6.06e-01	0	60	0	421003264	55	5428
2026-01-23 02:43:01.26	268.83	21.68	-42.3	-45.7	17.9	6.05e-01	0	60	0	426246144	55	5554
2026-01-23 02:43:04.29	268.06	21.41	-42.4	-45.9	17.7	6.04e-01	0	60	0	432013312	55	5683
2026-01-23 02:43:07.32	267.30	21.14	-42.1	-45.5	18.1	6.05e-01	0	60	0	437780480	55	5426
2026-01-23 02:43:10.35	266.55	20.87	-42.2	-45.7	17.9	6.04e-01	0	60	0	443547648	55	5546
2026-01-23 02:43:13.38	265.81	20.60	-42.1	-45.4	18.1	6.04e-01	0	60	0	449314816	55	5397
2026-01-23 02:43:16.40	265.09	20.32	-42.0	-45.4	18.2	6.04e-01	0	60	0	454557696	55	5342
2026-01-23 02:43:19.43	264.39	20.05	-42.1	-45.4	18.1	6.04e-01	0	60	0	460324864	55	5398
2026-01-23 02:43:22.46	263.69	19.77	-42.1	-45.5	18.0	6.03e-01	0	60	0	466092032	55	5457
2026-01-23 02:43:25.49	263.01	19.49	-42.0	-45.4	18.1	6.06e-01	0	60	0	471859200	55	5341
2026-01-23 02:43:28.52	262.35	19.21	-42.1	-45.6	17.9	6.04e-01	0	60	0	477626368	55	5472
2026-01-23 02:43:31.54	261.69	18.93	-42.1	-45.4	18.1	6.01e-01	0	60	0	483393536	55	5397
2026-01-23 02:43:34.57	261.05	18.65	-41.9	-45.2	18.2	6.02e-01	0	60	0	488636416	55	5272
2026-01-23 02:43:37.60	260.42	18.37	-41.9	-45.1	18.3	6.01e-01	0	60	0	494403584	55	5204
2026-01-23 02:43:40.63	259.80	18.10	-41.9	-45.2	18.2	6.03e-01	0	60	0	500170752	55	5273
2026-01-23 02:43:43.65	259.20	17.82	-41.9	-45.2	18.3	6.04e-01	0	60	0	505937920	55	5246
2026-01-23 02:43:46.68	258.61	17.54	-42.0	-45.4	18.0	6.03e-01	0	60	0	511705088	55	5382
2026-01-23 02:43:49.71	258.03	17.26	-42.0	-45.4	18.1	6.02e-01	0	60	0	517472256	55	5362
2026-01-23 02:43:52.74	257.45	16.98	-42.0	-45.4	18.0	6.03e-01	0	60	0	522715136	55	5378
2026-01-23 02:43:55.77	256.89	16.71	-41.8	-45.0	18.4	6.06e-01	0	60	0	528482304	55	5143
2026-01-23 02:43:58.80	256.35	16.43	-42.0	-45.4	18.1	6.04e-01	0	60	0	534249472	55	5354
2026-01-23 02:44:01.83	255.81	16.16	-41.9	-45.3	18.1	6.05e-01	0	60	0	540016640	55	5282
2026-01-23 02:44:04.86	255.28	15.88	-41.9	-45.2	18.2	6.01e-01	0	60	0	545783808	55	5264
2026-01-23 02:44:07.89	254.76	15.61	-41.9	-45.2	18.2	6.05e-01	0	60	0	551550976	55	5264
2026-01-23 02:44:10.91	254.26	15.34	-41.9	-45.2	18.1	6.05e-01	0	60	0	556793856	55	5270
2026-01-23 02:44:13.94	253.76	15.07	-42.0	-45.4	18.0	6.05e-01	0	60	0	562561024	55	5347
2026-01-23 02:44:16.97	253.27	14.80	-42.0	-45.4	17.9	6.03e-01	0	60	0	568328192	55	5397
2026-01-23 02:44:20.00	252.79	14.53	-41.9	-45.3	18.0	6.03e-01	0	60	0	574095360	55	5333
2026-01-23 02:44:23.03	252.32	14.26	-42.0	-45.4	17.9	6.05e-01	0	60	0	579862528	55	5393
2026-01-23 02:44:26.06	251.86	14.00	-41.9	-45.3	18.0	6.05e-01	0	60	0	585105408	55	5324
2026-01-23 02:44:29.09	251.41	13.74	-42.1	-45.6	17.7	6.06e-01	0	60	0	590872576	55	5474
2026-01-23 02:44:32.11	250.97	13.48	-42.1	-45.6	17.7	6.04e-01	0	60	0	596639744	55	5473
2026-01-23 02:44:35.13	250.54	13.22	-42.0	-45.5	17.8	6.05e-01	0	60	0	602406912	55	5415
2026-01-23 02:44:38.16	250.11	12.96	-41.9	-45.3	17.9	6.03e-01	0	60	0	608174080	55	5332
2026-01-23 02:44:41.19	249.69	12.70	-42.0	-45.5	17.7	6.04e-01	0	60	0	613941248	55	5441
2026-01-23 02:44:44.22	249.28	12.44	-42.1	-45.7	17.5	6.03e-01	0	60	0	619708416	55	5591
2026-01-23 02:44:47.25	248.88	12.19	-42.0	-45.6	17.6	6.03e-01	0	60	0	624951296	55	5502
2026-01-23 02:44:50.28	248.49	11.94	-42.0	-45.5	17.7	6.02e-01	0	60	0	630718464	55	5440
2026-01-23 02:44:53.30	248.10	11.69	-42.2	-45.9	17.3	6.03e-01	0	60	0	636485632	55	5669
2026-01-23 02:44:56.33	247.72	11.44	-42.1	-45.7	17.5	6.03e-01	0	60	0	642252800	55	5543
2026-01-23 02:44:59.36	247.35	11.19	-42.1	-45.7	17.5	6.03e-01	0	60	0	648019968	55	5545
2026-01-23 02:45:02.39	246.98	10.94	-42.0	-45.7	17.4	6.03e-01	0	60	0	653262848	55	5553
2026-01-23 02:45:05.42	246.62	10.70	-42.1	-45.8	17.3	6.05e-01	0	60	0	659030016	55	5645
2026-01-23 02:45:08.44	246.27	10.46	-42.2	-46.0	17.1	6.02e-01	0	60	0	664797184	55	5727
2026-01-23 02:45:11.47	245.92	10.22	-42.2	-46.0	17.1	6.01e-01	0	60	0	670564352	55	5742
2026-01-23 02:45:14.50	245.58	9.98	-42.2	-46.0	17.0	6.04e-01	0	60	0	676331520	55	5752
2026-01-23 02:45:17.53	245.24	9.74	-42.2	-46.1	16.9	6.03e-01	0	60	0	682098688	55	5798
2026-01-23 02:45:20.56	244.91	9.50	-42.3	-46.2	16.8	6.05e-01	0	60	0	687865856	55	5900
2026-01-23 02:45:23.59	244.59	9.27	-42.3	-46.4	16.6	6.01e-01	0	60	0	693108736	55	6024
2026-01-23 02:45:26.61	244.27	9.04	-42.2	-46.1	16.8	6.04e-01	0	60	0	698875904	55	5830
2026-01-23 02:45:29.64	243.96	8.81	-42.2	-46.2	16.7	6.03e-01	0	60	0	704643072	55	5905
2026-01-23 02:45:32.67	243.65	8.58	-42.3	-46.4	16.5	6.02e-01	0	60	0	710410240	55	6016
2026-01-23 02:45:35.70	243.35	8.35	-42.3	-46.5	16.4	6.03e-01	0	60	0	716177408	55	6073
2026-01-23 02:45:38.73	243.06	8.12	-42.3	-46.4	16.4	6.02e-01	0	60	0	721420288	55	6061
2026-01-23 02:45:41.75	242.77	7.90	-45.6	-63.9	3.8	7.45e-01	0	60	104	725614592	61	31966
2026-01-23 02:45:44.78	242.48	7.68	-46.1	-64.6	3.8	7.47e-01	0	60	104	725614592	62	32870
2026-01-23 02:45:47.81	242.20	7.45	-46.2	-64.8	3.8	7.45e-01	0	60	104	725614592	62	33479
2026-01-23 02:45:50.84	241.92	7.23	-46.2	-64.8	3.8	7.43e-01	0	60	104	725614592	63	31651
2026-01-23 02:45:53.87	241.65	7.01	-46.2	-64.7	3.8	7.46e-01	0	60	104	725614592	63	31204
2026-01-23 02:45:56.90	241.38	6.80	-46.2	-64.7	3.8	7.45e-01	0	60	104	725614592	63	31155
2026-01-23 02:45:59.93	241.12	6.58	-46.1	-64.6	3.8	7.43e-01	0	60	104	725614592	63	30959
2026-01-23 02:46:02.96	240.86	6.37	-46.1	-64.6	3.8	7.43e-01	0	60	104	725614592	63	30801
2026-01-23 02:46:05.99	240.60	6.16	-46.1	-64.6	3.8	7.42e-01	0	60	104	725614592	63	30849
2026-01-23 02:46:09.02	240.35	5.94	-46.1	-64.6	3.8	7.46e-01	0	60	104	725614592	63	30854
2026-01-23 02:46:12.05	240.11	5.73	-46.1	-64.6	3.8	7.45e-01	0	60	104	725614592	63	30828
2026-01-23 02:46:15.09	239.86	5.52	-46.1	-64.6	3.8	7.43e-01	0	60	104	725614592	63	30812
2026-01-23 02:46:18.11	239.63	5.32	-46.1	-64.5	3.8	7.44e-01	0	60	104	725614592	63	30730
2026-01-23 02:46:21.14	239.39	5.11	-46.1	-64.6	3.8	7.44e-01	0	60	104	725614592	63	30812
2026-01-23 02:46:24.18	239.16	4.91	-46.1	-64.6	3.8	7.46e-01	0	60	104	725614592	63	30760
2026-01-23 02:46:27.21	238.93	4.70	-46.1	-64.6	3.8	7.44e-01	0	60	104	725614592	63	30786
2026-01-23 02:46:30.24	238.71	4.50	-46.1	-64.6	3.8	7.46e-01	0	60	104	725614592	63	30789
2026-01-23 02:46:33.27	238.49	4.30	-46.1	-64.6	3.8	7.47e-01	0	60	104	725614592	63	30784
2026-01-23 02:46:36.30	238.27	4.10	-46.1	-64.6	3.8	7.42e-01	0	60	104	725614592	63	30786
2026-01-23 02:46:39.33	238.06	3.91	-46.1	-64.6	3.8	7.46e-01	0	60	104	725614592	63	30778
2026-01-23 02:46:42.36	237.84	3.71	-46.1	-64.6	3.8	7.44e-01	0	60	104	725614592	63	30802
2026-01-23 02:46:45.39	237.64	3.51	-46.1	-64.6	3.8	7.44e-01	0	61	104	725614592	63	30780
2026-01-23 02:46:48.42	237.43	3.32	-46.0	-64.5	3.8	7.46e-01	0	60	104	725614592	63	30683
2026-01-23 02:46:51.45	237.23	3.13	-46.0	-64.5	3.8	7.42e-01	0	60	104	725614592	63	30663
2026-01-23 02:46:54.48	237.03	2.94	-46.0	-64.5	3.8	7.46e-01	0	61	104	725614592	63	30637
2026-01-23 02:46:57.51	236.84	2.74	-46.0	-64.5	3.8	7.45e-01	0	61	104	725614592	63	30563
2026-01-23 02:47:00.55	236.64	2.55	-46.0	-64.5	3.8	7.46e-01	0	60	104	725614592	63	30669
2026-01-23 02:47:03.58	236.45	2.37	-46.0	-64.5	3.8	7.41e-01	0	61	104	725614592	63	30648
2026-01-23 02:47:06.61	236.27	2.18	-46.0	-64.5	3.8	7.46e-01	0	61	104	725614592	63	30652
2026-01-23 02:47:09.64	236.08	1.99	-46.0	-64.5	3.8	7.46e-01	0	61	104	725614592	63	30616

#Closed at: 2026-01-23 02:47:11
#Recorded file [725 MB]: D:/lorett/data/31039_260123_053526.dat