passes_logs/2026/01/23/R2.0S_Moscow/R2.0S_Moscow__20260123_012221_FENGYUN_3D_rec.log

#Pass ID: 20260123_012221_FENGYUN 3D
#Satellite: FENGYUN 3D
#Configuration: FENGYUN 3D
#almurnet v.1.7.20251203
#Start time: 2026-01-23 01:22:21

#Version: 2.2.20231116
#Station: R2.0S_Moscow
#Location: 37.707566 lon 55.798166 lat
#TLE: 1 43010U 17072A   26022.47411728  .00000617  00000+0  31375-3 0  9996
#TLE: 2 43010  98.9952 354.4060 0002481  95.7964 264.3494 14.19699924424319

#Time	Az	El	Level	Level2	SNR	BER	BlckErr	Temp	State	Recorded	gain1	gain2
2026-01-23 01:22:21.90	18.48	2.01	-42.1	-53.7	3.8	8.46e-01	0	51	0	0	56	13171
2026-01-23 01:22:25.94	18.57	2.27	-41.9	-53.5	3.8	8.46e-01	0	52	104	0	55	13687
2026-01-23 01:22:29.98	18.66	2.53	-41.9	-53.5	3.8	8.46e-01	0	52	104	0	55	13643
2026-01-23 01:22:34.02	18.75	2.79	-41.9	-53.5	3.8	8.46e-01	0	53	104	0	55	13612
2026-01-23 01:22:38.06	18.84	3.05	-41.9	-53.5	3.8	8.47e-01	0	53	104	0	55	13635
2026-01-23 01:22:42.10	18.93	3.31	-41.9	-53.5	3.8	8.45e-01	0	53	104	0	55	13650
2026-01-23 01:22:46.14	19.03	3.58	-41.9	-53.5	3.8	8.46e-01	0	53	104	0	55	13687
2026-01-23 01:22:50.18	19.12	3.85	-41.9	-53.5	3.8	8.46e-01	0	53	104	0	55	13660
2026-01-23 01:22:54.23	19.22	4.13	-41.9	-53.5	3.8	8.47e-01	0	54	104	0	55	13605
2026-01-23 01:22:58.27	19.32	4.40	-41.9	-53.5	3.8	8.46e-01	0	54	104	0	55	13655
2026-01-23 01:23:02.31	19.42	4.68	-41.9	-53.5	3.8	8.46e-01	0	54	104	0	55	13661
2026-01-23 01:23:06.35	19.52	4.96	-41.9	-53.5	3.8	8.46e-01	0	54	104	0	55	13641
2026-01-23 01:23:10.39	19.62	5.25	-41.9	-53.5	3.8	8.47e-01	0	55	104	0	55	13644
2026-01-23 01:23:14.43	19.73	5.53	-41.9	-53.4	3.8	8.47e-01	0	55	104	0	55	13553
2026-01-23 01:23:18.47	19.83	5.83	-41.9	-53.5	3.8	8.47e-01	0	55	104	0	55	13591
2026-01-23 01:23:22.51	19.94	6.12	-41.9	-53.4	3.8	8.47e-01	0	55	104	0	55	13566
2026-01-23 01:23:26.55	20.05	6.42	-41.9	-53.4	3.8	8.47e-01	0	55	104	0	55	13530
2026-01-23 01:23:30.58	20.17	6.72	-41.9	-53.3	3.8	8.46e-01	0	56	104	0	55	13359
2026-01-23 01:23:34.62	20.28	7.02	-41.9	-53.1	3.8	8.47e-01	0	56	104	0	55	13080
2026-01-23 01:23:38.67	20.40	7.33	-41.9	-53.0	3.8	8.46e-01	0	56	104	0	55	12830
2026-01-23 01:23:42.71	20.52	7.64	-41.7	-51.5	3.8	8.46e-01	0	56	104	0	55	10875
2026-01-23 01:23:46.75	20.64	7.95	-41.3	-48.7	4.6	8.19e-01	0	56	0	0	54	8349
2026-01-23 01:23:50.79	20.76	8.27	-41.0	-48.9	4.5	1.39e-02	0	56	0	13631488	52	9520
2026-01-23 01:23:54.83	20.88	8.60	-38.3	-40.7	12.7	3.43e-05	0	56	0	27262976	48	4675
2026-01-23 01:23:58.86	21.01	8.92	-38.8	-41.4	12.2	1.65e-04	0	57	0	50331648	48	5050
2026-01-23 01:24:02.90	21.14	9.25	-38.8	-41.3	12.5	6.52e-05	0	57	0	72351744	48	5004
2026-01-23 01:24:06.95	21.28	9.59	-38.7	-41.1	12.7	6.29e-05	0	57	0	95420416	48	4926
2026-01-23 01:24:10.98	21.41	9.93	-39.1	-41.7	12.3	8.81e-05	0	57	0	118489088	48	5234
2026-01-23 01:24:15.02	21.55	10.28	-39.4	-42.1	12.1	1.27e-04	0	57	0	141557760	49	5172
2026-01-23 01:24:19.06	21.69	10.63	-39.1	-41.5	12.8	4.92e-05	0	57	0	163577856	49	4846
2026-01-23 01:24:23.09	21.83	10.98	-39.0	-41.4	12.9	2.74e-05	0	57	0	186646528	49	4783
2026-01-23 01:24:27.14	21.98	11.34	-38.8	-41.0	13.5	1.02e-05	0	58	0	208666624	49	4582
2026-01-23 01:24:31.18	22.13	11.70	-38.8	-41.0	13.7	3.40e-06	0	58	0	231735296	49	4556
2026-01-23 01:24:35.22	22.29	12.08	-38.7	-40.8	13.8	2.20e-06	0	58	0	254803968	49	4471
2026-01-23 01:24:39.25	22.44	12.45	-38.5	-40.5	14.1	1.10e-06	0	57	0	276824064	49	4340
2026-01-23 01:24:43.29	22.61	12.83	-38.4	-40.4	14.4	0.00e+00	0	58	0	299892736	48	4515
2026-01-23 01:24:47.33	22.77	13.22	-38.3	-40.3	14.6	0.00e+00	0	58	0	322961408	48	4443
2026-01-23 01:24:51.37	22.94	13.61	-38.3	-40.2	14.7	0.00e+00	0	58	0	346030080	48	4397
2026-01-23 01:24:55.40	23.11	14.01	-38.3	-40.2	14.6	0.00e+00	0	58	0	368050176	48	4425
2026-01-23 01:24:59.45	23.29	14.42	-38.2	-40.1	14.8	0.00e+00	0	58	0	391118848	48	4368
2026-01-23 01:25:03.49	23.47	14.83	-38.3	-40.2	14.8	0.00e+00	0	58	0	413138944	48	4397
2026-01-23 01:25:07.53	23.66	15.25	-38.1	-39.9	15.0	0.00e+00	0	58	0	436207616	48	4281
2026-01-23 01:25:11.57	23.85	15.68	-38.0	-39.9	15.1	0.00e+00	0	58	0	459276288	48	4245
2026-01-23 01:25:15.61	24.05	16.12	-37.8	-39.5	15.4	0.00e+00	0	58	0	481296384	47	4335
2026-01-23 01:25:19.64	24.25	16.56	-37.6	-39.3	15.7	0.00e+00	0	58	0	504365056	47	4220
2026-01-23 01:25:23.68	24.45	17.01	-37.4	-39.1	15.9	0.00e+00	0	59	0	527433728	46	4369
2026-01-23 01:25:27.72	24.67	17.47	-37.5	-39.2	15.9	0.00e+00	0	59	0	550502400	46	4408
2026-01-23 01:25:31.76	24.89	17.93	-37.4	-39.1	16.0	0.00e+00	0	59	0	572522496	46	4345
2026-01-23 01:25:35.80	25.11	18.41	-37.2	-38.8	16.3	0.00e+00	0	59	0	595591168	46	4226
2026-01-23 01:25:39.84	25.35	18.89	-37.0	-38.6	16.5	0.00e+00	0	59	0	617611264	45	4352
2026-01-23 01:25:43.88	25.58	19.39	-37.0	-38.5	16.5	0.00e+00	0	59	0	640679936	45	4330
2026-01-23 01:25:47.92	25.83	19.89	-37.1	-38.7	16.5	0.00e+00	0	59	0	663748608	45	4396
2026-01-23 01:25:51.96	26.09	20.40	-37.2	-38.8	16.4	0.00e+00	0	59	0	686817280	45	4456
2026-01-23 01:25:56.00	26.35	20.93	-37.0	-38.5	16.6	0.00e+00	0	59	0	708837376	45	4336
2026-01-23 01:26:00.03	26.62	21.46	-36.9	-38.5	16.7	0.00e+00	0	59	0	731906048	45	4311
2026-01-23 01:26:04.07	26.90	22.01	-36.9	-38.5	16.7	0.00e+00	0	59	0	754974720	45	4321
2026-01-23 01:26:08.11	27.19	22.56	-36.8	-38.3	16.9	0.00e+00	0	59	0	776994816	45	4209
2026-01-23 01:26:12.15	27.49	23.13	-36.4	-37.8	17.5	0.00e+00	0	59	0	800063488	44	4229
2026-01-23 01:26:16.19	27.80	23.71	-36.2	-37.6	17.7	0.00e+00	0	59	0	822083584	44	4122
2026-01-23 01:26:20.23	28.12	24.31	-36.3	-37.8	17.5	0.00e+00	0	59	0	845152256	44	4197
2026-01-23 01:26:24.28	28.46	24.91	-36.3	-37.7	17.6	0.00e+00	0	59	0	868220928	44	4166
2026-01-23 01:26:28.32	28.80	25.53	-36.0	-37.4	17.9	0.00e+00	0	60	0	891289600	44	4045
2026-01-23 01:26:32.36	29.16	26.17	-36.1	-37.5	17.9	0.00e+00	0	59	0	913309696	44	4061
2026-01-23 01:26:36.40	29.54	26.81	-36.4	-37.9	17.5	0.00e+00	0	60	0	936378368	44	4262
2026-01-23 01:26:40.43	29.92	27.47	-36.3	-37.7	17.7	0.00e+00	0	59	0	959447040	44	4168
2026-01-23 01:26:44.47	30.33	28.15	-36.1	-37.5	17.9	0.00e+00	0	59	0	981467136	44	4053
2026-01-23 01:26:48.51	30.75	28.84	-36.0	-37.4	18.0	0.00e+00	0	59	0	1004535808	44	4023
2026-01-23 01:26:52.54	31.19	29.55	-35.7	-37.1	18.2	0.00e+00	0	60	0	1026555904	43	4104
2026-01-23 01:26:56.58	31.65	30.28	-35.6	-37.0	18.3	0.00e+00	0	60	0	1049624576	43	4065
2026-01-23 01:27:00.62	32.13	31.02	-35.8	-37.1	18.1	0.00e+00	0	59	0	1072693248	43	4130
2026-01-23 01:27:04.66	32.63	31.78	-35.9	-37.3	17.9	0.00e+00	0	60	0	1095761920	43	4226
2026-01-23 01:27:08.70	33.15	32.55	-35.9	-37.3	18.0	0.00e+00	0	60	0	1117782016	43	4203
2026-01-23 01:27:12.74	33.70	33.35	-35.7	-37.1	18.2	0.00e+00	0	60	0	1140850688	43	4117
2026-01-23 01:27:16.79	34.28	34.16	-35.8	-37.1	18.1	0.00e+00	0	60	0	1163919360	43	4136
2026-01-23 01:27:20.82	34.89	34.99	-35.6	-36.9	18.4	0.00e+00	0	60	0	1185939456	43	4040
2026-01-23 01:27:24.86	35.52	35.84	-35.5	-36.8	18.5	0.00e+00	0	59	0	1209008128	43	3998
2026-01-23 01:27:28.90	36.20	36.71	-35.5	-36.8	18.6	0.00e+00	0	60	0	1231028224	42	4206
2026-01-23 01:27:32.95	36.90	37.61	-35.3	-36.7	18.3	0.00e+00	0	60	0	1254096896	42	4153
2026-01-23 01:27:36.98	37.65	38.51	-35.4	-36.8	18.2	0.00e+00	0	60	0	1277165568	42	4242
2026-01-23 01:27:41.02	38.44	39.44	-35.6	-37.0	18.0	0.00e+00	0	60	0	1300234240	42	4339
2026-01-23 01:27:45.06	39.27	40.39	-35.6	-37.0	18.1	0.00e+00	0	60	0	1322254336	42	4324
2026-01-23 01:27:49.10	40.16	41.36	-35.7	-37.2	17.9	0.00e+00	0	60	0	1345323008	42	4418
2026-01-23 01:27:53.13	41.10	42.34	-35.9	-37.4	17.7	0.00e+00	0	60	0	1368391680	42	4513
2026-01-23 01:27:57.18	42.10	43.35	-35.8	-37.3	17.8	0.00e+00	0	60	0	1390411776	42	4490
2026-01-23 01:28:01.19	43.15	44.36	-35.8	-37.3	17.8	0.00e+00	0	60	0	1413480448	42	4472
2026-01-23 01:28:05.23	44.28	45.39	-35.9	-37.4	17.8	0.00e+00	0	60	0	1435500544	42	4494
2026-01-23 01:28:09.27	45.49	46.44	-36.0	-37.5	17.7	0.00e+00	0	60	0	1458569216	42	4564
2026-01-23 01:28:13.31	46.78	47.51	-36.1	-37.6	17.6	0.00e+00	0	60	0	1481637888	42	4612
2026-01-23 01:28:17.35	48.16	48.58	-36.0	-37.5	17.7	0.00e+00	0	60	0	1503657984	42	4587
2026-01-23 01:28:21.38	49.64	49.66	-36.1	-37.6	17.7	0.00e+00	0	60	0	1526726656	42	4605
2026-01-23 01:28:25.42	51.22	50.75	-36.3	-37.9	17.3	0.00e+00	0	60	0	1549795328	43	4499
2026-01-23 01:28:29.46	52.93	51.84	-36.4	-37.9	17.4	0.00e+00	0	60	0	1572864000	43	4523
2026-01-23 01:28:33.50	54.76	52.92	-36.6	-38.2	17.1	0.00e+00	0	60	0	1594884096	43	4655
2026-01-23 01:28:37.54	56.74	54.00	-36.8	-38.3	17.1	0.00e+00	0	60	0	1617952768	44	4476
2026-01-23 01:28:41.58	58.86	55.06	-36.7	-38.3	17.1	0.00e+00	0	60	0	1639972864	44	4455
2026-01-23 01:28:45.62	61.15	56.11	-37.1	-38.8	16.7	0.00e+00	0	60	0	1663041536	44	4736
2026-01-23 01:28:49.65	63.61	57.12	-37.0	-38.5	16.9	0.00e+00	0	60	0	1686110208	44	4589
2026-01-23 01:28:53.69	66.26	58.10	-36.6	-38.1	17.3	0.00e+00	0	60	0	1708130304	44	4362
2026-01-23 01:28:57.73	69.10	59.04	-36.5	-38.0	17.4	0.00e+00	0	60	0	1731198976	44	4306
2026-01-23 01:29:01.77	72.15	59.92	-35.9	-37.4	17.9	0.00e+00	0	60	0	1754267648	43	4259
2026-01-23 01:29:05.81	75.40	60.73	-35.8	-37.2	18.0	0.00e+00	0	60	0	1777336320	43	4162
2026-01-23 01:29:09.85	78.86	61.47	-35.6	-37.0	18.2	0.00e+00	0	60	0	1799356416	43	4064
2026-01-23 01:29:13.88	82.50	62.12	-35.8	-37.3	17.9	0.00e+00	0	60	0	1822425088	42	4442
2026-01-23 01:29:17.92	86.35	62.68	-36.0	-37.5	17.7	0.00e+00	0	60	0	1844445184	42	4550
2026-01-23 01:29:21.96	90.35	63.12	-35.6	-37.1	18.0	0.00e+00	0	60	0	1867513856	42	4347
2026-01-23 01:29:26.00	94.49	63.45	-35.5	-36.9	18.3	0.00e+00	0	60	0	1890582528	42	4257
2026-01-23 01:29:30.03	98.71	63.66	-35.4	-36.8	18.3	0.00e+00	0	60	0	1912602624	42	4197
2026-01-23 01:29:34.07	102.99	63.74	-35.2	-36.6	18.5	0.00e+00	0	60	0	1935671296	42	4123
2026-01-23 01:29:38.11	107.28	63.68	-35.5	-36.9	18.2	0.00e+00	0	60	0	1958739968	42	4277
2026-01-23 01:29:42.15	111.53	63.50	-35.7	-37.2	17.9	0.00e+00	0	60	0	1980760064	42	4402
2026-01-23 01:29:46.20	115.70	63.20	-35.5	-36.9	18.3	0.00e+00	0	60	0	2003828736	42	4247
2026-01-23 01:29:50.23	119.73	62.77	-35.6	-37.0	18.1	0.00e+00	0	60	0	2026897408	42	4306
2026-01-23 01:29:54.27	123.60	62.24	-35.7	-37.1	17.9	0.00e+00	0	60	0	2048917504	42	4385
2026-01-23 01:29:58.31	127.30	61.60	-35.3	-36.7	18.3	0.00e+00	0	60	0	2071986176	42	4180
2026-01-23 01:30:02.34	130.80	60.88	-35.6	-37.0	18.1	0.00e+00	0	60	0	2095054848	42	4305
2026-01-23 01:30:06.37	134.09	60.08	-36.0	-37.5	17.7	0.00e+00	0	60	0	2117074944	42	4553
2026-01-23 01:30:10.42	137.18	59.21	-36.0	-37.5	17.6	0.00e+00	0	60	0	2140143616	42	4589
2026-01-23 01:30:14.45	140.06	58.28	-36.0	-37.5	17.6	0.00e+00	0	60	0	2163212288	42	4579
2026-01-23 01:30:18.49	142.75	57.30	-36.1	-37.5	17.6	0.00e+00	0	60	0	2185232384	43	4336
2026-01-23 01:30:22.53	145.26	56.29	-36.4	-38.0	17.1	0.00e+00	0	60	0	2208301056	43	4562
2026-01-23 01:30:26.57	147.58	55.25	-36.6	-38.1	17.0	0.00e+00	0	61	0	2231369728	43	4637
2026-01-23 01:30:30.60	149.73	54.19	-36.7	-38.3	16.9	0.00e+00	0	60	0	2253389824	44	4446
2026-01-23 01:30:34.64	151.74	53.11	-36.6	-38.2	17.0	0.00e+00	0	60	0	2276458496	44	4440
2026-01-23 01:30:38.68	153.60	52.02	-36.5	-38.0	17.2	0.00e+00	0	61	0	2299527168	44	4312
2026-01-23 01:30:42.72	155.33	50.93	-36.2	-37.7	17.6	0.00e+00	0	61	0	2321547264	44	4153
2026-01-23 01:30:46.76	156.95	49.83	-36.0	-37.5	17.8	0.00e+00	0	60	0	2344615936	44	4056
2026-01-23 01:30:50.79	158.45	48.75	-36.1	-37.5	17.7	0.00e+00	0	60	0	2367684608	44	4092
2026-01-23 01:30:54.83	159.85	47.67	-35.8	-37.3	17.7	0.00e+00	0	60	0	2389704704	43	4207
2026-01-23 01:30:58.86	161.15	46.60	-35.7	-37.2	17.7	0.00e+00	0	60	0	2412773376	43	4164
2026-01-23 01:31:02.90	162.38	45.54	-35.7	-37.1	17.8	0.00e+00	0	60	0	2434793472	43	4141
2026-01-23 01:31:06.94	163.52	44.50	-35.5	-36.9	18.0	0.00e+00	0	60	0	2457862144	42	4276
2026-01-23 01:31:10.98	164.60	43.47	-35.6	-37.1	17.9	0.00e+00	0	61	0	2480930816	42	4356
2026-01-23 01:31:15.01	165.61	42.46	-35.4	-36.9	18.1	0.00e+00	0	60	0	2503999488	42	4244
2026-01-23 01:31:19.05	166.56	41.47	-35.4	-36.9	18.0	0.00e+00	0	61	0	2526019584	42	4249
2026-01-23 01:31:23.09	167.45	40.49	-35.3	-36.8	18.1	0.00e+00	0	61	0	2549088256	42	4197
2026-01-23 01:31:27.13	168.29	39.54	-35.3	-36.7	18.1	0.00e+00	0	60	0	2572156928	42	4176
2026-01-23 01:31:31.17	169.09	38.60	-35.3	-36.8	18.1	0.00e+00	0	60	0	2594177024	42	4215
2026-01-23 01:31:35.21	169.85	37.69	-34.9	-36.2	18.6	0.00e+00	0	61	0	2617245696	41	4174
2026-01-23 01:31:39.25	170.56	36.79	-34.9	-36.3	18.5	0.00e+00	0	61	0	2639265792	41	4204
2026-01-23 01:31:43.28	171.24	35.91	-35.2	-36.6	18.2	0.00e+00	0	60	0	2662334464	41	4371
2026-01-23 01:31:47.32	171.88	35.05	-35.1	-36.5	18.2	0.00e+00	0	61	0	2685403136	41	4331
2026-01-23 01:31:51.36	172.49	34.21	-35.3	-36.7	18.1	0.00e+00	0	60	0	2708471808	41	4420
2026-01-23 01:31:55.40	173.07	33.39	-35.3	-36.8	17.9	0.00e+00	0	61	0	2730491904	41	4459
2026-01-23 01:31:59.43	173.62	32.59	-35.4	-36.9	17.9	0.00e+00	0	61	0	2753560576	41	4501
2026-01-23 01:32:03.47	174.15	31.81	-35.6	-37.1	17.6	0.00e+00	0	60	0	2776629248	41	4623
2026-01-23 01:32:07.51	174.66	31.04	-35.8	-37.3	17.4	0.00e+00	0	61	0	2798649344	42	4467
2026-01-23 01:32:11.55	175.14	30.30	-35.8	-37.3	17.5	0.00e+00	0	61	0	2821718016	42	4462
2026-01-23 01:32:15.59	175.60	29.56	-35.7	-37.2	17.6	0.00e+00	0	61	0	2843738112	42	4400
2026-01-23 01:32:19.63	176.04	28.85	-35.7	-37.3	17.5	0.00e+00	0	60	0	2866806784	42	4448
2026-01-23 01:32:23.67	176.47	28.15	-35.6	-37.1	17.6	0.00e+00	0	61	0	2889875456	42	4386
2026-01-23 01:32:27.71	176.87	27.47	-35.6	-37.1	17.7	0.00e+00	0	61	0	2912944128	42	4343
2026-01-23 01:32:31.75	177.26	26.80	-35.6	-37.1	17.6	0.00e+00	0	61	0	2934964224	42	4369
2026-01-23 01:32:35.79	177.64	26.15	-35.8	-37.3	17.4	0.00e+00	0	61	0	2958032896	42	4482
2026-01-23 01:32:39.83	178.00	25.51	-35.8	-37.3	17.3	0.00e+00	0	61	0	2981101568	42	4487
2026-01-23 01:32:43.87	178.34	24.88	-35.9	-37.4	17.2	0.00e+00	0	60	0	3003121664	42	4525
2026-01-23 01:32:47.91	178.68	24.27	-35.8	-37.3	17.3	0.00e+00	0	61	0	3026190336	42	4491
2026-01-23 01:32:51.95	179.00	23.68	-35.9	-37.4	17.2	0.00e+00	0	61	0	3048210432	42	4540
2026-01-23 01:32:55.99	179.31	23.09	-36.2	-37.8	16.9	0.00e+00	0	61	0	3071279104	42	4736
2026-01-23 01:33:00.03	179.61	22.52	-36.2	-37.8	16.8	0.00e+00	0	61	0	3094347776	43	4483
2026-01-23 01:33:04.06	179.90	21.96	-36.3	-37.9	16.7	0.00e+00	0	61	0	3117416448	43	4544
2026-01-23 01:33:08.11	180.18	21.41	-36.4	-38.1	16.6	0.00e+00	0	61	0	3139436544	43	4608
2026-01-23 01:33:12.14	180.45	20.87	-36.5	-38.2	16.5	0.00e+00	0	61	0	3162505216	43	4655
2026-01-23 01:33:16.18	180.71	20.34	-36.7	-38.4	16.3	0.00e+00	0	61	0	3185573888	43	4778
2026-01-23 01:33:20.22	180.96	19.82	-37.0	-38.8	16.0	0.00e+00	0	61	0	3207593984	44	4711
2026-01-23 01:33:24.25	181.21	19.32	-37.0	-38.7	16.0	0.00e+00	0	61	0	3230662656	44	4696
2026-01-23 01:33:28.29	181.45	18.82	-37.2	-38.9	15.9	0.00e+00	0	60	0	3252682752	44	4808
2026-01-23 01:33:32.33	181.68	18.33	-37.1	-38.9	15.9	0.00e+00	0	61	0	3275751424	44	4791
2026-01-23 01:33:36.37	181.90	17.85	-37.2	-39.0	15.8	0.00e+00	0	61	0	3298820096	45	4565
2026-01-23 01:33:40.41	182.12	17.38	-37.3	-39.1	15.7	0.00e+00	0	61	0	3321888768	45	4638
2026-01-23 01:33:44.45	182.33	16.92	-37.4	-39.2	15.5	0.00e+00	0	61	0	3343908864	45	4698
2026-01-23 01:33:48.49	182.54	16.47	-37.6	-39.4	15.3	0.00e+00	0	61	0	3366977536	45	4814
2026-01-23 01:33:52.53	182.74	16.02	-37.7	-39.6	15.2	0.00e+00	0	61	0	3388997632	45	4896
2026-01-23 01:33:56.57	182.93	15.58	-37.9	-39.9	14.9	0.00e+00	0	61	0	3412066304	46	4761
2026-01-23 01:34:00.61	183.12	15.15	-38.0	-40.0	14.7	0.00e+00	0	61	0	3435134976	46	4850
2026-01-23 01:34:04.64	183.30	14.73	-38.2	-40.2	14.5	0.00e+00	0	61	0	3457155072	46	4977
2026-01-23 01:34:08.68	183.48	14.31	-38.2	-40.3	14.5	1.10e-06	0	61	0	3480223744	47	4708
2026-01-23 01:34:12.72	183.66	13.91	-38.1	-40.1	14.6	1.10e-06	0	61	0	3503292416	47	4650
2026-01-23 01:34:16.76	183.83	13.50	-38.2	-40.2	14.5	0.00e+00	0	61	0	3526361088	47	4685
2026-01-23 01:34:20.79	183.99	13.11	-38.2	-40.3	14.4	0.00e+00	0	61	0	3548381184	47	4724
2026-01-23 01:34:24.83	184.16	12.72	-38.3	-40.4	14.3	0.00e+00	0	61	0	3571449856	47	4772
2026-01-23 01:34:28.86	184.31	12.33	-38.3	-40.4	14.3	0.00e+00	0	61	0	3593469952	47	4789
2026-01-23 01:34:32.91	184.47	11.95	-38.3	-40.4	14.2	1.10e-06	0	61	0	3616538624	47	4799
2026-01-23 01:34:36.94	184.62	11.58	-38.4	-40.6	14.1	0.00e+00	0	61	0	3639607296	47	4890
2026-01-23 01:34:40.98	184.77	11.22	-38.5	-40.7	14.0	1.10e-06	0	61	0	3661627392	47	4963
2026-01-23 01:34:45.02	184.91	10.85	-38.6	-40.9	13.8	2.20e-06	0	61	0	3684696064	47	5063
2026-01-23 01:34:49.05	185.05	10.50	-38.9	-41.2	13.6	2.20e-06	0	61	0	3707764736	48	4931
2026-01-23 01:34:53.10	185.19	10.15	-39.0	-41.3	13.4	3.40e-06	0	61	0	3729784832	48	5001
2026-01-23 01:34:57.14	185.33	9.80	-39.0	-41.3	13.4	6.80e-06	0	61	0	3752853504	48	5012
2026-01-23 01:35:01.18	185.46	9.46	-39.1	-41.4	13.2	1.25e-05	0	61	0	3775922176	48	5087
2026-01-23 01:35:05.22	185.59	9.12	-39.1	-41.5	13.1	2.40e-05	0	61	0	3797942272	48	5133
2026-01-23 01:35:09.25	185.71	8.79	-39.2	-41.6	13.0	2.17e-05	0	61	0	3821010944	49	4902
2026-01-23 01:35:13.30	185.84	8.46	-39.3	-41.8	12.8	2.97e-05	0	61	0	3844079616	49	4985
2026-01-23 01:35:17.34	185.96	8.13	-39.3	-41.8	12.7	4.57e-05	0	61	0	3866099712	49	5017
2026-01-23 01:35:21.38	186.08	7.81	-44.9	-56.7	3.8	8.46e-01	0	61	104	3875536896	60	14843
2026-01-23 01:35:25.42	186.19	7.49	-45.2	-57.0	3.8	8.45e-01	0	61	104	3875536896	60	15335
2026-01-23 01:35:29.46	186.31	7.18	-45.2	-57.0	3.8	8.45e-01	0	61	104	3875536896	61	14397
2026-01-23 01:35:33.50	186.42	6.87	-45.2	-56.9	3.8	8.47e-01	0	61	104	3875536896	61	14316
2026-01-23 01:35:37.54	186.53	6.57	-45.2	-56.9	3.8	8.46e-01	0	61	104	3875536896	61	14292
2026-01-23 01:35:41.58	186.64	6.26	-45.1	-56.9	3.8	8.47e-01	0	61	104	3875536896	61	14236
2026-01-23 01:35:45.62	186.75	5.96	-45.1	-56.9	3.8	8.47e-01	0	61	104	3875536896	61	14218
2026-01-23 01:35:49.66	186.85	5.67	-45.1	-56.8	3.8	8.46e-01	0	61	104	3875536896	61	14206
2026-01-23 01:35:53.70	186.95	5.38	-45.1	-56.9	3.8	8.46e-01	0	61	104	3875536896	61	14217
2026-01-23 01:35:57.73	187.05	5.09	-45.1	-56.8	3.8	8.47e-01	0	61	104	3875536896	61	14191
2026-01-23 01:36:01.77	187.15	4.80	-45.1	-56.8	3.8	8.45e-01	0	61	104	3875536896	61	14140
2026-01-23 01:36:05.81	187.25	4.52	-45.1	-56.8	3.8	8.46e-01	0	61	104	3875536896	61	14075
2026-01-23 01:36:09.85	187.34	4.24	-45.0	-56.8	3.8	8.46e-01	0	61	104	3875536896	61	14099
2026-01-23 01:36:13.89	187.44	3.96	-45.0	-56.8	3.8	8.45e-01	0	61	104	3875536896	61	14080
2026-01-23 01:36:17.93	187.53	3.69	-45.0	-56.8	3.8	8.46e-01	0	61	104	3875536896	61	14056
2026-01-23 01:36:21.97	187.62	3.42	-45.0	-56.8	3.8	8.45e-01	0	61	104	3875536896	61	14088
2026-01-23 01:36:26.01	187.71	3.15	-45.0	-56.8	3.8	8.47e-01	0	61	104	3875536896	61	14103
2026-01-23 01:36:30.05	187.80	2.88	-45.0	-56.8	3.8	8.45e-01	0	61	104	3875536896	61	14090
2026-01-23 01:36:34.09	187.88	2.62	-45.0	-56.8	3.8	8.46e-01	0	61	104	3875536896	61	14052
2026-01-23 01:36:38.13	187.97	2.35	-45.0	-56.8	3.8	8.46e-01	0	61	104	3875536896	61	14080
2026-01-23 01:36:42.17	188.05	2.10	-45.0	-56.7	3.8	8.45e-01	0	61	104	3875536896	61	14016

#Closed at: 2026-01-23 01:36:45
#Recorded file [3875 MB]: D:/lorett/data/31039_260123_042221.dat