passes_logs/2026/01/23/R2.0S_Moscow/R2.0S_Moscow__20260123_013534_NOAA_21_JPSS-2_rec.log

#Pass ID: 20260123_013534_NOAA 21 (JPSS-2)
#Satellite: NOAA 21 (JPSS-2)
#Configuration: NOAA-21
#almurnet v.1.7.20251203
#Start time: 2026-01-23 01:36:52

#Version: 2.2.20231116
#Station: R2.0S_Moscow
#Location: 37.707566 lon 55.798166 lat
#TLE: 1 54234U 22150A   26022.41365820  .00000211  00000+0  12084-3 0  9990
#TLE: 2 54234  98.7507 323.2240 0000658 234.5287 125.5828 14.19537645165864

#Time	Az	El	Level	Level2	SNR	BER	BlckErr	Temp	State	Recorded	gain1	gain2
2026-01-23 01:36:52.85	2.88	6.37	-45.0	-56.7	3.8	8.47e-01	0	60	0	0	61	13970
2026-01-23 01:36:55.87	2.58	6.54	-45.1	-57.5	3.8	1.49e+00	0	61	104	0	62	14455
2026-01-23 01:36:58.90	2.27	6.72	-45.1	-57.5	3.8	1.49e+00	0	61	104	0	62	14455
2026-01-23 01:37:01.93	1.96	6.89	-45.1	-57.5	3.8	1.49e+00	0	61	104	0	62	14445
2026-01-23 01:37:04.96	1.64	7.07	-45.1	-57.4	3.8	1.49e+00	0	61	104	0	62	14366
2026-01-23 01:37:07.99	1.32	7.25	-45.1	-57.5	3.8	1.49e+00	0	61	104	0	62	14417
2026-01-23 01:37:11.02	1.00	7.43	-45.1	-57.5	3.8	1.49e+00	0	61	104	0	62	14405
2026-01-23 01:37:14.05	0.67	7.61	-45.1	-57.4	3.8	1.49e+00	0	61	104	0	62	14315
2026-01-23 01:37:17.08	0.34	7.79	-45.1	-57.5	3.8	1.49e+00	0	61	104	0	62	14408
2026-01-23 01:37:20.11	0.00	7.96	-45.1	-57.5	3.8	1.49e+00	0	61	104	0	62	14389
2026-01-23 01:37:23.14	359.66	8.14	-45.1	-57.4	3.8	1.49e+00	0	61	104	0	62	14353
2026-01-23 01:37:26.17	359.32	8.32	-45.1	-57.4	3.8	1.49e+00	0	61	104	0	62	14366
2026-01-23 01:37:29.20	358.97	8.50	-45.1	-57.5	3.8	1.49e+00	0	61	104	0	62	14387
2026-01-23 01:37:32.23	358.62	8.68	-45.1	-57.5	3.8	1.49e+00	0	61	104	0	62	14384
2026-01-23 01:37:35.26	358.26	8.86	-45.1	-57.4	3.8	1.49e+00	0	61	104	0	62	14338
2026-01-23 01:37:38.29	357.89	9.04	-45.1	-57.4	3.8	1.49e+00	0	61	104	0	62	14325
2026-01-23 01:37:41.32	357.53	9.23	-45.1	-57.4	3.8	1.49e+00	0	61	104	0	62	14363
2026-01-23 01:37:44.35	357.16	9.41	-45.1	-57.5	3.8	1.49e+00	0	61	104	0	62	14381
2026-01-23 01:37:47.38	356.78	9.59	-45.1	-57.4	3.8	1.49e+00	0	61	104	0	62	14361
2026-01-23 01:37:50.41	356.40	9.77	-45.1	-57.4	3.8	1.49e+00	0	61	104	0	62	14361
2026-01-23 01:37:53.44	356.01	9.95	-45.1	-57.5	3.8	1.49e+00	0	61	104	0	62	14408
2026-01-23 01:37:56.47	355.62	10.13	-45.1	-57.5	3.8	1.49e+00	0	61	104	0	62	14404
2026-01-23 01:37:59.50	355.22	10.31	-45.1	-57.5	3.8	1.49e+00	0	61	104	0	62	14393
2026-01-23 01:38:02.53	354.82	10.49	-45.1	-57.4	3.8	1.49e+00	0	61	104	0	62	14310
2026-01-23 01:38:05.56	354.41	10.68	-45.1	-57.5	3.8	1.49e+00	0	61	104	0	62	14432
2026-01-23 01:38:08.59	354.00	10.86	-45.1	-57.4	3.8	1.49e+00	0	61	104	0	62	14352
2026-01-23 01:38:11.62	353.59	11.04	-45.1	-57.5	3.8	1.49e+00	0	61	104	0	62	14397
2026-01-23 01:38:14.65	353.16	11.22	-45.1	-57.5	3.8	1.49e+00	0	61	104	0	62	14375
2026-01-23 01:38:17.68	352.73	11.40	-45.1	-57.5	3.8	1.49e+00	0	61	104	0	62	14391
2026-01-23 01:38:20.71	352.30	11.58	-45.1	-57.5	3.8	1.49e+00	0	61	104	0	62	14405
2026-01-23 01:38:23.74	351.86	11.76	-45.1	-57.5	3.8	1.49e+00	0	61	104	0	62	14415
2026-01-23 01:38:26.77	351.42	11.94	-45.1	-57.5	3.8	1.49e+00	0	61	104	0	62	14393
2026-01-23 01:38:29.80	350.97	12.12	-45.1	-57.5	3.8	1.49e+00	0	61	104	0	62	14439
2026-01-23 01:38:32.83	350.51	12.30	-45.1	-57.5	3.8	1.49e+00	0	61	104	0	62	14413
2026-01-23 01:38:35.86	350.05	12.48	-45.1	-57.5	3.8	1.49e+00	0	61	104	0	62	14407
2026-01-23 01:38:38.88	349.59	12.65	-45.1	-57.5	3.8	1.49e+00	0	61	104	0	62	14483
2026-01-23 01:38:41.91	349.11	12.83	-45.1	-57.5	3.8	1.49e+00	0	61	104	0	62	14389
2026-01-23 01:38:44.94	348.63	13.01	-45.1	-57.5	3.8	1.49e+00	0	61	104	0	62	14425
2026-01-23 01:38:47.97	348.15	13.18	-45.1	-57.5	3.8	1.49e+00	0	61	104	0	62	14471
2026-01-23 01:38:51.00	347.66	13.36	-45.1	-57.5	3.8	1.49e+00	0	61	104	0	62	14427
2026-01-23 01:38:54.03	347.16	13.53	-45.1	-57.5	3.8	1.49e+00	0	61	104	0	62	14459
2026-01-23 01:38:57.06	346.66	13.71	-45.1	-57.5	3.8	1.49e+00	0	61	104	0	62	14427
2026-01-23 01:39:00.09	346.15	13.88	-45.1	-57.5	3.8	1.49e+00	0	61	104	0	62	14467
2026-01-23 01:39:03.11	345.64	14.05	-45.1	-57.5	3.8	1.49e+00	0	61	104	0	62	14526
2026-01-23 01:39:06.14	345.12	14.22	-45.1	-57.5	3.8	1.49e+00	0	61	104	0	62	14506
2026-01-23 01:39:09.17	344.59	14.39	-45.1	-57.5	3.8	1.49e+00	0	61	104	0	62	14491
2026-01-23 01:39:12.20	344.06	14.56	-45.1	-57.5	3.8	1.49e+00	0	61	104	0	62	14515
2026-01-23 01:39:15.23	343.52	14.72	-45.1	-57.6	3.8	1.49e+00	0	61	104	0	62	14547
2026-01-23 01:39:18.26	342.98	14.89	-45.1	-57.5	3.8	1.49e+00	0	61	104	0	62	14510
2026-01-23 01:39:21.29	342.43	15.05	-45.1	-57.5	3.8	1.49e+00	0	61	104	0	62	14456
2026-01-23 01:39:24.32	341.87	15.21	-45.1	-57.5	3.8	1.49e+00	0	61	104	0	62	14506
2026-01-23 01:39:27.35	341.31	15.37	-45.1	-57.5	3.8	1.49e+00	0	61	104	0	62	14540
2026-01-23 01:39:30.38	340.74	15.53	-45.2	-57.5	3.8	1.49e+00	0	61	104	0	62	14536
2026-01-23 01:39:33.41	340.16	15.68	-45.2	-57.5	3.8	1.49e+00	0	61	104	0	62	14523
2026-01-23 01:39:36.44	339.58	15.84	-45.2	-57.6	3.8	1.49e+00	0	61	104	0	62	14552
2026-01-23 01:39:39.47	338.99	15.99	-45.2	-57.5	3.8	1.49e+00	0	61	104	0	62	14513
2026-01-23 01:39:42.50	338.40	16.14	-45.2	-57.6	3.8	1.49e+00	0	61	104	0	62	14555
2026-01-23 01:39:45.53	337.80	16.29	-45.2	-57.5	3.8	1.49e+00	0	61	104	0	62	14528
2026-01-23 01:39:48.56	337.19	16.43	-45.2	-57.6	3.8	1.49e+00	0	61	104	0	62	14604
2026-01-23 01:39:51.59	336.58	16.58	-45.2	-57.6	3.8	1.49e+00	0	61	104	0	62	14592
2026-01-23 01:39:54.62	335.96	16.72	-45.2	-57.6	3.8	1.49e+00	0	61	104	0	62	14640
2026-01-23 01:39:57.65	335.34	16.86	-45.2	-57.6	3.8	1.49e+00	0	61	104	0	62	14606
2026-01-23 01:40:00.68	334.71	16.99	-45.2	-57.6	3.8	1.49e+00	0	61	104	0	62	14598
2026-01-23 01:40:03.71	334.07	17.12	-45.2	-57.6	3.8	1.49e+00	0	61	104	0	62	14647
2026-01-23 01:40:06.74	333.43	17.25	-45.2	-57.6	3.8	1.49e+00	0	61	104	0	62	14642
2026-01-23 01:40:09.77	332.79	17.38	-45.2	-57.6	3.8	1.49e+00	0	61	104	0	62	14652
2026-01-23 01:40:12.80	332.14	17.50	-45.2	-57.6	3.8	1.49e+00	0	61	104	0	62	14654
2026-01-23 01:40:15.83	331.48	17.62	-45.2	-57.6	3.8	1.49e+00	0	61	104	0	62	14663
2026-01-23 01:40:18.86	330.82	17.74	-45.2	-57.6	3.8	1.49e+00	0	61	104	0	62	14656
2026-01-23 01:40:21.89	330.15	17.85	-45.2	-57.6	3.8	1.49e+00	0	61	104	0	62	14618
2026-01-23 01:40:24.92	329.48	17.96	-45.2	-57.6	3.8	1.49e+00	0	62	104	0	62	14640
2026-01-23 01:40:27.95	328.80	18.07	-45.2	-57.6	3.8	1.49e+00	0	61	104	0	62	14692
2026-01-23 01:40:30.98	328.12	18.17	-45.2	-57.6	3.8	1.49e+00	0	61	104	0	62	14623
2026-01-23 01:40:34.01	327.43	18.27	-45.2	-57.6	3.8	1.49e+00	0	61	104	0	62	14657
2026-01-23 01:40:37.04	326.74	18.36	-45.2	-57.6	3.8	1.49e+00	0	61	104	0	62	14697
2026-01-23 01:40:40.07	326.04	18.45	-45.2	-57.6	3.8	1.49e+00	0	61	104	0	62	14664
2026-01-23 01:40:43.10	325.34	18.54	-45.2	-57.7	3.8	1.49e+00	0	62	104	0	62	14722
2026-01-23 01:40:46.13	324.64	18.62	-45.2	-57.6	3.8	1.49e+00	0	61	104	0	62	14672
2026-01-23 01:40:49.16	323.93	18.70	-45.2	-57.7	3.8	1.49e+00	0	61	104	0	62	14709
2026-01-23 01:40:52.19	323.22	18.77	-45.2	-57.6	3.8	1.49e+00	0	61	104	0	62	14670
2026-01-23 01:40:55.22	322.51	18.84	-45.2	-57.6	3.8	1.49e+00	0	61	104	0	62	14676
2026-01-23 01:40:58.24	321.79	18.91	-45.2	-57.6	3.8	1.49e+00	0	61	104	0	62	14695
2026-01-23 01:41:01.27	321.07	18.97	-45.2	-57.6	3.8	1.49e+00	0	61	104	0	62	14667
2026-01-23 01:41:04.30	320.35	19.02	-45.2	-57.6	3.8	1.49e+00	0	61	104	0	62	14669
2026-01-23 01:41:07.33	319.62	19.07	-45.2	-57.6	3.8	1.49e+00	0	61	104	0	62	14681
2026-01-23 01:41:10.35	318.90	19.12	-45.2	-57.6	3.8	1.49e+00	0	62	104	0	62	14691
2026-01-23 01:41:13.38	318.17	19.16	-45.2	-57.7	3.8	1.49e+00	0	62	104	0	62	14730
2026-01-23 01:41:16.41	317.43	19.20	-45.2	-57.6	3.8	1.49e+00	0	61	104	0	62	14693
2026-01-23 01:41:19.44	316.70	19.23	-45.2	-57.7	3.8	1.49e+00	0	61	104	0	62	14717
2026-01-23 01:41:22.47	315.96	19.26	-45.2	-57.6	3.8	1.49e+00	0	61	104	0	62	14647
2026-01-23 01:41:25.50	315.23	19.28	-45.2	-57.6	3.8	1.49e+00	0	62	104	0	62	14651
2026-01-23 01:41:28.53	314.49	19.30	-45.2	-57.6	3.8	1.49e+00	0	61	104	0	62	14603
2026-01-23 01:41:31.55	313.75	19.31	-45.2	-57.6	3.8	1.49e+00	0	61	104	0	62	14665
2026-01-23 01:41:34.58	313.01	19.32	-45.2	-57.6	3.8	1.49e+00	0	61	104	0	62	14691
2026-01-23 01:41:37.61	312.27	19.32	-45.2	-57.6	3.8	1.49e+00	0	61	104	0	62	14649
2026-01-23 01:41:40.64	311.53	19.32	-45.2	-57.6	3.8	1.49e+00	0	62	104	0	62	14703
2026-01-23 01:41:43.67	310.79	19.31	-45.2	-57.6	3.8	1.49e+00	0	61	104	0	62	14636
2026-01-23 01:41:46.70	310.06	19.30	-45.2	-57.6	3.8	1.49e+00	0	61	104	0	62	14676
2026-01-23 01:41:49.73	309.32	19.28	-45.2	-57.6	3.8	1.49e+00	0	62	104	0	62	14595
2026-01-23 01:41:52.76	308.58	19.26	-45.2	-57.6	3.8	1.49e+00	0	62	104	0	62	14703
2026-01-23 01:41:55.79	307.84	19.23	-45.2	-57.6	3.8	1.49e+00	0	61	104	0	62	14670
2026-01-23 01:41:58.82	307.11	19.20	-45.2	-57.6	3.8	1.49e+00	0	62	104	0	62	14665
2026-01-23 01:42:01.85	306.38	19.16	-45.2	-57.6	3.8	1.49e+00	0	62	104	0	62	14616
2026-01-23 01:42:04.88	305.64	19.12	-45.2	-57.6	3.8	1.49e+00	0	61	104	0	62	14655
2026-01-23 01:42:07.91	304.91	19.07	-45.2	-57.6	3.8	1.49e+00	0	61	104	0	62	14593
2026-01-23 01:42:10.94	304.19	19.02	-45.1	-57.6	3.8	1.49e+00	0	61	104	0	62	14600
2026-01-23 01:42:13.97	303.46	18.97	-45.1	-57.6	3.8	1.49e+00	0	61	104	0	62	14630
2026-01-23 01:42:17.00	302.74	18.90	-45.2	-57.6	3.8	1.49e+00	0	61	104	0	62	14624
2026-01-23 01:42:20.03	302.02	18.84	-45.1	-57.6	3.8	1.49e+00	0	62	104	0	62	14602
2026-01-23 01:42:23.05	301.31	18.77	-45.1	-57.6	3.8	1.49e+00	0	61	104	0	62	14650
2026-01-23 01:42:26.08	300.60	18.70	-45.1	-57.6	3.8	1.49e+00	0	62	104	0	62	14587
2026-01-23 01:42:29.12	299.89	18.62	-45.1	-57.6	3.8	1.49e+00	0	62	104	0	62	14584
2026-01-23 01:42:32.15	299.18	18.54	-45.1	-57.6	3.8	1.49e+00	0	61	104	0	62	14667
2026-01-23 01:42:35.18	298.48	18.45	-45.1	-57.6	3.8	1.49e+00	0	61	104	0	62	14645
2026-01-23 01:42:38.21	297.78	18.36	-45.1	-57.6	3.8	1.49e+00	0	61	104	0	62	14633
2026-01-23 01:42:41.24	297.09	18.26	-45.1	-57.6	3.8	1.49e+00	0	61	104	0	62	14581
2026-01-23 01:42:44.27	296.40	18.16	-45.1	-57.6	3.8	1.49e+00	0	61	104	0	62	14587
2026-01-23 01:42:47.30	295.72	18.06	-45.1	-57.6	3.8	1.49e+00	0	62	104	0	62	14641
2026-01-23 01:42:50.33	295.04	17.96	-45.1	-57.6	3.8	1.49e+00	0	61	104	0	62	14604
2026-01-23 01:42:53.37	294.36	17.85	-45.1	-57.5	3.8	1.49e+00	0	61	104	0	62	14528
2026-01-23 01:42:56.40	293.69	17.73	-45.1	-57.6	3.8	1.49e+00	0	61	104	0	62	14558
2026-01-23 01:42:59.43	293.03	17.62	-45.1	-57.6	3.8	1.49e+00	0	61	104	0	62	14565
2026-01-23 01:43:02.46	292.37	17.50	-45.1	-57.6	3.8	1.49e+00	0	61	104	0	62	14545
2026-01-23 01:43:05.49	291.72	17.37	-45.1	-57.6	3.8	1.49e+00	0	62	104	0	62	14545
2026-01-23 01:43:08.52	291.07	17.24	-45.1	-57.5	3.8	1.49e+00	0	61	104	0	62	14540
2026-01-23 01:43:11.55	290.43	17.12	-45.1	-57.5	3.8	1.49e+00	0	61	104	0	62	14537
2026-01-23 01:43:14.58	289.79	16.98	-45.1	-57.6	3.8	1.49e+00	0	61	104	0	62	14549
2026-01-23 01:43:17.61	289.16	16.85	-45.1	-57.5	3.8	1.49e+00	0	61	104	0	62	14528
2026-01-23 01:43:20.64	288.53	16.71	-45.1	-57.6	3.8	1.49e+00	0	62	104	0	62	14556
2026-01-23 01:43:23.67	287.91	16.57	-45.1	-57.5	3.8	1.49e+00	0	61	104	0	62	14518
2026-01-23 01:43:26.69	287.30	16.42	-45.1	-57.5	3.8	1.49e+00	0	62	104	0	62	14474
2026-01-23 01:43:29.72	286.69	16.28	-45.1	-57.6	3.8	1.49e+00	0	61	104	0	62	14557
2026-01-23 01:43:32.75	286.09	16.13	-45.1	-57.5	3.8	1.49e+00	0	62	104	0	62	14484
2026-01-23 01:43:35.78	285.49	15.98	-45.1	-57.5	3.8	1.49e+00	0	61	104	0	62	14454
2026-01-23 01:43:38.81	284.90	15.83	-45.1	-57.5	3.8	1.49e+00	0	62	104	0	62	14524
2026-01-23 01:43:41.83	284.32	15.67	-45.1	-57.5	3.8	1.49e+00	0	61	104	0	62	14498
2026-01-23 01:43:44.86	283.74	15.52	-45.0	-57.5	3.8	1.49e+00	0	62	104	0	62	14512
2026-01-23 01:43:47.89	283.17	15.36	-45.1	-57.5	3.8	1.49e+00	0	62	104	0	62	14527
2026-01-23 01:43:50.92	282.60	15.20	-45.1	-57.5	3.8	1.49e+00	0	62	104	0	62	14535
2026-01-23 01:43:53.95	282.04	15.03	-45.0	-57.5	3.8	1.49e+00	0	61	104	0	62	14476
2026-01-23 01:43:56.98	281.49	14.87	-45.0	-57.5	3.8	1.49e+00	0	61	104	0	62	14537
2026-01-23 01:44:00.02	280.94	14.71	-45.1	-57.5	3.8	1.49e+00	0	61	104	0	62	14456
2026-01-23 01:44:03.05	280.40	14.54	-45.1	-57.5	3.8	1.49e+00	0	61	104	0	62	14455
2026-01-23 01:44:06.08	279.86	14.37	-45.0	-57.5	3.8	1.49e+00	0	61	104	0	62	14490
2026-01-23 01:44:09.11	279.33	14.20	-45.0	-57.5	3.8	1.49e+00	0	62	104	0	62	14455
2026-01-23 01:44:12.14	278.81	14.03	-45.0	-57.5	3.8	1.49e+00	0	61	104	0	62	14464
2026-01-23 01:44:15.17	278.29	13.86	-45.0	-57.5	3.8	1.49e+00	0	61	104	0	62	14500
2026-01-23 01:44:18.20	277.78	13.69	-45.0	-57.5	3.8	1.49e+00	0	62	104	0	62	14447
2026-01-23 01:44:21.23	277.28	13.51	-45.0	-57.5	3.8	1.49e+00	0	62	104	0	62	14491
2026-01-23 01:44:24.26	276.78	13.34	-45.0	-57.5	3.8	1.49e+00	0	62	104	0	62	14447
2026-01-23 01:44:27.29	276.29	13.16	-45.0	-57.5	3.8	1.49e+00	0	62	104	0	62	14458
2026-01-23 01:44:30.32	275.80	12.98	-45.0	-57.5	3.8	1.49e+00	0	61	104	0	62	14513
2026-01-23 01:44:33.35	275.32	12.81	-45.0	-57.5	3.8	1.49e+00	0	61	104	0	62	14471
2026-01-23 01:44:36.36	274.84	12.63	-45.0	-57.5	3.8	1.49e+00	0	61	104	0	62	14469
2026-01-23 01:44:39.40	274.37	12.45	-45.0	-57.5	3.8	1.49e+00	0	61	104	0	62	14443
2026-01-23 01:44:42.43	273.91	12.27	-45.0	-57.5	3.8	1.49e+00	0	62	104	0	62	14452
2026-01-23 01:44:45.46	273.45	12.09	-45.0	-57.5	3.8	1.49e+00	0	61	104	0	62	14443
2026-01-23 01:44:48.49	273.00	11.91	-45.0	-57.5	3.8	1.49e+00	0	61	104	0	62	14415
2026-01-23 01:44:51.52	272.55	11.73	-45.0	-57.5	3.8	1.49e+00	0	61	104	0	62	14442
2026-01-23 01:44:54.55	272.11	11.55	-45.0	-57.5	3.8	1.49e+00	0	61	104	0	62	14446
2026-01-23 01:44:57.58	271.67	11.37	-45.0	-57.5	3.8	1.49e+00	0	61	104	0	62	14405
2026-01-23 01:45:00.61	271.24	11.19	-45.0	-57.4	3.8	1.49e+00	0	61	104	0	62	14351
2026-01-23 01:45:03.64	270.82	11.01	-44.9	-57.5	3.8	1.49e+00	0	61	104	0	61	15260
2026-01-23 01:45:06.67	270.40	10.83	-45.0	-57.5	3.8	1.49e+00	0	62	104	0	61	15244
2026-01-23 01:45:09.70	269.98	10.64	-44.9	-57.4	3.8	1.49e+00	0	62	104	0	61	15129
2026-01-23 01:45:12.73	269.57	10.46	-44.9	-57.4	3.8	1.49e+00	0	62	104	0	61	15206
2026-01-23 01:45:15.76	269.17	10.28	-44.9	-57.4	3.8	1.49e+00	0	61	104	0	61	15175
2026-01-23 01:45:18.79	268.77	10.10	-44.9	-57.4	3.8	1.49e+00	0	61	104	0	61	15160
2026-01-23 01:45:21.82	268.37	9.92	-44.9	-57.5	3.8	1.49e+00	0	62	104	0	61	15254
2026-01-23 01:45:24.85	267.98	9.73	-44.9	-57.4	3.8	1.49e+00	0	62	104	0	61	15120
2026-01-23 01:45:27.88	267.60	9.55	-44.9	-57.4	3.8	1.49e+00	0	62	104	0	61	15103
2026-01-23 01:45:30.91	267.22	9.37	-44.9	-57.4	3.8	1.49e+00	0	61	104	0	61	15095
2026-01-23 01:45:33.94	266.84	9.19	-44.9	-57.4	3.8	1.49e+00	0	61	104	0	61	15116
2026-01-23 01:45:36.98	266.47	9.01	-44.9	-57.4	3.8	1.49e+00	0	62	104	0	61	15148
2026-01-23 01:45:40.01	266.11	8.82	-44.9	-57.4	3.8	1.49e+00	0	62	104	0	61	15142
2026-01-23 01:45:43.04	265.75	8.64	-44.9	-57.4	3.8	1.49e+00	0	62	104	0	61	15169
2026-01-23 01:45:46.06	265.39	8.46	-44.9	-57.4	3.8	1.49e+00	0	61	104	0	61	15121
2026-01-23 01:45:49.09	265.04	8.28	-44.9	-57.4	3.8	1.49e+00	0	62	104	0	61	15152
2026-01-23 01:45:52.12	264.69	8.10	-44.9	-57.4	3.8	1.49e+00	0	62	104	0	61	15119
2026-01-23 01:45:55.15	264.35	7.92	-44.9	-57.4	3.8	1.49e+00	0	62	104	0	61	15107
2026-01-23 01:45:58.17	264.01	7.74	-44.9	-57.4	3.8	1.49e+00	0	62	104	0	61	15111
2026-01-23 01:46:01.20	263.67	7.56	-44.9	-57.4	3.8	1.49e+00	0	62	104	0	61	15064
2026-01-23 01:46:04.23	263.34	7.38	-44.9	-57.3	3.8	1.49e+00	0	62	104	0	61	15040
2026-01-23 01:46:07.26	263.02	7.21	-44.9	-57.3	3.8	1.49e+00	0	62	104	0	61	15021
2026-01-23 01:46:10.29	262.69	7.03	-44.8	-57.3	3.8	1.49e+00	0	62	104	0	61	15010
2026-01-23 01:46:13.32	262.38	6.85	-44.8	-57.3	3.8	1.49e+00	0	62	104	0	61	15031
2026-01-23 01:46:16.35	262.06	6.67	-44.8	-57.3	3.8	1.49e+00	0	62	104	0	61	15021
2026-01-23 01:46:19.37	261.75	6.50	-44.8	-57.3	3.8	1.49e+00	0	62	104	0	61	14959
2026-01-23 01:46:22.40	261.45	6.32	-44.8	-57.3	3.8	1.49e+00	0	62	104	0	61	15002
2026-01-23 01:46:25.43	261.14	6.14	-44.8	-57.3	3.8	1.49e+00	0	62	104	0	61	14961
2026-01-23 01:46:28.46	260.84	5.97	-44.8	-57.3	3.8	1.49e+00	0	62	104	0	61	14951
2026-01-23 01:46:31.50	260.55	5.79	-44.8	-57.3	3.8	1.49e+00	0	62	104	0	61	14981
2026-01-23 01:46:34.53	260.25	5.62	-44.8	-57.3	3.8	1.49e+00	0	62	104	0	61	14958
2026-01-23 01:46:37.56	259.97	5.44	-44.8	-57.3	3.8	1.49e+00	0	62	104	0	61	14946
2026-01-23 01:46:40.59	259.68	5.27	-44.8	-57.3	3.8	1.49e+00	0	62	104	0	61	14968
2026-01-23 01:46:43.62	259.40	5.09	-44.8	-57.3	3.8	1.49e+00	0	62	104	0	61	14901
2026-01-23 01:46:46.65	259.12	4.92	-44.8	-57.3	3.8	1.49e+00	0	62	104	0	61	14924
2026-01-23 01:46:49.68	258.85	4.75	-44.8	-57.3	3.8	1.49e+00	0	61	104	0	61	14924
2026-01-23 01:46:52.71	258.57	4.58	-44.8	-57.3	3.8	1.49e+00	0	61	104	0	61	14923
2026-01-23 01:46:55.75	258.31	4.41	-44.7	-57.2	3.8	1.49e+00	0	62	104	0	61	14808
2026-01-23 01:46:58.78	258.04	4.23	-44.7	-57.2	3.8	1.49e+00	0	62	104	0	61	14812
2026-01-23 01:47:01.81	257.78	4.06	-44.7	-57.2	3.8	1.49e+00	0	62	104	0	61	14803
2026-01-23 01:47:04.83	257.52	3.90	-44.7	-57.2	3.8	1.49e+00	0	61	104	0	61	14802
2026-01-23 01:47:07.87	257.26	3.73	-44.7	-57.2	3.8	1.49e+00	0	62	104	0	61	14731
2026-01-23 01:47:10.89	257.01	3.56	-44.7	-57.2	3.8	1.49e+00	0	61	104	0	61	14733
2026-01-23 01:47:13.93	256.76	3.39	-44.6	-57.2	3.8	1.49e+00	0	61	104	0	61	14741
2026-01-23 01:47:16.96	256.51	3.22	-44.6	-57.1	3.8	1.49e+00	0	62	104	0	61	14643
2026-01-23 01:47:19.99	256.27	3.05	-44.6	-57.1	3.8	1.49e+00	0	62	104	0	61	14634
2026-01-23 01:47:23.02	256.03	2.89	-44.6	-57.1	3.8	1.49e+00	0	62	104	0	61	14573
2026-01-23 01:47:26.05	255.79	2.72	-44.6	-57.0	3.8	1.49e+00	0	62	104	0	61	14524
2026-01-23 01:47:29.08	255.55	2.55	-44.6	-57.1	3.8	1.49e+00	0	61	104	0	61	14567
2026-01-23 01:47:32.11	255.32	2.39	-44.6	-57.1	3.8	1.49e+00	0	62	104	0	61	14564
2026-01-23 01:47:35.14	255.09	2.23	-44.5	-57.0	3.8	1.49e+00	0	62	104	0	61	14476
2026-01-23 01:47:38.17	254.86	2.06	-44.5	-57.0	3.8	1.49e+00	0	62	104	0	61	14479

#Closed at: 2026-01-23 01:47:40
#Recorded file [0 MB]: D:/lorett/data/31039_260123_043652.dat