passes_logs/2026/01/23/R2.0S_Moscow/R2.0S_Moscow__20260123_112709_NOAA_21_JPSS-2_rec.log

#Pass ID: 20260123_112709_NOAA 21 (JPSS-2)
#Satellite: NOAA 21 (JPSS-2)
#Configuration: NOAA-21
#almurnet v.1.7.20251203
#Start time: 2026-01-23 11:27:22

#Version: 2.2.20231116
#Station: R2.0S_Moscow
#Location: 37.707566 lon 55.798166 lat
#TLE: 1 54234U 22150A   26022.41365820  .00000211  00000+0  12084-3 0  9990
#TLE: 2 54234  98.7507 323.2240 0000658 234.5287 125.5828 14.19537645165864

#Time	Az	El	Level	Level2	SNR	BER	BlckErr	Temp	State	Recorded	gain1	gain2
2026-01-23 11:27:22.01	207.98	2.71	-44.6	-56.7	3.8	8.46e-01	0	62	0	0	60	14843
2026-01-23 11:27:26.04	208.28	2.94	-45.2	-57.6	3.8	1.49e+00	0	62	104	0	62	14707
2026-01-23 11:27:30.08	208.59	3.17	-44.9	-57.4	3.8	1.49e+00	0	62	104	0	61	15168
2026-01-23 11:27:34.12	208.90	3.40	-44.2	-56.4	3.8	1.49e+00	0	62	104	0	59	15197
2026-01-23 11:27:38.17	209.22	3.63	-44.2	-56.4	3.8	1.49e+00	0	62	104	0	59	15170
2026-01-23 11:27:42.21	209.54	3.86	-44.2	-56.4	3.8	1.49e+00	0	62	104	0	59	15175
2026-01-23 11:27:46.25	209.87	4.09	-44.2	-56.4	3.8	1.49e+00	0	62	104	0	59	15135
2026-01-23 11:27:50.29	210.20	4.33	-44.1	-56.4	3.8	1.49e+00	0	62	104	0	59	15112
2026-01-23 11:27:54.34	210.54	4.57	-44.1	-56.4	3.8	1.49e+00	0	62	104	0	59	15060
2026-01-23 11:27:58.37	210.88	4.80	-44.1	-56.4	3.8	1.49e+00	0	62	104	0	59	15101
2026-01-23 11:28:02.41	211.22	5.04	-44.1	-56.3	3.8	1.49e+00	0	62	104	0	59	15038
2026-01-23 11:28:06.45	211.58	5.28	-44.1	-56.2	3.8	1.49e+00	0	62	104	0	59	14732
2026-01-23 11:28:10.49	211.93	5.52	-44.1	-56.0	3.8	1.49e+00	0	62	104	0	59	14529
2026-01-23 11:28:14.53	212.30	5.76	-44.1	-55.9	3.8	1.49e+00	0	62	104	0	59	14349
2026-01-23 11:28:18.57	212.67	6.01	-44.0	-55.3	3.8	1.49e+00	0	62	104	0	59	13414
2026-01-23 11:28:22.61	213.04	6.25	-43.8	-53.7	4.0	1.49e+00	0	62	104	0	59	11115
2026-01-23 11:28:26.65	213.43	6.50	-43.5	-51.4	4.7	1.16e+00	0	62	104	0	59	8547
2026-01-23 11:28:30.69	213.81	6.75	-43.1	-49.7	5.7	4.23e-01	0	62	0	9437184	58	7412
2026-01-23 11:28:34.72	214.21	6.99	-43.1	-49.5	5.8	3.86e-01	0	62	0	22020096	58	7256
2026-01-23 11:28:38.76	214.61	7.24	-43.3	-50.3	5.3	5.63e-01	0	62	0	34603008	58	7922
2026-01-23 11:28:42.81	215.02	7.50	-42.5	-47.7	7.3	1.61e-01	0	62	0	47185920	57	6249
2026-01-23 11:28:46.85	215.43	7.75	-41.2	-44.8	10.0	7.84e-03	0	62	0	59768832	54	5331
2026-01-23 11:28:50.89	215.85	8.00	-40.9	-44.4	10.5	3.30e-03	0	62	0	72351744	53	5370
2026-01-23 11:28:54.93	216.28	8.26	-41.9	-46.1	9.0	2.20e-02	0	62	0	77594624	55	5807
2026-01-23 11:28:58.97	216.72	8.51	-40.8	-43.9	11.1	1.73e-03	0	62	0	90177536	53	5090
2026-01-23 11:29:02.99	217.16	8.77	-40.5	-43.5	11.6	6.96e-04	0	62	0	102760448	52	5112
2026-01-23 11:29:07.02	217.61	9.03	-40.5	-43.4	11.7	6.08e-04	0	62	0	115343360	52	5098
2026-01-23 11:29:11.07	218.07	9.29	-40.4	-43.3	11.9	3.66e-04	0	62	0	127926272	52	5015
2026-01-23 11:29:15.10	218.54	9.55	-40.3	-43.1	12.1	2.49e-04	0	62	0	140509184	52	4908
2026-01-23 11:29:19.14	219.01	9.81	-40.3	-43.1	12.2	2.29e-04	0	62	0	153092096	52	4895
2026-01-23 11:29:23.18	219.50	10.07	-40.3	-43.1	12.2	1.98e-04	0	62	0	165675008	52	4885
2026-01-23 11:29:27.22	219.99	10.34	-40.3	-43.0	12.4	1.55e-04	0	62	0	178257920	52	4823
2026-01-23 11:29:31.26	220.49	10.60	-40.2	-42.8	12.6	8.92e-05	0	62	0	191889408	52	4709
2026-01-23 11:29:35.30	221.00	10.87	-40.1	-42.7	12.7	8.23e-05	0	62	0	203423744	52	4685
2026-01-23 11:29:39.34	221.52	11.13	-40.1	-42.6	12.8	7.40e-05	0	62	0	217055232	52	4647
2026-01-23 11:29:43.38	222.04	11.40	-40.0	-42.5	12.9	4.27e-05	0	62	0	229638144	52	4577
2026-01-23 11:29:47.41	222.58	11.67	-40.0	-42.5	13.0	3.28e-05	0	62	0	242221056	51	4849
2026-01-23 11:29:51.45	223.13	11.94	-40.1	-42.6	13.0	5.64e-05	0	62	0	254803968	51	4898
2026-01-23 11:29:55.49	223.68	12.21	-40.0	-42.4	13.2	1.67e-05	0	62	0	267386880	51	4800
2026-01-23 11:29:59.53	224.25	12.48	-39.9	-42.3	13.3	2.13e-05	0	62	0	279969792	51	4749
2026-01-23 11:30:03.56	224.82	12.75	-39.9	-42.3	13.4	1.52e-05	0	62	0	292552704	51	4712
2026-01-23 11:30:07.60	225.41	13.02	-39.8	-42.1	13.5	1.06e-05	0	62	0	305135616	51	4643
2026-01-23 11:30:11.64	226.01	13.29	-39.8	-42.1	13.5	6.10e-06	0	62	0	317718528	51	4634
2026-01-23 11:30:15.67	226.62	13.56	-39.9	-42.3	13.4	1.29e-05	0	62	0	330301440	51	4706
2026-01-23 11:30:19.71	227.23	13.83	-39.8	-42.2	13.6	1.06e-05	0	62	0	342884352	51	4655
2026-01-23 11:30:23.75	227.86	14.10	-39.8	-42.2	13.4	1.14e-05	0	62	0	355467264	51	4696
2026-01-23 11:30:27.78	228.50	14.37	-40.0	-42.4	13.3	1.75e-05	0	62	0	368050176	51	4782
2026-01-23 11:30:31.82	229.16	14.64	-39.8	-42.1	13.5	1.37e-05	0	62	0	380633088	51	4646
2026-01-23 11:30:35.86	229.82	14.91	-39.8	-42.1	13.6	7.60e-06	0	62	0	393216000	51	4638
2026-01-23 11:30:39.90	230.50	15.18	-39.8	-42.1	13.7	5.30e-06	0	62	0	405798912	51	4605
2026-01-23 11:30:43.94	231.18	15.45	-39.9	-42.2	13.5	8.30e-06	0	62	0	418381824	51	4665
2026-01-23 11:30:47.99	231.89	15.71	-39.9	-42.2	13.5	1.44e-05	0	62	0	430964736	51	4682
2026-01-23 11:30:52.02	232.60	15.98	-39.8	-42.0	13.7	5.30e-06	0	62	0	443547648	51	4589
2026-01-23 11:30:56.07	233.32	16.25	-39.8	-42.0	13.7	6.80e-06	0	62	0	456130560	51	4593
2026-01-23 11:31:00.10	234.06	16.51	-39.6	-41.8	13.9	7.00e-07	0	62	0	468713472	51	4477
2026-01-23 11:31:04.13	234.81	16.77	-39.6	-41.8	13.9	3.00e-06	0	62	0	481296384	51	4484
2026-01-23 11:31:08.17	235.57	17.03	-39.7	-41.9	13.9	5.30e-06	0	62	0	493879296	51	4524
2026-01-23 11:31:12.21	236.34	17.29	-39.6	-41.8	14.0	2.20e-06	0	62	0	506462208	51	4443
2026-01-23 11:31:16.24	237.13	17.54	-39.7	-41.9	13.9	5.30e-06	0	62	0	519045120	51	4495
2026-01-23 11:31:20.28	237.93	17.79	-39.7	-41.9	13.9	2.20e-06	0	62	0	531628032	51	4499
2026-01-23 11:31:24.32	238.74	18.04	-39.8	-42.0	13.8	1.50e-06	0	62	0	544210944	51	4562
2026-01-23 11:31:28.36	239.57	18.29	-39.6	-41.7	14.1	1.50e-06	0	62	0	557842432	51	4432
2026-01-23 11:31:32.40	240.41	18.53	-39.6	-41.7	14.1	1.50e-06	0	62	0	569376768	51	4435
2026-01-23 11:31:36.44	241.26	18.77	-39.8	-42.1	13.8	2.20e-06	0	62	0	583008256	51	4605
2026-01-23 11:31:40.48	242.13	19.00	-39.9	-42.2	13.5	1.22e-05	0	62	0	595591168	51	4705
2026-01-23 11:31:44.51	243.01	19.23	-39.8	-42.0	13.8	6.10e-06	0	62	0	608174080	51	4593
2026-01-23 11:31:48.55	243.90	19.46	-39.9	-42.2	13.6	7.60e-06	0	62	0	620756992	51	4661
2026-01-23 11:31:52.59	244.80	19.68	-39.9	-42.1	13.6	8.30e-06	0	62	0	633339904	51	4646
2026-01-23 11:31:56.63	245.72	19.90	-39.6	-41.8	14.0	3.80e-06	0	62	0	645922816	51	4443
2026-01-23 11:32:00.66	246.65	20.11	-39.7	-42.0	13.8	7.00e-07	0	62	0	658505728	51	4548
2026-01-23 11:32:04.71	247.59	20.31	-39.7	-41.9	13.9	6.10e-06	0	62	0	671088640	51	4536
2026-01-23 11:32:08.74	248.55	20.51	-39.6	-41.7	14.1	3.00e-06	0	62	0	683671552	51	4433
2026-01-23 11:32:12.79	249.51	20.70	-39.6	-41.7	14.1	2.20e-06	0	62	0	696254464	51	4432
2026-01-23 11:32:16.82	250.49	20.89	-39.5	-41.6	14.2	7.00e-07	0	62	0	708837376	51	4363
2026-01-23 11:32:20.86	251.48	21.07	-39.5	-41.6	14.2	7.00e-07	0	62	0	721420288	50	4610
2026-01-23 11:32:24.90	252.48	21.24	-39.5	-41.6	14.3	7.00e-07	0	62	0	734003200	50	4608
2026-01-23 11:32:28.94	253.49	21.40	-39.3	-41.4	14.5	0.00e+00	0	62	0	746586112	50	4518
2026-01-23 11:32:32.98	254.51	21.55	-39.5	-41.6	14.2	3.00e-06	0	62	0	759169024	50	4629
2026-01-23 11:32:37.01	255.54	21.70	-39.2	-41.2	14.6	0.00e+00	0	62	0	771751936	50	4419
2026-01-23 11:32:41.05	256.57	21.84	-39.5	-41.6	14.1	3.00e-06	0	62	0	784334848	50	4645
2026-01-23 11:32:45.09	257.62	21.97	-39.5	-41.6	14.3	1.50e-06	0	62	0	796917760	50	4606
2026-01-23 11:32:49.12	258.68	22.09	-39.2	-41.3	14.6	0.00e+00	0	62	0	809500672	50	4449
2026-01-23 11:32:53.16	259.74	22.20	-39.4	-41.5	14.3	7.00e-07	0	62	0	822083584	50	4576
2026-01-23 11:32:57.20	260.81	22.30	-39.4	-41.5	14.3	0.00e+00	0	62	0	834666496	50	4560
2026-01-23 11:33:01.24	261.89	22.39	-39.2	-41.3	14.5	0.00e+00	0	62	0	847249408	50	4442
2026-01-23 11:33:05.28	262.97	22.47	-39.4	-41.5	14.4	7.00e-07	0	63	0	859832320	50	4551
2026-01-23 11:33:09.32	264.06	22.54	-39.4	-41.5	14.3	2.20e-06	0	62	0	872415232	50	4575
2026-01-23 11:33:13.35	265.15	22.60	-39.2	-41.2	14.7	0.00e+00	0	62	0	884998144	50	4401
2026-01-23 11:33:17.40	266.25	22.65	-39.2	-41.3	14.6	0.00e+00	0	62	0	897581056	50	4444
2026-01-23 11:33:21.44	267.34	22.69	-39.4	-41.5	14.4	2.20e-06	0	62	0	910163968	50	4573
2026-01-23 11:33:25.47	268.44	22.72	-39.4	-41.5	14.3	1.50e-06	0	62	0	923795456	50	4562
2026-01-23 11:33:29.51	269.55	22.74	-39.3	-41.4	14.4	1.50e-06	0	62	0	936378368	50	4516
2026-01-23 11:33:33.56	270.65	22.74	-39.3	-41.4	14.4	2.20e-06	0	62	0	948961280	50	4522
2026-01-23 11:33:37.60	271.76	22.74	-39.1	-41.1	14.7	0.00e+00	0	62	0	961544192	50	4363
2026-01-23 11:33:41.63	272.86	22.73	-39.3	-41.4	14.5	0.00e+00	0	62	0	974127104	50	4494
2026-01-23 11:33:45.67	273.96	22.70	-39.3	-41.4	14.5	0.00e+00	0	62	0	986710016	50	4496
2026-01-23 11:33:49.71	275.06	22.66	-39.5	-41.6	14.2	0.00e+00	0	62	0	999292928	50	4647
2026-01-23 11:33:53.74	276.15	22.62	-39.4	-41.5	14.3	0.00e+00	0	62	0	1011875840	50	4592
2026-01-23 11:33:57.78	277.24	22.56	-39.4	-41.4	14.4	7.00e-07	0	62	0	1024458752	50	4544
2026-01-23 11:34:01.82	278.33	22.49	-39.1	-41.0	14.7	0.00e+00	0	62	0	1037041664	50	4333
2026-01-23 11:34:05.86	279.41	22.42	-39.1	-41.1	14.7	7.00e-07	0	62	0	1049624576	50	4347
2026-01-23 11:34:09.90	280.49	22.33	-39.2	-41.2	14.6	7.00e-07	0	62	0	1062207488	50	4402
2026-01-23 11:34:13.93	281.56	22.23	-39.1	-41.1	14.7	0.00e+00	0	62	0	1074790400	50	4380
2026-01-23 11:34:17.97	282.62	22.13	-39.2	-41.3	14.5	0.00e+00	0	62	0	1087373312	50	4455
2026-01-23 11:34:22.01	283.68	22.01	-39.3	-41.4	14.4	0.00e+00	0	63	0	1099956224	50	4502
2026-01-23 11:34:26.05	284.72	21.88	-39.4	-41.5	14.3	4.50e-06	0	62	0	1112539136	50	4595
2026-01-23 11:34:30.09	285.76	21.75	-39.3	-41.4	14.4	0.00e+00	0	63	0	1125122048	50	4540
2026-01-23 11:34:34.12	286.79	21.61	-39.2	-41.2	14.6	7.00e-07	0	62	0	1137704960	50	4434
2026-01-23 11:34:38.16	287.81	21.46	-39.4	-41.5	14.3	7.00e-07	0	62	0	1150287872	50	4562
2026-01-23 11:34:42.20	288.82	21.30	-39.2	-41.2	14.5	7.00e-07	0	62	0	1162870784	50	4435
2026-01-23 11:34:46.24	289.82	21.13	-39.2	-41.2	14.5	0.00e+00	0	62	0	1175453696	50	4436
2026-01-23 11:34:50.28	290.81	20.95	-39.3	-41.3	14.4	0.00e+00	0	62	0	1188036608	50	4469
2026-01-23 11:34:54.32	291.79	20.77	-39.3	-41.4	14.4	0.00e+00	0	62	0	1200619520	50	4508
2026-01-23 11:34:58.36	292.76	20.58	-39.3	-41.3	14.4	7.00e-07	0	62	0	1213202432	50	4473
2026-01-23 11:35:02.40	293.71	20.39	-39.4	-41.5	14.3	7.00e-07	0	62	0	1225785344	50	4559
2026-01-23 11:35:06.43	294.65	20.19	-39.4	-41.5	14.2	0.00e+00	0	62	0	1238368256	50	4557
2026-01-23 11:35:10.47	295.58	19.98	-39.4	-41.5	14.2	7.00e-07	0	62	0	1250951168	50	4568
2026-01-23 11:35:14.51	296.50	19.77	-39.3	-41.4	14.3	0.00e+00	0	62	0	1263534080	50	4527
2026-01-23 11:35:18.55	297.40	19.55	-39.4	-41.6	14.2	1.50e-06	0	63	0	1276116992	50	4602
2026-01-23 11:35:22.59	298.30	19.33	-39.5	-41.6	14.1	1.50e-06	0	62	0	1288699904	50	4637
2026-01-23 11:35:26.63	299.18	19.10	-39.6	-41.8	13.9	3.80e-06	0	62	0	1302331392	50	4752
2026-01-23 11:35:30.67	300.04	18.87	-39.4	-41.5	14.2	2.20e-06	0	63	0	1314914304	50	4563
2026-01-23 11:35:34.71	300.90	18.63	-39.3	-41.3	14.4	3.00e-06	0	62	0	1327497216	50	4479
2026-01-23 11:35:38.76	301.74	18.39	-39.4	-41.5	14.2	0.00e+00	0	62	0	1340080128	50	4595
2026-01-23 11:35:42.80	302.57	18.15	-39.7	-41.9	13.8	1.50e-06	0	62	0	1352663040	50	4777
2026-01-23 11:35:46.84	303.38	17.91	-39.6	-41.8	13.9	6.80e-06	0	63	0	1365245952	50	4744
2026-01-23 11:35:50.88	304.18	17.66	-39.6	-41.8	13.9	3.00e-06	0	62	0	1377828864	50	4707
2026-01-23 11:35:54.92	304.97	17.40	-39.9	-42.2	13.5	1.52e-05	0	62	0	1390411776	50	4947
2026-01-23 11:35:58.96	305.75	17.15	-40.1	-42.5	13.1	2.82e-05	0	63	0	1402994688	50	5138
2026-01-23 11:36:03.00	306.51	16.89	-39.7	-42.0	13.6	6.80e-06	0	63	0	1415577600	50	4847
2026-01-23 11:36:07.04	307.26	16.64	-39.8	-42.1	13.5	9.90e-06	0	63	0	1428160512	50	4926
2026-01-23 11:36:11.07	308.00	16.38	-40.0	-42.4	13.1	2.36e-05	0	62	0	1440743424	50	5099
2026-01-23 11:36:15.11	308.72	16.11	-40.2	-42.6	13.0	3.96e-05	0	62	0	1453326336	50	5218
2026-01-23 11:36:19.16	309.44	15.85	-40.1	-42.5	13.1	3.05e-05	0	62	0	1465909248	50	5139
2026-01-23 11:36:23.19	310.14	15.59	-40.0	-42.5	13.1	2.74e-05	0	62	0	1478492160	50	5109
2026-01-23 11:36:27.23	310.83	15.32	-40.0	-42.4	13.2	1.75e-05	0	62	0	1491075072	50	5057
2026-01-23 11:36:31.27	311.51	15.06	-39.8	-42.2	13.4	1.29e-05	0	62	0	1503657984	50	4945
2026-01-23 11:36:35.31	312.17	14.79	-40.0	-42.4	13.2	2.74e-05	0	62	0	1516240896	50	5055
2026-01-23 11:36:39.35	312.83	14.52	-39.9	-42.2	13.3	1.14e-05	0	62	0	1528823808	50	4978
2026-01-23 11:36:43.39	313.47	14.25	-40.0	-42.4	13.2	3.20e-05	0	62	0	1541406720	50	5066
2026-01-23 11:36:47.43	314.10	13.99	-39.9	-42.3	13.3	1.98e-05	0	63	0	1553989632	50	4998
2026-01-23 11:36:51.47	314.72	13.72	-39.9	-42.3	13.3	2.44e-05	0	62	0	1566572544	50	4985
2026-01-23 11:36:55.51	315.33	13.45	-40.0	-42.5	13.1	3.20e-05	0	62	0	1580204032	50	5116
2026-01-23 11:36:59.55	315.93	13.18	-40.1	-42.6	12.9	6.10e-05	0	62	0	1591738368	50	5186
2026-01-23 11:37:03.59	316.52	12.91	-40.1	-42.7	12.8	5.79e-05	0	62	0	1604321280	50	5250
2026-01-23 11:37:07.63	317.10	12.64	-40.2	-42.8	12.6	8.39e-05	0	62	0	1617952768	50	5295
2026-01-23 11:37:11.66	317.66	12.38	-40.4	-43.2	12.2	2.28e-04	0	62	0	1630535680	51	5223
2026-01-23 11:37:15.70	318.22	12.11	-40.5	-43.2	12.1	2.34e-04	0	62	0	1643118592	51	5258
2026-01-23 11:37:19.75	318.77	11.84	-40.4	-43.1	12.3	1.88e-04	0	62	0	1655701504	51	5184
2026-01-23 11:37:23.79	319.31	11.58	-40.3	-43.0	12.4	1.46e-04	0	62	0	1668284416	51	5102
2026-01-23 11:37:27.83	319.84	11.31	-40.3	-43.0	12.4	1.69e-04	0	62	0	1680867328	51	5142
2026-01-23 11:37:31.87	320.36	11.05	-40.5	-43.3	12.1	3.07e-04	0	62	0	1693450240	51	5295
2026-01-23 11:37:35.91	320.88	10.79	-40.6	-43.5	11.8	3.93e-04	0	62	0	1706033152	51	5423
2026-01-23 11:37:39.96	321.38	10.52	-40.6	-43.6	11.7	5.16e-04	0	62	0	1718616064	51	5475
2026-01-23 11:37:43.99	321.87	10.26	-40.6	-43.4	11.8	4.80e-04	0	62	0	1731198976	51	5393
2026-01-23 11:37:48.03	322.36	10.00	-40.7	-43.7	11.5	7.29e-04	0	62	0	1743781888	51	5554
2026-01-23 11:37:52.06	322.84	9.74	-40.7	-43.9	11.2	1.23e-03	0	62	0	1756364800	52	5348
2026-01-23 11:37:56.10	323.31	9.49	-40.5	-43.5	11.6	7.26e-04	0	62	0	1768947712	52	5143
2026-01-23 11:38:00.14	323.77	9.23	-40.6	-43.7	11.4	9.63e-04	0	62	0	1781530624	52	5234
2026-01-23 11:38:04.18	324.22	8.97	-40.7	-43.8	11.2	1.37e-03	0	62	0	1794113536	52	5323
2026-01-23 11:38:08.21	324.67	8.72	-40.7	-43.9	11.1	1.57e-03	0	62	0	1806696448	52	5383
2026-01-23 11:38:12.26	325.11	8.46	-40.8	-44.0	11.0	1.96e-03	0	62	0	1819279360	52	5415
2026-01-23 11:38:16.29	325.54	8.21	-40.7	-43.9	11.1	1.89e-03	0	62	0	1831862272	52	5357
2026-01-23 11:38:20.33	325.96	7.96	-44.4	-55.5	3.8	1.47e+00	0	62	104	1842348032	59	13599
2026-01-23 11:38:24.37	326.38	7.71	-45.1	-57.5	3.8	1.49e+00	0	63	104	1842348032	60	16314
2026-01-23 11:38:28.41	326.79	7.46	-45.0	-57.5	3.8	1.49e+00	0	62	104	1842348032	61	15378
2026-01-23 11:38:32.45	327.20	7.21	-45.2	-57.5	3.8	1.49e+00	0	62	104	1842348032	61	15380
2026-01-23 11:38:36.49	327.60	6.97	-45.1	-57.5	3.8	1.49e+00	0	62	104	1842348032	60	16215
2026-01-23 11:38:40.53	327.99	6.72	-45.1	-57.5	3.8	1.49e+00	0	62	104	1842348032	60	16182
2026-01-23 11:38:44.57	328.37	6.48	-45.1	-57.5	3.8	1.49e+00	0	62	104	1842348032	60	16182
2026-01-23 11:38:48.61	328.75	6.23	-45.1	-57.5	3.8	1.49e+00	0	62	104	1842348032	60	16135
2026-01-23 11:38:52.65	329.13	5.99	-45.1	-57.5	3.8	1.49e+00	0	62	104	1842348032	60	16184
2026-01-23 11:38:56.69	329.49	5.75	-45.0	-57.5	3.8	1.49e+00	0	62	104	1842348032	60	16179
2026-01-23 11:39:00.73	329.86	5.51	-45.1	-57.5	3.8	1.49e+00	0	62	104	1842348032	60	16221
2026-01-23 11:39:04.77	330.21	5.27	-45.0	-57.5	3.8	1.49e+00	0	62	104	1842348032	60	16155
2026-01-23 11:39:08.81	330.56	5.04	-45.1	-57.4	3.8	1.49e+00	0	62	104	1842348032	60	16113
2026-01-23 11:39:12.85	330.91	4.80	-45.1	-57.4	3.8	1.49e+00	0	63	104	1842348032	60	16118
2026-01-23 11:39:16.89	331.25	4.57	-45.1	-57.4	3.8	1.49e+00	0	62	104	1842348032	60	16125
2026-01-23 11:39:20.93	331.59	4.34	-45.1	-57.5	3.8	1.49e+00	0	62	104	1842348032	60	16178
2026-01-23 11:39:24.97	331.92	4.11	-45.1	-57.5	3.8	1.49e+00	0	63	104	1842348032	60	16148
2026-01-23 11:39:29.01	332.24	3.88	-45.1	-57.5	3.8	1.49e+00	0	63	104	1842348032	60	16182
2026-01-23 11:39:33.05	332.56	3.65	-45.0	-57.5	3.8	1.49e+00	0	62	104	1842348032	60	16139
2026-01-23 11:39:37.09	332.88	3.42	-45.1	-57.5	3.8	1.49e+00	0	62	104	1842348032	60	16147
2026-01-23 11:39:41.13	333.19	3.19	-45.1	-57.4	3.8	1.49e+00	0	62	104	1842348032	60	16121
2026-01-23 11:39:45.17	333.50	2.97	-45.1	-57.4	3.8	1.49e+00	0	62	104	1842348032	60	16120
2026-01-23 11:39:49.21	333.80	2.74	-45.1	-57.4	3.8	1.49e+00	0	62	104	1842348032	60	16121
2026-01-23 11:39:53.25	334.10	2.52	-45.1	-57.5	3.8	1.49e+00	0	62	104	1842348032	60	16148
2026-01-23 11:39:57.29	334.39	2.30	-45.1	-57.4	3.8	1.49e+00	0	62	104	1842348032	60	16117
2026-01-23 11:40:01.32	334.68	2.08	-45.1	-57.4	3.8	1.49e+00	0	62	104	1842348032	60	16078

#Closed at: 2026-01-23 11:40:04
#Recorded file [1842 MB]: D:/lorett/data/31039_260123_142721.dat