passes_logs/2026/01/23/R2.0S_Moscow/R2.0S_Moscow__20260123_233609_NOAA_21_JPSS-2_rec.log

#Pass ID: 20260123_233609_NOAA 21 (JPSS-2)
#Satellite: NOAA 21 (JPSS-2)
#Configuration: NOAA-21
#almurnet v.1.7.20251203
#Start time: 2026-01-23 23:36:09

#Version: 2.2.20231116
#Station: R2.0S_Moscow
#Location: 37.707566 lon 55.798166 lat
#TLE: 1 54234U 22150A   26022.90705406  .00000208  00000+0  11937-3 0  9994
#TLE: 2 54234  98.7507 323.7115 0000669 231.3756 128.7360 14.19537879165931

#Time	Az	El	Level	Level2	SNR	BER	BlckErr	Temp	State	Recorded	gain1	gain2
2026-01-23 23:36:09.93	16.45	2.05	-42.3	-54.7	3.8	1.49e+00	0	52	0	0	56	14735
2026-01-23 23:36:13.96	16.47	2.31	-42.3	-54.7	3.8	1.49e+00	0	52	104	0	56	14784
2026-01-23 23:36:18.01	16.50	2.57	-42.3	-54.7	3.8	1.49e+00	0	53	104	0	56	14778
2026-01-23 23:36:22.05	16.53	2.83	-42.1	-54.5	3.8	1.49e+00	0	53	104	0	55	15263
2026-01-23 23:36:26.09	16.56	3.10	-42.1	-54.5	3.8	1.49e+00	0	53	104	0	55	15302
2026-01-23 23:36:30.13	16.59	3.37	-42.1	-54.5	3.8	1.49e+00	0	53	104	0	55	15334
2026-01-23 23:36:34.17	16.62	3.64	-42.1	-54.5	3.8	1.49e+00	0	54	104	0	55	15291
2026-01-23 23:36:38.21	16.64	3.91	-42.1	-54.5	3.8	1.49e+00	0	54	104	0	55	15278
2026-01-23 23:36:42.25	16.67	4.19	-42.1	-54.5	3.8	1.49e+00	0	54	104	0	55	15319
2026-01-23 23:36:46.30	16.70	4.47	-42.1	-54.5	3.8	1.49e+00	0	55	104	0	55	15267
2026-01-23 23:36:50.34	16.73	4.75	-42.1	-54.5	3.8	1.49e+00	0	55	104	0	55	15334
2026-01-23 23:36:54.38	16.76	5.04	-42.1	-54.5	3.8	1.49e+00	0	55	104	0	55	15265
2026-01-23 23:36:58.42	16.79	5.33	-42.1	-54.5	3.8	1.49e+00	0	55	104	0	55	15246
2026-01-23 23:37:02.46	16.82	5.62	-42.1	-54.5	3.8	1.49e+00	0	55	104	0	55	15238
2026-01-23 23:37:06.50	16.85	5.91	-42.1	-54.5	3.8	1.49e+00	0	56	104	0	55	15262
2026-01-23 23:37:10.55	16.88	6.21	-42.0	-54.4	3.8	1.49e+00	0	56	104	0	55	15185
2026-01-23 23:37:14.59	16.91	6.52	-42.1	-54.4	3.8	1.49e+00	0	56	104	0	55	15142
2026-01-23 23:37:18.63	16.95	6.82	-42.1	-54.1	3.8	1.49e+00	0	56	104	0	55	14644
2026-01-23 23:37:22.67	16.98	7.13	-42.0	-53.7	3.8	1.49e+00	0	56	104	0	55	13910
2026-01-23 23:37:26.71	17.01	7.44	-41.7	-50.7	4.2	1.47e+00	0	56	104	0	55	9866
2026-01-23 23:37:30.75	17.04	7.76	-40.7	-46.2	7.0	1.73e-01	0	57	0	8388608	53	6584
2026-01-23 23:37:34.79	17.07	8.08	-39.8	-43.5	10.1	7.64e-03	0	57	0	20971520	51	5459
2026-01-23 23:37:38.83	17.11	8.41	-40.9	-45.2	8.9	6.44e-02	0	57	0	28311552	52	6244
2026-01-23 23:37:42.87	17.14	8.74	-40.2	-43.6	10.6	3.62e-03	0	57	0	40894464	52	5194
2026-01-23 23:37:46.91	17.17	9.07	-40.0	-43.2	11.2	1.27e-03	0	57	0	53477376	51	5254
2026-01-23 23:37:50.94	17.21	9.41	-40.2	-43.5	11.0	2.13e-03	0	57	0	66060288	51	5439
2026-01-23 23:37:54.98	17.24	9.75	-40.3	-43.5	11.2	1.14e-03	0	57	0	78643200	51	5429
2026-01-23 23:37:59.02	17.28	10.10	-40.1	-43.1	11.7	6.53e-04	0	57	0	91226112	51	5197
2026-01-23 23:38:03.05	17.31	10.45	-40.2	-43.2	11.7	6.42e-04	0	58	0	103809024	51	5224
2026-01-23 23:38:07.09	17.35	10.81	-40.0	-42.9	12.1	2.46e-04	0	58	0	116391936	51	5043
2026-01-23 23:38:11.13	17.38	11.17	-40.0	-42.7	12.3	1.76e-04	0	58	0	128974848	51	4976
2026-01-23 23:38:15.17	17.42	11.54	-40.0	-42.7	12.4	1.42e-04	0	58	0	141557760	51	4931
2026-01-23 23:38:19.21	17.46	11.92	-40.0	-42.6	12.5	1.09e-04	0	58	0	154140672	51	4922
2026-01-23 23:38:23.26	17.49	12.30	-39.9	-42.5	12.7	7.32e-05	0	58	0	166723584	51	4835
2026-01-23 23:38:27.30	17.53	12.68	-39.7	-42.3	13.0	5.18e-05	0	58	0	179306496	51	4727
2026-01-23 23:38:31.34	17.57	13.08	-39.8	-42.3	13.0	4.65e-05	0	58	0	191889408	51	4726
2026-01-23 23:38:35.38	17.61	13.47	-39.7	-42.3	13.0	3.89e-05	0	58	0	204472320	51	4716
2026-01-23 23:38:39.42	17.65	13.88	-39.7	-42.1	13.2	1.67e-05	0	58	0	217055232	51	4646
2026-01-23 23:38:43.45	17.69	14.29	-39.7	-42.1	13.3	1.14e-05	0	59	0	229638144	51	4614
2026-01-23 23:38:47.49	17.73	14.71	-39.7	-42.1	13.3	1.29e-05	0	59	0	242221056	51	4650
2026-01-23 23:38:51.53	17.77	15.14	-39.8	-42.2	13.3	2.13e-05	0	59	0	254803968	51	4689
2026-01-23 23:38:55.57	17.82	15.57	-39.8	-42.2	13.3	1.83e-05	0	59	0	267386880	51	4661
2026-01-23 23:38:59.61	17.86	16.01	-39.8	-42.3	13.2	1.67e-05	0	59	0	279969792	51	4708
2026-01-23 23:39:03.65	17.90	16.47	-39.7	-42.1	13.5	1.29e-05	0	59	0	292552704	51	4603
2026-01-23 23:39:07.68	17.95	16.92	-39.6	-42.0	13.5	9.10e-06	0	59	0	305135616	51	4597
2026-01-23 23:39:11.72	17.99	17.39	-39.8	-42.2	13.5	1.06e-05	0	59	0	317718528	51	4671
2026-01-23 23:39:15.76	18.04	17.87	-39.8	-42.2	13.5	5.30e-06	0	59	0	330301440	51	4678
2026-01-23 23:39:19.80	18.09	18.36	-39.9	-42.3	13.5	1.29e-05	0	59	0	343932928	51	4711
2026-01-23 23:39:23.83	18.14	18.85	-39.8	-42.1	13.6	8.30e-06	0	59	0	356515840	51	4650
2026-01-23 23:39:27.88	18.19	19.36	-39.7	-41.9	13.9	5.30e-06	0	59	0	369098752	51	4515
2026-01-23 23:39:31.92	18.24	19.88	-39.7	-41.9	13.9	3.00e-06	0	59	0	381681664	51	4530
2026-01-23 23:39:35.96	18.29	20.40	-39.6	-41.8	14.0	2.20e-06	0	59	0	394264576	51	4487
2026-01-23 23:39:40.00	18.34	20.94	-39.5	-41.7	14.2	1.50e-06	0	59	0	406847488	51	4401
2026-01-23 23:39:44.04	18.40	21.50	-39.4	-41.5	14.3	2.20e-06	0	59	0	419430400	50	4588
2026-01-23 23:39:48.08	18.46	22.06	-39.1	-41.1	14.8	7.00e-07	0	59	0	432013312	50	4381
2026-01-23 23:39:52.11	18.51	22.64	-39.0	-41.0	14.9	0.00e+00	0	60	0	444596224	50	4312
2026-01-23 23:39:56.16	18.57	23.23	-38.8	-40.8	15.2	0.00e+00	0	60	0	457179136	49	4444
2026-01-23 23:40:00.19	18.63	23.83	-38.8	-40.6	15.3	0.00e+00	0	60	0	469762048	49	4384
2026-01-23 23:40:04.23	18.70	24.45	-38.7	-40.6	15.4	0.00e+00	0	60	0	482344960	49	4379
2026-01-23 23:40:08.26	18.76	25.08	-39.0	-40.9	15.1	0.00e+00	0	60	0	494927872	49	4514
2026-01-23 23:40:12.30	18.83	25.73	-39.2	-41.3	14.8	0.00e+00	0	60	0	507510784	49	4708
2026-01-23 23:40:16.35	18.90	26.40	-39.6	-41.7	14.3	0.00e+00	0	60	0	520093696	49	4943
2026-01-23 23:40:20.39	18.97	27.08	-39.9	-42.1	13.9	3.00e-06	0	60	0	532676608	50	4917
2026-01-23 23:40:24.43	19.04	27.78	-40.1	-42.5	13.5	1.06e-05	0	60	0	545259520	50	5133
2026-01-23 23:40:28.46	19.12	28.49	-40.3	-42.7	13.3	1.60e-05	0	60	0	557842432	51	4938
2026-01-23 23:40:32.50	19.20	29.23	-40.2	-42.6	13.3	1.52e-05	0	60	0	570425344	51	4918
2026-01-23 23:40:36.54	19.28	29.99	-39.7	-41.8	14.2	1.50e-06	0	60	0	583008256	51	4475
2026-01-23 23:40:40.58	19.37	30.76	-39.4	-41.4	14.6	0.00e+00	0	60	0	595591168	50	4511
2026-01-23 23:40:44.61	19.46	31.56	-39.2	-41.2	14.8	0.00e+00	0	60	0	608174080	50	4420
2026-01-23 23:40:48.65	19.55	32.38	-39.4	-41.5	14.6	7.00e-07	0	60	0	620756992	50	4563
2026-01-23 23:40:52.70	19.65	33.23	-39.8	-41.9	14.2	1.50e-06	0	60	0	633339904	50	4778
2026-01-23 23:40:56.73	19.75	34.09	-40.0	-42.2	13.9	3.00e-06	0	60	0	645922816	50	4964
2026-01-23 23:41:00.76	19.85	34.99	-40.3	-42.7	13.3	1.44e-05	0	60	0	658505728	51	4977
2026-01-23 23:41:04.80	19.96	35.91	-40.6	-43.2	12.8	4.50e-05	0	60	0	671088640	52	4957
2026-01-23 23:41:08.84	20.08	36.85	-40.9	-43.7	12.4	1.53e-04	0	61	0	684720128	52	5233
2026-01-23 23:41:12.88	20.20	37.83	-41.0	-43.9	12.1	2.37e-04	0	60	0	697303040	52	5350
2026-01-23 23:41:16.92	20.33	38.83	-40.9	-43.7	12.3	1.41e-04	0	60	0	709885952	52	5243
2026-01-23 23:41:20.96	20.47	39.87	-40.7	-43.3	12.7	7.55e-05	0	60	0	722468864	52	5014
2026-01-23 23:41:25.00	20.62	40.93	-40.8	-43.4	12.6	8.69e-05	0	60	0	735051776	52	5058
2026-01-23 23:41:29.04	20.77	42.03	-41.1	-43.9	12.0	3.20e-04	0	60	0	747634688	52	5382
2026-01-23 23:41:33.07	20.93	43.16	-41.7	-44.9	11.0	1.81e-03	0	60	0	760217600	54	5369
2026-01-23 23:41:37.11	21.11	44.33	-41.6	-44.7	11.3	1.37e-03	0	60	0	772800512	54	5230
2026-01-23 23:41:41.15	21.30	45.53	-41.9	-45.3	10.7	2.57e-03	0	61	0	785383424	54	5621
2026-01-23 23:41:45.19	21.50	46.77	-42.2	-45.9	10.0	8.30e-03	0	61	0	797966336	55	5711
2026-01-23 23:41:49.23	21.72	48.05	-41.9	-45.3	10.7	3.41e-03	0	60	0	810549248	55	5299
2026-01-23 23:41:53.27	21.95	49.36	-41.3	-44.2	11.8	5.27e-04	0	60	0	823132160	54	4946
2026-01-23 23:41:57.31	22.20	50.72	-41.1	-43.9	12.1	2.61e-04	0	61	0	835715072	54	4766
2026-01-23 23:42:01.35	22.48	52.11	-40.6	-43.1	12.9	6.79e-05	0	61	0	848297984	53	4622
2026-01-23 23:42:05.39	22.79	53.55	-40.3	-42.6	13.4	1.90e-05	0	61	0	860880896	52	4637
2026-01-23 23:42:09.43	23.12	55.03	-39.9	-42.0	14.1	5.30e-06	0	61	0	873463808	51	4569
2026-01-23 23:42:13.46	23.49	56.54	-39.5	-41.5	14.6	0.00e+00	0	61	0	886046720	50	4562
2026-01-23 23:42:17.50	23.90	58.10	-39.9	-42.0	14.1	7.00e-07	0	61	0	898629632	50	4837
2026-01-23 23:42:21.54	24.37	59.71	-39.0	-40.9	15.2	0.00e+00	0	61	0	911212544	50	4276
2026-01-23 23:42:25.58	24.89	61.35	-38.7	-40.5	15.7	0.00e+00	0	61	0	923795456	49	4300
2026-01-23 23:42:29.62	25.48	63.03	-38.5	-40.3	15.9	0.00e+00	0	61	0	936378368	49	4206
2026-01-23 23:42:33.66	26.17	64.75	-38.6	-40.3	15.8	0.00e+00	0	61	0	948961280	48	4491
2026-01-23 23:42:37.70	26.96	66.51	-38.1	-39.8	16.3	0.00e+00	0	61	0	961544192	48	4208
2026-01-23 23:42:41.74	27.90	68.30	-38.7	-40.4	15.6	0.00e+00	0	61	0	974127104	48	4545
2026-01-23 23:42:45.78	29.02	70.13	-38.5	-40.2	15.7	0.00e+00	0	61	0	986710016	48	4432
2026-01-23 23:42:49.82	30.38	71.98	-38.0	-39.7	16.2	0.00e+00	0	61	0	999292928	47	4414
2026-01-23 23:42:53.85	32.07	73.84	-38.1	-39.8	16.0	0.00e+00	0	61	0	1011875840	47	4464
2026-01-23 23:42:57.89	34.23	75.73	-38.1	-39.8	16.1	0.00e+00	0	61	0	1025507328	47	4460
2026-01-23 23:43:01.93	37.06	77.61	-38.6	-40.4	15.5	0.00e+00	0	61	0	1038090240	48	4532
2026-01-23 23:43:05.97	40.93	79.48	-39.2	-41.1	14.9	0.00e+00	0	61	0	1050673152	49	4646
2026-01-23 23:43:10.00	46.46	81.29	-38.7	-40.4	15.5	0.00e+00	0	61	0	1063256064	48	4539
2026-01-23 23:43:14.04	54.85	83.00	-38.8	-40.6	15.3	0.00e+00	0	61	0	1075838976	48	4634
2026-01-23 23:43:18.08	68.20	84.48	-39.0	-40.9	15.0	0.00e+00	0	61	0	1088421888	48	4780
2026-01-23 23:43:22.12	89.19	85.48	-39.4	-41.3	14.6	0.00e+00	0	61	0	1101004800	49	4758
2026-01-23 23:43:26.16	116.19	85.64	-38.8	-40.7	15.2	0.00e+00	0	61	0	1113587712	49	4419
2026-01-23 23:43:30.20	139.84	84.88	-38.9	-40.7	15.2	0.00e+00	0	61	0	1126170624	49	4435
2026-01-23 23:43:34.24	155.50	83.53	-38.9	-40.8	15.1	0.00e+00	0	61	0	1138753536	49	4452
2026-01-23 23:43:38.28	165.26	81.88	-38.7	-40.6	15.3	0.00e+00	0	61	0	1151336448	48	4607
2026-01-23 23:43:42.32	171.58	80.08	-38.7	-40.5	15.4	0.00e+00	0	61	0	1163919360	49	4318
2026-01-23 23:43:46.36	175.92	78.23	-38.5	-40.2	15.7	0.00e+00	0	61	0	1176502272	48	4436
2026-01-23 23:43:50.39	179.04	76.35	-38.7	-40.4	15.5	0.00e+00	0	61	0	1189085184	48	4545
2026-01-23 23:43:54.43	181.40	74.46	-38.6	-40.4	15.5	0.00e+00	0	61	0	1201668096	48	4521
2026-01-23 23:43:58.47	183.23	72.58	-39.0	-40.8	15.1	0.00e+00	0	61	0	1214251008	49	4493
2026-01-23 23:44:02.51	184.69	70.72	-37.9	-39.6	16.3	0.00e+00	0	61	0	1226833920	47	4341
2026-01-23 23:44:06.55	185.88	68.88	-39.3	-41.3	14.6	7.00e-07	0	61	0	1239416832	49	4740
2026-01-23 23:44:10.58	186.87	67.08	-39.0	-40.9	15.1	0.00e+00	0	61	0	1251999744	48	4793
2026-01-23 23:44:14.62	187.71	65.30	-38.2	-39.9	16.1	0.00e+00	0	61	0	1264582656	48	4258
2026-01-23 23:44:18.65	188.42	63.57	-38.5	-40.3	15.6	0.00e+00	0	61	0	1277165568	47	4718
2026-01-23 23:44:22.69	189.05	61.87	-39.3	-41.3	14.5	0.00e+00	0	61	0	1289748480	50	4457
2026-01-23 23:44:26.73	189.59	60.21	-39.7	-41.8	14.2	0.00e+00	0	61	0	1302331392	49	5013
2026-01-23 23:44:30.77	190.07	58.58	-39.9	-42.1	13.9	5.30e-06	0	61	0	1314914304	50	4901
2026-01-23 23:44:34.80	190.50	57.01	-39.5	-41.5	14.6	0.00e+00	0	61	0	1327497216	50	4566
2026-01-23 23:44:38.83	190.88	55.47	-40.9	-43.7	12.3	1.86e-04	0	61	0	1340080128	52	5223
2026-01-23 23:44:42.87	191.23	53.98	-40.0	-42.3	13.7	6.80e-06	0	61	0	1352663040	51	4712
2026-01-23 23:44:46.91	191.54	52.52	-40.4	-42.7	13.3	1.06e-05	0	61	0	1365245952	51	4962
2026-01-23 23:44:50.95	191.82	51.10	-41.1	-44.0	11.9	4.83e-04	0	61	0	1377828864	53	5110
2026-01-23 23:44:54.98	192.08	49.73	-41.3	-44.3	11.6	6.83e-04	0	61	0	1391460352	53	5301
2026-01-23 23:44:59.02	192.32	48.40	-40.8	-43.4	12.4	1.44e-04	0	61	0	1402994688	53	4766
2026-01-23 23:45:03.05	192.55	47.11	-41.6	-44.8	11.1	1.75e-03	0	61	0	1415577600	53	5621
2026-01-23 23:45:07.09	192.75	45.85	-41.1	-43.9	12.0	3.99e-04	0	61	0	1429209088	53	5067
2026-01-23 23:45:11.14	192.94	44.63	-42.2	-45.8	10.0	5.70e-03	0	61	0	1441792000	54	5971
2026-01-23 23:45:15.18	193.12	43.45	-41.4	-44.5	11.4	1.27e-03	0	61	0	1454374912	54	5121
2026-01-23 23:45:19.21	193.29	42.30	-41.2	-44.1	11.8	4.60e-04	0	61	0	1466957824	54	4896
2026-01-23 23:45:23.25	193.44	41.19	-42.1	-45.8	10.1	7.51e-03	0	61	0	1479540736	54	5929
2026-01-23 23:45:27.29	193.59	40.10	-41.6	-44.8	11.1	1.79e-03	0	61	0	1492123648	54	5312
2026-01-23 23:45:31.33	193.73	39.06	-40.7	-43.3	12.6	6.25e-05	0	61	0	1504706560	53	4710
2026-01-23 23:45:35.37	193.86	38.04	-40.7	-43.4	12.5	1.44e-04	0	61	0	1517289472	53	4781
2026-01-23 23:45:39.40	193.98	37.05	-40.3	-42.7	13.2	2.05e-05	0	61	0	1529872384	52	4675
2026-01-23 23:45:43.44	194.10	36.09	-40.8	-43.6	12.2	1.43e-04	0	61	0	1542455296	52	5180
2026-01-23 23:45:47.48	194.21	35.16	-41.0	-43.9	11.7	5.11e-04	0	61	0	1555038208	52	5376
2026-01-23 23:45:51.52	194.32	34.25	-40.8	-43.6	12.1	2.78e-04	0	61	0	1567621120	52	5169
2026-01-23 23:45:55.56	194.42	33.37	-40.1	-42.5	13.3	1.67e-05	0	61	0	1580204032	52	4557
2026-01-23 23:45:59.60	194.51	32.52	-40.0	-42.2	13.7	3.00e-06	0	61	0	1592786944	51	4704
2026-01-23 23:46:03.64	194.60	31.69	-39.7	-41.9	14.1	4.50e-06	0	61	0	1605369856	51	4498
2026-01-23 23:46:07.68	194.69	30.88	-40.0	-42.2	13.7	6.80e-06	0	61	0	1617952768	51	4698
2026-01-23 23:46:11.72	194.78	30.09	-40.1	-42.4	13.5	9.90e-06	0	61	0	1630535680	51	4787
2026-01-23 23:46:15.76	194.86	29.32	-39.9	-42.2	13.7	5.30e-06	0	61	0	1643118592	51	4681
2026-01-23 23:46:19.80	194.94	28.58	-39.8	-42.1	13.8	1.14e-05	0	61	0	1655701504	51	4616
2026-01-23 23:46:23.84	195.01	27.85	-39.4	-41.4	14.4	7.00e-07	0	61	0	1668284416	50	4539
2026-01-23 23:46:27.88	195.08	27.14	-39.2	-41.3	14.5	7.00e-07	0	61	0	1680867328	50	4460
2026-01-23 23:46:31.91	195.15	26.45	-39.1	-41.1	14.7	7.00e-07	0	61	0	1693450240	50	4377
2026-01-23 23:46:35.95	195.22	25.78	-38.8	-40.6	15.1	0.00e+00	0	61	0	1706033152	49	4376
2026-01-23 23:46:39.99	195.29	25.13	-38.8	-40.7	15.1	7.00e-07	0	61	0	1718616064	49	4406
2026-01-23 23:46:44.02	195.35	24.49	-38.7	-40.6	15.2	0.00e+00	0	62	0	1731198976	49	4356
2026-01-23 23:46:48.06	195.41	23.86	-38.9	-40.9	14.9	0.00e+00	0	61	0	1743781888	49	4513
2026-01-23 23:46:52.10	195.47	23.25	-39.2	-41.3	14.5	7.00e-07	0	61	0	1756364800	49	4717
2026-01-23 23:46:56.14	195.53	22.65	-39.3	-41.4	14.4	3.00e-06	0	61	0	1769996288	49	4813
2026-01-23 23:47:00.18	195.58	22.07	-39.3	-41.4	14.5	7.00e-07	0	61	0	1782579200	49	4765
2026-01-23 23:47:04.22	195.64	21.50	-39.2	-41.2	14.6	2.20e-06	0	61	0	1795162112	49	4705
2026-01-23 23:47:08.26	195.69	20.94	-39.3	-41.4	14.4	0.00e+00	0	61	0	1807745024	49	4770
2026-01-23 23:47:12.30	195.74	20.40	-39.3	-41.3	14.4	0.00e+00	0	61	0	1820327936	49	4749
2026-01-23 23:47:16.34	195.79	19.86	-39.3	-41.4	14.3	2.20e-06	0	61	0	1832910848	49	4773
2026-01-23 23:47:20.38	195.84	19.34	-39.4	-41.6	14.1	3.00e-06	0	61	0	1845493760	49	4879
2026-01-23 23:47:24.41	195.89	18.83	-39.6	-41.8	13.9	1.50e-06	0	61	0	1858076672	49	4993
2026-01-23 23:47:28.45	195.93	18.33	-39.6	-41.9	13.8	6.10e-06	0	61	0	1870659584	49	5060
2026-01-23 23:47:32.49	195.98	17.84	-39.7	-42.0	13.7	6.10e-06	0	61	0	1883242496	50	4852
2026-01-23 23:47:36.53	196.02	17.36	-39.8	-42.2	13.5	9.90e-06	0	61	0	1895825408	50	4931
2026-01-23 23:47:40.57	196.07	16.88	-39.8	-42.1	13.6	6.10e-06	0	61	0	1908408320	50	4919
2026-01-23 23:47:44.60	196.11	16.42	-39.9	-42.2	13.5	8.30e-06	0	62	0	1920991232	50	4954
2026-01-23 23:47:48.64	196.15	15.97	-39.7	-42.0	13.7	6.10e-06	0	61	0	1933574144	50	4838
2026-01-23 23:47:52.68	196.19	15.52	-39.7	-42.0	13.7	6.10e-06	0	61	0	1946157056	50	4849
2026-01-23 23:47:56.72	196.23	15.08	-39.7	-42.0	13.6	1.52e-05	0	62	0	1958739968	50	4869
2026-01-23 23:48:00.76	196.27	14.65	-39.9	-42.2	13.5	8.30e-06	0	61	0	1971322880	50	4950
2026-01-23 23:48:04.80	196.31	14.23	-39.8	-42.2	13.4	1.22e-05	0	61	0	1983905792	50	4943
2026-01-23 23:48:08.83	196.34	13.81	-39.9	-42.3	13.3	1.67e-05	0	61	0	1996488704	50	4988
2026-01-23 23:48:12.87	196.38	13.40	-39.7	-42.1	13.4	1.60e-05	0	61	0	2009071616	50	4888
2026-01-23 23:48:16.91	196.41	13.00	-39.8	-42.2	13.3	1.90e-05	0	61	0	2021654528	50	4978
2026-01-23 23:48:20.95	196.45	12.61	-39.8	-42.2	13.3	1.75e-05	0	61	0	2034237440	50	4934
2026-01-23 23:48:24.99	196.48	12.22	-39.9	-42.4	13.1	2.05e-05	0	61	0	2046820352	50	5060
2026-01-23 23:48:29.02	196.52	11.83	-40.0	-42.5	12.9	5.11e-05	0	61	0	2059403264	50	5150
2026-01-23 23:48:33.06	196.55	11.46	-40.2	-42.8	12.6	9.07e-05	0	61	0	2071986176	50	5292
2026-01-23 23:48:37.10	196.58	11.08	-40.2	-42.8	12.6	1.08e-04	0	61	0	2084569088	50	5306
2026-01-23 23:48:41.15	196.62	10.72	-40.3	-42.9	12.4	1.29e-04	0	62	0	2097152000	51	5096
2026-01-23 23:48:45.19	196.65	10.36	-40.4	-43.2	12.1	2.39e-04	0	61	0	2110783488	51	5260
2026-01-23 23:48:49.23	196.68	10.00	-40.5	-43.4	11.9	3.68e-04	0	61	0	2123366400	51	5348
2026-01-23 23:48:53.27	196.71	9.65	-40.6	-43.6	11.6	6.74e-04	0	61	0	2135949312	51	5481
2026-01-23 23:48:57.31	196.74	9.31	-40.7	-43.8	11.4	8.71e-04	0	62	0	2148532224	51	5598
2026-01-23 23:49:01.35	196.77	8.96	-40.7	-43.9	11.2	1.44e-03	0	61	0	2161115136	52	5363
2026-01-23 23:49:05.39	196.80	8.63	-40.7	-44.0	11.0	1.96e-03	0	62	0	2173698048	52	5423
2026-01-23 23:49:09.43	196.83	8.30	-40.9	-44.3	10.6	3.25e-03	0	61	0	2186280960	52	5598
2026-01-23 23:49:13.47	196.86	7.97	-41.4	-45.3	9.7	4.07e-03	0	62	0	2198863872	53	5990
2026-01-23 23:49:17.51	196.88	7.65	-45.0	-57.5	3.8	1.49e+00	0	61	104	2199912448	60	16259
2026-01-23 23:49:21.55	196.91	7.33	-45.2	-57.6	3.8	1.49e+00	0	62	104	2199912448	61	15525
2026-01-23 23:49:25.59	196.94	7.01	-45.2	-57.6	3.8	1.49e+00	0	62	104	2199912448	61	15413
2026-01-23 23:49:29.63	196.97	6.70	-45.1	-57.5	3.8	1.49e+00	0	62	104	2199912448	61	15256
2026-01-23 23:49:33.67	196.99	6.39	-45.1	-57.5	3.8	1.49e+00	0	62	104	2199912448	61	15250
2026-01-23 23:49:37.71	197.02	6.09	-45.1	-57.4	3.8	1.49e+00	0	62	104	2199912448	61	15174
2026-01-23 23:49:41.75	197.05	5.79	-45.1	-57.4	3.8	1.49e+00	0	62	104	2199912448	61	15211
2026-01-23 23:49:45.80	197.07	5.49	-45.1	-57.4	3.8	1.49e+00	0	62	104	2199912448	61	15161
2026-01-23 23:49:49.84	197.10	5.20	-45.0	-57.4	3.8	1.49e+00	0	62	104	2199912448	61	15081
2026-01-23 23:49:53.88	197.12	4.91	-45.0	-57.4	3.8	1.49e+00	0	61	104	2199912448	61	15210
2026-01-23 23:49:57.93	197.15	4.62	-45.0	-57.4	3.8	1.49e+00	0	62	104	2199912448	61	15148
2026-01-23 23:50:01.97	197.17	4.33	-45.0	-57.5	3.8	1.49e+00	0	62	104	2199912448	61	15231
2026-01-23 23:50:06.01	197.20	4.05	-45.0	-57.4	3.8	1.49e+00	0	62	104	2199912448	61	15126
2026-01-23 23:50:10.06	197.22	3.77	-45.0	-57.4	3.8	1.49e+00	0	62	104	2199912448	61	15116
2026-01-23 23:50:14.10	197.24	3.50	-45.0	-57.4	3.8	1.49e+00	0	62	104	2199912448	61	15128
2026-01-23 23:50:18.14	197.27	3.23	-45.0	-57.4	3.8	1.49e+00	0	62	104	2199912448	61	15112
2026-01-23 23:50:22.18	197.29	2.96	-45.0	-57.4	3.8	1.49e+00	0	62	104	2199912448	61	15114
2026-01-23 23:50:26.22	197.31	2.69	-45.0	-57.3	3.8	1.49e+00	0	62	104	2199912448	61	15047
2026-01-23 23:50:30.26	197.34	2.42	-45.0	-57.4	3.8	1.49e+00	0	62	104	2199912448	61	15070
2026-01-23 23:50:34.30	197.36	2.16	-45.0	-57.3	3.8	1.49e+00	0	62	104	2199912448	61	15015
2026-01-23 23:50:38.35	197.38	1.90	-45.0	-57.4	3.8	1.49e+00	0	62	104	2199912448	61	15089

#Closed at: 2026-01-23 23:50:39
#Recorded file [2199 MB]: D:/lorett/data/31039_260124_023609.dat