passes_logs/2026/01/23/R2.0S_Moscow/R2.0S_Moscow__20260123_094533_NOAA_21_JPSS-2_rec.log

#Pass ID: 20260123_094533_NOAA 21 (JPSS-2)
#Satellite: NOAA 21 (JPSS-2)
#Configuration: NOAA-21
#almurnet v.1.7.20251203
#Start time: 2026-01-23 09:45:35

#Version: 2.2.20231116
#Station: R2.0S_Moscow
#Location: 37.707566 lon 55.798166 lat
#TLE: 1 54234U 22150A   26022.41365820  .00000211  00000+0  12084-3 0  9990
#TLE: 2 54234  98.7507 323.2240 0000658 234.5287 125.5828 14.19537645165864

#Time	Az	El	Level	Level2	SNR	BER	BlckErr	Temp	State	Recorded	gain1	gain2
2026-01-23 09:45:35.11	155.90	2.14	-44.0	-56.4	3.8	1.49e+00	0	52	0	0	59	15131
2026-01-23 09:45:39.14	155.88	2.40	-44.0	-56.4	3.8	1.49e+00	0	52	104	0	59	15061
2026-01-23 09:45:43.18	155.86	2.66	-44.0	-56.4	3.8	1.49e+00	0	53	104	0	59	15097
2026-01-23 09:45:47.22	155.84	2.93	-44.0	-56.4	3.8	1.49e+00	0	53	104	0	59	15076
2026-01-23 09:45:51.26	155.81	3.20	-44.0	-56.3	3.8	1.49e+00	0	53	104	0	59	14981
2026-01-23 09:45:55.30	155.79	3.47	-44.0	-56.3	3.8	1.49e+00	0	54	104	0	59	15000
2026-01-23 09:45:59.34	155.77	3.75	-44.0	-56.3	3.8	1.49e+00	0	54	104	0	59	15004
2026-01-23 09:46:03.38	155.75	4.03	-44.0	-56.3	3.8	1.49e+00	0	54	104	0	59	14999
2026-01-23 09:46:07.42	155.72	4.31	-44.0	-56.3	3.8	1.49e+00	0	54	104	0	59	15010
2026-01-23 09:46:11.46	155.70	4.59	-44.0	-56.3	3.8	1.49e+00	0	54	104	0	59	15008
2026-01-23 09:46:15.51	155.67	4.88	-44.0	-56.3	3.8	1.49e+00	0	55	104	0	59	14934
2026-01-23 09:46:19.55	155.65	5.17	-44.0	-56.2	3.8	1.49e+00	0	55	104	0	59	14783
2026-01-23 09:46:23.59	155.62	5.46	-43.9	-56.1	3.8	1.49e+00	0	55	104	0	59	14613
2026-01-23 09:46:27.63	155.59	5.76	-43.9	-55.6	3.8	1.49e+00	0	55	104	0	59	13758
2026-01-23 09:46:31.67	155.56	6.06	-43.7	-53.4	4.0	1.48e+00	0	55	104	0	59	10723
2026-01-23 09:46:35.71	155.53	6.36	-43.5	-51.9	4.5	1.33e+00	4	56	104	0	58	9549
2026-01-23 09:46:39.75	155.51	6.67	-43.7	-53.6	4.0	1.48e+00	0	56	104	0	58	11671
2026-01-23 09:46:43.79	155.47	6.98	-43.9	-55.8	3.8	1.49e+00	0	56	104	0	58	14964
2026-01-23 09:46:47.84	155.44	7.29	-43.6	-53.3	3.9	1.46e+00	0	56	104	0	58	11284
2026-01-23 09:46:51.88	155.41	7.61	-42.5	-48.0	6.9	1.97e-01	0	57	0	7340032	57	6473
2026-01-23 09:46:55.92	155.38	7.94	-41.3	-45.2	9.6	1.31e-02	0	57	0	19922944	54	5555
2026-01-23 09:46:59.96	155.34	8.26	-43.1	-50.8	5.0	9.98e-02	0	57	0	25165824	56	9392
2026-01-23 09:47:04.00	155.31	8.59	-40.8	-44.1	10.8	3.10e-03	0	57	0	35651584	53	5212
2026-01-23 09:47:08.03	155.27	8.93	-40.7	-44.0	10.9	2.04e-03	0	57	0	48234496	53	5138
2026-01-23 09:47:12.07	155.23	9.27	-40.8	-44.1	10.9	2.04e-03	0	57	0	60817408	53	5191
2026-01-23 09:47:16.11	155.19	9.61	-40.7	-43.9	11.2	1.29e-03	0	57	0	73400320	53	5044
2026-01-23 09:47:20.15	155.15	9.96	-40.6	-43.6	11.6	6.96e-04	0	58	0	85983232	53	4905
2026-01-23 09:47:24.19	155.11	10.32	-40.5	-43.5	11.8	5.39e-04	0	58	0	98566144	52	5114
2026-01-23 09:47:28.23	155.07	10.68	-40.5	-43.5	11.8	4.00e-04	0	58	0	111149056	52	5119
2026-01-23 09:47:32.27	155.03	11.04	-40.3	-43.1	12.2	2.06e-04	0	58	0	123731968	52	4909
2026-01-23 09:47:36.31	154.98	11.41	-40.3	-43.0	12.3	1.59e-04	0	58	0	136314880	52	4863
2026-01-23 09:47:40.35	154.94	11.79	-40.2	-42.9	12.6	1.11e-04	0	58	0	148897792	52	4780
2026-01-23 09:47:44.39	154.89	12.17	-40.1	-42.8	12.8	6.33e-05	0	58	0	161480704	52	4707
2026-01-23 09:47:48.43	154.84	12.56	-40.2	-42.8	12.7	6.02e-05	0	58	0	174063616	52	4759
2026-01-23 09:47:52.47	154.79	12.95	-40.1	-42.6	13.0	4.57e-05	0	58	0	186646528	52	4626
2026-01-23 09:47:56.51	154.73	13.35	-40.1	-42.6	13.1	3.73e-05	0	59	0	199229440	52	4619
2026-01-23 09:48:00.55	154.68	13.76	-40.0	-42.5	13.2	2.05e-05	0	59	0	211812352	52	4548
2026-01-23 09:48:04.59	154.62	14.17	-40.1	-42.5	13.3	1.90e-05	0	59	0	224395264	51	4844
2026-01-23 09:48:08.63	154.56	14.59	-40.2	-42.7	13.2	2.21e-05	0	59	0	236978176	51	4955
2026-01-23 09:48:12.66	154.50	15.02	-40.2	-42.6	13.3	1.60e-05	0	59	0	249561088	51	4896
2026-01-23 09:48:16.70	154.44	15.46	-40.3	-42.8	13.1	2.59e-05	0	59	0	262144000	51	5005
2026-01-23 09:48:20.74	154.38	15.90	-40.3	-42.8	13.2	2.28e-05	0	59	0	274726912	51	4989
2026-01-23 09:48:24.79	154.31	16.36	-40.3	-42.8	13.1	2.59e-05	0	59	0	287309824	51	5029
2026-01-23 09:48:28.82	154.24	16.82	-40.3	-42.8	13.2	2.74e-05	0	59	0	299892736	51	5026
2026-01-23 09:48:32.86	154.17	17.29	-40.3	-42.8	13.2	2.21e-05	0	59	0	312475648	51	5024
2026-01-23 09:48:36.90	154.09	17.77	-40.4	-42.8	13.1	2.67e-05	0	59	0	325058560	51	5034
2026-01-23 09:48:40.93	154.02	18.25	-40.5	-43.0	13.0	3.05e-05	0	59	0	338690048	51	5110
2026-01-23 09:48:44.97	153.94	18.75	-40.4	-42.9	13.1	3.73e-05	0	59	0	351272960	51	5100
2026-01-23 09:48:49.01	153.85	19.26	-40.4	-42.9	13.1	3.28e-05	0	59	0	363855872	51	5081
2026-01-23 09:48:53.05	153.77	19.78	-40.3	-42.8	13.2	2.13e-05	0	59	0	376438784	51	5006
2026-01-23 09:48:57.09	153.68	20.31	-40.3	-42.7	13.3	1.83e-05	0	60	0	389021696	51	4965
2026-01-23 09:49:01.13	153.58	20.85	-40.0	-42.3	13.8	6.10e-06	0	60	0	401604608	51	4753
2026-01-23 09:49:05.17	153.49	21.40	-39.8	-41.9	14.2	2.20e-06	0	60	0	414187520	51	4537
2026-01-23 09:49:09.21	153.39	21.97	-39.6	-41.7	14.4	1.50e-06	0	60	0	426770432	51	4418
2026-01-23 09:49:13.24	153.28	22.55	-39.4	-41.4	14.7	0.00e+00	0	60	0	439353344	50	4535
2026-01-23 09:49:17.28	153.17	23.14	-39.3	-41.3	14.9	0.00e+00	0	60	0	451936256	50	4460
2026-01-23 09:49:21.32	153.06	23.74	-39.2	-41.2	15.0	0.00e+00	0	60	0	464519168	50	4423
2026-01-23 09:49:25.36	152.94	24.36	-39.3	-41.3	14.9	0.00e+00	0	60	0	477102080	50	4459
2026-01-23 09:49:29.39	152.81	25.00	-39.4	-41.4	14.8	7.00e-07	0	60	0	489684992	50	4509
2026-01-23 09:49:33.43	152.68	25.65	-39.6	-41.7	14.5	7.00e-07	0	60	0	502267904	50	4681
2026-01-23 09:49:37.46	152.54	26.31	-39.9	-42.1	14.1	4.50e-06	0	60	0	514850816	50	4895
2026-01-23 09:49:41.51	152.40	26.99	-40.1	-42.4	13.8	3.80e-06	0	60	0	527433728	50	5085
2026-01-23 09:49:45.54	152.25	27.69	-40.3	-42.7	13.5	1.22e-05	0	60	0	540016640	51	4944
2026-01-23 09:49:49.58	152.09	28.41	-40.6	-43.1	13.2	1.75e-05	0	60	0	552599552	51	5169
2026-01-23 09:49:53.62	151.93	29.15	-40.6	-43.1	13.1	2.74e-05	0	60	0	565182464	51	5182
2026-01-23 09:49:57.65	151.76	29.90	-40.4	-42.8	13.4	9.90e-06	0	60	0	577765376	51	5036
2026-01-23 09:50:01.70	151.57	30.68	-39.9	-42.0	14.2	0.00e+00	0	60	0	590348288	51	4590
2026-01-23 09:50:05.74	151.38	31.48	-39.7	-41.8	14.4	0.00e+00	0	61	0	602931200	51	4478
2026-01-23 09:50:09.78	151.18	32.30	-39.8	-42.0	14.2	0.00e+00	0	60	0	615514112	51	4555
2026-01-23 09:50:13.81	150.97	33.13	-40.0	-42.2	14.0	3.00e-06	0	61	0	628097024	51	4676
2026-01-23 09:50:17.85	150.74	34.00	-40.3	-42.7	13.6	1.06e-05	0	60	0	640679936	51	4930
2026-01-23 09:50:21.89	150.50	34.89	-40.7	-43.3	12.8	3.12e-05	0	60	0	653262848	52	5033
2026-01-23 09:50:25.93	150.25	35.80	-41.0	-43.7	12.3	1.48e-04	0	60	0	665845760	52	5277
2026-01-23 09:50:29.97	149.98	36.74	-41.2	-44.0	12.1	2.81e-04	0	61	0	679477248	52	5411
2026-01-23 09:50:34.01	149.69	37.71	-41.2	-44.1	12.0	3.16e-04	0	60	0	691011584	53	5184
2026-01-23 09:50:38.04	149.39	38.70	-41.2	-44.0	12.1	2.87e-04	0	61	0	704643072	53	5154
2026-01-23 09:50:42.08	149.07	39.73	-40.9	-43.6	12.5	1.14e-04	0	60	0	717225984	53	4873
2026-01-23 09:50:46.12	148.72	40.78	-40.8	-43.4	12.8	7.62e-05	0	61	0	729808896	53	4779
2026-01-23 09:50:50.16	148.35	41.87	-41.3	-44.1	12.1	2.73e-04	0	60	0	742391808	53	5184
2026-01-23 09:50:54.20	147.95	42.98	-41.6	-44.6	11.5	7.72e-04	0	61	0	754974720	53	5494
2026-01-23 09:50:58.24	147.53	44.13	-41.8	-45.0	11.1	1.59e-03	0	61	0	767557632	54	5460
2026-01-23 09:51:02.28	147.07	45.31	-42.1	-45.6	10.5	3.36e-03	0	61	0	780140544	54	5811
2026-01-23 09:51:06.32	146.57	46.52	-41.8	-45.1	11.0	1.80e-03	0	61	0	792723456	54	5480
2026-01-23 09:51:10.36	146.03	47.77	-41.3	-44.2	11.9	3.84e-04	0	61	0	805306368	54	4955
2026-01-23 09:51:14.40	145.45	49.05	-41.5	-44.4	11.7	5.02e-04	0	61	0	817889280	54	5089
2026-01-23 09:51:18.43	144.81	50.36	-41.1	-43.8	12.3	1.85e-04	0	61	0	830472192	54	4744
2026-01-23 09:51:22.47	144.11	51.71	-41.3	-44.2	11.9	3.97e-04	0	61	0	843055104	54	4961
2026-01-23 09:51:26.51	143.35	53.10	-41.0	-43.7	12.4	1.44e-04	0	61	0	855638016	53	4957
2026-01-23 09:51:30.55	142.50	54.51	-40.5	-42.9	13.3	2.67e-05	0	61	0	868220928	53	4518
2026-01-23 09:51:34.59	141.57	55.96	-40.4	-42.8	13.4	1.98e-05	0	61	0	880803840	52	4738
2026-01-23 09:51:38.63	140.53	57.44	-40.0	-42.2	14.1	7.00e-07	0	61	0	893386752	51	4683
2026-01-23 09:51:42.66	139.37	58.95	-39.8	-41.9	14.2	1.50e-06	0	61	0	905969664	51	4535
2026-01-23 09:51:46.70	138.07	60.48	-39.6	-41.6	14.6	1.50e-06	0	61	0	918552576	51	4367
2026-01-23 09:51:50.74	136.59	62.04	-39.5	-41.5	14.6	1.50e-06	0	61	0	931135488	50	4569
2026-01-23 09:51:54.78	134.92	63.61	-39.1	-41.0	15.3	0.00e+00	0	61	0	943718400	50	4293
2026-01-23 09:51:58.82	132.99	65.20	-39.0	-40.9	15.2	0.00e+00	0	61	0	956301312	49	4517
2026-01-23 09:52:02.85	130.78	66.78	-39.2	-41.1	15.0	0.00e+00	0	61	0	968884224	49	4616
2026-01-23 09:52:06.89	128.21	68.36	-39.2	-41.1	15.0	0.00e+00	0	61	0	981467136	49	4635
2026-01-23 09:52:10.93	125.19	69.92	-38.6	-40.3	15.9	0.00e+00	0	61	0	994050048	49	4206
2026-01-23 09:52:14.97	121.63	71.44	-38.7	-40.5	15.6	0.00e+00	0	61	0	1006632960	49	4318
2026-01-23 09:52:19.00	117.42	72.90	-38.4	-40.1	15.9	0.00e+00	0	61	0	1019215872	48	4385
2026-01-23 09:52:23.04	112.39	74.28	-38.6	-40.4	15.7	0.00e+00	0	61	0	1031798784	48	4497
2026-01-23 09:52:27.08	106.40	75.53	-39.2	-41.1	14.9	0.00e+00	0	61	0	1045430272	48	4914
2026-01-23 09:52:31.12	99.32	76.61	-39.4	-41.4	14.6	7.00e-07	0	61	0	1058013184	49	4796
2026-01-23 09:52:35.15	91.12	77.46	-38.9	-40.8	15.3	0.00e+00	0	61	0	1070596096	49	4445
2026-01-23 09:52:39.19	81.90	78.03	-39.1	-41.0	15.1	0.00e+00	0	61	0	1083179008	49	4576
2026-01-23 09:52:43.23	72.01	78.27	-38.8	-40.6	15.4	0.00e+00	0	61	0	1095761920	49	4375
2026-01-23 09:52:47.27	62.01	78.16	-39.0	-40.9	15.2	0.00e+00	0	61	0	1108344832	49	4510
2026-01-23 09:52:51.31	52.48	77.71	-39.6	-41.7	14.3	0.00e+00	0	61	0	1120927744	50	4693
2026-01-23 09:52:55.36	43.84	76.96	-38.9	-40.8	15.2	0.00e+00	0	61	0	1133510656	49	4484
2026-01-23 09:52:59.39	36.35	75.97	-39.1	-41.0	15.0	0.00e+00	0	62	0	1146093568	49	4552
2026-01-23 09:53:03.43	29.96	74.78	-38.7	-40.4	15.7	0.00e+00	0	61	0	1158676480	49	4278
2026-01-23 09:53:07.46	24.59	73.45	-38.4	-40.1	16.0	0.00e+00	0	61	0	1171259392	48	4341
2026-01-23 09:53:11.50	20.08	72.02	-38.9	-40.7	15.4	0.00e+00	0	61	0	1183842304	48	4661
2026-01-23 09:53:15.54	16.29	70.52	-38.8	-40.6	15.4	0.00e+00	0	61	0	1196425216	49	4388
2026-01-23 09:53:19.58	13.08	68.97	-39.0	-40.8	15.3	0.00e+00	0	61	0	1209008128	48	4735
2026-01-23 09:53:23.62	10.35	67.40	-39.1	-40.9	15.1	0.00e+00	0	61	0	1221591040	49	4516
2026-01-23 09:53:27.65	8.01	65.82	-40.0	-42.2	14.0	3.00e-06	0	61	0	1234173952	50	4958
2026-01-23 09:53:31.69	5.99	64.24	-39.0	-40.9	15.3	0.00e+00	0	61	0	1246756864	49	4507
2026-01-23 09:53:35.73	4.22	62.67	-40.3	-42.8	13.4	1.75e-05	0	61	0	1259339776	51	4997
2026-01-23 09:53:39.78	2.67	61.10	-39.2	-41.1	15.1	0.00e+00	0	61	0	1271922688	50	4365
2026-01-23 09:53:43.81	1.31	59.57	-40.3	-42.7	13.3	4.04e-05	0	61	0	1284505600	51	4959
2026-01-23 09:53:47.85	0.10	58.06	-39.4	-41.4	14.6	3.80e-06	0	61	0	1297088512	50	4534
2026-01-23 09:53:51.89	359.02	56.57	-41.0	-43.7	12.4	9.07e-05	0	61	0	1309671424	52	5267
2026-01-23 09:53:55.94	358.04	55.11	-40.2	-42.4	13.7	6.80e-06	0	62	0	1322254336	51	4779
2026-01-23 09:53:59.98	357.17	53.69	-40.3	-42.6	13.6	1.37e-05	0	61	0	1334837248	51	4896
2026-01-23 09:54:04.02	356.38	52.29	-41.3	-44.2	11.6	7.59e-04	0	62	0	1347420160	53	5264
2026-01-23 09:54:08.06	355.66	50.94	-40.6	-43.1	12.9	5.03e-05	0	62	0	1361051648	52	4895
2026-01-23 09:54:12.10	355.00	49.61	-41.3	-44.1	12.0	2.91e-04	0	62	0	1372585984	53	5177
2026-01-23 09:54:16.14	354.39	48.32	-42.2	-45.8	10.2	6.60e-03	0	62	0	1386217472	55	5641
2026-01-23 09:54:20.18	353.84	47.07	-41.3	-44.2	11.8	4.02e-04	0	61	0	1398800384	54	4953
2026-01-23 09:54:24.22	353.33	45.85	-42.2	-45.8	10.2	5.16e-03	0	62	0	1411383296	54	5953
2026-01-23 09:54:28.26	352.86	44.66	-41.7	-44.9	11.2	1.50e-03	0	62	0	1423966208	54	5354
2026-01-23 09:54:32.30	352.42	43.50	-42.5	-46.5	9.4	1.15e-02	0	62	0	1436549120	55	6082
2026-01-23 09:54:36.33	352.01	42.38	-42.3	-45.7	10.3	5.64e-03	0	61	0	1449132032	56	5271
2026-01-23 09:54:40.37	351.64	41.29	-41.1	-43.7	12.3	1.73e-04	0	61	0	1461714944	54	4703
2026-01-23 09:54:44.41	351.28	40.23	-41.5	-44.5	11.5	6.89e-04	0	62	0	1474297856	54	5110
2026-01-23 09:54:48.44	350.95	39.20	-41.5	-44.5	11.6	6.61e-04	0	62	0	1486880768	54	5111
2026-01-23 09:54:52.48	350.64	38.20	-41.7	-44.8	11.2	1.33e-03	0	62	0	1499463680	54	5310
2026-01-23 09:54:56.52	350.35	37.22	-41.2	-44.1	11.9	4.26e-04	0	62	0	1512046592	54	4903
2026-01-23 09:55:00.56	350.08	36.28	-40.6	-43.2	12.8	7.24e-05	0	62	0	1524629504	53	4676
2026-01-23 09:55:04.60	349.82	35.35	-40.7	-43.2	12.8	6.79e-05	0	62	0	1537212416	53	4674
2026-01-23 09:55:08.64	349.58	34.46	-40.5	-43.0	13.0	3.96e-05	0	62	0	1549795328	53	4563
2026-01-23 09:55:12.68	349.35	33.59	-40.3	-42.6	13.4	1.60e-05	0	62	0	1562378240	52	4619
2026-01-23 09:55:16.73	349.14	32.74	-40.2	-42.5	13.4	1.37e-05	0	62	0	1574961152	52	4571
2026-01-23 09:55:20.77	348.93	31.91	-40.2	-42.6	13.3	1.75e-05	0	62	0	1587544064	52	4644
2026-01-23 09:55:24.81	348.74	31.11	-40.2	-42.6	13.3	1.67e-05	0	62	0	1600126976	52	4624
2026-01-23 09:55:28.85	348.55	30.33	-40.0	-42.3	13.7	9.10e-06	0	62	0	1612709888	51	4723
2026-01-23 09:55:32.89	348.38	29.57	-40.0	-42.3	13.7	6.80e-06	0	61	0	1625292800	51	4713
2026-01-23 09:55:36.93	348.21	28.83	-40.1	-42.4	13.5	6.10e-06	0	62	0	1637875712	51	4773
2026-01-23 09:55:40.97	348.06	28.11	-40.0	-42.3	13.5	9.90e-06	0	62	0	1650458624	51	4720
2026-01-23 09:55:45.01	347.91	27.40	-39.9	-42.1	13.7	8.30e-06	0	62	0	1663041536	51	4628
2026-01-23 09:55:49.04	347.76	26.72	-39.7	-41.9	13.8	9.10e-06	0	62	0	1675624448	51	4505
2026-01-23 09:55:53.08	347.63	26.05	-39.6	-41.8	13.8	2.20e-06	0	62	0	1688207360	51	4460
2026-01-23 09:55:57.12	347.50	25.39	-39.5	-41.8	13.7	2.20e-06	0	62	0	1701838848	50	4725
2026-01-23 09:56:01.16	347.37	24.75	-39.4	-41.7	13.7	5.30e-06	0	62	0	1713373184	50	4661
2026-01-23 09:56:05.20	347.25	24.13	-39.4	-41.7	13.6	5.30e-06	0	61	0	1727004672	50	4678
2026-01-23 09:56:09.23	347.14	23.52	-39.3	-41.6	13.4	9.10e-06	0	62	0	1739587584	50	4613
2026-01-23 09:56:13.27	347.03	22.93	-39.1	-41.4	13.3	1.83e-05	0	62	0	1752170496	50	4542
2026-01-23 09:56:17.31	346.92	22.35	-38.9	-41.4	12.8	5.64e-05	0	62	0	1764753408	49	4786
2026-01-23 09:56:21.34	346.82	21.78	-39.5	-42.7	11.0	9.96e-04	0	62	0	1777336320	49	5558
2026-01-23 09:56:25.38	346.73	21.22	-40.9	-46.5	6.7	1.60e-01	0	62	0	1789919232	52	7223
2026-01-23 09:56:29.42	346.64	20.68	-41.4	-52.0	3.9	1.48e+00	0	62	104	1796210688	53	12881
2026-01-23 09:56:33.46	346.55	20.15	-41.7	-53.2	3.8	1.49e+00	0	62	104	1796210688	54	13925
2026-01-23 09:56:37.50	346.46	19.63	-41.4	-53.7	3.8	1.49e+00	0	62	104	1796210688	54	14816
2026-01-23 09:56:41.54	346.38	19.11	-41.2	-53.5	3.8	1.49e+00	0	62	104	1796210688	54	14486
2026-01-23 09:56:45.57	346.30	18.61	-41.0	-53.3	3.8	1.49e+00	0	62	104	1796210688	53	14971
2026-01-23 09:56:49.61	346.23	18.12	-41.1	-53.5	3.8	1.49e+00	0	62	104	1796210688	53	15258
2026-01-23 09:56:53.65	346.16	17.64	-41.3	-53.6	3.8	1.49e+00	0	62	104	1796210688	53	15452
2026-01-23 09:56:57.69	346.09	17.17	-41.4	-53.7	3.8	1.49e+00	0	62	104	1796210688	53	15675
2026-01-23 09:57:01.73	346.02	16.71	-41.4	-53.7	3.8	1.49e+00	0	62	104	1796210688	53	15582
2026-01-23 09:57:05.77	345.95	16.25	-41.3	-53.6	3.8	1.49e+00	0	62	104	1796210688	53	15417
2026-01-23 09:57:09.80	345.89	15.81	-41.3	-53.6	3.8	1.49e+00	0	62	104	1796210688	53	15502
2026-01-23 09:57:13.84	345.83	15.37	-41.4	-53.7	3.8	1.49e+00	0	62	104	1796210688	53	15644
2026-01-23 09:57:17.87	345.77	14.94	-41.4	-53.7	3.8	1.49e+00	0	62	104	1796210688	53	15659
2026-01-23 09:57:21.91	345.72	14.52	-41.3	-53.6	3.8	1.49e+00	0	62	104	1796210688	53	15436
2026-01-23 09:57:25.95	345.66	14.10	-41.1	-53.5	3.8	1.49e+00	0	62	104	1796210688	53	15268
2026-01-23 09:57:29.99	345.61	13.69	-41.1	-53.5	3.8	1.49e+00	0	62	104	1796210688	53	15249
2026-01-23 09:57:34.03	345.56	13.29	-41.1	-53.4	3.8	1.49e+00	0	62	104	1796210688	53	15186
2026-01-23 09:57:38.06	345.52	12.89	-41.0	-53.3	3.8	1.49e+00	0	62	104	1796210688	53	15013
2026-01-23 09:57:42.10	345.47	12.51	-40.9	-53.2	3.8	1.49e+00	0	62	104	1796210688	53	14841
2026-01-23 09:57:46.15	345.42	12.12	-40.9	-53.2	3.8	1.49e+00	0	62	104	1796210688	53	14768
2026-01-23 09:57:50.18	345.38	11.74	-40.9	-53.2	3.8	1.49e+00	0	62	104	1796210688	53	14803
2026-01-23 09:57:54.22	345.34	11.37	-40.8	-53.1	3.8	1.49e+00	0	62	104	1796210688	53	14682
2026-01-23 09:57:58.26	345.30	11.01	-40.7	-53.1	3.8	1.49e+00	0	62	104	1796210688	53	14552
2026-01-23 09:58:02.29	345.26	10.65	-40.7	-53.0	3.8	1.49e+00	0	62	104	1796210688	53	14499
2026-01-23 09:58:06.33	345.22	10.29	-40.6	-53.0	3.8	1.49e+00	0	62	104	1796210688	53	14438
2026-01-23 09:58:10.37	345.19	9.94	-40.7	-53.0	3.8	1.49e+00	0	62	104	1796210688	53	14428
2026-01-23 09:58:14.41	345.15	9.60	-40.6	-52.9	3.8	1.49e+00	0	62	104	1796210688	53	14357
2026-01-23 09:58:18.44	345.12	9.26	-40.6	-52.8	3.8	1.49e+00	0	62	104	1796210688	53	14191
2026-01-23 09:58:22.48	345.08	8.92	-40.5	-52.8	3.8	1.49e+00	0	62	104	1796210688	53	14185
2026-01-23 09:58:26.52	345.05	8.59	-40.5	-52.8	3.8	1.49e+00	0	62	104	1796210688	53	14136
2026-01-23 09:58:30.55	345.02	8.26	-40.5	-52.9	3.8	1.49e+00	0	62	104	1796210688	53	14227
2026-01-23 09:58:34.59	344.99	7.94	-40.8	-53.0	3.8	1.49e+00	0	62	104	1796210688	52	15395
2026-01-23 09:58:38.63	344.96	7.62	-45.1	-57.5	3.8	1.49e+00	0	62	104	1796210688	60	16185
2026-01-23 09:58:42.67	344.94	7.30	-45.2	-57.7	3.8	1.49e+00	0	62	104	1796210688	61	15655
2026-01-23 09:58:46.71	344.91	6.99	-45.1	-57.6	3.8	1.49e+00	0	62	104	1796210688	60	16335
2026-01-23 09:58:50.76	344.89	6.68	-45.0	-57.4	3.8	1.49e+00	0	62	104	1796210688	60	16017
2026-01-23 09:58:54.79	344.86	6.38	-45.0	-57.4	3.8	1.49e+00	0	62	104	1796210688	60	16048
2026-01-23 09:58:58.83	344.84	6.08	-45.0	-57.4	3.8	1.49e+00	0	62	104	1796210688	60	16103
2026-01-23 09:59:02.87	344.81	5.78	-45.0	-57.4	3.8	1.49e+00	0	62	104	1796210688	60	16069
2026-01-23 09:59:06.92	344.79	5.49	-45.0	-57.4	3.8	1.49e+00	0	62	104	1796210688	60	16047
2026-01-23 09:59:10.96	344.77	5.20	-45.0	-57.4	3.8	1.49e+00	0	62	104	1796210688	60	16050
2026-01-23 09:59:15.00	344.75	4.91	-44.8	-57.4	3.8	1.49e+00	0	62	104	1796210688	60	16018
2026-01-23 09:59:19.04	344.73	4.62	-45.0	-57.4	3.8	1.49e+00	0	62	104	1796210688	60	15966
2026-01-23 09:59:23.08	344.71	4.34	-45.0	-57.3	3.8	1.49e+00	0	62	104	1796210688	60	15924
2026-01-23 09:59:27.12	344.69	4.06	-45.0	-57.3	3.8	1.49e+00	0	62	104	1796210688	60	15942
2026-01-23 09:59:31.16	344.67	3.79	-45.0	-57.3	3.8	1.49e+00	0	62	104	1796210688	60	15942
2026-01-23 09:59:35.20	344.66	3.51	-44.2	-57.3	3.8	1.49e+00	0	62	104	1796210688	60	15849
2026-01-23 09:59:39.25	344.64	3.24	-45.0	-57.3	3.8	1.49e+00	0	62	104	1796210688	60	15929
2026-01-23 09:59:43.29	344.62	2.98	-44.4	-57.3	3.8	1.49e+00	0	62	104	1796210688	60	15831
2026-01-23 09:59:47.33	344.61	2.71	-45.0	-57.3	3.8	1.49e+00	0	62	104	1796210688	60	15868
2026-01-23 09:59:51.37	344.60	2.45	-44.9	-57.3	3.8	1.49e+00	0	62	104	1796210688	60	15888
2026-01-23 09:59:55.41	344.58	2.19	-44.9	-57.3	3.8	1.49e+00	0	62	104	1796210688	60	15891

#Closed at: 2026-01-23 09:59:59
#Recorded file [1796 MB]: D:/lorett/data/31039_260123_124534.dat