passes_logs/2026/01/23/R2.0S_Moscow/R2.0S_Moscow__20260123_224612_NOAA_20_JPSS-1_rec.log

#Pass ID: 20260123_224612_NOAA 20 (JPSS-1)
#Satellite: NOAA 20 (JPSS-1)
#Configuration: NOAA 20
#almurnet v.1.7.20251203
#Start time: 2026-01-23 22:46:12

#Version: 2.2.20231116
#Station: R2.0S_Moscow
#Location: 37.707566 lon 55.798166 lat
#TLE: 1 43013U 17073A   26022.94240312  .00000200  00000+0  11574-3 0  9998
#TLE: 2 43013  98.7645 323.7982 0001179  28.0279 332.0961 14.19539020423863

#Time	Az	El	Level	Level2	SNR	BER	BlckErr	Temp	State	Recorded	gain1	gain2
2026-01-23 22:46:12.55	20.93	2.03	-42.4	-56.9	3.8	1.49e+00	0	52	0	0	56	19045
2026-01-23 22:46:16.58	21.11	2.28	-42.4	-56.9	3.8	1.49e+00	0	53	104	0	56	19021
2026-01-23 22:46:20.63	21.30	2.52	-42.4	-56.9	3.8	1.49e+00	0	53	104	0	56	19041
2026-01-23 22:46:24.67	21.48	2.77	-42.4	-56.9	3.8	1.49e+00	0	53	104	0	56	18997
2026-01-23 22:46:28.71	21.67	3.02	-42.4	-56.9	3.8	1.49e+00	0	54	104	0	56	18999
2026-01-23 22:46:32.75	21.87	3.28	-42.4	-56.9	3.8	1.49e+00	0	54	104	0	56	18982
2026-01-23 22:46:36.80	22.06	3.53	-42.4	-56.9	3.8	1.49e+00	0	54	104	0	56	18970
2026-01-23 22:46:40.84	22.26	3.79	-42.4	-56.9	3.8	1.49e+00	0	54	104	0	56	19017
2026-01-23 22:46:44.88	22.46	4.05	-42.4	-56.9	3.8	1.49e+00	0	55	104	0	56	18964
2026-01-23 22:46:48.92	22.67	4.31	-42.3	-56.9	3.8	1.49e+00	0	55	104	0	56	18967
2026-01-23 22:46:52.96	22.87	4.57	-42.4	-56.9	3.8	1.49e+00	0	55	104	0	56	18974
2026-01-23 22:46:57.00	23.08	4.84	-42.4	-56.9	3.8	1.49e+00	0	55	104	0	56	18964
2026-01-23 22:47:01.04	23.30	5.11	-42.3	-56.8	3.8	1.49e+00	0	56	104	0	56	18911
2026-01-23 22:47:05.09	23.52	5.38	-42.3	-56.9	3.8	1.49e+00	0	56	104	0	56	19029
2026-01-23 22:47:09.13	23.74	5.65	-42.3	-56.8	3.8	1.49e+00	0	56	104	0	56	18908
2026-01-23 22:47:13.17	23.97	5.93	-42.3	-56.8	3.8	1.49e+00	0	56	104	0	56	18947
2026-01-23 22:47:17.21	24.20	6.21	-42.3	-56.8	3.8	1.49e+00	0	56	104	0	56	18894
2026-01-23 22:47:21.26	24.43	6.49	-42.3	-56.8	3.8	1.49e+00	0	56	104	0	56	18946
2026-01-23 22:47:25.30	24.67	6.77	-42.3	-56.9	3.8	1.49e+00	0	56	104	0	56	18967
2026-01-23 22:47:29.34	24.91	7.06	-42.4	-56.7	3.8	1.49e+00	0	57	104	0	56	18704
2026-01-23 22:47:33.38	25.16	7.35	-42.3	-56.0	3.8	1.49e+00	0	57	104	0	56	17218
2026-01-23 22:47:37.42	25.41	7.64	-42.1	-53.4	4.2	1.45e+00	0	57	0	0	56	12705
2026-01-23 22:47:41.47	25.67	7.94	-41.4	-48.8	6.6	2.42e-01	0	57	0	6291456	54	8454
2026-01-23 22:47:45.50	25.93	8.23	-41.6	-49.8	5.4	1.49e+00	0	57	104	12582912	54	9465
2026-01-23 22:47:49.54	26.20	8.54	-41.8	-48.1	8.1	5.91e-02	0	57	0	18874368	55	7349
2026-01-23 22:47:53.58	26.47	8.84	-41.8	-47.7	8.6	3.89e-02	0	57	0	27262976	55	7027
2026-01-23 22:47:57.62	26.75	9.15	-41.8	-47.6	8.8	3.08e-02	0	58	0	34603008	55	6888
2026-01-23 22:48:01.65	27.03	9.46	-41.9	-47.3	9.3	2.03e-02	0	58	0	41943040	55	6717
2026-01-23 22:48:05.69	27.32	9.77	-41.8	-47.1	9.7	1.51e-02	0	58	0	49283072	55	6506
2026-01-23 22:48:09.73	27.61	10.09	-41.8	-46.7	10.3	5.96e-03	0	58	0	56623104	55	6240
2026-01-23 22:48:13.77	27.91	10.41	-41.8	-46.6	10.5	4.18e-03	0	58	0	65011712	55	6193
2026-01-23 22:48:17.81	28.22	10.74	-41.8	-46.4	10.8	2.65e-03	0	58	0	72351744	55	6026
2026-01-23 22:48:21.84	28.53	11.07	-41.8	-46.4	10.8	2.43e-03	0	58	0	79691776	55	6039
2026-01-23 22:48:25.88	28.85	11.40	-41.7	-46.2	11.1	1.82e-03	0	58	0	87031808	55	5871
2026-01-23 22:48:29.92	29.18	11.74	-41.8	-46.2	11.1	1.72e-03	0	59	0	95420416	55	5914
2026-01-23 22:48:33.95	29.51	12.07	-41.7	-46.1	11.2	1.57e-03	0	59	0	102760448	55	5830
2026-01-23 22:48:37.99	29.85	12.42	-41.8	-46.2	11.2	1.52e-03	0	59	0	110100480	55	5890
2026-01-23 22:48:42.02	30.20	12.77	-41.6	-45.7	11.8	4.92e-04	0	59	0	117440512	55	5572
2026-01-23 22:48:46.06	30.56	13.12	-41.5	-45.6	11.9	3.96e-04	0	59	0	124780544	55	5479
2026-01-23 22:48:50.10	30.92	13.48	-41.5	-45.5	12.1	2.53e-04	0	59	0	133169152	55	5433
2026-01-23 22:48:54.14	31.30	13.84	-41.4	-45.3	12.3	1.50e-04	0	59	0	140509184	54	5622
2026-01-23 22:48:58.18	31.68	14.20	-41.4	-45.2	12.5	9.68e-05	0	59	0	147849216	54	5533
2026-01-23 22:49:02.22	32.07	14.57	-41.4	-45.2	12.6	9.61e-05	0	59	0	155189248	54	5533
2026-01-23 22:49:06.25	32.47	14.94	-41.5	-45.2	12.5	1.15e-04	0	59	0	163577856	54	5583
2026-01-23 22:49:10.29	32.89	15.32	-41.6	-45.4	12.3	1.67e-04	0	59	0	170917888	54	5701
2026-01-23 22:49:14.33	33.31	15.71	-41.6	-45.5	12.3	2.14e-04	0	59	0	178257920	54	5767
2026-01-23 22:49:18.36	33.74	16.09	-41.7	-45.6	12.2	2.42e-04	0	59	0	185597952	54	5838
2026-01-23 22:49:22.40	34.18	16.49	-41.7	-45.6	12.3	2.23e-04	0	59	0	192937984	54	5801
2026-01-23 22:49:26.43	34.63	16.88	-41.7	-45.6	12.2	1.98e-04	0	59	0	201326592	54	5823
2026-01-23 22:49:30.47	35.10	17.29	-41.8	-45.7	12.2	2.30e-04	0	59	0	208666624	54	5887
2026-01-23 22:49:34.51	35.58	17.69	-41.8	-45.7	12.1	2.18e-04	0	59	0	216006656	54	5920
2026-01-23 22:49:38.55	36.07	18.11	-42.0	-46.2	11.8	5.61e-04	0	60	0	223346688	54	6225
2026-01-23 22:49:42.59	36.57	18.52	-42.2	-46.5	11.3	9.76e-04	0	60	0	230686720	54	6480
2026-01-23 22:49:46.62	37.09	18.94	-42.2	-46.5	11.3	1.06e-03	0	60	0	239075328	54	6471
2026-01-23 22:49:50.66	37.62	19.37	-42.2	-46.6	11.3	1.15e-03	0	60	0	246415360	55	6172
2026-01-23 22:49:54.70	38.17	19.80	-42.2	-46.6	11.4	1.02e-03	0	60	0	253755392	55	6149
2026-01-23 22:49:58.74	38.73	20.24	-42.2	-46.4	11.6	6.96e-04	0	60	0	261095424	55	6035
2026-01-23 22:50:02.77	39.30	20.68	-42.2	-46.4	11.6	7.30e-04	0	60	0	269484032	55	6046
2026-01-23 22:50:06.81	39.90	21.13	-42.2	-46.6	11.4	8.32e-04	0	60	0	276824064	55	6138
2026-01-23 22:50:10.85	40.51	21.58	-42.3	-46.6	11.4	9.36e-04	0	60	0	284164096	55	6176
2026-01-23 22:50:14.89	41.14	22.04	-42.3	-46.6	11.4	9.40e-04	0	60	0	291504128	55	6162
2026-01-23 22:50:18.93	41.78	22.50	-42.3	-46.6	11.4	1.01e-03	0	60	0	298844160	55	6151
2026-01-23 22:50:22.97	42.45	22.97	-42.2	-46.3	11.7	5.98e-04	0	60	0	307232768	55	5960
2026-01-23 22:50:27.01	43.13	23.44	-42.2	-46.3	11.7	5.65e-04	0	60	0	314572800	55	5976
2026-01-23 22:50:31.05	43.84	23.92	-42.1	-46.2	11.8	4.65e-04	0	60	0	321912832	55	5919
2026-01-23 22:50:35.09	44.57	24.40	-42.0	-45.9	12.2	1.94e-04	0	60	0	329252864	55	5684
2026-01-23 22:50:39.13	45.32	24.89	-41.8	-45.4	12.8	5.64e-05	0	60	0	337641472	55	5346
2026-01-23 22:50:43.17	46.09	25.37	-41.7	-45.2	13.0	3.81e-05	0	60	0	344981504	55	5255
2026-01-23 22:50:47.21	46.89	25.87	-41.6	-45.0	13.2	2.67e-05	0	60	0	352321536	55	5155
2026-01-23 22:50:51.24	47.70	26.36	-41.7	-45.3	12.9	5.49e-05	0	60	0	359661568	55	5326
2026-01-23 22:50:55.28	48.55	26.86	-41.8	-45.5	12.7	8.69e-05	0	60	0	367001600	55	5437
2026-01-23 22:50:59.32	49.42	27.36	-41.9	-45.6	12.6	9.23e-05	0	60	0	375390208	55	5513
2026-01-23 22:51:03.36	50.32	27.86	-42.2	-46.3	11.9	3.72e-04	0	60	0	382730240	55	5924
2026-01-23 22:51:07.40	51.25	28.37	-42.1	-45.9	12.3	2.35e-04	0	60	0	390070272	55	5717
2026-01-23 22:51:11.44	52.21	28.88	-42.4	-46.7	11.5	5.78e-04	0	60	0	397410304	55	6228
2026-01-23 22:51:15.48	53.20	29.38	-42.9	-47.5	10.8	2.65e-03	0	60	0	405798912	56	6475
2026-01-23 22:51:19.51	54.21	29.89	-43.0	-47.9	10.5	3.87e-03	0	60	0	413138944	56	6742
2026-01-23 22:51:23.55	55.27	30.39	-43.0	-47.9	10.4	4.45e-03	0	61	0	420478976	56	6761
2026-01-23 22:51:27.59	56.35	30.90	-43.3	-48.5	9.8	7.22e-03	0	60	0	427819008	57	6875
2026-01-23 22:51:31.63	57.47	31.40	-43.9	-50.2	8.0	6.47e-02	0	61	0	435159040	58	7888
2026-01-23 22:51:35.66	58.62	31.89	-43.9	-50.5	7.9	7.72e-02	0	61	0	443547648	58	8107
2026-01-23 22:51:39.70	59.80	32.39	-43.8	-49.9	8.4	5.31e-02	0	61	0	450887680	58	7556
2026-01-23 22:51:43.74	61.03	32.87	-44.1	-51.0	7.3	1.03e-01	0	61	0	458227712	58	8638
2026-01-23 22:51:47.77	62.28	33.35	-44.0	-50.8	7.5	1.24e-01	0	61	0	465567744	58	8387
2026-01-23 22:51:51.81	63.58	33.83	-44.7	-53.4	5.8	1.39e-01	0	61	0	471859200	59	10738
2026-01-23 22:51:55.85	64.91	34.29	-43.9	-50.2	8.2	5.51e-02	0	61	0	477102080	59	7408
2026-01-23 22:51:59.89	66.28	34.74	-43.6	-49.3	9.0	2.90e-02	0	61	0	484442112	59	6721
2026-01-23 22:52:03.93	67.69	35.18	-43.3	-48.4	10.0	8.86e-03	0	61	0	492830720	58	6406
2026-01-23 22:52:07.96	69.14	35.61	-43.3	-48.3	10.1	6.91e-03	0	61	0	500170752	58	6338
2026-01-23 22:52:12.00	70.62	36.02	-42.8	-47.1	11.4	1.18e-03	0	61	0	507510784	57	5795
2026-01-23 22:52:16.04	72.14	36.42	-42.7	-46.9	11.6	4.58e-04	0	61	0	514850816	56	6018
2026-01-23 22:52:20.08	73.70	36.80	-42.6	-46.7	11.9	5.12e-04	0	61	0	523239424	56	5872
2026-01-23 22:52:24.11	75.29	37.15	-42.7	-46.9	11.7	4.77e-04	0	61	0	530579456	56	5996
2026-01-23 22:52:28.15	76.91	37.49	-42.9	-47.4	11.1	1.55e-03	0	61	0	537919488	56	6418
2026-01-23 22:52:32.19	78.57	37.81	-42.9	-47.4	11.1	1.66e-03	0	61	0	545259520	56	6407
2026-01-23 22:52:36.23	80.26	38.10	-42.8	-47.1	11.4	1.05e-03	0	61	0	552599552	56	6184
2026-01-23 22:52:40.27	81.98	38.36	-43.3	-48.4	10.0	6.14e-03	0	61	0	560988160	57	6784
2026-01-23 22:52:44.31	83.72	38.60	-43.0	-47.7	10.8	2.89e-03	0	61	0	568328192	57	6232
2026-01-23 22:52:48.34	85.49	38.81	-43.3	-48.2	10.2	4.63e-03	0	61	0	575668224	57	6646
2026-01-23 22:52:52.38	87.28	38.99	-43.1	-47.9	10.6	3.69e-03	0	61	0	583008256	57	6350
2026-01-23 22:52:56.42	89.09	39.14	-43.6	-49.1	9.4	1.68e-02	0	61	0	591396864	57	7332
2026-01-23 22:53:00.46	90.91	39.26	-43.7	-49.4	9.0	2.54e-02	0	61	0	598736896	58	7161
2026-01-23 22:53:04.49	92.74	39.34	-43.8	-49.9	8.5	4.19e-02	0	61	0	606076928	58	7618
2026-01-23 22:53:08.53	94.59	39.40	-43.8	-49.6	8.9	3.22e-02	0	61	0	613416960	58	7311
2026-01-23 22:53:12.57	96.44	39.42	-43.4	-48.4	10.1	8.39e-03	0	61	0	620756992	58	6420
2026-01-23 22:53:16.61	98.29	39.41	-43.2	-47.9	10.6	3.37e-03	0	61	0	629145600	58	6006
2026-01-23 22:53:20.64	100.13	39.36	-43.2	-48.0	10.5	3.43e-03	0	61	0	636485632	57	6440
2026-01-23 22:53:24.68	101.97	39.29	-43.3	-48.2	10.2	5.31e-03	0	61	0	643825664	57	6644
2026-01-23 22:53:28.72	103.80	39.18	-43.7	-49.4	9.1	2.23e-02	0	61	0	651165696	57	7553
2026-01-23 22:53:32.76	105.61	39.04	-43.8	-49.8	8.6	3.61e-02	0	61	0	659554304	58	7541
2026-01-23 22:53:36.79	107.41	38.87	-43.6	-49.0	9.4	1.47e-02	0	61	0	666894336	58	6864
2026-01-23 22:53:40.83	109.19	38.67	-43.1	-47.7	10.8	5.31e-03	0	61	0	674234368	58	5914
2026-01-23 22:53:44.87	110.94	38.44	-43.1	-47.8	10.7	6.11e-03	0	61	0	681574400	57	6297
2026-01-23 22:53:48.91	112.67	38.18	-42.8	-47.0	11.6	6.18e-04	0	61	0	688914432	56	6103
2026-01-23 22:53:52.95	114.38	37.90	-42.3	-46.2	12.4	2.62e-04	0	61	0	697303040	56	5550
2026-01-23 22:53:56.99	116.05	37.59	-42.0	-45.6	13.0	1.09e-04	0	61	0	704643072	56	5163
2026-01-23 22:54:01.03	117.69	37.26	-41.9	-45.4	13.0	1.06e-05	0	61	0	711983104	54	5697
2026-01-23 22:54:05.07	119.30	36.91	-41.3	-44.4	14.1	3.00e-06	0	61	0	719323136	54	5044
2026-01-23 22:54:09.11	120.87	36.53	-40.9	-43.7	14.7	0.00e+00	0	61	0	727711744	53	4981
2026-01-23 22:54:13.14	122.40	36.14	-41.7	-45.1	13.4	9.90e-06	0	61	0	735051776	53	5808
2026-01-23 22:54:17.19	123.90	35.73	-41.5	-44.6	13.8	7.00e-07	0	61	0	742391808	53	5516
2026-01-23 22:54:21.22	125.36	35.31	-42.0	-45.7	12.8	1.02e-04	0	61	0	749731840	55	5550
2026-01-23 22:54:25.26	126.79	34.87	-42.4	-46.4	12.0	3.13e-04	0	61	0	757071872	55	6041
2026-01-23 22:54:29.29	128.17	34.42	-42.0	-45.6	12.8	2.28e-05	0	61	0	765460480	55	5524
2026-01-23 22:54:33.33	129.52	33.95	-42.3	-46.3	12.2	3.86e-04	0	61	0	772800512	55	5944
2026-01-23 22:54:37.37	130.83	33.48	-43.2	-48.1	10.4	4.70e-03	0	61	0	780140544	56	6954
2026-01-23 22:54:41.41	132.11	33.00	-42.9	-47.4	11.2	8.57e-04	0	61	0	787480576	56	6381
2026-01-23 22:54:45.45	133.35	32.51	-42.7	-47.0	11.6	1.96e-03	0	61	0	794820608	57	5731
2026-01-23 22:54:49.48	134.55	32.02	-43.6	-49.1	9.3	7.18e-03	0	61	0	803209216	57	7347
2026-01-23 22:54:53.52	135.71	31.52	-42.9	-47.4	11.0	1.93e-03	0	61	0	810549248	57	6059
2026-01-23 22:54:57.56	136.84	31.02	-43.6	-49.4	9.0	3.06e-02	0	61	0	817889280	57	7569
2026-01-23 22:55:01.60	137.94	30.51	-42.4	-46.3	12.3	1.79e-04	0	61	0	825229312	56	5594
2026-01-23 22:55:05.63	139.00	30.00	-43.0	-47.7	10.7	6.06e-03	0	61	0	833617920	57	6223
2026-01-23 22:55:09.67	140.03	29.49	-42.7	-46.8	11.6	5.31e-04	0	61	0	840957952	56	5979
2026-01-23 22:55:13.71	141.03	28.98	-42.8	-47.2	11.2	2.49e-03	0	61	0	848297984	57	5872
2026-01-23 22:55:17.75	142.00	28.47	-41.7	-45.1	13.2	9.90e-06	0	61	0	855638016	55	5178
2026-01-23 22:55:21.79	142.94	27.97	-42.0	-45.8	12.5	2.44e-04	0	61	0	862978048	55	5634
2026-01-23 22:55:25.83	143.85	27.46	-41.2	-44.3	14.1	7.00e-07	0	61	0	871366656	54	4988
2026-01-23 22:55:29.86	144.74	26.95	-42.4	-46.6	11.6	7.76e-04	0	61	0	878706688	55	6178
2026-01-23 22:55:33.90	145.59	26.45	-41.4	-44.6	13.7	5.30e-06	0	61	0	886046720	54	5178
2026-01-23 22:55:37.94	146.42	25.95	-41.7	-45.1	13.2	1.29e-05	0	61	0	893386752	54	5477
2026-01-23 22:55:41.98	147.23	25.45	-41.1	-44.0	14.3	1.50e-06	0	61	0	901775360	54	4867
2026-01-23 22:55:46.01	148.01	24.96	-41.1	-44.2	14.1	1.50e-06	0	61	0	909115392	53	5226
2026-01-23 22:55:50.05	148.77	24.47	-41.3	-44.6	13.7	8.30e-06	0	61	0	916455424	53	5485
2026-01-23 22:55:54.09	149.50	23.99	-41.2	-44.3	14.0	7.00e-07	0	61	0	923795456	53	5298
2026-01-23 22:55:58.13	150.21	23.50	-41.5	-44.8	13.4	1.22e-05	0	61	0	931135488	53	5654
2026-01-23 22:56:02.16	150.90	23.03	-41.4	-44.7	13.5	7.60e-06	0	61	0	939524096	53	5570
2026-01-23 22:56:06.20	151.58	22.56	-41.6	-45.1	13.1	1.83e-05	0	61	0	946864128	53	5801
2026-01-23 22:56:10.24	152.23	22.09	-41.6	-45.0	13.2	2.51e-05	0	61	0	954204160	53	5768
2026-01-23 22:56:14.28	152.86	21.63	-41.5	-44.9	13.4	1.06e-05	0	61	0	961544192	53	5657
2026-01-23 22:56:18.31	153.48	21.17	-42.0	-45.9	12.2	1.73e-04	0	61	0	969932800	54	6023
2026-01-23 22:56:22.35	154.08	20.72	-42.0	-45.8	12.3	2.08e-04	0	61	0	977272832	54	5962
2026-01-23 22:56:26.39	154.66	20.27	-41.9	-45.7	12.5	1.50e-04	0	61	0	984612864	54	5892
2026-01-23 22:56:30.43	155.23	19.83	-42.0	-46.0	12.1	2.72e-04	0	61	0	991952896	54	6071
2026-01-23 22:56:34.47	155.78	19.39	-42.1	-46.1	12.0	3.29e-04	0	61	0	999292928	54	6184
2026-01-23 22:56:38.51	156.31	18.96	-41.9	-45.7	12.4	1.74e-04	0	61	0	1007681536	54	5881
2026-01-23 22:56:42.55	156.83	18.53	-41.7	-45.4	12.7	6.79e-05	0	61	0	1015021568	54	5676
2026-01-23 22:56:46.58	157.34	18.11	-41.9	-45.7	12.3	1.35e-04	0	61	0	1022361600	54	5886
2026-01-23 22:56:50.62	157.83	17.69	-42.0	-46.0	12.1	2.95e-04	0	61	0	1029701632	54	6065
2026-01-23 22:56:54.66	158.31	17.28	-41.9	-45.8	12.2	2.29e-04	0	61	0	1038090240	54	5980
2026-01-23 22:56:58.70	158.78	16.88	-41.9	-45.8	12.2	2.81e-04	0	61	0	1045430272	54	5975
2026-01-23 22:57:02.73	159.24	16.48	-42.2	-46.4	11.6	6.71e-04	0	61	0	1052770304	54	6376
2026-01-23 22:57:06.77	159.68	16.08	-42.4	-46.9	11.0	1.78e-03	0	61	0	1060110336	55	6365
2026-01-23 22:57:10.81	160.12	15.69	-42.2	-46.6	11.3	1.39e-03	0	61	0	1067450368	55	6183
2026-01-23 22:57:14.85	160.54	15.30	-42.1	-46.3	11.6	7.83e-04	0	61	0	1075838976	55	5924
2026-01-23 22:57:18.89	160.95	14.92	-42.0	-46.1	11.8	5.30e-04	0	61	0	1083179008	55	5817
2026-01-23 22:57:22.93	161.35	14.54	-42.0	-46.1	11.7	5.63e-04	0	61	0	1090519040	55	5843
2026-01-23 22:57:26.96	161.75	14.17	-42.0	-46.2	11.6	7.77e-04	0	61	0	1097859072	55	5908
2026-01-23 22:57:31.00	162.13	13.80	-42.1	-46.4	11.3	9.88e-04	0	61	0	1106247680	55	6035
2026-01-23 22:57:35.04	162.50	13.43	-42.2	-46.6	11.1	1.60e-03	0	61	0	1113587712	55	6184
2026-01-23 22:57:39.08	162.87	13.07	-42.2	-46.8	10.8	2.43e-03	0	61	0	1120927744	55	6339
2026-01-23 22:57:43.11	163.23	12.72	-42.3	-46.9	10.7	3.03e-03	0	61	0	1128267776	55	6397
2026-01-23 22:57:47.15	163.58	12.37	-42.3	-47.1	10.5	3.84e-03	0	61	0	1135607808	55	6526
2026-01-23 22:57:51.19	163.92	12.02	-42.4	-47.4	10.2	5.58e-03	0	61	0	1143996416	55	6765
2026-01-23 22:57:55.23	164.25	11.67	-42.4	-47.5	10.0	7.14e-03	0	61	0	1151336448	55	6833
2026-01-23 22:57:59.26	164.58	11.34	-42.4	-47.4	10.0	7.82e-03	0	61	0	1158676480	55	6776
2026-01-23 22:58:03.30	164.90	11.00	-42.3	-47.3	10.1	7.07e-03	0	61	0	1166016512	55	6693
2026-01-23 22:58:07.34	165.21	10.67	-42.2	-47.0	10.3	5.33e-03	0	61	0	1173356544	55	6491
2026-01-23 22:58:11.37	165.51	10.34	-42.1	-46.9	10.5	4.22e-03	0	61	0	1181745152	55	6351
2026-01-23 22:58:15.41	165.81	10.02	-42.0	-46.8	10.4	4.11e-03	0	61	0	1189085184	55	6325
2026-01-23 22:58:19.45	166.11	9.69	-42.2	-47.2	10.0	7.41e-03	0	61	0	1196425216	55	6618
2026-01-23 22:58:23.49	166.39	9.38	-42.3	-47.6	9.5	1.21e-02	0	61	0	1203765248	55	6908
2026-01-23 22:58:27.53	166.67	9.06	-42.4	-48.0	9.1	2.38e-02	0	61	0	1212153856	55	7244
2026-01-23 22:58:31.57	166.95	8.75	-42.5	-48.5	8.5	3.94e-02	0	61	0	1219493888	55	7660
2026-01-23 22:58:35.61	167.22	8.44	-42.4	-48.5	8.4	4.71e-02	0	62	0	1226833920	55	7690
2026-01-23 22:58:39.64	167.48	8.14	-42.4	-48.5	8.2	5.39e-02	0	61	0	1234173952	55	7691
2026-01-23 22:58:43.68	167.74	7.84	-44.8	-59.5	3.8	1.49e+00	0	61	104	1238368256	60	20327
2026-01-23 22:58:47.72	168.00	7.54	-45.1	-59.8	3.8	1.49e+00	0	61	104	1238368256	60	21089
2026-01-23 22:58:51.76	168.25	7.25	-45.2	-59.8	3.8	1.49e+00	0	61	104	1238368256	61	19997
2026-01-23 22:58:55.81	168.49	6.95	-45.2	-59.7	3.8	1.49e+00	0	61	104	1238368256	61	19818
2026-01-23 22:58:59.85	168.73	6.67	-45.1	-59.7	3.8	1.49e+00	0	61	104	1238368256	61	19743
2026-01-23 22:59:03.90	168.97	6.38	-45.1	-59.7	3.8	1.49e+00	0	62	104	1238368256	61	19736
2026-01-23 22:59:07.94	169.20	6.09	-45.1	-59.6	3.8	1.49e+00	0	62	104	1238368256	61	19606
2026-01-23 22:59:11.98	169.43	5.81	-45.1	-59.6	3.8	1.49e+00	0	62	104	1238368256	61	19598
2026-01-23 22:59:16.02	169.65	5.54	-45.0	-59.7	3.8	1.49e+00	0	61	104	1238368256	61	19625
2026-01-23 22:59:20.07	169.87	5.26	-45.0	-59.6	3.8	1.49e+00	0	62	104	1238368256	61	19514
2026-01-23 22:59:24.11	170.09	4.99	-45.0	-59.6	3.8	1.49e+00	0	62	104	1238368256	61	19466
2026-01-23 22:59:28.15	170.30	4.71	-45.0	-59.6	3.8	1.49e+00	0	62	104	1238368256	61	19458
2026-01-23 22:59:32.19	170.51	4.45	-45.0	-59.6	3.8	1.49e+00	0	62	104	1238368256	61	19392
2026-01-23 22:59:36.24	170.71	4.18	-45.0	-59.6	3.8	1.49e+00	0	61	104	1238368256	61	19422
2026-01-23 22:59:40.28	170.91	3.92	-45.0	-59.6	3.8	1.49e+00	0	62	104	1238368256	61	19402
2026-01-23 22:59:44.31	171.11	3.66	-45.0	-59.5	3.8	1.49e+00	0	62	104	1238368256	61	19381
2026-01-23 22:59:48.36	171.30	3.40	-45.0	-59.6	3.8	1.49e+00	0	62	104	1238368256	61	19423
2026-01-23 22:59:52.40	171.49	3.14	-45.0	-59.6	3.8	1.49e+00	0	62	104	1238368256	61	19439
2026-01-23 22:59:56.44	171.68	2.88	-45.0	-59.6	3.8	1.49e+00	0	62	104	1238368256	61	19402
2026-01-23 23:00:00.48	171.87	2.63	-45.0	-59.6	3.8	1.49e+00	0	62	104	1238368256	61	19390
2026-01-23 23:00:04.53	172.05	2.38	-45.0	-59.6	3.8	1.49e+00	0	62	104	1238368256	61	19476
2026-01-23 23:00:08.57	172.23	2.13	-45.0	-59.5	3.8	1.49e+00	0	62	104	1238368256	61	19373

#Closed at: 2026-01-23 23:00:12
#Recorded file [1238 MB]: D:/lorett/data/31039_260124_014612.dat