passes_logs/2026/01/23/R2.0S_Moscow/R2.0S_Moscow__20260123_111314_FENGYUN_3D_rec.log

#Pass ID: 20260123_111314_FENGYUN 3D
#Satellite: FENGYUN 3D
#Configuration: FENGYUN 3D
#almurnet v.1.7.20251203
#Start time: 2026-01-23 11:13:14

#Version: 2.2.20231116
#Station: R2.0S_Moscow
#Location: 37.707566 lon 55.798166 lat
#TLE: 1 43010U 17072A   26022.47411728  .00000617  00000+0  31375-3 0  9996
#TLE: 2 43010  98.9952 354.4060 0002481  95.7964 264.3494 14.19699924424319

#Time	Az	El	Level	Level2	SNR	BER	BlckErr	Temp	State	Recorded	gain1	gain2
2026-01-23 11:13:14.97	138.32	2.02	-31.4	-45.4	4.3	8.36e-01	0	53	0	0	28	25410
2026-01-23 11:13:19.02	138.20	2.28	-27.4	-42.9	4.0	8.32e-01	0	53	104	0	26	21345
2026-01-23 11:13:23.06	138.07	2.53	-22.9	-37.0	3.7	8.30e-01	0	54	104	0	16	19273
2026-01-23 11:13:27.10	137.94	2.79	-30.1	-43.6	3.7	8.35e-01	0	54	104	0	30	18458
2026-01-23 11:13:31.14	137.81	3.05	-32.8	-46.6	3.7	8.30e-01	0	54	104	0	20	46008
2026-01-23 11:13:35.18	137.68	3.32	-29.1	-42.6	3.9	8.29e-01	0	54	104	0	26	20632
2026-01-23 11:13:39.22	137.54	3.58	-25.3	-38.0	4.6	8.35e-01	0	55	104	0	36	6827
2026-01-23 11:13:43.26	137.40	3.85	-33.4	-48.7	4.1	8.38e-01	0	55	104	0	36	23332
2026-01-23 11:13:47.30	137.26	4.12	-27.9	-41.9	3.9	8.31e-01	0	55	104	0	26	19048
2026-01-23 11:13:51.34	137.12	4.40	-23.7	-36.9	4.3	8.28e-01	0	55	104	0	28	9578
2026-01-23 11:13:55.38	136.97	4.67	-27.3	-45.9	3.7	8.34e-01	0	56	104	0	27	28428
2026-01-23 11:13:59.42	136.82	4.95	-29.9	-41.7	3.8	8.36e-01	0	56	104	0	27	17548
2026-01-23 11:14:03.46	136.66	5.23	-30.6	-48.4	4.3	8.29e-01	0	56	104	0	28	35703
2026-01-23 11:14:07.50	136.51	5.52	-30.1	-46.8	4.2	8.31e-01	0	56	104	0	33	22364
2026-01-23 11:14:11.54	136.35	5.81	-26.0	-38.5	3.9	8.30e-01	0	57	104	0	20	18155
2026-01-23 11:14:15.59	136.18	6.10	-32.6	-44.8	4.2	8.34e-01	0	57	104	0	28	23785
2026-01-23 11:14:19.63	136.02	6.39	-27.6	-47.1	4.5	8.26e-01	0	57	104	0	30	27533
2026-01-23 11:14:23.67	135.85	6.69	-32.0	-48.6	4.2	8.32e-01	0	57	104	0	34	25950
2026-01-23 11:14:27.72	135.67	6.99	-30.9	-46.6	4.0	8.32e-01	0	57	104	0	36	18309
2026-01-23 11:14:31.75	135.49	7.29	-37.5	-50.0	4.1	8.24e-01	0	58	104	0	38	24361
2026-01-23 11:14:35.78	135.31	7.60	-26.3	-42.1	3.8	8.37e-01	0	58	104	0	31	14664
2026-01-23 11:14:39.83	135.12	7.91	-25.1	-41.4	4.3	8.36e-01	0	58	104	0	31	13548
2026-01-23 11:14:43.86	134.93	8.22	-25.5	-37.3	3.6	8.23e-01	0	58	104	0	17	18829
2026-01-23 11:14:47.91	134.74	8.54	-26.1	-40.9	3.7	8.17e-01	0	58	104	0	22	21292
2026-01-23 11:14:51.94	134.54	8.86	-33.8	-49.0	4.2	8.22e-01	0	58	104	0	31	32254
2026-01-23 11:14:55.98	134.34	9.19	-16.6	-27.7	3.9	8.26e-01	0	59	104	0	3	13984
2026-01-23 11:15:00.02	134.13	9.52	-19.9	-31.2	3.7	8.12e-01	0	58	104	0	10	13934
2026-01-23 11:15:04.06	133.91	9.85	-14.1	-24.5	4.1	8.38e-01	0	59	104	0	0	11437
2026-01-23 11:15:08.10	133.69	10.19	-28.6	-38.1	4.1	8.03e-01	0	59	104	0	18	19469
2026-01-23 11:15:12.14	133.47	10.53	-13.6	-26.3	3.9	8.08e-01	0	59	104	0	9	8409
2026-01-23 11:15:16.18	133.24	10.87	-23.9	-38.6	3.7	8.24e-01	0	59	104	0	20	18338
2026-01-23 11:15:20.22	133.00	11.22	-14.3	-27.5	4.1	8.33e-01	0	59	104	0	11	8595
2026-01-23 11:15:24.26	132.76	11.58	-29.1	-43.2	4.3	8.37e-01	0	59	104	0	27	20831
2026-01-23 11:15:28.29	132.51	11.94	-21.3	-33.4	3.9	8.35e-01	0	59	104	0	10	17900
2026-01-23 11:15:32.33	132.26	12.30	-19.6	-30.9	3.7	8.31e-01	0	59	104	0	11	12764
2026-01-23 11:15:36.37	132.00	12.67	-21.3	-32.5	4.1	8.32e-01	0	60	104	0	15	12144
2026-01-23 11:15:40.40	131.73	13.04	-29.9	-44.7	4.1	8.36e-01	0	60	104	0	34	16658
2026-01-23 11:15:44.44	131.46	13.42	-28.0	-38.2	4.1	8.33e-01	0	60	104	0	15	23389
2026-01-23 11:15:48.48	131.17	13.81	-21.0	-34.5	4.7	8.25e-01	0	60	104	0	22	10236
2026-01-23 11:15:52.52	130.88	14.20	-21.3	-40.6	3.9	8.13e-01	0	60	104	0	21	21902
2026-01-23 11:15:56.55	130.59	14.59	-40.4	-47.7	4.8	8.27e-01	0	60	104	0	54	7430
2026-01-23 11:16:00.59	130.28	14.99	-36.6	-43.3	8.0	7.54e-01	0	60	104	3145728	40	9969
2026-01-23 11:16:04.63	129.96	15.40	-23.3	-35.5	4.0	8.39e-01	0	60	104	3145728	17	15392
2026-01-23 11:16:08.67	129.64	15.81	-39.0	-43.4	11.1	2.75e-01	0	60	0	4194304	50	5693
2026-01-23 11:16:12.70	129.31	16.23	-36.1	-43.5	10.0	3.46e-02	0	60	0	16777216	42	9121
2026-01-23 11:16:16.74	128.96	16.66	-39.6	-42.3	12.5	2.09e-03	0	60	0	39845888	50	5008
2026-01-23 11:16:20.78	128.61	17.09	-37.8	-39.7	15.1	2.17e-05	0	60	0	61865984	47	4412
2026-01-23 11:16:24.82	128.24	17.53	-37.4	-39.3	15.2	5.95e-05	0	60	0	84934656	45	4707
2026-01-23 11:16:28.86	127.87	17.97	-37.4	-39.3	15.6	1.14e-05	0	60	0	108003328	45	4729
2026-01-23 11:16:32.90	127.48	18.42	-37.2	-39.1	15.8	0.00e+00	0	60	0	130023424	45	4633
2026-01-23 11:16:36.94	127.08	18.88	-37.4	-39.2	15.7	5.70e-06	0	61	0	153092096	45	4699
2026-01-23 11:16:40.98	126.67	19.35	-37.1	-38.9	16.1	1.37e-05	0	61	0	176160768	45	4514
2026-01-23 11:16:45.02	126.25	19.82	-37.0	-38.7	16.2	0.00e+00	0	61	0	198180864	45	4424
2026-01-23 11:16:49.05	125.81	20.30	-36.9	-38.6	16.4	0.00e+00	0	61	0	221249536	45	4348
2026-01-23 11:16:53.09	125.36	20.79	-36.9	-38.5	16.5	0.00e+00	0	61	0	244318208	45	4337
2026-01-23 11:16:57.13	124.89	21.29	-36.9	-38.6	16.5	0.00e+00	0	61	0	266338304	45	4359
2026-01-23 11:17:01.17	124.40	21.79	-36.8	-38.5	16.5	0.00e+00	0	61	0	289406976	45	4321
2026-01-23 11:17:05.20	123.90	22.30	-36.8	-38.5	16.6	0.00e+00	0	61	0	312475648	45	4295
2026-01-23 11:17:09.24	123.39	22.82	-36.8	-38.5	16.6	0.00e+00	0	61	0	334495744	45	4292
2026-01-23 11:17:13.28	122.85	23.35	-36.7	-38.4	16.7	0.00e+00	0	61	0	357564416	45	4263
2026-01-23 11:17:17.32	122.30	23.89	-36.5	-38.1	17.0	0.00e+00	0	61	0	380633088	44	4361
2026-01-23 11:17:21.35	121.73	24.43	-36.4	-37.9	17.2	0.00e+00	0	61	0	402653184	44	4291
2026-01-23 11:17:25.39	121.13	24.98	-36.5	-38.1	17.0	0.00e+00	0	61	0	425721856	44	4361
2026-01-23 11:17:29.43	120.52	25.54	-36.4	-38.0	17.2	0.00e+00	0	61	0	448790528	44	4296
2026-01-23 11:17:33.47	119.88	26.11	-36.3	-38.0	17.2	0.00e+00	0	61	0	470810624	44	4299
2026-01-23 11:17:37.51	119.21	26.69	-36.3	-37.9	17.2	0.00e+00	0	61	0	493879296	44	4274
2026-01-23 11:17:41.55	118.53	27.27	-36.3	-37.9	17.2	0.00e+00	0	61	0	516947968	44	4251
2026-01-23 11:17:45.59	117.81	27.87	-36.0	-37.6	17.5	0.00e+00	0	61	0	538968064	44	4106
2026-01-23 11:17:49.63	117.07	28.47	-36.1	-37.6	17.6	0.00e+00	0	61	0	562036736	44	4119
2026-01-23 11:17:53.67	116.30	29.08	-35.6	-37.1	17.8	0.00e+00	0	61	0	585105408	43	4133
2026-01-23 11:17:57.71	115.50	29.69	-35.8	-37.3	17.7	0.00e+00	0	61	0	607125504	43	4242
2026-01-23 11:18:01.75	114.67	30.31	-35.8	-37.3	17.7	0.00e+00	0	61	0	630194176	43	4229
2026-01-23 11:18:05.78	113.81	30.94	-35.8	-37.3	17.8	0.00e+00	0	61	0	653262848	43	4203
2026-01-23 11:18:09.82	112.91	31.58	-36.1	-37.6	17.4	0.00e+00	0	61	0	675282944	43	4385
2026-01-23 11:18:13.85	111.98	32.21	-35.7	-37.3	17.7	0.00e+00	0	61	0	698351616	43	4207
2026-01-23 11:18:17.89	111.00	32.86	-35.6	-37.1	17.9	0.00e+00	0	62	0	721420288	43	4139
2026-01-23 11:18:21.93	109.99	33.51	-35.8	-37.4	17.7	0.00e+00	0	62	0	743440384	43	4254
2026-01-23 11:18:25.97	108.93	34.16	-35.5	-37.0	18.0	0.00e+00	0	62	0	766509056	43	4066
2026-01-23 11:18:30.01	107.83	34.82	-35.5	-37.0	18.0	0.00e+00	0	61	0	788529152	43	4073
2026-01-23 11:18:34.04	106.69	35.47	-35.7	-37.2	17.9	0.00e+00	0	62	0	811597824	43	4158
2026-01-23 11:18:38.08	105.50	36.13	-35.5	-37.0	18.0	0.00e+00	0	61	0	834666496	43	4083
2026-01-23 11:18:42.12	104.26	36.78	-35.6	-37.1	18.0	0.00e+00	0	61	0	857735168	43	4103
2026-01-23 11:18:46.16	102.97	37.43	-35.7	-37.2	17.9	0.00e+00	0	61	0	879755264	43	4161
2026-01-23 11:18:50.20	101.63	38.08	-35.8	-37.3	17.8	0.00e+00	0	61	0	902823936	43	4211
2026-01-23 11:18:54.24	100.23	38.72	-35.8	-37.3	17.9	0.00e+00	0	61	0	925892608	43	4201
2026-01-23 11:18:58.29	98.77	39.35	-35.8	-37.3	17.8	0.00e+00	0	61	0	947912704	43	4229
2026-01-23 11:19:02.33	97.26	39.97	-35.9	-37.4	17.8	0.00e+00	0	62	0	970981376	43	4253
2026-01-23 11:19:06.37	95.69	40.58	-35.8	-37.2	17.9	0.00e+00	0	62	0	994050048	43	4191
2026-01-23 11:19:10.40	94.06	41.17	-35.5	-36.9	18.3	0.00e+00	0	62	0	1016070144	42	4274
2026-01-23 11:19:14.44	92.38	41.74	-35.6	-37.0	18.1	0.00e+00	0	62	0	1039138816	42	4338
2026-01-23 11:19:18.48	90.63	42.30	-35.6	-37.1	18.2	0.00e+00	0	62	0	1062207488	42	4347
2026-01-23 11:19:22.52	88.82	42.83	-35.6	-37.0	18.2	0.00e+00	0	62	0	1084227584	42	4316
2026-01-23 11:19:26.56	86.95	43.34	-35.5	-36.9	18.3	0.00e+00	0	62	0	1107296256	42	4261
2026-01-23 11:19:30.59	85.02	43.81	-35.7	-37.2	18.1	0.00e+00	0	62	0	1130364928	42	4408
2026-01-23 11:19:34.63	83.04	44.25	-35.7	-37.1	18.2	0.00e+00	0	62	0	1152385024	42	4353
2026-01-23 11:19:38.67	81.00	44.66	-35.7	-37.1	18.1	0.00e+00	0	62	0	1175453696	42	4390
2026-01-23 11:19:42.71	78.91	45.04	-36.4	-37.9	17.6	0.00e+00	0	62	0	1198522368	44	4262
2026-01-23 11:19:46.75	76.78	45.37	-36.1	-37.6	17.8	0.00e+00	0	62	0	1220542464	44	4136
2026-01-23 11:19:50.78	74.61	45.66	-36.1	-37.6	17.8	0.00e+00	0	62	0	1243611136	44	4122
2026-01-23 11:19:54.82	72.39	45.90	-35.8	-37.3	17.9	0.00e+00	0	62	0	1266679808	43	4232
2026-01-23 11:19:58.86	70.15	46.10	-35.9	-37.3	17.9	0.00e+00	0	62	0	1288699904	43	4223
2026-01-23 11:20:02.90	67.88	46.25	-35.8	-37.2	18.0	0.00e+00	0	62	0	1311768576	43	4182
2026-01-23 11:20:06.94	65.59	46.35	-35.9	-37.4	17.9	0.00e+00	0	62	0	1334837248	43	4267
2026-01-23 11:20:10.98	63.29	46.39	-35.8	-37.3	18.0	0.00e+00	0	62	0	1356857344	43	4197
2026-01-23 11:20:15.02	60.99	46.39	-35.8	-37.3	18.0	0.00e+00	0	62	0	1379926016	43	4204
2026-01-23 11:20:19.06	58.69	46.34	-35.9	-37.4	17.8	0.00e+00	0	62	0	1402994688	43	4279
2026-01-23 11:20:23.10	56.40	46.24	-36.1	-37.6	17.7	0.00e+00	0	62	0	1425014784	43	4355
2026-01-23 11:20:27.15	54.13	46.08	-36.3	-37.8	17.6	0.00e+00	0	62	0	1448083456	43	4454
2026-01-23 11:20:31.18	51.90	45.88	-36.3	-37.8	17.4	0.00e+00	0	62	0	1471152128	43	4485
2026-01-23 11:20:35.22	49.69	45.64	-35.9	-37.4	17.9	0.00e+00	0	62	0	1493172224	43	4255
2026-01-23 11:20:39.26	47.51	45.35	-35.7	-37.1	18.2	0.00e+00	0	62	0	1516240896	43	4126
2026-01-23 11:20:43.30	45.39	45.01	-35.7	-37.2	18.1	0.00e+00	0	62	0	1539309568	43	4162
2026-01-23 11:20:47.34	43.30	44.64	-35.8	-37.2	18.0	0.00e+00	0	62	0	1561329664	43	4192
2026-01-23 11:20:51.38	41.27	44.23	-35.6	-37.0	18.2	0.00e+00	0	62	0	1584398336	43	4096
2026-01-23 11:20:55.42	39.30	43.78	-35.6	-37.1	18.2	0.00e+00	0	62	0	1607467008	42	4348
2026-01-23 11:20:59.45	37.38	43.31	-35.5	-37.0	18.3	0.00e+00	0	62	0	1629487104	42	4295
2026-01-23 11:21:03.49	35.52	42.80	-35.5	-37.0	18.2	0.00e+00	0	62	0	1652555776	42	4298
2026-01-23 11:21:07.53	33.72	42.27	-35.4	-36.8	18.4	0.00e+00	0	62	0	1675624448	42	4205
2026-01-23 11:21:11.57	31.98	41.71	-35.4	-36.8	18.3	0.00e+00	0	62	0	1697644544	42	4242
2026-01-23 11:21:15.61	30.30	41.14	-35.6	-37.0	18.2	0.00e+00	0	62	0	1720713216	42	4315
2026-01-23 11:21:19.65	28.68	40.55	-35.4	-36.8	18.3	0.00e+00	0	62	0	1743781888	42	4214
2026-01-23 11:21:23.70	27.11	39.94	-35.9	-37.2	18.2	0.00e+00	0	62	0	1765801984	42	4433
2026-01-23 11:21:27.73	25.61	39.32	-35.7	-37.0	18.4	0.00e+00	0	62	0	1788870656	42	4316
2026-01-23 11:21:31.77	24.17	38.69	-35.7	-37.0	18.4	0.00e+00	0	62	0	1811939328	42	4300
2026-01-23 11:21:35.81	22.78	38.05	-35.6	-36.9	18.5	0.00e+00	0	62	0	1833959424	42	4249
2026-01-23 11:21:39.85	21.44	37.41	-35.5	-36.8	18.6	0.00e+00	0	62	0	1857028096	42	4232
2026-01-23 11:21:43.89	20.16	36.76	-35.5	-36.8	18.6	0.00e+00	0	62	0	1880096768	42	4201
2026-01-23 11:21:47.93	18.92	36.11	-35.3	-36.6	18.8	0.00e+00	0	62	0	1902116864	42	4124
2026-01-23 11:21:51.97	17.74	35.46	-35.6	-36.9	18.5	0.00e+00	0	62	0	1925185536	42	4251
2026-01-23 11:21:56.01	16.60	34.80	-35.5	-36.8	18.5	0.00e+00	0	62	0	1948254208	42	4223
2026-01-23 11:22:00.05	15.51	34.15	-35.5	-36.8	18.5	0.00e+00	0	62	0	1970274304	42	4222
2026-01-23 11:22:04.09	14.46	33.50	-35.5	-36.8	18.5	0.00e+00	0	62	0	1993342976	42	4236
2026-01-23 11:22:08.13	13.46	32.86	-35.6	-36.9	18.4	0.00e+00	0	62	0	2016411648	42	4247
2026-01-23 11:22:12.16	12.49	32.22	-35.7	-37.0	18.3	0.00e+00	0	62	0	2038431744	42	4313
2026-01-23 11:22:16.20	11.56	31.58	-35.5	-36.8	18.5	0.00e+00	0	62	0	2061500416	42	4206
2026-01-23 11:22:20.23	10.67	30.95	-35.7	-37.0	18.3	0.00e+00	0	62	0	2084569088	42	4309
2026-01-23 11:22:24.27	9.81	30.32	-35.9	-37.3	18.0	0.00e+00	0	62	0	2106589184	42	4470
2026-01-23 11:22:28.31	8.99	29.70	-36.1	-37.5	17.7	0.00e+00	0	62	0	2129657856	42	4580
2026-01-23 11:22:32.35	8.19	29.09	-36.0	-37.4	17.8	0.00e+00	0	62	0	2152726528	42	4538
2026-01-23 11:22:36.39	7.43	28.49	-36.1	-37.5	17.7	0.00e+00	0	62	0	2174746624	42	4551
2026-01-23 11:22:40.42	6.69	27.89	-36.1	-37.5	17.7	0.00e+00	0	62	0	2197815296	42	4576
2026-01-23 11:22:44.46	5.99	27.30	-36.3	-37.7	17.4	0.00e+00	0	62	0	2220883968	43	4434
2026-01-23 11:22:48.50	5.30	26.72	-36.3	-37.7	17.4	0.00e+00	0	62	0	2242904064	43	4434
2026-01-23 11:22:52.54	4.65	26.14	-36.1	-37.5	17.7	0.00e+00	0	62	0	2265972736	43	4297
2026-01-23 11:22:56.58	4.01	25.58	-36.0	-37.5	17.7	0.00e+00	0	62	0	2289041408	43	4296
2026-01-23 11:23:00.62	3.40	25.02	-36.0	-37.4	17.7	0.00e+00	0	62	0	2311061504	43	4249
2026-01-23 11:23:04.66	2.81	24.47	-36.2	-37.7	17.4	0.00e+00	0	62	0	2334130176	43	4403
2026-01-23 11:23:08.70	2.24	23.93	-36.2	-37.7	17.4	0.00e+00	0	62	0	2357198848	43	4414
2026-01-23 11:23:12.74	1.69	23.40	-36.2	-37.7	17.3	0.00e+00	0	62	0	2379218944	43	4411
2026-01-23 11:23:16.78	1.16	22.87	-36.4	-37.9	17.1	0.00e+00	0	62	0	2402287616	43	4530
2026-01-23 11:23:20.81	0.65	22.35	-36.5	-38.0	16.9	0.00e+00	0	62	0	2425356288	43	4585
2026-01-23 11:23:24.85	0.16	21.84	-36.4	-37.9	16.9	0.00e+00	0	62	0	2447376384	43	4529
2026-01-23 11:23:28.89	359.68	21.34	-36.4	-37.9	16.9	0.00e+00	0	62	0	2470445056	43	4505
2026-01-23 11:23:32.93	359.21	20.85	-36.4	-37.9	16.8	0.00e+00	0	62	0	2493513728	43	4511
2026-01-23 11:23:36.96	358.76	20.36	-36.5	-38.0	16.6	0.00e+00	0	62	0	2515533824	43	4586
2026-01-23 11:23:41.00	358.33	19.88	-36.8	-38.5	16.2	0.00e+00	0	62	0	2538602496	44	4555
2026-01-23 11:23:45.04	357.91	19.41	-37.4	-39.2	15.2	0.00e+00	0	62	0	2561671168	45	4687
2026-01-23 11:23:49.08	357.50	18.95	-37.0	-38.8	15.3	0.00e+00	0	62	0	2583691264	45	4481
2026-01-23 11:23:53.12	357.11	18.49	-37.0	-38.8	15.0	1.10e-06	0	62	0	2606759936	45	4465
2026-01-23 11:23:57.17	356.72	18.04	-37.0	-38.9	14.5	0.00e+00	0	62	0	2629828608	45	4531
2026-01-23 11:24:01.20	356.35	17.60	-38.1	-40.7	12.3	1.45e-04	0	62	0	2651848704	46	5227
2026-01-23 11:24:05.24	355.99	17.16	-39.9	-44.1	8.3	4.41e-02	0	62	0	2674917376	50	6132
2026-01-23 11:24:09.28	355.64	16.73	-40.6	-47.4	5.1	7.41e-01	0	62	0	2693791744	52	8009
2026-01-23 11:24:13.33	355.30	16.31	-41.7	-52.3	3.8	8.46e-01	0	62	104	2693791744	54	12650
2026-01-23 11:24:17.36	354.97	15.89	-41.5	-51.2	3.9	8.44e-01	0	62	104	2693791744	53	11716
2026-01-23 11:24:21.40	354.65	15.48	-40.7	-52.2	3.8	8.46e-01	0	62	104	2693791744	53	13161
2026-01-23 11:24:25.44	354.34	15.07	-40.9	-52.5	3.8	8.47e-01	0	62	104	2693791744	53	13603
2026-01-23 11:24:29.48	354.04	14.67	-40.7	-52.3	3.8	8.46e-01	0	62	104	2693791744	53	13275
2026-01-23 11:24:33.52	353.74	14.28	-40.6	-52.2	3.8	8.46e-01	0	62	104	2693791744	53	13185
2026-01-23 11:24:37.56	353.46	13.89	-40.6	-52.2	3.8	8.47e-01	0	62	104	2693791744	53	13183
2026-01-23 11:24:41.60	353.18	13.51	-40.7	-52.3	3.8	8.45e-01	0	62	104	2693791744	53	13278
2026-01-23 11:24:45.64	352.91	13.13	-40.8	-52.4	3.8	8.46e-01	0	62	104	2693791744	53	13511
2026-01-23 11:24:49.68	352.64	12.76	-40.9	-52.4	3.8	8.47e-01	0	62	104	2693791744	53	13506
2026-01-23 11:24:53.72	352.39	12.39	-40.8	-52.3	3.8	8.46e-01	0	62	104	2693791744	53	13359
2026-01-23 11:24:57.75	352.14	12.03	-40.7	-52.2	3.8	8.45e-01	0	62	104	2693791744	53	13210
2026-01-23 11:25:01.79	351.89	11.67	-40.6	-52.2	3.8	8.46e-01	0	62	104	2693791744	53	13166
2026-01-23 11:25:05.82	351.66	11.32	-40.7	-52.3	3.8	8.46e-01	0	62	104	2693791744	53	13292
2026-01-23 11:25:09.86	351.43	10.97	-40.9	-52.4	3.8	8.47e-01	0	62	104	2693791744	52	14311
2026-01-23 11:25:13.90	351.20	10.62	-40.9	-52.5	3.8	8.45e-01	0	62	104	2693791744	52	14382
2026-01-23 11:25:17.94	350.98	10.28	-40.8	-52.4	3.8	8.46e-01	0	62	104	2693791744	52	14215
2026-01-23 11:25:21.98	350.77	9.95	-40.6	-52.2	3.8	8.47e-01	0	62	104	2693791744	52	14013
2026-01-23 11:25:26.02	350.56	9.62	-40.6	-52.2	3.8	8.46e-01	0	62	104	2693791744	52	13922
2026-01-23 11:25:30.05	350.35	9.29	-40.6	-52.2	3.8	8.47e-01	0	62	104	2693791744	52	13982
2026-01-23 11:25:34.09	350.15	8.97	-40.7	-52.3	3.8	8.46e-01	0	62	104	2693791744	52	14064
2026-01-23 11:25:38.13	349.96	8.65	-40.7	-52.3	3.8	8.46e-01	0	62	104	2693791744	52	14141
2026-01-23 11:25:42.17	349.77	8.33	-40.8	-52.3	3.8	8.46e-01	0	62	104	2693791744	52	14169
2026-01-23 11:25:46.21	349.58	8.02	-40.9	-52.4	3.8	8.46e-01	0	62	104	2693791744	52	14332
2026-01-23 11:25:50.25	349.40	7.71	-44.8	-56.6	3.8	8.46e-01	0	62	104	2693791744	60	14582
2026-01-23 11:25:54.29	349.22	7.40	-45.3	-57.0	3.8	8.46e-01	0	62	104	2693791744	61	14501
2026-01-23 11:25:58.33	349.05	7.10	-45.2	-57.0	3.8	8.47e-01	0	62	104	2693791744	61	14415
2026-01-23 11:26:02.37	348.88	6.80	-45.2	-56.9	3.8	8.46e-01	0	62	104	2693791744	60	15169
2026-01-23 11:26:06.41	348.71	6.50	-45.1	-56.8	3.8	8.48e-01	0	62	104	2693791744	60	15035
2026-01-23 11:26:10.45	348.55	6.21	-45.2	-56.9	3.8	8.47e-01	0	62	104	2693791744	61	14248
2026-01-23 11:26:14.49	348.39	5.92	-45.1	-56.8	3.8	8.46e-01	0	63	104	2693791744	61	14135
2026-01-23 11:26:18.53	348.24	5.63	-45.0	-56.8	3.8	8.47e-01	0	62	104	2693791744	60	14989
2026-01-23 11:26:22.57	348.08	5.35	-45.1	-56.8	3.8	8.46e-01	0	62	104	2693791744	60	14950
2026-01-23 11:26:26.61	347.94	5.07	-45.0	-56.8	3.8	8.45e-01	0	62	104	2693791744	60	14947
2026-01-23 11:26:30.65	347.79	4.79	-45.0	-56.8	3.8	8.47e-01	0	62	104	2693791744	60	14889
2026-01-23 11:26:34.69	347.65	4.51	-45.0	-56.8	3.8	8.45e-01	0	62	104	2693791744	60	14949
2026-01-23 11:26:38.73	347.51	4.24	-45.1	-56.7	3.8	8.48e-01	0	62	104	2693791744	60	14865
2026-01-23 11:26:42.77	347.37	3.97	-45.1	-56.8	3.8	8.45e-01	0	62	104	2693791744	60	14959
2026-01-23 11:26:46.81	347.24	3.70	-45.0	-56.7	3.8	8.46e-01	0	62	104	2693791744	60	14873
2026-01-23 11:26:50.85	347.11	3.44	-45.0	-56.8	3.8	8.46e-01	0	62	104	2693791744	60	14889
2026-01-23 11:26:54.89	346.98	3.17	-44.8	-56.7	3.8	8.46e-01	0	62	104	2693791744	60	14845
2026-01-23 11:26:58.93	346.85	2.91	-45.0	-56.8	3.8	8.45e-01	0	62	104	2693791744	60	14899
2026-01-23 11:27:02.97	346.73	2.65	-45.0	-56.7	3.8	8.47e-01	0	62	104	2693791744	60	14820
2026-01-23 11:27:07.01	346.61	2.40	-45.0	-56.7	3.8	8.45e-01	0	62	104	2693791744	60	14877
2026-01-23 11:27:11.05	346.49	2.14	-44.9	-56.7	3.8	8.47e-01	0	62	104	2693791744	60	14832

#Closed at: 2026-01-23 11:27:14
#Recorded file [2693 MB]: D:/lorett/data/31039_260123_141314.dat