passes_logs/2026/01/30/R3.2S_Murmansk/R3.2S_Murmansk__20260130_104412_FENGYUN_3D_rec.log

#Pass ID: 20260130_104412_FENGYUN 3D
#Satellite: FENGYUN 3D
#Configuration: FENGYUN 3D
#almurnet v.1.7.20251203
#Start time: 2026-01-30 10:44:13

#Version: 2.2.20231116
#Station: R3.2S_Murmansk
#Location: 33.079688 lon 68.888172 lat
#TLE: 1 43010U 17072A   26029.52179110  .00000394  00000+0  20818-3 0  9997
#TLE: 2 43010  98.9957   1.5649 0002507  83.7772 276.3689 14.19703315425310

#Time	Az	El	Level	Level2	SNR	BER	BlckErr	Temp	State	Recorded	gain1	gain2
2026-01-30 10:44:13.65	131.38	2.09	-52.9	-64.8	3.8	8.46e-01	0	40	0	0	77	14150
2026-01-30 10:44:17.67	131.31	2.35	-51.8	-63.7	3.8	8.46e-01	0	40	104	0	75	14019
2026-01-30 10:44:21.69	131.24	2.61	-51.8	-63.7	3.8	8.46e-01	0	40	104	0	75	14008
2026-01-30 10:44:25.73	131.16	2.87	-51.8	-63.7	3.8	8.46e-01	0	40	104	0	75	13932
2026-01-30 10:44:29.76	131.08	3.14	-51.8	-63.5	3.8	8.46e-01	0	40	104	0	75	13699
2026-01-30 10:44:33.79	131.00	3.41	-51.7	-63.2	3.8	8.44e-01	0	41	104	0	75	13155
2026-01-30 10:44:37.83	130.92	3.68	-51.7	-62.8	3.8	8.46e-01	0	41	104	0	75	12550
2026-01-30 10:44:41.85	130.83	3.95	-51.4	-60.7	4.0	8.45e-01	0	41	104	0	74	10434
2026-01-30 10:44:45.88	130.75	4.23	-48.5	-51.6	10.9	6.41e-03	0	41	0	14680064	69	4875
2026-01-30 10:44:49.90	130.66	4.51	-44.4	-45.9	16.8	0.00e+00	0	41	0	36700160	60	4245
2026-01-30 10:44:53.93	130.57	4.79	-43.0	-44.1	18.8	0.00e+00	0	41	0	59768832	58	3907
2026-01-30 10:44:57.97	130.48	5.07	-46.7	-48.7	13.9	0.00e+00	0	41	0	82837504	63	4981
2026-01-30 10:45:01.99	130.38	5.36	-48.9	-52.3	10.2	1.10e-06	0	41	0	104857600	68	5594
2026-01-30 10:45:06.01	130.29	5.65	-42.6	-43.8	19.3	0.00e+00	0	41	0	127926272	56	4194
2026-01-30 10:45:10.04	130.19	5.94	-42.5	-43.6	19.4	0.00e+00	0	41	0	149946368	56	4121
2026-01-30 10:45:14.06	130.09	6.24	-42.3	-43.4	19.7	0.00e+00	0	41	0	173015040	56	4018
2026-01-30 10:45:18.09	129.99	6.54	-42.3	-43.4	19.7	0.00e+00	0	41	0	196083712	56	4031
2026-01-30 10:45:22.12	129.88	6.85	-42.3	-43.3	19.9	0.00e+00	0	41	0	218103808	56	3988
2026-01-30 10:45:26.14	129.77	7.15	-42.2	-43.3	19.9	0.00e+00	0	41	0	240123904	56	3969
2026-01-30 10:45:30.17	129.66	7.46	-42.1	-43.2	20.1	0.00e+00	0	41	0	263192576	56	3920
2026-01-30 10:45:34.20	129.55	7.78	-41.8	-42.8	20.4	0.00e+00	0	41	0	286261248	55	3966
2026-01-30 10:45:38.23	129.43	8.10	-41.8	-42.8	20.4	0.00e+00	0	41	0	308281344	55	3978
2026-01-30 10:45:42.24	129.32	8.42	-41.6	-42.6	20.7	0.00e+00	0	41	0	331350016	55	3880
2026-01-30 10:45:46.27	129.19	8.74	-41.5	-42.4	20.9	0.00e+00	0	41	0	354418688	55	3818
2026-01-30 10:45:50.31	129.07	9.08	-41.3	-42.3	21.0	0.00e+00	0	41	0	376438784	54	3982
2026-01-30 10:45:54.34	128.94	9.41	-41.2	-42.1	21.2	0.00e+00	0	41	0	399507456	54	3896
2026-01-30 10:45:58.37	128.81	9.75	-41.0	-41.9	21.4	0.00e+00	0	41	0	422576128	54	3812
2026-01-30 10:46:02.40	128.67	10.10	-40.9	-41.8	21.4	0.00e+00	0	41	0	444596224	53	3996
2026-01-30 10:46:06.42	128.54	10.44	-40.8	-41.7	21.6	0.00e+00	0	41	0	467664896	53	3952
2026-01-30 10:46:10.45	128.39	10.80	-40.8	-41.7	21.6	0.00e+00	0	41	0	490733568	53	3948
2026-01-30 10:46:14.49	128.25	11.16	-40.7	-41.6	21.7	0.00e+00	0	41	0	512753664	53	3907
2026-01-30 10:46:18.53	128.10	11.52	-40.7	-41.6	21.7	0.00e+00	0	41	0	535822336	53	3901
2026-01-30 10:46:22.55	127.95	11.89	-40.6	-41.5	21.9	0.00e+00	0	41	0	558891008	53	3838
2026-01-30 10:46:26.57	127.79	12.26	-40.4	-41.3	22.0	0.00e+00	0	41	0	580911104	52	3997
2026-01-30 10:46:30.60	127.63	12.64	-40.4	-41.3	22.1	0.00e+00	0	41	0	603979776	52	3967
2026-01-30 10:46:34.62	127.46	13.03	-40.2	-41.1	22.3	0.00e+00	0	41	0	625999872	52	3886
2026-01-30 10:46:38.65	127.29	13.42	-40.1	-41.0	22.4	0.00e+00	0	41	0	648019968	52	3829
2026-01-30 10:46:42.67	127.11	13.82	-40.0	-40.9	22.6	0.00e+00	0	41	0	671088640	51	4007
2026-01-30 10:46:46.71	126.93	14.22	-40.2	-41.1	22.4	0.00e+00	0	41	0	694157312	51	4104
2026-01-30 10:46:50.74	126.74	14.63	-40.0	-40.8	22.7	0.00e+00	0	42	0	716177408	51	3997
2026-01-30 10:46:54.76	126.55	15.05	-39.8	-40.6	22.9	0.00e+00	0	42	0	739246080	51	3913
2026-01-30 10:46:58.78	126.35	15.47	-39.6	-40.5	23.0	0.00e+00	0	41	0	762314752	51	3827
2026-01-30 10:47:02.81	126.14	15.90	-39.6	-40.4	23.1	0.00e+00	0	41	0	784334848	51	3812
2026-01-30 10:47:06.83	125.93	16.34	-39.3	-40.1	23.4	0.00e+00	0	41	0	807403520	50	3908
2026-01-30 10:47:10.86	125.71	16.79	-39.1	-39.8	23.6	0.00e+00	0	41	0	830472192	50	3780
2026-01-30 10:47:14.89	125.49	17.24	-39.0	-39.8	23.7	0.00e+00	0	41	0	852492288	49	3976
2026-01-30 10:47:18.92	125.26	17.70	-38.8	-39.6	23.9	0.00e+00	0	41	0	875560960	49	3880
2026-01-30 10:47:22.95	125.02	18.17	-38.8	-39.6	23.9	0.00e+00	0	41	0	897581056	49	3883
2026-01-30 10:47:26.96	124.77	18.65	-38.7	-39.5	24.0	0.00e+00	0	42	0	920649728	49	3847
2026-01-30 10:47:30.99	124.51	19.14	-38.7	-39.5	24.0	0.00e+00	0	42	0	943718400	49	3831
2026-01-30 10:47:35.02	124.25	19.64	-38.7	-39.4	24.1	0.00e+00	0	41	0	965738496	49	3811
2026-01-30 10:47:39.05	123.97	20.14	-38.5	-39.3	24.1	0.00e+00	0	42	0	987758592	48	3966
2026-01-30 10:47:43.08	123.69	20.66	-38.5	-39.3	24.1	0.00e+00	0	42	0	1010827264	48	3989
2026-01-30 10:47:47.09	123.39	21.18	-38.4	-39.2	24.3	0.00e+00	0	41	0	1033895936	48	3927
2026-01-30 10:47:51.13	123.09	21.72	-38.2	-39.0	24.5	0.00e+00	0	41	0	1055916032	48	3836
2026-01-30 10:47:55.15	122.77	22.27	-38.1	-38.9	24.5	0.00e+00	0	41	0	1078984704	48	3802
2026-01-30 10:47:59.16	122.44	22.82	-38.1	-38.8	24.7	0.00e+00	0	41	0	1102053376	48	3762
2026-01-30 10:48:03.17	122.11	23.39	-37.6	-38.3	24.6	0.00e+00	0	41	0	1124073472	47	3774
2026-01-30 10:48:07.19	121.75	23.97	-37.4	-38.2	24.7	0.00e+00	0	41	0	1147142144	46	3923
2026-01-30 10:48:11.21	121.38	24.56	-37.3	-38.1	24.9	0.00e+00	0	41	0	1169162240	46	3894
2026-01-30 10:48:15.24	121.00	25.16	-37.1	-37.9	25.1	0.00e+00	0	41	0	1192230912	46	3783
2026-01-30 10:48:19.25	120.60	25.78	-37.1	-37.8	25.1	0.00e+00	0	41	0	1215299584	46	3766
2026-01-30 10:48:23.28	120.19	26.41	-37.0	-37.8	25.1	0.00e+00	0	41	0	1237319680	46	3756
2026-01-30 10:48:27.31	119.76	27.05	-37.1	-37.9	25.0	0.00e+00	0	42	0	1260388352	46	3787
2026-01-30 10:48:31.33	119.31	27.71	-37.0	-37.8	25.1	0.00e+00	0	41	0	1282408448	45	3969
2026-01-30 10:48:35.36	118.84	28.38	-37.1	-37.8	25.5	0.00e+00	0	41	0	1305477120	45	3980
2026-01-30 10:48:39.39	118.34	29.06	-37.0	-37.7	25.6	0.00e+00	0	42	0	1327497216	45	3937
2026-01-30 10:48:43.43	117.83	29.77	-36.9	-37.6	25.8	0.00e+00	0	42	0	1350565888	45	3877
2026-01-30 10:48:47.44	117.29	30.48	-36.5	-37.2	26.1	0.00e+00	0	42	0	1372585984	45	3710
2026-01-30 10:48:51.46	116.73	31.20	-36.6	-37.3	26.0	0.00e+00	0	41	0	1395654656	45	3768
2026-01-30 10:48:55.49	116.15	31.95	-36.5	-37.2	26.1	0.00e+00	0	42	0	1418723328	45	3711
2026-01-30 10:48:59.52	115.53	32.71	-36.5	-37.2	26.2	0.00e+00	0	42	0	1440743424	45	3716
2026-01-30 10:49:03.54	114.88	33.48	-36.6	-37.3	26.0	0.00e+00	0	41	0	1463812096	44	3985
2026-01-30 10:49:07.57	114.20	34.27	-36.6	-37.3	26.0	0.00e+00	0	41	0	1486880768	44	3994
2026-01-30 10:49:11.59	113.49	35.08	-36.5	-37.2	26.1	0.00e+00	0	41	0	1508900864	44	3948
2026-01-30 10:49:15.62	112.74	35.90	-36.4	-37.1	26.2	0.00e+00	0	41	0	1531969536	44	3888
2026-01-30 10:49:19.64	111.95	36.74	-36.6	-37.3	26.1	0.00e+00	0	41	0	1553989632	44	3961
2026-01-30 10:49:23.67	111.11	37.59	-36.6	-37.2	26.1	0.00e+00	0	42	0	1577058304	44	3952
2026-01-30 10:49:27.70	110.23	38.46	-36.3	-36.9	26.4	0.00e+00	0	41	0	1600126976	44	3820
2026-01-30 10:49:31.73	109.30	39.34	-36.7	-37.4	26.0	0.00e+00	0	41	0	1622147072	44	4021
2026-01-30 10:49:35.75	108.32	40.23	-36.8	-37.4	25.9	0.00e+00	0	42	0	1645215744	44	4048
2026-01-30 10:49:39.78	107.28	41.14	-36.9	-37.6	25.8	0.00e+00	0	41	0	1667235840	44	4141
2026-01-30 10:49:43.81	106.18	42.06	-36.7	-37.3	26.0	0.00e+00	0	42	0	1690304512	44	4002
2026-01-30 10:49:47.83	105.02	42.99	-37.0	-37.7	25.8	0.00e+00	0	41	0	1712324608	44	4172
2026-01-30 10:49:51.85	103.78	43.93	-36.9	-37.6	25.8	0.00e+00	0	41	0	1735393280	44	4109
2026-01-30 10:49:55.89	102.47	44.87	-37.1	-37.8	25.7	0.00e+00	0	41	0	1758461952	44	4208
2026-01-30 10:49:59.92	101.07	45.82	-37.0	-37.7	25.8	0.00e+00	0	41	0	1780482048	44	4153
2026-01-30 10:50:03.95	99.59	46.78	-37.0	-37.7	25.8	0.00e+00	0	41	0	1803550720	44	4153
2026-01-30 10:50:07.98	98.02	47.73	-37.5	-38.2	25.4	0.00e+00	0	41	0	1826619392	45	4160
2026-01-30 10:50:12.00	96.35	48.67	-37.4	-38.1	25.5	0.00e+00	0	41	0	1848639488	45	4112
2026-01-30 10:50:16.03	94.57	49.61	-37.6	-38.3	25.3	0.00e+00	0	41	0	1871708160	45	4196
2026-01-30 10:50:20.05	92.68	50.54	-38.4	-39.1	24.6	0.00e+00	0	41	0	1894776832	47	4134
2026-01-30 10:50:24.08	90.67	51.45	-38.0	-38.7	25.0	0.00e+00	0	41	0	1916796928	47	3935
2026-01-30 10:50:28.11	88.53	52.34	-37.9	-38.6	25.1	0.00e+00	0	41	0	1939865600	47	3871
2026-01-30 10:50:32.14	86.26	53.19	-37.8	-38.5	25.2	0.00e+00	0	41	0	1961885696	47	3833
2026-01-30 10:50:36.17	83.85	54.02	-37.6	-38.3	25.4	0.00e+00	0	41	0	1984954368	47	3742
2026-01-30 10:50:40.20	81.31	54.80	-37.8	-38.6	25.2	0.00e+00	0	41	0	2006974464	46	4105
2026-01-30 10:50:44.23	78.63	55.54	-37.4	-38.1	25.6	0.00e+00	0	41	0	2030043136	46	3878
2026-01-30 10:50:48.26	75.81	56.21	-37.2	-37.9	25.7	0.00e+00	0	41	0	2053111808	46	3809
2026-01-30 10:50:52.29	72.85	56.83	-37.1	-37.8	25.8	0.00e+00	0	42	0	2075131904	46	3749
2026-01-30 10:50:56.31	69.77	57.37	-37.7	-38.4	25.3	0.00e+00	0	41	0	2098200576	46	4018
2026-01-30 10:51:00.33	66.58	57.83	-37.2	-37.9	25.7	0.00e+00	0	41	0	2120220672	46	3813
2026-01-30 10:51:04.35	63.29	58.21	-37.4	-38.1	25.6	0.00e+00	0	41	0	2143289344	46	3883
2026-01-30 10:51:08.38	59.90	58.51	-37.8	-38.6	25.2	0.00e+00	0	41	0	2166358016	46	4099
2026-01-30 10:51:12.41	56.45	58.70	-37.9	-38.6	25.1	0.00e+00	0	42	0	2188378112	46	4144
2026-01-30 10:51:16.45	52.96	58.80	-37.2	-37.9	25.8	0.00e+00	0	42	0	2211446784	46	3811
2026-01-30 10:51:20.48	49.46	58.81	-37.5	-38.2	25.6	0.00e+00	0	41	0	2234515456	46	3923
2026-01-30 10:51:24.51	45.97	58.71	-37.6	-38.3	25.4	0.00e+00	0	42	0	2256535552	46	3988
2026-01-30 10:51:28.54	42.52	58.51	-37.2	-37.9	25.8	0.00e+00	0	41	0	2279604224	46	3805
2026-01-30 10:51:32.58	39.12	58.22	-37.6	-38.3	25.4	0.00e+00	0	41	0	2302672896	46	3994
2026-01-30 10:51:36.60	35.83	57.85	-37.2	-37.9	25.8	0.00e+00	0	41	0	2324692992	46	3821
2026-01-30 10:51:40.63	32.63	57.38	-37.2	-37.9	25.8	0.00e+00	0	41	0	2347761664	45	4007
2026-01-30 10:51:44.65	29.55	56.84	-36.9	-37.6	26.0	0.00e+00	0	41	0	2370830336	45	3897
2026-01-30 10:51:48.68	26.59	56.23	-36.8	-37.5	26.2	0.00e+00	0	42	0	2392850432	45	3825
2026-01-30 10:51:52.69	23.79	55.56	-36.8	-37.5	26.1	0.00e+00	0	41	0	2414870528	45	3844
2026-01-30 10:51:56.72	21.10	54.83	-37.4	-38.1	25.6	0.00e+00	0	41	0	2437939200	45	4120
2026-01-30 10:52:00.76	18.55	54.05	-37.2	-37.9	25.8	0.00e+00	0	41	0	2461007872	45	4028
2026-01-30 10:52:04.78	16.15	53.23	-37.0	-37.7	25.9	0.00e+00	0	41	0	2483027968	45	3945
2026-01-30 10:52:08.81	13.88	52.37	-37.4	-38.1	25.6	0.00e+00	0	41	0	2506096640	45	4109
2026-01-30 10:52:12.84	11.74	51.49	-37.1	-37.8	25.9	0.00e+00	0	41	0	2528116736	45	3990
2026-01-30 10:52:16.87	9.73	50.58	-37.3	-37.9	25.7	0.00e+00	0	41	0	2551185408	45	4049
2026-01-30 10:52:20.89	7.84	49.66	-36.9	-37.6	26.0	0.00e+00	0	41	0	2574254080	45	3903
2026-01-30 10:52:24.92	6.06	48.72	-36.8	-37.5	26.2	0.00e+00	0	41	0	2596274176	45	3831
2026-01-30 10:52:28.95	4.38	47.77	-36.8	-37.5	26.1	0.00e+00	0	41	0	2619342848	45	3849
2026-01-30 10:52:32.97	2.81	46.83	-36.5	-37.2	26.4	0.00e+00	0	41	0	2642411520	45	3720
2026-01-30 10:52:37.00	1.33	45.88	-36.4	-37.1	26.5	0.00e+00	0	41	0	2664431616	44	3877
2026-01-30 10:52:41.03	359.94	44.93	-36.2	-36.9	26.7	0.00e+00	0	41	0	2687500288	44	3793
2026-01-30 10:52:45.05	358.63	43.99	-36.2	-36.9	26.7	0.00e+00	0	41	0	2709520384	44	3783
2026-01-30 10:52:49.08	357.39	43.05	-36.2	-36.8	26.7	0.00e+00	0	41	0	2732589056	44	3772
2026-01-30 10:52:53.10	356.23	42.12	-36.3	-36.9	26.6	0.00e+00	0	41	0	2754609152	44	3819
2026-01-30 10:52:57.13	355.13	41.21	-36.4	-37.0	26.5	0.00e+00	0	41	0	2777677824	44	3855
2026-01-30 10:53:01.13	354.09	40.31	-36.4	-37.1	26.5	0.00e+00	0	41	0	2799697920	44	3885
2026-01-30 10:53:05.16	353.11	39.41	-36.3	-37.0	26.6	0.00e+00	0	41	0	2822766592	44	3826
2026-01-30 10:53:09.19	352.18	38.53	-35.8	-36.5	26.8	0.00e+00	0	41	0	2845835264	43	3847
2026-01-30 10:53:13.22	351.30	37.67	-36.2	-36.9	26.5	0.00e+00	0	41	0	2867855360	43	4026
2026-01-30 10:53:17.25	350.46	36.82	-36.0	-36.6	26.7	0.00e+00	0	41	0	2890924032	43	3912
2026-01-30 10:53:21.29	349.67	35.98	-36.1	-36.8	26.6	0.00e+00	0	41	0	2913992704	43	3973
2026-01-30 10:53:25.31	348.92	35.16	-36.0	-36.7	26.7	0.00e+00	0	41	0	2936012800	43	3920
2026-01-30 10:53:29.34	348.21	34.35	-36.3	-37.0	26.4	0.00e+00	0	41	0	2959081472	43	4052
2026-01-30 10:53:33.38	347.52	33.56	-36.0	-36.7	26.6	0.00e+00	0	41	0	2982150144	43	3922
2026-01-30 10:53:37.41	346.88	32.79	-36.0	-36.7	26.6	0.00e+00	0	42	0	3004170240	43	3949
2026-01-30 10:53:41.43	346.26	32.03	-36.1	-36.8	26.5	0.00e+00	0	41	0	3027238912	43	3960
2026-01-30 10:53:45.46	345.67	31.29	-36.3	-37.0	26.3	0.00e+00	0	41	0	3050307584	43	4081
2026-01-30 10:53:49.49	345.11	30.56	-36.1	-36.8	26.4	0.00e+00	0	41	0	3072327680	43	3974
2026-01-30 10:53:53.52	344.57	29.85	-36.2	-36.8	26.4	0.00e+00	0	41	0	3094347776	43	3997
2026-01-30 10:53:57.56	344.06	29.15	-36.4	-37.1	26.2	0.00e+00	0	41	0	3117416448	43	4135
2026-01-30 10:54:01.59	343.57	28.46	-36.7	-37.4	26.0	0.00e+00	0	41	0	3140485120	43	4251
2026-01-30 10:54:05.62	343.10	27.79	-36.8	-37.5	25.9	0.00e+00	0	41	0	3162505216	44	4072
2026-01-30 10:54:09.65	342.65	27.14	-36.8	-37.4	26.0	0.00e+00	0	41	0	3185573888	44	4048
2026-01-30 10:54:13.68	342.22	26.49	-36.9	-37.6	25.8	0.00e+00	0	42	0	3208642560	44	4104
2026-01-30 10:54:17.70	341.81	25.87	-36.7	-37.4	26.0	0.00e+00	0	41	0	3230662656	44	4012
2026-01-30 10:54:21.73	341.41	25.25	-36.7	-37.4	25.9	0.00e+00	0	41	0	3253731328	44	4036
2026-01-30 10:54:25.75	341.03	24.65	-36.7	-37.4	25.9	0.00e+00	0	41	0	3276800000	44	4039
2026-01-30 10:54:29.78	340.66	24.06	-36.8	-37.5	25.8	0.00e+00	0	41	0	3298820096	44	4079
2026-01-30 10:54:33.81	340.31	23.48	-36.8	-37.5	25.8	0.00e+00	0	41	0	3321888768	44	4058
2026-01-30 10:54:37.85	339.97	22.91	-36.8	-37.5	25.8	0.00e+00	0	41	0	3343908864	44	4081
2026-01-30 10:54:41.87	339.64	22.35	-37.0	-37.7	25.7	0.00e+00	0	41	0	3366977536	44	4148
2026-01-30 10:54:45.91	339.32	21.80	-37.1	-37.8	25.5	0.00e+00	0	41	0	3390046208	44	4228
2026-01-30 10:54:49.94	339.02	21.27	-37.2	-37.9	25.4	0.00e+00	0	41	0	3412066304	45	4023
2026-01-30 10:54:53.97	338.73	20.74	-37.4	-38.1	25.2	0.00e+00	0	41	0	3435134976	45	4133
2026-01-30 10:54:58.00	338.44	20.23	-37.7	-38.4	25.0	0.00e+00	0	41	0	3457155072	45	4253
2026-01-30 10:55:02.02	338.17	19.72	-37.9	-38.6	24.8	0.00e+00	0	41	0	3480223744	46	4123
2026-01-30 10:55:06.03	337.91	19.23	-38.0	-38.8	24.6	0.00e+00	0	41	0	3502243840	46	4204
2026-01-30 10:55:10.06	337.65	18.74	-38.1	-38.8	24.6	0.00e+00	0	41	0	3525312512	46	4224
2026-01-30 10:55:14.10	337.41	18.26	-37.9	-38.6	24.7	0.00e+00	0	41	0	3548381184	46	4129
2026-01-30 10:55:18.12	337.17	17.80	-37.8	-38.5	24.8	0.00e+00	0	41	0	3570401280	46	4081
2026-01-30 10:55:22.15	336.94	17.33	-37.8	-38.5	24.8	0.00e+00	0	41	0	3593469952	46	4070
2026-01-30 10:55:26.17	336.71	16.88	-37.9	-38.7	24.6	0.00e+00	0	41	0	3616538624	46	4146
2026-01-30 10:55:30.21	336.50	16.44	-38.1	-38.8	24.5	0.00e+00	0	41	0	3638558720	46	4213
2026-01-30 10:55:34.24	336.29	16.00	-38.4	-39.1	24.2	0.00e+00	0	41	0	3661627392	47	4134
2026-01-30 10:55:38.26	336.08	15.57	-38.5	-39.3	24.0	0.00e+00	0	41	0	3684696064	47	4213
2026-01-30 10:55:42.28	335.89	15.15	-39.1	-39.9	23.9	0.00e+00	0	41	0	3706716160	48	4258
2026-01-30 10:55:46.30	335.70	14.73	-39.3	-40.1	23.7	0.00e+00	0	41	0	3729784832	49	4111
2026-01-30 10:55:50.31	335.51	14.32	-39.5	-40.2	23.6	0.00e+00	0	41	0	3751804928	49	4177
2026-01-30 10:55:54.34	335.33	13.92	-39.7	-40.4	23.4	0.00e+00	0	41	0	3773825024	49	4291
2026-01-30 10:55:58.37	335.16	13.52	-39.9	-40.7	23.2	0.00e+00	0	41	0	3796893696	50	4152
2026-01-30 10:56:02.39	334.99	13.13	-39.8	-40.5	23.2	0.00e+00	0	41	0	3819962368	50	4092
2026-01-30 10:56:06.41	334.82	12.75	-39.9	-40.7	23.1	0.00e+00	0	41	0	3841982464	50	4158
2026-01-30 10:56:10.43	334.66	12.37	-40.0	-40.9	22.9	0.00e+00	0	41	0	3865051136	50	4243
2026-01-30 10:56:14.46	334.51	11.99	-40.1	-40.9	22.9	0.00e+00	0	41	0	3888119808	51	4026
2026-01-30 10:56:18.49	334.36	11.63	-40.1	-40.9	22.8	0.00e+00	0	41	0	3910139904	51	4047
2026-01-30 10:56:22.52	334.21	11.26	-40.2	-41.0	22.7	0.00e+00	0	41	0	3933208576	51	4077
2026-01-30 10:56:26.55	334.06	10.90	-40.3	-41.2	22.6	0.00e+00	0	41	0	3955228672	51	4148
2026-01-30 10:56:30.58	333.92	10.55	-40.2	-41.0	22.6	0.00e+00	0	41	0	3978297344	51	4081
2026-01-30 10:56:34.61	333.79	10.20	-40.2	-41.0	22.6	0.00e+00	0	41	0	4001366016	51	4088
2026-01-30 10:56:38.64	333.66	9.86	-40.4	-41.2	22.4	0.00e+00	0	41	0	4023386112	51	4156
2026-01-30 10:56:42.66	333.53	9.52	-40.5	-41.3	22.3	0.00e+00	0	41	0	4046454784	51	4211
2026-01-30 10:56:46.69	333.40	9.19	-40.4	-41.3	22.3	0.00e+00	0	41	0	4069523456	51	4196
2026-01-30 10:56:50.73	333.28	8.86	-40.5	-41.4	22.2	0.00e+00	0	41	0	4091543552	51	4251
2026-01-30 10:56:54.77	333.16	8.53	-40.6	-41.5	21.9	0.00e+00	0	41	0	4114612224	52	4062
2026-01-30 10:56:58.79	333.04	8.21	-40.6	-41.5	21.9	0.00e+00	0	41	0	4136632320	52	4068
2026-01-30 10:57:02.82	332.93	7.89	-40.9	-41.7	21.6	0.00e+00	0	41	0	4159700992	52	4184
2026-01-30 10:57:06.86	332.82	7.57	-40.8	-41.7	21.6	0.00e+00	0	41	0	4182769664	52	4170
2026-01-30 10:57:10.89	332.71	7.26	-40.8	-41.7	21.6	0.00e+00	0	41	0	4204789760	52	4154
2026-01-30 10:57:14.92	332.60	6.96	-41.0	-41.8	21.4	0.00e+00	0	41	0	4227858432	52	4234
2026-01-30 10:57:18.95	332.50	6.65	-41.1	-42.0	21.3	0.00e+00	0	41	0	4249878528	52	4296
2026-01-30 10:57:22.97	332.40	6.35	-41.2	-42.0	21.2	0.00e+00	0	41	0	4272947200	52	4333
2026-01-30 10:57:26.99	332.30	6.06	-41.3	-42.2	20.9	0.00e+00	0	41	0	4296015872	53	4186
2026-01-30 10:57:31.02	332.21	5.76	-41.5	-42.4	20.6	0.00e+00	0	41	0	4318035968	53	4288
2026-01-30 10:57:35.05	332.11	5.47	-41.2	-42.1	21.0	0.00e+00	0	41	0	4341104640	54	3899
2026-01-30 10:57:39.09	332.02	5.18	-41.6	-42.5	20.5	0.00e+00	0	41	0	4364173312	54	4095
2026-01-30 10:57:43.12	331.93	4.90	-52.6	-64.6	3.8	8.46e-01	0	41	104	4378853376	75	15413
2026-01-30 10:57:47.14	331.85	4.62	-53.3	-65.3	3.8	8.47e-01	0	41	104	4378853376	77	14895
2026-01-30 10:57:51.17	331.76	4.34	-53.4	-65.3	3.8	8.46e-01	0	41	104	4378853376	77	14909
2026-01-30 10:57:55.20	331.68	4.06	-53.2	-65.1	3.8	8.46e-01	0	41	104	4378853376	77	14683
2026-01-30 10:57:59.22	331.60	3.79	-53.4	-65.3	3.8	8.46e-01	0	41	104	4378853376	77	14992
2026-01-30 10:58:03.25	331.52	3.52	-53.4	-65.3	3.8	8.47e-01	0	41	104	4378853376	77	14932
2026-01-30 10:58:07.28	331.44	3.25	-53.3	-65.2	3.8	8.46e-01	0	41	104	4378853376	77	14759
2026-01-30 10:58:11.31	331.36	2.99	-53.2	-65.1	3.8	8.46e-01	0	42	104	4378853376	77	14688
2026-01-30 10:58:15.33	331.29	2.73	-53.2	-65.1	3.8	8.46e-01	0	41	104	4378853376	77	14590
2026-01-30 10:58:19.36	331.22	2.47	-53.2	-65.0	3.8	8.46e-01	0	42	104	4378853376	77	14523
2026-01-30 10:58:23.39	331.15	2.21	-53.1	-65.0	3.8	8.46e-01	0	41	104	4378853376	77	14509
2026-01-30 10:58:27.41	331.08	1.95	-53.1	-65.0	3.8	8.47e-01	0	42	104	4378853376	77	14480

#Closed at: 2026-01-30 10:58:27
#Recorded file [4378 MB]: D:/lorett/data/31041_260130_134413.dat