passes_logs/2026/01/30/R3.2S_Murmansk/R3.2S_Murmansk__20260130_072621_FENGYUN_3D_rec.log

#Pass ID: 20260130_072621_FENGYUN 3D
#Satellite: FENGYUN 3D
#Configuration: FENGYUN 3D
#almurnet v.1.7.20251203
#Start time: 2026-01-30 07:26:23

#Version: 2.2.20231116
#Station: R3.2S_Murmansk
#Location: 33.079688 lon 68.888172 lat
#TLE: 1 43010U 17072A   26029.52179110  .00000394  00000+0  20818-3 0  9997
#TLE: 2 43010  98.9957   1.5649 0002507  83.7772 276.3689 14.19703315425310

#Time	Az	El	Level	Level2	SNR	BER	BlckErr	Temp	State	Recorded	gain1	gain2
2026-01-30 07:26:23.21	65.40	2.11	-54.0	-66.0	3.8	8.47e-01	0	39	0	0	79	14376
2026-01-30 07:26:27.24	65.14	2.34	-53.9	-65.9	3.8	8.47e-01	0	39	104	0	78	15056
2026-01-30 07:26:31.27	64.88	2.58	-53.9	-65.8	3.8	8.46e-01	0	39	104	0	78	15019
2026-01-30 07:26:35.30	64.62	2.81	-54.3	-66.2	3.8	8.46e-01	0	39	104	0	79	14871
2026-01-30 07:26:39.33	64.35	3.04	-54.2	-66.1	3.8	8.46e-01	0	39	104	0	79	14698
2026-01-30 07:26:43.36	64.07	3.28	-53.9	-65.9	3.8	8.45e-01	0	40	104	0	79	14222
2026-01-30 07:26:47.39	63.79	3.52	-53.7	-65.6	3.8	8.46e-01	0	40	104	0	79	13740
2026-01-30 07:26:51.41	63.51	3.76	-53.1	-64.9	3.8	8.46e-01	0	40	104	0	78	13521
2026-01-30 07:26:55.44	63.22	4.00	-51.9	-63.8	3.8	8.47e-01	0	40	104	0	75	14139
2026-01-30 07:26:59.48	62.93	4.24	-51.8	-62.8	3.8	8.45e-01	0	40	104	0	75	12655
2026-01-30 07:27:03.50	62.63	4.48	-51.7	-62.3	3.8	8.45e-01	0	40	104	0	75	11893
2026-01-30 07:27:07.54	62.33	4.73	-49.3	-52.8	9.7	2.97e-02	0	40	0	9437184	70	5320
2026-01-30 07:27:11.55	62.02	4.97	-46.0	-47.8	14.9	0.00e+00	0	40	0	32505856	64	4201
2026-01-30 07:27:15.59	61.71	5.22	-48.0	-50.6	11.8	6.10e-01	0	40	104	50331648	68	4601
2026-01-30 07:27:19.61	61.39	5.47	-42.3	-43.4	19.8	0.00e+00	0	40	0	72351744	56	4009
2026-01-30 07:27:23.64	61.06	5.72	-42.1	-43.1	20.0	0.00e+00	0	41	0	95420416	55	4139
2026-01-30 07:27:27.67	60.73	5.97	-42.0	-43.0	20.1	0.00e+00	0	40	0	117440512	55	4082
2026-01-30 07:27:31.70	60.39	6.23	-42.0	-43.0	20.2	0.00e+00	0	40	0	140509184	55	4058
2026-01-30 07:27:35.73	60.05	6.48	-42.2	-43.2	20.1	0.00e+00	0	40	0	163577856	55	4159
2026-01-30 07:27:39.75	59.70	6.74	-41.9	-42.9	20.4	0.00e+00	0	41	0	185597952	55	4011
2026-01-30 07:27:43.78	59.34	7.00	-42.1	-43.1	20.2	0.00e+00	0	41	0	207618048	55	4132
2026-01-30 07:27:47.80	58.98	7.26	-41.7	-42.7	20.6	0.00e+00	0	41	0	230686720	55	3925
2026-01-30 07:27:51.83	58.61	7.52	-41.8	-42.7	20.6	0.00e+00	0	41	0	253755392	55	3950
2026-01-30 07:27:55.86	58.23	7.78	-41.6	-42.5	20.8	0.00e+00	0	41	0	275775488	55	3858
2026-01-30 07:27:59.89	57.85	8.04	-41.3	-42.2	21.1	0.00e+00	0	41	0	298844160	54	3952
2026-01-30 07:28:03.91	57.46	8.31	-41.2	-42.0	21.3	0.00e+00	0	41	0	321912832	54	3865
2026-01-30 07:28:07.95	57.06	8.58	-41.1	-42.0	21.4	0.00e+00	0	41	0	343932928	54	3839
2026-01-30 07:28:11.98	56.65	8.85	-41.2	-42.1	21.4	0.00e+00	0	41	0	367001600	54	3878
2026-01-30 07:28:16.01	56.24	9.12	-41.4	-42.3	21.2	0.00e+00	0	41	0	389021696	54	3988
2026-01-30 07:28:20.04	55.82	9.39	-41.1	-42.0	21.4	0.00e+00	0	41	0	412090368	54	3861
2026-01-30 07:28:24.07	55.39	9.66	-41.2	-42.0	21.5	0.00e+00	0	41	0	435159040	54	3868
2026-01-30 07:28:28.09	54.95	9.93	-41.3	-42.2	21.3	0.00e+00	0	41	0	457179136	54	3936
2026-01-30 07:28:32.13	54.50	10.21	-41.2	-42.1	21.4	0.00e+00	0	41	0	480247808	54	3901
2026-01-30 07:28:36.15	54.04	10.49	-41.0	-41.8	21.7	0.00e+00	0	41	0	503316480	53	3995
2026-01-30 07:28:40.18	53.58	10.77	-40.6	-41.4	22.1	0.00e+00	0	41	0	525336576	53	3822
2026-01-30 07:28:44.21	53.10	11.05	-40.7	-41.6	21.9	0.00e+00	0	41	0	547356672	53	3892
2026-01-30 07:28:48.24	52.62	11.33	-40.6	-41.4	22.1	0.00e+00	0	41	0	570425344	53	3809
2026-01-30 07:28:52.26	52.13	11.61	-40.7	-41.6	22.0	0.00e+00	0	41	0	593494016	53	3871
2026-01-30 07:28:56.29	51.62	11.89	-40.4	-41.3	22.3	0.00e+00	0	41	0	615514112	52	3963
2026-01-30 07:29:00.32	51.11	12.18	-40.3	-41.2	22.4	0.00e+00	0	41	0	638582784	52	3914
2026-01-30 07:29:04.35	50.59	12.46	-40.3	-41.1	22.5	0.00e+00	0	41	0	661651456	52	3884
2026-01-30 07:29:08.39	50.05	12.75	-40.1	-41.0	22.6	0.00e+00	0	41	0	683671552	52	3828
2026-01-30 07:29:12.42	49.51	13.04	-40.1	-40.9	22.8	0.00e+00	0	41	0	706740224	51	4020
2026-01-30 07:29:16.46	48.95	13.32	-39.9	-40.6	23.0	0.00e+00	0	41	0	729808896	51	3909
2026-01-30 07:29:20.49	48.38	13.61	-39.8	-40.6	23.1	0.00e+00	0	41	0	751828992	51	3897
2026-01-30 07:29:24.53	47.80	13.90	-39.8	-40.6	23.1	0.00e+00	0	41	0	774897664	51	3890
2026-01-30 07:29:28.56	47.21	14.19	-39.7	-40.4	23.3	0.00e+00	0	41	0	797966336	51	3818
2026-01-30 07:29:32.58	46.61	14.48	-39.8	-40.6	23.1	0.00e+00	0	41	0	819986432	51	3895
2026-01-30 07:29:36.62	46.00	14.77	-39.7	-40.5	23.3	0.00e+00	0	41	0	843055104	51	3825
2026-01-30 07:29:40.64	45.37	15.06	-39.4	-40.1	23.6	0.00e+00	0	41	0	866123776	50	3910
2026-01-30 07:29:44.67	44.73	15.35	-39.2	-40.0	23.7	0.00e+00	0	41	0	888143872	50	3837
2026-01-30 07:29:48.69	44.08	15.64	-39.4	-40.1	23.6	0.00e+00	0	41	0	910163968	50	3907
2026-01-30 07:29:52.73	43.42	15.93	-39.4	-40.1	23.6	0.00e+00	0	41	0	933232640	50	3911
2026-01-30 07:29:56.75	42.74	16.22	-39.2	-39.9	23.8	0.00e+00	0	41	0	956301312	50	3815
2026-01-30 07:30:00.79	42.05	16.51	-39.2	-39.9	23.8	0.00e+00	0	41	0	978321408	50	3817
2026-01-30 07:30:04.82	41.34	16.79	-39.2	-40.0	23.7	0.00e+00	0	41	0	1001390080	50	3847
2026-01-30 07:30:08.85	40.62	17.08	-39.1	-39.9	23.9	0.00e+00	0	41	0	1024458752	50	3783
2026-01-30 07:30:12.87	39.89	17.36	-38.9	-39.6	24.1	0.00e+00	0	41	0	1046478848	49	3900
2026-01-30 07:30:16.89	39.15	17.65	-38.8	-39.6	24.1	0.00e+00	0	41	0	1069547520	49	3885
2026-01-30 07:30:20.93	38.39	17.93	-38.7	-39.4	24.3	0.00e+00	0	41	0	1092616192	49	3803
2026-01-30 07:30:24.95	37.61	18.20	-38.5	-39.3	24.3	0.00e+00	0	41	0	1114636288	49	3746
2026-01-30 07:30:28.97	36.82	18.48	-38.6	-39.4	24.4	0.00e+00	0	41	0	1137704960	49	3791
2026-01-30 07:30:32.99	36.02	18.75	-38.1	-38.8	24.8	0.00e+00	0	41	0	1159725056	48	3772
2026-01-30 07:30:37.03	35.20	19.02	-38.3	-39.0	24.7	0.00e+00	0	41	0	1182793728	48	3840
2026-01-30 07:30:41.07	34.37	19.29	-38.1	-38.9	24.8	0.00e+00	0	41	0	1205862400	48	3787
2026-01-30 07:30:45.10	33.52	19.56	-38.1	-38.8	24.9	0.00e+00	0	41	0	1227882496	48	3761
2026-01-30 07:30:49.12	32.66	19.81	-38.0	-38.7	25.0	0.00e+00	0	41	0	1250951168	48	3727
2026-01-30 07:30:53.16	31.78	20.07	-38.1	-38.8	24.9	0.00e+00	0	41	0	1274019840	48	3771
2026-01-30 07:30:57.19	30.88	20.32	-37.6	-38.4	24.9	0.00e+00	0	41	0	1296039936	47	3791
2026-01-30 07:31:01.21	29.98	20.57	-37.8	-38.5	24.7	0.00e+00	0	41	0	1318060032	47	3854
2026-01-30 07:31:05.24	29.06	20.81	-37.8	-38.5	24.7	0.00e+00	0	41	0	1341128704	47	3860
2026-01-30 07:31:09.28	28.12	21.04	-37.5	-38.3	25.0	0.00e+00	0	41	0	1364197376	47	3742
2026-01-30 07:31:13.31	27.17	21.27	-37.4	-38.2	25.1	0.00e+00	0	41	0	1386217472	46	3917
2026-01-30 07:31:17.33	26.21	21.49	-37.6	-38.4	24.9	0.00e+00	0	41	0	1409286144	46	4013
2026-01-30 07:31:21.37	25.22	21.70	-37.5	-38.2	25.0	0.00e+00	0	41	0	1432354816	46	3944
2026-01-30 07:31:25.39	24.23	21.91	-37.5	-38.2	25.0	0.00e+00	0	41	0	1454374912	46	3944
2026-01-30 07:31:29.41	23.23	22.11	-37.4	-38.1	25.1	0.00e+00	0	41	0	1477443584	46	3912
2026-01-30 07:31:33.44	22.21	22.30	-37.2	-37.9	25.3	0.00e+00	0	41	0	1500512256	46	3794
2026-01-30 07:31:37.47	21.18	22.49	-37.1	-37.9	25.4	0.00e+00	0	41	0	1522532352	46	3784
2026-01-30 07:31:41.50	20.14	22.66	-37.2	-37.9	25.4	0.00e+00	0	41	0	1545601024	46	3803
2026-01-30 07:31:45.52	19.09	22.82	-37.2	-37.9	25.3	0.00e+00	0	41	0	1568669696	46	3803
2026-01-30 07:31:49.55	18.02	22.98	-36.8	-37.5	25.6	0.00e+00	0	41	0	1590689792	45	3868
2026-01-30 07:31:53.58	16.95	23.13	-37.3	-38.0	25.2	0.00e+00	0	41	0	1613758464	45	4079
2026-01-30 07:31:57.61	15.86	23.26	-37.3	-38.0	25.3	0.00e+00	0	41	0	1636827136	45	4063
2026-01-30 07:32:01.65	14.76	23.39	-37.1	-37.8	25.4	0.00e+00	0	41	0	1658847232	45	3994
2026-01-30 07:32:05.69	13.66	23.50	-36.9	-37.6	25.6	0.00e+00	0	41	0	1680867328	45	3886
2026-01-30 07:32:09.71	12.55	23.60	-36.6	-37.3	25.9	0.00e+00	0	41	0	1703936000	45	3773
2026-01-30 07:32:13.74	11.43	23.70	-36.5	-37.2	26.0	0.00e+00	0	41	0	1727004672	44	3944
2026-01-30 07:32:17.76	10.31	23.78	-36.8	-37.5	25.7	0.00e+00	0	41	0	1749024768	44	4055
2026-01-30 07:32:21.79	9.18	23.84	-36.9	-37.7	25.6	0.00e+00	0	41	0	1772093440	44	4150
2026-01-30 07:32:25.82	8.05	23.90	-36.7	-37.4	25.8	0.00e+00	0	41	0	1795162112	44	4022
2026-01-30 07:32:29.86	6.91	23.95	-36.7	-37.4	25.8	0.00e+00	0	41	0	1817182208	44	4025
2026-01-30 07:32:33.89	5.77	23.98	-36.7	-37.4	25.9	0.00e+00	0	41	0	1840250880	44	4019
2026-01-30 07:32:37.92	4.62	24.00	-36.6	-37.3	25.9	0.00e+00	0	41	0	1863319552	44	3961
2026-01-30 07:32:41.96	3.48	24.00	-36.6	-37.3	25.9	0.00e+00	0	41	0	1885339648	44	4002
2026-01-30 07:32:45.99	2.33	24.00	-36.5	-37.2	26.0	0.00e+00	0	41	0	1908408320	44	3924
2026-01-30 07:32:50.01	1.20	23.98	-36.5	-37.2	26.0	0.00e+00	0	41	0	1931476992	44	3951
2026-01-30 07:32:54.03	0.06	23.95	-36.6	-37.3	25.9	0.00e+00	0	41	0	1953497088	44	3998
2026-01-30 07:32:58.07	358.92	23.91	-36.6	-37.3	26.0	0.00e+00	0	41	0	1976565760	44	3965
2026-01-30 07:33:02.09	357.78	23.86	-36.6	-37.3	25.9	0.00e+00	0	41	0	1998585856	44	4003
2026-01-30 07:33:06.13	356.65	23.79	-36.6	-37.2	26.0	0.00e+00	0	41	0	2021654528	44	3958
2026-01-30 07:33:10.16	355.53	23.71	-36.6	-37.3	25.9	0.00e+00	0	41	0	2043674624	44	3996
2026-01-30 07:33:14.19	354.41	23.62	-36.6	-37.3	25.9	0.00e+00	0	41	0	2066743296	44	3976
2026-01-30 07:33:18.22	353.30	23.52	-36.6	-37.4	25.9	0.00e+00	0	41	0	2089811968	44	4005
2026-01-30 07:33:22.25	352.19	23.41	-36.6	-37.3	26.0	0.00e+00	0	41	0	2111832064	44	3970
2026-01-30 07:33:26.28	351.09	23.29	-36.7	-37.4	25.8	0.00e+00	0	41	0	2134900736	44	4042
2026-01-30 07:33:30.30	350.01	23.15	-36.7	-37.4	25.8	0.00e+00	0	41	0	2156920832	44	4034
2026-01-30 07:33:34.33	348.93	23.01	-36.7	-37.4	25.8	0.00e+00	0	41	0	2179989504	44	4035
2026-01-30 07:33:38.35	347.87	22.85	-36.7	-37.4	25.9	0.00e+00	0	41	0	2203058176	44	4014
2026-01-30 07:33:42.39	346.81	22.69	-36.8	-37.5	25.8	0.00e+00	0	41	0	2225078272	44	4055
2026-01-30 07:33:46.42	345.77	22.52	-36.7	-37.4	25.8	0.00e+00	0	41	0	2248146944	44	4011
2026-01-30 07:33:50.45	344.73	22.34	-36.9	-37.6	25.7	0.00e+00	0	41	0	2271215616	44	4116
2026-01-30 07:33:54.48	343.71	22.15	-36.8	-37.5	25.7	0.00e+00	0	41	0	2293235712	44	4097
2026-01-30 07:33:58.51	342.70	21.95	-37.0	-37.7	25.5	0.00e+00	0	41	0	2316304384	44	4160
2026-01-30 07:34:02.54	341.71	21.74	-37.0	-37.7	25.5	0.00e+00	0	41	0	2339373056	44	4183
2026-01-30 07:34:06.58	340.73	21.53	-37.0	-37.7	25.6	0.00e+00	0	41	0	2361393152	44	4168
2026-01-30 07:34:10.61	339.76	21.31	-36.8	-37.5	25.7	0.00e+00	0	41	0	2384461824	44	4072
2026-01-30 07:34:14.64	338.81	21.08	-36.9	-37.6	25.6	0.00e+00	0	41	0	2406481920	44	4134
2026-01-30 07:34:18.66	337.87	20.85	-37.1	-37.8	25.4	0.00e+00	0	41	0	2429550592	44	4221
2026-01-30 07:34:22.68	336.95	20.61	-37.1	-37.8	25.4	0.00e+00	0	41	0	2451570688	44	4229
2026-01-30 07:34:26.69	336.04	20.37	-37.5	-38.3	25.0	0.00e+00	0	41	0	2474639360	45	4211
2026-01-30 07:34:30.73	335.15	20.12	-37.5	-38.2	25.1	0.00e+00	0	41	0	2497708032	45	4148
2026-01-30 07:34:34.76	334.27	19.86	-37.4	-38.1	25.2	0.00e+00	0	41	0	2519728128	45	4130
2026-01-30 07:34:38.80	333.40	19.60	-37.7	-38.4	24.9	0.00e+00	0	41	0	2542796800	45	4270
2026-01-30 07:34:42.83	332.55	19.34	-37.9	-38.6	24.7	0.00e+00	0	41	0	2565865472	46	4138
2026-01-30 07:34:46.86	331.71	19.07	-37.9	-38.6	24.7	0.00e+00	0	41	0	2587885568	46	4121
2026-01-30 07:34:50.90	330.89	18.80	-38.1	-38.8	24.5	0.00e+00	0	41	0	2610954240	46	4230
2026-01-30 07:34:54.92	330.08	18.53	-38.0	-38.7	24.6	0.00e+00	0	41	0	2634022912	46	4174
2026-01-30 07:34:58.96	329.29	18.26	-38.0	-38.8	24.6	0.00e+00	0	41	0	2656043008	46	4194
2026-01-30 07:35:02.99	328.51	17.98	-37.7	-38.5	24.8	0.00e+00	0	41	0	2679111680	46	4056
2026-01-30 07:35:07.02	327.75	17.70	-38.1	-38.9	24.4	0.00e+00	0	41	0	2702180352	46	4259
2026-01-30 07:35:11.05	327.00	17.41	-37.9	-38.7	24.6	0.00e+00	0	41	0	2724200448	46	4153
2026-01-30 07:35:15.08	326.27	17.13	-38.1	-38.8	24.5	0.00e+00	0	41	0	2746220544	46	4218
2026-01-30 07:35:19.11	325.55	16.85	-37.9	-38.6	24.6	0.00e+00	0	41	0	2769289216	46	4141
2026-01-30 07:35:23.14	324.84	16.56	-38.1	-38.8	24.4	0.00e+00	0	41	0	2792357888	46	4223
2026-01-30 07:35:27.17	324.15	16.27	-38.4	-39.2	24.1	0.00e+00	0	41	0	2814377984	47	4149
2026-01-30 07:35:31.19	323.47	15.98	-38.6	-39.4	23.9	0.00e+00	0	41	0	2837446656	47	4278
2026-01-30 07:35:35.22	322.80	15.69	-38.9	-39.6	24.2	0.00e+00	0	41	0	2860515328	48	4144
2026-01-30 07:35:39.25	322.15	15.40	-38.8	-39.6	24.2	0.00e+00	0	41	0	2882535424	48	4111
2026-01-30 07:35:43.29	321.51	15.11	-38.8	-39.6	24.2	0.00e+00	0	41	0	2905604096	48	4102
2026-01-30 07:35:47.31	320.88	14.83	-39.0	-39.8	24.0	0.00e+00	0	41	0	2928672768	48	4199
2026-01-30 07:35:51.34	320.26	14.54	-39.2	-40.0	23.8	0.00e+00	0	41	0	2950692864	49	4074
2026-01-30 07:35:55.37	319.66	14.25	-39.2	-40.0	23.8	0.00e+00	0	41	0	2973761536	49	4073
2026-01-30 07:35:59.39	319.07	13.96	-39.2	-40.0	23.8	0.00e+00	0	41	0	2995781632	49	4055
2026-01-30 07:36:03.42	318.49	13.67	-39.3	-40.1	23.7	0.00e+00	0	41	0	3018850304	49	4108
2026-01-30 07:36:07.45	317.92	13.38	-39.4	-40.2	23.6	0.00e+00	0	41	0	3041918976	49	4153
2026-01-30 07:36:11.48	317.36	13.09	-39.7	-40.5	23.2	0.00e+00	0	41	0	3063939072	50	4096
2026-01-30 07:36:15.51	316.81	12.80	-39.8	-40.6	23.2	0.00e+00	0	41	0	3085959168	50	4103
2026-01-30 07:36:19.54	316.28	12.52	-39.7	-40.5	23.3	0.00e+00	0	41	0	3109027840	50	4058
2026-01-30 07:36:23.56	315.75	12.23	-39.9	-40.7	23.1	0.00e+00	0	41	0	3132096512	50	4155
2026-01-30 07:36:27.58	315.24	11.95	-39.9	-40.7	23.0	0.00e+00	0	41	0	3154116608	50	4156
2026-01-30 07:36:31.60	314.74	11.67	-40.0	-40.8	22.9	0.00e+00	0	41	0	3177185280	50	4241
2026-01-30 07:36:35.63	314.24	11.38	-40.0	-40.8	22.9	0.00e+00	0	41	0	3200253952	50	4207
2026-01-30 07:36:39.67	313.76	11.10	-40.1	-40.9	22.8	0.00e+00	0	41	0	3222274048	50	4274
2026-01-30 07:36:43.70	313.28	10.82	-40.4	-41.2	22.5	0.00e+00	0	41	0	3245342720	51	4162
2026-01-30 07:36:47.73	312.81	10.54	-40.5	-41.3	22.3	0.00e+00	0	41	0	3268411392	51	4242
2026-01-30 07:36:51.76	312.36	10.27	-40.6	-41.4	22.3	0.00e+00	0	41	0	3290431488	51	4256
2026-01-30 07:36:55.80	311.91	9.99	-40.6	-41.5	22.1	0.00e+00	0	41	0	3313500160	52	4075
2026-01-30 07:36:59.82	311.47	9.72	-40.4	-41.2	22.3	0.00e+00	0	41	0	3336568832	52	3958
2026-01-30 07:37:03.85	311.03	9.44	-40.4	-41.2	22.2	0.00e+00	0	41	0	3358588928	52	3953
2026-01-30 07:37:07.89	310.61	9.17	-40.7	-41.6	21.9	0.00e+00	0	41	0	3381657600	52	4111
2026-01-30 07:37:11.93	310.19	8.90	-40.8	-41.6	21.8	0.00e+00	0	41	0	3404726272	52	4131
2026-01-30 07:37:15.95	309.79	8.63	-40.9	-41.7	21.7	0.00e+00	0	41	0	3426746368	52	4182
2026-01-30 07:37:19.97	309.39	8.36	-40.9	-41.8	21.7	0.00e+00	0	41	0	3448766464	52	4207
2026-01-30 07:37:24.00	308.99	8.10	-41.0	-41.9	21.5	0.00e+00	0	41	0	3471835136	52	4269
2026-01-30 07:37:28.04	308.61	7.83	-41.0	-41.9	21.5	0.00e+00	0	41	0	3494903808	52	4261
2026-01-30 07:37:32.06	308.23	7.57	-41.1	-42.0	21.4	0.00e+00	0	41	0	3516923904	53	4090
2026-01-30 07:37:36.10	307.86	7.31	-41.2	-42.1	21.2	0.00e+00	0	41	0	3539992576	53	4139
2026-01-30 07:37:40.13	307.50	7.05	-41.3	-42.2	21.1	0.00e+00	0	41	0	3563061248	53	4185
2026-01-30 07:37:44.16	307.14	6.79	-41.4	-42.3	21.0	0.00e+00	0	41	0	3585081344	53	4215
2026-01-30 07:37:48.20	306.79	6.53	-41.3	-42.3	21.0	0.00e+00	0	41	0	3608150016	53	4197
2026-01-30 07:37:52.24	306.44	6.28	-41.6	-42.5	20.7	0.00e+00	0	41	0	3631218688	53	4331
2026-01-30 07:37:56.27	306.10	6.02	-41.2	-42.1	21.1	0.00e+00	0	41	0	3653238784	53	4137
2026-01-30 07:38:00.31	305.77	5.77	-41.7	-42.6	20.5	0.00e+00	0	42	0	3676307456	53	4373
2026-01-30 07:38:04.34	305.44	5.52	-41.4	-42.3	20.8	0.00e+00	0	41	0	3699376128	53	4232
2026-01-30 07:38:08.37	305.12	5.27	-41.7	-42.6	20.5	0.00e+00	0	41	0	3721396224	54	4132
2026-01-30 07:38:12.40	304.81	5.02	-41.8	-42.8	20.3	0.00e+00	0	41	0	3744464896	54	4213
2026-01-30 07:38:16.44	304.50	4.77	-52.4	-64.4	3.8	8.46e-01	0	42	104	3746562048	75	15059
2026-01-30 07:38:20.47	304.19	4.53	-52.8	-64.8	3.8	8.46e-01	0	42	104	3746562048	76	14910
2026-01-30 07:38:24.49	303.89	4.29	-53.2	-65.1	3.8	8.46e-01	0	41	104	3746562048	76	15431
2026-01-30 07:38:28.52	303.60	4.04	-53.3	-65.2	3.8	8.46e-01	0	41	104	3746562048	77	14773
2026-01-30 07:38:32.56	303.31	3.80	-53.2	-65.1	3.8	8.46e-01	0	41	104	3746562048	77	14646
2026-01-30 07:38:36.58	303.03	3.56	-53.1	-65.0	3.8	8.47e-01	0	42	104	3746562048	77	14520
2026-01-30 07:38:40.62	302.75	3.33	-53.1	-65.0	3.8	8.47e-01	0	41	104	3746562048	77	14452
2026-01-30 07:38:44.65	302.48	3.09	-53.0	-65.0	3.8	8.46e-01	0	41	104	3746562048	77	14383
2026-01-30 07:38:48.67	302.21	2.85	-53.0	-65.0	3.8	8.44e-01	0	41	104	3746562048	77	14377
2026-01-30 07:38:52.71	301.94	2.62	-53.0	-64.9	3.8	8.46e-01	0	42	104	3746562048	77	14279
2026-01-30 07:38:56.74	301.68	2.39	-53.0	-64.9	3.8	8.46e-01	0	41	104	3746562048	77	14291
2026-01-30 07:39:00.77	301.42	2.16	-53.0	-64.9	3.8	8.47e-01	0	41	104	3746562048	77	14263

#Closed at: 2026-01-30 07:39:04
#Recorded file [3746 MB]: D:/lorett/data/31041_260130_102623.dat