passes_logs/2026/01/30/R3.2S_Murmansk/R3.2S_Murmansk__20260130_122429_FENGYUN_3D_rec.log

#Pass ID: 20260130_122429_FENGYUN 3D
#Satellite: FENGYUN 3D
#Configuration: FENGYUN 3D
#almurnet v.1.7.20251203
#Start time: 2026-01-30 12:24:28

#Version: 2.2.20231116
#Station: R3.2S_Murmansk
#Location: 33.079688 lon 68.888172 lat
#TLE: 1 43010U 17072A   26029.52179110  .00000394  00000+0  20818-3 0  9997
#TLE: 2 43010  98.9957   1.5649 0002507  83.7772 276.3689 14.19703315425310

#Time	Az	El	Level	Level2	SNR	BER	BlckErr	Temp	State	Recorded	gain1	gain2
2026-01-30 12:24:28.51	171.38	1.97	-52.1	-64.0	3.8	8.46e-01	0	39	0	0	76	13651
2026-01-30 12:24:32.53	171.49	2.22	-52.0	-63.9	3.8	8.46e-01	0	39	104	0	74	15057
2026-01-30 12:24:36.56	171.60	2.48	-52.0	-63.9	3.8	8.48e-01	0	39	104	0	74	15211
2026-01-30 12:24:40.59	171.70	2.74	-52.0	-63.9	3.8	8.46e-01	0	39	104	0	74	15137
2026-01-30 12:24:44.63	171.82	3.00	-52.0	-63.8	3.8	8.46e-01	0	39	104	0	74	15028
2026-01-30 12:24:48.66	171.93	3.27	-52.0	-63.8	3.8	8.45e-01	0	39	104	0	74	14996
2026-01-30 12:24:52.69	172.04	3.53	-51.9	-62.9	3.8	8.46e-01	0	39	104	0	74	13460
2026-01-30 12:24:56.73	172.16	3.80	-51.9	-62.7	3.8	8.46e-01	0	39	104	0	74	13228
2026-01-30 12:25:00.76	172.28	4.08	-51.5	-59.5	4.4	8.33e-01	0	40	0	0	74	9164
2026-01-30 12:25:04.79	172.40	4.35	-49.3	-52.7	10.0	1.57e-02	0	40	0	15728640	70	5259
2026-01-30 12:25:08.82	172.52	4.63	-47.0	-49.1	13.7	1.71e-05	0	40	0	38797312	65	4611
2026-01-30 12:25:12.85	172.64	4.91	-47.2	-49.3	13.4	8.00e-06	0	40	0	60817408	65	4750
2026-01-30 12:25:16.89	172.77	5.19	-51.9	-63.4	3.8	1.17e-01	0	40	104	82837504	74	14328
2026-01-30 12:25:20.92	172.90	5.48	-42.4	-43.4	19.8	0.00e+00	0	40	0	99614720	56	4025
2026-01-30 12:25:24.95	173.03	5.77	-42.1	-43.1	20.2	0.00e+00	0	40	0	121634816	56	3881
2026-01-30 12:25:28.98	173.16	6.06	-41.5	-42.5	20.7	0.00e+00	0	40	0	144703488	55	3851
2026-01-30 12:25:33.02	173.30	6.36	-41.5	-42.5	20.7	0.00e+00	0	40	0	167772160	54	4075
2026-01-30 12:25:37.04	173.43	6.66	-41.4	-42.3	20.9	0.00e+00	0	40	0	189792256	54	4002
2026-01-30 12:25:41.09	173.58	6.96	-41.5	-42.4	20.9	0.00e+00	0	40	0	212860928	54	4025
2026-01-30 12:25:45.12	173.72	7.27	-41.2	-42.1	21.2	0.00e+00	0	40	0	235929600	54	3913
2026-01-30 12:25:49.15	173.87	7.58	-41.1	-42.0	21.4	0.00e+00	0	40	0	257949696	54	3831
2026-01-30 12:25:53.19	174.01	7.89	-41.2	-42.1	21.3	0.00e+00	0	40	0	281018368	54	3887
2026-01-30 12:25:57.22	174.17	8.21	-41.0	-41.9	21.5	0.00e+00	0	40	0	304087040	53	4029
2026-01-30 12:26:01.25	174.32	8.53	-40.9	-41.7	21.6	0.00e+00	0	40	0	326107136	53	3957
2026-01-30 12:26:05.29	174.48	8.85	-40.7	-41.6	21.8	0.00e+00	0	40	0	348127232	53	3892
2026-01-30 12:26:09.33	174.64	9.18	-40.6	-41.4	22.0	0.00e+00	0	40	0	371195904	53	3814
2026-01-30 12:26:13.37	174.81	9.52	-40.6	-41.4	22.0	0.00e+00	0	40	0	394264576	53	3814
2026-01-30 12:26:17.40	174.97	9.85	-40.5	-41.4	22.1	0.00e+00	0	40	0	416284672	52	4012
2026-01-30 12:26:21.43	175.15	10.20	-40.3	-41.2	22.3	0.00e+00	0	40	0	439353344	52	3914
2026-01-30 12:26:25.47	175.32	10.54	-40.4	-41.2	22.3	0.00e+00	0	40	0	462422016	52	3943
2026-01-30 12:26:29.50	175.50	10.90	-40.4	-41.2	22.3	0.00e+00	0	40	0	484442112	52	3950
2026-01-30 12:26:33.53	175.68	11.25	-40.4	-41.3	22.2	0.00e+00	0	40	0	507510784	52	3970
2026-01-30 12:26:37.57	175.87	11.61	-40.3	-41.2	22.3	0.00e+00	0	40	0	530579456	52	3931
2026-01-30 12:26:41.60	176.06	11.98	-40.3	-41.1	22.4	0.00e+00	0	40	0	552599552	52	3911
2026-01-30 12:26:45.63	176.26	12.35	-40.1	-41.0	22.6	0.00e+00	0	40	0	575668224	52	3825
2026-01-30 12:26:49.67	176.46	12.73	-40.1	-40.9	22.6	0.00e+00	0	41	0	598736896	52	3802
2026-01-30 12:26:53.71	176.67	13.12	-40.0	-40.8	22.9	0.00e+00	0	40	0	620756992	51	3969
2026-01-30 12:26:57.74	176.88	13.50	-39.7	-40.6	23.1	0.00e+00	0	40	0	643825664	51	3869
2026-01-30 12:27:01.78	177.10	13.90	-39.6	-40.4	23.2	0.00e+00	0	41	0	666894336	51	3804
2026-01-30 12:27:05.81	177.32	14.30	-39.6	-40.4	23.2	0.00e+00	0	40	0	688914432	51	3795
2026-01-30 12:27:09.85	177.54	14.71	-39.5	-40.3	23.4	0.00e+00	0	41	0	711983104	50	3960
2026-01-30 12:27:13.89	177.78	15.13	-39.4	-40.2	23.4	0.00e+00	0	40	0	734003200	50	3933
2026-01-30 12:27:17.93	178.02	15.55	-39.3	-40.1	23.6	0.00e+00	0	41	0	757071872	50	3898
2026-01-30 12:27:21.96	178.26	15.98	-39.1	-39.9	23.7	0.00e+00	0	41	0	780140544	50	3814
2026-01-30 12:27:26.00	178.52	16.41	-39.0	-39.8	23.9	0.00e+00	0	41	0	802160640	50	3766
2026-01-30 12:27:30.02	178.78	16.85	-38.7	-39.5	24.1	0.00e+00	0	41	0	825229312	49	3849
2026-01-30 12:27:34.05	179.04	17.30	-38.7	-39.5	24.2	0.00e+00	0	41	0	848297984	49	3829
2026-01-30 12:27:38.08	179.32	17.76	-38.7	-39.4	24.2	0.00e+00	0	40	0	870318080	49	3807
2026-01-30 12:27:42.12	179.60	18.23	-38.3	-39.1	24.5	0.00e+00	0	41	0	893386752	48	3872
2026-01-30 12:27:46.15	179.89	18.70	-38.1	-38.9	24.7	0.00e+00	0	41	0	916455424	48	3790
2026-01-30 12:27:50.19	180.19	19.19	-38.2	-39.0	24.6	0.00e+00	0	41	0	938475520	48	3831
2026-01-30 12:27:54.22	180.50	19.68	-38.3	-39.0	24.6	0.00e+00	0	41	0	961544192	48	3848
2026-01-30 12:27:58.25	180.82	20.18	-38.3	-39.0	24.6	0.00e+00	0	41	0	984612864	48	3857
2026-01-30 12:28:02.29	181.15	20.69	-38.1	-38.9	24.7	0.00e+00	0	41	0	1006632960	48	3796
2026-01-30 12:28:06.33	181.49	21.21	-38.2	-39.0	24.6	0.00e+00	0	40	0	1029701632	48	3845
2026-01-30 12:28:10.36	181.84	21.74	-38.1	-38.9	24.8	0.00e+00	0	41	0	1052770304	48	3787
2026-01-30 12:28:14.39	182.20	22.28	-37.4	-38.2	24.9	0.00e+00	0	41	0	1074790400	46	3935
2026-01-30 12:28:18.42	182.58	22.83	-37.0	-37.7	25.3	0.00e+00	0	41	0	1097859072	46	3737
2026-01-30 12:28:22.45	182.96	23.40	-37.1	-37.8	25.1	0.00e+00	0	41	0	1119879168	45	4000
2026-01-30 12:28:26.49	183.37	23.97	-37.1	-37.8	25.2	0.00e+00	0	41	0	1142947840	45	3990
2026-01-30 12:28:30.52	183.78	24.55	-37.0	-37.7	25.3	0.00e+00	0	41	0	1166016512	45	3951
2026-01-30 12:28:34.56	184.21	25.15	-36.9	-37.6	25.3	0.00e+00	0	41	0	1188036608	45	3911
2026-01-30 12:28:38.59	184.66	25.76	-37.0	-37.7	25.2	0.00e+00	0	41	0	1211105280	45	3956
2026-01-30 12:28:42.63	185.13	26.38	-36.8	-37.5	25.4	0.00e+00	0	40	0	1234173952	45	3859
2026-01-30 12:28:46.65	185.61	27.01	-36.8	-37.6	25.4	0.00e+00	0	41	0	1256194048	45	3873
2026-01-30 12:28:50.68	186.11	27.66	-36.9	-37.7	25.3	0.00e+00	0	41	0	1279262720	45	3933
2026-01-30 12:28:54.71	186.63	28.32	-36.7	-37.4	25.5	0.00e+00	0	41	0	1301282816	45	3818
2026-01-30 12:28:58.74	187.17	28.99	-36.8	-37.5	25.5	0.00e+00	0	41	0	1324351488	45	3853
2026-01-30 12:29:02.77	187.74	29.68	-36.8	-37.5	25.9	0.00e+00	0	40	0	1347420160	45	3854
2026-01-30 12:29:06.80	188.33	30.38	-36.8	-37.5	25.9	0.00e+00	0	41	0	1369440256	45	3851
2026-01-30 12:29:10.84	188.94	31.09	-36.6	-37.3	26.1	0.00e+00	0	41	0	1392508928	45	3748
2026-01-30 12:29:14.88	189.59	31.82	-36.7	-37.4	26.0	0.00e+00	0	41	0	1415577600	45	3817
2026-01-30 12:29:18.91	190.26	32.57	-36.7	-37.4	26.0	0.00e+00	0	41	0	1437597696	45	3791
2026-01-30 12:29:22.95	190.96	33.32	-36.6	-37.3	26.1	0.00e+00	0	41	0	1460666368	45	3773
2026-01-30 12:29:26.98	191.69	34.10	-36.6	-37.3	26.2	0.00e+00	0	41	0	1482686464	45	3743
2026-01-30 12:29:31.02	192.47	34.88	-36.3	-37.0	26.3	0.00e+00	0	41	0	1505755136	44	3858
2026-01-30 12:29:35.05	193.27	35.68	-36.5	-37.2	26.3	0.00e+00	0	41	0	1528823808	44	3915
2026-01-30 12:29:39.08	194.12	36.50	-36.2	-36.9	26.5	0.00e+00	0	41	0	1550843904	44	3809
2026-01-30 12:29:43.12	195.01	37.33	-36.2	-36.9	26.5	0.00e+00	0	41	0	1573912576	44	3789
2026-01-30 12:29:47.15	195.95	38.17	-36.1	-36.7	26.6	0.00e+00	0	41	0	1596981248	44	3730
2026-01-30 12:29:51.18	196.93	39.02	-36.1	-36.8	26.5	0.00e+00	0	41	0	1619001344	43	3995
2026-01-30 12:29:55.21	197.97	39.89	-36.2	-36.9	26.4	0.00e+00	0	41	0	1642070016	43	4008
2026-01-30 12:29:59.25	199.06	40.76	-36.2	-36.9	26.5	0.00e+00	0	41	0	1665138688	43	4009
2026-01-30 12:30:03.29	200.22	41.65	-36.4	-37.0	26.3	0.00e+00	0	41	0	1687158784	43	4093
2026-01-30 12:30:07.33	201.44	42.55	-36.5	-37.1	26.3	0.00e+00	0	41	0	1710227456	43	4136
2026-01-30 12:30:11.37	202.73	43.45	-36.5	-37.2	26.3	0.00e+00	0	41	0	1733296128	43	4148
2026-01-30 12:30:15.41	204.09	44.36	-36.5	-37.2	26.3	0.00e+00	0	41	0	1755316224	44	3938
2026-01-30 12:30:19.45	205.54	45.27	-37.1	-37.8	25.8	0.00e+00	0	41	0	1778384896	44	4229
2026-01-30 12:30:23.48	207.06	46.18	-36.8	-37.5	26.1	0.00e+00	0	41	0	1801453568	44	4062
2026-01-30 12:30:27.51	208.67	47.08	-37.1	-37.8	25.8	0.00e+00	0	40	0	1823473664	44	4219
2026-01-30 12:30:31.54	210.38	47.98	-36.8	-37.5	26.1	0.00e+00	0	41	0	1846542336	45	3846
2026-01-30 12:30:35.58	212.19	48.87	-37.1	-37.8	25.8	0.00e+00	0	40	0	1868562432	45	3998
2026-01-30 12:30:39.61	214.10	49.74	-37.2	-37.9	25.8	0.00e+00	0	41	0	1891631104	45	4021
2026-01-30 12:30:43.65	216.12	50.60	-37.1	-37.8	25.9	0.00e+00	0	41	0	1914699776	45	3988
2026-01-30 12:30:47.67	218.26	51.43	-37.1	-37.8	25.9	0.00e+00	0	41	0	1936719872	45	3980
2026-01-30 12:30:51.71	220.52	52.24	-37.5	-38.2	25.5	0.00e+00	0	41	0	1959788544	45	4178
2026-01-30 12:30:55.75	222.90	53.01	-37.6	-38.3	25.5	0.00e+00	0	41	0	1982857216	46	3987
2026-01-30 12:30:59.78	225.41	53.74	-37.6	-38.3	25.5	0.00e+00	0	41	0	2004877312	46	3983
2026-01-30 12:31:03.81	228.03	54.42	-38.1	-38.9	25.1	0.00e+00	0	41	0	2027945984	46	4252
2026-01-30 12:31:07.84	230.78	55.05	-38.1	-38.8	25.1	0.00e+00	0	41	0	2051014656	46	4230
2026-01-30 12:31:11.87	233.64	55.61	-37.7	-38.4	25.5	0.00e+00	0	41	0	2073034752	46	4032
2026-01-30 12:31:15.90	236.62	56.11	-38.0	-38.7	25.3	0.00e+00	0	40	0	2096103424	46	4158
2026-01-30 12:31:19.93	239.69	56.54	-37.6	-38.3	25.6	0.00e+00	0	41	0	2119172096	46	3980
2026-01-30 12:31:23.97	242.86	56.89	-37.7	-38.4	25.6	0.00e+00	0	41	0	2141192192	46	4006
2026-01-30 12:31:28.01	246.10	57.16	-37.7	-38.4	25.5	0.00e+00	0	41	0	2164260864	46	4039
2026-01-30 12:31:32.05	249.40	57.34	-38.1	-38.8	25.2	0.00e+00	0	41	0	2187329536	46	4223
2026-01-30 12:31:36.09	252.72	57.43	-37.9	-38.6	25.4	0.00e+00	0	41	0	2209349632	46	4141
2026-01-30 12:31:40.12	256.05	57.43	-37.7	-38.4	25.6	0.00e+00	0	41	0	2232418304	46	4022
2026-01-30 12:31:44.16	259.38	57.34	-37.8	-38.5	25.5	0.00e+00	0	41	0	2255486976	46	4075
2026-01-30 12:31:48.18	262.65	57.16	-37.6	-38.3	25.7	0.00e+00	0	41	0	2277507072	46	3960
2026-01-30 12:31:52.23	265.90	56.89	-37.9	-38.6	25.5	0.00e+00	0	41	0	2300575744	46	4110
2026-01-30 12:31:56.26	269.06	56.54	-37.9	-38.7	25.4	0.00e+00	0	41	0	2322595840	46	4149
2026-01-30 12:32:00.29	272.13	56.12	-37.8	-38.5	25.5	0.00e+00	0	41	0	2345664512	46	4070
2026-01-30 12:32:04.33	275.11	55.62	-38.6	-39.4	24.8	0.00e+00	0	41	0	2368733184	47	4252
2026-01-30 12:32:08.37	277.98	55.05	-38.8	-39.5	25.2	0.00e+00	0	41	0	2390753280	48	4091
2026-01-30 12:32:12.40	280.73	54.42	-38.4	-39.1	25.5	0.00e+00	0	41	0	2413821952	48	3898
2026-01-30 12:32:16.43	283.35	53.75	-38.4	-39.1	25.6	0.00e+00	0	41	0	2436890624	48	3873
2026-01-30 12:32:20.46	285.85	53.02	-38.4	-39.1	25.6	0.00e+00	0	41	0	2458910720	48	3873
2026-01-30 12:32:24.49	288.23	52.25	-38.1	-38.8	25.8	0.00e+00	0	41	0	2481979392	48	3752
2026-01-30 12:32:28.52	290.48	51.45	-38.1	-38.8	25.8	0.00e+00	0	40	0	2505048064	48	3755
2026-01-30 12:32:32.56	292.62	50.62	-37.4	-38.1	25.8	0.00e+00	0	41	0	2527068160	46	3912
2026-01-30 12:32:36.60	294.65	49.76	-37.4	-38.1	25.9	0.00e+00	0	41	0	2550136832	46	3880
2026-01-30 12:32:40.63	296.56	48.89	-37.5	-38.2	25.8	0.00e+00	0	41	0	2573205504	46	3939
2026-01-30 12:32:44.66	298.36	48.01	-37.4	-38.1	25.9	0.00e+00	0	41	0	2595225600	46	3906
2026-01-30 12:32:48.70	300.07	47.11	-37.4	-38.1	25.9	0.00e+00	0	41	0	2618294272	46	3906
2026-01-30 12:32:52.74	301.68	46.20	-37.3	-38.0	26.1	0.00e+00	0	41	0	2640314368	46	3829
2026-01-30 12:32:56.78	303.21	45.30	-37.2	-37.8	26.2	0.00e+00	0	41	0	2663383040	46	3777
2026-01-30 12:33:00.81	304.64	44.39	-37.2	-37.9	26.1	0.00e+00	0	41	0	2685403136	46	3813
2026-01-30 12:33:04.84	306.00	43.49	-36.9	-37.6	26.3	0.00e+00	0	40	0	2708471808	45	3886
2026-01-30 12:33:08.88	307.29	42.59	-36.9	-37.6	26.3	0.00e+00	0	41	0	2731540480	45	3907
2026-01-30 12:33:12.90	308.50	41.70	-36.8	-37.5	26.4	0.00e+00	0	41	0	2753560576	45	3836
2026-01-30 12:33:16.94	309.66	40.82	-37.0	-37.7	26.3	0.00e+00	0	41	0	2776629248	45	3915
2026-01-30 12:33:20.97	310.75	39.95	-36.9	-37.6	26.2	0.00e+00	0	41	0	2799697920	45	3901
2026-01-30 12:33:25.01	311.79	39.08	-36.9	-37.6	26.2	0.00e+00	0	40	0	2821718016	45	3907
2026-01-30 12:33:29.04	312.77	38.23	-36.9	-37.6	26.2	0.00e+00	0	41	0	2844786688	45	3910
2026-01-30 12:33:33.09	313.71	37.39	-36.6	-37.3	26.5	0.00e+00	0	41	0	2867855360	45	3762
2026-01-30 12:33:37.12	314.60	36.57	-36.6	-37.3	26.5	0.00e+00	0	41	0	2890924032	45	3744
2026-01-30 12:33:41.16	315.45	35.75	-36.4	-37.1	26.6	0.00e+00	0	41	0	2912944128	44	3876
2026-01-30 12:33:45.19	316.26	34.96	-36.7	-37.4	26.3	0.00e+00	0	41	0	2936012800	44	4020
2026-01-30 12:33:49.23	317.03	34.17	-36.8	-37.5	26.2	0.00e+00	0	41	0	2959081472	44	4067
2026-01-30 12:33:53.26	317.77	33.40	-36.3	-37.0	26.6	0.00e+00	0	41	0	2981101568	44	3845
2026-01-30 12:33:57.29	318.47	32.65	-36.7	-37.4	26.3	0.00e+00	0	41	0	3003121664	44	4005
2026-01-30 12:34:01.32	319.14	31.91	-37.0	-37.7	26.0	0.00e+00	0	41	0	3026190336	44	4165
2026-01-30 12:34:05.35	319.78	31.18	-36.8	-37.5	26.2	0.00e+00	0	41	0	3049259008	44	4063
2026-01-30 12:34:09.38	320.40	30.47	-36.7	-37.3	26.3	0.00e+00	0	41	0	3071279104	44	3995
2026-01-30 12:34:13.41	320.99	29.77	-37.0	-37.7	26.0	0.00e+00	0	41	0	3094347776	44	4154
2026-01-30 12:34:17.45	321.55	29.09	-37.1	-37.8	25.8	0.00e+00	0	41	0	3117416448	44	4220
2026-01-30 12:34:21.49	322.10	28.42	-37.0	-37.6	26.0	0.00e+00	0	41	0	3139436544	44	4140
2026-01-30 12:34:25.52	322.62	27.76	-36.7	-37.4	26.2	0.00e+00	0	41	0	3162505216	44	4024
2026-01-30 12:34:29.56	323.12	27.11	-36.8	-37.5	26.1	0.00e+00	0	41	0	3185573888	44	4080
2026-01-30 12:34:33.60	323.61	26.48	-36.9	-37.5	26.0	0.00e+00	0	41	0	3207593984	44	4098
2026-01-30 12:34:37.64	324.07	25.86	-36.9	-37.6	25.9	0.00e+00	0	41	0	3230662656	44	4125
2026-01-30 12:34:41.67	324.52	25.26	-37.0	-37.7	25.8	0.00e+00	0	41	0	3253731328	44	4187
2026-01-30 12:34:45.70	324.95	24.66	-37.1	-37.8	25.7	0.00e+00	0	41	0	3275751424	44	4226
2026-01-30 12:34:49.73	325.37	24.08	-37.2	-37.9	25.7	0.00e+00	0	41	0	3298820096	45	4025
2026-01-30 12:34:53.76	325.77	23.51	-37.2	-37.9	25.6	0.00e+00	0	41	0	3321888768	45	4042
2026-01-30 12:34:57.79	326.16	22.95	-37.3	-37.9	25.6	0.00e+00	0	41	0	3343908864	45	4050
2026-01-30 12:35:01.82	326.54	22.40	-37.4	-38.2	25.4	0.00e+00	0	41	0	3366977536	45	4148
2026-01-30 12:35:05.85	326.90	21.86	-37.6	-38.4	25.2	0.00e+00	0	41	0	3388997632	45	4248
2026-01-30 12:35:09.89	327.25	21.33	-37.8	-38.5	25.0	0.00e+00	0	41	0	3412066304	46	4080
2026-01-30 12:35:13.92	327.60	20.81	-38.0	-38.7	24.8	0.00e+00	0	41	0	3435134976	46	4165
2026-01-30 12:35:17.95	327.93	20.30	-38.0	-38.8	24.8	0.00e+00	0	41	0	3457155072	46	4201
2026-01-30 12:35:21.98	328.25	19.80	-37.9	-38.7	24.8	0.00e+00	0	41	0	3480223744	46	4153
2026-01-30 12:35:26.01	328.56	19.31	-37.9	-38.6	24.9	0.00e+00	0	41	0	3502243840	46	4133
2026-01-30 12:35:30.03	328.86	18.83	-38.0	-38.7	24.7	0.00e+00	0	41	0	3525312512	46	4186
2026-01-30 12:35:34.06	329.15	18.36	-38.2	-38.9	24.5	0.00e+00	0	41	0	3548381184	46	4271
2026-01-30 12:35:38.09	329.43	17.90	-38.6	-39.3	24.2	0.00e+00	0	41	0	3570401280	47	4222
2026-01-30 12:35:42.13	329.71	17.44	-38.7	-39.4	24.1	0.00e+00	0	41	0	3593469952	47	4288
2026-01-30 12:35:46.16	329.98	16.99	-39.2	-39.9	24.1	0.00e+00	0	41	0	3616538624	49	4032
2026-01-30 12:35:50.19	330.24	16.55	-39.4	-40.1	23.9	0.00e+00	0	41	0	3638558720	49	4127
2026-01-30 12:35:54.22	330.50	16.11	-39.5	-40.3	23.7	0.00e+00	0	41	0	3661627392	49	4212
2026-01-30 12:35:58.26	330.74	15.69	-39.7	-40.5	23.5	0.00e+00	0	41	0	3684696064	49	4310
2026-01-30 12:36:02.29	330.99	15.27	-39.7	-40.5	23.5	0.00e+00	0	41	0	3706716160	50	4086
2026-01-30 12:36:06.32	331.22	14.85	-39.8	-40.6	23.4	0.00e+00	0	41	0	3729784832	50	4136
2026-01-30 12:36:10.35	331.45	14.45	-39.9	-40.7	23.3	0.00e+00	0	41	0	3751804928	50	4157
2026-01-30 12:36:14.39	331.67	14.05	-40.0	-40.7	23.2	0.00e+00	0	41	0	3774873600	50	4187
2026-01-30 12:36:18.43	331.89	13.65	-39.8	-40.6	23.3	0.00e+00	0	41	0	3797942272	50	4135
2026-01-30 12:36:22.46	332.11	13.26	-39.8	-40.6	23.3	0.00e+00	0	41	0	3819962368	50	4129
2026-01-30 12:36:26.50	332.31	12.88	-39.8	-40.6	23.3	0.00e+00	0	41	0	3843031040	50	4122
2026-01-30 12:36:30.54	332.52	12.50	-40.0	-40.7	23.1	0.00e+00	0	41	0	3866099712	50	4188
2026-01-30 12:36:34.58	332.72	12.13	-40.0	-40.8	23.0	0.00e+00	0	41	0	3888119808	50	4208
2026-01-30 12:36:38.61	332.91	11.76	-40.2	-41.0	22.9	0.00e+00	0	41	0	3911188480	51	4062
2026-01-30 12:36:42.65	333.10	11.40	-40.4	-41.3	22.6	0.00e+00	0	41	0	3934257152	51	4199
2026-01-30 12:36:46.68	333.29	11.05	-40.5	-41.3	22.5	0.00e+00	0	41	0	3956277248	51	4215
2026-01-30 12:36:50.72	333.47	10.70	-40.7	-41.5	22.3	0.00e+00	0	41	0	3979345920	51	4316
2026-01-30 12:36:54.75	333.65	10.35	-40.7	-41.6	22.1	0.00e+00	0	41	0	4002414592	52	4102
2026-01-30 12:36:58.79	333.82	10.01	-40.7	-41.6	22.1	0.00e+00	0	41	0	4024434688	52	4115
2026-01-30 12:37:02.82	333.99	9.67	-40.7	-41.6	22.1	0.00e+00	0	41	0	4047503360	52	4106
2026-01-30 12:37:06.85	334.16	9.34	-40.9	-41.8	21.9	0.00e+00	0	41	0	4070572032	52	4197
2026-01-30 12:37:10.89	334.32	9.01	-41.0	-41.9	21.7	0.00e+00	0	41	0	4092592128	52	4259
2026-01-30 12:37:14.93	334.49	8.68	-41.1	-42.0	21.6	0.00e+00	0	41	0	4115660800	52	4297
2026-01-30 12:37:18.97	334.64	8.36	-41.2	-42.1	21.5	0.00e+00	0	41	0	4137680896	52	4342
2026-01-30 12:37:23.01	334.80	8.05	-41.3	-42.2	21.4	0.00e+00	0	41	0	4160749568	53	4147
2026-01-30 12:37:27.05	334.95	7.73	-41.5	-42.4	21.1	0.00e+00	0	41	0	4183818240	53	4254
2026-01-30 12:37:31.08	335.10	7.42	-41.5	-42.4	21.0	0.00e+00	0	41	0	4205838336	53	4281
2026-01-30 12:37:35.11	335.25	7.12	-41.5	-42.4	21.1	0.00e+00	0	41	0	4228907008	53	4246
2026-01-30 12:37:39.15	335.39	6.82	-41.6	-42.6	20.9	0.00e+00	0	41	0	4251975680	53	4341
2026-01-30 12:37:43.18	335.53	6.52	-41.6	-42.6	20.8	0.00e+00	0	41	0	4273995776	54	4103
2026-01-30 12:37:47.22	335.67	6.22	-41.5	-42.5	20.8	0.00e+00	0	41	0	4297064448	54	4059
2026-01-30 12:37:51.25	335.81	5.93	-41.8	-42.8	20.5	0.00e+00	0	41	0	4320133120	54	4221
2026-01-30 12:37:55.27	335.94	5.64	-41.8	-42.8	20.5	0.00e+00	0	41	0	4342153216	55	3973
2026-01-30 12:37:59.31	336.07	5.36	-41.9	-42.8	20.3	0.00e+00	0	41	0	4365221888	55	3991
2026-01-30 12:38:03.34	336.20	5.07	-42.0	-43.0	20.1	0.00e+00	0	41	0	4388290560	55	4059
2026-01-30 12:38:07.37	336.33	4.79	-53.1	-65.0	3.8	8.46e-01	0	41	104	4395630592	76	15349
2026-01-30 12:38:11.41	336.45	4.52	-53.6	-65.5	3.8	8.46e-01	0	41	104	4395630592	77	15344
2026-01-30 12:38:15.45	336.58	4.24	-53.6	-65.5	3.8	8.44e-01	0	41	104	4395630592	77	15304
2026-01-30 12:38:19.48	336.70	3.97	-53.3	-65.3	3.8	8.47e-01	0	41	104	4395630592	77	14893
2026-01-30 12:38:23.51	336.82	3.70	-53.5	-65.4	3.8	8.45e-01	0	41	104	4395630592	77	15128
2026-01-30 12:38:27.53	336.93	3.44	-53.3	-65.3	3.8	8.47e-01	0	41	104	4395630592	77	14921
2026-01-30 12:38:31.57	337.05	3.17	-53.3	-65.2	3.8	8.47e-01	0	41	104	4395630592	77	14780
2026-01-30 12:38:35.59	337.16	2.91	-53.2	-65.2	3.8	8.46e-01	0	41	104	4395630592	77	14710
2026-01-30 12:38:39.62	337.28	2.65	-53.2	-65.1	3.8	8.46e-01	0	41	104	4395630592	77	14655
2026-01-30 12:38:43.65	337.39	2.39	-53.2	-65.1	3.8	8.46e-01	0	41	104	4395630592	77	14668
2026-01-30 12:38:47.68	337.50	2.14	-53.2	-65.1	3.8	8.45e-01	0	41	104	4395630592	77	14599
2026-01-30 12:38:51.72	337.60	1.89	-53.1	-65.1	3.8	8.46e-01	0	41	104	4395630592	77	14569

#Closed at: 2026-01-30 12:38:52
#Recorded file [4395 MB]: D:/lorett/data/31041_260130_152428.dat