passes_logs/2026/01/30/R3.2S_Murmansk/R3.2S_Murmansk__20260130_170434_JL1KF01B_rec.log

#Pass ID: 20260130_170434_JL1KF01B
#Satellite: JL1KF01B
#Configuration: 01B_900M
#almurnet v.1.7.20251203
#Start time: 2026-01-30 17:04:36

#Version: 2.2.20231116
#Station: R3.2S_Murmansk
#Location: 33.079688 lon 68.888172 lat
#TLE: 1 49003U 21061A   26030.17054890  .00005909  00000+0  37580-3 0  9999
#TLE: 2 49003  97.5345 108.8937 0007975 174.4542 185.6776 15.09158609252522

#Time	Az	El	Level	Level2	SNR	BER	BlckErr	Temp	State	Recorded	gain1	gain2
2026-01-30 17:04:36.13	106.04	2.12	-54.3	-56.4	6.2	0.00e+00	0	41	0	0	79	19071
2026-01-30 17:04:39.14	105.83	2.31	-54.2	-56.3	6.2	0.00e+00	0	41	104	0	80	17855
2026-01-30 17:04:42.17	105.61	2.50	-54.2	-56.2	6.2	0.00e+00	0	41	104	0	80	17742
2026-01-30 17:04:45.20	105.39	2.70	-54.3	-56.4	6.2	0.00e+00	0	41	104	0	80	18085
2026-01-30 17:04:48.22	105.17	2.90	-54.4	-56.5	6.2	0.00e+00	0	41	104	0	80	18323
2026-01-30 17:04:51.24	104.94	3.10	-54.4	-56.4	6.2	0.00e+00	0	41	104	0	80	18160
2026-01-30 17:04:54.27	104.70	3.30	-54.3	-56.3	6.2	0.00e+00	0	42	104	0	80	17952
2026-01-30 17:04:57.30	104.47	3.50	-54.1	-56.2	6.2	0.00e+00	0	42	104	0	80	17720
2026-01-30 17:05:00.33	104.23	3.70	-54.0	-56.1	6.2	0.00e+00	0	42	104	0	79	18463
2026-01-30 17:05:03.35	103.98	3.91	-53.8	-55.9	6.2	0.00e+00	0	42	104	0	79	18100
2026-01-30 17:05:06.38	103.73	4.12	-53.7	-55.7	6.2	0.00e+00	0	42	104	0	79	17765
2026-01-30 17:05:09.41	103.48	4.32	-53.3	-55.4	6.2	0.00e+00	0	42	104	0	78	18114
2026-01-30 17:05:12.43	103.22	4.53	-52.8	-54.9	6.2	0.00e+00	0	42	104	0	77	18158
2026-01-30 17:05:15.46	102.95	4.74	-52.8	-54.9	6.2	0.00e+00	0	42	104	0	77	18004
2026-01-30 17:05:18.49	102.69	4.96	-52.8	-54.8	6.2	0.00e+00	0	42	104	0	77	17966
2026-01-30 17:05:21.51	102.41	5.17	-52.8	-54.9	6.2	0.00e+00	0	42	104	0	77	18105
2026-01-30 17:05:24.54	102.13	5.39	-53.1	-55.2	6.2	0.00e+00	0	43	104	0	77	18744
2026-01-30 17:05:27.57	101.85	5.61	-53.2	-55.3	6.2	0.00e+00	0	42	104	0	77	18861
2026-01-30 17:05:30.60	101.56	5.83	-53.1	-55.2	6.2	0.00e+00	0	43	104	0	77	18714
2026-01-30 17:05:33.62	101.26	6.05	-53.2	-55.3	6.2	0.00e+00	0	43	104	0	77	18835
2026-01-30 17:05:36.64	100.96	6.27	-53.2	-55.3	6.2	0.00e+00	0	43	104	0	77	18913
2026-01-30 17:05:39.67	100.66	6.50	-53.3	-55.3	6.2	0.00e+00	0	43	104	0	77	19007
2026-01-30 17:05:42.69	100.34	6.73	-53.2	-55.3	6.2	0.00e+00	0	43	104	0	77	18890
2026-01-30 17:05:45.72	100.03	6.95	-53.2	-55.3	6.2	0.00e+00	0	43	104	0	77	18956
2026-01-30 17:05:48.74	99.70	7.18	-53.2	-55.3	6.2	0.00e+00	0	43	104	0	77	18998
2026-01-30 17:05:51.77	99.37	7.42	-53.3	-55.4	6.2	0.00e+00	0	43	104	0	77	19094
2026-01-30 17:05:54.79	99.03	7.65	-53.2	-55.3	6.2	0.00e+00	0	43	104	0	77	18908
2026-01-30 17:05:57.82	98.68	7.89	-53.2	-55.3	6.2	0.00e+00	0	43	104	0	77	18963
2026-01-30 17:06:00.84	98.33	8.13	-53.2	-55.3	6.2	0.00e+00	0	43	104	0	77	18880
2026-01-30 17:06:03.87	97.97	8.37	-53.2	-55.4	6.2	0.00e+00	0	43	104	0	77	19052
2026-01-30 17:06:06.89	97.61	8.61	-53.1	-55.2	6.2	0.00e+00	0	43	104	0	77	18738
2026-01-30 17:06:09.92	97.23	8.86	-53.2	-55.3	6.2	0.00e+00	0	43	104	0	77	18883
2026-01-30 17:06:12.95	96.85	9.10	-53.1	-55.2	6.2	0.00e+00	0	43	104	0	77	18684
2026-01-30 17:06:15.97	96.46	9.35	-53.2	-55.3	6.2	0.00e+00	0	43	104	0	77	18830
2026-01-30 17:06:18.99	96.06	9.60	-53.0	-55.1	6.2	0.00e+00	0	43	104	0	77	18580
2026-01-30 17:06:22.02	95.65	9.86	-53.1	-55.2	6.2	0.00e+00	0	43	104	0	77	18638
2026-01-30 17:06:25.05	95.24	10.11	-53.0	-55.1	6.2	0.00e+00	0	43	104	0	77	18474
2026-01-30 17:06:28.07	94.81	10.37	-53.1	-55.2	6.2	0.00e+00	0	43	104	0	77	18666
2026-01-30 17:06:31.10	94.38	10.63	-53.0	-55.1	6.2	0.00e+00	0	43	104	0	77	18433
2026-01-30 17:06:34.12	93.94	10.89	-53.0	-55.1	6.2	0.00e+00	0	43	104	0	77	18555
2026-01-30 17:06:37.14	93.48	11.15	-52.9	-55.0	6.2	0.00e+00	0	43	104	0	77	18272
2026-01-30 17:06:40.17	93.02	11.42	-53.0	-55.1	6.2	0.00e+00	0	43	104	0	77	18564
2026-01-30 17:06:43.19	92.55	11.68	-52.9	-55.0	6.2	0.00e+00	0	43	104	0	77	18357
2026-01-30 17:06:46.21	92.07	11.95	-52.9	-55.0	6.2	0.00e+00	0	43	104	0	77	18371
2026-01-30 17:06:49.23	91.57	12.22	-52.9	-55.0	6.2	0.00e+00	0	43	104	0	77	18218
2026-01-30 17:06:52.26	91.07	12.50	-53.0	-55.1	6.2	0.00e+00	0	43	104	0	77	18455
2026-01-30 17:06:55.29	90.55	12.77	-52.9	-55.0	6.2	0.00e+00	0	43	104	0	77	18269
2026-01-30 17:06:58.31	90.02	13.05	-52.9	-55.0	6.2	0.00e+00	0	43	104	0	77	18281
2026-01-30 17:07:01.34	89.48	13.33	-52.9	-55.0	6.2	0.00e+00	0	43	104	0	77	18195
2026-01-30 17:07:04.37	88.93	13.61	-52.9	-55.0	6.2	0.00e+00	0	43	104	0	77	18317
2026-01-30 17:07:07.39	88.36	13.89	-52.9	-55.0	6.2	0.00e+00	0	43	104	0	77	18251
2026-01-30 17:07:10.41	87.78	14.17	-52.9	-55.0	6.2	0.00e+00	0	43	104	0	77	18215
2026-01-30 17:07:13.44	87.19	14.46	-52.9	-54.9	6.2	0.00e+00	0	43	104	0	77	18145
2026-01-30 17:07:16.46	86.59	14.75	-52.9	-55.0	6.2	0.00e+00	0	44	104	0	77	18310
2026-01-30 17:07:19.49	85.97	15.03	-52.9	-55.0	6.2	0.00e+00	0	43	104	0	77	18235
2026-01-30 17:07:22.52	85.33	15.32	-52.9	-55.0	6.2	0.00e+00	0	43	104	0	77	18194
2026-01-30 17:07:25.54	84.69	15.61	-52.9	-55.0	6.2	0.00e+00	0	43	104	0	77	18286
2026-01-30 17:07:28.57	84.03	15.91	-52.9	-55.0	6.2	0.00e+00	0	43	104	0	77	18371
2026-01-30 17:07:31.59	83.35	16.20	-52.9	-55.0	6.2	0.00e+00	0	43	104	0	77	18379
2026-01-30 17:07:34.61	82.66	16.49	-52.9	-55.0	6.2	0.00e+00	0	43	104	0	77	18289
2026-01-30 17:07:37.64	81.95	16.78	-53.0	-55.0	6.2	0.00e+00	0	43	104	0	77	18331
2026-01-30 17:07:40.66	81.22	17.08	-53.0	-55.0	6.2	0.00e+00	0	44	104	0	77	18379
2026-01-30 17:07:43.69	80.48	17.37	-53.0	-55.1	6.2	0.00e+00	0	43	104	0	77	18443
2026-01-30 17:07:46.71	79.72	17.66	-53.0	-55.1	6.2	0.00e+00	0	44	104	0	77	18440
2026-01-30 17:07:49.74	78.95	17.96	-53.0	-55.1	6.2	0.00e+00	0	43	104	0	77	18511
2026-01-30 17:07:52.77	78.15	18.25	-53.1	-55.1	6.2	0.00e+00	0	44	104	0	77	18601
2026-01-30 17:07:55.79	77.35	18.54	-53.1	-55.2	6.2	0.00e+00	0	44	104	0	77	18639
2026-01-30 17:07:58.81	76.52	18.83	-53.1	-55.1	6.2	0.00e+00	0	43	104	0	77	18601
2026-01-30 17:08:01.84	75.67	19.12	-53.1	-55.2	6.2	0.00e+00	0	44	104	0	77	18675
2026-01-30 17:08:04.86	74.81	19.41	-53.1	-55.2	6.2	0.00e+00	0	44	104	0	77	18793
2026-01-30 17:08:07.89	73.92	19.69	-53.1	-55.2	6.2	0.00e+00	0	43	104	0	77	18790
2026-01-30 17:08:10.92	73.02	19.97	-53.1	-55.2	6.2	0.00e+00	0	44	104	0	77	18739
2026-01-30 17:08:13.94	72.10	20.25	-53.2	-55.3	6.2	0.00e+00	0	43	104	0	77	18846
2026-01-30 17:08:16.97	71.16	20.53	-53.2	-55.3	6.2	0.00e+00	0	44	104	0	77	18933
2026-01-30 17:08:19.99	70.21	20.80	-53.2	-55.3	6.2	0.00e+00	0	44	104	0	77	18923
2026-01-30 17:08:23.02	69.23	21.06	-53.2	-55.3	6.2	0.00e+00	0	43	104	0	77	18900
2026-01-30 17:08:26.05	68.23	21.33	-53.2	-55.3	6.2	0.00e+00	0	43	104	0	77	19009
2026-01-30 17:08:29.07	67.22	21.58	-53.3	-55.3	6.2	0.00e+00	0	44	104	0	77	19029
2026-01-30 17:08:32.09	66.18	21.83	-53.3	-55.4	6.2	0.00e+00	0	43	104	0	77	19078
2026-01-30 17:08:35.11	65.13	22.08	-53.2	-55.3	6.2	0.00e+00	0	43	104	0	77	18972
2026-01-30 17:08:38.13	64.06	22.31	-53.3	-55.4	6.2	0.00e+00	0	43	104	0	77	19075
2026-01-30 17:08:41.16	62.97	22.54	-53.3	-55.4	6.2	0.00e+00	0	43	104	0	77	19176
2026-01-30 17:08:44.18	61.87	22.76	-53.3	-55.4	6.2	0.00e+00	0	44	104	0	77	19147
2026-01-30 17:08:47.21	60.74	22.98	-53.3	-55.4	6.2	0.00e+00	0	44	104	0	77	19150
2026-01-30 17:08:50.23	59.60	23.18	-53.3	-55.4	6.2	0.00e+00	0	44	104	0	77	19156
2026-01-30 17:08:53.25	58.45	23.38	-53.3	-55.4	6.2	0.00e+00	0	44	104	0	77	19234
2026-01-30 17:08:56.28	57.27	23.56	-53.3	-55.4	6.2	0.00e+00	0	44	104	0	77	19232
2026-01-30 17:08:59.31	56.08	23.74	-53.3	-55.4	6.2	0.00e+00	0	44	104	0	77	19182
2026-01-30 17:09:02.34	54.88	23.90	-53.4	-55.4	6.2	0.00e+00	0	44	104	0	77	19233
2026-01-30 17:09:05.36	53.66	24.05	-53.4	-55.4	6.2	0.00e+00	0	44	104	0	77	19256
2026-01-30 17:09:08.39	52.43	24.19	-53.4	-55.4	6.2	0.00e+00	0	44	104	0	77	19235
2026-01-30 17:09:11.41	51.20	24.32	-53.4	-55.4	6.2	0.00e+00	0	44	104	0	77	19234
2026-01-30 17:09:14.44	49.94	24.43	-53.4	-55.5	6.2	0.00e+00	0	44	104	0	77	19326
2026-01-30 17:09:17.47	48.68	24.54	-53.4	-55.5	6.2	0.00e+00	0	44	104	0	77	19333
2026-01-30 17:09:20.50	47.41	24.62	-53.4	-55.5	6.2	0.00e+00	0	44	104	0	77	19352
2026-01-30 17:09:23.53	46.13	24.70	-53.4	-55.5	6.2	0.00e+00	0	44	104	0	77	19319
2026-01-30 17:09:26.55	44.85	24.76	-53.4	-55.5	6.2	0.00e+00	0	44	104	0	77	19406
2026-01-30 17:09:29.57	43.57	24.80	-53.4	-55.5	6.2	0.00e+00	0	44	104	0	77	19398
2026-01-30 17:09:32.60	42.28	24.83	-53.5	-55.5	6.2	0.00e+00	0	44	104	0	77	19459
2026-01-30 17:09:35.62	40.99	24.85	-53.4	-55.5	6.2	0.00e+00	0	44	104	0	77	19478
2026-01-30 17:09:38.64	39.70	24.85	-53.4	-55.5	6.2	0.00e+00	0	44	104	0	77	19343
2026-01-30 17:09:41.67	38.41	24.84	-53.5	-55.5	6.2	0.00e+00	0	44	104	0	77	19453
2026-01-30 17:09:44.70	37.11	24.81	-53.5	-55.5	6.2	0.00e+00	0	44	104	0	77	19479
2026-01-30 17:09:47.72	35.83	24.77	-53.4	-55.5	6.2	0.00e+00	0	44	104	0	77	19451
2026-01-30 17:09:50.75	34.54	24.71	-53.4	-55.5	6.2	0.00e+00	0	44	104	0	77	19395
2026-01-30 17:09:53.78	33.27	24.64	-53.5	-55.6	6.2	0.00e+00	0	44	104	0	77	19482
2026-01-30 17:09:56.80	32.00	24.55	-53.5	-55.6	6.2	0.00e+00	0	44	104	0	77	19521
2026-01-30 17:09:59.82	30.74	24.46	-53.4	-55.5	6.2	0.00e+00	0	44	104	0	77	19409
2026-01-30 17:10:02.85	29.49	24.34	-53.4	-55.5	6.2	0.00e+00	0	44	104	0	77	19408
2026-01-30 17:10:05.88	28.24	24.22	-53.4	-55.5	6.2	0.00e+00	0	44	104	0	77	19384
2026-01-30 17:10:08.90	27.01	24.08	-53.5	-55.5	6.2	0.00e+00	0	44	104	0	77	19441
2026-01-30 17:10:11.93	25.79	23.93	-53.4	-55.5	6.2	0.00e+00	0	44	104	0	77	19461
2026-01-30 17:10:14.95	24.59	23.77	-53.4	-55.5	6.2	0.00e+00	0	44	104	0	77	19372
2026-01-30 17:10:17.98	23.40	23.60	-53.4	-55.5	6.2	0.00e+00	0	44	104	0	77	19448
2026-01-30 17:10:21.00	22.22	23.42	-53.4	-55.5	6.2	0.00e+00	0	44	104	0	77	19397
2026-01-30 17:10:24.03	21.06	23.22	-53.4	-55.5	6.2	0.00e+00	0	44	104	0	77	19459
2026-01-30 17:10:27.05	19.92	23.02	-53.4	-55.5	6.2	0.00e+00	0	44	104	0	77	19352
2026-01-30 17:10:30.07	18.79	22.81	-53.4	-55.5	6.2	0.00e+00	0	44	104	0	77	19363
2026-01-30 17:10:33.10	17.68	22.59	-53.4	-55.5	6.2	0.00e+00	0	44	104	0	77	19388
2026-01-30 17:10:36.13	16.59	22.36	-53.4	-55.5	6.2	0.00e+00	0	44	104	0	77	19324
2026-01-30 17:10:39.15	15.52	22.12	-53.4	-55.5	6.2	0.00e+00	0	44	104	0	77	19324
2026-01-30 17:10:42.18	14.46	21.88	-53.4	-55.5	6.2	0.00e+00	0	44	104	0	77	19359
2026-01-30 17:10:45.20	13.42	21.63	-53.4	-55.5	6.2	0.00e+00	0	44	104	0	77	19278
2026-01-30 17:10:48.23	12.40	21.38	-53.4	-55.5	6.2	0.00e+00	0	44	104	0	77	19291
2026-01-30 17:10:51.26	11.40	21.12	-53.4	-55.4	6.2	0.00e+00	0	44	104	0	77	19209
2026-01-30 17:10:54.28	10.42	20.85	-53.3	-55.5	6.2	0.00e+00	0	44	104	0	77	19279
2026-01-30 17:10:57.31	9.46	20.58	-53.4	-55.4	6.2	0.00e+00	0	44	104	0	77	19248
2026-01-30 17:11:00.33	8.52	20.31	-53.3	-55.4	6.2	0.00e+00	0	44	104	0	77	19178
2026-01-30 17:11:03.35	7.60	20.03	-53.3	-55.4	6.2	0.00e+00	0	44	104	0	77	19190
2026-01-30 17:11:06.38	6.69	19.75	-53.3	-55.4	6.2	0.00e+00	0	44	104	0	77	19143
2026-01-30 17:11:09.41	5.80	19.46	-53.3	-55.4	6.2	0.00e+00	0	44	104	0	77	19196
2026-01-30 17:11:12.43	4.94	19.18	-53.3	-55.4	6.2	0.00e+00	0	44	104	0	77	19100
2026-01-30 17:11:15.45	4.09	18.89	-53.3	-55.4	6.2	0.00e+00	0	44	104	0	77	19108
2026-01-30 17:11:18.48	3.26	18.60	-53.3	-55.4	6.2	0.00e+00	0	44	104	0	77	19057
2026-01-30 17:11:21.51	2.44	18.31	-53.3	-55.3	6.2	0.00e+00	0	44	104	0	77	19013
2026-01-30 17:11:24.53	1.65	18.02	-53.2	-55.3	6.2	0.00e+00	0	44	104	0	77	18963
2026-01-30 17:11:27.56	0.87	17.72	-53.2	-55.3	6.2	0.00e+00	0	44	104	0	77	18949
2026-01-30 17:11:30.59	0.11	17.43	-53.2	-55.3	6.2	0.00e+00	0	44	104	0	77	18895
2026-01-30 17:11:33.61	359.36	17.14	-53.2	-55.3	6.2	0.00e+00	0	44	104	0	77	18866
2026-01-30 17:11:36.64	358.63	16.84	-53.2	-55.3	6.2	0.00e+00	0	44	104	0	77	18864
2026-01-30 17:11:39.66	357.92	16.55	-53.2	-55.2	6.2	0.00e+00	0	44	104	0	77	18814
2026-01-30 17:11:42.69	357.23	16.26	-53.1	-55.2	6.2	0.00e+00	0	44	104	0	77	18767
2026-01-30 17:11:45.72	356.55	15.96	-53.1	-55.2	6.2	0.00e+00	0	44	104	0	77	18782
2026-01-30 17:11:48.74	355.88	15.67	-53.1	-55.2	6.2	0.00e+00	0	44	104	0	77	18751
2026-01-30 17:11:51.77	355.23	15.38	-53.1	-55.2	6.2	0.00e+00	0	44	104	0	77	18668
2026-01-30 17:11:54.79	354.60	15.09	-53.1	-55.2	6.2	0.00e+00	0	44	104	0	77	18630
2026-01-30 17:11:57.82	353.98	14.80	-53.1	-55.1	6.2	0.00e+00	0	44	104	0	77	18569
2026-01-30 17:12:00.84	353.37	14.52	-53.0	-55.1	6.2	0.00e+00	0	44	104	0	77	18565
2026-01-30 17:12:03.86	352.78	14.23	-53.0	-55.1	6.2	0.00e+00	0	44	104	0	77	18534
2026-01-30 17:12:06.89	352.20	13.95	-53.0	-55.1	6.2	0.00e+00	0	44	104	0	77	18434
2026-01-30 17:12:09.91	351.63	13.66	-53.0	-55.1	6.2	0.00e+00	0	44	104	0	77	18446
2026-01-30 17:12:12.94	351.08	13.38	-53.0	-55.1	6.2	0.00e+00	0	44	104	0	77	18404
2026-01-30 17:12:15.97	350.53	13.10	-53.0	-55.1	6.2	0.00e+00	0	44	104	0	77	18398
2026-01-30 17:12:18.99	350.01	12.83	-52.9	-55.0	6.2	0.00e+00	0	44	104	0	77	18250
2026-01-30 17:12:22.02	349.49	12.55	-52.9	-55.0	6.2	0.00e+00	0	44	104	0	77	18246
2026-01-30 17:12:25.05	348.98	12.28	-52.9	-55.0	6.2	0.00e+00	0	44	104	0	77	18317
2026-01-30 17:12:28.07	348.48	12.01	-52.9	-55.0	6.2	0.00e+00	0	44	104	0	77	18271
2026-01-30 17:12:31.10	348.00	11.74	-52.9	-54.9	6.2	0.00e+00	0	44	104	0	77	18151
2026-01-30 17:12:34.12	347.52	11.47	-52.9	-54.9	6.2	0.00e+00	0	44	104	0	77	18142
2026-01-30 17:12:37.14	347.06	11.20	-52.8	-54.9	6.2	0.00e+00	0	44	104	0	77	18114
2026-01-30 17:12:40.17	346.61	10.94	-52.8	-54.9	6.2	0.00e+00	0	44	104	0	77	18082
2026-01-30 17:12:43.19	346.16	10.68	-52.8	-54.9	6.2	0.00e+00	0	44	104	0	77	18029
2026-01-30 17:12:46.22	345.73	10.42	-52.8	-54.8	6.2	0.00e+00	0	44	104	0	77	17939
2026-01-30 17:12:49.24	345.30	10.16	-52.7	-54.8	6.2	0.00e+00	0	44	104	0	77	17947
2026-01-30 17:12:52.27	344.89	9.91	-52.7	-54.8	6.2	0.00e+00	0	44	104	0	77	17917
2026-01-30 17:12:55.29	344.48	9.65	-52.7	-54.8	6.2	0.00e+00	0	44	104	0	77	17916
2026-01-30 17:12:58.32	344.08	9.40	-52.6	-54.8	6.2	0.00e+00	0	44	104	0	77	17772
2026-01-30 17:13:01.35	343.69	9.15	-52.6	-54.7	6.2	0.00e+00	0	44	104	0	77	17618
2026-01-30 17:13:04.37	343.30	8.91	-52.6	-54.7	6.2	0.00e+00	0	44	104	0	77	17623
2026-01-30 17:13:07.40	342.93	8.66	-52.6	-54.6	6.2	0.00e+00	0	44	104	0	77	17558
2026-01-30 17:13:10.42	342.56	8.42	-52.5	-54.6	6.2	0.00e+00	0	44	104	0	77	17412
2026-01-30 17:13:13.45	342.20	8.18	-52.4	-54.5	6.2	0.00e+00	0	44	104	0	76	18335
2026-01-30 17:13:16.47	341.85	7.94	-52.4	-54.5	6.2	0.00e+00	0	44	104	0	76	18339
2026-01-30 17:13:19.49	341.50	7.70	-52.4	-54.5	6.2	0.00e+00	0	44	104	0	76	18366
2026-01-30 17:13:22.52	341.17	7.47	-52.2	-54.2	6.2	0.00e+00	0	44	104	0	75	18786
2026-01-30 17:13:25.54	340.83	7.23	-52.3	-54.4	6.2	0.00e+00	0	44	104	0	75	19251
2026-01-30 17:13:28.57	340.51	7.00	-52.3	-54.4	6.2	0.00e+00	0	44	104	0	75	19141
2026-01-30 17:13:31.59	340.19	6.77	-52.4	-54.4	6.2	0.00e+00	0	44	104	0	75	19236
2026-01-30 17:13:34.61	339.88	6.54	-52.3	-54.4	6.2	0.00e+00	0	44	104	0	75	19117
2026-01-30 17:13:37.63	339.57	6.32	-52.2	-54.3	6.2	0.00e+00	0	44	104	0	75	18972
2026-01-30 17:13:40.66	339.27	6.10	-52.2	-54.3	6.2	0.00e+00	0	44	104	0	75	18922
2026-01-30 17:13:43.69	338.97	5.87	-52.2	-54.4	6.2	0.00e+00	0	44	104	0	75	19040
2026-01-30 17:13:46.71	338.69	5.65	-52.2	-54.3	6.2	0.00e+00	0	44	104	0	75	18852
2026-01-30 17:13:49.74	338.40	5.43	-52.1	-54.2	6.2	0.00e+00	0	44	104	0	75	18659
2026-01-30 17:13:52.76	338.12	5.22	-52.0	-54.1	6.2	0.00e+00	0	44	104	0	75	18431
2026-01-30 17:13:55.78	337.85	5.00	-52.2	-54.3	6.2	0.00e+00	0	44	104	0	75	18983
2026-01-30 17:13:58.81	337.58	4.79	-53.5	-55.6	6.2	0.00e+00	0	44	104	0	77	19569
2026-01-30 17:14:01.84	337.32	4.58	-53.9	-56.0	6.2	0.00e+00	0	44	104	0	78	19340
2026-01-30 17:14:04.86	337.06	4.37	-53.9	-56.0	6.2	0.00e+00	0	44	104	0	78	19397
2026-01-30 17:14:07.89	336.80	4.16	-53.7	-55.8	6.2	0.00e+00	0	44	104	0	78	18914
2026-01-30 17:14:10.91	336.56	3.95	-53.5	-55.6	6.2	0.00e+00	0	44	104	0	78	18431
2026-01-30 17:14:13.94	336.31	3.75	-53.5	-55.7	6.2	0.00e+00	0	44	104	0	78	18613
2026-01-30 17:14:16.96	336.07	3.54	-53.5	-55.6	6.2	0.00e+00	0	44	104	0	78	18601
2026-01-30 17:14:19.99	335.83	3.34	-53.4	-55.5	6.2	0.00e+00	0	44	104	0	78	18351
2026-01-30 17:14:23.01	335.60	3.14	-53.4	-55.5	6.2	0.00e+00	0	44	104	0	78	18316
2026-01-30 17:14:26.03	335.37	2.94	-53.4	-55.5	6.2	0.00e+00	0	44	104	0	78	18213
2026-01-30 17:14:29.05	335.15	2.74	-53.4	-55.5	6.2	0.00e+00	0	44	104	0	78	18197
2026-01-30 17:14:32.08	334.93	2.55	-53.3	-55.4	6.2	0.00e+00	0	44	104	0	78	18178
2026-01-30 17:14:35.10	334.71	2.35	-53.3	-55.4	6.2	0.00e+00	0	44	104	0	78	18047
2026-01-30 17:14:38.13	334.50	2.16	-53.3	-55.4	6.2	0.00e+00	0	44	104	0	78	18045

#Closed at: 2026-01-30 17:14:41
#Recorded file [0 MB]: D:/lorett/data/31041_260130_200435.dat