passes_logs/2026/01/30/R3.2S_Murmansk/R3.2S_Murmansk__20260130_153141_JL1KF01B_rec.log

#Pass ID: 20260130_153141_JL1KF01B
#Satellite: JL1KF01B
#Configuration: 01B_900M
#almurnet v.1.7.20251203
#Start time: 2026-01-30 15:31:42

#Version: 2.2.20231116
#Station: R3.2S_Murmansk
#Location: 33.079688 lon 68.888172 lat
#TLE: 1 49003U 21061A   26030.17054890  .00005909  00000+0  37580-3 0  9999
#TLE: 2 49003  97.5345 108.8937 0007975 174.4542 185.6776 15.09158609252522

#Time	Az	El	Level	Level2	SNR	BER	BlckErr	Temp	State	Recorded	gain1	gain2
2026-01-30 15:31:42.58	70.66	2.09	-54.2	-56.3	6.2	0.00e+00	0	41	0	0	79	18867
2026-01-30 15:31:44.60	70.45	2.20	-54.2	-56.3	6.2	0.00e+00	0	41	104	0	79	19032
2026-01-30 15:31:46.61	70.24	2.31	-54.3	-56.4	6.2	0.00e+00	0	41	104	0	79	19132
2026-01-30 15:31:48.63	70.02	2.42	-54.4	-56.5	6.2	0.00e+00	0	41	104	0	79	19390
2026-01-30 15:31:50.64	69.80	2.54	-54.4	-56.5	6.2	0.00e+00	0	41	104	0	79	19360
2026-01-30 15:31:52.66	69.58	2.65	-54.4	-56.4	6.2	0.00e+00	0	41	104	0	79	19245
2026-01-30 15:31:54.67	69.36	2.76	-54.3	-56.4	6.2	0.00e+00	0	42	104	0	79	19204
2026-01-30 15:31:56.69	69.13	2.88	-54.2	-56.3	6.2	0.00e+00	0	42	104	0	79	18962
2026-01-30 15:31:58.71	68.90	2.99	-54.1	-56.2	6.2	0.00e+00	0	42	104	0	79	18686
2026-01-30 15:32:00.73	68.67	3.10	-54.1	-56.2	6.2	0.00e+00	0	42	104	0	79	18639
2026-01-30 15:32:02.74	68.44	3.22	-54.0	-56.1	6.2	0.00e+00	0	42	104	0	79	18505
2026-01-30 15:32:04.75	68.20	3.33	-53.8	-55.8	6.2	0.00e+00	0	42	104	0	79	17960
2026-01-30 15:32:06.77	67.97	3.45	-53.2	-55.3	6.2	0.00e+00	0	42	104	0	78	17804
2026-01-30 15:32:08.79	67.73	3.56	-53.0	-55.2	6.2	0.00e+00	0	42	104	0	78	17577
2026-01-30 15:32:10.80	67.49	3.68	-53.0	-55.1	6.2	0.00e+00	0	42	104	0	78	17477
2026-01-30 15:32:12.81	67.24	3.79	-53.0	-55.1	6.2	0.00e+00	0	42	104	0	78	17532
2026-01-30 15:32:14.83	67.00	3.91	-53.0	-55.1	6.2	0.00e+00	0	42	104	0	78	17471
2026-01-30 15:32:16.85	66.75	4.02	-53.0	-55.1	6.2	0.00e+00	0	42	104	0	78	17432
2026-01-30 15:32:18.87	66.49	4.14	-53.0	-55.1	6.2	0.00e+00	0	42	104	0	78	17411
2026-01-30 15:32:20.88	66.24	4.26	-52.9	-55.0	6.2	0.00e+00	0	42	104	0	77	18339
2026-01-30 15:32:22.90	65.98	4.37	-52.9	-55.0	6.2	0.00e+00	0	42	104	0	77	18369
2026-01-30 15:32:24.92	65.72	4.49	-52.9	-55.0	6.2	0.00e+00	0	43	104	0	77	18331
2026-01-30 15:32:26.93	65.46	4.61	-52.9	-55.0	6.2	0.00e+00	0	42	104	0	77	18342
2026-01-30 15:32:28.95	65.20	4.72	-52.9	-55.0	6.2	0.00e+00	0	42	104	0	77	18348
2026-01-30 15:32:30.97	64.93	4.84	-52.9	-55.0	6.2	0.00e+00	0	43	104	0	77	18296
2026-01-30 15:32:32.98	64.66	4.96	-52.9	-55.0	6.2	0.00e+00	0	43	104	0	77	18347
2026-01-30 15:32:34.99	64.39	5.07	-52.9	-55.0	6.2	0.00e+00	0	42	104	0	77	18324
2026-01-30 15:32:37.00	64.12	5.19	-52.9	-55.0	6.2	0.00e+00	0	42	104	0	77	18295
2026-01-30 15:32:39.01	63.84	5.31	-52.8	-54.9	6.2	0.00e+00	0	43	104	0	77	18112
2026-01-30 15:32:41.03	63.56	5.43	-52.9	-54.9	6.2	0.00e+00	0	42	104	0	77	18168
2026-01-30 15:32:43.05	63.27	5.54	-52.8	-54.9	6.2	0.00e+00	0	43	104	0	77	18020
2026-01-30 15:32:45.06	62.99	5.66	-52.8	-54.9	6.2	0.00e+00	0	43	104	0	77	18079
2026-01-30 15:32:47.08	62.70	5.78	-52.7	-54.8	6.2	0.00e+00	0	43	104	0	77	17946
2026-01-30 15:32:49.10	62.40	5.90	-52.8	-54.9	6.2	0.00e+00	0	43	104	0	77	18001
2026-01-30 15:32:51.11	62.11	6.02	-52.7	-54.8	6.2	0.00e+00	0	43	104	0	77	17913
2026-01-30 15:32:53.12	61.81	6.13	-52.8	-54.9	6.2	0.00e+00	0	43	104	0	77	17999
2026-01-30 15:32:55.13	61.51	6.25	-52.7	-54.8	6.2	0.00e+00	0	43	104	0	77	17827
2026-01-30 15:32:57.15	61.21	6.37	-52.7	-54.9	6.2	0.00e+00	0	43	104	0	77	17978
2026-01-30 15:32:59.17	60.90	6.49	-52.7	-54.8	6.2	0.00e+00	0	43	104	0	77	17899
2026-01-30 15:33:01.19	60.59	6.61	-52.7	-54.8	6.2	0.00e+00	0	43	104	0	77	17899
2026-01-30 15:33:03.20	60.27	6.73	-52.7	-54.8	6.2	0.00e+00	0	43	104	0	77	17854
2026-01-30 15:33:05.21	59.96	6.84	-52.7	-54.9	6.2	0.00e+00	0	43	104	0	77	17975
2026-01-30 15:33:07.23	59.64	6.96	-52.7	-54.8	6.2	0.00e+00	0	43	104	0	77	17872
2026-01-30 15:33:09.24	59.31	7.08	-52.7	-54.8	6.2	0.00e+00	0	43	104	0	77	17924
2026-01-30 15:33:11.25	58.99	7.20	-52.7	-54.8	6.2	0.00e+00	0	43	104	0	77	17896
2026-01-30 15:33:13.27	58.66	7.32	-52.8	-54.9	6.2	0.00e+00	0	43	104	0	77	18007
2026-01-30 15:33:15.28	58.33	7.44	-52.7	-54.9	6.2	0.00e+00	0	43	104	0	77	18050
2026-01-30 15:33:17.30	57.99	7.55	-52.8	-54.9	6.2	0.00e+00	0	43	104	0	77	17989
2026-01-30 15:33:19.31	57.65	7.67	-52.8	-54.9	6.2	0.00e+00	0	43	104	0	77	17981
2026-01-30 15:33:21.33	57.31	7.79	-52.8	-54.9	6.2	0.00e+00	0	43	104	0	77	18069
2026-01-30 15:33:23.34	56.96	7.91	-52.8	-54.9	6.2	0.00e+00	0	43	104	0	77	17977
2026-01-30 15:33:25.36	56.61	8.02	-52.8	-54.9	6.2	0.00e+00	0	43	104	0	77	18093
2026-01-30 15:33:27.37	56.26	8.14	-52.8	-54.9	6.2	0.00e+00	0	43	104	0	77	18063
2026-01-30 15:33:29.39	55.90	8.26	-52.8	-54.9	6.2	0.00e+00	0	43	104	0	77	18071
2026-01-30 15:33:31.41	55.54	8.38	-52.8	-54.9	6.2	0.00e+00	0	43	104	0	77	18082
2026-01-30 15:33:33.42	55.17	8.49	-52.8	-54.9	6.2	0.00e+00	0	43	104	0	77	18093
2026-01-30 15:33:35.42	54.81	8.61	-52.8	-54.9	6.2	0.00e+00	0	43	104	0	77	18136
2026-01-30 15:33:37.43	54.44	8.72	-52.8	-54.9	6.2	0.00e+00	0	43	104	0	77	18135
2026-01-30 15:33:39.44	54.06	8.84	-52.8	-55.0	6.2	0.00e+00	0	43	104	0	77	18181
2026-01-30 15:33:41.46	53.69	8.95	-52.8	-55.0	6.2	0.00e+00	0	43	104	0	77	18181
2026-01-30 15:33:43.47	53.30	9.07	-52.9	-55.0	6.2	0.00e+00	0	43	104	0	77	18182
2026-01-30 15:33:45.48	52.92	9.18	-52.9	-55.0	6.2	0.00e+00	0	43	104	0	77	18184
2026-01-30 15:33:47.49	52.53	9.30	-52.9	-55.0	6.2	0.00e+00	0	43	104	0	77	18266
2026-01-30 15:33:49.50	52.14	9.41	-52.9	-55.0	6.2	0.00e+00	0	43	104	0	77	18204
2026-01-30 15:33:51.51	51.74	9.52	-52.9	-55.0	6.2	0.00e+00	0	43	104	0	77	18262
2026-01-30 15:33:53.52	51.34	9.64	-52.9	-55.0	6.2	0.00e+00	0	43	104	0	77	18207
2026-01-30 15:33:55.53	50.94	9.75	-52.9	-55.0	6.2	0.00e+00	0	43	104	0	77	18256
2026-01-30 15:33:57.55	50.53	9.86	-52.9	-55.0	6.2	0.00e+00	0	43	104	0	77	18218
2026-01-30 15:33:59.56	50.12	9.97	-52.9	-55.0	6.2	0.00e+00	0	43	104	0	77	18304
2026-01-30 15:34:01.58	49.70	10.08	-52.9	-55.0	6.2	0.00e+00	0	43	104	0	77	18268
2026-01-30 15:34:03.59	49.28	10.19	-52.9	-55.0	6.2	0.00e+00	0	43	104	0	77	18325
2026-01-30 15:34:05.61	48.86	10.30	-52.9	-55.0	6.2	0.00e+00	0	43	104	0	77	18305
2026-01-30 15:34:07.63	48.43	10.41	-52.9	-55.0	6.2	0.00e+00	0	43	104	0	77	18363
2026-01-30 15:34:09.64	48.00	10.52	-52.9	-55.0	6.2	0.00e+00	0	43	104	0	77	18307
2026-01-30 15:34:11.66	47.57	10.62	-52.9	-55.0	6.2	0.00e+00	0	44	104	0	77	18379
2026-01-30 15:34:13.68	47.13	10.73	-52.9	-55.0	6.2	0.00e+00	0	43	104	0	77	18286
2026-01-30 15:34:15.69	46.68	10.83	-52.9	-55.0	6.2	0.00e+00	0	43	104	0	77	18317
2026-01-30 15:34:17.71	46.24	10.94	-52.9	-55.0	6.2	0.00e+00	0	43	104	0	77	18277
2026-01-30 15:34:19.73	45.79	11.04	-52.9	-55.0	6.2	0.00e+00	0	43	104	0	77	18365
2026-01-30 15:34:21.74	45.33	11.15	-52.9	-55.0	6.2	0.00e+00	0	43	104	0	77	18349
2026-01-30 15:34:23.75	44.88	11.25	-53.0	-55.1	6.2	0.00e+00	0	43	104	0	77	18413
2026-01-30 15:34:25.77	44.41	11.35	-52.9	-55.0	6.2	0.00e+00	0	43	104	0	77	18350
2026-01-30 15:34:27.79	43.95	11.45	-53.0	-55.1	6.2	0.00e+00	0	43	104	0	77	18435
2026-01-30 15:34:29.81	43.48	11.54	-52.9	-55.0	6.2	0.00e+00	0	44	104	0	77	18336
2026-01-30 15:34:31.82	43.01	11.64	-53.0	-55.0	6.2	0.00e+00	0	43	104	0	77	18375
2026-01-30 15:34:33.83	42.53	11.74	-52.9	-55.1	6.2	0.00e+00	0	43	104	0	77	18429
2026-01-30 15:34:35.85	42.05	11.83	-53.0	-55.1	6.2	0.00e+00	0	43	104	0	77	18441
2026-01-30 15:34:37.86	41.57	11.93	-53.0	-55.1	6.2	0.00e+00	0	43	104	0	77	18431
2026-01-30 15:34:39.87	41.08	12.02	-53.0	-55.1	6.2	0.00e+00	0	43	104	0	77	18454
2026-01-30 15:34:41.90	40.59	12.11	-53.0	-55.1	6.2	0.00e+00	0	43	104	0	77	18427
2026-01-30 15:34:43.90	40.09	12.20	-53.0	-55.1	6.2	0.00e+00	0	44	104	0	77	18476
2026-01-30 15:34:45.92	39.59	12.29	-53.0	-55.1	6.2	0.00e+00	0	43	104	0	77	18442
2026-01-30 15:34:47.93	39.09	12.37	-53.0	-55.1	6.2	0.00e+00	0	43	104	0	77	18539
2026-01-30 15:34:49.94	38.59	12.46	-53.0	-55.1	6.2	0.00e+00	0	43	104	0	77	18423
2026-01-30 15:34:51.96	38.08	12.54	-53.0	-55.1	6.2	0.00e+00	0	44	104	0	77	18474
2026-01-30 15:34:53.97	37.57	12.62	-53.0	-55.1	6.2	0.00e+00	0	44	104	0	77	18393
2026-01-30 15:34:55.99	37.05	12.70	-53.0	-55.1	6.2	0.00e+00	0	43	104	0	77	18466
2026-01-30 15:34:58.00	36.53	12.78	-53.0	-55.1	6.2	0.00e+00	0	44	104	0	77	18427
2026-01-30 15:35:00.01	36.01	12.86	-53.0	-55.1	6.2	0.00e+00	0	43	104	0	77	18462
2026-01-30 15:35:02.03	35.49	12.93	-53.0	-55.1	6.2	0.00e+00	0	43	104	0	77	18426
2026-01-30 15:35:04.04	34.96	13.00	-53.0	-55.1	6.2	0.00e+00	0	43	104	0	77	18540
2026-01-30 15:35:06.05	34.43	13.07	-53.0	-55.1	6.2	0.00e+00	0	44	104	0	77	18449
2026-01-30 15:35:08.07	33.89	13.14	-53.0	-55.1	6.2	0.00e+00	0	43	104	0	77	18536
2026-01-30 15:35:10.09	33.36	13.21	-53.0	-55.1	6.2	0.00e+00	0	43	104	0	77	18457
2026-01-30 15:35:12.10	32.82	13.28	-53.0	-55.1	6.2	0.00e+00	0	43	104	0	77	18509
2026-01-30 15:35:14.12	32.27	13.34	-53.0	-55.1	6.2	0.00e+00	0	44	104	0	77	18498
2026-01-30 15:35:16.13	31.73	13.40	-53.0	-55.1	6.2	0.00e+00	0	43	104	0	77	18490
2026-01-30 15:35:18.14	31.18	13.46	-53.0	-55.1	6.2	0.00e+00	0	44	104	0	77	18472
2026-01-30 15:35:20.16	30.63	13.52	-53.0	-55.1	6.2	0.00e+00	0	43	104	0	77	18564
2026-01-30 15:35:22.18	30.07	13.57	-53.0	-55.1	6.2	0.00e+00	0	43	104	0	77	18513
2026-01-30 15:35:24.19	29.52	13.63	-53.0	-55.1	6.2	0.00e+00	0	43	104	0	77	18502
2026-01-30 15:35:26.22	28.96	13.68	-53.0	-55.1	6.2	0.00e+00	0	44	104	0	77	18454
2026-01-30 15:35:28.23	28.40	13.72	-53.0	-55.1	6.2	0.00e+00	0	43	104	0	77	18485
2026-01-30 15:35:30.24	27.84	13.77	-53.0	-55.1	6.2	0.00e+00	0	43	104	0	77	18530
2026-01-30 15:35:32.26	27.27	13.81	-53.0	-55.1	6.2	0.00e+00	0	44	104	0	77	18510
2026-01-30 15:35:34.27	26.71	13.86	-53.0	-55.1	6.2	0.00e+00	0	44	104	0	77	18500
2026-01-30 15:35:36.29	26.14	13.89	-53.0	-55.1	6.2	0.00e+00	0	44	104	0	77	18445
2026-01-30 15:35:38.30	25.57	13.93	-53.0	-55.1	6.2	0.00e+00	0	44	104	0	77	18442
2026-01-30 15:35:40.31	25.00	13.96	-53.0	-55.1	6.2	0.00e+00	0	44	104	0	77	18490
2026-01-30 15:35:42.33	24.43	14.00	-53.0	-55.1	6.2	0.00e+00	0	43	104	0	77	18463
2026-01-30 15:35:44.34	23.85	14.03	-53.0	-55.1	6.2	0.00e+00	0	44	104	0	77	18440
2026-01-30 15:35:46.36	23.28	14.05	-53.0	-55.1	6.2	0.00e+00	0	44	104	0	77	18507
2026-01-30 15:35:48.37	22.70	14.08	-53.0	-55.1	6.2	0.00e+00	0	43	104	0	77	18459
2026-01-30 15:35:50.39	22.12	14.10	-53.0	-55.1	6.2	0.00e+00	0	44	104	0	77	18501
2026-01-30 15:35:52.41	21.54	14.12	-53.0	-55.1	6.2	0.00e+00	0	44	104	0	77	18531
2026-01-30 15:35:54.42	20.96	14.13	-53.0	-55.1	6.2	0.00e+00	0	44	104	0	77	18514
2026-01-30 15:35:56.43	20.38	14.15	-53.0	-55.1	6.2	0.00e+00	0	44	104	0	77	18460
2026-01-30 15:35:58.44	19.81	14.16	-53.0	-55.1	6.2	0.00e+00	0	44	104	0	77	18548
2026-01-30 15:36:00.47	19.22	14.17	-53.0	-55.1	6.2	0.00e+00	0	44	104	0	77	18524
2026-01-30 15:36:02.48	18.64	14.17	-53.0	-55.1	6.2	0.00e+00	0	44	104	0	77	18495
2026-01-30 15:36:04.49	18.06	14.18	-53.0	-55.1	6.2	0.00e+00	0	44	104	0	77	18498
2026-01-30 15:36:06.51	17.48	14.18	-53.0	-55.1	6.2	0.00e+00	0	44	104	0	77	18575
2026-01-30 15:36:08.52	16.90	14.18	-53.0	-55.1	6.2	0.00e+00	0	44	104	0	77	18438
2026-01-30 15:36:10.54	16.31	14.17	-53.0	-55.1	6.2	0.00e+00	0	43	104	0	77	18465
2026-01-30 15:36:12.55	15.73	14.17	-53.0	-55.1	6.2	0.00e+00	0	44	104	0	77	18502
2026-01-30 15:36:14.57	15.15	14.16	-53.0	-55.1	6.2	0.00e+00	0	44	104	0	77	18493
2026-01-30 15:36:16.58	14.57	14.15	-53.0	-55.1	6.2	0.00e+00	0	44	104	0	77	18413
2026-01-30 15:36:18.60	13.99	14.13	-53.0	-55.1	6.2	0.00e+00	0	43	104	0	77	18441
2026-01-30 15:36:20.61	13.41	14.11	-53.0	-55.1	6.2	0.00e+00	0	44	104	0	77	18473
2026-01-30 15:36:22.63	12.83	14.09	-53.0	-55.1	6.2	0.00e+00	0	44	104	0	77	18409
2026-01-30 15:36:24.65	12.25	14.07	-53.0	-55.1	6.2	0.00e+00	0	44	104	0	77	18418
2026-01-30 15:36:26.66	11.68	14.05	-53.0	-55.1	6.2	0.00e+00	0	44	104	0	77	18413
2026-01-30 15:36:28.67	11.10	14.02	-53.0	-55.1	6.2	0.00e+00	0	44	104	0	77	18410
2026-01-30 15:36:30.69	10.53	13.99	-53.0	-55.1	6.2	0.00e+00	0	43	104	0	77	18440
2026-01-30 15:36:32.70	9.95	13.96	-53.0	-55.1	6.2	0.00e+00	0	44	104	0	77	18458
2026-01-30 15:36:34.72	9.38	13.92	-53.0	-55.1	6.2	0.00e+00	0	44	104	0	77	18439
2026-01-30 15:36:36.74	8.81	13.89	-53.0	-55.1	6.2	0.00e+00	0	44	104	0	77	18428
2026-01-30 15:36:38.76	8.24	13.85	-53.0	-55.1	6.2	0.00e+00	0	43	104	0	77	18410
2026-01-30 15:36:40.78	7.67	13.80	-53.0	-55.1	6.2	0.00e+00	0	44	104	0	77	18397
2026-01-30 15:36:42.80	7.11	13.76	-53.0	-55.1	6.2	0.00e+00	0	44	104	0	77	18411
2026-01-30 15:36:44.81	6.55	13.71	-53.0	-55.1	6.2	0.00e+00	0	43	104	0	77	18420
2026-01-30 15:36:46.82	5.99	13.67	-53.0	-55.1	6.2	0.00e+00	0	44	104	0	77	18411
2026-01-30 15:36:48.84	5.43	13.61	-53.0	-55.1	6.2	0.00e+00	0	44	104	0	77	18403
2026-01-30 15:36:50.85	4.88	13.56	-52.9	-55.1	6.2	0.00e+00	0	44	104	0	77	18400
2026-01-30 15:36:52.87	4.32	13.51	-52.9	-55.0	6.2	0.00e+00	0	44	104	0	77	18356
2026-01-30 15:36:54.89	3.77	13.45	-52.9	-55.0	6.2	0.00e+00	0	44	104	0	77	18369
2026-01-30 15:36:56.91	3.22	13.39	-52.9	-55.0	6.2	0.00e+00	0	44	104	0	77	18246
2026-01-30 15:36:58.92	2.68	13.33	-52.9	-55.0	6.2	0.00e+00	0	44	104	0	77	18241
2026-01-30 15:37:00.94	2.13	13.26	-52.9	-55.0	6.2	0.00e+00	0	44	104	0	77	18279
2026-01-30 15:37:02.95	1.59	13.20	-52.9	-55.0	6.2	0.00e+00	0	44	104	0	77	18232
2026-01-30 15:37:04.97	1.05	13.13	-52.9	-55.0	6.2	0.00e+00	0	43	104	0	77	18297
2026-01-30 15:37:06.98	0.52	13.06	-52.9	-54.9	6.2	0.00e+00	0	44	104	0	77	18173
2026-01-30 15:37:08.99	359.99	12.99	-52.9	-55.0	6.2	0.00e+00	0	44	104	0	77	18241
2026-01-30 15:37:11.01	359.46	12.91	-52.9	-55.0	6.2	0.00e+00	0	44	104	0	77	18196
2026-01-30 15:37:13.01	358.94	12.84	-52.9	-54.9	6.2	0.00e+00	0	44	104	0	77	18137
2026-01-30 15:37:15.02	358.42	12.76	-52.9	-54.9	6.2	0.00e+00	0	44	104	0	77	18174
2026-01-30 15:37:17.04	357.90	12.68	-52.8	-54.9	6.2	0.00e+00	0	44	104	0	77	18134
2026-01-30 15:37:19.05	357.39	12.60	-52.8	-54.9	6.2	0.00e+00	0	44	104	0	77	18144
2026-01-30 15:37:21.07	356.87	12.52	-52.8	-54.9	6.2	0.00e+00	0	44	104	0	77	18155
2026-01-30 15:37:23.09	356.36	12.44	-52.8	-54.9	6.2	0.00e+00	0	44	104	0	77	18096
2026-01-30 15:37:25.10	355.86	12.35	-52.8	-54.9	6.2	0.00e+00	0	44	104	0	77	18156
2026-01-30 15:37:27.12	355.36	12.26	-52.8	-54.9	6.2	0.00e+00	0	44	104	0	77	18097
2026-01-30 15:37:29.13	354.86	12.18	-52.8	-54.9	6.2	0.00e+00	0	44	104	0	77	18086
2026-01-30 15:37:31.15	354.36	12.09	-52.8	-54.9	6.2	0.00e+00	0	44	104	0	77	18128
2026-01-30 15:37:33.16	353.87	12.00	-52.8	-54.9	6.2	0.00e+00	0	44	104	0	77	18079
2026-01-30 15:37:35.17	353.39	11.90	-52.8	-54.9	6.2	0.00e+00	0	44	104	0	77	18095
2026-01-30 15:37:37.19	352.90	11.81	-52.8	-54.9	6.2	0.00e+00	0	44	104	0	77	17979
2026-01-30 15:37:39.20	352.42	11.71	-52.8	-54.9	6.2	0.00e+00	0	44	104	0	77	18054
2026-01-30 15:37:41.22	351.95	11.62	-52.8	-54.9	6.2	0.00e+00	0	44	104	0	77	18002
2026-01-30 15:37:43.23	351.48	11.52	-52.8	-54.9	6.2	0.00e+00	0	44	104	0	77	18016
2026-01-30 15:37:45.25	351.01	11.42	-52.8	-54.9	6.2	0.00e+00	0	44	104	0	77	18011
2026-01-30 15:37:47.26	350.54	11.32	-52.8	-54.9	6.2	0.00e+00	0	44	104	0	77	18028
2026-01-30 15:37:49.28	350.08	11.22	-52.8	-54.8	6.2	0.00e+00	0	44	104	0	77	17966
2026-01-30 15:37:51.29	349.62	11.12	-52.8	-54.9	6.2	0.00e+00	0	44	104	0	77	17984
2026-01-30 15:37:53.31	349.17	11.02	-52.7	-54.8	6.2	0.00e+00	0	44	104	0	77	17914
2026-01-30 15:37:55.33	348.72	10.91	-52.8	-54.8	6.2	0.00e+00	0	44	104	0	77	17971
2026-01-30 15:37:57.35	348.27	10.81	-52.7	-54.8	6.2	0.00e+00	0	44	104	0	77	17925
2026-01-30 15:37:59.37	347.83	10.70	-52.7	-54.8	6.2	0.00e+00	0	44	104	0	77	17948
2026-01-30 15:38:01.39	347.39	10.60	-52.7	-54.8	6.2	0.00e+00	0	44	104	0	77	17814
2026-01-30 15:38:03.40	346.95	10.49	-52.7	-54.8	6.2	0.00e+00	0	44	104	0	77	17906
2026-01-30 15:38:05.42	346.52	10.38	-52.7	-54.8	6.2	0.00e+00	0	44	104	0	77	17800
2026-01-30 15:38:07.44	346.09	10.27	-52.7	-54.8	6.2	0.00e+00	0	44	104	0	77	17890
2026-01-30 15:38:09.45	345.67	10.16	-52.7	-54.8	6.2	0.00e+00	0	44	104	0	77	17784
2026-01-30 15:38:11.47	345.25	10.05	-52.7	-54.8	6.2	0.00e+00	0	44	104	0	77	17855
2026-01-30 15:38:13.48	344.84	9.94	-52.6	-54.7	6.2	0.00e+00	0	44	104	0	77	17740
2026-01-30 15:38:15.50	344.42	9.83	-52.7	-54.8	6.2	0.00e+00	0	44	104	0	77	17789
2026-01-30 15:38:17.51	344.02	9.72	-52.6	-54.7	6.2	0.00e+00	0	44	104	0	77	17657
2026-01-30 15:38:19.53	343.61	9.60	-52.6	-54.7	6.2	0.00e+00	0	44	104	0	77	17700
2026-01-30 15:38:21.55	343.21	9.49	-52.6	-54.6	6.2	0.00e+00	0	44	104	0	77	17562
2026-01-30 15:38:23.57	342.81	9.38	-52.6	-54.7	6.2	0.00e+00	0	44	104	0	77	17722
2026-01-30 15:38:25.58	342.42	9.26	-52.6	-54.6	6.2	0.00e+00	0	44	104	0	77	17550
2026-01-30 15:38:27.60	342.03	9.15	-52.6	-54.7	6.2	0.00e+00	0	44	104	0	77	17679
2026-01-30 15:38:29.61	341.65	9.03	-52.5	-54.6	6.2	0.00e+00	0	44	104	0	77	17530
2026-01-30 15:38:31.63	341.26	8.92	-52.6	-54.7	6.2	0.00e+00	0	44	104	0	77	17631
2026-01-30 15:38:33.65	340.88	8.80	-52.5	-54.6	6.2	0.00e+00	0	44	104	0	77	17492
2026-01-30 15:38:35.66	340.51	8.69	-52.6	-54.7	6.2	0.00e+00	0	44	104	0	77	17580
2026-01-30 15:38:37.68	340.14	8.57	-52.5	-54.6	6.2	0.00e+00	0	44	104	0	77	17444
2026-01-30 15:38:39.70	339.77	8.45	-52.5	-54.6	6.2	0.00e+00	0	44	104	0	77	17526
2026-01-30 15:38:41.72	339.41	8.34	-52.4	-54.5	6.2	0.00e+00	0	44	104	0	76	18380
2026-01-30 15:38:43.73	339.05	8.22	-52.5	-54.6	6.2	0.00e+00	0	44	104	0	76	18459
2026-01-30 15:38:45.75	338.69	8.10	-52.4	-54.5	6.2	0.00e+00	0	44	104	0	76	18332
2026-01-30 15:38:47.77	338.34	7.98	-52.5	-54.6	6.2	0.00e+00	0	44	104	0	76	18449
2026-01-30 15:38:49.78	337.99	7.87	-52.4	-54.5	6.2	0.00e+00	0	44	104	0	76	18256
2026-01-30 15:38:51.79	337.64	7.75	-52.4	-54.5	6.2	0.00e+00	0	44	104	0	76	18354
2026-01-30 15:38:53.81	337.30	7.63	-52.3	-54.5	6.2	0.00e+00	0	44	104	0	76	18181
2026-01-30 15:38:55.82	336.96	7.51	-52.4	-54.5	6.2	0.00e+00	0	44	104	0	76	18293
2026-01-30 15:38:57.84	336.62	7.39	-52.3	-54.4	6.2	0.00e+00	0	44	104	0	76	18116
2026-01-30 15:38:59.85	336.29	7.28	-52.4	-54.5	6.2	0.00e+00	0	44	104	0	76	18221
2026-01-30 15:39:01.87	335.96	7.16	-52.3	-54.4	6.2	0.00e+00	0	44	104	0	76	18066
2026-01-30 15:39:03.89	335.63	7.04	-52.4	-54.5	6.2	0.00e+00	0	44	104	0	76	18198
2026-01-30 15:39:05.91	335.31	6.92	-52.3	-54.4	6.2	0.00e+00	0	44	104	0	76	18018
2026-01-30 15:39:07.92	334.99	6.80	-52.3	-54.4	6.2	0.00e+00	0	44	104	0	76	18111
2026-01-30 15:39:09.94	334.68	6.68	-52.2	-54.3	6.2	0.00e+00	0	44	104	0	76	17912
2026-01-30 15:39:11.96	334.36	6.56	-52.3	-54.4	6.2	0.00e+00	0	44	104	0	76	18093
2026-01-30 15:39:13.97	334.05	6.45	-52.2	-54.3	6.2	0.00e+00	0	44	104	0	76	17806
2026-01-30 15:39:15.99	333.74	6.33	-52.3	-54.4	6.2	0.00e+00	0	44	104	0	76	18003
2026-01-30 15:39:18.01	333.44	6.21	-52.1	-54.2	6.2	0.00e+00	0	44	104	0	76	17699
2026-01-30 15:39:20.03	333.14	6.09	-52.2	-54.3	6.2	0.00e+00	0	44	104	0	76	17931
2026-01-30 15:39:22.05	332.84	5.97	-52.1	-54.2	6.2	0.00e+00	0	44	104	0	76	17691
2026-01-30 15:39:24.07	332.54	5.85	-52.2	-54.3	6.2	0.00e+00	0	44	104	0	76	17866
2026-01-30 15:39:26.08	332.25	5.73	-52.1	-54.2	6.2	0.00e+00	0	44	104	0	76	17619
2026-01-30 15:39:28.10	331.96	5.62	-52.2	-54.3	6.2	0.00e+00	0	44	104	0	76	17771
2026-01-30 15:39:30.11	331.68	5.50	-52.0	-54.1	6.2	0.00e+00	0	44	104	0	76	17497
2026-01-30 15:39:32.13	331.39	5.38	-52.1	-54.2	6.2	0.00e+00	0	44	104	0	76	17711
2026-01-30 15:39:34.15	331.11	5.26	-52.0	-54.1	6.2	0.00e+00	0	44	104	0	75	18461
2026-01-30 15:39:36.17	330.84	5.14	-52.1	-54.1	6.2	0.00e+00	0	44	104	0	75	18587
2026-01-30 15:39:38.18	330.56	5.03	-51.9	-54.0	6.2	0.00e+00	0	44	104	0	75	18365
2026-01-30 15:39:40.20	330.29	4.91	-52.7	-54.8	6.2	0.00e+00	0	44	104	0	75	20070
2026-01-30 15:39:42.22	330.02	4.79	-53.3	-55.4	6.2	0.00e+00	0	44	104	0	77	19183
2026-01-30 15:39:44.24	329.75	4.67	-53.6	-55.7	6.2	0.00e+00	0	44	104	0	77	19757
2026-01-30 15:39:46.25	329.49	4.56	-53.6	-55.7	6.2	0.00e+00	0	44	104	0	77	19706
2026-01-30 15:39:48.27	329.23	4.44	-53.4	-55.5	6.2	0.00e+00	0	44	104	0	77	19388
2026-01-30 15:39:50.29	328.97	4.32	-53.2	-55.3	6.2	0.00e+00	0	44	104	0	77	18971
2026-01-30 15:39:52.30	328.71	4.21	-53.3	-55.4	6.2	0.00e+00	0	44	104	0	77	19163
2026-01-30 15:39:54.31	328.46	4.09	-53.4	-55.5	6.2	0.00e+00	0	44	104	0	77	19268
2026-01-30 15:39:56.33	328.21	3.97	-53.4	-55.5	6.2	0.00e+00	0	44	104	0	77	19363
2026-01-30 15:39:58.34	327.96	3.86	-53.4	-55.5	6.2	0.00e+00	0	44	104	0	77	19420
2026-01-30 15:40:00.36	327.71	3.74	-53.5	-55.6	6.2	0.00e+00	0	44	104	0	77	19486
2026-01-30 15:40:02.38	327.47	3.63	-53.4	-55.5	6.2	0.00e+00	0	44	104	0	77	19270
2026-01-30 15:40:04.39	327.23	3.51	-53.4	-55.5	6.2	0.00e+00	0	44	104	0	77	19257
2026-01-30 15:40:06.41	326.99	3.40	-53.3	-55.4	6.2	0.00e+00	0	44	104	0	77	19164
2026-01-30 15:40:08.43	326.75	3.28	-53.3	-55.4	6.2	0.00e+00	0	44	104	0	77	19167
2026-01-30 15:40:10.44	326.52	3.17	-53.3	-55.4	6.2	0.00e+00	0	44	104	0	77	19102
2026-01-30 15:40:12.46	326.29	3.05	-53.3	-55.4	6.2	0.00e+00	0	44	104	0	77	19124
2026-01-30 15:40:14.48	326.06	2.94	-53.3	-55.4	6.2	0.00e+00	0	44	104	0	77	19073
2026-01-30 15:40:16.49	325.83	2.82	-53.3	-55.3	6.2	0.00e+00	0	44	104	0	77	19004
2026-01-30 15:40:18.51	325.61	2.71	-53.2	-55.3	6.2	0.00e+00	0	44	104	0	77	18999
2026-01-30 15:40:20.53	325.38	2.60	-53.2	-55.3	6.2	0.00e+00	0	44	104	0	77	18989
2026-01-30 15:40:22.54	325.16	2.48	-53.2	-55.3	6.2	0.00e+00	0	44	104	0	77	18945
2026-01-30 15:40:24.56	324.94	2.37	-53.2	-55.3	6.2	0.00e+00	0	44	104	0	77	18968
2026-01-30 15:40:26.58	324.73	2.26	-53.2	-55.3	6.2	0.00e+00	0	44	104	0	77	18956
2026-01-30 15:40:28.59	324.51	2.14	-53.2	-55.3	6.2	0.00e+00	0	44	104	0	77	18856
2026-01-30 15:40:30.61	324.30	2.03	-53.2	-55.3	6.2	0.00e+00	0	44	104	0	77	18861

#Closed at: 2026-01-30 15:40:32
#Recorded file [0 MB]: D:/lorett/data/31041_260130_183142.dat