passes_logs/2026/01/30/R3.2S_Murmansk/R3.2S_Murmansk__20260130_090506_FENGYUN_3D_rec.log

#Pass ID: 20260130_090506_FENGYUN 3D
#Satellite: FENGYUN 3D
#Configuration: FENGYUN 3D
#almurnet v.1.7.20251203
#Start time: 2026-01-30 09:05:07

#Version: 2.2.20231116
#Station: R3.2S_Murmansk
#Location: 33.079688 lon 68.888172 lat
#TLE: 1 43010U 17072A   26029.52179110  .00000394  00000+0  20818-3 0  9997
#TLE: 2 43010  98.9957   1.5649 0002507  83.7772 276.3689 14.19703315425310

#Time	Az	El	Level	Level2	SNR	BER	BlckErr	Temp	State	Recorded	gain1	gain2
2026-01-30 09:05:07.49	95.28	2.06	-54.1	-66.0	3.8	8.46e-01	0	39	0	0	79	14468
2026-01-30 09:05:11.50	95.08	2.30	-54.0	-66.0	3.8	8.45e-01	0	39	104	0	78	15287
2026-01-30 09:05:15.53	94.87	2.55	-54.3	-66.2	3.8	8.46e-01	0	40	104	0	79	14874
2026-01-30 09:05:19.56	94.66	2.79	-54.2	-66.2	3.8	8.46e-01	0	39	104	0	79	14772
2026-01-30 09:05:23.59	94.45	3.04	-54.0	-66.0	3.8	8.46e-01	0	40	104	0	79	14402
2026-01-30 09:05:27.62	94.23	3.29	-53.8	-65.7	3.8	8.47e-01	0	40	104	0	79	13998
2026-01-30 09:05:31.65	94.01	3.54	-53.1	-65.1	3.8	8.46e-01	0	40	104	0	78	13746
2026-01-30 09:05:35.68	93.79	3.79	-52.5	-64.5	3.8	8.46e-01	0	40	104	0	77	13577
2026-01-30 09:05:39.71	93.56	4.05	-52.0	-63.6	3.8	8.47e-01	0	40	104	0	76	13102
2026-01-30 09:05:43.73	93.32	4.30	-51.9	-62.6	3.8	8.45e-01	0	40	104	0	75	12373
2026-01-30 09:05:47.76	93.09	4.56	-51.4	-59.5	4.5	8.36e-01	0	40	0	0	74	9095
2026-01-30 09:05:51.79	92.84	4.82	-48.7	-51.6	11.1	4.47e-03	0	40	0	17825792	69	4894
2026-01-30 09:05:55.83	92.60	5.09	-48.1	-50.7	12.2	1.71e-05	0	40	0	40894464	66	5266
2026-01-30 09:05:59.85	92.35	5.35	-43.4	-44.6	18.7	0.00e+00	0	41	0	57671680	58	4104
2026-01-30 09:06:03.88	92.09	5.62	-42.6	-43.7	19.5	0.00e+00	0	41	0	79691776	57	3947
2026-01-30 09:06:07.91	91.83	5.89	-42.3	-43.4	19.9	0.00e+00	0	40	0	102760448	56	4009
2026-01-30 09:06:11.94	91.56	6.16	-42.0	-43.0	20.2	0.00e+00	0	41	0	125829120	56	3852
2026-01-30 09:06:15.98	91.29	6.44	-41.8	-42.7	20.4	0.00e+00	0	40	0	147849216	55	3957
2026-01-30 09:06:20.01	91.01	6.71	-41.6	-42.6	20.6	0.00e+00	0	41	0	170917888	55	3899
2026-01-30 09:06:24.04	90.73	6.99	-41.7	-42.6	20.6	0.00e+00	0	41	0	192937984	55	3912
2026-01-30 09:06:28.06	90.44	7.27	-41.5	-42.4	20.7	0.00e+00	0	41	0	216006656	54	4037
2026-01-30 09:06:32.08	90.14	7.55	-41.5	-42.5	20.8	0.00e+00	0	41	0	238026752	54	4052
2026-01-30 09:06:36.11	89.84	7.84	-41.2	-42.1	21.1	0.00e+00	0	41	0	261095424	54	3901
2026-01-30 09:06:40.14	89.54	8.13	-41.4	-42.3	21.0	0.00e+00	0	41	0	284164096	54	3985
2026-01-30 09:06:44.17	89.22	8.42	-41.2	-42.1	21.2	0.00e+00	0	41	0	306184192	54	3895
2026-01-30 09:06:48.20	88.90	8.71	-41.3	-42.2	21.1	0.00e+00	0	41	0	329252864	54	3944
2026-01-30 09:06:52.23	88.58	9.01	-41.3	-42.2	21.1	0.00e+00	0	41	0	352321536	54	3938
2026-01-30 09:06:56.26	88.24	9.31	-41.2	-42.1	21.2	0.00e+00	0	41	0	374341632	54	3887
2026-01-30 09:07:00.29	87.90	9.61	-41.4	-42.3	21.1	0.00e+00	0	41	0	397410304	54	3997
2026-01-30 09:07:04.31	87.55	9.91	-41.1	-42.0	21.3	0.00e+00	0	41	0	420478976	54	3860
2026-01-30 09:07:08.34	87.20	10.22	-40.8	-41.7	21.7	0.00e+00	0	41	0	442499072	53	3923
2026-01-30 09:07:12.37	86.83	10.52	-40.8	-41.7	21.7	0.00e+00	0	41	0	465567744	53	3932
2026-01-30 09:07:16.39	86.46	10.84	-40.4	-41.3	22.0	0.00e+00	0	41	0	488636416	52	3989
2026-01-30 09:07:20.42	86.08	11.15	-40.5	-41.4	21.9	0.00e+00	0	41	0	510656512	52	4042
2026-01-30 09:07:24.45	85.70	11.47	-40.5	-41.4	22.0	0.00e+00	0	41	0	532676608	52	4008
2026-01-30 09:07:28.49	85.30	11.79	-40.2	-41.0	22.3	0.00e+00	0	41	0	555745280	52	3866
2026-01-30 09:07:32.52	84.89	12.11	-40.2	-41.1	22.3	0.00e+00	0	41	0	578813952	52	3878
2026-01-30 09:07:36.55	84.47	12.44	-40.1	-41.0	22.4	0.00e+00	0	41	0	600834048	52	3833
2026-01-30 09:07:40.58	84.05	12.77	-40.1	-41.0	22.4	0.00e+00	0	41	0	623902720	52	3827
2026-01-30 09:07:44.60	83.61	13.10	-40.1	-40.9	22.5	0.00e+00	0	41	0	646971392	52	3814
2026-01-30 09:07:48.64	83.17	13.43	-40.1	-41.0	22.5	0.00e+00	0	41	0	668991488	51	4060
2026-01-30 09:07:52.67	82.71	13.77	-40.0	-40.9	22.6	0.00e+00	0	41	0	692060160	51	4017
2026-01-30 09:07:56.71	82.24	14.11	-40.2	-40.9	22.8	0.00e+00	0	41	0	715128832	51	4051
2026-01-30 09:08:00.73	81.77	14.45	-39.7	-40.5	23.2	0.00e+00	0	41	0	737148928	51	3839
2026-01-30 09:08:04.75	81.28	14.80	-39.8	-40.6	23.2	0.00e+00	0	41	0	760217600	51	3871
2026-01-30 09:08:08.79	80.78	15.14	-39.4	-40.2	23.5	0.00e+00	0	41	0	783286272	50	3928
2026-01-30 09:08:12.82	80.26	15.50	-39.6	-40.4	23.4	0.00e+00	0	41	0	805306368	50	4007
2026-01-30 09:08:16.85	79.74	15.85	-39.6	-40.3	23.4	0.00e+00	0	41	0	828375040	50	3997
2026-01-30 09:08:20.88	79.20	16.21	-39.4	-40.1	23.6	0.00e+00	0	41	0	850395136	50	3906
2026-01-30 09:08:24.90	78.65	16.56	-39.1	-39.8	23.9	0.00e+00	0	41	0	873463808	50	3777
2026-01-30 09:08:28.93	78.08	16.92	-39.1	-39.8	23.9	0.00e+00	0	41	0	895483904	50	3770
2026-01-30 09:08:32.96	77.50	17.29	-38.9	-39.6	24.1	0.00e+00	0	41	0	918552576	49	3912
2026-01-30 09:08:36.99	76.91	17.65	-38.8	-39.6	24.2	0.00e+00	0	41	0	941621248	49	3872
2026-01-30 09:08:41.03	76.30	18.02	-38.8	-39.5	24.2	0.00e+00	0	41	0	963641344	49	3860
2026-01-30 09:08:45.05	75.67	18.39	-38.5	-39.3	24.5	0.00e+00	0	41	0	986710016	49	3741
2026-01-30 09:08:49.09	75.03	18.77	-38.4	-39.1	24.6	0.00e+00	0	41	0	1008730112	48	3913
2026-01-30 09:08:53.10	74.38	19.14	-38.4	-39.1	24.6	0.00e+00	0	41	0	1031798784	48	3890
2026-01-30 09:08:57.13	73.71	19.51	-38.2	-38.9	24.8	0.00e+00	0	41	0	1054867456	48	3788
2026-01-30 09:09:01.17	73.02	19.89	-38.1	-38.8	24.9	0.00e+00	0	41	0	1076887552	48	3771
2026-01-30 09:09:05.20	72.31	20.27	-38.4	-39.1	24.6	0.00e+00	0	41	0	1099956224	48	3898
2026-01-30 09:09:09.22	71.58	20.65	-38.5	-39.2	24.6	0.00e+00	0	41	0	1123024896	48	3944
2026-01-30 09:09:13.26	70.84	21.03	-38.3	-39.0	24.7	0.00e+00	0	41	0	1145044992	48	3860
2026-01-30 09:09:17.29	70.08	21.41	-38.1	-38.9	24.9	0.00e+00	0	41	0	1168113664	48	3782
2026-01-30 09:09:21.30	69.30	21.79	-38.2	-38.9	24.9	0.00e+00	0	41	0	1191182336	48	3809
2026-01-30 09:09:25.32	68.50	22.17	-37.6	-38.4	24.9	0.00e+00	0	41	0	1213202432	47	3786
2026-01-30 09:09:29.35	67.68	22.55	-37.5	-38.2	25.0	0.00e+00	0	41	0	1235222528	47	3733
2026-01-30 09:09:33.37	66.84	22.92	-37.4	-38.1	25.1	0.00e+00	0	41	0	1258291200	46	3892
2026-01-30 09:09:37.39	65.98	23.30	-37.3	-38.0	25.2	0.00e+00	0	41	0	1281359872	46	3859
2026-01-30 09:09:41.41	65.10	23.68	-37.5	-38.2	25.1	0.00e+00	0	41	0	1303379968	46	3945
2026-01-30 09:09:45.43	64.20	24.05	-37.0	-37.7	25.6	0.00e+00	0	41	0	1326448640	46	3699
2026-01-30 09:09:49.45	63.27	24.42	-37.1	-37.7	25.5	0.00e+00	0	41	0	1348468736	45	3956
2026-01-30 09:09:53.48	62.32	24.79	-37.0	-37.7	25.5	0.00e+00	0	41	0	1371537408	45	3930
2026-01-30 09:09:57.50	61.35	25.15	-36.8	-37.5	25.7	0.00e+00	0	41	0	1394606080	45	3827
2026-01-30 09:10:01.52	60.36	25.51	-37.1	-37.8	25.4	0.00e+00	0	41	0	1416626176	45	3993
2026-01-30 09:10:05.54	59.35	25.86	-37.2	-37.9	25.4	0.00e+00	0	41	0	1439694848	45	4042
2026-01-30 09:10:09.57	58.31	26.21	-37.0	-37.7	25.6	0.00e+00	0	41	0	1461714944	45	3918
2026-01-30 09:10:13.59	57.25	26.55	-37.1	-37.8	25.5	0.00e+00	0	41	0	1484783616	45	3991
2026-01-30 09:10:17.61	56.16	26.89	-36.7	-37.4	25.8	0.00e+00	0	41	0	1507852288	45	3806
2026-01-30 09:10:21.63	55.05	27.22	-36.4	-37.1	26.1	0.00e+00	0	41	0	1529872384	44	3883
2026-01-30 09:10:25.65	53.93	27.53	-36.4	-37.1	26.1	0.00e+00	0	41	0	1552941056	44	3904
2026-01-30 09:10:29.68	52.77	27.85	-36.9	-37.6	25.7	0.00e+00	0	41	0	1574961152	44	4107
2026-01-30 09:10:33.71	51.59	28.15	-36.5	-37.2	26.1	0.00e+00	0	41	0	1598029824	44	3939
2026-01-30 09:10:37.74	50.39	28.44	-36.5	-37.2	26.0	0.00e+00	0	41	0	1620049920	44	3937
2026-01-30 09:10:41.75	49.18	28.72	-36.7	-37.4	25.9	0.00e+00	0	41	0	1643118592	44	4009
2026-01-30 09:10:45.77	47.94	28.98	-36.3	-37.0	26.2	0.00e+00	0	41	0	1665138688	44	3837
2026-01-30 09:10:49.80	46.68	29.24	-36.5	-37.2	26.0	0.00e+00	0	41	0	1688207360	44	3939
2026-01-30 09:10:53.83	45.39	29.48	-36.2	-36.9	26.3	0.00e+00	0	41	0	1711276032	44	3804
2026-01-30 09:10:57.85	44.10	29.70	-36.4	-37.1	26.2	0.00e+00	0	41	0	1733296128	44	3891
2026-01-30 09:11:01.87	42.78	29.91	-36.4	-37.1	26.2	0.00e+00	0	41	0	1756364800	44	3869
2026-01-30 09:11:05.89	41.45	30.11	-36.4	-37.1	26.2	0.00e+00	0	41	0	1779433472	44	3904
2026-01-30 09:11:09.92	40.10	30.29	-35.8	-36.5	26.6	0.00e+00	0	41	0	1801453568	43	3849
2026-01-30 09:11:13.94	38.74	30.45	-36.0	-36.7	26.4	0.00e+00	0	41	0	1824522240	43	3930
2026-01-30 09:11:17.97	37.36	30.59	-36.3	-37.0	26.2	0.00e+00	0	41	0	1846542336	43	4060
2026-01-30 09:11:21.99	35.97	30.72	-36.1	-36.7	26.4	0.00e+00	0	41	0	1869611008	43	3950
2026-01-30 09:11:26.03	34.57	30.83	-36.0	-36.7	26.5	0.00e+00	0	41	0	1892679680	43	3929
2026-01-30 09:11:30.05	33.16	30.91	-35.7	-36.4	26.7	0.00e+00	0	41	0	1914699776	43	3807
2026-01-30 09:11:34.08	31.75	30.98	-36.0	-36.7	26.4	0.00e+00	0	41	0	1936719872	43	3951
2026-01-30 09:11:38.10	30.33	31.03	-35.9	-36.6	26.5	0.00e+00	0	41	0	1959788544	43	3884
2026-01-30 09:11:42.13	28.91	31.06	-35.9	-36.5	26.6	0.00e+00	0	41	0	1982857216	43	3856
2026-01-30 09:11:46.16	27.48	31.07	-36.0	-36.6	26.5	0.00e+00	0	41	0	2004877312	43	3902
2026-01-30 09:11:50.18	26.06	31.06	-35.9	-36.5	26.6	0.00e+00	0	41	0	2027945984	43	3856
2026-01-30 09:11:54.21	24.63	31.03	-35.9	-36.6	26.6	0.00e+00	0	41	0	2051014656	43	3876
2026-01-30 09:11:58.24	23.21	30.98	-36.1	-36.8	26.4	0.00e+00	0	41	0	2073034752	43	3994
2026-01-30 09:12:02.27	21.80	30.91	-35.9	-36.5	26.6	0.00e+00	0	41	0	2096103424	43	3862
2026-01-30 09:12:06.29	20.39	30.82	-36.0	-36.7	26.5	0.00e+00	0	41	0	2118123520	43	3933
2026-01-30 09:12:10.31	19.00	30.71	-36.4	-37.0	26.2	0.00e+00	0	41	0	2141192192	43	4098
2026-01-30 09:12:14.33	17.61	30.58	-36.2	-36.8	26.4	0.00e+00	0	41	0	2164260864	43	4004
2026-01-30 09:12:18.35	16.24	30.44	-35.8	-36.4	26.7	0.00e+00	0	41	0	2186280960	43	3821
2026-01-30 09:12:22.38	14.88	30.28	-35.9	-36.6	26.6	0.00e+00	0	41	0	2209349632	43	3876
2026-01-30 09:12:26.41	13.53	30.10	-36.2	-36.9	26.3	0.00e+00	0	42	0	2232418304	43	4031
2026-01-30 09:12:30.43	12.20	29.90	-36.3	-36.9	26.3	0.00e+00	0	41	0	2254438400	43	4047
2026-01-30 09:12:34.45	10.89	29.69	-36.1	-36.7	26.4	0.00e+00	0	41	0	2276458496	43	3957
2026-01-30 09:12:38.48	9.59	29.46	-36.0	-36.7	26.5	0.00e+00	0	41	0	2299527168	43	3922
2026-01-30 09:12:42.50	8.31	29.22	-36.1	-36.8	26.3	0.00e+00	0	41	0	2322595840	43	3994
2026-01-30 09:12:46.53	7.05	28.97	-36.4	-37.1	26.1	0.00e+00	0	41	0	2344615936	43	4130
2026-01-30 09:12:50.56	5.81	28.70	-36.3	-37.0	26.2	0.00e+00	0	41	0	2367684608	43	4081
2026-01-30 09:12:54.58	4.60	28.42	-36.1	-36.8	26.4	0.00e+00	0	41	0	2389704704	43	3990
2026-01-30 09:12:58.61	3.40	28.13	-36.1	-36.8	26.3	0.00e+00	0	41	0	2412773376	43	3995
2026-01-30 09:13:02.65	2.22	27.82	-36.1	-36.7	26.4	0.00e+00	0	41	0	2435842048	43	3953
2026-01-30 09:13:06.66	1.08	27.51	-36.3	-37.0	26.2	0.00e+00	0	41	0	2457862144	43	4067
2026-01-30 09:13:10.69	359.95	27.19	-36.1	-36.8	26.3	0.00e+00	0	41	0	2480930816	43	3986
2026-01-30 09:13:14.72	358.84	26.87	-36.3	-37.0	26.2	0.00e+00	0	41	0	2503999488	43	4067
2026-01-30 09:13:18.75	357.76	26.53	-36.3	-37.0	26.2	0.00e+00	0	41	0	2526019584	43	4067
2026-01-30 09:13:22.78	356.70	26.19	-36.6	-37.3	25.9	0.00e+00	0	41	0	2549088256	43	4230
2026-01-30 09:13:26.81	355.66	25.84	-36.4	-37.1	26.1	0.00e+00	0	41	0	2572156928	43	4128
2026-01-30 09:13:30.84	354.65	25.48	-36.5	-37.2	26.0	0.00e+00	0	41	0	2594177024	43	4178
2026-01-30 09:13:34.87	353.66	25.12	-36.4	-37.1	26.1	0.00e+00	0	41	0	2616197120	43	4124
2026-01-30 09:13:38.90	352.69	24.76	-36.5	-37.2	26.0	0.00e+00	0	41	0	2639265792	43	4166
2026-01-30 09:13:42.93	351.75	24.39	-36.6	-37.3	25.9	0.00e+00	0	41	0	2662334464	43	4195
2026-01-30 09:13:46.96	350.82	24.02	-36.6	-37.3	25.9	0.00e+00	0	41	0	2684354560	43	4207
2026-01-30 09:13:50.99	349.92	23.65	-37.0	-37.7	25.6	0.00e+00	0	41	0	2707423232	44	4150
2026-01-30 09:13:55.02	349.04	23.27	-36.9	-37.6	25.7	0.00e+00	0	41	0	2730491904	44	4124
2026-01-30 09:13:59.04	348.19	22.90	-36.9	-37.6	25.7	0.00e+00	0	41	0	2752512000	44	4111
2026-01-30 09:14:03.08	347.35	22.52	-37.1	-37.8	25.5	0.00e+00	0	41	0	2775580672	44	4224
2026-01-30 09:14:07.11	346.53	22.14	-37.1	-37.8	25.5	0.00e+00	0	41	0	2798649344	44	4213
2026-01-30 09:14:11.13	345.73	21.76	-37.3	-38.0	25.3	0.00e+00	0	41	0	2820669440	45	4061
2026-01-30 09:14:15.18	344.95	21.38	-37.2	-37.9	25.4	0.00e+00	0	41	0	2843738112	45	4045
2026-01-30 09:14:19.21	344.19	21.00	-37.2	-37.9	25.4	0.00e+00	0	41	0	2866806784	45	4044
2026-01-30 09:14:23.24	343.45	20.62	-37.2	-37.9	25.4	0.00e+00	0	41	0	2888826880	45	4030
2026-01-30 09:14:27.27	342.73	20.24	-37.2	-37.9	25.3	0.00e+00	0	41	0	2911895552	45	4051
2026-01-30 09:14:31.30	342.03	19.87	-37.4	-38.2	25.2	0.00e+00	0	41	0	2934964224	45	4148
2026-01-30 09:14:35.32	341.34	19.49	-37.6	-38.4	24.9	0.00e+00	0	41	0	2956984320	45	4250
2026-01-30 09:14:39.35	340.68	19.12	-37.7	-38.4	25.0	0.00e+00	0	41	0	2979004416	46	4025
2026-01-30 09:14:43.38	340.02	18.74	-37.8	-38.6	24.8	0.00e+00	0	41	0	3002073088	46	4107
2026-01-30 09:14:47.40	339.39	18.37	-38.0	-38.7	24.7	0.00e+00	0	41	0	3025141760	46	4176
2026-01-30 09:14:51.43	338.77	18.00	-38.0	-38.7	24.6	0.00e+00	0	41	0	3047161856	46	4184
2026-01-30 09:14:55.45	338.16	17.64	-38.1	-38.8	24.5	0.00e+00	0	41	0	3070230528	46	4239
2026-01-30 09:14:59.49	337.57	17.27	-38.1	-38.8	24.5	0.00e+00	0	41	0	3093299200	46	4231
2026-01-30 09:15:03.52	336.99	16.91	-38.3	-39.0	24.3	0.00e+00	0	41	0	3115319296	47	4083
2026-01-30 09:15:07.55	336.43	16.55	-38.5	-39.2	24.1	0.00e+00	0	41	0	3138387968	47	4192
2026-01-30 09:15:11.58	335.88	16.19	-38.5	-39.2	24.1	0.00e+00	0	41	0	3160408064	47	4189
2026-01-30 09:15:15.61	335.35	15.84	-39.2	-40.0	23.9	0.00e+00	0	41	0	3183476736	49	4073
2026-01-30 09:15:19.63	334.82	15.48	-39.2	-40.0	23.9	0.00e+00	0	41	0	3206545408	49	4055
2026-01-30 09:15:23.65	334.32	15.13	-39.1	-39.9	24.0	0.00e+00	0	41	0	3228565504	49	4015
2026-01-30 09:15:27.68	333.82	14.79	-39.3	-40.1	23.8	0.00e+00	0	41	0	3251634176	49	4111
2026-01-30 09:15:31.71	333.33	14.44	-39.5	-40.2	23.7	0.00e+00	0	41	0	3274702848	49	4173
2026-01-30 09:15:35.73	332.86	14.10	-39.4	-40.1	23.7	0.00e+00	0	41	0	3296722944	49	4137
2026-01-30 09:15:39.76	332.39	13.76	-39.7	-40.5	23.4	0.00e+00	0	41	0	3318743040	50	4062
2026-01-30 09:15:43.79	331.94	13.43	-39.8	-40.6	23.3	0.00e+00	0	41	0	3341811712	50	4116
2026-01-30 09:15:47.82	331.50	13.09	-39.9	-40.6	23.2	0.00e+00	0	41	0	3364880384	50	4131
2026-01-30 09:15:51.85	331.06	12.76	-40.0	-40.8	23.1	0.00e+00	0	41	0	3386900480	50	4200
2026-01-30 09:15:55.87	330.64	12.44	-40.0	-40.8	23.0	0.00e+00	0	41	0	3409969152	50	4220
2026-01-30 09:15:59.90	330.23	12.11	-40.2	-41.0	22.8	0.00e+00	0	41	0	3433037824	50	4312
2026-01-30 09:16:03.93	329.82	11.79	-40.1	-40.9	22.9	0.00e+00	0	41	0	3455057920	50	4255
2026-01-30 09:16:07.96	329.43	11.47	-40.2	-40.9	22.8	0.00e+00	0	41	0	3478126592	50	4290
2026-01-30 09:16:11.99	329.04	11.15	-40.3	-41.1	22.7	0.00e+00	0	41	0	3501195264	51	4117
2026-01-30 09:16:16.02	328.66	10.84	-40.3	-41.1	22.7	0.00e+00	0	41	0	3523215360	51	4112
2026-01-30 09:16:20.04	328.30	10.53	-40.6	-41.4	22.2	0.00e+00	0	41	0	3546284032	52	4045
2026-01-30 09:16:24.08	327.93	10.22	-40.5	-41.3	22.3	0.00e+00	0	41	0	3568304128	52	4003
2026-01-30 09:16:28.11	327.58	9.91	-40.8	-41.7	22.0	0.00e+00	0	41	0	3591372800	52	4147
2026-01-30 09:16:32.15	327.23	9.61	-40.7	-41.5	22.1	0.00e+00	0	41	0	3614441472	52	4067
2026-01-30 09:16:36.18	326.89	9.31	-40.7	-41.6	22.0	0.00e+00	0	41	0	3636461568	52	4109
2026-01-30 09:16:40.21	326.56	9.01	-40.8	-41.6	22.0	0.00e+00	0	41	0	3659530240	52	4129
2026-01-30 09:16:44.24	326.24	8.72	-40.7	-41.6	21.9	0.00e+00	0	41	0	3681550336	52	4129
2026-01-30 09:16:48.28	325.92	8.42	-40.9	-41.7	21.7	0.00e+00	0	41	0	3704619008	52	4192
2026-01-30 09:16:52.30	325.61	8.14	-41.0	-41.8	21.6	0.00e+00	0	41	0	3727687680	52	4237
2026-01-30 09:16:56.34	325.30	7.85	-41.0	-41.9	21.5	0.00e+00	0	41	0	3749707776	52	4281
2026-01-30 09:17:00.37	325.01	7.56	-41.0	-41.9	21.5	0.00e+00	0	41	0	3772776448	52	4247
2026-01-30 09:17:04.41	324.71	7.28	-41.2	-42.1	21.2	0.00e+00	0	41	0	3795845120	53	4131
2026-01-30 09:17:08.45	324.43	7.00	-41.3	-42.2	21.1	0.00e+00	0	41	0	3817865216	53	4183
2026-01-30 09:17:12.48	324.14	6.72	-41.4	-42.3	21.0	0.00e+00	0	41	0	3840933888	53	4234
2026-01-30 09:17:16.50	323.87	6.44	-41.4	-42.3	21.0	0.00e+00	0	41	0	3864002560	53	4236
2026-01-30 09:17:20.54	323.60	6.17	-41.6	-42.5	20.7	0.00e+00	0	41	0	3886022656	54	4096
2026-01-30 09:17:24.56	323.34	5.90	-41.5	-42.5	20.8	0.00e+00	0	41	0	3909091328	54	4056
2026-01-30 09:17:28.59	323.08	5.63	-41.7	-42.7	20.5	0.00e+00	0	41	0	3932160000	54	4168
2026-01-30 09:17:32.62	322.82	5.36	-41.6	-42.5	20.6	0.00e+00	0	41	0	3954180096	54	4069
2026-01-30 09:17:36.65	322.57	5.10	-42.0	-42.9	20.2	0.00e+00	0	41	0	3977248768	54	4285
2026-01-30 09:17:40.69	322.33	4.84	-52.8	-64.7	3.8	8.45e-01	0	41	104	3988783104	76	14805
2026-01-30 09:17:44.73	322.09	4.58	-52.9	-65.0	3.8	8.47e-01	0	41	104	3988783104	76	15337
2026-01-30 09:17:48.75	321.85	4.32	-53.0	-64.9	3.8	8.46e-01	0	41	104	3988783104	76	15123
2026-01-30 09:17:52.78	321.62	4.06	-53.2	-65.1	3.8	8.47e-01	0	41	104	3988783104	76	15520
2026-01-30 09:17:56.81	321.39	3.81	-53.4	-65.3	3.8	8.46e-01	0	42	104	3988783104	77	14957
2026-01-30 09:18:00.84	321.17	3.55	-53.2	-65.2	3.8	8.46e-01	0	41	104	3988783104	77	14752
2026-01-30 09:18:04.86	320.95	3.30	-53.2	-65.1	3.8	8.46e-01	0	41	104	3988783104	77	14595
2026-01-30 09:18:08.90	320.74	3.05	-53.1	-65.1	3.8	8.46e-01	0	42	104	3988783104	77	14558
2026-01-30 09:18:12.93	320.53	2.81	-53.1	-65.0	3.8	8.47e-01	0	42	104	3988783104	77	14528
2026-01-30 09:18:16.96	320.32	2.56	-53.1	-65.0	3.8	8.47e-01	0	41	104	3988783104	77	14520
2026-01-30 09:18:20.98	320.12	2.32	-53.1	-65.0	3.8	8.46e-01	0	41	104	3988783104	77	14443
2026-01-30 09:18:25.01	319.92	2.08	-53.0	-64.9	3.8	8.46e-01	0	41	104	3988783104	77	14362

#Closed at: 2026-01-30 09:18:27
#Recorded file [3988 MB]: D:/lorett/data/31041_260130_120507.dat