passes_logs/2026/01/30/R3.2S_Murmansk/R3.2S_Murmansk__20260130_022700_FENGYUN_3D_rec.log

#Pass ID: 20260130_022700_FENGYUN 3D
#Satellite: FENGYUN 3D
#Configuration: FENGYUN 3D
#almurnet v.1.7.20251203
#Start time: 2026-01-30 02:27:00

#Version: 2.2.20231116
#Station: R3.2S_Murmansk
#Location: 33.079688 lon 68.888172 lat
#TLE: 1 43010U 17072A   26029.52179110  .00000394  00000+0  20818-3 0  9997
#TLE: 2 43010  98.9957   1.5649 0002507  83.7772 276.3689 14.19703315425310

#Time	Az	El	Level	Level2	SNR	BER	BlckErr	Temp	State	Recorded	gain1	gain2
2026-01-30 02:27:00.53	23.88	2.03	-53.0	-65.0	3.8	8.46e-01	0	39	0	0	78	13584
2026-01-30 02:27:04.55	23.94	2.29	-52.0	-64.0	3.8	8.48e-01	0	39	104	0	75	14389
2026-01-30 02:27:08.57	23.99	2.54	-52.0	-63.9	3.8	8.46e-01	0	40	104	0	75	14333
2026-01-30 02:27:12.60	24.05	2.81	-52.0	-63.9	3.8	8.47e-01	0	40	104	0	75	14287
2026-01-30 02:27:16.63	24.11	3.07	-52.0	-63.8	3.8	8.46e-01	0	40	104	0	75	14128
2026-01-30 02:27:20.67	24.17	3.34	-52.0	-63.9	3.8	8.47e-01	0	40	104	0	75	14229
2026-01-30 02:27:24.71	24.23	3.61	-51.9	-63.5	3.8	8.46e-01	0	40	104	0	75	13666
2026-01-30 02:27:28.73	24.29	3.88	-51.9	-63.6	3.8	8.45e-01	0	40	104	0	75	13730
2026-01-30 02:27:32.77	24.35	4.16	-51.5	-59.7	4.3	8.41e-01	0	40	104	0	75	8838
2026-01-30 02:27:36.80	24.41	4.44	-48.1	-50.7	12.1	7.26e-04	0	40	0	16777216	68	4657
2026-01-30 02:27:40.83	24.47	4.72	-44.5	-45.9	17.0	0.00e+00	0	40	0	38797312	61	4006
2026-01-30 02:27:44.86	24.53	5.00	-42.7	-43.7	19.5	0.00e+00	0	41	0	61865984	57	3953
2026-01-30 02:27:48.89	24.60	5.29	-43.2	-44.4	18.9	0.00e+00	0	40	0	84934656	58	4006
2026-01-30 02:27:52.91	24.66	5.58	-41.9	-42.9	20.3	0.00e+00	0	40	0	106954752	55	4006
2026-01-30 02:27:56.94	24.73	5.87	-41.5	-42.5	20.7	0.00e+00	0	40	0	130023424	55	3831
2026-01-30 02:28:00.98	24.80	6.17	-41.4	-42.4	20.9	0.00e+00	0	40	0	152043520	54	4006
2026-01-30 02:28:05.02	24.86	6.47	-41.5	-42.4	20.8	0.00e+00	0	41	0	175112192	54	4043
2026-01-30 02:28:09.05	24.93	6.77	-41.5	-42.4	20.9	0.00e+00	0	41	0	198180864	54	4038
2026-01-30 02:28:13.08	25.00	7.08	-41.2	-42.1	21.2	0.00e+00	0	41	0	220200960	54	3889
2026-01-30 02:28:17.11	25.07	7.39	-40.9	-41.7	21.6	0.00e+00	0	41	0	243269632	53	3946
2026-01-30 02:28:21.15	25.15	7.70	-41.0	-41.9	21.5	0.00e+00	0	41	0	266338304	53	4014
2026-01-30 02:28:25.18	25.22	8.02	-40.9	-41.7	21.7	0.00e+00	0	41	0	288358400	53	3951
2026-01-30 02:28:29.21	25.30	8.35	-40.7	-41.6	21.8	0.00e+00	0	41	0	311427072	53	3871
2026-01-30 02:28:33.23	25.37	8.67	-40.5	-41.3	22.1	0.00e+00	0	41	0	334495744	53	3777
2026-01-30 02:28:37.26	25.45	9.00	-40.7	-41.5	22.0	0.00e+00	0	41	0	356515840	53	3844
2026-01-30 02:28:41.29	25.53	9.34	-40.4	-41.3	22.2	0.00e+00	0	41	0	379584512	52	3959
2026-01-30 02:28:45.32	25.61	9.68	-40.5	-41.3	22.2	0.00e+00	0	41	0	401604608	52	3990
2026-01-30 02:28:49.35	25.69	10.02	-40.3	-41.1	22.5	0.00e+00	0	41	0	424673280	52	3874
2026-01-30 02:28:53.38	25.77	10.37	-40.4	-41.2	22.4	0.00e+00	0	41	0	447741952	52	3915
2026-01-30 02:28:57.41	25.86	10.73	-40.2	-41.0	22.6	0.00e+00	0	41	0	469762048	52	3842
2026-01-30 02:29:01.44	25.94	11.09	-40.4	-41.2	22.4	0.00e+00	0	41	0	492830720	52	3932
2026-01-30 02:29:05.47	26.03	11.45	-40.2	-41.0	22.6	0.00e+00	0	41	0	514850816	52	3855
2026-01-30 02:29:09.49	26.12	11.82	-40.2	-41.0	22.6	0.00e+00	0	41	0	537919488	52	3863
2026-01-30 02:29:13.52	26.21	12.20	-40.4	-41.2	22.5	0.00e+00	0	41	0	559939584	52	3922
2026-01-30 02:29:17.55	26.31	12.58	-40.4	-41.2	22.5	0.00e+00	0	41	0	583008256	52	3943
2026-01-30 02:29:21.57	26.40	12.97	-40.3	-41.2	22.5	0.00e+00	0	41	0	606076928	52	3923
2026-01-30 02:29:25.60	26.50	13.36	-40.2	-41.0	22.7	0.00e+00	0	41	0	628097024	52	3857
2026-01-30 02:29:29.63	26.60	13.76	-40.2	-41.0	22.8	0.00e+00	0	41	0	651165696	52	3838
2026-01-30 02:29:33.65	26.70	14.17	-39.9	-40.6	23.2	0.00e+00	0	41	0	674234368	51	3910
2026-01-30 02:29:37.68	26.81	14.58	-39.8	-40.6	23.3	0.00e+00	0	41	0	696254464	51	3874
2026-01-30 02:29:41.71	26.91	15.01	-39.5	-40.2	23.6	0.00e+00	0	41	0	719323136	51	3729
2026-01-30 02:29:45.75	27.02	15.44	-39.3	-40.1	23.7	0.00e+00	0	41	0	742391808	50	3878
2026-01-30 02:29:49.78	27.14	15.87	-39.0	-39.7	24.1	0.00e+00	0	41	0	764411904	49	3930
2026-01-30 02:29:53.81	27.25	16.32	-38.9	-39.6	24.2	0.00e+00	0	41	0	787480576	49	3907
2026-01-30 02:29:57.83	27.37	16.77	-38.8	-39.6	24.2	0.00e+00	0	41	0	809500672	49	3872
2026-01-30 02:30:01.85	27.49	17.23	-38.7	-39.4	24.3	0.00e+00	0	41	0	832569344	49	3824
2026-01-30 02:30:05.88	27.61	17.70	-38.7	-39.4	24.4	0.00e+00	0	41	0	855638016	49	3800
2026-01-30 02:30:09.91	27.74	18.18	-38.6	-39.3	24.5	0.00e+00	0	41	0	877658112	49	3774
2026-01-30 02:30:13.94	27.87	18.67	-38.5	-39.2	24.6	0.00e+00	0	41	0	900726784	48	3944
2026-01-30 02:30:17.97	28.01	19.16	-38.3	-39.0	24.8	0.00e+00	0	41	0	922746880	48	3849
2026-01-30 02:30:22.00	28.15	19.67	-38.3	-39.0	24.8	0.00e+00	0	41	0	945815552	48	3854
2026-01-30 02:30:26.03	28.29	20.19	-38.0	-38.7	25.1	0.00e+00	0	41	0	968884224	48	3721
2026-01-30 02:30:30.07	28.44	20.72	-37.4	-38.1	25.1	0.00e+00	0	41	0	990904320	46	3913
2026-01-30 02:30:34.10	28.59	21.26	-37.3	-38.0	25.2	0.00e+00	0	41	0	1013972992	46	3866
2026-01-30 02:30:38.13	28.75	21.82	-37.3	-38.0	25.3	0.00e+00	0	41	0	1037041664	46	3837
2026-01-30 02:30:42.17	28.91	22.38	-37.4	-38.1	25.3	0.00e+00	0	41	0	1059061760	46	3873
2026-01-30 02:30:46.21	29.08	22.96	-37.6	-38.3	25.0	0.00e+00	0	41	0	1082130432	46	3973
2026-01-30 02:30:50.25	29.25	23.55	-37.5	-38.2	25.1	0.00e+00	0	41	0	1105199104	46	3929
2026-01-30 02:30:54.28	29.43	24.16	-37.1	-37.8	25.5	0.00e+00	0	41	0	1127219200	46	3763
2026-01-30 02:30:58.31	29.62	24.78	-36.9	-37.6	25.6	0.00e+00	0	41	0	1150287872	45	3903
2026-01-30 02:31:02.35	29.81	25.41	-36.7	-37.3	25.8	0.00e+00	0	41	0	1173356544	45	3777
2026-01-30 02:31:06.38	30.01	26.06	-36.7	-37.4	25.9	0.00e+00	0	41	0	1195376640	45	3811
2026-01-30 02:31:10.41	30.22	26.72	-36.9	-37.6	25.7	0.00e+00	0	41	0	1218445312	45	3888
2026-01-30 02:31:14.44	30.43	27.41	-37.0	-37.6	25.7	0.00e+00	0	41	0	1241513984	45	3911
2026-01-30 02:31:18.47	30.66	28.10	-37.0	-37.7	25.7	0.00e+00	0	41	0	1263534080	45	3915
2026-01-30 02:31:22.50	30.89	28.82	-37.1	-37.8	25.6	0.00e+00	0	41	0	1285554176	45	3977
2026-01-30 02:31:26.53	31.13	29.55	-36.9	-37.6	25.8	0.00e+00	0	41	0	1308622848	45	3892
2026-01-30 02:31:30.57	31.39	30.31	-37.2	-37.9	25.5	0.00e+00	0	41	0	1331691520	45	4026
2026-01-30 02:31:34.59	31.66	31.08	-37.4	-38.1	25.4	0.00e+00	0	41	0	1353711616	45	4116
2026-01-30 02:31:38.62	31.93	31.87	-36.6	-37.2	26.1	0.00e+00	0	41	0	1376780288	45	3736
2026-01-30 02:31:42.64	32.22	32.68	-36.7	-37.4	26.0	0.00e+00	0	41	0	1399848960	44	4031
2026-01-30 02:31:46.67	32.53	33.52	-37.0	-37.7	25.7	0.00e+00	0	41	0	1421869056	44	4165
2026-01-30 02:31:50.71	32.85	34.38	-36.7	-37.4	26.0	0.00e+00	0	41	0	1444937728	44	4020
2026-01-30 02:31:54.75	33.19	35.26	-36.8	-37.5	25.9	0.00e+00	0	41	0	1468006400	44	4078
2026-01-30 02:31:58.79	33.55	36.17	-36.6	-37.3	26.1	0.00e+00	0	41	0	1490026496	44	3984
2026-01-30 02:32:02.82	33.92	37.10	-36.4	-37.1	26.3	0.00e+00	0	41	0	1513095168	44	3885
2026-01-30 02:32:06.86	34.32	38.06	-36.1	-36.8	26.6	0.00e+00	0	41	0	1536163840	44	3743
2026-01-30 02:32:10.88	34.74	39.04	-36.0	-36.7	26.7	0.00e+00	0	41	0	1558183936	44	3715
2026-01-30 02:32:14.92	35.19	40.06	-36.5	-37.2	26.3	0.00e+00	0	41	0	1581252608	44	3914
2026-01-30 02:32:18.96	35.66	41.10	-36.5	-37.2	26.2	0.00e+00	0	41	0	1604321280	44	3947
2026-01-30 02:32:22.99	36.17	42.17	-36.6	-37.2	26.3	0.00e+00	0	42	0	1626341376	44	3954
2026-01-30 02:32:27.03	36.71	43.27	-36.8	-37.4	26.1	0.00e+00	0	41	0	1648361472	44	4049
2026-01-30 02:32:31.06	37.28	44.40	-36.9	-37.6	25.9	0.00e+00	0	41	0	1671430144	44	4123
2026-01-30 02:32:35.09	37.90	45.55	-37.7	-38.3	25.7	0.00e+00	0	41	0	1694498816	45	4204
2026-01-30 02:32:39.11	38.56	46.74	-37.1	-37.8	25.9	0.00e+00	0	41	0	1716518912	45	3970
2026-01-30 02:32:43.15	39.28	47.96	-37.0	-37.7	25.9	0.00e+00	0	41	0	1739587584	45	3922
2026-01-30 02:32:47.18	40.06	49.21	-37.2	-37.9	25.8	0.00e+00	0	41	0	1762656256	45	4040
2026-01-30 02:32:51.20	40.89	50.49	-37.4	-38.1	25.6	0.00e+00	0	41	0	1784676352	45	4116
2026-01-30 02:32:55.22	41.80	51.79	-37.7	-38.4	25.4	0.00e+00	0	41	0	1807745024	46	4031
2026-01-30 02:32:59.26	42.80	53.13	-37.9	-38.6	25.2	0.00e+00	0	41	0	1830813696	46	4123
2026-01-30 02:33:03.30	43.89	54.50	-37.9	-38.6	25.2	0.00e+00	0	41	0	1852833792	46	4139
2026-01-30 02:33:07.33	45.09	55.89	-37.8	-38.5	25.3	0.00e+00	0	41	0	1875902464	46	4091
2026-01-30 02:33:11.36	46.42	57.30	-38.1	-38.8	25.1	0.00e+00	0	41	0	1898971136	47	3997
2026-01-30 02:33:15.39	47.89	58.74	-37.9	-38.6	25.2	0.00e+00	0	41	0	1920991232	47	3900
2026-01-30 02:33:19.42	49.52	60.19	-37.1	-37.8	26.0	0.00e+00	0	41	0	1944059904	46	3742
2026-01-30 02:33:23.45	51.35	61.65	-37.2	-37.9	25.9	0.00e+00	0	41	0	1967128576	45	4018
2026-01-30 02:33:27.48	53.41	63.11	-36.5	-37.1	26.5	0.00e+00	0	41	0	1989148672	45	3691
2026-01-30 02:33:31.51	55.74	64.57	-36.6	-37.3	26.3	0.00e+00	0	41	0	2011168768	44	4003
2026-01-30 02:33:35.53	58.37	66.01	-36.2	-36.9	26.7	0.00e+00	0	41	0	2034237440	44	3789
2026-01-30 02:33:39.56	61.38	67.43	-36.5	-37.2	26.5	0.00e+00	0	41	0	2057306112	44	3936
2026-01-30 02:33:43.59	64.83	68.81	-36.4	-37.1	26.4	0.00e+00	0	41	0	2079326208	43	4116
2026-01-30 02:33:47.61	68.77	70.13	-35.9	-36.6	26.9	0.00e+00	0	41	0	2102394880	43	3873
2026-01-30 02:33:51.65	73.32	71.37	-35.9	-36.6	26.9	0.00e+00	0	42	0	2125463552	43	3879
2026-01-30 02:33:55.68	78.50	72.49	-35.6	-36.2	27.2	0.00e+00	0	41	0	2147483648	42	3954
2026-01-30 02:33:59.71	84.38	73.47	-35.4	-36.1	27.2	0.00e+00	0	41	0	2170552320	42	3885
2026-01-30 02:34:03.74	90.96	74.27	-35.3	-36.0	27.4	0.00e+00	0	41	0	2193620992	42	3828
2026-01-30 02:34:07.78	98.19	74.86	-35.4	-36.1	27.4	0.00e+00	0	41	0	2215641088	42	3877
2026-01-30 02:34:11.81	105.88	75.20	-35.2	-35.9	27.5	0.00e+00	0	41	0	2238709760	42	3804
2026-01-30 02:34:15.84	113.79	75.27	-35.2	-35.8	27.5	0.00e+00	0	41	0	2261778432	42	3779
2026-01-30 02:34:19.87	121.64	75.08	-35.0	-35.7	27.6	0.00e+00	0	41	0	2283798528	42	3714
2026-01-30 02:34:23.90	129.15	74.63	-35.2	-35.8	27.5	0.00e+00	0	41	0	2306867200	41	3990
2026-01-30 02:34:27.93	136.11	73.95	-35.3	-36.0	27.3	0.00e+00	0	41	0	2328887296	41	4055
2026-01-30 02:34:31.95	142.38	73.07	-35.4	-36.1	27.3	0.00e+00	0	41	0	2351955968	41	4116
2026-01-30 02:34:35.99	147.97	72.02	-35.8	-36.4	27.0	0.00e+00	0	41	0	2373976064	42	4041
2026-01-30 02:34:40.03	152.88	70.84	-36.4	-37.1	26.5	0.00e+00	0	41	0	2397044736	43	4117
2026-01-30 02:34:44.06	157.15	69.56	-36.1	-36.8	26.7	0.00e+00	0	41	0	2420113408	43	3979
2026-01-30 02:34:48.09	160.88	68.21	-36.1	-36.7	26.7	0.00e+00	0	41	0	2442133504	43	3958
2026-01-30 02:34:52.12	164.13	66.81	-35.7	-36.4	27.0	0.00e+00	0	41	0	2465202176	43	3795
2026-01-30 02:34:56.15	166.97	65.37	-36.0	-36.6	26.9	0.00e+00	0	41	0	2488270848	43	3910
2026-01-30 02:35:00.17	169.47	63.92	-36.4	-37.1	26.5	0.00e+00	0	42	0	2510290944	43	4108
2026-01-30 02:35:04.19	171.67	62.46	-36.4	-37.1	26.5	0.00e+00	0	41	0	2533359616	43	4142
2026-01-30 02:35:08.23	173.63	60.99	-36.4	-37.1	26.5	0.00e+00	0	41	0	2556428288	43	4111
2026-01-30 02:35:12.26	175.37	59.53	-37.1	-37.8	26.0	0.00e+00	0	41	0	2578448384	44	4230
2026-01-30 02:35:16.29	176.93	58.08	-37.4	-38.1	25.7	0.00e+00	0	41	0	2601517056	45	4117
2026-01-30 02:35:20.31	178.33	56.66	-37.6	-38.3	25.6	0.00e+00	0	42	0	2623537152	45	4208
2026-01-30 02:35:24.34	179.60	55.25	-37.5	-38.1	25.7	0.00e+00	0	41	0	2646605824	46	3912
2026-01-30 02:35:28.37	180.75	53.87	-37.3	-38.0	25.8	0.00e+00	0	41	0	2669674496	46	3853
2026-01-30 02:35:32.40	181.80	52.51	-37.7	-38.4	25.4	0.00e+00	0	42	0	2691694592	46	4042
2026-01-30 02:35:36.43	182.76	51.18	-38.0	-38.7	25.1	0.00e+00	0	41	0	2714763264	46	4183
2026-01-30 02:35:40.46	183.64	49.88	-37.9	-38.6	25.3	0.00e+00	0	41	0	2736783360	46	4125
2026-01-30 02:35:44.49	184.44	48.61	-37.7	-38.4	25.4	0.00e+00	0	41	0	2759852032	46	4047
2026-01-30 02:35:48.53	185.19	47.37	-37.0	-37.6	26.0	0.00e+00	0	41	0	2781872128	45	3902
2026-01-30 02:35:52.55	185.88	46.17	-36.9	-37.6	26.1	0.00e+00	0	41	0	2804940800	45	3893
2026-01-30 02:35:56.59	186.53	44.99	-36.5	-37.1	26.4	0.00e+00	0	41	0	2828009472	45	3690
2026-01-30 02:36:00.63	187.13	43.84	-36.3	-37.0	26.6	0.00e+00	0	42	0	2851078144	44	3844
2026-01-30 02:36:04.66	187.69	42.72	-36.6	-37.3	26.3	0.00e+00	0	41	0	2873098240	44	3983
2026-01-30 02:36:08.70	188.21	41.63	-36.8	-37.5	26.0	0.00e+00	0	41	0	2896166912	44	4094
2026-01-30 02:36:12.74	188.70	40.57	-36.3	-37.0	26.5	0.00e+00	0	41	0	2919235584	44	3844
2026-01-30 02:36:16.77	189.16	39.54	-35.8	-36.4	26.9	0.00e+00	0	41	0	2941255680	43	3800
2026-01-30 02:36:20.80	189.60	38.54	-36.1	-36.8	26.6	0.00e+00	0	41	0	2964324352	43	3968
2026-01-30 02:36:24.83	190.01	37.56	-36.4	-37.0	26.3	0.00e+00	0	42	0	2987393024	43	4092
2026-01-30 02:36:28.87	190.39	36.61	-36.3	-37.0	26.3	0.00e+00	0	41	0	3009413120	43	4068
2026-01-30 02:36:32.89	190.76	35.69	-36.5	-37.2	26.2	0.00e+00	0	41	0	3032481792	43	4180
2026-01-30 02:36:36.92	191.11	34.79	-36.7	-37.4	26.0	0.00e+00	0	41	0	3054501888	43	4270
2026-01-30 02:36:40.95	191.44	33.92	-36.5	-37.2	26.1	0.00e+00	0	41	0	3077570560	43	4172
2026-01-30 02:36:44.98	191.75	33.07	-36.3	-37.0	26.3	0.00e+00	0	42	0	3099590656	43	4075
2026-01-30 02:36:49.01	192.05	32.24	-36.2	-36.9	26.3	0.00e+00	0	41	0	3122659328	43	4031
2026-01-30 02:36:53.05	192.33	31.43	-36.2	-36.9	26.4	0.00e+00	0	41	0	3145728000	43	4021
2026-01-30 02:36:57.07	192.60	30.65	-36.4	-37.0	26.2	0.00e+00	0	41	0	3167748096	43	4093
2026-01-30 02:37:01.11	192.86	29.88	-36.5	-37.2	26.1	0.00e+00	0	41	0	3190816768	43	4146
2026-01-30 02:37:05.15	193.11	29.13	-36.5	-37.2	26.0	0.00e+00	0	41	0	3213885440	43	4182
2026-01-30 02:37:09.19	193.35	28.40	-36.5	-37.2	26.1	0.00e+00	0	41	0	3235905536	43	4150
2026-01-30 02:37:13.22	193.58	27.69	-36.5	-37.2	26.0	0.00e+00	0	41	0	3258974208	43	4187
2026-01-30 02:37:17.25	193.80	27.00	-36.7	-37.4	25.9	0.00e+00	0	41	0	3282042880	43	4254
2026-01-30 02:37:21.28	194.01	26.33	-36.6	-37.3	25.9	0.00e+00	0	41	0	3304062976	43	4204
2026-01-30 02:37:25.31	194.21	25.67	-36.6	-37.2	26.0	0.00e+00	0	41	0	3327131648	43	4183
2026-01-30 02:37:29.34	194.41	25.02	-36.5	-37.2	26.0	0.00e+00	0	41	0	3350200320	43	4172
2026-01-30 02:37:33.37	194.60	24.39	-36.8	-37.5	25.8	0.00e+00	0	41	0	3372220416	44	4069
2026-01-30 02:37:37.40	194.78	23.78	-37.1	-37.8	25.5	0.00e+00	0	41	0	3395289088	44	4237
2026-01-30 02:37:41.43	194.95	23.18	-37.2	-38.0	25.4	0.00e+00	0	41	0	3417309184	45	4057
2026-01-30 02:37:45.45	195.12	22.60	-37.4	-38.1	25.2	0.00e+00	0	41	0	3440377856	45	4143
2026-01-30 02:37:49.47	195.28	22.02	-37.5	-38.2	25.1	0.00e+00	0	42	0	3462397952	45	4188
2026-01-30 02:37:53.50	195.44	21.46	-37.6	-38.3	25.1	0.00e+00	0	41	0	3485466624	45	4211
2026-01-30 02:37:57.53	195.60	20.91	-37.6	-38.4	24.9	0.00e+00	0	41	0	3508535296	45	4250
2026-01-30 02:38:01.57	195.74	20.38	-37.6	-38.3	25.0	0.00e+00	0	41	0	3530555392	46	3992
2026-01-30 02:38:05.60	195.89	19.85	-37.8	-38.5	24.8	0.00e+00	0	42	0	3553624064	46	4061
2026-01-30 02:38:09.64	196.03	19.33	-37.7	-38.4	24.9	0.00e+00	0	41	0	3576692736	46	4050
2026-01-30 02:38:13.67	196.16	18.83	-37.8	-38.6	24.8	0.00e+00	0	42	0	3598712832	46	4106
2026-01-30 02:38:17.69	196.30	18.33	-38.0	-38.7	24.6	0.00e+00	0	41	0	3621781504	46	4189
2026-01-30 02:38:21.73	196.42	17.85	-38.1	-38.8	24.5	0.00e+00	0	41	0	3644850176	46	4233
2026-01-30 02:38:25.76	196.55	17.37	-38.4	-39.1	24.2	0.00e+00	0	41	0	3666870272	47	4143
2026-01-30 02:38:29.79	196.67	16.90	-38.6	-39.3	24.0	0.00e+00	0	41	0	3689938944	47	4219
2026-01-30 02:38:33.83	196.79	16.44	-39.0	-39.7	24.1	0.00e+00	0	41	0	3711959040	48	4186
2026-01-30 02:38:37.86	196.90	15.99	-39.3	-40.0	23.8	0.00e+00	0	41	0	3735027712	49	4095
2026-01-30 02:38:41.89	197.01	15.55	-39.4	-40.1	23.7	0.00e+00	0	41	0	3758096384	49	4129
2026-01-30 02:38:45.93	197.12	15.12	-39.5	-40.3	23.6	0.00e+00	0	41	0	3780116480	49	4210
2026-01-30 02:38:49.96	197.23	14.69	-39.5	-40.2	23.6	0.00e+00	0	41	0	3803185152	49	4192
2026-01-30 02:38:53.98	197.33	14.27	-39.8	-40.6	23.3	0.00e+00	0	41	0	3825205248	50	4100
2026-01-30 02:38:58.01	197.43	13.86	-39.7	-40.5	23.3	0.00e+00	0	41	0	3848273920	50	4075
2026-01-30 02:39:02.05	197.53	13.45	-39.9	-40.7	23.1	0.00e+00	0	41	0	3871342592	50	4177
2026-01-30 02:39:06.08	197.63	13.05	-39.9	-40.7	23.1	0.00e+00	0	41	0	3893362688	50	4171
2026-01-30 02:39:10.11	197.72	12.66	-40.1	-40.9	22.9	0.00e+00	0	41	0	3916431360	50	4270
2026-01-30 02:39:14.14	197.82	12.28	-40.1	-40.9	22.9	0.00e+00	0	42	0	3939500032	51	4040
2026-01-30 02:39:18.17	197.91	11.90	-40.3	-41.1	22.7	0.00e+00	0	41	0	3961520128	51	4121
2026-01-30 02:39:22.21	198.00	11.52	-40.3	-41.1	22.7	0.00e+00	0	42	0	3984588800	51	4120
2026-01-30 02:39:26.25	198.08	11.15	-40.6	-41.5	22.3	0.00e+00	0	42	0	4007657472	51	4292
2026-01-30 02:39:30.28	198.17	10.79	-40.5	-41.4	22.4	0.00e+00	0	42	0	4029677568	51	4253
2026-01-30 02:39:34.31	198.25	10.43	-40.4	-41.2	22.4	0.00e+00	0	42	0	4052746240	52	3949
2026-01-30 02:39:38.34	198.33	10.08	-40.5	-41.3	22.3	0.00e+00	0	41	0	4075814912	52	3993
2026-01-30 02:39:42.37	198.41	9.73	-41.0	-41.8	21.8	0.00e+00	0	42	0	4097835008	52	4234
2026-01-30 02:39:46.40	198.49	9.38	-40.8	-41.7	21.9	0.00e+00	0	41	0	4120903680	52	4147
2026-01-30 02:39:50.43	198.57	9.05	-40.8	-41.6	21.9	0.00e+00	0	41	0	4142923776	52	4141
2026-01-30 02:39:54.47	198.64	8.71	-41.0	-41.8	21.7	0.00e+00	0	41	0	4165992448	52	4238
2026-01-30 02:39:58.51	198.72	8.38	-41.0	-41.9	21.7	0.00e+00	0	41	0	4188012544	52	4245
2026-01-30 02:40:02.55	198.79	8.05	-40.9	-41.8	21.6	0.00e+00	0	41	0	4211081216	52	4222
2026-01-30 02:40:06.58	198.86	7.73	-41.1	-42.0	21.4	0.00e+00	0	41	0	4234149888	53	4072
2026-01-30 02:40:10.62	198.93	7.41	-41.4	-42.3	21.1	0.00e+00	0	41	0	4256169984	53	4213
2026-01-30 02:40:14.65	199.00	7.10	-41.1	-42.0	21.3	0.00e+00	0	42	0	4279238656	53	4088
2026-01-30 02:40:18.67	199.07	6.79	-41.4	-42.3	21.1	0.00e+00	0	41	0	4302307328	53	4204
2026-01-30 02:40:22.70	199.14	6.49	-41.6	-42.5	20.8	0.00e+00	0	41	0	4324327424	54	4095
2026-01-30 02:40:26.73	199.20	6.18	-41.8	-42.8	20.5	0.00e+00	0	41	0	4347396096	54	4217
2026-01-30 02:40:30.76	199.27	5.89	-41.8	-42.7	20.5	0.00e+00	0	41	0	4370464768	54	4170
2026-01-30 02:40:34.79	199.33	5.59	-41.7	-42.6	20.5	0.00e+00	0	41	0	4392484864	54	4142
2026-01-30 02:40:38.83	199.39	5.30	-42.0	-43.0	20.1	0.00e+00	0	41	0	4415553536	54	4321
2026-01-30 02:40:42.86	199.45	5.01	-52.2	-64.2	3.8	9.84e-02	0	41	104	4436525056	75	14752
2026-01-30 02:40:46.88	199.51	4.72	-53.4	-65.4	3.8	8.45e-01	0	42	104	4436525056	77	15157
2026-01-30 02:40:50.92	199.57	4.44	-53.9	-65.9	3.8	8.46e-01	0	42	104	4436525056	78	15074
2026-01-30 02:40:54.95	199.63	4.16	-54.1	-66.1	3.8	8.46e-01	0	42	104	4436525056	78	15460
2026-01-30 02:40:58.98	199.69	3.88	-54.3	-66.2	3.8	8.46e-01	0	42	104	4436525056	79	14828
2026-01-30 02:41:03.01	199.75	3.61	-54.3	-66.3	3.8	8.46e-01	0	41	104	4436525056	79	14908
2026-01-30 02:41:07.03	199.80	3.34	-54.1	-66.1	3.8	8.46e-01	0	42	104	4436525056	79	14570
2026-01-30 02:41:11.07	199.86	3.07	-53.5	-65.4	3.8	8.45e-01	0	41	104	4436525056	79	13540
2026-01-30 02:41:15.09	199.91	2.80	-53.3	-65.2	3.8	8.44e-01	0	42	104	4436525056	78	14041
2026-01-30 02:41:19.12	199.97	2.54	-53.3	-65.2	3.8	8.45e-01	0	42	104	4436525056	78	13945
2026-01-30 02:41:23.15	200.02	2.27	-53.2	-65.1	3.8	8.47e-01	0	41	104	4436525056	78	13880
2026-01-30 02:41:27.18	200.07	2.02	-53.2	-65.1	3.8	8.45e-01	0	42	104	4436525056	78	13848

#Closed at: 2026-01-30 02:41:30
#Recorded file [4436 MB]: D:/lorett/data/31041_260130_052700.dat