passes_logs/2026/01/30/R3.2S_Murmansk/R3.2S_Murmansk__20260130_132457_AQUA_rec.log

#Pass ID: 20260130_132457_AQUA
#Satellite: AQUA
#Configuration: AQUA
#almurnet v.1.7.20251203
#Start time: 2026-01-30 13:24:59

#Version: 2.2.20231116
#Station: R3.2S_Murmansk
#Location: 33.079688 lon 68.888172 lat
#TLE: 1 27424U 02022A   26029.54575153  .00001738  00000+0  35736-3 0  9994
#TLE: 2 27424  98.4104 356.2197 0001804  61.7823  56.0643 14.61874165263019

#Time	Az	El	Level	Level2	SNR	BER	BlckErr	Temp	State	Recorded	gain1	gain2
2026-01-30 13:24:59.68	208.00	2.11	-55.1	-72.9	3.8	7.46e-01	0	40	0	0	82	26988
2026-01-30 13:25:02.68	208.22	2.29	-54.0	-71.8	3.8	7.44e-01	0	40	104	0	79	28137
2026-01-30 13:25:05.71	208.46	2.47	-54.0	-71.8	3.8	7.45e-01	0	40	104	0	79	28157
2026-01-30 13:25:08.74	208.69	2.65	-53.9	-71.7	3.8	7.43e-01	0	40	104	0	79	27935
2026-01-30 13:25:11.77	208.93	2.83	-53.9	-71.6	3.8	7.41e-01	0	40	104	0	79	27693
2026-01-30 13:25:14.79	209.17	3.01	-53.9	-71.7	3.8	7.47e-01	0	40	104	0	79	27739
2026-01-30 13:25:17.82	209.41	3.19	-53.9	-71.7	3.8	7.44e-01	0	40	104	0	79	27844
2026-01-30 13:25:20.84	209.66	3.37	-53.9	-71.6	3.8	7.46e-01	0	40	104	0	79	27618
2026-01-30 13:25:23.86	209.91	3.56	-53.9	-71.3	3.8	7.45e-01	0	40	104	0	79	26675
2026-01-30 13:25:26.88	210.16	3.74	-53.9	-71.4	3.8	7.46e-01	0	40	104	0	79	26820
2026-01-30 13:25:29.90	210.42	3.93	-53.9	-71.5	3.8	7.48e-01	0	40	104	0	79	27205
2026-01-30 13:25:32.93	210.68	4.11	-53.9	-71.6	3.8	7.45e-01	0	40	104	0	79	27531
2026-01-30 13:25:35.95	210.94	4.30	-53.8	-69.7	3.8	7.43e-01	0	40	104	0	79	22058
2026-01-30 13:25:38.97	211.21	4.49	-53.7	-66.2	5.0	7.11e-01	0	40	0	0	79	14760
2026-01-30 13:25:42.00	211.48	4.68	-53.2	-62.2	8.1	6.45e-01	155	40	0	2097152	78	9850
2026-01-30 13:25:45.01	211.75	4.87	-50.9	-54.7	15.9	6.07e-01	0	40	0	7864320	73	5545
2026-01-30 13:25:48.04	212.03	5.06	-49.3	-51.9	18.8	6.06e-01	0	40	0	13107200	70	4812
2026-01-30 13:25:51.06	212.31	5.25	-51.7	-55.8	15.4	6.07e-01	0	40	0	18874368	73	6330
2026-01-30 13:25:54.09	212.60	5.45	-45.9	-47.3	23.4	6.04e-01	0	40	0	22020096	63	4237
2026-01-30 13:25:57.11	212.89	5.64	-45.7	-47.1	23.7	6.05e-01	0	41	0	27787264	63	4115
2026-01-30 13:26:00.12	213.18	5.84	-45.7	-47.1	23.7	6.06e-01	0	40	0	33030144	63	4127
2026-01-30 13:26:03.14	213.48	6.03	-45.7	-47.1	23.8	6.07e-01	0	40	0	38797312	63	4138
2026-01-30 13:26:06.17	213.78	6.23	-45.7	-47.2	23.7	6.06e-01	0	40	0	44564480	63	4161
2026-01-30 13:26:09.19	214.09	6.43	-45.5	-46.9	24.0	6.06e-01	0	40	0	50331648	62	4268
2026-01-30 13:26:12.21	214.40	6.63	-45.3	-46.7	24.2	6.04e-01	0	40	0	56098816	62	4176
2026-01-30 13:26:15.24	214.71	6.83	-45.3	-46.7	24.2	6.07e-01	0	40	0	61341696	62	4182
2026-01-30 13:26:18.26	215.03	7.03	-45.5	-46.9	24.2	6.05e-01	0	40	0	67108864	62	4258
2026-01-30 13:26:21.29	215.36	7.24	-45.1	-46.4	24.5	6.06e-01	0	40	0	72876032	62	4046
2026-01-30 13:26:24.31	215.69	7.44	-45.3	-46.7	24.4	6.07e-01	0	41	0	78643200	62	4149
2026-01-30 13:26:27.33	216.02	7.65	-45.2	-46.6	24.5	6.05e-01	0	40	0	84410368	62	4111
2026-01-30 13:26:30.35	216.36	7.85	-45.1	-46.4	24.6	6.05e-01	0	40	0	89653248	62	4050
2026-01-30 13:26:33.38	216.71	8.06	-45.0	-46.3	24.8	6.06e-01	0	41	0	95420416	62	3971
2026-01-30 13:26:36.40	217.05	8.27	-45.0	-46.3	24.8	6.06e-01	0	41	0	101187584	61	4195
2026-01-30 13:26:39.42	217.41	8.48	-45.1	-46.5	24.6	6.06e-01	0	41	0	106954752	61	4298
2026-01-30 13:26:42.45	217.77	8.69	-44.8	-46.1	25.0	6.06e-01	0	41	0	112721920	61	4121
2026-01-30 13:26:45.47	218.14	8.90	-44.9	-46.2	24.9	6.04e-01	0	40	0	117964800	61	4150
2026-01-30 13:26:48.49	218.51	9.12	-44.8	-46.1	25.0	6.05e-01	0	41	0	123731968	61	4131
2026-01-30 13:26:51.52	218.88	9.33	-44.6	-45.9	25.2	6.04e-01	0	41	0	129499136	61	4015
2026-01-30 13:26:54.54	219.27	9.55	-44.6	-45.9	25.2	6.06e-01	0	41	0	135266304	61	4030
2026-01-30 13:26:57.57	219.66	9.76	-44.6	-45.9	25.3	6.07e-01	0	41	0	141033472	61	4030
2026-01-30 13:27:00.60	220.05	9.98	-44.6	-45.8	25.4	6.07e-01	0	40	0	146800640	61	3981
2026-01-30 13:27:03.62	220.45	10.20	-44.4	-45.6	25.5	6.03e-01	0	41	0	152043520	60	4128
2026-01-30 13:27:06.64	220.86	10.42	-44.4	-45.6	25.5	6.04e-01	0	40	0	157810688	60	4138
2026-01-30 13:27:09.66	221.27	10.64	-44.2	-45.4	25.7	6.07e-01	0	40	0	163577856	60	4047
2026-01-30 13:27:12.68	221.69	10.86	-44.4	-45.6	25.6	6.04e-01	0	40	0	169345024	60	4121
2026-01-30 13:27:15.70	222.12	11.08	-44.4	-45.6	25.6	6.05e-01	0	40	0	175112192	60	4110
2026-01-30 13:27:18.72	222.55	11.30	-44.1	-45.3	25.8	6.06e-01	0	40	0	180879360	60	3999
2026-01-30 13:27:21.75	222.99	11.53	-44.1	-45.3	25.9	6.05e-01	0	40	0	186122240	60	3992
2026-01-30 13:27:24.76	223.44	11.75	-44.1	-45.3	25.8	6.04e-01	0	40	0	191889408	60	3999
2026-01-30 13:27:27.78	223.89	11.97	-44.2	-45.4	25.8	6.06e-01	0	40	0	197656576	60	4008
2026-01-30 13:27:30.80	224.35	12.20	-44.2	-45.4	25.8	6.04e-01	0	40	0	203423744	60	4034
2026-01-30 13:27:33.83	224.82	12.43	-44.1	-45.3	25.9	6.08e-01	0	41	0	209190912	60	3960
2026-01-30 13:27:36.86	225.30	12.65	-44.1	-45.3	25.8	6.05e-01	0	40	0	214433792	59	4227
2026-01-30 13:27:39.88	225.79	12.88	-44.0	-45.2	25.9	6.05e-01	0	41	0	220200960	59	4166
2026-01-30 13:27:42.90	226.28	13.11	-43.8	-44.9	26.2	6.05e-01	0	40	0	225968128	59	4043
2026-01-30 13:27:45.92	226.78	13.34	-44.1	-45.2	25.9	6.04e-01	0	41	0	231735296	59	4192
2026-01-30 13:27:48.95	227.29	13.57	-43.8	-45.0	26.1	6.06e-01	0	41	0	237502464	59	4077
2026-01-30 13:27:51.97	227.80	13.80	-43.8	-44.9	25.4	6.02e-01	0	41	0	242745344	59	4032
2026-01-30 13:27:55.00	228.33	14.03	-43.7	-44.9	26.2	6.03e-01	0	41	0	248512512	59	4005
2026-01-30 13:27:58.03	228.87	14.26	-43.8	-44.9	26.2	6.06e-01	0	41	0	254279680	59	4027
2026-01-30 13:28:01.05	229.41	14.49	-43.6	-44.7	26.4	6.05e-01	0	41	0	260046848	59	3956
2026-01-30 13:28:04.07	229.96	14.72	-43.5	-44.7	26.5	6.05e-01	0	41	0	265814016	59	3916
2026-01-30 13:28:07.09	230.52	14.96	-43.5	-44.7	26.5	6.05e-01	0	41	0	271581184	59	3918
2026-01-30 13:28:10.12	231.09	15.19	-43.6	-44.7	26.5	6.04e-01	0	41	0	276824064	59	3932
2026-01-30 13:28:13.14	231.67	15.42	-43.5	-44.6	26.5	6.04e-01	0	41	0	282591232	58	4115
2026-01-30 13:28:16.16	232.26	15.65	-43.5	-44.6	26.5	6.06e-01	0	40	0	288358400	58	4130
2026-01-30 13:28:19.19	232.85	15.88	-43.5	-44.6	26.5	6.07e-01	0	40	0	294125568	58	4136
2026-01-30 13:28:22.21	233.46	16.11	-43.5	-44.7	26.5	6.04e-01	0	41	0	299892736	58	4153
2026-01-30 13:28:25.24	234.08	16.34	-43.4	-44.5	26.6	6.06e-01	0	40	0	305135616	58	4089
2026-01-30 13:28:28.26	234.70	16.57	-43.4	-44.5	26.7	6.04e-01	0	41	0	310902784	58	4082
2026-01-30 13:28:31.28	235.34	16.80	-43.4	-44.5	26.7	6.05e-01	0	41	0	316669952	58	4070
2026-01-30 13:28:34.30	235.99	17.02	-43.4	-44.5	26.7	6.04e-01	0	41	0	322437120	58	4072
2026-01-30 13:28:37.33	236.64	17.25	-43.4	-44.5	26.8	6.03e-01	0	41	0	328204288	58	4057
2026-01-30 13:28:40.35	237.31	17.47	-43.4	-44.5	26.7	6.05e-01	0	41	0	333447168	58	4090
2026-01-30 13:28:43.37	237.99	17.70	-43.6	-44.8	26.5	6.05e-01	0	41	0	339214336	58	4194
2026-01-30 13:28:46.39	238.67	17.92	-43.5	-44.6	26.7	6.04e-01	0	40	0	344981504	58	4111
2026-01-30 13:28:49.41	239.37	18.14	-44.0	-54.6	3.8	7.39e-01	0	41	104	348651520	58	13087
2026-01-30 13:28:52.44	240.08	18.36	-46.9	-57.8	3.8	7.49e-01	0	41	104	348651520	64	13371
2026-01-30 13:28:55.47	240.80	18.57	-44.6	-55.3	3.9	7.40e-01	0	41	104	348651520	61	11840
2026-01-30 13:28:58.49	241.53	18.79	-45.3	-56.2	3.7	7.46e-01	0	41	104	348651520	61	13234
2026-01-30 13:29:01.51	242.27	19.00	-52.7	-66.1	3.9	7.43e-01	0	41	104	348651520	77	16416
2026-01-30 13:29:04.53	243.02	19.21	-44.1	-54.7	3.7	7.49e-01	0	41	104	348651520	60	11711
2026-01-30 13:29:07.55	243.78	19.41	-44.9	-55.4	4.1	7.34e-01	0	40	104	348651520	61	12075
2026-01-30 13:29:10.58	244.55	19.62	-44.5	-55.2	3.8	7.43e-01	0	41	104	348651520	61	11733
2026-01-30 13:29:13.60	245.33	19.82	-44.4	-55.2	3.8	7.43e-01	0	41	104	348651520	60	12463
2026-01-30 13:29:16.63	246.13	20.02	-51.7	-64.3	3.8	7.46e-01	0	41	104	348651520	73	16698
2026-01-30 13:29:19.66	246.93	20.21	-44.7	-55.5	3.8	7.42e-01	0	41	104	348651520	61	12148
2026-01-30 13:29:22.68	247.75	20.40	-44.8	-55.6	3.8	7.44e-01	0	41	104	348651520	60	12994
2026-01-30 13:29:25.70	248.57	20.58	-50.1	-68.5	3.8	7.50e-01	0	41	104	348651520	72	28752
2026-01-30 13:29:28.72	249.40	20.76	-43.8	-55.1	3.8	7.42e-01	0	41	104	348651520	59	13001
2026-01-30 13:29:31.74	250.25	20.94	-44.5	-55.9	3.8	7.45e-01	0	41	104	348651520	59	14342
2026-01-30 13:29:34.76	251.10	21.11	-44.2	-55.1	3.8	7.43e-01	0	41	104	348651520	60	12313
2026-01-30 13:29:37.78	251.96	21.28	-44.1	-54.9	3.8	7.46e-01	0	41	104	348651520	59	12781
2026-01-30 13:29:40.80	252.83	21.44	-53.7	-70.2	3.8	7.42e-01	0	41	104	348651520	78	24700
2026-01-30 13:29:43.82	253.71	21.60	-44.2	-54.9	3.8	7.44e-01	0	41	104	348651520	60	12031
2026-01-30 13:29:46.85	254.61	21.75	-45.2	-55.9	3.8	7.47e-01	0	41	104	348651520	60	13551
2026-01-30 13:29:49.87	255.51	21.89	-54.0	-69.3	3.8	7.49e-01	0	41	104	348651520	78	22334
2026-01-30 13:29:52.89	256.41	22.03	-44.1	-54.8	3.8	7.45e-01	0	41	104	348651520	60	11829
2026-01-30 13:29:55.92	257.33	22.16	-45.4	-56.2	3.8	7.46e-01	0	41	104	348651520	61	13219
2026-01-30 13:29:58.95	258.26	22.29	-45.4	-56.2	3.8	7.43e-01	0	41	104	348651520	61	13190
2026-01-30 13:30:01.97	259.19	22.41	-44.1	-54.8	3.8	7.47e-01	0	41	104	348651520	59	12663
2026-01-30 13:30:04.99	260.12	22.52	-54.4	-71.0	3.8	7.45e-01	0	41	104	348651520	79	25763
2026-01-30 13:30:08.01	261.07	22.63	-44.1	-54.9	3.8	7.48e-01	0	41	104	348651520	60	11963
2026-01-30 13:30:11.04	262.02	22.72	-44.4	-55.2	3.8	7.47e-01	0	41	104	348651520	60	12444
2026-01-30 13:30:14.07	262.98	22.81	-54.2	-69.9	3.8	7.42e-01	0	41	104	348651520	78	24095
2026-01-30 13:30:17.09	263.94	22.90	-44.1	-54.8	3.8	7.43e-01	0	41	104	348651520	60	11929
2026-01-30 13:30:20.11	264.91	22.97	-45.7	-56.5	3.8	7.43e-01	0	41	104	348651520	62	12915
2026-01-30 13:30:23.13	265.88	23.04	-45.5	-56.3	3.8	7.43e-01	0	41	104	348651520	61	13356
2026-01-30 13:30:26.15	266.86	23.10	-44.2	-54.9	3.8	7.45e-01	0	41	104	348651520	60	12043
2026-01-30 13:30:29.18	267.84	23.15	-54.3	-70.5	3.8	7.43e-01	0	41	104	348651520	79	24179
2026-01-30 13:30:32.20	268.82	23.19	-44.3	-54.9	3.8	7.45e-01	0	41	104	348651520	60	12068
2026-01-30 13:30:35.23	269.81	23.23	-45.6	-56.4	3.8	7.43e-01	0	41	104	348651520	62	12745
2026-01-30 13:30:38.25	270.80	23.25	-52.6	-65.7	3.9	7.43e-01	0	41	104	348651520	77	15731
2026-01-30 13:30:41.28	271.79	23.27	-44.1	-54.8	3.8	7.42e-01	0	40	104	348651520	60	11939
2026-01-30 13:30:44.30	272.77	23.28	-46.9	-57.9	3.9	7.44e-01	0	41	104	348651520	64	13453
2026-01-30 13:30:47.32	273.76	23.28	-45.2	-56.0	3.8	7.45e-01	0	41	104	348651520	61	12947
2026-01-30 13:30:50.34	274.75	23.28	-44.3	-55.0	3.8	7.42e-01	0	41	104	348651520	60	12204
2026-01-30 13:30:53.37	275.74	23.26	-54.0	-69.3	3.9	7.41e-01	0	41	104	348651520	80	19991
2026-01-30 13:30:56.39	276.73	23.24	-44.2	-54.8	3.8	7.44e-01	0	41	104	348651520	60	11912
2026-01-30 13:30:59.42	277.72	23.20	-45.1	-55.8	3.8	7.46e-01	0	41	104	348651520	60	13297
2026-01-30 13:31:02.44	278.70	23.16	-47.6	-58.6	3.9	7.46e-01	0	41	104	348651520	67	12272
2026-01-30 13:31:05.46	279.68	23.11	-44.1	-54.7	3.8	7.45e-01	0	41	104	348651520	60	11730
2026-01-30 13:31:08.49	280.65	23.06	-51.2	-63.2	3.8	7.43e-01	0	40	104	348651520	72	15636
2026-01-30 13:31:11.51	281.63	22.99	-44.5	-55.1	3.8	7.46e-01	0	41	104	348651520	60	12334
2026-01-30 13:31:14.53	282.59	22.92	-44.4	-55.1	3.8	7.44e-01	0	41	104	348651520	60	12347
2026-01-30 13:31:17.55	283.55	22.84	-53.7	-67.9	3.8	7.43e-01	0	41	104	348651520	79	17988
2026-01-30 13:31:20.58	284.51	22.75	-44.1	-54.8	3.8	7.44e-01	0	41	104	348651520	60	11853
2026-01-30 13:31:23.61	285.47	22.65	-45.5	-56.2	3.8	7.46e-01	0	41	104	348651520	61	13247
2026-01-30 13:31:26.63	286.41	22.55	-44.6	-55.2	3.9	7.43e-01	0	41	104	348651520	61	11691
2026-01-30 13:31:29.65	287.35	22.44	-44.3	-55.0	3.8	7.42e-01	0	41	104	348651520	60	12103
2026-01-30 13:31:32.68	288.28	22.32	-54.5	-70.0	3.8	7.46e-01	0	41	104	348651520	79	22857
2026-01-30 13:31:35.71	289.21	22.20	-44.3	-55.0	3.8	7.43e-01	0	41	104	348651520	60	12222
2026-01-30 13:31:38.73	290.12	22.07	-46.0	-56.7	3.8	7.45e-01	0	41	104	348651520	62	13250
2026-01-30 13:31:41.75	291.03	21.93	-53.8	-68.0	3.8	7.43e-01	0	41	104	348651520	78	19207
2026-01-30 13:31:44.78	291.93	21.79	-44.1	-54.9	3.8	7.44e-01	0	41	104	348651520	59	12765
2026-01-30 13:31:47.81	292.83	21.64	-46.1	-56.9	3.8	7.45e-01	0	41	104	348651520	63	12774
2026-01-30 13:31:50.82	293.70	21.49	-44.2	-54.8	3.8	7.43e-01	0	41	104	348651520	60	11889
2026-01-30 13:31:53.85	294.58	21.33	-44.1	-54.9	3.8	7.43e-01	0	41	104	348651520	60	12013
2026-01-30 13:31:56.87	295.44	21.16	-54.7	-70.7	3.7	7.45e-01	0	41	104	348651520	79	24967
2026-01-30 13:31:59.89	296.29	20.99	-44.0	-54.5	3.8	7.45e-01	0	41	104	348651520	59	12224
2026-01-30 13:32:02.92	297.14	20.82	-45.3	-56.2	3.9	7.45e-01	0	41	104	348651520	61	13150
2026-01-30 13:32:05.95	297.97	20.64	-51.1	-63.2	3.8	7.43e-01	0	41	104	348651520	74	13901
2026-01-30 13:32:08.97	298.80	20.46	-44.0	-54.7	3.8	7.44e-01	0	41	104	348651520	59	12417
2026-01-30 13:32:11.99	299.61	20.27	-44.5	-55.4	3.8	7.44e-01	0	40	104	348651520	61	12017
2026-01-30 13:32:15.02	300.41	20.08	-45.6	-56.2	3.9	7.47e-01	0	41	104	348651520	61	13260
2026-01-30 13:32:18.05	301.21	19.88	-43.7	-54.4	3.8	7.43e-01	0	41	104	348651520	59	12025
2026-01-30 13:32:21.07	301.99	19.68	-54.6	-70.8	3.8	7.45e-01	0	41	104	348651520	79	25213
2026-01-30 13:32:24.09	302.76	19.48	-43.7	-54.4	3.8	7.46e-01	0	41	104	348651520	59	12069
2026-01-30 13:32:27.11	303.52	19.28	-47.9	-58.9	3.9	7.46e-01	0	41	104	348651520	67	12800
2026-01-30 13:32:30.14	304.27	19.07	-46.9	-58.1	3.9	7.48e-01	0	40	104	348651520	66	12318
2026-01-30 13:32:33.16	305.01	18.86	-43.6	-54.2	3.9	7.44e-01	0	41	104	348651520	59	11719
2026-01-30 13:32:36.18	305.74	18.65	-43.5	-54.1	3.8	7.41e-01	0	41	104	348651520	59	11640
2026-01-30 13:32:39.20	306.46	18.44	-46.2	-57.0	3.8	7.45e-01	0	41	104	348651520	63	12923
2026-01-30 13:32:42.23	307.17	18.22	-43.6	-54.3	3.8	7.45e-01	0	41	104	348651520	59	11921
2026-01-30 13:32:45.25	307.87	18.00	-53.5	-68.1	3.9	7.45e-01	0	41	104	348651520	79	18418
2026-01-30 13:32:48.27	308.55	17.78	-43.7	-54.4	3.8	7.44e-01	0	41	104	348651520	59	12062
2026-01-30 13:32:51.29	309.23	17.56	-44.8	-55.5	3.8	7.42e-01	0	41	104	348651520	61	12230
2026-01-30 13:32:54.32	309.90	17.34	-43.9	-54.6	3.8	7.46e-01	0	41	104	348651520	59	12295
2026-01-30 13:32:57.34	310.55	17.11	-43.4	-54.1	3.8	7.43e-01	0	41	104	348651520	58	12242
2026-01-30 13:33:00.37	311.20	16.89	-43.6	-54.2	3.8	7.47e-01	0	41	104	348651520	58	12387
2026-01-30 13:33:03.40	311.84	16.66	-45.0	-55.9	3.8	7.44e-01	0	41	104	348651520	62	12086
2026-01-30 13:33:06.42	312.47	16.43	-43.8	-54.4	3.8	7.43e-01	0	41	104	348651520	58	12806
2026-01-30 13:33:09.44	313.08	16.21	-49.9	-61.8	3.9	7.47e-01	0	41	104	348651520	72	13378
2026-01-30 13:33:12.47	313.69	15.98	-43.7	-54.4	3.8	7.45e-01	0	41	104	348651520	59	11971
2026-01-30 13:33:15.49	314.29	15.75	-44.4	-55.2	3.8	7.43e-01	0	41	104	348651520	61	11787
2026-01-30 13:33:18.51	314.88	15.52	-44.1	-54.8	3.8	7.46e-01	0	41	104	348651520	59	12541
2026-01-30 13:33:21.53	315.46	15.29	-43.7	-54.4	3.8	7.43e-01	0	41	104	348651520	59	12023
2026-01-30 13:33:24.56	316.03	15.06	-46.9	-58.0	3.8	7.48e-01	0	41	104	348651520	64	13673
2026-01-30 13:33:27.58	316.59	14.83	-44.0	-54.7	3.8	7.44e-01	0	41	104	348651520	60	11792
2026-01-30 13:33:30.60	317.14	14.60	-44.8	-55.6	3.8	7.47e-01	0	41	104	348651520	60	13036
2026-01-30 13:33:33.62	317.68	14.37	-46.7	-57.7	3.8	7.43e-01	0	41	104	348651520	65	12397
2026-01-30 13:33:36.65	318.22	14.14	-43.8	-54.5	3.8	7.42e-01	0	41	104	348651520	59	12169
2026-01-30 13:33:39.67	318.74	13.91	-43.8	-54.4	3.8	7.43e-01	0	41	104	348651520	59	12046
2026-01-30 13:33:42.69	319.26	13.69	-46.8	-57.7	3.8	7.41e-01	0	41	104	348651520	63	13910
2026-01-30 13:33:45.71	319.77	13.46	-43.7	-54.4	3.8	7.46e-01	0	41	104	348651520	59	12065
2026-01-30 13:33:48.74	320.27	13.23	-47.8	-58.9	3.8	7.45e-01	0	41	104	348651520	65	14340
2026-01-30 13:33:51.77	320.76	13.00	-43.7	-54.5	3.8	7.42e-01	0	41	104	348651520	59	12174
2026-01-30 13:33:54.79	321.25	12.78	-44.7	-55.5	3.9	7.46e-01	0	41	104	348651520	60	12885
2026-01-30 13:33:57.81	321.73	12.55	-45.5	-56.4	3.8	7.49e-01	0	41	104	348651520	63	11977
2026-01-30 13:34:00.84	322.20	12.32	-43.5	-54.2	3.8	7.46e-01	0	41	104	348651520	59	11695
2026-01-30 13:34:03.87	322.66	12.10	-44.8	-55.6	3.8	7.46e-01	0	41	104	348651520	60	13003
2026-01-30 13:34:06.90	323.12	11.87	-49.3	-61.2	3.8	7.46e-01	0	41	104	348651520	69	14798
2026-01-30 13:34:09.92	323.57	11.65	-43.6	-54.2	3.8	7.41e-01	0	41	104	348651520	59	11804
2026-01-30 13:34:12.94	324.01	11.43	-53.6	-69.3	3.8	7.48e-01	0	41	104	348651520	77	23844
2026-01-30 13:34:15.96	324.44	11.21	-44.0	-54.7	3.8	7.44e-01	0	41	104	348651520	59	12468
2026-01-30 13:34:18.99	324.87	10.99	-46.6	-57.6	3.8	7.47e-01	0	41	104	348651520	64	13100
2026-01-30 13:34:22.01	325.29	10.77	-44.5	-55.4	3.8	7.44e-01	0	41	104	348651520	61	11958
2026-01-30 13:34:25.04	325.71	10.55	-43.9	-54.7	3.8	7.44e-01	0	41	104	348651520	59	12447
2026-01-30 13:34:28.06	326.11	10.33	-45.6	-56.6	3.8	7.42e-01	0	41	104	348651520	61	13848
2026-01-30 13:34:31.08	326.51	10.12	-49.5	-61.5	3.8	7.43e-01	0	41	104	348651520	70	14374
2026-01-30 13:34:34.10	326.91	9.90	-44.0	-54.8	3.8	7.46e-01	0	41	104	348651520	60	11932
2026-01-30 13:34:37.12	327.30	9.69	-50.5	-62.8	3.8	7.45e-01	0	41	104	348651520	71	15928
2026-01-30 13:34:40.14	327.68	9.47	-44.9	-55.6	3.8	7.44e-01	0	41	104	348651520	61	12369
2026-01-30 13:34:43.17	328.06	9.26	-44.1	-54.7	3.8	7.44e-01	0	41	104	348651520	59	12486
2026-01-30 13:34:46.19	328.43	9.05	-44.4	-54.9	3.8	7.43e-01	0	41	104	348651520	60	12034
2026-01-30 13:34:49.22	328.80	8.84	-44.4	-55.2	3.8	7.45e-01	0	41	104	348651520	60	12487
2026-01-30 13:34:52.24	329.16	8.63	-44.9	-55.7	3.8	7.41e-01	0	41	104	348651520	61	12474
2026-01-30 13:34:55.27	329.52	8.42	-49.5	-61.6	3.8	7.45e-01	0	41	104	348651520	71	13789
2026-01-30 13:34:58.30	329.87	8.21	-44.5	-55.4	3.8	7.44e-01	0	41	104	348651520	61	11962
2026-01-30 13:35:01.31	330.21	8.00	-52.0	-65.9	3.8	7.42e-01	0	41	104	348651520	76	17031
2026-01-30 13:35:04.33	330.55	7.80	-46.0	-57.1	3.8	7.43e-01	0	41	104	348651520	64	12334
2026-01-30 13:35:07.36	330.89	7.59	-44.5	-55.3	3.8	7.44e-01	0	41	104	348651520	61	11866
2026-01-30 13:35:10.38	331.22	7.39	-46.5	-57.4	3.8	7.46e-01	0	41	104	348651520	64	12727
2026-01-30 13:35:13.40	331.55	7.19	-45.7	-56.5	3.8	7.45e-01	0	41	104	348651520	63	12224
2026-01-30 13:35:16.42	331.87	6.99	-46.4	-57.5	3.8	7.45e-01	0	41	104	348651520	63	13706
2026-01-30 13:35:19.45	332.19	6.79	-47.9	-59.2	3.8	7.45e-01	0	41	104	348651520	67	13117
2026-01-30 13:35:22.47	332.50	6.59	-44.8	-55.5	3.9	7.39e-01	0	41	104	348651520	61	12110
2026-01-30 13:35:25.49	332.81	6.39	-47.9	-49.9	19.4	5.99e-01	0	41	0	349700096	67	4524
2026-01-30 13:35:28.52	333.11	6.19	-45.4	-46.8	23.6	6.01e-01	0	41	0	355467264	62	4230
2026-01-30 13:35:31.54	333.41	6.00	-45.1	-46.5	23.9	6.04e-01	0	41	0	360710144	62	4098
2026-01-30 13:35:34.56	333.70	5.80	-44.6	-45.9	24.3	6.02e-01	0	41	0	366477312	61	4050
2026-01-30 13:35:37.58	333.99	5.61	-44.7	-46.1	24.3	6.01e-01	0	41	0	372244480	61	4112
2026-01-30 13:35:40.60	334.28	5.42	-44.8	-46.2	24.2	6.04e-01	0	41	0	378011648	61	4147
2026-01-30 13:35:43.63	334.57	5.23	-45.1	-46.5	23.6	5.99e-01	0	41	0	383778816	61	4323
2026-01-30 13:35:46.65	334.85	5.04	-44.1	-45.5	24.3	5.98e-01	0	41	0	389021696	60	4084
2026-01-30 13:35:49.67	335.12	4.85	-54.3	-72.1	3.8	7.43e-01	0	41	104	391118848	79	29328
2026-01-30 13:35:52.69	335.39	4.66	-54.8	-72.6	3.8	7.44e-01	0	41	104	391118848	80	29306
2026-01-30 13:35:55.72	335.66	4.47	-55.0	-72.7	3.8	7.48e-01	0	41	104	391118848	80	29666
2026-01-30 13:35:58.73	335.93	4.28	-54.9	-72.8	3.8	7.47e-01	0	41	104	391643136	80	29782
2026-01-30 13:36:01.75	336.19	4.10	-54.8	-72.6	3.8	7.44e-01	0	41	104	391643136	80	29036
2026-01-30 13:36:04.78	336.45	3.91	-54.9	-72.7	3.8	7.45e-01	0	41	104	391643136	80	29416
2026-01-30 13:36:07.80	336.70	3.73	-55.0	-72.7	3.8	7.46e-01	0	41	104	391643136	80	29610
2026-01-30 13:36:10.82	336.95	3.55	-54.9	-72.7	3.8	7.44e-01	0	41	104	391643136	80	29418
2026-01-30 13:36:13.85	337.20	3.37	-54.8	-72.6	3.8	7.49e-01	0	41	104	391643136	80	29326
2026-01-30 13:36:16.87	337.45	3.18	-54.8	-72.6	3.8	7.46e-01	0	41	104	391643136	80	29183
2026-01-30 13:36:19.90	337.69	3.00	-54.8	-72.6	3.8	7.47e-01	0	41	104	391643136	80	29062
2026-01-30 13:36:22.93	337.93	2.83	-54.7	-72.5	3.8	7.43e-01	0	41	104	391643136	80	28996
2026-01-30 13:36:25.95	338.17	2.65	-54.7	-72.5	3.8	7.43e-01	0	41	104	391643136	80	28982
2026-01-30 13:36:28.98	338.40	2.47	-54.7	-72.5	3.8	7.45e-01	0	41	104	391643136	80	28934
2026-01-30 13:36:31.99	338.63	2.29	-54.7	-72.5	3.8	7.45e-01	0	41	104	391643136	80	28846
2026-01-30 13:36:35.01	338.86	2.12	-54.7	-72.5	3.8	7.47e-01	0	41	104	391643136	80	28769

#Closed at: 2026-01-30 13:36:37
#Recorded file [391 MB]: D:/lorett/data/31041_260130_162459.dat