passes_logs/2026/01/30/R3.2S_Murmansk/R3.2S_Murmansk__20260130_131236_SUOMI_NPP_rec.log

#Pass ID: 20260130_131236_SUOMI NPP
#Satellite: SUOMI NPP
#Configuration: NPP
#almurnet v.1.7.20251203
#Start time: 2026-01-30 13:12:38

#Version: 2.2.20231116
#Station: R3.2S_Murmansk
#Location: 33.079688 lon 68.888172 lat
#TLE: 1 37849U 11061A   26029.48304708  .00000140  00000+0  87283-4 0  9999
#TLE: 2 37849  98.7824 331.4079 0002024  38.4342 321.6978 14.19531488738761

#Time	Az	El	Level	Level2	SNR	BER	BlckErr	Temp	State	Recorded	gain1	gain2
2026-01-30 13:12:38.07	246.73	2.05	-54.2	-69.2	3.8	1.49e+00	0	39	0	0	79	20873
2026-01-30 13:12:41.08	247.04	2.18	-54.1	-69.1	3.8	1.49e+00	0	39	104	0	78	21937
2026-01-30 13:12:44.11	247.35	2.31	-54.1	-69.1	3.8	1.49e+00	0	39	104	0	78	21839
2026-01-30 13:12:47.13	247.67	2.44	-54.4	-69.4	3.8	1.49e+00	0	39	104	0	79	21451
2026-01-30 13:12:50.15	247.99	2.57	-54.6	-69.6	3.8	1.49e+00	0	39	104	0	79	21766
2026-01-30 13:12:53.18	248.31	2.70	-54.5	-69.5	3.8	1.49e+00	0	39	104	0	79	21507
2026-01-30 13:12:56.20	248.63	2.83	-54.3	-69.3	3.8	1.49e+00	0	39	104	0	79	21216
2026-01-30 13:12:59.22	248.96	2.96	-54.1	-69.1	3.8	1.49e+00	0	39	104	0	79	20680
2026-01-30 13:13:02.24	249.29	3.09	-53.8	-68.7	3.8	1.49e+00	0	39	104	0	79	19837
2026-01-30 13:13:05.27	249.62	3.22	-53.2	-68.2	3.8	1.49e+00	0	39	104	0	78	19662
2026-01-30 13:13:08.29	249.95	3.34	-52.4	-67.3	3.8	1.49e+00	0	39	104	0	76	20060
2026-01-30 13:13:11.31	250.29	3.47	-52.4	-67.3	3.8	1.49e+00	0	39	104	0	76	20032
2026-01-30 13:13:14.33	250.63	3.60	-52.4	-67.3	3.8	1.49e+00	0	39	104	0	76	19947
2026-01-30 13:13:17.36	250.97	3.73	-52.4	-67.2	3.8	1.49e+00	0	39	104	0	76	19812
2026-01-30 13:13:20.39	251.32	3.86	-52.4	-67.2	3.8	1.49e+00	0	39	104	0	76	19819
2026-01-30 13:13:23.41	251.67	3.98	-52.4	-67.3	3.8	1.49e+00	0	39	104	0	76	19999
2026-01-30 13:13:26.43	252.02	4.11	-52.3	-67.3	3.8	1.49e+00	0	40	104	0	76	19852
2026-01-30 13:13:29.46	252.38	4.24	-52.3	-67.1	3.8	1.49e+00	0	39	104	0	76	19613
2026-01-30 13:13:32.48	252.73	4.36	-52.3	-67.2	3.8	1.49e+00	0	40	104	0	76	19729
2026-01-30 13:13:35.50	253.09	4.49	-52.3	-67.2	3.8	1.49e+00	0	40	104	0	76	19832
2026-01-30 13:13:38.52	253.46	4.62	-52.3	-67.0	3.8	1.49e+00	0	40	104	0	76	19225
2026-01-30 13:13:41.55	253.83	4.74	-52.3	-66.3	3.8	1.49e+00	0	40	104	0	76	17888
2026-01-30 13:13:44.57	254.20	4.87	-51.9	-61.2	5.2	1.11e+00	0	40	0	1048576	75	10475
2026-01-30 13:13:47.59	254.57	4.99	-50.0	-54.1	11.9	1.98e-03	0	40	0	6291456	72	5528
2026-01-30 13:13:50.61	254.94	5.12	-48.7	-51.4	14.1	1.49e+00	1	40	104	10485760	69	4784
2026-01-30 13:13:53.63	255.32	5.24	-46.4	-48.2	17.9	0.00e+00	0	40	0	14680064	64	4396
2026-01-30 13:13:56.64	255.70	5.36	-46.2	-47.9	18.3	0.00e+00	0	40	0	20971520	63	4494
2026-01-30 13:13:59.66	256.09	5.49	-46.1	-47.8	18.4	0.00e+00	0	40	0	26214400	63	4458
2026-01-30 13:14:02.69	256.48	5.61	-46.5	-48.2	18.0	0.00e+00	0	40	0	32505856	63	4684
2026-01-30 13:14:05.71	256.87	5.73	-46.5	-48.3	17.8	0.00e+00	0	40	0	37748736	64	4488
2026-01-30 13:14:08.73	257.26	5.85	-46.6	-48.4	17.8	0.00e+00	0	40	0	42991616	64	4528
2026-01-30 13:14:11.76	257.66	5.97	-46.5	-48.2	18.0	0.00e+00	0	40	0	49283072	64	4436
2026-01-30 13:14:14.78	258.06	6.10	-46.3	-48.0	18.2	0.00e+00	0	40	0	54525952	64	4308
2026-01-30 13:14:17.79	258.46	6.21	-46.4	-48.1	18.1	0.00e+00	0	40	0	60817408	64	4365
2026-01-30 13:14:20.82	258.87	6.33	-46.4	-48.2	18.0	0.00e+00	0	40	0	66060288	64	4396
2026-01-30 13:14:23.83	259.28	6.45	-46.6	-48.4	17.8	0.00e+00	0	40	0	71303168	64	4530
2026-01-30 13:14:26.85	259.69	6.57	-46.2	-47.9	18.3	0.00e+00	0	40	0	77594624	64	4276
2026-01-30 13:14:29.88	260.11	6.69	-46.2	-47.9	18.4	0.00e+00	0	40	0	82837504	64	4253
2026-01-30 13:14:32.90	260.53	6.80	-46.2	-47.9	18.3	0.00e+00	0	40	0	89128960	64	4256
2026-01-30 13:14:35.93	260.95	6.92	-46.5	-48.3	18.0	0.00e+00	0	40	0	94371840	64	4464
2026-01-30 13:14:38.95	261.38	7.03	-46.3	-48.0	18.2	0.00e+00	0	40	0	99614720	64	4327
2026-01-30 13:14:41.97	261.81	7.15	-46.5	-48.2	18.1	0.00e+00	0	40	0	105906176	64	4424
2026-01-30 13:14:44.99	262.24	7.26	-46.6	-48.4	17.8	0.00e+00	0	40	0	111149056	64	4543
2026-01-30 13:14:48.02	262.68	7.37	-46.4	-48.2	18.1	0.00e+00	0	40	0	117440512	64	4410
2026-01-30 13:14:51.04	263.12	7.48	-46.3	-48.0	18.2	0.00e+00	0	40	0	122683392	64	4328
2026-01-30 13:14:54.07	263.56	7.59	-46.3	-48.0	18.2	0.00e+00	0	40	0	127926272	64	4316
2026-01-30 13:14:57.09	264.00	7.70	-46.3	-48.0	18.2	0.00e+00	0	40	0	134217728	64	4336
2026-01-30 13:15:00.10	264.45	7.81	-46.7	-48.5	17.8	0.00e+00	0	40	0	139460608	64	4583
2026-01-30 13:15:03.13	264.90	7.92	-46.8	-48.6	17.7	0.00e+00	0	40	0	145752064	64	4637
2026-01-30 13:15:06.16	265.36	8.03	-46.7	-48.5	17.8	0.00e+00	0	40	0	150994944	64	4581
2026-01-30 13:15:09.18	265.82	8.13	-46.3	-48.0	18.3	0.00e+00	0	40	0	157286400	64	4301
2026-01-30 13:15:12.21	266.28	8.23	-46.3	-48.0	18.2	0.00e+00	0	40	0	162529280	64	4332
2026-01-30 13:15:15.22	266.74	8.34	-46.9	-48.8	17.4	0.00e+00	0	40	0	167772160	64	4747
2026-01-30 13:15:18.24	267.21	8.44	-47.8	-50.2	15.7	0.00e+00	0	40	0	174063616	66	4972
2026-01-30 13:15:21.27	267.68	8.54	-48.6	-52.3	12.9	1.83e-05	0	40	0	179306496	67	5943
2026-01-30 13:15:24.29	268.16	8.64	-49.3	-54.7	9.8	8.63e-03	0	40	0	185597952	69	7014
2026-01-30 13:15:27.31	268.63	8.73	-49.9	-57.8	6.5	1.58e-01	0	40	0	190840832	70	9473
2026-01-30 13:15:30.33	269.11	8.83	-50.1	-57.6	6.9	2.55e-01	0	40	0	196083712	70	9239
2026-01-30 13:15:33.36	269.60	8.93	-51.3	-63.9	3.8	1.44e+00	0	40	104	200278016	73	16017
2026-01-30 13:15:36.39	270.09	9.02	-49.1	-52.8	12.8	1.33e-04	0	40	0	202375168	70	5284
2026-01-30 13:15:39.40	270.57	9.11	-48.0	-50.5	15.6	0.00e+00	0	40	0	208666624	68	4596
2026-01-30 13:15:42.42	271.07	9.20	-47.1	-49.1	17.1	0.00e+00	0	40	0	213909504	66	4379
2026-01-30 13:15:45.45	271.56	9.29	-46.6	-48.3	18.0	0.00e+00	0	40	0	219152384	65	4233
2026-01-30 13:15:48.47	272.06	9.38	-46.6	-48.4	18.1	0.00e+00	0	40	0	225443840	65	4245
2026-01-30 13:15:51.49	272.56	9.47	-46.1	-47.7	18.7	0.00e+00	0	40	0	230686720	64	4186
2026-01-30 13:15:54.51	273.06	9.55	-45.9	-47.4	19.1	0.00e+00	0	40	0	236978176	63	4257
2026-01-30 13:15:57.53	273.57	9.63	-46.4	-48.0	18.5	0.00e+00	0	40	0	242221056	63	4567
2026-01-30 13:16:00.56	274.08	9.71	-46.7	-48.4	18.1	0.00e+00	0	40	0	247463936	64	4522
2026-01-30 13:16:03.58	274.59	9.79	-46.8	-48.6	17.9	0.00e+00	0	40	0	253755392	64	4607
2026-01-30 13:16:06.60	275.10	9.87	-46.9	-48.6	17.9	0.00e+00	0	40	0	258998272	64	4651
2026-01-30 13:16:09.63	275.62	9.95	-46.7	-48.5	18.0	0.00e+00	0	40	0	265289728	64	4570
2026-01-30 13:16:12.65	276.14	10.02	-46.4	-48.1	18.4	0.00e+00	0	41	0	270532608	64	4360
2026-01-30 13:16:15.67	276.66	10.09	-46.1	-47.7	18.8	0.00e+00	0	40	0	276824064	64	4158
2026-01-30 13:16:18.70	277.19	10.16	-46.5	-48.1	18.4	0.00e+00	0	41	0	282066944	64	4391
2026-01-30 13:16:21.73	277.72	10.23	-47.3	-49.2	17.4	0.00e+00	0	41	0	287309824	65	4687
2026-01-30 13:16:24.74	278.24	10.30	-47.4	-49.3	17.5	0.00e+00	0	40	0	293601280	65	4728
2026-01-30 13:16:27.77	278.78	10.36	-46.7	-48.4	18.2	0.00e+00	0	41	0	298844160	65	4259
2026-01-30 13:16:30.79	279.31	10.42	-46.4	-48.1	18.5	0.00e+00	0	41	0	305135616	64	4359
2026-01-30 13:16:33.81	279.85	10.48	-46.7	-48.4	18.2	0.00e+00	0	40	0	310378496	64	4527
2026-01-30 13:16:36.84	280.39	10.54	-46.4	-48.0	18.7	0.00e+00	0	41	0	315621376	64	4302
2026-01-30 13:16:39.86	280.93	10.60	-45.8	-47.2	19.4	0.00e+00	0	40	0	321912832	63	4191
2026-01-30 13:16:42.88	281.47	10.65	-46.6	-48.2	18.6	0.00e+00	0	40	0	327155712	63	4678
2026-01-30 13:16:45.90	282.01	10.70	-46.7	-48.4	18.3	7.00e-07	0	40	0	333447168	64	4519
2026-01-30 13:16:48.92	282.56	10.75	-46.2	-47.8	18.9	0.00e+00	0	41	0	338690048	64	4212
2026-01-30 13:16:51.94	283.10	10.80	-46.8	-48.5	18.2	0.00e+00	0	41	0	343932928	64	4572
2026-01-30 13:16:54.96	283.65	10.85	-47.4	-49.3	17.5	0.00e+00	0	40	0	350224384	65	4745
2026-01-30 13:16:57.99	284.20	10.89	-46.9	-48.6	18.2	0.00e+00	0	40	0	355467264	65	4356
2026-01-30 13:17:01.01	284.75	10.93	-46.6	-48.2	18.5	0.00e+00	0	40	0	361758720	64	4424
2026-01-30 13:17:04.04	285.31	10.97	-47.3	-49.1	17.7	0.00e+00	0	40	0	367001600	65	4630
2026-01-30 13:17:07.06	285.86	11.01	-47.4	-49.2	17.7	0.00e+00	0	40	0	372244480	65	4676
2026-01-30 13:17:10.09	286.42	11.04	-47.7	-49.6	17.3	0.00e+00	0	40	0	378535936	65	4922
2026-01-30 13:17:13.11	286.98	11.07	-48.7	-51.1	16.0	0.00e+00	0	41	0	383778816	68	4893
2026-01-30 13:17:16.14	287.54	11.10	-48.9	-51.4	15.6	0.00e+00	0	41	0	390070272	68	5088
2026-01-30 13:17:19.16	288.10	11.13	-48.5	-50.8	16.3	0.00e+00	0	40	0	395313152	68	4727
2026-01-30 13:17:22.18	288.66	11.15	-48.0	-50.1	17.0	0.00e+00	0	41	0	400556032	68	4362
2026-01-30 13:17:25.21	289.22	11.17	-48.0	-50.1	16.9	0.00e+00	0	41	0	406847488	67	4603
2026-01-30 13:17:28.23	289.78	11.19	-47.2	-48.9	18.1	0.00e+00	0	41	0	412090368	66	4275
2026-01-30 13:17:31.25	290.34	11.21	-47.0	-48.7	18.4	0.00e+00	0	40	0	418381824	65	4395
2026-01-30 13:17:34.27	290.90	11.22	-47.0	-48.6	18.3	0.00e+00	0	40	0	423624704	65	4390
2026-01-30 13:17:37.29	291.47	11.24	-46.6	-48.2	18.8	0.00e+00	0	40	0	428867584	65	4161
2026-01-30 13:17:40.32	292.03	11.25	-46.4	-47.8	19.2	0.00e+00	0	41	0	435159040	64	4242
2026-01-30 13:17:43.34	292.60	11.25	-46.5	-48.1	18.8	0.00e+00	0	40	0	440401920	64	4360
2026-01-30 13:17:46.36	293.16	11.26	-46.4	-48.0	18.9	0.00e+00	0	40	0	446693376	64	4309
2026-01-30 13:17:49.38	293.72	11.26	-46.2	-47.7	19.2	0.00e+00	0	40	0	451936256	64	4149
2026-01-30 13:17:52.40	294.29	11.26	-46.3	-47.8	19.0	0.00e+00	0	40	0	457179136	64	4236
2026-01-30 13:17:55.43	294.85	11.26	-46.0	-47.5	19.3	0.00e+00	0	40	0	463470592	64	4069
2026-01-30 13:17:58.45	295.42	11.25	-45.8	-47.3	19.6	0.00e+00	0	40	0	468713472	63	4194
2026-01-30 13:18:01.48	295.98	11.24	-45.9	-47.4	19.3	0.00e+00	0	41	0	475004928	63	4264
2026-01-30 13:18:04.50	296.55	11.23	-45.7	-47.1	19.7	0.00e+00	0	40	0	480247808	63	4123
2026-01-30 13:18:07.53	297.11	11.22	-45.5	-46.9	19.8	0.00e+00	0	40	0	485490688	62	4279
2026-01-30 13:18:10.55	297.67	11.21	-45.8	-47.3	19.4	0.00e+00	0	41	0	491782144	62	4454
2026-01-30 13:18:13.58	298.24	11.19	-46.0	-47.5	19.2	0.00e+00	0	41	0	497025024	62	4594
2026-01-30 13:18:16.60	298.80	11.17	-45.6	-47.0	19.6	0.00e+00	0	41	0	503316480	62	4302
2026-01-30 13:18:19.63	299.36	11.15	-45.3	-46.7	19.9	0.00e+00	0	40	0	508559360	62	4176
2026-01-30 13:18:22.66	299.92	11.12	-45.6	-47.0	19.6	0.00e+00	0	41	0	513802240	62	4316
2026-01-30 13:18:25.68	300.48	11.10	-45.4	-46.9	19.8	0.00e+00	0	40	0	520093696	62	4248
2026-01-30 13:18:28.70	301.04	11.07	-45.0	-46.3	20.2	0.00e+00	0	41	0	525336576	61	4215
2026-01-30 13:18:31.73	301.59	11.04	-45.1	-46.5	20.1	0.00e+00	0	40	0	531628032	61	4295
2026-01-30 13:18:34.75	302.15	11.00	-45.3	-46.7	19.8	0.00e+00	0	41	0	536870912	61	4427
2026-01-30 13:18:37.77	302.70	10.97	-44.9	-46.2	20.4	0.00e+00	0	40	0	543162368	61	4156
2026-01-30 13:18:40.79	303.25	10.93	-44.7	-46.0	20.5	0.00e+00	0	40	0	548405248	61	4054
2026-01-30 13:18:43.81	303.80	10.89	-45.0	-46.3	20.2	0.00e+00	0	41	0	553648128	61	4204
2026-01-30 13:18:46.83	304.35	10.84	-45.0	-46.4	20.1	0.00e+00	0	40	0	559939584	61	4251
2026-01-30 13:18:49.85	304.90	10.80	-44.8	-46.1	20.4	0.00e+00	0	40	0	565182464	61	4100
2026-01-30 13:18:52.88	305.45	10.75	-45.0	-46.3	20.2	0.00e+00	0	41	0	571473920	61	4199
2026-01-30 13:18:55.91	305.99	10.70	-44.9	-46.3	20.2	0.00e+00	0	40	0	576716800	61	4196
2026-01-30 13:18:58.93	306.54	10.65	-44.9	-46.2	20.2	0.00e+00	0	41	0	581959680	61	4181
2026-01-30 13:19:01.95	307.08	10.59	-45.0	-46.3	20.1	0.00e+00	0	41	0	588251136	61	4220
2026-01-30 13:19:04.97	307.61	10.54	-45.4	-46.8	19.6	0.00e+00	0	40	0	593494016	61	4490
2026-01-30 13:19:07.99	308.15	10.48	-45.6	-47.1	19.4	0.00e+00	0	41	0	599785472	61	4632
2026-01-30 13:19:11.01	308.68	10.42	-45.5	-47.0	19.4	0.00e+00	0	40	0	605028352	62	4316
2026-01-30 13:19:14.04	309.22	10.36	-45.2	-46.6	19.8	0.00e+00	0	41	0	610271232	62	4110
2026-01-30 13:19:17.06	309.75	10.29	-44.7	-46.0	20.3	0.00e+00	0	40	0	616562688	61	4088
2026-01-30 13:19:20.08	310.27	10.23	-44.2	-45.5	20.8	0.00e+00	0	40	0	621805568	60	4053
2026-01-30 13:19:23.11	310.80	10.16	-44.2	-45.4	21.1	0.00e+00	0	40	0	628097024	59	4268
2026-01-30 13:19:26.13	311.32	10.09	-44.3	-45.5	21.0	0.00e+00	0	40	0	633339904	59	4331
2026-01-30 13:19:29.15	311.84	10.02	-44.6	-45.9	20.7	0.00e+00	0	41	0	638582784	59	4520
2026-01-30 13:19:32.18	312.36	9.94	-44.6	-45.9	20.4	0.00e+00	0	41	0	644874240	60	4245
2026-01-30 13:19:35.20	312.88	9.87	-44.5	-45.8	20.4	0.00e+00	0	40	0	650117120	60	4225
2026-01-30 13:19:38.21	313.39	9.79	-44.4	-45.6	20.6	0.00e+00	0	40	0	656408576	60	4123
2026-01-30 13:19:41.23	313.90	9.71	-44.5	-45.7	20.5	0.00e+00	0	41	0	661651456	60	4172
2026-01-30 13:19:44.25	314.40	9.63	-45.0	-46.4	19.9	0.00e+00	0	40	0	666894336	60	4494
2026-01-30 13:19:47.28	314.91	9.55	-44.5	-45.8	20.4	0.00e+00	0	40	0	673185792	60	4219
2026-01-30 13:19:50.30	315.41	9.46	-44.4	-45.6	20.9	0.00e+00	0	40	0	678428672	59	4389
2026-01-30 13:19:53.32	315.91	9.38	-44.6	-45.8	20.7	0.00e+00	0	41	0	684720128	59	4482
2026-01-30 13:19:56.35	316.40	9.29	-44.7	-46.0	20.2	0.00e+00	0	40	0	689963008	60	4315
2026-01-30 13:19:59.37	316.90	9.20	-44.5	-45.7	20.4	0.00e+00	0	40	0	696254464	60	4191
2026-01-30 13:20:02.39	317.39	9.11	-44.6	-45.9	20.3	0.00e+00	0	40	0	701497344	60	4251
2026-01-30 13:20:05.42	317.88	9.02	-45.0	-46.4	19.8	0.00e+00	0	40	0	706740224	60	4526
2026-01-30 13:20:08.44	318.36	8.93	-45.6	-47.1	19.1	0.00e+00	0	41	0	713031680	61	4600
2026-01-30 13:20:11.47	318.84	8.83	-45.9	-47.5	18.7	0.00e+00	0	40	0	718274560	62	4589
2026-01-30 13:20:14.48	319.32	8.74	-45.9	-47.5	18.8	0.00e+00	0	40	0	724566016	62	4581
2026-01-30 13:20:17.50	319.79	8.64	-46.0	-47.7	18.6	0.00e+00	0	41	0	729808896	62	4657
2026-01-30 13:20:20.52	320.26	8.54	-46.1	-47.8	18.5	0.00e+00	0	40	0	735051776	62	4729
2026-01-30 13:20:23.55	320.73	8.44	-46.1	-47.7	18.5	0.00e+00	0	41	0	741343232	63	4417
2026-01-30 13:20:26.57	321.20	8.34	-46.4	-48.1	18.1	0.00e+00	0	40	0	746586112	63	4643
2026-01-30 13:20:29.59	321.66	8.24	-46.4	-48.1	18.1	0.00e+00	0	40	0	752877568	63	4643
2026-01-30 13:20:32.61	322.12	8.13	-46.6	-48.4	17.9	0.00e+00	0	40	0	758120448	63	4771
2026-01-30 13:20:35.64	322.58	8.03	-46.4	-48.2	18.0	0.00e+00	0	40	0	763363328	63	4674
2026-01-30 13:20:38.66	323.03	7.92	-46.8	-48.7	17.5	0.00e+00	0	41	0	769654784	64	4676
2026-01-30 13:20:41.69	323.48	7.82	-47.4	-49.6	16.6	0.00e+00	0	41	0	774897664	65	4888
2026-01-30 13:20:44.71	323.93	7.71	-47.6	-49.9	16.3	0.00e+00	0	41	0	781189120	65	5068
2026-01-30 13:20:47.72	324.37	7.60	-47.3	-49.4	16.7	0.00e+00	0	40	0	786432000	66	4514
2026-01-30 13:20:50.74	324.81	7.49	-47.2	-49.3	16.9	0.00e+00	0	40	0	791674880	66	4448
2026-01-30 13:20:53.76	325.25	7.38	-47.0	-49.1	17.0	0.00e+00	0	40	0	797966336	65	4622
2026-01-30 13:20:56.78	325.68	7.27	-47.1	-49.2	16.9	0.00e+00	0	40	0	803209216	65	4663
2026-01-30 13:20:59.81	326.11	7.16	-47.3	-49.4	16.6	0.00e+00	0	40	0	809500672	65	4795
2026-01-30 13:21:02.83	326.54	7.05	-47.4	-49.7	16.4	0.00e+00	0	40	0	814743552	65	4930
2026-01-30 13:21:05.85	326.96	6.93	-47.5	-49.8	16.3	0.00e+00	0	40	0	819986432	65	5002
2026-01-30 13:21:08.87	327.38	6.82	-47.2	-49.3	16.7	0.00e+00	0	40	0	826277888	65	4748
2026-01-30 13:21:11.90	327.80	6.70	-46.9	-48.9	17.1	0.00e+00	0	40	0	831520768	65	4511
2026-01-30 13:21:14.92	328.22	6.59	-46.9	-49.0	17.0	0.00e+00	0	40	0	837812224	65	4561
2026-01-30 13:21:17.94	328.63	6.47	-46.8	-48.8	17.2	0.00e+00	0	41	0	843055104	65	4452
2026-01-30 13:21:20.96	329.04	6.35	-46.6	-48.5	17.5	0.00e+00	0	41	0	848297984	64	4557
2026-01-30 13:21:23.98	329.44	6.23	-46.5	-48.4	17.6	0.00e+00	0	41	0	854589440	64	4498
2026-01-30 13:21:27.00	329.84	6.11	-46.3	-48.1	17.7	0.00e+00	0	41	0	859832320	64	4379
2026-01-30 13:21:30.02	330.24	6.00	-46.4	-48.2	17.6	0.00e+00	0	41	0	866123776	64	4415
2026-01-30 13:21:33.04	330.64	5.88	-46.5	-48.4	17.4	0.00e+00	0	41	0	871366656	64	4522
2026-01-30 13:21:36.07	331.03	5.75	-46.6	-48.5	17.4	0.00e+00	0	40	0	876609536	64	4572
2026-01-30 13:21:39.09	331.42	5.63	-46.6	-48.6	17.2	0.00e+00	0	40	0	882900992	64	4643
2026-01-30 13:21:42.12	331.81	5.51	-46.7	-48.7	17.1	0.00e+00	0	41	0	888143872	64	4663
2026-01-30 13:21:45.13	332.19	5.39	-46.4	-48.3	17.4	0.00e+00	0	41	0	894435328	64	4479
2026-01-30 13:21:48.16	332.57	5.27	-46.4	-48.3	17.4	0.00e+00	0	40	0	899678208	64	4484
2026-01-30 13:21:51.18	332.95	5.14	-46.1	-47.9	17.8	0.00e+00	0	41	0	904921088	64	4244
2026-01-30 13:21:54.21	333.32	5.02	-46.0	-47.8	18.0	0.00e+00	0	40	0	911212544	63	4444
2026-01-30 13:21:57.23	333.70	4.90	-53.0	-68.0	3.8	1.49e+00	0	41	104	912261120	76	21556
2026-01-30 13:22:00.25	334.06	4.77	-53.5	-68.4	3.8	1.49e+00	0	41	104	912261120	77	21428
2026-01-30 13:22:03.27	334.43	4.65	-53.5	-68.5	3.8	1.49e+00	0	41	104	912261120	77	21668
2026-01-30 13:22:06.29	334.79	4.52	-53.3	-68.2	3.8	1.49e+00	0	41	104	912261120	77	20997
2026-01-30 13:22:09.31	335.15	4.40	-53.4	-68.3	3.8	1.49e+00	0	41	104	912261120	77	21217
2026-01-30 13:22:12.34	335.51	4.27	-53.5	-68.4	3.8	1.49e+00	0	41	104	912261120	77	21495
2026-01-30 13:22:15.37	335.86	4.15	-53.5	-68.5	3.8	1.49e+00	0	41	104	912261120	77	21630
2026-01-30 13:22:18.39	336.21	4.02	-53.4	-68.4	3.8	1.49e+00	0	41	104	912261120	77	21421
2026-01-30 13:22:21.41	336.56	3.89	-53.4	-68.4	3.8	1.49e+00	0	41	104	912261120	77	21297
2026-01-30 13:22:24.44	336.90	3.77	-53.3	-68.3	3.8	1.49e+00	0	41	104	912261120	77	21106
2026-01-30 13:22:27.46	337.25	3.64	-53.3	-68.3	3.8	1.49e+00	0	41	104	912261120	77	21134
2026-01-30 13:22:30.49	337.59	3.51	-53.3	-68.3	3.8	1.49e+00	0	41	104	912261120	77	21040
2026-01-30 13:22:33.51	337.92	3.39	-53.3	-68.3	3.8	1.49e+00	0	41	104	912261120	77	21018
2026-01-30 13:22:36.54	338.26	3.26	-53.3	-68.2	3.8	1.49e+00	0	41	104	912261120	77	20943
2026-01-30 13:22:39.56	338.59	3.13	-53.2	-68.2	3.8	1.49e+00	0	41	104	912261120	77	20913
2026-01-30 13:22:42.59	338.92	3.00	-53.2	-68.2	3.8	1.49e+00	0	41	104	912261120	77	20900
2026-01-30 13:22:45.61	339.24	2.88	-53.2	-68.2	3.8	1.49e+00	0	41	104	912261120	77	20847
2026-01-30 13:22:48.63	339.56	2.75	-53.2	-68.2	3.8	1.49e+00	0	41	104	912261120	77	20829
2026-01-30 13:22:51.66	339.88	2.62	-53.2	-68.2	3.8	1.49e+00	0	41	104	912261120	77	20829
2026-01-30 13:22:54.67	340.20	2.49	-53.2	-68.1	3.8	1.49e+00	0	41	104	912261120	77	20761
2026-01-30 13:22:57.69	340.52	2.36	-53.2	-68.1	3.8	1.49e+00	0	41	104	912261120	77	20743
2026-01-30 13:23:00.72	340.83	2.23	-53.2	-68.1	3.8	1.49e+00	0	41	104	912261120	77	20734
2026-01-30 13:23:03.74	341.14	2.11	-53.2	-68.1	3.8	1.49e+00	0	41	104	912261120	77	20717

#Closed at: 2026-01-30 13:23:06
#Recorded file [912 MB]: D:/lorett/data/31041_260130_161237.dat